###2023-12-09 12:58:56.979149$GAGSA,A,3,04,19,21,27,,,,,,,,,1.1,0.6,0.9*26
###2023-12-09 12:58:56.980835$GBGSA,A,3,14,24,25,26,33,,,,,,,,1.1,0.6,0.9*2F
###2023-12-09 12:58:56.983199$GPGSV,2,1,08,03,36,264,45,04,31,311,42,16,48,211,46,26,78,209,48*71
###2023-12-09 12:58:56.985547$GPGSV,2,2,08,28,50,069,44,29,25,063,40,31,69,033,47,32,20,139,41*7F
###2023-12-09 12:58:56.987902$GLGSV,2,1,06,65,23,328,41,71,42,172,45,72,73,273,46,73,37,041,45*6A
###2023-12-09 12:58:56.989657$GLGSV,2,2,06,74,70,334,43,75,31,252,46,,,,,,,,*63
###2023-12-09 12:58:56.992010$GAGSV,1,1,04,04,28,312,40,19,85,226,40,21,85,133,46,27,34,048,44*62
###2023-12-09 12:58:56.994356$GBGSV,2,1,05,14,44,193,46,24,74,022,49,25,40,261,46,26,27,062,42*6E
###2023-12-09 12:58:56.995836$GBGSV,2,2,05,33,58,234,47,,,,,,,,,,,,*55
###2023-12-09 12:58:56.997138$GNVTG,89.65,T,,M,3.60,N,6.66,K,A*12
###2023-12-09 12:58:56.998803$GNGST,175856.10,18.000,,,,0.079,0.067,0.160*5F
###2023-12-09 12:58:57.000102$GNZDA,175856.10,09,12,2023,00,00*78
###2023-12-09 12:58:57.000744$GNEBP,,,,,,M*13
###2023-12-09 12:58:57.165671$GNGGA,175856.30,4138.0324551,N,07032.2680964,W,1,24,0.6,13.236,M,-29.743,M,0.0,*5D
###2023-12-09 12:58:57.364127$GNGGA,175856.50,4138.0324138,N,07032.2678273,W,1,24,0.6,13.199,M,-29.743,M,0.0,*5C
###2023-12-09 12:58:57.563789$GNGGA,175856.70,4138.0324312,N,07032.2675757,W,1,24,0.6,13.223,M,-29.743,M,0.0,*58
###2023-12-09 12:58:57.763968$GNGGA,175856.90,4138.0324416,N,07032.2673085,W,1,24,0.6,13.235,M,-29.743,M,0.0,*5C
###2023-12-09 12:58:57.965544$GNRMC,175857.10,A,4138.0323854,N,07032.2670426,W,3.62,109.80,091223,,,A*56
###2023-12-09 12:58:57.968444$GNGGA,175857.10,4138.0323854,N,07032.2670426,W,1,24,0.6,13.217,M,-29.743,M,0.0,*56
###2023-12-09 12:58:57.970310$GPGSA,A,3,03,04,16,26,28,29,31,32,,,,,1.1,0.6,0.9*3B
###2023-12-09 12:58:57.972060$GLGSA,A,3,65,71,72,73,74,75,,,,,,,1.1,0.6,0.9*24
###2023-12-09 12:58:57.973650$GAGSA,A,3,04,19,21,27,,,,,,,,,1.1,0.6,0.9*26
###2023-12-09 12:58:57.975311$GBGSA,A,3,14,24,25,26,33,,,,,,,,1.1,0.6,0.9*2F
###2023-12-09 12:58:57.977651$GPGSV,2,1,08,03,36,264,45,04,31,311,42,16,48,211,47,26,78,209,49*71
###2023-12-09 12:58:57.979991$GPGSV,2,2,08,28,50,069,45,29,25,063,42,31,69,033,47,32,20,139,41*7C
###2023-12-09 12:58:57.982325$GLGSV,2,1,06,65,23,328,41,71,42,172,46,72,73,273,46,73,37,041,45*69
###2023-12-09 12:58:57.984088$GLGSV,2,2,06,74,70,334,43,75,31,252,45,,,,,,,,*60
###2023-12-09 12:58:57.986415$GAGSV,1,1,04,04,28,312,41,19,85,226,41,21,85,133,46,27,34,048,43*65
###2023-12-09 12:58:57.988757$GBGSV,2,1,05,14,44,193,45,24,74,022,49,25,40,261,47,26,27,062,43*6D
###2023-12-09 12:58:57.990211$GBGSV,2,2,05,33,58,234,48,,,,,,,,,,,,*5A
###2023-12-09 12:58:57.991544$GNVTG,109.80,T,,M,3.62,N,6.70,K,A*25
###2023-12-09 12:58:57.993196$GNGST,175857.10,18.000,,,,0.080,0.067,0.160*58
###2023-12-09 12:58:57.994487$GNZDA,175857.10,09,12,2023,00,00*79
###2023-12-09 12:58:57.995136$GNEBP,,,,,,M*13
###2023-12-09 12:58:58.162980$GNGGA,175857.30,4138.0323430,N,07032.2667914,W,1,24,0.6,13.220,M,-29.743,M,0.0,*54
###2023-12-09 12:58:58.363668$GNGGA,175857.50,4138.0323597,N,07032.2665311,W,1,24,0.6,13.253,M,-29.743,M,0.0,*57
###2023-12-09 12:58:58.562665$GNGGA,175857.70,4138.0323499,N,07032.2662614,W,1,24,0.6,13.227,M,-29.743,M,0.0,*5E
###2023-12-09 12:58:58.763149$GNGGA,175857.90,4138.0323074,N,07032.2660030,W,1,24,0.6,13.216,M,-29.743,M,0.0,*57
###2023-12-09 12:58:58.968157$GNRMC,175858.10,A,4138.0322836,N,07032.2657469,W,3.52,90.83,091223,,,A*63
###2023-12-09 12:58:58.971041$GNGGA,175858.10,4138.0322836,N,07032.2657469,W,1,24,0.6,13.253,M,-29.743,M,0.0,*52
###2023-12-09 12:58:58.972903$GPGSA,A,3,03,04,16,26,28,29,31,32,,,,,1.1,0.6,0.9*3B
###2023-12-09 12:58:58.974632$GLGSA,A,3,65,71,72,73,74,75,,,,,,,1.1,0.6,0.9*24
###2023-12-09 12:58:58.976219$GAGSA,A,3,04,19,21,27,,,,,,,,,1.1,0.6,0.9*26
###2023-12-09 12:58:58.977863$GBGSA,A,3,14,24,25,26,33,,,,,,,,1.1,0.6,0.9*2F
###2023-12-09 12:58:58.980205$GPGSV,2,1,08,03,36,264,45,04,31,311,42,16,48,211,48,26,78,209,48*7F
###2023-12-09 12:58:58.982547$GPGSV,2,2,08,28,50,069,44,29,25,063,39,31,69,033,46,32,20,139,42*73
###2023-12-09 12:58:58.984893$GLGSV,2,1,06,65,23,328,41,71,42,172,47,72,73,273,46,73,37,041,45*68
###2023-12-09 12:58:58.986670$GLGSV,2,2,06,74,70,334,43,75,31,252,45,,,,,,,,*60
###2023-12-09 12:58:58.989004$GAGSV,1,1,04,04,28,312,40,19,85,226,41,21,85,133,46,27,34,048,42*65
###2023-12-09 12:58:58.991344$GBGSV,2,1,05,14,44,193,46,24,74,022,48,25,40,261,46,26,27,062,42*6F
###2023-12-09 12:58:58.992804$GBGSV,2,2,05,33,58,234,49,,,,,,,,,,,,*5B
###2023-12-09 12:58:58.994100$GNVTG,90.83,T,,M,3.52,N,6.52,K,A*14
###2023-12-09 12:58:58.995769$GNGST,175858.10,18.000,,,,0.080,0.067,0.160*57
###2023-12-09 12:58:58.997068$GNZDA,175858.10,09,12,2023,00,00*76
###2023-12-09 12:58:58.997710$GNEBP,,,,,,M*13
###2023-12-09 12:58:59.163575$GNGGA,175858.30,4138.0322897,N,07032.2654781,W,1,24,0.6,13.264,M,-29.743,M,0.0,*59
###2023-12-09 12:58:59.364902$GNGGA,175858.50,4138.0322757,N,07032.2652131,W,1,24,0.6,13.228,M,-29.743,M,0.0,*5F
###2023-12-09 12:58:59.564936$GNGGA,175858.70,4138.0322692,N,07032.2649586,W,1,24,0.6,13.245,M,-29.743,M,0.0,*5C
###2023-12-09 12:58:59.765344$GNGGA,175858.90,4138.0322699,N,07032.2646934,W,1,24,0.6,13.268,M,-29.743,M,0.0,*5C
###2023-12-09 12:58:59.966720$GNRMC,175859.10,A,4138.0322631,N,07032.2644286,W,3.48,89.60,091223,,,A*60
###2023-12-09 12:58:59.969607$GNGGA,175859.10,4138.0322631,N,07032.2644286,W,1,24,0.6,13.251,M,-29.743,M,0.0,*5D
###2023-12-09 12:58:59.971486$GPGSA,A,3,03,04,16,26,28,29,31,32,,,,,1.1,0.6,0.9*3B
###2023-12-09 12:58:59.973204$GLGSA,A,3,65,71,72,73,74,75,,,,,,,1.1,0.6,0.9*24
###2023-12-09 12:58:59.974799$GAGSA,A,3,04,19,21,27,,,,,,,,,1.1,0.6,0.9*26
###2023-12-09 12:58:59.976453$GBGSA,A,3,14,24,25,26,33,,,,,,,,1.1,0.6,0.9*2F
###2023-12-09 12:58:59.978797$GPGSV,2,1,08,03,36,264,46,04,31,311,41,16,48,211,47,26,78,209,48*70
###2023-12-09 12:58:59.981138$GPGSV,2,2,08,28,50,069,44,29,25,063,40,31,69,033,47,32,20,139,43*7D
###2023-12-09 12:58:59.983489$GLGSV,2,1,06,65,23,328,41,71,42,172,47,72,73,273,47,73,37,041,45*69
###2023-12-09 12:58:59.985238$GLGSV,2,2,06,74,70,334,43,75,31,252,46,,,,,,,,*63
###2023-12-09 12:58:59.987598$GAGSV,1,1,04,04,28,312,40,19,85,226,41,21,85,133,46,27,34,048,43*64
###2023-12-09 12:58:59.989958$GBGSV,2,1,05,14,44,193,47,24,74,022,48,25,40,261,47,26,27,062,42*6F
###2023-12-09 12:58:59.991437$GBGSV,2,2,05,33,58,234,48,,,,,,,,,,,,*5A
###2023-12-09 12:58:59.992735$GNVTG,89.60,T,,M,3.48,N,6.44,K,A*1D
###2023-12-09 12:58:59.994389$GNGST,175859.10,18.000,,,,0.080,0.067,0.160*56
###2023-12-09 12:58:59.995697$GNZDA,175859.10,09,12,2023,00,00*77
###2023-12-09 12:58:59.996339$GNEBP,,,,,,M*13
###2023-12-09 12:59:00.163526$GNGGA,175859.30,4138.0322799,N,07032.2641849,W,1,24,0.6,13.262,M,-29.743,M,0.0,*50
###2023-12-09 12:59:00.363258$GNGGA,175859.50,4138.0323020,N,07032.2639296,W,1,24,0.6,13.274,M,-29.743,M,0.0,*52
###2023-12-09 12:59:00.563700$GNGGA,175859.70,4138.0322995,N,07032.2636709,W,1,24,0.6,13.233,M,-29.743,M,0.0,*59
###2023-12-09 12:59:00.763870$GNGGA,175859.90,4138.0323166,N,07032.2634351,W,1,24,0.6,13.250,M,-29.743,M,0.0,*5C
###2023-12-09 12:59:00.965434$GNRMC,175900.10,A,4138.0323530,N,07032.2631892,W,3.62,84.62,091223,,,A*64
###2023-12-09 12:59:00.968306$GNGGA,175900.10,4138.0323530,N,07032.2631892,W,1,24,0.6,13.288,M,-29.743,M,0.0,*5A
###2023-12-09 12:59:00.970167$GPGSA,A,3,03,04,16,26,28,29,31,32,,,,,1.1,0.6,0.9*3B
###2023-12-09 12:59:00.971920$GLGSA,A,3,65,71,72,73,74,75,,,,,,,1.1,0.6,0.9*24
###2023-12-09 12:59:00.973508$GAGSA,A,3,04,19,21,27,,,,,,,,,1.1,0.6,0.9*26
###2023-12-09 12:59:00.975169$GBGSA,A,3,14,24,25,26,33,,,,,,,,1.1,0.6,0.9*2F
###2023-12-09 12:59:00.977500$GPGSV,2,1,08,03,36,264,46,04,31,311,43,16,48,211,47,26,78,209,48*72
###2023-12-09 12:59:00.979849$GPGSV,2,2,08,28,50,069,44,29,25,063,41,31,69,033,47,32,20,139,40*7F
###2023-12-09 12:59:00.982185$GLGSV,2,1,06,65,23,328,41,71,42,172,46,72,73,273,46,73,37,041,45*69
###2023-12-09 12:59:00.983953$GLGSV,2,2,06,74,70,334,43,75,31,252,46,,,,,,,,*63
###2023-12-09 12:59:00.986289$GAGSV,1,1,04,04,28,312,41,19,85,226,41,21,85,133,46,27,34,048,42*64
###2023-12-09 12:59:00.988879$GBGSV,2,1,05,14,44,193,46,24,74,022,48,25,40,261,46,26,27,062,42*6F
###2023-12-09 12:59:00.990359$GBGSV,2,2,05,33,58,234,48,,,,,,,,,,,,*5A
###2023-12-09 12:59:00.991671$GNVTG,84.62,T,,M,3.62,N,6.70,K,A*1D
###2023-12-09 12:59:00.993323$GNGST,175900.10,18.000,,,,0.080,0.067,0.160*5B
###2023-12-09 12:59:00.994632$GNZDA,175900.10,09,12,2023,00,00*7A
###2023-12-09 12:59:00.995276$GNEBP,,,,,,M*13
###2023-12-09 12:59:01.162730$GNGGA,175900.30,4138.0323476,N,07032.2629295,W,1,24,0.6,13.251,M,-29.743,M,0.0,*5B
###2023-12-09 12:59:01.364582$GNGGA,175900.50,4138.0323248,N,07032.2626966,W,1,24,0.6,13.239,M,-29.743,M,0.0,*50
###2023-12-09 12:59:01.563695$GNGGA,175900.70,4138.0323379,N,07032.2624617,W,1,24,0.6,13.284,M,-29.743,M,0.0,*5C
