###2023-12-09 13:30:46.020382$GNZDA,183045.10,09,12,2023,00,00*7B
###2023-12-09 13:30:46.021043$GNEBP,,,,,,M*13
###2023-12-09 13:30:46.192677$GNGGA,183045.30,4138.0344664,N,07032.4135945,W,1,21,0.9,12.722,M,-29.745,M,0.0,*5C
###2023-12-09 13:30:46.387502$GNGGA,183045.50,4138.0344690,N,07032.4135785,W,1,21,0.9,12.702,M,-29.745,M,0.0,*51
###2023-12-09 13:30:46.585845$GNGGA,183045.70,4138.0344703,N,07032.4136241,W,1,21,0.9,12.731,M,-29.745,M,0.0,*56
###2023-12-09 13:30:46.786672$GNGGA,183045.90,4138.0344678,N,07032.4136970,W,1,22,0.7,12.752,M,-29.745,M,0.0,*54
###2023-12-09 13:30:46.991431$GNRMC,183046.10,A,4138.0344660,N,07032.4137187,W,0.19,267.19,091223,,,A*57
###2023-12-09 13:30:46.994492$GNGGA,183046.10,4138.0344660,N,07032.4137187,W,1,22,0.7,12.756,M,-29.745,M,0.0,*53
###2023-12-09 13:30:46.996382$GPGSA,A,3,03,04,16,26,28,29,31,,,,,,1.2,0.7,1.0*30
###2023-12-09 13:30:46.998092$GLGSA,A,3,65,71,72,73,74,75,,,,,,,1.2,0.7,1.0*2E
###2023-12-09 13:30:46.999682$GAGSA,A,3,04,19,21,27,,,,,,,,,1.2,0.7,1.0*2C
###2023-12-09 13:30:47.001324$GBGSA,A,3,24,25,26,33,35,,,,,,,,1.2,0.7,1.0*26
###2023-12-09 13:30:47.003654$GPGSV,2,1,07,03,28,248,36,04,44,309,46,16,64,220,46,26,86,041,46*79
###2023-12-09 13:30:47.005694$GPGSV,2,2,07,28,39,083,43,29,21,049,43,31,61,063,44,,,,*40
###2023-12-09 13:30:47.008026$GLGSV,2,1,06,65,37,320,45,71,24,175,35,72,64,223,46,73,23,051,39*6F
###2023-12-09 13:30:47.009769$GLGSV,2,2,06,74,61,011,42,75,42,269,49,,,,,,,,*65
###2023-12-09 13:30:47.012099$GAGSV,1,1,04,04,38,310,45,19,74,182,40,21,78,047,45,27,24,050,39*66
###2023-12-09 13:30:47.014419$GBGSV,2,1,05,24,64,044,48,25,50,275,50,26,17,070,41,33,47,218,48*66
###2023-12-09 13:30:47.015880$GBGSV,2,2,05,35,16,058,43,,,,,,,,,,,,*55
###2023-12-09 13:30:47.017195$GNVTG,267.19,T,,M,0.19,N,0.36,K,A*25
###2023-12-09 13:30:47.018815$GNGST,183046.10,5.900,,,,0.140,0.078,0.210*6B
###2023-12-09 13:30:47.020103$GNZDA,183046.10,09,12,2023,00,00*78
###2023-12-09 13:30:47.020738$GNEBP,,,,,,M*13
###2023-12-09 13:30:47.193575$GNGGA,183046.30,4138.0344700,N,07032.4136840,W,1,21,0.7,12.749,M,-29.745,M,0.0,*58
###2023-12-09 13:30:47.390384$GNGGA,183046.50,4138.0344720,N,07032.4136753,W,1,21,0.7,12.731,M,-29.745,M,0.0,*5E
###2023-12-09 13:30:47.587525$GNGGA,183046.70,4138.0344688,N,07032.4137377,W,1,22,0.7,12.773,M,-29.745,M,0.0,*59
###2023-12-09 13:30:47.786593$GNGGA,183046.90,4138.0344675,N,07032.4138048,W,1,21,0.9,12.791,M,-29.745,M,0.0,*54
###2023-12-09 13:30:47.988253$GNRMC,183047.10,A,4138.0344699,N,07032.4137961,W,0.66,266.86,091223,,,A*5F
###2023-12-09 13:30:47.991124$GNGGA,183047.10,4138.0344699,N,07032.4137961,W,1,21,0.9,12.787,M,-29.745,M,0.0,*55
###2023-12-09 13:30:47.992912$GPGSA,A,3,03,04,16,26,28,29,31,,,,,,1.4,0.9,1.1*39
###2023-12-09 13:30:47.994558$GLGSA,A,3,65,72,73,74,75,,,,,,,,1.4,0.9,1.1*21
###2023-12-09 13:30:47.996141$GAGSA,A,3,04,19,21,27,,,,,,,,,1.4,0.9,1.1*25
###2023-12-09 13:30:47.997777$GBGSA,A,3,24,25,26,33,35,,,,,,,,1.4,0.9,1.1*2F
###2023-12-09 13:30:48.000096$GPGSV,2,1,07,03,28,248,37,04,44,309,45,16,64,220,46,26,86,041,46*7B
###2023-12-09 13:30:48.002122$GPGSV,2,2,07,28,39,083,44,29,21,049,42,31,61,063,45,,,,*47
###2023-12-09 13:30:48.004451$GLGSV,2,1,05,65,37,320,45,72,64,223,46,73,23,051,40,74,61,011,42*65
###2023-12-09 13:30:48.005898$GLGSV,2,2,05,75,42,269,48,,,,,,,,,,,,*55
###2023-12-09 13:30:48.008228$GAGSV,1,1,04,04,38,310,46,19,74,182,40,21,78,047,44,27,24,050,40*6A
###2023-12-09 13:30:48.010552$GBGSV,2,1,05,24,64,044,48,25,50,275,49,26,17,070,41,33,47,218,48*6E
###2023-12-09 13:30:48.012020$GBGSV,2,2,05,35,16,058,44,,,,,,,,,,,,*52
###2023-12-09 13:30:48.013337$GNVTG,266.86,T,,M,0.66,N,1.22,K,A*2E
###2023-12-09 13:30:48.014958$GNGST,183047.10,5.800,,,,0.140,0.078,0.210*6B
###2023-12-09 13:30:48.016244$GNZDA,183047.10,09,12,2023,00,00*79
###2023-12-09 13:30:48.016880$GNEBP,,,,,,M*13
###2023-12-09 13:30:48.193158$GNGGA,183047.30,4138.0344754,N,07032.4137579,W,1,21,0.9,12.769,M,-29.745,M,0.0,*52
###2023-12-09 13:30:48.384823$GNGGA,183047.50,4138.0344733,N,07032.4137887,W,1,21,0.9,12.789,M,-29.745,M,0.0,*57
###2023-12-09 13:30:48.584994$GNGGA,183047.70,4138.0344718,N,07032.4138646,W,1,21,0.9,12.823,M,-29.745,M,0.0,*5F
###2023-12-09 13:30:48.787788$GNGGA,183047.90,4138.0344739,N,07032.4138914,W,1,21,0.9,12.817,M,-29.745,M,0.0,*5D
###2023-12-09 13:30:48.991348$GNRMC,183048.10,A,4138.0344789,N,07032.4138596,W,0.45,265.77,091223,,,A*57
###2023-12-09 13:30:48.994203$GNGGA,183048.10,4138.0344789,N,07032.4138596,W,1,21,0.9,12.804,M,-29.745,M,0.0,*55
###2023-12-09 13:30:48.996000$GPGSA,A,3,03,04,16,26,28,29,31,,,,,,1.4,0.9,1.1*39
###2023-12-09 13:30:48.997647$GLGSA,A,3,65,72,73,74,75,,,,,,,,1.4,0.9,1.1*21
###2023-12-09 13:30:48.999241$GAGSA,A,3,04,19,21,27,,,,,,,,,1.4,0.9,1.1*25
###2023-12-09 13:30:49.000886$GBGSA,A,3,24,25,26,33,35,,,,,,,,1.4,0.9,1.1*2F
###2023-12-09 13:30:49.003228$GPGSV,2,1,07,03,28,248,37,04,44,309,45,16,64,220,46,26,86,041,48*75
###2023-12-09 13:30:49.005278$GPGSV,2,2,07,28,39,083,45,29,21,049,42,31,61,063,46,,,,*45
###2023-12-09 13:30:49.007624$GLGSV,2,1,05,65,37,320,43,72,64,223,46,73,23,051,44,74,61,011,42*67
###2023-12-09 13:30:49.009079$GLGSV,2,2,05,75,42,269,46,,,,,,,,,,,,*5B
###2023-12-09 13:30:49.011415$GAGSV,1,1,04,04,38,310,44,19,74,182,40,21,78,047,45,27,24,050,41*68
###2023-12-09 13:30:49.013738$GBGSV,2,1,05,24,64,044,48,25,50,275,47,26,17,070,42,33,47,218,46*6D
###2023-12-09 13:30:49.015201$GBGSV,2,2,05,35,16,058,44,,,,,,,,,,,,*52
###2023-12-09 13:30:49.016521$GNVTG,265.77,T,,M,0.45,N,0.83,K,A*28
###2023-12-09 13:30:49.018133$GNGST,183048.10,5.500,,,,0.140,0.078,0.210*69
###2023-12-09 13:30:49.019429$GNZDA,183048.10,09,12,2023,00,00*76
###2023-12-09 13:30:49.020066$GNEBP,,,,,,M*13
###2023-12-09 13:30:49.188117$GNGGA,183048.30,4138.0344811,N,07032.4138572,W,1,22,0.9,12.804,M,-29.745,M,0.0,*50
###2023-12-09 13:30:49.388843$GNGGA,183048.50,4138.0344772,N,07032.4139172,W,1,22,0.9,12.835,M,-29.745,M,0.0,*5B
###2023-12-09 13:30:49.587663$GNGGA,183048.70,4138.0344777,N,07032.4139700,W,1,22,0.7,12.844,M,-29.745,M,0.0,*57
###2023-12-09 13:30:49.789870$GNGGA,183048.90,4138.0344840,N,07032.4139609,W,1,23,0.7,12.833,M,-29.745,M,0.0,*5B
###2023-12-09 13:30:49.993686$GNRMC,183049.10,A,4138.0344895,N,07032.4139379,W,0.02,264.98,091223,,,A*51
###2023-12-09 13:30:49.996573$GNGGA,183049.10,4138.0344895,N,07032.4139379,W,1,23,0.7,12.816,M,-29.745,M,0.0,*5F
###2023-12-09 13:30:49.998368$GPGSA,A,3,03,04,16,26,28,29,31,,,,,,1.2,0.7,1.0*30
###2023-12-09 13:30:50.000155$GLGSA,A,3,65,71,72,73,74,75,83,,,,,,1.2,0.7,1.0*25
###2023-12-09 13:30:50.001734$GAGSA,A,3,04,19,21,27,,,,,,,,,1.2,0.7,1.0*2C
###2023-12-09 13:30:50.003383$GBGSA,A,3,24,25,26,33,35,,,,,,,,1.2,0.7,1.0*26
###2023-12-09 13:30:50.005706$GPGSV,2,1,07,03,28,248,35,04,44,309,44,16,64,220,45,26,86,041,48*75
###2023-12-09 13:30:50.007758$GPGSV,2,2,07,28,39,083,45,29,21,049,43,31,61,063,46,,,,*44
###2023-12-09 13:30:50.010074$GLGSV,2,1,07,65,37,320,41,71,24,175,35,72,64,223,46,73,23,051,43*67
###2023-12-09 13:30:50.012113$GLGSV,2,2,07,74,61,011,43,75,42,269,47,83,15,050,35,,,,*57
###2023-12-09 13:30:50.014427$GAGSV,1,1,04,04,38,310,43,19,73,182,40,21,78,047,46,27,23,050,41*6C
###2023-12-09 13:30:50.016757$GBGSV,2,1,05,24,64,044,49,25,50,275,48,26,17,070,45,33,47,218,46*64
###2023-12-09 13:30:50.018197$GBGSV,2,2,05,35,16,058,45,,,,,,,,,,,,*53
###2023-12-09 13:30:50.019527$GNVTG,264.98,T,,M,0.02,N,0.04,K,A*24
###2023-12-09 13:30:50.021136$GNGST,183049.10,6.500,,,,0.140,0.078,0.210*6B
###2023-12-09 13:30:50.022418$GNZDA,183049.10,09,12,2023,00,00*77
###2023-12-09 13:30:50.023069$GNEBP,,,,,,M*13
###2023-12-09 13:30:50.189549$GNGGA,183049.30,4138.0344862,N,07032.4139663,W,1,23,0.7,12.833,M,-29.745,M,0.0,*5C
###2023-12-09 13:30:50.391763$GNGGA,183049.50,4138.0344829,N,07032.4140261,W,1,22,0.9,12.852,M,-29.745,M,0.0,*55
###2023-12-09 13:30:50.589594$GNGGA,183049.70,4138.0344834,N,07032.4140488,W,1,21,0.9,12.855,M,-29.745,M,0.0,*5E
###2023-12-09 13:30:50.789458$GNGGA,183049.90,4138.0344855,N,07032.4140321,W,1,21,0.9,12.857,M,-29.745,M,0.0,*51
###2023-12-09 13:30:50.992551$GNRMC,183050.10,A,4138.0344822,N,07032.4140327,W,0.35,264.98,091223,,,A*54
###2023-12-09 13:30:50.995669$GNGGA,183050.10,4138.0344822,N,07032.4140327,W,1,21,0.9,12.844,M,-29.745,M,0.0,*55
###2023-12-09 13:30:50.997400$GPGSA,A,3,04,16,26,28,29,31,,,,,,,1.6,0.9,1.2*3B
###2023-12-09 13:30:50.999126$GLGSA,A,3,65,72,73,74,75,83,,,,,,,1.6,0.9,1.2*2B
###2023-12-09 13:30:51.000713$GAGSA,A,3,04,19,21,27,,,,,,,,,1.6,0.9,1.2*24
###2023-12-09 13:30:51.002353$GBGSA,A,3,24,25,26,33,35,,,,,,,,1.6,0.9,1.2*2E
###2023-12-09 13:30:51.004689$GPGSV,2,1,06,04,44,309,44,16,64,220,45,26,86,041,48,28,39,083,45*7F
###2023-12-09 13:30:51.006442$GPGSV,2,2,06,29,21,049,43,31,61,063,46,,,,,,,,*7F
###2023-12-09 13:30:51.008768$GLGSV,2,1,06,65,37,320,42,72,64,223,45,73,23,051,43,74,61,011,43*60
###2023-12-09 13:30:51.010517$GLGSV,2,2,06,75,42,269,47,83,15,050,36,,,,,,,,*66
