###2023-12-09 13:17:31.005447$GAGSV,1,1,04,04,34,312,43,19,79,190,40,21,83,062,46,27,28,049,42*68
###2023-12-09 13:17:31.007833$GBGSV,2,1,06,14,36,191,42,24,68,036,49,25,45,268,48,26,21,066,44*60
###2023-12-09 13:17:31.009639$GBGSV,2,2,06,33,52,224,46,35,16,063,44,,,,,,,,*68
###2023-12-09 13:17:31.010985$GNVTG,183.56,T,,M,3.36,N,6.23,K,A*2B
###2023-12-09 13:17:31.012633$GNGST,181730.10,18.000,,,,0.100,0.070,0.170*53
###2023-12-09 13:17:31.013923$GNZDA,181730.10,09,12,2023,00,00*7C
###2023-12-09 13:17:31.014560$GNEBP,,,,,,M*13
###2023-12-09 13:17:31.179475$GNGGA,181730.30,4138.0500047,N,07032.2937108,W,1,24,0.7,13.004,M,-29.743,M,0.0,*58
###2023-12-09 13:17:31.379624$GNGGA,181730.50,4138.0498096,N,07032.2937102,W,1,24,0.7,12.999,M,-29.743,M,0.0,*54
###2023-12-09 13:17:31.581114$GNGGA,181730.70,4138.0496185,N,07032.2936901,W,1,24,0.7,12.996,M,-29.743,M,0.0,*5E
###2023-12-09 13:17:31.780925$GNGGA,181730.90,4138.0494256,N,07032.2936680,W,1,24,0.7,12.999,M,-29.743,M,0.0,*56
###2023-12-09 13:17:31.983761$GNRMC,181731.10,A,4138.0492314,N,07032.2936675,W,3.56,182.44,091223,,,A*55
###2023-12-09 13:17:31.986641$GNGGA,181731.10,4138.0492314,N,07032.2936675,W,1,24,0.7,13.016,M,-29.743,M,0.0,*5B
###2023-12-09 13:17:31.988442$GPGSA,A,3,03,04,16,26,28,29,31,,,,,,1.2,0.7,1.0*30
###2023-12-09 13:17:31.990148$GLGSA,A,3,65,71,72,73,74,75,,,,,,,1.2,0.7,1.0*2E
###2023-12-09 13:17:31.991733$GAGSA,A,3,04,19,21,27,,,,,,,,,1.2,0.7,1.0*2C
###2023-12-09 13:17:31.993435$GBGSA,A,3,14,24,25,26,33,35,,,,,,,1.2,0.7,1.0*23
###2023-12-09 13:17:31.995770$GPGSV,2,1,07,03,31,253,42,04,39,310,45,16,58,216,46,26,88,205,48*71
###2023-12-09 13:17:31.997806$GPGSV,2,2,07,28,43,078,45,29,23,053,42,31,64,053,47,,,,*42
###2023-12-09 13:17:32.000130$GLGSV,2,1,06,65,31,324,43,71,32,174,42,72,70,240,46,73,29,047,43*6D
###2023-12-09 13:17:32.001867$GLGSV,2,2,06,74,65,358,43,75,38,261,47,,,,,,,,*65
###2023-12-09 13:17:32.004197$GAGSV,1,1,04,04,34,312,44,19,79,190,40,21,83,062,46,27,28,049,40*6D
###2023-12-09 13:17:32.006512$GBGSV,2,1,06,14,36,191,42,24,68,036,49,25,45,268,47,26,21,066,44*6F
###2023-12-09 13:17:32.008260$GBGSV,2,2,06,33,52,224,47,35,16,063,43,,,,,,,,*6E
###2023-12-09 13:17:32.009580$GNVTG,182.44,T,,M,3.56,N,6.59,K,A*22
###2023-12-09 13:17:32.011225$GNGST,181731.10,18.000,,,,0.100,0.070,0.170*52
###2023-12-09 13:17:32.012506$GNZDA,181731.10,09,12,2023,00,00*7D
###2023-12-09 13:17:32.013142$GNEBP,,,,,,M*13
###2023-12-09 13:17:32.180429$GNGGA,181731.30,4138.0490322,N,07032.2936741,W,1,24,0.7,13.026,M,-29.743,M,0.0,*5B
###2023-12-09 13:17:32.380150$GNGGA,181731.50,4138.0488362,N,07032.2936695,W,1,24,0.7,13.013,M,-29.743,M,0.0,*5E
###2023-12-09 13:17:32.580866$GNGGA,181731.70,4138.0486368,N,07032.2936642,W,1,24,0.7,13.009,M,-29.743,M,0.0,*59
###2023-12-09 13:17:32.781009$GNGGA,181731.90,4138.0484445,N,07032.2937069,W,1,24,0.7,13.031,M,-29.743,M,0.0,*58
###2023-12-09 13:17:32.989298$GNRMC,181732.10,A,4138.0482471,N,07032.2937512,W,3.58,182.66,091223,,,A*5E
###2023-12-09 13:17:32.992182$GNGGA,181732.10,4138.0482471,N,07032.2937512,W,1,24,0.7,13.037,M,-29.743,M,0.0,*5D
###2023-12-09 13:17:32.993985$GPGSA,A,3,03,04,16,26,28,29,31,,,,,,1.2,0.7,1.0*30
###2023-12-09 13:17:32.995718$GLGSA,A,3,65,71,72,73,74,75,,,,,,,1.2,0.7,1.0*2E
###2023-12-09 13:17:32.997298$GAGSA,A,3,04,19,21,27,,,,,,,,,1.2,0.7,1.0*2C
###2023-12-09 13:17:32.999023$GBGSA,A,3,14,24,25,26,33,35,,,,,,,1.2,0.7,1.0*23
###2023-12-09 13:17:33.001353$GPGSV,2,1,07,03,31,253,43,04,39,310,45,16,58,216,46,26,88,205,48*70
###2023-12-09 13:17:33.003399$GPGSV,2,2,07,28,43,078,45,29,23,053,41,31,64,053,47,,,,*41
###2023-12-09 13:17:33.005736$GLGSV,2,1,06,65,31,324,43,71,32,174,42,72,70,240,46,73,29,047,42*6C
###2023-12-09 13:17:33.007499$GLGSV,2,2,06,74,65,358,43,75,38,261,46,,,,,,,,*64
###2023-12-09 13:17:33.009820$GAGSV,1,1,04,04,34,312,44,19,79,190,40,21,83,062,46,27,28,049,39*63
###2023-12-09 13:17:33.012162$GBGSV,2,1,06,14,36,191,41,24,68,036,49,25,45,268,48,26,21,066,44*63
###2023-12-09 13:17:33.013910$GBGSV,2,2,06,33,52,224,47,35,16,063,44,,,,,,,,*69
###2023-12-09 13:17:33.015246$GNVTG,182.66,T,,M,3.58,N,6.62,K,A*24
###2023-12-09 13:17:33.016895$GNGST,181732.10,18.000,,,,0.100,0.069,0.170*59
###2023-12-09 13:17:33.018191$GNZDA,181732.10,09,12,2023,00,00*7E
###2023-12-09 13:17:33.018840$GNEBP,,,,,,M*13
###2023-12-09 13:17:33.182132$GNGGA,181732.30,4138.0480567,N,07032.2937605,W,1,24,0.7,13.006,M,-29.743,M,0.0,*5C
###2023-12-09 13:17:33.380132$GNGGA,181732.50,4138.0478734,N,07032.2938041,W,1,24,0.7,13.038,M,-29.743,M,0.0,*5D
###2023-12-09 13:17:33.580898$GNGGA,181732.70,4138.0476743,N,07032.2938728,W,1,24,0.7,13.040,M,-29.743,M,0.0,*56
###2023-12-09 13:17:33.780979$GNGGA,181732.90,4138.0474830,N,07032.2938800,W,1,24,0.7,12.996,M,-29.743,M,0.0,*57
###2023-12-09 13:17:33.983424$GNRMC,181733.10,A,4138.0472925,N,07032.2938911,W,3.52,189.91,091223,,,A*55
###2023-12-09 13:17:33.986285$GNGGA,181733.10,4138.0472925,N,07032.2938911,W,1,24,0.7,13.035,M,-29.743,M,0.0,*5D
###2023-12-09 13:17:33.988079$GPGSA,A,3,03,04,16,26,28,29,31,,,,,,1.2,0.7,1.0*30
###2023-12-09 13:17:33.989791$GLGSA,A,3,65,71,72,73,74,75,,,,,,,1.2,0.7,1.0*2E
###2023-12-09 13:17:33.991384$GAGSA,A,3,04,19,21,27,,,,,,,,,1.2,0.7,1.0*2C
###2023-12-09 13:17:33.993098$GBGSA,A,3,14,24,25,26,33,35,,,,,,,1.2,0.7,1.0*23
###2023-12-09 13:17:33.995440$GPGSV,2,1,07,03,31,253,41,04,39,310,45,16,58,216,45,26,88,205,48*71
###2023-12-09 13:17:33.997483$GPGSV,2,2,07,28,43,078,45,29,23,053,43,31,64,053,47,,,,*43
###2023-12-09 13:17:33.999824$GLGSV,2,1,06,65,31,324,43,71,32,174,41,72,70,240,45,73,29,047,45*6B
###2023-12-09 13:17:34.001579$GLGSV,2,2,06,74,65,358,43,75,38,261,46,,,,,,,,*64
###2023-12-09 13:17:34.003928$GAGSV,1,1,04,04,34,312,43,19,79,190,40,21,83,062,47,27,28,049,42*69
###2023-12-09 13:17:34.006262$GBGSV,2,1,06,14,36,191,41,24,68,036,48,25,45,268,46,26,21,066,44*6C
###2023-12-09 13:17:34.008021$GBGSV,2,2,06,33,52,224,46,35,16,063,45,,,,,,,,*69
###2023-12-09 13:17:34.009347$GNVTG,189.91,T,,M,3.52,N,6.52,K,A*2E
###2023-12-09 13:17:34.010999$GNGST,181733.10,18.000,,,,0.100,0.070,0.170*50
###2023-12-09 13:17:34.012292$GNZDA,181733.10,09,12,2023,00,00*7F
###2023-12-09 13:17:34.012932$GNEBP,,,,,,M*13
###2023-12-09 13:17:34.179335$GNGGA,181733.30,4138.0470969,N,07032.2939439,W,1,24,0.7,13.061,M,-29.743,M,0.0,*52
###2023-12-09 13:17:34.379096$GNGGA,181733.50,4138.0469014,N,07032.2939565,W,1,24,0.7,13.032,M,-29.743,M,0.0,*51
###2023-12-09 13:17:34.579892$GNGGA,181733.70,4138.0467159,N,07032.2939305,W,1,24,0.7,13.020,M,-29.743,M,0.0,*56
###2023-12-09 13:17:34.778783$GNGGA,181733.90,4138.0465272,N,07032.2939489,W,1,24,0.7,13.059,M,-29.743,M,0.0,*5D
###2023-12-09 13:17:34.983554$GNRMC,181734.10,A,4138.0463272,N,07032.2939729,W,3.50,180.95,091223,,,A*50
###2023-12-09 13:17:34.986435$GNGGA,181734.10,4138.0463272,N,07032.2939729,W,1,24,0.7,13.047,M,-29.743,M,0.0,*52
###2023-12-09 13:17:34.988244$GPGSA,A,3,03,04,16,26,28,29,31,,,,,,1.2,0.7,1.0*30
###2023-12-09 13:17:34.989963$GLGSA,A,3,65,71,72,73,74,75,,,,,,,1.2,0.7,1.0*2E
###2023-12-09 13:17:34.991570$GAGSA,A,3,04,19,21,27,,,,,,,,,1.2,0.7,1.0*2C
###2023-12-09 13:17:34.993289$GBGSA,A,3,14,24,25,26,33,35,,,,,,,1.2,0.7,1.0*23
###2023-12-09 13:17:34.995640$GPGSV,2,1,07,03,31,253,43,04,39,310,45,16,58,216,46,26,88,205,48*70
###2023-12-09 13:17:34.997688$GPGSV,2,2,07,28,43,078,44,29,23,053,40,31,64,053,47,,,,*41
###2023-12-09 13:17:35.000038$GLGSV,2,1,06,65,31,324,43,71,32,174,42,72,70,240,46,73,29,047,43*6D
###2023-12-09 13:17:35.001788$GLGSV,2,2,06,74,65,358,43,75,38,261,47,,,,,,,,*65
###2023-12-09 13:17:35.004140$GAGSV,1,1,04,04,34,312,43,19,79,190,40,21,83,062,46,27,28,049,41*6B
###2023-12-09 13:17:35.006481$GBGSV,2,1,06,14,36,191,41,24,68,036,48,25,45,268,49,26,21,066,43*64
###2023-12-09 13:17:35.008237$GBGSV,2,2,06,33,52,224,48,35,16,063,43,,,,,,,,*61
###2023-12-09 13:17:35.009558$GNVTG,180.95,T,,M,3.50,N,6.48,K,A*2A
###2023-12-09 13:17:35.011220$GNGST,181734.10,18.000,,,,0.100,0.070,0.170*57
###2023-12-09 13:17:35.012517$GNZDA,181734.10,09,12,2023,00,00*78
###2023-12-09 13:17:35.013159$GNEBP,,,,,,M*13
###2023-12-09 13:17:35.179390$GNGGA,181734.30,4138.0461408,N,07032.2939630,W,1,24,0.7,13.032,M,-29.743,M,0.0,*52
###2023-12-09 13:17:35.378533$GNGGA,181734.50,4138.0459550,N,07032.2939565,W,1,24,0.7,13.072,M,-29.743,M,0.0,*54
###2023-12-09 13:17:35.580478$GNGGA,181734.70,4138.0457532,N,07032.2939610,W,1,24,0.7,13.059,M,-29.743,M,0.0,*54
###2023-12-09 13:17:35.779785$GNGGA,181734.90,4138.0455657,N,07032.2939813,W,1,24,0.7,13.036,M,-29.743,M,0.0,*5C
###2023-12-09 13:17:35.984044$GNRMC,181735.10,A,4138.0453797,N,07032.2940108,W,3.42,185.75,091223,,,A*5F
###2023-12-09 13:17:35.986937$GNGGA,181735.10,4138.0453797,N,07032.2940108,W,1,24,0.7,13.071,M,-29.743,M,0.0,*50
###2023-12-09 13:17:35.988737$GPGSA,A,3,03,04,16,26,28,29,31,,,,,,1.2,0.7,1.0*30
###2023-12-09 13:17:35.990460$GLGSA,A,3,65,71,72,73,74,75,,,,,,,1.2,0.7,1.0*2E
###2023-12-09 13:17:35.992060$GAGSA,A,3,04,19,21,27,,,,,,,,,1.2,0.7,1.0*2C
