###2023-12-09 12:44:29.969676$GBGSV,2,1,05,14,51,196,46,24,79,002,48,25,35,255,45,26,32,059,42*6B
###2023-12-09 12:44:29.971179$GBGSV,2,2,05,33,62,246,47,,,,,,,,,,,,*59
###2023-12-09 12:44:29.972476$GNVTG,83.39,T,,M,2.62,N,4.86,K,A*1E
###2023-12-09 12:44:29.974126$GNGST,174429.10,18.000,,,,0.079,0.072,0.160*5E
###2023-12-09 12:44:29.975440$GNZDA,174429.10,09,12,2023,00,00*7D
###2023-12-09 12:44:29.976082$GNEBP,,,,,,M*13
###2023-12-09 12:44:30.145972$GNGGA,174429.30,4138.0454986,N,07032.3879293,W,1,24,0.6,13.601,M,-29.745,M,0.0,*52
###2023-12-09 12:44:30.346111$GNGGA,174429.50,4138.0455173,N,07032.3877068,W,1,24,0.6,13.584,M,-29.745,M,0.0,*51
###2023-12-09 12:44:30.546254$GNGGA,174429.70,4138.0455344,N,07032.3875066,W,1,24,0.6,13.564,M,-29.745,M,0.0,*57
###2023-12-09 12:44:30.745596$GNGGA,174429.90,4138.0455339,N,07032.3872976,W,1,24,0.6,13.575,M,-29.745,M,0.0,*5C
###2023-12-09 12:44:30.945858$GNRMC,174430.10,A,4138.0455092,N,07032.3870837,W,2.82,102.29,091223,,,A*5A
###2023-12-09 12:44:30.948728$GNGGA,174430.10,4138.0455092,N,07032.3870837,W,1,24,0.6,13.580,M,-29.745,M,0.0,*52
###2023-12-09 12:44:30.950616$GPGSA,A,3,03,04,16,26,28,29,31,32,,,,,1.1,0.6,0.9*3B
###2023-12-09 12:44:30.952335$GLGSA,A,3,65,71,72,73,74,75,,,,,,,1.1,0.6,0.9*24
###2023-12-09 12:44:30.953918$GAGSA,A,3,04,19,21,27,,,,,,,,,1.1,0.6,0.9*26
###2023-12-09 12:44:30.955588$GBGSA,A,3,14,24,25,26,33,,,,,,,,1.1,0.6,0.9*2F
###2023-12-09 12:44:30.957924$GPGSV,2,1,08,03,38,271,43,04,25,311,44,16,41,209,46,26,71,208,47*79
###2023-12-09 12:44:30.960277$GPGSV,2,2,08,28,55,061,45,29,26,069,42,31,72,015,47,32,26,136,40*7E
###2023-12-09 12:44:30.962628$GLGSV,2,1,06,65,16,329,42,71,51,170,46,72,69,300,46,73,44,036,47*65
###2023-12-09 12:44:30.964384$GLGSV,2,2,06,74,71,307,42,75,25,245,44,,,,,,,,*62
###2023-12-09 12:44:30.966733$GAGSV,1,1,04,04,24,312,43,19,84,283,40,21,81,168,45,27,38,049,43*60
###2023-12-09 12:44:30.969083$GBGSV,2,1,05,14,51,196,44,24,79,002,48,25,35,255,43,26,32,059,45*68
###2023-12-09 12:44:30.970546$GBGSV,2,2,05,33,62,246,47,,,,,,,,,,,,*59
###2023-12-09 12:44:30.971877$GNVTG,102.29,T,,M,2.82,N,5.22,K,A*26
###2023-12-09 12:44:30.973531$GNGST,174430.10,18.000,,,,0.079,0.072,0.160*56
###2023-12-09 12:44:30.974836$GNZDA,174430.10,09,12,2023,00,00*75
###2023-12-09 12:44:30.975478$GNEBP,,,,,,M*13
###2023-12-09 12:44:31.148059$GNGGA,174430.30,4138.0454679,N,07032.3868854,W,1,24,0.6,13.566,M,-29.745,M,0.0,*56
###2023-12-09 12:44:31.345985$GNGGA,174430.50,4138.0454239,N,07032.3866867,W,1,24,0.6,13.571,M,-29.745,M,0.0,*58
###2023-12-09 12:44:31.546075$GNGGA,174430.70,4138.0453831,N,07032.3864827,W,1,24,0.6,13.573,M,-29.745,M,0.0,*5B
###2023-12-09 12:44:31.744555$GNGGA,174430.90,4138.0453196,N,07032.3862934,W,1,24,0.6,13.568,M,-29.745,M,0.0,*5E
###2023-12-09 12:44:31.946105$GNRMC,174431.10,A,4138.0452415,N,07032.3861168,W,2.74,120.86,091223,,,A*58
###2023-12-09 12:44:31.949005$GNGGA,174431.10,4138.0452415,N,07032.3861168,W,1,24,0.6,13.566,M,-29.745,M,0.0,*54
###2023-12-09 12:44:31.950900$GPGSA,A,3,03,04,16,26,28,29,31,32,,,,,1.1,0.6,0.9*3B
###2023-12-09 12:44:31.952622$GLGSA,A,3,65,71,72,73,74,75,,,,,,,1.1,0.6,0.9*24
###2023-12-09 12:44:31.954201$GAGSA,A,3,04,19,21,27,,,,,,,,,1.1,0.6,0.9*26
###2023-12-09 12:44:31.955868$GBGSA,A,3,14,24,25,26,33,,,,,,,,1.1,0.6,0.9*2F
###2023-12-09 12:44:31.958210$GPGSV,2,1,08,03,38,271,42,04,25,311,40,16,41,209,44,26,71,208,47*7E
###2023-12-09 12:44:31.960567$GPGSV,2,2,08,28,55,061,45,29,26,069,43,31,72,015,47,32,26,136,42*7D
###2023-12-09 12:44:31.962921$GLGSV,2,1,06,65,16,329,43,71,51,170,45,72,69,300,47,73,44,036,46*67
###2023-12-09 12:44:31.964663$GLGSV,2,2,06,74,71,307,43,75,25,245,43,,,,,,,,*64
###2023-12-09 12:44:31.967015$GAGSV,1,1,04,04,24,312,42,19,84,283,41,21,81,168,46,27,38,049,44*64
###2023-12-09 12:44:31.969364$GBGSV,2,1,05,14,51,196,46,24,79,002,49,25,35,255,45,26,32,059,45*6D
###2023-12-09 12:44:31.970838$GBGSV,2,2,05,33,62,246,49,,,,,,,,,,,,*57
###2023-12-09 12:44:31.972171$GNVTG,120.86,T,,M,2.74,N,5.08,K,A*22
###2023-12-09 12:44:31.973825$GNGST,174431.10,18.000,,,,0.079,0.071,0.160*54
###2023-12-09 12:44:31.975133$GNZDA,174431.10,09,12,2023,00,00*74
###2023-12-09 12:44:31.975783$GNEBP,,,,,,M*13
###2023-12-09 12:44:32.145828$GNGGA,174431.30,4138.0451556,N,07032.3859502,W,1,24,0.6,13.567,M,-29.745,M,0.0,*51
###2023-12-09 12:44:32.347282$GNGGA,174431.50,4138.0450656,N,07032.3857900,W,1,24,0.6,13.562,M,-29.745,M,0.0,*50
###2023-12-09 12:44:32.546055$GNGGA,174431.70,4138.0449684,N,07032.3856393,W,1,24,0.6,13.565,M,-29.745,M,0.0,*53
###2023-12-09 12:44:32.744411$GNGGA,174431.90,4138.0448639,N,07032.3854933,W,1,24,0.6,13.552,M,-29.745,M,0.0,*5C
###2023-12-09 12:44:32.951814$GNRMC,174432.10,A,4138.0447516,N,07032.3853786,W,2.41,146.66,091223,,,A*52
###2023-12-09 12:44:32.954687$GNGGA,174432.10,4138.0447516,N,07032.3853786,W,1,24,0.6,13.555,M,-29.745,M,0.0,*56
###2023-12-09 12:44:32.956538$GPGSA,A,3,03,04,16,26,28,29,31,32,,,,,1.1,0.6,0.9*3B
###2023-12-09 12:44:32.958245$GLGSA,A,3,65,71,72,73,74,75,,,,,,,1.1,0.6,0.9*24
###2023-12-09 12:44:32.959839$GAGSA,A,3,04,19,21,27,,,,,,,,,1.1,0.6,0.9*26
###2023-12-09 12:44:32.961480$GBGSA,A,3,14,24,25,26,33,,,,,,,,1.1,0.6,0.9*2F
###2023-12-09 12:44:32.963823$GPGSV,2,1,08,03,38,271,44,04,25,311,41,16,41,209,43,26,71,208,47*7E
###2023-12-09 12:44:32.966154$GPGSV,2,2,08,28,55,061,46,29,26,069,45,31,72,015,47,32,26,136,42*78
###2023-12-09 12:44:32.968490$GLGSV,2,1,06,65,16,329,44,71,51,170,46,72,69,300,47,73,44,036,46*63
###2023-12-09 12:44:32.970233$GLGSV,2,2,06,74,71,307,43,75,25,245,43,,,,,,,,*64
###2023-12-09 12:44:32.972557$GAGSV,1,1,04,04,24,312,40,19,84,283,41,21,81,168,46,27,38,049,44*66
###2023-12-09 12:44:32.974893$GBGSV,2,1,05,14,51,196,43,24,79,002,48,25,35,255,45,26,32,059,45*69
###2023-12-09 12:44:32.976345$GBGSV,2,2,05,33,62,246,48,,,,,,,,,,,,*56
###2023-12-09 12:44:32.977668$GNVTG,146.66,T,,M,2.41,N,4.46,K,A*21
###2023-12-09 12:44:32.979324$GNGST,174432.10,18.000,,,,0.079,0.070,0.160*56
###2023-12-09 12:44:32.980617$GNZDA,174432.10,09,12,2023,00,00*77
###2023-12-09 12:44:32.981257$GNEBP,,,,,,M*13
###2023-12-09 12:44:33.145420$GNGGA,174432.30,4138.0446322,N,07032.3852777,W,1,24,0.6,13.564,M,-29.745,M,0.0,*59
###2023-12-09 12:44:33.345842$GNGGA,174432.50,4138.0445092,N,07032.3851772,W,1,24,0.6,13.546,M,-29.745,M,0.0,*52
###2023-12-09 12:44:33.546057$GNGGA,174432.70,4138.0443920,N,07032.3850990,W,1,24,0.6,13.539,M,-29.745,M,0.0,*5D
###2023-12-09 12:44:33.745398$GNGGA,174432.90,4138.0442599,N,07032.3850404,W,1,24,0.6,13.547,M,-29.745,M,0.0,*55
###2023-12-09 12:44:33.944754$GNRMC,174433.10,A,4138.0441356,N,07032.3849832,W,2.29,162.39,091223,,,A*5E
###2023-12-09 12:44:33.947637$GNGGA,174433.10,4138.0441356,N,07032.3849832,W,1,24,0.6,13.527,M,-29.745,M,0.0,*5D
###2023-12-09 12:44:33.949516$GPGSA,A,3,03,04,16,26,28,29,31,32,,,,,1.1,0.6,0.9*3B
###2023-12-09 12:44:33.951255$GLGSA,A,3,65,71,72,73,74,75,,,,,,,1.1,0.6,0.9*24
###2023-12-09 12:44:33.952846$GAGSA,A,3,04,19,21,27,,,,,,,,,1.1,0.6,0.9*26
###2023-12-09 12:44:33.954496$GBGSA,A,3,14,24,25,26,33,,,,,,,,1.1,0.6,0.9*2F
###2023-12-09 12:44:33.956847$GPGSV,2,1,08,03,38,271,44,04,25,311,39,16,41,209,43,26,71,208,46*70
###2023-12-09 12:44:33.959209$GPGSV,2,2,08,28,55,061,45,29,26,069,43,31,72,015,47,32,26,136,43*7C
###2023-12-09 12:44:33.961551$GLGSV,2,1,06,65,16,329,43,71,51,170,47,72,69,300,46,73,44,036,47*65
###2023-12-09 12:44:33.963314$GLGSV,2,2,06,74,71,307,42,75,25,245,42,,,,,,,,*64
###2023-12-09 12:44:33.965646$GAGSV,1,1,04,04,24,312,38,19,84,283,40,21,81,168,45,27,38,049,43*6C
###2023-12-09 12:44:33.967998$GBGSV,2,1,05,14,51,196,45,24,79,002,49,25,35,255,45,26,32,059,45*6E
###2023-12-09 12:44:33.969460$GBGSV,2,2,05,33,62,246,48,,,,,,,,,,,,*56
###2023-12-09 12:44:33.970798$GNVTG,162.39,T,,M,2.29,N,4.25,K,A*26
###2023-12-09 12:44:33.972490$GNGST,174433.10,18.000,,,,0.079,0.070,0.160*57
###2023-12-09 12:44:33.973792$GNZDA,174433.10,09,12,2023,00,00*76
###2023-12-09 12:44:33.974432$GNEBP,,,,,,M*13
###2023-12-09 12:44:34.146924$GNGGA,174433.30,4138.0440154,N,07032.3849623,W,1,24,0.6,13.543,M,-29.745,M,0.0,*52
###2023-12-09 12:44:34.346011$GNGGA,174433.50,4138.0438837,N,07032.3849381,W,1,24,0.6,13.543,M,-29.745,M,0.0,*5A
###2023-12-09 12:44:34.545816$GNGGA,174433.70,4138.0437622,N,07032.3849161,W,1,24,0.6,13.517,M,-29.745,M,0.0,*50
###2023-12-09 12:44:34.745712$GNGGA,174433.90,4138.0436430,N,07032.3849315,W,1,24,0.6,13.545,M,-29.745,M,0.0,*58
###2023-12-09 12:44:34.946284$GNRMC,174434.10,A,4138.0435170,N,07032.3849449,W,2.22,184.14,091223,,,A*50
###2023-12-09 12:44:34.949811$GNGGA,174434.10,4138.0435170,N,07032.3849449,W,1,24,0.6,13.549,M,-29.745,M,0.0,*57
###2023-12-09 12:44:34.952086$GPGSA,A,3,03,04,16,26,28,29,31,32,,,,,1.1,0.6,0.9*3B
###2023-12-09 12:44:34.954158$GLGSA,A,3,65,71,72,73,74,75,,,,,,,1.1,0.6,0.9*24
###2023-12-09 12:44:34.956090$GAGSA,A,3,04,19,21,27,,,,,,,,,1.1,0.6,0.9*26
###2023-12-09 12:44:34.958084$GBGSA,A,3,14,24,25,26,33,,,,,,,,1.1,0.6,0.9*2F
