###2023-12-09 12:49:15.956269$GBGSA,A,3,14,24,25,26,33,,,,,,,,1.1,0.6,0.9*2F
###2023-12-09 12:49:15.958650$GPGSV,2,1,08,03,37,269,45,04,27,311,43,16,43,209,46,26,73,208,48*73
###2023-12-09 12:49:15.960992$GPGSV,2,2,08,28,53,064,44,29,26,067,41,31,71,021,47,32,24,137,41*77
###2023-12-09 12:49:15.963354$GLGSV,2,1,06,65,18,329,44,71,48,171,47,72,71,291,46,73,41,038,46*6F
###2023-12-09 12:49:15.965111$GLGSV,2,2,06,74,71,317,43,75,28,247,44,,,,,,,,*6D
###2023-12-09 12:49:15.967457$GAGSV,1,1,04,04,25,312,43,19,85,269,41,21,83,162,46,27,37,048,41*62
###2023-12-09 12:49:15.969792$GBGSV,2,1,05,14,49,195,45,24,77,011,48,25,37,257,46,26,30,060,42*65
###2023-12-09 12:49:15.971278$GBGSV,2,2,05,33,61,241,47,,,,,,,,,,,,*5D
###2023-12-09 12:49:15.972602$GNVTG,345.45,T,,M,0.10,N,0.18,K,A*28
###2023-12-09 12:49:15.974251$GNGST,174915.10,18.000,,,,0.075,0.066,0.160*55
###2023-12-09 12:49:15.975556$GNZDA,174915.10,09,12,2023,00,00*7F
###2023-12-09 12:49:15.976196$GNEBP,,,,,,M*13
###2023-12-09 12:49:16.145836$GNGGA,174915.30,4138.0619568,N,07032.3902021,W,1,24,0.6,13.488,M,-29.744,M,0.0,*53
###2023-12-09 12:49:16.347303$GNGGA,174915.50,4138.0619851,N,07032.3902051,W,1,24,0.6,13.483,M,-29.744,M,0.0,*5E
###2023-12-09 12:49:16.547369$GNGGA,174915.70,4138.0620244,N,07032.3902141,W,1,24,0.6,13.467,M,-29.744,M,0.0,*52
###2023-12-09 12:49:16.746233$GNGGA,174915.90,4138.0620556,N,07032.3902226,W,1,24,0.6,13.463,M,-29.744,M,0.0,*5E
###2023-12-09 12:49:16.948880$GNRMC,174916.10,A,4138.0620736,N,07032.3902249,W,0.29,345.45,091223,,,A*55
###2023-12-09 12:49:16.952396$GNGGA,174916.10,4138.0620736,N,07032.3902249,W,1,24,0.6,13.477,M,-29.744,M,0.0,*5D
###2023-12-09 12:49:16.954672$GPGSA,A,3,03,04,16,26,28,29,31,32,,,,,1.1,0.6,0.9*3B
###2023-12-09 12:49:16.956758$GLGSA,A,3,65,71,72,73,74,75,,,,,,,1.1,0.6,0.9*24
###2023-12-09 12:49:16.958694$GAGSA,A,3,04,19,21,27,,,,,,,,,1.1,0.6,0.9*26
###2023-12-09 12:49:16.960684$GBGSA,A,3,14,24,25,26,33,,,,,,,,1.1,0.6,0.9*2F
###2023-12-09 12:49:16.963527$GPGSV,2,1,08,03,37,268,46,04,27,311,43,16,43,209,46,26,73,208,48*71
###2023-12-09 12:49:16.966355$GPGSV,2,2,08,28,53,064,44,29,26,067,40,31,71,021,47,32,24,137,42*75
###2023-12-09 12:49:16.969230$GLGSV,2,1,06,65,18,329,43,71,48,171,47,72,71,291,46,73,41,038,46*68
###2023-12-09 12:49:16.971364$GLGSV,2,2,06,74,71,317,43,75,28,247,44,,,,,,,,*6D
###2023-12-09 12:49:16.974191$GAGSV,1,1,04,04,25,312,42,19,85,269,41,21,83,162,47,27,37,048,41*62
###2023-12-09 12:49:16.977030$GBGSV,2,1,05,14,49,195,45,24,77,011,49,25,37,257,46,26,30,060,44*62
###2023-12-09 12:49:16.978850$GBGSV,2,2,05,33,61,241,47,,,,,,,,,,,,*5D
###2023-12-09 12:49:16.980474$GNVTG,345.45,T,,M,0.29,N,0.54,K,A*2A
###2023-12-09 12:49:16.982466$GNGST,174916.10,18.000,,,,0.075,0.066,0.160*56
###2023-12-09 12:49:16.984050$GNZDA,174916.10,09,12,2023,00,00*7C
###2023-12-09 12:49:16.984824$GNEBP,,,,,,M*13
###2023-12-09 12:49:17.148555$GNGGA,174916.30,4138.0620901,N,07032.3902223,W,1,24,0.6,13.485,M,-29.744,M,0.0,*54
###2023-12-09 12:49:17.348936$GNGGA,174916.50,4138.0621107,N,07032.3902264,W,1,24,0.6,13.476,M,-29.744,M,0.0,*52
###2023-12-09 12:49:17.548940$GNGGA,174916.70,4138.0621413,N,07032.3902367,W,1,24,0.6,13.468,M,-29.744,M,0.0,*5D
###2023-12-09 12:49:17.748748$GNGGA,174916.90,4138.0621776,N,07032.3902438,W,1,24,0.6,13.465,M,-29.744,M,0.0,*53
###2023-12-09 12:49:17.948657$GNRMC,174917.10,A,4138.0622042,N,07032.3902497,W,0.31,345.45,091223,,,A*5E
###2023-12-09 12:49:17.952145$GNGGA,174917.10,4138.0622042,N,07032.3902497,W,1,24,0.6,13.474,M,-29.744,M,0.0,*5C
###2023-12-09 12:49:17.954396$GPGSA,A,3,03,04,16,26,28,29,31,32,,,,,1.1,0.6,0.9*3B
###2023-12-09 12:49:17.956496$GLGSA,A,3,65,71,72,73,74,75,,,,,,,1.1,0.6,0.9*24
###2023-12-09 12:49:17.958409$GAGSA,A,3,04,19,21,27,,,,,,,,,1.1,0.6,0.9*26
###2023-12-09 12:49:17.960432$GBGSA,A,3,14,24,25,26,33,,,,,,,,1.1,0.6,0.9*2F
###2023-12-09 12:49:17.963266$GPGSV,2,1,08,03,37,268,45,04,28,311,44,16,43,209,45,26,73,208,48*79
###2023-12-09 12:49:17.966073$GPGSV,2,2,08,28,53,064,44,29,26,067,40,31,71,021,47,32,24,137,42*75
###2023-12-09 12:49:17.968891$GLGSV,2,1,06,65,18,329,42,71,48,171,47,72,71,291,46,73,41,038,46*69
###2023-12-09 12:49:17.971012$GLGSV,2,2,06,74,71,317,43,75,28,247,44,,,,,,,,*6D
###2023-12-09 12:49:17.973810$GAGSV,1,1,04,04,25,312,42,19,85,269,41,21,83,162,46,27,37,048,41*63
###2023-12-09 12:49:17.976683$GBGSV,2,1,05,14,49,195,45,24,77,011,49,25,37,257,46,26,30,060,43*65
###2023-12-09 12:49:17.978448$GBGSV,2,2,05,33,61,241,48,,,,,,,,,,,,*52
###2023-12-09 12:49:17.980059$GNVTG,345.45,T,,M,0.31,N,0.58,K,A*2F
###2023-12-09 12:49:17.982047$GNGST,174917.10,18.000,,,,0.075,0.066,0.160*57
###2023-12-09 12:49:17.983626$GNZDA,174917.10,09,12,2023,00,00*7D
###2023-12-09 12:49:17.984397$GNEBP,,,,,,M*13
###2023-12-09 12:49:18.148515$GNGGA,174917.30,4138.0622154,N,07032.3902495,W,1,24,0.6,13.478,M,-29.744,M,0.0,*56
###2023-12-09 12:49:18.349016$GNGGA,174917.50,4138.0622318,N,07032.3902496,W,1,24,0.6,13.478,M,-29.744,M,0.0,*59
###2023-12-09 12:49:18.548861$GNGGA,174917.70,4138.0622647,N,07032.3902594,W,1,24,0.6,13.477,M,-29.744,M,0.0,*58
###2023-12-09 12:49:18.748746$GNGGA,174917.90,4138.0622997,N,07032.3902696,W,1,24,0.6,13.466,M,-29.744,M,0.0,*55
###2023-12-09 12:49:18.947578$GNRMC,174918.10,A,4138.0623219,N,07032.3902762,W,0.29,345.45,091223,,,A*5C
###2023-12-09 12:49:18.951060$GNGGA,174918.10,4138.0623219,N,07032.3902762,W,1,24,0.6,13.469,M,-29.744,M,0.0,*5B
###2023-12-09 12:49:18.953319$GPGSA,A,3,03,04,16,26,28,29,31,32,,,,,1.1,0.6,0.9*3B
###2023-12-09 12:49:18.955412$GLGSA,A,3,65,71,72,73,74,75,,,,,,,1.1,0.6,0.9*24
###2023-12-09 12:49:18.957333$GAGSA,A,3,04,19,21,27,,,,,,,,,1.1,0.6,0.9*26
###2023-12-09 12:49:18.959344$GBGSA,A,3,14,24,25,26,33,,,,,,,,1.1,0.6,0.9*2F
###2023-12-09 12:49:18.962169$GPGSV,2,1,08,03,37,268,46,04,28,311,43,16,43,209,46,26,73,208,49*7F
###2023-12-09 12:49:18.965052$GPGSV,2,2,08,28,53,064,45,29,26,067,40,31,71,021,47,32,24,137,42*74
###2023-12-09 12:49:18.967888$GLGSV,2,1,06,65,18,329,43,71,48,171,47,72,71,291,46,73,41,038,46*68
###2023-12-09 12:49:18.970048$GLGSV,2,2,06,74,71,317,43,75,28,247,44,,,,,,,,*6D
###2023-12-09 12:49:18.972880$GAGSV,1,1,04,04,25,312,42,19,85,269,41,21,83,162,47,27,37,048,43*60
###2023-12-09 12:49:18.975703$GBGSV,2,1,05,14,49,195,46,24,77,011,49,25,37,257,47,26,30,060,43*67
###2023-12-09 12:49:18.977462$GBGSV,2,2,05,33,61,241,47,,,,,,,,,,,,*5D
###2023-12-09 12:49:18.979068$GNVTG,345.45,T,,M,0.29,N,0.54,K,A*2A
###2023-12-09 12:49:18.981057$GNGST,174918.10,18.000,,,,0.075,0.066,0.160*58
###2023-12-09 12:49:18.982642$GNZDA,174918.10,09,12,2023,00,00*72
###2023-12-09 12:49:18.983413$GNEBP,,,,,,M*13
###2023-12-09 12:49:19.148028$GNGGA,174918.30,4138.0623381,N,07032.3902774,W,1,24,0.6,13.483,M,-29.744,M,0.0,*5A
###2023-12-09 12:49:19.348799$GNGGA,174918.50,4138.0623609,N,07032.3902830,W,1,24,0.6,13.484,M,-29.744,M,0.0,*51
###2023-12-09 12:49:19.548861$GNGGA,174918.70,4138.0623882,N,07032.3902916,W,1,24,0.6,13.469,M,-29.744,M,0.0,*58
###2023-12-09 12:49:19.747676$GNGGA,174918.90,4138.0624180,N,07032.3902984,W,1,24,0.6,13.468,M,-29.744,M,0.0,*50
###2023-12-09 12:49:19.948622$GNRMC,174919.10,A,4138.0624458,N,07032.3903050,W,0.43,345.45,091223,,,A*52
###2023-12-09 12:49:19.952110$GNGGA,174919.10,4138.0624458,N,07032.3903050,W,1,24,0.6,13.466,M,-29.744,M,0.0,*56
###2023-12-09 12:49:19.954359$GPGSA,A,3,03,04,16,26,28,29,31,32,,,,,1.1,0.6,0.9*3B
###2023-12-09 12:49:19.956447$GLGSA,A,3,65,71,72,73,74,75,,,,,,,1.1,0.6,0.9*24
###2023-12-09 12:49:19.958362$GAGSA,A,3,04,19,21,27,,,,,,,,,1.1,0.6,0.9*26
###2023-12-09 12:49:19.960377$GBGSA,A,3,14,24,25,26,33,,,,,,,,1.1,0.6,0.9*2F
###2023-12-09 12:49:19.963262$GPGSV,2,1,08,03,37,268,46,04,28,311,41,16,43,209,46,26,73,208,48*7C
###2023-12-09 12:49:19.966079$GPGSV,2,2,08,28,53,064,45,29,26,067,41,31,71,021,46,32,24,137,41*77
###2023-12-09 12:49:19.968919$GLGSV,2,1,06,65,18,329,42,71,48,171,47,72,71,291,46,73,41,038,46*69
###2023-12-09 12:49:19.971048$GLGSV,2,2,06,74,71,317,43,75,28,247,44,,,,,,,,*6D
###2023-12-09 12:49:19.973867$GAGSV,1,1,04,04,25,312,42,19,85,269,41,21,83,162,47,27,37,048,42*61
###2023-12-09 12:49:19.976702$GBGSV,2,1,05,14,49,195,46,24,77,011,49,25,37,257,47,26,30,060,43*67
###2023-12-09 12:49:19.978779$GBGSV,2,2,05,33,61,241,48,,,,,,,,,,,,*52
###2023-12-09 12:49:19.980393$GNVTG,345.45,T,,M,0.43,N,0.79,K,A*29
###2023-12-09 12:49:19.982382$GNGST,174919.10,18.000,,,,0.075,0.066,0.160*59
###2023-12-09 12:49:19.983962$GNZDA,174919.10,09,12,2023,00,00*73
###2023-12-09 12:49:19.984734$GNEBP,,,,,,M*13
###2023-12-09 12:49:20.148472$GNGGA,174919.30,4138.0624639,N,07032.3903085,W,1,24,0.6,13.472,M,-29.744,M,0.0,*5C
###2023-12-09 12:49:20.348251$GNGGA,174919.50,4138.0624813,N,07032.3903096,W,1,24,0.6,13.478,M,-29.744,M,0.0,*54
###2023-12-09 12:49:20.548242$GNGGA,174919.70,4138.0625084,N,07032.3903164,W,1,24,0.6,13.478,M,-29.744,M,0.0,*5D
###2023-12-09 12:49:20.748160$GNGGA,174919.90,4138.0625388,N,07032.3903252,W,1,24,0.6,13.475,M,-29.744,M,0.0,*57
