###2023-12-09 13:36:29.033654$GBGSV,2,2,07,26,16,071,44,33,45,217,48,35,16,056,44,,,,*52
###2023-12-09 13:36:29.035302$GNVTG,125.59,T,,M,2.86,N,5.29,K,A*2B
###2023-12-09 13:36:29.037255$GNGST,183628.10,5.700,,,,0.089,0.067,0.150*66
###2023-12-09 13:36:29.038826$GNZDA,183628.10,09,12,2023,00,00*76
###2023-12-09 13:36:29.039595$GNEBP,,,,,,M*13
###2023-12-09 13:36:29.199313$GNGGA,183628.30,4138.0470848,N,07032.4059313,W,1,27,0.6,13.374,M,-29.745,M,0.0,*5C
###2023-12-09 13:36:29.396864$GNGGA,183628.50,4138.0469755,N,07032.4057649,W,1,27,0.6,13.369,M,-29.745,M,0.0,*59
###2023-12-09 13:36:29.597823$GNGGA,183628.70,4138.0468818,N,07032.4056021,W,1,27,0.6,13.377,M,-29.745,M,0.0,*5A
###2023-12-09 13:36:29.797403$GNGGA,183628.90,4138.0467814,N,07032.4054424,W,1,27,0.6,13.387,M,-29.745,M,0.0,*5B
###2023-12-09 13:36:30.001123$GNRMC,183629.10,A,4138.0466890,N,07032.4052923,W,2.49,127.59,091223,,,A*5E
###2023-12-09 13:36:30.003997$GNGGA,183629.10,4138.0466890,N,07032.4052923,W,1,27,0.6,13.383,M,-29.745,M,0.0,*57
###2023-12-09 13:36:30.005846$GPGSA,A,3,03,04,16,26,27,28,29,31,,,,,1.0,0.6,0.8*3F
###2023-12-09 13:36:30.007636$GLGSA,A,3,65,71,72,73,74,75,83,,,,,,1.0,0.6,0.8*2F
###2023-12-09 13:36:30.009215$GAGSA,A,3,04,19,21,27,,,,,,,,,1.0,0.6,0.8*26
###2023-12-09 13:36:30.010993$GBGSA,A,3,12,14,24,25,26,33,35,,,,,,1.0,0.6,0.8*2A
###2023-12-09 13:36:30.013301$GPGSV,2,1,08,03,26,246,41,04,47,307,44,16,67,223,47,26,83,040,48*72
###2023-12-09 13:36:30.015626$GPGSV,2,2,08,27,17,172,41,28,37,085,44,29,20,046,43,31,59,067,46*71
###2023-12-09 13:36:30.017940$GLGSV,2,1,07,65,39,318,44,71,22,175,41,72,62,220,47,73,22,052,44*63
###2023-12-09 13:36:30.019976$GLGSV,2,2,07,74,59,015,42,75,44,272,48,83,15,047,36,,,,*5F
###2023-12-09 13:36:30.022298$GAGSV,1,1,04,04,40,310,44,19,71,181,41,21,76,045,46,27,22,050,42*6A
###2023-12-09 13:36:30.024631$GBGSV,2,1,07,12,16,125,38,14,28,189,39,24,62,047,48,25,52,277,46*6E
###2023-12-09 13:36:30.026674$GBGSV,2,2,07,26,16,071,44,33,45,217,47,35,16,056,44,,,,*5D
###2023-12-09 13:36:30.027997$GNVTG,127.59,T,,M,2.49,N,4.61,K,A*27
###2023-12-09 13:36:30.029616$GNGST,183629.10,5.800,,,,0.088,0.066,0.150*68
###2023-12-09 13:36:30.030928$GNZDA,183629.10,09,12,2023,00,00*77
###2023-12-09 13:36:30.031577$GNEBP,,,,,,M*13
###2023-12-09 13:36:30.203035$GNGGA,183629.30,4138.0466029,N,07032.4051481,W,1,27,0.6,13.395,M,-29.745,M,0.0,*5E
###2023-12-09 13:36:30.396656$GNGGA,183629.50,4138.0465202,N,07032.4050051,W,1,27,0.6,13.392,M,-29.745,M,0.0,*5F
###2023-12-09 13:36:30.597610$GNGGA,183629.70,4138.0464416,N,07032.4048721,W,1,27,0.6,13.398,M,-29.745,M,0.0,*5C
###2023-12-09 13:36:30.798649$GNGGA,183629.90,4138.0463632,N,07032.4047413,W,1,27,0.6,13.407,M,-29.745,M,0.0,*5D
###2023-12-09 13:36:31.006660$GNRMC,183630.10,A,4138.0462896,N,07032.4046089,W,2.06,124.70,091223,,,A*5B
###2023-12-09 13:36:31.009518$GNGGA,183630.10,4138.0462896,N,07032.4046089,W,1,27,0.6,13.406,M,-29.745,M,0.0,*5B
###2023-12-09 13:36:31.011376$GPGSA,A,3,03,04,16,26,27,28,29,31,,,,,1.0,0.6,0.8*3F
###2023-12-09 13:36:31.013153$GLGSA,A,3,65,71,72,73,74,75,83,,,,,,1.0,0.6,0.8*2F
###2023-12-09 13:36:31.014744$GAGSA,A,3,04,19,21,27,,,,,,,,,1.0,0.6,0.8*26
###2023-12-09 13:36:31.016513$GBGSA,A,3,12,14,24,25,26,33,35,,,,,,1.0,0.6,0.8*2A
###2023-12-09 13:36:31.018842$GPGSV,2,1,08,03,26,246,43,04,47,307,44,16,67,223,47,26,83,040,48*70
###2023-12-09 13:36:31.021164$GPGSV,2,2,08,27,17,172,40,28,37,085,44,29,20,046,44,31,59,067,46*77
###2023-12-09 13:36:31.023506$GLGSV,2,1,07,65,39,318,43,71,22,175,41,72,62,220,46,73,22,052,45*64
###2023-12-09 13:36:31.025538$GLGSV,2,2,07,74,59,015,43,75,44,272,47,83,15,047,36,,,,*51
###2023-12-09 13:36:31.027912$GAGSV,1,1,04,04,40,310,45,19,71,181,40,21,76,045,46,27,22,050,42*6A
###2023-12-09 13:36:31.030241$GBGSV,2,1,07,12,16,125,38,14,28,189,41,24,62,047,48,25,52,277,47*60
###2023-12-09 13:36:31.032286$GBGSV,2,2,07,26,15,071,45,33,45,217,47,35,16,056,45,,,,*5E
###2023-12-09 13:36:31.033609$GNVTG,124.70,T,,M,2.06,N,3.82,K,A*2E
###2023-12-09 13:36:31.035234$GNGST,183630.10,5.800,,,,0.088,0.066,0.140*61
###2023-12-09 13:36:31.036522$GNZDA,183630.10,09,12,2023,00,00*7F
###2023-12-09 13:36:31.037160$GNEBP,,,,,,M*13
###2023-12-09 13:36:31.198708$GNGGA,183630.30,4138.0462200,N,07032.4044860,W,1,27,0.6,13.409,M,-29.745,M,0.0,*5E
###2023-12-09 13:36:31.397570$GNGGA,183630.50,4138.0461468,N,07032.4043665,W,1,27,0.6,13.416,M,-29.745,M,0.0,*51
###2023-12-09 13:36:31.597650$GNGGA,183630.70,4138.0460784,N,07032.4042453,W,1,27,0.6,13.416,M,-29.745,M,0.0,*55
###2023-12-09 13:36:31.800866$GNGGA,183630.90,4138.0460152,N,07032.4041278,W,1,27,0.6,13.412,M,-29.745,M,0.0,*5E
###2023-12-09 13:36:32.001078$GNRMC,183631.10,A,4138.0459515,N,07032.4040189,W,1.90,130.26,091223,,,A*59
###2023-12-09 13:36:32.003951$GNGGA,183631.10,4138.0459515,N,07032.4040189,W,1,27,0.6,13.415,M,-29.745,M,0.0,*51
###2023-12-09 13:36:32.005808$GPGSA,A,3,03,04,16,26,27,28,29,31,,,,,1.0,0.6,0.8*3F
###2023-12-09 13:36:32.007598$GLGSA,A,3,65,71,72,73,74,75,83,,,,,,1.0,0.6,0.8*2F
###2023-12-09 13:36:32.009181$GAGSA,A,3,04,19,21,27,,,,,,,,,1.0,0.6,0.8*26
###2023-12-09 13:36:32.010961$GBGSA,A,3,12,14,24,25,26,33,35,,,,,,1.0,0.6,0.8*2A
###2023-12-09 13:36:32.013280$GPGSV,2,1,08,03,26,246,41,04,47,307,45,16,67,223,47,26,83,040,48*73
###2023-12-09 13:36:32.015620$GPGSV,2,2,08,27,17,172,40,28,37,085,45,29,20,046,44,31,59,067,46*76
###2023-12-09 13:36:32.017953$GLGSV,2,1,07,65,39,318,44,71,22,175,41,72,62,220,46,73,22,052,45*63
###2023-12-09 13:36:32.020003$GLGSV,2,2,07,74,59,015,43,75,44,272,46,83,15,047,36,,,,*50
###2023-12-09 13:36:32.022336$GAGSV,1,1,04,04,40,310,44,19,71,181,41,21,76,045,46,27,22,050,43*6B
###2023-12-09 13:36:32.024683$GBGSV,2,1,07,12,16,125,40,14,28,189,42,24,62,047,49,25,52,277,48*62
###2023-12-09 13:36:32.026736$GBGSV,2,2,07,26,15,071,47,33,45,217,49,35,16,056,47,,,,*50
###2023-12-09 13:36:32.028056$GNVTG,130.26,T,,M,1.90,N,3.53,K,A*28
###2023-12-09 13:36:32.029668$GNGST,183631.10,5.800,,,,0.087,0.066,0.140*6F
###2023-12-09 13:36:32.030964$GNZDA,183631.10,09,12,2023,00,00*7E
###2023-12-09 13:36:32.031600$GNEBP,,,,,,M*13
###2023-12-09 13:36:32.199931$GNGGA,183631.30,4138.0458845,N,07032.4039087,W,1,27,0.6,13.426,M,-29.745,M,0.0,*5B
###2023-12-09 13:36:32.398045$GNGGA,183631.50,4138.0458231,N,07032.4037954,W,1,27,0.6,13.423,M,-29.745,M,0.0,*58
###2023-12-09 13:36:32.599224$GNGGA,183631.70,4138.0457688,N,07032.4036880,W,1,27,0.6,13.415,M,-29.745,M,0.0,*5F
###2023-12-09 13:36:32.797963$GNGGA,183631.90,4138.0457105,N,07032.4035894,W,1,27,0.6,13.421,M,-29.745,M,0.0,*52
###2023-12-09 13:36:33.012537$GNRMC,183632.10,A,4138.0456450,N,07032.4034841,W,1.75,127.55,091223,,,A*52
###2023-12-09 13:36:33.015414$GNGGA,183632.10,4138.0456450,N,07032.4034841,W,1,27,0.6,13.427,M,-29.745,M,0.0,*52
###2023-12-09 13:36:33.017266$GPGSA,A,3,03,04,16,26,27,28,29,31,,,,,1.0,0.6,0.8*3F
###2023-12-09 13:36:33.019058$GLGSA,A,3,65,71,72,73,74,75,83,,,,,,1.0,0.6,0.8*2F
###2023-12-09 13:36:33.020642$GAGSA,A,3,04,19,21,27,,,,,,,,,1.0,0.6,0.8*26
###2023-12-09 13:36:33.022417$GBGSA,A,3,12,14,24,25,26,33,35,,,,,,1.0,0.6,0.8*2A
###2023-12-09 13:36:33.024756$GPGSV,2,1,08,03,26,246,41,04,47,307,44,16,67,223,47,26,83,040,48*72
###2023-12-09 13:36:33.027087$GPGSV,2,2,08,27,17,172,39,28,37,085,44,29,20,046,44,31,59,067,47*78
###2023-12-09 13:36:33.029406$GLGSV,2,1,07,65,39,318,47,71,22,175,43,72,62,220,49,73,22,052,47*6F
###2023-12-09 13:36:33.031455$GLGSV,2,2,07,74,59,015,44,75,44,272,49,83,15,047,38,,,,*56
###2023-12-09 13:36:33.033781$GAGSV,1,1,04,04,40,310,44,19,71,181,41,21,76,045,46,27,22,050,43*6B
###2023-12-09 13:36:33.036116$GBGSV,2,1,07,12,16,125,38,14,28,189,41,24,62,047,47,25,52,277,47*6F
###2023-12-09 13:36:33.038144$GBGSV,2,2,07,26,15,071,44,33,45,217,47,35,16,056,44,,,,*5E
###2023-12-09 13:36:33.039476$GNVTG,127.55,T,,M,1.75,N,3.24,K,A*21
###2023-12-09 13:36:33.041086$GNGST,183632.10,5.700,,,,0.087,0.066,0.140*63
###2023-12-09 13:36:33.042370$GNZDA,183632.10,09,12,2023,00,00*7D
###2023-12-09 13:36:33.043054$GNEBP,,,,,,M*13
###2023-12-09 13:36:33.207569$GNGGA,183632.30,4138.0455908,N,07032.4033839,W,1,27,0.6,13.423,M,-29.745,M,0.0,*5F
###2023-12-09 13:36:33.397601$GNGGA,183632.50,4138.0455441,N,07032.4032915,W,1,27,0.6,13.426,M,-29.745,M,0.0,*52
###2023-12-09 13:36:33.600172$GNGGA,183632.70,4138.0454848,N,07032.4031978,W,1,27,0.6,13.432,M,-29.745,M,0.0,*59
###2023-12-09 13:36:33.799913$GNGGA,183632.90,4138.0454281,N,07032.4031042,W,1,27,0.6,13.436,M,-29.745,M,0.0,*5C
###2023-12-09 13:36:34.001858$GNRMC,183633.10,A,4138.0453834,N,07032.4030192,W,1.38,125.75,091223,,,A*52
###2023-12-09 13:36:34.005333$GNGGA,183633.10,4138.0453834,N,07032.4030192,W,1,27,0.6,13.439,M,-29.745,M,0.0,*54
###2023-12-09 13:36:34.007584$GPGSA,A,3,03,04,16,26,27,28,29,31,,,,,1.0,0.6,0.8*3F
###2023-12-09 13:36:34.009718$GLGSA,A,3,65,71,72,73,74,75,83,,,,,,1.0,0.6,0.8*2F
###2023-12-09 13:36:34.011635$GAGSA,A,3,04,19,21,27,,,,,,,,,1.0,0.6,0.8*26
###2023-12-09 13:36:34.013768$GBGSA,A,3,12,14,24,25,26,33,35,,,,,,1.0,0.6,0.8*2A
###2023-12-09 13:36:34.016571$GPGSV,2,1,08,03,26,246,40,04,47,307,44,16,67,223,47,26,83,040,48*73
