###2023-12-09 12:38:04.137218$GNGGA,173803.30,4138.0630241,N,07032.3865148,W,1,23,0.7,13.540,M,-29.744,M,0.0,*58
###2023-12-09 12:38:04.337538$GNGGA,173803.50,4138.0630217,N,07032.3865206,W,1,23,0.7,13.541,M,-29.744,M,0.0,*55
###2023-12-09 12:38:04.538190$GNGGA,173803.70,4138.0630218,N,07032.3865401,W,1,23,0.7,13.544,M,-29.744,M,0.0,*5C
###2023-12-09 12:38:04.736866$GNGGA,173803.90,4138.0630312,N,07032.3866016,W,1,23,0.7,13.549,M,-29.744,M,0.0,*55
###2023-12-09 12:38:04.939406$GNRMC,173804.10,A,4138.0630450,N,07032.3866700,W,0.80,284.90,091223,,,A*5E
###2023-12-09 12:38:04.942257$GNGGA,173804.10,4138.0630450,N,07032.3866700,W,1,23,0.7,13.534,M,-29.744,M,0.0,*51
###2023-12-09 12:38:04.944123$GPGSA,A,3,03,04,16,26,28,29,31,32,,,,,1.2,0.7,1.0*31
###2023-12-09 12:38:04.945765$GLGSA,A,3,71,72,73,74,75,,,,,,,,1.2,0.7,1.0*2D
###2023-12-09 12:38:04.947372$GAGSA,A,3,04,19,21,27,,,,,,,,,1.2,0.7,1.0*2C
###2023-12-09 12:38:04.949031$GBGSA,A,3,14,24,25,26,33,,,,,,,,1.2,0.7,1.0*25
###2023-12-09 12:38:04.951377$GPGSV,2,1,08,03,38,275,45,04,23,311,42,16,38,208,42,26,68,207,46*76
###2023-12-09 12:38:04.953719$GPGSV,2,2,08,28,57,058,45,29,25,072,40,31,73,004,47,32,29,134,43*72
###2023-12-09 12:38:04.956071$GLGSV,2,1,05,71,55,169,47,72,67,307,46,73,46,034,47,74,71,296,43*67
###2023-12-09 12:38:04.957529$GLGSV,2,2,05,75,23,242,41,,,,,,,,,,,,*52
###2023-12-09 12:38:04.959866$GAGSV,1,1,04,04,21,311,40,19,82,299,41,21,78,175,45,27,41,049,43*6D
###2023-12-09 12:38:04.962191$GBGSV,2,1,05,14,54,197,45,24,80,351,49,25,33,253,45,26,34,058,44*6F
###2023-12-09 12:38:04.963659$GBGSV,2,2,05,33,63,252,48,,,,,,,,,,,,*52
###2023-12-09 12:38:04.964985$GNVTG,284.90,T,,M,0.80,N,1.48,K,A*21
###2023-12-09 12:38:04.966648$GNGST,173804.10,19.000,,,,0.082,0.071,0.170*5D
###2023-12-09 12:38:04.967942$GNZDA,173804.10,09,12,2023,00,00*79
###2023-12-09 12:38:04.968579$GNEBP,,,,,,M*13
###2023-12-09 12:38:05.138159$GNGGA,173804.30,4138.0630494,N,07032.3866990,W,1,23,0.7,13.514,M,-29.744,M,0.0,*5E
###2023-12-09 12:38:05.338509$GNGGA,173804.50,4138.0630452,N,07032.3867014,W,1,23,0.7,13.511,M,-29.744,M,0.0,*53
###2023-12-09 12:38:05.538858$GNGGA,173804.70,4138.0630486,N,07032.3867318,W,1,23,0.7,13.528,M,-29.744,M,0.0,*5D
###2023-12-09 12:38:05.737088$GNGGA,173804.90,4138.0630623,N,07032.3868059,W,1,23,0.7,13.543,M,-29.744,M,0.0,*5A
###2023-12-09 12:38:05.938444$GNRMC,173805.10,A,4138.0630747,N,07032.3868628,W,0.45,283.75,091223,,,A*5A
###2023-12-09 12:38:05.941353$GNGGA,173805.10,4138.0630747,N,07032.3868628,W,1,23,0.7,13.536,M,-29.744,M,0.0,*52
###2023-12-09 12:38:05.943241$GPGSA,A,3,03,04,16,26,28,29,31,32,,,,,1.2,0.7,1.0*31
###2023-12-09 12:38:05.944891$GLGSA,A,3,71,72,73,74,75,,,,,,,,1.2,0.7,1.0*2D
###2023-12-09 12:38:05.946478$GAGSA,A,3,04,19,21,27,,,,,,,,,1.2,0.7,1.0*2C
###2023-12-09 12:38:05.948161$GBGSA,A,3,14,24,25,26,33,,,,,,,,1.2,0.7,1.0*25
###2023-12-09 12:38:05.950496$GPGSV,2,1,08,03,38,275,45,04,23,311,43,16,38,208,42,26,68,207,46*77
###2023-12-09 12:38:05.952843$GPGSV,2,2,08,28,57,058,45,29,25,072,40,31,73,007,48,32,29,134,43*7E
###2023-12-09 12:38:05.955199$GLGSV,2,1,05,71,55,169,46,72,67,307,47,73,46,034,46,74,71,296,43*66
###2023-12-09 12:38:05.956657$GLGSV,2,2,05,75,23,242,42,,,,,,,,,,,,*51
###2023-12-09 12:38:05.959005$GAGSV,1,1,04,04,21,311,42,19,82,299,41,21,78,175,45,27,41,049,43*6F
###2023-12-09 12:38:05.961350$GBGSV,2,1,05,14,54,197,43,24,80,351,46,25,33,253,43,26,34,058,43*67
###2023-12-09 12:38:05.962824$GBGSV,2,2,05,33,63,252,47,,,,,,,,,,,,*5D
###2023-12-09 12:38:05.964155$GNVTG,283.75,T,,M,0.45,N,0.83,K,A*22
###2023-12-09 12:38:05.965810$GNGST,173805.10,19.000,,,,0.082,0.071,0.170*5C
###2023-12-09 12:38:05.967119$GNZDA,173805.10,09,12,2023,00,00*78
###2023-12-09 12:38:05.967763$GNEBP,,,,,,M*13
###2023-12-09 12:38:06.139471$GNGGA,173805.30,4138.0630756,N,07032.3868660,W,1,23,0.7,13.512,M,-29.744,M,0.0,*5A
###2023-12-09 12:38:06.338479$GNGGA,173805.50,4138.0630707,N,07032.3868604,W,1,23,0.7,13.493,M,-29.744,M,0.0,*52
###2023-12-09 12:38:06.539156$GNGGA,173805.70,4138.0630768,N,07032.3869032,W,1,23,0.7,13.501,M,-29.744,M,0.0,*51
###2023-12-09 12:38:06.737885$GNGGA,173805.90,4138.0630881,N,07032.3869756,W,1,23,0.7,13.519,M,-29.744,M,0.0,*5B
###2023-12-09 12:38:06.940163$GNRMC,173806.10,A,4138.0630975,N,07032.3870208,W,0.37,281.15,091223,,,A*58
###2023-12-09 12:38:06.943034$GNGGA,173806.10,4138.0630975,N,07032.3870208,W,1,23,0.7,13.528,M,-29.744,M,0.0,*5E
###2023-12-09 12:38:06.944895$GPGSA,A,3,03,04,16,26,28,29,31,32,,,,,1.2,0.7,1.0*31
###2023-12-09 12:38:06.946550$GLGSA,A,3,71,72,73,74,75,,,,,,,,1.2,0.7,1.0*2D
###2023-12-09 12:38:06.948174$GAGSA,A,3,04,19,21,27,,,,,,,,,1.2,0.7,1.0*2C
###2023-12-09 12:38:06.949827$GBGSA,A,3,14,24,25,26,33,,,,,,,,1.2,0.7,1.0*25
###2023-12-09 12:38:06.952173$GPGSV,2,1,08,03,38,275,45,04,23,311,44,16,38,208,42,26,68,207,47*71
###2023-12-09 12:38:06.954508$GPGSV,2,2,08,28,57,058,44,29,25,072,42,31,73,007,47,32,28,135,43*72
###2023-12-09 12:38:06.956851$GLGSV,2,1,05,71,55,169,45,72,67,307,46,73,46,034,46,74,71,296,43*64
###2023-12-09 12:38:06.958306$GLGSV,2,2,05,75,23,242,41,,,,,,,,,,,,*52
###2023-12-09 12:38:06.960642$GAGSV,1,1,04,04,21,311,43,19,82,299,41,21,78,175,45,27,41,049,41*6C
###2023-12-09 12:38:06.962988$GBGSV,2,1,05,14,54,197,44,24,80,351,47,25,33,253,46,26,34,058,43*64
###2023-12-09 12:38:06.964449$GBGSV,2,2,05,33,63,252,47,,,,,,,,,,,,*5D
###2023-12-09 12:38:06.965770$GNVTG,281.15,T,,M,0.37,N,0.68,K,A*26
###2023-12-09 12:38:06.967427$GNGST,173806.10,19.000,,,,0.082,0.071,0.170*5F
###2023-12-09 12:38:06.968718$GNZDA,173806.10,09,12,2023,00,00*7B
###2023-12-09 12:38:06.969354$GNEBP,,,,,,M*13
###2023-12-09 12:38:07.139114$GNGGA,173806.30,4138.0630972,N,07032.3870260,W,1,23,0.7,13.526,M,-29.744,M,0.0,*5B
###2023-12-09 12:38:07.339440$GNGGA,173806.50,4138.0630963,N,07032.3870218,W,1,23,0.7,13.475,M,-29.744,M,0.0,*55
###2023-12-09 12:38:07.537886$GNGGA,173806.70,4138.0631022,N,07032.3870486,W,1,23,0.7,13.446,M,-29.744,M,0.0,*5B
###2023-12-09 12:38:07.737872$GNGGA,173806.90,4138.0631146,N,07032.3871251,W,1,23,0.7,13.477,M,-29.744,M,0.0,*59
###2023-12-09 12:38:07.938254$GNRMC,173807.10,A,4138.0631239,N,07032.3871871,W,0.49,281.72,091223,,,A*56
###2023-12-09 12:38:07.941143$GNGGA,173807.10,4138.0631239,N,07032.3871871,W,1,23,0.7,13.505,M,-29.744,M,0.0,*57
###2023-12-09 12:38:07.943007$GPGSA,A,3,03,04,16,26,28,29,31,32,,,,,1.2,0.7,1.0*31
###2023-12-09 12:38:07.944659$GLGSA,A,3,71,72,73,74,75,,,,,,,,1.2,0.7,1.0*2D
###2023-12-09 12:38:07.946246$GAGSA,A,3,04,19,21,27,,,,,,,,,1.2,0.7,1.0*2C
###2023-12-09 12:38:07.947926$GBGSA,A,3,14,24,25,26,33,,,,,,,,1.2,0.7,1.0*25
###2023-12-09 12:38:07.950266$GPGSV,2,1,08,03,38,275,47,04,23,311,44,16,38,208,43,26,68,207,47*72
###2023-12-09 12:38:07.952617$GPGSV,2,2,08,28,57,058,43,29,25,072,42,31,73,007,48,32,28,135,42*7B
###2023-12-09 12:38:07.954970$GLGSV,2,1,05,71,55,169,45,72,67,307,47,73,46,034,46,74,71,296,43*65
###2023-12-09 12:38:07.956424$GLGSV,2,2,05,75,23,242,42,,,,,,,,,,,,*51
###2023-12-09 12:38:07.958772$GAGSV,1,1,04,04,21,311,44,19,82,299,41,21,78,175,45,27,41,049,42*68
###2023-12-09 12:38:07.961099$GBGSV,2,1,05,14,54,197,44,24,80,351,48,25,33,253,47,26,34,058,43*6A
###2023-12-09 12:38:07.962549$GBGSV,2,2,05,33,63,252,49,,,,,,,,,,,,*53
###2023-12-09 12:38:07.963890$GNVTG,281.72,T,,M,0.49,N,0.90,K,A*29
###2023-12-09 12:38:07.965547$GNGST,173807.10,19.000,,,,0.082,0.071,0.170*5E
###2023-12-09 12:38:07.966847$GNZDA,173807.10,09,12,2023,00,00*7A
###2023-12-09 12:38:07.967485$GNEBP,,,,,,M*13
###2023-12-09 12:38:08.138019$GNGGA,173807.30,4138.0631280,N,07032.3871892,W,1,23,0.7,13.516,M,-29.744,M,0.0,*58
###2023-12-09 12:38:08.338776$GNGGA,173807.50,4138.0631244,N,07032.3871637,W,1,23,0.7,13.463,M,-29.744,M,0.0,*54
###2023-12-09 12:38:08.538711$GNGGA,173807.70,4138.0631304,N,07032.3871989,W,1,23,0.7,13.440,M,-29.744,M,0.0,*58
###2023-12-09 12:38:08.737697$GNGGA,173807.90,4138.0631455,N,07032.3872855,W,1,23,0.7,13.464,M,-29.744,M,0.0,*50
###2023-12-09 12:38:08.945211$GNRMC,173808.10,A,4138.0631526,N,07032.3873277,W,0.06,280.52,091223,,,A*56
###2023-12-09 12:38:08.948132$GNGGA,173808.10,4138.0631526,N,07032.3873277,W,1,23,0.7,13.467,M,-29.744,M,0.0,*5A
###2023-12-09 12:38:08.950263$GPGSA,A,3,03,04,16,26,28,29,31,32,,,,,1.2,0.7,1.0*31
###2023-12-09 12:38:08.951955$GLGSA,A,3,71,72,73,74,75,,,,,,,,1.2,0.7,1.0*2D
###2023-12-09 12:38:08.953550$GAGSA,A,3,04,19,21,27,,,,,,,,,1.2,0.7,1.0*2C
###2023-12-09 12:38:08.955221$GBGSA,A,3,14,24,25,26,33,,,,,,,,1.2,0.7,1.0*25
###2023-12-09 12:38:08.957552$GPGSV,2,1,08,03,38,275,46,04,23,311,44,16,38,208,42,26,68,207,46*73
###2023-12-09 12:38:08.959910$GPGSV,2,2,08,28,57,058,42,29,25,072,42,31,73,007,47,32,28,135,42*75
###2023-12-09 12:38:08.962240$GLGSV,2,1,05,71,55,169,45,72,67,307,48,73,46,034,46,74,71,296,43*6A
###2023-12-09 12:38:08.963706$GLGSV,2,2,05,75,23,242,41,,,,,,,,,,,,*52
###2023-12-09 12:38:08.966032$GAGSV,1,1,04,04,21,311,43,19,82,299,40,21,78,175,44,27,41,049,42*6F
###2023-12-09 12:38:08.968378$GBGSV,2,1,05,14,54,197,44,24,80,351,47,25,33,253,44,26,34,058,43*66
