###2023-12-09 12:37:44.974516$GNEBP,,,,,,M*13
###2023-12-09 12:37:45.136517$GNGGA,173744.30,4138.0627254,N,07032.3829175,W,1,23,0.7,13.484,M,-29.744,M,0.0,*59
###2023-12-09 12:37:45.337281$GNGGA,173744.50,4138.0627299,N,07032.3829791,W,1,23,0.7,13.480,M,-29.744,M,0.0,*56
###2023-12-09 12:37:45.537404$GNGGA,173744.70,4138.0627210,N,07032.3829665,W,1,23,0.7,13.472,M,-29.744,M,0.0,*52
###2023-12-09 12:37:45.736366$GNGGA,173744.90,4138.0627139,N,07032.3829493,W,1,23,0.7,13.444,M,-29.744,M,0.0,*5A
###2023-12-09 12:37:45.936851$GNRMC,173745.10,A,4138.0627170,N,07032.3830057,W,1.26,277.32,091223,,,A*5A
###2023-12-09 12:37:45.939726$GNGGA,173745.10,4138.0627170,N,07032.3830057,W,1,23,0.7,13.461,M,-29.744,M,0.0,*5D
###2023-12-09 12:37:45.941583$GPGSA,A,3,03,04,16,26,28,29,31,32,,,,,1.2,0.7,1.0*31
###2023-12-09 12:37:45.943247$GLGSA,A,3,71,72,73,74,75,,,,,,,,1.2,0.7,1.0*2D
###2023-12-09 12:37:45.944833$GAGSA,A,3,04,19,21,27,,,,,,,,,1.2,0.7,1.0*2C
###2023-12-09 12:37:45.946484$GBGSA,A,3,14,24,25,26,33,,,,,,,,1.2,0.7,1.0*25
###2023-12-09 12:37:45.948863$GPGSV,2,1,08,03,38,275,43,04,23,311,37,16,37,207,43,26,67,207,46*7C
###2023-12-09 12:37:45.951238$GPGSV,2,2,08,28,57,057,46,29,25,073,45,31,73,004,48,32,29,134,45*73
###2023-12-09 12:37:45.953575$GLGSV,2,1,05,71,55,169,46,72,67,307,45,73,46,034,47,74,71,296,42*64
###2023-12-09 12:37:45.955041$GLGSV,2,2,05,75,23,242,39,,,,,,,,,,,,*5D
###2023-12-09 12:37:45.957357$GAGSV,1,1,04,04,21,311,37,19,82,299,41,21,78,175,46,27,41,049,44*69
###2023-12-09 12:37:45.959702$GBGSV,2,1,05,14,54,197,45,24,80,351,49,25,33,253,44,26,34,058,45*6F
###2023-12-09 12:37:45.961164$GBGSV,2,2,05,33,63,252,48,,,,,,,,,,,,*52
###2023-12-09 12:37:45.962476$GNVTG,277.32,T,,M,1.26,N,2.34,K,A*20
###2023-12-09 12:37:45.964147$GNGST,173745.10,19.000,,,,0.084,0.072,0.170*52
###2023-12-09 12:37:45.965451$GNZDA,173745.10,09,12,2023,00,00*73
###2023-12-09 12:37:45.966085$GNEBP,,,,,,M*13
###2023-12-09 12:37:46.137226$GNGGA,173745.30,4138.0627268,N,07032.3831030,W,1,23,0.7,13.492,M,-29.744,M,0.0,*59
###2023-12-09 12:37:46.337326$GNGGA,173745.50,4138.0627289,N,07032.3831477,W,1,23,0.7,13.503,M,-29.744,M,0.0,*5E
###2023-12-09 12:37:46.536266$GNGGA,173745.70,4138.0627200,N,07032.3831201,W,1,23,0.7,13.497,M,-29.744,M,0.0,*56
###2023-12-09 12:37:46.736062$GNGGA,173745.90,4138.0627161,N,07032.3831138,W,1,23,0.7,13.457,M,-29.744,M,0.0,*59
###2023-12-09 12:37:46.939651$GNRMC,173746.10,A,4138.0627234,N,07032.3831903,W,1.42,279.45,091223,,,A*5F
###2023-12-09 12:37:46.942505$GNGGA,173746.10,4138.0627234,N,07032.3831903,W,1,23,0.7,13.486,M,-29.744,M,0.0,*5D
###2023-12-09 12:37:46.944380$GPGSA,A,3,03,04,16,26,28,29,31,32,,,,,1.2,0.7,1.0*31
###2023-12-09 12:37:46.946032$GLGSA,A,3,71,72,73,74,75,,,,,,,,1.2,0.7,1.0*2D
###2023-12-09 12:37:46.947672$GAGSA,A,3,04,19,21,27,,,,,,,,,1.2,0.7,1.0*2C
###2023-12-09 12:37:46.949346$GBGSA,A,3,14,24,25,26,33,,,,,,,,1.2,0.7,1.0*25
###2023-12-09 12:37:46.951708$GPGSV,2,1,08,03,38,275,43,04,23,311,39,16,37,207,43,26,67,207,46*72
###2023-12-09 12:37:46.954048$GPGSV,2,2,08,28,57,057,45,29,25,073,44,31,73,004,47,32,29,134,44*7F
###2023-12-09 12:37:46.956419$GLGSV,2,1,05,71,55,169,47,72,67,307,47,73,46,034,47,74,71,296,42*67
###2023-12-09 12:37:46.957876$GLGSV,2,2,05,75,23,242,39,,,,,,,,,,,,*5D
###2023-12-09 12:37:46.960218$GAGSV,1,1,04,04,21,311,36,19,82,299,40,21,78,175,45,27,41,049,43*6D
###2023-12-09 12:37:46.962545$GBGSV,2,1,05,14,54,197,46,24,80,351,49,25,33,253,44,26,34,058,44*6D
###2023-12-09 12:37:46.964016$GBGSV,2,2,05,33,63,252,48,,,,,,,,,,,,*52
###2023-12-09 12:37:46.965338$GNVTG,279.45,T,,M,1.42,N,2.63,K,A*2E
###2023-12-09 12:37:46.967042$GNGST,173746.10,19.000,,,,0.084,0.072,0.170*51
###2023-12-09 12:37:46.968342$GNZDA,173746.10,09,12,2023,00,00*70
###2023-12-09 12:37:46.968981$GNEBP,,,,,,M*13
###2023-12-09 12:37:47.137360$GNGGA,173746.30,4138.0627321,N,07032.3832768,W,1,23,0.7,13.494,M,-29.744,M,0.0,*59
###2023-12-09 12:37:47.337656$GNGGA,173746.50,4138.0627311,N,07032.3832972,W,1,23,0.7,13.524,M,-29.744,M,0.0,*53
###2023-12-09 12:37:47.538037$GNGGA,173746.70,4138.0627228,N,07032.3832788,W,1,23,0.7,13.530,M,-29.744,M,0.0,*54
###2023-12-09 12:37:47.738253$GNGGA,173746.90,4138.0627224,N,07032.3832962,W,1,23,0.7,13.497,M,-29.744,M,0.0,*50
###2023-12-09 12:37:47.937611$GNRMC,173747.10,A,4138.0627267,N,07032.3833590,W,1.07,278.31,091223,,,A*5F
###2023-12-09 12:37:47.940492$GNGGA,173747.10,4138.0627267,N,07032.3833590,W,1,23,0.7,13.508,M,-29.744,M,0.0,*59
###2023-12-09 12:37:47.942341$GPGSA,A,3,03,04,16,26,28,29,31,32,,,,,1.2,0.7,1.0*31
###2023-12-09 12:37:47.943995$GLGSA,A,3,71,72,73,74,75,,,,,,,,1.2,0.7,1.0*2D
###2023-12-09 12:37:47.945573$GAGSA,A,3,04,19,21,27,,,,,,,,,1.2,0.7,1.0*2C
###2023-12-09 12:37:47.947245$GBGSA,A,3,14,24,25,26,33,,,,,,,,1.2,0.7,1.0*25
###2023-12-09 12:37:47.949577$GPGSV,2,1,08,03,38,275,44,04,23,311,41,16,37,207,43,26,67,207,47*7B
###2023-12-09 12:37:47.951922$GPGSV,2,2,08,28,57,057,45,29,25,073,42,31,73,004,47,32,29,134,45*78
###2023-12-09 12:37:47.954241$GLGSV,2,1,05,71,55,169,47,72,67,307,45,73,46,034,47,74,71,296,42*65
###2023-12-09 12:37:47.955712$GLGSV,2,2,05,75,23,242,39,,,,,,,,,,,,*5D
###2023-12-09 12:37:47.958026$GAGSV,1,1,04,04,21,311,40,19,82,299,40,21,78,175,45,27,41,049,44*6B
###2023-12-09 12:37:47.960407$GBGSV,2,1,05,14,54,197,45,24,80,351,49,25,33,253,44,26,34,058,44*6E
###2023-12-09 12:37:47.961860$GBGSV,2,2,05,33,63,252,48,,,,,,,,,,,,*52
###2023-12-09 12:37:47.963195$GNVTG,278.31,T,,M,1.07,N,1.98,K,A*2A
###2023-12-09 12:37:47.964831$GNGST,173747.10,19.000,,,,0.084,0.072,0.170*50
###2023-12-09 12:37:47.966116$GNZDA,173747.10,09,12,2023,00,00*71
###2023-12-09 12:37:47.966766$GNEBP,,,,,,M*13
###2023-12-09 12:37:48.139327$GNGGA,173747.30,4138.0627333,N,07032.3834279,W,1,23,0.7,13.517,M,-29.744,M,0.0,*52
###2023-12-09 12:37:48.338166$GNGGA,173747.50,4138.0627311,N,07032.3834555,W,1,23,0.7,13.539,M,-29.744,M,0.0,*51
###2023-12-09 12:37:48.537926$GNGGA,173747.70,4138.0627239,N,07032.3834543,W,1,23,0.7,13.550,M,-29.744,M,0.0,*50
###2023-12-09 12:37:48.737225$GNGGA,173747.90,4138.0627216,N,07032.3834711,W,1,23,0.7,13.531,M,-29.744,M,0.0,*51
###2023-12-09 12:37:48.940614$GNRMC,173748.10,A,4138.0627277,N,07032.3835268,W,0.91,280.04,091223,,,A*58
###2023-12-09 12:37:48.943478$GNGGA,173748.10,4138.0627277,N,07032.3835268,W,1,23,0.7,13.519,M,-29.744,M,0.0,*51
###2023-12-09 12:37:48.945332$GPGSA,A,3,03,04,16,26,28,29,31,32,,,,,1.2,0.7,1.0*31
###2023-12-09 12:37:48.947001$GLGSA,A,3,71,72,73,74,75,,,,,,,,1.2,0.7,1.0*2D
###2023-12-09 12:37:48.948599$GAGSA,A,3,04,19,21,27,,,,,,,,,1.2,0.7,1.0*2C
###2023-12-09 12:37:48.950247$GBGSA,A,3,14,24,25,26,33,,,,,,,,1.2,0.7,1.0*25
###2023-12-09 12:37:48.952626$GPGSV,2,1,08,03,38,275,43,04,23,311,40,16,37,207,43,26,67,207,46*7C
###2023-12-09 12:37:48.954975$GPGSV,2,2,08,28,57,057,46,29,25,073,42,31,73,004,47,32,29,134,45*7B
###2023-12-09 12:37:48.957302$GLGSV,2,1,05,71,55,169,47,72,67,307,46,73,46,034,47,74,71,296,42*66
###2023-12-09 12:37:48.958774$GLGSV,2,2,05,75,23,242,39,,,,,,,,,,,,*5D
###2023-12-09 12:37:48.961104$GAGSV,1,1,04,04,21,311,38,19,82,299,40,21,78,175,46,27,41,049,43*60
###2023-12-09 12:37:48.963446$GBGSV,2,1,05,14,54,197,45,24,80,351,49,25,33,253,44,26,34,058,45*6F
###2023-12-09 12:37:48.964905$GBGSV,2,2,05,33,63,252,48,,,,,,,,,,,,*52
###2023-12-09 12:37:48.966226$GNVTG,280.04,T,,M,0.91,N,1.69,K,A*2B
###2023-12-09 12:37:48.967880$GNGST,173748.10,19.000,,,,0.084,0.072,0.170*5F
###2023-12-09 12:37:48.969175$GNZDA,173748.10,09,12,2023,00,00*7E
###2023-12-09 12:37:48.969812$GNEBP,,,,,,M*13
###2023-12-09 12:37:49.137584$GNGGA,173748.30,4138.0627322,N,07032.3835856,W,1,23,0.7,13.522,M,-29.744,M,0.0,*5D
###2023-12-09 12:37:49.337770$GNGGA,173748.50,4138.0627280,N,07032.3836117,W,1,23,0.7,13.530,M,-29.744,M,0.0,*5E
###2023-12-09 12:37:49.537433$GNGGA,173748.70,4138.0627231,N,07032.3836235,W,1,23,0.7,13.560,M,-29.744,M,0.0,*50
###2023-12-09 12:37:49.737201$GNGGA,173748.90,4138.0627261,N,07032.3836568,W,1,23,0.7,13.566,M,-29.744,M,0.0,*52
###2023-12-09 12:37:49.937636$GNRMC,173749.10,A,4138.0627303,N,07032.3837017,W,0.52,280.04,091223,,,A*5C
###2023-12-09 12:37:49.940510$GNGGA,173749.10,4138.0627303,N,07032.3837017,W,1,23,0.7,13.550,M,-29.744,M,0.0,*57
###2023-12-09 12:37:49.942626$GPGSA,A,3,03,04,16,26,28,29,31,32,,,,,1.2,0.7,1.0*31
###2023-12-09 12:37:49.944277$GLGSA,A,3,71,72,73,74,75,,,,,,,,1.2,0.7,1.0*2D
###2023-12-09 12:37:49.945858$GAGSA,A,3,04,19,21,27,,,,,,,,,1.2,0.7,1.0*2C
###2023-12-09 12:37:49.947525$GBGSA,A,3,14,24,25,26,33,,,,,,,,1.2,0.7,1.0*25
###2023-12-09 12:37:49.949865$GPGSV,2,1,08,03,38,275,44,04,23,311,40,16,37,207,42,26,67,207,46*7A
###2023-12-09 12:37:49.952195$GPGSV,2,2,08,28,57,057,46,29,25,073,43,31,73,004,48,32,29,134,43*73
###2023-12-09 12:37:49.954507$GLGSV,2,1,05,71,55,169,46,72,67,307,47,73,46,034,47,74,71,296,43*67
###2023-12-09 12:37:49.955968$GLGSV,2,2,05,75,23,242,40,,,,,,,,,,,,*53
###2023-12-09 12:37:49.958278$GAGSV,1,1,04,04,21,311,40,19,82,299,41,21,78,175,45,27,41,049,43*6D
