###2023-12-09 13:42:17.007751$GBGSA,A,3,12,24,25,33,35,,,,,,,,1.1,0.7,0.9*2A
###2023-12-09 13:42:17.010104$GPGSV,2,1,07,04,49,306,35,09,15,317,35,16,70,226,48,26,80,041,48*76
###2023-12-09 13:42:17.012174$GPGSV,2,2,07,28,35,088,44,29,19,044,39,31,57,071,47,,,,*4E
###2023-12-09 13:42:17.014521$GLGSV,2,1,05,65,41,315,36,72,59,216,49,73,20,054,36,74,57,019,44*6D
###2023-12-09 13:42:17.015995$GLGSV,2,2,05,75,45,276,36,,,,,,,,,,,,*55
###2023-12-09 13:42:17.018033$GAGSV,1,1,03,19,69,180,44,21,74,044,46,27,20,051,36,,,,*51
###2023-12-09 13:42:17.020392$GBGSV,2,1,05,12,17,124,40,24,60,049,49,25,53,279,37,33,43,215,45*62
###2023-12-09 13:42:17.021854$GBGSV,2,2,05,35,16,054,43,,,,,,,,,,,,*59
###2023-12-09 13:42:17.023196$GNVTG,287.37,T,,M,0.25,N,0.47,K,A*2E
###2023-12-09 13:42:17.024813$GNGST,184216.10,7.500,,,,0.130,0.093,0.210*67
###2023-12-09 13:42:17.026105$GNZDA,184216.10,09,12,2023,00,00*78
###2023-12-09 13:42:17.026760$GNEBP,,,,,,M*13
###2023-12-09 13:42:17.195712$GNGGA,184216.30,4138.0394659,N,07032.4269939,W,1,20,0.7,13.536,M,-29.745,M,0.0,*54
###2023-12-09 13:42:17.395863$GNGGA,184216.50,4138.0394521,N,07032.4269906,W,1,20,0.8,13.535,M,-29.745,M,0.0,*5E
###2023-12-09 13:42:17.596547$GNGGA,184216.70,4138.0394405,N,07032.4269936,W,1,20,0.8,13.553,M,-29.745,M,0.0,*58
###2023-12-09 13:42:17.795750$GNGGA,184216.90,4138.0394325,N,07032.4269907,W,1,20,0.8,13.562,M,-29.745,M,0.0,*53
###2023-12-09 13:42:17.998933$GNRMC,184217.10,A,4138.0394303,N,07032.4269885,W,0.04,287.37,091223,,,A*56
###2023-12-09 13:42:18.001797$GNGGA,184217.10,4138.0394303,N,07032.4269885,W,1,20,0.8,13.556,M,-29.745,M,0.0,*52
###2023-12-09 13:42:18.003600$GPGSA,A,3,03,04,16,26,28,29,31,,,,,,1.2,0.8,0.9*37
###2023-12-09 13:42:18.005188$GLGSA,A,3,72,73,74,75,,,,,,,,,1.2,0.8,0.9*2C
###2023-12-09 13:42:18.006716$GAGSA,A,3,19,21,27,,,,,,,,,,1.2,0.8,0.9*2F
###2023-12-09 13:42:18.008362$GBGSA,A,3,12,24,25,33,35,,,,,,,,1.2,0.8,0.9*26
###2023-12-09 13:42:18.010694$GPGSV,2,1,07,03,24,243,39,04,49,306,35,16,70,226,49,26,80,041,47*7C
###2023-12-09 13:42:18.012736$GPGSV,2,2,07,28,35,088,45,29,19,044,41,31,57,071,46,,,,*41
###2023-12-09 13:42:18.015073$GLGSV,1,1,04,72,59,216,47,73,20,054,41,74,57,019,43,75,45,276,35*64
###2023-12-09 13:42:18.017107$GAGSV,1,1,03,19,69,180,42,21,74,044,46,27,20,051,36,,,,*57
###2023-12-09 13:42:18.019437$GBGSV,2,1,05,12,17,124,43,24,60,049,47,25,53,279,36,33,43,215,43*68
###2023-12-09 13:42:18.020886$GBGSV,2,2,05,35,16,054,43,,,,,,,,,,,,*59
###2023-12-09 13:42:18.022206$GNVTG,287.37,T,,M,0.04,N,0.07,K,A*29
###2023-12-09 13:42:18.023860$GNGST,184217.10,10.000,,,,0.130,0.099,0.210*5F
###2023-12-09 13:42:18.025154$GNZDA,184217.10,09,12,2023,00,00*79
###2023-12-09 13:42:18.025789$GNEBP,,,,,,M*13
###2023-12-09 13:42:18.200623$GNGGA,184217.30,4138.0394299,N,07032.4269854,W,1,20,0.8,13.554,M,-29.745,M,0.0,*5C
###2023-12-09 13:42:18.397003$GNGGA,184217.50,4138.0394287,N,07032.4269754,W,1,20,0.8,13.544,M,-29.745,M,0.0,*5B
###2023-12-09 13:42:18.595564$GNGGA,184217.70,4138.0394299,N,07032.4269587,W,1,20,0.8,13.551,M,-29.745,M,0.0,*5E
###2023-12-09 13:42:18.797715$GNGGA,184217.90,4138.0394263,N,07032.4269482,W,1,20,0.8,13.564,M,-29.745,M,0.0,*57
###2023-12-09 13:42:18.997945$GNRMC,184218.10,A,4138.0394228,N,07032.4269447,W,0.21,287.37,091223,,,A*54
###2023-12-09 13:42:19.000835$GNGGA,184218.10,4138.0394228,N,07032.4269447,W,1,20,0.8,13.570,M,-29.745,M,0.0,*53
###2023-12-09 13:42:19.002648$GPGSA,A,3,03,04,16,26,28,29,31,,,,,,1.2,0.8,0.9*37
###2023-12-09 13:42:19.004232$GLGSA,A,3,72,73,74,75,,,,,,,,,1.2,0.8,0.9*2C
###2023-12-09 13:42:19.005747$GAGSA,A,3,19,21,27,,,,,,,,,,1.2,0.8,0.9*2F
###2023-12-09 13:42:19.007401$GBGSA,A,3,12,24,25,33,35,,,,,,,,1.2,0.8,0.9*26
###2023-12-09 13:42:19.009725$GPGSV,2,1,07,03,24,243,37,04,49,306,36,16,70,226,49,26,80,041,49*7F
###2023-12-09 13:42:19.011773$GPGSV,2,2,07,28,35,088,46,29,19,044,41,31,57,071,46,,,,*42
###2023-12-09 13:42:19.014100$GLGSV,1,1,04,72,59,216,49,73,20,054,38,74,57,019,42,75,45,276,36*66
###2023-12-09 13:42:19.016152$GAGSV,1,1,03,19,69,180,42,21,74,044,47,27,20,051,40,,,,*57
###2023-12-09 13:42:19.018478$GBGSV,2,1,05,12,17,124,43,24,60,049,48,25,53,279,40,33,43,215,43*66
###2023-12-09 13:42:19.019941$GBGSV,2,2,05,35,16,054,42,,,,,,,,,,,,*58
###2023-12-09 13:42:19.021271$GNVTG,287.37,T,,M,0.21,N,0.40,K,A*2D
###2023-12-09 13:42:19.022899$GNGST,184218.10,6.700,,,,0.140,0.100,0.210*66
###2023-12-09 13:42:19.024196$GNZDA,184218.10,09,12,2023,00,00*76
###2023-12-09 13:42:19.024833$GNEBP,,,,,,M*13
###2023-12-09 13:42:19.201367$GNGGA,184218.30,4138.0394188,N,07032.4269338,W,1,20,0.8,13.562,M,-29.745,M,0.0,*54
###2023-12-09 13:42:19.397928$GNGGA,184218.50,4138.0394146,N,07032.4269264,W,1,21,0.7,13.564,M,-29.745,M,0.0,*50
###2023-12-09 13:42:19.595520$GNGGA,184218.70,4138.0394083,N,07032.4269237,W,1,19,0.8,13.592,M,-29.745,M,0.0,*51
###2023-12-09 13:42:19.796769$GNGGA,184218.90,4138.0394047,N,07032.4269227,W,1,20,0.8,13.641,M,-29.745,M,0.0,*51
###2023-12-09 13:42:20.001264$GNRMC,184219.10,A,4138.0394077,N,07032.4269363,W,0.17,287.37,091223,,,A*59
###2023-12-09 13:42:20.004353$GNGGA,184219.10,4138.0394077,N,07032.4269363,W,1,20,0.8,13.696,M,-29.745,M,0.0,*50
###2023-12-09 13:42:20.006158$GPGSA,A,3,04,16,26,28,29,31,,,,,,,1.2,0.8,1.0*3C
###2023-12-09 13:42:20.007756$GLGSA,A,3,72,73,74,75,,,,,,,,,1.2,0.8,1.0*24
###2023-12-09 13:42:20.009273$GAGSA,A,3,19,21,27,,,,,,,,,,1.2,0.8,1.0*27
###2023-12-09 13:42:20.010994$GBGSA,A,3,12,14,24,25,33,35,,,,,,,1.2,0.8,1.0*2B
###2023-12-09 13:42:20.013317$GPGSV,2,1,06,04,49,306,39,16,70,226,48,26,80,041,50,28,35,088,48*7C
###2023-12-09 13:42:20.015071$GPGSV,2,2,06,29,19,044,41,31,57,071,49,,,,,,,,*72
###2023-12-09 13:42:20.017398$GLGSV,1,1,04,72,59,216,46,73,20,054,41,74,57,019,41,75,45,276,38*6A
###2023-12-09 13:42:20.019462$GAGSV,1,1,03,19,69,180,43,21,74,044,48,27,20,051,41,,,,*58
###2023-12-09 13:42:20.021810$GBGSV,2,1,06,12,18,124,41,14,26,189,36,24,60,049,48,25,53,279,40*6A
###2023-12-09 13:42:20.023569$GBGSV,2,2,06,33,43,215,42,35,16,054,39,,,,,,,,*60
###2023-12-09 13:42:20.024893$GNVTG,287.37,T,,M,0.17,N,0.32,K,A*2D
###2023-12-09 13:42:20.026504$GNGST,184219.10,6.600,,,,0.140,0.110,0.210*67
###2023-12-09 13:42:20.027806$GNZDA,184219.10,09,12,2023,00,00*77
###2023-12-09 13:42:20.028447$GNEBP,,,,,,M*13
###2023-12-09 13:42:20.199722$GNGGA,184219.30,4138.0394028,N,07032.4269471,W,1,20,0.8,13.786,M,-29.745,M,0.0,*5C
###2023-12-09 13:42:20.399154$GNGGA,184219.50,4138.0394000,N,07032.4269585,W,1,20,0.8,13.904,M,-29.745,M,0.0,*5E
###2023-12-09 13:42:20.599790$GNGGA,184219.70,4138.0394010,N,07032.4269714,W,1,22,0.6,14.027,M,-29.745,M,0.0,*54
###2023-12-09 13:42:20.799029$GNGGA,184219.90,4138.0394043,N,07032.4269932,W,1,21,0.7,14.157,M,-29.745,M,0.0,*52
###2023-12-09 13:42:21.007300$GNRMC,184220.10,A,4138.0394073,N,07032.4270211,W,0.21,287.37,091223,,,A*5E
###2023-12-09 13:42:21.010166$GNGGA,184220.10,4138.0394073,N,07032.4270211,W,1,23,0.6,14.238,M,-29.745,M,0.0,*58
###2023-12-09 13:42:21.012027$GPGSA,A,3,03,04,09,16,26,28,29,31,,,,,1.1,0.6,0.8*32
###2023-12-09 13:42:21.013674$GLGSA,A,3,65,72,73,74,75,,,,,,,,1.1,0.6,0.8*23
###2023-12-09 13:42:21.015264$GAGSA,A,3,04,19,21,27,,,,,,,,,1.1,0.6,0.8*27
###2023-12-09 13:42:21.016905$GBGSA,A,3,12,24,25,33,35,,,,,,,,1.1,0.6,0.8*2A
###2023-12-09 13:42:21.019270$GPGSV,2,1,08,03,24,243,38,04,49,306,46,09,15,317,38,16,70,226,47*71
###2023-12-09 13:42:21.021612$GPGSV,2,2,08,26,80,041,51,28,35,088,46,29,19,044,39,31,57,071,48*71
###2023-12-09 13:42:21.023956$GLGSV,2,1,05,65,41,315,42,72,59,216,46,73,20,054,42,74,57,019,42*64
###2023-12-09 13:42:21.025411$GLGSV,2,2,05,75,45,276,48,,,,,,,,,,,,*5C
###2023-12-09 13:42:21.027747$GAGSV,1,1,04,04,42,309,41,19,69,180,42,21,74,044,46,27,20,051,36*6D
###2023-12-09 13:42:21.030073$GBGSV,2,1,05,12,18,124,39,24,60,049,47,25,53,279,46,33,43,215,45*6B
###2023-12-09 13:42:21.031534$GBGSV,2,2,05,35,16,054,41,,,,,,,,,,,,*5B
###2023-12-09 13:42:21.032855$GNVTG,287.37,T,,M,0.21,N,0.40,K,A*2D
###2023-12-09 13:42:21.034464$GNGST,184220.10,8.100,,,,0.140,0.100,0.210*65
###2023-12-09 13:42:21.035767$GNZDA,184220.10,09,12,2023,00,00*7D
###2023-12-09 13:42:21.036408$GNEBP,,,,,,M*13
###2023-12-09 13:42:21.205105$GNGGA,184220.30,4138.0394119,N,07032.4270569,W,1,23,0.6,14.281,M,-29.745,M,0.0,*5D
###2023-12-09 13:42:21.397655$GNGGA,184220.50,4138.0394206,N,07032.4270896,W,1,22,0.7,14.299,M,-29.745,M,0.0,*52
###2023-12-09 13:42:21.597108$GNGGA,184220.70,4138.0394291,N,07032.4271088,W,1,23,0.6,14.295,M,-29.745,M,0.0,*54
###2023-12-09 13:42:21.800220$GNGGA,184220.90,4138.0394362,N,07032.4271165,W,1,23,0.6,14.293,M,-29.745,M,0.0,*53
###2023-12-09 13:42:22.001658$GNRMC,184221.10,A,4138.0394419,N,07032.4271167,W,0.14,287.37,091223,,,A*52
###2023-12-09 13:42:22.004545$GNGGA,184221.10,4138.0394419,N,07032.4271167,W,1,23,0.6,14.287,M,-29.745,M,0.0,*56
###2023-12-09 13:42:22.006397$GPGSA,A,3,03,04,09,16,26,28,29,31,,,,,1.1,0.6,0.8*32
