###2023-12-09 13:39:16.015835$GBGSA,A,3,12,14,24,25,33,35,,,,,,,1.0,0.6,0.8*2E
###2023-12-09 13:39:16.018702$GPGSV,2,1,08,03,25,244,41,04,48,306,47,16,68,224,46,26,82,040,48*76
###2023-12-09 13:39:16.021534$GPGSV,2,2,08,27,18,172,40,28,37,086,44,29,20,046,41,31,58,068,45*73
###2023-12-09 13:39:16.024379$GLGSV,2,1,07,65,40,316,46,71,20,176,41,72,60,217,45,73,20,054,43*67
###2023-12-09 13:39:16.026861$GLGSV,2,2,07,74,58,018,42,75,45,275,47,83,16,045,35,,,,*58
###2023-12-09 13:39:16.029671$GAGSV,1,1,04,04,41,309,46,19,70,181,40,21,75,045,47,27,21,050,40*62
###2023-12-09 13:39:16.032514$GBGSV,2,1,06,12,17,125,41,14,27,189,40,24,61,048,46,25,52,278,47*6D
###2023-12-09 13:39:16.034637$GBGSV,2,2,06,33,44,215,43,35,16,055,43,,,,,,,,*6A
###2023-12-09 13:39:16.036237$GNVTG,215.47,T,,M,2.22,N,4.10,K,A*21
###2023-12-09 13:39:16.038180$GNGST,183915.10,6.500,,,,0.090,0.070,0.160*6B
###2023-12-09 13:39:16.039768$GNZDA,183915.10,09,12,2023,00,00*77
###2023-12-09 13:39:16.040539$GNEBP,,,,,,M*13
###2023-12-09 13:39:16.202647$GNGGA,183915.30,4138.0686142,N,07032.3826194,W,1,26,0.6,13.348,M,-29.744,M,0.0,*50
###2023-12-09 13:39:16.401538$GNGGA,183915.50,4138.0685080,N,07032.3827150,W,1,26,0.6,13.312,M,-29.744,M,0.0,*5C
###2023-12-09 13:39:16.599764$GNGGA,183915.70,4138.0684251,N,07032.3828629,W,1,26,0.6,13.350,M,-29.744,M,0.0,*51
###2023-12-09 13:39:16.800146$GNGGA,183915.90,4138.0683451,N,07032.3830083,W,1,26,0.6,13.358,M,-29.744,M,0.0,*59
###2023-12-09 13:39:17.005227$GNRMC,183916.10,A,4138.0682413,N,07032.3830916,W,2.16,200.88,091223,,,A*5F
###2023-12-09 13:39:17.008748$GNGGA,183916.10,4138.0682413,N,07032.3830916,W,1,26,0.6,13.357,M,-29.744,M,0.0,*5F
###2023-12-09 13:39:17.011036$GPGSA,A,3,03,04,16,26,27,28,29,31,,,,,1.0,0.6,0.8*3F
###2023-12-09 13:39:17.013186$GLGSA,A,3,65,71,72,73,74,75,83,,,,,,1.0,0.6,0.8*2F
###2023-12-09 13:39:17.015122$GAGSA,A,3,04,19,21,27,,,,,,,,,1.0,0.6,0.8*26
###2023-12-09 13:39:17.017188$GBGSA,A,3,12,14,24,25,33,35,,,,,,,1.0,0.6,0.8*2E
###2023-12-09 13:39:17.020023$GPGSV,2,1,08,03,25,244,40,04,48,306,47,16,69,225,45,26,82,040,48*74
###2023-12-09 13:39:17.022851$GPGSV,2,2,08,27,18,172,39,28,37,086,42,29,20,046,43,31,58,068,46*7A
###2023-12-09 13:39:17.025674$GLGSV,2,1,07,65,40,316,45,71,20,176,41,72,60,217,44,73,20,054,44*62
###2023-12-09 13:39:17.028158$GLGSV,2,2,07,74,58,018,42,75,45,275,47,83,16,045,36,,,,*5B
###2023-12-09 13:39:17.030992$GAGSV,1,1,04,04,41,309,46,19,70,181,40,21,75,045,46,27,21,050,41*62
###2023-12-09 13:39:17.033807$GBGSV,2,1,06,12,17,125,40,14,27,189,39,24,61,048,47,25,52,278,48*6C
###2023-12-09 13:39:17.035931$GBGSV,2,2,06,33,44,215,44,35,16,055,43,,,,,,,,*6D
###2023-12-09 13:39:17.037533$GNVTG,200.88,T,,M,2.16,N,4.00,K,A*20
###2023-12-09 13:39:17.039562$GNGST,183916.10,6.200,,,,0.090,0.070,0.160*6F
###2023-12-09 13:39:17.041131$GNZDA,183916.10,09,12,2023,00,00*74
###2023-12-09 13:39:17.041901$GNEBP,,,,,,M*13
###2023-12-09 13:39:17.202926$GNGGA,183916.30,4138.0681305,N,07032.3831528,W,1,26,0.6,13.324,M,-29.744,M,0.0,*5A
###2023-12-09 13:39:17.401131$GNGGA,183916.50,4138.0680397,N,07032.3832642,W,1,26,0.6,13.325,M,-29.744,M,0.0,*5B
###2023-12-09 13:39:17.605684$GNGGA,183916.70,4138.0679668,N,07032.3834159,W,1,26,0.6,13.347,M,-29.744,M,0.0,*55
###2023-12-09 13:39:17.799784$GNGGA,183916.90,4138.0678840,N,07032.3835470,W,1,26,0.6,13.349,M,-29.744,M,0.0,*5F
###2023-12-09 13:39:18.005191$GNRMC,183917.10,A,4138.0677783,N,07032.3836094,W,1.96,193.12,091223,,,A*5A
###2023-12-09 13:39:18.008679$GNGGA,183917.10,4138.0677783,N,07032.3836094,W,1,26,0.6,13.341,M,-29.744,M,0.0,*5C
###2023-12-09 13:39:18.010943$GPGSA,A,3,03,04,16,26,27,28,29,31,,,,,1.0,0.6,0.8*3F
###2023-12-09 13:39:18.013099$GLGSA,A,3,65,71,72,73,74,75,83,,,,,,1.0,0.6,0.8*2F
###2023-12-09 13:39:18.015028$GAGSA,A,3,04,19,21,27,,,,,,,,,1.0,0.6,0.8*26
###2023-12-09 13:39:18.017138$GBGSA,A,3,12,14,24,25,33,35,,,,,,,1.0,0.6,0.8*2E
###2023-12-09 13:39:18.019960$GPGSV,2,1,08,03,25,244,40,04,48,306,46,16,69,225,45,26,82,040,48*75
###2023-12-09 13:39:18.022790$GPGSV,2,2,08,27,18,172,39,28,37,086,43,29,20,046,42,31,58,068,46*7A
###2023-12-09 13:39:18.025598$GLGSV,2,1,07,65,40,316,46,71,20,176,40,72,60,217,45,73,20,054,44*61
###2023-12-09 13:39:18.028061$GLGSV,2,2,07,74,58,018,42,75,45,275,47,83,16,045,35,,,,*58
###2023-12-09 13:39:18.030924$GAGSV,1,1,04,04,41,309,46,19,70,181,40,21,75,045,47,27,21,050,41*63
###2023-12-09 13:39:18.033722$GBGSV,2,1,06,12,17,125,40,14,27,189,40,24,61,048,47,25,52,278,48*62
###2023-12-09 13:39:18.035846$GBGSV,2,2,06,33,44,215,44,35,16,055,43,,,,,,,,*6D
###2023-12-09 13:39:18.037447$GNVTG,193.12,T,,M,1.96,N,3.64,K,A*24
###2023-12-09 13:39:18.039406$GNGST,183917.10,6.000,,,,0.090,0.070,0.160*6C
###2023-12-09 13:39:18.040965$GNZDA,183917.10,09,12,2023,00,00*75
###2023-12-09 13:39:18.041735$GNEBP,,,,,,M*13
###2023-12-09 13:39:18.203811$GNGGA,183917.30,4138.0676798,N,07032.3836552,W,1,26,0.6,13.303,M,-29.744,M,0.0,*5C
###2023-12-09 13:39:18.403109$GNGGA,183917.50,4138.0675985,N,07032.3837714,W,1,26,0.6,13.330,M,-29.744,M,0.0,*5A
###2023-12-09 13:39:18.600224$GNGGA,183917.70,4138.0675206,N,07032.3839153,W,1,26,0.6,13.334,M,-29.744,M,0.0,*57
###2023-12-09 13:39:18.801220$GNGGA,183917.90,4138.0674268,N,07032.3839956,W,1,26,0.6,13.320,M,-29.744,M,0.0,*58
###2023-12-09 13:39:19.003717$GNRMC,183918.10,A,4138.0673287,N,07032.3840221,W,1.77,195.24,091223,,,A*51
###2023-12-09 13:39:19.006598$GNGGA,183918.10,4138.0673287,N,07032.3840221,W,1,26,0.6,13.326,M,-29.744,M,0.0,*5A
###2023-12-09 13:39:19.008469$GPGSA,A,3,03,04,16,26,27,28,29,31,,,,,1.0,0.6,0.8*3F
###2023-12-09 13:39:19.010251$GLGSA,A,3,65,71,72,73,74,75,83,,,,,,1.0,0.6,0.8*2F
###2023-12-09 13:39:19.011859$GAGSA,A,3,04,19,21,27,,,,,,,,,1.0,0.6,0.8*26
###2023-12-09 13:39:19.013582$GBGSA,A,3,12,14,24,25,33,35,,,,,,,1.0,0.6,0.8*2E
###2023-12-09 13:39:19.015927$GPGSV,2,1,08,03,25,244,39,04,48,306,46,16,69,225,44,26,82,040,48*7A
###2023-12-09 13:39:19.018256$GPGSV,2,2,08,27,18,172,41,28,37,086,45,29,20,046,43,31,58,068,48*7C
###2023-12-09 13:39:19.020605$GLGSV,2,1,07,65,40,316,45,71,20,176,41,72,60,217,45,73,20,054,44*63
###2023-12-09 13:39:19.022664$GLGSV,2,2,07,74,58,018,42,75,45,275,45,83,16,045,36,,,,*59
###2023-12-09 13:39:19.025008$GAGSV,1,1,04,04,41,309,45,19,70,181,40,21,75,045,46,27,21,050,41*61
###2023-12-09 13:39:19.027351$GBGSV,2,1,06,12,17,125,42,14,27,189,39,24,61,048,48,25,52,278,47*6E
###2023-12-09 13:39:19.029096$GBGSV,2,2,06,33,44,215,44,35,16,055,45,,,,,,,,*6B
###2023-12-09 13:39:19.030419$GNVTG,195.24,T,,M,1.77,N,3.28,K,A*20
###2023-12-09 13:39:19.032048$GNGST,183918.10,6.400,,,,0.090,0.070,0.160*67
###2023-12-09 13:39:19.033346$GNZDA,183918.10,09,12,2023,00,00*7A
###2023-12-09 13:39:19.033986$GNEBP,,,,,,M*13
###2023-12-09 13:39:19.202979$GNGGA,183918.30,4138.0672393,N,07032.3840923,W,1,26,0.6,13.331,M,-29.744,M,0.0,*52
###2023-12-09 13:39:19.400871$GNGGA,183918.50,4138.0671523,N,07032.3842244,W,1,26,0.6,13.344,M,-29.744,M,0.0,*50
###2023-12-09 13:39:19.601036$GNGGA,183918.70,4138.0670576,N,07032.3843162,W,1,26,0.6,13.315,M,-29.744,M,0.0,*51
###2023-12-09 13:39:19.801721$GNGGA,183918.90,4138.0669623,N,07032.3843395,W,1,26,0.6,13.304,M,-29.744,M,0.0,*5E
###2023-12-09 13:39:20.005171$GNRMC,183919.10,A,4138.0668676,N,07032.3843882,W,2.16,214.62,091223,,,A*5C
###2023-12-09 13:39:20.008033$GNGGA,183919.10,4138.0668676,N,07032.3843882,W,1,26,0.6,13.330,M,-29.744,M,0.0,*5C
###2023-12-09 13:39:20.009883$GPGSA,A,3,03,04,16,26,27,28,29,31,,,,,1.0,0.6,0.8*3F
###2023-12-09 13:39:20.011669$GLGSA,A,3,65,71,72,73,74,75,83,,,,,,1.0,0.6,0.8*2F
###2023-12-09 13:39:20.013250$GAGSA,A,3,04,19,21,27,,,,,,,,,1.0,0.6,0.8*26
###2023-12-09 13:39:20.014965$GBGSA,A,3,12,14,24,25,33,35,,,,,,,1.0,0.6,0.8*2E
###2023-12-09 13:39:20.017292$GPGSV,2,1,08,03,25,244,37,04,48,306,46,16,69,225,44,26,82,040,48*74
###2023-12-09 13:39:20.019645$GPGSV,2,2,08,27,18,172,41,28,37,086,45,29,20,046,44,31,58,068,47*74
###2023-12-09 13:39:20.021976$GLGSV,2,1,07,65,40,316,43,71,20,176,41,72,60,217,45,73,20,054,44*65
###2023-12-09 13:39:20.024031$GLGSV,2,2,07,74,58,018,42,75,45,275,46,83,16,045,36,,,,*5A
###2023-12-09 13:39:20.026363$GAGSV,1,1,04,04,41,309,44,19,70,181,39,21,75,045,46,27,21,050,42*6D
###2023-12-09 13:39:20.028974$GBGSV,2,1,06,12,17,125,42,14,27,189,39,24,61,048,49,25,52,278,46*6E
###2023-12-09 13:39:20.030770$GBGSV,2,2,06,33,44,215,45,35,16,055,44,,,,,,,,*6B
###2023-12-09 13:39:20.032104$GNVTG,214.62,T,,M,2.16,N,4.00,K,A*21
###2023-12-09 13:39:20.033723$GNGST,183919.10,5.800,,,,0.090,0.070,0.160*69
###2023-12-09 13:39:20.035059$GNZDA,183919.10,09,12,2023,00,00*7B
###2023-12-09 13:39:20.035703$GNEBP,,,,,,M*13
###2023-12-09 13:39:20.202221$GNGGA,183919.30,4138.0667658,N,07032.3844987,W,1,26,0.6,13.347,M,-29.744,M,0.0,*5E
###2023-12-09 13:39:20.400461$GNGGA,183919.50,4138.0666630,N,07032.3845823,W,1,26,0.6,13.319,M,-29.744,M,0.0,*52
###2023-12-09 13:39:20.601500$GNGGA,183919.70,4138.0665565,N,07032.3845978,W,1,26,0.6,13.293,M,-29.744,M,0.0,*5C
###2023-12-09 13:39:20.801689$GNGGA,183919.90,4138.0664485,N,07032.3846320,W,1,26,0.6,13.320,M,-29.744,M,0.0,*51
