###2023-12-09 13:25:51.015435$GAGSV,1,1,04,04,37,311,44,19,76,185,41,21,80,051,45,27,26,049,39*67
###2023-12-09 13:25:51.017757$GBGSV,2,1,06,14,33,190,43,24,66,041,48,25,48,272,47,26,19,068,43*61
###2023-12-09 13:25:51.019522$GBGSV,2,2,06,33,49,220,48,35,16,060,42,,,,,,,,*6D
###2023-12-09 13:25:51.020808$GNVTG,12.90,T,,M,3.93,N,7.27,K,A*12
###2023-12-09 13:25:51.022438$GNGST,182550.10,18.000,,,,0.100,0.070,0.160*55
###2023-12-09 13:25:51.023740$GNZDA,182550.10,09,12,2023,00,00*7B
###2023-12-09 13:25:51.024375$GNEBP,,,,,,M*13
###2023-12-09 13:25:51.193118$GNGGA,182550.30,4138.0439619,N,07032.3453857,W,1,24,0.6,13.046,M,-29.744,M,0.0,*54
###2023-12-09 13:25:51.388787$GNGGA,182550.50,4138.0441686,N,07032.3453197,W,1,24,0.6,13.040,M,-29.744,M,0.0,*58
###2023-12-09 13:25:51.591657$GNGGA,182550.70,4138.0443751,N,07032.3452604,W,1,24,0.6,13.041,M,-29.744,M,0.0,*5E
###2023-12-09 13:25:51.791280$GNGGA,182550.90,4138.0445774,N,07032.3451923,W,1,24,0.6,13.041,M,-29.744,M,0.0,*58
###2023-12-09 13:25:51.994509$GNRMC,182551.10,A,4138.0447696,N,07032.3451084,W,3.62,20.51,091223,,,A*6A
###2023-12-09 13:25:51.997983$GNGGA,182551.10,4138.0447696,N,07032.3451084,W,1,24,0.6,13.032,M,-29.744,M,0.0,*5E
###2023-12-09 13:25:52.000152$GPGSA,A,3,03,04,16,26,28,29,31,,,,,,1.1,0.6,0.9*3A
###2023-12-09 13:25:52.002206$GLGSA,A,3,65,71,72,73,74,75,,,,,,,1.1,0.6,0.9*24
###2023-12-09 13:25:52.004114$GAGSA,A,3,04,19,21,27,,,,,,,,,1.1,0.6,0.9*26
###2023-12-09 13:25:52.006181$GBGSA,A,3,14,24,25,26,33,35,,,,,,,1.1,0.6,0.9*29
###2023-12-09 13:25:52.008996$GPGSV,2,1,07,03,29,250,40,04,43,309,44,16,62,219,46,26,88,044,48*7C
###2023-12-09 13:25:52.011462$GPGSV,2,2,07,28,41,081,42,29,22,050,41,31,62,060,45,,,,*44
###2023-12-09 13:25:52.014263$GLGSV,2,1,06,65,34,322,42,71,27,175,44,72,67,229,47,73,26,049,42*64
###2023-12-09 13:25:52.016381$GLGSV,2,2,06,74,63,006,41,75,40,266,48,,,,,,,,*6E
###2023-12-09 13:25:52.019191$GAGSV,1,1,04,04,37,311,42,19,76,185,41,21,80,051,45,27,26,049,40*6F
###2023-12-09 13:25:52.022017$GBGSV,2,1,06,14,33,190,43,24,66,041,48,25,48,272,48,26,19,068,41*6C
###2023-12-09 13:25:52.024150$GBGSV,2,2,06,33,49,220,48,35,16,060,42,,,,,,,,*6D
###2023-12-09 13:25:52.025712$GNVTG,20.51,T,,M,3.62,N,6.70,K,A*13
###2023-12-09 13:25:52.027747$GNGST,182551.10,18.000,,,,0.100,0.070,0.160*54
###2023-12-09 13:25:52.029308$GNZDA,182551.10,09,12,2023,00,00*7A
###2023-12-09 13:25:52.030077$GNEBP,,,,,,M*13
###2023-12-09 13:25:52.190829$GNGGA,182551.30,4138.0449511,N,07032.3450065,W,1,24,0.6,13.019,M,-29.744,M,0.0,*59
###2023-12-09 13:25:52.394345$GNGGA,182551.50,4138.0451283,N,07032.3449157,W,1,24,0.6,13.016,M,-29.744,M,0.0,*5D
###2023-12-09 13:25:52.595635$GNGGA,182551.70,4138.0453048,N,07032.3448387,W,1,24,0.6,13.013,M,-29.744,M,0.0,*53
###2023-12-09 13:25:52.792471$GNGGA,182551.90,4138.0454724,N,07032.3447488,W,1,24,0.6,13.001,M,-29.744,M,0.0,*53
###2023-12-09 13:25:52.996175$GNRMC,182552.10,A,4138.0456384,N,07032.3446807,W,3.19,15.96,091223,,,A*6B
###2023-12-09 13:25:52.999632$GNGGA,182552.10,4138.0456384,N,07032.3446807,W,1,24,0.6,13.007,M,-29.744,M,0.0,*58
###2023-12-09 13:25:53.001790$GPGSA,A,3,03,04,16,26,28,29,31,,,,,,1.1,0.6,0.9*3A
###2023-12-09 13:25:53.003869$GLGSA,A,3,65,71,72,73,74,75,,,,,,,1.1,0.6,0.9*24
###2023-12-09 13:25:53.005774$GAGSA,A,3,04,19,21,27,,,,,,,,,1.1,0.6,0.9*26
###2023-12-09 13:25:53.007848$GBGSA,A,3,14,24,25,26,33,35,,,,,,,1.1,0.6,0.9*29
###2023-12-09 13:25:53.010654$GPGSV,2,1,07,03,29,250,42,04,43,309,45,16,62,219,46,26,88,044,48*7F
###2023-12-09 13:25:53.013105$GPGSV,2,2,07,28,41,081,44,29,22,050,39,31,62,060,46,,,,*4E
###2023-12-09 13:25:53.015984$GLGSV,2,1,06,65,34,322,41,71,27,175,43,72,67,229,47,73,26,049,41*63
###2023-12-09 13:25:53.018098$GLGSV,2,2,06,74,63,006,41,75,40,266,47,,,,,,,,*61
###2023-12-09 13:25:53.020907$GAGSV,1,1,04,04,37,311,43,19,76,185,41,21,80,051,45,27,26,049,40*6E
###2023-12-09 13:25:53.023725$GBGSV,2,1,06,14,33,190,43,24,66,041,48,25,48,272,47,26,19,068,43*61
###2023-12-09 13:25:53.025826$GBGSV,2,2,06,33,49,220,46,35,16,060,41,,,,,,,,*60
###2023-12-09 13:25:53.027405$GNVTG,15.96,T,,M,3.19,N,5.90,K,A*1F
###2023-12-09 13:25:53.029388$GNGST,182552.10,18.000,,,,0.100,0.070,0.160*57
###2023-12-09 13:25:53.030952$GNZDA,182552.10,09,12,2023,00,00*79
###2023-12-09 13:25:53.031720$GNEBP,,,,,,M*13
###2023-12-09 13:25:53.190418$GNGGA,182552.30,4138.0458103,N,07032.3446090,W,1,24,0.6,13.014,M,-29.744,M,0.0,*5D
###2023-12-09 13:25:53.390602$GNGGA,182552.50,4138.0459864,N,07032.3445385,W,1,24,0.6,13.015,M,-29.744,M,0.0,*57
###2023-12-09 13:25:53.591336$GNGGA,182552.70,4138.0461737,N,07032.3444853,W,1,24,0.6,13.017,M,-29.744,M,0.0,*54
###2023-12-09 13:25:53.792175$GNGGA,182552.90,4138.0463697,N,07032.3444218,W,1,24,0.6,13.011,M,-29.744,M,0.0,*50
###2023-12-09 13:25:53.995639$GNRMC,182553.10,A,4138.0465672,N,07032.3443441,W,3.65,14.10,091223,,,A*69
###2023-12-09 13:25:53.999090$GNGGA,182553.10,4138.0465672,N,07032.3443441,W,1,24,0.6,13.012,M,-29.744,M,0.0,*5A
###2023-12-09 13:25:54.001253$GPGSA,A,3,03,04,16,26,28,29,31,,,,,,1.1,0.6,0.9*3A
###2023-12-09 13:25:54.003335$GLGSA,A,3,65,71,72,73,74,75,,,,,,,1.1,0.6,0.9*24
###2023-12-09 13:25:54.005239$GAGSA,A,3,04,19,21,27,,,,,,,,,1.1,0.6,0.9*26
###2023-12-09 13:25:54.007352$GBGSA,A,3,14,24,25,26,33,35,,,,,,,1.1,0.6,0.9*29
###2023-12-09 13:25:54.010162$GPGSV,2,1,07,03,29,250,43,04,43,309,46,16,62,219,47,26,88,044,49*7D
###2023-12-09 13:25:54.012629$GPGSV,2,2,07,28,41,081,45,29,22,050,41,31,62,060,48,,,,*4E
###2023-12-09 13:25:54.015456$GLGSV,2,1,06,65,34,322,43,71,27,175,43,72,67,229,47,73,26,049,41*61
###2023-12-09 13:25:54.017562$GLGSV,2,2,06,74,63,006,41,75,40,266,48,,,,,,,,*6E
###2023-12-09 13:25:54.020373$GAGSV,1,1,04,04,37,311,45,19,76,185,42,21,80,051,47,27,26,049,41*68
###2023-12-09 13:25:54.023208$GBGSV,2,1,06,14,33,190,42,24,66,041,47,25,48,272,46,26,19,068,43*6E
###2023-12-09 13:25:54.025309$GBGSV,2,2,06,33,49,220,47,35,16,060,41,,,,,,,,*61
###2023-12-09 13:25:54.026911$GNVTG,14.10,T,,M,3.65,N,6.77,K,A*11
###2023-12-09 13:25:54.028898$GNGST,182553.10,18.000,,,,0.100,0.070,0.160*56
###2023-12-09 13:25:54.030459$GNZDA,182553.10,09,12,2023,00,00*78
###2023-12-09 13:25:54.031245$GNEBP,,,,,,M*13
###2023-12-09 13:25:54.191463$GNGGA,182553.30,4138.0467673,N,07032.3442856,W,1,24,0.6,13.027,M,-29.744,M,0.0,*56
###2023-12-09 13:25:54.390214$GNGGA,182553.50,4138.0469701,N,07032.3442252,W,1,24,0.6,13.027,M,-29.744,M,0.0,*54
###2023-12-09 13:25:54.592289$GNGGA,182553.70,4138.0471672,N,07032.3441413,W,1,24,0.6,13.005,M,-29.744,M,0.0,*5A
###2023-12-09 13:25:54.791280$GNGGA,182553.90,4138.0473592,N,07032.3440615,W,1,24,0.6,12.994,M,-29.744,M,0.0,*5E
###2023-12-09 13:25:54.995780$GNRMC,182554.10,A,4138.0475541,N,07032.3440141,W,3.62,4.32,091223,,,A*5C
###2023-12-09 13:25:54.999268$GNGGA,182554.10,4138.0475541,N,07032.3440141,W,1,24,0.6,13.019,M,-29.744,M,0.0,*52
###2023-12-09 13:25:55.001428$GPGSA,A,3,03,04,16,26,28,29,31,,,,,,1.1,0.6,0.9*3A
###2023-12-09 13:25:55.003503$GLGSA,A,3,65,71,72,73,74,75,,,,,,,1.1,0.6,0.9*24
###2023-12-09 13:25:55.005419$GAGSA,A,3,04,19,21,27,,,,,,,,,1.1,0.6,0.9*26
###2023-12-09 13:25:55.007498$GBGSA,A,3,14,24,25,26,33,35,,,,,,,1.1,0.6,0.9*29
###2023-12-09 13:25:55.010304$GPGSV,2,1,07,03,29,250,43,04,43,309,45,16,62,219,48,26,88,044,49*71
###2023-12-09 13:25:55.012774$GPGSV,2,2,07,28,41,081,44,29,22,050,42,31,62,060,47,,,,*43
###2023-12-09 13:25:55.015604$GLGSV,2,1,06,65,34,322,41,71,27,175,43,72,67,229,47,73,26,049,41*63
###2023-12-09 13:25:55.017713$GLGSV,2,2,06,74,63,006,41,75,40,266,48,,,,,,,,*6E
###2023-12-09 13:25:55.020531$GAGSV,1,1,04,04,37,311,43,19,76,185,41,21,80,051,47,27,26,049,40*6C
###2023-12-09 13:25:55.023344$GBGSV,2,1,06,14,33,190,44,24,66,041,48,25,48,272,47,26,19,068,43*66
###2023-12-09 13:25:55.025449$GBGSV,2,2,06,33,49,220,47,35,16,060,41,,,,,,,,*61
###2023-12-09 13:25:55.026985$GNVTG,4.32,T,,M,3.62,N,6.70,K,A*20
###2023-12-09 13:25:55.028982$GNGST,182554.10,18.000,,,,0.100,0.069,0.160*59
###2023-12-09 13:25:55.030557$GNZDA,182554.10,09,12,2023,00,00*7F
###2023-12-09 13:25:55.031376$GNEBP,,,,,,M*13
###2023-12-09 13:25:55.191439$GNGGA,182554.30,4138.0477516,N,07032.3439812,W,1,24,0.6,13.034,M,-29.744,M,0.0,*5E
###2023-12-09 13:25:55.390193$GNGGA,182554.50,4138.0479460,N,07032.3439021,W,1,24,0.6,13.032,M,-29.744,M,0.0,*58
###2023-12-09 13:25:55.589892$GNGGA,182554.70,4138.0481382,N,07032.3438034,W,1,24,0.6,13.020,M,-29.744,M,0.0,*50
###2023-12-09 13:25:55.790156$GNGGA,182554.90,4138.0483337,N,07032.3437507,W,1,24,0.6,13.009,M,-29.744,M,0.0,*53
###2023-12-09 13:25:55.994458$GNRMC,182555.10,A,4138.0485334,N,07032.3437196,W,3.52,7.50,091223,,,A*58
###2023-12-09 13:25:55.997338$GNGGA,182555.10,4138.0485334,N,07032.3437196,W,1,24,0.6,13.012,M,-29.744,M,0.0,*59
###2023-12-09 13:25:55.999155$GPGSA,A,3,03,04,16,26,28,29,31,,,,,,1.1,0.6,0.9*3A
###2023-12-09 13:25:56.000882$GLGSA,A,3,65,71,72,73,74,75,,,,,,,1.1,0.6,0.9*24
###2023-12-09 13:25:56.002460$GAGSA,A,3,04,19,21,27,,,,,,,,,1.1,0.6,0.9*26
