###2023-12-09 12:42:11.961052$GLGSV,2,2,06,74,71,303,42,75,25,244,44,,,,,,,,*67
###2023-12-09 12:42:11.963422$GAGSV,1,1,04,04,23,311,41,19,83,289,40,21,80,172,46,27,39,049,41*61
###2023-12-09 12:42:11.965756$GBGSV,2,1,05,14,52,196,45,24,79,359,48,25,34,255,45,26,33,058,44*61
###2023-12-09 12:42:11.967231$GBGSV,2,2,05,33,62,248,47,,,,,,,,,,,,*57
###2023-12-09 12:42:11.968526$GNVTG,40.87,T,,M,2.25,N,4.18,K,A*10
###2023-12-09 12:42:11.970173$GNGST,174211.10,18.000,,,,0.078,0.070,0.160*50
###2023-12-09 12:42:11.971490$GNZDA,174211.10,09,12,2023,00,00*70
###2023-12-09 12:42:11.972132$GNEBP,,,,,,M*13
###2023-12-09 12:42:12.141306$GNGGA,174211.30,4138.0670859,N,07032.3767593,W,1,24,0.6,13.363,M,-29.744,M,0.0,*5F
###2023-12-09 12:42:12.340875$GNGGA,174211.50,4138.0671843,N,07032.3766355,W,1,24,0.6,13.366,M,-29.744,M,0.0,*5B
###2023-12-09 12:42:12.541176$GNGGA,174211.70,4138.0672768,N,07032.3764919,W,1,24,0.6,13.372,M,-29.744,M,0.0,*59
###2023-12-09 12:42:12.740402$GNGGA,174211.90,4138.0673531,N,07032.3763301,W,1,24,0.6,13.363,M,-29.744,M,0.0,*5C
###2023-12-09 12:42:12.941829$GNRMC,174212.10,A,4138.0674203,N,07032.3761630,W,2.59,60.93,091223,,,A*63
###2023-12-09 12:42:12.944709$GNGGA,174212.10,4138.0674203,N,07032.3761630,W,1,24,0.6,13.359,M,-29.744,M,0.0,*5A
###2023-12-09 12:42:12.946604$GPGSA,A,3,03,04,16,26,28,29,31,32,,,,,1.1,0.6,0.9*3B
###2023-12-09 12:42:12.948367$GLGSA,A,3,65,71,72,73,74,75,,,,,,,1.1,0.6,0.9*24
###2023-12-09 12:42:12.949981$GAGSA,A,3,04,19,21,27,,,,,,,,,1.1,0.6,0.9*26
###2023-12-09 12:42:12.951658$GBGSA,A,3,14,24,25,26,33,,,,,,,,1.1,0.6,0.9*2F
###2023-12-09 12:42:12.953997$GPGSV,2,1,08,03,38,272,45,04,25,311,42,16,40,208,45,26,70,207,48*78
###2023-12-09 12:42:12.956367$GPGSV,2,2,08,28,55,060,44,29,25,070,40,31,72,013,46,32,27,136,43*72
###2023-12-09 12:42:12.958728$GLGSV,2,1,06,65,15,329,38,71,52,170,47,72,68,302,46,73,44,035,46*68
###2023-12-09 12:42:12.960485$GLGSV,2,2,06,74,71,303,42,75,25,244,44,,,,,,,,*67
###2023-12-09 12:42:12.962872$GAGSV,1,1,04,04,23,311,41,19,83,289,40,21,80,172,46,27,39,049,42*62
###2023-12-09 12:42:12.965234$GBGSV,2,1,05,14,52,196,45,24,79,359,48,25,34,255,46,26,33,058,43*65
###2023-12-09 12:42:12.966717$GBGSV,2,2,05,33,62,248,47,,,,,,,,,,,,*57
###2023-12-09 12:42:12.968016$GNVTG,60.93,T,,M,2.59,N,4.79,K,A*1B
###2023-12-09 12:42:12.969678$GNGST,174212.10,18.000,,,,0.078,0.070,0.160*53
###2023-12-09 12:42:12.970989$GNZDA,174212.10,09,12,2023,00,00*73
###2023-12-09 12:42:12.971637$GNEBP,,,,,,M*13
###2023-12-09 12:42:13.140513$GNGGA,174212.30,4138.0674927,N,07032.3759896,W,1,24,0.6,13.362,M,-29.744,M,0.0,*54
###2023-12-09 12:42:13.340750$GNGGA,174212.50,4138.0675457,N,07032.3758009,W,1,24,0.6,13.344,M,-29.744,M,0.0,*52
###2023-12-09 12:42:13.541938$GNGGA,174212.70,4138.0675774,N,07032.3756096,W,1,24,0.6,13.350,M,-29.744,M,0.0,*5F
###2023-12-09 12:42:13.740221$GNGGA,174212.90,4138.0676077,N,07032.3754206,W,1,24,0.6,13.362,M,-29.744,M,0.0,*5E
###2023-12-09 12:42:13.941646$GNRMC,174213.10,A,4138.0676279,N,07032.3752134,W,2.90,86.57,091223,,,A*6B
###2023-12-09 12:42:13.944517$GNGGA,174213.10,4138.0676279,N,07032.3752134,W,1,24,0.6,13.363,M,-29.744,M,0.0,*5E
###2023-12-09 12:42:13.946387$GPGSA,A,3,03,04,16,26,28,29,31,32,,,,,1.1,0.6,0.9*3B
###2023-12-09 12:42:13.948131$GLGSA,A,3,65,71,72,73,74,75,,,,,,,1.1,0.6,0.9*24
###2023-12-09 12:42:13.949728$GAGSA,A,3,04,19,21,27,,,,,,,,,1.1,0.6,0.9*26
###2023-12-09 12:42:13.951394$GBGSA,A,3,14,24,25,26,33,,,,,,,,1.1,0.6,0.9*2F
###2023-12-09 12:42:13.953736$GPGSV,2,1,08,03,38,272,45,04,25,311,41,16,40,208,46,26,70,207,48*78
###2023-12-09 12:42:13.956096$GPGSV,2,2,08,28,55,060,45,29,25,070,40,31,72,013,48,32,27,136,39*70
###2023-12-09 12:42:13.958449$GLGSV,2,1,06,65,15,329,38,71,52,170,46,72,68,302,47,73,44,035,46*68
###2023-12-09 12:42:13.960213$GLGSV,2,2,06,74,71,303,42,75,25,244,42,,,,,,,,*61
###2023-12-09 12:42:13.962547$GAGSV,1,1,04,04,23,311,40,19,83,289,40,21,80,172,46,27,39,049,44*65
###2023-12-09 12:42:13.964888$GBGSV,2,1,05,14,52,196,45,24,79,359,48,25,34,255,44,26,33,058,44*60
###2023-12-09 12:42:13.966352$GBGSV,2,2,05,33,62,248,48,,,,,,,,,,,,*58
###2023-12-09 12:42:13.967655$GNVTG,86.57,T,,M,2.90,N,5.36,K,A*14
###2023-12-09 12:42:13.969303$GNGST,174213.10,18.000,,,,0.078,0.070,0.160*52
###2023-12-09 12:42:13.970603$GNZDA,174213.10,09,12,2023,00,00*72
###2023-12-09 12:42:13.971245$GNEBP,,,,,,M*13
###2023-12-09 12:42:14.142051$GNGGA,174213.30,4138.0676258,N,07032.3750164,W,1,24,0.6,13.344,M,-29.744,M,0.0,*5D
###2023-12-09 12:42:14.341827$GNGGA,174213.50,4138.0676226,N,07032.3748268,W,1,24,0.6,13.361,M,-29.744,M,0.0,*53
###2023-12-09 12:42:14.541982$GNGGA,174213.70,4138.0676102,N,07032.3746188,W,1,24,0.6,13.359,M,-29.744,M,0.0,*5C
###2023-12-09 12:42:14.741979$GNGGA,174213.90,4138.0675780,N,07032.3744281,W,1,24,0.6,13.354,M,-29.744,M,0.0,*58
###2023-12-09 12:42:14.942682$GNRMC,174214.10,A,4138.0675349,N,07032.3742528,W,2.59,108.26,091223,,,A*51
###2023-12-09 12:42:14.945566$GNGGA,174214.10,4138.0675349,N,07032.3742528,W,1,24,0.6,13.356,M,-29.744,M,0.0,*56
###2023-12-09 12:42:14.947453$GPGSA,A,3,03,04,16,26,28,29,31,32,,,,,1.1,0.6,0.9*3B
###2023-12-09 12:42:14.949189$GLGSA,A,3,65,71,72,73,74,75,,,,,,,1.1,0.6,0.9*24
###2023-12-09 12:42:14.950798$GAGSA,A,3,04,19,21,27,,,,,,,,,1.1,0.6,0.9*26
###2023-12-09 12:42:14.952454$GBGSA,A,3,14,24,25,26,33,,,,,,,,1.1,0.6,0.9*2F
###2023-12-09 12:42:14.954804$GPGSV,2,1,08,03,38,272,44,04,25,311,42,16,40,208,45,26,70,207,48*79
###2023-12-09 12:42:14.957143$GPGSV,2,2,08,28,55,060,45,29,25,070,44,31,72,013,47,32,27,136,42*77
###2023-12-09 12:42:14.959506$GLGSV,2,1,06,65,15,329,41,71,52,170,46,72,68,302,46,73,44,035,47*66
###2023-12-09 12:42:14.961275$GLGSV,2,2,06,74,71,303,42,75,25,244,42,,,,,,,,*61
###2023-12-09 12:42:14.963624$GAGSV,1,1,04,04,23,311,41,19,83,289,40,21,80,172,45,27,39,049,43*60
###2023-12-09 12:42:14.965964$GBGSV,2,1,05,14,52,196,45,24,79,359,48,25,34,255,44,26,33,058,45*61
###2023-12-09 12:42:14.967435$GBGSV,2,2,05,33,62,248,48,,,,,,,,,,,,*58
###2023-12-09 12:42:14.968761$GNVTG,108.26,T,,M,2.59,N,4.79,K,A*2A
###2023-12-09 12:42:14.970408$GNGST,174214.10,18.000,,,,0.078,0.070,0.160*55
###2023-12-09 12:42:14.971714$GNZDA,174214.10,09,12,2023,00,00*75
###2023-12-09 12:42:14.972357$GNEBP,,,,,,M*13
###2023-12-09 12:42:15.141293$GNGGA,174214.30,4138.0674849,N,07032.3740619,W,1,24,0.6,13.366,M,-29.744,M,0.0,*5E
###2023-12-09 12:42:15.341787$GNGGA,174214.50,4138.0674310,N,07032.3738819,W,1,24,0.6,13.355,M,-29.744,M,0.0,*5E
###2023-12-09 12:42:15.542098$GNGGA,174214.70,4138.0673602,N,07032.3737144,W,1,24,0.6,13.358,M,-29.744,M,0.0,*5E
###2023-12-09 12:42:15.743451$GNGGA,174214.90,4138.0672780,N,07032.3735510,W,1,24,0.6,13.366,M,-29.744,M,0.0,*50
###2023-12-09 12:42:15.941434$GNRMC,174215.10,A,4138.0671872,N,07032.3733977,W,2.49,130.12,091223,,,A*5A
###2023-12-09 12:42:15.944317$GNGGA,174215.10,4138.0671872,N,07032.3733977,W,1,24,0.6,13.364,M,-29.744,M,0.0,*51
###2023-12-09 12:42:15.946180$GPGSA,A,3,03,04,16,26,28,29,31,32,,,,,1.1,0.6,0.9*3B
###2023-12-09 12:42:15.947927$GLGSA,A,3,65,71,72,73,74,75,,,,,,,1.1,0.6,0.9*24
###2023-12-09 12:42:15.949528$GAGSA,A,3,04,19,21,27,,,,,,,,,1.1,0.6,0.9*26
###2023-12-09 12:42:15.951191$GBGSA,A,3,14,24,25,26,33,,,,,,,,1.1,0.6,0.9*2F
###2023-12-09 12:42:15.953517$GPGSV,2,1,08,03,38,272,44,04,25,311,41,16,40,208,45,26,70,207,48*7A
###2023-12-09 12:42:15.955870$GPGSV,2,2,08,28,55,060,46,29,25,070,44,31,72,013,47,32,27,136,42*74
###2023-12-09 12:42:15.958207$GLGSV,2,1,06,65,15,329,43,71,52,170,46,72,68,302,46,73,44,035,47*64
###2023-12-09 12:42:15.959979$GLGSV,2,2,06,74,71,303,43,75,25,244,44,,,,,,,,*66
###2023-12-09 12:42:15.962292$GAGSV,1,1,04,04,23,311,40,19,83,289,40,21,80,172,45,27,39,049,44*66
###2023-12-09 12:42:15.964643$GBGSV,2,1,05,14,52,196,46,24,79,359,48,25,34,255,45,26,33,058,45*63
###2023-12-09 12:42:15.966100$GBGSV,2,2,05,33,62,248,49,,,,,,,,,,,,*59
###2023-12-09 12:42:15.967439$GNVTG,130.12,T,,M,2.49,N,4.61,K,A*2E
###2023-12-09 12:42:15.969086$GNGST,174215.10,18.000,,,,0.078,0.070,0.160*54
###2023-12-09 12:42:15.970367$GNZDA,174215.10,09,12,2023,00,00*74
###2023-12-09 12:42:15.971020$GNEBP,,,,,,M*13
###2023-12-09 12:42:16.140927$GNGGA,174215.30,4138.0670935,N,07032.3732560,W,1,24,0.6,13.366,M,-29.744,M,0.0,*59
###2023-12-09 12:42:16.341813$GNGGA,174215.50,4138.0669888,N,07032.3731144,W,1,24,0.6,13.374,M,-29.744,M,0.0,*52
###2023-12-09 12:42:16.543718$GNGGA,174215.70,4138.0668760,N,07032.3729911,W,1,24,0.6,13.369,M,-29.744,M,0.0,*55
###2023-12-09 12:42:16.741395$GNGGA,174215.90,4138.0667618,N,07032.3728863,W,1,24,0.6,13.380,M,-29.744,M,0.0,*58
###2023-12-09 12:42:16.942419$GNRMC,174216.10,A,4138.0666313,N,07032.3727943,W,2.62,153.04,091223,,,A*5A
###2023-12-09 12:42:16.945316$GNGGA,174216.10,4138.0666313,N,07032.3727943,W,1,24,0.6,13.382,M,-29.744,M,0.0,*52
###2023-12-09 12:42:16.947201$GPGSA,A,3,03,04,16,26,28,29,31,32,,,,,1.1,0.6,0.9*3B
###2023-12-09 12:42:16.948931$GLGSA,A,3,65,71,72,73,74,75,,,,,,,1.1,0.6,0.9*24
