###2023-12-09 13:32:59.998900$GNGGA,183259.10,4138.0384792,N,07032.4112655,W,1,24,0.7,13.416,M,-29.745,M,0.0,*50
###2023-12-09 13:33:00.000711$GPGSA,A,3,03,04,16,26,28,29,31,,,,,,1.1,0.7,0.9*3B
###2023-12-09 13:33:00.002492$GLGSA,A,3,65,71,72,73,74,75,83,,,,,,1.1,0.7,0.9*2E
###2023-12-09 13:33:00.004097$GAGSA,A,3,04,19,21,27,,,,,,,,,1.1,0.7,0.9*27
###2023-12-09 13:33:00.005809$GBGSA,A,3,14,24,25,26,33,35,,,,,,,1.1,0.7,0.9*28
###2023-12-09 13:33:00.008156$GPGSV,2,1,07,03,27,247,42,04,45,308,42,16,65,221,45,26,85,040,48*71
###2023-12-09 13:33:00.010193$GPGSV,2,2,07,28,39,084,45,29,21,048,44,31,60,064,48,,,,*4D
###2023-12-09 13:33:00.012538$GLGSV,2,1,07,65,38,319,40,71,23,175,46,72,63,222,46,73,23,052,44*62
###2023-12-09 13:33:00.014622$GLGSV,2,2,07,74,60,013,41,75,43,271,46,83,15,048,37,,,,*54
###2023-12-09 13:33:00.016962$GAGSV,1,1,04,04,39,310,41,19,73,182,41,21,77,047,46,27,23,050,41*61
###2023-12-09 13:33:00.019306$GBGSV,2,1,06,14,29,190,39,24,63,045,49,25,50,275,47,26,16,070,41*6D
###2023-12-09 13:33:00.021048$GBGSV,2,2,06,33,46,217,48,35,16,057,43,,,,,,,,*63
###2023-12-09 13:33:00.022370$GNVTG,326.91,T,,M,2.84,N,5.26,K,A*23
###2023-12-09 13:33:00.024032$GNGST,183259.10,18.000,,,,0.120,0.076,0.190*51
###2023-12-09 13:33:00.025327$GNZDA,183259.10,09,12,2023,00,00*74
###2023-12-09 13:33:00.025966$GNEBP,,,,,,M*13
###2023-12-09 13:33:00.194990$GNGGA,183259.30,4138.0386112,N,07032.4113839,W,1,25,0.6,13.407,M,-29.745,M,0.0,*5B
###2023-12-09 13:33:00.393908$GNGGA,183259.50,4138.0387433,N,07032.4115040,W,1,25,0.6,13.407,M,-29.745,M,0.0,*5A
###2023-12-09 13:33:00.594066$GNGGA,183259.70,4138.0388766,N,07032.4116189,W,1,25,0.6,13.401,M,-29.745,M,0.0,*55
###2023-12-09 13:33:00.796027$GNGGA,183259.90,4138.0390126,N,07032.4117374,W,1,25,0.6,13.394,M,-29.745,M,0.0,*5A
###2023-12-09 13:33:00.996725$GNRMC,183300.10,A,4138.0391430,N,07032.4118595,W,2.92,323.91,091223,,,A*53
###2023-12-09 13:33:00.999612$GNGGA,183300.10,4138.0391430,N,07032.4118595,W,1,25,0.6,13.392,M,-29.745,M,0.0,*5C
###2023-12-09 13:33:01.001407$GPGSA,A,3,03,04,16,26,28,29,31,,,,,,1.1,0.6,0.9*3A
###2023-12-09 13:33:01.003198$GLGSA,A,3,65,71,72,73,74,75,83,,,,,,1.1,0.6,0.9*2F
###2023-12-09 13:33:01.004786$GAGSA,A,3,04,19,21,27,,,,,,,,,1.1,0.6,0.9*26
###2023-12-09 13:33:01.006506$GBGSA,A,3,14,24,25,26,33,35,,,,,,,1.1,0.6,0.9*29
###2023-12-09 13:33:01.008839$GPGSV,2,1,07,03,27,247,44,04,45,308,43,16,65,221,45,26,85,040,48*76
###2023-12-09 13:33:01.010893$GPGSV,2,2,07,28,39,084,46,29,21,048,44,31,60,064,47,,,,*41
###2023-12-09 13:33:01.013255$GLGSV,2,1,07,65,38,319,40,71,23,175,45,72,63,222,46,73,23,052,44*61
###2023-12-09 13:33:01.015305$GLGSV,2,2,07,74,60,013,41,75,43,271,47,83,15,048,36,,,,*54
###2023-12-09 13:33:01.017631$GAGSV,1,1,04,04,39,310,39,19,73,182,41,21,77,047,46,27,23,050,42*6D
###2023-12-09 13:33:01.019967$GBGSV,2,1,06,14,29,190,38,24,63,045,47,25,50,275,46,26,16,070,42*60
###2023-12-09 13:33:01.021710$GBGSV,2,2,06,33,46,217,46,35,16,057,42,,,,,,,,*6C
###2023-12-09 13:33:01.023043$GNVTG,323.91,T,,M,2.92,N,5.40,K,A*21
###2023-12-09 13:33:01.024685$GNGST,183300.10,18.000,,,,0.120,0.075,0.190*5F
###2023-12-09 13:33:01.025969$GNZDA,183300.10,09,12,2023,00,00*79
###2023-12-09 13:33:01.026615$GNEBP,,,,,,M*13
###2023-12-09 13:33:01.194816$GNGGA,183300.30,4138.0392728,N,07032.4119870,W,1,25,0.6,13.396,M,-29.745,M,0.0,*54
###2023-12-09 13:33:01.393695$GNGGA,183300.50,4138.0394091,N,07032.4121051,W,1,25,0.6,13.397,M,-29.745,M,0.0,*50
###2023-12-09 13:33:01.593643$GNGGA,183300.70,4138.0395507,N,07032.4122072,W,1,24,0.7,13.393,M,-29.745,M,0.0,*5F
###2023-12-09 13:33:01.795936$GNGGA,183300.90,4138.0396957,N,07032.4123082,W,1,24,0.7,13.389,M,-29.745,M,0.0,*5E
###2023-12-09 13:33:01.997998$GNRMC,183301.10,A,4138.0398351,N,07032.4124090,W,2.78,330.56,091223,,,A*59
###2023-12-09 13:33:02.000883$GNGGA,183301.10,4138.0398351,N,07032.4124090,W,1,24,0.7,13.378,M,-29.745,M,0.0,*5F
###2023-12-09 13:33:02.002686$GPGSA,A,3,03,04,16,26,28,29,31,,,,,,1.1,0.7,0.9*3B
###2023-12-09 13:33:02.004460$GLGSA,A,3,65,71,72,73,74,75,83,,,,,,1.1,0.7,0.9*2E
###2023-12-09 13:33:02.006034$GAGSA,A,3,04,19,21,27,,,,,,,,,1.1,0.7,0.9*27
###2023-12-09 13:33:02.007749$GBGSA,A,3,14,24,25,26,33,35,,,,,,,1.1,0.7,0.9*28
###2023-12-09 13:33:02.010062$GPGSV,2,1,07,03,27,247,42,04,45,308,44,16,65,221,45,26,85,040,48*77
###2023-12-09 13:33:02.012101$GPGSV,2,2,07,28,39,084,46,29,21,048,42,31,60,064,47,,,,*47
###2023-12-09 13:33:02.014413$GLGSV,2,1,07,65,38,319,40,71,23,175,45,72,63,222,46,73,23,052,44*61
###2023-12-09 13:33:02.016454$GLGSV,2,2,07,74,60,013,41,75,43,271,45,83,15,048,35,,,,*55
###2023-12-09 13:33:02.018782$GAGSV,1,1,04,04,39,310,42,19,73,182,41,21,77,047,46,27,23,050,41*62
###2023-12-09 13:33:02.021139$GBGSV,2,1,06,14,29,190,40,24,63,045,48,25,50,275,47,26,16,070,43*60
###2023-12-09 13:33:02.022896$GBGSV,2,2,06,33,46,217,47,35,16,057,44,,,,,,,,*6B
###2023-12-09 13:33:02.024220$GNVTG,330.56,T,,M,2.78,N,5.15,K,A*2C
###2023-12-09 13:33:02.025858$GNGST,183301.10,18.000,,,,0.120,0.075,0.190*5E
###2023-12-09 13:33:02.027156$GNZDA,183301.10,09,12,2023,00,00*78
###2023-12-09 13:33:02.027791$GNEBP,,,,,,M*13
###2023-12-09 13:33:02.194688$GNGGA,183301.30,4138.0399738,N,07032.4125069,W,1,25,0.6,13.380,M,-29.745,M,0.0,*57
###2023-12-09 13:33:02.394449$GNGGA,183301.50,4138.0401200,N,07032.4125953,W,1,24,0.6,13.370,M,-29.745,M,0.0,*57
###2023-12-09 13:33:02.595746$GNGGA,183301.70,4138.0402713,N,07032.4126668,W,1,24,0.6,13.368,M,-29.745,M,0.0,*5C
###2023-12-09 13:33:02.794577$GNGGA,183301.90,4138.0404256,N,07032.4127388,W,1,24,0.6,13.372,M,-29.745,M,0.0,*51
###2023-12-09 13:33:02.998188$GNRMC,183302.10,A,4138.0405864,N,07032.4128110,W,2.99,345.91,091223,,,A*57
###2023-12-09 13:33:03.001074$GNGGA,183302.10,4138.0405864,N,07032.4128110,W,1,24,0.6,13.370,M,-29.745,M,0.0,*5E
###2023-12-09 13:33:03.002877$GPGSA,A,3,03,04,16,26,28,29,31,,,,,,1.1,0.6,0.9*3A
###2023-12-09 13:33:03.004579$GLGSA,A,3,65,71,72,73,74,75,,,,,,,1.1,0.6,0.9*24
###2023-12-09 13:33:03.006153$GAGSA,A,3,04,19,21,27,,,,,,,,,1.1,0.6,0.9*26
###2023-12-09 13:33:03.007862$GBGSA,A,3,14,24,25,26,33,35,,,,,,,1.1,0.6,0.9*29
###2023-12-09 13:33:03.010168$GPGSV,2,1,07,03,27,247,42,04,45,308,46,16,65,221,47,26,85,040,48*77
###2023-12-09 13:33:03.012209$GPGSV,2,2,07,28,39,084,44,29,21,048,40,31,60,064,46,,,,*46
###2023-12-09 13:33:03.014528$GLGSV,2,1,06,65,38,319,42,71,23,175,44,72,63,222,47,73,23,052,41*67
###2023-12-09 13:33:03.016272$GLGSV,2,2,06,74,60,013,41,75,43,271,47,,,,,,,,*63
###2023-12-09 13:33:03.018588$GAGSV,1,1,04,04,39,310,44,19,73,182,41,21,77,047,46,27,23,050,40*65
###2023-12-09 13:33:03.020903$GBGSV,2,1,06,14,29,190,42,24,63,045,48,25,50,275,47,26,16,070,39*6F
###2023-12-09 13:33:03.022644$GBGSV,2,2,06,33,46,217,46,35,16,057,42,,,,,,,,*6C
###2023-12-09 13:33:03.023954$GNVTG,345.91,T,,M,2.99,N,5.54,K,A*2F
###2023-12-09 13:33:03.025586$GNGST,183302.10,18.000,,,,0.120,0.074,0.180*5D
###2023-12-09 13:33:03.026901$GNZDA,183302.10,09,12,2023,00,00*7B
###2023-12-09 13:33:03.027540$GNEBP,,,,,,M*13
###2023-12-09 13:33:03.202919$GNGGA,183302.30,4138.0407506,N,07032.4128525,W,1,24,0.6,13.370,M,-29.745,M,0.0,*55
###2023-12-09 13:33:03.393763$GNGGA,183302.50,4138.0409144,N,07032.4128701,W,1,24,0.6,13.368,M,-29.745,M,0.0,*52
###2023-12-09 13:33:03.594669$GNGGA,183302.70,4138.0410774,N,07032.4128737,W,1,24,0.6,13.367,M,-29.745,M,0.0,*57
###2023-12-09 13:33:03.793627$GNGGA,183302.90,4138.0412391,N,07032.4128737,W,1,24,0.6,13.363,M,-29.745,M,0.0,*50
###2023-12-09 13:33:03.996446$GNRMC,183303.10,A,4138.0414003,N,07032.4128640,W,2.86,4.47,091223,,,A*5E
###2023-12-09 13:33:03.999301$GNGGA,183303.10,4138.0414003,N,07032.4128640,W,1,24,0.6,13.346,M,-29.745,M,0.0,*51
###2023-12-09 13:33:04.001079$GPGSA,A,3,03,04,16,26,28,29,31,,,,,,1.1,0.6,0.9*3A
###2023-12-09 13:33:04.002799$GLGSA,A,3,65,71,72,73,74,75,,,,,,,1.1,0.6,0.9*24
###2023-12-09 13:33:04.004374$GAGSA,A,3,04,19,21,27,,,,,,,,,1.1,0.6,0.9*26
###2023-12-09 13:33:04.006078$GBGSA,A,3,14,24,25,26,33,35,,,,,,,1.1,0.6,0.9*29
###2023-12-09 13:33:04.008410$GPGSV,2,1,07,03,27,247,42,04,45,308,45,16,65,221,47,26,85,040,48*74
###2023-12-09 13:33:04.010437$GPGSV,2,2,07,28,39,084,43,29,21,048,38,31,60,064,45,,,,*4D
###2023-12-09 13:33:04.013029$GLGSV,2,1,06,65,38,319,42,71,23,175,41,72,63,222,47,73,23,052,38*6C
###2023-12-09 13:33:04.014826$GLGSV,2,2,06,74,60,013,41,75,43,271,48,,,,,,,,*6C
###2023-12-09 13:33:04.017146$GAGSV,1,1,04,04,39,310,43,19,73,182,41,21,77,047,46,27,23,050,37*62
###2023-12-09 13:33:04.019475$GBGSV,2,1,06,14,29,190,41,24,63,045,46,25,50,275,47,26,16,070,42*6E
###2023-12-09 13:33:04.021222$GBGSV,2,2,06,33,46,217,46,35,16,057,41,,,,,,,,*6F
###2023-12-09 13:33:04.022476$GNVTG,4.47,T,,M,2.86,N,5.29,K,A*26
###2023-12-09 13:33:04.024138$GNGST,183303.10,18.000,,,,0.110,0.074,0.180*5F
###2023-12-09 13:33:04.025435$GNZDA,183303.10,09,12,2023,00,00*7A
###2023-12-09 13:33:04.026073$GNEBP,,,,,,M*13
