###2023-12-09 13:22:40.995374$GNRMC,182240.10,A,4138.0575827,N,07032.3605725,W,3.50,187.96,091223,,,A*50
###2023-12-09 13:22:40.998225$GNGGA,182240.10,4138.0575827,N,07032.3605725,W,1,24,0.7,13.020,M,-29.744,M,0.0,*50
###2023-12-09 13:22:41.000027$GPGSA,A,3,03,04,16,26,28,29,31,,,,,,1.1,0.7,0.9*3B
###2023-12-09 13:22:41.001741$GLGSA,A,3,65,71,72,73,74,75,,,,,,,1.1,0.7,0.9*25
###2023-12-09 13:22:41.003328$GAGSA,A,3,04,19,21,27,,,,,,,,,1.1,0.7,0.9*27
###2023-12-09 13:22:41.005028$GBGSA,A,3,14,24,25,26,33,35,,,,,,,1.1,0.7,0.9*28
###2023-12-09 13:22:41.007352$GPGSV,2,1,07,03,30,252,42,04,41,310,44,16,60,218,46,26,90,099,48*74
###2023-12-09 13:22:41.009377$GPGSV,2,2,07,28,42,080,45,29,23,052,42,31,63,057,47,,,,*46
###2023-12-09 13:22:41.011698$GLGSV,2,1,06,65,34,323,43,71,30,174,42,72,69,234,46,73,27,048,44*60
###2023-12-09 13:22:41.013435$GLGSV,2,2,06,74,64,002,43,75,39,263,46,,,,,,,,*6A
###2023-12-09 13:22:41.015759$GAGSV,1,1,04,04,36,311,45,19,77,186,40,21,81,054,47,27,26,049,40*6C
###2023-12-09 13:22:41.018088$GBGSV,2,1,06,14,34,191,42,24,66,040,48,25,47,271,46,26,19,068,43*6A
###2023-12-09 13:22:41.019834$GBGSV,2,2,06,33,50,221,45,35,16,061,44,,,,,,,,*6E
###2023-12-09 13:22:41.021150$GNVTG,187.96,T,,M,3.50,N,6.48,K,A*2E
###2023-12-09 13:22:41.022801$GNGST,182240.10,18.000,,,,0.100,0.069,0.160*5B
###2023-12-09 13:22:41.024083$GNZDA,182240.10,09,12,2023,00,00*7D
###2023-12-09 13:22:41.024718$GNEBP,,,,,,M*13
###2023-12-09 13:22:41.183953$GNGGA,182240.30,4138.0573879,N,07032.3606147,W,1,24,0.7,13.049,M,-29.744,M,0.0,*51
###2023-12-09 13:22:41.383804$GNGGA,182240.50,4138.0571902,N,07032.3606200,W,1,24,0.7,13.025,M,-29.744,M,0.0,*52
###2023-12-09 13:22:41.584310$GNGGA,182240.70,4138.0569952,N,07032.3606105,W,1,24,0.7,12.995,M,-29.744,M,0.0,*59
###2023-12-09 13:22:41.784596$GNGGA,182240.90,4138.0568002,N,07032.3606566,W,1,24,0.7,13.032,M,-29.744,M,0.0,*5E
###2023-12-09 13:22:41.987256$GNRMC,182241.10,A,4138.0565997,N,07032.3606995,W,3.56,180.06,091223,,,A*54
###2023-12-09 13:22:41.990119$GNGGA,182241.10,4138.0565997,N,07032.3606995,W,1,24,0.7,13.025,M,-29.744,M,0.0,*59
###2023-12-09 13:22:41.991918$GPGSA,A,3,03,04,16,26,28,29,31,,,,,,1.1,0.7,0.9*3B
###2023-12-09 13:22:41.993634$GLGSA,A,3,65,71,72,73,74,75,,,,,,,1.1,0.7,0.9*25
###2023-12-09 13:22:41.995226$GAGSA,A,3,04,19,21,27,,,,,,,,,1.1,0.7,0.9*27
###2023-12-09 13:22:41.996939$GBGSA,A,3,14,24,25,26,33,35,,,,,,,1.1,0.7,0.9*28
###2023-12-09 13:22:41.999275$GPGSV,2,1,07,03,30,252,42,04,41,310,44,16,60,218,46,26,90,099,47*7B
###2023-12-09 13:22:42.001318$GPGSV,2,2,07,28,42,080,43,29,23,052,39,31,63,057,46,,,,*4D
###2023-12-09 13:22:42.003659$GLGSV,2,1,06,65,34,323,44,71,30,174,42,72,69,234,46,73,27,048,40*63
###2023-12-09 13:22:42.005416$GLGSV,2,2,06,74,64,002,43,75,39,263,48,,,,,,,,*64
###2023-12-09 13:22:42.007753$GAGSV,1,1,04,04,36,311,45,19,77,186,40,21,81,054,46,27,26,049,38*62
###2023-12-09 13:22:42.010092$GBGSV,2,1,06,14,34,191,41,24,66,040,48,25,47,271,48,26,19,068,42*66
###2023-12-09 13:22:42.011855$GBGSV,2,2,06,33,50,221,46,35,16,061,43,,,,,,,,*6A
###2023-12-09 13:22:42.013182$GNVTG,180.06,T,,M,3.56,N,6.59,K,A*26
###2023-12-09 13:22:42.014845$GNGST,182241.10,18.000,,,,0.100,0.069,0.160*5A
###2023-12-09 13:22:42.016137$GNZDA,182241.10,09,12,2023,00,00*7C
###2023-12-09 13:22:42.016775$GNEBP,,,,,,M*13
###2023-12-09 13:22:42.185290$GNGGA,182241.30,4138.0564108,N,07032.3606908,W,1,24,0.7,13.008,M,-29.744,M,0.0,*5F
###2023-12-09 13:22:42.383787$GNGGA,182241.50,4138.0562170,N,07032.3607131,W,1,24,0.7,13.033,M,-29.744,M,0.0,*5B
###2023-12-09 13:22:42.585390$GNGGA,182241.70,4138.0560208,N,07032.3607451,W,1,24,0.7,13.005,M,-29.744,M,0.0,*51
###2023-12-09 13:22:42.784745$GNGGA,182241.90,4138.0558344,N,07032.3607670,W,1,24,0.7,13.008,M,-29.744,M,0.0,*51
###2023-12-09 13:22:42.990332$GNRMC,182242.10,A,4138.0556369,N,07032.3607869,W,3.54,181.41,091223,,,A*5F
###2023-12-09 13:22:42.993232$GNGGA,182242.10,4138.0556369,N,07032.3607869,W,1,24,0.7,13.028,M,-29.744,M,0.0,*5F
###2023-12-09 13:22:42.995073$GPGSA,A,3,03,04,16,26,28,29,31,,,,,,1.1,0.7,0.9*3B
###2023-12-09 13:22:42.996792$GLGSA,A,3,65,71,72,73,74,75,,,,,,,1.1,0.7,0.9*25
###2023-12-09 13:22:42.998374$GAGSA,A,3,04,19,21,27,,,,,,,,,1.1,0.7,0.9*27
###2023-12-09 13:22:43.000101$GBGSA,A,3,14,24,25,26,33,35,,,,,,,1.1,0.7,0.9*28
###2023-12-09 13:22:43.002424$GPGSV,2,1,07,03,30,252,41,04,41,310,44,16,60,218,46,26,90,099,47*78
###2023-12-09 13:22:43.004474$GPGSV,2,2,07,28,42,080,45,29,23,052,41,31,63,057,47,,,,*45
###2023-12-09 13:22:43.006812$GLGSV,2,1,06,65,34,323,44,71,30,174,42,72,69,234,46,73,27,048,42*61
###2023-12-09 13:22:43.008555$GLGSV,2,2,06,74,64,002,43,75,39,263,48,,,,,,,,*64
###2023-12-09 13:22:43.010896$GAGSV,1,1,04,04,36,311,43,19,77,186,40,21,81,054,45,27,26,049,39*66
###2023-12-09 13:22:43.013230$GBGSV,2,1,06,14,34,191,42,24,66,040,49,25,47,271,48,26,19,068,43*65
###2023-12-09 13:22:43.014990$GBGSV,2,2,06,33,50,221,47,35,16,061,44,,,,,,,,*6C
###2023-12-09 13:22:43.016322$GNVTG,181.41,T,,M,3.54,N,6.55,K,A*2A
###2023-12-09 13:22:43.017975$GNGST,182242.10,18.000,,,,0.100,0.069,0.160*59
###2023-12-09 13:22:43.019280$GNZDA,182242.10,09,12,2023,00,00*7F
###2023-12-09 13:22:43.019917$GNEBP,,,,,,M*13
###2023-12-09 13:22:43.185094$GNGGA,182242.30,4138.0554498,N,07032.3607907,W,1,24,0.7,13.015,M,-29.744,M,0.0,*51
###2023-12-09 13:22:43.384684$GNGGA,182242.50,4138.0552588,N,07032.3607863,W,1,24,0.7,13.020,M,-29.744,M,0.0,*54
###2023-12-09 13:22:43.586586$GNGGA,182242.70,4138.0550634,N,07032.3607935,W,1,24,0.7,13.009,M,-29.744,M,0.0,*59
###2023-12-09 13:22:43.786478$GNGGA,182242.90,4138.0548732,N,07032.3607924,W,1,24,0.7,13.012,M,-29.744,M,0.0,*53
###2023-12-09 13:22:43.990674$GNRMC,182243.10,A,4138.0546771,N,07032.3607799,W,3.52,175.17,091223,,,A*5C
###2023-12-09 13:22:43.993528$GNGGA,182243.10,4138.0546771,N,07032.3607799,W,1,24,0.7,13.023,M,-29.744,M,0.0,*59
###2023-12-09 13:22:43.995334$GPGSA,A,3,03,04,16,26,28,29,31,,,,,,1.1,0.7,0.9*3B
###2023-12-09 13:22:43.997054$GLGSA,A,3,65,71,72,73,74,75,,,,,,,1.1,0.7,0.9*25
###2023-12-09 13:22:43.998644$GAGSA,A,3,04,19,21,27,,,,,,,,,1.1,0.7,0.9*27
###2023-12-09 13:22:44.000353$GBGSA,A,3,14,24,25,26,33,35,,,,,,,1.1,0.7,0.9*28
###2023-12-09 13:22:44.002689$GPGSV,2,1,07,03,30,252,41,04,41,310,45,16,60,218,45,26,90,099,48*75
###2023-12-09 13:22:44.004726$GPGSV,2,2,07,28,42,080,45,29,23,052,41,31,63,057,46,,,,*44
###2023-12-09 13:22:44.007062$GLGSV,2,1,06,65,34,323,44,71,29,175,43,72,69,234,46,73,27,048,43*68
###2023-12-09 13:22:44.008808$GLGSV,2,2,06,74,64,002,43,75,39,263,48,,,,,,,,*64
###2023-12-09 13:22:44.011145$GAGSV,1,1,04,04,36,311,43,19,77,186,40,21,81,054,46,27,26,049,40*6B
###2023-12-09 13:22:44.013475$GBGSV,2,1,06,14,34,191,42,24,66,040,49,25,47,271,49,26,19,068,43*64
###2023-12-09 13:22:44.015226$GBGSV,2,2,06,33,50,221,47,35,16,061,44,,,,,,,,*6C
###2023-12-09 13:22:44.016547$GNVTG,175.17,T,,M,3.52,N,6.52,K,A*23
###2023-12-09 13:22:44.018192$GNGST,182243.10,18.000,,,,0.100,0.069,0.160*58
###2023-12-09 13:22:44.019495$GNZDA,182243.10,09,12,2023,00,00*7E
###2023-12-09 13:22:44.020135$GNEBP,,,,,,M*13
###2023-12-09 13:22:44.185830$GNGGA,182243.30,4138.0544832,N,07032.3607566,W,1,24,0.7,13.020,M,-29.744,M,0.0,*50
###2023-12-09 13:22:44.386376$GNGGA,182243.50,4138.0542898,N,07032.3607335,W,1,24,0.7,13.022,M,-29.744,M,0.0,*52
###2023-12-09 13:22:44.585642$GNGGA,182243.70,4138.0540907,N,07032.3607164,W,1,24,0.7,13.026,M,-29.744,M,0.0,*57
###2023-12-09 13:22:44.785405$GNGGA,182243.90,4138.0538946,N,07032.3607005,W,1,24,0.7,13.026,M,-29.744,M,0.0,*55
###2023-12-09 13:22:44.994918$GNRMC,182244.10,A,4138.0536966,N,07032.3606880,W,3.67,175.59,091223,,,A*5E
###2023-12-09 13:22:44.997774$GNGGA,182244.10,4138.0536966,N,07032.3606880,W,1,24,0.7,13.028,M,-29.744,M,0.0,*5C
###2023-12-09 13:22:44.999576$GPGSA,A,3,03,04,16,26,28,29,31,,,,,,1.1,0.7,0.9*3B
###2023-12-09 13:22:45.001284$GLGSA,A,3,65,71,72,73,74,75,,,,,,,1.1,0.7,0.9*25
###2023-12-09 13:22:45.002877$GAGSA,A,3,04,19,21,27,,,,,,,,,1.1,0.7,0.9*27
###2023-12-09 13:22:45.004583$GBGSA,A,3,14,24,25,26,33,35,,,,,,,1.1,0.7,0.9*28
###2023-12-09 13:22:45.006913$GPGSV,2,1,07,03,30,252,42,04,41,310,45,16,60,218,46,26,90,099,48*75
###2023-12-09 13:22:45.009193$GPGSV,2,2,07,28,42,080,45,29,23,052,42,31,63,057,46,,,,*47
###2023-12-09 13:22:45.011546$GLGSV,2,1,06,65,34,323,43,71,29,175,43,72,68,232,46,73,27,048,44*6F
###2023-12-09 13:22:45.013306$GLGSV,2,2,06,74,64,002,43,75,39,263,47,,,,,,,,*6B
###2023-12-09 13:22:45.015646$GAGSV,1,1,04,04,36,311,45,19,77,186,40,21,81,054,47,27,26,049,41*6D
###2023-12-09 13:22:45.018009$GBGSV,2,1,06,14,34,191,41,24,66,040,48,25,47,271,47,26,19,068,43*68
###2023-12-09 13:22:45.019780$GBGSV,2,2,06,33,50,221,46,35,16,061,43,,,,,,,,*6A
###2023-12-09 13:22:45.021109$GNVTG,175.59,T,,M,3.67,N,6.80,K,A*20
###2023-12-09 13:22:45.022770$GNGST,182244.10,18.000,,,,0.100,0.069,0.160*5F
###2023-12-09 13:22:45.024067$GNZDA,182244.10,09,12,2023,00,00*79
