###2023-12-09 13:21:19.991683$GNGGA,182119.10,4138.0337046,N,07032.3443468,W,1,24,0.7,13.187,M,-29.744,M,0.0,*56
###2023-12-09 13:21:19.993508$GPGSA,A,3,03,04,16,26,28,29,31,,,,,,1.1,0.7,0.9*3B
###2023-12-09 13:21:19.995261$GLGSA,A,3,65,71,72,73,74,75,,,,,,,1.1,0.7,0.9*25
###2023-12-09 13:21:19.996858$GAGSA,A,3,04,19,21,27,,,,,,,,,1.1,0.7,0.9*27
###2023-12-09 13:21:19.998586$GBGSA,A,3,14,24,25,26,33,35,,,,,,,1.1,0.7,0.9*28
###2023-12-09 13:21:20.000934$GPGSV,2,1,07,03,30,252,43,04,41,310,44,16,60,218,46,26,89,196,47*7C
###2023-12-09 13:21:20.003000$GPGSV,2,2,07,28,43,079,44,29,23,053,41,31,64,055,46,,,,*46
###2023-12-09 13:21:20.005341$GLGSV,2,1,06,65,33,323,40,71,30,174,45,72,69,234,46,73,27,048,43*64
###2023-12-09 13:21:20.007122$GLGSV,2,2,06,74,64,002,41,75,39,263,47,,,,,,,,*69
###2023-12-09 13:21:20.009461$GAGSV,1,1,04,04,35,311,43,19,77,186,40,21,81,055,45,27,27,049,39*65
###2023-12-09 13:21:20.011806$GBGSV,2,1,06,14,35,191,43,24,67,039,48,25,47,270,47,26,20,067,44*67
###2023-12-09 13:21:20.013563$GBGSV,2,2,06,33,51,222,48,35,16,062,43,,,,,,,,*65
###2023-12-09 13:21:20.014900$GNVTG,354.35,T,,M,3.30,N,6.12,K,A*22
###2023-12-09 13:21:20.016550$GNGST,182119.10,18.000,,,,0.100,0.071,0.170*5C
###2023-12-09 13:21:20.017842$GNZDA,182119.10,09,12,2023,00,00*72
###2023-12-09 13:21:20.018486$GNEBP,,,,,,M*13
###2023-12-09 13:21:20.183729$GNGGA,182119.30,4138.0338792,N,07032.3443797,W,1,24,0.7,13.181,M,-29.744,M,0.0,*50
###2023-12-09 13:21:20.383475$GNGGA,182119.50,4138.0340540,N,07032.3444219,W,1,24,0.7,13.177,M,-29.744,M,0.0,*59
###2023-12-09 13:21:20.583898$GNGGA,182119.70,4138.0342300,N,07032.3444556,W,1,24,0.7,13.178,M,-29.744,M,0.0,*58
###2023-12-09 13:21:20.785749$GNGGA,182119.90,4138.0344033,N,07032.3444822,W,1,24,0.7,13.179,M,-29.744,M,0.0,*5C
###2023-12-09 13:21:20.994037$GNRMC,182120.10,A,4138.0345794,N,07032.3445100,W,3.21,353.35,091223,,,A*54
###2023-12-09 13:21:20.996920$GNGGA,182120.10,4138.0345794,N,07032.3445100,W,1,24,0.7,13.182,M,-29.744,M,0.0,*59
###2023-12-09 13:21:20.998730$GPGSA,A,3,03,04,16,26,28,29,31,,,,,,1.1,0.7,0.9*3B
###2023-12-09 13:21:21.000455$GLGSA,A,3,65,71,72,73,74,75,,,,,,,1.1,0.7,0.9*25
###2023-12-09 13:21:21.002033$GAGSA,A,3,04,19,21,27,,,,,,,,,1.1,0.7,0.9*27
###2023-12-09 13:21:21.003751$GBGSA,A,3,14,24,25,26,33,35,,,,,,,1.1,0.7,0.9*28
###2023-12-09 13:21:21.006069$GPGSV,2,1,07,03,30,252,43,04,41,310,43,16,60,218,45,26,89,196,47*78
###2023-12-09 13:21:21.008116$GPGSV,2,2,07,28,43,079,44,29,23,053,41,31,64,055,46,,,,*46
###2023-12-09 13:21:21.010435$GLGSV,2,1,06,65,33,323,41,71,30,174,44,72,69,234,46,73,27,048,41*66
###2023-12-09 13:21:21.012190$GLGSV,2,2,06,74,64,002,41,75,39,263,46,,,,,,,,*68
###2023-12-09 13:21:21.014506$GAGSV,1,1,04,04,35,311,42,19,77,186,41,21,81,055,45,27,27,049,39*65
###2023-12-09 13:21:21.016835$GBGSV,2,1,06,14,35,191,44,24,67,039,48,25,47,270,47,26,20,067,43*67
###2023-12-09 13:21:21.018591$GBGSV,2,2,06,33,51,222,48,35,16,062,43,,,,,,,,*65
###2023-12-09 13:21:21.019912$GNVTG,353.35,T,,M,3.21,N,5.94,K,A*28
###2023-12-09 13:21:21.021548$GNGST,182120.10,18.000,,,,0.100,0.071,0.170*56
###2023-12-09 13:21:21.022842$GNZDA,182120.10,09,12,2023,00,00*78
###2023-12-09 13:21:21.023483$GNEBP,,,,,,M*13
###2023-12-09 13:21:21.184731$GNGGA,182120.30,4138.0347585,N,07032.3445388,W,1,24,0.7,13.177,M,-29.744,M,0.0,*53
###2023-12-09 13:21:21.382519$GNGGA,182120.50,4138.0349351,N,07032.3445700,W,1,24,0.7,13.177,M,-29.744,M,0.0,*50
###2023-12-09 13:21:21.583494$GNGGA,182120.70,4138.0351165,N,07032.3445922,W,1,24,0.7,13.184,M,-29.744,M,0.0,*5C
###2023-12-09 13:21:21.784354$GNGGA,182120.90,4138.0353008,N,07032.3445961,W,1,24,0.7,13.182,M,-29.744,M,0.0,*5B
###2023-12-09 13:21:21.987698$GNRMC,182121.10,A,4138.0354835,N,07032.3445797,W,3.32,5.87,091223,,,A*52
###2023-12-09 13:21:21.990575$GNGGA,182121.10,4138.0354835,N,07032.3445797,W,1,24,0.7,13.181,M,-29.744,M,0.0,*57
###2023-12-09 13:21:21.992377$GPGSA,A,3,03,04,16,26,28,29,31,,,,,,1.1,0.7,0.9*3B
###2023-12-09 13:21:21.994094$GLGSA,A,3,65,71,72,73,74,75,,,,,,,1.1,0.7,0.9*25
###2023-12-09 13:21:21.995694$GAGSA,A,3,04,19,21,27,,,,,,,,,1.1,0.7,0.9*27
###2023-12-09 13:21:21.997402$GBGSA,A,3,14,24,25,26,33,35,,,,,,,1.1,0.7,0.9*28
###2023-12-09 13:21:21.999739$GPGSV,2,1,07,03,30,252,41,04,41,310,43,16,60,218,45,26,89,196,47*7A
###2023-12-09 13:21:22.001777$GPGSV,2,2,07,28,43,079,43,29,23,053,39,31,64,055,45,,,,*4D
###2023-12-09 13:21:22.004128$GLGSV,2,1,06,65,33,323,42,71,30,174,42,72,69,234,46,73,27,048,40*62
###2023-12-09 13:21:22.005881$GLGSV,2,2,06,74,64,002,41,75,39,263,46,,,,,,,,*68
###2023-12-09 13:21:22.008224$GAGSV,1,1,04,04,35,311,42,19,77,186,40,21,81,055,45,27,27,049,38*65
###2023-12-09 13:21:22.010555$GBGSV,2,1,06,14,35,191,44,24,67,039,48,25,47,270,48,26,20,067,43*68
###2023-12-09 13:21:22.012316$GBGSV,2,2,06,33,51,222,47,35,16,062,42,,,,,,,,*6B
###2023-12-09 13:21:22.013575$GNVTG,5.87,T,,M,3.32,N,6.16,K,A*2A
###2023-12-09 13:21:22.015240$GNGST,182121.10,18.000,,,,0.100,0.071,0.170*57
###2023-12-09 13:21:22.016539$GNZDA,182121.10,09,12,2023,00,00*79
###2023-12-09 13:21:22.017180$GNEBP,,,,,,M*13
###2023-12-09 13:21:22.182779$GNGGA,182121.30,4138.0356694,N,07032.3445524,W,1,24,0.7,13.184,M,-29.744,M,0.0,*5D
###2023-12-09 13:21:22.383475$GNGGA,182121.50,4138.0358543,N,07032.3445167,W,1,24,0.7,13.187,M,-29.744,M,0.0,*5C
###2023-12-09 13:21:22.584461$GNGGA,182121.70,4138.0360356,N,07032.3444545,W,1,24,0.7,13.190,M,-29.744,M,0.0,*54
###2023-12-09 13:21:22.783942$GNGGA,182121.90,4138.0362120,N,07032.3443589,W,1,24,0.7,13.187,M,-29.744,M,0.0,*5A
###2023-12-09 13:21:22.990999$GNRMC,182122.10,A,4138.0363854,N,07032.3442571,W,3.38,21.46,091223,,,A*6E
###2023-12-09 13:21:22.993864$GNGGA,182122.10,4138.0363854,N,07032.3442571,W,1,24,0.7,13.192,M,-29.744,M,0.0,*58
###2023-12-09 13:21:22.995664$GPGSA,A,3,03,04,16,26,28,29,31,,,,,,1.1,0.7,0.9*3B
###2023-12-09 13:21:22.997381$GLGSA,A,3,65,71,72,73,74,75,,,,,,,1.1,0.7,0.9*25
###2023-12-09 13:21:22.998979$GAGSA,A,3,04,19,21,27,,,,,,,,,1.1,0.7,0.9*27
###2023-12-09 13:21:23.000691$GBGSA,A,3,14,24,25,26,33,35,,,,,,,1.1,0.7,0.9*28
###2023-12-09 13:21:23.003029$GPGSV,2,1,07,03,30,252,40,04,41,310,44,16,60,218,45,26,89,196,47*7C
###2023-12-09 13:21:23.005071$GPGSV,2,2,07,28,43,079,43,29,23,053,39,31,64,055,45,,,,*4D
###2023-12-09 13:21:23.007410$GLGSV,2,1,06,65,33,323,43,71,30,174,45,72,69,234,46,73,27,048,41*65
###2023-12-09 13:21:23.009157$GLGSV,2,2,06,74,64,002,41,75,39,263,46,,,,,,,,*68
###2023-12-09 13:21:23.011494$GAGSV,1,1,04,04,35,311,43,19,77,186,40,21,81,055,45,27,27,049,38*64
###2023-12-09 13:21:23.013822$GBGSV,2,1,06,14,35,191,43,24,67,039,46,25,47,270,46,26,20,067,40*6C
###2023-12-09 13:21:23.015580$GBGSV,2,2,06,33,51,222,46,35,16,062,40,,,,,,,,*68
###2023-12-09 13:21:23.016875$GNVTG,21.46,T,,M,3.38,N,6.26,K,A*18
###2023-12-09 13:21:23.018527$GNGST,182122.10,18.000,,,,0.100,0.072,0.170*57
###2023-12-09 13:21:23.019822$GNZDA,182122.10,09,12,2023,00,00*7A
###2023-12-09 13:21:23.020462$GNEBP,,,,,,M*13
###2023-12-09 13:21:23.182684$GNGGA,182122.30,4138.0365646,N,07032.3441642,W,1,24,0.7,13.196,M,-29.744,M,0.0,*55
###2023-12-09 13:21:23.384423$GNGGA,182122.50,4138.0367487,N,07032.3440693,W,1,24,0.7,13.188,M,-29.744,M,0.0,*5C
###2023-12-09 13:21:23.585347$GNGGA,182122.70,4138.0369289,N,07032.3439837,W,1,24,0.7,13.196,M,-29.744,M,0.0,*59
###2023-12-09 13:21:23.786666$GNGGA,182122.90,4138.0371054,N,07032.3438696,W,1,24,0.7,13.198,M,-29.744,M,0.0,*56
###2023-12-09 13:21:23.988290$GNRMC,182123.10,A,4138.0372896,N,07032.3437704,W,3.44,15.89,091223,,,A*6C
###2023-12-09 13:21:23.991173$GNGGA,182123.10,4138.0372896,N,07032.3437704,W,1,24,0.7,13.177,M,-29.744,M,0.0,*5E
###2023-12-09 13:21:23.992970$GPGSA,A,3,03,04,16,26,28,29,31,,,,,,1.1,0.7,0.9*3B
###2023-12-09 13:21:23.994692$GLGSA,A,3,65,71,72,73,74,75,,,,,,,1.1,0.7,0.9*25
###2023-12-09 13:21:23.996279$GAGSA,A,3,04,19,21,27,,,,,,,,,1.1,0.7,0.9*27
###2023-12-09 13:21:23.997991$GBGSA,A,3,14,24,25,26,33,35,,,,,,,1.1,0.7,0.9*28
###2023-12-09 13:21:24.000331$GPGSV,2,1,07,03,30,252,40,04,41,310,44,16,60,218,45,26,89,196,48*73
###2023-12-09 13:21:24.002375$GPGSV,2,2,07,28,43,079,44,29,23,053,40,31,64,055,46,,,,*47
###2023-12-09 13:21:24.004950$GLGSV,2,1,06,65,33,323,42,71,30,174,45,72,69,234,46,73,27,048,40*65
###2023-12-09 13:21:24.006729$GLGSV,2,2,06,74,64,002,41,75,39,263,47,,,,,,,,*69
###2023-12-09 13:21:24.009065$GAGSV,1,1,04,04,35,311,41,19,77,186,41,21,81,055,45,27,27,049,38*67
###2023-12-09 13:21:24.011404$GBGSV,2,1,06,14,35,191,42,24,67,039,47,25,47,270,47,26,20,067,44*69
###2023-12-09 13:21:24.013153$GBGSV,2,2,06,33,51,222,46,35,16,062,42,,,,,,,,*6A
###2023-12-09 13:21:24.014442$GNVTG,15.89,T,,M,3.44,N,6.37,K,A*17
###2023-12-09 13:21:24.016098$GNGST,182123.10,18.000,,,,0.100,0.072,0.170*56
###2023-12-09 13:21:24.017390$GNZDA,182123.10,09,12,2023,00,00*7B
###2023-12-09 13:21:24.018028$GNEBP,,,,,,M*13
