###2023-12-09 13:02:45.011059$GNEBP,,,,,,M*13
###2023-12-09 13:02:45.166845$GNGGA,180244.30,4138.0466485,N,07032.3454768,W,1,24,0.6,13.314,M,-29.744,M,0.0,*59
###2023-12-09 13:02:45.364361$GNGGA,180244.50,4138.0466180,N,07032.3457431,W,1,24,0.6,13.303,M,-29.744,M,0.0,*55
###2023-12-09 13:02:45.565105$GNGGA,180244.70,4138.0466119,N,07032.3460077,W,1,24,0.6,13.300,M,-29.744,M,0.0,*56
###2023-12-09 13:02:45.765370$GNGGA,180244.90,4138.0466145,N,07032.3462644,W,1,24,0.6,13.307,M,-29.744,M,0.0,*52
###2023-12-09 13:02:45.967311$GNRMC,180245.10,A,4138.0466061,N,07032.3465149,W,3.36,270.32,091223,,,A*53
###2023-12-09 13:02:45.970198$GNGGA,180245.10,4138.0466061,N,07032.3465149,W,1,24,0.6,13.306,M,-29.744,M,0.0,*50
###2023-12-09 13:02:45.972093$GPGSA,A,3,03,04,16,26,28,29,31,32,,,,,1.1,0.6,0.9*3B
###2023-12-09 13:02:45.973815$GLGSA,A,3,65,71,72,73,74,75,,,,,,,1.1,0.6,0.9*24
###2023-12-09 13:02:45.975417$GAGSA,A,3,04,19,21,27,,,,,,,,,1.1,0.6,0.9*26
###2023-12-09 13:02:45.977072$GBGSA,A,3,14,24,25,26,33,,,,,,,,1.1,0.6,0.9*2F
###2023-12-09 13:02:45.979419$GPGSV,2,1,08,03,35,261,42,04,33,311,41,16,50,212,45,26,80,210,48*77
###2023-12-09 13:02:45.981759$GPGSV,2,2,08,28,49,070,45,29,25,061,42,31,69,038,47,32,19,140,44*74
###2023-12-09 13:02:45.984100$GLGSV,2,1,06,65,25,327,38,71,40,173,46,72,73,265,44,73,36,041,46*6A
###2023-12-09 13:02:45.985847$GLGSV,2,2,06,74,70,337,42,75,32,253,42,,,,,,,,*67
###2023-12-09 13:02:45.988189$GAGSV,1,1,04,04,29,312,39,19,84,213,40,21,86,114,46,27,32,048,41*6F
###2023-12-09 13:02:45.990527$GBGSV,2,1,05,14,43,193,45,24,73,026,48,25,41,263,43,26,26,063,41*6D
###2023-12-09 13:02:45.992000$GBGSV,2,2,05,33,57,231,47,,,,,,,,,,,,*5F
###2023-12-09 13:02:45.993327$GNVTG,270.32,T,,M,3.36,N,6.23,K,A*26
###2023-12-09 13:02:45.994990$GNGST,180245.10,18.000,,,,0.081,0.069,0.160*54
###2023-12-09 13:02:45.996284$GNZDA,180245.10,09,12,2023,00,00*7A
###2023-12-09 13:02:45.996926$GNEBP,,,,,,M*13
###2023-12-09 13:02:46.162999$GNGGA,180245.30,4138.0466139,N,07032.3467596,W,1,24,0.6,13.305,M,-29.744,M,0.0,*59
###2023-12-09 13:02:46.365041$GNGGA,180245.50,4138.0466406,N,07032.3470021,W,1,24,0.6,13.316,M,-29.744,M,0.0,*5B
###2023-12-09 13:02:46.564778$GNGGA,180245.70,4138.0466723,N,07032.3472445,W,1,24,0.6,13.321,M,-29.744,M,0.0,*5D
###2023-12-09 13:02:46.765426$GNGGA,180245.90,4138.0466965,N,07032.3474882,W,1,24,0.6,13.327,M,-29.744,M,0.0,*58
###2023-12-09 13:02:46.968101$GNRMC,180246.10,A,4138.0467157,N,07032.3477360,W,3.36,275.99,091223,,,A*5B
###2023-12-09 13:02:46.970992$GNGGA,180246.10,4138.0467157,N,07032.3477360,W,1,24,0.6,13.329,M,-29.744,M,0.0,*51
###2023-12-09 13:02:46.972868$GPGSA,A,3,03,04,16,26,28,29,31,32,,,,,1.1,0.6,0.9*3B
###2023-12-09 13:02:46.974601$GLGSA,A,3,65,71,72,73,74,75,,,,,,,1.1,0.6,0.9*24
###2023-12-09 13:02:46.976194$GAGSA,A,3,04,19,21,27,,,,,,,,,1.1,0.6,0.9*26
###2023-12-09 13:02:46.977846$GBGSA,A,3,14,24,25,26,33,,,,,,,,1.1,0.6,0.9*2F
###2023-12-09 13:02:46.980189$GPGSV,2,1,08,03,35,261,42,04,33,311,42,16,50,212,46,26,80,210,48*77
###2023-12-09 13:02:46.982525$GPGSV,2,2,08,28,49,070,46,29,25,061,42,31,69,038,48,32,19,140,44*78
###2023-12-09 13:02:46.984870$GLGSV,2,1,06,65,25,327,38,71,40,173,47,72,73,265,45,73,35,042,44*68
###2023-12-09 13:02:46.986629$GLGSV,2,2,06,74,70,337,42,75,32,253,41,,,,,,,,*64
###2023-12-09 13:02:46.988965$GAGSV,1,1,04,04,29,312,39,19,84,213,40,21,86,114,46,27,32,048,41*6F
###2023-12-09 13:02:46.991301$GBGSV,2,1,05,14,43,193,45,24,73,026,48,25,41,263,44,26,26,063,42*69
###2023-12-09 13:02:46.992763$GBGSV,2,2,05,33,57,231,48,,,,,,,,,,,,*50
###2023-12-09 13:02:46.994086$GNVTG,275.99,T,,M,3.36,N,6.23,K,A*22
###2023-12-09 13:02:46.995746$GNGST,180246.10,18.000,,,,0.081,0.069,0.160*57
###2023-12-09 13:02:46.997048$GNZDA,180246.10,09,12,2023,00,00*79
###2023-12-09 13:02:46.997687$GNEBP,,,,,,M*13
###2023-12-09 13:02:47.164152$GNGGA,180246.30,4138.0467402,N,07032.3479828,W,1,24,0.6,13.336,M,-29.744,M,0.0,*51
###2023-12-09 13:02:47.365589$GNGGA,180246.50,4138.0467676,N,07032.3482301,W,1,24,0.6,13.339,M,-29.744,M,0.0,*5D
###2023-12-09 13:02:47.567257$GNGGA,180246.70,4138.0467814,N,07032.3484728,W,1,24,0.6,13.342,M,-29.744,M,0.0,*50
###2023-12-09 13:02:47.769243$GNGGA,180246.90,4138.0467879,N,07032.3487150,W,1,24,0.6,13.344,M,-29.744,M,0.0,*59
###2023-12-09 13:02:47.968995$GNRMC,180247.10,A,4138.0467986,N,07032.3489576,W,3.30,274.08,091223,,,A*51
###2023-12-09 13:02:47.971873$GNGGA,180247.10,4138.0467986,N,07032.3489576,W,1,24,0.6,13.349,M,-29.744,M,0.0,*52
###2023-12-09 13:02:47.973739$GPGSA,A,3,03,04,16,26,28,29,31,32,,,,,1.1,0.6,0.9*3B
###2023-12-09 13:02:47.975472$GLGSA,A,3,65,71,72,73,74,75,,,,,,,1.1,0.6,0.9*24
###2023-12-09 13:02:47.977058$GAGSA,A,3,04,19,21,27,,,,,,,,,1.1,0.6,0.9*26
###2023-12-09 13:02:47.978722$GBGSA,A,3,14,24,25,26,33,,,,,,,,1.1,0.6,0.9*2F
###2023-12-09 13:02:47.981060$GPGSV,2,1,08,03,35,261,43,04,33,311,41,16,50,212,46,26,80,210,48*75
###2023-12-09 13:02:47.983417$GPGSV,2,2,08,28,49,070,45,29,25,061,42,31,69,038,47,32,19,140,44*74
###2023-12-09 13:02:47.985757$GLGSV,2,1,06,65,25,327,38,71,40,173,48,72,73,265,45,73,35,042,44*67
###2023-12-09 13:02:47.987518$GLGSV,2,2,06,74,69,340,42,75,32,253,42,,,,,,,,*6F
###2023-12-09 13:02:47.989848$GAGSV,1,1,04,04,29,312,39,19,84,213,40,21,86,114,46,27,32,048,41*6F
###2023-12-09 13:02:47.992194$GBGSV,2,1,05,14,43,193,44,24,73,026,48,25,41,263,44,26,26,063,42*68
###2023-12-09 13:02:47.993650$GBGSV,2,2,05,33,57,231,47,,,,,,,,,,,,*5F
###2023-12-09 13:02:47.994987$GNVTG,274.08,T,,M,3.30,N,6.12,K,A*2F
###2023-12-09 13:02:47.996642$GNGST,180247.10,18.000,,,,0.081,0.069,0.160*56
###2023-12-09 13:02:47.997936$GNZDA,180247.10,09,12,2023,00,00*78
###2023-12-09 13:02:47.998588$GNEBP,,,,,,M*13
###2023-12-09 13:02:48.165199$GNGGA,180247.30,4138.0468094,N,07032.3492022,W,1,24,0.6,13.348,M,-29.744,M,0.0,*5A
###2023-12-09 13:02:48.365681$GNGGA,180247.50,4138.0468132,N,07032.3494489,W,1,24,0.6,13.357,M,-29.744,M,0.0,*5C
###2023-12-09 13:02:48.566805$GNGGA,180247.70,4138.0468137,N,07032.3497014,W,1,24,0.6,13.373,M,-29.744,M,0.0,*5E
###2023-12-09 13:02:48.765416$GNGGA,180247.90,4138.0468097,N,07032.3499565,W,1,24,0.6,13.376,M,-29.744,M,0.0,*53
###2023-12-09 13:02:48.967437$GNRMC,180248.10,A,4138.0467940,N,07032.3502089,W,3.48,263.94,091223,,,A*5F
###2023-12-09 13:02:48.970298$GNGGA,180248.10,4138.0467940,N,07032.3502089,W,1,24,0.6,13.372,M,-29.744,M,0.0,*58
###2023-12-09 13:02:48.972174$GPGSA,A,3,03,04,16,26,28,29,31,32,,,,,1.1,0.6,0.9*3B
###2023-12-09 13:02:48.973900$GLGSA,A,3,65,71,72,73,74,75,,,,,,,1.1,0.6,0.9*24
###2023-12-09 13:02:48.975506$GAGSA,A,3,04,19,21,27,,,,,,,,,1.1,0.6,0.9*26
###2023-12-09 13:02:48.977160$GBGSA,A,3,14,24,25,26,33,,,,,,,,1.1,0.6,0.9*2F
###2023-12-09 13:02:48.979509$GPGSV,2,1,08,03,35,261,43,04,33,311,42,16,50,212,46,26,80,210,48*76
###2023-12-09 13:02:48.981848$GPGSV,2,2,08,28,49,070,45,29,25,061,42,31,69,038,47,32,19,140,44*74
###2023-12-09 13:02:48.984201$GLGSV,2,1,06,65,25,327,41,71,40,173,47,72,73,265,45,73,35,042,44*66
###2023-12-09 13:02:48.985958$GLGSV,2,2,06,74,69,340,42,75,33,254,43,,,,,,,,*68
###2023-12-09 13:02:48.988316$GAGSV,1,1,04,04,29,312,39,19,84,213,40,21,86,114,46,27,32,048,42*6C
###2023-12-09 13:02:48.990673$GBGSV,2,1,05,14,43,193,44,24,73,026,49,25,41,263,44,26,26,063,43*68
###2023-12-09 13:02:48.992136$GBGSV,2,2,05,33,57,231,47,,,,,,,,,,,,*5F
###2023-12-09 13:02:48.993448$GNVTG,263.94,T,,M,3.48,N,6.44,K,A*20
###2023-12-09 13:02:48.995116$GNGST,180248.10,18.000,,,,0.081,0.069,0.160*59
###2023-12-09 13:02:48.996424$GNZDA,180248.10,09,12,2023,00,00*77
###2023-12-09 13:02:48.997076$GNEBP,,,,,,M*13
###2023-12-09 13:02:49.168397$GNGGA,180248.30,4138.0467753,N,07032.3504666,W,1,24,0.6,13.366,M,-29.744,M,0.0,*52
###2023-12-09 13:02:49.365677$GNGGA,180248.50,4138.0467613,N,07032.3507258,W,1,24,0.6,13.365,M,-29.744,M,0.0,*58
###2023-12-09 13:02:49.565937$GNGGA,180248.70,4138.0467451,N,07032.3509856,W,1,24,0.6,13.371,M,-29.744,M,0.0,*51
###2023-12-09 13:02:49.766430$GNGGA,180248.90,4138.0467331,N,07032.3512462,W,1,24,0.6,13.379,M,-29.744,M,0.0,*57
###2023-12-09 13:02:49.968094$GNRMC,180249.10,A,4138.0467297,N,07032.3515077,W,3.62,270.65,091223,,,A*5C
###2023-12-09 13:02:49.971241$GNGGA,180249.10,4138.0467297,N,07032.3515077,W,1,24,0.6,13.387,M,-29.744,M,0.0,*55
###2023-12-09 13:02:49.973115$GPGSA,A,3,03,04,16,26,28,29,31,32,,,,,1.1,0.6,0.9*3B
###2023-12-09 13:02:49.974843$GLGSA,A,3,65,71,72,73,74,75,,,,,,,1.1,0.6,0.9*24
###2023-12-09 13:02:49.976427$GAGSA,A,3,04,19,21,27,,,,,,,,,1.1,0.6,0.9*26
###2023-12-09 13:02:49.978069$GBGSA,A,3,14,24,25,26,33,,,,,,,,1.1,0.6,0.9*2F
###2023-12-09 13:02:49.980404$GPGSV,2,1,08,03,35,261,43,04,33,311,42,16,50,212,46,26,80,210,48*76
###2023-12-09 13:02:49.982770$GPGSV,2,2,08,28,49,070,45,29,25,061,42,31,69,038,47,32,19,140,43*73
###2023-12-09 13:02:49.985097$GLGSV,2,1,06,65,25,327,39,71,40,173,46,72,73,265,45,73,35,042,44*68
###2023-12-09 13:02:49.986879$GLGSV,2,2,06,74,69,340,42,75,33,254,42,,,,,,,,*69
###2023-12-09 13:02:49.989192$GAGSV,1,1,04,04,29,312,40,19,84,213,40,21,86,114,46,27,32,048,42*62
