###2023-12-09 13:05:41.765713$GNGGA,180540.90,4138.0697301,N,07032.2582411,W,1,24,0.6,13.513,M,-29.742,M,0.0,*56
###2023-12-09 13:05:41.967507$GNRMC,180541.10,A,4138.0697640,N,07032.2584746,W,3.23,279.02,091223,,,A*51
###2023-12-09 13:05:41.970379$GNGGA,180541.10,4138.0697640,N,07032.2584746,W,1,24,0.6,13.500,M,-29.742,M,0.0,*5A
###2023-12-09 13:05:41.972252$GPGSA,A,3,03,04,16,26,28,29,31,32,,,,,1.1,0.6,0.9*3B
###2023-12-09 13:05:41.973960$GLGSA,A,3,65,71,72,73,74,75,,,,,,,1.1,0.6,0.9*24
###2023-12-09 13:05:41.975550$GAGSA,A,3,04,19,21,27,,,,,,,,,1.1,0.6,0.9*26
###2023-12-09 13:05:41.977189$GBGSA,A,3,14,24,25,26,33,,,,,,,,1.1,0.6,0.9*2F
###2023-12-09 13:05:41.979527$GPGSV,2,1,08,03,34,259,42,04,34,311,41,16,52,213,45,26,82,210,48*7B
###2023-12-09 13:05:41.981856$GPGSV,2,2,08,28,48,072,45,29,25,059,41,31,68,042,47,32,17,141,43*7B
###2023-12-09 13:05:41.984223$GLGSV,2,1,06,65,26,327,39,71,39,173,46,72,73,261,46,73,34,043,45*63
###2023-12-09 13:05:41.985965$GLGSV,2,2,06,74,69,343,42,75,33,255,43,,,,,,,,*6A
###2023-12-09 13:05:41.988305$GAGSV,1,1,04,04,30,312,39,19,83,207,40,21,86,104,46,27,32,048,41*64
###2023-12-09 13:05:41.990640$GBGSV,2,1,05,14,42,192,46,24,72,028,49,25,42,263,44,26,25,063,42*64
###2023-12-09 13:05:41.992096$GBGSV,2,2,05,33,56,230,48,,,,,,,,,,,,*50
###2023-12-09 13:05:41.993416$GNVTG,279.02,T,,M,3.23,N,5.98,K,A*2B
###2023-12-09 13:05:41.995099$GNGST,180541.10,18.000,,,,0.082,0.067,0.160*5A
###2023-12-09 13:05:41.996390$GNZDA,180541.10,09,12,2023,00,00*79
###2023-12-09 13:05:41.997026$GNEBP,,,,,,M*13
###2023-12-09 13:05:42.168090$GNGGA,180541.30,4138.0697940,N,07032.2587098,W,1,24,0.6,13.496,M,-29.742,M,0.0,*5E
###2023-12-09 13:05:42.371169$GNGGA,180541.50,4138.0698391,N,07032.2589453,W,1,24,0.6,13.506,M,-29.742,M,0.0,*54
###2023-12-09 13:05:42.566962$GNGGA,180541.70,4138.0698900,N,07032.2591853,W,1,24,0.6,13.526,M,-29.742,M,0.0,*53
###2023-12-09 13:05:42.767116$GNGGA,180541.90,4138.0699251,N,07032.2594337,W,1,24,0.6,13.530,M,-29.742,M,0.0,*58
###2023-12-09 13:05:42.969420$GNRMC,180542.10,A,4138.0699392,N,07032.2596880,W,3.38,274.38,091223,,,A*5E
###2023-12-09 13:05:42.972907$GNGGA,180542.10,4138.0699392,N,07032.2596880,W,1,24,0.6,13.510,M,-29.742,M,0.0,*5A
###2023-12-09 13:05:42.975187$GPGSA,A,3,03,04,16,26,28,29,31,32,,,,,1.1,0.6,0.9*3B
###2023-12-09 13:05:42.977257$GLGSA,A,3,65,71,72,73,74,75,,,,,,,1.1,0.6,0.9*24
###2023-12-09 13:05:42.979186$GAGSA,A,3,04,19,21,27,,,,,,,,,1.1,0.6,0.9*26
###2023-12-09 13:05:42.981170$GBGSA,A,3,14,24,25,26,33,,,,,,,,1.1,0.6,0.9*2F
###2023-12-09 13:05:42.983984$GPGSV,2,1,08,03,34,259,42,04,34,311,42,16,52,213,46,26,82,210,48*7B
###2023-12-09 13:05:42.986814$GPGSV,2,2,08,28,48,072,45,29,25,059,41,31,68,042,48,32,17,141,43*74
###2023-12-09 13:05:42.989636$GLGSV,2,1,06,65,26,327,39,71,39,173,46,72,73,261,46,73,34,043,45*63
###2023-12-09 13:05:42.991754$GLGSV,2,2,06,74,69,343,42,75,33,255,41,,,,,,,,*68
###2023-12-09 13:05:42.994607$GAGSV,1,1,04,04,30,312,39,19,83,207,40,21,86,104,45,27,32,048,41*67
###2023-12-09 13:05:42.997430$GBGSV,2,1,05,14,42,192,45,24,72,028,48,25,42,263,43,26,25,063,41*62
###2023-12-09 13:05:42.999196$GBGSV,2,2,05,33,56,230,48,,,,,,,,,,,,*50
###2023-12-09 13:05:43.000787$GNVTG,274.38,T,,M,3.38,N,6.26,K,A*23
###2023-12-09 13:05:43.002784$GNGST,180542.10,18.000,,,,0.082,0.067,0.160*59
###2023-12-09 13:05:43.004346$GNZDA,180542.10,09,12,2023,00,00*7A
###2023-12-09 13:05:43.005113$GNEBP,,,,,,M*13
###2023-12-09 13:05:43.165950$GNGGA,180542.30,4138.0699751,N,07032.2599373,W,1,24,0.6,13.511,M,-29.742,M,0.0,*5A
###2023-12-09 13:05:43.366277$GNGGA,180542.50,4138.0700281,N,07032.2601839,W,1,24,0.6,13.523,M,-29.742,M,0.0,*53
###2023-12-09 13:05:43.566811$GNGGA,180542.70,4138.0700463,N,07032.2604237,W,1,24,0.6,13.500,M,-29.742,M,0.0,*5B
###2023-12-09 13:05:43.767429$GNGGA,180542.90,4138.0700571,N,07032.2606534,W,1,24,0.6,13.490,M,-29.742,M,0.0,*59
###2023-12-09 13:05:43.968814$GNRMC,180543.10,A,4138.0700795,N,07032.2608780,W,3.09,280.78,091223,,,A*5B
###2023-12-09 13:05:43.971702$GNGGA,180543.10,4138.0700795,N,07032.2608780,W,1,24,0.6,13.491,M,-29.742,M,0.0,*5A
###2023-12-09 13:05:43.973556$GPGSA,A,3,03,04,16,26,28,29,31,32,,,,,1.1,0.6,0.9*3B
###2023-12-09 13:05:43.975282$GLGSA,A,3,65,71,72,73,74,75,,,,,,,1.1,0.6,0.9*24
###2023-12-09 13:05:43.976862$GAGSA,A,3,04,19,21,27,,,,,,,,,1.1,0.6,0.9*26
###2023-12-09 13:05:43.978496$GBGSA,A,3,14,24,25,26,33,,,,,,,,1.1,0.6,0.9*2F
###2023-12-09 13:05:43.980828$GPGSV,2,1,08,03,34,259,41,04,34,311,40,16,52,213,46,26,82,210,48*7A
###2023-12-09 13:05:43.983160$GPGSV,2,2,08,28,48,072,45,29,25,059,41,31,68,042,47,32,17,141,44*7C
###2023-12-09 13:05:43.985487$GLGSV,2,1,06,65,26,327,37,71,39,173,47,72,73,261,45,73,34,043,45*6F
###2023-12-09 13:05:43.987240$GLGSV,2,2,06,74,69,343,42,75,33,255,44,,,,,,,,*6D
###2023-12-09 13:05:43.989552$GAGSV,1,1,04,04,30,312,39,19,83,207,40,21,86,104,46,27,32,048,42*67
###2023-12-09 13:05:43.991886$GBGSV,2,1,05,14,42,192,45,24,72,028,48,25,42,263,43,26,25,063,41*62
###2023-12-09 13:05:43.993336$GBGSV,2,2,05,33,56,230,47,,,,,,,,,,,,*5F
###2023-12-09 13:05:43.994663$GNVTG,280.78,T,,M,3.09,N,5.72,K,A*2C
###2023-12-09 13:05:43.996317$GNGST,180543.10,18.000,,,,0.082,0.068,0.160*57
###2023-12-09 13:05:43.997614$GNZDA,180543.10,09,12,2023,00,00*7B
###2023-12-09 13:05:43.998254$GNEBP,,,,,,M*13
###2023-12-09 13:05:44.166317$GNGGA,180543.30,4138.0701262,N,07032.2610963,W,1,24,0.6,13.495,M,-29.742,M,0.0,*5A
###2023-12-09 13:05:44.365929$GNGGA,180543.50,4138.0701877,N,07032.2613047,W,1,24,0.6,13.514,M,-29.742,M,0.0,*56
###2023-12-09 13:05:44.566374$GNGGA,180543.70,4138.0702459,N,07032.2615141,W,1,24,0.6,13.525,M,-29.742,M,0.0,*54
###2023-12-09 13:05:44.766363$GNGGA,180543.90,4138.0703005,N,07032.2617278,W,1,24,0.6,13.518,M,-29.742,M,0.0,*53
###2023-12-09 13:05:44.977608$GNRMC,180544.10,A,4138.0703628,N,07032.2619417,W,3.17,292.83,091223,,,A*5D
###2023-12-09 13:05:44.980558$GNGGA,180544.10,4138.0703628,N,07032.2619417,W,1,24,0.6,13.494,M,-29.742,M,0.0,*51
###2023-12-09 13:05:44.982419$GPGSA,A,3,03,04,16,26,28,29,31,32,,,,,1.1,0.6,0.9*3B
###2023-12-09 13:05:44.984145$GLGSA,A,3,65,71,72,73,74,75,,,,,,,1.1,0.6,0.9*24
###2023-12-09 13:05:44.985726$GAGSA,A,3,04,19,21,27,,,,,,,,,1.1,0.6,0.9*26
###2023-12-09 13:05:44.987383$GBGSA,A,3,14,24,25,26,33,,,,,,,,1.1,0.6,0.9*2F
###2023-12-09 13:05:44.989707$GPGSV,2,1,08,03,34,259,44,04,34,311,42,16,52,213,47,26,82,210,49*7D
###2023-12-09 13:05:44.992038$GPGSV,2,2,08,28,48,072,46,29,25,059,42,31,68,042,48,32,17,141,45*72
###2023-12-09 13:05:44.994370$GLGSV,2,1,06,65,26,327,37,71,39,173,47,72,73,261,45,73,34,043,45*6F
###2023-12-09 13:05:44.996136$GLGSV,2,2,06,74,69,343,42,75,33,255,45,,,,,,,,*6C
###2023-12-09 13:05:44.998468$GAGSV,1,1,04,04,30,312,39,19,83,207,41,21,86,104,47,27,32,048,42*67
###2023-12-09 13:05:45.000803$GBGSV,2,1,05,14,42,192,46,24,72,028,49,25,42,263,46,26,25,063,42*66
###2023-12-09 13:05:45.002258$GBGSV,2,2,05,33,56,230,48,,,,,,,,,,,,*50
###2023-12-09 13:05:45.003586$GNVTG,292.83,T,,M,3.17,N,5.87,K,A*2E
###2023-12-09 13:05:45.005233$GNGST,180544.10,18.000,,,,0.081,0.067,0.160*5C
###2023-12-09 13:05:45.006524$GNZDA,180544.10,09,12,2023,00,00*7C
###2023-12-09 13:05:45.007171$GNEBP,,,,,,M*13
###2023-12-09 13:05:45.169993$GNGGA,180544.30,4138.0704342,N,07032.2621535,W,1,24,0.6,13.493,M,-29.742,M,0.0,*50
###2023-12-09 13:05:45.368254$GNGGA,180544.50,4138.0705062,N,07032.2623670,W,1,24,0.6,13.501,M,-29.742,M,0.0,*5C
###2023-12-09 13:05:45.567042$GNGGA,180544.70,4138.0705618,N,07032.2625887,W,1,24,0.6,13.507,M,-29.742,M,0.0,*53
###2023-12-09 13:05:45.767081$GNGGA,180544.90,4138.0706128,N,07032.2628153,W,1,24,0.6,13.516,M,-29.742,M,0.0,*57
###2023-12-09 13:05:45.970135$GNRMC,180545.10,A,4138.0706689,N,07032.2630476,W,3.36,286.70,091223,,,A*54
###2023-12-09 13:05:45.973028$GNGGA,180545.10,4138.0706689,N,07032.2630476,W,1,24,0.6,13.525,M,-29.742,M,0.0,*59
###2023-12-09 13:05:45.974900$GPGSA,A,3,03,04,16,26,28,29,31,32,,,,,1.1,0.6,0.9*3B
###2023-12-09 13:05:45.976612$GLGSA,A,3,65,71,72,73,74,75,,,,,,,1.1,0.6,0.9*24
###2023-12-09 13:05:45.978192$GAGSA,A,3,04,19,21,27,,,,,,,,,1.1,0.6,0.9*26
###2023-12-09 13:05:45.979850$GBGSA,A,3,14,24,25,26,33,,,,,,,,1.1,0.6,0.9*2F
###2023-12-09 13:05:45.982428$GPGSV,2,1,08,03,34,259,42,04,34,311,43,16,52,213,46,26,82,210,48*7A
###2023-12-09 13:05:45.984791$GPGSV,2,2,08,28,48,072,45,29,25,059,42,31,68,042,48,32,17,141,43*77
###2023-12-09 13:05:45.987151$GLGSV,2,1,06,65,26,327,39,71,39,173,46,72,73,261,46,73,34,043,44*62
###2023-12-09 13:05:45.988908$GLGSV,2,2,06,74,69,343,42,75,33,255,42,,,,,,,,*6B
###2023-12-09 13:05:45.991257$GAGSV,1,1,04,04,30,312,40,19,83,207,40,21,86,104,46,27,32,048,41*6A
###2023-12-09 13:05:45.993589$GBGSV,2,1,05,14,42,192,44,24,72,028,48,25,42,263,43,26,25,063,42*60
###2023-12-09 13:05:45.995056$GBGSV,2,2,05,33,56,230,47,,,,,,,,,,,,*5F
###2023-12-09 13:05:45.996377$GNVTG,286.70,T,,M,3.36,N,6.23,K,A*29
###2023-12-09 13:05:45.998028$GNGST,180545.10,18.000,,,,0.081,0.067,0.160*5D
