###2023-12-09 13:18:23.382791$GNGGA,181822.50,4138.0207207,N,07032.3104038,W,1,24,0.7,13.057,M,-29.744,M,0.0,*5E
###2023-12-09 13:18:23.583847$GNGGA,181822.70,4138.0209054,N,07032.3105212,W,1,24,0.7,13.063,M,-29.744,M,0.0,*5A
###2023-12-09 13:18:23.782899$GNGGA,181822.90,4138.0210905,N,07032.3106373,W,1,24,0.7,13.064,M,-29.744,M,0.0,*53
###2023-12-09 13:18:23.984360$GNRMC,181823.10,A,4138.0212784,N,07032.3107451,W,3.63,338.21,091223,,,A*53
###2023-12-09 13:18:23.987222$GNGGA,181823.10,4138.0212784,N,07032.3107451,W,1,24,0.7,13.070,M,-29.744,M,0.0,*5C
###2023-12-09 13:18:23.989008$GPGSA,A,3,03,04,16,26,28,29,31,,,,,,1.2,0.7,0.9*38
###2023-12-09 13:18:23.990729$GLGSA,A,3,65,71,72,73,74,75,,,,,,,1.2,0.7,0.9*26
###2023-12-09 13:18:23.992308$GAGSA,A,3,04,19,21,27,,,,,,,,,1.2,0.7,0.9*24
###2023-12-09 13:18:23.994018$GBGSA,A,3,14,24,25,26,33,35,,,,,,,1.2,0.7,0.9*2B
###2023-12-09 13:18:23.996350$GPGSV,2,1,07,03,31,253,43,04,39,310,43,16,58,216,47,26,88,205,48*77
###2023-12-09 13:18:23.998389$GPGSV,2,2,07,28,43,078,45,29,23,053,42,31,64,053,46,,,,*43
###2023-12-09 13:18:24.000732$GLGSV,2,1,06,65,31,324,40,71,32,174,46,72,70,240,46,73,29,047,44*6D
###2023-12-09 13:18:24.002480$GLGSV,2,2,06,74,65,358,42,75,38,261,45,,,,,,,,*66
###2023-12-09 13:18:24.004819$GAGSV,1,1,04,04,34,311,41,19,78,188,41,21,82,058,46,27,27,049,41*64
###2023-12-09 13:18:24.007164$GBGSV,2,1,06,14,35,191,42,24,68,036,48,25,45,268,46,26,21,066,44*6C
###2023-12-09 13:18:24.008914$GBGSV,2,2,06,33,52,224,48,35,16,063,43,,,,,,,,*61
###2023-12-09 13:18:24.010237$GNVTG,338.21,T,,M,3.63,N,6.73,K,A*2C
###2023-12-09 13:18:24.011892$GNGST,181823.10,18.000,,,,0.098,0.071,0.170*5F
###2023-12-09 13:18:24.013185$GNZDA,181823.10,09,12,2023,00,00*71
###2023-12-09 13:18:24.013824$GNEBP,,,,,,M*13
###2023-12-09 13:18:24.183018$GNGGA,181823.30,4138.0214696,N,07032.3108335,W,1,24,0.7,13.070,M,-29.744,M,0.0,*50
###2023-12-09 13:18:24.382096$GNGGA,181823.50,4138.0216600,N,07032.3109168,W,1,24,0.7,13.076,M,-29.744,M,0.0,*56
###2023-12-09 13:18:24.582913$GNGGA,181823.70,4138.0218453,N,07032.3110037,W,1,24,0.7,13.081,M,-29.744,M,0.0,*55
###2023-12-09 13:18:24.784096$GNGGA,181823.90,4138.0220299,N,07032.3110775,W,1,24,0.7,13.084,M,-29.744,M,0.0,*54
###2023-12-09 13:18:24.987434$GNRMC,181824.10,A,4138.0222152,N,07032.3111392,W,3.40,345.96,091223,,,A*52
###2023-12-09 13:18:24.990276$GNGGA,181824.10,4138.0222152,N,07032.3111392,W,1,24,0.7,13.090,M,-29.744,M,0.0,*54
###2023-12-09 13:18:24.992072$GPGSA,A,3,03,04,16,26,28,29,31,,,,,,1.2,0.7,0.9*38
###2023-12-09 13:18:24.993786$GLGSA,A,3,65,71,72,73,74,75,,,,,,,1.2,0.7,0.9*26
###2023-12-09 13:18:24.995381$GAGSA,A,3,04,19,21,27,,,,,,,,,1.2,0.7,0.9*24
###2023-12-09 13:18:24.997095$GBGSA,A,3,14,24,25,26,33,35,,,,,,,1.2,0.7,0.9*2B
###2023-12-09 13:18:24.999431$GPGSV,2,1,07,03,31,253,43,04,39,310,44,16,58,216,48,26,88,205,48*7F
###2023-12-09 13:18:25.001466$GPGSV,2,2,07,28,43,078,45,29,23,053,42,31,64,053,47,,,,*42
###2023-12-09 13:18:25.003793$GLGSV,2,1,06,65,31,324,39,71,32,174,45,72,70,240,47,73,29,047,43*66
###2023-12-09 13:18:25.005532$GLGSV,2,2,06,74,65,358,41,75,38,261,46,,,,,,,,*66
###2023-12-09 13:18:25.007861$GAGSV,1,1,04,04,34,311,43,19,78,188,41,21,82,058,46,27,27,049,41*66
###2023-12-09 13:18:25.010183$GBGSV,2,1,06,14,35,191,43,24,68,036,48,25,45,268,47,26,21,066,44*6C
###2023-12-09 13:18:25.011937$GBGSV,2,2,06,33,52,224,48,35,16,063,42,,,,,,,,*60
###2023-12-09 13:18:25.013247$GNVTG,345.96,T,,M,3.40,N,6.30,K,A*2C
###2023-12-09 13:18:25.014902$GNGST,181824.10,18.000,,,,0.098,0.071,0.170*58
###2023-12-09 13:18:25.016194$GNZDA,181824.10,09,12,2023,00,00*76
###2023-12-09 13:18:25.016832$GNEBP,,,,,,M*13
###2023-12-09 13:18:25.196787$GNGGA,181824.30,4138.0224001,N,07032.3112002,W,1,24,0.7,13.100,M,-29.744,M,0.0,*56
###2023-12-09 13:18:25.383711$GNGGA,181824.50,4138.0225884,N,07032.3112636,W,1,24,0.7,13.104,M,-29.744,M,0.0,*51
###2023-12-09 13:18:25.584919$GNGGA,181824.70,4138.0227778,N,07032.3113283,W,1,24,0.7,13.112,M,-29.744,M,0.0,*51
###2023-12-09 13:18:25.782940$GNGGA,181824.90,4138.0229730,N,07032.3113765,W,1,24,0.7,13.119,M,-29.744,M,0.0,*5B
###2023-12-09 13:18:25.999789$GNRMC,181825.10,A,4138.0231714,N,07032.3114107,W,3.56,353.35,091223,,,A*57
###2023-12-09 13:18:26.002665$GNGGA,181825.10,4138.0231714,N,07032.3114107,W,1,24,0.7,13.120,M,-29.744,M,0.0,*52
###2023-12-09 13:18:26.004469$GPGSA,A,3,03,04,16,26,28,29,31,,,,,,1.2,0.7,0.9*38
###2023-12-09 13:18:26.006185$GLGSA,A,3,65,71,72,73,74,75,,,,,,,1.2,0.7,0.9*26
###2023-12-09 13:18:26.007777$GAGSA,A,3,04,19,21,27,,,,,,,,,1.2,0.7,0.9*24
###2023-12-09 13:18:26.009484$GBGSA,A,3,14,24,25,26,33,35,,,,,,,1.2,0.7,0.9*2B
###2023-12-09 13:18:26.011826$GPGSV,2,1,07,03,31,253,43,04,39,310,44,16,58,216,47,26,88,205,48*70
###2023-12-09 13:18:26.013852$GPGSV,2,2,07,28,43,078,45,29,23,053,42,31,64,053,47,,,,*42
###2023-12-09 13:18:26.016182$GLGSV,2,1,06,65,31,324,39,71,32,174,46,72,70,240,47,73,29,047,43*65
###2023-12-09 13:18:26.017926$GLGSV,2,2,06,74,65,358,41,75,38,261,47,,,,,,,,*67
###2023-12-09 13:18:26.020257$GAGSV,1,1,04,04,34,311,43,19,78,188,41,21,82,058,46,27,27,049,41*66
###2023-12-09 13:18:26.022582$GBGSV,2,1,06,14,35,191,42,24,68,036,48,25,45,268,47,26,21,066,43*6A
###2023-12-09 13:18:26.024332$GBGSV,2,2,06,33,52,224,47,35,16,063,43,,,,,,,,*6E
###2023-12-09 13:18:26.025658$GNVTG,353.35,T,,M,3.56,N,6.59,K,A*2A
###2023-12-09 13:18:26.027311$GNGST,181825.10,18.000,,,,0.098,0.071,0.170*59
###2023-12-09 13:18:26.028602$GNZDA,181825.10,09,12,2023,00,00*77
###2023-12-09 13:18:26.029242$GNEBP,,,,,,M*13
###2023-12-09 13:18:26.183345$GNGGA,181825.30,4138.0233687,N,07032.3114575,W,1,24,0.7,13.128,M,-29.744,M,0.0,*50
###2023-12-09 13:18:26.382701$GNGGA,181825.50,4138.0235673,N,07032.3115148,W,1,24,0.7,13.135,M,-29.744,M,0.0,*5C
###2023-12-09 13:18:26.583924$GNGGA,181825.70,4138.0237704,N,07032.3115560,W,1,24,0.7,13.137,M,-29.744,M,0.0,*51
###2023-12-09 13:18:26.781875$GNGGA,181825.90,4138.0239781,N,07032.3115872,W,1,24,0.7,13.149,M,-29.744,M,0.0,*5B
###2023-12-09 13:18:26.987445$GNRMC,181826.10,A,4138.0241887,N,07032.3116259,W,3.83,350.46,091223,,,A*53
###2023-12-09 13:18:26.990307$GNGGA,181826.10,4138.0241887,N,07032.3116259,W,1,24,0.7,13.162,M,-29.744,M,0.0,*5F
###2023-12-09 13:18:26.992116$GPGSA,A,3,03,04,16,26,28,29,31,,,,,,1.2,0.7,0.9*38
###2023-12-09 13:18:26.993826$GLGSA,A,3,65,71,72,73,74,75,,,,,,,1.2,0.7,0.9*26
###2023-12-09 13:18:26.995419$GAGSA,A,3,04,19,21,27,,,,,,,,,1.2,0.7,0.9*24
###2023-12-09 13:18:26.997130$GBGSA,A,3,14,24,25,26,33,35,,,,,,,1.2,0.7,0.9*2B
###2023-12-09 13:18:26.999476$GPGSV,2,1,07,03,31,253,43,04,39,310,44,16,58,216,47,26,88,205,48*70
###2023-12-09 13:18:27.001521$GPGSV,2,2,07,28,43,078,45,29,23,053,42,31,64,053,46,,,,*43
###2023-12-09 13:18:27.003852$GLGSV,2,1,06,65,31,324,40,71,32,174,46,72,70,240,46,73,29,047,43*6A
###2023-12-09 13:18:27.005601$GLGSV,2,2,06,74,65,358,41,75,38,261,47,,,,,,,,*67
###2023-12-09 13:18:27.007932$GAGSV,1,1,04,04,34,311,43,19,78,188,41,21,82,058,46,27,27,049,41*66
###2023-12-09 13:18:27.010259$GBGSV,2,1,06,14,35,191,43,24,68,036,48,25,45,268,47,26,21,066,43*6B
###2023-12-09 13:18:27.012012$GBGSV,2,2,06,33,52,224,48,35,16,063,42,,,,,,,,*60
###2023-12-09 13:18:27.013333$GNVTG,350.46,T,,M,3.83,N,7.09,K,A*21
###2023-12-09 13:18:27.014984$GNGST,181826.10,18.000,,,,0.098,0.071,0.170*5A
###2023-12-09 13:18:27.016272$GNZDA,181826.10,09,12,2023,00,00*74
###2023-12-09 13:18:27.016908$GNEBP,,,,,,M*13
###2023-12-09 13:18:27.183899$GNGGA,181826.30,4138.0243980,N,07032.3116783,W,1,24,0.7,13.166,M,-29.744,M,0.0,*5F
###2023-12-09 13:18:27.381952$GNGGA,181826.50,4138.0246087,N,07032.3117318,W,1,24,0.7,13.172,M,-29.744,M,0.0,*50
###2023-12-09 13:18:27.581457$GNGGA,181826.70,4138.0248186,N,07032.3117667,W,1,24,0.7,13.179,M,-29.744,M,0.0,*5A
###2023-12-09 13:18:27.784046$GNGGA,181826.90,4138.0250278,N,07032.3117892,W,1,24,0.7,13.182,M,-29.744,M,0.0,*5F
###2023-12-09 13:18:27.985460$GNRMC,181827.10,A,4138.0252311,N,07032.3118244,W,3.69,352.59,091223,,,A*5E
###2023-12-09 13:18:27.988320$GNGGA,181827.10,4138.0252311,N,07032.3118244,W,1,24,0.7,13.194,M,-29.744,M,0.0,*53
###2023-12-09 13:18:27.990102$GPGSA,A,3,03,04,16,26,28,29,31,,,,,,1.2,0.7,0.9*38
###2023-12-09 13:18:27.992120$GLGSA,A,3,65,71,72,73,74,75,,,,,,,1.2,0.7,0.9*26
###2023-12-09 13:18:27.993728$GAGSA,A,3,04,19,21,27,,,,,,,,,1.2,0.7,0.9*24
###2023-12-09 13:18:27.995464$GBGSA,A,3,14,24,25,26,33,35,,,,,,,1.2,0.7,0.9*2B
###2023-12-09 13:18:27.997781$GPGSV,2,1,07,03,31,253,42,04,39,310,44,16,58,216,46,26,88,205,48*70
###2023-12-09 13:18:27.999820$GPGSV,2,2,07,28,43,078,45,29,23,053,42,31,64,053,46,,,,*43
###2023-12-09 13:18:28.002134$GLGSV,2,1,06,65,31,324,40,71,32,174,46,72,70,240,46,73,29,047,43*6A
###2023-12-09 13:18:28.003879$GLGSV,2,2,06,74,65,358,41,75,38,261,46,,,,,,,,*66
###2023-12-09 13:18:28.006182$GAGSV,1,1,04,04,34,311,43,19,78,188,41,21,82,058,46,27,27,049,41*66
###2023-12-09 13:18:28.008506$GBGSV,2,1,06,14,35,191,44,24,68,036,47,25,45,268,47,26,21,066,43*63
###2023-12-09 13:18:28.010238$GBGSV,2,2,06,33,52,224,48,35,16,063,43,,,,,,,,*61
