###2023-12-09 12:53:42.554230$GNGGA,175341.70,4138.0592178,N,07032.3893902,W,1,24,0.6,13.480,M,-29.744,M,0.0,*51
###2023-12-09 12:53:42.754189$GNGGA,175341.90,4138.0592420,N,07032.3894462,W,1,24,0.6,13.498,M,-29.744,M,0.0,*52
###2023-12-09 12:53:42.955280$GNRMC,175342.10,A,4138.0592602,N,07032.3894908,W,0.47,303.50,091223,,,A*5D
###2023-12-09 12:53:42.958137$GNGGA,175342.10,4138.0592602,N,07032.3894908,W,1,24,0.6,13.508,M,-29.744,M,0.0,*52
###2023-12-09 12:53:42.960018$GPGSA,A,3,03,04,16,26,28,29,31,32,,,,,1.1,0.6,0.9*3B
###2023-12-09 12:53:42.961737$GLGSA,A,3,65,71,72,73,74,75,,,,,,,1.1,0.6,0.9*24
###2023-12-09 12:53:42.963332$GAGSA,A,3,04,19,21,27,,,,,,,,,1.1,0.6,0.9*26
###2023-12-09 12:53:42.964983$GBGSA,A,3,14,24,25,26,33,,,,,,,,1.1,0.6,0.9*2F
###2023-12-09 12:53:42.967327$GPGSV,2,1,08,03,36,266,43,04,29,311,44,16,46,211,43,26,76,209,47*70
###2023-12-09 12:53:42.969663$GPGSV,2,2,08,28,52,067,44,29,25,064,42,31,70,029,48,32,22,138,40*78
###2023-12-09 12:53:42.972014$GLGSV,2,1,06,65,20,328,43,71,45,172,46,72,72,285,46,73,39,039,47*64
###2023-12-09 12:53:42.973767$GLGSV,2,2,06,74,71,324,43,75,29,249,42,,,,,,,,*64
###2023-12-09 12:53:42.976112$GAGSV,1,1,04,04,26,312,43,19,85,252,40,21,84,154,46,27,36,048,44*6E
###2023-12-09 12:53:42.978456$GBGSV,2,1,05,14,47,194,46,24,76,016,49,25,38,259,46,26,29,061,44*60
###2023-12-09 12:53:42.979934$GBGSV,2,2,05,33,60,238,48,,,,,,,,,,,,*5D
###2023-12-09 12:53:42.981263$GNVTG,303.50,T,,M,0.47,N,0.86,K,A*2B
###2023-12-09 12:53:42.982928$GNGST,175342.10,18.000,,,,0.075,0.067,0.160*5D
###2023-12-09 12:53:42.984232$GNZDA,175342.10,09,12,2023,00,00*76
###2023-12-09 12:53:42.984875$GNEBP,,,,,,M*13
###2023-12-09 12:53:43.153008$GNGGA,175342.30,4138.0592651,N,07032.3895036,W,1,24,0.6,13.525,M,-29.744,M,0.0,*5C
###2023-12-09 12:53:43.353039$GNGGA,175342.50,4138.0592665,N,07032.3895085,W,1,24,0.6,13.514,M,-29.744,M,0.0,*57
###2023-12-09 12:53:43.552997$GNGGA,175342.70,4138.0592760,N,07032.3895332,W,1,24,0.6,13.494,M,-29.744,M,0.0,*57
###2023-12-09 12:53:43.754095$GNGGA,175342.90,4138.0592938,N,07032.3895778,W,1,24,0.6,13.495,M,-29.744,M,0.0,*51
###2023-12-09 12:53:43.955597$GNRMC,175343.10,A,4138.0593071,N,07032.3896166,W,0.45,303.50,091223,,,A*5F
###2023-12-09 12:53:43.958450$GNGGA,175343.10,4138.0593071,N,07032.3896166,W,1,24,0.6,13.500,M,-29.744,M,0.0,*5A
###2023-12-09 12:53:43.960320$GPGSA,A,3,03,04,16,26,28,29,31,32,,,,,1.1,0.6,0.9*3B
###2023-12-09 12:53:43.962035$GLGSA,A,3,65,71,72,73,74,75,,,,,,,1.1,0.6,0.9*24
###2023-12-09 12:53:43.963633$GAGSA,A,3,04,19,21,27,,,,,,,,,1.1,0.6,0.9*26
###2023-12-09 12:53:43.965287$GBGSA,A,3,14,24,25,26,33,,,,,,,,1.1,0.6,0.9*2F
###2023-12-09 12:53:43.967639$GPGSV,2,1,08,03,36,266,43,04,29,311,43,16,46,211,43,26,76,209,47*77
###2023-12-09 12:53:43.969967$GPGSV,2,2,08,28,52,067,44,29,25,064,42,31,70,029,47,32,22,138,43*74
###2023-12-09 12:53:43.972303$GLGSV,2,1,06,65,20,328,43,71,45,172,47,72,72,285,46,73,39,039,47*65
###2023-12-09 12:53:43.974049$GLGSV,2,2,06,74,71,324,43,75,29,249,40,,,,,,,,*66
###2023-12-09 12:53:43.976384$GAGSV,1,1,04,04,26,312,42,19,85,252,40,21,84,154,46,27,36,048,44*6F
###2023-12-09 12:53:43.978725$GBGSV,2,1,05,14,47,194,45,24,76,016,49,25,38,259,46,26,29,061,44*63
###2023-12-09 12:53:43.980179$GBGSV,2,2,05,33,60,238,48,,,,,,,,,,,,*5D
###2023-12-09 12:53:43.981503$GNVTG,303.50,T,,M,0.45,N,0.83,K,A*2C
###2023-12-09 12:53:43.983161$GNGST,175343.10,18.000,,,,0.075,0.067,0.160*5C
###2023-12-09 12:53:43.984454$GNZDA,175343.10,09,12,2023,00,00*77
###2023-12-09 12:53:43.985092$GNEBP,,,,,,M*13
###2023-12-09 12:53:44.153884$GNGGA,175343.30,4138.0593134,N,07032.3896373,W,1,24,0.6,13.520,M,-29.744,M,0.0,*5C
###2023-12-09 12:53:44.353619$GNGGA,175343.50,4138.0593251,N,07032.3896630,W,1,24,0.6,13.539,M,-29.744,M,0.0,*50
###2023-12-09 12:53:44.552936$GNGGA,175343.70,4138.0593403,N,07032.3896932,W,1,24,0.6,13.527,M,-29.744,M,0.0,*51
###2023-12-09 12:53:44.756279$GNGGA,175343.90,4138.0593466,N,07032.3897108,W,1,24,0.6,13.491,M,-29.744,M,0.0,*50
###2023-12-09 12:53:44.963364$GNRMC,175344.10,A,4138.0593546,N,07032.3897380,W,0.60,303.50,091223,,,A*55
###2023-12-09 12:53:44.966239$GNGGA,175344.10,4138.0593546,N,07032.3897380,W,1,24,0.6,13.487,M,-29.744,M,0.0,*59
###2023-12-09 12:53:44.968124$GPGSA,A,3,03,04,16,26,28,29,31,32,,,,,1.1,0.6,0.9*3B
###2023-12-09 12:53:44.969843$GLGSA,A,3,65,71,72,73,74,75,,,,,,,1.1,0.6,0.9*24
###2023-12-09 12:53:44.971448$GAGSA,A,3,04,19,21,27,,,,,,,,,1.1,0.6,0.9*26
###2023-12-09 12:53:44.973102$GBGSA,A,3,14,24,25,26,33,,,,,,,,1.1,0.6,0.9*2F
###2023-12-09 12:53:44.975444$GPGSV,2,1,08,03,36,266,42,04,29,311,43,16,46,211,44,26,76,209,48*7E
###2023-12-09 12:53:44.977782$GPGSV,2,2,08,28,52,067,46,29,25,064,45,31,70,029,48,32,22,138,45*78
###2023-12-09 12:53:44.980166$GLGSV,2,1,06,65,20,328,41,71,45,172,46,72,72,285,45,73,39,039,47*65
###2023-12-09 12:53:44.981919$GLGSV,2,2,06,74,71,324,43,75,29,249,41,,,,,,,,*67
###2023-12-09 12:53:44.984261$GAGSV,1,1,04,04,26,312,40,19,85,252,40,21,84,154,46,27,36,048,44*6D
###2023-12-09 12:53:44.986600$GBGSV,2,1,05,14,47,194,45,24,76,016,48,25,38,259,44,26,29,061,44*60
###2023-12-09 12:53:44.988055$GBGSV,2,2,05,33,60,238,46,,,,,,,,,,,,*53
###2023-12-09 12:53:44.989377$GNVTG,303.50,T,,M,0.60,N,1.12,K,A*22
###2023-12-09 12:53:44.991040$GNGST,175344.10,18.000,,,,0.075,0.067,0.160*5B
###2023-12-09 12:53:44.992337$GNZDA,175344.10,09,12,2023,00,00*70
###2023-12-09 12:53:44.992975$GNEBP,,,,,,M*13
###2023-12-09 12:53:45.155422$GNGGA,175344.30,4138.0593691,N,07032.3897790,W,1,24,0.6,13.509,M,-29.744,M,0.0,*50
###2023-12-09 12:53:45.356630$GNGGA,175344.50,4138.0593831,N,07032.3898138,W,1,24,0.6,13.530,M,-29.744,M,0.0,*53
###2023-12-09 12:53:45.554033$GNGGA,175344.70,4138.0593975,N,07032.3898404,W,1,24,0.6,13.543,M,-29.744,M,0.0,*5E
###2023-12-09 12:53:45.754269$GNGGA,175344.90,4138.0594073,N,07032.3898598,W,1,24,0.6,13.519,M,-29.744,M,0.0,*53
###2023-12-09 12:53:45.955396$GNRMC,175345.10,A,4138.0594081,N,07032.3898734,W,0.25,303.50,091223,,,A*58
###2023-12-09 12:53:45.958267$GNGGA,175345.10,4138.0594081,N,07032.3898734,W,1,24,0.6,13.479,M,-29.744,M,0.0,*54
###2023-12-09 12:53:45.960153$GPGSA,A,3,03,04,16,26,28,29,31,32,,,,,1.1,0.6,0.9*3B
###2023-12-09 12:53:45.961878$GLGSA,A,3,65,71,72,73,74,75,,,,,,,1.1,0.6,0.9*24
###2023-12-09 12:53:45.963487$GAGSA,A,3,04,19,21,27,,,,,,,,,1.1,0.6,0.9*26
###2023-12-09 12:53:45.965148$GBGSA,A,3,14,24,25,26,33,,,,,,,,1.1,0.6,0.9*2F
###2023-12-09 12:53:45.967496$GPGSV,2,1,08,03,36,266,42,04,29,311,41,16,46,211,44,26,76,209,48*7C
###2023-12-09 12:53:45.969865$GPGSV,2,2,08,28,52,067,46,29,25,064,45,31,70,029,48,32,22,138,46*7B
###2023-12-09 12:53:45.972264$GLGSV,2,1,06,65,20,328,40,71,45,172,48,72,72,285,45,73,39,039,47*6A
###2023-12-09 12:53:45.974073$GLGSV,2,2,06,74,71,324,43,75,29,249,41,,,,,,,,*67
###2023-12-09 12:53:45.976440$GAGSV,1,1,04,04,26,312,39,19,85,252,40,21,84,154,46,27,36,048,44*63
###2023-12-09 12:53:45.978800$GBGSV,2,1,05,14,47,194,45,24,76,016,48,25,38,259,44,26,29,061,45*61
###2023-12-09 12:53:45.980255$GBGSV,2,2,05,33,60,238,46,,,,,,,,,,,,*53
###2023-12-09 12:53:45.981586$GNVTG,303.50,T,,M,0.25,N,0.47,K,A*22
###2023-12-09 12:53:45.983262$GNGST,175345.10,18.000,,,,0.075,0.067,0.160*5A
###2023-12-09 12:53:45.984559$GNZDA,175345.10,09,12,2023,00,00*71
###2023-12-09 12:53:45.985198$GNEBP,,,,,,M*13
###2023-12-09 12:53:46.153384$GNGGA,175345.30,4138.0594188,N,07032.3899081,W,1,24,0.6,13.481,M,-29.744,M,0.0,*51
###2023-12-09 12:53:46.353732$GNGGA,175345.50,4138.0594405,N,07032.3899613,W,1,24,0.6,13.502,M,-29.744,M,0.0,*50
###2023-12-09 12:53:46.553854$GNGGA,175345.70,4138.0594588,N,07032.3900033,W,1,24,0.6,13.518,M,-29.744,M,0.0,*58
###2023-12-09 12:53:46.752745$GNGGA,175345.90,4138.0594606,N,07032.3900133,W,1,24,0.6,13.518,M,-29.744,M,0.0,*52
###2023-12-09 12:53:46.953506$GNRMC,175346.10,A,4138.0594566,N,07032.3900114,W,0.06,303.50,091223,,,A*52
###2023-12-09 12:53:46.956407$GNGGA,175346.10,4138.0594566,N,07032.3900114,W,1,24,0.6,13.477,M,-29.744,M,0.0,*51
###2023-12-09 12:53:46.958269$GPGSA,A,3,03,04,16,26,28,29,31,32,,,,,1.1,0.6,0.9*3B
###2023-12-09 12:53:46.960001$GLGSA,A,3,65,71,72,73,74,75,,,,,,,1.1,0.6,0.9*24
###2023-12-09 12:53:46.961821$GAGSA,A,3,04,19,21,27,,,,,,,,,1.1,0.6,0.9*26
###2023-12-09 12:53:46.963533$GBGSA,A,3,14,24,25,26,33,,,,,,,,1.1,0.6,0.9*2F
###2023-12-09 12:53:46.965888$GPGSV,2,1,08,03,36,266,43,04,29,311,42,16,46,211,44,26,76,209,49*7F
###2023-12-09 12:53:46.968261$GPGSV,2,2,08,28,52,067,47,29,25,064,46,31,70,029,48,32,22,138,48*77
###2023-12-09 12:53:46.970629$GLGSV,2,1,06,65,20,328,40,71,45,172,47,72,72,285,45,73,39,039,47*65
###2023-12-09 12:53:46.972384$GLGSV,2,2,06,74,71,324,43,75,29,249,41,,,,,,,,*67
###2023-12-09 12:53:46.974731$GAGSV,1,1,04,04,26,312,39,19,85,252,40,21,84,154,47,27,36,048,45*63
###2023-12-09 12:53:46.977067$GBGSV,2,1,05,14,47,194,44,24,76,016,48,25,38,259,43,26,29,061,44*66
###2023-12-09 12:53:46.978526$GBGSV,2,2,05,33,60,238,45,,,,,,,,,,,,*50
###2023-12-09 12:53:46.979859$GNVTG,303.50,T,,M,0.06,N,0.11,K,A*20
