###2023-12-09 12:31:23.950912$GNVTG,95.64,T,,M,0.60,N,1.12,K,A*19
###2023-12-09 12:31:23.952591$GNGST,173123.10,21.000,,,,0.170,0.190,0.400*5A
###2023-12-09 12:31:23.953900$GNZDA,173123.10,09,12,2023,00,00*75
###2023-12-09 12:31:23.954550$GNEBP,,,,,,M*13
###2023-12-09 12:31:24.127896$GNGGA,173123.30,4138.0393121,N,07032.4270034,W,1,19,0.7,13.927,M,-29.745,M,0.0,*5C
###2023-12-09 12:31:24.327881$GNGGA,173123.50,4138.0393111,N,07032.4269685,W,1,19,0.8,13.897,M,-29.745,M,0.0,*58
###2023-12-09 12:31:24.527138$GNGGA,173123.70,4138.0393144,N,07032.4269360,W,1,20,0.7,13.889,M,-29.745,M,0.0,*5E
###2023-12-09 12:31:24.727060$GNGGA,173123.90,4138.0393270,N,07032.4269074,W,1,19,0.8,13.901,M,-29.745,M,0.0,*56
###2023-12-09 12:31:24.929902$GNRMC,173124.10,A,4138.0393351,N,07032.4268717,W,0.58,95.64,091223,,,A*66
###2023-12-09 12:31:24.933013$GNGGA,173124.10,4138.0393351,N,07032.4268717,W,1,20,0.7,13.903,M,-29.745,M,0.0,*5F
###2023-12-09 12:31:24.935028$GPGSA,A,3,03,04,26,28,29,31,32,,,,,,1.3,0.7,1.0*37
###2023-12-09 12:31:24.936875$GLGSA,A,3,71,72,73,74,75,,,,,,,,1.3,0.7,1.0*2C
###2023-12-09 12:31:24.938602$GAGSA,A,3,19,21,27,,,,,,,,,,1.3,0.7,1.0*29
###2023-12-09 12:31:24.940423$GBGSA,A,3,14,25,26,33,,,,,,,,,1.3,0.7,1.0*22
###2023-12-09 12:31:24.942967$GPGSV,2,1,07,03,39,279,43,04,20,310,38,26,65,206,48,28,59,054,45*79
###2023-12-09 12:31:24.945204$GPGSV,2,2,07,29,25,075,40,31,73,356,48,32,31,133,45,,,,*4D
###2023-12-09 12:31:24.947763$GLGSV,2,1,05,71,59,168,47,72,64,313,46,73,50,032,47,74,70,284,43*6F
###2023-12-09 12:31:24.949463$GLGSV,2,2,05,75,20,239,35,,,,,,,,,,,,*5E
###2023-12-09 12:31:24.951721$GAGSV,1,1,03,19,80,306,41,21,76,178,47,27,43,050,42,,,,*55
###2023-12-09 12:31:24.954286$GBGSV,1,1,04,14,57,199,44,25,31,251,42,26,36,056,44,33,63,258,48*68
###2023-12-09 12:31:24.955743$GNVTG,95.64,T,,M,0.58,N,1.08,K,A*19
###2023-12-09 12:31:24.957508$GNGST,173124.10,20.000,,,,0.160,0.180,0.380*53
###2023-12-09 12:31:24.958935$GNZDA,173124.10,09,12,2023,00,00*72
###2023-12-09 12:31:24.959688$GNEBP,,,,,,M*13
###2023-12-09 12:31:25.128303$GNGGA,173124.30,4138.0393332,N,07032.4268331,W,1,20,0.7,13.898,M,-29.745,M,0.0,*5B
###2023-12-09 12:31:25.329843$GNGGA,173124.50,4138.0393367,N,07032.4268138,W,1,21,0.7,13.866,M,-29.745,M,0.0,*56
###2023-12-09 12:31:25.528443$GNGGA,173124.70,4138.0393550,N,07032.4268038,W,1,20,0.7,13.815,M,-29.745,M,0.0,*52
###2023-12-09 12:31:25.726726$GNGGA,173124.90,4138.0393724,N,07032.4267930,W,1,20,0.7,13.783,M,-29.745,M,0.0,*53
###2023-12-09 12:31:25.931074$GNRMC,173125.10,A,4138.0393758,N,07032.4267693,W,0.52,95.64,091223,,,A*62
###2023-12-09 12:31:25.934924$GNGGA,173125.10,4138.0393758,N,07032.4267693,W,1,20,0.7,13.774,M,-29.745,M,0.0,*5F
###2023-12-09 12:31:25.937361$GPGSA,A,3,03,04,26,28,29,31,32,,,,,,1.3,0.7,1.0*37
###2023-12-09 12:31:25.939610$GLGSA,A,3,71,72,73,74,75,,,,,,,,1.3,0.7,1.0*2C
###2023-12-09 12:31:25.941682$GAGSA,A,3,19,21,27,,,,,,,,,,1.3,0.7,1.0*29
###2023-12-09 12:31:25.943841$GBGSA,A,3,14,25,26,33,,,,,,,,,1.3,0.7,1.0*22
###2023-12-09 12:31:25.946930$GPGSV,2,1,07,03,39,279,44,04,20,310,40,26,65,206,48,28,59,054,44*70
###2023-12-09 12:31:25.949786$GPGSV,2,2,07,29,25,075,40,31,73,356,47,32,31,133,46,,,,*41
###2023-12-09 12:31:25.952804$GLGSV,2,1,05,71,59,168,48,72,64,313,47,73,50,032,47,74,70,284,43*61
###2023-12-09 12:31:25.954746$GLGSV,2,2,05,75,20,239,38,,,,,,,,,,,,*53
###2023-12-09 12:31:25.957339$GAGSV,1,1,03,19,80,306,41,21,76,178,45,27,43,050,41,,,,*54
###2023-12-09 12:31:25.960310$GBGSV,1,1,04,14,57,199,44,25,31,251,42,26,36,056,45,33,63,258,47*66
###2023-12-09 12:31:25.962020$GNVTG,95.64,T,,M,0.52,N,0.97,K,A*14
###2023-12-09 12:31:25.964161$GNGST,173125.10,20.000,,,,0.150,0.150,0.340*50
###2023-12-09 12:31:25.965859$GNZDA,173125.10,09,12,2023,00,00*73
###2023-12-09 12:31:25.966783$GNEBP,,,,,,M*13
###2023-12-09 12:31:26.127416$GNGGA,173125.30,4138.0393704,N,07032.4267274,W,1,20,0.7,13.782,M,-29.745,M,0.0,*50
###2023-12-09 12:31:26.327426$GNGGA,173125.50,4138.0393726,N,07032.4266933,W,1,20,0.7,13.812,M,-29.745,M,0.0,*59
###2023-12-09 12:31:26.528411$GNGGA,173125.70,4138.0393850,N,07032.4266770,W,1,20,0.7,13.834,M,-29.745,M,0.0,*58
###2023-12-09 12:31:26.729877$GNGGA,173125.90,4138.0393938,N,07032.4266527,W,1,21,0.7,13.823,M,-29.745,M,0.0,*5E
###2023-12-09 12:31:26.936419$GNRMC,173126.10,A,4138.0393919,N,07032.4266194,W,0.47,95.64,091223,,,A*6F
###2023-12-09 12:31:26.940242$GNGGA,173126.10,4138.0393919,N,07032.4266194,W,1,21,0.7,13.795,M,-29.745,M,0.0,*58
###2023-12-09 12:31:26.942694$GPGSA,A,3,03,04,26,28,29,31,32,,,,,,1.2,0.7,1.0*36
###2023-12-09 12:31:26.944939$GLGSA,A,3,71,72,73,74,75,,,,,,,,1.2,0.7,1.0*2D
###2023-12-09 12:31:26.947111$GAGSA,A,3,04,19,21,27,,,,,,,,,1.2,0.7,1.0*2C
###2023-12-09 12:31:26.949304$GBGSA,A,3,14,25,26,33,,,,,,,,,1.2,0.7,1.0*23
###2023-12-09 12:31:26.952382$GPGSV,2,1,07,03,39,279,44,04,20,310,38,26,65,206,47,28,59,054,45*71
###2023-12-09 12:31:26.955097$GPGSV,2,2,07,29,25,075,41,31,73,356,47,32,31,133,45,,,,*43
###2023-12-09 12:31:26.958350$GLGSV,2,1,05,71,59,168,49,72,64,313,45,73,50,032,46,74,70,284,42*62
###2023-12-09 12:31:26.960386$GLGSV,2,2,05,75,20,239,38,,,,,,,,,,,,*53
###2023-12-09 12:31:26.963454$GAGSV,1,1,04,04,20,311,36,19,80,306,41,21,76,178,47,27,43,050,42*62
###2023-12-09 12:31:26.966506$GBGSV,1,1,04,14,57,199,46,25,31,251,43,26,36,056,45,33,63,258,47*65
###2023-12-09 12:31:26.968312$GNVTG,95.64,T,,M,0.47,N,0.86,K,A*10
###2023-12-09 12:31:26.970455$GNGST,173126.10,20.000,,,,0.140,0.130,0.300*50
###2023-12-09 12:31:26.972205$GNZDA,173126.10,09,12,2023,00,00*70
###2023-12-09 12:31:26.973125$GNEBP,,,,,,M*13
###2023-12-09 12:31:27.129598$GNGGA,173126.30,4138.0393988,N,07032.4265991,W,1,21,0.7,13.791,M,-29.745,M,0.0,*58
###2023-12-09 12:31:27.327833$GNGGA,173126.50,4138.0394070,N,07032.4265738,W,1,21,0.7,13.805,M,-29.745,M,0.0,*58
###2023-12-09 12:31:27.526820$GNGGA,173126.70,4138.0394112,N,07032.4265516,W,1,21,0.7,13.811,M,-29.745,M,0.0,*54
###2023-12-09 12:31:27.726991$GNGGA,173126.90,4138.0394170,N,07032.4265222,W,1,21,0.7,13.832,M,-29.745,M,0.0,*5F
###2023-12-09 12:31:27.928338$GNRMC,173127.10,A,4138.0394153,N,07032.4264833,W,0.49,95.64,091223,,,A*67
###2023-12-09 12:31:27.931226$GNGGA,173127.10,4138.0394153,N,07032.4264833,W,1,21,0.7,13.831,M,-29.745,M,0.0,*5F
###2023-12-09 12:31:27.933042$GPGSA,A,3,03,04,26,28,29,31,32,,,,,,1.2,0.7,1.0*36
###2023-12-09 12:31:27.934731$GLGSA,A,3,71,72,73,74,75,,,,,,,,1.2,0.7,1.0*2D
###2023-12-09 12:31:27.936340$GAGSA,A,3,04,19,21,27,,,,,,,,,1.2,0.7,1.0*2C
###2023-12-09 12:31:27.937947$GBGSA,A,3,14,25,26,33,,,,,,,,,1.2,0.7,1.0*23
###2023-12-09 12:31:27.940319$GPGSV,2,1,07,03,39,279,43,04,20,310,41,26,65,206,48,28,59,054,46*74
###2023-12-09 12:31:27.942376$GPGSV,2,2,07,29,25,075,41,31,73,356,46,32,31,133,45,,,,*42
###2023-12-09 12:31:27.944749$GLGSV,2,1,05,71,59,168,49,72,64,313,46,73,50,032,46,74,70,284,43*60
###2023-12-09 12:31:27.946229$GLGSV,2,2,05,75,20,239,39,,,,,,,,,,,,*52
###2023-12-09 12:31:27.948620$GAGSV,1,1,04,04,20,311,38,19,80,306,41,21,76,178,46,27,43,050,42*6D
###2023-12-09 12:31:27.951019$GBGSV,1,1,04,14,57,199,45,25,31,251,43,26,36,056,45,33,63,258,48*69
###2023-12-09 12:31:27.952339$GNVTG,95.64,T,,M,0.49,N,0.90,K,A*19
###2023-12-09 12:31:27.954004$GNGST,173127.10,19.000,,,,0.130,0.110,0.260*59
###2023-12-09 12:31:27.955329$GNZDA,173127.10,09,12,2023,00,00*71
###2023-12-09 12:31:27.955990$GNEBP,,,,,,M*13
###2023-12-09 12:31:28.127916$GNGGA,173127.30,4138.0394193,N,07032.4264611,W,1,21,0.7,13.823,M,-29.745,M,0.0,*5C
###2023-12-09 12:31:28.327209$GNGGA,173127.50,4138.0394379,N,07032.4264580,W,1,21,0.7,13.827,M,-29.745,M,0.0,*53
###2023-12-09 12:31:28.526766$GNGGA,173127.70,4138.0394503,N,07032.4264391,W,1,21,0.7,13.833,M,-29.745,M,0.0,*59
###2023-12-09 12:31:28.725398$GNGGA,173127.90,4138.0394482,N,07032.4263970,W,1,21,0.7,13.822,M,-29.745,M,0.0,*5D
###2023-12-09 12:31:28.928863$GNRMC,173128.10,A,4138.0394560,N,07032.4263698,W,0.43,95.64,091223,,,A*6E
###2023-12-09 12:31:28.931940$GNGGA,173128.10,4138.0394560,N,07032.4263698,W,1,21,0.7,13.815,M,-29.745,M,0.0,*5A
###2023-12-09 12:31:28.933921$GPGSA,A,3,03,04,26,28,29,31,32,,,,,,1.2,0.7,1.0*36
###2023-12-09 12:31:28.936037$GLGSA,A,3,71,72,73,74,75,,,,,,,,1.2,0.7,1.0*2D
###2023-12-09 12:31:28.937836$GAGSA,A,3,04,19,21,27,,,,,,,,,1.2,0.7,1.0*2C
###2023-12-09 12:31:28.939605$GBGSA,A,3,14,25,26,33,,,,,,,,,1.2,0.7,1.0*23
###2023-12-09 12:31:28.942114$GPGSV,2,1,07,03,39,279,42,04,20,310,37,26,65,206,48,28,59,054,45*77
###2023-12-09 12:31:28.944356$GPGSV,2,2,07,29,25,075,40,31,73,356,46,32,31,133,46,,,,*40
###2023-12-09 12:31:28.946896$GLGSV,2,1,05,71,59,168,49,72,64,313,45,73,50,032,46,74,70,284,43*63
###2023-12-09 12:31:28.948543$GLGSV,2,2,05,75,20,239,37,,,,,,,,,,,,*5C
###2023-12-09 12:31:28.951018$GAGSV,1,1,04,04,20,311,36,19,80,306,41,21,76,178,47,27,43,050,42*62
###2023-12-09 12:31:28.953477$GBGSV,1,1,04,14,57,199,46,25,31,251,41,26,36,056,45,33,63,258,48*68
