###2023-12-09 13:19:39.989773$GNGGA,181939.10,4138.0897879,N,07032.3186053,W,1,24,0.7,13.268,M,-29.742,M,0.0,*5E
###2023-12-09 13:19:39.991966$GPGSA,A,3,03,04,16,26,28,29,31,,,,,,1.1,0.7,0.9*3B
###2023-12-09 13:19:39.994045$GLGSA,A,3,65,71,72,73,74,75,,,,,,,1.1,0.7,0.9*25
###2023-12-09 13:19:39.996005$GAGSA,A,3,04,19,21,27,,,,,,,,,1.1,0.7,0.9*27
###2023-12-09 13:19:39.998080$GBGSA,A,3,14,24,25,26,33,35,,,,,,,1.1,0.7,0.9*28
###2023-12-09 13:19:40.000897$GPGSV,2,1,07,03,31,253,41,04,40,310,45,16,59,217,45,26,89,196,48*77
###2023-12-09 13:19:40.003389$GPGSV,2,2,07,28,43,079,43,29,23,053,42,31,64,055,46,,,,*42
###2023-12-09 13:19:40.006197$GLGSV,2,1,06,65,32,324,44,71,31,174,43,72,69,237,45,73,28,047,43*61
###2023-12-09 13:19:40.008203$GLGSV,2,2,06,74,65,,43,75,38,262,45,,,,,,,,*5A
###2023-12-09 13:19:40.011014$GAGSV,1,1,04,04,35,311,44,19,78,188,40,21,82,058,45,27,27,049,41*62
###2023-12-09 13:19:40.013807$GBGSV,2,1,06,14,35,191,44,24,68,038,49,25,46,269,46,26,20,067,45*66
###2023-12-09 13:19:40.015925$GBGSV,2,2,06,33,51,223,47,35,16,062,45,,,,,,,,*6D
###2023-12-09 13:19:40.017517$GNVTG,258.20,T,,M,3.54,N,6.55,K,A*2A
###2023-12-09 13:19:40.019503$GNGST,181939.10,18.000,,,,0.098,0.072,0.170*56
###2023-12-09 13:19:40.021052$GNZDA,181939.10,09,12,2023,00,00*7B
###2023-12-09 13:19:40.021817$GNEBP,,,,,,M*13
###2023-12-09 13:19:40.181529$GNGGA,181939.30,4138.0897179,N,07032.3188351,W,1,24,0.7,13.272,M,-29.742,M,0.0,*51
###2023-12-09 13:19:40.380281$GNGGA,181939.50,4138.0895962,N,07032.3189832,W,1,24,0.7,13.243,M,-29.742,M,0.0,*5A
###2023-12-09 13:19:40.579231$GNGGA,181939.70,4138.0894682,N,07032.3190911,W,1,24,0.7,13.199,M,-29.742,M,0.0,*54
###2023-12-09 13:19:40.778982$GNGGA,181939.90,4138.0893707,N,07032.3192897,W,1,24,0.7,13.256,M,-29.742,M,0.0,*5C
###2023-12-09 13:19:40.992532$GNRMC,181940.10,A,4138.0892781,N,07032.3195088,W,3.11,231.05,091223,,,A*50
###2023-12-09 13:19:40.995413$GNGGA,181940.10,4138.0892781,N,07032.3195088,W,1,24,0.7,13.252,M,-29.742,M,0.0,*50
###2023-12-09 13:19:40.997217$GPGSA,A,3,03,04,16,26,28,29,31,,,,,,1.1,0.7,0.9*3B
###2023-12-09 13:19:40.998958$GLGSA,A,3,65,71,72,73,74,75,,,,,,,1.1,0.7,0.9*25
###2023-12-09 13:19:41.000540$GAGSA,A,3,04,19,21,27,,,,,,,,,1.1,0.7,0.9*27
###2023-12-09 13:19:41.002245$GBGSA,A,3,14,24,25,26,33,35,,,,,,,1.1,0.7,0.9*28
###2023-12-09 13:19:41.004586$GPGSV,2,1,07,03,31,253,38,04,40,310,45,16,59,217,44,26,89,196,46*76
###2023-12-09 13:19:41.006650$GPGSV,2,2,07,28,43,079,41,29,23,053,41,31,64,055,44,,,,*41
###2023-12-09 13:19:41.008977$GLGSV,2,1,06,65,32,324,46,71,31,174,43,72,69,237,45,73,28,047,43*63
###2023-12-09 13:19:41.010639$GLGSV,2,2,06,74,65,,43,75,38,262,47,,,,,,,,*58
###2023-12-09 13:19:41.012955$GAGSV,1,1,04,04,35,311,43,19,78,188,38,21,82,058,43,27,27,049,39*63
###2023-12-09 13:19:41.015300$GBGSV,2,1,06,14,35,191,42,24,68,038,48,25,46,269,49,26,20,067,43*68
###2023-12-09 13:19:41.017051$GBGSV,2,2,06,33,51,223,46,35,16,062,44,,,,,,,,*6D
###2023-12-09 13:19:41.018377$GNVTG,231.05,T,,M,3.11,N,5.76,K,A*21
###2023-12-09 13:19:41.020040$GNGST,181940.10,18.000,,,,0.098,0.072,0.170*58
###2023-12-09 13:19:41.021330$GNZDA,181940.10,09,12,2023,00,00*75
###2023-12-09 13:19:41.021970$GNEBP,,,,,,M*13
###2023-12-09 13:19:41.184604$GNGGA,181940.30,4138.0891463,N,07032.3196378,W,1,24,0.7,13.239,M,-29.742,M,0.0,*5C
###2023-12-09 13:19:41.381660$GNGGA,181940.50,4138.0889938,N,07032.3197137,W,1,24,0.7,13.217,M,-29.742,M,0.0,*54
###2023-12-09 13:19:41.580810$GNGGA,181940.70,4138.0888663,N,07032.3198549,W,1,24,0.7,13.224,M,-29.742,M,0.0,*54
###2023-12-09 13:19:41.781000$GNGGA,181940.90,4138.0887640,N,07032.3200582,W,1,24,0.7,13.270,M,-29.742,M,0.0,*50
###2023-12-09 13:19:41.983567$GNRMC,181941.10,A,4138.0886263,N,07032.3202017,W,3.21,204.29,091223,,,A*5D
###2023-12-09 13:19:41.987037$GNGGA,181941.10,4138.0886263,N,07032.3202017,W,1,24,0.7,13.246,M,-29.742,M,0.0,*53
###2023-12-09 13:19:41.989194$GPGSA,A,3,03,04,16,26,28,29,31,,,,,,1.1,0.7,0.9*3B
###2023-12-09 13:19:41.991278$GLGSA,A,3,65,71,72,73,74,75,,,,,,,1.1,0.7,0.9*25
###2023-12-09 13:19:41.993178$GAGSA,A,3,04,19,21,27,,,,,,,,,1.1,0.7,0.9*27
###2023-12-09 13:19:41.995276$GBGSA,A,3,14,24,25,26,33,35,,,,,,,1.1,0.7,0.9*28
###2023-12-09 13:19:41.998080$GPGSV,2,1,07,03,31,253,41,04,40,310,46,16,59,217,44,26,89,196,46*7B
###2023-12-09 13:19:42.000538$GPGSV,2,2,07,28,43,079,41,29,23,053,38,31,64,055,45,,,,*4E
###2023-12-09 13:19:42.003350$GLGSV,2,1,06,65,32,324,45,71,31,174,44,72,69,237,45,73,28,047,44*60
###2023-12-09 13:19:42.005332$GLGSV,2,2,06,74,65,,43,75,38,262,46,,,,,,,,*59
###2023-12-09 13:19:42.008134$GAGSV,1,1,04,04,35,311,45,19,78,188,39,21,82,058,45,27,27,049,40*6C
###2023-12-09 13:19:42.010962$GBGSV,2,1,06,14,35,191,42,24,68,038,48,25,46,269,47,26,20,067,40*65
###2023-12-09 13:19:42.013060$GBGSV,2,2,06,33,51,223,46,35,16,062,42,,,,,,,,*6B
###2023-12-09 13:19:42.014699$GNVTG,204.29,T,,M,3.21,N,5.94,K,A*26
###2023-12-09 13:19:42.016678$GNGST,181941.10,18.000,,,,0.098,0.072,0.170*59
###2023-12-09 13:19:42.018232$GNZDA,181941.10,09,12,2023,00,00*74
###2023-12-09 13:19:42.019026$GNEBP,,,,,,M*13
###2023-12-09 13:19:42.180083$GNGGA,181941.30,4138.0884639,N,07032.3202758,W,1,24,0.7,13.201,M,-29.742,M,0.0,*57
###2023-12-09 13:19:42.379505$GNGGA,181941.50,4138.0883361,N,07032.3204150,W,1,24,0.7,13.234,M,-29.742,M,0.0,*50
###2023-12-09 13:19:42.579984$GNGGA,181941.70,4138.0882428,N,07032.3206311,W,1,24,0.7,13.290,M,-29.742,M,0.0,*52
###2023-12-09 13:19:42.781416$GNGGA,181941.90,4138.0881126,N,07032.3207884,W,1,24,0.7,13.252,M,-29.742,M,0.0,*5C
###2023-12-09 13:19:42.982759$GNRMC,181942.10,A,4138.0879530,N,07032.3208797,W,3.03,208.00,091223,,,A*5D
###2023-12-09 13:19:42.985588$GNGGA,181942.10,4138.0879530,N,07032.3208797,W,1,24,0.7,13.189,M,-29.742,M,0.0,*54
###2023-12-09 13:19:42.987378$GPGSA,A,3,03,04,16,26,28,29,31,,,,,,1.1,0.7,0.9*3B
###2023-12-09 13:19:42.989086$GLGSA,A,3,65,71,72,73,74,75,,,,,,,1.1,0.7,0.9*25
###2023-12-09 13:19:42.990676$GAGSA,A,3,04,19,21,27,,,,,,,,,1.1,0.7,0.9*27
###2023-12-09 13:19:42.992377$GBGSA,A,3,14,24,25,26,33,35,,,,,,,1.1,0.7,0.9*28
###2023-12-09 13:19:42.994712$GPGSV,2,1,07,03,31,253,38,04,40,310,42,16,59,217,45,26,89,196,47*71
###2023-12-09 13:19:42.996755$GPGSV,2,2,07,28,43,079,44,29,23,053,43,31,64,055,46,,,,*44
###2023-12-09 13:19:42.999098$GLGSV,2,1,06,65,32,324,43,71,31,174,45,72,69,237,45,73,28,047,45*66
###2023-12-09 13:19:43.000746$GLGSV,2,2,06,74,65,,43,75,38,262,45,,,,,,,,*5A
###2023-12-09 13:19:43.003085$GAGSV,1,1,04,04,35,311,42,19,78,188,40,21,82,058,46,27,27,049,42*64
###2023-12-09 13:19:43.005413$GBGSV,2,1,06,14,35,191,41,24,68,038,48,25,46,269,44,26,20,067,44*61
###2023-12-09 13:19:43.007168$GBGSV,2,2,06,33,51,223,45,35,16,062,44,,,,,,,,*6E
###2023-12-09 13:19:43.008492$GNVTG,208.00,T,,M,3.03,N,5.62,K,A*28
###2023-12-09 13:19:43.010142$GNGST,181942.10,18.000,,,,0.098,0.072,0.170*5A
###2023-12-09 13:19:43.011449$GNZDA,181942.10,09,12,2023,00,00*77
###2023-12-09 13:19:43.012091$GNEBP,,,,,,M*13
###2023-12-09 13:19:43.179679$GNGGA,181942.30,4138.0878318,N,07032.3210460,W,1,24,0.7,13.230,M,-29.742,M,0.0,*58
###2023-12-09 13:19:43.380088$GNGGA,181942.50,4138.0877457,N,07032.3212850,W,1,24,0.7,13.278,M,-29.742,M,0.0,*5C
###2023-12-09 13:19:43.583752$GNGGA,181942.70,4138.0876089,N,07032.3214550,W,1,24,0.7,13.240,M,-29.742,M,0.0,*58
###2023-12-09 13:19:43.780290$GNGGA,181942.90,4138.0874479,N,07032.3215557,W,1,24,0.7,13.171,M,-29.742,M,0.0,*58
###2023-12-09 13:19:43.984242$GNRMC,181943.10,A,4138.0873203,N,07032.3217442,W,3.83,240.09,091223,,,A*59
###2023-12-09 13:19:43.987096$GNGGA,181943.10,4138.0873203,N,07032.3217442,W,1,24,0.7,13.219,M,-29.742,M,0.0,*57
###2023-12-09 13:19:43.988878$GPGSA,A,3,03,04,16,26,28,29,31,,,,,,1.1,0.7,0.9*3B
###2023-12-09 13:19:43.990589$GLGSA,A,3,65,71,72,73,74,75,,,,,,,1.1,0.7,0.9*25
###2023-12-09 13:19:43.992172$GAGSA,A,3,04,19,21,27,,,,,,,,,1.1,0.7,0.9*27
###2023-12-09 13:19:43.993879$GBGSA,A,3,14,24,25,26,33,35,,,,,,,1.1,0.7,0.9*28
###2023-12-09 13:19:43.996203$GPGSV,2,1,07,03,31,253,39,04,40,310,41,16,59,217,44,26,89,196,47*72
###2023-12-09 13:19:43.998231$GPGSV,2,2,07,28,43,079,44,29,23,053,44,31,64,055,46,,,,*43
###2023-12-09 13:19:44.000794$GLGSV,2,1,06,65,32,324,40,71,31,174,45,72,69,237,44,73,28,047,46*67
###2023-12-09 13:19:44.002452$GLGSV,2,2,06,74,65,,42,75,38,262,44,,,,,,,,*5A
###2023-12-09 13:19:44.004787$GAGSV,1,1,04,04,35,311,40,19,78,188,40,21,82,058,46,27,27,049,43*67
###2023-12-09 13:19:44.007124$GBGSV,2,1,06,14,35,191,41,24,68,038,48,25,46,269,44,26,20,067,45*60
###2023-12-09 13:19:44.008870$GBGSV,2,2,06,33,51,223,44,35,16,062,44,,,,,,,,*6F
###2023-12-09 13:19:44.010191$GNVTG,240.09,T,,M,3.83,N,7.09,K,A*2A
###2023-12-09 13:19:44.011846$GNGST,181943.10,18.000,,,,0.098,0.073,0.170*5A
###2023-12-09 13:19:44.013136$GNZDA,181943.10,09,12,2023,00,00*76
###2023-12-09 13:19:44.013781$GNEBP,,,,,,M*13
