###2023-12-09 12:26:55.931234$GPGSV,2,1,07,03,39,281,42,16,33,206,41,26,62,205,42,28,60,051,43*71
###2023-12-09 12:26:55.933492$GPGSV,2,2,07,29,24,078,40,31,73,348,41,32,33,132,48,,,,*49
###2023-12-09 12:26:55.936048$GLGSV,1,1,04,71,61,167,46,72,62,315,45,73,52,031,48,75,19,238,42*6D
###2023-12-09 12:26:55.937982$GAGSV,1,1,02,21,74,179,42,27,44,051,46,,,,,,,,*60
###2023-12-09 12:26:55.940209$GBGSV,1,1,03,14,59,200,45,25,30,250,39,26,38,056,48,,,,*5B
###2023-12-09 12:26:55.941518$GNVTG,,T,,M,0.00,N,0.00,K,A*3D
###2023-12-09 12:26:55.943357$GNGST,172655.10,30.000,,,,0.230,0.220,0.550*56
###2023-12-09 12:26:55.944822$GNZDA,172655.10,09,12,2023,00,00*72
###2023-12-09 12:26:55.945628$GNEBP,,,,,,M*13
###2023-12-09 12:26:56.117381$GNGGA,172655.30,4138.0379391,N,07032.4356663,W,1,16,0.8,7.826,M,-29.746,M,0.0,*61
###2023-12-09 12:26:56.317588$GNGGA,172655.50,4138.0379372,N,07032.4356662,W,1,16,0.8,7.826,M,-29.746,M,0.0,*6B
###2023-12-09 12:26:56.517767$GNGGA,172655.70,4138.0379364,N,07032.4356654,W,1,17,0.8,7.821,M,-29.746,M,0.0,*6D
###2023-12-09 12:26:56.716995$GNGGA,172655.90,4138.0379356,N,07032.4356638,W,1,17,0.8,7.818,M,-29.746,M,0.0,*62
###2023-12-09 12:26:56.922297$GNRMC,172656.10,A,4138.0379346,N,07032.4356647,W,0.02,,091223,,,A*40
###2023-12-09 12:26:56.925835$GNGGA,172656.10,4138.0379346,N,07032.4356647,W,1,17,0.8,7.819,M,-29.746,M,0.0,*61
###2023-12-09 12:26:56.928083$GPGSA,A,3,03,16,26,28,29,31,32,,,,,,1.5,0.8,1.3*3E
###2023-12-09 12:26:56.930072$GLGSA,A,3,71,72,73,75,,,,,,,,,1.5,0.8,1.3*25
###2023-12-09 12:26:56.931902$GAGSA,A,3,21,27,,,,,,,,,,,1.5,0.8,1.3*2B
###2023-12-09 12:26:56.933871$GBGSA,A,3,14,25,26,33,,,,,,,,,1.5,0.8,1.3*28
###2023-12-09 12:26:56.936749$GPGSV,2,1,07,03,39,281,43,16,33,206,41,26,62,205,41,28,60,051,43*73
###2023-12-09 12:26:56.939287$GPGSV,2,2,07,29,24,078,41,31,73,348,41,32,33,132,47,,,,*47
###2023-12-09 12:26:56.942147$GLGSV,1,1,04,71,61,167,47,72,62,315,45,73,52,031,48,75,19,238,42*6C
###2023-12-09 12:26:56.944320$GAGSV,1,1,02,21,74,179,42,27,44,051,45,,,,,,,,*63
###2023-12-09 12:26:56.947274$GBGSV,1,1,04,14,59,200,46,25,30,250,40,26,38,056,48,33,64,263,35*62
###2023-12-09 12:26:56.948723$GNVTG,,T,,M,0.02,N,0.04,K,A*3B
###2023-12-09 12:26:56.950787$GNGST,172656.10,30.000,,,,0.230,0.220,0.550*55
###2023-12-09 12:26:56.952430$GNZDA,172656.10,09,12,2023,00,00*71
###2023-12-09 12:26:56.953261$GNEBP,,,,,,M*13
###2023-12-09 12:26:57.119180$GNGGA,172656.30,4138.0379330,N,07032.4356624,W,1,17,0.8,7.817,M,-29.746,M,0.0,*69
###2023-12-09 12:26:57.317802$GNGGA,172656.50,4138.0379326,N,07032.4356621,W,1,17,0.8,7.813,M,-29.746,M,0.0,*69
###2023-12-09 12:26:57.517192$GNGGA,172656.70,4138.0379319,N,07032.4356618,W,1,17,0.8,7.810,M,-29.746,M,0.0,*6E
###2023-12-09 12:26:57.716225$GNGGA,172656.90,4138.0379313,N,07032.4356623,W,1,17,0.8,7.807,M,-29.746,M,0.0,*64
###2023-12-09 12:26:57.917388$GNRMC,172657.10,A,4138.0379305,N,07032.4356609,W,0.04,,091223,,,A*4A
###2023-12-09 12:26:57.920284$GNGGA,172657.10,4138.0379305,N,07032.4356609,W,1,17,0.8,7.806,M,-29.746,M,0.0,*63
###2023-12-09 12:26:57.922118$GPGSA,A,3,03,16,26,28,29,31,32,,,,,,1.5,0.8,1.3*3E
###2023-12-09 12:26:57.923754$GLGSA,A,3,71,72,73,75,,,,,,,,,1.5,0.8,1.3*25
###2023-12-09 12:26:57.925245$GAGSA,A,3,21,27,,,,,,,,,,,1.5,0.8,1.3*2B
###2023-12-09 12:26:57.926882$GBGSA,A,3,14,25,26,33,,,,,,,,,1.5,0.8,1.3*28
###2023-12-09 12:26:57.929235$GPGSV,2,1,07,03,39,281,43,16,33,206,42,26,62,205,41,28,60,051,43*70
###2023-12-09 12:26:57.931328$GPGSV,2,2,07,29,24,078,41,31,73,348,42,32,33,132,47,,,,*44
###2023-12-09 12:26:57.933695$GLGSV,1,1,04,71,61,167,47,72,62,315,45,73,52,031,49,75,19,238,42*6D
###2023-12-09 12:26:57.935489$GAGSV,1,1,02,21,74,179,42,27,44,051,46,,,,,,,,*60
###2023-12-09 12:26:57.937845$GBGSV,1,1,04,14,59,200,45,25,30,250,39,26,38,056,48,33,64,263,35*6F
###2023-12-09 12:26:57.939030$GNVTG,,T,,M,0.04,N,0.07,K,A*3E
###2023-12-09 12:26:57.940715$GNGST,172657.10,30.000,,,,0.230,0.220,0.550*54
###2023-12-09 12:26:57.942234$GNZDA,172657.10,09,12,2023,00,00*70
###2023-12-09 12:26:57.942941$GNEBP,,,,,,M*13
###2023-12-09 12:26:58.118283$GNGGA,172657.30,4138.0379297,N,07032.4356610,W,1,17,0.8,7.799,M,-29.746,M,0.0,*6A
###2023-12-09 12:26:58.318593$GNGGA,172657.50,4138.0379283,N,07032.4356588,W,1,17,0.8,7.802,M,-29.746,M,0.0,*66
###2023-12-09 12:26:58.517164$GNGGA,172657.70,4138.0379278,N,07032.4356585,W,1,17,0.8,7.795,M,-29.746,M,0.0,*6C
###2023-12-09 12:26:58.716238$GNGGA,172657.90,4138.0379274,N,07032.4356583,W,1,17,0.8,7.789,M,-29.746,M,0.0,*65
###2023-12-09 12:26:58.919761$GNRMC,172658.10,A,4138.0379266,N,07032.4356578,W,0.02,,091223,,,A*42
###2023-12-09 12:26:58.922881$GNGGA,172658.10,4138.0379266,N,07032.4356578,W,1,17,0.8,7.787,M,-29.746,M,0.0,*6B
###2023-12-09 12:26:58.924888$GPGSA,A,3,03,16,26,28,29,31,32,,,,,,1.5,0.8,1.3*3E
###2023-12-09 12:26:58.926684$GLGSA,A,3,71,72,73,75,,,,,,,,,1.5,0.8,1.3*25
###2023-12-09 12:26:58.928325$GAGSA,A,3,21,27,,,,,,,,,,,1.5,0.8,1.3*2B
###2023-12-09 12:26:58.930081$GBGSA,A,3,14,25,26,33,,,,,,,,,1.5,0.8,1.3*28
###2023-12-09 12:26:58.932608$GPGSV,2,1,07,03,39,281,43,16,33,206,42,26,62,205,41,28,60,051,43*70
###2023-12-09 12:26:58.934895$GPGSV,2,2,07,29,24,078,41,31,73,348,42,32,33,132,48,,,,*4B
###2023-12-09 12:26:58.937462$GLGSV,1,1,04,71,61,167,47,72,62,315,45,73,52,031,49,75,19,238,42*6D
###2023-12-09 12:26:58.939472$GAGSV,1,1,02,21,74,179,42,27,44,051,46,,,,,,,,*60
###2023-12-09 12:26:58.941994$GBGSV,1,1,04,14,59,200,45,25,30,250,38,26,38,056,49,33,64,263,35*6F
###2023-12-09 12:26:58.943341$GNVTG,,T,,M,0.02,N,0.04,K,A*3B
###2023-12-09 12:26:58.945179$GNGST,172658.10,30.000,,,,0.230,0.220,0.550*5B
###2023-12-09 12:26:58.946686$GNZDA,172658.10,09,12,2023,00,00*7F
###2023-12-09 12:26:58.947560$GNEBP,,,,,,M*13
###2023-12-09 12:26:59.118988$GNGGA,172658.30,4138.0379252,N,07032.4356579,W,1,17,0.8,7.780,M,-29.746,M,0.0,*68
###2023-12-09 12:26:59.320688$GNGGA,172658.50,4138.0379251,N,07032.4356555,W,1,17,0.8,7.776,M,-29.746,M,0.0,*6A
###2023-12-09 12:26:59.519239$GNGGA,172658.70,4138.0379247,N,07032.4356549,W,1,17,0.8,7.773,M,-29.746,M,0.0,*67
###2023-12-09 12:26:59.717988$GNGGA,172658.90,4138.0379238,N,07032.4356528,W,1,17,0.8,7.775,M,-29.746,M,0.0,*60
###2023-12-09 12:26:59.920315$GNRMC,172659.10,A,4138.0379227,N,07032.4356513,W,0.02,,091223,,,A*4B
###2023-12-09 12:26:59.923159$GNGGA,172659.10,4138.0379227,N,07032.4356513,W,1,17,0.8,7.777,M,-29.746,M,0.0,*6D
###2023-12-09 12:26:59.924955$GPGSA,A,3,03,16,26,28,29,31,32,,,,,,1.5,0.8,1.3*3E
###2023-12-09 12:26:59.926548$GLGSA,A,3,71,72,73,75,,,,,,,,,1.5,0.8,1.3*25
###2023-12-09 12:26:59.928037$GAGSA,A,3,21,27,,,,,,,,,,,1.5,0.8,1.3*2B
###2023-12-09 12:26:59.929635$GBGSA,A,3,14,25,26,33,,,,,,,,,1.5,0.8,1.3*28
###2023-12-09 12:26:59.931988$GPGSV,2,1,07,03,39,281,43,16,33,206,44,26,62,205,41,28,60,051,43*76
###2023-12-09 12:26:59.934043$GPGSV,2,2,07,29,24,078,41,31,73,348,42,32,33,132,48,,,,*4B
###2023-12-09 12:26:59.936404$GLGSV,1,1,04,71,61,167,47,72,62,315,45,73,52,031,49,75,19,238,42*6D
###2023-12-09 12:26:59.938172$GAGSV,1,1,02,21,74,179,42,27,44,051,46,,,,,,,,*60
###2023-12-09 12:26:59.940540$GBGSV,1,1,04,14,59,200,46,25,30,250,38,26,38,056,49,33,64,263,35*6C
###2023-12-09 12:26:59.941692$GNVTG,,T,,M,0.02,N,0.04,K,A*3B
###2023-12-09 12:26:59.943374$GNGST,172659.10,30.000,,,,0.230,0.220,0.550*5A
###2023-12-09 12:26:59.944679$GNZDA,172659.10,09,12,2023,00,00*7E
###2023-12-09 12:26:59.945334$GNEBP,,,,,,M*13
###2023-12-09 12:27:00.120551$GNGGA,172659.30,4138.0379221,N,07032.4356503,W,1,17,0.8,7.772,M,-29.746,M,0.0,*6D
###2023-12-09 12:27:00.320078$GNGGA,172659.50,4138.0379212,N,07032.4356498,W,1,17,0.8,7.772,M,-29.746,M,0.0,*68
###2023-12-09 12:27:00.520786$GNGGA,172659.70,4138.0379208,N,07032.4356488,W,1,17,0.8,7.768,M,-29.746,M,0.0,*6B
###2023-12-09 12:27:00.718701$GNGGA,172659.90,4138.0379193,N,07032.4356478,W,1,17,0.8,7.770,M,-29.746,M,0.0,*62
###2023-12-09 12:27:00.923021$GNRMC,172700.10,A,4138.0379178,N,07032.4356474,W,0.02,,091223,,,A*4F
###2023-12-09 12:27:00.925913$GNGGA,172700.10,4138.0379178,N,07032.4356474,W,1,17,0.8,7.766,M,-29.746,M,0.0,*69
###2023-12-09 12:27:00.927769$GPGSA,A,3,03,16,26,28,29,31,32,,,,,,1.5,0.8,1.3*3E
###2023-12-09 12:27:00.929662$GLGSA,A,3,71,72,73,75,,,,,,,,,1.5,0.8,1.3*25
###2023-12-09 12:27:00.931175$GAGSA,A,3,21,27,,,,,,,,,,,1.5,0.8,1.3*2B
###2023-12-09 12:27:00.932795$GBGSA,A,3,14,25,26,33,,,,,,,,,1.5,0.8,1.3*28
###2023-12-09 12:27:00.935174$GPGSV,2,1,07,03,39,281,42,16,33,206,43,26,62,205,41,28,60,051,43*70
###2023-12-09 12:27:00.937241$GPGSV,2,2,07,29,24,078,40,31,73,348,41,32,33,132,47,,,,*46
###2023-12-09 12:27:00.939618$GLGSV,1,1,04,71,61,167,47,72,62,315,45,73,52,031,49,75,19,238,43*6C
###2023-12-09 12:27:00.941414$GAGSV,1,1,02,21,74,179,42,27,44,051,46,,,,,,,,*60
###2023-12-09 12:27:00.943792$GBGSV,1,1,04,14,59,200,46,25,30,250,39,26,38,056,48,33,64,263,35*6C
