###2023-12-09 13:34:25.029654$GNEBP,,,,,,M*13
###2023-12-09 13:34:25.196343$GNGGA,183424.30,4138.0543243,N,07032.4008722,W,1,26,0.6,13.276,M,-29.745,M,0.0,*52
###2023-12-09 13:34:25.394812$GNGGA,183424.50,4138.0544242,N,07032.4006908,W,1,26,0.6,13.269,M,-29.745,M,0.0,*54
###2023-12-09 13:34:25.594235$GNGGA,183424.70,4138.0544879,N,07032.4005111,W,1,26,0.6,13.224,M,-29.745,M,0.0,*5E
###2023-12-09 13:34:25.794667$GNGGA,183424.90,4138.0545451,N,07032.4003413,W,1,26,0.6,13.246,M,-29.745,M,0.0,*52
###2023-12-09 13:34:25.997801$GNRMC,183425.10,A,4138.0546233,N,07032.4001516,W,3.05,66.39,091223,,,A*67
###2023-12-09 13:34:26.000681$GNGGA,183425.10,4138.0546233,N,07032.4001516,W,1,26,0.6,13.268,M,-29.745,M,0.0,*50
###2023-12-09 13:34:26.002543$GPGSA,A,3,03,04,16,26,27,28,29,31,,,,,1.0,0.6,0.8*3F
###2023-12-09 13:34:26.004268$GLGSA,A,3,65,71,72,73,74,75,,,,,,,1.0,0.6,0.8*24
###2023-12-09 13:34:26.005851$GAGSA,A,3,04,19,21,27,,,,,,,,,1.0,0.6,0.8*26
###2023-12-09 13:34:26.007630$GBGSA,A,3,12,14,24,25,26,33,35,,,,,,1.0,0.6,0.8*2A
###2023-12-09 13:34:26.009945$GPGSV,2,1,08,03,27,247,41,04,46,308,44,16,66,222,46,26,84,040,47*75
###2023-12-09 13:34:26.012272$GPGSV,2,2,08,27,16,172,39,28,38,084,41,29,21,047,39,31,59,066,45*7B
###2023-12-09 13:34:26.014606$GLGSV,2,1,06,65,38,319,44,71,23,175,41,72,63,222,46,73,23,052,39*6A
###2023-12-09 13:34:26.016346$GLGSV,2,2,06,74,60,013,42,75,43,271,47,,,,,,,,*60
###2023-12-09 13:34:26.018668$GAGSV,1,1,04,04,40,310,44,19,72,181,42,21,77,046,46,27,22,050,39*64
###2023-12-09 13:34:26.020989$GBGSV,2,1,07,12,15,126,39,14,29,190,42,24,63,045,47,25,50,275,47*67
###2023-12-09 13:34:26.023031$GBGSV,2,2,07,26,16,070,41,33,46,217,46,35,16,057,42,,,,*5C
###2023-12-09 13:34:26.024318$GNVTG,66.39,T,,M,3.05,N,5.65,K,A*19
###2023-12-09 13:34:26.025931$GNGST,183425.10,5.700,,,,0.091,0.068,0.160*6C
###2023-12-09 13:34:26.027234$GNZDA,183425.10,09,12,2023,00,00*79
###2023-12-09 13:34:26.027873$GNEBP,,,,,,M*13
###2023-12-09 13:34:26.193948$GNGGA,183425.30,4138.0546685,N,07032.3999545,W,1,26,0.6,13.236,M,-29.745,M,0.0,*59
###2023-12-09 13:34:26.394308$GNGGA,183425.50,4138.0546906,N,07032.3997709,W,1,26,0.6,13.235,M,-29.745,M,0.0,*5C
###2023-12-09 13:34:26.594460$GNGGA,183425.70,4138.0547358,N,07032.3995757,W,1,26,0.6,13.264,M,-29.745,M,0.0,*53
###2023-12-09 13:34:26.794670$GNGGA,183425.90,4138.0547760,N,07032.3993701,W,1,26,0.6,13.237,M,-29.745,M,0.0,*51
###2023-12-09 13:34:27.000410$GNRMC,183426.10,A,4138.0547861,N,07032.3991806,W,2.53,89.68,091223,,,A*64
###2023-12-09 13:34:27.003295$GNGGA,183426.10,4138.0547861,N,07032.3991806,W,1,27,0.6,13.230,M,-29.744,M,0.0,*59
###2023-12-09 13:34:27.005151$GPGSA,A,3,03,04,16,26,27,28,29,31,,,,,1.0,0.6,0.8*3F
###2023-12-09 13:34:27.006940$GLGSA,A,3,65,71,72,73,74,75,83,,,,,,1.0,0.6,0.8*2F
###2023-12-09 13:34:27.008521$GAGSA,A,3,04,19,21,27,,,,,,,,,1.0,0.6,0.8*26
###2023-12-09 13:34:27.010292$GBGSA,A,3,12,14,24,25,26,33,35,,,,,,1.0,0.6,0.8*2A
###2023-12-09 13:34:27.012629$GPGSV,2,1,08,03,27,247,38,04,46,308,44,16,66,222,46,26,84,040,47*7B
###2023-12-09 13:34:27.014966$GPGSV,2,2,08,27,16,172,40,28,38,084,42,29,21,047,43,31,59,066,46*78
###2023-12-09 13:34:27.017292$GLGSV,2,1,07,65,38,319,44,71,23,175,43,72,63,222,46,73,23,052,44*63
###2023-12-09 13:34:27.019336$GLGSV,2,2,07,74,60,013,43,75,43,271,49,83,15,048,36,,,,*58
###2023-12-09 13:34:27.021659$GAGSV,1,1,04,04,40,310,42,19,72,181,41,21,77,046,45,27,22,050,41*6D
###2023-12-09 13:34:27.023996$GBGSV,2,1,07,12,15,126,38,14,29,190,40,24,63,045,47,25,50,275,45*66
###2023-12-09 13:34:27.026039$GBGSV,2,2,07,26,16,070,42,33,46,217,47,35,16,057,43,,,,*5F
###2023-12-09 13:34:27.027339$GNVTG,89.68,T,,M,2.53,N,4.68,K,A*12
###2023-12-09 13:34:27.028951$GNGST,183426.10,5.800,,,,0.090,0.069,0.160*60
###2023-12-09 13:34:27.030244$GNZDA,183426.10,09,12,2023,00,00*7A
###2023-12-09 13:34:27.030893$GNEBP,,,,,,M*13
###2023-12-09 13:34:27.199268$GNGGA,183426.30,4138.0547843,N,07032.3989796,W,1,27,0.6,13.257,M,-29.744,M,0.0,*55
###2023-12-09 13:34:27.394115$GNGGA,183426.50,4138.0547746,N,07032.3987740,W,1,27,0.6,13.242,M,-29.744,M,0.0,*58
###2023-12-09 13:34:27.594273$GNGGA,183426.70,4138.0547578,N,07032.3985824,W,1,27,0.6,13.231,M,-29.744,M,0.0,*5E
###2023-12-09 13:34:27.796201$GNGGA,183426.90,4138.0547425,N,07032.3983859,W,1,27,0.6,13.248,M,-29.744,M,0.0,*5B
###2023-12-09 13:34:28.001034$GNRMC,183427.10,A,4138.0547074,N,07032.3981833,W,2.68,106.08,091223,,,A*56
###2023-12-09 13:34:28.003911$GNGGA,183427.10,4138.0547074,N,07032.3981833,W,1,27,0.6,13.228,M,-29.744,M,0.0,*5A
###2023-12-09 13:34:28.005771$GPGSA,A,3,03,04,16,26,27,28,29,31,,,,,1.0,0.6,0.8*3F
###2023-12-09 13:34:28.007561$GLGSA,A,3,65,71,72,73,74,75,83,,,,,,1.0,0.6,0.8*2F
###2023-12-09 13:34:28.009141$GAGSA,A,3,04,19,21,27,,,,,,,,,1.0,0.6,0.8*26
###2023-12-09 13:34:28.010924$GBGSA,A,3,12,14,24,25,26,33,35,,,,,,1.0,0.6,0.8*2A
###2023-12-09 13:34:28.013246$GPGSV,2,1,08,03,27,247,41,04,46,308,45,16,66,222,46,26,84,040,48*7B
###2023-12-09 13:34:28.015586$GPGSV,2,2,08,27,16,172,40,28,38,084,43,29,21,047,44,31,59,066,46*7E
###2023-12-09 13:34:28.017911$GLGSV,2,1,07,65,38,319,42,71,23,175,41,72,63,222,45,73,23,052,45*65
###2023-12-09 13:34:28.019960$GLGSV,2,2,07,74,60,013,42,75,43,271,47,83,15,048,35,,,,*54
###2023-12-09 13:34:28.022293$GAGSV,1,1,04,04,40,310,43,19,72,181,41,21,77,046,46,27,22,050,41*6F
###2023-12-09 13:34:28.024635$GBGSV,2,1,07,12,15,126,38,14,29,190,39,24,63,045,47,25,50,275,45*68
###2023-12-09 13:34:28.026678$GBGSV,2,2,07,26,16,070,42,33,46,217,47,35,16,057,44,,,,*58
###2023-12-09 13:34:28.028003$GNVTG,106.08,T,,M,2.68,N,4.97,K,A*2A
###2023-12-09 13:34:28.029613$GNGST,183427.10,5.400,,,,0.090,0.069,0.150*6E
###2023-12-09 13:34:28.030914$GNZDA,183427.10,09,12,2023,00,00*7B
###2023-12-09 13:34:28.031556$GNEBP,,,,,,M*13
###2023-12-09 13:34:28.196133$GNGGA,183427.30,4138.0546581,N,07032.3980118,W,1,27,0.6,13.216,M,-29.744,M,0.0,*5A
###2023-12-09 13:34:28.396035$GNGGA,183427.50,4138.0546002,N,07032.3978447,W,1,27,0.6,13.240,M,-29.744,M,0.0,*59
###2023-12-09 13:34:28.595920$GNGGA,183427.70,4138.0545330,N,07032.3976700,W,1,27,0.6,13.218,M,-29.744,M,0.0,*59
###2023-12-09 13:34:28.796078$GNGGA,183427.90,4138.0544736,N,07032.3975087,W,1,27,0.6,13.200,M,-29.744,M,0.0,*56
###2023-12-09 13:34:28.999843$GNRMC,183428.10,A,4138.0543953,N,07032.3973661,W,2.53,130.32,091223,,,A*51
###2023-12-09 13:34:29.002712$GNGGA,183428.10,4138.0543953,N,07032.3973661,W,1,27,0.6,13.212,M,-29.744,M,0.0,*50
###2023-12-09 13:34:29.004565$GPGSA,A,3,03,04,16,26,27,28,29,31,,,,,1.0,0.6,0.8*3F
###2023-12-09 13:34:29.006335$GLGSA,A,3,65,71,72,73,74,75,83,,,,,,1.0,0.6,0.8*2F
###2023-12-09 13:34:29.007924$GAGSA,A,3,04,19,21,27,,,,,,,,,1.0,0.6,0.8*26
###2023-12-09 13:34:29.009692$GBGSA,A,3,12,14,24,25,26,33,35,,,,,,1.0,0.6,0.8*2A
###2023-12-09 13:34:29.012022$GPGSV,2,1,08,03,27,247,42,04,46,308,44,16,66,222,46,26,84,040,47*76
###2023-12-09 13:34:29.014340$GPGSV,2,2,08,27,16,172,40,28,38,084,44,29,21,047,44,31,59,066,46*79
###2023-12-09 13:34:29.016675$GLGSV,2,1,07,65,38,319,44,71,23,175,41,72,63,222,45,73,23,052,46*60
###2023-12-09 13:34:29.018743$GLGSV,2,2,07,74,60,013,43,75,43,271,46,83,15,048,36,,,,*57
###2023-12-09 13:34:29.021066$GAGSV,1,1,04,04,40,310,45,19,72,181,40,21,77,046,46,27,22,050,43*6A
###2023-12-09 13:34:29.023391$GBGSV,2,1,07,12,15,126,40,14,29,190,41,24,62,046,49,25,50,275,46*67
###2023-12-09 13:34:29.025415$GBGSV,2,2,07,26,16,070,44,33,46,217,47,35,16,057,45,,,,*5F
###2023-12-09 13:34:29.026742$GNVTG,130.32,T,,M,2.53,N,4.68,K,A*2E
###2023-12-09 13:34:29.028342$GNGST,183428.10,5.200,,,,0.089,0.068,0.150*6E
###2023-12-09 13:34:29.029621$GNZDA,183428.10,09,12,2023,00,00*74
###2023-12-09 13:34:29.030256$GNEBP,,,,,,M*13
###2023-12-09 13:34:29.196992$GNGGA,183428.30,4138.0543024,N,07032.3972215,W,1,27,0.6,13.202,M,-29.744,M,0.0,*5C
###2023-12-09 13:34:29.395090$GNGGA,183428.50,4138.0542112,N,07032.3971033,W,1,27,0.6,13.188,M,-29.744,M,0.0,*5B
###2023-12-09 13:34:29.595217$GNGGA,183428.70,4138.0541169,N,07032.3969856,W,1,27,0.6,13.203,M,-29.744,M,0.0,*54
###2023-12-09 13:34:29.796252$GNGGA,183428.90,4138.0540140,N,07032.3968751,W,1,27,0.6,13.199,M,-29.744,M,0.0,*59
###2023-12-09 13:34:29.999929$GNRMC,183429.10,A,4138.0539097,N,07032.3967769,W,2.20,144.43,091223,,,A*51
###2023-12-09 13:34:30.002814$GNGGA,183429.10,4138.0539097,N,07032.3967769,W,1,27,0.6,13.180,M,-29.744,M,0.0,*59
###2023-12-09 13:34:30.004691$GPGSA,A,3,03,04,16,26,27,28,29,31,,,,,1.0,0.6,0.8*3F
###2023-12-09 13:34:30.006478$GLGSA,A,3,65,71,72,73,74,75,83,,,,,,1.0,0.6,0.8*2F
###2023-12-09 13:34:30.008077$GAGSA,A,3,04,19,21,27,,,,,,,,,1.0,0.6,0.8*26
###2023-12-09 13:34:30.009849$GBGSA,A,3,12,14,24,25,26,33,35,,,,,,1.0,0.6,0.8*2A
###2023-12-09 13:34:30.012183$GPGSV,2,1,08,03,27,247,40,04,46,308,44,16,66,222,45,26,84,040,48*78
###2023-12-09 13:34:30.014512$GPGSV,2,2,08,27,16,172,38,28,38,084,44,29,21,047,43,31,59,066,47*70
###2023-12-09 13:34:30.016849$GLGSV,2,1,07,65,38,319,44,71,23,175,42,72,63,222,45,73,23,052,44*61
###2023-12-09 13:34:30.018929$GLGSV,2,2,07,74,60,013,43,75,43,271,48,83,15,048,35,,,,*5A
###2023-12-09 13:34:30.021272$GAGSV,1,1,04,04,40,310,43,19,72,181,40,21,77,046,46,27,22,050,42*6D
