###2023-12-09 13:23:18.997252$GPGSA,A,3,03,04,16,26,28,29,31,,,,,,1.1,0.7,0.9*3B
###2023-12-09 13:23:18.999012$GLGSA,A,3,65,71,72,73,74,75,,,,,,,1.1,0.7,0.9*25
###2023-12-09 13:23:19.000597$GAGSA,A,3,04,19,21,27,,,,,,,,,1.1,0.7,0.9*27
###2023-12-09 13:23:19.002306$GBGSA,A,3,14,24,25,26,33,35,,,,,,,1.1,0.7,0.9*28
###2023-12-09 13:23:19.004697$GPGSV,2,1,07,03,30,251,44,04,42,310,43,16,61,218,46,26,90,099,48*74
###2023-12-09 13:23:19.006756$GPGSV,2,2,07,28,42,080,44,29,23,052,42,31,63,057,46,,,,*46
###2023-12-09 13:23:19.009081$GLGSV,2,1,06,65,34,323,39,71,29,175,45,72,68,232,46,73,27,049,42*63
###2023-12-09 13:23:19.010844$GLGSV,2,2,06,74,63,004,42,75,40,265,45,,,,,,,,*61
###2023-12-09 13:23:19.013161$GAGSV,1,1,04,04,36,311,41,19,77,186,40,21,81,054,46,27,26,049,40*69
###2023-12-09 13:23:19.015496$GBGSV,2,1,06,14,34,191,41,24,66,040,47,25,47,271,47,26,19,068,40*64
###2023-12-09 13:23:19.017233$GBGSV,2,2,06,33,50,221,47,35,16,061,41,,,,,,,,*69
###2023-12-09 13:23:19.018552$GNVTG,337.55,T,,M,2.49,N,4.61,K,A*28
###2023-12-09 13:23:19.020208$GNGST,182318.10,18.000,,,,0.100,0.071,0.170*5F
###2023-12-09 13:23:19.021499$GNZDA,182318.10,09,12,2023,00,00*71
###2023-12-09 13:23:19.022136$GNEBP,,,,,,M*13
###2023-12-09 13:23:19.187654$GNGGA,182318.30,4138.0293688,N,07032.3694391,W,1,24,0.7,12.911,M,-29.745,M,0.0,*52
###2023-12-09 13:23:19.387916$GNGGA,182318.50,4138.0294977,N,07032.3695079,W,1,24,0.7,12.915,M,-29.745,M,0.0,*5C
###2023-12-09 13:23:19.587794$GNGGA,182318.70,4138.0296246,N,07032.3695882,W,1,24,0.7,12.916,M,-29.745,M,0.0,*5A
###2023-12-09 13:23:19.787756$GNGGA,182318.90,4138.0297522,N,07032.3696707,W,1,24,0.7,12.913,M,-29.745,M,0.0,*54
###2023-12-09 13:23:19.994546$GNRMC,182319.10,A,4138.0298780,N,07032.3697527,W,2.55,332.57,091223,,,A*55
###2023-12-09 13:23:19.997454$GNGGA,182319.10,4138.0298780,N,07032.3697527,W,1,24,0.7,12.915,M,-29.745,M,0.0,*5F
###2023-12-09 13:23:19.999270$GPGSA,A,3,03,04,16,26,28,29,31,,,,,,1.1,0.7,0.9*3B
###2023-12-09 13:23:20.000986$GLGSA,A,3,65,71,72,73,74,75,,,,,,,1.1,0.7,0.9*25
###2023-12-09 13:23:20.002574$GAGSA,A,3,04,19,21,27,,,,,,,,,1.1,0.7,0.9*27
###2023-12-09 13:23:20.004294$GBGSA,A,3,14,24,25,26,33,35,,,,,,,1.1,0.7,0.9*28
###2023-12-09 13:23:20.006637$GPGSV,2,1,07,03,30,251,44,04,42,310,41,16,61,218,46,26,90,099,48*76
###2023-12-09 13:23:20.008679$GPGSV,2,2,07,28,42,080,45,29,23,052,43,31,63,057,47,,,,*47
###2023-12-09 13:23:20.011021$GLGSV,2,1,06,65,34,323,41,71,29,175,43,72,68,232,46,73,27,049,43*6B
###2023-12-09 13:23:20.012769$GLGSV,2,2,06,74,63,004,42,75,40,265,47,,,,,,,,*63
###2023-12-09 13:23:20.015109$GAGSV,1,1,04,04,36,311,41,19,77,186,41,21,81,054,46,27,26,049,41*69
###2023-12-09 13:23:20.017436$GBGSV,2,1,06,14,34,191,41,24,66,040,48,25,47,271,48,26,19,068,42*66
###2023-12-09 13:23:20.019193$GBGSV,2,2,06,33,50,221,48,35,16,061,41,,,,,,,,*66
###2023-12-09 13:23:20.020519$GNVTG,332.57,T,,M,2.55,N,4.72,K,A*20
###2023-12-09 13:23:20.022165$GNGST,182319.10,18.000,,,,0.100,0.071,0.170*5E
###2023-12-09 13:23:20.023471$GNZDA,182319.10,09,12,2023,00,00*70
###2023-12-09 13:23:20.024112$GNEBP,,,,,,M*13
###2023-12-09 13:23:20.188608$GNGGA,182319.30,4138.0300053,N,07032.3698423,W,1,24,0.7,12.925,M,-29.745,M,0.0,*5D
###2023-12-09 13:23:20.386895$GNGGA,182319.50,4138.0301331,N,07032.3699360,W,1,24,0.7,12.925,M,-29.745,M,0.0,*5C
###2023-12-09 13:23:20.590106$GNGGA,182319.70,4138.0302581,N,07032.3700421,W,1,24,0.7,12.928,M,-29.745,M,0.0,*5E
###2023-12-09 13:23:20.788912$GNGGA,182319.90,4138.0303787,N,07032.3701577,W,1,24,0.7,12.934,M,-29.745,M,0.0,*5B
###2023-12-09 13:23:21.001972$GNRMC,182320.10,A,4138.0305007,N,07032.3702788,W,2.78,322.88,091223,,,A*54
###2023-12-09 13:23:21.004871$GNGGA,182320.10,4138.0305007,N,07032.3702788,W,1,24,0.7,12.942,M,-29.745,M,0.0,*50
###2023-12-09 13:23:21.006682$GPGSA,A,3,03,04,16,26,28,29,31,,,,,,1.1,0.7,0.9*3B
###2023-12-09 13:23:21.008402$GLGSA,A,3,65,71,72,73,74,75,,,,,,,1.1,0.7,0.9*25
###2023-12-09 13:23:21.009987$GAGSA,A,3,04,19,21,27,,,,,,,,,1.1,0.7,0.9*27
###2023-12-09 13:23:21.011705$GBGSA,A,3,14,24,25,26,33,35,,,,,,,1.1,0.7,0.9*28
###2023-12-09 13:23:21.014027$GPGSV,2,1,07,03,30,251,43,04,42,310,41,16,61,218,46,26,90,099,48*71
###2023-12-09 13:23:21.016074$GPGSV,2,2,07,28,42,080,45,29,23,052,43,31,63,057,47,,,,*47
###2023-12-09 13:23:21.018399$GLGSV,2,1,06,65,34,323,41,71,29,175,43,72,68,232,46,73,27,049,44*6C
###2023-12-09 13:23:21.020158$GLGSV,2,2,06,74,63,004,42,75,40,265,46,,,,,,,,*62
###2023-12-09 13:23:21.022487$GAGSV,1,1,04,04,36,311,42,19,77,186,41,21,81,054,46,27,26,049,41*6A
###2023-12-09 13:23:21.024824$GBGSV,2,1,06,14,34,191,42,24,66,040,48,25,47,271,46,26,19,068,42*6B
###2023-12-09 13:23:21.026583$GBGSV,2,2,06,33,50,221,47,35,16,061,42,,,,,,,,*6A
###2023-12-09 13:23:21.027908$GNVTG,322.88,T,,M,2.78,N,5.15,K,A*2C
###2023-12-09 13:23:21.029553$GNGST,182320.10,18.000,,,,0.100,0.071,0.170*54
###2023-12-09 13:23:21.030858$GNZDA,182320.10,09,12,2023,00,00*7A
###2023-12-09 13:23:21.031494$GNEBP,,,,,,M*13
###2023-12-09 13:23:21.190395$GNGGA,182320.30,4138.0306202,N,07032.3704073,W,1,24,0.7,12.947,M,-29.745,M,0.0,*56
###2023-12-09 13:23:21.387663$GNGGA,182320.50,4138.0307351,N,07032.3705507,W,1,24,0.7,12.952,M,-29.745,M,0.0,*55
###2023-12-09 13:23:21.588410$GNGGA,182320.70,4138.0308447,N,07032.3707057,W,1,24,0.7,12.955,M,-29.745,M,0.0,*5D
###2023-12-09 13:23:21.789821$GNGGA,182320.90,4138.0309513,N,07032.3708680,W,1,24,0.7,12.963,M,-29.745,M,0.0,*54
###2023-12-09 13:23:21.996753$GNRMC,182321.10,A,4138.0310589,N,07032.3710385,W,3.03,309.67,091223,,,A*5D
###2023-12-09 13:23:21.999629$GNGGA,182321.10,4138.0310589,N,07032.3710385,W,1,24,0.7,12.970,M,-29.745,M,0.0,*5D
###2023-12-09 13:23:22.001418$GPGSA,A,3,03,04,16,26,28,29,31,,,,,,1.1,0.7,0.9*3B
###2023-12-09 13:23:22.003145$GLGSA,A,3,65,71,72,73,74,75,,,,,,,1.1,0.7,0.9*25
###2023-12-09 13:23:22.004729$GAGSA,A,3,04,19,21,27,,,,,,,,,1.1,0.7,0.9*27
###2023-12-09 13:23:22.006439$GBGSA,A,3,14,24,25,26,33,35,,,,,,,1.1,0.7,0.9*28
###2023-12-09 13:23:22.008781$GPGSV,2,1,07,03,30,251,43,04,42,310,41,16,61,218,47,26,90,099,48*70
###2023-12-09 13:23:22.010832$GPGSV,2,2,07,28,42,080,44,29,23,052,42,31,63,057,47,,,,*47
###2023-12-09 13:23:22.013155$GLGSV,2,1,06,65,34,323,41,71,29,175,43,72,68,232,45,73,27,049,44*6F
###2023-12-09 13:23:22.014911$GLGSV,2,2,06,74,63,004,42,75,40,265,47,,,,,,,,*63
###2023-12-09 13:23:22.017229$GAGSV,1,1,04,04,36,311,42,19,77,186,41,21,81,054,46,27,26,049,42*69
###2023-12-09 13:23:22.019556$GBGSV,2,1,06,14,34,191,45,24,66,040,49,25,47,271,47,26,19,068,43*6D
###2023-12-09 13:23:22.021296$GBGSV,2,2,06,33,50,221,48,35,16,061,42,,,,,,,,*65
###2023-12-09 13:23:22.022624$GNVTG,309.67,T,,M,3.03,N,5.62,K,A*29
###2023-12-09 13:23:22.024263$GNGST,182321.10,18.000,,,,0.100,0.071,0.170*55
###2023-12-09 13:23:22.025545$GNZDA,182321.10,09,12,2023,00,00*7B
###2023-12-09 13:23:22.026178$GNEBP,,,,,,M*13
###2023-12-09 13:23:22.188359$GNGGA,182321.30,4138.0311646,N,07032.3712162,W,1,24,0.7,12.968,M,-29.745,M,0.0,*5E
###2023-12-09 13:23:22.388700$GNGGA,182321.50,4138.0312627,N,07032.3713981,W,1,24,0.7,12.970,M,-29.745,M,0.0,*51
###2023-12-09 13:23:22.588292$GNGGA,182321.70,4138.0313526,N,07032.3715858,W,1,24,0.7,12.971,M,-29.745,M,0.0,*52
###2023-12-09 13:23:22.789082$GNGGA,182321.90,4138.0314404,N,07032.3717762,W,1,24,0.7,12.967,M,-29.745,M,0.0,*59
###2023-12-09 13:23:22.992831$GNRMC,182322.10,A,4138.0315218,N,07032.3719683,W,2.99,298.90,091223,,,A*5D
###2023-12-09 13:23:22.995700$GNGGA,182322.10,4138.0315218,N,07032.3719683,W,1,24,0.7,12.970,M,-29.745,M,0.0,*5E
###2023-12-09 13:23:22.997488$GPGSA,A,3,03,04,16,26,28,29,31,,,,,,1.1,0.7,0.9*3B
###2023-12-09 13:23:22.999221$GLGSA,A,3,65,71,72,73,74,75,,,,,,,1.1,0.7,0.9*25
###2023-12-09 13:23:23.000828$GAGSA,A,3,04,19,21,27,,,,,,,,,1.1,0.7,0.9*27
###2023-12-09 13:23:23.002552$GBGSA,A,3,14,24,25,26,33,35,,,,,,,1.1,0.7,0.9*28
###2023-12-09 13:23:23.004897$GPGSV,2,1,07,03,30,251,42,04,42,310,41,16,61,218,46,26,90,099,48*70
###2023-12-09 13:23:23.006943$GPGSV,2,2,07,28,42,080,45,29,23,052,41,31,63,057,48,,,,*4A
###2023-12-09 13:23:23.009277$GLGSV,2,1,06,65,34,323,41,71,29,175,43,72,68,232,46,73,27,049,42*6A
###2023-12-09 13:23:23.011279$GLGSV,2,2,06,74,63,004,42,75,40,265,45,,,,,,,,*61
###2023-12-09 13:23:23.013607$GAGSV,1,1,04,04,36,311,42,19,77,186,41,21,81,054,46,27,26,049,40*6B
###2023-12-09 13:23:23.015945$GBGSV,2,1,06,14,34,191,44,24,66,040,48,25,47,271,45,26,19,068,42*6E
###2023-12-09 13:23:23.017685$GBGSV,2,2,06,33,50,221,46,35,16,061,41,,,,,,,,*68
###2023-12-09 13:23:23.019015$GNVTG,298.90,T,,M,2.99,N,5.54,K,A*2F
###2023-12-09 13:23:23.020660$GNGST,182322.10,18.000,,,,0.100,0.071,0.170*56
###2023-12-09 13:23:23.021947$GNZDA,182322.10,09,12,2023,00,00*78
###2023-12-09 13:23:23.022596$GNEBP,,,,,,M*13
###2023-12-09 13:23:23.187702$GNGGA,182322.30,4138.0315992,N,07032.3721626,W,1,24,0.7,12.973,M,-29.745,M,0.0,*52
