###2023-12-09 12:36:52.954761$GLGSV,2,1,05,71,56,169,48,72,66,308,47,73,47,034,45,74,71,293,43*62
###2023-12-09 12:36:52.956243$GLGSV,2,2,05,75,22,241,44,,,,,,,,,,,,*55
###2023-12-09 12:36:52.958590$GAGSV,1,1,04,04,21,311,41,19,82,299,40,21,78,175,46,27,41,049,41*6C
###2023-12-09 12:36:52.960928$GBGSV,2,1,05,14,55,197,44,24,80,348,47,25,33,253,43,26,35,057,43*66
###2023-12-09 12:36:52.962378$GBGSV,2,2,05,33,63,253,46,,,,,,,,,,,,*5D
###2023-12-09 12:36:52.963681$GNVTG,64.67,T,,M,3.40,N,6.30,K,A*12
###2023-12-09 12:36:52.965323$GNGST,173652.10,19.000,,,,0.080,0.070,0.160*52
###2023-12-09 12:36:52.966630$GNZDA,173652.10,09,12,2023,00,00*74
###2023-12-09 12:36:52.967270$GNEBP,,,,,,M*13
###2023-12-09 12:36:53.136544$GNGGA,173652.30,4138.0492355,N,07032.3559280,W,1,23,0.7,13.195,M,-29.744,M,0.0,*55
###2023-12-09 12:36:53.337577$GNGGA,173652.50,4138.0493478,N,07032.3557376,W,1,23,0.7,13.208,M,-29.744,M,0.0,*5B
###2023-12-09 12:36:53.545162$GNGGA,173652.70,4138.0494493,N,07032.3555345,W,1,23,0.7,13.219,M,-29.744,M,0.0,*59
###2023-12-09 12:36:53.738984$GNGGA,173652.90,4138.0495467,N,07032.3553200,W,1,23,0.7,13.199,M,-29.744,M,0.0,*50
###2023-12-09 12:36:53.939995$GNRMC,173653.10,A,4138.0496675,N,07032.3551399,W,3.19,45.23,091223,,,A*60
###2023-12-09 12:36:53.942864$GNGGA,173653.10,4138.0496675,N,07032.3551399,W,1,23,0.7,13.186,M,-29.744,M,0.0,*56
###2023-12-09 12:36:53.944721$GPGSA,A,3,03,04,16,26,28,29,31,32,,,,,1.2,0.7,1.0*31
###2023-12-09 12:36:53.946375$GLGSA,A,3,71,72,73,74,75,,,,,,,,1.2,0.7,1.0*2D
###2023-12-09 12:36:53.948020$GAGSA,A,3,04,19,21,27,,,,,,,,,1.2,0.7,1.0*2C
###2023-12-09 12:36:53.949697$GBGSA,A,3,14,24,25,26,33,,,,,,,,1.2,0.7,1.0*25
###2023-12-09 12:36:53.952050$GPGSV,2,1,08,03,38,276,44,04,22,311,42,16,37,207,45,26,67,207,48*73
###2023-12-09 12:36:53.954379$GPGSV,2,2,08,28,57,057,44,29,25,073,40,31,73,004,46,32,29,134,44*7B
###2023-12-09 12:36:53.956717$GLGSV,2,1,05,71,56,169,48,72,66,308,46,73,47,034,44,74,71,293,43*62
###2023-12-09 12:36:53.958161$GLGSV,2,2,05,75,22,241,45,,,,,,,,,,,,*54
###2023-12-09 12:36:53.960480$GAGSV,1,1,04,04,21,311,42,19,82,299,41,21,78,175,46,27,41,049,42*6D
###2023-12-09 12:36:53.962821$GBGSV,2,1,05,14,55,197,45,24,80,348,48,25,33,253,43,26,35,057,44*6F
###2023-12-09 12:36:53.964275$GBGSV,2,2,05,33,63,253,48,,,,,,,,,,,,*53
###2023-12-09 12:36:53.965566$GNVTG,45.23,T,,M,3.19,N,5.90,K,A*14
###2023-12-09 12:36:53.967235$GNGST,173653.10,19.000,,,,0.080,0.070,0.160*53
###2023-12-09 12:36:53.968527$GNZDA,173653.10,09,12,2023,00,00*75
###2023-12-09 12:36:53.969164$GNEBP,,,,,,M*13
###2023-12-09 12:36:54.136127$GNGGA,173653.30,4138.0497953,N,07032.3549762,W,1,23,0.7,13.194,M,-29.744,M,0.0,*54
###2023-12-09 12:36:54.342863$GNGGA,173653.50,4138.0499265,N,07032.3548124,W,1,23,0.7,13.209,M,-29.744,M,0.0,*50
###2023-12-09 12:36:54.537980$GNGGA,173653.70,4138.0500537,N,07032.3546378,W,1,23,0.7,13.210,M,-29.744,M,0.0,*5E
###2023-12-09 12:36:54.736196$GNGGA,173653.90,4138.0501848,N,07032.3544773,W,1,23,0.7,13.200,M,-29.744,M,0.0,*58
###2023-12-09 12:36:54.937608$GNRMC,173654.10,A,4138.0503294,N,07032.3543429,W,3.23,35.85,091223,,,A*6C
###2023-12-09 12:36:54.940512$GNGGA,173654.10,4138.0503294,N,07032.3543429,W,1,23,0.7,13.204,M,-29.744,M,0.0,*51
###2023-12-09 12:36:54.942381$GPGSA,A,3,03,04,16,26,28,29,31,32,,,,,1.2,0.7,1.0*31
###2023-12-09 12:36:54.944059$GLGSA,A,3,71,72,73,74,75,,,,,,,,1.2,0.7,1.0*2D
###2023-12-09 12:36:54.945653$GAGSA,A,3,04,19,21,27,,,,,,,,,1.2,0.7,1.0*2C
###2023-12-09 12:36:54.947340$GBGSA,A,3,14,24,25,26,33,,,,,,,,1.2,0.7,1.0*25
###2023-12-09 12:36:54.949696$GPGSV,2,1,08,03,38,276,44,04,22,311,43,16,37,207,46,26,67,207,48*71
###2023-12-09 12:36:54.952055$GPGSV,2,2,08,28,57,057,44,29,25,073,39,31,73,004,47,32,29,134,45*75
###2023-12-09 12:36:54.954409$GLGSV,2,1,05,71,56,169,48,72,66,308,46,73,47,034,43,74,71,293,43*65
###2023-12-09 12:36:54.955895$GLGSV,2,2,05,75,22,241,45,,,,,,,,,,,,*54
###2023-12-09 12:36:54.958237$GAGSV,1,1,04,04,21,311,42,19,82,299,41,21,78,175,46,27,41,049,42*6D
###2023-12-09 12:36:54.960604$GBGSV,2,1,05,14,55,197,45,24,80,348,48,25,33,253,43,26,35,057,43*68
###2023-12-09 12:36:54.962071$GBGSV,2,2,05,33,63,253,49,,,,,,,,,,,,*52
###2023-12-09 12:36:54.963424$GNVTG,35.85,T,,M,3.23,N,5.98,K,A*1E
###2023-12-09 12:36:54.965084$GNGST,173654.10,18.000,,,,0.080,0.071,0.160*54
###2023-12-09 12:36:54.966382$GNZDA,173654.10,09,12,2023,00,00*72
###2023-12-09 12:36:54.967038$GNEBP,,,,,,M*13
###2023-12-09 12:36:55.136012$GNGGA,173654.30,4138.0504712,N,07032.3542000,W,1,23,0.7,13.187,M,-29.744,M,0.0,*59
###2023-12-09 12:36:55.337652$GNGGA,173654.50,4138.0506093,N,07032.3540672,W,1,23,0.7,13.189,M,-29.744,M,0.0,*5C
###2023-12-09 12:36:55.536340$GNGGA,173654.70,4138.0507599,N,07032.3539553,W,1,23,0.7,13.222,M,-29.744,M,0.0,*5C
###2023-12-09 12:36:55.736383$GNGGA,173654.90,4138.0509151,N,07032.3538456,W,1,23,0.7,13.232,M,-29.744,M,0.0,*58
###2023-12-09 12:36:55.937686$GNRMC,173655.10,A,4138.0510645,N,07032.3537251,W,3.05,26.70,091223,,,A*61
###2023-12-09 12:36:55.940574$GNGGA,173655.10,4138.0510645,N,07032.3537251,W,1,23,0.7,13.189,M,-29.744,M,0.0,*56
###2023-12-09 12:36:55.942443$GPGSA,A,3,03,04,16,26,28,29,31,32,,,,,1.2,0.7,1.0*31
###2023-12-09 12:36:55.944117$GLGSA,A,3,71,72,73,74,75,,,,,,,,1.2,0.7,1.0*2D
###2023-12-09 12:36:55.945712$GAGSA,A,3,04,19,21,27,,,,,,,,,1.2,0.7,1.0*2C
###2023-12-09 12:36:55.947389$GBGSA,A,3,14,24,25,26,33,,,,,,,,1.2,0.7,1.0*25
###2023-12-09 12:36:55.949735$GPGSV,2,1,08,03,38,276,45,04,22,311,42,16,37,207,45,26,67,207,48*72
###2023-12-09 12:36:55.952086$GPGSV,2,2,08,28,57,057,45,29,25,073,42,31,73,004,46,32,29,134,45*79
###2023-12-09 12:36:55.954427$GLGSV,2,1,05,71,56,169,47,72,66,308,46,73,47,034,44,74,71,293,43*6D
###2023-12-09 12:36:55.955919$GLGSV,2,2,05,75,22,241,42,,,,,,,,,,,,*53
###2023-12-09 12:36:55.958270$GAGSV,1,1,04,04,21,311,42,19,82,299,41,21,78,175,46,27,41,049,43*6C
###2023-12-09 12:36:55.960636$GBGSV,2,1,05,14,55,197,45,24,80,348,48,25,33,253,44,26,35,057,45*69
###2023-12-09 12:36:55.962096$GBGSV,2,2,05,33,63,253,48,,,,,,,,,,,,*53
###2023-12-09 12:36:55.963404$GNVTG,26.70,T,,M,3.05,N,5.65,K,A*10
###2023-12-09 12:36:55.965062$GNGST,173655.10,18.000,,,,0.080,0.070,0.160*54
###2023-12-09 12:36:55.966360$GNZDA,173655.10,09,12,2023,00,00*73
###2023-12-09 12:36:55.967018$GNEBP,,,,,,M*13
###2023-12-09 12:36:56.136287$GNGGA,173655.30,4138.0512205,N,07032.3536438,W,1,23,0.7,13.171,M,-29.744,M,0.0,*59
###2023-12-09 12:36:56.338029$GNGGA,173655.50,4138.0513809,N,07032.3535741,W,1,23,0.7,13.192,M,-29.744,M,0.0,*5B
###2023-12-09 12:36:56.537703$GNGGA,173655.70,4138.0515411,N,07032.3534933,W,1,23,0.7,13.212,M,-29.744,M,0.0,*5B
###2023-12-09 12:36:56.736109$GNGGA,173655.90,4138.0517019,N,07032.3534103,W,1,23,0.7,13.211,M,-29.744,M,0.0,*53
###2023-12-09 12:36:56.944549$GNRMC,173656.10,A,4138.0518706,N,07032.3533511,W,3.13,12.74,091223,,,A*6F
###2023-12-09 12:36:56.947468$GNGGA,173656.10,4138.0518706,N,07032.3533511,W,1,23,0.7,13.194,M,-29.744,M,0.0,*50
###2023-12-09 12:36:56.949351$GPGSA,A,3,03,04,16,26,28,29,31,32,,,,,1.2,0.7,1.0*31
###2023-12-09 12:36:56.951012$GLGSA,A,3,71,72,73,74,75,,,,,,,,1.2,0.7,1.0*2D
###2023-12-09 12:36:56.952596$GAGSA,A,3,04,19,21,27,,,,,,,,,1.2,0.7,1.0*2C
###2023-12-09 12:36:56.954237$GBGSA,A,3,14,24,25,26,33,,,,,,,,1.2,0.7,1.0*25
###2023-12-09 12:36:56.956585$GPGSV,2,1,08,03,38,276,44,04,22,311,42,16,37,207,44,26,67,207,47*7D
###2023-12-09 12:36:56.958942$GPGSV,2,2,08,28,57,057,45,29,25,073,41,31,73,004,46,32,29,134,43*7C
###2023-12-09 12:36:56.961281$GLGSV,2,1,05,71,56,169,47,72,66,308,46,73,47,034,45,74,71,293,42*6D
###2023-12-09 12:36:56.962758$GLGSV,2,2,05,75,22,241,43,,,,,,,,,,,,*52
###2023-12-09 12:36:56.965092$GAGSV,1,1,04,04,21,311,42,19,82,299,41,21,78,175,46,27,41,049,43*6C
###2023-12-09 12:36:56.967445$GBGSV,2,1,05,14,55,197,45,24,80,348,48,25,33,253,43,26,35,057,44*6F
###2023-12-09 12:36:56.968907$GBGSV,2,2,05,33,63,253,46,,,,,,,,,,,,*5D
###2023-12-09 12:36:56.970205$GNVTG,12.74,T,,M,3.13,N,5.80,K,A*1F
###2023-12-09 12:36:56.971870$GNGST,173656.10,18.000,,,,0.080,0.070,0.160*57
###2023-12-09 12:36:56.973171$GNZDA,173656.10,09,12,2023,00,00*70
###2023-12-09 12:36:56.974070$GNEBP,,,,,,M*13
###2023-12-09 12:36:57.136677$GNGGA,173656.30,4138.0520383,N,07032.3533060,W,1,23,0.7,13.175,M,-29.744,M,0.0,*5C
###2023-12-09 12:36:57.337241$GNGGA,173656.50,4138.0522023,N,07032.3532664,W,1,23,0.7,13.176,M,-29.744,M,0.0,*51
###2023-12-09 12:36:57.537328$GNGGA,173656.70,4138.0523666,N,07032.3532259,W,1,23,0.7,13.193,M,-29.744,M,0.0,*54
###2023-12-09 12:36:57.737718$GNGGA,173656.90,4138.0525326,N,07032.3531913,W,1,23,0.7,13.197,M,-29.744,M,0.0,*5F
###2023-12-09 12:36:57.937723$GNRMC,173657.10,A,4138.0526968,N,07032.3531955,W,2.94,353.15,091223,,,A*54
###2023-12-09 12:36:57.940583$GNGGA,173657.10,4138.0526968,N,07032.3531955,W,1,23,0.7,13.193,M,-29.744,M,0.0,*53
###2023-12-09 12:36:57.942443$GPGSA,A,3,03,04,16,26,28,29,31,32,,,,,1.2,0.7,1.0*31
