###2023-12-09 12:40:07.969049$GNVTG,307.14,T,,M,0.25,N,0.47,K,A*26
###2023-12-09 12:40:07.970742$GNGST,174007.10,18.000,,,,0.080,0.070,0.170*53
###2023-12-09 12:40:07.972038$GNZDA,174007.10,09,12,2023,00,00*75
###2023-12-09 12:40:07.972685$GNEBP,,,,,,M*13
###2023-12-09 12:40:08.139719$GNGGA,174007.30,4138.0562448,N,07032.3818088,W,1,23,0.7,13.274,M,-29.744,M,0.0,*5F
###2023-12-09 12:40:08.341097$GNGGA,174007.50,4138.0562764,N,07032.3818637,W,1,23,0.7,13.289,M,-29.744,M,0.0,*54
###2023-12-09 12:40:08.542492$GNGGA,174007.70,4138.0563039,N,07032.3819143,W,1,23,0.7,13.282,M,-29.744,M,0.0,*56
###2023-12-09 12:40:08.740601$GNGGA,174007.90,4138.0563109,N,07032.3819225,W,1,23,0.7,13.281,M,-29.744,M,0.0,*5A
###2023-12-09 12:40:08.947019$GNRMC,174008.10,A,4138.0563108,N,07032.3819160,W,0.14,307.99,091223,,,A*56
###2023-12-09 12:40:08.949891$GNGGA,174008.10,4138.0563108,N,07032.3819160,W,1,23,0.7,13.281,M,-29.744,M,0.0,*5E
###2023-12-09 12:40:08.951764$GPGSA,A,3,03,04,16,26,28,29,31,32,,,,,1.2,0.7,1.0*31
###2023-12-09 12:40:08.953417$GLGSA,A,3,71,72,73,74,75,,,,,,,,1.2,0.7,1.0*2D
###2023-12-09 12:40:08.955020$GAGSA,A,3,04,19,21,27,,,,,,,,,1.2,0.7,1.0*2C
###2023-12-09 12:40:08.956670$GBGSA,A,3,14,24,25,26,33,,,,,,,,1.2,0.7,1.0*25
###2023-12-09 12:40:08.959008$GPGSV,2,1,08,03,38,274,42,04,24,311,41,16,39,208,42,26,69,207,46*74
###2023-12-09 12:40:08.961348$GPGSV,2,2,08,28,56,059,45,29,25,071,43,31,73,010,48,32,28,135,45*7E
###2023-12-09 12:40:08.963694$GLGSV,2,1,05,71,54,170,47,72,68,305,47,73,45,035,46,74,71,299,43*6E
###2023-12-09 12:40:08.965149$GLGSV,2,2,05,75,24,243,40,,,,,,,,,,,,*55
###2023-12-09 12:40:08.967495$GAGSV,1,1,04,04,22,311,41,19,82,296,41,21,79,174,46,27,40,049,44*65
###2023-12-09 12:40:08.969831$GBGSV,2,1,05,14,53,197,45,24,80,355,48,25,34,254,43,26,33,058,46*6E
###2023-12-09 12:40:08.971301$GBGSV,2,2,05,33,62,250,47,,,,,,,,,,,,*5E
###2023-12-09 12:40:08.972627$GNVTG,307.99,T,,M,0.14,N,0.25,K,A*25
###2023-12-09 12:40:08.974276$GNGST,174008.10,18.000,,,,0.080,0.070,0.170*5C
###2023-12-09 12:40:08.975582$GNZDA,174008.10,09,12,2023,00,00*7A
###2023-12-09 12:40:08.976224$GNEBP,,,,,,M*13
###2023-12-09 12:40:09.142192$GNGGA,174008.30,4138.0563270,N,07032.3819441,W,1,23,0.7,13.278,M,-29.744,M,0.0,*50
###2023-12-09 12:40:09.342316$GNGGA,174008.50,4138.0563555,N,07032.3819927,W,1,23,0.7,13.278,M,-29.744,M,0.0,*5B
###2023-12-09 12:40:09.541316$GNGGA,174008.70,4138.0563767,N,07032.3820263,W,1,23,0.7,13.270,M,-29.744,M,0.0,*53
###2023-12-09 12:40:09.741516$GNGGA,174008.90,4138.0563838,N,07032.3820364,W,1,23,0.7,13.271,M,-29.744,M,0.0,*5F
###2023-12-09 12:40:09.937798$GNRMC,174009.10,A,4138.0563912,N,07032.3820485,W,0.39,307.99,091223,,,A*5F
###2023-12-09 12:40:09.940671$GNGGA,174009.10,4138.0563912,N,07032.3820485,W,1,23,0.7,13.276,M,-29.744,M,0.0,*50
###2023-12-09 12:40:09.942531$GPGSA,A,3,03,04,16,26,28,29,31,32,,,,,1.2,0.7,1.0*31
###2023-12-09 12:40:09.944195$GLGSA,A,3,71,72,73,74,75,,,,,,,,1.2,0.7,1.0*2D
###2023-12-09 12:40:09.945780$GAGSA,A,3,04,19,21,27,,,,,,,,,1.2,0.7,1.0*2C
###2023-12-09 12:40:09.947451$GBGSA,A,3,14,24,25,26,33,,,,,,,,1.2,0.7,1.0*25
###2023-12-09 12:40:09.949795$GPGSV,2,1,08,03,38,274,43,04,24,311,41,16,39,208,42,26,69,207,47*74
###2023-12-09 12:40:09.952148$GPGSV,2,2,08,28,56,059,45,29,25,071,43,31,73,010,47,32,28,135,45*71
###2023-12-09 12:40:09.954479$GLGSV,2,1,05,71,54,170,48,72,68,305,46,73,45,035,47,74,71,299,43*61
###2023-12-09 12:40:09.955958$GLGSV,2,2,05,75,24,243,40,,,,,,,,,,,,*55
###2023-12-09 12:40:09.958283$GAGSV,1,1,04,04,22,311,40,19,82,296,41,21,79,174,46,27,40,049,45*65
###2023-12-09 12:40:09.960628$GBGSV,2,1,05,14,53,197,45,24,80,355,48,25,34,254,43,26,33,058,45*6D
###2023-12-09 12:40:09.962085$GBGSV,2,2,05,33,62,250,47,,,,,,,,,,,,*5E
###2023-12-09 12:40:09.963422$GNVTG,307.99,T,,M,0.39,N,0.72,K,A*28
###2023-12-09 12:40:09.965070$GNGST,174009.10,19.000,,,,0.079,0.070,0.170*5A
###2023-12-09 12:40:09.966360$GNZDA,174009.10,09,12,2023,00,00*7B
###2023-12-09 12:40:09.967015$GNEBP,,,,,,M*13
###2023-12-09 12:40:10.138909$GNGGA,174009.30,4138.0564111,N,07032.3820794,W,1,23,0.7,13.276,M,-29.744,M,0.0,*5D
###2023-12-09 12:40:10.339929$GNGGA,174009.50,4138.0564353,N,07032.3821175,W,1,23,0.7,13.273,M,-29.744,M,0.0,*52
###2023-12-09 12:40:10.540623$GNGGA,174009.70,4138.0564547,N,07032.3821471,W,1,23,0.7,13.273,M,-29.744,M,0.0,*52
###2023-12-09 12:40:10.738866$GNGGA,174009.90,4138.0564651,N,07032.3821637,W,1,23,0.7,13.270,M,-29.744,M,0.0,*5B
###2023-12-09 12:40:10.941718$GNRMC,174010.10,A,4138.0564756,N,07032.3821777,W,0.21,307.99,091223,,,A*58
###2023-12-09 12:40:10.944609$GNGGA,174010.10,4138.0564756,N,07032.3821777,W,1,23,0.7,13.272,M,-29.744,M,0.0,*5A
###2023-12-09 12:40:10.946481$GPGSA,A,3,03,04,16,26,28,29,31,32,,,,,1.2,0.7,1.0*31
###2023-12-09 12:40:10.948170$GLGSA,A,3,71,72,73,74,75,,,,,,,,1.2,0.7,1.0*2D
###2023-12-09 12:40:10.949762$GAGSA,A,3,04,19,21,27,,,,,,,,,1.2,0.7,1.0*2C
###2023-12-09 12:40:10.951428$GBGSA,A,3,14,24,25,26,33,,,,,,,,1.2,0.7,1.0*25
###2023-12-09 12:40:10.953761$GPGSV,2,1,08,03,38,274,43,04,24,311,41,16,39,208,42,26,69,207,47*74
###2023-12-09 12:40:10.956113$GPGSV,2,2,08,28,56,059,45,29,25,071,43,31,73,010,48,32,28,135,45*7E
###2023-12-09 12:40:10.958456$GLGSV,2,1,05,71,54,170,48,72,68,305,46,73,45,035,46,74,71,299,43*60
###2023-12-09 12:40:10.959933$GLGSV,2,2,05,75,24,243,40,,,,,,,,,,,,*55
###2023-12-09 12:40:10.962267$GAGSV,1,1,04,04,22,311,40,19,82,296,41,21,79,174,46,27,40,049,45*65
###2023-12-09 12:40:10.964619$GBGSV,2,1,05,14,53,197,45,24,80,355,48,25,34,254,43,26,33,058,46*6E
###2023-12-09 12:40:10.966074$GBGSV,2,2,05,33,62,250,47,,,,,,,,,,,,*5E
###2023-12-09 12:40:10.967412$GNVTG,307.99,T,,M,0.21,N,0.40,K,A*20
###2023-12-09 12:40:10.969064$GNGST,174010.10,18.000,,,,0.079,0.070,0.170*53
###2023-12-09 12:40:10.970357$GNZDA,174010.10,09,12,2023,00,00*73
###2023-12-09 12:40:10.971006$GNEBP,,,,,,M*13
###2023-12-09 12:40:11.140193$GNGGA,174010.30,4138.0564920,N,07032.3822036,W,1,23,0.7,13.274,M,-29.744,M,0.0,*50
###2023-12-09 12:40:11.340100$GNGGA,174010.50,4138.0565149,N,07032.3822431,W,1,23,0.7,13.282,M,-29.744,M,0.0,*5A
###2023-12-09 12:40:11.540178$GNGGA,174010.70,4138.0565364,N,07032.3822782,W,1,23,0.7,13.288,M,-29.744,M,0.0,*54
###2023-12-09 12:40:11.737564$GNGGA,174010.90,4138.0565448,N,07032.3822889,W,1,23,0.7,13.278,M,-29.744,M,0.0,*58
###2023-12-09 12:40:11.938999$GNRMC,174011.10,A,4138.0565503,N,07032.3822965,W,0.23,307.99,091223,,,A*56
###2023-12-09 12:40:11.941848$GNGGA,174011.10,4138.0565503,N,07032.3822965,W,1,23,0.7,13.273,M,-29.744,M,0.0,*57
###2023-12-09 12:40:11.943729$GPGSA,A,3,03,04,16,26,28,29,31,32,,,,,1.2,0.7,1.0*31
###2023-12-09 12:40:11.945394$GLGSA,A,3,71,72,73,74,75,,,,,,,,1.2,0.7,1.0*2D
###2023-12-09 12:40:11.947026$GAGSA,A,3,04,19,21,27,,,,,,,,,1.2,0.7,1.0*2C
###2023-12-09 12:40:11.948718$GBGSA,A,3,14,24,25,26,33,,,,,,,,1.2,0.7,1.0*25
###2023-12-09 12:40:11.951079$GPGSV,2,1,08,03,38,274,43,04,24,311,41,16,39,208,42,26,69,207,47*74
###2023-12-09 12:40:11.953413$GPGSV,2,2,08,28,56,059,45,29,25,071,43,31,73,010,48,32,28,135,46*7D
###2023-12-09 12:40:11.955749$GLGSV,2,1,05,71,54,170,48,72,68,305,46,73,45,035,46,74,71,299,43*60
###2023-12-09 12:40:11.957204$GLGSV,2,2,05,75,24,243,40,,,,,,,,,,,,*55
###2023-12-09 12:40:11.959538$GAGSV,1,1,04,04,22,311,40,19,82,296,41,21,79,174,46,27,40,049,45*65
###2023-12-09 12:40:11.961868$GBGSV,2,1,05,14,53,197,45,24,80,355,48,25,34,254,43,26,33,058,45*6D
###2023-12-09 12:40:11.963331$GBGSV,2,2,05,33,62,250,47,,,,,,,,,,,,*5E
###2023-12-09 12:40:11.964652$GNVTG,307.99,T,,M,0.23,N,0.43,K,A*21
###2023-12-09 12:40:11.966301$GNGST,174011.10,19.000,,,,0.079,0.070,0.170*53
###2023-12-09 12:40:11.967603$GNZDA,174011.10,09,12,2023,00,00*72
###2023-12-09 12:40:11.968245$GNEBP,,,,,,M*13
###2023-12-09 12:40:12.141124$GNGGA,174011.30,4138.0565708,N,07032.3823304,W,1,23,0.7,13.288,M,-29.744,M,0.0,*54
###2023-12-09 12:40:12.340120$GNGGA,174011.50,4138.0566023,N,07032.3823813,W,1,23,0.7,13.293,M,-29.744,M,0.0,*58
###2023-12-09 12:40:12.540518$GNGGA,174011.70,4138.0566187,N,07032.3824060,W,1,23,0.7,13.289,M,-29.744,M,0.0,*55
###2023-12-09 12:40:12.740300$GNGGA,174011.90,4138.0566202,N,07032.3824024,W,1,23,0.7,13.282,M,-29.744,M,0.0,*5E
###2023-12-09 12:40:12.940560$GNRMC,174012.10,A,4138.0566286,N,07032.3824142,W,0.52,307.99,091223,,,A*51
###2023-12-09 12:40:12.943440$GNGGA,174012.10,4138.0566286,N,07032.3824142,W,1,23,0.7,13.282,M,-29.744,M,0.0,*58
###2023-12-09 12:40:12.945294$GPGSA,A,3,03,04,16,26,28,29,31,32,,,,,1.2,0.7,1.0*31
###2023-12-09 12:40:12.946976$GLGSA,A,3,71,72,73,74,75,,,,,,,,1.2,0.7,1.0*2D
###2023-12-09 12:40:12.948594$GAGSA,A,3,04,19,21,27,,,,,,,,,1.2,0.7,1.0*2C
###2023-12-09 12:40:12.950264$GBGSA,A,3,14,24,25,26,33,,,,,,,,1.2,0.7,1.0*25
###2023-12-09 12:40:12.952624$GPGSV,2,1,08,03,38,274,43,04,24,311,40,16,39,208,42,26,69,207,47*75
###2023-12-09 12:40:12.954977$GPGSV,2,2,08,28,56,059,45,29,25,071,44,31,73,010,48,32,28,135,46*7A
