###2023-12-09 12:54:34.968927$GPGSV,2,1,08,03,36,266,46,04,29,311,45,16,46,211,45,26,76,209,47*72
###2023-12-09 12:54:34.971301$GPGSV,2,2,08,28,52,067,45,29,25,064,42,31,70,029,48,32,22,138,40*79
###2023-12-09 12:54:34.973636$GLGSV,2,1,06,65,20,328,46,71,45,172,45,72,72,285,46,73,39,039,48*6D
###2023-12-09 12:54:34.975398$GLGSV,2,2,06,74,71,324,43,75,29,249,43,,,,,,,,*65
###2023-12-09 12:54:34.977717$GAGSV,1,1,04,04,27,312,45,19,85,242,40,21,84,147,46,27,35,048,44*69
###2023-12-09 12:54:34.980057$GBGSV,2,1,05,14,46,194,44,24,75,018,48,25,38,259,45,26,29,061,42*6A
###2023-12-09 12:54:34.981514$GBGSV,2,2,05,33,60,238,47,,,,,,,,,,,,*52
###2023-12-09 12:54:34.982856$GNVTG,308.19,T,,M,0.08,N,0.14,K,A*2D
###2023-12-09 12:54:34.984498$GNGST,175434.10,18.000,,,,0.076,0.066,0.150*5A
###2023-12-09 12:54:34.985788$GNZDA,175434.10,09,12,2023,00,00*70
###2023-12-09 12:54:34.986425$GNEBP,,,,,,M*13
###2023-12-09 12:54:35.155233$GNGGA,175434.30,4138.0616218,N,07032.3961984,W,1,24,0.6,13.200,M,-29.744,M,0.0,*56
###2023-12-09 12:54:35.355430$GNGGA,175434.50,4138.0616105,N,07032.3961892,W,1,24,0.6,13.169,M,-29.744,M,0.0,*55
###2023-12-09 12:54:35.554999$GNGGA,175434.70,4138.0616472,N,07032.3962621,W,1,24,0.6,13.219,M,-29.744,M,0.0,*53
###2023-12-09 12:54:35.754038$GNGGA,175434.90,4138.0616866,N,07032.3963375,W,1,24,0.6,13.223,M,-29.744,M,0.0,*58
###2023-12-09 12:54:35.957454$GNRMC,175435.10,A,4138.0616817,N,07032.3963300,W,0.70,306.34,091223,,,A*57
###2023-12-09 12:54:35.960350$GNGGA,175435.10,4138.0616817,N,07032.3963300,W,1,24,0.6,13.222,M,-29.744,M,0.0,*54
###2023-12-09 12:54:35.962213$GPGSA,A,3,03,04,16,26,28,29,31,32,,,,,1.1,0.6,0.9*3B
###2023-12-09 12:54:35.963965$GLGSA,A,3,65,71,72,73,74,75,,,,,,,1.1,0.6,0.9*24
###2023-12-09 12:54:35.965546$GAGSA,A,3,04,19,21,27,,,,,,,,,1.1,0.6,0.9*26
###2023-12-09 12:54:35.967210$GBGSA,A,3,14,24,25,26,33,,,,,,,,1.1,0.6,0.9*2F
###2023-12-09 12:54:35.969536$GPGSV,2,1,08,03,36,266,45,04,29,311,45,16,46,211,45,26,76,209,48*7E
###2023-12-09 12:54:35.971899$GPGSV,2,2,08,28,52,067,44,29,25,064,42,31,70,029,48,32,22,138,42*7A
###2023-12-09 12:54:35.974234$GLGSV,2,1,06,65,20,328,44,71,45,172,44,72,72,285,45,73,39,039,47*62
###2023-12-09 12:54:35.975992$GLGSV,2,2,06,74,71,324,43,75,29,249,43,,,,,,,,*65
###2023-12-09 12:54:35.978313$GAGSV,1,1,04,04,27,312,45,19,85,242,40,21,84,147,45,27,35,048,45*6B
###2023-12-09 12:54:35.980658$GBGSV,2,1,05,14,46,194,44,24,75,018,48,25,39,260,45,26,29,061,42*61
###2023-12-09 12:54:35.982114$GBGSV,2,2,05,33,60,238,47,,,,,,,,,,,,*52
###2023-12-09 12:54:35.983448$GNVTG,306.34,T,,M,0.70,N,1.30,K,A*24
###2023-12-09 12:54:35.985091$GNGST,175435.10,18.000,,,,0.076,0.066,0.150*5B
###2023-12-09 12:54:35.986384$GNZDA,175435.10,09,12,2023,00,00*71
###2023-12-09 12:54:35.987034$GNEBP,,,,,,M*13
###2023-12-09 12:54:36.155417$GNGGA,175435.30,4138.0616538,N,07032.3962903,W,1,24,0.6,13.183,M,-29.744,M,0.0,*56
###2023-12-09 12:54:36.356195$GNGGA,175435.50,4138.0616679,N,07032.3963245,W,1,24,0.6,13.180,M,-29.744,M,0.0,*5D
###2023-12-09 12:54:36.555184$GNGGA,175435.70,4138.0617115,N,07032.3964102,W,1,24,0.6,13.210,M,-29.744,M,0.0,*5E
###2023-12-09 12:54:36.756770$GNGGA,175435.90,4138.0617279,N,07032.3964499,W,1,24,0.6,13.197,M,-29.744,M,0.0,*52
###2023-12-09 12:54:36.956619$GNRMC,175436.10,A,4138.0617066,N,07032.3964197,W,0.68,305.20,091223,,,A*5F
###2023-12-09 12:54:36.959535$GNGGA,175436.10,4138.0617066,N,07032.3964197,W,1,24,0.6,13.209,M,-29.744,M,0.0,*5A
###2023-12-09 12:54:36.961399$GPGSA,A,3,03,04,16,26,28,29,31,32,,,,,1.1,0.6,0.9*3B
###2023-12-09 12:54:36.963132$GLGSA,A,3,65,71,72,73,74,75,,,,,,,1.1,0.6,0.9*24
###2023-12-09 12:54:36.964721$GAGSA,A,3,04,19,21,27,,,,,,,,,1.1,0.6,0.9*26
###2023-12-09 12:54:36.966368$GBGSA,A,3,14,24,25,26,33,,,,,,,,1.1,0.6,0.9*2F
###2023-12-09 12:54:36.968717$GPGSV,2,1,08,03,36,266,43,04,29,311,43,16,46,211,44,26,76,209,47*70
###2023-12-09 12:54:36.971055$GPGSV,2,2,08,28,52,067,45,29,25,064,43,31,70,029,48,32,22,138,44*7C
###2023-12-09 12:54:36.973398$GLGSV,2,1,06,65,20,328,44,71,45,172,45,72,72,285,46,73,39,039,47*60
###2023-12-09 12:54:36.975167$GLGSV,2,2,06,74,71,324,43,75,29,249,42,,,,,,,,*64
###2023-12-09 12:54:36.977484$GAGSV,1,1,04,04,27,312,43,19,85,242,40,21,84,147,46,27,35,048,45*6E
###2023-12-09 12:54:36.979817$GBGSV,2,1,05,14,46,194,44,24,75,018,49,25,39,260,45,26,28,061,44*67
###2023-12-09 12:54:36.981275$GBGSV,2,2,05,33,60,238,47,,,,,,,,,,,,*52
###2023-12-09 12:54:36.982610$GNVTG,305.20,T,,M,0.68,N,1.26,K,A*2C
###2023-12-09 12:54:36.984262$GNGST,175436.10,18.000,,,,0.076,0.066,0.150*58
###2023-12-09 12:54:36.985551$GNZDA,175436.10,09,12,2023,00,00*72
###2023-12-09 12:54:36.986191$GNEBP,,,,,,M*13
###2023-12-09 12:54:37.154074$GNGGA,175436.30,4138.0616938,N,07032.3964107,W,1,24,0.6,13.176,M,-29.744,M,0.0,*59
###2023-12-09 12:54:37.359792$GNGGA,175436.50,4138.0617235,N,07032.3964694,W,1,24,0.6,13.193,M,-29.744,M,0.0,*5E
###2023-12-09 12:54:37.553935$GNGGA,175436.70,4138.0617564,N,07032.3965358,W,1,24,0.6,13.191,M,-29.744,M,0.0,*59
###2023-12-09 12:54:37.755017$GNGGA,175436.90,4138.0617540,N,07032.3965468,W,1,24,0.6,13.186,M,-29.744,M,0.0,*53
###2023-12-09 12:54:37.956387$GNRMC,175437.10,A,4138.0617341,N,07032.3965250,W,0.29,307.08,091223,,,A*5C
###2023-12-09 12:54:37.959269$GNGGA,175437.10,4138.0617341,N,07032.3965250,W,1,24,0.6,13.187,M,-29.744,M,0.0,*51
###2023-12-09 12:54:37.961133$GPGSA,A,3,03,04,16,26,28,29,31,32,,,,,1.1,0.6,0.9*3B
###2023-12-09 12:54:37.962866$GLGSA,A,3,65,71,72,73,74,75,,,,,,,1.1,0.6,0.9*24
###2023-12-09 12:54:37.964452$GAGSA,A,3,04,19,21,27,,,,,,,,,1.1,0.6,0.9*26
###2023-12-09 12:54:37.966099$GBGSA,A,3,14,24,25,26,33,,,,,,,,1.1,0.6,0.9*2F
###2023-12-09 12:54:37.968440$GPGSV,2,1,08,03,36,266,42,04,29,311,42,16,46,211,44,26,76,209,47*70
###2023-12-09 12:54:37.970795$GPGSV,2,2,08,28,52,067,45,29,25,064,43,31,70,029,47,32,22,138,45*72
###2023-12-09 12:54:37.973138$GLGSV,2,1,06,65,20,328,42,71,45,172,46,72,72,285,45,73,39,039,47*66
###2023-12-09 12:54:37.974905$GLGSV,2,2,06,74,71,324,43,75,29,249,43,,,,,,,,*65
###2023-12-09 12:54:37.977234$GAGSV,1,1,04,04,27,312,42,19,85,242,40,21,84,147,46,27,35,048,45*6F
###2023-12-09 12:54:37.979584$GBGSV,2,1,05,14,46,194,45,24,75,018,49,25,39,260,44,26,28,061,44*67
###2023-12-09 12:54:37.981043$GBGSV,2,2,05,33,60,238,47,,,,,,,,,,,,*52
###2023-12-09 12:54:37.982368$GNVTG,307.08,T,,M,0.29,N,0.54,K,A*25
###2023-12-09 12:54:37.984032$GNGST,175437.10,18.000,,,,0.076,0.066,0.150*59
###2023-12-09 12:54:37.985331$GNZDA,175437.10,09,12,2023,00,00*73
###2023-12-09 12:54:37.985971$GNEBP,,,,,,M*13
###2023-12-09 12:54:38.153974$GNGGA,175437.30,4138.0617387,N,07032.3965451,W,1,24,0.6,13.184,M,-29.744,M,0.0,*5D
###2023-12-09 12:54:38.354962$GNGGA,175437.50,4138.0617633,N,07032.3966129,W,1,24,0.6,13.193,M,-29.744,M,0.0,*5E
###2023-12-09 12:54:38.555973$GNGGA,175437.70,4138.0617726,N,07032.3966801,W,1,24,0.6,13.183,M,-29.744,M,0.0,*5B
###2023-12-09 12:54:38.761729$GNGGA,175437.90,4138.0617451,N,07032.3967141,W,1,24,0.6,13.185,M,-29.744,M,0.0,*5C
###2023-12-09 12:54:38.957388$GNRMC,175438.10,A,4138.0617020,N,07032.3967527,W,1.03,230.01,091223,,,A*57
###2023-12-09 12:54:38.960274$GNGGA,175438.10,4138.0617020,N,07032.3967527,W,1,24,0.6,13.175,M,-29.744,M,0.0,*52
###2023-12-09 12:54:38.962125$GPGSA,A,3,03,04,16,26,28,29,31,32,,,,,1.1,0.6,0.9*3B
###2023-12-09 12:54:38.963857$GLGSA,A,3,65,71,72,73,74,75,,,,,,,1.1,0.6,0.9*24
###2023-12-09 12:54:38.965438$GAGSA,A,3,04,19,21,27,,,,,,,,,1.1,0.6,0.9*26
###2023-12-09 12:54:38.967089$GBGSA,A,3,14,24,25,26,33,,,,,,,,1.1,0.6,0.9*2F
###2023-12-09 12:54:38.969401$GPGSV,2,1,08,03,36,266,42,04,29,311,41,16,46,211,43,26,76,209,47*74
###2023-12-09 12:54:38.971736$GPGSV,2,2,08,28,52,067,45,29,25,064,43,31,70,029,47,32,22,138,45*72
###2023-12-09 12:54:38.974056$GLGSV,2,1,06,65,20,328,40,71,45,172,46,72,72,285,45,73,39,039,47*64
###2023-12-09 12:54:38.975811$GLGSV,2,2,06,74,71,324,43,75,29,249,39,,,,,,,,*68
###2023-12-09 12:54:38.978129$GAGSV,1,1,04,04,27,312,41,19,85,242,40,21,84,147,46,27,35,048,43*6A
###2023-12-09 12:54:38.980467$GBGSV,2,1,05,14,46,194,45,24,75,018,49,25,39,260,44,26,28,061,44*67
###2023-12-09 12:54:38.981919$GBGSV,2,2,05,33,60,238,47,,,,,,,,,,,,*52
###2023-12-09 12:54:38.983489$GNVTG,230.01,T,,M,1.03,N,1.91,K,A*28
###2023-12-09 12:54:38.985132$GNGST,175438.10,18.000,,,,0.076,0.067,0.160*54
###2023-12-09 12:54:38.986419$GNZDA,175438.10,09,12,2023,00,00*7C
###2023-12-09 12:54:38.987076$GNEBP,,,,,,M*13
###2023-12-09 12:54:39.155456$GNGGA,175438.30,4138.0616710,N,07032.3968389,W,1,24,0.6,13.176,M,-29.744,M,0.0,*5B
###2023-12-09 12:54:39.355207$GNGGA,175438.50,4138.0616416,N,07032.3969615,W,1,24,0.6,13.195,M,-29.744,M,0.0,*54
###2023-12-09 12:54:39.556607$GNGGA,175438.70,4138.0615925,N,07032.3970689,W,1,24,0.6,13.191,M,-29.744,M,0.0,*51
###2023-12-09 12:54:39.756536$GNGGA,175438.90,4138.0615143,N,07032.3971314,W,1,24,0.6,13.181,M,-29.744,M,0.0,*56
###2023-12-09 12:54:39.955621$GNRMC,175439.10,A,4138.0614310,N,07032.3971888,W,1.83,216.60,091223,,,A*51
