###2023-12-09 13:07:35.981124$GBGSA,A,3,14,24,25,26,33,35,,,,,,,1.1,0.6,0.9*29
###2023-12-09 13:07:35.983511$GPGSV,2,1,08,03,34,258,46,04,35,311,44,16,53,214,48,26,83,210,49*71
###2023-12-09 13:07:35.985849$GPGSV,2,2,08,28,47,073,44,29,25,058,41,31,67,044,47,32,16,141,43*7D
###2023-12-09 13:07:35.988201$GLGSV,2,1,06,65,26,326,40,71,37,173,46,72,72,258,47,73,33,043,44*6E
###2023-12-09 13:07:35.989954$GLGSV,2,2,06,74,68,345,42,75,34,256,48,,,,,,,,*62
###2023-12-09 13:07:35.992305$GAGSV,1,1,04,04,31,312,41,19,83,203,41,21,85,092,46,27,31,048,43*63
###2023-12-09 13:07:35.994649$GBGSV,2,1,06,14,41,192,46,24,72,029,48,25,42,264,46,26,24,064,42*67
###2023-12-09 13:07:35.996393$GBGSV,2,2,06,33,56,229,49,35,15,067,41,,,,,,,,*6C
###2023-12-09 13:07:35.997680$GNVTG,88.91,T,,M,3.25,N,6.01,K,A*18
###2023-12-09 13:07:35.999337$GNGST,180735.10,18.000,,,,0.080,0.065,0.150*58
###2023-12-09 13:07:36.000628$GNZDA,180735.10,09,12,2023,00,00*78
###2023-12-09 13:07:36.001265$GNEBP,,,,,,M*13
###2023-12-09 13:07:36.169168$GNGGA,180735.30,4138.0738215,N,07032.3620502,W,1,25,0.6,13.224,M,-29.743,M,0.0,*56
###2023-12-09 13:07:36.369487$GNGGA,180735.50,4138.0738495,N,07032.3618014,W,1,25,0.6,13.237,M,-29.743,M,0.0,*55
###2023-12-09 13:07:36.569251$GNGGA,180735.70,4138.0738636,N,07032.3615605,W,1,25,0.6,13.222,M,-29.743,M,0.0,*53
###2023-12-09 13:07:36.769772$GNGGA,180735.90,4138.0738772,N,07032.3613178,W,1,25,0.6,13.237,M,-29.743,M,0.0,*53
###2023-12-09 13:07:36.973623$GNRMC,180736.10,A,4138.0738818,N,07032.3610658,W,3.40,88.74,091223,,,A*6D
###2023-12-09 13:07:36.976507$GNGGA,180736.10,4138.0738818,N,07032.3610658,W,1,25,0.6,13.237,M,-29.743,M,0.0,*5D
###2023-12-09 13:07:36.978357$GPGSA,A,3,03,04,16,26,28,29,31,32,,,,,1.1,0.6,0.9*3B
###2023-12-09 13:07:36.980090$GLGSA,A,3,65,71,72,73,74,75,,,,,,,1.1,0.6,0.9*24
###2023-12-09 13:07:36.981677$GAGSA,A,3,04,19,21,27,,,,,,,,,1.1,0.6,0.9*26
###2023-12-09 13:07:36.983399$GBGSA,A,3,14,24,25,26,33,35,,,,,,,1.1,0.6,0.9*29
###2023-12-09 13:07:36.985712$GPGSV,2,1,08,03,34,258,46,04,35,311,43,16,53,214,48,26,83,210,49*76
###2023-12-09 13:07:36.988040$GPGSV,2,2,08,28,47,073,44,29,25,058,42,31,67,044,47,32,16,141,43*7E
###2023-12-09 13:07:36.990359$GLGSV,2,1,06,65,26,326,40,71,37,173,47,72,72,258,46,73,33,043,43*69
###2023-12-09 13:07:36.992110$GLGSV,2,2,06,74,68,345,42,75,34,256,48,,,,,,,,*62
###2023-12-09 13:07:36.994428$GAGSV,1,1,04,04,31,312,40,19,83,203,41,21,85,092,46,27,31,048,42*63
###2023-12-09 13:07:36.996759$GBGSV,2,1,06,14,41,192,46,24,72,029,48,25,42,264,46,26,24,064,43*66
###2023-12-09 13:07:36.998494$GBGSV,2,2,06,33,56,229,48,35,15,067,43,,,,,,,,*6F
###2023-12-09 13:07:36.999788$GNVTG,88.74,T,,M,3.40,N,6.30,K,A*12
###2023-12-09 13:07:37.001429$GNGST,180736.10,18.000,,,,0.080,0.064,0.150*5A
###2023-12-09 13:07:37.002727$GNZDA,180736.10,09,12,2023,00,00*7B
###2023-12-09 13:07:37.003366$GNEBP,,,,,,M*13
###2023-12-09 13:07:37.169051$GNGGA,180736.30,4138.0738809,N,07032.3608183,W,1,25,0.6,13.229,M,-29.743,M,0.0,*58
###2023-12-09 13:07:37.369436$GNGGA,180736.50,4138.0738818,N,07032.3605682,W,1,25,0.6,13.247,M,-29.743,M,0.0,*5D
###2023-12-09 13:07:37.570106$GNGGA,180736.70,4138.0738678,N,07032.3603177,W,1,25,0.6,13.252,M,-29.743,M,0.0,*58
###2023-12-09 13:07:37.769205$GNGGA,180736.90,4138.0738356,N,07032.3600632,W,1,25,0.6,13.255,M,-29.743,M,0.0,*5D
###2023-12-09 13:07:37.971538$GNRMC,180737.10,A,4138.0738081,N,07032.3598060,W,3.48,95.88,091223,,,A*6D
###2023-12-09 13:07:37.974410$GNGGA,180737.10,4138.0738081,N,07032.3598060,W,1,25,0.6,13.252,M,-29.743,M,0.0,*59
###2023-12-09 13:07:37.976280$GPGSA,A,3,03,04,16,26,28,29,31,32,,,,,1.1,0.6,0.9*3B
###2023-12-09 13:07:37.978000$GLGSA,A,3,65,71,72,73,74,75,,,,,,,1.1,0.6,0.9*24
###2023-12-09 13:07:37.979601$GAGSA,A,3,04,19,21,27,,,,,,,,,1.1,0.6,0.9*26
###2023-12-09 13:07:37.981319$GBGSA,A,3,14,24,25,26,33,35,,,,,,,1.1,0.6,0.9*29
###2023-12-09 13:07:37.983663$GPGSV,2,1,08,03,34,258,45,04,35,311,42,16,53,214,48,26,83,210,49*74
###2023-12-09 13:07:37.985993$GPGSV,2,2,08,28,47,073,44,29,25,058,42,31,67,044,47,32,16,141,42*7F
###2023-12-09 13:07:37.988338$GLGSV,2,1,06,65,26,326,40,71,37,173,46,72,72,258,47,73,33,043,43*69
###2023-12-09 13:07:37.990084$GLGSV,2,2,06,74,68,345,43,75,34,256,47,,,,,,,,*6C
###2023-12-09 13:07:37.992418$GAGSV,1,1,04,04,31,312,42,19,83,203,41,21,85,092,46,27,31,048,43*60
###2023-12-09 13:07:37.994763$GBGSV,2,1,06,14,41,192,46,24,72,029,48,25,42,264,47,26,24,064,42*66
###2023-12-09 13:07:37.996514$GBGSV,2,2,06,33,56,229,48,35,15,067,43,,,,,,,,*6F
###2023-12-09 13:07:37.997806$GNVTG,95.88,T,,M,3.48,N,6.44,K,A*16
###2023-12-09 13:07:37.999460$GNGST,180737.10,18.000,,,,0.080,0.064,0.150*5B
###2023-12-09 13:07:38.000750$GNZDA,180737.10,09,12,2023,00,00*7A
###2023-12-09 13:07:38.001387$GNEBP,,,,,,M*13
###2023-12-09 13:07:38.169831$GNGGA,180737.30,4138.0737992,N,07032.3595479,W,1,25,0.6,13.267,M,-29.743,M,0.0,*58
###2023-12-09 13:07:38.369136$GNGGA,180737.50,4138.0737931,N,07032.3592815,W,1,25,0.6,13.280,M,-29.743,M,0.0,*5F
###2023-12-09 13:07:38.568965$GNGGA,180737.70,4138.0737613,N,07032.3590108,W,1,25,0.6,13.271,M,-29.743,M,0.0,*5B
###2023-12-09 13:07:38.769153$GNGGA,180737.90,4138.0737526,N,07032.3587438,W,1,25,0.6,13.284,M,-29.743,M,0.0,*5A
###2023-12-09 13:07:38.973318$GNRMC,180738.10,A,4138.0737561,N,07032.3584722,W,3.54,87.10,091223,,,A*65
###2023-12-09 13:07:38.976203$GNGGA,180738.10,4138.0737561,N,07032.3584722,W,1,25,0.6,13.290,M,-29.743,M,0.0,*50
###2023-12-09 13:07:38.978067$GPGSA,A,3,03,04,16,26,28,29,31,32,,,,,1.1,0.6,0.9*3B
###2023-12-09 13:07:38.979803$GLGSA,A,3,65,71,72,73,74,75,,,,,,,1.1,0.6,0.9*24
###2023-12-09 13:07:38.981389$GAGSA,A,3,04,19,21,27,,,,,,,,,1.1,0.6,0.9*26
###2023-12-09 13:07:38.983119$GBGSA,A,3,14,24,25,26,33,35,,,,,,,1.1,0.6,0.9*29
###2023-12-09 13:07:38.985441$GPGSV,2,1,08,03,34,258,46,04,35,311,44,16,53,214,47,26,83,210,48*7F
###2023-12-09 13:07:38.987780$GPGSV,2,2,08,28,47,073,44,29,25,058,41,31,67,044,47,32,16,141,42*7C
###2023-12-09 13:07:38.990115$GLGSV,2,1,06,65,26,326,40,71,37,173,45,72,72,258,46,73,33,043,44*6C
###2023-12-09 13:07:38.991877$GLGSV,2,2,06,74,68,345,43,75,34,256,48,,,,,,,,*63
###2023-12-09 13:07:38.994195$GAGSV,1,1,04,04,31,312,40,19,83,203,40,21,85,092,45,27,31,048,42*61
###2023-12-09 13:07:38.996529$GBGSV,2,1,06,14,41,192,45,24,72,029,48,25,42,264,46,26,24,064,42*64
###2023-12-09 13:07:38.998267$GBGSV,2,2,06,33,56,229,48,35,15,067,42,,,,,,,,*6E
###2023-12-09 13:07:38.999570$GNVTG,87.10,T,,M,3.54,N,6.55,K,A*19
###2023-12-09 13:07:39.001220$GNGST,180738.10,18.000,,,,0.080,0.064,0.150*54
###2023-12-09 13:07:39.002506$GNZDA,180738.10,09,12,2023,00,00*75
###2023-12-09 13:07:39.003156$GNEBP,,,,,,M*13
###2023-12-09 13:07:39.171184$GNGGA,180738.30,4138.0737713,N,07032.3582135,W,1,25,0.6,13.301,M,-29.743,M,0.0,*5A
###2023-12-09 13:07:39.369818$GNGGA,180738.50,4138.0737751,N,07032.3579353,W,1,25,0.6,13.311,M,-29.743,M,0.0,*5D
###2023-12-09 13:07:39.569044$GNGGA,180738.70,4138.0737777,N,07032.3576669,W,1,25,0.6,13.295,M,-29.743,M,0.0,*55
###2023-12-09 13:07:39.770176$GNGGA,180738.90,4138.0738245,N,07032.3574145,W,1,25,0.6,13.331,M,-29.743,M,0.0,*54
###2023-12-09 13:07:39.969585$GNRMC,180739.10,A,4138.0738639,N,07032.3571524,W,3.62,81.36,091223,,,A*6C
###2023-12-09 13:07:39.972488$GNGGA,180739.10,4138.0738639,N,07032.3571524,W,1,25,0.6,13.338,M,-29.743,M,0.0,*5D
###2023-12-09 13:07:39.974358$GPGSA,A,3,03,04,16,26,28,29,31,32,,,,,1.1,0.6,0.9*3B
###2023-12-09 13:07:39.976093$GLGSA,A,3,65,71,72,73,74,75,,,,,,,1.1,0.6,0.9*24
###2023-12-09 13:07:39.977684$GAGSA,A,3,04,19,21,27,,,,,,,,,1.1,0.6,0.9*26
###2023-12-09 13:07:39.979404$GBGSA,A,3,14,24,25,26,33,35,,,,,,,1.1,0.6,0.9*29
###2023-12-09 13:07:39.981740$GPGSV,2,1,08,03,34,258,46,04,35,311,44,16,53,214,47,26,83,210,49*7E
###2023-12-09 13:07:39.984094$GPGSV,2,2,08,28,47,073,43,29,25,058,41,31,67,044,47,32,16,141,41*78
###2023-12-09 13:07:39.986427$GLGSV,2,1,06,65,26,326,42,71,37,173,45,72,72,258,47,73,33,043,43*68
###2023-12-09 13:07:39.988194$GLGSV,2,2,06,74,68,345,43,75,34,256,47,,,,,,,,*6C
###2023-12-09 13:07:39.990532$GAGSV,1,1,04,04,31,312,42,19,83,203,41,21,85,092,46,27,31,048,40*63
###2023-12-09 13:07:39.993145$GBGSV,2,1,06,14,41,192,45,24,72,029,49,25,42,264,47,26,24,064,43*65
###2023-12-09 13:07:39.994940$GBGSV,2,2,06,33,56,229,48,35,15,067,41,,,,,,,,*6D
###2023-12-09 13:07:39.996253$GNVTG,81.36,T,,M,3.62,N,6.70,K,A*19
###2023-12-09 13:07:39.997909$GNGST,180739.10,18.000,,,,0.080,0.064,0.150*55
###2023-12-09 13:07:39.999217$GNZDA,180739.10,09,12,2023,00,00*74
###2023-12-09 13:07:39.999858$GNEBP,,,,,,M*13
###2023-12-09 13:07:40.166926$GNGGA,180739.30,4138.0738981,N,07032.3569001,W,1,25,0.6,13.321,M,-29.743,M,0.0,*50
###2023-12-09 13:07:40.368452$GNGGA,180739.50,4138.0739484,N,07032.3566532,W,1,25,0.6,13.351,M,-29.743,M,0.0,*52
###2023-12-09 13:07:40.567043$GNGGA,180739.70,4138.0739989,N,07032.3564044,W,1,25,0.6,13.360,M,-29.743,M,0.0,*54
###2023-12-09 13:07:40.767796$GNGGA,180739.90,4138.0740541,N,07032.3561570,W,1,25,0.6,13.338,M,-29.743,M,0.0,*56
