###2023-12-09 13:20:41.784293$GNGGA,182040.90,4138.0336812,N,07032.3275399,W,1,24,0.7,12.737,M,-29.744,M,0.0,*5D
###2023-12-09 13:20:41.990121$GNRMC,182041.10,A,4138.0334916,N,07032.3275301,W,3.48,183.73,091223,,,A*54
###2023-12-09 13:20:41.993603$GNGGA,182041.10,4138.0334916,N,07032.3275301,W,1,24,0.7,12.753,M,-29.744,M,0.0,*50
###2023-12-09 13:20:41.995780$GPGSA,A,3,03,04,16,26,28,29,31,,,,,,1.1,0.7,0.9*3B
###2023-12-09 13:20:41.997848$GLGSA,A,3,65,71,72,73,74,75,,,,,,,1.1,0.7,0.9*25
###2023-12-09 13:20:41.999762$GAGSA,A,3,04,19,21,27,,,,,,,,,1.1,0.7,0.9*27
###2023-12-09 13:20:42.001830$GBGSA,A,3,14,24,25,26,33,35,,,,,,,1.1,0.7,0.9*28
###2023-12-09 13:20:42.004678$GPGSV,2,1,07,03,31,253,41,04,40,310,45,16,59,217,45,26,89,196,48*77
###2023-12-09 13:20:42.007165$GPGSV,2,2,07,28,43,079,44,29,23,053,42,31,64,055,47,,,,*44
###2023-12-09 13:20:42.009964$GLGSV,2,1,06,65,33,323,43,71,31,174,42,72,69,237,46,73,28,047,44*65
###2023-12-09 13:20:42.011966$GLGSV,2,2,06,74,65,,43,75,38,262,47,,,,,,,,*58
###2023-12-09 13:20:42.014772$GAGSV,1,1,04,04,35,311,43,19,78,187,40,21,82,056,46,27,27,049,40*66
###2023-12-09 13:20:42.017604$GBGSV,2,1,06,14,35,191,43,24,67,039,49,25,47,270,47,26,20,067,45*67
###2023-12-09 13:20:42.019722$GBGSV,2,2,06,33,51,222,46,35,16,062,45,,,,,,,,*6D
###2023-12-09 13:20:42.021315$GNVTG,183.73,T,,M,3.48,N,6.44,K,A*24
###2023-12-09 13:20:42.023310$GNGST,182041.10,18.000,,,,0.100,0.069,0.160*58
###2023-12-09 13:20:42.024856$GNZDA,182041.10,09,12,2023,00,00*7E
###2023-12-09 13:20:42.025624$GNEBP,,,,,,M*13
###2023-12-09 13:20:42.184237$GNGGA,182041.30,4138.0332997,N,07032.3275537,W,1,24,0.7,12.775,M,-29.744,M,0.0,*5A
###2023-12-09 13:20:42.383841$GNGGA,182041.50,4138.0331097,N,07032.3275719,W,1,24,0.7,12.762,M,-29.744,M,0.0,*5E
###2023-12-09 13:20:42.584776$GNGGA,182041.70,4138.0329152,N,07032.3275700,W,1,24,0.7,12.727,M,-29.744,M,0.0,*54
###2023-12-09 13:20:42.784746$GNGGA,182041.90,4138.0327270,N,07032.3275857,W,1,24,0.7,12.721,M,-29.744,M,0.0,*5C
###2023-12-09 13:20:42.989991$GNRMC,182042.10,A,4138.0325364,N,07032.3276561,W,3.69,195.63,091223,,,A*5E
###2023-12-09 13:20:42.993464$GNGGA,182042.10,4138.0325364,N,07032.3276561,W,1,24,0.7,12.771,M,-29.744,M,0.0,*5F
###2023-12-09 13:20:42.995639$GPGSA,A,3,03,04,16,26,28,29,31,,,,,,1.1,0.7,0.9*3B
###2023-12-09 13:20:42.997714$GLGSA,A,3,65,71,72,73,74,75,,,,,,,1.1,0.7,0.9*25
###2023-12-09 13:20:42.999643$GAGSA,A,3,04,19,21,27,,,,,,,,,1.1,0.7,0.9*27
###2023-12-09 13:20:43.001708$GBGSA,A,3,14,24,25,26,33,35,,,,,,,1.1,0.7,0.9*28
###2023-12-09 13:20:43.004547$GPGSV,2,1,07,03,31,253,42,04,40,310,46,16,59,217,46,26,89,196,48*74
###2023-12-09 13:20:43.007022$GPGSV,2,2,07,28,43,079,44,29,23,053,41,31,64,055,47,,,,*47
###2023-12-09 13:20:43.009872$GLGSV,2,1,06,65,33,323,43,71,31,174,42,72,69,237,46,73,28,047,42*63
###2023-12-09 13:20:43.011900$GLGSV,2,2,06,74,65,,43,75,38,262,47,,,,,,,,*58
###2023-12-09 13:20:43.014739$GAGSV,1,1,04,04,35,311,45,19,78,187,40,21,82,056,46,27,27,049,40*60
###2023-12-09 13:20:43.017557$GBGSV,2,1,06,14,35,191,42,24,67,039,49,25,47,270,49,26,20,067,44*69
###2023-12-09 13:20:43.019696$GBGSV,2,2,06,33,51,222,47,35,16,062,44,,,,,,,,*6D
###2023-12-09 13:20:43.021316$GNVTG,195.63,T,,M,3.69,N,6.84,K,A*2D
###2023-12-09 13:20:43.023336$GNGST,182042.10,18.000,,,,0.100,0.069,0.160*5B
###2023-12-09 13:20:43.024907$GNZDA,182042.10,09,12,2023,00,00*7D
###2023-12-09 13:20:43.025681$GNEBP,,,,,,M*13
###2023-12-09 13:20:43.184176$GNGGA,182042.30,4138.0323445,N,07032.3276926,W,1,24,0.7,12.737,M,-29.744,M,0.0,*52
###2023-12-09 13:20:43.384708$GNGGA,182042.50,4138.0321614,N,07032.3276822,W,1,24,0.7,12.700,M,-29.744,M,0.0,*51
###2023-12-09 13:20:43.583643$GNGGA,182042.70,4138.0319700,N,07032.3277196,W,1,24,0.7,12.730,M,-29.744,M,0.0,*58
###2023-12-09 13:20:43.784103$GNGGA,182042.90,4138.0317750,N,07032.3277689,W,1,24,0.7,12.727,M,-29.744,M,0.0,*52
###2023-12-09 13:20:43.986697$GNRMC,182043.10,A,4138.0315878,N,07032.3277787,W,3.34,177.21,091223,,,A*53
###2023-12-09 13:20:43.989563$GNGGA,182043.10,4138.0315878,N,07032.3277787,W,1,24,0.7,12.728,M,-29.744,M,0.0,*5C
###2023-12-09 13:20:43.991373$GPGSA,A,3,03,04,16,26,28,29,31,,,,,,1.1,0.7,0.9*3B
###2023-12-09 13:20:43.993094$GLGSA,A,3,65,71,72,73,74,75,,,,,,,1.1,0.7,0.9*25
###2023-12-09 13:20:43.994692$GAGSA,A,3,04,19,21,27,,,,,,,,,1.1,0.7,0.9*27
###2023-12-09 13:20:43.996411$GBGSA,A,3,14,24,25,26,33,35,,,,,,,1.1,0.7,0.9*28
###2023-12-09 13:20:43.998755$GPGSV,2,1,07,03,31,253,44,04,40,310,45,16,59,217,46,26,89,196,48*71
###2023-12-09 13:20:44.000799$GPGSV,2,2,07,28,43,079,44,29,23,053,41,31,64,055,47,,,,*47
###2023-12-09 13:20:44.003147$GLGSV,2,1,06,65,33,323,44,71,30,174,43,72,69,237,46,73,28,047,42*64
###2023-12-09 13:20:44.004799$GLGSV,2,2,06,74,65,,43,75,38,262,47,,,,,,,,*58
###2023-12-09 13:20:44.007139$GAGSV,1,1,04,04,35,311,44,19,78,187,40,21,82,056,46,27,27,049,39*6F
###2023-12-09 13:20:44.009462$GBGSV,2,1,06,14,35,191,41,24,67,039,48,25,47,270,49,26,20,067,42*6D
###2023-12-09 13:20:44.011212$GBGSV,2,2,06,33,51,222,48,35,16,062,43,,,,,,,,*65
###2023-12-09 13:20:44.012534$GNVTG,177.21,T,,M,3.34,N,6.19,K,A*2B
###2023-12-09 13:20:44.014176$GNGST,182043.10,18.000,,,,0.100,0.069,0.160*5A
###2023-12-09 13:20:44.015470$GNZDA,182043.10,09,12,2023,00,00*7C
###2023-12-09 13:20:44.016106$GNEBP,,,,,,M*13
###2023-12-09 13:20:44.183650$GNGGA,182043.30,4138.0313972,N,07032.3277601,W,1,24,0.7,12.728,M,-29.744,M,0.0,*5C
###2023-12-09 13:20:44.383236$GNGGA,182043.50,4138.0312084,N,07032.3277397,W,1,24,0.7,12.703,M,-29.744,M,0.0,*58
###2023-12-09 13:20:44.585354$GNGGA,182043.70,4138.0310174,N,07032.3277382,W,1,24,0.7,12.716,M,-29.744,M,0.0,*56
###2023-12-09 13:20:44.784042$GNGGA,182043.90,4138.0308215,N,07032.3277416,W,1,24,0.7,12.724,M,-29.744,M,0.0,*5E
###2023-12-09 13:20:44.993830$GNRMC,182044.10,A,4138.0306359,N,07032.3276913,W,3.27,164.01,091223,,,A*5E
###2023-12-09 13:20:44.996751$GNGGA,182044.10,4138.0306359,N,07032.3276913,W,1,24,0.7,12.703,M,-29.744,M,0.0,*5A
###2023-12-09 13:20:44.998557$GPGSA,A,3,03,04,16,26,28,29,31,,,,,,1.1,0.7,0.9*3B
###2023-12-09 13:20:45.000294$GLGSA,A,3,65,71,72,73,74,75,,,,,,,1.1,0.7,0.9*25
###2023-12-09 13:20:45.001878$GAGSA,A,3,04,19,21,27,,,,,,,,,1.1,0.7,0.9*27
###2023-12-09 13:20:45.003607$GBGSA,A,3,14,24,25,26,33,35,,,,,,,1.1,0.7,0.9*28
###2023-12-09 13:20:45.005935$GPGSV,2,1,07,03,31,253,43,04,40,310,45,16,59,217,46,26,89,196,48*76
###2023-12-09 13:20:45.007985$GPGSV,2,2,07,28,43,079,45,29,23,053,42,31,64,055,47,,,,*45
###2023-12-09 13:20:45.010309$GLGSV,2,1,06,65,33,323,44,71,30,174,43,72,69,234,46,73,28,047,42*67
###2023-12-09 13:20:45.011968$GLGSV,2,2,06,74,65,,43,75,38,262,48,,,,,,,,*57
###2023-12-09 13:20:45.014296$GAGSV,1,1,04,04,35,311,43,19,78,187,40,21,82,056,45,27,27,049,39*6B
###2023-12-09 13:20:45.016630$GBGSV,2,1,06,14,35,191,42,24,67,039,49,25,47,270,49,26,20,067,43*6E
###2023-12-09 13:20:45.018368$GBGSV,2,2,06,33,51,222,48,35,16,062,42,,,,,,,,*64
###2023-12-09 13:20:45.019700$GNVTG,164.01,T,,M,3.27,N,6.05,K,A*24
###2023-12-09 13:20:45.021341$GNGST,182044.10,18.000,,,,0.100,0.069,0.160*5D
###2023-12-09 13:20:45.022637$GNZDA,182044.10,09,12,2023,00,00*7B
###2023-12-09 13:20:45.023275$GNEBP,,,,,,M*13
###2023-12-09 13:20:45.186122$GNGGA,182044.30,4138.0304550,N,07032.3276418,W,1,24,0.7,12.712,M,-29.744,M,0.0,*53
###2023-12-09 13:20:45.381888$GNGGA,182044.50,4138.0302626,N,07032.3276389,W,1,24,0.7,12.721,M,-29.744,M,0.0,*5E
###2023-12-09 13:20:45.583533$GNGGA,182044.70,4138.0300714,N,07032.3276249,W,1,24,0.7,12.703,M,-29.744,M,0.0,*53
###2023-12-09 13:20:45.783596$GNGGA,182044.90,4138.0298878,N,07032.3275998,W,1,24,0.7,12.700,M,-29.744,M,0.0,*5F
###2023-12-09 13:20:45.987078$GNRMC,182045.10,A,4138.0297007,N,07032.3275963,W,3.38,181.05,091223,,,A*5B
###2023-12-09 13:20:45.989950$GNGGA,182045.10,4138.0297007,N,07032.3275963,W,1,24,0.7,12.725,M,-29.744,M,0.0,*5A
###2023-12-09 13:20:45.991759$GPGSA,A,3,03,04,16,26,28,29,31,,,,,,1.1,0.7,0.9*3B
###2023-12-09 13:20:45.993481$GLGSA,A,3,65,71,72,73,74,75,,,,,,,1.1,0.7,0.9*25
###2023-12-09 13:20:45.995078$GAGSA,A,3,04,19,21,27,,,,,,,,,1.1,0.7,0.9*27
###2023-12-09 13:20:45.996794$GBGSA,A,3,14,24,25,26,33,35,,,,,,,1.1,0.7,0.9*28
###2023-12-09 13:20:45.999415$GPGSV,2,1,07,03,31,253,42,04,40,310,46,16,59,217,45,26,89,196,48*77
###2023-12-09 13:20:46.001475$GPGSV,2,2,07,28,43,079,44,29,23,053,42,31,64,055,47,,,,*44
###2023-12-09 13:20:46.003821$GLGSV,2,1,06,65,33,323,42,71,30,174,43,72,69,234,45,73,27,048,43*63
###2023-12-09 13:20:46.005471$GLGSV,2,2,06,74,65,,44,75,38,262,46,,,,,,,,*5E
###2023-12-09 13:20:46.007803$GAGSV,1,1,04,04,35,311,44,19,78,187,40,21,82,056,46,27,27,049,41*60
###2023-12-09 13:20:46.010131$GBGSV,2,1,06,14,35,191,42,24,67,039,50,25,47,270,48,26,20,067,43*67
###2023-12-09 13:20:46.011882$GBGSV,2,2,06,33,51,222,46,35,16,062,44,,,,,,,,*6C
###2023-12-09 13:20:46.013204$GNVTG,181.05,T,,M,3.38,N,6.26,K,A*24
###2023-12-09 13:20:46.014859$GNGST,182045.10,18.000,,,,0.100,0.069,0.160*5C
