###2023-12-09 13:26:10.015771$GBGSV,2,1,06,14,33,190,43,24,66,041,48,25,48,272,48,26,19,068,42*6F
###2023-12-09 13:26:10.017536$GBGSV,2,2,06,33,49,220,47,35,16,060,42,,,,,,,,*62
###2023-12-09 13:26:10.018840$GNVTG,25.78,T,,M,3.65,N,6.77,K,A*1D
###2023-12-09 13:26:10.020474$GNGST,182609.10,18.000,,,,0.100,0.070,0.170*5B
###2023-12-09 13:26:10.021757$GNZDA,182609.10,09,12,2023,00,00*74
###2023-12-09 13:26:10.022392$GNEBP,,,,,,M*13
###2023-12-09 13:26:10.189137$GNGGA,182609.30,4138.0622088,N,07032.3431254,W,1,24,0.6,12.986,M,-29.743,M,0.0,*53
###2023-12-09 13:26:10.388482$GNGGA,182609.50,4138.0623912,N,07032.3430189,W,1,24,0.6,13.004,M,-29.743,M,0.0,*5E
###2023-12-09 13:26:10.590979$GNGGA,182609.70,4138.0625742,N,07032.3429107,W,1,24,0.6,12.988,M,-29.743,M,0.0,*53
###2023-12-09 13:26:10.794918$GNGGA,182609.90,4138.0627542,N,07032.3428223,W,1,24,0.6,12.977,M,-29.743,M,0.0,*59
###2023-12-09 13:26:10.992920$GNRMC,182610.10,A,4138.0629338,N,07032.3427404,W,3.48,24.20,091223,,,A*60
###2023-12-09 13:26:10.995856$GNGGA,182610.10,4138.0629338,N,07032.3427404,W,1,24,0.6,12.980,M,-29.743,M,0.0,*58
###2023-12-09 13:26:10.997650$GPGSA,A,3,03,04,16,26,28,29,31,,,,,,1.1,0.6,0.9*3A
###2023-12-09 13:26:10.999378$GLGSA,A,3,65,71,72,73,74,75,,,,,,,1.1,0.6,0.9*24
###2023-12-09 13:26:11.000966$GAGSA,A,3,04,19,21,27,,,,,,,,,1.1,0.6,0.9*26
###2023-12-09 13:26:11.002721$GBGSA,A,3,14,24,25,26,33,35,,,,,,,1.1,0.6,0.9*29
###2023-12-09 13:26:11.005048$GPGSV,2,1,07,03,29,250,42,04,43,309,44,16,62,219,46,26,88,044,47*71
###2023-12-09 13:26:11.007108$GPGSV,2,2,07,28,41,081,43,29,22,050,39,31,62,060,46,,,,*49
###2023-12-09 13:26:11.009445$GLGSV,2,1,06,65,34,322,41,71,27,175,43,72,67,229,47,73,26,049,39*6C
###2023-12-09 13:26:11.011204$GLGSV,2,2,06,74,63,006,41,75,40,266,48,,,,,,,,*6E
###2023-12-09 13:26:11.013531$GAGSV,1,1,04,04,37,311,43,19,75,184,41,21,80,050,45,27,25,049,37*6E
###2023-12-09 13:26:11.015877$GBGSV,2,1,06,14,33,190,45,24,66,041,47,25,48,272,47,26,19,068,42*69
###2023-12-09 13:26:11.017629$GBGSV,2,2,06,33,49,220,48,35,16,060,41,,,,,,,,*6E
###2023-12-09 13:26:11.018931$GNVTG,24.20,T,,M,3.48,N,6.44,K,A*1E
###2023-12-09 13:26:11.020579$GNGST,182610.10,18.000,,,,0.100,0.070,0.170*53
###2023-12-09 13:26:11.021873$GNZDA,182610.10,09,12,2023,00,00*7C
###2023-12-09 13:26:11.022512$GNEBP,,,,,,M*13
###2023-12-09 13:26:11.188175$GNGGA,182610.30,4138.0631083,N,07032.3426275,W,1,24,0.6,12.963,M,-29.743,M,0.0,*5C
###2023-12-09 13:26:11.388724$GNGGA,182610.50,4138.0632844,N,07032.3425449,W,1,24,0.6,12.964,M,-29.743,M,0.0,*57
###2023-12-09 13:26:11.588862$GNGGA,182610.70,4138.0634671,N,07032.3424926,W,1,24,0.6,12.982,M,-29.743,M,0.0,*56
###2023-12-09 13:26:11.788257$GNGGA,182610.90,4138.0636582,N,07032.3424494,W,1,24,0.6,12.992,M,-29.743,M,0.0,*50
###2023-12-09 13:26:11.992322$GNRMC,182611.10,A,4138.0638586,N,07032.3424008,W,3.65,11.42,091223,,,A*64
###2023-12-09 13:26:11.995195$GNGGA,182611.10,4138.0638586,N,07032.3424008,W,1,24,0.6,12.986,M,-29.743,M,0.0,*57
###2023-12-09 13:26:11.996982$GPGSA,A,3,03,04,16,26,28,29,31,,,,,,1.1,0.6,0.9*3A
###2023-12-09 13:26:11.998703$GLGSA,A,3,65,71,72,73,74,75,,,,,,,1.1,0.6,0.9*24
###2023-12-09 13:26:12.000281$GAGSA,A,3,04,19,21,27,,,,,,,,,1.1,0.6,0.9*26
###2023-12-09 13:26:12.001987$GBGSA,A,3,14,24,25,26,33,35,,,,,,,1.1,0.6,0.9*29
###2023-12-09 13:26:12.004331$GPGSV,2,1,07,03,29,250,42,04,43,309,45,16,62,219,46,26,88,044,48*7F
###2023-12-09 13:26:12.006364$GPGSV,2,2,07,28,41,081,44,29,22,050,40,31,62,060,46,,,,*40
###2023-12-09 13:26:12.008709$GLGSV,2,1,06,65,34,322,42,71,27,175,44,72,67,229,47,73,26,049,41*67
###2023-12-09 13:26:12.010450$GLGSV,2,2,06,74,63,006,41,75,40,266,47,,,,,,,,*61
###2023-12-09 13:26:12.012787$GAGSV,1,1,04,04,37,311,45,19,75,184,41,21,80,050,46,27,25,049,39*65
###2023-12-09 13:26:12.015135$GBGSV,2,1,06,14,33,190,44,24,66,041,48,25,48,272,47,26,19,068,42*67
###2023-12-09 13:26:12.016879$GBGSV,2,2,06,33,49,220,47,35,16,060,41,,,,,,,,*61
###2023-12-09 13:26:12.018166$GNVTG,11.42,T,,M,3.65,N,6.77,K,A*13
###2023-12-09 13:26:12.019823$GNGST,182611.10,18.000,,,,0.100,0.070,0.170*52
###2023-12-09 13:26:12.021111$GNZDA,182611.10,09,12,2023,00,00*7D
###2023-12-09 13:26:12.021749$GNEBP,,,,,,M*13
###2023-12-09 13:26:12.191055$GNGGA,182611.30,4138.0640633,N,07032.3423519,W,1,24,0.6,12.982,M,-29.743,M,0.0,*51
###2023-12-09 13:26:12.387407$GNGGA,182611.50,4138.0642722,N,07032.3423048,W,1,24,0.6,12.978,M,-29.743,M,0.0,*50
###2023-12-09 13:26:12.588934$GNGGA,182611.70,4138.0644804,N,07032.3422508,W,1,24,0.6,12.959,M,-29.743,M,0.0,*5C
###2023-12-09 13:26:12.789596$GNGGA,182611.90,4138.0646856,N,07032.3422024,W,1,24,0.6,12.943,M,-29.743,M,0.0,*57
###2023-12-09 13:26:12.993249$GNRMC,182612.10,A,4138.0648886,N,07032.3421616,W,3.69,7.78,091223,,,A*53
###2023-12-09 13:26:12.996098$GNGGA,182612.10,4138.0648886,N,07032.3421616,W,1,24,0.6,12.946,M,-29.743,M,0.0,*5E
###2023-12-09 13:26:12.997882$GPGSA,A,3,03,04,16,26,28,29,31,,,,,,1.1,0.6,0.9*3A
###2023-12-09 13:26:12.999605$GLGSA,A,3,65,71,72,73,74,75,,,,,,,1.1,0.6,0.9*24
###2023-12-09 13:26:13.001181$GAGSA,A,3,04,19,21,27,,,,,,,,,1.1,0.6,0.9*26
###2023-12-09 13:26:13.002898$GBGSA,A,3,14,24,25,26,33,35,,,,,,,1.1,0.6,0.9*29
###2023-12-09 13:26:13.005224$GPGSV,2,1,07,03,29,250,42,04,43,309,45,16,62,219,47,26,88,044,48*7E
###2023-12-09 13:26:13.007264$GPGSV,2,2,07,28,41,081,44,29,22,050,39,31,62,060,45,,,,*4D
###2023-12-09 13:26:13.009584$GLGSV,2,1,06,65,34,322,42,71,27,175,42,72,67,229,47,73,26,049,39*6E
###2023-12-09 13:26:13.011374$GLGSV,2,2,06,74,63,006,41,75,40,266,47,,,,,,,,*61
###2023-12-09 13:26:13.013695$GAGSV,1,1,04,04,37,311,43,19,75,184,41,21,80,050,46,27,25,049,37*6D
###2023-12-09 13:26:13.016019$GBGSV,2,1,06,14,33,190,44,24,66,041,47,25,48,272,48,26,19,068,42*67
###2023-12-09 13:26:13.017761$GBGSV,2,2,06,33,49,220,47,35,16,060,42,,,,,,,,*62
###2023-12-09 13:26:13.019028$GNVTG,7.78,T,,M,3.69,N,6.84,K,A*2D
###2023-12-09 13:26:13.020667$GNGST,182612.10,18.000,,,,0.100,0.070,0.170*51
###2023-12-09 13:26:13.021950$GNZDA,182612.10,09,12,2023,00,00*7E
###2023-12-09 13:26:13.022595$GNEBP,,,,,,M*13
###2023-12-09 13:26:13.189084$GNGGA,182612.30,4138.0650934,N,07032.3421263,W,1,24,0.6,12.951,M,-29.743,M,0.0,*5D
###2023-12-09 13:26:13.392402$GNGGA,182612.50,4138.0652983,N,07032.3420948,W,1,24,0.6,12.940,M,-29.743,M,0.0,*56
###2023-12-09 13:26:13.587406$GNGGA,182612.70,4138.0655055,N,07032.3420709,W,1,24,0.6,12.931,M,-29.743,M,0.0,*5C
###2023-12-09 13:26:13.788175$GNGGA,182612.90,4138.0657151,N,07032.3420642,W,1,24,0.6,12.930,M,-29.743,M,0.0,*5A
###2023-12-09 13:26:13.991885$GNRMC,182613.10,A,4138.0659265,N,07032.3420634,W,3.79,1.69,091223,,,A*53
###2023-12-09 13:26:13.994755$GNGGA,182613.10,4138.0659265,N,07032.3420634,W,1,24,0.6,12.938,M,-29.743,M,0.0,*50
###2023-12-09 13:26:13.996546$GPGSA,A,3,03,04,16,26,28,29,31,,,,,,1.1,0.6,0.9*3A
###2023-12-09 13:26:13.998259$GLGSA,A,3,65,71,72,73,74,75,,,,,,,1.1,0.6,0.9*24
###2023-12-09 13:26:13.999850$GAGSA,A,3,04,19,21,27,,,,,,,,,1.1,0.6,0.9*26
###2023-12-09 13:26:14.001558$GBGSA,A,3,14,24,25,26,33,35,,,,,,,1.1,0.6,0.9*29
###2023-12-09 13:26:14.003896$GPGSV,2,1,07,03,29,250,43,04,43,309,45,16,62,219,47,26,88,044,48*7F
###2023-12-09 13:26:14.005935$GPGSV,2,2,07,28,41,081,43,29,22,050,40,31,62,060,46,,,,*47
###2023-12-09 13:26:14.008270$GLGSV,2,1,06,65,34,322,43,71,27,175,43,72,67,229,47,73,26,049,42*62
###2023-12-09 13:26:14.010016$GLGSV,2,2,06,74,63,006,41,75,40,266,47,,,,,,,,*61
###2023-12-09 13:26:14.012357$GAGSV,1,1,04,04,37,311,44,19,75,184,41,21,80,050,46,27,25,049,39*64
###2023-12-09 13:26:14.014696$GBGSV,2,1,06,14,33,190,44,24,66,041,47,25,48,272,48,26,19,068,40*65
###2023-12-09 13:26:14.016434$GBGSV,2,2,06,33,49,220,47,35,16,060,41,,,,,,,,*61
###2023-12-09 13:26:14.017685$GNVTG,1.69,T,,M,3.79,N,7.02,K,A*25
###2023-12-09 13:26:14.019339$GNGST,182613.10,18.000,,,,0.100,0.070,0.170*50
###2023-12-09 13:26:14.020628$GNZDA,182613.10,09,12,2023,00,00*7F
###2023-12-09 13:26:14.021266$GNEBP,,,,,,M*13
###2023-12-09 13:26:14.189924$GNGGA,182613.30,4138.0661374,N,07032.3420494,W,1,24,0.6,12.938,M,-29.743,M,0.0,*50
###2023-12-09 13:26:14.387212$GNGGA,182613.50,4138.0663489,N,07032.3420328,W,1,24,0.6,12.929,M,-29.743,M,0.0,*51
###2023-12-09 13:26:14.589868$GNGGA,182613.70,4138.0665577,N,07032.3420344,W,1,24,0.6,12.918,M,-29.743,M,0.0,*5D
###2023-12-09 13:26:14.787879$GNGGA,182613.90,4138.0667644,N,07032.3420574,W,1,24,0.6,12.915,M,-29.743,M,0.0,*5A
###2023-12-09 13:26:14.994128$GNRMC,182614.10,A,4138.0669668,N,07032.3420731,W,3.62,359.22,091223,,,A*51
###2023-12-09 13:26:14.997607$GNGGA,182614.10,4138.0669668,N,07032.3420731,W,1,24,0.6,12.915,M,-29.743,M,0.0,*56
###2023-12-09 13:26:14.999789$GPGSA,A,3,03,04,16,26,28,29,31,,,,,,1.1,0.6,0.9*3A
###2023-12-09 13:26:15.001853$GLGSA,A,3,65,71,72,73,74,75,,,,,,,1.1,0.6,0.9*24
###2023-12-09 13:26:15.003774$GAGSA,A,3,04,19,21,27,,,,,,,,,1.1,0.6,0.9*26
###2023-12-09 13:26:15.005841$GBGSA,A,3,14,24,25,26,33,35,,,,,,,1.1,0.6,0.9*29
