###2023-12-09 13:14:53.995495$GPGSV,2,2,07,28,45,076,44,29,24,055,43,31,65,050,47,,,,*49
###2023-12-09 13:14:53.997851$GLGSV,2,1,06,65,30,325,44,71,33,174,42,72,71,243,47,73,30,046,44*66
###2023-12-09 13:14:53.999628$GLGSV,2,2,06,74,66,355,43,75,37,260,47,,,,,,,,*65
###2023-12-09 13:14:54.001958$GAGSV,1,1,04,04,33,312,44,19,80,192,40,21,84,066,46,27,29,048,42*6F
###2023-12-09 13:14:54.004296$GBGSV,2,1,06,14,37,191,42,24,69,035,49,25,45,267,47,26,22,066,45*61
###2023-12-09 13:14:54.006041$GBGSV,2,2,06,33,53,225,48,35,16,064,44,,,,,,,,*61
###2023-12-09 13:14:54.007390$GNVTG,139.66,T,,M,3.38,N,6.26,K,A*22
###2023-12-09 13:14:54.009036$GNGST,181453.10,18.000,,,,0.097,0.069,0.170*52
###2023-12-09 13:14:54.010325$GNZDA,181453.10,09,12,2023,00,00*7A
###2023-12-09 13:14:54.010974$GNEBP,,,,,,M*13
###2023-12-09 13:14:54.178182$GNGGA,181453.30,4138.0271136,N,07032.2954343,W,1,24,0.7,12.935,M,-29.744,M,0.0,*5D
###2023-12-09 13:14:54.378107$GNGGA,181453.50,4138.0269567,N,07032.2952823,W,1,24,0.7,12.931,M,-29.744,M,0.0,*5D
###2023-12-09 13:14:54.579724$GNGGA,181453.70,4138.0268029,N,07032.2951220,W,1,24,0.7,12.931,M,-29.744,M,0.0,*5B
###2023-12-09 13:14:54.779308$GNGGA,181453.90,4138.0266475,N,07032.2949713,W,1,24,0.7,12.935,M,-29.744,M,0.0,*5E
###2023-12-09 13:14:54.983666$GNRMC,181454.10,A,4138.0264921,N,07032.2948229,W,3.50,144.83,091223,,,A*55
###2023-12-09 13:14:54.986530$GNGGA,181454.10,4138.0264921,N,07032.2948229,W,1,24,0.7,12.936,M,-29.744,M,0.0,*51
###2023-12-09 13:14:54.988346$GPGSA,A,3,03,04,16,26,28,29,31,,,,,,1.2,0.7,1.0*30
###2023-12-09 13:14:54.990062$GLGSA,A,3,65,71,72,73,74,75,,,,,,,1.2,0.7,1.0*2E
###2023-12-09 13:14:54.991666$GAGSA,A,3,04,19,21,27,,,,,,,,,1.2,0.7,1.0*2C
###2023-12-09 13:14:54.993388$GBGSA,A,3,14,24,25,26,33,35,,,,,,,1.2,0.7,1.0*23
###2023-12-09 13:14:54.995731$GPGSV,2,1,07,03,32,255,43,04,38,311,44,16,56,215,45,26,86,209,47*77
###2023-12-09 13:14:54.997762$GPGSV,2,2,07,28,45,076,45,29,24,055,45,31,65,050,47,,,,*4E
###2023-12-09 13:14:55.000093$GLGSV,2,1,06,65,30,325,44,71,33,174,43,72,71,243,47,73,30,046,45*66
###2023-12-09 13:14:55.001837$GLGSV,2,2,06,74,66,355,43,75,37,260,47,,,,,,,,*65
###2023-12-09 13:14:55.004180$GAGSV,1,1,04,04,33,312,44,19,80,192,40,21,84,066,46,27,29,048,43*6E
###2023-12-09 13:14:55.006506$GBGSV,2,1,06,14,37,191,41,24,69,035,48,25,45,267,46,26,22,066,44*63
###2023-12-09 13:14:55.008253$GBGSV,2,2,06,33,53,225,47,35,16,064,43,,,,,,,,*69
###2023-12-09 13:14:55.009577$GNVTG,144.83,T,,M,3.50,N,6.48,K,A*25
###2023-12-09 13:14:55.011229$GNGST,181454.10,18.000,,,,0.098,0.069,0.170*5A
###2023-12-09 13:14:55.012518$GNZDA,181454.10,09,12,2023,00,00*7D
###2023-12-09 13:14:55.013158$GNEBP,,,,,,M*13
###2023-12-09 13:14:55.179137$GNGGA,181454.30,4138.0263366,N,07032.2946804,W,1,24,0.7,12.928,M,-29.744,M,0.0,*59
###2023-12-09 13:14:55.379105$GNGGA,181454.50,4138.0261857,N,07032.2945279,W,1,24,0.7,12.923,M,-29.744,M,0.0,*5C
###2023-12-09 13:14:55.579117$GNGGA,181454.70,4138.0260376,N,07032.2943815,W,1,24,0.7,12.931,M,-29.744,M,0.0,*52
###2023-12-09 13:14:55.778424$GNGGA,181454.90,4138.0258912,N,07032.2942244,W,1,24,0.7,12.935,M,-29.744,M,0.0,*54
###2023-12-09 13:14:55.981888$GNRMC,181455.10,A,4138.0257462,N,07032.2940606,W,3.19,139.13,091223,,,A*51
###2023-12-09 13:14:55.984782$GNGGA,181455.10,4138.0257462,N,07032.2940606,W,1,24,0.7,12.919,M,-29.744,M,0.0,*56
###2023-12-09 13:14:55.986602$GPGSA,A,3,03,04,16,26,28,29,31,,,,,,1.2,0.7,1.0*30
###2023-12-09 13:14:55.988323$GLGSA,A,3,65,71,72,73,74,75,,,,,,,1.2,0.7,1.0*2E
###2023-12-09 13:14:55.989909$GAGSA,A,3,04,19,21,27,,,,,,,,,1.2,0.7,1.0*2C
###2023-12-09 13:14:55.991639$GBGSA,A,3,14,24,25,26,33,35,,,,,,,1.2,0.7,1.0*23
###2023-12-09 13:14:55.993981$GPGSV,2,1,07,03,32,255,44,04,38,311,46,16,56,215,47,26,86,209,48*7F
###2023-12-09 13:14:55.996044$GPGSV,2,2,07,28,45,076,45,29,24,055,45,31,65,050,47,,,,*4E
###2023-12-09 13:14:55.998379$GLGSV,2,1,06,65,30,325,44,71,33,174,44,72,71,243,47,73,30,046,45*61
###2023-12-09 13:14:56.000144$GLGSV,2,2,06,74,66,355,43,75,37,260,47,,,,,,,,*65
###2023-12-09 13:14:56.002483$GAGSV,1,1,04,04,33,312,44,19,80,192,40,21,84,066,46,27,29,048,44*69
###2023-12-09 13:14:56.004837$GBGSV,2,1,06,14,37,191,42,24,69,035,48,25,45,267,46,26,22,066,44*60
###2023-12-09 13:14:56.006605$GBGSV,2,2,06,33,53,225,48,35,16,064,44,,,,,,,,*61
###2023-12-09 13:14:56.007932$GNVTG,139.13,T,,M,3.19,N,5.90,K,A*2D
###2023-12-09 13:14:56.009578$GNGST,181455.10,18.000,,,,0.098,0.069,0.170*5B
###2023-12-09 13:14:56.010912$GNZDA,181455.10,09,12,2023,00,00*7C
###2023-12-09 13:14:56.011553$GNEBP,,,,,,M*13
###2023-12-09 13:14:56.177147$GNGGA,181455.30,4138.0256130,N,07032.2938953,W,1,24,0.7,12.922,M,-29.744,M,0.0,*5F
###2023-12-09 13:14:56.377761$GNGGA,181455.50,4138.0254669,N,07032.2937250,W,1,24,0.7,12.937,M,-29.744,M,0.0,*53
###2023-12-09 13:14:56.578796$GNGGA,181455.70,4138.0253295,N,07032.2935637,W,1,24,0.7,12.912,M,-29.744,M,0.0,*51
###2023-12-09 13:14:56.779295$GNGGA,181455.90,4138.0251910,N,07032.2933911,W,1,24,0.7,12.930,M,-29.744,M,0.0,*56
###2023-12-09 13:14:56.987541$GNRMC,181456.10,A,4138.0250543,N,07032.2932208,W,3.32,136.16,091223,,,A*5B
###2023-12-09 13:14:56.990404$GNGGA,181456.10,4138.0250543,N,07032.2932208,W,1,24,0.7,12.916,M,-29.744,M,0.0,*50
###2023-12-09 13:14:56.992205$GPGSA,A,3,03,04,16,26,28,29,31,,,,,,1.2,0.7,1.0*30
###2023-12-09 13:14:56.993921$GLGSA,A,3,65,71,72,73,74,75,,,,,,,1.2,0.7,1.0*2E
###2023-12-09 13:14:56.995507$GAGSA,A,3,04,19,21,27,,,,,,,,,1.2,0.7,1.0*2C
###2023-12-09 13:14:56.997210$GBGSA,A,3,14,24,25,26,33,35,,,,,,,1.2,0.7,1.0*23
###2023-12-09 13:14:56.999541$GPGSV,2,1,07,03,32,255,43,04,38,311,45,16,56,215,46,26,86,209,48*7A
###2023-12-09 13:14:57.001575$GPGSV,2,2,07,28,45,076,45,29,24,055,45,31,65,050,47,,,,*4E
###2023-12-09 13:14:57.003911$GLGSV,2,1,06,65,30,325,44,71,33,174,43,72,71,243,47,73,30,046,44*67
###2023-12-09 13:14:57.005656$GLGSV,2,2,06,74,66,355,43,75,37,260,46,,,,,,,,*64
###2023-12-09 13:14:57.007984$GAGSV,1,1,04,04,33,312,45,19,80,192,40,21,84,066,46,27,29,048,42*6E
###2023-12-09 13:14:57.010306$GBGSV,2,1,06,14,37,191,43,24,69,035,49,25,45,267,47,26,22,066,45*60
###2023-12-09 13:14:57.012060$GBGSV,2,2,06,33,53,225,48,35,16,064,45,,,,,,,,*60
###2023-12-09 13:14:57.013378$GNVTG,136.16,T,,M,3.32,N,6.16,K,A*23
###2023-12-09 13:14:57.015027$GNGST,181456.10,18.000,,,,0.098,0.069,0.170*58
###2023-12-09 13:14:57.016309$GNZDA,181456.10,09,12,2023,00,00*7F
###2023-12-09 13:14:57.016943$GNEBP,,,,,,M*13
###2023-12-09 13:14:57.180745$GNGGA,181456.30,4138.0249106,N,07032.2930505,W,1,24,0.7,12.911,M,-29.744,M,0.0,*50
###2023-12-09 13:14:57.379161$GNGGA,181456.50,4138.0247610,N,07032.2928978,W,1,24,0.7,12.914,M,-29.744,M,0.0,*52
###2023-12-09 13:14:57.579376$GNGGA,181456.70,4138.0246225,N,07032.2927332,W,1,24,0.7,12.928,M,-29.744,M,0.0,*57
###2023-12-09 13:14:57.779146$GNGGA,181456.90,4138.0244771,N,07032.2925639,W,1,24,0.7,12.925,M,-29.744,M,0.0,*5E
###2023-12-09 13:14:57.980831$GNRMC,181457.10,A,4138.0243396,N,07032.2924058,W,3.42,138.88,091223,,,A*58
###2023-12-09 13:14:57.983703$GNGGA,181457.10,4138.0243396,N,07032.2924058,W,1,24,0.7,12.917,M,-29.744,M,0.0,*5C
###2023-12-09 13:14:57.985491$GPGSA,A,3,03,04,16,26,28,29,31,,,,,,1.2,0.7,1.0*30
###2023-12-09 13:14:57.987222$GLGSA,A,3,65,71,72,73,74,75,,,,,,,1.2,0.7,1.0*2E
###2023-12-09 13:14:57.988806$GAGSA,A,3,04,19,21,27,,,,,,,,,1.2,0.7,1.0*2C
###2023-12-09 13:14:57.990511$GBGSA,A,3,14,24,25,26,33,35,,,,,,,1.2,0.7,1.0*23
###2023-12-09 13:14:57.992848$GPGSV,2,1,07,03,32,255,42,04,38,311,45,16,56,215,46,26,86,209,49*7A
###2023-12-09 13:14:57.994891$GPGSV,2,2,07,28,45,076,44,29,24,055,44,31,65,050,47,,,,*4E
###2023-12-09 13:14:57.997228$GLGSV,2,1,06,65,30,325,44,71,33,174,42,72,71,243,46,73,30,046,45*66
###2023-12-09 13:14:57.998995$GLGSV,2,2,06,74,66,355,43,75,37,260,46,,,,,,,,*64
###2023-12-09 13:14:58.001333$GAGSV,1,1,04,04,33,312,44,19,80,192,40,21,84,066,46,27,29,048,43*6E
###2023-12-09 13:14:58.003680$GBGSV,2,1,06,14,37,191,41,24,69,035,48,25,45,267,46,26,22,066,44*63
###2023-12-09 13:14:58.005432$GBGSV,2,2,06,33,53,225,48,35,16,064,44,,,,,,,,*61
###2023-12-09 13:14:58.006773$GNVTG,138.88,T,,M,3.42,N,6.34,K,A*2D
###2023-12-09 13:14:58.008657$GNGST,181457.10,18.000,,,,0.097,0.069,0.170*56
###2023-12-09 13:14:58.009959$GNZDA,181457.10,09,12,2023,00,00*7E
###2023-12-09 13:14:58.010620$GNEBP,,,,,,M*13
###2023-12-09 13:14:58.177833$GNGGA,181457.30,4138.0241942,N,07032.2922376,W,1,24,0.7,12.931,M,-29.744,M,0.0,*52
###2023-12-09 13:14:58.379240$GNGGA,181457.50,4138.0240539,N,07032.2920762,W,1,24,0.7,12.914,M,-29.744,M,0.0,*51
###2023-12-09 13:14:58.579216$GNGGA,181457.70,4138.0239136,N,07032.2919098,W,1,24,0.7,12.920,M,-29.744,M,0.0,*59
###2023-12-09 13:14:58.779321$GNGGA,181457.90,4138.0237739,N,07032.2917385,W,1,24,0.7,12.918,M,-29.744,M,0.0,*5A
###2023-12-09 13:14:58.981787$GNRMC,181458.10,A,4138.0236265,N,07032.2915722,W,3.46,139.17,091223,,,A*53
###2023-12-09 13:14:58.984651$GNGGA,181458.10,4138.0236265,N,07032.2915722,W,1,24,0.7,12.918,M,-29.744,M,0.0,*5B
