###2023-12-09 12:33:21.953487$GLGSV,1,1,04,71,58,169,48,72,65,311,40,73,49,033,48,74,71,287,37*60
###2023-12-09 12:33:21.955749$GAGSV,1,1,03,04,20,311,36,21,77,177,46,27,42,050,43,,,,*5A
###2023-12-09 12:33:21.958213$GBGSV,2,1,05,14,56,198,43,24,81,339,42,25,32,252,41,26,36,057,45*68
###2023-12-09 12:33:21.960010$GBGSV,2,2,05,33,63,257,44,,,,,,,,,,,,*5B
###2023-12-09 12:33:21.961592$GNVTG,108.16,T,,M,0.99,N,1.84,K,A*20
###2023-12-09 12:33:21.963463$GNGST,173321.10,21.000,,,,0.130,0.130,0.270*55
###2023-12-09 12:33:21.964899$GNZDA,173321.10,09,12,2023,00,00*75
###2023-12-09 12:33:21.965654$GNEBP,,,,,,M*13
###2023-12-09 12:33:22.132004$GNGGA,173321.30,4138.0457689,N,07032.4305307,W,1,18,0.9,13.296,M,-29.745,M,0.0,*58
###2023-12-09 12:33:22.331819$GNGGA,173321.50,4138.0457700,N,07032.4305164,W,1,19,0.9,13.307,M,-29.745,M,0.0,*51
###2023-12-09 12:33:22.531132$GNGGA,173321.70,4138.0457752,N,07032.4304874,W,1,17,0.9,13.316,M,-29.745,M,0.0,*53
###2023-12-09 12:33:22.728937$GNGGA,173321.90,4138.0457662,N,07032.4304386,W,1,17,0.9,13.316,M,-29.745,M,0.0,*59
###2023-12-09 12:33:22.932238$GNRMC,173322.10,A,4138.0457654,N,07032.4304085,W,0.39,108.16,091223,,,A*5D
###2023-12-09 12:33:22.935195$GNGGA,173322.10,4138.0457654,N,07032.4304085,W,1,17,0.9,13.302,M,-29.745,M,0.0,*52
###2023-12-09 12:33:22.937005$GPGSA,A,3,03,16,26,28,29,31,32,,,,,,1.7,0.9,1.4*3A
###2023-12-09 12:33:22.938533$GLGSA,A,3,71,72,73,,,,,,,,,,1.7,0.9,1.4*23
###2023-12-09 12:33:22.940023$GAGSA,A,3,21,27,,,,,,,,,,,1.7,0.9,1.4*2F
###2023-12-09 12:33:22.941674$GBGSA,A,3,14,24,25,26,33,,,,,,,,1.7,0.9,1.4*2A
###2023-12-09 12:33:22.944019$GPGSV,2,1,07,03,39,278,38,16,36,207,40,26,65,206,46,28,58,055,47*74
###2023-12-09 12:33:22.946072$GPGSV,2,2,07,29,25,075,44,31,73,358,37,32,31,134,45,,,,*48
###2023-12-09 12:33:22.948196$GLGSV,1,1,03,71,58,169,47,72,65,311,36,73,49,033,46,,,,*5B
###2023-12-09 12:33:22.949981$GAGSV,1,1,02,21,77,177,44,27,42,050,45,,,,,,,,*6F
###2023-12-09 12:33:22.952332$GBGSV,2,1,05,14,56,198,44,24,81,339,41,25,32,252,44,26,36,057,48*64
###2023-12-09 12:33:22.953788$GBGSV,2,2,05,33,63,257,44,,,,,,,,,,,,*5B
###2023-12-09 12:33:22.955128$GNVTG,108.16,T,,M,0.39,N,0.72,K,A*22
###2023-12-09 12:33:22.956778$GNGST,173322.10,22.000,,,,0.130,0.130,0.270*55
###2023-12-09 12:33:22.958075$GNZDA,173322.10,09,12,2023,00,00*76
###2023-12-09 12:33:22.958742$GNEBP,,,,,,M*13
###2023-12-09 12:33:23.129799$GNGGA,173322.30,4138.0457746,N,07032.4303724,W,1,18,0.9,13.306,M,-29.745,M,0.0,*52
###2023-12-09 12:33:23.328492$GNGGA,173322.50,4138.0457770,N,07032.4303317,W,1,18,0.9,13.299,M,-29.745,M,0.0,*52
###2023-12-09 12:33:23.528630$GNGGA,173322.70,4138.0457735,N,07032.4302972,W,1,18,0.8,13.280,M,-29.745,M,0.0,*50
###2023-12-09 12:33:23.729914$GNGGA,173322.90,4138.0457773,N,07032.4302555,W,1,18,0.8,13.278,M,-29.745,M,0.0,*52
###2023-12-09 12:33:23.933190$GNRMC,173323.10,A,4138.0457758,N,07032.4302121,W,0.56,108.16,091223,,,A*51
###2023-12-09 12:33:23.936227$GNGGA,173323.10,4138.0457758,N,07032.4302121,W,1,18,0.8,13.280,M,-29.745,M,0.0,*52
###2023-12-09 12:33:23.938039$GPGSA,A,3,03,16,26,28,29,31,32,,,,,,1.5,0.8,1.2*3F
###2023-12-09 12:33:23.939650$GLGSA,A,3,71,73,74,75,,,,,,,,,1.5,0.8,1.2*22
###2023-12-09 12:33:23.941157$GAGSA,A,3,21,27,,,,,,,,,,,1.5,0.8,1.2*2A
###2023-12-09 12:33:23.942828$GBGSA,A,3,14,24,25,26,33,,,,,,,,1.5,0.8,1.2*2F
###2023-12-09 12:33:23.945165$GPGSV,2,1,07,03,39,278,39,16,36,207,42,26,65,206,47,28,58,055,45*74
###2023-12-09 12:33:23.947252$GPGSV,2,2,07,29,25,075,40,31,73,358,38,32,31,134,44,,,,*42
###2023-12-09 12:33:23.949617$GLGSV,1,1,04,71,58,169,48,73,49,033,44,74,71,287,35,75,21,240,36*6D
###2023-12-09 12:33:23.951405$GAGSV,1,1,02,21,77,177,47,27,42,050,45,,,,,,,,*6C
###2023-12-09 12:33:23.953759$GBGSV,2,1,05,14,56,198,45,24,81,339,41,25,32,252,41,26,36,057,37*68
###2023-12-09 12:33:23.955400$GBGSV,2,2,05,33,63,257,42,,,,,,,,,,,,*5D
###2023-12-09 12:33:23.956746$GNVTG,108.16,T,,M,0.56,N,1.04,K,A*2B
###2023-12-09 12:33:23.958404$GNGST,173323.10,22.000,,,,0.130,0.130,0.270*54
###2023-12-09 12:33:23.959722$GNZDA,173323.10,09,12,2023,00,00*77
###2023-12-09 12:33:23.960373$GNEBP,,,,,,M*13
###2023-12-09 12:33:24.129515$GNGGA,173323.30,4138.0457661,N,07032.4301671,W,1,18,0.8,13.261,M,-29.745,M,0.0,*55
###2023-12-09 12:33:24.328517$GNGGA,173323.50,4138.0457546,N,07032.4301175,W,1,18,0.8,13.248,M,-29.745,M,0.0,*5D
###2023-12-09 12:33:24.528593$GNGGA,173323.70,4138.0457475,N,07032.4300602,W,1,18,0.8,13.259,M,-29.745,M,0.0,*58
###2023-12-09 12:33:24.726976$GNGGA,173323.90,4138.0457285,N,07032.4299984,W,1,18,0.8,13.256,M,-29.745,M,0.0,*50
###2023-12-09 12:33:24.930997$GNRMC,173324.10,A,4138.0457146,N,07032.4299420,W,0.84,114.70,091223,,,A*5A
###2023-12-09 12:33:24.934097$GNGGA,173324.10,4138.0457146,N,07032.4299420,W,1,18,0.8,13.230,M,-29.745,M,0.0,*50
###2023-12-09 12:33:24.936098$GPGSA,A,3,03,16,26,28,29,31,32,,,,,,1.5,0.8,1.2*3F
###2023-12-09 12:33:24.937863$GLGSA,A,3,71,73,74,75,,,,,,,,,1.5,0.8,1.2*22
###2023-12-09 12:33:24.939494$GAGSA,A,3,21,27,,,,,,,,,,,1.5,0.8,1.2*2A
###2023-12-09 12:33:24.941278$GBGSA,A,3,14,24,25,26,33,,,,,,,,1.5,0.8,1.2*2F
###2023-12-09 12:33:24.943740$GPGSV,2,1,07,03,39,278,37,16,36,207,47,26,65,206,46,28,58,055,41*7A
###2023-12-09 12:33:24.945897$GPGSV,2,2,07,29,25,075,41,31,73,358,39,32,31,134,42,,,,*44
###2023-12-09 12:33:24.948394$GLGSV,1,1,04,71,58,169,49,73,49,033,37,74,71,287,39,75,21,240,38*6A
###2023-12-09 12:33:24.950304$GAGSV,1,1,02,21,77,177,47,27,42,050,46,,,,,,,,*6F
###2023-12-09 12:33:24.952770$GBGSV,2,1,05,14,56,198,46,24,81,339,39,25,32,252,38,26,36,057,48*62
###2023-12-09 12:33:24.954338$GBGSV,2,2,05,33,63,257,43,,,,,,,,,,,,*5C
###2023-12-09 12:33:24.955789$GNVTG,114.70,T,,M,0.84,N,1.55,K,A*2D
###2023-12-09 12:33:24.957546$GNGST,173324.10,21.000,,,,0.130,0.130,0.280*5F
###2023-12-09 12:33:24.958962$GNZDA,173324.10,09,12,2023,00,00*70
###2023-12-09 12:33:24.959715$GNEBP,,,,,,M*13
###2023-12-09 12:33:25.131295$GNGGA,173324.30,4138.0457035,N,07032.4298776,W,1,19,0.9,13.241,M,-29.745,M,0.0,*50
###2023-12-09 12:33:25.334651$GNGGA,173324.50,4138.0456894,N,07032.4298060,W,1,19,0.9,13.230,M,-29.745,M,0.0,*52
###2023-12-09 12:33:25.532742$GNGGA,173324.70,4138.0456702,N,07032.4297439,W,1,19,0.9,13.234,M,-29.745,M,0.0,*53
###2023-12-09 12:33:25.730519$GNGGA,173324.90,4138.0456470,N,07032.4296758,W,1,20,0.8,13.239,M,-29.745,M,0.0,*58
###2023-12-09 12:33:25.933338$GNRMC,173325.10,A,4138.0456231,N,07032.4296012,W,1.07,116.75,091223,,,A*5E
###2023-12-09 12:33:25.937150$GNGGA,173325.10,4138.0456231,N,07032.4296012,W,1,19,0.8,13.233,M,-29.745,M,0.0,*5B
###2023-12-09 12:33:25.939677$GPGSA,A,3,03,04,16,26,28,29,31,32,,,,,1.4,0.8,1.2*3A
###2023-12-09 12:33:25.941831$GLGSA,A,3,71,72,73,74,,,,,,,,,1.4,0.8,1.2*24
###2023-12-09 12:33:25.943855$GAGSA,A,3,21,27,,,,,,,,,,,1.4,0.8,1.2*2B
###2023-12-09 12:33:25.946081$GBGSA,A,3,14,24,25,26,33,,,,,,,,1.4,0.8,1.2*2E
###2023-12-09 12:33:25.949005$GPGSV,2,1,08,03,39,278,39,04,21,310,37,16,36,207,45,26,65,206,48*74
###2023-12-09 12:33:25.951872$GPGSV,2,2,08,28,58,055,44,29,25,075,45,31,73,358,42,32,31,134,43*75
###2023-12-09 12:33:25.954745$GLGSV,1,1,04,71,58,169,48,72,65,311,42,73,49,033,43,74,71,287,39*67
###2023-12-09 12:33:25.956912$GAGSV,1,1,02,21,77,177,48,27,42,050,46,,,,,,,,*60
###2023-12-09 12:33:25.959742$GBGSV,2,1,05,14,56,198,47,24,81,339,42,25,32,252,41,26,36,057,48*61
###2023-12-09 12:33:25.961504$GBGSV,2,2,05,33,63,257,44,,,,,,,,,,,,*5B
###2023-12-09 12:33:25.963130$GNVTG,116.75,T,,M,1.07,N,1.98,K,A*21
###2023-12-09 12:33:25.965124$GNGST,173325.10,21.000,,,,0.130,0.130,0.280*5E
###2023-12-09 12:33:25.966710$GNZDA,173325.10,09,12,2023,00,00*71
###2023-12-09 12:33:25.967487$GNEBP,,,,,,M*13
###2023-12-09 12:33:26.133179$GNGGA,173325.30,4138.0456059,N,07032.4295483,W,1,19,0.8,13.183,M,-29.745,M,0.0,*52
###2023-12-09 12:33:26.333424$GNGGA,173325.50,4138.0455966,N,07032.4295082,W,1,17,0.9,13.154,M,-29.745,M,0.0,*52
###2023-12-09 12:33:26.532899$GNGGA,173325.70,4138.0455756,N,07032.4294572,W,1,17,0.9,13.143,M,-29.745,M,0.0,*50
###2023-12-09 12:33:26.730968$GNGGA,173325.90,4138.0455544,N,07032.4294111,W,1,18,0.9,13.119,M,-29.745,M,0.0,*5E
###2023-12-09 12:33:26.933678$GNRMC,173326.10,A,4138.0455358,N,07032.4293648,W,0.87,116.75,091223,,,A*55
###2023-12-09 12:33:26.936581$GNGGA,173326.10,4138.0455358,N,07032.4293648,W,1,19,0.9,13.115,M,-29.745,M,0.0,*5F
###2023-12-09 12:33:26.938401$GPGSA,A,3,03,16,26,28,29,31,32,,,,,,1.6,0.9,1.4*3B
###2023-12-09 12:33:26.940026$GLGSA,A,3,71,72,73,74,,,,,,,,,1.6,0.9,1.4*21
###2023-12-09 12:33:26.941551$GAGSA,A,3,19,21,27,,,,,,,,,,1.6,0.9,1.4*26
###2023-12-09 12:33:26.943216$GBGSA,A,3,14,24,25,26,33,,,,,,,,1.6,0.9,1.4*2B
###2023-12-09 12:33:26.945536$GPGSV,2,1,07,03,39,278,39,16,36,207,47,26,65,206,48,28,58,055,46*7D
###2023-12-09 12:33:26.947613$GPGSV,2,2,07,29,25,075,40,31,73,358,45,32,31,134,42,,,,*4E
