###2023-12-09 13:40:46.031742$GNZDA,184045.10,09,12,2023,00,00*7C
###2023-12-09 13:40:46.032401$GNEBP,,,,,,M*13
###2023-12-09 13:40:46.199184$GNGGA,184045.30,4138.0266628,N,07032.3884688,W,1,24,0.6,13.327,M,-29.745,M,0.0,*52
###2023-12-09 13:40:46.398427$GNGGA,184045.50,4138.0266547,N,07032.3884940,W,1,23,0.6,13.338,M,-29.745,M,0.0,*5C
###2023-12-09 13:40:46.598209$GNGGA,184045.70,4138.0266526,N,07032.3885027,W,1,23,0.6,13.341,M,-29.745,M,0.0,*5E
###2023-12-09 13:40:46.799320$GNGGA,184045.90,4138.0266547,N,07032.3884901,W,1,23,0.6,13.335,M,-29.745,M,0.0,*58
###2023-12-09 13:40:47.004092$GNRMC,184046.10,A,4138.0266524,N,07032.3884909,W,0.23,243.13,091223,,,A*5F
###2023-12-09 13:40:47.006947$GNGGA,184046.10,4138.0266524,N,07032.3884909,W,1,23,0.6,13.331,M,-29.745,M,0.0,*5A
###2023-12-09 13:40:47.008731$GPGSA,A,3,04,16,26,27,28,29,31,,,,,,1.2,0.6,1.0*37
###2023-12-09 13:40:47.010433$GLGSA,A,3,65,71,72,73,74,75,,,,,,,1.2,0.6,1.0*2F
###2023-12-09 13:40:47.012016$GAGSA,A,3,04,19,21,27,,,,,,,,,1.2,0.6,1.0*2D
###2023-12-09 13:40:47.013717$GBGSA,A,3,12,14,24,25,33,35,,,,,,,1.2,0.6,1.0*25
###2023-12-09 13:40:47.016046$GPGSV,2,1,07,04,48,306,45,16,69,225,46,26,81,040,48,27,19,172,38*79
###2023-12-09 13:40:47.018069$GPGSV,2,2,07,28,36,087,45,29,19,045,43,31,58,070,46,,,,*40
###2023-12-09 13:40:47.020391$GLGSV,2,1,06,65,41,315,43,71,19,176,38,72,59,216,46,73,20,054,44*6A
###2023-12-09 13:40:47.022125$GLGSV,2,2,06,74,57,019,43,75,45,275,48,,,,,,,,*62
###2023-12-09 13:40:47.024456$GAGSV,1,1,04,04,41,309,44,19,69,180,40,21,74,044,46,27,21,050,42*6A
###2023-12-09 13:40:47.026788$GBGSV,2,1,06,12,17,124,42,14,26,189,40,24,60,049,48,25,53,279,47*60
###2023-12-09 13:40:47.028526$GBGSV,2,2,06,33,43,215,45,35,16,054,45,,,,,,,,*6C
###2023-12-09 13:40:47.029846$GNVTG,243.13,T,,M,0.23,N,0.43,K,A*22
###2023-12-09 13:40:47.031497$GNGST,184046.10,5.000,,,,0.091,0.076,0.170*63
###2023-12-09 13:40:47.032788$GNZDA,184046.10,09,12,2023,00,00*7F
###2023-12-09 13:40:47.033427$GNEBP,,,,,,M*13
###2023-12-09 13:40:47.201158$GNGGA,184046.30,4138.0266487,N,07032.3885145,W,1,23,0.6,13.330,M,-29.745,M,0.0,*50
###2023-12-09 13:40:47.399554$GNGGA,184046.50,4138.0266439,N,07032.3885308,W,1,23,0.6,13.327,M,-29.745,M,0.0,*5E
###2023-12-09 13:40:47.600033$GNGGA,184046.70,4138.0266411,N,07032.3885260,W,1,23,0.6,13.333,M,-29.745,M,0.0,*5C
###2023-12-09 13:40:47.800182$GNGGA,184046.90,4138.0266394,N,07032.3885271,W,1,23,0.6,13.350,M,-29.745,M,0.0,*5D
###2023-12-09 13:40:48.005509$GNRMC,184047.10,A,4138.0266370,N,07032.3885426,W,0.19,243.13,091223,,,A*51
###2023-12-09 13:40:48.008386$GNGGA,184047.10,4138.0266370,N,07032.3885426,W,1,23,0.6,13.355,M,-29.745,M,0.0,*5F
###2023-12-09 13:40:48.010178$GPGSA,A,3,04,16,26,27,28,29,31,,,,,,1.2,0.6,1.0*37
###2023-12-09 13:40:48.011904$GLGSA,A,3,65,71,72,73,74,75,,,,,,,1.2,0.6,1.0*2F
###2023-12-09 13:40:48.013476$GAGSA,A,3,04,19,21,27,,,,,,,,,1.2,0.6,1.0*2D
###2023-12-09 13:40:48.015200$GBGSA,A,3,12,14,24,25,33,35,,,,,,,1.2,0.6,1.0*25
###2023-12-09 13:40:48.017534$GPGSV,2,1,07,04,48,306,44,16,69,225,45,26,81,040,48,27,19,172,39*7A
###2023-12-09 13:40:48.019578$GPGSV,2,2,07,28,36,087,45,29,19,045,42,31,58,070,46,,,,*41
###2023-12-09 13:40:48.021905$GLGSV,2,1,06,65,41,315,43,71,19,176,39,72,59,216,46,73,20,054,43*6C
###2023-12-09 13:40:48.023664$GLGSV,2,2,06,74,57,019,43,75,45,276,49,,,,,,,,*60
###2023-12-09 13:40:48.025989$GAGSV,1,1,04,04,41,309,44,19,69,180,40,21,74,044,46,27,21,050,42*6A
###2023-12-09 13:40:48.028325$GBGSV,2,1,06,12,17,124,43,14,26,189,40,24,60,049,48,25,53,279,47*61
###2023-12-09 13:40:48.030066$GBGSV,2,2,06,33,43,215,46,35,16,054,44,,,,,,,,*6E
###2023-12-09 13:40:48.031398$GNVTG,243.13,T,,M,0.19,N,0.36,K,A*29
###2023-12-09 13:40:48.033018$GNGST,184047.10,5.100,,,,0.092,0.076,0.170*60
###2023-12-09 13:40:48.034315$GNZDA,184047.10,09,12,2023,00,00*7E
###2023-12-09 13:40:48.034963$GNEBP,,,,,,M*13
###2023-12-09 13:40:48.201634$GNGGA,184047.30,4138.0266353,N,07032.3885533,W,1,23,0.6,13.339,M,-29.745,M,0.0,*53
###2023-12-09 13:40:48.401548$GNGGA,184047.50,4138.0266333,N,07032.3885539,W,1,24,0.6,13.327,M,-29.745,M,0.0,*51
###2023-12-09 13:40:48.599152$GNGGA,184047.70,4138.0266308,N,07032.3885573,W,1,24,0.6,13.342,M,-29.745,M,0.0,*56
###2023-12-09 13:40:48.800994$GNGGA,184047.90,4138.0266280,N,07032.3885752,W,1,24,0.6,13.369,M,-29.745,M,0.0,*51
###2023-12-09 13:40:49.003842$GNRMC,184048.10,A,4138.0266282,N,07032.3885924,W,0.14,243.13,091223,,,A*50
###2023-12-09 13:40:49.006706$GNGGA,184048.10,4138.0266282,N,07032.3885924,W,1,23,0.6,13.380,M,-29.745,M,0.0,*5B
###2023-12-09 13:40:49.008496$GPGSA,A,3,04,16,26,27,28,29,31,,,,,,1.2,0.6,1.0*37
###2023-12-09 13:40:49.010209$GLGSA,A,3,65,71,72,73,74,75,,,,,,,1.2,0.6,1.0*2F
###2023-12-09 13:40:49.011804$GAGSA,A,3,04,19,21,27,,,,,,,,,1.2,0.6,1.0*2D
###2023-12-09 13:40:49.013517$GBGSA,A,3,12,14,24,25,33,35,,,,,,,1.2,0.6,1.0*25
###2023-12-09 13:40:49.015860$GPGSV,2,1,07,04,48,306,46,16,69,225,46,26,81,040,48,27,19,172,40*75
###2023-12-09 13:40:49.017898$GPGSV,2,2,07,28,36,087,45,29,19,045,41,31,58,070,45,,,,*41
###2023-12-09 13:40:49.020238$GLGSV,2,1,06,65,41,315,43,71,19,176,39,72,59,216,46,73,20,054,42*6D
###2023-12-09 13:40:49.021991$GLGSV,2,2,06,74,57,019,43,75,45,276,48,,,,,,,,*61
###2023-12-09 13:40:49.024331$GAGSV,1,1,04,04,41,309,45,19,69,180,40,21,74,044,46,27,21,050,41*68
###2023-12-09 13:40:49.026675$GBGSV,2,1,06,12,17,124,42,14,26,189,40,24,60,049,48,25,53,279,47*60
###2023-12-09 13:40:49.028424$GBGSV,2,2,06,33,43,215,46,35,16,054,44,,,,,,,,*6E
###2023-12-09 13:40:49.029749$GNVTG,243.13,T,,M,0.14,N,0.25,K,A*26
###2023-12-09 13:40:49.031394$GNGST,184048.10,5.300,,,,0.091,0.076,0.170*6E
###2023-12-09 13:40:49.032691$GNZDA,184048.10,09,12,2023,00,00*71
###2023-12-09 13:40:49.033329$GNEBP,,,,,,M*13
###2023-12-09 13:40:49.200711$GNGGA,184048.30,4138.0266292,N,07032.3885914,W,1,23,0.6,13.371,M,-29.745,M,0.0,*55
###2023-12-09 13:40:49.400552$GNGGA,184048.50,4138.0266304,N,07032.3885824,W,1,23,0.6,13.344,M,-29.745,M,0.0,*59
###2023-12-09 13:40:49.597261$GNGGA,184048.70,4138.0266270,N,07032.3885909,W,1,23,0.6,13.347,M,-29.745,M,0.0,*54
###2023-12-09 13:40:49.799245$GNGGA,184048.90,4138.0266217,N,07032.3886193,W,1,24,0.6,13.376,M,-29.745,M,0.0,*56
###2023-12-09 13:40:50.003078$GNRMC,184049.10,A,4138.0266213,N,07032.3886431,W,0.17,243.13,091223,,,A*50
###2023-12-09 13:40:50.005935$GNGGA,184049.10,4138.0266213,N,07032.3886431,W,1,23,0.6,13.404,M,-29.745,M,0.0,*53
###2023-12-09 13:40:50.007740$GPGSA,A,3,04,16,26,27,28,29,31,,,,,,1.2,0.6,1.0*37
###2023-12-09 13:40:50.009451$GLGSA,A,3,65,71,72,73,74,75,,,,,,,1.2,0.6,1.0*2F
###2023-12-09 13:40:50.011040$GAGSA,A,3,04,19,21,27,,,,,,,,,1.2,0.6,1.0*2D
###2023-12-09 13:40:50.012739$GBGSA,A,3,12,14,24,25,33,35,,,,,,,1.2,0.6,1.0*25
###2023-12-09 13:40:50.015065$GPGSV,2,1,07,04,48,306,47,16,69,225,46,26,81,040,48,27,19,172,40*74
###2023-12-09 13:40:50.017094$GPGSV,2,2,07,28,36,087,45,29,19,045,44,31,58,070,46,,,,*47
###2023-12-09 13:40:50.019427$GLGSV,2,1,06,65,41,315,44,71,19,176,39,72,59,216,46,73,20,054,43*6B
###2023-12-09 13:40:50.021171$GLGSV,2,2,06,74,57,019,43,75,45,276,48,,,,,,,,*61
###2023-12-09 13:40:50.023503$GAGSV,1,1,04,04,41,309,45,19,69,180,40,21,74,044,45,27,20,051,41*6B
###2023-12-09 13:40:50.025823$GBGSV,2,1,06,12,17,124,42,14,26,189,41,24,60,049,48,25,53,279,49*6F
###2023-12-09 13:40:50.027573$GBGSV,2,2,06,33,43,215,47,35,16,054,44,,,,,,,,*6F
###2023-12-09 13:40:50.028895$GNVTG,243.13,T,,M,0.17,N,0.32,K,A*23
###2023-12-09 13:40:50.030506$GNGST,184049.10,5.300,,,,0.090,0.076,0.170*6E
###2023-12-09 13:40:50.031800$GNZDA,184049.10,09,12,2023,00,00*70
###2023-12-09 13:40:50.032439$GNEBP,,,,,,M*13
###2023-12-09 13:40:50.204112$GNGGA,184049.30,4138.0266221,N,07032.3886369,W,1,23,0.6,13.393,M,-29.745,M,0.0,*53
###2023-12-09 13:40:50.398781$GNGGA,184049.50,4138.0266263,N,07032.3886130,W,1,23,0.6,13.343,M,-29.745,M,0.0,*50
###2023-12-09 13:40:50.598242$GNGGA,184049.70,4138.0266244,N,07032.3886238,W,1,24,0.6,13.343,M,-29.745,M,0.0,*5B
###2023-12-09 13:40:50.798756$GNGGA,184049.90,4138.0266151,N,07032.3886741,W,1,23,0.6,13.386,M,-29.745,M,0.0,*57
###2023-12-09 13:40:51.000929$GNRMC,184050.10,A,4138.0266133,N,07032.3886979,W,0.10,243.13,091223,,,A*5F
###2023-12-09 13:40:51.004044$GNGGA,184050.10,4138.0266133,N,07032.3886979,W,1,23,0.6,13.406,M,-29.745,M,0.0,*59
###2023-12-09 13:40:51.005837$GPGSA,A,3,04,16,26,27,28,29,31,,,,,,1.2,0.6,1.0*37
###2023-12-09 13:40:51.007559$GLGSA,A,3,65,71,72,73,74,75,,,,,,,1.2,0.6,1.0*2F
###2023-12-09 13:40:51.009144$GAGSA,A,3,04,19,21,27,,,,,,,,,1.2,0.6,1.0*2D
###2023-12-09 13:40:51.010861$GBGSA,A,3,12,14,24,25,33,35,,,,,,,1.2,0.6,1.0*25
###2023-12-09 13:40:51.013187$GPGSV,2,1,07,04,48,306,46,16,69,225,46,26,81,040,48,27,19,172,41*74
###2023-12-09 13:40:51.015227$GPGSV,2,2,07,28,36,087,44,29,19,045,43,31,58,070,45,,,,*42
###2023-12-09 13:40:51.017557$GLGSV,2,1,06,65,41,315,45,71,19,176,39,72,59,216,46,73,20,054,41*68
###2023-12-09 13:40:51.019309$GLGSV,2,2,06,74,57,019,42,75,45,276,49,,,,,,,,*61
