###2023-12-09 12:50:50.971218$GAGSV,1,1,04,04,26,312,40,19,85,258,41,21,83,157,46,27,36,048,44*62
###2023-12-09 12:50:50.973585$GBGSV,2,1,05,14,48,194,45,24,77,014,47,25,37,258,46,26,29,060,45*6F
###2023-12-09 12:50:50.975077$GBGSV,2,2,05,33,60,240,49,,,,,,,,,,,,*53
###2023-12-09 12:50:50.976412$GNVTG,110.98,T,,M,0.29,N,0.54,K,A*28
###2023-12-09 12:50:50.978066$GNGST,175050.10,18.000,,,,0.080,0.068,0.160*58
###2023-12-09 12:50:50.979383$GNZDA,175050.10,09,12,2023,00,00*76
###2023-12-09 12:50:50.980031$GNEBP,,,,,,M*13
###2023-12-09 12:50:51.152524$GNGGA,175050.30,4138.0559054,N,07032.3756131,W,1,24,0.6,13.664,M,-29.744,M,0.0,*58
###2023-12-09 12:50:51.350596$GNGGA,175050.50,4138.0559014,N,07032.3755969,W,1,24,0.6,13.660,M,-29.744,M,0.0,*58
###2023-12-09 12:50:51.549580$GNGGA,175050.70,4138.0558950,N,07032.3755874,W,1,24,0.6,13.656,M,-29.744,M,0.0,*5A
###2023-12-09 12:50:51.749174$GNGGA,175050.90,4138.0558912,N,07032.3755777,W,1,24,0.6,13.655,M,-29.744,M,0.0,*5D
###2023-12-09 12:50:51.950643$GNRMC,175051.10,A,4138.0558891,N,07032.3755626,W,0.23,110.98,091223,,,A*59
###2023-12-09 12:50:51.953504$GNGGA,175051.10,4138.0558891,N,07032.3755626,W,1,24,0.6,13.652,M,-29.744,M,0.0,*5C
###2023-12-09 12:50:51.955387$GPGSA,A,3,03,04,16,26,28,29,31,32,,,,,1.1,0.6,0.9*3B
###2023-12-09 12:50:51.957111$GLGSA,A,3,65,71,72,73,74,75,,,,,,,1.1,0.6,0.9*24
###2023-12-09 12:50:51.958711$GAGSA,A,3,04,19,21,27,,,,,,,,,1.1,0.6,0.9*26
###2023-12-09 12:50:51.960363$GBGSA,A,3,14,24,25,26,33,,,,,,,,1.1,0.6,0.9*2F
###2023-12-09 12:50:51.962716$GPGSV,2,1,08,03,37,268,44,04,28,311,42,16,44,210,46,26,74,208,48*75
###2023-12-09 12:50:51.965050$GPGSV,2,2,08,28,53,065,46,29,26,066,45,31,71,024,47,32,23,138,40*7D
###2023-12-09 12:50:51.967417$GLGSV,2,1,06,65,19,329,41,71,48,171,46,72,71,291,46,73,41,038,46*6A
###2023-12-09 12:50:51.969171$GLGSV,2,2,06,74,71,317,44,75,28,247,44,,,,,,,,*6A
###2023-12-09 12:50:51.971522$GAGSV,1,1,04,04,26,312,40,19,85,258,41,21,83,157,46,27,36,048,44*62
###2023-12-09 12:50:51.973848$GBGSV,2,1,05,14,48,194,44,24,77,014,48,25,37,258,45,26,29,060,44*63
###2023-12-09 12:50:51.975333$GBGSV,2,2,05,33,60,240,48,,,,,,,,,,,,*52
###2023-12-09 12:50:51.976657$GNVTG,110.98,T,,M,0.23,N,0.43,K,A*24
###2023-12-09 12:50:51.978303$GNGST,175051.10,18.000,,,,0.080,0.067,0.160*56
###2023-12-09 12:50:51.979614$GNZDA,175051.10,09,12,2023,00,00*77
###2023-12-09 12:50:51.980260$GNEBP,,,,,,M*13
###2023-12-09 12:50:52.149678$GNGGA,175051.30,4138.0558874,N,07032.3755430,W,1,24,0.6,13.647,M,-29.744,M,0.0,*54
###2023-12-09 12:50:52.350399$GNGGA,175051.50,4138.0558834,N,07032.3755271,W,1,24,0.6,13.649,M,-29.744,M,0.0,*5B
###2023-12-09 12:50:52.549519$GNGGA,175051.70,4138.0558800,N,07032.3755165,W,1,24,0.6,13.647,M,-29.744,M,0.0,*56
###2023-12-09 12:50:52.751885$GNGGA,175051.90,4138.0558754,N,07032.3755055,W,1,24,0.6,13.646,M,-29.744,M,0.0,*55
###2023-12-09 12:50:52.951158$GNRMC,175052.10,A,4138.0558730,N,07032.3754913,W,0.21,110.98,091223,,,A*54
###2023-12-09 12:50:52.954013$GNGGA,175052.10,4138.0558730,N,07032.3754913,W,1,24,0.6,13.640,M,-29.744,M,0.0,*50
###2023-12-09 12:50:52.955888$GPGSA,A,3,03,04,16,26,28,29,31,32,,,,,1.1,0.6,0.9*3B
###2023-12-09 12:50:52.957614$GLGSA,A,3,65,71,72,73,74,75,,,,,,,1.1,0.6,0.9*24
###2023-12-09 12:50:52.959230$GAGSA,A,3,04,19,21,27,,,,,,,,,1.1,0.6,0.9*26
###2023-12-09 12:50:52.960884$GBGSA,A,3,14,24,25,26,33,,,,,,,,1.1,0.6,0.9*2F
###2023-12-09 12:50:52.963246$GPGSV,2,1,08,03,37,268,44,04,28,311,42,16,44,210,46,26,74,208,48*75
###2023-12-09 12:50:52.965595$GPGSV,2,2,08,28,53,065,46,29,26,066,45,31,71,024,47,32,23,138,40*7D
###2023-12-09 12:50:52.967985$GLGSV,2,1,06,65,19,329,41,71,48,171,46,72,71,291,47,73,41,038,46*6B
###2023-12-09 12:50:52.969744$GLGSV,2,2,06,74,71,317,44,75,28,247,45,,,,,,,,*6B
###2023-12-09 12:50:52.972116$GAGSV,1,1,04,04,26,312,40,19,85,258,41,21,83,157,46,27,36,048,45*63
###2023-12-09 12:50:52.974465$GBGSV,2,1,05,14,48,194,44,24,77,014,49,25,37,258,47,26,29,060,47*63
###2023-12-09 12:50:52.975940$GBGSV,2,2,05,33,60,240,50,,,,,,,,,,,,*5B
###2023-12-09 12:50:52.977272$GNVTG,110.98,T,,M,0.21,N,0.40,K,A*25
###2023-12-09 12:50:52.978940$GNGST,175052.10,18.000,,,,0.079,0.067,0.160*53
###2023-12-09 12:50:52.980242$GNZDA,175052.10,09,12,2023,00,00*74
###2023-12-09 12:50:52.980885$GNEBP,,,,,,M*13
###2023-12-09 12:50:53.149415$GNGGA,175052.30,4138.0558689,N,07032.3754767,W,1,24,0.6,13.632,M,-29.744,M,0.0,*59
###2023-12-09 12:50:53.349707$GNGGA,175052.50,4138.0558636,N,07032.3754657,W,1,24,0.6,13.634,M,-29.744,M,0.0,*5F
###2023-12-09 12:50:53.549455$GNGGA,175052.70,4138.0558603,N,07032.3754515,W,1,24,0.6,13.628,M,-29.744,M,0.0,*53
###2023-12-09 12:50:53.749872$GNGGA,175052.90,4138.0558567,N,07032.3754343,W,1,24,0.6,13.622,M,-29.744,M,0.0,*53
###2023-12-09 12:50:53.950832$GNRMC,175053.10,A,4138.0558530,N,07032.3754257,W,0.12,110.98,091223,,,A*5C
###2023-12-09 12:50:53.953698$GNGGA,175053.10,4138.0558530,N,07032.3754257,W,1,24,0.6,13.630,M,-29.744,M,0.0,*5F
###2023-12-09 12:50:53.955576$GPGSA,A,3,03,04,16,26,28,29,31,32,,,,,1.1,0.6,0.9*3B
###2023-12-09 12:50:53.957298$GLGSA,A,3,65,71,72,73,74,75,,,,,,,1.1,0.6,0.9*24
###2023-12-09 12:50:53.958911$GAGSA,A,3,04,19,21,27,,,,,,,,,1.1,0.6,0.9*26
###2023-12-09 12:50:53.960570$GBGSA,A,3,14,24,25,26,33,,,,,,,,1.1,0.6,0.9*2F
###2023-12-09 12:50:53.962936$GPGSV,2,1,08,03,37,268,44,04,28,311,42,16,44,210,45,26,74,208,48*76
###2023-12-09 12:50:53.965280$GPGSV,2,2,08,28,53,065,46,29,26,066,44,31,71,024,47,32,23,138,41*7D
###2023-12-09 12:50:53.967628$GLGSV,2,1,06,65,19,329,41,71,47,171,45,72,71,291,46,73,41,038,46*66
###2023-12-09 12:50:53.969379$GLGSV,2,2,06,74,71,317,43,75,28,247,46,,,,,,,,*6F
###2023-12-09 12:50:53.971723$GAGSV,1,1,04,04,26,312,40,19,85,258,41,21,83,157,46,27,36,048,44*62
###2023-12-09 12:50:53.974063$GBGSV,2,1,05,14,48,194,45,24,77,014,49,25,37,258,46,26,29,060,46*62
###2023-12-09 12:50:53.975544$GBGSV,2,2,05,33,60,240,49,,,,,,,,,,,,*53
###2023-12-09 12:50:53.976874$GNVTG,110.98,T,,M,0.12,N,0.22,K,A*21
###2023-12-09 12:50:53.978528$GNGST,175053.10,18.000,,,,0.079,0.067,0.160*52
###2023-12-09 12:50:53.979832$GNZDA,175053.10,09,12,2023,00,00*75
###2023-12-09 12:50:53.980472$GNEBP,,,,,,M*13
###2023-12-09 12:50:54.149981$GNGGA,175053.30,4138.0558484,N,07032.3754197,W,1,24,0.6,13.641,M,-29.744,M,0.0,*5A
###2023-12-09 12:50:54.350691$GNGGA,175053.50,4138.0558438,N,07032.3754068,W,1,24,0.6,13.636,M,-29.744,M,0.0,*5A
###2023-12-09 12:50:54.549413$GNGGA,175053.70,4138.0558428,N,07032.3753913,W,1,24,0.6,13.629,M,-29.744,M,0.0,*55
###2023-12-09 12:50:54.755798$GNGGA,175053.90,4138.0558408,N,07032.3753788,W,1,24,0.6,13.617,M,-29.744,M,0.0,*58
###2023-12-09 12:50:54.951727$GNRMC,175054.10,A,4138.0558339,N,07032.3753762,W,0.19,110.98,091223,,,A*5B
###2023-12-09 12:50:54.954618$GNGGA,175054.10,4138.0558339,N,07032.3753762,W,1,24,0.6,13.625,M,-29.744,M,0.0,*57
###2023-12-09 12:50:54.956491$GPGSA,A,3,03,04,16,26,28,29,31,32,,,,,1.1,0.6,0.9*3B
###2023-12-09 12:50:54.958211$GLGSA,A,3,65,71,72,73,74,75,,,,,,,1.1,0.6,0.9*24
###2023-12-09 12:50:54.959814$GAGSA,A,3,04,19,21,27,,,,,,,,,1.1,0.6,0.9*26
###2023-12-09 12:50:54.961472$GBGSA,A,3,14,24,25,26,33,,,,,,,,1.1,0.6,0.9*2F
###2023-12-09 12:50:54.963830$GPGSV,2,1,08,03,37,268,45,04,28,311,42,16,44,210,45,26,74,208,47*78
###2023-12-09 12:50:54.966187$GPGSV,2,2,08,28,53,065,46,29,26,066,44,31,71,024,47,32,23,138,41*7D
###2023-12-09 12:50:54.968548$GLGSV,2,1,06,65,19,329,42,71,47,171,45,72,72,288,46,73,41,038,47*6F
###2023-12-09 12:50:54.970305$GLGSV,2,2,06,74,71,317,43,75,28,247,45,,,,,,,,*6C
###2023-12-09 12:50:54.972654$GAGSV,1,1,04,04,26,312,40,19,85,258,41,21,83,157,46,27,36,048,44*62
###2023-12-09 12:50:54.975000$GBGSV,2,1,05,14,48,194,45,24,77,014,49,25,37,258,47,26,29,060,46*63
###2023-12-09 12:50:54.976461$GBGSV,2,2,05,33,60,240,49,,,,,,,,,,,,*53
###2023-12-09 12:50:54.977784$GNVTG,110.98,T,,M,0.19,N,0.36,K,A*2F
###2023-12-09 12:50:54.979448$GNGST,175054.10,18.000,,,,0.079,0.066,0.160*54
###2023-12-09 12:50:54.980737$GNZDA,175054.10,09,12,2023,00,00*72
###2023-12-09 12:50:54.981375$GNEBP,,,,,,M*13
###2023-12-09 12:50:55.149494$GNGGA,175054.30,4138.0558255,N,07032.3753724,W,1,24,0.6,13.634,M,-29.744,M,0.0,*5C
###2023-12-09 12:50:55.355196$GNGGA,175054.50,4138.0558231,N,07032.3753593,W,1,24,0.6,13.635,M,-29.744,M,0.0,*57
###2023-12-09 12:50:55.550815$GNGGA,175054.70,4138.0558226,N,07032.3753428,W,1,24,0.6,13.627,M,-29.744,M,0.0,*51
###2023-12-09 12:50:55.752033$GNGGA,175054.90,4138.0558219,N,07032.3753343,W,1,24,0.6,13.617,M,-29.744,M,0.0,*5A
###2023-12-09 12:50:55.950211$GNRMC,175055.10,A,4138.0558141,N,07032.3753368,W,0.23,110.98,091223,,,A*50
###2023-12-09 12:50:55.953110$GNGGA,175055.10,4138.0558141,N,07032.3753368,W,1,24,0.6,13.616,M,-29.744,M,0.0,*55
###2023-12-09 12:50:55.954990$GPGSA,A,3,03,04,16,26,28,29,31,32,,,,,1.1,0.6,0.9*3B
###2023-12-09 12:50:55.956704$GLGSA,A,3,65,71,72,73,74,75,,,,,,,1.1,0.6,0.9*24
###2023-12-09 12:50:55.958278$GAGSA,A,3,04,19,21,27,,,,,,,,,1.1,0.6,0.9*26
