###2023-12-09 13:28:33.013115$GLGSV,2,1,06,65,35,321,43,71,26,175,44,72,66,227,47,73,25,050,42*62
###2023-12-09 13:28:33.014900$GLGSV,2,2,06,74,62,008,42,75,41,267,46,,,,,,,,*6C
###2023-12-09 13:28:33.017217$GAGSV,1,1,04,04,38,311,43,19,74,183,42,21,79,049,45,27,24,049,40*6B
###2023-12-09 13:28:33.019550$GBGSV,2,1,06,14,31,190,43,24,64,043,48,25,49,274,46,26,17,069,41*68
###2023-12-09 13:28:33.021289$GBGSV,2,2,06,33,48,220,48,35,16,059,42,,,,,,,,*66
###2023-12-09 13:28:33.022593$GNVTG,58.24,T,,M,1.03,N,1.91,K,A*13
###2023-12-09 13:28:33.024229$GNGST,182832.10,17.000,,,,0.130,0.094,0.220*5D
###2023-12-09 13:28:33.025510$GNZDA,182832.10,09,12,2023,00,00*72
###2023-12-09 13:28:33.026148$GNEBP,,,,,,M*13
###2023-12-09 13:28:33.193396$GNGGA,182832.30,4138.0440913,N,07032.4183947,W,1,24,0.6,13.534,M,-29.745,M,0.0,*58
###2023-12-09 13:28:33.385183$GNGGA,182832.50,4138.0441311,N,07032.4183407,W,1,24,0.6,13.541,M,-29.745,M,0.0,*5C
###2023-12-09 13:28:33.586659$GNGGA,182832.70,4138.0441480,N,07032.4182674,W,1,24,0.6,13.554,M,-29.745,M,0.0,*52
###2023-12-09 13:28:33.787417$GNGGA,182832.90,4138.0441549,N,07032.4181913,W,1,24,0.6,13.553,M,-29.745,M,0.0,*52
###2023-12-09 13:28:33.995091$GNRMC,182833.10,A,4138.0441859,N,07032.4181366,W,0.97,88.21,091223,,,A*64
###2023-12-09 13:28:33.997957$GNGGA,182833.10,4138.0441859,N,07032.4181366,W,1,24,0.6,13.550,M,-29.745,M,0.0,*5C
###2023-12-09 13:28:33.999763$GPGSA,A,3,03,04,16,26,28,29,31,,,,,,1.1,0.6,0.9*3A
###2023-12-09 13:28:34.001471$GLGSA,A,3,65,71,72,73,74,75,,,,,,,1.1,0.6,0.9*24
###2023-12-09 13:28:34.003100$GAGSA,A,3,04,19,21,27,,,,,,,,,1.1,0.6,0.9*26
###2023-12-09 13:28:34.004813$GBGSA,A,3,14,24,25,26,33,35,,,,,,,1.1,0.6,0.9*29
###2023-12-09 13:28:34.007154$GPGSV,2,1,07,03,28,249,43,04,43,309,45,16,63,220,49,26,87,041,49*78
###2023-12-09 13:28:34.009183$GPGSV,2,2,07,28,40,082,44,29,22,049,41,31,61,061,47,,,,*48
###2023-12-09 13:28:34.011515$GLGSV,2,1,06,65,35,321,42,71,26,175,46,72,66,227,47,73,25,050,40*63
###2023-12-09 13:28:34.013256$GLGSV,2,2,06,74,62,008,42,75,41,267,47,,,,,,,,*6D
###2023-12-09 13:28:34.015593$GAGSV,1,1,04,04,38,311,43,19,74,183,42,21,79,049,45,27,24,049,40*6B
###2023-12-09 13:28:34.017922$GBGSV,2,1,06,14,31,190,44,24,64,043,49,25,49,274,47,26,17,069,41*6F
###2023-12-09 13:28:34.019674$GBGSV,2,2,06,33,48,220,48,35,16,059,42,,,,,,,,*66
###2023-12-09 13:28:34.020964$GNVTG,88.21,T,,M,0.97,N,1.80,K,A*17
###2023-12-09 13:28:34.022642$GNGST,182833.10,17.000,,,,0.130,0.094,0.220*5C
###2023-12-09 13:28:34.023939$GNZDA,182833.10,09,12,2023,00,00*73
###2023-12-09 13:28:34.024578$GNEBP,,,,,,M*13
###2023-12-09 13:28:34.189228$GNGGA,182833.30,4138.0442259,N,07032.4180896,W,1,24,0.7,13.554,M,-29.745,M,0.0,*57
###2023-12-09 13:28:34.388460$GNGGA,182833.50,4138.0442593,N,07032.4180335,W,1,24,0.7,13.566,M,-29.745,M,0.0,*53
###2023-12-09 13:28:34.588109$GNGGA,182833.70,4138.0442682,N,07032.4179618,W,1,24,0.7,13.582,M,-29.745,M,0.0,*54
###2023-12-09 13:28:34.788202$GNGGA,182833.90,4138.0442707,N,07032.4178946,W,1,24,0.7,13.571,M,-29.745,M,0.0,*5F
###2023-12-09 13:28:35.001824$GNRMC,182834.10,A,4138.0443000,N,07032.4178471,W,0.95,85.31,091223,,,A*6C
###2023-12-09 13:28:35.004696$GNGGA,182834.10,4138.0443000,N,07032.4178471,W,1,24,0.7,13.570,M,-29.745,M,0.0,*59
###2023-12-09 13:28:35.006482$GPGSA,A,3,03,04,16,26,28,29,31,,,,,,1.2,0.7,1.0*30
###2023-12-09 13:28:35.008193$GLGSA,A,3,65,71,72,73,74,75,,,,,,,1.2,0.7,1.0*2E
###2023-12-09 13:28:35.009763$GAGSA,A,3,04,19,21,27,,,,,,,,,1.2,0.7,1.0*2C
###2023-12-09 13:28:35.011478$GBGSA,A,3,14,24,25,26,33,35,,,,,,,1.2,0.7,1.0*23
###2023-12-09 13:28:35.013793$GPGSV,2,1,07,03,28,249,41,04,43,309,45,16,63,220,48,26,87,041,47*75
###2023-12-09 13:28:35.015823$GPGSV,2,2,07,28,40,082,42,29,22,049,40,31,61,061,45,,,,*4D
###2023-12-09 13:28:35.018138$GLGSV,2,1,06,65,35,321,42,71,26,175,46,72,66,227,48,73,25,050,41*6D
###2023-12-09 13:28:35.019890$GLGSV,2,2,06,74,62,008,41,75,41,267,46,,,,,,,,*6F
###2023-12-09 13:28:35.022191$GAGSV,1,1,04,04,38,311,43,19,74,183,42,21,79,049,45,27,24,049,40*6B
###2023-12-09 13:28:35.024523$GBGSV,2,1,06,14,31,190,43,24,64,043,48,25,49,274,46,26,17,069,40*69
###2023-12-09 13:28:35.026258$GBGSV,2,2,06,33,48,220,49,35,16,059,42,,,,,,,,*67
###2023-12-09 13:28:35.027558$GNVTG,85.31,T,,M,0.95,N,1.76,K,A*10
###2023-12-09 13:28:35.029205$GNGST,182834.10,19.000,,,,0.130,0.090,0.210*52
###2023-12-09 13:28:35.030489$GNZDA,182834.10,09,12,2023,00,00*74
###2023-12-09 13:28:35.031135$GNEBP,,,,,,M*13
###2023-12-09 13:28:35.186926$GNGGA,182834.30,4138.0443448,N,07032.4178106,W,1,24,0.6,13.582,M,-29.745,M,0.0,*5A
###2023-12-09 13:28:35.387224$GNGGA,182834.50,4138.0443688,N,07032.4177539,W,1,24,0.6,13.593,M,-29.745,M,0.0,*55
###2023-12-09 13:28:35.587502$GNGGA,182834.70,4138.0443633,N,07032.4176878,W,1,24,0.6,13.598,M,-29.745,M,0.0,*55
###2023-12-09 13:28:35.786897$GNGGA,182834.90,4138.0443696,N,07032.4176324,W,1,24,0.6,13.595,M,-29.745,M,0.0,*5B
###2023-12-09 13:28:35.994453$GNRMC,182835.10,A,4138.0444131,N,07032.4175977,W,1.05,25.74,091223,,,A*6C
###2023-12-09 13:28:35.997338$GNGGA,182835.10,4138.0444131,N,07032.4175977,W,1,24,0.6,13.601,M,-29.745,M,0.0,*5E
###2023-12-09 13:28:35.999137$GPGSA,A,3,03,04,16,26,28,29,31,,,,,,1.1,0.6,0.9*3A
###2023-12-09 13:28:36.000850$GLGSA,A,3,65,71,72,73,74,75,,,,,,,1.1,0.6,0.9*24
###2023-12-09 13:28:36.002435$GAGSA,A,3,04,19,21,27,,,,,,,,,1.1,0.6,0.9*26
###2023-12-09 13:28:36.004153$GBGSA,A,3,14,24,25,26,33,35,,,,,,,1.1,0.6,0.9*29
###2023-12-09 13:28:36.006474$GPGSV,2,1,07,03,28,249,41,04,43,309,45,16,63,220,48,26,87,041,48*7A
###2023-12-09 13:28:36.008519$GPGSV,2,2,07,28,40,082,43,29,22,049,43,31,61,061,46,,,,*4C
###2023-12-09 13:28:36.010855$GLGSV,2,1,06,65,35,321,42,71,26,175,45,72,66,227,47,73,25,050,43*63
###2023-12-09 13:28:36.012603$GLGSV,2,2,06,74,62,008,41,75,41,267,47,,,,,,,,*6E
###2023-12-09 13:28:36.014926$GAGSV,1,1,04,04,38,311,44,19,74,183,42,21,79,049,46,27,24,049,40*6F
###2023-12-09 13:28:36.017245$GBGSV,2,1,06,14,31,190,42,24,64,043,48,25,49,274,47,26,17,069,40*69
###2023-12-09 13:28:36.018996$GBGSV,2,2,06,33,48,219,48,35,16,059,40,,,,,,,,*6E
###2023-12-09 13:28:36.020281$GNVTG,25.74,T,,M,1.05,N,1.94,K,A*1F
###2023-12-09 13:28:36.021916$GNGST,182835.10,18.000,,,,0.120,0.086,0.210*54
###2023-12-09 13:28:36.023203$GNZDA,182835.10,09,12,2023,00,00*75
###2023-12-09 13:28:36.023838$GNEBP,,,,,,M*13
###2023-12-09 13:28:36.189238$GNGGA,182835.30,4138.0444525,N,07032.4175595,W,1,24,0.6,13.606,M,-29.745,M,0.0,*5A
###2023-12-09 13:28:36.387280$GNGGA,182835.50,4138.0444558,N,07032.4175017,W,1,24,0.6,13.620,M,-29.745,M,0.0,*5D
###2023-12-09 13:28:36.590540$GNGGA,182835.70,4138.0444509,N,07032.4174412,W,1,24,0.6,13.625,M,-29.745,M,0.0,*5E
###2023-12-09 13:28:36.788048$GNGGA,182835.90,4138.0444707,N,07032.4173996,W,1,24,0.6,13.619,M,-29.745,M,0.0,*55
###2023-12-09 13:28:36.990914$GNRMC,182836.10,A,4138.0445160,N,07032.4173699,W,0.93,25.74,091223,,,A*6D
###2023-12-09 13:28:36.993757$GNGGA,182836.10,4138.0445160,N,07032.4173699,W,1,24,0.6,13.617,M,-29.745,M,0.0,*56
###2023-12-09 13:28:36.995548$GPGSA,A,3,03,04,16,26,28,29,31,,,,,,1.1,0.6,0.9*3A
###2023-12-09 13:28:36.997253$GLGSA,A,3,65,71,72,73,74,75,,,,,,,1.1,0.6,0.9*24
###2023-12-09 13:28:36.998835$GAGSA,A,3,04,19,21,27,,,,,,,,,1.1,0.6,0.9*26
###2023-12-09 13:28:37.000529$GBGSA,A,3,14,24,25,26,33,35,,,,,,,1.1,0.6,0.9*29
###2023-12-09 13:28:37.002850$GPGSV,2,1,07,03,28,249,42,04,43,309,45,16,63,220,48,26,87,041,49*78
###2023-12-09 13:28:37.004872$GPGSV,2,2,07,28,40,082,43,29,22,049,43,31,61,061,46,,,,*4C
###2023-12-09 13:28:37.007191$GLGSV,2,1,06,65,35,321,44,71,26,175,46,72,66,227,47,73,25,050,42*67
###2023-12-09 13:28:37.008932$GLGSV,2,2,06,74,62,008,42,75,41,267,48,,,,,,,,*62
###2023-12-09 13:28:37.011251$GAGSV,1,1,04,04,38,311,43,19,74,183,41,21,79,049,46,27,24,049,41*6A
###2023-12-09 13:28:37.013560$GBGSV,2,1,06,14,31,190,43,24,64,043,48,25,49,274,48,26,17,069,40*67
###2023-12-09 13:28:37.015300$GBGSV,2,2,06,33,48,219,48,35,16,058,42,,,,,,,,*6D
###2023-12-09 13:28:37.016582$GNVTG,25.74,T,,M,0.93,N,1.73,K,A*18
###2023-12-09 13:28:37.018214$GNGST,182836.10,18.000,,,,0.120,0.083,0.200*53
###2023-12-09 13:28:37.019751$GNZDA,182836.10,09,12,2023,00,00*76
###2023-12-09 13:28:37.020401$GNEBP,,,,,,M*13
###2023-12-09 13:28:37.188014$GNGGA,182836.30,4138.0445467,N,07032.4173287,W,1,24,0.6,13.616,M,-29.745,M,0.0,*5C
###2023-12-09 13:28:37.388236$GNGGA,182836.50,4138.0445431,N,07032.4172783,W,1,24,0.6,13.632,M,-29.745,M,0.0,*5F
###2023-12-09 13:28:37.588474$GNGGA,182836.70,4138.0445461,N,07032.4172354,W,1,24,0.6,13.636,M,-29.745,M,0.0,*52
###2023-12-09 13:28:37.789159$GNGGA,182836.90,4138.0445777,N,07032.4171972,W,1,24,0.6,13.632,M,-29.745,M,0.0,*51
###2023-12-09 13:28:37.992309$GNRMC,182837.10,A,4138.0446156,N,07032.4171675,W,0.68,25.74,091223,,,A*6E
###2023-12-09 13:28:37.995174$GNGGA,182837.10,4138.0446156,N,07032.4171675,W,1,24,0.6,13.629,M,-29.745,M,0.0,*5C
###2023-12-09 13:28:37.996953$GPGSA,A,3,03,04,16,26,28,29,31,,,,,,1.1,0.6,0.9*3A
