###2023-12-09 13:36:20.003977$GNGGA,183619.10,4138.0527969,N,07032.4112194,W,1,27,0.6,13.244,M,-29.745,M,0.0,*5C
###2023-12-09 13:36:20.006235$GPGSA,A,3,03,04,16,26,27,28,29,31,,,,,1.0,0.6,0.8*3F
###2023-12-09 13:36:20.008412$GLGSA,A,3,65,71,72,73,74,75,83,,,,,,1.0,0.6,0.8*2F
###2023-12-09 13:36:20.010323$GAGSA,A,3,04,19,21,27,,,,,,,,,1.0,0.6,0.8*26
###2023-12-09 13:36:20.012483$GBGSA,A,3,12,14,24,25,26,33,35,,,,,,1.0,0.6,0.8*2A
###2023-12-09 13:36:20.015305$GPGSV,2,1,08,03,26,246,41,04,47,307,45,16,67,223,47,26,83,040,49*72
###2023-12-09 13:36:20.018113$GPGSV,2,2,08,27,17,172,35,28,37,085,44,29,20,046,43,31,59,067,47*73
###2023-12-09 13:36:20.021030$GLGSV,2,1,07,65,39,318,45,71,22,175,39,72,62,220,46,73,22,052,44*6C
###2023-12-09 13:36:20.023533$GLGSV,2,2,07,74,59,015,43,75,44,272,46,83,15,047,35,,,,*53
###2023-12-09 13:36:20.026347$GAGSV,1,1,04,04,40,310,44,19,71,181,40,21,76,045,45,27,22,050,42*68
###2023-12-09 13:36:20.029176$GBGSV,2,1,07,12,16,125,39,14,29,190,41,24,62,046,48,25,51,276,47*6B
###2023-12-09 13:36:20.031650$GBGSV,2,2,07,26,16,071,45,33,45,217,47,35,16,056,44,,,,*5C
###2023-12-09 13:36:20.033253$GNVTG,149.18,T,,M,2.37,N,4.39,K,A*2E
###2023-12-09 13:36:20.035205$GNGST,183619.10,6.100,,,,0.088,0.067,0.150*60
###2023-12-09 13:36:20.036763$GNZDA,183619.10,09,12,2023,00,00*74
###2023-12-09 13:36:20.037533$GNEBP,,,,,,M*13
###2023-12-09 13:36:20.197687$GNGGA,183619.30,4138.0526931,N,07032.4111254,W,1,27,0.6,13.239,M,-29.745,M,0.0,*54
###2023-12-09 13:36:20.397096$GNGGA,183619.50,4138.0525949,N,07032.4110260,W,1,27,0.6,13.250,M,-29.745,M,0.0,*57
###2023-12-09 13:36:20.597438$GNGGA,183619.70,4138.0524939,N,07032.4109188,W,1,27,0.6,13.260,M,-29.745,M,0.0,*5D
###2023-12-09 13:36:20.798513$GNGGA,183619.90,4138.0523920,N,07032.4108082,W,1,27,0.6,13.251,M,-29.745,M,0.0,*54
###2023-12-09 13:36:21.010699$GNRMC,183620.10,A,4138.0523007,N,07032.4106959,W,2.20,134.36,091223,,,A*58
###2023-12-09 13:36:21.014146$GNGGA,183620.10,4138.0523007,N,07032.4106959,W,1,27,0.6,13.250,M,-29.745,M,0.0,*5A
###2023-12-09 13:36:21.016400$GPGSA,A,3,03,04,16,26,27,28,29,31,,,,,1.0,0.6,0.8*3F
###2023-12-09 13:36:21.018537$GLGSA,A,3,65,71,72,73,74,75,83,,,,,,1.0,0.6,0.8*2F
###2023-12-09 13:36:21.020454$GAGSA,A,3,04,19,21,27,,,,,,,,,1.0,0.6,0.8*26
###2023-12-09 13:36:21.022590$GBGSA,A,3,12,14,24,25,26,33,35,,,,,,1.0,0.6,0.8*2A
###2023-12-09 13:36:21.025377$GPGSV,2,1,08,03,26,246,41,04,47,307,45,16,67,223,47,26,83,040,48*73
###2023-12-09 13:36:21.028193$GPGSV,2,2,08,27,17,172,39,28,37,085,45,29,20,046,43,31,59,067,46*7F
###2023-12-09 13:36:21.031002$GLGSV,2,1,07,65,39,318,44,71,22,175,41,72,62,220,47,73,22,052,45*62
###2023-12-09 13:36:21.033450$GLGSV,2,2,07,74,59,015,42,75,44,272,47,83,15,047,36,,,,*50
###2023-12-09 13:36:21.036259$GAGSV,1,1,04,04,40,310,43,19,71,181,40,21,76,045,46,27,22,050,42*6C
###2023-12-09 13:36:21.039073$GBGSV,2,1,07,12,16,125,38,14,29,190,41,24,62,046,48,25,51,276,47*6A
###2023-12-09 13:36:21.041528$GBGSV,2,2,07,26,16,071,45,33,45,217,47,35,16,056,44,,,,*5C
###2023-12-09 13:36:21.043156$GNVTG,134.36,T,,M,2.20,N,4.07,K,A*23
###2023-12-09 13:36:21.045102$GNGST,183620.10,5.600,,,,0.089,0.067,0.150*6F
###2023-12-09 13:36:21.046712$GNZDA,183620.10,09,12,2023,00,00*7E
###2023-12-09 13:36:21.047485$GNEBP,,,,,,M*13
###2023-12-09 13:36:21.205487$GNGGA,183620.30,4138.0522115,N,07032.4105764,W,1,27,0.6,13.268,M,-29.745,M,0.0,*53
###2023-12-09 13:36:21.396152$GNGGA,183620.50,4138.0521205,N,07032.4104442,W,1,27,0.6,13.271,M,-29.745,M,0.0,*5A
###2023-12-09 13:36:21.597093$GNGGA,183620.70,4138.0520413,N,07032.4103152,W,1,27,0.6,13.264,M,-29.745,M,0.0,*5F
###2023-12-09 13:36:21.798910$GNGGA,183620.90,4138.0519602,N,07032.4101794,W,1,27,0.6,13.273,M,-29.745,M,0.0,*51
###2023-12-09 13:36:22.001258$GNRMC,183621.10,A,4138.0518655,N,07032.4100450,W,2.43,130.48,091223,,,A*5A
###2023-12-09 13:36:22.004163$GNGGA,183621.10,4138.0518655,N,07032.4100450,W,1,27,0.6,13.278,M,-29.745,M,0.0,*5A
###2023-12-09 13:36:22.006017$GPGSA,A,3,03,04,16,26,27,28,29,31,,,,,1.0,0.6,0.8*3F
###2023-12-09 13:36:22.007799$GLGSA,A,3,65,71,72,73,74,75,83,,,,,,1.0,0.6,0.8*2F
###2023-12-09 13:36:22.009376$GAGSA,A,3,04,19,21,27,,,,,,,,,1.0,0.6,0.8*26
###2023-12-09 13:36:22.011155$GBGSA,A,3,12,14,24,25,26,33,35,,,,,,1.0,0.6,0.8*2A
###2023-12-09 13:36:22.013471$GPGSV,2,1,08,03,26,246,41,04,47,307,45,16,67,223,47,26,83,040,47*7C
###2023-12-09 13:36:22.015801$GPGSV,2,2,08,27,17,172,38,28,37,085,45,29,20,046,43,31,59,067,45*7D
###2023-12-09 13:36:22.018131$GLGSV,2,1,07,65,39,318,43,71,22,175,41,72,62,220,47,73,22,052,44*64
###2023-12-09 13:36:22.020174$GLGSV,2,2,07,74,59,015,42,75,44,272,46,83,15,047,36,,,,*51
###2023-12-09 13:36:22.022500$GAGSV,1,1,04,04,40,310,44,19,71,181,41,21,76,045,46,27,22,050,42*6A
###2023-12-09 13:36:22.024837$GBGSV,2,1,07,12,16,125,37,14,28,189,39,24,62,046,49,25,51,276,47*62
###2023-12-09 13:36:22.026881$GBGSV,2,2,07,26,16,071,44,33,45,217,47,35,16,056,43,,,,*5A
###2023-12-09 13:36:22.028204$GNVTG,130.48,T,,M,2.43,N,4.50,K,A*29
###2023-12-09 13:36:22.029813$GNGST,183621.10,6.000,,,,0.089,0.067,0.150*6B
###2023-12-09 13:36:22.031112$GNZDA,183621.10,09,12,2023,00,00*7F
###2023-12-09 13:36:22.031754$GNEBP,,,,,,M*13
###2023-12-09 13:36:22.196725$GNGGA,183621.30,4138.0517850,N,07032.4099047,W,1,27,0.6,13.281,M,-29.745,M,0.0,*59
###2023-12-09 13:36:22.396820$GNGGA,183621.50,4138.0516996,N,07032.4097601,W,1,27,0.6,13.283,M,-29.745,M,0.0,*5D
###2023-12-09 13:36:22.596958$GNGGA,183621.70,4138.0516128,N,07032.4096154,W,1,27,0.6,13.279,M,-29.745,M,0.0,*51
###2023-12-09 13:36:22.797523$GNGGA,183621.90,4138.0515180,N,07032.4094777,W,1,27,0.6,13.284,M,-29.745,M,0.0,*59
###2023-12-09 13:36:23.001247$GNRMC,183622.10,A,4138.0514139,N,07032.4093427,W,2.68,134.26,091223,,,A*56
###2023-12-09 13:36:23.004141$GNGGA,183622.10,4138.0514139,N,07032.4093427,W,1,27,0.6,13.287,M,-29.745,M,0.0,*53
###2023-12-09 13:36:23.006007$GPGSA,A,3,03,04,16,26,27,28,29,31,,,,,1.0,0.6,0.8*3F
###2023-12-09 13:36:23.007800$GLGSA,A,3,65,71,72,73,74,75,83,,,,,,1.0,0.6,0.8*2F
###2023-12-09 13:36:23.009387$GAGSA,A,3,04,19,21,27,,,,,,,,,1.0,0.6,0.8*26
###2023-12-09 13:36:23.011174$GBGSA,A,3,12,14,24,25,26,33,35,,,,,,1.0,0.6,0.8*2A
###2023-12-09 13:36:23.013496$GPGSV,2,1,08,03,26,246,43,04,47,307,46,16,67,223,47,26,83,040,48*72
###2023-12-09 13:36:23.015841$GPGSV,2,2,08,27,17,172,40,28,37,085,45,29,20,046,43,31,59,067,47*70
###2023-12-09 13:36:23.018179$GLGSV,2,1,07,65,39,318,44,71,22,175,39,72,62,220,46,73,22,052,44*6D
###2023-12-09 13:36:23.020232$GLGSV,2,2,07,74,59,015,42,75,44,272,47,83,15,047,35,,,,*53
###2023-12-09 13:36:23.022571$GAGSV,1,1,04,04,40,310,45,19,71,181,40,21,76,045,46,27,22,050,42*6A
###2023-12-09 13:36:23.024902$GBGSV,2,1,07,12,16,125,38,14,28,189,42,24,62,046,48,25,51,276,47*60
###2023-12-09 13:36:23.026987$GBGSV,2,2,07,26,16,071,44,33,45,217,48,35,16,056,44,,,,*52
###2023-12-09 13:36:23.028315$GNVTG,134.26,T,,M,2.68,N,4.97,K,A*27
###2023-12-09 13:36:23.029931$GNGST,183622.10,5.600,,,,0.089,0.067,0.150*6D
###2023-12-09 13:36:23.031236$GNZDA,183622.10,09,12,2023,00,00*7C
###2023-12-09 13:36:23.031876$GNEBP,,,,,,M*13
###2023-12-09 13:36:23.198808$GNGGA,183622.30,4138.0513187,N,07032.4092032,W,1,27,0.6,13.283,M,-29.745,M,0.0,*56
###2023-12-09 13:36:23.396826$GNGGA,183622.50,4138.0512127,N,07032.4090654,W,1,27,0.6,13.286,M,-29.745,M,0.0,*5A
###2023-12-09 13:36:23.597007$GNGGA,183622.70,4138.0510968,N,07032.4089429,W,1,27,0.6,13.300,M,-29.745,M,0.0,*56
###2023-12-09 13:36:23.797519$GNGGA,183622.90,4138.0509766,N,07032.4088282,W,1,26,0.6,13.303,M,-29.745,M,0.0,*54
###2023-12-09 13:36:24.000272$GNRMC,183623.10,A,4138.0508452,N,07032.4087197,W,2.72,148.89,091223,,,A*5C
###2023-12-09 13:36:24.003172$GNGGA,183623.10,4138.0508452,N,07032.4087197,W,1,26,0.6,13.301,M,-29.745,M,0.0,*52
###2023-12-09 13:36:24.005041$GPGSA,A,3,03,04,16,26,27,28,29,31,,,,,1.0,0.6,0.8*3F
###2023-12-09 13:36:24.006766$GLGSA,A,3,65,71,72,73,74,75,,,,,,,1.0,0.6,0.8*24
###2023-12-09 13:36:24.008343$GAGSA,A,3,04,19,21,27,,,,,,,,,1.0,0.6,0.8*26
###2023-12-09 13:36:24.010113$GBGSA,A,3,12,14,24,25,26,33,35,,,,,,1.0,0.6,0.8*2A
###2023-12-09 13:36:24.012447$GPGSV,2,1,08,03,26,246,42,04,47,307,44,16,67,223,46,26,83,040,48*70
###2023-12-09 13:36:24.015033$GPGSV,2,2,08,27,17,172,40,28,37,085,44,29,20,046,43,31,59,067,47*71
###2023-12-09 13:36:24.017365$GLGSV,2,1,06,65,39,318,44,71,22,175,40,72,62,220,45,73,22,052,43*66
###2023-12-09 13:36:24.019171$GLGSV,2,2,06,74,59,015,43,75,44,272,48,,,,,,,,*66
###2023-12-09 13:36:24.021506$GAGSV,1,1,04,04,40,310,44,19,71,181,40,21,76,045,46,27,22,050,41*68
###2023-12-09 13:36:24.023856$GBGSV,2,1,07,12,16,125,40,14,28,189,39,24,62,046,47,25,51,276,47*6C
###2023-12-09 13:36:24.025888$GBGSV,2,2,07,26,16,071,42,33,45,217,45,35,16,056,43,,,,*5E
###2023-12-09 13:36:24.027224$GNVTG,148.89,T,,M,2.72,N,5.04,K,A*29
###2023-12-09 13:36:24.028828$GNGST,183623.10,5.200,,,,0.089,0.066,0.150*69
###2023-12-09 13:36:24.030120$GNZDA,183623.10,09,12,2023,00,00*7D
###2023-12-09 13:36:24.030769$GNEBP,,,,,,M*13
