###2023-12-09 13:03:56.983056$GAGSA,A,3,04,19,21,27,,,,,,,,,1.1,0.6,0.9*26
###2023-12-09 13:03:56.984735$GBGSA,A,3,14,24,25,26,33,,,,,,,,1.1,0.6,0.9*2F
###2023-12-09 13:03:56.987086$GPGSV,2,1,08,03,34,260,46,04,33,311,42,16,51,213,47,26,81,210,48*73
###2023-12-09 13:03:56.989425$GPGSV,2,2,08,28,48,071,44,29,25,060,42,31,68,040,47,32,18,140,42*7D
###2023-12-09 13:03:56.991775$GLGSV,2,1,06,65,25,327,39,71,40,173,46,72,73,265,47,73,35,042,44*6A
###2023-12-09 13:03:56.993527$GLGSV,2,2,06,74,69,340,43,75,33,254,47,,,,,,,,*6D
###2023-12-09 13:03:56.995871$GAGSV,1,1,04,04,30,312,41,19,84,213,40,21,86,114,45,27,32,048,42*68
###2023-12-09 13:03:56.998203$GBGSV,2,1,05,14,43,193,46,24,73,026,48,25,41,263,46,26,26,063,42*68
###2023-12-09 13:03:56.999682$GBGSV,2,2,05,33,57,231,49,,,,,,,,,,,,*51
###2023-12-09 13:03:57.000979$GNVTG,94.15,T,,M,3.38,N,6.26,K,A*10
###2023-12-09 13:03:57.002638$GNGST,180356.10,18.000,,,,0.079,0.065,0.150*5F
###2023-12-09 13:03:57.003933$GNZDA,180356.10,09,12,2023,00,00*79
###2023-12-09 13:03:57.004571$GNEBP,,,,,,M*13
###2023-12-09 13:03:57.167826$GNGGA,180356.30,4138.0594020,N,07032.3645392,W,1,24,0.6,13.298,M,-29.744,M,0.0,*5A
###2023-12-09 13:03:57.365374$GNGGA,180356.50,4138.0593824,N,07032.3642876,W,1,24,0.6,13.295,M,-29.744,M,0.0,*5C
###2023-12-09 13:03:57.565921$GNGGA,180356.70,4138.0593557,N,07032.3640394,W,1,24,0.6,13.288,M,-29.744,M,0.0,*5E
###2023-12-09 13:03:57.767450$GNGGA,180356.90,4138.0593234,N,07032.3637895,W,1,24,0.6,13.284,M,-29.744,M,0.0,*54
###2023-12-09 13:03:57.968807$GNRMC,180357.10,A,4138.0592988,N,07032.3635360,W,3.54,96.18,091223,,,A*6D
###2023-12-09 13:03:57.971667$GNGGA,180357.10,4138.0592988,N,07032.3635360,W,1,24,0.6,13.282,M,-29.744,M,0.0,*55
###2023-12-09 13:03:57.973507$GPGSA,A,3,03,04,16,26,28,29,31,32,,,,,1.1,0.6,0.9*3B
###2023-12-09 13:03:57.975219$GLGSA,A,3,65,71,72,73,74,75,,,,,,,1.1,0.6,0.9*24
###2023-12-09 13:03:57.976792$GAGSA,A,3,04,19,21,27,,,,,,,,,1.1,0.6,0.9*26
###2023-12-09 13:03:57.978429$GBGSA,A,3,14,24,25,26,33,,,,,,,,1.1,0.6,0.9*2F
###2023-12-09 13:03:57.980757$GPGSV,2,1,08,03,34,260,45,04,33,311,42,16,51,213,48,26,81,210,48*7F
###2023-12-09 13:03:57.983083$GPGSV,2,2,08,28,48,071,44,29,25,060,42,31,68,040,47,32,18,140,42*7D
###2023-12-09 13:03:57.985391$GLGSV,2,1,06,65,25,327,40,71,40,173,46,72,73,265,46,73,35,042,44*65
###2023-12-09 13:03:57.987134$GLGSV,2,2,06,74,69,340,43,75,33,254,46,,,,,,,,*6C
###2023-12-09 13:03:57.989437$GAGSV,1,1,04,04,30,312,41,19,84,213,41,21,86,114,46,27,32,048,43*6B
###2023-12-09 13:03:57.991762$GBGSV,2,1,05,14,43,193,45,24,73,026,49,25,41,263,46,26,26,063,42*6A
###2023-12-09 13:03:57.993210$GBGSV,2,2,05,33,57,231,48,,,,,,,,,,,,*50
###2023-12-09 13:03:57.994492$GNVTG,96.18,T,,M,3.54,N,6.55,K,A*11
###2023-12-09 13:03:57.996145$GNGST,180357.10,18.000,,,,0.079,0.065,0.150*5E
###2023-12-09 13:03:57.997428$GNZDA,180357.10,09,12,2023,00,00*78
###2023-12-09 13:03:57.998065$GNEBP,,,,,,M*13
###2023-12-09 13:03:58.164762$GNGGA,180357.30,4138.0592745,N,07032.3632736,W,1,24,0.6,13.271,M,-29.744,M,0.0,*54
###2023-12-09 13:03:58.366626$GNGGA,180357.50,4138.0592478,N,07032.3630159,W,1,24,0.6,13.270,M,-29.744,M,0.0,*53
###2023-12-09 13:03:58.565728$GNGGA,180357.70,4138.0592314,N,07032.3627501,W,1,24,0.6,13.281,M,-29.744,M,0.0,*5D
###2023-12-09 13:03:58.765873$GNGGA,180357.90,4138.0592095,N,07032.3624823,W,1,24,0.6,13.267,M,-29.744,M,0.0,*5F
###2023-12-09 13:03:58.970395$GNRMC,180358.10,A,4138.0592077,N,07032.3622197,W,3.50,88.34,091223,,,A*62
###2023-12-09 13:03:58.973274$GNGGA,180358.10,4138.0592077,N,07032.3622197,W,1,24,0.6,13.261,M,-29.744,M,0.0,*52
###2023-12-09 13:03:58.975139$GPGSA,A,3,03,04,16,26,28,29,31,32,,,,,1.1,0.6,0.9*3B
###2023-12-09 13:03:58.976857$GLGSA,A,3,65,71,72,73,74,75,,,,,,,1.1,0.6,0.9*24
###2023-12-09 13:03:58.978445$GAGSA,A,3,04,19,21,27,,,,,,,,,1.1,0.6,0.9*26
###2023-12-09 13:03:58.980104$GBGSA,A,3,14,24,25,26,33,,,,,,,,1.1,0.6,0.9*2F
###2023-12-09 13:03:58.982421$GPGSV,2,1,08,03,34,260,46,04,33,311,43,16,51,213,47,26,81,210,49*73
###2023-12-09 13:03:58.984757$GPGSV,2,2,08,28,48,071,44,29,25,060,41,31,68,040,47,32,18,140,42*7E
###2023-12-09 13:03:58.987102$GLGSV,2,1,06,65,25,327,41,71,40,173,46,72,73,265,46,73,35,042,45*65
###2023-12-09 13:03:58.988849$GLGSV,2,2,06,74,69,340,43,75,33,254,47,,,,,,,,*6D
###2023-12-09 13:03:58.991194$GAGSV,1,1,04,04,30,312,41,19,84,213,41,21,86,114,46,27,32,048,43*6B
###2023-12-09 13:03:58.993519$GBGSV,2,1,05,14,43,193,45,24,73,026,48,25,41,263,47,26,26,063,42*6A
###2023-12-09 13:03:58.994981$GBGSV,2,2,05,33,57,231,47,,,,,,,,,,,,*5F
###2023-12-09 13:03:58.996271$GNVTG,88.34,T,,M,3.50,N,6.48,K,A*18
###2023-12-09 13:03:58.997921$GNGST,180358.10,18.000,,,,0.079,0.066,0.150*52
###2023-12-09 13:03:58.999226$GNZDA,180358.10,09,12,2023,00,00*77
###2023-12-09 13:03:58.999864$GNEBP,,,,,,M*13
###2023-12-09 13:03:59.168194$GNGGA,180358.30,4138.0592123,N,07032.3619607,W,1,24,0.6,13.272,M,-29.744,M,0.0,*54
###2023-12-09 13:03:59.366285$GNGGA,180358.50,4138.0592127,N,07032.3616994,W,1,24,0.6,13.278,M,-29.744,M,0.0,*56
###2023-12-09 13:03:59.566517$GNGGA,180358.70,4138.0592114,N,07032.3614381,W,1,24,0.6,13.264,M,-29.744,M,0.0,*55
###2023-12-09 13:03:59.769566$GNGGA,180358.90,4138.0592323,N,07032.3611912,W,1,24,0.6,13.264,M,-29.744,M,0.0,*58
###2023-12-09 13:03:59.968620$GNRMC,180359.10,A,4138.0592660,N,07032.3609470,W,3.36,79.12,091223,,,A*6C
###2023-12-09 13:03:59.971482$GNGGA,180359.10,4138.0592660,N,07032.3609470,W,1,24,0.6,13.276,M,-29.744,M,0.0,*50
###2023-12-09 13:03:59.973328$GPGSA,A,3,03,04,16,26,28,29,31,32,,,,,1.1,0.6,0.9*3B
###2023-12-09 13:03:59.975044$GLGSA,A,3,65,71,72,73,74,75,,,,,,,1.1,0.6,0.9*24
###2023-12-09 13:03:59.976624$GAGSA,A,3,04,19,21,27,,,,,,,,,1.1,0.6,0.9*26
###2023-12-09 13:03:59.978262$GBGSA,A,3,14,24,25,26,33,,,,,,,,1.1,0.6,0.9*2F
###2023-12-09 13:03:59.980594$GPGSV,2,1,08,03,34,260,45,04,33,311,44,16,51,213,46,26,81,210,48*77
###2023-12-09 13:03:59.982926$GPGSV,2,2,08,28,48,071,43,29,25,060,40,31,68,040,47,32,18,140,42*78
###2023-12-09 13:03:59.985241$GLGSV,2,1,06,65,25,327,41,71,40,173,46,72,73,265,46,73,35,042,45*65
###2023-12-09 13:03:59.986989$GLGSV,2,2,06,74,69,340,42,75,33,254,47,,,,,,,,*6C
###2023-12-09 13:03:59.989306$GAGSV,1,1,04,04,30,312,42,19,83,207,41,21,86,114,46,27,32,048,42*6B
###2023-12-09 13:03:59.991671$GBGSV,2,1,05,14,43,193,45,24,73,026,47,25,41,263,46,26,26,063,41*67
###2023-12-09 13:03:59.993122$GBGSV,2,2,05,33,57,231,47,,,,,,,,,,,,*5F
###2023-12-09 13:03:59.994412$GNVTG,79.12,T,,M,3.36,N,6.23,K,A*1F
###2023-12-09 13:03:59.996062$GNGST,180359.10,18.000,,,,0.080,0.066,0.160*56
###2023-12-09 13:03:59.997352$GNZDA,180359.10,09,12,2023,00,00*76
###2023-12-09 13:03:59.997989$GNEBP,,,,,,M*13
###2023-12-09 13:04:00.165699$GNGGA,180359.30,4138.0592806,N,07032.3606947,W,1,24,0.6,13.265,M,-29.744,M,0.0,*58
###2023-12-09 13:04:00.365323$GNGGA,180359.50,4138.0592757,N,07032.3604455,W,1,24,0.6,13.255,M,-29.744,M,0.0,*5A
###2023-12-09 13:04:00.565535$GNGGA,180359.70,4138.0592891,N,07032.3602033,W,1,24,0.6,13.266,M,-29.744,M,0.0,*5F
###2023-12-09 13:04:00.767451$GNGGA,180359.90,4138.0593097,N,07032.3599546,W,1,24,0.6,13.266,M,-29.744,M,0.0,*58
###2023-12-09 13:04:00.967613$GNRMC,180400.10,A,4138.0593063,N,07032.3597083,W,3.23,92.57,091223,,,A*6F
###2023-12-09 13:04:00.970456$GNGGA,180400.10,4138.0593063,N,07032.3597083,W,1,24,0.6,13.249,M,-29.744,M,0.0,*5F
###2023-12-09 13:04:00.972339$GPGSA,A,3,03,04,16,26,28,29,31,32,,,,,1.1,0.6,0.9*3B
###2023-12-09 13:04:00.974050$GLGSA,A,3,65,71,72,73,74,75,,,,,,,1.1,0.6,0.9*24
###2023-12-09 13:04:00.975646$GAGSA,A,3,04,19,21,27,,,,,,,,,1.1,0.6,0.9*26
###2023-12-09 13:04:00.977285$GBGSA,A,3,14,24,25,26,33,,,,,,,,1.1,0.6,0.9*2F
###2023-12-09 13:04:00.979620$GPGSV,2,1,08,03,34,260,46,04,33,311,42,16,51,213,48,26,81,210,49*7D
###2023-12-09 13:04:00.981949$GPGSV,2,2,08,28,48,071,45,29,25,060,41,31,68,040,47,32,18,140,41*7C
###2023-12-09 13:04:00.984285$GLGSV,2,1,06,65,25,327,41,71,40,173,46,72,73,265,47,73,35,042,44*65
###2023-12-09 13:04:00.986027$GLGSV,2,2,06,74,69,340,42,75,33,254,47,,,,,,,,*6C
###2023-12-09 13:04:00.988357$GAGSV,1,1,04,04,30,312,40,19,83,207,41,21,86,104,46,27,32,048,42*68
###2023-12-09 13:04:00.990935$GBGSV,2,1,05,14,43,193,45,24,73,026,48,25,41,263,46,26,26,063,42*6B
###2023-12-09 13:04:00.992399$GBGSV,2,2,05,33,57,231,48,,,,,,,,,,,,*50
###2023-12-09 13:04:00.993688$GNVTG,92.57,T,,M,3.23,N,5.98,K,A*1C
###2023-12-09 13:04:00.995344$GNGST,180400.10,18.000,,,,0.080,0.066,0.160*5D
###2023-12-09 13:04:00.996636$GNZDA,180400.10,09,12,2023,00,00*7D
###2023-12-09 13:04:00.997270$GNEBP,,,,,,M*13
###2023-12-09 13:04:01.165565$GNGGA,180400.30,4138.0592932,N,07032.3594646,W,1,24,0.6,13.262,M,-29.744,M,0.0,*54
###2023-12-09 13:04:01.366461$GNGGA,180400.50,4138.0592782,N,07032.3592181,W,1,24,0.6,13.273,M,-29.744,M,0.0,*5D
###2023-12-09 13:04:01.566540$GNGGA,180400.70,4138.0592568,N,07032.3589715,W,1,24,0.6,13.261,M,-29.744,M,0.0,*5B
