###2023-12-09 12:43:42.541901$GNGGA,174341.70,4138.0480701,N,07032.3840727,W,1,24,0.6,13.312,M,-29.745,M,0.0,*50
###2023-12-09 12:43:42.742381$GNGGA,174341.90,4138.0482583,N,07032.3841020,W,1,24,0.6,13.313,M,-29.745,M,0.0,*54
###2023-12-09 12:43:42.942803$GNRMC,174342.10,A,4138.0484418,N,07032.3841317,W,3.34,350.94,091223,,,A*56
###2023-12-09 12:43:42.945670$GNGGA,174342.10,4138.0484418,N,07032.3841317,W,1,24,0.6,13.307,M,-29.745,M,0.0,*58
###2023-12-09 12:43:42.947561$GPGSA,A,3,03,04,16,26,28,29,31,32,,,,,1.1,0.6,0.9*3B
###2023-12-09 12:43:42.949294$GLGSA,A,3,65,71,72,73,74,75,,,,,,,1.1,0.6,0.9*24
###2023-12-09 12:43:42.950897$GAGSA,A,3,04,19,21,27,,,,,,,,,1.1,0.6,0.9*26
###2023-12-09 12:43:42.952557$GBGSA,A,3,14,24,25,26,33,,,,,,,,1.1,0.6,0.9*2F
###2023-12-09 12:43:42.954920$GPGSV,2,1,08,03,38,271,44,04,25,311,39,16,41,209,45,26,70,207,47*79
###2023-12-09 12:43:42.957264$GPGSV,2,2,08,28,55,060,44,29,25,070,42,31,72,013,46,32,27,136,41*72
###2023-12-09 12:43:42.959629$GLGSV,2,1,06,65,16,329,39,71,51,170,47,72,69,300,46,73,44,036,46*69
###2023-12-09 12:43:42.961384$GLGSV,2,2,06,74,71,307,42,75,25,245,45,,,,,,,,*63
###2023-12-09 12:43:42.963747$GAGSV,1,1,04,04,23,312,38,19,84,288,40,21,81,170,46,27,39,049,42*6A
###2023-12-09 12:43:42.966087$GBGSV,2,1,05,14,51,196,45,24,79,002,48,25,35,255,46,26,32,059,43*6A
###2023-12-09 12:43:42.967563$GBGSV,2,2,05,33,62,246,48,,,,,,,,,,,,*56
###2023-12-09 12:43:42.968890$GNVTG,350.94,T,,M,3.34,N,6.19,K,A*22
###2023-12-09 12:43:42.970541$GNGST,174342.10,18.000,,,,0.079,0.070,0.160*56
###2023-12-09 12:43:42.971853$GNZDA,174342.10,09,12,2023,00,00*77
###2023-12-09 12:43:42.972493$GNEBP,,,,,,M*13
###2023-12-09 12:43:43.141225$GNGGA,174342.30,4138.0486223,N,07032.3841776,W,1,24,0.6,13.294,M,-29.745,M,0.0,*5E
###2023-12-09 12:43:43.343069$GNGGA,174342.50,4138.0487975,N,07032.3842283,W,1,24,0.6,13.286,M,-29.745,M,0.0,*5E
###2023-12-09 12:43:43.541885$GNGGA,174342.70,4138.0489719,N,07032.3842853,W,1,24,0.6,13.284,M,-29.744,M,0.0,*52
###2023-12-09 12:43:43.742541$GNGGA,174342.90,4138.0491441,N,07032.3843445,W,1,24,0.6,13.279,M,-29.744,M,0.0,*53
###2023-12-09 12:43:43.941867$GNRMC,174343.10,A,4138.0493103,N,07032.3844069,W,3.21,343.48,091223,,,A*56
###2023-12-09 12:43:43.944757$GNGGA,174343.10,4138.0493103,N,07032.3844069,W,1,24,0.6,13.286,M,-29.744,M,0.0,*56
###2023-12-09 12:43:43.946637$GPGSA,A,3,03,04,16,26,28,29,31,32,,,,,1.1,0.6,0.9*3B
###2023-12-09 12:43:43.948362$GLGSA,A,3,65,71,72,73,74,75,,,,,,,1.1,0.6,0.9*24
###2023-12-09 12:43:43.949949$GAGSA,A,3,04,19,21,27,,,,,,,,,1.1,0.6,0.9*26
###2023-12-09 12:43:43.951630$GBGSA,A,3,14,24,25,26,33,,,,,,,,1.1,0.6,0.9*2F
###2023-12-09 12:43:43.953970$GPGSV,2,1,08,03,38,271,45,04,25,311,40,16,41,209,46,26,70,207,47*75
###2023-12-09 12:43:43.956332$GPGSV,2,2,08,28,55,060,45,29,25,070,43,31,72,013,46,32,27,136,43*70
###2023-12-09 12:43:43.958680$GLGSV,2,1,06,65,16,329,39,71,51,170,47,72,69,300,46,73,44,036,46*69
###2023-12-09 12:43:43.960439$GLGSV,2,2,06,74,71,307,42,75,25,245,44,,,,,,,,*62
###2023-12-09 12:43:43.962783$GAGSV,1,1,04,04,23,312,39,19,84,288,41,21,81,170,46,27,39,049,43*6B
###2023-12-09 12:43:43.965120$GBGSV,2,1,05,14,51,196,46,24,79,002,49,25,35,255,46,26,32,059,44*6F
###2023-12-09 12:43:43.966593$GBGSV,2,2,05,33,62,246,49,,,,,,,,,,,,*57
###2023-12-09 12:43:43.967919$GNVTG,343.48,T,,M,3.21,N,5.94,K,A*23
###2023-12-09 12:43:43.969576$GNGST,174343.10,18.000,,,,0.080,0.070,0.160*51
###2023-12-09 12:43:43.970893$GNZDA,174343.10,09,12,2023,00,00*76
###2023-12-09 12:43:43.971538$GNEBP,,,,,,M*13
###2023-12-09 12:43:44.141402$GNGGA,174343.30,4138.0494755,N,07032.3844870,W,1,24,0.6,13.287,M,-29.744,M,0.0,*57
###2023-12-09 12:43:44.342921$GNGGA,174343.50,4138.0496330,N,07032.3845798,W,1,24,0.6,13.297,M,-29.744,M,0.0,*5D
###2023-12-09 12:43:44.543049$GNGGA,174343.70,4138.0497915,N,07032.3846742,W,1,24,0.6,13.299,M,-29.744,M,0.0,*59
###2023-12-09 12:43:44.741666$GNGGA,174343.90,4138.0499512,N,07032.3847692,W,1,24,0.6,13.298,M,-29.744,M,0.0,*5E
###2023-12-09 12:43:44.950712$GNRMC,174344.10,A,4138.0501074,N,07032.3848716,W,3.17,332.96,091223,,,A*59
###2023-12-09 12:43:44.953566$GNGGA,174344.10,4138.0501074,N,07032.3848716,W,1,24,0.6,13.301,M,-29.744,M,0.0,*57
###2023-12-09 12:43:44.955433$GPGSA,A,3,03,04,16,26,28,29,31,32,,,,,1.1,0.6,0.9*3B
###2023-12-09 12:43:44.957151$GLGSA,A,3,65,71,72,73,74,75,,,,,,,1.1,0.6,0.9*24
###2023-12-09 12:43:44.958747$GAGSA,A,3,04,19,21,27,,,,,,,,,1.1,0.6,0.9*26
###2023-12-09 12:43:44.960400$GBGSA,A,3,14,24,25,26,33,,,,,,,,1.1,0.6,0.9*2F
###2023-12-09 12:43:44.962749$GPGSV,2,1,08,03,38,271,44,04,25,311,40,16,41,209,45,26,70,207,48*78
###2023-12-09 12:43:44.965085$GPGSV,2,2,08,28,55,060,45,29,25,070,44,31,72,013,46,32,27,136,42*76
###2023-12-09 12:43:44.967434$GLGSV,2,1,06,65,16,329,38,71,51,170,47,72,69,300,45,73,44,036,46*6B
###2023-12-09 12:43:44.969193$GLGSV,2,2,06,74,71,307,42,75,25,245,45,,,,,,,,*63
###2023-12-09 12:43:44.971540$GAGSV,1,1,04,04,23,312,40,19,84,288,41,21,81,170,46,27,39,049,43*65
###2023-12-09 12:43:44.973882$GBGSV,2,1,05,14,51,196,45,24,79,002,47,25,35,255,45,26,32,059,44*61
###2023-12-09 12:43:44.975360$GBGSV,2,2,05,33,62,246,47,,,,,,,,,,,,*59
###2023-12-09 12:43:44.976689$GNVTG,332.96,T,,M,3.17,N,5.87,K,A*21
###2023-12-09 12:43:44.978346$GNGST,174344.10,18.000,,,,0.080,0.070,0.160*56
###2023-12-09 12:43:44.979664$GNZDA,174344.10,09,12,2023,00,00*71
###2023-12-09 12:43:44.980308$GNEBP,,,,,,M*13
###2023-12-09 12:43:45.142944$GNGGA,174344.30,4138.0502623,N,07032.3849806,W,1,24,0.6,13.300,M,-29.744,M,0.0,*5C
###2023-12-09 12:43:45.347343$GNGGA,174344.50,4138.0504141,N,07032.3850929,W,1,24,0.6,13.302,M,-29.744,M,0.0,*59
###2023-12-09 12:43:45.541757$GNGGA,174344.70,4138.0505642,N,07032.3852099,W,1,24,0.6,13.309,M,-29.744,M,0.0,*55
###2023-12-09 12:43:45.742326$GNGGA,174344.90,4138.0507106,N,07032.3853355,W,1,24,0.6,13.301,M,-29.744,M,0.0,*54
###2023-12-09 12:43:45.941826$GNRMC,174345.10,A,4138.0508538,N,07032.3854669,W,3.15,325.49,091223,,,A*5E
###2023-12-09 12:43:45.944729$GNGGA,174345.10,4138.0508538,N,07032.3854669,W,1,24,0.6,13.304,M,-29.744,M,0.0,*53
###2023-12-09 12:43:45.946642$GPGSA,A,3,03,04,16,26,28,29,31,32,,,,,1.1,0.6,0.9*3B
###2023-12-09 12:43:45.948388$GLGSA,A,3,65,71,72,73,74,75,,,,,,,1.1,0.6,0.9*24
###2023-12-09 12:43:45.949980$GAGSA,A,3,04,19,21,27,,,,,,,,,1.1,0.6,0.9*26
###2023-12-09 12:43:45.951654$GBGSA,A,3,14,24,25,26,33,,,,,,,,1.1,0.6,0.9*2F
###2023-12-09 12:43:45.953991$GPGSV,2,1,08,03,38,271,45,04,25,311,40,16,41,209,46,26,70,207,48*7A
###2023-12-09 12:43:45.956346$GPGSV,2,2,08,28,55,060,45,29,25,070,43,31,72,013,47,32,27,136,43*71
###2023-12-09 12:43:45.958705$GLGSV,2,1,06,65,16,329,38,71,51,170,47,72,69,300,45,73,44,036,46*6B
###2023-12-09 12:43:45.960460$GLGSV,2,2,06,74,71,307,42,75,25,245,45,,,,,,,,*63
###2023-12-09 12:43:45.962808$GAGSV,1,1,04,04,23,312,38,19,84,288,40,21,81,170,46,27,39,049,43*6B
###2023-12-09 12:43:45.965149$GBGSV,2,1,05,14,51,196,45,24,79,002,48,25,35,255,45,26,32,059,45*6F
###2023-12-09 12:43:45.966618$GBGSV,2,2,05,33,62,246,47,,,,,,,,,,,,*59
###2023-12-09 12:43:45.967942$GNVTG,325.49,T,,M,3.15,N,5.83,K,A*23
###2023-12-09 12:43:45.969593$GNGST,174345.10,18.000,,,,0.080,0.070,0.160*57
###2023-12-09 12:43:45.970903$GNZDA,174345.10,09,12,2023,00,00*70
###2023-12-09 12:43:45.971545$GNEBP,,,,,,M*13
###2023-12-09 12:43:46.149779$GNGGA,174345.30,4138.0510011,N,07032.3855986,W,1,24,0.6,13.301,M,-29.744,M,0.0,*5C
###2023-12-09 12:43:46.342723$GNGGA,174345.50,4138.0511440,N,07032.3857340,W,1,24,0.6,13.297,M,-29.744,M,0.0,*57
###2023-12-09 12:43:46.543431$GNGGA,174345.70,4138.0512796,N,07032.3858797,W,1,24,0.6,13.294,M,-29.744,M,0.0,*5C
###2023-12-09 12:43:46.742135$GNGGA,174345.90,4138.0514107,N,07032.3860327,W,1,24,0.6,13.297,M,-29.744,M,0.0,*5D
###2023-12-09 12:43:46.945410$GNRMC,174346.10,A,4138.0515377,N,07032.3861833,W,2.88,317.68,091223,,,A*5C
###2023-12-09 12:43:46.948961$GNGGA,174346.10,4138.0515377,N,07032.3861833,W,1,24,0.6,13.301,M,-29.744,M,0.0,*53
###2023-12-09 12:43:46.951257$GPGSA,A,3,03,04,16,26,28,29,31,32,,,,,1.1,0.6,0.9*3B
###2023-12-09 12:43:46.953343$GLGSA,A,3,65,71,72,73,74,75,,,,,,,1.1,0.6,0.9*24
###2023-12-09 12:43:46.955569$GAGSA,A,3,04,19,21,27,,,,,,,,,1.1,0.6,0.9*26
###2023-12-09 12:43:46.957574$GBGSA,A,3,14,24,25,26,33,,,,,,,,1.1,0.6,0.9*2F
###2023-12-09 12:43:46.960415$GPGSV,2,1,08,03,38,271,45,04,25,311,40,16,41,209,46,26,70,207,48*7A
###2023-12-09 12:43:46.963305$GPGSV,2,2,08,28,55,060,46,29,25,070,43,31,72,013,48,32,27,136,44*7A
###2023-12-09 12:43:46.966130$GLGSV,2,1,06,65,16,329,40,71,51,170,48,72,69,300,45,73,44,036,47*6A
###2023-12-09 12:43:46.968262$GLGSV,2,2,06,74,71,307,42,75,25,245,45,,,,,,,,*63
###2023-12-09 12:43:46.971100$GAGSV,1,1,04,04,23,312,38,19,84,288,40,21,81,170,46,27,39,049,44*6C
###2023-12-09 12:43:46.973913$GBGSV,2,1,05,14,51,196,45,24,79,002,48,25,35,255,45,26,32,059,45*6F
###2023-12-09 12:43:46.975691$GBGSV,2,2,05,33,62,246,47,,,,,,,,,,,,*59
###2023-12-09 12:43:46.977291$GNVTG,317.68,T,,M,2.88,N,5.33,K,A*2F
