###2023-12-09 13:03:13.982004$GPGSV,2,2,08,28,49,070,45,29,25,061,42,31,69,038,47,32,19,140,44*74
###2023-12-09 13:03:13.984388$GLGSV,2,1,06,65,25,327,41,71,40,173,46,72,73,265,45,73,35,042,44*67
###2023-12-09 13:03:13.986146$GLGSV,2,2,06,74,69,340,42,75,33,254,43,,,,,,,,*68
###2023-12-09 13:03:13.988486$GAGSV,1,1,04,04,29,312,39,19,84,213,40,21,86,114,45,27,32,048,40*6D
###2023-12-09 13:03:13.990824$GBGSV,2,1,05,14,43,193,44,24,73,026,48,25,41,263,45,26,26,063,43*68
###2023-12-09 13:03:13.992279$GBGSV,2,2,05,33,57,231,47,,,,,,,,,,,,*5F
###2023-12-09 13:03:13.993599$GNVTG,266.65,T,,M,3.50,N,6.48,K,A*2E
###2023-12-09 13:03:13.995259$GNGST,180313.10,18.000,,,,0.083,0.070,0.160*5C
###2023-12-09 13:03:13.996548$GNZDA,180313.10,09,12,2023,00,00*78
###2023-12-09 13:03:13.997185$GNEBP,,,,,,M*13
###2023-12-09 13:03:14.164277$GNGGA,180313.30,4138.0473972,N,07032.3816342,W,1,24,0.6,13.521,M,-29.745,M,0.0,*5C
###2023-12-09 13:03:14.365071$GNGGA,180313.50,4138.0473753,N,07032.3819038,W,1,24,0.6,13.527,M,-29.745,M,0.0,*50
###2023-12-09 13:03:14.565459$GNGGA,180313.70,4138.0473426,N,07032.3821747,W,1,24,0.6,13.530,M,-29.745,M,0.0,*51
###2023-12-09 13:03:14.764494$GNGGA,180313.90,4138.0473043,N,07032.3824481,W,1,24,0.6,13.527,M,-29.745,M,0.0,*52
###2023-12-09 13:03:14.965508$GNRMC,180314.10,A,4138.0472612,N,07032.3827229,W,3.79,258.00,091223,,,A*5E
###2023-12-09 13:03:14.968393$GNGGA,180314.10,4138.0472612,N,07032.3827229,W,1,24,0.6,13.521,M,-29.745,M,0.0,*5F
###2023-12-09 13:03:14.970240$GPGSA,A,3,03,04,16,26,28,29,31,32,,,,,1.1,0.6,0.9*3B
###2023-12-09 13:03:14.971956$GLGSA,A,3,65,71,72,73,74,75,,,,,,,1.1,0.6,0.9*24
###2023-12-09 13:03:14.973525$GAGSA,A,3,04,19,21,27,,,,,,,,,1.1,0.6,0.9*26
###2023-12-09 13:03:14.975174$GBGSA,A,3,14,24,25,26,33,,,,,,,,1.1,0.6,0.9*2F
###2023-12-09 13:03:14.977489$GPGSV,2,1,08,03,34,260,43,04,33,311,42,16,50,212,46,26,80,210,48*76
###2023-12-09 13:03:14.979817$GPGSV,2,2,08,28,49,070,45,29,25,061,43,31,69,038,48,32,19,140,43*7D
###2023-12-09 13:03:14.982138$GLGSV,2,1,06,65,25,327,42,71,40,173,45,72,73,265,45,73,35,042,45*66
###2023-12-09 13:03:14.983896$GLGSV,2,2,06,74,69,340,43,75,33,254,43,,,,,,,,*69
###2023-12-09 13:03:14.986212$GAGSV,1,1,04,04,29,312,40,19,84,213,40,21,86,114,46,27,32,048,43*63
###2023-12-09 13:03:14.988542$GBGSV,2,1,05,14,43,193,45,24,73,026,49,25,41,263,45,26,26,063,44*6F
###2023-12-09 13:03:14.989994$GBGSV,2,2,05,33,57,231,47,,,,,,,,,,,,*5F
###2023-12-09 13:03:14.991318$GNVTG,258.00,T,,M,3.79,N,7.02,K,A*24
###2023-12-09 13:03:14.992956$GNGST,180314.10,18.000,,,,0.082,0.070,0.160*5A
###2023-12-09 13:03:14.994239$GNZDA,180314.10,09,12,2023,00,00*7F
###2023-12-09 13:03:14.994888$GNEBP,,,,,,M*13
###2023-12-09 13:03:15.166699$GNGGA,180314.30,4138.0472169,N,07032.3829979,W,1,24,0.6,13.516,M,-29.745,M,0.0,*52
###2023-12-09 13:03:15.363846$GNGGA,180314.50,4138.0471771,N,07032.3832753,W,1,24,0.6,13.508,M,-29.745,M,0.0,*5B
###2023-12-09 13:03:15.564130$GNGGA,180314.70,4138.0471401,N,07032.3835502,W,1,24,0.6,13.500,M,-29.745,M,0.0,*54
###2023-12-09 13:03:15.764456$GNGGA,180314.90,4138.0471100,N,07032.3838239,W,1,24,0.6,13.494,M,-29.745,M,0.0,*50
###2023-12-09 13:03:15.966281$GNRMC,180315.10,A,4138.0470856,N,07032.3840966,W,3.67,264.75,091223,,,A*50
###2023-12-09 13:03:15.969169$GNGGA,180315.10,4138.0470856,N,07032.3840966,W,1,24,0.6,13.492,M,-29.745,M,0.0,*5A
###2023-12-09 13:03:15.971039$GPGSA,A,3,03,04,16,26,28,29,31,32,,,,,1.1,0.6,0.9*3B
###2023-12-09 13:03:15.972756$GLGSA,A,3,65,71,72,73,74,75,,,,,,,1.1,0.6,0.9*24
###2023-12-09 13:03:15.974339$GAGSA,A,3,04,19,21,27,,,,,,,,,1.1,0.6,0.9*26
###2023-12-09 13:03:15.975999$GBGSA,A,3,14,24,25,26,33,,,,,,,,1.1,0.6,0.9*2F
###2023-12-09 13:03:15.978328$GPGSV,2,1,08,03,34,260,42,04,33,311,42,16,50,212,46,26,80,210,48*77
###2023-12-09 13:03:15.980681$GPGSV,2,2,08,28,49,070,45,29,25,061,42,31,69,038,48,32,19,140,44*7B
###2023-12-09 13:03:15.983020$GLGSV,2,1,06,65,25,327,41,71,40,173,45,72,73,265,45,73,35,042,45*65
###2023-12-09 13:03:15.984768$GLGSV,2,2,06,74,69,340,42,75,33,254,42,,,,,,,,*69
###2023-12-09 13:03:15.987105$GAGSV,1,1,04,04,29,312,40,19,84,213,40,21,86,114,46,27,32,048,42*62
###2023-12-09 13:03:15.989445$GBGSV,2,1,05,14,43,193,43,24,73,026,48,25,41,263,44,26,26,063,42*6F
###2023-12-09 13:03:15.990917$GBGSV,2,2,05,33,57,231,47,,,,,,,,,,,,*5F
###2023-12-09 13:03:15.992242$GNVTG,264.75,T,,M,3.67,N,6.80,K,A*2D
###2023-12-09 13:03:15.993892$GNGST,180315.10,18.000,,,,0.082,0.069,0.160*53
###2023-12-09 13:03:15.995199$GNZDA,180315.10,09,12,2023,00,00*7E
###2023-12-09 13:03:15.995841$GNEBP,,,,,,M*13
###2023-12-09 13:03:16.162474$GNGGA,180315.30,4138.0470694,N,07032.3843673,W,1,24,0.6,13.483,M,-29.745,M,0.0,*50
###2023-12-09 13:03:16.364859$GNGGA,180315.50,4138.0470595,N,07032.3846346,W,1,24,0.6,13.476,M,-29.745,M,0.0,*58
###2023-12-09 13:03:16.564061$GNGGA,180315.70,4138.0470577,N,07032.3848955,W,1,24,0.6,13.465,M,-29.745,M,0.0,*52
###2023-12-09 13:03:16.772752$GNGGA,180315.90,4138.0470637,N,07032.3851516,W,1,24,0.6,13.455,M,-29.745,M,0.0,*5B
###2023-12-09 13:03:16.967649$GNRMC,180316.10,A,4138.0470803,N,07032.3853983,W,3.25,275.30,091223,,,A*5D
###2023-12-09 13:03:16.970491$GNGGA,180316.10,4138.0470803,N,07032.3853983,W,1,24,0.6,13.446,M,-29.745,M,0.0,*59
###2023-12-09 13:03:16.972353$GPGSA,A,3,03,04,16,26,28,29,31,32,,,,,1.1,0.6,0.9*3B
###2023-12-09 13:03:16.974068$GLGSA,A,3,65,71,72,73,74,75,,,,,,,1.1,0.6,0.9*24
###2023-12-09 13:03:16.975660$GAGSA,A,3,04,19,21,27,,,,,,,,,1.1,0.6,0.9*26
###2023-12-09 13:03:16.977303$GBGSA,A,3,14,24,25,26,33,,,,,,,,1.1,0.6,0.9*2F
###2023-12-09 13:03:16.979633$GPGSV,2,1,08,03,34,260,40,04,33,311,40,16,50,212,45,26,80,210,48*74
###2023-12-09 13:03:16.981951$GPGSV,2,2,08,28,49,070,45,29,25,061,42,31,69,038,47,32,19,140,44*74
###2023-12-09 13:03:16.984289$GLGSV,2,1,06,65,25,327,37,71,40,173,46,72,73,265,44,73,35,042,46*65
###2023-12-09 13:03:16.986027$GLGSV,2,2,06,74,69,340,42,75,33,254,42,,,,,,,,*69
###2023-12-09 13:03:16.988355$GAGSV,1,1,04,04,29,312,39,19,84,213,40,21,86,114,46,27,32,048,42*6C
###2023-12-09 13:03:16.990685$GBGSV,2,1,05,14,43,193,45,24,73,026,49,25,41,263,44,26,26,063,43*69
###2023-12-09 13:03:16.992140$GBGSV,2,2,05,33,57,231,48,,,,,,,,,,,,*50
###2023-12-09 13:03:16.993455$GNVTG,275.30,T,,M,3.25,N,6.01,K,A*23
###2023-12-09 13:03:16.995104$GNGST,180316.10,18.000,,,,0.082,0.070,0.160*58
###2023-12-09 13:03:16.996394$GNZDA,180316.10,09,12,2023,00,00*7D
###2023-12-09 13:03:16.997029$GNEBP,,,,,,M*13
###2023-12-09 13:03:17.165321$GNGGA,180316.30,4138.0471066,N,07032.3856364,W,1,24,0.6,13.435,M,-29.745,M,0.0,*53
###2023-12-09 13:03:17.365166$GNGGA,180316.50,4138.0471480,N,07032.3858650,W,1,24,0.6,13.433,M,-29.745,M,0.0,*53
###2023-12-09 13:03:17.565322$GNGGA,180316.70,4138.0471986,N,07032.3860856,W,1,24,0.6,13.431,M,-29.745,M,0.0,*5B
###2023-12-09 13:03:17.767241$GNGGA,180316.90,4138.0472521,N,07032.3863032,W,1,24,0.6,13.423,M,-29.745,M,0.0,*5D
###2023-12-09 13:03:17.969309$GNRMC,180317.10,A,4138.0473091,N,07032.3865175,W,3.03,290.16,091223,,,A*53
###2023-12-09 13:03:17.972181$GNGGA,180317.10,4138.0473091,N,07032.3865175,W,1,24,0.6,13.416,M,-29.745,M,0.0,*59
###2023-12-09 13:03:17.974036$GPGSA,A,3,03,04,16,26,28,29,31,32,,,,,1.1,0.6,0.9*3B
###2023-12-09 13:03:17.975762$GLGSA,A,3,65,71,72,73,74,75,,,,,,,1.1,0.6,0.9*24
###2023-12-09 13:03:17.977344$GAGSA,A,3,04,19,21,27,,,,,,,,,1.1,0.6,0.9*26
###2023-12-09 13:03:17.978998$GBGSA,A,3,14,24,25,26,33,,,,,,,,1.1,0.6,0.9*2F
###2023-12-09 13:03:17.981320$GPGSV,2,1,08,03,34,260,42,04,33,311,43,16,51,213,46,26,80,210,48*76
###2023-12-09 13:03:17.983657$GPGSV,2,2,08,28,49,070,45,29,25,061,41,31,69,038,46,32,19,140,44*76
###2023-12-09 13:03:17.985983$GLGSV,2,1,06,65,25,327,37,71,40,173,46,72,73,265,46,73,35,042,46*67
###2023-12-09 13:03:17.987736$GLGSV,2,2,06,74,69,340,41,75,33,254,44,,,,,,,,*6C
###2023-12-09 13:03:17.990058$GAGSV,1,1,04,04,29,312,41,19,84,213,40,21,86,114,46,27,32,048,42*63
###2023-12-09 13:03:17.992398$GBGSV,2,1,05,14,43,193,44,24,73,026,48,25,41,263,45,26,26,063,42*69
###2023-12-09 13:03:17.993850$GBGSV,2,2,05,33,57,231,46,,,,,,,,,,,,*5E
###2023-12-09 13:03:17.995182$GNVTG,290.16,T,,M,3.03,N,5.62,K,A*2E
###2023-12-09 13:03:17.997069$GNGST,180317.10,18.000,,,,0.082,0.069,0.160*51
###2023-12-09 13:03:17.998367$GNZDA,180317.10,09,12,2023,00,00*7C
###2023-12-09 13:03:17.999033$GNEBP,,,,,,M*13
###2023-12-09 13:03:18.164618$GNGGA,180317.30,4138.0473730,N,07032.3867298,W,1,24,0.6,13.407,M,-29.745,M,0.0,*55
###2023-12-09 13:03:18.365172$GNGGA,180317.50,4138.0474445,N,07032.3869394,W,1,24,0.6,13.407,M,-29.745,M,0.0,*56
###2023-12-09 13:03:18.566985$GNGGA,180317.70,4138.0475215,N,07032.3871471,W,1,24,0.6,13.402,M,-29.745,M,0.0,*56
###2023-12-09 13:03:18.770826$GNGGA,180317.90,4138.0475986,N,07032.3873562,W,1,24,0.6,13.397,M,-29.745,M,0.0,*53
###2023-12-09 13:03:18.967567$GNRMC,180318.10,A,4138.0476760,N,07032.3875714,W,3.27,297.00,091223,,,A*56
###2023-12-09 13:03:18.970417$GNGGA,180318.10,4138.0476760,N,07032.3875714,W,1,24,0.6,13.390,M,-29.745,M,0.0,*53
