###2023-12-09 13:05:07.998009$GNVTG,96.56,T,,M,3.54,N,6.55,K,A*1B
###2023-12-09 13:05:07.999703$GNGST,180507.10,18.000,,,,0.081,0.067,0.160*5B
###2023-12-09 13:05:08.001006$GNZDA,180507.10,09,12,2023,00,00*7B
###2023-12-09 13:05:08.001649$GNEBP,,,,,,M*13
###2023-12-09 13:05:08.166246$GNGGA,180507.30,4138.0575864,N,07032.2745042,W,1,24,0.6,13.326,M,-29.743,M,0.0,*52
###2023-12-09 13:05:08.366864$GNGGA,180507.50,4138.0575925,N,07032.2742594,W,1,24,0.6,13.324,M,-29.743,M,0.0,*5B
###2023-12-09 13:05:08.567129$GNGGA,180507.70,4138.0575946,N,07032.2740041,W,1,24,0.6,13.334,M,-29.743,M,0.0,*52
###2023-12-09 13:05:08.767027$GNGGA,180507.90,4138.0575645,N,07032.2737415,W,1,24,0.6,13.323,M,-29.743,M,0.0,*53
###2023-12-09 13:05:08.976267$GNRMC,180508.10,A,4138.0575508,N,07032.2734925,W,3.30,89.10,091223,,,A*62
###2023-12-09 13:05:08.979143$GNGGA,180508.10,4138.0575508,N,07032.2734925,W,1,24,0.6,13.319,M,-29.743,M,0.0,*5A
###2023-12-09 13:05:08.981005$GPGSA,A,3,03,04,16,26,28,29,31,32,,,,,1.1,0.6,0.9*3B
###2023-12-09 13:05:08.982750$GLGSA,A,3,65,71,72,73,74,75,,,,,,,1.1,0.6,0.9*24
###2023-12-09 13:05:08.984339$GAGSA,A,3,04,19,21,27,,,,,,,,,1.1,0.6,0.9*26
###2023-12-09 13:05:08.985993$GBGSA,A,3,14,24,25,26,33,,,,,,,,1.1,0.6,0.9*2F
###2023-12-09 13:05:08.988345$GPGSV,2,1,08,03,34,259,45,04,34,311,41,16,51,213,48,26,81,210,48*71
###2023-12-09 13:05:08.990696$GPGSV,2,2,08,28,48,071,44,29,25,060,41,31,68,040,46,32,18,140,43*7E
###2023-12-09 13:05:08.993031$GLGSV,2,1,06,65,26,327,39,71,39,173,46,72,73,261,47,73,34,043,43*64
###2023-12-09 13:05:08.994790$GLGSV,2,2,06,74,69,343,43,75,33,255,47,,,,,,,,*6F
###2023-12-09 13:05:08.997124$GAGSV,1,1,04,04,30,312,40,19,83,207,41,21,86,104,46,27,32,048,43*69
###2023-12-09 13:05:08.999471$GBGSV,2,1,05,14,42,192,46,24,72,028,48,25,42,263,46,26,25,063,42*67
###2023-12-09 13:05:09.000926$GBGSV,2,2,05,33,56,230,48,,,,,,,,,,,,*50
###2023-12-09 13:05:09.002218$GNVTG,89.10,T,,M,3.30,N,6.12,K,A*16
###2023-12-09 13:05:09.003881$GNGST,180508.10,18.000,,,,0.081,0.067,0.160*54
###2023-12-09 13:05:09.005175$GNZDA,180508.10,09,12,2023,00,00*74
###2023-12-09 13:05:09.005817$GNEBP,,,,,,M*13
###2023-12-09 13:05:09.169263$GNGGA,180508.30,4138.0575601,N,07032.2732401,W,1,24,0.6,13.336,M,-29.743,M,0.0,*52
###2023-12-09 13:05:09.366659$GNGGA,180508.50,4138.0575613,N,07032.2729817,W,1,24,0.6,13.320,M,-29.743,M,0.0,*51
###2023-12-09 13:05:09.567166$GNGGA,180508.70,4138.0575541,N,07032.2727350,W,1,24,0.6,13.329,M,-29.743,M,0.0,*58
###2023-12-09 13:05:09.767128$GNGGA,180508.90,4138.0575418,N,07032.2724775,W,1,24,0.6,13.339,M,-29.743,M,0.0,*5A
###2023-12-09 13:05:09.968619$GNRMC,180509.10,A,4138.0575486,N,07032.2722168,W,3.42,85.59,091223,,,A*66
###2023-12-09 13:05:09.971481$GNGGA,180509.10,4138.0575486,N,07032.2722168,W,1,24,0.6,13.326,M,-29.743,M,0.0,*56
###2023-12-09 13:05:09.973343$GPGSA,A,3,03,04,16,26,28,29,31,32,,,,,1.1,0.6,0.9*3B
###2023-12-09 13:05:09.975078$GLGSA,A,3,65,71,72,73,74,75,,,,,,,1.1,0.6,0.9*24
###2023-12-09 13:05:09.976664$GAGSA,A,3,04,19,21,27,,,,,,,,,1.1,0.6,0.9*26
###2023-12-09 13:05:09.978311$GBGSA,A,3,14,24,25,26,33,,,,,,,,1.1,0.6,0.9*2F
###2023-12-09 13:05:09.980648$GPGSV,2,1,08,03,34,259,45,04,34,311,41,16,51,213,47,26,81,210,48*7E
###2023-12-09 13:05:09.982994$GPGSV,2,2,08,28,48,071,43,29,25,060,41,31,68,040,47,32,18,140,42*79
###2023-12-09 13:05:09.985325$GLGSV,2,1,06,65,26,327,40,71,39,173,47,72,73,261,47,73,34,043,43*6B
###2023-12-09 13:05:09.987090$GLGSV,2,2,06,74,69,343,43,75,33,255,47,,,,,,,,*6F
###2023-12-09 13:05:09.989427$GAGSV,1,1,04,04,30,312,39,19,83,207,41,21,86,104,46,27,32,048,43*67
###2023-12-09 13:05:09.991770$GBGSV,2,1,05,14,42,192,46,24,72,028,48,25,42,263,47,26,25,063,42*66
###2023-12-09 13:05:09.993229$GBGSV,2,2,05,33,56,230,48,,,,,,,,,,,,*50
###2023-12-09 13:05:09.994522$GNVTG,85.59,T,,M,3.42,N,6.34,K,A*16
###2023-12-09 13:05:09.996183$GNGST,180509.10,18.000,,,,0.081,0.067,0.160*55
###2023-12-09 13:05:09.997482$GNZDA,180509.10,09,12,2023,00,00*75
###2023-12-09 13:05:09.998121$GNEBP,,,,,,M*13
###2023-12-09 13:05:10.164983$GNGGA,180509.30,4138.0575669,N,07032.2719682,W,1,24,0.6,13.325,M,-29.743,M,0.0,*5F
###2023-12-09 13:05:10.365390$GNGGA,180509.50,4138.0575747,N,07032.2717107,W,1,24,0.6,13.346,M,-29.743,M,0.0,*55
###2023-12-09 13:05:10.565801$GNGGA,180509.70,4138.0575617,N,07032.2714504,W,1,24,0.6,13.344,M,-29.743,M,0.0,*55
###2023-12-09 13:05:10.766105$GNGGA,180509.90,4138.0575588,N,07032.2712051,W,1,24,0.6,13.337,M,-29.743,M,0.0,*59
###2023-12-09 13:05:10.969401$GNRMC,180510.10,A,4138.0575773,N,07032.2709534,W,3.48,84.37,091223,,,A*60
###2023-12-09 13:05:10.972297$GNGGA,180510.10,4138.0575773,N,07032.2709534,W,1,24,0.6,13.344,M,-29.743,M,0.0,*57
###2023-12-09 13:05:10.974167$GPGSA,A,3,03,04,16,26,28,29,31,32,,,,,1.1,0.6,0.9*3B
###2023-12-09 13:05:10.975900$GLGSA,A,3,65,71,72,73,74,75,,,,,,,1.1,0.6,0.9*24
###2023-12-09 13:05:10.977484$GAGSA,A,3,04,19,21,27,,,,,,,,,1.1,0.6,0.9*26
###2023-12-09 13:05:10.979144$GBGSA,A,3,14,24,25,26,33,,,,,,,,1.1,0.6,0.9*2F
###2023-12-09 13:05:10.981468$GPGSV,2,1,08,03,34,259,45,04,34,311,41,16,51,213,47,26,81,210,49*7F
###2023-12-09 13:05:10.983814$GPGSV,2,2,08,28,48,071,43,29,25,060,40,31,68,040,46,32,18,140,42*79
###2023-12-09 13:05:10.986146$GLGSV,2,1,06,65,26,327,40,71,39,173,47,72,73,261,47,73,34,043,44*6C
###2023-12-09 13:05:10.987913$GLGSV,2,2,06,74,69,343,43,75,33,255,48,,,,,,,,*60
###2023-12-09 13:05:10.990246$GAGSV,1,1,04,04,30,312,39,19,83,207,41,21,86,104,46,27,32,048,42*66
###2023-12-09 13:05:10.992592$GBGSV,2,1,05,14,42,192,46,24,72,028,48,25,42,263,47,26,25,063,42*66
###2023-12-09 13:05:10.994049$GBGSV,2,2,05,33,56,230,49,,,,,,,,,,,,*51
###2023-12-09 13:05:10.995357$GNVTG,84.37,T,,M,3.48,N,6.44,K,A*12
###2023-12-09 13:05:10.997006$GNGST,180510.10,18.000,,,,0.081,0.067,0.160*5D
###2023-12-09 13:05:10.998296$GNZDA,180510.10,09,12,2023,00,00*7D
###2023-12-09 13:05:10.998948$GNEBP,,,,,,M*13
###2023-12-09 13:05:11.165689$GNGGA,180510.30,4138.0575863,N,07032.2707027,W,1,24,0.6,13.325,M,-29.743,M,0.0,*55
###2023-12-09 13:05:11.366824$GNGGA,180510.50,4138.0575825,N,07032.2704617,W,1,24,0.6,13.355,M,-29.743,M,0.0,*50
###2023-12-09 13:05:11.567051$GNGGA,180510.70,4138.0575633,N,07032.2702100,W,1,24,0.6,13.381,M,-29.743,M,0.0,*55
###2023-12-09 13:05:11.766987$GNGGA,180510.90,4138.0575493,N,07032.2699603,W,1,24,0.6,13.360,M,-29.743,M,0.0,*5B
###2023-12-09 13:05:11.968850$GNRMC,180511.10,A,4138.0575537,N,07032.2697153,W,3.25,85.20,091223,,,A*6C
###2023-12-09 13:05:11.971720$GNGGA,180511.10,4138.0575537,N,07032.2697153,W,1,24,0.6,13.349,M,-29.743,M,0.0,*5A
###2023-12-09 13:05:11.973576$GPGSA,A,3,03,04,16,26,28,29,31,32,,,,,1.1,0.6,0.9*3B
###2023-12-09 13:05:11.975298$GLGSA,A,3,65,71,72,73,74,75,,,,,,,1.1,0.6,0.9*24
###2023-12-09 13:05:11.976881$GAGSA,A,3,04,19,21,27,,,,,,,,,1.1,0.6,0.9*26
###2023-12-09 13:05:11.978529$GBGSA,A,3,14,24,25,26,33,,,,,,,,1.1,0.6,0.9*2F
###2023-12-09 13:05:11.980867$GPGSV,2,1,08,03,34,259,45,04,34,311,41,16,51,213,47,26,81,210,48*7E
###2023-12-09 13:05:11.983209$GPGSV,2,2,08,28,48,071,43,29,25,060,40,31,68,040,47,32,18,140,41*7B
###2023-12-09 13:05:11.985541$GLGSV,2,1,06,65,26,327,40,71,39,173,46,72,73,261,47,73,34,043,44*6D
###2023-12-09 13:05:11.987300$GLGSV,2,2,06,74,69,343,43,75,33,255,47,,,,,,,,*6F
###2023-12-09 13:05:11.989636$GAGSV,1,1,04,04,30,312,40,19,83,207,41,21,86,104,46,27,32,048,42*68
###2023-12-09 13:05:11.991972$GBGSV,2,1,05,14,42,192,46,24,72,028,49,25,42,263,47,26,25,063,40*65
###2023-12-09 13:05:11.993432$GBGSV,2,2,05,33,56,230,48,,,,,,,,,,,,*50
###2023-12-09 13:05:11.994734$GNVTG,85.20,T,,M,3.25,N,6.01,K,A*1F
###2023-12-09 13:05:11.996384$GNGST,180511.10,18.000,,,,0.081,0.067,0.160*5C
###2023-12-09 13:05:11.997677$GNZDA,180511.10,09,12,2023,00,00*7C
###2023-12-09 13:05:11.998318$GNEBP,,,,,,M*13
###2023-12-09 13:05:12.165113$GNGGA,180511.30,4138.0575628,N,07032.2694734,W,1,24,0.6,13.366,M,-29.742,M,0.0,*5D
###2023-12-09 13:05:12.365665$GNGGA,180511.50,4138.0575524,N,07032.2692218,W,1,24,0.6,13.397,M,-29.742,M,0.0,*57
###2023-12-09 13:05:12.565814$GNGGA,180511.70,4138.0575169,N,07032.2689643,W,1,24,0.6,13.386,M,-29.742,M,0.0,*58
###2023-12-09 13:05:12.765820$GNGGA,180511.90,4138.0575019,N,07032.2687147,W,1,24,0.6,13.362,M,-29.742,M,0.0,*57
###2023-12-09 13:05:12.972156$GNRMC,180512.10,A,4138.0575257,N,07032.2684672,W,3.44,82.06,091223,,,A*6C
###2023-12-09 13:05:12.975011$GNGGA,180512.10,4138.0575257,N,07032.2684672,W,1,24,0.6,13.378,M,-29.742,M,0.0,*5D
###2023-12-09 13:05:12.976867$GPGSA,A,3,03,04,16,26,28,29,31,32,,,,,1.1,0.6,0.9*3B
###2023-12-09 13:05:12.978591$GLGSA,A,3,65,71,72,73,74,75,,,,,,,1.1,0.6,0.9*24
###2023-12-09 13:05:12.980175$GAGSA,A,3,04,19,21,27,,,,,,,,,1.1,0.6,0.9*26
###2023-12-09 13:05:12.981816$GBGSA,A,3,14,24,25,26,33,,,,,,,,1.1,0.6,0.9*2F
###2023-12-09 13:05:12.984155$GPGSV,2,1,08,03,34,259,45,04,34,311,43,16,51,213,47,26,81,210,48*7C
###2023-12-09 13:05:12.986492$GPGSV,2,2,08,28,48,071,43,29,25,060,40,31,68,040,47,32,18,140,39*74
