###2023-12-09 13:41:34.015589$GPGSV,2,2,06,29,19,044,43,31,57,071,47,,,,,,,,*7E
###2023-12-09 13:41:34.017930$GLGSV,2,1,05,65,41,315,39,72,59,216,46,73,20,054,42,74,57,019,42*68
###2023-12-09 13:41:34.019400$GLGSV,2,2,05,75,45,276,46,,,,,,,,,,,,*52
###2023-12-09 13:41:34.021722$GAGSV,1,1,04,04,41,309,41,19,69,180,41,21,74,044,46,27,20,051,41*6D
###2023-12-09 13:41:34.024061$GBGSV,2,1,05,12,17,124,43,24,60,049,48,25,53,279,47,33,43,215,48*6A
###2023-12-09 13:41:34.025510$GBGSV,2,2,05,35,16,054,43,,,,,,,,,,,,*59
###2023-12-09 13:41:34.026839$GNVTG,320.87,T,,M,3.25,N,6.01,K,A*2E
###2023-12-09 13:41:34.028449$GNGST,184133.10,5.800,,,,0.120,0.100,0.230*64
###2023-12-09 13:41:34.029732$GNZDA,184133.10,09,12,2023,00,00*7C
###2023-12-09 13:41:34.030363$GNEBP,,,,,,M*13
###2023-12-09 13:41:34.199615$GNGGA,184133.30,4138.0310656,N,07032.4033102,W,1,20,0.8,13.189,M,-29.745,M,0.0,*51
###2023-12-09 13:41:34.398714$GNGGA,184133.50,4138.0312072,N,07032.4034621,W,1,20,0.8,13.187,M,-29.745,M,0.0,*5A
###2023-12-09 13:41:34.596295$GNGGA,184133.70,4138.0313524,N,07032.4036086,W,1,21,0.7,13.187,M,-29.745,M,0.0,*58
###2023-12-09 13:41:34.797744$GNGGA,184133.90,4138.0315006,N,07032.4037575,W,1,20,0.8,13.186,M,-29.745,M,0.0,*52
###2023-12-09 13:41:35.003810$GNRMC,184134.10,A,4138.0316504,N,07032.4039038,W,3.38,323.92,091223,,,A*5A
###2023-12-09 13:41:35.006880$GNGGA,184134.10,4138.0316504,N,07032.4039038,W,1,21,0.7,13.182,M,-29.745,M,0.0,*51
###2023-12-09 13:41:35.008747$GPGSA,A,3,03,04,16,26,28,29,31,,,,,,1.2,0.7,1.0*30
###2023-12-09 13:41:35.010396$GLGSA,A,3,65,72,73,74,75,,,,,,,,1.2,0.7,1.0*28
###2023-12-09 13:41:35.011995$GAGSA,A,3,04,19,21,27,,,,,,,,,1.2,0.7,1.0*2C
###2023-12-09 13:41:35.013639$GBGSA,A,3,12,24,25,33,35,,,,,,,,1.2,0.7,1.0*21
###2023-12-09 13:41:35.015981$GPGSV,2,1,07,03,24,243,35,04,49,306,44,16,70,226,47,26,80,041,49*76
###2023-12-09 13:41:35.018025$GPGSV,2,2,07,28,35,088,44,29,19,044,42,31,57,071,48,,,,*4D
###2023-12-09 13:41:35.020369$GLGSV,2,1,05,65,41,315,39,72,59,216,46,73,20,054,43,74,57,019,41*6A
###2023-12-09 13:41:35.021825$GLGSV,2,2,05,75,45,276,47,,,,,,,,,,,,*53
###2023-12-09 13:41:35.024155$GAGSV,1,1,04,04,41,309,42,19,69,180,42,21,74,044,46,27,20,051,42*6E
###2023-12-09 13:41:35.026483$GBGSV,2,1,05,12,17,124,42,24,60,049,48,25,53,279,47,33,43,215,48*6B
###2023-12-09 13:41:35.027950$GBGSV,2,2,05,35,16,054,42,,,,,,,,,,,,*58
###2023-12-09 13:41:35.029267$GNVTG,323.92,T,,M,3.38,N,6.26,K,A*20
###2023-12-09 13:41:35.030890$GNGST,184134.10,6.700,,,,0.120,0.100,0.230*6F
###2023-12-09 13:41:35.032175$GNZDA,184134.10,09,12,2023,00,00*7B
###2023-12-09 13:41:35.032809$GNEBP,,,,,,M*13
###2023-12-09 13:41:35.203373$GNGGA,184134.30,4138.0318009,N,07032.4040533,W,1,22,0.7,13.187,M,-29.745,M,0.0,*53
###2023-12-09 13:41:35.398592$GNGGA,184134.50,4138.0319477,N,07032.4042056,W,1,20,0.7,13.183,M,-29.745,M,0.0,*5B
###2023-12-09 13:41:35.599425$GNGGA,184134.70,4138.0320999,N,07032.4043472,W,1,22,0.7,13.188,M,-29.745,M,0.0,*54
###2023-12-09 13:41:35.799104$GNGGA,184134.90,4138.0322508,N,07032.4044898,W,1,22,0.7,13.189,M,-29.745,M,0.0,*52
###2023-12-09 13:41:36.002825$GNRMC,184135.10,A,4138.0323988,N,07032.4046375,W,3.46,323.15,091223,,,A*51
###2023-12-09 13:41:36.005679$GNGGA,184135.10,4138.0323988,N,07032.4046375,W,1,21,0.7,13.194,M,-29.745,M,0.0,*5B
###2023-12-09 13:41:36.007416$GPGSA,A,3,04,16,26,28,29,31,,,,,,,1.2,0.7,1.0*33
###2023-12-09 13:41:36.009065$GLGSA,A,3,65,72,73,74,75,,,,,,,,1.2,0.7,1.0*28
###2023-12-09 13:41:36.010658$GAGSA,A,3,04,19,21,27,,,,,,,,,1.2,0.7,1.0*2C
###2023-12-09 13:41:36.012367$GBGSA,A,3,12,14,24,25,33,35,,,,,,,1.2,0.7,1.0*24
###2023-12-09 13:41:36.014705$GPGSV,2,1,06,04,49,306,43,16,70,226,46,26,80,041,48,28,35,088,43*7D
###2023-12-09 13:41:36.016455$GPGSV,2,2,06,29,19,044,42,31,57,071,47,,,,,,,,*7F
###2023-12-09 13:41:36.018783$GLGSV,2,1,05,65,41,315,39,72,59,216,47,73,20,054,43,74,57,019,40*6A
###2023-12-09 13:41:36.020229$GLGSV,2,2,05,75,45,276,46,,,,,,,,,,,,*52
###2023-12-09 13:41:36.022541$GAGSV,1,1,04,04,41,309,41,19,69,180,42,21,74,044,46,27,20,051,41*6E
###2023-12-09 13:41:36.024883$GBGSV,2,1,06,12,17,124,42,14,26,189,35,24,60,049,48,25,53,279,47*62
###2023-12-09 13:41:36.026648$GBGSV,2,2,06,33,43,215,48,35,16,054,42,,,,,,,,*66
###2023-12-09 13:41:36.027981$GNVTG,323.15,T,,M,3.46,N,6.41,K,A*27
###2023-12-09 13:41:36.029606$GNGST,184135.10,6.900,,,,0.120,0.100,0.230*60
###2023-12-09 13:41:36.030908$GNZDA,184135.10,09,12,2023,00,00*7A
###2023-12-09 13:41:36.031546$GNEBP,,,,,,M*13
###2023-12-09 13:41:36.200580$GNGGA,184135.30,4138.0325422,N,07032.4047896,W,1,22,0.7,13.180,M,-29.745,M,0.0,*53
###2023-12-09 13:41:36.398507$GNGGA,184135.50,4138.0326868,N,07032.4049402,W,1,22,0.7,13.184,M,-29.745,M,0.0,*5F
###2023-12-09 13:41:36.598219$GNGGA,184135.70,4138.0328301,N,07032.4050922,W,1,21,0.7,13.196,M,-29.745,M,0.0,*50
###2023-12-09 13:41:36.799312$GNGGA,184135.90,4138.0329762,N,07032.4052460,W,1,21,0.7,13.197,M,-29.745,M,0.0,*56
###2023-12-09 13:41:37.004788$GNRMC,184136.10,A,4138.0331127,N,07032.4054053,W,3.29,319.60,091223,,,A*5A
###2023-12-09 13:41:37.007675$GNGGA,184136.10,4138.0331127,N,07032.4054053,W,1,22,0.6,13.191,M,-29.745,M,0.0,*55
###2023-12-09 13:41:37.009472$GPGSA,A,3,04,16,26,27,28,29,31,,,,,,1.1,0.6,0.9*3C
###2023-12-09 13:41:37.011134$GLGSA,A,3,65,72,73,74,75,,,,,,,,1.1,0.6,0.9*22
###2023-12-09 13:41:37.012718$GAGSA,A,3,04,19,21,27,,,,,,,,,1.1,0.6,0.9*26
###2023-12-09 13:41:37.014425$GBGSA,A,3,12,14,24,25,33,35,,,,,,,1.1,0.6,0.9*2E
###2023-12-09 13:41:37.016755$GPGSV,2,1,07,04,49,306,43,16,70,226,46,26,80,041,48,27,20,171,37*73
###2023-12-09 13:41:37.018807$GPGSV,2,2,07,28,35,088,43,29,19,044,42,31,57,071,48,,,,*4A
###2023-12-09 13:41:37.021136$GLGSV,2,1,05,65,41,315,39,72,59,216,45,73,20,054,43,74,57,019,42*6A
###2023-12-09 13:41:37.022607$GLGSV,2,2,05,75,45,276,46,,,,,,,,,,,,*52
###2023-12-09 13:41:37.024932$GAGSV,1,1,04,04,41,309,40,19,69,180,42,21,74,044,47,27,20,051,40*6F
###2023-12-09 13:41:37.027269$GBGSV,2,1,06,12,17,124,43,14,26,189,38,24,60,049,47,25,53,279,46*60
###2023-12-09 13:41:37.029016$GBGSV,2,2,06,33,43,215,48,35,16,054,41,,,,,,,,*65
###2023-12-09 13:41:37.030339$GNVTG,319.60,T,,M,3.29,N,6.08,K,A*28
###2023-12-09 13:41:37.031965$GNGST,184136.10,6.400,,,,0.130,0.100,0.240*68
###2023-12-09 13:41:37.033254$GNZDA,184136.10,09,12,2023,00,00*79
###2023-12-09 13:41:37.033893$GNEBP,,,,,,M*13
###2023-12-09 13:41:37.200755$GNGGA,184136.30,4138.0332448,N,07032.4055650,W,1,23,0.6,13.195,M,-29.745,M,0.0,*59
###2023-12-09 13:41:37.401459$GNGGA,184136.50,4138.0333756,N,07032.4057232,W,1,23,0.6,13.190,M,-29.745,M,0.0,*55
###2023-12-09 13:41:37.599877$GNGGA,184136.70,4138.0335025,N,07032.4058841,W,1,23,0.6,13.196,M,-29.745,M,0.0,*55
###2023-12-09 13:41:37.800571$GNGGA,184136.90,4138.0336230,N,07032.4060451,W,1,22,0.7,13.198,M,-29.745,M,0.0,*56
###2023-12-09 13:41:38.004279$GNRMC,184137.10,A,4138.0337330,N,07032.4062175,W,2.95,307.59,091223,,,A*5A
###2023-12-09 13:41:38.007748$GNGGA,184137.10,4138.0337330,N,07032.4062175,W,1,22,0.6,13.193,M,-29.745,M,0.0,*54
###2023-12-09 13:41:38.009946$GPGSA,A,3,04,16,26,27,28,29,31,,,,,,1.1,0.6,1.0*34
###2023-12-09 13:41:38.011966$GLGSA,A,3,65,72,73,74,75,,,,,,,,1.1,0.6,1.0*2A
###2023-12-09 13:41:38.013881$GAGSA,A,3,04,19,21,27,,,,,,,,,1.1,0.6,1.0*2E
###2023-12-09 13:41:38.015960$GBGSA,A,3,12,14,24,25,33,35,,,,,,,1.1,0.6,1.0*26
###2023-12-09 13:41:38.018780$GPGSV,2,1,07,04,49,306,41,16,70,226,46,26,80,041,49,27,20,171,37*70
###2023-12-09 13:41:38.021231$GPGSV,2,2,07,28,35,088,44,29,19,044,43,31,57,071,48,,,,*4C
###2023-12-09 13:41:38.024042$GLGSV,2,1,05,65,41,315,39,72,59,216,46,73,20,054,41,74,57,019,42*6B
###2023-12-09 13:41:38.025802$GLGSV,2,2,05,75,45,276,45,,,,,,,,,,,,*51
###2023-12-09 13:41:38.028622$GAGSV,1,1,04,04,41,309,41,19,69,180,41,21,74,044,47,27,20,051,40*6D
###2023-12-09 13:41:38.031444$GBGSV,2,1,06,12,17,124,42,14,26,189,36,24,60,049,48,25,53,279,46*60
###2023-12-09 13:41:38.033563$GBGSV,2,2,06,33,43,215,49,35,16,054,41,,,,,,,,*64
###2023-12-09 13:41:38.035173$GNVTG,307.59,T,,M,2.95,N,5.47,K,A*23
###2023-12-09 13:41:38.037133$GNGST,184137.10,6.000,,,,0.130,0.100,0.240*6D
###2023-12-09 13:41:38.039001$GNZDA,184137.10,09,12,2023,00,00*78
###2023-12-09 13:41:38.039788$GNEBP,,,,,,M*13
###2023-12-09 13:41:38.199504$GNGGA,184137.30,4138.0338386,N,07032.4063956,W,1,20,0.7,13.191,M,-29.745,M,0.0,*5D
###2023-12-09 13:41:38.400637$GNGGA,184137.50,4138.0339387,N,07032.4065759,W,1,22,0.7,13.194,M,-29.745,M,0.0,*5B
###2023-12-09 13:41:38.599208$GNGGA,184137.70,4138.0340304,N,07032.4067582,W,1,21,0.7,13.197,M,-29.745,M,0.0,*5A
###2023-12-09 13:41:38.799325$GNGGA,184137.90,4138.0341184,N,07032.4069496,W,1,20,0.8,13.192,M,-29.745,M,0.0,*5E
###2023-12-09 13:41:39.005152$GNRMC,184138.10,A,4138.0342077,N,07032.4071372,W,2.99,299.74,091223,,,A*55
###2023-12-09 13:41:39.008609$GNGGA,184138.10,4138.0342077,N,07032.4071372,W,1,20,0.7,13.196,M,-29.745,M,0.0,*58
