###2023-12-09 13:08:18.977038$GPGSA,A,3,03,04,16,26,28,29,31,32,,,,,1.1,0.6,0.9*3B
###2023-12-09 13:08:18.978802$GLGSA,A,3,65,71,72,73,74,75,,,,,,,1.1,0.6,0.9*24
###2023-12-09 13:08:18.980390$GAGSA,A,3,04,19,21,27,,,,,,,,,1.1,0.6,0.9*26
###2023-12-09 13:08:18.982092$GBGSA,A,3,14,24,25,26,33,35,,,,,,,1.1,0.6,0.9*29
###2023-12-09 13:08:18.984425$GPGSV,2,1,08,03,34,258,45,04,35,311,43,16,53,214,46,26,83,210,47*75
###2023-12-09 13:08:18.986747$GPGSV,2,2,08,28,47,073,42,29,25,058,40,31,67,044,46,32,16,141,42*7A
###2023-12-09 13:08:18.989072$GLGSV,2,1,06,65,26,326,42,71,37,173,46,72,72,258,46,73,33,043,44*6D
###2023-12-09 13:08:18.990822$GLGSV,2,2,06,74,68,345,43,75,34,256,48,,,,,,,,*63
###2023-12-09 13:08:18.993140$GAGSV,1,1,04,04,31,312,42,19,82,199,41,21,85,085,46,27,31,048,41*65
###2023-12-09 13:08:18.995465$GBGSV,2,1,06,14,41,192,46,24,72,029,48,25,42,264,46,26,24,064,42*67
###2023-12-09 13:08:18.997203$GBGSV,2,2,06,33,56,229,48,35,15,067,41,,,,,,,,*6D
###2023-12-09 13:08:18.998488$GNVTG,78.21,T,,M,3.62,N,6.70,K,A*19
###2023-12-09 13:08:19.000149$GNGST,180818.10,18.000,,,,0.082,0.065,0.150*5A
###2023-12-09 13:08:19.001435$GNZDA,180818.10,09,12,2023,00,00*78
###2023-12-09 13:08:19.002071$GNEBP,,,,,,M*13
###2023-12-09 13:08:19.168277$GNGGA,180818.30,4138.0826426,N,07032.3060489,W,1,25,0.6,13.211,M,-29.742,M,0.0,*57
###2023-12-09 13:08:19.368681$GNGGA,180818.50,4138.0826796,N,07032.3057796,W,1,25,0.6,13.198,M,-29.742,M,0.0,*52
###2023-12-09 13:08:19.569916$GNGGA,180818.70,4138.0827261,N,07032.3055252,W,1,25,0.6,13.202,M,-29.742,M,0.0,*53
###2023-12-09 13:08:19.769118$GNGGA,180818.90,4138.0827762,N,07032.3052571,W,1,25,0.6,13.220,M,-29.742,M,0.0,*5A
###2023-12-09 13:08:19.971699$GNRMC,180819.10,A,4138.0828150,N,07032.3049844,W,3.60,79.35,091223,,,A*64
###2023-12-09 13:08:19.974541$GNGGA,180819.10,4138.0828150,N,07032.3049844,W,1,25,0.6,13.193,M,-29.742,M,0.0,*51
###2023-12-09 13:08:19.976407$GPGSA,A,3,03,04,16,26,28,29,31,32,,,,,1.1,0.6,0.9*3B
###2023-12-09 13:08:19.978119$GLGSA,A,3,65,71,72,73,74,75,,,,,,,1.1,0.6,0.9*24
###2023-12-09 13:08:19.979730$GAGSA,A,3,04,19,21,27,,,,,,,,,1.1,0.6,0.9*26
###2023-12-09 13:08:19.981448$GBGSA,A,3,14,24,25,26,33,35,,,,,,,1.1,0.6,0.9*29
###2023-12-09 13:08:19.983790$GPGSV,2,1,08,03,34,258,46,04,35,311,44,16,53,214,47,26,83,210,48*7F
###2023-12-09 13:08:19.986118$GPGSV,2,2,08,28,47,073,43,29,25,058,40,31,67,044,46,32,16,141,42*7B
###2023-12-09 13:08:19.988464$GLGSV,2,1,06,65,26,326,41,71,37,173,47,72,72,258,47,73,33,043,44*6E
###2023-12-09 13:08:19.990220$GLGSV,2,2,06,74,68,345,43,75,34,256,48,,,,,,,,*63
###2023-12-09 13:08:19.992552$GAGSV,1,1,04,04,31,312,42,19,82,199,41,21,85,085,46,27,31,048,41*65
###2023-12-09 13:08:19.994886$GBGSV,2,1,06,14,41,192,45,24,72,029,48,25,42,264,46,26,24,064,42*64
###2023-12-09 13:08:19.996639$GBGSV,2,2,06,33,56,229,48,35,15,067,42,,,,,,,,*6E
###2023-12-09 13:08:19.997934$GNVTG,79.35,T,,M,3.60,N,6.66,K,A*18
###2023-12-09 13:08:19.999601$GNGST,180819.10,18.000,,,,0.082,0.065,0.150*5B
###2023-12-09 13:08:20.000900$GNZDA,180819.10,09,12,2023,00,00*79
###2023-12-09 13:08:20.001539$GNEBP,,,,,,M*13
###2023-12-09 13:08:20.168160$GNGGA,180819.30,4138.0828587,N,07032.3047241,W,1,25,0.6,13.185,M,-29.742,M,0.0,*5B
###2023-12-09 13:08:20.369692$GNGGA,180819.50,4138.0828998,N,07032.3044508,W,1,25,0.6,13.190,M,-29.742,M,0.0,*52
###2023-12-09 13:08:20.569240$GNGGA,180819.70,4138.0829377,N,07032.3041823,W,1,25,0.6,13.174,M,-29.742,M,0.0,*51
###2023-12-09 13:08:20.771160$GNGGA,180819.90,4138.0829923,N,07032.3039252,W,1,25,0.6,13.194,M,-29.742,M,0.0,*59
###2023-12-09 13:08:20.984245$GNRMC,180820.10,A,4138.0830327,N,07032.3036495,W,3.85,83.12,091223,,,A*66
###2023-12-09 13:08:20.987147$GNGGA,180820.10,4138.0830327,N,07032.3036495,W,1,25,0.6,13.196,M,-29.742,M,0.0,*5D
###2023-12-09 13:08:20.989015$GPGSA,A,3,03,04,16,26,28,29,31,32,,,,,1.1,0.6,0.9*3B
###2023-12-09 13:08:20.990749$GLGSA,A,3,65,71,72,73,74,75,,,,,,,1.1,0.6,0.9*24
###2023-12-09 13:08:20.992337$GAGSA,A,3,04,19,21,27,,,,,,,,,1.1,0.6,0.9*26
###2023-12-09 13:08:20.994060$GBGSA,A,3,14,24,25,26,33,35,,,,,,,1.1,0.6,0.9*29
###2023-12-09 13:08:20.996418$GPGSV,2,1,08,03,34,258,46,04,35,311,43,16,53,214,47,26,83,210,48*78
###2023-12-09 13:08:20.998771$GPGSV,2,2,08,28,47,073,43,29,25,058,41,31,67,044,46,32,16,141,43*7B
###2023-12-09 13:08:21.001115$GLGSV,2,1,06,65,26,326,41,71,37,173,48,72,72,258,47,73,33,043,44*61
###2023-12-09 13:08:21.002909$GLGSV,2,2,06,74,68,345,43,75,34,256,47,,,,,,,,*6C
###2023-12-09 13:08:21.005240$GAGSV,1,1,04,04,31,312,42,19,82,199,40,21,85,085,45,27,31,048,40*66
###2023-12-09 13:08:21.007587$GBGSV,2,1,06,14,41,192,46,24,72,029,48,25,42,264,45,26,24,064,42*64
###2023-12-09 13:08:21.009341$GBGSV,2,2,06,33,56,229,48,35,15,067,42,,,,,,,,*6E
###2023-12-09 13:08:21.010643$GNVTG,83.12,T,,M,3.85,N,7.13,K,A*10
###2023-12-09 13:08:21.012268$GNGST,180820.10,4.800,,,,0.082,0.065,0.150*64
###2023-12-09 13:08:21.013565$GNZDA,180820.10,09,12,2023,00,00*73
###2023-12-09 13:08:21.014205$GNEBP,,,,,,M*13
###2023-12-09 13:08:21.172252$GNGGA,180820.30,4138.0830529,N,07032.3033746,W,1,25,0.6,13.146,M,-29.742,M,0.0,*52
###2023-12-09 13:08:21.370588$GNGGA,180820.50,4138.0831047,N,07032.3031193,W,1,25,0.6,13.154,M,-29.742,M,0.0,*57
###2023-12-09 13:08:21.570321$GNGGA,180820.70,4138.0831681,N,07032.3028564,W,1,25,0.6,13.172,M,-29.742,M,0.0,*59
###2023-12-09 13:08:21.769086$GNGGA,180820.90,4138.0831959,N,07032.3025837,W,1,25,0.6,13.163,M,-29.742,M,0.0,*5B
###2023-12-09 13:08:21.970475$GNRMC,180821.10,A,4138.0832162,N,07032.3023162,W,3.65,82.19,091223,,,A*6B
###2023-12-09 13:08:21.973349$GNGGA,180821.10,4138.0832162,N,07032.3023162,W,1,25,0.6,13.157,M,-29.742,M,0.0,*59
###2023-12-09 13:08:21.975219$GPGSA,A,3,03,04,16,26,28,29,31,32,,,,,1.1,0.6,0.9*3B
###2023-12-09 13:08:21.976935$GLGSA,A,3,65,71,72,73,74,75,,,,,,,1.1,0.6,0.9*24
###2023-12-09 13:08:21.978512$GAGSA,A,3,04,19,21,27,,,,,,,,,1.1,0.6,0.9*26
###2023-12-09 13:08:21.980228$GBGSA,A,3,14,24,25,26,33,35,,,,,,,1.1,0.6,0.9*29
###2023-12-09 13:08:21.982542$GPGSV,2,1,08,03,34,258,45,04,35,311,42,16,53,214,47,26,83,210,48*7A
###2023-12-09 13:08:21.984892$GPGSV,2,2,08,28,47,073,43,29,25,058,41,31,67,044,46,32,16,141,42*7A
###2023-12-09 13:08:21.987242$GLGSV,2,1,06,65,26,326,41,71,37,173,47,72,72,258,46,73,33,043,45*6E
###2023-12-09 13:08:21.989002$GLGSV,2,2,06,74,68,345,42,75,34,256,48,,,,,,,,*62
###2023-12-09 13:08:21.991339$GAGSV,1,1,04,04,31,312,42,19,82,199,41,21,85,085,46,27,31,048,41*65
###2023-12-09 13:08:21.993680$GBGSV,2,1,06,14,40,192,46,24,72,029,48,25,42,264,46,26,24,064,43*67
###2023-12-09 13:08:21.995448$GBGSV,2,2,06,33,56,229,48,35,15,067,42,,,,,,,,*6E
###2023-12-09 13:08:21.996744$GNVTG,82.19,T,,M,3.65,N,6.77,K,A*17
###2023-12-09 13:08:21.998394$GNGST,180821.10,18.000,,,,0.082,0.065,0.150*50
###2023-12-09 13:08:21.999707$GNZDA,180821.10,09,12,2023,00,00*72
###2023-12-09 13:08:22.000347$GNEBP,,,,,,M*13
###2023-12-09 13:08:22.168202$GNGGA,180821.30,4138.0832436,N,07032.3020402,W,1,25,0.6,13.146,M,-29.742,M,0.0,*5F
###2023-12-09 13:08:22.370823$GNGGA,180821.50,4138.0832839,N,07032.3017784,W,1,25,0.6,13.131,M,-29.742,M,0.0,*53
###2023-12-09 13:08:22.570932$GNGGA,180821.70,4138.0833235,N,07032.3015175,W,1,25,0.6,13.151,M,-29.742,M,0.0,*5A
###2023-12-09 13:08:22.769567$GNGGA,180821.90,4138.0833217,N,07032.3012432,W,1,25,0.6,13.150,M,-29.742,M,0.0,*54
###2023-12-09 13:08:22.976489$GNRMC,180822.10,A,4138.0833094,N,07032.3009759,W,3.50,88.73,091223,,,A*67
###2023-12-09 13:08:22.979360$GNGGA,180822.10,4138.0833094,N,07032.3009759,W,1,25,0.6,13.115,M,-29.742,M,0.0,*53
###2023-12-09 13:08:22.981231$GPGSA,A,3,03,04,16,26,28,29,31,32,,,,,1.1,0.6,0.9*3B
###2023-12-09 13:08:22.982957$GLGSA,A,3,65,71,72,73,74,75,,,,,,,1.1,0.6,0.9*24
###2023-12-09 13:08:22.984536$GAGSA,A,3,04,19,21,27,,,,,,,,,1.1,0.6,0.9*26
###2023-12-09 13:08:22.986247$GBGSA,A,3,14,24,25,26,33,35,,,,,,,1.1,0.6,0.9*29
###2023-12-09 13:08:22.988594$GPGSV,2,1,08,03,34,258,45,04,35,311,41,16,53,214,48,26,83,210,48*76
###2023-12-09 13:08:22.990962$GPGSV,2,2,08,28,47,073,44,29,25,058,40,31,67,044,46,32,16,141,43*7D
###2023-12-09 13:08:22.993303$GLGSV,2,1,06,65,26,326,41,71,37,173,47,72,72,258,46,73,33,043,44*6F
###2023-12-09 13:08:22.995349$GLGSV,2,2,06,74,68,345,42,75,34,256,48,,,,,,,,*62
###2023-12-09 13:08:22.997701$GAGSV,1,1,04,04,31,312,39,19,82,199,41,21,85,085,46,27,31,048,41*69
###2023-12-09 13:08:23.000069$GBGSV,2,1,06,14,40,192,45,24,72,029,48,25,42,264,46,26,24,064,42*65
###2023-12-09 13:08:23.001822$GBGSV,2,2,06,33,56,229,48,35,15,067,42,,,,,,,,*6E
###2023-12-09 13:08:23.003140$GNVTG,88.73,T,,M,3.50,N,6.48,K,A*1B
###2023-12-09 13:08:23.004795$GNGST,180822.10,18.000,,,,0.082,0.065,0.150*53
###2023-12-09 13:08:23.006088$GNZDA,180822.10,09,12,2023,00,00*71
###2023-12-09 13:08:23.006744$GNEBP,,,,,,M*13
###2023-12-09 13:08:23.170818$GNGGA,180822.30,4138.0833353,N,07032.3007157,W,1,25,0.6,13.131,M,-29.742,M,0.0,*59
