###2023-12-09 13:43:10.029373$GNGST,184309.10,6.800,,,,0.160,0.140,0.330*6D
###2023-12-09 13:43:10.030986$GNZDA,184309.10,09,12,2023,00,00*77
###2023-12-09 13:43:10.031796$GNEBP,,,,,,M*13
###2023-12-09 13:43:10.196921$GNGGA,184309.30,4138.0389765,N,07032.4337672,W,1,18,0.9,15.176,M,-29.746,M,0.0,*53
###2023-12-09 13:43:10.397213$GNGGA,184309.50,4138.0389924,N,07032.4339034,W,1,18,0.9,15.241,M,-29.746,M,0.0,*53
###2023-12-09 13:43:10.596146$GNGGA,184309.70,4138.0389973,N,07032.4340485,W,1,15,1.0,15.212,M,-29.746,M,0.0,*50
###2023-12-09 13:43:10.795384$GNGGA,184309.90,4138.0389984,N,07032.4342032,W,1,18,0.9,15.245,M,-29.746,M,0.0,*5B
###2023-12-09 13:43:10.999746$GNRMC,184310.10,A,4138.0390029,N,07032.4343540,W,1.83,266.99,091223,,,A*57
###2023-12-09 13:43:11.003888$GNGGA,184310.10,4138.0390029,N,07032.4343540,W,1,18,0.9,15.263,M,-29.746,M,0.0,*58
###2023-12-09 13:43:11.005978$GPGSA,A,3,03,04,16,26,31,,,,,,,,1.4,0.9,1.1*38
###2023-12-09 13:43:11.007981$GLGSA,A,3,65,72,73,74,75,,,,,,,,1.4,0.9,1.1*21
###2023-12-09 13:43:11.009886$GAGSA,A,3,04,19,21,27,,,,,,,,,1.4,0.9,1.1*25
###2023-12-09 13:43:11.011723$GBGSA,A,3,24,25,33,,,,,,,,,,1.4,0.9,1.1*2D
###2023-12-09 13:43:11.014513$GPGSV,2,1,05,03,23,243,43,04,50,305,43,16,70,226,45,26,80,041,47*72
###2023-12-09 13:43:11.016280$GPGSV,2,2,05,31,57,071,44,,,,,,,,,,,,*4A
###2023-12-09 13:43:11.019123$GLGSV,2,1,05,65,42,314,44,72,58,215,44,73,19,055,39,74,56,021,41*6E
###2023-12-09 13:43:11.020898$GLGSV,2,2,05,75,46,277,48,,,,,,,,,,,,*5E
###2023-12-09 13:43:11.023733$GAGSV,1,1,04,04,42,308,42,19,69,180,38,21,74,044,45,27,20,051,41*61
###2023-12-09 13:43:11.026232$GBGSV,1,1,03,24,60,050,46,25,53,280,41,33,42,214,47,,,,*53
###2023-12-09 13:43:11.027857$GNVTG,266.99,T,,M,1.83,N,3.38,K,A*23
###2023-12-09 13:43:11.029798$GNGST,184310.10,5.100,,,,0.160,0.140,0.340*68
###2023-12-09 13:43:11.031368$GNZDA,184310.10,09,12,2023,00,00*7F
###2023-12-09 13:43:11.032142$GNEBP,,,,,,M*13
###2023-12-09 13:43:11.197049$GNGGA,184310.30,4138.0390040,N,07032.4345083,W,1,18,0.9,15.293,M,-29.746,M,0.0,*56
###2023-12-09 13:43:11.395613$GNGGA,184310.50,4138.0390111,N,07032.4346670,W,1,19,0.8,15.297,M,-29.746,M,0.0,*58
###2023-12-09 13:43:11.595229$GNGGA,184310.70,4138.0390045,N,07032.4348062,W,1,17,0.9,15.327,M,-29.746,M,0.0,*54
###2023-12-09 13:43:11.795838$GNGGA,184310.90,4138.0389903,N,07032.4349643,W,1,19,0.8,15.358,M,-29.746,M,0.0,*5A
###2023-12-09 13:43:11.997826$GNRMC,184311.10,A,4138.0389728,N,07032.4351292,W,1.92,260.01,091223,,,A*54
###2023-12-09 13:43:12.000712$GNGGA,184311.10,4138.0389728,N,07032.4351292,W,1,17,0.8,15.362,M,-29.746,M,0.0,*52
###2023-12-09 13:43:12.002306$GPGSA,A,3,04,16,26,31,,,,,,,,,1.4,0.8,1.1*3A
###2023-12-09 13:43:12.003960$GLGSA,A,3,65,72,73,74,75,,,,,,,,1.4,0.8,1.1*20
###2023-12-09 13:43:12.005477$GAGSA,A,3,04,21,27,,,,,,,,,,1.4,0.8,1.1*2C
###2023-12-09 13:43:12.007064$GBGSA,A,3,14,24,33,35,,,,,,,,,1.4,0.8,1.1*28
###2023-12-09 13:43:12.009376$GPGSV,1,1,04,04,50,305,46,16,70,226,39,26,80,041,44,31,57,071,39*71
###2023-12-09 13:43:12.011699$GLGSV,2,1,05,65,42,314,41,72,58,215,42,73,19,055,36,74,56,021,40*63
###2023-12-09 13:43:12.013149$GLGSV,2,2,05,75,46,277,45,,,,,,,,,,,,*53
###2023-12-09 13:43:12.015185$GAGSV,1,1,03,04,42,308,36,21,74,044,42,27,20,051,36,,,,*57
###2023-12-09 13:43:12.017536$GBGSV,1,1,04,14,25,189,38,24,60,050,44,33,42,214,44,35,16,053,38*6E
###2023-12-09 13:43:12.018902$GNVTG,260.01,T,,M,1.92,N,3.56,K,A*2C
###2023-12-09 13:43:12.020515$GNGST,184311.10,6.600,,,,0.160,0.140,0.350*6C
###2023-12-09 13:43:12.021807$GNZDA,184311.10,09,12,2023,00,00*7E
###2023-12-09 13:43:12.022454$GNEBP,,,,,,M*13
###2023-12-09 13:43:12.197831$GNGGA,184311.30,4138.0389679,N,07032.4352751,W,1,20,0.8,15.401,M,-29.746,M,0.0,*5A
###2023-12-09 13:43:12.396576$GNGGA,184311.50,4138.0389658,N,07032.4354137,W,1,18,0.8,15.402,M,-29.746,M,0.0,*57
###2023-12-09 13:43:12.594256$GNGGA,184311.70,4138.0389565,N,07032.4355472,W,1,19,0.8,15.397,M,-29.746,M,0.0,*57
###2023-12-09 13:43:12.796785$GNGGA,184311.90,4138.0389473,N,07032.4356684,W,1,20,0.8,15.442,M,-29.746,M,0.0,*52
###2023-12-09 13:43:12.995677$GNRMC,184312.10,A,4138.0389435,N,07032.4358013,W,1.90,269.98,091223,,,A*51
###2023-12-09 13:43:12.998533$GNGGA,184312.10,4138.0389435,N,07032.4358013,W,1,19,0.8,15.426,M,-29.746,M,0.0,*55
###2023-12-09 13:43:13.000201$GPGSA,A,3,03,04,16,26,31,,,,,,,,1.3,0.8,1.0*3F
###2023-12-09 13:43:13.001846$GLGSA,A,3,65,72,73,74,75,,,,,,,,1.3,0.8,1.0*26
###2023-12-09 13:43:13.003374$GAGSA,A,3,04,21,27,,,,,,,,,,1.3,0.8,1.0*2A
###2023-12-09 13:43:13.005013$GBGSA,A,3,14,24,25,33,35,,,,,,,,1.3,0.8,1.0*29
###2023-12-09 13:43:13.007340$GPGSV,2,1,05,03,23,243,37,04,50,305,43,16,70,226,35,26,80,041,43*72
###2023-12-09 13:43:13.008828$GPGSV,2,2,05,31,57,071,40,,,,,,,,,,,,*4E
###2023-12-09 13:43:13.011156$GLGSV,2,1,05,65,42,314,40,72,58,215,37,73,19,055,39,74,56,021,40*6F
###2023-12-09 13:43:13.012608$GLGSV,2,2,05,75,46,277,46,,,,,,,,,,,,*50
###2023-12-09 13:43:13.014673$GAGSV,1,1,03,04,42,308,40,21,74,044,43,27,20,051,38,,,,*59
###2023-12-09 13:43:13.016991$GBGSV,2,1,05,14,25,189,38,24,60,050,42,25,53,280,45,33,42,214,35*6A
###2023-12-09 13:43:13.018433$GBGSV,2,2,05,35,16,053,39,,,,,,,,,,,,*53
###2023-12-09 13:43:13.019761$GNVTG,269.98,T,,M,1.90,N,3.53,K,A*22
###2023-12-09 13:43:13.021371$GNGST,184312.10,7.000,,,,0.160,0.140,0.350*68
###2023-12-09 13:43:13.022680$GNZDA,184312.10,09,12,2023,00,00*7D
###2023-12-09 13:43:13.023327$GNEBP,,,,,,M*13
###2023-12-09 13:43:13.194141$GNGGA,184312.30,4138.0389402,N,07032.4359486,W,1,17,0.8,15.449,M,-29.746,M,0.0,*5D
###2023-12-09 13:43:13.396156$GNGGA,184312.50,4138.0389441,N,07032.4360902,W,1,19,0.8,15.488,M,-29.746,M,0.0,*54
###2023-12-09 13:43:13.593289$GNGGA,184312.70,4138.0389734,N,07032.4362416,W,1,19,0.8,15.503,M,-29.746,M,0.0,*5F
###2023-12-09 13:43:13.794298$GNGGA,184312.90,4138.0389896,N,07032.4363860,W,1,19,0.8,15.571,M,-29.746,M,0.0,*5F
###2023-12-09 13:43:13.998691$GNRMC,184313.10,A,4138.0389961,N,07032.4365074,W,1.52,263.49,091223,,,A*5B
###2023-12-09 13:43:14.001764$GNGGA,184313.10,4138.0389961,N,07032.4365074,W,1,18,0.8,15.675,M,-29.746,M,0.0,*52
###2023-12-09 13:43:14.003557$GPGSA,A,3,03,04,26,29,31,,,,,,,,1.3,0.8,1.0*33
###2023-12-09 13:43:14.005248$GLGSA,A,3,65,73,74,75,,,,,,,,,1.3,0.8,1.0*23
###2023-12-09 13:43:14.006867$GAGSA,A,3,04,21,27,,,,,,,,,,1.3,0.8,1.0*2A
###2023-12-09 13:43:14.008516$GBGSA,A,3,14,24,25,33,35,,,,,,,,1.3,0.8,1.0*29
###2023-12-09 13:43:14.010844$GPGSV,2,1,05,03,23,243,39,04,50,305,42,26,80,041,44,29,19,044,36*7C
###2023-12-09 13:43:14.012297$GPGSV,2,2,05,31,57,071,41,,,,,,,,,,,,*4F
###2023-12-09 13:43:14.014629$GLGSV,1,1,04,65,42,314,35,73,19,055,40,74,56,021,42,75,46,277,44*6B
###2023-12-09 13:43:14.016668$GAGSV,1,1,03,04,42,308,45,21,74,044,44,27,20,051,40,,,,*54
###2023-12-09 13:43:14.019001$GBGSV,2,1,05,14,25,189,38,24,60,050,48,25,53,280,45,33,42,214,38*6D
###2023-12-09 13:43:14.020455$GBGSV,2,2,05,35,16,053,42,,,,,,,,,,,,*5F
###2023-12-09 13:43:14.021774$GNVTG,263.49,T,,M,1.52,N,2.81,K,A*24
###2023-12-09 13:43:14.023399$GNGST,184313.10,6.800,,,,0.170,0.140,0.360*62
###2023-12-09 13:43:14.024691$GNZDA,184313.10,09,12,2023,00,00*7C
###2023-12-09 13:43:14.025330$GNEBP,,,,,,M*13
###2023-12-09 13:43:14.193979$GNGGA,184313.30,4138.0390075,N,07032.4366143,W,1,18,0.9,15.756,M,-29.746,M,0.0,*53
###2023-12-09 13:43:14.398523$GNGGA,184313.50,4138.0390335,N,07032.4367081,W,1,19,0.8,15.830,M,-29.746,M,0.0,*53
###2023-12-09 13:43:14.593487$GNGGA,184313.70,4138.0390822,N,07032.4367776,W,1,16,1.0,15.775,M,-29.746,M,0.0,*5B
###2023-12-09 13:43:14.793328$GNGGA,184313.90,4138.0391424,N,07032.4368486,W,1,16,1.0,15.750,M,-29.746,M,0.0,*5A
###2023-12-09 13:43:14.996641$GNRMC,184314.10,A,4138.0392128,N,07032.4369175,W,1.46,329.75,091223,,,A*5A
###2023-12-09 13:43:14.999507$GNGGA,184314.10,4138.0392128,N,07032.4369175,W,1,16,1.1,15.754,M,-29.746,M,0.0,*52
###2023-12-09 13:43:15.001101$GPGSA,A,3,04,26,29,31,,,,,,,,,1.7,1.1,1.3*3F
###2023-12-09 13:43:15.002750$GLGSA,A,3,65,73,74,75,83,,,,,,,,1.7,1.1,1.3*27
###2023-12-09 13:43:15.004263$GAGSA,A,3,04,21,27,,,,,,,,,,1.7,1.1,1.3*25
###2023-12-09 13:43:15.005840$GBGSA,A,3,24,25,33,35,,,,,,,,,1.7,1.1,1.3*23
###2023-12-09 13:43:15.008425$GPGSV,1,1,04,04,50,305,44,26,80,041,42,29,19,044,44,31,57,071,47*73
###2023-12-09 13:43:15.010781$GLGSV,2,1,05,65,42,314,43,73,19,055,40,74,56,021,46,75,46,277,46*6E
###2023-12-09 13:43:15.012244$GLGSV,2,2,05,83,16,043,35,,,,,,,,,,,,*5D
###2023-12-09 13:43:15.014272$GAGSV,1,1,03,04,42,308,45,21,74,044,44,27,20,051,43,,,,*57
###2023-12-09 13:43:15.016597$GBGSV,1,1,04,24,60,050,49,25,53,280,44,33,42,214,35,35,16,053,44*6C
###2023-12-09 13:43:15.017918$GNVTG,329.75,T,,M,1.46,N,2.70,K,A*2F
###2023-12-09 13:43:15.019537$GNGST,184314.10,7.700,,,,0.180,0.140,0.360*64
