###2023-12-09 12:51:33.967954$GPGSV,2,2,08,28,53,065,42,29,26,066,38,31,71,024,46,32,23,138,39*7C
###2023-12-09 12:51:33.970303$GLGSV,2,1,06,65,19,329,45,71,47,171,45,72,72,288,46,73,40,038,43*6D
###2023-12-09 12:51:33.972075$GLGSV,2,2,06,74,71,321,43,75,28,248,46,,,,,,,,*65
###2023-12-09 12:51:33.974403$GAGSV,1,1,04,04,26,312,43,19,85,258,40,21,83,157,46,27,36,048,41*65
###2023-12-09 12:51:33.976742$GBGSV,2,1,05,14,48,194,44,24,77,014,48,25,37,258,46,26,29,060,42*66
###2023-12-09 12:51:33.978191$GBGSV,2,2,05,33,60,240,47,,,,,,,,,,,,*5D
###2023-12-09 12:51:33.979535$GNVTG,329.36,T,,M,0.23,N,0.43,K,A*28
###2023-12-09 12:51:33.981180$GNGST,175133.10,18.000,,,,0.077,0.068,0.160*54
###2023-12-09 12:51:33.982466$GNZDA,175133.10,09,12,2023,00,00*72
###2023-12-09 12:51:33.983129$GNEBP,,,,,,M*13
###2023-12-09 12:51:34.151768$GNGGA,175133.30,4138.0581317,N,07032.3817538,W,1,24,0.6,13.384,M,-29.744,M,0.0,*51
###2023-12-09 12:51:34.352704$GNGGA,175133.50,4138.0581246,N,07032.3817435,W,1,24,0.6,13.376,M,-29.744,M,0.0,*53
###2023-12-09 12:51:34.554895$GNGGA,175133.70,4138.0581597,N,07032.3817731,W,1,24,0.6,13.379,M,-29.744,M,0.0,*52
###2023-12-09 12:51:34.751930$GNGGA,175133.90,4138.0582089,N,07032.3818112,W,1,24,0.6,13.365,M,-29.744,M,0.0,*50
###2023-12-09 12:51:34.952445$GNRMC,175134.10,A,4138.0582140,N,07032.3818130,W,0.45,333.51,091223,,,A*59
###2023-12-09 12:51:34.955345$GNGGA,175134.10,4138.0582140,N,07032.3818130,W,1,24,0.6,13.364,M,-29.744,M,0.0,*5A
###2023-12-09 12:51:34.957234$GPGSA,A,3,03,04,16,26,28,29,31,32,,,,,1.1,0.6,0.9*3B
###2023-12-09 12:51:34.959000$GLGSA,A,3,65,71,72,73,74,75,,,,,,,1.1,0.6,0.9*24
###2023-12-09 12:51:34.960597$GAGSA,A,3,04,19,21,27,,,,,,,,,1.1,0.6,0.9*26
###2023-12-09 12:51:34.962259$GBGSA,A,3,14,24,25,26,33,,,,,,,,1.1,0.6,0.9*2F
###2023-12-09 12:51:34.964651$GPGSV,2,1,08,03,37,267,43,04,29,311,44,16,45,210,44,26,74,208,48*79
###2023-12-09 12:51:34.967018$GPGSV,2,2,08,28,53,065,43,29,26,066,38,31,71,024,47,32,23,138,40*72
###2023-12-09 12:51:34.969377$GLGSV,2,1,06,65,19,329,45,71,47,171,47,72,72,288,46,73,40,038,45*69
###2023-12-09 12:51:34.971152$GLGSV,2,2,06,74,71,321,43,75,28,248,47,,,,,,,,*64
###2023-12-09 12:51:34.973501$GAGSV,1,1,04,04,26,312,44,19,85,258,40,21,83,157,46,27,36,048,41*62
###2023-12-09 12:51:34.975857$GBGSV,2,1,05,14,48,194,45,24,77,014,48,25,37,258,45,26,29,060,42*64
###2023-12-09 12:51:34.977319$GBGSV,2,2,05,33,60,240,47,,,,,,,,,,,,*5D
###2023-12-09 12:51:34.978659$GNVTG,333.51,T,,M,0.45,N,0.83,K,A*2E
###2023-12-09 12:51:34.980313$GNGST,175134.10,18.000,,,,0.077,0.068,0.160*53
###2023-12-09 12:51:34.981607$GNZDA,175134.10,09,12,2023,00,00*75
###2023-12-09 12:51:34.982249$GNEBP,,,,,,M*13
###2023-12-09 12:51:35.153284$GNGGA,175134.30,4138.0581985,N,07032.3817982,W,1,24,0.6,13.391,M,-29.744,M,0.0,*5E
###2023-12-09 12:51:35.352175$GNGGA,175134.50,4138.0582197,N,07032.3818136,W,1,24,0.6,13.409,M,-29.744,M,0.0,*5E
###2023-12-09 12:51:35.552671$GNGGA,175134.70,4138.0582694,N,07032.3818533,W,1,24,0.6,13.402,M,-29.744,M,0.0,*52
###2023-12-09 12:51:35.752894$GNGGA,175134.90,4138.0582901,N,07032.3818655,W,1,24,0.6,13.375,M,-29.744,M,0.0,*5B
###2023-12-09 12:51:35.953014$GNRMC,175135.10,A,4138.0582806,N,07032.3818583,W,0.16,329.34,091223,,,A*51
###2023-12-09 12:51:35.955903$GNGGA,175135.10,4138.0582806,N,07032.3818583,W,1,24,0.6,13.373,M,-29.744,M,0.0,*5A
###2023-12-09 12:51:35.957761$GPGSA,A,3,03,04,16,26,28,29,31,32,,,,,1.1,0.6,0.9*3B
###2023-12-09 12:51:35.959491$GLGSA,A,3,65,71,72,73,74,75,,,,,,,1.1,0.6,0.9*24
###2023-12-09 12:51:35.961070$GAGSA,A,3,04,19,21,27,,,,,,,,,1.1,0.6,0.9*26
###2023-12-09 12:51:35.962724$GBGSA,A,3,14,24,25,26,33,,,,,,,,1.1,0.6,0.9*2F
###2023-12-09 12:51:35.965046$GPGSV,2,1,08,03,37,267,43,04,29,311,43,16,45,210,46,26,74,208,48*7C
###2023-12-09 12:51:35.967378$GPGSV,2,2,08,28,53,065,44,29,26,066,40,31,71,024,46,32,23,138,44*7F
###2023-12-09 12:51:35.969704$GLGSV,2,1,06,65,19,329,43,71,47,171,49,72,72,288,46,73,40,038,45*61
###2023-12-09 12:51:35.971466$GLGSV,2,2,06,74,71,321,43,75,28,248,46,,,,,,,,*65
###2023-12-09 12:51:35.973799$GAGSV,1,1,04,04,26,312,42,19,85,258,41,21,83,157,46,27,36,048,41*65
###2023-12-09 12:51:35.976139$GBGSV,2,1,05,14,48,194,45,24,77,014,48,25,37,258,46,26,29,060,43*66
###2023-12-09 12:51:35.977593$GBGSV,2,2,05,33,60,240,47,,,,,,,,,,,,*5D
###2023-12-09 12:51:35.978926$GNVTG,329.34,T,,M,0.16,N,0.29,K,A*20
###2023-12-09 12:51:35.980570$GNGST,175135.10,18.000,,,,0.077,0.068,0.160*52
###2023-12-09 12:51:35.981858$GNZDA,175135.10,09,12,2023,00,00*74
###2023-12-09 12:51:35.982495$GNEBP,,,,,,M*13
###2023-12-09 12:51:36.155687$GNGGA,175135.30,4138.0582927,N,07032.3818676,W,1,24,0.6,13.390,M,-29.744,M,0.0,*5E
###2023-12-09 12:51:36.353719$GNGGA,175135.50,4138.0583368,N,07032.3818987,W,1,24,0.6,13.401,M,-29.744,M,0.0,*56
###2023-12-09 12:51:36.552785$GNGGA,175135.70,4138.0583634,N,07032.3819149,W,1,24,0.6,13.396,M,-29.744,M,0.0,*5A
###2023-12-09 12:51:36.754851$GNGGA,175135.90,4138.0583565,N,07032.3819081,W,1,24,0.6,13.389,M,-29.744,M,0.0,*58
###2023-12-09 12:51:36.953947$GNRMC,175136.10,A,4138.0583579,N,07032.3819116,W,0.41,329.34,091223,,,A*5D
###2023-12-09 12:51:36.956828$GNGGA,175136.10,4138.0583579,N,07032.3819116,W,1,24,0.6,13.391,M,-29.744,M,0.0,*58
###2023-12-09 12:51:36.958706$GPGSA,A,3,03,04,16,26,28,29,31,32,,,,,1.1,0.6,0.9*3B
###2023-12-09 12:51:36.960426$GLGSA,A,3,65,71,72,73,74,75,,,,,,,1.1,0.6,0.9*24
###2023-12-09 12:51:36.962007$GAGSA,A,3,04,19,21,27,,,,,,,,,1.1,0.6,0.9*26
###2023-12-09 12:51:36.963671$GBGSA,A,3,14,24,25,26,33,,,,,,,,1.1,0.6,0.9*2F
###2023-12-09 12:51:36.966001$GPGSV,2,1,08,03,37,267,44,04,29,311,41,16,45,210,46,26,75,209,48*79
###2023-12-09 12:51:36.968348$GPGSV,2,2,08,28,53,065,44,29,26,066,40,31,71,024,46,32,23,138,45*7E
###2023-12-09 12:51:36.970692$GLGSV,2,1,06,65,19,329,40,71,47,171,49,72,72,288,46,73,40,038,44*63
###2023-12-09 12:51:36.972441$GLGSV,2,2,06,74,71,321,43,75,28,248,45,,,,,,,,*66
###2023-12-09 12:51:36.974784$GAGSV,1,1,04,04,26,312,40,19,85,258,41,21,83,157,46,27,36,048,41*67
###2023-12-09 12:51:36.977114$GBGSV,2,1,05,14,48,194,46,24,77,014,47,25,37,258,46,26,29,060,43*6A
###2023-12-09 12:51:36.978580$GBGSV,2,2,05,33,60,240,47,,,,,,,,,,,,*5D
###2023-12-09 12:51:36.979916$GNVTG,329.34,T,,M,0.41,N,0.76,K,A*28
###2023-12-09 12:51:36.981570$GNGST,175136.10,18.000,,,,0.076,0.067,0.160*5F
###2023-12-09 12:51:36.982874$GNZDA,175136.10,09,12,2023,00,00*77
###2023-12-09 12:51:36.983512$GNEBP,,,,,,M*13
###2023-12-09 12:51:37.151772$GNGGA,175136.30,4138.0584001,N,07032.3819410,W,1,24,0.6,13.408,M,-29.744,M,0.0,*53
###2023-12-09 12:51:37.352492$GNGGA,175136.50,4138.0584456,N,07032.3819714,W,1,24,0.6,13.411,M,-29.744,M,0.0,*5C
###2023-12-09 12:51:37.552613$GNGGA,175136.70,4138.0584484,N,07032.3819702,W,1,24,0.6,13.414,M,-29.744,M,0.0,*53
###2023-12-09 12:51:37.753933$GNGGA,175136.90,4138.0584288,N,07032.3819597,W,1,24,0.6,13.390,M,-29.744,M,0.0,*52
###2023-12-09 12:51:37.954143$GNRMC,175137.10,A,4138.0584513,N,07032.3819767,W,1.01,333.61,091223,,,A*59
###2023-12-09 12:51:37.957035$GNGGA,175137.10,4138.0584513,N,07032.3819767,W,1,24,0.6,13.389,M,-29.744,M,0.0,*5B
###2023-12-09 12:51:37.958916$GPGSA,A,3,03,04,16,26,28,29,31,32,,,,,1.1,0.6,0.9*3B
###2023-12-09 12:51:37.960632$GLGSA,A,3,65,71,72,73,74,75,,,,,,,1.1,0.6,0.9*24
###2023-12-09 12:51:37.962214$GAGSA,A,3,04,19,21,27,,,,,,,,,1.1,0.6,0.9*26
###2023-12-09 12:51:37.963875$GBGSA,A,3,14,24,25,26,33,,,,,,,,1.1,0.6,0.9*2F
###2023-12-09 12:51:37.966202$GPGSV,2,1,08,03,37,267,45,04,29,311,40,16,45,210,47,26,75,209,47*77
###2023-12-09 12:51:37.968552$GPGSV,2,2,08,28,53,065,44,29,26,066,40,31,71,024,46,32,23,138,46*7D
###2023-12-09 12:51:37.970895$GLGSV,2,1,06,65,19,329,39,71,47,171,49,72,72,288,46,73,40,038,45*6C
###2023-12-09 12:51:37.972645$GLGSV,2,2,06,74,71,321,42,75,28,248,44,,,,,,,,*66
###2023-12-09 12:51:37.974984$GAGSV,1,1,04,04,26,312,40,19,85,258,40,21,83,157,46,27,36,048,41*66
###2023-12-09 12:51:37.977313$GBGSV,2,1,05,14,48,194,46,24,77,014,46,25,37,258,46,26,29,060,42*6A
###2023-12-09 12:51:37.978784$GBGSV,2,2,05,33,60,240,46,,,,,,,,,,,,*5C
###2023-12-09 12:51:37.980111$GNVTG,333.61,T,,M,1.01,N,1.87,K,A*29
###2023-12-09 12:51:37.982014$GNGST,175137.10,18.000,,,,0.076,0.067,0.160*5E
###2023-12-09 12:51:37.983334$GNZDA,175137.10,09,12,2023,00,00*76
###2023-12-09 12:51:37.983979$GNEBP,,,,,,M*13
###2023-12-09 12:51:38.152625$GNGGA,175137.30,4138.0585128,N,07032.3820169,W,1,24,0.6,13.403,M,-29.744,M,0.0,*53
###2023-12-09 12:51:38.352650$GNGGA,175137.50,4138.0585351,N,07032.3820320,W,1,24,0.6,13.402,M,-29.744,M,0.0,*57
###2023-12-09 12:51:38.552706$GNGGA,175137.70,4138.0585190,N,07032.3820217,W,1,24,0.6,13.426,M,-29.744,M,0.0,*59
###2023-12-09 12:51:38.752881$GNGGA,175137.90,4138.0585194,N,07032.3820228,W,1,24,0.6,13.411,M,-29.744,M,0.0,*5B
###2023-12-09 12:51:38.952369$GNRMC,175138.10,A,4138.0585647,N,07032.3820515,W,1.15,336.29,091223,,,A*54
###2023-12-09 12:51:38.955259$GNGGA,175138.10,4138.0585647,N,07032.3820515,W,1,24,0.6,13.405,M,-29.744,M,0.0,*59
