###2023-12-09 12:48:08.980264$GBGSV,2,2,05,33,61,243,48,,,,,,,,,,,,*50
###2023-12-09 12:48:08.981616$GNVTG,315.67,T,,M,0.47,N,0.86,K,A*28
###2023-12-09 12:48:08.983306$GNGST,174808.10,18.000,,,,0.076,0.069,0.160*54
###2023-12-09 12:48:08.984611$GNZDA,174808.10,09,12,2023,00,00*72
###2023-12-09 12:48:08.985256$GNEBP,,,,,,M*13
###2023-12-09 12:48:09.147893$GNGGA,174808.30,4138.0539714,N,07032.4015081,W,1,24,0.6,13.545,M,-29.745,M,0.0,*55
###2023-12-09 12:48:09.347820$GNGGA,174808.50,4138.0539765,N,07032.4015106,W,1,24,0.6,13.531,M,-29.745,M,0.0,*58
###2023-12-09 12:48:09.547631$GNGGA,174808.70,4138.0539986,N,07032.4015356,W,1,24,0.6,13.533,M,-29.745,M,0.0,*5C
###2023-12-09 12:48:09.747758$GNGGA,174808.90,4138.0540379,N,07032.4015890,W,1,24,0.6,13.542,M,-29.745,M,0.0,*51
###2023-12-09 12:48:09.945386$GNRMC,174809.10,A,4138.0540636,N,07032.4016231,W,0.16,313.62,091223,,,A*50
###2023-12-09 12:48:09.948271$GNGGA,174809.10,4138.0540636,N,07032.4016231,W,1,24,0.6,13.540,M,-29.745,M,0.0,*56
###2023-12-09 12:48:09.950148$GPGSA,A,3,03,04,16,26,28,29,31,32,,,,,1.1,0.6,0.9*3B
###2023-12-09 12:48:09.951881$GLGSA,A,3,65,71,72,73,74,75,,,,,,,1.1,0.6,0.9*24
###2023-12-09 12:48:09.953472$GAGSA,A,3,04,19,21,27,,,,,,,,,1.1,0.6,0.9*26
###2023-12-09 12:48:09.955139$GBGSA,A,3,14,24,25,26,33,,,,,,,,1.1,0.6,0.9*2F
###2023-12-09 12:48:09.957473$GPGSV,2,1,08,03,37,269,45,04,27,311,44,16,43,209,44,26,73,208,48*76
###2023-12-09 12:48:09.959834$GPGSV,2,2,08,28,53,064,43,29,26,067,40,31,71,021,46,32,24,137,37*71
###2023-12-09 12:48:09.962176$GLGSV,2,1,06,65,17,329,45,71,49,171,46,72,70,294,47,73,42,037,43*6D
###2023-12-09 12:48:09.963947$GLGSV,2,2,06,74,71,314,43,75,27,246,46,,,,,,,,*62
###2023-12-09 12:48:09.966287$GAGSV,1,1,04,04,25,312,44,19,84,276,40,21,82,165,46,27,38,049,42*60
###2023-12-09 12:48:09.968638$GBGSV,2,1,05,14,50,195,44,24,78,008,49,25,36,257,46,26,31,060,42*6A
###2023-12-09 12:48:09.970096$GBGSV,2,2,05,33,61,243,48,,,,,,,,,,,,*50
###2023-12-09 12:48:09.971442$GNVTG,313.62,T,,M,0.16,N,0.29,K,A*2A
###2023-12-09 12:48:09.973094$GNGST,174809.10,18.000,,,,0.076,0.069,0.160*55
###2023-12-09 12:48:09.974387$GNZDA,174809.10,09,12,2023,00,00*73
###2023-12-09 12:48:09.975039$GNEBP,,,,,,M*13
###2023-12-09 12:48:10.143783$GNGGA,174809.30,4138.0540613,N,07032.4016091,W,1,24,0.6,13.547,M,-29.745,M,0.0,*5C
###2023-12-09 12:48:10.345466$GNGGA,174809.50,4138.0540634,N,07032.4016052,W,1,24,0.6,13.535,M,-29.745,M,0.0,*55
###2023-12-09 12:48:10.544847$GNGGA,174809.70,4138.0540941,N,07032.4016463,W,1,24,0.6,13.542,M,-29.745,M,0.0,*5C
###2023-12-09 12:48:10.744455$GNGGA,174809.90,4138.0541349,N,07032.4017093,W,1,24,0.6,13.529,M,-29.745,M,0.0,*56
###2023-12-09 12:48:10.945814$GNRMC,174810.10,A,4138.0541489,N,07032.4017236,W,0.19,309.73,091223,,,A*5D
###2023-12-09 12:48:10.948726$GNGGA,174810.10,4138.0541489,N,07032.4017236,W,1,24,0.6,13.538,M,-29.745,M,0.0,*50
###2023-12-09 12:48:10.950635$GPGSA,A,3,03,04,16,26,28,29,31,32,,,,,1.1,0.6,0.9*3B
###2023-12-09 12:48:10.952358$GLGSA,A,3,65,71,72,73,74,75,,,,,,,1.1,0.6,0.9*24
###2023-12-09 12:48:10.953939$GAGSA,A,3,04,19,21,27,,,,,,,,,1.1,0.6,0.9*26
###2023-12-09 12:48:10.955604$GBGSA,A,3,14,24,25,26,33,,,,,,,,1.1,0.6,0.9*2F
###2023-12-09 12:48:10.957939$GPGSV,2,1,08,03,37,269,44,04,27,311,44,16,43,209,45,26,73,208,48*76
###2023-12-09 12:48:10.960296$GPGSV,2,2,08,28,53,064,42,29,26,067,39,31,71,021,47,32,24,137,35*7D
###2023-12-09 12:48:10.962650$GLGSV,2,1,06,65,17,329,45,71,49,171,45,72,70,294,47,73,42,037,43*6E
###2023-12-09 12:48:10.964402$GLGSV,2,2,06,74,71,314,43,75,27,246,47,,,,,,,,*63
###2023-12-09 12:48:10.966746$GAGSV,1,1,04,04,25,312,45,19,84,276,41,21,82,165,45,27,38,049,42*63
###2023-12-09 12:48:10.969081$GBGSV,2,1,05,14,50,195,43,24,78,008,47,25,36,257,46,26,31,060,41*60
###2023-12-09 12:48:10.970542$GBGSV,2,2,05,33,61,243,47,,,,,,,,,,,,*5F
###2023-12-09 12:48:10.971886$GNVTG,309.73,T,,M,0.19,N,0.36,K,A*20
###2023-12-09 12:48:10.973542$GNGST,174810.10,18.000,,,,0.077,0.070,0.160*54
###2023-12-09 12:48:10.974862$GNZDA,174810.10,09,12,2023,00,00*7B
###2023-12-09 12:48:10.975503$GNEBP,,,,,,M*13
###2023-12-09 12:48:11.144711$GNGGA,174810.30,4138.0541470,N,07032.4017060,W,1,24,0.6,13.556,M,-29.745,M,0.0,*5D
###2023-12-09 12:48:11.345255$GNGGA,174810.50,4138.0541576,N,07032.4017129,W,1,24,0.6,13.537,M,-29.745,M,0.0,*57
###2023-12-09 12:48:11.545611$GNGGA,174810.70,4138.0541883,N,07032.4017546,W,1,24,0.6,13.527,M,-29.745,M,0.0,*5E
###2023-12-09 12:48:11.745497$GNGGA,174810.90,4138.0542208,N,07032.4018029,W,1,24,0.6,13.527,M,-29.745,M,0.0,*59
###2023-12-09 12:48:11.945444$GNRMC,174811.10,A,4138.0542324,N,07032.4018152,W,0.10,309.73,091223,,,A*58
###2023-12-09 12:48:11.948365$GNGGA,174811.10,4138.0542324,N,07032.4018152,W,1,24,0.6,13.550,M,-29.745,M,0.0,*52
###2023-12-09 12:48:11.950259$GPGSA,A,3,03,04,16,26,28,29,31,32,,,,,1.1,0.6,0.9*3B
###2023-12-09 12:48:11.952008$GLGSA,A,3,65,71,72,73,74,75,,,,,,,1.1,0.6,0.9*24
###2023-12-09 12:48:11.953590$GAGSA,A,3,04,19,21,27,,,,,,,,,1.1,0.6,0.9*26
###2023-12-09 12:48:11.955257$GBGSA,A,3,14,24,25,26,33,,,,,,,,1.1,0.6,0.9*2F
###2023-12-09 12:48:11.957593$GPGSV,2,1,08,03,37,269,44,04,27,311,45,16,43,209,45,26,73,208,48*77
###2023-12-09 12:48:11.959997$GPGSV,2,2,08,28,53,064,43,29,26,067,40,31,71,021,46,32,24,137,37*71
###2023-12-09 12:48:11.962332$GLGSV,2,1,06,65,17,329,45,71,49,171,45,72,70,294,47,73,42,037,43*6E
###2023-12-09 12:48:11.964101$GLGSV,2,2,06,74,71,314,44,75,27,246,45,,,,,,,,*66
###2023-12-09 12:48:11.966437$GAGSV,1,1,04,04,25,312,45,19,84,276,40,21,82,165,46,27,38,049,42*61
###2023-12-09 12:48:11.968798$GBGSV,2,1,05,14,50,195,44,24,78,008,48,25,36,257,46,26,31,060,41*68
###2023-12-09 12:48:11.970256$GBGSV,2,2,05,33,61,243,48,,,,,,,,,,,,*50
###2023-12-09 12:48:11.971599$GNVTG,309.73,T,,M,0.10,N,0.18,K,A*25
###2023-12-09 12:48:11.973252$GNGST,174811.10,18.000,,,,0.077,0.070,0.160*55
###2023-12-09 12:48:11.974545$GNZDA,174811.10,09,12,2023,00,00*7A
###2023-12-09 12:48:11.975198$GNEBP,,,,,,M*13
###2023-12-09 12:48:12.145056$GNGGA,174811.30,4138.0542382,N,07032.4018089,W,1,24,0.6,13.571,M,-29.745,M,0.0,*58
###2023-12-09 12:48:12.345551$GNGGA,174811.50,4138.0542523,N,07032.4018216,W,1,24,0.6,13.557,M,-29.745,M,0.0,*53
###2023-12-09 12:48:12.544278$GNGGA,174811.70,4138.0542763,N,07032.4018547,W,1,24,0.6,13.544,M,-29.745,M,0.0,*56
###2023-12-09 12:48:12.745711$GNGGA,174811.90,4138.0543049,N,07032.4018955,W,1,24,0.6,13.533,M,-29.745,M,0.0,*59
###2023-12-09 12:48:12.943982$GNRMC,174812.10,A,4138.0543211,N,07032.4019130,W,0.17,309.73,091223,,,A*5F
###2023-12-09 12:48:12.946831$GNGGA,174812.10,4138.0543211,N,07032.4019130,W,1,24,0.6,13.538,M,-29.745,M,0.0,*5C
###2023-12-09 12:48:12.948702$GPGSA,A,3,03,04,16,26,28,29,31,32,,,,,1.1,0.6,0.9*3B
###2023-12-09 12:48:12.950413$GLGSA,A,3,65,71,72,73,74,75,,,,,,,1.1,0.6,0.9*24
###2023-12-09 12:48:12.952017$GAGSA,A,3,04,19,21,27,,,,,,,,,1.1,0.6,0.9*26
###2023-12-09 12:48:12.953665$GBGSA,A,3,14,24,25,26,33,,,,,,,,1.1,0.6,0.9*2F
###2023-12-09 12:48:12.956021$GPGSV,2,1,08,03,37,269,45,04,27,311,45,16,43,209,45,26,73,208,48*76
###2023-12-09 12:48:12.958358$GPGSV,2,2,08,28,53,064,43,29,26,067,40,31,71,021,46,32,24,137,39*7F
###2023-12-09 12:48:12.960705$GLGSV,2,1,06,65,17,329,44,71,49,171,47,72,70,294,46,73,42,037,43*6C
###2023-12-09 12:48:12.962446$GLGSV,2,2,06,74,71,314,43,75,27,246,46,,,,,,,,*62
###2023-12-09 12:48:12.964785$GAGSV,1,1,04,04,25,312,44,19,84,276,40,21,82,165,46,27,38,049,43*61
###2023-12-09 12:48:12.967136$GBGSV,2,1,05,14,50,195,44,24,78,008,48,25,36,257,44,26,31,060,42*69
###2023-12-09 12:48:12.968590$GBGSV,2,2,05,33,61,243,48,,,,,,,,,,,,*50
###2023-12-09 12:48:12.969912$GNVTG,309.73,T,,M,0.17,N,0.32,K,A*2A
###2023-12-09 12:48:12.971573$GNGST,174812.10,18.000,,,,0.077,0.070,0.160*56
###2023-12-09 12:48:12.972867$GNZDA,174812.10,09,12,2023,00,00*79
###2023-12-09 12:48:12.973507$GNEBP,,,,,,M*13
###2023-12-09 12:48:13.143770$GNGGA,174812.30,4138.0543276,N,07032.4019145,W,1,24,0.6,13.565,M,-29.745,M,0.0,*55
###2023-12-09 12:48:13.344189$GNGGA,174812.50,4138.0543411,N,07032.4019254,W,1,24,0.6,13.574,M,-29.745,M,0.0,*57
###2023-12-09 12:48:13.545499$GNGGA,174812.70,4138.0543647,N,07032.4019565,W,1,24,0.6,13.562,M,-29.745,M,0.0,*56
###2023-12-09 12:48:13.744422$GNGGA,174812.90,4138.0543894,N,07032.4019941,W,1,24,0.6,13.544,M,-29.745,M,0.0,*56
###2023-12-09 12:48:13.945264$GNRMC,174813.10,A,4138.0544055,N,07032.4020144,W,0.23,309.73,091223,,,A*55
###2023-12-09 12:48:13.948161$GNGGA,174813.10,4138.0544055,N,07032.4020144,W,1,24,0.6,13.533,M,-29.745,M,0.0,*5A
###2023-12-09 12:48:13.950042$GPGSA,A,3,03,04,16,26,28,29,31,32,,,,,1.1,0.6,0.9*3B
###2023-12-09 12:48:13.951780$GLGSA,A,3,65,71,72,73,74,75,,,,,,,1.1,0.6,0.9*24
###2023-12-09 12:48:13.953368$GAGSA,A,3,04,19,21,27,,,,,,,,,1.1,0.6,0.9*26
###2023-12-09 12:48:13.955033$GBGSA,A,3,14,24,25,26,33,,,,,,,,1.1,0.6,0.9*2F
###2023-12-09 12:48:13.957367$GPGSV,2,1,08,03,37,269,43,04,27,311,44,16,43,209,45,26,73,208,48*71
