###2023-12-09 12:59:48.994023$GBGSV,2,2,05,33,58,234,47,,,,,,,,,,,,*55
###2023-12-09 12:59:48.995389$GNVTG,268.84,T,,M,3.54,N,6.55,K,A*27
###2023-12-09 12:59:48.997040$GNGST,175948.10,18.000,,,,0.081,0.070,0.160*50
###2023-12-09 12:59:48.998336$GNZDA,175948.10,09,12,2023,00,00*76
###2023-12-09 12:59:48.998992$GNEBP,,,,,,M*13
###2023-12-09 12:59:49.161649$GNGGA,175948.30,4138.0208357,N,07032.2879353,W,1,24,0.6,12.872,M,-29.744,M,0.0,*56
###2023-12-09 12:59:49.362080$GNGGA,175948.50,4138.0208059,N,07032.2881893,W,1,24,0.6,12.875,M,-29.744,M,0.0,*5A
###2023-12-09 12:59:49.562658$GNGGA,175948.70,4138.0207735,N,07032.2884437,W,1,24,0.6,12.866,M,-29.744,M,0.0,*5F
###2023-12-09 12:59:49.765093$GNGGA,175948.90,4138.0207569,N,07032.2886987,W,1,24,0.6,12.864,M,-29.744,M,0.0,*5C
###2023-12-09 12:59:49.965063$GNRMC,175949.10,A,4138.0207580,N,07032.2889537,W,3.32,271.63,091223,,,A*56
###2023-12-09 12:59:49.967921$GNGGA,175949.10,4138.0207580,N,07032.2889537,W,1,24,0.6,12.869,M,-29.744,M,0.0,*57
###2023-12-09 12:59:49.969770$GPGSA,A,3,03,04,16,26,28,29,31,32,,,,,1.1,0.6,0.9*3B
###2023-12-09 12:59:49.971487$GLGSA,A,3,65,71,72,73,74,75,,,,,,,1.1,0.6,0.9*24
###2023-12-09 12:59:49.973062$GAGSA,A,3,04,19,21,27,,,,,,,,,1.1,0.6,0.9*26
###2023-12-09 12:59:49.974707$GBGSA,A,3,14,24,25,26,33,,,,,,,,1.1,0.6,0.9*2F
###2023-12-09 12:59:49.977020$GPGSV,2,1,08,03,35,262,42,04,32,311,40,16,49,212,46,26,79,210,48*79
###2023-12-09 12:59:49.979347$GPGSV,2,2,08,28,50,070,45,29,25,062,40,31,69,036,47,32,19,140,43*74
###2023-12-09 12:59:49.981662$GLGSV,2,1,06,65,23,328,39,71,42,172,47,72,73,273,45,73,37,041,45*64
###2023-12-09 12:59:49.983412$GLGSV,2,2,06,74,70,334,42,75,31,252,42,,,,,,,,*66
###2023-12-09 12:59:49.985721$GAGSV,1,1,04,04,28,312,40,19,85,226,40,21,85,133,46,27,34,048,43*65
###2023-12-09 12:59:49.988040$GBGSV,2,1,05,14,44,193,44,24,74,022,48,25,40,261,44,26,27,062,40*6D
###2023-12-09 12:59:49.989485$GBGSV,2,2,05,33,58,234,46,,,,,,,,,,,,*54
###2023-12-09 12:59:49.990811$GNVTG,271.63,T,,M,3.32,N,6.16,K,A*21
###2023-12-09 12:59:49.992443$GNGST,175949.10,18.000,,,,0.081,0.070,0.160*51
###2023-12-09 12:59:49.993721$GNZDA,175949.10,09,12,2023,00,00*77
###2023-12-09 12:59:49.994354$GNEBP,,,,,,M*13
###2023-12-09 12:59:50.162404$GNGGA,175949.30,4138.0207534,N,07032.2891994,W,1,24,0.6,12.863,M,-29.744,M,0.0,*5C
###2023-12-09 12:59:50.363756$GNGGA,175949.50,4138.0207410,N,07032.2894373,W,1,24,0.6,12.855,M,-29.744,M,0.0,*5E
###2023-12-09 12:59:50.565566$GNGGA,175949.70,4138.0207416,N,07032.2896730,W,1,24,0.6,12.861,M,-29.744,M,0.0,*5C
###2023-12-09 12:59:50.762726$GNGGA,175949.90,4138.0207573,N,07032.2899088,W,1,24,0.6,12.857,M,-29.744,M,0.0,*5E
###2023-12-09 12:59:50.968761$GNRMC,175950.10,A,4138.0207755,N,07032.2901461,W,3.17,276.62,091223,,,A*56
###2023-12-09 12:59:50.971639$GNGGA,175950.10,4138.0207755,N,07032.2901461,W,1,24,0.6,12.858,M,-29.744,M,0.0,*54
###2023-12-09 12:59:50.973499$GPGSA,A,3,03,04,16,26,28,29,31,32,,,,,1.1,0.6,0.9*3B
###2023-12-09 12:59:50.975220$GLGSA,A,3,65,71,72,73,74,75,,,,,,,1.1,0.6,0.9*24
###2023-12-09 12:59:50.976806$GAGSA,A,3,04,19,21,27,,,,,,,,,1.1,0.6,0.9*26
###2023-12-09 12:59:50.978455$GBGSA,A,3,14,24,25,26,33,,,,,,,,1.1,0.6,0.9*2F
###2023-12-09 12:59:50.980795$GPGSV,2,1,08,03,35,262,42,04,32,311,41,16,49,212,47,26,79,210,48*79
###2023-12-09 12:59:50.983135$GPGSV,2,2,08,28,50,070,45,29,25,062,40,31,69,036,48,32,19,140,43*7B
###2023-12-09 12:59:50.985458$GLGSV,2,1,06,65,23,328,39,71,42,172,47,72,73,273,45,73,37,041,45*64
###2023-12-09 12:59:50.987213$GLGSV,2,2,06,74,70,334,42,75,31,252,41,,,,,,,,*65
###2023-12-09 12:59:50.989526$GAGSV,1,1,04,04,29,312,38,19,85,226,40,21,85,133,46,27,34,048,41*69
###2023-12-09 12:59:50.991858$GBGSV,2,1,05,14,44,193,44,24,74,022,48,25,40,261,44,26,27,062,39*63
###2023-12-09 12:59:50.993312$GBGSV,2,2,05,33,58,234,47,,,,,,,,,,,,*55
###2023-12-09 12:59:50.994642$GNVTG,276.62,T,,M,3.17,N,5.87,K,A*2B
###2023-12-09 12:59:50.996285$GNGST,175950.10,18.000,,,,0.081,0.070,0.160*59
###2023-12-09 12:59:50.997576$GNZDA,175950.10,09,12,2023,00,00*7F
###2023-12-09 12:59:50.998216$GNEBP,,,,,,M*13
###2023-12-09 12:59:51.164639$GNGGA,175950.30,4138.0207951,N,07032.2903829,W,1,24,0.6,12.868,M,-29.744,M,0.0,*5D
###2023-12-09 12:59:51.362428$GNGGA,175950.50,4138.0208080,N,07032.2906252,W,1,24,0.6,12.869,M,-29.744,M,0.0,*53
###2023-12-09 12:59:51.562676$GNGGA,175950.70,4138.0208179,N,07032.2908744,W,1,24,0.6,12.863,M,-29.744,M,0.0,*50
###2023-12-09 12:59:51.762744$GNGGA,175950.90,4138.0208289,N,07032.2911280,W,1,24,0.6,12.868,M,-29.744,M,0.0,*5C
###2023-12-09 12:59:51.965397$GNRMC,175951.10,A,4138.0208397,N,07032.2913834,W,3.40,271.02,091223,,,A*5E
###2023-12-09 12:59:51.968267$GNGGA,175951.10,4138.0208397,N,07032.2913834,W,1,24,0.6,12.877,M,-29.744,M,0.0,*52
###2023-12-09 12:59:51.970121$GPGSA,A,3,03,04,16,26,28,29,31,32,,,,,1.1,0.6,0.9*3B
###2023-12-09 12:59:51.971843$GLGSA,A,3,65,71,72,73,74,75,,,,,,,1.1,0.6,0.9*24
###2023-12-09 12:59:51.973416$GAGSA,A,3,04,19,21,27,,,,,,,,,1.1,0.6,0.9*26
###2023-12-09 12:59:51.975068$GBGSA,A,3,14,24,25,26,33,,,,,,,,1.1,0.6,0.9*2F
###2023-12-09 12:59:51.977389$GPGSV,2,1,08,03,35,262,43,04,32,311,42,16,49,212,46,26,79,210,48*7A
###2023-12-09 12:59:51.979725$GPGSV,2,2,08,28,50,070,45,29,25,062,42,31,69,036,48,32,19,140,45*7F
###2023-12-09 12:59:51.982051$GLGSV,2,1,06,65,23,328,40,71,42,172,48,72,73,273,45,73,37,041,45*65
###2023-12-09 12:59:51.983804$GLGSV,2,2,06,74,70,334,42,75,31,252,43,,,,,,,,*67
###2023-12-09 12:59:51.986126$GAGSV,1,1,04,04,29,312,40,19,85,226,40,21,85,133,46,27,34,048,43*64
###2023-12-09 12:59:51.988444$GBGSV,2,1,05,14,44,193,44,24,74,022,48,25,40,261,44,26,27,062,41*6C
###2023-12-09 12:59:51.989889$GBGSV,2,2,05,33,58,234,46,,,,,,,,,,,,*54
###2023-12-09 12:59:51.991216$GNVTG,271.02,T,,M,3.40,N,6.30,K,A*27
###2023-12-09 12:59:51.992860$GNGST,175951.10,18.000,,,,0.081,0.070,0.160*58
###2023-12-09 12:59:51.994147$GNZDA,175951.10,09,12,2023,00,00*7E
###2023-12-09 12:59:51.994797$GNEBP,,,,,,M*13
###2023-12-09 12:59:52.161681$GNGGA,175951.30,4138.0208293,N,07032.2916344,W,1,24,0.6,12.871,M,-29.744,M,0.0,*5A
###2023-12-09 12:59:52.362411$GNGGA,175951.50,4138.0207976,N,07032.2918754,W,1,24,0.6,12.862,M,-29.744,M,0.0,*5A
###2023-12-09 12:59:52.561529$GNGGA,175951.70,4138.0207739,N,07032.2921227,W,1,24,0.6,12.873,M,-29.744,M,0.0,*56
###2023-12-09 12:59:52.762769$GNGGA,175951.90,4138.0207623,N,07032.2923773,W,1,24,0.6,12.888,M,-29.744,M,0.0,*50
###2023-12-09 12:59:52.964552$GNRMC,175952.10,A,4138.0207379,N,07032.2926266,W,3.38,257.80,091223,,,A*58
###2023-12-09 12:59:52.967412$GNGGA,175952.10,4138.0207379,N,07032.2926266,W,1,24,0.6,12.896,M,-29.744,M,0.0,*5A
###2023-12-09 12:59:52.969260$GPGSA,A,3,03,04,16,26,28,29,31,32,,,,,1.1,0.6,0.9*3B
###2023-12-09 12:59:52.970980$GLGSA,A,3,65,71,72,73,74,75,,,,,,,1.1,0.6,0.9*24
###2023-12-09 12:59:52.972553$GAGSA,A,3,04,19,21,27,,,,,,,,,1.1,0.6,0.9*26
###2023-12-09 12:59:52.974194$GBGSA,A,3,14,24,25,26,33,,,,,,,,1.1,0.6,0.9*2F
###2023-12-09 12:59:52.976523$GPGSV,2,1,08,03,35,262,43,04,32,311,42,16,49,212,46,26,79,210,48*7A
###2023-12-09 12:59:52.978863$GPGSV,2,2,08,28,50,070,45,29,25,062,42,31,69,036,48,32,19,140,43*79
###2023-12-09 12:59:52.981182$GLGSV,2,1,06,65,23,328,43,71,42,172,47,72,73,273,45,73,37,041,46*6A
###2023-12-09 12:59:52.982933$GLGSV,2,2,06,74,70,334,42,75,31,252,43,,,,,,,,*67
###2023-12-09 12:59:52.985254$GAGSV,1,1,04,04,29,312,40,19,85,226,40,21,85,133,45,27,34,048,43*67
###2023-12-09 12:59:52.987586$GBGSV,2,1,05,14,44,193,45,24,74,022,49,25,40,261,44,26,27,062,42*6F
###2023-12-09 12:59:52.989038$GBGSV,2,2,05,33,58,234,48,,,,,,,,,,,,*5A
###2023-12-09 12:59:52.990357$GNVTG,257.80,T,,M,3.38,N,6.26,K,A*21
###2023-12-09 12:59:52.992011$GNGST,175952.10,18.000,,,,0.080,0.070,0.160*5A
###2023-12-09 12:59:52.993295$GNZDA,175952.10,09,12,2023,00,00*7D
###2023-12-09 12:59:52.993929$GNEBP,,,,,,M*13
###2023-12-09 12:59:53.161627$GNGGA,175952.30,4138.0206811,N,07032.2928679,W,1,24,0.6,12.882,M,-29.744,M,0.0,*5D
###2023-12-09 12:59:53.362410$GNGGA,175952.50,4138.0206367,N,07032.2931194,W,1,24,0.6,12.871,M,-29.744,M,0.0,*51
###2023-12-09 12:59:53.563478$GNGGA,175952.70,4138.0206303,N,07032.2933927,W,1,24,0.6,12.899,M,-29.744,M,0.0,*55
###2023-12-09 12:59:53.763015$GNGGA,175952.90,4138.0206122,N,07032.2936679,W,1,24,0.6,12.908,M,-29.744,M,0.0,*52
###2023-12-09 12:59:53.965573$GNRMC,175953.10,A,4138.0205626,N,07032.2939232,W,3.54,252.06,091223,,,A*5A
###2023-12-09 12:59:53.968488$GNGGA,175953.10,4138.0205626,N,07032.2939232,W,1,24,0.6,12.894,M,-29.744,M,0.0,*5B
###2023-12-09 12:59:53.970350$GPGSA,A,3,03,04,16,26,28,29,31,32,,,,,1.1,0.6,0.9*3B
###2023-12-09 12:59:53.972080$GLGSA,A,3,65,71,72,73,74,75,,,,,,,1.1,0.6,0.9*24
###2023-12-09 12:59:53.973662$GAGSA,A,3,04,19,21,27,,,,,,,,,1.1,0.6,0.9*26
###2023-12-09 12:59:53.975353$GBGSA,A,3,14,24,25,26,33,,,,,,,,1.1,0.6,0.9*2F
###2023-12-09 12:59:53.977681$GPGSV,2,1,08,03,35,262,43,04,32,311,43,16,49,212,46,26,79,210,48*7B
