###2023-12-09 13:17:35.994170$GBGSA,A,3,14,24,25,26,33,35,,,,,,,1.2,0.7,1.0*23
###2023-12-09 13:17:35.996553$GPGSV,2,1,07,03,31,253,41,04,39,310,45,16,58,216,45,26,88,205,48*71
###2023-12-09 13:17:35.998617$GPGSV,2,2,07,28,43,078,45,29,23,053,42,31,64,053,47,,,,*42
###2023-12-09 13:17:36.000956$GLGSV,2,1,06,65,31,324,42,71,32,174,42,72,70,240,44,73,29,047,43*6E
###2023-12-09 13:17:36.002717$GLGSV,2,2,06,74,65,358,43,75,38,261,46,,,,,,,,*64
###2023-12-09 13:17:36.005041$GAGSV,1,1,04,04,34,312,43,19,79,190,40,21,83,062,46,27,28,049,41*6B
###2023-12-09 13:17:36.007377$GBGSV,2,1,06,14,36,191,42,24,68,036,49,25,45,268,47,26,21,066,44*6F
###2023-12-09 13:17:36.009118$GBGSV,2,2,06,33,52,224,48,35,16,063,45,,,,,,,,*67
###2023-12-09 13:17:36.010434$GNVTG,185.75,T,,M,3.42,N,6.34,K,A*29
###2023-12-09 13:17:36.012099$GNGST,181735.10,18.000,,,,0.100,0.070,0.170*56
###2023-12-09 13:17:36.013385$GNZDA,181735.10,09,12,2023,00,00*79
###2023-12-09 13:17:36.014020$GNEBP,,,,,,M*13
###2023-12-09 13:17:36.179062$GNGGA,181735.30,4138.0451863,N,07032.2940291,W,1,24,0.7,13.047,M,-29.743,M,0.0,*52
###2023-12-09 13:17:36.379380$GNGGA,181735.50,4138.0450039,N,07032.2940548,W,1,24,0.7,13.052,M,-29.743,M,0.0,*55
###2023-12-09 13:17:36.578440$GNGGA,181735.70,4138.0448187,N,07032.2940962,W,1,24,0.7,13.073,M,-29.743,M,0.0,*5D
###2023-12-09 13:17:36.779758$GNGGA,181735.90,4138.0446292,N,07032.2941146,W,1,24,0.7,13.047,M,-29.743,M,0.0,*52
###2023-12-09 13:17:36.984345$GNRMC,181736.10,A,4138.0444424,N,07032.2941130,W,3.44,182.38,091223,,,A*53
###2023-12-09 13:17:36.987225$GNGGA,181736.10,4138.0444424,N,07032.2941130,W,1,24,0.7,13.036,M,-29.743,M,0.0,*57
###2023-12-09 13:17:36.989015$GPGSA,A,3,03,04,16,26,28,29,31,,,,,,1.2,0.7,1.0*30
###2023-12-09 13:17:36.990736$GLGSA,A,3,65,71,72,73,74,75,,,,,,,1.2,0.7,1.0*2E
###2023-12-09 13:17:36.992312$GAGSA,A,3,04,19,21,27,,,,,,,,,1.2,0.7,1.0*2C
###2023-12-09 13:17:36.994016$GBGSA,A,3,14,24,25,26,33,35,,,,,,,1.2,0.7,1.0*23
###2023-12-09 13:17:36.996346$GPGSV,2,1,07,03,31,253,43,04,39,310,45,16,58,216,46,26,88,205,48*70
###2023-12-09 13:17:36.998379$GPGSV,2,2,07,28,43,078,46,29,23,053,43,31,64,053,47,,,,*40
###2023-12-09 13:17:37.000704$GLGSV,2,1,06,65,31,324,42,71,32,174,43,72,70,240,45,73,29,047,44*69
###2023-12-09 13:17:37.002446$GLGSV,2,2,06,74,65,358,42,75,38,261,46,,,,,,,,*65
###2023-12-09 13:17:37.004787$GAGSV,1,1,04,04,34,312,43,19,79,190,40,21,83,062,46,27,28,049,41*6B
###2023-12-09 13:17:37.007127$GBGSV,2,1,06,14,36,191,40,24,68,036,48,25,45,268,47,26,21,066,42*6A
###2023-12-09 13:17:37.008865$GBGSV,2,2,06,33,52,224,46,35,16,063,43,,,,,,,,*6F
###2023-12-09 13:17:37.010179$GNVTG,182.38,T,,M,3.44,N,6.37,K,A*22
###2023-12-09 13:17:37.011856$GNGST,181736.10,18.000,,,,0.100,0.070,0.170*55
###2023-12-09 13:17:37.013181$GNZDA,181736.10,09,12,2023,00,00*7A
###2023-12-09 13:17:37.013832$GNEBP,,,,,,M*13
###2023-12-09 13:17:37.179000$GNGGA,181736.30,4138.0442530,N,07032.2941420,W,1,24,0.7,13.055,M,-29.743,M,0.0,*56
###2023-12-09 13:17:37.379594$GNGGA,181736.50,4138.0440567,N,07032.2941631,W,1,24,0.7,13.049,M,-29.743,M,0.0,*5F
###2023-12-09 13:17:37.581492$GNGGA,181736.70,4138.0438676,N,07032.2941581,W,1,24,0.7,13.035,M,-29.743,M,0.0,*52
###2023-12-09 13:17:37.780612$GNGGA,181736.90,4138.0436748,N,07032.2941588,W,1,24,0.7,13.045,M,-29.743,M,0.0,*50
###2023-12-09 13:17:37.983936$GNRMC,181737.10,A,4138.0434758,N,07032.2941614,W,3.52,180.46,091223,,,A*50
###2023-12-09 13:17:37.987409$GNGGA,181737.10,4138.0434758,N,07032.2941614,W,1,24,0.7,13.028,M,-29.743,M,0.0,*57
###2023-12-09 13:17:37.989573$GPGSA,A,3,03,04,16,26,28,29,31,,,,,,1.2,0.7,1.0*30
###2023-12-09 13:17:37.991654$GLGSA,A,3,65,71,72,73,74,75,,,,,,,1.2,0.7,1.0*2E
###2023-12-09 13:17:37.993557$GAGSA,A,3,04,19,21,27,,,,,,,,,1.2,0.7,1.0*2C
###2023-12-09 13:17:37.995632$GBGSA,A,3,14,24,25,26,33,35,,,,,,,1.2,0.7,1.0*23
###2023-12-09 13:17:37.998441$GPGSV,2,1,07,03,31,253,43,04,39,310,45,16,58,216,46,26,88,205,48*70
###2023-12-09 13:17:38.000904$GPGSV,2,2,07,28,43,078,46,29,23,053,42,31,64,053,48,,,,*4E
###2023-12-09 13:17:38.003789$GLGSV,2,1,06,65,31,324,43,71,32,174,43,72,70,240,45,73,29,047,44*68
###2023-12-09 13:17:38.005898$GLGSV,2,2,06,74,65,358,43,75,38,261,46,,,,,,,,*64
###2023-12-09 13:17:38.008709$GAGSV,1,1,04,04,34,312,43,19,79,190,40,21,83,062,46,27,28,049,40*6A
###2023-12-09 13:17:38.011509$GBGSV,2,1,06,14,36,191,40,24,68,036,48,25,45,268,46,26,21,066,43*6A
###2023-12-09 13:17:38.013608$GBGSV,2,2,06,33,52,224,46,35,16,063,42,,,,,,,,*6E
###2023-12-09 13:17:38.015204$GNVTG,180.46,T,,M,3.52,N,6.52,K,A*2D
###2023-12-09 13:17:38.017170$GNGST,181737.10,18.000,,,,0.100,0.070,0.170*54
###2023-12-09 13:17:38.018732$GNZDA,181737.10,09,12,2023,00,00*7B
###2023-12-09 13:17:38.019499$GNEBP,,,,,,M*13
###2023-12-09 13:17:38.179651$GNGGA,181737.30,4138.0432811,N,07032.2941624,W,1,24,0.7,13.023,M,-29.743,M,0.0,*59
###2023-12-09 13:17:38.379601$GNGGA,181737.50,4138.0430882,N,07032.2941672,W,1,24,0.7,13.043,M,-29.743,M,0.0,*52
###2023-12-09 13:17:38.579972$GNGGA,181737.70,4138.0428927,N,07032.2941716,W,1,24,0.7,13.039,M,-29.743,M,0.0,*59
###2023-12-09 13:17:38.781348$GNGGA,181737.90,4138.0426981,N,07032.2941528,W,1,24,0.7,13.000,M,-29.743,M,0.0,*50
###2023-12-09 13:17:38.985323$GNRMC,181738.10,A,4138.0425062,N,07032.2941522,W,3.36,187.63,091223,,,A*55
###2023-12-09 13:17:38.988207$GNGGA,181738.10,4138.0425062,N,07032.2941522,W,1,24,0.7,12.988,M,-29.743,M,0.0,*52
###2023-12-09 13:17:38.990005$GPGSA,A,3,03,04,16,26,28,29,31,,,,,,1.2,0.7,1.0*30
###2023-12-09 13:17:38.991733$GLGSA,A,3,65,71,72,73,74,75,,,,,,,1.2,0.7,1.0*2E
###2023-12-09 13:17:38.993314$GAGSA,A,3,04,19,21,27,,,,,,,,,1.2,0.7,1.0*2C
###2023-12-09 13:17:38.995038$GBGSA,A,3,14,24,25,26,33,35,,,,,,,1.2,0.7,1.0*23
###2023-12-09 13:17:38.997359$GPGSV,2,1,07,03,31,253,41,04,39,310,44,16,58,216,45,26,88,205,48*70
###2023-12-09 13:17:38.999407$GPGSV,2,2,07,28,43,078,45,29,23,053,44,31,64,053,47,,,,*44
###2023-12-09 13:17:39.001733$GLGSV,2,1,06,65,31,324,42,71,32,174,42,72,70,240,45,73,29,047,45*69
###2023-12-09 13:17:39.003495$GLGSV,2,2,06,74,65,358,43,75,38,261,46,,,,,,,,*64
###2023-12-09 13:17:39.005801$GAGSV,1,1,04,04,34,312,42,19,79,190,40,21,83,062,46,27,28,049,42*69
###2023-12-09 13:17:39.008128$GBGSV,2,1,06,14,36,191,43,24,68,036,50,25,45,268,48,26,21,066,46*6B
###2023-12-09 13:17:39.009865$GBGSV,2,2,06,33,52,224,47,35,16,063,45,,,,,,,,*68
###2023-12-09 13:17:39.011198$GNVTG,187.63,T,,M,3.36,N,6.23,K,A*29
###2023-12-09 13:17:39.012840$GNGST,181738.10,18.000,,,,0.100,0.070,0.170*5B
###2023-12-09 13:17:39.014124$GNZDA,181738.10,09,12,2023,00,00*74
###2023-12-09 13:17:39.014773$GNEBP,,,,,,M*13
###2023-12-09 13:17:39.183589$GNGGA,181738.30,4138.0423117,N,07032.2941939,W,1,24,0.7,13.039,M,-29.743,M,0.0,*51
###2023-12-09 13:17:39.382083$GNGGA,181738.50,4138.0421177,N,07032.2942164,W,1,24,0.7,13.030,M,-29.743,M,0.0,*59
###2023-12-09 13:17:39.580999$GNGGA,181738.70,4138.0419262,N,07032.2941926,W,1,24,0.7,12.989,M,-29.743,M,0.0,*50
###2023-12-09 13:17:39.780994$GNGGA,181738.90,4138.0417344,N,07032.2941918,W,1,24,0.7,12.988,M,-29.743,M,0.0,*59
###2023-12-09 13:17:39.984115$GNRMC,181739.10,A,4138.0415430,N,07032.2942500,W,3.60,191.62,091223,,,A*52
###2023-12-09 13:17:39.986970$GNGGA,181739.10,4138.0415430,N,07032.2942500,W,1,24,0.7,13.024,M,-29.743,M,0.0,*5E
###2023-12-09 13:17:39.988753$GPGSA,A,3,03,04,16,26,28,29,31,,,,,,1.2,0.7,1.0*30
###2023-12-09 13:17:39.990455$GLGSA,A,3,65,71,72,73,74,75,,,,,,,1.2,0.7,1.0*2E
###2023-12-09 13:17:39.992044$GAGSA,A,3,04,19,21,27,,,,,,,,,1.2,0.7,1.0*2C
###2023-12-09 13:17:39.993755$GBGSA,A,3,14,24,25,26,33,35,,,,,,,1.2,0.7,1.0*23
###2023-12-09 13:17:39.996090$GPGSV,2,1,07,03,31,253,42,04,39,310,45,16,58,216,46,26,88,205,48*71
###2023-12-09 13:17:39.998126$GPGSV,2,2,07,28,43,078,45,29,23,053,42,31,64,053,47,,,,*42
###2023-12-09 13:17:40.000467$GLGSV,2,1,06,65,31,324,42,71,32,174,42,72,70,240,45,73,29,047,43*6F
###2023-12-09 13:17:40.002210$GLGSV,2,2,06,74,65,358,43,75,38,261,46,,,,,,,,*64
###2023-12-09 13:17:40.004546$GAGSV,1,1,04,04,34,312,43,19,79,190,40,21,83,062,46,27,28,049,41*6B
###2023-12-09 13:17:40.006872$GBGSV,2,1,06,14,36,191,41,24,68,036,48,25,45,268,47,26,21,066,43*6A
###2023-12-09 13:17:40.008900$GBGSV,2,2,06,33,52,224,47,35,16,063,43,,,,,,,,*6E
###2023-12-09 13:17:40.010236$GNVTG,191.62,T,,M,3.60,N,6.66,K,A*2D
###2023-12-09 13:17:40.011901$GNGST,181739.10,18.000,,,,0.100,0.070,0.170*5A
###2023-12-09 13:17:40.013192$GNZDA,181739.10,09,12,2023,00,00*75
###2023-12-09 13:17:40.013831$GNEBP,,,,,,M*13
###2023-12-09 13:17:40.177185$GNGGA,181739.30,4138.0413480,N,07032.2942707,W,1,24,0.7,12.996,M,-29.743,M,0.0,*55
###2023-12-09 13:17:40.377928$GNGGA,181739.50,4138.0411658,N,07032.2942530,W,1,24,0.7,12.983,M,-29.743,M,0.0,*54
###2023-12-09 13:17:40.578680$GNGGA,181739.70,4138.0409734,N,07032.2942736,W,1,24,0.7,13.016,M,-29.743,M,0.0,*54
###2023-12-09 13:17:40.778141$GNGGA,181739.90,4138.0407731,N,07032.2943064,W,1,24,0.7,12.998,M,-29.743,M,0.0,*5E
