###2023-12-09 13:18:04.182287$GNGGA,181803.30,4138.0183511,N,07032.2946113,W,1,24,0.7,12.801,M,-29.744,M,0.0,*59
###2023-12-09 13:18:04.382284$GNGGA,181803.50,4138.0181656,N,07032.2946012,W,1,24,0.7,12.803,M,-29.744,M,0.0,*5F
###2023-12-09 13:18:04.581089$GNGGA,181803.70,4138.0179772,N,07032.2946212,W,1,24,0.7,12.837,M,-29.744,M,0.0,*58
###2023-12-09 13:18:04.780183$GNGGA,181803.90,4138.0177837,N,07032.2946272,W,1,24,0.7,12.801,M,-29.744,M,0.0,*55
###2023-12-09 13:18:04.987262$GNRMC,181804.10,A,4138.0176054,N,07032.2946419,W,3.17,186.43,091223,,,A*5D
###2023-12-09 13:18:04.990140$GNGGA,181804.10,4138.0176054,N,07032.2946419,W,1,24,0.7,12.817,M,-29.744,M,0.0,*5A
###2023-12-09 13:18:04.991953$GPGSA,A,3,03,04,16,26,28,29,31,,,,,,1.2,0.7,0.9*38
###2023-12-09 13:18:04.993672$GLGSA,A,3,65,71,72,73,74,75,,,,,,,1.2,0.7,0.9*26
###2023-12-09 13:18:04.995278$GAGSA,A,3,04,19,21,27,,,,,,,,,1.2,0.7,0.9*24
###2023-12-09 13:18:04.996998$GBGSA,A,3,14,24,25,26,33,35,,,,,,,1.2,0.7,0.9*2B
###2023-12-09 13:18:04.999348$GPGSV,2,1,07,03,31,253,44,04,39,310,46,16,58,216,46,26,88,205,47*7B
###2023-12-09 13:18:05.001394$GPGSV,2,2,07,28,43,078,44,29,23,053,43,31,64,053,48,,,,*4D
###2023-12-09 13:18:05.003735$GLGSV,2,1,06,65,31,324,43,71,32,174,42,72,70,240,46,73,29,047,43*6D
###2023-12-09 13:18:05.005488$GLGSV,2,2,06,74,65,358,43,75,38,261,48,,,,,,,,*6A
###2023-12-09 13:18:05.007830$GAGSV,1,1,04,04,34,311,45,19,78,188,40,21,82,059,46,27,27,049,41*60
###2023-12-09 13:18:05.010165$GBGSV,2,1,06,14,36,191,41,24,68,036,49,25,45,268,48,26,21,066,43*64
###2023-12-09 13:18:05.011926$GBGSV,2,2,06,33,52,224,47,35,16,063,43,,,,,,,,*6E
###2023-12-09 13:18:05.013253$GNVTG,186.43,T,,M,3.17,N,5.87,K,A*24
###2023-12-09 13:18:05.014912$GNGST,181804.10,18.000,,,,0.100,0.070,0.170*5B
###2023-12-09 13:18:05.016209$GNZDA,181804.10,09,12,2023,00,00*74
###2023-12-09 13:18:05.016848$GNEBP,,,,,,M*13
###2023-12-09 13:18:05.181056$GNGGA,181804.30,4138.0174193,N,07032.2946544,W,1,24,0.7,12.844,M,-29.744,M,0.0,*5F
###2023-12-09 13:18:05.381330$GNGGA,181804.50,4138.0172325,N,07032.2946698,W,1,24,0.7,12.818,M,-29.744,M,0.0,*5B
###2023-12-09 13:18:05.582006$GNGGA,181804.70,4138.0170571,N,07032.2947311,W,1,24,0.7,12.825,M,-29.744,M,0.0,*57
###2023-12-09 13:18:05.782154$GNGGA,181804.90,4138.0168754,N,07032.2947831,W,1,24,0.7,12.835,M,-29.744,M,0.0,*5D
###2023-12-09 13:18:05.984905$GNRMC,181805.10,A,4138.0167010,N,07032.2948540,W,3.29,197.50,091223,,,A*50
###2023-12-09 13:18:05.987793$GNGGA,181805.10,4138.0167010,N,07032.2948540,W,1,24,0.7,12.843,M,-29.744,M,0.0,*59
###2023-12-09 13:18:05.989587$GPGSA,A,3,03,04,16,26,28,29,31,,,,,,1.2,0.7,0.9*38
###2023-12-09 13:18:05.991320$GLGSA,A,3,65,71,72,73,74,75,,,,,,,1.2,0.7,0.9*26
###2023-12-09 13:18:05.992908$GAGSA,A,3,04,19,21,27,,,,,,,,,1.2,0.7,0.9*24
###2023-12-09 13:18:05.994637$GBGSA,A,3,14,24,25,26,33,35,,,,,,,1.2,0.7,0.9*2B
###2023-12-09 13:18:05.996978$GPGSV,2,1,07,03,31,253,42,04,39,310,46,16,58,216,46,26,88,205,48*72
###2023-12-09 13:18:05.999029$GPGSV,2,2,07,28,43,078,44,29,23,053,42,31,64,053,47,,,,*43
###2023-12-09 13:18:06.001367$GLGSV,2,1,06,65,31,324,44,71,32,174,44,72,70,240,46,73,29,047,44*6B
###2023-12-09 13:18:06.003128$GLGSV,2,2,06,74,65,358,43,75,38,261,47,,,,,,,,*65
###2023-12-09 13:18:06.005455$GAGSV,1,1,04,04,34,311,45,19,78,188,40,21,82,059,46,27,27,049,41*60
###2023-12-09 13:18:06.007803$GBGSV,2,1,06,14,36,191,42,24,68,036,49,25,45,268,48,26,21,066,42*66
###2023-12-09 13:18:06.009548$GBGSV,2,2,06,33,52,224,46,35,16,063,43,,,,,,,,*6F
###2023-12-09 13:18:06.010880$GNVTG,197.50,T,,M,3.29,N,6.08,K,A*2F
###2023-12-09 13:18:06.012526$GNGST,181805.10,18.000,,,,0.100,0.069,0.170*52
###2023-12-09 13:18:06.013814$GNZDA,181805.10,09,12,2023,00,00*75
###2023-12-09 13:18:06.014451$GNEBP,,,,,,M*13
###2023-12-09 13:18:06.181732$GNGGA,181805.30,4138.0165254,N,07032.2949241,W,1,24,0.7,12.847,M,-29.744,M,0.0,*58
###2023-12-09 13:18:06.381400$GNGGA,181805.50,4138.0163574,N,07032.2950193,W,1,24,0.7,12.837,M,-29.744,M,0.0,*5E
###2023-12-09 13:18:06.582923$GNGGA,181805.70,4138.0161978,N,07032.2951359,W,1,24,0.7,12.849,M,-29.744,M,0.0,*52
###2023-12-09 13:18:06.782215$GNGGA,181805.90,4138.0160382,N,07032.2952641,W,1,24,0.7,12.854,M,-29.744,M,0.0,*51
###2023-12-09 13:18:06.985067$GNRMC,181806.10,A,4138.0158864,N,07032.2954007,W,3.30,215.47,091223,,,A*58
###2023-12-09 13:18:06.987925$GNGGA,181806.10,4138.0158864,N,07032.2954007,W,1,24,0.7,12.851,M,-29.744,M,0.0,*55
###2023-12-09 13:18:06.989714$GPGSA,A,3,03,04,16,26,28,29,31,,,,,,1.2,0.7,0.9*38
###2023-12-09 13:18:06.991432$GLGSA,A,3,65,71,72,73,74,75,,,,,,,1.2,0.7,0.9*26
###2023-12-09 13:18:06.993010$GAGSA,A,3,04,19,21,27,,,,,,,,,1.2,0.7,0.9*24
###2023-12-09 13:18:06.994727$GBGSA,A,3,14,24,25,26,33,35,,,,,,,1.2,0.7,0.9*2B
###2023-12-09 13:18:06.997049$GPGSV,2,1,07,03,31,253,41,04,39,310,46,16,58,216,46,26,88,205,49*70
###2023-12-09 13:18:06.999095$GPGSV,2,2,07,28,43,078,45,29,23,053,44,31,64,053,47,,,,*44
###2023-12-09 13:18:07.001423$GLGSV,2,1,06,65,31,324,45,71,32,174,45,72,70,240,46,73,29,047,45*6A
###2023-12-09 13:18:07.003184$GLGSV,2,2,06,74,65,358,43,75,38,261,45,,,,,,,,*67
###2023-12-09 13:18:07.005493$GAGSV,1,1,04,04,34,311,44,19,78,188,40,21,82,059,46,27,27,049,42*62
###2023-12-09 13:18:07.007827$GBGSV,2,1,06,14,36,191,42,24,68,036,49,25,45,268,46,26,21,066,44*6E
###2023-12-09 13:18:07.009568$GBGSV,2,2,06,33,52,224,45,35,16,063,44,,,,,,,,*6B
###2023-12-09 13:18:07.010897$GNVTG,215.47,T,,M,3.30,N,6.12,K,A*23
###2023-12-09 13:18:07.012541$GNGST,181806.10,18.000,,,,0.100,0.069,0.160*50
###2023-12-09 13:18:07.013828$GNZDA,181806.10,09,12,2023,00,00*76
###2023-12-09 13:18:07.014464$GNEBP,,,,,,M*13
###2023-12-09 13:18:07.181470$GNGGA,181806.30,4138.0157390,N,07032.2955455,W,1,24,0.7,12.853,M,-29.744,M,0.0,*58
###2023-12-09 13:18:07.381686$GNGGA,181806.50,4138.0156009,N,07032.2957115,W,1,24,0.7,12.857,M,-29.744,M,0.0,*5B
###2023-12-09 13:18:07.582108$GNGGA,181806.70,4138.0154629,N,07032.2958841,W,1,24,0.7,12.842,M,-29.744,M,0.0,*5C
###2023-12-09 13:18:07.781571$GNGGA,181806.90,4138.0153560,N,07032.2960765,W,1,24,0.7,12.862,M,-29.744,M,0.0,*5B
###2023-12-09 13:18:07.986070$GNRMC,181807.10,A,4138.0152622,N,07032.2962938,W,3.42,234.86,091223,,,A*54
###2023-12-09 13:18:07.988949$GNGGA,181807.10,4138.0152622,N,07032.2962938,W,1,24,0.7,12.905,M,-29.744,M,0.0,*52
###2023-12-09 13:18:07.990757$GPGSA,A,3,03,04,16,26,28,29,31,,,,,,1.2,0.7,0.9*38
###2023-12-09 13:18:07.992476$GLGSA,A,3,65,71,72,73,74,75,,,,,,,1.2,0.7,0.9*26
###2023-12-09 13:18:07.994060$GAGSA,A,3,04,19,21,27,,,,,,,,,1.2,0.7,0.9*24
###2023-12-09 13:18:07.995789$GBGSA,A,3,14,24,25,26,33,35,,,,,,,1.2,0.7,0.9*2B
###2023-12-09 13:18:07.998123$GPGSV,2,1,07,03,31,253,43,04,39,310,44,16,58,216,46,26,88,205,48*71
###2023-12-09 13:18:08.000180$GPGSV,2,2,07,28,43,078,44,29,23,053,43,31,64,053,48,,,,*4D
###2023-12-09 13:18:08.002510$GLGSV,2,1,06,65,31,324,44,71,32,174,44,72,70,240,44,73,29,047,44*69
###2023-12-09 13:18:08.004268$GLGSV,2,2,06,74,65,358,43,75,38,261,45,,,,,,,,*67
###2023-12-09 13:18:08.006605$GAGSV,1,1,04,04,34,311,43,19,78,188,40,21,82,059,46,27,27,049,41*66
###2023-12-09 13:18:08.008924$GBGSV,2,1,06,14,36,191,44,24,68,036,49,25,45,268,45,26,21,066,43*6C
###2023-12-09 13:18:08.010680$GBGSV,2,2,06,33,52,224,47,35,16,063,44,,,,,,,,*69
###2023-12-09 13:18:08.012003$GNVTG,234.86,T,,M,3.42,N,6.34,K,A*2C
###2023-12-09 13:18:08.013645$GNGST,181807.10,18.000,,,,0.099,0.069,0.160*50
###2023-12-09 13:18:08.014945$GNZDA,181807.10,09,12,2023,00,00*77
###2023-12-09 13:18:08.015585$GNEBP,,,,,,M*13
###2023-12-09 13:18:08.181451$GNGGA,181807.30,4138.0151586,N,07032.2965043,W,1,24,0.7,12.870,M,-29.744,M,0.0,*5F
###2023-12-09 13:18:08.380311$GNGGA,181807.50,4138.0150915,N,07032.2967297,W,1,24,0.7,12.865,M,-29.744,M,0.0,*53
###2023-12-09 13:18:08.583051$GNGGA,181807.70,4138.0150235,N,07032.2969535,W,1,24,0.7,12.885,M,-29.744,M,0.0,*57
###2023-12-09 13:18:08.784047$GNGGA,181807.90,4138.0149632,N,07032.2971760,W,1,24,0.7,12.871,M,-29.744,M,0.0,*52
###2023-12-09 13:18:08.991431$GNRMC,181808.10,A,4138.0149427,N,07032.2974029,W,3.07,264.73,091223,,,A*56
###2023-12-09 13:18:08.994287$GNGGA,181808.10,4138.0149427,N,07032.2974029,W,1,24,0.7,12.886,M,-29.745,M,0.0,*55
###2023-12-09 13:18:08.996350$GPGSA,A,3,03,04,16,26,28,29,31,,,,,,1.2,0.7,0.9*38
###2023-12-09 13:18:08.998076$GLGSA,A,3,65,71,72,73,74,75,,,,,,,1.2,0.7,0.9*26
###2023-12-09 13:18:08.999676$GAGSA,A,3,04,19,21,27,,,,,,,,,1.2,0.7,0.9*24
###2023-12-09 13:18:09.001393$GBGSA,A,3,14,24,25,26,33,35,,,,,,,1.2,0.7,0.9*2B
###2023-12-09 13:18:09.003739$GPGSV,2,1,07,03,31,253,42,04,39,310,42,16,58,216,46,26,88,205,48*76
###2023-12-09 13:18:09.005785$GPGSV,2,2,07,28,43,078,45,29,23,053,41,31,64,053,47,,,,*41
###2023-12-09 13:18:09.008123$GLGSV,2,1,06,65,31,324,41,71,32,174,45,72,70,240,46,73,29,047,44*6F
###2023-12-09 13:18:09.009859$GLGSV,2,2,06,74,65,358,43,75,38,261,45,,,,,,,,*67
###2023-12-09 13:18:09.012193$GAGSV,1,1,04,04,34,311,42,19,78,188,40,21,82,059,46,27,27,049,41*67
###2023-12-09 13:18:09.014515$GBGSV,2,1,06,14,36,191,43,24,68,036,49,25,45,268,44,26,21,066,44*6D
