###2023-12-09 13:32:31.014050$GAGSV,1,1,04,04,39,310,44,19,73,182,41,21,77,047,47,27,23,050,42*66
###2023-12-09 13:32:31.016424$GBGSV,2,1,05,24,63,045,48,25,50,275,47,26,16,070,44,33,47,218,45*6F
###2023-12-09 13:32:31.017884$GBGSV,2,2,05,35,16,058,44,,,,,,,,,,,,*52
###2023-12-09 13:32:31.019193$GNVTG,97.99,T,,M,0.29,N,0.54,K,A*17
###2023-12-09 13:32:31.020808$GNGST,183230.10,6.000,,,,0.150,0.082,0.230*64
###2023-12-09 13:32:31.022097$GNZDA,183230.10,09,12,2023,00,00*7B
###2023-12-09 13:32:31.022751$GNEBP,,,,,,M*13
###2023-12-09 13:32:31.192243$GNGGA,183230.30,4138.0365237,N,07032.4155362,W,1,22,0.8,13.814,M,-29.745,M,0.0,*5D
###2023-12-09 13:32:31.391280$GNGGA,183230.50,4138.0365162,N,07032.4155400,W,1,22,0.8,13.806,M,-29.745,M,0.0,*58
###2023-12-09 13:32:31.592292$GNGGA,183230.70,4138.0364950,N,07032.4155222,W,1,22,0.8,13.783,M,-29.745,M,0.0,*56
###2023-12-09 13:32:31.793028$GNGGA,183230.90,4138.0364883,N,07032.4155282,W,1,22,0.8,13.785,M,-29.745,M,0.0,*5B
###2023-12-09 13:32:31.995137$GNRMC,183231.10,A,4138.0364964,N,07032.4155603,W,0.52,97.99,091223,,,A*69
###2023-12-09 13:32:31.998707$GNGGA,183231.10,4138.0364964,N,07032.4155603,W,1,21,0.9,13.805,M,-29.745,M,0.0,*52
###2023-12-09 13:32:32.000797$GPGSA,A,3,04,16,26,28,29,31,,,,,,,1.6,0.9,1.2*3B
###2023-12-09 13:32:32.002909$GLGSA,A,3,65,72,73,74,75,83,,,,,,,1.6,0.9,1.2*2B
###2023-12-09 13:32:32.004827$GAGSA,A,3,04,19,21,27,,,,,,,,,1.6,0.9,1.2*24
###2023-12-09 13:32:32.006818$GBGSA,A,3,24,25,26,33,35,,,,,,,,1.6,0.9,1.2*2E
###2023-12-09 13:32:32.009614$GPGSV,2,1,06,04,45,308,45,16,65,221,44,26,85,040,48,28,39,084,45*7A
###2023-12-09 13:32:32.011724$GPGSV,2,2,06,29,21,048,43,31,60,064,47,,,,,,,,*79
###2023-12-09 13:32:32.014529$GLGSV,2,1,06,65,37,320,44,72,64,223,45,73,23,051,44,74,61,011,42*60
###2023-12-09 13:32:32.016642$GLGSV,2,2,06,75,42,269,46,83,15,049,36,,,,,,,,*6F
###2023-12-09 13:32:32.019476$GAGSV,1,1,04,04,39,310,44,19,73,182,41,21,77,047,46,27,23,050,41*64
###2023-12-09 13:32:32.022274$GBGSV,2,1,05,24,63,045,48,25,50,275,47,26,16,070,44,33,47,218,44*6E
###2023-12-09 13:32:32.024044$GBGSV,2,2,05,35,16,058,45,,,,,,,,,,,,*53
###2023-12-09 13:32:32.025602$GNVTG,97.99,T,,M,0.52,N,0.97,K,A*14
###2023-12-09 13:32:32.027558$GNGST,183231.10,5.700,,,,0.150,0.082,0.230*61
###2023-12-09 13:32:32.029107$GNZDA,183231.10,09,12,2023,00,00*7A
###2023-12-09 13:32:32.029875$GNEBP,,,,,,M*13
###2023-12-09 13:32:32.192975$GNGGA,183231.30,4138.0364957,N,07032.4155770,W,1,23,0.7,13.810,M,-29.745,M,0.0,*5D
###2023-12-09 13:32:32.390983$GNGGA,183231.50,4138.0364773,N,07032.4155625,W,1,22,0.8,13.806,M,-29.745,M,0.0,*5B
###2023-12-09 13:32:32.593377$GNGGA,183231.70,4138.0364620,N,07032.4155509,W,1,22,0.8,13.796,M,-29.745,M,0.0,*55
###2023-12-09 13:32:32.792136$GNGGA,183231.90,4138.0364632,N,07032.4155735,W,1,22,0.8,13.805,M,-29.745,M,0.0,*50
###2023-12-09 13:32:33.001432$GNRMC,183232.10,A,4138.0364692,N,07032.4156032,W,0.23,97.99,091223,,,A*6D
###2023-12-09 13:32:33.004919$GNGGA,183232.10,4138.0364692,N,07032.4156032,W,1,22,0.8,13.807,M,-29.745,M,0.0,*50
###2023-12-09 13:32:33.007014$GPGSA,A,3,04,16,26,28,29,31,,,,,,,1.3,0.8,1.1*3C
###2023-12-09 13:32:33.009078$GLGSA,A,3,65,72,73,74,75,83,,,,,,,1.3,0.8,1.1*2C
###2023-12-09 13:32:33.011070$GAGSA,A,3,04,19,21,27,,,,,,,,,1.3,0.8,1.1*23
###2023-12-09 13:32:33.013181$GBGSA,A,3,14,24,25,26,33,35,,,,,,,1.3,0.8,1.1*2C
###2023-12-09 13:32:33.016016$GPGSV,2,1,06,04,45,308,45,16,65,221,45,26,85,040,47,28,39,084,45*74
###2023-12-09 13:32:33.018122$GPGSV,2,2,06,29,21,048,42,31,60,064,47,,,,,,,,*78
###2023-12-09 13:32:33.020936$GLGSV,2,1,06,65,37,320,44,72,64,223,45,73,23,051,43,74,61,011,43*66
###2023-12-09 13:32:33.023072$GLGSV,2,2,06,75,42,269,47,83,15,049,37,,,,,,,,*6F
###2023-12-09 13:32:33.025890$GAGSV,1,1,04,04,39,310,43,19,73,182,40,21,77,047,46,27,23,050,41*62
###2023-12-09 13:32:33.028738$GBGSV,2,1,06,14,29,190,35,24,63,045,47,25,50,275,46,26,16,070,43*6C
###2023-12-09 13:32:33.030855$GBGSV,2,2,06,33,47,218,44,35,16,058,44,,,,,,,,*69
###2023-12-09 13:32:33.032419$GNVTG,97.99,T,,M,0.23,N,0.43,K,A*1B
###2023-12-09 13:32:33.034366$GNGST,183232.10,6.000,,,,0.150,0.081,0.230*65
###2023-12-09 13:32:33.035928$GNZDA,183232.10,09,12,2023,00,00*79
###2023-12-09 13:32:33.036697$GNEBP,,,,,,M*13
###2023-12-09 13:32:33.196183$GNGGA,183232.30,4138.0364601,N,07032.4156012,W,1,22,0.8,13.800,M,-29.745,M,0.0,*5D
###2023-12-09 13:32:33.391921$GNGGA,183232.50,4138.0364415,N,07032.4155842,W,1,23,0.7,13.800,M,-29.745,M,0.0,*5C
###2023-12-09 13:32:33.592198$GNGGA,183232.70,4138.0364396,N,07032.4155982,W,1,22,0.8,13.818,M,-29.745,M,0.0,*58
###2023-12-09 13:32:33.792506$GNGGA,183232.90,4138.0364512,N,07032.4156335,W,1,22,0.8,13.828,M,-29.745,M,0.0,*5A
###2023-12-09 13:32:33.995791$GNRMC,183233.10,A,4138.0364494,N,07032.4156449,W,0.27,97.99,091223,,,A*64
###2023-12-09 13:32:33.999264$GNGGA,183233.10,4138.0364494,N,07032.4156449,W,1,22,0.8,13.811,M,-29.745,M,0.0,*5A
###2023-12-09 13:32:34.001343$GPGSA,A,3,04,16,26,28,29,31,,,,,,,1.3,0.8,1.1*3C
###2023-12-09 13:32:34.003414$GLGSA,A,3,65,72,73,74,75,83,,,,,,,1.3,0.8,1.1*2C
###2023-12-09 13:32:34.005317$GAGSA,A,3,04,19,21,27,,,,,,,,,1.3,0.8,1.1*23
###2023-12-09 13:32:34.007392$GBGSA,A,3,14,24,25,26,33,35,,,,,,,1.3,0.8,1.1*2C
###2023-12-09 13:32:34.010180$GPGSV,2,1,06,04,45,308,45,16,65,221,46,26,85,040,48,28,39,084,44*79
###2023-12-09 13:32:34.012294$GPGSV,2,2,06,29,21,048,41,31,60,064,46,,,,,,,,*7A
###2023-12-09 13:32:34.015103$GLGSV,2,1,06,65,37,320,45,72,64,223,45,73,23,051,42,74,61,011,43*66
###2023-12-09 13:32:34.017191$GLGSV,2,2,06,75,42,269,47,83,15,049,37,,,,,,,,*6F
###2023-12-09 13:32:34.020013$GAGSV,1,1,04,04,39,310,45,19,73,182,40,21,77,047,46,27,23,050,39*6B
###2023-12-09 13:32:34.022817$GBGSV,2,1,06,14,29,190,38,24,63,045,48,25,50,275,47,26,16,070,44*68
###2023-12-09 13:32:34.024908$GBGSV,2,2,06,33,47,218,44,35,16,058,44,,,,,,,,*69
###2023-12-09 13:32:34.026455$GNVTG,97.99,T,,M,0.27,N,0.50,K,A*1D
###2023-12-09 13:32:34.028410$GNGST,183233.10,5.900,,,,0.150,0.081,0.220*6F
###2023-12-09 13:32:34.029965$GNZDA,183233.10,09,12,2023,00,00*78
###2023-12-09 13:32:34.030740$GNEBP,,,,,,M*13
###2023-12-09 13:32:34.193597$GNGGA,183233.30,4138.0364309,N,07032.4156270,W,1,22,0.8,13.800,M,-29.745,M,0.0,*57
###2023-12-09 13:32:34.391740$GNGGA,183233.50,4138.0364185,N,07032.4156222,W,1,21,0.8,13.803,M,-29.745,M,0.0,*50
###2023-12-09 13:32:34.590505$GNGGA,183233.70,4138.0364302,N,07032.4156551,W,1,21,0.8,13.843,M,-29.745,M,0.0,*58
###2023-12-09 13:32:34.793443$GNGGA,183233.90,4138.0364394,N,07032.4156899,W,1,22,0.8,13.848,M,-29.745,M,0.0,*58
###2023-12-09 13:32:34.995141$GNRMC,183234.10,A,4138.0364269,N,07032.4156811,W,0.49,97.99,091223,,,A*6E
###2023-12-09 13:32:34.998057$GNGGA,183234.10,4138.0364269,N,07032.4156811,W,1,22,0.8,13.828,M,-29.745,M,0.0,*52
###2023-12-09 13:32:34.999799$GPGSA,A,3,04,16,26,28,29,31,,,,,,,1.3,0.8,1.1*3C
###2023-12-09 13:32:35.001512$GLGSA,A,3,65,72,73,74,75,83,,,,,,,1.3,0.8,1.1*2C
###2023-12-09 13:32:35.003106$GAGSA,A,3,04,19,21,27,,,,,,,,,1.3,0.8,1.1*23
###2023-12-09 13:32:35.004814$GBGSA,A,3,14,24,25,26,33,35,,,,,,,1.3,0.8,1.1*2C
###2023-12-09 13:32:35.007155$GPGSV,2,1,06,04,45,308,46,16,65,221,46,26,85,040,48,28,39,084,44*7A
###2023-12-09 13:32:35.008902$GPGSV,2,2,06,29,21,048,42,31,60,064,46,,,,,,,,*79
###2023-12-09 13:32:35.011235$GLGSV,2,1,06,65,37,320,45,72,64,223,45,73,23,051,42,74,61,011,43*66
###2023-12-09 13:32:35.012981$GLGSV,2,2,06,75,42,269,47,83,15,049,37,,,,,,,,*6F
###2023-12-09 13:32:35.015307$GAGSV,1,1,04,04,39,310,45,19,73,182,39,21,77,047,46,27,23,050,40*6B
###2023-12-09 13:32:35.017622$GBGSV,2,1,06,14,29,190,36,24,63,045,49,25,50,275,48,26,16,070,45*69
###2023-12-09 13:32:35.019367$GBGSV,2,2,06,33,47,218,45,35,16,058,44,,,,,,,,*68
###2023-12-09 13:32:35.020657$GNVTG,97.99,T,,M,0.49,N,0.90,K,A*19
###2023-12-09 13:32:35.022268$GNGST,183234.10,5.700,,,,0.150,0.080,0.220*67
###2023-12-09 13:32:35.023571$GNZDA,183234.10,09,12,2023,00,00*7F
###2023-12-09 13:32:35.024210$GNEBP,,,,,,M*13
###2023-12-09 13:32:35.193289$GNGGA,183234.30,4138.0364059,N,07032.4156562,W,1,22,0.8,13.807,M,-29.745,M,0.0,*55
###2023-12-09 13:32:35.392384$GNGGA,183234.50,4138.0364037,N,07032.4156676,W,1,22,0.8,13.819,M,-29.745,M,0.0,*52
###2023-12-09 13:32:35.591822$GNGGA,183234.70,4138.0364154,N,07032.4157061,W,1,22,0.8,13.836,M,-29.745,M,0.0,*58
###2023-12-09 13:32:35.792483$GNGGA,183234.90,4138.0364172,N,07032.4157225,W,1,22,0.8,13.844,M,-29.745,M,0.0,*55
###2023-12-09 13:32:35.993989$GNRMC,183235.10,A,4138.0363991,N,07032.4157052,W,0.49,97.99,091223,,,A*6A
###2023-12-09 13:32:35.996868$GNGGA,183235.10,4138.0363991,N,07032.4157052,W,1,22,0.8,13.842,M,-29.745,M,0.0,*5A
###2023-12-09 13:32:35.998602$GPGSA,A,3,04,16,26,28,29,31,,,,,,,1.3,0.8,1.0*3D
###2023-12-09 13:32:36.000316$GLGSA,A,3,65,72,73,74,75,83,,,,,,,1.3,0.8,1.0*2D
###2023-12-09 13:32:36.001892$GAGSA,A,3,04,19,21,27,,,,,,,,,1.3,0.8,1.0*22
