###2023-12-09 12:49:44.148108$GNGGA,174943.30,4138.0650433,N,07032.3913052,W,1,24,0.6,13.291,M,-29.744,M,0.0,*58
###2023-12-09 12:49:44.349030$GNGGA,174943.50,4138.0650190,N,07032.3912959,W,1,24,0.6,13.259,M,-29.744,M,0.0,*55
###2023-12-09 12:49:44.547644$GNGGA,174943.70,4138.0650572,N,07032.3913208,W,1,24,0.6,13.257,M,-29.744,M,0.0,*5F
###2023-12-09 12:49:44.747112$GNGGA,174943.90,4138.0651275,N,07032.3913589,W,1,24,0.6,13.243,M,-29.744,M,0.0,*5B
###2023-12-09 12:49:44.951107$GNRMC,174944.10,A,4138.0651417,N,07032.3913686,W,0.39,334.78,091223,,,A*5A
###2023-12-09 12:49:44.954611$GNGGA,174944.10,4138.0651417,N,07032.3913686,W,1,24,0.6,13.238,M,-29.744,M,0.0,*56
###2023-12-09 12:49:44.956870$GPGSA,A,3,03,04,16,26,28,29,31,32,,,,,1.1,0.6,0.9*3B
###2023-12-09 12:49:44.958967$GLGSA,A,3,65,71,72,73,74,75,,,,,,,1.1,0.6,0.9*24
###2023-12-09 12:49:44.960890$GAGSA,A,3,04,19,21,27,,,,,,,,,1.1,0.6,0.9*26
###2023-12-09 12:49:44.962895$GBGSA,A,3,14,24,25,26,33,,,,,,,,1.1,0.6,0.9*2F
###2023-12-09 12:49:44.965712$GPGSV,2,1,08,03,37,268,45,04,28,311,43,16,44,210,43,26,74,208,47*7F
###2023-12-09 12:49:44.968546$GPGSV,2,2,08,28,53,065,45,29,26,066,40,31,71,024,47,32,24,137,38*7C
###2023-12-09 12:49:44.971421$GLGSV,2,1,06,65,18,329,45,71,48,171,46,72,71,291,46,73,41,038,45*6C
###2023-12-09 12:49:44.973539$GLGSV,2,2,06,74,71,317,43,75,28,247,43,,,,,,,,*6A
###2023-12-09 12:49:44.976370$GAGSV,1,1,04,04,25,312,44,19,85,269,40,21,83,162,46,27,37,048,41*64
###2023-12-09 12:49:44.979213$GBGSV,2,1,05,14,49,195,43,24,77,011,49,25,37,257,47,26,30,060,44*65
###2023-12-09 12:49:44.980976$GBGSV,2,2,05,33,61,241,47,,,,,,,,,,,,*5D
###2023-12-09 12:49:44.982589$GNVTG,334.78,T,,M,0.39,N,0.72,K,A*27
###2023-12-09 12:49:44.984588$GNGST,174944.10,18.000,,,,0.077,0.067,0.160*52
###2023-12-09 12:49:44.986154$GNZDA,174944.10,09,12,2023,00,00*7B
###2023-12-09 12:49:44.986935$GNEBP,,,,,,M*13
###2023-12-09 12:49:45.148615$GNGGA,174944.30,4138.0651101,N,07032.3913523,W,1,24,0.6,13.262,M,-29.744,M,0.0,*55
###2023-12-09 12:49:45.347486$GNGGA,174944.50,4138.0651037,N,07032.3913514,W,1,24,0.6,13.240,M,-29.744,M,0.0,*53
###2023-12-09 12:49:45.546774$GNGGA,174944.70,4138.0651576,N,07032.3913826,W,1,24,0.6,13.252,M,-29.744,M,0.0,*5E
###2023-12-09 12:49:45.746702$GNGGA,174944.90,4138.0652083,N,07032.3914115,W,1,24,0.6,13.232,M,-29.744,M,0.0,*54
###2023-12-09 12:49:45.945502$GNRMC,174945.10,A,4138.0651999,N,07032.3914084,W,0.56,337.35,091223,,,A*50
###2023-12-09 12:49:45.948422$GNGGA,174945.10,4138.0651999,N,07032.3914084,W,1,24,0.6,13.254,M,-29.744,M,0.0,*55
###2023-12-09 12:49:45.950308$GPGSA,A,3,03,04,16,26,28,29,31,32,,,,,1.1,0.6,0.9*3B
###2023-12-09 12:49:45.952055$GLGSA,A,3,65,71,72,73,74,75,,,,,,,1.1,0.6,0.9*24
###2023-12-09 12:49:45.953638$GAGSA,A,3,04,19,21,27,,,,,,,,,1.1,0.6,0.9*26
###2023-12-09 12:49:45.955302$GBGSA,A,3,14,24,25,26,33,,,,,,,,1.1,0.6,0.9*2F
###2023-12-09 12:49:45.957626$GPGSV,2,1,08,03,37,268,45,04,28,311,42,16,44,210,44,26,74,208,48*76
###2023-12-09 12:49:45.959965$GPGSV,2,2,08,28,53,065,44,29,26,066,40,31,71,024,47,32,23,138,40*7A
###2023-12-09 12:49:45.962290$GLGSV,2,1,06,65,18,329,44,71,48,171,47,72,71,291,46,73,41,038,47*6E
###2023-12-09 12:49:45.964049$GLGSV,2,2,06,74,71,317,43,75,28,247,44,,,,,,,,*6D
###2023-12-09 12:49:45.966369$GAGSV,1,1,04,04,25,312,43,19,85,269,40,21,83,162,46,27,37,048,41*63
###2023-12-09 12:49:45.968707$GBGSV,2,1,05,14,49,195,44,24,77,011,48,25,37,257,46,26,30,060,43*65
###2023-12-09 12:49:45.970159$GBGSV,2,2,05,33,61,241,47,,,,,,,,,,,,*5D
###2023-12-09 12:49:45.971490$GNVTG,337.35,T,,M,0.56,N,1.04,K,A*24
###2023-12-09 12:49:45.973128$GNGST,174945.10,18.000,,,,0.077,0.067,0.160*53
###2023-12-09 12:49:45.974412$GNZDA,174945.10,09,12,2023,00,00*7A
###2023-12-09 12:49:45.975061$GNEBP,,,,,,M*13
###2023-12-09 12:49:46.146445$GNGGA,174945.30,4138.0651754,N,07032.3913943,W,1,24,0.6,13.263,M,-29.744,M,0.0,*59
###2023-12-09 12:49:46.346641$GNGGA,174945.50,4138.0651942,N,07032.3914072,W,1,24,0.6,13.258,M,-29.744,M,0.0,*52
###2023-12-09 12:49:46.546864$GNGGA,174945.70,4138.0652479,N,07032.3914418,W,1,24,0.6,13.263,M,-29.744,M,0.0,*56
###2023-12-09 12:49:46.745595$GNGGA,174945.90,4138.0652767,N,07032.3914603,W,1,24,0.6,13.252,M,-29.744,M,0.0,*5E
###2023-12-09 12:49:46.948517$GNRMC,174946.10,A,4138.0652643,N,07032.3914544,W,0.35,336.43,091223,,,A*54
###2023-12-09 12:49:46.951402$GNGGA,174946.10,4138.0652643,N,07032.3914544,W,1,24,0.6,13.278,M,-29.744,M,0.0,*5A
###2023-12-09 12:49:46.953263$GPGSA,A,3,03,04,16,26,28,29,31,32,,,,,1.1,0.6,0.9*3B
###2023-12-09 12:49:46.955008$GLGSA,A,3,65,71,72,73,74,75,,,,,,,1.1,0.6,0.9*24
###2023-12-09 12:49:46.956604$GAGSA,A,3,04,19,21,27,,,,,,,,,1.1,0.6,0.9*26
###2023-12-09 12:49:46.958250$GBGSA,A,3,14,24,25,26,33,,,,,,,,1.1,0.6,0.9*2F
###2023-12-09 12:49:46.960609$GPGSV,2,1,08,03,37,268,45,04,28,311,42,16,44,210,45,26,74,208,48*77
###2023-12-09 12:49:46.962974$GPGSV,2,2,08,28,53,065,44,29,26,066,40,31,71,024,47,32,23,138,40*7A
###2023-12-09 12:49:46.965314$GLGSV,2,1,06,65,18,329,43,71,48,171,47,72,71,291,46,73,41,038,46*68
###2023-12-09 12:49:46.967070$GLGSV,2,2,06,74,71,317,43,75,28,247,44,,,,,,,,*6D
###2023-12-09 12:49:46.969403$GAGSV,1,1,04,04,25,312,42,19,85,269,40,21,83,162,46,27,37,048,41*62
###2023-12-09 12:49:46.971748$GBGSV,2,1,05,14,49,195,45,24,77,011,49,25,37,257,47,26,30,060,44*63
###2023-12-09 12:49:46.973203$GBGSV,2,2,05,33,61,241,46,,,,,,,,,,,,*5C
###2023-12-09 12:49:46.974527$GNVTG,336.43,T,,M,0.35,N,0.65,K,A*27
###2023-12-09 12:49:46.976184$GNGST,174946.10,18.000,,,,0.077,0.067,0.160*50
###2023-12-09 12:49:46.977480$GNZDA,174946.10,09,12,2023,00,00*79
###2023-12-09 12:49:46.978119$GNEBP,,,,,,M*13
###2023-12-09 12:49:47.147985$GNGGA,174946.30,4138.0652569,N,07032.3914513,W,1,24,0.6,13.284,M,-29.744,M,0.0,*52
###2023-12-09 12:49:47.348514$GNGGA,174946.50,4138.0652843,N,07032.3914667,W,1,24,0.6,13.280,M,-29.744,M,0.0,*55
###2023-12-09 12:49:47.550012$GNGGA,174946.70,4138.0653283,N,07032.3914933,W,1,24,0.6,13.268,M,-29.744,M,0.0,*58
###2023-12-09 12:49:47.749591$GNGGA,174946.90,4138.0653415,N,07032.3915025,W,1,24,0.6,13.273,M,-29.744,M,0.0,*5A
###2023-12-09 12:49:47.949063$GNRMC,174947.10,A,4138.0653301,N,07032.3914964,W,0.12,336.43,091223,,,A*5C
###2023-12-09 12:49:47.951942$GNGGA,174947.10,4138.0653301,N,07032.3914964,W,1,24,0.6,13.306,M,-29.744,M,0.0,*5F
###2023-12-09 12:49:47.953803$GPGSA,A,3,03,04,16,26,28,29,31,32,,,,,1.1,0.6,0.9*3B
###2023-12-09 12:49:47.955539$GLGSA,A,3,65,71,72,73,74,75,,,,,,,1.1,0.6,0.9*24
###2023-12-09 12:49:47.957130$GAGSA,A,3,04,19,21,27,,,,,,,,,1.1,0.6,0.9*26
###2023-12-09 12:49:47.958792$GBGSA,A,3,14,24,25,26,33,,,,,,,,1.1,0.6,0.9*2F
###2023-12-09 12:49:47.961131$GPGSV,2,1,08,03,37,268,44,04,28,311,42,16,44,210,46,26,74,208,48*75
###2023-12-09 12:49:47.963479$GPGSV,2,2,08,28,53,065,44,29,26,066,40,31,71,024,46,32,23,138,43*78
###2023-12-09 12:49:47.965816$GLGSV,2,1,06,65,18,329,43,71,48,171,48,72,71,291,47,73,41,038,45*65
###2023-12-09 12:49:47.967581$GLGSV,2,2,06,74,71,317,43,75,28,247,44,,,,,,,,*6D
###2023-12-09 12:49:47.969917$GAGSV,1,1,04,04,25,312,41,19,85,269,40,21,83,162,46,27,37,048,41*61
###2023-12-09 12:49:47.972271$GBGSV,2,1,05,14,49,195,46,24,77,011,48,25,37,257,46,26,30,060,43*67
###2023-12-09 12:49:47.973725$GBGSV,2,2,05,33,61,241,47,,,,,,,,,,,,*5D
###2023-12-09 12:49:47.975061$GNVTG,336.43,T,,M,0.12,N,0.22,K,A*21
###2023-12-09 12:49:47.976714$GNGST,174947.10,18.000,,,,0.077,0.067,0.160*51
###2023-12-09 12:49:47.978013$GNZDA,174947.10,09,12,2023,00,00*78
###2023-12-09 12:49:47.978666$GNEBP,,,,,,M*13
###2023-12-09 12:49:48.151441$GNGGA,174947.30,4138.0653392,N,07032.3915037,W,1,24,0.6,13.322,M,-29.744,M,0.0,*5F
###2023-12-09 12:49:48.349664$GNGGA,174947.50,4138.0653787,N,07032.3915296,W,1,24,0.6,13.326,M,-29.744,M,0.0,*54
###2023-12-09 12:49:48.548728$GNGGA,174947.70,4138.0654077,N,07032.3915482,W,1,24,0.6,13.304,M,-29.744,M,0.0,*5A
###2023-12-09 12:49:48.748688$GNGGA,174947.90,4138.0654095,N,07032.3915486,W,1,24,0.6,13.301,M,-29.744,M,0.0,*59
###2023-12-09 12:49:48.948338$GNRMC,174948.10,A,4138.0654136,N,07032.3915504,W,0.37,336.43,091223,,,A*5E
###2023-12-09 12:49:48.951208$GNGGA,174948.10,4138.0654136,N,07032.3915504,W,1,24,0.6,13.322,M,-29.744,M,0.0,*5C
###2023-12-09 12:49:48.953330$GPGSA,A,3,03,04,16,26,28,29,31,32,,,,,1.1,0.6,0.9*3B
###2023-12-09 12:49:48.955074$GLGSA,A,3,65,71,72,73,74,75,,,,,,,1.1,0.6,0.9*24
###2023-12-09 12:49:48.956661$GAGSA,A,3,04,19,21,27,,,,,,,,,1.1,0.6,0.9*26
###2023-12-09 12:49:48.958307$GBGSA,A,3,14,24,25,26,33,,,,,,,,1.1,0.6,0.9*2F
###2023-12-09 12:49:48.960659$GPGSV,2,1,08,03,37,268,44,04,28,311,42,16,44,210,46,26,74,208,49*74
###2023-12-09 12:49:48.963012$GPGSV,2,2,08,28,53,065,44,29,26,066,40,31,71,024,47,32,23,138,43*79
###2023-12-09 12:49:48.965351$GLGSV,2,1,06,65,18,329,43,71,48,171,48,72,71,291,46,73,41,038,45*64
###2023-12-09 12:49:48.967115$GLGSV,2,2,06,74,71,317,43,75,28,247,45,,,,,,,,*6C
###2023-12-09 12:49:48.969449$GAGSV,1,1,04,04,25,312,42,19,85,269,40,21,83,162,46,27,37,048,41*62
###2023-12-09 12:49:48.971796$GBGSV,2,1,05,14,49,195,46,24,77,011,47,25,37,257,46,26,30,060,42*69
