###2023-12-09 12:45:26.974874$GNGST,174526.10,18.000,,,,0.079,0.069,0.160*5A
###2023-12-09 12:45:26.976202$GNZDA,174526.10,09,12,2023,00,00*73
###2023-12-09 12:45:26.976850$GNEBP,,,,,,M*13
###2023-12-09 12:45:27.146803$GNGGA,174526.30,4138.0473037,N,07032.3947844,W,1,24,0.6,13.449,M,-29.745,M,0.0,*58
###2023-12-09 12:45:27.346026$GNGGA,174526.50,4138.0471293,N,07032.3948063,W,1,24,0.6,13.462,M,-29.745,M,0.0,*5B
###2023-12-09 12:45:27.546156$GNGGA,174526.70,4138.0469785,N,07032.3947824,W,1,24,0.6,13.441,M,-29.745,M,0.0,*57
###2023-12-09 12:45:27.745465$GNGGA,174526.90,4138.0468454,N,07032.3947088,W,1,24,0.6,13.450,M,-29.745,M,0.0,*59
###2023-12-09 12:45:27.945923$GNRMC,174527.10,A,4138.0466961,N,07032.3946389,W,2.80,163.60,091223,,,A*5A
###2023-12-09 12:45:27.948839$GNGGA,174527.10,4138.0466961,N,07032.3946389,W,1,24,0.6,13.448,M,-29.745,M,0.0,*5F
###2023-12-09 12:45:27.950744$GPGSA,A,3,03,04,16,26,28,29,31,32,,,,,1.1,0.6,0.9*3B
###2023-12-09 12:45:27.952464$GLGSA,A,3,65,71,72,73,74,75,,,,,,,1.1,0.6,0.9*24
###2023-12-09 12:45:27.954044$GAGSA,A,3,04,19,21,27,,,,,,,,,1.1,0.6,0.9*26
###2023-12-09 12:45:27.955705$GBGSA,A,3,14,24,25,26,33,,,,,,,,1.1,0.6,0.9*2F
###2023-12-09 12:45:27.958023$GPGSV,2,1,08,03,37,270,43,04,26,311,40,16,41,209,44,26,71,208,48*7D
###2023-12-09 12:45:27.960377$GPGSV,2,2,08,28,55,061,46,29,26,069,45,31,72,015,47,32,26,136,42*78
###2023-12-09 12:45:27.962727$GLGSV,2,1,06,65,17,329,44,71,50,171,45,72,70,297,46,73,43,037,48*6F
###2023-12-09 12:45:27.964474$GLGSV,2,2,06,74,71,310,42,75,26,245,44,,,,,,,,*67
###2023-12-09 12:45:27.966812$GAGSV,1,1,04,04,24,312,39,19,84,283,40,21,82,167,46,27,38,049,45*64
###2023-12-09 12:45:27.969143$GBGSV,2,1,05,14,50,195,42,24,78,005,48,25,36,256,44,26,31,059,45*6E
###2023-12-09 12:45:27.970609$GBGSV,2,2,05,33,61,245,47,,,,,,,,,,,,*59
###2023-12-09 12:45:27.971925$GNVTG,163.60,T,,M,2.80,N,5.18,K,A*27
###2023-12-09 12:45:27.973556$GNGST,174527.10,18.000,,,,0.079,0.069,0.160*5B
###2023-12-09 12:45:27.974854$GNZDA,174527.10,09,12,2023,00,00*72
###2023-12-09 12:45:27.975492$GNEBP,,,,,,M*13
###2023-12-09 12:45:28.145466$GNGGA,174527.30,4138.0465431,N,07032.3945926,W,1,24,0.6,13.449,M,-29.745,M,0.0,*5B
###2023-12-09 12:45:28.345869$GNGGA,174527.50,4138.0463837,N,07032.3945371,W,1,24,0.6,13.455,M,-29.745,M,0.0,*54
###2023-12-09 12:45:28.545222$GNGGA,174527.70,4138.0462389,N,07032.3944441,W,1,24,0.6,13.457,M,-29.745,M,0.0,*5E
###2023-12-09 12:45:28.746932$GNGGA,174527.90,4138.0461144,N,07032.3943336,W,1,24,0.6,13.453,M,-29.745,M,0.0,*54
###2023-12-09 12:45:28.946644$GNRMC,174528.10,A,4138.0459785,N,07032.3942179,W,3.03,150.45,091223,,,A*59
###2023-12-09 12:45:28.949533$GNGGA,174528.10,4138.0459785,N,07032.3942179,W,1,24,0.6,13.456,M,-29.745,M,0.0,*5E
###2023-12-09 12:45:28.951433$GPGSA,A,3,03,04,16,26,28,29,31,32,,,,,1.1,0.6,0.9*3B
###2023-12-09 12:45:28.953165$GLGSA,A,3,65,71,72,73,74,75,,,,,,,1.1,0.6,0.9*24
###2023-12-09 12:45:28.954772$GAGSA,A,3,04,19,21,27,,,,,,,,,1.1,0.6,0.9*26
###2023-12-09 12:45:28.956424$GBGSA,A,3,14,24,25,26,33,,,,,,,,1.1,0.6,0.9*2F
###2023-12-09 12:45:28.958781$GPGSV,2,1,08,03,37,270,43,04,26,311,39,16,41,209,43,26,71,208,47*7B
###2023-12-09 12:45:28.961133$GPGSV,2,2,08,28,55,061,45,29,26,069,44,31,72,015,47,32,26,136,42*7A
###2023-12-09 12:45:28.963501$GLGSV,2,1,06,65,17,329,43,71,50,171,46,72,70,297,46,73,43,037,46*65
###2023-12-09 12:45:28.965263$GLGSV,2,2,06,74,71,310,43,75,26,245,42,,,,,,,,*60
###2023-12-09 12:45:28.967623$GAGSV,1,1,04,04,24,312,39,19,84,283,40,21,82,167,45,27,38,049,44*66
###2023-12-09 12:45:28.969970$GBGSV,2,1,05,14,50,195,44,24,78,005,49,25,36,256,44,26,31,059,45*69
###2023-12-09 12:45:28.971449$GBGSV,2,2,05,33,61,245,48,,,,,,,,,,,,*56
###2023-12-09 12:45:28.972786$GNVTG,150.45,T,,M,3.03,N,5.62,K,A*27
###2023-12-09 12:45:28.974445$GNGST,174528.10,18.000,,,,0.079,0.069,0.160*54
###2023-12-09 12:45:28.975757$GNZDA,174528.10,09,12,2023,00,00*7D
###2023-12-09 12:45:28.976400$GNEBP,,,,,,M*13
###2023-12-09 12:45:29.145397$GNGGA,174528.30,4138.0458385,N,07032.3941081,W,1,24,0.6,13.453,M,-29.745,M,0.0,*59
###2023-12-09 12:45:29.345950$GNGGA,174528.50,4138.0457080,N,07032.3939841,W,1,24,0.6,13.456,M,-29.745,M,0.0,*58
###2023-12-09 12:45:29.546132$GNGGA,174528.70,4138.0455910,N,07032.3938372,W,1,24,0.6,13.456,M,-29.745,M,0.0,*52
###2023-12-09 12:45:29.748604$GNGGA,174528.90,4138.0454844,N,07032.3936830,W,1,24,0.6,13.453,M,-29.745,M,0.0,*5B
###2023-12-09 12:45:29.945704$GNRMC,174529.10,A,4138.0453774,N,07032.3935217,W,2.97,133.09,091223,,,A*56
###2023-12-09 12:45:29.948583$GNGGA,174529.10,4138.0453774,N,07032.3935217,W,1,24,0.6,13.458,M,-29.745,M,0.0,*5E
###2023-12-09 12:45:29.950464$GPGSA,A,3,03,04,16,26,28,29,31,32,,,,,1.1,0.6,0.9*3B
###2023-12-09 12:45:29.952203$GLGSA,A,3,65,71,72,73,74,75,,,,,,,1.1,0.6,0.9*24
###2023-12-09 12:45:29.953796$GAGSA,A,3,04,19,21,27,,,,,,,,,1.1,0.6,0.9*26
###2023-12-09 12:45:29.955460$GBGSA,A,3,14,24,25,26,33,,,,,,,,1.1,0.6,0.9*2F
###2023-12-09 12:45:29.957791$GPGSV,2,1,08,03,37,270,44,04,26,311,42,16,41,209,46,26,71,208,48*7A
###2023-12-09 12:45:29.960135$GPGSV,2,2,08,28,55,061,44,29,26,069,43,31,72,015,47,32,26,136,43*7D
###2023-12-09 12:45:29.962469$GLGSV,2,1,06,65,17,329,43,71,50,171,45,72,70,297,47,73,43,037,48*69
###2023-12-09 12:45:29.964227$GLGSV,2,2,06,74,71,310,43,75,26,245,43,,,,,,,,*61
###2023-12-09 12:45:29.966548$GAGSV,1,1,04,04,24,312,42,19,84,283,41,21,82,167,46,27,38,049,43*6F
###2023-12-09 12:45:29.968902$GBGSV,2,1,05,14,50,195,45,24,78,005,49,25,36,256,45,26,31,059,45*69
###2023-12-09 12:45:29.970361$GBGSV,2,2,05,33,61,245,48,,,,,,,,,,,,*56
###2023-12-09 12:45:29.971696$GNVTG,133.09,T,,M,2.97,N,5.51,K,A*26
###2023-12-09 12:45:29.973348$GNGST,174529.10,18.000,,,,0.079,0.069,0.160*55
###2023-12-09 12:45:29.974658$GNZDA,174529.10,09,12,2023,00,00*7C
###2023-12-09 12:45:29.975306$GNEBP,,,,,,M*13
###2023-12-09 12:45:30.145912$GNGGA,174529.30,4138.0452657,N,07032.3933548,W,1,24,0.6,13.467,M,-29.745,M,0.0,*5A
###2023-12-09 12:45:30.345097$GNGGA,174529.50,4138.0451682,N,07032.3931713,W,1,24,0.6,13.457,M,-29.745,M,0.0,*5A
###2023-12-09 12:45:30.546170$GNGGA,174529.70,4138.0450858,N,07032.3929816,W,1,24,0.6,13.450,M,-29.745,M,0.0,*54
###2023-12-09 12:45:30.745894$GNGGA,174529.90,4138.0449975,N,07032.3927887,W,1,24,0.6,13.467,M,-29.745,M,0.0,*5E
###2023-12-09 12:45:30.946776$GNRMC,174530.10,A,4138.0449030,N,07032.3925901,W,3.13,121.07,091223,,,A*5F
###2023-12-09 12:45:30.949661$GNGGA,174530.10,4138.0449030,N,07032.3925901,W,1,24,0.6,13.459,M,-29.745,M,0.0,*56
###2023-12-09 12:45:30.951555$GPGSA,A,3,03,04,16,26,28,29,31,32,,,,,1.1,0.6,0.9*3B
###2023-12-09 12:45:30.953290$GLGSA,A,3,65,71,72,73,74,75,,,,,,,1.1,0.6,0.9*24
###2023-12-09 12:45:30.954902$GAGSA,A,3,04,19,21,27,,,,,,,,,1.1,0.6,0.9*26
###2023-12-09 12:45:30.956565$GBGSA,A,3,14,24,25,26,33,,,,,,,,1.1,0.6,0.9*2F
###2023-12-09 12:45:30.958928$GPGSV,2,1,08,03,37,270,45,04,26,311,42,16,41,209,47,26,71,208,48*7A
###2023-12-09 12:45:30.961280$GPGSV,2,2,08,28,55,061,45,29,26,069,44,31,72,015,47,32,26,136,42*7A
###2023-12-09 12:45:30.963647$GLGSV,2,1,06,65,17,329,43,71,50,171,47,72,70,297,47,73,43,037,46*65
###2023-12-09 12:45:30.965409$GLGSV,2,2,06,74,71,310,43,75,26,245,42,,,,,,,,*60
###2023-12-09 12:45:30.967766$GAGSV,1,1,04,04,24,312,41,19,84,283,41,21,82,167,46,27,38,049,43*6C
###2023-12-09 12:45:30.970108$GBGSV,2,1,05,14,50,195,45,24,78,005,48,25,36,256,44,26,31,059,44*68
###2023-12-09 12:45:30.971580$GBGSV,2,2,05,33,61,245,49,,,,,,,,,,,,*57
###2023-12-09 12:45:30.972911$GNVTG,121.07,T,,M,3.13,N,5.80,K,A*2A
###2023-12-09 12:45:30.974582$GNGST,174530.10,18.000,,,,0.078,0.068,0.160*5D
###2023-12-09 12:45:30.975878$GNZDA,174530.10,09,12,2023,00,00*74
###2023-12-09 12:45:30.976522$GNEBP,,,,,,M*13
###2023-12-09 12:45:31.145479$GNGGA,174530.30,4138.0448217,N,07032.3923897,W,1,24,0.6,13.452,M,-29.745,M,0.0,*51
###2023-12-09 12:45:31.345990$GNGGA,174530.50,4138.0447450,N,07032.3921824,W,1,24,0.6,13.462,M,-29.745,M,0.0,*54
###2023-12-09 12:45:31.546046$GNGGA,174530.70,4138.0446661,N,07032.3919733,W,1,24,0.6,13.465,M,-29.745,M,0.0,*52
###2023-12-09 12:45:31.750224$GNGGA,174530.90,4138.0445818,N,07032.3917676,W,1,24,0.6,13.454,M,-29.745,M,0.0,*53
###2023-12-09 12:45:31.945743$GNRMC,174531.10,A,4138.0445042,N,07032.3915608,W,3.19,116.65,091223,,,A*58
###2023-12-09 12:45:31.948652$GNGGA,174531.10,4138.0445042,N,07032.3915608,W,1,24,0.6,13.456,M,-29.745,M,0.0,*54
###2023-12-09 12:45:31.950526$GPGSA,A,3,03,04,16,26,28,29,31,32,,,,,1.1,0.6,0.9*3B
###2023-12-09 12:45:31.952260$GLGSA,A,3,65,71,72,73,74,75,,,,,,,1.1,0.6,0.9*24
###2023-12-09 12:45:31.953854$GAGSA,A,3,04,19,21,27,,,,,,,,,1.1,0.6,0.9*26
###2023-12-09 12:45:31.955523$GBGSA,A,3,14,24,25,26,33,,,,,,,,1.1,0.6,0.9*2F
###2023-12-09 12:45:31.957844$GPGSV,2,1,08,03,37,270,45,04,26,311,43,16,41,209,47,26,71,208,48*7B
###2023-12-09 12:45:31.960189$GPGSV,2,2,08,28,55,061,45,29,26,069,43,31,72,015,47,32,26,136,42*7D
###2023-12-09 12:45:31.962514$GLGSV,2,1,06,65,17,329,43,71,50,171,47,72,70,297,47,73,43,037,46*65
