###2023-12-09 12:55:17.961135$GLGSA,A,3,65,71,72,73,74,75,,,,,,,1.1,0.6,0.9*24
###2023-12-09 12:55:17.962766$GAGSA,A,3,04,19,21,27,,,,,,,,,1.1,0.6,0.9*26
###2023-12-09 12:55:17.964425$GBGSA,A,3,14,24,25,26,33,,,,,,,,1.1,0.6,0.9*2F
###2023-12-09 12:55:17.966785$GPGSV,2,1,08,03,36,265,45,04,30,311,41,16,46,211,46,26,76,209,48*72
###2023-12-09 12:55:17.969120$GPGSV,2,2,08,28,52,067,44,29,25,064,41,31,70,029,47,32,22,138,39*7A
###2023-12-09 12:55:17.971470$GLGSV,2,1,06,65,21,328,41,71,44,172,46,72,72,281,46,73,38,040,46*6C
###2023-12-09 12:55:17.973220$GLGSV,2,2,06,74,71,327,42,75,30,250,43,,,,,,,,*67
###2023-12-09 12:55:17.975562$GAGSV,1,1,04,04,27,312,41,19,85,242,40,21,84,147,46,27,35,048,43*6A
###2023-12-09 12:55:17.977884$GBGSV,2,1,05,14,46,194,44,24,75,018,48,25,39,260,46,26,28,061,43*62
###2023-12-09 12:55:17.979359$GBGSV,2,2,05,33,59,237,47,,,,,,,,,,,,*57
###2023-12-09 12:55:17.980685$GNVTG,101.26,T,,M,2.49,N,4.61,K,A*2B
###2023-12-09 12:55:17.982321$GNGST,175517.10,18.000,,,,0.080,0.068,0.160*5E
###2023-12-09 12:55:17.983615$GNZDA,175517.10,09,12,2023,00,00*70
###2023-12-09 12:55:17.984252$GNEBP,,,,,,M*13
###2023-12-09 12:55:18.153251$GNGGA,175517.30,4138.0437622,N,07032.3914926,W,1,24,0.6,13.192,M,-29.745,M,0.0,*59
###2023-12-09 12:55:18.354188$GNGGA,175517.50,4138.0437354,N,07032.3913055,W,1,24,0.6,13.190,M,-29.745,M,0.0,*53
###2023-12-09 12:55:18.554166$GNGGA,175517.70,4138.0437075,N,07032.3911175,W,1,24,0.6,13.186,M,-29.745,M,0.0,*57
###2023-12-09 12:55:18.754353$GNGGA,175517.90,4138.0436863,N,07032.3909266,W,1,24,0.6,13.180,M,-29.745,M,0.0,*59
###2023-12-09 12:55:18.953718$GNRMC,175518.10,A,4138.0436689,N,07032.3907362,W,2.74,97.90,091223,,,A*65
###2023-12-09 12:55:18.956590$GNGGA,175518.10,4138.0436689,N,07032.3907362,W,1,24,0.6,13.185,M,-29.745,M,0.0,*5A
###2023-12-09 12:55:18.958450$GPGSA,A,3,03,04,16,26,28,29,31,32,,,,,1.1,0.6,0.9*3B
###2023-12-09 12:55:18.960190$GLGSA,A,3,65,71,72,73,74,75,,,,,,,1.1,0.6,0.9*24
###2023-12-09 12:55:18.961773$GAGSA,A,3,04,19,21,27,,,,,,,,,1.1,0.6,0.9*26
###2023-12-09 12:55:18.963444$GBGSA,A,3,14,24,25,26,33,,,,,,,,1.1,0.6,0.9*2F
###2023-12-09 12:55:18.965780$GPGSV,2,1,08,03,36,265,45,04,30,311,42,16,46,211,46,26,76,209,48*71
###2023-12-09 12:55:18.968126$GPGSV,2,2,08,28,52,067,44,29,25,064,40,31,70,029,47,32,22,138,40*75
###2023-12-09 12:55:18.970460$GLGSV,2,1,06,65,21,328,41,71,44,172,46,72,72,281,46,73,38,040,46*6C
###2023-12-09 12:55:18.972219$GLGSV,2,2,06,74,71,327,42,75,30,250,45,,,,,,,,*61
###2023-12-09 12:55:18.974551$GAGSV,1,1,04,04,27,312,39,19,85,242,40,21,84,147,46,27,35,048,43*65
###2023-12-09 12:55:18.976893$GBGSV,2,1,05,14,46,194,47,24,75,018,50,25,39,260,48,26,28,061,43*66
###2023-12-09 12:55:18.978351$GBGSV,2,2,05,33,59,237,49,,,,,,,,,,,,*59
###2023-12-09 12:55:18.979653$GNVTG,97.90,T,,M,2.74,N,5.08,K,A*18
###2023-12-09 12:55:18.981300$GNGST,175518.10,18.000,,,,0.079,0.068,0.160*57
###2023-12-09 12:55:18.982604$GNZDA,175518.10,09,12,2023,00,00*7F
###2023-12-09 12:55:18.983249$GNEBP,,,,,,M*13
###2023-12-09 12:55:19.154444$GNGGA,175518.30,4138.0436517,N,07032.3905358,W,1,24,0.6,13.169,M,-29.745,M,0.0,*55
###2023-12-09 12:55:19.355296$GNGGA,175518.50,4138.0436412,N,07032.3903528,W,1,24,0.6,13.165,M,-29.745,M,0.0,*5C
###2023-12-09 12:55:19.556116$GNGGA,175518.70,4138.0436433,N,07032.3901574,W,1,24,0.6,13.180,M,-29.745,M,0.0,*5D
###2023-12-09 12:55:19.758267$GNGGA,175518.90,4138.0436367,N,07032.3899568,W,1,24,0.6,13.161,M,-29.745,M,0.0,*57
###2023-12-09 12:55:19.955886$GNRMC,175519.10,A,4138.0436494,N,07032.3897798,W,2.41,76.35,091223,,,A*65
###2023-12-09 12:55:19.958765$GNGGA,175519.10,4138.0436494,N,07032.3897798,W,1,24,0.6,13.160,M,-29.745,M,0.0,*57
###2023-12-09 12:55:19.960629$GPGSA,A,3,03,04,16,26,28,29,31,32,,,,,1.1,0.6,0.9*3B
###2023-12-09 12:55:19.962351$GLGSA,A,3,65,71,72,73,74,75,,,,,,,1.1,0.6,0.9*24
###2023-12-09 12:55:19.963959$GAGSA,A,3,04,19,21,27,,,,,,,,,1.1,0.6,0.9*26
###2023-12-09 12:55:19.965607$GBGSA,A,3,14,24,25,26,33,,,,,,,,1.1,0.6,0.9*2F
###2023-12-09 12:55:19.967939$GPGSV,2,1,08,03,36,265,45,04,30,311,41,16,46,211,46,26,76,209,48*72
###2023-12-09 12:55:19.970270$GPGSV,2,2,08,28,52,067,43,29,25,064,41,31,70,029,46,32,22,138,42*70
###2023-12-09 12:55:19.972617$GLGSV,2,1,06,65,21,328,42,71,44,172,47,72,72,281,46,73,38,040,45*6D
###2023-12-09 12:55:19.974362$GLGSV,2,2,06,74,71,327,42,75,30,250,44,,,,,,,,*60
###2023-12-09 12:55:19.976711$GAGSV,1,1,04,04,27,312,41,19,85,242,40,21,84,147,46,27,35,048,42*6B
###2023-12-09 12:55:19.979060$GBGSV,2,1,05,14,46,194,47,24,75,018,49,25,39,260,47,26,28,061,43*61
###2023-12-09 12:55:19.980525$GBGSV,2,2,05,33,59,237,48,,,,,,,,,,,,*58
###2023-12-09 12:55:19.981817$GNVTG,76.35,T,,M,2.41,N,4.46,K,A*15
###2023-12-09 12:55:19.983483$GNGST,175519.10,18.000,,,,0.079,0.068,0.160*56
###2023-12-09 12:55:19.984774$GNZDA,175519.10,09,12,2023,00,00*7E
###2023-12-09 12:55:19.985413$GNEBP,,,,,,M*13
###2023-12-09 12:55:20.155244$GNGGA,175519.30,4138.0436660,N,07032.3895857,W,1,24,0.6,13.175,M,-29.745,M,0.0,*56
###2023-12-09 12:55:20.356057$GNGGA,175519.50,4138.0436699,N,07032.3893870,W,1,24,0.6,13.144,M,-29.745,M,0.0,*57
###2023-12-09 12:55:20.556063$GNGGA,175519.70,4138.0437089,N,07032.3892215,W,1,24,0.6,13.152,M,-29.745,M,0.0,*5C
###2023-12-09 12:55:20.756375$GNGGA,175519.90,4138.0437574,N,07032.3890390,W,1,24,0.6,13.173,M,-29.745,M,0.0,*58
###2023-12-09 12:55:20.965688$GNRMC,175520.10,A,4138.0437798,N,07032.3888349,W,2.53,77.59,091223,,,A*6F
###2023-12-09 12:55:20.968598$GNGGA,175520.10,4138.0437798,N,07032.3888349,W,1,24,0.6,13.139,M,-29.745,M,0.0,*59
###2023-12-09 12:55:20.970464$GPGSA,A,3,03,04,16,26,28,29,31,32,,,,,1.1,0.6,0.9*3B
###2023-12-09 12:55:20.972199$GLGSA,A,3,65,71,72,73,74,75,,,,,,,1.1,0.6,0.9*24
###2023-12-09 12:55:20.973798$GAGSA,A,3,04,19,21,27,,,,,,,,,1.1,0.6,0.9*26
###2023-12-09 12:55:20.975474$GBGSA,A,3,14,24,25,26,33,,,,,,,,1.1,0.6,0.9*2F
###2023-12-09 12:55:20.977806$GPGSV,2,1,08,03,36,265,43,04,30,311,42,16,46,211,45,26,76,209,48*74
###2023-12-09 12:55:20.980157$GPGSV,2,2,08,28,52,067,44,29,25,064,42,31,70,029,46,32,22,138,44*72
###2023-12-09 12:55:20.982487$GLGSV,2,1,06,65,21,328,43,71,44,172,48,72,72,281,46,73,38,040,44*62
###2023-12-09 12:55:20.984241$GLGSV,2,2,06,74,71,327,42,75,30,250,45,,,,,,,,*61
###2023-12-09 12:55:20.986558$GAGSV,1,1,04,04,27,312,41,19,85,242,40,21,84,147,46,27,35,048,41*68
###2023-12-09 12:55:20.988897$GBGSV,2,1,05,14,46,194,46,24,75,018,49,25,39,260,46,26,28,061,44*66
###2023-12-09 12:55:20.990344$GBGSV,2,2,05,33,59,237,48,,,,,,,,,,,,*58
###2023-12-09 12:55:20.991639$GNVTG,77.59,T,,M,2.53,N,4.68,K,A*11
###2023-12-09 12:55:20.993280$GNGST,175520.10,18.000,,,,0.079,0.068,0.160*5C
###2023-12-09 12:55:20.994609$GNZDA,175520.10,09,12,2023,00,00*74
###2023-12-09 12:55:20.995257$GNEBP,,,,,,M*13
###2023-12-09 12:55:21.155157$GNGGA,175520.30,4138.0438349,N,07032.3886769,W,1,24,0.6,13.138,M,-29.745,M,0.0,*55
###2023-12-09 12:55:21.356688$GNGGA,175520.50,4138.0439075,N,07032.3885106,W,1,24,0.6,13.180,M,-29.745,M,0.0,*51
###2023-12-09 12:55:21.555165$GNGGA,175520.70,4138.0439616,N,07032.3883168,W,1,24,0.6,13.144,M,-29.745,M,0.0,*56
###2023-12-09 12:55:21.756611$GNGGA,175520.90,4138.0440357,N,07032.3881628,W,1,24,0.6,13.123,M,-29.745,M,0.0,*56
###2023-12-09 12:55:21.955199$GNRMC,175521.10,A,4138.0441327,N,07032.3880159,W,2.76,54.37,091223,,,A*6A
###2023-12-09 12:55:21.958674$GNGGA,175521.10,4138.0441327,N,07032.3880159,W,1,24,0.6,13.148,M,-29.745,M,0.0,*54
###2023-12-09 12:55:21.960918$GPGSA,A,3,03,04,16,26,28,29,31,32,,,,,1.1,0.6,0.9*3B
###2023-12-09 12:55:21.963011$GLGSA,A,3,65,71,72,73,74,75,,,,,,,1.1,0.6,0.9*24
###2023-12-09 12:55:21.964927$GAGSA,A,3,04,19,21,27,,,,,,,,,1.1,0.6,0.9*26
###2023-12-09 12:55:21.966929$GBGSA,A,3,14,24,25,26,33,,,,,,,,1.1,0.6,0.9*2F
###2023-12-09 12:55:21.969739$GPGSV,2,1,08,03,36,265,43,04,30,311,44,16,46,211,46,26,76,209,48*71
###2023-12-09 12:55:21.972608$GPGSV,2,2,08,28,52,067,43,29,25,064,41,31,70,029,46,32,22,138,41*73
###2023-12-09 12:55:21.975430$GLGSV,2,1,06,65,21,328,44,71,44,172,46,72,72,281,46,73,38,040,43*6C
###2023-12-09 12:55:21.977541$GLGSV,2,2,06,74,71,327,42,75,30,250,45,,,,,,,,*61
###2023-12-09 12:55:21.980848$GAGSV,1,1,04,04,27,312,42,19,85,242,40,21,84,147,46,27,35,048,43*69
###2023-12-09 12:55:21.983738$GBGSV,2,1,05,14,46,194,45,24,75,018,48,25,39,260,47,26,28,061,42*63
###2023-12-09 12:55:21.985523$GBGSV,2,2,05,33,59,237,48,,,,,,,,,,,,*58
###2023-12-09 12:55:21.987093$GNVTG,54.37,T,,M,2.76,N,5.11,K,A*10
###2023-12-09 12:55:21.989083$GNGST,175521.10,18.000,,,,0.078,0.067,0.160*53
###2023-12-09 12:55:21.990661$GNZDA,175521.10,09,12,2023,00,00*75
###2023-12-09 12:55:21.991433$GNEBP,,,,,,M*13
###2023-12-09 12:55:22.158523$GNGGA,175521.30,4138.0442195,N,07032.3878481,W,1,24,0.6,13.157,M,-29.745,M,0.0,*57
###2023-12-09 12:55:22.355941$GNGGA,175521.50,4138.0443061,N,07032.3876838,W,1,24,0.6,13.138,M,-29.745,M,0.0,*53
