###2023-12-09 12:28:30.924437$GNGGA,172830.10,4138.0392342,N,07032.4362087,W,1,17,0.8,11.324,M,-29.746,M,0.0,*51
###2023-12-09 12:28:30.926270$GPGSA,A,3,03,16,26,28,29,31,32,,,,,,1.5,0.8,1.2*3F
###2023-12-09 12:28:30.927906$GLGSA,A,3,71,72,73,75,,,,,,,,,1.5,0.8,1.2*24
###2023-12-09 12:28:30.929387$GAGSA,A,3,21,27,,,,,,,,,,,1.5,0.8,1.2*2A
###2023-12-09 12:28:30.930940$GBGSA,A,3,14,26,33,,,,,,,,,,1.5,0.8,1.2*2E
###2023-12-09 12:28:30.933288$GPGSV,2,1,07,03,39,281,37,16,34,206,45,26,63,206,40,28,60,052,44*74
###2023-12-09 12:28:30.935377$GPGSV,2,2,07,29,25,077,40,31,73,351,43,32,33,132,46,,,,*43
###2023-12-09 12:28:30.937730$GLGSV,1,1,04,71,60,168,47,72,63,315,43,73,51,031,47,75,19,238,42*69
###2023-12-09 12:28:30.939521$GAGSV,1,1,02,21,75,179,40,27,44,050,46,,,,,,,,*62
###2023-12-09 12:28:30.941571$GBGSV,1,1,03,14,58,200,45,26,37,056,48,33,64,261,39,,,,*51
###2023-12-09 12:28:30.942735$GNVTG,,T,,M,0.04,N,0.07,K,A*3E
###2023-12-09 12:28:30.944400$GNGST,172830.10,31.000,,,,0.120,0.130,0.290*51
###2023-12-09 12:28:30.945704$GNZDA,172830.10,09,12,2023,00,00*7F
###2023-12-09 12:28:30.946376$GNEBP,,,,,,M*13
###2023-12-09 12:28:31.118281$GNGGA,172830.30,4138.0392304,N,07032.4362117,W,1,17,0.8,11.367,M,-29.746,M,0.0,*5E
###2023-12-09 12:28:31.318159$GNGGA,172830.50,4138.0392280,N,07032.4362166,W,1,17,0.8,11.410,M,-29.746,M,0.0,*54
###2023-12-09 12:28:31.518352$GNGGA,172830.70,4138.0392260,N,07032.4362228,W,1,17,0.8,11.453,M,-29.746,M,0.0,*56
###2023-12-09 12:28:31.717439$GNGGA,172830.90,4138.0392233,N,07032.4362289,W,1,17,0.8,11.495,M,-29.746,M,0.0,*5F
###2023-12-09 12:28:31.917437$GNRMC,172831.10,A,4138.0392213,N,07032.4362344,W,0.04,,091223,,,A*4C
###2023-12-09 12:28:31.920647$GNGGA,172831.10,4138.0392213,N,07032.4362344,W,1,17,0.8,11.536,M,-29.746,M,0.0,*5C
###2023-12-09 12:28:31.922505$GPGSA,A,3,03,16,26,28,29,31,32,,,,,,1.5,0.8,1.2*3F
###2023-12-09 12:28:31.924161$GLGSA,A,3,71,72,73,75,,,,,,,,,1.5,0.8,1.2*24
###2023-12-09 12:28:31.925658$GAGSA,A,3,21,27,,,,,,,,,,,1.5,0.8,1.2*2A
###2023-12-09 12:28:31.927235$GBGSA,A,3,14,26,33,,,,,,,,,,1.5,0.8,1.2*2E
###2023-12-09 12:28:31.929608$GPGSV,2,1,07,03,39,281,36,16,34,206,45,26,63,206,40,28,60,052,44*75
###2023-12-09 12:28:31.931706$GPGSV,2,2,07,29,25,077,41,31,73,351,43,32,33,132,46,,,,*42
###2023-12-09 12:28:31.934080$GLGSV,1,1,04,71,60,168,47,72,63,315,43,73,51,031,47,75,19,238,42*69
###2023-12-09 12:28:31.935882$GAGSV,1,1,02,21,75,179,40,27,44,050,46,,,,,,,,*62
###2023-12-09 12:28:31.937964$GBGSV,1,1,03,14,58,200,46,26,37,056,49,33,64,261,40,,,,*5D
###2023-12-09 12:28:31.939146$GNVTG,,T,,M,0.04,N,0.07,K,A*3E
###2023-12-09 12:28:31.940839$GNGST,172831.10,31.000,,,,0.120,0.130,0.290*50
###2023-12-09 12:28:31.942169$GNZDA,172831.10,09,12,2023,00,00*7E
###2023-12-09 12:28:31.942861$GNEBP,,,,,,M*13
###2023-12-09 12:28:32.118140$GNGGA,172831.30,4138.0392181,N,07032.4362391,W,1,17,0.8,11.583,M,-29.746,M,0.0,*50
###2023-12-09 12:28:32.318131$GNGGA,172831.50,4138.0392154,N,07032.4362456,W,1,18,0.8,11.620,M,-29.746,M,0.0,*57
###2023-12-09 12:28:32.518157$GNGGA,172831.70,4138.0392135,N,07032.4362498,W,1,18,0.8,11.657,M,-29.746,M,0.0,*50
###2023-12-09 12:28:32.718459$GNGGA,172831.90,4138.0392114,N,07032.4362558,W,1,17,0.8,11.692,M,-29.746,M,0.0,*56
###2023-12-09 12:28:32.922000$GNRMC,172832.10,A,4138.0392088,N,07032.4362615,W,0.04,,091223,,,A*4E
###2023-12-09 12:28:32.924947$GNGGA,172832.10,4138.0392088,N,07032.4362615,W,1,17,0.8,11.737,M,-29.746,M,0.0,*5D
###2023-12-09 12:28:32.926806$GPGSA,A,3,03,16,26,28,29,31,32,,,,,,1.5,0.8,1.2*3F
###2023-12-09 12:28:32.928441$GLGSA,A,3,71,72,73,75,,,,,,,,,1.5,0.8,1.2*24
###2023-12-09 12:28:32.929936$GAGSA,A,3,21,27,,,,,,,,,,,1.5,0.8,1.2*2A
###2023-12-09 12:28:32.931503$GBGSA,A,3,14,26,33,,,,,,,,,,1.5,0.8,1.2*2E
###2023-12-09 12:28:32.934234$GPGSV,2,1,07,03,39,281,35,16,34,206,45,26,63,206,40,28,60,052,44*76
###2023-12-09 12:28:32.936524$GPGSV,2,2,07,29,25,077,41,31,73,351,43,32,33,132,45,,,,*41
###2023-12-09 12:28:32.938919$GLGSV,1,1,04,71,60,168,47,72,63,315,43,73,51,031,48,75,19,238,42*66
###2023-12-09 12:28:32.940707$GAGSV,1,1,02,21,75,179,39,27,44,050,46,,,,,,,,*6C
###2023-12-09 12:28:32.942830$GBGSV,1,1,03,14,58,200,45,26,37,056,47,33,64,261,39,,,,*5E
###2023-12-09 12:28:32.944013$GNVTG,,T,,M,0.04,N,0.07,K,A*3E
###2023-12-09 12:28:32.945696$GNGST,172832.10,31.000,,,,0.120,0.130,0.290*53
###2023-12-09 12:28:32.947052$GNZDA,172832.10,09,12,2023,00,00*7D
###2023-12-09 12:28:32.947752$GNEBP,,,,,,M*13
###2023-12-09 12:28:33.122915$GNGGA,172832.30,4138.0392063,N,07032.4362642,W,1,15,1.0,11.770,M,-29.746,M,0.0,*50
###2023-12-09 12:28:33.320971$GNGGA,172832.50,4138.0392047,N,07032.4362672,W,1,15,1.0,11.807,M,-29.746,M,0.0,*5C
###2023-12-09 12:28:33.519703$GNGGA,172832.70,4138.0392030,N,07032.4362704,W,1,15,1.0,11.844,M,-29.746,M,0.0,*59
###2023-12-09 12:28:33.721262$GNGGA,172832.90,4138.0392000,N,07032.4362746,W,1,15,1.0,11.874,M,-29.746,M,0.0,*51
###2023-12-09 12:28:33.917853$GNRMC,172833.10,A,4138.0391973,N,07032.4362767,W,0.02,,091223,,,A*43
###2023-12-09 12:28:33.921000$GNGGA,172833.10,4138.0391973,N,07032.4362767,W,1,15,1.0,11.911,M,-29.746,M,0.0,*57
###2023-12-09 12:28:33.922800$GPGSA,A,3,16,26,28,29,31,32,,,,,,,1.7,1.0,1.4*31
###2023-12-09 12:28:33.924440$GLGSA,A,3,71,72,73,75,,,,,,,,,1.7,1.0,1.4*29
###2023-12-09 12:28:33.925937$GAGSA,A,3,21,27,,,,,,,,,,,1.7,1.0,1.4*27
###2023-12-09 12:28:33.927510$GBGSA,A,3,14,26,33,,,,,,,,,,1.7,1.0,1.4*23
###2023-12-09 12:28:33.929884$GPGSV,2,1,06,16,34,206,44,26,63,206,39,28,60,052,43,29,25,077,40*73
###2023-12-09 12:28:33.931687$GPGSV,2,2,06,31,73,351,43,32,33,132,45,,,,,,,,*79
###2023-12-09 12:28:33.934056$GLGSV,1,1,04,71,60,168,48,72,63,315,43,73,51,031,47,75,19,238,42*66
###2023-12-09 12:28:33.935908$GAGSV,1,1,02,21,75,179,39,27,44,050,45,,,,,,,,*6F
###2023-12-09 12:28:33.937979$GBGSV,1,1,03,14,58,200,45,26,37,056,49,33,64,261,39,,,,*50
###2023-12-09 12:28:33.939163$GNVTG,,T,,M,0.02,N,0.04,K,A*3B
###2023-12-09 12:28:33.940844$GNGST,172833.10,33.000,,,,0.120,0.130,0.290*50
###2023-12-09 12:28:33.942171$GNZDA,172833.10,09,12,2023,00,00*7C
###2023-12-09 12:28:33.942860$GNEBP,,,,,,M*13
###2023-12-09 12:28:34.119358$GNGGA,172833.30,4138.0391952,N,07032.4362812,W,1,15,1.0,11.945,M,-29.746,M,0.0,*5A
###2023-12-09 12:28:34.318149$GNGGA,172833.50,4138.0391910,N,07032.4362835,W,1,15,1.0,11.988,M,-29.746,M,0.0,*5E
###2023-12-09 12:28:34.519899$GNGGA,172833.70,4138.0391877,N,07032.4362881,W,1,15,1.0,12.024,M,-29.746,M,0.0,*5F
###2023-12-09 12:28:34.717441$GNGGA,172833.90,4138.0391847,N,07032.4362903,W,1,15,1.0,12.060,M,-29.746,M,0.0,*59
###2023-12-09 12:28:34.921394$GNRMC,172834.10,A,4138.0391826,N,07032.4362917,W,0.06,,091223,,,A*48
###2023-12-09 12:28:34.924429$GNGGA,172834.10,4138.0391826,N,07032.4362917,W,1,15,1.0,12.091,M,-29.746,M,0.0,*5A
###2023-12-09 12:28:34.926172$GPGSA,A,3,16,26,28,29,31,32,,,,,,,1.7,1.0,1.4*31
###2023-12-09 12:28:34.927781$GLGSA,A,3,71,72,73,75,,,,,,,,,1.7,1.0,1.4*29
###2023-12-09 12:28:34.929242$GAGSA,A,3,21,27,,,,,,,,,,,1.7,1.0,1.4*27
###2023-12-09 12:28:34.930781$GBGSA,A,3,14,26,33,,,,,,,,,,1.7,1.0,1.4*23
###2023-12-09 12:28:34.933120$GPGSV,2,1,06,16,34,206,44,26,63,206,39,28,60,052,43,29,25,077,40*73
###2023-12-09 12:28:34.934895$GPGSV,2,2,06,31,73,351,43,32,33,132,45,,,,,,,,*79
###2023-12-09 12:28:34.937241$GLGSV,1,1,04,71,60,168,48,72,63,315,43,73,51,031,47,75,19,238,42*66
###2023-12-09 12:28:34.939019$GAGSV,1,1,02,21,75,179,39,27,44,050,45,,,,,,,,*6F
###2023-12-09 12:28:34.941072$GBGSV,1,1,03,14,58,200,45,26,37,056,48,33,64,261,39,,,,*51
###2023-12-09 12:28:34.942211$GNVTG,,T,,M,0.06,N,0.11,K,A*3B
###2023-12-09 12:28:34.943918$GNGST,172834.10,33.000,,,,0.120,0.130,0.290*57
###2023-12-09 12:28:34.945223$GNZDA,172834.10,09,12,2023,00,00*7B
###2023-12-09 12:28:34.945873$GNEBP,,,,,,M*13
###2023-12-09 12:28:35.118166$GNGGA,172834.30,4138.0391803,N,07032.4362927,W,1,15,1.0,12.119,M,-29.746,M,0.0,*5D
###2023-12-09 12:28:35.318220$GNGGA,172834.50,4138.0391779,N,07032.4362942,W,1,16,0.9,12.151,M,-29.746,M,0.0,*5D
###2023-12-09 12:28:35.521859$GNGGA,172834.70,4138.0391747,N,07032.4362947,W,1,15,1.0,12.183,M,-29.746,M,0.0,*53
###2023-12-09 12:28:35.717320$GNGGA,172834.90,4138.0391711,N,07032.4362949,W,1,15,1.0,12.211,M,-29.746,M,0.0,*58
###2023-12-09 12:28:35.918717$GNRMC,172835.10,A,4138.0391679,N,07032.4362951,W,0.06,,091223,,,A*4F
###2023-12-09 12:28:35.921797$GNGGA,172835.10,4138.0391679,N,07032.4362951,W,1,15,1.0,12.237,M,-29.746,M,0.0,*53
###2023-12-09 12:28:35.923687$GPGSA,A,3,16,26,28,29,31,32,,,,,,,1.7,1.0,1.4*31
###2023-12-09 12:28:35.925391$GLGSA,A,3,71,72,73,75,,,,,,,,,1.7,1.0,1.4*29
###2023-12-09 12:28:35.926964$GAGSA,A,3,21,27,,,,,,,,,,,1.7,1.0,1.4*27
###2023-12-09 12:28:35.928585$GBGSA,A,3,14,26,33,,,,,,,,,,1.7,1.0,1.4*23
