###2023-12-09 13:10:36.980701$GAGSA,A,3,04,19,21,27,,,,,,,,,1.2,0.7,1.0*2C
###2023-12-09 13:10:36.982439$GBGSA,A,3,14,24,25,26,33,35,,,,,,,1.2,0.7,1.0*23
###2023-12-09 13:10:36.984792$GPGSV,2,1,07,03,33,257,42,04,36,311,44,16,54,214,46,26,84,210,47*71
###2023-12-09 13:10:36.986846$GPGSV,2,2,07,28,46,074,44,29,24,057,43,31,67,046,47,,,,*4F
###2023-12-09 13:10:36.989180$GLGSV,2,1,06,65,27,326,42,71,36,173,43,72,72,254,46,73,32,044,44*62
###2023-12-09 13:10:36.990954$GLGSV,2,2,06,74,68,348,43,75,35,257,46,,,,,,,,*60
###2023-12-09 13:10:36.993280$GAGSV,1,1,04,04,32,312,42,19,81,196,40,21,85,078,46,27,30,048,41*68
###2023-12-09 13:10:36.995620$GBGSV,2,1,06,14,39,192,42,24,70,032,47,25,44,266,46,26,23,065,41*6A
###2023-12-09 13:10:36.997367$GBGSV,2,2,06,33,54,227,46,35,15,065,42,,,,,,,,*6E
###2023-12-09 13:10:36.998712$GNVTG,180.61,T,,M,3.56,N,6.59,K,A*27
###2023-12-09 13:10:37.000362$GNGST,181036.10,18.000,,,,0.100,0.071,0.170*53
###2023-12-09 13:10:37.001651$GNZDA,181036.10,09,12,2023,00,00*7D
###2023-12-09 13:10:37.002288$GNEBP,,,,,,M*13
###2023-12-09 13:10:37.169519$GNGGA,181036.30,4138.0155798,N,07032.2609759,W,1,24,0.7,12.937,M,-29.744,M,0.0,*57
###2023-12-09 13:10:37.375035$GNGGA,181036.50,4138.0153845,N,07032.2609661,W,1,24,0.7,12.945,M,-29.744,M,0.0,*57
###2023-12-09 13:10:37.571153$GNGGA,181036.70,4138.0151856,N,07032.2609490,W,1,24,0.7,12.928,M,-29.744,M,0.0,*52
###2023-12-09 13:10:37.770281$GNGGA,181036.90,4138.0149919,N,07032.2609573,W,1,24,0.7,12.940,M,-29.744,M,0.0,*5D
###2023-12-09 13:10:37.973009$GNRMC,181037.10,A,4138.0147920,N,07032.2609661,W,3.62,180.93,091223,,,A*5D
###2023-12-09 13:10:37.975887$GNGGA,181037.10,4138.0147920,N,07032.2609661,W,1,24,0.7,12.957,M,-29.744,M,0.0,*56
###2023-12-09 13:10:37.977689$GPGSA,A,3,03,04,16,26,28,29,31,,,,,,1.2,0.7,1.0*30
###2023-12-09 13:10:37.979417$GLGSA,A,3,65,71,72,73,74,75,,,,,,,1.2,0.7,1.0*2E
###2023-12-09 13:10:37.981005$GAGSA,A,3,04,19,21,27,,,,,,,,,1.2,0.7,1.0*2C
###2023-12-09 13:10:37.982726$GBGSA,A,3,14,24,25,26,33,35,,,,,,,1.2,0.7,1.0*23
###2023-12-09 13:10:37.985050$GPGSV,2,1,07,03,33,257,43,04,36,311,45,16,54,214,45,26,84,210,48*7D
###2023-12-09 13:10:37.987101$GPGSV,2,2,07,28,46,074,45,29,24,057,42,31,67,046,47,,,,*4F
###2023-12-09 13:10:37.989434$GLGSV,2,1,06,65,28,326,42,71,36,173,42,72,72,254,46,73,32,044,45*6D
###2023-12-09 13:10:37.991194$GLGSV,2,2,06,74,68,348,43,75,35,257,46,,,,,,,,*60
###2023-12-09 13:10:37.993522$GAGSV,1,1,04,04,32,312,43,19,81,196,40,21,85,078,46,27,30,048,42*6A
###2023-12-09 13:10:37.995862$GBGSV,2,1,06,14,39,192,41,24,70,032,48,25,44,266,47,26,23,065,43*65
###2023-12-09 13:10:37.997610$GBGSV,2,2,06,33,54,227,47,35,15,065,42,,,,,,,,*6F
###2023-12-09 13:10:37.998954$GNVTG,180.93,T,,M,3.62,N,6.70,K,A*26
###2023-12-09 13:10:38.000603$GNGST,181037.10,18.000,,,,0.100,0.071,0.170*52
###2023-12-09 13:10:38.001890$GNZDA,181037.10,09,12,2023,00,00*7C
###2023-12-09 13:10:38.002529$GNEBP,,,,,,M*13
###2023-12-09 13:10:38.170233$GNGGA,181037.30,4138.0145941,N,07032.2609570,W,1,24,0.7,12.933,M,-29.744,M,0.0,*50
###2023-12-09 13:10:38.369411$GNGGA,181037.50,4138.0143979,N,07032.2609514,W,1,24,0.7,12.943,M,-29.744,M,0.0,*5E
###2023-12-09 13:10:38.571136$GNGGA,181037.70,4138.0141992,N,07032.2609652,W,1,24,0.7,12.953,M,-29.744,M,0.0,*5B
###2023-12-09 13:10:38.769832$GNGGA,181037.90,4138.0139953,N,07032.2609750,W,1,24,0.7,12.947,M,-29.744,M,0.0,*51
###2023-12-09 13:10:38.974382$GNRMC,181038.10,A,4138.0137960,N,07032.2609834,W,3.65,182.55,091223,,,A*50
###2023-12-09 13:10:38.977276$GNGGA,181038.10,4138.0137960,N,07032.2609834,W,1,24,0.7,12.946,M,-29.744,M,0.0,*54
###2023-12-09 13:10:38.979082$GPGSA,A,3,03,04,16,26,28,29,31,,,,,,1.2,0.7,1.0*30
###2023-12-09 13:10:38.980799$GLGSA,A,3,65,71,72,73,74,75,,,,,,,1.2,0.7,1.0*2E
###2023-12-09 13:10:38.982384$GAGSA,A,3,04,19,21,27,,,,,,,,,1.2,0.7,1.0*2C
###2023-12-09 13:10:38.984103$GBGSA,A,3,14,24,25,26,33,35,,,,,,,1.2,0.7,1.0*23
###2023-12-09 13:10:38.986427$GPGSV,2,1,07,03,33,257,43,04,36,311,45,16,54,214,46,26,84,210,48*7E
###2023-12-09 13:10:38.988483$GPGSV,2,2,07,28,46,074,45,29,24,057,42,31,67,046,47,,,,*4F
###2023-12-09 13:10:38.990820$GLGSV,2,1,06,65,28,326,43,71,36,173,42,72,72,254,46,73,32,044,44*6D
###2023-12-09 13:10:38.992564$GLGSV,2,2,06,74,68,348,43,75,35,257,46,,,,,,,,*60
###2023-12-09 13:10:38.994929$GAGSV,1,1,04,04,32,312,43,19,81,196,40,21,85,078,46,27,30,048,41*69
###2023-12-09 13:10:38.997256$GBGSV,2,1,06,14,39,192,41,24,70,032,48,25,44,266,46,26,23,065,43*64
###2023-12-09 13:10:38.999043$GBGSV,2,2,06,33,54,227,46,35,15,065,43,,,,,,,,*6F
###2023-12-09 13:10:39.000374$GNVTG,182.55,T,,M,3.65,N,6.77,K,A*2E
###2023-12-09 13:10:39.002022$GNGST,181038.10,18.000,,,,0.100,0.071,0.170*5D
###2023-12-09 13:10:39.003326$GNZDA,181038.10,09,12,2023,00,00*73
###2023-12-09 13:10:39.003965$GNEBP,,,,,,M*13
###2023-12-09 13:10:39.173462$GNGGA,181038.30,4138.0135966,N,07032.2610014,W,1,24,0.7,12.959,M,-29.744,M,0.0,*5E
###2023-12-09 13:10:39.371600$GNGGA,181038.50,4138.0133938,N,07032.2610215,W,1,24,0.7,12.954,M,-29.744,M,0.0,*5B
###2023-12-09 13:10:39.571153$GNGGA,181038.70,4138.0131928,N,07032.2610432,W,1,24,0.7,12.941,M,-29.744,M,0.0,*5D
###2023-12-09 13:10:39.771109$GNGGA,181038.90,4138.0129971,N,07032.2610609,W,1,24,0.7,12.950,M,-29.744,M,0.0,*5C
###2023-12-09 13:10:39.973983$GNRMC,181039.10,A,4138.0128000,N,07032.2610951,W,3.69,187.81,091223,,,A*5A
###2023-12-09 13:10:39.976871$GNGGA,181039.10,4138.0128000,N,07032.2610951,W,1,24,0.7,12.959,M,-29.744,M,0.0,*50
###2023-12-09 13:10:39.978673$GPGSA,A,3,03,04,16,26,28,29,31,,,,,,1.2,0.7,1.0*30
###2023-12-09 13:10:39.980401$GLGSA,A,3,65,71,72,73,74,75,,,,,,,1.2,0.7,1.0*2E
###2023-12-09 13:10:39.981995$GAGSA,A,3,04,19,21,27,,,,,,,,,1.2,0.7,1.0*2C
###2023-12-09 13:10:39.983719$GBGSA,A,3,14,24,25,26,33,35,,,,,,,1.2,0.7,1.0*23
###2023-12-09 13:10:39.986050$GPGSV,2,1,07,03,33,257,42,04,36,311,45,16,54,214,44,26,84,210,47*72
###2023-12-09 13:10:39.988098$GPGSV,2,2,07,28,46,074,45,29,24,057,42,31,67,046,47,,,,*4F
###2023-12-09 13:10:39.990436$GLGSV,2,1,06,65,28,326,43,71,36,173,42,72,72,254,46,73,32,044,44*6D
###2023-12-09 13:10:39.992193$GLGSV,2,2,06,74,68,348,43,75,35,257,46,,,,,,,,*60
###2023-12-09 13:10:39.994520$GAGSV,1,1,04,04,32,312,43,19,81,196,40,21,85,078,46,27,30,048,41*69
###2023-12-09 13:10:39.996861$GBGSV,2,1,06,14,39,192,42,24,70,032,49,25,44,266,47,26,23,065,44*60
###2023-12-09 13:10:39.998645$GBGSV,2,2,06,33,54,227,47,35,15,065,44,,,,,,,,*69
###2023-12-09 13:10:39.999970$GNVTG,187.81,T,,M,3.69,N,6.84,K,A*22
###2023-12-09 13:10:40.001612$GNGST,181039.10,18.000,,,,0.100,0.071,0.170*5C
###2023-12-09 13:10:40.002909$GNZDA,181039.10,09,12,2023,00,00*72
###2023-12-09 13:10:40.003545$GNEBP,,,,,,M*13
###2023-12-09 13:10:40.169369$GNGGA,181039.30,4138.0126039,N,07032.2611154,W,1,24,0.7,12.943,M,-29.744,M,0.0,*51
###2023-12-09 13:10:40.370103$GNGGA,181039.50,4138.0124123,N,07032.2611315,W,1,24,0.7,12.952,M,-29.744,M,0.0,*58
###2023-12-09 13:10:40.570071$GNGGA,181039.70,4138.0122167,N,07032.2611681,W,1,24,0.7,12.966,M,-29.744,M,0.0,*53
###2023-12-09 13:10:40.769501$GNGGA,181039.90,4138.0120227,N,07032.2611847,W,1,24,0.7,12.956,M,-29.744,M,0.0,*5F
###2023-12-09 13:10:40.973109$GNRMC,181040.10,A,4138.0118302,N,07032.2611797,W,3.42,177.20,091223,,,A*5E
###2023-12-09 13:10:40.975969$GNGGA,181040.10,4138.0118302,N,07032.2611797,W,1,24,0.7,12.953,M,-29.744,M,0.0,*53
###2023-12-09 13:10:40.977755$GPGSA,A,3,03,04,16,26,28,29,31,,,,,,1.2,0.7,1.0*30
###2023-12-09 13:10:40.979487$GLGSA,A,3,65,71,72,73,74,75,,,,,,,1.2,0.7,1.0*2E
###2023-12-09 13:10:40.981072$GAGSA,A,3,04,19,21,27,,,,,,,,,1.2,0.7,1.0*2C
###2023-12-09 13:10:40.982797$GBGSA,A,3,14,24,25,26,33,35,,,,,,,1.2,0.7,1.0*23
###2023-12-09 13:10:40.985118$GPGSV,2,1,07,03,33,257,42,04,36,311,45,16,54,214,46,26,84,210,48*7F
###2023-12-09 13:10:40.987160$GPGSV,2,2,07,28,46,074,46,29,24,057,42,31,67,046,47,,,,*4C
###2023-12-09 13:10:40.989478$GLGSV,2,1,06,65,28,326,42,71,36,173,42,72,72,254,46,73,32,044,44*6C
###2023-12-09 13:10:40.991228$GLGSV,2,2,06,74,68,348,43,75,35,257,46,,,,,,,,*60
###2023-12-09 13:10:40.993545$GAGSV,1,1,04,04,32,312,43,19,81,196,40,21,85,078,46,27,30,048,42*6A
###2023-12-09 13:10:40.996140$GBGSV,2,1,06,14,39,192,42,24,70,032,49,25,44,266,47,26,23,065,43*67
###2023-12-09 13:10:40.997907$GBGSV,2,2,06,33,54,227,48,35,15,065,44,,,,,,,,*66
###2023-12-09 13:10:40.999251$GNVTG,177.20,T,,M,3.42,N,6.34,K,A*24
###2023-12-09 13:10:41.000896$GNGST,181040.10,18.000,,,,0.100,0.071,0.170*52
###2023-12-09 13:10:41.002187$GNZDA,181040.10,09,12,2023,00,00*7C
###2023-12-09 13:10:41.002839$GNEBP,,,,,,M*13
###2023-12-09 13:10:41.169433$GNGGA,181040.30,4138.0116391,N,07032.2611861,W,1,24,0.7,12.970,M,-29.744,M,0.0,*52
###2023-12-09 13:10:41.369685$GNGGA,181040.50,4138.0114420,N,07032.2612066,W,1,24,0.7,12.978,M,-29.744,M,0.0,*5F
###2023-12-09 13:10:41.571598$GNGGA,181040.70,4138.0112493,N,07032.2612111,W,1,24,0.7,12.963,M,-29.744,M,0.0,*58
