###2023-12-09 13:09:44.169728$GNGGA,180943.30,4138.0679183,N,07032.2584014,W,1,25,0.6,13.329,M,-29.742,M,0.0,*52
###2023-12-09 13:09:44.368835$GNGGA,180943.50,4138.0677246,N,07032.2584248,W,1,25,0.6,13.291,M,-29.742,M,0.0,*59
###2023-12-09 13:09:44.569781$GNGGA,180943.70,4138.0675388,N,07032.2584253,W,1,25,0.6,13.294,M,-29.742,M,0.0,*55
###2023-12-09 13:09:44.771084$GNGGA,180943.90,4138.0673426,N,07032.2584290,W,1,25,0.6,13.300,M,-29.742,M,0.0,*5D
###2023-12-09 13:09:44.976311$GNRMC,180944.10,A,4138.0671530,N,07032.2584527,W,3.36,187.18,091223,,,A*5C
###2023-12-09 13:09:44.979215$GNGGA,180944.10,4138.0671530,N,07032.2584527,W,1,25,0.6,13.292,M,-29.742,M,0.0,*57
###2023-12-09 13:09:44.981083$GPGSA,A,3,03,04,16,26,28,29,31,32,,,,,1.1,0.6,0.9*3B
###2023-12-09 13:09:44.982811$GLGSA,A,3,65,71,72,73,74,75,,,,,,,1.1,0.6,0.9*24
###2023-12-09 13:09:44.984399$GAGSA,A,3,04,19,21,27,,,,,,,,,1.1,0.6,0.9*26
###2023-12-09 13:09:44.986115$GBGSA,A,3,14,24,25,26,33,35,,,,,,,1.1,0.6,0.9*29
###2023-12-09 13:09:44.988454$GPGSV,2,1,08,03,33,257,43,04,36,311,44,16,54,214,45,26,84,210,47*7C
###2023-12-09 13:09:44.990796$GPGSV,2,2,08,28,46,074,45,29,24,057,42,31,67,046,48,32,15,141,41*7B
###2023-12-09 13:09:44.993138$GLGSV,2,1,06,65,27,326,44,71,36,173,43,72,72,254,45,73,32,044,45*66
###2023-12-09 13:09:44.994943$GLGSV,2,2,06,74,68,348,43,75,35,257,45,,,,,,,,*63
###2023-12-09 13:09:44.997270$GAGSV,1,1,04,04,31,312,43,19,82,199,40,21,85,085,46,27,31,048,41*65
###2023-12-09 13:09:44.999613$GBGSV,2,1,06,14,40,192,42,24,71,031,50,25,43,265,47,26,24,064,44*66
###2023-12-09 13:09:45.001359$GBGSV,2,2,06,33,55,228,48,35,15,066,44,,,,,,,,*6B
###2023-12-09 13:09:45.002694$GNVTG,187.18,T,,M,3.36,N,6.23,K,A*25
###2023-12-09 13:09:45.004348$GNGST,180944.10,18.000,,,,0.084,0.064,0.150*55
###2023-12-09 13:09:45.005643$GNZDA,180944.10,09,12,2023,00,00*70
###2023-12-09 13:09:45.006282$GNEBP,,,,,,M*13
###2023-12-09 13:09:45.172491$GNGGA,180944.30,4138.0669621,N,07032.2584661,W,1,25,0.6,13.300,M,-29.742,M,0.0,*54
###2023-12-09 13:09:45.370201$GNGGA,180944.50,4138.0667679,N,07032.2584548,W,1,25,0.6,13.283,M,-29.742,M,0.0,*53
###2023-12-09 13:09:45.569874$GNGGA,180944.70,4138.0665760,N,07032.2584624,W,1,25,0.6,13.285,M,-29.742,M,0.0,*55
###2023-12-09 13:09:45.770540$GNGGA,180944.90,4138.0663830,N,07032.2584775,W,1,25,0.6,13.292,M,-29.742,M,0.0,*54
###2023-12-09 13:09:45.974126$GNRMC,180945.10,A,4138.0661868,N,07032.2584997,W,3.58,182.05,091223,,,A*5A
###2023-12-09 13:09:45.977011$GNGGA,180945.10,4138.0661868,N,07032.2584997,W,1,25,0.6,13.290,M,-29.742,M,0.0,*52
###2023-12-09 13:09:45.978890$GPGSA,A,3,03,04,16,26,28,29,31,32,,,,,1.1,0.6,0.9*3B
###2023-12-09 13:09:45.980614$GLGSA,A,3,65,71,72,73,74,75,,,,,,,1.1,0.6,0.9*24
###2023-12-09 13:09:45.982197$GAGSA,A,3,04,19,21,27,,,,,,,,,1.1,0.6,0.9*26
###2023-12-09 13:09:45.983919$GBGSA,A,3,14,24,25,26,33,35,,,,,,,1.1,0.6,0.9*29
###2023-12-09 13:09:45.986242$GPGSV,2,1,08,03,33,257,43,04,36,311,45,16,54,214,45,26,84,210,47*7D
###2023-12-09 13:09:45.988588$GPGSV,2,2,08,28,46,074,45,29,24,057,41,31,67,046,47,32,15,141,41*77
###2023-12-09 13:09:45.990931$GLGSV,2,1,06,65,27,326,43,71,36,173,42,72,72,254,46,73,32,044,44*62
###2023-12-09 13:09:45.992681$GLGSV,2,2,06,74,68,348,43,75,35,257,46,,,,,,,,*60
###2023-12-09 13:09:45.995015$GAGSV,1,1,04,04,31,312,43,19,82,199,40,21,85,085,46,27,31,048,41*65
###2023-12-09 13:09:45.997339$GBGSV,2,1,06,14,40,192,41,24,71,031,49,25,43,265,48,26,24,064,44*62
###2023-12-09 13:09:45.999091$GBGSV,2,2,06,33,55,228,48,35,15,066,45,,,,,,,,*6A
###2023-12-09 13:09:46.000451$GNVTG,182.05,T,,M,3.58,N,6.62,K,A*21
###2023-12-09 13:09:46.002101$GNGST,180945.10,18.000,,,,0.083,0.064,0.150*53
###2023-12-09 13:09:46.003430$GNZDA,180945.10,09,12,2023,00,00*71
###2023-12-09 13:09:46.004070$GNEBP,,,,,,M*13
###2023-12-09 13:09:46.169162$GNGGA,180945.30,4138.0659942,N,07032.2584958,W,1,25,0.6,13.281,M,-29.742,M,0.0,*51
###2023-12-09 13:09:46.370878$GNGGA,180945.50,4138.0658030,N,07032.2585138,W,1,25,0.6,13.298,M,-29.742,M,0.0,*5D
###2023-12-09 13:09:46.570226$GNGGA,180945.70,4138.0656070,N,07032.2585515,W,1,25,0.6,13.302,M,-29.742,M,0.0,*5C
###2023-12-09 13:09:46.770147$GNGGA,180945.90,4138.0654217,N,07032.2585727,W,1,25,0.6,13.282,M,-29.742,M,0.0,*59
###2023-12-09 13:09:46.974144$GNRMC,180946.10,A,4138.0652330,N,07032.2585991,W,3.60,187.07,091223,,,A*54
###2023-12-09 13:09:46.977040$GNGGA,180946.10,4138.0652330,N,07032.2585991,W,1,25,0.6,13.301,M,-29.742,M,0.0,*59
###2023-12-09 13:09:46.978922$GPGSA,A,3,03,04,16,26,28,29,31,32,,,,,1.1,0.6,0.9*3B
###2023-12-09 13:09:46.980643$GLGSA,A,3,65,71,72,73,74,75,,,,,,,1.1,0.6,0.9*24
###2023-12-09 13:09:46.982235$GAGSA,A,3,04,19,21,27,,,,,,,,,1.1,0.6,0.9*26
###2023-12-09 13:09:46.983964$GBGSA,A,3,14,24,25,26,33,35,,,,,,,1.1,0.6,0.9*29
###2023-12-09 13:09:46.986304$GPGSV,2,1,08,03,33,257,43,04,36,311,42,16,54,214,45,26,84,210,47*7A
###2023-12-09 13:09:46.988656$GPGSV,2,2,08,28,46,074,45,29,24,057,43,31,67,046,47,32,15,141,42*76
###2023-12-09 13:09:46.991011$GLGSV,2,1,06,65,27,326,42,71,36,173,43,72,72,254,46,73,32,044,44*62
###2023-12-09 13:09:46.992769$GLGSV,2,2,06,74,68,348,42,75,35,257,45,,,,,,,,*62
###2023-12-09 13:09:46.995118$GAGSV,1,1,04,04,31,312,42,19,82,199,40,21,85,085,46,27,31,048,41*64
###2023-12-09 13:09:46.997461$GBGSV,2,1,06,14,40,192,42,24,71,031,50,25,43,265,47,26,24,064,46*64
###2023-12-09 13:09:46.999225$GBGSV,2,2,06,33,55,228,48,35,15,066,45,,,,,,,,*6A
###2023-12-09 13:09:47.000555$GNVTG,187.07,T,,M,3.60,N,6.66,K,A*29
###2023-12-09 13:09:47.002209$GNGST,180946.10,18.000,,,,0.083,0.064,0.150*50
###2023-12-09 13:09:47.003516$GNZDA,180946.10,09,12,2023,00,00*72
###2023-12-09 13:09:47.004158$GNEBP,,,,,,M*13
###2023-12-09 13:09:47.171531$GNGGA,180946.30,4138.0650457,N,07032.2586293,W,1,25,0.6,13.292,M,-29.742,M,0.0,*5E
###2023-12-09 13:09:47.369824$GNGGA,180946.50,4138.0648617,N,07032.2586644,W,1,25,0.6,13.299,M,-29.742,M,0.0,*52
###2023-12-09 13:09:47.570389$GNGGA,180946.70,4138.0646708,N,07032.2586947,W,1,25,0.6,13.301,M,-29.742,M,0.0,*5D
###2023-12-09 13:09:47.771355$GNGGA,180946.90,4138.0644877,N,07032.2587204,W,1,25,0.6,13.298,M,-29.742,M,0.0,*5A
###2023-12-09 13:09:47.973180$GNRMC,180947.10,A,4138.0642962,N,07032.2587479,W,3.63,186.28,091223,,,A*5F
###2023-12-09 13:09:47.976067$GNGGA,180947.10,4138.0642962,N,07032.2587479,W,1,25,0.6,13.311,M,-29.742,M,0.0,*5C
###2023-12-09 13:09:47.977939$GPGSA,A,3,03,04,16,26,28,29,31,32,,,,,1.1,0.6,0.9*3B
###2023-12-09 13:09:47.979678$GLGSA,A,3,65,71,72,73,74,75,,,,,,,1.1,0.6,0.9*24
###2023-12-09 13:09:47.981269$GAGSA,A,3,04,19,21,27,,,,,,,,,1.1,0.6,0.9*26
###2023-12-09 13:09:47.982999$GBGSA,A,3,14,24,25,26,33,35,,,,,,,1.1,0.6,0.9*29
###2023-12-09 13:09:47.985332$GPGSV,2,1,08,03,33,257,43,04,36,311,44,16,54,214,45,26,84,210,47*7C
###2023-12-09 13:09:47.987685$GPGSV,2,2,08,28,46,074,45,29,24,057,43,31,67,046,47,32,15,141,41*75
###2023-12-09 13:09:47.990025$GLGSV,2,1,06,65,27,326,43,71,36,173,42,72,72,254,45,73,32,044,45*60
###2023-12-09 13:09:47.991782$GLGSV,2,2,06,74,68,348,43,75,35,257,45,,,,,,,,*63
###2023-12-09 13:09:47.994111$GAGSV,1,1,04,04,32,312,42,19,82,199,40,21,85,085,46,27,31,048,41*67
###2023-12-09 13:09:47.996464$GBGSV,2,1,06,14,40,192,42,24,71,031,48,25,43,265,46,26,24,064,43*69
###2023-12-09 13:09:47.998217$GBGSV,2,2,06,33,55,228,47,35,15,066,43,,,,,,,,*63
###2023-12-09 13:09:47.999557$GNVTG,186.28,T,,M,3.63,N,6.73,K,A*22
###2023-12-09 13:09:48.001209$GNGST,180947.10,18.000,,,,0.083,0.064,0.150*51
###2023-12-09 13:09:48.002502$GNZDA,180947.10,09,12,2023,00,00*73
###2023-12-09 13:09:48.003151$GNEBP,,,,,,M*13
###2023-12-09 13:09:48.171842$GNGGA,180947.30,4138.0641059,N,07032.2587709,W,1,25,0.6,13.293,M,-29.742,M,0.0,*53
###2023-12-09 13:09:48.370482$GNGGA,180947.50,4138.0639152,N,07032.2587781,W,1,25,0.6,13.308,M,-29.742,M,0.0,*53
###2023-12-09 13:09:48.571512$GNGGA,180947.70,4138.0637217,N,07032.2587892,W,1,25,0.6,13.304,M,-29.742,M,0.0,*5C
###2023-12-09 13:09:48.771305$GNGGA,180947.90,4138.0635331,N,07032.2587899,W,1,25,0.6,13.303,M,-29.742,M,0.0,*59
###2023-12-09 13:09:48.975026$GNRMC,180948.10,A,4138.0633386,N,07032.2587857,W,3.50,180.75,091223,,,A*58
###2023-12-09 13:09:48.978124$GNGGA,180948.10,4138.0633386,N,07032.2587857,W,1,25,0.6,13.305,M,-29.742,M,0.0,*50
###2023-12-09 13:09:48.980013$GPGSA,A,3,03,04,16,26,28,29,31,32,,,,,1.1,0.6,0.9*3B
###2023-12-09 13:09:48.981740$GLGSA,A,3,65,71,72,73,74,75,,,,,,,1.1,0.6,0.9*24
###2023-12-09 13:09:48.983342$GAGSA,A,3,04,19,21,27,,,,,,,,,1.1,0.6,0.9*26
###2023-12-09 13:09:48.985055$GBGSA,A,3,14,24,25,26,33,35,,,,,,,1.1,0.6,0.9*29
###2023-12-09 13:09:48.987398$GPGSV,2,1,08,03,33,257,43,04,36,311,45,16,54,214,45,26,84,210,48*72
###2023-12-09 13:09:48.989733$GPGSV,2,2,08,28,46,074,45,29,24,057,43,31,67,046,47,32,15,141,40*74
###2023-12-09 13:09:48.992083$GLGSV,2,1,06,65,27,326,43,71,36,173,42,72,72,254,45,73,32,044,45*60
###2023-12-09 13:09:48.993832$GLGSV,2,2,06,74,68,348,43,75,35,257,46,,,,,,,,*60
###2023-12-09 13:09:48.996168$GAGSV,1,1,04,04,32,312,43,19,82,199,40,21,85,085,46,27,31,048,42*65
###2023-12-09 13:09:48.998501$GBGSV,2,1,06,14,40,192,42,24,71,031,48,25,43,265,47,26,24,064,43*68
