###2023-12-09 13:21:43.384009$GNGGA,182142.50,4138.0561963,N,07032.3414266,W,1,24,0.7,13.165,M,-29.744,M,0.0,*51
###2023-12-09 13:21:43.582401$GNGGA,182142.70,4138.0563517,N,07032.3415433,W,1,24,0.7,13.165,M,-29.744,M,0.0,*59
###2023-12-09 13:21:43.782151$GNGGA,182142.90,4138.0565002,N,07032.3416735,W,1,24,0.7,13.169,M,-29.744,M,0.0,*5A
###2023-12-09 13:21:43.986300$GNRMC,182143.10,A,4138.0566411,N,07032.3418139,W,3.21,321.72,091223,,,A*5C
###2023-12-09 13:21:43.989202$GNGGA,182143.10,4138.0566411,N,07032.3418139,W,1,24,0.7,13.166,M,-29.744,M,0.0,*5D
###2023-12-09 13:21:43.991011$GPGSA,A,3,03,04,16,26,28,29,31,,,,,,1.1,0.7,0.9*3B
###2023-12-09 13:21:43.992727$GLGSA,A,3,65,71,72,73,74,75,,,,,,,1.1,0.7,0.9*25
###2023-12-09 13:21:43.994307$GAGSA,A,3,04,19,21,27,,,,,,,,,1.1,0.7,0.9*27
###2023-12-09 13:21:43.996026$GBGSA,A,3,14,24,25,26,33,35,,,,,,,1.1,0.7,0.9*28
###2023-12-09 13:21:43.998350$GPGSV,2,1,07,03,30,252,42,04,41,310,41,16,60,218,45,26,90,099,48*72
###2023-12-09 13:21:44.000406$GPGSV,2,2,07,28,42,080,45,29,23,052,42,31,63,057,47,,,,*46
###2023-12-09 13:21:44.002753$GLGSV,2,1,06,65,33,323,41,71,30,174,44,72,69,234,46,73,27,048,44*63
###2023-12-09 13:21:44.004508$GLGSV,2,2,06,74,64,002,41,75,39,263,47,,,,,,,,*69
###2023-12-09 13:21:44.006853$GAGSV,1,1,04,04,35,311,41,19,77,186,41,21,81,055,46,27,27,049,42*69
###2023-12-09 13:21:44.009179$GBGSV,2,1,06,14,35,191,41,24,67,039,47,25,47,270,46,26,20,067,42*6D
###2023-12-09 13:21:44.010973$GBGSV,2,2,06,33,51,222,46,35,16,062,42,,,,,,,,*6A
###2023-12-09 13:21:44.012296$GNVTG,321.72,T,,M,3.21,N,5.94,K,A*2E
###2023-12-09 13:21:44.013942$GNGST,182143.10,18.000,,,,0.100,0.071,0.170*53
###2023-12-09 13:21:44.015246$GNZDA,182143.10,09,12,2023,00,00*7D
###2023-12-09 13:21:44.015887$GNEBP,,,,,,M*13
###2023-12-09 13:21:44.184385$GNGGA,182143.30,4138.0567843,N,07032.3419529,W,1,24,0.7,13.172,M,-29.744,M,0.0,*54
###2023-12-09 13:21:44.382847$GNGGA,182143.50,4138.0569351,N,07032.3420859,W,1,24,0.7,13.167,M,-29.744,M,0.0,*50
###2023-12-09 13:21:44.584284$GNGGA,182143.70,4138.0570872,N,07032.3422177,W,1,24,0.7,13.168,M,-29.744,M,0.0,*58
###2023-12-09 13:21:44.783562$GNGGA,182143.90,4138.0572363,N,07032.3423557,W,1,24,0.7,13.166,M,-29.744,M,0.0,*56
###2023-12-09 13:21:44.995509$GNRMC,182144.10,A,4138.0573818,N,07032.3424965,W,3.30,324.00,091223,,,A*54
###2023-12-09 13:21:44.998364$GNGGA,182144.10,4138.0573818,N,07032.3424965,W,1,24,0.7,13.164,M,-29.744,M,0.0,*57
###2023-12-09 13:21:45.000171$GPGSA,A,3,03,04,16,26,28,29,31,,,,,,1.1,0.7,0.9*3B
###2023-12-09 13:21:45.001880$GLGSA,A,3,65,71,72,73,74,75,,,,,,,1.1,0.7,0.9*25
###2023-12-09 13:21:45.003465$GAGSA,A,3,04,19,21,27,,,,,,,,,1.1,0.7,0.9*27
###2023-12-09 13:21:45.005172$GBGSA,A,3,14,24,25,26,33,35,,,,,,,1.1,0.7,0.9*28
###2023-12-09 13:21:45.007518$GPGSV,2,1,07,03,30,252,42,04,41,310,42,16,60,218,45,26,90,099,47*7E
###2023-12-09 13:21:45.009549$GPGSV,2,2,07,28,42,080,45,29,23,052,42,31,63,057,46,,,,*47
###2023-12-09 13:21:45.011920$GLGSV,2,1,06,65,33,323,41,71,30,174,44,72,69,234,46,73,27,048,44*63
###2023-12-09 13:21:45.013661$GLGSV,2,2,06,74,64,002,41,75,39,263,46,,,,,,,,*68
###2023-12-09 13:21:45.015999$GAGSV,1,1,04,04,35,311,40,19,77,186,40,21,81,055,46,27,27,049,41*6A
###2023-12-09 13:21:45.018323$GBGSV,2,1,06,14,35,191,42,24,67,039,49,25,47,270,47,26,20,067,42*61
###2023-12-09 13:21:45.020089$GBGSV,2,2,06,33,51,222,47,35,16,062,42,,,,,,,,*6B
###2023-12-09 13:21:45.021414$GNVTG,324.00,T,,M,3.30,N,6.12,K,A*23
###2023-12-09 13:21:45.023071$GNGST,182144.10,18.000,,,,0.100,0.071,0.170*54
###2023-12-09 13:21:45.024359$GNZDA,182144.10,09,12,2023,00,00*7A
###2023-12-09 13:21:45.024998$GNEBP,,,,,,M*13
###2023-12-09 13:21:45.187230$GNGGA,182144.30,4138.0575339,N,07032.3426296,W,1,24,0.7,13.160,M,-29.744,M,0.0,*5A
###2023-12-09 13:21:45.383895$GNGGA,182144.50,4138.0576915,N,07032.3427509,W,1,24,0.7,13.156,M,-29.744,M,0.0,*5E
###2023-12-09 13:21:45.583984$GNGGA,182144.70,4138.0578426,N,07032.3428731,W,1,24,0.7,13.155,M,-29.744,M,0.0,*5A
###2023-12-09 13:21:45.785348$GNGGA,182144.90,4138.0579893,N,07032.3430023,W,1,24,0.7,13.152,M,-29.744,M,0.0,*5D
###2023-12-09 13:21:45.988632$GNRMC,182145.10,A,4138.0581343,N,07032.3431275,W,3.07,328.09,091223,,,A*52
###2023-12-09 13:21:45.991516$GNGGA,182145.10,4138.0581343,N,07032.3431275,W,1,24,0.7,13.147,M,-29.744,M,0.0,*51
###2023-12-09 13:21:45.993327$GPGSA,A,3,03,04,16,26,28,29,31,,,,,,1.1,0.7,0.9*3B
###2023-12-09 13:21:45.995073$GLGSA,A,3,65,71,72,73,74,75,,,,,,,1.1,0.7,0.9*25
###2023-12-09 13:21:45.996664$GAGSA,A,3,04,19,21,27,,,,,,,,,1.1,0.7,0.9*27
###2023-12-09 13:21:45.998377$GBGSA,A,3,14,24,25,26,33,35,,,,,,,1.1,0.7,0.9*28
###2023-12-09 13:21:46.000715$GPGSV,2,1,07,03,30,252,43,04,41,310,41,16,60,218,45,26,90,099,48*73
###2023-12-09 13:21:46.002776$GPGSV,2,2,07,28,42,080,46,29,23,052,42,31,63,057,47,,,,*45
###2023-12-09 13:21:46.005094$GLGSV,2,1,06,65,33,323,40,71,30,174,45,72,69,234,46,73,27,048,43*64
###2023-12-09 13:21:46.006852$GLGSV,2,2,06,74,64,002,41,75,39,263,46,,,,,,,,*68
###2023-12-09 13:21:46.009175$GAGSV,1,1,04,04,35,311,41,19,77,186,41,21,81,055,46,27,27,049,41*6A
###2023-12-09 13:21:46.011521$GBGSV,2,1,06,14,35,191,42,24,67,039,48,25,47,270,47,26,20,067,43*61
###2023-12-09 13:21:46.013265$GBGSV,2,2,06,33,51,222,47,35,16,062,43,,,,,,,,*6A
###2023-12-09 13:21:46.014601$GNVTG,328.09,T,,M,3.07,N,5.69,K,A*2D
###2023-12-09 13:21:46.016247$GNGST,182145.10,18.000,,,,0.100,0.071,0.170*55
###2023-12-09 13:21:46.017535$GNZDA,182145.10,09,12,2023,00,00*7B
###2023-12-09 13:21:46.018175$GNEBP,,,,,,M*13
###2023-12-09 13:21:46.183174$GNGGA,182145.30,4138.0582839,N,07032.3432414,W,1,24,0.7,13.147,M,-29.744,M,0.0,*54
###2023-12-09 13:21:46.382778$GNGGA,182145.50,4138.0584370,N,07032.3433473,W,1,24,0.7,13.147,M,-29.744,M,0.0,*52
###2023-12-09 13:21:46.588327$GNGGA,182145.70,4138.0585875,N,07032.3434519,W,1,24,0.7,13.145,M,-29.744,M,0.0,*57
###2023-12-09 13:21:46.781591$GNGGA,182145.90,4138.0587373,N,07032.3435609,W,1,24,0.7,13.147,M,-29.744,M,0.0,*57
###2023-12-09 13:21:46.989266$GNRMC,182146.10,A,4138.0588926,N,07032.3436616,W,3.17,336.13,091223,,,A*52
###2023-12-09 13:21:46.992163$GNGGA,182146.10,4138.0588926,N,07032.3436616,W,1,24,0.7,13.152,M,-29.744,M,0.0,*50
###2023-12-09 13:21:46.993959$GPGSA,A,3,03,04,16,26,28,29,31,,,,,,1.1,0.7,0.9*3B
###2023-12-09 13:21:46.995682$GLGSA,A,3,65,71,72,73,74,75,,,,,,,1.1,0.7,0.9*25
###2023-12-09 13:21:46.997264$GAGSA,A,3,04,19,21,27,,,,,,,,,1.1,0.7,0.9*27
###2023-12-09 13:21:46.998990$GBGSA,A,3,14,24,25,26,33,35,,,,,,,1.1,0.7,0.9*28
###2023-12-09 13:21:47.001330$GPGSV,2,1,07,03,30,252,43,04,41,310,42,16,60,218,46,26,90,099,48*73
###2023-12-09 13:21:47.003377$GPGSV,2,2,07,28,42,080,46,29,23,052,42,31,63,057,46,,,,*44
###2023-12-09 13:21:47.005712$GLGSV,2,1,06,65,33,323,40,71,30,174,45,72,69,234,46,73,27,048,42*65
###2023-12-09 13:21:47.007465$GLGSV,2,2,06,74,64,002,41,75,39,263,45,,,,,,,,*6B
###2023-12-09 13:21:47.009787$GAGSV,1,1,04,04,35,311,40,19,77,186,40,21,81,055,46,27,27,049,40*6B
###2023-12-09 13:21:47.012129$GBGSV,2,1,06,14,35,191,41,24,67,039,48,25,47,270,45,26,20,067,42*61
###2023-12-09 13:21:47.013877$GBGSV,2,2,06,33,51,222,47,35,16,062,44,,,,,,,,*6D
###2023-12-09 13:21:47.015219$GNVTG,336.13,T,,M,3.17,N,5.87,K,A*28
###2023-12-09 13:21:47.016864$GNGST,182146.10,18.000,,,,0.100,0.071,0.170*56
###2023-12-09 13:21:47.018155$GNZDA,182146.10,09,12,2023,00,00*78
###2023-12-09 13:21:47.018809$GNEBP,,,,,,M*13
###2023-12-09 13:21:47.184951$GNGGA,182146.30,4138.0590536,N,07032.3437506,W,1,24,0.7,13.156,M,-29.744,M,0.0,*51
###2023-12-09 13:21:47.384585$GNGGA,182146.50,4138.0592207,N,07032.3438379,W,1,24,0.7,13.158,M,-29.744,M,0.0,*5F
###2023-12-09 13:21:47.586620$GNGGA,182146.70,4138.0593917,N,07032.3439238,W,1,24,0.7,13.156,M,-29.744,M,0.0,*5D
###2023-12-09 13:21:47.784573$GNGGA,182146.90,4138.0595680,N,07032.3440019,W,1,24,0.7,13.155,M,-29.744,M,0.0,*58
###2023-12-09 13:21:47.988875$GNRMC,182147.10,A,4138.0597474,N,07032.3440766,W,3.40,342.93,091223,,,A*59
###2023-12-09 13:21:47.991731$GNGGA,182147.10,4138.0597474,N,07032.3440766,W,1,24,0.7,13.152,M,-29.744,M,0.0,*52
###2023-12-09 13:21:47.993518$GPGSA,A,3,03,04,16,26,28,29,31,,,,,,1.1,0.7,0.9*3B
###2023-12-09 13:21:47.995486$GLGSA,A,3,65,71,72,73,74,75,,,,,,,1.1,0.7,0.9*25
###2023-12-09 13:21:47.997078$GAGSA,A,3,04,19,21,27,,,,,,,,,1.1,0.7,0.9*27
###2023-12-09 13:21:47.998805$GBGSA,A,3,14,24,25,26,33,35,,,,,,,1.1,0.7,0.9*28
###2023-12-09 13:21:48.001125$GPGSV,2,1,07,03,30,252,43,04,41,310,44,16,60,218,46,26,90,099,48*75
###2023-12-09 13:21:48.003164$GPGSV,2,2,07,28,42,080,45,29,23,052,42,31,63,057,46,,,,*47
###2023-12-09 13:21:48.005488$GLGSV,2,1,06,65,33,323,40,71,30,174,44,72,69,234,46,73,27,048,42*64
###2023-12-09 13:21:48.007243$GLGSV,2,2,06,74,64,002,41,75,39,263,47,,,,,,,,*69
###2023-12-09 13:21:48.009560$GAGSV,1,1,04,04,36,311,42,19,77,186,40,21,81,055,46,27,27,049,40*6A
###2023-12-09 13:21:48.011895$GBGSV,2,1,06,14,35,191,44,24,67,039,48,25,47,270,47,26,20,067,43*67
###2023-12-09 13:21:48.013642$GBGSV,2,2,06,33,51,222,48,35,16,062,42,,,,,,,,*64
