###2023-12-09 12:57:11.977105$GLGSV,2,2,06,74,70,331,42,75,30,251,45,,,,,,,,*66
###2023-12-09 12:57:11.979477$GAGSV,1,1,04,04,27,312,41,19,85,234,40,21,85,141,46,27,34,048,41*6F
###2023-12-09 12:57:11.981813$GBGSV,2,1,05,14,45,193,43,24,75,020,48,25,39,260,46,26,27,062,43*66
###2023-12-09 12:57:11.983288$GBGSV,2,2,05,33,59,235,47,,,,,,,,,,,,*55
###2023-12-09 12:57:11.984603$GNVTG,188.34,T,,M,3.27,N,6.05,K,A*20
###2023-12-09 12:57:11.986238$GNGST,175711.10,18.000,,,,0.079,0.068,0.160*5C
###2023-12-09 12:57:11.987537$GNZDA,175711.10,09,12,2023,00,00*74
###2023-12-09 12:57:11.988178$GNEBP,,,,,,M*13
###2023-12-09 12:57:12.160332$GNGGA,175711.30,4138.0371817,N,07032.3926651,W,1,24,0.6,13.522,M,-29.745,M,0.0,*51
###2023-12-09 12:57:12.356161$GNGGA,175711.50,4138.0370101,N,07032.3926743,W,1,24,0.6,13.522,M,-29.745,M,0.0,*5A
###2023-12-09 12:57:12.559910$GNGGA,175711.70,4138.0368333,N,07032.3927134,W,1,24,0.6,13.518,M,-29.745,M,0.0,*5C
###2023-12-09 12:57:12.759783$GNGGA,175711.90,4138.0366564,N,07032.3927473,W,1,24,0.6,13.508,M,-29.745,M,0.0,*5F
###2023-12-09 12:57:12.958545$GNRMC,175712.10,A,4138.0364836,N,07032.3927533,W,3.23,175.95,091223,,,A*5C
###2023-12-09 12:57:12.961418$GNGGA,175712.10,4138.0364836,N,07032.3927533,W,1,24,0.6,13.509,M,-29.745,M,0.0,*58
###2023-12-09 12:57:12.963290$GPGSA,A,3,03,04,16,26,28,29,31,32,,,,,1.1,0.6,0.9*3B
###2023-12-09 12:57:12.965001$GLGSA,A,3,65,71,72,73,74,75,,,,,,,1.1,0.6,0.9*24
###2023-12-09 12:57:12.966595$GAGSA,A,3,04,19,21,27,,,,,,,,,1.1,0.6,0.9*26
###2023-12-09 12:57:12.968248$GBGSA,A,3,14,24,25,26,33,,,,,,,,1.1,0.6,0.9*2F
###2023-12-09 12:57:12.970582$GPGSV,2,1,08,03,36,264,45,04,31,311,41,16,47,211,46,26,77,209,47*7D
###2023-12-09 12:57:12.972918$GPGSV,2,2,08,28,51,068,44,29,25,064,43,31,70,031,47,32,21,139,40*71
###2023-12-09 12:57:12.975262$GLGSV,2,1,06,65,22,328,42,71,43,172,42,72,73,277,46,73,37,040,44*6A
###2023-12-09 12:57:12.977014$GLGSV,2,2,06,74,70,331,42,75,30,251,45,,,,,,,,*66
###2023-12-09 12:57:12.979432$GAGSV,1,1,04,04,27,312,41,19,85,234,40,21,85,141,45,27,34,048,42*6F
###2023-12-09 12:57:12.981788$GBGSV,2,1,05,14,45,193,43,24,75,020,48,25,39,260,46,26,27,062,43*66
###2023-12-09 12:57:12.983266$GBGSV,2,2,05,33,59,235,49,,,,,,,,,,,,*5B
###2023-12-09 12:57:12.984590$GNVTG,175.95,T,,M,3.23,N,5.98,K,A*2A
###2023-12-09 12:57:12.986237$GNGST,175712.10,18.000,,,,0.079,0.068,0.160*5F
###2023-12-09 12:57:12.987543$GNZDA,175712.10,09,12,2023,00,00*77
###2023-12-09 12:57:12.988183$GNEBP,,,,,,M*13
###2023-12-09 12:57:13.157026$GNGGA,175712.30,4138.0363137,N,07032.3927214,W,1,24,0.6,13.489,M,-29.745,M,0.0,*5E
###2023-12-09 12:57:13.357770$GNGGA,175712.50,4138.0361518,N,07032.3926913,W,1,24,0.6,13.472,M,-29.745,M,0.0,*5A
###2023-12-09 12:57:13.559038$GNGGA,175712.70,4138.0359789,N,07032.3926884,W,1,24,0.6,13.493,M,-29.745,M,0.0,*59
###2023-12-09 12:57:13.763902$GNGGA,175712.90,4138.0358049,N,07032.3926728,W,1,24,0.6,13.483,M,-29.745,M,0.0,*55
###2023-12-09 12:57:13.959607$GNRMC,175713.10,A,4138.0356515,N,07032.3926159,W,2.95,157.16,091223,,,A*5E
###2023-12-09 12:57:13.962456$GNGGA,175713.10,4138.0356515,N,07032.3926159,W,1,24,0.6,13.472,M,-29.745,M,0.0,*50
###2023-12-09 12:57:13.964327$GPGSA,A,3,03,04,16,26,28,29,31,32,,,,,1.1,0.6,0.9*3B
###2023-12-09 12:57:13.966045$GLGSA,A,3,65,71,72,73,74,75,,,,,,,1.1,0.6,0.9*24
###2023-12-09 12:57:13.967641$GAGSA,A,3,04,19,21,27,,,,,,,,,1.1,0.6,0.9*26
###2023-12-09 12:57:13.969278$GBGSA,A,3,14,24,25,26,33,,,,,,,,1.1,0.6,0.9*2F
###2023-12-09 12:57:13.971616$GPGSV,2,1,08,03,36,264,46,04,31,311,43,16,47,211,45,26,77,209,47*7F
###2023-12-09 12:57:13.973955$GPGSV,2,2,08,28,51,068,45,29,25,064,43,31,70,031,46,32,21,139,41*70
###2023-12-09 12:57:13.976297$GLGSV,2,1,06,65,22,328,43,71,43,172,45,72,73,277,45,73,37,040,45*6E
###2023-12-09 12:57:13.978037$GLGSV,2,2,06,74,70,331,42,75,30,251,46,,,,,,,,*65
###2023-12-09 12:57:13.980367$GAGSV,1,1,04,04,27,312,41,19,85,234,40,21,85,141,45,27,34,048,42*6F
###2023-12-09 12:57:13.982699$GBGSV,2,1,05,14,45,193,45,24,75,020,48,25,39,260,48,26,27,062,44*69
###2023-12-09 12:57:13.984158$GBGSV,2,2,05,33,59,235,47,,,,,,,,,,,,*55
###2023-12-09 12:57:13.985479$GNVTG,157.16,T,,M,2.95,N,5.47,K,A*2F
###2023-12-09 12:57:13.987137$GNGST,175713.10,18.000,,,,0.080,0.068,0.160*58
###2023-12-09 12:57:13.988434$GNZDA,175713.10,09,12,2023,00,00*76
###2023-12-09 12:57:13.989075$GNEBP,,,,,,M*13
###2023-12-09 12:57:14.156197$GNGGA,175713.30,4138.0355034,N,07032.3925433,W,1,24,0.6,13.475,M,-29.745,M,0.0,*5A
###2023-12-09 12:57:14.362382$GNGGA,175713.50,4138.0353469,N,07032.3924788,W,1,24,0.6,13.466,M,-29.745,M,0.0,*56
###2023-12-09 12:57:14.557959$GNGGA,175713.70,4138.0351871,N,07032.3924216,W,1,23,0.6,13.464,M,-29.745,M,0.0,*54
###2023-12-09 12:57:14.766227$GNGGA,175713.90,4138.0350330,N,07032.3923507,W,1,24,0.6,13.465,M,-29.745,M,0.0,*53
###2023-12-09 12:57:14.959166$GNRMC,175714.10,A,4138.0348917,N,07032.3922518,W,2.76,147.95,091223,,,A*5A
###2023-12-09 12:57:14.962030$GNGGA,175714.10,4138.0348917,N,07032.3922518,W,1,24,0.6,13.458,M,-29.745,M,0.0,*5B
###2023-12-09 12:57:14.963905$GPGSA,A,3,03,04,16,26,28,29,31,32,,,,,1.1,0.6,0.9*3B
###2023-12-09 12:57:14.965630$GLGSA,A,3,65,71,72,73,74,75,,,,,,,1.1,0.6,0.9*24
###2023-12-09 12:57:14.967227$GAGSA,A,3,04,19,21,27,,,,,,,,,1.1,0.6,0.9*26
###2023-12-09 12:57:14.968884$GBGSA,A,3,14,24,25,26,33,,,,,,,,1.1,0.6,0.9*2F
###2023-12-09 12:57:14.971237$GPGSV,2,1,08,03,36,264,44,04,31,311,43,16,47,211,45,26,77,209,47*7D
###2023-12-09 12:57:14.973576$GPGSV,2,2,08,28,51,068,44,29,25,064,43,31,70,031,45,32,21,139,39*7D
###2023-12-09 12:57:14.975926$GLGSV,2,1,06,65,22,328,43,71,43,172,45,72,73,277,45,73,37,040,46*6D
###2023-12-09 12:57:14.977674$GLGSV,2,2,06,74,70,331,43,75,30,251,45,,,,,,,,*67
###2023-12-09 12:57:14.980017$GAGSV,1,1,04,04,27,312,40,19,85,234,40,21,85,141,45,27,34,048,43*6F
###2023-12-09 12:57:14.982351$GBGSV,2,1,05,14,45,193,45,24,75,020,49,25,39,260,47,26,27,062,44*67
###2023-12-09 12:57:14.983820$GBGSV,2,2,05,33,59,235,49,,,,,,,,,,,,*5B
###2023-12-09 12:57:14.985149$GNVTG,147.95,T,,M,2.76,N,5.11,K,A*2B
###2023-12-09 12:57:14.986810$GNGST,175714.10,18.000,,,,0.081,0.068,0.160*5E
###2023-12-09 12:57:14.988101$GNZDA,175714.10,09,12,2023,00,00*71
###2023-12-09 12:57:14.988741$GNEBP,,,,,,M*13
###2023-12-09 12:57:15.159026$GNGGA,175714.30,4138.0347575,N,07032.3921408,W,1,24,0.6,13.442,M,-29.745,M,0.0,*56
###2023-12-09 12:57:15.358340$GNGGA,175714.50,4138.0346176,N,07032.3920433,W,1,24,0.6,13.439,M,-29.745,M,0.0,*53
###2023-12-09 12:57:15.558349$GNGGA,175714.70,4138.0344734,N,07032.3919431,W,1,24,0.6,13.437,M,-29.745,M,0.0,*55
###2023-12-09 12:57:15.758451$GNGGA,175714.90,4138.0343489,N,07032.3918266,W,1,24,0.6,13.435,M,-29.745,M,0.0,*5E
###2023-12-09 12:57:15.958779$GNRMC,175715.10,A,4138.0342408,N,07032.3916949,W,2.59,135.50,091223,,,A*5C
###2023-12-09 12:57:15.961656$GNGGA,175715.10,4138.0342408,N,07032.3916949,W,1,24,0.6,13.438,M,-29.745,M,0.0,*5A
###2023-12-09 12:57:15.963538$GPGSA,A,3,03,04,16,26,28,29,31,32,,,,,1.1,0.6,0.9*3B
###2023-12-09 12:57:15.965258$GLGSA,A,3,65,71,72,73,74,75,,,,,,,1.1,0.6,0.9*24
###2023-12-09 12:57:15.966854$GAGSA,A,3,04,19,21,27,,,,,,,,,1.1,0.6,0.9*26
###2023-12-09 12:57:15.968501$GBGSA,A,3,14,24,25,26,33,,,,,,,,1.1,0.6,0.9*2F
###2023-12-09 12:57:15.970834$GPGSV,2,1,08,03,36,264,43,04,31,311,42,16,47,211,46,26,77,209,48*77
###2023-12-09 12:57:15.973164$GPGSV,2,2,08,28,51,068,44,29,25,064,43,31,70,031,46,32,21,139,40*70
###2023-12-09 12:57:15.975517$GLGSV,2,1,06,65,22,328,41,71,43,172,46,72,73,277,46,73,37,040,46*6F
###2023-12-09 12:57:15.977283$GLGSV,2,2,06,74,70,331,42,75,30,251,45,,,,,,,,*66
###2023-12-09 12:57:15.979631$GAGSV,1,1,04,04,27,312,41,19,85,234,40,21,85,141,46,27,34,048,43*6D
###2023-12-09 12:57:15.981965$GBGSV,2,1,05,14,45,193,43,24,75,020,47,25,39,260,44,26,27,062,43*6B
###2023-12-09 12:57:15.983436$GBGSV,2,2,05,33,59,235,47,,,,,,,,,,,,*55
###2023-12-09 12:57:15.984763$GNVTG,135.50,T,,M,2.59,N,4.79,K,A*25
###2023-12-09 12:57:15.986411$GNGST,175715.10,18.000,,,,0.081,0.068,0.160*5F
###2023-12-09 12:57:15.987712$GNZDA,175715.10,09,12,2023,00,00*70
###2023-12-09 12:57:15.988356$GNEBP,,,,,,M*13
###2023-12-09 12:57:16.157743$GNGGA,175715.30,4138.0341331,N,07032.3915641,W,1,24,0.6,13.442,M,-29.745,M,0.0,*5F
###2023-12-09 12:57:16.359339$GNGGA,175715.50,4138.0340206,N,07032.3914346,W,1,24,0.6,13.444,M,-29.745,M,0.0,*58
###2023-12-09 12:57:16.558330$GNGGA,175715.70,4138.0339186,N,07032.3913001,W,1,24,0.6,13.439,M,-29.745,M,0.0,*52
###2023-12-09 12:57:16.758523$GNGGA,175715.90,4138.0338277,N,07032.3911613,W,1,24,0.6,13.440,M,-29.745,M,0.0,*59
###2023-12-09 12:57:16.959496$GNRMC,175716.10,A,4138.0337513,N,07032.3910125,W,2.37,122.10,091223,,,A*58
###2023-12-09 12:57:16.962358$GNGGA,175716.10,4138.0337513,N,07032.3910125,W,1,24,0.6,13.440,M,-29.745,M,0.0,*5B
###2023-12-09 12:57:16.964237$GPGSA,A,3,03,04,16,26,28,29,31,32,,,,,1.1,0.6,0.9*3B
###2023-12-09 12:57:16.965955$GLGSA,A,3,65,71,72,73,74,75,,,,,,,1.1,0.6,0.9*24
