###2023-12-09 13:32:45.024976$GNEBP,,,,,,M*13
###2023-12-09 13:32:45.192591$GNGGA,183244.30,4138.0323487,N,07032.4141956,W,1,22,0.8,13.795,M,-29.746,M,0.0,*5C
###2023-12-09 13:32:45.387848$GNGGA,183244.50,4138.0323124,N,07032.4140674,W,1,22,0.8,13.800,M,-29.746,M,0.0,*5B
###2023-12-09 13:32:45.589791$GNGGA,183244.70,4138.0322758,N,07032.4139319,W,1,22,0.8,13.793,M,-29.746,M,0.0,*50
###2023-12-09 13:32:45.790000$GNGGA,183244.90,4138.0322360,N,07032.4137994,W,1,22,0.8,13.792,M,-29.746,M,0.0,*51
###2023-12-09 13:32:45.993345$GNRMC,183245.10,A,4138.0321972,N,07032.4136604,W,2.00,106.81,091223,,,A*5B
###2023-12-09 13:32:45.996252$GNGGA,183245.10,4138.0321972,N,07032.4136604,W,1,21,0.9,13.795,M,-29.746,M,0.0,*50
###2023-12-09 13:32:45.997976$GPGSA,A,3,04,16,26,28,29,31,,,,,,,1.6,0.9,1.2*3B
###2023-12-09 13:32:45.999704$GLGSA,A,3,65,72,73,74,75,83,,,,,,,1.6,0.9,1.2*2B
###2023-12-09 13:32:46.001285$GAGSA,A,3,04,19,21,27,,,,,,,,,1.6,0.9,1.2*24
###2023-12-09 13:32:46.002960$GBGSA,A,3,24,25,26,33,35,,,,,,,,1.6,0.9,1.2*2E
###2023-12-09 13:32:46.005283$GPGSV,2,1,06,04,45,308,45,16,65,221,47,26,85,040,48,28,39,084,41*7D
###2023-12-09 13:32:46.007035$GPGSV,2,2,06,29,21,048,42,31,60,064,45,,,,,,,,*7A
###2023-12-09 13:32:46.009349$GLGSV,2,1,06,65,38,319,44,72,63,222,46,73,23,052,41,74,61,011,43*67
###2023-12-09 13:32:46.011092$GLGSV,2,2,06,75,42,269,47,83,15,049,36,,,,,,,,*6E
###2023-12-09 13:32:46.013408$GAGSV,1,1,04,04,39,310,44,19,73,182,41,21,77,047,45,27,23,050,40*66
###2023-12-09 13:32:46.015735$GBGSV,2,1,05,24,63,045,48,25,50,275,46,26,16,070,41,33,46,217,46*66
###2023-12-09 13:32:46.017183$GBGSV,2,2,05,35,16,057,42,,,,,,,,,,,,*5B
###2023-12-09 13:32:46.018497$GNVTG,106.81,T,,M,2.00,N,3.71,K,A*2A
###2023-12-09 13:32:46.020118$GNGST,183245.10,5.900,,,,0.140,0.080,0.220*6E
###2023-12-09 13:32:46.021407$GNZDA,183245.10,09,12,2023,00,00*79
###2023-12-09 13:32:46.022042$GNEBP,,,,,,M*13
###2023-12-09 13:32:46.191042$GNGGA,183245.30,4138.0321710,N,07032.4135224,W,1,23,0.8,13.791,M,-29.746,M,0.0,*5A
###2023-12-09 13:32:46.391970$GNGGA,183245.50,4138.0321509,N,07032.4133916,W,1,22,0.8,13.790,M,-29.746,M,0.0,*5A
###2023-12-09 13:32:46.589321$GNGGA,183245.70,4138.0321296,N,07032.4132509,W,1,21,0.8,13.785,M,-29.746,M,0.0,*5D
###2023-12-09 13:32:46.791046$GNGGA,183245.90,4138.0321143,N,07032.4131107,W,1,21,0.8,13.781,M,-29.746,M,0.0,*55
###2023-12-09 13:32:46.993872$GNRMC,183246.10,A,4138.0321014,N,07032.4129751,W,1.98,97.82,091223,,,A*66
###2023-12-09 13:32:46.996773$GNGGA,183246.10,4138.0321014,N,07032.4129751,W,1,22,0.8,13.772,M,-29.746,M,0.0,*5E
###2023-12-09 13:32:46.998590$GPGSA,A,3,03,04,16,26,28,29,31,,,,,,1.2,0.8,0.9*37
###2023-12-09 13:32:47.000249$GLGSA,A,3,65,72,73,74,75,,,,,,,,1.2,0.8,0.9*2F
###2023-12-09 13:32:47.001836$GAGSA,A,3,04,19,21,27,,,,,,,,,1.2,0.8,0.9*2B
###2023-12-09 13:32:47.003505$GBGSA,A,3,24,25,26,33,35,,,,,,,,1.2,0.8,0.9*21
###2023-12-09 13:32:47.005847$GPGSV,2,1,07,03,27,247,37,04,45,308,45,16,65,221,47,26,85,040,48*76
###2023-12-09 13:32:47.007916$GPGSV,2,2,07,28,39,084,42,29,21,048,40,31,60,064,45,,,,*43
###2023-12-09 13:32:47.010270$GLGSV,2,1,05,65,38,319,42,72,63,222,46,73,23,052,39,74,60,013,42*6F
###2023-12-09 13:32:47.011749$GLGSV,2,2,05,75,42,269,45,,,,,,,,,,,,*58
###2023-12-09 13:32:47.014091$GAGSV,1,1,04,04,39,310,42,19,73,182,41,21,77,047,46,27,23,050,39*6D
###2023-12-09 13:32:47.016444$GBGSV,2,1,05,24,63,045,46,25,50,275,45,26,16,070,40,33,46,217,44*68
###2023-12-09 13:32:47.017905$GBGSV,2,2,05,35,16,057,41,,,,,,,,,,,,*58
###2023-12-09 13:32:47.019212$GNVTG,97.82,T,,M,1.98,N,3.67,K,A*15
###2023-12-09 13:32:47.020834$GNGST,183246.10,6.200,,,,0.140,0.080,0.220*65
###2023-12-09 13:32:47.022132$GNZDA,183246.10,09,12,2023,00,00*7A
###2023-12-09 13:32:47.022783$GNEBP,,,,,,M*13
###2023-12-09 13:32:47.189993$GNGGA,183246.30,4138.0320964,N,07032.4128365,W,1,22,0.8,13.780,M,-29.746,M,0.0,*5C
###2023-12-09 13:32:47.390098$GNGGA,183246.50,4138.0320967,N,07032.4126956,W,1,20,0.9,13.780,M,-29.746,M,0.0,*5E
###2023-12-09 13:32:47.588505$GNGGA,183246.70,4138.0320994,N,07032.4125555,W,1,20,0.9,13.786,M,-29.746,M,0.0,*5A
###2023-12-09 13:32:47.789664$GNGGA,183246.90,4138.0321033,N,07032.4124108,W,1,20,0.9,13.779,M,-29.746,M,0.0,*5C
###2023-12-09 13:32:47.989674$GNRMC,183247.10,A,4138.0321112,N,07032.4122656,W,1.71,81.73,091223,,,A*63
###2023-12-09 13:32:47.992559$GNGGA,183247.10,4138.0321112,N,07032.4122656,W,1,20,0.9,13.775,M,-29.746,M,0.0,*51
###2023-12-09 13:32:47.994285$GPGSA,A,3,04,16,26,28,29,31,,,,,,,1.6,0.9,1.2*3B
###2023-12-09 13:32:47.995950$GLGSA,A,3,65,72,73,74,75,,,,,,,,1.6,0.9,1.2*20
###2023-12-09 13:32:47.997536$GAGSA,A,3,04,19,21,27,,,,,,,,,1.6,0.9,1.2*24
###2023-12-09 13:32:47.999197$GBGSA,A,3,24,25,26,33,35,,,,,,,,1.6,0.9,1.2*2E
###2023-12-09 13:32:48.001517$GPGSV,2,1,06,04,45,308,46,16,65,221,47,26,85,040,47,28,39,084,41*71
###2023-12-09 13:32:48.003281$GPGSV,2,2,06,29,21,048,39,31,60,064,45,,,,,,,,*76
###2023-12-09 13:32:48.005610$GLGSV,2,1,05,65,38,319,43,72,63,222,46,73,23,052,41,74,60,013,41*62
###2023-12-09 13:32:48.007074$GLGSV,2,2,05,75,43,271,48,,,,,,,,,,,,*5D
###2023-12-09 13:32:48.009390$GAGSV,1,1,04,04,39,310,43,19,73,182,41,21,77,047,46,27,23,050,39*6C
###2023-12-09 13:32:48.011732$GBGSV,2,1,05,24,63,045,48,25,50,275,47,26,16,070,42,33,46,217,46*64
###2023-12-09 13:32:48.013187$GBGSV,2,2,05,35,16,057,42,,,,,,,,,,,,*5B
###2023-12-09 13:32:48.014472$GNVTG,81.73,T,,M,1.71,N,3.17,K,A*1C
###2023-12-09 13:32:48.016098$GNGST,183247.10,5.300,,,,0.140,0.080,0.230*67
###2023-12-09 13:32:48.017389$GNZDA,183247.10,09,12,2023,00,00*7B
###2023-12-09 13:32:48.018027$GNEBP,,,,,,M*13
###2023-12-09 13:32:48.190284$GNGGA,183247.30,4138.0321296,N,07032.4121271,W,1,21,0.8,13.777,M,-29.746,M,0.0,*5C
###2023-12-09 13:32:48.388944$GNGGA,183247.50,4138.0321514,N,07032.4119844,W,1,20,0.9,13.772,M,-29.746,M,0.0,*55
###2023-12-09 13:32:48.593059$GNGGA,183247.70,4138.0321756,N,07032.4118439,W,1,20,0.9,13.772,M,-29.746,M,0.0,*54
###2023-12-09 13:32:48.795112$GNGGA,183247.90,4138.0322055,N,07032.4117058,W,1,20,0.9,13.780,M,-29.746,M,0.0,*5C
###2023-12-09 13:32:48.990553$GNRMC,183248.10,A,4138.0322466,N,07032.4115629,W,2.14,73.41,091223,,,A*69
###2023-12-09 13:32:48.993421$GNGGA,183248.10,4138.0322466,N,07032.4115629,W,1,20,0.9,13.783,M,-29.746,M,0.0,*5E
###2023-12-09 13:32:48.995148$GPGSA,A,3,04,16,26,28,29,31,,,,,,,1.6,0.9,1.2*3B
###2023-12-09 13:32:48.996792$GLGSA,A,3,65,72,73,74,75,,,,,,,,1.6,0.9,1.2*20
###2023-12-09 13:32:48.998370$GAGSA,A,3,04,19,21,27,,,,,,,,,1.6,0.9,1.2*24
###2023-12-09 13:32:49.000018$GBGSA,A,3,24,25,26,33,35,,,,,,,,1.6,0.9,1.2*2E
###2023-12-09 13:32:49.002328$GPGSV,2,1,06,04,45,308,46,16,65,221,46,26,85,040,48,28,39,084,42*7C
###2023-12-09 13:32:49.004077$GPGSV,2,2,06,29,21,048,39,31,60,064,46,,,,,,,,*75
###2023-12-09 13:32:49.006387$GLGSV,2,1,05,65,38,319,44,72,63,222,47,73,23,052,39,74,60,013,41*6B
###2023-12-09 13:32:49.007847$GLGSV,2,2,05,75,43,271,47,,,,,,,,,,,,*52
###2023-12-09 13:32:49.010158$GAGSV,1,1,04,04,39,310,44,19,73,182,41,21,77,047,46,27,23,050,37*65
###2023-12-09 13:32:49.012485$GBGSV,2,1,05,24,63,045,47,25,50,275,46,26,16,070,42,33,46,217,45*69
###2023-12-09 13:32:49.013930$GBGSV,2,2,05,35,16,057,42,,,,,,,,,,,,*5B
###2023-12-09 13:32:49.015222$GNVTG,73.41,T,,M,2.14,N,3.96,K,A*19
###2023-12-09 13:32:49.016824$GNGST,183248.10,6.000,,,,0.140,0.081,0.230*69
###2023-12-09 13:32:49.018107$GNZDA,183248.10,09,12,2023,00,00*74
###2023-12-09 13:32:49.018750$GNEBP,,,,,,M*13
###2023-12-09 13:32:49.197375$GNGGA,183248.30,4138.0322862,N,07032.4114293,W,1,21,0.8,13.779,M,-29.746,M,0.0,*55
###2023-12-09 13:32:49.393526$GNGGA,183248.50,4138.0323464,N,07032.4112982,W,1,20,0.9,13.793,M,-29.746,M,0.0,*51
###2023-12-09 13:32:49.591211$GNGGA,183248.70,4138.0323958,N,07032.4111628,W,1,22,0.7,13.786,M,-29.746,M,0.0,*55
###2023-12-09 13:32:49.790726$GNGGA,183248.90,4138.0324573,N,07032.4110407,W,1,22,0.8,13.796,M,-29.746,M,0.0,*59
###2023-12-09 13:32:49.992450$GNRMC,183249.10,A,4138.0325235,N,07032.4109093,W,2.18,62.25,091223,,,A*6B
###2023-12-09 13:32:49.995317$GNGGA,183249.10,4138.0325235,N,07032.4109093,W,1,22,0.8,13.792,M,-29.746,M,0.0,*51
###2023-12-09 13:32:49.997336$GPGSA,A,3,03,04,16,26,28,29,31,,,,,,1.2,0.8,0.9*37
###2023-12-09 13:32:49.999004$GLGSA,A,3,65,72,73,74,75,,,,,,,,1.2,0.8,0.9*2F
###2023-12-09 13:32:50.000586$GAGSA,A,3,04,19,21,27,,,,,,,,,1.2,0.8,0.9*2B
###2023-12-09 13:32:50.002219$GBGSA,A,3,24,25,26,33,35,,,,,,,,1.2,0.8,0.9*21
###2023-12-09 13:32:50.004538$GPGSV,2,1,07,03,27,247,39,04,45,308,46,16,65,221,46,26,85,040,48*7A
###2023-12-09 13:32:50.006570$GPGSV,2,2,07,28,39,084,43,29,21,048,39,31,60,064,46,,,,*4F
###2023-12-09 13:32:50.008883$GLGSV,2,1,05,65,38,319,43,72,63,222,46,73,23,052,40,74,60,013,41*63
###2023-12-09 13:32:50.010325$GLGSV,2,2,05,75,43,271,46,,,,,,,,,,,,*53
###2023-12-09 13:32:50.012643$GAGSV,1,1,04,04,39,310,44,19,73,182,41,21,77,047,46,27,23,050,37*65
