###2023-12-09 13:14:20.985873$GNRMC,181420.10,A,4138.0437612,N,07032.3237562,W,3.48,208.27,091223,,,A*5F
###2023-12-09 13:14:20.988783$GNGGA,181420.10,4138.0437612,N,07032.3237562,W,1,24,0.7,13.088,M,-29.744,M,0.0,*5A
###2023-12-09 13:14:20.990607$GPGSA,A,3,03,04,16,26,28,29,31,,,,,,1.2,0.7,1.0*30
###2023-12-09 13:14:20.992338$GLGSA,A,3,65,71,72,73,74,75,,,,,,,1.2,0.7,1.0*2E
###2023-12-09 13:14:20.993925$GAGSA,A,3,04,19,21,27,,,,,,,,,1.2,0.7,1.0*2C
###2023-12-09 13:14:20.995658$GBGSA,A,3,14,24,25,26,33,35,,,,,,,1.2,0.7,1.0*23
###2023-12-09 13:14:20.998003$GPGSV,2,1,07,03,32,255,41,04,38,311,45,16,56,215,44,26,86,209,48*7A
###2023-12-09 13:14:21.000067$GPGSV,2,2,07,28,45,076,44,29,24,055,42,31,65,050,46,,,,*49
###2023-12-09 13:14:21.002412$GLGSV,2,1,06,65,29,325,44,71,34,174,44,72,71,246,45,73,31,045,45*6B
###2023-12-09 13:14:21.004178$GLGSV,2,2,06,74,66,353,43,75,36,259,46,,,,,,,,*69
###2023-12-09 13:14:21.006518$GAGSV,1,1,04,04,33,312,44,19,80,192,40,21,84,066,46,27,29,048,41*6C
###2023-12-09 13:14:21.008873$GBGSV,2,1,06,14,38,192,42,24,70,034,48,25,44,267,46,26,22,065,43*60
###2023-12-09 13:14:21.010649$GBGSV,2,2,06,33,53,226,46,35,15,065,43,,,,,,,,*69
###2023-12-09 13:14:21.011979$GNVTG,208.27,T,,M,3.48,N,6.44,K,A*25
###2023-12-09 13:14:21.013636$GNGST,181420.10,18.000,,,,0.098,0.074,0.170*55
###2023-12-09 13:14:21.014973$GNZDA,181420.10,09,12,2023,00,00*7E
###2023-12-09 13:14:21.015615$GNEBP,,,,,,M*13
###2023-12-09 13:14:21.177929$GNGGA,181420.30,4138.0435911,N,07032.3238643,W,1,24,0.7,13.073,M,-29.744,M,0.0,*5D
###2023-12-09 13:14:21.374976$GNGGA,181420.50,4138.0434274,N,07032.3240178,W,1,24,0.7,13.100,M,-29.744,M,0.0,*57
###2023-12-09 13:14:21.575379$GNGGA,181420.70,4138.0432654,N,07032.3241948,W,1,24,0.7,13.099,M,-29.744,M,0.0,*5E
###2023-12-09 13:14:21.775770$GNGGA,181420.90,4138.0430856,N,07032.3243014,W,1,24,0.7,13.061,M,-29.744,M,0.0,*5B
###2023-12-09 13:14:21.978270$GNRMC,181421.10,A,4138.0429040,N,07032.3243740,W,3.52,201.54,091223,,,A*57
###2023-12-09 13:14:21.981152$GNGGA,181421.10,4138.0429040,N,07032.3243740,W,1,24,0.7,13.062,M,-29.744,M,0.0,*50
###2023-12-09 13:14:21.982961$GPGSA,A,3,03,04,16,26,28,29,31,,,,,,1.2,0.7,1.0*30
###2023-12-09 13:14:21.984677$GLGSA,A,3,65,71,72,73,74,75,,,,,,,1.2,0.7,1.0*2E
###2023-12-09 13:14:21.986259$GAGSA,A,3,04,19,21,27,,,,,,,,,1.2,0.7,1.0*2C
###2023-12-09 13:14:21.987985$GBGSA,A,3,14,24,25,26,33,35,,,,,,,1.2,0.7,1.0*23
###2023-12-09 13:14:21.990312$GPGSV,2,1,07,03,32,255,41,04,38,311,44,16,56,215,44,26,86,209,48*7B
###2023-12-09 13:14:21.992375$GPGSV,2,2,07,28,45,076,46,29,24,055,43,31,65,050,48,,,,*44
###2023-12-09 13:14:21.994731$GLGSV,2,1,06,65,29,325,40,71,34,174,41,72,71,246,45,73,31,045,45*6A
###2023-12-09 13:14:21.996491$GLGSV,2,2,06,74,66,353,43,75,36,259,45,,,,,,,,*6A
###2023-12-09 13:14:21.998829$GAGSV,1,1,04,04,33,312,43,19,80,192,40,21,84,066,46,27,29,048,42*68
###2023-12-09 13:14:22.001173$GBGSV,2,1,06,14,37,191,42,24,70,034,48,25,44,267,44,26,22,065,43*6E
###2023-12-09 13:14:22.002946$GBGSV,2,2,06,33,53,226,45,35,15,065,43,,,,,,,,*6A
###2023-12-09 13:14:22.004281$GNVTG,201.54,T,,M,3.52,N,6.52,K,A*24
###2023-12-09 13:14:22.005930$GNGST,181421.10,18.000,,,,0.098,0.073,0.170*53
###2023-12-09 13:14:22.007272$GNZDA,181421.10,09,12,2023,00,00*7F
###2023-12-09 13:14:22.007918$GNEBP,,,,,,M*13
###2023-12-09 13:14:22.175052$GNGGA,181421.30,4138.0427248,N,07032.3244881,W,1,24,0.7,13.085,M,-29.744,M,0.0,*5A
###2023-12-09 13:14:22.375627$GNGGA,181421.50,4138.0425478,N,07032.3246119,W,1,24,0.7,13.084,M,-29.744,M,0.0,*50
###2023-12-09 13:14:22.575749$GNGGA,181421.70,4138.0423613,N,07032.3246890,W,1,24,0.7,13.068,M,-29.744,M,0.0,*51
###2023-12-09 13:14:22.776882$GNGGA,181421.90,4138.0421745,N,07032.3247386,W,1,24,0.7,13.054,M,-29.744,M,0.0,*5D
###2023-12-09 13:14:22.978063$GNRMC,181422.10,A,4138.0419870,N,07032.3248074,W,3.54,198.33,091223,,,A*53
###2023-12-09 13:14:22.980947$GNGGA,181422.10,4138.0419870,N,07032.3248074,W,1,24,0.7,13.067,M,-29.744,M,0.0,*55
###2023-12-09 13:14:22.982750$GPGSA,A,3,03,04,16,26,28,29,31,,,,,,1.2,0.7,1.0*30
###2023-12-09 13:14:22.984469$GLGSA,A,3,65,71,72,73,74,75,,,,,,,1.2,0.7,1.0*2E
###2023-12-09 13:14:22.986054$GAGSA,A,3,04,19,21,27,,,,,,,,,1.2,0.7,1.0*2C
###2023-12-09 13:14:22.987777$GBGSA,A,3,14,24,25,26,33,35,,,,,,,1.2,0.7,1.0*23
###2023-12-09 13:14:22.990108$GPGSV,2,1,07,03,32,255,41,04,38,311,44,16,56,215,44,26,86,209,48*7B
###2023-12-09 13:14:22.992156$GPGSV,2,2,07,28,45,076,46,29,24,055,42,31,65,050,47,,,,*4A
###2023-12-09 13:14:22.994482$GLGSV,2,1,06,65,29,325,40,71,34,174,41,72,71,246,45,73,31,045,44*6B
###2023-12-09 13:14:22.996246$GLGSV,2,2,06,74,66,353,42,75,36,259,45,,,,,,,,*6B
###2023-12-09 13:14:22.998581$GAGSV,1,1,04,04,33,312,41,19,80,192,40,21,84,066,46,27,29,048,40*68
###2023-12-09 13:14:23.000919$GBGSV,2,1,06,14,37,191,42,24,70,034,49,25,44,267,44,26,22,065,44*68
###2023-12-09 13:14:23.002679$GBGSV,2,2,06,33,53,226,44,35,15,065,45,,,,,,,,*6D
###2023-12-09 13:14:23.004009$GNVTG,198.33,T,,M,3.54,N,6.55,K,A*27
###2023-12-09 13:14:23.005661$GNGST,181422.10,18.000,,,,0.099,0.073,0.170*51
###2023-12-09 13:14:23.006998$GNZDA,181422.10,09,12,2023,00,00*7C
###2023-12-09 13:14:23.007645$GNEBP,,,,,,M*13
###2023-12-09 13:14:23.174867$GNGGA,181422.30,4138.0418011,N,07032.3248851,W,1,24,0.7,13.080,M,-29.744,M,0.0,*5F
###2023-12-09 13:14:23.375092$GNGGA,181422.50,4138.0416099,N,07032.3249383,W,1,24,0.7,13.066,M,-29.744,M,0.0,*5A
###2023-12-09 13:14:23.575705$GNGGA,181422.70,4138.0414225,N,07032.3249490,W,1,24,0.7,13.049,M,-29.744,M,0.0,*57
###2023-12-09 13:14:23.774698$GNGGA,181422.90,4138.0412400,N,07032.3249606,W,1,24,0.7,13.059,M,-29.744,M,0.0,*52
###2023-12-09 13:14:23.979106$GNRMC,181423.10,A,4138.0410480,N,07032.3250074,W,3.54,190.97,091223,,,A*57
###2023-12-09 13:14:23.981959$GNGGA,181423.10,4138.0410480,N,07032.3250074,W,1,24,0.7,13.078,M,-29.744,M,0.0,*59
###2023-12-09 13:14:23.983760$GPGSA,A,3,03,04,16,26,28,29,31,,,,,,1.2,0.7,1.0*30
###2023-12-09 13:14:23.985476$GLGSA,A,3,65,71,72,73,74,75,,,,,,,1.2,0.7,1.0*2E
###2023-12-09 13:14:23.987066$GAGSA,A,3,04,19,21,27,,,,,,,,,1.2,0.7,1.0*2C
###2023-12-09 13:14:23.988775$GBGSA,A,3,14,24,25,26,33,35,,,,,,,1.2,0.7,1.0*23
###2023-12-09 13:14:23.991111$GPGSV,2,1,07,03,32,255,42,04,38,311,42,16,56,215,45,26,86,209,48*7F
###2023-12-09 13:14:23.993145$GPGSV,2,2,07,28,45,076,45,29,24,055,42,31,65,050,47,,,,*49
###2023-12-09 13:14:23.995489$GLGSV,2,1,06,65,29,325,43,71,34,174,42,72,71,246,45,73,31,045,44*6B
###2023-12-09 13:14:23.997238$GLGSV,2,2,06,74,66,353,43,75,36,259,45,,,,,,,,*6A
###2023-12-09 13:14:23.999568$GAGSV,1,1,04,04,33,312,42,19,80,192,40,21,84,066,46,27,29,048,42*69
###2023-12-09 13:14:24.001902$GBGSV,2,1,06,14,37,191,42,24,70,034,49,25,44,267,48,26,22,065,44*64
###2023-12-09 13:14:24.003667$GBGSV,2,2,06,33,53,226,47,35,15,065,44,,,,,,,,*6F
###2023-12-09 13:14:24.005028$GNVTG,190.97,T,,M,3.54,N,6.55,K,A*21
###2023-12-09 13:14:24.006696$GNGST,181423.10,18.000,,,,0.100,0.073,0.170*51
###2023-12-09 13:14:24.007994$GNZDA,181423.10,09,12,2023,00,00*7D
###2023-12-09 13:14:24.008636$GNEBP,,,,,,M*13
###2023-12-09 13:14:24.174805$GNGGA,181423.30,4138.0408588,N,07032.3250266,W,1,24,0.7,13.062,M,-29.744,M,0.0,*51
###2023-12-09 13:14:24.374835$GNGGA,181423.50,4138.0406805,N,07032.3250052,W,1,24,0.7,13.070,M,-29.744,M,0.0,*57
###2023-12-09 13:14:24.575718$GNGGA,181423.70,4138.0404965,N,07032.3249876,W,1,24,0.7,13.070,M,-29.744,M,0.0,*56
###2023-12-09 13:14:24.775732$GNGGA,181423.90,4138.0403130,N,07032.3249603,W,1,24,0.7,13.053,M,-29.744,M,0.0,*5A
###2023-12-09 13:14:24.978925$GNRMC,181424.10,A,4138.0401310,N,07032.3249336,W,3.27,174.40,091223,,,A*57
###2023-12-09 13:14:24.981776$GNGGA,181424.10,4138.0401310,N,07032.3249336,W,1,24,0.7,13.047,M,-29.744,M,0.0,*51
###2023-12-09 13:14:24.983577$GPGSA,A,3,03,04,16,26,28,29,31,,,,,,1.2,0.7,1.0*30
###2023-12-09 13:14:24.985283$GLGSA,A,3,65,71,72,73,74,75,,,,,,,1.2,0.7,1.0*2E
###2023-12-09 13:14:24.986872$GAGSA,A,3,04,19,21,27,,,,,,,,,1.2,0.7,1.0*2C
###2023-12-09 13:14:24.988573$GBGSA,A,3,14,24,25,26,33,35,,,,,,,1.2,0.7,1.0*23
###2023-12-09 13:14:24.990908$GPGSV,2,1,07,03,32,255,43,04,38,311,43,16,56,215,45,26,86,209,48*7F
###2023-12-09 13:14:24.993202$GPGSV,2,2,07,28,45,076,46,29,24,055,43,31,65,050,47,,,,*4B
###2023-12-09 13:14:24.995566$GLGSV,2,1,06,65,29,325,41,71,34,174,43,72,71,246,46,73,31,045,44*6B
###2023-12-09 13:14:24.997325$GLGSV,2,2,06,74,66,353,43,75,36,259,47,,,,,,,,*68
###2023-12-09 13:14:24.999668$GAGSV,1,1,04,04,33,312,41,19,80,192,40,21,84,066,46,27,29,048,42*6A
###2023-12-09 13:14:25.001990$GBGSV,2,1,06,14,37,191,42,24,70,034,49,25,44,267,47,26,22,065,45*6A
###2023-12-09 13:14:25.003749$GBGSV,2,2,06,33,53,226,47,35,15,065,45,,,,,,,,*6E
###2023-12-09 13:14:25.005076$GNVTG,174.40,T,,M,3.27,N,6.05,K,A*20
###2023-12-09 13:14:25.006763$GNGST,181424.10,18.000,,,,0.100,0.072,0.170*57
###2023-12-09 13:14:25.008056$GNZDA,181424.10,09,12,2023,00,00*7A
