###2023-12-09 13:09:15.980460$GBGSA,A,3,14,24,25,26,33,35,,,,,,,1.1,0.6,0.9*29
###2023-12-09 13:09:15.982865$GPGSV,2,1,08,03,33,257,42,04,36,311,43,16,53,214,46,26,83,210,47*79
###2023-12-09 13:09:15.985213$GPGSV,2,2,08,28,47,073,45,29,25,058,43,31,67,044,47,32,16,141,43*7E
###2023-12-09 13:09:15.987560$GLGSV,2,1,06,65,27,326,42,71,36,173,45,72,72,254,46,73,32,044,45*65
###2023-12-09 13:09:15.989303$GLGSV,2,2,06,74,68,348,42,75,35,257,43,,,,,,,,*64
###2023-12-09 13:09:15.991641$GAGSV,1,1,04,04,31,312,42,19,82,199,40,21,85,085,45,27,31,048,41*67
###2023-12-09 13:09:15.993962$GBGSV,2,1,06,14,40,192,45,24,71,031,49,25,43,265,45,26,24,064,44*6B
###2023-12-09 13:09:15.995710$GBGSV,2,2,06,33,55,228,47,35,15,066,45,,,,,,,,*65
###2023-12-09 13:09:15.997029$GNVTG,254.12,T,,M,3.40,N,6.30,K,A*21
###2023-12-09 13:09:15.998679$GNGST,180915.10,18.000,,,,0.082,0.067,0.150*54
###2023-12-09 13:09:15.999967$GNZDA,180915.10,09,12,2023,00,00*74
###2023-12-09 13:09:16.000601$GNEBP,,,,,,M*13
###2023-12-09 13:09:16.168221$GNGGA,180915.30,4138.0916170,N,07032.2590751,W,1,25,0.6,13.110,M,-29.741,M,0.0,*53
###2023-12-09 13:09:16.370491$GNGGA,180915.50,4138.0915533,N,07032.2592934,W,1,25,0.6,13.121,M,-29.741,M,0.0,*58
###2023-12-09 13:09:16.569749$GNGGA,180915.70,4138.0914988,N,07032.2595351,W,1,25,0.6,13.139,M,-29.741,M,0.0,*50
###2023-12-09 13:09:16.773578$GNGGA,180915.90,4138.0914193,N,07032.2597566,W,1,25,0.6,13.108,M,-29.741,M,0.0,*5E
###2023-12-09 13:09:16.977060$GNRMC,180916.10,A,4138.0913265,N,07032.2599502,W,3.27,242.06,091223,,,A*59
###2023-12-09 13:09:16.979974$GNGGA,180916.10,4138.0913265,N,07032.2599502,W,1,25,0.6,13.123,M,-29.741,M,0.0,*5D
###2023-12-09 13:09:16.981856$GPGSA,A,3,03,04,16,26,28,29,31,32,,,,,1.1,0.6,0.9*3B
###2023-12-09 13:09:16.983610$GLGSA,A,3,65,71,72,73,74,75,,,,,,,1.1,0.6,0.9*24
###2023-12-09 13:09:16.985210$GAGSA,A,3,04,19,21,27,,,,,,,,,1.1,0.6,0.9*26
###2023-12-09 13:09:16.986951$GBGSA,A,3,14,24,25,26,33,35,,,,,,,1.1,0.6,0.9*29
###2023-12-09 13:09:16.989303$GPGSV,2,1,08,03,33,257,42,04,36,311,43,16,54,214,46,26,83,210,48*71
###2023-12-09 13:09:16.991671$GPGSV,2,2,08,28,47,073,45,29,25,058,43,31,67,044,47,32,16,141,44*79
###2023-12-09 13:09:16.994029$GLGSV,2,1,06,65,27,326,42,71,36,173,44,72,72,254,45,73,32,044,45*67
###2023-12-09 13:09:16.995813$GLGSV,2,2,06,74,68,348,43,75,35,257,44,,,,,,,,*62
###2023-12-09 13:09:16.998154$GAGSV,1,1,04,04,31,312,42,19,82,199,40,21,85,085,46,27,31,048,41*64
###2023-12-09 13:09:17.000509$GBGSV,2,1,06,14,40,192,44,24,71,031,48,25,43,265,44,26,24,064,43*6D
###2023-12-09 13:09:17.002285$GBGSV,2,2,06,33,55,228,46,35,15,066,44,,,,,,,,*65
###2023-12-09 13:09:17.003657$GNVTG,242.06,T,,M,3.27,N,6.05,K,A*24
###2023-12-09 13:09:17.005325$GNGST,180916.10,18.000,,,,0.082,0.066,0.150*56
###2023-12-09 13:09:17.006679$GNZDA,180916.10,09,12,2023,00,00*77
###2023-12-09 13:09:17.007331$GNEBP,,,,,,M*13
###2023-12-09 13:09:17.169561$GNGGA,180916.30,4138.0912512,N,07032.2601852,W,1,25,0.6,13.157,M,-29.741,M,0.0,*50
###2023-12-09 13:09:17.369778$GNGGA,180916.50,4138.0911566,N,07032.2604019,W,1,25,0.6,13.132,M,-29.741,M,0.0,*57
###2023-12-09 13:09:17.571205$GNGGA,180916.70,4138.0910424,N,07032.2605701,W,1,25,0.6,13.110,M,-29.741,M,0.0,*5C
###2023-12-09 13:09:17.768830$GNGGA,180916.90,4138.0909305,N,07032.2607542,W,1,25,0.6,13.124,M,-29.741,M,0.0,*5E
###2023-12-09 13:09:17.979695$GNRMC,180917.10,A,4138.0908190,N,07032.2609542,W,3.30,233.45,091223,,,A*52
###2023-12-09 13:09:17.982587$GNGGA,180917.10,4138.0908190,N,07032.2609542,W,1,25,0.6,13.118,M,-29.741,M,0.0,*59
###2023-12-09 13:09:17.984455$GPGSA,A,3,03,04,16,26,28,29,31,32,,,,,1.1,0.6,0.9*3B
###2023-12-09 13:09:17.986187$GLGSA,A,3,65,71,72,73,74,75,,,,,,,1.1,0.6,0.9*24
###2023-12-09 13:09:17.987788$GAGSA,A,3,04,19,21,27,,,,,,,,,1.1,0.6,0.9*26
###2023-12-09 13:09:17.989509$GBGSA,A,3,14,24,25,26,33,35,,,,,,,1.1,0.6,0.9*29
###2023-12-09 13:09:17.991861$GPGSV,2,1,08,03,33,257,41,04,36,311,44,16,54,214,45,26,83,210,48*76
###2023-12-09 13:09:17.994203$GPGSV,2,2,08,28,47,073,45,29,25,058,44,31,67,044,47,32,16,141,44*7E
###2023-12-09 13:09:17.996555$GLGSV,2,1,06,65,27,326,42,71,36,173,45,72,72,254,45,73,32,044,46*65
###2023-12-09 13:09:17.998307$GLGSV,2,2,06,74,68,348,43,75,35,257,44,,,,,,,,*62
###2023-12-09 13:09:18.000657$GAGSV,1,1,04,04,31,312,43,19,82,199,40,21,85,085,46,27,31,048,42*66
###2023-12-09 13:09:18.003006$GBGSV,2,1,06,14,40,192,44,24,71,031,48,25,43,265,45,26,24,064,44*6B
###2023-12-09 13:09:18.004758$GBGSV,2,2,06,33,55,228,46,35,15,066,44,,,,,,,,*65
###2023-12-09 13:09:18.006082$GNVTG,233.45,T,,M,3.30,N,6.12,K,A*25
###2023-12-09 13:09:18.007733$GNGST,180917.10,18.000,,,,0.082,0.066,0.150*57
###2023-12-09 13:09:18.009026$GNZDA,180917.10,09,12,2023,00,00*76
###2023-12-09 13:09:18.009666$GNEBP,,,,,,M*13
###2023-12-09 13:09:18.169927$GNGGA,180917.30,4138.0907073,N,07032.2611321,W,1,25,0.6,13.129,M,-29.741,M,0.0,*50
###2023-12-09 13:09:18.369143$GNGGA,180917.50,4138.0905812,N,07032.2612954,W,1,25,0.6,13.153,M,-29.741,M,0.0,*5D
###2023-12-09 13:09:18.569696$GNGGA,180917.70,4138.0904395,N,07032.2614392,W,1,25,0.6,13.115,M,-29.741,M,0.0,*5E
###2023-12-09 13:09:18.769704$GNGGA,180917.90,4138.0903018,N,07032.2615690,W,1,25,0.6,13.105,M,-29.741,M,0.0,*56
###2023-12-09 13:09:18.974700$GNRMC,180918.10,A,4138.0901638,N,07032.2617388,W,3.46,224.56,091223,,,A*5B
###2023-12-09 13:09:18.977557$GNGGA,180918.10,4138.0901638,N,07032.2617388,W,1,25,0.6,13.139,M,-29.741,M,0.0,*56
###2023-12-09 13:09:18.979421$GPGSA,A,3,03,04,16,26,28,29,31,32,,,,,1.1,0.6,0.9*3B
###2023-12-09 13:09:18.981133$GLGSA,A,3,65,71,72,73,74,75,,,,,,,1.1,0.6,0.9*24
###2023-12-09 13:09:18.982728$GAGSA,A,3,04,19,21,27,,,,,,,,,1.1,0.6,0.9*26
###2023-12-09 13:09:18.984433$GBGSA,A,3,14,24,25,26,33,35,,,,,,,1.1,0.6,0.9*29
###2023-12-09 13:09:18.986790$GPGSV,2,1,08,03,33,257,40,04,36,311,44,16,54,214,45,26,83,210,47*78
###2023-12-09 13:09:18.989131$GPGSV,2,2,08,28,47,073,46,29,25,058,43,31,67,044,47,32,16,141,43*7D
###2023-12-09 13:09:18.991485$GLGSV,2,1,06,65,27,326,40,71,36,173,44,72,72,254,45,73,32,044,46*66
###2023-12-09 13:09:18.993241$GLGSV,2,2,06,74,68,348,43,75,35,257,45,,,,,,,,*63
###2023-12-09 13:09:18.995590$GAGSV,1,1,04,04,31,312,43,19,82,199,40,21,85,085,46,27,31,048,42*66
###2023-12-09 13:09:18.997933$GBGSV,2,1,06,14,40,192,43,24,71,031,48,25,43,265,45,26,24,064,42*6A
###2023-12-09 13:09:18.999703$GBGSV,2,2,06,33,55,228,45,35,15,066,44,,,,,,,,*66
###2023-12-09 13:09:19.001037$GNVTG,224.56,T,,M,3.46,N,6.41,K,A*26
###2023-12-09 13:09:19.002730$GNGST,180918.10,18.000,,,,0.081,0.066,0.150*5B
###2023-12-09 13:09:19.004034$GNZDA,180918.10,09,12,2023,00,00*79
###2023-12-09 13:09:19.004675$GNEBP,,,,,,M*13
###2023-12-09 13:09:19.170707$GNGGA,180918.30,4138.0900222,N,07032.2618895,W,1,25,0.6,13.132,M,-29.741,M,0.0,*59
###2023-12-09 13:09:19.370217$GNGGA,180918.50,4138.0898596,N,07032.2619725,W,1,25,0.6,13.114,M,-29.741,M,0.0,*56
###2023-12-09 13:09:19.571052$GNGGA,180918.70,4138.0896953,N,07032.2620320,W,1,25,0.6,13.086,M,-29.741,M,0.0,*5E
###2023-12-09 13:09:19.772336$GNGGA,180918.90,4138.0895500,N,07032.2621606,W,1,25,0.6,13.136,M,-29.741,M,0.0,*53
###2023-12-09 13:09:19.973561$GNRMC,180919.10,A,4138.0893935,N,07032.2623225,W,3.42,206.83,091223,,,A*5F
###2023-12-09 13:09:19.976455$GNGGA,180919.10,4138.0893935,N,07032.2623225,W,1,25,0.6,13.140,M,-29.741,M,0.0,*50
###2023-12-09 13:09:19.978308$GPGSA,A,3,03,04,16,26,28,29,31,32,,,,,1.1,0.6,0.9*3B
###2023-12-09 13:09:19.980039$GLGSA,A,3,65,71,72,73,74,75,,,,,,,1.1,0.6,0.9*24
###2023-12-09 13:09:19.981629$GAGSA,A,3,04,19,21,27,,,,,,,,,1.1,0.6,0.9*26
###2023-12-09 13:09:19.983351$GBGSA,A,3,14,24,25,26,33,35,,,,,,,1.1,0.6,0.9*29
###2023-12-09 13:09:19.985679$GPGSV,2,1,08,03,33,257,44,04,36,311,46,16,54,214,46,26,83,210,48*72
###2023-12-09 13:09:19.988019$GPGSV,2,2,08,28,47,073,44,29,25,058,41,31,67,044,47,32,16,141,42*7C
###2023-12-09 13:09:19.990351$GLGSV,2,1,06,65,27,326,41,71,36,173,42,72,72,254,46,73,32,044,44*60
###2023-12-09 13:09:19.992107$GLGSV,2,2,06,74,68,348,43,75,35,257,47,,,,,,,,*61
###2023-12-09 13:09:19.994433$GAGSV,1,1,04,04,31,312,44,19,82,199,40,21,85,085,45,27,31,048,41*61
###2023-12-09 13:09:19.997014$GBGSV,2,1,06,14,40,192,41,24,71,031,48,25,43,265,47,26,24,064,40*68
###2023-12-09 13:09:19.998829$GBGSV,2,2,06,33,55,228,47,35,15,066,43,,,,,,,,*63
###2023-12-09 13:09:20.000168$GNVTG,206.83,T,,M,3.42,N,6.34,K,A*28
###2023-12-09 13:09:20.001822$GNGST,180919.10,18.000,,,,0.082,0.066,0.150*59
###2023-12-09 13:09:20.003125$GNZDA,180919.10,09,12,2023,00,00*78
###2023-12-09 13:09:20.003768$GNEBP,,,,,,M*13
###2023-12-09 13:09:20.172649$GNGGA,180919.30,4138.0892241,N,07032.2623706,W,1,25,0.6,13.106,M,-29.741,M,0.0,*5D
###2023-12-09 13:09:20.370509$GNGGA,180919.50,4138.0890628,N,07032.2623716,W,1,25,0.6,13.116,M,-29.741,M,0.0,*52
###2023-12-09 13:09:20.571602$GNGGA,180919.70,4138.0888999,N,07032.2624552,W,1,25,0.6,13.156,M,-29.741,M,0.0,*5D
###2023-12-09 13:09:20.772853$GNGGA,180919.90,4138.0887229,N,07032.2625443,W,1,25,0.6,13.133,M,-29.741,M,0.0,*5F
