###2023-12-09 13:39:25.035305$GNEBP,,,,,,M*13
###2023-12-09 13:39:25.202250$GNGGA,183924.30,4138.0633527,N,07032.3857961,W,1,25,0.6,13.423,M,-29.744,M,0.0,*56
###2023-12-09 13:39:25.402308$GNGGA,183924.50,4138.0631893,N,07032.3858021,W,1,25,0.6,13.398,M,-29.744,M,0.0,*55
###2023-12-09 13:39:25.602167$GNGGA,183924.70,4138.0630317,N,07032.3858107,W,1,26,0.6,13.392,M,-29.744,M,0.0,*5D
###2023-12-09 13:39:25.802932$GNGGA,183924.90,4138.0628701,N,07032.3859079,W,1,26,0.6,13.441,M,-29.744,M,0.0,*59
###2023-12-09 13:39:26.005665$GNRMC,183925.10,A,4138.0627014,N,07032.3860027,W,3.15,190.65,091223,,,A*56
###2023-12-09 13:39:26.008556$GNGGA,183925.10,4138.0627014,N,07032.3860027,W,1,25,0.6,13.432,M,-29.744,M,0.0,*5A
###2023-12-09 13:39:26.010415$GPGSA,A,3,03,04,16,26,27,28,29,31,,,,,1.0,0.6,0.8*3F
###2023-12-09 13:39:26.012139$GLGSA,A,3,65,71,72,73,74,75,,,,,,,1.0,0.6,0.8*24
###2023-12-09 13:39:26.013718$GAGSA,A,3,04,19,21,27,,,,,,,,,1.0,0.6,0.8*26
###2023-12-09 13:39:26.015442$GBGSA,A,3,12,14,24,25,33,35,,,,,,,1.0,0.6,0.8*2E
###2023-12-09 13:39:26.017765$GPGSV,2,1,08,03,25,244,43,04,48,306,47,16,69,225,45,26,82,040,47*78
###2023-12-09 13:39:26.020108$GPGSV,2,2,08,27,18,172,38,28,37,086,45,29,20,046,42,31,58,068,46*7D
###2023-12-09 13:39:26.022437$GLGSV,2,1,06,65,40,316,44,71,20,176,40,72,60,217,44,73,20,054,41*66
###2023-12-09 13:39:26.024192$GLGSV,2,2,06,74,58,018,41,75,45,275,49,,,,,,,,*6F
###2023-12-09 13:39:26.026516$GAGSV,1,1,04,04,41,309,45,19,70,181,39,21,75,045,46,27,21,050,41*6F
###2023-12-09 13:39:26.028858$GBGSV,2,1,06,12,17,125,40,14,27,189,40,24,61,048,47,25,52,278,48*62
###2023-12-09 13:39:26.030614$GBGSV,2,2,06,33,44,215,47,35,16,055,43,,,,,,,,*6E
###2023-12-09 13:39:26.031941$GNVTG,190.65,T,,M,3.15,N,5.83,K,A*21
###2023-12-09 13:39:26.033563$GNGST,183925.10,5.600,,,,0.091,0.070,0.160*69
###2023-12-09 13:39:26.034867$GNZDA,183925.10,09,12,2023,00,00*74
###2023-12-09 13:39:26.035505$GNEBP,,,,,,M*13
###2023-12-09 13:39:26.203173$GNGGA,183925.30,4138.0625389,N,07032.3860044,W,1,25,0.6,13.402,M,-29.744,M,0.0,*5B
###2023-12-09 13:39:26.402291$GNGGA,183925.50,4138.0623852,N,07032.3859997,W,1,25,0.6,13.422,M,-29.744,M,0.0,*59
###2023-12-09 13:39:26.604360$GNGGA,183925.70,4138.0622134,N,07032.3860691,W,1,25,0.6,13.455,M,-29.744,M,0.0,*50
###2023-12-09 13:39:26.802031$GNGGA,183925.90,4138.0620439,N,07032.3861003,W,1,25,0.6,13.405,M,-29.744,M,0.0,*5D
###2023-12-09 13:39:27.007545$GNRMC,183926.10,A,4138.0618914,N,07032.3860919,W,2.88,181.34,091223,,,A*55
###2023-12-09 13:39:27.010405$GNGGA,183926.10,4138.0618914,N,07032.3860919,W,1,25,0.6,13.404,M,-29.744,M,0.0,*5D
###2023-12-09 13:39:27.012278$GPGSA,A,3,03,04,16,26,27,28,29,31,,,,,1.0,0.6,0.8*3F
###2023-12-09 13:39:27.013991$GLGSA,A,3,65,71,72,73,74,75,,,,,,,1.0,0.6,0.8*24
###2023-12-09 13:39:27.015592$GAGSA,A,3,04,19,21,27,,,,,,,,,1.0,0.6,0.8*26
###2023-12-09 13:39:27.017310$GBGSA,A,3,12,14,24,25,33,35,,,,,,,1.0,0.6,0.8*2E
###2023-12-09 13:39:27.019650$GPGSV,2,1,08,03,25,244,41,04,48,306,46,16,69,225,45,26,81,040,48*77
###2023-12-09 13:39:27.021978$GPGSV,2,2,08,27,18,172,40,28,37,086,45,29,20,046,42,31,58,068,46*72
###2023-12-09 13:39:27.024322$GLGSV,2,1,06,65,40,316,43,71,20,176,41,72,60,217,45,73,20,054,43*63
###2023-12-09 13:39:27.026072$GLGSV,2,2,06,74,58,018,43,75,45,275,48,,,,,,,,*6C
###2023-12-09 13:39:27.028405$GAGSV,1,1,04,04,41,309,44,19,70,181,40,21,75,045,46,27,21,050,40*61
###2023-12-09 13:39:27.030743$GBGSV,2,1,06,12,17,125,43,14,27,189,40,24,61,048,49,25,52,278,49*6E
###2023-12-09 13:39:27.032495$GBGSV,2,2,06,33,44,215,46,35,16,055,44,,,,,,,,*68
###2023-12-09 13:39:27.033816$GNVTG,181.34,T,,M,2.88,N,5.33,K,A*2B
###2023-12-09 13:39:27.035434$GNGST,183926.10,5.700,,,,0.091,0.070,0.160*6B
###2023-12-09 13:39:27.036723$GNZDA,183926.10,09,12,2023,00,00*77
###2023-12-09 13:39:27.037360$GNEBP,,,,,,M*13
###2023-12-09 13:39:27.206109$GNGGA,183926.30,4138.0617210,N,07032.3861242,W,1,25,0.6,13.449,M,-29.744,M,0.0,*52
###2023-12-09 13:39:27.402091$GNGGA,183926.50,4138.0615528,N,07032.3861452,W,1,25,0.6,13.427,M,-29.744,M,0.0,*55
###2023-12-09 13:39:27.603050$GNGGA,183926.70,4138.0613918,N,07032.3861347,W,1,25,0.6,13.402,M,-29.744,M,0.0,*5A
###2023-12-09 13:39:27.804949$GNGGA,183926.90,4138.0612222,N,07032.3861255,W,1,25,0.6,13.396,M,-29.744,M,0.0,*5F
###2023-12-09 13:39:28.009277$GNRMC,183927.10,A,4138.0610553,N,07032.3861308,W,2.97,184.71,091223,,,A*52
###2023-12-09 13:39:28.012146$GNGGA,183927.10,4138.0610553,N,07032.3861308,W,1,25,0.6,13.401,M,-29.744,M,0.0,*55
###2023-12-09 13:39:28.013991$GPGSA,A,3,03,04,16,26,27,28,29,31,,,,,1.0,0.6,0.8*3F
###2023-12-09 13:39:28.015708$GLGSA,A,3,65,71,72,73,74,75,,,,,,,1.0,0.6,0.8*24
###2023-12-09 13:39:28.017287$GAGSA,A,3,04,19,21,27,,,,,,,,,1.0,0.6,0.8*26
###2023-12-09 13:39:28.019006$GBGSA,A,3,12,14,24,25,33,35,,,,,,,1.0,0.6,0.8*2E
###2023-12-09 13:39:28.021325$GPGSV,2,1,08,03,25,244,41,04,48,306,45,16,69,225,45,26,81,040,48*74
###2023-12-09 13:39:28.023657$GPGSV,2,2,08,27,19,172,39,28,37,086,44,29,20,046,42,31,58,068,46*7C
###2023-12-09 13:39:28.025971$GLGSV,2,1,06,65,40,316,43,71,20,176,40,72,60,217,45,73,20,054,43*62
###2023-12-09 13:39:28.027725$GLGSV,2,2,06,74,58,018,43,75,45,275,48,,,,,,,,*6C
###2023-12-09 13:39:28.030034$GAGSV,1,1,04,04,41,309,44,19,70,181,40,21,75,045,46,27,21,050,41*60
###2023-12-09 13:39:28.032361$GBGSV,2,1,06,12,17,125,43,14,27,189,40,24,61,048,49,25,52,278,49*6E
###2023-12-09 13:39:28.034106$GBGSV,2,2,06,33,44,215,46,35,16,055,45,,,,,,,,*69
###2023-12-09 13:39:28.035437$GNVTG,184.71,T,,M,2.97,N,5.51,K,A*25
###2023-12-09 13:39:28.037045$GNGST,183927.10,5.600,,,,0.091,0.069,0.150*60
###2023-12-09 13:39:28.038331$GNZDA,183927.10,09,12,2023,00,00*76
###2023-12-09 13:39:28.038979$GNEBP,,,,,,M*13
###2023-12-09 13:39:28.204612$GNGGA,183927.30,4138.0608871,N,07032.3861467,W,1,25,0.6,13.416,M,-29.744,M,0.0,*5B
###2023-12-09 13:39:28.405826$GNGGA,183927.50,4138.0607155,N,07032.3861356,W,1,25,0.6,13.393,M,-29.744,M,0.0,*52
###2023-12-09 13:39:28.603195$GNGGA,183927.70,4138.0605544,N,07032.3861168,W,1,25,0.6,13.367,M,-29.744,M,0.0,*52
###2023-12-09 13:39:28.802919$GNGGA,183927.90,4138.0603827,N,07032.3861393,W,1,25,0.6,13.391,M,-29.744,M,0.0,*5D
###2023-12-09 13:39:29.008363$GNRMC,183928.10,A,4138.0602057,N,07032.3861647,W,3.07,180.61,091223,,,A*5C
###2023-12-09 13:39:29.011237$GNGGA,183928.10,4138.0602057,N,07032.3861647,W,1,25,0.6,13.386,M,-29.744,M,0.0,*5E
###2023-12-09 13:39:29.013096$GPGSA,A,3,03,04,16,26,27,28,29,31,,,,,1.0,0.6,0.8*3F
###2023-12-09 13:39:29.014824$GLGSA,A,3,65,71,72,73,74,75,,,,,,,1.0,0.6,0.8*24
###2023-12-09 13:39:29.016408$GAGSA,A,3,04,19,21,27,,,,,,,,,1.0,0.6,0.8*26
###2023-12-09 13:39:29.018117$GBGSA,A,3,12,14,24,25,33,35,,,,,,,1.0,0.6,0.8*2E
###2023-12-09 13:39:29.020458$GPGSV,2,1,08,03,25,244,41,04,48,306,45,16,69,225,46,26,81,040,47*78
###2023-12-09 13:39:29.022799$GPGSV,2,2,08,27,19,172,39,28,36,087,44,29,20,046,42,31,58,068,47*7D
###2023-12-09 13:39:29.025133$GLGSV,2,1,06,65,40,316,44,71,20,176,39,72,60,217,46,73,20,054,41*6A
###2023-12-09 13:39:29.026889$GLGSV,2,2,06,74,58,018,42,75,45,275,48,,,,,,,,*6D
###2023-12-09 13:39:29.029225$GAGSV,1,1,04,04,41,309,45,19,70,181,40,21,75,045,46,27,21,050,40*60
###2023-12-09 13:39:29.031562$GBGSV,2,1,06,12,17,125,42,14,27,189,39,24,61,048,47,25,52,278,47*61
###2023-12-09 13:39:29.033310$GBGSV,2,2,06,33,44,215,45,35,16,055,43,,,,,,,,*6C
###2023-12-09 13:39:29.034644$GNVTG,180.61,T,,M,3.07,N,5.69,K,A*23
###2023-12-09 13:39:29.036261$GNGST,183928.10,5.800,,,,0.091,0.068,0.150*60
###2023-12-09 13:39:29.037556$GNZDA,183928.10,09,12,2023,00,00*79
###2023-12-09 13:39:29.038192$GNEBP,,,,,,M*13
###2023-12-09 13:39:29.208882$GNGGA,183928.30,4138.0600457,N,07032.3861591,W,1,25,0.6,13.374,M,-29.744,M,0.0,*5F
###2023-12-09 13:39:29.401268$GNGGA,183928.50,4138.0598794,N,07032.3861629,W,1,25,0.6,13.381,M,-29.744,M,0.0,*5D
###2023-12-09 13:39:29.602005$GNGGA,183928.70,4138.0597062,N,07032.3861833,W,1,25,0.6,13.368,M,-29.744,M,0.0,*5C
###2023-12-09 13:39:29.801998$GNGGA,183928.90,4138.0595448,N,07032.3862047,W,1,25,0.6,13.353,M,-29.744,M,0.0,*5C
###2023-12-09 13:39:30.005087$GNRMC,183929.10,A,4138.0593745,N,07032.3862264,W,3.07,182.08,091223,,,A*59
###2023-12-09 13:39:30.008889$GNGGA,183929.10,4138.0593745,N,07032.3862264,W,1,25,0.6,13.371,M,-29.744,M,0.0,*5E
###2023-12-09 13:39:30.011171$GPGSA,A,3,03,04,16,26,27,28,29,31,,,,,1.0,0.6,0.8*3F
###2023-12-09 13:39:30.013255$GLGSA,A,3,65,71,72,73,74,75,,,,,,,1.0,0.6,0.8*24
###2023-12-09 13:39:30.015193$GAGSA,A,3,04,19,21,27,,,,,,,,,1.0,0.6,0.8*26
###2023-12-09 13:39:30.017262$GBGSA,A,3,12,14,24,25,33,35,,,,,,,1.0,0.6,0.8*2E
###2023-12-09 13:39:30.020081$GPGSV,2,1,08,03,25,244,40,04,48,306,46,16,69,225,46,26,81,040,48*75
###2023-12-09 13:39:30.022903$GPGSV,2,2,08,27,19,172,39,28,36,087,45,29,19,045,42,31,58,068,46*74
###2023-12-09 13:39:30.025716$GLGSV,2,1,06,65,40,316,45,71,20,176,40,72,60,217,45,73,20,054,42*65
###2023-12-09 13:39:30.027846$GLGSV,2,2,06,74,58,018,42,75,45,275,48,,,,,,,,*6D
###2023-12-09 13:39:30.030660$GAGSV,1,1,04,04,41,309,43,19,70,181,39,21,75,045,45,27,21,050,39*65
