###2023-12-09 12:29:12.928339$GLGSA,A,3,71,72,73,75,,,,,,,,,1.6,0.9,1.3*27
###2023-12-09 12:29:12.930088$GAGSA,A,3,21,27,,,,,,,,,,,1.6,0.9,1.3*29
###2023-12-09 12:29:12.931847$GBGSA,A,3,14,26,33,,,,,,,,,,1.6,0.9,1.3*2D
###2023-12-09 12:29:12.934390$GPGSV,2,1,07,03,39,280,35,16,34,206,44,26,63,206,42,28,60,052,45*75
###2023-12-09 12:29:12.936677$GPGSV,2,2,07,29,25,077,41,31,73,351,44,32,33,132,46,,,,*45
###2023-12-09 12:29:12.939223$GLGSV,1,1,04,71,60,168,48,72,63,314,42,73,50,032,46,75,20,239,38*63
###2023-12-09 12:29:12.941174$GAGSV,1,1,02,21,75,179,38,27,43,050,45,,,,,,,,*69
###2023-12-09 12:29:12.943430$GBGSV,1,1,03,14,57,199,46,26,37,056,45,33,64,260,40,,,,*5C
###2023-12-09 12:29:12.944773$GNVTG,,T,,M,0.02,N,0.04,K,A*3B
###2023-12-09 12:29:12.946629$GNGST,172912.10,32.000,,,,0.120,0.150,0.330*5E
###2023-12-09 12:29:12.948159$GNZDA,172912.10,09,12,2023,00,00*7E
###2023-12-09 12:29:12.948995$GNEBP,,,,,,M*13
###2023-12-09 12:29:13.120379$GNGGA,172912.30,4138.0382202,N,07032.4358122,W,1,15,1.0,15.610,M,-29.746,M,0.0,*5C
###2023-12-09 12:29:13.321785$GNGGA,172912.50,4138.0382156,N,07032.4358094,W,1,15,1.0,15.621,M,-29.746,M,0.0,*56
###2023-12-09 12:29:13.519653$GNGGA,172912.70,4138.0382110,N,07032.4358060,W,1,15,1.0,15.629,M,-29.746,M,0.0,*55
###2023-12-09 12:29:13.719332$GNGGA,172912.90,4138.0382070,N,07032.4358049,W,1,15,1.0,15.636,M,-29.746,M,0.0,*59
###2023-12-09 12:29:13.921669$GNRMC,172913.10,A,4138.0382028,N,07032.4358024,W,0.02,,091223,,,A*4C
###2023-12-09 12:29:13.924763$GNGGA,172913.10,4138.0382028,N,07032.4358024,W,1,15,1.0,15.648,M,-29.746,M,0.0,*5F
###2023-12-09 12:29:13.926526$GPGSA,A,3,16,26,28,29,31,32,,,,,,,1.7,1.0,1.4*31
###2023-12-09 12:29:13.928150$GLGSA,A,3,71,72,73,75,,,,,,,,,1.7,1.0,1.4*29
###2023-12-09 12:29:13.929621$GAGSA,A,3,21,27,,,,,,,,,,,1.7,1.0,1.4*27
###2023-12-09 12:29:13.931175$GBGSA,A,3,14,26,33,,,,,,,,,,1.7,1.0,1.4*23
###2023-12-09 12:29:13.933528$GPGSV,2,1,06,16,34,206,44,26,63,206,43,28,60,052,44,29,25,077,41*78
###2023-12-09 12:29:13.935313$GPGSV,2,2,06,31,73,351,44,32,33,132,46,,,,,,,,*7D
###2023-12-09 12:29:13.937659$GLGSV,1,1,04,71,60,168,48,72,63,314,43,73,50,032,46,75,20,239,38*62
###2023-12-09 12:29:13.939436$GAGSV,1,1,02,21,75,179,38,27,43,050,45,,,,,,,,*69
###2023-12-09 12:29:13.941492$GBGSV,1,1,03,14,57,199,45,26,37,056,44,33,64,260,39,,,,*50
###2023-12-09 12:29:13.942652$GNVTG,,T,,M,0.02,N,0.04,K,A*3B
###2023-12-09 12:29:13.944315$GNGST,172913.10,33.000,,,,0.120,0.150,0.340*59
###2023-12-09 12:29:13.945620$GNZDA,172913.10,09,12,2023,00,00*7F
###2023-12-09 12:29:13.946288$GNEBP,,,,,,M*13
###2023-12-09 12:29:14.121153$GNGGA,172913.30,4138.0381998,N,07032.4358033,W,1,16,0.9,15.649,M,-29.746,M,0.0,*50
###2023-12-09 12:29:14.321231$GNGGA,172913.50,4138.0381952,N,07032.4358001,W,1,17,0.8,15.660,M,-29.746,M,0.0,*5A
###2023-12-09 12:29:14.523512$GNGGA,172913.70,4138.0381908,N,07032.4357970,W,1,16,0.9,15.669,M,-29.746,M,0.0,*5E
###2023-12-09 12:29:14.719900$GNGGA,172913.90,4138.0381875,N,07032.4357956,W,1,16,0.9,15.680,M,-29.746,M,0.0,*58
###2023-12-09 12:29:14.924137$GNRMC,172914.10,A,4138.0381843,N,07032.4357946,W,0.06,,091223,,,A*4B
###2023-12-09 12:29:14.927633$GNGGA,172914.10,4138.0381843,N,07032.4357946,W,1,16,0.9,15.680,M,-29.746,M,0.0,*53
###2023-12-09 12:29:14.929734$GPGSA,A,3,16,26,28,29,31,32,,,,,,,1.6,0.9,1.3*3F
###2023-12-09 12:29:14.931679$GLGSA,A,3,71,72,73,75,,,,,,,,,1.6,0.9,1.3*27
###2023-12-09 12:29:14.933440$GAGSA,A,3,21,27,,,,,,,,,,,1.6,0.9,1.3*29
###2023-12-09 12:29:14.935358$GBGSA,A,3,14,25,26,33,,,,,,,,,1.6,0.9,1.3*2A
###2023-12-09 12:29:14.938165$GPGSV,2,1,06,16,34,206,43,26,63,206,41,28,60,052,44,29,25,077,40*7C
###2023-12-09 12:29:14.940309$GPGSV,2,2,06,31,73,351,42,32,33,132,45,,,,,,,,*78
###2023-12-09 12:29:14.943133$GLGSV,1,1,04,71,60,168,48,72,63,314,43,73,50,032,46,75,20,239,37*6D
###2023-12-09 12:29:14.945251$GAGSV,1,1,02,21,75,179,38,27,43,050,44,,,,,,,,*68
###2023-12-09 12:29:14.948146$GBGSV,1,1,04,14,57,199,45,25,31,251,35,26,37,056,45,33,64,260,40*6D
###2023-12-09 12:29:14.949556$GNVTG,,T,,M,0.06,N,0.11,K,A*3B
###2023-12-09 12:29:14.951578$GNGST,172914.10,32.000,,,,0.120,0.150,0.340*5F
###2023-12-09 12:29:14.953150$GNZDA,172914.10,09,12,2023,00,00*78
###2023-12-09 12:29:14.953935$GNEBP,,,,,,M*13
###2023-12-09 12:29:15.123890$GNGGA,172914.30,4138.0381795,N,07032.4357905,W,1,16,0.9,15.691,M,-29.746,M,0.0,*52
###2023-12-09 12:29:15.321614$GNGGA,172914.50,4138.0381768,N,07032.4357890,W,1,16,0.9,15.698,M,-29.746,M,0.0,*52
###2023-12-09 12:29:15.521334$GNGGA,172914.70,4138.0381738,N,07032.4357866,W,1,15,1.0,15.710,M,-29.746,M,0.0,*56
###2023-12-09 12:29:15.720369$GNGGA,172914.90,4138.0381695,N,07032.4357820,W,1,17,0.8,15.720,M,-29.746,M,0.0,*54
###2023-12-09 12:29:15.921412$GNRMC,172915.10,A,4138.0381667,N,07032.4357805,W,0.04,,091223,,,A*46
###2023-12-09 12:29:15.925059$GNGGA,172915.10,4138.0381667,N,07032.4357805,W,1,17,0.8,15.733,M,-29.746,M,0.0,*55
###2023-12-09 12:29:15.927268$GPGSA,A,3,03,16,26,28,29,31,32,,,,,,1.4,0.8,1.2*3E
###2023-12-09 12:29:15.929196$GLGSA,A,3,71,72,73,75,,,,,,,,,1.4,0.8,1.2*25
###2023-12-09 12:29:15.931057$GAGSA,A,3,04,21,27,,,,,,,,,,1.4,0.8,1.2*2F
###2023-12-09 12:29:15.932882$GBGSA,A,3,14,26,33,,,,,,,,,,1.4,0.8,1.2*2F
###2023-12-09 12:29:15.935697$GPGSV,2,1,07,03,39,280,35,16,34,206,44,26,63,206,43,28,60,052,46*77
###2023-12-09 12:29:15.938163$GPGSV,2,2,07,29,25,077,43,31,73,351,44,32,33,132,47,,,,*46
###2023-12-09 12:29:15.940980$GLGSV,1,1,04,71,60,168,49,72,63,314,43,73,50,032,46,75,20,239,37*6C
###2023-12-09 12:29:15.943465$GAGSV,1,1,03,04,19,311,35,21,75,179,39,27,43,050,46,,,,*53
###2023-12-09 12:29:15.945917$GBGSV,1,1,03,14,57,199,45,26,37,056,44,33,64,260,40,,,,*5E
###2023-12-09 12:29:15.947320$GNVTG,,T,,M,0.04,N,0.07,K,A*3E
###2023-12-09 12:29:15.949333$GNGST,172915.10,31.000,,,,0.120,0.150,0.340*5D
###2023-12-09 12:29:15.950915$GNZDA,172915.10,09,12,2023,00,00*79
###2023-12-09 12:29:15.951698$GNEBP,,,,,,M*13
###2023-12-09 12:29:16.122652$GNGGA,172915.30,4138.0381647,N,07032.4357791,W,1,17,0.8,15.737,M,-29.746,M,0.0,*53
###2023-12-09 12:29:16.323294$GNGGA,172915.50,4138.0381643,N,07032.4357779,W,1,17,0.8,15.748,M,-29.746,M,0.0,*5F
###2023-12-09 12:29:16.521927$GNGGA,172915.70,4138.0381624,N,07032.4357778,W,1,17,0.8,15.751,M,-29.746,M,0.0,*55
###2023-12-09 12:29:16.720245$GNGGA,172915.90,4138.0381611,N,07032.4357775,W,1,17,0.8,15.757,M,-29.746,M,0.0,*56
###2023-12-09 12:29:16.923668$GNRMC,172916.10,A,4138.0381597,N,07032.4357779,W,0.04,,091223,,,A*4D
###2023-12-09 12:29:16.927138$GNGGA,172916.10,4138.0381597,N,07032.4357779,W,1,17,0.8,15.751,M,-29.746,M,0.0,*5A
###2023-12-09 12:29:16.929303$GPGSA,A,3,03,16,26,28,29,31,32,,,,,,1.5,0.8,1.3*3E
###2023-12-09 12:29:16.931232$GLGSA,A,3,71,72,73,75,,,,,,,,,1.5,0.8,1.3*25
###2023-12-09 12:29:16.932983$GAGSA,A,3,21,27,,,,,,,,,,,1.5,0.8,1.3*2B
###2023-12-09 12:29:16.934904$GBGSA,A,3,14,25,26,33,,,,,,,,,1.5,0.8,1.3*28
###2023-12-09 12:29:16.937709$GPGSV,2,1,07,03,39,280,36,16,34,206,44,26,63,206,42,28,60,052,46*75
###2023-12-09 12:29:16.940197$GPGSV,2,2,07,29,25,077,43,31,73,351,44,32,33,132,46,,,,*47
###2023-12-09 12:29:16.943060$GLGSV,1,1,04,71,60,168,49,72,63,314,43,73,50,032,47,75,20,239,37*6D
###2023-12-09 12:29:16.945175$GAGSV,1,1,02,21,75,179,39,27,43,050,46,,,,,,,,*6B
###2023-12-09 12:29:16.948044$GBGSV,1,1,04,14,57,199,46,25,31,251,36,26,37,056,45,33,64,260,41*6C
###2023-12-09 12:29:16.949447$GNVTG,,T,,M,0.04,N,0.07,K,A*3E
###2023-12-09 12:29:16.951463$GNGST,172916.10,31.000,,,,0.120,0.150,0.340*5E
###2023-12-09 12:29:16.953041$GNZDA,172916.10,09,12,2023,00,00*7A
###2023-12-09 12:29:16.953819$GNEBP,,,,,,M*13
###2023-12-09 12:29:17.123103$GNGGA,172916.30,4138.0381581,N,07032.4357782,W,1,17,0.8,15.759,M,-29.746,M,0.0,*53
###2023-12-09 12:29:17.325211$GNGGA,172916.50,4138.0381566,N,07032.4357784,W,1,17,0.8,15.766,M,-29.746,M,0.0,*56
###2023-12-09 12:29:17.522549$GNGGA,172916.70,4138.0381550,N,07032.4357800,W,1,17,0.8,15.778,M,-29.746,M,0.0,*5D
###2023-12-09 12:29:17.721796$GNGGA,172916.90,4138.0381531,N,07032.4357799,W,1,17,0.8,15.791,M,-29.746,M,0.0,*5C
###2023-12-09 12:29:17.923054$GNRMC,172917.10,A,4138.0381510,N,07032.4357822,W,0.02,,091223,,,A*44
###2023-12-09 12:29:17.926174$GNGGA,172917.10,4138.0381510,N,07032.4357822,W,1,17,0.8,15.789,M,-29.746,M,0.0,*50
###2023-12-09 12:29:17.928014$GPGSA,A,3,03,16,26,28,29,31,32,,,,,,1.5,0.8,1.3*3E
###2023-12-09 12:29:17.929633$GLGSA,A,3,71,72,73,75,,,,,,,,,1.5,0.8,1.3*25
###2023-12-09 12:29:17.931121$GAGSA,A,3,21,27,,,,,,,,,,,1.5,0.8,1.3*2B
###2023-12-09 12:29:17.932719$GBGSA,A,3,14,25,26,33,,,,,,,,,1.5,0.8,1.3*28
###2023-12-09 12:29:17.935080$GPGSV,2,1,07,03,39,280,36,16,34,206,45,26,63,206,42,28,60,052,46*74
###2023-12-09 12:29:17.937145$GPGSV,2,2,07,29,25,077,43,31,73,351,45,32,33,132,47,,,,*47
