###2023-12-09 13:17:45.020137$GNEBP,,,,,,M*13
###2023-12-09 13:17:45.183249$GNGGA,181744.30,4138.0366125,N,07032.2941598,W,1,24,0.7,12.909,M,-29.744,M,0.0,*56
###2023-12-09 13:17:45.378730$GNGGA,181744.50,4138.0364262,N,07032.2941796,W,1,24,0.7,12.911,M,-29.744,M,0.0,*57
###2023-12-09 13:17:45.579373$GNGGA,181744.70,4138.0362311,N,07032.2942225,W,1,24,0.7,12.936,M,-29.744,M,0.0,*5D
###2023-12-09 13:17:45.779767$GNGGA,181744.90,4138.0360356,N,07032.2942452,W,1,24,0.7,12.906,M,-29.744,M,0.0,*57
###2023-12-09 13:17:45.986015$GNRMC,181745.10,A,4138.0358483,N,07032.2942428,W,3.42,180.35,091223,,,A*56
###2023-12-09 13:17:45.988885$GNGGA,181745.10,4138.0358483,N,07032.2942428,W,1,24,0.7,12.915,M,-29.744,M,0.0,*55
###2023-12-09 13:17:45.990680$GPGSA,A,3,03,04,16,26,28,29,31,,,,,,1.2,0.7,0.9*38
###2023-12-09 13:17:45.992386$GLGSA,A,3,65,71,72,73,74,75,,,,,,,1.2,0.7,0.9*26
###2023-12-09 13:17:45.993960$GAGSA,A,3,04,19,21,27,,,,,,,,,1.2,0.7,0.9*24
###2023-12-09 13:17:45.995676$GBGSA,A,3,14,24,25,26,33,35,,,,,,,1.2,0.7,0.9*2B
###2023-12-09 13:17:45.997983$GPGSV,2,1,07,03,31,253,42,04,39,310,45,16,58,216,46,26,88,205,48*71
###2023-12-09 13:17:46.000024$GPGSV,2,2,07,28,43,078,45,29,23,053,44,31,64,053,47,,,,*44
###2023-12-09 13:17:46.002345$GLGSV,2,1,06,65,31,324,44,71,32,174,43,72,70,240,45,73,29,047,44*6F
###2023-12-09 13:17:46.004092$GLGSV,2,2,06,74,65,358,43,75,38,261,46,,,,,,,,*64
###2023-12-09 13:17:46.006403$GAGSV,1,1,04,04,34,312,43,19,79,190,40,21,83,062,46,27,28,049,41*6B
###2023-12-09 13:17:46.008732$GBGSV,2,1,06,14,36,191,42,24,68,036,49,25,45,268,48,26,21,066,44*60
###2023-12-09 13:17:46.010470$GBGSV,2,2,06,33,52,224,48,35,16,063,44,,,,,,,,*66
###2023-12-09 13:17:46.011797$GNVTG,180.35,T,,M,3.42,N,6.34,K,A*28
###2023-12-09 13:17:46.013444$GNGST,181745.10,18.000,,,,0.100,0.069,0.170*59
###2023-12-09 13:17:46.014751$GNZDA,181745.10,09,12,2023,00,00*7E
###2023-12-09 13:17:46.015391$GNEBP,,,,,,M*13
###2023-12-09 13:17:46.180980$GNGGA,181745.30,4138.0356525,N,07032.2942576,W,1,24,0.7,12.929,M,-29.744,M,0.0,*51
###2023-12-09 13:17:46.379493$GNGGA,181745.50,4138.0354610,N,07032.2942605,W,1,24,0.7,12.907,M,-29.744,M,0.0,*5B
###2023-12-09 13:17:46.580794$GNGGA,181745.70,4138.0352683,N,07032.2942504,W,1,24,0.7,12.911,M,-29.744,M,0.0,*50
###2023-12-09 13:17:46.779708$GNGGA,181745.90,4138.0350760,N,07032.2942421,W,1,24,0.7,12.918,M,-29.744,M,0.0,*5F
###2023-12-09 13:17:46.985278$GNRMC,181746.10,A,4138.0348879,N,07032.2942362,W,3.46,177.53,091223,,,A*58
###2023-12-09 13:17:46.988145$GNGGA,181746.10,4138.0348879,N,07032.2942362,W,1,24,0.7,12.924,M,-29.744,M,0.0,*55
###2023-12-09 13:17:46.989936$GPGSA,A,3,03,04,16,26,28,29,31,,,,,,1.2,0.7,0.9*38
###2023-12-09 13:17:46.991656$GLGSA,A,3,65,71,72,73,74,75,,,,,,,1.2,0.7,0.9*26
###2023-12-09 13:17:46.993236$GAGSA,A,3,04,19,21,27,,,,,,,,,1.2,0.7,0.9*24
###2023-12-09 13:17:46.994955$GBGSA,A,3,14,24,25,26,33,35,,,,,,,1.2,0.7,0.9*2B
###2023-12-09 13:17:46.997276$GPGSV,2,1,07,03,31,253,43,04,39,310,44,16,58,216,46,26,88,205,48*71
###2023-12-09 13:17:46.999319$GPGSV,2,2,07,28,43,078,44,29,23,053,42,31,64,053,46,,,,*42
###2023-12-09 13:17:47.001642$GLGSV,2,1,06,65,31,324,44,71,32,174,42,72,70,240,45,73,29,047,43*69
###2023-12-09 13:17:47.003399$GLGSV,2,2,06,74,65,358,43,75,38,261,47,,,,,,,,*65
###2023-12-09 13:17:47.005723$GAGSV,1,1,04,04,34,312,43,19,79,190,40,21,83,062,46,27,28,049,41*6B
###2023-12-09 13:17:47.008054$GBGSV,2,1,06,14,36,191,41,24,68,036,49,25,45,268,48,26,21,066,44*63
###2023-12-09 13:17:47.009798$GBGSV,2,2,06,33,52,224,48,35,16,063,43,,,,,,,,*61
###2023-12-09 13:17:47.011130$GNVTG,177.53,T,,M,3.46,N,6.41,K,A*26
###2023-12-09 13:17:47.012770$GNGST,181746.10,18.000,,,,0.100,0.069,0.170*5A
###2023-12-09 13:17:47.014055$GNZDA,181746.10,09,12,2023,00,00*7D
###2023-12-09 13:17:47.014706$GNEBP,,,,,,M*13
###2023-12-09 13:17:47.181812$GNGGA,181746.30,4138.0346917,N,07032.2942126,W,1,24,0.7,12.908,M,-29.744,M,0.0,*5C
###2023-12-09 13:17:47.380816$GNGGA,181746.50,4138.0345017,N,07032.2941956,W,1,24,0.7,12.889,M,-29.744,M,0.0,*54
###2023-12-09 13:17:47.581577$GNGGA,181746.70,4138.0343074,N,07032.2942052,W,1,24,0.7,12.923,M,-29.744,M,0.0,*5A
###2023-12-09 13:17:47.781581$GNGGA,181746.90,4138.0341111,N,07032.2942079,W,1,24,0.7,12.912,M,-29.744,M,0.0,*5F
###2023-12-09 13:17:47.985153$GNRMC,181747.10,A,4138.0339230,N,07032.2942003,W,3.52,177.03,091223,,,A*5C
###2023-12-09 13:17:47.988010$GNGGA,181747.10,4138.0339230,N,07032.2942003,W,1,24,0.7,12.903,M,-29.744,M,0.0,*54
###2023-12-09 13:17:47.989798$GPGSA,A,3,03,04,16,26,28,29,31,,,,,,1.2,0.7,0.9*38
###2023-12-09 13:17:47.991522$GLGSA,A,3,65,71,72,73,74,75,,,,,,,1.2,0.7,0.9*26
###2023-12-09 13:17:47.993093$GAGSA,A,3,04,19,21,27,,,,,,,,,1.2,0.7,0.9*24
###2023-12-09 13:17:47.994809$GBGSA,A,3,14,24,25,26,33,35,,,,,,,1.2,0.7,0.9*2B
###2023-12-09 13:17:47.997134$GPGSV,2,1,07,03,31,253,42,04,39,310,45,16,58,216,46,26,88,205,48*71
###2023-12-09 13:17:47.999181$GPGSV,2,2,07,28,43,078,45,29,23,053,43,31,64,053,47,,,,*43
###2023-12-09 13:17:48.001504$GLGSV,2,1,06,65,31,324,43,71,32,174,43,72,70,240,45,73,29,047,43*6F
###2023-12-09 13:17:48.003258$GLGSV,2,2,06,74,65,358,43,75,38,261,46,,,,,,,,*64
###2023-12-09 13:17:48.005574$GAGSV,1,1,04,04,34,311,44,19,79,190,40,21,83,062,46,27,28,049,41*6F
###2023-12-09 13:17:48.007907$GBGSV,2,1,06,14,36,191,42,24,68,036,50,25,45,268,48,26,21,066,43*6F
###2023-12-09 13:17:48.009657$GBGSV,2,2,06,33,52,224,48,35,16,063,44,,,,,,,,*66
###2023-12-09 13:17:48.010996$GNVTG,177.03,T,,M,3.52,N,6.52,K,A*24
###2023-12-09 13:17:48.012651$GNGST,181747.10,18.000,,,,0.100,0.069,0.170*5B
###2023-12-09 13:17:48.013938$GNZDA,181747.10,09,12,2023,00,00*7C
###2023-12-09 13:17:48.014586$GNEBP,,,,,,M*13
###2023-12-09 13:17:48.180953$GNGGA,181747.30,4138.0337265,N,07032.2941914,W,1,24,0.7,12.907,M,-29.744,M,0.0,*50
###2023-12-09 13:17:48.381464$GNGGA,181747.50,4138.0335325,N,07032.2942010,W,1,24,0.7,12.890,M,-29.744,M,0.0,*50
###2023-12-09 13:17:48.581421$GNGGA,181747.70,4138.0333430,N,07032.2942232,W,1,24,0.7,12.914,M,-29.744,M,0.0,*58
###2023-12-09 13:17:48.781603$GNGGA,181747.90,4138.0331489,N,07032.2942245,W,1,24,0.7,12.903,M,-29.744,M,0.0,*50
###2023-12-09 13:17:48.987122$GNRMC,181748.10,A,4138.0329598,N,07032.2942168,W,3.42,180.47,091223,,,A*52
###2023-12-09 13:17:48.989966$GNGGA,181748.10,4138.0329598,N,07032.2942168,W,1,24,0.7,12.881,M,-29.744,M,0.0,*58
###2023-12-09 13:17:48.991763$GPGSA,A,3,03,04,16,26,28,29,31,,,,,,1.2,0.7,0.9*38
###2023-12-09 13:17:48.993470$GLGSA,A,3,65,71,72,73,74,75,,,,,,,1.2,0.7,0.9*26
###2023-12-09 13:17:48.995060$GAGSA,A,3,04,19,21,27,,,,,,,,,1.2,0.7,0.9*24
###2023-12-09 13:17:48.996773$GBGSA,A,3,14,24,25,26,33,35,,,,,,,1.2,0.7,0.9*2B
###2023-12-09 13:17:48.999109$GPGSV,2,1,07,03,31,253,42,04,39,310,45,16,58,216,45,26,88,205,48*72
###2023-12-09 13:17:49.001144$GPGSV,2,2,07,28,43,078,45,29,23,053,43,31,64,053,47,,,,*43
###2023-12-09 13:17:49.003480$GLGSV,2,1,06,65,31,324,43,71,32,174,42,72,70,240,45,73,29,047,44*69
###2023-12-09 13:17:49.005228$GLGSV,2,2,06,74,65,358,43,75,38,261,46,,,,,,,,*64
###2023-12-09 13:17:49.007564$GAGSV,1,1,04,04,34,311,43,19,79,190,40,21,83,062,46,27,28,049,40*69
###2023-12-09 13:17:49.009887$GBGSV,2,1,06,14,36,191,42,24,68,036,49,25,45,268,47,26,21,066,44*6F
###2023-12-09 13:17:49.011643$GBGSV,2,2,06,33,52,224,47,35,16,063,44,,,,,,,,*69
###2023-12-09 13:17:49.012972$GNVTG,180.47,T,,M,3.42,N,6.34,K,A*2D
###2023-12-09 13:17:49.014633$GNGST,181748.10,18.000,,,,0.100,0.069,0.170*54
###2023-12-09 13:17:49.015924$GNZDA,181748.10,09,12,2023,00,00*73
###2023-12-09 13:17:49.016564$GNEBP,,,,,,M*13
###2023-12-09 13:17:49.181611$GNGGA,181748.30,4138.0327671,N,07032.2942385,W,1,24,0.7,12.902,M,-29.744,M,0.0,*5B
###2023-12-09 13:17:49.382653$GNGGA,181748.50,4138.0325699,N,07032.2942575,W,1,24,0.7,12.889,M,-29.744,M,0.0,*52
###2023-12-09 13:17:49.583763$GNGGA,181748.70,4138.0323807,N,07032.2942523,W,1,24,0.7,12.887,M,-29.744,M,0.0,*52
###2023-12-09 13:17:49.781529$GNGGA,181748.90,4138.0321854,N,07032.2942543,W,1,24,0.7,12.909,M,-29.744,M,0.0,*59
###2023-12-09 13:17:49.984795$GNRMC,181749.10,A,4138.0319864,N,07032.2942496,W,3.46,177.49,091223,,,A*58
###2023-12-09 13:17:49.987914$GNGGA,181749.10,4138.0319864,N,07032.2942496,W,1,24,0.7,12.882,M,-29.744,M,0.0,*53
###2023-12-09 13:17:49.989720$GPGSA,A,3,03,04,16,26,28,29,31,,,,,,1.2,0.7,0.9*38
###2023-12-09 13:17:49.991446$GLGSA,A,3,65,71,72,73,74,75,,,,,,,1.2,0.7,0.9*26
###2023-12-09 13:17:49.993031$GAGSA,A,3,04,19,21,27,,,,,,,,,1.2,0.7,0.9*24
###2023-12-09 13:17:49.994753$GBGSA,A,3,14,24,25,26,33,35,,,,,,,1.2,0.7,0.9*2B
###2023-12-09 13:17:49.997069$GPGSV,2,1,07,03,31,253,42,04,39,310,45,16,58,216,46,26,88,205,48*71
###2023-12-09 13:17:49.999114$GPGSV,2,2,07,28,43,078,45,29,23,053,42,31,64,053,48,,,,*4D
###2023-12-09 13:17:50.001440$GLGSV,2,1,06,65,31,324,43,71,32,174,43,72,70,240,45,73,29,047,43*6F
###2023-12-09 13:17:50.003207$GLGSV,2,2,06,74,65,358,43,75,38,261,46,,,,,,,,*64
###2023-12-09 13:17:50.005525$GAGSV,1,1,04,04,34,311,44,19,79,190,40,21,83,062,46,27,28,049,40*6E
