###2023-12-09 13:25:32.012380$GLGSV,2,2,06,74,63,006,41,75,40,266,47,,,,,,,,*61
###2023-12-09 13:25:32.014741$GAGSV,1,1,04,04,37,311,43,19,76,185,41,21,80,051,45,27,26,049,39*60
###2023-12-09 13:25:32.017069$GBGSV,2,1,06,14,33,190,43,24,66,041,48,25,48,272,47,26,19,068,43*61
###2023-12-09 13:25:32.018829$GBGSV,2,2,06,33,49,220,47,35,16,060,43,,,,,,,,*63
###2023-12-09 13:25:32.020150$GNVTG,359.43,T,,M,2.68,N,4.97,K,A*2D
###2023-12-09 13:25:32.021792$GNGST,182531.10,18.000,,,,0.100,0.070,0.160*52
###2023-12-09 13:25:32.023093$GNZDA,182531.10,09,12,2023,00,00*7C
###2023-12-09 13:25:32.023730$GNEBP,,,,,,M*13
###2023-12-09 13:25:32.191594$GNGGA,182531.30,4138.0281931,N,07032.3374829,W,1,24,0.6,13.256,M,-29.745,M,0.0,*5A
###2023-12-09 13:25:32.390000$GNGGA,182531.50,4138.0283519,N,07032.3374661,W,1,24,0.6,13.255,M,-29.745,M,0.0,*59
###2023-12-09 13:25:32.593581$GNGGA,182531.70,4138.0285132,N,07032.3374399,W,1,24,0.6,13.246,M,-29.745,M,0.0,*50
###2023-12-09 13:25:32.790116$GNGGA,182531.90,4138.0286730,N,07032.3374414,W,1,24,0.6,13.241,M,-29.745,M,0.0,*5C
###2023-12-09 13:25:33.003435$GNRMC,182532.10,A,4138.0288242,N,07032.3374675,W,2.72,351.50,091223,,,A*5B
###2023-12-09 13:25:33.006302$GNGGA,182532.10,4138.0288242,N,07032.3374675,W,1,24,0.6,13.250,M,-29.745,M,0.0,*5C
###2023-12-09 13:25:33.008098$GPGSA,A,3,03,04,16,26,28,29,31,,,,,,1.1,0.6,0.9*3A
###2023-12-09 13:25:33.009805$GLGSA,A,3,65,71,72,73,74,75,,,,,,,1.1,0.6,0.9*24
###2023-12-09 13:25:33.011398$GAGSA,A,3,04,19,21,27,,,,,,,,,1.1,0.6,0.9*26
###2023-12-09 13:25:33.013105$GBGSA,A,3,14,24,25,26,33,35,,,,,,,1.1,0.6,0.9*29
###2023-12-09 13:25:33.015438$GPGSV,2,1,07,03,29,250,43,04,43,309,44,16,62,219,46,26,88,044,48*7F
###2023-12-09 13:25:33.017479$GPGSV,2,2,07,28,41,081,44,29,22,050,41,31,62,060,46,,,,*41
###2023-12-09 13:25:33.019806$GLGSV,2,1,06,65,34,322,40,71,27,175,46,72,67,229,47,73,26,049,41*67
###2023-12-09 13:25:33.021556$GLGSV,2,2,06,74,63,006,42,75,40,266,46,,,,,,,,*63
###2023-12-09 13:25:33.023890$GAGSV,1,1,04,04,37,311,43,19,76,185,41,21,80,051,46,27,26,049,39*63
###2023-12-09 13:25:33.026205$GBGSV,2,1,06,14,33,190,41,24,66,041,48,25,48,272,46,26,19,068,43*62
###2023-12-09 13:25:33.027955$GBGSV,2,2,06,33,49,220,47,35,16,060,42,,,,,,,,*62
###2023-12-09 13:25:33.029277$GNVTG,351.50,T,,M,2.72,N,5.04,K,A*27
###2023-12-09 13:25:33.030961$GNGST,182532.10,18.000,,,,0.100,0.070,0.160*51
###2023-12-09 13:25:33.032255$GNZDA,182532.10,09,12,2023,00,00*7F
###2023-12-09 13:25:33.032891$GNEBP,,,,,,M*13
###2023-12-09 13:25:33.195299$GNGGA,182532.30,4138.0289751,N,07032.3374852,W,1,24,0.6,13.244,M,-29.745,M,0.0,*56
###2023-12-09 13:25:33.389367$GNGGA,182532.50,4138.0291211,N,07032.3375013,W,1,24,0.6,13.227,M,-29.745,M,0.0,*51
###2023-12-09 13:25:33.590971$GNGGA,182532.70,4138.0292632,N,07032.3375359,W,1,24,0.6,13.232,M,-29.745,M,0.0,*5C
###2023-12-09 13:25:33.790172$GNGGA,182532.90,4138.0293984,N,07032.3375843,W,1,24,0.6,13.245,M,-29.745,M,0.0,*51
###2023-12-09 13:25:33.995050$GNRMC,182533.10,A,4138.0295331,N,07032.3376538,W,2.68,337.80,091223,,,A*5D
###2023-12-09 13:25:33.997903$GNGGA,182533.10,4138.0295331,N,07032.3376538,W,1,24,0.6,13.251,M,-29.745,M,0.0,*5D
###2023-12-09 13:25:33.999705$GPGSA,A,3,03,04,16,26,28,29,31,,,,,,1.1,0.6,0.9*3A
###2023-12-09 13:25:34.001421$GLGSA,A,3,65,71,72,73,74,75,,,,,,,1.1,0.6,0.9*24
###2023-12-09 13:25:34.003025$GAGSA,A,3,04,19,21,27,,,,,,,,,1.1,0.6,0.9*26
###2023-12-09 13:25:34.004747$GBGSA,A,3,14,24,25,26,33,35,,,,,,,1.1,0.6,0.9*29
###2023-12-09 13:25:34.007102$GPGSV,2,1,07,03,29,250,43,04,43,309,43,16,62,219,46,26,88,044,48*78
###2023-12-09 13:25:34.009140$GPGSV,2,2,07,28,41,081,45,29,22,050,43,31,62,060,47,,,,*43
###2023-12-09 13:25:34.011482$GLGSV,2,1,06,65,34,322,40,71,27,175,45,72,67,229,47,73,26,049,44*61
###2023-12-09 13:25:34.013231$GLGSV,2,2,06,74,63,006,42,75,40,266,46,,,,,,,,*63
###2023-12-09 13:25:34.015568$GAGSV,1,1,04,04,37,311,41,19,76,185,41,21,80,051,46,27,26,049,42*6D
###2023-12-09 13:25:34.017898$GBGSV,2,1,06,14,33,190,41,24,66,041,50,25,48,272,47,26,19,068,43*6A
###2023-12-09 13:25:34.019660$GBGSV,2,2,06,33,49,220,48,35,16,060,43,,,,,,,,*6C
###2023-12-09 13:25:34.020986$GNVTG,337.80,T,,M,2.68,N,4.97,K,A*2A
###2023-12-09 13:25:34.022644$GNGST,182533.10,18.000,,,,0.100,0.070,0.160*50
###2023-12-09 13:25:34.023937$GNZDA,182533.10,09,12,2023,00,00*7E
###2023-12-09 13:25:34.024575$GNEBP,,,,,,M*13
###2023-12-09 13:25:34.190497$GNGGA,182533.30,4138.0296727,N,07032.3377307,W,1,24,0.6,13.237,M,-29.745,M,0.0,*54
###2023-12-09 13:25:34.390958$GNGGA,182533.50,4138.0298158,N,07032.3378165,W,1,24,0.6,13.232,M,-29.745,M,0.0,*5E
###2023-12-09 13:25:34.589108$GNGGA,182533.70,4138.0299618,N,07032.3379086,W,1,24,0.6,13.235,M,-29.745,M,0.0,*54
###2023-12-09 13:25:34.789379$GNGGA,182533.90,4138.0301068,N,07032.3380091,W,1,24,0.6,13.228,M,-29.745,M,0.0,*57
###2023-12-09 13:25:34.994910$GNRMC,182534.10,A,4138.0302444,N,07032.3381227,W,2.86,325.99,091223,,,A*5A
###2023-12-09 13:25:34.997782$GNGGA,182534.10,4138.0302444,N,07032.3381227,W,1,24,0.6,13.219,M,-29.745,M,0.0,*5D
###2023-12-09 13:25:34.999599$GPGSA,A,3,03,04,16,26,28,29,31,,,,,,1.1,0.6,0.9*3A
###2023-12-09 13:25:35.001317$GLGSA,A,3,65,71,72,73,74,75,,,,,,,1.1,0.6,0.9*24
###2023-12-09 13:25:35.002918$GAGSA,A,3,04,19,21,27,,,,,,,,,1.1,0.6,0.9*26
###2023-12-09 13:25:35.004636$GBGSA,A,3,14,24,25,26,33,35,,,,,,,1.1,0.6,0.9*29
###2023-12-09 13:25:35.006974$GPGSV,2,1,07,03,29,250,43,04,43,309,42,16,62,219,46,26,88,044,47*76
###2023-12-09 13:25:35.009010$GPGSV,2,2,07,28,41,081,44,29,22,050,42,31,62,060,47,,,,*43
###2023-12-09 13:25:35.011356$GLGSV,2,1,06,65,34,322,40,71,27,175,42,72,67,229,46,73,26,049,45*66
###2023-12-09 13:25:35.013103$GLGSV,2,2,06,74,63,006,42,75,40,266,46,,,,,,,,*63
###2023-12-09 13:25:35.015442$GAGSV,1,1,04,04,37,311,42,19,76,185,41,21,80,051,46,27,26,049,42*6E
###2023-12-09 13:25:35.017770$GBGSV,2,1,06,14,33,190,41,24,66,041,49,25,48,272,47,26,19,068,43*62
###2023-12-09 13:25:35.019524$GBGSV,2,2,06,33,49,220,47,35,16,060,42,,,,,,,,*62
###2023-12-09 13:25:35.020842$GNVTG,325.99,T,,M,2.86,N,5.29,K,A*25
###2023-12-09 13:25:35.022488$GNGST,182534.10,18.000,,,,0.100,0.070,0.160*57
###2023-12-09 13:25:35.023786$GNZDA,182534.10,09,12,2023,00,00*79
###2023-12-09 13:25:35.024424$GNEBP,,,,,,M*13
###2023-12-09 13:25:35.190031$GNGGA,182534.30,4138.0303760,N,07032.3382442,W,1,24,0.6,13.222,M,-29.745,M,0.0,*55
###2023-12-09 13:25:35.389748$GNGGA,182534.50,4138.0305037,N,07032.3383736,W,1,24,0.6,13.220,M,-29.745,M,0.0,*53
###2023-12-09 13:25:35.592745$GNGGA,182534.70,4138.0306279,N,07032.3385063,W,1,24,0.6,13.215,M,-29.745,M,0.0,*5D
###2023-12-09 13:25:35.789874$GNGGA,182534.90,4138.0307485,N,07032.3386448,W,1,24,0.6,13.218,M,-29.745,M,0.0,*54
###2023-12-09 13:25:35.992789$GNRMC,182535.10,A,4138.0308684,N,07032.3387872,W,2.86,318.62,091223,,,A*59
###2023-12-09 13:25:35.995673$GNGGA,182535.10,4138.0308684,N,07032.3387872,W,1,24,0.6,13.219,M,-29.745,M,0.0,*54
###2023-12-09 13:25:35.997466$GPGSA,A,3,03,04,16,26,28,29,31,,,,,,1.1,0.6,0.9*3A
###2023-12-09 13:25:35.999206$GLGSA,A,3,65,71,72,73,74,75,,,,,,,1.1,0.6,0.9*24
###2023-12-09 13:25:36.000808$GAGSA,A,3,04,19,21,27,,,,,,,,,1.1,0.6,0.9*26
###2023-12-09 13:25:36.002527$GBGSA,A,3,14,24,25,26,33,35,,,,,,,1.1,0.6,0.9*29
###2023-12-09 13:25:36.004871$GPGSV,2,1,07,03,29,250,43,04,43,309,41,16,62,219,46,26,88,044,48*7A
###2023-12-09 13:25:36.006936$GPGSV,2,2,07,28,41,081,44,29,22,050,42,31,62,060,47,,,,*43
###2023-12-09 13:25:36.009271$GLGSV,2,1,06,65,34,322,41,71,27,175,41,72,67,229,46,73,26,049,44*65
###2023-12-09 13:25:36.011033$GLGSV,2,2,06,74,63,006,42,75,40,266,46,,,,,,,,*63
###2023-12-09 13:25:36.013348$GAGSV,1,1,04,04,37,311,42,19,76,185,41,21,80,051,46,27,26,049,42*6E
###2023-12-09 13:25:36.015690$GBGSV,2,1,06,14,33,190,43,24,66,041,49,25,48,272,47,26,19,068,44*67
###2023-12-09 13:25:36.017435$GBGSV,2,2,06,33,49,220,48,35,16,060,43,,,,,,,,*6C
###2023-12-09 13:25:36.018769$GNVTG,318.62,T,,M,2.86,N,5.29,K,A*2F
###2023-12-09 13:25:36.020418$GNGST,182535.10,18.000,,,,0.100,0.070,0.160*56
###2023-12-09 13:25:36.021710$GNZDA,182535.10,09,12,2023,00,00*78
###2023-12-09 13:25:36.022349$GNEBP,,,,,,M*13
###2023-12-09 13:25:36.190485$GNGGA,182535.30,4138.0309897,N,07032.3389301,W,1,24,0.6,13.214,M,-29.745,M,0.0,*57
###2023-12-09 13:25:36.391216$GNGGA,182535.50,4138.0311124,N,07032.3390737,W,1,24,0.6,13.215,M,-29.745,M,0.0,*51
###2023-12-09 13:25:36.589468$GNGGA,182535.70,4138.0312358,N,07032.3392181,W,1,24,0.6,13.215,M,-29.745,M,0.0,*50
###2023-12-09 13:25:36.789403$GNGGA,182535.90,4138.0313592,N,07032.3393663,W,1,24,0.6,13.219,M,-29.745,M,0.0,*59
###2023-12-09 13:25:36.997586$GNRMC,182536.10,A,4138.0314847,N,07032.3395137,W,3.03,320.23,091223,,,A*5F
###2023-12-09 13:25:37.000482$GNGGA,182536.10,4138.0314847,N,07032.3395137,W,1,24,0.6,13.221,M,-29.744,M,0.0,*5A
###2023-12-09 13:25:37.002284$GPGSA,A,3,03,04,16,26,28,29,31,,,,,,1.1,0.6,0.9*3A
###2023-12-09 13:25:37.004012$GLGSA,A,3,65,71,72,73,74,75,,,,,,,1.1,0.6,0.9*24
