###2023-12-09 13:26:38.997740$GPGSA,A,3,03,04,16,26,28,29,31,,,,,,1.1,0.6,0.9*3A
###2023-12-09 13:26:38.999504$GLGSA,A,3,65,71,72,73,74,75,,,,,,,1.1,0.6,0.9*24
###2023-12-09 13:26:39.001128$GAGSA,A,3,04,19,21,27,,,,,,,,,1.1,0.6,0.9*26
###2023-12-09 13:26:39.002853$GBGSA,A,3,14,24,25,26,33,35,,,,,,,1.1,0.6,0.9*29
###2023-12-09 13:26:39.005166$GPGSV,2,1,07,03,29,250,40,04,43,309,43,16,62,219,45,26,88,044,47*77
###2023-12-09 13:26:39.007203$GPGSV,2,2,07,28,41,081,45,29,22,050,43,31,62,060,47,,,,*43
###2023-12-09 13:26:39.009518$GLGSV,2,1,06,65,35,321,42,71,27,175,44,72,67,229,45,73,26,049,42*64
###2023-12-09 13:26:39.011277$GLGSV,2,2,06,74,63,006,43,75,40,266,45,,,,,,,,*61
###2023-12-09 13:26:39.013595$GAGSV,1,1,04,04,37,311,42,19,75,184,40,21,80,050,46,27,25,049,41*6C
###2023-12-09 13:26:39.015930$GBGSV,2,1,06,14,32,190,43,24,65,042,48,25,49,273,45,26,18,069,44*65
###2023-12-09 13:26:39.017663$GBGSV,2,2,06,33,48,220,46,35,16,059,44,,,,,,,,*6E
###2023-12-09 13:26:39.018985$GNVTG,227.69,T,,M,3.42,N,6.34,K,A*2F
###2023-12-09 13:26:39.020619$GNGST,182638.10,18.000,,,,0.098,0.071,0.160*59
###2023-12-09 13:26:39.021893$GNZDA,182638.10,09,12,2023,00,00*76
###2023-12-09 13:26:39.022524$GNEBP,,,,,,M*13
###2023-12-09 13:26:39.191149$GNGGA,182638.30,4138.0760568,N,07032.3564498,W,1,24,0.6,13.201,M,-29.743,M,0.0,*5F
###2023-12-09 13:26:39.386796$GNGGA,182638.50,4138.0759576,N,07032.3566672,W,1,24,0.6,13.220,M,-29.743,M,0.0,*5B
###2023-12-09 13:26:39.587280$GNGGA,182638.70,4138.0758333,N,07032.3568590,W,1,24,0.6,13.201,M,-29.743,M,0.0,*5D
###2023-12-09 13:26:39.788517$GNGGA,182638.90,4138.0757254,N,07032.3570692,W,1,24,0.6,13.210,M,-29.743,M,0.0,*54
###2023-12-09 13:26:39.990444$GNRMC,182639.10,A,4138.0756451,N,07032.3573126,W,3.65,246.24,091223,,,A*52
###2023-12-09 13:26:39.993337$GNGGA,182639.10,4138.0756451,N,07032.3573126,W,1,24,0.6,13.241,M,-29.743,M,0.0,*50
###2023-12-09 13:26:39.995138$GPGSA,A,3,03,04,16,26,28,29,31,,,,,,1.1,0.6,0.9*3A
###2023-12-09 13:26:39.996842$GLGSA,A,3,65,71,72,73,74,75,,,,,,,1.1,0.6,0.9*24
###2023-12-09 13:26:39.998410$GAGSA,A,3,04,19,21,27,,,,,,,,,1.1,0.6,0.9*26
###2023-12-09 13:26:40.000134$GBGSA,A,3,14,24,25,26,33,35,,,,,,,1.1,0.6,0.9*29
###2023-12-09 13:26:40.002446$GPGSV,2,1,07,03,29,250,42,04,43,309,44,16,62,219,45,26,88,044,48*7D
###2023-12-09 13:26:40.004482$GPGSV,2,2,07,28,41,081,43,29,22,050,43,31,62,060,47,,,,*45
###2023-12-09 13:26:40.006797$GLGSV,2,1,06,65,35,321,44,71,27,175,43,72,67,229,45,73,26,049,43*64
###2023-12-09 13:26:40.008523$GLGSV,2,2,06,74,63,006,43,75,40,266,44,,,,,,,,*60
###2023-12-09 13:26:40.010839$GAGSV,1,1,04,04,37,311,43,19,75,184,40,21,80,050,45,27,25,049,40*6F
###2023-12-09 13:26:40.013156$GBGSV,2,1,06,14,32,190,42,24,65,042,48,25,49,273,45,26,18,069,44*64
###2023-12-09 13:26:40.014898$GBGSV,2,2,06,33,48,220,46,35,16,059,44,,,,,,,,*6E
###2023-12-09 13:26:40.016209$GNVTG,246.24,T,,M,3.65,N,6.77,K,A*23
###2023-12-09 13:26:40.017837$GNGST,182639.10,18.000,,,,0.098,0.071,0.160*58
###2023-12-09 13:26:40.019155$GNZDA,182639.10,09,12,2023,00,00*77
###2023-12-09 13:26:40.019792$GNEBP,,,,,,M*13
###2023-12-09 13:26:40.187086$GNGGA,182639.30,4138.0755487,N,07032.3575505,W,1,24,0.6,13.216,M,-29.743,M,0.0,*5B
###2023-12-09 13:26:40.389132$GNGGA,182639.50,4138.0754436,N,07032.3577742,W,1,24,0.6,13.188,M,-29.743,M,0.0,*51
###2023-12-09 13:26:40.586499$GNGGA,182639.70,4138.0753536,N,07032.3580095,W,1,24,0.6,13.212,M,-29.743,M,0.0,*50
###2023-12-09 13:26:40.787437$GNGGA,182639.90,4138.0752783,N,07032.3582529,W,1,24,0.6,13.247,M,-29.743,M,0.0,*53
###2023-12-09 13:26:40.992058$GNRMC,182640.10,A,4138.0752099,N,07032.3584994,W,3.52,246.95,091223,,,A*5F
###2023-12-09 13:26:40.995518$GNGGA,182640.10,4138.0752099,N,07032.3584994,W,1,24,0.6,13.232,M,-29.743,M,0.0,*57
###2023-12-09 13:26:40.997686$GPGSA,A,3,03,04,16,26,28,29,31,,,,,,1.1,0.6,0.9*3A
###2023-12-09 13:26:40.999773$GLGSA,A,3,65,71,72,73,74,75,,,,,,,1.1,0.6,0.9*24
###2023-12-09 13:26:41.001681$GAGSA,A,3,04,19,21,27,,,,,,,,,1.1,0.6,0.9*26
###2023-12-09 13:26:41.003761$GBGSA,A,3,14,24,25,26,33,35,,,,,,,1.1,0.6,0.9*29
###2023-12-09 13:26:41.006546$GPGSV,2,1,07,03,29,250,42,04,43,309,44,16,62,219,46,26,88,044,48*7E
###2023-12-09 13:26:41.009003$GPGSV,2,2,07,28,41,081,44,29,22,050,42,31,62,060,47,,,,*43
###2023-12-09 13:26:41.011823$GLGSV,2,1,06,65,35,321,42,71,27,175,44,72,67,229,45,73,26,049,42*64
###2023-12-09 13:26:41.013925$GLGSV,2,2,06,74,63,006,43,75,40,266,45,,,,,,,,*61
###2023-12-09 13:26:41.016737$GAGSV,1,1,04,04,37,311,42,19,75,184,40,21,80,050,46,27,25,049,40*6D
###2023-12-09 13:26:41.019577$GBGSV,2,1,06,14,32,190,42,24,65,042,48,25,49,273,45,26,18,069,44*64
###2023-12-09 13:26:41.021683$GBGSV,2,2,06,33,48,220,46,35,16,059,44,,,,,,,,*6E
###2023-12-09 13:26:41.023295$GNVTG,246.95,T,,M,3.52,N,6.52,K,A*2A
###2023-12-09 13:26:41.025275$GNGST,182640.10,18.000,,,,0.098,0.071,0.160*56
###2023-12-09 13:26:41.026844$GNZDA,182640.10,09,12,2023,00,00*79
###2023-12-09 13:26:41.027621$GNEBP,,,,,,M*13
###2023-12-09 13:26:41.187032$GNGGA,182640.30,4138.0751260,N,07032.3587382,W,1,24,0.6,13.207,M,-29.743,M,0.0,*5A
###2023-12-09 13:26:41.386221$GNGGA,182640.50,4138.0750544,N,07032.3589918,W,1,24,0.6,13.218,M,-29.743,M,0.0,*55
###2023-12-09 13:26:41.591081$GNGGA,182640.70,4138.0750033,N,07032.3592607,W,1,24,0.6,13.249,M,-29.743,M,0.0,*5D
###2023-12-09 13:26:41.791542$GNGGA,182640.90,4138.0749450,N,07032.3595206,W,1,24,0.6,13.257,M,-29.743,M,0.0,*57
###2023-12-09 13:26:41.990603$GNRMC,182641.10,A,4138.0748605,N,07032.3597646,W,3.63,243.34,091223,,,A*58
###2023-12-09 13:26:41.993475$GNGGA,182641.10,4138.0748605,N,07032.3597646,W,1,24,0.6,13.248,M,-29.743,M,0.0,*51
###2023-12-09 13:26:41.995284$GPGSA,A,3,03,04,16,26,28,29,31,,,,,,1.1,0.6,0.9*3A
###2023-12-09 13:26:41.997000$GLGSA,A,3,65,71,72,73,74,75,,,,,,,1.1,0.6,0.9*24
###2023-12-09 13:26:41.998590$GAGSA,A,3,04,19,21,27,,,,,,,,,1.1,0.6,0.9*26
###2023-12-09 13:26:42.000303$GBGSA,A,3,14,24,25,26,33,35,,,,,,,1.1,0.6,0.9*29
###2023-12-09 13:26:42.002645$GPGSV,2,1,07,03,29,250,42,04,43,309,44,16,62,219,45,26,88,044,48*7D
###2023-12-09 13:26:42.004696$GPGSV,2,2,07,28,41,081,44,29,22,050,43,31,62,060,46,,,,*43
###2023-12-09 13:26:42.007052$GLGSV,2,1,06,65,35,321,43,71,27,175,43,72,67,229,45,73,26,049,42*62
###2023-12-09 13:26:42.008809$GLGSV,2,2,06,74,63,006,42,75,40,266,45,,,,,,,,*60
###2023-12-09 13:26:42.011148$GAGSV,1,1,04,04,37,311,42,19,75,184,40,21,80,050,46,27,25,049,40*6D
###2023-12-09 13:26:42.013474$GBGSV,2,1,06,14,32,190,42,24,65,042,48,25,49,273,45,26,18,069,44*64
###2023-12-09 13:26:42.015227$GBGSV,2,2,06,33,48,220,46,35,16,059,46,,,,,,,,*6C
###2023-12-09 13:26:42.016547$GNVTG,243.34,T,,M,3.63,N,6.73,K,A*25
###2023-12-09 13:26:42.018193$GNGST,182641.10,18.000,,,,0.098,0.071,0.160*57
###2023-12-09 13:26:42.019496$GNZDA,182641.10,09,12,2023,00,00*78
###2023-12-09 13:26:42.020134$GNEBP,,,,,,M*13
###2023-12-09 13:26:42.187126$GNGGA,182641.30,4138.0747726,N,07032.3600083,W,1,24,0.6,13.224,M,-29.743,M,0.0,*54
###2023-12-09 13:26:42.386264$GNGGA,182641.50,4138.0747021,N,07032.3602594,W,1,24,0.6,13.216,M,-29.743,M,0.0,*52
###2023-12-09 13:26:42.587491$GNGGA,182641.70,4138.0746376,N,07032.3605143,W,1,24,0.6,13.232,M,-29.743,M,0.0,*5F
###2023-12-09 13:26:42.788461$GNGGA,182641.90,4138.0745547,N,07032.3607596,W,1,24,0.6,13.247,M,-29.743,M,0.0,*5A
###2023-12-09 13:26:42.992065$GNRMC,182642.10,A,4138.0744578,N,07032.3609979,W,3.73,243.66,091223,,,A*5F
###2023-12-09 13:26:42.995535$GNGGA,182642.10,4138.0744578,N,07032.3609979,W,1,24,0.6,13.260,M,-29.743,M,0.0,*5A
###2023-12-09 13:26:42.997702$GPGSA,A,3,03,04,16,26,28,29,31,,,,,,1.1,0.6,0.9*3A
###2023-12-09 13:26:42.999786$GLGSA,A,3,65,71,72,73,74,75,,,,,,,1.1,0.6,0.9*24
###2023-12-09 13:26:43.001728$GAGSA,A,3,04,19,21,27,,,,,,,,,1.1,0.6,0.9*26
###2023-12-09 13:26:43.003813$GBGSA,A,3,14,24,25,26,33,35,,,,,,,1.1,0.6,0.9*29
###2023-12-09 13:26:43.006633$GPGSV,2,1,07,03,29,250,42,04,43,309,45,16,62,219,45,26,88,044,48*7C
###2023-12-09 13:26:43.009084$GPGSV,2,2,07,28,41,081,43,29,22,050,43,31,62,060,46,,,,*44
###2023-12-09 13:26:43.011929$GLGSV,2,1,06,65,35,321,43,71,27,175,44,72,67,229,45,73,26,049,43*64
###2023-12-09 13:26:43.014305$GLGSV,2,2,06,74,63,006,43,75,40,266,45,,,,,,,,*61
###2023-12-09 13:26:43.017140$GAGSV,1,1,04,04,37,311,43,19,75,184,40,21,80,050,46,27,25,049,40*6C
###2023-12-09 13:26:43.019955$GBGSV,2,1,06,14,32,190,43,24,65,042,48,25,49,273,46,26,18,069,44*66
###2023-12-09 13:26:43.022052$GBGSV,2,2,06,33,48,220,47,35,16,059,45,,,,,,,,*6E
###2023-12-09 13:26:43.023656$GNVTG,243.66,T,,M,3.73,N,6.91,K,A*2F
###2023-12-09 13:26:43.025635$GNGST,182642.10,18.000,,,,0.098,0.071,0.160*54
###2023-12-09 13:26:43.027202$GNZDA,182642.10,09,12,2023,00,00*7B
###2023-12-09 13:26:43.027977$GNEBP,,,,,,M*13
###2023-12-09 13:26:43.187200$GNGGA,182642.30,4138.0743708,N,07032.3612533,W,1,24,0.6,13.271,M,-29.743,M,0.0,*52
