###2023-12-09 13:27:40.991816$GNRMC,182740.10,A,4138.0446833,N,07032.4228541,W,3.46,232.98,091223,,,A*59
###2023-12-09 13:27:40.994700$GNGGA,182740.10,4138.0446833,N,07032.4228541,W,1,23,0.7,12.906,M,-29.745,M,0.0,*57
###2023-12-09 13:27:40.996504$GPGSA,A,3,03,04,16,26,28,29,31,,,,,,1.2,0.7,1.0*30
###2023-12-09 13:27:40.998229$GLGSA,A,3,65,71,72,73,74,75,,,,,,,1.2,0.7,1.0*2E
###2023-12-09 13:27:40.999826$GAGSA,A,3,04,19,21,27,,,,,,,,,1.2,0.7,1.0*2C
###2023-12-09 13:27:41.001543$GBGSA,A,3,14,24,25,26,33,35,,,,,,,1.2,0.7,1.0*23
###2023-12-09 13:27:41.003885$GPGSV,2,1,07,03,28,249,38,04,43,309,45,16,63,220,45,26,87,041,49*78
###2023-12-09 13:27:41.005927$GPGSV,2,2,07,28,40,082,44,29,22,049,43,31,61,061,47,,,,*4A
###2023-12-09 13:27:41.008279$GLGSV,2,1,06,65,35,321,42,71,26,175,42,72,66,227,45,73,25,050,43*66
###2023-12-09 13:27:41.010033$GLGSV,2,2,06,74,62,008,43,75,41,267,45,,,,,,,,*6E
###2023-12-09 13:27:41.012376$GAGSV,1,1,04,04,37,311,43,19,75,184,40,21,80,050,46,27,25,049,41*6D
###2023-12-09 13:27:41.014728$GBGSV,2,1,06,14,32,190,41,24,65,042,48,25,49,273,45,26,18,069,44*67
###2023-12-09 13:27:41.016481$GBGSV,2,2,06,33,48,220,44,35,16,059,45,,,,,,,,*6D
###2023-12-09 13:27:41.017810$GNVTG,232.98,T,,M,3.46,N,6.41,K,A*23
###2023-12-09 13:27:41.019468$GNGST,182740.10,18.000,,,,0.100,0.071,0.160*57
###2023-12-09 13:27:41.020761$GNZDA,182740.10,09,12,2023,00,00*78
###2023-12-09 13:27:41.021399$GNEBP,,,,,,M*13
###2023-12-09 13:27:41.187307$GNGGA,182740.30,4138.0445679,N,07032.4230594,W,1,23,0.7,12.908,M,-29.745,M,0.0,*59
###2023-12-09 13:27:41.392074$GNGGA,182740.50,4138.0444535,N,07032.4232672,W,1,23,0.7,12.918,M,-29.745,M,0.0,*5D
###2023-12-09 13:27:41.586834$GNGGA,182740.70,4138.0443375,N,07032.4234788,W,1,23,0.7,12.915,M,-29.745,M,0.0,*55
###2023-12-09 13:27:41.787305$GNGGA,182740.90,4138.0442125,N,07032.4236822,W,1,23,0.7,12.920,M,-29.745,M,0.0,*56
###2023-12-09 13:27:41.989069$GNRMC,182741.10,A,4138.0440804,N,07032.4238877,W,3.65,229.42,091223,,,A*5F
###2023-12-09 13:27:41.991931$GNGGA,182741.10,4138.0440804,N,07032.4238877,W,1,23,0.7,12.927,M,-29.745,M,0.0,*5E
###2023-12-09 13:27:41.993721$GPGSA,A,3,03,04,16,26,28,29,31,,,,,,1.2,0.7,1.0*30
###2023-12-09 13:27:41.995445$GLGSA,A,3,65,71,72,73,74,75,,,,,,,1.2,0.7,1.0*2E
###2023-12-09 13:27:41.997028$GAGSA,A,3,04,19,21,27,,,,,,,,,1.2,0.7,1.0*2C
###2023-12-09 13:27:41.998747$GBGSA,A,3,14,24,25,26,33,35,,,,,,,1.2,0.7,1.0*23
###2023-12-09 13:27:42.001074$GPGSV,2,1,07,03,28,249,38,04,43,309,45,16,63,220,45,26,87,041,48*79
###2023-12-09 13:27:42.003128$GPGSV,2,2,07,28,40,082,44,29,22,049,43,31,61,061,47,,,,*4A
###2023-12-09 13:27:42.005458$GLGSV,2,1,06,65,35,321,43,71,26,175,40,72,66,227,45,73,25,050,43*65
###2023-12-09 13:27:42.007226$GLGSV,2,2,06,74,62,008,43,75,41,267,46,,,,,,,,*6D
###2023-12-09 13:27:42.009550$GAGSV,1,1,04,04,37,311,44,19,75,184,40,21,80,050,46,27,25,049,41*6A
###2023-12-09 13:27:42.011894$GBGSV,2,1,06,14,32,190,41,24,65,042,47,25,49,273,44,26,18,069,43*6E
###2023-12-09 13:27:42.013638$GBGSV,2,2,06,33,48,220,44,35,16,059,43,,,,,,,,*6B
###2023-12-09 13:27:42.014974$GNVTG,229.42,T,,M,3.65,N,6.77,K,A*2A
###2023-12-09 13:27:42.016625$GNGST,182741.10,18.000,,,,0.100,0.072,0.160*55
###2023-12-09 13:27:42.017918$GNZDA,182741.10,09,12,2023,00,00*79
###2023-12-09 13:27:42.018559$GNEBP,,,,,,M*13
###2023-12-09 13:27:42.186754$GNGGA,182741.30,4138.0439473,N,07032.4240950,W,1,23,0.7,12.932,M,-29.745,M,0.0,*51
###2023-12-09 13:27:42.383644$GNGGA,182741.50,4138.0438148,N,07032.4243001,W,1,24,0.6,12.938,M,-29.745,M,0.0,*59
###2023-12-09 13:27:42.583735$GNGGA,182741.70,4138.0436805,N,07032.4245051,W,1,24,0.6,12.936,M,-29.745,M,0.0,*58
###2023-12-09 13:27:42.785778$GNGGA,182741.90,4138.0435498,N,07032.4247064,W,1,23,0.7,12.935,M,-29.745,M,0.0,*5C
###2023-12-09 13:27:42.986381$GNRMC,182742.10,A,4138.0434219,N,07032.4249145,W,3.69,230.75,091223,,,A*57
###2023-12-09 13:27:42.989276$GNGGA,182742.10,4138.0434219,N,07032.4249145,W,1,23,0.7,12.941,M,-29.745,M,0.0,*56
###2023-12-09 13:27:42.991022$GPGSA,A,3,04,16,26,28,29,31,,,,,,,1.2,0.7,1.0*33
###2023-12-09 13:27:42.992740$GLGSA,A,3,65,71,72,73,74,75,,,,,,,1.2,0.7,1.0*2E
###2023-12-09 13:27:42.994322$GAGSA,A,3,04,19,21,27,,,,,,,,,1.2,0.7,1.0*2C
###2023-12-09 13:27:42.996046$GBGSA,A,3,14,24,25,26,33,35,,,,,,,1.2,0.7,1.0*23
###2023-12-09 13:27:42.998369$GPGSV,2,1,06,04,43,309,44,16,63,220,45,26,87,041,48,28,40,082,45*71
###2023-12-09 13:27:43.000123$GPGSV,2,2,06,29,22,049,44,31,61,061,47,,,,,,,,*78
###2023-12-09 13:27:43.002450$GLGSV,2,1,06,65,35,321,42,71,26,175,38,72,66,227,45,73,25,050,43*6B
###2023-12-09 13:27:43.004204$GLGSV,2,2,06,74,62,008,43,75,41,267,45,,,,,,,,*6E
###2023-12-09 13:27:43.006532$GAGSV,1,1,04,04,37,311,43,19,75,184,40,21,80,050,46,27,25,049,41*6D
###2023-12-09 13:27:43.008873$GBGSV,2,1,06,14,32,190,43,24,65,042,49,25,49,273,46,26,18,069,44*67
###2023-12-09 13:27:43.010631$GBGSV,2,2,06,33,48,220,45,35,16,059,45,,,,,,,,*6C
###2023-12-09 13:27:43.011954$GNVTG,230.75,T,,M,3.69,N,6.84,K,A*26
###2023-12-09 13:27:43.013596$GNGST,182742.10,19.000,,,,0.100,0.073,0.170*57
###2023-12-09 13:27:43.014895$GNZDA,182742.10,09,12,2023,00,00*7A
###2023-12-09 13:27:43.015532$GNEBP,,,,,,M*13
###2023-12-09 13:27:43.186668$GNGGA,182742.30,4138.0432965,N,07032.4251256,W,1,23,0.7,12.954,M,-29.745,M,0.0,*5E
###2023-12-09 13:27:43.385429$GNGGA,182742.50,4138.0431691,N,07032.4253310,W,1,22,0.7,12.959,M,-29.745,M,0.0,*52
###2023-12-09 13:27:43.584490$GNGGA,182742.70,4138.0430354,N,07032.4255338,W,1,22,0.7,12.959,M,-29.745,M,0.0,*51
###2023-12-09 13:27:43.783429$GNGGA,182742.90,4138.0429083,N,07032.4257469,W,1,22,0.7,12.965,M,-29.745,M,0.0,*50
###2023-12-09 13:27:43.989063$GNRMC,182743.10,A,4138.0427805,N,07032.4259619,W,3.58,231.77,091223,,,A*5D
###2023-12-09 13:27:43.991941$GNGGA,182743.10,4138.0427805,N,07032.4259619,W,1,22,0.7,12.966,M,-29.745,M,0.0,*59
###2023-12-09 13:27:43.993670$GPGSA,A,3,04,16,26,28,29,31,,,,,,,1.2,0.7,1.0*33
###2023-12-09 13:27:43.995402$GLGSA,A,3,65,71,72,73,74,75,,,,,,,1.2,0.7,1.0*2E
###2023-12-09 13:27:43.996988$GAGSA,A,3,04,19,21,27,,,,,,,,,1.2,0.7,1.0*2C
###2023-12-09 13:27:43.998713$GBGSA,A,3,14,24,25,26,33,35,,,,,,,1.2,0.7,1.0*23
###2023-12-09 13:27:44.001044$GPGSV,2,1,06,04,43,309,44,16,63,220,46,26,87,041,48,28,40,082,44*73
###2023-12-09 13:27:44.002803$GPGSV,2,2,06,29,22,049,43,31,61,061,47,,,,,,,,*7F
###2023-12-09 13:27:44.005136$GLGSV,2,1,06,65,35,321,43,71,26,175,40,72,66,227,46,73,25,050,42*67
###2023-12-09 13:27:44.006894$GLGSV,2,2,06,74,62,008,43,75,41,267,46,,,,,,,,*6D
###2023-12-09 13:27:44.009223$GAGSV,1,1,04,04,37,311,42,19,75,184,40,21,80,050,46,27,25,049,41*6C
###2023-12-09 13:27:44.011558$GBGSV,2,1,06,14,32,190,42,24,65,042,48,25,49,273,46,26,18,069,44*67
###2023-12-09 13:27:44.013313$GBGSV,2,2,06,33,48,220,44,35,16,059,45,,,,,,,,*6D
###2023-12-09 13:27:44.014654$GNVTG,231.77,T,,M,3.58,N,6.62,K,A*2F
###2023-12-09 13:27:44.016300$GNGST,182743.10,19.000,,,,0.100,0.073,0.170*56
###2023-12-09 13:27:44.017592$GNZDA,182743.10,09,12,2023,00,00*7B
###2023-12-09 13:27:44.018230$GNEBP,,,,,,M*13
###2023-12-09 13:27:44.185522$GNGGA,182743.30,4138.0426512,N,07032.4261679,W,1,22,0.7,12.967,M,-29.745,M,0.0,*5D
###2023-12-09 13:27:44.385178$GNGGA,182743.50,4138.0425228,N,07032.4263603,W,1,22,0.7,12.971,M,-29.745,M,0.0,*5E
###2023-12-09 13:27:44.586661$GNGGA,182743.70,4138.0424116,N,07032.4265487,W,1,22,0.7,12.975,M,-29.745,M,0.0,*5F
###2023-12-09 13:27:44.787147$GNGGA,182743.90,4138.0423094,N,07032.4267248,W,1,23,0.7,12.985,M,-29.745,M,0.0,*54
###2023-12-09 13:27:44.995076$GNRMC,182744.10,A,4138.0422162,N,07032.4268935,W,2.72,231.50,091223,,,A*58
###2023-12-09 13:27:44.997958$GNGGA,182744.10,4138.0422162,N,07032.4268935,W,1,23,0.7,12.993,M,-29.745,M,0.0,*5B
###2023-12-09 13:27:44.999711$GPGSA,A,3,04,16,26,28,29,31,,,,,,,1.2,0.7,1.0*33
###2023-12-09 13:27:45.001431$GLGSA,A,3,65,71,72,73,74,75,,,,,,,1.2,0.7,1.0*2E
###2023-12-09 13:27:45.003037$GAGSA,A,3,04,19,21,27,,,,,,,,,1.2,0.7,1.0*2C
###2023-12-09 13:27:45.004758$GBGSA,A,3,14,24,25,26,33,35,,,,,,,1.2,0.7,1.0*23
###2023-12-09 13:27:45.007104$GPGSV,2,1,06,04,43,309,45,16,63,220,45,26,87,041,47,28,40,082,44*7E
###2023-12-09 13:27:45.009090$GPGSV,2,2,06,29,22,049,44,31,61,061,47,,,,,,,,*78
###2023-12-09 13:27:45.011468$GLGSV,2,1,06,65,35,321,43,71,26,175,37,72,66,227,45,73,25,050,44*62
###2023-12-09 13:27:45.013237$GLGSV,2,2,06,74,62,008,43,75,41,267,46,,,,,,,,*6D
###2023-12-09 13:27:45.015592$GAGSV,1,1,04,04,37,311,42,19,75,184,40,21,80,050,46,27,25,049,41*6C
###2023-12-09 13:27:45.017927$GBGSV,2,1,06,14,32,190,42,24,65,042,49,25,49,273,46,26,18,069,44*66
###2023-12-09 13:27:45.019687$GBGSV,2,2,06,33,48,220,47,35,16,059,46,,,,,,,,*6D
###2023-12-09 13:27:45.021011$GNVTG,231.50,T,,M,2.72,N,5.04,K,A*20
###2023-12-09 13:27:45.022668$GNGST,182744.10,19.000,,,,0.100,0.074,0.170*56
###2023-12-09 13:27:45.023958$GNZDA,182744.10,09,12,2023,00,00*7C
