###2023-12-09 12:34:00.962089$GNGST,173400.10,19.000,,,,0.088,0.079,0.190*59
###2023-12-09 12:34:00.963426$GNZDA,173400.10,09,12,2023,00,00*71
###2023-12-09 12:34:00.964072$GNEBP,,,,,,M*13
###2023-12-09 12:34:01.133310$GNGGA,173400.30,4138.0455790,N,07032.4259901,W,1,23,0.7,12.480,M,-29.745,M,0.0,*55
###2023-12-09 12:34:01.333180$GNGGA,173400.50,4138.0455903,N,07032.4259305,W,1,23,0.7,12.477,M,-29.745,M,0.0,*51
###2023-12-09 12:34:01.533270$GNGGA,173400.70,4138.0455907,N,07032.4258709,W,1,23,0.7,12.471,M,-29.745,M,0.0,*58
###2023-12-09 12:34:01.732433$GNGGA,173400.90,4138.0455919,N,07032.4258119,W,1,23,0.7,12.472,M,-29.745,M,0.0,*5D
###2023-12-09 12:34:01.933661$GNRMC,173401.10,A,4138.0456026,N,07032.4257525,W,0.87,84.40,091223,,,A*62
###2023-12-09 12:34:01.936583$GNGGA,173401.10,4138.0456026,N,07032.4257525,W,1,22,0.7,12.476,M,-29.745,M,0.0,*53
###2023-12-09 12:34:01.938437$GPGSA,A,3,03,04,16,26,28,29,31,32,,,,,1.2,0.7,1.0*31
###2023-12-09 12:34:01.940103$GLGSA,A,3,71,72,73,74,75,,,,,,,,1.2,0.7,1.0*2D
###2023-12-09 12:34:01.941683$GAGSA,A,3,04,19,21,27,,,,,,,,,1.2,0.7,1.0*2C
###2023-12-09 12:34:01.943389$GBGSA,A,3,14,24,25,26,33,,,,,,,,1.2,0.7,1.0*25
###2023-12-09 12:34:01.945724$GPGSV,2,1,08,03,39,278,43,04,21,310,42,16,36,207,45,26,65,206,48*7B
###2023-12-09 12:34:01.948093$GPGSV,2,2,08,28,58,055,44,29,25,075,40,31,73,358,48,32,31,134,44*7D
###2023-12-09 12:34:01.950454$GLGSV,2,1,05,71,57,169,48,72,65,310,46,73,48,033,46,74,71,290,43*60
###2023-12-09 12:34:01.951931$GLGSV,2,2,05,75,22,241,36,,,,,,,,,,,,*50
###2023-12-09 12:34:01.954257$GAGSV,1,1,04,04,20,311,40,19,81,304,40,21,77,177,46,27,42,050,44*69
###2023-12-09 12:34:01.956606$GBGSV,2,1,05,14,55,198,46,24,81,343,49,25,32,252,46,26,35,057,44*6D
###2023-12-09 12:34:01.958066$GBGSV,2,2,05,33,63,255,48,,,,,,,,,,,,*55
###2023-12-09 12:34:01.959375$GNVTG,84.40,T,,M,0.87,N,1.62,K,A*11
###2023-12-09 12:34:01.961030$GNGST,173401.10,19.000,,,,0.087,0.078,0.190*56
###2023-12-09 12:34:01.962322$GNZDA,173401.10,09,12,2023,00,00*70
###2023-12-09 12:34:01.962977$GNEBP,,,,,,M*13
###2023-12-09 12:34:02.134161$GNGGA,173401.30,4138.0456144,N,07032.4256963,W,1,22,0.7,12.474,M,-29.745,M,0.0,*59
###2023-12-09 12:34:02.333135$GNGGA,173401.50,4138.0456231,N,07032.4256448,W,1,22,0.7,12.465,M,-29.745,M,0.0,*5A
###2023-12-09 12:34:02.533423$GNGGA,173401.70,4138.0456257,N,07032.4255922,W,1,22,0.7,12.449,M,-29.745,M,0.0,*54
###2023-12-09 12:34:02.730537$GNGGA,173401.90,4138.0456337,N,07032.4255388,W,1,22,0.7,12.447,M,-29.745,M,0.0,*59
###2023-12-09 12:34:02.934461$GNRMC,173402.10,A,4138.0456467,N,07032.4254855,W,0.72,84.40,091223,,,A*63
###2023-12-09 12:34:02.938009$GNGGA,173402.10,4138.0456467,N,07032.4254855,W,1,22,0.7,12.434,M,-29.745,M,0.0,*5E
###2023-12-09 12:34:02.940280$GPGSA,A,3,03,04,16,26,28,29,31,32,,,,,1.2,0.7,1.0*31
###2023-12-09 12:34:02.942283$GLGSA,A,3,71,72,73,74,75,,,,,,,,1.2,0.7,1.0*2D
###2023-12-09 12:34:02.944210$GAGSA,A,3,04,19,21,27,,,,,,,,,1.2,0.7,1.0*2C
###2023-12-09 12:34:02.946209$GBGSA,A,3,14,24,25,26,33,,,,,,,,1.2,0.7,1.0*25
###2023-12-09 12:34:02.949054$GPGSV,2,1,08,03,39,278,44,04,21,310,40,16,36,207,45,26,65,206,47*71
###2023-12-09 12:34:02.951906$GPGSV,2,2,08,28,58,055,45,29,25,075,41,31,73,358,48,32,31,134,42*7B
###2023-12-09 12:34:02.954743$GLGSV,2,1,05,71,57,169,48,72,65,310,47,73,48,033,46,74,71,290,43*61
###2023-12-09 12:34:02.956510$GLGSV,2,2,05,75,22,241,36,,,,,,,,,,,,*50
###2023-12-09 12:34:02.959338$GAGSV,1,1,04,04,20,311,40,19,81,304,40,21,77,177,46,27,42,050,44*69
###2023-12-09 12:34:02.962158$GBGSV,2,1,05,14,55,198,46,24,81,343,48,25,32,252,46,26,35,057,42*6A
###2023-12-09 12:34:02.963978$GBGSV,2,2,05,33,63,255,47,,,,,,,,,,,,*5A
###2023-12-09 12:34:02.965546$GNVTG,84.40,T,,M,0.72,N,1.33,K,A*1F
###2023-12-09 12:34:02.967588$GNGST,173402.10,19.000,,,,0.087,0.078,0.190*55
###2023-12-09 12:34:02.969158$GNZDA,173402.10,09,12,2023,00,00*73
###2023-12-09 12:34:02.969936$GNEBP,,,,,,M*13
###2023-12-09 12:34:03.134688$GNGGA,173402.30,4138.0456539,N,07032.4254375,W,1,22,0.7,12.425,M,-29.745,M,0.0,*5F
###2023-12-09 12:34:03.332720$GNGGA,173402.50,4138.0456586,N,07032.4253874,W,1,22,0.7,12.425,M,-29.745,M,0.0,*50
###2023-12-09 12:34:03.533279$GNGGA,173402.70,4138.0456668,N,07032.4253330,W,1,22,0.7,12.430,M,-29.745,M,0.0,*5E
###2023-12-09 12:34:03.731398$GNGGA,173402.90,4138.0456750,N,07032.4252847,W,1,22,0.7,12.425,M,-29.745,M,0.0,*54
###2023-12-09 12:34:03.932896$GNRMC,173403.10,A,4138.0456840,N,07032.4252413,W,0.56,84.40,091223,,,A*65
###2023-12-09 12:34:03.935767$GNGGA,173403.10,4138.0456840,N,07032.4252413,W,1,22,0.7,12.421,M,-29.745,M,0.0,*5A
###2023-12-09 12:34:03.937627$GPGSA,A,3,03,04,16,26,28,29,31,32,,,,,1.2,0.7,1.0*31
###2023-12-09 12:34:03.939290$GLGSA,A,3,71,72,73,74,75,,,,,,,,1.2,0.7,1.0*2D
###2023-12-09 12:34:03.940879$GAGSA,A,3,04,19,21,27,,,,,,,,,1.2,0.7,1.0*2C
###2023-12-09 12:34:03.942522$GBGSA,A,3,14,24,25,26,33,,,,,,,,1.2,0.7,1.0*25
###2023-12-09 12:34:03.944870$GPGSV,2,1,08,03,39,278,44,04,21,310,40,16,36,207,47,26,65,206,48*7C
###2023-12-09 12:34:03.947244$GPGSV,2,2,08,28,58,055,45,29,25,075,40,31,73,358,48,32,31,134,43*7B
###2023-12-09 12:34:03.949613$GLGSV,2,1,05,71,57,169,48,72,65,310,46,73,48,033,46,74,71,290,43*60
###2023-12-09 12:34:03.951093$GLGSV,2,2,05,75,22,241,38,,,,,,,,,,,,*5E
###2023-12-09 12:34:03.953423$GAGSV,1,1,04,04,20,311,39,19,81,304,41,21,77,177,47,27,42,050,45*66
###2023-12-09 12:34:03.955774$GBGSV,2,1,05,14,55,198,47,24,81,343,49,25,32,252,47,26,35,057,44*6D
###2023-12-09 12:34:03.957232$GBGSV,2,2,05,33,63,255,49,,,,,,,,,,,,*54
###2023-12-09 12:34:03.958525$GNVTG,84.40,T,,M,0.56,N,1.04,K,A*1D
###2023-12-09 12:34:03.960204$GNGST,173403.10,20.000,,,,0.086,0.077,0.190*50
###2023-12-09 12:34:03.961498$GNZDA,173403.10,09,12,2023,00,00*72
###2023-12-09 12:34:03.962139$GNEBP,,,,,,M*13
###2023-12-09 12:34:04.132195$GNGGA,173403.30,4138.0456946,N,07032.4251942,W,1,22,0.7,12.426,M,-29.745,M,0.0,*52
###2023-12-09 12:34:04.332116$GNGGA,173403.50,4138.0457033,N,07032.4251457,W,1,22,0.7,12.434,M,-29.745,M,0.0,*54
###2023-12-09 12:34:04.533212$GNGGA,173403.70,4138.0457112,N,07032.4251018,W,1,22,0.7,12.431,M,-29.745,M,0.0,*5E
###2023-12-09 12:34:04.731573$GNGGA,173403.90,4138.0457181,N,07032.4250603,W,1,22,0.7,12.426,M,-29.745,M,0.0,*51
###2023-12-09 12:34:04.934757$GNRMC,173404.10,A,4138.0457292,N,07032.4250133,W,0.66,84.40,091223,,,A*60
###2023-12-09 12:34:04.937615$GNGGA,173404.10,4138.0457292,N,07032.4250133,W,1,22,0.7,12.422,M,-29.745,M,0.0,*5F
###2023-12-09 12:34:04.939489$GPGSA,A,3,03,04,16,26,28,29,31,32,,,,,1.2,0.7,1.0*31
###2023-12-09 12:34:04.941143$GLGSA,A,3,71,72,73,74,75,,,,,,,,1.2,0.7,1.0*2D
###2023-12-09 12:34:04.942736$GAGSA,A,3,04,19,21,27,,,,,,,,,1.2,0.7,1.0*2C
###2023-12-09 12:34:04.944388$GBGSA,A,3,14,24,25,26,33,,,,,,,,1.2,0.7,1.0*25
###2023-12-09 12:34:04.946786$GPGSV,2,1,08,03,39,278,45,04,21,310,42,16,36,207,44,26,65,206,48*7C
###2023-12-09 12:34:04.949161$GPGSV,2,2,08,28,58,055,44,29,25,075,40,31,73,358,47,32,31,134,43*75
###2023-12-09 12:34:04.951550$GLGSV,2,1,05,71,57,169,48,72,65,310,46,73,48,033,47,74,71,290,43*61
###2023-12-09 12:34:04.953021$GLGSV,2,2,05,75,22,241,41,,,,,,,,,,,,*50
###2023-12-09 12:34:04.955367$GAGSV,1,1,04,04,20,311,41,19,81,304,41,21,77,177,47,27,42,050,44*68
###2023-12-09 12:34:04.957703$GBGSV,2,1,05,14,55,198,46,24,81,343,48,25,32,252,45,26,35,057,44*6F
###2023-12-09 12:34:04.959174$GBGSV,2,2,05,33,63,255,48,,,,,,,,,,,,*55
###2023-12-09 12:34:04.960463$GNVTG,84.40,T,,M,0.66,N,1.22,K,A*1A
###2023-12-09 12:34:04.962112$GNGST,173404.10,19.000,,,,0.085,0.076,0.180*5E
###2023-12-09 12:34:04.963424$GNZDA,173404.10,09,12,2023,00,00*75
###2023-12-09 12:34:04.964068$GNEBP,,,,,,M*13
###2023-12-09 12:34:05.133082$GNGGA,173404.30,4138.0457403,N,07032.4249687,W,1,22,0.7,12.423,M,-29.745,M,0.0,*52
###2023-12-09 12:34:05.333146$GNGGA,173404.50,4138.0457481,N,07032.4249242,W,1,22,0.7,12.428,M,-29.745,M,0.0,*58
###2023-12-09 12:34:05.533530$GNGGA,173404.70,4138.0457540,N,07032.4248821,W,1,22,0.7,12.433,M,-29.745,M,0.0,*52
###2023-12-09 12:34:05.733163$GNGGA,173404.90,4138.0457655,N,07032.4248378,W,1,22,0.7,12.438,M,-29.745,M,0.0,*57
###2023-12-09 12:34:05.958372$GNRMC,173405.10,A,4138.0457772,N,07032.4247978,W,0.56,84.40,091223,,,A*68
###2023-12-09 12:34:05.961274$GNGGA,173405.10,4138.0457772,N,07032.4247978,W,1,22,0.7,12.440,M,-29.745,M,0.0,*50
###2023-12-09 12:34:05.963157$GPGSA,A,3,03,04,16,26,28,29,31,32,,,,,1.2,0.7,1.0*31
###2023-12-09 12:34:05.964813$GLGSA,A,3,71,72,73,74,75,,,,,,,,1.2,0.7,1.0*2D
###2023-12-09 12:34:05.966398$GAGSA,A,3,04,19,21,27,,,,,,,,,1.2,0.7,1.0*2C
###2023-12-09 12:34:05.968057$GBGSA,A,3,14,24,25,26,33,,,,,,,,1.2,0.7,1.0*25
###2023-12-09 12:34:05.970389$GPGSV,2,1,08,03,39,277,42,04,21,310,41,16,36,207,45,26,65,206,48*76
###2023-12-09 12:34:05.972738$GPGSV,2,2,08,28,58,055,44,29,25,075,39,31,73,358,48,32,31,134,42*75
###2023-12-09 12:34:05.975080$GLGSV,2,1,05,71,57,169,49,72,65,310,46,73,48,033,46,74,71,290,43*61
