###2023-12-09 13:28:04.181807$GNGGA,182803.30,4138.0415573,N,07032.4287875,W,1,20,0.8,13.141,M,-29.745,M,0.0,*5B
###2023-12-09 13:28:04.382162$GNGGA,182803.50,4138.0416024,N,07032.4287423,W,1,20,0.8,13.169,M,-29.745,M,0.0,*5C
###2023-12-09 13:28:04.581560$GNGGA,182803.70,4138.0416559,N,07032.4287203,W,1,20,0.8,13.192,M,-29.745,M,0.0,*51
###2023-12-09 13:28:04.783632$GNGGA,182803.90,4138.0417060,N,07032.4286892,W,1,21,0.8,13.177,M,-29.745,M,0.0,*58
###2023-12-09 13:28:04.987860$GNRMC,182804.10,A,4138.0417372,N,07032.4286257,W,1.15,56.78,091223,,,A*62
###2023-12-09 13:28:04.990717$GNGGA,182804.10,4138.0417372,N,07032.4286257,W,1,21,0.8,13.149,M,-29.745,M,0.0,*59
###2023-12-09 13:28:04.992449$GPGSA,A,3,04,16,26,28,29,31,,,,,,,1.4,0.8,1.1*3B
###2023-12-09 13:28:04.994098$GLGSA,A,3,65,72,73,74,75,,,,,,,,1.4,0.8,1.1*20
###2023-12-09 13:28:04.995691$GAGSA,A,3,04,19,21,27,,,,,,,,,1.4,0.8,1.1*24
###2023-12-09 13:28:04.997391$GBGSA,A,3,14,24,25,26,33,35,,,,,,,1.4,0.8,1.1*2B
###2023-12-09 13:28:04.999721$GPGSV,2,1,06,04,43,309,46,16,63,220,46,26,87,041,48,28,40,082,45*70
###2023-12-09 13:28:05.001469$GPGSV,2,2,06,29,22,049,44,31,61,061,47,,,,,,,,*78
###2023-12-09 13:28:05.003803$GLGSV,2,1,05,65,35,321,44,72,66,227,45,73,25,050,45,74,62,008,43*6A
###2023-12-09 13:28:05.005251$GLGSV,2,2,05,75,41,267,46,,,,,,,,,,,,*56
###2023-12-09 13:28:05.007617$GAGSV,1,1,04,04,38,311,45,19,74,183,41,21,79,049,46,27,24,049,41*6C
###2023-12-09 13:28:05.009956$GBGSV,2,1,06,14,32,190,38,24,65,042,48,25,49,273,47,26,18,069,45*6A
###2023-12-09 13:28:05.011718$GBGSV,2,2,06,33,48,220,45,35,16,059,44,,,,,,,,*6D
###2023-12-09 13:28:05.013008$GNVTG,56.78,T,,M,1.15,N,2.12,K,A*1B
###2023-12-09 13:28:05.014662$GNGST,182804.10,20.000,,,,0.150,0.090,0.230*5F
###2023-12-09 13:28:05.015953$GNZDA,182804.10,09,12,2023,00,00*77
###2023-12-09 13:28:05.016591$GNEBP,,,,,,M*13
###2023-12-09 13:28:05.187844$GNGGA,182804.30,4138.0417789,N,07032.4285774,W,1,21,0.7,13.159,M,-29.745,M,0.0,*52
###2023-12-09 13:28:05.382923$GNGGA,182804.50,4138.0418344,N,07032.4285703,W,1,21,0.7,13.202,M,-29.745,M,0.0,*53
###2023-12-09 13:28:05.587438$GNGGA,182804.70,4138.0418859,N,07032.4285598,W,1,21,0.8,13.190,M,-29.745,M,0.0,*51
###2023-12-09 13:28:05.784966$GNGGA,182804.90,4138.0419154,N,07032.4284979,W,1,21,0.8,13.161,M,-29.745,M,0.0,*56
###2023-12-09 13:28:05.990941$GNRMC,182805.10,A,4138.0419518,N,07032.4284454,W,0.91,65.03,091223,,,A*61
###2023-12-09 13:28:05.993811$GNGGA,182805.10,4138.0419518,N,07032.4284454,W,1,22,0.7,13.150,M,-29.745,M,0.0,*5F
###2023-12-09 13:28:05.995569$GPGSA,A,3,04,16,26,28,29,31,,,,,,,1.2,0.7,1.0*33
###2023-12-09 13:28:05.997286$GLGSA,A,3,65,71,72,73,74,75,,,,,,,1.2,0.7,1.0*2E
###2023-12-09 13:28:05.998875$GAGSA,A,3,04,19,21,27,,,,,,,,,1.2,0.7,1.0*2C
###2023-12-09 13:28:06.000590$GBGSA,A,3,14,24,25,26,33,35,,,,,,,1.2,0.7,1.0*23
###2023-12-09 13:28:06.002934$GPGSV,2,1,06,04,43,309,45,16,63,220,45,26,87,041,48,28,40,082,44*71
###2023-12-09 13:28:06.004686$GPGSV,2,2,06,29,22,049,44,31,61,061,47,,,,,,,,*78
###2023-12-09 13:28:06.007026$GLGSV,2,1,06,65,35,321,42,71,26,175,37,72,66,227,45,73,25,050,46*61
###2023-12-09 13:28:06.008774$GLGSV,2,2,06,74,62,008,43,75,41,267,45,,,,,,,,*6E
###2023-12-09 13:28:06.011110$GAGSV,1,1,04,04,38,311,44,19,74,183,41,21,79,049,46,27,24,049,42*6E
###2023-12-09 13:28:06.013437$GBGSV,2,1,06,14,32,190,39,24,65,042,48,25,49,273,47,26,18,069,45*6B
###2023-12-09 13:28:06.015237$GBGSV,2,2,06,33,48,220,45,35,16,059,45,,,,,,,,*6C
###2023-12-09 13:28:06.016537$GNVTG,65.03,T,,M,0.91,N,1.69,K,A*15
###2023-12-09 13:28:06.018187$GNGST,182805.10,18.000,,,,0.150,0.090,0.230*55
###2023-12-09 13:28:06.019493$GNZDA,182805.10,09,12,2023,00,00*76
###2023-12-09 13:28:06.020137$GNEBP,,,,,,M*13
###2023-12-09 13:28:06.187621$GNGGA,182805.30,4138.0419990,N,07032.4284445,W,1,23,0.7,13.187,M,-29.745,M,0.0,*5A
###2023-12-09 13:28:06.384761$GNGGA,182805.50,4138.0420489,N,07032.4284506,W,1,23,0.7,13.194,M,-29.745,M,0.0,*57
###2023-12-09 13:28:06.587289$GNGGA,182805.70,4138.0420801,N,07032.4284027,W,1,23,0.7,13.165,M,-29.745,M,0.0,*51
###2023-12-09 13:28:06.787943$GNGGA,182805.90,4138.0421116,N,07032.4283386,W,1,23,0.7,13.156,M,-29.745,M,0.0,*5E
###2023-12-09 13:28:06.988353$GNRMC,182806.10,A,4138.0421509,N,07032.4283274,W,0.93,57.66,091223,,,A*6A
###2023-12-09 13:28:06.991216$GNGGA,182806.10,4138.0421509,N,07032.4283274,W,1,23,0.7,13.185,M,-29.745,M,0.0,*5D
###2023-12-09 13:28:06.992999$GPGSA,A,3,03,04,16,26,28,29,31,,,,,,1.2,0.7,1.1*31
###2023-12-09 13:28:06.994719$GLGSA,A,3,65,71,72,73,74,75,,,,,,,1.2,0.7,1.1*2F
###2023-12-09 13:28:06.996297$GAGSA,A,3,04,19,21,27,,,,,,,,,1.2,0.7,1.1*2D
###2023-12-09 13:28:06.998004$GBGSA,A,3,14,24,25,26,33,35,,,,,,,1.2,0.7,1.1*22
###2023-12-09 13:28:07.000333$GPGSV,2,1,07,03,28,249,36,04,43,309,44,16,63,220,46,26,87,041,48*75
###2023-12-09 13:28:07.002370$GPGSV,2,2,07,28,40,082,44,29,22,049,44,31,61,061,48,,,,*42
###2023-12-09 13:28:07.004706$GLGSV,2,1,06,65,35,321,43,71,26,175,36,72,66,227,44,73,25,050,46*60
###2023-12-09 13:28:07.006449$GLGSV,2,2,06,74,62,008,42,75,41,267,47,,,,,,,,*6D
###2023-12-09 13:28:07.008778$GAGSV,1,1,04,04,38,311,43,19,74,183,39,21,79,049,45,27,24,049,42*65
###2023-12-09 13:28:07.011104$GBGSV,2,1,06,14,32,190,38,24,65,042,47,25,49,273,45,26,18,069,44*66
###2023-12-09 13:28:07.012844$GBGSV,2,2,06,33,48,220,44,35,16,059,43,,,,,,,,*6B
###2023-12-09 13:28:07.014118$GNVTG,57.66,T,,M,0.93,N,1.73,K,A*1E
###2023-12-09 13:28:07.015769$GNGST,182806.10,20.000,,,,0.150,0.089,0.230*55
###2023-12-09 13:28:07.017051$GNZDA,182806.10,09,12,2023,00,00*75
###2023-12-09 13:28:07.017684$GNEBP,,,,,,M*13
###2023-12-09 13:28:07.186441$GNGGA,182806.30,4138.0422009,N,07032.4283489,W,1,23,0.7,13.194,M,-29.745,M,0.0,*5D
###2023-12-09 13:28:07.388176$GNGGA,182806.50,4138.0422378,N,07032.4283276,W,1,23,0.7,13.175,M,-29.745,M,0.0,*57
###2023-12-09 13:28:07.586513$GNGGA,182806.70,4138.0422637,N,07032.4282611,W,1,22,0.7,13.156,M,-29.745,M,0.0,*5F
###2023-12-09 13:28:07.785890$GNGGA,182806.90,4138.0422971,N,07032.4282242,W,1,23,0.7,13.152,M,-29.745,M,0.0,*5B
###2023-12-09 13:28:07.992205$GNRMC,182807.10,A,4138.0423394,N,07032.4282515,W,1.01,323.99,091223,,,A*50
###2023-12-09 13:28:07.995052$GNGGA,182807.10,4138.0423394,N,07032.4282515,W,1,22,0.7,13.182,M,-29.745,M,0.0,*5B
###2023-12-09 13:28:07.996773$GPGSA,A,3,04,16,26,28,29,31,,,,,,,1.2,0.7,1.0*33
###2023-12-09 13:28:07.998479$GLGSA,A,3,65,71,72,73,74,75,,,,,,,1.2,0.7,1.0*2E
###2023-12-09 13:28:08.000071$GAGSA,A,3,04,19,21,27,,,,,,,,,1.2,0.7,1.0*2C
###2023-12-09 13:28:08.001765$GBGSA,A,3,14,24,25,26,33,35,,,,,,,1.2,0.7,1.0*23
###2023-12-09 13:28:08.004080$GPGSV,2,1,06,04,43,309,46,16,63,220,46,26,87,041,48,28,40,082,46*73
###2023-12-09 13:28:08.005823$GPGSV,2,2,06,29,22,049,44,31,61,061,47,,,,,,,,*78
###2023-12-09 13:28:08.008147$GLGSV,2,1,06,65,35,321,42,71,26,175,38,72,66,227,45,73,25,050,45*6D
###2023-12-09 13:28:08.009874$GLGSV,2,2,06,74,62,008,42,75,41,267,46,,,,,,,,*6C
###2023-12-09 13:28:08.012196$GAGSV,1,1,04,04,38,311,43,19,74,183,40,21,79,049,45,27,24,049,42*6B
###2023-12-09 13:28:08.014512$GBGSV,2,1,06,14,32,190,40,24,65,042,49,25,49,273,48,26,18,069,45*6B
###2023-12-09 13:28:08.016264$GBGSV,2,2,06,33,48,220,46,35,16,059,44,,,,,,,,*6E
###2023-12-09 13:28:08.017577$GNVTG,323.99,T,,M,1.01,N,1.87,K,A*2F
###2023-12-09 13:28:08.019254$GNGST,182807.10,18.000,,,,0.150,0.089,0.230*5F
###2023-12-09 13:28:08.020544$GNZDA,182807.10,09,12,2023,00,00*74
###2023-12-09 13:28:08.021178$GNEBP,,,,,,M*13
###2023-12-09 13:28:08.185345$GNGGA,182807.30,4138.0423809,N,07032.4282698,W,1,23,0.7,13.181,M,-29.745,M,0.0,*52
###2023-12-09 13:28:08.384851$GNGGA,182807.50,4138.0424112,N,07032.4282213,W,1,22,0.7,13.155,M,-29.745,M,0.0,*5F
###2023-12-09 13:28:08.586442$GNGGA,182807.70,4138.0424412,N,07032.4281514,W,1,22,0.7,13.113,M,-29.745,M,0.0,*59
###2023-12-09 13:28:08.786109$GNGGA,182807.90,4138.0424798,N,07032.4281633,W,1,22,0.7,13.141,M,-29.745,M,0.0,*57
###2023-12-09 13:28:08.993486$GNRMC,182808.10,A,4138.0425193,N,07032.4282260,W,0.93,307.05,091223,,,A*50
###2023-12-09 13:28:08.996366$GNGGA,182808.10,4138.0425193,N,07032.4282260,W,1,23,0.7,13.186,M,-29.745,M,0.0,*57
###2023-12-09 13:28:08.998401$GPGSA,A,3,03,04,16,26,28,29,31,,,,,,1.2,0.7,1.1*31
###2023-12-09 13:28:09.000143$GLGSA,A,3,65,71,72,73,74,75,,,,,,,1.2,0.7,1.1*2F
###2023-12-09 13:28:09.001729$GAGSA,A,3,04,19,21,27,,,,,,,,,1.2,0.7,1.1*2D
###2023-12-09 13:28:09.003455$GBGSA,A,3,14,24,25,26,33,35,,,,,,,1.2,0.7,1.1*22
###2023-12-09 13:28:09.005782$GPGSV,2,1,07,03,28,249,37,04,43,309,47,16,63,220,46,26,87,041,48*77
###2023-12-09 13:28:09.007838$GPGSV,2,2,07,28,40,082,45,29,22,049,40,31,61,061,47,,,,*48
###2023-12-09 13:28:09.010161$GLGSV,2,1,06,65,35,321,45,71,26,175,38,72,66,227,46,73,25,050,41*6D
###2023-12-09 13:28:09.011917$GLGSV,2,2,06,74,62,008,42,75,41,267,49,,,,,,,,*63
###2023-12-09 13:28:09.014242$GAGSV,1,1,04,04,38,311,47,19,74,183,41,21,79,049,45,27,24,049,40*6C
###2023-12-09 13:28:09.016583$GBGSV,2,1,06,14,32,190,41,24,65,042,49,25,49,273,50,26,18,069,42*64
