###2023-12-09 13:18:52.009356$GLGSV,2,2,06,74,65,,41,75,38,262,46,,,,,,,,*5B
###2023-12-09 13:18:52.012230$GAGSV,1,1,04,04,34,311,43,19,78,188,41,21,82,058,46,27,27,049,39*69
###2023-12-09 13:18:52.015060$GBGSV,2,1,06,14,35,191,45,24,68,038,48,25,46,269,47,26,20,067,43*61
###2023-12-09 13:18:52.017175$GBGSV,2,2,06,33,51,223,47,35,16,062,43,,,,,,,,*6B
###2023-12-09 13:18:52.018754$GNVTG,20.96,T,,M,3.85,N,7.13,K,A*15
###2023-12-09 13:18:52.020746$GNGST,181851.10,18.000,,,,0.097,0.070,0.170*54
###2023-12-09 13:18:52.022306$GNZDA,181851.10,09,12,2023,00,00*74
###2023-12-09 13:18:52.023109$GNEBP,,,,,,M*13
###2023-12-09 13:18:52.182629$GNGGA,181851.30,4138.0495596,N,07032.3054519,W,1,24,0.7,13.320,M,-29.743,M,0.0,*58
###2023-12-09 13:18:52.382920$GNGGA,181851.50,4138.0497608,N,07032.3054266,W,1,24,0.7,13.324,M,-29.743,M,0.0,*53
###2023-12-09 13:18:52.586947$GNGGA,181851.70,4138.0499596,N,07032.3053879,W,1,24,0.7,13.322,M,-29.743,M,0.0,*5E
###2023-12-09 13:18:52.784029$GNGGA,181851.90,4138.0501565,N,07032.3053298,W,1,24,0.7,13.312,M,-29.743,M,0.0,*5A
###2023-12-09 13:18:52.986464$GNRMC,181852.10,A,4138.0503505,N,07032.3053025,W,3.46,0.35,091223,,,A*54
###2023-12-09 13:18:52.989948$GNGGA,181852.10,4138.0503505,N,07032.3053025,W,1,24,0.7,13.309,M,-29.743,M,0.0,*5B
###2023-12-09 13:18:52.992129$GPGSA,A,3,03,04,16,26,28,29,31,,,,,,1.1,0.7,0.9*3B
###2023-12-09 13:18:52.994201$GLGSA,A,3,65,71,72,73,74,75,,,,,,,1.1,0.7,0.9*25
###2023-12-09 13:18:52.996116$GAGSA,A,3,04,19,21,27,,,,,,,,,1.1,0.7,0.9*27
###2023-12-09 13:18:52.998185$GBGSA,A,3,14,24,25,26,33,35,,,,,,,1.1,0.7,0.9*28
###2023-12-09 13:18:53.001037$GPGSV,2,1,07,03,31,253,44,04,39,310,45,16,58,216,47,26,88,205,49*77
###2023-12-09 13:18:53.003524$GPGSV,2,2,07,28,43,078,46,29,23,053,43,31,64,053,47,,,,*40
###2023-12-09 13:18:53.006342$GLGSV,2,1,06,65,32,324,39,71,31,174,45,72,69,237,46,73,28,047,42*6F
###2023-12-09 13:18:53.008355$GLGSV,2,2,06,74,65,,41,75,38,262,46,,,,,,,,*5B
###2023-12-09 13:18:53.011194$GAGSV,1,1,04,04,34,311,44,19,78,188,41,21,82,058,46,27,27,049,40*60
###2023-12-09 13:18:53.014018$GBGSV,2,1,06,14,35,191,43,24,68,038,47,25,46,269,46,26,20,067,43*69
###2023-12-09 13:18:53.016140$GBGSV,2,2,06,33,51,223,47,35,16,062,42,,,,,,,,*6A
###2023-12-09 13:18:53.017662$GNVTG,0.35,T,,M,3.46,N,6.41,K,A*27
###2023-12-09 13:18:53.019668$GNGST,181852.10,18.000,,,,0.097,0.070,0.170*57
###2023-12-09 13:18:53.021231$GNZDA,181852.10,09,12,2023,00,00*77
###2023-12-09 13:18:53.022003$GNEBP,,,,,,M*13
###2023-12-09 13:18:53.182301$GNGGA,181852.30,4138.0505427,N,07032.3053146,W,1,24,0.7,13.315,M,-29.743,M,0.0,*57
###2023-12-09 13:18:53.382207$GNGGA,181852.50,4138.0507368,N,07032.3053396,W,1,24,0.7,13.313,M,-29.743,M,0.0,*56
###2023-12-09 13:18:53.582813$GNGGA,181852.70,4138.0509313,N,07032.3053592,W,1,24,0.7,13.320,M,-29.743,M,0.0,*54
###2023-12-09 13:18:53.782024$GNGGA,181852.90,4138.0511343,N,07032.3053729,W,1,24,0.7,13.322,M,-29.743,M,0.0,*56
###2023-12-09 13:18:53.991674$GNRMC,181853.10,A,4138.0513384,N,07032.3054051,W,3.67,350.06,091223,,,A*5A
###2023-12-09 13:18:53.995161$GNGGA,181853.10,4138.0513384,N,07032.3054051,W,1,24,0.7,13.310,M,-29.743,M,0.0,*58
###2023-12-09 13:18:53.997319$GPGSA,A,3,03,04,16,26,28,29,31,,,,,,1.1,0.7,0.9*3B
###2023-12-09 13:18:53.999392$GLGSA,A,3,65,71,72,73,74,75,,,,,,,1.1,0.7,0.9*25
###2023-12-09 13:18:54.001300$GAGSA,A,3,04,19,21,27,,,,,,,,,1.1,0.7,0.9*27
###2023-12-09 13:18:54.003392$GBGSA,A,3,14,24,25,26,33,35,,,,,,,1.1,0.7,0.9*28
###2023-12-09 13:18:54.006209$GPGSV,2,1,07,03,31,253,44,04,39,310,45,16,58,216,48,26,88,205,48*79
###2023-12-09 13:18:54.008696$GPGSV,2,2,07,28,43,078,46,29,23,053,42,31,64,053,47,,,,*41
###2023-12-09 13:18:54.011512$GLGSV,2,1,06,65,32,324,39,71,31,174,46,72,69,237,46,73,28,047,42*6C
###2023-12-09 13:18:54.013506$GLGSV,2,2,06,74,65,,41,75,38,262,47,,,,,,,,*5A
###2023-12-09 13:18:54.016313$GAGSV,1,1,04,04,34,311,43,19,78,188,41,21,82,058,47,27,27,049,40*66
###2023-12-09 13:18:54.019139$GBGSV,2,1,06,14,35,191,42,24,68,038,47,25,46,269,46,26,20,067,43*68
###2023-12-09 13:18:54.021249$GBGSV,2,2,06,33,51,223,48,35,16,062,42,,,,,,,,*65
###2023-12-09 13:18:54.022856$GNVTG,350.06,T,,M,3.67,N,6.80,K,A*2F
###2023-12-09 13:18:54.024872$GNGST,181853.10,18.000,,,,0.097,0.070,0.170*56
###2023-12-09 13:18:54.026420$GNZDA,181853.10,09,12,2023,00,00*76
###2023-12-09 13:18:54.027207$GNEBP,,,,,,M*13
###2023-12-09 13:18:54.182841$GNGGA,181853.30,4138.0515366,N,07032.3054711,W,1,24,0.7,13.306,M,-29.743,M,0.0,*54
###2023-12-09 13:18:54.383046$GNGGA,181853.50,4138.0517346,N,07032.3055324,W,1,24,0.7,13.302,M,-29.743,M,0.0,*55
###2023-12-09 13:18:54.582987$GNGGA,181853.70,4138.0519346,N,07032.3055770,W,1,24,0.7,13.291,M,-29.743,M,0.0,*57
###2023-12-09 13:18:54.783031$GNGGA,181853.90,4138.0521271,N,07032.3056414,W,1,24,0.7,13.275,M,-29.743,M,0.0,*5F
###2023-12-09 13:18:54.986557$GNRMC,181854.10,A,4138.0523080,N,07032.3057273,W,3.36,338.41,091223,,,A*51
###2023-12-09 13:18:54.990043$GNGGA,181854.10,4138.0523080,N,07032.3057273,W,1,24,0.7,13.271,M,-29.743,M,0.0,*5C
###2023-12-09 13:18:54.992216$GPGSA,A,3,03,04,16,26,28,29,31,,,,,,1.1,0.7,0.9*3B
###2023-12-09 13:18:54.994284$GLGSA,A,3,65,71,72,73,74,75,,,,,,,1.1,0.7,0.9*25
###2023-12-09 13:18:54.996210$GAGSA,A,3,04,19,21,27,,,,,,,,,1.1,0.7,0.9*27
###2023-12-09 13:18:54.998277$GBGSA,A,3,14,24,25,26,33,35,,,,,,,1.1,0.7,0.9*28
###2023-12-09 13:18:55.001093$GPGSV,2,1,07,03,31,253,42,04,39,310,41,16,58,216,44,26,88,205,46*79
###2023-12-09 13:18:55.003564$GPGSV,2,2,07,28,43,078,44,29,23,053,41,31,64,053,45,,,,*42
###2023-12-09 13:18:55.006375$GLGSV,2,1,06,65,32,324,40,71,31,174,44,72,69,237,46,73,28,047,43*61
###2023-12-09 13:18:55.008393$GLGSV,2,2,06,74,65,,41,75,38,262,46,,,,,,,,*5B
###2023-12-09 13:18:55.011208$GAGSV,1,1,04,04,35,311,38,19,78,188,40,21,82,058,44,27,27,049,40*69
###2023-12-09 13:18:55.014019$GBGSV,2,1,06,14,35,191,42,24,68,038,49,25,46,269,48,26,20,067,44*6F
###2023-12-09 13:18:55.016162$GBGSV,2,2,06,33,51,223,48,35,16,062,44,,,,,,,,*63
###2023-12-09 13:18:55.017769$GNVTG,338.41,T,,M,3.36,N,6.23,K,A*2F
###2023-12-09 13:18:55.019769$GNGST,181854.10,18.000,,,,0.097,0.070,0.170*51
###2023-12-09 13:18:55.021332$GNZDA,181854.10,09,12,2023,00,00*71
###2023-12-09 13:18:55.022102$GNEBP,,,,,,M*13
###2023-12-09 13:18:55.180782$GNGGA,181854.30,4138.0524806,N,07032.3058252,W,1,24,0.7,13.272,M,-29.743,M,0.0,*50
###2023-12-09 13:18:55.380528$GNGGA,181854.50,4138.0526550,N,07032.3059226,W,1,24,0.7,13.271,M,-29.743,M,0.0,*5B
###2023-12-09 13:18:55.580212$GNGGA,181854.70,4138.0528246,N,07032.3060248,W,1,24,0.7,13.272,M,-29.743,M,0.0,*56
###2023-12-09 13:18:55.781434$GNGGA,181854.90,4138.0529853,N,07032.3061419,W,1,24,0.7,13.268,M,-29.743,M,0.0,*5F
###2023-12-09 13:18:55.985272$GNRMC,181855.10,A,4138.0531330,N,07032.3062750,W,3.17,323.34,091223,,,A*52
###2023-12-09 13:18:55.988180$GNGGA,181855.10,4138.0531330,N,07032.3062750,W,1,24,0.7,13.270,M,-29.743,M,0.0,*55
###2023-12-09 13:18:55.989979$GPGSA,A,3,03,04,16,26,28,29,31,,,,,,1.1,0.7,0.9*3B
###2023-12-09 13:18:55.991707$GLGSA,A,3,65,71,72,73,74,75,,,,,,,1.1,0.7,0.9*25
###2023-12-09 13:18:55.993295$GAGSA,A,3,04,19,21,27,,,,,,,,,1.1,0.7,0.9*27
###2023-12-09 13:18:55.995022$GBGSA,A,3,14,24,25,26,33,35,,,,,,,1.1,0.7,0.9*28
###2023-12-09 13:18:55.997363$GPGSV,2,1,07,03,31,253,41,04,39,310,40,16,58,216,45,26,88,205,47*7B
###2023-12-09 13:18:55.999414$GPGSV,2,2,07,28,43,078,45,29,23,053,42,31,64,053,46,,,,*43
###2023-12-09 13:18:56.001749$GLGSV,2,1,06,65,32,324,41,71,31,174,43,72,69,237,45,73,28,047,44*63
###2023-12-09 13:18:56.003413$GLGSV,2,2,06,74,65,,41,75,38,262,46,,,,,,,,*5B
###2023-12-09 13:18:56.005749$GAGSV,1,1,04,04,35,311,41,19,78,188,40,21,82,058,46,27,27,049,41*64
###2023-12-09 13:18:56.008090$GBGSV,2,1,06,14,35,191,43,24,68,038,49,25,46,269,48,26,20,067,44*6E
###2023-12-09 13:18:56.009832$GBGSV,2,2,06,33,51,223,48,35,16,062,43,,,,,,,,*64
###2023-12-09 13:18:56.011162$GNVTG,323.34,T,,M,3.17,N,5.87,K,A*29
###2023-12-09 13:18:56.012805$GNGST,181855.10,18.000,,,,0.098,0.070,0.170*5F
###2023-12-09 13:18:56.014091$GNZDA,181855.10,09,12,2023,00,00*70
###2023-12-09 13:18:56.014739$GNEBP,,,,,,M*13
###2023-12-09 13:18:56.180507$GNGGA,181855.30,4138.0532739,N,07032.3064188,W,1,24,0.7,13.268,M,-29.743,M,0.0,*55
###2023-12-09 13:18:56.380421$GNGGA,181855.50,4138.0534155,N,07032.3065588,W,1,24,0.7,13.265,M,-29.743,M,0.0,*51
###2023-12-09 13:18:56.581985$GNGGA,181855.70,4138.0535583,N,07032.3066957,W,1,24,0.7,13.261,M,-29.743,M,0.0,*54
###2023-12-09 13:18:56.784934$GNGGA,181855.90,4138.0536981,N,07032.3068368,W,1,24,0.7,13.256,M,-29.743,M,0.0,*5B
###2023-12-09 13:18:56.992606$GNRMC,181856.10,A,4138.0538351,N,07032.3069773,W,3.13,322.47,091223,,,A*54
###2023-12-09 13:18:56.995476$GNGGA,181856.10,4138.0538351,N,07032.3069773,W,1,24,0.7,13.250,M,-29.743,M,0.0,*50
###2023-12-09 13:18:56.997263$GPGSA,A,3,03,04,16,26,28,29,31,,,,,,1.1,0.7,0.9*3B
###2023-12-09 13:18:56.998983$GLGSA,A,3,65,71,72,73,74,75,,,,,,,1.1,0.7,0.9*25
