###2023-12-09 13:11:24.176901$GNGGA,181123.30,4138.0356251,N,07032.2751228,W,1,24,0.7,12.889,M,-29.743,M,0.0,*5F
###2023-12-09 13:11:24.373537$GNGGA,181123.50,4138.0357078,N,07032.2750201,W,1,24,0.7,12.880,M,-29.743,M,0.0,*52
###2023-12-09 13:11:24.573427$GNGGA,181123.70,4138.0357740,N,07032.2748817,W,1,24,0.7,12.867,M,-29.743,M,0.0,*51
###2023-12-09 13:11:24.773507$GNGGA,181123.90,4138.0358454,N,07032.2747285,W,1,24,0.7,12.848,M,-29.743,M,0.0,*55
###2023-12-09 13:11:24.982418$GNRMC,181124.10,A,4138.0359436,N,07032.2746035,W,2.49,36.48,091223,,,A*66
###2023-12-09 13:11:24.985277$GNGGA,181124.10,4138.0359436,N,07032.2746035,W,1,24,0.7,12.859,M,-29.743,M,0.0,*57
###2023-12-09 13:11:24.987074$GPGSA,A,3,03,04,16,26,28,29,31,,,,,,1.2,0.7,1.0*30
###2023-12-09 13:11:24.988777$GLGSA,A,3,65,71,72,73,74,75,,,,,,,1.2,0.7,1.0*2E
###2023-12-09 13:11:24.990349$GAGSA,A,3,04,19,21,27,,,,,,,,,1.2,0.7,1.0*2C
###2023-12-09 13:11:24.992062$GBGSA,A,3,14,24,25,26,33,35,,,,,,,1.2,0.7,1.0*23
###2023-12-09 13:11:24.994369$GPGSV,2,1,07,03,33,256,44,04,37,311,45,16,55,215,46,26,84,210,48*79
###2023-12-09 13:11:24.996406$GPGSV,2,2,07,28,46,074,45,29,24,057,41,31,67,046,47,,,,*4C
###2023-12-09 13:11:24.998728$GLGSV,2,1,06,65,28,326,43,71,35,174,45,72,72,250,46,73,31,045,43*6F
###2023-12-09 13:11:25.000473$GLGSV,2,2,06,74,67,351,41,75,36,258,45,,,,,,,,*6A
###2023-12-09 13:11:25.002797$GAGSV,1,1,04,04,32,312,42,19,81,195,40,21,84,075,46,27,30,048,42*64
###2023-12-09 13:11:25.005119$GBGSV,2,1,06,14,39,192,43,24,70,032,48,25,44,266,46,26,23,065,42*67
###2023-12-09 13:11:25.006895$GBGSV,2,2,06,33,54,227,46,35,15,065,42,,,,,,,,*6E
###2023-12-09 13:11:25.008180$GNVTG,36.48,T,,M,2.49,N,4.61,K,A*16
###2023-12-09 13:11:25.009811$GNGST,181124.10,18.000,,,,0.096,0.071,0.170*5F
###2023-12-09 13:11:25.011103$GNZDA,181124.10,09,12,2023,00,00*7F
###2023-12-09 13:11:25.011736$GNEBP,,,,,,M*13
###2023-12-09 13:11:25.172520$GNGGA,181124.30,4138.0360648,N,07032.2744921,W,1,24,0.7,12.886,M,-29.743,M,0.0,*58
###2023-12-09 13:11:25.373674$GNGGA,181124.50,4138.0361685,N,07032.2743273,W,1,24,0.7,12.882,M,-29.743,M,0.0,*51
###2023-12-09 13:11:25.573431$GNGGA,181124.70,4138.0362640,N,07032.2741471,W,1,24,0.7,12.843,M,-29.743,M,0.0,*52
###2023-12-09 13:11:25.773431$GNGGA,181124.90,4138.0363917,N,07032.2740068,W,1,24,0.7,12.850,M,-29.743,M,0.0,*5F
###2023-12-09 13:11:25.977533$GNRMC,181125.10,A,4138.0365367,N,07032.2738877,W,3.09,33.77,091223,,,A*60
###2023-12-09 13:11:25.980414$GNGGA,181125.10,4138.0365367,N,07032.2738877,W,1,24,0.7,12.864,M,-29.743,M,0.0,*53
###2023-12-09 13:11:25.982209$GPGSA,A,3,03,04,16,26,28,29,31,,,,,,1.2,0.7,1.0*30
###2023-12-09 13:11:25.983934$GLGSA,A,3,65,71,72,73,74,75,,,,,,,1.2,0.7,1.0*2E
###2023-12-09 13:11:25.985516$GAGSA,A,3,04,19,21,27,,,,,,,,,1.2,0.7,1.0*2C
###2023-12-09 13:11:25.987240$GBGSA,A,3,14,24,25,26,33,35,,,,,,,1.2,0.7,1.0*23
###2023-12-09 13:11:25.989573$GPGSV,2,1,07,03,33,256,43,04,37,311,46,16,55,215,47,26,84,210,49*7D
###2023-12-09 13:11:25.991627$GPGSV,2,2,07,28,46,074,44,29,24,057,42,31,67,046,46,,,,*4F
###2023-12-09 13:11:25.993952$GLGSV,2,1,06,65,28,326,42,71,35,174,43,72,72,250,46,73,31,045,44*6F
###2023-12-09 13:11:25.995706$GLGSV,2,2,06,74,67,351,42,75,36,258,46,,,,,,,,*6A
###2023-12-09 13:11:25.998030$GAGSV,1,1,04,04,32,312,44,19,81,195,40,21,84,075,46,27,30,048,40*60
###2023-12-09 13:11:26.000372$GBGSV,2,1,06,14,39,192,44,24,70,032,48,25,44,266,47,26,23,065,42*61
###2023-12-09 13:11:26.002115$GBGSV,2,2,06,33,54,227,48,35,15,065,43,,,,,,,,*61
###2023-12-09 13:11:26.003419$GNVTG,33.77,T,,M,3.09,N,5.72,K,A*19
###2023-12-09 13:11:26.005059$GNGST,181125.10,18.000,,,,0.096,0.071,0.170*5E
###2023-12-09 13:11:26.006350$GNZDA,181125.10,09,12,2023,00,00*7E
###2023-12-09 13:11:26.006999$GNEBP,,,,,,M*13
###2023-12-09 13:11:26.174449$GNGGA,181125.30,4138.0366693,N,07032.2737409,W,1,24,0.7,12.870,M,-29.743,M,0.0,*53
###2023-12-09 13:11:26.372761$GNGGA,181125.50,4138.0367933,N,07032.2735690,W,1,24,0.7,12.873,M,-29.743,M,0.0,*52
###2023-12-09 13:11:26.576079$GNGGA,181125.70,4138.0369312,N,07032.2734118,W,1,24,0.7,12.838,M,-29.743,M,0.0,*5E
###2023-12-09 13:11:26.773770$GNGGA,181125.90,4138.0370866,N,07032.2733266,W,1,24,0.7,12.850,M,-29.743,M,0.0,*53
###2023-12-09 13:11:26.976651$GNRMC,181126.10,A,4138.0372468,N,07032.2732549,W,3.07,24.52,091223,,,A*68
###2023-12-09 13:11:26.979517$GNGGA,181126.10,4138.0372468,N,07032.2732549,W,1,24,0.7,12.875,M,-29.743,M,0.0,*54
###2023-12-09 13:11:26.981309$GPGSA,A,3,03,04,16,26,28,29,31,,,,,,1.2,0.7,1.0*30
###2023-12-09 13:11:26.983030$GLGSA,A,3,65,71,72,73,74,75,,,,,,,1.2,0.7,1.0*2E
###2023-12-09 13:11:26.984609$GAGSA,A,3,04,19,21,27,,,,,,,,,1.2,0.7,1.0*2C
###2023-12-09 13:11:26.986320$GBGSA,A,3,14,24,25,26,33,35,,,,,,,1.2,0.7,1.0*23
###2023-12-09 13:11:26.988649$GPGSV,2,1,07,03,33,256,44,04,37,311,44,16,55,215,47,26,85,210,49*79
###2023-12-09 13:11:26.990691$GPGSV,2,2,07,28,46,074,43,29,24,057,39,31,67,046,47,,,,*45
###2023-12-09 13:11:26.993013$GLGSV,2,1,06,65,28,326,41,71,35,174,43,72,72,250,46,73,31,045,41*69
###2023-12-09 13:11:26.994776$GLGSV,2,2,06,74,67,351,42,75,36,258,46,,,,,,,,*6A
###2023-12-09 13:11:26.997097$GAGSV,1,1,04,04,32,312,43,19,81,195,40,21,84,075,46,27,30,048,38*68
###2023-12-09 13:11:26.999426$GBGSV,2,1,06,14,39,192,43,24,70,032,47,25,44,266,47,26,23,065,38*64
###2023-12-09 13:11:27.001172$GBGSV,2,2,06,33,54,227,47,35,15,065,41,,,,,,,,*6C
###2023-12-09 13:11:27.002456$GNVTG,24.52,T,,M,3.07,N,5.69,K,A*1C
###2023-12-09 13:11:27.004114$GNGST,181126.10,18.000,,,,0.096,0.071,0.170*5D
###2023-12-09 13:11:27.005403$GNZDA,181126.10,09,12,2023,00,00*7D
###2023-12-09 13:11:27.006041$GNEBP,,,,,,M*13
###2023-12-09 13:11:27.176345$GNGGA,181126.30,4138.0373996,N,07032.2731341,W,1,24,0.7,12.882,M,-29.743,M,0.0,*5E
###2023-12-09 13:11:27.373081$GNGGA,181126.50,4138.0375604,N,07032.2730141,W,1,24,0.7,12.855,M,-29.743,M,0.0,*53
###2023-12-09 13:11:27.572378$GNGGA,181126.70,4138.0377360,N,07032.2729610,W,1,24,0.7,12.850,M,-29.743,M,0.0,*5A
###2023-12-09 13:11:27.773370$GNGGA,181126.90,4138.0379215,N,07032.2729313,W,1,24,0.7,12.857,M,-29.743,M,0.0,*58
###2023-12-09 13:11:27.977948$GNRMC,181127.10,A,4138.0381011,N,07032.2728325,W,3.46,28.33,091223,,,A*66
###2023-12-09 13:11:27.980830$GNGGA,181127.10,4138.0381011,N,07032.2728325,W,1,24,0.7,12.867,M,-29.743,M,0.0,*57
###2023-12-09 13:11:27.982627$GPGSA,A,3,03,04,16,26,28,29,31,,,,,,1.2,0.7,1.0*30
###2023-12-09 13:11:27.984341$GLGSA,A,3,65,71,72,73,74,75,,,,,,,1.2,0.7,1.0*2E
###2023-12-09 13:11:27.985922$GAGSA,A,3,04,19,21,27,,,,,,,,,1.2,0.7,1.0*2C
###2023-12-09 13:11:27.987640$GBGSA,A,3,14,24,25,26,33,35,,,,,,,1.2,0.7,1.0*23
###2023-12-09 13:11:27.989961$GPGSV,2,1,07,03,33,256,44,04,37,311,45,16,55,215,47,26,85,210,49*78
###2023-12-09 13:11:27.992039$GPGSV,2,2,07,28,46,074,43,29,24,057,39,31,67,046,47,,,,*45
###2023-12-09 13:11:27.994366$GLGSV,2,1,06,65,28,326,41,71,35,174,45,72,72,250,46,73,31,045,40*6E
###2023-12-09 13:11:27.996114$GLGSV,2,2,06,74,67,351,41,75,36,258,47,,,,,,,,*68
###2023-12-09 13:11:27.998429$GAGSV,1,1,04,04,32,312,42,19,81,195,40,21,84,075,46,27,30,048,39*68
###2023-12-09 13:11:28.000761$GBGSV,2,1,06,14,39,192,43,24,70,032,47,25,44,266,47,26,23,065,39*65
###2023-12-09 13:11:28.002500$GBGSV,2,2,06,33,54,227,48,35,15,065,39,,,,,,,,*6C
###2023-12-09 13:11:28.003799$GNVTG,28.33,T,,M,3.46,N,6.41,K,A*1B
###2023-12-09 13:11:28.005444$GNGST,181127.10,18.000,,,,0.096,0.072,0.170*5F
###2023-12-09 13:11:28.006743$GNZDA,181127.10,09,12,2023,00,00*7C
###2023-12-09 13:11:28.007383$GNEBP,,,,,,M*13
###2023-12-09 13:11:28.172460$GNGGA,181127.30,4138.0382805,N,07032.2727191,W,1,24,0.7,12.856,M,-29.743,M,0.0,*5B
###2023-12-09 13:11:28.373019$GNGGA,181127.50,4138.0384680,N,07032.2726514,W,1,24,0.7,12.844,M,-29.743,M,0.0,*53
###2023-12-09 13:11:28.573305$GNGGA,181127.70,4138.0386550,N,07032.2726381,W,1,24,0.7,12.845,M,-29.743,M,0.0,*56
###2023-12-09 13:11:28.773398$GNGGA,181127.90,4138.0388373,N,07032.2725991,W,1,24,0.7,12.844,M,-29.743,M,0.0,*58
###2023-12-09 13:11:28.977384$GNRMC,181128.10,A,4138.0390226,N,07032.2725231,W,3.46,14.70,091223,,,A*6E
###2023-12-09 13:11:28.980262$GNGGA,181128.10,4138.0390226,N,07032.2725231,W,1,24,0.7,12.850,M,-29.743,M,0.0,*53
###2023-12-09 13:11:28.982292$GPGSA,A,3,03,04,16,26,28,29,31,,,,,,1.2,0.7,1.0*30
###2023-12-09 13:11:28.984071$GLGSA,A,3,65,71,72,73,74,75,,,,,,,1.2,0.7,1.0*2E
###2023-12-09 13:11:28.985656$GAGSA,A,3,04,19,21,27,,,,,,,,,1.2,0.7,1.0*2C
###2023-12-09 13:11:28.987372$GBGSA,A,3,14,24,25,26,33,35,,,,,,,1.2,0.7,1.0*23
###2023-12-09 13:11:28.989692$GPGSV,2,1,07,03,33,256,45,04,37,311,44,16,55,215,46,26,85,210,48*78
###2023-12-09 13:11:28.991734$GPGSV,2,2,07,28,46,075,45,29,24,057,41,31,67,046,46,,,,*4C
###2023-12-09 13:11:28.994052$GLGSV,2,1,06,65,28,326,40,71,35,174,46,72,72,250,46,73,31,045,42*6E
###2023-12-09 13:11:28.995803$GLGSV,2,2,06,74,67,351,41,75,36,258,47,,,,,,,,*68
###2023-12-09 13:11:28.998123$GAGSV,1,1,04,04,32,312,43,19,81,195,41,21,84,075,46,27,30,048,39*68
###2023-12-09 13:11:29.000456$GBGSV,2,1,06,14,39,192,44,24,70,032,48,25,44,266,47,26,23,065,42*61
