###2023-12-09 13:44:25.024269$GAGSV,1,1,03,04,43,308,45,21,73,044,35,27,19,051,40,,,,*5E
###2023-12-09 13:44:25.026627$GBGSV,1,1,04,12,19,123,42,24,60,050,46,25,53,280,44,35,16,053,40*6D
###2023-12-09 13:44:25.027961$GNVTG,243.17,T,,M,0.04,N,0.07,K,A*23
###2023-12-09 13:44:25.029569$GNGST,184424.10,7.400,,,,0.200,0.110,0.300*6B
###2023-12-09 13:44:25.030872$GNZDA,184424.10,09,12,2023,00,00*7F
###2023-12-09 13:44:25.031513$GNEBP,,,,,,M*13
###2023-12-09 13:44:25.200932$GNGGA,184424.30,4138.0391010,N,07032.4388851,W,1,18,0.8,13.791,M,-29.746,M,0.0,*54
###2023-12-09 13:44:25.401016$GNGGA,184424.50,4138.0391000,N,07032.4388855,W,1,18,0.8,13.789,M,-29.746,M,0.0,*5E
###2023-12-09 13:44:25.598542$GNGGA,184424.70,4138.0390981,N,07032.4388861,W,1,18,0.8,13.785,M,-29.746,M,0.0,*56
###2023-12-09 13:44:25.800434$GNGGA,184424.90,4138.0390958,N,07032.4388867,W,1,18,0.8,13.781,M,-29.746,M,0.0,*5E
###2023-12-09 13:44:26.004899$GNRMC,184425.10,A,4138.0390936,N,07032.4388864,W,0.06,243.17,091223,,,A*50
###2023-12-09 13:44:26.007775$GNGGA,184425.10,4138.0390936,N,07032.4388864,W,1,18,0.8,13.777,M,-29.746,M,0.0,*55
###2023-12-09 13:44:26.009502$GPGSA,A,3,04,16,26,28,29,31,,,,,,,1.3,0.8,1.1*3C
###2023-12-09 13:44:26.011166$GLGSA,A,3,65,73,74,75,83,,,,,,,,1.3,0.8,1.1*29
###2023-12-09 13:44:26.012687$GAGSA,A,3,04,21,27,,,,,,,,,,1.3,0.8,1.1*2B
###2023-12-09 13:44:26.014267$GBGSA,A,3,12,24,25,35,,,,,,,,,1.3,0.8,1.1*2E
###2023-12-09 13:44:26.016606$GPGSV,2,1,06,04,50,305,46,16,71,227,39,26,79,041,40,28,35,088,43*75
###2023-12-09 13:44:26.018359$GPGSV,2,2,06,29,18,043,42,31,56,072,50,,,,,,,,*7D
###2023-12-09 13:44:26.020706$GLGSV,2,1,05,65,42,314,44,73,19,055,44,74,56,021,36,75,46,277,45*69
###2023-12-09 13:44:26.022168$GLGSV,2,2,05,83,16,043,37,,,,,,,,,,,,*5F
###2023-12-09 13:44:26.024225$GAGSV,1,1,03,04,43,308,45,21,73,044,35,27,19,051,41,,,,*5F
###2023-12-09 13:44:26.026576$GBGSV,1,1,04,12,19,123,42,24,60,050,46,25,53,280,44,35,16,053,40*6D
###2023-12-09 13:44:26.027915$GNVTG,243.17,T,,M,0.06,N,0.11,K,A*26
###2023-12-09 13:44:26.029543$GNGST,184425.10,7.400,,,,0.200,0.110,0.300*6A
###2023-12-09 13:44:26.030851$GNZDA,184425.10,09,12,2023,00,00*7E
###2023-12-09 13:44:26.031491$GNEBP,,,,,,M*13
###2023-12-09 13:44:26.200479$GNGGA,184425.30,4138.0390909,N,07032.4388875,W,1,18,0.8,13.774,M,-29.746,M,0.0,*58
###2023-12-09 13:44:26.399923$GNGGA,184425.50,4138.0390896,N,07032.4388877,W,1,18,0.8,13.774,M,-29.746,M,0.0,*5B
###2023-12-09 13:44:26.599792$GNGGA,184425.70,4138.0390872,N,07032.4388885,W,1,18,0.8,13.767,M,-29.746,M,0.0,*5C
###2023-12-09 13:44:26.800093$GNGGA,184425.90,4138.0390855,N,07032.4388894,W,1,18,0.8,13.767,M,-29.746,M,0.0,*57
###2023-12-09 13:44:27.005159$GNRMC,184426.10,A,4138.0390831,N,07032.4388898,W,0.02,243.17,091223,,,A*52
###2023-12-09 13:44:27.008046$GNGGA,184426.10,4138.0390831,N,07032.4388898,W,1,18,0.8,13.763,M,-29.746,M,0.0,*56
###2023-12-09 13:44:27.009784$GPGSA,A,3,04,16,26,28,29,31,,,,,,,1.3,0.8,1.1*3C
###2023-12-09 13:44:27.011450$GLGSA,A,3,65,73,74,75,83,,,,,,,,1.3,0.8,1.1*29
###2023-12-09 13:44:27.012971$GAGSA,A,3,04,21,27,,,,,,,,,,1.3,0.8,1.1*2B
###2023-12-09 13:44:27.014554$GBGSA,A,3,12,24,25,35,,,,,,,,,1.3,0.8,1.1*2E
###2023-12-09 13:44:27.016901$GPGSV,2,1,06,04,50,305,46,16,71,227,40,26,79,041,41,28,35,088,43*7A
###2023-12-09 13:44:27.018659$GPGSV,2,2,06,29,18,043,41,31,56,072,50,,,,,,,,*7E
###2023-12-09 13:44:27.020989$GLGSV,2,1,05,65,42,314,44,73,19,055,44,74,56,021,37,75,46,277,45*68
###2023-12-09 13:44:27.022444$GLGSV,2,2,05,83,16,043,37,,,,,,,,,,,,*5F
###2023-12-09 13:44:27.024481$GAGSV,1,1,03,04,43,308,45,21,73,044,35,27,19,051,41,,,,*5F
###2023-12-09 13:44:27.026860$GBGSV,1,1,04,12,19,123,42,24,60,050,47,25,53,280,44,35,16,053,39*62
###2023-12-09 13:44:27.028194$GNVTG,243.17,T,,M,0.02,N,0.04,K,A*26
###2023-12-09 13:44:27.029813$GNGST,184426.10,7.400,,,,0.200,0.110,0.300*69
###2023-12-09 13:44:27.031121$GNZDA,184426.10,09,12,2023,00,00*7D
###2023-12-09 13:44:27.031764$GNEBP,,,,,,M*13
###2023-12-09 13:44:27.203911$GNGGA,184426.30,4138.0390819,N,07032.4388891,W,1,18,0.8,13.764,M,-29.746,M,0.0,*50
###2023-12-09 13:44:27.400419$GNGGA,184426.50,4138.0390797,N,07032.4388897,W,1,18,0.8,13.760,M,-29.746,M,0.0,*5D
###2023-12-09 13:44:27.600693$GNGGA,184426.70,4138.0390788,N,07032.4388906,W,1,17,0.8,13.759,M,-29.746,M,0.0,*5D
###2023-12-09 13:44:27.800673$GNGGA,184426.90,4138.0390757,N,07032.4388910,W,1,17,0.8,13.759,M,-29.746,M,0.0,*56
###2023-12-09 13:44:28.005273$GNRMC,184427.10,A,4138.0390753,N,07032.4388902,W,0.02,243.17,091223,,,A*5A
###2023-12-09 13:44:28.008160$GNGGA,184427.10,4138.0390753,N,07032.4388902,W,1,18,0.8,13.757,M,-29.746,M,0.0,*59
###2023-12-09 13:44:28.009895$GPGSA,A,3,04,16,26,28,29,31,,,,,,,1.3,0.8,1.1*3C
###2023-12-09 13:44:28.011620$GLGSA,A,3,65,72,73,74,75,83,,,,,,,1.3,0.8,1.1*2C
###2023-12-09 13:44:28.013072$GAGSA,A,3,04,27,,,,,,,,,,,1.3,0.8,1.1*28
###2023-12-09 13:44:28.014660$GBGSA,A,3,12,24,25,35,,,,,,,,,1.3,0.8,1.1*2E
###2023-12-09 13:44:28.016987$GPGSV,2,1,06,04,50,305,46,16,71,227,40,26,79,041,41,28,35,088,43*7A
###2023-12-09 13:44:28.018746$GPGSV,2,2,06,29,18,043,41,31,56,072,50,,,,,,,,*7E
###2023-12-09 13:44:28.021080$GLGSV,2,1,06,65,42,314,43,72,58,215,35,73,19,055,44,74,56,021,36*66
###2023-12-09 13:44:28.022838$GLGSV,2,2,06,75,46,277,45,83,16,043,37,,,,,,,,*6F
###2023-12-09 13:44:28.024583$GAGSV,1,1,02,04,43,308,45,27,19,051,41,,,,,,,,*6F
###2023-12-09 13:44:28.026919$GBGSV,1,1,04,12,19,123,42,24,60,050,46,25,53,280,44,35,16,053,39*63
###2023-12-09 13:44:28.028247$GNVTG,243.17,T,,M,0.02,N,0.04,K,A*26
###2023-12-09 13:44:28.029860$GNGST,184427.10,7.500,,,,0.200,0.110,0.300*69
###2023-12-09 13:44:28.031158$GNZDA,184427.10,09,12,2023,00,00*7C
###2023-12-09 13:44:28.031798$GNEBP,,,,,,M*13
###2023-12-09 13:44:28.201546$GNGGA,184427.30,4138.0390738,N,07032.4388920,W,1,17,0.8,13.750,M,-29.746,M,0.0,*5E
###2023-12-09 13:44:28.401279$GNGGA,184427.50,4138.0390722,N,07032.4388925,W,1,18,0.8,13.751,M,-29.746,M,0.0,*58
###2023-12-09 13:44:28.598513$GNGGA,184427.70,4138.0390696,N,07032.4388933,W,1,17,0.8,13.748,M,-29.746,M,0.0,*54
###2023-12-09 13:44:28.800001$GNGGA,184427.90,4138.0390683,N,07032.4388951,W,1,17,0.8,13.742,M,-29.746,M,0.0,*50
###2023-12-09 13:44:29.002137$GNRMC,184428.10,A,4138.0390659,N,07032.4388948,W,0.00,243.17,091223,,,A*52
###2023-12-09 13:44:29.005230$GNGGA,184428.10,4138.0390659,N,07032.4388948,W,1,17,0.8,13.743,M,-29.746,M,0.0,*59
###2023-12-09 13:44:29.007071$GPGSA,A,3,04,16,26,28,29,31,,,,,,,1.3,0.8,1.1*3C
###2023-12-09 13:44:29.008717$GLGSA,A,3,65,73,74,75,83,,,,,,,,1.3,0.8,1.1*29
###2023-12-09 13:44:29.010164$GAGSA,A,3,04,27,,,,,,,,,,,1.3,0.8,1.1*28
###2023-12-09 13:44:29.011753$GBGSA,A,3,12,24,25,35,,,,,,,,,1.3,0.8,1.1*2E
###2023-12-09 13:44:29.014076$GPGSV,2,1,06,04,50,305,46,16,71,227,40,26,79,041,41,28,35,088,42*7B
###2023-12-09 13:44:29.015830$GPGSV,2,2,06,29,18,043,42,31,56,072,50,,,,,,,,*7D
###2023-12-09 13:44:29.018158$GLGSV,2,1,05,65,42,314,44,73,19,055,44,74,56,021,36,75,46,277,44*68
###2023-12-09 13:44:29.019628$GLGSV,2,2,05,83,16,043,37,,,,,,,,,,,,*5F
###2023-12-09 13:44:29.021371$GAGSV,1,1,02,04,43,308,45,27,19,051,41,,,,,,,,*6F
###2023-12-09 13:44:29.023701$GBGSV,1,1,04,12,19,123,42,24,59,051,46,25,53,280,44,35,16,053,39*68
###2023-12-09 13:44:29.025027$GNVTG,243.17,T,,M,0.00,N,0.00,K,A*20
###2023-12-09 13:44:29.026651$GNGST,184428.10,7.000,,,,0.200,0.110,0.300*63
###2023-12-09 13:44:29.027947$GNZDA,184428.10,09,12,2023,00,00*73
###2023-12-09 13:44:29.028586$GNEBP,,,,,,M*13
###2023-12-09 13:44:29.199366$GNGGA,184428.30,4138.0390669,N,07032.4388955,W,1,18,0.8,13.742,M,-29.746,M,0.0,*5A
###2023-12-09 13:44:29.399989$GNGGA,184428.50,4138.0390661,N,07032.4388950,W,1,18,0.8,13.739,M,-29.746,M,0.0,*5D
###2023-12-09 13:44:29.600596$GNGGA,184428.70,4138.0390673,N,07032.4388961,W,1,18,0.8,13.735,M,-29.746,M,0.0,*52
###2023-12-09 13:44:29.800066$GNGGA,184428.90,4138.0390686,N,07032.4388963,W,1,18,0.8,13.733,M,-29.746,M,0.0,*52
###2023-12-09 13:44:30.004197$GNRMC,184429.10,A,4138.0390686,N,07032.4388960,W,0.02,243.17,091223,,,A*59
###2023-12-09 13:44:30.007061$GNGGA,184429.10,4138.0390686,N,07032.4388960,W,1,18,0.8,13.734,M,-29.746,M,0.0,*5F
###2023-12-09 13:44:30.009043$GPGSA,A,3,04,16,26,28,29,31,,,,,,,1.3,0.8,1.1*3C
###2023-12-09 13:44:30.010784$GLGSA,A,3,65,72,73,74,75,83,,,,,,,1.3,0.8,1.1*2C
###2023-12-09 13:44:30.012240$GAGSA,A,3,04,27,,,,,,,,,,,1.3,0.8,1.1*28
###2023-12-09 13:44:30.013827$GBGSA,A,3,12,24,25,35,,,,,,,,,1.3,0.8,1.1*2E
###2023-12-09 13:44:30.016162$GPGSV,2,1,06,04,50,305,46,16,71,227,40,26,79,041,41,28,35,088,42*7B
###2023-12-09 13:44:30.017911$GPGSV,2,2,06,29,18,043,43,31,56,072,50,,,,,,,,*7C
###2023-12-09 13:44:30.020259$GLGSV,2,1,06,65,42,314,44,72,58,215,35,73,19,055,44,74,56,021,36*61
###2023-12-09 13:44:30.022004$GLGSV,2,2,06,75,46,277,44,83,16,043,37,,,,,,,,*6E
