###2023-12-09 12:32:52.955523$GBGSV,2,1,05,14,56,198,44,24,81,339,48,25,32,252,41,26,36,057,45*65
###2023-12-09 12:32:52.957014$GBGSV,2,2,05,33,63,257,47,,,,,,,,,,,,*58
###2023-12-09 12:32:52.958357$GNVTG,316.77,T,,M,0.49,N,0.90,K,A*23
###2023-12-09 12:32:52.960037$GNGST,173252.10,18.000,,,,0.120,0.110,0.230*5D
###2023-12-09 12:32:52.961346$GNZDA,173252.10,09,12,2023,00,00*70
###2023-12-09 12:32:52.962004$GNEBP,,,,,,M*13
###2023-12-09 12:32:53.129519$GNGGA,173252.30,4138.0451510,N,07032.4296377,W,1,21,0.7,13.009,M,-29.745,M,0.0,*54
###2023-12-09 12:32:53.329343$GNGGA,173252.50,4138.0451617,N,07032.4296713,W,1,22,0.7,13.010,M,-29.745,M,0.0,*5B
###2023-12-09 12:32:53.529383$GNGGA,173252.70,4138.0451613,N,07032.4296722,W,1,22,0.7,13.019,M,-29.745,M,0.0,*56
###2023-12-09 12:32:53.728466$GNGGA,173252.90,4138.0451559,N,07032.4296715,W,1,22,0.7,13.006,M,-29.745,M,0.0,*5F
###2023-12-09 12:32:53.930321$GNRMC,173253.10,A,4138.0451666,N,07032.4297065,W,0.74,316.77,091223,,,A*5B
###2023-12-09 12:32:53.933216$GNGGA,173253.10,4138.0451666,N,07032.4297065,W,1,22,0.7,13.013,M,-29.745,M,0.0,*5C
###2023-12-09 12:32:53.935121$GPGSA,A,3,03,04,16,26,28,29,31,32,,,,,1.2,0.7,1.0*31
###2023-12-09 12:32:53.936793$GLGSA,A,3,71,72,73,74,75,,,,,,,,1.2,0.7,1.0*2D
###2023-12-09 12:32:53.938393$GAGSA,A,3,04,19,21,27,,,,,,,,,1.2,0.7,1.0*2C
###2023-12-09 12:32:53.940120$GBGSA,A,3,14,24,25,26,33,,,,,,,,1.2,0.7,1.0*25
###2023-12-09 12:32:53.942486$GPGSV,2,1,08,03,39,278,41,04,21,310,41,16,36,207,46,26,65,206,47*76
###2023-12-09 12:32:53.944853$GPGSV,2,2,08,28,58,055,44,29,25,075,40,31,73,358,46,32,31,134,45*72
###2023-12-09 12:32:53.947227$GLGSV,2,1,05,71,58,169,49,72,65,311,45,73,49,033,46,74,71,287,43*6B
###2023-12-09 12:32:53.948715$GLGSV,2,2,05,75,21,240,37,,,,,,,,,,,,*53
###2023-12-09 12:32:53.951079$GAGSV,1,1,04,04,20,311,39,19,80,306,40,21,76,177,46,27,42,050,41*60
###2023-12-09 12:32:53.953422$GBGSV,2,1,05,14,56,198,45,24,81,339,48,25,32,252,42,26,36,057,45*67
###2023-12-09 12:32:53.954913$GBGSV,2,2,05,33,63,257,47,,,,,,,,,,,,*58
###2023-12-09 12:32:53.956256$GNVTG,316.77,T,,M,0.74,N,1.37,K,A*21
###2023-12-09 12:32:53.957914$GNGST,173253.10,17.000,,,,0.120,0.110,0.240*54
###2023-12-09 12:32:53.959239$GNZDA,173253.10,09,12,2023,00,00*71
###2023-12-09 12:32:53.959895$GNEBP,,,,,,M*13
###2023-12-09 12:32:54.130501$GNGGA,173253.30,4138.0451869,N,07032.4297540,W,1,21,0.7,13.012,M,-29.745,M,0.0,*5F
###2023-12-09 12:32:54.329369$GNGGA,173253.50,4138.0451944,N,07032.4297769,W,1,21,0.7,13.020,M,-29.745,M,0.0,*5F
###2023-12-09 12:32:54.535052$GNGGA,173253.70,4138.0451871,N,07032.4297703,W,1,21,0.7,13.038,M,-29.745,M,0.0,*5F
###2023-12-09 12:32:54.732615$GNGGA,173253.90,4138.0451873,N,07032.4297806,W,1,21,0.7,13.038,M,-29.745,M,0.0,*59
###2023-12-09 12:32:54.933491$GNRMC,173254.10,A,4138.0452012,N,07032.4298149,W,0.62,316.77,091223,,,A*5D
###2023-12-09 12:32:54.936574$GNGGA,173254.10,4138.0452012,N,07032.4298149,W,1,22,0.7,13.026,M,-29.745,M,0.0,*5B
###2023-12-09 12:32:54.938625$GPGSA,A,3,03,04,16,26,28,29,31,32,,,,,1.2,0.7,1.0*31
###2023-12-09 12:32:54.940453$GLGSA,A,3,71,72,73,74,75,,,,,,,,1.2,0.7,1.0*2D
###2023-12-09 12:32:54.942198$GAGSA,A,3,04,19,21,27,,,,,,,,,1.2,0.7,1.0*2C
###2023-12-09 12:32:54.944026$GBGSA,A,3,14,24,25,26,33,,,,,,,,1.2,0.7,1.0*25
###2023-12-09 12:32:54.946535$GPGSV,2,1,08,03,39,278,42,04,21,310,40,16,36,207,47,26,65,206,47*75
###2023-12-09 12:32:54.949102$GPGSV,2,2,08,28,58,055,45,29,25,075,41,31,73,358,47,32,31,134,47*71
###2023-12-09 12:32:54.951652$GLGSV,2,1,05,71,58,169,49,72,65,311,46,73,49,033,46,74,71,287,43*68
###2023-12-09 12:32:54.953296$GLGSV,2,2,05,75,21,240,35,,,,,,,,,,,,*51
###2023-12-09 12:32:54.955838$GAGSV,1,1,04,04,20,311,38,19,80,306,41,21,76,177,46,27,42,050,42*63
###2023-12-09 12:32:54.958354$GBGSV,2,1,05,14,56,198,45,24,81,339,49,25,32,252,44,26,36,057,44*61
###2023-12-09 12:32:54.960006$GBGSV,2,2,05,33,63,257,48,,,,,,,,,,,,*57
###2023-12-09 12:32:54.961499$GNVTG,316.77,T,,M,0.62,N,1.15,K,A*26
###2023-12-09 12:32:54.963331$GNGST,173254.10,18.000,,,,0.120,0.110,0.240*5C
###2023-12-09 12:32:54.964797$GNZDA,173254.10,09,12,2023,00,00*76
###2023-12-09 12:32:54.965610$GNEBP,,,,,,M*13
###2023-12-09 12:32:55.131198$GNGGA,173254.30,4138.0452151,N,07032.4298547,W,1,22,0.7,13.019,M,-29.745,M,0.0,*59
###2023-12-09 12:32:55.330338$GNGGA,173254.50,4138.0452190,N,07032.4298749,W,1,23,0.7,13.026,M,-29.745,M,0.0,*53
###2023-12-09 12:32:55.530661$GNGGA,173254.70,4138.0452172,N,07032.4298790,W,1,23,0.7,13.050,M,-29.745,M,0.0,*58
###2023-12-09 12:32:55.729575$GNGGA,173254.90,4138.0452190,N,07032.4298879,W,1,23,0.7,13.045,M,-29.745,M,0.0,*56
###2023-12-09 12:32:55.931122$GNRMC,173255.10,A,4138.0452273,N,07032.4299134,W,0.47,316.77,091223,,,A*55
###2023-12-09 12:32:55.934197$GNGGA,173255.10,4138.0452273,N,07032.4299134,W,1,23,0.7,13.032,M,-29.745,M,0.0,*50
###2023-12-09 12:32:55.936257$GPGSA,A,3,03,04,16,26,28,29,31,32,,,,,1.2,0.7,1.0*31
###2023-12-09 12:32:55.938086$GLGSA,A,3,71,72,73,74,75,,,,,,,,1.2,0.7,1.0*2D
###2023-12-09 12:32:55.939843$GAGSA,A,3,04,19,21,27,,,,,,,,,1.2,0.7,1.0*2C
###2023-12-09 12:32:55.941644$GBGSA,A,3,14,24,25,26,33,,,,,,,,1.2,0.7,1.0*25
###2023-12-09 12:32:55.944144$GPGSV,2,1,08,03,39,278,42,04,21,310,41,16,36,207,45,26,65,206,47*76
###2023-12-09 12:32:55.946689$GPGSV,2,2,08,28,58,055,45,29,25,075,40,31,73,358,47,32,31,134,46*71
###2023-12-09 12:32:55.949252$GLGSV,2,1,05,71,58,169,48,72,65,311,46,73,49,033,46,74,71,287,42*68
###2023-12-09 12:32:55.950905$GLGSV,2,2,05,75,21,240,39,,,,,,,,,,,,*5D
###2023-12-09 12:32:55.953399$GAGSV,1,1,04,04,20,311,38,19,80,306,40,21,76,177,46,27,42,050,41*61
###2023-12-09 12:32:55.955991$GBGSV,2,1,05,14,56,198,45,24,81,339,48,25,32,252,44,26,36,057,45*61
###2023-12-09 12:32:55.957639$GBGSV,2,2,05,33,63,257,48,,,,,,,,,,,,*57
###2023-12-09 12:32:55.959140$GNVTG,316.77,T,,M,0.47,N,0.86,K,A*2A
###2023-12-09 12:32:55.960964$GNGST,173255.10,17.000,,,,0.120,0.110,0.240*52
###2023-12-09 12:32:55.962436$GNZDA,173255.10,09,12,2023,00,00*77
###2023-12-09 12:32:55.963265$GNEBP,,,,,,M*13
###2023-12-09 12:32:56.129995$GNGGA,173255.30,4138.0452396,N,07032.4299512,W,1,23,0.7,13.025,M,-29.745,M,0.0,*5E
###2023-12-09 12:32:56.332030$GNGGA,173255.50,4138.0452481,N,07032.4299825,W,1,22,0.7,13.031,M,-29.745,M,0.0,*54
###2023-12-09 12:32:56.533081$GNGGA,173255.70,4138.0452487,N,07032.4299921,W,1,22,0.7,13.044,M,-29.745,M,0.0,*57
###2023-12-09 12:32:56.735320$GNGGA,173255.90,4138.0452459,N,07032.4299962,W,1,22,0.7,13.044,M,-29.745,M,0.0,*5D
###2023-12-09 12:32:56.935645$GNRMC,173256.10,A,4138.0452510,N,07032.4300197,W,0.58,316.77,091223,,,A*52
###2023-12-09 12:32:56.938728$GNGGA,173256.10,4138.0452510,N,07032.4300197,W,1,22,0.7,13.033,M,-29.745,M,0.0,*59
###2023-12-09 12:32:56.940766$GPGSA,A,3,03,04,16,26,28,29,31,32,,,,,1.2,0.7,1.0*31
###2023-12-09 12:32:56.942602$GLGSA,A,3,71,72,73,74,75,,,,,,,,1.2,0.7,1.0*2D
###2023-12-09 12:32:56.944353$GAGSA,A,3,04,19,21,27,,,,,,,,,1.2,0.7,1.0*2C
###2023-12-09 12:32:56.946169$GBGSA,A,3,14,24,25,26,33,,,,,,,,1.2,0.7,1.0*25
###2023-12-09 12:32:56.948551$GPGSV,2,1,08,03,39,278,41,04,21,310,40,16,36,207,45,26,65,206,47*74
###2023-12-09 12:32:56.950930$GPGSV,2,2,08,28,58,055,45,29,25,075,41,31,73,358,46,32,31,134,46*71
###2023-12-09 12:32:56.953272$GLGSV,2,1,05,71,58,169,49,72,65,311,46,73,49,033,46,74,71,287,43*68
###2023-12-09 12:32:56.954760$GLGSV,2,2,05,75,21,240,39,,,,,,,,,,,,*5D
###2023-12-09 12:32:56.957103$GAGSV,1,1,04,04,20,311,38,19,80,306,41,21,76,177,47,27,42,050,43*63
###2023-12-09 12:32:56.959470$GBGSV,2,1,05,14,56,198,45,24,81,339,47,25,32,252,44,26,36,057,43*68
###2023-12-09 12:32:56.960950$GBGSV,2,2,05,33,63,257,47,,,,,,,,,,,,*58
###2023-12-09 12:32:56.962289$GNVTG,316.77,T,,M,0.58,N,1.08,K,A*23
###2023-12-09 12:32:56.963977$GNGST,173256.10,18.000,,,,0.120,0.110,0.240*5E
###2023-12-09 12:32:56.965288$GNZDA,173256.10,09,12,2023,00,00*74
###2023-12-09 12:32:56.965940$GNEBP,,,,,,M*13
###2023-12-09 12:32:57.132506$GNGGA,173256.30,4138.0452643,N,07032.4300589,W,1,22,0.7,13.023,M,-29.745,M,0.0,*54
###2023-12-09 12:32:57.331632$GNGGA,173256.50,4138.0452700,N,07032.4300878,W,1,22,0.7,13.016,M,-29.745,M,0.0,*51
###2023-12-09 12:32:57.530471$GNGGA,173256.70,4138.0452690,N,07032.4301003,W,1,22,0.7,13.027,M,-29.745,M,0.0,*5C
###2023-12-09 12:32:57.729427$GNGGA,173256.90,4138.0452700,N,07032.4301101,W,1,22,0.7,13.033,M,-29.745,M,0.0,*5C
###2023-12-09 12:32:57.932002$GNRMC,173257.10,A,4138.0452742,N,07032.4301277,W,0.31,316.77,091223,,,A*55
###2023-12-09 12:32:57.935132$GNGGA,173257.10,4138.0452742,N,07032.4301277,W,1,22,0.7,13.023,M,-29.745,M,0.0,*50
###2023-12-09 12:32:57.937213$GPGSA,A,3,03,04,16,26,28,29,31,32,,,,,1.2,0.7,1.0*31
###2023-12-09 12:32:57.939116$GLGSA,A,3,71,72,73,74,75,,,,,,,,1.2,0.7,1.0*2D
###2023-12-09 12:32:57.940918$GAGSA,A,3,04,19,21,27,,,,,,,,,1.2,0.7,1.0*2C
###2023-12-09 12:32:57.942775$GBGSA,A,3,14,24,25,26,33,,,,,,,,1.2,0.7,1.0*25
