###2023-12-09 12:42:59.947222$GNGGA,174259.10,4138.0423501,N,07032.3961769,W,1,24,0.6,13.271,M,-29.745,M,0.0,*59
###2023-12-09 12:42:59.949125$GPGSA,A,3,03,04,16,26,28,29,31,32,,,,,1.1,0.6,0.9*3B
###2023-12-09 12:42:59.950872$GLGSA,A,3,65,71,72,73,74,75,,,,,,,1.1,0.6,0.9*24
###2023-12-09 12:42:59.952469$GAGSA,A,3,04,19,21,27,,,,,,,,,1.1,0.6,0.9*26
###2023-12-09 12:42:59.954113$GBGSA,A,3,14,24,25,26,33,,,,,,,,1.1,0.6,0.9*2F
###2023-12-09 12:42:59.956451$GPGSV,2,1,08,03,38,272,45,04,25,311,43,16,40,208,45,26,70,207,48*79
###2023-12-09 12:42:59.958792$GPGSV,2,2,08,28,55,060,43,29,25,070,40,31,72,013,46,32,27,136,43*75
###2023-12-09 12:42:59.961119$GLGSV,2,1,06,65,16,329,41,71,52,170,46,72,68,302,46,73,44,035,44*66
###2023-12-09 12:42:59.962885$GLGSV,2,2,06,74,71,303,42,75,25,244,42,,,,,,,,*61
###2023-12-09 12:42:59.965212$GAGSV,1,1,04,04,23,312,43,19,84,288,40,21,81,170,45,27,39,049,41*66
###2023-12-09 12:42:59.967555$GBGSV,2,1,05,14,51,196,44,24,79,002,47,25,35,255,45,26,32,059,41*65
###2023-12-09 12:42:59.969005$GBGSV,2,2,05,33,62,246,48,,,,,,,,,,,,*56
###2023-12-09 12:42:59.970261$GNVTG,0.26,T,,M,1.57,N,2.92,K,A*2D
###2023-12-09 12:42:59.971924$GNGST,174259.10,18.000,,,,0.081,0.071,0.170*5A
###2023-12-09 12:42:59.973207$GNZDA,174259.10,09,12,2023,00,00*7C
###2023-12-09 12:42:59.973844$GNEBP,,,,,,M*13
###2023-12-09 12:43:00.144582$GNGGA,174259.30,4138.0424419,N,07032.3961775,W,1,24,0.6,13.269,M,-29.745,M,0.0,*50
###2023-12-09 12:43:00.345922$GNGGA,174259.50,4138.0425356,N,07032.3961750,W,1,24,0.6,13.275,M,-29.745,M,0.0,*51
###2023-12-09 12:43:00.544001$GNGGA,174259.70,4138.0426287,N,07032.3961610,W,1,24,0.6,13.278,M,-29.745,M,0.0,*55
###2023-12-09 12:43:00.744266$GNGGA,174259.90,4138.0427158,N,07032.3961273,W,1,24,0.6,13.274,M,-29.745,M,0.0,*56
###2023-12-09 12:43:00.944933$GNRMC,174300.10,A,4138.0428006,N,07032.3960870,W,1.61,20.73,091223,,,A*6A
###2023-12-09 12:43:00.947830$GNGGA,174300.10,4138.0428006,N,07032.3960870,W,1,24,0.6,13.272,M,-29.745,M,0.0,*58
###2023-12-09 12:43:00.949704$GPGSA,A,3,03,04,16,26,28,29,31,32,,,,,1.1,0.6,0.9*3B
###2023-12-09 12:43:00.951442$GLGSA,A,3,65,71,72,73,74,75,,,,,,,1.1,0.6,0.9*24
###2023-12-09 12:43:00.953023$GAGSA,A,3,04,19,21,27,,,,,,,,,1.1,0.6,0.9*26
###2023-12-09 12:43:00.954683$GBGSA,A,3,14,24,25,26,33,,,,,,,,1.1,0.6,0.9*2F
###2023-12-09 12:43:00.957016$GPGSV,2,1,08,03,38,272,44,04,25,311,43,16,40,208,45,26,70,207,48*78
###2023-12-09 12:43:00.959363$GPGSV,2,2,08,28,55,060,43,29,25,070,40,31,72,013,46,32,27,136,44*72
###2023-12-09 12:43:00.961700$GLGSV,2,1,06,65,16,329,43,71,52,170,48,72,68,302,46,73,44,035,43*6D
###2023-12-09 12:43:00.963463$GLGSV,2,2,06,74,71,303,42,75,25,244,46,,,,,,,,*65
###2023-12-09 12:43:00.965791$GAGSV,1,1,04,04,23,312,42,19,84,288,40,21,81,170,46,27,39,049,41*64
###2023-12-09 12:43:00.968129$GBGSV,2,1,05,14,51,196,45,24,79,002,48,25,35,255,44,26,32,059,44*6F
###2023-12-09 12:43:00.969588$GBGSV,2,2,05,33,62,246,48,,,,,,,,,,,,*56
###2023-12-09 12:43:00.970889$GNVTG,20.73,T,,M,1.61,N,2.99,K,A*11
###2023-12-09 12:43:00.972538$GNGST,174300.10,18.000,,,,0.080,0.071,0.160*57
###2023-12-09 12:43:00.973825$GNZDA,174300.10,09,12,2023,00,00*71
###2023-12-09 12:43:00.974464$GNEBP,,,,,,M*13
###2023-12-09 12:43:01.146263$GNGGA,174300.30,4138.0428860,N,07032.3960468,W,1,24,0.6,13.268,M,-29.745,M,0.0,*5C
###2023-12-09 12:43:01.345976$GNGGA,174300.50,4138.0429751,N,07032.3960035,W,1,24,0.6,13.272,M,-29.745,M,0.0,*51
###2023-12-09 12:43:01.544039$GNGGA,174300.70,4138.0430548,N,07032.3959399,W,1,24,0.6,13.277,M,-29.745,M,0.0,*5B
###2023-12-09 12:43:01.743352$GNGGA,174300.90,4138.0431187,N,07032.3958609,W,1,24,0.6,13.276,M,-29.745,M,0.0,*5F
###2023-12-09 12:43:01.943586$GNRMC,174301.10,A,4138.0431828,N,07032.3957800,W,1.65,39.11,091223,,,A*6C
###2023-12-09 12:43:01.946451$GNGGA,174301.10,4138.0431828,N,07032.3957800,W,1,24,0.6,13.272,M,-29.745,M,0.0,*56
###2023-12-09 12:43:01.948342$GPGSA,A,3,03,04,16,26,28,29,31,32,,,,,1.1,0.6,0.9*3B
###2023-12-09 12:43:01.950065$GLGSA,A,3,65,71,72,73,74,75,,,,,,,1.1,0.6,0.9*24
###2023-12-09 12:43:01.951665$GAGSA,A,3,04,19,21,27,,,,,,,,,1.1,0.6,0.9*26
###2023-12-09 12:43:01.953312$GBGSA,A,3,14,24,25,26,33,,,,,,,,1.1,0.6,0.9*2F
###2023-12-09 12:43:01.955656$GPGSV,2,1,08,03,38,272,43,04,25,311,41,16,40,208,45,26,70,207,48*7D
###2023-12-09 12:43:01.957995$GPGSV,2,2,08,28,55,060,43,29,25,070,40,31,72,013,46,32,27,136,43*75
###2023-12-09 12:43:01.960351$GLGSV,2,1,06,65,16,329,41,71,52,170,48,72,68,302,46,73,44,035,46*6A
###2023-12-09 12:43:01.962105$GLGSV,2,2,06,74,71,303,42,75,25,244,43,,,,,,,,*60
###2023-12-09 12:43:01.964459$GAGSV,1,1,04,04,23,312,40,19,84,288,40,21,81,170,46,27,39,049,40*67
###2023-12-09 12:43:01.966809$GBGSV,2,1,05,14,51,196,46,24,79,002,49,25,35,255,45,26,32,059,44*6C
###2023-12-09 12:43:01.968262$GBGSV,2,2,05,33,62,246,47,,,,,,,,,,,,*59
###2023-12-09 12:43:01.969558$GNVTG,39.11,T,,M,1.65,N,3.06,K,A*1E
###2023-12-09 12:43:01.971219$GNGST,174301.10,18.000,,,,0.079,0.071,0.160*50
###2023-12-09 12:43:01.972514$GNZDA,174301.10,09,12,2023,00,00*70
###2023-12-09 12:43:01.973153$GNEBP,,,,,,M*13
###2023-12-09 12:43:02.144436$GNGGA,174301.30,4138.0432642,N,07032.3957035,W,1,24,0.6,13.276,M,-29.745,M,0.0,*5F
###2023-12-09 12:43:02.345069$GNGGA,174301.50,4138.0433408,N,07032.3956111,W,1,24,0.6,13.266,M,-29.745,M,0.0,*53
###2023-12-09 12:43:02.545404$GNGGA,174301.70,4138.0433937,N,07032.3955007,W,1,24,0.6,13.270,M,-29.745,M,0.0,*52
###2023-12-09 12:43:02.742300$GNGGA,174301.90,4138.0434303,N,07032.3953864,W,1,24,0.6,13.278,M,-29.745,M,0.0,*55
###2023-12-09 12:43:02.945554$GNRMC,174302.10,A,4138.0434772,N,07032.3952661,W,1.92,62.17,091223,,,A*66
###2023-12-09 12:43:02.948451$GNGGA,174302.10,4138.0434772,N,07032.3952661,W,1,24,0.6,13.280,M,-29.745,M,0.0,*51
###2023-12-09 12:43:02.950328$GPGSA,A,3,03,04,16,26,28,29,31,32,,,,,1.1,0.6,0.9*3B
###2023-12-09 12:43:02.952075$GLGSA,A,3,65,71,72,73,74,75,,,,,,,1.1,0.6,0.9*24
###2023-12-09 12:43:02.953670$GAGSA,A,3,04,19,21,27,,,,,,,,,1.1,0.6,0.9*26
###2023-12-09 12:43:02.955338$GBGSA,A,3,14,24,25,26,33,,,,,,,,1.1,0.6,0.9*2F
###2023-12-09 12:43:02.957674$GPGSV,2,1,08,03,38,272,44,04,25,311,41,16,40,208,45,26,70,207,47*75
###2023-12-09 12:43:02.960030$GPGSV,2,2,08,28,55,060,44,29,25,070,40,31,72,013,46,32,27,136,41*70
###2023-12-09 12:43:02.962379$GLGSV,2,1,06,65,16,329,42,71,52,170,46,72,68,302,47,73,44,035,46*66
###2023-12-09 12:43:02.964153$GLGSV,2,2,06,74,71,303,42,75,25,244,42,,,,,,,,*61
###2023-12-09 12:43:02.966498$GAGSV,1,1,04,04,23,312,40,19,84,288,40,21,81,170,46,27,39,049,43*64
###2023-12-09 12:43:02.968858$GBGSV,2,1,05,14,51,196,47,24,79,002,48,25,35,255,46,26,32,059,42*69
###2023-12-09 12:43:02.970323$GBGSV,2,2,05,33,62,246,48,,,,,,,,,,,,*56
###2023-12-09 12:43:02.971630$GNVTG,62.17,T,,M,1.92,N,3.56,K,A*1B
###2023-12-09 12:43:02.973283$GNGST,174302.10,18.000,,,,0.079,0.071,0.160*53
###2023-12-09 12:43:02.974591$GNZDA,174302.10,09,12,2023,00,00*73
###2023-12-09 12:43:02.975234$GNEBP,,,,,,M*13
###2023-12-09 12:43:03.144548$GNGGA,174302.30,4138.0435308,N,07032.3951404,W,1,24,0.6,13.268,M,-29.745,M,0.0,*5F
###2023-12-09 12:43:03.345133$GNGGA,174302.50,4138.0435681,N,07032.3950130,W,1,24,0.6,13.266,M,-29.745,M,0.0,*50
###2023-12-09 12:43:03.544401$GNGGA,174302.70,4138.0435781,N,07032.3948740,W,1,24,0.6,13.283,M,-29.745,M,0.0,*50
###2023-12-09 12:43:03.744230$GNGGA,174302.90,4138.0435863,N,07032.3947257,W,1,24,0.6,13.275,M,-29.745,M,0.0,*58
###2023-12-09 12:43:03.943597$GNRMC,174303.10,A,4138.0435938,N,07032.3945876,W,1.83,82.63,091223,,,A*65
###2023-12-09 12:43:03.946461$GNGGA,174303.10,4138.0435938,N,07032.3945876,W,1,24,0.6,13.267,M,-29.745,M,0.0,*56
###2023-12-09 12:43:03.948350$GPGSA,A,3,03,04,16,26,28,29,31,32,,,,,1.1,0.6,0.9*3B
###2023-12-09 12:43:03.950073$GLGSA,A,3,65,71,72,73,74,75,,,,,,,1.1,0.6,0.9*24
###2023-12-09 12:43:03.951677$GAGSA,A,3,04,19,21,27,,,,,,,,,1.1,0.6,0.9*26
###2023-12-09 12:43:03.953332$GBGSA,A,3,14,24,25,26,33,,,,,,,,1.1,0.6,0.9*2F
###2023-12-09 12:43:03.955739$GPGSV,2,1,08,03,38,272,44,04,25,311,42,16,40,208,46,26,70,207,47*75
###2023-12-09 12:43:03.958088$GPGSV,2,2,08,28,55,060,45,29,25,070,40,31,72,013,47,32,27,136,39*7F
###2023-12-09 12:43:03.960711$GLGSV,2,1,06,65,16,329,42,71,52,170,46,72,68,302,47,73,44,035,45*65
###2023-12-09 12:43:03.962468$GLGSV,2,2,06,74,71,303,42,75,25,244,43,,,,,,,,*60
###2023-12-09 12:43:03.964811$GAGSV,1,1,04,04,23,312,42,19,84,288,40,21,81,170,46,27,39,049,43*66
###2023-12-09 12:43:03.967158$GBGSV,2,1,05,14,51,196,46,24,79,002,48,25,35,255,44,26,32,059,44*6C
###2023-12-09 12:43:03.968621$GBGSV,2,2,05,33,62,246,48,,,,,,,,,,,,*56
###2023-12-09 12:43:03.969913$GNVTG,82.63,T,,M,1.83,N,3.38,K,A*1E
###2023-12-09 12:43:03.971574$GNGST,174303.10,18.000,,,,0.079,0.071,0.160*52
###2023-12-09 12:43:03.972866$GNZDA,174303.10,09,12,2023,00,00*72
###2023-12-09 12:43:03.973505$GNEBP,,,,,,M*13
