###2023-12-09 13:24:06.021002$GNZDA,182405.10,09,12,2023,00,00*7A
###2023-12-09 13:24:06.021664$GNEBP,,,,,,M*13
###2023-12-09 13:24:06.188944$GNGGA,182405.30,4138.0670917,N,07032.3771754,W,1,24,0.6,12.842,M,-29.744,M,0.0,*59
###2023-12-09 13:24:06.387710$GNGGA,182405.50,4138.0672929,N,07032.3771851,W,1,24,0.6,12.836,M,-29.744,M,0.0,*59
###2023-12-09 13:24:06.586230$GNGGA,182405.70,4138.0674863,N,07032.3772217,W,1,24,0.6,12.840,M,-29.744,M,0.0,*58
###2023-12-09 13:24:06.790006$GNGGA,182405.90,4138.0676766,N,07032.3772551,W,1,24,0.6,12.842,M,-29.744,M,0.0,*59
###2023-12-09 13:24:06.989634$GNRMC,182406.10,A,4138.0678623,N,07032.3772794,W,3.46,352.43,091223,,,A*5E
###2023-12-09 13:24:06.992504$GNGGA,182406.10,4138.0678623,N,07032.3772794,W,1,24,0.6,12.836,M,-29.744,M,0.0,*54
###2023-12-09 13:24:06.994303$GPGSA,A,3,03,04,16,26,28,29,31,,,,,,1.1,0.6,0.9*3A
###2023-12-09 13:24:06.996030$GLGSA,A,3,65,71,72,73,74,75,,,,,,,1.1,0.6,0.9*24
###2023-12-09 13:24:06.997608$GAGSA,A,3,04,19,21,27,,,,,,,,,1.1,0.6,0.9*26
###2023-12-09 13:24:06.999333$GBGSA,A,3,14,24,25,26,33,35,,,,,,,1.1,0.6,0.9*29
###2023-12-09 13:24:07.001641$GPGSV,2,1,07,03,30,251,43,04,42,310,44,16,61,218,46,26,89,050,48*79
###2023-12-09 13:24:07.003701$GPGSV,2,2,07,28,41,080,44,29,22,051,41,31,63,058,46,,,,*4B
###2023-12-09 13:24:07.006031$GLGSV,2,1,06,65,34,323,39,71,29,175,45,72,68,232,46,73,27,049,41*60
###2023-12-09 13:24:07.007787$GLGSV,2,2,06,74,63,004,41,75,40,265,46,,,,,,,,*61
###2023-12-09 13:24:07.010120$GAGSV,1,1,04,04,36,311,42,19,76,185,41,21,80,052,45,27,26,049,40*6D
###2023-12-09 13:24:07.012456$GBGSV,2,1,06,14,34,191,44,24,66,040,47,25,47,271,46,26,19,068,43*63
###2023-12-09 13:24:07.014200$GBGSV,2,2,06,33,50,221,48,35,16,061,43,,,,,,,,*64
###2023-12-09 13:24:07.015540$GNVTG,352.43,T,,M,3.46,N,6.41,K,A*22
###2023-12-09 13:24:07.017190$GNGST,182406.10,18.000,,,,0.100,0.070,0.170*56
###2023-12-09 13:24:07.018479$GNZDA,182406.10,09,12,2023,00,00*79
###2023-12-09 13:24:07.019128$GNEBP,,,,,,M*13
###2023-12-09 13:24:07.187183$GNGGA,182406.30,4138.0680468,N,07032.3773108,W,1,24,0.6,12.834,M,-29.744,M,0.0,*5C
###2023-12-09 13:24:07.387616$GNGGA,182406.50,4138.0682300,N,07032.3773527,W,1,24,0.6,12.839,M,-29.744,M,0.0,*55
###2023-12-09 13:24:07.586606$GNGGA,182406.70,4138.0684159,N,07032.3773828,W,1,24,0.6,12.840,M,-29.744,M,0.0,*53
###2023-12-09 13:24:07.786761$GNGGA,182406.90,4138.0686090,N,07032.3773995,W,1,24,0.6,12.845,M,-29.744,M,0.0,*59
###2023-12-09 13:24:07.990551$GNRMC,182407.10,A,4138.0688014,N,07032.3774291,W,3.54,350.10,091223,,,A*53
###2023-12-09 13:24:07.993446$GNGGA,182407.10,4138.0688014,N,07032.3774291,W,1,24,0.6,12.854,M,-29.744,M,0.0,*5A
###2023-12-09 13:24:07.995253$GPGSA,A,3,03,04,16,26,28,29,31,,,,,,1.1,0.6,0.9*3A
###2023-12-09 13:24:07.996971$GLGSA,A,3,65,71,72,73,74,75,,,,,,,1.1,0.6,0.9*24
###2023-12-09 13:24:07.998551$GAGSA,A,3,04,19,21,27,,,,,,,,,1.1,0.6,0.9*26
###2023-12-09 13:24:08.000281$GBGSA,A,3,14,24,25,26,33,35,,,,,,,1.1,0.6,0.9*29
###2023-12-09 13:24:08.002619$GPGSV,2,1,07,03,30,251,43,04,42,310,44,16,61,218,46,26,89,050,48*79
###2023-12-09 13:24:08.004668$GPGSV,2,2,07,28,41,080,44,29,22,051,41,31,63,058,45,,,,*48
###2023-12-09 13:24:08.007017$GLGSV,2,1,06,65,34,323,41,71,29,175,44,72,68,232,46,73,27,049,42*6D
###2023-12-09 13:24:08.008764$GLGSV,2,2,06,74,63,004,41,75,40,265,47,,,,,,,,*60
###2023-12-09 13:24:08.011094$GAGSV,1,1,04,04,36,311,43,19,76,185,41,21,80,052,46,27,26,049,39*61
###2023-12-09 13:24:08.013420$GBGSV,2,1,06,14,34,191,42,24,66,040,47,25,47,271,45,26,19,068,43*66
###2023-12-09 13:24:08.015169$GBGSV,2,2,06,33,50,221,46,35,16,061,40,,,,,,,,*69
###2023-12-09 13:24:08.016487$GNVTG,350.10,T,,M,3.54,N,6.55,K,A*20
###2023-12-09 13:24:08.018122$GNGST,182407.10,18.000,,,,0.100,0.070,0.170*57
###2023-12-09 13:24:08.019423$GNZDA,182407.10,09,12,2023,00,00*78
###2023-12-09 13:24:08.020060$GNEBP,,,,,,M*13
###2023-12-09 13:24:08.185185$GNGGA,182407.30,4138.0689958,N,07032.3774817,W,1,24,0.6,12.865,M,-29.744,M,0.0,*5E
###2023-12-09 13:24:08.384880$GNGGA,182407.50,4138.0691913,N,07032.3775473,W,1,24,0.6,12.869,M,-29.744,M,0.0,*5D
###2023-12-09 13:24:08.585284$GNGGA,182407.70,4138.0693933,N,07032.3775957,W,1,24,0.6,12.871,M,-29.744,M,0.0,*5D
###2023-12-09 13:24:08.785756$GNGGA,182407.90,4138.0695961,N,07032.3776412,W,1,24,0.6,12.875,M,-29.744,M,0.0,*59
###2023-12-09 13:24:08.998000$GNRMC,182408.10,A,4138.0697953,N,07032.3777078,W,3.73,343.71,091223,,,A*5E
###2023-12-09 13:24:09.000935$GNGGA,182408.10,4138.0697953,N,07032.3777078,W,1,24,0.6,12.871,M,-29.744,M,0.0,*50
###2023-12-09 13:24:09.003039$GPGSA,A,3,03,04,16,26,28,29,31,,,,,,1.1,0.6,0.9*3A
###2023-12-09 13:24:09.004904$GLGSA,A,3,65,71,72,73,74,75,,,,,,,1.1,0.6,0.9*24
###2023-12-09 13:24:09.006664$GAGSA,A,3,04,19,21,27,,,,,,,,,1.1,0.6,0.9*26
###2023-12-09 13:24:09.008518$GBGSA,A,3,14,24,25,26,33,35,,,,,,,1.1,0.6,0.9*29
###2023-12-09 13:24:09.011000$GPGSV,2,1,07,03,30,251,43,04,42,310,43,16,61,218,46,26,89,050,47*71
###2023-12-09 13:24:09.013185$GPGSV,2,2,07,28,41,080,45,29,22,051,41,31,63,058,46,,,,*4A
###2023-12-09 13:24:09.015811$GLGSV,2,1,06,65,34,323,38,71,29,175,46,72,68,232,46,73,27,049,43*60
###2023-12-09 13:24:09.017698$GLGSV,2,2,06,74,63,004,41,75,40,265,45,,,,,,,,*62
###2023-12-09 13:24:09.020165$GAGSV,1,1,04,04,36,311,42,19,76,185,41,21,80,052,46,27,26,049,41*6F
###2023-12-09 13:24:09.022743$GBGSV,2,1,06,14,34,191,42,24,66,040,48,25,47,271,46,26,19,068,44*6D
###2023-12-09 13:24:09.024641$GBGSV,2,2,06,33,50,221,48,35,16,061,43,,,,,,,,*64
###2023-12-09 13:24:09.026104$GNVTG,343.71,T,,M,3.73,N,6.91,K,A*28
###2023-12-09 13:24:09.027820$GNGST,182408.10,18.000,,,,0.100,0.071,0.170*59
###2023-12-09 13:24:09.029146$GNZDA,182408.10,09,12,2023,00,00*77
###2023-12-09 13:24:09.029811$GNEBP,,,,,,M*13
###2023-12-09 13:24:09.190939$GNGGA,182408.30,4138.0699892,N,07032.3777887,W,1,24,0.6,12.876,M,-29.744,M,0.0,*5F
###2023-12-09 13:24:09.387316$GNGGA,182408.50,4138.0701830,N,07032.3778692,W,1,24,0.6,12.882,M,-29.744,M,0.0,*5F
###2023-12-09 13:24:09.587482$GNGGA,182408.70,4138.0703794,N,07032.3779456,W,1,24,0.6,12.892,M,-29.744,M,0.0,*54
###2023-12-09 13:24:09.789108$GNGGA,182408.90,4138.0705726,N,07032.3780340,W,1,24,0.6,12.897,M,-29.744,M,0.0,*56
###2023-12-09 13:24:09.989705$GNRMC,182409.10,A,4138.0707585,N,07032.3781466,W,3.65,334.14,091223,,,A*56
###2023-12-09 13:24:09.992641$GNGGA,182409.10,4138.0707585,N,07032.3781466,W,1,24,0.6,12.903,M,-29.744,M,0.0,*58
###2023-12-09 13:24:09.994485$GPGSA,A,3,03,04,16,26,28,29,31,,,,,,1.1,0.6,0.9*3A
###2023-12-09 13:24:09.996364$GLGSA,A,3,65,71,72,73,74,75,,,,,,,1.1,0.6,0.9*24
###2023-12-09 13:24:09.997995$GAGSA,A,3,04,19,21,27,,,,,,,,,1.1,0.6,0.9*26
###2023-12-09 13:24:09.999786$GBGSA,A,3,14,24,25,26,33,35,,,,,,,1.1,0.6,0.9*29
###2023-12-09 13:24:10.002167$GPGSV,2,1,07,03,30,251,44,04,42,310,42,16,61,218,45,26,89,050,48*7B
###2023-12-09 13:24:10.004278$GPGSV,2,2,07,28,41,080,45,29,22,051,42,31,63,058,46,,,,*49
###2023-12-09 13:24:10.006817$GLGSV,2,1,06,65,34,323,39,71,29,175,45,72,68,232,46,73,27,049,44*65
###2023-12-09 13:24:10.008616$GLGSV,2,2,06,74,63,004,41,75,40,265,46,,,,,,,,*61
###2023-12-09 13:24:10.011033$GAGSV,1,1,04,04,36,311,41,19,76,185,41,21,80,052,46,27,26,049,42*6F
###2023-12-09 13:24:10.013419$GBGSV,2,1,06,14,34,191,40,24,66,040,47,25,47,271,46,26,19,068,41*65
###2023-12-09 13:24:10.015235$GBGSV,2,2,06,33,50,221,47,35,16,061,43,,,,,,,,*6B
###2023-12-09 13:24:10.016587$GNVTG,334.14,T,,M,3.65,N,6.77,K,A*24
###2023-12-09 13:24:10.018265$GNGST,182409.10,18.000,,,,0.100,0.071,0.170*58
###2023-12-09 13:24:10.019632$GNZDA,182409.10,09,12,2023,00,00*76
###2023-12-09 13:24:10.020310$GNEBP,,,,,,M*13
###2023-12-09 13:24:10.184200$GNGGA,182409.30,4138.0709451,N,07032.3782643,W,1,24,0.6,12.903,M,-29.744,M,0.0,*5A
###2023-12-09 13:24:10.385889$GNGGA,182409.50,4138.0711355,N,07032.3783770,W,1,24,0.6,12.907,M,-29.744,M,0.0,*52
###2023-12-09 13:24:10.584866$GNGGA,182409.70,4138.0713255,N,07032.3784980,W,1,24,0.6,12.913,M,-29.744,M,0.0,*50
###2023-12-09 13:24:10.786324$GNGGA,182409.90,4138.0715091,N,07032.3786344,W,1,24,0.6,12.918,M,-29.744,M,0.0,*59
###2023-12-09 13:24:10.990006$GNRMC,182410.10,A,4138.0716897,N,07032.3787772,W,3.81,328.96,091223,,,A*5D
###2023-12-09 13:24:10.993239$GNGGA,182410.10,4138.0716897,N,07032.3787772,W,1,24,0.6,12.918,M,-29.744,M,0.0,*54
###2023-12-09 13:24:10.995067$GPGSA,A,3,03,04,16,26,28,29,31,,,,,,1.1,0.6,0.9*3A
###2023-12-09 13:24:10.996785$GLGSA,A,3,65,71,72,73,74,75,,,,,,,1.1,0.6,0.9*24
###2023-12-09 13:24:10.998361$GAGSA,A,3,04,19,21,27,,,,,,,,,1.1,0.6,0.9*26
###2023-12-09 13:24:11.001260$GBGSA,A,3,14,24,25,26,33,35,,,,,,,1.1,0.6,0.9*29
###2023-12-09 13:24:11.003933$GPGSV,2,1,07,03,30,251,42,04,42,310,41,16,61,218,45,26,89,050,48*7E
###2023-12-09 13:24:11.006263$GPGSV,2,2,07,28,41,080,44,29,22,051,43,31,63,058,46,,,,*49
###2023-12-09 13:24:11.008875$GLGSV,2,1,06,65,34,323,41,71,29,175,45,72,68,232,46,73,27,049,44*6A
###2023-12-09 13:24:11.010903$GLGSV,2,2,06,74,63,004,41,75,40,265,47,,,,,,,,*60
