###2023-12-09 13:37:17.010051$GAGSA,A,3,04,19,21,27,,,,,,,,,1.1,0.6,1.0*2E
###2023-12-09 13:37:17.011820$GBGSA,A,3,12,14,24,25,33,35,,,,,,,1.1,0.6,1.0*26
###2023-12-09 13:37:17.014174$GPGSV,2,1,07,04,48,307,45,16,68,224,45,26,83,040,48,27,17,172,44*7C
###2023-12-09 13:37:17.016239$GPGSV,2,2,07,28,37,085,43,29,20,046,43,31,59,067,46,,,,*4B
###2023-12-09 13:37:17.018557$GLGSV,2,1,07,65,39,317,43,71,21,175,45,72,61,219,45,73,21,053,43*62
###2023-12-09 13:37:17.020599$GLGSV,2,2,07,74,59,016,42,75,44,273,47,83,15,046,37,,,,*52
###2023-12-09 13:37:17.022926$GAGSV,1,1,04,04,40,309,44,19,71,181,41,21,76,045,47,27,22,050,41*60
###2023-12-09 13:37:17.025243$GBGSV,2,1,06,12,16,125,41,14,28,189,43,24,62,047,47,25,52,277,47*62
###2023-12-09 13:37:17.027006$GBGSV,2,2,06,33,44,216,45,35,16,055,44,,,,,,,,*68
###2023-12-09 13:37:17.028327$GNVTG,271.98,T,,M,1.17,N,2.16,K,A*24
###2023-12-09 13:37:17.029938$GNGST,183716.10,5.300,,,,0.087,0.072,0.160*67
###2023-12-09 13:37:17.031241$GNZDA,183716.10,09,12,2023,00,00*7A
###2023-12-09 13:37:17.031884$GNEBP,,,,,,M*13
###2023-12-09 13:37:17.198022$GNGGA,183716.30,4138.0311681,N,07032.3946064,W,1,25,0.6,13.438,M,-29.745,M,0.0,*55
###2023-12-09 13:37:17.396600$GNGGA,183716.50,4138.0311264,N,07032.3946101,W,1,25,0.6,13.431,M,-29.745,M,0.0,*57
###2023-12-09 13:37:17.596841$GNGGA,183716.70,4138.0310829,N,07032.3946105,W,1,24,0.6,13.394,M,-29.745,M,0.0,*5A
###2023-12-09 13:37:17.795300$GNGGA,183716.90,4138.0310673,N,07032.3946622,W,1,24,0.6,13.415,M,-29.745,M,0.0,*59
###2023-12-09 13:37:18.000232$GNRMC,183717.10,A,4138.0310653,N,07032.3947353,W,0.97,270.75,091223,,,A*5C
###2023-12-09 13:37:18.003113$GNGGA,183717.10,4138.0310653,N,07032.3947353,W,1,24,0.6,13.445,M,-29.745,M,0.0,*55
###2023-12-09 13:37:18.004901$GPGSA,A,3,04,16,26,27,28,29,31,,,,,,1.1,0.6,1.0*34
###2023-12-09 13:37:18.006695$GLGSA,A,3,65,71,72,73,74,75,83,,,,,,1.1,0.6,1.0*27
###2023-12-09 13:37:18.008271$GAGSA,A,3,04,19,21,27,,,,,,,,,1.1,0.6,1.0*2E
###2023-12-09 13:37:18.009965$GBGSA,A,3,12,14,24,25,33,35,,,,,,,1.1,0.6,1.0*26
###2023-12-09 13:37:18.012286$GPGSV,2,1,07,04,48,307,46,16,68,224,45,26,83,040,49,27,17,172,42*78
###2023-12-09 13:37:18.014318$GPGSV,2,2,07,28,37,085,42,29,20,046,42,31,59,067,46,,,,*4B
###2023-12-09 13:37:18.016652$GLGSV,2,1,07,65,39,317,46,71,21,175,44,72,61,219,46,73,21,053,44*62
###2023-12-09 13:37:18.018706$GLGSV,2,2,07,74,59,016,44,75,44,273,48,83,15,046,37,,,,*5B
###2023-12-09 13:37:18.021020$GAGSV,1,1,04,04,40,309,45,19,71,181,41,21,76,045,47,27,22,050,41*61
###2023-12-09 13:37:18.023363$GBGSV,2,1,06,12,16,125,41,14,28,189,41,24,62,047,47,25,52,277,48*6F
###2023-12-09 13:37:18.025107$GBGSV,2,2,06,33,44,216,44,35,16,055,44,,,,,,,,*69
###2023-12-09 13:37:18.026428$GNVTG,270.75,T,,M,0.97,N,1.80,K,A*23
###2023-12-09 13:37:18.028051$GNGST,183717.10,6.100,,,,0.087,0.073,0.160*66
###2023-12-09 13:37:18.029337$GNZDA,183717.10,09,12,2023,00,00*7B
###2023-12-09 13:37:18.029971$GNEBP,,,,,,M*13
###2023-12-09 13:37:18.196408$GNGGA,183717.30,4138.0310475,N,07032.3947802,W,1,24,0.6,13.460,M,-29.745,M,0.0,*59
###2023-12-09 13:37:18.394537$GNGGA,183717.50,4138.0310131,N,07032.3947892,W,1,24,0.6,13.448,M,-29.745,M,0.0,*59
###2023-12-09 13:37:18.594606$GNGGA,183717.70,4138.0309782,N,07032.3948016,W,1,24,0.6,13.413,M,-29.745,M,0.0,*58
###2023-12-09 13:37:18.795318$GNGGA,183717.90,4138.0309620,N,07032.3948457,W,1,24,0.6,13.429,M,-29.745,M,0.0,*57
###2023-12-09 13:37:19.000014$GNRMC,183718.10,A,4138.0309578,N,07032.3949058,W,0.68,270.75,091223,,,A*57
###2023-12-09 13:37:19.002868$GNGGA,183718.10,4138.0309578,N,07032.3949058,W,1,24,0.6,13.445,M,-29.745,M,0.0,*5E
###2023-12-09 13:37:19.004656$GPGSA,A,3,04,16,26,27,28,29,31,,,,,,1.1,0.6,1.0*34
###2023-12-09 13:37:19.006429$GLGSA,A,3,65,71,72,73,74,75,83,,,,,,1.1,0.6,1.0*27
###2023-12-09 13:37:19.008018$GAGSA,A,3,04,19,21,27,,,,,,,,,1.1,0.6,1.0*2E
###2023-12-09 13:37:19.009722$GBGSA,A,3,12,14,24,25,33,35,,,,,,,1.1,0.6,1.0*26
###2023-12-09 13:37:19.012056$GPGSV,2,1,07,04,48,307,46,16,68,224,45,26,83,040,48,27,17,172,43*78
###2023-12-09 13:37:19.014081$GPGSV,2,2,07,28,37,085,43,29,20,046,44,31,59,067,47,,,,*4D
###2023-12-09 13:37:19.016411$GLGSV,2,1,07,65,39,317,46,71,21,175,44,72,61,219,45,73,21,053,44*61
###2023-12-09 13:37:19.018455$GLGSV,2,2,07,74,59,016,43,75,44,273,47,83,15,046,37,,,,*53
###2023-12-09 13:37:19.020802$GAGSV,1,1,04,04,40,309,44,19,71,181,41,21,76,045,47,27,22,050,41*60
###2023-12-09 13:37:19.023149$GBGSV,2,1,06,12,16,125,40,14,28,189,40,24,62,047,48,25,52,277,47*6F
###2023-12-09 13:37:19.024893$GBGSV,2,2,06,33,44,216,45,35,16,055,44,,,,,,,,*68
###2023-12-09 13:37:19.026211$GNVTG,270.75,T,,M,0.68,N,1.26,K,A*2F
###2023-12-09 13:37:19.027868$GNGST,183718.10,5.700,,,,0.086,0.073,0.160*6D
###2023-12-09 13:37:19.029159$GNZDA,183718.10,09,12,2023,00,00*74
###2023-12-09 13:37:19.029797$GNEBP,,,,,,M*13
###2023-12-09 13:37:19.196519$GNGGA,183718.30,4138.0309411,N,07032.3949443,W,1,24,0.6,13.459,M,-29.745,M,0.0,*51
###2023-12-09 13:37:19.396579$GNGGA,183718.50,4138.0309093,N,07032.3949578,W,1,24,0.6,13.457,M,-29.745,M,0.0,*5E
###2023-12-09 13:37:19.596401$GNGGA,183718.70,4138.0308799,N,07032.3949690,W,1,24,0.6,13.440,M,-29.745,M,0.0,*53
###2023-12-09 13:37:19.796797$GNGGA,183718.90,4138.0308666,N,07032.3950153,W,1,24,0.6,13.443,M,-29.745,M,0.0,*5F
###2023-12-09 13:37:20.000024$GNRMC,183719.10,A,4138.0308607,N,07032.3950766,W,0.70,270.75,091223,,,A*57
###2023-12-09 13:37:20.002886$GNGGA,183719.10,4138.0308607,N,07032.3950766,W,1,24,0.6,13.450,M,-29.745,M,0.0,*53
###2023-12-09 13:37:20.004671$GPGSA,A,3,04,16,26,27,28,29,31,,,,,,1.1,0.6,1.0*34
###2023-12-09 13:37:20.006447$GLGSA,A,3,65,71,72,73,74,75,83,,,,,,1.1,0.6,1.0*27
###2023-12-09 13:37:20.008035$GAGSA,A,3,04,19,21,27,,,,,,,,,1.1,0.6,1.0*2E
###2023-12-09 13:37:20.009737$GBGSA,A,3,12,14,24,25,33,35,,,,,,,1.1,0.6,1.0*26
###2023-12-09 13:37:20.012066$GPGSV,2,1,07,04,48,307,46,16,68,224,46,26,83,040,48,27,17,172,43*7B
###2023-12-09 13:37:20.014103$GPGSV,2,2,07,28,37,085,44,29,20,046,43,31,59,067,47,,,,*4D
###2023-12-09 13:37:20.016441$GLGSV,2,1,07,65,39,317,45,71,21,175,44,72,61,219,46,73,21,053,44*61
###2023-12-09 13:37:20.018484$GLGSV,2,2,07,74,59,016,43,75,44,273,47,83,15,046,37,,,,*53
###2023-12-09 13:37:20.020812$GAGSV,1,1,04,04,40,309,44,19,71,181,41,21,76,045,47,27,22,050,41*60
###2023-12-09 13:37:20.023154$GBGSV,2,1,06,12,16,125,42,14,28,189,39,24,62,047,46,25,52,277,46*6C
###2023-12-09 13:37:20.024908$GBGSV,2,2,06,33,44,216,43,35,16,055,43,,,,,,,,*69
###2023-12-09 13:37:20.026232$GNVTG,270.75,T,,M,0.70,N,1.30,K,A*21
###2023-12-09 13:37:20.027885$GNGST,183719.10,5.900,,,,0.086,0.074,0.160*65
###2023-12-09 13:37:20.029173$GNZDA,183719.10,09,12,2023,00,00*75
###2023-12-09 13:37:20.029811$GNEBP,,,,,,M*13
###2023-12-09 13:37:20.196804$GNGGA,183719.30,4138.0308437,N,07032.3951094,W,1,24,0.6,13.446,M,-29.745,M,0.0,*5C
###2023-12-09 13:37:20.395803$GNGGA,183719.50,4138.0308117,N,07032.3951108,W,1,24,0.6,13.442,M,-29.745,M,0.0,*5D
###2023-12-09 13:37:20.601719$GNGGA,183719.70,4138.0307862,N,07032.3951281,W,1,24,0.6,13.440,M,-29.745,M,0.0,*5B
###2023-12-09 13:37:20.795237$GNGGA,183719.90,4138.0307791,N,07032.3951870,W,1,24,0.6,13.451,M,-29.745,M,0.0,*52
###2023-12-09 13:37:21.005819$GNRMC,183720.10,A,4138.0307719,N,07032.3952419,W,0.60,270.75,091223,,,A*54
###2023-12-09 13:37:21.008687$GNGGA,183720.10,4138.0307719,N,07032.3952419,W,1,24,0.6,13.445,M,-29.745,M,0.0,*55
###2023-12-09 13:37:21.010466$GPGSA,A,3,04,16,26,27,28,29,31,,,,,,1.1,0.6,1.0*34
###2023-12-09 13:37:21.012238$GLGSA,A,3,65,71,72,73,74,75,83,,,,,,1.1,0.6,1.0*27
###2023-12-09 13:37:21.013810$GAGSA,A,3,04,19,21,27,,,,,,,,,1.1,0.6,1.0*2E
###2023-12-09 13:37:21.015516$GBGSA,A,3,12,14,24,25,33,35,,,,,,,1.1,0.6,1.0*26
###2023-12-09 13:37:21.017821$GPGSV,2,1,07,04,48,307,47,16,68,224,46,26,83,040,48,27,17,172,41*78
###2023-12-09 13:37:21.019849$GPGSV,2,2,07,28,37,085,43,29,20,046,42,31,59,067,47,,,,*4B
###2023-12-09 13:37:21.022158$GLGSV,2,1,07,65,39,317,45,71,21,175,43,72,61,219,45,73,21,053,43*62
###2023-12-09 13:37:21.024191$GLGSV,2,2,07,74,59,016,42,75,44,273,47,83,15,046,37,,,,*52
###2023-12-09 13:37:21.026505$GAGSV,1,1,04,04,40,309,45,19,71,181,41,21,76,045,47,27,22,050,41*61
###2023-12-09 13:37:21.029108$GBGSV,2,1,06,12,16,125,40,14,28,189,39,24,62,047,47,25,52,277,47*6E
###2023-12-09 13:37:21.030890$GBGSV,2,2,06,33,44,216,43,35,16,055,43,,,,,,,,*69
###2023-12-09 13:37:21.032224$GNVTG,270.75,T,,M,0.60,N,1.12,K,A*20
###2023-12-09 13:37:21.033832$GNGST,183720.10,5.500,,,,0.086,0.074,0.160*63
###2023-12-09 13:37:21.035133$GNZDA,183720.10,09,12,2023,00,00*7F
###2023-12-09 13:37:21.035767$GNEBP,,,,,,M*13
###2023-12-09 13:37:21.205855$GNGGA,183720.30,4138.0307482,N,07032.3952611,W,1,24,0.6,13.443,M,-29.745,M,0.0,*5A
###2023-12-09 13:37:21.396672$GNGGA,183720.50,4138.0307179,N,07032.3952680,W,1,24,0.6,13.430,M,-29.745,M,0.0,*51
###2023-12-09 13:37:21.595620$GNGGA,183720.70,4138.0306993,N,07032.3952962,W,1,24,0.6,13.419,M,-29.745,M,0.0,*56
