###2023-12-09 13:10:55.988135$GBGSA,A,3,14,24,25,26,33,35,,,,,,,1.2,0.7,1.0*23
###2023-12-09 13:10:55.991014$GPGSV,2,1,07,03,33,257,41,04,36,311,43,16,54,214,46,26,84,210,49*7B
###2023-12-09 13:10:55.993482$GPGSV,2,2,07,28,46,074,45,29,24,057,42,31,67,046,48,,,,*40
###2023-12-09 13:10:55.996304$GLGSV,2,1,06,65,28,326,40,71,35,174,44,72,72,250,45,73,31,045,45*68
###2023-12-09 13:10:55.998401$GLGSV,2,2,06,74,67,351,42,75,36,258,45,,,,,,,,*69
###2023-12-09 13:10:56.001201$GAGSV,1,1,04,04,32,312,40,19,81,195,41,21,84,075,46,27,30,048,42*67
###2023-12-09 13:10:56.004023$GBGSV,2,1,06,14,39,192,43,24,70,032,49,25,44,266,44,26,23,065,42*64
###2023-12-09 13:10:56.006126$GBGSV,2,2,06,33,54,227,47,35,15,065,40,,,,,,,,*6D
###2023-12-09 13:10:56.007745$GNVTG,287.74,T,,M,3.52,N,6.52,K,A*28
###2023-12-09 13:10:56.009720$GNGST,181055.10,18.000,,,,0.096,0.073,0.170*5A
###2023-12-09 13:10:56.011285$GNZDA,181055.10,09,12,2023,00,00*78
###2023-12-09 13:10:56.012054$GNEBP,,,,,,M*13
###2023-12-09 13:10:56.172721$GNGGA,181055.30,4138.0116679,N,07032.2742683,W,1,24,0.7,12.969,M,-29.744,M,0.0,*58
###2023-12-09 13:10:56.372538$GNGGA,181055.50,4138.0117317,N,07032.2745182,W,1,24,0.7,12.973,M,-29.744,M,0.0,*58
###2023-12-09 13:10:56.572245$GNGGA,181055.70,4138.0118053,N,07032.2747633,W,1,24,0.7,12.972,M,-29.744,M,0.0,*58
###2023-12-09 13:10:56.771241$GNGGA,181055.90,4138.0118845,N,07032.2750049,W,1,24,0.7,12.970,M,-29.744,M,0.0,*56
###2023-12-09 13:10:56.983037$GNRMC,181056.10,A,4138.0119652,N,07032.2752434,W,3.48,295.46,091223,,,A*51
###2023-12-09 13:10:56.986485$GNGGA,181056.10,4138.0119652,N,07032.2752434,W,1,24,0.7,12.965,M,-29.744,M,0.0,*5C
###2023-12-09 13:10:56.988644$GPGSA,A,3,03,04,16,26,28,29,31,,,,,,1.2,0.7,1.0*30
###2023-12-09 13:10:56.990719$GLGSA,A,3,65,71,72,73,74,75,,,,,,,1.2,0.7,1.0*2E
###2023-12-09 13:10:56.992619$GAGSA,A,3,04,19,21,27,,,,,,,,,1.2,0.7,1.0*2C
###2023-12-09 13:10:56.994692$GBGSA,A,3,14,24,25,26,33,35,,,,,,,1.2,0.7,1.0*23
###2023-12-09 13:10:56.997492$GPGSV,2,1,07,03,33,257,43,04,36,311,42,16,54,214,46,26,84,210,48*79
###2023-12-09 13:10:56.999951$GPGSV,2,2,07,28,46,074,45,29,24,057,42,31,67,046,48,,,,*40
###2023-12-09 13:10:57.002770$GLGSV,2,1,06,65,28,326,40,71,35,174,45,72,72,250,46,73,31,045,46*69
###2023-12-09 13:10:57.004865$GLGSV,2,2,06,74,67,351,42,75,36,258,44,,,,,,,,*68
###2023-12-09 13:10:57.007689$GAGSV,1,1,04,04,32,312,41,19,81,195,41,21,84,075,46,27,30,048,43*67
###2023-12-09 13:10:57.010489$GBGSV,2,1,06,14,39,192,45,24,70,032,49,25,44,266,46,26,23,065,43*61
###2023-12-09 13:10:57.012596$GBGSV,2,2,06,33,54,227,46,35,15,065,42,,,,,,,,*6E
###2023-12-09 13:10:57.014216$GNVTG,295.46,T,,M,3.48,N,6.44,K,A*26
###2023-12-09 13:10:57.016214$GNGST,181056.10,18.000,,,,0.097,0.073,0.170*58
###2023-12-09 13:10:57.017762$GNZDA,181056.10,09,12,2023,00,00*7B
###2023-12-09 13:10:57.018535$GNEBP,,,,,,M*13
###2023-12-09 13:10:57.173974$GNGGA,181056.30,4138.0120506,N,07032.2754724,W,1,24,0.7,12.960,M,-29.744,M,0.0,*57
###2023-12-09 13:10:57.389183$GNGGA,181056.50,4138.0121419,N,07032.2756893,W,1,24,0.7,12.962,M,-29.744,M,0.0,*5C
###2023-12-09 13:10:57.571931$GNGGA,181056.70,4138.0122450,N,07032.2758951,W,1,24,0.7,12.965,M,-29.744,M,0.0,*56
###2023-12-09 13:10:57.773283$GNGGA,181056.90,4138.0123516,N,07032.2760938,W,1,24,0.7,12.964,M,-29.744,M,0.0,*5F
###2023-12-09 13:10:57.974458$GNRMC,181057.10,A,4138.0124629,N,07032.2762848,W,3.25,309.09,091223,,,A*52
###2023-12-09 13:10:57.977322$GNGGA,181057.10,4138.0124629,N,07032.2762848,W,1,24,0.7,12.967,M,-29.744,M,0.0,*59
###2023-12-09 13:10:57.979128$GPGSA,A,3,03,04,16,26,28,29,31,,,,,,1.2,0.7,1.0*30
###2023-12-09 13:10:57.980835$GLGSA,A,3,65,71,72,73,74,75,,,,,,,1.2,0.7,1.0*2E
###2023-12-09 13:10:57.982411$GAGSA,A,3,04,19,21,27,,,,,,,,,1.2,0.7,1.0*2C
###2023-12-09 13:10:57.984131$GBGSA,A,3,14,24,25,26,33,35,,,,,,,1.2,0.7,1.0*23
###2023-12-09 13:10:57.986453$GPGSV,2,1,07,03,33,257,42,04,36,311,42,16,54,214,45,26,84,210,48*7B
###2023-12-09 13:10:57.988502$GPGSV,2,2,07,28,46,074,46,29,24,057,43,31,67,046,47,,,,*4D
###2023-12-09 13:10:57.990871$GLGSV,2,1,06,65,28,326,41,71,35,174,44,72,72,250,46,73,31,045,45*6A
###2023-12-09 13:10:57.992619$GLGSV,2,2,06,74,67,351,42,75,36,258,45,,,,,,,,*69
###2023-12-09 13:10:57.994955$GAGSV,1,1,04,04,32,312,41,19,81,195,41,21,84,075,46,27,30,048,42*66
###2023-12-09 13:10:57.997281$GBGSV,2,1,06,14,39,192,44,24,70,032,49,25,44,266,47,26,23,065,44*66
###2023-12-09 13:10:57.999034$GBGSV,2,2,06,33,54,227,48,35,15,065,43,,,,,,,,*61
###2023-12-09 13:10:58.000353$GNVTG,309.09,T,,M,3.25,N,6.01,K,A*23
###2023-12-09 13:10:58.001994$GNGST,181057.10,18.000,,,,0.096,0.073,0.170*58
###2023-12-09 13:10:58.003291$GNZDA,181057.10,09,12,2023,00,00*7A
###2023-12-09 13:10:58.003929$GNEBP,,,,,,M*13
###2023-12-09 13:10:58.171053$GNGGA,181057.30,4138.0125784,N,07032.2764679,W,1,24,0.7,12.968,M,-29.744,M,0.0,*59
###2023-12-09 13:10:58.372327$GNGGA,181057.50,4138.0126993,N,07032.2766403,W,1,24,0.7,12.969,M,-29.744,M,0.0,*58
###2023-12-09 13:10:58.573287$GNGGA,181057.70,4138.0128306,N,07032.2767990,W,1,24,0.7,12.971,M,-29.744,M,0.0,*5D
###2023-12-09 13:10:58.772998$GNGGA,181057.90,4138.0129668,N,07032.2769477,W,1,24,0.7,12.973,M,-29.744,M,0.0,*57
###2023-12-09 13:10:58.974700$GNRMC,181058.10,A,4138.0131095,N,07032.2770884,W,3.21,325.20,091223,,,A*5A
###2023-12-09 13:10:58.977564$GNGGA,181058.10,4138.0131095,N,07032.2770884,W,1,24,0.7,12.979,M,-29.744,M,0.0,*5F
###2023-12-09 13:10:58.979367$GPGSA,A,3,03,04,16,26,28,29,31,,,,,,1.2,0.7,1.0*30
###2023-12-09 13:10:58.981084$GLGSA,A,3,65,71,72,73,74,75,,,,,,,1.2,0.7,1.0*2E
###2023-12-09 13:10:58.982713$GAGSA,A,3,04,19,21,27,,,,,,,,,1.2,0.7,1.0*2C
###2023-12-09 13:10:58.984425$GBGSA,A,3,14,24,25,26,33,35,,,,,,,1.2,0.7,1.0*23
###2023-12-09 13:10:58.986753$GPGSV,2,1,07,03,33,257,44,04,36,311,41,16,54,214,47,26,84,210,48*7C
###2023-12-09 13:10:58.988784$GPGSV,2,2,07,28,46,074,46,29,24,057,43,31,67,046,47,,,,*4D
###2023-12-09 13:10:58.991127$GLGSV,2,1,06,65,28,326,40,71,35,174,46,72,72,250,46,73,31,045,43*6F
###2023-12-09 13:10:58.992869$GLGSV,2,2,06,74,67,351,42,75,36,258,46,,,,,,,,*6A
###2023-12-09 13:10:58.995199$GAGSV,1,1,04,04,32,312,39,19,81,195,41,21,84,075,46,27,30,048,42*69
###2023-12-09 13:10:58.997537$GBGSV,2,1,06,14,39,192,42,24,70,032,47,25,44,266,45,26,23,065,42*6A
###2023-12-09 13:10:58.999300$GBGSV,2,2,06,33,54,227,46,35,15,065,41,,,,,,,,*6D
###2023-12-09 13:10:59.000626$GNVTG,325.20,T,,M,3.21,N,5.94,K,A*2D
###2023-12-09 13:10:59.002266$GNGST,181058.10,18.000,,,,0.097,0.072,0.170*57
###2023-12-09 13:10:59.003561$GNZDA,181058.10,09,12,2023,00,00*75
###2023-12-09 13:10:59.004196$GNEBP,,,,,,M*13
###2023-12-09 13:10:59.171968$GNGGA,181058.30,4138.0132616,N,07032.2772128,W,1,24,0.7,12.984,M,-29.744,M,0.0,*5C
###2023-12-09 13:10:59.371291$GNGGA,181058.50,4138.0134231,N,07032.2773210,W,1,24,0.7,12.989,M,-29.744,M,0.0,*59
###2023-12-09 13:10:59.572927$GNGGA,181058.70,4138.0135925,N,07032.2774167,W,1,24,0.7,13.000,M,-29.744,M,0.0,*59
###2023-12-09 13:10:59.772916$GNGGA,181058.90,4138.0137675,N,07032.2774993,W,1,24,0.7,13.002,M,-29.744,M,0.0,*5E
###2023-12-09 13:10:59.975346$GNRMC,181059.10,A,4138.0139458,N,07032.2775681,W,3.30,346.34,091223,,,A*58
###2023-12-09 13:10:59.978215$GNGGA,181059.10,4138.0139458,N,07032.2775681,W,1,24,0.7,13.006,M,-29.744,M,0.0,*5D
###2023-12-09 13:10:59.980031$GPGSA,A,3,03,04,16,26,28,29,31,,,,,,1.2,0.7,1.0*30
###2023-12-09 13:10:59.981754$GLGSA,A,3,65,71,72,73,74,75,,,,,,,1.2,0.7,1.0*2E
###2023-12-09 13:10:59.983354$GAGSA,A,3,04,19,21,27,,,,,,,,,1.2,0.7,1.0*2C
###2023-12-09 13:10:59.985076$GBGSA,A,3,14,24,25,26,33,35,,,,,,,1.2,0.7,1.0*23
###2023-12-09 13:10:59.987422$GPGSV,2,1,07,03,33,257,43,04,36,311,43,16,54,214,47,26,84,210,48*79
###2023-12-09 13:10:59.989464$GPGSV,2,2,07,28,46,074,44,29,24,057,41,31,67,046,47,,,,*4D
###2023-12-09 13:10:59.991799$GLGSV,2,1,06,65,28,326,38,71,35,174,46,72,72,250,46,73,31,045,43*60
###2023-12-09 13:10:59.993551$GLGSV,2,2,06,74,67,351,41,75,36,258,46,,,,,,,,*69
###2023-12-09 13:10:59.995882$GAGSV,1,1,04,04,32,312,42,19,81,195,41,21,84,075,46,27,30,048,40*67
###2023-12-09 13:10:59.998213$GBGSV,2,1,06,14,39,192,42,24,70,032,48,25,44,266,47,26,23,065,41*64
###2023-12-09 13:11:00.000229$GBGSV,2,2,06,33,54,227,47,35,15,065,41,,,,,,,,*6C
###2023-12-09 13:11:00.001573$GNVTG,346.34,T,,M,3.30,N,6.12,K,A*20
###2023-12-09 13:11:00.003242$GNGST,181059.10,18.000,,,,0.097,0.072,0.170*56
###2023-12-09 13:11:00.004541$GNZDA,181059.10,09,12,2023,00,00*74
###2023-12-09 13:11:00.005185$GNEBP,,,,,,M*13
###2023-12-09 13:11:00.172088$GNGGA,181059.30,4138.0141283,N,07032.2776125,W,1,24,0.7,13.009,M,-29.744,M,0.0,*55
###2023-12-09 13:11:00.371244$GNGGA,181059.50,4138.0143124,N,07032.2776404,W,1,24,0.7,13.008,M,-29.744,M,0.0,*58
###2023-12-09 13:11:00.570891$GNGGA,181059.70,4138.0144970,N,07032.2776669,W,1,24,0.7,13.009,M,-29.744,M,0.0,*5C
###2023-12-09 13:11:00.771866$GNGGA,181059.90,4138.0146832,N,07032.2776887,W,1,24,0.7,13.009,M,-29.744,M,0.0,*59
