###2023-12-09 13:03:37.974988$GLGSA,A,3,65,71,72,73,74,75,,,,,,,1.1,0.6,0.9*24
###2023-12-09 13:03:37.976934$GAGSA,A,3,04,19,21,27,,,,,,,,,1.1,0.6,0.9*26
###2023-12-09 13:03:37.978943$GBGSA,A,3,14,24,25,26,33,,,,,,,,1.1,0.6,0.9*2F
###2023-12-09 13:03:37.981748$GPGSV,2,1,08,03,34,260,44,04,33,311,41,16,51,213,47,26,81,210,48*72
###2023-12-09 13:03:37.984584$GPGSV,2,2,08,28,48,071,43,29,25,060,41,31,68,040,46,32,18,140,44*7E
###2023-12-09 13:03:37.987422$GLGSV,2,1,06,65,25,327,42,71,40,173,47,72,73,265,46,73,35,042,43*61
###2023-12-09 13:03:37.989523$GLGSV,2,2,06,74,69,340,42,75,33,254,46,,,,,,,,*6D
###2023-12-09 13:03:37.992374$GAGSV,1,1,04,04,29,312,40,19,84,213,41,21,86,114,46,27,32,048,40*61
###2023-12-09 13:03:37.995203$GBGSV,2,1,05,14,43,193,45,24,73,026,47,25,41,263,46,26,26,063,42*64
###2023-12-09 13:03:37.996958$GBGSV,2,2,05,33,57,231,48,,,,,,,,,,,,*50
###2023-12-09 13:03:37.998518$GNVTG,52.27,T,,M,3.07,N,5.69,K,A*1F
###2023-12-09 13:03:38.000510$GNGST,180337.10,18.000,,,,0.082,0.068,0.160*52
###2023-12-09 13:03:38.002067$GNZDA,180337.10,09,12,2023,00,00*7E
###2023-12-09 13:03:38.002860$GNEBP,,,,,,M*13
###2023-12-09 13:03:38.172604$GNGGA,180337.30,4138.0599718,N,07032.3875813,W,1,24,0.6,13.374,M,-29.744,M,0.0,*50
###2023-12-09 13:03:38.363854$GNGGA,180337.50,4138.0600330,N,07032.3873623,W,1,24,0.6,13.355,M,-29.744,M,0.0,*53
###2023-12-09 13:03:38.564558$GNGGA,180337.70,4138.0600685,N,07032.3871520,W,1,24,0.6,13.363,M,-29.744,M,0.0,*5D
###2023-12-09 13:03:38.765186$GNGGA,180337.90,4138.0601274,N,07032.3869446,W,1,24,0.6,13.392,M,-29.744,M,0.0,*5E
###2023-12-09 13:03:38.968576$GNRMC,180338.10,A,4138.0601841,N,07032.3867281,W,2.95,75.38,091223,,,A*6D
###2023-12-09 13:03:38.972048$GNGGA,180338.10,4138.0601841,N,07032.3867281,W,1,24,0.6,13.378,M,-29.744,M,0.0,*52
###2023-12-09 13:03:38.974293$GPGSA,A,3,03,04,16,26,28,29,31,32,,,,,1.1,0.6,0.9*3B
###2023-12-09 13:03:38.976362$GLGSA,A,3,65,71,72,73,74,75,,,,,,,1.1,0.6,0.9*24
###2023-12-09 13:03:38.978277$GAGSA,A,3,04,19,21,27,,,,,,,,,1.1,0.6,0.9*26
###2023-12-09 13:03:38.980282$GBGSA,A,3,14,24,25,26,33,,,,,,,,1.1,0.6,0.9*2F
###2023-12-09 13:03:38.983135$GPGSV,2,1,08,03,34,260,45,04,33,311,43,16,51,213,47,26,81,210,48*71
###2023-12-09 13:03:38.985955$GPGSV,2,2,08,28,48,071,44,29,25,060,41,31,68,040,47,32,18,140,42*7E
###2023-12-09 13:03:38.988797$GLGSV,2,1,06,65,25,327,40,71,40,173,47,72,73,265,46,73,35,042,44*64
###2023-12-09 13:03:38.990910$GLGSV,2,2,06,74,69,340,43,75,33,254,45,,,,,,,,*6F
###2023-12-09 13:03:38.993720$GAGSV,1,1,04,04,29,312,42,19,84,213,41,21,86,114,46,27,32,048,41*62
###2023-12-09 13:03:38.996550$GBGSV,2,1,05,14,43,193,45,24,73,026,48,25,41,263,46,26,26,063,43*6A
###2023-12-09 13:03:38.998312$GBGSV,2,2,05,33,57,231,47,,,,,,,,,,,,*5F
###2023-12-09 13:03:38.999883$GNVTG,75.38,T,,M,2.95,N,5.47,K,A*12
###2023-12-09 13:03:39.001868$GNGST,180338.10,18.000,,,,0.081,0.068,0.160*5E
###2023-12-09 13:03:39.003443$GNZDA,180338.10,09,12,2023,00,00*71
###2023-12-09 13:03:39.004218$GNEBP,,,,,,M*13
###2023-12-09 13:03:39.165647$GNGGA,180338.30,4138.0602188,N,07032.3865194,W,1,24,0.6,13.369,M,-29.744,M,0.0,*5A
###2023-12-09 13:03:39.363888$GNGGA,180338.50,4138.0602550,N,07032.3863093,W,1,24,0.6,13.403,M,-29.744,M,0.0,*56
###2023-12-09 13:03:39.563754$GNGGA,180338.70,4138.0602831,N,07032.3860834,W,1,24,0.6,13.401,M,-29.744,M,0.0,*5A
###2023-12-09 13:03:39.766629$GNGGA,180338.90,4138.0602963,N,07032.3858659,W,1,24,0.6,13.371,M,-29.744,M,0.0,*5C
###2023-12-09 13:03:39.969526$GNRMC,180339.10,A,4138.0603194,N,07032.3856587,W,2.90,78.02,091223,,,A*6D
###2023-12-09 13:03:39.972408$GNGGA,180339.10,4138.0603194,N,07032.3856587,W,1,24,0.6,13.380,M,-29.744,M,0.0,*54
###2023-12-09 13:03:39.974275$GPGSA,A,3,03,04,16,26,28,29,31,32,,,,,1.1,0.6,0.9*3B
###2023-12-09 13:03:39.976009$GLGSA,A,3,65,71,72,73,74,75,,,,,,,1.1,0.6,0.9*24
###2023-12-09 13:03:39.977597$GAGSA,A,3,04,19,21,27,,,,,,,,,1.1,0.6,0.9*26
###2023-12-09 13:03:39.979258$GBGSA,A,3,14,24,25,26,33,,,,,,,,1.1,0.6,0.9*2F
###2023-12-09 13:03:39.981596$GPGSV,2,1,08,03,34,260,44,04,33,311,43,16,51,213,48,26,81,210,48*7F
###2023-12-09 13:03:39.983943$GPGSV,2,2,08,28,48,071,43,29,25,060,41,31,68,040,46,32,18,140,42*78
###2023-12-09 13:03:39.986282$GLGSV,2,1,06,65,25,327,41,71,40,173,45,72,73,265,45,73,35,042,44*64
###2023-12-09 13:03:39.988047$GLGSV,2,2,06,74,69,340,43,75,33,254,45,,,,,,,,*6F
###2023-12-09 13:03:39.990368$GAGSV,1,1,04,04,29,312,40,19,84,213,41,21,86,114,46,27,32,048,42*63
###2023-12-09 13:03:39.992716$GBGSV,2,1,05,14,43,193,47,24,73,026,49,25,41,263,47,26,26,063,43*68
###2023-12-09 13:03:39.994167$GBGSV,2,2,05,33,57,231,49,,,,,,,,,,,,*51
###2023-12-09 13:03:39.995468$GNVTG,78.02,T,,M,2.90,N,5.36,K,A*15
###2023-12-09 13:03:39.997121$GNGST,180339.10,18.000,,,,0.081,0.067,0.160*50
###2023-12-09 13:03:39.998408$GNZDA,180339.10,09,12,2023,00,00*70
###2023-12-09 13:03:39.999056$GNEBP,,,,,,M*13
###2023-12-09 13:03:40.162529$GNGGA,180339.30,4138.0603491,N,07032.3854391,W,1,24,0.6,13.399,M,-29.744,M,0.0,*5D
###2023-12-09 13:03:40.364832$GNGGA,180339.50,4138.0603505,N,07032.3852047,W,1,24,0.6,13.373,M,-29.744,M,0.0,*5D
###2023-12-09 13:03:40.562956$GNGGA,180339.70,4138.0603501,N,07032.3849945,W,1,24,0.6,13.366,M,-29.744,M,0.0,*5E
###2023-12-09 13:03:40.767136$GNGGA,180339.90,4138.0603783,N,07032.3847761,W,1,24,0.6,13.388,M,-29.744,M,0.0,*5E
###2023-12-09 13:03:40.965568$GNRMC,180340.10,A,4138.0603917,N,07032.3845424,W,2.92,88.22,091223,,,A*65
###2023-12-09 13:03:40.968448$GNGGA,180340.10,4138.0603917,N,07032.3845424,W,1,24,0.6,13.368,M,-29.744,M,0.0,*55
###2023-12-09 13:03:40.970302$GPGSA,A,3,03,04,16,26,28,29,31,32,,,,,1.1,0.6,0.9*3B
###2023-12-09 13:03:40.972027$GLGSA,A,3,65,71,72,73,74,75,,,,,,,1.1,0.6,0.9*24
###2023-12-09 13:03:40.973605$GAGSA,A,3,04,19,21,27,,,,,,,,,1.1,0.6,0.9*26
###2023-12-09 13:03:40.975261$GBGSA,A,3,14,24,25,26,33,,,,,,,,1.1,0.6,0.9*2F
###2023-12-09 13:03:40.977579$GPGSV,2,1,08,03,34,260,44,04,33,311,42,16,51,213,46,26,81,210,48*70
###2023-12-09 13:03:40.979917$GPGSV,2,2,08,28,48,071,44,29,25,060,40,31,68,040,46,32,18,140,42*7E
###2023-12-09 13:03:40.982247$GLGSV,2,1,06,65,25,327,42,71,40,173,46,72,73,265,46,73,35,042,45*66
###2023-12-09 13:03:40.984000$GLGSV,2,2,06,74,69,340,43,75,33,254,47,,,,,,,,*6D
###2023-12-09 13:03:40.986318$GAGSV,1,1,04,04,29,312,42,19,84,213,40,21,86,114,45,27,32,048,43*62
###2023-12-09 13:03:40.988656$GBGSV,2,1,05,14,43,193,46,24,73,026,47,25,41,263,46,26,26,063,42*67
###2023-12-09 13:03:40.990107$GBGSV,2,2,05,33,57,231,47,,,,,,,,,,,,*5F
###2023-12-09 13:03:40.991407$GNVTG,88.22,T,,M,2.92,N,5.40,K,A*1B
###2023-12-09 13:03:40.993051$GNGST,180340.10,18.000,,,,0.081,0.067,0.160*5E
###2023-12-09 13:03:40.994338$GNZDA,180340.10,09,12,2023,00,00*7E
###2023-12-09 13:03:40.994987$GNEBP,,,,,,M*13
###2023-12-09 13:03:41.162844$GNGGA,180340.30,4138.0604059,N,07032.3843309,W,1,24,0.6,13.356,M,-29.744,M,0.0,*50
###2023-12-09 13:03:41.363819$GNGGA,180340.50,4138.0604279,N,07032.3841086,W,1,24,0.6,13.383,M,-29.744,M,0.0,*58
###2023-12-09 13:03:41.565738$GNGGA,180340.70,4138.0604362,N,07032.3838750,W,1,24,0.6,13.367,M,-29.744,M,0.0,*59
###2023-12-09 13:03:41.767453$GNGGA,180340.90,4138.0604517,N,07032.3836553,W,1,24,0.6,13.358,M,-29.744,M,0.0,*50
###2023-12-09 13:03:41.968092$GNRMC,180341.10,A,4138.0604638,N,07032.3834230,W,3.19,87.67,091223,,,A*68
###2023-12-09 13:03:41.970965$GNGGA,180341.10,4138.0604638,N,07032.3834230,W,1,24,0.6,13.371,M,-29.744,M,0.0,*5C
###2023-12-09 13:03:41.972823$GPGSA,A,3,03,04,16,26,28,29,31,32,,,,,1.1,0.6,0.9*3B
###2023-12-09 13:03:41.974540$GLGSA,A,3,65,71,72,73,74,75,,,,,,,1.1,0.6,0.9*24
###2023-12-09 13:03:41.976133$GAGSA,A,3,04,19,21,27,,,,,,,,,1.1,0.6,0.9*26
###2023-12-09 13:03:41.977787$GBGSA,A,3,14,24,25,26,33,,,,,,,,1.1,0.6,0.9*2F
###2023-12-09 13:03:41.980121$GPGSV,2,1,08,03,34,260,45,04,33,311,42,16,51,213,47,26,81,210,48*70
###2023-12-09 13:03:41.982445$GPGSV,2,2,08,28,48,071,42,29,25,060,40,31,68,040,46,32,18,140,43*79
###2023-12-09 13:03:41.984791$GLGSV,2,1,06,65,25,327,40,71,40,173,46,72,73,265,46,73,35,042,44*65
###2023-12-09 13:03:41.986538$GLGSV,2,2,06,74,69,340,43,75,33,254,46,,,,,,,,*6C
###2023-12-09 13:03:41.989116$GAGSV,1,1,04,04,29,312,39,19,84,213,40,21,86,114,45,27,32,048,42*6F
###2023-12-09 13:03:41.991478$GBGSV,2,1,05,14,43,193,45,24,73,026,48,25,41,263,47,26,26,063,41*69
###2023-12-09 13:03:41.992940$GBGSV,2,2,05,33,57,231,48,,,,,,,,,,,,*50
###2023-12-09 13:03:41.994236$GNVTG,87.67,T,,M,3.19,N,5.90,K,A*1A
###2023-12-09 13:03:41.995898$GNGST,180341.10,18.000,,,,0.081,0.067,0.160*5F
###2023-12-09 13:03:41.997190$GNZDA,180341.10,09,12,2023,00,00*7F
###2023-12-09 13:03:41.997828$GNEBP,,,,,,M*13
###2023-12-09 13:03:42.162946$GNGGA,180341.30,4138.0604715,N,07032.3831884,W,1,24,0.6,13.356,M,-29.744,M,0.0,*55
###2023-12-09 13:03:42.363143$GNGGA,180341.50,4138.0604832,N,07032.3829589,W,1,24,0.6,13.365,M,-29.744,M,0.0,*50
