###2023-12-09 13:21:24.185596$GNGGA,182123.30,4138.0374738,N,07032.3437277,W,1,24,0.7,13.184,M,-29.744,M,0.0,*5C
###2023-12-09 13:21:24.384441$GNGGA,182123.50,4138.0376591,N,07032.3436795,W,1,24,0.7,13.196,M,-29.744,M,0.0,*52
###2023-12-09 13:21:24.583750$GNGGA,182123.70,4138.0378489,N,07032.3436005,W,1,24,0.7,13.206,M,-29.744,M,0.0,*52
###2023-12-09 13:21:24.786542$GNGGA,182123.90,4138.0380453,N,07032.3435323,W,1,24,0.7,13.208,M,-29.744,M,0.0,*56
###2023-12-09 13:21:24.990315$GNRMC,182124.10,A,4138.0382483,N,07032.3435031,W,3.60,5.94,091223,,,A*54
###2023-12-09 13:21:24.993208$GNGGA,182124.10,4138.0382483,N,07032.3435031,W,1,24,0.7,13.209,M,-29.744,M,0.0,*57
###2023-12-09 13:21:24.995009$GPGSA,A,3,03,04,16,26,28,29,31,,,,,,1.1,0.7,0.9*3B
###2023-12-09 13:21:24.996725$GLGSA,A,3,65,71,72,73,74,75,,,,,,,1.1,0.7,0.9*25
###2023-12-09 13:21:24.998306$GAGSA,A,3,04,19,21,27,,,,,,,,,1.1,0.7,0.9*27
###2023-12-09 13:21:25.000031$GBGSA,A,3,14,24,25,26,33,35,,,,,,,1.1,0.7,0.9*28
###2023-12-09 13:21:25.002354$GPGSV,2,1,07,03,30,252,42,04,41,310,45,16,60,218,46,26,89,196,48*73
###2023-12-09 13:21:25.004402$GPGSV,2,2,07,28,43,079,44,29,23,053,40,31,64,055,46,,,,*47
###2023-12-09 13:21:25.006729$GLGSV,2,1,06,65,33,323,42,71,30,174,44,72,69,234,46,73,27,048,40*64
###2023-12-09 13:21:25.008476$GLGSV,2,2,06,74,64,002,41,75,39,263,47,,,,,,,,*69
###2023-12-09 13:21:25.010857$GAGSV,1,1,04,04,35,311,43,19,77,186,40,21,81,055,45,27,27,049,37*6B
###2023-12-09 13:21:25.013197$GBGSV,2,1,06,14,35,191,44,24,67,039,47,25,47,270,46,26,20,067,42*68
###2023-12-09 13:21:25.014957$GBGSV,2,2,06,33,51,222,47,35,16,062,42,,,,,,,,*6B
###2023-12-09 13:21:25.016218$GNVTG,5.94,T,,M,3.60,N,6.66,K,A*28
###2023-12-09 13:21:25.017864$GNGST,182124.10,18.000,,,,0.100,0.072,0.170*51
###2023-12-09 13:21:25.019165$GNZDA,182124.10,09,12,2023,00,00*7C
###2023-12-09 13:21:25.019806$GNEBP,,,,,,M*13
###2023-12-09 13:21:25.185182$GNGGA,182124.30,4138.0384533,N,07032.3434754,W,1,24,0.7,13.208,M,-29.744,M,0.0,*5D
###2023-12-09 13:21:25.383618$GNGGA,182124.50,4138.0386621,N,07032.3434309,W,1,24,0.7,13.215,M,-29.744,M,0.0,*59
###2023-12-09 13:21:25.585613$GNGGA,182124.70,4138.0388730,N,07032.3433803,W,1,24,0.7,13.217,M,-29.744,M,0.0,*50
###2023-12-09 13:21:25.783286$GNGGA,182124.90,4138.0390800,N,07032.3433536,W,1,24,0.7,13.214,M,-29.744,M,0.0,*53
###2023-12-09 13:21:25.986587$GNRMC,182125.10,A,4138.0392895,N,07032.3433484,W,3.79,1.42,091223,,,A*54
###2023-12-09 13:21:25.989466$GNGGA,182125.10,4138.0392895,N,07032.3433484,W,1,24,0.7,13.212,M,-29.744,M,0.0,*5A
###2023-12-09 13:21:25.991276$GPGSA,A,3,03,04,16,26,28,29,31,,,,,,1.1,0.7,0.9*3B
###2023-12-09 13:21:25.992998$GLGSA,A,3,65,71,72,73,74,75,,,,,,,1.1,0.7,0.9*25
###2023-12-09 13:21:25.994593$GAGSA,A,3,04,19,21,27,,,,,,,,,1.1,0.7,0.9*27
###2023-12-09 13:21:25.996308$GBGSA,A,3,14,24,25,26,33,35,,,,,,,1.1,0.7,0.9*28
###2023-12-09 13:21:25.998647$GPGSV,2,1,07,03,30,252,43,04,41,310,45,16,60,218,46,26,89,196,48*72
###2023-12-09 13:21:26.000689$GPGSV,2,2,07,28,43,079,43,29,23,053,39,31,64,055,46,,,,*4E
###2023-12-09 13:21:26.003028$GLGSV,2,1,06,65,33,323,42,71,30,174,44,72,69,234,46,73,27,048,40*64
###2023-12-09 13:21:26.004782$GLGSV,2,2,06,74,64,002,41,75,39,263,46,,,,,,,,*68
###2023-12-09 13:21:26.007124$GAGSV,1,1,04,04,35,311,42,19,77,186,41,21,81,055,46,27,27,049,38*67
###2023-12-09 13:21:26.009456$GBGSV,2,1,06,14,35,191,44,24,67,039,47,25,47,270,47,26,20,067,43*68
###2023-12-09 13:21:26.011215$GBGSV,2,2,06,33,51,222,45,35,16,062,42,,,,,,,,*69
###2023-12-09 13:21:26.012477$GNVTG,1.42,T,,M,3.79,N,7.02,K,A*2C
###2023-12-09 13:21:26.014128$GNGST,182125.10,18.000,,,,0.100,0.072,0.170*50
###2023-12-09 13:21:26.015433$GNZDA,182125.10,09,12,2023,00,00*7D
###2023-12-09 13:21:26.016074$GNEBP,,,,,,M*13
###2023-12-09 13:21:26.185629$GNGGA,182125.30,4138.0394979,N,07032.3433359,W,1,24,0.7,13.208,M,-29.744,M,0.0,*51
###2023-12-09 13:21:26.383458$GNGGA,182125.50,4138.0397076,N,07032.3433071,W,1,24,0.7,13.227,M,-29.744,M,0.0,*56
###2023-12-09 13:21:26.584148$GNGGA,182125.70,4138.0399212,N,07032.3432754,W,1,24,0.7,13.228,M,-29.744,M,0.0,*54
###2023-12-09 13:21:26.783314$GNGGA,182125.90,4138.0401324,N,07032.3432645,W,1,24,0.7,13.226,M,-29.744,M,0.0,*57
###2023-12-09 13:21:26.989030$GNRMC,182126.10,A,4138.0403448,N,07032.3432616,W,3.85,3.91,091223,,,A*53
###2023-12-09 13:21:26.991913$GNGGA,182126.10,4138.0403448,N,07032.3432616,W,1,24,0.7,13.227,M,-29.744,M,0.0,*54
###2023-12-09 13:21:26.993703$GPGSA,A,3,03,04,16,26,28,29,31,,,,,,1.1,0.7,0.9*3B
###2023-12-09 13:21:26.995421$GLGSA,A,3,65,71,72,73,74,75,,,,,,,1.1,0.7,0.9*25
###2023-12-09 13:21:26.997003$GAGSA,A,3,04,19,21,27,,,,,,,,,1.1,0.7,0.9*27
###2023-12-09 13:21:26.998728$GBGSA,A,3,14,24,25,26,33,35,,,,,,,1.1,0.7,0.9*28
###2023-12-09 13:21:27.001049$GPGSV,2,1,07,03,30,252,43,04,41,310,45,16,60,218,47,26,90,099,48*75
###2023-12-09 13:21:27.003124$GPGSV,2,2,07,28,43,079,44,29,23,053,41,31,64,055,46,,,,*46
###2023-12-09 13:21:27.005461$GLGSV,2,1,06,65,33,323,42,71,30,174,44,72,69,234,46,73,27,048,40*64
###2023-12-09 13:21:27.007228$GLGSV,2,2,06,74,64,002,41,75,39,263,47,,,,,,,,*69
###2023-12-09 13:21:27.009550$GAGSV,1,1,04,04,35,311,43,19,77,186,41,21,81,055,46,27,27,049,38*66
###2023-12-09 13:21:27.011894$GBGSV,2,1,06,14,35,191,44,24,67,039,48,25,47,270,48,26,20,067,43*68
###2023-12-09 13:21:27.013651$GBGSV,2,2,06,33,51,222,48,35,16,062,43,,,,,,,,*65
###2023-12-09 13:21:27.014923$GNVTG,3.91,T,,M,3.85,N,7.13,K,A*23
###2023-12-09 13:21:27.016568$GNGST,182126.10,18.000,,,,0.100,0.072,0.170*53
###2023-12-09 13:21:27.017856$GNZDA,182126.10,09,12,2023,00,00*7E
###2023-12-09 13:21:27.018494$GNEBP,,,,,,M*13
###2023-12-09 13:21:27.184747$GNGGA,182126.30,4138.0405582,N,07032.3432389,W,1,24,0.7,13.230,M,-29.744,M,0.0,*52
###2023-12-09 13:21:27.383185$GNGGA,182126.50,4138.0407657,N,07032.3432104,W,1,24,0.7,13.237,M,-29.744,M,0.0,*5D
###2023-12-09 13:21:27.583213$GNGGA,182126.70,4138.0409737,N,07032.3431838,W,1,24,0.7,13.239,M,-29.744,M,0.0,*5D
###2023-12-09 13:21:27.784198$GNGGA,182126.90,4138.0411827,N,07032.3431658,W,1,24,0.7,13.227,M,-29.744,M,0.0,*53
###2023-12-09 13:21:27.988590$GNRMC,182127.10,A,4138.0413885,N,07032.3431592,W,3.77,1.71,091223,,,A*53
###2023-12-09 13:21:27.991463$GNGGA,182127.10,4138.0413885,N,07032.3431592,W,1,24,0.7,13.233,M,-29.744,M,0.0,*50
###2023-12-09 13:21:27.993253$GPGSA,A,3,03,04,16,26,28,29,31,,,,,,1.1,0.7,0.9*3B
###2023-12-09 13:21:27.994973$GLGSA,A,3,65,71,72,73,74,75,,,,,,,1.1,0.7,0.9*25
###2023-12-09 13:21:27.996552$GAGSA,A,3,04,19,21,27,,,,,,,,,1.1,0.7,0.9*27
###2023-12-09 13:21:27.998262$GBGSA,A,3,14,24,25,26,33,35,,,,,,,1.1,0.7,0.9*28
###2023-12-09 13:21:28.000592$GPGSV,2,1,07,03,30,252,42,04,41,310,45,16,60,218,47,26,90,099,48*74
###2023-12-09 13:21:28.002632$GPGSV,2,2,07,28,43,079,44,29,23,053,40,31,64,055,46,,,,*47
###2023-12-09 13:21:28.004962$GLGSV,2,1,06,65,33,323,42,71,30,174,44,72,69,234,46,73,27,048,40*64
###2023-12-09 13:21:28.006721$GLGSV,2,2,06,74,64,002,41,75,39,263,47,,,,,,,,*69
###2023-12-09 13:21:28.009045$GAGSV,1,1,04,04,35,311,43,19,77,186,40,21,81,055,46,27,27,049,38*67
###2023-12-09 13:21:28.011411$GBGSV,2,1,06,14,35,191,43,24,67,039,47,25,47,270,47,26,20,067,41*6D
###2023-12-09 13:21:28.013156$GBGSV,2,2,06,33,51,222,46,35,16,062,41,,,,,,,,*69
###2023-12-09 13:21:28.014408$GNVTG,1.71,T,,M,3.77,N,6.98,K,A*20
###2023-12-09 13:21:28.016067$GNGST,182127.10,18.000,,,,0.100,0.071,0.170*51
###2023-12-09 13:21:28.017349$GNZDA,182127.10,09,12,2023,00,00*7F
###2023-12-09 13:21:28.017984$GNEBP,,,,,,M*13
###2023-12-09 13:21:28.183580$GNGGA,182127.30,4138.0416004,N,07032.3431489,W,1,24,0.7,13.242,M,-29.744,M,0.0,*5B
###2023-12-09 13:21:28.383379$GNGGA,182127.50,4138.0418100,N,07032.3431243,W,1,24,0.7,13.249,M,-29.744,M,0.0,*5D
###2023-12-09 13:21:28.583980$GNGGA,182127.70,4138.0420177,N,07032.3431001,W,1,24,0.7,13.246,M,-29.744,M,0.0,*5F
###2023-12-09 13:21:28.785347$GNGGA,182127.90,4138.0422249,N,07032.3430770,W,1,24,0.7,13.239,M,-29.744,M,0.0,*55
###2023-12-09 13:21:28.987538$GNRMC,182128.10,A,4138.0424301,N,07032.3430577,W,3.65,3.34,091223,,,A*55
###2023-12-09 13:21:28.990388$GNGGA,182128.10,4138.0424301,N,07032.3430577,W,1,24,0.7,13.229,M,-29.744,M,0.0,*5D
###2023-12-09 13:21:28.992448$GPGSA,A,3,03,04,16,26,28,29,31,,,,,,1.1,0.7,0.9*3B
###2023-12-09 13:21:28.994177$GLGSA,A,3,65,71,72,73,74,75,,,,,,,1.1,0.7,0.9*25
###2023-12-09 13:21:28.995824$GAGSA,A,3,04,19,21,27,,,,,,,,,1.1,0.7,0.9*27
###2023-12-09 13:21:28.997533$GBGSA,A,3,14,24,25,26,33,35,,,,,,,1.1,0.7,0.9*28
###2023-12-09 13:21:28.999877$GPGSV,2,1,07,03,30,252,42,04,41,310,44,16,60,218,47,26,90,099,48*75
###2023-12-09 13:21:29.001906$GPGSV,2,2,07,28,42,080,44,29,23,053,40,31,64,055,46,,,,*40
###2023-12-09 13:21:29.004248$GLGSV,2,1,06,65,33,323,42,71,30,174,44,72,69,234,46,73,27,048,40*64
###2023-12-09 13:21:29.005995$GLGSV,2,2,06,74,64,002,41,75,39,263,46,,,,,,,,*68
###2023-12-09 13:21:29.008328$GAGSV,1,1,04,04,35,311,43,19,77,186,40,21,81,055,46,27,27,049,38*67
###2023-12-09 13:21:29.010665$GBGSV,2,1,06,14,35,191,44,24,67,039,47,25,47,270,47,26,20,067,43*68
