###2023-12-09 13:34:06.029552$GNZDA,183405.10,09,12,2023,00,00*7B
###2023-12-09 13:34:06.030227$GNEBP,,,,,,M*13
###2023-12-09 13:34:06.197528$GNGGA,183405.30,4138.0415113,N,07032.4096282,W,1,24,0.6,13.662,M,-29.745,M,0.0,*5E
###2023-12-09 13:34:06.394605$GNGGA,183405.50,4138.0416300,N,07032.4095789,W,1,25,0.6,13.657,M,-29.745,M,0.0,*51
###2023-12-09 13:34:06.595762$GNGGA,183405.70,4138.0417486,N,07032.4095172,W,1,25,0.6,13.651,M,-29.745,M,0.0,*5F
###2023-12-09 13:34:06.797463$GNGGA,183405.90,4138.0418743,N,07032.4094734,W,1,25,0.6,13.644,M,-29.745,M,0.0,*55
###2023-12-09 13:34:07.000099$GNRMC,183406.10,A,4138.0420027,N,07032.4094511,W,2.24,8.47,091223,,,A*58
###2023-12-09 13:34:07.002969$GNGGA,183406.10,4138.0420027,N,07032.4094511,W,1,25,0.6,13.634,M,-29.745,M,0.0,*52
###2023-12-09 13:34:07.004763$GPGSA,A,3,03,04,16,26,28,29,31,,,,,,1.0,0.6,0.9*3B
###2023-12-09 13:34:07.006473$GLGSA,A,3,65,71,72,73,74,75,,,,,,,1.0,0.6,0.9*25
###2023-12-09 13:34:07.008068$GAGSA,A,3,04,19,21,27,,,,,,,,,1.0,0.6,0.9*27
###2023-12-09 13:34:07.009840$GBGSA,A,3,12,14,24,25,26,33,35,,,,,,1.0,0.6,0.9*2B
###2023-12-09 13:34:07.012173$GPGSV,2,1,07,03,27,247,40,04,46,308,44,16,66,222,47,26,84,040,48*75
###2023-12-09 13:34:07.014204$GPGSV,2,2,07,28,38,084,44,29,21,047,40,31,59,066,46,,,,*40
###2023-12-09 13:34:07.016540$GLGSV,2,1,06,65,38,319,43,71,23,175,43,72,63,222,46,73,23,052,38*6E
###2023-12-09 13:34:07.018282$GLGSV,2,2,06,74,60,013,41,75,43,271,48,,,,,,,,*6C
###2023-12-09 13:34:07.020612$GAGSV,1,1,04,04,40,310,43,19,72,181,42,21,77,046,46,27,22,050,38*62
###2023-12-09 13:34:07.022943$GBGSV,2,1,07,12,15,126,39,14,29,190,40,24,63,045,47,25,50,275,47*65
###2023-12-09 13:34:07.024971$GBGSV,2,2,07,26,16,070,41,33,46,217,46,35,16,057,41,,,,*5F
###2023-12-09 13:34:07.026228$GNVTG,8.47,T,,M,2.24,N,4.14,K,A*2D
###2023-12-09 13:34:07.027850$GNGST,183406.10,5.300,,,,0.100,0.069,0.160*61
###2023-12-09 13:34:07.029139$GNZDA,183406.10,09,12,2023,00,00*78
###2023-12-09 13:34:07.029776$GNEBP,,,,,,M*13
###2023-12-09 13:34:07.195325$GNGGA,183406.30,4138.0421310,N,07032.4094100,W,1,25,0.6,13.626,M,-29.745,M,0.0,*51
###2023-12-09 13:34:07.396358$GNGGA,183406.50,4138.0422517,N,07032.4093454,W,1,25,0.6,13.638,M,-29.745,M,0.0,*59
###2023-12-09 13:34:07.596443$GNGGA,183406.70,4138.0423738,N,07032.4092723,W,1,25,0.6,13.634,M,-29.745,M,0.0,*5B
###2023-12-09 13:34:07.796745$GNGGA,183406.90,4138.0424979,N,07032.4091967,W,1,25,0.6,13.612,M,-29.745,M,0.0,*50
###2023-12-09 13:34:07.999342$GNRMC,183407.10,A,4138.0426254,N,07032.4091454,W,2.47,10.56,091223,,,A*60
###2023-12-09 13:34:08.002213$GNGGA,183407.10,4138.0426254,N,07032.4091454,W,1,26,0.6,13.606,M,-29.745,M,0.0,*54
###2023-12-09 13:34:08.004081$GPGSA,A,3,03,04,16,26,27,28,29,31,,,,,1.0,0.6,0.8*3F
###2023-12-09 13:34:08.005800$GLGSA,A,3,65,71,72,73,74,75,,,,,,,1.0,0.6,0.8*24
###2023-12-09 13:34:08.007397$GAGSA,A,3,04,19,21,27,,,,,,,,,1.0,0.6,0.8*26
###2023-12-09 13:34:08.009169$GBGSA,A,3,12,14,24,25,26,33,35,,,,,,1.0,0.6,0.8*2A
###2023-12-09 13:34:08.011514$GPGSV,2,1,08,03,27,247,39,04,46,308,43,16,66,222,46,26,84,040,48*72
###2023-12-09 13:34:08.013859$GPGSV,2,2,08,27,16,172,35,28,38,084,43,29,21,047,41,31,59,066,45*7A
###2023-12-09 13:34:08.016200$GLGSV,2,1,06,65,38,319,43,71,23,175,42,72,63,222,46,73,23,052,40*60
###2023-12-09 13:34:08.017935$GLGSV,2,2,06,74,60,013,41,75,43,271,47,,,,,,,,*63
###2023-12-09 13:34:08.020269$GAGSV,1,1,04,04,40,310,43,19,72,181,42,21,77,046,46,27,22,050,39*63
###2023-12-09 13:34:08.022619$GBGSV,2,1,07,12,15,126,39,14,29,190,39,24,63,045,46,25,50,275,45*68
###2023-12-09 13:34:08.024664$GBGSV,2,2,07,26,16,070,41,33,46,217,45,35,16,057,41,,,,*5C
###2023-12-09 13:34:08.025961$GNVTG,10.56,T,,M,2.47,N,4.57,K,A*16
###2023-12-09 13:34:08.027592$GNGST,183407.10,5.700,,,,0.100,0.069,0.160*64
###2023-12-09 13:34:08.028890$GNZDA,183407.10,09,12,2023,00,00*79
###2023-12-09 13:34:08.029528$GNEBP,,,,,,M*13
###2023-12-09 13:34:08.196779$GNGGA,183407.30,4138.0427595,N,07032.4091024,W,1,26,0.6,13.608,M,-29.745,M,0.0,*50
###2023-12-09 13:34:08.395025$GNGGA,183407.50,4138.0428852,N,07032.4090173,W,1,26,0.6,13.604,M,-29.745,M,0.0,*51
###2023-12-09 13:34:08.596556$GNGGA,183407.70,4138.0430061,N,07032.4089000,W,1,26,0.6,13.599,M,-29.745,M,0.0,*58
###2023-12-09 13:34:08.796729$GNGGA,183407.90,4138.0431377,N,07032.4088229,W,1,26,0.6,13.584,M,-29.745,M,0.0,*57
###2023-12-09 13:34:09.003944$GNRMC,183408.10,A,4138.0432759,N,07032.4087929,W,2.53,7.27,091223,,,A*57
###2023-12-09 13:34:09.006828$GNGGA,183408.10,4138.0432759,N,07032.4087929,W,1,26,0.6,13.583,M,-29.745,M,0.0,*58
###2023-12-09 13:34:09.008689$GPGSA,A,3,03,04,16,26,27,28,29,31,,,,,1.0,0.6,0.8*3F
###2023-12-09 13:34:09.010411$GLGSA,A,3,65,71,72,73,74,75,,,,,,,1.0,0.6,0.8*24
###2023-12-09 13:34:09.011998$GAGSA,A,3,04,19,21,27,,,,,,,,,1.0,0.6,0.8*26
###2023-12-09 13:34:09.013766$GBGSA,A,3,12,14,24,25,26,33,35,,,,,,1.0,0.6,0.8*2A
###2023-12-09 13:34:09.016085$GPGSV,2,1,08,03,27,247,39,04,46,308,45,16,66,222,47,26,84,040,48*75
###2023-12-09 13:34:09.018407$GPGSV,2,2,08,27,16,172,40,28,38,084,44,29,21,047,41,31,59,066,46*7C
###2023-12-09 13:34:09.020760$GLGSV,2,1,06,65,38,319,43,71,23,175,42,72,63,222,46,73,23,052,40*60
###2023-12-09 13:34:09.022510$GLGSV,2,2,06,74,60,013,41,75,43,271,47,,,,,,,,*63
###2023-12-09 13:34:09.024856$GAGSV,1,1,04,04,40,310,43,19,72,181,42,21,77,046,46,27,22,050,37*6D
###2023-12-09 13:34:09.027204$GBGSV,2,1,07,12,15,126,39,14,29,190,42,24,63,045,47,25,50,275,46*66
###2023-12-09 13:34:09.029234$GBGSV,2,2,07,26,16,070,42,33,46,217,47,35,16,057,42,,,,*5E
###2023-12-09 13:34:09.030487$GNVTG,7.27,T,,M,2.53,N,4.68,K,A*2F
###2023-12-09 13:34:09.032111$GNGST,183408.10,5.000,,,,0.100,0.070,0.160*64
###2023-12-09 13:34:09.033403$GNZDA,183408.10,09,12,2023,00,00*76
###2023-12-09 13:34:09.034045$GNEBP,,,,,,M*13
###2023-12-09 13:34:09.204426$GNGGA,183408.30,4138.0434150,N,07032.4087293,W,1,26,0.6,13.580,M,-29.745,M,0.0,*5A
###2023-12-09 13:34:09.394705$GNGGA,183408.50,4138.0435455,N,07032.4086090,W,1,26,0.6,13.570,M,-29.745,M,0.0,*52
###2023-12-09 13:34:09.594636$GNGGA,183408.70,4138.0436841,N,07032.4085256,W,1,26,0.6,13.563,M,-29.745,M,0.0,*53
###2023-12-09 13:34:09.796752$GNGGA,183408.90,4138.0438345,N,07032.4085006,W,1,26,0.6,13.575,M,-29.745,M,0.0,*5C
###2023-12-09 13:34:09.997921$GNRMC,183409.10,A,4138.0439851,N,07032.4084541,W,2.88,21.16,091223,,,A*6B
###2023-12-09 13:34:10.000801$GNGGA,183409.10,4138.0439851,N,07032.4084541,W,1,26,0.6,13.565,M,-29.745,M,0.0,*5C
###2023-12-09 13:34:10.002669$GPGSA,A,3,03,04,16,26,27,28,29,31,,,,,1.0,0.6,0.8*3F
###2023-12-09 13:34:10.004387$GLGSA,A,3,65,71,72,73,74,75,,,,,,,1.0,0.6,0.8*24
###2023-12-09 13:34:10.005971$GAGSA,A,3,04,19,21,27,,,,,,,,,1.0,0.6,0.8*26
###2023-12-09 13:34:10.007755$GBGSA,A,3,12,14,24,25,26,33,35,,,,,,1.0,0.6,0.8*2A
###2023-12-09 13:34:10.010076$GPGSV,2,1,08,03,27,247,42,04,46,308,45,16,66,222,47,26,84,040,48*79
###2023-12-09 13:34:10.012411$GPGSV,2,2,08,27,16,172,40,28,38,084,43,29,21,047,39,31,59,066,46*74
###2023-12-09 13:34:10.014745$GLGSV,2,1,06,65,38,319,43,71,23,175,43,72,63,222,47,73,23,052,36*61
###2023-12-09 13:34:10.016485$GLGSV,2,2,06,74,60,013,41,75,43,271,47,,,,,,,,*63
###2023-12-09 13:34:10.018814$GAGSV,1,1,04,04,40,310,45,19,72,181,42,21,77,046,46,27,22,050,37*6B
###2023-12-09 13:34:10.021129$GBGSV,2,1,07,12,15,126,38,14,29,190,43,24,63,045,47,25,50,275,49*69
###2023-12-09 13:34:10.023157$GBGSV,2,2,07,26,16,070,41,33,46,217,48,35,16,057,41,,,,*51
###2023-12-09 13:34:10.024445$GNVTG,21.16,T,,M,2.88,N,5.33,K,A*10
###2023-12-09 13:34:10.026057$GNGST,183409.10,5.800,,,,0.098,0.069,0.160*65
###2023-12-09 13:34:10.027355$GNZDA,183409.10,09,12,2023,00,00*77
###2023-12-09 13:34:10.027991$GNEBP,,,,,,M*13
###2023-12-09 13:34:10.194785$GNGGA,183409.30,4138.0441327,N,07032.4083750,W,1,26,0.6,13.550,M,-29.745,M,0.0,*58
###2023-12-09 13:34:10.394030$GNGGA,183409.50,4138.0442852,N,07032.4083037,W,1,26,0.6,13.536,M,-29.745,M,0.0,*52
###2023-12-09 13:34:10.594384$GNGGA,183409.70,4138.0444378,N,07032.4082666,W,1,26,0.6,13.520,M,-29.745,M,0.0,*51
###2023-12-09 13:34:10.793875$GNGGA,183409.90,4138.0445893,N,07032.4082675,W,1,26,0.6,13.522,M,-29.745,M,0.0,*50
###2023-12-09 13:34:10.999137$GNRMC,183410.10,A,4138.0447480,N,07032.4082406,W,2.97,12.23,091223,,,A*66
###2023-12-09 13:34:11.002013$GNGGA,183410.10,4138.0447480,N,07032.4082406,W,1,26,0.6,13.524,M,-29.745,M,0.0,*5C
###2023-12-09 13:34:11.003891$GPGSA,A,3,03,04,16,26,27,28,29,31,,,,,1.0,0.6,0.9*3E
###2023-12-09 13:34:11.005610$GLGSA,A,3,65,71,72,73,74,75,,,,,,,1.0,0.6,0.9*25
###2023-12-09 13:34:11.007204$GAGSA,A,3,04,19,21,27,,,,,,,,,1.0,0.6,0.9*27
###2023-12-09 13:34:11.008980$GBGSA,A,3,12,14,24,25,26,33,35,,,,,,1.0,0.6,0.9*2B
###2023-12-09 13:34:11.011314$GPGSV,2,1,08,03,27,247,42,04,46,308,45,16,66,222,46,26,84,040,48*78
###2023-12-09 13:34:11.013648$GPGSV,2,2,08,27,16,172,40,28,38,084,44,29,21,047,39,31,59,066,45*70
###2023-12-09 13:34:11.015991$GLGSV,2,1,06,65,38,319,43,71,23,175,42,72,63,222,47,73,23,052,40*61
###2023-12-09 13:34:11.017737$GLGSV,2,2,06,74,60,013,41,75,43,271,48,,,,,,,,*6C
