###2023-12-09 13:29:16.005766$GBGSA,A,3,14,24,25,26,33,35,,,,,,,1.1,0.6,0.9*29
###2023-12-09 13:29:16.008655$GPGSV,2,1,07,03,28,248,45,04,44,309,47,16,63,220,48,26,87,041,49*7B
###2023-12-09 13:29:16.011160$GPGSV,2,2,07,28,40,082,44,29,22,049,40,31,61,061,46,,,,*48
###2023-12-09 13:29:16.013978$GLGSV,2,1,06,65,36,321,44,71,25,175,42,72,65,225,46,73,24,050,41*61
###2023-12-09 13:29:16.016107$GLGSV,2,2,06,74,61,010,43,75,42,268,48,,,,,,,,*65
###2023-12-09 13:29:16.018933$GAGSV,1,1,04,04,38,311,44,19,74,183,41,21,79,049,46,27,24,049,38*63
###2023-12-09 13:29:16.021777$GBGSV,2,1,06,14,31,190,41,24,64,043,48,25,49,274,47,26,17,069,42*68
###2023-12-09 13:29:16.023900$GBGSV,2,2,06,33,48,219,47,35,16,058,41,,,,,,,,*61
###2023-12-09 13:29:16.025495$GNVTG,314.92,T,,M,0.17,N,0.32,K,A*29
###2023-12-09 13:29:16.027487$GNGST,182915.10,18.000,,,,0.100,0.070,0.170*59
###2023-12-09 13:29:16.029045$GNZDA,182915.10,09,12,2023,00,00*76
###2023-12-09 13:29:16.029815$GNEBP,,,,,,M*13
###2023-12-09 13:29:16.192021$GNGGA,182915.30,4138.0470598,N,07032.4164047,W,1,24,0.6,12.970,M,-29.745,M,0.0,*5D
###2023-12-09 13:29:16.391051$GNGGA,182915.50,4138.0470726,N,07032.4164138,W,1,24,0.6,12.974,M,-29.745,M,0.0,*51
###2023-12-09 13:29:16.590664$GNGGA,182915.70,4138.0470905,N,07032.4164318,W,1,24,0.6,12.968,M,-29.745,M,0.0,*51
###2023-12-09 13:29:16.791593$GNGGA,182915.90,4138.0470909,N,07032.4164318,W,1,24,0.6,12.948,M,-29.745,M,0.0,*51
###2023-12-09 13:29:16.997200$GNRMC,182916.10,A,4138.0470925,N,07032.4164339,W,0.35,314.92,091223,,,A*5D
###2023-12-09 13:29:17.000700$GNGGA,182916.10,4138.0470925,N,07032.4164339,W,1,24,0.6,12.956,M,-29.745,M,0.0,*58
###2023-12-09 13:29:17.002902$GPGSA,A,3,03,04,16,26,28,29,31,,,,,,1.1,0.6,0.9*3A
###2023-12-09 13:29:17.004974$GLGSA,A,3,65,71,72,73,74,75,,,,,,,1.1,0.6,0.9*24
###2023-12-09 13:29:17.006896$GAGSA,A,3,04,19,21,27,,,,,,,,,1.1,0.6,0.9*26
###2023-12-09 13:29:17.008976$GBGSA,A,3,14,24,25,26,33,35,,,,,,,1.1,0.6,0.9*29
###2023-12-09 13:29:17.011801$GPGSV,2,1,07,03,28,248,44,04,44,309,46,16,64,220,48,26,87,041,49*7C
###2023-12-09 13:29:17.014298$GPGSV,2,2,07,28,40,082,43,29,22,049,38,31,61,061,46,,,,*40
###2023-12-09 13:29:17.017132$GLGSV,2,1,06,65,36,321,44,71,25,175,43,72,65,225,47,73,24,050,41*61
###2023-12-09 13:29:17.019254$GLGSV,2,2,06,74,61,010,42,75,42,268,47,,,,,,,,*6B
###2023-12-09 13:29:17.022043$GAGSV,1,1,04,04,38,311,44,19,74,183,41,21,79,049,46,27,24,049,38*63
###2023-12-09 13:29:17.024856$GBGSV,2,1,06,14,31,190,42,24,64,043,47,25,49,274,48,26,17,069,42*6B
###2023-12-09 13:29:17.026966$GBGSV,2,2,06,33,48,219,47,35,16,058,42,,,,,,,,*62
###2023-12-09 13:29:17.028556$GNVTG,314.92,T,,M,0.35,N,0.65,K,A*2B
###2023-12-09 13:29:17.030542$GNGST,182916.10,18.000,,,,0.100,0.070,0.170*5A
###2023-12-09 13:29:17.032109$GNZDA,182916.10,09,12,2023,00,00*75
###2023-12-09 13:29:17.032876$GNEBP,,,,,,M*13
###2023-12-09 13:29:17.191838$GNGGA,182916.30,4138.0471101,N,07032.4164531,W,1,24,0.6,12.962,M,-29.745,M,0.0,*5C
###2023-12-09 13:29:17.391151$GNGGA,182916.50,4138.0471200,N,07032.4164594,W,1,24,0.6,12.948,M,-29.745,M,0.0,*5F
###2023-12-09 13:29:17.591386$GNGGA,182916.70,4138.0471154,N,07032.4164533,W,1,24,0.6,12.926,M,-29.745,M,0.0,*5A
###2023-12-09 13:29:17.792835$GNGGA,182916.90,4138.0471196,N,07032.4164619,W,1,24,0.6,12.924,M,-29.745,M,0.0,*53
###2023-12-09 13:29:17.998124$GNRMC,182917.10,A,4138.0471430,N,07032.4164894,W,0.64,314.92,091223,,,A*5C
###2023-12-09 13:29:18.001020$GNGGA,182917.10,4138.0471430,N,07032.4164894,W,1,24,0.6,12.932,M,-29.745,M,0.0,*5F
###2023-12-09 13:29:18.002828$GPGSA,A,3,03,04,16,26,28,29,31,,,,,,1.1,0.6,0.9*3A
###2023-12-09 13:29:18.004543$GLGSA,A,3,65,71,72,73,74,75,,,,,,,1.1,0.6,0.9*24
###2023-12-09 13:29:18.006125$GAGSA,A,3,04,19,21,27,,,,,,,,,1.1,0.6,0.9*26
###2023-12-09 13:29:18.007846$GBGSA,A,3,14,24,25,26,33,35,,,,,,,1.1,0.6,0.9*29
###2023-12-09 13:29:18.010173$GPGSV,2,1,07,03,28,248,43,04,44,309,45,16,64,220,48,26,87,041,49*78
###2023-12-09 13:29:18.012220$GPGSV,2,2,07,28,40,082,43,29,22,049,39,31,61,061,47,,,,*40
###2023-12-09 13:29:18.014551$GLGSV,2,1,06,65,36,321,44,71,25,175,41,72,65,225,47,73,24,050,39*6C
###2023-12-09 13:29:18.016309$GLGSV,2,2,06,74,61,010,42,75,42,268,49,,,,,,,,*65
###2023-12-09 13:29:18.018639$GAGSV,1,1,04,04,38,311,45,19,74,183,42,21,79,049,46,27,24,049,39*60
###2023-12-09 13:29:18.020969$GBGSV,2,1,06,14,31,190,42,24,64,043,47,25,49,274,47,26,17,069,42*64
###2023-12-09 13:29:18.022719$GBGSV,2,2,06,33,48,219,47,35,16,058,42,,,,,,,,*62
###2023-12-09 13:29:18.024044$GNVTG,314.92,T,,M,0.64,N,1.19,K,A*25
###2023-12-09 13:29:18.025691$GNGST,182917.10,18.000,,,,0.100,0.070,0.170*5B
###2023-12-09 13:29:18.026990$GNZDA,182917.10,09,12,2023,00,00*74
###2023-12-09 13:29:18.027628$GNEBP,,,,,,M*13
###2023-12-09 13:29:18.191291$GNGGA,182917.30,4138.0471571,N,07032.4165058,W,1,24,0.6,12.924,M,-29.745,M,0.0,*57
###2023-12-09 13:29:18.390096$GNGGA,182917.50,4138.0471476,N,07032.4164903,W,1,24,0.6,12.907,M,-29.745,M,0.0,*50
###2023-12-09 13:29:18.591272$GNGGA,182917.70,4138.0471377,N,07032.4164805,W,1,24,0.6,12.893,M,-29.745,M,0.0,*5F
###2023-12-09 13:29:18.790251$GNGGA,182917.90,4138.0471607,N,07032.4165138,W,1,24,0.6,12.901,M,-29.745,M,0.0,*5F
###2023-12-09 13:29:18.995554$GNRMC,182918.10,A,4138.0471913,N,07032.4165528,W,0.45,316.02,091223,,,A*5C
###2023-12-09 13:29:18.998409$GNGGA,182918.10,4138.0471913,N,07032.4165528,W,1,24,0.6,12.899,M,-29.745,M,0.0,*57
###2023-12-09 13:29:19.000216$GPGSA,A,3,03,04,16,26,28,29,31,,,,,,1.1,0.6,0.9*3A
###2023-12-09 13:29:19.001928$GLGSA,A,3,65,71,72,73,74,75,,,,,,,1.1,0.6,0.9*24
###2023-12-09 13:29:19.003523$GAGSA,A,3,04,19,21,27,,,,,,,,,1.1,0.6,0.9*26
###2023-12-09 13:29:19.005240$GBGSA,A,3,14,24,25,26,33,35,,,,,,,1.1,0.6,0.9*29
###2023-12-09 13:29:19.007584$GPGSV,2,1,07,03,28,248,44,04,44,309,46,16,64,220,47,26,87,041,49*73
###2023-12-09 13:29:19.009624$GPGSV,2,2,07,28,40,082,44,29,22,049,39,31,61,061,46,,,,*46
###2023-12-09 13:29:19.011961$GLGSV,2,1,06,65,36,321,44,71,25,175,42,72,65,225,47,73,24,050,41*60
###2023-12-09 13:29:19.013718$GLGSV,2,2,06,74,61,010,42,75,42,268,48,,,,,,,,*64
###2023-12-09 13:29:19.016054$GAGSV,1,1,04,04,38,311,44,19,74,183,42,21,79,049,47,27,24,049,37*6E
###2023-12-09 13:29:19.018379$GBGSV,2,1,06,14,31,190,38,24,64,043,46,25,49,274,48,26,17,069,42*67
###2023-12-09 13:29:19.020136$GBGSV,2,2,06,33,48,219,46,35,16,058,42,,,,,,,,*63
###2023-12-09 13:29:19.021458$GNVTG,316.02,T,,M,0.45,N,0.83,K,A*2F
###2023-12-09 13:29:19.023114$GNGST,182918.10,18.000,,,,0.100,0.070,0.170*54
###2023-12-09 13:29:19.024412$GNZDA,182918.10,09,12,2023,00,00*7B
###2023-12-09 13:29:19.025050$GNEBP,,,,,,M*13
###2023-12-09 13:29:19.191554$GNGGA,182918.30,4138.0471840,N,07032.4165437,W,1,24,0.6,12.888,M,-29.745,M,0.0,*5D
###2023-12-09 13:29:19.391509$GNGGA,182918.50,4138.0471642,N,07032.4165188,W,1,24,0.6,12.875,M,-29.745,M,0.0,*54
###2023-12-09 13:29:19.590583$GNGGA,182918.70,4138.0471766,N,07032.4165367,W,1,24,0.6,12.874,M,-29.745,M,0.0,*53
###2023-12-09 13:29:19.791099$GNGGA,182918.90,4138.0472125,N,07032.4165897,W,1,24,0.6,12.875,M,-29.745,M,0.0,*5A
###2023-12-09 13:29:19.995184$GNRMC,182919.10,A,4138.0472196,N,07032.4166025,W,0.27,312.04,091223,,,A*56
###2023-12-09 13:29:19.998028$GNGGA,182919.10,4138.0472196,N,07032.4166025,W,1,24,0.6,12.862,M,-29.745,M,0.0,*5F
###2023-12-09 13:29:19.999822$GPGSA,A,3,03,04,16,26,28,29,31,,,,,,1.1,0.6,0.9*3A
###2023-12-09 13:29:20.001529$GLGSA,A,3,65,71,72,73,74,75,,,,,,,1.1,0.6,0.9*24
###2023-12-09 13:29:20.003117$GAGSA,A,3,04,19,21,27,,,,,,,,,1.1,0.6,0.9*26
###2023-12-09 13:29:20.004824$GBGSA,A,3,14,24,25,26,33,35,,,,,,,1.1,0.6,0.9*29
###2023-12-09 13:29:20.007152$GPGSV,2,1,07,03,28,248,45,04,44,309,46,16,64,220,47,26,87,041,49*72
###2023-12-09 13:29:20.009180$GPGSV,2,2,07,28,40,082,42,29,22,049,38,31,61,061,45,,,,*42
###2023-12-09 13:29:20.011506$GLGSV,2,1,06,65,36,321,45,71,25,175,41,72,65,225,46,73,24,050,40*62
###2023-12-09 13:29:20.013243$GLGSV,2,2,06,74,61,010,42,75,42,268,48,,,,,,,,*64
###2023-12-09 13:29:20.015565$GAGSV,1,1,04,04,38,311,43,19,74,183,41,21,79,049,46,27,24,049,38*64
###2023-12-09 13:29:20.017872$GBGSV,2,1,06,14,31,190,40,24,64,043,47,25,49,274,48,26,17,069,42*69
###2023-12-09 13:29:20.019982$GBGSV,2,2,06,33,48,219,47,35,16,058,42,,,,,,,,*62
###2023-12-09 13:29:20.021331$GNVTG,312.04,T,,M,0.27,N,0.50,K,A*27
###2023-12-09 13:29:20.023002$GNGST,182919.10,18.000,,,,0.100,0.070,0.170*55
###2023-12-09 13:29:20.024300$GNZDA,182919.10,09,12,2023,00,00*7A
###2023-12-09 13:29:20.024937$GNEBP,,,,,,M*13
###2023-12-09 13:29:20.191133$GNGGA,182919.30,4138.0472005,N,07032.4165714,W,1,24,0.6,12.856,M,-29.745,M,0.0,*57
###2023-12-09 13:29:20.391601$GNGGA,182919.50,4138.0471953,N,07032.4165684,W,1,24,0.6,12.854,M,-29.745,M,0.0,*52
###2023-12-09 13:29:20.591984$GNGGA,182919.70,4138.0472226,N,07032.4166175,W,1,24,0.6,12.868,M,-29.745,M,0.0,*5F
###2023-12-09 13:29:20.791572$GNGGA,182919.90,4138.0472481,N,07032.4166618,W,1,24,0.6,12.848,M,-29.745,M,0.0,*54
