###2023-12-09 13:13:04.174508$GNGGA,181303.30,4138.0448220,N,07032.2645170,W,1,24,0.7,12.772,M,-29.743,M,0.0,*50
###2023-12-09 13:13:04.375631$GNGGA,181303.50,4138.0447861,N,07032.2642629,W,1,24,0.7,12.778,M,-29.743,M,0.0,*50
###2023-12-09 13:13:04.574257$GNGGA,181303.70,4138.0447819,N,07032.2639981,W,1,24,0.7,12.813,M,-29.743,M,0.0,*5E
###2023-12-09 13:13:04.775832$GNGGA,181303.90,4138.0447738,N,07032.2637304,W,1,24,0.7,12.789,M,-29.743,M,0.0,*59
###2023-12-09 13:13:04.988518$GNRMC,181304.10,A,4138.0447493,N,07032.2634683,W,3.42,93.23,091223,,,A*66
###2023-12-09 13:13:04.991403$GNGGA,181304.10,4138.0447493,N,07032.2634683,W,1,24,0.7,12.763,M,-29.743,M,0.0,*59
###2023-12-09 13:13:04.993206$GPGSA,A,3,03,04,16,26,28,29,31,,,,,,1.2,0.7,1.0*30
###2023-12-09 13:13:04.994943$GLGSA,A,3,65,71,72,73,74,75,,,,,,,1.2,0.7,1.0*2E
###2023-12-09 13:13:04.996525$GAGSA,A,3,04,19,21,27,,,,,,,,,1.2,0.7,1.0*2C
###2023-12-09 13:13:04.998234$GBGSA,A,3,14,24,25,26,33,35,,,,,,,1.2,0.7,1.0*23
###2023-12-09 13:13:05.000581$GPGSV,2,1,07,03,32,255,43,04,38,311,43,16,55,215,47,26,85,210,48*75
###2023-12-09 13:13:05.002631$GPGSV,2,2,07,28,46,075,43,29,24,056,41,31,66,048,46,,,,*44
###2023-12-09 13:13:05.004964$GLGSV,2,1,06,65,29,325,41,71,34,174,45,72,71,246,46,73,31,045,44*6D
###2023-12-09 13:13:05.006728$GLGSV,2,2,06,74,66,353,43,75,36,259,48,,,,,,,,*67
###2023-12-09 13:13:05.009057$GAGSV,1,1,04,04,33,312,42,19,81,194,41,21,84,070,46,27,29,048,41*6B
###2023-12-09 13:13:05.011396$GBGSV,2,1,06,14,38,192,44,24,70,034,47,25,44,267,47,26,22,065,43*68
###2023-12-09 13:13:05.013142$GBGSV,2,2,06,33,53,226,48,35,15,065,42,,,,,,,,*66
###2023-12-09 13:13:05.014436$GNVTG,93.23,T,,M,3.42,N,6.34,K,A*1C
###2023-12-09 13:13:05.016100$GNGST,181304.10,18.000,,,,0.096,0.071,0.170*5F
###2023-12-09 13:13:05.017395$GNZDA,181304.10,09,12,2023,00,00*7F
###2023-12-09 13:13:05.018033$GNEBP,,,,,,M*13
###2023-12-09 13:13:05.175517$GNGGA,181304.30,4138.0447567,N,07032.2632091,W,1,24,0.7,12.799,M,-29.743,M,0.0,*57
###2023-12-09 13:13:05.376221$GNGGA,181304.50,4138.0447490,N,07032.2629332,W,1,24,0.7,12.801,M,-29.743,M,0.0,*56
###2023-12-09 13:13:05.577811$GNGGA,181304.70,4138.0447413,N,07032.2626739,W,1,24,0.7,12.767,M,-29.743,M,0.0,*50
###2023-12-09 13:13:05.776520$GNGGA,181304.90,4138.0447611,N,07032.2624129,W,1,24,0.7,12.789,M,-29.743,M,0.0,*5B
###2023-12-09 13:13:05.978743$GNRMC,181305.10,A,4138.0447675,N,07032.2621374,W,3.63,90.40,091223,,,A*61
###2023-12-09 13:13:05.981613$GNGGA,181305.10,4138.0447675,N,07032.2621374,W,1,24,0.7,12.783,M,-29.743,M,0.0,*55
###2023-12-09 13:13:05.983417$GPGSA,A,3,03,04,16,26,28,29,31,,,,,,1.2,0.7,1.0*30
###2023-12-09 13:13:05.985135$GLGSA,A,3,65,71,72,73,74,75,,,,,,,1.2,0.7,1.0*2E
###2023-12-09 13:13:05.986725$GAGSA,A,3,04,19,21,27,,,,,,,,,1.2,0.7,1.0*2C
###2023-12-09 13:13:05.988437$GBGSA,A,3,14,24,25,26,33,35,,,,,,,1.2,0.7,1.0*23
###2023-12-09 13:13:05.990770$GPGSV,2,1,07,03,32,255,44,04,38,311,45,16,55,215,47,26,85,210,48*74
###2023-12-09 13:13:05.992805$GPGSV,2,2,07,28,46,075,42,29,24,056,41,31,66,048,47,,,,*44
###2023-12-09 13:13:05.995140$GLGSV,2,1,06,65,29,325,41,71,34,174,44,72,71,246,47,73,31,045,44*6D
###2023-12-09 13:13:05.996877$GLGSV,2,2,06,74,66,353,43,75,36,259,48,,,,,,,,*67
###2023-12-09 13:13:05.999205$GAGSV,1,1,04,04,33,312,43,19,81,194,41,21,84,070,45,27,29,048,41*69
###2023-12-09 13:13:06.001528$GBGSV,2,1,06,14,38,192,44,24,70,034,48,25,44,267,46,26,22,065,43*66
###2023-12-09 13:13:06.003279$GBGSV,2,2,06,33,53,226,48,35,15,065,43,,,,,,,,*67
###2023-12-09 13:13:06.004569$GNVTG,90.40,T,,M,3.63,N,6.73,K,A*1A
###2023-12-09 13:13:06.006214$GNGST,181305.10,18.000,,,,0.096,0.071,0.170*5E
###2023-12-09 13:13:06.007515$GNZDA,181305.10,09,12,2023,00,00*7E
###2023-12-09 13:13:06.008152$GNEBP,,,,,,M*13
###2023-12-09 13:13:06.175104$GNGGA,181305.30,4138.0447672,N,07032.2618771,W,1,24,0.7,12.775,M,-29.743,M,0.0,*52
###2023-12-09 13:13:06.374506$GNGGA,181305.50,4138.0447809,N,07032.2616096,W,1,24,0.7,12.809,M,-29.743,M,0.0,*52
###2023-12-09 13:13:06.576484$GNGGA,181305.70,4138.0447750,N,07032.2613350,W,1,24,0.7,12.770,M,-29.743,M,0.0,*5E
###2023-12-09 13:13:06.776516$GNGGA,181305.90,4138.0447789,N,07032.2610750,W,1,24,0.7,12.752,M,-29.743,M,0.0,*53
###2023-12-09 13:13:06.982318$GNRMC,181306.10,A,4138.0448163,N,07032.2608137,W,3.75,81.94,091223,,,A*6D
###2023-12-09 13:13:06.985199$GNGGA,181306.10,4138.0448163,N,07032.2608137,W,1,24,0.7,12.783,M,-29.743,M,0.0,*57
###2023-12-09 13:13:06.986997$GPGSA,A,3,03,04,16,26,28,29,31,,,,,,1.2,0.7,1.0*30
###2023-12-09 13:13:06.988713$GLGSA,A,3,65,71,72,73,74,75,,,,,,,1.2,0.7,1.0*2E
###2023-12-09 13:13:06.990293$GAGSA,A,3,04,19,21,27,,,,,,,,,1.2,0.7,1.0*2C
###2023-12-09 13:13:06.992030$GBGSA,A,3,14,24,25,26,33,35,,,,,,,1.2,0.7,1.0*23
###2023-12-09 13:13:06.994358$GPGSV,2,1,07,03,32,255,43,04,38,311,45,16,55,215,46,26,85,210,48*72
###2023-12-09 13:13:06.996412$GPGSV,2,2,07,28,46,075,42,29,24,056,41,31,66,048,46,,,,*45
###2023-12-09 13:13:06.998757$GLGSV,2,1,06,65,29,325,41,71,34,174,44,72,71,246,46,73,31,045,43*6B
###2023-12-09 13:13:07.000512$GLGSV,2,2,06,74,66,353,42,75,36,259,48,,,,,,,,*66
###2023-12-09 13:13:07.002848$GAGSV,1,1,04,04,33,312,41,19,81,194,41,21,84,070,46,27,29,048,41*68
###2023-12-09 13:13:07.005177$GBGSV,2,1,06,14,38,192,44,24,70,034,47,25,44,267,46,26,22,065,42*68
###2023-12-09 13:13:07.006971$GBGSV,2,2,06,33,53,226,47,35,15,065,43,,,,,,,,*68
###2023-12-09 13:13:07.008264$GNVTG,81.94,T,,M,3.75,N,6.95,K,A*1C
###2023-12-09 13:13:07.009906$GNGST,181306.10,18.000,,,,0.096,0.071,0.170*5D
###2023-12-09 13:13:07.011202$GNZDA,181306.10,09,12,2023,00,00*7D
###2023-12-09 13:13:07.011840$GNEBP,,,,,,M*13
###2023-12-09 13:13:07.174371$GNGGA,181306.30,4138.0448146,N,07032.2605410,W,1,24,0.7,12.784,M,-29.743,M,0.0,*58
###2023-12-09 13:13:07.374701$GNGGA,181306.50,4138.0447791,N,07032.2602799,W,1,24,0.7,12.767,M,-29.743,M,0.0,*55
###2023-12-09 13:13:07.575244$GNGGA,181306.70,4138.0447629,N,07032.2600159,W,1,24,0.7,12.771,M,-29.743,M,0.0,*5A
###2023-12-09 13:13:07.774197$GNGGA,181306.90,4138.0447844,N,07032.2597504,W,1,24,0.7,12.777,M,-29.743,M,0.0,*56
###2023-12-09 13:13:07.976551$GNRMC,181307.10,A,4138.0447728,N,07032.2594825,W,3.63,97.28,091223,,,A*61
###2023-12-09 13:13:07.979423$GNGGA,181307.10,4138.0447728,N,07032.2594825,W,1,24,0.7,12.768,M,-29.743,M,0.0,*59
###2023-12-09 13:13:07.981220$GPGSA,A,3,03,04,16,26,28,29,31,,,,,,1.2,0.7,1.0*30
###2023-12-09 13:13:07.982951$GLGSA,A,3,65,71,72,73,74,75,,,,,,,1.2,0.7,1.0*2E
###2023-12-09 13:13:07.984532$GAGSA,A,3,04,19,21,27,,,,,,,,,1.2,0.7,1.0*2C
###2023-12-09 13:13:07.986237$GBGSA,A,3,14,24,25,26,33,35,,,,,,,1.2,0.7,1.0*23
###2023-12-09 13:13:07.988572$GPGSV,2,1,07,03,32,255,43,04,38,311,45,16,55,215,47,26,85,210,48*73
###2023-12-09 13:13:07.990624$GPGSV,2,2,07,28,46,075,43,29,24,056,41,31,66,048,45,,,,*47
###2023-12-09 13:13:07.992938$GLGSV,2,1,06,65,29,325,42,71,34,174,44,72,71,246,46,73,31,045,45*6E
###2023-12-09 13:13:07.994691$GLGSV,2,2,06,74,66,353,42,75,36,259,47,,,,,,,,*69
###2023-12-09 13:13:07.997014$GAGSV,1,1,04,04,33,312,43,19,81,194,41,21,84,070,46,27,29,048,43*68
###2023-12-09 13:13:07.999344$GBGSV,2,1,06,14,38,192,43,24,70,034,48,25,44,267,46,26,22,065,43*61
###2023-12-09 13:13:08.001091$GBGSV,2,2,06,33,53,226,47,35,15,065,44,,,,,,,,*6F
###2023-12-09 13:13:08.002379$GNVTG,97.28,T,,M,3.63,N,6.73,K,A*13
###2023-12-09 13:13:08.004034$GNGST,181307.10,18.000,,,,0.096,0.071,0.170*5C
###2023-12-09 13:13:08.005321$GNZDA,181307.10,09,12,2023,00,00*7C
###2023-12-09 13:13:08.005960$GNEBP,,,,,,M*13
###2023-12-09 13:13:08.177376$GNGGA,181307.30,4138.0447504,N,07032.2592146,W,1,24,0.7,12.780,M,-29.743,M,0.0,*5B
###2023-12-09 13:13:08.373382$GNGGA,181307.50,4138.0447306,N,07032.2589397,W,1,24,0.7,12.781,M,-29.743,M,0.0,*5C
###2023-12-09 13:13:08.573858$GNGGA,181307.70,4138.0447372,N,07032.2586674,W,1,24,0.7,12.774,M,-29.743,M,0.0,*50
###2023-12-09 13:13:08.774321$GNGGA,181307.90,4138.0447551,N,07032.2583957,W,1,24,0.7,12.771,M,-29.743,M,0.0,*57
###2023-12-09 13:13:08.985691$GNRMC,181308.10,A,4138.0447528,N,07032.2581194,W,3.79,91.87,091223,,,A*63
###2023-12-09 13:13:08.988566$GNGGA,181308.10,4138.0447528,N,07032.2581194,W,1,24,0.7,12.786,M,-29.743,M,0.0,*53
###2023-12-09 13:13:08.990613$GPGSA,A,3,03,04,16,26,28,29,31,,,,,,1.2,0.7,1.0*30
###2023-12-09 13:13:08.992336$GLGSA,A,3,65,71,72,73,74,75,,,,,,,1.2,0.7,1.0*2E
###2023-12-09 13:13:08.993922$GAGSA,A,3,04,19,21,27,,,,,,,,,1.2,0.7,1.0*2C
###2023-12-09 13:13:08.995645$GBGSA,A,3,14,24,25,26,33,35,,,,,,,1.2,0.7,1.0*23
###2023-12-09 13:13:08.997967$GPGSV,2,1,07,03,32,255,44,04,38,311,44,16,55,215,46,26,85,210,48*74
###2023-12-09 13:13:09.000016$GPGSV,2,2,07,28,46,075,42,29,24,056,41,31,66,048,46,,,,*45
###2023-12-09 13:13:09.002340$GLGSV,2,1,06,65,29,325,42,71,34,174,44,72,71,246,46,73,31,045,44*6F
###2023-12-09 13:13:09.004091$GLGSV,2,2,06,74,66,353,42,75,36,259,47,,,,,,,,*69
###2023-12-09 13:13:09.006420$GAGSV,1,1,04,04,33,312,42,19,81,194,41,21,84,070,46,27,29,048,41*6B
###2023-12-09 13:13:09.008793$GBGSV,2,1,06,14,38,192,43,24,70,034,48,25,44,267,46,26,22,065,43*61
