###2023-12-09 13:47:07.026354$GLGSV,2,2,06,75,47,280,46,83,16,041,36,,,,,,,,*66
###2023-12-09 13:47:07.028429$GAGSV,1,1,03,04,43,308,46,21,72,043,41,27,19,051,43,,,,*5B
###2023-12-09 13:47:07.030778$GBGSV,2,1,05,12,19,122,42,24,58,052,46,25,54,282,43,33,40,213,35*64
###2023-12-09 13:47:07.032232$GBGSV,2,2,05,35,16,051,37,,,,,,,,,,,,*5F
###2023-12-09 13:47:07.033555$GNVTG,243.17,T,,M,0.06,N,0.11,K,A*26
###2023-12-09 13:47:07.035182$GNGST,184706.10,8.400,,,,0.200,0.120,0.320*66
###2023-12-09 13:47:07.036470$GNZDA,184706.10,09,12,2023,00,00*7C
###2023-12-09 13:47:07.037106$GNEBP,,,,,,M*13
###2023-12-09 13:47:07.206512$GNGGA,184706.30,4138.0396065,N,07032.4384899,W,1,20,0.7,15.544,M,-29.746,M,0.0,*52
###2023-12-09 13:47:07.406381$GNGGA,184706.50,4138.0396081,N,07032.4384890,W,1,20,0.7,15.548,M,-29.746,M,0.0,*5B
###2023-12-09 13:47:07.603997$GNGGA,184706.70,4138.0396068,N,07032.4384899,W,1,20,0.7,15.545,M,-29.746,M,0.0,*5A
###2023-12-09 13:47:07.804850$GNGGA,184706.90,4138.0396065,N,07032.4384893,W,1,20,0.7,15.550,M,-29.746,M,0.0,*57
###2023-12-09 13:47:08.010023$GNRMC,184707.10,A,4138.0396060,N,07032.4384875,W,0.04,243.17,091223,,,A*51
###2023-12-09 13:47:08.012904$GNGGA,184707.10,4138.0396060,N,07032.4384875,W,1,20,0.7,15.554,M,-29.746,M,0.0,*57
###2023-12-09 13:47:08.014645$GPGSA,A,3,04,16,26,28,29,31,,,,,,,1.3,0.7,1.1*33
###2023-12-09 13:47:08.016352$GLGSA,A,3,65,72,73,74,75,83,,,,,,,1.3,0.7,1.1*23
###2023-12-09 13:47:08.017864$GAGSA,A,3,04,21,27,,,,,,,,,,1.3,0.7,1.1*24
###2023-12-09 13:47:08.019546$GBGSA,A,3,12,24,25,33,35,,,,,,,,1.3,0.7,1.1*21
###2023-12-09 13:47:08.021910$GPGSV,2,1,06,04,51,304,48,16,72,228,41,26,78,041,41,28,34,089,45*7E
###2023-12-09 13:47:08.023710$GPGSV,2,2,06,29,18,043,42,31,56,073,50,,,,,,,,*7C
###2023-12-09 13:47:08.026046$GLGSV,2,1,06,65,43,312,43,72,56,213,39,73,17,056,39,74,55,024,36*64
###2023-12-09 13:47:08.027812$GLGSV,2,2,06,75,47,280,46,83,16,041,36,,,,,,,,*66
###2023-12-09 13:47:08.029839$GAGSV,1,1,03,04,43,308,46,21,72,043,41,27,19,051,43,,,,*5B
###2023-12-09 13:47:08.032166$GBGSV,2,1,05,12,19,122,42,24,58,052,47,25,54,282,43,33,40,213,35*65
###2023-12-09 13:47:08.033618$GBGSV,2,2,05,35,16,051,37,,,,,,,,,,,,*5F
###2023-12-09 13:47:08.034956$GNVTG,243.17,T,,M,0.04,N,0.07,K,A*23
###2023-12-09 13:47:08.036562$GNGST,184707.10,8.600,,,,0.200,0.120,0.320*65
###2023-12-09 13:47:08.037850$GNZDA,184707.10,09,12,2023,00,00*7D
###2023-12-09 13:47:08.038488$GNEBP,,,,,,M*13
###2023-12-09 13:47:08.205128$GNGGA,184707.30,4138.0396053,N,07032.4384883,W,1,20,0.7,15.553,M,-29.746,M,0.0,*5B
###2023-12-09 13:47:08.406291$GNGGA,184707.50,4138.0396041,N,07032.4384891,W,1,19,0.8,15.553,M,-29.746,M,0.0,*58
###2023-12-09 13:47:08.605341$GNGGA,184707.70,4138.0396018,N,07032.4384892,W,1,19,0.8,15.549,M,-29.746,M,0.0,*5E
###2023-12-09 13:47:08.804863$GNGGA,184707.90,4138.0396010,N,07032.4384887,W,1,19,0.8,15.555,M,-29.746,M,0.0,*51
###2023-12-09 13:47:09.010842$GNRMC,184708.10,A,4138.0395991,N,07032.4384893,W,0.06,243.17,091223,,,A*50
###2023-12-09 13:47:09.013685$GNGGA,184708.10,4138.0395991,N,07032.4384893,W,1,19,0.8,15.558,M,-29.746,M,0.0,*5D
###2023-12-09 13:47:09.015414$GPGSA,A,3,04,16,26,28,29,31,,,,,,,1.3,0.8,1.1*3C
###2023-12-09 13:47:09.017114$GLGSA,A,3,65,72,73,74,75,83,,,,,,,1.3,0.8,1.1*2C
###2023-12-09 13:47:09.018635$GAGSA,A,3,04,21,27,,,,,,,,,,1.3,0.8,1.1*2B
###2023-12-09 13:47:09.020217$GBGSA,A,3,12,24,25,35,,,,,,,,,1.3,0.8,1.1*2E
###2023-12-09 13:47:09.022533$GPGSV,2,1,06,04,51,304,48,16,72,228,40,26,78,041,41,28,34,089,45*7F
###2023-12-09 13:47:09.024286$GPGSV,2,2,06,29,18,043,42,31,56,073,50,,,,,,,,*7C
###2023-12-09 13:47:09.026641$GLGSV,2,1,06,65,43,312,44,72,56,213,38,73,17,056,39,74,55,024,36*62
###2023-12-09 13:47:09.028378$GLGSV,2,2,06,75,47,280,46,83,16,041,36,,,,,,,,*66
###2023-12-09 13:47:09.030395$GAGSV,1,1,03,04,43,308,46,21,72,043,40,27,19,051,43,,,,*5A
###2023-12-09 13:47:09.032717$GBGSV,1,1,04,12,19,122,41,24,58,052,46,25,54,282,43,35,16,051,37*66
###2023-12-09 13:47:09.034030$GNVTG,243.17,T,,M,0.06,N,0.11,K,A*26
###2023-12-09 13:47:09.035646$GNGST,184708.10,8.200,,,,0.200,0.120,0.320*6E
###2023-12-09 13:47:09.036934$GNZDA,184708.10,09,12,2023,00,00*72
###2023-12-09 13:47:09.037569$GNEBP,,,,,,M*13
###2023-12-09 13:47:09.213404$GNGGA,184708.30,4138.0395975,N,07032.4384890,W,1,20,0.7,15.565,M,-29.746,M,0.0,*5D
###2023-12-09 13:47:09.406119$GNGGA,184708.50,4138.0395971,N,07032.4384892,W,1,20,0.7,15.566,M,-29.746,M,0.0,*5E
###2023-12-09 13:47:09.607106$GNGGA,184708.70,4138.0395952,N,07032.4384896,W,1,20,0.7,15.568,M,-29.746,M,0.0,*57
###2023-12-09 13:47:09.806708$GNGGA,184708.90,4138.0395947,N,07032.4384895,W,1,20,0.7,15.575,M,-29.746,M,0.0,*52
###2023-12-09 13:47:10.008050$GNRMC,184709.10,A,4138.0395940,N,07032.4384898,W,0.06,243.17,091223,,,A*56
###2023-12-09 13:47:10.010903$GNGGA,184709.10,4138.0395940,N,07032.4384898,W,1,20,0.7,15.582,M,-29.746,M,0.0,*59
###2023-12-09 13:47:10.012621$GPGSA,A,3,04,16,26,28,29,31,,,,,,,1.3,0.7,1.1*33
###2023-12-09 13:47:10.014327$GLGSA,A,3,65,72,73,74,75,83,,,,,,,1.3,0.7,1.1*23
###2023-12-09 13:47:10.015850$GAGSA,A,3,04,21,27,,,,,,,,,,1.3,0.7,1.1*24
###2023-12-09 13:47:10.017485$GBGSA,A,3,12,24,25,33,35,,,,,,,,1.3,0.7,1.1*21
###2023-12-09 13:47:10.019816$GPGSV,2,1,06,04,51,304,48,16,72,228,40,26,78,041,41,28,34,089,45*7F
###2023-12-09 13:47:10.021560$GPGSV,2,2,06,29,18,043,42,31,56,073,50,,,,,,,,*7C
###2023-12-09 13:47:10.023902$GLGSV,2,1,06,65,43,312,44,72,56,213,38,73,17,056,39,74,55,024,36*62
###2023-12-09 13:47:10.025644$GLGSV,2,2,06,75,47,280,47,83,16,041,36,,,,,,,,*67
###2023-12-09 13:47:10.027685$GAGSV,1,1,03,04,43,308,46,21,72,043,40,27,19,051,42,,,,*5B
###2023-12-09 13:47:10.029999$GBGSV,2,1,05,12,19,122,41,24,58,052,46,25,54,282,43,33,40,213,35*67
###2023-12-09 13:47:10.031459$GBGSV,2,2,05,35,16,051,36,,,,,,,,,,,,*5E
###2023-12-09 13:47:10.032774$GNVTG,243.17,T,,M,0.06,N,0.11,K,A*26
###2023-12-09 13:47:10.034376$GNGST,184709.10,8.300,,,,0.200,0.120,0.320*6E
###2023-12-09 13:47:10.035676$GNZDA,184709.10,09,12,2023,00,00*73
###2023-12-09 13:47:10.036312$GNEBP,,,,,,M*13
###2023-12-09 13:47:10.203995$GNGGA,184709.30,4138.0395932,N,07032.4384899,W,1,20,0.7,15.582,M,-29.746,M,0.0,*5F
###2023-12-09 13:47:10.404056$GNGGA,184709.50,4138.0395929,N,07032.4384899,W,1,20,0.7,15.584,M,-29.746,M,0.0,*55
###2023-12-09 13:47:10.603812$GNGGA,184709.70,4138.0395917,N,07032.4384902,W,1,20,0.7,15.593,M,-29.746,M,0.0,*5F
###2023-12-09 13:47:10.803493$GNGGA,184709.90,4138.0395916,N,07032.4384892,W,1,20,0.7,15.601,M,-29.746,M,0.0,*50
###2023-12-09 13:47:11.005631$GNRMC,184710.10,A,4138.0395922,N,07032.4384896,W,0.06,243.17,091223,,,A*54
###2023-12-09 13:47:11.008709$GNGGA,184710.10,4138.0395922,N,07032.4384896,W,1,20,0.7,15.601,M,-29.746,M,0.0,*53
###2023-12-09 13:47:11.010534$GPGSA,A,3,04,16,26,28,29,31,,,,,,,1.3,0.7,1.1*33
###2023-12-09 13:47:11.012269$GLGSA,A,3,65,72,73,74,75,83,,,,,,,1.3,0.7,1.1*23
###2023-12-09 13:47:11.013788$GAGSA,A,3,04,21,27,,,,,,,,,,1.3,0.7,1.1*24
###2023-12-09 13:47:11.015451$GBGSA,A,3,12,24,25,33,35,,,,,,,,1.3,0.7,1.1*21
###2023-12-09 13:47:11.017772$GPGSV,2,1,06,04,51,304,48,16,72,228,40,26,78,041,42,28,34,089,45*7C
###2023-12-09 13:47:11.019527$GPGSV,2,2,06,29,18,043,42,31,56,073,50,,,,,,,,*7C
###2023-12-09 13:47:11.021844$GLGSV,2,1,06,65,43,312,44,72,56,213,38,73,17,056,39,74,55,024,37*63
###2023-12-09 13:47:11.023603$GLGSV,2,2,06,75,47,280,47,83,16,041,36,,,,,,,,*67
###2023-12-09 13:47:11.025625$GAGSV,1,1,03,04,43,308,46,21,72,043,40,27,19,051,42,,,,*5B
###2023-12-09 13:47:11.027974$GBGSV,2,1,05,12,19,122,42,24,58,052,46,25,54,282,43,33,40,213,36*67
###2023-12-09 13:47:11.029427$GBGSV,2,2,05,35,16,051,37,,,,,,,,,,,,*5F
###2023-12-09 13:47:11.030756$GNVTG,243.17,T,,M,0.06,N,0.11,K,A*26
###2023-12-09 13:47:11.032362$GNGST,184710.10,7.800,,,,0.200,0.120,0.320*62
###2023-12-09 13:47:11.033644$GNZDA,184710.10,09,12,2023,00,00*7B
###2023-12-09 13:47:11.034278$GNEBP,,,,,,M*13
###2023-12-09 13:47:11.203998$GNGGA,184710.30,4138.0395918,N,07032.4384877,W,1,20,0.7,15.607,M,-29.746,M,0.0,*51
###2023-12-09 13:47:11.403851$GNGGA,184710.50,4138.0395904,N,07032.4384876,W,1,20,0.7,15.614,M,-29.746,M,0.0,*59
###2023-12-09 13:47:11.602147$GNGGA,184710.70,4138.0395899,N,07032.4384874,W,1,20,0.7,15.616,M,-29.746,M,0.0,*5E
###2023-12-09 13:47:11.805553$GNGGA,184710.90,4138.0395869,N,07032.4384863,W,1,20,0.7,15.619,M,-29.746,M,0.0,*56
###2023-12-09 13:47:12.008893$GNRMC,184711.10,A,4138.0395857,N,07032.4384858,W,0.02,243.17,091223,,,A*50
###2023-12-09 13:47:12.011779$GNGGA,184711.10,4138.0395857,N,07032.4384858,W,1,20,0.7,15.620,M,-29.746,M,0.0,*50
###2023-12-09 13:47:12.013506$GPGSA,A,3,04,16,26,28,29,31,,,,,,,1.3,0.7,1.1*33
###2023-12-09 13:47:12.015226$GLGSA,A,3,65,72,73,74,75,83,,,,,,,1.3,0.7,1.1*23
###2023-12-09 13:47:12.016741$GAGSA,A,3,04,21,27,,,,,,,,,,1.3,0.7,1.1*24
