###2023-12-09 12:59:44.160962$GNGGA,175943.30,4138.0211608,N,07032.2817246,W,1,24,0.6,12.843,M,-29.744,M,0.0,*55
###2023-12-09 12:59:44.361636$GNGGA,175943.50,4138.0211298,N,07032.2819702,W,1,24,0.6,12.825,M,-29.744,M,0.0,*55
###2023-12-09 12:59:44.561657$GNGGA,175943.70,4138.0210978,N,07032.2822168,W,1,24,0.6,12.832,M,-29.744,M,0.0,*57
###2023-12-09 12:59:44.761887$GNGGA,175943.90,4138.0210606,N,07032.2824595,W,1,24,0.6,12.841,M,-29.744,M,0.0,*5B
###2023-12-09 12:59:44.971727$GNRMC,175944.10,A,4138.0210263,N,07032.2826990,W,3.38,259.48,091223,,,A*5A
###2023-12-09 12:59:44.974620$GNGGA,175944.10,4138.0210263,N,07032.2826990,W,1,24,0.6,12.866,M,-29.744,M,0.0,*5D
###2023-12-09 12:59:44.976490$GPGSA,A,3,03,04,16,26,28,29,31,32,,,,,1.1,0.6,0.9*3B
###2023-12-09 12:59:44.978206$GLGSA,A,3,65,71,72,73,74,75,,,,,,,1.1,0.6,0.9*24
###2023-12-09 12:59:44.979802$GAGSA,A,3,04,19,21,27,,,,,,,,,1.1,0.6,0.9*26
###2023-12-09 12:59:44.981453$GBGSA,A,3,14,24,25,26,33,,,,,,,,1.1,0.6,0.9*2F
###2023-12-09 12:59:44.983792$GPGSV,2,1,08,03,35,262,43,04,32,311,41,16,49,212,45,26,79,210,47*75
###2023-12-09 12:59:44.986132$GPGSV,2,2,08,28,50,070,45,29,25,062,42,31,69,036,47,32,19,140,43*76
###2023-12-09 12:59:44.988481$GLGSV,2,1,06,65,23,328,43,71,42,172,46,72,73,273,45,73,37,041,46*6B
###2023-12-09 12:59:44.990233$GLGSV,2,2,06,74,70,334,42,75,31,252,44,,,,,,,,*60
###2023-12-09 12:59:44.992583$GAGSV,1,1,04,04,28,312,41,19,85,226,40,21,85,133,46,27,34,048,43*64
###2023-12-09 12:59:44.994925$GBGSV,2,1,05,14,44,193,44,24,74,022,48,25,40,261,45,26,27,062,42*6E
###2023-12-09 12:59:44.996385$GBGSV,2,2,05,33,58,234,47,,,,,,,,,,,,*55
###2023-12-09 12:59:44.997746$GNVTG,259.48,T,,M,3.38,N,6.26,K,A*2B
###2023-12-09 12:59:44.999406$GNGST,175944.10,18.000,,,,0.082,0.071,0.160*5E
###2023-12-09 12:59:45.000706$GNZDA,175944.10,09,12,2023,00,00*7A
###2023-12-09 12:59:45.001343$GNEBP,,,,,,M*13
###2023-12-09 12:59:45.163819$GNGGA,175944.30,4138.0209790,N,07032.2829395,W,1,24,0.6,12.863,M,-29.744,M,0.0,*5B
###2023-12-09 12:59:45.361579$GNGGA,175944.50,4138.0209218,N,07032.2831781,W,1,24,0.6,12.825,M,-29.744,M,0.0,*52
###2023-12-09 12:59:45.561696$GNGGA,175944.70,4138.0208928,N,07032.2834240,W,1,24,0.6,12.833,M,-29.744,M,0.0,*53
###2023-12-09 12:59:45.762901$GNGGA,175944.90,4138.0208755,N,07032.2836776,W,1,24,0.6,12.865,M,-29.744,M,0.0,*58
###2023-12-09 12:59:45.964896$GNRMC,175945.10,A,4138.0208375,N,07032.2839180,W,3.27,257.28,091223,,,A*55
###2023-12-09 12:59:45.967767$GNGGA,175945.10,4138.0208375,N,07032.2839180,W,1,24,0.6,12.856,M,-29.744,M,0.0,*57
###2023-12-09 12:59:45.969624$GPGSA,A,3,03,04,16,26,28,29,31,32,,,,,1.1,0.6,0.9*3B
###2023-12-09 12:59:45.971353$GLGSA,A,3,65,71,72,73,74,75,,,,,,,1.1,0.6,0.9*24
###2023-12-09 12:59:45.972935$GAGSA,A,3,04,19,21,27,,,,,,,,,1.1,0.6,0.9*26
###2023-12-09 12:59:45.974586$GBGSA,A,3,14,24,25,26,33,,,,,,,,1.1,0.6,0.9*2F
###2023-12-09 12:59:45.976914$GPGSV,2,1,08,03,35,262,43,04,32,311,42,16,49,212,45,26,79,210,47*76
###2023-12-09 12:59:45.979255$GPGSV,2,2,08,28,50,070,44,29,25,062,42,31,69,036,47,32,19,140,42*76
###2023-12-09 12:59:45.981585$GLGSV,2,1,06,65,23,328,41,71,42,172,46,72,73,273,45,73,37,041,45*6A
###2023-12-09 12:59:45.983344$GLGSV,2,2,06,74,70,334,42,75,31,252,42,,,,,,,,*66
###2023-12-09 12:59:45.985668$GAGSV,1,1,04,04,28,312,41,19,85,226,40,21,85,133,46,27,34,048,43*64
###2023-12-09 12:59:45.988000$GBGSV,2,1,05,14,44,193,44,24,74,022,48,25,40,261,44,26,27,062,42*6F
###2023-12-09 12:59:45.989492$GBGSV,2,2,05,33,58,234,47,,,,,,,,,,,,*55
###2023-12-09 12:59:45.990824$GNVTG,257.28,T,,M,3.27,N,6.05,K,A*2C
###2023-12-09 12:59:45.992471$GNGST,175945.10,18.000,,,,0.081,0.070,0.160*5D
###2023-12-09 12:59:45.993761$GNZDA,175945.10,09,12,2023,00,00*7B
###2023-12-09 12:59:45.994399$GNEBP,,,,,,M*13
###2023-12-09 12:59:46.160741$GNGGA,175945.30,4138.0207956,N,07032.2841517,W,1,24,0.6,12.824,M,-29.744,M,0.0,*51
###2023-12-09 12:59:46.362802$GNGGA,175945.50,4138.0207779,N,07032.2843893,W,1,24,0.6,12.825,M,-29.744,M,0.0,*56
###2023-12-09 12:59:46.562643$GNGGA,175945.70,4138.0207918,N,07032.2846300,W,1,24,0.6,12.855,M,-29.744,M,0.0,*5E
###2023-12-09 12:59:46.768652$GNGGA,175945.90,4138.0208079,N,07032.2848601,W,1,24,0.6,12.862,M,-29.744,M,0.0,*5F
###2023-12-09 12:59:46.968080$GNRMC,175946.10,A,4138.0208084,N,07032.2850911,W,3.23,269.51,091223,,,A*53
###2023-12-09 12:59:46.970967$GNGGA,175946.10,4138.0208084,N,07032.2850911,W,1,24,0.6,12.850,M,-29.744,M,0.0,*50
###2023-12-09 12:59:46.972832$GPGSA,A,3,03,04,16,26,28,29,31,32,,,,,1.1,0.6,0.9*3B
###2023-12-09 12:59:46.974548$GLGSA,A,3,65,71,72,73,74,75,,,,,,,1.1,0.6,0.9*24
###2023-12-09 12:59:46.976156$GAGSA,A,3,04,19,21,27,,,,,,,,,1.1,0.6,0.9*26
###2023-12-09 12:59:46.977812$GBGSA,A,3,14,24,25,26,33,,,,,,,,1.1,0.6,0.9*2F
###2023-12-09 12:59:46.980159$GPGSV,2,1,08,03,35,262,42,04,32,311,41,16,49,212,46,26,79,210,48*78
###2023-12-09 12:59:46.982499$GPGSV,2,2,08,28,50,070,44,29,25,062,41,31,69,036,47,32,19,140,43*74
###2023-12-09 12:59:46.984849$GLGSV,2,1,06,65,23,328,40,71,42,172,47,72,73,273,45,73,37,041,45*6A
###2023-12-09 12:59:46.986616$GLGSV,2,2,06,74,70,334,42,75,31,252,41,,,,,,,,*65
###2023-12-09 12:59:46.988960$GAGSV,1,1,04,04,28,312,39,19,85,226,40,21,85,133,46,27,34,048,41*69
###2023-12-09 12:59:46.991312$GBGSV,2,1,05,14,44,193,46,24,74,022,49,25,40,261,44,26,27,062,43*6D
###2023-12-09 12:59:46.992775$GBGSV,2,2,05,33,58,234,48,,,,,,,,,,,,*5A
###2023-12-09 12:59:46.994105$GNVTG,269.51,T,,M,3.23,N,5.98,K,A*2C
###2023-12-09 12:59:46.995775$GNGST,175946.10,18.000,,,,0.081,0.070,0.160*5E
###2023-12-09 12:59:46.997078$GNZDA,175946.10,09,12,2023,00,00*78
###2023-12-09 12:59:46.997721$GNEBP,,,,,,M*13
###2023-12-09 12:59:47.160705$GNGGA,175946.30,4138.0208157,N,07032.2853353,W,1,24,0.6,12.841,M,-29.744,M,0.0,*52
###2023-12-09 12:59:47.362348$GNGGA,175946.50,4138.0208357,N,07032.2855783,W,1,24,0.6,12.852,M,-29.744,M,0.0,*5B
###2023-12-09 12:59:47.562759$GNGGA,175946.70,4138.0208508,N,07032.2858265,W,1,24,0.6,12.869,M,-29.744,M,0.0,*5D
###2023-12-09 12:59:47.762826$GNGGA,175946.90,4138.0208582,N,07032.2860850,W,1,24,0.6,12.869,M,-29.744,M,0.0,*56
###2023-12-09 12:59:47.965908$GNRMC,175947.10,A,4138.0208655,N,07032.2863466,W,3.52,272.86,091223,,,A*53
###2023-12-09 12:59:47.969412$GNGGA,175947.10,4138.0208655,N,07032.2863466,W,1,24,0.6,12.878,M,-29.744,M,0.0,*5C
###2023-12-09 12:59:47.971678$GPGSA,A,3,03,04,16,26,28,29,31,32,,,,,1.1,0.6,0.9*3B
###2023-12-09 12:59:47.973764$GLGSA,A,3,65,71,72,73,74,75,,,,,,,1.1,0.6,0.9*24
###2023-12-09 12:59:47.975692$GAGSA,A,3,04,19,21,27,,,,,,,,,1.1,0.6,0.9*26
###2023-12-09 12:59:47.977681$GBGSA,A,3,14,24,25,26,33,,,,,,,,1.1,0.6,0.9*2F
###2023-12-09 12:59:47.980502$GPGSV,2,1,08,03,35,262,42,04,32,311,40,16,49,212,46,26,79,210,47*76
###2023-12-09 12:59:47.983337$GPGSV,2,2,08,28,50,070,44,29,25,062,41,31,69,036,47,32,19,140,43*74
###2023-12-09 12:59:47.986163$GLGSV,2,1,06,65,23,328,40,71,42,172,47,72,73,273,45,73,37,041,44*6B
###2023-12-09 12:59:47.988329$GLGSV,2,2,06,74,70,334,42,75,31,252,41,,,,,,,,*65
###2023-12-09 12:59:47.991199$GAGSV,1,1,04,04,28,312,39,19,85,226,40,21,85,133,45,27,34,048,41*6A
###2023-12-09 12:59:47.994023$GBGSV,2,1,05,14,44,193,44,24,74,022,48,25,40,261,44,26,27,062,42*6F
###2023-12-09 12:59:47.995804$GBGSV,2,2,05,33,58,234,47,,,,,,,,,,,,*55
###2023-12-09 12:59:47.997405$GNVTG,272.86,T,,M,3.52,N,6.52,K,A*2F
###2023-12-09 12:59:47.999410$GNGST,175947.10,18.000,,,,0.082,0.071,0.160*5D
###2023-12-09 12:59:48.000970$GNZDA,175947.10,09,12,2023,00,00*79
###2023-12-09 12:59:48.001738$GNEBP,,,,,,M*13
###2023-12-09 12:59:48.162428$GNGGA,175947.30,4138.0208848,N,07032.2866153,W,1,24,0.6,12.889,M,-29.744,M,0.0,*54
###2023-12-09 12:59:48.363045$GNGGA,175947.50,4138.0208934,N,07032.2868843,W,1,24,0.6,12.886,M,-29.744,M,0.0,*51
###2023-12-09 12:59:48.562736$GNGGA,175947.70,4138.0208757,N,07032.2871468,W,1,24,0.6,12.868,M,-29.744,M,0.0,*55
###2023-12-09 12:59:48.772260$GNGGA,175947.90,4138.0208544,N,07032.2874091,W,1,24,0.6,12.859,M,-29.744,M,0.0,*5E
###2023-12-09 12:59:48.968721$GNRMC,175948.10,A,4138.0208468,N,07032.2876739,W,3.54,268.84,091223,,,A*52
###2023-12-09 12:59:48.971594$GNGGA,175948.10,4138.0208468,N,07032.2876739,W,1,24,0.6,12.865,M,-29.744,M,0.0,*5E
###2023-12-09 12:59:48.973735$GPGSA,A,3,03,04,16,26,28,29,31,32,,,,,1.1,0.6,0.9*3B
###2023-12-09 12:59:48.975480$GLGSA,A,3,65,71,72,73,74,75,,,,,,,1.1,0.6,0.9*24
###2023-12-09 12:59:48.977072$GAGSA,A,3,04,19,21,27,,,,,,,,,1.1,0.6,0.9*26
###2023-12-09 12:59:48.978745$GBGSA,A,3,14,24,25,26,33,,,,,,,,1.1,0.6,0.9*2F
###2023-12-09 12:59:48.981083$GPGSV,2,1,08,03,35,262,43,04,32,311,40,16,49,212,46,26,79,210,47*77
###2023-12-09 12:59:48.983436$GPGSV,2,2,08,28,50,070,45,29,25,062,41,31,69,036,47,32,19,140,44*72
###2023-12-09 12:59:48.985760$GLGSV,2,1,06,65,23,328,41,71,42,172,47,72,73,273,45,73,37,041,45*6B
###2023-12-09 12:59:48.987516$GLGSV,2,2,06,74,70,334,42,75,31,252,43,,,,,,,,*67
###2023-12-09 12:59:48.989848$GAGSV,1,1,04,04,28,312,40,19,85,226,40,21,85,133,46,27,34,048,42*64
###2023-12-09 12:59:48.992195$GBGSV,2,1,05,14,44,193,44,24,74,022,48,25,40,261,44,26,27,062,41*6C
