###2023-12-09 12:30:47.525013$GNGGA,173046.70,4138.0381672,N,07032.4365671,W,1,17,0.8,14.828,M,-29.746,M,0.0,*51
###2023-12-09 12:30:47.724782$GNGGA,173046.90,4138.0381699,N,07032.4365665,W,1,17,0.8,14.832,M,-29.746,M,0.0,*54
###2023-12-09 12:30:47.927208$GNRMC,173047.10,A,4138.0381716,N,07032.4365637,W,0.02,,091223,,,A*46
###2023-12-09 12:30:47.930990$GNGGA,173047.10,4138.0381716,N,07032.4365637,W,1,17,0.8,14.844,M,-29.746,M,0.0,*5D
###2023-12-09 12:30:47.933485$GPGSA,A,3,03,04,16,26,28,29,31,32,,,,,1.4,0.8,1.2*3A
###2023-12-09 12:30:47.935669$GLGSA,A,3,71,72,73,75,,,,,,,,,1.4,0.8,1.2*25
###2023-12-09 12:30:47.937663$GAGSA,A,3,21,27,,,,,,,,,,,1.4,0.8,1.2*2B
###2023-12-09 12:30:47.939734$GBGSA,A,3,14,26,33,,,,,,,,,,1.4,0.8,1.2*2F
###2023-12-09 12:30:47.942768$GPGSV,2,1,08,03,39,280,41,04,20,310,36,16,34,206,39,26,64,206,45*78
###2023-12-09 12:30:47.945854$GPGSV,2,2,08,28,60,053,44,29,25,076,43,31,73,353,42,32,32,133,49*78
###2023-12-09 12:30:47.948933$GLGSV,1,1,04,71,59,168,48,72,64,313,41,73,50,032,46,75,20,239,41*64
###2023-12-09 12:30:47.951351$GAGSV,1,1,02,21,76,178,40,27,43,050,45,,,,,,,,*64
###2023-12-09 12:30:47.954042$GBGSV,1,1,03,14,57,199,43,26,36,056,44,33,63,258,36,,,,*54
###2023-12-09 12:30:47.955656$GNVTG,,T,,M,0.02,N,0.04,K,A*3B
###2023-12-09 12:30:47.957871$GNGST,173047.10,31.000,,,,0.100,0.098,0.250*55
###2023-12-09 12:30:47.959674$GNZDA,173047.10,09,12,2023,00,00*76
###2023-12-09 12:30:47.960678$GNEBP,,,,,,M*13
###2023-12-09 12:30:48.126139$GNGGA,173047.30,4138.0381740,N,07032.4365604,W,1,17,0.8,14.853,M,-29.746,M,0.0,*5A
###2023-12-09 12:30:48.325182$GNGGA,173047.50,4138.0381760,N,07032.4365582,W,1,17,0.8,14.864,M,-29.746,M,0.0,*57
###2023-12-09 12:30:48.525560$GNGGA,173047.70,4138.0381777,N,07032.4365543,W,1,17,0.8,14.874,M,-29.746,M,0.0,*5F
###2023-12-09 12:30:48.724704$GNGGA,173047.90,4138.0381794,N,07032.4365519,W,1,17,0.8,14.881,M,-29.746,M,0.0,*59
###2023-12-09 12:30:48.928024$GNRMC,173048.10,A,4138.0381825,N,07032.4365504,W,0.06,,091223,,,A*41
###2023-12-09 12:30:48.931786$GNGGA,173048.10,4138.0381825,N,07032.4365504,W,1,17,0.8,14.885,M,-29.746,M,0.0,*53
###2023-12-09 12:30:48.934270$GPGSA,A,3,03,04,16,26,28,29,31,32,,,,,1.4,0.8,1.2*3A
###2023-12-09 12:30:48.936439$GLGSA,A,3,71,72,73,75,,,,,,,,,1.4,0.8,1.2*25
###2023-12-09 12:30:48.938477$GAGSA,A,3,21,27,,,,,,,,,,,1.4,0.8,1.2*2B
###2023-12-09 12:30:48.940555$GBGSA,A,3,14,26,33,,,,,,,,,,1.4,0.8,1.2*2F
###2023-12-09 12:30:48.943600$GPGSV,2,1,08,03,39,280,41,04,20,310,35,16,34,206,39,26,64,206,45*7B
###2023-12-09 12:30:48.946693$GPGSV,2,2,08,28,60,053,44,29,25,076,43,31,73,353,42,32,32,133,48*79
###2023-12-09 12:30:48.949776$GLGSV,1,1,04,71,59,168,48,72,64,313,41,73,50,032,45,75,20,239,40*66
###2023-12-09 12:30:48.952146$GAGSV,1,1,02,21,76,178,39,27,43,050,44,,,,,,,,*6B
###2023-12-09 12:30:48.955064$GBGSV,1,1,03,14,57,199,43,26,36,056,45,33,63,258,37,,,,*54
###2023-12-09 12:30:48.956874$GNVTG,,T,,M,0.06,N,0.11,K,A*3B
###2023-12-09 12:30:48.959115$GNGST,173048.10,31.000,,,,0.100,0.098,0.250*5A
###2023-12-09 12:30:48.960901$GNZDA,173048.10,09,12,2023,00,00*79
###2023-12-09 12:30:48.961891$GNEBP,,,,,,M*13
###2023-12-09 12:30:49.126980$GNGGA,173048.30,4138.0381840,N,07032.4365491,W,1,17,0.8,14.894,M,-29.746,M,0.0,*5F
###2023-12-09 12:30:49.326604$GNGGA,173048.50,4138.0381858,N,07032.4365470,W,1,17,0.8,14.895,M,-29.746,M,0.0,*5E
###2023-12-09 12:30:49.526551$GNGGA,173048.70,4138.0381876,N,07032.4365451,W,1,17,0.8,14.908,M,-29.746,M,0.0,*56
###2023-12-09 12:30:49.725638$GNGGA,173048.90,4138.0381899,N,07032.4365440,W,1,17,0.8,14.911,M,-29.746,M,0.0,*51
###2023-12-09 12:30:49.926121$GNRMC,173049.10,A,4138.0381921,N,07032.4365432,W,0.06,,091223,,,A*41
###2023-12-09 12:30:49.929905$GNGGA,173049.10,4138.0381921,N,07032.4365432,W,1,17,0.8,14.921,M,-29.746,M,0.0,*5C
###2023-12-09 12:30:49.932424$GPGSA,A,3,03,04,16,26,28,29,31,32,,,,,1.4,0.8,1.2*3A
###2023-12-09 12:30:49.934600$GLGSA,A,3,71,72,73,75,,,,,,,,,1.4,0.8,1.2*25
###2023-12-09 12:30:49.936593$GAGSA,A,3,21,27,,,,,,,,,,,1.4,0.8,1.2*2B
###2023-12-09 12:30:49.938679$GBGSA,A,3,14,26,33,,,,,,,,,,1.4,0.8,1.2*2F
###2023-12-09 12:30:49.941718$GPGSV,2,1,08,03,39,279,41,04,20,310,35,16,34,206,38,26,64,206,45*7C
###2023-12-09 12:30:49.944775$GPGSV,2,2,08,28,60,053,44,29,25,076,43,31,73,353,42,32,32,133,49*78
###2023-12-09 12:30:49.947857$GLGSV,1,1,04,71,59,168,48,72,64,313,41,73,50,032,46,75,20,239,40*65
###2023-12-09 12:30:49.950264$GAGSV,1,1,02,21,76,178,40,27,43,050,44,,,,,,,,*65
###2023-12-09 12:30:49.952983$GBGSV,1,1,03,14,57,199,43,26,36,056,45,33,63,258,37,,,,*54
###2023-12-09 12:30:49.954601$GNVTG,,T,,M,0.06,N,0.11,K,A*3B
###2023-12-09 12:30:49.956823$GNGST,173049.10,31.000,,,,0.100,0.098,0.250*5B
###2023-12-09 12:30:49.958666$GNZDA,173049.10,09,12,2023,00,00*78
###2023-12-09 12:30:49.959676$GNEBP,,,,,,M*13
###2023-12-09 12:30:50.131104$GNGGA,173049.30,4138.0381953,N,07032.4365412,W,1,17,0.8,14.930,M,-29.746,M,0.0,*59
###2023-12-09 12:30:50.326589$GNGGA,173049.50,4138.0381981,N,07032.4365398,W,1,17,0.8,14.937,M,-29.746,M,0.0,*52
###2023-12-09 12:30:50.526672$GNGGA,173049.70,4138.0382007,N,07032.4365394,W,1,17,0.8,14.943,M,-29.746,M,0.0,*5B
###2023-12-09 12:30:50.725549$GNGGA,173049.90,4138.0382034,N,07032.4365391,W,1,17,0.8,14.941,M,-29.746,M,0.0,*52
###2023-12-09 12:30:50.926372$GNRMC,173050.10,A,4138.0382062,N,07032.4365411,W,0.04,,091223,,,A*47
###2023-12-09 12:30:50.929292$GNGGA,173050.10,4138.0382062,N,07032.4365411,W,1,17,0.8,14.942,M,-29.746,M,0.0,*5D
###2023-12-09 12:30:50.931227$GPGSA,A,3,03,04,16,26,28,29,31,32,,,,,1.4,0.8,1.2*3A
###2023-12-09 12:30:50.932850$GLGSA,A,3,71,72,73,75,,,,,,,,,1.4,0.8,1.2*25
###2023-12-09 12:30:50.934323$GAGSA,A,3,21,27,,,,,,,,,,,1.4,0.8,1.2*2B
###2023-12-09 12:30:50.935874$GBGSA,A,3,14,26,33,,,,,,,,,,1.4,0.8,1.2*2F
###2023-12-09 12:30:50.938222$GPGSV,2,1,08,03,39,279,40,04,20,310,35,16,34,206,39,26,64,206,45*7C
###2023-12-09 12:30:50.940585$GPGSV,2,2,08,28,60,053,44,29,25,076,43,31,73,353,42,32,32,133,48*79
###2023-12-09 12:30:50.942958$GLGSV,1,1,04,71,59,168,48,72,64,313,42,73,50,032,45,75,20,239,40*65
###2023-12-09 12:30:50.944726$GAGSV,1,1,02,21,76,178,40,27,43,050,44,,,,,,,,*65
###2023-12-09 12:30:50.946857$GBGSV,1,1,03,14,57,199,43,26,36,056,45,33,63,258,37,,,,*54
###2023-12-09 12:30:50.948080$GNVTG,,T,,M,0.04,N,0.07,K,A*3E
###2023-12-09 12:30:50.949799$GNGST,173050.10,31.000,,,,0.100,0.098,0.250*53
###2023-12-09 12:30:50.951152$GNZDA,173050.10,09,12,2023,00,00*70
###2023-12-09 12:30:50.951816$GNEBP,,,,,,M*13
###2023-12-09 12:30:51.126302$GNGGA,173050.30,4138.0382086,N,07032.4365404,W,1,17,0.8,14.949,M,-29.746,M,0.0,*5A
###2023-12-09 12:30:51.325940$GNGGA,173050.50,4138.0382113,N,07032.4365405,W,1,17,0.8,14.947,M,-29.746,M,0.0,*5E
###2023-12-09 12:30:51.526140$GNGGA,173050.70,4138.0382140,N,07032.4365386,W,1,17,0.8,14.955,M,-29.746,M,0.0,*55
###2023-12-09 12:30:51.724139$GNGGA,173050.90,4138.0382173,N,07032.4365377,W,1,17,0.8,14.956,M,-29.746,M,0.0,*56
###2023-12-09 12:30:51.924872$GNRMC,173051.10,A,4138.0382212,N,07032.4365369,W,0.06,,091223,,,A*49
###2023-12-09 12:30:51.927771$GNGGA,173051.10,4138.0382212,N,07032.4365369,W,1,17,0.8,14.959,M,-29.746,M,0.0,*5B
###2023-12-09 12:30:51.929655$GPGSA,A,3,03,04,16,26,28,29,31,32,,,,,1.4,0.8,1.2*3A
###2023-12-09 12:30:51.931280$GLGSA,A,3,71,72,73,75,,,,,,,,,1.4,0.8,1.2*25
###2023-12-09 12:30:51.932756$GAGSA,A,3,21,27,,,,,,,,,,,1.4,0.8,1.2*2B
###2023-12-09 12:30:51.934283$GBGSA,A,3,14,26,33,,,,,,,,,,1.4,0.8,1.2*2F
###2023-12-09 12:30:51.936638$GPGSV,2,1,08,03,39,279,40,04,20,310,35,16,34,206,38,26,64,206,44*7C
###2023-12-09 12:30:51.939002$GPGSV,2,2,08,28,60,053,44,29,25,076,43,31,73,353,42,32,32,133,48*79
###2023-12-09 12:30:51.941346$GLGSV,1,1,04,71,59,168,48,72,64,313,42,73,50,032,45,75,20,239,40*65
###2023-12-09 12:30:51.943144$GAGSV,1,1,02,21,76,178,40,27,43,050,45,,,,,,,,*64
###2023-12-09 12:30:51.945213$GBGSV,1,1,03,14,57,199,42,26,36,056,44,33,63,258,36,,,,*55
###2023-12-09 12:30:51.946383$GNVTG,,T,,M,0.06,N,0.11,K,A*3B
###2023-12-09 12:30:51.948093$GNGST,173051.10,31.000,,,,0.100,0.098,0.250*52
###2023-12-09 12:30:51.949416$GNZDA,173051.10,09,12,2023,00,00*71
###2023-12-09 12:30:51.950329$GNEBP,,,,,,M*13
###2023-12-09 12:30:52.125254$GNGGA,173051.30,4138.0382249,N,07032.4365357,W,1,17,0.8,14.959,M,-29.746,M,0.0,*5A
###2023-12-09 12:30:52.325069$GNGGA,173051.50,4138.0382287,N,07032.4365344,W,1,17,0.8,14.964,M,-29.746,M,0.0,*52
###2023-12-09 12:30:52.526795$GNGGA,173051.70,4138.0382324,N,07032.4365329,W,1,17,0.8,14.975,M,-29.746,M,0.0,*53
###2023-12-09 12:30:52.724880$GNGGA,173051.90,4138.0382367,N,07032.4365331,W,1,17,0.8,14.982,M,-29.746,M,0.0,*5B
###2023-12-09 12:30:52.928156$GNRMC,173052.10,A,4138.0382400,N,07032.4365320,W,0.02,,091223,,,A*46
###2023-12-09 12:30:52.931236$GNGGA,173052.10,4138.0382400,N,07032.4365320,W,1,17,0.8,14.988,M,-29.746,M,0.0,*5C
###2023-12-09 12:30:52.933123$GPGSA,A,3,03,04,16,26,28,29,31,32,,,,,1.4,0.8,1.2*3A
