###2023-12-09 13:30:27.025808$GNGST,183026.10,5.600,,,,0.160,0.097,0.250*65
###2023-12-09 13:30:27.027419$GNZDA,183026.10,09,12,2023,00,00*7E
###2023-12-09 13:30:27.028194$GNEBP,,,,,,M*13
###2023-12-09 13:30:27.192605$GNGGA,183026.30,4138.0354919,N,07032.4144916,W,1,22,0.7,13.423,M,-29.745,M,0.0,*53
###2023-12-09 13:30:27.389511$GNGGA,183026.50,4138.0354879,N,07032.4144356,W,1,22,0.7,13.435,M,-29.745,M,0.0,*5B
###2023-12-09 13:30:27.588841$GNGGA,183026.70,4138.0354800,N,07032.4143830,W,1,21,0.8,13.431,M,-29.745,M,0.0,*53
###2023-12-09 13:30:27.789736$GNGGA,183026.90,4138.0354692,N,07032.4143259,W,1,21,0.7,13.431,M,-29.745,M,0.0,*52
###2023-12-09 13:30:27.990742$GNRMC,183027.10,A,4138.0354661,N,07032.4142706,W,0.72,98.78,091223,,,A*65
###2023-12-09 13:30:27.994195$GNGGA,183027.10,4138.0354661,N,07032.4142706,W,1,21,0.7,13.434,M,-29.745,M,0.0,*5C
###2023-12-09 13:30:27.996292$GPGSA,A,3,04,16,26,28,29,31,,,,,,,1.3,0.7,1.1*33
###2023-12-09 13:30:27.998369$GLGSA,A,3,65,71,72,73,74,75,,,,,,,1.3,0.7,1.1*2E
###2023-12-09 13:30:28.000297$GAGSA,A,3,04,19,21,27,,,,,,,,,1.3,0.7,1.1*2C
###2023-12-09 13:30:28.002287$GBGSA,A,3,24,25,26,33,35,,,,,,,,1.3,0.7,1.1*26
###2023-12-09 13:30:28.005105$GPGSV,2,1,06,04,44,309,46,16,64,220,48,26,86,041,50,28,39,083,47*7B
###2023-12-09 13:30:28.007241$GPGSV,2,2,06,29,21,049,45,31,61,063,47,,,,,,,,*78
###2023-12-09 13:30:28.010079$GLGSV,2,1,06,65,37,320,45,71,25,175,38,72,65,224,47,73,24,051,43*6E
###2023-12-09 13:30:28.012199$GLGSV,2,2,06,74,61,011,43,75,42,268,48,,,,,,,,*64
###2023-12-09 13:30:28.015023$GAGSV,1,1,04,04,38,310,44,19,74,182,42,21,78,047,47,27,24,050,42*6B
###2023-12-09 13:30:28.017834$GBGSV,2,1,05,24,64,043,49,25,49,274,48,26,17,069,45,33,48,219,49*63
###2023-12-09 13:30:28.019602$GBGSV,2,2,05,35,16,058,46,,,,,,,,,,,,*50
###2023-12-09 13:30:28.021152$GNVTG,98.78,T,,M,0.72,N,1.33,K,A*19
###2023-12-09 13:30:28.023102$GNGST,183027.10,5.500,,,,0.160,0.097,0.250*67
###2023-12-09 13:30:28.024661$GNZDA,183027.10,09,12,2023,00,00*7F
###2023-12-09 13:30:28.025429$GNEBP,,,,,,M*13
###2023-12-09 13:30:28.188635$GNGGA,183027.30,4138.0354597,N,07032.4142258,W,1,21,0.7,13.434,M,-29.745,M,0.0,*5A
###2023-12-09 13:30:28.387820$GNGGA,183027.50,4138.0354498,N,07032.4141793,W,1,21,0.7,13.443,M,-29.745,M,0.0,*53
###2023-12-09 13:30:28.586636$GNGGA,183027.70,4138.0354443,N,07032.4141286,W,1,21,0.7,13.449,M,-29.745,M,0.0,*5C
###2023-12-09 13:30:28.787651$GNGGA,183027.90,4138.0354397,N,07032.4140774,W,1,21,0.7,13.436,M,-29.745,M,0.0,*5D
###2023-12-09 13:30:28.992884$GNRMC,183028.10,A,4138.0354302,N,07032.4140322,W,0.68,98.78,091223,,,A*61
###2023-12-09 13:30:28.995858$GNGGA,183028.10,4138.0354302,N,07032.4140322,W,1,21,0.7,13.437,M,-29.745,M,0.0,*50
###2023-12-09 13:30:28.997593$GPGSA,A,3,04,16,26,28,29,31,,,,,,,1.3,0.7,1.1*33
###2023-12-09 13:30:28.999323$GLGSA,A,3,65,71,72,73,74,75,,,,,,,1.3,0.7,1.1*2E
###2023-12-09 13:30:29.000915$GAGSA,A,3,04,19,21,27,,,,,,,,,1.3,0.7,1.1*2C
###2023-12-09 13:30:29.002579$GBGSA,A,3,24,25,26,33,35,,,,,,,,1.3,0.7,1.1*26
###2023-12-09 13:30:29.004922$GPGSV,2,1,06,04,44,309,45,16,64,220,46,26,86,041,48,28,39,083,45*7D
###2023-12-09 13:30:29.006691$GPGSV,2,2,06,29,21,049,44,31,61,063,45,,,,,,,,*7B
###2023-12-09 13:30:29.009029$GLGSV,2,1,06,65,37,320,43,71,25,175,37,72,65,224,46,73,24,051,44*61
###2023-12-09 13:30:29.010792$GLGSV,2,2,06,74,61,011,43,75,42,268,46,,,,,,,,*6A
###2023-12-09 13:30:29.013129$GAGSV,1,1,04,04,38,310,44,19,74,182,41,21,78,047,45,27,24,050,43*6B
###2023-12-09 13:30:29.015478$GBGSV,2,1,05,24,64,044,49,25,49,274,47,26,17,069,46,33,48,219,47*66
###2023-12-09 13:30:29.016938$GBGSV,2,2,05,35,16,058,46,,,,,,,,,,,,*50
###2023-12-09 13:30:29.018228$GNVTG,98.78,T,,M,0.68,N,1.26,K,A*16
###2023-12-09 13:30:29.019857$GNGST,183028.10,5.500,,,,0.160,0.097,0.250*68
###2023-12-09 13:30:29.021147$GNZDA,183028.10,09,12,2023,00,00*70
###2023-12-09 13:30:29.021787$GNEBP,,,,,,M*13
###2023-12-09 13:30:29.190035$GNGGA,183028.30,4138.0354122,N,07032.4139876,W,1,21,0.7,13.445,M,-29.745,M,0.0,*53
###2023-12-09 13:30:29.389535$GNGGA,183028.50,4138.0354003,N,07032.4139440,W,1,21,0.7,13.446,M,-29.745,M,0.0,*5D
###2023-12-09 13:30:29.591995$GNGGA,183028.70,4138.0353957,N,07032.4138955,W,1,20,0.8,13.444,M,-29.745,M,0.0,*54
###2023-12-09 13:30:29.791343$GNGGA,183028.90,4138.0353913,N,07032.4138488,W,1,21,0.7,13.446,M,-29.745,M,0.0,*5B
###2023-12-09 13:30:29.991448$GNRMC,183029.10,A,4138.0353749,N,07032.4138121,W,0.58,98.78,091223,,,A*61
###2023-12-09 13:30:29.994323$GNGGA,183029.10,4138.0353749,N,07032.4138121,W,1,21,0.7,13.452,M,-29.745,M,0.0,*50
###2023-12-09 13:30:29.996070$GPGSA,A,3,04,16,26,28,29,31,,,,,,,1.3,0.7,1.1*33
###2023-12-09 13:30:29.997795$GLGSA,A,3,65,71,72,73,74,75,,,,,,,1.3,0.7,1.1*2E
###2023-12-09 13:30:29.999398$GAGSA,A,3,04,19,21,27,,,,,,,,,1.3,0.7,1.1*2C
###2023-12-09 13:30:30.001059$GBGSA,A,3,24,25,26,33,35,,,,,,,,1.3,0.7,1.1*26
###2023-12-09 13:30:30.003408$GPGSV,2,1,06,04,44,309,44,16,64,220,47,26,86,041,48,28,39,083,45*7D
###2023-12-09 13:30:30.005165$GPGSV,2,2,06,29,21,049,44,31,61,063,46,,,,,,,,*78
###2023-12-09 13:30:30.007512$GLGSV,2,1,06,65,37,320,45,71,25,175,37,72,65,224,47,73,24,051,45*67
###2023-12-09 13:30:30.009261$GLGSV,2,2,06,74,61,011,43,75,42,268,47,,,,,,,,*6B
###2023-12-09 13:30:30.011599$GAGSV,1,1,04,04,38,310,44,19,74,182,40,21,78,047,46,27,24,050,43*69
###2023-12-09 13:30:30.013929$GBGSV,2,1,05,24,64,044,50,25,50,275,46,26,17,069,46,33,48,219,48*69
###2023-12-09 13:30:30.015398$GBGSV,2,2,05,35,16,058,45,,,,,,,,,,,,*53
###2023-12-09 13:30:30.016690$GNVTG,98.78,T,,M,0.58,N,1.08,K,A*19
###2023-12-09 13:30:30.018303$GNGST,183029.10,5.600,,,,0.160,0.097,0.250*6A
###2023-12-09 13:30:30.019608$GNZDA,183029.10,09,12,2023,00,00*71
###2023-12-09 13:30:30.020247$GNEBP,,,,,,M*13
###2023-12-09 13:30:30.192153$GNGGA,183029.30,4138.0353583,N,07032.4137720,W,1,21,0.7,13.452,M,-29.745,M,0.0,*5E
###2023-12-09 13:30:30.391964$GNGGA,183029.50,4138.0353541,N,07032.4137308,W,1,21,0.7,13.450,M,-29.745,M,0.0,*5A
###2023-12-09 13:30:30.587995$GNGGA,183029.70,4138.0353447,N,07032.4136894,W,1,21,0.7,13.443,M,-29.745,M,0.0,*52
###2023-12-09 13:30:30.790001$GNGGA,183029.90,4138.0353315,N,07032.4136489,W,1,21,0.7,13.448,M,-29.745,M,0.0,*57
###2023-12-09 13:30:30.992899$GNRMC,183030.10,A,4138.0353186,N,07032.4136151,W,0.47,98.78,091223,,,A*6B
###2023-12-09 13:30:30.995751$GNGGA,183030.10,4138.0353186,N,07032.4136151,W,1,21,0.7,13.447,M,-29.745,M,0.0,*50
###2023-12-09 13:30:30.997467$GPGSA,A,3,04,16,26,28,29,31,,,,,,,1.2,0.7,1.0*33
###2023-12-09 13:30:30.999183$GLGSA,A,3,65,71,72,73,74,75,,,,,,,1.2,0.7,1.0*2E
###2023-12-09 13:30:31.000761$GAGSA,A,3,04,19,21,27,,,,,,,,,1.2,0.7,1.0*2C
###2023-12-09 13:30:31.002399$GBGSA,A,3,24,25,26,33,35,,,,,,,,1.2,0.7,1.0*26
###2023-12-09 13:30:31.004731$GPGSV,2,1,06,04,44,309,45,16,64,220,47,26,86,041,49,28,39,083,45*7D
###2023-12-09 13:30:31.006471$GPGSV,2,2,06,29,21,049,44,31,61,063,46,,,,,,,,*78
###2023-12-09 13:30:31.008797$GLGSV,2,1,06,65,37,320,44,71,25,175,39,72,65,224,47,73,24,051,45*68
###2023-12-09 13:30:31.010530$GLGSV,2,2,06,74,61,011,44,75,42,268,46,,,,,,,,*6D
###2023-12-09 13:30:31.012860$GAGSV,1,1,04,04,38,310,44,19,74,182,40,21,78,047,46,27,24,050,43*69
###2023-12-09 13:30:31.015195$GBGSV,2,1,05,24,64,044,49,25,50,275,47,26,17,070,45,33,48,219,46*65
###2023-12-09 13:30:31.016639$GBGSV,2,2,05,35,16,058,44,,,,,,,,,,,,*52
###2023-12-09 13:30:31.017921$GNVTG,98.78,T,,M,0.47,N,0.86,K,A*10
###2023-12-09 13:30:31.019572$GNGST,183030.10,18.000,,,,0.160,0.097,0.250*58
###2023-12-09 13:30:31.020860$GNZDA,183030.10,09,12,2023,00,00*79
###2023-12-09 13:30:31.021498$GNEBP,,,,,,M*13
###2023-12-09 13:30:31.192304$GNGGA,183030.30,4138.0353066,N,07032.4135835,W,1,23,0.7,13.444,M,-29.745,M,0.0,*54
###2023-12-09 13:30:31.389976$GNGGA,183030.50,4138.0352905,N,07032.4135485,W,1,23,0.7,13.437,M,-29.745,M,0.0,*5C
###2023-12-09 13:30:31.592528$GNGGA,183030.70,4138.0352766,N,07032.4135114,W,1,23,0.7,13.420,M,-29.745,M,0.0,*5E
###2023-12-09 13:30:31.789790$GNGGA,183030.90,4138.0352674,N,07032.4134803,W,1,22,0.7,13.417,M,-29.745,M,0.0,*59
###2023-12-09 13:30:31.992819$GNRMC,183031.10,A,4138.0352525,N,07032.4134562,W,0.41,98.78,091223,,,A*66
###2023-12-09 13:30:31.995936$GNGGA,183031.10,4138.0352525,N,07032.4134562,W,1,21,0.8,13.422,M,-29.745,M,0.0,*57
###2023-12-09 13:30:31.997668$GPGSA,A,3,04,16,26,28,29,31,,,,,,,1.4,0.8,1.1*3B
###2023-12-09 13:30:31.999335$GLGSA,A,3,65,72,73,74,75,,,,,,,,1.4,0.8,1.1*20
###2023-12-09 13:30:32.000921$GAGSA,A,3,04,19,21,27,,,,,,,,,1.4,0.8,1.1*24
###2023-12-09 13:30:32.002641$GBGSA,A,3,14,24,25,26,33,35,,,,,,,1.4,0.8,1.1*2B
###2023-12-09 13:30:32.004975$GPGSV,2,1,06,04,44,309,45,16,64,220,45,26,86,041,47,28,39,083,44*70
###2023-12-09 13:30:32.006731$GPGSV,2,2,06,29,21,049,45,31,61,063,46,,,,,,,,*79
###2023-12-09 13:30:32.009053$GLGSV,2,1,05,65,37,320,46,72,65,224,46,73,24,051,47,74,61,011,43*61
