###2023-12-09 12:32:23.944699$GPGSV,2,2,08,28,59,054,44,29,25,075,40,31,73,356,47,32,31,133,45*7A
###2023-12-09 12:32:23.947110$GLGSV,2,1,05,71,58,169,47,72,65,311,47,73,49,033,46,74,71,287,43*67
###2023-12-09 12:32:23.948625$GLGSV,2,2,05,75,21,240,38,,,,,,,,,,,,*5C
###2023-12-09 12:32:23.950992$GAGSV,1,1,04,04,20,311,43,19,80,306,41,21,76,177,46,27,42,050,42*6F
###2023-12-09 12:32:23.953343$GBGSV,2,1,05,14,56,198,46,24,81,339,49,25,32,252,47,26,36,057,45*60
###2023-12-09 12:32:23.954838$GBGSV,2,2,05,33,63,257,49,,,,,,,,,,,,*56
###2023-12-09 12:32:23.956177$GNVTG,314.32,T,,M,0.89,N,1.66,K,A*24
###2023-12-09 12:32:23.957839$GNGST,173223.10,19.000,,,,0.082,0.074,0.170*57
###2023-12-09 12:32:23.959172$GNZDA,173223.10,09,12,2023,00,00*76
###2023-12-09 12:32:23.959828$GNEBP,,,,,,M*13
###2023-12-09 12:32:24.129403$GNGGA,173223.30,4138.0442976,N,07032.4277560,W,1,22,0.7,13.117,M,-29.745,M,0.0,*5E
###2023-12-09 12:32:24.331124$GNGGA,173223.50,4138.0442865,N,07032.4277421,W,1,22,0.7,13.149,M,-29.745,M,0.0,*54
###2023-12-09 12:32:24.528894$GNGGA,173223.70,4138.0442792,N,07032.4277334,W,1,22,0.7,13.139,M,-29.745,M,0.0,*55
###2023-12-09 12:32:24.728991$GNGGA,173223.90,4138.0443022,N,07032.4277695,W,1,22,0.7,13.137,M,-29.745,M,0.0,*56
###2023-12-09 12:32:24.935519$GNRMC,173224.10,A,4138.0443360,N,07032.4278183,W,0.64,315.61,091223,,,A*56
###2023-12-09 12:32:24.938582$GNGGA,173224.10,4138.0443360,N,07032.4278183,W,1,22,0.7,13.122,M,-29.745,M,0.0,*57
###2023-12-09 12:32:24.940617$GPGSA,A,3,03,04,16,26,28,29,31,32,,,,,1.2,0.7,1.0*31
###2023-12-09 12:32:24.942444$GLGSA,A,3,71,72,73,74,75,,,,,,,,1.2,0.7,1.0*2D
###2023-12-09 12:32:24.944212$GAGSA,A,3,04,19,21,27,,,,,,,,,1.2,0.7,1.0*2C
###2023-12-09 12:32:24.946046$GBGSA,A,3,14,24,25,26,33,,,,,,,,1.2,0.7,1.0*25
###2023-12-09 12:32:24.948599$GPGSV,2,1,08,03,39,279,44,04,20,310,46,16,35,207,43,26,65,206,48*7D
###2023-12-09 12:32:24.950998$GPGSV,2,2,08,28,59,054,44,29,25,075,39,31,73,356,47,32,31,133,44*75
###2023-12-09 12:32:24.953357$GLGSV,2,1,05,71,58,169,47,72,65,311,47,73,49,033,46,74,71,287,43*67
###2023-12-09 12:32:24.954853$GLGSV,2,2,05,75,21,240,40,,,,,,,,,,,,*53
###2023-12-09 12:32:24.957199$GAGSV,1,1,04,04,20,311,43,19,80,306,41,21,76,177,46,27,42,050,42*6F
###2023-12-09 12:32:24.959574$GBGSV,2,1,05,14,56,198,44,24,81,339,49,25,32,252,46,26,36,057,44*62
###2023-12-09 12:32:24.961056$GBGSV,2,2,05,33,63,257,46,,,,,,,,,,,,*59
###2023-12-09 12:32:24.962392$GNVTG,315.61,T,,M,0.64,N,1.19,K,A*28
###2023-12-09 12:32:24.964074$GNGST,173224.10,19.000,,,,0.083,0.074,0.170*51
###2023-12-09 12:32:24.965381$GNZDA,173224.10,09,12,2023,00,00*71
###2023-12-09 12:32:24.966025$GNEBP,,,,,,M*13
###2023-12-09 12:32:25.127660$GNGGA,173224.30,4138.0443410,N,07032.4278288,W,1,22,0.7,13.131,M,-29.745,M,0.0,*5F
###2023-12-09 12:32:25.332401$GNGGA,173224.50,4138.0443285,N,07032.4278092,W,1,22,0.7,13.146,M,-29.745,M,0.0,*5A
###2023-12-09 12:32:25.527665$GNGGA,173224.70,4138.0443280,N,07032.4278123,W,1,22,0.7,13.141,M,-29.745,M,0.0,*51
###2023-12-09 12:32:25.726899$GNGGA,173224.90,4138.0443566,N,07032.4278558,W,1,22,0.7,13.146,M,-29.745,M,0.0,*5F
###2023-12-09 12:32:25.929329$GNRMC,173225.10,A,4138.0443846,N,07032.4278991,W,0.39,315.61,091223,,,A*5B
###2023-12-09 12:32:25.932436$GNGGA,173225.10,4138.0443846,N,07032.4278991,W,1,22,0.7,13.145,M,-29.745,M,0.0,*53
###2023-12-09 12:32:25.934483$GPGSA,A,3,03,04,16,26,28,29,31,32,,,,,1.2,0.7,1.0*31
###2023-12-09 12:32:25.936332$GLGSA,A,3,71,72,73,74,75,,,,,,,,1.2,0.7,1.0*2D
###2023-12-09 12:32:25.938094$GAGSA,A,3,04,19,21,27,,,,,,,,,1.2,0.7,1.0*2C
###2023-12-09 12:32:25.939916$GBGSA,A,3,14,24,25,26,33,,,,,,,,1.2,0.7,1.0*25
###2023-12-09 12:32:25.942427$GPGSV,2,1,08,03,39,278,43,04,20,310,45,16,35,207,42,26,65,206,48*79
###2023-12-09 12:32:25.944946$GPGSV,2,2,08,28,59,054,44,29,25,075,40,31,73,356,47,32,31,133,44*7B
###2023-12-09 12:32:25.947468$GLGSV,2,1,05,71,58,169,47,72,65,311,48,73,49,033,47,74,71,287,43*69
###2023-12-09 12:32:25.949144$GLGSV,2,2,05,75,21,240,39,,,,,,,,,,,,*5D
###2023-12-09 12:32:25.951690$GAGSV,1,1,04,04,20,311,44,19,80,306,41,21,76,177,45,27,42,050,43*6A
###2023-12-09 12:32:25.954187$GBGSV,2,1,05,14,56,198,44,24,81,339,48,25,32,252,46,26,36,057,45*62
###2023-12-09 12:32:25.955825$GBGSV,2,2,05,33,63,257,48,,,,,,,,,,,,*57
###2023-12-09 12:32:25.957311$GNVTG,315.61,T,,M,0.39,N,0.72,K,A*2C
###2023-12-09 12:32:25.959135$GNGST,173225.10,19.000,,,,0.083,0.075,0.170*51
###2023-12-09 12:32:25.960559$GNZDA,173225.10,09,12,2023,00,00*70
###2023-12-09 12:32:25.961308$GNEBP,,,,,,M*13
###2023-12-09 12:32:26.128778$GNGGA,173225.30,4138.0443829,N,07032.4278966,W,1,22,0.7,13.158,M,-29.745,M,0.0,*5C
###2023-12-09 12:32:26.329850$GNGGA,173225.50,4138.0443680,N,07032.4278806,W,1,22,0.7,13.153,M,-29.745,M,0.0,*5B
###2023-12-09 12:32:26.529837$GNGGA,173225.70,4138.0443778,N,07032.4278981,W,1,22,0.7,13.152,M,-29.745,M,0.0,*50
###2023-12-09 12:32:26.728924$GNGGA,173225.90,4138.0444083,N,07032.4279452,W,1,23,0.7,13.148,M,-29.745,M,0.0,*52
###2023-12-09 12:32:26.931897$GNRMC,173226.10,A,4138.0444281,N,07032.4279721,W,0.04,315.61,091223,,,A*54
###2023-12-09 12:32:26.934793$GNGGA,173226.10,4138.0444281,N,07032.4279721,W,1,23,0.7,13.151,M,-29.745,M,0.0,*56
###2023-12-09 12:32:26.936679$GPGSA,A,3,03,04,16,26,28,29,31,32,,,,,1.2,0.7,0.9*39
###2023-12-09 12:32:26.938349$GLGSA,A,3,71,72,73,74,75,,,,,,,,1.2,0.7,0.9*25
###2023-12-09 12:32:26.939966$GAGSA,A,3,04,19,21,27,,,,,,,,,1.2,0.7,0.9*24
###2023-12-09 12:32:26.941641$GBGSA,A,3,14,24,25,26,33,,,,,,,,1.2,0.7,0.9*2D
###2023-12-09 12:32:26.944006$GPGSV,2,1,08,03,39,278,44,04,21,310,46,16,35,207,42,26,65,206,48*7C
###2023-12-09 12:32:26.946360$GPGSV,2,2,08,28,59,054,45,29,25,075,41,31,73,356,48,32,31,133,42*72
###2023-12-09 12:32:26.948754$GLGSV,2,1,05,71,58,169,47,72,65,311,48,73,49,033,46,74,71,287,42*69
###2023-12-09 12:32:26.950240$GLGSV,2,2,05,75,21,240,38,,,,,,,,,,,,*5C
###2023-12-09 12:32:26.952619$GAGSV,1,1,04,04,20,311,44,19,80,306,41,21,76,177,46,27,42,050,42*68
###2023-12-09 12:32:26.954991$GBGSV,2,1,05,14,56,198,43,24,81,339,49,25,32,252,44,26,36,057,45*66
###2023-12-09 12:32:26.956468$GBGSV,2,2,05,33,63,257,48,,,,,,,,,,,,*57
###2023-12-09 12:32:26.957813$GNVTG,315.61,T,,M,0.04,N,0.07,K,A*20
###2023-12-09 12:32:26.959500$GNGST,173226.10,21.000,,,,0.084,0.076,0.180*52
###2023-12-09 12:32:26.960814$GNZDA,173226.10,09,12,2023,00,00*73
###2023-12-09 12:32:26.961463$GNEBP,,,,,,M*13
###2023-12-09 12:32:27.132086$GNGGA,173226.30,4138.0444133,N,07032.4279583,W,1,23,0.7,13.170,M,-29.745,M,0.0,*57
###2023-12-09 12:32:27.329891$GNGGA,173226.50,4138.0444029,N,07032.4279491,W,1,23,0.7,13.165,M,-29.745,M,0.0,*5D
###2023-12-09 12:32:27.529937$GNGGA,173226.70,4138.0444271,N,07032.4279874,W,1,23,0.7,13.166,M,-29.745,M,0.0,*54
###2023-12-09 12:32:27.729122$GNGGA,173226.90,4138.0444597,N,07032.4280314,W,1,23,0.7,13.156,M,-29.745,M,0.0,*5D
###2023-12-09 12:32:27.929795$GNRMC,173227.10,A,4138.0444602,N,07032.4280374,W,0.31,316.77,091223,,,A*5A
###2023-12-09 12:32:27.932874$GNGGA,173227.10,4138.0444602,N,07032.4280374,W,1,23,0.7,13.172,M,-29.745,M,0.0,*5B
###2023-12-09 12:32:27.934779$GPGSA,A,3,03,04,16,26,28,29,31,32,,,,,1.2,0.7,0.9*39
###2023-12-09 12:32:27.936456$GLGSA,A,3,71,72,73,74,75,,,,,,,,1.2,0.7,0.9*25
###2023-12-09 12:32:27.938058$GAGSA,A,3,04,19,21,27,,,,,,,,,1.2,0.7,0.9*24
###2023-12-09 12:32:27.939746$GBGSA,A,3,14,24,25,26,33,,,,,,,,1.2,0.7,0.9*2D
###2023-12-09 12:32:27.942089$GPGSV,2,1,08,03,39,278,43,04,21,310,45,16,35,207,43,26,65,206,46*77
###2023-12-09 12:32:27.944458$GPGSV,2,2,08,28,59,054,43,29,25,075,37,31,73,356,47,32,31,133,42*7A
###2023-12-09 12:32:27.946867$GLGSV,2,1,05,71,58,169,48,72,65,311,47,73,49,033,47,74,71,287,43*69
###2023-12-09 12:32:27.948384$GLGSV,2,2,05,75,21,240,43,,,,,,,,,,,,*50
###2023-12-09 12:32:27.950796$GAGSV,1,1,04,04,20,311,45,19,80,306,41,21,76,177,46,27,42,050,42*69
###2023-12-09 12:32:27.953158$GBGSV,2,1,05,14,56,198,45,24,81,339,49,25,32,252,44,26,36,057,46*63
###2023-12-09 12:32:27.954658$GBGSV,2,2,05,33,63,257,48,,,,,,,,,,,,*57
###2023-12-09 12:32:27.956003$GNVTG,316.77,T,,M,0.31,N,0.58,K,A*28
###2023-12-09 12:32:27.957668$GNGST,173227.10,19.000,,,,0.085,0.077,0.180*58
###2023-12-09 12:32:27.959258$GNZDA,173227.10,09,12,2023,00,00*72
###2023-12-09 12:32:27.959924$GNEBP,,,,,,M*13
###2023-12-09 12:32:28.129595$GNGGA,173227.30,4138.0444353,N,07032.4280035,W,1,23,0.7,13.096,M,-29.745,M,0.0,*55
###2023-12-09 12:32:28.330846$GNGGA,173227.50,4138.0444328,N,07032.4280057,W,1,23,0.7,13.038,M,-29.745,M,0.0,*5F
###2023-12-09 12:32:28.529768$GNGGA,173227.70,4138.0444576,N,07032.4280436,W,1,23,0.7,13.005,M,-29.745,M,0.0,*5D
###2023-12-09 12:32:28.728047$GNGGA,173227.90,4138.0444738,N,07032.4280722,W,1,23,0.7,12.967,M,-29.745,M,0.0,*51
###2023-12-09 12:32:28.930952$GNRMC,173228.10,A,4138.0444602,N,07032.4280606,W,0.43,316.77,091223,,,A*50
###2023-12-09 12:32:28.933837$GNGGA,173228.10,4138.0444602,N,07032.4280606,W,1,23,0.7,12.966,M,-29.745,M,0.0,*58
