###2023-12-09 12:40:12.958060$GLGSV,2,1,05,71,54,170,48,72,68,305,45,73,45,035,46,74,71,299,43*63
###2023-12-09 12:40:12.959591$GLGSV,2,2,05,75,24,243,39,,,,,,,,,,,,*5B
###2023-12-09 12:40:12.961942$GAGSV,1,1,04,04,22,311,39,19,82,296,41,21,79,174,46,27,40,049,44*6A
###2023-12-09 12:40:12.964300$GBGSV,2,1,05,14,53,197,45,24,80,355,48,25,34,254,43,26,33,058,45*6D
###2023-12-09 12:40:12.965760$GBGSV,2,2,05,33,62,250,47,,,,,,,,,,,,*5E
###2023-12-09 12:40:12.967099$GNVTG,307.99,T,,M,0.52,N,0.97,K,A*2E
###2023-12-09 12:40:12.968750$GNGST,174012.10,19.000,,,,0.079,0.069,0.170*58
###2023-12-09 12:40:12.970041$GNZDA,174012.10,09,12,2023,00,00*71
###2023-12-09 12:40:12.970696$GNEBP,,,,,,M*13
###2023-12-09 12:40:13.140111$GNGGA,174012.30,4138.0566588,N,07032.3824618,W,1,23,0.7,13.294,M,-29.744,M,0.0,*5C
###2023-12-09 12:40:13.340035$GNGGA,174012.50,4138.0566891,N,07032.3825101,W,1,23,0.7,13.289,M,-29.744,M,0.0,*5D
###2023-12-09 12:40:13.539452$GNGGA,174012.70,4138.0567002,N,07032.3825242,W,1,23,0.7,13.284,M,-29.744,M,0.0,*55
###2023-12-09 12:40:13.739310$GNGGA,174012.90,4138.0566962,N,07032.3825169,W,1,23,0.7,13.273,M,-29.744,M,0.0,*57
###2023-12-09 12:40:13.940509$GNRMC,174013.10,A,4138.0567081,N,07032.3825358,W,0.68,307.99,091223,,,A*55
###2023-12-09 12:40:13.943409$GNGGA,174013.10,4138.0567081,N,07032.3825358,W,1,23,0.7,13.268,M,-29.744,M,0.0,*51
###2023-12-09 12:40:13.945275$GPGSA,A,3,03,04,16,26,28,29,31,32,,,,,1.2,0.7,1.0*31
###2023-12-09 12:40:13.946975$GLGSA,A,3,71,72,73,74,75,,,,,,,,1.2,0.7,1.0*2D
###2023-12-09 12:40:13.948582$GAGSA,A,3,04,19,21,27,,,,,,,,,1.2,0.7,1.0*2C
###2023-12-09 12:40:13.950238$GBGSA,A,3,14,24,25,26,33,,,,,,,,1.2,0.7,1.0*25
###2023-12-09 12:40:13.952594$GPGSV,2,1,08,03,38,274,43,04,24,311,40,16,39,208,42,26,69,207,47*75
###2023-12-09 12:40:13.954955$GPGSV,2,2,08,28,56,059,45,29,25,071,44,31,73,010,48,32,28,135,46*7A
###2023-12-09 12:40:13.957299$GLGSV,2,1,05,71,54,170,48,72,68,305,45,73,45,035,46,74,71,299,42*62
###2023-12-09 12:40:13.958782$GLGSV,2,2,05,75,24,243,39,,,,,,,,,,,,*5B
###2023-12-09 12:40:13.961123$GAGSV,1,1,04,04,22,311,39,19,82,296,41,21,79,174,46,27,40,049,44*6A
###2023-12-09 12:40:13.963486$GBGSV,2,1,05,14,53,197,45,24,80,355,48,25,34,254,43,26,33,058,46*6E
###2023-12-09 12:40:13.964954$GBGSV,2,2,05,33,62,250,47,,,,,,,,,,,,*5E
###2023-12-09 12:40:13.966282$GNVTG,307.99,T,,M,0.68,N,1.26,K,A*2C
###2023-12-09 12:40:13.967952$GNGST,174013.10,19.000,,,,0.079,0.069,0.170*59
###2023-12-09 12:40:13.969254$GNZDA,174013.10,09,12,2023,00,00*70
###2023-12-09 12:40:13.969895$GNEBP,,,,,,M*13
###2023-12-09 12:40:14.140045$GNGGA,174013.30,4138.0567431,N,07032.3825892,W,1,23,0.7,13.289,M,-29.744,M,0.0,*5E
###2023-12-09 12:40:14.340064$GNGGA,174013.50,4138.0567728,N,07032.3826375,W,1,23,0.7,13.289,M,-29.744,M,0.0,*52
###2023-12-09 12:40:14.540061$GNGGA,174013.70,4138.0567819,N,07032.3826462,W,1,23,0.7,13.293,M,-29.744,M,0.0,*57
###2023-12-09 12:40:14.738409$GNGGA,174013.90,4138.0567793,N,07032.3826370,W,1,23,0.7,13.277,M,-29.744,M,0.0,*5A
###2023-12-09 12:40:14.939888$GNRMC,174014.10,A,4138.0567971,N,07032.3826595,W,0.86,309.22,091223,,,A*5E
###2023-12-09 12:40:14.942745$GNGGA,174014.10,4138.0567971,N,07032.3826595,W,1,23,0.7,13.265,M,-29.744,M,0.0,*59
###2023-12-09 12:40:14.944604$GPGSA,A,3,03,04,16,26,28,29,31,32,,,,,1.2,0.7,1.0*31
###2023-12-09 12:40:14.946262$GLGSA,A,3,71,72,73,74,75,,,,,,,,1.2,0.7,1.0*2D
###2023-12-09 12:40:14.947892$GAGSA,A,3,04,19,21,27,,,,,,,,,1.2,0.7,1.0*2C
###2023-12-09 12:40:14.949569$GBGSA,A,3,14,24,25,26,33,,,,,,,,1.2,0.7,1.0*25
###2023-12-09 12:40:14.951933$GPGSV,2,1,08,03,38,274,42,04,24,311,39,16,39,208,42,26,69,207,46*7B
###2023-12-09 12:40:14.954285$GPGSV,2,2,08,28,56,059,45,29,25,071,44,31,73,010,47,32,28,135,46*75
###2023-12-09 12:40:14.956645$GLGSV,2,1,05,71,54,170,48,72,68,305,45,73,45,035,46,74,71,299,42*62
###2023-12-09 12:40:14.958110$GLGSV,2,2,05,75,24,243,38,,,,,,,,,,,,*5A
###2023-12-09 12:40:14.960464$GAGSV,1,1,04,04,22,311,38,19,82,296,41,21,79,174,46,27,40,049,45*6A
###2023-12-09 12:40:14.962814$GBGSV,2,1,05,14,53,197,45,24,80,355,48,25,34,254,43,26,33,058,46*6E
###2023-12-09 12:40:14.964277$GBGSV,2,2,05,33,62,250,46,,,,,,,,,,,,*5F
###2023-12-09 12:40:14.965604$GNVTG,309.22,T,,M,0.86,N,1.58,K,A*2B
###2023-12-09 12:40:14.967271$GNGST,174014.10,19.000,,,,0.079,0.070,0.170*56
###2023-12-09 12:40:14.968567$GNZDA,174014.10,09,12,2023,00,00*77
###2023-12-09 12:40:14.969208$GNEBP,,,,,,M*13
###2023-12-09 12:40:15.139567$GNGGA,174014.30,4138.0568344,N,07032.3827169,W,1,23,0.7,13.282,M,-29.744,M,0.0,*57
###2023-12-09 12:40:15.339127$GNGGA,174014.50,4138.0568632,N,07032.3827623,W,1,23,0.7,13.282,M,-29.744,M,0.0,*5C
###2023-12-09 12:40:15.540140$GNGGA,174014.70,4138.0568709,N,07032.3827691,W,1,23,0.7,13.290,M,-29.744,M,0.0,*5D
###2023-12-09 12:40:15.739315$GNGGA,174014.90,4138.0568756,N,07032.3827681,W,1,23,0.7,13.284,M,-29.744,M,0.0,*5D
###2023-12-09 12:40:15.939906$GNRMC,174015.10,A,4138.0568937,N,07032.3827954,W,0.76,308.99,091223,,,A*5C
###2023-12-09 12:40:15.942774$GNGGA,174015.10,4138.0568937,N,07032.3827954,W,1,23,0.7,13.274,M,-29.744,M,0.0,*55
###2023-12-09 12:40:15.944641$GPGSA,A,3,03,04,16,26,28,29,31,32,,,,,1.2,0.7,1.0*31
###2023-12-09 12:40:15.946286$GLGSA,A,3,71,72,73,74,75,,,,,,,,1.2,0.7,1.0*2D
###2023-12-09 12:40:15.947902$GAGSA,A,3,04,19,21,27,,,,,,,,,1.2,0.7,1.0*2C
###2023-12-09 12:40:15.949554$GBGSA,A,3,14,24,25,26,33,,,,,,,,1.2,0.7,1.0*25
###2023-12-09 12:40:15.951896$GPGSV,2,1,08,03,38,274,42,04,24,311,40,16,39,208,42,26,69,207,47*74
###2023-12-09 12:40:15.954231$GPGSV,2,2,08,28,56,059,45,29,25,071,44,31,73,010,47,32,28,135,46*75
###2023-12-09 12:40:15.956584$GLGSV,2,1,05,71,54,170,48,72,68,305,45,73,45,035,46,74,71,299,43*63
###2023-12-09 12:40:15.958045$GLGSV,2,2,05,75,24,243,39,,,,,,,,,,,,*5B
###2023-12-09 12:40:15.960399$GAGSV,1,1,04,04,23,311,40,19,82,296,40,21,79,174,46,27,40,049,44*64
###2023-12-09 12:40:15.962756$GBGSV,2,1,05,14,53,197,46,24,80,355,49,25,34,254,43,26,33,058,46*6C
###2023-12-09 12:40:15.964221$GBGSV,2,2,05,33,62,250,47,,,,,,,,,,,,*5E
###2023-12-09 12:40:15.965548$GNVTG,308.99,T,,M,0.76,N,1.40,K,A*2C
###2023-12-09 12:40:15.967210$GNGST,174015.10,18.000,,,,0.079,0.070,0.170*56
###2023-12-09 12:40:15.968506$GNZDA,174015.10,09,12,2023,00,00*76
###2023-12-09 12:40:15.969147$GNEBP,,,,,,M*13
###2023-12-09 12:40:16.139471$GNGGA,174015.30,4138.0569258,N,07032.3828447,W,1,23,0.7,13.285,M,-29.744,M,0.0,*5A
###2023-12-09 12:40:16.340879$GNGGA,174015.50,4138.0569539,N,07032.3828869,W,1,23,0.7,13.286,M,-29.744,M,0.0,*5F
###2023-12-09 12:40:16.540518$GNGGA,174015.70,4138.0569622,N,07032.3828951,W,1,23,0.7,13.293,M,-29.744,M,0.0,*5A
###2023-12-09 12:40:16.740238$GNGGA,174015.90,4138.0569624,N,07032.3828916,W,1,23,0.7,13.286,M,-29.744,M,0.0,*55
###2023-12-09 12:40:16.942690$GNRMC,174016.10,A,4138.0569838,N,07032.3829196,W,1.03,313.98,091223,,,A*50
###2023-12-09 12:40:16.945566$GNGGA,174016.10,4138.0569838,N,07032.3829196,W,1,23,0.7,13.291,M,-29.744,M,0.0,*5A
###2023-12-09 12:40:16.947483$GPGSA,A,3,03,04,16,26,28,29,31,32,,,,,1.2,0.7,1.0*31
###2023-12-09 12:40:16.949168$GLGSA,A,3,71,72,73,74,75,,,,,,,,1.2,0.7,1.0*2D
###2023-12-09 12:40:16.950773$GAGSA,A,3,04,19,21,27,,,,,,,,,1.2,0.7,1.0*2C
###2023-12-09 12:40:16.952426$GBGSA,A,3,14,24,25,26,33,,,,,,,,1.2,0.7,1.0*25
###2023-12-09 12:40:16.954771$GPGSV,2,1,08,03,38,274,43,04,24,311,41,16,39,208,42,26,69,207,47*74
###2023-12-09 12:40:16.957111$GPGSV,2,2,08,28,56,059,45,29,25,071,45,31,73,010,47,32,28,135,45*77
###2023-12-09 12:40:16.959462$GLGSV,2,1,05,71,54,170,48,72,68,305,45,73,45,035,46,74,71,299,43*63
###2023-12-09 12:40:16.960920$GLGSV,2,2,05,75,24,243,39,,,,,,,,,,,,*5B
###2023-12-09 12:40:16.963265$GAGSV,1,1,04,04,23,311,40,19,82,296,41,21,79,174,45,27,40,049,44*66
###2023-12-09 12:40:16.965597$GBGSV,2,1,05,14,53,197,45,24,80,355,48,25,34,254,42,26,33,058,45*6C
###2023-12-09 12:40:16.967072$GBGSV,2,2,05,33,62,250,47,,,,,,,,,,,,*5E
###2023-12-09 12:40:16.968401$GNVTG,313.98,T,,M,1.03,N,1.91,K,A*28
###2023-12-09 12:40:16.970057$GNGST,174016.10,18.000,,,,0.078,0.069,0.170*5C
###2023-12-09 12:40:16.971362$GNZDA,174016.10,09,12,2023,00,00*75
###2023-12-09 12:40:16.972242$GNEBP,,,,,,M*13
###2023-12-09 12:40:17.139511$GNGGA,174016.30,4138.0570258,N,07032.3829812,W,1,23,0.7,13.306,M,-29.744,M,0.0,*56
###2023-12-09 12:40:17.340961$GNGGA,174016.50,4138.0570514,N,07032.3830175,W,1,23,0.7,13.295,M,-29.744,M,0.0,*54
###2023-12-09 12:40:17.542168$GNGGA,174016.70,4138.0570465,N,07032.3830053,W,1,23,0.7,13.289,M,-29.744,M,0.0,*59
###2023-12-09 12:40:17.740855$GNGGA,174016.90,4138.0570498,N,07032.3830054,W,1,23,0.7,13.295,M,-29.744,M,0.0,*5F
###2023-12-09 12:40:17.941606$GNRMC,174017.10,A,4138.0570860,N,07032.3830594,W,1.30,312.87,091223,,,A*55
###2023-12-09 12:40:17.944505$GNGGA,174017.10,4138.0570860,N,07032.3830594,W,1,23,0.7,13.329,M,-29.744,M,0.0,*52
###2023-12-09 12:40:17.946368$GPGSA,A,3,03,04,16,26,28,29,31,32,,,,,1.2,0.7,1.0*31
