###2023-12-09 12:33:11.956467$GNZDA,173311.10,09,12,2023,00,00*76
###2023-12-09 12:33:11.957144$GNEBP,,,,,,M*13
###2023-12-09 12:33:12.130778$GNGGA,173311.30,4138.0455275,N,07032.4311592,W,1,18,0.7,12.960,M,-29.745,M,0.0,*5C
###2023-12-09 12:33:12.330078$GNGGA,173311.50,4138.0455306,N,07032.4311363,W,1,20,0.7,12.950,M,-29.745,M,0.0,*5F
###2023-12-09 12:33:12.531202$GNGGA,173311.70,4138.0455335,N,07032.4311330,W,1,18,0.7,12.961,M,-29.745,M,0.0,*52
###2023-12-09 12:33:12.730230$GNGGA,173311.90,4138.0455378,N,07032.4311288,W,1,18,0.7,12.976,M,-29.745,M,0.0,*51
###2023-12-09 12:33:12.932925$GNRMC,173312.10,A,4138.0455426,N,07032.4311045,W,0.41,316.77,091223,,,A*56
###2023-12-09 12:33:12.935800$GNGGA,173312.10,4138.0455426,N,07032.4311045,W,1,20,0.7,12.966,M,-29.745,M,0.0,*5F
###2023-12-09 12:33:12.937601$GPGSA,A,3,04,16,26,28,29,31,32,,,,,,1.2,0.7,1.0*32
###2023-12-09 12:33:12.939272$GLGSA,A,3,71,72,73,74,75,,,,,,,,1.2,0.7,1.0*2D
###2023-12-09 12:33:12.940858$GAGSA,A,3,04,19,21,27,,,,,,,,,1.2,0.7,1.0*2C
###2023-12-09 12:33:12.942447$GBGSA,A,3,14,24,26,33,,,,,,,,,1.2,0.7,1.0*22
###2023-12-09 12:33:12.944795$GPGSV,2,1,07,04,21,310,40,16,36,207,39,26,65,206,46,28,58,055,46*75
###2023-12-09 12:33:12.946861$GPGSV,2,2,07,29,25,075,42,31,73,358,46,32,31,134,44,,,,*49
###2023-12-09 12:33:12.949216$GLGSV,2,1,05,71,58,169,49,72,65,311,37,73,49,033,47,74,71,287,36*6D
###2023-12-09 12:33:12.950710$GLGSV,2,2,05,75,21,240,36,,,,,,,,,,,,*52
###2023-12-09 12:33:12.953037$GAGSV,1,1,04,04,20,311,38,19,80,306,36,21,76,177,47,27,42,050,43*63
###2023-12-09 12:33:12.955381$GBGSV,1,1,04,14,56,198,43,24,81,339,46,26,36,057,46,33,63,257,35*68
###2023-12-09 12:33:12.956713$GNVTG,316.77,T,,M,0.41,N,0.76,K,A*23
###2023-12-09 12:33:12.958367$GNGST,173312.10,19.000,,,,0.120,0.110,0.250*5F
###2023-12-09 12:33:12.959691$GNZDA,173312.10,09,12,2023,00,00*75
###2023-12-09 12:33:12.960341$GNEBP,,,,,,M*13
###2023-12-09 12:33:13.142612$GNGGA,173312.30,4138.0455496,N,07032.4310885,W,1,20,0.8,12.966,M,-29.745,M,0.0,*5C
###2023-12-09 12:33:13.330530$GNGGA,173312.50,4138.0455826,N,07032.4310946,W,1,20,0.8,12.990,M,-29.745,M,0.0,*5A
###2023-12-09 12:33:13.533650$GNGGA,173312.70,4138.0456087,N,07032.4310910,W,1,20,0.8,13.010,M,-29.745,M,0.0,*5B
###2023-12-09 12:33:13.730866$GNGGA,173312.90,4138.0456275,N,07032.4310939,W,1,21,0.7,13.038,M,-29.745,M,0.0,*55
###2023-12-09 12:33:13.929874$GNRMC,173313.10,A,4138.0456452,N,07032.4310878,W,0.29,316.77,091223,,,A*5E
###2023-12-09 12:33:13.932946$GNGGA,173313.10,4138.0456452,N,07032.4310878,W,1,22,0.7,13.053,M,-29.745,M,0.0,*55
###2023-12-09 12:33:13.934933$GPGSA,A,3,04,16,26,28,29,31,32,,,,,,1.2,0.7,1.0*32
###2023-12-09 12:33:13.936750$GLGSA,A,3,71,72,73,74,75,,,,,,,,1.2,0.7,1.0*2D
###2023-12-09 12:33:13.938487$GAGSA,A,3,04,19,21,27,,,,,,,,,1.2,0.7,1.0*2C
###2023-12-09 12:33:13.940307$GBGSA,A,3,14,24,25,26,33,,,,,,,,1.2,0.7,1.0*25
###2023-12-09 12:33:13.942816$GPGSV,2,1,07,04,21,310,42,16,36,207,41,26,65,206,48,28,58,055,45*75
###2023-12-09 12:33:13.945028$GPGSV,2,2,07,29,25,075,43,31,73,358,47,32,31,134,46,,,,*4B
###2023-12-09 12:33:13.947525$GLGSV,2,1,05,71,58,169,47,72,65,311,41,73,49,033,45,74,71,287,38*6E
###2023-12-09 12:33:13.949197$GLGSV,2,2,05,75,21,240,38,,,,,,,,,,,,*5C
###2023-12-09 12:33:13.951705$GAGSV,1,1,04,04,20,311,40,19,80,306,40,21,76,177,47,27,42,050,44*6A
###2023-12-09 12:33:13.954154$GBGSV,2,1,05,14,56,198,46,24,81,339,48,25,32,252,38,26,36,057,45*69
###2023-12-09 12:33:13.955735$GBGSV,2,2,05,33,63,257,45,,,,,,,,,,,,*5A
###2023-12-09 12:33:13.957168$GNVTG,316.77,T,,M,0.29,N,0.54,K,A*2D
###2023-12-09 12:33:13.958936$GNGST,173313.10,20.000,,,,0.230,0.210,0.320*53
###2023-12-09 12:33:13.960339$GNZDA,173313.10,09,12,2023,00,00*74
###2023-12-09 12:33:13.961084$GNEBP,,,,,,M*13
###2023-12-09 12:33:14.129653$GNGGA,173313.30,4138.0456637,N,07032.4310641,W,1,22,0.7,13.082,M,-29.745,M,0.0,*5E
###2023-12-09 12:33:14.331089$GNGGA,173313.50,4138.0456785,N,07032.4310498,W,1,22,0.7,13.103,M,-29.745,M,0.0,*5E
###2023-12-09 12:33:14.530010$GNGGA,173313.70,4138.0456842,N,07032.4310529,W,1,22,0.7,13.119,M,-29.745,M,0.0,*58
###2023-12-09 12:33:14.729678$GNGGA,173313.90,4138.0456904,N,07032.4310431,W,1,22,0.7,13.134,M,-29.745,M,0.0,*52
###2023-12-09 12:33:14.933088$GNRMC,173314.10,A,4138.0456974,N,07032.4310370,W,0.12,316.77,091223,,,A*5B
###2023-12-09 12:33:14.936986$GNGGA,173314.10,4138.0456974,N,07032.4310370,W,1,22,0.7,13.139,M,-29.745,M,0.0,*55
###2023-12-09 12:33:14.939352$GPGSA,A,3,04,16,26,28,29,31,32,,,,,,1.2,0.7,1.0*32
###2023-12-09 12:33:14.941494$GLGSA,A,3,71,72,73,74,75,,,,,,,,1.2,0.7,1.0*2D
###2023-12-09 12:33:14.943567$GAGSA,A,3,04,19,21,27,,,,,,,,,1.2,0.7,1.0*2C
###2023-12-09 12:33:14.945701$GBGSA,A,3,14,24,25,26,33,,,,,,,,1.2,0.7,1.0*25
###2023-12-09 12:33:14.948685$GPGSV,2,1,07,04,21,310,38,16,36,207,44,26,65,206,48,28,58,055,45*7D
###2023-12-09 12:33:14.951358$GPGSV,2,2,07,29,25,075,41,31,73,358,47,32,31,134,43,,,,*4C
###2023-12-09 12:33:14.954326$GLGSV,2,1,05,71,58,169,48,72,65,311,43,73,49,033,46,74,71,287,38*60
###2023-12-09 12:33:14.956258$GLGSV,2,2,05,75,21,240,41,,,,,,,,,,,,*52
###2023-12-09 12:33:14.959231$GAGSV,1,1,04,04,20,311,36,19,80,306,40,21,76,177,45,27,42,050,43*6E
###2023-12-09 12:33:14.962202$GBGSV,2,1,05,14,56,198,45,24,81,339,48,25,32,252,46,26,36,057,45*63
###2023-12-09 12:33:14.964138$GBGSV,2,2,05,33,63,257,47,,,,,,,,,,,,*58
###2023-12-09 12:33:14.965867$GNVTG,316.77,T,,M,0.12,N,0.22,K,A*24
###2023-12-09 12:33:14.968021$GNGST,173314.10,20.000,,,,0.200,0.180,0.290*57
###2023-12-09 12:33:14.969712$GNZDA,173314.10,09,12,2023,00,00*73
###2023-12-09 12:33:14.970616$GNEBP,,,,,,M*13
###2023-12-09 12:33:15.131607$GNGGA,173314.30,4138.0457077,N,07032.4310284,W,1,23,0.7,13.166,M,-29.745,M,0.0,*5D
###2023-12-09 12:33:15.330777$GNGGA,173314.50,4138.0457148,N,07032.4310115,W,1,23,0.7,13.188,M,-29.745,M,0.0,*5D
###2023-12-09 12:33:15.530578$GNGGA,173314.70,4138.0457235,N,07032.4309974,W,1,23,0.7,13.176,M,-29.745,M,0.0,*50
###2023-12-09 12:33:15.728127$GNGGA,173314.90,4138.0457293,N,07032.4310043,W,1,23,0.7,13.166,M,-29.745,M,0.0,*56
###2023-12-09 12:33:15.930508$GNRMC,173315.10,A,4138.0457347,N,07032.4310444,W,0.14,316.77,091223,,,A*57
###2023-12-09 12:33:15.933532$GNGGA,173315.10,4138.0457347,N,07032.4310444,W,1,23,0.7,13.165,M,-29.745,M,0.0,*57
###2023-12-09 12:33:15.935527$GPGSA,A,3,03,04,16,26,28,29,31,32,,,,,1.2,0.7,1.0*31
###2023-12-09 12:33:15.937293$GLGSA,A,3,71,72,73,74,75,,,,,,,,1.2,0.7,1.0*2D
###2023-12-09 12:33:15.939011$GAGSA,A,3,04,19,21,27,,,,,,,,,1.2,0.7,1.0*2C
###2023-12-09 12:33:15.940770$GBGSA,A,3,14,24,25,26,33,,,,,,,,1.2,0.7,1.0*25
###2023-12-09 12:33:15.943213$GPGSV,2,1,08,03,39,278,43,04,21,310,38,16,36,207,45,26,65,206,48*76
###2023-12-09 12:33:15.945656$GPGSV,2,2,08,28,58,055,45,29,25,075,41,31,73,358,45,32,31,134,44*70
###2023-12-09 12:33:15.948134$GLGSV,2,1,05,71,58,169,47,72,65,311,41,73,49,033,46,74,71,287,41*63
###2023-12-09 12:33:15.949756$GLGSV,2,2,05,75,21,240,42,,,,,,,,,,,,*51
###2023-12-09 12:33:15.952216$GAGSV,1,1,04,04,20,311,35,19,80,306,38,21,76,177,46,27,42,050,44*66
###2023-12-09 12:33:15.954673$GBGSV,2,1,05,14,56,198,44,24,81,339,46,25,32,252,42,26,36,057,45*68
###2023-12-09 12:33:15.956243$GBGSV,2,2,05,33,63,257,48,,,,,,,,,,,,*57
###2023-12-09 12:33:15.957670$GNVTG,316.77,T,,M,0.14,N,0.25,K,A*25
###2023-12-09 12:33:15.959433$GNGST,173315.10,20.000,,,,0.180,0.160,0.280*52
###2023-12-09 12:33:15.960844$GNZDA,173315.10,09,12,2023,00,00*72
###2023-12-09 12:33:15.961586$GNEBP,,,,,,M*13
###2023-12-09 12:33:16.130024$GNGGA,173315.30,4138.0457395,N,07032.4310526,W,1,23,0.7,13.171,M,-29.745,M,0.0,*5A
###2023-12-09 12:33:16.330053$GNGGA,173315.50,4138.0457401,N,07032.4310451,W,1,23,0.7,13.168,M,-29.745,M,0.0,*5F
###2023-12-09 12:33:16.528780$GNGGA,173315.70,4138.0457489,N,07032.4310589,W,1,23,0.7,13.164,M,-29.745,M,0.0,*55
###2023-12-09 12:33:16.727954$GNGGA,173315.90,4138.0457572,N,07032.4310883,W,1,23,0.7,13.177,M,-29.745,M,0.0,*5B
###2023-12-09 12:33:16.933466$GNRMC,173316.10,A,4138.0457581,N,07032.4310858,W,0.35,316.77,091223,,,A*5A
###2023-12-09 12:33:16.936487$GNGGA,173316.10,4138.0457581,N,07032.4310858,W,1,23,0.7,13.173,M,-29.745,M,0.0,*5E
###2023-12-09 12:33:16.938736$GPGSA,A,3,03,04,16,26,28,29,31,32,,,,,1.2,0.7,1.0*31
###2023-12-09 12:33:16.940519$GLGSA,A,3,71,72,73,74,75,,,,,,,,1.2,0.7,1.0*2D
###2023-12-09 12:33:16.942222$GAGSA,A,3,04,19,21,27,,,,,,,,,1.2,0.7,1.0*2C
###2023-12-09 12:33:16.944003$GBGSA,A,3,14,24,25,26,33,,,,,,,,1.2,0.7,1.0*25
###2023-12-09 12:33:16.946446$GPGSV,2,1,08,03,39,278,41,04,21,310,37,16,36,207,44,26,65,206,47*75
###2023-12-09 12:33:16.948938$GPGSV,2,2,08,28,58,055,45,29,25,075,36,31,73,358,44,32,31,134,44*71
###2023-12-09 12:33:16.951412$GLGSV,2,1,05,71,58,169,47,72,65,311,44,73,49,033,47,74,71,287,44*62
###2023-12-09 12:33:16.952984$GLGSV,2,2,05,75,21,240,42,,,,,,,,,,,,*51
###2023-12-09 12:33:16.955458$GAGSV,1,1,04,04,20,311,35,19,80,306,41,21,76,177,45,27,42,050,43*6C
