###2023-12-09 12:59:34.981698$GPGSV,2,1,08,03,35,262,42,04,32,311,40,16,49,212,46,26,79,210,48*79
###2023-12-09 12:59:34.984589$GPGSV,2,2,08,28,50,070,45,29,25,062,41,31,69,036,47,32,20,139,44*76
###2023-12-09 12:59:34.987451$GLGSV,2,1,06,65,23,328,38,71,42,172,47,72,73,273,45,73,37,041,46*66
###2023-12-09 12:59:34.989569$GLGSV,2,2,06,74,70,334,42,75,31,252,41,,,,,,,,*65
###2023-12-09 12:59:34.992433$GAGSV,1,1,04,04,28,312,38,19,85,226,40,21,85,133,46,27,34,048,42*6B
###2023-12-09 12:59:34.995278$GBGSV,2,1,05,14,44,193,45,24,74,022,48,25,40,261,44,26,27,062,42*6E
###2023-12-09 12:59:34.997075$GBGSV,2,2,05,33,58,234,48,,,,,,,,,,,,*5A
###2023-12-09 12:59:34.998704$GNVTG,288.78,T,,M,3.46,N,6.41,K,A*2C
###2023-12-09 12:59:35.000706$GNGST,175934.10,18.000,,,,0.080,0.069,0.160*52
###2023-12-09 12:59:35.002269$GNZDA,175934.10,09,12,2023,00,00*7D
###2023-12-09 12:59:35.003056$GNEBP,,,,,,M*13
###2023-12-09 12:59:35.164096$GNGGA,175934.30,4138.0199420,N,07032.2704708,W,1,24,0.6,12.874,M,-29.744,M,0.0,*58
###2023-12-09 12:59:35.364254$GNGGA,175934.50,4138.0199746,N,07032.2707135,W,1,24,0.6,12.870,M,-29.744,M,0.0,*52
###2023-12-09 12:59:35.565810$GNGGA,175934.70,4138.0200109,N,07032.2709539,W,1,24,0.6,12.868,M,-29.744,M,0.0,*51
###2023-12-09 12:59:35.764946$GNGGA,175934.90,4138.0200600,N,07032.2711912,W,1,24,0.6,12.869,M,-29.744,M,0.0,*5C
###2023-12-09 12:59:35.966046$GNRMC,175935.10,A,4138.0201098,N,07032.2714234,W,3.19,285.36,091223,,,A*5A
###2023-12-09 12:59:35.968947$GNGGA,175935.10,4138.0201098,N,07032.2714234,W,1,24,0.6,12.867,M,-29.744,M,0.0,*57
###2023-12-09 12:59:35.970817$GPGSA,A,3,03,04,16,26,28,29,31,32,,,,,1.1,0.6,0.9*3B
###2023-12-09 12:59:35.972530$GLGSA,A,3,65,71,72,73,74,75,,,,,,,1.1,0.6,0.9*24
###2023-12-09 12:59:35.974109$GAGSA,A,3,04,19,21,27,,,,,,,,,1.1,0.6,0.9*26
###2023-12-09 12:59:35.975765$GBGSA,A,3,14,24,25,26,33,,,,,,,,1.1,0.6,0.9*2F
###2023-12-09 12:59:35.978094$GPGSV,2,1,08,03,35,262,42,04,32,311,39,16,49,212,45,26,79,210,48*74
###2023-12-09 12:59:35.980431$GPGSV,2,2,08,28,50,070,45,29,25,062,41,31,69,036,47,32,19,140,44*72
###2023-12-09 12:59:35.982768$GLGSV,2,1,06,65,23,328,38,71,42,172,47,72,73,273,45,73,37,041,46*66
###2023-12-09 12:59:35.984512$GLGSV,2,2,06,74,70,334,42,75,31,252,41,,,,,,,,*65
###2023-12-09 12:59:35.986847$GAGSV,1,1,04,04,28,312,38,19,85,226,40,21,85,133,46,27,34,048,42*6B
###2023-12-09 12:59:35.989171$GBGSV,2,1,05,14,44,193,45,24,74,022,48,25,40,261,44,26,27,062,42*6E
###2023-12-09 12:59:35.990634$GBGSV,2,2,05,33,58,234,47,,,,,,,,,,,,*55
###2023-12-09 12:59:35.991954$GNVTG,285.36,T,,M,3.19,N,5.90,K,A*2E
###2023-12-09 12:59:35.993600$GNGST,175935.10,18.000,,,,0.081,0.069,0.160*52
###2023-12-09 12:59:35.994901$GNZDA,175935.10,09,12,2023,00,00*7C
###2023-12-09 12:59:35.995536$GNEBP,,,,,,M*13
###2023-12-09 12:59:36.164116$GNGGA,175935.30,4138.0201416,N,07032.2716602,W,1,24,0.6,12.855,M,-29.744,M,0.0,*55
###2023-12-09 12:59:36.363539$GNGGA,175935.50,4138.0201638,N,07032.2718954,W,1,24,0.6,12.844,M,-29.744,M,0.0,*5F
###2023-12-09 12:59:36.564176$GNGGA,175935.70,4138.0202066,N,07032.2721320,W,1,24,0.6,12.870,M,-29.744,M,0.0,*57
###2023-12-09 12:59:36.764448$GNGGA,175935.90,4138.0202543,N,07032.2723840,W,1,24,0.6,12.880,M,-29.744,M,0.0,*5B
###2023-12-09 12:59:36.965907$GNRMC,175936.10,A,4138.0202698,N,07032.2726336,W,3.34,268.91,091223,,,A*5F
###2023-12-09 12:59:36.968793$GNGGA,175936.10,4138.0202698,N,07032.2726336,W,1,24,0.6,12.875,M,-29.744,M,0.0,*50
###2023-12-09 12:59:36.970663$GPGSA,A,3,03,04,16,26,28,29,31,32,,,,,1.1,0.6,0.9*3B
###2023-12-09 12:59:36.972375$GLGSA,A,3,65,71,72,73,74,75,,,,,,,1.1,0.6,0.9*24
###2023-12-09 12:59:36.973944$GAGSA,A,3,04,19,21,27,,,,,,,,,1.1,0.6,0.9*26
###2023-12-09 12:59:36.975598$GBGSA,A,3,14,24,25,26,33,,,,,,,,1.1,0.6,0.9*2F
###2023-12-09 12:59:36.977912$GPGSV,2,1,08,03,35,262,42,04,32,311,42,16,49,212,46,26,79,210,47*74
###2023-12-09 12:59:36.980245$GPGSV,2,2,08,28,50,070,46,29,25,062,42,31,69,036,47,32,19,140,43*75
###2023-12-09 12:59:36.982574$GLGSV,2,1,06,65,23,328,40,71,42,172,46,72,73,273,45,73,37,041,45*6B
###2023-12-09 12:59:36.984329$GLGSV,2,2,06,74,70,334,42,75,31,252,41,,,,,,,,*65
###2023-12-09 12:59:36.986660$GAGSV,1,1,04,04,28,312,40,19,85,226,40,21,85,133,45,27,34,048,42*67
###2023-12-09 12:59:36.988992$GBGSV,2,1,05,14,44,193,44,24,74,022,48,25,40,261,43,26,27,062,42*68
###2023-12-09 12:59:36.990444$GBGSV,2,2,05,33,58,234,47,,,,,,,,,,,,*55
###2023-12-09 12:59:36.991783$GNVTG,268.91,T,,M,3.34,N,6.19,K,A*2D
###2023-12-09 12:59:36.993438$GNGST,175936.10,18.000,,,,0.081,0.070,0.160*59
###2023-12-09 12:59:36.994747$GNZDA,175936.10,09,12,2023,00,00*7F
###2023-12-09 12:59:36.995388$GNEBP,,,,,,M*13
###2023-12-09 12:59:37.163111$GNGGA,175936.30,4138.0202707,N,07032.2728890,W,1,24,0.6,12.877,M,-29.744,M,0.0,*5E
###2023-12-09 12:59:37.363888$GNGGA,175936.50,4138.0202802,N,07032.2731536,W,1,24,0.6,12.873,M,-29.744,M,0.0,*5F
###2023-12-09 12:59:37.564169$GNGGA,175936.70,4138.0202798,N,07032.2734219,W,1,24,0.6,12.864,M,-29.744,M,0.0,*58
###2023-12-09 12:59:37.763143$GNGGA,175936.90,4138.0202807,N,07032.2736910,W,1,24,0.6,12.867,M,-29.744,M,0.0,*5C
###2023-12-09 12:59:37.966122$GNRMC,175937.10,A,4138.0202827,N,07032.2739573,W,3.58,269.05,091223,,,A*5B
###2023-12-09 12:59:37.969007$GNGGA,175937.10,4138.0202827,N,07032.2739573,W,1,24,0.6,12.876,M,-29.744,M,0.0,*51
###2023-12-09 12:59:37.970881$GPGSA,A,3,03,04,16,26,28,29,31,32,,,,,1.1,0.6,0.9*3B
###2023-12-09 12:59:37.972591$GLGSA,A,3,65,71,72,73,74,75,,,,,,,1.1,0.6,0.9*24
###2023-12-09 12:59:37.974170$GAGSA,A,3,04,19,21,27,,,,,,,,,1.1,0.6,0.9*26
###2023-12-09 12:59:37.975822$GBGSA,A,3,14,24,25,26,33,,,,,,,,1.1,0.6,0.9*2F
###2023-12-09 12:59:37.978139$GPGSV,2,1,08,03,35,262,42,04,32,311,42,16,49,212,47,26,79,210,48*7A
###2023-12-09 12:59:37.980479$GPGSV,2,2,08,28,50,070,45,29,25,062,42,31,69,036,48,32,19,140,44*7E
###2023-12-09 12:59:37.982816$GLGSV,2,1,06,65,23,328,40,71,42,172,46,72,73,273,45,73,37,041,46*68
###2023-12-09 12:59:37.984562$GLGSV,2,2,06,74,70,334,42,75,31,252,41,,,,,,,,*65
###2023-12-09 12:59:37.986890$GAGSV,1,1,04,04,28,312,40,19,85,226,40,21,85,133,46,27,34,048,42*64
###2023-12-09 12:59:37.989222$GBGSV,2,1,05,14,44,193,44,24,74,022,48,25,40,261,44,26,27,062,43*6E
###2023-12-09 12:59:37.990685$GBGSV,2,2,05,33,58,234,47,,,,,,,,,,,,*55
###2023-12-09 12:59:37.992003$GNVTG,269.05,T,,M,3.58,N,6.62,K,A*27
###2023-12-09 12:59:37.993644$GNGST,175937.10,18.000,,,,0.081,0.069,0.160*50
###2023-12-09 12:59:37.994941$GNZDA,175937.10,09,12,2023,00,00*7E
###2023-12-09 12:59:37.995578$GNEBP,,,,,,M*13
###2023-12-09 12:59:38.163071$GNGGA,175937.30,4138.0202836,N,07032.2742236,W,1,24,0.6,12.864,M,-29.744,M,0.0,*5A
###2023-12-09 12:59:38.364224$GNGGA,175937.50,4138.0202861,N,07032.2744865,W,1,24,0.6,12.842,M,-29.744,M,0.0,*50
###2023-12-09 12:59:38.565157$GNGGA,175937.70,4138.0202988,N,07032.2747456,W,1,24,0.6,12.839,M,-29.744,M,0.0,*57
###2023-12-09 12:59:38.764880$GNGGA,175937.90,4138.0203196,N,07032.2750009,W,1,24,0.6,12.846,M,-29.744,M,0.0,*5F
###2023-12-09 12:59:38.966360$GNRMC,175938.10,A,4138.0203486,N,07032.2752449,W,3.19,279.29,091223,,,A*5D
###2023-12-09 12:59:38.969856$GNGGA,175938.10,4138.0203486,N,07032.2752449,W,1,24,0.6,12.841,M,-29.744,M,0.0,*59
###2023-12-09 12:59:38.972126$GPGSA,A,3,03,04,16,26,28,29,31,32,,,,,1.1,0.6,0.9*3B
###2023-12-09 12:59:38.974195$GLGSA,A,3,65,71,72,73,74,75,,,,,,,1.1,0.6,0.9*24
###2023-12-09 12:59:38.976125$GAGSA,A,3,04,19,21,27,,,,,,,,,1.1,0.6,0.9*26
###2023-12-09 12:59:38.978120$GBGSA,A,3,14,24,25,26,33,,,,,,,,1.1,0.6,0.9*2F
###2023-12-09 12:59:38.980972$GPGSV,2,1,08,03,35,262,41,04,32,311,39,16,49,212,45,26,79,210,47*78
###2023-12-09 12:59:38.983801$GPGSV,2,2,08,28,50,070,44,29,25,062,40,31,69,036,46,32,19,140,42*75
###2023-12-09 12:59:38.986633$GLGSV,2,1,06,65,23,328,39,71,42,172,47,72,73,273,45,73,37,041,46*67
###2023-12-09 12:59:38.988744$GLGSV,2,2,06,74,70,334,42,75,31,252,42,,,,,,,,*66
###2023-12-09 12:59:38.991572$GAGSV,1,1,04,04,28,312,38,19,85,226,40,21,85,133,45,27,34,048,42*68
###2023-12-09 12:59:38.994386$GBGSV,2,1,05,14,44,193,45,24,74,022,49,25,40,261,44,26,27,062,42*6F
###2023-12-09 12:59:38.996155$GBGSV,2,2,05,33,58,234,48,,,,,,,,,,,,*5A
###2023-12-09 12:59:38.998055$GNVTG,279.29,T,,M,3.19,N,5.90,K,A*23
###2023-12-09 12:59:39.000083$GNGST,175938.10,18.000,,,,0.081,0.070,0.160*57
###2023-12-09 12:59:39.001654$GNZDA,175938.10,09,12,2023,00,00*71
###2023-12-09 12:59:39.002427$GNEBP,,,,,,M*13
###2023-12-09 12:59:39.167357$GNGGA,175938.30,4138.0203839,N,07032.2754827,W,1,24,0.6,12.847,M,-29.744,M,0.0,*57
###2023-12-09 12:59:39.365362$GNGGA,175938.50,4138.0204245,N,07032.2757293,W,1,24,0.6,12.845,M,-29.744,M,0.0,*53
###2023-12-09 12:59:39.564907$GNGGA,175938.70,4138.0204715,N,07032.2759723,W,1,24,0.6,12.833,M,-29.744,M,0.0,*50
###2023-12-09 12:59:39.766175$GNGGA,175938.90,4138.0205232,N,07032.2762159,W,1,24,0.6,12.840,M,-29.744,M,0.0,*58
###2023-12-09 12:59:39.964399$GNRMC,175939.10,A,4138.0205711,N,07032.2764681,W,3.50,283.53,091223,,,A*51
