###2023-12-09 12:45:07.972857$GNVTG,68.07,T,,M,2.88,N,5.33,K,A*1D
###2023-12-09 12:45:07.974540$GNGST,174507.10,18.000,,,,0.078,0.069,0.160*58
###2023-12-09 12:45:07.975876$GNZDA,174507.10,09,12,2023,00,00*70
###2023-12-09 12:45:07.976531$GNEBP,,,,,,M*13
###2023-12-09 12:45:08.147927$GNGGA,174507.30,4138.0428535,N,07032.3904656,W,1,24,0.6,13.368,M,-29.745,M,0.0,*5C
###2023-12-09 12:45:08.348222$GNGGA,174507.50,4138.0429013,N,07032.3902611,W,1,24,0.6,13.376,M,-29.745,M,0.0,*50
###2023-12-09 12:45:08.545565$GNGGA,174507.70,4138.0429575,N,07032.3900483,W,1,24,0.6,13.390,M,-29.745,M,0.0,*54
###2023-12-09 12:45:08.743774$GNGGA,174507.90,4138.0430145,N,07032.3898323,W,1,24,0.6,13.366,M,-29.745,M,0.0,*51
###2023-12-09 12:45:08.953321$GNRMC,174508.10,A,4138.0430878,N,07032.3896376,W,2.99,57.35,091223,,,A*6F
###2023-12-09 12:45:08.956216$GNGGA,174508.10,4138.0430878,N,07032.3896376,W,1,24,0.6,13.369,M,-29.745,M,0.0,*50
###2023-12-09 12:45:08.958076$GPGSA,A,3,03,04,16,26,28,29,31,32,,,,,1.1,0.6,0.9*3B
###2023-12-09 12:45:08.959829$GLGSA,A,3,65,71,72,73,74,75,,,,,,,1.1,0.6,0.9*24
###2023-12-09 12:45:08.961422$GAGSA,A,3,04,19,21,27,,,,,,,,,1.1,0.6,0.9*26
###2023-12-09 12:45:08.963089$GBGSA,A,3,14,24,25,26,33,,,,,,,,1.1,0.6,0.9*2F
###2023-12-09 12:45:08.965419$GPGSV,2,1,08,03,38,271,43,04,25,311,42,16,41,209,45,26,71,208,48*73
###2023-12-09 12:45:08.967766$GPGSV,2,2,08,28,55,061,44,29,26,069,41,31,72,015,47,32,26,136,43*7F
###2023-12-09 12:45:08.970087$GLGSV,2,1,06,65,17,329,42,71,50,171,48,72,70,297,46,73,43,037,45*69
###2023-12-09 12:45:08.971839$GLGSV,2,2,06,74,71,310,42,75,26,245,45,,,,,,,,*66
###2023-12-09 12:45:08.974159$GAGSV,1,1,04,04,24,312,41,19,84,283,41,21,81,168,46,27,38,049,41*62
###2023-12-09 12:45:08.976492$GBGSV,2,1,05,14,50,195,45,24,78,005,49,25,36,256,46,26,31,059,42*6D
###2023-12-09 12:45:08.977950$GBGSV,2,2,05,33,61,245,48,,,,,,,,,,,,*56
###2023-12-09 12:45:08.979251$GNVTG,57.35,T,,M,2.99,N,5.54,K,A*11
###2023-12-09 12:45:08.980889$GNGST,174508.10,18.000,,,,0.077,0.069,0.160*58
###2023-12-09 12:45:08.982172$GNZDA,174508.10,09,12,2023,00,00*7F
###2023-12-09 12:45:08.982823$GNEBP,,,,,,M*13
###2023-12-09 12:45:09.150591$GNGGA,174508.30,4138.0431669,N,07032.3894361,W,1,24,0.6,13.384,M,-29.745,M,0.0,*5A
###2023-12-09 12:45:09.346382$GNGGA,174508.50,4138.0432362,N,07032.3892183,W,1,24,0.6,13.373,M,-29.745,M,0.0,*51
###2023-12-09 12:45:09.546576$GNGGA,174508.70,4138.0433239,N,07032.3890300,W,1,24,0.6,13.375,M,-29.745,M,0.0,*50
###2023-12-09 12:45:09.748986$GNGGA,174508.90,4138.0434292,N,07032.3888385,W,1,24,0.6,13.385,M,-29.745,M,0.0,*53
###2023-12-09 12:45:09.943863$GNRMC,174509.10,A,4138.0435187,N,07032.3886382,W,2.88,55.02,091223,,,A*6E
###2023-12-09 12:45:09.946734$GNGGA,174509.10,4138.0435187,N,07032.3886382,W,1,24,0.6,13.360,M,-29.745,M,0.0,*5E
###2023-12-09 12:45:09.948595$GPGSA,A,3,03,04,16,26,28,29,31,32,,,,,1.1,0.6,0.9*3B
###2023-12-09 12:45:09.950305$GLGSA,A,3,65,71,72,73,74,75,,,,,,,1.1,0.6,0.9*24
###2023-12-09 12:45:09.951900$GAGSA,A,3,04,19,21,27,,,,,,,,,1.1,0.6,0.9*26
###2023-12-09 12:45:09.953545$GBGSA,A,3,14,24,25,26,33,,,,,,,,1.1,0.6,0.9*2F
###2023-12-09 12:45:09.955880$GPGSV,2,1,08,03,38,271,43,04,25,311,42,16,41,209,46,26,71,208,48*70
###2023-12-09 12:45:09.958207$GPGSV,2,2,08,28,55,061,44,29,26,069,40,31,72,015,47,32,26,136,44*79
###2023-12-09 12:45:09.960545$GLGSV,2,1,06,65,17,329,43,71,50,171,48,72,70,297,46,73,43,037,43*6E
###2023-12-09 12:45:09.962285$GLGSV,2,2,06,74,71,310,43,75,26,245,44,,,,,,,,*66
###2023-12-09 12:45:09.964618$GAGSV,1,1,04,04,24,312,42,19,84,283,41,21,81,168,46,27,38,049,41*61
###2023-12-09 12:45:09.966949$GBGSV,2,1,05,14,50,195,45,24,78,005,48,25,36,256,44,26,31,059,43*6F
###2023-12-09 12:45:09.968400$GBGSV,2,2,05,33,61,245,48,,,,,,,,,,,,*56
###2023-12-09 12:45:09.969683$GNVTG,55.02,T,,M,2.88,N,5.33,K,A*16
###2023-12-09 12:45:09.971334$GNGST,174509.10,18.000,,,,0.077,0.069,0.160*59
###2023-12-09 12:45:09.972624$GNZDA,174509.10,09,12,2023,00,00*7E
###2023-12-09 12:45:09.973262$GNEBP,,,,,,M*13
###2023-12-09 12:45:10.142235$GNGGA,174509.30,4138.0436386,N,07032.3884843,W,1,24,0.6,13.384,M,-29.745,M,0.0,*52
###2023-12-09 12:45:10.344318$GNGGA,174509.50,4138.0437558,N,07032.3883017,W,1,24,0.6,13.392,M,-29.745,M,0.0,*59
###2023-12-09 12:45:10.543190$GNGGA,174509.70,4138.0438652,N,07032.3881164,W,1,24,0.6,13.357,M,-29.745,M,0.0,*53
###2023-12-09 12:45:10.742678$GNGGA,174509.90,4138.0440022,N,07032.3879737,W,1,24,0.6,13.366,M,-29.745,M,0.0,*56
###2023-12-09 12:45:10.944915$GNRMC,174510.10,A,4138.0441479,N,07032.3878397,W,3.19,38.77,091223,,,A*64
###2023-12-09 12:45:10.947839$GNGGA,174510.10,4138.0441479,N,07032.3878397,W,1,24,0.6,13.399,M,-29.745,M,0.0,*52
###2023-12-09 12:45:10.949721$GPGSA,A,3,03,04,16,26,28,29,31,32,,,,,1.1,0.6,0.9*3B
###2023-12-09 12:45:10.951461$GLGSA,A,3,65,71,72,73,74,75,,,,,,,1.1,0.6,0.9*24
###2023-12-09 12:45:10.953047$GAGSA,A,3,04,19,21,27,,,,,,,,,1.1,0.6,0.9*26
###2023-12-09 12:45:10.954717$GBGSA,A,3,14,24,25,26,33,,,,,,,,1.1,0.6,0.9*2F
###2023-12-09 12:45:10.957048$GPGSV,2,1,08,03,38,271,44,04,25,311,43,16,41,209,46,26,71,208,48*76
###2023-12-09 12:45:10.959403$GPGSV,2,2,08,28,55,061,43,29,26,069,38,31,72,015,47,32,26,136,42*77
###2023-12-09 12:45:10.961741$GLGSV,2,1,06,65,17,329,43,71,50,171,47,72,70,297,46,73,43,037,42*60
###2023-12-09 12:45:10.963514$GLGSV,2,2,06,74,71,310,42,75,26,245,44,,,,,,,,*67
###2023-12-09 12:45:10.965848$GAGSV,1,1,04,04,24,312,44,19,84,283,41,21,81,168,46,27,38,049,41*67
###2023-12-09 12:45:10.968230$GBGSV,2,1,05,14,50,195,44,24,78,005,48,25,36,256,45,26,31,059,41*6D
###2023-12-09 12:45:10.969697$GBGSV,2,2,05,33,61,245,48,,,,,,,,,,,,*56
###2023-12-09 12:45:10.971001$GNVTG,38.77,T,,M,3.19,N,5.90,K,A*1F
###2023-12-09 12:45:10.972654$GNGST,174510.10,18.000,,,,0.077,0.069,0.160*51
###2023-12-09 12:45:10.973953$GNZDA,174510.10,09,12,2023,00,00*76
###2023-12-09 12:45:10.974612$GNEBP,,,,,,M*13
###2023-12-09 12:45:11.143350$GNGGA,174510.30,4138.0442845,N,07032.3876765,W,1,24,0.6,13.403,M,-29.745,M,0.0,*53
###2023-12-09 12:45:11.344254$GNGGA,174510.50,4138.0444247,N,07032.3875096,W,1,24,0.6,13.366,M,-29.745,M,0.0,*57
###2023-12-09 12:45:11.543185$GNGGA,174510.70,4138.0445815,N,07032.3873930,W,1,24,0.6,13.359,M,-29.745,M,0.0,*56
###2023-12-09 12:45:11.742937$GNGGA,174510.90,4138.0447453,N,07032.3872976,W,1,24,0.6,13.378,M,-29.745,M,0.0,*54
###2023-12-09 12:45:11.943871$GNRMC,174511.10,A,4138.0449033,N,07032.3871788,W,3.30,33.95,091223,,,A*68
###2023-12-09 12:45:11.946773$GNGGA,174511.10,4138.0449033,N,07032.3871788,W,1,24,0.6,13.393,M,-29.745,M,0.0,*58
###2023-12-09 12:45:11.948685$GPGSA,A,3,03,04,16,26,28,29,31,32,,,,,1.1,0.6,0.9*3B
###2023-12-09 12:45:11.950424$GLGSA,A,3,65,71,72,73,74,75,,,,,,,1.1,0.6,0.9*24
###2023-12-09 12:45:11.952036$GAGSA,A,3,04,19,21,27,,,,,,,,,1.1,0.6,0.9*26
###2023-12-09 12:45:11.953690$GBGSA,A,3,14,24,25,26,33,,,,,,,,1.1,0.6,0.9*2F
###2023-12-09 12:45:11.956037$GPGSV,2,1,08,03,38,271,46,04,25,311,42,16,41,209,46,26,71,208,49*74
###2023-12-09 12:45:11.958383$GPGSV,2,2,08,28,55,061,43,29,26,069,39,31,72,015,46,32,26,136,40*75
###2023-12-09 12:45:11.960731$GLGSV,2,1,06,65,17,329,43,71,50,171,46,72,70,297,46,73,43,037,43*60
###2023-12-09 12:45:11.962483$GLGSV,2,2,06,74,71,310,42,75,26,245,43,,,,,,,,*60
###2023-12-09 12:45:11.964822$GAGSV,1,1,04,04,24,312,43,19,84,283,41,21,81,168,46,27,38,049,41*60
###2023-12-09 12:45:11.967170$GBGSV,2,1,05,14,50,195,45,24,78,005,48,25,36,256,46,26,31,059,40*6E
###2023-12-09 12:45:11.968627$GBGSV,2,2,05,33,61,245,49,,,,,,,,,,,,*57
###2023-12-09 12:45:11.969918$GNVTG,33.95,T,,M,3.30,N,6.12,K,A*1A
###2023-12-09 12:45:11.971586$GNGST,174511.10,18.000,,,,0.077,0.070,0.160*58
###2023-12-09 12:45:11.972876$GNZDA,174511.10,09,12,2023,00,00*77
###2023-12-09 12:45:11.973516$GNEBP,,,,,,M*13
###2023-12-09 12:45:12.143548$GNGGA,174511.30,4138.0450639,N,07032.3870582,W,1,24,0.6,13.390,M,-29.745,M,0.0,*54
###2023-12-09 12:45:12.343255$GNGGA,174511.50,4138.0452321,N,07032.3869582,W,1,24,0.6,13.372,M,-29.745,M,0.0,*58
###2023-12-09 12:45:12.544116$GNGGA,174511.70,4138.0454000,N,07032.3868999,W,1,24,0.6,13.358,M,-29.745,M,0.0,*53
###2023-12-09 12:45:12.743640$GNGGA,174511.90,4138.0455694,N,07032.3868467,W,1,24,0.6,13.370,M,-29.745,M,0.0,*51
###2023-12-09 12:45:12.944810$GNRMC,174512.10,A,4138.0457425,N,07032.3867933,W,3.34,9.81,091223,,,A*56
###2023-12-09 12:45:12.947683$GNGGA,174512.10,4138.0457425,N,07032.3867933,W,1,24,0.6,13.399,M,-29.745,M,0.0,*54
###2023-12-09 12:45:12.949549$GPGSA,A,3,03,04,16,26,28,29,31,32,,,,,1.1,0.6,0.9*3B
###2023-12-09 12:45:12.951278$GLGSA,A,3,65,71,72,73,74,75,,,,,,,1.1,0.6,0.9*24
###2023-12-09 12:45:12.952863$GAGSA,A,3,04,19,21,27,,,,,,,,,1.1,0.6,0.9*26
###2023-12-09 12:45:12.954504$GBGSA,A,3,14,24,25,26,33,,,,,,,,1.1,0.6,0.9*2F
###2023-12-09 12:45:12.956841$GPGSV,2,1,08,03,38,271,46,04,25,311,42,16,41,209,46,26,71,208,48*75
###2023-12-09 12:45:12.959186$GPGSV,2,2,08,28,55,061,43,29,26,069,41,31,72,015,46,32,26,136,42*78
