###2023-12-09 13:32:40.991832$GNRMC,183240.10,A,4138.0343733,N,07032.4163177,W,2.92,173.49,091223,,,A*5F
###2023-12-09 13:32:40.994910$GNGGA,183240.10,4138.0343733,N,07032.4163177,W,1,22,0.8,13.834,M,-29.746,M,0.0,*5F
###2023-12-09 13:32:40.996714$GPGSA,A,3,04,16,26,28,29,31,,,,,,,1.3,0.8,1.0*3D
###2023-12-09 13:32:40.998417$GLGSA,A,3,65,72,73,74,75,83,,,,,,,1.3,0.8,1.0*2D
###2023-12-09 13:32:41.000013$GAGSA,A,3,04,19,21,27,,,,,,,,,1.3,0.8,1.0*22
###2023-12-09 13:32:41.001655$GBGSA,A,3,24,25,26,33,35,,,,,,,,1.3,0.8,1.0*28
###2023-12-09 13:32:41.003981$GPGSV,2,1,06,04,45,308,44,16,65,221,46,26,85,040,47,28,39,084,45*76
###2023-12-09 13:32:41.005724$GPGSV,2,2,06,29,21,048,43,31,60,064,47,,,,,,,,*79
###2023-12-09 13:32:41.008060$GLGSV,2,1,06,65,38,319,44,72,64,223,44,73,23,051,45,74,61,011,43*64
###2023-12-09 13:32:41.009805$GLGSV,2,2,06,75,42,269,47,83,15,049,35,,,,,,,,*6D
###2023-12-09 13:32:41.012139$GAGSV,1,1,04,04,39,310,42,19,73,182,39,21,77,047,45,27,23,050,42*6D
###2023-12-09 13:32:41.014462$GBGSV,2,1,05,24,63,045,48,25,50,275,47,26,16,070,46,33,46,217,46*60
###2023-12-09 13:32:41.015922$GBGSV,2,2,05,35,16,057,45,,,,,,,,,,,,*5C
###2023-12-09 13:32:41.017240$GNVTG,173.49,T,,M,2.92,N,5.40,K,A*23
###2023-12-09 13:32:41.018858$GNGST,183240.10,6.000,,,,0.140,0.079,0.220*67
###2023-12-09 13:32:41.020144$GNZDA,183240.10,09,12,2023,00,00*7C
###2023-12-09 13:32:41.020781$GNEBP,,,,,,M*13
###2023-12-09 13:32:41.189490$GNGGA,183240.30,4138.0342254,N,07032.4162892,W,1,22,0.8,13.830,M,-29.746,M,0.0,*5F
###2023-12-09 13:32:41.387237$GNGGA,183240.50,4138.0340846,N,07032.4162304,W,1,20,0.9,13.826,M,-29.746,M,0.0,*52
###2023-12-09 13:32:41.587724$GNGGA,183240.70,4138.0339545,N,07032.4161434,W,1,22,0.8,13.827,M,-29.746,M,0.0,*55
###2023-12-09 13:32:41.788316$GNGGA,183240.90,4138.0338291,N,07032.4160631,W,1,22,0.8,13.815,M,-29.746,M,0.0,*53
###2023-12-09 13:32:41.990489$GNRMC,183241.10,A,4138.0336945,N,07032.4159958,W,2.70,162.60,091223,,,A*58
###2023-12-09 13:32:41.993969$GNGGA,183241.10,4138.0336945,N,07032.4159958,W,1,22,0.8,13.821,M,-29.746,M,0.0,*5B
###2023-12-09 13:32:41.996144$GPGSA,A,3,03,04,16,26,28,29,31,,,,,,1.4,0.8,1.1*38
###2023-12-09 13:32:41.998215$GLGSA,A,3,65,72,73,74,75,83,,,,,,,1.4,0.8,1.1*2B
###2023-12-09 13:32:42.000129$GAGSA,A,3,04,19,21,27,,,,,,,,,1.4,0.8,1.1*24
###2023-12-09 13:32:42.002124$GBGSA,A,3,24,25,26,33,35,,,,,,,,1.4,0.8,1.1*2E
###2023-12-09 13:32:42.004981$GPGSV,2,1,07,03,27,247,37,04,45,308,44,16,65,221,46,26,85,040,48*76
###2023-12-09 13:32:42.007472$GPGSV,2,2,07,28,39,084,44,29,21,048,44,31,60,064,47,,,,*43
###2023-12-09 13:32:42.010281$GLGSV,2,1,06,65,38,319,45,72,64,223,45,73,23,051,45,74,61,011,43*64
###2023-12-09 13:32:42.012399$GLGSV,2,2,06,75,42,269,46,83,15,049,37,,,,,,,,*6E
###2023-12-09 13:32:42.015226$GAGSV,1,1,04,04,39,310,43,19,73,182,40,21,77,047,46,27,23,050,42*61
###2023-12-09 13:32:42.018043$GBGSV,2,1,05,24,63,045,49,25,50,275,47,26,16,070,45,33,46,217,46*62
###2023-12-09 13:32:42.019806$GBGSV,2,2,05,35,16,057,44,,,,,,,,,,,,*5D
###2023-12-09 13:32:42.021403$GNVTG,162.60,T,,M,2.70,N,5.00,K,A*20
###2023-12-09 13:32:42.023373$GNGST,183241.10,6.000,,,,0.140,0.079,0.220*66
###2023-12-09 13:32:42.024933$GNZDA,183241.10,09,12,2023,00,00*7D
###2023-12-09 13:32:42.025704$GNEBP,,,,,,M*13
###2023-12-09 13:32:42.190197$GNGGA,183241.30,4138.0335576,N,07032.4159191,W,1,22,0.8,13.810,M,-29.746,M,0.0,*59
###2023-12-09 13:32:42.392283$GNGGA,183241.50,4138.0334487,N,07032.4158234,W,1,22,0.8,13.801,M,-29.746,M,0.0,*5C
###2023-12-09 13:32:42.591288$GNGGA,183241.70,4138.0333483,N,07032.4157170,W,1,22,0.8,13.811,M,-29.746,M,0.0,*50
###2023-12-09 13:32:42.790170$GNGGA,183241.90,4138.0332395,N,07032.4156108,W,1,21,0.9,13.800,M,-29.746,M,0.0,*53
###2023-12-09 13:32:42.991345$GNRMC,183242.10,A,4138.0331379,N,07032.4155148,W,2.27,144.47,091223,,,A*5F
###2023-12-09 13:32:42.994826$GNGGA,183242.10,4138.0331379,N,07032.4155148,W,1,21,0.9,13.807,M,-29.746,M,0.0,*59
###2023-12-09 13:32:42.996894$GPGSA,A,3,04,16,26,28,29,31,,,,,,,1.6,0.9,1.2*3B
###2023-12-09 13:32:42.998968$GLGSA,A,3,65,72,73,74,75,83,,,,,,,1.6,0.9,1.2*2B
###2023-12-09 13:32:43.000863$GAGSA,A,3,04,19,21,27,,,,,,,,,1.6,0.9,1.2*24
###2023-12-09 13:32:43.002859$GBGSA,A,3,24,25,26,33,35,,,,,,,,1.6,0.9,1.2*2E
###2023-12-09 13:32:43.005649$GPGSV,2,1,06,04,45,308,43,16,65,221,46,26,85,040,48,28,39,084,44*7F
###2023-12-09 13:32:43.007765$GPGSV,2,2,06,29,21,048,44,31,60,064,45,,,,,,,,*7C
###2023-12-09 13:32:43.010572$GLGSV,2,1,06,65,38,319,44,72,64,223,45,73,23,051,46,74,61,011,42*67
###2023-12-09 13:32:43.012667$GLGSV,2,2,06,75,42,269,48,83,15,049,36,,,,,,,,*61
###2023-12-09 13:32:43.015479$GAGSV,1,1,04,04,39,310,43,19,73,182,40,21,77,047,45,27,23,050,43*63
###2023-12-09 13:32:43.018275$GBGSV,2,1,05,24,63,045,50,25,50,275,47,26,16,070,46,33,46,217,46*69
###2023-12-09 13:32:43.020038$GBGSV,2,2,05,35,16,057,46,,,,,,,,,,,,*5F
###2023-12-09 13:32:43.021621$GNVTG,144.47,T,,M,2.27,N,4.21,K,A*21
###2023-12-09 13:32:43.023585$GNGST,183242.10,6.100,,,,0.140,0.079,0.220*64
###2023-12-09 13:32:43.025129$GNZDA,183242.10,09,12,2023,00,00*7E
###2023-12-09 13:32:43.025901$GNEBP,,,,,,M*13
###2023-12-09 13:32:43.189779$GNGGA,183242.30,4138.0330314,N,07032.4154159,W,1,23,0.8,13.810,M,-29.746,M,0.0,*55
###2023-12-09 13:32:43.389900$GNGGA,183242.50,4138.0329432,N,07032.4152942,W,1,21,0.9,13.805,M,-29.746,M,0.0,*5B
###2023-12-09 13:32:43.589174$GNGGA,183242.70,4138.0328743,N,07032.4151814,W,1,22,0.7,13.802,M,-29.746,M,0.0,*56
###2023-12-09 13:32:43.791660$GNGGA,183242.90,4138.0327909,N,07032.4150663,W,1,21,0.9,13.819,M,-29.746,M,0.0,*5F
###2023-12-09 13:32:43.992075$GNRMC,183243.10,A,4138.0327069,N,07032.4149487,W,2.16,132.08,091223,,,A*58
###2023-12-09 13:32:43.995785$GNGGA,183243.10,4138.0327069,N,07032.4149487,W,1,21,0.9,13.803,M,-29.746,M,0.0,*52
###2023-12-09 13:32:43.997893$GPGSA,A,3,04,16,26,28,29,31,,,,,,,1.6,0.9,1.2*3B
###2023-12-09 13:32:43.999957$GLGSA,A,3,65,72,73,74,75,83,,,,,,,1.6,0.9,1.2*2B
###2023-12-09 13:32:44.001864$GAGSA,A,3,04,19,21,27,,,,,,,,,1.6,0.9,1.2*24
###2023-12-09 13:32:44.003845$GBGSA,A,3,24,25,26,33,35,,,,,,,,1.6,0.9,1.2*2E
###2023-12-09 13:32:44.006636$GPGSV,2,1,06,04,45,308,44,16,65,221,46,26,85,040,48,28,39,084,43*7F
###2023-12-09 13:32:44.008733$GPGSV,2,2,06,29,21,048,44,31,60,064,45,,,,,,,,*7C
###2023-12-09 13:32:44.011524$GLGSV,2,1,06,65,38,319,43,72,64,223,46,73,23,051,43,74,61,011,42*66
###2023-12-09 13:32:44.013632$GLGSV,2,2,06,75,42,269,47,83,15,049,36,,,,,,,,*6E
###2023-12-09 13:32:44.016435$GAGSV,1,1,04,04,39,310,42,19,73,182,41,21,77,047,46,27,23,050,42*61
###2023-12-09 13:32:44.019320$GBGSV,2,1,05,24,63,045,48,25,50,275,47,26,16,070,44,33,46,217,47*63
###2023-12-09 13:32:44.021083$GBGSV,2,2,05,35,16,057,44,,,,,,,,,,,,*5D
###2023-12-09 13:32:44.022698$GNVTG,132.08,T,,M,2.16,N,4.00,K,A*2A
###2023-12-09 13:32:44.024644$GNGST,183243.10,5.400,,,,0.140,0.079,0.220*63
###2023-12-09 13:32:44.026190$GNZDA,183243.10,09,12,2023,00,00*7F
###2023-12-09 13:32:44.026972$GNEBP,,,,,,M*13
###2023-12-09 13:32:44.190383$GNGGA,183243.30,4138.0326400,N,07032.4148327,W,1,23,0.8,13.800,M,-29.746,M,0.0,*56
###2023-12-09 13:32:44.391763$GNGGA,183243.50,4138.0325776,N,07032.4147062,W,1,22,0.8,13.809,M,-29.746,M,0.0,*54
###2023-12-09 13:32:44.589433$GNGGA,183243.70,4138.0325182,N,07032.4145774,W,1,22,0.8,13.794,M,-29.746,M,0.0,*52
###2023-12-09 13:32:44.788873$GNGGA,183243.90,4138.0324602,N,07032.4144559,W,1,21,0.9,13.796,M,-29.746,M,0.0,*5E
###2023-12-09 13:32:44.995680$GNRMC,183244.10,A,4138.0324000,N,07032.4143285,W,2.14,124.01,091223,,,A*51
###2023-12-09 13:32:44.998544$GNGGA,183244.10,4138.0324000,N,07032.4143285,W,1,22,0.8,13.791,M,-29.746,M,0.0,*51
###2023-12-09 13:32:45.000284$GPGSA,A,3,04,16,26,28,29,31,,,,,,,1.3,0.8,1.0*3D
###2023-12-09 13:32:45.001992$GLGSA,A,3,65,72,73,74,75,83,,,,,,,1.3,0.8,1.0*2D
###2023-12-09 13:32:45.003588$GAGSA,A,3,04,19,21,27,,,,,,,,,1.3,0.8,1.0*22
###2023-12-09 13:32:45.005232$GBGSA,A,3,24,25,26,33,35,,,,,,,,1.3,0.8,1.0*28
###2023-12-09 13:32:45.007555$GPGSV,2,1,06,04,45,308,44,16,65,221,45,26,85,040,48,28,39,084,41*7E
###2023-12-09 13:32:45.009303$GPGSV,2,2,06,29,21,048,44,31,60,064,46,,,,,,,,*7F
###2023-12-09 13:32:45.011872$GLGSV,2,1,06,65,38,319,43,72,63,222,46,73,23,051,45,74,61,011,43*67
###2023-12-09 13:32:45.013634$GLGSV,2,2,06,75,42,269,47,83,15,049,36,,,,,,,,*6E
###2023-12-09 13:32:45.015976$GAGSV,1,1,04,04,39,310,44,19,73,182,40,21,77,047,45,27,23,050,42*65
###2023-12-09 13:32:45.018295$GBGSV,2,1,05,24,63,045,46,25,50,275,47,26,16,070,43,33,46,217,47*6A
###2023-12-09 13:32:45.019764$GBGSV,2,2,05,35,16,057,44,,,,,,,,,,,,*5D
###2023-12-09 13:32:45.021080$GNVTG,124.01,T,,M,2.14,N,3.96,K,A*2E
###2023-12-09 13:32:45.022698$GNGST,183244.10,6.100,,,,0.140,0.079,0.220*62
###2023-12-09 13:32:45.023984$GNZDA,183244.10,09,12,2023,00,00*78
