###2023-12-09 12:25:10.922150$GNGGA,172510.10,4138.0389168,N,07032.4365050,W,1,19,0.7,10.860,M,-29.746,M,0.0,*58
###2023-12-09 12:25:10.924252$GPGSA,A,3,03,16,25,26,28,29,31,32,,,,,1.2,0.7,1.0*32
###2023-12-09 12:25:10.926014$GLGSA,A,3,71,72,73,75,,,,,,,,,1.2,0.7,1.0*2E
###2023-12-09 12:25:10.927721$GAGSA,A,3,04,21,27,,,,,,,,,,1.2,0.7,1.0*24
###2023-12-09 12:25:10.929475$GBGSA,A,3,14,25,26,33,,,,,,,,,1.2,0.7,1.0*23
###2023-12-09 12:25:10.932055$GPGSV,2,1,08,03,39,283,44,16,32,206,38,25,16,045,41,26,61,205,45*7A
###2023-12-09 12:25:10.934557$GPGSV,2,2,08,28,61,050,42,29,24,079,43,31,73,344,38,32,34,131,46*72
###2023-12-09 12:25:10.937085$GLGSV,1,1,04,71,62,167,45,72,61,316,40,73,52,030,47,75,18,237,39*64
###2023-12-09 12:25:10.939301$GAGSV,1,1,03,04,18,310,36,21,74,180,46,27,45,051,46,,,,*58
###2023-12-09 12:25:10.941807$GBGSV,1,1,04,14,59,200,45,25,29,249,36,26,38,055,47,33,64,264,39*67
###2023-12-09 12:25:10.943135$GNVTG,,T,,M,0.02,N,0.04,K,A*3B
###2023-12-09 12:25:10.944946$GNGST,172510.10,30.000,,,,0.220,0.210,0.390*5C
###2023-12-09 12:25:10.946417$GNZDA,172510.10,09,12,2023,00,00*70
###2023-12-09 12:25:10.947285$GNEBP,,,,,,M*13
###2023-12-09 12:25:11.116368$GNGGA,172510.30,4138.0389144,N,07032.4365032,W,1,19,0.7,10.850,M,-29.746,M,0.0,*53
###2023-12-09 12:25:11.316406$GNGGA,172510.50,4138.0389111,N,07032.4365007,W,1,19,0.7,10.847,M,-29.746,M,0.0,*55
###2023-12-09 12:25:11.516154$GNGGA,172510.70,4138.0389087,N,07032.4364978,W,1,19,0.7,10.842,M,-29.746,M,0.0,*5C
###2023-12-09 12:25:11.715213$GNGGA,172510.90,4138.0389064,N,07032.4364957,W,1,19,0.7,10.838,M,-29.746,M,0.0,*5F
###2023-12-09 12:25:11.917245$GNRMC,172511.10,A,4138.0389037,N,07032.4364931,W,0.02,,091223,,,A*45
###2023-12-09 12:25:11.920304$GNGGA,172511.10,4138.0389037,N,07032.4364931,W,1,19,0.7,10.837,M,-29.746,M,0.0,*5F
###2023-12-09 12:25:11.922185$GPGSA,A,3,03,16,25,26,28,29,31,32,,,,,1.2,0.7,1.0*32
###2023-12-09 12:25:11.923803$GLGSA,A,3,71,72,73,75,,,,,,,,,1.2,0.7,1.0*2E
###2023-12-09 12:25:11.925331$GAGSA,A,3,04,21,27,,,,,,,,,,1.2,0.7,1.0*24
###2023-12-09 12:25:11.926938$GBGSA,A,3,14,25,26,33,,,,,,,,,1.2,0.7,1.0*23
###2023-12-09 12:25:11.929266$GPGSV,2,1,08,03,39,283,44,16,32,206,38,25,16,045,41,26,61,205,45*7A
###2023-12-09 12:25:11.931615$GPGSV,2,2,08,28,61,050,43,29,24,079,45,31,73,344,36,32,34,131,46*7B
###2023-12-09 12:25:11.933946$GLGSV,1,1,04,71,62,167,44,72,61,316,40,73,52,030,48,75,18,237,39*6A
###2023-12-09 12:25:11.936005$GAGSV,1,1,03,04,18,310,37,21,74,180,46,27,45,051,46,,,,*59
###2023-12-09 12:25:11.938335$GBGSV,1,1,04,14,59,200,45,25,29,249,37,26,38,055,48,33,64,264,39*69
###2023-12-09 12:25:11.939500$GNVTG,,T,,M,0.02,N,0.04,K,A*3B
###2023-12-09 12:25:11.941165$GNGST,172511.10,30.000,,,,0.220,0.210,0.390*5D
###2023-12-09 12:25:11.942474$GNZDA,172511.10,09,12,2023,00,00*71
###2023-12-09 12:25:11.943139$GNEBP,,,,,,M*13
###2023-12-09 12:25:12.115296$GNGGA,172511.30,4138.0389017,N,07032.4364911,W,1,19,0.7,10.832,M,-29.746,M,0.0,*58
###2023-12-09 12:25:12.318032$GNGGA,172511.50,4138.0388988,N,07032.4364889,W,1,19,0.7,10.825,M,-29.746,M,0.0,*56
###2023-12-09 12:25:12.516461$GNGGA,172511.70,4138.0388971,N,07032.4364864,W,1,19,0.7,10.827,M,-29.746,M,0.0,*53
###2023-12-09 12:25:12.715611$GNGGA,172511.90,4138.0388947,N,07032.4364840,W,1,19,0.7,10.819,M,-29.746,M,0.0,*53
###2023-12-09 12:25:12.920527$GNRMC,172512.10,A,4138.0388920,N,07032.4364816,W,0.00,,091223,,,A*4E
###2023-12-09 12:25:12.923406$GNGGA,172512.10,4138.0388920,N,07032.4364816,W,1,19,0.7,10.819,M,-29.746,M,0.0,*5A
###2023-12-09 12:25:12.925267$GPGSA,A,3,03,16,25,26,28,29,31,32,,,,,1.2,0.7,1.0*32
###2023-12-09 12:25:12.926881$GLGSA,A,3,71,72,73,75,,,,,,,,,1.2,0.7,1.0*2E
###2023-12-09 12:25:12.928418$GAGSA,A,3,04,21,27,,,,,,,,,,1.2,0.7,1.0*24
###2023-12-09 12:25:12.930010$GBGSA,A,3,14,25,26,33,,,,,,,,,1.2,0.7,1.0*23
###2023-12-09 12:25:12.932363$GPGSV,2,1,08,03,39,283,44,16,32,206,38,25,16,045,41,26,61,205,45*7A
###2023-12-09 12:25:12.934728$GPGSV,2,2,08,28,61,050,43,29,24,079,44,31,73,344,37,32,34,131,46*7B
###2023-12-09 12:25:12.937067$GLGSV,1,1,04,71,62,167,44,72,61,316,40,73,52,030,48,75,18,237,40*64
###2023-12-09 12:25:12.939133$GAGSV,1,1,03,04,18,310,36,21,74,180,45,27,45,051,46,,,,*5B
###2023-12-09 12:25:12.941481$GBGSV,1,1,04,14,59,200,45,25,29,249,38,26,38,055,48,33,64,264,39*66
###2023-12-09 12:25:12.942669$GNVTG,,T,,M,0.00,N,0.00,K,A*3D
###2023-12-09 12:25:12.944335$GNGST,172512.10,30.000,,,,0.220,0.210,0.400*50
###2023-12-09 12:25:12.945639$GNZDA,172512.10,09,12,2023,00,00*72
###2023-12-09 12:25:12.946293$GNEBP,,,,,,M*13
###2023-12-09 12:25:13.115232$GNGGA,172512.30,4138.0388892,N,07032.4364793,W,1,19,0.7,10.812,M,-29.746,M,0.0,*59
###2023-12-09 12:25:13.319497$GNGGA,172512.50,4138.0388870,N,07032.4364777,W,1,19,0.7,10.810,M,-29.746,M,0.0,*5B
###2023-12-09 12:25:13.515076$GNGGA,172512.70,4138.0388841,N,07032.4364751,W,1,19,0.7,10.802,M,-29.746,M,0.0,*5C
###2023-12-09 12:25:13.714291$GNGGA,172512.90,4138.0388812,N,07032.4364740,W,1,19,0.7,10.797,M,-29.746,M,0.0,*57
###2023-12-09 12:25:13.915538$GNRMC,172513.10,A,4138.0388779,N,07032.4364706,W,0.04,,091223,,,A*47
###2023-12-09 12:25:13.918419$GNGGA,172513.10,4138.0388779,N,07032.4364706,W,1,19,0.7,10.793,M,-29.746,M,0.0,*5A
###2023-12-09 12:25:13.920326$GPGSA,A,3,03,16,25,26,28,29,31,32,,,,,1.2,0.7,1.0*32
###2023-12-09 12:25:13.921934$GLGSA,A,3,71,72,73,75,,,,,,,,,1.2,0.7,1.0*2E
###2023-12-09 12:25:13.923500$GAGSA,A,3,04,21,27,,,,,,,,,,1.2,0.7,1.0*24
###2023-12-09 12:25:13.925102$GBGSA,A,3,14,25,26,33,,,,,,,,,1.2,0.7,1.0*23
###2023-12-09 12:25:13.927461$GPGSV,2,1,08,03,39,283,45,16,32,206,38,25,16,045,41,26,61,205,45*7B
###2023-12-09 12:25:13.929802$GPGSV,2,2,08,28,61,050,43,29,24,079,44,31,73,344,37,32,34,131,46*7B
###2023-12-09 12:25:13.932251$GLGSV,1,1,04,71,62,167,44,72,61,316,40,73,52,030,47,75,18,237,40*6B
###2023-12-09 12:25:13.934294$GAGSV,1,1,03,04,18,310,35,21,74,180,45,27,45,051,46,,,,*58
###2023-12-09 12:25:13.936643$GBGSV,1,1,04,14,59,200,44,25,29,249,37,26,38,055,47,33,64,264,38*66
###2023-12-09 12:25:13.937783$GNVTG,,T,,M,0.04,N,0.07,K,A*3E
###2023-12-09 12:25:13.939457$GNGST,172513.10,30.000,,,,0.220,0.210,0.400*51
###2023-12-09 12:25:13.940756$GNZDA,172513.10,09,12,2023,00,00*73
###2023-12-09 12:25:13.941401$GNEBP,,,,,,M*13
###2023-12-09 12:25:14.117773$GNGGA,172513.30,4138.0388758,N,07032.4364684,W,1,19,0.7,10.787,M,-29.746,M,0.0,*55
###2023-12-09 12:25:14.317395$GNGGA,172513.50,4138.0388728,N,07032.4364660,W,1,19,0.7,10.782,M,-29.746,M,0.0,*5B
###2023-12-09 12:25:14.517216$GNGGA,172513.70,4138.0388703,N,07032.4364639,W,1,19,0.7,10.780,M,-29.746,M,0.0,*5E
###2023-12-09 12:25:14.716069$GNGGA,172513.90,4138.0388680,N,07032.4364615,W,1,19,0.7,10.778,M,-29.746,M,0.0,*53
###2023-12-09 12:25:14.919339$GNRMC,172514.10,A,4138.0388656,N,07032.4364601,W,0.02,,091223,,,A*4C
###2023-12-09 12:25:14.922362$GNGGA,172514.10,4138.0388656,N,07032.4364601,W,1,19,0.7,10.775,M,-29.746,M,0.0,*5F
###2023-12-09 12:25:14.924263$GPGSA,A,3,03,16,25,26,28,29,31,32,,,,,1.2,0.7,1.0*32
###2023-12-09 12:25:14.925877$GLGSA,A,3,71,72,73,75,,,,,,,,,1.2,0.7,1.0*2E
###2023-12-09 12:25:14.927428$GAGSA,A,3,04,21,27,,,,,,,,,,1.2,0.7,1.0*24
###2023-12-09 12:25:14.929032$GBGSA,A,3,14,25,26,33,,,,,,,,,1.2,0.7,1.0*23
###2023-12-09 12:25:14.931395$GPGSV,2,1,08,03,39,283,44,16,32,206,38,25,16,045,41,26,61,205,45*7A
###2023-12-09 12:25:14.933745$GPGSV,2,2,08,28,61,050,43,29,24,079,43,31,73,344,37,32,34,131,46*7C
###2023-12-09 12:25:14.936107$GLGSV,1,1,04,71,62,167,43,72,61,316,40,73,52,030,48,75,18,237,40*63
###2023-12-09 12:25:14.938158$GAGSV,1,1,03,04,18,310,35,21,74,180,45,27,45,051,46,,,,*58
###2023-12-09 12:25:14.940504$GBGSV,1,1,04,14,59,200,45,25,29,249,38,26,38,055,47,33,64,264,38*68
###2023-12-09 12:25:14.941646$GNVTG,,T,,M,0.02,N,0.04,K,A*3B
###2023-12-09 12:25:14.943306$GNGST,172514.10,30.000,,,,0.220,0.210,0.410*57
###2023-12-09 12:25:14.944610$GNZDA,172514.10,09,12,2023,00,00*74
###2023-12-09 12:25:14.945261$GNEBP,,,,,,M*13
###2023-12-09 12:25:15.117160$GNGGA,172514.30,4138.0388621,N,07032.4364573,W,1,19,0.7,10.771,M,-29.746,M,0.0,*5F
###2023-12-09 12:25:15.319762$GNGGA,172514.50,4138.0388601,N,07032.4364567,W,1,19,0.7,10.767,M,-29.746,M,0.0,*59
###2023-12-09 12:25:15.515981$GNGGA,172514.70,4138.0388568,N,07032.4364544,W,1,19,0.7,10.759,M,-29.746,M,0.0,*5B
###2023-12-09 12:25:15.715477$GNGGA,172514.90,4138.0388542,N,07032.4364526,W,1,19,0.7,10.747,M,-29.746,M,0.0,*56
###2023-12-09 12:25:15.916738$GNRMC,172515.10,A,4138.0388524,N,07032.4364520,W,0.02,,091223,,,A*4B
###2023-12-09 12:25:15.919630$GNGGA,172515.10,4138.0388524,N,07032.4364520,W,1,19,0.7,10.743,M,-29.746,M,0.0,*5D
###2023-12-09 12:25:15.921507$GPGSA,A,3,03,16,25,26,28,29,31,32,,,,,1.2,0.7,1.0*32
###2023-12-09 12:25:15.923113$GLGSA,A,3,71,72,73,75,,,,,,,,,1.2,0.7,1.0*2E
###2023-12-09 12:25:15.924644$GAGSA,A,3,04,21,27,,,,,,,,,,1.2,0.7,1.0*24
###2023-12-09 12:25:15.926237$GBGSA,A,3,14,25,26,33,,,,,,,,,1.2,0.7,1.0*23
