###2023-12-09 13:02:54.979727$GPGSV,2,1,08,03,35,261,41,04,33,311,41,16,50,212,46,26,80,210,48*77
###2023-12-09 13:02:54.982097$GPGSV,2,2,08,28,49,070,45,29,25,061,41,31,69,038,47,32,19,140,43*70
###2023-12-09 13:02:54.984453$GLGSV,2,1,06,65,25,327,39,71,40,173,47,72,73,265,44,73,35,042,44*68
###2023-12-09 13:02:54.986211$GLGSV,2,2,06,74,69,340,42,75,33,254,41,,,,,,,,*6A
###2023-12-09 13:02:54.988558$GAGSV,1,1,04,04,29,312,38,19,84,213,40,21,86,114,45,27,32,048,42*6E
###2023-12-09 13:02:54.990902$GBGSV,2,1,05,14,43,193,44,24,73,026,49,25,41,263,44,26,26,063,42*69
###2023-12-09 13:02:54.992353$GBGSV,2,2,05,33,57,231,47,,,,,,,,,,,,*5F
###2023-12-09 13:02:54.993671$GNVTG,268.11,T,,M,3.48,N,6.44,K,A*26
###2023-12-09 13:02:54.995339$GNGST,180254.10,18.000,,,,0.081,0.069,0.160*54
###2023-12-09 13:02:54.996636$GNZDA,180254.10,09,12,2023,00,00*7A
###2023-12-09 13:02:54.997273$GNEBP,,,,,,M*13
###2023-12-09 13:02:55.163856$GNGGA,180254.30,4138.0468371,N,07032.3580826,W,1,24,0.6,13.382,M,-29.744,M,0.0,*58
###2023-12-09 13:02:55.365068$GNGGA,180254.50,4138.0468456,N,07032.3583364,W,1,24,0.6,13.374,M,-29.744,M,0.0,*5B
###2023-12-09 13:02:55.565453$GNGGA,180254.70,4138.0468581,N,07032.3585863,W,1,24,0.6,13.369,M,-29.744,M,0.0,*54
###2023-12-09 13:02:55.765131$GNGGA,180254.90,4138.0468823,N,07032.3588296,W,1,24,0.6,13.365,M,-29.744,M,0.0,*5E
###2023-12-09 13:02:55.966895$GNRMC,180255.10,A,4138.0469198,N,07032.3590704,W,3.29,283.30,091223,,,A*5E
###2023-12-09 13:02:55.969761$GNGGA,180255.10,4138.0469198,N,07032.3590704,W,1,24,0.6,13.365,M,-29.744,M,0.0,*58
###2023-12-09 13:02:55.971624$GPGSA,A,3,03,04,16,26,28,29,31,32,,,,,1.1,0.6,0.9*3B
###2023-12-09 13:02:55.973334$GLGSA,A,3,65,71,72,73,74,75,,,,,,,1.1,0.6,0.9*24
###2023-12-09 13:02:55.974925$GAGSA,A,3,04,19,21,27,,,,,,,,,1.1,0.6,0.9*26
###2023-12-09 13:02:55.976581$GBGSA,A,3,14,24,25,26,33,,,,,,,,1.1,0.6,0.9*2F
###2023-12-09 13:02:55.978925$GPGSV,2,1,08,03,35,261,40,04,33,311,40,16,50,212,45,26,80,210,47*7B
###2023-12-09 13:02:55.981259$GPGSV,2,2,08,28,49,070,44,29,25,061,41,31,69,038,46,32,19,140,43*70
###2023-12-09 13:02:55.983601$GLGSV,2,1,06,65,25,327,39,71,40,173,47,72,73,265,45,73,35,042,46*6B
###2023-12-09 13:02:55.985345$GLGSV,2,2,06,74,69,340,42,75,33,254,43,,,,,,,,*68
###2023-12-09 13:02:55.987690$GAGSV,1,1,04,04,29,312,38,19,84,213,40,21,86,114,46,27,32,048,42*6D
###2023-12-09 13:02:55.990021$GBGSV,2,1,05,14,43,193,44,24,73,026,48,25,41,263,44,26,26,063,42*68
###2023-12-09 13:02:55.991487$GBGSV,2,2,05,33,57,231,48,,,,,,,,,,,,*50
###2023-12-09 13:02:55.992814$GNVTG,283.30,T,,M,3.29,N,6.08,K,A*2F
###2023-12-09 13:02:55.994464$GNGST,180255.10,18.000,,,,0.081,0.070,0.160*5D
###2023-12-09 13:02:55.995769$GNZDA,180255.10,09,12,2023,00,00*7B
###2023-12-09 13:02:55.996410$GNEBP,,,,,,M*13
###2023-12-09 13:02:56.164059$GNGGA,180255.30,4138.0469619,N,07032.3593076,W,1,24,0.6,13.365,M,-29.744,M,0.0,*55
###2023-12-09 13:02:56.364538$GNGGA,180255.50,4138.0470021,N,07032.3595447,W,1,24,0.6,13.356,M,-29.744,M,0.0,*56
###2023-12-09 13:02:56.564886$GNGGA,180255.70,4138.0470377,N,07032.3597822,W,1,24,0.6,13.351,M,-29.744,M,0.0,*5E
###2023-12-09 13:02:56.765230$GNGGA,180255.90,4138.0470807,N,07032.3600232,W,1,24,0.6,13.347,M,-29.744,M,0.0,*5D
###2023-12-09 13:02:56.974835$GNRMC,180256.10,A,4138.0471266,N,07032.3602612,W,3.36,284.71,091223,,,A*54
###2023-12-09 13:02:56.977696$GNGGA,180256.10,4138.0471266,N,07032.3602612,W,1,24,0.6,13.345,M,-29.744,M,0.0,*5C
###2023-12-09 13:02:56.979558$GPGSA,A,3,03,04,16,26,28,29,31,32,,,,,1.1,0.6,0.9*3B
###2023-12-09 13:02:56.981265$GLGSA,A,3,65,71,72,73,74,75,,,,,,,1.1,0.6,0.9*24
###2023-12-09 13:02:56.982858$GAGSA,A,3,04,19,21,27,,,,,,,,,1.1,0.6,0.9*26
###2023-12-09 13:02:56.984509$GBGSA,A,3,14,24,25,26,33,,,,,,,,1.1,0.6,0.9*2F
###2023-12-09 13:02:56.986846$GPGSV,2,1,08,03,35,261,40,04,33,311,40,16,50,212,45,26,80,210,47*7B
###2023-12-09 13:02:56.989186$GPGSV,2,2,08,28,49,070,44,29,25,061,41,31,69,038,46,32,19,140,43*70
###2023-12-09 13:02:56.991522$GLGSV,2,1,06,65,25,327,38,71,40,173,47,72,73,265,45,73,35,042,45*69
###2023-12-09 13:02:56.993272$GLGSV,2,2,06,74,69,340,42,75,33,254,42,,,,,,,,*69
###2023-12-09 13:02:56.995598$GAGSV,1,1,04,04,29,312,39,19,84,213,40,21,86,114,46,27,32,048,42*6C
###2023-12-09 13:02:56.997922$GBGSV,2,1,05,14,43,193,45,24,73,026,49,25,41,263,44,26,26,063,43*69
###2023-12-09 13:02:56.999386$GBGSV,2,2,05,33,57,231,48,,,,,,,,,,,,*50
###2023-12-09 13:02:57.000710$GNVTG,284.71,T,,M,3.36,N,6.23,K,A*2A
###2023-12-09 13:02:57.002351$GNGST,180256.10,18.000,,,,0.082,0.070,0.160*5D
###2023-12-09 13:02:57.003655$GNZDA,180256.10,09,12,2023,00,00*78
###2023-12-09 13:02:57.004295$GNEBP,,,,,,M*13
###2023-12-09 13:02:57.167703$GNGGA,180256.30,4138.0471705,N,07032.3605001,W,1,24,0.6,13.347,M,-29.744,M,0.0,*5F
###2023-12-09 13:02:57.368104$GNGGA,180256.50,4138.0472078,N,07032.3607440,W,1,24,0.6,13.346,M,-29.744,M,0.0,*55
###2023-12-09 13:02:57.566800$GNGGA,180256.70,4138.0472436,N,07032.3609865,W,1,24,0.6,13.346,M,-29.744,M,0.0,*5C
###2023-12-09 13:02:57.766990$GNGGA,180256.90,4138.0472798,N,07032.3612336,W,1,24,0.6,13.347,M,-29.744,M,0.0,*53
###2023-12-09 13:02:57.967327$GNRMC,180257.10,A,4138.0473114,N,07032.3614850,W,3.44,279.55,091223,,,A*5F
###2023-12-09 13:02:57.970836$GNGGA,180257.10,4138.0473114,N,07032.3614850,W,1,24,0.6,13.351,M,-29.744,M,0.0,*53
###2023-12-09 13:02:57.973105$GPGSA,A,3,03,04,16,26,28,29,31,32,,,,,1.1,0.6,0.9*3B
###2023-12-09 13:02:57.975190$GLGSA,A,3,65,71,72,73,74,75,,,,,,,1.1,0.6,0.9*24
###2023-12-09 13:02:57.977104$GAGSA,A,3,04,19,21,27,,,,,,,,,1.1,0.6,0.9*26
###2023-12-09 13:02:57.979096$GBGSA,A,3,14,24,25,26,33,,,,,,,,1.1,0.6,0.9*2F
###2023-12-09 13:02:57.981900$GPGSV,2,1,08,03,35,261,42,04,33,311,41,16,50,212,46,26,80,210,48*74
###2023-12-09 13:02:57.984730$GPGSV,2,2,08,28,49,070,45,29,25,061,42,31,69,038,48,32,19,140,43*7C
###2023-12-09 13:02:57.987558$GLGSV,2,1,06,65,25,327,39,71,40,173,47,72,73,265,45,73,35,042,44*69
###2023-12-09 13:02:57.989662$GLGSV,2,2,06,74,69,340,42,75,33,254,41,,,,,,,,*6A
###2023-12-09 13:02:57.992486$GAGSV,1,1,04,04,29,312,38,19,84,213,40,21,86,114,46,27,32,048,42*6D
###2023-12-09 13:02:57.995310$GBGSV,2,1,05,14,43,193,43,24,73,026,47,25,41,263,42,26,26,063,41*65
###2023-12-09 13:02:57.997074$GBGSV,2,2,05,33,57,231,46,,,,,,,,,,,,*5E
###2023-12-09 13:02:57.998680$GNVTG,279.55,T,,M,3.44,N,6.37,K,A*2E
###2023-12-09 13:02:58.000664$GNGST,180257.10,18.000,,,,0.082,0.070,0.160*5C
###2023-12-09 13:02:58.002223$GNZDA,180257.10,09,12,2023,00,00*79
###2023-12-09 13:02:58.003076$GNEBP,,,,,,M*13
###2023-12-09 13:02:58.165554$GNGGA,180257.30,4138.0473384,N,07032.3617339,W,1,24,0.6,13.354,M,-29.744,M,0.0,*58
###2023-12-09 13:02:58.366588$GNGGA,180257.50,4138.0473556,N,07032.3619808,W,1,24,0.6,13.353,M,-29.744,M,0.0,*57
###2023-12-09 13:02:58.567677$GNGGA,180257.70,4138.0473589,N,07032.3622249,W,1,24,0.6,13.344,M,-29.744,M,0.0,*56
###2023-12-09 13:02:58.767048$GNGGA,180257.90,4138.0473617,N,07032.3624676,W,1,24,0.6,13.344,M,-29.744,M,0.0,*52
###2023-12-09 13:02:58.967449$GNRMC,180258.10,A,4138.0473696,N,07032.3627074,W,3.32,272.88,091223,,,A*59
###2023-12-09 13:02:58.970337$GNGGA,180258.10,4138.0473696,N,07032.3627074,W,1,24,0.6,13.353,M,-29.744,M,0.0,*5D
###2023-12-09 13:02:58.972228$GPGSA,A,3,03,04,16,26,28,29,31,32,,,,,1.1,0.6,0.9*3B
###2023-12-09 13:02:58.973957$GLGSA,A,3,65,71,72,73,74,75,,,,,,,1.1,0.6,0.9*24
###2023-12-09 13:02:58.975563$GAGSA,A,3,04,19,21,27,,,,,,,,,1.1,0.6,0.9*26
###2023-12-09 13:02:58.977213$GBGSA,A,3,14,24,25,26,33,,,,,,,,1.1,0.6,0.9*2F
###2023-12-09 13:02:58.979560$GPGSV,2,1,08,03,35,261,42,04,33,311,41,16,50,212,46,26,80,210,48*74
###2023-12-09 13:02:58.981901$GPGSV,2,2,08,28,49,070,45,29,25,061,41,31,69,038,48,32,19,140,43*7F
###2023-12-09 13:02:58.984248$GLGSV,2,1,06,65,25,327,40,71,40,173,46,72,73,265,45,73,35,042,44*66
###2023-12-09 13:02:58.985997$GLGSV,2,2,06,74,69,340,42,75,33,254,43,,,,,,,,*68
###2023-12-09 13:02:58.988347$GAGSV,1,1,04,04,29,312,39,19,84,213,40,21,86,114,46,27,32,048,41*6F
###2023-12-09 13:02:58.990681$GBGSV,2,1,05,14,43,193,44,24,73,026,48,25,41,263,44,26,26,063,41*6B
###2023-12-09 13:02:58.992140$GBGSV,2,2,05,33,57,231,46,,,,,,,,,,,,*5E
###2023-12-09 13:02:58.993711$GNVTG,272.88,T,,M,3.32,N,6.16,K,A*27
###2023-12-09 13:02:58.995383$GNGST,180258.10,18.000,,,,0.082,0.070,0.160*53
###2023-12-09 13:02:58.996685$GNZDA,180258.10,09,12,2023,00,00*76
###2023-12-09 13:02:58.997328$GNEBP,,,,,,M*13
###2023-12-09 13:02:59.164933$GNGGA,180258.30,4138.0473744,N,07032.3629447,W,1,24,0.6,13.358,M,-29.744,M,0.0,*50
###2023-12-09 13:02:59.364794$GNGGA,180258.50,4138.0473642,N,07032.3631793,W,1,24,0.6,13.353,M,-29.744,M,0.0,*59
###2023-12-09 13:02:59.565645$GNGGA,180258.70,4138.0473507,N,07032.3634188,W,1,24,0.6,13.356,M,-29.744,M,0.0,*55
###2023-12-09 13:02:59.765588$GNGGA,180258.90,4138.0473442,N,07032.3636651,W,1,24,0.6,13.364,M,-29.744,M,0.0,*5B
###2023-12-09 13:02:59.967045$GNRMC,180259.10,A,4138.0473281,N,07032.3639142,W,3.36,261.64,091223,,,A*55
