###2023-12-09 13:13:57.002326$GAGSA,A,3,04,19,21,27,,,,,,,,,1.2,0.7,1.0*2C
###2023-12-09 13:13:57.004114$GBGSA,A,3,14,24,25,26,33,35,,,,,,,1.2,0.7,1.0*23
###2023-12-09 13:13:57.006473$GPGSV,2,1,07,03,32,255,41,04,38,311,43,16,56,215,46,26,86,209,48*7E
###2023-12-09 13:13:57.008552$GPGSV,2,2,07,28,45,076,45,29,24,055,41,31,65,050,47,,,,*4A
###2023-12-09 13:13:57.010901$GLGSV,2,1,06,65,29,325,40,71,34,174,46,72,71,246,45,73,31,045,44*6C
###2023-12-09 13:13:57.012664$GLGSV,2,2,06,74,66,353,42,75,36,259,42,,,,,,,,*6C
###2023-12-09 13:13:57.014990$GAGSV,1,1,04,04,33,312,41,19,81,194,40,21,84,070,46,27,29,048,40*68
###2023-12-09 13:13:57.017319$GBGSV,2,1,06,14,38,192,43,24,70,034,49,25,44,267,43,26,22,065,42*64
###2023-12-09 13:13:57.019083$GBGSV,2,2,06,33,53,226,47,35,15,065,44,,,,,,,,*6F
###2023-12-09 13:13:57.020406$GNVTG,270.68,T,,M,3.73,N,6.91,K,A*21
###2023-12-09 13:13:57.022044$GNGST,181356.10,18.000,,,,0.097,0.074,0.170*5C
###2023-12-09 13:13:57.023342$GNZDA,181356.10,09,12,2023,00,00*78
###2023-12-09 13:13:57.023979$GNEBP,,,,,,M*13
###2023-12-09 13:13:57.177344$GNGGA,181356.30,4138.0452755,N,07032.2918429,W,1,24,0.7,12.940,M,-29.743,M,0.0,*5D
###2023-12-09 13:13:57.375565$GNGGA,181356.50,4138.0452909,N,07032.2921244,W,1,24,0.7,12.945,M,-29.743,M,0.0,*5E
###2023-12-09 13:13:57.575515$GNGGA,181356.70,4138.0453192,N,07032.2923988,W,1,24,0.7,12.951,M,-29.743,M,0.0,*5B
###2023-12-09 13:13:57.775388$GNGGA,181356.90,4138.0453223,N,07032.2926677,W,1,24,0.7,12.936,M,-29.743,M,0.0,*57
###2023-12-09 13:13:57.979649$GNRMC,181357.10,A,4138.0453171,N,07032.2929288,W,3.56,275.24,091223,,,A*58
###2023-12-09 13:13:57.982484$GNGGA,181357.10,4138.0453171,N,07032.2929288,W,1,24,0.7,12.919,M,-29.743,M,0.0,*5C
###2023-12-09 13:13:57.984276$GPGSA,A,3,03,04,16,26,28,29,31,,,,,,1.2,0.7,1.0*30
###2023-12-09 13:13:57.985980$GLGSA,A,3,65,71,72,73,74,75,,,,,,,1.2,0.7,1.0*2E
###2023-12-09 13:13:57.987571$GAGSA,A,3,04,19,21,27,,,,,,,,,1.2,0.7,1.0*2C
###2023-12-09 13:13:57.989274$GBGSA,A,3,14,24,25,26,33,35,,,,,,,1.2,0.7,1.0*23
###2023-12-09 13:13:57.991597$GPGSV,2,1,07,03,32,255,41,04,38,311,41,16,56,215,46,26,86,209,47*73
###2023-12-09 13:13:57.993627$GPGSV,2,2,07,28,45,076,44,29,24,055,38,31,65,050,47,,,,*45
###2023-12-09 13:13:57.995956$GLGSV,2,1,06,65,29,325,40,71,34,174,45,72,71,246,46,73,31,045,42*6A
###2023-12-09 13:13:57.997701$GLGSV,2,2,06,74,66,353,41,75,36,259,42,,,,,,,,*6F
###2023-12-09 13:13:58.000028$GAGSV,1,1,04,04,33,312,38,19,81,194,41,21,84,070,46,27,29,048,41*66
###2023-12-09 13:13:58.002353$GBGSV,2,1,06,14,38,192,44,24,70,034,49,25,44,267,44,26,22,065,42*64
###2023-12-09 13:13:58.004106$GBGSV,2,2,06,33,53,226,47,35,15,065,44,,,,,,,,*6F
###2023-12-09 13:13:58.005430$GNVTG,275.24,T,,M,3.56,N,6.59,K,A*2F
###2023-12-09 13:13:58.007084$GNGST,181357.10,18.000,,,,0.097,0.074,0.170*5D
###2023-12-09 13:13:58.008373$GNZDA,181357.10,09,12,2023,00,00*79
###2023-12-09 13:13:58.009014$GNEBP,,,,,,M*13
###2023-12-09 13:13:58.175536$GNGGA,181357.30,4138.0453492,N,07032.2931904,W,1,24,0.7,12.938,M,-29.743,M,0.0,*53
###2023-12-09 13:13:58.378667$GNGGA,181357.50,4138.0453818,N,07032.2934535,W,1,24,0.7,12.946,M,-29.743,M,0.0,*59
###2023-12-09 13:13:58.575287$GNGGA,181357.70,4138.0453882,N,07032.2937164,W,1,24,0.7,12.945,M,-29.743,M,0.0,*58
###2023-12-09 13:13:58.775238$GNGGA,181357.90,4138.0453912,N,07032.2939864,W,1,24,0.7,12.961,M,-29.743,M,0.0,*5F
###2023-12-09 13:13:58.982268$GNRMC,181358.10,A,4138.0454076,N,07032.2942621,W,3.79,276.38,091223,,,A*5F
###2023-12-09 13:13:58.985163$GNGGA,181358.10,4138.0454076,N,07032.2942621,W,1,24,0.7,12.974,M,-29.743,M,0.0,*53
###2023-12-09 13:13:58.986980$GPGSA,A,3,03,04,16,26,28,29,31,,,,,,1.2,0.7,1.0*30
###2023-12-09 13:13:58.988702$GLGSA,A,3,65,71,72,73,74,75,,,,,,,1.2,0.7,1.0*2E
###2023-12-09 13:13:58.990283$GAGSA,A,3,04,19,21,27,,,,,,,,,1.2,0.7,1.0*2C
###2023-12-09 13:13:58.992008$GBGSA,A,3,14,24,25,26,33,35,,,,,,,1.2,0.7,1.0*23
###2023-12-09 13:13:58.994337$GPGSV,2,1,07,03,32,255,42,04,38,311,42,16,56,215,46,26,86,209,48*7C
###2023-12-09 13:13:58.996404$GPGSV,2,2,07,28,45,076,45,29,24,055,40,31,65,050,47,,,,*4B
###2023-12-09 13:13:58.998747$GLGSV,2,1,06,65,29,325,40,71,34,174,46,72,71,246,45,73,31,045,44*6C
###2023-12-09 13:13:59.000498$GLGSV,2,2,06,74,66,353,42,75,36,259,43,,,,,,,,*6D
###2023-12-09 13:13:59.002823$GAGSV,1,1,04,04,33,312,41,19,80,192,41,21,84,070,46,27,29,048,41*6F
###2023-12-09 13:13:59.005141$GBGSV,2,1,06,14,38,192,44,24,70,034,49,25,44,267,43,26,22,065,44*65
###2023-12-09 13:13:59.006899$GBGSV,2,2,06,33,53,226,48,35,15,065,45,,,,,,,,*61
###2023-12-09 13:13:59.008222$GNVTG,276.38,T,,M,3.79,N,7.02,K,A*23
###2023-12-09 13:13:59.009864$GNGST,181358.10,18.000,,,,0.097,0.074,0.170*52
###2023-12-09 13:13:59.011163$GNZDA,181358.10,09,12,2023,00,00*76
###2023-12-09 13:13:59.011800$GNEBP,,,,,,M*13
###2023-12-09 13:13:59.174277$GNGGA,181358.30,4138.0454233,N,07032.2945397,W,1,24,0.7,12.972,M,-29.743,M,0.0,*5B
###2023-12-09 13:13:59.375256$GNGGA,181358.50,4138.0454086,N,07032.2948141,W,1,24,0.7,12.954,M,-29.743,M,0.0,*51
###2023-12-09 13:13:59.576814$GNGGA,181358.70,4138.0453945,N,07032.2950877,W,1,24,0.7,12.956,M,-29.743,M,0.0,*55
###2023-12-09 13:13:59.775448$GNGGA,181358.90,4138.0454002,N,07032.2953649,W,1,24,0.7,12.975,M,-29.743,M,0.0,*57
###2023-12-09 13:13:59.977737$GNRMC,181359.10,A,4138.0454091,N,07032.2956354,W,3.67,273.28,091223,,,A*5E
###2023-12-09 13:13:59.980624$GNGGA,181359.10,4138.0454091,N,07032.2956354,W,1,24,0.7,12.983,M,-29.743,M,0.0,*51
###2023-12-09 13:13:59.982421$GPGSA,A,3,03,04,16,26,28,29,31,,,,,,1.2,0.7,1.0*30
###2023-12-09 13:13:59.984146$GLGSA,A,3,65,71,72,73,74,75,,,,,,,1.2,0.7,1.0*2E
###2023-12-09 13:13:59.985726$GAGSA,A,3,04,19,21,27,,,,,,,,,1.2,0.7,1.0*2C
###2023-12-09 13:13:59.987444$GBGSA,A,3,14,24,25,26,33,35,,,,,,,1.2,0.7,1.0*23
###2023-12-09 13:13:59.989765$GPGSV,2,1,07,03,32,255,42,04,38,311,43,16,56,215,46,26,86,209,47*72
###2023-12-09 13:13:59.991810$GPGSV,2,2,07,28,45,076,45,29,24,055,41,31,65,050,48,,,,*45
###2023-12-09 13:13:59.994143$GLGSV,2,1,06,65,29,325,40,71,34,174,45,72,71,246,45,73,31,045,44*6F
###2023-12-09 13:13:59.995898$GLGSV,2,2,06,74,66,353,42,75,36,259,41,,,,,,,,*6F
###2023-12-09 13:13:59.998230$GAGSV,1,1,04,04,33,312,41,19,80,192,40,21,84,066,46,27,29,048,41*69
###2023-12-09 13:14:00.000577$GBGSV,2,1,06,14,38,192,44,24,70,034,49,25,44,267,44,26,22,065,42*64
###2023-12-09 13:14:00.002322$GBGSV,2,2,06,33,53,226,47,35,15,065,44,,,,,,,,*6F
###2023-12-09 13:14:00.003656$GNVTG,273.28,T,,M,3.67,N,6.80,K,A*23
###2023-12-09 13:14:00.005305$GNGST,181359.10,18.000,,,,0.097,0.074,0.170*53
###2023-12-09 13:14:00.006610$GNZDA,181359.10,09,12,2023,00,00*77
###2023-12-09 13:14:00.007250$GNEBP,,,,,,M*13
###2023-12-09 13:14:00.174329$GNGGA,181359.30,4138.0454042,N,07032.2959050,W,1,24,0.7,12.961,M,-29.743,M,0.0,*59
###2023-12-09 13:14:00.374372$GNGGA,181359.50,4138.0454068,N,07032.2961739,W,1,24,0.7,12.944,M,-29.743,M,0.0,*53
###2023-12-09 13:14:00.575205$GNGGA,181359.70,4138.0454419,N,07032.2964416,W,1,24,0.7,12.973,M,-29.743,M,0.0,*5C
###2023-12-09 13:14:00.775267$GNGGA,181359.90,4138.0454798,N,07032.2967067,W,1,24,0.7,12.996,M,-29.743,M,0.0,*52
###2023-12-09 13:14:00.978401$GNRMC,181400.10,A,4138.0454913,N,07032.2969727,W,3.63,268.45,091223,,,A*5F
###2023-12-09 13:14:00.981275$GNGGA,181400.10,4138.0454913,N,07032.2969727,W,1,24,0.7,13.003,M,-29.743,M,0.0,*55
###2023-12-09 13:14:00.983086$GPGSA,A,3,03,04,16,26,28,29,31,,,,,,1.2,0.7,1.0*30
###2023-12-09 13:14:00.984806$GLGSA,A,3,65,71,72,73,74,75,,,,,,,1.2,0.7,1.0*2E
###2023-12-09 13:14:00.986393$GAGSA,A,3,04,19,21,27,,,,,,,,,1.2,0.7,1.0*2C
###2023-12-09 13:14:00.988115$GBGSA,A,3,14,24,25,26,33,35,,,,,,,1.2,0.7,1.0*23
###2023-12-09 13:14:00.990445$GPGSV,2,1,07,03,32,255,42,04,38,311,43,16,56,215,46,26,86,209,47*72
###2023-12-09 13:14:00.992495$GPGSV,2,2,07,28,45,076,45,29,24,055,42,31,65,050,47,,,,*49
###2023-12-09 13:14:00.994837$GLGSV,2,1,06,65,29,325,42,71,34,174,45,72,71,246,45,73,31,045,44*6D
###2023-12-09 13:14:00.996585$GLGSV,2,2,06,74,66,353,42,75,36,259,42,,,,,,,,*6C
###2023-12-09 13:14:00.998924$GAGSV,1,1,04,04,33,312,42,19,80,192,41,21,84,066,46,27,29,048,40*6A
###2023-12-09 13:14:01.001495$GBGSV,2,1,06,14,38,192,44,24,70,034,49,25,44,267,43,26,22,065,43*62
###2023-12-09 13:14:01.003270$GBGSV,2,2,06,33,53,226,48,35,15,065,44,,,,,,,,*60
###2023-12-09 13:14:01.004594$GNVTG,268.45,T,,M,3.63,N,6.73,K,A*2A
###2023-12-09 13:14:01.006240$GNGST,181400.10,18.000,,,,0.097,0.074,0.170*58
###2023-12-09 13:14:01.007544$GNZDA,181400.10,09,12,2023,00,00*7C
###2023-12-09 13:14:01.008182$GNEBP,,,,,,M*13
###2023-12-09 13:14:01.177421$GNGGA,181400.30,4138.0454866,N,07032.2972415,W,1,24,0.7,12.988,M,-29.743,M,0.0,*57
###2023-12-09 13:14:01.375126$GNGGA,181400.50,4138.0454985,N,07032.2975144,W,1,24,0.7,12.984,M,-29.743,M,0.0,*57
###2023-12-09 13:14:01.575242$GNGGA,181400.70,4138.0455282,N,07032.2977890,W,1,24,0.7,12.997,M,-29.743,M,0.0,*58
