###2023-12-09 12:54:01.753637$GNGGA,175400.90,4138.0602166,N,07032.3922403,W,1,24,0.6,13.543,M,-29.744,M,0.0,*51
###2023-12-09 12:54:01.954314$GNRMC,175401.10,A,4138.0602534,N,07032.3923133,W,0.72,304.99,091223,,,A*58
###2023-12-09 12:54:01.957222$GNGGA,175401.10,4138.0602534,N,07032.3923133,W,1,24,0.6,13.556,M,-29.744,M,0.0,*58
###2023-12-09 12:54:01.959111$GPGSA,A,3,03,04,16,26,28,29,31,32,,,,,1.1,0.6,0.9*3B
###2023-12-09 12:54:01.960836$GLGSA,A,3,65,71,72,73,74,75,,,,,,,1.1,0.6,0.9*24
###2023-12-09 12:54:01.962426$GAGSA,A,3,04,19,21,27,,,,,,,,,1.1,0.6,0.9*26
###2023-12-09 12:54:01.964088$GBGSA,A,3,14,24,25,26,33,,,,,,,,1.1,0.6,0.9*2F
###2023-12-09 12:54:01.966424$GPGSV,2,1,08,03,36,266,45,04,29,311,44,16,46,211,44,26,76,209,46*70
###2023-12-09 12:54:01.968777$GPGSV,2,2,08,28,52,067,44,29,25,064,41,31,70,029,48,32,22,138,40*7B
###2023-12-09 12:54:01.971128$GLGSV,2,1,06,65,20,328,45,71,45,172,45,72,72,285,46,73,39,039,47*61
###2023-12-09 12:54:01.972889$GLGSV,2,2,06,74,71,324,43,75,29,249,44,,,,,,,,*62
###2023-12-09 12:54:01.975251$GAGSV,1,1,04,04,27,312,44,19,85,243,40,21,84,154,45,27,36,048,45*6A
###2023-12-09 12:54:01.977580$GBGSV,2,1,05,14,47,194,44,24,76,016,48,25,38,259,44,26,29,061,42*67
###2023-12-09 12:54:01.979051$GBGSV,2,2,05,33,60,238,47,,,,,,,,,,,,*52
###2023-12-09 12:54:01.980376$GNVTG,304.99,T,,M,0.72,N,1.33,K,A*20
###2023-12-09 12:54:01.982026$GNGST,175401.10,18.000,,,,0.075,0.067,0.160*5D
###2023-12-09 12:54:01.983331$GNZDA,175401.10,09,12,2023,00,00*76
###2023-12-09 12:54:01.983971$GNEBP,,,,,,M*13
###2023-12-09 12:54:02.153715$GNGGA,175401.30,4138.0602499,N,07032.3923239,W,1,24,0.6,13.543,M,-29.744,M,0.0,*51
###2023-12-09 12:54:02.354076$GNGGA,175401.50,4138.0602265,N,07032.3922989,W,1,24,0.6,13.497,M,-29.744,M,0.0,*5B
###2023-12-09 12:54:02.553557$GNGGA,175401.70,4138.0602341,N,07032.3923268,W,1,24,0.6,13.493,M,-29.744,M,0.0,*5F
###2023-12-09 12:54:02.754650$GNGGA,175401.90,4138.0602731,N,07032.3924077,W,1,24,0.6,13.534,M,-29.744,M,0.0,*55
###2023-12-09 12:54:02.954293$GNRMC,175402.10,A,4138.0602923,N,07032.3924607,W,0.27,305.59,091223,,,A*5B
###2023-12-09 12:54:02.957195$GNGGA,175402.10,4138.0602923,N,07032.3924607,W,1,24,0.6,13.535,M,-29.744,M,0.0,*53
###2023-12-09 12:54:02.959075$GPGSA,A,3,03,04,16,26,28,29,31,32,,,,,1.1,0.6,0.9*3B
###2023-12-09 12:54:02.960793$GLGSA,A,3,65,71,72,73,74,75,,,,,,,1.1,0.6,0.9*24
###2023-12-09 12:54:02.962379$GAGSA,A,3,04,19,21,27,,,,,,,,,1.1,0.6,0.9*26
###2023-12-09 12:54:02.964048$GBGSA,A,3,14,24,25,26,33,,,,,,,,1.1,0.6,0.9*2F
###2023-12-09 12:54:02.966373$GPGSV,2,1,08,03,36,266,45,04,29,311,44,16,46,211,44,26,76,209,46*70
###2023-12-09 12:54:02.968723$GPGSV,2,2,08,28,52,067,43,29,25,064,42,31,70,029,47,32,22,138,39*7E
###2023-12-09 12:54:02.971058$GLGSV,2,1,06,65,20,328,46,71,45,172,44,72,72,285,46,73,39,039,47*63
###2023-12-09 12:54:02.972803$GLGSV,2,2,06,74,71,324,43,75,29,249,43,,,,,,,,*65
###2023-12-09 12:54:02.975139$GAGSV,1,1,04,04,27,312,44,19,85,243,40,21,84,154,45,27,36,048,44*6B
###2023-12-09 12:54:02.977471$GBGSV,2,1,05,14,47,194,45,24,76,016,48,25,38,259,47,26,29,061,43*64
###2023-12-09 12:54:02.978939$GBGSV,2,2,05,33,60,238,47,,,,,,,,,,,,*52
###2023-12-09 12:54:02.980262$GNVTG,305.59,T,,M,0.27,N,0.50,K,A*29
###2023-12-09 12:54:02.981911$GNGST,175402.10,18.000,,,,0.076,0.067,0.160*5D
###2023-12-09 12:54:02.983216$GNZDA,175402.10,09,12,2023,00,00*75
###2023-12-09 12:54:02.983854$GNEBP,,,,,,M*13
###2023-12-09 12:54:03.152800$GNGGA,175402.30,4138.0602828,N,07032.3924558,W,1,24,0.6,13.552,M,-29.744,M,0.0,*53
###2023-12-09 12:54:03.354689$GNGGA,175402.50,4138.0602666,N,07032.3924367,W,1,24,0.6,13.507,M,-29.744,M,0.0,*5B
###2023-12-09 12:54:03.553641$GNGGA,175402.70,4138.0602779,N,07032.3924732,W,1,24,0.6,13.490,M,-29.744,M,0.0,*5D
###2023-12-09 12:54:03.756342$GNGGA,175402.90,4138.0603134,N,07032.3925538,W,1,24,0.6,13.533,M,-29.744,M,0.0,*5C
###2023-12-09 12:54:03.956222$GNRMC,175403.10,A,4138.0603327,N,07032.3926047,W,0.16,299.66,091223,,,A*5F
###2023-12-09 12:54:03.959103$GNGGA,175403.10,4138.0603327,N,07032.3926047,W,1,24,0.6,13.542,M,-29.744,M,0.0,*5D
###2023-12-09 12:54:03.960966$GPGSA,A,3,03,04,16,26,28,29,31,32,,,,,1.1,0.6,0.9*3B
###2023-12-09 12:54:03.962700$GLGSA,A,3,65,71,72,73,74,75,,,,,,,1.1,0.6,0.9*24
###2023-12-09 12:54:03.964284$GAGSA,A,3,04,19,21,27,,,,,,,,,1.1,0.6,0.9*26
###2023-12-09 12:54:03.965929$GBGSA,A,3,14,24,25,26,33,,,,,,,,1.1,0.6,0.9*2F
###2023-12-09 12:54:03.968265$GPGSV,2,1,08,03,36,266,45,04,29,311,44,16,46,211,44,26,76,209,47*71
###2023-12-09 12:54:03.970615$GPGSV,2,2,08,28,52,067,43,29,25,064,42,31,70,029,46,32,22,138,39*7F
###2023-12-09 12:54:03.972950$GLGSV,2,1,06,65,20,328,46,71,45,172,44,72,72,285,46,73,39,039,47*63
###2023-12-09 12:54:03.974739$GLGSV,2,2,06,74,71,324,43,75,29,249,43,,,,,,,,*65
###2023-12-09 12:54:03.977069$GAGSV,1,1,04,04,27,312,45,19,85,243,40,21,84,154,44,27,36,048,44*6B
###2023-12-09 12:54:03.979406$GBGSV,2,1,05,14,47,194,44,24,76,016,48,25,38,259,47,26,29,061,42*64
###2023-12-09 12:54:03.980862$GBGSV,2,2,05,33,60,238,47,,,,,,,,,,,,*52
###2023-12-09 12:54:03.982180$GNVTG,299.66,T,,M,0.16,N,0.29,K,A*2D
###2023-12-09 12:54:03.983838$GNGST,175403.10,18.000,,,,0.076,0.068,0.160*53
###2023-12-09 12:54:03.985129$GNZDA,175403.10,09,12,2023,00,00*74
###2023-12-09 12:54:03.985768$GNEBP,,,,,,M*13
###2023-12-09 12:54:04.152744$GNGGA,175403.30,4138.0603203,N,07032.3925913,W,1,24,0.6,13.556,M,-29.744,M,0.0,*56
###2023-12-09 12:54:04.354813$GNGGA,175403.50,4138.0603073,N,07032.3925761,W,1,24,0.6,13.510,M,-29.744,M,0.0,*5C
###2023-12-09 12:54:04.554534$GNGGA,175403.70,4138.0603273,N,07032.3926286,W,1,24,0.6,13.515,M,-29.744,M,0.0,*56
###2023-12-09 12:54:04.753571$GNGGA,175403.90,4138.0603596,N,07032.3927068,W,1,24,0.6,13.541,M,-29.744,M,0.0,*56
###2023-12-09 12:54:04.954416$GNRMC,175404.10,A,4138.0603680,N,07032.3927374,W,0.16,302.23,091223,,,A*50
###2023-12-09 12:54:04.957310$GNGGA,175404.10,4138.0603680,N,07032.3927374,W,1,24,0.6,13.541,M,-29.744,M,0.0,*53
###2023-12-09 12:54:04.959177$GPGSA,A,3,03,04,16,26,28,29,31,32,,,,,1.1,0.6,0.9*3B
###2023-12-09 12:54:04.960893$GLGSA,A,3,65,71,72,73,74,75,,,,,,,1.1,0.6,0.9*24
###2023-12-09 12:54:04.962468$GAGSA,A,3,04,19,21,27,,,,,,,,,1.1,0.6,0.9*26
###2023-12-09 12:54:04.964121$GBGSA,A,3,14,24,25,26,33,,,,,,,,1.1,0.6,0.9*2F
###2023-12-09 12:54:04.966442$GPGSV,2,1,08,03,36,266,45,04,29,311,45,16,46,211,43,26,76,209,46*76
###2023-12-09 12:54:04.968787$GPGSV,2,2,08,28,52,067,44,29,25,064,40,31,70,029,47,32,22,138,39*7B
###2023-12-09 12:54:04.971124$GLGSV,2,1,06,65,20,328,45,71,45,172,46,72,72,285,46,73,39,039,48*6D
###2023-12-09 12:54:04.972870$GLGSV,2,2,06,74,71,324,43,75,29,249,44,,,,,,,,*62
###2023-12-09 12:54:04.975200$GAGSV,1,1,04,04,27,312,44,19,85,243,40,21,84,154,45,27,36,048,44*6B
###2023-12-09 12:54:04.977530$GBGSV,2,1,05,14,47,194,45,24,76,016,48,25,38,259,47,26,29,061,42*65
###2023-12-09 12:54:04.978993$GBGSV,2,2,05,33,60,238,47,,,,,,,,,,,,*52
###2023-12-09 12:54:04.980314$GNVTG,302.23,T,,M,0.16,N,0.29,K,A*2F
###2023-12-09 12:54:04.981956$GNGST,175404.10,18.000,,,,0.077,0.068,0.160*55
###2023-12-09 12:54:04.983255$GNZDA,175404.10,09,12,2023,00,00*73
###2023-12-09 12:54:04.983894$GNEBP,,,,,,M*13
###2023-12-09 12:54:05.153402$GNGGA,175404.30,4138.0603519,N,07032.3927111,W,1,24,0.6,13.545,M,-29.744,M,0.0,*57
###2023-12-09 12:54:05.354800$GNGGA,175404.50,4138.0603464,N,07032.3927071,W,1,24,0.6,13.525,M,-29.744,M,0.0,*5B
###2023-12-09 12:54:05.554832$GNGGA,175404.70,4138.0603737,N,07032.3927761,W,1,24,0.6,13.554,M,-29.744,M,0.0,*5C
###2023-12-09 12:54:05.754457$GNGGA,175404.90,4138.0604022,N,07032.3928470,W,1,24,0.6,13.563,M,-29.744,M,0.0,*5E
###2023-12-09 12:54:05.954165$GNRMC,175405.10,A,4138.0603990,N,07032.3928481,W,0.51,298.94,091223,,,A*50
###2023-12-09 12:54:05.957059$GNGGA,175405.10,4138.0603990,N,07032.3928481,W,1,24,0.6,13.569,M,-29.744,M,0.0,*54
###2023-12-09 12:54:05.958948$GPGSA,A,3,03,04,16,26,28,29,31,32,,,,,1.1,0.6,0.9*3B
###2023-12-09 12:54:05.960666$GLGSA,A,3,65,71,72,73,74,75,,,,,,,1.1,0.6,0.9*24
###2023-12-09 12:54:05.962244$GAGSA,A,3,04,19,21,27,,,,,,,,,1.1,0.6,0.9*26
###2023-12-09 12:54:05.963903$GBGSA,A,3,14,24,25,26,33,,,,,,,,1.1,0.6,0.9*2F
###2023-12-09 12:54:05.966470$GPGSV,2,1,08,03,36,266,44,04,29,311,45,16,46,211,43,26,76,209,46*77
###2023-12-09 12:54:05.968823$GPGSV,2,2,08,28,52,067,43,29,25,064,42,31,70,029,47,32,22,138,41*71
###2023-12-09 12:54:05.971171$GLGSV,2,1,06,65,20,328,44,71,45,172,47,72,72,285,45,73,39,039,48*6E
###2023-12-09 12:54:05.972915$GLGSV,2,2,06,74,71,324,43,75,29,249,43,,,,,,,,*65
###2023-12-09 12:54:05.975254$GAGSV,1,1,04,04,27,312,45,19,85,243,40,21,84,154,45,27,36,048,44*6A
###2023-12-09 12:54:05.977577$GBGSV,2,1,05,14,47,194,44,24,76,016,49,25,38,259,46,26,29,061,43*65
###2023-12-09 12:54:05.979042$GBGSV,2,2,05,33,60,238,48,,,,,,,,,,,,*5D
###2023-12-09 12:54:05.980362$GNVTG,298.94,T,,M,0.51,N,0.94,K,A*24
###2023-12-09 12:54:05.982006$GNGST,175405.10,18.000,,,,0.077,0.068,0.160*54
