###2023-12-09 13:12:50.001427$GBGSV,2,1,06,14,38,192,44,24,70,034,49,25,44,267,46,26,22,065,42*66
###2023-12-09 13:12:50.003227$GBGSV,2,2,06,33,53,226,48,35,15,065,42,,,,,,,,*66
###2023-12-09 13:12:50.004532$GNVTG,97.09,T,,M,3.54,N,6.55,K,A*10
###2023-12-09 13:12:50.006184$GNGST,181249.10,18.000,,,,0.097,0.072,0.170*55
###2023-12-09 13:12:50.007498$GNZDA,181249.10,09,12,2023,00,00*77
###2023-12-09 13:12:50.008144$GNEBP,,,,,,M*13
###2023-12-09 13:12:50.172789$GNGGA,181249.30,4138.0447521,N,07032.2831166,W,1,24,0.7,12.839,M,-29.743,M,0.0,*5C
###2023-12-09 13:12:50.374535$GNGGA,181249.50,4138.0447733,N,07032.2828586,W,1,24,0.7,12.879,M,-29.743,M,0.0,*5D
###2023-12-09 13:12:50.575501$GNGGA,181249.70,4138.0447953,N,07032.2825955,W,1,24,0.7,12.872,M,-29.743,M,0.0,*53
###2023-12-09 13:12:50.775238$GNGGA,181249.90,4138.0447698,N,07032.2823278,W,1,24,0.7,12.855,M,-29.743,M,0.0,*52
###2023-12-09 13:12:50.983243$GNRMC,181250.10,A,4138.0447390,N,07032.2820720,W,3.52,92.83,091223,,,A*6B
###2023-12-09 13:12:50.986129$GNGGA,181250.10,4138.0447390,N,07032.2820720,W,1,24,0.7,12.858,M,-29.743,M,0.0,*59
###2023-12-09 13:12:50.987939$GPGSA,A,3,03,04,16,26,28,29,31,,,,,,1.2,0.7,1.0*30
###2023-12-09 13:12:50.989656$GLGSA,A,3,65,71,72,73,74,75,,,,,,,1.2,0.7,1.0*2E
###2023-12-09 13:12:50.991251$GAGSA,A,3,04,19,21,27,,,,,,,,,1.2,0.7,1.0*2C
###2023-12-09 13:12:50.992962$GBGSA,A,3,14,24,25,26,33,35,,,,,,,1.2,0.7,1.0*23
###2023-12-09 13:12:50.995298$GPGSV,2,1,07,03,33,256,44,04,37,311,42,16,55,215,47,26,85,210,48*7E
###2023-12-09 13:12:50.997332$GPGSV,2,2,07,28,46,075,42,29,24,056,40,31,66,048,46,,,,*44
###2023-12-09 13:12:50.999670$GLGSV,2,1,06,65,29,325,41,71,34,174,46,72,71,246,46,73,31,045,43*69
###2023-12-09 13:12:51.001419$GLGSV,2,2,06,74,66,353,42,75,36,259,47,,,,,,,,*69
###2023-12-09 13:12:51.003751$GAGSV,1,1,04,04,33,312,40,19,81,194,41,21,84,070,46,27,29,048,42*6A
###2023-12-09 13:12:51.006080$GBGSV,2,1,06,14,38,192,44,24,70,034,47,25,44,267,46,26,22,065,41*6B
###2023-12-09 13:12:51.007836$GBGSV,2,2,06,33,53,226,48,35,15,065,41,,,,,,,,*65
###2023-12-09 13:12:51.009122$GNVTG,92.83,T,,M,3.52,N,6.52,K,A*16
###2023-12-09 13:12:51.010776$GNGST,181250.10,18.000,,,,0.098,0.072,0.170*52
###2023-12-09 13:12:51.012065$GNZDA,181250.10,09,12,2023,00,00*7F
###2023-12-09 13:12:51.012701$GNEBP,,,,,,M*13
###2023-12-09 13:12:51.177795$GNGGA,181250.30,4138.0447517,N,07032.2818081,W,1,24,0.7,12.878,M,-29.743,M,0.0,*57
###2023-12-09 13:12:51.373926$GNGGA,181250.50,4138.0447600,N,07032.2815428,W,1,24,0.7,12.857,M,-29.743,M,0.0,*53
###2023-12-09 13:12:51.573659$GNGGA,181250.70,4138.0447499,N,07032.2812823,W,1,24,0.7,12.856,M,-29.743,M,0.0,*52
###2023-12-09 13:12:51.774777$GNGGA,181250.90,4138.0447323,N,07032.2810132,W,1,24,0.7,12.876,M,-29.743,M,0.0,*53
###2023-12-09 13:12:51.976015$GNRMC,181251.10,A,4138.0447418,N,07032.2807460,W,3.60,80.49,091223,,,A*6B
###2023-12-09 13:12:51.978876$GNGGA,181251.10,4138.0447418,N,07032.2807460,W,1,24,0.7,12.870,M,-29.743,M,0.0,*57
###2023-12-09 13:12:51.980667$GPGSA,A,3,03,04,16,26,28,29,31,,,,,,1.2,0.7,1.0*30
###2023-12-09 13:12:51.982372$GLGSA,A,3,65,71,72,73,74,75,,,,,,,1.2,0.7,1.0*2E
###2023-12-09 13:12:51.983974$GAGSA,A,3,04,19,21,27,,,,,,,,,1.2,0.7,1.0*2C
###2023-12-09 13:12:51.985678$GBGSA,A,3,14,24,25,26,33,35,,,,,,,1.2,0.7,1.0*23
###2023-12-09 13:12:51.988007$GPGSV,2,1,07,03,33,256,44,04,37,311,44,16,55,215,47,26,85,210,48*78
###2023-12-09 13:12:51.990032$GPGSV,2,2,07,28,46,075,41,29,24,056,39,31,66,048,45,,,,*4A
###2023-12-09 13:12:51.992369$GLGSV,2,1,06,65,29,325,40,71,34,174,45,72,71,246,46,73,31,045,44*6C
###2023-12-09 13:12:51.994107$GLGSV,2,2,06,74,66,353,43,75,36,259,48,,,,,,,,*67
###2023-12-09 13:12:51.996436$GAGSV,1,1,04,04,33,312,41,19,81,194,41,21,84,070,46,27,29,048,40*69
###2023-12-09 13:12:51.998765$GBGSV,2,1,06,14,38,192,45,24,70,034,48,25,44,267,47,26,22,065,41*64
###2023-12-09 13:12:52.000504$GBGSV,2,2,06,33,53,226,48,35,15,065,42,,,,,,,,*66
###2023-12-09 13:12:52.001789$GNVTG,80.49,T,,M,3.60,N,6.66,K,A*15
###2023-12-09 13:12:52.003451$GNGST,181251.10,18.000,,,,0.098,0.072,0.170*53
###2023-12-09 13:12:52.004745$GNZDA,181251.10,09,12,2023,00,00*7E
###2023-12-09 13:12:52.005385$GNEBP,,,,,,M*13
###2023-12-09 13:12:52.173581$GNGGA,181251.30,4138.0447727,N,07032.2804822,W,1,24,0.7,12.869,M,-29.743,M,0.0,*5B
###2023-12-09 13:12:52.373879$GNGGA,181251.50,4138.0447916,N,07032.2802153,W,1,24,0.7,12.859,M,-29.743,M,0.0,*5B
###2023-12-09 13:12:52.574556$GNGGA,181251.70,4138.0448073,N,07032.2799459,W,1,24,0.7,12.862,M,-29.743,M,0.0,*56
###2023-12-09 13:12:52.774727$GNGGA,181251.90,4138.0448280,N,07032.2796765,W,1,24,0.7,12.862,M,-29.743,M,0.0,*55
###2023-12-09 13:12:52.977010$GNRMC,181252.10,A,4138.0448518,N,07032.2794046,W,3.73,84.98,091223,,,A*69
###2023-12-09 13:12:52.979881$GNGGA,181252.10,4138.0448518,N,07032.2794046,W,1,24,0.7,12.866,M,-29.743,M,0.0,*58
###2023-12-09 13:12:52.981672$GPGSA,A,3,03,04,16,26,28,29,31,,,,,,1.2,0.7,1.0*30
###2023-12-09 13:12:52.983399$GLGSA,A,3,65,71,72,73,74,75,,,,,,,1.2,0.7,1.0*2E
###2023-12-09 13:12:52.984983$GAGSA,A,3,04,19,21,27,,,,,,,,,1.2,0.7,1.0*2C
###2023-12-09 13:12:52.986705$GBGSA,A,3,14,24,25,26,33,35,,,,,,,1.2,0.7,1.0*23
###2023-12-09 13:12:52.989030$GPGSV,2,1,07,03,33,256,43,04,37,311,44,16,55,215,47,26,85,210,48*7F
###2023-12-09 13:12:52.991084$GPGSV,2,2,07,28,46,075,42,29,24,056,40,31,66,048,46,,,,*44
###2023-12-09 13:12:52.993426$GLGSV,2,1,06,65,29,325,40,71,34,174,45,72,71,246,46,73,31,045,44*6C
###2023-12-09 13:12:52.995190$GLGSV,2,2,06,74,66,353,42,75,36,259,48,,,,,,,,*66
###2023-12-09 13:12:52.997524$GAGSV,1,1,04,04,33,312,43,19,81,194,41,21,84,070,46,27,29,048,42*69
###2023-12-09 13:12:52.999872$GBGSV,2,1,06,14,38,192,45,24,70,034,48,25,44,267,46,26,22,065,43*67
###2023-12-09 13:12:53.001622$GBGSV,2,2,06,33,53,226,48,35,15,065,43,,,,,,,,*67
###2023-12-09 13:12:53.002923$GNVTG,84.98,T,,M,3.73,N,6.91,K,A*17
###2023-12-09 13:12:53.004573$GNGST,181252.10,18.000,,,,0.098,0.072,0.170*50
###2023-12-09 13:12:53.005867$GNZDA,181252.10,09,12,2023,00,00*7D
###2023-12-09 13:12:53.006506$GNEBP,,,,,,M*13
###2023-12-09 13:12:53.173542$GNGGA,181252.30,4138.0448616,N,07032.2791329,W,1,24,0.7,12.865,M,-29.743,M,0.0,*5B
###2023-12-09 13:12:53.373718$GNGGA,181252.50,4138.0448668,N,07032.2788587,W,1,24,0.7,12.869,M,-29.743,M,0.0,*52
###2023-12-09 13:12:53.574655$GNGGA,181252.70,4138.0448737,N,07032.2785871,W,1,24,0.7,12.859,M,-29.743,M,0.0,*51
###2023-12-09 13:12:53.773707$GNGGA,181252.90,4138.0448753,N,07032.2783229,W,1,24,0.7,12.844,M,-29.743,M,0.0,*50
###2023-12-09 13:12:53.978020$GNRMC,181253.10,A,4138.0448737,N,07032.2780568,W,3.62,90.28,091223,,,A*65
###2023-12-09 13:12:53.980887$GNGGA,181253.10,4138.0448737,N,07032.2780568,W,1,24,0.7,12.846,M,-29.743,M,0.0,*58
###2023-12-09 13:12:53.982685$GPGSA,A,3,03,04,16,26,28,29,31,,,,,,1.2,0.7,1.0*30
###2023-12-09 13:12:53.984398$GLGSA,A,3,65,71,72,73,74,75,,,,,,,1.2,0.7,1.0*2E
###2023-12-09 13:12:53.985981$GAGSA,A,3,04,19,21,27,,,,,,,,,1.2,0.7,1.0*2C
###2023-12-09 13:12:53.987699$GBGSA,A,3,14,24,25,26,33,35,,,,,,,1.2,0.7,1.0*23
###2023-12-09 13:12:53.990025$GPGSV,2,1,07,03,33,256,42,04,37,311,44,16,55,215,46,26,85,210,47*70
###2023-12-09 13:12:53.992074$GPGSV,2,2,07,28,46,075,42,29,24,056,40,31,66,048,45,,,,*47
###2023-12-09 13:12:53.994403$GLGSV,2,1,06,65,29,325,42,71,34,174,45,72,71,246,46,73,31,045,44*6E
###2023-12-09 13:12:53.996157$GLGSV,2,2,06,74,66,353,42,75,36,259,48,,,,,,,,*66
###2023-12-09 13:12:53.998480$GAGSV,1,1,04,04,33,312,41,19,81,194,40,21,84,070,45,27,29,048,41*6A
###2023-12-09 13:12:54.000822$GBGSV,2,1,06,14,38,192,45,24,70,034,49,25,44,267,47,26,22,065,43*67
###2023-12-09 13:12:54.002599$GBGSV,2,2,06,33,53,226,49,35,15,065,43,,,,,,,,*66
###2023-12-09 13:12:54.003894$GNVTG,90.28,T,,M,3.62,N,6.70,K,A*16
###2023-12-09 13:12:54.005542$GNGST,181253.10,18.000,,,,0.097,0.072,0.170*5E
###2023-12-09 13:12:54.006846$GNZDA,181253.10,09,12,2023,00,00*7C
###2023-12-09 13:12:54.007487$GNEBP,,,,,,M*13
###2023-12-09 13:12:54.173733$GNGGA,181253.30,4138.0448696,N,07032.2777922,W,1,24,0.7,12.850,M,-29.743,M,0.0,*5D
###2023-12-09 13:12:54.374427$GNGGA,181253.50,4138.0448638,N,07032.2775271,W,1,24,0.7,12.846,M,-29.743,M,0.0,*57
###2023-12-09 13:12:54.574846$GNGGA,181253.70,4138.0448451,N,07032.2772543,W,1,24,0.7,12.825,M,-29.743,M,0.0,*5C
###2023-12-09 13:12:54.795819$GNGGA,181253.90,4138.0448557,N,07032.2769962,W,1,24,0.7,12.817,M,-29.743,M,0.0,*51
###2023-12-09 13:12:54.977214$GNRMC,181254.10,A,4138.0448862,N,07032.2767355,W,3.77,87.14,091223,,,A*61
###2023-12-09 13:12:54.980083$GNGGA,181254.10,4138.0448862,N,07032.2767355,W,1,24,0.7,12.841,M,-29.743,M,0.0,*56
###2023-12-09 13:12:54.981882$GPGSA,A,3,03,04,16,26,28,29,31,,,,,,1.2,0.7,1.0*30
###2023-12-09 13:12:54.983605$GLGSA,A,3,65,71,72,73,74,75,,,,,,,1.2,0.7,1.0*2E
###2023-12-09 13:12:54.985189$GAGSA,A,3,04,19,21,27,,,,,,,,,1.2,0.7,1.0*2C
###2023-12-09 13:12:54.986903$GBGSA,A,3,14,24,25,26,33,35,,,,,,,1.2,0.7,1.0*23
