###2023-12-09 13:16:53.000456$GLGSV,2,1,06,65,31,324,42,71,32,174,44,72,70,240,45,73,29,047,44*6E
###2023-12-09 13:16:53.002225$GLGSV,2,2,06,74,65,358,43,75,38,261,45,,,,,,,,*67
###2023-12-09 13:16:53.004577$GAGSV,1,1,04,04,34,312,42,19,79,190,40,21,83,062,46,27,28,049,41*6A
###2023-12-09 13:16:53.006933$GBGSV,2,1,06,14,36,191,43,24,68,036,48,25,45,268,45,26,21,066,44*6D
###2023-12-09 13:16:53.008685$GBGSV,2,2,06,33,52,224,46,35,16,063,44,,,,,,,,*68
###2023-12-09 13:16:53.010015$GNVTG,234.17,T,,M,3.52,N,6.52,K,A*25
###2023-12-09 13:16:53.011693$GNGST,181652.10,18.000,,,,0.098,0.072,0.170*54
###2023-12-09 13:16:53.012991$GNZDA,181652.10,09,12,2023,00,00*79
###2023-12-09 13:16:53.013631$GNEBP,,,,,,M*13
###2023-12-09 13:16:53.177691$GNGGA,181652.30,4138.0857096,N,07032.2906676,W,1,24,0.7,13.191,M,-29.742,M,0.0,*5E
###2023-12-09 13:16:53.377906$GNGGA,181652.50,4138.0856033,N,07032.2908765,W,1,24,0.7,13.260,M,-29.742,M,0.0,*56
###2023-12-09 13:16:53.579910$GNGGA,181652.70,4138.0854930,N,07032.2911113,W,1,24,0.7,13.263,M,-29.742,M,0.0,*50
###2023-12-09 13:16:53.778777$GNGGA,181652.90,4138.0853497,N,07032.2912679,W,1,24,0.7,13.199,M,-29.742,M,0.0,*57
###2023-12-09 13:16:53.987540$GNRMC,181653.10,A,4138.0852094,N,07032.2914110,W,3.50,227.81,091223,,,A*5C
###2023-12-09 13:16:53.990406$GNGGA,181653.10,4138.0852094,N,07032.2914110,W,1,24,0.7,13.197,M,-29.742,M,0.0,*58
###2023-12-09 13:16:53.992216$GPGSA,A,3,03,04,16,26,28,29,31,,,,,,1.2,0.7,1.0*30
###2023-12-09 13:16:53.993935$GLGSA,A,3,65,71,72,73,74,75,,,,,,,1.2,0.7,1.0*2E
###2023-12-09 13:16:53.995532$GAGSA,A,3,04,19,21,27,,,,,,,,,1.2,0.7,1.0*2C
###2023-12-09 13:16:53.997249$GBGSA,A,3,14,24,25,26,33,35,,,,,,,1.2,0.7,1.0*23
###2023-12-09 13:16:53.999591$GPGSV,2,1,07,03,32,254,38,04,38,311,43,16,57,216,44,26,87,208,47*7E
###2023-12-09 13:16:54.001639$GPGSV,2,2,07,28,44,077,44,29,24,054,45,31,65,052,47,,,,*4C
###2023-12-09 13:16:54.003986$GLGSV,2,1,06,65,31,324,42,71,32,174,45,72,70,240,45,73,29,047,46*6D
###2023-12-09 13:16:54.005738$GLGSV,2,2,06,74,65,358,43,75,38,261,43,,,,,,,,*61
###2023-12-09 13:16:54.008083$GAGSV,1,1,04,04,34,312,41,19,79,190,40,21,83,062,46,27,28,049,42*6A
###2023-12-09 13:16:54.010415$GBGSV,2,1,06,14,36,191,40,24,68,036,48,25,45,268,44,26,21,066,45*6E
###2023-12-09 13:16:54.012178$GBGSV,2,2,06,33,52,224,44,35,16,063,45,,,,,,,,*6B
###2023-12-09 13:16:54.013505$GNVTG,227.81,T,,M,3.50,N,6.48,K,A*21
###2023-12-09 13:16:54.015170$GNGST,181653.10,18.000,,,,0.098,0.072,0.170*55
###2023-12-09 13:16:54.016469$GNZDA,181653.10,09,12,2023,00,00*78
###2023-12-09 13:16:54.017112$GNEBP,,,,,,M*13
###2023-12-09 13:16:54.179960$GNGGA,181653.30,4138.0850897,N,07032.2916365,W,1,24,0.7,13.250,M,-29.742,M,0.0,*59
###2023-12-09 13:16:54.377931$GNGGA,181653.50,4138.0849488,N,07032.2918247,W,1,24,0.7,13.209,M,-29.742,M,0.0,*56
###2023-12-09 13:16:54.577795$GNGGA,181653.70,4138.0847890,N,07032.2919345,W,1,24,0.7,13.219,M,-29.742,M,0.0,*5C
###2023-12-09 13:16:54.780900$GNGGA,181653.90,4138.0846306,N,07032.2920715,W,1,24,0.7,13.249,M,-29.742,M,0.0,*59
###2023-12-09 13:16:54.980978$GNRMC,181654.10,A,4138.0844745,N,07032.2922504,W,3.65,218.73,091223,,,A*54
###2023-12-09 13:16:54.983865$GNGGA,181654.10,4138.0844745,N,07032.2922504,W,1,24,0.7,13.241,M,-29.742,M,0.0,*5F
###2023-12-09 13:16:54.985655$GPGSA,A,3,03,04,16,26,28,29,31,,,,,,1.2,0.7,1.0*30
###2023-12-09 13:16:54.987386$GLGSA,A,3,65,71,72,73,74,75,,,,,,,1.2,0.7,1.0*2E
###2023-12-09 13:16:54.988980$GAGSA,A,3,04,19,21,27,,,,,,,,,1.2,0.7,1.0*2C
###2023-12-09 13:16:54.990718$GBGSA,A,3,14,24,25,26,33,35,,,,,,,1.2,0.7,1.0*23
###2023-12-09 13:16:54.993043$GPGSV,2,1,07,03,32,254,41,04,38,311,44,16,57,216,45,26,87,208,48*79
###2023-12-09 13:16:54.995103$GPGSV,2,2,07,28,44,077,45,29,24,054,43,31,65,052,46,,,,*4A
###2023-12-09 13:16:54.997461$GLGSV,2,1,06,65,31,324,42,71,32,174,43,72,70,240,45,73,29,047,45*68
###2023-12-09 13:16:54.999232$GLGSV,2,2,06,74,65,358,43,75,38,261,45,,,,,,,,*67
###2023-12-09 13:16:55.001581$GAGSV,1,1,04,04,34,312,42,19,79,190,40,21,83,062,46,27,28,049,42*69
###2023-12-09 13:16:55.003933$GBGSV,2,1,06,14,36,191,43,24,68,036,48,25,45,268,46,26,21,066,44*6E
###2023-12-09 13:16:55.005693$GBGSV,2,2,06,33,52,224,46,35,16,063,44,,,,,,,,*68
###2023-12-09 13:16:55.007036$GNVTG,218.73,T,,M,3.65,N,6.77,K,A*2A
###2023-12-09 13:16:55.008696$GNGST,181654.10,18.000,,,,0.098,0.072,0.170*52
###2023-12-09 13:16:55.009996$GNZDA,181654.10,09,12,2023,00,00*7F
###2023-12-09 13:16:55.010650$GNEBP,,,,,,M*13
###2023-12-09 13:16:55.176747$GNGGA,181654.30,4138.0843164,N,07032.2923959,W,1,24,0.7,13.222,M,-29.742,M,0.0,*5F
###2023-12-09 13:16:55.377982$GNGGA,181654.50,4138.0841515,N,07032.2925087,W,1,24,0.7,13.238,M,-29.742,M,0.0,*5E
###2023-12-09 13:16:55.578766$GNGGA,181654.70,4138.0839717,N,07032.2926244,W,1,24,0.7,13.226,M,-29.742,M,0.0,*52
###2023-12-09 13:16:55.777720$GNGGA,181654.90,4138.0838066,N,07032.2927182,W,1,24,0.7,13.210,M,-29.742,M,0.0,*51
###2023-12-09 13:16:55.983912$GNRMC,181655.10,A,4138.0836361,N,07032.2928233,W,3.60,206.98,091223,,,A*54
###2023-12-09 13:16:55.986786$GNGGA,181655.10,4138.0836361,N,07032.2928233,W,1,24,0.7,13.254,M,-29.742,M,0.0,*54
###2023-12-09 13:16:55.988580$GPGSA,A,3,03,04,16,26,28,29,31,,,,,,1.2,0.7,1.0*30
###2023-12-09 13:16:55.990291$GLGSA,A,3,65,71,72,73,74,75,,,,,,,1.2,0.7,1.0*2E
###2023-12-09 13:16:55.991890$GAGSA,A,3,04,19,21,27,,,,,,,,,1.2,0.7,1.0*2C
###2023-12-09 13:16:55.993599$GBGSA,A,3,14,24,25,26,33,35,,,,,,,1.2,0.7,1.0*23
###2023-12-09 13:16:55.995933$GPGSV,2,1,07,03,32,254,40,04,38,311,45,16,57,216,44,26,87,208,47*77
###2023-12-09 13:16:55.997966$GPGSV,2,2,07,28,44,077,45,29,24,054,42,31,65,052,47,,,,*4A
###2023-12-09 13:16:56.000300$GLGSV,2,1,06,65,31,324,42,71,32,174,42,72,70,240,45,73,29,047,44*68
###2023-12-09 13:16:56.002046$GLGSV,2,2,06,74,65,358,43,75,38,261,45,,,,,,,,*67
###2023-12-09 13:16:56.004374$GAGSV,1,1,04,04,34,312,43,19,79,190,40,21,83,062,46,27,28,049,41*6B
###2023-12-09 13:16:56.006701$GBGSV,2,1,06,14,36,191,42,24,68,036,49,25,45,268,46,26,21,066,44*6E
###2023-12-09 13:16:56.008451$GBGSV,2,2,06,33,52,224,46,35,16,063,44,,,,,,,,*68
###2023-12-09 13:16:56.009772$GNVTG,206.98,T,,M,3.60,N,6.66,K,A*25
###2023-12-09 13:16:56.011432$GNGST,181655.10,18.000,,,,0.100,0.073,0.170*52
###2023-12-09 13:16:56.012725$GNZDA,181655.10,09,12,2023,00,00*7E
###2023-12-09 13:16:56.013364$GNEBP,,,,,,M*13
###2023-12-09 13:16:56.178774$GNGGA,181655.30,4138.0834539,N,07032.2929257,W,1,24,0.7,13.239,M,-29.742,M,0.0,*57
###2023-12-09 13:16:56.380870$GNGGA,181655.50,4138.0832775,N,07032.2929700,W,1,24,0.7,13.214,M,-29.742,M,0.0,*55
###2023-12-09 13:16:56.578844$GNGGA,181655.70,4138.0830946,N,07032.2930274,W,1,24,0.7,13.239,M,-29.742,M,0.0,*5A
###2023-12-09 13:16:56.782629$GNGGA,181655.90,4138.0829056,N,07032.2930981,W,1,24,0.7,13.224,M,-29.742,M,0.0,*59
###2023-12-09 13:16:56.989233$GNRMC,181656.10,A,4138.0827216,N,07032.2931307,W,3.34,183.79,091223,,,A*58
###2023-12-09 13:16:56.992119$GNGGA,181656.10,4138.0827216,N,07032.2931307,W,1,24,0.7,13.214,M,-29.742,M,0.0,*5C
###2023-12-09 13:16:56.993911$GPGSA,A,3,03,04,16,26,28,29,31,,,,,,1.2,0.7,1.0*30
###2023-12-09 13:16:56.995639$GLGSA,A,3,65,71,72,73,74,75,,,,,,,1.2,0.7,1.0*2E
###2023-12-09 13:16:56.997220$GAGSA,A,3,04,19,21,27,,,,,,,,,1.2,0.7,1.0*2C
###2023-12-09 13:16:56.998938$GBGSA,A,3,14,24,25,26,33,35,,,,,,,1.2,0.7,1.0*23
###2023-12-09 13:16:57.001255$GPGSV,2,1,07,03,32,254,43,04,38,311,45,16,57,216,46,26,87,208,48*79
###2023-12-09 13:16:57.003310$GPGSV,2,2,07,28,44,077,45,29,24,054,41,31,65,052,47,,,,*49
###2023-12-09 13:16:57.005645$GLGSV,2,1,06,65,31,324,44,71,32,174,42,72,70,240,45,73,29,047,43*69
###2023-12-09 13:16:57.007402$GLGSV,2,2,06,74,65,358,43,75,38,261,46,,,,,,,,*64
###2023-12-09 13:16:57.009732$GAGSV,1,1,04,04,34,312,43,19,79,190,40,21,83,062,46,27,28,049,40*6A
###2023-12-09 13:16:57.012070$GBGSV,2,1,06,14,36,191,40,24,68,036,49,25,45,268,47,26,21,066,44*6D
###2023-12-09 13:16:57.013816$GBGSV,2,2,06,33,52,224,47,35,16,063,43,,,,,,,,*6E
###2023-12-09 13:16:57.015150$GNVTG,183.79,T,,M,3.34,N,6.19,K,A*2D
###2023-12-09 13:16:57.016802$GNGST,181656.10,18.000,,,,0.100,0.072,0.170*50
###2023-12-09 13:16:57.018338$GNZDA,181656.10,09,12,2023,00,00*7D
###2023-12-09 13:16:57.018998$GNEBP,,,,,,M*13
###2023-12-09 13:16:57.180025$GNGGA,181656.30,4138.0825293,N,07032.2931496,W,1,24,0.7,13.226,M,-29.742,M,0.0,*5F
###2023-12-09 13:16:57.378918$GNGGA,181656.50,4138.0823401,N,07032.2931605,W,1,24,0.7,13.210,M,-29.742,M,0.0,*5F
###2023-12-09 13:16:57.578726$GNGGA,181656.70,4138.0821479,N,07032.2931620,W,1,24,0.7,13.221,M,-29.742,M,0.0,*55
###2023-12-09 13:16:57.778980$GNGGA,181656.90,4138.0819571,N,07032.2931674,W,1,24,0.7,13.228,M,-29.742,M,0.0,*51
###2023-12-09 13:16:57.983255$GNRMC,181657.10,A,4138.0817673,N,07032.2931462,W,3.50,169.45,091223,,,A*50
###2023-12-09 13:16:57.986126$GNGGA,181657.10,4138.0817673,N,07032.2931462,W,1,24,0.7,13.220,M,-29.742,M,0.0,*5A
###2023-12-09 13:16:57.987929$GPGSA,A,3,03,04,16,26,28,29,31,,,,,,1.2,0.7,1.0*30
