###2023-12-09 12:27:53.932154$GAGSA,A,3,21,27,,,,,,,,,,,1.5,0.8,1.3*2B
###2023-12-09 12:27:53.934114$GBGSA,A,3,14,25,26,33,,,,,,,,,1.5,0.8,1.3*28
###2023-12-09 12:27:53.936971$GPGSV,2,1,07,03,39,281,40,16,33,206,42,26,62,205,42,28,60,051,43*70
###2023-12-09 12:27:53.939467$GPGSV,2,2,07,29,24,078,42,31,73,348,42,32,33,132,46,,,,*46
###2023-12-09 12:27:53.942307$GLGSV,1,1,04,71,60,168,46,72,63,315,44,73,51,031,48,75,19,238,41*63
###2023-12-09 12:27:53.944469$GAGSV,1,1,02,21,75,179,42,27,44,050,46,,,,,,,,*60
###2023-12-09 12:27:53.947335$GBGSV,1,1,04,14,58,200,46,25,30,250,35,26,37,056,48,33,64,261,41*6F
###2023-12-09 12:27:53.948753$GNVTG,,T,,M,0.06,N,0.11,K,A*3B
###2023-12-09 12:27:53.950773$GNGST,172753.10,32.000,,,,0.100,0.096,0.260*58
###2023-12-09 12:27:53.952346$GNZDA,172753.10,09,12,2023,00,00*75
###2023-12-09 12:27:53.953121$GNEBP,,,,,,M*13
###2023-12-09 12:27:54.122047$GNGGA,172753.30,4138.0391688,N,07032.4356699,W,1,17,0.8,7.060,M,-29.746,M,0.0,*63
###2023-12-09 12:27:54.321746$GNGGA,172753.50,4138.0391670,N,07032.4356613,W,1,17,0.8,7.093,M,-29.746,M,0.0,*6C
###2023-12-09 12:27:54.521408$GNGGA,172753.70,4138.0391650,N,07032.4356545,W,1,17,0.8,7.114,M,-29.746,M,0.0,*62
###2023-12-09 12:27:54.719807$GNGGA,172753.90,4138.0391637,N,07032.4356508,W,1,17,0.8,7.135,M,-29.746,M,0.0,*67
###2023-12-09 12:27:54.923589$GNRMC,172754.10,A,4138.0391637,N,07032.4356482,W,0.02,,091223,,,A*4D
###2023-12-09 12:27:54.926412$GNGGA,172754.10,4138.0391637,N,07032.4356482,W,1,17,0.8,7.149,M,-29.746,M,0.0,*60
###2023-12-09 12:27:54.928226$GPGSA,A,3,03,16,26,28,29,31,32,,,,,,1.5,0.8,1.3*3E
###2023-12-09 12:27:54.929817$GLGSA,A,3,71,72,73,75,,,,,,,,,1.5,0.8,1.3*25
###2023-12-09 12:27:54.931277$GAGSA,A,3,21,27,,,,,,,,,,,1.5,0.8,1.3*2B
###2023-12-09 12:27:54.932866$GBGSA,A,3,14,25,26,33,,,,,,,,,1.5,0.8,1.3*28
###2023-12-09 12:27:54.935204$GPGSV,2,1,07,03,39,281,39,16,33,206,43,26,62,205,42,28,60,051,43*7F
###2023-12-09 12:27:54.937244$GPGSV,2,2,07,29,24,078,42,31,73,348,43,32,33,132,46,,,,*47
###2023-12-09 12:27:54.939595$GLGSV,1,1,04,71,60,168,47,72,63,315,44,73,51,031,48,75,19,238,41*62
###2023-12-09 12:27:54.941347$GAGSV,1,1,02,21,75,179,42,27,44,050,46,,,,,,,,*60
###2023-12-09 12:27:54.943682$GBGSV,1,1,04,14,58,200,46,25,30,250,36,26,37,056,48,33,64,261,41*6C
###2023-12-09 12:27:54.944825$GNVTG,,T,,M,0.02,N,0.04,K,A*3B
###2023-12-09 12:27:54.946487$GNGST,172754.10,32.000,,,,0.100,0.097,0.260*5E
###2023-12-09 12:27:54.947820$GNZDA,172754.10,09,12,2023,00,00*72
###2023-12-09 12:27:54.948472$GNEBP,,,,,,M*13
###2023-12-09 12:27:55.121835$GNGGA,172754.30,4138.0391643,N,07032.4356457,W,1,17,0.8,7.168,M,-29.746,M,0.0,*6A
###2023-12-09 12:27:55.321161$GNGGA,172754.50,4138.0391648,N,07032.4356430,W,1,17,0.8,7.180,M,-29.746,M,0.0,*60
###2023-12-09 12:27:55.521390$GNGGA,172754.70,4138.0391644,N,07032.4356403,W,1,17,0.8,7.190,M,-29.746,M,0.0,*6F
###2023-12-09 12:27:55.721353$GNGGA,172754.90,4138.0391650,N,07032.4356402,W,1,17,0.8,7.199,M,-29.746,M,0.0,*6C
###2023-12-09 12:27:55.922632$GNRMC,172755.10,A,4138.0391640,N,07032.4356381,W,0.04,,091223,,,A*4E
###2023-12-09 12:27:55.925479$GNGGA,172755.10,4138.0391640,N,07032.4356381,W,1,17,0.8,7.219,M,-29.746,M,0.0,*63
###2023-12-09 12:27:55.927302$GPGSA,A,3,03,16,26,28,29,31,32,,,,,,1.5,0.8,1.3*3E
###2023-12-09 12:27:55.928900$GLGSA,A,3,71,72,73,75,,,,,,,,,1.5,0.8,1.3*25
###2023-12-09 12:27:55.930361$GAGSA,A,3,21,27,,,,,,,,,,,1.5,0.8,1.3*2B
###2023-12-09 12:27:55.931963$GBGSA,A,3,14,25,26,33,,,,,,,,,1.5,0.8,1.3*28
###2023-12-09 12:27:55.934297$GPGSV,2,1,07,03,39,281,39,16,33,206,43,26,62,205,41,28,60,051,43*7C
###2023-12-09 12:27:55.936366$GPGSV,2,2,07,29,24,078,42,31,73,348,42,32,33,132,47,,,,*47
###2023-12-09 12:27:55.938710$GLGSV,1,1,04,71,60,168,47,72,63,315,44,73,51,031,48,75,19,238,41*62
###2023-12-09 12:27:55.940463$GAGSV,1,1,02,21,75,179,42,27,44,050,46,,,,,,,,*60
###2023-12-09 12:27:55.942805$GBGSV,1,1,04,14,58,200,45,25,30,250,36,26,37,056,47,33,64,261,40*61
###2023-12-09 12:27:55.943946$GNVTG,,T,,M,0.04,N,0.07,K,A*3E
###2023-12-09 12:27:55.945605$GNGST,172755.10,32.000,,,,0.100,0.100,0.260*50
###2023-12-09 12:27:55.946928$GNZDA,172755.10,09,12,2023,00,00*73
###2023-12-09 12:27:55.947591$GNEBP,,,,,,M*13
###2023-12-09 12:27:56.121966$GNGGA,172755.30,4138.0391630,N,07032.4356353,W,1,17,0.8,7.233,M,-29.746,M,0.0,*61
###2023-12-09 12:27:56.322121$GNGGA,172755.50,4138.0391619,N,07032.4356319,W,1,17,0.8,7.251,M,-29.746,M,0.0,*66
###2023-12-09 12:27:56.522172$GNGGA,172755.70,4138.0391615,N,07032.4356293,W,1,17,0.8,7.267,M,-29.746,M,0.0,*6E
###2023-12-09 12:27:56.720227$GNGGA,172755.90,4138.0391593,N,07032.4356269,W,1,17,0.8,7.278,M,-29.746,M,0.0,*66
###2023-12-09 12:27:56.928602$GNRMC,172756.10,A,4138.0391592,N,07032.4356256,W,0.10,,091223,,,A*4F
###2023-12-09 12:27:56.931442$GNGGA,172756.10,4138.0391592,N,07032.4356256,W,1,17,0.8,7.295,M,-29.746,M,0.0,*63
###2023-12-09 12:27:56.933228$GPGSA,A,3,03,16,26,28,29,31,32,,,,,,1.5,0.8,1.3*3E
###2023-12-09 12:27:56.934828$GLGSA,A,3,71,72,73,75,,,,,,,,,1.5,0.8,1.3*25
###2023-12-09 12:27:56.936285$GAGSA,A,3,21,27,,,,,,,,,,,1.5,0.8,1.3*2B
###2023-12-09 12:27:56.937865$GBGSA,A,3,14,25,26,33,,,,,,,,,1.5,0.8,1.3*28
###2023-12-09 12:27:56.940240$GPGSV,2,1,07,03,39,281,39,16,33,206,42,26,62,205,41,28,60,051,44*7A
###2023-12-09 12:27:56.942287$GPGSV,2,2,07,29,24,078,42,31,73,348,43,32,33,132,46,,,,*47
###2023-12-09 12:27:56.944630$GLGSV,1,1,04,71,60,168,46,72,63,315,43,73,51,031,47,75,19,238,41*6B
###2023-12-09 12:27:56.946382$GAGSV,1,1,02,21,75,179,41,27,44,050,46,,,,,,,,*63
###2023-12-09 12:27:56.948743$GBGSV,1,1,04,14,58,200,45,25,30,250,37,26,37,056,48,33,64,261,41*6E
###2023-12-09 12:27:56.949890$GNVTG,,T,,M,0.10,N,0.18,K,A*35
###2023-12-09 12:27:56.951554$GNGST,172756.10,32.000,,,,0.110,0.100,0.270*53
###2023-12-09 12:27:56.952850$GNZDA,172756.10,09,12,2023,00,00*70
###2023-12-09 12:27:56.953494$GNEBP,,,,,,M*13
###2023-12-09 12:27:57.124083$GNGGA,172756.30,4138.0391595,N,07032.4356246,W,1,17,0.8,7.316,M,-29.746,M,0.0,*6D
###2023-12-09 12:27:57.323438$GNGGA,172756.50,4138.0391582,N,07032.4356223,W,1,18,0.8,7.343,M,-29.746,M,0.0,*61
###2023-12-09 12:27:57.523134$GNGGA,172756.70,4138.0391581,N,07032.4356233,W,1,19,0.7,7.348,M,-29.746,M,0.0,*64
###2023-12-09 12:27:57.722936$GNGGA,172756.90,4138.0391573,N,07032.4356226,W,1,18,0.8,7.358,M,-29.746,M,0.0,*6C
###2023-12-09 12:27:57.923922$GNRMC,172757.10,A,4138.0391569,N,07032.4356221,W,0.00,,091223,,,A*4B
###2023-12-09 12:27:57.926764$GNGGA,172757.10,4138.0391569,N,07032.4356221,W,1,17,0.8,7.374,M,-29.746,M,0.0,*68
###2023-12-09 12:27:57.928562$GPGSA,A,3,03,16,26,28,29,31,32,,,,,,1.5,0.8,1.3*3E
###2023-12-09 12:27:57.930157$GLGSA,A,3,71,72,73,75,,,,,,,,,1.5,0.8,1.3*25
###2023-12-09 12:27:57.931621$GAGSA,A,3,21,27,,,,,,,,,,,1.5,0.8,1.3*2B
###2023-12-09 12:27:57.933207$GBGSA,A,3,14,25,26,33,,,,,,,,,1.5,0.8,1.3*28
###2023-12-09 12:27:57.935549$GPGSV,2,1,07,03,39,281,38,16,33,206,42,26,62,205,41,28,60,051,44*7B
###2023-12-09 12:27:57.937591$GPGSV,2,2,07,29,24,078,42,31,73,348,42,32,33,132,46,,,,*46
###2023-12-09 12:27:57.939937$GLGSV,1,1,04,71,60,168,47,72,63,315,43,73,51,031,47,75,19,238,41*6A
###2023-12-09 12:27:57.941694$GAGSV,1,1,02,21,75,179,42,27,44,050,46,,,,,,,,*60
###2023-12-09 12:27:57.944044$GBGSV,1,1,04,14,58,200,45,25,30,250,37,26,37,056,48,33,64,261,41*6E
###2023-12-09 12:27:57.945180$GNVTG,,T,,M,0.00,N,0.00,K,A*3D
###2023-12-09 12:27:57.946851$GNGST,172757.10,32.000,,,,0.110,0.110,0.270*53
###2023-12-09 12:27:57.948165$GNZDA,172757.10,09,12,2023,00,00*71
###2023-12-09 12:27:57.948810$GNEBP,,,,,,M*13
###2023-12-09 12:27:58.122995$GNGGA,172757.30,4138.0391551,N,07032.4356222,W,1,17,0.8,7.382,M,-29.746,M,0.0,*6B
###2023-12-09 12:27:58.323064$GNGGA,172757.50,4138.0391532,N,07032.4356214,W,1,17,0.8,7.391,M,-29.746,M,0.0,*6F
###2023-12-09 12:27:58.522189$GNGGA,172757.70,4138.0391518,N,07032.4356204,W,1,17,0.8,7.399,M,-29.746,M,0.0,*6C
###2023-12-09 12:27:58.721251$GNGGA,172757.90,4138.0391514,N,07032.4356195,W,1,17,0.8,7.409,M,-29.746,M,0.0,*6B
###2023-12-09 12:27:58.923051$GNRMC,172758.10,A,4138.0391511,N,07032.4356195,W,0.06,,091223,,,A*41
###2023-12-09 12:27:58.926261$GNGGA,172758.10,4138.0391511,N,07032.4356195,W,1,17,0.8,7.406,M,-29.746,M,0.0,*66
###2023-12-09 12:27:58.928129$GPGSA,A,3,03,16,26,28,29,31,32,,,,,,1.5,0.8,1.3*3E
###2023-12-09 12:27:58.929758$GLGSA,A,3,71,72,73,75,,,,,,,,,1.5,0.8,1.3*25
###2023-12-09 12:27:58.931267$GAGSA,A,3,21,27,,,,,,,,,,,1.5,0.8,1.3*2B
###2023-12-09 12:27:58.932887$GBGSA,A,3,14,25,26,33,,,,,,,,,1.5,0.8,1.3*28
###2023-12-09 12:27:58.935268$GPGSV,2,1,07,03,39,281,35,16,34,206,40,26,62,205,39,28,60,051,43*7B
###2023-12-09 12:27:58.937346$GPGSV,2,2,07,29,24,078,40,31,73,348,41,32,33,132,45,,,,*44
###2023-12-09 12:27:58.939719$GLGSV,1,1,04,71,60,168,47,72,63,315,43,73,51,031,48,75,19,238,41*65
