###2023-12-09 13:41:39.011174$GPGSA,A,3,04,16,26,28,29,31,,,,,,,1.2,0.7,1.0*33
###2023-12-09 13:41:39.013192$GLGSA,A,3,65,72,73,74,75,,,,,,,,1.2,0.7,1.0*28
###2023-12-09 13:41:39.015137$GAGSA,A,3,04,19,21,27,,,,,,,,,1.2,0.7,1.0*2C
###2023-12-09 13:41:39.017133$GBGSA,A,3,12,24,25,33,35,,,,,,,,1.2,0.7,1.0*21
###2023-12-09 13:41:39.019964$GPGSV,2,1,06,04,49,306,42,16,70,226,46,26,80,041,49,28,35,088,44*7A
###2023-12-09 13:41:39.022072$GPGSV,2,2,06,29,19,044,40,31,57,071,47,,,,,,,,*7D
###2023-12-09 13:41:39.024904$GLGSV,2,1,05,65,41,315,41,72,59,216,45,73,20,054,42,74,57,019,42*64
###2023-12-09 13:41:39.026680$GLGSV,2,2,05,75,45,276,45,,,,,,,,,,,,*51
###2023-12-09 13:41:39.029493$GAGSV,1,1,04,04,41,309,41,19,69,180,41,21,74,044,47,27,20,051,40*6D
###2023-12-09 13:41:39.032343$GBGSV,2,1,05,12,17,124,43,24,60,049,49,25,53,279,45,33,43,215,47*66
###2023-12-09 13:41:39.034138$GBGSV,2,2,05,35,16,054,43,,,,,,,,,,,,*59
###2023-12-09 13:41:39.035754$GNVTG,299.74,T,,M,2.99,N,5.54,K,A*24
###2023-12-09 13:41:39.037712$GNGST,184138.10,5.600,,,,0.130,0.100,0.240*67
###2023-12-09 13:41:39.039291$GNZDA,184138.10,09,12,2023,00,00*77
###2023-12-09 13:41:39.040066$GNEBP,,,,,,M*13
###2023-12-09 13:41:39.210200$GNGGA,184138.30,4138.0342867,N,07032.4073309,W,1,21,0.7,13.194,M,-29.745,M,0.0,*5E
###2023-12-09 13:41:39.401396$GNGGA,184138.50,4138.0343660,N,07032.4075290,W,1,23,0.6,13.197,M,-29.745,M,0.0,*57
###2023-12-09 13:41:39.601260$GNGGA,184138.70,4138.0344353,N,07032.4077283,W,1,24,0.6,13.214,M,-29.745,M,0.0,*58
###2023-12-09 13:41:39.800273$GNGGA,184138.90,4138.0345041,N,07032.4079339,W,1,25,0.6,13.214,M,-29.745,M,0.0,*58
###2023-12-09 13:41:39.999435$GNRMC,184139.10,A,4138.0345689,N,07032.4081433,W,3.01,291.69,091223,,,A*5D
###2023-12-09 13:41:40.002307$GNGGA,184139.10,4138.0345689,N,07032.4081433,W,1,23,0.6,13.223,M,-29.745,M,0.0,*5B
###2023-12-09 13:41:40.004180$GPGSA,A,3,03,04,09,16,26,28,29,31,,,,,1.0,0.6,0.8*33
###2023-12-09 13:41:40.005831$GLGSA,A,3,65,72,73,74,75,,,,,,,,1.0,0.6,0.8*22
###2023-12-09 13:41:40.007426$GAGSA,A,3,04,19,21,27,,,,,,,,,1.0,0.6,0.8*26
###2023-12-09 13:41:40.009072$GBGSA,A,3,12,24,25,33,35,,,,,,,,1.0,0.6,0.8*2B
###2023-12-09 13:41:40.011407$GPGSV,2,1,08,03,24,243,37,04,49,306,44,09,15,317,41,16,70,226,46*73
###2023-12-09 13:41:40.013734$GPGSV,2,2,08,26,80,041,49,28,35,088,45,29,19,044,40,31,57,071,47*7A
###2023-12-09 13:41:40.016062$GLGSV,2,1,05,65,41,315,42,72,59,216,45,73,20,054,42,74,57,019,43*66
###2023-12-09 13:41:40.017510$GLGSV,2,2,05,75,45,276,45,,,,,,,,,,,,*51
###2023-12-09 13:41:40.019845$GAGSV,1,1,04,04,41,309,41,19,69,180,41,21,74,044,46,27,20,051,39*62
###2023-12-09 13:41:40.022168$GBGSV,2,1,05,12,17,124,41,24,60,049,49,25,53,279,46,33,43,215,47*67
###2023-12-09 13:41:40.023634$GBGSV,2,2,05,35,16,054,43,,,,,,,,,,,,*59
###2023-12-09 13:41:40.024957$GNVTG,291.69,T,,M,3.01,N,5.58,K,A*2C
###2023-12-09 13:41:40.026586$GNGST,184139.10,5.600,,,,0.130,0.100,0.240*66
###2023-12-09 13:41:40.027886$GNZDA,184139.10,09,12,2023,00,00*76
###2023-12-09 13:41:40.028527$GNEBP,,,,,,M*13
###2023-12-09 13:41:40.199765$GNGGA,184139.30,4138.0346307,N,07032.4083571,W,1,24,0.6,13.219,M,-29.745,M,0.0,*52
###2023-12-09 13:41:40.397893$GNGGA,184139.50,4138.0346907,N,07032.4085711,W,1,23,0.6,13.226,M,-29.745,M,0.0,*57
###2023-12-09 13:41:40.596160$GNGGA,184139.70,4138.0347469,N,07032.4087866,W,1,22,0.6,13.228,M,-29.745,M,0.0,*53
###2023-12-09 13:41:40.795821$GNGGA,184139.90,4138.0348032,N,07032.4090044,W,1,22,0.6,13.230,M,-29.745,M,0.0,*5F
###2023-12-09 13:41:41.001742$GNRMC,184140.10,A,4138.0348562,N,07032.4092206,W,3.07,287.96,091223,,,A*5B
###2023-12-09 13:41:41.004620$GNGGA,184140.10,4138.0348562,N,07032.4092206,W,1,23,0.7,13.227,M,-29.745,M,0.0,*59
###2023-12-09 13:41:41.006478$GPGSA,A,3,03,04,09,16,26,28,29,31,,,,,1.1,0.7,0.9*32
###2023-12-09 13:41:41.008141$GLGSA,A,3,65,72,73,74,75,,,,,,,,1.1,0.7,0.9*23
###2023-12-09 13:41:41.009721$GAGSA,A,3,04,19,21,27,,,,,,,,,1.1,0.7,0.9*27
###2023-12-09 13:41:41.011374$GBGSA,A,3,12,24,25,33,35,,,,,,,,1.1,0.7,0.9*2A
###2023-12-09 13:41:41.013697$GPGSV,2,1,08,03,24,243,39,04,49,306,42,09,15,317,41,16,70,226,45*78
###2023-12-09 13:41:41.016031$GPGSV,2,2,08,26,80,041,48,28,35,088,45,29,19,044,41,31,57,071,47*7A
###2023-12-09 13:41:41.018356$GLGSV,2,1,05,65,41,315,41,72,59,216,44,73,20,054,42,74,57,019,42*65
###2023-12-09 13:41:41.019825$GLGSV,2,2,05,75,45,276,45,,,,,,,,,,,,*51
###2023-12-09 13:41:41.022146$GAGSV,1,1,04,04,41,309,41,19,69,180,41,21,74,044,45,27,20,051,39*61
###2023-12-09 13:41:41.024485$GBGSV,2,1,05,12,17,124,43,24,60,049,50,25,53,279,47,33,43,215,47*6C
###2023-12-09 13:41:41.025937$GBGSV,2,2,05,35,16,054,44,,,,,,,,,,,,*5E
###2023-12-09 13:41:41.027270$GNVTG,287.96,T,,M,3.07,N,5.69,K,A*2F
###2023-12-09 13:41:41.028884$GNGST,184140.10,5.600,,,,0.130,0.100,0.230*6F
###2023-12-09 13:41:41.030172$GNZDA,184140.10,09,12,2023,00,00*78
###2023-12-09 13:41:41.030823$GNEBP,,,,,,M*13
###2023-12-09 13:41:41.197437$GNGGA,184140.30,4138.0349101,N,07032.4094375,W,1,23,0.7,13.224,M,-29.745,M,0.0,*5B
###2023-12-09 13:41:41.396573$GNGGA,184140.50,4138.0349710,N,07032.4096523,W,1,23,0.7,13.212,M,-29.745,M,0.0,*59
###2023-12-09 13:41:41.597517$GNGGA,184140.70,4138.0350363,N,07032.4098669,W,1,22,0.7,13.216,M,-29.745,M,0.0,*55
###2023-12-09 13:41:41.795799$GNGGA,184140.90,4138.0351003,N,07032.4100834,W,1,22,0.7,13.216,M,-29.745,M,0.0,*59
###2023-12-09 13:41:41.999413$GNRMC,184141.10,A,4138.0351613,N,07032.4103024,W,3.25,292.82,091223,,,A*5D
###2023-12-09 13:41:42.002278$GNGGA,184141.10,4138.0351613,N,07032.4103024,W,1,22,0.7,13.221,M,-29.745,M,0.0,*59
###2023-12-09 13:41:42.004150$GPGSA,A,3,03,04,09,16,26,28,29,31,,,,,1.2,0.7,0.9*31
###2023-12-09 13:41:42.005803$GLGSA,A,3,65,72,73,74,75,,,,,,,,1.2,0.7,0.9*20
###2023-12-09 13:41:42.007401$GAGSA,A,3,04,19,21,27,,,,,,,,,1.2,0.7,0.9*24
###2023-12-09 13:41:42.009053$GBGSA,A,3,12,24,25,33,35,,,,,,,,1.2,0.7,0.9*29
###2023-12-09 13:41:42.011390$GPGSV,2,1,08,03,24,243,36,04,49,306,42,09,15,317,40,16,70,226,47*74
###2023-12-09 13:41:42.013724$GPGSV,2,2,08,26,80,041,49,28,35,088,45,29,19,044,41,31,57,071,47*7B
###2023-12-09 13:41:42.016065$GLGSV,2,1,05,65,41,315,41,72,59,216,44,73,20,054,43,74,57,019,42*64
###2023-12-09 13:41:42.017521$GLGSV,2,2,05,75,45,276,45,,,,,,,,,,,,*51
###2023-12-09 13:41:42.019852$GAGSV,1,1,04,04,41,309,42,19,69,180,41,21,74,044,47,27,20,051,40*6E
###2023-12-09 13:41:42.022179$GBGSV,2,1,05,12,17,124,43,24,60,049,50,25,53,279,48,33,43,215,48*6C
###2023-12-09 13:41:42.023643$GBGSV,2,2,05,35,16,054,43,,,,,,,,,,,,*59
###2023-12-09 13:41:42.024967$GNVTG,292.82,T,,M,3.25,N,6.01,K,A*23
###2023-12-09 13:41:42.026587$GNGST,184141.10,7.700,,,,0.130,0.100,0.230*6D
###2023-12-09 13:41:42.027883$GNZDA,184141.10,09,12,2023,00,00*79
###2023-12-09 13:41:42.028523$GNEBP,,,,,,M*13
###2023-12-09 13:41:42.197793$GNGGA,184141.30,4138.0352326,N,07032.4105219,W,1,23,0.7,13.222,M,-29.745,M,0.0,*53
###2023-12-09 13:41:42.396321$GNGGA,184141.50,4138.0353073,N,07032.4107414,W,1,23,0.7,13.221,M,-29.745,M,0.0,*5D
###2023-12-09 13:41:42.596527$GNGGA,184141.70,4138.0353856,N,07032.4109630,W,1,23,0.7,13.220,M,-29.745,M,0.0,*5B
###2023-12-09 13:41:42.798736$GNGGA,184141.90,4138.0354635,N,07032.4111821,W,1,23,0.7,13.223,M,-29.745,M,0.0,*5D
###2023-12-09 13:41:43.002855$GNRMC,184142.10,A,4138.0355439,N,07032.4114007,W,3.34,297.39,091223,,,A*52
###2023-12-09 13:41:43.005717$GNGGA,184142.10,4138.0355439,N,07032.4114007,W,1,23,0.7,13.228,M,-29.745,M,0.0,*5B
###2023-12-09 13:41:43.007587$GPGSA,A,3,03,04,09,16,26,28,29,31,,,,,1.1,0.7,0.9*32
###2023-12-09 13:41:43.009233$GLGSA,A,3,65,72,73,74,75,,,,,,,,1.1,0.7,0.9*23
###2023-12-09 13:41:43.010827$GAGSA,A,3,04,19,21,27,,,,,,,,,1.1,0.7,0.9*27
###2023-12-09 13:41:43.012480$GBGSA,A,3,12,24,25,33,35,,,,,,,,1.1,0.7,0.9*2A
###2023-12-09 13:41:43.014846$GPGSV,2,1,08,03,24,243,40,04,49,306,42,09,15,317,40,16,70,226,46*74
###2023-12-09 13:41:43.017190$GPGSV,2,2,08,26,80,041,48,28,35,088,44,29,19,044,41,31,57,071,47*7B
###2023-12-09 13:41:43.019537$GLGSV,2,1,05,65,41,315,40,72,59,216,47,73,20,054,41,74,57,019,42*64
###2023-12-09 13:41:43.020998$GLGSV,2,2,05,75,45,276,46,,,,,,,,,,,,*52
###2023-12-09 13:41:43.023605$GAGSV,1,1,04,04,41,309,41,19,69,180,41,21,74,044,47,27,20,051,38*62
###2023-12-09 13:41:43.025953$GBGSV,2,1,05,12,17,124,42,24,60,049,48,25,53,279,46,33,43,215,46*64
###2023-12-09 13:41:43.027438$GBGSV,2,2,05,35,16,054,43,,,,,,,,,,,,*59
###2023-12-09 13:41:43.028776$GNVTG,297.39,T,,M,3.34,N,6.19,K,A*2F
###2023-12-09 13:41:43.030392$GNGST,184142.10,6.200,,,,0.130,0.100,0.230*6A
###2023-12-09 13:41:43.031705$GNZDA,184142.10,09,12,2023,00,00*7A
###2023-12-09 13:41:43.032347$GNEBP,,,,,,M*13
###2023-12-09 13:41:43.198386$GNGGA,184142.30,4138.0356306,N,07032.4116162,W,1,22,0.7,13.232,M,-29.745,M,0.0,*5B
