###2023-12-09 13:22:35.998961$GBGSA,A,3,14,24,25,26,33,35,,,,,,,1.1,0.7,0.9*28
###2023-12-09 13:22:36.001305$GPGSV,2,1,07,03,30,252,42,04,41,310,45,16,60,218,46,26,90,099,48*75
###2023-12-09 13:22:36.003366$GPGSV,2,2,07,28,42,080,45,29,23,052,42,31,63,057,47,,,,*46
###2023-12-09 13:22:36.005697$GLGSV,2,1,06,65,33,323,43,71,30,174,43,72,69,234,46,73,27,048,44*66
###2023-12-09 13:22:36.007456$GLGSV,2,2,06,74,64,002,43,75,39,263,47,,,,,,,,*6B
###2023-12-09 13:22:36.009778$GAGSV,1,1,04,04,36,311,43,19,77,186,40,21,81,054,46,27,26,049,41*6A
###2023-12-09 13:22:36.012121$GBGSV,2,1,06,14,34,191,42,24,66,040,49,25,47,271,47,26,19,068,44*6D
###2023-12-09 13:22:36.013866$GBGSV,2,2,06,33,50,221,46,35,16,062,43,,,,,,,,*69
###2023-12-09 13:22:36.015196$GNVTG,176.10,T,,M,3.58,N,6.62,K,A*2E
###2023-12-09 13:22:36.016835$GNGST,182235.10,18.000,,,,0.100,0.070,0.170*50
###2023-12-09 13:22:36.018120$GNZDA,182235.10,09,12,2023,00,00*7F
###2023-12-09 13:22:36.018770$GNEBP,,,,,,M*13
###2023-12-09 13:22:36.186295$GNGGA,182235.30,4138.0622480,N,07032.3607406,W,1,24,0.7,13.080,M,-29.744,M,0.0,*5A
###2023-12-09 13:22:36.384818$GNGGA,182235.50,4138.0620498,N,07032.3607186,W,1,24,0.7,13.057,M,-29.744,M,0.0,*50
###2023-12-09 13:22:36.585258$GNGGA,182235.70,4138.0618633,N,07032.3607215,W,1,24,0.7,13.083,M,-29.744,M,0.0,*5A
###2023-12-09 13:22:36.786853$GNGGA,182235.90,4138.0616638,N,07032.3607308,W,1,24,0.7,13.105,M,-29.744,M,0.0,*53
###2023-12-09 13:22:36.989157$GNRMC,182236.10,A,4138.0614735,N,07032.3607037,W,3.27,168.36,091223,,,A*54
###2023-12-09 13:22:36.992043$GNGGA,182236.10,4138.0614735,N,07032.3607037,W,1,24,0.7,13.028,M,-29.744,M,0.0,*57
###2023-12-09 13:22:36.993834$GPGSA,A,3,03,04,16,26,28,29,31,,,,,,1.1,0.7,0.9*3B
###2023-12-09 13:22:36.995555$GLGSA,A,3,65,71,72,73,74,75,,,,,,,1.1,0.7,0.9*25
###2023-12-09 13:22:36.997130$GAGSA,A,3,04,19,21,27,,,,,,,,,1.1,0.7,0.9*27
###2023-12-09 13:22:36.998843$GBGSA,A,3,14,24,25,26,33,35,,,,,,,1.1,0.7,0.9*28
###2023-12-09 13:22:37.001155$GPGSV,2,1,07,03,30,252,43,04,41,310,45,16,60,218,46,26,90,099,48*74
###2023-12-09 13:22:37.003199$GPGSV,2,2,07,28,42,080,45,29,23,052,44,31,63,057,48,,,,*4F
###2023-12-09 13:22:37.005522$GLGSV,2,1,06,65,33,323,41,71,30,174,43,72,69,234,45,73,27,048,43*60
###2023-12-09 13:22:37.007269$GLGSV,2,2,06,74,64,002,41,75,39,263,47,,,,,,,,*69
###2023-12-09 13:22:37.009575$GAGSV,1,1,04,04,36,311,43,19,77,186,40,21,81,054,46,27,26,049,42*69
###2023-12-09 13:22:37.011903$GBGSV,2,1,06,14,34,191,42,24,66,040,49,25,47,271,48,26,19,068,45*63
###2023-12-09 13:22:37.013640$GBGSV,2,2,06,33,50,221,47,35,16,061,44,,,,,,,,*6C
###2023-12-09 13:22:37.014971$GNVTG,168.36,T,,M,3.27,N,6.05,K,A*2C
###2023-12-09 13:22:37.016614$GNGST,182236.10,18.000,,,,0.100,0.070,0.170*53
###2023-12-09 13:22:37.017895$GNZDA,182236.10,09,12,2023,00,00*7C
###2023-12-09 13:22:37.018529$GNEBP,,,,,,M*13
###2023-12-09 13:22:37.185246$GNGGA,182236.30,4138.0612908,N,07032.3606873,W,1,24,0.7,13.049,M,-29.744,M,0.0,*5D
###2023-12-09 13:22:37.385019$GNGGA,182236.50,4138.0610903,N,07032.3607136,W,1,24,0.7,13.092,M,-29.744,M,0.0,*5D
###2023-12-09 13:22:37.585377$GNGGA,182236.70,4138.0608971,N,07032.3606911,W,1,24,0.7,13.049,M,-29.744,M,0.0,*59
###2023-12-09 13:22:37.785568$GNGGA,182236.90,4138.0607187,N,07032.3606446,W,1,24,0.7,13.053,M,-29.744,M,0.0,*5D
###2023-12-09 13:22:37.988180$GNRMC,182237.10,A,4138.0605221,N,07032.3606294,W,3.58,178.98,091223,,,A*52
###2023-12-09 13:22:37.991058$GNGGA,182237.10,4138.0605221,N,07032.3606294,W,1,24,0.7,13.077,M,-29.744,M,0.0,*56
###2023-12-09 13:22:37.992868$GPGSA,A,3,03,04,16,26,28,29,31,,,,,,1.1,0.7,0.9*3B
###2023-12-09 13:22:37.994596$GLGSA,A,3,65,71,72,73,74,75,,,,,,,1.1,0.7,0.9*25
###2023-12-09 13:22:37.996182$GAGSA,A,3,04,19,21,27,,,,,,,,,1.1,0.7,0.9*27
###2023-12-09 13:22:37.997890$GBGSA,A,3,14,24,25,26,33,35,,,,,,,1.1,0.7,0.9*28
###2023-12-09 13:22:38.000241$GPGSV,2,1,07,03,30,252,41,04,41,310,44,16,60,218,45,26,90,099,48*74
###2023-12-09 13:22:38.002287$GPGSV,2,2,07,28,42,080,45,29,23,052,41,31,63,057,47,,,,*45
###2023-12-09 13:22:38.004642$GLGSV,2,1,06,65,34,323,44,71,30,174,43,72,69,234,45,73,27,048,43*62
###2023-12-09 13:22:38.006398$GLGSV,2,2,06,74,64,002,42,75,39,263,46,,,,,,,,*6B
###2023-12-09 13:22:38.008746$GAGSV,1,1,04,04,36,311,44,19,77,186,40,21,81,054,46,27,26,049,40*6C
###2023-12-09 13:22:38.011099$GBGSV,2,1,06,14,34,191,41,24,66,040,49,25,47,271,47,26,19,068,44*6E
###2023-12-09 13:22:38.012846$GBGSV,2,2,06,33,50,221,47,35,16,061,43,,,,,,,,*6B
###2023-12-09 13:22:38.014169$GNVTG,178.98,T,,M,3.58,N,6.62,K,A*20
###2023-12-09 13:22:38.015836$GNGST,182237.10,18.000,,,,0.100,0.070,0.160*53
###2023-12-09 13:22:38.017130$GNZDA,182237.10,09,12,2023,00,00*7D
###2023-12-09 13:22:38.017772$GNEBP,,,,,,M*13
###2023-12-09 13:22:38.185185$GNGGA,182237.30,4138.0603227,N,07032.3606129,W,1,24,0.7,13.040,M,-29.744,M,0.0,*55
###2023-12-09 13:22:38.384782$GNGGA,182237.50,4138.0601346,N,07032.3606035,W,1,24,0.7,13.042,M,-29.744,M,0.0,*59
###2023-12-09 13:22:38.585598$GNGGA,182237.70,4138.0599383,N,07032.3605898,W,1,24,0.7,13.064,M,-29.744,M,0.0,*58
###2023-12-09 13:22:38.784856$GNGGA,182237.90,4138.0597445,N,07032.3605607,W,1,24,0.7,13.028,M,-29.744,M,0.0,*55
###2023-12-09 13:22:38.990975$GNRMC,182238.10,A,4138.0595533,N,07032.3605687,W,3.54,185.53,091223,,,A*5F
###2023-12-09 13:22:38.993835$GNGGA,182238.10,4138.0595533,N,07032.3605687,W,1,24,0.7,13.042,M,-29.744,M,0.0,*54
###2023-12-09 13:22:38.995634$GPGSA,A,3,03,04,16,26,28,29,31,,,,,,1.1,0.7,0.9*3B
###2023-12-09 13:22:38.997341$GLGSA,A,3,65,71,72,73,74,75,,,,,,,1.1,0.7,0.9*25
###2023-12-09 13:22:38.998930$GAGSA,A,3,04,19,21,27,,,,,,,,,1.1,0.7,0.9*27
###2023-12-09 13:22:39.000641$GBGSA,A,3,14,24,25,26,33,35,,,,,,,1.1,0.7,0.9*28
###2023-12-09 13:22:39.002975$GPGSV,2,1,07,03,30,252,42,04,41,310,45,16,60,218,46,26,90,099,48*75
###2023-12-09 13:22:39.005013$GPGSV,2,2,07,28,42,080,45,29,23,052,43,31,63,057,47,,,,*47
###2023-12-09 13:22:39.007359$GLGSV,2,1,06,65,34,323,43,71,30,174,41,72,69,234,46,73,27,048,44*63
###2023-12-09 13:22:39.009101$GLGSV,2,2,06,74,64,002,44,75,39,263,46,,,,,,,,*6D
###2023-12-09 13:22:39.011432$GAGSV,1,1,04,04,36,311,43,19,77,186,40,21,81,054,47,27,26,049,42*68
###2023-12-09 13:22:39.013752$GBGSV,2,1,06,14,34,191,41,24,66,040,49,25,47,271,47,26,19,068,44*6E
###2023-12-09 13:22:39.015508$GBGSV,2,2,06,33,50,221,46,35,16,061,45,,,,,,,,*6C
###2023-12-09 13:22:39.016834$GNVTG,185.53,T,,M,3.54,N,6.55,K,A*2D
###2023-12-09 13:22:39.018474$GNGST,182238.10,18.000,,,,0.100,0.069,0.160*54
###2023-12-09 13:22:39.019776$GNZDA,182238.10,09,12,2023,00,00*72
###2023-12-09 13:22:39.020419$GNEBP,,,,,,M*13
###2023-12-09 13:22:39.188734$GNGGA,182238.30,4138.0593545,N,07032.3605845,W,1,24,0.7,13.055,M,-29.744,M,0.0,*57
###2023-12-09 13:22:39.384758$GNGGA,182238.50,4138.0591614,N,07032.3605783,W,1,24,0.7,13.030,M,-29.744,M,0.0,*52
###2023-12-09 13:22:39.585598$GNGGA,182238.70,4138.0589669,N,07032.3605603,W,1,24,0.7,13.038,M,-29.744,M,0.0,*52
###2023-12-09 13:22:39.785543$GNGGA,182238.90,4138.0587714,N,07032.3605526,W,1,24,0.7,13.024,M,-29.744,M,0.0,*50
###2023-12-09 13:22:39.990002$GNRMC,182239.10,A,4138.0585744,N,07032.3605616,W,3.69,181.25,091223,,,A*5E
###2023-12-09 13:22:39.992868$GNGGA,182239.10,4138.0585744,N,07032.3605616,W,1,24,0.7,13.026,M,-29.744,M,0.0,*5C
###2023-12-09 13:22:39.994664$GPGSA,A,3,03,04,16,26,28,29,31,,,,,,1.1,0.7,0.9*3B
###2023-12-09 13:22:39.996368$GLGSA,A,3,65,71,72,73,74,75,,,,,,,1.1,0.7,0.9*25
###2023-12-09 13:22:39.997941$GAGSA,A,3,04,19,21,27,,,,,,,,,1.1,0.7,0.9*27
###2023-12-09 13:22:39.999660$GBGSA,A,3,14,24,25,26,33,35,,,,,,,1.1,0.7,0.9*28
###2023-12-09 13:22:40.001980$GPGSV,2,1,07,03,30,252,41,04,41,310,46,16,60,218,46,26,90,099,48*75
###2023-12-09 13:22:40.004026$GPGSV,2,2,07,28,42,080,45,29,23,052,42,31,63,057,47,,,,*46
###2023-12-09 13:22:40.006350$GLGSV,2,1,06,65,34,323,43,71,30,174,42,72,69,234,46,73,27,048,43*67
###2023-12-09 13:22:40.008102$GLGSV,2,2,06,74,64,002,43,75,39,263,47,,,,,,,,*6B
###2023-12-09 13:22:40.010423$GAGSV,1,1,04,04,36,311,44,19,77,186,40,21,81,054,46,27,26,049,41*6D
###2023-12-09 13:22:40.012765$GBGSV,2,1,06,14,34,191,42,24,66,040,49,25,47,271,48,26,19,068,44*62
###2023-12-09 13:22:40.014765$GBGSV,2,2,06,33,50,221,46,35,16,061,45,,,,,,,,*6C
###2023-12-09 13:22:40.016099$GNVTG,181.25,T,,M,3.69,N,6.84,K,A*2A
###2023-12-09 13:22:40.017746$GNGST,182239.10,18.000,,,,0.100,0.069,0.160*55
###2023-12-09 13:22:40.019051$GNZDA,182239.10,09,12,2023,00,00*73
###2023-12-09 13:22:40.019692$GNEBP,,,,,,M*13
###2023-12-09 13:22:40.187391$GNGGA,182239.30,4138.0583755,N,07032.3605609,W,1,24,0.7,13.027,M,-29.744,M,0.0,*57
###2023-12-09 13:22:40.384729$GNGGA,182239.50,4138.0581810,N,07032.3605667,W,1,24,0.7,13.042,M,-29.744,M,0.0,*56
###2023-12-09 13:22:40.583572$GNGGA,182239.70,4138.0579836,N,07032.3605672,W,1,24,0.7,13.042,M,-29.744,M,0.0,*53
###2023-12-09 13:22:40.788256$GNGGA,182239.90,4138.0577814,N,07032.3605616,W,1,24,0.7,13.018,M,-29.744,M,0.0,*5E
