###2023-12-09 13:38:52.023217$GLGSV,2,2,06,74,58,018,41,75,45,275,47,,,,,,,,*61
###2023-12-09 13:38:52.025572$GAGSV,1,1,04,04,41,309,43,19,70,181,42,21,75,045,45,27,21,050,38*68
###2023-12-09 13:38:52.027928$GBGSV,2,1,06,12,17,125,38,14,27,189,42,24,61,048,47,25,52,278,47*60
###2023-12-09 13:38:52.029677$GBGSV,2,2,06,33,44,215,46,35,16,055,43,,,,,,,,*6F
###2023-12-09 13:38:52.030954$GNVTG,9.64,T,,M,2.04,N,3.78,K,A*22
###2023-12-09 13:38:52.032559$GNGST,183851.10,5.000,,,,0.088,0.068,0.160*6C
###2023-12-09 13:38:52.033843$GNZDA,183851.10,09,12,2023,00,00*76
###2023-12-09 13:38:52.034477$GNEBP,,,,,,M*13
###2023-12-09 13:38:52.202137$GNGGA,183851.30,4138.0663737,N,07032.3930066,W,1,25,0.6,13.274,M,-29.744,M,0.0,*59
###2023-12-09 13:38:52.401010$GNGGA,183851.50,4138.0664763,N,07032.3929478,W,1,25,0.6,13.278,M,-29.744,M,0.0,*56
###2023-12-09 13:38:52.600447$GNGGA,183851.70,4138.0665790,N,07032.3929043,W,1,25,0.6,13.274,M,-29.744,M,0.0,*59
###2023-12-09 13:38:52.801645$GNGGA,183851.90,4138.0666857,N,07032.3928912,W,1,25,0.6,13.280,M,-29.744,M,0.0,*57
###2023-12-09 13:38:53.004895$GNRMC,183852.10,A,4138.0667890,N,07032.3928739,W,1.81,19.99,091223,,,A*6E
###2023-12-09 13:38:53.007771$GNGGA,183852.10,4138.0667890,N,07032.3928739,W,1,25,0.6,13.273,M,-29.744,M,0.0,*5D
###2023-12-09 13:38:53.009622$GPGSA,A,3,03,04,16,26,27,28,29,31,,,,,1.0,0.6,0.8*3F
###2023-12-09 13:38:53.011349$GLGSA,A,3,65,71,72,73,74,75,,,,,,,1.0,0.6,0.8*24
###2023-12-09 13:38:53.012930$GAGSA,A,3,04,19,21,27,,,,,,,,,1.0,0.6,0.8*26
###2023-12-09 13:38:53.014645$GBGSA,A,3,12,14,24,25,33,35,,,,,,,1.0,0.6,0.8*2E
###2023-12-09 13:38:53.016963$GPGSV,2,1,08,03,25,245,42,04,48,307,45,16,68,224,47,26,82,040,48*76
###2023-12-09 13:38:53.019286$GPGSV,2,2,08,27,18,172,41,28,37,086,42,29,20,046,38,31,58,068,45*7A
###2023-12-09 13:38:53.021602$GLGSV,2,1,06,65,40,316,43,71,20,176,42,72,60,217,46,73,20,054,39*6E
###2023-12-09 13:38:53.023355$GLGSV,2,2,06,74,58,018,41,75,45,275,48,,,,,,,,*6E
###2023-12-09 13:38:53.025676$GAGSV,1,1,04,04,41,309,44,19,70,181,42,21,75,045,46,27,21,050,39*6D
###2023-12-09 13:38:53.028014$GBGSV,2,1,06,12,17,125,36,14,27,189,40,24,61,048,47,25,52,278,48*63
###2023-12-09 13:38:53.029757$GBGSV,2,2,06,33,44,215,47,35,16,055,43,,,,,,,,*6E
###2023-12-09 13:38:53.031058$GNVTG,19.99,T,,M,1.81,N,3.35,K,A*16
###2023-12-09 13:38:53.032675$GNGST,183852.10,5.500,,,,0.088,0.068,0.160*6A
###2023-12-09 13:38:53.033966$GNZDA,183852.10,09,12,2023,00,00*75
###2023-12-09 13:38:53.034616$GNEBP,,,,,,M*13
###2023-12-09 13:38:53.203135$GNGGA,183852.30,4138.0668748,N,07032.3928104,W,1,25,0.6,13.257,M,-29.744,M,0.0,*54
###2023-12-09 13:38:53.401562$GNGGA,183852.50,4138.0669519,N,07032.3927498,W,1,25,0.6,13.255,M,-29.744,M,0.0,*58
###2023-12-09 13:38:53.601782$GNGGA,183852.70,4138.0670464,N,07032.3927305,W,1,25,0.6,13.268,M,-29.744,M,0.0,*54
###2023-12-09 13:38:53.801184$GNGGA,183852.90,4138.0671405,N,07032.3927189,W,1,25,0.6,13.266,M,-29.744,M,0.0,*54
###2023-12-09 13:38:54.003824$GNRMC,183853.10,A,4138.0672155,N,07032.3926667,W,1.61,39.93,091223,,,A*69
###2023-12-09 13:38:54.007288$GNGGA,183853.10,4138.0672155,N,07032.3926667,W,1,25,0.6,13.260,M,-29.744,M,0.0,*5E
###2023-12-09 13:38:54.009531$GPGSA,A,3,03,04,16,26,27,28,29,31,,,,,1.0,0.6,0.8*3F
###2023-12-09 13:38:54.011617$GLGSA,A,3,65,71,72,73,74,75,,,,,,,1.0,0.6,0.8*24
###2023-12-09 13:38:54.013545$GAGSA,A,3,04,19,21,27,,,,,,,,,1.0,0.6,0.8*26
###2023-12-09 13:38:54.015620$GBGSA,A,3,12,14,24,25,33,35,,,,,,,1.0,0.6,0.8*2E
###2023-12-09 13:38:54.018429$GPGSV,2,1,08,03,25,245,43,04,48,307,47,16,68,224,47,26,82,040,48*75
###2023-12-09 13:38:54.021266$GPGSV,2,2,08,27,18,172,40,28,37,086,43,29,20,046,39,31,58,068,45*7B
###2023-12-09 13:38:54.024125$GLGSV,2,1,06,65,40,316,43,71,20,176,40,72,60,217,46,73,20,054,38*6D
###2023-12-09 13:38:54.026234$GLGSV,2,2,06,74,58,018,41,75,45,275,48,,,,,,,,*6E
###2023-12-09 13:38:54.029053$GAGSV,1,1,04,04,41,309,46,19,70,181,42,21,75,045,46,27,21,050,38*6E
###2023-12-09 13:38:54.031909$GBGSV,2,1,06,12,17,125,39,14,27,189,39,24,61,048,47,25,52,278,48*62
###2023-12-09 13:38:54.034028$GBGSV,2,2,06,33,44,215,46,35,16,055,42,,,,,,,,*6E
###2023-12-09 13:38:54.035593$GNVTG,39.93,T,,M,1.61,N,2.99,K,A*17
###2023-12-09 13:38:54.037538$GNGST,183853.10,5.700,,,,0.088,0.067,0.160*66
###2023-12-09 13:38:54.039103$GNZDA,183853.10,09,12,2023,00,00*74
###2023-12-09 13:38:54.039871$GNEBP,,,,,,M*13
###2023-12-09 13:38:54.206051$GNGGA,183853.30,4138.0672819,N,07032.3925947,W,1,25,0.6,13.259,M,-29.744,M,0.0,*59
###2023-12-09 13:38:54.400485$GNGGA,183853.50,4138.0673571,N,07032.3925577,W,1,25,0.6,13.261,M,-29.744,M,0.0,*59
###2023-12-09 13:38:54.599911$GNGGA,183853.70,4138.0674510,N,07032.3925473,W,1,25,0.6,13.259,M,-29.744,M,0.0,*55
###2023-12-09 13:38:54.802277$GNGGA,183853.90,4138.0675301,N,07032.3925098,W,1,25,0.6,13.242,M,-29.744,M,0.0,*57
###2023-12-09 13:38:55.005330$GNRMC,183854.10,A,4138.0675838,N,07032.3924429,W,1.17,47.36,091223,,,A*66
###2023-12-09 13:38:55.008792$GNGGA,183854.10,4138.0675838,N,07032.3924429,W,1,25,0.6,13.234,M,-29.744,M,0.0,*57
###2023-12-09 13:38:55.011035$GPGSA,A,3,03,04,16,26,27,28,29,31,,,,,1.0,0.6,0.8*3F
###2023-12-09 13:38:55.013095$GLGSA,A,3,65,71,72,73,74,75,,,,,,,1.0,0.6,0.8*24
###2023-12-09 13:38:55.015010$GAGSA,A,3,04,19,21,27,,,,,,,,,1.0,0.6,0.8*26
###2023-12-09 13:38:55.017069$GBGSA,A,3,12,14,24,25,33,35,,,,,,,1.0,0.6,0.8*2E
###2023-12-09 13:38:55.019889$GPGSV,2,1,08,03,25,245,44,04,48,307,46,16,68,224,46,26,82,040,47*7D
###2023-12-09 13:38:55.022745$GPGSV,2,2,08,27,18,172,41,28,37,086,42,29,20,046,38,31,58,068,45*7A
###2023-12-09 13:38:55.025560$GLGSV,2,1,06,65,40,316,44,71,20,176,43,72,60,217,46,73,20,054,39*68
###2023-12-09 13:38:55.027679$GLGSV,2,2,06,74,58,018,41,75,45,275,48,,,,,,,,*6E
###2023-12-09 13:38:55.030472$GAGSV,1,1,04,04,41,309,46,19,70,181,42,21,75,045,46,27,21,050,37*61
###2023-12-09 13:38:55.033284$GBGSV,2,1,06,12,17,125,40,14,27,189,39,24,61,048,46,25,52,278,48*6D
###2023-12-09 13:38:55.035417$GBGSV,2,2,06,33,44,215,46,35,16,055,42,,,,,,,,*6E
###2023-12-09 13:38:55.036978$GNVTG,47.36,T,,M,1.17,N,2.16,K,A*17
###2023-12-09 13:38:55.038933$GNGST,183854.10,5.700,,,,0.089,0.067,0.160*60
###2023-12-09 13:38:55.040490$GNZDA,183854.10,09,12,2023,00,00*73
###2023-12-09 13:38:55.041260$GNEBP,,,,,,M*13
###2023-12-09 13:38:55.202985$GNGGA,183854.30,4138.0676335,N,07032.3923875,W,1,25,0.6,13.235,M,-29.744,M,0.0,*53
###2023-12-09 13:38:55.403355$GNGGA,183854.50,4138.0677024,N,07032.3923552,W,1,25,0.6,13.231,M,-29.744,M,0.0,*5B
###2023-12-09 13:38:55.600562$GNGGA,183854.70,4138.0677783,N,07032.3923385,W,1,25,0.6,13.227,M,-29.744,M,0.0,*58
###2023-12-09 13:38:55.800793$GNGGA,183854.90,4138.0678462,N,07032.3923071,W,1,25,0.6,13.228,M,-29.744,M,0.0,*52
###2023-12-09 13:38:56.004465$GNRMC,183855.10,A,4138.0678914,N,07032.3922460,W,1.17,54.42,091223,,,A*6F
###2023-12-09 13:38:56.007342$GNGGA,183855.10,4138.0678914,N,07032.3922460,W,1,25,0.6,13.229,M,-29.744,M,0.0,*53
###2023-12-09 13:38:56.009203$GPGSA,A,3,03,04,16,26,27,28,29,31,,,,,1.1,0.6,0.9*3F
###2023-12-09 13:38:56.010926$GLGSA,A,3,65,71,72,73,74,75,,,,,,,1.1,0.6,0.9*24
###2023-12-09 13:38:56.012501$GAGSA,A,3,04,19,21,27,,,,,,,,,1.1,0.6,0.9*26
###2023-12-09 13:38:56.014238$GBGSA,A,3,12,14,24,25,33,35,,,,,,,1.1,0.6,0.9*2E
###2023-12-09 13:38:56.016577$GPGSV,2,1,08,03,25,245,42,04,48,307,47,16,68,224,47,26,82,040,47*7B
###2023-12-09 13:38:56.018937$GPGSV,2,2,08,27,18,172,39,28,37,086,42,29,20,046,37,31,58,068,45*7A
###2023-12-09 13:38:56.021253$GLGSV,2,1,06,65,40,316,44,71,20,176,42,72,60,217,46,73,20,054,37*67
###2023-12-09 13:38:56.023041$GLGSV,2,2,06,74,58,018,41,75,45,275,48,,,,,,,,*6E
###2023-12-09 13:38:56.025355$GAGSV,1,1,04,04,41,309,45,19,70,181,42,21,75,045,46,27,21,050,36*63
###2023-12-09 13:38:56.027683$GBGSV,2,1,06,12,17,125,38,14,27,189,39,24,61,048,46,25,52,278,47*6D
###2023-12-09 13:38:56.029408$GBGSV,2,2,06,33,44,215,46,35,16,055,42,,,,,,,,*6E
###2023-12-09 13:38:56.030695$GNVTG,54.42,T,,M,1.17,N,2.16,K,A*16
###2023-12-09 13:38:56.032301$GNGST,183855.10,5.600,,,,0.090,0.068,0.160*67
###2023-12-09 13:38:56.033583$GNZDA,183855.10,09,12,2023,00,00*72
###2023-12-09 13:38:56.034459$GNEBP,,,,,,M*13
###2023-12-09 13:38:56.200682$GNGGA,183855.30,4138.0679289,N,07032.3921851,W,1,25,0.6,13.215,M,-29.744,M,0.0,*5D
###2023-12-09 13:38:56.400917$GNGGA,183855.50,4138.0679870,N,07032.3921497,W,1,25,0.6,13.212,M,-29.744,M,0.0,*56
###2023-12-09 13:38:56.600964$GNGGA,183855.70,4138.0680618,N,07032.3921337,W,1,25,0.6,13.207,M,-29.744,M,0.0,*5B
###2023-12-09 13:38:56.799447$GNGGA,183855.90,4138.0681112,N,07032.3920951,W,1,25,0.6,13.200,M,-29.744,M,0.0,*55
###2023-12-09 13:38:57.011895$GNRMC,183856.10,A,4138.0681366,N,07032.3920390,W,0.86,28.96,091223,,,A*64
###2023-12-09 13:38:57.014770$GNGGA,183856.10,4138.0681366,N,07032.3920390,W,1,25,0.6,13.209,M,-29.744,M,0.0,*51
###2023-12-09 13:38:57.016613$GPGSA,A,3,03,04,16,26,27,28,29,31,,,,,1.0,0.6,0.8*3F
###2023-12-09 13:38:57.018319$GLGSA,A,3,65,71,72,73,74,75,,,,,,,1.0,0.6,0.8*24
