###2023-12-09 12:48:37.954741$GLGSA,A,3,65,71,72,73,74,75,,,,,,,1.1,0.6,0.9*24
###2023-12-09 12:48:37.956348$GAGSA,A,3,04,19,21,27,,,,,,,,,1.1,0.6,0.9*26
###2023-12-09 12:48:37.958009$GBGSA,A,3,14,24,25,26,33,,,,,,,,1.1,0.6,0.9*2F
###2023-12-09 12:48:37.960360$GPGSV,2,1,08,03,37,269,46,04,27,311,41,16,43,209,46,26,73,208,49*73
###2023-12-09 12:48:37.962716$GPGSV,2,2,08,28,53,064,46,29,26,067,41,31,71,021,46,32,24,137,41*74
###2023-12-09 12:48:37.965046$GLGSV,2,1,06,65,17,329,44,71,49,171,48,72,70,294,48,73,42,037,47*69
###2023-12-09 12:48:37.966811$GLGSV,2,2,06,74,71,314,44,75,27,246,44,,,,,,,,*67
###2023-12-09 12:48:37.969135$GAGSV,1,1,04,04,25,312,40,19,85,269,41,21,83,162,46,27,37,048,44*64
###2023-12-09 12:48:37.971472$GBGSV,2,1,05,14,49,195,46,24,78,008,49,25,36,257,46,26,31,060,43*61
###2023-12-09 12:48:37.972928$GBGSV,2,2,05,33,61,243,48,,,,,,,,,,,,*50
###2023-12-09 12:48:37.974211$GNVTG,83.78,T,,M,1.21,N,2.23,K,A*16
###2023-12-09 12:48:37.975874$GNGST,174837.10,18.000,,,,0.076,0.068,0.160*59
###2023-12-09 12:48:37.977173$GNZDA,174837.10,09,12,2023,00,00*7E
###2023-12-09 12:48:37.977811$GNEBP,,,,,,M*13
###2023-12-09 12:48:38.147350$GNGGA,174837.30,4138.0576639,N,07032.3931090,W,1,24,0.6,13.461,M,-29.744,M,0.0,*52
###2023-12-09 12:48:38.347110$GNGGA,174837.50,4138.0576836,N,07032.3930318,W,1,24,0.6,13.471,M,-29.744,M,0.0,*56
###2023-12-09 12:48:38.547331$GNGGA,174837.70,4138.0577193,N,07032.3929511,W,1,24,0.6,13.467,M,-29.744,M,0.0,*53
###2023-12-09 12:48:38.749359$GNGGA,174837.90,4138.0577448,N,07032.3928697,W,1,24,0.6,13.455,M,-29.744,M,0.0,*53
###2023-12-09 12:48:38.949579$GNRMC,174838.10,A,4138.0577581,N,07032.3928040,W,0.82,70.14,091223,,,A*64
###2023-12-09 12:48:38.952487$GNGGA,174838.10,4138.0577581,N,07032.3928040,W,1,24,0.6,13.455,M,-29.744,M,0.0,*5C
###2023-12-09 12:48:38.954338$GPGSA,A,3,03,04,16,26,28,29,31,32,,,,,1.1,0.6,0.9*3B
###2023-12-09 12:48:38.956075$GLGSA,A,3,65,71,72,73,74,75,,,,,,,1.1,0.6,0.9*24
###2023-12-09 12:48:38.957660$GAGSA,A,3,04,19,21,27,,,,,,,,,1.1,0.6,0.9*26
###2023-12-09 12:48:38.959324$GBGSA,A,3,14,24,25,26,33,,,,,,,,1.1,0.6,0.9*2F
###2023-12-09 12:48:38.961654$GPGSV,2,1,08,03,37,269,47,04,27,311,40,16,43,209,47,26,73,208,49*72
###2023-12-09 12:48:38.964001$GPGSV,2,2,08,28,53,064,45,29,26,067,41,31,71,021,48,32,24,137,44*7C
###2023-12-09 12:48:38.966335$GLGSV,2,1,06,65,17,329,43,71,49,171,49,72,70,294,48,73,42,037,48*60
###2023-12-09 12:48:38.968100$GLGSV,2,2,06,74,71,314,44,75,27,246,43,,,,,,,,*60
###2023-12-09 12:48:38.970420$GAGSV,1,1,04,04,25,312,41,19,85,269,42,21,83,162,46,27,37,048,45*67
###2023-12-09 12:48:38.972751$GBGSV,2,1,05,14,49,195,46,24,78,008,49,25,36,257,46,26,31,060,43*61
###2023-12-09 12:48:38.974202$GBGSV,2,2,05,33,61,243,48,,,,,,,,,,,,*50
###2023-12-09 12:48:38.975502$GNVTG,70.14,T,,M,0.82,N,1.51,K,A*1E
###2023-12-09 12:48:38.977146$GNGST,174838.10,18.000,,,,0.075,0.067,0.160*5A
###2023-12-09 12:48:38.978432$GNZDA,174838.10,09,12,2023,00,00*71
###2023-12-09 12:48:38.979084$GNEBP,,,,,,M*13
###2023-12-09 12:48:39.147899$GNGGA,174838.30,4138.0577730,N,07032.3927366,W,1,24,0.6,13.463,M,-29.744,M,0.0,*5B
###2023-12-09 12:48:39.350006$GNGGA,174838.50,4138.0577987,N,07032.3926616,W,1,24,0.6,13.467,M,-29.744,M,0.0,*58
###2023-12-09 12:48:39.549953$GNGGA,174838.70,4138.0578296,N,07032.3925962,W,1,24,0.6,13.452,M,-29.744,M,0.0,*57
###2023-12-09 12:48:39.748551$GNGGA,174838.90,4138.0578498,N,07032.3925481,W,1,24,0.6,13.445,M,-29.744,M,0.0,*57
###2023-12-09 12:48:39.946319$GNRMC,174839.10,A,4138.0578697,N,07032.3924923,W,0.95,58.12,091223,,,A*64
###2023-12-09 12:48:39.949815$GNGGA,174839.10,4138.0578697,N,07032.3924923,W,1,24,0.6,13.454,M,-29.744,M,0.0,*57
###2023-12-09 12:48:39.952086$GPGSA,A,3,03,04,16,26,28,29,31,32,,,,,1.1,0.6,0.9*3B
###2023-12-09 12:48:39.954154$GLGSA,A,3,65,71,72,73,74,75,,,,,,,1.1,0.6,0.9*24
###2023-12-09 12:48:39.956107$GAGSA,A,3,04,19,21,27,,,,,,,,,1.1,0.6,0.9*26
###2023-12-09 12:48:39.958116$GBGSA,A,3,14,24,25,26,33,,,,,,,,1.1,0.6,0.9*2F
###2023-12-09 12:48:39.960945$GPGSV,2,1,08,03,37,269,45,04,27,311,41,16,43,209,46,26,73,208,48*71
###2023-12-09 12:48:39.963798$GPGSV,2,2,08,28,53,064,45,29,26,067,40,31,71,021,47,32,24,137,42*74
###2023-12-09 12:48:39.966643$GLGSV,2,1,06,65,17,329,43,71,49,171,47,72,70,294,48,73,42,037,47*61
###2023-12-09 12:48:39.968768$GLGSV,2,2,06,74,71,314,44,75,27,246,45,,,,,,,,*66
###2023-12-09 12:48:39.971595$GAGSV,1,1,04,04,25,312,39,19,85,269,40,21,83,162,46,27,37,048,43*6C
###2023-12-09 12:48:39.974448$GBGSV,2,1,05,14,49,195,45,24,78,008,49,25,36,257,46,26,31,060,43*62
###2023-12-09 12:48:39.976231$GBGSV,2,2,05,33,61,243,48,,,,,,,,,,,,*50
###2023-12-09 12:48:39.977793$GNVTG,58.12,T,,M,0.95,N,1.76,K,A*11
###2023-12-09 12:48:39.979800$GNGST,174839.10,18.000,,,,0.075,0.067,0.160*5B
###2023-12-09 12:48:39.981368$GNZDA,174839.10,09,12,2023,00,00*70
###2023-12-09 12:48:39.982139$GNEBP,,,,,,M*13
###2023-12-09 12:48:40.149133$GNGGA,174839.30,4138.0578925,N,07032.3924272,W,1,24,0.6,13.467,M,-29.744,M,0.0,*5C
###2023-12-09 12:48:40.346154$GNGGA,174839.50,4138.0579198,N,07032.3923727,W,1,24,0.6,13.454,M,-29.744,M,0.0,*57
###2023-12-09 12:48:40.545906$GNGGA,174839.70,4138.0579414,N,07032.3923292,W,1,24,0.6,13.434,M,-29.744,M,0.0,*59
###2023-12-09 12:48:40.744820$GNGGA,174839.90,4138.0579673,N,07032.3922865,W,1,24,0.6,13.447,M,-29.744,M,0.0,*53
###2023-12-09 12:48:40.945949$GNRMC,174840.10,A,4138.0579971,N,07032.3922335,W,0.89,58.82,091223,,,A*63
###2023-12-09 12:48:40.948886$GNGGA,174840.10,4138.0579971,N,07032.3922335,W,1,24,0.6,13.469,M,-29.744,M,0.0,*5A
###2023-12-09 12:48:40.950796$GPGSA,A,3,03,04,16,26,28,29,31,32,,,,,1.1,0.6,0.9*3B
###2023-12-09 12:48:40.952523$GLGSA,A,3,65,71,72,73,74,75,,,,,,,1.1,0.6,0.9*24
###2023-12-09 12:48:40.954123$GAGSA,A,3,04,19,21,27,,,,,,,,,1.1,0.6,0.9*26
###2023-12-09 12:48:40.955807$GBGSA,A,3,14,24,25,26,33,,,,,,,,1.1,0.6,0.9*2F
###2023-12-09 12:48:40.958141$GPGSV,2,1,08,03,37,269,46,04,27,311,39,16,43,209,47,26,73,208,49*7D
###2023-12-09 12:48:40.960498$GPGSV,2,2,08,28,53,064,45,29,26,067,41,31,71,021,47,32,24,137,41*76
###2023-12-09 12:48:40.962888$GLGSV,2,1,06,65,17,329,42,71,49,171,47,72,70,294,48,73,42,037,47*60
###2023-12-09 12:48:40.964647$GLGSV,2,2,06,74,71,314,44,75,27,246,45,,,,,,,,*66
###2023-12-09 12:48:40.966996$GAGSV,1,1,04,04,25,312,41,19,85,269,41,21,83,162,47,27,37,048,44*64
###2023-12-09 12:48:40.969343$GBGSV,2,1,05,14,49,195,46,24,78,008,49,25,36,257,46,26,31,060,43*61
###2023-12-09 12:48:40.970815$GBGSV,2,2,05,33,61,243,48,,,,,,,,,,,,*50
###2023-12-09 12:48:40.972103$GNVTG,58.82,T,,M,0.89,N,1.66,K,A*14
###2023-12-09 12:48:40.973753$GNGST,174840.10,18.000,,,,0.075,0.067,0.160*55
###2023-12-09 12:48:40.975056$GNZDA,174840.10,09,12,2023,00,00*7E
###2023-12-09 12:48:40.975701$GNEBP,,,,,,M*13
###2023-12-09 12:48:41.145199$GNGGA,174840.30,4138.0580182,N,07032.3921812,W,1,24,0.6,13.464,M,-29.744,M,0.0,*5A
###2023-12-09 12:48:41.346011$GNGGA,174840.50,4138.0580324,N,07032.3921429,W,1,24,0.6,13.449,M,-29.744,M,0.0,*59
###2023-12-09 12:48:41.546225$GNGGA,174840.70,4138.0580583,N,07032.3921066,W,1,24,0.6,13.450,M,-29.744,M,0.0,*57
###2023-12-09 12:48:41.745797$GNGGA,174840.90,4138.0580966,N,07032.3920663,W,1,24,0.6,13.466,M,-29.744,M,0.0,*59
###2023-12-09 12:48:41.945676$GNRMC,174841.10,A,4138.0581240,N,07032.3920260,W,0.66,58.82,091223,,,A*6E
###2023-12-09 12:48:41.948577$GNGGA,174841.10,4138.0581240,N,07032.3920260,W,1,24,0.6,13.475,M,-29.744,M,0.0,*5B
###2023-12-09 12:48:41.950457$GPGSA,A,3,03,04,16,26,28,29,31,32,,,,,1.1,0.6,0.9*3B
###2023-12-09 12:48:41.952196$GLGSA,A,3,65,71,72,73,74,75,,,,,,,1.1,0.6,0.9*24
###2023-12-09 12:48:41.953786$GAGSA,A,3,04,19,21,27,,,,,,,,,1.1,0.6,0.9*26
###2023-12-09 12:48:41.955454$GBGSA,A,3,14,24,25,26,33,,,,,,,,1.1,0.6,0.9*2F
###2023-12-09 12:48:41.957779$GPGSV,2,1,08,03,37,269,45,04,27,311,41,16,43,209,46,26,73,208,49*70
###2023-12-09 12:48:41.960124$GPGSV,2,2,08,28,53,064,45,29,26,067,42,31,71,021,48,32,24,137,41*7A
###2023-12-09 12:48:41.962454$GLGSV,2,1,06,65,17,329,43,71,49,171,45,72,70,294,47,73,42,037,47*6C
###2023-12-09 12:48:41.964213$GLGSV,2,2,06,74,71,314,44,75,27,246,44,,,,,,,,*67
###2023-12-09 12:48:41.966815$GAGSV,1,1,04,04,25,312,40,19,85,269,41,21,83,162,47,27,37,048,43*62
###2023-12-09 12:48:41.969166$GBGSV,2,1,05,14,49,195,46,24,77,011,48,25,36,257,46,26,31,060,43*67
###2023-12-09 12:48:41.970637$GBGSV,2,2,05,33,61,243,48,,,,,,,,,,,,*50
###2023-12-09 12:48:41.971934$GNVTG,58.82,T,,M,0.66,N,1.22,K,A*15
###2023-12-09 12:48:41.973585$GNGST,174841.10,18.000,,,,0.075,0.067,0.160*54
###2023-12-09 12:48:41.974920$GNZDA,174841.10,09,12,2023,00,00*7F
###2023-12-09 12:48:41.975564$GNEBP,,,,,,M*13
###2023-12-09 12:48:42.145139$GNGGA,174841.30,4138.0581315,N,07032.3919848,W,1,24,0.6,13.469,M,-29.744,M,0.0,*5F
###2023-12-09 12:48:42.349579$GNGGA,174841.50,4138.0581427,N,07032.3919518,W,1,24,0.6,13.456,M,-29.744,M,0.0,*5B
