###2023-12-09 12:32:13.946063$GLGSV,1,1,04,71,58,169,47,72,65,311,47,73,49,033,46,74,71,287,43*65
###2023-12-09 12:32:13.948505$GAGSV,1,1,04,04,20,311,43,19,80,306,41,21,76,177,46,27,42,050,41*6C
###2023-12-09 12:32:13.950930$GBGSV,2,1,05,14,56,198,44,24,81,339,49,25,32,252,41,26,36,057,44*65
###2023-12-09 12:32:13.952422$GBGSV,2,2,05,33,63,257,49,,,,,,,,,,,,*56
###2023-12-09 12:32:13.953770$GNVTG,320.35,T,,M,0.23,N,0.43,K,A*22
###2023-12-09 12:32:13.955461$GNGST,173213.10,19.000,,,,0.082,0.075,0.170*55
###2023-12-09 12:32:13.956777$GNZDA,173213.10,09,12,2023,00,00*75
###2023-12-09 12:32:13.957436$GNEBP,,,,,,M*13
###2023-12-09 12:32:14.128124$GNGGA,173213.30,4138.0435226,N,07032.4269126,W,1,21,0.7,13.062,M,-29.745,M,0.0,*5A
###2023-12-09 12:32:14.328156$GNGGA,173213.50,4138.0435433,N,07032.4269353,W,1,21,0.7,13.064,M,-29.745,M,0.0,*58
###2023-12-09 12:32:14.527898$GNGGA,173213.70,4138.0435648,N,07032.4269603,W,1,21,0.7,13.059,M,-29.745,M,0.0,*5A
###2023-12-09 12:32:14.726135$GNGGA,173213.90,4138.0435818,N,07032.4269779,W,1,21,0.7,13.057,M,-29.745,M,0.0,*5D
###2023-12-09 12:32:14.932666$GNRMC,173214.10,A,4138.0435950,N,07032.4269928,W,0.35,320.35,091223,,,A*57
###2023-12-09 12:32:14.935564$GNGGA,173214.10,4138.0435950,N,07032.4269928,W,1,21,0.7,13.064,M,-29.745,M,0.0,*55
###2023-12-09 12:32:14.937443$GPGSA,A,3,03,04,16,26,28,29,31,32,,,,,1.2,0.7,1.0*31
###2023-12-09 12:32:14.939059$GLGSA,A,3,71,72,73,74,,,,,,,,,1.2,0.7,1.0*2F
###2023-12-09 12:32:14.940657$GAGSA,A,3,04,19,21,27,,,,,,,,,1.2,0.7,1.0*2C
###2023-12-09 12:32:14.942313$GBGSA,A,3,14,24,25,26,33,,,,,,,,1.2,0.7,1.0*25
###2023-12-09 12:32:14.944672$GPGSV,2,1,08,03,39,279,44,04,20,310,42,16,35,207,45,26,65,206,47*70
###2023-12-09 12:32:14.947044$GPGSV,2,2,08,28,59,054,44,29,25,075,39,31,73,356,46,32,31,133,44*74
###2023-12-09 12:32:14.949405$GLGSV,1,1,04,71,58,169,48,72,65,311,46,73,49,033,46,74,71,287,43*6B
###2023-12-09 12:32:14.951776$GAGSV,1,1,04,04,20,311,44,19,80,306,41,21,76,177,46,27,42,050,43*69
###2023-12-09 12:32:14.954124$GBGSV,2,1,05,14,56,198,46,24,81,339,49,25,32,252,43,26,36,057,44*65
###2023-12-09 12:32:14.955661$GBGSV,2,2,05,33,63,257,49,,,,,,,,,,,,*56
###2023-12-09 12:32:14.957006$GNVTG,320.35,T,,M,0.35,N,0.65,K,A*21
###2023-12-09 12:32:14.958687$GNGST,173214.10,19.000,,,,0.082,0.075,0.170*52
###2023-12-09 12:32:14.959991$GNZDA,173214.10,09,12,2023,00,00*72
###2023-12-09 12:32:14.960643$GNEBP,,,,,,M*13
###2023-12-09 12:32:15.130393$GNGGA,173214.30,4138.0436137,N,07032.4270116,W,1,21,0.7,13.068,M,-29.745,M,0.0,*5C
###2023-12-09 12:32:15.329003$GNGGA,173214.50,4138.0436338,N,07032.4270325,W,1,21,0.7,13.069,M,-29.745,M,0.0,*54
###2023-12-09 12:32:15.529323$GNGGA,173214.70,4138.0436526,N,07032.4270523,W,1,21,0.7,13.063,M,-29.745,M,0.0,*55
###2023-12-09 12:32:15.728159$GNGGA,173214.90,4138.0436679,N,07032.4270669,W,1,21,0.7,13.059,M,-29.745,M,0.0,*56
###2023-12-09 12:32:15.929592$GNRMC,173215.10,A,4138.0436835,N,07032.4270803,W,0.31,320.35,091223,,,A*53
###2023-12-09 12:32:15.932707$GNGGA,173215.10,4138.0436835,N,07032.4270803,W,1,21,0.7,13.055,M,-29.745,M,0.0,*57
###2023-12-09 12:32:15.934615$GPGSA,A,3,03,04,16,26,28,29,31,32,,,,,1.3,0.7,1.1*31
###2023-12-09 12:32:15.936223$GLGSA,A,3,71,72,73,74,,,,,,,,,1.3,0.7,1.1*2F
###2023-12-09 12:32:15.937826$GAGSA,A,3,04,19,21,27,,,,,,,,,1.3,0.7,1.1*2C
###2023-12-09 12:32:15.939505$GBGSA,A,3,14,24,25,26,33,,,,,,,,1.3,0.7,1.1*25
###2023-12-09 12:32:15.941858$GPGSV,2,1,08,03,39,279,42,04,20,310,44,16,35,207,46,26,65,206,48*7C
###2023-12-09 12:32:15.944226$GPGSV,2,2,08,28,59,054,44,29,25,075,39,31,73,356,46,32,31,133,44*74
###2023-12-09 12:32:15.946608$GLGSV,1,1,04,71,58,169,49,72,65,311,46,73,49,033,46,74,71,287,43*6A
###2023-12-09 12:32:15.948982$GAGSV,1,1,04,04,20,311,44,19,80,306,41,21,76,177,46,27,42,050,42*68
###2023-12-09 12:32:15.951360$GBGSV,2,1,05,14,56,198,46,24,81,339,49,25,32,252,45,26,36,057,44*63
###2023-12-09 12:32:15.952843$GBGSV,2,2,05,33,63,257,49,,,,,,,,,,,,*56
###2023-12-09 12:32:15.954171$GNVTG,320.35,T,,M,0.31,N,0.58,K,A*2B
###2023-12-09 12:32:15.955851$GNGST,173215.10,19.000,,,,0.081,0.075,0.170*50
###2023-12-09 12:32:15.957154$GNZDA,173215.10,09,12,2023,00,00*73
###2023-12-09 12:32:15.957802$GNEBP,,,,,,M*13
###2023-12-09 12:32:16.127854$GNGGA,173215.30,4138.0436997,N,07032.4270983,W,1,22,0.7,13.059,M,-29.745,M,0.0,*5A
###2023-12-09 12:32:16.328893$GNGGA,173215.50,4138.0437197,N,07032.4271208,W,1,22,0.7,13.069,M,-29.745,M,0.0,*5F
###2023-12-09 12:32:16.527911$GNGGA,173215.70,4138.0437388,N,07032.4271388,W,1,21,0.7,13.072,M,-29.745,M,0.0,*51
###2023-12-09 12:32:16.728086$GNGGA,173215.90,4138.0437535,N,07032.4271502,W,1,21,0.7,13.075,M,-29.745,M,0.0,*5C
###2023-12-09 12:32:16.932173$GNRMC,173216.10,A,4138.0437664,N,07032.4271606,W,0.37,320.35,091223,,,A*57
###2023-12-09 12:32:16.935263$GNGGA,173216.10,4138.0437664,N,07032.4271606,W,1,21,0.7,13.059,M,-29.745,M,0.0,*59
###2023-12-09 12:32:16.937309$GPGSA,A,3,03,04,16,26,28,29,31,32,,,,,1.3,0.7,1.1*31
###2023-12-09 12:32:16.939078$GLGSA,A,3,71,72,73,74,,,,,,,,,1.3,0.7,1.1*2F
###2023-12-09 12:32:16.940837$GAGSA,A,3,04,19,21,27,,,,,,,,,1.3,0.7,1.1*2C
###2023-12-09 12:32:16.942670$GBGSA,A,3,14,24,25,26,33,,,,,,,,1.3,0.7,1.1*25
###2023-12-09 12:32:16.945162$GPGSV,2,1,08,03,39,279,44,04,20,310,42,16,35,207,47,26,65,206,48*7D
###2023-12-09 12:32:16.947701$GPGSV,2,2,08,28,59,054,44,29,25,075,41,31,73,356,47,32,31,133,45*7B
###2023-12-09 12:32:16.950247$GLGSV,1,1,04,71,58,169,48,72,65,311,47,73,49,033,47,74,71,287,43*6B
###2023-12-09 12:32:16.952765$GAGSV,1,1,04,04,20,311,44,19,80,306,41,21,76,177,47,27,42,050,42*69
###2023-12-09 12:32:16.955285$GBGSV,2,1,05,14,56,198,45,24,81,339,49,25,32,252,44,26,36,057,45*60
###2023-12-09 12:32:16.956914$GBGSV,2,2,05,33,63,257,48,,,,,,,,,,,,*57
###2023-12-09 12:32:16.958407$GNVTG,320.35,T,,M,0.37,N,0.68,K,A*2E
###2023-12-09 12:32:16.960196$GNGST,173216.10,19.000,,,,0.081,0.075,0.170*53
###2023-12-09 12:32:16.961610$GNZDA,173216.10,09,12,2023,00,00*70
###2023-12-09 12:32:16.962358$GNEBP,,,,,,M*13
###2023-12-09 12:32:17.131361$GNGGA,173216.30,4138.0437853,N,07032.4271807,W,1,21,0.7,13.062,M,-29.745,M,0.0,*56
###2023-12-09 12:32:17.330327$GNGGA,173216.50,4138.0438091,N,07032.4272069,W,1,21,0.7,13.069,M,-29.745,M,0.0,*51
###2023-12-09 12:32:17.532195$GNGGA,173216.70,4138.0438236,N,07032.4272188,W,1,21,0.7,13.075,M,-29.745,M,0.0,*5F
###2023-12-09 12:32:17.729836$GNGGA,173216.90,4138.0438306,N,07032.4272218,W,1,21,0.7,13.072,M,-29.745,M,0.0,*5E
###2023-12-09 12:32:17.935567$GNRMC,173217.10,A,4138.0438468,N,07032.4272386,W,0.52,320.35,091223,,,A*5A
###2023-12-09 12:32:17.939068$GNGGA,173217.10,4138.0438468,N,07032.4272386,W,1,21,0.7,13.075,M,-29.745,M,0.0,*59
###2023-12-09 12:32:17.941637$GPGSA,A,3,03,04,16,26,28,29,31,32,,,,,1.3,0.7,1.1*31
###2023-12-09 12:32:17.943622$GLGSA,A,3,71,72,73,74,,,,,,,,,1.3,0.7,1.1*2F
###2023-12-09 12:32:17.945541$GAGSA,A,3,04,19,21,27,,,,,,,,,1.3,0.7,1.1*2C
###2023-12-09 12:32:17.947564$GBGSA,A,3,14,24,25,26,33,,,,,,,,1.3,0.7,1.1*25
###2023-12-09 12:32:17.950392$GPGSV,2,1,08,03,39,279,44,04,20,310,43,16,35,207,46,26,65,206,48*7D
###2023-12-09 12:32:17.953283$GPGSV,2,2,08,28,59,054,45,29,25,075,40,31,73,356,47,32,31,133,46*78
###2023-12-09 12:32:17.956137$GLGSV,1,1,04,71,58,169,48,72,65,311,46,73,49,033,45,74,71,287,42*69
###2023-12-09 12:32:17.958965$GAGSV,1,1,04,04,20,311,45,19,80,306,41,21,76,177,46,27,42,050,42*69
###2023-12-09 12:32:17.961792$GBGSV,2,1,05,14,56,198,45,24,81,339,49,25,32,252,46,26,36,057,45*62
###2023-12-09 12:32:17.963564$GBGSV,2,2,05,33,63,257,49,,,,,,,,,,,,*56
###2023-12-09 12:32:17.965169$GNVTG,320.35,T,,M,0.52,N,0.97,K,A*2D
###2023-12-09 12:32:17.967179$GNGST,173217.10,19.000,,,,0.081,0.075,0.170*52
###2023-12-09 12:32:17.968741$GNZDA,173217.10,09,12,2023,00,00*71
###2023-12-09 12:32:17.969516$GNEBP,,,,,,M*13
###2023-12-09 12:32:18.132156$GNGGA,173217.30,4138.0438709,N,07032.4272699,W,1,21,0.7,13.076,M,-29.745,M,0.0,*57
###2023-12-09 12:32:18.330048$GNGGA,173217.50,4138.0438891,N,07032.4272896,W,1,21,0.7,13.068,M,-29.745,M,0.0,*51
###2023-12-09 12:32:18.530180$GNGGA,173217.70,4138.0438949,N,07032.4272907,W,1,21,0.7,13.069,M,-29.745,M,0.0,*5F
###2023-12-09 12:32:18.729285$GNGGA,173217.90,4138.0439067,N,07032.4272991,W,1,21,0.7,13.071,M,-29.745,M,0.0,*53
###2023-12-09 12:32:18.933089$GNRMC,173218.10,A,4138.0439293,N,07032.4273272,W,0.60,320.35,091223,,,A*5C
###2023-12-09 12:32:18.936007$GNGGA,173218.10,4138.0439293,N,07032.4273272,W,1,21,0.7,13.078,M,-29.745,M,0.0,*53
###2023-12-09 12:32:18.937900$GPGSA,A,3,03,04,16,26,28,29,31,32,,,,,1.3,0.7,1.1*31
###2023-12-09 12:32:18.939534$GLGSA,A,3,71,72,73,74,,,,,,,,,1.3,0.7,1.1*2F
###2023-12-09 12:32:18.941136$GAGSA,A,3,04,19,21,27,,,,,,,,,1.3,0.7,1.1*2C
###2023-12-09 12:32:18.942812$GBGSA,A,3,14,24,25,26,33,,,,,,,,1.3,0.7,1.1*25
###2023-12-09 12:32:18.945160$GPGSV,2,1,08,03,39,279,44,04,20,310,44,16,35,207,46,26,65,206,48*7A
###2023-12-09 12:32:18.947560$GPGSV,2,2,08,28,59,054,44,29,25,075,39,31,73,356,46,32,31,133,44*74
