###2023-12-09 13:15:13.000602$GLGSV,2,1,06,65,30,325,42,71,33,174,43,72,71,243,47,73,30,046,45*60
###2023-12-09 13:15:13.002377$GLGSV,2,2,06,74,66,355,43,75,37,260,46,,,,,,,,*64
###2023-12-09 13:15:13.004728$GAGSV,1,1,04,04,33,312,44,19,80,192,40,21,84,066,46,27,29,048,43*6E
###2023-12-09 13:15:13.007074$GBGSV,2,1,06,14,37,191,43,24,69,035,49,25,45,267,46,26,22,066,44*60
###2023-12-09 13:15:13.008818$GBGSV,2,2,06,33,53,225,48,35,16,064,44,,,,,,,,*61
###2023-12-09 13:15:13.010138$GNVTG,131.11,T,,M,3.52,N,6.52,K,A*25
###2023-12-09 13:15:13.011799$GNGST,181512.10,18.000,,,,0.097,0.068,0.160*56
###2023-12-09 13:15:13.013084$GNZDA,181512.10,09,12,2023,00,00*7E
###2023-12-09 13:15:13.013719$GNEBP,,,,,,M*13
###2023-12-09 13:15:13.176410$GNGGA,181512.30,4138.0134439,N,07032.2788235,W,1,24,0.7,12.783,M,-29.744,M,0.0,*5D
###2023-12-09 13:15:13.376904$GNGGA,181512.50,4138.0133338,N,07032.2786060,W,1,24,0.7,12.779,M,-29.744,M,0.0,*53
###2023-12-09 13:15:13.577694$GNGGA,181512.70,4138.0132273,N,07032.2783805,W,1,24,0.7,12.788,M,-29.744,M,0.0,*5E
###2023-12-09 13:15:13.777720$GNGGA,181512.90,4138.0131169,N,07032.2781566,W,1,24,0.7,12.790,M,-29.744,M,0.0,*58
###2023-12-09 13:15:13.980030$GNRMC,181513.10,A,4138.0130266,N,07032.2779258,W,3.62,113.51,091223,,,A*5B
###2023-12-09 13:15:13.982905$GNGGA,181513.10,4138.0130266,N,07032.2779258,W,1,24,0.7,12.803,M,-29.744,M,0.0,*54
###2023-12-09 13:15:13.984698$GPGSA,A,3,03,04,16,26,28,29,31,,,,,,1.2,0.7,1.0*30
###2023-12-09 13:15:13.986414$GLGSA,A,3,65,71,72,73,74,75,,,,,,,1.2,0.7,1.0*2E
###2023-12-09 13:15:13.988013$GAGSA,A,3,04,19,21,27,,,,,,,,,1.2,0.7,1.0*2C
###2023-12-09 13:15:13.989728$GBGSA,A,3,14,24,25,26,33,35,,,,,,,1.2,0.7,1.0*23
###2023-12-09 13:15:13.992062$GPGSV,2,1,07,03,32,254,43,04,38,311,44,16,56,215,47,26,86,209,48*7B
###2023-12-09 13:15:13.994105$GPGSV,2,2,07,28,45,076,45,29,24,055,43,31,65,050,46,,,,*49
###2023-12-09 13:15:13.996451$GLGSV,2,1,06,65,30,325,41,71,33,174,45,72,71,243,47,73,30,046,44*64
###2023-12-09 13:15:13.998204$GLGSV,2,2,06,74,66,355,43,75,37,260,46,,,,,,,,*64
###2023-12-09 13:15:14.000546$GAGSV,1,1,04,04,33,312,43,19,80,192,40,21,84,066,46,27,29,048,42*68
###2023-12-09 13:15:14.002887$GBGSV,2,1,06,14,37,191,44,24,69,035,48,25,45,267,46,26,22,066,44*66
###2023-12-09 13:15:14.004632$GBGSV,2,2,06,33,53,225,49,35,16,064,44,,,,,,,,*60
###2023-12-09 13:15:14.005946$GNVTG,113.51,T,,M,3.62,N,6.70,K,A*22
###2023-12-09 13:15:14.007593$GNGST,181513.10,18.000,,,,0.097,0.069,0.160*56
###2023-12-09 13:15:14.008880$GNZDA,181513.10,09,12,2023,00,00*7F
###2023-12-09 13:15:14.009515$GNEBP,,,,,,M*13
###2023-12-09 13:15:14.175712$GNGGA,181513.30,4138.0129426,N,07032.2776814,W,1,24,0.7,12.803,M,-29.744,M,0.0,*51
###2023-12-09 13:15:14.375904$GNGGA,181513.50,4138.0128697,N,07032.2774417,W,1,24,0.7,12.802,M,-29.744,M,0.0,*52
###2023-12-09 13:15:14.577778$GNGGA,181513.70,4138.0128061,N,07032.2771906,W,1,24,0.7,12.826,M,-29.744,M,0.0,*51
###2023-12-09 13:15:14.776624$GNGGA,181513.90,4138.0127236,N,07032.2769374,W,1,24,0.7,12.813,M,-29.744,M,0.0,*50
###2023-12-09 13:15:14.981024$GNRMC,181514.10,A,4138.0126767,N,07032.2766828,W,3.58,97.10,091223,,,A*6D
###2023-12-09 13:15:14.983934$GNGGA,181514.10,4138.0126767,N,07032.2766828,W,1,24,0.7,12.813,M,-29.744,M,0.0,*52
###2023-12-09 13:15:14.985727$GPGSA,A,3,03,04,16,26,28,29,31,,,,,,1.2,0.7,1.0*30
###2023-12-09 13:15:14.987453$GLGSA,A,3,65,71,72,73,74,75,,,,,,,1.2,0.7,1.0*2E
###2023-12-09 13:15:14.989036$GAGSA,A,3,04,19,21,27,,,,,,,,,1.2,0.7,1.0*2C
###2023-12-09 13:15:14.990750$GBGSA,A,3,14,24,25,26,33,35,,,,,,,1.2,0.7,1.0*23
###2023-12-09 13:15:14.993063$GPGSV,2,1,07,03,32,254,44,04,38,311,43,16,56,215,48,26,86,209,48*74
###2023-12-09 13:15:14.995100$GPGSV,2,2,07,28,45,076,43,29,24,055,43,31,65,050,46,,,,*4F
###2023-12-09 13:15:14.997418$GLGSV,2,1,06,65,30,325,41,71,33,174,46,72,71,243,46,73,30,046,44*66
###2023-12-09 13:15:14.999169$GLGSV,2,2,06,74,66,355,43,75,37,260,47,,,,,,,,*65
###2023-12-09 13:15:15.001478$GAGSV,1,1,04,04,33,312,41,19,80,192,40,21,84,066,46,27,29,048,42*6A
###2023-12-09 13:15:15.003804$GBGSV,2,1,06,14,37,191,44,24,69,035,48,25,45,267,47,26,22,066,41*62
###2023-12-09 13:15:15.005546$GBGSV,2,2,06,33,53,225,49,35,16,064,41,,,,,,,,*65
###2023-12-09 13:15:15.006840$GNVTG,97.10,T,,M,3.58,N,6.62,K,A*10
###2023-12-09 13:15:15.008476$GNGST,181514.10,18.000,,,,0.097,0.069,0.160*51
###2023-12-09 13:15:15.009758$GNZDA,181514.10,09,12,2023,00,00*78
###2023-12-09 13:15:15.010393$GNEBP,,,,,,M*13
###2023-12-09 13:15:15.178746$GNGGA,181514.30,4138.0126495,N,07032.2764191,W,1,24,0.7,12.833,M,-29.744,M,0.0,*55
###2023-12-09 13:15:15.378400$GNGGA,181514.50,4138.0126143,N,07032.2761590,W,1,24,0.7,12.826,M,-29.744,M,0.0,*59
###2023-12-09 13:15:15.576691$GNGGA,181514.70,4138.0125804,N,07032.2758916,W,1,24,0.7,12.816,M,-29.744,M,0.0,*59
###2023-12-09 13:15:15.777964$GNGGA,181514.90,4138.0125619,N,07032.2756254,W,1,24,0.7,12.814,M,-29.744,M,0.0,*54
###2023-12-09 13:15:15.980259$GNRMC,181515.10,A,4138.0125727,N,07032.2753723,W,3.58,86.39,091223,,,A*62
###2023-12-09 13:15:15.983131$GNGGA,181515.10,4138.0125727,N,07032.2753723,W,1,24,0.7,12.844,M,-29.744,M,0.0,*54
###2023-12-09 13:15:15.984926$GPGSA,A,3,03,04,16,26,28,29,31,,,,,,1.2,0.7,1.0*30
###2023-12-09 13:15:15.986649$GLGSA,A,3,65,71,72,73,74,75,,,,,,,1.2,0.7,1.0*2E
###2023-12-09 13:15:15.988237$GAGSA,A,3,04,19,21,27,,,,,,,,,1.2,0.7,1.0*2C
###2023-12-09 13:15:15.989953$GBGSA,A,3,14,24,25,26,33,35,,,,,,,1.2,0.7,1.0*23
###2023-12-09 13:15:15.992292$GPGSV,2,1,07,03,32,254,44,04,38,311,44,16,56,215,47,26,86,209,48*7C
###2023-12-09 13:15:15.994324$GPGSV,2,2,07,28,45,076,41,29,24,055,40,31,65,050,46,,,,*4E
###2023-12-09 13:15:15.996675$GLGSV,2,1,06,65,30,325,42,71,33,174,45,72,71,243,47,73,30,046,43*60
###2023-12-09 13:15:15.998430$GLGSV,2,2,06,74,66,355,43,75,37,260,48,,,,,,,,*6A
###2023-12-09 13:15:16.000764$GAGSV,1,1,04,04,33,312,43,19,80,192,41,21,84,066,46,27,29,048,41*6A
###2023-12-09 13:15:16.003100$GBGSV,2,1,06,14,37,191,45,24,69,035,49,25,45,267,47,26,22,066,42*61
###2023-12-09 13:15:16.004846$GBGSV,2,2,06,33,53,225,48,35,16,064,41,,,,,,,,*64
###2023-12-09 13:15:16.006131$GNVTG,86.39,T,,M,3.58,N,6.62,K,A*1B
###2023-12-09 13:15:16.007817$GNGST,181515.10,18.000,,,,0.097,0.069,0.170*51
###2023-12-09 13:15:16.009111$GNZDA,181515.10,09,12,2023,00,00*79
###2023-12-09 13:15:16.009746$GNEBP,,,,,,M*13
###2023-12-09 13:15:16.175696$GNGGA,181515.30,4138.0125613,N,07032.2750964,W,1,24,0.7,12.820,M,-29.744,M,0.0,*5C
###2023-12-09 13:15:16.376885$GNGGA,181515.50,4138.0125768,N,07032.2748521,W,1,24,0.7,12.787,M,-29.744,M,0.0,*51
###2023-12-09 13:15:16.578963$GNGGA,181515.70,4138.0126326,N,07032.2746122,W,1,24,0.7,12.838,M,-29.744,M,0.0,*5C
###2023-12-09 13:15:16.777793$GNGGA,181515.90,4138.0126428,N,07032.2743398,W,1,24,0.7,12.823,M,-29.744,M,0.0,*57
###2023-12-09 13:15:16.981977$GNRMC,181516.10,A,4138.0126868,N,07032.2741058,W,3.27,62.56,091223,,,A*65
###2023-12-09 13:15:16.984855$GNGGA,181516.10,4138.0126868,N,07032.2741058,W,1,24,0.7,12.801,M,-29.744,M,0.0,*59
###2023-12-09 13:15:16.986661$GPGSA,A,3,03,04,16,26,28,29,31,,,,,,1.2,0.7,1.0*30
###2023-12-09 13:15:16.988380$GLGSA,A,3,65,71,72,73,74,75,,,,,,,1.2,0.7,1.0*2E
###2023-12-09 13:15:16.989961$GAGSA,A,3,04,19,21,27,,,,,,,,,1.2,0.7,1.0*2C
###2023-12-09 13:15:16.991684$GBGSA,A,3,14,24,25,26,33,35,,,,,,,1.2,0.7,1.0*23
###2023-12-09 13:15:16.994007$GPGSV,2,1,07,03,32,254,44,04,38,311,44,16,57,216,46,26,86,209,49*7E
###2023-12-09 13:15:16.996053$GPGSV,2,2,07,28,45,076,41,29,24,055,40,31,65,050,45,,,,*4D
###2023-12-09 13:15:16.998379$GLGSV,2,1,06,65,30,325,41,71,33,174,47,72,71,243,47,73,30,046,41*63
###2023-12-09 13:15:17.000166$GLGSV,2,2,06,74,66,355,42,75,37,260,47,,,,,,,,*64
###2023-12-09 13:15:17.002499$GAGSV,1,1,04,04,33,312,42,19,80,192,41,21,84,066,46,27,29,048,39*64
###2023-12-09 13:15:17.004832$GBGSV,2,1,06,14,37,191,44,24,69,035,48,25,45,267,46,26,22,066,41*63
###2023-12-09 13:15:17.006594$GBGSV,2,2,06,33,53,225,47,35,16,064,41,,,,,,,,*6B
###2023-12-09 13:15:17.007885$GNVTG,62.56,T,,M,3.27,N,6.05,K,A*11
###2023-12-09 13:15:17.009527$GNGST,181516.10,18.000,,,,0.097,0.069,0.170*52
###2023-12-09 13:15:17.011065$GNZDA,181516.10,09,12,2023,00,00*7A
###2023-12-09 13:15:17.011718$GNEBP,,,,,,M*13
###2023-12-09 13:15:17.177651$GNGGA,181516.30,4138.0127660,N,07032.2738759,W,1,24,0.7,12.842,M,-29.744,M,0.0,*53
###2023-12-09 13:15:17.378186$GNGGA,181516.50,4138.0128071,N,07032.2736152,W,1,24,0.7,12.804,M,-29.744,M,0.0,*5D
###2023-12-09 13:15:17.578746$GNGGA,181516.70,4138.0128845,N,07032.2733911,W,1,24,0.7,12.799,M,-29.744,M,0.0,*51
###2023-12-09 13:15:17.776628$GNGGA,181516.90,4138.0129770,N,07032.2731670,W,1,24,0.7,12.825,M,-29.744,M,0.0,*55
###2023-12-09 13:15:17.981031$GNRMC,181517.10,A,4138.0130498,N,07032.2729246,W,3.46,64.64,091223,,,A*63
###2023-12-09 13:15:17.983900$GNGGA,181517.10,4138.0130498,N,07032.2729246,W,1,24,0.7,12.804,M,-29.744,M,0.0,*5A
###2023-12-09 13:15:17.985689$GPGSA,A,3,03,04,16,26,28,29,31,,,,,,1.2,0.7,1.0*30
