###2023-12-09 13:00:26.994596$GNGST,180026.10,18.000,,,,0.080,0.067,0.160*5C
###2023-12-09 13:00:26.995912$GNZDA,180026.10,09,12,2023,00,00*7D
###2023-12-09 13:00:26.996554$GNEBP,,,,,,M*13
###2023-12-09 13:00:27.168016$GNGGA,180026.30,4138.0248599,N,07032.3141653,W,1,24,0.6,13.248,M,-29.744,M,0.0,*59
###2023-12-09 13:00:27.364551$GNGGA,180026.50,4138.0248007,N,07032.3139707,W,1,24,0.6,13.250,M,-29.744,M,0.0,*5B
###2023-12-09 13:00:27.564875$GNGGA,180026.70,4138.0247381,N,07032.3137733,W,1,24,0.6,13.253,M,-29.744,M,0.0,*51
###2023-12-09 13:00:27.765455$GNGGA,180026.90,4138.0246784,N,07032.3135723,W,1,24,0.6,13.262,M,-29.744,M,0.0,*5E
###2023-12-09 13:00:27.967857$GNRMC,180027.10,A,4138.0246208,N,07032.3133621,W,2.95,110.52,091223,,,A*58
###2023-12-09 13:00:27.970720$GNGGA,180027.10,4138.0246208,N,07032.3133621,W,1,24,0.6,13.255,M,-29.744,M,0.0,*57
###2023-12-09 13:00:27.972577$GPGSA,A,3,03,04,16,26,28,29,31,32,,,,,1.1,0.6,0.9*3B
###2023-12-09 13:00:27.974279$GLGSA,A,3,65,71,72,73,74,75,,,,,,,1.1,0.6,0.9*24
###2023-12-09 13:00:27.975862$GAGSA,A,3,04,19,21,27,,,,,,,,,1.1,0.6,0.9*26
###2023-12-09 13:00:27.977497$GBGSA,A,3,14,24,25,26,33,,,,,,,,1.1,0.6,0.9*2F
###2023-12-09 13:00:27.979830$GPGSV,2,1,08,03,35,262,44,04,32,311,43,16,49,212,47,26,79,210,48*7D
###2023-12-09 13:00:27.982152$GPGSV,2,2,08,28,49,070,45,29,25,061,44,31,69,036,47,32,19,140,41*79
###2023-12-09 13:00:27.984483$GLGSV,2,1,06,65,24,327,41,71,41,173,46,72,73,271,46,73,36,041,44*61
###2023-12-09 13:00:27.986217$GLGSV,2,2,06,74,70,336,42,75,32,252,44,,,,,,,,*61
###2023-12-09 13:00:27.988528$GAGSV,1,1,04,04,29,312,42,19,84,219,40,21,86,122,46,27,33,048,43*6F
###2023-12-09 13:00:27.990842$GBGSV,2,1,05,14,43,193,45,24,74,024,48,25,40,262,47,26,26,063,45*68
###2023-12-09 13:00:27.992289$GBGSV,2,2,05,33,57,233,49,,,,,,,,,,,,*53
###2023-12-09 13:00:27.993607$GNVTG,110.52,T,,M,2.95,N,5.47,K,A*2C
###2023-12-09 13:00:27.995268$GNGST,180027.10,18.000,,,,0.080,0.067,0.160*5D
###2023-12-09 13:00:27.996553$GNZDA,180027.10,09,12,2023,00,00*7C
###2023-12-09 13:00:27.997189$GNEBP,,,,,,M*13
###2023-12-09 13:00:28.163728$GNGGA,180027.30,4138.0245610,N,07032.3131576,W,1,24,0.6,13.258,M,-29.744,M,0.0,*55
###2023-12-09 13:00:28.364385$GNGGA,180027.50,4138.0244958,N,07032.3129404,W,1,24,0.6,13.258,M,-29.744,M,0.0,*5C
###2023-12-09 13:00:28.565162$GNGGA,180027.70,4138.0244437,N,07032.3127260,W,1,24,0.6,13.249,M,-29.744,M,0.0,*50
###2023-12-09 13:00:28.767033$GNGGA,180027.90,4138.0244014,N,07032.3125092,W,1,24,0.6,13.264,M,-29.744,M,0.0,*59
###2023-12-09 13:00:28.977850$GNRMC,180028.10,A,4138.0243395,N,07032.3122804,W,3.19,110.77,091223,,,A*5C
###2023-12-09 13:00:28.980719$GNGGA,180028.10,4138.0243395,N,07032.3122804,W,1,24,0.6,13.248,M,-29.744,M,0.0,*5D
###2023-12-09 13:00:28.982583$GPGSA,A,3,03,04,16,26,28,29,31,32,,,,,1.1,0.6,0.9*3B
###2023-12-09 13:00:28.984286$GLGSA,A,3,65,71,72,73,74,75,,,,,,,1.1,0.6,0.9*24
###2023-12-09 13:00:28.985859$GAGSA,A,3,04,19,21,27,,,,,,,,,1.1,0.6,0.9*26
###2023-12-09 13:00:28.987510$GBGSA,A,3,14,24,25,26,33,,,,,,,,1.1,0.6,0.9*2F
###2023-12-09 13:00:28.989824$GPGSV,2,1,08,03,35,262,45,04,32,311,42,16,49,212,47,26,79,210,48*7D
###2023-12-09 13:00:28.992158$GPGSV,2,2,08,28,49,070,44,29,25,061,42,31,69,036,47,32,19,140,42*7D
###2023-12-09 13:00:28.994477$GLGSV,2,1,06,65,24,327,41,71,41,173,46,72,73,271,47,73,36,041,45*61
###2023-12-09 13:00:28.996231$GLGSV,2,2,06,74,70,336,42,75,32,252,46,,,,,,,,*63
###2023-12-09 13:00:28.998557$GAGSV,1,1,04,04,29,312,42,19,84,219,40,21,86,122,46,27,33,048,43*6F
###2023-12-09 13:00:29.000892$GBGSV,2,1,05,14,43,193,45,24,74,024,49,25,40,262,47,26,26,063,43*6F
###2023-12-09 13:00:29.002344$GBGSV,2,2,05,33,57,233,49,,,,,,,,,,,,*53
###2023-12-09 13:00:29.003683$GNVTG,110.77,T,,M,3.19,N,5.90,K,A*24
###2023-12-09 13:00:29.005324$GNGST,180028.10,18.000,,,,0.080,0.067,0.160*52
###2023-12-09 13:00:29.006624$GNZDA,180028.10,09,12,2023,00,00*73
###2023-12-09 13:00:29.007258$GNEBP,,,,,,M*13
###2023-12-09 13:00:29.162874$GNGGA,180028.30,4138.0243058,N,07032.3120681,W,1,24,0.6,13.248,M,-29.744,M,0.0,*5C
###2023-12-09 13:00:29.363720$GNGGA,180028.50,4138.0242970,N,07032.3118392,W,1,24,0.6,13.275,M,-29.744,M,0.0,*5A
###2023-12-09 13:00:29.563721$GNGGA,180028.70,4138.0242518,N,07032.3115995,W,1,24,0.6,13.245,M,-29.744,M,0.0,*59
###2023-12-09 13:00:29.764030$GNGGA,180028.90,4138.0242396,N,07032.3113825,W,1,24,0.6,13.234,M,-29.744,M,0.0,*5D
###2023-12-09 13:00:29.966038$GNRMC,180029.10,A,4138.0242568,N,07032.3111554,W,3.27,89.06,091223,,,A*6A
###2023-12-09 13:00:29.968911$GNGGA,180029.10,4138.0242568,N,07032.3111554,W,1,24,0.6,13.282,M,-29.744,M,0.0,*57
###2023-12-09 13:00:29.970781$GPGSA,A,3,03,04,16,26,28,29,31,32,,,,,1.1,0.6,0.9*3B
###2023-12-09 13:00:29.972499$GLGSA,A,3,65,71,72,73,74,75,,,,,,,1.1,0.6,0.9*24
###2023-12-09 13:00:29.974074$GAGSA,A,3,04,19,21,27,,,,,,,,,1.1,0.6,0.9*26
###2023-12-09 13:00:29.975728$GBGSA,A,3,14,24,25,26,33,,,,,,,,1.1,0.6,0.9*2F
###2023-12-09 13:00:29.978044$GPGSV,2,1,08,03,35,262,44,04,32,311,42,16,49,212,46,26,79,210,48*7D
###2023-12-09 13:00:29.980389$GPGSV,2,2,08,28,49,070,44,29,25,061,40,31,69,036,47,32,19,140,40*7D
###2023-12-09 13:00:29.982733$GLGSV,2,1,06,65,24,327,42,71,41,173,46,72,73,271,46,73,36,041,45*63
###2023-12-09 13:00:29.984474$GLGSV,2,2,06,74,70,336,43,75,32,252,46,,,,,,,,*62
###2023-12-09 13:00:29.986803$GAGSV,1,1,04,04,29,312,40,19,84,219,40,21,86,122,46,27,33,048,42*6C
###2023-12-09 13:00:29.989120$GBGSV,2,1,05,14,43,193,45,24,74,024,49,25,40,262,47,26,26,063,42*6E
###2023-12-09 13:00:29.990601$GBGSV,2,2,05,33,57,233,48,,,,,,,,,,,,*52
###2023-12-09 13:00:29.991894$GNVTG,89.06,T,,M,3.27,N,6.05,K,A*11
###2023-12-09 13:00:29.993538$GNGST,180029.10,18.000,,,,0.080,0.067,0.160*53
###2023-12-09 13:00:29.994839$GNZDA,180029.10,09,12,2023,00,00*72
###2023-12-09 13:00:29.995479$GNEBP,,,,,,M*13
###2023-12-09 13:00:30.162879$GNGGA,180029.30,4138.0242393,N,07032.3109097,W,1,24,0.6,13.264,M,-29.744,M,0.0,*5C
###2023-12-09 13:00:30.363379$GNGGA,180029.50,4138.0242417,N,07032.3106786,W,1,24,0.6,13.230,M,-29.744,M,0.0,*58
###2023-12-09 13:00:30.563690$GNGGA,180029.70,4138.0242750,N,07032.3104549,W,1,24,0.6,13.243,M,-29.744,M,0.0,*5D
###2023-12-09 13:00:30.763989$GNGGA,180029.90,4138.0243039,N,07032.3102234,W,1,24,0.6,13.270,M,-29.744,M,0.0,*51
###2023-12-09 13:00:30.965808$GNRMC,180030.10,A,4138.0243171,N,07032.3099881,W,3.13,85.08,091223,,,A*6E
###2023-12-09 13:00:30.969295$GNGGA,180030.10,4138.0243171,N,07032.3099881,W,1,24,0.6,13.247,M,-29.744,M,0.0,*5F
###2023-12-09 13:00:30.971562$GPGSA,A,3,03,04,16,26,28,29,31,32,,,,,1.1,0.6,0.9*3B
###2023-12-09 13:00:30.973637$GLGSA,A,3,65,71,72,73,74,75,,,,,,,1.1,0.6,0.9*24
###2023-12-09 13:00:30.975559$GAGSA,A,3,04,19,21,27,,,,,,,,,1.1,0.6,0.9*26
###2023-12-09 13:00:30.977546$GBGSA,A,3,14,24,25,26,33,,,,,,,,1.1,0.6,0.9*2F
###2023-12-09 13:00:30.980359$GPGSV,2,1,08,03,35,262,45,04,32,311,41,16,49,212,47,26,79,210,48*7E
###2023-12-09 13:00:30.983189$GPGSV,2,2,08,28,49,070,43,29,25,061,40,31,69,036,47,32,19,140,43*79
###2023-12-09 13:00:30.986041$GLGSV,2,1,06,65,24,327,42,71,41,173,48,72,73,271,47,73,36,041,45*6C
###2023-12-09 13:00:30.988165$GLGSV,2,2,06,74,70,336,42,75,32,252,47,,,,,,,,*62
###2023-12-09 13:00:30.990973$GAGSV,1,1,04,04,29,312,41,19,84,219,40,21,86,122,46,27,33,048,41*6E
###2023-12-09 13:00:30.993768$GBGSV,2,1,05,14,43,193,47,24,74,024,49,25,40,262,47,26,26,063,43*6D
###2023-12-09 13:00:30.995579$GBGSV,2,2,05,33,57,233,49,,,,,,,,,,,,*53
###2023-12-09 13:00:30.997139$GNVTG,85.08,T,,M,3.13,N,5.80,K,A*1A
###2023-12-09 13:00:30.999148$GNGST,180030.10,18.000,,,,0.079,0.067,0.160*5D
###2023-12-09 13:00:31.000718$GNZDA,180030.10,09,12,2023,00,00*7A
###2023-12-09 13:00:31.001505$GNEBP,,,,,,M*13
###2023-12-09 13:00:31.162880$GNGGA,180030.30,4138.0243494,N,07032.3097686,W,1,24,0.6,13.231,M,-29.744,M,0.0,*55
###2023-12-09 13:00:31.363680$GNGGA,180030.50,4138.0244172,N,07032.3095528,W,1,24,0.6,13.252,M,-29.744,M,0.0,*59
###2023-12-09 13:00:31.564790$GNGGA,180030.70,4138.0244671,N,07032.3093245,W,1,24,0.6,13.237,M,-29.744,M,0.0,*56
###2023-12-09 13:00:31.764998$GNGGA,180030.90,4138.0244832,N,07032.3090994,W,1,24,0.6,13.234,M,-29.744,M,0.0,*56
###2023-12-09 13:00:31.966961$GNRMC,180031.10,A,4138.0245110,N,07032.3088646,W,3.29,78.23,091223,,,A*69
###2023-12-09 13:00:31.969840$GNGGA,180031.10,4138.0245110,N,07032.3088646,W,1,24,0.6,13.239,M,-29.744,M,0.0,*53
###2023-12-09 13:00:31.971713$GPGSA,A,3,03,04,16,26,28,29,31,32,,,,,1.1,0.6,0.9*3B
###2023-12-09 13:00:31.973425$GLGSA,A,3,65,71,72,73,74,75,,,,,,,1.1,0.6,0.9*24
###2023-12-09 13:00:31.975011$GAGSA,A,3,04,19,21,27,,,,,,,,,1.1,0.6,0.9*26
###2023-12-09 13:00:31.976652$GBGSA,A,3,14,24,25,26,33,,,,,,,,1.1,0.6,0.9*2F
###2023-12-09 13:00:31.978985$GPGSV,2,1,08,03,35,262,45,04,32,311,42,16,49,212,47,26,79,210,48*7D
###2023-12-09 13:00:31.981307$GPGSV,2,2,08,28,49,070,43,29,25,061,40,31,69,036,46,32,19,140,44*7F
###2023-12-09 13:00:31.983638$GLGSV,2,1,06,65,24,327,40,71,41,173,48,72,73,271,47,73,36,041,44*6F
