###2023-12-09 13:00:36.975273$GAGSA,A,3,04,19,21,27,,,,,,,,,1.1,0.6,0.9*26
###2023-12-09 13:00:36.976940$GBGSA,A,3,14,24,25,26,33,,,,,,,,1.1,0.6,0.9*2F
###2023-12-09 13:00:36.979286$GPGSV,2,1,08,03,35,262,44,04,32,311,43,16,49,212,47,26,79,210,49*7C
###2023-12-09 13:00:36.981624$GPGSV,2,2,08,28,49,070,43,29,25,061,42,31,69,036,46,32,19,140,44*7D
###2023-12-09 13:00:36.983971$GLGSV,2,1,06,65,24,327,41,71,41,173,48,72,73,271,46,73,36,041,42*69
###2023-12-09 13:00:36.985713$GLGSV,2,2,06,74,70,336,42,75,32,252,46,,,,,,,,*63
###2023-12-09 13:00:36.988053$GAGSV,1,1,04,04,29,312,42,19,84,219,41,21,86,122,46,27,33,048,41*6C
###2023-12-09 13:00:36.990383$GBGSV,2,1,05,14,43,193,45,24,74,024,47,25,41,262,44,26,26,063,43*63
###2023-12-09 13:00:36.991851$GBGSV,2,2,05,33,57,233,47,,,,,,,,,,,,*5D
###2023-12-09 13:00:36.993136$GNVTG,64.51,T,,M,3.15,N,5.83,K,A*1C
###2023-12-09 13:00:36.994781$GNGST,180036.10,18.000,,,,0.079,0.066,0.160*5A
###2023-12-09 13:00:36.996072$GNZDA,180036.10,09,12,2023,00,00*7C
###2023-12-09 13:00:36.996708$GNEBP,,,,,,M*13
###2023-12-09 13:00:37.163820$GNGGA,180036.30,4138.0257850,N,07032.3028479,W,1,24,0.6,13.346,M,-29.744,M,0.0,*55
###2023-12-09 13:00:37.365732$GNGGA,180036.50,4138.0258960,N,07032.3026627,W,1,24,0.6,13.349,M,-29.744,M,0.0,*56
###2023-12-09 13:00:37.565353$GNGGA,180036.70,4138.0259866,N,07032.3024735,W,1,24,0.6,13.355,M,-29.744,M,0.0,*5F
###2023-12-09 13:00:37.765110$GNGGA,180036.90,4138.0260575,N,07032.3022638,W,1,24,0.6,13.371,M,-29.744,M,0.0,*58
###2023-12-09 13:00:37.966846$GNRMC,180037.10,A,4138.0261399,N,07032.3020577,W,3.13,55.67,091223,,,A*6F
###2023-12-09 13:00:37.969695$GNGGA,180037.10,4138.0261399,N,07032.3020577,W,1,24,0.6,13.369,M,-29.744,M,0.0,*57
###2023-12-09 13:00:37.971560$GPGSA,A,3,03,04,16,26,28,29,31,32,,,,,1.1,0.6,0.9*3B
###2023-12-09 13:00:37.973272$GLGSA,A,3,65,71,72,73,74,75,,,,,,,1.1,0.6,0.9*24
###2023-12-09 13:00:37.974865$GAGSA,A,3,04,19,21,27,,,,,,,,,1.1,0.6,0.9*26
###2023-12-09 13:00:37.976512$GBGSA,A,3,14,24,25,26,33,,,,,,,,1.1,0.6,0.9*2F
###2023-12-09 13:00:37.978851$GPGSV,2,1,08,03,35,262,45,04,32,311,43,16,49,212,47,26,79,210,48*7C
###2023-12-09 13:00:37.981179$GPGSV,2,2,08,28,49,070,44,29,25,061,42,31,69,036,46,32,19,140,45*7B
###2023-12-09 13:00:37.983514$GLGSV,2,1,06,65,24,327,42,71,41,173,49,72,73,271,46,73,36,041,42*6B
###2023-12-09 13:00:37.985256$GLGSV,2,2,06,74,70,336,43,75,32,252,46,,,,,,,,*62
###2023-12-09 13:00:37.987596$GAGSV,1,1,04,04,29,312,41,19,84,219,39,21,86,122,46,27,33,048,41*60
###2023-12-09 13:00:37.989919$GBGSV,2,1,05,14,43,193,45,24,74,024,47,25,41,262,45,26,26,063,42*63
###2023-12-09 13:00:37.991386$GBGSV,2,2,05,33,57,233,47,,,,,,,,,,,,*5D
###2023-12-09 13:00:37.992680$GNVTG,55.67,T,,M,3.13,N,5.80,K,A*1E
###2023-12-09 13:00:37.994330$GNGST,180037.10,18.000,,,,0.079,0.066,0.160*5B
###2023-12-09 13:00:37.995636$GNZDA,180037.10,09,12,2023,00,00*7D
###2023-12-09 13:00:37.996276$GNEBP,,,,,,M*13
###2023-12-09 13:00:38.163830$GNGGA,180037.30,4138.0262512,N,07032.3018789,W,1,24,0.6,13.385,M,-29.744,M,0.0,*59
###2023-12-09 13:00:38.363783$GNGGA,180037.50,4138.0263619,N,07032.3016897,W,1,24,0.6,13.400,M,-29.744,M,0.0,*52
###2023-12-09 13:00:38.564559$GNGGA,180037.70,4138.0264419,N,07032.3014703,W,1,24,0.6,13.402,M,-29.744,M,0.0,*57
###2023-12-09 13:00:38.766741$GNGGA,180037.90,4138.0265131,N,07032.3012563,W,1,24,0.6,13.400,M,-29.744,M,0.0,*57
###2023-12-09 13:00:38.967268$GNRMC,180038.10,A,4138.0266067,N,07032.3010593,W,3.19,54.84,091223,,,A*6A
###2023-12-09 13:00:38.970765$GNGGA,180038.10,4138.0266067,N,07032.3010593,W,1,24,0.6,13.414,M,-29.744,M,0.0,*59
###2023-12-09 13:00:38.973014$GPGSA,A,3,03,04,16,26,28,29,31,32,,,,,1.1,0.6,0.9*3B
###2023-12-09 13:00:38.975094$GLGSA,A,3,65,71,72,73,74,75,,,,,,,1.1,0.6,0.9*24
###2023-12-09 13:00:38.976996$GAGSA,A,3,04,19,21,27,,,,,,,,,1.1,0.6,0.9*26
###2023-12-09 13:00:38.978992$GBGSA,A,3,14,24,25,26,33,,,,,,,,1.1,0.6,0.9*2F
###2023-12-09 13:00:38.981783$GPGSV,2,1,08,03,35,262,45,04,32,311,44,16,49,212,48,26,79,210,49*75
###2023-12-09 13:00:38.984595$GPGSV,2,2,08,28,49,070,43,29,25,061,42,31,69,036,47,32,19,140,45*7D
###2023-12-09 13:00:38.987430$GLGSV,2,1,06,65,24,327,43,71,41,173,49,72,73,271,46,73,36,041,42*6A
###2023-12-09 13:00:38.989534$GLGSV,2,2,06,74,70,336,42,75,32,252,47,,,,,,,,*62
###2023-12-09 13:00:38.992358$GAGSV,1,1,04,04,29,312,42,19,84,219,41,21,86,122,46,27,33,048,41*6C
###2023-12-09 13:00:38.995157$GBGSV,2,1,05,14,43,193,44,24,74,024,47,25,41,262,45,26,26,063,41*61
###2023-12-09 13:00:38.996912$GBGSV,2,2,05,33,57,233,46,,,,,,,,,,,,*5C
###2023-12-09 13:00:38.998463$GNVTG,54.84,T,,M,3.19,N,5.90,K,A*19
###2023-12-09 13:00:39.000449$GNGST,180038.10,18.000,,,,0.079,0.066,0.160*54
###2023-12-09 13:00:39.002035$GNZDA,180038.10,09,12,2023,00,00*72
###2023-12-09 13:00:39.002815$GNEBP,,,,,,M*13
###2023-12-09 13:00:39.166286$GNGGA,180038.30,4138.0267064,N,07032.3008622,W,1,24,0.6,13.408,M,-29.744,M,0.0,*54
###2023-12-09 13:00:39.365165$GNGGA,180038.50,4138.0267891,N,07032.3006598,W,1,24,0.6,13.419,M,-29.744,M,0.0,*5C
###2023-12-09 13:00:39.565180$GNGGA,180038.70,4138.0268626,N,07032.3004464,W,1,24,0.6,13.455,M,-29.744,M,0.0,*5B
###2023-12-09 13:00:39.766667$GNGGA,180038.90,4138.0269500,N,07032.3002324,W,1,24,0.6,13.463,M,-29.744,M,0.0,*53
###2023-12-09 13:00:39.967125$GNRMC,180039.10,A,4138.0270417,N,07032.3000231,W,3.17,60.29,091223,,,A*6F
###2023-12-09 13:00:39.970555$GNGGA,180039.10,4138.0270417,N,07032.3000231,W,1,24,0.6,13.441,M,-29.744,M,0.0,*52
###2023-12-09 13:00:39.972804$GPGSA,A,3,03,04,16,26,28,29,31,32,,,,,1.1,0.6,0.9*3B
###2023-12-09 13:00:39.974881$GLGSA,A,3,65,71,72,73,74,75,,,,,,,1.1,0.6,0.9*24
###2023-12-09 13:00:39.976777$GAGSA,A,3,04,19,21,27,,,,,,,,,1.1,0.6,0.9*26
###2023-12-09 13:00:39.978771$GBGSA,A,3,14,24,25,26,33,,,,,,,,1.1,0.6,0.9*2F
###2023-12-09 13:00:39.981558$GPGSV,2,1,08,03,35,262,44,04,32,311,43,16,49,212,47,26,79,210,49*7C
###2023-12-09 13:00:39.984372$GPGSV,2,2,08,28,49,070,43,29,25,061,41,31,69,036,47,32,19,140,44*7F
###2023-12-09 13:00:39.987184$GLGSV,2,1,06,65,24,327,42,71,41,173,48,72,73,271,46,73,36,041,42*6A
###2023-12-09 13:00:39.989295$GLGSV,2,2,06,74,70,336,42,75,32,252,46,,,,,,,,*63
###2023-12-09 13:00:39.992102$GAGSV,1,1,04,04,29,312,42,19,84,219,41,21,86,122,46,27,33,048,41*6C
###2023-12-09 13:00:39.994947$GBGSV,2,1,05,14,43,193,46,24,74,024,49,25,41,262,45,26,26,063,43*6F
###2023-12-09 13:00:39.996696$GBGSV,2,2,05,33,57,233,48,,,,,,,,,,,,*52
###2023-12-09 13:00:39.998248$GNVTG,60.29,T,,M,3.17,N,5.87,K,A*11
###2023-12-09 13:00:40.000247$GNGST,180039.10,18.000,,,,0.079,0.066,0.160*55
###2023-12-09 13:00:40.001791$GNZDA,180039.10,09,12,2023,00,00*73
###2023-12-09 13:00:40.002558$GNEBP,,,,,,M*13
###2023-12-09 13:00:40.162275$GNGGA,180039.30,4138.0271294,N,07032.2998207,W,1,24,0.6,13.431,M,-29.744,M,0.0,*57
###2023-12-09 13:00:40.364174$GNGGA,180039.50,4138.0272274,N,07032.2996194,W,1,24,0.6,13.453,M,-29.744,M,0.0,*5F
###2023-12-09 13:00:40.565408$GNGGA,180039.70,4138.0273215,N,07032.2994117,W,1,24,0.6,13.466,M,-29.744,M,0.0,*54
###2023-12-09 13:00:40.763378$GNGGA,180039.90,4138.0274199,N,07032.2992101,W,1,24,0.6,13.477,M,-29.744,M,0.0,*5B
###2023-12-09 13:00:40.964088$GNRMC,180040.10,A,4138.0275420,N,07032.2990157,W,3.46,47.80,091223,,,A*60
###2023-12-09 13:00:40.967556$GNGGA,180040.10,4138.0275420,N,07032.2990157,W,1,24,0.6,13.486,M,-29.744,M,0.0,*54
###2023-12-09 13:00:40.969782$GPGSA,A,3,03,04,16,26,28,29,31,32,,,,,1.1,0.6,0.9*3B
###2023-12-09 13:00:40.971860$GLGSA,A,3,65,71,72,73,74,75,,,,,,,1.1,0.6,0.9*24
###2023-12-09 13:00:40.973767$GAGSA,A,3,04,19,21,27,,,,,,,,,1.1,0.6,0.9*26
###2023-12-09 13:00:40.975761$GBGSA,A,3,14,24,25,26,33,,,,,,,,1.1,0.6,0.9*2F
###2023-12-09 13:00:40.978548$GPGSV,2,1,08,03,35,262,44,04,32,311,45,16,49,212,47,26,79,210,49*7A
###2023-12-09 13:00:40.981374$GPGSV,2,2,08,28,49,070,44,29,25,061,42,31,69,036,46,32,19,140,43*7D
###2023-12-09 13:00:40.984186$GLGSV,2,1,06,65,24,327,43,71,41,173,47,72,73,271,46,73,36,041,42*64
###2023-12-09 13:00:40.986313$GLGSV,2,2,06,74,70,336,42,75,32,252,47,,,,,,,,*62
###2023-12-09 13:00:40.989124$GAGSV,1,1,04,04,29,312,43,19,84,219,41,21,86,122,46,27,33,048,42*6E
###2023-12-09 13:00:40.992223$GBGSV,2,1,05,14,43,193,44,24,74,024,48,25,41,262,45,26,26,063,41*6E
###2023-12-09 13:00:40.993991$GBGSV,2,2,05,33,57,233,47,,,,,,,,,,,,*5D
###2023-12-09 13:00:40.995556$GNVTG,47.80,T,,M,3.46,N,6.41,K,A*1A
###2023-12-09 13:00:40.997537$GNGST,180040.10,18.000,,,,0.078,0.066,0.160*5A
###2023-12-09 13:00:40.999110$GNZDA,180040.10,09,12,2023,00,00*7D
###2023-12-09 13:00:40.999887$GNEBP,,,,,,M*13
###2023-12-09 13:00:41.162266$GNGGA,180040.30,4138.0276600,N,07032.2988136,W,1,24,0.6,13.474,M,-29.744,M,0.0,*56
###2023-12-09 13:00:41.362261$GNGGA,180040.50,4138.0277542,N,07032.2985984,W,1,24,0.6,13.445,M,-29.744,M,0.0,*5A
###2023-12-09 13:00:41.563923$GNGGA,180040.70,4138.0278486,N,07032.2983875,W,1,24,0.6,13.439,M,-29.744,M,0.0,*5C
