###2023-12-09 13:12:35.989598$GBGSA,A,3,14,24,25,26,33,35,,,,,,,1.2,0.7,1.0*23
###2023-12-09 13:12:35.991981$GPGSV,2,1,07,03,33,256,44,04,37,311,44,16,55,215,48,26,85,210,48*77
###2023-12-09 13:12:35.994032$GPGSV,2,2,07,28,46,075,43,29,24,056,42,31,66,048,47,,,,*46
###2023-12-09 13:12:35.996389$GLGSV,2,1,06,65,28,326,42,71,35,174,45,72,72,250,46,73,31,045,44*69
###2023-12-09 13:12:35.998146$GLGSV,2,2,06,74,67,351,43,75,36,258,47,,,,,,,,*6A
###2023-12-09 13:12:36.000497$GAGSV,1,1,04,04,33,312,42,19,81,194,41,21,84,070,46,27,29,048,43*69
###2023-12-09 13:12:36.002849$GBGSV,2,1,06,14,38,192,44,24,70,034,48,25,44,267,47,26,22,065,42*66
###2023-12-09 13:12:36.004601$GBGSV,2,2,06,33,53,226,48,35,15,065,43,,,,,,,,*67
###2023-12-09 13:12:36.005895$GNVTG,94.56,T,,M,3.65,N,6.77,K,A*1B
###2023-12-09 13:12:36.007557$GNGST,181235.10,18.000,,,,0.097,0.070,0.170*5C
###2023-12-09 13:12:36.008850$GNZDA,181235.10,09,12,2023,00,00*7C
###2023-12-09 13:12:36.009489$GNEBP,,,,,,M*13
###2023-12-09 13:12:36.174178$GNGGA,181235.30,4138.0436997,N,07032.3014684,W,1,24,0.7,12.717,M,-29.743,M,0.0,*56
###2023-12-09 13:12:36.374212$GNGGA,181235.50,4138.0436839,N,07032.3011981,W,1,24,0.7,12.709,M,-29.743,M,0.0,*55
###2023-12-09 13:12:36.574111$GNGGA,181235.70,4138.0436717,N,07032.3009387,W,1,24,0.7,12.700,M,-29.743,M,0.0,*58
###2023-12-09 13:12:36.774638$GNGGA,181235.90,4138.0437053,N,07032.3006911,W,1,24,0.7,12.746,M,-29.743,M,0.0,*58
###2023-12-09 13:12:36.977241$GNRMC,181236.10,A,4138.0437118,N,07032.3004262,W,3.62,95.06,091223,,,A*6B
###2023-12-09 13:12:36.980734$GNGGA,181236.10,4138.0437118,N,07032.3004262,W,1,24,0.7,12.730,M,-29.743,M,0.0,*51
###2023-12-09 13:12:36.982915$GPGSA,A,3,03,04,16,26,28,29,31,,,,,,1.2,0.7,1.0*30
###2023-12-09 13:12:36.984990$GLGSA,A,3,65,71,72,73,74,75,,,,,,,1.2,0.7,1.0*2E
###2023-12-09 13:12:36.986917$GAGSA,A,3,04,19,21,27,,,,,,,,,1.2,0.7,1.0*2C
###2023-12-09 13:12:36.988994$GBGSA,A,3,14,24,25,26,33,35,,,,,,,1.2,0.7,1.0*23
###2023-12-09 13:12:36.991803$GPGSV,2,1,07,03,33,256,46,04,37,311,45,16,55,215,48,26,85,210,49*75
###2023-12-09 13:12:36.994258$GPGSV,2,2,07,28,46,075,42,29,24,056,40,31,66,048,47,,,,*45
###2023-12-09 13:12:36.997079$GLGSV,2,1,06,65,28,326,40,71,35,174,46,72,72,250,47,73,31,045,44*69
###2023-12-09 13:12:36.999205$GLGSV,2,2,06,74,67,351,42,75,36,258,47,,,,,,,,*6B
###2023-12-09 13:12:37.002015$GAGSV,1,1,04,04,33,312,43,19,81,194,41,21,84,070,46,27,29,048,42*69
###2023-12-09 13:12:37.004886$GBGSV,2,1,06,14,38,192,46,24,70,034,49,25,44,267,47,26,22,065,42*65
###2023-12-09 13:12:37.007023$GBGSV,2,2,06,33,53,226,49,35,15,065,42,,,,,,,,*67
###2023-12-09 13:12:37.008578$GNVTG,95.06,T,,M,3.62,N,6.70,K,A*1F
###2023-12-09 13:12:37.010584$GNGST,181236.10,18.000,,,,0.096,0.070,0.170*5E
###2023-12-09 13:12:37.012185$GNZDA,181236.10,09,12,2023,00,00*7F
###2023-12-09 13:12:37.012958$GNEBP,,,,,,M*13
###2023-12-09 13:12:37.175925$GNGGA,181236.30,4138.0437127,N,07032.3001745,W,1,24,0.7,12.678,M,-29.743,M,0.0,*57
###2023-12-09 13:12:37.375155$GNGGA,181236.50,4138.0437621,N,07032.2999386,W,1,24,0.7,12.721,M,-29.743,M,0.0,*5F
###2023-12-09 13:12:37.574745$GNGGA,181236.70,4138.0438093,N,07032.2996883,W,1,24,0.7,12.758,M,-29.743,M,0.0,*52
###2023-12-09 13:12:37.774627$GNGGA,181236.90,4138.0437934,N,07032.2994252,W,1,24,0.7,12.727,M,-29.743,M,0.0,*5B
###2023-12-09 13:12:37.977668$GNRMC,181237.10,A,4138.0437721,N,07032.2991809,W,3.25,88.35,091223,,,A*6A
###2023-12-09 13:12:37.981161$GNGGA,181237.10,4138.0437721,N,07032.2991809,W,1,24,0.7,12.705,M,-29.743,M,0.0,*59
###2023-12-09 13:12:37.983354$GPGSA,A,3,03,04,16,26,28,29,31,,,,,,1.2,0.7,1.0*30
###2023-12-09 13:12:37.985430$GLGSA,A,3,65,71,72,73,74,75,,,,,,,1.2,0.7,1.0*2E
###2023-12-09 13:12:37.987357$GAGSA,A,3,04,19,21,27,,,,,,,,,1.2,0.7,1.0*2C
###2023-12-09 13:12:37.989419$GBGSA,A,3,14,24,25,26,33,35,,,,,,,1.2,0.7,1.0*23
###2023-12-09 13:12:37.992247$GPGSV,2,1,07,03,33,256,44,04,37,311,43,16,55,215,49,26,85,210,48*71
###2023-12-09 13:12:37.994713$GPGSV,2,2,07,28,46,075,44,29,24,056,41,31,66,048,46,,,,*43
###2023-12-09 13:12:37.997552$GLGSV,2,1,06,65,29,325,38,71,35,174,46,72,72,250,47,73,31,045,43*63
###2023-12-09 13:12:37.999677$GLGSV,2,2,06,74,67,351,41,75,36,258,47,,,,,,,,*68
###2023-12-09 13:12:38.002488$GAGSV,1,1,04,04,33,312,39,19,81,194,41,21,84,070,45,27,29,048,41*64
###2023-12-09 13:12:38.005316$GBGSV,2,1,06,14,38,192,45,24,70,034,47,25,44,267,46,26,22,065,41*6A
###2023-12-09 13:12:38.007443$GBGSV,2,2,06,33,53,226,48,35,15,065,41,,,,,,,,*65
###2023-12-09 13:12:38.009004$GNVTG,88.35,T,,M,3.25,N,6.01,K,A*16
###2023-12-09 13:12:38.011006$GNGST,181237.10,18.000,,,,0.096,0.071,0.170*5E
###2023-12-09 13:12:38.012571$GNZDA,181237.10,09,12,2023,00,00*7E
###2023-12-09 13:12:38.013340$GNEBP,,,,,,M*13
###2023-12-09 13:12:38.174510$GNGGA,181237.30,4138.0438136,N,07032.2989303,W,1,24,0.7,12.745,M,-29.743,M,0.0,*58
###2023-12-09 13:12:38.373783$GNGGA,181237.50,4138.0438420,N,07032.2986745,W,1,24,0.7,12.727,M,-29.743,M,0.0,*51
###2023-12-09 13:12:38.574638$GNGGA,181237.70,4138.0438110,N,07032.2984099,W,1,24,0.7,12.745,M,-29.743,M,0.0,*55
###2023-12-09 13:12:38.774555$GNGGA,181237.90,4138.0437591,N,07032.2981475,W,1,24,0.7,12.719,M,-29.743,M,0.0,*53
###2023-12-09 13:12:38.977983$GNRMC,181238.10,A,4138.0437894,N,07032.2978947,W,3.73,70.01,091223,,,A*6B
###2023-12-09 13:12:38.981474$GNGGA,181238.10,4138.0437894,N,07032.2978947,W,1,24,0.7,12.745,M,-29.743,M,0.0,*5F
###2023-12-09 13:12:38.983645$GPGSA,A,3,03,04,16,26,28,29,31,,,,,,1.2,0.7,1.0*30
###2023-12-09 13:12:38.985712$GLGSA,A,3,65,71,72,73,74,75,,,,,,,1.2,0.7,1.0*2E
###2023-12-09 13:12:38.987638$GAGSA,A,3,04,19,21,27,,,,,,,,,1.2,0.7,1.0*2C
###2023-12-09 13:12:38.989744$GBGSA,A,3,14,24,25,26,33,35,,,,,,,1.2,0.7,1.0*23
###2023-12-09 13:12:38.992568$GPGSV,2,1,07,03,33,256,45,04,37,311,44,16,55,215,48,26,85,210,48*76
###2023-12-09 13:12:38.995030$GPGSV,2,2,07,28,46,075,42,29,24,056,41,31,66,048,47,,,,*44
###2023-12-09 13:12:38.997838$GLGSV,2,1,06,65,29,325,39,71,35,174,46,72,72,250,46,73,31,045,43*63
###2023-12-09 13:12:38.999963$GLGSV,2,2,06,74,67,351,41,75,36,258,47,,,,,,,,*68
###2023-12-09 13:12:39.002795$GAGSV,1,1,04,04,33,312,41,19,81,194,41,21,84,070,45,27,29,048,41*6B
###2023-12-09 13:12:39.005602$GBGSV,2,1,06,14,38,192,45,24,70,034,46,25,44,267,47,26,22,065,40*6B
###2023-12-09 13:12:39.007712$GBGSV,2,2,06,33,53,226,49,35,15,065,40,,,,,,,,*65
###2023-12-09 13:12:39.009271$GNVTG,70.01,T,,M,3.73,N,6.91,K,A*1C
###2023-12-09 13:12:39.011271$GNGST,181238.10,19.000,,,,0.097,0.071,0.170*51
###2023-12-09 13:12:39.012832$GNZDA,181238.10,09,12,2023,00,00*71
###2023-12-09 13:12:39.013600$GNEBP,,,,,,M*13
###2023-12-09 13:12:39.177070$GNGGA,181238.30,4138.0438384,N,07032.2976305,W,1,24,0.7,12.752,M,-29.743,M,0.0,*5C
###2023-12-09 13:12:39.373260$GNGGA,181238.50,4138.0438104,N,07032.2973608,W,1,24,0.7,12.734,M,-29.743,M,0.0,*5D
###2023-12-09 13:12:39.574888$GNGGA,181238.70,4138.0437651,N,07032.2970936,W,1,24,0.7,12.730,M,-29.743,M,0.0,*52
###2023-12-09 13:12:39.774951$GNGGA,181238.90,4138.0437937,N,07032.2968352,W,1,24,0.7,12.759,M,-29.743,M,0.0,*5D
###2023-12-09 13:12:39.975179$GNRMC,181239.10,A,4138.0438498,N,07032.2965778,W,3.71,80.91,091223,,,A*6F
###2023-12-09 13:12:39.978042$GNGGA,181239.10,4138.0438498,N,07032.2965778,W,1,24,0.7,12.766,M,-29.743,M,0.0,*5E
###2023-12-09 13:12:39.979853$GPGSA,A,3,03,04,16,26,28,29,31,,,,,,1.2,0.7,1.0*30
###2023-12-09 13:12:39.981574$GLGSA,A,3,65,71,72,73,74,75,,,,,,,1.2,0.7,1.0*2E
###2023-12-09 13:12:39.983173$GAGSA,A,3,04,19,21,27,,,,,,,,,1.2,0.7,1.0*2C
###2023-12-09 13:12:39.984891$GBGSA,A,3,14,24,25,26,33,35,,,,,,,1.2,0.7,1.0*23
###2023-12-09 13:12:39.987218$GPGSV,2,1,07,03,33,256,44,04,37,311,44,16,55,215,46,26,85,210,48*79
###2023-12-09 13:12:39.989250$GPGSV,2,2,07,28,46,075,42,29,24,056,40,31,66,048,46,,,,*44
###2023-12-09 13:12:39.991590$GLGSV,2,1,06,65,29,325,41,71,35,174,45,72,72,250,46,73,31,045,44*68
###2023-12-09 13:12:39.993337$GLGSV,2,2,06,74,67,351,43,75,36,258,48,,,,,,,,*65
###2023-12-09 13:12:39.995676$GAGSV,1,1,04,04,33,312,43,19,81,194,41,21,84,070,46,27,29,048,41*6A
###2023-12-09 13:12:39.998007$GBGSV,2,1,06,14,38,192,45,24,70,034,50,25,44,267,47,26,22,065,44*68
###2023-12-09 13:12:40.000009$GBGSV,2,2,06,33,53,226,48,35,15,065,44,,,,,,,,*60
###2023-12-09 13:12:40.001313$GNVTG,80.91,T,,M,3.71,N,6.88,K,A*10
###2023-12-09 13:12:40.002968$GNGST,181239.10,18.000,,,,0.097,0.071,0.170*51
###2023-12-09 13:12:40.004257$GNZDA,181239.10,09,12,2023,00,00*70
###2023-12-09 13:12:40.004897$GNEBP,,,,,,M*13
###2023-12-09 13:12:40.174715$GNGGA,181239.30,4138.0438542,N,07032.2963108,W,1,24,0.7,12.741,M,-29.743,M,0.0,*58
###2023-12-09 13:12:40.372160$GNGGA,181239.50,4138.0438507,N,07032.2960445,W,1,24,0.7,12.750,M,-29.743,M,0.0,*50
###2023-12-09 13:12:40.573875$GNGGA,181239.70,4138.0438849,N,07032.2957840,W,1,24,0.7,12.776,M,-29.743,M,0.0,*5C
###2023-12-09 13:12:40.772609$GNGGA,181239.90,4138.0439451,N,07032.2955371,W,1,24,0.7,12.787,M,-29.743,M,0.0,*53
