###2023-12-09 12:47:21.745942$GNGGA,174720.90,4138.0499361,N,07032.3992575,W,1,24,0.6,13.319,M,-29.745,M,0.0,*57
###2023-12-09 12:47:21.946320$GNRMC,174721.10,A,4138.0499607,N,07032.3992447,W,0.52,7.86,091223,,,A*5B
###2023-12-09 12:47:21.949206$GNGGA,174721.10,4138.0499607,N,07032.3992447,W,1,24,0.6,13.315,M,-29.745,M,0.0,*57
###2023-12-09 12:47:21.951091$GPGSA,A,3,03,04,16,26,28,29,31,32,,,,,1.1,0.6,0.9*3B
###2023-12-09 12:47:21.952809$GLGSA,A,3,65,71,72,73,74,75,,,,,,,1.1,0.6,0.9*24
###2023-12-09 12:47:21.954392$GAGSA,A,3,04,19,21,27,,,,,,,,,1.1,0.6,0.9*26
###2023-12-09 12:47:21.956053$GBGSA,A,3,14,24,25,26,33,,,,,,,,1.1,0.6,0.9*2F
###2023-12-09 12:47:21.958382$GPGSV,2,1,08,03,37,269,46,04,27,311,40,16,42,209,47,26,72,208,48*72
###2023-12-09 12:47:21.960727$GPGSV,2,2,08,28,54,062,45,29,26,068,42,31,72,018,48,32,25,137,41*7C
###2023-12-09 12:47:21.963069$GLGSV,2,1,06,65,17,329,40,71,49,171,47,72,70,294,47,73,42,037,46*6C
###2023-12-09 12:47:21.964828$GLGSV,2,2,06,74,71,314,42,75,27,246,44,,,,,,,,*61
###2023-12-09 12:47:21.967177$GAGSV,1,1,04,04,24,312,40,19,84,276,41,21,82,165,47,27,38,049,44*63
###2023-12-09 12:47:21.969511$GBGSV,2,1,05,14,50,195,46,24,78,008,49,25,36,257,46,26,31,060,43*69
###2023-12-09 12:47:21.970979$GBGSV,2,2,05,33,61,243,47,,,,,,,,,,,,*5F
###2023-12-09 12:47:21.972236$GNVTG,7.86,T,,M,0.52,N,0.97,K,A*23
###2023-12-09 12:47:21.973877$GNGST,174721.10,18.000,,,,0.079,0.070,0.160*57
###2023-12-09 12:47:21.975176$GNZDA,174721.10,09,12,2023,00,00*76
###2023-12-09 12:47:21.975813$GNEBP,,,,,,M*13
###2023-12-09 12:47:22.147316$GNGGA,174721.30,4138.0499797,N,07032.3992303,W,1,24,0.6,13.314,M,-29.745,M,0.0,*5B
###2023-12-09 12:47:22.346589$GNGGA,174721.50,4138.0499826,N,07032.3992146,W,1,24,0.6,13.325,M,-29.745,M,0.0,*59
###2023-12-09 12:47:22.546663$GNGGA,174721.70,4138.0499856,N,07032.3991969,W,1,24,0.6,13.327,M,-29.745,M,0.0,*58
###2023-12-09 12:47:22.748494$GNGGA,174721.90,4138.0500018,N,07032.3991830,W,1,24,0.6,13.317,M,-29.745,M,0.0,*5B
###2023-12-09 12:47:22.947276$GNRMC,174722.10,A,4138.0500263,N,07032.3991758,W,0.47,7.86,091223,,,A*55
###2023-12-09 12:47:22.950778$GNGGA,174722.10,4138.0500263,N,07032.3991758,W,1,24,0.6,13.314,M,-29.745,M,0.0,*5C
###2023-12-09 12:47:22.953023$GPGSA,A,3,03,04,16,26,28,29,31,32,,,,,1.1,0.6,0.9*3B
###2023-12-09 12:47:22.955115$GLGSA,A,3,65,71,72,73,74,75,,,,,,,1.1,0.6,0.9*24
###2023-12-09 12:47:22.957026$GAGSA,A,3,04,19,21,27,,,,,,,,,1.1,0.6,0.9*26
###2023-12-09 12:47:22.959037$GBGSA,A,3,14,24,25,26,33,,,,,,,,1.1,0.6,0.9*2F
###2023-12-09 12:47:22.961879$GPGSV,2,1,08,03,37,269,45,04,27,311,40,16,42,209,46,26,72,208,48*70
###2023-12-09 12:47:22.964713$GPGSV,2,2,08,28,54,062,45,29,26,068,41,31,72,018,47,32,25,137,40*71
###2023-12-09 12:47:22.967559$GLGSV,2,1,06,65,17,329,41,71,49,171,46,72,70,294,47,73,42,037,46*6C
###2023-12-09 12:47:22.969665$GLGSV,2,2,06,74,71,314,43,75,27,246,43,,,,,,,,*67
###2023-12-09 12:47:22.972488$GAGSV,1,1,04,04,24,312,41,19,84,276,40,21,82,165,46,27,38,049,44*62
###2023-12-09 12:47:22.975335$GBGSV,2,1,05,14,50,195,46,24,78,008,49,25,36,257,45,26,31,060,43*6A
###2023-12-09 12:47:22.977100$GBGSV,2,2,05,33,61,243,49,,,,,,,,,,,,*51
###2023-12-09 12:47:22.978633$GNVTG,7.86,T,,M,0.47,N,0.86,K,A*27
###2023-12-09 12:47:22.980634$GNGST,174722.10,18.000,,,,0.079,0.070,0.160*54
###2023-12-09 12:47:22.982198$GNZDA,174722.10,09,12,2023,00,00*75
###2023-12-09 12:47:22.982988$GNEBP,,,,,,M*13
###2023-12-09 12:47:23.146306$GNGGA,174722.30,4138.0500416,N,07032.3991639,W,1,24,0.6,13.313,M,-29.745,M,0.0,*5B
###2023-12-09 12:47:23.347171$GNGGA,174722.50,4138.0500454,N,07032.3991463,W,1,24,0.6,13.325,M,-29.745,M,0.0,*53
###2023-12-09 12:47:23.547198$GNGGA,174722.70,4138.0500485,N,07032.3991318,W,1,24,0.6,13.332,M,-29.745,M,0.0,*50
###2023-12-09 12:47:23.746038$GNGGA,174722.90,4138.0500638,N,07032.3991257,W,1,24,0.6,13.331,M,-29.745,M,0.0,*53
###2023-12-09 12:47:23.947110$GNRMC,174723.10,A,4138.0500847,N,07032.3991169,W,0.43,7.86,091223,,,A*58
###2023-12-09 12:47:23.950608$GNGGA,174723.10,4138.0500847,N,07032.3991169,W,1,24,0.6,13.328,M,-29.745,M,0.0,*5A
###2023-12-09 12:47:23.952891$GPGSA,A,3,03,04,16,26,28,29,31,32,,,,,1.1,0.6,0.9*3B
###2023-12-09 12:47:23.954985$GLGSA,A,3,65,71,72,73,74,75,,,,,,,1.1,0.6,0.9*24
###2023-12-09 12:47:23.956898$GAGSA,A,3,04,19,21,27,,,,,,,,,1.1,0.6,0.9*26
###2023-12-09 12:47:23.958892$GBGSA,A,3,14,24,25,26,33,,,,,,,,1.1,0.6,0.9*2F
###2023-12-09 12:47:23.961700$GPGSV,2,1,08,03,37,269,46,04,27,311,42,16,42,209,47,26,72,208,48*70
###2023-12-09 12:47:23.964570$GPGSV,2,2,08,28,54,062,45,29,26,068,40,31,72,018,47,32,25,137,41*71
###2023-12-09 12:47:23.967422$GLGSV,2,1,06,65,17,329,42,71,49,171,46,72,70,294,47,73,42,037,46*6F
###2023-12-09 12:47:23.969528$GLGSV,2,2,06,74,71,314,42,75,27,246,43,,,,,,,,*66
###2023-12-09 12:47:23.972360$GAGSV,1,1,04,04,24,312,41,19,84,276,41,21,82,165,47,27,38,049,45*63
###2023-12-09 12:47:23.975175$GBGSV,2,1,05,14,50,195,46,24,78,008,49,25,36,257,45,26,31,060,43*6A
###2023-12-09 12:47:23.976923$GBGSV,2,2,05,33,61,243,48,,,,,,,,,,,,*50
###2023-12-09 12:47:23.978435$GNVTG,7.86,T,,M,0.43,N,0.79,K,A*23
###2023-12-09 12:47:23.980439$GNGST,174723.10,18.000,,,,0.079,0.069,0.160*5D
###2023-12-09 12:47:23.981997$GNZDA,174723.10,09,12,2023,00,00*74
###2023-12-09 12:47:23.982774$GNEBP,,,,,,M*13
###2023-12-09 12:47:24.146871$GNGGA,174723.30,4138.0501002,N,07032.3991025,W,1,24,0.6,13.335,M,-29.745,M,0.0,*55
###2023-12-09 12:47:24.347356$GNGGA,174723.50,4138.0501012,N,07032.3990872,W,1,24,0.6,13.346,M,-29.745,M,0.0,*5D
###2023-12-09 12:47:24.547194$GNGGA,174723.70,4138.0501049,N,07032.3990778,W,1,24,0.6,13.356,M,-29.745,M,0.0,*55
###2023-12-09 12:47:24.747017$GNGGA,174723.90,4138.0501213,N,07032.3990697,W,1,24,0.6,13.356,M,-29.745,M,0.0,*56
###2023-12-09 12:47:24.947935$GNRMC,174724.10,A,4138.0501429,N,07032.3990558,W,0.45,7.86,091223,,,A*5B
###2023-12-09 12:47:24.951412$GNGGA,174724.10,4138.0501429,N,07032.3990558,W,1,24,0.6,13.352,M,-29.745,M,0.0,*52
###2023-12-09 12:47:24.953645$GPGSA,A,3,03,04,16,26,28,29,31,32,,,,,1.1,0.6,0.9*3B
###2023-12-09 12:47:24.955729$GLGSA,A,3,65,71,72,73,74,75,,,,,,,1.1,0.6,0.9*24
###2023-12-09 12:47:24.957642$GAGSA,A,3,04,19,21,27,,,,,,,,,1.1,0.6,0.9*26
###2023-12-09 12:47:24.959649$GBGSA,A,3,14,24,25,26,33,,,,,,,,1.1,0.6,0.9*2F
###2023-12-09 12:47:24.962439$GPGSV,2,1,08,03,37,269,47,04,27,311,40,16,42,209,47,26,72,208,48*73
###2023-12-09 12:47:24.965270$GPGSV,2,2,08,28,54,062,45,29,26,068,40,31,72,018,47,32,25,137,40*70
###2023-12-09 12:47:24.968098$GLGSV,2,1,06,65,17,329,42,71,49,171,46,72,70,294,48,73,42,037,46*60
###2023-12-09 12:47:24.970193$GLGSV,2,2,06,74,71,314,43,75,27,246,43,,,,,,,,*67
###2023-12-09 12:47:24.973020$GAGSV,1,1,04,04,24,312,41,19,84,276,40,21,82,165,46,27,38,049,45*63
###2023-12-09 12:47:24.975847$GBGSV,2,1,05,14,50,195,46,24,78,008,48,25,36,257,46,26,31,060,43*68
###2023-12-09 12:47:24.977643$GBGSV,2,2,05,33,61,243,48,,,,,,,,,,,,*50
###2023-12-09 12:47:24.979179$GNVTG,7.86,T,,M,0.45,N,0.83,K,A*20
###2023-12-09 12:47:24.981175$GNGST,174724.10,18.000,,,,0.078,0.069,0.160*5B
###2023-12-09 12:47:24.982746$GNZDA,174724.10,09,12,2023,00,00*73
###2023-12-09 12:47:24.983515$GNEBP,,,,,,M*13
###2023-12-09 12:47:25.146420$GNGGA,174724.30,4138.0501548,N,07032.3990429,W,1,24,0.6,13.354,M,-29.745,M,0.0,*57
###2023-12-09 12:47:25.353319$GNGGA,174724.50,4138.0501518,N,07032.3990345,W,1,24,0.6,13.359,M,-29.745,M,0.0,*54
###2023-12-09 12:47:25.549375$GNGGA,174724.70,4138.0501570,N,07032.3990290,W,1,24,0.6,13.359,M,-29.745,M,0.0,*51
###2023-12-09 12:47:25.746467$GNGGA,174724.90,4138.0501807,N,07032.3990198,W,1,24,0.6,13.353,M,-29.745,M,0.0,*53
###2023-12-09 12:47:25.948598$GNRMC,174725.10,A,4138.0502006,N,07032.3990081,W,0.25,7.86,091223,,,A*57
###2023-12-09 12:47:25.951482$GNGGA,174725.10,4138.0502006,N,07032.3990081,W,1,24,0.6,13.350,M,-29.745,M,0.0,*5A
###2023-12-09 12:47:25.953350$GPGSA,A,3,03,04,16,26,28,29,31,32,,,,,1.1,0.6,0.9*3B
###2023-12-09 12:47:25.955091$GLGSA,A,3,65,71,72,73,74,75,,,,,,,1.1,0.6,0.9*24
###2023-12-09 12:47:25.956687$GAGSA,A,3,04,19,21,27,,,,,,,,,1.1,0.6,0.9*26
###2023-12-09 12:47:25.958339$GBGSA,A,3,14,24,25,26,33,,,,,,,,1.1,0.6,0.9*2F
###2023-12-09 12:47:25.960936$GPGSV,2,1,08,03,37,269,47,04,27,311,42,16,42,209,46,26,72,208,48*70
###2023-12-09 12:47:25.963305$GPGSV,2,2,08,28,54,062,45,29,26,068,41,31,72,018,48,32,25,137,39*70
###2023-12-09 12:47:25.965658$GLGSV,2,1,06,65,17,329,41,71,49,171,46,72,70,294,47,73,42,037,46*6C
###2023-12-09 12:47:25.967433$GLGSV,2,2,06,74,71,314,43,75,27,246,44,,,,,,,,*60
###2023-12-09 12:47:25.969768$GAGSV,1,1,04,04,24,312,40,19,84,276,39,21,82,165,45,27,38,049,43*69
###2023-12-09 12:47:25.972115$GBGSV,2,1,05,14,50,195,45,24,78,008,48,25,36,257,45,26,31,060,43*68
###2023-12-09 12:47:25.973571$GBGSV,2,2,05,33,61,243,47,,,,,,,,,,,,*5F
###2023-12-09 12:47:25.974846$GNVTG,7.86,T,,M,0.25,N,0.47,K,A*2E
###2023-12-09 12:47:25.976500$GNGST,174725.10,18.000,,,,0.079,0.069,0.160*5B
