###2023-12-09 12:40:50.969907$GAGSV,1,1,04,04,23,311,43,19,83,292,40,21,80,172,45,27,39,049,42*69
###2023-12-09 12:40:50.972815$GBGSV,2,1,05,14,52,196,44,24,80,355,49,25,34,254,45,26,33,058,44*6A
###2023-12-09 12:40:50.974624$GBGSV,2,2,05,33,62,250,48,,,,,,,,,,,,*51
###2023-12-09 12:40:50.976208$GNVTG,65.03,T,,M,3.01,N,5.58,K,A*19
###2023-12-09 12:40:50.978218$GNGST,174050.10,18.000,,,,0.079,0.071,0.170*56
###2023-12-09 12:40:50.979810$GNZDA,174050.10,09,12,2023,00,00*77
###2023-12-09 12:40:50.980586$GNEBP,,,,,,M*13
###2023-12-09 12:40:51.143268$GNGGA,174050.30,4138.0564395,N,07032.3779063,W,1,23,0.7,13.613,M,-29.744,M,0.0,*54
###2023-12-09 12:40:51.342135$GNGGA,174050.50,4138.0565439,N,07032.3777367,W,1,23,0.7,13.633,M,-29.744,M,0.0,*59
###2023-12-09 12:40:51.549533$GNGGA,174050.70,4138.0566765,N,07032.3776082,W,1,23,0.7,13.647,M,-29.744,M,0.0,*58
###2023-12-09 12:40:51.745813$GNGGA,174050.90,4138.0567980,N,07032.3774672,W,1,23,0.7,13.630,M,-29.744,M,0.0,*59
###2023-12-09 12:40:51.945087$GNRMC,174051.10,A,4138.0569099,N,07032.3772958,W,3.11,49.45,091223,,,A*66
###2023-12-09 12:40:51.947954$GNGGA,174051.10,4138.0569099,N,07032.3772958,W,1,23,0.7,13.638,M,-29.744,M,0.0,*56
###2023-12-09 12:40:51.949824$GPGSA,A,3,03,04,16,26,28,29,31,32,,,,,1.2,0.7,1.0*31
###2023-12-09 12:40:51.951495$GLGSA,A,3,71,72,73,74,75,,,,,,,,1.2,0.7,1.0*2D
###2023-12-09 12:40:51.953078$GAGSA,A,3,04,19,21,27,,,,,,,,,1.2,0.7,1.0*2C
###2023-12-09 12:40:51.954737$GBGSA,A,3,14,24,25,26,33,,,,,,,,1.2,0.7,1.0*25
###2023-12-09 12:40:51.957102$GPGSV,2,1,08,03,38,274,44,04,24,311,43,16,39,208,45,26,69,207,48*79
###2023-12-09 12:40:51.959461$GPGSV,2,2,08,28,56,059,43,29,25,071,39,31,73,010,46,32,28,135,44*7A
###2023-12-09 12:40:51.961803$GLGSV,2,1,05,71,54,170,48,72,68,305,47,73,45,035,43,74,71,299,43*64
###2023-12-09 12:40:51.963274$GLGSV,2,2,05,75,24,243,46,,,,,,,,,,,,*53
###2023-12-09 12:40:51.965603$GAGSV,1,1,04,04,23,311,43,19,83,292,40,21,80,172,45,27,39,049,42*69
###2023-12-09 12:40:51.967959$GBGSV,2,1,05,14,52,196,45,24,80,355,48,25,34,254,42,26,33,058,43*6A
###2023-12-09 12:40:51.969418$GBGSV,2,2,05,33,62,250,49,,,,,,,,,,,,*50
###2023-12-09 12:40:51.970721$GNVTG,49.45,T,,M,3.11,N,5.76,K,A*18
###2023-12-09 12:40:51.972372$GNGST,174051.10,18.000,,,,0.079,0.071,0.170*57
###2023-12-09 12:40:51.973666$GNZDA,174051.10,09,12,2023,00,00*76
###2023-12-09 12:40:51.974306$GNEBP,,,,,,M*13
###2023-12-09 12:40:52.140672$GNGGA,174051.30,4138.0570294,N,07032.3771411,W,1,23,0.7,13.652,M,-29.744,M,0.0,*5C
###2023-12-09 12:40:52.346644$GNGGA,174051.50,4138.0571588,N,07032.3770258,W,1,23,0.7,13.652,M,-29.744,M,0.0,*5B
###2023-12-09 12:40:52.540613$GNGGA,174051.70,4138.0572906,N,07032.3769285,W,1,23,0.7,13.647,M,-29.744,M,0.0,*5C
###2023-12-09 12:40:52.740480$GNGGA,174051.90,4138.0574053,N,07032.3768038,W,1,23,0.7,13.656,M,-29.744,M,0.0,*58
###2023-12-09 12:40:52.941917$GNRMC,174052.10,A,4138.0575018,N,07032.3766690,W,2.43,44.57,091223,,,A*67
###2023-12-09 12:40:52.944809$GNGGA,174052.10,4138.0575018,N,07032.3766690,W,1,23,0.7,13.671,M,-29.744,M,0.0,*52
###2023-12-09 12:40:52.946714$GPGSA,A,3,03,04,16,26,28,29,31,32,,,,,1.2,0.7,1.0*31
###2023-12-09 12:40:52.948400$GLGSA,A,3,71,72,73,74,75,,,,,,,,1.2,0.7,1.0*2D
###2023-12-09 12:40:52.950001$GAGSA,A,3,04,19,21,27,,,,,,,,,1.2,0.7,1.0*2C
###2023-12-09 12:40:52.951683$GBGSA,A,3,14,24,25,26,33,,,,,,,,1.2,0.7,1.0*25
###2023-12-09 12:40:52.954032$GPGSV,2,1,08,03,38,274,44,04,24,311,42,16,39,208,45,26,69,207,48*78
###2023-12-09 12:40:52.956407$GPGSV,2,2,08,28,56,059,44,29,25,071,38,31,73,010,47,32,28,135,44*7D
###2023-12-09 12:40:52.958783$GLGSV,2,1,05,71,54,170,49,72,68,305,47,73,45,035,45,74,71,299,43*63
###2023-12-09 12:40:52.960245$GLGSV,2,2,05,75,24,243,45,,,,,,,,,,,,*50
###2023-12-09 12:40:52.962596$GAGSV,1,1,04,04,23,311,43,19,83,292,40,21,80,172,46,27,39,049,42*6A
###2023-12-09 12:40:52.964941$GBGSV,2,1,05,14,52,196,45,24,80,355,48,25,34,254,43,26,33,058,43*6B
###2023-12-09 12:40:52.966403$GBGSV,2,2,05,33,62,250,48,,,,,,,,,,,,*51
###2023-12-09 12:40:52.967711$GNVTG,44.57,T,,M,2.43,N,4.50,K,A*15
###2023-12-09 12:40:52.969370$GNGST,174052.10,19.000,,,,0.079,0.071,0.170*55
###2023-12-09 12:40:52.970678$GNZDA,174052.10,09,12,2023,00,00*75
###2023-12-09 12:40:52.971322$GNEBP,,,,,,M*13
###2023-12-09 12:40:53.140649$GNGGA,174052.30,4138.0576056,N,07032.3765542,W,1,23,0.7,13.671,M,-29.744,M,0.0,*56
###2023-12-09 12:40:53.342291$GNGGA,174052.50,4138.0577151,N,07032.3764658,W,1,23,0.7,13.670,M,-29.744,M,0.0,*5F
###2023-12-09 12:40:53.542759$GNGGA,174052.70,4138.0578134,N,07032.3763623,W,1,23,0.7,13.666,M,-29.744,M,0.0,*5D
###2023-12-09 12:40:53.741504$GNGGA,174052.90,4138.0578987,N,07032.3762426,W,1,23,0.7,13.670,M,-29.744,M,0.0,*52
###2023-12-09 12:40:53.942691$GNRMC,174053.10,A,4138.0579931,N,07032.3761490,W,2.14,24.47,091223,,,A*68
###2023-12-09 12:40:53.945562$GNGGA,174053.10,4138.0579931,N,07032.3761490,W,1,23,0.7,13.686,M,-29.744,M,0.0,*50
###2023-12-09 12:40:53.947451$GPGSA,A,3,03,04,16,26,28,29,31,32,,,,,1.2,0.7,1.0*31
###2023-12-09 12:40:53.949124$GLGSA,A,3,71,72,73,74,75,,,,,,,,1.2,0.7,1.0*2D
###2023-12-09 12:40:53.950728$GAGSA,A,3,04,19,21,27,,,,,,,,,1.2,0.7,1.0*2C
###2023-12-09 12:40:53.952370$GBGSA,A,3,14,24,25,26,33,,,,,,,,1.2,0.7,1.0*25
###2023-12-09 12:40:53.954717$GPGSV,2,1,08,03,38,274,44,04,24,311,42,16,39,208,46,26,69,207,48*7B
###2023-12-09 12:40:53.957055$GPGSV,2,2,08,28,56,059,44,29,25,071,39,31,73,010,47,32,28,135,44*7C
###2023-12-09 12:40:53.959399$GLGSV,2,1,05,71,54,170,48,72,68,305,46,73,45,035,43,74,71,299,43*65
###2023-12-09 12:40:53.960857$GLGSV,2,2,05,75,24,243,45,,,,,,,,,,,,*50
###2023-12-09 12:40:53.963199$GAGSV,1,1,04,04,23,311,43,19,83,292,41,21,80,172,46,27,39,049,41*68
###2023-12-09 12:40:53.965534$GBGSV,2,1,05,14,52,196,46,24,79,359,48,25,34,254,44,26,33,058,44*62
###2023-12-09 12:40:53.967018$GBGSV,2,2,05,33,62,250,48,,,,,,,,,,,,*51
###2023-12-09 12:40:53.968313$GNVTG,24.47,T,,M,2.14,N,3.96,K,A*1D
###2023-12-09 12:40:53.969969$GNGST,174053.10,18.000,,,,0.079,0.071,0.170*55
###2023-12-09 12:40:53.971275$GNZDA,174053.10,09,12,2023,00,00*74
###2023-12-09 12:40:53.971914$GNEBP,,,,,,M*13
###2023-12-09 12:40:54.141804$GNGGA,174053.30,4138.0580950,N,07032.3760744,W,1,23,0.7,13.691,M,-29.744,M,0.0,*5E
###2023-12-09 12:40:54.342385$GNGGA,174053.50,4138.0581837,N,07032.3759778,W,1,23,0.7,13.679,M,-29.744,M,0.0,*5A
###2023-12-09 12:40:54.545455$GNGGA,174053.70,4138.0582687,N,07032.3758783,W,1,23,0.7,13.672,M,-29.744,M,0.0,*50
###2023-12-09 12:40:54.741780$GNGGA,174053.90,4138.0583554,N,07032.3757953,W,1,23,0.7,13.672,M,-29.744,M,0.0,*5E
###2023-12-09 12:40:54.942282$GNRMC,174054.10,A,4138.0584385,N,07032.3757211,W,1.81,34.09,091223,,,A*66
###2023-12-09 12:40:54.945140$GNGGA,174054.10,4138.0584385,N,07032.3757211,W,1,23,0.7,13.669,M,-29.744,M,0.0,*5B
###2023-12-09 12:40:54.947016$GPGSA,A,3,03,04,16,26,28,29,31,32,,,,,1.2,0.7,1.0*31
###2023-12-09 12:40:54.948676$GLGSA,A,3,71,72,73,74,75,,,,,,,,1.2,0.7,1.0*2D
###2023-12-09 12:40:54.950256$GAGSA,A,3,04,19,21,27,,,,,,,,,1.2,0.7,1.0*2C
###2023-12-09 12:40:54.951918$GBGSA,A,3,14,24,25,26,33,,,,,,,,1.2,0.7,1.0*25
###2023-12-09 12:40:54.954240$GPGSV,2,1,08,03,38,274,47,04,24,311,44,16,39,208,47,26,69,207,51*77
###2023-12-09 12:40:54.956581$GPGSV,2,2,08,28,56,059,45,29,25,071,42,31,73,010,49,32,28,135,46*7D
###2023-12-09 12:40:54.958916$GLGSV,2,1,05,71,54,170,48,72,68,305,46,73,45,035,44,74,71,299,43*62
###2023-12-09 12:40:54.960363$GLGSV,2,2,05,75,24,243,45,,,,,,,,,,,,*50
###2023-12-09 12:40:54.962694$GAGSV,1,1,04,04,23,311,44,19,83,292,42,21,80,172,48,27,39,049,43*60
###2023-12-09 12:40:54.965056$GBGSV,2,1,05,14,52,196,44,24,79,359,48,25,34,255,44,26,33,058,44*61
###2023-12-09 12:40:54.966512$GBGSV,2,2,05,33,62,250,47,,,,,,,,,,,,*5E
###2023-12-09 12:40:54.967821$GNVTG,34.09,T,,M,1.81,N,3.35,K,A*10
###2023-12-09 12:40:54.969468$GNGST,174054.10,19.000,,,,0.078,0.071,0.160*53
###2023-12-09 12:40:54.970771$GNZDA,174054.10,09,12,2023,00,00*73
###2023-12-09 12:40:54.971408$GNEBP,,,,,,M*13
###2023-12-09 12:40:55.143835$GNGGA,174054.30,4138.0585224,N,07032.3756386,W,1,23,0.7,13.675,M,-29.744,M,0.0,*51
###2023-12-09 12:40:55.343674$GNGGA,174054.50,4138.0585990,N,07032.3755516,W,1,23,0.7,13.670,M,-29.744,M,0.0,*5A
###2023-12-09 12:40:55.542813$GNGGA,174054.70,4138.0586668,N,07032.3754687,W,1,23,0.7,13.654,M,-29.744,M,0.0,*5F
###2023-12-09 12:40:55.741910$GNGGA,174054.90,4138.0587422,N,07032.3753945,W,1,23,0.7,13.644,M,-29.744,M,0.0,*5B
###2023-12-09 12:40:55.942380$GNRMC,174055.10,A,4138.0588238,N,07032.3753264,W,1.77,30.94,091223,,,A*63
###2023-12-09 12:40:55.945259$GNGGA,174055.10,4138.0588238,N,07032.3753264,W,1,23,0.7,13.643,M,-29.744,M,0.0,*5F
###2023-12-09 12:40:55.947159$GPGSA,A,3,03,04,16,26,28,29,31,32,,,,,1.2,0.7,1.0*31
###2023-12-09 12:40:55.948840$GLGSA,A,3,71,72,73,74,75,,,,,,,,1.2,0.7,1.0*2D
###2023-12-09 12:40:55.950429$GAGSA,A,3,04,19,21,27,,,,,,,,,1.2,0.7,1.0*2C
