###2023-12-09 13:25:22.587674$GNGGA,182521.70,4138.0261607,N,07032.3459577,W,1,24,0.6,13.305,M,-29.745,M,0.0,*52
###2023-12-09 13:25:22.789424$GNGGA,182521.90,4138.0260187,N,07032.3457719,W,1,24,0.6,13.309,M,-29.745,M,0.0,*5A
###2023-12-09 13:25:22.993943$GNRMC,182522.10,A,4138.0258824,N,07032.3455846,W,3.52,131.93,091223,,,A*5F
###2023-12-09 13:25:22.996835$GNGGA,182522.10,4138.0258824,N,07032.3455846,W,1,24,0.6,13.313,M,-29.745,M,0.0,*56
###2023-12-09 13:25:22.998644$GPGSA,A,3,03,04,16,26,28,29,31,,,,,,1.1,0.6,0.9*3A
###2023-12-09 13:25:23.000363$GLGSA,A,3,65,71,72,73,74,75,,,,,,,1.1,0.6,0.9*24
###2023-12-09 13:25:23.001944$GAGSA,A,3,04,19,21,27,,,,,,,,,1.1,0.6,0.9*26
###2023-12-09 13:25:23.003673$GBGSA,A,3,14,24,25,26,33,35,,,,,,,1.1,0.6,0.9*29
###2023-12-09 13:25:23.005999$GPGSV,2,1,07,03,29,250,43,04,43,309,44,16,62,219,47,26,89,050,48*7A
###2023-12-09 13:25:23.008055$GPGSV,2,2,07,28,41,080,44,29,22,051,43,31,63,058,47,,,,*48
###2023-12-09 13:25:23.010378$GLGSV,2,1,06,65,34,322,42,71,27,175,43,72,67,229,47,73,26,049,43*62
###2023-12-09 13:25:23.012135$GLGSV,2,2,06,74,63,006,43,75,40,266,46,,,,,,,,*62
###2023-12-09 13:25:23.014461$GAGSV,1,1,04,04,37,311,44,19,76,185,41,21,80,051,47,27,26,049,42*69
###2023-12-09 13:25:23.016806$GBGSV,2,1,06,14,33,190,41,24,66,041,49,25,48,272,46,26,19,068,44*64
###2023-12-09 13:25:23.018551$GBGSV,2,2,06,33,49,220,47,35,16,060,44,,,,,,,,*64
###2023-12-09 13:25:23.019890$GNVTG,131.93,T,,M,3.52,N,6.52,K,A*2F
###2023-12-09 13:25:23.021541$GNGST,182522.10,18.000,,,,0.099,0.068,0.160*58
###2023-12-09 13:25:23.022855$GNZDA,182522.10,09,12,2023,00,00*7E
###2023-12-09 13:25:23.023495$GNEBP,,,,,,M*13
###2023-12-09 13:25:23.188789$GNGGA,182522.30,4138.0257606,N,07032.3453846,W,1,24,0.6,13.314,M,-29.745,M,0.0,*54
###2023-12-09 13:25:23.388919$GNGGA,182522.50,4138.0256406,N,07032.3451717,W,1,24,0.6,13.322,M,-29.745,M,0.0,*5D
###2023-12-09 13:25:23.592683$GNGGA,182522.70,4138.0255313,N,07032.3449620,W,1,24,0.6,13.314,M,-29.745,M,0.0,*56
###2023-12-09 13:25:23.789185$GNGGA,182522.90,4138.0254283,N,07032.3447350,W,1,24,0.6,13.331,M,-29.745,M,0.0,*5A
###2023-12-09 13:25:23.993185$GNRMC,182523.10,A,4138.0253269,N,07032.3445134,W,3.36,116.51,091223,,,A*52
###2023-12-09 13:25:23.996078$GNGGA,182523.10,4138.0253269,N,07032.3445134,W,1,24,0.6,13.312,M,-29.745,M,0.0,*53
###2023-12-09 13:25:23.997877$GPGSA,A,3,03,04,16,26,28,29,31,,,,,,1.1,0.6,0.9*3A
###2023-12-09 13:25:23.999608$GLGSA,A,3,65,71,72,73,74,75,,,,,,,1.1,0.6,0.9*24
###2023-12-09 13:25:24.001195$GAGSA,A,3,04,19,21,27,,,,,,,,,1.1,0.6,0.9*26
###2023-12-09 13:25:24.002916$GBGSA,A,3,14,24,25,26,33,35,,,,,,,1.1,0.6,0.9*29
###2023-12-09 13:25:24.005244$GPGSV,2,1,07,03,29,250,42,04,43,309,44,16,62,219,47,26,89,050,48*7B
###2023-12-09 13:25:24.007297$GPGSV,2,2,07,28,41,080,44,29,22,051,42,31,63,058,46,,,,*48
###2023-12-09 13:25:24.009613$GLGSV,2,1,06,65,34,322,42,71,27,175,44,72,67,229,46,73,26,049,43*64
###2023-12-09 13:25:24.011364$GLGSV,2,2,06,74,63,006,43,75,40,266,46,,,,,,,,*62
###2023-12-09 13:25:24.013677$GAGSV,1,1,04,04,37,311,42,19,76,185,41,21,80,051,46,27,26,049,41*6D
###2023-12-09 13:25:24.016011$GBGSV,2,1,06,14,33,190,44,24,66,041,49,25,48,272,47,26,19,068,44*60
###2023-12-09 13:25:24.017756$GBGSV,2,2,06,33,49,220,50,35,16,060,43,,,,,,,,*65
###2023-12-09 13:25:24.019086$GNVTG,116.51,T,,M,3.36,N,6.23,K,A*20
###2023-12-09 13:25:24.020728$GNGST,182523.10,18.000,,,,0.098,0.068,0.160*58
###2023-12-09 13:25:24.022017$GNZDA,182523.10,09,12,2023,00,00*7F
###2023-12-09 13:25:24.022666$GNEBP,,,,,,M*13
###2023-12-09 13:25:24.190175$GNGGA,182523.30,4138.0252554,N,07032.3442781,W,1,24,0.6,13.321,M,-29.745,M,0.0,*56
###2023-12-09 13:25:24.387473$GNGGA,182523.50,4138.0251736,N,07032.3440348,W,1,24,0.6,13.315,M,-29.745,M,0.0,*51
###2023-12-09 13:25:24.587973$GNGGA,182523.70,4138.0251136,N,07032.3438056,W,1,24,0.6,13.310,M,-29.745,M,0.0,*53
###2023-12-09 13:25:24.790535$GNGGA,182523.90,4138.0250676,N,07032.3435530,W,1,24,0.6,13.328,M,-29.745,M,0.0,*5C
###2023-12-09 13:25:24.996077$GNRMC,182524.10,A,4138.0250189,N,07032.3433105,W,3.21,97.66,091223,,,A*62
###2023-12-09 13:25:24.998950$GNGGA,182524.10,4138.0250189,N,07032.3433105,W,1,24,0.6,13.306,M,-29.745,M,0.0,*5C
###2023-12-09 13:25:25.000750$GPGSA,A,3,03,04,16,26,28,29,31,,,,,,1.1,0.6,0.9*3A
###2023-12-09 13:25:25.002464$GLGSA,A,3,65,71,72,73,74,75,,,,,,,1.1,0.6,0.9*24
###2023-12-09 13:25:25.004064$GAGSA,A,3,04,19,21,27,,,,,,,,,1.1,0.6,0.9*26
###2023-12-09 13:25:25.005774$GBGSA,A,3,14,24,25,26,33,35,,,,,,,1.1,0.6,0.9*29
###2023-12-09 13:25:25.008118$GPGSV,2,1,07,03,29,250,43,04,43,309,45,16,62,219,47,26,89,050,48*7B
###2023-12-09 13:25:25.010158$GPGSV,2,2,07,28,41,080,42,29,22,051,43,31,63,058,45,,,,*4C
###2023-12-09 13:25:25.012503$GLGSV,2,1,06,65,34,322,43,71,27,175,45,72,67,229,46,73,26,049,43*64
###2023-12-09 13:25:25.014256$GLGSV,2,2,06,74,63,006,43,75,40,266,47,,,,,,,,*63
###2023-12-09 13:25:25.016602$GAGSV,1,1,04,04,37,311,44,19,76,185,41,21,80,051,46,27,26,049,41*6B
###2023-12-09 13:25:25.018940$GBGSV,2,1,06,14,33,190,43,24,66,041,49,25,48,272,47,26,19,068,42*61
###2023-12-09 13:25:25.020687$GBGSV,2,2,06,33,49,220,48,35,16,060,43,,,,,,,,*6C
###2023-12-09 13:25:25.021980$GNVTG,97.66,T,,M,3.21,N,5.94,K,A*15
###2023-12-09 13:25:25.023638$GNGST,182524.10,18.000,,,,0.098,0.068,0.160*5F
###2023-12-09 13:25:25.024938$GNZDA,182524.10,09,12,2023,00,00*78
###2023-12-09 13:25:25.025577$GNEBP,,,,,,M*13
###2023-12-09 13:25:25.192770$GNGGA,182524.30,4138.0250008,N,07032.3430653,W,1,24,0.6,13.325,M,-29.745,M,0.0,*50
###2023-12-09 13:25:25.388325$GNGGA,182524.50,4138.0249605,N,07032.3428026,W,1,24,0.6,13.313,M,-29.745,M,0.0,*5D
###2023-12-09 13:25:25.592074$GNGGA,182524.70,4138.0249542,N,07032.3425598,W,1,24,0.6,13.302,M,-29.745,M,0.0,*52
###2023-12-09 13:25:25.789368$GNGGA,182524.90,4138.0249689,N,07032.3423013,W,1,24,0.6,13.321,M,-29.745,M,0.0,*59
###2023-12-09 13:25:25.992754$GNRMC,182525.10,A,4138.0249676,N,07032.3420484,W,3.23,84.04,091223,,,A*66
###2023-12-09 13:25:25.995637$GNGGA,182525.10,4138.0249676,N,07032.3420484,W,1,24,0.6,13.304,M,-29.745,M,0.0,*5E
###2023-12-09 13:25:25.997425$GPGSA,A,3,03,04,16,26,28,29,31,,,,,,1.1,0.6,0.9*3A
###2023-12-09 13:25:25.999154$GLGSA,A,3,65,71,72,73,74,75,,,,,,,1.1,0.6,0.9*24
###2023-12-09 13:25:26.000739$GAGSA,A,3,04,19,21,27,,,,,,,,,1.1,0.6,0.9*26
###2023-12-09 13:25:26.002450$GBGSA,A,3,14,24,25,26,33,35,,,,,,,1.1,0.6,0.9*29
###2023-12-09 13:25:26.004806$GPGSV,2,1,07,03,29,250,44,04,43,309,45,16,62,219,46,26,89,050,48*7D
###2023-12-09 13:25:26.006901$GPGSV,2,2,07,28,41,080,41,29,22,051,40,31,63,058,45,,,,*4C
###2023-12-09 13:25:26.009251$GLGSV,2,1,06,65,34,322,43,71,27,175,44,72,67,229,46,73,26,049,41*67
###2023-12-09 13:25:26.011016$GLGSV,2,2,06,74,63,006,42,75,40,266,47,,,,,,,,*62
###2023-12-09 13:25:26.013346$GAGSV,1,1,04,04,37,311,44,19,76,185,41,21,80,051,46,27,26,049,40*6A
###2023-12-09 13:25:26.015690$GBGSV,2,1,06,14,33,190,43,24,66,041,48,25,48,272,47,26,19,068,42*60
###2023-12-09 13:25:26.017434$GBGSV,2,2,06,33,49,220,47,35,16,060,42,,,,,,,,*62
###2023-12-09 13:25:26.018733$GNVTG,84.04,T,,M,3.23,N,5.98,K,A*1D
###2023-12-09 13:25:26.020384$GNGST,182525.10,18.000,,,,0.098,0.069,0.160*5F
###2023-12-09 13:25:26.021675$GNZDA,182525.10,09,12,2023,00,00*79
###2023-12-09 13:25:26.022311$GNEBP,,,,,,M*13
###2023-12-09 13:25:26.195999$GNGGA,182525.30,4138.0250015,N,07032.3418109,W,1,24,0.6,13.317,M,-29.745,M,0.0,*5E
###2023-12-09 13:25:26.390369$GNGGA,182525.50,4138.0250243,N,07032.3415479,W,1,24,0.6,13.311,M,-29.745,M,0.0,*50
###2023-12-09 13:25:26.589561$GNGGA,182525.70,4138.0250646,N,07032.3413128,W,1,24,0.6,13.287,M,-29.745,M,0.0,*5A
###2023-12-09 13:25:26.789211$GNGGA,182525.90,4138.0251293,N,07032.3410966,W,1,24,0.6,13.314,M,-29.745,M,0.0,*53
###2023-12-09 13:25:26.994912$GNRMC,182526.10,A,4138.0251830,N,07032.3408562,W,3.48,72.67,091223,,,A*62
###2023-12-09 13:25:26.997766$GNGGA,182526.10,4138.0251830,N,07032.3408562,W,1,24,0.6,13.316,M,-29.745,M,0.0,*58
###2023-12-09 13:25:26.999567$GPGSA,A,3,03,04,16,26,28,29,31,,,,,,1.1,0.6,0.9*3A
###2023-12-09 13:25:27.001281$GLGSA,A,3,65,71,72,73,74,75,,,,,,,1.1,0.6,0.9*24
###2023-12-09 13:25:27.003118$GAGSA,A,3,04,19,21,27,,,,,,,,,1.1,0.6,0.9*26
###2023-12-09 13:25:27.004842$GBGSA,A,3,14,24,25,26,33,35,,,,,,,1.1,0.6,0.9*29
###2023-12-09 13:25:27.007183$GPGSV,2,1,07,03,29,250,44,04,43,309,46,16,62,219,47,26,88,044,49*7A
###2023-12-09 13:25:27.009220$GPGSV,2,2,07,28,41,080,43,29,22,051,41,31,63,058,46,,,,*4C
###2023-12-09 13:25:27.011549$GLGSV,2,1,06,65,34,322,44,71,27,175,43,72,67,229,46,73,26,049,41*67
###2023-12-09 13:25:27.013293$GLGSV,2,2,06,74,63,006,42,75,40,266,46,,,,,,,,*63
###2023-12-09 13:25:27.015621$GAGSV,1,1,04,04,37,311,44,19,76,185,41,21,80,051,46,27,26,049,40*6A
###2023-12-09 13:25:27.017945$GBGSV,2,1,06,14,33,190,43,24,66,041,48,25,48,272,47,26,19,068,41*63
###2023-12-09 13:25:27.019698$GBGSV,2,2,06,33,49,220,47,35,16,060,42,,,,,,,,*62
###2023-12-09 13:25:27.021000$GNVTG,72.67,T,,M,3.48,N,6.44,K,A*1E
