###2023-12-09 13:46:04.015939$GBGSA,A,3,12,24,25,33,35,,,,,,,,1.3,0.7,1.1*21
###2023-12-09 13:46:04.018292$GPGSV,2,1,06,04,51,304,47,16,72,228,43,26,78,041,40,28,34,089,46*71
###2023-12-09 13:46:04.020067$GPGSV,2,2,06,29,18,043,44,31,56,073,49,,,,,,,,*72
###2023-12-09 13:46:04.022400$GLGSV,2,1,06,65,42,313,45,72,57,214,38,73,18,056,41,74,56,022,38*6E
###2023-12-09 13:46:04.024169$GLGSV,2,2,06,75,47,279,46,83,16,042,37,,,,,,,,*62
###2023-12-09 13:46:04.026207$GAGSV,1,1,03,04,43,308,44,21,72,043,39,27,19,051,42,,,,*57
###2023-12-09 13:46:04.028570$GBGSV,2,1,05,12,19,123,42,24,59,051,47,25,54,281,39,33,41,214,39*62
###2023-12-09 13:46:04.030026$GBGSV,2,2,05,35,16,052,38,,,,,,,,,,,,*53
###2023-12-09 13:46:04.031359$GNVTG,243.17,T,,M,0.04,N,0.07,K,A*23
###2023-12-09 13:46:04.032971$GNGST,184603.10,6.700,,,,0.190,0.120,0.320*65
###2023-12-09 13:46:04.034259$GNZDA,184603.10,09,12,2023,00,00*78
###2023-12-09 13:46:04.034908$GNEBP,,,,,,M*13
###2023-12-09 13:46:04.204014$GNGGA,184603.30,4138.0394003,N,07032.4388831,W,1,20,0.7,14.980,M,-29.746,M,0.0,*5F
###2023-12-09 13:46:04.404223$GNGGA,184603.50,4138.0394025,N,07032.4388819,W,1,20,0.7,14.990,M,-29.746,M,0.0,*56
###2023-12-09 13:46:04.600690$GNGGA,184603.70,4138.0394053,N,07032.4388810,W,1,20,0.7,14.997,M,-29.746,M,0.0,*5B
###2023-12-09 13:46:04.800854$GNGGA,184603.90,4138.0394066,N,07032.4388798,W,1,20,0.7,15.000,M,-29.746,M,0.0,*5A
###2023-12-09 13:46:05.003278$GNRMC,184604.10,A,4138.0394084,N,07032.4388801,W,0.08,243.17,091223,,,A*58
###2023-12-09 13:46:05.006148$GNGGA,184604.10,4138.0394084,N,07032.4388801,W,1,20,0.7,15.005,M,-29.746,M,0.0,*53
###2023-12-09 13:46:05.007899$GPGSA,A,3,04,16,26,28,29,31,,,,,,,1.3,0.7,1.1*33
###2023-12-09 13:46:05.009620$GLGSA,A,3,65,72,73,74,75,83,,,,,,,1.3,0.7,1.1*23
###2023-12-09 13:46:05.011149$GAGSA,A,3,04,21,27,,,,,,,,,,1.3,0.7,1.1*24
###2023-12-09 13:46:05.012803$GBGSA,A,3,12,24,25,33,35,,,,,,,,1.3,0.7,1.1*21
###2023-12-09 13:46:05.015141$GPGSV,2,1,06,04,51,304,47,16,72,228,43,26,78,041,39,28,34,089,46*7F
###2023-12-09 13:46:05.016892$GPGSV,2,2,06,29,18,043,43,31,56,073,49,,,,,,,,*75
###2023-12-09 13:46:05.019222$GLGSV,2,1,06,65,42,313,45,72,57,214,38,73,18,056,41,74,56,022,37*61
###2023-12-09 13:46:05.020967$GLGSV,2,2,06,75,47,279,46,83,16,042,37,,,,,,,,*62
###2023-12-09 13:46:05.023009$GAGSV,1,1,03,04,43,308,45,21,72,043,39,27,19,051,42,,,,*56
###2023-12-09 13:46:05.025336$GBGSV,2,1,05,12,19,123,42,24,59,051,47,25,54,281,39,33,41,214,39*62
###2023-12-09 13:46:05.026799$GBGSV,2,2,05,35,16,052,39,,,,,,,,,,,,*52
###2023-12-09 13:46:05.028121$GNVTG,243.17,T,,M,0.08,N,0.14,K,A*2D
###2023-12-09 13:46:05.029737$GNGST,184604.10,6.500,,,,0.190,0.120,0.320*60
###2023-12-09 13:46:05.031037$GNZDA,184604.10,09,12,2023,00,00*7F
###2023-12-09 13:46:05.031677$GNEBP,,,,,,M*13
###2023-12-09 13:46:05.201375$GNGGA,184604.30,4138.0394120,N,07032.4388787,W,1,20,0.7,15.015,M,-29.746,M,0.0,*5E
###2023-12-09 13:46:05.400818$GNGGA,184604.50,4138.0394134,N,07032.4388783,W,1,20,0.7,15.020,M,-29.746,M,0.0,*5F
###2023-12-09 13:46:05.601303$GNGGA,184604.70,4138.0394170,N,07032.4388766,W,1,20,0.7,15.033,M,-29.746,M,0.0,*54
###2023-12-09 13:46:05.802251$GNGGA,184604.90,4138.0394201,N,07032.4388760,W,1,20,0.7,15.041,M,-29.746,M,0.0,*5C
###2023-12-09 13:46:06.005220$GNRMC,184605.10,A,4138.0394212,N,07032.4388765,W,0.04,243.17,091223,,,A*55
###2023-12-09 13:46:06.008116$GNGGA,184605.10,4138.0394212,N,07032.4388765,W,1,20,0.7,15.042,M,-29.746,M,0.0,*51
###2023-12-09 13:46:06.009847$GPGSA,A,3,04,16,26,28,29,31,,,,,,,1.3,0.7,1.1*33
###2023-12-09 13:46:06.011580$GLGSA,A,3,65,72,73,74,75,83,,,,,,,1.3,0.7,1.1*23
###2023-12-09 13:46:06.013098$GAGSA,A,3,04,21,27,,,,,,,,,,1.3,0.7,1.1*24
###2023-12-09 13:46:06.014759$GBGSA,A,3,12,24,25,33,35,,,,,,,,1.3,0.7,1.1*21
###2023-12-09 13:46:06.017098$GPGSV,2,1,06,04,51,304,47,16,72,228,42,26,78,041,39,28,34,089,46*7E
###2023-12-09 13:46:06.018860$GPGSV,2,2,06,29,18,043,43,31,56,073,49,,,,,,,,*75
###2023-12-09 13:46:06.021191$GLGSV,2,1,06,65,42,313,45,72,57,214,38,73,18,056,41,74,56,022,37*61
###2023-12-09 13:46:06.022948$GLGSV,2,2,06,75,47,279,47,83,16,042,37,,,,,,,,*63
###2023-12-09 13:46:06.024985$GAGSV,1,1,03,04,43,308,45,21,72,043,39,27,19,051,42,,,,*56
###2023-12-09 13:46:06.027322$GBGSV,2,1,05,12,19,123,42,24,59,051,47,25,54,281,39,33,41,214,39*62
###2023-12-09 13:46:06.028779$GBGSV,2,2,05,35,16,052,40,,,,,,,,,,,,*5C
###2023-12-09 13:46:06.030101$GNVTG,243.17,T,,M,0.04,N,0.07,K,A*23
###2023-12-09 13:46:06.031728$GNGST,184605.10,6.600,,,,0.190,0.120,0.320*62
###2023-12-09 13:46:06.033018$GNZDA,184605.10,09,12,2023,00,00*7E
###2023-12-09 13:46:06.033659$GNEBP,,,,,,M*13
###2023-12-09 13:46:06.201340$GNGGA,184605.30,4138.0394226,N,07032.4388751,W,1,20,0.7,15.051,M,-29.746,M,0.0,*51
###2023-12-09 13:46:06.400086$GNGGA,184605.50,4138.0394223,N,07032.4388766,W,1,20,0.7,15.049,M,-29.746,M,0.0,*5F
###2023-12-09 13:46:06.599599$GNGGA,184605.70,4138.0394247,N,07032.4388753,W,1,20,0.7,15.055,M,-29.746,M,0.0,*54
###2023-12-09 13:46:06.801770$GNGGA,184605.90,4138.0394264,N,07032.4388751,W,1,20,0.7,15.059,M,-29.746,M,0.0,*55
###2023-12-09 13:46:07.002830$GNRMC,184606.10,A,4138.0394283,N,07032.4388737,W,0.08,243.17,091223,,,A*55
###2023-12-09 13:46:07.005697$GNGGA,184606.10,4138.0394283,N,07032.4388737,W,1,20,0.7,15.065,M,-29.746,M,0.0,*58
###2023-12-09 13:46:07.007437$GPGSA,A,3,04,16,26,28,29,31,,,,,,,1.3,0.7,1.1*33
###2023-12-09 13:46:07.009151$GLGSA,A,3,65,72,73,74,75,83,,,,,,,1.3,0.7,1.1*23
###2023-12-09 13:46:07.010676$GAGSA,A,3,04,21,27,,,,,,,,,,1.3,0.7,1.1*24
###2023-12-09 13:46:07.012319$GBGSA,A,3,12,24,25,33,35,,,,,,,,1.3,0.7,1.1*21
###2023-12-09 13:46:07.014653$GPGSV,2,1,06,04,51,304,47,16,72,228,42,26,78,041,39,28,34,089,46*7E
###2023-12-09 13:46:07.016407$GPGSV,2,2,06,29,18,043,43,31,56,073,49,,,,,,,,*75
###2023-12-09 13:46:07.018749$GLGSV,2,1,06,65,42,313,45,72,57,214,38,73,18,056,41,74,56,022,37*61
###2023-12-09 13:46:07.020496$GLGSV,2,2,06,75,47,279,46,83,16,042,37,,,,,,,,*62
###2023-12-09 13:46:07.022525$GAGSV,1,1,03,04,43,308,45,21,72,043,39,27,19,051,43,,,,*57
###2023-12-09 13:46:07.024861$GBGSV,2,1,05,12,19,123,43,24,59,051,47,25,54,281,39,33,41,214,39*63
###2023-12-09 13:46:07.026313$GBGSV,2,2,05,35,16,052,40,,,,,,,,,,,,*5C
###2023-12-09 13:46:07.027648$GNVTG,243.17,T,,M,0.08,N,0.14,K,A*2D
###2023-12-09 13:46:07.029262$GNGST,184606.10,6.600,,,,0.190,0.120,0.320*61
###2023-12-09 13:46:07.030550$GNZDA,184606.10,09,12,2023,00,00*7D
###2023-12-09 13:46:07.031232$GNEBP,,,,,,M*13
###2023-12-09 13:46:07.202499$GNGGA,184606.30,4138.0394308,N,07032.4388726,W,1,20,0.7,15.073,M,-29.746,M,0.0,*5F
###2023-12-09 13:46:07.401097$GNGGA,184606.50,4138.0394329,N,07032.4388718,W,1,20,0.7,15.076,M,-29.746,M,0.0,*52
###2023-12-09 13:46:07.600489$GNGGA,184606.70,4138.0394358,N,07032.4388706,W,1,20,0.7,15.086,M,-29.746,M,0.0,*56
###2023-12-09 13:46:07.801122$GNGGA,184606.90,4138.0394392,N,07032.4388696,W,1,20,0.7,15.092,M,-29.746,M,0.0,*53
###2023-12-09 13:46:08.004696$GNRMC,184607.10,A,4138.0394406,N,07032.4388687,W,0.02,243.17,091223,,,A*5F
###2023-12-09 13:46:08.007574$GNGGA,184607.10,4138.0394406,N,07032.4388687,W,1,20,0.7,15.099,M,-29.746,M,0.0,*5B
###2023-12-09 13:46:08.009302$GPGSA,A,3,04,16,26,28,29,31,,,,,,,1.3,0.7,1.1*33
###2023-12-09 13:46:08.011023$GLGSA,A,3,65,72,73,74,75,83,,,,,,,1.3,0.7,1.1*23
###2023-12-09 13:46:08.012538$GAGSA,A,3,04,21,27,,,,,,,,,,1.3,0.7,1.1*24
###2023-12-09 13:46:08.014182$GBGSA,A,3,12,24,25,33,35,,,,,,,,1.3,0.7,1.1*21
###2023-12-09 13:46:08.016512$GPGSV,2,1,06,04,51,304,47,16,72,228,42,26,78,041,40,28,34,089,46*70
###2023-12-09 13:46:08.018258$GPGSV,2,2,06,29,18,043,44,31,56,073,49,,,,,,,,*72
###2023-12-09 13:46:08.020592$GLGSV,2,1,06,65,42,313,45,72,57,214,37,73,18,056,41,74,56,022,37*6E
###2023-12-09 13:46:08.022339$GLGSV,2,2,06,75,47,279,47,83,16,042,37,,,,,,,,*63
###2023-12-09 13:46:08.024381$GAGSV,1,1,03,04,43,308,45,21,72,043,40,27,19,051,43,,,,*59
###2023-12-09 13:46:08.026718$GBGSV,2,1,05,12,19,123,43,24,59,051,47,25,54,281,39,33,41,214,39*63
###2023-12-09 13:46:08.028171$GBGSV,2,2,05,35,16,052,40,,,,,,,,,,,,*5C
###2023-12-09 13:46:08.029491$GNVTG,243.17,T,,M,0.02,N,0.04,K,A*26
###2023-12-09 13:46:08.031368$GNGST,184607.10,6.700,,,,0.190,0.120,0.320*61
###2023-12-09 13:46:08.032668$GNZDA,184607.10,09,12,2023,00,00*7C
###2023-12-09 13:46:08.033308$GNEBP,,,,,,M*13
###2023-12-09 13:46:08.200223$GNGGA,184607.30,4138.0394413,N,07032.4388674,W,1,20,0.7,15.108,M,-29.746,M,0.0,*58
###2023-12-09 13:46:08.400979$GNGGA,184607.50,4138.0394425,N,07032.4388659,W,1,20,0.7,15.118,M,-29.746,M,0.0,*55
###2023-12-09 13:46:08.601033$GNGGA,184607.70,4138.0394434,N,07032.4388643,W,1,20,0.7,15.129,M,-29.746,M,0.0,*5E
###2023-12-09 13:46:08.800531$GNGGA,184607.90,4138.0394448,N,07032.4388639,W,1,20,0.7,15.135,M,-29.746,M,0.0,*5B
