###2023-12-09 12:45:31.964651$GLGSV,2,2,06,74,71,310,43,75,26,245,43,,,,,,,,*61
###2023-12-09 12:45:31.967020$GAGSV,1,1,04,04,24,312,42,19,84,283,41,21,82,167,45,27,38,049,43*6C
###2023-12-09 12:45:31.969357$GBGSV,2,1,05,14,50,195,45,24,78,005,48,25,36,256,44,26,31,059,44*68
###2023-12-09 12:45:31.970831$GBGSV,2,2,05,33,61,245,49,,,,,,,,,,,,*57
###2023-12-09 12:45:31.972155$GNVTG,116.65,T,,M,3.19,N,5.90,K,A*21
###2023-12-09 12:45:31.973795$GNGST,174531.10,18.000,,,,0.078,0.068,0.160*5C
###2023-12-09 12:45:31.975100$GNZDA,174531.10,09,12,2023,00,00*75
###2023-12-09 12:45:31.975737$GNEBP,,,,,,M*13
###2023-12-09 12:45:32.144618$GNGGA,174531.30,4138.0444233,N,07032.3913479,W,1,24,0.6,13.458,M,-29.745,M,0.0,*5F
###2023-12-09 12:45:32.346760$GNGGA,174531.50,4138.0443366,N,07032.3911396,W,1,24,0.6,13.444,M,-29.745,M,0.0,*56
###2023-12-09 12:45:32.546003$GNGGA,174531.70,4138.0442523,N,07032.3909345,W,1,24,0.6,13.453,M,-29.745,M,0.0,*53
###2023-12-09 12:45:32.745293$GNGGA,174531.90,4138.0441587,N,07032.3907314,W,1,24,0.6,13.461,M,-29.745,M,0.0,*5B
###2023-12-09 12:45:32.953098$GNRMC,174532.10,A,4138.0440670,N,07032.3905363,W,2.95,120.44,091223,,,A*53
###2023-12-09 12:45:32.956008$GNGGA,174532.10,4138.0440670,N,07032.3905363,W,1,24,0.6,13.447,M,-29.745,M,0.0,*5C
###2023-12-09 12:45:32.957884$GPGSA,A,3,03,04,16,26,28,29,31,32,,,,,1.1,0.6,0.9*3B
###2023-12-09 12:45:32.959613$GLGSA,A,3,65,71,72,73,74,75,,,,,,,1.1,0.6,0.9*24
###2023-12-09 12:45:32.961199$GAGSA,A,3,04,19,21,27,,,,,,,,,1.1,0.6,0.9*26
###2023-12-09 12:45:32.962860$GBGSA,A,3,14,24,25,26,33,,,,,,,,1.1,0.6,0.9*2F
###2023-12-09 12:45:32.965186$GPGSV,2,1,08,03,37,270,45,04,26,311,43,16,41,209,46,26,71,208,48*7A
###2023-12-09 12:45:32.967547$GPGSV,2,2,08,28,55,061,45,29,26,069,44,31,72,015,47,32,26,136,43*7B
###2023-12-09 12:45:32.969889$GLGSV,2,1,06,65,17,329,44,71,50,171,48,72,70,297,47,73,43,037,47*6C
###2023-12-09 12:45:32.971653$GLGSV,2,2,06,74,71,310,43,75,26,245,43,,,,,,,,*61
###2023-12-09 12:45:32.973974$GAGSV,1,1,04,04,24,312,41,19,84,283,41,21,82,167,46,27,38,049,43*6C
###2023-12-09 12:45:32.976326$GBGSV,2,1,05,14,50,195,45,24,78,005,48,25,36,256,45,26,31,059,45*68
###2023-12-09 12:45:32.977783$GBGSV,2,2,05,33,61,245,49,,,,,,,,,,,,*57
###2023-12-09 12:45:32.979127$GNVTG,120.44,T,,M,2.95,N,5.47,K,A*28
###2023-12-09 12:45:32.980789$GNGST,174532.10,18.000,,,,0.077,0.068,0.160*50
###2023-12-09 12:45:32.982089$GNZDA,174532.10,09,12,2023,00,00*76
###2023-12-09 12:45:32.982746$GNEBP,,,,,,M*13
###2023-12-09 12:45:33.146084$GNGGA,174532.30,4138.0439826,N,07032.3903369,W,1,24,0.6,13.460,M,-29.745,M,0.0,*54
###2023-12-09 12:45:33.346013$GNGGA,174532.50,4138.0438834,N,07032.3901353,W,1,24,0.6,13.460,M,-29.745,M,0.0,*5B
###2023-12-09 12:45:33.545912$GNGGA,174532.70,4138.0437958,N,07032.3899394,W,1,24,0.6,13.461,M,-29.745,M,0.0,*57
###2023-12-09 12:45:33.745339$GNGGA,174532.90,4138.0437054,N,07032.3897274,W,1,24,0.6,13.475,M,-29.745,M,0.0,*58
###2023-12-09 12:45:33.944979$GNRMC,174533.10,A,4138.0436155,N,07032.3895194,W,3.17,117.90,091223,,,A*57
###2023-12-09 12:45:33.947890$GNGGA,174533.10,4138.0436155,N,07032.3895194,W,1,24,0.6,13.462,M,-29.745,M,0.0,*59
###2023-12-09 12:45:33.949779$GPGSA,A,3,03,04,16,26,28,29,31,32,,,,,1.1,0.6,0.9*3B
###2023-12-09 12:45:33.951524$GLGSA,A,3,65,71,72,73,74,75,,,,,,,1.1,0.6,0.9*24
###2023-12-09 12:45:33.953122$GAGSA,A,3,04,19,21,27,,,,,,,,,1.1,0.6,0.9*26
###2023-12-09 12:45:33.954805$GBGSA,A,3,14,24,25,26,33,,,,,,,,1.1,0.6,0.9*2F
###2023-12-09 12:45:33.957146$GPGSV,2,1,08,03,37,270,45,04,26,311,43,16,41,209,46,26,71,208,48*7A
###2023-12-09 12:45:33.959513$GPGSV,2,2,08,28,55,061,45,29,26,069,43,31,72,015,47,32,26,136,42*7D
###2023-12-09 12:45:33.961907$GLGSV,2,1,06,65,17,329,42,71,50,171,47,72,70,297,46,73,43,037,46*65
###2023-12-09 12:45:33.963695$GLGSV,2,2,06,74,71,310,43,75,26,245,42,,,,,,,,*60
###2023-12-09 12:45:33.966045$GAGSV,1,1,04,04,24,312,42,19,84,283,41,21,82,167,46,27,38,049,43*6F
###2023-12-09 12:45:33.968411$GBGSV,2,1,05,14,50,195,45,24,78,005,49,25,36,256,44,26,31,059,44*69
###2023-12-09 12:45:33.969868$GBGSV,2,2,05,33,61,245,48,,,,,,,,,,,,*56
###2023-12-09 12:45:33.971261$GNVTG,117.90,T,,M,3.17,N,5.87,K,A*22
###2023-12-09 12:45:33.973148$GNGST,174533.10,18.000,,,,0.077,0.067,0.160*5E
###2023-12-09 12:45:33.974452$GNZDA,174533.10,09,12,2023,00,00*77
###2023-12-09 12:45:33.975124$GNEBP,,,,,,M*13
###2023-12-09 12:45:34.145278$GNGGA,174533.30,4138.0435406,N,07032.3893015,W,1,24,0.6,13.471,M,-29.745,M,0.0,*57
###2023-12-09 12:45:34.345741$GNGGA,174533.50,4138.0434544,N,07032.3890810,W,1,24,0.6,13.471,M,-29.745,M,0.0,*59
###2023-12-09 12:45:34.545903$GNGGA,174533.70,4138.0433868,N,07032.3888611,W,1,24,0.6,13.479,M,-29.745,M,0.0,*51
###2023-12-09 12:45:34.745275$GNGGA,174533.90,4138.0433177,N,07032.3886246,W,1,24,0.6,13.482,M,-29.745,M,0.0,*54
###2023-12-09 12:45:34.946506$GNRMC,174534.10,A,4138.0432595,N,07032.3883968,W,3.19,106.29,091223,,,A*5C
###2023-12-09 12:45:34.949413$GNGGA,174534.10,4138.0432595,N,07032.3883968,W,1,24,0.6,13.476,M,-29.745,M,0.0,*5B
###2023-12-09 12:45:34.951315$GPGSA,A,3,03,04,16,26,28,29,31,32,,,,,1.1,0.6,0.9*3B
###2023-12-09 12:45:34.953034$GLGSA,A,3,65,71,72,73,74,75,,,,,,,1.1,0.6,0.9*24
###2023-12-09 12:45:34.954632$GAGSA,A,3,04,19,21,27,,,,,,,,,1.1,0.6,0.9*26
###2023-12-09 12:45:34.956283$GBGSA,A,3,14,24,25,26,33,,,,,,,,1.1,0.6,0.9*2F
###2023-12-09 12:45:34.958627$GPGSV,2,1,08,03,37,270,46,04,26,311,42,16,41,209,47,26,71,208,48*79
###2023-12-09 12:45:34.960967$GPGSV,2,2,08,28,55,061,44,29,26,069,41,31,72,015,48,32,26,136,42*71
###2023-12-09 12:45:34.963332$GLGSV,2,1,06,65,17,329,41,71,50,171,47,72,70,297,47,73,43,037,46*67
###2023-12-09 12:45:34.965090$GLGSV,2,2,06,74,71,310,43,75,26,245,44,,,,,,,,*66
###2023-12-09 12:45:34.967437$GAGSV,1,1,04,04,24,312,42,19,84,283,41,21,82,167,46,27,38,049,44*68
###2023-12-09 12:45:34.969770$GBGSV,2,1,05,14,50,195,46,24,78,005,49,25,36,256,45,26,31,059,44*6B
###2023-12-09 12:45:34.971234$GBGSV,2,2,05,33,61,245,48,,,,,,,,,,,,*56
###2023-12-09 12:45:34.972560$GNVTG,106.29,T,,M,3.19,N,5.90,K,A*28
###2023-12-09 12:45:34.974206$GNGST,174534.10,18.000,,,,0.077,0.067,0.160*59
###2023-12-09 12:45:34.975515$GNZDA,174534.10,09,12,2023,00,00*70
###2023-12-09 12:45:34.976154$GNEBP,,,,,,M*13
###2023-12-09 12:45:35.147077$GNGGA,174534.30,4138.0432126,N,07032.3881638,W,1,24,0.6,13.490,M,-29.745,M,0.0,*55
###2023-12-09 12:45:35.345764$GNGGA,174534.50,4138.0431552,N,07032.3879207,W,1,24,0.6,13.492,M,-29.745,M,0.0,*5A
###2023-12-09 12:45:35.546425$GNGGA,174534.70,4138.0431187,N,07032.3876830,W,1,24,0.6,13.475,M,-29.745,M,0.0,*5C
###2023-12-09 12:45:35.744874$GNGGA,174534.90,4138.0430969,N,07032.3874378,W,1,24,0.6,13.489,M,-29.745,M,0.0,*5D
###2023-12-09 12:45:35.946352$GNRMC,174535.10,A,4138.0430680,N,07032.3871895,W,3.34,99.06,091223,,,A*63
###2023-12-09 12:45:35.949889$GNGGA,174535.10,4138.0430680,N,07032.3871895,W,1,24,0.6,13.487,M,-29.745,M,0.0,*5F
###2023-12-09 12:45:35.952179$GPGSA,A,3,03,04,16,26,28,29,31,32,,,,,1.1,0.6,0.9*3B
###2023-12-09 12:45:35.954251$GLGSA,A,3,65,71,72,73,74,75,,,,,,,1.1,0.6,0.9*24
###2023-12-09 12:45:35.956177$GAGSA,A,3,04,19,21,27,,,,,,,,,1.1,0.6,0.9*26
###2023-12-09 12:45:35.958150$GBGSA,A,3,14,24,25,26,33,,,,,,,,1.1,0.6,0.9*2F
###2023-12-09 12:45:35.960966$GPGSV,2,1,08,03,37,270,45,04,26,311,40,16,42,209,46,26,71,208,48*7A
###2023-12-09 12:45:35.963794$GPGSV,2,2,08,28,55,061,44,29,26,069,40,31,72,015,47,32,26,136,43*7E
###2023-12-09 12:45:35.966619$GLGSV,2,1,06,65,17,329,41,71,50,171,47,72,70,297,47,73,43,037,47*66
###2023-12-09 12:45:35.968716$GLGSV,2,2,06,74,71,310,41,75,26,245,43,,,,,,,,*63
###2023-12-09 12:45:35.971530$GAGSV,1,1,04,04,24,312,41,19,84,283,41,21,82,167,46,27,38,049,44*6B
###2023-12-09 12:45:35.974331$GBGSV,2,1,05,14,50,195,46,24,78,005,49,25,36,256,46,26,31,059,43*6F
###2023-12-09 12:45:35.976099$GBGSV,2,2,05,33,61,245,47,,,,,,,,,,,,*59
###2023-12-09 12:45:35.977680$GNVTG,99.06,T,,M,3.34,N,6.19,K,A*1F
###2023-12-09 12:45:35.979724$GNGST,174535.10,18.000,,,,0.077,0.067,0.160*58
###2023-12-09 12:45:35.981280$GNZDA,174535.10,09,12,2023,00,00*71
###2023-12-09 12:45:35.982046$GNEBP,,,,,,M*13
###2023-12-09 12:45:36.146110$GNGGA,174535.30,4138.0430539,N,07032.3869440,W,1,24,0.6,13.482,M,-29.745,M,0.0,*54
###2023-12-09 12:45:36.346020$GNGGA,174535.50,4138.0430471,N,07032.3866904,W,1,24,0.6,13.486,M,-29.745,M,0.0,*59
###2023-12-09 12:45:36.547775$GNGGA,174535.70,4138.0430536,N,07032.3864480,W,1,24,0.6,13.488,M,-29.745,M,0.0,*54
###2023-12-09 12:45:36.746611$GNGGA,174535.90,4138.0430717,N,07032.3861925,W,1,24,0.6,13.493,M,-29.745,M,0.0,*56
###2023-12-09 12:45:36.947072$GNRMC,174536.10,A,4138.0430874,N,07032.3859433,W,3.29,82.06,091223,,,A*69
###2023-12-09 12:45:36.949930$GNGGA,174536.10,4138.0430874,N,07032.3859433,W,1,24,0.6,13.480,M,-29.745,M,0.0,*54
###2023-12-09 12:45:36.951796$GPGSA,A,3,03,04,16,26,28,29,31,32,,,,,1.1,0.6,0.9*3B
###2023-12-09 12:45:36.953546$GLGSA,A,3,65,71,72,73,74,75,,,,,,,1.1,0.6,0.9*24
