###2023-12-09 12:26:02.952329$GNZDA,172602.10,09,12,2023,00,00*70
###2023-12-09 12:26:02.953175$GNEBP,,,,,,M*13
###2023-12-09 12:26:03.120070$GNGGA,172602.30,4138.0382478,N,07032.4359638,W,1,18,0.8,9.474,M,-29.746,M,0.0,*6D
###2023-12-09 12:26:03.319965$GNGGA,172602.50,4138.0382456,N,07032.4359615,W,1,18,0.8,9.461,M,-29.746,M,0.0,*6C
###2023-12-09 12:26:03.518854$GNGGA,172602.70,4138.0382429,N,07032.4359590,W,1,18,0.8,9.448,M,-29.746,M,0.0,*63
###2023-12-09 12:26:03.718983$GNGGA,172602.90,4138.0382413,N,07032.4359564,W,1,18,0.8,9.443,M,-29.746,M,0.0,*64
###2023-12-09 12:26:03.919101$GNRMC,172603.10,A,4138.0382401,N,07032.4359549,W,0.02,,091223,,,A*42
###2023-12-09 12:26:03.922557$GNGGA,172603.10,4138.0382401,N,07032.4359549,W,1,18,0.8,9.433,M,-29.746,M,0.0,*66
###2023-12-09 12:26:03.924874$GPGSA,A,3,03,16,25,26,28,29,31,32,,,,,1.4,0.8,1.1*3A
###2023-12-09 12:26:03.926848$GLGSA,A,3,71,72,73,75,,,,,,,,,1.4,0.8,1.1*26
###2023-12-09 12:26:03.928647$GAGSA,A,3,21,27,,,,,,,,,,,1.4,0.8,1.1*28
###2023-12-09 12:26:03.931024$GBGSA,A,3,14,25,26,33,,,,,,,,,1.4,0.8,1.1*2B
###2023-12-09 12:26:03.933881$GPGSV,2,1,08,03,39,282,44,16,32,206,41,25,15,045,40,26,62,205,44*75
###2023-12-09 12:26:03.936977$GPGSV,2,2,08,28,61,050,42,29,24,078,43,31,73,346,39,32,34,132,47*72
###2023-12-09 12:26:03.940099$GLGSV,1,1,04,71,62,167,47,72,61,316,44,73,52,030,48,75,18,237,43*60
###2023-12-09 12:26:03.942267$GAGSV,1,1,02,21,74,179,44,27,44,051,44,,,,,,,,*64
###2023-12-09 12:26:03.945322$GBGSV,1,1,04,14,59,200,45,25,30,250,38,26,38,055,48,33,64,264,39*66
###2023-12-09 12:26:03.946851$GNVTG,,T,,M,0.02,N,0.04,K,A*3B
###2023-12-09 12:26:03.949042$GNGST,172603.10,30.000,,,,0.230,0.220,0.500*50
###2023-12-09 12:26:03.950711$GNZDA,172603.10,09,12,2023,00,00*71
###2023-12-09 12:26:03.951546$GNEBP,,,,,,M*13
###2023-12-09 12:26:04.119441$GNGGA,172603.30,4138.0382381,N,07032.4359528,W,1,18,0.8,9.425,M,-29.746,M,0.0,*6B
###2023-12-09 12:26:04.319288$GNGGA,172603.50,4138.0382362,N,07032.4359503,W,1,18,0.8,9.417,M,-29.746,M,0.0,*68
###2023-12-09 12:26:04.518713$GNGGA,172603.70,4138.0382349,N,07032.4359491,W,1,18,0.8,9.407,M,-29.746,M,0.0,*68
###2023-12-09 12:26:04.717407$GNGGA,172603.90,4138.0382324,N,07032.4359470,W,1,18,0.8,9.393,M,-29.746,M,0.0,*68
###2023-12-09 12:26:04.920472$GNRMC,172604.10,A,4138.0382298,N,07032.4359444,W,0.02,,091223,,,A*4F
###2023-12-09 12:26:04.923525$GNGGA,172604.10,4138.0382298,N,07032.4359444,W,1,19,0.8,9.384,M,-29.746,M,0.0,*61
###2023-12-09 12:26:04.925571$GPGSA,A,3,03,16,25,26,28,29,31,32,,,,,1.3,0.8,1.0*3C
###2023-12-09 12:26:04.927361$GLGSA,A,3,71,72,73,75,,,,,,,,,1.3,0.8,1.0*20
###2023-12-09 12:26:04.928987$GAGSA,A,3,21,27,,,,,,,,,,,1.3,0.8,1.0*2E
###2023-12-09 12:26:04.930742$GBGSA,A,3,14,25,26,33,,,,,,,,,1.3,0.8,1.0*2D
###2023-12-09 12:26:04.933239$GPGSV,2,1,08,03,39,282,44,16,32,206,41,25,15,045,40,26,62,205,44*75
###2023-12-09 12:26:04.935758$GPGSV,2,2,08,28,61,050,42,29,24,078,43,31,73,346,39,32,34,132,47*72
###2023-12-09 12:26:04.938254$GLGSV,1,1,04,71,62,167,47,72,61,316,44,73,52,030,48,75,18,237,43*60
###2023-12-09 12:26:04.940171$GAGSV,1,1,02,21,74,179,44,27,44,051,45,,,,,,,,*65
###2023-12-09 12:26:04.942669$GBGSV,1,1,04,14,59,200,44,25,30,250,37,26,38,056,47,33,64,264,39*64
###2023-12-09 12:26:04.943971$GNVTG,,T,,M,0.02,N,0.04,K,A*3B
###2023-12-09 12:26:04.945781$GNGST,172604.10,29.000,,,,0.230,0.220,0.500*5F
###2023-12-09 12:26:04.947231$GNZDA,172604.10,09,12,2023,00,00*76
###2023-12-09 12:26:04.948038$GNEBP,,,,,,M*13
###2023-12-09 12:26:05.118680$GNGGA,172604.30,4138.0382276,N,07032.4359426,W,1,19,0.8,9.375,M,-29.746,M,0.0,*69
###2023-12-09 12:26:05.317156$GNGGA,172604.50,4138.0382247,N,07032.4359407,W,1,18,0.8,9.369,M,-29.746,M,0.0,*62
###2023-12-09 12:26:05.517046$GNGGA,172604.70,4138.0382230,N,07032.4359389,W,1,18,0.8,9.359,M,-29.746,M,0.0,*62
###2023-12-09 12:26:05.715254$GNGGA,172604.90,4138.0382212,N,07032.4359374,W,1,18,0.8,9.353,M,-29.746,M,0.0,*64
###2023-12-09 12:26:05.918399$GNRMC,172605.10,A,4138.0382203,N,07032.4359360,W,0.04,,091223,,,A*4B
###2023-12-09 12:26:05.921245$GNGGA,172605.10,4138.0382203,N,07032.4359360,W,1,18,0.8,9.342,M,-29.746,M,0.0,*68
###2023-12-09 12:26:05.923143$GPGSA,A,3,03,16,25,26,28,29,31,32,,,,,1.4,0.8,1.1*3A
###2023-12-09 12:26:05.924736$GLGSA,A,3,71,72,73,75,,,,,,,,,1.4,0.8,1.1*26
###2023-12-09 12:26:05.926201$GAGSA,A,3,21,27,,,,,,,,,,,1.4,0.8,1.1*28
###2023-12-09 12:26:05.927805$GBGSA,A,3,14,25,26,33,,,,,,,,,1.4,0.8,1.1*2B
###2023-12-09 12:26:05.930129$GPGSV,2,1,08,03,39,282,44,16,32,206,41,25,15,045,39,26,62,205,44*7B
###2023-12-09 12:26:05.932480$GPGSV,2,2,08,28,61,050,42,29,24,078,43,31,73,346,40,32,34,132,47*7C
###2023-12-09 12:26:05.934829$GLGSV,1,1,04,71,62,167,47,72,61,316,45,73,52,030,48,75,18,237,43*61
###2023-12-09 12:26:05.936579$GAGSV,1,1,02,21,74,179,45,27,44,051,45,,,,,,,,*64
###2023-12-09 12:26:05.938916$GBGSV,1,1,04,14,59,200,45,25,30,250,38,26,38,056,48,33,64,263,40*6C
###2023-12-09 12:26:05.940066$GNVTG,,T,,M,0.04,N,0.07,K,A*3E
###2023-12-09 12:26:05.941717$GNGST,172605.10,30.000,,,,0.230,0.220,0.500*56
###2023-12-09 12:26:05.943027$GNZDA,172605.10,09,12,2023,00,00*77
###2023-12-09 12:26:05.943677$GNEBP,,,,,,M*13
###2023-12-09 12:26:06.118187$GNGGA,172605.30,4138.0382181,N,07032.4359333,W,1,18,0.8,9.336,M,-29.746,M,0.0,*66
###2023-12-09 12:26:06.317119$GNGGA,172605.50,4138.0382156,N,07032.4359316,W,1,18,0.8,9.325,M,-29.746,M,0.0,*6F
###2023-12-09 12:26:06.518219$GNGGA,172605.70,4138.0382136,N,07032.4359293,W,1,18,0.8,9.318,M,-29.746,M,0.0,*69
###2023-12-09 12:26:06.717686$GNGGA,172605.90,4138.0382125,N,07032.4359269,W,1,18,0.8,9.306,M,-29.746,M,0.0,*6F
###2023-12-09 12:26:06.922065$GNRMC,172606.10,A,4138.0382105,N,07032.4359253,W,0.04,,091223,,,A*4C
###2023-12-09 12:26:06.925579$GNGGA,172606.10,4138.0382105,N,07032.4359253,W,1,18,0.8,9.299,M,-29.746,M,0.0,*68
###2023-12-09 12:26:06.927906$GPGSA,A,3,03,16,25,26,28,29,31,32,,,,,1.4,0.8,1.1*3A
###2023-12-09 12:26:06.930103$GLGSA,A,3,71,72,73,75,,,,,,,,,1.4,0.8,1.1*26
###2023-12-09 12:26:06.931941$GAGSA,A,3,21,27,,,,,,,,,,,1.4,0.8,1.1*28
###2023-12-09 12:26:06.934118$GBGSA,A,3,14,25,26,33,,,,,,,,,1.4,0.8,1.1*2B
###2023-12-09 12:26:06.936999$GPGSV,2,1,08,03,39,282,45,16,32,206,42,25,15,045,39,26,62,205,44*79
###2023-12-09 12:26:06.939885$GPGSV,2,2,08,28,61,050,42,29,24,078,43,31,73,346,40,32,34,132,47*7C
###2023-12-09 12:26:06.942743$GLGSV,1,1,04,71,62,167,47,72,61,316,44,73,52,030,48,75,18,237,43*60
###2023-12-09 12:26:06.945108$GAGSV,1,1,02,21,74,179,45,27,44,051,45,,,,,,,,*64
###2023-12-09 12:26:06.948002$GBGSV,1,1,04,14,59,200,45,25,30,250,37,26,38,056,48,33,64,263,40*63
###2023-12-09 12:26:06.949646$GNVTG,,T,,M,0.04,N,0.07,K,A*3E
###2023-12-09 12:26:06.951955$GNGST,172606.10,30.000,,,,0.230,0.220,0.500*55
###2023-12-09 12:26:06.953589$GNZDA,172606.10,09,12,2023,00,00*74
###2023-12-09 12:26:06.954404$GNEBP,,,,,,M*13
###2023-12-09 12:26:07.118296$GNGGA,172606.30,4138.0382086,N,07032.4359241,W,1,18,0.8,9.288,M,-29.746,M,0.0,*63
###2023-12-09 12:26:07.318412$GNGGA,172606.50,4138.0382074,N,07032.4359223,W,1,18,0.8,9.282,M,-29.746,M,0.0,*66
###2023-12-09 12:26:07.517013$GNGGA,172606.70,4138.0382068,N,07032.4359211,W,1,18,0.8,9.271,M,-29.746,M,0.0,*64
###2023-12-09 12:26:07.716193$GNGGA,172606.90,4138.0382045,N,07032.4359190,W,1,18,0.8,9.258,M,-29.746,M,0.0,*64
###2023-12-09 12:26:07.917834$GNRMC,172607.10,A,4138.0382036,N,07032.4359174,W,0.02,,091223,,,A*4C
###2023-12-09 12:26:07.920889$GNGGA,172607.10,4138.0382036,N,07032.4359174,W,1,18,0.8,9.249,M,-29.746,M,0.0,*63
###2023-12-09 12:26:07.922959$GPGSA,A,3,03,16,25,26,28,29,31,32,,,,,1.4,0.8,1.1*3A
###2023-12-09 12:26:07.924723$GLGSA,A,3,71,72,73,75,,,,,,,,,1.4,0.8,1.1*26
###2023-12-09 12:26:07.926347$GAGSA,A,3,21,27,,,,,,,,,,,1.4,0.8,1.1*28
###2023-12-09 12:26:07.928106$GBGSA,A,3,14,25,26,33,,,,,,,,,1.4,0.8,1.1*2B
###2023-12-09 12:26:07.930606$GPGSV,2,1,08,03,39,282,45,16,32,206,42,25,15,045,39,26,62,205,44*79
###2023-12-09 12:26:07.933103$GPGSV,2,2,08,28,61,050,42,29,24,078,43,31,73,346,40,32,34,132,47*7C
###2023-12-09 12:26:07.935611$GLGSV,1,1,04,71,62,167,47,72,61,316,45,73,52,030,49,75,18,237,43*60
###2023-12-09 12:26:07.937801$GAGSV,1,1,02,21,74,179,45,27,44,051,45,,,,,,,,*64
###2023-12-09 12:26:07.940332$GBGSV,1,1,04,14,59,200,45,25,30,250,38,26,38,056,48,33,64,263,40*6C
###2023-12-09 12:26:07.941642$GNVTG,,T,,M,0.02,N,0.04,K,A*3B
###2023-12-09 12:26:07.943475$GNGST,172607.10,30.000,,,,0.230,0.220,0.500*54
###2023-12-09 12:26:07.944943$GNZDA,172607.10,09,12,2023,00,00*75
###2023-12-09 12:26:07.945710$GNEBP,,,,,,M*13
###2023-12-09 12:26:08.117092$GNGGA,172607.30,4138.0382019,N,07032.4359147,W,1,18,0.8,9.246,M,-29.746,M,0.0,*63
###2023-12-09 12:26:08.317076$GNGGA,172607.50,4138.0382001,N,07032.4359125,W,1,18,0.8,9.237,M,-29.746,M,0.0,*6E
###2023-12-09 12:26:08.515922$GNGGA,172607.70,4138.0381977,N,07032.4359111,W,1,18,0.8,9.228,M,-29.746,M,0.0,*6E
