###2023-12-09 13:41:53.021846$GLGSV,2,1,05,65,41,315,42,72,59,216,45,73,20,054,41,74,57,019,43*65
###2023-12-09 13:41:53.023655$GLGSV,2,2,05,75,45,276,44,,,,,,,,,,,,*50
###2023-12-09 13:41:53.026461$GAGSV,1,1,04,04,42,309,44,19,69,180,43,21,74,044,47,27,20,051,41*68
###2023-12-09 13:41:53.029278$GBGSV,2,1,05,12,17,124,43,24,60,049,49,25,53,279,46,33,43,215,48*6A
###2023-12-09 13:41:53.031047$GBGSV,2,2,05,35,16,054,43,,,,,,,,,,,,*59
###2023-12-09 13:41:53.032639$GNVTG,281.72,T,,M,1.63,N,3.02,K,A*28
###2023-12-09 13:41:53.034634$GNGST,184152.10,5.800,,,,0.130,0.096,0.220*6D
###2023-12-09 13:41:53.036192$GNZDA,184152.10,09,12,2023,00,00*7B
###2023-12-09 13:41:53.036962$GNEBP,,,,,,M*13
###2023-12-09 13:41:53.200879$GNGGA,184152.30,4138.0383071,N,07032.4209122,W,1,22,0.7,13.298,M,-29.745,M,0.0,*58
###2023-12-09 13:41:53.398779$GNGGA,184152.50,4138.0383230,N,07032.4210220,W,1,23,0.6,13.305,M,-29.745,M,0.0,*55
###2023-12-09 13:41:53.599273$GNGGA,184152.70,4138.0383372,N,07032.4211319,W,1,23,0.6,13.303,M,-29.745,M,0.0,*5C
###2023-12-09 13:41:53.799810$GNGGA,184152.90,4138.0383543,N,07032.4212370,W,1,22,0.7,13.310,M,-29.745,M,0.0,*58
###2023-12-09 13:41:54.001051$GNRMC,184153.10,A,4138.0383679,N,07032.4213460,W,1.52,278.89,091223,,,A*56
###2023-12-09 13:41:54.004506$GNGGA,184153.10,4138.0383679,N,07032.4213460,W,1,22,0.7,13.309,M,-29.745,M,0.0,*54
###2023-12-09 13:41:54.006742$GPGSA,A,3,03,04,09,16,26,28,29,31,,,,,1.1,0.7,0.9*32
###2023-12-09 13:41:54.008724$GLGSA,A,3,65,72,73,74,75,,,,,,,,1.1,0.7,0.9*23
###2023-12-09 13:41:54.010658$GAGSA,A,3,04,19,21,27,,,,,,,,,1.1,0.7,0.9*27
###2023-12-09 13:41:54.012633$GBGSA,A,3,12,24,25,33,35,,,,,,,,1.1,0.7,0.9*2A
###2023-12-09 13:41:54.015448$GPGSV,2,1,08,03,24,243,37,04,49,306,44,09,15,317,39,16,70,226,47*7D
###2023-12-09 13:41:54.018245$GPGSV,2,2,08,26,80,041,49,28,35,088,46,29,19,044,43,31,57,071,47*7A
###2023-12-09 13:41:54.021061$GLGSV,2,1,05,65,41,315,43,72,59,216,47,73,20,054,41,74,57,019,42*67
###2023-12-09 13:41:54.022816$GLGSV,2,2,05,75,45,276,46,,,,,,,,,,,,*52
###2023-12-09 13:41:54.025609$GAGSV,1,1,04,04,42,309,43,19,69,180,42,21,74,044,47,27,20,051,41*6E
###2023-12-09 13:41:54.028417$GBGSV,2,1,05,12,17,124,42,24,60,049,50,25,53,279,46,33,43,215,47*6C
###2023-12-09 13:41:54.030164$GBGSV,2,2,05,35,16,054,43,,,,,,,,,,,,*59
###2023-12-09 13:41:54.031771$GNVTG,278.89,T,,M,1.52,N,2.81,K,A*22
###2023-12-09 13:41:54.033706$GNGST,184153.10,6.300,,,,0.130,0.095,0.220*67
###2023-12-09 13:41:54.035271$GNZDA,184153.10,09,12,2023,00,00*7A
###2023-12-09 13:41:54.036039$GNEBP,,,,,,M*13
###2023-12-09 13:41:54.200821$GNGGA,184153.30,4138.0383859,N,07032.4214512,W,1,23,0.6,13.318,M,-29.745,M,0.0,*59
###2023-12-09 13:41:54.452955$GNGGA,184153.50,4138.0384003,N,07032.4215611,W,1,22,0.7,13.325,M,-29.745,M,0.0,*50
###2023-12-09 13:41:54.595851$GNGGA,184153.70,4138.0384143,N,07032.4216695,W,1,22,0.7,13.322,M,-29.745,M,0.0,*5F
###2023-12-09 13:41:54.796491$GNGGA,184153.90,4138.0384258,N,07032.4217753,W,1,22,0.7,13.326,M,-29.745,M,0.0,*56
###2023-12-09 13:41:55.000570$GNRMC,184154.10,A,4138.0384410,N,07032.4218782,W,1.36,279.20,091223,,,A*5F
###2023-12-09 13:41:55.003431$GNGGA,184154.10,4138.0384410,N,07032.4218782,W,1,23,0.6,13.329,M,-29.745,M,0.0,*5F
###2023-12-09 13:41:55.005279$GPGSA,A,3,03,04,09,16,26,28,29,31,,,,,1.1,0.6,0.8*32
###2023-12-09 13:41:55.006931$GLGSA,A,3,65,72,73,74,75,,,,,,,,1.1,0.6,0.8*23
###2023-12-09 13:41:55.008508$GAGSA,A,3,04,19,21,27,,,,,,,,,1.1,0.6,0.8*27
###2023-12-09 13:41:55.010144$GBGSA,A,3,12,24,25,33,35,,,,,,,,1.1,0.6,0.8*2A
###2023-12-09 13:41:55.012466$GPGSV,2,1,08,03,24,243,39,04,49,306,43,09,15,317,40,16,70,226,46*7B
###2023-12-09 13:41:55.014798$GPGSV,2,2,08,26,80,041,48,28,35,088,45,29,19,044,43,31,57,071,47*78
###2023-12-09 13:41:55.017116$GLGSV,2,1,05,65,41,315,42,72,59,216,46,73,20,054,41,74,57,019,42*67
###2023-12-09 13:41:55.018556$GLGSV,2,2,05,75,45,276,46,,,,,,,,,,,,*52
###2023-12-09 13:41:55.020879$GAGSV,1,1,04,04,42,309,41,19,69,180,41,21,74,044,46,27,20,051,40*6F
###2023-12-09 13:41:55.023203$GBGSV,2,1,05,12,17,124,42,24,60,049,50,25,53,279,48,33,43,215,47*62
###2023-12-09 13:41:55.024653$GBGSV,2,2,05,35,16,054,43,,,,,,,,,,,,*59
###2023-12-09 13:41:55.025968$GNVTG,279.20,T,,M,1.36,N,2.52,K,A*2C
###2023-12-09 13:41:55.027591$GNGST,184154.10,6.500,,,,0.130,0.095,0.220*66
###2023-12-09 13:41:55.028874$GNZDA,184154.10,09,12,2023,00,00*7D
###2023-12-09 13:41:55.029509$GNEBP,,,,,,M*13
###2023-12-09 13:41:55.198792$GNGGA,184154.30,4138.0384514,N,07032.4219788,W,1,23,0.6,13.324,M,-29.745,M,0.0,*5E
###2023-12-09 13:41:55.397639$GNGGA,184154.50,4138.0384639,N,07032.4220747,W,1,22,0.7,13.332,M,-29.745,M,0.0,*5A
###2023-12-09 13:41:55.595904$GNGGA,184154.70,4138.0384722,N,07032.4221672,W,1,23,0.6,13.333,M,-29.745,M,0.0,*54
###2023-12-09 13:41:55.795268$GNGGA,184154.90,4138.0384830,N,07032.4222635,W,1,23,0.6,13.339,M,-29.745,M,0.0,*5C
###2023-12-09 13:41:56.000595$GNRMC,184155.10,A,4138.0384979,N,07032.4223571,W,1.32,279.07,091223,,,A*5B
###2023-12-09 13:41:56.003561$GNGGA,184155.10,4138.0384979,N,07032.4223571,W,1,22,0.7,13.337,M,-29.745,M,0.0,*55
###2023-12-09 13:41:56.005421$GPGSA,A,3,03,04,09,16,26,28,29,31,,,,,1.1,0.7,0.9*32
###2023-12-09 13:41:56.007087$GLGSA,A,3,65,72,73,74,75,,,,,,,,1.1,0.7,0.9*23
###2023-12-09 13:41:56.008661$GAGSA,A,3,04,19,21,27,,,,,,,,,1.1,0.7,0.9*27
###2023-12-09 13:41:56.010301$GBGSA,A,3,12,24,25,33,35,,,,,,,,1.1,0.7,0.9*2A
###2023-12-09 13:41:56.012632$GPGSV,2,1,08,03,24,243,35,04,49,306,44,09,15,317,39,16,70,226,45*7D
###2023-12-09 13:41:56.014986$GPGSV,2,2,08,26,80,041,49,28,35,088,45,29,19,044,42,31,57,071,47*78
###2023-12-09 13:41:56.017308$GLGSV,2,1,05,65,41,315,43,72,59,216,46,73,20,054,41,74,57,019,43*67
###2023-12-09 13:41:56.018770$GLGSV,2,2,05,75,45,276,45,,,,,,,,,,,,*51
###2023-12-09 13:41:56.021094$GAGSV,1,1,04,04,42,309,44,19,69,180,41,21,74,044,47,27,20,051,40*6B
###2023-12-09 13:41:56.023466$GBGSV,2,1,05,12,17,124,42,24,60,049,49,25,53,279,47,33,43,215,46*64
###2023-12-09 13:41:56.024927$GBGSV,2,2,05,35,16,054,44,,,,,,,,,,,,*5E
###2023-12-09 13:41:56.026247$GNVTG,279.07,T,,M,1.32,N,2.45,K,A*2B
###2023-12-09 13:41:56.027873$GNGST,184155.10,6.400,,,,0.130,0.095,0.220*66
###2023-12-09 13:41:56.029168$GNZDA,184155.10,09,12,2023,00,00*7C
###2023-12-09 13:41:56.029806$GNEBP,,,,,,M*13
###2023-12-09 13:41:56.197800$GNGGA,184155.30,4138.0385094,N,07032.4224527,W,1,22,0.7,13.345,M,-29.745,M,0.0,*5D
###2023-12-09 13:41:56.396629$GNGGA,184155.50,4138.0385201,N,07032.4225468,W,1,22,0.7,13.347,M,-29.745,M,0.0,*5C
###2023-12-09 13:41:56.597353$GNGGA,184155.70,4138.0385343,N,07032.4226423,W,1,22,0.7,13.342,M,-29.745,M,0.0,*50
###2023-12-09 13:41:56.798078$GNGGA,184155.90,4138.0385478,N,07032.4227348,W,1,23,0.7,13.338,M,-29.745,M,0.0,*56
###2023-12-09 13:41:57.003381$GNRMC,184156.10,A,4138.0385601,N,07032.4228228,W,1.17,279.43,091223,,,A*5E
###2023-12-09 13:41:57.006257$GNGGA,184156.10,4138.0385601,N,07032.4228228,W,1,23,0.7,13.339,M,-29.745,M,0.0,*58
###2023-12-09 13:41:57.008130$GPGSA,A,3,03,04,09,16,26,28,29,31,,,,,1.1,0.7,0.9*32
###2023-12-09 13:41:57.009785$GLGSA,A,3,65,72,73,74,75,,,,,,,,1.1,0.7,0.9*23
###2023-12-09 13:41:57.011380$GAGSA,A,3,04,19,21,27,,,,,,,,,1.1,0.7,0.9*27
###2023-12-09 13:41:57.013025$GBGSA,A,3,12,24,25,33,35,,,,,,,,1.1,0.7,0.9*2A
###2023-12-09 13:41:57.015357$GPGSV,2,1,08,03,24,243,35,04,49,306,44,09,15,317,40,16,70,226,46*70
###2023-12-09 13:41:57.017687$GPGSV,2,2,08,26,80,041,49,28,35,088,44,29,19,044,42,31,57,071,48*76
###2023-12-09 13:41:57.020020$GLGSV,2,1,05,65,41,315,42,72,59,216,46,73,20,054,41,74,57,019,43*66
###2023-12-09 13:41:57.021475$GLGSV,2,2,05,75,45,276,45,,,,,,,,,,,,*51
###2023-12-09 13:41:57.023810$GAGSV,1,1,04,04,42,309,43,19,69,180,40,21,74,044,46,27,20,051,40*6C
###2023-12-09 13:41:57.026130$GBGSV,2,1,05,12,17,124,40,24,60,049,49,25,53,279,46,33,43,215,46*67
###2023-12-09 13:41:57.027591$GBGSV,2,2,05,35,16,054,44,,,,,,,,,,,,*5E
###2023-12-09 13:41:57.028909$GNVTG,279.43,T,,M,1.17,N,2.16,K,A*2A
###2023-12-09 13:41:57.030520$GNGST,184156.10,6.600,,,,0.130,0.095,0.220*67
###2023-12-09 13:41:57.031818$GNZDA,184156.10,09,12,2023,00,00*7F
###2023-12-09 13:41:57.032718$GNEBP,,,,,,M*13
###2023-12-09 13:41:57.204178$GNGGA,184156.30,4138.0385695,N,07032.4229096,W,1,22,0.7,13.338,M,-29.745,M,0.0,*51
###2023-12-09 13:41:57.396192$GNGGA,184156.50,4138.0385806,N,07032.4229938,W,1,21,0.7,13.343,M,-29.745,M,0.0,*51
###2023-12-09 13:41:57.595864$GNGGA,184156.70,4138.0385911,N,07032.4230762,W,1,22,0.7,13.341,M,-29.745,M,0.0,*5C
###2023-12-09 13:41:57.798939$GNGGA,184156.90,4138.0386034,N,07032.4231603,W,1,22,0.7,13.346,M,-29.745,M,0.0,*5F
###2023-12-09 13:41:58.009478$GNRMC,184157.10,A,4138.0386157,N,07032.4232444,W,1.13,278.17,091223,,,A*5B
###2023-12-09 13:41:58.012367$GNGGA,184157.10,4138.0386157,N,07032.4232444,W,1,22,0.7,13.347,M,-29.745,M,0.0,*51
###2023-12-09 13:41:58.014230$GPGSA,A,3,03,04,09,16,26,28,29,31,,,,,1.2,0.7,0.9*31
