###2023-12-09 13:34:59.004014$GPGSA,A,3,03,04,16,26,28,29,31,,,,,,1.0,0.6,0.9*3B
###2023-12-09 13:34:59.005763$GLGSA,A,3,65,71,72,73,74,75,,,,,,,1.0,0.6,0.9*25
###2023-12-09 13:34:59.007365$GAGSA,A,3,04,19,21,27,,,,,,,,,1.0,0.6,0.9*27
###2023-12-09 13:34:59.009147$GBGSA,A,3,12,14,24,25,26,33,35,,,,,,1.0,0.6,0.9*2B
###2023-12-09 13:34:59.011491$GPGSV,2,1,07,03,27,247,44,04,46,308,45,16,66,222,46,26,84,040,48*71
###2023-12-09 13:34:59.013537$GPGSV,2,2,07,28,38,084,44,29,21,047,39,31,59,066,46,,,,*4E
###2023-12-09 13:34:59.015882$GLGSV,2,1,06,65,39,318,44,71,22,175,35,72,62,220,46,73,22,052,42*66
###2023-12-09 13:34:59.017626$GLGSV,2,2,06,74,59,015,43,75,44,272,49,,,,,,,,*67
###2023-12-09 13:34:59.019961$GAGSV,1,1,04,04,40,310,45,19,72,181,40,21,77,046,46,27,22,050,40*69
###2023-12-09 13:34:59.022289$GBGSV,2,1,07,12,15,126,40,14,29,190,39,24,62,046,48,25,51,276,48*65
###2023-12-09 13:34:59.024338$GBGSV,2,2,07,26,16,071,43,33,45,217,47,35,16,056,44,,,,*5A
###2023-12-09 13:34:59.025663$GNVTG,162.67,T,,M,2.10,N,3.89,K,A*26
###2023-12-09 13:34:59.027315$GNGST,183458.10,5.700,,,,0.094,0.068,0.150*60
###2023-12-09 13:34:59.028603$GNZDA,183458.10,09,12,2023,00,00*73
###2023-12-09 13:34:59.029238$GNEBP,,,,,,M*13
###2023-12-09 13:34:59.196341$GNGGA,183458.30,4138.0412554,N,07032.4159635,W,1,25,0.6,13.332,M,-29.745,M,0.0,*5D
###2023-12-09 13:34:59.395786$GNGGA,183458.50,4138.0411473,N,07032.4159041,W,1,25,0.6,13.331,M,-29.745,M,0.0,*5A
###2023-12-09 13:34:59.595687$GNGGA,183458.70,4138.0410330,N,07032.4158546,W,1,25,0.6,13.332,M,-29.745,M,0.0,*59
###2023-12-09 13:34:59.796479$GNGGA,183458.90,4138.0409215,N,07032.4158161,W,1,25,0.6,13.341,M,-29.745,M,0.0,*5C
###2023-12-09 13:34:59.997958$GNRMC,183459.10,A,4138.0408118,N,07032.4157488,W,2.14,148.03,091223,,,A*5C
###2023-12-09 13:35:00.000833$GNGGA,183459.10,4138.0408118,N,07032.4157488,W,1,25,0.6,13.339,M,-29.745,M,0.0,*58
###2023-12-09 13:35:00.002630$GPGSA,A,3,03,04,16,26,28,29,31,,,,,,1.0,0.6,0.9*3B
###2023-12-09 13:35:00.004339$GLGSA,A,3,65,71,72,73,74,75,,,,,,,1.0,0.6,0.9*25
###2023-12-09 13:35:00.005916$GAGSA,A,3,04,19,21,27,,,,,,,,,1.0,0.6,0.9*27
###2023-12-09 13:35:00.007699$GBGSA,A,3,12,14,24,25,26,33,35,,,,,,1.0,0.6,0.9*2B
###2023-12-09 13:35:00.010022$GPGSV,2,1,07,03,27,247,44,04,46,308,45,16,66,222,47,26,84,040,47*7F
###2023-12-09 13:35:00.012067$GPGSV,2,2,07,28,38,084,44,29,21,047,42,31,59,066,46,,,,*42
###2023-12-09 13:35:00.014386$GLGSV,2,1,06,65,39,318,44,71,22,175,39,72,62,220,46,73,22,052,43*6B
###2023-12-09 13:35:00.016137$GLGSV,2,2,06,74,59,015,43,75,44,272,47,,,,,,,,*69
###2023-12-09 13:35:00.018457$GAGSV,1,1,04,04,40,310,44,19,72,181,40,21,77,046,45,27,22,050,41*6A
###2023-12-09 13:35:00.020798$GBGSV,2,1,07,12,15,126,39,14,29,190,37,24,62,046,48,25,51,276,47*6A
###2023-12-09 13:35:00.022843$GBGSV,2,2,07,26,16,071,43,33,45,217,47,35,16,056,43,,,,*5D
###2023-12-09 13:35:00.024164$GNVTG,148.03,T,,M,2.14,N,3.96,K,A*26
###2023-12-09 13:35:00.025777$GNGST,183459.10,5.700,,,,0.095,0.068,0.150*60
###2023-12-09 13:35:00.027076$GNZDA,183459.10,09,12,2023,00,00*72
###2023-12-09 13:35:00.027714$GNEBP,,,,,,M*13
###2023-12-09 13:35:00.196757$GNGGA,183459.30,4138.0407229,N,07032.4156625,W,1,25,0.6,13.315,M,-29.745,M,0.0,*5E
###2023-12-09 13:35:00.394350$GNGGA,183459.50,4138.0406319,N,07032.4155955,W,1,26,0.6,13.327,M,-29.745,M,0.0,*52
###2023-12-09 13:35:00.595740$GNGGA,183459.70,4138.0405160,N,07032.4155347,W,1,26,0.6,13.343,M,-29.745,M,0.0,*54
###2023-12-09 13:35:00.796684$GNGGA,183459.90,4138.0404168,N,07032.4154562,W,1,26,0.6,13.326,M,-29.745,M,0.0,*50
###2023-12-09 13:35:00.998937$GNRMC,183500.10,A,4138.0403450,N,07032.4153659,W,1.81,135.47,091223,,,A*5C
###2023-12-09 13:35:01.001817$GNGGA,183500.10,4138.0403450,N,07032.4153659,W,1,25,0.6,13.321,M,-29.745,M,0.0,*54
###2023-12-09 13:35:01.003639$GPGSA,A,3,03,04,16,26,28,29,31,,,,,,1.1,0.6,0.9*3A
###2023-12-09 13:35:01.005364$GLGSA,A,3,65,72,73,74,75,83,,,,,,,1.1,0.6,0.9*29
###2023-12-09 13:35:01.006965$GAGSA,A,3,04,19,21,27,,,,,,,,,1.1,0.6,0.9*26
###2023-12-09 13:35:01.008749$GBGSA,A,3,12,14,24,25,26,33,35,,,,,,1.1,0.6,0.9*2A
###2023-12-09 13:35:01.011096$GPGSV,2,1,07,03,27,247,41,04,46,308,44,16,66,222,46,26,84,040,48*75
###2023-12-09 13:35:01.013144$GPGSV,2,2,07,28,38,084,44,29,21,047,43,31,59,066,46,,,,*43
###2023-12-09 13:35:01.015492$GLGSV,2,1,06,65,39,318,44,72,62,220,46,73,22,052,45,74,59,015,42*6F
###2023-12-09 13:35:01.017245$GLGSV,2,2,06,75,44,272,46,83,15,047,35,,,,,,,,*6E
###2023-12-09 13:35:01.019589$GAGSV,1,1,04,04,40,310,44,19,72,181,41,21,77,046,46,27,22,050,42*6B
###2023-12-09 13:35:01.021928$GBGSV,2,1,07,12,15,126,38,14,29,190,35,24,62,046,48,25,51,276,46*68
###2023-12-09 13:35:01.023979$GBGSV,2,2,07,26,16,071,43,33,45,217,47,35,16,056,43,,,,*5D
###2023-12-09 13:35:01.025310$GNVTG,135.47,T,,M,1.81,N,3.35,K,A*2A
###2023-12-09 13:35:01.026938$GNGST,183500.10,6.400,,,,0.096,0.068,0.150*6E
###2023-12-09 13:35:01.028234$GNZDA,183500.10,09,12,2023,00,00*7F
###2023-12-09 13:35:01.028872$GNEBP,,,,,,M*13
###2023-12-09 13:35:01.196458$GNGGA,183500.30,4138.0402620,N,07032.4152675,W,1,25,0.6,13.334,M,-29.745,M,0.0,*59
###2023-12-09 13:35:01.394583$GNGGA,183500.50,4138.0401658,N,07032.4151795,W,1,25,0.6,13.329,M,-29.745,M,0.0,*53
###2023-12-09 13:35:01.594534$GNGGA,183500.70,4138.0400743,N,07032.4150885,W,1,25,0.6,13.328,M,-29.745,M,0.0,*55
###2023-12-09 13:35:01.795566$GNGGA,183500.90,4138.0399963,N,07032.4149856,W,1,25,0.6,13.337,M,-29.745,M,0.0,*58
###2023-12-09 13:35:01.999067$GNRMC,183501.10,A,4138.0399280,N,07032.4148696,W,1.98,126.12,091223,,,A*51
###2023-12-09 13:35:02.001932$GNGGA,183501.10,4138.0399280,N,07032.4148696,W,1,25,0.6,13.335,M,-29.745,M,0.0,*56
###2023-12-09 13:35:02.003750$GPGSA,A,3,03,04,16,26,28,29,31,,,,,,1.1,0.6,0.9*3A
###2023-12-09 13:35:02.005477$GLGSA,A,3,65,72,73,74,75,83,,,,,,,1.1,0.6,0.9*29
###2023-12-09 13:35:02.007079$GAGSA,A,3,04,19,21,27,,,,,,,,,1.1,0.6,0.9*26
###2023-12-09 13:35:02.008868$GBGSA,A,3,12,14,24,25,26,33,35,,,,,,1.1,0.6,0.9*2A
###2023-12-09 13:35:02.011213$GPGSV,2,1,07,03,27,247,40,04,46,308,44,16,66,222,46,26,84,040,48*74
###2023-12-09 13:35:02.013263$GPGSV,2,2,07,28,38,084,45,29,21,047,43,31,59,066,46,,,,*42
###2023-12-09 13:35:02.015614$GLGSV,2,1,06,65,39,318,42,72,62,220,46,73,22,052,43,74,59,015,42*6F
###2023-12-09 13:35:02.017378$GLGSV,2,2,06,75,44,272,47,83,15,047,36,,,,,,,,*6C
###2023-12-09 13:35:02.019726$GAGSV,1,1,04,04,40,310,44,19,72,181,41,21,77,046,46,27,22,050,42*6B
###2023-12-09 13:35:02.022071$GBGSV,2,1,07,12,15,126,39,14,29,190,38,24,62,046,48,25,51,276,48*6A
###2023-12-09 13:35:02.024126$GBGSV,2,2,07,26,16,071,45,33,45,217,48,35,16,056,46,,,,*51
###2023-12-09 13:35:02.025462$GNVTG,126.12,T,,M,1.98,N,3.67,K,A*27
###2023-12-09 13:35:02.027125$GNGST,183501.10,5.800,,,,0.098,0.068,0.150*6E
###2023-12-09 13:35:02.028424$GNZDA,183501.10,09,12,2023,00,00*7E
###2023-12-09 13:35:02.029062$GNEBP,,,,,,M*13
###2023-12-09 13:35:02.196702$GNGGA,183501.30,4138.0398543,N,07032.4147544,W,1,24,0.7,13.333,M,-29.745,M,0.0,*58
###2023-12-09 13:35:02.396706$GNGGA,183501.50,4138.0397789,N,07032.4146410,W,1,24,0.7,13.342,M,-29.745,M,0.0,*52
###2023-12-09 13:35:02.595485$GNGGA,183501.70,4138.0397034,N,07032.4145226,W,1,25,0.6,13.341,M,-29.745,M,0.0,*52
###2023-12-09 13:35:02.796372$GNGGA,183501.90,4138.0396449,N,07032.4143894,W,1,24,0.7,13.341,M,-29.745,M,0.0,*56
###2023-12-09 13:35:02.998874$GNRMC,183502.10,A,4138.0395954,N,07032.4142565,W,2.04,116.60,091223,,,A*59
###2023-12-09 13:35:03.001749$GNGGA,183502.10,4138.0395954,N,07032.4142565,W,1,24,0.7,13.342,M,-29.745,M,0.0,*5E
###2023-12-09 13:35:03.003557$GPGSA,A,3,03,04,16,26,28,29,31,,,,,,1.1,0.7,0.9*3B
###2023-12-09 13:35:03.005270$GLGSA,A,3,65,72,73,74,75,83,,,,,,,1.1,0.7,0.9*28
###2023-12-09 13:35:03.006864$GAGSA,A,3,04,19,21,27,,,,,,,,,1.1,0.7,0.9*27
###2023-12-09 13:35:03.008642$GBGSA,A,3,12,14,24,25,26,33,35,,,,,,1.1,0.7,0.9*2B
###2023-12-09 13:35:03.010975$GPGSV,2,1,07,03,27,247,40,04,46,308,45,16,66,222,46,26,84,040,48*75
###2023-12-09 13:35:03.013009$GPGSV,2,2,07,28,38,084,43,29,21,047,42,31,59,066,46,,,,*45
###2023-12-09 13:35:03.015343$GLGSV,2,1,06,65,39,318,43,72,62,220,45,73,22,052,44,74,59,015,41*69
###2023-12-09 13:35:03.017329$GLGSV,2,2,06,75,44,272,46,83,15,047,35,,,,,,,,*6E
###2023-12-09 13:35:03.019680$GAGSV,1,1,04,04,40,310,43,19,72,181,41,21,77,046,46,27,22,050,42*6C
###2023-12-09 13:35:03.022018$GBGSV,2,1,07,12,15,126,39,14,29,190,37,24,62,046,46,25,51,276,45*66
###2023-12-09 13:35:03.024079$GBGSV,2,2,07,26,16,071,42,33,45,217,48,35,16,056,45,,,,*55
###2023-12-09 13:35:03.025411$GNVTG,116.60,T,,M,2.04,N,3.78,K,A*29
###2023-12-09 13:35:03.027074$GNGST,183502.10,6.000,,,,0.100,0.068,0.150*66
###2023-12-09 13:35:03.028367$GNZDA,183502.10,09,12,2023,00,00*7D
###2023-12-09 13:35:03.029005$GNEBP,,,,,,M*13
###2023-12-09 13:35:03.202220$GNGGA,183502.30,4138.0395445,N,07032.4141221,W,1,25,0.6,13.346,M,-29.745,M,0.0,*51
