###2023-12-09 13:46:37.206437$GNGGA,184636.30,4138.0395143,N,07032.4386854,W,1,18,0.7,15.621,M,-29.746,M,0.0,*5E
###2023-12-09 13:46:37.405919$GNGGA,184636.50,4138.0395142,N,07032.4386836,W,1,18,0.7,15.626,M,-29.746,M,0.0,*5A
###2023-12-09 13:46:37.605049$GNGGA,184636.70,4138.0395131,N,07032.4386823,W,1,18,0.7,15.623,M,-29.746,M,0.0,*5D
###2023-12-09 13:46:37.805515$GNGGA,184636.90,4138.0395117,N,07032.4386807,W,1,18,0.7,15.624,M,-29.746,M,0.0,*56
###2023-12-09 13:46:38.009596$GNRMC,184637.10,A,4138.0395114,N,07032.4386793,W,0.04,243.17,091223,,,A*57
###2023-12-09 13:46:38.012476$GNGGA,184637.10,4138.0395114,N,07032.4386793,W,1,18,0.7,15.624,M,-29.746,M,0.0,*5E
###2023-12-09 13:46:38.014197$GPGSA,A,3,04,16,26,28,29,31,,,,,,,1.3,0.7,1.1*33
###2023-12-09 13:46:38.015850$GLGSA,A,3,65,72,73,75,83,,,,,,,,1.3,0.7,1.1*20
###2023-12-09 13:46:38.017359$GAGSA,A,3,04,21,27,,,,,,,,,,1.3,0.7,1.1*24
###2023-12-09 13:46:38.018941$GBGSA,A,3,12,24,25,33,,,,,,,,,1.3,0.7,1.1*27
###2023-12-09 13:46:38.021246$GPGSV,2,1,06,04,51,304,47,16,72,228,41,26,78,041,38,28,34,089,46*7C
###2023-12-09 13:46:38.022993$GPGSV,2,2,06,29,18,043,42,31,56,073,49,,,,,,,,*74
###2023-12-09 13:46:38.025300$GLGSV,2,1,05,65,43,312,45,72,57,214,39,73,18,056,37,75,47,279,46*69
###2023-12-09 13:46:38.026750$GLGSV,2,2,05,83,16,042,36,,,,,,,,,,,,*5F
###2023-12-09 13:46:38.028765$GAGSV,1,1,03,04,43,308,45,21,72,043,41,27,19,051,43,,,,*58
###2023-12-09 13:46:38.031085$GBGSV,1,1,04,12,19,122,42,24,58,052,48,25,54,282,41,33,40,213,37*68
###2023-12-09 13:46:38.032411$GNVTG,243.17,T,,M,0.04,N,0.07,K,A*23
###2023-12-09 13:46:38.034014$GNGST,184637.10,7.300,,,,0.190,0.120,0.320*67
###2023-12-09 13:46:38.035310$GNZDA,184637.10,09,12,2023,00,00*7F
###2023-12-09 13:46:38.035948$GNEBP,,,,,,M*13
###2023-12-09 13:46:38.206114$GNGGA,184637.30,4138.0395117,N,07032.4386795,W,1,18,0.7,15.619,M,-29.746,M,0.0,*57
###2023-12-09 13:46:38.405978$GNGGA,184637.50,4138.0395124,N,07032.4386788,W,1,18,0.7,15.615,M,-29.746,M,0.0,*51
###2023-12-09 13:46:38.605285$GNGGA,184637.70,4138.0395120,N,07032.4386779,W,1,18,0.7,15.617,M,-29.746,M,0.0,*5B
###2023-12-09 13:46:38.804627$GNGGA,184637.90,4138.0395123,N,07032.4386770,W,1,18,0.7,15.612,M,-29.746,M,0.0,*5A
###2023-12-09 13:46:39.007259$GNRMC,184638.10,A,4138.0395115,N,07032.4386770,W,0.02,243.17,091223,,,A*52
###2023-12-09 13:46:39.010099$GNGGA,184638.10,4138.0395115,N,07032.4386770,W,1,18,0.7,15.607,M,-29.746,M,0.0,*5C
###2023-12-09 13:46:39.011822$GPGSA,A,3,04,16,26,28,29,31,,,,,,,1.3,0.7,1.1*33
###2023-12-09 13:46:39.013455$GLGSA,A,3,65,72,73,75,83,,,,,,,,1.3,0.7,1.1*20
###2023-12-09 13:46:39.014974$GAGSA,A,3,04,21,27,,,,,,,,,,1.3,0.7,1.1*24
###2023-12-09 13:46:39.016543$GBGSA,A,3,12,24,25,33,,,,,,,,,1.3,0.7,1.1*27
###2023-12-09 13:46:39.018866$GPGSV,2,1,06,04,51,304,47,16,72,228,41,26,78,041,38,28,34,089,46*7C
###2023-12-09 13:46:39.020611$GPGSV,2,2,06,29,18,043,42,31,56,073,49,,,,,,,,*74
###2023-12-09 13:46:39.022929$GLGSV,2,1,05,65,43,312,45,72,57,214,39,73,18,056,37,75,47,279,46*69
###2023-12-09 13:46:39.024378$GLGSV,2,2,05,83,16,042,36,,,,,,,,,,,,*5F
###2023-12-09 13:46:39.026395$GAGSV,1,1,03,04,43,308,45,21,72,043,41,27,19,051,43,,,,*58
###2023-12-09 13:46:39.028720$GBGSV,1,1,04,12,19,122,42,24,58,052,48,25,54,282,41,33,40,213,37*68
###2023-12-09 13:46:39.030042$GNVTG,243.17,T,,M,0.02,N,0.04,K,A*26
###2023-12-09 13:46:39.031661$GNGST,184638.10,7.600,,,,0.190,0.120,0.320*6D
###2023-12-09 13:46:39.032946$GNZDA,184638.10,09,12,2023,00,00*70
###2023-12-09 13:46:39.033581$GNEBP,,,,,,M*13
###2023-12-09 13:46:39.213074$GNGGA,184638.30,4138.0395106,N,07032.4386762,W,1,18,0.7,15.603,M,-29.746,M,0.0,*5B
###2023-12-09 13:46:39.406684$GNGGA,184638.50,4138.0395104,N,07032.4386753,W,1,18,0.7,15.603,M,-29.746,M,0.0,*5D
###2023-12-09 13:46:39.606048$GNGGA,184638.70,4138.0395100,N,07032.4386747,W,1,19,0.7,15.599,M,-29.746,M,0.0,*5F
###2023-12-09 13:46:39.808150$GNGGA,184638.90,4138.0395085,N,07032.4386738,W,1,18,0.7,15.596,M,-29.746,M,0.0,*5B
###2023-12-09 13:46:40.007724$GNRMC,184639.10,A,4138.0395082,N,07032.4386731,W,0.02,243.17,091223,,,A*59
###2023-12-09 13:46:40.010604$GNGGA,184639.10,4138.0395082,N,07032.4386731,W,1,19,0.7,15.593,M,-29.746,M,0.0,*58
###2023-12-09 13:46:40.012326$GPGSA,A,3,04,16,26,28,29,31,,,,,,,1.3,0.7,1.1*33
###2023-12-09 13:46:40.013965$GLGSA,A,3,65,72,73,75,83,,,,,,,,1.3,0.7,1.1*20
###2023-12-09 13:46:40.015484$GAGSA,A,3,04,21,27,,,,,,,,,,1.3,0.7,1.1*24
###2023-12-09 13:46:40.017116$GBGSA,A,3,12,24,25,33,35,,,,,,,,1.3,0.7,1.1*21
###2023-12-09 13:46:40.019441$GPGSV,2,1,06,04,51,304,47,16,72,228,42,26,78,041,38,28,34,089,46*7F
###2023-12-09 13:46:40.021172$GPGSV,2,2,06,29,18,043,42,31,56,073,49,,,,,,,,*74
###2023-12-09 13:46:40.023495$GLGSV,2,1,05,65,43,312,45,72,57,214,39,73,18,056,37,75,47,279,46*69
###2023-12-09 13:46:40.024946$GLGSV,2,2,05,83,16,042,35,,,,,,,,,,,,*5C
###2023-12-09 13:46:40.026981$GAGSV,1,1,03,04,43,308,45,21,72,043,41,27,19,051,43,,,,*58
###2023-12-09 13:46:40.029305$GBGSV,2,1,05,12,19,122,42,24,58,052,48,25,54,282,41,33,40,213,36*6B
###2023-12-09 13:46:40.030766$GBGSV,2,2,05,35,16,051,35,,,,,,,,,,,,*5D
###2023-12-09 13:46:40.032086$GNVTG,243.17,T,,M,0.02,N,0.04,K,A*26
###2023-12-09 13:46:40.033689$GNGST,184639.10,8.300,,,,0.190,0.120,0.320*66
###2023-12-09 13:46:40.034981$GNZDA,184639.10,09,12,2023,00,00*71
###2023-12-09 13:46:40.035619$GNEBP,,,,,,M*13
###2023-12-09 13:46:40.203942$GNGGA,184639.30,4138.0395079,N,07032.4386725,W,1,19,0.7,15.590,M,-29.746,M,0.0,*58
###2023-12-09 13:46:40.403961$GNGGA,184639.50,4138.0395083,N,07032.4386716,W,1,19,0.7,15.588,M,-29.746,M,0.0,*52
###2023-12-09 13:46:40.603126$GNGGA,184639.70,4138.0395079,N,07032.4386717,W,1,19,0.7,15.586,M,-29.746,M,0.0,*5A
###2023-12-09 13:46:40.805513$GNGGA,184639.90,4138.0395072,N,07032.4386701,W,1,19,0.7,15.583,M,-29.746,M,0.0,*5D
###2023-12-09 13:46:41.006358$GNRMC,184640.10,A,4138.0395074,N,07032.4386693,W,0.00,243.17,091223,,,A*55
###2023-12-09 13:46:41.009237$GNGGA,184640.10,4138.0395074,N,07032.4386693,W,1,19,0.7,15.581,M,-29.746,M,0.0,*55
###2023-12-09 13:46:41.010980$GPGSA,A,3,04,16,26,28,29,31,,,,,,,1.3,0.7,1.1*33
###2023-12-09 13:46:41.012621$GLGSA,A,3,65,72,73,75,83,,,,,,,,1.3,0.7,1.1*20
###2023-12-09 13:46:41.014125$GAGSA,A,3,04,21,27,,,,,,,,,,1.3,0.7,1.1*24
###2023-12-09 13:46:41.015784$GBGSA,A,3,12,24,25,33,35,,,,,,,,1.3,0.7,1.1*21
###2023-12-09 13:46:41.018099$GPGSV,2,1,06,04,51,304,47,16,72,228,42,26,78,041,39,28,34,089,46*7E
###2023-12-09 13:46:41.019854$GPGSV,2,2,06,29,18,043,42,31,56,073,49,,,,,,,,*74
###2023-12-09 13:46:41.022181$GLGSV,2,1,05,65,43,312,45,72,57,214,39,73,18,056,37,75,47,279,46*69
###2023-12-09 13:46:41.023651$GLGSV,2,2,05,83,16,042,35,,,,,,,,,,,,*5C
###2023-12-09 13:46:41.025685$GAGSV,1,1,03,04,43,308,45,21,72,043,41,27,19,051,43,,,,*58
###2023-12-09 13:46:41.028031$GBGSV,2,1,05,12,19,122,41,24,58,052,48,25,54,282,41,33,40,213,36*68
###2023-12-09 13:46:41.029488$GBGSV,2,2,05,35,16,051,36,,,,,,,,,,,,*5E
###2023-12-09 13:46:41.030826$GNVTG,243.17,T,,M,0.00,N,0.00,K,A*20
###2023-12-09 13:46:41.032446$GNGST,184640.10,7.500,,,,0.190,0.120,0.320*61
###2023-12-09 13:46:41.033737$GNZDA,184640.10,09,12,2023,00,00*7F
###2023-12-09 13:46:41.034375$GNEBP,,,,,,M*13
###2023-12-09 13:46:41.204819$GNGGA,184640.30,4138.0395078,N,07032.4386684,W,1,19,0.7,15.571,M,-29.746,M,0.0,*52
###2023-12-09 13:46:41.405867$GNGGA,184640.50,4138.0395084,N,07032.4386664,W,1,19,0.7,15.571,M,-29.746,M,0.0,*59
###2023-12-09 13:46:41.608730$GNGGA,184640.70,4138.0395079,N,07032.4386657,W,1,19,0.7,15.559,M,-29.746,M,0.0,*53
###2023-12-09 13:46:41.804474$GNGGA,184640.90,4138.0395090,N,07032.4386630,W,1,19,0.7,15.556,M,-29.746,M,0.0,*54
###2023-12-09 13:46:42.007475$GNRMC,184641.10,A,4138.0395091,N,07032.4386624,W,0.02,243.17,091223,,,A*51
###2023-12-09 13:46:42.010351$GNGGA,184641.10,4138.0395091,N,07032.4386624,W,1,19,0.7,15.551,M,-29.746,M,0.0,*5E
###2023-12-09 13:46:42.012105$GPGSA,A,3,04,16,26,28,29,31,,,,,,,1.3,0.7,1.1*33
###2023-12-09 13:46:42.013758$GLGSA,A,3,65,72,73,75,83,,,,,,,,1.3,0.7,1.1*20
###2023-12-09 13:46:42.015293$GAGSA,A,3,04,21,27,,,,,,,,,,1.3,0.7,1.1*24
###2023-12-09 13:46:42.016943$GBGSA,A,3,12,24,25,33,35,,,,,,,,1.3,0.7,1.1*21
###2023-12-09 13:46:42.019557$GPGSV,2,1,06,04,51,304,47,16,72,228,42,26,78,041,39,28,34,089,46*7E
###2023-12-09 13:46:42.021320$GPGSV,2,2,06,29,18,043,42,31,56,073,49,,,,,,,,*74
###2023-12-09 13:46:42.023677$GLGSV,2,1,05,65,43,312,45,72,57,214,39,73,18,056,37,75,47,279,46*69
###2023-12-09 13:46:42.025148$GLGSV,2,2,05,83,16,042,35,,,,,,,,,,,,*5C
###2023-12-09 13:46:42.027196$GAGSV,1,1,03,04,43,308,45,21,72,043,41,27,19,051,43,,,,*58
###2023-12-09 13:46:42.029523$GBGSV,2,1,05,12,19,122,41,24,58,052,48,25,54,282,41,33,40,213,36*68
###2023-12-09 13:46:42.030988$GBGSV,2,2,05,35,16,051,37,,,,,,,,,,,,*5F
###2023-12-09 13:46:42.032314$GNVTG,243.17,T,,M,0.02,N,0.04,K,A*26
