###2023-12-09 13:00:55.979021$GBGSA,A,3,14,24,25,26,33,,,,,,,,1.1,0.6,0.9*2F
###2023-12-09 13:00:55.981866$GPGSV,2,1,08,03,35,262,44,04,32,311,44,16,49,212,46,26,79,210,49*7A
###2023-12-09 13:00:55.984709$GPGSV,2,2,08,28,49,070,43,29,25,061,41,31,69,036,46,32,19,140,42*78
###2023-12-09 13:00:55.987536$GLGSV,2,1,06,65,24,327,43,71,41,173,47,72,73,269,46,73,36,041,43*6C
###2023-12-09 13:00:55.989655$GLGSV,2,2,06,74,70,337,42,75,32,253,47,,,,,,,,*62
###2023-12-09 13:00:55.992470$GAGSV,1,1,04,04,29,312,42,19,84,216,41,21,86,120,46,27,33,048,40*60
###2023-12-09 13:00:55.995321$GBGSV,2,1,05,14,43,193,45,24,74,024,49,25,41,262,46,26,26,063,43*6F
###2023-12-09 13:00:55.997078$GBGSV,2,2,05,33,57,233,48,,,,,,,,,,,,*52
###2023-12-09 13:00:55.998657$GNVTG,60.71,T,,M,3.62,N,6.70,K,A*15
###2023-12-09 13:00:56.000655$GNGST,180055.10,18.000,,,,0.079,0.067,0.160*5E
###2023-12-09 13:00:56.002208$GNZDA,180055.10,09,12,2023,00,00*79
###2023-12-09 13:00:56.003040$GNEBP,,,,,,M*13
###2023-12-09 13:00:56.163949$GNGGA,180055.30,4138.0350342,N,07032.2822847,W,1,24,0.6,13.399,M,-29.744,M,0.0,*5E
###2023-12-09 13:00:56.363780$GNGGA,180055.50,4138.0351216,N,07032.2820596,W,1,24,0.6,13.387,M,-29.744,M,0.0,*55
###2023-12-09 13:00:56.564163$GNGGA,180055.70,4138.0352182,N,07032.2818282,W,1,24,0.6,13.390,M,-29.744,M,0.0,*55
###2023-12-09 13:00:56.764590$GNGGA,180055.90,4138.0352924,N,07032.2815944,W,1,24,0.6,13.377,M,-29.744,M,0.0,*5A
###2023-12-09 13:00:56.972333$GNRMC,180056.10,A,4138.0353786,N,07032.2813715,W,3.48,62.14,091223,,,A*63
###2023-12-09 13:00:56.975218$GNGGA,180056.10,4138.0353786,N,07032.2813715,W,1,24,0.6,13.408,M,-29.744,M,0.0,*55
###2023-12-09 13:00:56.977081$GPGSA,A,3,03,04,16,26,28,29,31,32,,,,,1.1,0.6,0.9*3B
###2023-12-09 13:00:56.978807$GLGSA,A,3,65,71,72,73,74,75,,,,,,,1.1,0.6,0.9*24
###2023-12-09 13:00:56.980390$GAGSA,A,3,04,19,21,27,,,,,,,,,1.1,0.6,0.9*26
###2023-12-09 13:00:56.982035$GBGSA,A,3,14,24,25,26,33,,,,,,,,1.1,0.6,0.9*2F
###2023-12-09 13:00:56.984368$GPGSV,2,1,08,03,35,262,44,04,32,311,43,16,49,212,46,26,79,210,48*7C
###2023-12-09 13:00:56.986709$GPGSV,2,2,08,28,49,070,42,29,25,061,41,31,69,036,46,32,19,140,41*7A
###2023-12-09 13:00:56.989040$GLGSV,2,1,06,65,24,327,43,71,41,173,47,72,73,269,46,73,36,041,42*6D
###2023-12-09 13:00:56.990794$GLGSV,2,2,06,74,70,337,42,75,32,253,47,,,,,,,,*62
###2023-12-09 13:00:56.993124$GAGSV,1,1,04,04,29,312,42,19,84,216,41,21,86,120,46,27,33,048,40*60
###2023-12-09 13:00:56.995464$GBGSV,2,1,05,14,43,193,45,24,74,024,48,25,41,262,46,26,26,063,43*6E
###2023-12-09 13:00:56.996917$GBGSV,2,2,05,33,57,233,48,,,,,,,,,,,,*52
###2023-12-09 13:00:56.998205$GNVTG,62.14,T,,M,3.48,N,6.44,K,A*1B
###2023-12-09 13:00:56.999861$GNGST,180056.10,18.000,,,,0.079,0.067,0.160*5D
###2023-12-09 13:00:57.001147$GNZDA,180056.10,09,12,2023,00,00*7A
###2023-12-09 13:00:57.001784$GNEBP,,,,,,M*13
###2023-12-09 13:00:57.166332$GNGGA,180056.30,4138.0354556,N,07032.2811311,W,1,24,0.6,13.410,M,-29.743,M,0.0,*53
###2023-12-09 13:00:57.362745$GNGGA,180056.50,4138.0355302,N,07032.2808968,W,1,24,0.6,13.380,M,-29.743,M,0.0,*51
###2023-12-09 13:00:57.564313$GNGGA,180056.70,4138.0356271,N,07032.2806802,W,1,24,0.6,13.385,M,-29.743,M,0.0,*53
###2023-12-09 13:00:57.764719$GNGGA,180056.90,4138.0357203,N,07032.2804549,W,1,24,0.6,13.389,M,-29.743,M,0.0,*55
###2023-12-09 13:00:57.967383$GNRMC,180057.10,A,4138.0357935,N,07032.2802086,W,3.50,68.89,091223,,,A*6A
###2023-12-09 13:00:57.970236$GNGGA,180057.10,4138.0357935,N,07032.2802086,W,1,24,0.6,13.370,M,-29.743,M,0.0,*54
###2023-12-09 13:00:57.972108$GPGSA,A,3,03,04,16,26,28,29,31,32,,,,,1.1,0.6,0.9*3B
###2023-12-09 13:00:57.973824$GLGSA,A,3,65,71,72,73,74,75,,,,,,,1.1,0.6,0.9*24
###2023-12-09 13:00:57.975417$GAGSA,A,3,04,19,21,27,,,,,,,,,1.1,0.6,0.9*26
###2023-12-09 13:00:57.977065$GBGSA,A,3,14,24,25,26,33,,,,,,,,1.1,0.6,0.9*2F
###2023-12-09 13:00:57.979402$GPGSV,2,1,08,03,35,262,44,04,32,311,43,16,49,212,46,26,79,210,48*7C
###2023-12-09 13:00:57.981740$GPGSV,2,2,08,28,49,070,43,29,25,061,41,31,69,036,46,32,19,140,43*79
###2023-12-09 13:00:57.984086$GLGSV,2,1,06,65,24,327,43,71,41,173,47,72,73,269,46,73,36,041,42*6D
###2023-12-09 13:00:57.985833$GLGSV,2,2,06,74,70,337,43,75,32,253,47,,,,,,,,*63
###2023-12-09 13:00:57.988169$GAGSV,1,1,04,04,29,312,42,19,84,216,41,21,86,120,46,27,33,048,41*61
###2023-12-09 13:00:57.990496$GBGSV,2,1,05,14,43,193,46,24,74,024,48,25,41,262,46,26,26,063,43*6D
###2023-12-09 13:00:57.991962$GBGSV,2,2,05,33,57,233,47,,,,,,,,,,,,*5D
###2023-12-09 13:00:57.993250$GNVTG,68.89,T,,M,3.50,N,6.48,K,A*10
###2023-12-09 13:00:57.994907$GNGST,180057.10,18.000,,,,0.079,0.067,0.160*5C
###2023-12-09 13:00:57.996193$GNZDA,180057.10,09,12,2023,00,00*7B
###2023-12-09 13:00:57.996830$GNEBP,,,,,,M*13
###2023-12-09 13:00:58.163379$GNGGA,180057.30,4138.0358842,N,07032.2799846,W,1,24,0.6,13.381,M,-29.743,M,0.0,*5F
###2023-12-09 13:00:58.363884$GNGGA,180057.50,4138.0359997,N,07032.2797619,W,1,24,0.6,13.410,M,-29.743,M,0.0,*54
###2023-12-09 13:00:58.568720$GNGGA,180057.70,4138.0361020,N,07032.2795330,W,1,24,0.6,13.400,M,-29.743,M,0.0,*55
###2023-12-09 13:00:58.764409$GNGGA,180057.90,4138.0361974,N,07032.2793071,W,1,24,0.6,13.397,M,-29.743,M,0.0,*5A
###2023-12-09 13:00:58.966405$GNRMC,180058.10,A,4138.0362811,N,07032.2790666,W,3.58,68.34,091223,,,A*66
###2023-12-09 13:00:58.969292$GNGGA,180058.10,4138.0362811,N,07032.2790666,W,1,24,0.6,13.377,M,-29.743,M,0.0,*51
###2023-12-09 13:00:58.971167$GPGSA,A,3,03,04,16,26,28,29,31,32,,,,,1.1,0.6,0.9*3B
###2023-12-09 13:00:58.972886$GLGSA,A,3,65,71,72,73,74,75,,,,,,,1.1,0.6,0.9*24
###2023-12-09 13:00:58.974468$GAGSA,A,3,04,19,21,27,,,,,,,,,1.1,0.6,0.9*26
###2023-12-09 13:00:58.976131$GBGSA,A,3,14,24,25,26,33,,,,,,,,1.1,0.6,0.9*2F
###2023-12-09 13:00:58.978464$GPGSV,2,1,08,03,35,262,44,04,32,311,42,16,49,212,46,26,79,210,48*7D
###2023-12-09 13:00:58.980812$GPGSV,2,2,08,28,49,070,43,29,25,061,40,31,69,036,46,32,19,140,44*7F
###2023-12-09 13:00:58.983153$GLGSV,2,1,06,65,24,327,41,71,41,173,48,72,73,269,46,73,36,041,42*60
###2023-12-09 13:00:58.984900$GLGSV,2,2,06,74,70,337,41,75,32,253,47,,,,,,,,*61
###2023-12-09 13:00:58.987233$GAGSV,1,1,04,04,29,312,41,19,84,216,41,21,86,120,45,27,33,048,41*61
###2023-12-09 13:00:58.989561$GBGSV,2,1,05,14,43,193,46,24,74,024,48,25,41,262,45,26,26,063,42*6F
###2023-12-09 13:00:58.991027$GBGSV,2,2,05,33,57,233,47,,,,,,,,,,,,*5D
###2023-12-09 13:00:58.992317$GNVTG,68.34,T,,M,3.58,N,6.62,K,A*16
###2023-12-09 13:00:58.993967$GNGST,180058.10,18.000,,,,0.079,0.067,0.160*53
###2023-12-09 13:00:58.995269$GNZDA,180058.10,09,12,2023,00,00*74
###2023-12-09 13:00:58.995907$GNEBP,,,,,,M*13
###2023-12-09 13:00:59.162269$GNGGA,180058.30,4138.0363662,N,07032.2788425,W,1,24,0.6,13.355,M,-29.743,M,0.0,*54
###2023-12-09 13:00:59.364123$GNGGA,180058.50,4138.0364661,N,07032.2786285,W,1,24,0.6,13.374,M,-29.743,M,0.0,*57
###2023-12-09 13:00:59.563089$GNGGA,180058.70,4138.0365420,N,07032.2783928,W,1,24,0.6,13.389,M,-29.743,M,0.0,*58
###2023-12-09 13:00:59.763089$GNGGA,180058.90,4138.0366068,N,07032.2781597,W,1,24,0.6,13.403,M,-29.743,M,0.0,*52
###2023-12-09 13:00:59.965218$GNRMC,180059.10,A,4138.0366778,N,07032.2779174,W,3.63,70.25,091223,,,A*61
###2023-12-09 13:00:59.968110$GNGGA,180059.10,4138.0366778,N,07032.2779174,W,1,24,0.6,13.405,M,-29.743,M,0.0,*55
###2023-12-09 13:00:59.969965$GPGSA,A,3,03,04,16,26,28,29,31,32,,,,,1.1,0.6,0.9*3B
###2023-12-09 13:00:59.971690$GLGSA,A,3,65,71,72,73,74,75,,,,,,,1.1,0.6,0.9*24
###2023-12-09 13:00:59.973273$GAGSA,A,3,04,19,21,27,,,,,,,,,1.1,0.6,0.9*26
###2023-12-09 13:00:59.974931$GBGSA,A,3,14,24,25,26,33,,,,,,,,1.1,0.6,0.9*2F
###2023-12-09 13:00:59.977253$GPGSV,2,1,08,03,35,262,46,04,32,311,43,16,49,212,47,26,79,210,50*76
###2023-12-09 13:00:59.979588$GPGSV,2,2,08,28,49,070,44,29,25,061,43,31,69,036,48,32,19,140,44*75
###2023-12-09 13:00:59.981912$GLGSV,2,1,06,65,24,327,43,71,41,173,48,72,73,269,47,73,36,041,43*62
###2023-12-09 13:00:59.983664$GLGSV,2,2,06,74,70,337,42,75,32,253,47,,,,,,,,*62
###2023-12-09 13:00:59.985988$GAGSV,1,1,04,04,29,312,42,19,84,216,42,21,86,120,47,27,33,048,42*60
###2023-12-09 13:00:59.988325$GBGSV,2,1,05,14,43,193,44,24,74,024,48,25,41,262,45,26,26,063,43*6C
###2023-12-09 13:00:59.990055$GBGSV,2,2,05,33,57,233,47,,,,,,,,,,,,*5D
###2023-12-09 13:00:59.991385$GNVTG,70.25,T,,M,3.63,N,6.73,K,A*17
###2023-12-09 13:00:59.993042$GNGST,180059.10,18.000,,,,0.079,0.067,0.160*52
###2023-12-09 13:00:59.994339$GNZDA,180059.10,09,12,2023,00,00*75
###2023-12-09 13:00:59.995032$GNEBP,,,,,,M*13
###2023-12-09 13:01:00.163311$GNGGA,180059.30,4138.0367497,N,07032.2776739,W,1,24,0.6,13.371,M,-29.743,M,0.0,*50
###2023-12-09 13:01:00.363192$GNGGA,180059.50,4138.0368354,N,07032.2774462,W,1,24,0.6,13.372,M,-29.743,M,0.0,*5D
###2023-12-09 13:01:00.563083$GNGGA,180059.70,4138.0369263,N,07032.2772147,W,1,24,0.6,13.409,M,-29.743,M,0.0,*54
###2023-12-09 13:01:00.763329$GNGGA,180059.90,4138.0369971,N,07032.2769681,W,1,24,0.6,13.418,M,-29.743,M,0.0,*55
