###2023-12-09 12:24:38.941030$GBGSV,1,1,04,14,60,201,44,25,29,249,40,26,39,055,48,33,64,265,39*63
###2023-12-09 12:24:38.942274$GNVTG,,T,,M,0.04,N,0.07,K,A*3E
###2023-12-09 12:24:38.943992$GNGST,172438.10,32.000,,,,0.100,0.100,0.220*5C
###2023-12-09 12:24:38.945330$GNZDA,172438.10,09,12,2023,00,00*7B
###2023-12-09 12:24:38.945983$GNEBP,,,,,,M*13
###2023-12-09 12:24:39.118671$GNGGA,172438.30,4138.0392348,N,07032.4366362,W,1,19,0.8,11.638,M,-29.746,M,0.0,*57
###2023-12-09 12:24:39.317486$GNGGA,172438.50,4138.0392329,N,07032.4366382,W,1,19,0.8,11.631,M,-29.746,M,0.0,*51
###2023-12-09 12:24:39.523380$GNGGA,172438.70,4138.0392310,N,07032.4366397,W,1,19,0.8,11.621,M,-29.746,M,0.0,*5C
###2023-12-09 12:24:39.717096$GNGGA,172438.90,4138.0392295,N,07032.4366416,W,1,19,0.8,11.610,M,-29.746,M,0.0,*52
###2023-12-09 12:24:39.915673$GNRMC,172439.10,A,4138.0392271,N,07032.4366415,W,0.04,,091223,,,A*4B
###2023-12-09 12:24:39.918613$GNGGA,172439.10,4138.0392271,N,07032.4366415,W,1,19,0.8,11.601,M,-29.746,M,0.0,*52
###2023-12-09 12:24:39.920517$GPGSA,A,3,03,16,25,26,28,29,31,32,,,,,1.3,0.8,1.0*3C
###2023-12-09 12:24:39.922141$GLGSA,A,3,71,72,73,75,,,,,,,,,1.3,0.8,1.0*20
###2023-12-09 12:24:39.923705$GAGSA,A,3,04,21,27,,,,,,,,,,1.3,0.8,1.0*2A
###2023-12-09 12:24:39.925325$GBGSA,A,3,14,25,26,33,,,,,,,,,1.3,0.8,1.0*2D
###2023-12-09 12:24:39.927693$GPGSV,2,1,08,03,39,283,42,16,32,206,42,25,16,045,41,26,61,205,44*70
###2023-12-09 12:24:39.930068$GPGSV,2,2,08,28,61,050,42,29,24,079,45,31,73,344,35,32,34,131,46*79
###2023-12-09 12:24:39.932456$GLGSV,1,1,04,71,63,167,47,72,61,317,38,73,53,030,47,75,18,237,42*64
###2023-12-09 12:24:39.934578$GAGSV,1,1,03,04,17,310,36,21,73,180,46,27,45,051,46,,,,*50
###2023-12-09 12:24:39.936958$GBGSV,1,1,04,14,60,201,44,25,29,249,40,26,39,055,48,33,64,265,40*6D
###2023-12-09 12:24:39.938126$GNVTG,,T,,M,0.04,N,0.07,K,A*3E
###2023-12-09 12:24:39.939795$GNGST,172439.10,32.000,,,,0.100,0.100,0.220*5D
###2023-12-09 12:24:39.941092$GNZDA,172439.10,09,12,2023,00,00*7A
###2023-12-09 12:24:39.941736$GNEBP,,,,,,M*13
###2023-12-09 12:24:40.116092$GNGGA,172439.30,4138.0392254,N,07032.4366429,W,1,19,0.8,11.592,M,-29.746,M,0.0,*51
###2023-12-09 12:24:40.316512$GNGGA,172439.50,4138.0392236,N,07032.4366426,W,1,19,0.8,11.579,M,-29.746,M,0.0,*59
###2023-12-09 12:24:40.514850$GNGGA,172439.70,4138.0392213,N,07032.4366436,W,1,19,0.8,11.564,M,-29.746,M,0.0,*51
###2023-12-09 12:24:40.715012$GNGGA,172439.90,4138.0392189,N,07032.4366439,W,1,19,0.8,11.548,M,-29.746,M,0.0,*5E
###2023-12-09 12:24:40.918352$GNRMC,172440.10,A,4138.0392162,N,07032.4366430,W,0.02,,091223,,,A*45
###2023-12-09 12:24:40.921250$GNGGA,172440.10,4138.0392162,N,07032.4366430,W,1,19,0.8,11.540,M,-29.746,M,0.0,*5C
###2023-12-09 12:24:40.923143$GPGSA,A,3,03,16,25,26,28,29,31,32,,,,,1.3,0.8,1.0*3C
###2023-12-09 12:24:40.924757$GLGSA,A,3,71,72,73,75,,,,,,,,,1.3,0.8,1.0*20
###2023-12-09 12:24:40.926301$GAGSA,A,3,04,21,27,,,,,,,,,,1.3,0.8,1.0*2A
###2023-12-09 12:24:40.927924$GBGSA,A,3,14,25,26,33,,,,,,,,,1.3,0.8,1.0*2D
###2023-12-09 12:24:40.930266$GPGSV,2,1,08,03,39,283,42,16,32,206,42,25,16,045,41,26,61,205,44*70
###2023-12-09 12:24:40.932632$GPGSV,2,2,08,28,61,050,42,29,24,079,45,31,73,344,36,32,34,131,47*7B
###2023-12-09 12:24:40.934993$GLGSV,1,1,04,71,63,167,46,72,61,317,38,73,53,030,47,75,18,237,42*65
###2023-12-09 12:24:40.937051$GAGSV,1,1,03,04,18,310,36,21,73,180,46,27,45,051,45,,,,*5C
###2023-12-09 12:24:40.939421$GBGSV,1,1,04,14,60,201,44,25,29,249,40,26,39,055,48,33,64,265,40*6D
###2023-12-09 12:24:40.940584$GNVTG,,T,,M,0.02,N,0.04,K,A*3B
###2023-12-09 12:24:40.942268$GNGST,172440.10,32.000,,,,0.100,0.100,0.220*53
###2023-12-09 12:24:40.943596$GNZDA,172440.10,09,12,2023,00,00*74
###2023-12-09 12:24:40.944258$GNEBP,,,,,,M*13
###2023-12-09 12:24:41.115843$GNGGA,172440.30,4138.0392137,N,07032.4366444,W,1,19,0.8,11.526,M,-29.746,M,0.0,*5D
###2023-12-09 12:24:41.316259$GNGGA,172440.50,4138.0392122,N,07032.4366461,W,1,19,0.8,11.517,M,-29.746,M,0.0,*5A
###2023-12-09 12:24:41.515691$GNGGA,172440.70,4138.0392097,N,07032.4366443,W,1,19,0.8,11.508,M,-29.746,M,0.0,*59
###2023-12-09 12:24:41.715000$GNGGA,172440.90,4138.0392075,N,07032.4366445,W,1,18,0.8,11.498,M,-29.746,M,0.0,*54
###2023-12-09 12:24:41.920237$GNRMC,172441.10,A,4138.0392052,N,07032.4366449,W,0.04,,091223,,,A*4E
###2023-12-09 12:24:41.923129$GNGGA,172441.10,4138.0392052,N,07032.4366449,W,1,18,0.8,11.484,M,-29.746,M,0.0,*59
###2023-12-09 12:24:41.924944$GPGSA,A,3,03,16,25,26,28,29,32,,,,,,1.3,0.8,1.1*3F
###2023-12-09 12:24:41.926540$GLGSA,A,3,71,72,73,75,,,,,,,,,1.3,0.8,1.1*21
###2023-12-09 12:24:41.928081$GAGSA,A,3,04,21,27,,,,,,,,,,1.3,0.8,1.1*2B
###2023-12-09 12:24:41.929671$GBGSA,A,3,14,25,26,33,,,,,,,,,1.3,0.8,1.1*2C
###2023-12-09 12:24:41.932026$GPGSV,2,1,07,03,39,283,42,16,32,206,42,25,16,045,40,26,61,205,44*7E
###2023-12-09 12:24:41.934085$GPGSV,2,2,07,28,61,050,42,29,24,079,45,32,34,131,47,,,,*44
###2023-12-09 12:24:41.936441$GLGSV,1,1,04,71,63,167,47,72,61,317,38,73,53,030,47,75,18,237,42*64
###2023-12-09 12:24:41.938499$GAGSV,1,1,03,04,18,310,36,21,73,180,45,27,45,051,46,,,,*5C
###2023-12-09 12:24:41.940844$GBGSV,1,1,04,14,60,201,44,25,29,249,40,26,39,055,48,33,64,265,39*63
###2023-12-09 12:24:41.941992$GNVTG,,T,,M,0.04,N,0.07,K,A*3E
###2023-12-09 12:24:41.943659$GNGST,172441.10,32.000,,,,0.100,0.100,0.220*52
###2023-12-09 12:24:41.944957$GNZDA,172441.10,09,12,2023,00,00*75
###2023-12-09 12:24:41.945604$GNEBP,,,,,,M*13
###2023-12-09 12:24:42.115777$GNGGA,172441.30,4138.0392029,N,07032.4366455,W,1,18,0.8,11.477,M,-29.746,M,0.0,*56
###2023-12-09 12:24:42.316095$GNGGA,172441.50,4138.0392012,N,07032.4366467,W,1,18,0.8,11.471,M,-29.746,M,0.0,*5F
###2023-12-09 12:24:42.515941$GNGGA,172441.70,4138.0391997,N,07032.4366479,W,1,18,0.8,11.460,M,-29.746,M,0.0,*55
###2023-12-09 12:24:42.716073$GNGGA,172441.90,4138.0391973,N,07032.4366489,W,1,18,0.8,11.455,M,-29.746,M,0.0,*58
###2023-12-09 12:24:42.918317$GNRMC,172442.10,A,4138.0391946,N,07032.4366490,W,0.04,,091223,,,A*46
###2023-12-09 12:24:42.921393$GNGGA,172442.10,4138.0391946,N,07032.4366490,W,1,18,0.8,11.443,M,-29.746,M,0.0,*5A
###2023-12-09 12:24:42.923390$GPGSA,A,3,03,16,25,26,28,29,32,,,,,,1.3,0.8,1.1*3F
###2023-12-09 12:24:42.925153$GLGSA,A,3,71,72,73,75,,,,,,,,,1.3,0.8,1.1*21
###2023-12-09 12:24:42.926854$GAGSA,A,3,04,21,27,,,,,,,,,,1.3,0.8,1.1*2B
###2023-12-09 12:24:42.928472$GBGSA,A,3,14,25,26,33,,,,,,,,,1.3,0.8,1.1*2C
###2023-12-09 12:24:42.930854$GPGSV,2,1,07,03,39,283,43,16,32,206,43,25,16,045,41,26,61,205,45*7E
###2023-12-09 12:24:42.932908$GPGSV,2,2,07,28,61,050,42,29,24,079,46,32,34,131,47,,,,*47
###2023-12-09 12:24:42.935269$GLGSV,1,1,04,71,63,167,46,72,61,317,38,73,53,030,47,75,18,237,42*65
###2023-12-09 12:24:42.937337$GAGSV,1,1,03,04,18,310,36,21,73,180,46,27,45,051,46,,,,*5F
###2023-12-09 12:24:42.939701$GBGSV,1,1,04,14,60,201,44,25,29,249,40,26,39,055,47,33,64,265,39*6C
###2023-12-09 12:24:42.940858$GNVTG,,T,,M,0.04,N,0.07,K,A*3E
###2023-12-09 12:24:42.942527$GNGST,172442.10,32.000,,,,0.100,0.100,0.220*51
###2023-12-09 12:24:42.943851$GNZDA,172442.10,09,12,2023,00,00*76
###2023-12-09 12:24:42.944506$GNEBP,,,,,,M*13
###2023-12-09 12:24:43.115778$GNGGA,172442.30,4138.0391914,N,07032.4366490,W,1,18,0.8,11.433,M,-29.746,M,0.0,*58
###2023-12-09 12:24:43.316361$GNGGA,172442.50,4138.0391899,N,07032.4366500,W,1,18,0.8,11.426,M,-29.746,M,0.0,*56
###2023-12-09 12:24:43.515313$GNGGA,172442.70,4138.0391869,N,07032.4366508,W,1,18,0.8,11.413,M,-29.746,M,0.0,*55
###2023-12-09 12:24:43.715588$GNGGA,172442.90,4138.0391853,N,07032.4366512,W,1,18,0.8,11.400,M,-29.746,M,0.0,*5B
###2023-12-09 12:24:43.919288$GNRMC,172443.10,A,4138.0391835,N,07032.4366518,W,0.00,,091223,,,A*47
###2023-12-09 12:24:43.922845$GNGGA,172443.10,4138.0391835,N,07032.4366518,W,1,18,0.8,11.388,M,-29.746,M,0.0,*5F
###2023-12-09 12:24:43.925056$GPGSA,A,3,03,16,25,26,28,29,32,,,,,,1.3,0.8,1.1*3F
###2023-12-09 12:24:43.927035$GLGSA,A,3,71,72,73,75,,,,,,,,,1.3,0.8,1.1*21
###2023-12-09 12:24:43.928916$GAGSA,A,3,04,21,27,,,,,,,,,,1.3,0.8,1.1*2B
###2023-12-09 12:24:43.930889$GBGSA,A,3,14,25,26,33,,,,,,,,,1.3,0.8,1.1*2C
###2023-12-09 12:24:43.933748$GPGSV,2,1,07,03,39,283,44,16,32,206,43,25,16,045,41,26,61,205,45*79
###2023-12-09 12:24:43.936623$GPGSV,2,2,07,28,61,050,42,29,24,079,46,32,34,131,47,,,,*47
###2023-12-09 12:24:43.939505$GLGSV,1,1,04,71,63,167,46,72,61,317,38,73,53,030,47,75,18,237,41*66
###2023-12-09 12:24:43.942008$GAGSV,1,1,03,04,18,310,36,21,73,180,46,27,45,051,47,,,,*5E
###2023-12-09 12:24:43.944882$GBGSV,1,1,04,14,60,201,44,25,29,249,39,26,39,055,47,33,64,265,39*62
###2023-12-09 12:24:43.946302$GNVTG,,T,,M,0.00,N,0.00,K,A*3D
###2023-12-09 12:24:43.948450$GNGST,172443.10,32.000,,,,0.100,0.099,0.220*51
###2023-12-09 12:24:43.950092$GNZDA,172443.10,09,12,2023,00,00*77
###2023-12-09 12:24:43.950920$GNEBP,,,,,,M*13
