###2023-12-09 12:26:08.715203$GNGGA,172607.90,4138.0381960,N,07032.4359080,W,1,18,0.8,9.219,M,-29.746,M,0.0,*6D
###2023-12-09 12:26:08.919830$GNRMC,172608.10,A,4138.0381956,N,07032.4359073,W,0.00,,091223,,,A*4B
###2023-12-09 12:26:08.922872$GNGGA,172608.10,4138.0381956,N,07032.4359073,W,1,18,0.8,9.210,M,-29.746,M,0.0,*6A
###2023-12-09 12:26:08.924915$GPGSA,A,3,03,16,25,26,28,29,31,32,,,,,1.4,0.8,1.1*3A
###2023-12-09 12:26:08.926690$GLGSA,A,3,71,72,73,75,,,,,,,,,1.4,0.8,1.1*26
###2023-12-09 12:26:08.928310$GAGSA,A,3,21,27,,,,,,,,,,,1.4,0.8,1.1*28
###2023-12-09 12:26:08.930059$GBGSA,A,3,14,25,26,33,,,,,,,,,1.4,0.8,1.1*2B
###2023-12-09 12:26:08.932556$GPGSV,2,1,08,03,39,282,45,16,32,206,42,25,15,045,40,26,62,205,44*77
###2023-12-09 12:26:08.935065$GPGSV,2,2,08,28,61,050,42,29,24,078,43,31,73,346,40,32,34,132,47*7C
###2023-12-09 12:26:08.937570$GLGSV,1,1,04,71,62,167,47,72,61,316,45,73,52,030,48,75,18,237,43*61
###2023-12-09 12:26:08.939492$GAGSV,1,1,02,21,74,179,45,27,44,051,45,,,,,,,,*64
###2023-12-09 12:26:08.941976$GBGSV,1,1,04,14,59,200,45,25,30,250,38,26,38,056,48,33,64,263,40*6C
###2023-12-09 12:26:08.943282$GNVTG,,T,,M,0.00,N,0.00,K,A*3D
###2023-12-09 12:26:08.945093$GNGST,172608.10,30.000,,,,0.230,0.220,0.500*5B
###2023-12-09 12:26:08.946510$GNZDA,172608.10,09,12,2023,00,00*7A
###2023-12-09 12:26:08.947309$GNEBP,,,,,,M*13
###2023-12-09 12:26:09.117758$GNGGA,172608.30,4138.0381936,N,07032.4359059,W,1,18,0.8,9.204,M,-29.746,M,0.0,*63
###2023-12-09 12:26:09.316268$GNGGA,172608.50,4138.0381914,N,07032.4359029,W,1,18,0.8,9.196,M,-29.746,M,0.0,*6A
###2023-12-09 12:26:09.517056$GNGGA,172608.70,4138.0381899,N,07032.4359015,W,1,18,0.8,9.187,M,-29.746,M,0.0,*63
###2023-12-09 12:26:09.716870$GNGGA,172608.90,4138.0381885,N,07032.4358995,W,1,18,0.8,9.177,M,-29.746,M,0.0,*6F
###2023-12-09 12:26:09.914665$GNRMC,172609.10,A,4138.0381867,N,07032.4358984,W,0.04,,091223,,,A*4D
###2023-12-09 12:26:09.917492$GNGGA,172609.10,4138.0381867,N,07032.4358984,W,1,18,0.8,9.167,M,-29.746,M,0.0,*6B
###2023-12-09 12:26:09.919386$GPGSA,A,3,03,16,25,26,28,29,31,32,,,,,1.4,0.8,1.1*3A
###2023-12-09 12:26:09.920988$GLGSA,A,3,71,72,73,75,,,,,,,,,1.4,0.8,1.1*26
###2023-12-09 12:26:09.922451$GAGSA,A,3,21,27,,,,,,,,,,,1.4,0.8,1.1*28
###2023-12-09 12:26:09.924064$GBGSA,A,3,14,25,26,33,,,,,,,,,1.4,0.8,1.1*2B
###2023-12-09 12:26:09.926393$GPGSV,2,1,08,03,39,282,45,16,32,206,42,25,15,045,40,26,62,205,44*77
###2023-12-09 12:26:09.928742$GPGSV,2,2,08,28,61,050,42,29,24,078,43,31,73,346,39,32,34,132,47*72
###2023-12-09 12:26:09.931093$GLGSV,1,1,04,71,62,167,47,72,61,316,45,73,52,030,48,75,18,237,43*61
###2023-12-09 12:26:09.932845$GAGSV,1,1,02,21,74,179,44,27,44,051,45,,,,,,,,*65
###2023-12-09 12:26:09.935194$GBGSV,1,1,04,14,59,200,45,25,30,250,38,26,38,056,48,33,64,263,40*6C
###2023-12-09 12:26:09.936336$GNVTG,,T,,M,0.04,N,0.07,K,A*3E
###2023-12-09 12:26:09.937991$GNGST,172609.10,30.000,,,,0.230,0.220,0.500*5A
###2023-12-09 12:26:09.939304$GNZDA,172609.10,09,12,2023,00,00*7B
###2023-12-09 12:26:09.939956$GNEBP,,,,,,M*13
###2023-12-09 12:26:10.114514$GNGGA,172609.30,4138.0381840,N,07032.4358958,W,1,18,0.8,9.161,M,-29.746,M,0.0,*6B
###2023-12-09 12:26:10.314753$GNGGA,172609.50,4138.0381822,N,07032.4358939,W,1,18,0.8,9.151,M,-29.746,M,0.0,*6D
###2023-12-09 12:26:10.514870$GNGGA,172609.70,4138.0381802,N,07032.4358930,W,1,18,0.8,9.147,M,-29.746,M,0.0,*63
###2023-12-09 12:26:10.715093$GNGGA,172609.90,4138.0381781,N,07032.4358909,W,1,18,0.8,9.141,M,-29.746,M,0.0,*65
###2023-12-09 12:26:10.921539$GNRMC,172610.10,A,4138.0381767,N,07032.4358894,W,0.04,,091223,,,A*4A
###2023-12-09 12:26:10.924671$GNGGA,172610.10,4138.0381767,N,07032.4358894,W,1,18,0.8,9.131,M,-29.746,M,0.0,*6F
###2023-12-09 12:26:10.926760$GPGSA,A,3,03,16,25,26,28,29,31,32,,,,,1.4,0.8,1.1*3A
###2023-12-09 12:26:10.928548$GLGSA,A,3,71,72,73,75,,,,,,,,,1.4,0.8,1.1*26
###2023-12-09 12:26:10.930209$GAGSA,A,3,21,27,,,,,,,,,,,1.4,0.8,1.1*28
###2023-12-09 12:26:10.931990$GBGSA,A,3,14,25,26,33,,,,,,,,,1.4,0.8,1.1*2B
###2023-12-09 12:26:10.934558$GPGSV,2,1,08,03,39,282,45,16,32,206,42,25,15,045,40,26,62,205,43*70
###2023-12-09 12:26:10.937113$GPGSV,2,2,08,28,61,050,42,29,24,078,43,31,73,346,39,32,34,132,46*73
###2023-12-09 12:26:10.939653$GLGSV,1,1,04,71,62,167,47,72,61,316,44,73,52,030,48,75,18,237,43*60
###2023-12-09 12:26:10.941604$GAGSV,1,1,02,21,74,179,45,27,44,051,45,,,,,,,,*64
###2023-12-09 12:26:10.944125$GBGSV,1,1,04,14,59,200,45,25,30,250,37,26,38,056,49,33,64,263,40*62
###2023-12-09 12:26:10.945446$GNVTG,,T,,M,0.04,N,0.07,K,A*3E
###2023-12-09 12:26:10.947301$GNGST,172610.10,30.000,,,,0.230,0.220,0.500*52
###2023-12-09 12:26:10.948825$GNZDA,172610.10,09,12,2023,00,00*73
###2023-12-09 12:26:10.949662$GNEBP,,,,,,M*13
###2023-12-09 12:26:11.116416$GNGGA,172610.30,4138.0381750,N,07032.4358864,W,1,18,0.8,9.129,M,-29.746,M,0.0,*6F
###2023-12-09 12:26:11.316256$GNGGA,172610.50,4138.0381735,N,07032.4358861,W,1,18,0.8,9.122,M,-29.746,M,0.0,*64
###2023-12-09 12:26:11.516027$GNGGA,172610.70,4138.0381716,N,07032.4358831,W,1,18,0.8,9.119,M,-29.746,M,0.0,*6A
###2023-12-09 12:26:11.723466$GNGGA,172610.90,4138.0381692,N,07032.4358815,W,1,18,0.8,9.111,M,-29.746,M,0.0,*67
###2023-12-09 12:26:11.917040$GNRMC,172611.10,A,4138.0381675,N,07032.4358803,W,0.04,,091223,,,A*47
###2023-12-09 12:26:11.920162$GNGGA,172611.10,4138.0381675,N,07032.4358803,W,1,18,0.8,9.102,M,-29.746,M,0.0,*62
###2023-12-09 12:26:11.922247$GPGSA,A,3,03,16,25,26,28,29,31,32,,,,,1.4,0.8,1.1*3A
###2023-12-09 12:26:11.924062$GLGSA,A,3,71,72,73,75,,,,,,,,,1.4,0.8,1.1*26
###2023-12-09 12:26:11.925610$GAGSA,A,3,21,27,,,,,,,,,,,1.4,0.8,1.1*28
###2023-12-09 12:26:11.927258$GBGSA,A,3,14,25,26,33,,,,,,,,,1.4,0.8,1.1*2B
###2023-12-09 12:26:11.929626$GPGSV,2,1,08,03,39,282,45,16,32,206,43,25,15,045,39,26,62,205,43*7F
###2023-12-09 12:26:11.932024$GPGSV,2,2,08,28,61,050,42,29,24,078,43,31,73,346,39,32,34,132,46*73
###2023-12-09 12:26:11.934404$GLGSV,1,1,04,71,62,167,47,72,61,316,44,73,52,030,49,75,18,237,44*66
###2023-12-09 12:26:11.936398$GAGSV,1,1,02,21,74,179,45,27,44,051,45,,,,,,,,*64
###2023-12-09 12:26:11.938993$GBGSV,1,1,04,14,59,200,45,25,30,250,37,26,38,056,48,33,64,263,40*63
###2023-12-09 12:26:11.940176$GNVTG,,T,,M,0.04,N,0.07,K,A*3E
###2023-12-09 12:26:11.941859$GNGST,172611.10,30.000,,,,0.230,0.220,0.500*53
###2023-12-09 12:26:11.943205$GNZDA,172611.10,09,12,2023,00,00*72
###2023-12-09 12:26:11.943883$GNEBP,,,,,,M*13
###2023-12-09 12:26:12.115981$GNGGA,172611.30,4138.0381659,N,07032.4358768,W,1,18,0.8,9.097,M,-29.746,M,0.0,*61
###2023-12-09 12:26:12.317178$GNGGA,172611.50,4138.0381645,N,07032.4358753,W,1,18,0.8,9.093,M,-29.746,M,0.0,*66
###2023-12-09 12:26:12.516899$GNGGA,172611.70,4138.0381623,N,07032.4358733,W,1,19,0.8,9.082,M,-29.746,M,0.0,*63
###2023-12-09 12:26:12.715741$GNGGA,172611.90,4138.0381596,N,07032.4358712,W,1,18,0.8,9.074,M,-29.746,M,0.0,*6B
###2023-12-09 12:26:12.918105$GNRMC,172612.10,A,4138.0381577,N,07032.4358705,W,0.02,,091223,,,A*4A
###2023-12-09 12:26:12.921219$GNGGA,172612.10,4138.0381577,N,07032.4358705,W,1,18,0.8,9.065,M,-29.746,M,0.0,*69
###2023-12-09 12:26:12.923145$GPGSA,A,3,03,16,25,26,28,29,31,32,,,,,1.4,0.8,1.1*3A
###2023-12-09 12:26:12.924769$GLGSA,A,3,71,72,73,75,,,,,,,,,1.4,0.8,1.1*26
###2023-12-09 12:26:12.926258$GAGSA,A,3,21,27,,,,,,,,,,,1.4,0.8,1.1*28
###2023-12-09 12:26:12.927888$GBGSA,A,3,14,25,26,33,,,,,,,,,1.4,0.8,1.1*2B
###2023-12-09 12:26:12.930248$GPGSV,2,1,08,03,39,282,45,16,32,206,43,25,15,045,39,26,62,205,43*7F
###2023-12-09 12:26:12.932628$GPGSV,2,2,08,28,61,050,42,29,24,078,43,31,73,346,39,32,34,132,46*73
###2023-12-09 12:26:12.935003$GLGSV,1,1,04,71,62,167,47,72,61,316,44,73,52,030,49,75,18,237,44*66
###2023-12-09 12:26:12.936782$GAGSV,1,1,02,21,74,179,44,27,44,051,45,,,,,,,,*65
###2023-12-09 12:26:12.939159$GBGSV,1,1,04,14,59,200,45,25,30,250,37,26,38,056,49,33,64,263,40*62
###2023-12-09 12:26:12.940343$GNVTG,,T,,M,0.02,N,0.04,K,A*3B
###2023-12-09 12:26:12.942034$GNGST,172612.10,30.000,,,,0.230,0.220,0.500*50
###2023-12-09 12:26:12.943380$GNZDA,172612.10,09,12,2023,00,00*71
###2023-12-09 12:26:12.944063$GNEBP,,,,,,M*13
###2023-12-09 12:26:13.117105$GNGGA,172612.30,4138.0381562,N,07032.4358695,W,1,18,0.8,9.057,M,-29.746,M,0.0,*66
###2023-12-09 12:26:13.315835$GNGGA,172612.50,4138.0381546,N,07032.4358684,W,1,18,0.8,9.048,M,-29.746,M,0.0,*68
###2023-12-09 12:26:13.517014$GNGGA,172612.70,4138.0381530,N,07032.4358667,W,1,18,0.8,9.038,M,-29.746,M,0.0,*61
###2023-12-09 12:26:13.715087$GNGGA,172612.90,4138.0381514,N,07032.4358642,W,1,18,0.8,9.028,M,-29.746,M,0.0,*6F
###2023-12-09 12:26:13.916390$GNRMC,172613.10,A,4138.0381503,N,07032.4358629,W,0.04,,091223,,,A*41
###2023-12-09 12:26:13.919302$GNGGA,172613.10,4138.0381503,N,07032.4358629,W,1,18,0.8,9.024,M,-29.746,M,0.0,*61
###2023-12-09 12:26:13.921215$GPGSA,A,3,03,16,25,26,28,29,31,32,,,,,1.4,0.8,1.1*3A
###2023-12-09 12:26:13.922870$GLGSA,A,3,71,72,73,75,,,,,,,,,1.4,0.8,1.1*26
