###2023-12-09 12:57:06.988174$GNGST,175706.10,18.000,,,,0.078,0.067,0.160*54
###2023-12-09 12:57:06.989489$GNZDA,175706.10,09,12,2023,00,00*72
###2023-12-09 12:57:06.990132$GNEBP,,,,,,M*13
###2023-12-09 12:57:07.158013$GNGGA,175706.30,4138.0411146,N,07032.3901376,W,1,24,0.6,13.611,M,-29.745,M,0.0,*5D
###2023-12-09 12:57:07.359497$GNGGA,175706.50,4138.0409725,N,07032.3901953,W,1,24,0.6,13.615,M,-29.745,M,0.0,*58
###2023-12-09 12:57:07.558661$GNGGA,175706.70,4138.0408281,N,07032.3902721,W,1,24,0.6,13.637,M,-29.745,M,0.0,*58
###2023-12-09 12:57:07.760182$GNGGA,175706.90,4138.0406740,N,07032.3903423,W,1,24,0.6,13.612,M,-29.745,M,0.0,*57
###2023-12-09 12:57:07.960959$GNRMC,175707.10,A,4138.0405221,N,07032.3904157,W,2.95,205.77,091223,,,A*57
###2023-12-09 12:57:07.963842$GNGGA,175707.10,4138.0405221,N,07032.3904157,W,1,24,0.6,13.581,M,-29.745,M,0.0,*57
###2023-12-09 12:57:07.965705$GPGSA,A,3,03,04,16,26,28,29,31,32,,,,,1.1,0.6,0.9*3B
###2023-12-09 12:57:07.967436$GLGSA,A,3,65,71,72,73,74,75,,,,,,,1.1,0.6,0.9*24
###2023-12-09 12:57:07.969025$GAGSA,A,3,04,19,21,27,,,,,,,,,1.1,0.6,0.9*26
###2023-12-09 12:57:07.970685$GBGSA,A,3,14,24,25,26,33,,,,,,,,1.1,0.6,0.9*2F
###2023-12-09 12:57:07.973007$GPGSV,2,1,08,03,36,264,42,04,30,311,43,16,47,211,43,26,77,209,47*7C
###2023-12-09 12:57:07.975346$GPGSV,2,2,08,28,51,068,45,29,25,064,43,31,70,031,47,32,21,139,45*75
###2023-12-09 12:57:07.977660$GLGSV,2,1,06,65,22,328,40,71,43,172,46,72,73,277,45,73,37,040,45*6E
###2023-12-09 12:57:07.979408$GLGSV,2,2,06,74,70,331,42,75,30,251,41,,,,,,,,*62
###2023-12-09 12:57:07.981723$GAGSV,1,1,04,04,27,312,41,19,85,234,40,21,85,141,46,27,34,048,43*6D
###2023-12-09 12:57:07.984051$GBGSV,2,1,05,14,45,193,44,24,75,020,48,25,39,260,44,26,27,062,44*64
###2023-12-09 12:57:07.985495$GBGSV,2,2,05,33,59,235,46,,,,,,,,,,,,*54
###2023-12-09 12:57:07.986823$GNVTG,205.77,T,,M,2.95,N,5.47,K,A*2C
###2023-12-09 12:57:07.988457$GNGST,175707.10,18.000,,,,0.078,0.067,0.160*55
###2023-12-09 12:57:07.989737$GNZDA,175707.10,09,12,2023,00,00*73
###2023-12-09 12:57:07.990370$GNEBP,,,,,,M*13
###2023-12-09 12:57:08.158546$GNGGA,175707.30,4138.0403809,N,07032.3905245,W,1,24,0.6,13.613,M,-29.745,M,0.0,*5A
###2023-12-09 12:57:08.358411$GNGGA,175707.50,4138.0402420,N,07032.3906482,W,1,24,0.6,13.633,M,-29.745,M,0.0,*56
###2023-12-09 12:57:08.558497$GNGGA,175707.70,4138.0400943,N,07032.3907528,W,1,24,0.6,13.600,M,-29.745,M,0.0,*5E
###2023-12-09 12:57:08.757682$GNGGA,175707.90,4138.0399412,N,07032.3908610,W,1,24,0.6,13.570,M,-29.745,M,0.0,*5D
###2023-12-09 12:57:08.964059$GNRMC,175708.10,A,4138.0398042,N,07032.3910165,W,3.32,225.29,091223,,,A*5D
###2023-12-09 12:57:08.966917$GNGGA,175708.10,4138.0398042,N,07032.3910165,W,1,24,0.6,13.600,M,-29.745,M,0.0,*52
###2023-12-09 12:57:08.968766$GPGSA,A,3,03,04,16,26,28,29,31,32,,,,,1.1,0.6,0.9*3B
###2023-12-09 12:57:08.970477$GLGSA,A,3,65,71,72,73,74,75,,,,,,,1.1,0.6,0.9*24
###2023-12-09 12:57:08.972078$GAGSA,A,3,04,19,21,27,,,,,,,,,1.1,0.6,0.9*26
###2023-12-09 12:57:08.973720$GBGSA,A,3,14,24,25,26,33,,,,,,,,1.1,0.6,0.9*2F
###2023-12-09 12:57:08.976061$GPGSV,2,1,08,03,36,264,43,04,31,311,43,16,47,211,43,26,77,209,47*7C
###2023-12-09 12:57:08.978390$GPGSV,2,2,08,28,51,068,45,29,25,064,43,31,70,031,47,32,21,139,45*75
###2023-12-09 12:57:08.980722$GLGSV,2,1,06,65,22,328,40,71,43,172,46,72,73,277,44,73,37,040,46*6C
###2023-12-09 12:57:08.982468$GLGSV,2,2,06,74,70,331,42,75,30,251,42,,,,,,,,*61
###2023-12-09 12:57:08.984799$GAGSV,1,1,04,04,27,312,41,19,85,234,40,21,85,141,47,27,34,048,43*6C
###2023-12-09 12:57:08.987139$GBGSV,2,1,05,14,45,193,43,24,75,020,48,25,39,260,45,26,27,062,44*62
###2023-12-09 12:57:08.988594$GBGSV,2,2,05,33,59,235,46,,,,,,,,,,,,*54
###2023-12-09 12:57:08.989916$GNVTG,225.29,T,,M,3.32,N,6.16,K,A*2E
###2023-12-09 12:57:08.991570$GNGST,175708.10,18.000,,,,0.078,0.067,0.160*5A
###2023-12-09 12:57:08.992860$GNZDA,175708.10,09,12,2023,00,00*7C
###2023-12-09 12:57:08.993494$GNEBP,,,,,,M*13
###2023-12-09 12:57:09.159941$GNGGA,175708.30,4138.0396688,N,07032.3911843,W,1,24,0.6,13.616,M,-29.745,M,0.0,*55
###2023-12-09 12:57:09.359723$GNGGA,175708.50,4138.0395150,N,07032.3913115,W,1,24,0.6,13.600,M,-29.745,M,0.0,*5D
###2023-12-09 12:57:09.558399$GNGGA,175708.70,4138.0393493,N,07032.3914073,W,1,24,0.6,13.571,M,-29.745,M,0.0,*50
###2023-12-09 12:57:09.760667$GNGGA,175708.90,4138.0391964,N,07032.3915474,W,1,24,0.6,13.583,M,-29.745,M,0.0,*56
###2023-12-09 12:57:09.958355$GNRMC,175709.10,A,4138.0390476,N,07032.3917134,W,3.42,216.55,091223,,,A*58
###2023-12-09 12:57:09.961245$GNGGA,175709.10,4138.0390476,N,07032.3917134,W,1,24,0.6,13.591,M,-29.745,M,0.0,*50
###2023-12-09 12:57:09.963129$GPGSA,A,3,03,04,16,26,28,29,31,32,,,,,1.1,0.6,0.9*3B
###2023-12-09 12:57:09.964844$GLGSA,A,3,65,71,72,73,74,75,,,,,,,1.1,0.6,0.9*24
###2023-12-09 12:57:09.966428$GAGSA,A,3,04,19,21,27,,,,,,,,,1.1,0.6,0.9*26
###2023-12-09 12:57:09.968092$GBGSA,A,3,14,24,25,26,33,,,,,,,,1.1,0.6,0.9*2F
###2023-12-09 12:57:09.970443$GPGSV,2,1,08,03,36,264,43,04,31,311,44,16,47,211,43,26,77,209,47*7B
###2023-12-09 12:57:09.972807$GPGSV,2,2,08,28,51,068,45,29,25,064,42,31,70,031,47,32,21,139,44*75
###2023-12-09 12:57:09.975160$GLGSV,2,1,06,65,22,328,41,71,43,172,45,72,73,277,45,73,37,040,46*6F
###2023-12-09 12:57:09.976903$GLGSV,2,2,06,74,70,331,42,75,30,251,42,,,,,,,,*61
###2023-12-09 12:57:09.979235$GAGSV,1,1,04,04,27,312,42,19,85,234,40,21,85,141,46,27,34,048,42*6F
###2023-12-09 12:57:09.981569$GBGSV,2,1,05,14,45,193,42,24,75,020,49,25,39,260,45,26,27,062,43*65
###2023-12-09 12:57:09.983035$GBGSV,2,2,05,33,59,235,47,,,,,,,,,,,,*55
###2023-12-09 12:57:09.984360$GNVTG,216.55,T,,M,3.42,N,6.34,K,A*22
###2023-12-09 12:57:09.986009$GNGST,175709.10,18.000,,,,0.078,0.068,0.160*54
###2023-12-09 12:57:09.987315$GNZDA,175709.10,09,12,2023,00,00*7D
###2023-12-09 12:57:09.987955$GNEBP,,,,,,M*13
###2023-12-09 12:57:10.156795$GNGGA,175709.30,4138.0388876,N,07032.3918365,W,1,24,0.6,13.584,M,-29.745,M,0.0,*5A
###2023-12-09 12:57:10.357782$GNGGA,175709.50,4138.0387168,N,07032.3919160,W,1,24,0.6,13.576,M,-29.745,M,0.0,*5E
###2023-12-09 12:57:10.555915$GNGGA,175709.70,4138.0385481,N,07032.3920117,W,1,24,0.6,13.563,M,-29.745,M,0.0,*52
###2023-12-09 12:57:10.756822$GNGGA,175709.90,4138.0383868,N,07032.3921507,W,1,24,0.6,13.567,M,-29.745,M,0.0,*51
###2023-12-09 12:57:10.958584$GNRMC,175710.10,A,4138.0382243,N,07032.3922829,W,3.32,205.90,091223,,,A*5C
###2023-12-09 12:57:10.961454$GNGGA,175710.10,4138.0382243,N,07032.3922829,W,1,24,0.6,13.563,M,-29.745,M,0.0,*55
###2023-12-09 12:57:10.963332$GPGSA,A,3,03,04,16,26,28,29,31,32,,,,,1.1,0.6,0.9*3B
###2023-12-09 12:57:10.965059$GLGSA,A,3,65,71,72,73,74,75,,,,,,,1.1,0.6,0.9*24
###2023-12-09 12:57:10.966653$GAGSA,A,3,04,19,21,27,,,,,,,,,1.1,0.6,0.9*26
###2023-12-09 12:57:10.968304$GBGSA,A,3,14,24,25,26,33,,,,,,,,1.1,0.6,0.9*2F
###2023-12-09 12:57:10.970646$GPGSV,2,1,08,03,36,264,45,04,31,311,44,16,47,211,44,26,77,209,47*7A
###2023-12-09 12:57:10.972985$GPGSV,2,2,08,28,51,068,45,29,25,064,41,31,70,031,47,32,21,139,44*76
###2023-12-09 12:57:10.975322$GLGSV,2,1,06,65,22,328,39,71,43,172,45,72,73,277,46,73,37,040,45*60
###2023-12-09 12:57:10.977069$GLGSV,2,2,06,74,70,331,42,75,30,251,44,,,,,,,,*67
###2023-12-09 12:57:10.979415$GAGSV,1,1,04,04,27,312,41,19,85,234,40,21,85,141,46,27,34,048,42*6C
###2023-12-09 12:57:10.981755$GBGSV,2,1,05,14,45,193,42,24,75,020,48,25,39,260,44,26,27,062,42*64
###2023-12-09 12:57:10.983221$GBGSV,2,2,05,33,59,235,46,,,,,,,,,,,,*54
###2023-12-09 12:57:10.984543$GNVTG,205.90,T,,M,3.32,N,6.16,K,A*2E
###2023-12-09 12:57:10.986192$GNGST,175710.10,18.000,,,,0.078,0.068,0.160*5C
###2023-12-09 12:57:10.987499$GNZDA,175710.10,09,12,2023,00,00*75
###2023-12-09 12:57:10.988142$GNEBP,,,,,,M*13
###2023-12-09 12:57:11.157129$GNGGA,175710.30,4138.0380527,N,07032.3923662,W,1,24,0.6,13.555,M,-29.745,M,0.0,*55
###2023-12-09 12:57:11.356726$GNGGA,175710.50,4138.0378750,N,07032.3924109,W,1,24,0.6,13.530,M,-29.745,M,0.0,*58
###2023-12-09 12:57:11.557798$GNGGA,175710.70,4138.0377024,N,07032.3924744,W,1,24,0.6,13.521,M,-29.745,M,0.0,*5E
###2023-12-09 12:57:11.761301$GNGGA,175710.90,4138.0375328,N,07032.3925788,W,1,24,0.6,13.545,M,-29.745,M,0.0,*5E
###2023-12-09 12:57:11.958177$GNRMC,175711.10,A,4138.0373544,N,07032.3926531,W,3.27,188.34,091223,,,A*5F
###2023-12-09 12:57:11.961073$GNGGA,175711.10,4138.0373544,N,07032.3926531,W,1,24,0.6,13.531,M,-29.745,M,0.0,*5D
###2023-12-09 12:57:11.962963$GPGSA,A,3,03,04,16,26,28,29,31,32,,,,,1.1,0.6,0.9*3B
###2023-12-09 12:57:11.964687$GLGSA,A,3,65,71,72,73,74,75,,,,,,,1.1,0.6,0.9*24
###2023-12-09 12:57:11.966267$GAGSA,A,3,04,19,21,27,,,,,,,,,1.1,0.6,0.9*26
###2023-12-09 12:57:11.967933$GBGSA,A,3,14,24,25,26,33,,,,,,,,1.1,0.6,0.9*2F
###2023-12-09 12:57:11.970267$GPGSV,2,1,08,03,36,264,44,04,31,311,43,16,47,211,45,26,77,209,47*7D
###2023-12-09 12:57:11.972628$GPGSV,2,2,08,28,51,068,44,29,25,064,42,31,70,031,47,32,21,139,41*71
###2023-12-09 12:57:11.974989$GLGSV,2,1,06,65,22,328,42,71,43,172,43,72,73,277,47,73,37,040,44*6A
