###2023-12-09 12:28:03.950613$GNEBP,,,,,,M*13
###2023-12-09 12:28:04.123201$GNGGA,172803.30,4138.0391636,N,07032.4356546,W,1,18,0.7,7.609,M,-29.746,M,0.0,*64
###2023-12-09 12:28:04.322137$GNGGA,172803.50,4138.0391834,N,07032.4356873,W,1,18,0.7,7.652,M,-29.746,M,0.0,*6B
###2023-12-09 12:28:04.533576$GNGGA,172803.70,4138.0392042,N,07032.4357191,W,1,18,0.7,7.694,M,-29.746,M,0.0,*6D
###2023-12-09 12:28:04.720348$GNGGA,172803.90,4138.0392264,N,07032.4357547,W,1,17,0.8,7.725,M,-29.746,M,0.0,*61
###2023-12-09 12:28:04.923142$GNRMC,172804.10,A,4138.0392478,N,07032.4357855,W,0.04,,091223,,,A*4C
###2023-12-09 12:28:04.926193$GNGGA,172804.10,4138.0392478,N,07032.4357855,W,1,17,0.8,7.757,M,-29.746,M,0.0,*6E
###2023-12-09 12:28:04.928199$GPGSA,A,3,03,16,26,28,29,31,32,,,,,,1.5,0.8,1.3*3E
###2023-12-09 12:28:04.929966$GLGSA,A,3,71,72,73,75,,,,,,,,,1.5,0.8,1.3*25
###2023-12-09 12:28:04.931611$GAGSA,A,3,21,27,,,,,,,,,,,1.5,0.8,1.3*2B
###2023-12-09 12:28:04.933371$GBGSA,A,3,14,25,26,33,,,,,,,,,1.5,0.8,1.3*28
###2023-12-09 12:28:04.935892$GPGSV,2,1,07,03,39,281,37,16,34,206,42,26,62,205,41,28,60,051,43*74
###2023-12-09 12:28:04.938112$GPGSV,2,2,07,29,24,078,42,31,73,348,43,32,33,132,45,,,,*44
###2023-12-09 12:28:04.940635$GLGSV,1,1,04,71,60,168,47,72,63,315,43,73,51,031,48,75,19,238,42*66
###2023-12-09 12:28:04.942611$GAGSV,1,1,02,21,75,179,40,27,44,050,45,,,,,,,,*61
###2023-12-09 12:28:04.945112$GBGSV,1,1,04,14,58,200,45,25,30,250,36,26,37,056,49,33,64,261,42*6D
###2023-12-09 12:28:04.946419$GNVTG,,T,,M,0.04,N,0.07,K,A*3E
###2023-12-09 12:28:04.948299$GNGST,172804.10,32.000,,,,0.140,0.150,0.350*58
###2023-12-09 12:28:04.949738$GNZDA,172804.10,09,12,2023,00,00*78
###2023-12-09 12:28:04.950492$GNEBP,,,,,,M*13
###2023-12-09 12:28:05.120918$GNGGA,172804.30,4138.0392676,N,07032.4358156,W,1,18,0.7,7.794,M,-29.746,M,0.0,*6A
###2023-12-09 12:28:05.320811$GNGGA,172804.50,4138.0392867,N,07032.4358468,W,1,18,0.7,7.826,M,-29.746,M,0.0,*6C
###2023-12-09 12:28:05.522407$GNGGA,172804.70,4138.0393068,N,07032.4358783,W,1,18,0.7,7.848,M,-29.746,M,0.0,*66
###2023-12-09 12:28:05.720099$GNGGA,172804.90,4138.0393251,N,07032.4359083,W,1,18,0.7,7.881,M,-29.746,M,0.0,*63
###2023-12-09 12:28:05.920542$GNRMC,172805.10,A,4138.0393375,N,07032.4359321,W,0.00,,091223,,,A*44
###2023-12-09 12:28:05.923612$GNGGA,172805.10,4138.0393375,N,07032.4359321,W,1,18,0.7,7.895,M,-29.746,M,0.0,*63
###2023-12-09 12:28:05.925592$GPGSA,A,3,03,16,26,28,29,31,32,,,,,,1.4,0.7,1.1*32
###2023-12-09 12:28:05.927374$GLGSA,A,3,71,72,73,75,,,,,,,,,1.4,0.7,1.1*29
###2023-12-09 12:28:05.929074$GAGSA,A,3,04,21,27,,,,,,,,,,1.4,0.7,1.1*23
###2023-12-09 12:28:05.930836$GBGSA,A,3,14,25,26,33,,,,,,,,,1.4,0.7,1.1*24
###2023-12-09 12:28:05.933329$GPGSV,2,1,07,03,39,281,38,16,34,206,42,26,62,205,41,28,60,051,43*7B
###2023-12-09 12:28:05.935552$GPGSV,2,2,07,29,24,078,42,31,73,348,43,32,33,132,45,,,,*44
###2023-12-09 12:28:05.938047$GLGSV,1,1,04,71,60,168,47,72,63,315,43,73,51,031,48,75,19,238,42*66
###2023-12-09 12:28:05.940258$GAGSV,1,1,03,04,19,310,35,21,75,179,40,27,44,050,45,,,,*58
###2023-12-09 12:28:05.942764$GBGSV,1,1,04,14,58,200,46,25,30,250,36,26,37,056,49,33,64,261,42*6E
###2023-12-09 12:28:05.944059$GNVTG,,T,,M,0.00,N,0.00,K,A*3D
###2023-12-09 12:28:05.945870$GNGST,172805.10,31.000,,,,0.140,0.150,0.350*5A
###2023-12-09 12:28:05.947316$GNZDA,172805.10,09,12,2023,00,00*79
###2023-12-09 12:28:05.948102$GNEBP,,,,,,M*13
###2023-12-09 12:28:06.120572$GNGGA,172805.30,4138.0393426,N,07032.4359507,W,1,18,0.7,7.896,M,-29.746,M,0.0,*61
###2023-12-09 12:28:06.320036$GNGGA,172805.50,4138.0393469,N,07032.4359686,W,1,18,0.7,7.887,M,-29.746,M,0.0,*66
###2023-12-09 12:28:06.520865$GNGGA,172805.70,4138.0393528,N,07032.4359876,W,1,18,0.7,7.888,M,-29.746,M,0.0,*6E
###2023-12-09 12:28:06.719976$GNGGA,172805.90,4138.0393579,N,07032.4360070,W,1,18,0.7,7.877,M,-29.746,M,0.0,*60
###2023-12-09 12:28:06.923866$GNRMC,172806.10,A,4138.0393646,N,07032.4360113,W,0.04,,091223,,,A*4F
###2023-12-09 12:28:06.926746$GNGGA,172806.10,4138.0393646,N,07032.4360113,W,1,18,0.7,7.920,M,-29.746,M,0.0,*63
###2023-12-09 12:28:06.928572$GPGSA,A,3,03,16,26,28,29,31,32,,,,,,1.4,0.7,1.1*32
###2023-12-09 12:28:06.930180$GLGSA,A,3,71,72,73,75,,,,,,,,,1.4,0.7,1.1*29
###2023-12-09 12:28:06.931735$GAGSA,A,3,04,21,27,,,,,,,,,,1.4,0.7,1.1*23
###2023-12-09 12:28:06.933341$GBGSA,A,3,14,25,26,33,,,,,,,,,1.4,0.7,1.1*24
###2023-12-09 12:28:06.935699$GPGSV,2,1,07,03,39,281,38,16,34,206,42,26,62,205,41,28,60,051,43*7B
###2023-12-09 12:28:06.937762$GPGSV,2,2,07,29,24,078,42,31,73,348,43,32,33,132,45,,,,*44
###2023-12-09 12:28:06.940121$GLGSV,1,1,04,71,60,168,47,72,63,315,43,73,51,031,48,75,19,238,42*66
###2023-12-09 12:28:06.942171$GAGSV,1,1,03,04,19,310,35,21,75,179,40,27,44,050,45,,,,*58
###2023-12-09 12:28:06.944536$GBGSV,1,1,04,14,58,200,46,25,30,250,37,26,37,056,49,33,64,261,42*6F
###2023-12-09 12:28:06.945689$GNVTG,,T,,M,0.04,N,0.07,K,A*3E
###2023-12-09 12:28:06.947384$GNGST,172806.10,31.000,,,,0.150,0.160,0.370*59
###2023-12-09 12:28:06.948711$GNZDA,172806.10,09,12,2023,00,00*7A
###2023-12-09 12:28:06.949369$GNEBP,,,,,,M*13
###2023-12-09 12:28:07.120830$GNGGA,172806.30,4138.0393714,N,07032.4360005,W,1,18,0.7,8.002,M,-29.746,M,0.0,*67
###2023-12-09 12:28:07.320780$GNGGA,172806.50,4138.0393787,N,07032.4359902,W,1,18,0.7,8.082,M,-29.746,M,0.0,*67
###2023-12-09 12:28:07.519832$GNGGA,172806.70,4138.0393853,N,07032.4359809,W,1,18,0.7,8.161,M,-29.746,M,0.0,*65
###2023-12-09 12:28:07.720008$GNGGA,172806.90,4138.0393911,N,07032.4359716,W,1,19,0.7,8.236,M,-29.746,M,0.0,*6D
###2023-12-09 12:28:07.920529$GNRMC,172807.10,A,4138.0393961,N,07032.4359622,W,0.02,,091223,,,A*4D
###2023-12-09 12:28:07.923371$GNGGA,172807.10,4138.0393961,N,07032.4359622,W,1,19,0.7,8.315,M,-29.746,M,0.0,*65
###2023-12-09 12:28:07.925176$GPGSA,A,3,03,16,26,28,29,31,32,,,,,,1.3,0.7,1.1*35
###2023-12-09 12:28:07.926798$GLGSA,A,3,71,72,73,75,,,,,,,,,1.3,0.7,1.1*2E
###2023-12-09 12:28:07.928337$GAGSA,A,3,04,21,27,,,,,,,,,,1.3,0.7,1.1*24
###2023-12-09 12:28:07.929944$GBGSA,A,3,14,25,26,33,,,,,,,,,1.3,0.7,1.1*23
###2023-12-09 12:28:07.932305$GPGSV,2,1,07,03,39,281,38,16,34,206,42,26,62,205,42,28,60,051,43*78
###2023-12-09 12:28:07.934362$GPGSV,2,2,07,29,24,078,42,31,73,348,44,32,33,132,45,,,,*43
###2023-12-09 12:28:07.936736$GLGSV,1,1,04,71,60,168,47,72,63,315,43,73,51,031,48,75,19,238,42*66
###2023-12-09 12:28:07.938813$GAGSV,1,1,03,04,19,310,35,21,75,179,40,27,44,050,46,,,,*5B
###2023-12-09 12:28:07.941161$GBGSV,1,1,04,14,58,200,46,25,30,250,36,26,37,056,49,33,64,261,42*6E
###2023-12-09 12:28:07.942314$GNVTG,,T,,M,0.02,N,0.04,K,A*3B
###2023-12-09 12:28:07.943999$GNGST,172807.10,30.000,,,,0.140,0.150,0.350*59
###2023-12-09 12:28:07.945311$GNZDA,172807.10,09,12,2023,00,00*7B
###2023-12-09 12:28:07.945965$GNEBP,,,,,,M*13
###2023-12-09 12:28:08.119547$GNGGA,172807.30,4138.0394023,N,07032.4359552,W,1,18,0.7,8.387,M,-29.746,M,0.0,*61
###2023-12-09 12:28:08.319780$GNGGA,172807.50,4138.0394094,N,07032.4359479,W,1,18,0.7,8.456,M,-29.746,M,0.0,*68
###2023-12-09 12:28:08.519747$GNGGA,172807.70,4138.0394142,N,07032.4359399,W,1,18,0.7,8.527,M,-29.746,M,0.0,*6E
###2023-12-09 12:28:08.722764$GNGGA,172807.90,4138.0394195,N,07032.4359333,W,1,18,0.7,8.592,M,-29.746,M,0.0,*64
###2023-12-09 12:28:08.931398$GNRMC,172808.10,A,4138.0394284,N,07032.4359244,W,0.08,,091223,,,A*4B
###2023-12-09 12:28:08.934237$GNGGA,172808.10,4138.0394284,N,07032.4359244,W,1,18,0.7,8.637,M,-29.746,M,0.0,*6D
###2023-12-09 12:28:08.936070$GPGSA,A,3,03,16,26,28,29,31,32,,,,,,1.4,0.7,1.1*32
###2023-12-09 12:28:08.937676$GLGSA,A,3,71,72,73,75,,,,,,,,,1.4,0.7,1.1*29
###2023-12-09 12:28:08.939230$GAGSA,A,3,04,21,27,,,,,,,,,,1.4,0.7,1.1*23
###2023-12-09 12:28:08.940823$GBGSA,A,3,14,25,26,33,,,,,,,,,1.4,0.7,1.1*24
###2023-12-09 12:28:08.943175$GPGSV,2,1,07,03,39,281,37,16,34,206,42,26,63,206,41,28,60,051,42*77
###2023-12-09 12:28:08.945224$GPGSV,2,2,07,29,24,078,41,31,73,348,43,32,33,132,44,,,,*46
###2023-12-09 12:28:08.947611$GLGSV,1,1,04,71,60,168,47,72,63,315,43,73,51,031,48,75,19,238,42*66
###2023-12-09 12:28:08.949709$GAGSV,1,1,03,04,19,310,35,21,75,179,40,27,44,050,45,,,,*58
###2023-12-09 12:28:08.952351$GBGSV,1,1,04,14,58,200,45,25,30,250,36,26,37,056,49,33,64,261,42*6D
###2023-12-09 12:28:08.953522$GNVTG,,T,,M,0.08,N,0.14,K,A*30
###2023-12-09 12:28:08.955215$GNGST,172808.10,31.000,,,,0.140,0.150,0.340*56
###2023-12-09 12:28:08.956532$GNZDA,172808.10,09,12,2023,00,00*74
###2023-12-09 12:28:08.957182$GNEBP,,,,,,M*13
###2023-12-09 12:28:09.121850$GNGGA,172808.30,4138.0394416,N,07032.4359161,W,1,18,0.7,8.663,M,-29.746,M,0.0,*67
###2023-12-09 12:28:09.321780$GNGGA,172808.50,4138.0394519,N,07032.4359052,W,1,18,0.7,8.685,M,-29.746,M,0.0,*66
###2023-12-09 12:28:09.520977$GNGGA,172808.70,4138.0394619,N,07032.4358946,W,1,18,0.7,8.706,M,-29.746,M,0.0,*60
###2023-12-09 12:28:09.720938$GNGGA,172808.90,4138.0394728,N,07032.4358848,W,1,18,0.7,8.725,M,-29.746,M,0.0,*63
