###2023-12-09 13:09:01.773384$GNGGA,180900.90,4138.0846323,N,07032.2503801,W,1,25,0.6,13.185,M,-29.741,M,0.0,*51
###2023-12-09 13:09:01.975247$GNRMC,180901.10,A,4138.0847940,N,07032.2502721,W,3.25,25.88,091223,,,A*65
###2023-12-09 13:09:01.978121$GNGGA,180901.10,4138.0847940,N,07032.2502721,W,1,25,0.6,13.166,M,-29.741,M,0.0,*57
###2023-12-09 13:09:01.979990$GPGSA,A,3,03,04,16,26,28,29,31,32,,,,,1.1,0.6,0.9*3B
###2023-12-09 13:09:01.981711$GLGSA,A,3,65,71,72,73,74,75,,,,,,,1.1,0.6,0.9*24
###2023-12-09 13:09:01.983298$GAGSA,A,3,04,19,21,27,,,,,,,,,1.1,0.6,0.9*26
###2023-12-09 13:09:01.985009$GBGSA,A,3,14,24,25,26,33,35,,,,,,,1.1,0.6,0.9*29
###2023-12-09 13:09:01.987334$GPGSV,2,1,08,03,34,258,44,04,35,311,44,16,53,214,47,26,83,210,48*7D
###2023-12-09 13:09:01.989665$GPGSV,2,2,08,28,47,073,44,29,25,058,39,31,67,044,46,32,16,141,41*71
###2023-12-09 13:09:01.991994$GLGSV,2,1,06,65,27,326,42,71,36,173,45,72,72,254,46,73,32,044,42*62
###2023-12-09 13:09:01.993731$GLGSV,2,2,06,74,68,348,41,75,35,257,46,,,,,,,,*62
###2023-12-09 13:09:01.996055$GAGSV,1,1,04,04,31,312,43,19,82,199,40,21,85,085,45,27,31,048,41*66
###2023-12-09 13:09:01.998408$GBGSV,2,1,06,14,40,192,42,24,71,031,45,25,43,265,45,26,24,064,38*6B
###2023-12-09 13:09:02.000164$GBGSV,2,2,06,33,55,228,46,35,15,066,41,,,,,,,,*60
###2023-12-09 13:09:02.001451$GNVTG,25.88,T,,M,3.25,N,6.01,K,A*17
###2023-12-09 13:09:02.003115$GNGST,180901.10,18.000,,,,0.084,0.066,0.150*56
###2023-12-09 13:09:02.004413$GNZDA,180901.10,09,12,2023,00,00*71
###2023-12-09 13:09:02.005052$GNEBP,,,,,,M*13
###2023-12-09 13:09:02.170329$GNGGA,180901.30,4138.0849407,N,07032.2501338,W,1,25,0.6,13.153,M,-29.741,M,0.0,*5C
###2023-12-09 13:09:02.370041$GNGGA,180901.50,4138.0850851,N,07032.2499720,W,1,25,0.6,13.157,M,-29.741,M,0.0,*54
###2023-12-09 13:09:02.570270$GNGGA,180901.70,4138.0852439,N,07032.2498689,W,1,25,0.6,13.187,M,-29.741,M,0.0,*58
###2023-12-09 13:09:02.770214$GNGGA,180901.90,4138.0854174,N,07032.2498004,W,1,25,0.6,13.203,M,-29.741,M,0.0,*50
###2023-12-09 13:09:02.971978$GNRMC,180902.10,A,4138.0855874,N,07032.2497157,W,3.27,23.10,091223,,,A*6C
###2023-12-09 13:09:02.974916$GNGGA,180902.10,4138.0855874,N,07032.2497157,W,1,25,0.6,13.178,M,-29.741,M,0.0,*54
###2023-12-09 13:09:02.976780$GPGSA,A,3,03,04,16,26,28,29,31,32,,,,,1.1,0.6,0.9*3B
###2023-12-09 13:09:02.978490$GLGSA,A,3,65,71,72,73,74,75,,,,,,,1.1,0.6,0.9*24
###2023-12-09 13:09:02.980085$GAGSA,A,3,04,19,21,27,,,,,,,,,1.1,0.6,0.9*26
###2023-12-09 13:09:02.981788$GBGSA,A,3,14,24,25,26,33,35,,,,,,,1.1,0.6,0.9*29
###2023-12-09 13:09:02.984114$GPGSV,2,1,08,03,34,258,43,04,35,311,45,16,53,214,47,26,83,210,48*7B
###2023-12-09 13:09:02.986436$GPGSV,2,2,08,28,47,073,44,29,25,058,39,31,67,044,46,32,16,141,42*72
###2023-12-09 13:09:02.988770$GLGSV,2,1,06,65,27,326,42,71,36,173,45,72,72,254,46,73,32,044,42*62
###2023-12-09 13:09:02.990505$GLGSV,2,2,06,74,68,348,41,75,35,257,45,,,,,,,,*61
###2023-12-09 13:09:02.992831$GAGSV,1,1,04,04,31,312,43,19,82,199,40,21,85,085,46,27,31,048,40*64
###2023-12-09 13:09:02.995199$GBGSV,2,1,06,14,40,192,45,24,71,031,47,25,43,265,47,26,24,064,41*62
###2023-12-09 13:09:02.996952$GBGSV,2,2,06,33,55,228,48,35,15,066,40,,,,,,,,*6F
###2023-12-09 13:09:02.998242$GNVTG,23.10,T,,M,3.27,N,6.05,K,A*16
###2023-12-09 13:09:02.999905$GNGST,180902.10,18.000,,,,0.084,0.066,0.160*56
###2023-12-09 13:09:03.001194$GNZDA,180902.10,09,12,2023,00,00*72
###2023-12-09 13:09:03.001831$GNEBP,,,,,,M*13
###2023-12-09 13:09:03.172338$GNGGA,180902.30,4138.0857609,N,07032.2496266,W,1,25,0.6,13.173,M,-29.741,M,0.0,*5B
###2023-12-09 13:09:03.370098$GNGGA,180902.50,4138.0859422,N,07032.2495309,W,1,25,0.6,13.173,M,-29.741,M,0.0,*53
###2023-12-09 13:09:03.570188$GNGGA,180902.70,4138.0861204,N,07032.2494676,W,1,25,0.6,13.171,M,-29.741,M,0.0,*56
###2023-12-09 13:09:03.771332$GNGGA,180902.90,4138.0863043,N,07032.2494302,W,1,25,0.6,13.175,M,-29.741,M,0.0,*59
###2023-12-09 13:09:03.973798$GNRMC,180903.10,A,4138.0864894,N,07032.2493869,W,3.40,7.90,091223,,,A*5E
###2023-12-09 13:09:03.976676$GNGGA,180903.10,4138.0864894,N,07032.2493869,W,1,25,0.6,13.167,M,-29.741,M,0.0,*57
###2023-12-09 13:09:03.978530$GPGSA,A,3,03,04,16,26,28,29,31,32,,,,,1.1,0.6,0.9*3B
###2023-12-09 13:09:03.980257$GLGSA,A,3,65,71,72,73,74,75,,,,,,,1.1,0.6,0.9*24
###2023-12-09 13:09:03.981836$GAGSA,A,3,04,19,21,27,,,,,,,,,1.1,0.6,0.9*26
###2023-12-09 13:09:03.983555$GBGSA,A,3,14,24,25,26,33,35,,,,,,,1.1,0.6,0.9*29
###2023-12-09 13:09:03.985875$GPGSV,2,1,08,03,33,257,45,04,35,311,44,16,53,214,46,26,83,210,48*75
###2023-12-09 13:09:03.988210$GPGSV,2,2,08,28,47,073,45,29,25,058,42,31,67,044,45,32,16,141,41*7F
###2023-12-09 13:09:03.990529$GLGSV,2,1,06,65,27,326,41,71,36,173,46,72,72,254,46,73,32,044,41*61
###2023-12-09 13:09:03.992286$GLGSV,2,2,06,74,68,348,41,75,35,257,47,,,,,,,,*63
###2023-12-09 13:09:03.994617$GAGSV,1,1,04,04,31,312,42,19,82,199,41,21,85,085,46,27,31,048,40*64
###2023-12-09 13:09:03.996934$GBGSV,2,1,06,14,40,192,43,24,71,031,48,25,43,265,47,26,24,064,42*68
###2023-12-09 13:09:03.998725$GBGSV,2,2,06,33,55,228,48,35,15,066,42,,,,,,,,*6D
###2023-12-09 13:09:03.999982$GNVTG,7.90,T,,M,3.40,N,6.30,K,A*2F
###2023-12-09 13:09:04.001621$GNGST,180903.10,18.000,,,,0.084,0.066,0.160*57
###2023-12-09 13:09:04.002920$GNZDA,180903.10,09,12,2023,00,00*73
###2023-12-09 13:09:04.003560$GNEBP,,,,,,M*13
###2023-12-09 13:09:04.169338$GNGGA,180903.30,4138.0866766,N,07032.2493596,W,1,25,0.6,13.168,M,-29.741,M,0.0,*57
###2023-12-09 13:09:04.371059$GNGGA,180903.50,4138.0868658,N,07032.2493374,W,1,25,0.6,13.181,M,-29.741,M,0.0,*5E
###2023-12-09 13:09:04.571192$GNGGA,180903.70,4138.0870533,N,07032.2493384,W,1,25,0.6,13.178,M,-29.741,M,0.0,*52
###2023-12-09 13:09:04.770256$GNGGA,180903.90,4138.0872337,N,07032.2493705,W,1,25,0.6,13.168,M,-29.741,M,0.0,*50
###2023-12-09 13:09:04.972859$GNRMC,180904.10,A,4138.0874053,N,07032.2494175,W,3.13,347.26,091223,,,A*54
###2023-12-09 13:09:04.975735$GNGGA,180904.10,4138.0874053,N,07032.2494175,W,1,25,0.6,13.167,M,-29.741,M,0.0,*51
###2023-12-09 13:09:04.977588$GPGSA,A,3,03,04,16,26,28,29,31,32,,,,,1.1,0.6,0.9*3B
###2023-12-09 13:09:04.979346$GLGSA,A,3,65,71,72,73,74,75,,,,,,,1.1,0.6,0.9*24
###2023-12-09 13:09:04.980932$GAGSA,A,3,04,19,21,27,,,,,,,,,1.1,0.6,0.9*26
###2023-12-09 13:09:04.982660$GBGSA,A,3,14,24,25,26,33,35,,,,,,,1.1,0.6,0.9*29
###2023-12-09 13:09:04.984993$GPGSV,2,1,08,03,33,257,43,04,36,311,41,16,53,214,46,26,83,210,46*7B
###2023-12-09 13:09:04.987335$GPGSV,2,2,08,28,47,073,43,29,25,058,41,31,67,044,45,32,16,141,43*78
###2023-12-09 13:09:04.989665$GLGSV,2,1,06,65,27,326,41,71,36,173,46,72,72,254,46,73,32,044,44*64
###2023-12-09 13:09:04.991435$GLGSV,2,2,06,74,68,348,41,75,35,257,46,,,,,,,,*62
###2023-12-09 13:09:04.993781$GAGSV,1,1,04,04,31,312,39,19,82,199,40,21,85,085,45,27,31,048,40*6A
###2023-12-09 13:09:04.996125$GBGSV,2,1,06,14,40,192,43,24,71,031,47,25,43,265,45,26,24,064,42*65
###2023-12-09 13:09:04.997874$GBGSV,2,2,06,33,55,228,47,35,15,066,40,,,,,,,,*60
###2023-12-09 13:09:04.999205$GNVTG,347.26,T,,M,3.13,N,5.80,K,A*2B
###2023-12-09 13:09:05.000856$GNGST,180904.10,18.000,,,,0.084,0.066,0.160*50
###2023-12-09 13:09:05.002148$GNZDA,180904.10,09,12,2023,00,00*74
###2023-12-09 13:09:05.002799$GNEBP,,,,,,M*13
###2023-12-09 13:09:05.169281$GNGGA,180904.30,4138.0875750,N,07032.2494656,W,1,25,0.6,13.174,M,-29.741,M,0.0,*52
###2023-12-09 13:09:05.370059$GNGGA,180904.50,4138.0877391,N,07032.2495207,W,1,25,0.6,13.174,M,-29.741,M,0.0,*5E
###2023-12-09 13:09:05.571194$GNGGA,180904.70,4138.0878911,N,07032.2495955,W,1,25,0.6,13.170,M,-29.741,M,0.0,*59
###2023-12-09 13:09:05.772975$GNGGA,180904.90,4138.0880313,N,07032.2496851,W,1,25,0.6,13.171,M,-29.741,M,0.0,*5F
###2023-12-09 13:09:05.972129$GNRMC,180905.10,A,4138.0881628,N,07032.2497831,W,2.68,329.41,091223,,,A*5B
###2023-12-09 13:09:05.975000$GNGGA,180905.10,4138.0881628,N,07032.2497831,W,1,25,0.6,13.171,M,-29.741,M,0.0,*5D
###2023-12-09 13:09:05.976855$GPGSA,A,3,03,04,16,26,28,29,31,32,,,,,1.1,0.6,0.9*3B
###2023-12-09 13:09:05.978574$GLGSA,A,3,65,71,72,73,74,75,,,,,,,1.1,0.6,0.9*24
###2023-12-09 13:09:05.980165$GAGSA,A,3,04,19,21,27,,,,,,,,,1.1,0.6,0.9*26
###2023-12-09 13:09:05.982202$GBGSA,A,3,14,24,25,26,33,35,,,,,,,1.1,0.6,0.9*29
###2023-12-09 13:09:05.984570$GPGSV,2,1,08,03,33,257,42,04,36,311,41,16,53,214,45,26,83,210,47*78
###2023-12-09 13:09:05.986928$GPGSV,2,2,08,28,47,073,45,29,25,058,42,31,67,044,47,32,16,141,44*78
###2023-12-09 13:09:05.989269$GLGSV,2,1,06,65,27,326,41,71,36,173,45,72,72,254,46,73,32,044,44*67
###2023-12-09 13:09:05.991034$GLGSV,2,2,06,74,68,348,41,75,35,257,45,,,,,,,,*61
###2023-12-09 13:09:05.993363$GAGSV,1,1,04,04,31,312,41,19,82,199,40,21,85,085,46,27,31,048,42*64
###2023-12-09 13:09:05.995712$GBGSV,2,1,06,14,40,192,44,24,71,031,49,25,43,265,48,26,24,064,42*61
###2023-12-09 13:09:05.997470$GBGSV,2,2,06,33,55,228,48,35,15,066,41,,,,,,,,*6E
###2023-12-09 13:09:05.998807$GNVTG,329.41,T,,M,2.68,N,4.97,K,A*28
###2023-12-09 13:09:06.000460$GNGST,180905.10,18.000,,,,0.083,0.066,0.150*55
