###2023-12-09 13:23:28.021325$GNVTG,288.66,T,,M,3.19,N,5.90,K,A*26
###2023-12-09 13:23:28.023018$GNGST,182327.10,18.000,,,,0.100,0.072,0.160*51
###2023-12-09 13:23:28.024319$GNZDA,182327.10,09,12,2023,00,00*7D
###2023-12-09 13:23:28.024964$GNEBP,,,,,,M*13
###2023-12-09 13:23:28.188114$GNGGA,182327.30,4138.0322125,N,07032.3777309,W,1,24,0.7,12.954,M,-29.745,M,0.0,*59
###2023-12-09 13:23:28.387755$GNGGA,182327.50,4138.0322830,N,07032.3779498,W,1,24,0.7,12.954,M,-29.745,M,0.0,*53
###2023-12-09 13:23:28.588278$GNGGA,182327.70,4138.0323677,N,07032.3781608,W,1,24,0.7,12.944,M,-29.745,M,0.0,*50
###2023-12-09 13:23:28.788663$GNGGA,182327.90,4138.0324661,N,07032.3783579,W,1,24,0.7,12.942,M,-29.745,M,0.0,*5F
###2023-12-09 13:23:28.995053$GNRMC,182328.10,A,4138.0325751,N,07032.3785480,W,3.15,308.11,091223,,,A*5C
###2023-12-09 13:23:28.997892$GNGGA,182328.10,4138.0325751,N,07032.3785480,W,1,24,0.7,12.945,M,-29.745,M,0.0,*5D
###2023-12-09 13:23:28.999698$GPGSA,A,3,03,04,16,26,28,29,31,,,,,,1.1,0.7,0.9*3B
###2023-12-09 13:23:29.001394$GLGSA,A,3,65,71,72,73,74,75,,,,,,,1.1,0.7,0.9*25
###2023-12-09 13:23:29.002982$GAGSA,A,3,04,19,21,27,,,,,,,,,1.1,0.7,0.9*27
###2023-12-09 13:23:29.004686$GBGSA,A,3,14,24,25,26,33,35,,,,,,,1.1,0.7,0.9*28
###2023-12-09 13:23:29.007014$GPGSV,2,1,07,03,30,251,42,04,42,310,41,16,61,218,46,26,89,050,47*72
###2023-12-09 13:23:29.009038$GPGSV,2,2,07,28,41,080,45,29,23,052,42,31,63,057,46,,,,*44
###2023-12-09 13:23:29.011371$GLGSV,2,1,06,65,34,323,41,71,29,175,42,72,68,232,46,73,27,049,45*6C
###2023-12-09 13:23:29.013106$GLGSV,2,2,06,74,63,004,42,75,40,265,46,,,,,,,,*62
###2023-12-09 13:23:29.015423$GAGSV,1,1,04,04,36,311,42,19,77,186,40,21,81,054,45,27,26,049,41*68
###2023-12-09 13:23:29.017743$GBGSV,2,1,06,14,34,191,43,24,66,040,49,25,47,271,47,26,19,068,43*6B
###2023-12-09 13:23:29.019496$GBGSV,2,2,06,33,50,221,47,35,16,061,42,,,,,,,,*6A
###2023-12-09 13:23:29.020816$GNVTG,308.11,T,,M,3.15,N,5.83,K,A*21
###2023-12-09 13:23:29.022462$GNGST,182328.10,18.000,,,,0.100,0.072,0.160*5E
###2023-12-09 13:23:29.023764$GNZDA,182328.10,09,12,2023,00,00*72
###2023-12-09 13:23:29.024399$GNEBP,,,,,,M*13
###2023-12-09 13:23:29.187078$GNGGA,182328.30,4138.0326867,N,07032.3787316,W,1,24,0.7,12.938,M,-29.745,M,0.0,*56
###2023-12-09 13:23:29.386722$GNGGA,182328.50,4138.0328098,N,07032.3789040,W,1,24,0.7,12.941,M,-29.745,M,0.0,*56
###2023-12-09 13:23:29.588648$GNGGA,182328.70,4138.0329436,N,07032.3790548,W,1,24,0.7,12.935,M,-29.745,M,0.0,*53
###2023-12-09 13:23:29.787842$GNGGA,182328.90,4138.0330856,N,07032.3791871,W,1,24,0.7,12.936,M,-29.745,M,0.0,*5A
###2023-12-09 13:23:29.991197$GNRMC,182329.10,A,4138.0332348,N,07032.3793122,W,3.07,329.25,091223,,,A*5A
###2023-12-09 13:23:29.994053$GNGGA,182329.10,4138.0332348,N,07032.3793122,W,1,24,0.7,12.930,M,-29.745,M,0.0,*5E
###2023-12-09 13:23:29.995846$GPGSA,A,3,03,04,16,26,28,29,31,,,,,,1.1,0.7,0.9*3B
###2023-12-09 13:23:29.997552$GLGSA,A,3,65,71,72,73,74,75,,,,,,,1.1,0.7,0.9*25
###2023-12-09 13:23:29.999147$GAGSA,A,3,04,19,21,27,,,,,,,,,1.1,0.7,0.9*27
###2023-12-09 13:23:30.000857$GBGSA,A,3,14,24,25,26,33,35,,,,,,,1.1,0.7,0.9*28
###2023-12-09 13:23:30.003233$GPGSV,2,1,07,03,30,251,43,04,42,310,43,16,61,218,45,26,89,050,47*72
###2023-12-09 13:23:30.005277$GPGSV,2,2,07,28,41,080,45,29,22,051,42,31,63,057,47,,,,*47
###2023-12-09 13:23:30.007624$GLGSV,2,1,06,65,34,323,39,71,29,175,46,72,68,232,46,73,27,049,44*66
###2023-12-09 13:23:30.009367$GLGSV,2,2,06,74,63,004,42,75,40,265,45,,,,,,,,*61
###2023-12-09 13:23:30.011698$GAGSV,1,1,04,04,36,311,40,19,77,186,40,21,81,054,45,27,26,049,41*6A
###2023-12-09 13:23:30.014024$GBGSV,2,1,06,14,34,191,41,24,66,040,49,25,47,271,47,26,19,068,44*6E
###2023-12-09 13:23:30.015785$GBGSV,2,2,06,33,50,221,48,35,16,061,44,,,,,,,,*63
###2023-12-09 13:23:30.017106$GNVTG,329.25,T,,M,3.07,N,5.69,K,A*22
###2023-12-09 13:23:30.018762$GNGST,182329.10,18.000,,,,0.100,0.072,0.160*5F
###2023-12-09 13:23:30.020047$GNZDA,182329.10,09,12,2023,00,00*73
###2023-12-09 13:23:30.020682$GNEBP,,,,,,M*13
###2023-12-09 13:23:30.188725$GNGGA,182329.30,4138.0333875,N,07032.3794286,W,1,24,0.7,12.926,M,-29.745,M,0.0,*55
###2023-12-09 13:23:30.386788$GNGGA,182329.50,4138.0335491,N,07032.3795348,W,1,24,0.7,12.916,M,-29.745,M,0.0,*52
###2023-12-09 13:23:30.587335$GNGGA,182329.70,4138.0337144,N,07032.3796161,W,1,24,0.7,12.920,M,-29.745,M,0.0,*50
###2023-12-09 13:23:30.788539$GNGGA,182329.90,4138.0338849,N,07032.3796684,W,1,24,0.7,12.925,M,-29.745,M,0.0,*5C
###2023-12-09 13:23:30.993503$GNRMC,182330.10,A,4138.0340496,N,07032.3796944,W,2.95,354.69,091223,,,A*56
###2023-12-09 13:23:30.996394$GNGGA,182330.10,4138.0340496,N,07032.3796944,W,1,24,0.7,12.926,M,-29.745,M,0.0,*5D
###2023-12-09 13:23:30.998181$GPGSA,A,3,03,04,16,26,28,29,31,,,,,,1.1,0.7,0.9*3B
###2023-12-09 13:23:30.999915$GLGSA,A,3,65,71,72,73,74,75,,,,,,,1.1,0.7,0.9*25
###2023-12-09 13:23:31.001499$GAGSA,A,3,04,19,21,27,,,,,,,,,1.1,0.7,0.9*27
###2023-12-09 13:23:31.003223$GBGSA,A,3,14,24,25,26,33,35,,,,,,,1.1,0.7,0.9*28
###2023-12-09 13:23:31.005562$GPGSV,2,1,07,03,30,251,42,04,42,310,44,16,61,218,46,26,89,050,47*77
###2023-12-09 13:23:31.007608$GPGSV,2,2,07,28,41,080,44,29,22,051,37,31,63,057,45,,,,*46
###2023-12-09 13:23:31.009925$GLGSV,2,1,06,65,34,323,42,71,29,175,44,72,68,232,47,73,27,049,39*63
###2023-12-09 13:23:31.011682$GLGSV,2,2,06,74,63,004,41,75,40,265,47,,,,,,,,*60
###2023-12-09 13:23:31.014018$GAGSV,1,1,04,04,36,311,43,19,77,186,40,21,81,054,45,27,26,049,37*68
###2023-12-09 13:23:31.016365$GBGSV,2,1,06,14,34,191,45,24,66,040,48,25,47,271,47,26,19,068,43*6C
###2023-12-09 13:23:31.018118$GBGSV,2,2,06,33,50,221,48,35,16,061,42,,,,,,,,*65
###2023-12-09 13:23:31.019452$GNVTG,354.69,T,,M,2.95,N,5.47,K,A*26
###2023-12-09 13:23:31.021099$GNGST,182330.10,18.000,,,,0.100,0.072,0.170*56
###2023-12-09 13:23:31.022392$GNZDA,182330.10,09,12,2023,00,00*7B
###2023-12-09 13:23:31.023041$GNEBP,,,,,,M*13
###2023-12-09 13:23:31.187106$GNGGA,182330.30,4138.0342095,N,07032.3797037,W,1,24,0.7,12.916,M,-29.745,M,0.0,*55
###2023-12-09 13:23:31.387671$GNGGA,182330.50,4138.0343642,N,07032.3797087,W,1,24,0.7,12.905,M,-29.745,M,0.0,*57
###2023-12-09 13:23:31.587155$GNGGA,182330.70,4138.0345196,N,07032.3797076,W,1,24,0.7,12.897,M,-29.745,M,0.0,*59
###2023-12-09 13:23:31.787485$GNGGA,182330.90,4138.0346781,N,07032.3796851,W,1,24,0.7,12.905,M,-29.745,M,0.0,*52
###2023-12-09 13:23:31.990903$GNRMC,182331.10,A,4138.0348426,N,07032.3796528,W,3.07,8.16,091223,,,A*5A
###2023-12-09 13:23:31.993757$GNGGA,182331.10,4138.0348426,N,07032.3796528,W,1,24,0.7,12.916,M,-29.745,M,0.0,*5A
###2023-12-09 13:23:31.995561$GPGSA,A,3,03,04,16,26,28,29,31,,,,,,1.1,0.7,0.9*3B
###2023-12-09 13:23:31.997285$GLGSA,A,3,65,71,72,73,74,75,,,,,,,1.1,0.7,0.9*25
###2023-12-09 13:23:31.998881$GAGSA,A,3,04,19,21,27,,,,,,,,,1.1,0.7,0.9*27
###2023-12-09 13:23:32.000595$GBGSA,A,3,14,24,25,26,33,35,,,,,,,1.1,0.7,0.9*28
###2023-12-09 13:23:32.002939$GPGSV,2,1,07,03,30,251,42,04,42,310,44,16,61,218,46,26,89,050,47*77
###2023-12-09 13:23:32.004979$GPGSV,2,2,07,28,41,080,43,29,22,051,38,31,63,058,45,,,,*41
###2023-12-09 13:23:32.007331$GLGSV,2,1,06,65,34,323,42,71,29,175,42,72,68,232,47,73,27,049,39*65
###2023-12-09 13:23:32.009092$GLGSV,2,2,06,74,63,004,41,75,40,265,47,,,,,,,,*60
###2023-12-09 13:23:32.011429$GAGSV,1,1,04,04,36,311,44,19,77,186,41,21,81,054,46,27,26,049,37*6D
###2023-12-09 13:23:32.013760$GBGSV,2,1,06,14,34,191,42,24,66,040,47,25,47,271,46,26,19,068,41*67
###2023-12-09 13:23:32.015515$GBGSV,2,2,06,33,50,221,47,35,16,061,40,,,,,,,,*68
###2023-12-09 13:23:32.016777$GNVTG,8.16,T,,M,3.07,N,5.69,K,A*22
###2023-12-09 13:23:32.018426$GNGST,182331.10,18.000,,,,0.100,0.072,0.170*57
###2023-12-09 13:23:32.019760$GNZDA,182331.10,09,12,2023,00,00*7A
###2023-12-09 13:23:32.020404$GNEBP,,,,,,M*13
###2023-12-09 13:23:32.187702$GNGGA,182331.30,4138.0350136,N,07032.3796201,W,1,24,0.7,12.923,M,-29.745,M,0.0,*5F
###2023-12-09 13:23:32.387593$GNGGA,182331.50,4138.0351885,N,07032.3795904,W,1,24,0.7,12.917,M,-29.745,M,0.0,*53
###2023-12-09 13:23:32.586767$GNGGA,182331.70,4138.0353618,N,07032.3795458,W,1,24,0.7,12.907,M,-29.745,M,0.0,*5C
###2023-12-09 13:23:32.786725$GNGGA,182331.90,4138.0355265,N,07032.3794685,W,1,24,0.7,12.888,M,-29.745,M,0.0,*5F
###2023-12-09 13:23:32.997443$GNRMC,182332.10,A,4138.0356884,N,07032.3793977,W,2.99,15.23,091223,,,A*6D
###2023-12-09 13:23:33.000326$GNGGA,182332.10,4138.0356884,N,07032.3793977,W,1,24,0.7,12.888,M,-29.745,M,0.0,*57
###2023-12-09 13:23:33.002124$GPGSA,A,3,03,04,16,26,28,29,31,,,,,,1.1,0.7,0.9*3B
###2023-12-09 13:23:33.003848$GLGSA,A,3,65,71,72,73,74,75,,,,,,,1.1,0.7,0.9*25
###2023-12-09 13:23:33.005430$GAGSA,A,3,04,19,21,27,,,,,,,,,1.1,0.7,0.9*27
###2023-12-09 13:23:33.007150$GBGSA,A,3,14,24,25,26,33,35,,,,,,,1.1,0.7,0.9*28
###2023-12-09 13:23:33.009472$GPGSV,2,1,07,03,30,251,42,04,42,310,43,16,61,218,45,26,89,050,48*7C
###2023-12-09 13:23:33.011517$GPGSV,2,2,07,28,41,080,44,29,22,051,38,31,63,058,45,,,,*46
