###2023-12-09 13:23:14.005688$GPGSV,2,2,07,28,42,080,45,29,23,052,40,31,63,057,47,,,,*44
###2023-12-09 13:23:14.008072$GLGSV,2,1,06,65,34,323,42,71,29,175,44,72,68,232,46,73,27,049,40*6C
###2023-12-09 13:23:14.009830$GLGSV,2,2,06,74,63,004,43,75,40,265,44,,,,,,,,*61
###2023-12-09 13:23:14.012174$GAGSV,1,1,04,04,36,311,42,19,77,186,41,21,81,054,46,27,26,049,40*6B
###2023-12-09 13:23:14.014508$GBGSV,2,1,06,14,34,191,44,24,66,040,49,25,47,271,45,26,19,068,43*6E
###2023-12-09 13:23:14.016271$GBGSV,2,2,06,33,50,221,48,35,16,061,42,,,,,,,,*65
###2023-12-09 13:23:14.017596$GNVTG,265.71,T,,M,2.94,N,5.44,K,A*2E
###2023-12-09 13:23:14.019289$GNGST,182313.10,18.000,,,,0.100,0.071,0.160*55
###2023-12-09 13:23:14.020592$GNZDA,182313.10,09,12,2023,00,00*7A
###2023-12-09 13:23:14.021235$GNEBP,,,,,,M*13
###2023-12-09 13:23:14.186366$GNGGA,182313.30,4138.0272303,N,07032.3663221,W,1,24,0.7,12.907,M,-29.745,M,0.0,*55
###2023-12-09 13:23:14.386127$GNGGA,182313.50,4138.0272534,N,07032.3665460,W,1,24,0.7,12.905,M,-29.745,M,0.0,*56
###2023-12-09 13:23:14.586647$GNGGA,182313.70,4138.0272838,N,07032.3667682,W,1,24,0.7,12.903,M,-29.745,M,0.0,*5F
###2023-12-09 13:23:14.786231$GNGGA,182313.90,4138.0273101,N,07032.3669912,W,1,24,0.7,12.905,M,-29.745,M,0.0,*5D
###2023-12-09 13:23:14.994477$GNRMC,182314.10,A,4138.0273410,N,07032.3672109,W,2.95,283.46,091223,,,A*53
###2023-12-09 13:23:14.997366$GNGGA,182314.10,4138.0273410,N,07032.3672109,W,1,24,0.7,12.900,M,-29.745,M,0.0,*5A
###2023-12-09 13:23:14.999172$GPGSA,A,3,03,04,16,26,28,29,31,,,,,,1.1,0.7,0.9*3B
###2023-12-09 13:23:15.000894$GLGSA,A,3,65,71,72,73,74,75,,,,,,,1.1,0.7,0.9*25
###2023-12-09 13:23:15.002478$GAGSA,A,3,04,19,21,27,,,,,,,,,1.1,0.7,0.9*27
###2023-12-09 13:23:15.004211$GBGSA,A,3,14,24,25,26,33,35,,,,,,,1.1,0.7,0.9*28
###2023-12-09 13:23:15.006555$GPGSV,2,1,07,03,30,251,43,04,42,310,42,16,60,218,46,26,90,099,48*73
###2023-12-09 13:23:15.008622$GPGSV,2,2,07,28,42,080,44,29,23,052,42,31,63,057,48,,,,*48
###2023-12-09 13:23:15.010977$GLGSV,2,1,06,65,34,323,42,71,29,175,44,72,68,232,46,73,27,049,44*68
###2023-12-09 13:23:15.012730$GLGSV,2,2,06,74,63,004,42,75,40,265,46,,,,,,,,*62
###2023-12-09 13:23:15.015090$GAGSV,1,1,04,04,36,311,42,19,77,186,41,21,81,054,46,27,26,049,42*69
###2023-12-09 13:23:15.017434$GBGSV,2,1,06,14,34,191,45,24,66,040,49,25,47,271,46,26,19,068,41*6E
###2023-12-09 13:23:15.019209$GBGSV,2,2,06,33,50,221,46,35,16,061,42,,,,,,,,*6B
###2023-12-09 13:23:15.020543$GNVTG,283.46,T,,M,2.95,N,5.47,K,A*20
###2023-12-09 13:23:15.022202$GNGST,182314.10,18.000,,,,0.100,0.071,0.160*52
###2023-12-09 13:23:15.023523$GNZDA,182314.10,09,12,2023,00,00*7D
###2023-12-09 13:23:15.024166$GNEBP,,,,,,M*13
###2023-12-09 13:23:15.189190$GNGGA,182314.30,4138.0273884,N,07032.3674184,W,1,24,0.7,12.901,M,-29.745,M,0.0,*5B
###2023-12-09 13:23:15.386766$GNGGA,182314.50,4138.0274528,N,07032.3676092,W,1,24,0.7,12.896,M,-29.745,M,0.0,*5A
###2023-12-09 13:23:15.585541$GNGGA,182314.70,4138.0275202,N,07032.3677874,W,1,24,0.7,12.899,M,-29.745,M,0.0,*58
###2023-12-09 13:23:15.786901$GNGGA,182314.90,4138.0275885,N,07032.3679551,W,1,24,0.7,12.893,M,-29.745,M,0.0,*5D
###2023-12-09 13:23:15.990835$GNRMC,182315.10,A,4138.0276606,N,07032.3681110,W,2.43,304.08,091223,,,A*59
###2023-12-09 13:23:15.993691$GNGGA,182315.10,4138.0276606,N,07032.3681110,W,1,24,0.7,12.886,M,-29.745,M,0.0,*50
###2023-12-09 13:23:15.995494$GPGSA,A,3,03,04,16,26,28,29,31,,,,,,1.1,0.7,0.9*3B
###2023-12-09 13:23:15.997214$GLGSA,A,3,65,71,72,73,74,75,,,,,,,1.1,0.7,0.9*25
###2023-12-09 13:23:15.998805$GAGSA,A,3,04,19,21,27,,,,,,,,,1.1,0.7,0.9*27
###2023-12-09 13:23:16.000510$GBGSA,A,3,14,24,25,26,33,35,,,,,,,1.1,0.7,0.9*28
###2023-12-09 13:23:16.002846$GPGSV,2,1,07,03,30,251,44,04,42,310,41,16,60,218,46,26,90,099,48*77
###2023-12-09 13:23:16.004891$GPGSV,2,2,07,28,42,080,45,29,23,052,42,31,63,057,46,,,,*47
###2023-12-09 13:23:16.007239$GLGSV,2,1,06,65,34,323,41,71,29,175,43,72,68,232,45,73,27,049,44*6F
###2023-12-09 13:23:16.008978$GLGSV,2,2,06,74,63,004,42,75,40,265,46,,,,,,,,*62
###2023-12-09 13:23:16.011312$GAGSV,1,1,04,04,36,311,41,19,77,186,41,21,81,054,46,27,26,049,41*69
###2023-12-09 13:23:16.013639$GBGSV,2,1,06,14,34,191,44,24,66,040,48,25,47,271,48,26,19,068,42*63
###2023-12-09 13:23:16.015395$GBGSV,2,2,06,33,50,221,48,35,16,061,41,,,,,,,,*66
###2023-12-09 13:23:16.016718$GNVTG,304.08,T,,M,2.43,N,4.50,K,A*28
###2023-12-09 13:23:16.018360$GNGST,182315.10,18.000,,,,0.100,0.071,0.160*53
###2023-12-09 13:23:16.019702$GNZDA,182315.10,09,12,2023,00,00*7C
###2023-12-09 13:23:16.020342$GNEBP,,,,,,M*13
###2023-12-09 13:23:16.186995$GNGGA,182315.30,4138.0277405,N,07032.3682429,W,1,24,0.7,12.886,M,-29.745,M,0.0,*5E
###2023-12-09 13:23:16.386644$GNGGA,182315.50,4138.0278300,N,07032.3683499,W,1,24,0.7,12.890,M,-29.745,M,0.0,*58
###2023-12-09 13:23:16.586350$GNGGA,182315.70,4138.0279197,N,07032.3684471,W,1,24,0.7,12.886,M,-29.745,M,0.0,*51
###2023-12-09 13:23:16.785764$GNGGA,182315.90,4138.0280041,N,07032.3685480,W,1,24,0.7,12.883,M,-29.745,M,0.0,*59
###2023-12-09 13:23:16.992422$GNRMC,182316.10,A,4138.0280936,N,07032.3686468,W,2.14,321.89,091223,,,A*5E
###2023-12-09 13:23:16.995910$GNGGA,182316.10,4138.0280936,N,07032.3686468,W,1,24,0.7,12.883,M,-29.745,M,0.0,*5E
###2023-12-09 13:23:16.998083$GPGSA,A,3,03,04,16,26,28,29,31,,,,,,1.1,0.7,0.9*3B
###2023-12-09 13:23:17.000181$GLGSA,A,3,65,71,72,73,74,75,,,,,,,1.1,0.7,0.9*25
###2023-12-09 13:23:17.002100$GAGSA,A,3,04,19,21,27,,,,,,,,,1.1,0.7,0.9*27
###2023-12-09 13:23:17.004171$GBGSA,A,3,14,24,25,26,33,35,,,,,,,1.1,0.7,0.9*28
###2023-12-09 13:23:17.007013$GPGSV,2,1,07,03,30,251,42,04,42,310,41,16,61,218,44,26,90,099,46*7C
###2023-12-09 13:23:17.009484$GPGSV,2,2,07,28,42,080,43,29,23,052,41,31,63,057,45,,,,*41
###2023-12-09 13:23:17.012340$GLGSV,2,1,06,65,34,323,39,71,29,175,45,72,68,232,47,73,27,049,43*63
###2023-12-09 13:23:17.014453$GLGSV,2,2,06,74,63,004,42,75,40,265,46,,,,,,,,*62
###2023-12-09 13:23:17.017280$GAGSV,1,1,04,04,36,311,39,19,77,186,40,21,81,054,44,27,26,049,40*64
###2023-12-09 13:23:17.020142$GBGSV,2,1,06,14,34,191,41,24,66,040,47,25,47,271,46,26,19,068,41*64
###2023-12-09 13:23:17.022256$GBGSV,2,2,06,33,50,221,48,35,16,061,41,,,,,,,,*66
###2023-12-09 13:23:17.023867$GNVTG,321.89,T,,M,2.14,N,3.96,K,A*29
###2023-12-09 13:23:17.025852$GNGST,182316.10,18.000,,,,0.100,0.071,0.160*50
###2023-12-09 13:23:17.027424$GNZDA,182316.10,09,12,2023,00,00*7F
###2023-12-09 13:23:17.028201$GNEBP,,,,,,M*13
###2023-12-09 13:23:17.186923$GNGGA,182316.30,4138.0281910,N,07032.3687323,W,1,24,0.7,12.886,M,-29.745,M,0.0,*55
###2023-12-09 13:23:17.386533$GNGGA,182316.50,4138.0282979,N,07032.3688040,W,1,24,0.7,12.893,M,-29.745,M,0.0,*52
###2023-12-09 13:23:17.586373$GNGGA,182316.70,4138.0284071,N,07032.3688772,W,1,24,0.7,12.894,M,-29.745,M,0.0,*56
###2023-12-09 13:23:17.786946$GNGGA,182316.90,4138.0285162,N,07032.3689601,W,1,24,0.7,12.900,M,-29.745,M,0.0,*52
###2023-12-09 13:23:17.990641$GNRMC,182317.10,A,4138.0286294,N,07032.3690376,W,2.27,334.87,091223,,,A*5F
###2023-12-09 13:23:17.993527$GNGGA,182317.10,4138.0286294,N,07032.3690376,W,1,24,0.7,12.897,M,-29.745,M,0.0,*50
###2023-12-09 13:23:17.995337$GPGSA,A,3,03,04,16,26,28,29,31,,,,,,1.1,0.7,0.9*3B
###2023-12-09 13:23:17.997045$GLGSA,A,3,65,71,72,73,74,75,,,,,,,1.1,0.7,0.9*25
###2023-12-09 13:23:17.998635$GAGSA,A,3,04,19,21,27,,,,,,,,,1.1,0.7,0.9*27
###2023-12-09 13:23:18.000357$GBGSA,A,3,14,24,25,26,33,35,,,,,,,1.1,0.7,0.9*28
###2023-12-09 13:23:18.002705$GPGSV,2,1,07,03,30,251,44,04,42,310,44,16,61,218,45,26,90,099,47*7F
###2023-12-09 13:23:18.004800$GPGSV,2,2,07,28,42,080,44,29,23,052,41,31,63,057,46,,,,*45
###2023-12-09 13:23:18.007179$GLGSV,2,1,06,65,34,323,39,71,29,175,45,72,68,232,45,73,27,049,43*61
###2023-12-09 13:23:18.008935$GLGSV,2,2,06,74,63,004,42,75,40,265,45,,,,,,,,*61
###2023-12-09 13:23:18.011260$GAGSV,1,1,04,04,36,311,41,19,77,186,40,21,81,054,45,27,26,049,39*64
###2023-12-09 13:23:18.013593$GBGSV,2,1,06,14,34,191,42,24,66,040,48,25,47,271,46,26,19,068,42*6B
###2023-12-09 13:23:18.015348$GBGSV,2,2,06,33,50,221,48,35,16,061,42,,,,,,,,*65
###2023-12-09 13:23:18.016665$GNVTG,334.87,T,,M,2.27,N,4.21,K,A*28
###2023-12-09 13:23:18.018559$GNGST,182317.10,18.000,,,,0.100,0.071,0.170*50
###2023-12-09 13:23:18.019884$GNZDA,182317.10,09,12,2023,00,00*7E
###2023-12-09 13:23:18.020527$GNEBP,,,,,,M*13
###2023-12-09 13:23:18.189405$GNGGA,182317.30,4138.0287488,N,07032.3691014,W,1,24,0.7,12.897,M,-29.745,M,0.0,*5E
###2023-12-09 13:23:18.385960$GNGGA,182317.50,4138.0288723,N,07032.3691567,W,1,24,0.7,12.901,M,-29.745,M,0.0,*5A
###2023-12-09 13:23:18.586467$GNGGA,182317.70,4138.0289963,N,07032.3692222,W,1,24,0.7,12.904,M,-29.745,M,0.0,*53
###2023-12-09 13:23:18.787881$GNGGA,182317.90,4138.0291149,N,07032.3693027,W,1,24,0.7,12.909,M,-29.745,M,0.0,*5F
###2023-12-09 13:23:18.992218$GNRMC,182318.10,A,4138.0292394,N,07032.3693765,W,2.49,337.55,091223,,,A*55
###2023-12-09 13:23:18.995090$GNGGA,182318.10,4138.0292394,N,07032.3693765,W,1,24,0.7,12.914,M,-29.745,M,0.0,*54
