###2023-12-09 12:42:02.543327$GNGGA,174201.70,4138.0659016,N,07032.3764545,W,1,24,0.6,13.416,M,-29.744,M,0.0,*5F
###2023-12-09 12:42:02.742509$GNGGA,174201.90,4138.0659067,N,07032.3764642,W,1,24,0.6,13.430,M,-29.744,M,0.0,*57
###2023-12-09 12:42:02.943867$GNRMC,174202.10,A,4138.0659126,N,07032.3764757,W,0.37,312.82,091223,,,A*50
###2023-12-09 12:42:02.946744$GNGGA,174202.10,4138.0659126,N,07032.3764757,W,1,24,0.6,13.427,M,-29.744,M,0.0,*5B
###2023-12-09 12:42:02.948621$GPGSA,A,3,03,04,16,26,28,29,31,32,,,,,1.1,0.6,0.9*3B
###2023-12-09 12:42:02.950339$GLGSA,A,3,65,71,72,73,74,75,,,,,,,1.1,0.6,0.9*24
###2023-12-09 12:42:02.951939$GAGSA,A,3,04,19,21,27,,,,,,,,,1.1,0.6,0.9*26
###2023-12-09 12:42:02.953593$GBGSA,A,3,14,24,25,26,33,,,,,,,,1.1,0.6,0.9*2F
###2023-12-09 12:42:02.955932$GPGSV,2,1,08,03,38,272,44,04,25,311,41,16,40,208,46,26,70,207,48*79
###2023-12-09 12:42:02.958265$GPGSV,2,2,08,28,55,060,44,29,25,070,41,31,72,013,47,32,27,136,44*75
###2023-12-09 12:42:02.960620$GLGSV,2,1,06,65,15,329,39,71,52,170,48,72,68,302,46,73,44,035,45*65
###2023-12-09 12:42:02.962373$GLGSV,2,2,06,74,71,303,43,75,25,244,44,,,,,,,,*66
###2023-12-09 12:42:02.964713$GAGSV,1,1,04,04,23,311,41,19,83,289,41,21,80,172,46,27,39,049,42*63
###2023-12-09 12:42:02.967047$GBGSV,2,1,05,14,52,196,45,24,79,359,48,25,34,255,44,26,33,058,45*61
###2023-12-09 12:42:02.968505$GBGSV,2,2,05,33,62,248,47,,,,,,,,,,,,*57
###2023-12-09 12:42:02.969827$GNVTG,312.82,T,,M,0.37,N,0.68,K,A*23
###2023-12-09 12:42:02.971482$GNGST,174202.10,18.000,,,,0.076,0.070,0.160*5C
###2023-12-09 12:42:02.972764$GNZDA,174202.10,09,12,2023,00,00*72
###2023-12-09 12:42:02.973401$GNEBP,,,,,,M*13
###2023-12-09 12:42:03.142546$GNGGA,174202.30,4138.0659351,N,07032.3765114,W,1,24,0.6,13.422,M,-29.744,M,0.0,*5E
###2023-12-09 12:42:03.343026$GNGGA,174202.50,4138.0659633,N,07032.3765555,W,1,24,0.6,13.406,M,-29.744,M,0.0,*5E
###2023-12-09 12:42:03.543314$GNGGA,174202.70,4138.0659726,N,07032.3765734,W,1,24,0.6,13.406,M,-29.744,M,0.0,*5C
###2023-12-09 12:42:03.742438$GNGGA,174202.90,4138.0659713,N,07032.3765791,W,1,24,0.6,13.425,M,-29.744,M,0.0,*5A
###2023-12-09 12:42:03.943803$GNRMC,174203.10,A,4138.0659889,N,07032.3766074,W,0.76,312.82,091223,,,A*5C
###2023-12-09 12:42:03.946679$GNGGA,174203.10,4138.0659889,N,07032.3766074,W,1,24,0.6,13.445,M,-29.744,M,0.0,*56
###2023-12-09 12:42:03.948558$GPGSA,A,3,03,04,16,26,28,29,31,32,,,,,1.1,0.6,0.9*3B
###2023-12-09 12:42:03.950276$GLGSA,A,3,65,71,72,73,74,75,,,,,,,1.1,0.6,0.9*24
###2023-12-09 12:42:03.951878$GAGSA,A,3,04,19,21,27,,,,,,,,,1.1,0.6,0.9*26
###2023-12-09 12:42:03.953523$GBGSA,A,3,14,24,25,26,33,,,,,,,,1.1,0.6,0.9*2F
###2023-12-09 12:42:03.955867$GPGSV,2,1,08,03,38,272,44,04,25,311,42,16,40,208,46,26,70,207,49*7B
###2023-12-09 12:42:03.958205$GPGSV,2,2,08,28,55,060,44,29,25,070,41,31,72,013,46,32,27,136,44*74
###2023-12-09 12:42:03.960568$GLGSV,2,1,06,65,15,329,39,71,52,170,48,72,68,302,47,73,44,035,45*64
###2023-12-09 12:42:03.962322$GLGSV,2,2,06,74,71,303,43,75,25,244,44,,,,,,,,*66
###2023-12-09 12:42:03.964668$GAGSV,1,1,04,04,23,311,42,19,83,289,41,21,80,172,46,27,39,049,42*60
###2023-12-09 12:42:03.967010$GBGSV,2,1,05,14,52,196,45,24,79,359,48,25,34,255,46,26,33,058,45*63
###2023-12-09 12:42:03.968473$GBGSV,2,2,05,33,62,248,48,,,,,,,,,,,,*58
###2023-12-09 12:42:03.969795$GNVTG,312.82,T,,M,0.76,N,1.40,K,A*2D
###2023-12-09 12:42:03.971465$GNGST,174203.10,18.000,,,,0.077,0.070,0.160*5C
###2023-12-09 12:42:03.972760$GNZDA,174203.10,09,12,2023,00,00*73
###2023-12-09 12:42:03.973400$GNEBP,,,,,,M*13
###2023-12-09 12:42:04.143571$GNGGA,174203.30,4138.0660168,N,07032.3766478,W,1,24,0.6,13.443,M,-29.744,M,0.0,*56
###2023-12-09 12:42:04.342875$GNGGA,174203.50,4138.0660311,N,07032.3766673,W,1,24,0.6,13.418,M,-29.744,M,0.0,*5B
###2023-12-09 12:42:04.544091$GNGGA,174203.70,4138.0660302,N,07032.3766765,W,1,24,0.6,13.411,M,-29.744,M,0.0,*54
###2023-12-09 12:42:04.742382$GNGGA,174203.90,4138.0660401,N,07032.3767001,W,1,24,0.6,13.423,M,-29.744,M,0.0,*5B
###2023-12-09 12:42:04.943763$GNRMC,174204.10,A,4138.0660692,N,07032.3767456,W,0.86,312.82,091223,,,A*5F
###2023-12-09 12:42:04.946666$GNGGA,174204.10,4138.0660692,N,07032.3767456,W,1,24,0.6,13.439,M,-29.744,M,0.0,*51
###2023-12-09 12:42:04.948542$GPGSA,A,3,03,04,16,26,28,29,31,32,,,,,1.1,0.6,0.9*3B
###2023-12-09 12:42:04.950260$GLGSA,A,3,65,71,72,73,74,75,,,,,,,1.1,0.6,0.9*24
###2023-12-09 12:42:04.951867$GAGSA,A,3,04,19,21,27,,,,,,,,,1.1,0.6,0.9*26
###2023-12-09 12:42:04.953529$GBGSA,A,3,14,24,25,26,33,,,,,,,,1.1,0.6,0.9*2F
###2023-12-09 12:42:04.955892$GPGSV,2,1,08,03,38,272,45,04,25,311,42,16,40,208,44,26,70,207,48*79
###2023-12-09 12:42:04.958230$GPGSV,2,2,08,28,55,060,44,29,25,070,39,31,72,013,47,32,27,136,43*7D
###2023-12-09 12:42:04.960585$GLGSV,2,1,06,65,15,329,40,71,52,170,47,72,68,302,47,73,44,035,44*64
###2023-12-09 12:42:04.962330$GLGSV,2,2,06,74,71,303,43,75,25,244,44,,,,,,,,*66
###2023-12-09 12:42:04.964686$GAGSV,1,1,04,04,23,311,42,19,83,289,41,21,80,172,46,27,39,049,42*60
###2023-12-09 12:42:04.967042$GBGSV,2,1,05,14,52,196,45,24,79,359,48,25,34,255,45,26,33,058,45*60
###2023-12-09 12:42:04.968503$GBGSV,2,2,05,33,62,248,48,,,,,,,,,,,,*58
###2023-12-09 12:42:04.969828$GNVTG,312.82,T,,M,0.86,N,1.58,K,A*2B
###2023-12-09 12:42:04.971504$GNGST,174204.10,18.000,,,,0.077,0.070,0.160*5B
###2023-12-09 12:42:04.972801$GNZDA,174204.10,09,12,2023,00,00*74
###2023-12-09 12:42:04.973439$GNEBP,,,,,,M*13
###2023-12-09 12:42:05.142534$GNGGA,174204.30,4138.0660894,N,07032.3767757,W,1,24,0.6,13.440,M,-29.744,M,0.0,*57
###2023-12-09 12:42:05.343021$GNGGA,174204.50,4138.0660846,N,07032.3767769,W,1,24,0.6,13.423,M,-29.744,M,0.0,*56
###2023-12-09 12:42:05.544556$GNGGA,174204.70,4138.0660846,N,07032.3767854,W,1,24,0.6,13.414,M,-29.744,M,0.0,*51
###2023-12-09 12:42:05.743164$GNGGA,174204.90,4138.0661170,N,07032.3768331,W,1,24,0.6,13.426,M,-29.744,M,0.0,*54
###2023-12-09 12:42:05.943500$GNRMC,174205.10,A,4138.0661475,N,07032.3768807,W,0.51,312.64,091223,,,A*51
###2023-12-09 12:42:05.946382$GNGGA,174205.10,4138.0661475,N,07032.3768807,W,1,24,0.6,13.418,M,-29.744,M,0.0,*5E
###2023-12-09 12:42:05.948298$GPGSA,A,3,03,04,16,26,28,29,31,32,,,,,1.1,0.6,0.9*3B
###2023-12-09 12:42:05.950041$GLGSA,A,3,65,71,72,73,74,75,,,,,,,1.1,0.6,0.9*24
###2023-12-09 12:42:05.951651$GAGSA,A,3,04,19,21,27,,,,,,,,,1.1,0.6,0.9*26
###2023-12-09 12:42:05.953298$GBGSA,A,3,14,24,25,26,33,,,,,,,,1.1,0.6,0.9*2F
###2023-12-09 12:42:05.955639$GPGSV,2,1,08,03,38,272,44,04,25,311,43,16,40,208,43,26,70,207,48*7E
###2023-12-09 12:42:05.957966$GPGSV,2,2,08,28,55,060,43,29,25,070,39,31,72,013,46,32,27,136,42*7A
###2023-12-09 12:42:05.960306$GLGSV,2,1,06,65,15,329,42,71,52,170,47,72,68,302,47,73,44,035,45*67
###2023-12-09 12:42:05.962051$GLGSV,2,2,06,74,71,303,43,75,25,244,45,,,,,,,,*67
###2023-12-09 12:42:05.964386$GAGSV,1,1,04,04,23,311,43,19,83,289,40,21,80,172,45,27,39,049,41*60
###2023-12-09 12:42:05.966717$GBGSV,2,1,05,14,52,196,44,24,79,359,48,25,34,255,45,26,33,058,45*61
###2023-12-09 12:42:05.968169$GBGSV,2,2,05,33,62,248,48,,,,,,,,,,,,*58
###2023-12-09 12:42:05.969493$GNVTG,312.64,T,,M,0.51,N,0.94,K,A*28
###2023-12-09 12:42:05.971151$GNGST,174205.10,18.000,,,,0.077,0.069,0.160*52
###2023-12-09 12:42:05.972443$GNZDA,174205.10,09,12,2023,00,00*75
###2023-12-09 12:42:05.973084$GNEBP,,,,,,M*13
###2023-12-09 12:42:06.142820$GNGGA,174205.30,4138.0661465,N,07032.3768873,W,1,24,0.6,13.433,M,-29.744,M,0.0,*57
###2023-12-09 12:42:06.345245$GNGGA,174205.50,4138.0661394,N,07032.3768849,W,1,24,0.6,13.436,M,-29.744,M,0.0,*54
###2023-12-09 12:42:06.542941$GNGGA,174205.70,4138.0661561,N,07032.3769138,W,1,24,0.6,13.434,M,-29.744,M,0.0,*56
###2023-12-09 12:42:06.742269$GNGGA,174205.90,4138.0661910,N,07032.3769664,W,1,24,0.6,13.417,M,-29.744,M,0.0,*5D
###2023-12-09 12:42:06.943726$GNRMC,174206.10,A,4138.0662096,N,07032.3769986,W,0.21,312.78,091223,,,A*5B
###2023-12-09 12:42:06.946611$GNGGA,174206.10,4138.0662096,N,07032.3769986,W,1,24,0.6,13.413,M,-29.744,M,0.0,*55
###2023-12-09 12:42:06.948526$GPGSA,A,3,03,04,16,26,28,29,31,32,,,,,1.1,0.6,0.9*3B
###2023-12-09 12:42:06.950268$GLGSA,A,3,65,71,72,73,74,75,,,,,,,1.1,0.6,0.9*24
###2023-12-09 12:42:06.952136$GAGSA,A,3,04,19,21,27,,,,,,,,,1.1,0.6,0.9*26
###2023-12-09 12:42:06.953813$GBGSA,A,3,14,24,25,26,33,,,,,,,,1.1,0.6,0.9*2F
###2023-12-09 12:42:06.956184$GPGSV,2,1,08,03,38,272,43,04,25,311,43,16,40,208,43,26,70,207,48*79
###2023-12-09 12:42:06.958541$GPGSV,2,2,08,28,55,060,43,29,25,070,39,31,72,013,46,32,27,136,42*7A
###2023-12-09 12:42:06.960902$GLGSV,2,1,06,65,15,329,39,71,52,170,47,72,68,302,47,73,44,035,45*6B
###2023-12-09 12:42:06.962675$GLGSV,2,2,06,74,71,303,43,75,25,244,45,,,,,,,,*67
###2023-12-09 12:42:06.965015$GAGSV,1,1,04,04,23,311,43,19,83,289,40,21,80,172,46,27,39,049,41*63
###2023-12-09 12:42:06.967367$GBGSV,2,1,05,14,52,196,44,24,79,359,48,25,34,255,45,26,33,058,45*61
###2023-12-09 12:42:06.968828$GBGSV,2,2,05,33,62,248,48,,,,,,,,,,,,*58
###2023-12-09 12:42:06.970155$GNVTG,312.78,T,,M,0.21,N,0.40,K,A*2B
