###2023-12-09 12:58:23.360299$GNGGA,175822.50,4138.0330702,N,07032.3111598,W,1,24,0.6,13.196,M,-29.744,M,0.0,*56
###2023-12-09 12:58:23.561318$GNGGA,175822.70,4138.0331129,N,07032.3109282,W,1,24,0.6,13.216,M,-29.744,M,0.0,*54
###2023-12-09 12:58:23.763465$GNGGA,175822.90,4138.0331406,N,07032.3106821,W,1,24,0.6,13.250,M,-29.744,M,0.0,*5C
###2023-12-09 12:58:23.963209$GNRMC,175823.10,A,4138.0331200,N,07032.3104227,W,3.48,100.95,091223,,,A*5A
###2023-12-09 12:58:23.966089$GNGGA,175823.10,4138.0331200,N,07032.3104227,W,1,24,0.6,13.219,M,-29.744,M,0.0,*56
###2023-12-09 12:58:23.967986$GPGSA,A,3,03,04,16,26,28,29,31,32,,,,,1.1,0.6,0.9*3B
###2023-12-09 12:58:23.969715$GLGSA,A,3,65,71,72,73,74,75,,,,,,,1.1,0.6,0.9*24
###2023-12-09 12:58:23.971316$GAGSA,A,3,04,19,21,27,,,,,,,,,1.1,0.6,0.9*26
###2023-12-09 12:58:23.972963$GBGSA,A,3,14,24,25,26,33,,,,,,,,1.1,0.6,0.9*2F
###2023-12-09 12:58:23.975297$GPGSV,2,1,08,03,36,264,44,04,31,311,39,16,48,211,46,26,78,209,47*73
###2023-12-09 12:58:23.977621$GPGSV,2,2,08,28,50,069,42,29,25,063,39,31,69,033,45,32,20,139,41*75
###2023-12-09 12:58:23.979957$GLGSV,2,1,06,65,22,328,41,71,43,172,48,72,73,277,47,73,37,040,45*63
###2023-12-09 12:58:23.981697$GLGSV,2,2,06,74,70,331,43,75,30,251,46,,,,,,,,*64
###2023-12-09 12:58:23.984014$GAGSV,1,1,04,04,28,312,40,19,85,226,40,21,85,133,46,27,34,048,43*65
###2023-12-09 12:58:23.986330$GBGSV,2,1,05,14,45,193,46,24,75,020,48,25,39,260,46,26,27,062,41*61
###2023-12-09 12:58:23.987800$GBGSV,2,2,05,33,59,235,48,,,,,,,,,,,,*5A
###2023-12-09 12:58:23.989125$GNVTG,100.95,T,,M,3.48,N,6.44,K,A*27
###2023-12-09 12:58:23.990813$GNGST,175823.10,18.000,,,,0.080,0.068,0.160*54
###2023-12-09 12:58:23.992105$GNZDA,175823.10,09,12,2023,00,00*7A
###2023-12-09 12:58:23.992742$GNEBP,,,,,,M*13
###2023-12-09 12:58:24.160436$GNGGA,175823.30,4138.0331050,N,07032.3101802,W,1,24,0.6,13.183,M,-29.744,M,0.0,*5B
###2023-12-09 12:58:24.359979$GNGGA,175823.50,4138.0331577,N,07032.3099453,W,1,24,0.6,13.220,M,-29.744,M,0.0,*5F
###2023-12-09 12:58:24.560314$GNGGA,175823.70,4138.0331742,N,07032.3096864,W,1,24,0.6,13.211,M,-29.744,M,0.0,*5C
###2023-12-09 12:58:24.764440$GNGGA,175823.90,4138.0331263,N,07032.3094436,W,1,24,0.6,13.197,M,-29.744,M,0.0,*50
###2023-12-09 12:58:24.963328$GNRMC,175824.10,A,4138.0330937,N,07032.3092118,W,3.34,88.53,091223,,,A*62
###2023-12-09 12:58:24.966172$GNGGA,175824.10,4138.0330937,N,07032.3092118,W,1,24,0.6,13.222,M,-29.744,M,0.0,*56
###2023-12-09 12:58:24.968038$GPGSA,A,3,03,04,16,26,28,29,31,32,,,,,1.1,0.6,0.9*3B
###2023-12-09 12:58:24.969754$GLGSA,A,3,65,71,72,73,74,75,,,,,,,1.1,0.6,0.9*24
###2023-12-09 12:58:24.971350$GAGSA,A,3,04,19,21,27,,,,,,,,,1.1,0.6,0.9*26
###2023-12-09 12:58:24.972997$GBGSA,A,3,14,24,25,26,33,,,,,,,,1.1,0.6,0.9*2F
###2023-12-09 12:58:24.975336$GPGSV,2,1,08,03,36,264,44,04,31,311,41,16,48,211,47,26,78,209,47*7D
###2023-12-09 12:58:24.977666$GPGSV,2,2,08,28,50,069,43,29,25,063,40,31,69,033,45,32,20,139,42*79
###2023-12-09 12:58:24.980013$GLGSV,2,1,06,65,22,328,39,71,43,172,47,72,73,277,47,73,37,040,45*63
###2023-12-09 12:58:24.981761$GLGSV,2,2,06,74,70,331,43,75,30,251,45,,,,,,,,*67
###2023-12-09 12:58:24.984106$GAGSV,1,1,04,04,28,312,41,19,85,226,40,21,85,133,46,27,34,048,43*64
###2023-12-09 12:58:24.986448$GBGSV,2,1,05,14,44,193,46,24,75,020,48,25,39,260,46,26,27,062,42*63
###2023-12-09 12:58:24.987908$GBGSV,2,2,05,33,59,235,49,,,,,,,,,,,,*5B
###2023-12-09 12:58:24.989195$GNVTG,88.53,T,,M,3.34,N,6.19,K,A*1F
###2023-12-09 12:58:24.990847$GNGST,175824.10,18.000,,,,0.081,0.069,0.160*53
###2023-12-09 12:58:24.992136$GNZDA,175824.10,09,12,2023,00,00*7D
###2023-12-09 12:58:24.992773$GNEBP,,,,,,M*13
###2023-12-09 12:58:25.160382$GNGGA,175824.30,4138.0331027,N,07032.3089532,W,1,24,0.6,13.233,M,-29.744,M,0.0,*5B
###2023-12-09 12:58:25.361408$GNGGA,175824.50,4138.0330822,N,07032.3087084,W,1,24,0.6,13.181,M,-29.744,M,0.0,*5D
###2023-12-09 12:58:25.561334$GNGGA,175824.70,4138.0330731,N,07032.3084756,W,1,24,0.6,13.223,M,-29.744,M,0.0,*52
###2023-12-09 12:58:25.761673$GNGGA,175824.90,4138.0330485,N,07032.3082148,W,1,24,0.6,13.249,M,-29.744,M,0.0,*53
###2023-12-09 12:58:25.963376$GNRMC,175825.10,A,4138.0330040,N,07032.3079654,W,3.17,97.32,091223,,,A*68
###2023-12-09 12:58:25.966239$GNGGA,175825.10,4138.0330040,N,07032.3079654,W,1,24,0.6,13.181,M,-29.744,M,0.0,*5E
###2023-12-09 12:58:25.968126$GPGSA,A,3,03,04,16,26,28,29,31,32,,,,,1.1,0.6,0.9*3B
###2023-12-09 12:58:25.969857$GLGSA,A,3,65,71,72,73,74,75,,,,,,,1.1,0.6,0.9*24
###2023-12-09 12:58:25.971475$GAGSA,A,3,04,19,21,27,,,,,,,,,1.1,0.6,0.9*26
###2023-12-09 12:58:25.973132$GBGSA,A,3,14,24,25,26,33,,,,,,,,1.1,0.6,0.9*2F
###2023-12-09 12:58:25.975483$GPGSV,2,1,08,03,36,264,45,04,31,311,42,16,48,211,48,26,78,209,48*7F
###2023-12-09 12:58:25.977829$GPGSV,2,2,08,28,50,069,44,29,25,063,42,31,69,033,47,32,20,139,43*7F
###2023-12-09 12:58:25.980192$GLGSV,2,1,06,65,22,328,39,71,43,172,47,72,73,277,47,73,37,040,45*63
###2023-12-09 12:58:25.981947$GLGSV,2,2,06,74,70,331,42,75,30,251,46,,,,,,,,*65
###2023-12-09 12:58:25.984298$GAGSV,1,1,04,04,28,312,41,19,85,226,40,21,85,133,46,27,34,048,43*64
###2023-12-09 12:58:25.986644$GBGSV,2,1,05,14,44,193,46,24,75,020,49,25,39,260,47,26,27,062,44*65
###2023-12-09 12:58:25.988108$GBGSV,2,2,05,33,59,235,48,,,,,,,,,,,,*5A
###2023-12-09 12:58:25.989403$GNVTG,97.32,T,,M,3.17,N,5.87,K,A*13
###2023-12-09 12:58:25.991063$GNGST,175825.10,18.000,,,,0.081,0.068,0.160*53
###2023-12-09 12:58:25.992362$GNZDA,175825.10,09,12,2023,00,00*7C
###2023-12-09 12:58:25.993003$GNEBP,,,,,,M*13
###2023-12-09 12:58:26.160506$GNGGA,175825.30,4138.0330287,N,07032.3077337,W,1,24,0.6,13.216,M,-29.744,M,0.0,*56
###2023-12-09 12:58:26.361050$GNGGA,175825.50,4138.0330468,N,07032.3074721,W,1,24,0.6,13.245,M,-29.744,M,0.0,*51
###2023-12-09 12:58:26.562460$GNGGA,175825.70,4138.0330079,N,07032.3072161,W,1,24,0.6,13.187,M,-29.744,M,0.0,*5E
###2023-12-09 12:58:26.762637$GNGGA,175825.90,4138.0329777,N,07032.3069814,W,1,24,0.6,13.194,M,-29.744,M,0.0,*52
###2023-12-09 12:58:26.963969$GNRMC,175826.10,A,4138.0330021,N,07032.3067296,W,3.65,84.86,091223,,,A*61
###2023-12-09 12:58:26.966825$GNGGA,175826.10,4138.0330021,N,07032.3067296,W,1,24,0.6,13.237,M,-29.744,M,0.0,*51
###2023-12-09 12:58:26.968664$GPGSA,A,3,03,04,16,26,28,29,31,32,,,,,1.1,0.6,0.9*3B
###2023-12-09 12:58:26.970364$GLGSA,A,3,65,71,72,73,74,75,,,,,,,1.1,0.6,0.9*24
###2023-12-09 12:58:26.971962$GAGSA,A,3,04,19,21,27,,,,,,,,,1.1,0.6,0.9*26
###2023-12-09 12:58:26.973610$GBGSA,A,3,14,24,25,26,33,,,,,,,,1.1,0.6,0.9*2F
###2023-12-09 12:58:26.975937$GPGSV,2,1,08,03,36,264,45,04,31,311,43,16,48,211,47,26,78,209,48*71
###2023-12-09 12:58:26.978260$GPGSV,2,2,08,28,50,069,42,29,25,063,42,31,69,033,47,32,20,139,41*7B
###2023-12-09 12:58:26.980610$GLGSV,2,1,06,65,22,328,40,71,43,172,47,72,73,277,47,73,37,040,46*6E
###2023-12-09 12:58:26.982348$GLGSV,2,2,06,74,70,331,42,75,30,251,46,,,,,,,,*65
###2023-12-09 12:58:26.984679$GAGSV,1,1,04,04,28,312,41,19,85,226,40,21,85,133,46,27,34,048,43*64
###2023-12-09 12:58:26.987020$GBGSV,2,1,05,14,44,193,45,24,75,020,48,25,39,260,46,26,27,062,44*66
###2023-12-09 12:58:26.988470$GBGSV,2,2,05,33,59,235,48,,,,,,,,,,,,*5A
###2023-12-09 12:58:26.989756$GNVTG,84.86,T,,M,3.65,N,6.77,K,A*17
###2023-12-09 12:58:26.991405$GNGST,175826.10,18.000,,,,0.081,0.068,0.160*50
###2023-12-09 12:58:26.992690$GNZDA,175826.10,09,12,2023,00,00*7F
###2023-12-09 12:58:26.993327$GNEBP,,,,,,M*13
###2023-12-09 12:58:27.163456$GNGGA,175826.30,4138.0329927,N,07032.3064691,W,1,24,0.6,13.185,M,-29.744,M,0.0,*5E
###2023-12-09 12:58:27.361064$GNGGA,175826.50,4138.0329642,N,07032.3062365,W,1,24,0.6,13.195,M,-29.744,M,0.0,*5D
###2023-12-09 12:58:27.561358$GNGGA,175826.70,4138.0329393,N,07032.3059874,W,1,24,0.6,13.232,M,-29.744,M,0.0,*5B
###2023-12-09 12:58:27.761566$GNGGA,175826.90,4138.0329030,N,07032.3057322,W,1,24,0.6,13.185,M,-29.744,M,0.0,*56
###2023-12-09 12:58:27.962149$GNRMC,175827.10,A,4138.0328919,N,07032.3054913,W,3.32,85.76,091223,,,A*61
###2023-12-09 12:58:27.965017$GNGGA,175827.10,4138.0328919,N,07032.3054913,W,1,24,0.6,13.172,M,-29.744,M,0.0,*5F
###2023-12-09 12:58:27.966886$GPGSA,A,3,03,04,16,26,28,29,31,32,,,,,1.1,0.6,0.9*3B
###2023-12-09 12:58:27.968850$GLGSA,A,3,65,71,72,73,74,75,,,,,,,1.1,0.6,0.9*24
###2023-12-09 12:58:27.970440$GAGSA,A,3,04,19,21,27,,,,,,,,,1.1,0.6,0.9*26
###2023-12-09 12:58:27.972100$GBGSA,A,3,14,24,25,26,33,,,,,,,,1.1,0.6,0.9*2F
###2023-12-09 12:58:27.974428$GPGSV,2,1,08,03,36,264,45,04,31,311,42,16,48,211,47,26,78,209,48*70
###2023-12-09 12:58:27.976777$GPGSV,2,2,08,28,50,069,43,29,25,063,42,31,69,033,47,32,20,139,43*78
###2023-12-09 12:58:27.979127$GLGSV,2,1,06,65,22,328,42,71,43,172,46,72,73,277,47,73,37,040,46*6D
###2023-12-09 12:58:27.980882$GLGSV,2,2,06,74,70,331,43,75,30,251,47,,,,,,,,*65
###2023-12-09 12:58:27.983221$GAGSV,1,1,04,04,28,312,42,19,85,226,40,21,85,133,46,27,34,048,43*67
###2023-12-09 12:58:27.985551$GBGSV,2,1,05,14,44,193,45,24,75,020,48,25,39,260,47,26,27,062,43*60
###2023-12-09 12:58:27.987019$GBGSV,2,2,05,33,59,235,48,,,,,,,,,,,,*5A
