###2023-12-09 13:17:21.779176$GNGGA,181720.90,4138.0590093,N,07032.2930259,W,1,24,0.7,12.932,M,-29.743,M,0.0,*5E
###2023-12-09 13:17:21.984356$GNRMC,181721.10,A,4138.0588207,N,07032.2930375,W,3.40,188.80,091223,,,A*5B
###2023-12-09 13:17:21.987252$GNGGA,181721.10,4138.0588207,N,07032.2930375,W,1,24,0.7,12.947,M,-29.743,M,0.0,*5C
###2023-12-09 13:17:21.989052$GPGSA,A,3,03,04,16,26,28,29,31,,,,,,1.2,0.7,1.0*30
###2023-12-09 13:17:21.990778$GLGSA,A,3,65,71,72,73,74,75,,,,,,,1.2,0.7,1.0*2E
###2023-12-09 13:17:21.992362$GAGSA,A,3,04,19,21,27,,,,,,,,,1.2,0.7,1.0*2C
###2023-12-09 13:17:21.994068$GBGSA,A,3,14,24,25,26,33,35,,,,,,,1.2,0.7,1.0*23
###2023-12-09 13:17:21.996407$GPGSV,2,1,07,03,31,253,41,04,39,310,44,16,58,216,44,26,87,208,47*7C
###2023-12-09 13:17:21.998451$GPGSV,2,2,07,28,44,077,44,29,24,054,41,31,65,052,46,,,,*49
###2023-12-09 13:17:22.000800$GLGSV,2,1,06,65,31,324,43,71,32,174,41,72,70,240,46,73,29,047,42*6F
###2023-12-09 13:17:22.002560$GLGSV,2,2,06,74,65,358,43,75,38,261,46,,,,,,,,*64
###2023-12-09 13:17:22.004933$GAGSV,1,1,04,04,34,312,43,19,79,190,40,21,83,062,46,27,28,049,40*6A
###2023-12-09 13:17:22.007272$GBGSV,2,1,06,14,36,191,42,24,68,036,49,25,45,268,47,26,21,066,44*6F
###2023-12-09 13:17:22.009011$GBGSV,2,2,06,33,52,224,46,35,16,063,44,,,,,,,,*68
###2023-12-09 13:17:22.010333$GNVTG,188.80,T,,M,3.40,N,6.30,K,A*28
###2023-12-09 13:17:22.011986$GNGST,181721.10,18.000,,,,0.100,0.070,0.170*53
###2023-12-09 13:17:22.013275$GNZDA,181721.10,09,12,2023,00,00*7C
###2023-12-09 13:17:22.013912$GNEBP,,,,,,M*13
###2023-12-09 13:17:22.178324$GNGGA,181721.30,4138.0586287,N,07032.2930708,W,1,24,0.7,12.953,M,-29.743,M,0.0,*53
###2023-12-09 13:17:22.378274$GNGGA,181721.50,4138.0584410,N,07032.2931084,W,1,24,0.7,12.939,M,-29.743,M,0.0,*51
###2023-12-09 13:17:22.579729$GNGGA,181721.70,4138.0582538,N,07032.2931459,W,1,24,0.7,12.946,M,-29.743,M,0.0,*52
###2023-12-09 13:17:22.778330$GNGGA,181721.90,4138.0580686,N,07032.2932084,W,1,24,0.7,12.975,M,-29.743,M,0.0,*5F
###2023-12-09 13:17:22.983612$GNRMC,181722.10,A,4138.0578733,N,07032.2932608,W,3.56,184.98,091223,,,A*5A
###2023-12-09 13:17:22.986483$GNGGA,181722.10,4138.0578733,N,07032.2932608,W,1,24,0.7,12.958,M,-29.743,M,0.0,*51
###2023-12-09 13:17:22.988301$GPGSA,A,3,03,04,16,26,28,29,31,,,,,,1.2,0.7,1.0*30
###2023-12-09 13:17:22.990026$GLGSA,A,3,65,71,72,73,74,75,,,,,,,1.2,0.7,1.0*2E
###2023-12-09 13:17:22.991628$GAGSA,A,3,04,19,21,27,,,,,,,,,1.2,0.7,1.0*2C
###2023-12-09 13:17:22.993347$GBGSA,A,3,14,24,25,26,33,35,,,,,,,1.2,0.7,1.0*23
###2023-12-09 13:17:22.995699$GPGSV,2,1,07,03,31,253,41,04,39,310,45,16,58,216,46,26,87,208,47*7F
###2023-12-09 13:17:22.997748$GPGSV,2,2,07,28,44,077,43,29,24,054,39,31,65,052,47,,,,*40
###2023-12-09 13:17:23.000103$GLGSV,2,1,06,65,31,324,43,71,32,174,43,72,70,240,46,73,29,047,42*6D
###2023-12-09 13:17:23.001860$GLGSV,2,2,06,74,65,358,43,75,38,261,47,,,,,,,,*65
###2023-12-09 13:17:23.004206$GAGSV,1,1,04,04,34,312,44,19,79,190,40,21,83,062,46,27,28,049,40*6D
###2023-12-09 13:17:23.006547$GBGSV,2,1,06,14,36,191,42,24,68,036,49,25,45,268,48,26,21,066,43*67
###2023-12-09 13:17:23.008307$GBGSV,2,2,06,33,52,224,48,35,16,063,43,,,,,,,,*61
###2023-12-09 13:17:23.009637$GNVTG,184.98,T,,M,3.56,N,6.59,K,A*25
###2023-12-09 13:17:23.011315$GNGST,181722.10,18.000,,,,0.100,0.070,0.170*50
###2023-12-09 13:17:23.012611$GNZDA,181722.10,09,12,2023,00,00*7F
###2023-12-09 13:17:23.013250$GNEBP,,,,,,M*13
###2023-12-09 13:17:23.179178$GNGGA,181722.30,4138.0576860,N,07032.2932791,W,1,24,0.7,12.919,M,-29.743,M,0.0,*50
###2023-12-09 13:17:23.379497$GNGGA,181722.50,4138.0575007,N,07032.2933450,W,1,24,0.7,12.970,M,-29.743,M,0.0,*5C
###2023-12-09 13:17:23.580277$GNGGA,181722.70,4138.0573011,N,07032.2934227,W,1,24,0.7,12.971,M,-29.743,M,0.0,*5F
###2023-12-09 13:17:23.780041$GNGGA,181722.90,4138.0571110,N,07032.2934290,W,1,24,0.7,12.920,M,-29.743,M,0.0,*5B
###2023-12-09 13:17:23.982383$GNRMC,181723.10,A,4138.0569282,N,07032.2934215,W,3.50,185.56,091223,,,A*5F
###2023-12-09 13:17:23.985309$GNGGA,181723.10,4138.0569282,N,07032.2934215,W,1,24,0.7,12.944,M,-29.743,M,0.0,*5C
###2023-12-09 13:17:23.987133$GPGSA,A,3,03,04,16,26,28,29,31,,,,,,1.2,0.7,1.0*30
###2023-12-09 13:17:23.988858$GLGSA,A,3,65,71,72,73,74,75,,,,,,,1.2,0.7,1.0*2E
###2023-12-09 13:17:23.990448$GAGSA,A,3,04,19,21,27,,,,,,,,,1.2,0.7,1.0*2C
###2023-12-09 13:17:23.992172$GBGSA,A,3,14,24,25,26,33,35,,,,,,,1.2,0.7,1.0*23
###2023-12-09 13:17:23.994512$GPGSV,2,1,07,03,31,253,40,04,39,310,43,16,58,216,45,26,87,208,47*7B
###2023-12-09 13:17:23.996570$GPGSV,2,2,07,28,44,077,45,29,24,054,44,31,65,052,47,,,,*4C
###2023-12-09 13:17:23.998928$GLGSV,2,1,06,65,31,324,43,71,32,174,42,72,70,240,45,73,29,047,44*69
###2023-12-09 13:17:24.000687$GLGSV,2,2,06,74,65,358,43,75,38,261,45,,,,,,,,*67
###2023-12-09 13:17:24.003033$GAGSV,1,1,04,04,34,312,41,19,79,190,40,21,83,062,46,27,28,049,41*69
###2023-12-09 13:17:24.005380$GBGSV,2,1,06,14,36,191,40,24,68,036,49,25,45,268,46,26,21,066,44*6C
###2023-12-09 13:17:24.007141$GBGSV,2,2,06,33,52,224,45,35,16,063,43,,,,,,,,*6C
###2023-12-09 13:17:24.008463$GNVTG,185.56,T,,M,3.50,N,6.48,K,A*20
###2023-12-09 13:17:24.010116$GNGST,181723.10,18.000,,,,0.100,0.070,0.170*51
###2023-12-09 13:17:24.011422$GNZDA,181723.10,09,12,2023,00,00*7E
###2023-12-09 13:17:24.012065$GNEBP,,,,,,M*13
###2023-12-09 13:17:24.179855$GNGGA,181723.30,4138.0567312,N,07032.2934716,W,1,24,0.7,12.966,M,-29.743,M,0.0,*5E
###2023-12-09 13:17:24.379282$GNGGA,181723.50,4138.0565340,N,07032.2934855,W,1,24,0.7,12.929,M,-29.743,M,0.0,*5E
###2023-12-09 13:17:24.579895$GNGGA,181723.70,4138.0563502,N,07032.2934583,W,1,24,0.7,12.928,M,-29.743,M,0.0,*5D
###2023-12-09 13:17:24.780239$GNGGA,181723.90,4138.0561606,N,07032.2934494,W,1,24,0.7,12.962,M,-29.743,M,0.0,*5F
###2023-12-09 13:17:24.983351$GNRMC,181724.10,A,4138.0559691,N,07032.2934402,W,3.38,176.89,091223,,,A*5D
###2023-12-09 13:17:24.986198$GNGGA,181724.10,4138.0559691,N,07032.2934402,W,1,24,0.7,12.951,M,-29.743,M,0.0,*5A
###2023-12-09 13:17:24.988001$GPGSA,A,3,03,04,16,26,28,29,31,,,,,,1.2,0.7,1.0*30
###2023-12-09 13:17:24.989713$GLGSA,A,3,65,71,72,73,74,75,,,,,,,1.2,0.7,1.0*2E
###2023-12-09 13:17:24.991305$GAGSA,A,3,04,19,21,27,,,,,,,,,1.2,0.7,1.0*2C
###2023-12-09 13:17:24.993015$GBGSA,A,3,14,24,25,26,33,35,,,,,,,1.2,0.7,1.0*23
###2023-12-09 13:17:24.995348$GPGSV,2,1,07,03,31,253,42,04,39,310,44,16,58,216,46,26,87,208,47*7D
###2023-12-09 13:17:24.997384$GPGSV,2,2,07,28,44,077,45,29,24,054,42,31,65,052,47,,,,*4A
###2023-12-09 13:17:24.999724$GLGSV,2,1,06,65,31,324,44,71,32,174,42,72,70,240,46,73,29,047,43*6A
###2023-12-09 13:17:25.001488$GLGSV,2,2,06,74,65,358,43,75,38,261,48,,,,,,,,*6A
###2023-12-09 13:17:25.003834$GAGSV,1,1,04,04,34,312,42,19,79,190,40,21,83,062,46,27,28,049,41*6A
###2023-12-09 13:17:25.006169$GBGSV,2,1,06,14,36,191,41,24,68,036,48,25,45,268,47,26,21,066,42*6B
###2023-12-09 13:17:25.007932$GBGSV,2,2,06,33,52,224,47,35,16,063,41,,,,,,,,*6C
###2023-12-09 13:17:25.009258$GNVTG,176.89,T,,M,3.38,N,6.26,K,A*28
###2023-12-09 13:17:25.010910$GNGST,181724.10,18.000,,,,0.100,0.070,0.170*56
###2023-12-09 13:17:25.012203$GNZDA,181724.10,09,12,2023,00,00*79
###2023-12-09 13:17:25.012844$GNEBP,,,,,,M*13
###2023-12-09 13:17:25.183604$GNGGA,181724.30,4138.0557840,N,07032.2934224,W,1,24,0.7,12.956,M,-29.743,M,0.0,*51
###2023-12-09 13:17:25.379248$GNGGA,181724.50,4138.0555954,N,07032.2933854,W,1,24,0.7,12.949,M,-29.743,M,0.0,*55
###2023-12-09 13:17:25.581257$GNGGA,181724.70,4138.0554103,N,07032.2933640,W,1,24,0.7,12.956,M,-29.743,M,0.0,*59
###2023-12-09 13:17:25.780037$GNGGA,181724.90,4138.0552175,N,07032.2933586,W,1,24,0.7,12.965,M,-29.743,M,0.0,*59
###2023-12-09 13:17:25.982674$GNRMC,181725.10,A,4138.0550257,N,07032.2933373,W,3.40,175.57,091223,,,A*52
###2023-12-09 13:17:25.985543$GNGGA,181725.10,4138.0550257,N,07032.2933373,W,1,24,0.7,12.950,M,-29.743,M,0.0,*5B
###2023-12-09 13:17:25.987355$GPGSA,A,3,03,04,16,26,28,29,31,,,,,,1.2,0.7,1.0*30
###2023-12-09 13:17:25.989073$GLGSA,A,3,65,71,72,73,74,75,,,,,,,1.2,0.7,1.0*2E
###2023-12-09 13:17:25.990674$GAGSA,A,3,04,19,21,27,,,,,,,,,1.2,0.7,1.0*2C
###2023-12-09 13:17:25.992389$GBGSA,A,3,14,24,25,26,33,35,,,,,,,1.2,0.7,1.0*23
###2023-12-09 13:17:25.994989$GPGSV,2,1,07,03,31,253,43,04,39,310,45,16,58,216,46,26,87,208,48*72
###2023-12-09 13:17:25.997031$GPGSV,2,2,07,28,44,077,44,29,24,054,43,31,65,052,47,,,,*4A
###2023-12-09 13:17:25.999370$GLGSV,2,1,06,65,31,324,43,71,32,174,41,72,70,240,45,73,29,047,42*6C
###2023-12-09 13:17:26.001121$GLGSV,2,2,06,74,65,358,43,75,38,261,47,,,,,,,,*65
###2023-12-09 13:17:26.003474$GAGSV,1,1,04,04,34,312,43,19,79,190,40,21,83,062,46,27,28,049,41*6B
###2023-12-09 13:17:26.005805$GBGSV,2,1,06,14,36,191,43,24,68,036,49,25,45,268,47,26,21,066,44*6E
###2023-12-09 13:17:26.007554$GBGSV,2,2,06,33,52,224,48,35,16,063,44,,,,,,,,*66
###2023-12-09 13:17:26.008876$GNVTG,175.57,T,,M,3.40,N,6.30,K,A*20
###2023-12-09 13:17:26.010513$GNGST,181725.10,18.000,,,,0.100,0.070,0.170*57
