###2023-12-09 13:08:04.169704$GNGGA,180803.30,4138.0795299,N,07032.3258480,W,1,25,0.6,13.340,M,-29.742,M,0.0,*5D
###2023-12-09 13:08:04.369745$GNGGA,180803.50,4138.0795330,N,07032.3255750,W,1,25,0.6,13.352,M,-29.742,M,0.0,*59
###2023-12-09 13:08:04.570762$GNGGA,180803.70,4138.0795359,N,07032.3252992,W,1,25,0.6,13.343,M,-29.742,M,0.0,*53
###2023-12-09 13:08:04.769641$GNGGA,180803.90,4138.0795905,N,07032.3250337,W,1,25,0.6,13.338,M,-29.742,M,0.0,*55
###2023-12-09 13:08:04.975241$GNRMC,180804.10,A,4138.0796635,N,07032.3247860,W,3.63,68.74,091223,,,A*6A
###2023-12-09 13:08:04.978087$GNGGA,180804.10,4138.0796635,N,07032.3247860,W,1,25,0.6,13.342,M,-29.742,M,0.0,*57
###2023-12-09 13:08:04.979946$GPGSA,A,3,03,04,16,26,28,29,31,32,,,,,1.1,0.6,0.9*3B
###2023-12-09 13:08:04.981660$GLGSA,A,3,65,71,72,73,74,75,,,,,,,1.1,0.6,0.9*24
###2023-12-09 13:08:04.983257$GAGSA,A,3,04,19,21,27,,,,,,,,,1.1,0.6,0.9*26
###2023-12-09 13:08:04.984968$GBGSA,A,3,14,24,25,26,33,35,,,,,,,1.1,0.6,0.9*29
###2023-12-09 13:08:04.987306$GPGSV,2,1,08,03,34,258,45,04,35,311,45,16,53,214,46,26,83,210,49*7D
###2023-12-09 13:08:04.989636$GPGSV,2,2,08,28,47,073,43,29,25,058,42,31,67,044,47,32,16,141,40*7A
###2023-12-09 13:08:04.991966$GLGSV,2,1,06,65,26,326,42,71,37,173,46,72,72,258,46,73,33,043,44*6D
###2023-12-09 13:08:04.993701$GLGSV,2,2,06,74,68,345,43,75,34,256,47,,,,,,,,*6C
###2023-12-09 13:08:04.996037$GAGSV,1,1,04,04,31,312,41,19,82,199,40,21,85,085,46,27,31,048,40*66
###2023-12-09 13:08:04.998356$GBGSV,2,1,06,14,41,192,43,24,72,029,48,25,42,264,46,26,24,064,42*62
###2023-12-09 13:08:05.000104$GBGSV,2,2,06,33,56,229,48,35,15,067,41,,,,,,,,*6D
###2023-12-09 13:08:05.001392$GNVTG,68.74,T,,M,3.63,N,6.73,K,A*1A
###2023-12-09 13:08:05.003046$GNGST,180804.10,18.000,,,,0.082,0.065,0.150*57
###2023-12-09 13:08:05.004330$GNZDA,180804.10,09,12,2023,00,00*75
###2023-12-09 13:08:05.004966$GNEBP,,,,,,M*13
###2023-12-09 13:08:05.169289$GNGGA,180804.30,4138.0797082,N,07032.3245118,W,1,25,0.6,13.367,M,-29.742,M,0.0,*5D
###2023-12-09 13:08:05.372900$GNGGA,180804.50,4138.0797142,N,07032.3242289,W,1,25,0.6,13.317,M,-29.742,M,0.0,*5D
###2023-12-09 13:08:05.569557$GNGGA,180804.70,4138.0797683,N,07032.3239685,W,1,25,0.6,13.326,M,-29.742,M,0.0,*53
###2023-12-09 13:08:05.769684$GNGGA,180804.90,4138.0798529,N,07032.3237062,W,1,25,0.6,13.335,M,-29.742,M,0.0,*52
###2023-12-09 13:08:05.971203$GNRMC,180805.10,A,4138.0798923,N,07032.3234465,W,3.58,85.33,091223,,,A*68
###2023-12-09 13:08:05.974072$GNGGA,180805.10,4138.0798923,N,07032.3234465,W,1,25,0.6,13.324,M,-29.742,M,0.0,*5D
###2023-12-09 13:08:05.975940$GPGSA,A,3,03,04,16,26,28,29,31,32,,,,,1.1,0.6,0.9*3B
###2023-12-09 13:08:05.977655$GLGSA,A,3,65,71,72,73,74,75,,,,,,,1.1,0.6,0.9*24
###2023-12-09 13:08:05.979248$GAGSA,A,3,04,19,21,27,,,,,,,,,1.1,0.6,0.9*26
###2023-12-09 13:08:05.980969$GBGSA,A,3,14,24,25,26,33,35,,,,,,,1.1,0.6,0.9*29
###2023-12-09 13:08:05.983316$GPGSV,2,1,08,03,34,258,44,04,35,311,44,16,53,214,47,26,83,210,49*7C
###2023-12-09 13:08:05.985656$GPGSV,2,2,08,28,47,073,44,29,25,058,42,31,67,044,47,32,16,141,39*73
###2023-12-09 13:08:05.988004$GLGSV,2,1,06,65,26,326,42,71,37,173,45,72,72,258,46,73,33,043,44*6E
###2023-12-09 13:08:05.989754$GLGSV,2,2,06,74,68,345,42,75,34,256,47,,,,,,,,*6D
###2023-12-09 13:08:05.992095$GAGSV,1,1,04,04,31,312,42,19,82,199,41,21,85,085,46,27,31,048,41*65
###2023-12-09 13:08:05.994422$GBGSV,2,1,06,14,41,192,43,24,72,029,48,25,42,264,46,26,24,064,43*63
###2023-12-09 13:08:05.996179$GBGSV,2,2,06,33,56,229,48,35,15,067,43,,,,,,,,*6F
###2023-12-09 13:08:05.997472$GNVTG,85.33,T,,M,3.58,N,6.62,K,A*12
###2023-12-09 13:08:05.999134$GNGST,180805.10,18.000,,,,0.082,0.065,0.150*56
###2023-12-09 13:08:06.000429$GNZDA,180805.10,09,12,2023,00,00*74
###2023-12-09 13:08:06.001068$GNEBP,,,,,,M*13
###2023-12-09 13:08:06.171730$GNGGA,180805.30,4138.0798947,N,07032.3231726,W,1,25,0.6,13.345,M,-29.742,M,0.0,*5B
###2023-12-09 13:08:06.368832$GNGGA,180805.50,4138.0798971,N,07032.3228984,W,1,25,0.6,13.294,M,-29.742,M,0.0,*5B
###2023-12-09 13:08:06.569586$GNGGA,180805.70,4138.0799538,N,07032.3226522,W,1,25,0.6,13.301,M,-29.742,M,0.0,*5A
###2023-12-09 13:08:06.769638$GNGGA,180805.90,4138.0800146,N,07032.3223954,W,1,25,0.6,13.315,M,-29.742,M,0.0,*5B
###2023-12-09 13:08:06.972190$GNRMC,180806.10,A,4138.0800236,N,07032.3221230,W,3.75,94.84,091223,,,A*6B
###2023-12-09 13:08:06.975060$GNGGA,180806.10,4138.0800236,N,07032.3221230,W,1,25,0.6,13.322,M,-29.742,M,0.0,*5B
###2023-12-09 13:08:06.976909$GPGSA,A,3,03,04,16,26,28,29,31,32,,,,,1.1,0.6,0.9*3B
###2023-12-09 13:08:06.978634$GLGSA,A,3,65,71,72,73,74,75,,,,,,,1.1,0.6,0.9*24
###2023-12-09 13:08:06.980218$GAGSA,A,3,04,19,21,27,,,,,,,,,1.1,0.6,0.9*26
###2023-12-09 13:08:06.981931$GBGSA,A,3,14,24,25,26,33,35,,,,,,,1.1,0.6,0.9*29
###2023-12-09 13:08:06.984268$GPGSV,2,1,08,03,34,258,44,04,35,311,45,16,53,214,46,26,83,210,48*7D
###2023-12-09 13:08:06.986594$GPGSV,2,2,08,28,47,073,44,29,25,058,41,31,67,044,46,32,16,141,39*71
###2023-12-09 13:08:06.988931$GLGSV,2,1,06,65,26,326,42,71,37,173,45,72,72,258,46,73,33,043,45*6F
###2023-12-09 13:08:06.990716$GLGSV,2,2,06,74,68,345,42,75,34,256,46,,,,,,,,*6C
###2023-12-09 13:08:06.993046$GAGSV,1,1,04,04,31,312,42,19,82,199,40,21,85,085,46,27,31,048,41*64
###2023-12-09 13:08:06.995380$GBGSV,2,1,06,14,41,192,44,24,72,029,48,25,42,264,46,26,24,064,43*64
###2023-12-09 13:08:06.997127$GBGSV,2,2,06,33,56,229,47,35,15,067,42,,,,,,,,*61
###2023-12-09 13:08:06.998419$GNVTG,94.84,T,,M,3.75,N,6.95,K,A*19
###2023-12-09 13:08:07.000076$GNGST,180806.10,18.000,,,,0.083,0.066,0.150*57
###2023-12-09 13:08:07.001367$GNZDA,180806.10,09,12,2023,00,00*77
###2023-12-09 13:08:07.002004$GNEBP,,,,,,M*13
###2023-12-09 13:08:07.169163$GNGGA,180806.30,4138.0800027,N,07032.3218451,W,1,25,0.6,13.290,M,-29.742,M,0.0,*58
###2023-12-09 13:08:07.371024$GNGGA,180806.50,4138.0800360,N,07032.3215796,W,1,25,0.6,13.276,M,-29.742,M,0.0,*53
###2023-12-09 13:08:07.569506$GNGGA,180806.70,4138.0801132,N,07032.3213293,W,1,25,0.6,13.280,M,-29.742,M,0.0,*5A
###2023-12-09 13:08:07.769403$GNGGA,180806.90,4138.0801620,N,07032.3210642,W,1,25,0.6,13.290,M,-29.742,M,0.0,*5A
###2023-12-09 13:08:07.969923$GNRMC,180807.10,A,4138.0801608,N,07032.3207715,W,4.06,95.09,091223,,,A*63
###2023-12-09 13:08:07.972826$GNGGA,180807.10,4138.0801608,N,07032.3207715,W,1,25,0.6,13.300,M,-29.742,M,0.0,*54
###2023-12-09 13:08:07.974701$GPGSA,A,3,03,04,16,26,28,29,31,32,,,,,1.1,0.6,0.9*3B
###2023-12-09 13:08:07.976424$GLGSA,A,3,65,71,72,73,74,75,,,,,,,1.1,0.6,0.9*24
###2023-12-09 13:08:07.978011$GAGSA,A,3,04,19,21,27,,,,,,,,,1.1,0.6,0.9*26
###2023-12-09 13:08:07.979744$GBGSA,A,3,14,24,25,26,33,35,,,,,,,1.1,0.6,0.9*29
###2023-12-09 13:08:07.982073$GPGSV,2,1,08,03,34,258,46,04,35,311,44,16,53,214,47,26,83,210,49*7E
###2023-12-09 13:08:07.984429$GPGSV,2,2,08,28,47,073,42,29,25,058,42,31,67,044,46,32,16,141,42*78
###2023-12-09 13:08:07.986782$GLGSV,2,1,06,65,26,326,41,71,37,173,46,72,72,258,46,73,33,043,44*6E
###2023-12-09 13:08:07.988531$GLGSV,2,2,06,74,68,345,43,75,34,256,48,,,,,,,,*63
###2023-12-09 13:08:07.990870$GAGSV,1,1,04,04,31,312,42,19,82,199,40,21,85,085,46,27,31,048,40*65
###2023-12-09 13:08:07.993197$GBGSV,2,1,06,14,41,192,46,24,72,029,48,25,42,264,46,26,24,064,43*66
###2023-12-09 13:08:07.994955$GBGSV,2,2,06,33,56,229,48,35,15,067,41,,,,,,,,*6D
###2023-12-09 13:08:07.996249$GNVTG,95.09,T,,M,4.06,N,7.52,K,A*14
###2023-12-09 13:08:07.997894$GNGST,180807.10,18.000,,,,0.083,0.066,0.150*56
###2023-12-09 13:08:07.999195$GNZDA,180807.10,09,12,2023,00,00*76
###2023-12-09 13:08:07.999835$GNEBP,,,,,,M*13
###2023-12-09 13:08:08.168398$GNGGA,180807.30,4138.0801747,N,07032.3204943,W,1,25,0.6,13.265,M,-29.742,M,0.0,*50
###2023-12-09 13:08:08.369002$GNGGA,180807.50,4138.0802658,N,07032.3202454,W,1,25,0.6,13.289,M,-29.742,M,0.0,*55
###2023-12-09 13:08:08.569222$GNGGA,180807.70,4138.0803463,N,07032.3199828,W,1,25,0.6,13.267,M,-29.742,M,0.0,*5A
###2023-12-09 13:08:08.770429$GNGGA,180807.90,4138.0803826,N,07032.3197164,W,1,25,0.6,13.261,M,-29.742,M,0.0,*50
###2023-12-09 13:08:08.979989$GNRMC,180808.10,A,4138.0804235,N,07032.3194450,W,3.79,74.66,091223,,,A*61
###2023-12-09 13:08:08.983103$GNGGA,180808.10,4138.0804235,N,07032.3194450,W,1,25,0.6,13.293,M,-29.742,M,0.0,*54
###2023-12-09 13:08:08.984976$GPGSA,A,3,03,04,16,26,28,29,31,32,,,,,1.1,0.6,0.9*3B
###2023-12-09 13:08:08.986714$GLGSA,A,3,65,71,72,73,74,75,,,,,,,1.1,0.6,0.9*24
###2023-12-09 13:08:08.988299$GAGSA,A,3,04,19,21,27,,,,,,,,,1.1,0.6,0.9*26
###2023-12-09 13:08:08.990006$GBGSA,A,3,14,24,25,26,33,35,,,,,,,1.1,0.6,0.9*29
###2023-12-09 13:08:08.992340$GPGSV,2,1,08,03,34,258,46,04,35,311,44,16,53,214,47,26,83,210,48*7F
###2023-12-09 13:08:08.994680$GPGSV,2,2,08,28,47,073,42,29,25,058,41,31,67,044,46,32,16,141,43*7A
###2023-12-09 13:08:08.997016$GLGSV,2,1,06,65,26,326,42,71,37,173,46,72,72,258,46,73,33,043,42*6B
###2023-12-09 13:08:08.998778$GLGSV,2,2,06,74,68,345,41,75,34,256,48,,,,,,,,*61
###2023-12-09 13:08:09.001105$GAGSV,1,1,04,04,31,312,42,19,82,199,40,21,85,085,46,27,31,048,40*65
###2023-12-09 13:08:09.003445$GBGSV,2,1,06,14,41,192,46,24,72,029,47,25,42,264,46,26,24,064,41*6B
