###2023-12-09 12:38:27.967081$GNVTG,123.30,T,,M,3.27,N,6.05,K,A*25
###2023-12-09 12:38:27.968748$GNGST,173827.10,18.000,,,,0.080,0.069,0.160*57
###2023-12-09 12:38:27.970043$GNZDA,173827.10,09,12,2023,00,00*78
###2023-12-09 12:38:27.970702$GNEBP,,,,,,M*13
###2023-12-09 12:38:28.140914$GNGGA,173827.30,4138.0563144,N,07032.3743972,W,1,23,0.7,13.574,M,-29.744,M,0.0,*50
###2023-12-09 12:38:28.341193$GNGGA,173827.50,4138.0562160,N,07032.3741944,W,1,23,0.7,13.574,M,-29.744,M,0.0,*56
###2023-12-09 12:38:28.541775$GNGGA,173827.70,4138.0561202,N,07032.3739866,W,1,23,0.7,13.575,M,-29.744,M,0.0,*5F
###2023-12-09 12:38:28.740547$GNGGA,173827.90,4138.0560232,N,07032.3737805,W,1,23,0.7,13.581,M,-29.744,M,0.0,*53
###2023-12-09 12:38:28.941593$GNRMC,173828.10,A,4138.0559289,N,07032.3735651,W,3.40,119.86,091223,,,A*5D
###2023-12-09 12:38:28.944478$GNGGA,173828.10,4138.0559289,N,07032.3735651,W,1,23,0.7,13.581,M,-29.744,M,0.0,*53
###2023-12-09 12:38:28.946339$GPGSA,A,3,03,04,16,26,28,29,31,32,,,,,1.2,0.7,1.0*31
###2023-12-09 12:38:28.948028$GLGSA,A,3,71,72,73,74,75,,,,,,,,1.2,0.7,1.0*2D
###2023-12-09 12:38:28.949611$GAGSA,A,3,04,19,21,27,,,,,,,,,1.2,0.7,1.0*2C
###2023-12-09 12:38:28.951269$GBGSA,A,3,14,24,25,26,33,,,,,,,,1.2,0.7,1.0*25
###2023-12-09 12:38:28.953584$GPGSV,2,1,08,03,38,275,44,04,23,311,42,16,38,208,45,26,68,207,48*7E
###2023-12-09 12:38:28.955919$GPGSV,2,2,08,28,57,058,45,29,25,072,43,31,73,007,47,32,28,135,42*73
###2023-12-09 12:38:28.958256$GLGSV,2,1,05,71,55,169,47,72,67,307,47,73,46,034,47,74,71,296,43*66
###2023-12-09 12:38:28.959739$GLGSV,2,2,05,75,23,242,42,,,,,,,,,,,,*51
###2023-12-09 12:38:28.962065$GAGSV,1,1,04,04,22,311,41,19,82,299,40,21,78,175,46,27,41,049,44*6A
###2023-12-09 12:38:28.964406$GBGSV,2,1,05,14,54,197,45,24,80,351,48,25,33,253,44,26,34,058,45*6E
###2023-12-09 12:38:28.965861$GBGSV,2,2,05,33,63,252,48,,,,,,,,,,,,*52
###2023-12-09 12:38:28.967203$GNVTG,119.86,T,,M,3.40,N,6.30,K,A*26
###2023-12-09 12:38:28.968855$GNGST,173828.10,18.000,,,,0.080,0.069,0.160*58
###2023-12-09 12:38:28.970144$GNZDA,173828.10,09,12,2023,00,00*77
###2023-12-09 12:38:28.970802$GNEBP,,,,,,M*13
###2023-12-09 12:38:29.144442$GNGGA,173828.30,4138.0558351,N,07032.3733527,W,1,23,0.7,13.578,M,-29.744,M,0.0,*56
###2023-12-09 12:38:29.340332$GNGGA,173828.50,4138.0557502,N,07032.3731317,W,1,23,0.7,13.584,M,-29.744,M,0.0,*5B
###2023-12-09 12:38:29.540807$GNGGA,173828.70,4138.0556721,N,07032.3729087,W,1,23,0.7,13.585,M,-29.744,M,0.0,*59
###2023-12-09 12:38:29.739538$GNGGA,173828.90,4138.0556029,N,07032.3726866,W,1,23,0.7,13.592,M,-29.744,M,0.0,*56
###2023-12-09 12:38:29.938791$GNRMC,173829.10,A,4138.0555360,N,07032.3724712,W,3.07,111.99,091223,,,A*55
###2023-12-09 12:38:29.941651$GNGGA,173829.10,4138.0555360,N,07032.3724712,W,1,23,0.7,13.581,M,-29.744,M,0.0,*5E
###2023-12-09 12:38:29.943520$GPGSA,A,3,03,04,16,26,28,29,31,32,,,,,1.2,0.7,1.0*31
###2023-12-09 12:38:29.945168$GLGSA,A,3,71,72,73,74,75,,,,,,,,1.2,0.7,1.0*2D
###2023-12-09 12:38:29.946774$GAGSA,A,3,04,19,21,27,,,,,,,,,1.2,0.7,1.0*2C
###2023-12-09 12:38:29.948450$GBGSA,A,3,14,24,25,26,33,,,,,,,,1.2,0.7,1.0*25
###2023-12-09 12:38:29.950802$GPGSV,2,1,08,03,38,275,45,04,23,311,43,16,38,208,46,26,68,207,48*7D
###2023-12-09 12:38:29.953148$GPGSV,2,2,08,28,57,058,45,29,25,072,42,31,73,007,47,32,28,135,42*72
###2023-12-09 12:38:29.955505$GLGSV,2,1,05,71,55,169,47,72,67,307,47,73,46,034,45,74,71,296,43*64
###2023-12-09 12:38:29.956970$GLGSV,2,2,05,75,23,242,42,,,,,,,,,,,,*51
###2023-12-09 12:38:29.959313$GAGSV,1,1,04,04,22,311,42,19,82,299,40,21,78,175,46,27,41,049,44*69
###2023-12-09 12:38:29.961673$GBGSV,2,1,05,14,54,197,46,24,80,351,48,25,33,253,45,26,34,058,45*6C
###2023-12-09 12:38:29.963158$GBGSV,2,2,05,33,63,252,48,,,,,,,,,,,,*52
###2023-12-09 12:38:29.964490$GNVTG,111.99,T,,M,3.07,N,5.69,K,A*2C
###2023-12-09 12:38:29.966144$GNGST,173829.10,19.000,,,,0.080,0.069,0.160*58
###2023-12-09 12:38:29.967455$GNZDA,173829.10,09,12,2023,00,00*76
###2023-12-09 12:38:29.968098$GNEBP,,,,,,M*13
###2023-12-09 12:38:30.143721$GNGGA,173829.30,4138.0554819,N,07032.3722669,W,1,23,0.7,13.588,M,-29.744,M,0.0,*5A
###2023-12-09 12:38:30.340098$GNGGA,173829.50,4138.0554267,N,07032.3720719,W,1,23,0.7,13.589,M,-29.744,M,0.0,*5A
###2023-12-09 12:38:30.547087$GNGGA,173829.70,4138.0553722,N,07032.3718895,W,1,23,0.7,13.583,M,-29.744,M,0.0,*51
###2023-12-09 12:38:30.739078$GNGGA,173829.90,4138.0553193,N,07032.3717165,W,1,23,0.7,13.582,M,-29.744,M,0.0,*5B
###2023-12-09 12:38:30.940445$GNRMC,173830.10,A,4138.0552698,N,07032.3715500,W,2.24,110.26,091223,,,A*5E
###2023-12-09 12:38:30.943913$GNGGA,173830.10,4138.0552698,N,07032.3715500,W,1,23,0.7,13.576,M,-29.744,M,0.0,*58
###2023-12-09 12:38:30.946164$GPGSA,A,3,03,04,16,26,28,29,31,32,,,,,1.2,0.7,1.0*31
###2023-12-09 12:38:30.948202$GLGSA,A,3,71,72,73,74,75,,,,,,,,1.2,0.7,1.0*2D
###2023-12-09 12:38:30.950141$GAGSA,A,3,04,19,21,27,,,,,,,,,1.2,0.7,1.0*2C
###2023-12-09 12:38:30.952229$GBGSA,A,3,14,24,25,26,33,,,,,,,,1.2,0.7,1.0*25
###2023-12-09 12:38:30.955362$GPGSV,2,1,08,03,38,275,45,04,23,311,43,16,38,208,45,26,68,207,48*7E
###2023-12-09 12:38:30.958418$GPGSV,2,2,08,28,57,058,45,29,25,072,42,31,73,007,47,32,28,135,42*72
###2023-12-09 12:38:30.961329$GLGSV,2,1,05,71,55,169,47,72,67,307,47,73,46,034,47,74,71,296,43*66
###2023-12-09 12:38:30.963148$GLGSV,2,2,05,75,23,242,43,,,,,,,,,,,,*50
###2023-12-09 12:38:30.965989$GAGSV,1,1,04,04,22,311,42,19,82,299,41,21,78,175,46,27,41,049,44*68
###2023-12-09 12:38:30.968847$GBGSV,2,1,05,14,54,197,46,24,80,351,48,25,33,253,44,26,34,058,46*6E
###2023-12-09 12:38:30.970643$GBGSV,2,2,05,33,63,252,49,,,,,,,,,,,,*53
###2023-12-09 12:38:30.972250$GNVTG,110.26,T,,M,2.24,N,4.14,K,A*22
###2023-12-09 12:38:30.974246$GNGST,173830.10,19.000,,,,0.079,0.069,0.160*56
###2023-12-09 12:38:30.975828$GNZDA,173830.10,09,12,2023,00,00*7E
###2023-12-09 12:38:30.976598$GNEBP,,,,,,M*13
###2023-12-09 12:38:31.139611$GNGGA,173830.30,4138.0552275,N,07032.3713888,W,1,23,0.7,13.582,M,-29.744,M,0.0,*5D
###2023-12-09 12:38:31.340634$GNGGA,173830.50,4138.0551810,N,07032.3712259,W,1,23,0.7,13.568,M,-29.744,M,0.0,*52
###2023-12-09 12:38:31.541031$GNGGA,173830.70,4138.0551395,N,07032.3710814,W,1,23,0.7,13.565,M,-29.744,M,0.0,*5A
###2023-12-09 12:38:31.739153$GNGGA,173830.90,4138.0550986,N,07032.3709346,W,1,23,0.7,13.574,M,-29.744,M,0.0,*59
###2023-12-09 12:38:31.940348$GNRMC,173831.10,A,4138.0550582,N,07032.3707825,W,2.12,110.58,091223,,,A*50
###2023-12-09 12:38:31.943821$GNGGA,173831.10,4138.0550582,N,07032.3707825,W,1,23,0.7,13.570,M,-29.744,M,0.0,*5C
###2023-12-09 12:38:31.946069$GPGSA,A,3,03,04,16,26,28,29,31,32,,,,,1.2,0.7,1.0*31
###2023-12-09 12:38:31.948111$GLGSA,A,3,71,72,73,74,75,,,,,,,,1.2,0.7,1.0*2D
###2023-12-09 12:38:31.950042$GAGSA,A,3,04,19,21,27,,,,,,,,,1.2,0.7,1.0*2C
###2023-12-09 12:38:31.952046$GBGSA,A,3,14,24,25,26,33,,,,,,,,1.2,0.7,1.0*25
###2023-12-09 12:38:31.954860$GPGSV,2,1,08,03,38,275,45,04,23,311,41,16,38,208,46,26,68,207,48*7F
###2023-12-09 12:38:31.957672$GPGSV,2,2,08,28,57,058,45,29,25,072,42,31,73,007,47,32,28,135,42*72
###2023-12-09 12:38:31.960504$GLGSV,2,1,05,71,55,169,48,72,67,307,47,73,46,034,47,74,71,296,43*69
###2023-12-09 12:38:31.962291$GLGSV,2,2,05,75,23,242,42,,,,,,,,,,,,*51
###2023-12-09 12:38:31.965126$GAGSV,1,1,04,04,22,311,41,19,82,296,41,21,78,175,46,27,41,049,44*64
###2023-12-09 12:38:31.967985$GBGSV,2,1,05,14,54,197,47,24,80,351,50,25,33,253,46,26,34,058,46*64
###2023-12-09 12:38:31.969748$GBGSV,2,2,05,33,63,252,50,,,,,,,,,,,,*5B
###2023-12-09 12:38:31.971359$GNVTG,110.58,T,,M,2.12,N,3.92,K,A*27
###2023-12-09 12:38:31.973357$GNGST,173831.10,19.000,,,,0.079,0.069,0.160*57
###2023-12-09 12:38:31.974930$GNZDA,173831.10,09,12,2023,00,00*7F
###2023-12-09 12:38:31.975702$GNEBP,,,,,,M*13
###2023-12-09 12:38:32.143300$GNGGA,173831.30,4138.0550209,N,07032.3706485,W,1,23,0.7,13.556,M,-29.744,M,0.0,*59
###2023-12-09 12:38:32.339089$GNGGA,173831.50,4138.0549827,N,07032.3705186,W,1,23,0.7,13.560,M,-29.744,M,0.0,*51
###2023-12-09 12:38:32.540299$GNGGA,173831.70,4138.0549431,N,07032.3703847,W,1,23,0.7,13.562,M,-29.744,M,0.0,*58
###2023-12-09 12:38:32.738614$GNGGA,173831.90,4138.0549126,N,07032.3702613,W,1,23,0.7,13.556,M,-29.744,M,0.0,*5C
###2023-12-09 12:38:32.946822$GNRMC,173832.10,A,4138.0548814,N,07032.3701398,W,1.75,110.02,091223,,,A*5E
###2023-12-09 12:38:32.949705$GNGGA,173832.10,4138.0548814,N,07032.3701398,W,1,23,0.7,13.552,M,-29.744,M,0.0,*5F
###2023-12-09 12:38:32.951588$GPGSA,A,3,03,04,16,26,28,29,31,32,,,,,1.2,0.7,1.0*31
###2023-12-09 12:38:32.953244$GLGSA,A,3,71,72,73,74,75,,,,,,,,1.2,0.7,1.0*2D
###2023-12-09 12:38:32.954847$GAGSA,A,3,04,19,21,27,,,,,,,,,1.2,0.7,1.0*2C
###2023-12-09 12:38:32.956509$GBGSA,A,3,14,24,25,26,33,,,,,,,,1.2,0.7,1.0*25
###2023-12-09 12:38:32.958856$GPGSV,2,1,08,03,38,275,46,04,23,311,44,16,38,208,45,26,68,207,49*7B
###2023-12-09 12:38:32.961190$GPGSV,2,2,08,28,57,058,46,29,25,072,43,31,73,007,49,32,28,135,43*7F
