###2023-12-09 12:49:34.965207$GPGSV,2,1,08,03,37,268,43,04,28,311,41,16,44,210,44,26,73,208,47*7B
###2023-12-09 12:49:34.968100$GPGSV,2,2,08,28,53,064,43,29,26,067,39,31,71,021,46,32,24,137,41*7E
###2023-12-09 12:49:34.970991$GLGSV,2,1,06,65,18,329,44,71,48,171,47,72,71,291,46,73,41,038,45*6C
###2023-12-09 12:49:34.973121$GLGSV,2,2,06,74,71,317,43,75,28,247,45,,,,,,,,*6C
###2023-12-09 12:49:34.975973$GAGSV,1,1,04,04,25,312,43,19,85,269,40,21,83,162,46,27,37,048,40*62
###2023-12-09 12:49:34.978822$GBGSV,2,1,05,14,49,195,45,24,77,011,49,25,37,257,46,26,30,060,44*62
###2023-12-09 12:49:34.980590$GBGSV,2,2,05,33,61,241,48,,,,,,,,,,,,*52
###2023-12-09 12:49:34.982197$GNVTG,340.16,T,,M,0.56,N,1.04,K,A*25
###2023-12-09 12:49:34.984222$GNGST,174934.10,18.000,,,,0.077,0.069,0.160*5B
###2023-12-09 12:49:34.985786$GNZDA,174934.10,09,12,2023,00,00*7C
###2023-12-09 12:49:34.986555$GNEBP,,,,,,M*13
###2023-12-09 12:49:35.147804$GNGGA,174934.30,4138.0641115,N,07032.3908611,W,1,24,0.6,13.377,M,-29.744,M,0.0,*5B
###2023-12-09 12:49:35.348121$GNGGA,174934.50,4138.0641217,N,07032.3908619,W,1,24,0.6,13.373,M,-29.744,M,0.0,*50
###2023-12-09 12:49:35.548045$GNGGA,174934.70,4138.0641454,N,07032.3908734,W,1,24,0.6,13.367,M,-29.744,M,0.0,*58
###2023-12-09 12:49:35.748897$GNGGA,174934.90,4138.0641798,N,07032.3908899,W,1,24,0.6,13.360,M,-29.744,M,0.0,*5A
###2023-12-09 12:49:35.948713$GNRMC,174935.10,A,4138.0642094,N,07032.3909036,W,0.41,340.16,091223,,,A*53
###2023-12-09 12:49:35.951599$GNGGA,174935.10,4138.0642094,N,07032.3909036,W,1,24,0.6,13.359,M,-29.744,M,0.0,*5D
###2023-12-09 12:49:35.953455$GPGSA,A,3,03,04,16,26,28,29,31,32,,,,,1.1,0.6,0.9*3B
###2023-12-09 12:49:35.955180$GLGSA,A,3,65,71,72,73,74,75,,,,,,,1.1,0.6,0.9*24
###2023-12-09 12:49:35.956758$GAGSA,A,3,04,19,21,27,,,,,,,,,1.1,0.6,0.9*26
###2023-12-09 12:49:35.958395$GBGSA,A,3,14,24,25,26,33,,,,,,,,1.1,0.6,0.9*2F
###2023-12-09 12:49:35.960720$GPGSV,2,1,08,03,37,268,44,04,28,311,43,16,44,210,45,26,73,208,48*70
###2023-12-09 12:49:35.963096$GPGSV,2,2,08,28,53,064,44,29,26,067,40,31,71,021,46,32,24,137,42*74
###2023-12-09 12:49:35.965418$GLGSV,2,1,06,65,18,329,43,71,48,171,47,72,71,291,46,73,41,038,46*68
###2023-12-09 12:49:35.967172$GLGSV,2,2,06,74,71,317,43,75,28,247,45,,,,,,,,*6C
###2023-12-09 12:49:35.969491$GAGSV,1,1,04,04,25,312,42,19,85,269,40,21,83,162,46,27,37,048,40*63
###2023-12-09 12:49:35.971833$GBGSV,2,1,05,14,49,195,45,24,77,011,50,25,37,257,48,26,30,060,45*65
###2023-12-09 12:49:35.973285$GBGSV,2,2,05,33,61,241,48,,,,,,,,,,,,*52
###2023-12-09 12:49:35.974620$GNVTG,340.16,T,,M,0.41,N,0.76,K,A*27
###2023-12-09 12:49:35.976271$GNGST,174935.10,18.000,,,,0.077,0.068,0.160*5B
###2023-12-09 12:49:35.977560$GNZDA,174935.10,09,12,2023,00,00*7D
###2023-12-09 12:49:35.978195$GNEBP,,,,,,M*13
###2023-12-09 12:49:36.148904$GNGGA,174935.30,4138.0642256,N,07032.3909084,W,1,24,0.6,13.367,M,-29.744,M,0.0,*57
###2023-12-09 12:49:36.349989$GNGGA,174935.50,4138.0642412,N,07032.3909159,W,1,24,0.6,13.368,M,-29.744,M,0.0,*59
###2023-12-09 12:49:36.550245$GNGGA,174935.70,4138.0642657,N,07032.3909243,W,1,24,0.6,13.358,M,-29.744,M,0.0,*53
###2023-12-09 12:49:36.748745$GNGGA,174935.90,4138.0642902,N,07032.3909333,W,1,24,0.6,13.343,M,-29.744,M,0.0,*5E
###2023-12-09 12:49:36.947651$GNRMC,174936.10,A,4138.0643113,N,07032.3909444,W,0.41,340.16,091223,,,A*5E
###2023-12-09 12:49:36.950504$GNGGA,174936.10,4138.0643113,N,07032.3909444,W,1,24,0.6,13.340,M,-29.744,M,0.0,*58
###2023-12-09 12:49:36.952373$GPGSA,A,3,03,04,16,26,28,29,31,32,,,,,1.1,0.6,0.9*3B
###2023-12-09 12:49:36.954087$GLGSA,A,3,65,71,72,73,74,75,,,,,,,1.1,0.6,0.9*24
###2023-12-09 12:49:36.955692$GAGSA,A,3,04,19,21,27,,,,,,,,,1.1,0.6,0.9*26
###2023-12-09 12:49:36.957336$GBGSA,A,3,14,24,25,26,33,,,,,,,,1.1,0.6,0.9*2F
###2023-12-09 12:49:36.959678$GPGSV,2,1,08,03,37,268,45,04,28,311,43,16,44,210,45,26,73,208,48*71
###2023-12-09 12:49:36.962023$GPGSV,2,2,08,28,53,064,44,29,26,067,40,31,71,021,46,32,24,137,43*75
###2023-12-09 12:49:36.964380$GLGSV,2,1,06,65,18,329,42,71,48,171,47,72,71,291,46,73,41,038,46*69
###2023-12-09 12:49:36.966127$GLGSV,2,2,06,74,71,317,43,75,28,247,45,,,,,,,,*6C
###2023-12-09 12:49:36.968471$GAGSV,1,1,04,04,25,312,41,19,85,269,40,21,83,162,46,27,37,048,41*61
###2023-12-09 12:49:36.970809$GBGSV,2,1,05,14,49,195,45,24,77,011,48,25,37,257,47,26,30,060,44*62
###2023-12-09 12:49:36.972261$GBGSV,2,2,05,33,61,241,47,,,,,,,,,,,,*5D
###2023-12-09 12:49:36.973582$GNVTG,340.16,T,,M,0.41,N,0.76,K,A*27
###2023-12-09 12:49:36.975239$GNGST,174936.10,18.000,,,,0.077,0.068,0.160*58
###2023-12-09 12:49:36.976524$GNZDA,174936.10,09,12,2023,00,00*7E
###2023-12-09 12:49:36.977161$GNEBP,,,,,,M*13
###2023-12-09 12:49:37.148501$GNGGA,174936.30,4138.0643373,N,07032.3909582,W,1,24,0.6,13.351,M,-29.744,M,0.0,*55
###2023-12-09 12:49:37.348905$GNGGA,174936.50,4138.0643671,N,07032.3909721,W,1,24,0.6,13.365,M,-29.744,M,0.0,*58
###2023-12-09 12:49:37.548810$GNGGA,174936.70,4138.0643818,N,07032.3909764,W,1,24,0.6,13.360,M,-29.744,M,0.0,*5F
###2023-12-09 12:49:37.747937$GNGGA,174936.90,4138.0643920,N,07032.3909794,W,1,24,0.6,13.336,M,-29.744,M,0.0,*57
###2023-12-09 12:49:37.948797$GNRMC,174937.10,A,4138.0644184,N,07032.3909932,W,0.74,340.16,091223,,,A*5C
###2023-12-09 12:49:37.951677$GNGGA,174937.10,4138.0644184,N,07032.3909932,W,1,24,0.6,13.334,M,-29.744,M,0.0,*5F
###2023-12-09 12:49:37.953534$GPGSA,A,3,03,04,16,26,28,29,31,32,,,,,1.1,0.6,0.9*3B
###2023-12-09 12:49:37.955273$GLGSA,A,3,65,71,72,73,74,75,,,,,,,1.1,0.6,0.9*24
###2023-12-09 12:49:37.956852$GAGSA,A,3,04,19,21,27,,,,,,,,,1.1,0.6,0.9*26
###2023-12-09 12:49:37.958487$GBGSA,A,3,14,24,25,26,33,,,,,,,,1.1,0.6,0.9*2F
###2023-12-09 12:49:37.960812$GPGSV,2,1,08,03,37,268,44,04,28,311,43,16,44,210,46,26,73,208,48*73
###2023-12-09 12:49:37.963154$GPGSV,2,2,08,28,53,064,44,29,26,067,40,31,71,021,46,32,24,137,44*72
###2023-12-09 12:49:37.965486$GLGSV,2,1,06,65,18,329,41,71,48,171,49,72,71,291,46,73,41,038,45*67
###2023-12-09 12:49:37.967299$GLGSV,2,2,06,74,71,317,43,75,28,247,44,,,,,,,,*6D
###2023-12-09 12:49:37.969627$GAGSV,1,1,04,04,25,312,41,19,85,269,40,21,83,162,47,27,37,048,41*60
###2023-12-09 12:49:37.971965$GBGSV,2,1,05,14,49,195,46,24,77,011,49,25,37,257,47,26,30,060,45*61
###2023-12-09 12:49:37.973421$GBGSV,2,2,05,33,61,241,47,,,,,,,,,,,,*5D
###2023-12-09 12:49:37.974752$GNVTG,340.16,T,,M,0.74,N,1.37,K,A*25
###2023-12-09 12:49:37.976398$GNGST,174937.10,18.000,,,,0.077,0.068,0.160*59
###2023-12-09 12:49:37.977685$GNZDA,174937.10,09,12,2023,00,00*7F
###2023-12-09 12:49:37.978324$GNEBP,,,,,,M*13
###2023-12-09 12:49:38.148186$GNGGA,174937.30,4138.0644591,N,07032.3910134,W,1,24,0.6,13.334,M,-29.744,M,0.0,*5B
###2023-12-09 12:49:38.348798$GNGGA,174937.50,4138.0644796,N,07032.3910212,W,1,24,0.6,13.339,M,-29.744,M,0.0,*52
###2023-12-09 12:49:38.550046$GNGGA,174937.70,4138.0644870,N,07032.3910185,W,1,24,0.6,13.352,M,-29.744,M,0.0,*57
###2023-12-09 12:49:38.748775$GNGGA,174937.90,4138.0644976,N,07032.3910217,W,1,24,0.6,13.341,M,-29.744,M,0.0,*54
###2023-12-09 12:49:38.949470$GNRMC,174938.10,A,4138.0645226,N,07032.3910346,W,0.70,340.16,091223,,,A*5C
###2023-12-09 12:49:38.952354$GNGGA,174938.10,4138.0645226,N,07032.3910346,W,1,24,0.6,13.327,M,-29.744,M,0.0,*59
###2023-12-09 12:49:38.954206$GPGSA,A,3,03,04,16,26,28,29,31,32,,,,,1.1,0.6,0.9*3B
###2023-12-09 12:49:38.955944$GLGSA,A,3,65,71,72,73,74,75,,,,,,,1.1,0.6,0.9*24
###2023-12-09 12:49:38.957525$GAGSA,A,3,04,19,21,27,,,,,,,,,1.1,0.6,0.9*26
###2023-12-09 12:49:38.959182$GBGSA,A,3,14,24,25,26,33,,,,,,,,1.1,0.6,0.9*2F
###2023-12-09 12:49:38.961501$GPGSV,2,1,08,03,37,268,46,04,28,311,42,16,44,210,47,26,73,208,49*70
###2023-12-09 12:49:38.963834$GPGSV,2,2,08,28,53,064,45,29,26,067,41,31,71,021,47,32,24,137,45*72
###2023-12-09 12:49:38.966160$GLGSV,2,1,06,65,18,329,40,71,48,171,49,72,71,291,46,73,41,038,45*66
###2023-12-09 12:49:38.967917$GLGSV,2,2,06,74,71,317,42,75,28,247,45,,,,,,,,*6D
###2023-12-09 12:49:38.970240$GAGSV,1,1,04,04,25,312,41,19,85,269,41,21,83,162,47,27,37,048,42*62
###2023-12-09 12:49:38.972579$GBGSV,2,1,05,14,49,195,46,24,77,011,48,25,37,257,47,26,30,060,44*61
###2023-12-09 12:49:38.974029$GBGSV,2,2,05,33,61,241,48,,,,,,,,,,,,*52
###2023-12-09 12:49:38.975633$GNVTG,340.16,T,,M,0.70,N,1.30,K,A*26
###2023-12-09 12:49:38.977297$GNGST,174938.10,18.000,,,,0.076,0.068,0.160*57
###2023-12-09 12:49:38.978609$GNZDA,174938.10,09,12,2023,00,00*70
###2023-12-09 12:49:38.979254$GNEBP,,,,,,M*13
###2023-12-09 12:49:39.148984$GNGGA,174938.30,4138.0645602,N,07032.3910536,W,1,24,0.6,13.327,M,-29.744,M,0.0,*58
###2023-12-09 12:49:39.351041$GNGGA,174938.50,4138.0645871,N,07032.3910690,W,1,24,0.6,13.336,M,-29.744,M,0.0,*5B
###2023-12-09 12:49:39.548766$GNGGA,174938.70,4138.0645933,N,07032.3910703,W,1,24,0.6,13.349,M,-29.744,M,0.0,*5D
###2023-12-09 12:49:39.748670$GNGGA,174938.90,4138.0645996,N,07032.3910694,W,1,24,0.6,13.339,M,-29.744,M,0.0,*54
###2023-12-09 12:49:39.947986$GNRMC,174939.10,A,4138.0646225,N,07032.3910819,W,0.72,340.16,091223,,,A*5E
