###2023-12-09 12:51:47.979303$GNVTG,331.21,T,,M,0.52,N,0.97,K,A*28
###2023-12-09 12:51:47.980976$GNGST,175147.10,18.000,,,,0.076,0.066,0.160*58
###2023-12-09 12:51:47.982277$GNZDA,175147.10,09,12,2023,00,00*71
###2023-12-09 12:51:47.982938$GNEBP,,,,,,M*13
###2023-12-09 12:51:48.151427$GNGGA,175147.30,4138.0594978,N,07032.3827160,W,1,24,0.6,13.331,M,-29.744,M,0.0,*51
###2023-12-09 12:51:48.352229$GNGGA,175147.50,4138.0595194,N,07032.3827308,W,1,24,0.6,13.317,M,-29.744,M,0.0,*54
###2023-12-09 12:51:48.552257$GNGGA,175147.70,4138.0595467,N,07032.3827527,W,1,24,0.6,13.330,M,-29.744,M,0.0,*51
###2023-12-09 12:51:48.753019$GNGGA,175147.90,4138.0595719,N,07032.3827739,W,1,24,0.6,13.347,M,-29.744,M,0.0,*58
###2023-12-09 12:51:48.954365$GNRMC,175148.10,A,4138.0595830,N,07032.3827772,W,0.08,331.21,091223,,,A*5A
###2023-12-09 12:51:48.957899$GNGGA,175148.10,4138.0595830,N,07032.3827772,W,1,24,0.6,13.341,M,-29.744,M,0.0,*52
###2023-12-09 12:51:48.960202$GPGSA,A,3,03,04,16,26,28,29,31,32,,,,,1.1,0.6,0.9*3B
###2023-12-09 12:51:48.962296$GLGSA,A,3,65,71,72,73,74,75,,,,,,,1.1,0.6,0.9*24
###2023-12-09 12:51:48.964281$GAGSA,A,3,04,19,21,27,,,,,,,,,1.1,0.6,0.9*26
###2023-12-09 12:51:48.966289$GBGSA,A,3,14,24,25,26,33,,,,,,,,1.1,0.6,0.9*2F
###2023-12-09 12:51:48.969155$GPGSV,2,1,08,03,37,267,43,04,29,311,43,16,45,210,46,26,75,209,49*7D
###2023-12-09 12:51:48.971990$GPGSV,2,2,08,28,52,066,44,29,26,065,41,31,71,026,47,32,23,138,45*7D
###2023-12-09 12:51:48.974828$GLGSV,2,1,06,65,19,329,43,71,47,171,47,72,72,288,47,73,40,038,44*6F
###2023-12-09 12:51:48.976936$GLGSV,2,2,06,74,71,321,43,75,28,248,46,,,,,,,,*65
###2023-12-09 12:51:48.979780$GAGSV,1,1,04,04,26,312,41,19,85,258,41,21,83,157,46,27,36,048,42*65
###2023-12-09 12:51:48.982612$GBGSV,2,1,05,14,48,194,44,24,77,014,48,25,37,258,46,26,29,060,44*60
###2023-12-09 12:51:48.984381$GBGSV,2,2,05,33,60,240,47,,,,,,,,,,,,*5D
###2023-12-09 12:51:48.985986$GNVTG,331.21,T,,M,0.08,N,0.14,K,A*2C
###2023-12-09 12:51:48.987991$GNGST,175148.10,18.000,,,,0.076,0.066,0.160*57
###2023-12-09 12:51:48.989549$GNZDA,175148.10,09,12,2023,00,00*7E
###2023-12-09 12:51:48.990328$GNEBP,,,,,,M*13
###2023-12-09 12:51:49.152571$GNGGA,175148.30,4138.0595898,N,07032.3827824,W,1,24,0.6,13.322,M,-29.744,M,0.0,*5B
###2023-12-09 12:51:49.353913$GNGGA,175148.50,4138.0596164,N,07032.3828047,W,1,24,0.6,13.313,M,-29.744,M,0.0,*54
###2023-12-09 12:51:49.553951$GNGGA,175148.70,4138.0596553,N,07032.3828360,W,1,24,0.6,13.312,M,-29.744,M,0.0,*51
###2023-12-09 12:51:49.752265$GNGGA,175148.90,4138.0596756,N,07032.3828504,W,1,24,0.6,13.322,M,-29.744,M,0.0,*5F
###2023-12-09 12:51:49.953737$GNRMC,175149.10,A,4138.0596814,N,07032.3828533,W,0.12,331.21,091223,,,A*5D
###2023-12-09 12:51:49.956646$GNGGA,175149.10,4138.0596814,N,07032.3828533,W,1,24,0.6,13.335,M,-29.744,M,0.0,*5D
###2023-12-09 12:51:49.958514$GPGSA,A,3,03,04,16,26,28,29,31,32,,,,,1.1,0.6,0.9*3B
###2023-12-09 12:51:49.960265$GLGSA,A,3,65,71,72,73,74,75,,,,,,,1.1,0.6,0.9*24
###2023-12-09 12:51:49.961849$GAGSA,A,3,04,19,21,27,,,,,,,,,1.1,0.6,0.9*26
###2023-12-09 12:51:49.963511$GBGSA,A,3,14,24,25,26,33,,,,,,,,1.1,0.6,0.9*2F
###2023-12-09 12:51:49.965830$GPGSV,2,1,08,03,37,267,43,04,29,311,43,16,45,210,44,26,75,209,48*7E
###2023-12-09 12:51:49.968179$GPGSV,2,2,08,28,52,066,44,29,26,065,39,31,71,026,47,32,23,138,43*74
###2023-12-09 12:51:49.970518$GLGSV,2,1,06,65,19,329,43,71,47,171,48,72,72,288,46,73,40,038,44*61
###2023-12-09 12:51:49.972277$GLGSV,2,2,06,74,71,321,43,75,28,248,47,,,,,,,,*64
###2023-12-09 12:51:49.974631$GAGSV,1,1,04,04,26,312,41,19,85,258,41,21,83,157,46,27,36,048,42*65
###2023-12-09 12:51:49.976963$GBGSV,2,1,05,14,48,194,44,24,77,014,48,25,37,258,46,26,29,060,43*67
###2023-12-09 12:51:49.978416$GBGSV,2,2,05,33,60,240,47,,,,,,,,,,,,*5D
###2023-12-09 12:51:49.979753$GNVTG,331.21,T,,M,0.12,N,0.22,K,A*22
###2023-12-09 12:51:49.981406$GNGST,175149.10,18.000,,,,0.076,0.067,0.160*57
###2023-12-09 12:51:49.982709$GNZDA,175149.10,09,12,2023,00,00*7F
###2023-12-09 12:51:49.983350$GNEBP,,,,,,M*13
###2023-12-09 12:51:50.151409$GNGGA,175149.30,4138.0596952,N,07032.3828620,W,1,24,0.6,13.324,M,-29.744,M,0.0,*5D
###2023-12-09 12:51:50.352273$GNGGA,175149.50,4138.0597204,N,07032.3828819,W,1,24,0.6,13.304,M,-29.744,M,0.0,*54
###2023-12-09 12:51:50.552897$GNGGA,175149.70,4138.0597518,N,07032.3829080,W,1,24,0.6,13.290,M,-29.744,M,0.0,*59
###2023-12-09 12:51:50.755077$GNGGA,175149.90,4138.0597734,N,07032.3829266,W,1,24,0.6,13.296,M,-29.744,M,0.0,*57
###2023-12-09 12:51:50.953040$GNRMC,175150.10,A,4138.0597846,N,07032.3829327,W,0.23,331.21,091223,,,A*53
###2023-12-09 12:51:50.956549$GNGGA,175150.10,4138.0597846,N,07032.3829327,W,1,24,0.6,13.312,M,-29.744,M,0.0,*54
###2023-12-09 12:51:50.958832$GPGSA,A,3,03,04,16,26,28,29,31,32,,,,,1.1,0.6,0.9*3B
###2023-12-09 12:51:50.960925$GLGSA,A,3,65,71,72,73,74,75,,,,,,,1.1,0.6,0.9*24
###2023-12-09 12:51:50.962877$GAGSA,A,3,04,19,21,27,,,,,,,,,1.1,0.6,0.9*26
###2023-12-09 12:51:50.964882$GBGSA,A,3,14,24,25,26,33,,,,,,,,1.1,0.6,0.9*2F
###2023-12-09 12:51:50.967713$GPGSV,2,1,08,03,37,267,44,04,29,311,44,16,45,210,44,26,75,209,49*7F
###2023-12-09 12:51:50.970535$GPGSV,2,2,08,28,52,066,44,29,26,065,39,31,71,026,47,32,23,138,43*74
###2023-12-09 12:51:50.973374$GLGSV,2,1,06,65,19,329,44,71,47,171,47,72,72,288,47,73,40,038,44*68
###2023-12-09 12:51:50.975498$GLGSV,2,2,06,74,71,321,43,75,28,248,47,,,,,,,,*64
###2023-12-09 12:51:50.978311$GAGSV,1,1,04,04,26,312,43,19,85,258,41,21,83,157,46,27,36,048,42*67
###2023-12-09 12:51:50.981176$GBGSV,2,1,05,14,48,194,44,24,77,014,47,25,37,258,45,26,29,060,42*6A
###2023-12-09 12:51:50.982960$GBGSV,2,2,05,33,60,240,46,,,,,,,,,,,,*5C
###2023-12-09 12:51:50.984564$GNVTG,331.21,T,,M,0.23,N,0.43,K,A*27
###2023-12-09 12:51:50.986546$GNGST,175150.10,18.000,,,,0.076,0.067,0.160*5F
###2023-12-09 12:51:50.988121$GNZDA,175150.10,09,12,2023,00,00*77
###2023-12-09 12:51:50.988903$GNEBP,,,,,,M*13
###2023-12-09 12:51:51.153804$GNGGA,175150.30,4138.0597984,N,07032.3829366,W,1,24,0.6,13.309,M,-29.744,M,0.0,*56
###2023-12-09 12:51:51.356017$GNGGA,175150.50,4138.0598202,N,07032.3829506,W,1,24,0.6,13.295,M,-29.744,M,0.0,*5E
###2023-12-09 12:51:51.554042$GNGGA,175150.70,4138.0598510,N,07032.3829760,W,1,24,0.6,13.284,M,-29.744,M,0.0,*5A
###2023-12-09 12:51:51.754303$GNGGA,175150.90,4138.0598817,N,07032.3829997,W,1,24,0.6,13.281,M,-29.744,M,0.0,*5D
###2023-12-09 12:51:51.953645$GNRMC,175151.10,A,4138.0598979,N,07032.3830115,W,0.14,331.21,091223,,,A*5F
###2023-12-09 12:51:51.956569$GNGGA,175151.10,4138.0598979,N,07032.3830115,W,1,24,0.6,13.292,M,-29.744,M,0.0,*55
###2023-12-09 12:51:51.958441$GPGSA,A,3,03,04,16,26,28,29,31,32,,,,,1.1,0.6,0.9*3B
###2023-12-09 12:51:51.960188$GLGSA,A,3,65,71,72,73,74,75,,,,,,,1.1,0.6,0.9*24
###2023-12-09 12:51:51.961782$GAGSA,A,3,04,19,21,27,,,,,,,,,1.1,0.6,0.9*26
###2023-12-09 12:51:51.963460$GBGSA,A,3,14,24,25,26,33,,,,,,,,1.1,0.6,0.9*2F
###2023-12-09 12:51:51.965803$GPGSV,2,1,08,03,37,267,44,04,29,311,44,16,45,210,45,26,75,209,49*7E
###2023-12-09 12:51:51.968160$GPGSV,2,2,08,28,52,066,44,29,26,065,39,31,71,026,47,32,23,138,41*76
###2023-12-09 12:51:51.970509$GLGSV,2,1,06,65,19,329,45,71,47,171,47,72,72,288,47,73,40,038,43*6E
###2023-12-09 12:51:51.972277$GLGSV,2,2,06,74,71,321,42,75,28,248,46,,,,,,,,*64
###2023-12-09 12:51:51.974641$GAGSV,1,1,04,04,26,312,44,19,85,258,41,21,83,157,46,27,36,048,42*60
###2023-12-09 12:51:51.976990$GBGSV,2,1,05,14,48,194,44,24,77,014,48,25,37,258,45,26,29,060,42*65
###2023-12-09 12:51:51.978450$GBGSV,2,2,05,33,60,240,47,,,,,,,,,,,,*5D
###2023-12-09 12:51:51.979794$GNVTG,331.21,T,,M,0.14,N,0.25,K,A*23
###2023-12-09 12:51:51.981462$GNGST,175151.10,18.000,,,,0.076,0.067,0.160*5E
###2023-12-09 12:51:51.982776$GNZDA,175151.10,09,12,2023,00,00*76
###2023-12-09 12:51:51.983418$GNEBP,,,,,,M*13
###2023-12-09 12:51:52.152206$GNGGA,175151.30,4138.0599059,N,07032.3830123,W,1,24,0.6,13.296,M,-29.744,M,0.0,*5C
###2023-12-09 12:51:52.353466$GNGGA,175151.50,4138.0599256,N,07032.3830246,W,1,24,0.6,13.282,M,-29.744,M,0.0,*52
###2023-12-09 12:51:52.553238$GNGGA,175151.70,4138.0599616,N,07032.3830525,W,1,24,0.6,13.270,M,-29.744,M,0.0,*5F
###2023-12-09 12:51:52.753064$GNGGA,175151.90,4138.0599906,N,07032.3830753,W,1,24,0.6,13.254,M,-29.744,M,0.0,*5A
###2023-12-09 12:51:52.952793$GNRMC,175152.10,A,4138.0600051,N,07032.3830850,W,0.21,331.21,091223,,,A*53
###2023-12-09 12:51:52.955713$GNGGA,175152.10,4138.0600051,N,07032.3830850,W,1,24,0.6,13.262,M,-29.744,M,0.0,*50
###2023-12-09 12:51:52.957587$GPGSA,A,3,03,04,16,26,28,29,31,32,,,,,1.1,0.6,0.9*3B
###2023-12-09 12:51:52.959330$GLGSA,A,3,65,71,72,73,74,75,,,,,,,1.1,0.6,0.9*24
###2023-12-09 12:51:52.960918$GAGSA,A,3,04,19,21,27,,,,,,,,,1.1,0.6,0.9*26
###2023-12-09 12:51:52.962580$GBGSA,A,3,14,24,25,26,33,,,,,,,,1.1,0.6,0.9*2F
###2023-12-09 12:51:52.964912$GPGSV,2,1,08,03,37,267,45,04,29,311,43,16,45,210,45,26,75,209,48*79
###2023-12-09 12:51:52.967254$GPGSV,2,2,08,28,52,066,43,29,26,065,39,31,71,026,47,32,23,138,42*72
