###2023-12-09 12:53:37.963213$GLGSA,A,3,65,71,72,73,74,75,,,,,,,1.1,0.6,0.9*24
###2023-12-09 12:53:37.964817$GAGSA,A,3,04,19,21,27,,,,,,,,,1.1,0.6,0.9*26
###2023-12-09 12:53:37.966467$GBGSA,A,3,14,24,25,26,33,,,,,,,,1.1,0.6,0.9*2F
###2023-12-09 12:53:37.968825$GPGSV,2,1,08,03,36,266,43,04,29,311,42,16,46,211,44,26,76,209,47*71
###2023-12-09 12:53:37.971180$GPGSV,2,2,08,28,52,067,45,29,25,064,43,31,71,026,48,32,23,138,45*72
###2023-12-09 12:53:37.973518$GLGSV,2,1,06,65,20,328,41,71,45,172,47,72,72,285,46,73,39,039,47*67
###2023-12-09 12:53:37.975281$GLGSV,2,2,06,74,71,324,43,75,29,249,42,,,,,,,,*64
###2023-12-09 12:53:37.977610$GAGSV,1,1,04,04,26,312,42,19,85,252,40,21,84,154,46,27,36,048,45*6E
###2023-12-09 12:53:37.979952$GBGSV,2,1,05,14,47,194,46,24,76,016,48,25,38,259,45,26,29,061,45*63
###2023-12-09 12:53:37.981410$GBGSV,2,2,05,33,60,238,47,,,,,,,,,,,,*52
###2023-12-09 12:53:37.982755$GNVTG,301.56,T,,M,0.62,N,1.15,K,A*23
###2023-12-09 12:53:37.984402$GNGST,175337.10,18.000,,,,0.075,0.067,0.160*5F
###2023-12-09 12:53:37.985691$GNZDA,175337.10,09,12,2023,00,00*74
###2023-12-09 12:53:37.986326$GNEBP,,,,,,M*13
###2023-12-09 12:53:38.154083$GNGGA,175337.30,4138.0590159,N,07032.3888284,W,1,24,0.6,13.497,M,-29.744,M,0.0,*5C
###2023-12-09 12:53:38.354216$GNGGA,175337.50,4138.0590355,N,07032.3888707,W,1,24,0.6,13.485,M,-29.744,M,0.0,*59
###2023-12-09 12:53:38.555211$GNGGA,175337.70,4138.0590295,N,07032.3888729,W,1,24,0.6,13.464,M,-29.744,M,0.0,*55
###2023-12-09 12:53:38.755214$GNGGA,175337.90,4138.0590258,N,07032.3888798,W,1,24,0.6,13.450,M,-29.744,M,0.0,*57
###2023-12-09 12:53:38.956689$GNRMC,175338.10,A,4138.0590490,N,07032.3889310,W,1.05,304.02,091223,,,A*53
###2023-12-09 12:53:38.959604$GNGGA,175338.10,4138.0590490,N,07032.3889310,W,1,24,0.6,13.477,M,-29.744,M,0.0,*52
###2023-12-09 12:53:38.961459$GPGSA,A,3,03,04,16,26,28,29,31,32,,,,,1.1,0.6,0.9*3B
###2023-12-09 12:53:38.963262$GLGSA,A,3,65,71,72,73,74,75,,,,,,,1.1,0.6,0.9*24
###2023-12-09 12:53:38.964854$GAGSA,A,3,04,19,21,27,,,,,,,,,1.1,0.6,0.9*26
###2023-12-09 12:53:38.966500$GBGSA,A,3,14,24,25,26,33,,,,,,,,1.1,0.6,0.9*2F
###2023-12-09 12:53:38.968852$GPGSV,2,1,08,03,36,266,42,04,29,311,42,16,46,211,44,26,76,209,48*7F
###2023-12-09 12:53:38.971198$GPGSV,2,2,08,28,52,067,46,29,25,064,44,31,71,026,48,32,23,138,45*76
###2023-12-09 12:53:38.973528$GLGSV,2,1,06,65,20,328,41,71,45,172,47,72,72,285,45,73,39,039,47*64
###2023-12-09 12:53:38.975285$GLGSV,2,2,06,74,71,324,43,75,29,249,42,,,,,,,,*64
###2023-12-09 12:53:38.977609$GAGSV,1,1,04,04,26,312,41,19,85,252,40,21,84,154,46,27,36,048,44*6C
###2023-12-09 12:53:38.979936$GBGSV,2,1,05,14,47,194,45,24,76,016,49,25,38,259,46,26,29,061,44*63
###2023-12-09 12:53:38.981379$GBGSV,2,2,05,33,60,238,47,,,,,,,,,,,,*52
###2023-12-09 12:53:38.982710$GNVTG,304.02,T,,M,1.05,N,1.94,K,A*2E
###2023-12-09 12:53:38.984361$GNGST,175338.10,18.000,,,,0.075,0.067,0.160*50
###2023-12-09 12:53:38.985648$GNZDA,175338.10,09,12,2023,00,00*7B
###2023-12-09 12:53:38.986281$GNEBP,,,,,,M*13
###2023-12-09 12:53:39.154225$GNGGA,175338.30,4138.0590733,N,07032.3889844,W,1,24,0.6,13.478,M,-29.744,M,0.0,*5F
###2023-12-09 12:53:39.355858$GNGGA,175338.50,4138.0590743,N,07032.3889961,W,1,24,0.6,13.482,M,-29.744,M,0.0,*5D
###2023-12-09 12:53:39.554771$GNGGA,175338.70,4138.0590668,N,07032.3889913,W,1,24,0.6,13.475,M,-29.744,M,0.0,*5A
###2023-12-09 12:53:39.756312$GNGGA,175338.90,4138.0590758,N,07032.3890169,W,1,24,0.6,13.473,M,-29.744,M,0.0,*5D
###2023-12-09 12:53:39.953196$GNRMC,175339.10,A,4138.0591024,N,07032.3890728,W,0.93,304.02,091223,,,A*51
###2023-12-09 12:53:39.956082$GNGGA,175339.10,4138.0591024,N,07032.3890728,W,1,24,0.6,13.484,M,-29.744,M,0.0,*52
###2023-12-09 12:53:39.957946$GPGSA,A,3,03,04,16,26,28,29,31,32,,,,,1.1,0.6,0.9*3B
###2023-12-09 12:53:39.959686$GLGSA,A,3,65,71,72,73,74,75,,,,,,,1.1,0.6,0.9*24
###2023-12-09 12:53:39.961268$GAGSA,A,3,04,19,21,27,,,,,,,,,1.1,0.6,0.9*26
###2023-12-09 12:53:39.962930$GBGSA,A,3,14,24,25,26,33,,,,,,,,1.1,0.6,0.9*2F
###2023-12-09 12:53:39.965253$GPGSV,2,1,08,03,36,266,43,04,29,311,43,16,46,211,44,26,76,209,48*7F
###2023-12-09 12:53:39.967589$GPGSV,2,2,08,28,52,067,46,29,25,064,44,31,70,029,48,32,23,138,44*79
###2023-12-09 12:53:39.969916$GLGSV,2,1,06,65,20,328,41,71,45,172,47,72,72,285,46,73,39,039,47*67
###2023-12-09 12:53:39.971666$GLGSV,2,2,06,74,71,324,43,75,29,249,41,,,,,,,,*67
###2023-12-09 12:53:39.973993$GAGSV,1,1,04,04,26,312,42,19,85,252,40,21,84,154,47,27,36,048,44*6E
###2023-12-09 12:53:39.976332$GBGSV,2,1,05,14,47,194,45,24,76,016,49,25,38,259,45,26,29,061,44*60
###2023-12-09 12:53:39.977788$GBGSV,2,2,05,33,60,238,47,,,,,,,,,,,,*52
###2023-12-09 12:53:39.979123$GNVTG,304.02,T,,M,0.93,N,1.73,K,A*29
###2023-12-09 12:53:39.980777$GNGST,175339.10,18.000,,,,0.075,0.067,0.160*51
###2023-12-09 12:53:39.982064$GNZDA,175339.10,09,12,2023,00,00*7A
###2023-12-09 12:53:39.982714$GNEBP,,,,,,M*13
###2023-12-09 12:53:40.152439$GNGGA,175339.30,4138.0591174,N,07032.3891143,W,1,24,0.6,13.484,M,-29.744,M,0.0,*5E
###2023-12-09 12:53:40.352999$GNGGA,175339.50,4138.0591144,N,07032.3891153,W,1,24,0.6,13.485,M,-29.744,M,0.0,*5B
###2023-12-09 12:53:40.553189$GNGGA,175339.70,4138.0591096,N,07032.3891148,W,1,24,0.6,13.478,M,-29.744,M,0.0,*5F
###2023-12-09 12:53:40.753002$GNGGA,175339.90,4138.0591257,N,07032.3891545,W,1,24,0.6,13.486,M,-29.744,M,0.0,*56
###2023-12-09 12:53:40.953844$GNRMC,175340.10,A,4138.0591554,N,07032.3892164,W,0.91,302.63,091223,,,A*52
###2023-12-09 12:53:40.956752$GNGGA,175340.10,4138.0591554,N,07032.3892164,W,1,24,0.6,13.502,M,-29.744,M,0.0,*5D
###2023-12-09 12:53:40.958620$GPGSA,A,3,03,04,16,26,28,29,31,32,,,,,1.1,0.6,0.9*3B
###2023-12-09 12:53:40.960325$GLGSA,A,3,65,71,72,73,74,75,,,,,,,1.1,0.6,0.9*24
###2023-12-09 12:53:40.961899$GAGSA,A,3,04,19,21,27,,,,,,,,,1.1,0.6,0.9*26
###2023-12-09 12:53:40.963550$GBGSA,A,3,14,24,25,26,33,,,,,,,,1.1,0.6,0.9*2F
###2023-12-09 12:53:40.965869$GPGSV,2,1,08,03,36,266,43,04,29,311,43,16,46,211,44,26,76,209,47*70
###2023-12-09 12:53:40.968204$GPGSV,2,2,08,28,52,067,44,29,25,064,43,31,70,029,47,32,22,138,43*75
###2023-12-09 12:53:40.970532$GLGSV,2,1,06,65,20,328,42,71,45,172,47,72,72,285,46,73,39,039,47*64
###2023-12-09 12:53:40.972290$GLGSV,2,2,06,74,71,324,43,75,29,249,41,,,,,,,,*67
###2023-12-09 12:53:40.974629$GAGSV,1,1,04,04,26,312,41,19,85,252,40,21,84,154,46,27,36,048,45*6D
###2023-12-09 12:53:40.976958$GBGSV,2,1,05,14,47,194,44,24,76,016,48,25,38,259,46,26,29,061,44*63
###2023-12-09 12:53:40.978416$GBGSV,2,2,05,33,60,238,46,,,,,,,,,,,,*53
###2023-12-09 12:53:40.979752$GNVTG,302.63,T,,M,0.91,N,1.69,K,A*21
###2023-12-09 12:53:40.981405$GNGST,175340.10,18.000,,,,0.075,0.067,0.160*5F
###2023-12-09 12:53:40.982704$GNZDA,175340.10,09,12,2023,00,00*74
###2023-12-09 12:53:40.983343$GNEBP,,,,,,M*13
###2023-12-09 12:53:41.153123$GNGGA,175340.30,4138.0591686,N,07032.3892469,W,1,24,0.6,13.494,M,-29.744,M,0.0,*55
###2023-12-09 12:53:41.353394$GNGGA,175340.50,4138.0591591,N,07032.3892388,W,1,24,0.6,13.479,M,-29.744,M,0.0,*5D
###2023-12-09 12:53:41.554005$GNGGA,175340.70,4138.0591573,N,07032.3892487,W,1,24,0.6,13.474,M,-29.744,M,0.0,*56
###2023-12-09 12:53:41.753072$GNGGA,175340.90,4138.0591864,N,07032.3893069,W,1,24,0.6,13.502,M,-29.744,M,0.0,*56
###2023-12-09 12:53:41.954912$GNRMC,175341.10,A,4138.0592151,N,07032.3893645,W,0.64,303.50,091223,,,A*5F
###2023-12-09 12:53:41.957770$GNGGA,175341.10,4138.0592151,N,07032.3893645,W,1,24,0.6,13.507,M,-29.744,M,0.0,*5E
###2023-12-09 12:53:41.959642$GPGSA,A,3,03,04,16,26,28,29,31,32,,,,,1.1,0.6,0.9*3B
###2023-12-09 12:53:41.961356$GLGSA,A,3,65,71,72,73,74,75,,,,,,,1.1,0.6,0.9*24
###2023-12-09 12:53:41.962952$GAGSA,A,3,04,19,21,27,,,,,,,,,1.1,0.6,0.9*26
###2023-12-09 12:53:41.964598$GBGSA,A,3,14,24,25,26,33,,,,,,,,1.1,0.6,0.9*2F
###2023-12-09 12:53:41.966937$GPGSV,2,1,08,03,36,266,44,04,29,311,44,16,46,211,44,26,76,209,46*71
###2023-12-09 12:53:41.969274$GPGSV,2,2,08,28,52,067,44,29,25,064,42,31,70,029,48,32,22,138,40*78
###2023-12-09 12:53:41.971616$GLGSV,2,1,06,65,20,328,43,71,45,172,46,72,72,285,46,73,39,039,48*6B
###2023-12-09 12:53:41.973360$GLGSV,2,2,06,74,71,324,43,75,29,249,41,,,,,,,,*67
###2023-12-09 12:53:41.975933$GAGSV,1,1,04,04,26,312,43,19,85,252,40,21,84,154,46,27,36,048,44*6E
###2023-12-09 12:53:41.978271$GBGSV,2,1,05,14,47,194,46,24,76,016,49,25,38,259,46,26,29,061,44*60
###2023-12-09 12:53:41.979741$GBGSV,2,2,05,33,60,238,48,,,,,,,,,,,,*5D
###2023-12-09 12:53:41.981064$GNVTG,303.50,T,,M,0.64,N,1.19,K,A*2D
###2023-12-09 12:53:41.982752$GNGST,175341.10,18.000,,,,0.075,0.067,0.160*5E
###2023-12-09 12:53:41.984045$GNZDA,175341.10,09,12,2023,00,00*75
###2023-12-09 12:53:41.984681$GNEBP,,,,,,M*13
###2023-12-09 12:53:42.153301$GNGGA,175341.30,4138.0592170,N,07032.3893771,W,1,24,0.6,13.506,M,-29.744,M,0.0,*58
###2023-12-09 12:53:42.354529$GNGGA,175341.50,4138.0592094,N,07032.3893660,W,1,24,0.6,13.490,M,-29.744,M,0.0,*5A
