###2023-12-09 13:08:47.001091$GNGST,180846.10,18.000,,,,0.081,0.065,0.150*52
###2023-12-09 13:08:47.002406$GNZDA,180846.10,09,12,2023,00,00*73
###2023-12-09 13:08:47.003081$GNEBP,,,,,,M*13
###2023-12-09 13:08:47.168717$GNGGA,180846.30,4138.0824616,N,07032.2690288,W,1,25,0.6,13.184,M,-29.742,M,0.0,*5F
###2023-12-09 13:08:47.370340$GNGGA,180846.50,4138.0824886,N,07032.2687616,W,1,25,0.6,13.206,M,-29.742,M,0.0,*52
###2023-12-09 13:08:47.570714$GNGGA,180846.70,4138.0824851,N,07032.2684819,W,1,25,0.6,13.182,M,-29.742,M,0.0,*57
###2023-12-09 13:08:47.770998$GNGGA,180846.90,4138.0824697,N,07032.2682180,W,1,25,0.6,13.169,M,-29.742,M,0.0,*57
###2023-12-09 13:08:47.973809$GNRMC,180847.10,A,4138.0824823,N,07032.2679559,W,3.62,82.57,091223,,,A*69
###2023-12-09 13:08:47.976686$GNGGA,180847.10,4138.0824823,N,07032.2679559,W,1,25,0.6,13.206,M,-29.742,M,0.0,*51
###2023-12-09 13:08:47.978541$GPGSA,A,3,03,04,16,26,28,29,31,32,,,,,1.1,0.6,0.9*3B
###2023-12-09 13:08:47.980269$GLGSA,A,3,65,71,72,73,74,75,,,,,,,1.1,0.6,0.9*24
###2023-12-09 13:08:47.981851$GAGSA,A,3,04,19,21,27,,,,,,,,,1.1,0.6,0.9*26
###2023-12-09 13:08:47.983573$GBGSA,A,3,14,24,25,26,33,35,,,,,,,1.1,0.6,0.9*29
###2023-12-09 13:08:47.985899$GPGSV,2,1,08,03,34,258,44,04,35,311,44,16,53,214,47,26,83,210,48*7D
###2023-12-09 13:08:47.988246$GPGSV,2,2,08,28,47,073,42,29,25,058,40,31,67,044,46,32,16,141,42*7A
###2023-12-09 13:08:47.990584$GLGSV,2,1,06,65,27,326,41,71,36,173,46,72,72,254,46,73,32,044,44*64
###2023-12-09 13:08:47.992330$GLGSV,2,2,06,74,68,348,43,75,35,257,48,,,,,,,,*6E
###2023-12-09 13:08:47.994670$GAGSV,1,1,04,04,31,312,40,19,82,199,41,21,85,085,46,27,31,048,42*64
###2023-12-09 13:08:47.997001$GBGSV,2,1,06,14,40,192,45,24,71,031,48,25,43,265,46,26,24,064,41*6C
###2023-12-09 13:08:47.998756$GBGSV,2,2,06,33,55,228,48,35,15,066,42,,,,,,,,*6D
###2023-12-09 13:08:48.000050$GNVTG,82.57,T,,M,3.62,N,6.70,K,A*1D
###2023-12-09 13:08:48.001696$GNGST,180847.10,18.000,,,,0.081,0.065,0.150*53
###2023-12-09 13:08:48.003002$GNZDA,180847.10,09,12,2023,00,00*72
###2023-12-09 13:08:48.003642$GNEBP,,,,,,M*13
###2023-12-09 13:08:48.169694$GNGGA,180847.30,4138.0824855,N,07032.2676798,W,1,25,0.6,13.208,M,-29.742,M,0.0,*5C
###2023-12-09 13:08:48.370216$GNGGA,180847.50,4138.0824558,N,07032.2674118,W,1,25,0.6,13.176,M,-29.742,M,0.0,*5C
###2023-12-09 13:08:48.570608$GNGGA,180847.70,4138.0824469,N,07032.2671567,W,1,25,0.6,13.194,M,-29.742,M,0.0,*58
###2023-12-09 13:08:48.770742$GNGGA,180847.90,4138.0824418,N,07032.2668868,W,1,25,0.6,13.212,M,-29.742,M,0.0,*57
###2023-12-09 13:08:48.972356$GNRMC,180848.10,A,4138.0824211,N,07032.2666193,W,3.48,96.13,091223,,,A*6C
###2023-12-09 13:08:48.975217$GNGGA,180848.10,4138.0824211,N,07032.2666193,W,1,25,0.6,13.183,M,-29.742,M,0.0,*57
###2023-12-09 13:08:48.977077$GPGSA,A,3,03,04,16,26,28,29,31,32,,,,,1.1,0.6,0.9*3B
###2023-12-09 13:08:48.978807$GLGSA,A,3,65,71,72,73,74,75,,,,,,,1.1,0.6,0.9*24
###2023-12-09 13:08:48.980394$GAGSA,A,3,04,19,21,27,,,,,,,,,1.1,0.6,0.9*26
###2023-12-09 13:08:48.982106$GBGSA,A,3,14,24,25,26,33,35,,,,,,,1.1,0.6,0.9*29
###2023-12-09 13:08:48.984452$GPGSV,2,1,08,03,34,258,44,04,35,311,43,16,53,214,47,26,83,210,49*7B
###2023-12-09 13:08:48.986796$GPGSV,2,2,08,28,47,073,44,29,25,058,42,31,67,044,48,32,16,141,42*70
###2023-12-09 13:08:48.989119$GLGSV,2,1,06,65,27,326,41,71,36,173,45,72,72,254,46,73,32,044,44*67
###2023-12-09 13:08:48.990876$GLGSV,2,2,06,74,68,348,43,75,35,257,48,,,,,,,,*6E
###2023-12-09 13:08:48.993198$GAGSV,1,1,04,04,31,312,42,19,82,199,40,21,85,085,45,27,31,048,43*65
###2023-12-09 13:08:48.995542$GBGSV,2,1,06,14,40,192,45,24,71,031,49,25,43,265,47,26,24,064,42*6F
###2023-12-09 13:08:48.997282$GBGSV,2,2,06,33,55,228,48,35,15,066,42,,,,,,,,*6D
###2023-12-09 13:08:48.998581$GNVTG,96.13,T,,M,3.48,N,6.44,K,A*17
###2023-12-09 13:08:49.000224$GNGST,180848.10,18.000,,,,0.081,0.065,0.150*5C
###2023-12-09 13:08:49.001508$GNZDA,180848.10,09,12,2023,00,00*7D
###2023-12-09 13:08:49.002145$GNEBP,,,,,,M*13
###2023-12-09 13:08:49.169596$GNGGA,180848.30,4138.0824031,N,07032.2663682,W,1,25,0.6,13.198,M,-29.742,M,0.0,*5D
###2023-12-09 13:08:49.370235$GNGGA,180848.50,4138.0823883,N,07032.2661042,W,1,25,0.6,13.234,M,-29.742,M,0.0,*50
###2023-12-09 13:08:49.570492$GNGGA,180848.70,4138.0823600,N,07032.2658399,W,1,25,0.6,13.186,M,-29.742,M,0.0,*52
###2023-12-09 13:08:49.770636$GNGGA,180848.90,4138.0823576,N,07032.2655887,W,1,25,0.6,13.183,M,-29.742,M,0.0,*52
###2023-12-09 13:08:49.972280$GNRMC,180849.10,A,4138.0823590,N,07032.2653295,W,3.67,91.65,091223,,,A*6C
###2023-12-09 13:08:49.975158$GNGGA,180849.10,4138.0823590,N,07032.2653295,W,1,25,0.6,13.219,M,-29.742,M,0.0,*5C
###2023-12-09 13:08:49.977018$GPGSA,A,3,03,04,16,26,28,29,31,32,,,,,1.1,0.6,0.9*3B
###2023-12-09 13:08:49.978738$GLGSA,A,3,65,71,72,73,74,75,,,,,,,1.1,0.6,0.9*24
###2023-12-09 13:08:49.980323$GAGSA,A,3,04,19,21,27,,,,,,,,,1.1,0.6,0.9*26
###2023-12-09 13:08:49.982029$GBGSA,A,3,14,24,25,26,33,35,,,,,,,1.1,0.6,0.9*29
###2023-12-09 13:08:49.984361$GPGSV,2,1,08,03,34,258,44,04,35,311,44,16,53,214,47,26,83,210,48*7D
###2023-12-09 13:08:49.986694$GPGSV,2,2,08,28,47,073,43,29,25,058,42,31,67,044,47,32,16,141,41*7B
###2023-12-09 13:08:49.989019$GLGSV,2,1,06,65,27,326,42,71,36,173,45,72,72,254,46,73,32,044,45*65
###2023-12-09 13:08:49.990777$GLGSV,2,2,06,74,68,348,43,75,35,257,47,,,,,,,,*61
###2023-12-09 13:08:49.993098$GAGSV,1,1,04,04,31,312,41,19,82,199,40,21,85,085,45,27,31,048,43*66
###2023-12-09 13:08:49.995432$GBGSV,2,1,06,14,40,192,44,24,71,031,48,25,43,265,47,26,24,064,42*6F
###2023-12-09 13:08:49.997176$GBGSV,2,2,06,33,55,228,48,35,15,066,42,,,,,,,,*6D
###2023-12-09 13:08:49.998462$GNVTG,91.65,T,,M,3.67,N,6.80,K,A*14
###2023-12-09 13:08:50.000119$GNGST,180849.10,18.000,,,,0.080,0.065,0.150*5C
###2023-12-09 13:08:50.001411$GNZDA,180849.10,09,12,2023,00,00*7C
###2023-12-09 13:08:50.002048$GNEBP,,,,,,M*13
###2023-12-09 13:08:50.175977$GNGGA,180849.30,4138.0823406,N,07032.2650639,W,1,25,0.6,13.215,M,-29.742,M,0.0,*5D
###2023-12-09 13:08:50.371173$GNGGA,180849.50,4138.0823137,N,07032.2648043,W,1,25,0.6,13.203,M,-29.742,M,0.0,*59
###2023-12-09 13:08:50.571713$GNGGA,180849.70,4138.0822964,N,07032.2645426,W,1,25,0.6,13.197,M,-29.741,M,0.0,*53
###2023-12-09 13:08:50.770626$GNGGA,180849.90,4138.0822924,N,07032.2642807,W,1,25,0.6,13.189,M,-29.741,M,0.0,*5E
###2023-12-09 13:08:50.972242$GNRMC,180850.10,A,4138.0822825,N,07032.2640195,W,3.62,99.02,091223,,,A*6B
###2023-12-09 13:08:50.975121$GNGGA,180850.10,4138.0822825,N,07032.2640195,W,1,25,0.6,13.204,M,-29.741,M,0.0,*58
###2023-12-09 13:08:50.976973$GPGSA,A,3,03,04,16,26,28,29,31,32,,,,,1.1,0.6,0.9*3B
###2023-12-09 13:08:50.978693$GLGSA,A,3,65,71,72,73,74,75,,,,,,,1.1,0.6,0.9*24
###2023-12-09 13:08:50.980280$GAGSA,A,3,04,19,21,27,,,,,,,,,1.1,0.6,0.9*26
###2023-12-09 13:08:50.981986$GBGSA,A,3,14,24,25,26,33,35,,,,,,,1.1,0.6,0.9*29
###2023-12-09 13:08:50.984320$GPGSV,2,1,08,03,34,258,43,04,35,311,44,16,53,214,46,26,83,210,49*7A
###2023-12-09 13:08:50.986656$GPGSV,2,2,08,28,47,073,44,29,25,058,43,31,67,044,47,32,16,141,40*7C
###2023-12-09 13:08:50.988979$GLGSV,2,1,06,65,27,326,41,71,36,173,44,72,72,254,46,73,32,044,45*67
###2023-12-09 13:08:50.990732$GLGSV,2,2,06,74,68,348,43,75,35,257,47,,,,,,,,*61
###2023-12-09 13:08:50.993056$GAGSV,1,1,04,04,31,312,41,19,82,199,40,21,85,085,46,27,31,048,43*65
###2023-12-09 13:08:50.995394$GBGSV,2,1,06,14,40,192,43,24,71,031,48,25,43,265,46,26,24,064,42*69
###2023-12-09 13:08:50.997146$GBGSV,2,2,06,33,55,228,47,35,15,066,42,,,,,,,,*62
###2023-12-09 13:08:50.998438$GNVTG,99.02,T,,M,3.62,N,6.70,K,A*17
###2023-12-09 13:08:51.000092$GNGST,180850.10,18.000,,,,0.080,0.065,0.150*54
###2023-12-09 13:08:51.001384$GNZDA,180850.10,09,12,2023,00,00*74
###2023-12-09 13:08:51.002021$GNEBP,,,,,,M*13
###2023-12-09 13:08:51.172632$GNGGA,180850.30,4138.0822285,N,07032.2637571,W,1,25,0.6,13.209,M,-29.741,M,0.0,*59
###2023-12-09 13:08:51.373373$GNGGA,180850.50,4138.0821747,N,07032.2634954,W,1,25,0.6,13.186,M,-29.741,M,0.0,*5B
###2023-12-09 13:08:51.570450$GNGGA,180850.70,4138.0821759,N,07032.2632357,W,1,25,0.6,13.200,M,-29.741,M,0.0,*54
###2023-12-09 13:08:51.770609$GNGGA,180850.90,4138.0821670,N,07032.2629719,W,1,25,0.6,13.202,M,-29.741,M,0.0,*56
###2023-12-09 13:08:51.973570$GNRMC,180851.10,A,4138.0821198,N,07032.2627050,W,3.71,104.13,091223,,,A*58
###2023-12-09 13:08:51.976471$GNGGA,180851.10,4138.0821198,N,07032.2627050,W,1,25,0.6,13.194,M,-29.741,M,0.0,*56
###2023-12-09 13:08:51.978344$GPGSA,A,3,03,04,16,26,28,29,31,32,,,,,1.1,0.6,0.9*3B
###2023-12-09 13:08:51.980082$GLGSA,A,3,65,71,72,73,74,75,,,,,,,1.1,0.6,0.9*24
###2023-12-09 13:08:51.981667$GAGSA,A,3,04,19,21,27,,,,,,,,,1.1,0.6,0.9*26
###2023-12-09 13:08:51.983392$GBGSA,A,3,14,24,25,26,33,35,,,,,,,1.1,0.6,0.9*29
###2023-12-09 13:08:51.985718$GPGSV,2,1,08,03,34,258,43,04,35,311,42,16,53,214,47,26,83,210,48*7C
###2023-12-09 13:08:51.988057$GPGSV,2,2,08,28,47,073,45,29,25,058,42,31,67,044,47,32,16,141,40*7C
###2023-12-09 13:08:51.990391$GLGSV,2,1,06,65,27,326,42,71,36,173,45,72,72,254,46,73,32,044,44*64
