###2023-12-09 13:22:31.013176$GAGSV,1,1,04,04,36,311,43,19,77,186,39,21,81,054,46,27,26,049,43*66
###2023-12-09 13:22:31.015545$GBGSV,2,1,06,14,34,191,41,24,66,040,49,25,47,271,47,26,19,068,45*6F
###2023-12-09 13:22:31.017297$GBGSV,2,2,06,33,51,222,44,35,16,062,45,,,,,,,,*6F
###2023-12-09 13:22:31.018634$GNVTG,177.83,T,,M,3.58,N,6.62,K,A*25
###2023-12-09 13:22:31.020279$GNGST,182230.10,18.000,,,,0.100,0.071,0.170*54
###2023-12-09 13:22:31.021567$GNZDA,182230.10,09,12,2023,00,00*7A
###2023-12-09 13:22:31.022204$GNEBP,,,,,,M*13
###2023-12-09 13:22:31.186155$GNGGA,182230.30,4138.0671409,N,07032.3616004,W,1,24,0.7,13.071,M,-29.743,M,0.0,*57
###2023-12-09 13:22:31.386280$GNGGA,182230.50,4138.0669405,N,07032.3615789,W,1,24,0.7,13.050,M,-29.743,M,0.0,*56
###2023-12-09 13:22:31.588400$GNGGA,182230.70,4138.0667635,N,07032.3615155,W,1,24,0.7,13.024,M,-29.743,M,0.0,*5F
###2023-12-09 13:22:31.787415$GNGGA,182230.90,4138.0665758,N,07032.3614855,W,1,24,0.7,13.074,M,-29.744,M,0.0,*53
###2023-12-09 13:22:31.988195$GNRMC,182231.10,A,4138.0663783,N,07032.3614791,W,3.42,176.10,091223,,,A*5F
###2023-12-09 13:22:31.991072$GNGGA,182231.10,4138.0663783,N,07032.3614791,W,1,24,0.7,13.063,M,-29.744,M,0.0,*5B
###2023-12-09 13:22:31.992865$GPGSA,A,3,03,04,16,26,28,29,31,,,,,,1.1,0.7,0.9*3B
###2023-12-09 13:22:31.994593$GLGSA,A,3,65,71,72,73,74,75,,,,,,,1.1,0.7,0.9*25
###2023-12-09 13:22:31.996179$GAGSA,A,3,04,19,21,27,,,,,,,,,1.1,0.7,0.9*27
###2023-12-09 13:22:31.997890$GBGSA,A,3,14,24,25,26,33,35,,,,,,,1.1,0.7,0.9*28
###2023-12-09 13:22:32.000232$GPGSV,2,1,07,03,30,252,43,04,41,310,44,16,60,218,46,26,90,099,48*75
###2023-12-09 13:22:32.002275$GPGSV,2,2,07,28,42,080,45,29,23,052,42,31,63,057,47,,,,*46
###2023-12-09 13:22:32.004615$GLGSV,2,1,06,65,33,323,43,71,30,174,42,72,69,234,45,73,27,048,43*63
###2023-12-09 13:22:32.006362$GLGSV,2,2,06,74,64,002,42,75,39,263,48,,,,,,,,*65
###2023-12-09 13:22:32.008694$GAGSV,1,1,04,04,36,311,44,19,77,186,40,21,81,054,46,27,26,049,41*6D
###2023-12-09 13:22:32.011032$GBGSV,2,1,06,14,34,191,43,24,66,040,49,25,47,271,49,26,19,068,45*63
###2023-12-09 13:22:32.012773$GBGSV,2,2,06,33,51,222,48,35,16,062,44,,,,,,,,*62
###2023-12-09 13:22:32.014095$GNVTG,176.10,T,,M,3.42,N,6.34,K,A*26
###2023-12-09 13:22:32.015755$GNGST,182231.10,18.000,,,,0.100,0.071,0.170*55
###2023-12-09 13:22:32.017048$GNZDA,182231.10,09,12,2023,00,00*7B
###2023-12-09 13:22:32.017686$GNEBP,,,,,,M*13
###2023-12-09 13:22:32.185289$GNGGA,182231.30,4138.0661915,N,07032.3614435,W,1,24,0.7,13.038,M,-29.744,M,0.0,*59
###2023-12-09 13:22:32.386664$GNGGA,182231.50,4138.0660036,N,07032.3613938,W,1,24,0.7,13.062,M,-29.744,M,0.0,*5E
###2023-12-09 13:22:32.585671$GNGGA,182231.70,4138.0658098,N,07032.3613643,W,1,24,0.7,13.066,M,-29.744,M,0.0,*54
###2023-12-09 13:22:32.785598$GNGGA,182231.90,4138.0656150,N,07032.3613344,W,1,24,0.7,13.052,M,-29.744,M,0.0,*54
###2023-12-09 13:22:32.995651$GNRMC,182232.10,A,4138.0654242,N,07032.3612937,W,3.50,172.80,091223,,,A*5A
###2023-12-09 13:22:32.998525$GNGGA,182232.10,4138.0654242,N,07032.3612937,W,1,24,0.7,13.062,M,-29.744,M,0.0,*51
###2023-12-09 13:22:33.000333$GPGSA,A,3,03,04,16,26,28,29,31,,,,,,1.1,0.7,0.9*3B
###2023-12-09 13:22:33.002045$GLGSA,A,3,65,71,72,73,74,75,,,,,,,1.1,0.7,0.9*25
###2023-12-09 13:22:33.003640$GAGSA,A,3,04,19,21,27,,,,,,,,,1.1,0.7,0.9*27
###2023-12-09 13:22:33.005353$GBGSA,A,3,14,24,25,26,33,35,,,,,,,1.1,0.7,0.9*28
###2023-12-09 13:22:33.007685$GPGSV,2,1,07,03,30,252,42,04,41,310,45,16,60,218,45,26,90,099,48*76
###2023-12-09 13:22:33.009717$GPGSV,2,2,07,28,42,080,45,29,23,052,43,31,63,057,46,,,,*46
###2023-12-09 13:22:33.012057$GLGSV,2,1,06,65,33,323,44,71,30,174,41,72,69,234,45,73,27,048,43*67
###2023-12-09 13:22:33.013808$GLGSV,2,2,06,74,64,002,43,75,39,263,47,,,,,,,,*6B
###2023-12-09 13:22:33.016134$GAGSV,1,1,04,04,36,311,42,19,77,186,39,21,81,054,45,27,26,049,40*67
###2023-12-09 13:22:33.018450$GBGSV,2,1,06,14,34,191,42,24,66,040,48,25,47,271,48,26,19,068,44*63
###2023-12-09 13:22:33.020211$GBGSV,2,2,06,33,51,222,47,35,16,062,43,,,,,,,,*6A
###2023-12-09 13:22:33.021532$GNVTG,172.80,T,,M,3.50,N,6.48,K,A*23
###2023-12-09 13:22:33.023182$GNGST,182232.10,18.000,,,,0.100,0.071,0.170*56
###2023-12-09 13:22:33.024468$GNZDA,182232.10,09,12,2023,00,00*78
###2023-12-09 13:22:33.025105$GNEBP,,,,,,M*13
###2023-12-09 13:22:33.188028$GNGGA,182232.30,4138.0652272,N,07032.3612744,W,1,24,0.7,13.078,M,-29.744,M,0.0,*57
###2023-12-09 13:22:33.383849$GNGGA,182232.50,4138.0650302,N,07032.3612413,W,1,24,0.7,13.070,M,-29.744,M,0.0,*5C
###2023-12-09 13:22:33.585325$GNGGA,182232.70,4138.0648349,N,07032.3612068,W,1,24,0.7,13.065,M,-29.744,M,0.0,*54
###2023-12-09 13:22:33.786787$GNGGA,182232.90,4138.0646332,N,07032.3611787,W,1,24,0.7,13.082,M,-29.744,M,0.0,*54
###2023-12-09 13:22:33.989476$GNRMC,182233.10,A,4138.0644329,N,07032.3611430,W,3.50,169.38,091223,,,A*56
###2023-12-09 13:22:33.992358$GNGGA,182233.10,4138.0644329,N,07032.3611430,W,1,24,0.7,13.070,M,-29.744,M,0.0,*57
###2023-12-09 13:22:33.994148$GPGSA,A,3,03,04,16,26,28,29,31,,,,,,1.1,0.7,0.9*3B
###2023-12-09 13:22:33.995870$GLGSA,A,3,65,71,72,73,74,75,,,,,,,1.1,0.7,0.9*25
###2023-12-09 13:22:33.997447$GAGSA,A,3,04,19,21,27,,,,,,,,,1.1,0.7,0.9*27
###2023-12-09 13:22:33.999167$GBGSA,A,3,14,24,25,26,33,35,,,,,,,1.1,0.7,0.9*28
###2023-12-09 13:22:34.001491$GPGSV,2,1,07,03,30,252,42,04,41,310,44,16,60,218,46,26,90,099,48*74
###2023-12-09 13:22:34.003542$GPGSV,2,2,07,28,42,080,45,29,23,052,42,31,63,057,46,,,,*47
###2023-12-09 13:22:34.005866$GLGSV,2,1,06,65,33,323,43,71,30,174,43,72,69,234,46,73,27,048,42*60
###2023-12-09 13:22:34.007619$GLGSV,2,2,06,74,64,002,43,75,39,263,48,,,,,,,,*64
###2023-12-09 13:22:34.009933$GAGSV,1,1,04,04,36,311,43,19,77,186,40,21,81,054,47,27,26,049,41*6B
###2023-12-09 13:22:34.012263$GBGSV,2,1,06,14,34,191,42,24,66,040,48,25,47,271,47,26,19,068,43*6B
###2023-12-09 13:22:34.013999$GBGSV,2,2,06,33,51,222,46,35,16,062,43,,,,,,,,*6B
###2023-12-09 13:22:34.015333$GNVTG,169.38,T,,M,3.50,N,6.48,K,A*2A
###2023-12-09 13:22:34.016976$GNGST,182233.10,18.000,,,,0.100,0.071,0.170*57
###2023-12-09 13:22:34.018257$GNZDA,182233.10,09,12,2023,00,00*79
###2023-12-09 13:22:34.018903$GNEBP,,,,,,M*13
###2023-12-09 13:22:34.185155$GNGGA,182233.30,4138.0642375,N,07032.3610957,W,1,24,0.7,13.076,M,-29.744,M,0.0,*51
###2023-12-09 13:22:34.384895$GNGGA,182233.50,4138.0640352,N,07032.3610549,W,1,24,0.7,13.081,M,-29.744,M,0.0,*5B
###2023-12-09 13:22:34.585681$GNGGA,182233.70,4138.0638366,N,07032.3610142,W,1,24,0.7,13.078,M,-29.744,M,0.0,*58
###2023-12-09 13:22:34.785533$GNGGA,182233.90,4138.0636354,N,07032.3609678,W,1,24,0.7,13.084,M,-29.744,M,0.0,*5C
###2023-12-09 13:22:34.990928$GNRMC,182234.10,A,4138.0634361,N,07032.3609158,W,3.50,169.24,091223,,,A*55
###2023-12-09 13:22:34.993790$GNGGA,182234.10,4138.0634361,N,07032.3609158,W,1,24,0.7,13.073,M,-29.744,M,0.0,*5A
###2023-12-09 13:22:34.995619$GPGSA,A,3,03,04,16,26,28,29,31,,,,,,1.1,0.7,0.9*3B
###2023-12-09 13:22:34.997337$GLGSA,A,3,65,71,72,73,74,75,,,,,,,1.1,0.7,0.9*25
###2023-12-09 13:22:34.998932$GAGSA,A,3,04,19,21,27,,,,,,,,,1.1,0.7,0.9*27
###2023-12-09 13:22:35.000646$GBGSA,A,3,14,24,25,26,33,35,,,,,,,1.1,0.7,0.9*28
###2023-12-09 13:22:35.002989$GPGSV,2,1,07,03,30,252,42,04,41,310,45,16,60,218,46,26,90,099,47*7A
###2023-12-09 13:22:35.005026$GPGSV,2,2,07,28,42,080,45,29,23,052,42,31,63,057,46,,,,*47
###2023-12-09 13:22:35.007360$GLGSV,2,1,06,65,33,323,43,71,30,174,43,72,69,234,46,73,27,048,43*61
###2023-12-09 13:22:35.009102$GLGSV,2,2,06,74,64,002,43,75,39,263,47,,,,,,,,*6B
###2023-12-09 13:22:35.011427$GAGSV,1,1,04,04,36,311,43,19,77,186,40,21,81,054,46,27,26,049,40*6B
###2023-12-09 13:22:35.013749$GBGSV,2,1,06,14,34,191,41,24,66,040,48,25,47,271,47,26,19,068,43*68
###2023-12-09 13:22:35.015499$GBGSV,2,2,06,33,51,222,46,35,16,062,42,,,,,,,,*6A
###2023-12-09 13:22:35.016815$GNVTG,169.24,T,,M,3.50,N,6.48,K,A*27
###2023-12-09 13:22:35.018455$GNGST,182234.10,18.000,,,,0.100,0.070,0.170*51
###2023-12-09 13:22:35.019745$GNZDA,182234.10,09,12,2023,00,00*7E
###2023-12-09 13:22:35.020386$GNEBP,,,,,,M*13
###2023-12-09 13:22:35.185263$GNGGA,182234.30,4138.0632418,N,07032.3608744,W,1,24,0.7,13.080,M,-29.744,M,0.0,*51
###2023-12-09 13:22:35.385608$GNGGA,182234.50,4138.0630383,N,07032.3608373,W,1,24,0.7,13.090,M,-29.744,M,0.0,*51
###2023-12-09 13:22:35.585586$GNGGA,182234.70,4138.0628404,N,07032.3608063,W,1,24,0.7,13.072,M,-29.744,M,0.0,*5C
###2023-12-09 13:22:35.785632$GNGGA,182234.90,4138.0626441,N,07032.3607779,W,1,24,0.7,13.086,M,-29.744,M,0.0,*55
###2023-12-09 13:22:35.988827$GNRMC,182235.10,A,4138.0624462,N,07032.3607497,W,3.58,176.10,091223,,,A*58
###2023-12-09 13:22:35.991704$GNGGA,182235.10,4138.0624462,N,07032.3607497,W,1,24,0.7,13.086,M,-29.744,M,0.0,*5C
###2023-12-09 13:22:35.993502$GPGSA,A,3,03,04,16,26,28,29,31,,,,,,1.1,0.7,0.9*3B
###2023-12-09 13:22:35.995242$GLGSA,A,3,65,71,72,73,74,75,,,,,,,1.1,0.7,0.9*25
###2023-12-09 13:22:35.996830$GAGSA,A,3,04,19,21,27,,,,,,,,,1.1,0.7,0.9*27
