###2023-12-09 12:33:46.730442$GNGGA,173345.90,4138.0454326,N,07032.4283103,W,1,19,0.9,12.625,M,-29.745,M,0.0,*56
###2023-12-09 12:33:46.936649$GNRMC,173346.10,A,4138.0454256,N,07032.4283062,W,0.14,100.99,091223,,,A*5D
###2023-12-09 12:33:46.939534$GNGGA,173346.10,4138.0454256,N,07032.4283062,W,1,21,0.7,12.605,M,-29.745,M,0.0,*5A
###2023-12-09 12:33:46.941402$GPGSA,A,3,03,04,16,26,28,29,31,32,,,,,1.3,0.7,1.1*31
###2023-12-09 12:33:46.943002$GLGSA,A,3,71,72,73,74,,,,,,,,,1.3,0.7,1.1*2F
###2023-12-09 12:33:46.944590$GAGSA,A,3,04,19,21,27,,,,,,,,,1.3,0.7,1.1*2C
###2023-12-09 12:33:46.946248$GBGSA,A,3,14,24,25,26,33,,,,,,,,1.3,0.7,1.1*25
###2023-12-09 12:33:46.948611$GPGSV,2,1,08,03,39,278,42,04,21,310,36,16,36,207,46,26,65,206,50*73
###2023-12-09 12:33:46.950980$GPGSV,2,2,08,28,58,055,47,29,25,075,42,31,73,358,45,32,31,134,44*71
###2023-12-09 12:33:46.953320$GLGSV,1,1,04,71,57,169,50,72,65,310,41,73,49,033,44,74,71,287,40*6A
###2023-12-09 12:33:46.955673$GAGSV,1,1,04,04,20,311,36,19,81,304,40,21,77,177,46,27,42,050,42*6E
###2023-12-09 12:33:46.958012$GBGSV,2,1,05,14,55,198,46,24,81,343,48,25,32,252,45,26,35,057,40*6B
###2023-12-09 12:33:46.959486$GBGSV,2,2,05,33,63,255,49,,,,,,,,,,,,*54
###2023-12-09 12:33:46.960811$GNVTG,100.99,T,,M,0.14,N,0.25,K,A*20
###2023-12-09 12:33:46.962460$GNGST,173346.10,20.000,,,,0.090,0.081,0.200*52
###2023-12-09 12:33:46.963766$GNZDA,173346.10,09,12,2023,00,00*74
###2023-12-09 12:33:46.964408$GNEBP,,,,,,M*13
###2023-12-09 12:33:47.131355$GNGGA,173346.30,4138.0454208,N,07032.4283037,W,1,21,0.7,12.592,M,-29.745,M,0.0,*5E
###2023-12-09 12:33:47.332564$GNGGA,173346.50,4138.0454102,N,07032.4282967,W,1,22,0.7,12.579,M,-29.745,M,0.0,*5A
###2023-12-09 12:33:47.532375$GNGGA,173346.70,4138.0454041,N,07032.4282895,W,1,20,0.7,12.548,M,-29.745,M,0.0,*52
###2023-12-09 12:33:47.729449$GNGGA,173346.90,4138.0453886,N,07032.4282788,W,1,20,0.7,12.523,M,-29.745,M,0.0,*56
###2023-12-09 12:33:47.931767$GNRMC,173347.10,A,4138.0453844,N,07032.4282754,W,0.29,100.99,091223,,,A*5F
###2023-12-09 12:33:47.934643$GNGGA,173347.10,4138.0453844,N,07032.4282754,W,1,21,0.7,12.508,M,-29.745,M,0.0,*58
###2023-12-09 12:33:47.936509$GPGSA,A,3,03,04,16,26,28,29,31,32,,,,,1.2,0.7,1.0*31
###2023-12-09 12:33:47.938102$GLGSA,A,3,71,72,73,75,,,,,,,,,1.2,0.7,1.0*2E
###2023-12-09 12:33:47.939706$GAGSA,A,3,04,19,21,27,,,,,,,,,1.2,0.7,1.0*2C
###2023-12-09 12:33:47.941366$GBGSA,A,3,14,24,25,26,33,,,,,,,,1.2,0.7,1.0*25
###2023-12-09 12:33:47.943709$GPGSV,2,1,08,03,39,278,44,04,21,310,41,16,36,207,46,26,65,206,50*75
###2023-12-09 12:33:47.946047$GPGSV,2,2,08,28,58,055,43,29,25,075,41,31,73,358,41,32,31,134,45*73
###2023-12-09 12:33:47.948406$GLGSV,1,1,04,71,57,169,49,72,65,310,36,73,48,033,44,75,21,240,38*63
###2023-12-09 12:33:47.950808$GAGSV,1,1,04,04,20,311,41,19,81,304,37,21,77,177,46,27,42,050,38*63
###2023-12-09 12:33:47.953143$GBGSV,2,1,05,14,55,198,47,24,81,343,44,25,32,252,44,26,35,057,37*67
###2023-12-09 12:33:47.954620$GBGSV,2,2,05,33,63,255,46,,,,,,,,,,,,*5B
###2023-12-09 12:33:47.955953$GNVTG,100.99,T,,M,0.29,N,0.54,K,A*28
###2023-12-09 12:33:47.957606$GNGST,173347.10,20.000,,,,0.090,0.080,0.200*52
###2023-12-09 12:33:47.958916$GNZDA,173347.10,09,12,2023,00,00*75
###2023-12-09 12:33:47.959554$GNEBP,,,,,,M*13
###2023-12-09 12:33:48.132328$GNGGA,173347.30,4138.0453753,N,07032.4282653,W,1,22,0.7,12.501,M,-29.745,M,0.0,*5F
###2023-12-09 12:33:48.331294$GNGGA,173347.50,4138.0453668,N,07032.4282643,W,1,22,0.7,12.495,M,-29.745,M,0.0,*5D
###2023-12-09 12:33:48.532568$GNGGA,173347.70,4138.0453621,N,07032.4282664,W,1,21,0.7,12.492,M,-29.745,M,0.0,*53
###2023-12-09 12:33:48.732015$GNGGA,173347.90,4138.0453584,N,07032.4282635,W,1,21,0.7,12.479,M,-29.745,M,0.0,*50
###2023-12-09 12:33:48.936549$GNRMC,173348.10,A,4138.0453460,N,07032.4282625,W,0.29,100.99,091223,,,A*5D
###2023-12-09 12:33:48.939398$GNGGA,173348.10,4138.0453460,N,07032.4282625,W,1,20,0.7,12.472,M,-29.745,M,0.0,*57
###2023-12-09 12:33:48.941255$GPGSA,A,3,03,04,16,26,28,29,31,32,,,,,1.3,0.7,1.1*31
###2023-12-09 12:33:48.942782$GLGSA,A,3,71,73,75,,,,,,,,,,1.3,0.7,1.1*2B
###2023-12-09 12:33:48.944364$GAGSA,A,3,04,19,21,27,,,,,,,,,1.3,0.7,1.1*2C
###2023-12-09 12:33:48.946003$GBGSA,A,3,14,24,25,26,33,,,,,,,,1.3,0.7,1.1*25
###2023-12-09 12:33:48.948367$GPGSV,2,1,08,03,39,278,45,04,21,310,42,16,36,207,45,26,65,206,52*76
###2023-12-09 12:33:48.950740$GPGSV,2,2,08,28,58,055,40,29,25,075,43,31,73,358,42,32,31,134,45*71
###2023-12-09 12:33:48.952790$GLGSV,1,1,03,71,57,169,46,73,48,033,43,75,21,240,37,,,,*52
###2023-12-09 12:33:48.955139$GAGSV,1,1,04,04,20,311,43,19,81,304,37,21,77,177,48,27,42,050,45*65
###2023-12-09 12:33:48.957483$GBGSV,2,1,05,14,55,198,49,24,81,343,44,25,32,252,42,26,35,057,43*6C
###2023-12-09 12:33:48.958955$GBGSV,2,2,05,33,63,255,44,,,,,,,,,,,,*59
###2023-12-09 12:33:48.960279$GNVTG,100.99,T,,M,0.29,N,0.54,K,A*28
###2023-12-09 12:33:48.961927$GNGST,173348.10,20.000,,,,0.089,0.080,0.200*55
###2023-12-09 12:33:48.963241$GNZDA,173348.10,09,12,2023,00,00*7A
###2023-12-09 12:33:48.963880$GNEBP,,,,,,M*13
###2023-12-09 12:33:49.133335$GNGGA,173348.30,4138.0453429,N,07032.4282667,W,1,20,0.7,12.462,M,-29.745,M,0.0,*5F
###2023-12-09 12:33:49.333582$GNGGA,173348.50,4138.0453398,N,07032.4282601,W,1,20,0.7,12.458,M,-29.745,M,0.0,*5D
###2023-12-09 12:33:49.535107$GNGGA,173348.70,4138.0453445,N,07032.4282588,W,1,21,0.7,12.466,M,-29.745,M,0.0,*56
###2023-12-09 12:33:49.732807$GNGGA,173348.90,4138.0453408,N,07032.4282458,W,1,22,0.7,12.500,M,-29.745,M,0.0,*5F
###2023-12-09 12:33:49.934922$GNRMC,173349.10,A,4138.0453443,N,07032.4282335,W,0.06,100.99,091223,,,A*54
###2023-12-09 12:33:49.937764$GNGGA,173349.10,4138.0453443,N,07032.4282335,W,1,22,0.7,12.528,M,-29.745,M,0.0,*5F
###2023-12-09 12:33:49.939627$GPGSA,A,3,03,04,16,26,28,29,31,32,,,,,1.2,0.7,1.0*31
###2023-12-09 12:33:49.941273$GLGSA,A,3,71,72,73,74,75,,,,,,,,1.2,0.7,1.0*2D
###2023-12-09 12:33:49.942865$GAGSA,A,3,04,19,21,27,,,,,,,,,1.2,0.7,1.0*2C
###2023-12-09 12:33:49.944510$GBGSA,A,3,14,24,25,26,33,,,,,,,,1.2,0.7,1.0*25
###2023-12-09 12:33:49.946861$GPGSV,2,1,08,03,39,278,42,04,21,310,37,16,36,207,47,26,65,206,50*73
###2023-12-09 12:33:49.949214$GPGSV,2,2,08,28,58,055,47,29,25,075,42,31,73,358,45,32,31,134,47*72
###2023-12-09 12:33:49.951580$GLGSV,2,1,05,71,57,169,49,72,65,310,43,73,48,033,47,74,71,290,41*67
###2023-12-09 12:33:49.953041$GLGSV,2,2,05,75,22,241,36,,,,,,,,,,,,*50
###2023-12-09 12:33:49.955386$GAGSV,1,1,04,04,20,311,39,19,81,304,40,21,77,177,45,27,42,050,41*61
###2023-12-09 12:33:49.957719$GBGSV,2,1,05,14,55,198,47,24,81,343,47,25,32,252,43,26,35,057,44*67
###2023-12-09 12:33:49.959191$GBGSV,2,2,05,33,63,255,49,,,,,,,,,,,,*54
###2023-12-09 12:33:49.960511$GNVTG,100.99,T,,M,0.06,N,0.11,K,A*24
###2023-12-09 12:33:49.962153$GNGST,173349.10,20.000,,,,0.088,0.079,0.190*59
###2023-12-09 12:33:49.963458$GNZDA,173349.10,09,12,2023,00,00*7B
###2023-12-09 12:33:49.964099$GNEBP,,,,,,M*13
###2023-12-09 12:33:50.132089$GNGGA,173349.30,4138.0453444,N,07032.4282295,W,1,21,0.7,12.543,M,-29.745,M,0.0,*5F
###2023-12-09 12:33:50.333345$GNGGA,173349.50,4138.0453458,N,07032.4282313,W,1,21,0.7,12.528,M,-29.745,M,0.0,*56
###2023-12-09 12:33:50.534492$GNGGA,173349.70,4138.0453435,N,07032.4282285,W,1,21,0.7,12.502,M,-29.745,M,0.0,*59
###2023-12-09 12:33:50.732726$GNGGA,173349.90,4138.0453408,N,07032.4282260,W,1,20,0.8,12.499,M,-29.745,M,0.0,*5F
###2023-12-09 12:33:50.936660$GNRMC,173350.10,A,4138.0453471,N,07032.4282304,W,0.06,100.99,091223,,,A*5F
###2023-12-09 12:33:50.939519$GNGGA,173350.10,4138.0453471,N,07032.4282304,W,1,20,0.8,12.499,M,-29.745,M,0.0,*52
###2023-12-09 12:33:50.941371$GPGSA,A,3,03,04,16,26,28,29,31,32,,,,,1.4,0.8,1.1*39
###2023-12-09 12:33:50.942961$GLGSA,A,3,71,72,73,74,,,,,,,,,1.4,0.8,1.1*27
###2023-12-09 12:33:50.944474$GAGSA,A,3,19,21,27,,,,,,,,,,1.4,0.8,1.1*20
###2023-12-09 12:33:50.946114$GBGSA,A,3,14,24,25,26,33,,,,,,,,1.4,0.8,1.1*2D
###2023-12-09 12:33:50.948466$GPGSV,2,1,08,03,39,278,42,04,21,310,35,16,36,207,43,26,65,206,48*7C
###2023-12-09 12:33:50.950828$GPGSV,2,2,08,28,58,055,48,29,25,075,42,31,73,358,46,32,31,134,44*7D
###2023-12-09 12:33:50.953159$GLGSV,1,1,04,71,57,169,49,72,65,310,47,73,48,033,49,74,71,290,45*6B
###2023-12-09 12:33:50.955468$GAGSV,1,1,03,19,81,304,41,21,77,177,45,27,42,050,42,,,,*5B
###2023-12-09 12:33:50.957813$GBGSV,2,1,05,14,55,198,47,24,81,343,49,25,32,252,42,26,35,057,42*6E
###2023-12-09 12:33:50.959288$GBGSV,2,2,05,33,63,255,52,,,,,,,,,,,,*5E
###2023-12-09 12:33:50.960614$GNVTG,100.99,T,,M,0.06,N,0.11,K,A*24
###2023-12-09 12:33:50.962260$GNGST,173350.10,20.000,,,,0.088,0.080,0.200*5D
###2023-12-09 12:33:50.963569$GNZDA,173350.10,09,12,2023,00,00*73
###2023-12-09 12:33:50.964211$GNEBP,,,,,,M*13
###2023-12-09 12:33:51.134450$GNGGA,173350.30,4138.0453507,N,07032.4282323,W,1,20,0.8,12.494,M,-29.745,M,0.0,*58
###2023-12-09 12:33:51.333607$GNGGA,173350.50,4138.0453591,N,07032.4282414,W,1,20,0.8,12.477,M,-29.745,M,0.0,*5F
