###2023-12-09 13:01:24.165093$GNGGA,180123.30,4138.0495438,N,07032.2544446,W,1,24,0.6,13.451,M,-29.743,M,0.0,*5E
###2023-12-09 13:01:24.364476$GNGGA,180123.50,4138.0496955,N,07032.2544783,W,1,24,0.6,13.458,M,-29.743,M,0.0,*5E
###2023-12-09 13:01:24.564779$GNGGA,180123.70,4138.0498425,N,07032.2545245,W,1,24,0.6,13.469,M,-29.743,M,0.0,*54
###2023-12-09 13:01:24.765125$GNGGA,180123.90,4138.0499841,N,07032.2545795,W,1,24,0.6,13.471,M,-29.743,M,0.0,*54
###2023-12-09 13:01:24.973926$GNRMC,180124.10,A,4138.0501180,N,07032.2546428,W,2.51,339.09,091223,,,A*5E
###2023-12-09 13:01:24.976813$GNGGA,180124.10,4138.0501180,N,07032.2546428,W,1,24,0.6,13.473,M,-29.743,M,0.0,*5B
###2023-12-09 13:01:24.978685$GPGSA,A,3,03,04,16,26,28,29,31,32,,,,,1.1,0.6,0.9*3B
###2023-12-09 13:01:24.980400$GLGSA,A,3,65,71,72,73,74,75,,,,,,,1.1,0.6,0.9*24
###2023-12-09 13:01:24.981987$GAGSA,A,3,04,19,21,27,,,,,,,,,1.1,0.6,0.9*26
###2023-12-09 13:01:24.983648$GBGSA,A,3,14,24,25,26,33,,,,,,,,1.1,0.6,0.9*2F
###2023-12-09 13:01:24.985979$GPGSV,2,1,08,03,35,261,44,04,33,311,40,16,50,212,47,26,79,210,48*74
###2023-12-09 13:01:24.988360$GPGSV,2,2,08,28,49,070,46,29,25,061,43,31,69,036,47,32,19,140,45*79
###2023-12-09 13:01:24.990713$GLGSV,2,1,06,65,24,327,39,71,41,173,47,72,73,269,45,73,36,041,45*64
###2023-12-09 13:01:24.992462$GLGSV,2,2,06,74,70,337,41,75,32,253,45,,,,,,,,*63
###2023-12-09 13:01:24.994795$GAGSV,1,1,04,04,29,312,40,19,84,216,41,21,86,120,46,27,33,048,42*60
###2023-12-09 13:01:24.997118$GBGSV,2,1,05,14,43,193,44,24,74,024,48,25,41,262,46,26,26,063,43*6F
###2023-12-09 13:01:24.998579$GBGSV,2,2,05,33,57,233,47,,,,,,,,,,,,*5D
###2023-12-09 13:01:24.999904$GNVTG,339.09,T,,M,2.51,N,4.64,K,A*23
###2023-12-09 13:01:25.001550$GNGST,180124.10,18.000,,,,0.081,0.068,0.160*51
###2023-12-09 13:01:25.002880$GNZDA,180124.10,09,12,2023,00,00*7E
###2023-12-09 13:01:25.003519$GNEBP,,,,,,M*13
###2023-12-09 13:01:25.163908$GNGGA,180124.30,4138.0502499,N,07032.2547111,W,1,24,0.6,13.475,M,-29.743,M,0.0,*5F
###2023-12-09 13:01:25.364355$GNGGA,180124.50,4138.0503772,N,07032.2547779,W,1,24,0.6,13.480,M,-29.743,M,0.0,*5C
###2023-12-09 13:01:25.564693$GNGGA,180124.70,4138.0504986,N,07032.2548514,W,1,24,0.6,13.483,M,-29.743,M,0.0,*59
###2023-12-09 13:01:25.764910$GNGGA,180124.90,4138.0506147,N,07032.2549305,W,1,24,0.6,13.489,M,-29.743,M,0.0,*5D
###2023-12-09 13:01:25.970731$GNRMC,180125.10,A,4138.0507285,N,07032.2550146,W,2.31,330.05,091223,,,A*56
###2023-12-09 13:01:25.977047$GNGGA,180125.10,4138.0507285,N,07032.2550146,W,1,24,0.6,13.491,M,-29.743,M,0.0,*5C
###2023-12-09 13:01:25.978903$GPGSA,A,3,03,04,16,26,28,29,31,32,,,,,1.1,0.6,0.9*3B
###2023-12-09 13:01:25.980629$GLGSA,A,3,65,71,72,73,74,75,,,,,,,1.1,0.6,0.9*24
###2023-12-09 13:01:25.982205$GAGSA,A,3,04,19,21,27,,,,,,,,,1.1,0.6,0.9*26
###2023-12-09 13:01:25.983853$GBGSA,A,3,14,24,25,26,33,,,,,,,,1.1,0.6,0.9*2F
###2023-12-09 13:01:25.986160$GPGSV,2,1,08,03,35,261,44,04,33,311,42,16,50,212,46,26,79,210,48*77
###2023-12-09 13:01:25.988490$GPGSV,2,2,08,28,49,070,46,29,25,061,43,31,69,036,47,32,19,140,44*78
###2023-12-09 13:01:25.990815$GLGSV,2,1,06,65,24,327,39,71,41,173,47,72,73,269,45,73,36,041,45*64
###2023-12-09 13:01:25.992550$GLGSV,2,2,06,74,70,337,41,75,32,253,45,,,,,,,,*63
###2023-12-09 13:01:25.994868$GAGSV,1,1,04,04,29,312,41,19,84,216,41,21,86,120,46,27,33,048,42*61
###2023-12-09 13:01:25.997178$GBGSV,2,1,05,14,43,193,44,24,74,024,48,25,41,262,46,26,26,063,44*68
###2023-12-09 13:01:25.998630$GBGSV,2,2,05,33,57,233,48,,,,,,,,,,,,*52
###2023-12-09 13:01:25.999939$GNVTG,330.05,T,,M,2.31,N,4.28,K,A*28
###2023-12-09 13:01:26.001572$GNGST,180125.10,18.000,,,,0.081,0.067,0.160*5F
###2023-12-09 13:01:26.002864$GNZDA,180125.10,09,12,2023,00,00*7F
###2023-12-09 13:01:26.003497$GNEBP,,,,,,M*13
###2023-12-09 13:01:26.167963$GNGGA,180125.30,4138.0508405,N,07032.2551028,W,1,24,0.6,13.495,M,-29.743,M,0.0,*53
###2023-12-09 13:01:26.364623$GNGGA,180125.50,4138.0509528,N,07032.2551960,W,1,24,0.6,13.501,M,-29.743,M,0.0,*53
###2023-12-09 13:01:26.564936$GNGGA,180125.70,4138.0510656,N,07032.2552967,W,1,24,0.6,13.505,M,-29.743,M,0.0,*53
###2023-12-09 13:01:26.764885$GNGGA,180125.90,4138.0511730,N,07032.2554108,W,1,24,0.6,13.508,M,-29.743,M,0.0,*57
###2023-12-09 13:01:26.965979$GNRMC,180126.10,A,4138.0512739,N,07032.2555368,W,2.53,314.55,091223,,,A*5F
###2023-12-09 13:01:26.968854$GNGGA,180126.10,4138.0512739,N,07032.2555368,W,1,24,0.6,13.508,M,-29.743,M,0.0,*53
###2023-12-09 13:01:26.970717$GPGSA,A,3,03,04,16,26,28,29,31,32,,,,,1.1,0.6,0.9*3B
###2023-12-09 13:01:26.972475$GLGSA,A,3,65,71,72,73,74,75,,,,,,,1.1,0.6,0.9*24
###2023-12-09 13:01:26.974387$GAGSA,A,3,04,19,21,27,,,,,,,,,1.1,0.6,0.9*26
###2023-12-09 13:01:26.976391$GBGSA,A,3,14,24,25,26,33,,,,,,,,1.1,0.6,0.9*2F
###2023-12-09 13:01:26.979197$GPGSV,2,1,08,03,35,261,44,04,33,311,43,16,50,212,47,26,79,210,48*77
###2023-12-09 13:01:26.981998$GPGSV,2,2,08,28,49,070,46,29,25,061,41,31,69,036,47,32,19,140,44*7A
###2023-12-09 13:01:26.984815$GLGSV,2,1,06,65,24,327,39,71,41,173,47,72,73,269,46,73,36,041,46*64
###2023-12-09 13:01:26.986958$GLGSV,2,2,06,74,70,337,41,75,32,253,44,,,,,,,,*62
###2023-12-09 13:01:26.989764$GAGSV,1,1,04,04,29,312,42,19,84,216,40,21,86,120,46,27,33,048,43*62
###2023-12-09 13:01:26.992585$GBGSV,2,1,05,14,43,193,45,24,74,024,48,25,41,262,46,26,26,063,42*6F
###2023-12-09 13:01:26.994345$GBGSV,2,2,05,33,57,233,46,,,,,,,,,,,,*5C
###2023-12-09 13:01:26.995957$GNVTG,314.55,T,,M,2.53,N,4.68,K,A*2B
###2023-12-09 13:01:26.997950$GNGST,180126.10,18.000,,,,0.080,0.067,0.160*5D
###2023-12-09 13:01:26.999525$GNZDA,180126.10,09,12,2023,00,00*7C
###2023-12-09 13:01:27.000295$GNEBP,,,,,,M*13
###2023-12-09 13:01:27.168480$GNGGA,180126.30,4138.0513750,N,07032.2556702,W,1,24,0.6,13.514,M,-29.743,M,0.0,*59
###2023-12-09 13:01:27.365440$GNGGA,180126.50,4138.0514707,N,07032.2558074,W,1,24,0.6,13.518,M,-29.743,M,0.0,*5E
###2023-12-09 13:01:27.565249$GNGGA,180126.70,4138.0515580,N,07032.2559473,W,1,24,0.6,13.518,M,-29.743,M,0.0,*52
###2023-12-09 13:01:27.765497$GNGGA,180126.90,4138.0516317,N,07032.2560887,W,1,24,0.6,13.515,M,-29.743,M,0.0,*57
###2023-12-09 13:01:27.967365$GNRMC,180127.10,A,4138.0516994,N,07032.2562275,W,2.24,303.22,091223,,,A*5C
###2023-12-09 13:01:27.970826$GNGGA,180127.10,4138.0516994,N,07032.2562275,W,1,24,0.6,13.507,M,-29.743,M,0.0,*59
###2023-12-09 13:01:27.973070$GPGSA,A,3,03,04,16,26,28,29,31,32,,,,,1.1,0.6,0.9*3B
###2023-12-09 13:01:27.975146$GLGSA,A,3,65,71,72,73,74,75,,,,,,,1.1,0.6,0.9*24
###2023-12-09 13:01:27.977049$GAGSA,A,3,04,19,21,27,,,,,,,,,1.1,0.6,0.9*26
###2023-12-09 13:01:27.979051$GBGSA,A,3,14,24,25,26,33,,,,,,,,1.1,0.6,0.9*2F
###2023-12-09 13:01:27.981862$GPGSV,2,1,08,03,35,261,42,04,33,311,41,16,50,212,47,26,79,210,49*72
###2023-12-09 13:01:27.984682$GPGSV,2,2,08,28,49,070,45,29,25,061,41,31,69,036,47,32,19,140,45*78
###2023-12-09 13:01:27.987529$GLGSV,2,1,06,65,24,327,36,71,41,173,48,72,73,269,46,73,36,041,45*67
###2023-12-09 13:01:27.989640$GLGSV,2,2,06,74,70,337,42,75,32,253,45,,,,,,,,*60
###2023-12-09 13:01:27.992456$GAGSV,1,1,04,04,29,312,40,19,84,216,40,21,86,120,46,27,33,048,42*61
###2023-12-09 13:01:27.995269$GBGSV,2,1,05,14,43,193,45,24,74,024,49,25,41,262,46,26,26,063,41*6D
###2023-12-09 13:01:27.997053$GBGSV,2,2,05,33,57,233,47,,,,,,,,,,,,*5D
###2023-12-09 13:01:27.998711$GNVTG,303.22,T,,M,2.24,N,4.14,K,A*26
###2023-12-09 13:01:28.000697$GNGST,180127.10,18.000,,,,0.080,0.067,0.160*5C
###2023-12-09 13:01:28.002255$GNZDA,180127.10,09,12,2023,00,00*7D
###2023-12-09 13:01:28.003035$GNEBP,,,,,,M*13
###2023-12-09 13:01:28.164381$GNGGA,180127.30,4138.0517686,N,07032.2563653,W,1,24,0.6,13.506,M,-29.743,M,0.0,*56
###2023-12-09 13:01:28.365108$GNGGA,180127.50,4138.0518416,N,07032.2565052,W,1,24,0.6,13.510,M,-29.743,M,0.0,*52
###2023-12-09 13:01:28.565138$GNGGA,180127.70,4138.0519139,N,07032.2566541,W,1,24,0.6,13.517,M,-29.743,M,0.0,*5A
###2023-12-09 13:01:28.765759$GNGGA,180127.90,4138.0519833,N,07032.2568177,W,1,24,0.6,13.520,M,-29.743,M,0.0,*5C
###2023-12-09 13:01:28.970956$GNRMC,180128.10,A,4138.0520433,N,07032.2569835,W,2.45,294.06,091223,,,A*5D
###2023-12-09 13:01:28.976190$GNGGA,180128.10,4138.0520433,N,07032.2569835,W,1,24,0.6,13.527,M,-29.743,M,0.0,*54
###2023-12-09 13:01:28.979763$GPGSA,A,3,03,04,16,26,28,29,31,32,,,,,1.1,0.6,0.9*3B
###2023-12-09 13:01:28.982683$GLGSA,A,3,65,71,72,73,74,75,,,,,,,1.1,0.6,0.9*24
###2023-12-09 13:01:28.984789$GAGSA,A,3,04,19,21,27,,,,,,,,,1.1,0.6,0.9*26
###2023-12-09 13:01:28.986753$GBGSA,A,3,14,24,25,26,33,,,,,,,,1.1,0.6,0.9*2F
###2023-12-09 13:01:28.989535$GPGSV,2,1,08,03,35,261,41,04,33,311,42,16,50,212,46,26,80,210,48*74
###2023-12-09 13:01:28.992320$GPGSV,2,2,08,28,49,070,46,29,25,061,41,31,69,036,48,32,19,140,43*72
###2023-12-09 13:01:28.995091$GLGSV,2,1,06,65,24,327,39,71,41,173,47,72,73,269,46,73,36,041,45*67
###2023-12-09 13:01:28.997165$GLGSV,2,2,06,74,70,337,42,75,32,253,41,,,,,,,,*64
###2023-12-09 13:01:28.999950$GAGSV,1,1,04,04,29,312,40,19,84,216,40,21,86,120,46,27,33,048,42*61
###2023-12-09 13:01:29.002763$GBGSV,2,1,05,14,43,193,46,24,74,024,50,25,41,262,45,26,26,063,43*67
