###2023-12-09 13:22:59.993823$GNGGA,182259.10,4138.0389271,N,07032.3617535,W,1,24,0.7,12.890,M,-29.745,M,0.0,*57
###2023-12-09 13:22:59.995661$GPGSA,A,3,03,04,16,26,28,29,31,,,,,,1.1,0.7,0.9*3B
###2023-12-09 13:22:59.997379$GLGSA,A,3,65,71,72,73,74,75,,,,,,,1.1,0.7,0.9*25
###2023-12-09 13:22:59.998977$GAGSA,A,3,04,19,21,27,,,,,,,,,1.1,0.7,0.9*27
###2023-12-09 13:23:00.000683$GBGSA,A,3,14,24,25,26,33,35,,,,,,,1.1,0.7,0.9*28
###2023-12-09 13:23:00.003019$GPGSV,2,1,07,03,30,252,42,04,41,310,45,16,60,218,45,26,90,099,48*76
###2023-12-09 13:23:00.005057$GPGSV,2,2,07,28,42,080,44,29,23,052,39,31,63,057,46,,,,*4A
###2023-12-09 13:23:00.007400$GLGSV,2,1,06,65,34,323,44,71,29,175,41,72,68,232,46,73,27,049,41*6E
###2023-12-09 13:23:00.009141$GLGSV,2,2,06,74,63,004,43,75,40,265,47,,,,,,,,*62
###2023-12-09 13:23:00.011465$GAGSV,1,1,04,04,36,311,45,19,77,186,40,21,81,054,46,27,26,049,38*62
###2023-12-09 13:23:00.013792$GBGSV,2,1,06,14,34,191,41,24,66,040,48,25,47,271,48,26,19,068,43*67
###2023-12-09 13:23:00.015564$GBGSV,2,2,06,33,50,221,47,35,16,061,43,,,,,,,,*6B
###2023-12-09 13:23:00.016891$GNVTG,177.63,T,,M,3.62,N,6.70,K,A*21
###2023-12-09 13:23:00.018537$GNGST,182259.10,18.000,,,,0.100,0.069,0.160*53
###2023-12-09 13:23:00.019842$GNZDA,182259.10,09,12,2023,00,00*75
###2023-12-09 13:23:00.020482$GNEBP,,,,,,M*13
###2023-12-09 13:23:00.187717$GNGGA,182259.30,4138.0387334,N,07032.3617375,W,1,24,0.7,12.849,M,-29.745,M,0.0,*5D
###2023-12-09 13:23:00.385367$GNGGA,182259.50,4138.0385445,N,07032.3617662,W,1,24,0.7,12.882,M,-29.745,M,0.0,*5C
###2023-12-09 13:23:00.587210$GNGGA,182259.70,4138.0383435,N,07032.3618162,W,1,24,0.7,12.890,M,-29.745,M,0.0,*54
###2023-12-09 13:23:00.788222$GNGGA,182259.90,4138.0381472,N,07032.3618129,W,1,24,0.7,12.851,M,-29.745,M,0.0,*59
###2023-12-09 13:23:00.992853$GNRMC,182300.10,A,4138.0379566,N,07032.3617973,W,3.48,180.27,091223,,,A*5D
###2023-12-09 13:23:00.995714$GNGGA,182300.10,4138.0379566,N,07032.3617973,W,1,24,0.7,12.868,M,-29.745,M,0.0,*5D
###2023-12-09 13:23:00.997499$GPGSA,A,3,03,04,16,26,28,29,31,,,,,,1.1,0.7,0.9*3B
###2023-12-09 13:23:00.999231$GLGSA,A,3,65,71,72,73,74,75,,,,,,,1.1,0.7,0.9*25
###2023-12-09 13:23:01.000806$GAGSA,A,3,04,19,21,27,,,,,,,,,1.1,0.7,0.9*27
###2023-12-09 13:23:01.002506$GBGSA,A,3,14,24,25,26,33,35,,,,,,,1.1,0.7,0.9*28
###2023-12-09 13:23:01.004830$GPGSV,2,1,07,03,30,252,41,04,41,310,45,16,60,218,45,26,90,099,48*75
###2023-12-09 13:23:01.006876$GPGSV,2,2,07,28,42,080,44,29,23,052,42,31,63,057,46,,,,*46
###2023-12-09 13:23:01.009198$GLGSV,2,1,06,65,34,323,44,71,29,175,41,72,68,232,46,73,27,049,43*6C
###2023-12-09 13:23:01.010945$GLGSV,2,2,06,74,63,004,43,75,40,265,46,,,,,,,,*63
###2023-12-09 13:23:01.013276$GAGSV,1,1,04,04,36,311,44,19,77,186,40,21,81,054,46,27,26,049,41*6D
###2023-12-09 13:23:01.015621$GBGSV,2,1,06,14,34,191,43,24,66,040,48,25,47,271,46,26,19,068,44*6C
###2023-12-09 13:23:01.017358$GBGSV,2,2,06,33,50,221,45,35,16,061,44,,,,,,,,*6E
###2023-12-09 13:23:01.018687$GNVTG,180.27,T,,M,3.48,N,6.44,K,A*26
###2023-12-09 13:23:01.020339$GNGST,182300.10,18.000,,,,0.100,0.069,0.160*5E
###2023-12-09 13:23:01.021624$GNZDA,182300.10,09,12,2023,00,00*78
###2023-12-09 13:23:01.022259$GNEBP,,,,,,M*13
###2023-12-09 13:23:01.186735$GNGGA,182300.30,4138.0377550,N,07032.3618181,W,1,24,0.7,12.882,M,-29.745,M,0.0,*5A
###2023-12-09 13:23:01.387342$GNGGA,182300.50,4138.0375554,N,07032.3618354,W,1,24,0.7,12.852,M,-29.745,M,0.0,*5D
###2023-12-09 13:23:01.588233$GNGGA,182300.70,4138.0373660,N,07032.3618527,W,1,24,0.7,12.869,M,-29.745,M,0.0,*57
###2023-12-09 13:23:01.787223$GNGGA,182300.90,4138.0371661,N,07032.3618608,W,1,24,0.7,12.870,M,-29.745,M,0.0,*5C
###2023-12-09 13:23:01.990452$GNRMC,182301.10,A,4138.0369711,N,07032.3618692,W,3.36,186.74,091223,,,A*59
###2023-12-09 13:23:01.993334$GNGGA,182301.10,4138.0369711,N,07032.3618692,W,1,24,0.7,12.836,M,-29.745,M,0.0,*5B
###2023-12-09 13:23:01.995132$GPGSA,A,3,03,04,16,26,28,29,31,,,,,,1.1,0.7,0.9*3B
###2023-12-09 13:23:01.996839$GLGSA,A,3,65,71,72,73,74,75,,,,,,,1.1,0.7,0.9*25
###2023-12-09 13:23:01.998410$GAGSA,A,3,04,19,21,27,,,,,,,,,1.1,0.7,0.9*27
###2023-12-09 13:23:02.000135$GBGSA,A,3,14,24,25,26,33,35,,,,,,,1.1,0.7,0.9*28
###2023-12-09 13:23:02.002464$GPGSV,2,1,07,03,30,252,41,04,41,310,44,16,60,218,45,26,90,099,48*74
###2023-12-09 13:23:02.004518$GPGSV,2,2,07,28,42,080,44,29,23,052,42,31,63,057,46,,,,*46
###2023-12-09 13:23:02.006861$GLGSV,2,1,06,65,34,323,41,71,29,175,41,72,68,232,45,73,27,049,42*6B
###2023-12-09 13:23:02.008610$GLGSV,2,2,06,74,63,004,43,75,40,265,46,,,,,,,,*63
###2023-12-09 13:23:02.010945$GAGSV,1,1,04,04,36,311,44,19,77,186,40,21,81,054,45,27,26,049,40*6F
###2023-12-09 13:23:02.013279$GBGSV,2,1,06,14,34,191,42,24,66,040,49,25,47,271,47,26,19,068,44*6D
###2023-12-09 13:23:02.015035$GBGSV,2,2,06,33,50,221,46,35,16,061,44,,,,,,,,*6D
###2023-12-09 13:23:02.016355$GNVTG,186.74,T,,M,3.36,N,6.23,K,A*2E
###2023-12-09 13:23:02.017991$GNGST,182301.10,18.000,,,,0.100,0.070,0.160*57
###2023-12-09 13:23:02.019291$GNZDA,182301.10,09,12,2023,00,00*79
###2023-12-09 13:23:02.019930$GNEBP,,,,,,M*13
###2023-12-09 13:23:02.186728$GNGGA,182301.30,4138.0367811,N,07032.3619127,W,1,24,0.7,12.859,M,-29.745,M,0.0,*59
###2023-12-09 13:23:02.386306$GNGGA,182301.50,4138.0365844,N,07032.3619473,W,1,24,0.7,12.854,M,-29.745,M,0.0,*54
###2023-12-09 13:23:02.589167$GNGGA,182301.70,4138.0363960,N,07032.3619698,W,1,24,0.7,12.842,M,-29.745,M,0.0,*57
###2023-12-09 13:23:02.787086$GNGGA,182301.90,4138.0362015,N,07032.3619917,W,1,24,0.7,12.845,M,-29.745,M,0.0,*5C
###2023-12-09 13:23:02.992783$GNRMC,182302.10,A,4138.0360017,N,07032.3620092,W,3.52,183.00,091223,,,A*5B
###2023-12-09 13:23:02.995656$GNGGA,182302.10,4138.0360017,N,07032.3620092,W,1,24,0.7,12.821,M,-29.745,M,0.0,*5B
###2023-12-09 13:23:02.997447$GPGSA,A,3,03,04,16,26,28,29,31,,,,,,1.1,0.7,0.9*3B
###2023-12-09 13:23:02.999165$GLGSA,A,3,65,71,72,73,74,75,,,,,,,1.1,0.7,0.9*25
###2023-12-09 13:23:03.000744$GAGSA,A,3,04,19,21,27,,,,,,,,,1.1,0.7,0.9*27
###2023-12-09 13:23:03.002449$GBGSA,A,3,14,24,25,26,33,35,,,,,,,1.1,0.7,0.9*28
###2023-12-09 13:23:03.004777$GPGSV,2,1,07,03,30,252,41,04,41,310,44,16,60,218,46,26,90,099,48*77
###2023-12-09 13:23:03.006819$GPGSV,2,2,07,28,42,080,45,29,23,052,42,31,63,057,47,,,,*46
###2023-12-09 13:23:03.009149$GLGSV,2,1,06,65,34,323,43,71,29,175,43,72,68,232,46,73,27,049,43*69
###2023-12-09 13:23:03.010906$GLGSV,2,2,06,74,63,004,43,75,40,265,47,,,,,,,,*62
###2023-12-09 13:23:03.013228$GAGSV,1,1,04,04,36,311,44,19,77,186,40,21,81,054,46,27,26,049,40*6C
###2023-12-09 13:23:03.015563$GBGSV,2,1,06,14,34,191,41,24,66,040,48,25,47,271,46,26,19,068,43*69
###2023-12-09 13:23:03.017311$GBGSV,2,2,06,33,50,221,43,35,16,061,43,,,,,,,,*6F
###2023-12-09 13:23:03.018644$GNVTG,183.00,T,,M,3.52,N,6.52,K,A*2C
###2023-12-09 13:23:03.020293$GNGST,182302.10,18.000,,,,0.100,0.070,0.160*54
###2023-12-09 13:23:03.021583$GNZDA,182302.10,09,12,2023,00,00*7A
###2023-12-09 13:23:03.022222$GNEBP,,,,,,M*13
###2023-12-09 13:23:03.190616$GNGGA,182302.30,4138.0358066,N,07032.3620238,W,1,24,0.7,12.815,M,-29.745,M,0.0,*51
###2023-12-09 13:23:03.387340$GNGGA,182302.50,4138.0356117,N,07032.3620499,W,1,24,0.7,12.844,M,-29.745,M,0.0,*57
###2023-12-09 13:23:03.587812$GNGGA,182302.70,4138.0354090,N,07032.3620631,W,1,24,0.7,12.841,M,-29.745,M,0.0,*5C
###2023-12-09 13:23:03.788205$GNGGA,182302.90,4138.0352161,N,07032.3620396,W,1,24,0.7,12.815,M,-29.745,M,0.0,*52
###2023-12-09 13:23:03.991637$GNRMC,182303.10,A,4138.0350199,N,07032.3620198,W,3.73,179.12,091223,,,A*50
###2023-12-09 13:23:03.994507$GNGGA,182303.10,4138.0350199,N,07032.3620198,W,1,24,0.7,12.825,M,-29.745,M,0.0,*51
###2023-12-09 13:23:03.996317$GPGSA,A,3,03,04,16,26,28,29,31,,,,,,1.1,0.7,0.9*3B
###2023-12-09 13:23:03.998040$GLGSA,A,3,65,71,72,73,74,75,,,,,,,1.1,0.7,0.9*25
###2023-12-09 13:23:03.999641$GAGSA,A,3,04,19,21,27,,,,,,,,,1.1,0.7,0.9*27
###2023-12-09 13:23:04.001356$GBGSA,A,3,14,24,25,26,33,35,,,,,,,1.1,0.7,0.9*28
###2023-12-09 13:23:04.003693$GPGSV,2,1,07,03,30,251,41,04,41,310,45,16,60,218,46,26,90,099,48*75
###2023-12-09 13:23:04.005737$GPGSV,2,2,07,28,42,080,45,29,23,052,42,31,63,057,47,,,,*46
###2023-12-09 13:23:04.008332$GLGSV,2,1,06,65,34,323,44,71,29,175,43,72,68,232,46,73,27,049,43*6E
###2023-12-09 13:23:04.010098$GLGSV,2,2,06,74,63,004,43,75,40,265,46,,,,,,,,*63
###2023-12-09 13:23:04.012443$GAGSV,1,1,04,04,36,311,45,19,77,186,40,21,81,054,47,27,26,049,40*6C
###2023-12-09 13:23:04.014791$GBGSV,2,1,06,14,34,191,42,24,66,040,49,25,47,271,47,26,19,068,44*6D
###2023-12-09 13:23:04.016542$GBGSV,2,2,06,33,50,221,45,35,16,061,44,,,,,,,,*6E
###2023-12-09 13:23:04.017865$GNVTG,179.12,T,,M,3.73,N,6.91,K,A*26
###2023-12-09 13:23:04.019520$GNGST,182303.10,18.000,,,,0.100,0.070,0.160*55
###2023-12-09 13:23:04.020813$GNZDA,182303.10,09,12,2023,00,00*7B
###2023-12-09 13:23:04.021451$GNEBP,,,,,,M*13
