###2023-12-09 12:41:38.948497$GPGSA,A,3,03,04,16,26,28,29,31,32,,,,,1.1,0.6,0.9*3B
###2023-12-09 12:41:38.950244$GLGSA,A,3,65,71,72,73,74,75,,,,,,,1.1,0.6,0.9*24
###2023-12-09 12:41:38.951874$GAGSA,A,3,04,19,21,27,,,,,,,,,1.1,0.6,0.9*26
###2023-12-09 12:41:38.953543$GBGSA,A,3,14,24,25,26,33,,,,,,,,1.1,0.6,0.9*2F
###2023-12-09 12:41:38.955909$GPGSV,2,1,08,03,38,272,43,04,25,311,41,16,39,208,45,26,69,207,48*7B
###2023-12-09 12:41:38.958258$GPGSV,2,2,08,28,56,059,44,29,25,071,41,31,73,010,46,32,28,135,45*73
###2023-12-09 12:41:38.960618$GLGSV,2,1,06,65,15,329,41,71,52,170,49,72,68,302,47,73,44,035,46*69
###2023-12-09 12:41:38.962378$GLGSV,2,2,06,74,71,303,43,75,25,244,45,,,,,,,,*67
###2023-12-09 12:41:38.964728$GAGSV,1,1,04,04,23,311,41,19,83,292,41,21,80,172,46,27,39,049,41*6A
###2023-12-09 12:41:38.967096$GBGSV,2,1,05,14,52,196,45,24,79,359,47,25,34,255,45,26,33,058,44*6E
###2023-12-09 12:41:38.968554$GBGSV,2,2,05,33,62,248,46,,,,,,,,,,,,*56
###2023-12-09 12:41:38.969877$GNVTG,322.79,T,,M,0.82,N,1.51,K,A*21
###2023-12-09 12:41:38.971538$GNGST,174138.10,18.000,,,,0.077,0.070,0.160*57
###2023-12-09 12:41:38.972830$GNZDA,174138.10,09,12,2023,00,00*78
###2023-12-09 12:41:38.973466$GNEBP,,,,,,M*13
###2023-12-09 12:41:39.144356$GNGGA,174138.30,4138.0638205,N,07032.3737807,W,1,24,0.6,13.413,M,-29.744,M,0.0,*5D
###2023-12-09 12:41:39.344124$GNGGA,174138.50,4138.0638405,N,07032.3738011,W,1,24,0.6,13.409,M,-29.744,M,0.0,*56
###2023-12-09 12:41:39.543787$GNGGA,174138.70,4138.0638445,N,07032.3737999,W,1,24,0.6,13.418,M,-29.744,M,0.0,*56
###2023-12-09 12:41:39.741565$GNGGA,174138.90,4138.0638535,N,07032.3738055,W,1,24,0.6,13.414,M,-29.744,M,0.0,*54
###2023-12-09 12:41:39.940810$GNRMC,174139.10,A,4138.0638843,N,07032.3738398,W,0.89,322.79,091223,,,A*5A
###2023-12-09 12:41:39.944276$GNGGA,174139.10,4138.0638843,N,07032.3738398,W,1,24,0.6,13.410,M,-29.744,M,0.0,*57
###2023-12-09 12:41:39.946549$GPGSA,A,3,03,04,16,26,28,29,31,32,,,,,1.1,0.6,0.9*3B
###2023-12-09 12:41:39.948685$GLGSA,A,3,65,71,72,73,74,75,,,,,,,1.1,0.6,0.9*24
###2023-12-09 12:41:39.950635$GAGSA,A,3,04,19,21,27,,,,,,,,,1.1,0.6,0.9*26
###2023-12-09 12:41:39.952624$GBGSA,A,3,14,24,25,26,33,,,,,,,,1.1,0.6,0.9*2F
###2023-12-09 12:41:39.955461$GPGSV,2,1,08,03,38,272,42,04,25,311,40,16,39,208,45,26,69,207,47*74
###2023-12-09 12:41:39.958293$GPGSV,2,2,08,28,56,059,44,29,25,071,40,31,73,010,45,32,28,135,44*70
###2023-12-09 12:41:39.961197$GLGSV,2,1,06,65,15,329,41,71,52,170,49,72,68,302,46,73,44,035,45*6B
###2023-12-09 12:41:39.963331$GLGSV,2,2,06,74,71,303,43,75,25,244,44,,,,,,,,*66
###2023-12-09 12:41:39.966151$GAGSV,1,1,04,04,23,311,41,19,83,292,41,21,80,172,46,27,39,049,41*6A
###2023-12-09 12:41:39.968993$GBGSV,2,1,05,14,52,196,45,24,79,359,48,25,34,255,46,26,33,058,45*63
###2023-12-09 12:41:39.970763$GBGSV,2,2,05,33,62,248,47,,,,,,,,,,,,*57
###2023-12-09 12:41:39.972365$GNVTG,322.79,T,,M,0.89,N,1.66,K,A*2E
###2023-12-09 12:41:39.974353$GNGST,174139.10,18.000,,,,0.077,0.070,0.160*56
###2023-12-09 12:41:39.975935$GNZDA,174139.10,09,12,2023,00,00*79
###2023-12-09 12:41:39.976707$GNEBP,,,,,,M*13
###2023-12-09 12:41:40.139949$GNGGA,174139.30,4138.0639191,N,07032.3738809,W,1,24,0.6,13.405,M,-29.744,M,0.0,*55
###2023-12-09 12:41:40.340231$GNGGA,174139.50,4138.0639341,N,07032.3738948,W,1,24,0.6,13.408,M,-29.744,M,0.0,*55
###2023-12-09 12:41:40.543095$GNGGA,174139.70,4138.0639367,N,07032.3738920,W,1,24,0.6,13.420,M,-29.744,M,0.0,*57
###2023-12-09 12:41:40.738787$GNGGA,174139.90,4138.0639487,N,07032.3739002,W,1,24,0.6,13.408,M,-29.744,M,0.0,*52
###2023-12-09 12:41:40.941185$GNRMC,174140.10,A,4138.0639798,N,07032.3739319,W,0.91,322.79,091223,,,A*5D
###2023-12-09 12:41:40.944069$GNGGA,174140.10,4138.0639798,N,07032.3739319,W,1,24,0.6,13.392,M,-29.744,M,0.0,*54
###2023-12-09 12:41:40.945935$GPGSA,A,3,03,04,16,26,28,29,31,32,,,,,1.1,0.6,0.9*3B
###2023-12-09 12:41:40.947694$GLGSA,A,3,65,71,72,73,74,75,,,,,,,1.1,0.6,0.9*24
###2023-12-09 12:41:40.949300$GAGSA,A,3,04,19,21,27,,,,,,,,,1.1,0.6,0.9*26
###2023-12-09 12:41:40.950975$GBGSA,A,3,14,24,25,26,33,,,,,,,,1.1,0.6,0.9*2F
###2023-12-09 12:41:40.953310$GPGSV,2,1,08,03,38,272,42,04,25,311,40,16,39,208,45,26,69,207,47*74
###2023-12-09 12:41:40.955673$GPGSV,2,2,08,28,56,059,44,29,25,071,40,31,73,010,45,32,28,135,44*70
###2023-12-09 12:41:40.958011$GLGSV,2,1,06,65,15,329,41,71,52,170,48,72,68,302,46,73,44,035,45*6A
###2023-12-09 12:41:40.959783$GLGSV,2,2,06,74,71,303,43,75,25,244,45,,,,,,,,*67
###2023-12-09 12:41:40.962120$GAGSV,1,1,04,04,23,311,42,19,83,292,41,21,80,172,46,27,39,049,41*69
###2023-12-09 12:41:40.964475$GBGSV,2,1,05,14,52,196,45,24,79,359,48,25,34,255,45,26,33,058,45*60
###2023-12-09 12:41:40.965939$GBGSV,2,2,05,33,62,248,48,,,,,,,,,,,,*58
###2023-12-09 12:41:40.967282$GNVTG,322.79,T,,M,0.91,N,1.69,K,A*28
###2023-12-09 12:41:40.968935$GNGST,174140.10,18.000,,,,0.077,0.070,0.160*58
###2023-12-09 12:41:40.970232$GNZDA,174140.10,09,12,2023,00,00*77
###2023-12-09 12:41:40.970887$GNEBP,,,,,,M*13
###2023-12-09 12:41:41.141444$GNGGA,174140.30,4138.0640123,N,07032.3739706,W,1,24,0.6,13.390,M,-29.744,M,0.0,*56
###2023-12-09 12:41:41.340319$GNGGA,174140.50,4138.0640289,N,07032.3739853,W,1,24,0.6,13.409,M,-29.744,M,0.0,*5B
###2023-12-09 12:41:41.541600$GNGGA,174140.70,4138.0640316,N,07032.3739823,W,1,24,0.6,13.417,M,-29.744,M,0.0,*56
###2023-12-09 12:41:41.739739$GNGGA,174140.90,4138.0640444,N,07032.3739929,W,1,24,0.6,13.405,M,-29.744,M,0.0,*50
###2023-12-09 12:41:41.940190$GNRMC,174141.10,A,4138.0640778,N,07032.3740267,W,0.97,322.79,091223,,,A*5C
###2023-12-09 12:41:41.943079$GNGGA,174141.10,4138.0640778,N,07032.3740267,W,1,24,0.6,13.392,M,-29.744,M,0.0,*53
###2023-12-09 12:41:41.944948$GPGSA,A,3,03,04,16,26,28,29,31,32,,,,,1.1,0.6,0.9*3B
###2023-12-09 12:41:41.946704$GLGSA,A,3,65,71,72,73,74,75,,,,,,,1.1,0.6,0.9*24
###2023-12-09 12:41:41.948340$GAGSA,A,3,04,19,21,27,,,,,,,,,1.1,0.6,0.9*26
###2023-12-09 12:41:41.950009$GBGSA,A,3,14,24,25,26,33,,,,,,,,1.1,0.6,0.9*2F
###2023-12-09 12:41:41.952375$GPGSV,2,1,08,03,38,272,42,04,25,311,40,16,40,208,45,26,69,207,48*75
###2023-12-09 12:41:41.954741$GPGSV,2,2,08,28,56,059,44,29,25,071,41,31,73,010,45,32,28,135,44*71
###2023-12-09 12:41:41.957101$GLGSV,2,1,06,65,15,329,41,71,52,170,48,72,68,302,46,73,44,035,45*6A
###2023-12-09 12:41:41.958877$GLGSV,2,2,06,74,71,303,43,75,25,244,45,,,,,,,,*67
###2023-12-09 12:41:41.961223$GAGSV,1,1,04,04,23,311,41,19,83,292,40,21,80,172,46,27,39,049,41*6B
###2023-12-09 12:41:41.963579$GBGSV,2,1,05,14,52,196,46,24,79,359,48,25,34,255,45,26,33,058,44*62
###2023-12-09 12:41:41.965044$GBGSV,2,2,05,33,62,248,47,,,,,,,,,,,,*57
###2023-12-09 12:41:41.966374$GNVTG,322.79,T,,M,0.97,N,1.80,K,A*29
###2023-12-09 12:41:41.968051$GNGST,174141.10,18.000,,,,0.077,0.070,0.160*59
###2023-12-09 12:41:41.969355$GNZDA,174141.10,09,12,2023,00,00*76
###2023-12-09 12:41:41.969996$GNEBP,,,,,,M*13
###2023-12-09 12:41:42.140449$GNGGA,174141.30,4138.0641117,N,07032.3740660,W,1,24,0.6,13.385,M,-29.744,M,0.0,*5A
###2023-12-09 12:41:42.343010$GNGGA,174141.50,4138.0641264,N,07032.3740813,W,1,24,0.6,13.400,M,-29.744,M,0.0,*5B
###2023-12-09 12:41:42.544358$GNGGA,174141.70,4138.0641279,N,07032.3740775,W,1,24,0.6,13.413,M,-29.744,M,0.0,*58
###2023-12-09 12:41:42.740306$GNGGA,174141.90,4138.0641417,N,07032.3740880,W,1,24,0.6,13.407,M,-29.744,M,0.0,*58
###2023-12-09 12:41:42.943731$GNRMC,174142.10,A,4138.0641756,N,07032.3741256,W,0.97,322.79,091223,,,A*51
###2023-12-09 12:41:42.947249$GNGGA,174142.10,4138.0641756,N,07032.3741256,W,1,24,0.6,13.402,M,-29.744,M,0.0,*50
###2023-12-09 12:41:42.949549$GPGSA,A,3,03,04,16,26,28,29,31,32,,,,,1.1,0.6,0.9*3B
###2023-12-09 12:41:42.951664$GLGSA,A,3,65,71,72,73,74,75,,,,,,,1.1,0.6,0.9*24
###2023-12-09 12:41:42.953592$GAGSA,A,3,04,19,21,27,,,,,,,,,1.1,0.6,0.9*26
###2023-12-09 12:41:42.955616$GBGSA,A,3,14,24,25,26,33,,,,,,,,1.1,0.6,0.9*2F
###2023-12-09 12:41:42.958455$GPGSV,2,1,08,03,38,272,42,04,25,311,41,16,40,208,46,26,69,207,48*77
###2023-12-09 12:41:42.961312$GPGSV,2,2,08,28,56,059,44,29,25,071,41,31,73,010,46,32,28,135,44*72
###2023-12-09 12:41:42.964162$GLGSV,2,1,06,65,15,329,42,71,52,170,48,72,68,302,46,73,44,035,45*69
###2023-12-09 12:41:42.966598$GLGSV,2,2,06,74,71,303,43,75,25,244,44,,,,,,,,*66
###2023-12-09 12:41:42.969474$GAGSV,1,1,04,04,23,311,41,19,83,292,41,21,80,172,46,27,39,049,42*69
###2023-12-09 12:41:42.972340$GBGSV,2,1,05,14,52,196,44,24,79,359,47,25,34,255,44,26,33,058,44*6E
###2023-12-09 12:41:42.974113$GBGSV,2,2,05,33,62,248,47,,,,,,,,,,,,*57
###2023-12-09 12:41:42.975730$GNVTG,322.79,T,,M,0.97,N,1.80,K,A*29
###2023-12-09 12:41:42.977732$GNGST,174142.10,18.000,,,,0.077,0.070,0.160*5A
###2023-12-09 12:41:42.979307$GNZDA,174142.10,09,12,2023,00,00*75
###2023-12-09 12:41:42.980091$GNEBP,,,,,,M*13
###2023-12-09 12:41:43.142670$GNGGA,174142.30,4138.0642108,N,07032.3741662,W,1,24,0.6,13.394,M,-29.744,M,0.0,*57
