###2023-12-09 13:16:10.003972$GBGSV,2,1,06,14,37,191,43,24,69,035,47,25,45,267,47,26,22,066,43*68
###2023-12-09 13:16:10.005745$GBGSV,2,2,06,33,53,225,48,35,16,064,42,,,,,,,,*67
###2023-12-09 13:16:10.007090$GNVTG,350.98,T,,M,3.46,N,6.41,K,A*26
###2023-12-09 13:16:10.008737$GNGST,181609.10,18.000,,,,0.098,0.071,0.170*59
###2023-12-09 13:16:10.010021$GNZDA,181609.10,09,12,2023,00,00*77
###2023-12-09 13:16:10.010673$GNEBP,,,,,,M*13
###2023-12-09 13:16:10.175493$GNGGA,181609.30,4138.0609820,N,07032.2760962,W,1,24,0.7,13.236,M,-29.742,M,0.0,*5A
###2023-12-09 13:16:10.378490$GNGGA,181609.50,4138.0611747,N,07032.2761387,W,1,24,0.7,13.235,M,-29.742,M,0.0,*58
###2023-12-09 13:16:10.576432$GNGGA,181609.70,4138.0613694,N,07032.2761695,W,1,24,0.7,13.235,M,-29.742,M,0.0,*51
###2023-12-09 13:16:10.776595$GNGGA,181609.90,4138.0615624,N,07032.2762013,W,1,24,0.7,13.237,M,-29.742,M,0.0,*5B
###2023-12-09 13:16:10.983196$GNRMC,181610.10,A,4138.0617566,N,07032.2762303,W,3.48,357.41,091223,,,A*50
###2023-12-09 13:16:10.986045$GNGGA,181610.10,4138.0617566,N,07032.2762303,W,1,24,0.7,13.234,M,-29.742,M,0.0,*5D
###2023-12-09 13:16:10.987848$GPGSA,A,3,03,04,16,26,28,29,31,,,,,,1.2,0.7,1.0*30
###2023-12-09 13:16:10.989557$GLGSA,A,3,65,71,72,73,74,75,,,,,,,1.2,0.7,1.0*2E
###2023-12-09 13:16:10.991148$GAGSA,A,3,04,19,21,27,,,,,,,,,1.2,0.7,1.0*2C
###2023-12-09 13:16:10.992857$GBGSA,A,3,14,24,25,26,33,35,,,,,,,1.2,0.7,1.0*23
###2023-12-09 13:16:10.995192$GPGSV,2,1,07,03,32,254,43,04,38,311,44,16,57,216,46,26,87,208,48*78
###2023-12-09 13:16:10.997228$GPGSV,2,2,07,28,44,077,45,29,24,054,41,31,65,052,46,,,,*48
###2023-12-09 13:16:10.999559$GLGSV,2,1,06,65,30,325,41,71,33,174,45,72,71,243,46,73,30,046,44*65
###2023-12-09 13:16:11.001301$GLGSV,2,2,06,74,66,355,41,75,37,260,47,,,,,,,,*67
###2023-12-09 13:16:11.003636$GAGSV,1,1,04,04,34,312,43,19,79,190,41,21,83,062,46,27,28,049,40*6B
###2023-12-09 13:16:11.005969$GBGSV,2,1,06,14,37,191,45,24,69,035,49,25,45,267,47,26,22,066,44*67
###2023-12-09 13:16:11.007733$GBGSV,2,2,06,33,53,225,48,35,16,064,44,,,,,,,,*61
###2023-12-09 13:16:11.009060$GNVTG,357.41,T,,M,3.48,N,6.44,K,A*2E
###2023-12-09 13:16:11.010716$GNGST,181610.10,18.000,,,,0.098,0.071,0.170*51
###2023-12-09 13:16:11.012008$GNZDA,181610.10,09,12,2023,00,00*7F
###2023-12-09 13:16:11.012647$GNEBP,,,,,,M*13
###2023-12-09 13:16:11.178678$GNGGA,181610.30,4138.0619482,N,07032.2762347,W,1,24,0.7,13.223,M,-29.742,M,0.0,*5C
###2023-12-09 13:16:11.376698$GNGGA,181610.50,4138.0621405,N,07032.2762406,W,1,24,0.7,13.227,M,-29.742,M,0.0,*58
###2023-12-09 13:16:11.578128$GNGGA,181610.70,4138.0623367,N,07032.2762396,W,1,24,0.7,13.228,M,-29.742,M,0.0,*5A
###2023-12-09 13:16:11.777212$GNGGA,181610.90,4138.0625359,N,07032.2762046,W,1,24,0.7,13.226,M,-29.742,M,0.0,*5F
###2023-12-09 13:16:11.980507$GNRMC,181611.10,A,4138.0627366,N,07032.2761563,W,3.77,10.27,091223,,,A*6B
###2023-12-09 13:16:11.983981$GNGGA,181611.10,4138.0627366,N,07032.2761563,W,1,24,0.7,13.234,M,-29.742,M,0.0,*5A
###2023-12-09 13:16:11.986151$GPGSA,A,3,03,04,16,26,28,29,31,,,,,,1.2,0.7,1.0*30
###2023-12-09 13:16:11.988229$GLGSA,A,3,65,71,72,73,74,75,,,,,,,1.2,0.7,1.0*2E
###2023-12-09 13:16:11.990130$GAGSA,A,3,04,19,21,27,,,,,,,,,1.2,0.7,1.0*2C
###2023-12-09 13:16:11.992206$GBGSA,A,3,14,24,25,26,33,35,,,,,,,1.2,0.7,1.0*23
###2023-12-09 13:16:11.995007$GPGSV,2,1,07,03,32,254,43,04,38,311,44,16,57,216,45,26,87,208,48*7B
###2023-12-09 13:16:11.997481$GPGSV,2,2,07,28,44,077,44,29,24,054,39,31,65,052,45,,,,*45
###2023-12-09 13:16:12.000297$GLGSV,2,1,06,65,30,325,42,71,33,174,45,72,71,243,46,73,30,046,41*63
###2023-12-09 13:16:12.002394$GLGSV,2,2,06,74,66,355,41,75,37,260,48,,,,,,,,*68
###2023-12-09 13:16:12.005200$GAGSV,1,1,04,04,34,312,43,19,79,190,41,21,83,062,46,27,28,049,39*65
###2023-12-09 13:16:12.008004$GBGSV,2,1,06,14,37,191,43,24,69,035,47,25,45,267,48,26,22,066,43*67
###2023-12-09 13:16:12.010095$GBGSV,2,2,06,33,53,225,47,35,16,064,42,,,,,,,,*68
###2023-12-09 13:16:12.011659$GNVTG,10.27,T,,M,3.77,N,6.98,K,A*13
###2023-12-09 13:16:12.013634$GNGST,181611.10,18.000,,,,0.098,0.071,0.170*50
###2023-12-09 13:16:12.015192$GNZDA,181611.10,09,12,2023,00,00*7E
###2023-12-09 13:16:12.015958$GNEBP,,,,,,M*13
###2023-12-09 13:16:12.177483$GNGGA,181611.30,4138.0629458,N,07032.2761115,W,1,24,0.7,13.233,M,-29.742,M,0.0,*5E
###2023-12-09 13:16:12.384332$GNGGA,181611.50,4138.0631578,N,07032.2760512,W,1,24,0.7,13.231,M,-29.742,M,0.0,*52
###2023-12-09 13:16:12.577101$GNGGA,181611.70,4138.0633704,N,07032.2759636,W,1,24,0.7,13.223,M,-29.742,M,0.0,*57
###2023-12-09 13:16:12.778181$GNGGA,181611.90,4138.0635817,N,07032.2758762,W,1,24,0.7,13.229,M,-29.742,M,0.0,*59
###2023-12-09 13:16:12.981467$GNRMC,181612.10,A,4138.0637997,N,07032.2757904,W,4.06,18.62,091223,,,A*6D
###2023-12-09 13:16:12.984948$GNGGA,181612.10,4138.0637997,N,07032.2757904,W,1,24,0.7,13.241,M,-29.742,M,0.0,*56
###2023-12-09 13:16:12.987129$GPGSA,A,3,03,04,16,26,28,29,31,,,,,,1.2,0.7,1.0*30
###2023-12-09 13:16:12.989229$GLGSA,A,3,65,71,72,73,74,75,,,,,,,1.2,0.7,1.0*2E
###2023-12-09 13:16:12.991161$GAGSA,A,3,04,19,21,27,,,,,,,,,1.2,0.7,1.0*2C
###2023-12-09 13:16:12.993233$GBGSA,A,3,14,24,25,26,33,35,,,,,,,1.2,0.7,1.0*23
###2023-12-09 13:16:12.996062$GPGSV,2,1,07,03,32,254,42,04,38,311,44,16,57,216,46,26,87,208,48*79
###2023-12-09 13:16:12.998519$GPGSV,2,2,07,28,44,077,43,29,24,054,42,31,65,052,46,,,,*4D
###2023-12-09 13:16:13.001357$GLGSV,2,1,06,65,30,325,42,71,33,174,45,72,71,243,47,73,30,046,42*61
###2023-12-09 13:16:13.003481$GLGSV,2,2,06,74,66,355,41,75,37,260,46,,,,,,,,*66
###2023-12-09 13:16:13.006286$GAGSV,1,1,04,04,34,312,43,19,79,190,41,21,83,062,46,27,28,049,41*6A
###2023-12-09 13:16:13.009098$GBGSV,2,1,06,14,37,191,44,24,69,035,47,25,45,267,48,26,22,066,42*61
###2023-12-09 13:16:13.011203$GBGSV,2,2,06,33,53,225,47,35,16,064,41,,,,,,,,*6B
###2023-12-09 13:16:13.012758$GNVTG,18.62,T,,M,4.06,N,7.52,K,A*1C
###2023-12-09 13:16:13.014749$GNGST,181612.10,18.000,,,,0.098,0.071,0.170*53
###2023-12-09 13:16:13.016302$GNZDA,181612.10,09,12,2023,00,00*7D
###2023-12-09 13:16:13.017070$GNEBP,,,,,,M*13
###2023-12-09 13:16:13.177145$GNGGA,181612.30,4138.0640159,N,07032.2756934,W,1,24,0.7,13.244,M,-29.742,M,0.0,*59
###2023-12-09 13:16:13.377266$GNGGA,181612.50,4138.0642314,N,07032.2755920,W,1,24,0.7,13.247,M,-29.742,M,0.0,*53
###2023-12-09 13:16:13.578032$GNGGA,181612.70,4138.0644424,N,07032.2754785,W,1,24,0.7,13.247,M,-29.742,M,0.0,*53
###2023-12-09 13:16:13.777040$GNGGA,181612.90,4138.0646419,N,07032.2753519,W,1,24,0.7,13.244,M,-29.742,M,0.0,*52
###2023-12-09 13:16:13.979917$GNRMC,181613.10,A,4138.0648424,N,07032.2752463,W,3.79,18.70,091223,,,A*64
###2023-12-09 13:16:13.982786$GNGGA,181613.10,4138.0648424,N,07032.2752463,W,1,24,0.7,13.248,M,-29.742,M,0.0,*5A
###2023-12-09 13:16:13.984580$GPGSA,A,3,03,04,16,26,28,29,31,,,,,,1.2,0.7,1.0*30
###2023-12-09 13:16:13.986284$GLGSA,A,3,65,71,72,73,74,75,,,,,,,1.2,0.7,1.0*2E
###2023-12-09 13:16:13.987871$GAGSA,A,3,04,19,21,27,,,,,,,,,1.2,0.7,1.0*2C
###2023-12-09 13:16:13.989577$GBGSA,A,3,14,24,25,26,33,35,,,,,,,1.2,0.7,1.0*23
###2023-12-09 13:16:13.991901$GPGSV,2,1,07,03,32,254,42,04,38,311,43,16,57,216,46,26,87,208,48*7E
###2023-12-09 13:16:13.993941$GPGSV,2,2,07,28,44,077,43,29,24,054,40,31,65,052,45,,,,*4C
###2023-12-09 13:16:13.996277$GLGSV,2,1,06,65,30,325,42,71,33,174,46,72,71,243,47,73,30,046,42*62
###2023-12-09 13:16:13.998027$GLGSV,2,2,06,74,66,355,41,75,37,260,46,,,,,,,,*66
###2023-12-09 13:16:14.000351$GAGSV,1,1,04,04,34,312,43,19,79,190,41,21,83,062,46,27,28,049,40*6B
###2023-12-09 13:16:14.002686$GBGSV,2,1,06,14,37,191,45,24,69,035,47,25,45,267,47,26,22,066,42*6F
###2023-12-09 13:16:14.004433$GBGSV,2,2,06,33,53,225,47,35,16,064,40,,,,,,,,*6A
###2023-12-09 13:16:14.005722$GNVTG,18.70,T,,M,3.79,N,7.02,K,A*15
###2023-12-09 13:16:14.007368$GNGST,181613.10,18.000,,,,0.098,0.071,0.170*52
###2023-12-09 13:16:14.008657$GNZDA,181613.10,09,12,2023,00,00*7C
###2023-12-09 13:16:14.009293$GNEBP,,,,,,M*13
###2023-12-09 13:16:14.176476$GNGGA,181613.30,4138.0650392,N,07032.2751560,W,1,24,0.7,13.252,M,-29.742,M,0.0,*51
###2023-12-09 13:16:14.377645$GNGGA,181613.50,4138.0652268,N,07032.2750653,W,1,24,0.7,13.237,M,-29.742,M,0.0,*50
###2023-12-09 13:16:14.578886$GNGGA,181613.70,4138.0654077,N,07032.2749774,W,1,24,0.7,13.228,M,-29.742,M,0.0,*5A
###2023-12-09 13:16:14.777380$GNGGA,181613.90,4138.0655892,N,07032.2749146,W,1,24,0.7,13.235,M,-29.742,M,0.0,*5D
###2023-12-09 13:16:14.981099$GNRMC,181614.10,A,4138.0657654,N,07032.2748738,W,3.17,6.35,091223,,,A*58
###2023-12-09 13:16:14.983999$GNGGA,181614.10,4138.0657654,N,07032.2748738,W,1,24,0.7,13.249,M,-29.742,M,0.0,*51
###2023-12-09 13:16:14.985794$GPGSA,A,3,03,04,16,26,28,29,31,,,,,,1.2,0.7,1.0*30
###2023-12-09 13:16:14.987522$GLGSA,A,3,65,71,72,73,74,75,,,,,,,1.2,0.7,1.0*2E
###2023-12-09 13:16:14.989101$GAGSA,A,3,04,19,21,27,,,,,,,,,1.2,0.7,1.0*2C
###2023-12-09 13:16:14.990813$GBGSA,A,3,14,24,25,26,33,35,,,,,,,1.2,0.7,1.0*23
