###2023-12-09 13:11:33.991783$GPGSV,2,2,07,28,46,075,44,29,24,056,42,31,66,048,47,,,,*41
###2023-12-09 13:11:33.994136$GLGSV,2,1,06,65,28,326,40,71,35,174,45,72,72,250,45,73,31,045,46*6A
###2023-12-09 13:11:33.995899$GLGSV,2,2,06,74,67,351,42,75,36,258,45,,,,,,,,*69
###2023-12-09 13:11:33.998209$GAGSV,1,1,04,04,32,312,42,19,81,195,40,21,84,075,46,27,30,048,43*65
###2023-12-09 13:11:34.000549$GBGSV,2,1,06,14,39,192,45,24,70,032,48,25,44,266,46,26,23,065,43*60
###2023-12-09 13:11:34.002293$GBGSV,2,2,06,33,54,227,46,35,15,065,43,,,,,,,,*6F
###2023-12-09 13:11:34.003665$GNVTG,306.00,T,,M,2.99,N,5.54,K,A*20
###2023-12-09 13:11:34.005316$GNGST,181133.10,18.000,,,,0.097,0.072,0.170*5B
###2023-12-09 13:11:34.006634$GNZDA,181133.10,09,12,2023,00,00*79
###2023-12-09 13:11:34.007275$GNEBP,,,,,,M*13
###2023-12-09 13:11:34.172302$GNGGA,181133.30,4138.0429804,N,07032.2747003,W,1,24,0.7,12.750,M,-29.743,M,0.0,*5C
###2023-12-09 13:11:34.372359$GNGGA,181133.50,4138.0430690,N,07032.2748768,W,1,24,0.7,12.744,M,-29.743,M,0.0,*51
###2023-12-09 13:11:34.573135$GNGGA,181133.70,4138.0431573,N,07032.2750511,W,1,24,0.7,12.739,M,-29.743,M,0.0,*53
###2023-12-09 13:11:34.773146$GNGGA,181133.90,4138.0432389,N,07032.2752258,W,1,24,0.7,12.735,M,-29.743,M,0.0,*59
###2023-12-09 13:11:34.976747$GNRMC,181134.10,A,4138.0433032,N,07032.2754019,W,2.64,294.72,091223,,,A*5D
###2023-12-09 13:11:34.979614$GNGGA,181134.10,4138.0433032,N,07032.2754019,W,1,24,0.7,12.736,M,-29.743,M,0.0,*56
###2023-12-09 13:11:34.981403$GPGSA,A,3,03,04,16,26,28,29,31,,,,,,1.2,0.7,1.0*30
###2023-12-09 13:11:34.983124$GLGSA,A,3,65,71,72,73,74,75,,,,,,,1.2,0.7,1.0*2E
###2023-12-09 13:11:34.984704$GAGSA,A,3,04,19,21,27,,,,,,,,,1.2,0.7,1.0*2C
###2023-12-09 13:11:34.986416$GBGSA,A,3,14,24,25,26,33,35,,,,,,,1.2,0.7,1.0*23
###2023-12-09 13:11:34.988754$GPGSV,2,1,07,03,33,256,40,04,37,311,42,16,55,215,44,26,85,210,47*76
###2023-12-09 13:11:34.990801$GPGSV,2,2,07,28,46,075,45,29,24,056,40,31,66,048,47,,,,*42
###2023-12-09 13:11:34.993127$GLGSV,2,1,06,65,28,326,39,71,35,174,45,72,72,250,45,73,31,045,45*67
###2023-12-09 13:11:34.994878$GLGSV,2,2,06,74,67,351,42,75,36,258,43,,,,,,,,*6F
###2023-12-09 13:11:34.997203$GAGSV,1,1,04,04,32,312,41,19,81,195,40,21,84,075,46,27,30,048,42*67
###2023-12-09 13:11:34.999552$GBGSV,2,1,06,14,39,192,44,24,70,032,48,25,44,266,45,26,23,065,42*63
###2023-12-09 13:11:35.001297$GBGSV,2,2,06,33,54,227,48,35,15,065,42,,,,,,,,*60
###2023-12-09 13:11:35.002633$GNVTG,294.72,T,,M,2.64,N,4.90,K,A*24
###2023-12-09 13:11:35.004281$GNGST,181134.10,18.000,,,,0.097,0.072,0.170*5C
###2023-12-09 13:11:35.005574$GNZDA,181134.10,09,12,2023,00,00*7E
###2023-12-09 13:11:35.006214$GNEBP,,,,,,M*13
###2023-12-09 13:11:35.173803$GNGGA,181134.30,4138.0433659,N,07032.2755770,W,1,24,0.7,12.738,M,-29.743,M,0.0,*58
###2023-12-09 13:11:35.373744$GNGGA,181134.50,4138.0434202,N,07032.2757483,W,1,24,0.7,12.733,M,-29.743,M,0.0,*55
###2023-12-09 13:11:35.575315$GNGGA,181134.70,4138.0434610,N,07032.2759201,W,1,24,0.7,12.725,M,-29.743,M,0.0,*55
###2023-12-09 13:11:35.774239$GNGGA,181134.90,4138.0435019,N,07032.2760860,W,1,24,0.7,12.728,M,-29.743,M,0.0,*5F
###2023-12-09 13:11:35.975878$GNRMC,181135.10,A,4138.0435394,N,07032.2762486,W,2.24,285.11,091223,,,A*53
###2023-12-09 13:11:35.979382$GNGGA,181135.10,4138.0435394,N,07032.2762486,W,1,24,0.7,12.723,M,-29.743,M,0.0,*5D
###2023-12-09 13:11:35.981542$GPGSA,A,3,03,04,16,26,28,29,31,,,,,,1.2,0.7,1.0*30
###2023-12-09 13:11:35.983624$GLGSA,A,3,65,71,72,73,74,75,,,,,,,1.2,0.7,1.0*2E
###2023-12-09 13:11:35.985531$GAGSA,A,3,04,19,21,27,,,,,,,,,1.2,0.7,1.0*2C
###2023-12-09 13:11:35.987608$GBGSA,A,3,14,24,25,26,33,35,,,,,,,1.2,0.7,1.0*23
###2023-12-09 13:11:35.990411$GPGSV,2,1,07,03,33,256,41,04,37,311,41,16,55,215,46,26,85,210,47*76
###2023-12-09 13:11:35.992883$GPGSV,2,2,07,28,46,075,44,29,24,056,40,31,66,048,47,,,,*43
###2023-12-09 13:11:35.995714$GLGSV,2,1,06,65,28,326,40,71,35,174,45,72,72,250,45,73,31,045,42*6E
###2023-12-09 13:11:35.997816$GLGSV,2,2,06,74,67,351,42,75,36,258,42,,,,,,,,*6E
###2023-12-09 13:11:36.000638$GAGSV,1,1,04,04,32,312,40,19,81,195,40,21,84,075,46,27,30,048,40*64
###2023-12-09 13:11:36.003462$GBGSV,2,1,06,14,39,192,44,24,70,032,48,25,44,266,43,26,23,065,41*66
###2023-12-09 13:11:36.005568$GBGSV,2,2,06,33,54,227,47,35,15,065,44,,,,,,,,*69
###2023-12-09 13:11:36.007184$GNVTG,285.11,T,,M,2.24,N,4.14,K,A*29
###2023-12-09 13:11:36.009205$GNGST,181135.10,18.000,,,,0.098,0.073,0.170*53
###2023-12-09 13:11:36.010773$GNZDA,181135.10,09,12,2023,00,00*7F
###2023-12-09 13:11:36.011544$GNEBP,,,,,,M*13
###2023-12-09 13:11:36.172285$GNGGA,181135.30,4138.0435615,N,07032.2764094,W,1,24,0.7,12.711,M,-29.743,M,0.0,*53
###2023-12-09 13:11:36.373129$GNGGA,181135.50,4138.0435734,N,07032.2765694,W,1,24,0.7,12.708,M,-29.743,M,0.0,*58
###2023-12-09 13:11:36.573087$GNGGA,181135.70,4138.0436041,N,07032.2767373,W,1,24,0.7,12.723,M,-29.743,M,0.0,*5B
###2023-12-09 13:11:36.774422$GNGGA,181135.90,4138.0436368,N,07032.2769223,W,1,24,0.7,12.725,M,-29.743,M,0.0,*51
###2023-12-09 13:11:36.977407$GNRMC,181136.10,A,4138.0436335,N,07032.2771045,W,2.39,263.36,091223,,,A*50
###2023-12-09 13:11:36.980315$GNGGA,181136.10,4138.0436335,N,07032.2771045,W,1,24,0.7,12.712,M,-29.743,M,0.0,*5D
###2023-12-09 13:11:36.982108$GPGSA,A,3,03,04,16,26,28,29,31,,,,,,1.2,0.7,1.0*30
###2023-12-09 13:11:36.983824$GLGSA,A,3,65,71,72,73,74,75,,,,,,,1.2,0.7,1.0*2E
###2023-12-09 13:11:36.985394$GAGSA,A,3,04,19,21,27,,,,,,,,,1.2,0.7,1.0*2C
###2023-12-09 13:11:36.987110$GBGSA,A,3,14,24,25,26,33,35,,,,,,,1.2,0.7,1.0*23
###2023-12-09 13:11:36.989418$GPGSV,2,1,07,03,33,256,42,04,37,311,43,16,55,215,46,26,85,210,47*77
###2023-12-09 13:11:36.991453$GPGSV,2,2,07,28,46,075,44,29,24,056,41,31,66,048,46,,,,*43
###2023-12-09 13:11:36.993761$GLGSV,2,1,06,65,28,326,43,71,35,174,45,72,72,250,45,73,31,045,44*6B
###2023-12-09 13:11:36.995509$GLGSV,2,2,06,74,67,351,42,75,36,258,42,,,,,,,,*6E
###2023-12-09 13:11:36.997815$GAGSV,1,1,04,04,32,312,41,19,81,195,40,21,84,075,46,27,30,048,41*64
###2023-12-09 13:11:37.000134$GBGSV,2,1,06,14,39,192,44,24,70,032,48,25,44,266,44,26,23,065,43*63
###2023-12-09 13:11:37.001869$GBGSV,2,2,06,33,54,227,47,35,15,065,45,,,,,,,,*68
###2023-12-09 13:11:37.003198$GNVTG,263.36,T,,M,2.39,N,4.43,K,A*2A
###2023-12-09 13:11:37.004834$GNGST,181136.10,18.000,,,,0.097,0.073,0.170*5F
###2023-12-09 13:11:37.006113$GNZDA,181136.10,09,12,2023,00,00*7C
###2023-12-09 13:11:37.006758$GNEBP,,,,,,M*13
###2023-12-09 13:11:37.173270$GNGGA,181136.30,4138.0436202,N,07032.2772806,W,1,24,0.7,12.717,M,-29.743,M,0.0,*53
###2023-12-09 13:11:37.375899$GNGGA,181136.50,4138.0436218,N,07032.2774777,W,1,24,0.7,12.725,M,-29.743,M,0.0,*50
###2023-12-09 13:11:37.575207$GNGGA,181136.70,4138.0436094,N,07032.2776694,W,1,24,0.7,12.705,M,-29.743,M,0.0,*58
###2023-12-09 13:11:37.774348$GNGGA,181136.90,4138.0435684,N,07032.2778366,W,1,24,0.7,12.695,M,-29.743,M,0.0,*5C
###2023-12-09 13:11:37.977854$GNRMC,181137.10,A,4138.0435311,N,07032.2780136,W,2.59,259.53,091223,,,A*53
###2023-12-09 13:11:37.980726$GNGGA,181137.10,4138.0435311,N,07032.2780136,W,1,24,0.7,12.709,M,-29.743,M,0.0,*58
###2023-12-09 13:11:37.982512$GPGSA,A,3,03,04,16,26,28,29,31,,,,,,1.2,0.7,1.0*30
###2023-12-09 13:11:37.984228$GLGSA,A,3,65,71,72,73,74,75,,,,,,,1.2,0.7,1.0*2E
###2023-12-09 13:11:37.985801$GAGSA,A,3,04,19,21,27,,,,,,,,,1.2,0.7,1.0*2C
###2023-12-09 13:11:37.987517$GBGSA,A,3,14,24,25,26,33,35,,,,,,,1.2,0.7,1.0*23
###2023-12-09 13:11:37.989831$GPGSV,2,1,07,03,33,256,42,04,37,311,41,16,55,215,45,26,85,210,47*76
###2023-12-09 13:11:37.991866$GPGSV,2,2,07,28,46,075,45,29,24,056,41,31,66,048,47,,,,*43
###2023-12-09 13:11:37.994182$GLGSV,2,1,06,65,28,326,42,71,35,174,46,72,72,250,45,73,31,045,45*68
###2023-12-09 13:11:37.995933$GLGSV,2,2,06,74,67,351,42,75,36,258,44,,,,,,,,*68
###2023-12-09 13:11:37.998252$GAGSV,1,1,04,04,32,312,42,19,81,195,40,21,84,075,46,27,30,048,41*67
###2023-12-09 13:11:38.000584$GBGSV,2,1,06,14,39,192,46,24,70,032,50,25,44,266,46,26,23,065,44*6D
###2023-12-09 13:11:38.002323$GBGSV,2,2,06,33,54,227,48,35,15,065,46,,,,,,,,*64
###2023-12-09 13:11:38.003652$GNVTG,259.53,T,,M,2.59,N,4.79,K,A*2F
###2023-12-09 13:11:38.005542$GNGST,181137.10,18.000,,,,0.097,0.073,0.170*5E
###2023-12-09 13:11:38.006893$GNZDA,181137.10,09,12,2023,00,00*7D
###2023-12-09 13:11:38.007536$GNEBP,,,,,,M*13
###2023-12-09 13:11:38.173084$GNGGA,181137.30,4138.0435065,N,07032.2782064,W,1,24,0.7,12.715,M,-29.743,M,0.0,*53
###2023-12-09 13:11:38.377854$GNGGA,181137.50,4138.0434657,N,07032.2783904,W,1,24,0.7,12.709,M,-29.743,M,0.0,*50
###2023-12-09 13:11:38.574334$GNGGA,181137.70,4138.0434024,N,07032.2785515,W,1,24,0.7,12.699,M,-29.743,M,0.0,*52
###2023-12-09 13:11:38.774700$GNGGA,181137.90,4138.0433354,N,07032.2787167,W,1,24,0.7,12.694,M,-29.743,M,0.0,*51
###2023-12-09 13:11:38.977636$GNRMC,181138.10,A,4138.0432828,N,07032.2789105,W,2.86,253.17,091223,,,A*5B
###2023-12-09 13:11:38.980543$GNGGA,181138.10,4138.0432828,N,07032.2789105,W,1,24,0.7,12.696,M,-29.743,M,0.0,*5F
