###2023-12-09 12:58:04.159853$GNGGA,175803.30,4138.0336422,N,07032.3355725,W,1,24,0.6,13.356,M,-29.744,M,0.0,*5C
###2023-12-09 12:58:04.361928$GNGGA,175803.50,4138.0336342,N,07032.3353102,W,1,24,0.6,13.335,M,-29.744,M,0.0,*5B
###2023-12-09 12:58:04.564856$GNGGA,175803.70,4138.0336284,N,07032.3350655,W,1,24,0.6,13.328,M,-29.744,M,0.0,*58
###2023-12-09 12:58:04.760479$GNGGA,175803.90,4138.0336455,N,07032.3348198,W,1,24,0.6,13.351,M,-29.744,M,0.0,*5D
###2023-12-09 12:58:04.962329$GNRMC,175804.10,A,4138.0336396,N,07032.3345567,W,3.34,95.14,091223,,,A*6D
###2023-12-09 12:58:04.965224$GNGGA,175804.10,4138.0336396,N,07032.3345567,W,1,24,0.6,13.326,M,-29.744,M,0.0,*53
###2023-12-09 12:58:04.967096$GPGSA,A,3,03,04,16,26,28,29,31,32,,,,,1.1,0.6,0.9*3B
###2023-12-09 12:58:04.968809$GLGSA,A,3,65,71,72,73,74,75,,,,,,,1.1,0.6,0.9*24
###2023-12-09 12:58:04.970391$GAGSA,A,3,04,19,21,27,,,,,,,,,1.1,0.6,0.9*26
###2023-12-09 12:58:04.972047$GBGSA,A,3,14,24,25,26,33,,,,,,,,1.1,0.6,0.9*2F
###2023-12-09 12:58:04.974383$GPGSV,2,1,08,03,36,264,47,04,31,311,43,16,48,211,46,26,78,209,49*73
###2023-12-09 12:58:04.976736$GPGSV,2,2,08,28,50,069,44,29,25,063,42,31,69,033,48,32,20,139,43*70
###2023-12-09 12:58:04.979086$GLGSV,2,1,06,65,22,328,41,71,43,172,46,72,73,277,46,73,37,040,46*6F
###2023-12-09 12:58:04.980838$GLGSV,2,2,06,74,70,331,42,75,30,251,45,,,,,,,,*66
###2023-12-09 12:58:04.983183$GAGSV,1,1,04,04,28,312,40,19,85,226,41,21,85,133,46,27,34,048,44*63
###2023-12-09 12:58:04.985508$GBGSV,2,1,05,14,45,193,46,24,75,020,48,25,39,260,47,26,27,062,43*62
###2023-12-09 12:58:04.986980$GBGSV,2,2,05,33,59,235,48,,,,,,,,,,,,*5A
###2023-12-09 12:58:04.988269$GNVTG,95.14,T,,M,3.34,N,6.19,K,A*10
###2023-12-09 12:58:04.989917$GNGST,175804.10,18.000,,,,0.078,0.067,0.160*59
###2023-12-09 12:58:04.991223$GNZDA,175804.10,09,12,2023,00,00*7F
###2023-12-09 12:58:04.991866$GNEBP,,,,,,M*13
###2023-12-09 12:58:05.161797$GNGGA,175804.30,4138.0336330,N,07032.3343223,W,1,24,0.6,13.318,M,-29.744,M,0.0,*51
###2023-12-09 12:58:05.360860$GNGGA,175804.50,4138.0336575,N,07032.3340773,W,1,24,0.6,13.345,M,-29.744,M,0.0,*5B
###2023-12-09 12:58:05.562456$GNGGA,175804.70,4138.0336602,N,07032.3338254,W,1,24,0.6,13.317,M,-29.744,M,0.0,*52
###2023-12-09 12:58:05.761262$GNGGA,175804.90,4138.0336560,N,07032.3335903,W,1,24,0.6,13.316,M,-29.744,M,0.0,*5E
###2023-12-09 12:58:05.963969$GNRMC,175805.10,A,4138.0336520,N,07032.3333355,W,3.42,94.26,091223,,,A*60
###2023-12-09 12:58:05.966865$GNGGA,175805.10,4138.0336520,N,07032.3333355,W,1,24,0.6,13.324,M,-29.744,M,0.0,*5D
###2023-12-09 12:58:05.968725$GPGSA,A,3,03,04,16,26,28,29,31,32,,,,,1.1,0.6,0.9*3B
###2023-12-09 12:58:05.970442$GLGSA,A,3,65,71,72,73,74,75,,,,,,,1.1,0.6,0.9*24
###2023-12-09 12:58:05.972045$GAGSA,A,3,04,19,21,27,,,,,,,,,1.1,0.6,0.9*26
###2023-12-09 12:58:05.973702$GBGSA,A,3,14,24,25,26,33,,,,,,,,1.1,0.6,0.9*2F
###2023-12-09 12:58:05.976062$GPGSV,2,1,08,03,36,264,47,04,31,311,42,16,48,211,47,26,78,209,49*73
###2023-12-09 12:58:05.978394$GPGSV,2,2,08,28,50,069,44,29,25,063,42,31,69,033,48,32,20,139,43*70
###2023-12-09 12:58:05.980738$GLGSV,2,1,06,65,22,328,41,71,43,172,46,72,73,277,46,73,37,040,45*6C
###2023-12-09 12:58:05.982481$GLGSV,2,2,06,74,70,331,43,75,30,251,46,,,,,,,,*64
###2023-12-09 12:58:05.984831$GAGSV,1,1,04,04,28,312,40,19,85,226,41,21,85,133,46,27,34,048,43*64
###2023-12-09 12:58:05.987179$GBGSV,2,1,05,14,45,193,46,24,75,020,49,25,39,260,46,26,27,062,43*62
###2023-12-09 12:58:05.988635$GBGSV,2,2,05,33,59,235,48,,,,,,,,,,,,*5A
###2023-12-09 12:58:05.989924$GNVTG,94.26,T,,M,3.42,N,6.34,K,A*1E
###2023-12-09 12:58:05.991585$GNGST,175805.10,18.000,,,,0.078,0.067,0.160*58
###2023-12-09 12:58:05.992884$GNZDA,175805.10,09,12,2023,00,00*7E
###2023-12-09 12:58:05.993523$GNEBP,,,,,,M*13
###2023-12-09 12:58:06.161470$GNGGA,175805.30,4138.0336432,N,07032.3330941,W,1,24,0.6,13.303,M,-29.744,M,0.0,*54
###2023-12-09 12:58:06.359680$GNGGA,175805.50,4138.0336579,N,07032.3328523,W,1,24,0.6,13.327,M,-29.744,M,0.0,*5B
###2023-12-09 12:58:06.561950$GNGGA,175805.70,4138.0336569,N,07032.3325929,W,1,24,0.6,13.322,M,-29.744,M,0.0,*56
###2023-12-09 12:58:06.762338$GNGGA,175805.90,4138.0336413,N,07032.3323435,W,1,24,0.6,13.298,M,-29.744,M,0.0,*52
###2023-12-09 12:58:06.963524$GNRMC,175806.10,A,4138.0336410,N,07032.3320922,W,3.52,88.19,091223,,,A*69
###2023-12-09 12:58:06.966384$GNGGA,175806.10,4138.0336410,N,07032.3320922,W,1,24,0.6,13.315,M,-29.744,M,0.0,*56
###2023-12-09 12:58:06.968258$GPGSA,A,3,03,04,16,26,28,29,31,32,,,,,1.1,0.6,0.9*3B
###2023-12-09 12:58:06.969977$GLGSA,A,3,65,71,72,73,74,75,,,,,,,1.1,0.6,0.9*24
###2023-12-09 12:58:06.971575$GAGSA,A,3,04,19,21,27,,,,,,,,,1.1,0.6,0.9*26
###2023-12-09 12:58:06.973223$GBGSA,A,3,14,24,25,26,33,,,,,,,,1.1,0.6,0.9*2F
###2023-12-09 12:58:06.975578$GPGSV,2,1,08,03,36,264,46,04,31,311,42,16,48,211,47,26,78,209,48*73
###2023-12-09 12:58:06.977909$GPGSV,2,2,08,28,50,069,44,29,25,063,41,31,69,033,47,32,20,139,42*7D
###2023-12-09 12:58:06.980249$GLGSV,2,1,06,65,22,328,41,71,43,172,47,72,73,277,46,73,37,040,44*6C
###2023-12-09 12:58:06.981993$GLGSV,2,2,06,74,70,331,43,75,30,251,45,,,,,,,,*67
###2023-12-09 12:58:06.984324$GAGSV,1,1,04,04,28,312,40,19,85,226,41,21,85,133,45,27,34,048,43*67
###2023-12-09 12:58:06.986653$GBGSV,2,1,05,14,45,193,47,24,75,020,49,25,39,260,46,26,27,062,43*63
###2023-12-09 12:58:06.988109$GBGSV,2,2,05,33,59,235,49,,,,,,,,,,,,*5B
###2023-12-09 12:58:06.989398$GNVTG,88.19,T,,M,3.52,N,6.52,K,A*1E
###2023-12-09 12:58:06.991051$GNGST,175806.10,18.000,,,,0.078,0.066,0.160*5A
###2023-12-09 12:58:06.992350$GNZDA,175806.10,09,12,2023,00,00*7D
###2023-12-09 12:58:06.992987$GNEBP,,,,,,M*13
###2023-12-09 12:58:07.160583$GNGGA,175806.30,4138.0336390,N,07032.3318287,W,1,24,0.6,13.310,M,-29.744,M,0.0,*51
###2023-12-09 12:58:07.364503$GNGGA,175806.50,4138.0336224,N,07032.3315762,W,1,24,0.6,13.303,M,-29.744,M,0.0,*58
###2023-12-09 12:58:07.563129$GNGGA,175806.70,4138.0336028,N,07032.3313188,W,1,24,0.6,13.307,M,-29.744,M,0.0,*54
###2023-12-09 12:58:07.762501$GNGGA,175806.90,4138.0335920,N,07032.3310655,W,1,24,0.6,13.308,M,-29.744,M,0.0,*53
###2023-12-09 12:58:07.963637$GNRMC,175807.10,A,4138.0335907,N,07032.3308102,W,3.60,92.07,091223,,,A*65
###2023-12-09 12:58:07.966505$GNGGA,175807.10,4138.0335907,N,07032.3308102,W,1,24,0.6,13.302,M,-29.744,M,0.0,*59
###2023-12-09 12:58:07.968375$GPGSA,A,3,03,04,16,26,28,29,31,32,,,,,1.1,0.6,0.9*3B
###2023-12-09 12:58:07.970088$GLGSA,A,3,65,71,72,73,74,75,,,,,,,1.1,0.6,0.9*24
###2023-12-09 12:58:07.971679$GAGSA,A,3,04,19,21,27,,,,,,,,,1.1,0.6,0.9*26
###2023-12-09 12:58:07.973324$GBGSA,A,3,14,24,25,26,33,,,,,,,,1.1,0.6,0.9*2F
###2023-12-09 12:58:07.975677$GPGSV,2,1,08,03,36,264,46,04,31,311,41,16,48,211,47,26,78,209,49*71
###2023-12-09 12:58:07.978008$GPGSV,2,2,08,28,50,069,45,29,25,063,40,31,69,033,47,32,20,139,42*7D
###2023-12-09 12:58:07.980353$GLGSV,2,1,06,65,22,328,42,71,43,172,47,72,73,277,47,73,37,040,44*6E
###2023-12-09 12:58:07.982098$GLGSV,2,2,06,74,70,331,43,75,30,251,45,,,,,,,,*67
###2023-12-09 12:58:07.984435$GAGSV,1,1,04,04,28,312,40,19,85,226,41,21,85,133,46,27,34,048,43*64
###2023-12-09 12:58:07.986771$GBGSV,2,1,05,14,45,193,47,24,75,020,49,25,39,260,47,26,27,062,42*63
###2023-12-09 12:58:07.988219$GBGSV,2,2,05,33,59,235,48,,,,,,,,,,,,*5A
###2023-12-09 12:58:07.989505$GNVTG,92.07,T,,M,3.60,N,6.66,K,A*1C
###2023-12-09 12:58:07.991189$GNGST,175807.10,18.000,,,,0.078,0.066,0.160*5B
###2023-12-09 12:58:07.992484$GNZDA,175807.10,09,12,2023,00,00*7C
###2023-12-09 12:58:07.993123$GNEBP,,,,,,M*13
###2023-12-09 12:58:08.160578$GNGGA,175807.30,4138.0335718,N,07032.3305442,W,1,24,0.6,13.281,M,-29.744,M,0.0,*5D
###2023-12-09 12:58:08.360610$GNGGA,175807.50,4138.0335683,N,07032.3302965,W,1,24,0.6,13.291,M,-29.744,M,0.0,*56
###2023-12-09 12:58:08.561718$GNGGA,175807.70,4138.0335785,N,07032.3300322,W,1,24,0.6,13.306,M,-29.744,M,0.0,*57
###2023-12-09 12:58:08.762781$GNGGA,175807.90,4138.0335664,N,07032.3297719,W,1,24,0.6,13.265,M,-29.744,M,0.0,*50
###2023-12-09 12:58:08.971491$GNRMC,175808.10,A,4138.0335864,N,07032.3295311,W,3.40,76.98,091223,,,A*65
###2023-12-09 12:58:08.974997$GNGGA,175808.10,4138.0335864,N,07032.3295311,W,1,24,0.6,13.285,M,-29.744,M,0.0,*59
###2023-12-09 12:58:08.977546$GPGSA,A,3,03,04,16,26,28,29,31,32,,,,,1.1,0.6,0.9*3B
###2023-12-09 12:58:08.979694$GLGSA,A,3,65,71,72,73,74,75,,,,,,,1.1,0.6,0.9*24
###2023-12-09 12:58:08.981625$GAGSA,A,3,04,19,21,27,,,,,,,,,1.1,0.6,0.9*26
###2023-12-09 12:58:08.983628$GBGSA,A,3,14,24,25,26,33,,,,,,,,1.1,0.6,0.9*2F
###2023-12-09 12:58:08.986433$GPGSV,2,1,08,03,36,264,47,04,31,311,41,16,48,211,49,26,78,209,49*7E
###2023-12-09 12:58:08.989247$GPGSV,2,2,08,28,50,069,44,29,25,063,41,31,69,033,47,32,20,139,43*7C
###2023-12-09 12:58:08.992069$GLGSV,2,1,06,65,22,328,41,71,43,172,47,72,73,277,47,73,37,040,45*6C
###2023-12-09 12:58:08.994177$GLGSV,2,2,06,74,70,331,43,75,30,251,46,,,,,,,,*64
###2023-12-09 12:58:08.996999$GAGSV,1,1,04,04,28,312,40,19,85,226,41,21,85,133,46,27,34,048,43*64
###2023-12-09 12:58:08.999817$GBGSV,2,1,05,14,45,193,46,24,75,020,48,25,39,260,47,26,27,062,42*63
