###2023-12-09 13:09:34.985782$GPGSV,2,1,08,03,33,257,43,04,36,311,44,16,54,214,45,26,84,210,47*7C
###2023-12-09 13:09:34.988164$GPGSV,2,2,08,28,46,074,44,29,24,057,42,31,67,046,46,32,15,141,41*74
###2023-12-09 13:09:34.990503$GLGSV,2,1,06,65,27,326,42,71,36,173,42,72,72,254,46,73,32,044,44*63
###2023-12-09 13:09:34.992272$GLGSV,2,2,06,74,68,348,43,75,35,257,46,,,,,,,,*60
###2023-12-09 13:09:34.994618$GAGSV,1,1,04,04,31,312,42,19,82,199,40,21,85,085,46,27,31,048,41*64
###2023-12-09 13:09:34.996948$GBGSV,2,1,06,14,40,192,41,24,71,031,49,25,43,265,47,26,24,064,43*6A
###2023-12-09 13:09:34.998706$GBGSV,2,2,06,33,55,228,47,35,15,066,42,,,,,,,,*62
###2023-12-09 13:09:35.000032$GNVTG,178.15,T,,M,3.46,N,6.41,K,A*2B
###2023-12-09 13:09:35.001674$GNGST,180934.10,18.000,,,,0.084,0.064,0.150*52
###2023-12-09 13:09:35.003009$GNZDA,180934.10,09,12,2023,00,00*77
###2023-12-09 13:09:35.003652$GNEBP,,,,,,M*13
###2023-12-09 13:09:35.174790$GNGGA,180934.30,4138.0767103,N,07032.2576642,W,1,25,0.6,13.302,M,-29.742,M,0.0,*55
###2023-12-09 13:09:35.369828$GNGGA,180934.50,4138.0765160,N,07032.2576487,W,1,25,0.6,13.278,M,-29.742,M,0.0,*53
###2023-12-09 13:09:35.570612$GNGGA,180934.70,4138.0763233,N,07032.2576493,W,1,25,0.6,13.302,M,-29.742,M,0.0,*5B
###2023-12-09 13:09:35.770647$GNGGA,180934.90,4138.0761264,N,07032.2576633,W,1,25,0.6,13.311,M,-29.742,M,0.0,*5F
###2023-12-09 13:09:35.973569$GNRMC,180935.10,A,4138.0759356,N,07032.2576685,W,3.42,180.48,091223,,,A*50
###2023-12-09 13:09:35.976472$GNGGA,180935.10,4138.0759356,N,07032.2576685,W,1,25,0.6,13.307,M,-29.742,M,0.0,*57
###2023-12-09 13:09:35.978333$GPGSA,A,3,03,04,16,26,28,29,31,32,,,,,1.1,0.6,0.9*3B
###2023-12-09 13:09:35.980065$GLGSA,A,3,65,71,72,73,74,75,,,,,,,1.1,0.6,0.9*24
###2023-12-09 13:09:35.981646$GAGSA,A,3,04,19,21,27,,,,,,,,,1.1,0.6,0.9*26
###2023-12-09 13:09:35.983371$GBGSA,A,3,14,24,25,26,33,35,,,,,,,1.1,0.6,0.9*29
###2023-12-09 13:09:35.985695$GPGSV,2,1,08,03,33,257,43,04,36,311,44,16,54,214,45,26,84,210,48*73
###2023-12-09 13:09:35.988037$GPGSV,2,2,08,28,46,074,45,29,24,057,44,31,67,046,47,32,15,141,41*72
###2023-12-09 13:09:35.990369$GLGSV,2,1,06,65,27,326,42,71,36,173,42,72,72,254,46,73,32,044,45*62
###2023-12-09 13:09:35.992129$GLGSV,2,2,06,74,68,348,43,75,35,257,46,,,,,,,,*60
###2023-12-09 13:09:35.994457$GAGSV,1,1,04,04,31,312,42,19,82,199,40,21,85,085,46,27,31,048,42*67
###2023-12-09 13:09:35.996805$GBGSV,2,1,06,14,40,192,41,24,71,031,49,25,43,265,47,26,24,064,44*6D
###2023-12-09 13:09:35.998552$GBGSV,2,2,06,33,55,228,48,35,15,066,44,,,,,,,,*6B
###2023-12-09 13:09:35.999890$GNVTG,180.48,T,,M,3.42,N,6.34,K,A*22
###2023-12-09 13:09:36.001538$GNGST,180935.10,18.000,,,,0.084,0.064,0.150*53
###2023-12-09 13:09:36.002838$GNZDA,180935.10,09,12,2023,00,00*76
###2023-12-09 13:09:36.003478$GNEBP,,,,,,M*13
###2023-12-09 13:09:36.170646$GNGGA,180935.30,4138.0757416,N,07032.2576786,W,1,25,0.6,13.318,M,-29.742,M,0.0,*54
###2023-12-09 13:09:36.372444$GNGGA,180935.50,4138.0755462,N,07032.2576922,W,1,25,0.6,13.320,M,-29.742,M,0.0,*58
###2023-12-09 13:09:36.570600$GNGGA,180935.70,4138.0753485,N,07032.2576960,W,1,25,0.6,13.317,M,-29.742,M,0.0,*57
###2023-12-09 13:09:36.773338$GNGGA,180935.90,4138.0751504,N,07032.2576994,W,1,25,0.6,13.317,M,-29.742,M,0.0,*58
###2023-12-09 13:09:36.980062$GNRMC,180936.10,A,4138.0749552,N,07032.2576990,W,3.56,178.57,091223,,,A*57
###2023-12-09 13:09:36.982952$GNGGA,180936.10,4138.0749552,N,07032.2576990,W,1,25,0.6,13.324,M,-29.742,M,0.0,*5D
###2023-12-09 13:09:36.984821$GPGSA,A,3,03,04,16,26,28,29,31,32,,,,,1.1,0.6,0.9*3B
###2023-12-09 13:09:36.986550$GLGSA,A,3,65,71,72,73,74,75,,,,,,,1.1,0.6,0.9*24
###2023-12-09 13:09:36.988147$GAGSA,A,3,04,19,21,27,,,,,,,,,1.1,0.6,0.9*26
###2023-12-09 13:09:36.989860$GBGSA,A,3,14,24,25,26,33,35,,,,,,,1.1,0.6,0.9*29
###2023-12-09 13:09:36.992198$GPGSV,2,1,08,03,33,257,42,04,36,311,44,16,54,214,45,26,84,210,48*72
###2023-12-09 13:09:36.994539$GPGSV,2,2,08,28,46,074,45,29,24,057,42,31,67,046,47,32,15,141,41*74
###2023-12-09 13:09:36.996888$GLGSV,2,1,06,65,27,326,42,71,36,173,42,72,72,254,46,73,32,044,45*62
###2023-12-09 13:09:36.998646$GLGSV,2,2,06,74,68,348,43,75,35,257,46,,,,,,,,*60
###2023-12-09 13:09:37.000987$GAGSV,1,1,04,04,31,312,43,19,82,199,40,21,85,085,46,27,31,048,41*65
###2023-12-09 13:09:37.003336$GBGSV,2,1,06,14,40,192,41,24,71,031,49,25,43,265,47,26,24,064,43*6A
###2023-12-09 13:09:37.005088$GBGSV,2,2,06,33,55,228,47,35,15,066,43,,,,,,,,*63
###2023-12-09 13:09:37.006416$GNVTG,178.57,T,,M,3.56,N,6.59,K,A*25
###2023-12-09 13:09:37.008083$GNGST,180936.10,18.000,,,,0.084,0.064,0.150*50
###2023-12-09 13:09:37.009376$GNZDA,180936.10,09,12,2023,00,00*75
###2023-12-09 13:09:37.010014$GNEBP,,,,,,M*13
###2023-12-09 13:09:37.169553$GNGGA,180936.30,4138.0747542,N,07032.2576917,W,1,25,0.6,13.312,M,-29.742,M,0.0,*5A
###2023-12-09 13:09:37.371972$GNGGA,180936.50,4138.0745607,N,07032.2576877,W,1,25,0.6,13.319,M,-29.742,M,0.0,*50
###2023-12-09 13:09:37.572254$GNGGA,180936.70,4138.0743618,N,07032.2576912,W,1,25,0.6,13.346,M,-29.742,M,0.0,*52
###2023-12-09 13:09:37.771634$GNGGA,180936.90,4138.0741602,N,07032.2576822,W,1,25,0.6,13.323,M,-29.742,M,0.0,*54
###2023-12-09 13:09:37.973248$GNRMC,180937.10,A,4138.0739676,N,07032.2576775,W,3.56,180.37,091223,,,A*50
###2023-12-09 13:09:37.976141$GNGGA,180937.10,4138.0739676,N,07032.2576775,W,1,25,0.6,13.326,M,-29.742,M,0.0,*59
###2023-12-09 13:09:37.977998$GPGSA,A,3,03,04,16,26,28,29,31,32,,,,,1.1,0.6,0.9*3B
###2023-12-09 13:09:37.979724$GLGSA,A,3,65,71,72,73,74,75,,,,,,,1.1,0.6,0.9*24
###2023-12-09 13:09:37.981315$GAGSA,A,3,04,19,21,27,,,,,,,,,1.1,0.6,0.9*26
###2023-12-09 13:09:37.983048$GBGSA,A,3,14,24,25,26,33,35,,,,,,,1.1,0.6,0.9*29
###2023-12-09 13:09:37.985391$GPGSV,2,1,08,03,33,257,43,04,36,311,45,16,54,214,45,26,84,210,48*72
###2023-12-09 13:09:37.987732$GPGSV,2,2,08,28,46,074,45,29,24,057,43,31,67,046,47,32,15,141,40*74
###2023-12-09 13:09:37.990079$GLGSV,2,1,06,65,27,326,42,71,36,173,43,72,72,254,46,73,32,044,45*63
###2023-12-09 13:09:37.991849$GLGSV,2,2,06,74,68,348,43,75,35,257,46,,,,,,,,*60
###2023-12-09 13:09:37.994180$GAGSV,1,1,04,04,31,312,42,19,82,199,40,21,85,085,46,27,31,048,42*67
###2023-12-09 13:09:37.996531$GBGSV,2,1,06,14,40,192,41,24,71,031,49,25,43,265,47,26,24,064,43*6A
###2023-12-09 13:09:37.998282$GBGSV,2,2,06,33,55,228,48,35,15,066,43,,,,,,,,*6C
###2023-12-09 13:09:37.999628$GNVTG,180.37,T,,M,3.56,N,6.59,K,A*24
###2023-12-09 13:09:38.001282$GNGST,180937.10,18.000,,,,0.084,0.064,0.150*51
###2023-12-09 13:09:38.002586$GNZDA,180937.10,09,12,2023,00,00*74
###2023-12-09 13:09:38.003230$GNEBP,,,,,,M*13
###2023-12-09 13:09:38.173671$GNGGA,180937.30,4138.0737643,N,07032.2576785,W,1,25,0.6,13.341,M,-29.742,M,0.0,*5D
###2023-12-09 13:09:38.371297$GNGGA,180937.50,4138.0735666,N,07032.2576747,W,1,25,0.6,13.327,M,-29.742,M,0.0,*50
###2023-12-09 13:09:38.571597$GNGGA,180937.70,4138.0733676,N,07032.2576827,W,1,25,0.6,13.338,M,-29.742,M,0.0,*52
###2023-12-09 13:09:38.778045$GNGGA,180937.90,4138.0731674,N,07032.2577024,W,1,25,0.6,13.339,M,-29.742,M,0.0,*57
###2023-12-09 13:09:38.973947$GNRMC,180938.10,A,4138.0729674,N,07032.2577047,W,3.46,180.71,091223,,,A*58
###2023-12-09 13:09:38.976842$GNGGA,180938.10,4138.0729674,N,07032.2577047,W,1,25,0.6,13.330,M,-29.742,M,0.0,*55
###2023-12-09 13:09:38.978719$GPGSA,A,3,03,04,16,26,28,29,31,32,,,,,1.1,0.6,0.9*3B
###2023-12-09 13:09:38.980434$GLGSA,A,3,65,71,72,73,74,75,,,,,,,1.1,0.6,0.9*24
###2023-12-09 13:09:38.982012$GAGSA,A,3,04,19,21,27,,,,,,,,,1.1,0.6,0.9*26
###2023-12-09 13:09:38.983739$GBGSA,A,3,14,24,25,26,33,35,,,,,,,1.1,0.6,0.9*29
###2023-12-09 13:09:38.986064$GPGSV,2,1,08,03,33,257,43,04,36,311,44,16,54,214,46,26,84,210,48*70
###2023-12-09 13:09:38.988425$GPGSV,2,2,08,28,46,074,45,29,24,057,42,31,67,046,48,32,15,141,40*7A
###2023-12-09 13:09:38.990778$GLGSV,2,1,06,65,27,326,43,71,36,173,42,72,72,254,46,73,32,044,44*62
###2023-12-09 13:09:38.992540$GLGSV,2,2,06,74,68,348,43,75,35,257,46,,,,,,,,*60
###2023-12-09 13:09:38.994883$GAGSV,1,1,04,04,31,312,43,19,82,199,40,21,85,085,46,27,31,048,41*65
###2023-12-09 13:09:38.997227$GBGSV,2,1,06,14,40,192,41,24,71,031,49,25,43,265,47,26,24,064,43*6A
###2023-12-09 13:09:38.999267$GBGSV,2,2,06,33,55,228,47,35,15,066,43,,,,,,,,*63
###2023-12-09 13:09:39.000617$GNVTG,180.71,T,,M,3.46,N,6.41,K,A*2E
###2023-12-09 13:09:39.002273$GNGST,180938.10,18.000,,,,0.084,0.064,0.150*5E
###2023-12-09 13:09:39.003587$GNZDA,180938.10,09,12,2023,00,00*7B
###2023-12-09 13:09:39.004231$GNEBP,,,,,,M*13
###2023-12-09 13:09:39.174222$GNGGA,180938.30,4138.0727697,N,07032.2577245,W,1,25,0.6,13.345,M,-29.742,M,0.0,*56
###2023-12-09 13:09:39.371885$GNGGA,180938.50,4138.0725679,N,07032.2577381,W,1,25,0.6,13.337,M,-29.742,M,0.0,*5E
###2023-12-09 13:09:39.572163$GNGGA,180938.70,4138.0723717,N,07032.2577530,W,1,25,0.6,13.332,M,-29.742,M,0.0,*5A
###2023-12-09 13:09:39.773485$GNGGA,180938.90,4138.0721765,N,07032.2577732,W,1,25,0.6,13.353,M,-29.742,M,0.0,*54
###2023-12-09 13:09:39.973841$GNRMC,180939.10,A,4138.0719776,N,07032.2577778,W,3.56,180.26,091223,,,A*51
