###2023-12-09 13:12:40.978748$GNRMC,181240.10,A,4138.0439790,N,07032.2952759,W,3.52,84.88,091223,,,A*61
###2023-12-09 13:12:40.981627$GNGGA,181240.10,4138.0439790,N,07032.2952759,W,1,24,0.7,12.778,M,-29.743,M,0.0,*52
###2023-12-09 13:12:40.983448$GPGSA,A,3,03,04,16,26,28,29,31,,,,,,1.2,0.7,1.0*30
###2023-12-09 13:12:40.985171$GLGSA,A,3,65,71,72,73,74,75,,,,,,,1.2,0.7,1.0*2E
###2023-12-09 13:12:40.986761$GAGSA,A,3,04,19,21,27,,,,,,,,,1.2,0.7,1.0*2C
###2023-12-09 13:12:40.988476$GBGSA,A,3,14,24,25,26,33,35,,,,,,,1.2,0.7,1.0*23
###2023-12-09 13:12:40.990818$GPGSV,2,1,07,03,33,256,45,04,37,311,43,16,55,215,47,26,85,210,48*7E
###2023-12-09 13:12:40.992868$GPGSV,2,2,07,28,46,075,42,29,24,056,42,31,66,048,46,,,,*46
###2023-12-09 13:12:40.995206$GLGSV,2,1,06,65,29,325,42,71,35,174,46,72,72,250,46,73,31,045,43*6F
###2023-12-09 13:12:40.996953$GLGSV,2,2,06,74,67,351,42,75,36,258,48,,,,,,,,*64
###2023-12-09 13:12:40.999280$GAGSV,1,1,04,04,33,312,42,19,81,194,41,21,84,070,46,27,29,048,39*64
###2023-12-09 13:12:41.001599$GBGSV,2,1,06,14,38,192,45,24,70,034,48,25,44,267,46,26,22,065,43*67
###2023-12-09 13:12:41.003348$GBGSV,2,2,06,33,53,226,47,35,15,065,42,,,,,,,,*69
###2023-12-09 13:12:41.004637$GNVTG,84.88,T,,M,3.52,N,6.52,K,A*1A
###2023-12-09 13:12:41.006319$GNGST,181240.10,18.000,,,,0.097,0.071,0.170*5F
###2023-12-09 13:12:41.007617$GNZDA,181240.10,09,12,2023,00,00*7E
###2023-12-09 13:12:41.008254$GNEBP,,,,,,M*13
###2023-12-09 13:12:41.171734$GNGGA,181240.30,4138.0440028,N,07032.2950229,W,1,24,0.7,12.767,M,-29.743,M,0.0,*54
###2023-12-09 13:12:41.372010$GNGGA,181240.50,4138.0440493,N,07032.2947674,W,1,24,0.7,12.779,M,-29.743,M,0.0,*53
###2023-12-09 13:12:41.572540$GNGGA,181240.70,4138.0441100,N,07032.2945193,W,1,24,0.7,12.791,M,-29.743,M,0.0,*55
###2023-12-09 13:12:41.772638$GNGGA,181240.90,4138.0441409,N,07032.2942586,W,1,24,0.7,12.796,M,-29.743,M,0.0,*57
###2023-12-09 13:12:41.974961$GNRMC,181241.10,A,4138.0441312,N,07032.2940001,W,3.36,94.22,091223,,,A*6B
###2023-12-09 13:12:41.977796$GNGGA,181241.10,4138.0441312,N,07032.2940001,W,1,24,0.7,12.782,M,-29.743,M,0.0,*5E
###2023-12-09 13:12:41.979590$GPGSA,A,3,03,04,16,26,28,29,31,,,,,,1.2,0.7,1.0*30
###2023-12-09 13:12:41.981299$GLGSA,A,3,65,71,72,73,74,75,,,,,,,1.2,0.7,1.0*2E
###2023-12-09 13:12:41.982889$GAGSA,A,3,04,19,21,27,,,,,,,,,1.2,0.7,1.0*2C
###2023-12-09 13:12:41.984595$GBGSA,A,3,14,24,25,26,33,35,,,,,,,1.2,0.7,1.0*23
###2023-12-09 13:12:41.986921$GPGSV,2,1,07,03,33,256,45,04,37,311,44,16,55,215,47,26,85,210,49*78
###2023-12-09 13:12:41.988957$GPGSV,2,2,07,28,46,075,44,29,24,056,41,31,66,048,46,,,,*43
###2023-12-09 13:12:41.991298$GLGSV,2,1,06,65,29,325,40,71,35,174,45,72,72,250,46,73,31,045,43*6E
###2023-12-09 13:12:41.993049$GLGSV,2,2,06,74,67,351,42,75,36,258,48,,,,,,,,*64
###2023-12-09 13:12:41.995380$GAGSV,1,1,04,04,33,312,41,19,81,194,41,21,84,070,46,27,29,048,42*6B
###2023-12-09 13:12:41.997750$GBGSV,2,1,06,14,38,192,46,24,70,034,48,25,44,267,46,26,22,065,42*65
###2023-12-09 13:12:41.999507$GBGSV,2,2,06,33,53,226,48,35,15,065,41,,,,,,,,*65
###2023-12-09 13:12:42.000797$GNVTG,94.22,T,,M,3.36,N,6.23,K,A*1F
###2023-12-09 13:12:42.002444$GNGST,181241.10,18.000,,,,0.097,0.071,0.170*5E
###2023-12-09 13:12:42.003751$GNZDA,181241.10,09,12,2023,00,00*7F
###2023-12-09 13:12:42.004400$GNEBP,,,,,,M*13
###2023-12-09 13:12:42.177053$GNGGA,181241.30,4138.0441384,N,07032.2937507,W,1,24,0.7,12.798,M,-29.743,M,0.0,*5B
###2023-12-09 13:12:42.372169$GNGGA,181241.50,4138.0441800,N,07032.2934935,W,1,24,0.7,12.805,M,-29.743,M,0.0,*5F
###2023-12-09 13:12:42.573037$GNGGA,181241.70,4138.0441814,N,07032.2932377,W,1,24,0.7,12.785,M,-29.743,M,0.0,*55
###2023-12-09 13:12:42.772785$GNGGA,181241.90,4138.0441531,N,07032.2929856,W,1,24,0.7,12.806,M,-29.743,M,0.0,*57
###2023-12-09 13:12:42.976340$GNRMC,181242.10,A,4138.0441489,N,07032.2927245,W,3.67,86.97,091223,,,A*67
###2023-12-09 13:12:42.979213$GNGGA,181242.10,4138.0441489,N,07032.2927245,W,1,24,0.7,12.823,M,-29.743,M,0.0,*5F
###2023-12-09 13:12:42.981005$GPGSA,A,3,03,04,16,26,28,29,31,,,,,,1.2,0.7,1.0*30
###2023-12-09 13:12:42.982729$GLGSA,A,3,65,71,72,73,74,75,,,,,,,1.2,0.7,1.0*2E
###2023-12-09 13:12:42.984320$GAGSA,A,3,04,19,21,27,,,,,,,,,1.2,0.7,1.0*2C
###2023-12-09 13:12:42.986030$GBGSA,A,3,14,24,25,26,33,35,,,,,,,1.2,0.7,1.0*23
###2023-12-09 13:12:42.988369$GPGSV,2,1,07,03,33,256,44,04,37,311,44,16,55,215,48,26,85,210,49*76
###2023-12-09 13:12:42.990405$GPGSV,2,2,07,28,46,075,43,29,24,056,41,31,66,048,46,,,,*44
###2023-12-09 13:12:42.992742$GLGSV,2,1,06,65,29,325,41,71,35,174,46,72,72,250,46,73,31,045,44*6B
###2023-12-09 13:12:42.994484$GLGSV,2,2,06,74,67,351,42,75,36,258,48,,,,,,,,*64
###2023-12-09 13:12:42.996818$GAGSV,1,1,04,04,33,312,42,19,81,194,41,21,84,070,46,27,29,048,41*6B
###2023-12-09 13:12:42.999158$GBGSV,2,1,06,14,38,192,47,24,70,034,49,25,44,267,48,26,22,065,43*6A
###2023-12-09 13:12:43.000907$GBGSV,2,2,06,33,53,226,50,35,15,065,43,,,,,,,,*6E
###2023-12-09 13:12:43.002193$GNVTG,86.97,T,,M,3.67,N,6.80,K,A*1F
###2023-12-09 13:12:43.003844$GNGST,181242.10,18.000,,,,0.097,0.071,0.170*5D
###2023-12-09 13:12:43.005137$GNZDA,181242.10,09,12,2023,00,00*7C
###2023-12-09 13:12:43.005773$GNEBP,,,,,,M*13
###2023-12-09 13:12:43.174577$GNGGA,181242.30,4138.0441582,N,07032.2924576,W,1,24,0.7,12.794,M,-29.743,M,0.0,*50
###2023-12-09 13:12:43.373065$GNGGA,181242.50,4138.0441756,N,07032.2922084,W,1,24,0.7,12.790,M,-29.743,M,0.0,*57
###2023-12-09 13:12:43.574132$GNGGA,181242.70,4138.0441930,N,07032.2919458,W,1,24,0.7,12.830,M,-29.743,M,0.0,*53
###2023-12-09 13:12:43.774105$GNGGA,181242.90,4138.0441663,N,07032.2916652,W,1,24,0.7,12.797,M,-29.743,M,0.0,*51
###2023-12-09 13:12:43.977098$GNRMC,181243.10,A,4138.0441822,N,07032.2914173,W,3.50,70.17,091223,,,A*68
###2023-12-09 13:12:43.979980$GNGGA,181243.10,4138.0441822,N,07032.2914173,W,1,24,0.7,12.776,M,-29.743,M,0.0,*5A
###2023-12-09 13:12:43.981769$GPGSA,A,3,03,04,16,26,28,29,31,,,,,,1.2,0.7,1.0*30
###2023-12-09 13:12:43.983493$GLGSA,A,3,65,71,72,73,74,75,,,,,,,1.2,0.7,1.0*2E
###2023-12-09 13:12:43.985068$GAGSA,A,3,04,19,21,27,,,,,,,,,1.2,0.7,1.0*2C
###2023-12-09 13:12:43.986781$GBGSA,A,3,14,24,25,26,33,35,,,,,,,1.2,0.7,1.0*23
###2023-12-09 13:12:43.989087$GPGSV,2,1,07,03,33,256,44,04,37,311,43,16,55,215,48,26,85,210,48*70
###2023-12-09 13:12:43.991119$GPGSV,2,2,07,28,46,075,42,29,24,056,40,31,66,048,46,,,,*44
###2023-12-09 13:12:43.993436$GLGSV,2,1,06,65,29,325,40,71,34,174,47,72,72,250,46,73,31,045,42*6C
###2023-12-09 13:12:43.995180$GLGSV,2,2,06,74,67,351,41,75,36,258,47,,,,,,,,*68
###2023-12-09 13:12:43.997526$GAGSV,1,1,04,04,33,312,40,19,81,194,41,21,84,070,46,27,29,048,40*68
###2023-12-09 13:12:43.999854$GBGSV,2,1,06,14,38,192,46,24,70,034,47,25,44,267,46,26,22,065,41*69
###2023-12-09 13:12:44.001598$GBGSV,2,2,06,33,53,226,48,35,15,065,40,,,,,,,,*64
###2023-12-09 13:12:44.002892$GNVTG,70.17,T,,M,3.50,N,6.48,K,A*1E
###2023-12-09 13:12:44.004527$GNGST,181243.10,18.000,,,,0.097,0.071,0.170*5C
###2023-12-09 13:12:44.005809$GNZDA,181243.10,09,12,2023,00,00*7D
###2023-12-09 13:12:44.006445$GNEBP,,,,,,M*13
###2023-12-09 13:12:44.172834$GNGGA,181243.30,4138.0442510,N,07032.2911622,W,1,24,0.7,12.812,M,-29.743,M,0.0,*5C
###2023-12-09 13:12:44.373161$GNGGA,181243.50,4138.0442802,N,07032.2908956,W,1,24,0.7,12.797,M,-29.743,M,0.0,*52
###2023-12-09 13:12:44.573843$GNGGA,181243.70,4138.0442883,N,07032.2906282,W,1,24,0.7,12.811,M,-29.743,M,0.0,*54
###2023-12-09 13:12:44.773097$GNGGA,181243.90,4138.0442989,N,07032.2903533,W,1,24,0.7,12.800,M,-29.743,M,0.0,*59
###2023-12-09 13:12:44.983267$GNRMC,181244.10,A,4138.0443436,N,07032.2900894,W,3.63,73.13,091223,,,A*66
###2023-12-09 13:12:44.986121$GNGGA,181244.10,4138.0443436,N,07032.2900894,W,1,24,0.7,12.785,M,-29.743,M,0.0,*5F
###2023-12-09 13:12:44.987921$GPGSA,A,3,03,04,16,26,28,29,31,,,,,,1.2,0.7,1.0*30
###2023-12-09 13:12:44.989634$GLGSA,A,3,65,71,72,73,74,75,,,,,,,1.2,0.7,1.0*2E
###2023-12-09 13:12:44.991224$GAGSA,A,3,04,19,21,27,,,,,,,,,1.2,0.7,1.0*2C
###2023-12-09 13:12:44.992928$GBGSA,A,3,14,24,25,26,33,35,,,,,,,1.2,0.7,1.0*23
###2023-12-09 13:12:44.995261$GPGSV,2,1,07,03,33,256,44,04,37,311,44,16,55,215,48,26,85,210,48*77
###2023-12-09 13:12:44.997533$GPGSV,2,2,07,28,46,075,42,29,24,056,40,31,66,048,46,,,,*44
###2023-12-09 13:12:44.999890$GLGSV,2,1,06,65,29,325,40,71,34,174,46,72,71,246,46,73,31,045,42*69
###2023-12-09 13:12:45.001646$GLGSV,2,2,06,74,67,351,41,75,36,258,48,,,,,,,,*67
###2023-12-09 13:12:45.003986$GAGSV,1,1,04,04,33,312,40,19,81,194,41,21,84,070,45,27,29,048,40*6B
###2023-12-09 13:12:45.006321$GBGSV,2,1,06,14,38,192,46,24,70,034,47,25,44,267,46,26,22,065,41*69
###2023-12-09 13:12:45.008083$GBGSV,2,2,06,33,53,226,48,35,15,065,42,,,,,,,,*66
###2023-12-09 13:12:45.009377$GNVTG,73.13,T,,M,3.63,N,6.73,K,A*11
###2023-12-09 13:12:45.011037$GNGST,181244.10,18.000,,,,0.097,0.071,0.170*5B
###2023-12-09 13:12:45.012325$GNZDA,181244.10,09,12,2023,00,00*7A
