###2023-12-09 13:40:13.022929$GLGSV,2,1,07,65,40,316,45,71,20,176,41,72,60,217,47,73,20,054,43*66
###2023-12-09 13:40:13.024991$GLGSV,2,2,07,74,58,018,43,75,45,275,50,83,16,045,35,,,,*5F
###2023-12-09 13:40:13.027343$GAGSV,1,1,04,04,41,309,45,19,69,180,40,21,74,044,46,27,21,050,41*68
###2023-12-09 13:40:13.029667$GBGSV,2,1,06,12,17,125,39,14,27,189,41,24,61,048,47,25,52,278,48*6D
###2023-12-09 13:40:13.031466$GBGSV,2,2,06,33,44,215,47,35,16,055,41,,,,,,,,*6C
###2023-12-09 13:40:13.032794$GNVTG,220.26,T,,M,0.86,N,1.58,K,A*25
###2023-12-09 13:40:13.034403$GNGST,184012.10,6.200,,,,0.090,0.067,0.150*60
###2023-12-09 13:40:13.035704$GNZDA,184012.10,09,12,2023,00,00*7E
###2023-12-09 13:40:13.036342$GNEBP,,,,,,M*13
###2023-12-09 13:40:13.201393$GNGGA,184012.30,4138.0281561,N,07032.3870516,W,1,25,0.6,13.390,M,-29.745,M,0.0,*55
###2023-12-09 13:40:13.400636$GNGGA,184012.50,4138.0281469,N,07032.3870098,W,1,25,0.6,13.398,M,-29.745,M,0.0,*51
###2023-12-09 13:40:13.599137$GNGGA,184012.70,4138.0281195,N,07032.3870070,W,1,25,0.6,13.396,M,-29.745,M,0.0,*5D
###2023-12-09 13:40:13.800062$GNGGA,184012.90,4138.0280801,N,07032.3870493,W,1,26,0.6,13.406,M,-29.745,M,0.0,*52
###2023-12-09 13:40:14.012536$GNRMC,184013.10,A,4138.0280514,N,07032.3870729,W,0.45,219.26,091223,,,A*5A
###2023-12-09 13:40:14.015399$GNGGA,184013.10,4138.0280514,N,07032.3870729,W,1,26,0.6,13.396,M,-29.745,M,0.0,*5E
###2023-12-09 13:40:14.017254$GPGSA,A,3,03,04,16,26,27,28,29,31,,,,,1.0,0.6,0.8*3F
###2023-12-09 13:40:14.019041$GLGSA,A,3,65,71,72,73,74,75,83,,,,,,1.0,0.6,0.8*2F
###2023-12-09 13:40:14.020626$GAGSA,A,3,04,19,21,27,,,,,,,,,1.0,0.6,0.8*26
###2023-12-09 13:40:14.022338$GBGSA,A,3,12,14,24,25,33,35,,,,,,,1.0,0.6,0.8*2E
###2023-12-09 13:40:14.024681$GPGSV,2,1,08,03,25,244,39,04,48,306,47,16,69,225,47,26,81,040,48*7B
###2023-12-09 13:40:14.027029$GPGSV,2,2,08,27,19,172,39,28,36,087,45,29,19,045,43,31,58,070,47*7D
###2023-12-09 13:40:14.029371$GLGSV,2,1,07,65,40,316,44,71,20,176,39,72,60,217,47,73,20,054,42*69
###2023-12-09 13:40:14.031432$GLGSV,2,2,07,74,58,018,43,75,45,275,50,83,16,045,36,,,,*5C
###2023-12-09 13:40:14.033771$GAGSV,1,1,04,04,41,309,45,19,69,180,41,21,74,044,46,27,21,050,41*69
###2023-12-09 13:40:14.036114$GBGSV,2,1,06,12,17,125,41,14,27,189,41,24,61,048,47,25,52,278,49*63
###2023-12-09 13:40:14.037864$GBGSV,2,2,06,33,44,215,46,35,16,055,42,,,,,,,,*6E
###2023-12-09 13:40:14.039201$GNVTG,219.26,T,,M,0.45,N,0.83,K,A*27
###2023-12-09 13:40:14.040822$GNGST,184013.10,5.900,,,,0.090,0.067,0.150*69
###2023-12-09 13:40:14.042108$GNZDA,184013.10,09,12,2023,00,00*7F
###2023-12-09 13:40:14.042757$GNEBP,,,,,,M*13
###2023-12-09 13:40:14.203514$GNGGA,184013.30,4138.0280326,N,07032.3870633,W,1,25,0.6,13.406,M,-29.745,M,0.0,*5C
###2023-12-09 13:40:14.401268$GNGGA,184013.50,4138.0280099,N,07032.3870567,W,1,25,0.6,13.430,M,-29.745,M,0.0,*5A
###2023-12-09 13:40:14.600894$GNGGA,184013.70,4138.0279833,N,07032.3870720,W,1,25,0.6,13.434,M,-29.745,M,0.0,*53
###2023-12-09 13:40:14.798077$GNGGA,184013.90,4138.0279594,N,07032.3870884,W,1,25,0.6,13.415,M,-29.745,M,0.0,*5F
###2023-12-09 13:40:15.004632$GNRMC,184014.10,A,4138.0279363,N,07032.3870966,W,0.43,219.26,091223,,,A*5E
###2023-12-09 13:40:15.007502$GNGGA,184014.10,4138.0279363,N,07032.3870966,W,1,26,0.6,13.413,M,-29.745,M,0.0,*56
###2023-12-09 13:40:15.009362$GPGSA,A,3,03,04,16,26,27,28,29,31,,,,,1.0,0.6,0.8*3F
###2023-12-09 13:40:15.011151$GLGSA,A,3,65,71,72,73,74,75,83,,,,,,1.0,0.6,0.8*2F
###2023-12-09 13:40:15.012735$GAGSA,A,3,04,19,21,27,,,,,,,,,1.0,0.6,0.8*26
###2023-12-09 13:40:15.014439$GBGSA,A,3,12,14,24,25,33,35,,,,,,,1.0,0.6,0.8*2E
###2023-12-09 13:40:15.016785$GPGSV,2,1,08,03,25,244,38,04,48,306,46,16,69,225,46,26,81,040,49*7B
###2023-12-09 13:40:15.019129$GPGSV,2,2,08,27,19,172,37,28,36,087,45,29,19,045,44,31,58,070,48*7B
###2023-12-09 13:40:15.021465$GLGSV,2,1,07,65,40,316,45,71,20,176,38,72,60,217,46,73,20,054,44*6E
###2023-12-09 13:40:15.023523$GLGSV,2,2,07,74,58,018,44,75,45,275,48,83,16,045,35,,,,*51
###2023-12-09 13:40:15.025858$GAGSV,1,1,04,04,41,309,44,19,69,180,41,21,74,044,46,27,21,050,42*6B
###2023-12-09 13:40:15.028203$GBGSV,2,1,06,12,17,125,41,14,27,189,40,24,61,048,47,25,52,278,48*63
###2023-12-09 13:40:15.029958$GBGSV,2,2,06,33,44,215,47,35,16,055,43,,,,,,,,*6E
###2023-12-09 13:40:15.031294$GNVTG,219.26,T,,M,0.43,N,0.79,K,A*24
###2023-12-09 13:40:15.032903$GNGST,184014.10,6.000,,,,0.091,0.068,0.150*6A
###2023-12-09 13:40:15.034190$GNZDA,184014.10,09,12,2023,00,00*78
###2023-12-09 13:40:15.034839$GNEBP,,,,,,M*13
###2023-12-09 13:40:15.203167$GNGGA,184014.30,4138.0279105,N,07032.3871014,W,1,26,0.6,13.434,M,-29.745,M,0.0,*5E
###2023-12-09 13:40:15.398314$GNGGA,184014.50,4138.0278867,N,07032.3871105,W,1,25,0.6,13.456,M,-29.745,M,0.0,*52
###2023-12-09 13:40:15.599840$GNGGA,184014.70,4138.0278645,N,07032.3871193,W,1,25,0.6,13.456,M,-29.745,M,0.0,*51
###2023-12-09 13:40:15.803389$GNGGA,184014.90,4138.0278444,N,07032.3871185,W,1,25,0.6,13.439,M,-29.745,M,0.0,*52
###2023-12-09 13:40:16.004828$GNRMC,184015.10,A,4138.0278232,N,07032.3871224,W,0.49,219.26,091223,,,A*5D
###2023-12-09 13:40:16.007684$GNGGA,184015.10,4138.0278232,N,07032.3871224,W,1,25,0.6,13.436,M,-29.745,M,0.0,*5B
###2023-12-09 13:40:16.009531$GPGSA,A,3,03,04,16,26,27,28,29,31,,,,,1.1,0.6,0.9*3F
###2023-12-09 13:40:16.011314$GLGSA,A,3,65,71,72,73,74,75,83,,,,,,1.1,0.6,0.9*2F
###2023-12-09 13:40:16.012891$GAGSA,A,3,04,19,21,27,,,,,,,,,1.1,0.6,0.9*26
###2023-12-09 13:40:16.014598$GBGSA,A,3,12,14,24,25,33,35,,,,,,,1.1,0.6,0.9*2E
###2023-12-09 13:40:16.016928$GPGSV,2,1,08,03,25,244,40,04,48,306,45,16,69,225,46,26,81,040,49*77
###2023-12-09 13:40:16.019280$GPGSV,2,2,08,27,19,172,37,28,36,087,44,29,19,045,45,31,58,070,48*7B
###2023-12-09 13:40:16.021606$GLGSV,2,1,07,65,40,316,44,71,20,176,38,72,60,217,46,73,20,054,44*6F
###2023-12-09 13:40:16.023650$GLGSV,2,2,07,74,58,018,44,75,45,275,48,83,16,045,35,,,,*51
###2023-12-09 13:40:16.025960$GAGSV,1,1,04,04,41,309,44,19,69,180,41,21,74,044,47,27,21,050,42*6A
###2023-12-09 13:40:16.028287$GBGSV,2,1,06,12,17,125,42,14,27,189,40,24,61,048,48,25,52,278,48*6F
###2023-12-09 13:40:16.030025$GBGSV,2,2,06,33,44,215,47,35,16,055,44,,,,,,,,*69
###2023-12-09 13:40:16.031354$GNVTG,219.26,T,,M,0.49,N,0.90,K,A*29
###2023-12-09 13:40:16.032967$GNGST,184015.10,5.900,,,,0.091,0.068,0.150*61
###2023-12-09 13:40:16.034256$GNZDA,184015.10,09,12,2023,00,00*79
###2023-12-09 13:40:16.034902$GNEBP,,,,,,M*13
###2023-12-09 13:40:16.202625$GNGGA,184015.30,4138.0277957,N,07032.3871407,W,1,25,0.6,13.450,M,-29.745,M,0.0,*59
###2023-12-09 13:40:16.403163$GNGGA,184015.50,4138.0277739,N,07032.3871557,W,1,25,0.6,13.457,M,-29.745,M,0.0,*5A
###2023-12-09 13:40:16.599773$GNGGA,184015.70,4138.0277570,N,07032.3871544,W,1,25,0.6,13.464,M,-29.745,M,0.0,*55
###2023-12-09 13:40:16.802533$GNGGA,184015.90,4138.0277379,N,07032.3871521,W,1,26,0.6,13.466,M,-29.745,M,0.0,*56
###2023-12-09 13:40:17.005440$GNRMC,184016.10,A,4138.0277151,N,07032.3871641,W,0.52,219.26,091223,,,A*5A
###2023-12-09 13:40:17.008330$GNGGA,184016.10,4138.0277151,N,07032.3871641,W,1,26,0.6,13.460,M,-29.745,M,0.0,*56
###2023-12-09 13:40:17.010174$GPGSA,A,3,03,04,16,26,27,28,29,31,,,,,1.0,0.6,0.8*3F
###2023-12-09 13:40:17.011992$GLGSA,A,3,65,71,72,73,74,75,83,,,,,,1.0,0.6,0.8*2F
###2023-12-09 13:40:17.013576$GAGSA,A,3,04,19,21,27,,,,,,,,,1.0,0.6,0.8*26
###2023-12-09 13:40:17.015289$GBGSA,A,3,12,14,24,25,33,35,,,,,,,1.0,0.6,0.8*2E
###2023-12-09 13:40:17.017604$GPGSV,2,1,08,03,25,244,39,04,48,306,45,16,69,225,47,26,81,040,49*78
###2023-12-09 13:40:17.019938$GPGSV,2,2,08,27,19,172,37,28,36,087,46,29,19,045,44,31,58,070,47*77
###2023-12-09 13:40:17.022259$GLGSV,2,1,07,65,40,316,44,71,20,176,39,72,60,217,46,73,20,054,44*6E
###2023-12-09 13:40:17.024305$GLGSV,2,2,07,74,58,018,43,75,45,275,48,83,16,045,35,,,,*56
###2023-12-09 13:40:17.026640$GAGSV,1,1,04,04,41,309,44,19,69,180,40,21,74,044,47,27,21,050,42*6B
###2023-12-09 13:40:17.028946$GBGSV,2,1,06,12,17,125,41,14,27,189,39,24,61,048,48,25,52,278,48*62
###2023-12-09 13:40:17.030683$GBGSV,2,2,06,33,44,215,45,35,16,055,43,,,,,,,,*6C
###2023-12-09 13:40:17.032000$GNVTG,219.26,T,,M,0.52,N,0.97,K,A*24
###2023-12-09 13:40:17.033852$GNGST,184016.10,6.200,,,,0.091,0.068,0.150*6A
###2023-12-09 13:40:17.035169$GNZDA,184016.10,09,12,2023,00,00*7A
###2023-12-09 13:40:17.035809$GNEBP,,,,,,M*13
###2023-12-09 13:40:17.202560$GNGGA,184016.30,4138.0276910,N,07032.3871788,W,1,26,0.6,13.452,M,-29.745,M,0.0,*5D
###2023-12-09 13:40:17.401065$GNGGA,184016.50,4138.0276715,N,07032.3871810,W,1,26,0.6,13.452,M,-29.745,M,0.0,*5E
###2023-12-09 13:40:17.601922$GNGGA,184016.70,4138.0276521,N,07032.3871880,W,1,26,0.6,13.464,M,-29.745,M,0.0,*55
###2023-12-09 13:40:17.801418$GNGGA,184016.90,4138.0276289,N,07032.3872016,W,1,26,0.6,13.481,M,-29.745,M,0.0,*51
###2023-12-09 13:40:18.005711$GNRMC,184017.10,A,4138.0276130,N,07032.3872040,W,0.25,219.26,091223,,,A*59
###2023-12-09 13:40:18.008620$GNGGA,184017.10,4138.0276130,N,07032.3872040,W,1,26,0.6,13.460,M,-29.745,M,0.0,*55
###2023-12-09 13:40:18.010494$GPGSA,A,3,03,04,16,26,27,28,29,31,,,,,1.0,0.6,0.8*3F
