###2023-12-09 12:55:55.965450$GBGSA,A,3,14,24,25,26,33,,,,,,,,1.1,0.6,0.9*2F
###2023-12-09 12:55:55.967813$GPGSV,2,1,08,03,36,265,42,04,30,311,41,16,47,211,47,26,77,209,48*74
###2023-12-09 12:55:55.970149$GPGSV,2,2,08,28,51,068,45,29,25,064,39,31,70,031,47,32,21,139,43*7E
###2023-12-09 12:55:55.972497$GLGSV,2,1,06,65,21,328,40,71,44,172,47,72,72,281,45,73,38,040,45*6C
###2023-12-09 12:55:55.974242$GLGSV,2,2,06,74,71,327,42,75,30,250,41,,,,,,,,*65
###2023-12-09 12:55:55.976581$GAGSV,1,1,04,04,27,312,39,19,85,242,40,21,84,147,46,27,35,048,43*65
###2023-12-09 12:55:55.978917$GBGSV,2,1,05,14,46,194,45,24,75,018,49,25,39,260,44,26,28,061,41*62
###2023-12-09 12:55:55.980372$GBGSV,2,2,05,33,59,237,48,,,,,,,,,,,,*58
###2023-12-09 12:55:55.981694$GNVTG,258.49,T,,M,1.07,N,1.98,K,A*27
###2023-12-09 12:55:55.983393$GNGST,175555.10,18.000,,,,0.078,0.067,0.160*50
###2023-12-09 12:55:55.984687$GNZDA,175555.10,09,12,2023,00,00*76
###2023-12-09 12:55:55.985324$GNEBP,,,,,,M*13
###2023-12-09 12:55:56.155413$GNGGA,175555.30,4138.0400671,N,07032.3879419,W,1,24,0.6,13.147,M,-29.745,M,0.0,*5E
###2023-12-09 12:55:56.355509$GNGGA,175555.50,4138.0400612,N,07032.3880154,W,1,24,0.6,13.147,M,-29.745,M,0.0,*57
###2023-12-09 12:55:56.555328$GNGGA,175555.70,4138.0400493,N,07032.3880931,W,1,24,0.6,13.144,M,-29.745,M,0.0,*56
###2023-12-09 12:55:56.760058$GNGGA,175555.90,4138.0400337,N,07032.3881724,W,1,24,0.6,13.142,M,-29.745,M,0.0,*5C
###2023-12-09 12:55:56.962794$GNRMC,175556.10,A,4138.0400256,N,07032.3882568,W,1.11,266.99,091223,,,A*59
###2023-12-09 12:55:56.965656$GNGGA,175556.10,4138.0400256,N,07032.3882568,W,1,24,0.6,13.142,M,-29.745,M,0.0,*58
###2023-12-09 12:55:56.967524$GPGSA,A,3,03,04,16,26,28,29,31,32,,,,,1.1,0.6,0.9*3B
###2023-12-09 12:55:56.969244$GLGSA,A,3,65,71,72,73,74,75,,,,,,,1.1,0.6,0.9*24
###2023-12-09 12:55:56.970840$GAGSA,A,3,04,19,21,27,,,,,,,,,1.1,0.6,0.9*26
###2023-12-09 12:55:56.972484$GBGSA,A,3,14,24,25,26,33,,,,,,,,1.1,0.6,0.9*2F
###2023-12-09 12:55:56.974828$GPGSV,2,1,08,03,36,265,41,04,30,311,41,16,47,211,46,26,77,209,48*76
###2023-12-09 12:55:56.977163$GPGSV,2,2,08,28,51,068,46,29,25,064,41,31,70,031,47,32,21,139,45*74
###2023-12-09 12:55:56.979508$GLGSV,2,1,06,65,21,328,38,71,44,172,47,72,72,281,45,73,38,040,46*60
###2023-12-09 12:55:56.981291$GLGSV,2,2,06,74,71,327,42,75,30,250,42,,,,,,,,*66
###2023-12-09 12:55:56.983635$GAGSV,1,1,04,04,27,312,39,19,85,242,40,21,84,147,46,27,35,048,43*65
###2023-12-09 12:55:56.985965$GBGSV,2,1,05,14,46,194,45,24,75,018,48,25,39,260,44,26,28,061,41*63
###2023-12-09 12:55:56.987458$GBGSV,2,2,05,33,59,237,47,,,,,,,,,,,,*57
###2023-12-09 12:55:56.988803$GNVTG,266.99,T,,M,1.11,N,2.05,K,A*27
###2023-12-09 12:55:56.990450$GNGST,175556.10,18.000,,,,0.078,0.068,0.160*5C
###2023-12-09 12:55:56.991755$GNZDA,175556.10,09,12,2023,00,00*75
###2023-12-09 12:55:56.992393$GNEBP,,,,,,M*13
###2023-12-09 12:55:57.155992$GNGGA,175556.30,4138.0400275,N,07032.3883389,W,1,24,0.6,13.144,M,-29.745,M,0.0,*55
###2023-12-09 12:55:57.355941$GNGGA,175556.50,4138.0400316,N,07032.3884192,W,1,24,0.6,13.145,M,-29.745,M,0.0,*59
###2023-12-09 12:55:57.554407$GNGGA,175556.70,4138.0400322,N,07032.3885062,W,1,24,0.6,13.146,M,-29.745,M,0.0,*50
###2023-12-09 12:55:57.754532$GNGGA,175556.90,4138.0400349,N,07032.3886002,W,1,24,0.6,13.140,M,-29.745,M,0.0,*50
###2023-12-09 12:55:57.956042$GNRMC,175557.10,A,4138.0400457,N,07032.3886963,W,1.40,284.12,091223,,,A*57
###2023-12-09 12:55:57.958924$GNGGA,175557.10,4138.0400457,N,07032.3886963,W,1,24,0.6,13.136,M,-29.745,M,0.0,*5E
###2023-12-09 12:55:57.960781$GPGSA,A,3,03,04,16,26,28,29,31,32,,,,,1.1,0.6,0.9*3B
###2023-12-09 12:55:57.962502$GLGSA,A,3,65,71,72,73,74,75,,,,,,,1.1,0.6,0.9*24
###2023-12-09 12:55:57.964106$GAGSA,A,3,04,19,21,27,,,,,,,,,1.1,0.6,0.9*26
###2023-12-09 12:55:57.965750$GBGSA,A,3,14,24,25,26,33,,,,,,,,1.1,0.6,0.9*2F
###2023-12-09 12:55:57.968095$GPGSV,2,1,08,03,36,265,43,04,30,311,42,16,47,211,47,26,77,209,48*76
###2023-12-09 12:55:57.970427$GPGSV,2,2,08,28,51,068,45,29,25,064,41,31,70,031,47,32,21,139,44*76
###2023-12-09 12:55:57.972770$GLGSV,2,1,06,65,21,328,39,71,44,172,47,72,72,281,45,73,38,040,46*61
###2023-12-09 12:55:57.974518$GLGSV,2,2,06,74,71,327,42,75,30,250,44,,,,,,,,*60
###2023-12-09 12:55:57.976858$GAGSV,1,1,04,04,27,312,39,19,85,242,40,21,84,147,46,27,35,048,44*62
###2023-12-09 12:55:57.979204$GBGSV,2,1,05,14,46,194,46,24,75,018,49,25,39,260,47,26,28,061,42*61
###2023-12-09 12:55:57.980662$GBGSV,2,2,05,33,59,237,47,,,,,,,,,,,,*57
###2023-12-09 12:55:57.981987$GNVTG,284.12,T,,M,1.40,N,2.59,K,A*25
###2023-12-09 12:55:57.983650$GNGST,175557.10,18.000,,,,0.078,0.068,0.160*5D
###2023-12-09 12:55:57.984942$GNZDA,175557.10,09,12,2023,00,00*74
###2023-12-09 12:55:57.985580$GNEBP,,,,,,M*13
###2023-12-09 12:55:58.155216$GNGGA,175557.30,4138.0400662,N,07032.3887928,W,1,24,0.6,13.144,M,-29.745,M,0.0,*53
###2023-12-09 12:55:58.355834$GNGGA,175557.50,4138.0400911,N,07032.3888959,W,1,24,0.6,13.142,M,-29.745,M,0.0,*51
###2023-12-09 12:55:58.555891$GNGGA,175557.70,4138.0401178,N,07032.3889980,W,1,24,0.6,13.136,M,-29.745,M,0.0,*53
###2023-12-09 12:55:58.761873$GNGGA,175557.90,4138.0401507,N,07032.3891028,W,1,24,0.6,13.137,M,-29.745,M,0.0,*52
###2023-12-09 12:55:58.956406$GNRMC,175558.10,A,4138.0401928,N,07032.3892057,W,1.57,302.40,091223,,,A*59
###2023-12-09 12:55:58.959875$GNGGA,175558.10,4138.0401928,N,07032.3892057,W,1,24,0.6,13.132,M,-29.745,M,0.0,*5A
###2023-12-09 12:55:58.962108$GPGSA,A,3,03,04,16,26,28,29,31,32,,,,,1.1,0.6,0.9*3B
###2023-12-09 12:55:58.964194$GLGSA,A,3,65,71,72,73,74,75,,,,,,,1.1,0.6,0.9*24
###2023-12-09 12:55:58.966099$GAGSA,A,3,04,19,21,27,,,,,,,,,1.1,0.6,0.9*26
###2023-12-09 12:55:58.968149$GBGSA,A,3,14,24,25,26,33,,,,,,,,1.1,0.6,0.9*2F
###2023-12-09 12:55:58.970983$GPGSV,2,1,08,03,36,265,44,04,30,311,42,16,47,211,46,26,77,209,49*71
###2023-12-09 12:55:58.973807$GPGSV,2,2,08,28,51,068,46,29,25,064,43,31,70,031,47,32,21,139,43*70
###2023-12-09 12:55:58.976643$GLGSV,2,1,06,65,21,328,38,71,44,172,47,72,72,281,45,73,38,040,44*62
###2023-12-09 12:55:58.978771$GLGSV,2,2,06,74,71,327,42,75,30,250,45,,,,,,,,*61
###2023-12-09 12:55:58.981619$GAGSV,1,1,04,04,27,312,40,19,85,242,40,21,84,147,46,27,35,048,42*6A
###2023-12-09 12:55:58.984446$GBGSV,2,1,05,14,46,194,46,24,75,018,48,25,39,260,46,26,28,061,44*67
###2023-12-09 12:55:58.986207$GBGSV,2,2,05,33,59,237,49,,,,,,,,,,,,*59
###2023-12-09 12:55:58.987818$GNVTG,302.40,T,,M,1.57,N,2.92,K,A*2C
###2023-12-09 12:55:58.989812$GNGST,175558.10,18.000,,,,0.078,0.067,0.160*5D
###2023-12-09 12:55:58.991380$GNZDA,175558.10,09,12,2023,00,00*7B
###2023-12-09 12:55:58.992151$GNEBP,,,,,,M*13
###2023-12-09 12:55:59.157951$GNGGA,175558.30,4138.0402429,N,07032.3892989,W,1,24,0.6,13.128,M,-29.745,M,0.0,*56
###2023-12-09 12:55:59.356032$GNGGA,175558.50,4138.0402992,N,07032.3893935,W,1,24,0.6,13.137,M,-29.745,M,0.0,*55
###2023-12-09 12:55:59.555311$GNGGA,175558.70,4138.0403592,N,07032.3894904,W,1,24,0.6,13.139,M,-29.745,M,0.0,*51
###2023-12-09 12:55:59.755537$GNGGA,175558.90,4138.0404263,N,07032.3895839,W,1,24,0.6,13.133,M,-29.745,M,0.0,*55
###2023-12-09 12:55:59.958429$GNRMC,175559.10,A,4138.0405036,N,07032.3896702,W,1.77,322.96,091223,,,A*52
###2023-12-09 12:55:59.961918$GNGGA,175559.10,4138.0405036,N,07032.3896702,W,1,24,0.6,13.132,M,-29.745,M,0.0,*5A
###2023-12-09 12:55:59.964167$GPGSA,A,3,03,04,16,26,28,29,31,32,,,,,1.1,0.6,0.9*3B
###2023-12-09 12:55:59.966225$GLGSA,A,3,65,71,72,73,74,75,,,,,,,1.1,0.6,0.9*24
###2023-12-09 12:55:59.968145$GAGSA,A,3,04,19,21,27,,,,,,,,,1.1,0.6,0.9*26
###2023-12-09 12:55:59.970121$GBGSA,A,3,14,24,25,26,33,,,,,,,,1.1,0.6,0.9*2F
###2023-12-09 12:55:59.972937$GPGSV,2,1,08,03,36,265,43,04,30,311,39,16,47,211,45,26,77,209,47*77
###2023-12-09 12:55:59.975783$GPGSV,2,2,08,28,51,068,45,29,25,064,43,31,70,031,46,32,21,139,43*72
###2023-12-09 12:55:59.978610$GLGSV,2,1,06,65,21,328,38,71,44,172,46,72,72,281,45,73,38,040,45*62
###2023-12-09 12:55:59.980718$GLGSV,2,2,06,74,71,327,42,75,30,250,45,,,,,,,,*61
###2023-12-09 12:55:59.983528$GAGSV,1,1,04,04,27,312,39,19,85,242,40,21,84,147,46,27,35,048,42*64
###2023-12-09 12:55:59.986326$GBGSV,2,1,05,14,46,194,46,24,75,018,48,25,39,260,47,26,28,061,44*66
###2023-12-09 12:55:59.988423$GBGSV,2,2,05,33,59,237,47,,,,,,,,,,,,*57
###2023-12-09 12:55:59.990036$GNVTG,322.96,T,,M,1.77,N,3.28,K,A*27
###2023-12-09 12:55:59.992039$GNGST,175559.10,18.000,,,,0.078,0.067,0.160*5C
###2023-12-09 12:55:59.993593$GNZDA,175559.10,09,12,2023,00,00*7A
###2023-12-09 12:55:59.994368$GNEBP,,,,,,M*13
###2023-12-09 12:56:00.156150$GNGGA,175559.30,4138.0405864,N,07032.3897524,W,1,24,0.6,13.130,M,-29.745,M,0.0,*52
###2023-12-09 12:56:00.356349$GNGGA,175559.50,4138.0406745,N,07032.3898283,W,1,24,0.6,13.127,M,-29.745,M,0.0,*58
###2023-12-09 12:56:00.557335$GNGGA,175559.70,4138.0407686,N,07032.3898964,W,1,24,0.6,13.125,M,-29.745,M,0.0,*55
###2023-12-09 12:56:00.757495$GNGGA,175559.90,4138.0408658,N,07032.3899518,W,1,24,0.6,13.126,M,-29.745,M,0.0,*52
