###2023-12-09 13:38:09.033192$GBGSV,2,2,06,33,44,216,47,35,16,055,43,,,,,,,,*6D
###2023-12-09 13:38:09.034534$GNVTG,337.04,T,,M,2.76,N,5.11,K,A*26
###2023-12-09 13:38:09.036180$GNGST,183808.10,6.200,,,,0.110,0.098,0.220*69
###2023-12-09 13:38:09.037473$GNZDA,183808.10,09,12,2023,00,00*7A
###2023-12-09 13:38:09.038115$GNEBP,,,,,,M*13
###2023-12-09 13:38:09.206531$GNGGA,183808.30,4138.0299784,N,07032.3928209,W,1,24,0.6,13.469,M,-29.745,M,0.0,*54
###2023-12-09 13:38:09.397835$GNGGA,183808.50,4138.0301401,N,07032.3928544,W,1,23,0.6,13.477,M,-29.745,M,0.0,*5A
###2023-12-09 13:38:09.597570$GNGGA,183808.70,4138.0303062,N,07032.3928896,W,1,23,0.6,13.484,M,-29.745,M,0.0,*55
###2023-12-09 13:38:09.800266$GNGGA,183808.90,4138.0304717,N,07032.3929411,W,1,24,0.6,13.467,M,-29.745,M,0.0,*51
###2023-12-09 13:38:10.001039$GNRMC,183809.10,A,4138.0306371,N,07032.3929873,W,3.03,350.46,091223,,,A*52
###2023-12-09 13:38:10.003931$GNGGA,183809.10,4138.0306371,N,07032.3929873,W,1,25,0.6,13.457,M,-29.745,M,0.0,*54
###2023-12-09 13:38:10.005799$GPGSA,A,3,03,04,16,26,27,28,29,31,,,,,1.1,0.6,0.9*3F
###2023-12-09 13:38:10.007531$GLGSA,A,3,65,71,72,73,74,75,,,,,,,1.1,0.6,0.9*24
###2023-12-09 13:38:10.009122$GAGSA,A,3,04,19,21,27,,,,,,,,,1.1,0.6,0.9*26
###2023-12-09 13:38:10.010854$GBGSA,A,3,12,14,24,25,33,35,,,,,,,1.1,0.6,0.9*2E
###2023-12-09 13:38:10.013190$GPGSV,2,1,08,03,25,245,40,04,48,307,45,16,68,224,46,26,82,040,48*75
###2023-12-09 13:38:10.015542$GPGSV,2,2,08,27,18,172,43,28,37,086,45,29,20,046,40,31,58,068,46*73
###2023-12-09 13:38:10.017876$GLGSV,2,1,06,65,39,317,42,71,21,175,44,72,61,219,47,73,21,053,42*60
###2023-12-09 13:38:10.019642$GLGSV,2,2,06,74,59,016,41,75,44,273,48,,,,,,,,*66
###2023-12-09 13:38:10.021973$GAGSV,1,1,04,04,41,309,44,19,70,181,41,21,75,045,46,27,21,050,39*6E
###2023-12-09 13:38:10.024331$GBGSV,2,1,06,12,16,125,41,14,28,189,42,24,62,047,48,25,52,277,47*6C
###2023-12-09 13:38:10.026079$GBGSV,2,2,06,33,44,216,46,35,16,055,42,,,,,,,,*6D
###2023-12-09 13:38:10.027418$GNVTG,350.46,T,,M,3.03,N,5.62,K,A*26
###2023-12-09 13:38:10.029073$GNGST,183809.10,10.000,,,,0.110,0.098,0.220*5D
###2023-12-09 13:38:10.030366$GNZDA,183809.10,09,12,2023,00,00*7B
###2023-12-09 13:38:10.031020$GNEBP,,,,,,M*13
###2023-12-09 13:38:10.197898$GNGGA,183809.30,4138.0308055,N,07032.3930090,W,1,25,0.6,13.450,M,-29.745,M,0.0,*57
###2023-12-09 13:38:10.396598$GNGGA,183809.50,4138.0309730,N,07032.3930097,W,1,25,0.6,13.460,M,-29.745,M,0.0,*50
###2023-12-09 13:38:10.595259$GNGGA,183809.70,4138.0311404,N,07032.3930080,W,1,25,0.6,13.476,M,-29.745,M,0.0,*5E
###2023-12-09 13:38:10.795975$GNGGA,183809.90,4138.0313052,N,07032.3930067,W,1,25,0.6,13.474,M,-29.745,M,0.0,*5E
###2023-12-09 13:38:11.000030$GNRMC,183810.10,A,4138.0314699,N,07032.3929912,W,2.90,4.43,091223,,,A*50
###2023-12-09 13:38:11.002907$GNGGA,183810.10,4138.0314699,N,07032.3929912,W,1,25,0.6,13.455,M,-29.745,M,0.0,*58
###2023-12-09 13:38:11.004773$GPGSA,A,3,03,04,16,26,27,28,29,31,,,,,1.0,0.6,0.8*3F
###2023-12-09 13:38:11.006491$GLGSA,A,3,65,71,72,73,74,75,,,,,,,1.0,0.6,0.8*24
###2023-12-09 13:38:11.008089$GAGSA,A,3,04,19,21,27,,,,,,,,,1.0,0.6,0.8*26
###2023-12-09 13:38:11.009802$GBGSA,A,3,12,14,24,25,33,35,,,,,,,1.0,0.6,0.8*2E
###2023-12-09 13:38:11.012144$GPGSV,2,1,08,03,25,245,39,04,48,307,45,16,68,224,47,26,82,040,48*7A
###2023-12-09 13:38:11.014482$GPGSV,2,2,08,27,18,172,43,28,37,086,44,29,20,046,39,31,58,068,46*7C
###2023-12-09 13:38:11.016808$GLGSV,2,1,06,65,39,317,42,71,21,175,44,72,61,219,47,73,21,053,39*6C
###2023-12-09 13:38:11.018550$GLGSV,2,2,06,74,59,016,41,75,44,273,48,,,,,,,,*66
###2023-12-09 13:38:11.020892$GAGSV,1,1,04,04,41,309,44,19,70,181,41,21,75,045,45,27,21,050,38*6C
###2023-12-09 13:38:11.023239$GBGSV,2,1,06,12,16,125,40,14,28,189,39,24,62,047,47,25,52,277,47*6E
###2023-12-09 13:38:11.024995$GBGSV,2,2,06,33,44,216,46,35,16,055,42,,,,,,,,*6D
###2023-12-09 13:38:11.026256$GNVTG,4.43,T,,M,2.90,N,5.36,K,A*2B
###2023-12-09 13:38:11.027880$GNGST,183810.10,6.200,,,,0.110,0.098,0.220*60
###2023-12-09 13:38:11.029169$GNZDA,183810.10,09,12,2023,00,00*73
###2023-12-09 13:38:11.029807$GNEBP,,,,,,M*13
###2023-12-09 13:38:11.197098$GNGGA,183810.30,4138.0316301,N,07032.3929769,W,1,25,0.6,13.448,M,-29.745,M,0.0,*52
###2023-12-09 13:38:11.395641$GNGGA,183810.50,4138.0317939,N,07032.3929558,W,1,25,0.6,13.448,M,-29.745,M,0.0,*54
###2023-12-09 13:38:11.594579$GNGGA,183810.70,4138.0319598,N,07032.3929387,W,1,25,0.6,13.458,M,-29.745,M,0.0,*5A
###2023-12-09 13:38:11.797759$GNGGA,183810.90,4138.0321318,N,07032.3929337,W,1,25,0.6,13.476,M,-29.745,M,0.0,*56
###2023-12-09 13:38:11.999873$GNRMC,183811.10,A,4138.0323106,N,07032.3929145,W,3.23,6.84,091223,,,A*5E
###2023-12-09 13:38:12.002752$GNGGA,183811.10,4138.0323106,N,07032.3929145,W,1,25,0.6,13.465,M,-29.745,M,0.0,*55
###2023-12-09 13:38:12.004617$GPGSA,A,3,03,04,16,26,27,28,29,31,,,,,1.0,0.6,0.8*3F
###2023-12-09 13:38:12.006332$GLGSA,A,3,65,71,72,73,74,75,,,,,,,1.0,0.6,0.8*24
###2023-12-09 13:38:12.007924$GAGSA,A,3,04,19,21,27,,,,,,,,,1.0,0.6,0.8*26
###2023-12-09 13:38:12.009631$GBGSA,A,3,12,14,24,25,33,35,,,,,,,1.0,0.6,0.8*2E
###2023-12-09 13:38:12.011970$GPGSV,2,1,08,03,25,245,35,04,48,307,45,16,68,224,47,26,82,040,48*76
###2023-12-09 13:38:12.014305$GPGSV,2,2,08,27,18,172,44,28,37,086,44,29,20,046,39,31,58,068,47*7A
###2023-12-09 13:38:12.016659$GLGSV,2,1,06,65,39,317,43,71,21,175,44,72,61,219,46,73,21,053,40*62
###2023-12-09 13:38:12.018413$GLGSV,2,2,06,74,59,016,41,75,44,273,47,,,,,,,,*69
###2023-12-09 13:38:12.020760$GAGSV,1,1,04,04,41,309,45,19,70,181,41,21,75,045,46,27,21,050,38*6E
###2023-12-09 13:38:12.023104$GBGSV,2,1,06,12,16,125,41,14,28,189,41,24,62,047,47,25,52,277,48*6F
###2023-12-09 13:38:12.024855$GBGSV,2,2,06,33,44,216,46,35,16,055,41,,,,,,,,*6E
###2023-12-09 13:38:12.026116$GNVTG,6.84,T,,M,3.23,N,5.98,K,A*2F
###2023-12-09 13:38:12.027741$GNGST,183811.10,6.500,,,,0.110,0.097,0.220*69
###2023-12-09 13:38:12.029033$GNZDA,183811.10,09,12,2023,00,00*72
###2023-12-09 13:38:12.029680$GNEBP,,,,,,M*13
###2023-12-09 13:38:12.197881$GNGGA,183811.30,4138.0324898,N,07032.3928944,W,1,25,0.6,13.445,M,-29.745,M,0.0,*54
###2023-12-09 13:38:12.395672$GNGGA,183811.50,4138.0326670,N,07032.3929008,W,1,24,0.6,13.443,M,-29.745,M,0.0,*5F
###2023-12-09 13:38:12.595540$GNGGA,183811.70,4138.0328432,N,07032.3929148,W,1,24,0.6,13.447,M,-29.745,M,0.0,*56
###2023-12-09 13:38:12.795751$GNGGA,183811.90,4138.0330189,N,07032.3929094,W,1,24,0.6,13.451,M,-29.745,M,0.0,*53
###2023-12-09 13:38:12.998967$GNRMC,183812.10,A,4138.0331964,N,07032.3929008,W,3.11,358.81,091223,,,A*56
###2023-12-09 13:38:13.001833$GNGGA,183812.10,4138.0331964,N,07032.3929008,W,1,25,0.6,13.451,M,-29.745,M,0.0,*56
###2023-12-09 13:38:13.003710$GPGSA,A,3,03,04,16,26,27,28,29,31,,,,,1.1,0.6,0.9*3F
###2023-12-09 13:38:13.005425$GLGSA,A,3,65,71,72,73,74,75,,,,,,,1.1,0.6,0.9*24
###2023-12-09 13:38:13.007019$GAGSA,A,3,04,19,21,27,,,,,,,,,1.1,0.6,0.9*26
###2023-12-09 13:38:13.008726$GBGSA,A,3,12,14,24,25,33,35,,,,,,,1.1,0.6,0.9*2E
###2023-12-09 13:38:13.011065$GPGSV,2,1,08,03,25,245,40,04,48,307,45,16,68,224,46,26,82,040,48*75
###2023-12-09 13:38:13.013400$GPGSV,2,2,08,27,18,172,43,28,37,086,45,29,20,046,40,31,58,068,47*72
###2023-12-09 13:38:13.015748$GLGSV,2,1,06,65,39,317,42,71,21,175,45,72,61,219,45,73,21,053,41*60
###2023-12-09 13:38:13.017500$GLGSV,2,2,06,74,59,016,41,75,44,273,47,,,,,,,,*69
###2023-12-09 13:38:13.019847$GAGSV,1,1,04,04,41,309,44,19,70,181,41,21,75,045,46,27,21,050,40*60
###2023-12-09 13:38:13.022186$GBGSV,2,1,06,12,16,125,41,14,28,189,43,24,62,047,48,25,52,277,46*6C
###2023-12-09 13:38:13.023949$GBGSV,2,2,06,33,44,216,48,35,16,055,43,,,,,,,,*62
###2023-12-09 13:38:13.025278$GNVTG,358.81,T,,M,3.11,N,5.76,K,A*23
###2023-12-09 13:38:13.026913$GNGST,183812.10,6.000,,,,0.110,0.097,0.220*6F
###2023-12-09 13:38:13.028211$GNZDA,183812.10,09,12,2023,00,00*71
###2023-12-09 13:38:13.028850$GNEBP,,,,,,M*13
###2023-12-09 13:38:13.195715$GNGGA,183812.30,4138.0333666,N,07032.3929195,W,1,25,0.6,13.449,M,-29.745,M,0.0,*57
###2023-12-09 13:38:13.395604$GNGGA,183812.50,4138.0335303,N,07032.3929548,W,1,25,0.6,13.441,M,-29.745,M,0.0,*5D
###2023-12-09 13:38:13.596102$GNGGA,183812.70,4138.0336918,N,07032.3929913,W,1,25,0.6,13.429,M,-29.745,M,0.0,*50
###2023-12-09 13:38:13.796698$GNGGA,183812.90,4138.0338519,N,07032.3930177,W,1,25,0.6,13.423,M,-29.745,M,0.0,*55
###2023-12-09 13:38:13.999529$GNRMC,183813.10,A,4138.0340128,N,07032.3930593,W,2.99,347.32,091223,,,A*59
###2023-12-09 13:38:14.003116$GNGGA,183813.10,4138.0340128,N,07032.3930593,W,1,25,0.6,13.421,M,-29.745,M,0.0,*59
###2023-12-09 13:38:14.005371$GPGSA,A,3,03,04,16,26,27,28,29,31,,,,,1.0,0.6,0.8*3F
###2023-12-09 13:38:14.007454$GLGSA,A,3,65,71,72,73,74,75,,,,,,,1.0,0.6,0.8*24
###2023-12-09 13:38:14.009363$GAGSA,A,3,04,19,21,27,,,,,,,,,1.0,0.6,0.8*26
###2023-12-09 13:38:14.011480$GBGSA,A,3,12,14,24,25,33,35,,,,,,,1.0,0.6,0.8*2E
###2023-12-09 13:38:14.014294$GPGSV,2,1,08,03,25,245,38,04,48,307,45,16,68,224,46,26,82,040,48*7A
