###2023-12-09 12:52:40.953006$GNRMC,175240.10,A,4138.0642920,N,07032.3869910,W,1.65,74.69,091223,,,A*6C
###2023-12-09 12:52:40.955886$GNGGA,175240.10,4138.0642920,N,07032.3869910,W,1,24,0.6,13.140,M,-29.744,M,0.0,*53
###2023-12-09 12:52:40.957748$GPGSA,A,3,03,04,16,26,28,29,31,32,,,,,1.1,0.6,0.9*3B
###2023-12-09 12:52:40.959476$GLGSA,A,3,65,71,72,73,74,75,,,,,,,1.1,0.6,0.9*24
###2023-12-09 12:52:40.961058$GAGSA,A,3,04,19,21,27,,,,,,,,,1.1,0.6,0.9*26
###2023-12-09 12:52:40.962716$GBGSA,A,3,14,24,25,26,33,,,,,,,,1.1,0.6,0.9*2F
###2023-12-09 12:52:40.965051$GPGSV,2,1,08,03,37,267,44,04,29,311,40,16,45,210,46,26,75,209,47*77
###2023-12-09 12:52:40.967397$GPGSV,2,2,08,28,52,066,43,29,26,065,39,31,71,026,45,32,23,138,41*73
###2023-12-09 12:52:40.969726$GLGSV,2,1,06,65,19,329,41,71,47,171,46,72,72,288,46,73,40,038,43*6A
###2023-12-09 12:52:40.971484$GLGSV,2,2,06,74,71,321,42,75,28,248,44,,,,,,,,*66
###2023-12-09 12:52:40.973802$GAGSV,1,1,04,04,26,312,40,19,85,252,40,21,84,154,46,27,36,048,43*6A
###2023-12-09 12:52:40.976137$GBGSV,2,1,05,14,47,194,46,24,76,016,47,25,38,259,44,26,29,061,40*68
###2023-12-09 12:52:40.977590$GBGSV,2,2,05,33,60,240,46,,,,,,,,,,,,*5C
###2023-12-09 12:52:40.978900$GNVTG,74.69,T,,M,1.65,N,3.06,K,A*18
###2023-12-09 12:52:40.980540$GNGST,175240.10,18.000,,,,0.078,0.068,0.160*5C
###2023-12-09 12:52:40.981830$GNZDA,175240.10,09,12,2023,00,00*75
###2023-12-09 12:52:40.982469$GNEBP,,,,,,M*13
###2023-12-09 12:52:41.153114$GNGGA,175240.30,4138.0643404,N,07032.3868696,W,1,24,0.6,13.163,M,-29.744,M,0.0,*5A
###2023-12-09 12:52:41.352354$GNGGA,175240.50,4138.0643964,N,07032.3867198,W,1,24,0.6,13.151,M,-29.744,M,0.0,*50
###2023-12-09 12:52:41.552177$GNGGA,175240.70,4138.0644013,N,07032.3865686,W,1,24,0.6,13.138,M,-29.744,M,0.0,*59
###2023-12-09 12:52:41.752197$GNGGA,175240.90,4138.0643915,N,07032.3864285,W,1,24,0.6,13.148,M,-29.744,M,0.0,*5E
###2023-12-09 12:52:41.952970$GNRMC,175241.10,A,4138.0643923,N,07032.3862719,W,2.22,89.07,091223,,,A*69
###2023-12-09 12:52:41.955864$GNGGA,175241.10,4138.0643923,N,07032.3862719,W,1,24,0.6,13.158,M,-29.744,M,0.0,*55
###2023-12-09 12:52:41.957722$GPGSA,A,3,03,04,16,26,28,29,31,32,,,,,1.1,0.6,0.9*3B
###2023-12-09 12:52:41.959446$GLGSA,A,3,65,71,72,73,74,75,,,,,,,1.1,0.6,0.9*24
###2023-12-09 12:52:41.961033$GAGSA,A,3,04,19,21,27,,,,,,,,,1.1,0.6,0.9*26
###2023-12-09 12:52:41.962692$GBGSA,A,3,14,24,25,26,33,,,,,,,,1.1,0.6,0.9*2F
###2023-12-09 12:52:41.965015$GPGSV,2,1,08,03,37,267,45,04,29,311,42,16,45,210,46,26,75,209,48*7B
###2023-12-09 12:52:41.967369$GPGSV,2,2,08,28,52,066,45,29,26,065,42,31,71,026,46,32,23,138,40*7B
###2023-12-09 12:52:41.969716$GLGSV,2,1,06,65,19,329,42,71,47,171,46,72,72,288,46,73,40,038,44*6E
###2023-12-09 12:52:41.971473$GLGSV,2,2,06,74,71,321,42,75,28,248,43,,,,,,,,*61
###2023-12-09 12:52:41.973802$GAGSV,1,1,04,04,26,312,41,19,85,252,40,21,84,154,46,27,36,048,42*6A
###2023-12-09 12:52:41.976152$GBGSV,2,1,05,14,47,194,45,24,76,016,48,25,38,259,45,26,29,061,43*66
###2023-12-09 12:52:41.977610$GBGSV,2,2,05,33,60,240,48,,,,,,,,,,,,*52
###2023-12-09 12:52:41.978912$GNVTG,89.07,T,,M,2.22,N,4.10,K,A*12
###2023-12-09 12:52:41.980555$GNGST,175241.10,18.000,,,,0.078,0.069,0.160*5C
###2023-12-09 12:52:41.981845$GNZDA,175241.10,09,12,2023,00,00*74
###2023-12-09 12:52:41.982483$GNEBP,,,,,,M*13
###2023-12-09 12:52:42.152458$GNGGA,175241.30,4138.0643931,N,07032.3861063,W,1,24,0.6,13.147,M,-29.744,M,0.0,*53
###2023-12-09 12:52:42.352242$GNGGA,175241.50,4138.0643832,N,07032.3859452,W,1,24,0.6,13.138,M,-29.744,M,0.0,*52
###2023-12-09 12:52:42.552287$GNGGA,175241.70,4138.0643517,N,07032.3857894,W,1,24,0.6,13.142,M,-29.744,M,0.0,*5F
###2023-12-09 12:52:42.754274$GNGGA,175241.90,4138.0642998,N,07032.3856340,W,1,24,0.6,13.143,M,-29.744,M,0.0,*59
###2023-12-09 12:52:42.952704$GNRMC,175242.10,A,4138.0642496,N,07032.3854798,W,2.31,113.23,091223,,,A*52
###2023-12-09 12:52:42.955601$GNGGA,175242.10,4138.0642496,N,07032.3854798,W,1,24,0.6,13.138,M,-29.744,M,0.0,*5E
###2023-12-09 12:52:42.957460$GPGSA,A,3,03,04,16,26,28,29,31,32,,,,,1.1,0.6,0.9*3B
###2023-12-09 12:52:42.959197$GLGSA,A,3,65,71,72,73,74,75,,,,,,,1.1,0.6,0.9*24
###2023-12-09 12:52:42.960790$GAGSA,A,3,04,19,21,27,,,,,,,,,1.1,0.6,0.9*26
###2023-12-09 12:52:42.962438$GBGSA,A,3,14,24,25,26,33,,,,,,,,1.1,0.6,0.9*2F
###2023-12-09 12:52:42.964792$GPGSV,2,1,08,03,37,267,42,04,29,311,42,16,45,210,46,26,75,209,48*7C
###2023-12-09 12:52:42.967164$GPGSV,2,2,08,28,52,066,44,29,26,065,42,31,71,026,47,32,23,138,40*7B
###2023-12-09 12:52:42.969505$GLGSV,2,1,06,65,19,329,42,71,47,171,46,72,72,288,46,73,40,038,46*6C
###2023-12-09 12:52:42.971269$GLGSV,2,2,06,74,71,321,42,75,28,248,43,,,,,,,,*61
###2023-12-09 12:52:42.973615$GAGSV,1,1,04,04,26,312,41,19,85,252,40,21,84,154,45,27,36,048,43*68
###2023-12-09 12:52:42.975976$GBGSV,2,1,05,14,47,194,45,24,76,016,49,25,38,259,46,26,29,061,45*62
###2023-12-09 12:52:42.977444$GBGSV,2,2,05,33,60,240,48,,,,,,,,,,,,*52
###2023-12-09 12:52:42.978791$GNVTG,113.23,T,,M,2.31,N,4.28,K,A*2F
###2023-12-09 12:52:42.980454$GNGST,175242.10,18.000,,,,0.079,0.068,0.160*5F
###2023-12-09 12:52:42.981751$GNZDA,175242.10,09,12,2023,00,00*77
###2023-12-09 12:52:42.982392$GNEBP,,,,,,M*13
###2023-12-09 12:52:43.152321$GNGGA,175242.30,4138.0641991,N,07032.3853175,W,1,24,0.6,13.135,M,-29.744,M,0.0,*5A
###2023-12-09 12:52:43.353165$GNGGA,175242.50,4138.0641302,N,07032.3851701,W,1,24,0.6,13.130,M,-29.744,M,0.0,*5E
###2023-12-09 12:52:43.554406$GNGGA,175242.70,4138.0640422,N,07032.3850325,W,1,24,0.6,13.132,M,-29.744,M,0.0,*59
###2023-12-09 12:52:43.752388$GNGGA,175242.90,4138.0639517,N,07032.3849005,W,1,24,0.6,13.119,M,-29.744,M,0.0,*5E
###2023-12-09 12:52:43.953868$GNRMC,175243.10,A,4138.0638538,N,07032.3847857,W,2.51,142.51,091223,,,A*52
###2023-12-09 12:52:43.956766$GNGGA,175243.10,4138.0638538,N,07032.3847857,W,1,24,0.6,13.132,M,-29.744,M,0.0,*53
###2023-12-09 12:52:43.958649$GPGSA,A,3,03,04,16,26,28,29,31,32,,,,,1.1,0.6,0.9*3B
###2023-12-09 12:52:43.960363$GLGSA,A,3,65,71,72,73,74,75,,,,,,,1.1,0.6,0.9*24
###2023-12-09 12:52:43.961942$GAGSA,A,3,04,19,21,27,,,,,,,,,1.1,0.6,0.9*26
###2023-12-09 12:52:43.963603$GBGSA,A,3,14,24,25,26,33,,,,,,,,1.1,0.6,0.9*2F
###2023-12-09 12:52:43.965928$GPGSV,2,1,08,03,37,267,44,04,29,311,40,16,45,210,45,26,75,209,48*7B
###2023-12-09 12:52:43.968270$GPGSV,2,2,08,28,52,066,45,29,26,065,45,31,71,026,46,32,23,138,42*7E
###2023-12-09 12:52:43.970611$GLGSV,2,1,06,65,19,329,42,71,47,171,45,72,72,288,46,73,40,038,46*6F
###2023-12-09 12:52:43.972363$GLGSV,2,2,06,74,71,321,43,75,28,248,44,,,,,,,,*67
###2023-12-09 12:52:43.974693$GAGSV,1,1,04,04,26,312,40,19,85,252,40,21,84,154,45,27,36,048,43*69
###2023-12-09 12:52:43.977022$GBGSV,2,1,05,14,47,194,44,24,76,016,48,25,38,259,46,26,29,061,45*62
###2023-12-09 12:52:43.978471$GBGSV,2,2,05,33,60,238,48,,,,,,,,,,,,*5D
###2023-12-09 12:52:43.979802$GNVTG,142.51,T,,M,2.51,N,4.64,K,A*20
###2023-12-09 12:52:43.981449$GNGST,175243.10,18.000,,,,0.079,0.069,0.160*5F
###2023-12-09 12:52:43.982750$GNZDA,175243.10,09,12,2023,00,00*76
###2023-12-09 12:52:43.983389$GNEBP,,,,,,M*13
###2023-12-09 12:52:44.152270$GNGGA,175243.30,4138.0637392,N,07032.3846803,W,1,24,0.6,13.138,M,-29.744,M,0.0,*52
###2023-12-09 12:52:44.353351$GNGGA,175243.50,4138.0636221,N,07032.3845848,W,1,24,0.6,13.134,M,-29.744,M,0.0,*5C
###2023-12-09 12:52:44.553190$GNGGA,175243.70,4138.0634950,N,07032.3844999,W,1,24,0.6,13.138,M,-29.744,M,0.0,*51
###2023-12-09 12:52:44.753181$GNGGA,175243.90,4138.0633650,N,07032.3844227,W,1,24,0.6,13.145,M,-29.744,M,0.0,*53
###2023-12-09 12:52:44.958940$GNRMC,175244.10,A,4138.0632368,N,07032.3843426,W,2.68,156.63,091223,,,A*5C
###2023-12-09 12:52:44.961776$GNGGA,175244.10,4138.0632368,N,07032.3843426,W,1,24,0.6,13.148,M,-29.744,M,0.0,*5E
###2023-12-09 12:52:44.963640$GPGSA,A,3,03,04,16,26,28,29,31,32,,,,,1.1,0.6,0.9*3B
###2023-12-09 12:52:44.965341$GLGSA,A,3,65,71,72,73,74,75,,,,,,,1.1,0.6,0.9*24
###2023-12-09 12:52:44.966929$GAGSA,A,3,04,19,21,27,,,,,,,,,1.1,0.6,0.9*26
###2023-12-09 12:52:44.968567$GBGSA,A,3,14,24,25,26,33,,,,,,,,1.1,0.6,0.9*2F
###2023-12-09 12:52:44.970891$GPGSV,2,1,08,03,37,267,45,04,29,311,40,16,45,210,45,26,75,209,48*7A
###2023-12-09 12:52:44.973460$GPGSV,2,2,08,28,52,066,46,29,26,065,44,31,71,026,47,32,23,138,42*7D
###2023-12-09 12:52:44.975822$GLGSV,2,1,06,65,19,329,42,71,47,171,44,72,72,288,46,73,40,038,46*6E
###2023-12-09 12:52:44.977575$GLGSV,2,2,06,74,71,321,42,75,28,248,45,,,,,,,,*67
###2023-12-09 12:52:44.979909$GAGSV,1,1,04,04,26,312,41,19,85,252,40,21,84,154,45,27,36,048,44*6F
###2023-12-09 12:52:44.982236$GBGSV,2,1,05,14,47,194,43,24,76,016,48,25,38,259,46,26,29,061,44*64
###2023-12-09 12:52:44.983703$GBGSV,2,2,05,33,60,238,48,,,,,,,,,,,,*5D
###2023-12-09 12:52:44.985025$GNVTG,156.63,T,,M,2.68,N,4.97,K,A*22
###2023-12-09 12:52:44.986680$GNGST,175244.10,18.000,,,,0.080,0.068,0.160*5F
###2023-12-09 12:52:44.987969$GNZDA,175244.10,09,12,2023,00,00*71
