###2023-12-09 13:08:32.998235$GLGSV,2,1,06,65,26,326,41,71,37,173,46,72,72,258,46,73,33,043,44*6E
###2023-12-09 13:08:33.000030$GLGSV,2,2,06,74,68,345,42,75,34,256,46,,,,,,,,*6C
###2023-12-09 13:08:33.002367$GAGSV,1,1,04,04,31,312,41,19,82,199,41,21,85,085,46,27,31,048,43*64
###2023-12-09 13:08:33.004720$GBGSV,2,1,06,14,40,192,45,24,71,031,49,25,43,265,47,26,24,064,41*6C
###2023-12-09 13:08:33.006473$GBGSV,2,2,06,33,56,229,49,35,15,067,42,,,,,,,,*6F
###2023-12-09 13:08:33.007786$GNVTG,93.25,T,,M,3.60,N,6.66,K,A*1D
###2023-12-09 13:08:33.009429$GNGST,180832.10,18.000,,,,0.082,0.065,0.150*52
###2023-12-09 13:08:33.010725$GNZDA,180832.10,09,12,2023,00,00*70
###2023-12-09 13:08:33.011364$GNEBP,,,,,,M*13
###2023-12-09 13:08:33.172630$GNGGA,180832.30,4138.0835675,N,07032.2873515,W,1,25,0.6,13.150,M,-29.742,M,0.0,*50
###2023-12-09 13:08:33.372311$GNGGA,180832.50,4138.0835523,N,07032.2870851,W,1,25,0.6,13.134,M,-29.742,M,0.0,*5A
###2023-12-09 13:08:33.569895$GNGGA,180832.70,4138.0835460,N,07032.2868131,W,1,25,0.6,13.140,M,-29.742,M,0.0,*5B
###2023-12-09 13:08:33.769986$GNGGA,180832.90,4138.0835209,N,07032.2865437,W,1,25,0.6,13.129,M,-29.742,M,0.0,*5D
###2023-12-09 13:08:33.973187$GNRMC,180833.10,A,4138.0835003,N,07032.2862772,W,3.73,95.48,091223,,,A*67
###2023-12-09 13:08:33.976053$GNGGA,180833.10,4138.0835003,N,07032.2862772,W,1,25,0.6,13.132,M,-29.742,M,0.0,*53
###2023-12-09 13:08:33.977907$GPGSA,A,3,03,04,16,26,28,29,31,32,,,,,1.1,0.6,0.9*3B
###2023-12-09 13:08:33.979643$GLGSA,A,3,65,71,72,73,74,75,,,,,,,1.1,0.6,0.9*24
###2023-12-09 13:08:33.981230$GAGSA,A,3,04,19,21,27,,,,,,,,,1.1,0.6,0.9*26
###2023-12-09 13:08:33.982958$GBGSA,A,3,14,24,25,26,33,35,,,,,,,1.1,0.6,0.9*29
###2023-12-09 13:08:33.985289$GPGSV,2,1,08,03,34,258,45,04,35,311,43,16,53,214,48,26,83,210,48*74
###2023-12-09 13:08:33.987639$GPGSV,2,2,08,28,47,073,44,29,25,058,43,31,67,044,46,32,16,141,42*7F
###2023-12-09 13:08:33.989973$GLGSV,2,1,06,65,26,326,40,71,37,173,47,72,72,258,46,73,33,043,44*6E
###2023-12-09 13:08:33.991730$GLGSV,2,2,06,74,68,345,43,75,34,256,47,,,,,,,,*6C
###2023-12-09 13:08:33.994060$GAGSV,1,1,04,04,31,312,41,19,82,199,41,21,85,085,46,27,31,048,42*65
###2023-12-09 13:08:33.996405$GBGSV,2,1,06,14,40,192,45,24,71,031,48,25,43,265,47,26,24,064,42*6E
###2023-12-09 13:08:33.998150$GBGSV,2,2,06,33,56,229,49,35,15,067,42,,,,,,,,*6F
###2023-12-09 13:08:33.999455$GNVTG,95.48,T,,M,3.73,N,6.91,K,A*1A
###2023-12-09 13:08:34.001100$GNGST,180833.10,18.000,,,,0.081,0.065,0.150*50
###2023-12-09 13:08:34.002389$GNZDA,180833.10,09,12,2023,00,00*71
###2023-12-09 13:08:34.003038$GNEBP,,,,,,M*13
###2023-12-09 13:08:34.168924$GNGGA,180833.30,4138.0834799,N,07032.2860058,W,1,25,0.6,13.120,M,-29.742,M,0.0,*5A
###2023-12-09 13:08:34.369498$GNGGA,180833.50,4138.0834714,N,07032.2857468,W,1,25,0.6,13.118,M,-29.742,M,0.0,*51
###2023-12-09 13:08:34.569921$GNGGA,180833.70,4138.0834525,N,07032.2854873,W,1,25,0.6,13.139,M,-29.742,M,0.0,*55
###2023-12-09 13:08:34.769876$GNGGA,180833.90,4138.0834000,N,07032.2852153,W,1,25,0.6,13.118,M,-29.742,M,0.0,*57
###2023-12-09 13:08:34.975221$GNRMC,180834.10,A,4138.0833586,N,07032.2849545,W,3.42,94.01,091223,,,A*6F
###2023-12-09 13:08:34.978807$GNGGA,180834.10,4138.0833586,N,07032.2849545,W,1,25,0.6,13.077,M,-29.742,M,0.0,*55
###2023-12-09 13:08:34.981109$GPGSA,A,3,03,04,16,26,28,29,31,32,,,,,1.1,0.6,0.9*3B
###2023-12-09 13:08:34.983223$GLGSA,A,3,65,71,72,73,74,75,,,,,,,1.1,0.6,0.9*24
###2023-12-09 13:08:34.985152$GAGSA,A,3,04,19,21,27,,,,,,,,,1.1,0.6,0.9*26
###2023-12-09 13:08:34.987239$GBGSA,A,3,14,24,25,26,33,35,,,,,,,1.1,0.6,0.9*29
###2023-12-09 13:08:34.990058$GPGSV,2,1,08,03,34,258,45,04,35,311,41,16,53,214,48,26,83,210,48*76
###2023-12-09 13:08:34.992897$GPGSV,2,2,08,28,47,073,44,29,25,058,42,31,67,044,46,32,16,141,43*7F
###2023-12-09 13:08:34.995727$GLGSV,2,1,06,65,26,326,40,71,37,173,46,72,72,258,46,73,33,043,43*68
###2023-12-09 13:08:34.997847$GLGSV,2,2,06,74,68,345,43,75,34,256,48,,,,,,,,*63
###2023-12-09 13:08:35.000679$GAGSV,1,1,04,04,31,312,41,19,82,199,41,21,85,085,46,27,31,048,41*66
###2023-12-09 13:08:35.003543$GBGSV,2,1,06,14,40,192,46,24,71,031,48,25,43,265,47,26,24,064,42*6D
###2023-12-09 13:08:35.005664$GBGSV,2,2,06,33,56,229,49,35,15,067,41,,,,,,,,*6C
###2023-12-09 13:08:35.007237$GNVTG,94.01,T,,M,3.42,N,6.34,K,A*1B
###2023-12-09 13:08:35.009232$GNGST,180834.10,18.000,,,,0.081,0.065,0.150*57
###2023-12-09 13:08:35.010804$GNZDA,180834.10,09,12,2023,00,00*76
###2023-12-09 13:08:35.011571$GNEBP,,,,,,M*13
###2023-12-09 13:08:35.170721$GNGGA,180834.30,4138.0833780,N,07032.2847057,W,1,25,0.6,13.124,M,-29.742,M,0.0,*5C
###2023-12-09 13:08:35.370374$GNGGA,180834.50,4138.0833744,N,07032.2844337,W,1,25,0.6,13.154,M,-29.742,M,0.0,*53
###2023-12-09 13:08:35.570950$GNGGA,180834.70,4138.0833099,N,07032.2841659,W,1,25,0.6,13.084,M,-29.742,M,0.0,*52
###2023-12-09 13:08:35.770894$GNGGA,180834.90,4138.0832876,N,07032.2839157,W,1,25,0.6,13.078,M,-29.742,M,0.0,*51
###2023-12-09 13:08:35.973393$GNRMC,180835.10,A,4138.0833365,N,07032.2836554,W,3.69,77.64,091223,,,A*6A
###2023-12-09 13:08:35.976297$GNGGA,180835.10,4138.0833365,N,07032.2836554,W,1,25,0.6,13.145,M,-29.742,M,0.0,*57
###2023-12-09 13:08:35.978153$GPGSA,A,3,03,04,16,26,28,29,31,32,,,,,1.1,0.6,0.9*3B
###2023-12-09 13:08:35.979885$GLGSA,A,3,65,71,72,73,74,75,,,,,,,1.1,0.6,0.9*24
###2023-12-09 13:08:35.981472$GAGSA,A,3,04,19,21,27,,,,,,,,,1.1,0.6,0.9*26
###2023-12-09 13:08:35.983191$GBGSA,A,3,14,24,25,26,33,35,,,,,,,1.1,0.6,0.9*29
###2023-12-09 13:08:35.985519$GPGSV,2,1,08,03,34,258,44,04,35,311,45,16,53,214,46,26,83,210,48*7D
###2023-12-09 13:08:35.987869$GPGSV,2,2,08,28,47,073,42,29,25,058,41,31,67,044,46,32,16,141,40*79
###2023-12-09 13:08:35.990209$GLGSV,2,1,06,65,26,326,40,71,37,173,44,72,72,258,46,73,33,043,45*6C
###2023-12-09 13:08:35.991975$GLGSV,2,2,06,74,68,345,43,75,34,256,47,,,,,,,,*6C
###2023-12-09 13:08:35.994306$GAGSV,1,1,04,04,31,312,43,19,82,199,40,21,85,085,45,27,31,048,41*66
###2023-12-09 13:08:35.996656$GBGSV,2,1,06,14,40,192,44,24,71,031,49,25,43,265,47,26,24,064,42*6E
###2023-12-09 13:08:35.998405$GBGSV,2,2,06,33,55,228,48,35,15,067,43,,,,,,,,*6D
###2023-12-09 13:08:35.999708$GNVTG,77.64,T,,M,3.69,N,6.84,K,A*17
###2023-12-09 13:08:36.001359$GNGST,180835.10,18.000,,,,0.081,0.065,0.150*56
###2023-12-09 13:08:36.002661$GNZDA,180835.10,09,12,2023,00,00*77
###2023-12-09 13:08:36.003300$GNEBP,,,,,,M*13
###2023-12-09 13:08:36.169866$GNGGA,180835.30,4138.0833332,N,07032.2833811,W,1,25,0.6,13.131,M,-29.742,M,0.0,*5D
###2023-12-09 13:08:36.370339$GNGGA,180835.50,4138.0832639,N,07032.2831173,W,1,25,0.6,13.079,M,-29.742,M,0.0,*56
###2023-12-09 13:08:36.570807$GNGGA,180835.70,4138.0832436,N,07032.2828718,W,1,25,0.6,13.097,M,-29.742,M,0.0,*5A
###2023-12-09 13:08:36.770801$GNGGA,180835.90,4138.0832824,N,07032.2826089,W,1,25,0.6,13.139,M,-29.742,M,0.0,*5F
###2023-12-09 13:08:36.974633$GNRMC,180836.10,A,4138.0832557,N,07032.2823381,W,3.50,106.43,091223,,,A*5D
###2023-12-09 13:08:36.977501$GNGGA,180836.10,4138.0832557,N,07032.2823381,W,1,25,0.6,13.090,M,-29.742,M,0.0,*51
###2023-12-09 13:08:36.979360$GPGSA,A,3,03,04,16,26,28,29,31,32,,,,,1.1,0.6,0.9*3B
###2023-12-09 13:08:36.981070$GLGSA,A,3,65,71,72,73,74,75,,,,,,,1.1,0.6,0.9*24
###2023-12-09 13:08:36.982667$GAGSA,A,3,04,19,21,27,,,,,,,,,1.1,0.6,0.9*26
###2023-12-09 13:08:36.984375$GBGSA,A,3,14,24,25,26,33,35,,,,,,,1.1,0.6,0.9*29
###2023-12-09 13:08:36.986713$GPGSV,2,1,08,03,34,258,42,04,35,311,43,16,53,214,46,26,83,210,47*72
###2023-12-09 13:08:36.989045$GPGSV,2,2,08,28,47,073,44,29,25,058,44,31,67,044,47,32,16,141,40*7B
###2023-12-09 13:08:36.991406$GLGSV,2,1,06,65,26,326,42,71,37,173,45,72,72,258,46,73,33,043,45*6F
###2023-12-09 13:08:36.993160$GLGSV,2,2,06,74,68,345,42,75,34,256,45,,,,,,,,*6F
###2023-12-09 13:08:36.995495$GAGSV,1,1,04,04,31,312,42,19,82,199,40,21,85,085,46,27,31,048,44*61
###2023-12-09 13:08:36.997829$GBGSV,2,1,06,14,40,192,45,24,71,031,49,25,43,265,47,26,24,064,44*69
###2023-12-09 13:08:36.999582$GBGSV,2,2,06,33,55,228,48,35,15,066,44,,,,,,,,*6B
###2023-12-09 13:08:37.000901$GNVTG,106.43,T,,M,3.50,N,6.48,K,A*2F
###2023-12-09 13:08:37.002548$GNGST,180836.10,18.000,,,,0.081,0.065,0.150*55
###2023-12-09 13:08:37.004100$GNZDA,180836.10,09,12,2023,00,00*74
###2023-12-09 13:08:37.004746$GNEBP,,,,,,M*13
###2023-12-09 13:08:37.168860$GNGGA,180836.30,4138.0831997,N,07032.2821011,W,1,25,0.6,13.095,M,-29.742,M,0.0,*5D
###2023-12-09 13:08:37.370494$GNGGA,180836.50,4138.0831803,N,07032.2818506,W,1,25,0.6,13.149,M,-29.742,M,0.0,*5E
###2023-12-09 13:08:37.570832$GNGGA,180836.70,4138.0831684,N,07032.2815845,W,1,25,0.6,13.122,M,-29.742,M,0.0,*57
###2023-12-09 13:08:37.770918$GNGGA,180836.90,4138.0831494,N,07032.2813408,W,1,25,0.6,13.094,M,-29.742,M,0.0,*55
###2023-12-09 13:08:37.972667$GNRMC,180837.10,A,4138.0831375,N,07032.2810981,W,3.42,94.53,091223,,,A*6B
###2023-12-09 13:08:37.975535$GNGGA,180837.10,4138.0831375,N,07032.2810981,W,1,25,0.6,13.150,M,-29.742,M,0.0,*52
###2023-12-09 13:08:37.977393$GPGSA,A,3,03,04,16,26,28,29,31,32,,,,,1.1,0.6,0.9*3B
