###2023-12-09 13:13:51.998124$GLGSV,2,2,06,74,66,353,42,75,36,259,42,,,,,,,,*6C
###2023-12-09 13:13:52.000516$GAGSV,1,1,04,04,33,312,42,19,81,194,41,21,84,070,46,27,29,048,40*6A
###2023-12-09 13:13:52.002884$GBGSV,2,1,06,14,38,192,45,24,70,034,50,25,44,267,44,26,22,065,42*6D
###2023-12-09 13:13:52.004644$GBGSV,2,2,06,33,53,226,48,35,15,065,44,,,,,,,,*60
###2023-12-09 13:13:52.005972$GNVTG,278.97,T,,M,3.69,N,6.84,K,A*26
###2023-12-09 13:13:52.007632$GNGST,181351.10,18.000,,,,0.097,0.074,0.170*5B
###2023-12-09 13:13:52.008922$GNZDA,181351.10,09,12,2023,00,00*7F
###2023-12-09 13:13:52.009562$GNEBP,,,,,,M*13
###2023-12-09 13:13:52.174341$GNGGA,181351.30,4138.0450714,N,07032.2848731,W,1,24,0.7,12.990,M,-29.743,M,0.0,*5E
###2023-12-09 13:13:52.375601$GNGGA,181351.50,4138.0450918,N,07032.2851522,W,1,24,0.7,12.984,M,-29.743,M,0.0,*57
###2023-12-09 13:13:52.576522$GNGGA,181351.70,4138.0451132,N,07032.2854317,W,1,24,0.7,12.990,M,-29.743,M,0.0,*54
###2023-12-09 13:13:52.775333$GNGGA,181351.90,4138.0451197,N,07032.2857109,W,1,24,0.7,12.977,M,-29.743,M,0.0,*52
###2023-12-09 13:13:52.978633$GNRMC,181352.10,A,4138.0451068,N,07032.2859868,W,3.75,267.28,091223,,,A*5A
###2023-12-09 13:13:52.981499$GNGGA,181352.10,4138.0451068,N,07032.2859868,W,1,24,0.7,12.975,M,-29.743,M,0.0,*5A
###2023-12-09 13:13:52.983307$GPGSA,A,3,03,04,16,26,28,29,31,,,,,,1.2,0.7,1.0*30
###2023-12-09 13:13:52.985024$GLGSA,A,3,65,71,72,73,74,75,,,,,,,1.2,0.7,1.0*2E
###2023-12-09 13:13:52.986617$GAGSA,A,3,04,19,21,27,,,,,,,,,1.2,0.7,1.0*2C
###2023-12-09 13:13:52.988330$GBGSA,A,3,14,24,25,26,33,35,,,,,,,1.2,0.7,1.0*23
###2023-12-09 13:13:52.990681$GPGSV,2,1,07,03,32,255,42,04,38,311,42,16,56,215,47,26,86,209,48*7D
###2023-12-09 13:13:52.992736$GPGSV,2,2,07,28,45,076,45,29,24,055,40,31,65,050,47,,,,*4B
###2023-12-09 13:13:52.995091$GLGSV,2,1,06,65,29,325,41,71,34,174,47,72,71,246,45,73,31,045,44*6C
###2023-12-09 13:13:52.996850$GLGSV,2,2,06,74,66,353,42,75,36,259,43,,,,,,,,*6D
###2023-12-09 13:13:52.999195$GAGSV,1,1,04,04,33,312,41,19,81,194,40,21,84,070,46,27,29,048,40*68
###2023-12-09 13:13:53.001536$GBGSV,2,1,06,14,38,192,43,24,70,034,49,25,44,267,43,26,22,065,42*64
###2023-12-09 13:13:53.003307$GBGSV,2,2,06,33,53,226,47,35,15,065,45,,,,,,,,*6E
###2023-12-09 13:13:53.004637$GNVTG,267.28,T,,M,3.75,N,6.95,K,A*21
###2023-12-09 13:13:53.006292$GNGST,181352.10,18.000,,,,0.097,0.074,0.170*58
###2023-12-09 13:13:53.007604$GNZDA,181352.10,09,12,2023,00,00*7C
###2023-12-09 13:13:53.008245$GNEBP,,,,,,M*13
###2023-12-09 13:13:53.174387$GNGGA,181352.30,4138.0451060,N,07032.2862628,W,1,24,0.7,12.990,M,-29.743,M,0.0,*59
###2023-12-09 13:13:53.374982$GNGGA,181352.50,4138.0451102,N,07032.2865369,W,1,24,0.7,13.004,M,-29.743,M,0.0,*58
###2023-12-09 13:13:53.576348$GNGGA,181352.70,4138.0450789,N,07032.2868050,W,1,24,0.7,12.978,M,-29.743,M,0.0,*59
###2023-12-09 13:13:53.776304$GNGGA,181352.90,4138.0450483,N,07032.2870715,W,1,24,0.7,12.956,M,-29.743,M,0.0,*5D
###2023-12-09 13:13:53.978692$GNRMC,181353.10,A,4138.0450705,N,07032.2873507,W,3.89,277.26,091223,,,A*56
###2023-12-09 13:13:53.981564$GNGGA,181353.10,4138.0450705,N,07032.2873507,W,1,24,0.7,12.993,M,-29.743,M,0.0,*52
###2023-12-09 13:13:53.983370$GPGSA,A,3,03,04,16,26,28,29,31,,,,,,1.2,0.7,1.0*30
###2023-12-09 13:13:53.985084$GLGSA,A,3,65,71,72,73,74,75,,,,,,,1.2,0.7,1.0*2E
###2023-12-09 13:13:53.986685$GAGSA,A,3,04,19,21,27,,,,,,,,,1.2,0.7,1.0*2C
###2023-12-09 13:13:53.988397$GBGSA,A,3,14,24,25,26,33,35,,,,,,,1.2,0.7,1.0*23
###2023-12-09 13:13:53.990730$GPGSV,2,1,07,03,32,255,41,04,38,311,44,16,56,215,46,26,86,209,48*79
###2023-12-09 13:13:53.992772$GPGSV,2,2,07,28,45,076,46,29,24,055,42,31,65,050,47,,,,*4A
###2023-12-09 13:13:53.995113$GLGSV,2,1,06,65,29,325,41,71,34,174,46,72,71,246,46,73,31,045,43*69
###2023-12-09 13:13:53.996868$GLGSV,2,2,06,74,66,353,42,75,36,259,42,,,,,,,,*6C
###2023-12-09 13:13:53.999207$GAGSV,1,1,04,04,33,312,40,19,81,194,40,21,84,070,45,27,29,048,40*6A
###2023-12-09 13:13:54.001527$GBGSV,2,1,06,14,38,192,43,24,70,034,49,25,44,267,43,26,22,065,43*65
###2023-12-09 13:13:54.003285$GBGSV,2,2,06,33,53,226,47,35,15,065,44,,,,,,,,*6F
###2023-12-09 13:13:54.004607$GNVTG,277.26,T,,M,3.89,N,7.20,K,A*22
###2023-12-09 13:13:54.006250$GNGST,181353.10,18.000,,,,0.096,0.074,0.170*58
###2023-12-09 13:13:54.007558$GNZDA,181353.10,09,12,2023,00,00*7D
###2023-12-09 13:13:54.008197$GNEBP,,,,,,M*13
###2023-12-09 13:13:54.175362$GNGGA,181353.30,4138.0450725,N,07032.2876298,W,1,24,0.7,13.000,M,-29.743,M,0.0,*54
###2023-12-09 13:13:54.375634$GNGGA,181353.50,4138.0450312,N,07032.2879000,W,1,24,0.7,12.970,M,-29.743,M,0.0,*51
###2023-12-09 13:13:54.575418$GNGGA,181353.70,4138.0450121,N,07032.2881817,W,1,24,0.7,12.969,M,-29.743,M,0.0,*50
###2023-12-09 13:13:54.775272$GNGGA,181353.90,4138.0450401,N,07032.2884765,W,1,24,0.7,12.991,M,-29.743,M,0.0,*51
###2023-12-09 13:13:54.979369$GNRMC,181354.10,A,4138.0450543,N,07032.2887688,W,3.91,267.40,091223,,,A*56
###2023-12-09 13:13:54.982224$GNGGA,181354.10,4138.0450543,N,07032.2887688,W,1,24,0.7,12.981,M,-29.743,M,0.0,*59
###2023-12-09 13:13:54.984044$GPGSA,A,3,03,04,16,26,28,29,31,,,,,,1.2,0.7,1.0*30
###2023-12-09 13:13:54.985754$GLGSA,A,3,65,71,72,73,74,75,,,,,,,1.2,0.7,1.0*2E
###2023-12-09 13:13:54.987341$GAGSA,A,3,04,19,21,27,,,,,,,,,1.2,0.7,1.0*2C
###2023-12-09 13:13:54.989046$GBGSA,A,3,14,24,25,26,33,35,,,,,,,1.2,0.7,1.0*23
###2023-12-09 13:13:54.991377$GPGSV,2,1,07,03,32,255,41,04,38,311,43,16,56,215,45,26,86,209,47*72
###2023-12-09 13:13:54.993408$GPGSV,2,2,07,28,45,076,46,29,24,055,43,31,65,050,47,,,,*4B
###2023-12-09 13:13:54.995748$GLGSV,2,1,06,65,29,325,41,71,34,174,45,72,71,246,44,73,31,045,45*6E
###2023-12-09 13:13:54.997500$GLGSV,2,2,06,74,66,353,43,75,36,259,42,,,,,,,,*6D
###2023-12-09 13:13:54.999845$GAGSV,1,1,04,04,33,312,41,19,81,194,40,21,84,070,45,27,29,048,40*6B
###2023-12-09 13:13:55.002180$GBGSV,2,1,06,14,38,192,42,24,70,034,49,25,44,267,43,26,22,065,44*63
###2023-12-09 13:13:55.003945$GBGSV,2,2,06,33,53,226,47,35,15,065,44,,,,,,,,*6F
###2023-12-09 13:13:55.005269$GNVTG,267.40,T,,M,3.91,N,7.24,K,A*2E
###2023-12-09 13:13:55.006929$GNGST,181354.10,18.000,,,,0.097,0.074,0.170*5E
###2023-12-09 13:13:55.008219$GNZDA,181354.10,09,12,2023,00,00*7A
###2023-12-09 13:13:55.008858$GNEBP,,,,,,M*13
###2023-12-09 13:13:55.174315$GNGGA,181354.30,4138.0450378,N,07032.2890518,W,1,24,0.7,12.967,M,-29.743,M,0.0,*51
###2023-12-09 13:13:55.375474$GNGGA,181354.50,4138.0450365,N,07032.2893355,W,1,24,0.7,12.956,M,-29.743,M,0.0,*55
###2023-12-09 13:13:55.583292$GNGGA,181354.70,4138.0450689,N,07032.2896184,W,1,24,0.7,12.960,M,-29.743,M,0.0,*5E
###2023-12-09 13:13:55.775340$GNGGA,181354.90,4138.0451060,N,07032.2898966,W,1,24,0.7,12.955,M,-29.743,M,0.0,*5C
###2023-12-09 13:13:55.980958$GNRMC,181355.10,A,4138.0451328,N,07032.2901732,W,3.77,274.30,091223,,,A*5F
###2023-12-09 13:13:55.983845$GNGGA,181355.10,4138.0451328,N,07032.2901732,W,1,24,0.7,12.959,M,-29.743,M,0.0,*58
###2023-12-09 13:13:55.985634$GPGSA,A,3,03,04,16,26,28,29,31,,,,,,1.2,0.7,1.0*30
###2023-12-09 13:13:55.987366$GLGSA,A,3,65,71,72,73,74,75,,,,,,,1.2,0.7,1.0*2E
###2023-12-09 13:13:55.988948$GAGSA,A,3,04,19,21,27,,,,,,,,,1.2,0.7,1.0*2C
###2023-12-09 13:13:55.990669$GBGSA,A,3,14,24,25,26,33,35,,,,,,,1.2,0.7,1.0*23
###2023-12-09 13:13:55.992994$GPGSV,2,1,07,03,32,255,40,04,38,311,43,16,56,215,45,26,86,209,48*7C
###2023-12-09 13:13:55.995046$GPGSV,2,2,07,28,45,076,45,29,24,055,43,31,65,050,47,,,,*48
###2023-12-09 13:13:55.997373$GLGSV,2,1,06,65,29,325,40,71,34,174,46,72,71,246,46,73,31,045,44*6F
###2023-12-09 13:13:55.999132$GLGSV,2,2,06,74,66,353,42,75,36,259,42,,,,,,,,*6C
###2023-12-09 13:13:56.001452$GAGSV,1,1,04,04,33,312,40,19,81,194,40,21,84,070,46,27,29,048,40*69
###2023-12-09 13:13:56.003796$GBGSV,2,1,06,14,38,192,43,24,70,034,48,25,44,267,42,26,22,065,42*64
###2023-12-09 13:13:56.005550$GBGSV,2,2,06,33,53,226,46,35,15,065,42,,,,,,,,*68
###2023-12-09 13:13:56.006889$GNVTG,274.30,T,,M,3.77,N,6.98,K,A*25
###2023-12-09 13:13:56.008533$GNGST,181355.10,18.000,,,,0.097,0.074,0.170*5F
###2023-12-09 13:13:56.009821$GNZDA,181355.10,09,12,2023,00,00*7B
###2023-12-09 13:13:56.010458$GNEBP,,,,,,M*13
###2023-12-09 13:13:56.175970$GNGGA,181355.30,4138.0451498,N,07032.2904503,W,1,24,0.7,12.952,M,-29.743,M,0.0,*58
###2023-12-09 13:13:56.377000$GNGGA,181355.50,4138.0451837,N,07032.2907281,W,1,24,0.7,12.945,M,-29.743,M,0.0,*5F
###2023-12-09 13:13:56.578207$GNGGA,181355.70,4138.0452288,N,07032.2910066,W,1,24,0.7,12.945,M,-29.743,M,0.0,*5D
###2023-12-09 13:13:56.777516$GNGGA,181355.90,4138.0452627,N,07032.2912879,W,1,24,0.7,12.944,M,-29.743,M,0.0,*57
###2023-12-09 13:13:56.993169$GNRMC,181356.10,A,4138.0452731,N,07032.2915654,W,3.73,270.68,091223,,,A*5A
###2023-12-09 13:13:56.996038$GNGGA,181356.10,4138.0452731,N,07032.2915654,W,1,24,0.7,12.945,M,-29.743,M,0.0,*5D
###2023-12-09 13:13:56.997831$GPGSA,A,3,03,04,16,26,28,29,31,,,,,,1.2,0.7,1.0*30
###2023-12-09 13:13:56.999560$GLGSA,A,3,65,71,72,73,74,75,,,,,,,1.2,0.7,1.0*2E
