###2023-12-09 13:33:57.011689$GAGSA,A,3,04,19,21,27,,,,,,,,,1.1,0.6,0.9*26
###2023-12-09 13:33:57.013507$GBGSA,A,3,12,14,24,25,26,33,35,,,,,,1.1,0.6,0.9*2A
###2023-12-09 13:33:57.015869$GPGSV,2,1,07,03,27,247,41,04,46,308,45,16,66,222,47,26,84,040,48*75
###2023-12-09 13:33:57.017928$GPGSV,2,2,07,28,38,084,44,29,21,047,42,31,59,066,45,,,,*41
###2023-12-09 13:33:57.020277$GLGSV,2,1,06,65,38,319,44,72,63,222,46,73,23,052,45,74,60,013,43*60
###2023-12-09 13:33:57.022029$GLGSV,2,2,06,75,43,271,46,83,15,048,35,,,,,,,,*65
###2023-12-09 13:33:57.024376$GAGSV,1,1,04,04,40,310,45,19,73,182,41,21,77,047,46,27,23,050,42*68
###2023-12-09 13:33:57.026727$GBGSV,2,1,07,12,15,126,38,14,29,190,37,24,63,045,48,25,50,275,48*64
###2023-12-09 13:33:57.028774$GBGSV,2,2,07,26,16,070,44,33,46,217,47,35,16,057,43,,,,*59
###2023-12-09 13:33:57.030101$GNVTG,141.61,T,,M,3.19,N,5.90,K,A*27
###2023-12-09 13:33:57.031727$GNGST,183356.10,5.700,,,,0.098,0.068,0.150*65
###2023-12-09 13:33:57.033023$GNZDA,183356.10,09,12,2023,00,00*7A
###2023-12-09 13:33:57.033666$GNEBP,,,,,,M*13
###2023-12-09 13:33:57.203938$GNGGA,183356.30,4138.0406092,N,07032.4157037,W,1,25,0.6,13.512,M,-29.745,M,0.0,*50
###2023-12-09 13:33:57.392707$GNGGA,183356.50,4138.0405085,N,07032.4155405,W,1,25,0.6,13.514,M,-29.745,M,0.0,*52
###2023-12-09 13:33:57.592841$GNGGA,183356.70,4138.0403997,N,07032.4153795,W,1,25,0.6,13.535,M,-29.745,M,0.0,*53
###2023-12-09 13:33:57.796424$GNGGA,183356.90,4138.0402833,N,07032.4152187,W,1,26,0.6,13.526,M,-29.745,M,0.0,*56
###2023-12-09 13:33:58.000649$GNRMC,183357.10,A,4138.0401869,N,07032.4150535,W,2.64,123.39,091223,,,A*50
###2023-12-09 13:33:58.004119$GNGGA,183357.10,4138.0401869,N,07032.4150535,W,1,26,0.6,13.530,M,-29.745,M,0.0,*5B
###2023-12-09 13:33:58.006283$GPGSA,A,3,03,04,16,26,28,29,31,,,,,,1.0,0.6,0.9*3B
###2023-12-09 13:33:58.008437$GLGSA,A,3,65,71,72,73,74,75,83,,,,,,1.0,0.6,0.9*2E
###2023-12-09 13:33:58.010347$GAGSA,A,3,04,19,21,27,,,,,,,,,1.0,0.6,0.9*27
###2023-12-09 13:33:58.012494$GBGSA,A,3,12,14,24,25,26,33,35,,,,,,1.0,0.6,0.9*2B
###2023-12-09 13:33:58.015305$GPGSV,2,1,07,03,27,247,40,04,46,308,45,16,66,222,46,26,84,040,48*75
###2023-12-09 13:33:58.017757$GPGSV,2,2,07,28,38,084,44,29,21,047,43,31,59,066,46,,,,*43
###2023-12-09 13:33:58.020604$GLGSV,2,1,07,65,38,319,42,71,23,175,38,72,63,222,46,73,23,052,45*68
###2023-12-09 13:33:58.023067$GLGSV,2,2,07,74,60,013,42,75,43,271,47,83,15,048,35,,,,*54
###2023-12-09 13:33:58.025887$GAGSV,1,1,04,04,40,310,44,19,73,182,41,21,77,047,46,27,23,050,43*68
###2023-12-09 13:33:58.028705$GBGSV,2,1,07,12,15,126,39,14,29,190,39,24,63,045,48,25,50,275,47*64
###2023-12-09 13:33:58.031160$GBGSV,2,2,07,26,16,070,44,33,46,217,49,35,16,057,44,,,,*50
###2023-12-09 13:33:58.032752$GNVTG,123.39,T,,M,2.64,N,4.90,K,A*24
###2023-12-09 13:33:58.034731$GNGST,183357.10,6.000,,,,0.100,0.068,0.150*60
###2023-12-09 13:33:58.036285$GNZDA,183357.10,09,12,2023,00,00*7B
###2023-12-09 13:33:58.037052$GNEBP,,,,,,M*13
###2023-12-09 13:33:58.196221$GNGGA,183357.30,4138.0400982,N,07032.4148793,W,1,26,0.6,13.543,M,-29.745,M,0.0,*5F
###2023-12-09 13:33:58.396233$GNGGA,183357.50,4138.0400169,N,07032.4147005,W,1,25,0.6,13.530,M,-29.745,M,0.0,*54
###2023-12-09 13:33:58.595058$GNGGA,183357.70,4138.0399434,N,07032.4145292,W,1,25,0.6,13.535,M,-29.745,M,0.0,*57
###2023-12-09 13:33:58.796948$GNGGA,183357.90,4138.0398672,N,07032.4143498,W,1,26,0.6,13.547,M,-29.745,M,0.0,*54
###2023-12-09 13:33:59.001346$GNRMC,183358.10,A,4138.0398012,N,07032.4141650,W,2.59,112.47,091223,,,A*59
###2023-12-09 13:33:59.004806$GNGGA,183358.10,4138.0398012,N,07032.4141650,W,1,25,0.6,13.550,M,-29.745,M,0.0,*52
###2023-12-09 13:33:59.006977$GPGSA,A,3,03,04,16,26,28,29,31,,,,,,1.1,0.6,0.9*3A
###2023-12-09 13:33:59.009110$GLGSA,A,3,65,71,72,73,74,75,83,,,,,,1.1,0.6,0.9*2F
###2023-12-09 13:33:59.011026$GAGSA,A,3,04,19,21,27,,,,,,,,,1.1,0.6,0.9*26
###2023-12-09 13:33:59.013154$GBGSA,A,3,12,14,24,25,26,33,35,,,,,,1.1,0.6,0.9*2A
###2023-12-09 13:33:59.015965$GPGSV,2,1,07,03,27,247,41,04,46,308,44,16,66,222,46,26,84,040,47*7A
###2023-12-09 13:33:59.018411$GPGSV,2,2,07,28,38,084,41,29,21,047,43,31,59,066,46,,,,*46
###2023-12-09 13:33:59.021219$GLGSV,2,1,07,65,38,319,43,71,23,175,36,72,63,222,46,73,23,052,44*66
###2023-12-09 13:33:59.023661$GLGSV,2,2,07,74,60,013,42,75,43,271,48,83,15,048,36,,,,*58
###2023-12-09 13:33:59.026456$GAGSV,1,1,04,04,40,310,43,19,72,181,41,21,77,047,45,27,23,050,42*6F
###2023-12-09 13:33:59.029271$GBGSV,2,1,07,12,15,126,39,14,29,190,37,24,63,045,47,25,50,275,47*65
###2023-12-09 13:33:59.031741$GBGSV,2,2,07,26,16,070,42,33,46,217,48,35,16,057,43,,,,*50
###2023-12-09 13:33:59.033369$GNVTG,112.47,T,,M,2.59,N,4.79,K,A*26
###2023-12-09 13:33:59.035336$GNGST,183358.10,6.200,,,,0.100,0.069,0.160*6F
###2023-12-09 13:33:59.036898$GNZDA,183358.10,09,12,2023,00,00*74
###2023-12-09 13:33:59.037670$GNEBP,,,,,,M*13
###2023-12-09 13:33:59.201080$GNGGA,183358.30,4138.0397528,N,07032.4139860,W,1,25,0.6,13.550,M,-29.745,M,0.0,*51
###2023-12-09 13:33:59.397717$GNGGA,183358.50,4138.0397104,N,07032.4138041,W,1,26,0.6,13.567,M,-29.745,M,0.0,*50
###2023-12-09 13:33:59.595571$GNGGA,183358.70,4138.0396689,N,07032.4136196,W,1,26,0.6,13.572,M,-29.745,M,0.0,*50
###2023-12-09 13:33:59.797476$GNGGA,183358.90,4138.0396306,N,07032.4134397,W,1,26,0.6,13.570,M,-29.745,M,0.0,*5F
###2023-12-09 13:33:59.997875$GNRMC,183359.10,A,4138.0396003,N,07032.4132600,W,2.45,99.76,091223,,,A*6A
###2023-12-09 13:34:00.001333$GNGGA,183359.10,4138.0396003,N,07032.4132600,W,1,25,0.6,13.582,M,-29.745,M,0.0,*53
###2023-12-09 13:34:00.003512$GPGSA,A,3,03,04,16,26,28,29,31,,,,,,1.0,0.6,0.9*3B
###2023-12-09 13:34:00.005580$GLGSA,A,3,65,71,72,73,74,75,,,,,,,1.0,0.6,0.9*25
###2023-12-09 13:34:00.007508$GAGSA,A,3,04,19,21,27,,,,,,,,,1.0,0.6,0.9*27
###2023-12-09 13:34:00.009649$GBGSA,A,3,12,14,24,25,26,33,35,,,,,,1.0,0.6,0.9*2B
###2023-12-09 13:34:00.012486$GPGSV,2,1,07,03,27,247,41,04,46,308,45,16,66,222,47,26,84,040,48*75
###2023-12-09 13:34:00.014963$GPGSV,2,2,07,28,38,084,41,29,21,047,42,31,59,066,46,,,,*47
###2023-12-09 13:34:00.017789$GLGSV,2,1,06,65,38,319,43,71,23,175,42,72,63,222,46,73,23,052,40*60
###2023-12-09 13:34:00.019912$GLGSV,2,2,06,74,60,013,42,75,43,271,48,,,,,,,,*6F
###2023-12-09 13:34:00.022731$GAGSV,1,1,04,04,40,310,44,19,72,181,41,21,77,046,46,27,23,050,39*66
###2023-12-09 13:34:00.025577$GBGSV,2,1,07,12,15,126,40,14,29,190,41,24,63,045,48,25,50,275,47*65
###2023-12-09 13:34:00.028046$GBGSV,2,2,07,26,16,070,41,33,46,217,47,35,16,057,43,,,,*5C
###2023-12-09 13:34:00.029610$GNVTG,99.76,T,,M,2.45,N,4.54,K,A*14
###2023-12-09 13:34:00.031578$GNGST,183359.10,6.000,,,,0.100,0.069,0.160*6C
###2023-12-09 13:34:00.033136$GNZDA,183359.10,09,12,2023,00,00*75
###2023-12-09 13:34:00.033905$GNEBP,,,,,,M*13
###2023-12-09 13:34:00.197449$GNGGA,183359.30,4138.0395850,N,07032.4130790,W,1,25,0.6,13.583,M,-29.745,M,0.0,*57
###2023-12-09 13:34:00.395855$GNGGA,183359.50,4138.0395743,N,07032.4129080,W,1,24,0.6,13.587,M,-29.745,M,0.0,*57
###2023-12-09 13:34:00.594964$GNGGA,183359.70,4138.0395715,N,07032.4127384,W,1,24,0.6,13.605,M,-29.745,M,0.0,*56
###2023-12-09 13:34:00.796439$GNGGA,183359.90,4138.0395673,N,07032.4125597,W,1,24,0.6,13.607,M,-29.745,M,0.0,*5D
###2023-12-09 13:34:00.998663$GNRMC,183400.10,A,4138.0395759,N,07032.4123991,W,2.00,78.59,091223,,,A*6E
###2023-12-09 13:34:01.002108$GNGGA,183400.10,4138.0395759,N,07032.4123991,W,1,24,0.6,13.614,M,-29.745,M,0.0,*59
###2023-12-09 13:34:01.004280$GPGSA,A,3,03,04,16,26,28,29,31,,,,,,1.1,0.6,0.9*3A
###2023-12-09 13:34:01.006347$GLGSA,A,3,65,71,72,73,74,75,,,,,,,1.1,0.6,0.9*24
###2023-12-09 13:34:01.008260$GAGSA,A,3,04,19,21,27,,,,,,,,,1.1,0.6,0.9*26
###2023-12-09 13:34:01.010398$GBGSA,A,3,12,14,24,25,26,33,35,,,,,,1.1,0.6,0.9*2A
###2023-12-09 13:34:01.013210$GPGSV,2,1,07,03,27,247,43,04,46,308,44,16,66,222,47,26,84,040,48*76
###2023-12-09 13:34:01.015682$GPGSV,2,2,07,28,38,084,42,29,21,047,41,31,59,066,45,,,,*44
###2023-12-09 13:34:01.018516$GLGSV,2,1,06,65,38,319,44,71,23,175,45,72,63,222,47,73,23,052,41*60
###2023-12-09 13:34:01.020635$GLGSV,2,2,06,74,60,013,42,75,43,271,46,,,,,,,,*61
###2023-12-09 13:34:01.024281$GAGSV,1,1,04,04,40,310,44,19,72,181,41,21,77,046,46,27,23,050,39*66
###2023-12-09 13:34:01.026669$GBGSV,2,1,07,12,15,126,41,14,29,190,41,24,63,045,48,25,50,275,48*6B
###2023-12-09 13:34:01.028732$GBGSV,2,2,07,26,16,070,42,33,46,217,49,35,16,057,43,,,,*51
###2023-12-09 13:34:01.030038$GNVTG,78.59,T,,M,2.00,N,3.71,K,A*17
###2023-12-09 13:34:01.031670$GNGST,183400.10,6.100,,,,0.100,0.069,0.160*66
###2023-12-09 13:34:01.032961$GNZDA,183400.10,09,12,2023,00,00*7E
###2023-12-09 13:34:01.033602$GNEBP,,,,,,M*13
###2023-12-09 13:34:01.197336$GNGGA,183400.30,4138.0395976,N,07032.4122414,W,1,24,0.6,13.629,M,-29.745,M,0.0,*57
###2023-12-09 13:34:01.394767$GNGGA,183400.50,4138.0396177,N,07032.4120737,W,1,24,0.6,13.627,M,-29.745,M,0.0,*55
###2023-12-09 13:34:01.593631$GNGGA,183400.70,4138.0396404,N,07032.4119177,W,1,24,0.6,13.627,M,-29.745,M,0.0,*5E
