###2023-12-09 13:48:07.018702$GBGSA,A,3,12,24,25,35,,,,,,,,,1.3,0.8,1.1*2E
###2023-12-09 13:48:07.021045$GPGSV,2,1,06,04,51,304,49,16,73,229,41,26,77,041,44,28,33,090,43*7C
###2023-12-09 13:48:07.022808$GPGSV,2,2,06,29,17,042,43,31,55,075,49,,,,,,,,*7E
###2023-12-09 13:48:07.025133$GLGSV,1,1,04,65,43,312,44,73,17,056,44,74,55,024,36,75,47,280,48*63
###2023-12-09 13:48:07.027174$GAGSV,1,1,03,04,44,307,45,21,72,043,40,27,18,051,39,,,,*5D
###2023-12-09 13:48:07.029493$GBGSV,1,1,04,12,19,122,39,24,58,052,45,25,54,282,45,35,16,051,37*6C
###2023-12-09 13:48:07.030835$GNVTG,243.17,T,,M,0.02,N,0.04,K,A*26
###2023-12-09 13:48:07.032454$GNGST,184806.10,7.300,,,,0.210,0.120,0.320*60
###2023-12-09 13:48:07.033742$GNZDA,184806.10,09,12,2023,00,00*73
###2023-12-09 13:48:07.034383$GNEBP,,,,,,M*13
###2023-12-09 13:48:07.207580$GNGGA,184806.30,4138.0390771,N,07032.4383143,W,1,17,0.8,15.472,M,-29.746,M,0.0,*5F
###2023-12-09 13:48:07.407292$GNGGA,184806.50,4138.0390767,N,07032.4383136,W,1,17,0.8,15.477,M,-29.746,M,0.0,*59
###2023-12-09 13:48:07.605625$GNGGA,184806.70,4138.0390759,N,07032.4383124,W,1,17,0.8,15.479,M,-29.746,M,0.0,*5B
###2023-12-09 13:48:07.807199$GNGGA,184806.90,4138.0390733,N,07032.4383127,W,1,17,0.8,15.476,M,-29.746,M,0.0,*55
###2023-12-09 13:48:08.008536$GNRMC,184807.10,A,4138.0390731,N,07032.4383118,W,0.04,243.17,091223,,,A*5E
###2023-12-09 13:48:08.011392$GNGGA,184807.10,4138.0390731,N,07032.4383118,W,1,17,0.8,15.476,M,-29.746,M,0.0,*52
###2023-12-09 13:48:08.013112$GPGSA,A,3,04,16,26,28,29,31,,,,,,,1.3,0.8,1.1*3C
###2023-12-09 13:48:08.014698$GLGSA,A,3,65,73,74,75,,,,,,,,,1.3,0.8,1.1*22
###2023-12-09 13:48:08.016209$GAGSA,A,3,04,21,27,,,,,,,,,,1.3,0.8,1.1*2B
###2023-12-09 13:48:08.017778$GBGSA,A,3,12,24,25,35,,,,,,,,,1.3,0.8,1.1*2E
###2023-12-09 13:48:08.020107$GPGSV,2,1,06,04,51,304,49,16,73,229,41,26,77,041,44,28,33,090,43*7C
###2023-12-09 13:48:08.021847$GPGSV,2,2,06,29,17,042,43,31,55,075,49,,,,,,,,*7E
###2023-12-09 13:48:08.024170$GLGSV,1,1,04,65,43,312,44,73,17,056,45,74,55,024,36,75,47,280,48*62
###2023-12-09 13:48:08.026193$GAGSV,1,1,03,04,44,307,45,21,72,043,40,27,18,051,39,,,,*5D
###2023-12-09 13:48:08.028551$GBGSV,1,1,04,12,19,122,39,24,58,052,44,25,54,282,45,35,16,051,37*6D
###2023-12-09 13:48:08.029874$GNVTG,243.17,T,,M,0.04,N,0.07,K,A*23
###2023-12-09 13:48:08.031500$GNGST,184807.10,6.600,,,,0.210,0.120,0.320*65
###2023-12-09 13:48:08.032788$GNZDA,184807.10,09,12,2023,00,00*72
###2023-12-09 13:48:08.033425$GNEBP,,,,,,M*13
###2023-12-09 13:48:08.207943$GNGGA,184807.30,4138.0390702,N,07032.4383117,W,1,17,0.8,15.472,M,-29.746,M,0.0,*5B
###2023-12-09 13:48:08.406767$GNGGA,184807.50,4138.0390694,N,07032.4383112,W,1,17,0.8,15.472,M,-29.746,M,0.0,*56
###2023-12-09 13:48:08.607932$GNGGA,184807.70,4138.0390674,N,07032.4383107,W,1,17,0.8,15.466,M,-29.746,M,0.0,*5B
###2023-12-09 13:48:08.806889$GNGGA,184807.90,4138.0390645,N,07032.4383108,W,1,17,0.8,15.465,M,-29.746,M,0.0,*5B
###2023-12-09 13:48:09.010952$GNRMC,184808.10,A,4138.0390624,N,07032.4383105,W,0.02,243.17,091223,,,A*5E
###2023-12-09 13:48:09.013809$GNGGA,184808.10,4138.0390624,N,07032.4383105,W,1,17,0.8,15.466,M,-29.746,M,0.0,*55
###2023-12-09 13:48:09.015539$GPGSA,A,3,04,16,26,28,29,31,,,,,,,1.3,0.8,1.1*3C
###2023-12-09 13:48:09.017114$GLGSA,A,3,65,73,74,75,,,,,,,,,1.3,0.8,1.1*22
###2023-12-09 13:48:09.018641$GAGSA,A,3,04,21,27,,,,,,,,,,1.3,0.8,1.1*2B
###2023-12-09 13:48:09.020217$GBGSA,A,3,12,24,25,35,,,,,,,,,1.3,0.8,1.1*2E
###2023-12-09 13:48:09.022531$GPGSV,2,1,06,04,51,304,49,16,73,229,41,26,77,041,44,28,33,090,43*7C
###2023-12-09 13:48:09.024280$GPGSV,2,2,06,29,17,042,43,31,55,075,49,,,,,,,,*7E
###2023-12-09 13:48:09.026611$GLGSV,1,1,04,65,43,312,44,73,17,056,44,74,55,024,35,75,47,280,48*60
###2023-12-09 13:48:09.028642$GAGSV,1,1,03,04,44,307,46,21,72,043,40,27,18,051,40,,,,*50
###2023-12-09 13:48:09.030967$GBGSV,1,1,04,12,19,122,39,24,58,052,44,25,54,282,45,35,16,051,37*6D
###2023-12-09 13:48:09.032288$GNVTG,243.17,T,,M,0.02,N,0.04,K,A*26
###2023-12-09 13:48:09.033892$GNGST,184808.10,6.800,,,,0.210,0.120,0.320*64
###2023-12-09 13:48:09.035192$GNZDA,184808.10,09,12,2023,00,00*7D
###2023-12-09 13:48:09.035829$GNEBP,,,,,,M*13
###2023-12-09 13:48:09.216193$GNGGA,184808.30,4138.0390608,N,07032.4383101,W,1,17,0.8,15.466,M,-29.746,M,0.0,*5D
###2023-12-09 13:48:09.407057$GNGGA,184808.50,4138.0390593,N,07032.4383107,W,1,17,0.8,15.461,M,-29.746,M,0.0,*5B
###2023-12-09 13:48:09.606125$GNGGA,184808.70,4138.0390563,N,07032.4383110,W,1,17,0.8,15.460,M,-29.746,M,0.0,*51
###2023-12-09 13:48:09.806421$GNGGA,184808.90,4138.0390545,N,07032.4383096,W,1,17,0.8,15.457,M,-29.746,M,0.0,*50
###2023-12-09 13:48:10.010596$GNRMC,184809.10,A,4138.0390538,N,07032.4383080,W,0.02,243.17,091223,,,A*5D
###2023-12-09 13:48:10.013472$GNGGA,184809.10,4138.0390538,N,07032.4383080,W,1,16,0.8,15.460,M,-29.746,M,0.0,*51
###2023-12-09 13:48:10.015210$GPGSA,A,3,04,16,26,28,29,31,,,,,,,1.4,0.8,1.1*3B
###2023-12-09 13:48:10.016729$GLGSA,A,3,65,73,75,,,,,,,,,,1.4,0.8,1.1*26
###2023-12-09 13:48:10.018241$GAGSA,A,3,04,21,27,,,,,,,,,,1.4,0.8,1.1*2C
###2023-12-09 13:48:10.019825$GBGSA,A,3,12,24,25,35,,,,,,,,,1.4,0.8,1.1*29
###2023-12-09 13:48:10.022143$GPGSV,2,1,06,04,51,304,49,16,73,229,41,26,77,041,44,28,33,090,42*7D
###2023-12-09 13:48:10.023900$GPGSV,2,2,06,29,17,042,44,31,55,075,49,,,,,,,,*79
###2023-12-09 13:48:10.025947$GLGSV,1,1,03,65,43,312,43,73,17,056,45,75,47,280,48,,,,*52
###2023-12-09 13:48:10.027990$GAGSV,1,1,03,04,44,307,45,21,72,043,40,27,18,051,39,,,,*5D
###2023-12-09 13:48:10.030319$GBGSV,1,1,04,12,19,122,39,24,58,052,45,25,54,282,45,35,16,051,37*6C
###2023-12-09 13:48:10.031662$GNVTG,243.17,T,,M,0.02,N,0.04,K,A*26
###2023-12-09 13:48:10.033276$GNGST,184809.10,6.500,,,,0.210,0.120,0.320*68
###2023-12-09 13:48:10.034610$GNZDA,184809.10,09,12,2023,00,00*7C
###2023-12-09 13:48:10.035255$GNEBP,,,,,,M*13
###2023-12-09 13:48:10.205895$GNGGA,184809.30,4138.0390532,N,07032.4383085,W,1,16,0.8,15.457,M,-29.746,M,0.0,*58
###2023-12-09 13:48:10.407272$GNGGA,184809.50,4138.0390515,N,07032.4383071,W,1,16,0.8,15.453,M,-29.746,M,0.0,*54
###2023-12-09 13:48:10.605054$GNGGA,184809.70,4138.0390501,N,07032.4383072,W,1,16,0.8,15.446,M,-29.746,M,0.0,*54
###2023-12-09 13:48:10.805603$GNGGA,184809.90,4138.0390500,N,07032.4383072,W,1,16,0.8,15.447,M,-29.746,M,0.0,*5A
###2023-12-09 13:48:11.008569$GNRMC,184810.10,A,4138.0390478,N,07032.4383061,W,0.08,243.17,091223,,,A*55
###2023-12-09 13:48:11.011449$GNGGA,184810.10,4138.0390478,N,07032.4383061,W,1,16,0.8,15.446,M,-29.746,M,0.0,*57
###2023-12-09 13:48:11.013177$GPGSA,A,3,04,16,26,28,29,31,,,,,,,1.4,0.8,1.1*3B
###2023-12-09 13:48:11.014712$GLGSA,A,3,65,73,75,,,,,,,,,,1.4,0.8,1.1*26
###2023-12-09 13:48:11.016231$GAGSA,A,3,04,21,27,,,,,,,,,,1.4,0.8,1.1*2C
###2023-12-09 13:48:11.017812$GBGSA,A,3,12,24,25,35,,,,,,,,,1.4,0.8,1.1*29
###2023-12-09 13:48:11.020151$GPGSV,2,1,06,04,51,304,49,16,73,229,41,26,77,041,44,28,33,090,42*7D
###2023-12-09 13:48:11.021895$GPGSV,2,2,06,29,17,042,44,31,55,075,49,,,,,,,,*79
###2023-12-09 13:48:11.023935$GLGSV,1,1,03,65,43,312,44,73,17,056,44,75,47,280,48,,,,*54
###2023-12-09 13:48:11.025968$GAGSV,1,1,03,04,44,307,45,21,72,043,40,27,18,051,39,,,,*5D
###2023-12-09 13:48:11.028305$GBGSV,1,1,04,12,19,122,39,24,58,052,44,25,54,282,45,35,16,051,37*6D
###2023-12-09 13:48:11.029635$GNVTG,243.17,T,,M,0.08,N,0.14,K,A*2D
###2023-12-09 13:48:11.031265$GNGST,184810.10,6.500,,,,0.210,0.120,0.320*60
###2023-12-09 13:48:11.032555$GNZDA,184810.10,09,12,2023,00,00*74
###2023-12-09 13:48:11.033195$GNEBP,,,,,,M*13
###2023-12-09 13:48:11.207650$GNGGA,184810.30,4138.0390458,N,07032.4383057,W,1,16,0.8,15.448,M,-29.746,M,0.0,*5C
###2023-12-09 13:48:11.408905$GNGGA,184810.50,4138.0390441,N,07032.4383061,W,1,16,0.8,15.448,M,-29.746,M,0.0,*57
###2023-12-09 13:48:11.606987$GNGGA,184810.70,4138.0390416,N,07032.4383051,W,1,16,0.8,15.445,M,-29.746,M,0.0,*59
###2023-12-09 13:48:11.806384$GNGGA,184810.90,4138.0390389,N,07032.4383056,W,1,16,0.8,15.441,M,-29.746,M,0.0,*55
###2023-12-09 13:48:12.009336$GNRMC,184811.10,A,4138.0390383,N,07032.4383053,W,0.02,243.17,091223,,,A*5C
###2023-12-09 13:48:12.012219$GNGGA,184811.10,4138.0390383,N,07032.4383053,W,1,16,0.8,15.439,M,-29.746,M,0.0,*5C
###2023-12-09 13:48:12.014200$GPGSA,A,3,04,16,26,28,29,31,,,,,,,1.4,0.8,1.1*3B
###2023-12-09 13:48:12.015739$GLGSA,A,3,65,73,75,,,,,,,,,,1.4,0.8,1.1*26
###2023-12-09 13:48:12.017263$GAGSA,A,3,04,21,27,,,,,,,,,,1.4,0.8,1.1*2C
###2023-12-09 13:48:12.018873$GBGSA,A,3,12,24,25,35,,,,,,,,,1.4,0.8,1.1*29
###2023-12-09 13:48:12.021221$GPGSV,2,1,06,04,51,304,49,16,73,229,40,26,77,041,44,28,33,090,43*7D
###2023-12-09 13:48:12.022983$GPGSV,2,2,06,29,17,042,44,31,55,075,49,,,,,,,,*79
###2023-12-09 13:48:12.025017$GLGSV,1,1,03,65,43,312,44,73,17,056,44,75,47,280,48,,,,*54
###2023-12-09 13:48:12.027068$GAGSV,1,1,03,04,44,307,45,21,72,043,40,27,18,051,39,,,,*5D
