###2023-12-09 12:58:27.988659$GNVTG,85.76,T,,M,3.32,N,6.16,K,A*1C
###2023-12-09 12:58:27.990330$GNGST,175827.10,18.000,,,,0.080,0.068,0.160*50
###2023-12-09 12:58:27.991644$GNZDA,175827.10,09,12,2023,00,00*7E
###2023-12-09 12:58:27.992289$GNEBP,,,,,,M*13
###2023-12-09 12:58:28.161224$GNGGA,175827.30,4138.0328925,N,07032.3052406,W,1,24,0.6,13.202,M,-29.744,M,0.0,*59
###2023-12-09 12:58:28.362089$GNGGA,175827.50,4138.0328556,N,07032.3049816,W,1,24,0.6,13.211,M,-29.744,M,0.0,*52
###2023-12-09 12:58:28.561465$GNGGA,175827.70,4138.0328029,N,07032.3047225,W,1,24,0.6,13.153,M,-29.744,M,0.0,*5C
###2023-12-09 12:58:28.760567$GNGGA,175827.90,4138.0327856,N,07032.3044712,W,1,24,0.6,13.152,M,-29.744,M,0.0,*5E
###2023-12-09 12:58:28.963690$GNRMC,175828.10,A,4138.0328140,N,07032.3042120,W,3.58,83.14,091223,,,A*6B
###2023-12-09 12:58:28.966543$GNGGA,175828.10,4138.0328140,N,07032.3042120,W,1,24,0.6,13.188,M,-29.744,M,0.0,*5E
###2023-12-09 12:58:28.968412$GPGSA,A,3,03,04,16,26,28,29,31,32,,,,,1.1,0.6,0.9*3B
###2023-12-09 12:58:28.970132$GLGSA,A,3,65,71,72,73,74,75,,,,,,,1.1,0.6,0.9*24
###2023-12-09 12:58:28.971726$GAGSA,A,3,04,19,21,27,,,,,,,,,1.1,0.6,0.9*26
###2023-12-09 12:58:28.973371$GBGSA,A,3,14,24,25,26,33,,,,,,,,1.1,0.6,0.9*2F
###2023-12-09 12:58:28.975698$GPGSV,2,1,08,03,36,264,44,04,31,311,43,16,48,211,46,26,78,209,48*71
###2023-12-09 12:58:28.978022$GPGSV,2,2,08,28,50,069,44,29,25,063,40,31,69,033,47,32,20,139,39*70
###2023-12-09 12:58:28.980367$GLGSV,2,1,06,65,22,328,42,71,43,172,45,72,73,277,46,73,37,040,46*6F
###2023-12-09 12:58:28.982113$GLGSV,2,2,06,74,70,331,43,75,30,251,44,,,,,,,,*66
###2023-12-09 12:58:28.984501$GAGSV,1,1,04,04,28,312,41,19,85,226,40,21,85,133,46,27,34,048,43*64
###2023-12-09 12:58:28.986845$GBGSV,2,1,05,14,44,193,43,24,75,020,48,25,39,260,45,26,27,062,40*67
###2023-12-09 12:58:28.988297$GBGSV,2,2,05,33,59,235,47,,,,,,,,,,,,*55
###2023-12-09 12:58:28.989579$GNVTG,83.14,T,,M,3.58,N,6.62,K,A*11
###2023-12-09 12:58:28.991230$GNGST,175828.10,18.000,,,,0.080,0.068,0.160*5F
###2023-12-09 12:58:28.992516$GNZDA,175828.10,09,12,2023,00,00*71
###2023-12-09 12:58:28.993152$GNEBP,,,,,,M*13
###2023-12-09 12:58:29.160334$GNGGA,175828.30,4138.0327993,N,07032.3039376,W,1,24,0.6,13.179,M,-29.744,M,0.0,*56
###2023-12-09 12:58:29.361248$GNGGA,175828.50,4138.0327399,N,07032.3036662,W,1,24,0.6,13.136,M,-29.744,M,0.0,*54
###2023-12-09 12:58:29.561342$GNGGA,175828.70,4138.0327294,N,07032.3034019,W,1,24,0.6,13.129,M,-29.744,M,0.0,*5C
###2023-12-09 12:58:29.760547$GNGGA,175828.90,4138.0327692,N,07032.3031381,W,1,24,0.6,13.144,M,-29.744,M,0.0,*5C
###2023-12-09 12:58:29.961638$GNRMC,175829.10,A,4138.0327756,N,07032.3028616,W,3.83,96.40,091223,,,A*69
###2023-12-09 12:58:29.964527$GNGGA,175829.10,4138.0327756,N,07032.3028616,W,1,24,0.6,13.132,M,-29.744,M,0.0,*5E
###2023-12-09 12:58:29.966384$GPGSA,A,3,03,04,16,26,28,29,31,32,,,,,1.1,0.6,0.9*3B
###2023-12-09 12:58:29.968134$GLGSA,A,3,65,71,72,73,74,75,,,,,,,1.1,0.6,0.9*24
###2023-12-09 12:58:29.969722$GAGSA,A,3,04,19,21,27,,,,,,,,,1.1,0.6,0.9*26
###2023-12-09 12:58:29.971377$GBGSA,A,3,14,24,25,26,33,,,,,,,,1.1,0.6,0.9*2F
###2023-12-09 12:58:29.973707$GPGSV,2,1,08,03,36,264,44,04,31,311,44,16,48,211,45,26,78,209,47*7A
###2023-12-09 12:58:29.976046$GPGSV,2,2,08,28,50,069,45,29,25,063,41,31,69,033,47,32,20,139,38*71
###2023-12-09 12:58:29.978370$GLGSV,2,1,06,65,22,328,43,71,43,172,45,72,73,277,46,73,37,040,45*6D
###2023-12-09 12:58:29.980122$GLGSV,2,2,06,74,70,331,43,75,30,251,44,,,,,,,,*66
###2023-12-09 12:58:29.982455$GAGSV,1,1,04,04,28,312,41,19,85,226,40,21,85,133,45,27,34,048,43*67
###2023-12-09 12:58:29.984805$GBGSV,2,1,05,14,44,193,44,24,75,020,48,25,39,260,46,26,27,062,43*60
###2023-12-09 12:58:29.986262$GBGSV,2,2,05,33,59,235,47,,,,,,,,,,,,*55
###2023-12-09 12:58:29.987577$GNVTG,96.40,T,,M,3.83,N,7.09,K,A*1E
###2023-12-09 12:58:29.989241$GNGST,175829.10,18.000,,,,0.081,0.068,0.160*5F
###2023-12-09 12:58:29.990539$GNZDA,175829.10,09,12,2023,00,00*70
###2023-12-09 12:58:29.991201$GNEBP,,,,,,M*13
###2023-12-09 12:58:30.159196$GNGGA,175829.30,4138.0327324,N,07032.3025820,W,1,24,0.6,13.110,M,-29.744,M,0.0,*5B
###2023-12-09 12:58:30.359716$GNGGA,175829.50,4138.0327159,N,07032.3023163,W,1,24,0.6,13.098,M,-29.744,M,0.0,*5C
###2023-12-09 12:58:30.559923$GNGGA,175829.70,4138.0327645,N,07032.3020503,W,1,24,0.6,13.108,M,-29.744,M,0.0,*5D
###2023-12-09 12:58:30.766022$GNGGA,175829.90,4138.0327875,N,07032.3017834,W,1,24,0.6,13.087,M,-29.744,M,0.0,*55
###2023-12-09 12:58:30.965584$GNRMC,175830.10,A,4138.0327641,N,07032.3015101,W,3.83,102.20,091223,,,A*53
###2023-12-09 12:58:30.968485$GNGGA,175830.10,4138.0327641,N,07032.3015101,W,1,24,0.6,13.082,M,-29.744,M,0.0,*54
###2023-12-09 12:58:30.970349$GPGSA,A,3,03,04,16,26,28,29,31,32,,,,,1.1,0.6,0.9*3B
###2023-12-09 12:58:30.972089$GLGSA,A,3,65,71,72,73,74,75,,,,,,,1.1,0.6,0.9*24
###2023-12-09 12:58:30.973672$GAGSA,A,3,04,19,21,27,,,,,,,,,1.1,0.6,0.9*26
###2023-12-09 12:58:30.975322$GBGSA,A,3,14,24,25,26,33,,,,,,,,1.1,0.6,0.9*2F
###2023-12-09 12:58:30.977639$GPGSV,2,1,08,03,36,264,46,04,31,311,41,16,48,211,47,26,78,209,48*70
###2023-12-09 12:58:30.979972$GPGSV,2,2,08,28,50,069,45,29,25,063,40,31,69,033,46,32,20,139,41*7F
###2023-12-09 12:58:30.982300$GLGSV,2,1,06,65,22,328,42,71,43,172,47,72,73,277,46,73,37,040,44*6F
###2023-12-09 12:58:30.984068$GLGSV,2,2,06,74,70,331,43,75,30,251,45,,,,,,,,*67
###2023-12-09 12:58:30.986388$GAGSV,1,1,04,04,28,312,40,19,85,226,40,21,85,133,46,27,34,048,43*65
###2023-12-09 12:58:30.988729$GBGSV,2,1,05,14,44,193,46,24,75,020,48,25,39,260,47,26,27,062,41*61
###2023-12-09 12:58:30.990185$GBGSV,2,2,05,33,59,235,48,,,,,,,,,,,,*5A
###2023-12-09 12:58:30.991523$GNVTG,102.20,T,,M,3.83,N,7.09,K,A*24
###2023-12-09 12:58:30.993170$GNGST,175830.10,18.000,,,,0.081,0.068,0.160*57
###2023-12-09 12:58:30.994462$GNZDA,175830.10,09,12,2023,00,00*78
###2023-12-09 12:58:30.995116$GNEBP,,,,,,M*13
###2023-12-09 12:58:31.161144$GNGGA,175830.30,4138.0327385,N,07032.3012442,W,1,24,0.6,13.057,M,-29.744,M,0.0,*56
###2023-12-09 12:58:31.361023$GNGGA,175830.50,4138.0327791,N,07032.3009913,W,1,24,0.6,13.073,M,-29.744,M,0.0,*54
###2023-12-09 12:58:31.560285$GNGGA,175830.70,4138.0328111,N,07032.3007255,W,1,24,0.6,13.062,M,-29.744,M,0.0,*50
###2023-12-09 12:58:31.761615$GNGGA,175830.90,4138.0327894,N,07032.3004633,W,1,24,0.6,13.040,M,-29.744,M,0.0,*52
###2023-12-09 12:58:31.962154$GNRMC,175831.10,A,4138.0327743,N,07032.3002038,W,3.46,88.67,091223,,,A*65
###2023-12-09 12:58:31.965052$GNGGA,175831.10,4138.0327743,N,07032.3002038,W,1,24,0.6,13.054,M,-29.744,M,0.0,*50
###2023-12-09 12:58:31.966940$GPGSA,A,3,03,04,16,26,28,29,31,32,,,,,1.1,0.6,0.9*3B
###2023-12-09 12:58:31.968650$GLGSA,A,3,65,71,72,73,74,75,,,,,,,1.1,0.6,0.9*24
###2023-12-09 12:58:31.970227$GAGSA,A,3,04,19,21,27,,,,,,,,,1.1,0.6,0.9*26
###2023-12-09 12:58:31.971892$GBGSA,A,3,14,24,25,26,33,,,,,,,,1.1,0.6,0.9*2F
###2023-12-09 12:58:31.974225$GPGSV,2,1,08,03,36,264,46,04,31,311,40,16,48,211,48,26,78,209,48*7E
###2023-12-09 12:58:31.976574$GPGSV,2,2,08,28,50,069,44,29,25,063,40,31,69,033,46,32,20,139,41*7E
###2023-12-09 12:58:31.978918$GLGSV,2,1,06,65,22,328,40,71,43,172,47,72,73,277,47,73,37,040,45*6D
###2023-12-09 12:58:31.980668$GLGSV,2,2,06,74,70,331,42,75,30,251,45,,,,,,,,*66
###2023-12-09 12:58:31.983010$GAGSV,1,1,04,04,28,312,40,19,85,226,40,21,85,133,46,27,34,048,42*64
###2023-12-09 12:58:31.985351$GBGSV,2,1,05,14,44,193,46,24,74,022,47,25,39,260,46,26,27,062,41*6C
###2023-12-09 12:58:31.986821$GBGSV,2,2,05,33,59,235,48,,,,,,,,,,,,*5A
###2023-12-09 12:58:31.988118$GNVTG,88.67,T,,M,3.46,N,6.41,K,A*10
###2023-12-09 12:58:31.989774$GNGST,175831.10,18.000,,,,0.081,0.068,0.160*56
###2023-12-09 12:58:31.991084$GNZDA,175831.10,09,12,2023,00,00*79
###2023-12-09 12:58:31.991725$GNEBP,,,,,,M*13
###2023-12-09 12:58:32.160403$GNGGA,175831.30,4138.0327864,N,07032.2999433,W,1,24,0.6,13.044,M,-29.744,M,0.0,*5C
###2023-12-09 12:58:32.361344$GNGGA,175831.50,4138.0327990,N,07032.2996851,W,1,24,0.6,13.023,M,-29.744,M,0.0,*56
###2023-12-09 12:58:32.561241$GNGGA,175831.70,4138.0327912,N,07032.2994264,W,1,24,0.6,13.022,M,-29.744,M,0.0,*51
###2023-12-09 12:58:32.761510$GNGGA,175831.90,4138.0327610,N,07032.2991668,W,1,24,0.6,13.018,M,-29.744,M,0.0,*56
###2023-12-09 12:58:32.970286$GNRMC,175832.10,A,4138.0327476,N,07032.2989133,W,3.32,88.02,091223,,,A*62
###2023-12-09 12:58:32.973185$GNGGA,175832.10,4138.0327476,N,07032.2989133,W,1,24,0.6,13.014,M,-29.744,M,0.0,*53
###2023-12-09 12:58:32.975074$GPGSA,A,3,03,04,16,26,28,29,31,32,,,,,1.1,0.6,0.9*3B
###2023-12-09 12:58:32.976794$GLGSA,A,3,65,71,72,73,74,75,,,,,,,1.1,0.6,0.9*24
###2023-12-09 12:58:32.978381$GAGSA,A,3,04,19,21,27,,,,,,,,,1.1,0.6,0.9*26
###2023-12-09 12:58:32.980043$GBGSA,A,3,14,24,25,26,33,,,,,,,,1.1,0.6,0.9*2F
###2023-12-09 12:58:32.982373$GPGSV,2,1,08,03,36,264,45,04,31,311,41,16,48,211,48,26,78,209,48*7C
###2023-12-09 12:58:32.984720$GPGSV,2,2,08,28,50,069,44,29,25,063,40,31,69,033,46,32,20,139,41*7E
