###2023-12-09 13:38:38.013958$GLGSA,A,3,65,71,72,73,74,75,,,,,,,1.1,0.6,0.9*24
###2023-12-09 13:38:38.015943$GAGSA,A,3,04,19,21,27,,,,,,,,,1.1,0.6,0.9*26
###2023-12-09 13:38:38.018017$GBGSA,A,3,12,14,24,25,33,35,,,,,,,1.1,0.6,0.9*2E
###2023-12-09 13:38:38.020847$GPGSV,2,1,08,03,25,245,40,04,48,307,44,16,68,224,46,26,82,040,48*74
###2023-12-09 13:38:38.023685$GPGSV,2,2,08,27,18,172,43,28,37,086,44,29,20,046,40,31,58,068,46*72
###2023-12-09 13:38:38.026511$GLGSV,2,1,06,65,40,316,43,71,21,175,45,72,61,219,46,73,21,053,42*6E
###2023-12-09 13:38:38.028676$GLGSV,2,2,06,74,59,016,41,75,44,273,48,,,,,,,,*66
###2023-12-09 13:38:38.031510$GAGSV,1,1,04,04,41,309,44,19,70,181,41,21,75,045,46,27,21,050,39*6E
###2023-12-09 13:38:38.034316$GBGSV,2,1,06,12,17,125,41,14,27,189,41,24,61,048,48,25,52,278,47*62
###2023-12-09 13:38:38.036437$GBGSV,2,2,06,33,44,215,46,35,16,055,43,,,,,,,,*6F
###2023-12-09 13:38:38.038035$GNVTG,354.65,T,,M,3.01,N,5.58,K,A*28
###2023-12-09 13:38:38.040005$GNGST,183837.10,5.200,,,,0.095,0.072,0.170*68
###2023-12-09 13:38:38.041567$GNZDA,183837.10,09,12,2023,00,00*76
###2023-12-09 13:38:38.042338$GNEBP,,,,,,M*13
###2023-12-09 13:38:38.202029$GNGGA,183837.30,4138.0548063,N,07032.3934412,W,1,25,0.6,13.148,M,-29.744,M,0.0,*5A
###2023-12-09 13:38:38.402846$GNGGA,183837.50,4138.0549803,N,07032.3934428,W,1,25,0.6,13.147,M,-29.744,M,0.0,*55
###2023-12-09 13:38:38.602732$GNGGA,183837.70,4138.0551565,N,07032.3934505,W,1,25,0.6,13.148,M,-29.744,M,0.0,*52
###2023-12-09 13:38:38.802792$GNGGA,183837.90,4138.0553328,N,07032.3934677,W,1,25,0.6,13.150,M,-29.744,M,0.0,*5E
###2023-12-09 13:38:39.006744$GNRMC,183838.10,A,4138.0555094,N,07032.3934833,W,3.15,356.96,091223,,,A*5C
###2023-12-09 13:38:39.010185$GNGGA,183838.10,4138.0555094,N,07032.3934833,W,1,25,0.6,13.140,M,-29.744,M,0.0,*54
###2023-12-09 13:38:39.012435$GPGSA,A,3,03,04,16,26,27,28,29,31,,,,,1.0,0.6,0.8*3F
###2023-12-09 13:38:39.014496$GLGSA,A,3,65,71,72,73,74,75,,,,,,,1.0,0.6,0.8*24
###2023-12-09 13:38:39.016413$GAGSA,A,3,04,19,21,27,,,,,,,,,1.0,0.6,0.8*26
###2023-12-09 13:38:39.018475$GBGSA,A,3,12,14,24,25,33,35,,,,,,,1.0,0.6,0.8*2E
###2023-12-09 13:38:39.021316$GPGSV,2,1,08,03,25,245,42,04,48,307,45,16,68,224,45,26,82,040,47*7B
###2023-12-09 13:38:39.024140$GPGSV,2,2,08,27,18,172,43,28,37,086,44,29,20,046,39,31,58,068,47*7D
###2023-12-09 13:38:39.026957$GLGSV,2,1,06,65,40,316,42,71,21,175,44,72,61,219,46,73,21,053,40*6C
###2023-12-09 13:38:39.029066$GLGSV,2,2,06,74,59,016,41,75,44,273,48,,,,,,,,*66
###2023-12-09 13:38:39.031883$GAGSV,1,1,04,04,41,309,44,19,70,181,41,21,75,045,46,27,21,050,39*6E
###2023-12-09 13:38:39.034702$GBGSV,2,1,06,12,17,125,41,14,27,189,41,24,61,048,48,25,52,278,47*62
###2023-12-09 13:38:39.036815$GBGSV,2,2,06,33,44,215,46,35,16,055,43,,,,,,,,*6F
###2023-12-09 13:38:39.038415$GNVTG,356.96,T,,M,3.15,N,5.83,K,A*25
###2023-12-09 13:38:39.040392$GNGST,183838.10,6.100,,,,0.095,0.071,0.170*64
###2023-12-09 13:38:39.041954$GNZDA,183838.10,09,12,2023,00,00*79
###2023-12-09 13:38:39.042735$GNEBP,,,,,,M*13
###2023-12-09 13:38:39.205107$GNGGA,183838.30,4138.0556862,N,07032.3934971,W,1,25,0.6,13.137,M,-29.744,M,0.0,*53
###2023-12-09 13:38:39.400911$GNGGA,183838.50,4138.0558624,N,07032.3935109,W,1,25,0.6,13.139,M,-29.744,M,0.0,*5F
###2023-12-09 13:38:39.600649$GNGGA,183838.70,4138.0560396,N,07032.3935176,W,1,25,0.6,13.139,M,-29.744,M,0.0,*52
###2023-12-09 13:38:39.802784$GNGGA,183838.90,4138.0562160,N,07032.3935298,W,1,25,0.6,13.138,M,-29.744,M,0.0,*57
###2023-12-09 13:38:40.003059$GNRMC,183839.10,A,4138.0563955,N,07032.3935391,W,3.21,359.79,091223,,,A*57
###2023-12-09 13:38:40.006491$GNGGA,183839.10,4138.0563955,N,07032.3935391,W,1,25,0.6,13.133,M,-29.744,M,0.0,*52
###2023-12-09 13:38:40.008754$GPGSA,A,3,03,04,16,26,27,28,29,31,,,,,1.1,0.6,0.9*3F
###2023-12-09 13:38:40.010844$GLGSA,A,3,65,71,72,73,74,75,,,,,,,1.1,0.6,0.9*24
###2023-12-09 13:38:40.012784$GAGSA,A,3,04,19,21,27,,,,,,,,,1.1,0.6,0.9*26
###2023-12-09 13:38:40.014866$GBGSA,A,3,12,14,24,25,33,35,,,,,,,1.1,0.6,0.9*2E
###2023-12-09 13:38:40.017675$GPGSV,2,1,08,03,25,245,42,04,48,307,45,16,68,224,46,26,82,040,47*78
###2023-12-09 13:38:40.020492$GPGSV,2,2,08,27,18,172,43,28,37,086,44,29,20,046,41,31,58,068,46*73
###2023-12-09 13:38:40.023311$GLGSV,2,1,06,65,40,316,43,71,21,175,44,72,61,219,46,73,21,053,41*6C
###2023-12-09 13:38:40.025422$GLGSV,2,2,06,74,59,016,41,75,44,273,48,,,,,,,,*66
###2023-12-09 13:38:40.028230$GAGSV,1,1,04,04,41,309,44,19,70,181,41,21,75,045,45,27,21,050,39*6D
###2023-12-09 13:38:40.031048$GBGSV,2,1,06,12,17,125,41,14,27,189,41,24,61,048,48,25,52,278,48*6D
###2023-12-09 13:38:40.033156$GBGSV,2,2,06,33,44,215,47,35,16,055,41,,,,,,,,*6C
###2023-12-09 13:38:40.034756$GNVTG,359.79,T,,M,3.21,N,5.94,K,A*2A
###2023-12-09 13:38:40.036712$GNGST,183839.10,5.400,,,,0.094,0.070,0.170*63
###2023-12-09 13:38:40.038261$GNZDA,183839.10,09,12,2023,00,00*78
###2023-12-09 13:38:40.039055$GNEBP,,,,,,M*13
###2023-12-09 13:38:40.200784$GNGGA,183839.30,4138.0565748,N,07032.3935520,W,1,25,0.6,13.128,M,-29.744,M,0.0,*52
###2023-12-09 13:38:40.403946$GNGGA,183839.50,4138.0567534,N,07032.3935606,W,1,25,0.6,13.126,M,-29.744,M,0.0,*56
###2023-12-09 13:38:40.599579$GNGGA,183839.70,4138.0569310,N,07032.3935660,W,1,25,0.6,13.128,M,-29.744,M,0.0,*54
###2023-12-09 13:38:40.799958$GNGGA,183839.90,4138.0571090,N,07032.3935556,W,1,25,0.6,13.123,M,-29.744,M,0.0,*55
###2023-12-09 13:38:41.004677$GNRMC,183840.10,A,4138.0572813,N,07032.3935430,W,3.11,1.18,091223,,,A*5C
###2023-12-09 13:38:41.007581$GNGGA,183840.10,4138.0572813,N,07032.3935430,W,1,25,0.6,13.115,M,-29.744,M,0.0,*57
###2023-12-09 13:38:41.009448$GPGSA,A,3,03,04,16,26,27,28,29,31,,,,,1.0,0.6,0.8*3F
###2023-12-09 13:38:41.011176$GLGSA,A,3,65,71,72,73,74,75,,,,,,,1.0,0.6,0.8*24
###2023-12-09 13:38:41.012766$GAGSA,A,3,04,19,21,27,,,,,,,,,1.0,0.6,0.8*26
###2023-12-09 13:38:41.014477$GBGSA,A,3,12,14,24,25,33,35,,,,,,,1.0,0.6,0.8*2E
###2023-12-09 13:38:41.016820$GPGSV,2,1,08,03,25,245,42,04,48,307,45,16,68,224,46,26,82,040,48*77
###2023-12-09 13:38:41.019169$GPGSV,2,2,08,27,18,172,43,28,37,086,44,29,20,046,40,31,58,068,46*72
###2023-12-09 13:38:41.021511$GLGSV,2,1,06,65,40,316,43,71,21,175,43,72,61,219,46,73,21,053,40*6A
###2023-12-09 13:38:41.023269$GLGSV,2,2,06,74,59,016,41,75,44,273,47,,,,,,,,*69
###2023-12-09 13:38:41.025598$GAGSV,1,1,04,04,41,309,43,19,70,181,42,21,75,045,45,27,21,050,39*69
###2023-12-09 13:38:41.027942$GBGSV,2,1,06,12,17,125,40,14,27,189,39,24,61,048,46,25,52,278,46*63
###2023-12-09 13:38:41.029693$GBGSV,2,2,06,33,44,215,46,35,16,055,41,,,,,,,,*6D
###2023-12-09 13:38:41.030959$GNVTG,1.18,T,,M,3.11,N,5.76,K,A*2C
###2023-12-09 13:38:41.032576$GNGST,183840.10,5.800,,,,0.093,0.070,0.170*66
###2023-12-09 13:38:41.033865$GNZDA,183840.10,09,12,2023,00,00*76
###2023-12-09 13:38:41.034505$GNEBP,,,,,,M*13
###2023-12-09 13:38:41.200178$GNGGA,183840.30,4138.0574447,N,07032.3935516,W,1,25,0.6,13.121,M,-29.744,M,0.0,*5C
###2023-12-09 13:38:41.398145$GNGGA,183840.50,4138.0576067,N,07032.3935586,W,1,25,0.6,13.110,M,-29.744,M,0.0,*55
###2023-12-09 13:38:41.602636$GNGGA,183840.70,4138.0577668,N,07032.3935498,W,1,25,0.6,13.094,M,-29.744,M,0.0,*5C
###2023-12-09 13:38:41.799529$GNGGA,183840.90,4138.0579242,N,07032.3935482,W,1,25,0.6,13.108,M,-29.744,M,0.0,*5F
###2023-12-09 13:38:42.002704$GNRMC,183841.10,A,4138.0580839,N,07032.3935707,W,2.94,352.53,091223,,,A*59
###2023-12-09 13:38:42.005579$GNGGA,183841.10,4138.0580839,N,07032.3935707,W,1,25,0.6,13.128,M,-29.744,M,0.0,*5A
###2023-12-09 13:38:42.007465$GPGSA,A,3,03,04,16,26,27,28,29,31,,,,,1.0,0.6,0.8*3F
###2023-12-09 13:38:42.009181$GLGSA,A,3,65,71,72,73,74,75,,,,,,,1.0,0.6,0.8*24
###2023-12-09 13:38:42.010772$GAGSA,A,3,04,19,21,27,,,,,,,,,1.0,0.6,0.8*26
###2023-12-09 13:38:42.012481$GBGSA,A,3,12,14,24,25,33,35,,,,,,,1.0,0.6,0.8*2E
###2023-12-09 13:38:42.014828$GPGSV,2,1,08,03,25,245,41,04,48,307,45,16,68,224,47,26,82,040,47*7A
###2023-12-09 13:38:42.017152$GPGSV,2,2,08,27,18,172,43,28,37,086,45,29,20,046,40,31,58,068,47*72
###2023-12-09 13:38:42.019490$GLGSV,2,1,06,65,40,316,43,71,21,175,45,72,61,219,47,73,21,053,40*6D
###2023-12-09 13:38:42.021232$GLGSV,2,2,06,74,59,016,41,75,44,273,47,,,,,,,,*69
###2023-12-09 13:38:42.023822$GAGSV,1,1,04,04,41,309,44,19,70,181,42,21,75,045,45,27,21,050,40*60
###2023-12-09 13:38:42.026168$GBGSV,2,1,06,12,17,125,40,14,27,189,40,24,61,048,47,25,52,278,46*6C
###2023-12-09 13:38:42.027936$GBGSV,2,2,06,33,44,215,46,35,16,055,43,,,,,,,,*6F
###2023-12-09 13:38:42.029263$GNVTG,352.53,T,,M,2.94,N,5.44,K,A*2B
###2023-12-09 13:38:42.030893$GNGST,183841.10,5.500,,,,0.092,0.069,0.170*63
###2023-12-09 13:38:42.032192$GNZDA,183841.10,09,12,2023,00,00*77
###2023-12-09 13:38:42.032833$GNEBP,,,,,,M*13
###2023-12-09 13:38:42.200147$GNGGA,183841.30,4138.0582504,N,07032.3935979,W,1,25,0.6,13.128,M,-29.744,M,0.0,*5E
###2023-12-09 13:38:42.398932$GNGGA,183841.50,4138.0584222,N,07032.3935980,W,1,25,0.6,13.108,M,-29.744,M,0.0,*59
