###2023-12-09 12:24:22.944178$GNEBP,,,,,,M*13
###2023-12-09 12:24:23.115602$GNGGA,172422.30,4138.0392445,N,07032.4363416,W,1,18,0.8,12.809,M,-29.746,M,0.0,*59
###2023-12-09 12:24:23.316411$GNGGA,172422.50,4138.0392445,N,07032.4363470,W,1,18,0.8,12.798,M,-29.746,M,0.0,*58
###2023-12-09 12:24:23.519600$GNGGA,172422.70,4138.0392447,N,07032.4363509,W,1,18,0.8,12.784,M,-29.746,M,0.0,*5A
###2023-12-09 12:24:23.714279$GNGGA,172422.90,4138.0392445,N,07032.4363568,W,1,18,0.8,12.772,M,-29.746,M,0.0,*58
###2023-12-09 12:24:23.917155$GNRMC,172423.10,A,4138.0392445,N,07032.4363628,W,0.04,,091223,,,A*48
###2023-12-09 12:24:23.920262$GNGGA,172423.10,4138.0392445,N,07032.4363628,W,1,18,0.8,12.757,M,-29.746,M,0.0,*51
###2023-12-09 12:24:23.922341$GPGSA,A,3,03,16,25,26,28,29,31,32,,,,,1.3,0.8,1.1*3D
###2023-12-09 12:24:23.924055$GLGSA,A,3,71,73,75,,,,,,,,,,1.3,0.8,1.1*24
###2023-12-09 12:24:23.925743$GAGSA,A,3,04,21,27,,,,,,,,,,1.3,0.8,1.1*2B
###2023-12-09 12:24:23.927501$GBGSA,A,3,14,25,26,33,,,,,,,,,1.3,0.8,1.1*2C
###2023-12-09 12:24:23.929980$GPGSV,2,1,08,03,39,283,42,16,32,206,43,25,16,045,42,26,61,205,44*72
###2023-12-09 12:24:23.932490$GPGSV,2,2,08,28,61,050,42,29,24,079,45,31,73,343,36,32,35,131,47*7D
###2023-12-09 12:24:23.934719$GLGSV,1,1,03,71,63,167,47,73,53,030,47,75,18,237,43,,,,*5E
###2023-12-09 12:24:23.936924$GAGSV,1,1,03,04,17,310,37,21,73,180,46,27,45,051,46,,,,*51
###2023-12-09 12:24:23.939433$GBGSV,1,1,04,14,60,201,45,25,29,249,41,26,39,055,48,33,64,265,40*6D
###2023-12-09 12:24:23.940733$GNVTG,,T,,M,0.04,N,0.07,K,A*3E
###2023-12-09 12:24:23.942532$GNGST,172423.10,32.000,,,,0.100,0.100,0.220*56
###2023-12-09 12:24:23.944029$GNZDA,172423.10,09,12,2023,00,00*71
###2023-12-09 12:24:23.944828$GNEBP,,,,,,M*13
###2023-12-09 12:24:24.116367$GNGGA,172423.30,4138.0392440,N,07032.4363670,W,1,18,0.8,12.745,M,-29.746,M,0.0,*58
###2023-12-09 12:24:24.316464$GNGGA,172423.50,4138.0392429,N,07032.4363711,W,1,18,0.8,12.731,M,-29.746,M,0.0,*54
###2023-12-09 12:24:24.516062$GNGGA,172423.70,4138.0392437,N,07032.4363754,W,1,18,0.8,12.717,M,-29.746,M,0.0,*5C
###2023-12-09 12:24:24.715219$GNGGA,172423.90,4138.0392442,N,07032.4363807,W,1,18,0.8,12.704,M,-29.746,M,0.0,*5B
###2023-12-09 12:24:24.920618$GNRMC,172424.10,A,4138.0392442,N,07032.4363854,W,0.00,,091223,,,A*49
###2023-12-09 12:24:24.923512$GNGGA,172424.10,4138.0392442,N,07032.4363854,W,1,18,0.8,12.696,M,-29.746,M,0.0,*58
###2023-12-09 12:24:24.925393$GPGSA,A,3,03,16,25,26,28,29,31,32,,,,,1.3,0.8,1.1*3D
###2023-12-09 12:24:24.926946$GLGSA,A,3,71,73,75,,,,,,,,,,1.3,0.8,1.1*24
###2023-12-09 12:24:24.928483$GAGSA,A,3,04,21,27,,,,,,,,,,1.3,0.8,1.1*2B
###2023-12-09 12:24:24.930076$GBGSA,A,3,14,25,26,33,,,,,,,,,1.3,0.8,1.1*2C
###2023-12-09 12:24:24.932445$GPGSV,2,1,08,03,39,283,41,16,32,206,43,25,16,045,42,26,61,205,45*70
###2023-12-09 12:24:24.934828$GPGSV,2,2,08,28,61,050,42,29,24,079,45,31,73,344,36,32,35,131,46*7B
###2023-12-09 12:24:24.936893$GLGSV,1,1,03,71,63,167,47,73,53,030,47,75,18,237,43,,,,*5E
###2023-12-09 12:24:24.938967$GAGSV,1,1,03,04,17,310,36,21,73,180,46,27,45,051,46,,,,*50
###2023-12-09 12:24:24.941317$GBGSV,1,1,04,14,60,201,45,25,29,249,41,26,39,055,48,33,64,265,40*6D
###2023-12-09 12:24:24.942469$GNVTG,,T,,M,0.00,N,0.00,K,A*3D
###2023-12-09 12:24:24.944161$GNGST,172424.10,32.000,,,,0.100,0.100,0.220*51
###2023-12-09 12:24:24.945478$GNZDA,172424.10,09,12,2023,00,00*76
###2023-12-09 12:24:24.946136$GNEBP,,,,,,M*13
###2023-12-09 12:24:25.115077$GNGGA,172424.30,4138.0392436,N,07032.4363889,W,1,18,0.8,12.683,M,-29.746,M,0.0,*5D
###2023-12-09 12:24:25.315149$GNGGA,172424.50,4138.0392427,N,07032.4363939,W,1,18,0.8,12.672,M,-29.746,M,0.0,*5F
###2023-12-09 12:24:25.515002$GNGGA,172424.70,4138.0392423,N,07032.4363982,W,1,18,0.8,12.663,M,-29.746,M,0.0,*59
###2023-12-09 12:24:25.714405$GNGGA,172424.90,4138.0392436,N,07032.4364027,W,1,18,0.8,12.654,M,-29.746,M,0.0,*56
###2023-12-09 12:24:25.917727$GNRMC,172425.10,A,4138.0392433,N,07032.4364062,W,0.02,,091223,,,A*46
###2023-12-09 12:24:25.920870$GNGGA,172425.10,4138.0392433,N,07032.4364062,W,1,18,0.8,12.643,M,-29.746,M,0.0,*5D
###2023-12-09 12:24:25.922960$GPGSA,A,3,03,16,25,26,28,29,31,32,,,,,1.3,0.8,1.1*3D
###2023-12-09 12:24:25.924683$GLGSA,A,3,71,73,75,,,,,,,,,,1.3,0.8,1.1*24
###2023-12-09 12:24:25.926385$GAGSA,A,3,04,21,27,,,,,,,,,,1.3,0.8,1.1*2B
###2023-12-09 12:24:25.928160$GBGSA,A,3,14,25,26,33,,,,,,,,,1.3,0.8,1.1*2C
###2023-12-09 12:24:25.930683$GPGSV,2,1,08,03,39,283,41,16,32,206,43,25,16,045,41,26,61,205,45*73
###2023-12-09 12:24:25.933212$GPGSV,2,2,08,28,61,050,43,29,24,079,45,31,73,344,36,32,34,131,46*7B
###2023-12-09 12:24:25.935454$GLGSV,1,1,03,71,63,167,47,73,53,030,48,75,18,237,43,,,,*51
###2023-12-09 12:24:25.937676$GAGSV,1,1,03,04,17,310,36,21,73,180,46,27,45,051,46,,,,*50
###2023-12-09 12:24:25.940209$GBGSV,1,1,04,14,60,201,45,25,29,249,41,26,39,055,48,33,64,265,40*6D
###2023-12-09 12:24:25.941523$GNVTG,,T,,M,0.02,N,0.04,K,A*3B
###2023-12-09 12:24:25.943360$GNGST,172425.10,32.000,,,,0.100,0.100,0.220*50
###2023-12-09 12:24:25.944820$GNZDA,172425.10,09,12,2023,00,00*77
###2023-12-09 12:24:25.945619$GNEBP,,,,,,M*13
###2023-12-09 12:24:26.115082$GNGGA,172425.30,4138.0392429,N,07032.4364117,W,1,18,0.8,12.632,M,-29.746,M,0.0,*51
###2023-12-09 12:24:26.316645$GNGGA,172425.50,4138.0392437,N,07032.4364165,W,1,18,0.8,12.621,M,-29.746,M,0.0,*5F
###2023-12-09 12:24:26.516191$GNGGA,172425.70,4138.0392448,N,07032.4364200,W,1,18,0.8,12.611,M,-29.746,M,0.0,*56
###2023-12-09 12:24:26.714323$GNGGA,172425.90,4138.0392467,N,07032.4364244,W,1,18,0.8,12.606,M,-29.746,M,0.0,*53
###2023-12-09 12:24:26.917898$GNRMC,172426.10,A,4138.0392485,N,07032.4364285,W,0.00,,091223,,,A*41
###2023-12-09 12:24:26.921002$GNGGA,172426.10,4138.0392485,N,07032.4364285,W,1,18,0.8,12.590,M,-29.746,M,0.0,*55
###2023-12-09 12:24:26.923063$GPGSA,A,3,03,16,25,26,28,29,31,32,,,,,1.3,0.8,1.1*3D
###2023-12-09 12:24:26.924767$GLGSA,A,3,71,73,75,,,,,,,,,,1.3,0.8,1.1*24
###2023-12-09 12:24:26.926453$GAGSA,A,3,04,21,27,,,,,,,,,,1.3,0.8,1.1*2B
###2023-12-09 12:24:26.928218$GBGSA,A,3,14,25,26,33,,,,,,,,,1.3,0.8,1.1*2C
###2023-12-09 12:24:26.930721$GPGSV,2,1,08,03,39,283,41,16,32,206,43,25,16,045,41,26,61,205,45*73
###2023-12-09 12:24:26.933229$GPGSV,2,2,08,28,61,050,43,29,24,079,45,31,73,344,36,32,34,131,46*7B
###2023-12-09 12:24:26.935458$GLGSV,1,1,03,71,63,167,47,73,53,030,47,75,18,237,43,,,,*5E
###2023-12-09 12:24:26.937660$GAGSV,1,1,03,04,17,310,36,21,73,180,46,27,45,051,46,,,,*50
###2023-12-09 12:24:26.940162$GBGSV,1,1,04,14,60,201,45,25,29,249,41,26,39,055,48,33,64,265,40*6D
###2023-12-09 12:24:26.941463$GNVTG,,T,,M,0.00,N,0.00,K,A*3D
###2023-12-09 12:24:26.943294$GNGST,172426.10,32.000,,,,0.100,0.100,0.220*53
###2023-12-09 12:24:26.944752$GNZDA,172426.10,09,12,2023,00,00*74
###2023-12-09 12:24:26.945555$GNEBP,,,,,,M*13
###2023-12-09 12:24:27.117073$GNGGA,172426.30,4138.0392498,N,07032.4364329,W,1,18,0.8,12.583,M,-29.746,M,0.0,*5E
###2023-12-09 12:24:27.316695$GNGGA,172426.50,4138.0392501,N,07032.4364382,W,1,18,0.8,12.568,M,-29.746,M,0.0,*5D
###2023-12-09 12:24:27.516277$GNGGA,172426.70,4138.0392516,N,07032.4364434,W,1,18,0.8,12.558,M,-29.746,M,0.0,*50
###2023-12-09 12:24:27.715140$GNGGA,172426.90,4138.0392523,N,07032.4364476,W,1,18,0.8,12.545,M,-29.746,M,0.0,*52
###2023-12-09 12:24:27.916561$GNRMC,172427.10,A,4138.0392529,N,07032.4364520,W,0.04,,091223,,,A*4B
###2023-12-09 12:24:27.919612$GNGGA,172427.10,4138.0392529,N,07032.4364520,W,1,18,0.8,12.527,M,-29.746,M,0.0,*57
###2023-12-09 12:24:27.921647$GPGSA,A,3,03,16,25,26,28,29,31,32,,,,,1.3,0.8,1.1*3D
###2023-12-09 12:24:27.923358$GLGSA,A,3,71,73,75,,,,,,,,,,1.3,0.8,1.1*24
###2023-12-09 12:24:27.924906$GAGSA,A,3,04,21,27,,,,,,,,,,1.3,0.8,1.1*2B
###2023-12-09 12:24:27.926506$GBGSA,A,3,14,25,26,33,,,,,,,,,1.3,0.8,1.1*2C
###2023-12-09 12:24:27.928851$GPGSV,2,1,08,03,39,283,41,16,32,206,43,25,16,045,42,26,61,205,45*70
###2023-12-09 12:24:27.931216$GPGSV,2,2,08,28,61,050,42,29,24,079,45,31,73,344,37,32,34,131,46*7B
###2023-12-09 12:24:27.933256$GLGSV,1,1,03,71,63,167,48,73,53,030,48,75,18,237,43,,,,*5E
###2023-12-09 12:24:27.935324$GAGSV,1,1,03,04,17,310,36,21,73,180,46,27,45,051,46,,,,*50
###2023-12-09 12:24:27.937936$GBGSV,1,1,04,14,60,201,45,25,29,249,40,26,39,055,48,33,64,265,41*6D
###2023-12-09 12:24:27.939123$GNVTG,,T,,M,0.04,N,0.07,K,A*3E
###2023-12-09 12:24:27.940787$GNGST,172427.10,32.000,,,,0.100,0.100,0.220*52
###2023-12-09 12:24:27.942110$GNZDA,172427.10,09,12,2023,00,00*75
###2023-12-09 12:24:27.942789$GNEBP,,,,,,M*13
###2023-12-09 12:24:28.116058$GNGGA,172427.30,4138.0392538,N,07032.4364566,W,1,18,0.8,12.510,M,-29.746,M,0.0,*53
###2023-12-09 12:24:28.317491$GNGGA,172427.50,4138.0392558,N,07032.4364628,W,1,18,0.8,12.494,M,-29.746,M,0.0,*57
###2023-12-09 12:24:28.515996$GNGGA,172427.70,4138.0392565,N,07032.4364657,W,1,18,0.8,12.481,M,-29.746,M,0.0,*57
###2023-12-09 12:24:28.716332$GNGGA,172427.90,4138.0392576,N,07032.4364712,W,1,18,0.8,12.464,M,-29.746,M,0.0,*50
