###2023-12-09 12:58:18.966532$GPGSA,A,3,03,04,16,26,28,29,31,32,,,,,1.1,0.6,0.9*3B
###2023-12-09 12:58:18.968295$GLGSA,A,3,65,71,72,73,74,75,,,,,,,1.1,0.6,0.9*24
###2023-12-09 12:58:18.969879$GAGSA,A,3,04,19,21,27,,,,,,,,,1.1,0.6,0.9*26
###2023-12-09 12:58:18.971543$GBGSA,A,3,14,24,25,26,33,,,,,,,,1.1,0.6,0.9*2F
###2023-12-09 12:58:18.973872$GPGSV,2,1,08,03,36,264,46,04,31,311,42,16,48,211,46,26,78,209,49*73
###2023-12-09 12:58:18.976223$GPGSV,2,2,08,28,50,069,44,29,25,063,41,31,69,033,47,32,20,139,42*7D
###2023-12-09 12:58:18.978558$GLGSV,2,1,06,65,22,328,42,71,43,172,46,72,73,277,47,73,37,040,45*6E
###2023-12-09 12:58:18.980327$GLGSV,2,2,06,74,70,331,43,75,30,251,47,,,,,,,,*65
###2023-12-09 12:58:18.982670$GAGSV,1,1,04,04,28,312,40,19,85,226,40,21,85,133,46,27,34,048,43*65
###2023-12-09 12:58:18.984990$GBGSV,2,1,05,14,45,193,47,24,75,020,48,25,39,260,47,26,27,062,42*62
###2023-12-09 12:58:18.986443$GBGSV,2,2,05,33,59,235,48,,,,,,,,,,,,*5A
###2023-12-09 12:58:18.987741$GNVTG,97.18,T,,M,3.65,N,6.77,K,A*12
###2023-12-09 12:58:18.989384$GNGST,175818.10,18.000,,,,0.078,0.067,0.160*54
###2023-12-09 12:58:18.990683$GNZDA,175818.10,09,12,2023,00,00*72
###2023-12-09 12:58:18.991323$GNEBP,,,,,,M*13
###2023-12-09 12:58:19.159574$GNGGA,175818.30,4138.0330746,N,07032.3164028,W,1,24,0.6,13.262,M,-29.744,M,0.0,*5D
###2023-12-09 12:58:19.362958$GNGGA,175818.50,4138.0331068,N,07032.3161516,W,1,24,0.6,13.268,M,-29.744,M,0.0,*56
###2023-12-09 12:58:19.560594$GNGGA,175818.70,4138.0331369,N,07032.3159024,W,1,24,0.6,13.259,M,-29.744,M,0.0,*5B
###2023-12-09 12:58:19.762178$GNGGA,175818.90,4138.0331514,N,07032.3156566,W,1,24,0.6,13.261,M,-29.744,M,0.0,*5E
###2023-12-09 12:58:19.963086$GNRMC,175819.10,A,4138.0331527,N,07032.3154025,W,3.42,91.98,091223,,,A*6A
###2023-12-09 12:58:19.965938$GNGGA,175819.10,4138.0331527,N,07032.3154025,W,1,24,0.6,13.269,M,-29.744,M,0.0,*5F
###2023-12-09 12:58:19.967810$GPGSA,A,3,03,04,16,26,28,29,31,32,,,,,1.1,0.6,0.9*3B
###2023-12-09 12:58:19.969529$GLGSA,A,3,65,71,72,73,74,75,,,,,,,1.1,0.6,0.9*24
###2023-12-09 12:58:19.971123$GAGSA,A,3,04,19,21,27,,,,,,,,,1.1,0.6,0.9*26
###2023-12-09 12:58:19.972767$GBGSA,A,3,14,24,25,26,33,,,,,,,,1.1,0.6,0.9*2F
###2023-12-09 12:58:19.975103$GPGSV,2,1,08,03,36,264,46,04,31,311,42,16,48,211,47,26,78,209,48*73
###2023-12-09 12:58:19.977427$GPGSV,2,2,08,28,50,069,44,29,25,063,40,31,69,033,46,32,20,139,42*7D
###2023-12-09 12:58:19.979760$GLGSV,2,1,06,65,22,328,42,71,43,172,46,72,73,277,47,73,37,040,45*6E
###2023-12-09 12:58:19.981501$GLGSV,2,2,06,74,70,331,43,75,30,251,46,,,,,,,,*64
###2023-12-09 12:58:19.983829$GAGSV,1,1,04,04,28,312,40,19,85,226,40,21,85,133,46,27,34,048,43*65
###2023-12-09 12:58:19.986146$GBGSV,2,1,05,14,45,193,46,24,75,020,49,25,39,260,47,26,27,062,42*62
###2023-12-09 12:58:19.987604$GBGSV,2,2,05,33,59,235,48,,,,,,,,,,,,*5A
###2023-12-09 12:58:19.988893$GNVTG,91.98,T,,M,3.42,N,6.34,K,A*1E
###2023-12-09 12:58:19.990536$GNGST,175819.10,18.000,,,,0.079,0.067,0.160*54
###2023-12-09 12:58:19.991839$GNZDA,175819.10,09,12,2023,00,00*73
###2023-12-09 12:58:19.992475$GNEBP,,,,,,M*13
###2023-12-09 12:58:20.160424$GNGGA,175819.30,4138.0331512,N,07032.3151534,W,1,24,0.6,13.243,M,-29.744,M,0.0,*53
###2023-12-09 12:58:20.361754$GNGGA,175819.50,4138.0331598,N,07032.3149112,W,1,24,0.6,13.234,M,-29.744,M,0.0,*5E
###2023-12-09 12:58:20.562747$GNGGA,175819.70,4138.0331665,N,07032.3146683,W,1,24,0.6,13.244,M,-29.744,M,0.0,*5A
###2023-12-09 12:58:20.760696$GNGGA,175819.90,4138.0331414,N,07032.3144186,W,1,24,0.6,13.245,M,-29.744,M,0.0,*51
###2023-12-09 12:58:20.970100$GNRMC,175820.10,A,4138.0330973,N,07032.3141765,W,3.21,102.23,091223,,,A*55
###2023-12-09 12:58:20.973009$GNGGA,175820.10,4138.0330973,N,07032.3141765,W,1,24,0.6,13.223,M,-29.744,M,0.0,*50
###2023-12-09 12:58:20.974889$GPGSA,A,3,03,04,16,26,28,29,31,32,,,,,1.1,0.6,0.9*3B
###2023-12-09 12:58:20.976610$GLGSA,A,3,65,71,72,73,74,75,,,,,,,1.1,0.6,0.9*24
###2023-12-09 12:58:20.978198$GAGSA,A,3,04,19,21,27,,,,,,,,,1.1,0.6,0.9*26
###2023-12-09 12:58:20.979864$GBGSA,A,3,14,24,25,26,33,,,,,,,,1.1,0.6,0.9*2F
###2023-12-09 12:58:20.982188$GPGSV,2,1,08,03,36,264,45,04,31,311,42,16,48,211,48,26,78,209,48*7F
###2023-12-09 12:58:20.984536$GPGSV,2,2,08,28,50,069,44,29,25,063,42,31,69,033,46,32,20,139,42*7F
###2023-12-09 12:58:20.986868$GLGSV,2,1,06,65,22,328,40,71,43,172,46,72,73,277,47,73,37,040,45*6C
###2023-12-09 12:58:20.988616$GLGSV,2,2,06,74,70,331,43,75,30,251,46,,,,,,,,*64
###2023-12-09 12:58:20.990955$GAGSV,1,1,04,04,28,312,40,19,85,226,40,21,85,133,46,27,34,048,43*65
###2023-12-09 12:58:20.993288$GBGSV,2,1,05,14,45,193,46,24,75,020,49,25,39,260,47,26,27,062,42*62
###2023-12-09 12:58:20.994753$GBGSV,2,2,05,33,59,235,49,,,,,,,,,,,,*5B
###2023-12-09 12:58:20.996081$GNVTG,102.23,T,,M,3.21,N,5.94,K,A*29
###2023-12-09 12:58:20.997736$GNGST,175820.10,18.000,,,,0.079,0.067,0.160*5E
###2023-12-09 12:58:20.999042$GNZDA,175820.10,09,12,2023,00,00*79
###2023-12-09 12:58:20.999681$GNEBP,,,,,,M*13
###2023-12-09 12:58:21.164579$GNGGA,175820.30,4138.0330934,N,07032.3139367,W,1,24,0.6,13.239,M,-29.744,M,0.0,*53
###2023-12-09 12:58:21.361418$GNGGA,175820.50,4138.0331013,N,07032.3136814,W,1,24,0.6,13.236,M,-29.744,M,0.0,*57
###2023-12-09 12:58:21.560369$GNGGA,175820.70,4138.0330676,N,07032.3134319,W,1,24,0.6,13.219,M,-29.744,M,0.0,*58
###2023-12-09 12:58:21.761695$GNGGA,175820.90,4138.0330435,N,07032.3131823,W,1,24,0.6,13.229,M,-29.744,M,0.0,*57
###2023-12-09 12:58:21.962330$GNRMC,175821.10,A,4138.0330432,N,07032.3129282,W,3.46,88.04,091223,,,A*69
###2023-12-09 12:58:21.965204$GNGGA,175821.10,4138.0330432,N,07032.3129282,W,1,24,0.6,13.245,M,-29.744,M,0.0,*5B
###2023-12-09 12:58:21.967099$GPGSA,A,3,03,04,16,26,28,29,31,32,,,,,1.1,0.6,0.9*3B
###2023-12-09 12:58:21.968814$GLGSA,A,3,65,71,72,73,74,75,,,,,,,1.1,0.6,0.9*24
###2023-12-09 12:58:21.970393$GAGSA,A,3,04,19,21,27,,,,,,,,,1.1,0.6,0.9*26
###2023-12-09 12:58:21.972047$GBGSA,A,3,14,24,25,26,33,,,,,,,,1.1,0.6,0.9*2F
###2023-12-09 12:58:21.974365$GPGSV,2,1,08,03,36,264,45,04,31,311,42,16,48,211,47,26,78,209,48*70
###2023-12-09 12:58:21.976718$GPGSV,2,2,08,28,50,069,44,29,25,063,40,31,69,033,46,32,20,139,43*7C
###2023-12-09 12:58:21.979061$GLGSV,2,1,06,65,22,328,40,71,43,172,47,72,73,277,47,73,37,040,45*6D
###2023-12-09 12:58:21.980804$GLGSV,2,2,06,74,70,331,43,75,30,251,46,,,,,,,,*64
###2023-12-09 12:58:21.983123$GAGSV,1,1,04,04,28,312,41,19,85,226,41,21,85,133,46,27,34,048,44*62
###2023-12-09 12:58:21.985440$GBGSV,2,1,05,14,45,193,46,24,75,020,49,25,39,260,47,26,27,062,42*62
###2023-12-09 12:58:21.986902$GBGSV,2,2,05,33,59,235,49,,,,,,,,,,,,*5B
###2023-12-09 12:58:21.988184$GNVTG,88.04,T,,M,3.46,N,6.41,K,A*15
###2023-12-09 12:58:21.989825$GNGST,175821.10,18.000,,,,0.079,0.067,0.160*5F
###2023-12-09 12:58:21.991122$GNZDA,175821.10,09,12,2023,00,00*78
###2023-12-09 12:58:21.991757$GNEBP,,,,,,M*13
###2023-12-09 12:58:22.159454$GNGGA,175821.30,4138.0330465,N,07032.3126749,W,1,24,0.6,13.233,M,-29.744,M,0.0,*57
###2023-12-09 12:58:22.361073$GNGGA,175821.50,4138.0330325,N,07032.3124187,W,1,24,0.6,13.217,M,-29.744,M,0.0,*52
###2023-12-09 12:58:22.560368$GNGGA,175821.70,4138.0330262,N,07032.3121674,W,1,24,0.6,13.224,M,-29.744,M,0.0,*5C
###2023-12-09 12:58:22.760643$GNGGA,175821.90,4138.0330449,N,07032.3119154,W,1,24,0.6,13.239,M,-29.744,M,0.0,*5F
###2023-12-09 12:58:22.963594$GNRMC,175822.10,A,4138.0330560,N,07032.3116645,W,3.38,90.07,091223,,,A*6C
###2023-12-09 12:58:22.966477$GNGGA,175822.10,4138.0330560,N,07032.3116645,W,1,24,0.6,13.239,M,-29.744,M,0.0,*56
###2023-12-09 12:58:22.968385$GPGSA,A,3,03,04,16,26,28,29,31,32,,,,,1.1,0.6,0.9*3B
###2023-12-09 12:58:22.970105$GLGSA,A,3,65,71,72,73,74,75,,,,,,,1.1,0.6,0.9*24
###2023-12-09 12:58:22.971706$GAGSA,A,3,04,19,21,27,,,,,,,,,1.1,0.6,0.9*26
###2023-12-09 12:58:22.973355$GBGSA,A,3,14,24,25,26,33,,,,,,,,1.1,0.6,0.9*2F
###2023-12-09 12:58:22.975690$GPGSV,2,1,08,03,36,264,46,04,31,311,42,16,48,211,46,26,78,209,48*72
###2023-12-09 12:58:22.978026$GPGSV,2,2,08,28,50,069,43,29,25,063,40,31,69,033,46,32,20,139,43*7B
###2023-12-09 12:58:22.980369$GLGSV,2,1,06,65,22,328,41,71,43,172,46,72,73,277,47,73,37,040,45*6D
###2023-12-09 12:58:22.982363$GLGSV,2,2,06,74,70,331,43,75,30,251,46,,,,,,,,*64
###2023-12-09 12:58:22.984733$GAGSV,1,1,04,04,28,312,41,19,85,226,40,21,85,133,46,27,34,048,43*64
###2023-12-09 12:58:22.987087$GBGSV,2,1,05,14,45,193,45,24,75,020,48,25,39,260,46,26,27,062,41*62
###2023-12-09 12:58:22.988547$GBGSV,2,2,05,33,59,235,47,,,,,,,,,,,,*55
###2023-12-09 12:58:22.989836$GNVTG,90.07,T,,M,3.38,N,6.26,K,A*17
###2023-12-09 12:58:22.991500$GNGST,175822.10,18.000,,,,0.079,0.067,0.160*5C
###2023-12-09 12:58:22.992797$GNZDA,175822.10,09,12,2023,00,00*7B
###2023-12-09 12:58:22.993437$GNEBP,,,,,,M*13
###2023-12-09 12:58:23.160507$GNGGA,175822.30,4138.0330587,N,07032.3114161,W,1,24,0.6,13.223,M,-29.744,M,0.0,*55
