###2023-12-09 13:25:03.388412$GNGGA,182502.50,4138.0420929,N,07032.3593542,W,1,24,0.6,13.173,M,-29.744,M,0.0,*52
###2023-12-09 13:25:03.588419$GNGGA,182502.70,4138.0419169,N,07032.3592238,W,1,24,0.6,13.165,M,-29.744,M,0.0,*5A
###2023-12-09 13:25:03.789831$GNGGA,182502.90,4138.0417521,N,07032.3590963,W,1,24,0.6,13.166,M,-29.744,M,0.0,*56
###2023-12-09 13:25:03.991526$GNRMC,182503.10,A,4138.0415772,N,07032.3589748,W,3.63,152.61,091223,,,A*54
###2023-12-09 13:25:03.994378$GNGGA,182503.10,4138.0415772,N,07032.3589748,W,1,24,0.6,13.195,M,-29.744,M,0.0,*5A
###2023-12-09 13:25:03.996179$GPGSA,A,3,03,04,16,26,28,29,31,,,,,,1.1,0.6,0.9*3A
###2023-12-09 13:25:03.997885$GLGSA,A,3,65,71,72,73,74,75,,,,,,,1.1,0.6,0.9*24
###2023-12-09 13:25:03.999473$GAGSA,A,3,04,19,21,27,,,,,,,,,1.1,0.6,0.9*26
###2023-12-09 13:25:04.001175$GBGSA,A,3,14,24,25,26,33,35,,,,,,,1.1,0.6,0.9*29
###2023-12-09 13:25:04.003501$GPGSV,2,1,07,03,29,250,41,04,42,310,43,16,61,218,45,26,89,050,47*79
###2023-12-09 13:25:04.005538$GPGSV,2,2,07,28,41,080,43,29,22,051,43,31,63,058,46,,,,*4E
###2023-12-09 13:25:04.007865$GLGSV,2,1,06,65,34,322,45,71,27,175,42,72,67,229,46,73,26,049,44*62
###2023-12-09 13:25:04.009605$GLGSV,2,2,06,74,63,006,43,75,40,266,48,,,,,,,,*6C
###2023-12-09 13:25:04.011928$GAGSV,1,1,04,04,37,311,43,19,76,185,40,21,80,051,46,27,26,049,41*6D
###2023-12-09 13:25:04.014236$GBGSV,2,1,06,14,33,190,43,24,66,041,49,25,48,272,48,26,19,068,45*69
###2023-12-09 13:25:04.015988$GBGSV,2,2,06,33,49,220,48,35,16,060,46,,,,,,,,*69
###2023-12-09 13:25:04.017307$GNVTG,152.61,T,,M,3.63,N,6.73,K,A*26
###2023-12-09 13:25:04.018958$GNGST,182503.10,18.000,,,,0.099,0.068,0.160*5B
###2023-12-09 13:25:04.020248$GNZDA,182503.10,09,12,2023,00,00*7D
###2023-12-09 13:25:04.020884$GNEBP,,,,,,M*13
###2023-12-09 13:25:04.188656$GNGGA,182503.30,4138.0414092,N,07032.3588489,W,1,24,0.6,13.178,M,-29.744,M,0.0,*5C
###2023-12-09 13:25:04.388990$GNGGA,182503.50,4138.0412485,N,07032.3587178,W,1,24,0.6,13.185,M,-29.744,M,0.0,*58
###2023-12-09 13:25:04.588351$GNGGA,182503.70,4138.0410776,N,07032.3585873,W,1,24,0.6,13.194,M,-29.744,M,0.0,*57
###2023-12-09 13:25:04.789696$GNGGA,182503.90,4138.0409114,N,07032.3584600,W,1,24,0.6,13.201,M,-29.744,M,0.0,*57
###2023-12-09 13:25:04.994427$GNRMC,182504.10,A,4138.0407438,N,07032.3583235,W,3.60,146.43,091223,,,A*5E
###2023-12-09 13:25:04.997303$GNGGA,182504.10,4138.0407438,N,07032.3583235,W,1,24,0.6,13.212,M,-29.744,M,0.0,*5A
###2023-12-09 13:25:04.999109$GPGSA,A,3,03,04,16,26,28,29,31,,,,,,1.1,0.6,0.9*3A
###2023-12-09 13:25:05.000828$GLGSA,A,3,65,71,72,73,74,75,,,,,,,1.1,0.6,0.9*24
###2023-12-09 13:25:05.002406$GAGSA,A,3,04,19,21,27,,,,,,,,,1.1,0.6,0.9*26
###2023-12-09 13:25:05.004126$GBGSA,A,3,14,24,25,26,33,35,,,,,,,1.1,0.6,0.9*29
###2023-12-09 13:25:05.006442$GPGSV,2,1,07,03,29,250,42,04,43,309,44,16,61,218,45,26,89,050,48*7B
###2023-12-09 13:25:05.008483$GPGSV,2,2,07,28,41,080,43,29,22,051,43,31,63,058,46,,,,*4E
###2023-12-09 13:25:05.010821$GLGSV,2,1,06,65,34,322,45,71,27,175,42,72,67,229,46,73,26,049,44*62
###2023-12-09 13:25:05.012564$GLGSV,2,2,06,74,63,006,43,75,40,266,48,,,,,,,,*6C
###2023-12-09 13:25:05.014891$GAGSV,1,1,04,04,37,311,44,19,76,185,40,21,80,051,46,27,26,049,42*69
###2023-12-09 13:25:05.017217$GBGSV,2,1,06,14,33,190,42,24,66,041,49,25,48,272,47,26,19,068,44*66
###2023-12-09 13:25:05.018966$GBGSV,2,2,06,33,49,220,48,35,16,060,44,,,,,,,,*6B
###2023-12-09 13:25:05.020286$GNVTG,146.43,T,,M,3.60,N,6.66,K,A*24
###2023-12-09 13:25:05.021924$GNGST,182504.10,18.000,,,,0.099,0.068,0.160*5C
###2023-12-09 13:25:05.023218$GNZDA,182504.10,09,12,2023,00,00*7A
###2023-12-09 13:25:05.023853$GNEBP,,,,,,M*13
###2023-12-09 13:25:05.191696$GNGGA,182504.30,4138.0405809,N,07032.3581759,W,1,24,0.6,13.196,M,-29.744,M,0.0,*56
###2023-12-09 13:25:05.388864$GNGGA,182504.50,4138.0404189,N,07032.3580422,W,1,24,0.6,13.211,M,-29.744,M,0.0,*52
###2023-12-09 13:25:05.590004$GNGGA,182504.70,4138.0402441,N,07032.3579065,W,1,24,0.6,13.226,M,-29.744,M,0.0,*52
###2023-12-09 13:25:05.791068$GNGGA,182504.90,4138.0400849,N,07032.3577600,W,1,24,0.6,13.199,M,-29.744,M,0.0,*56
###2023-12-09 13:25:05.992416$GNRMC,182505.10,A,4138.0399264,N,07032.3576251,W,3.54,151.25,091223,,,A*59
###2023-12-09 13:25:05.995282$GNGGA,182505.10,4138.0399264,N,07032.3576251,W,1,24,0.6,13.215,M,-29.744,M,0.0,*5B
###2023-12-09 13:25:05.997074$GPGSA,A,3,03,04,16,26,28,29,31,,,,,,1.1,0.6,0.9*3A
###2023-12-09 13:25:05.998807$GLGSA,A,3,65,71,72,73,74,75,,,,,,,1.1,0.6,0.9*24
###2023-12-09 13:25:06.000388$GAGSA,A,3,04,19,21,27,,,,,,,,,1.1,0.6,0.9*26
###2023-12-09 13:25:06.002097$GBGSA,A,3,14,24,25,26,33,35,,,,,,,1.1,0.6,0.9*29
###2023-12-09 13:25:06.004441$GPGSV,2,1,07,03,29,250,42,04,43,309,44,16,61,218,46,26,89,050,48*78
###2023-12-09 13:25:06.006467$GPGSV,2,2,07,28,41,080,43,29,22,051,43,31,63,058,47,,,,*4F
###2023-12-09 13:25:06.008791$GLGSV,2,1,06,65,34,322,45,71,27,175,41,72,67,229,45,73,26,049,45*63
###2023-12-09 13:25:06.010525$GLGSV,2,2,06,74,63,006,43,75,40,266,47,,,,,,,,*63
###2023-12-09 13:25:06.012842$GAGSV,1,1,04,04,37,311,44,19,76,185,40,21,80,051,46,27,26,049,43*68
###2023-12-09 13:25:06.015168$GBGSV,2,1,06,14,33,190,41,24,66,041,49,25,48,272,47,26,19,068,45*64
###2023-12-09 13:25:06.016897$GBGSV,2,2,06,33,49,220,48,35,16,060,45,,,,,,,,*6A
###2023-12-09 13:25:06.018209$GNVTG,151.25,T,,M,3.54,N,6.55,K,A*25
###2023-12-09 13:25:06.019854$GNGST,182505.10,18.000,,,,0.099,0.068,0.160*5D
###2023-12-09 13:25:06.021140$GNZDA,182505.10,09,12,2023,00,00*7B
###2023-12-09 13:25:06.021777$GNEBP,,,,,,M*13
###2023-12-09 13:25:06.189151$GNGGA,182505.30,4138.0397517,N,07032.3574996,W,1,24,0.6,13.230,M,-29.744,M,0.0,*51
###2023-12-09 13:25:06.388060$GNGGA,182505.50,4138.0395908,N,07032.3573798,W,1,24,0.6,13.221,M,-29.744,M,0.0,*50
###2023-12-09 13:25:06.589836$GNGGA,182505.70,4138.0394237,N,07032.3572492,W,1,24,0.6,13.243,M,-29.744,M,0.0,*58
###2023-12-09 13:25:06.789990$GNGGA,182505.90,4138.0392628,N,07032.3571053,W,1,24,0.6,13.226,M,-29.744,M,0.0,*53
###2023-12-09 13:25:06.995353$GNRMC,182506.10,A,4138.0390983,N,07032.3569682,W,3.42,151.74,091223,,,A*56
###2023-12-09 13:25:06.998221$GNGGA,182506.10,4138.0390983,N,07032.3569682,W,1,24,0.6,13.231,M,-29.744,M,0.0,*51
###2023-12-09 13:25:07.000032$GPGSA,A,3,03,04,16,26,28,29,31,,,,,,1.1,0.6,0.9*3A
###2023-12-09 13:25:07.001747$GLGSA,A,3,65,71,72,73,74,75,,,,,,,1.1,0.6,0.9*24
###2023-12-09 13:25:07.003342$GAGSA,A,3,04,19,21,27,,,,,,,,,1.1,0.6,0.9*26
###2023-12-09 13:25:07.005056$GBGSA,A,3,14,24,25,26,33,35,,,,,,,1.1,0.6,0.9*29
###2023-12-09 13:25:07.007394$GPGSV,2,1,07,03,29,250,42,04,43,309,44,16,61,218,45,26,89,050,47*74
###2023-12-09 13:25:07.009432$GPGSV,2,2,07,28,41,080,44,29,22,051,43,31,63,058,47,,,,*48
###2023-12-09 13:25:07.011759$GLGSV,2,1,06,65,34,322,45,71,27,175,41,72,67,229,44,73,26,049,45*62
###2023-12-09 13:25:07.013506$GLGSV,2,2,06,74,63,006,43,75,40,266,47,,,,,,,,*63
###2023-12-09 13:25:07.015846$GAGSV,1,1,04,04,37,311,44,19,76,185,40,21,80,051,46,27,26,049,42*69
###2023-12-09 13:25:07.018174$GBGSV,2,1,06,14,33,190,41,24,66,041,47,25,48,272,46,26,19,068,43*6D
###2023-12-09 13:25:07.019929$GBGSV,2,2,06,33,49,220,46,35,16,060,45,,,,,,,,*64
###2023-12-09 13:25:07.021250$GNVTG,151.74,T,,M,3.42,N,6.34,K,A*21
###2023-12-09 13:25:07.022932$GNGST,182506.10,18.000,,,,0.099,0.068,0.160*5E
###2023-12-09 13:25:07.024226$GNZDA,182506.10,09,12,2023,00,00*78
###2023-12-09 13:25:07.024863$GNEBP,,,,,,M*13
###2023-12-09 13:25:07.192168$GNGGA,182506.30,4138.0389292,N,07032.3568389,W,1,24,0.6,13.251,M,-29.744,M,0.0,*59
###2023-12-09 13:25:07.388802$GNGGA,182506.50,4138.0387639,N,07032.3566940,W,1,24,0.6,13.241,M,-29.744,M,0.0,*54
###2023-12-09 13:25:07.593200$GNGGA,182506.70,4138.0386063,N,07032.3565455,W,1,24,0.6,13.243,M,-29.744,M,0.0,*56
###2023-12-09 13:25:07.789810$GNGGA,182506.90,4138.0384423,N,07032.3564007,W,1,24,0.6,13.264,M,-29.744,M,0.0,*5D
###2023-12-09 13:25:07.994049$GNRMC,182507.10,A,4138.0382728,N,07032.3562572,W,3.54,147.10,091223,,,A*5E
###2023-12-09 13:25:07.996924$GNGGA,182507.10,4138.0382728,N,07032.3562572,W,1,24,0.6,13.257,M,-29.744,M,0.0,*5B
###2023-12-09 13:25:07.998716$GPGSA,A,3,03,04,16,26,28,29,31,,,,,,1.1,0.6,0.9*3A
###2023-12-09 13:25:08.000659$GLGSA,A,3,65,71,72,73,74,75,,,,,,,1.1,0.6,0.9*24
###2023-12-09 13:25:08.002236$GAGSA,A,3,04,19,21,27,,,,,,,,,1.1,0.6,0.9*26
###2023-12-09 13:25:08.003956$GBGSA,A,3,14,24,25,26,33,35,,,,,,,1.1,0.6,0.9*29
###2023-12-09 13:25:08.006265$GPGSV,2,1,07,03,29,250,43,04,43,309,45,16,61,218,46,26,89,050,48*78
###2023-12-09 13:25:08.008308$GPGSV,2,2,07,28,41,080,45,29,22,051,44,31,63,058,47,,,,*4E
###2023-12-09 13:25:08.010630$GLGSV,2,1,06,65,34,322,45,71,27,175,42,72,67,229,47,73,26,049,44*63
###2023-12-09 13:25:08.012371$GLGSV,2,2,06,74,63,006,43,75,40,266,47,,,,,,,,*63
###2023-12-09 13:25:08.014689$GAGSV,1,1,04,04,37,311,45,19,76,185,41,21,80,051,47,27,26,049,42*68
###2023-12-09 13:25:08.017004$GBGSV,2,1,06,14,33,190,43,24,66,041,49,25,48,272,47,26,19,068,45*66
###2023-12-09 13:25:08.018747$GBGSV,2,2,06,33,49,220,48,35,16,060,45,,,,,,,,*6A
