###2023-12-09 13:15:08.008947$GNVTG,134.05,T,,M,3.73,N,6.91,K,A*29
###2023-12-09 13:15:08.010649$GNGST,181507.10,18.000,,,,0.097,0.068,0.160*52
###2023-12-09 13:15:08.011948$GNZDA,181507.10,09,12,2023,00,00*7A
###2023-12-09 13:15:08.012593$GNEBP,,,,,,M*13
###2023-12-09 13:15:08.177837$GNGGA,181507.30,4138.0169449,N,07032.2834810,W,1,24,0.7,12.802,M,-29.744,M,0.0,*55
###2023-12-09 13:15:08.378770$GNGGA,181507.50,4138.0168020,N,07032.2833044,W,1,24,0.7,12.788,M,-29.744,M,0.0,*5A
###2023-12-09 13:15:08.579455$GNGGA,181507.70,4138.0166580,N,07032.2831180,W,1,24,0.7,12.805,M,-29.744,M,0.0,*58
###2023-12-09 13:15:08.778422$GNGGA,181507.90,4138.0165140,N,07032.2829367,W,1,24,0.7,12.778,M,-29.744,M,0.0,*5A
###2023-12-09 13:15:08.997309$GNRMC,181508.10,A,4138.0163724,N,07032.2827561,W,3.46,136.77,091223,,,A*58
###2023-12-09 13:15:09.004418$GNGGA,181508.10,4138.0163724,N,07032.2827561,W,1,24,0.7,12.776,M,-29.744,M,0.0,*5F
###2023-12-09 13:15:09.006838$GPGSA,A,3,03,04,16,26,28,29,31,,,,,,1.2,0.7,1.0*30
###2023-12-09 13:15:09.008896$GLGSA,A,3,65,71,72,73,74,75,,,,,,,1.2,0.7,1.0*2E
###2023-12-09 13:15:09.010798$GAGSA,A,3,04,19,21,27,,,,,,,,,1.2,0.7,1.0*2C
###2023-12-09 13:15:09.012844$GBGSA,A,3,14,24,25,26,33,35,,,,,,,1.2,0.7,1.0*23
###2023-12-09 13:15:09.015652$GPGSV,2,1,07,03,32,254,43,04,38,311,45,16,56,215,46,26,86,209,48*7B
###2023-12-09 13:15:09.018078$GPGSV,2,2,07,28,45,076,45,29,24,055,44,31,65,050,47,,,,*4F
###2023-12-09 13:15:09.020868$GLGSV,2,1,06,65,30,325,43,71,33,174,44,72,71,243,46,73,30,046,45*67
###2023-12-09 13:15:09.022958$GLGSV,2,2,06,74,66,355,43,75,37,260,46,,,,,,,,*64
###2023-12-09 13:15:09.025727$GAGSV,1,1,04,04,33,312,44,19,80,192,40,21,84,066,46,27,29,048,44*69
###2023-12-09 13:15:09.028508$GBGSV,2,1,06,14,37,191,41,24,69,035,49,25,45,267,46,26,22,066,45*63
###2023-12-09 13:15:09.030593$GBGSV,2,2,06,33,53,225,48,35,16,064,45,,,,,,,,*60
###2023-12-09 13:15:09.032163$GNVTG,136.77,T,,M,3.46,N,6.41,K,A*25
###2023-12-09 13:15:09.034107$GNGST,181508.10,18.000,,,,0.097,0.068,0.160*5D
###2023-12-09 13:15:09.035655$GNZDA,181508.10,09,12,2023,00,00*75
###2023-12-09 13:15:09.036417$GNEBP,,,,,,M*13
###2023-12-09 13:15:09.181613$GNGGA,181508.30,4138.0162322,N,07032.2825772,W,1,24,0.7,12.778,M,-29.744,M,0.0,*52
###2023-12-09 13:15:09.379982$GNGGA,181508.50,4138.0160805,N,07032.2824067,W,1,24,0.7,12.774,M,-29.744,M,0.0,*56
###2023-12-09 13:15:09.579500$GNGGA,181508.70,4138.0159447,N,07032.2822303,W,1,24,0.7,12.772,M,-29.744,M,0.0,*55
###2023-12-09 13:15:09.781438$GNGGA,181508.90,4138.0158042,N,07032.2820422,W,1,24,0.7,12.777,M,-29.744,M,0.0,*58
###2023-12-09 13:15:09.982299$GNRMC,181509.10,A,4138.0156640,N,07032.2818582,W,3.50,132.71,091223,,,A*58
###2023-12-09 13:15:09.985172$GNGGA,181509.10,4138.0156640,N,07032.2818582,W,1,24,0.7,12.766,M,-29.744,M,0.0,*5B
###2023-12-09 13:15:09.986968$GPGSA,A,3,03,04,16,26,28,29,31,,,,,,1.2,0.7,1.0*30
###2023-12-09 13:15:09.988672$GLGSA,A,3,65,71,72,73,74,75,,,,,,,1.2,0.7,1.0*2E
###2023-12-09 13:15:09.990246$GAGSA,A,3,04,19,21,27,,,,,,,,,1.2,0.7,1.0*2C
###2023-12-09 13:15:09.991952$GBGSA,A,3,14,24,25,26,33,35,,,,,,,1.2,0.7,1.0*23
###2023-12-09 13:15:09.994270$GPGSV,2,1,07,03,32,254,43,04,38,311,45,16,56,215,46,26,86,209,48*7B
###2023-12-09 13:15:09.996306$GPGSV,2,2,07,28,45,076,45,29,24,055,44,31,65,050,47,,,,*4F
###2023-12-09 13:15:09.998640$GLGSV,2,1,06,65,30,325,43,71,33,174,42,72,71,243,46,73,30,046,45*61
###2023-12-09 13:15:10.000376$GLGSV,2,2,06,74,66,355,44,75,37,260,46,,,,,,,,*63
###2023-12-09 13:15:10.002706$GAGSV,1,1,04,04,33,312,44,19,80,192,40,21,84,066,46,27,29,048,43*6E
###2023-12-09 13:15:10.005038$GBGSV,2,1,06,14,37,191,42,24,69,035,48,25,45,267,45,26,22,066,43*64
###2023-12-09 13:15:10.006789$GBGSV,2,2,06,33,53,225,48,35,16,064,44,,,,,,,,*61
###2023-12-09 13:15:10.008107$GNVTG,132.71,T,,M,3.50,N,6.48,K,A*29
###2023-12-09 13:15:10.009743$GNGST,181509.10,18.000,,,,0.097,0.068,0.160*5C
###2023-12-09 13:15:10.011039$GNZDA,181509.10,09,12,2023,00,00*74
###2023-12-09 13:15:10.011675$GNEBP,,,,,,M*13
###2023-12-09 13:15:10.177045$GNGGA,181509.30,4138.0155299,N,07032.2816683,W,1,24,0.7,12.775,M,-29.744,M,0.0,*54
###2023-12-09 13:15:10.378263$GNGGA,181509.50,4138.0153890,N,07032.2814792,W,1,24,0.7,12.779,M,-29.744,M,0.0,*58
###2023-12-09 13:15:10.577108$GNGGA,181509.70,4138.0152555,N,07032.2812853,W,1,24,0.7,12.767,M,-29.744,M,0.0,*54
###2023-12-09 13:15:10.777306$GNGGA,181509.90,4138.0151205,N,07032.2810889,W,1,24,0.7,12.770,M,-29.744,M,0.0,*58
###2023-12-09 13:15:10.981847$GNRMC,181510.10,A,4138.0149794,N,07032.2809010,W,3.67,135.72,091223,,,A*58
###2023-12-09 13:15:10.985363$GNGGA,181510.10,4138.0149794,N,07032.2809010,W,1,24,0.7,12.775,M,-29.744,M,0.0,*59
###2023-12-09 13:15:10.987551$GPGSA,A,3,03,04,16,26,28,29,31,,,,,,1.2,0.7,1.0*30
###2023-12-09 13:15:10.989621$GLGSA,A,3,65,71,72,73,74,75,,,,,,,1.2,0.7,1.0*2E
###2023-12-09 13:15:10.991545$GAGSA,A,3,04,19,21,27,,,,,,,,,1.2,0.7,1.0*2C
###2023-12-09 13:15:10.993615$GBGSA,A,3,14,24,25,26,33,35,,,,,,,1.2,0.7,1.0*23
###2023-12-09 13:15:10.996430$GPGSV,2,1,07,03,32,254,44,04,38,311,45,16,56,215,46,26,86,209,48*7C
###2023-12-09 13:15:10.998913$GPGSV,2,2,07,28,45,076,45,29,24,055,44,31,65,050,47,,,,*4F
###2023-12-09 13:15:11.001722$GLGSV,2,1,06,65,30,325,43,71,33,174,43,72,71,243,46,73,30,046,46*63
###2023-12-09 13:15:11.003838$GLGSV,2,2,06,74,66,355,43,75,37,260,47,,,,,,,,*65
###2023-12-09 13:15:11.006658$GAGSV,1,1,04,04,33,312,44,19,80,192,40,21,84,066,46,27,29,048,43*6E
###2023-12-09 13:15:11.009450$GBGSV,2,1,06,14,37,191,41,24,69,035,49,25,45,267,46,26,22,066,44*62
###2023-12-09 13:15:11.011566$GBGSV,2,2,06,33,53,225,48,35,16,064,44,,,,,,,,*61
###2023-12-09 13:15:11.013154$GNVTG,135.72,T,,M,3.67,N,6.80,K,A*2D
###2023-12-09 13:15:11.015152$GNGST,181510.10,18.000,,,,0.097,0.068,0.160*54
###2023-12-09 13:15:11.016741$GNZDA,181510.10,09,12,2023,00,00*7C
###2023-12-09 13:15:11.017510$GNEBP,,,,,,M*13
###2023-12-09 13:15:11.177352$GNGGA,181510.30,4138.0148374,N,07032.2807120,W,1,24,0.7,12.779,M,-29.744,M,0.0,*50
###2023-12-09 13:15:11.377436$GNGGA,181510.50,4138.0146957,N,07032.2805251,W,1,24,0.7,12.776,M,-29.744,M,0.0,*5B
###2023-12-09 13:15:11.580773$GNGGA,181510.70,4138.0145516,N,07032.2803401,W,1,24,0.7,12.769,M,-29.744,M,0.0,*58
###2023-12-09 13:15:11.778613$GNGGA,181510.90,4138.0144090,N,07032.2801579,W,1,24,0.7,12.766,M,-29.744,M,0.0,*5F
###2023-12-09 13:15:11.981494$GNRMC,181511.10,A,4138.0142601,N,07032.2799809,W,3.69,138.67,091223,,,A*5E
###2023-12-09 13:15:11.984963$GNGGA,181511.10,4138.0142601,N,07032.2799809,W,1,24,0.7,12.776,M,-29.744,M,0.0,*5B
###2023-12-09 13:15:11.987138$GPGSA,A,3,03,04,16,26,28,29,31,,,,,,1.2,0.7,1.0*30
###2023-12-09 13:15:11.989218$GLGSA,A,3,65,71,72,73,74,75,,,,,,,1.2,0.7,1.0*2E
###2023-12-09 13:15:11.991135$GAGSA,A,3,04,19,21,27,,,,,,,,,1.2,0.7,1.0*2C
###2023-12-09 13:15:11.993208$GBGSA,A,3,14,24,25,26,33,35,,,,,,,1.2,0.7,1.0*23
###2023-12-09 13:15:11.996042$GPGSV,2,1,07,03,32,254,44,04,38,311,46,16,56,215,46,26,86,209,48*7F
###2023-12-09 13:15:11.998498$GPGSV,2,2,07,28,45,076,45,29,24,055,44,31,65,050,46,,,,*4E
###2023-12-09 13:15:12.001336$GLGSV,2,1,06,65,30,325,44,71,33,174,43,72,71,243,46,73,30,046,46*64
###2023-12-09 13:15:12.003486$GLGSV,2,2,06,74,66,355,43,75,37,260,47,,,,,,,,*65
###2023-12-09 13:15:12.006286$GAGSV,1,1,04,04,33,312,44,19,80,192,40,21,84,066,45,27,29,048,43*6D
###2023-12-09 13:15:12.009147$GBGSV,2,1,06,14,37,191,43,24,69,035,49,25,45,267,47,26,22,066,45*60
###2023-12-09 13:15:12.011271$GBGSV,2,2,06,33,53,225,48,35,16,064,44,,,,,,,,*61
###2023-12-09 13:15:12.012868$GNVTG,138.67,T,,M,3.69,N,6.84,K,A*2E
###2023-12-09 13:15:12.014858$GNGST,181511.10,18.000,,,,0.097,0.068,0.160*55
###2023-12-09 13:15:12.016417$GNZDA,181511.10,09,12,2023,00,00*7D
###2023-12-09 13:15:12.017188$GNEBP,,,,,,M*13
###2023-12-09 13:15:12.178028$GNGGA,181511.30,4138.0141120,N,07032.2798041,W,1,24,0.7,12.769,M,-29.744,M,0.0,*55
###2023-12-09 13:15:12.377423$GNGGA,181511.50,4138.0139748,N,07032.2796156,W,1,24,0.7,12.764,M,-29.744,M,0.0,*50
###2023-12-09 13:15:12.577975$GNGGA,181511.70,4138.0138346,N,07032.2794287,W,1,24,0.7,12.770,M,-29.744,M,0.0,*51
###2023-12-09 13:15:12.778959$GNGGA,181511.90,4138.0137019,N,07032.2792327,W,1,24,0.7,12.774,M,-29.744,M,0.0,*50
###2023-12-09 13:15:12.983817$GNRMC,181512.10,A,4138.0135689,N,07032.2790342,W,3.52,131.11,091223,,,A*50
###2023-12-09 13:15:12.986682$GNGGA,181512.10,4138.0135689,N,07032.2790342,W,1,24,0.7,12.787,M,-29.744,M,0.0,*5B
###2023-12-09 13:15:12.988480$GPGSA,A,3,03,04,16,26,28,29,31,,,,,,1.2,0.7,1.0*30
###2023-12-09 13:15:12.990193$GLGSA,A,3,65,71,72,73,74,75,,,,,,,1.2,0.7,1.0*2E
###2023-12-09 13:15:12.991788$GAGSA,A,3,04,19,21,27,,,,,,,,,1.2,0.7,1.0*2C
###2023-12-09 13:15:12.993495$GBGSA,A,3,14,24,25,26,33,35,,,,,,,1.2,0.7,1.0*23
###2023-12-09 13:15:12.995836$GPGSV,2,1,07,03,32,254,43,04,38,311,44,16,56,215,47,26,86,209,48*7B
###2023-12-09 13:15:12.997877$GPGSV,2,2,07,28,45,076,45,29,24,055,44,31,65,050,46,,,,*4E
