###2023-12-09 12:55:41.754735$GNGGA,175540.90,4138.0450236,N,07032.3927872,W,1,24,0.6,13.062,M,-29.745,M,0.0,*5F
###2023-12-09 12:55:41.955351$GNRMC,175541.10,A,4138.0449143,N,07032.3926842,W,2.47,149.29,091223,,,A*5A
###2023-12-09 12:55:41.958230$GNGGA,175541.10,4138.0449143,N,07032.3926842,W,1,24,0.6,13.065,M,-29.745,M,0.0,*5A
###2023-12-09 12:55:41.960096$GPGSA,A,3,03,04,16,26,28,29,31,32,,,,,1.1,0.6,0.9*3B
###2023-12-09 12:55:41.961815$GLGSA,A,3,65,71,72,73,74,75,,,,,,,1.1,0.6,0.9*24
###2023-12-09 12:55:41.963410$GAGSA,A,3,04,19,21,27,,,,,,,,,1.1,0.6,0.9*26
###2023-12-09 12:55:41.965058$GBGSA,A,3,14,24,25,26,33,,,,,,,,1.1,0.6,0.9*2F
###2023-12-09 12:55:41.967387$GPGSV,2,1,08,03,36,265,43,04,30,311,42,16,47,211,45,26,77,209,48*74
###2023-12-09 12:55:41.969711$GPGSV,2,2,08,28,51,068,45,29,25,064,44,31,70,031,48,32,21,139,39*76
###2023-12-09 12:55:41.972111$GLGSV,2,1,06,65,21,328,42,71,44,172,44,72,72,281,46,73,38,040,46*6D
###2023-12-09 12:55:41.973860$GLGSV,2,2,06,74,71,327,43,75,30,250,45,,,,,,,,*60
###2023-12-09 12:55:41.976201$GAGSV,1,1,04,04,27,312,40,19,85,242,40,21,84,147,45,27,35,048,43*68
###2023-12-09 12:55:41.978534$GBGSV,2,1,05,14,46,194,42,24,75,018,48,25,39,260,45,26,28,061,45*61
###2023-12-09 12:55:41.980004$GBGSV,2,2,05,33,59,237,48,,,,,,,,,,,,*58
###2023-12-09 12:55:41.981323$GNVTG,149.29,T,,M,2.47,N,4.57,K,A*23
###2023-12-09 12:55:41.983004$GNGST,175541.10,18.000,,,,0.080,0.068,0.160*5D
###2023-12-09 12:55:41.984300$GNZDA,175541.10,09,12,2023,00,00*73
###2023-12-09 12:55:41.984942$GNEBP,,,,,,M*13
###2023-12-09 12:55:42.153987$GNGGA,175541.30,4138.0447936,N,07032.3925882,W,1,24,0.6,13.062,M,-29.745,M,0.0,*54
###2023-12-09 12:55:42.354802$GNGGA,175541.50,4138.0446827,N,07032.3924842,W,1,24,0.6,13.058,M,-29.745,M,0.0,*56
###2023-12-09 12:55:42.554877$GNGGA,175541.70,4138.0445850,N,07032.3923679,W,1,24,0.6,13.061,M,-29.745,M,0.0,*5C
###2023-12-09 12:55:42.754225$GNGGA,175541.90,4138.0444957,N,07032.3922376,W,1,24,0.6,13.066,M,-29.745,M,0.0,*59
###2023-12-09 12:55:42.956969$GNRMC,175542.10,A,4138.0444073,N,07032.3921041,W,2.37,131.38,091223,,,A*52
###2023-12-09 12:55:42.959841$GNGGA,175542.10,4138.0444073,N,07032.3921041,W,1,24,0.6,13.063,M,-29.745,M,0.0,*5C
###2023-12-09 12:55:42.961687$GPGSA,A,3,03,04,16,26,28,29,31,32,,,,,1.1,0.6,0.9*3B
###2023-12-09 12:55:42.963408$GLGSA,A,3,65,71,72,73,74,75,,,,,,,1.1,0.6,0.9*24
###2023-12-09 12:55:42.964985$GAGSA,A,3,04,19,21,27,,,,,,,,,1.1,0.6,0.9*26
###2023-12-09 12:55:42.966641$GBGSA,A,3,14,24,25,26,33,,,,,,,,1.1,0.6,0.9*2F
###2023-12-09 12:55:42.968946$GPGSV,2,1,08,03,36,265,43,04,30,311,43,16,47,211,45,26,77,209,48*75
###2023-12-09 12:55:42.971277$GPGSV,2,2,08,28,51,068,46,29,25,064,44,31,70,031,47,32,21,139,40*74
###2023-12-09 12:55:42.973592$GLGSV,2,1,06,65,21,328,44,71,44,172,46,72,72,281,46,73,38,040,46*69
###2023-12-09 12:55:42.975345$GLGSV,2,2,06,74,71,327,43,75,30,250,42,,,,,,,,*67
###2023-12-09 12:55:42.977664$GAGSV,1,1,04,04,27,312,42,19,85,242,40,21,84,147,46,27,35,048,43*69
###2023-12-09 12:55:42.980006$GBGSV,2,1,05,14,46,194,45,24,75,018,48,25,39,260,44,26,28,061,44*66
###2023-12-09 12:55:42.981460$GBGSV,2,2,05,33,59,237,49,,,,,,,,,,,,*59
###2023-12-09 12:55:42.982788$GNVTG,131.38,T,,M,2.37,N,4.39,K,A*23
###2023-12-09 12:55:42.984436$GNGST,175542.10,18.000,,,,0.080,0.068,0.160*5E
###2023-12-09 12:55:42.985723$GNZDA,175542.10,09,12,2023,00,00*70
###2023-12-09 12:55:42.986362$GNEBP,,,,,,M*13
###2023-12-09 12:55:43.153878$GNGGA,175542.30,4138.0443177,N,07032.3919754,W,1,24,0.6,13.065,M,-29.745,M,0.0,*52
###2023-12-09 12:55:43.354641$GNGGA,175542.50,4138.0442309,N,07032.3918385,W,1,24,0.6,13.068,M,-29.745,M,0.0,*5A
###2023-12-09 12:55:43.553710$GNGGA,175542.70,4138.0441604,N,07032.3916867,W,1,24,0.6,13.066,M,-29.745,M,0.0,*54
###2023-12-09 12:55:43.754641$GNGGA,175542.90,4138.0440997,N,07032.3915368,W,1,24,0.6,13.071,M,-29.745,M,0.0,*5F
###2023-12-09 12:55:43.954454$GNRMC,175543.10,A,4138.0440383,N,07032.3913778,W,2.43,118.52,091223,,,A*53
###2023-12-09 12:55:43.957354$GNGGA,175543.10,4138.0440383,N,07032.3913778,W,1,24,0.6,13.073,M,-29.745,M,0.0,*58
###2023-12-09 12:55:43.959232$GPGSA,A,3,03,04,16,26,28,29,31,32,,,,,1.1,0.6,0.9*3B
###2023-12-09 12:55:43.960951$GLGSA,A,3,65,71,72,73,74,75,,,,,,,1.1,0.6,0.9*24
###2023-12-09 12:55:43.962537$GAGSA,A,3,04,19,21,27,,,,,,,,,1.1,0.6,0.9*26
###2023-12-09 12:55:43.964197$GBGSA,A,3,14,24,25,26,33,,,,,,,,1.1,0.6,0.9*2F
###2023-12-09 12:55:43.966523$GPGSV,2,1,08,03,36,265,45,04,30,311,42,16,47,211,46,26,77,209,48*71
###2023-12-09 12:55:43.968866$GPGSV,2,2,08,28,51,068,45,29,25,064,42,31,70,031,47,32,21,139,40*71
###2023-12-09 12:55:43.971212$GLGSV,2,1,06,65,21,328,42,71,44,172,46,72,72,281,46,73,38,040,45*6C
###2023-12-09 12:55:43.972960$GLGSV,2,2,06,74,71,327,42,75,30,250,43,,,,,,,,*67
###2023-12-09 12:55:43.975301$GAGSV,1,1,04,04,27,312,42,19,85,242,40,21,84,147,46,27,35,048,42*68
###2023-12-09 12:55:43.977639$GBGSV,2,1,05,14,46,194,45,24,75,018,49,25,39,260,45,26,28,061,44*66
###2023-12-09 12:55:43.979106$GBGSV,2,2,05,33,59,237,49,,,,,,,,,,,,*59
###2023-12-09 12:55:43.980426$GNVTG,118.52,T,,M,2.43,N,4.50,K,A*28
###2023-12-09 12:55:43.982076$GNGST,175543.10,18.000,,,,0.080,0.067,0.160*50
###2023-12-09 12:55:43.983380$GNZDA,175543.10,09,12,2023,00,00*71
###2023-12-09 12:55:43.984022$GNEBP,,,,,,M*13
###2023-12-09 12:55:44.152664$GNGGA,175543.30,4138.0439788,N,07032.3912137,W,1,24,0.6,13.062,M,-29.745,M,0.0,*57
###2023-12-09 12:55:44.353618$GNGGA,175543.50,4138.0439272,N,07032.3910482,W,1,24,0.6,13.068,M,-29.745,M,0.0,*52
###2023-12-09 12:55:44.554661$GNGGA,175543.70,4138.0438918,N,07032.3908734,W,1,24,0.6,13.079,M,-29.745,M,0.0,*51
###2023-12-09 12:55:44.754774$GNGGA,175543.90,4138.0438593,N,07032.3906943,W,1,24,0.6,13.066,M,-29.745,M,0.0,*5E
###2023-12-09 12:55:44.961538$GNRMC,175544.10,A,4138.0438378,N,07032.3905186,W,2.37,96.48,091223,,,A*60
###2023-12-09 12:55:44.965041$GNGGA,175544.10,4138.0438378,N,07032.3905186,W,1,24,0.6,13.077,M,-29.745,M,0.0,*50
###2023-12-09 12:55:44.967307$GPGSA,A,3,03,04,16,26,28,29,31,32,,,,,1.1,0.6,0.9*3B
###2023-12-09 12:55:44.969368$GLGSA,A,3,65,71,72,73,74,75,,,,,,,1.1,0.6,0.9*24
###2023-12-09 12:55:44.971286$GAGSA,A,3,04,19,21,27,,,,,,,,,1.1,0.6,0.9*26
###2023-12-09 12:55:44.973265$GBGSA,A,3,14,24,25,26,33,,,,,,,,1.1,0.6,0.9*2F
###2023-12-09 12:55:44.976087$GPGSV,2,1,08,03,36,265,45,04,30,311,41,16,47,211,47,26,77,209,48*73
###2023-12-09 12:55:44.978901$GPGSV,2,2,08,28,51,068,44,29,25,064,40,31,70,031,46,32,21,139,40*73
###2023-12-09 12:55:44.981708$GLGSV,2,1,06,65,21,328,42,71,44,172,46,72,72,281,45,73,38,040,45*6F
###2023-12-09 12:55:44.983836$GLGSV,2,2,06,74,71,327,42,75,30,250,44,,,,,,,,*60
###2023-12-09 12:55:44.986655$GAGSV,1,1,04,04,27,312,40,19,85,242,40,21,84,147,46,27,35,048,43*6B
###2023-12-09 12:55:44.989460$GBGSV,2,1,05,14,46,194,45,24,75,018,48,25,39,260,46,26,28,061,41*61
###2023-12-09 12:55:44.991232$GBGSV,2,2,05,33,59,237,47,,,,,,,,,,,,*57
###2023-12-09 12:55:44.992784$GNVTG,96.48,T,,M,2.37,N,4.39,K,A*18
###2023-12-09 12:55:44.994780$GNGST,175544.10,18.000,,,,0.079,0.067,0.160*51
###2023-12-09 12:55:44.996369$GNZDA,175544.10,09,12,2023,00,00*76
###2023-12-09 12:55:44.997140$GNEBP,,,,,,M*13
###2023-12-09 12:55:45.153423$GNGGA,175544.30,4138.0438206,N,07032.3903323,W,1,24,0.6,13.082,M,-29.745,M,0.0,*5B
###2023-12-09 12:55:45.354916$GNGGA,175544.50,4138.0438096,N,07032.3901425,W,1,24,0.6,13.073,M,-29.745,M,0.0,*5B
###2023-12-09 12:55:45.554167$GNGGA,175544.70,4138.0438095,N,07032.3899594,W,1,24,0.6,13.082,M,-29.745,M,0.0,*5F
###2023-12-09 12:55:45.755560$GNGGA,175544.90,4138.0438039,N,07032.3897635,W,1,24,0.6,13.083,M,-29.745,M,0.0,*50
###2023-12-09 12:55:45.953755$GNRMC,175545.10,A,4138.0437951,N,07032.3895683,W,2.59,93.29,091223,,,A*6F
###2023-12-09 12:55:45.957249$GNGGA,175545.10,4138.0437951,N,07032.3895683,W,1,24,0.6,13.077,M,-29.745,M,0.0,*55
###2023-12-09 12:55:45.959497$GPGSA,A,3,03,04,16,26,28,29,31,32,,,,,1.1,0.6,0.9*3B
###2023-12-09 12:55:45.961552$GLGSA,A,3,65,71,72,73,74,75,,,,,,,1.1,0.6,0.9*24
###2023-12-09 12:55:45.963458$GAGSA,A,3,04,19,21,27,,,,,,,,,1.1,0.6,0.9*26
###2023-12-09 12:55:45.965444$GBGSA,A,3,14,24,25,26,33,,,,,,,,1.1,0.6,0.9*2F
###2023-12-09 12:55:45.968547$GPGSV,2,1,08,03,36,265,45,04,30,311,40,16,47,211,47,26,77,209,48*72
###2023-12-09 12:55:45.971370$GPGSV,2,2,08,28,51,068,44,29,25,064,40,31,70,031,46,32,21,139,40*73
###2023-12-09 12:55:45.974184$GLGSV,2,1,06,65,21,328,41,71,44,172,46,72,72,281,46,73,38,040,46*6C
###2023-12-09 12:55:45.976295$GLGSV,2,2,06,74,71,327,42,75,30,250,45,,,,,,,,*61
###2023-12-09 12:55:45.979096$GAGSV,1,1,04,04,27,312,38,19,85,242,40,21,84,147,46,27,35,048,43*64
###2023-12-09 12:55:45.981885$GBGSV,2,1,05,14,46,194,45,24,75,018,48,25,39,260,45,26,28,061,41*62
###2023-12-09 12:55:45.983642$GBGSV,2,2,05,33,59,237,47,,,,,,,,,,,,*57
###2023-12-09 12:55:45.985186$GNVTG,93.29,T,,M,2.59,N,4.79,K,A*16
###2023-12-09 12:55:45.987177$GNGST,175545.10,18.000,,,,0.079,0.068,0.160*5F
