###2023-12-09 13:39:49.030526$GBGSV,2,2,06,33,44,215,44,35,16,055,44,,,,,,,,*6A
###2023-12-09 13:39:49.031937$GNVTG,183.78,T,,M,3.52,N,6.52,K,A*23
###2023-12-09 13:39:49.033553$GNGST,183948.10,5.400,,,,0.092,0.067,0.150*66
###2023-12-09 13:39:49.034862$GNZDA,183948.10,09,12,2023,00,00*7F
###2023-12-09 13:39:49.035504$GNEBP,,,,,,M*13
###2023-12-09 13:39:49.201615$GNGGA,183948.30,4138.0425766,N,07032.3859560,W,1,25,0.6,13.436,M,-29.745,M,0.0,*58
###2023-12-09 13:39:49.401921$GNGGA,183948.50,4138.0423936,N,07032.3859100,W,1,25,0.6,13.412,M,-29.745,M,0.0,*57
###2023-12-09 13:39:49.601484$GNGGA,183948.70,4138.0422106,N,07032.3858836,W,1,25,0.6,13.426,M,-29.745,M,0.0,*55
###2023-12-09 13:39:49.800971$GNGGA,183948.90,4138.0420147,N,07032.3858969,W,1,25,0.6,13.452,M,-29.745,M,0.0,*54
###2023-12-09 13:39:50.004314$GNRMC,183949.10,A,4138.0418191,N,07032.3859028,W,3.38,179.13,091223,,,A*52
###2023-12-09 13:39:50.007195$GNGGA,183949.10,4138.0418191,N,07032.3859028,W,1,25,0.6,13.434,M,-29.745,M,0.0,*50
###2023-12-09 13:39:50.009051$GPGSA,A,3,03,04,16,26,27,28,29,31,,,,,1.0,0.6,0.8*3F
###2023-12-09 13:39:50.010770$GLGSA,A,3,65,71,72,73,74,75,,,,,,,1.0,0.6,0.8*24
###2023-12-09 13:39:50.012343$GAGSA,A,3,04,19,21,27,,,,,,,,,1.0,0.6,0.8*26
###2023-12-09 13:39:50.014042$GBGSA,A,3,12,14,24,25,33,35,,,,,,,1.0,0.6,0.8*2E
###2023-12-09 13:39:50.016364$GPGSV,2,1,08,03,25,244,42,04,48,306,46,16,69,225,46,26,81,040,48*77
###2023-12-09 13:39:50.018693$GPGSV,2,2,08,27,19,172,38,28,36,087,43,29,19,045,41,31,58,070,46*79
###2023-12-09 13:39:50.021009$GLGSV,2,1,06,65,40,316,45,71,20,176,41,72,60,217,45,73,20,054,41*67
###2023-12-09 13:39:50.022756$GLGSV,2,2,06,74,58,018,42,75,45,275,48,,,,,,,,*6D
###2023-12-09 13:39:50.025063$GAGSV,1,1,04,04,41,309,44,19,70,181,40,21,75,045,46,27,21,050,38*6E
###2023-12-09 13:39:50.027389$GBGSV,2,1,06,12,17,125,42,14,27,189,40,24,61,048,48,25,52,278,48*6F
###2023-12-09 13:39:50.029128$GBGSV,2,2,06,33,44,215,46,35,16,055,43,,,,,,,,*6F
###2023-12-09 13:39:50.030440$GNVTG,179.13,T,,M,3.38,N,6.26,K,A*24
###2023-12-09 13:39:50.032061$GNGST,183949.10,5.500,,,,0.092,0.067,0.150*66
###2023-12-09 13:39:50.033349$GNZDA,183949.10,09,12,2023,00,00*7E
###2023-12-09 13:39:50.034021$GNEBP,,,,,,M*13
###2023-12-09 13:39:50.201643$GNGGA,183949.30,4138.0416304,N,07032.3858979,W,1,25,0.6,13.436,M,-29.745,M,0.0,*5C
###2023-12-09 13:39:50.401533$GNGGA,183949.50,4138.0414374,N,07032.3859068,W,1,25,0.6,13.446,M,-29.745,M,0.0,*50
###2023-12-09 13:39:50.601561$GNGGA,183949.70,4138.0412439,N,07032.3859251,W,1,25,0.6,13.437,M,-29.745,M,0.0,*54
###2023-12-09 13:39:50.801968$GNGGA,183949.90,4138.0410576,N,07032.3859464,W,1,25,0.6,13.433,M,-29.745,M,0.0,*56
###2023-12-09 13:39:51.006933$GNRMC,183950.10,A,4138.0408699,N,07032.3859700,W,3.44,184.60,091223,,,A*54
###2023-12-09 13:39:51.009778$GNGGA,183950.10,4138.0408699,N,07032.3859700,W,1,25,0.6,13.453,M,-29.745,M,0.0,*5A
###2023-12-09 13:39:51.011638$GPGSA,A,3,03,04,16,26,27,28,29,31,,,,,1.0,0.6,0.8*3F
###2023-12-09 13:39:51.013351$GLGSA,A,3,65,71,72,73,74,75,,,,,,,1.0,0.6,0.8*24
###2023-12-09 13:39:51.014940$GAGSA,A,3,04,19,21,27,,,,,,,,,1.0,0.6,0.8*26
###2023-12-09 13:39:51.016640$GBGSA,A,3,12,14,24,25,33,35,,,,,,,1.0,0.6,0.8*2E
###2023-12-09 13:39:51.018965$GPGSV,2,1,08,03,25,244,42,04,48,306,46,16,69,225,47,26,81,040,49*77
###2023-12-09 13:39:51.021284$GPGSV,2,2,08,27,19,172,40,28,36,087,46,29,19,045,43,31,58,070,47*70
###2023-12-09 13:39:51.023613$GLGSV,2,1,06,65,40,316,44,71,20,176,41,72,60,217,45,73,20,054,43*64
###2023-12-09 13:39:51.025355$GLGSV,2,2,06,74,58,018,43,75,45,275,48,,,,,,,,*6C
###2023-12-09 13:39:51.027682$GAGSV,1,1,04,04,41,309,45,19,70,181,41,21,75,045,47,27,21,050,40*60
###2023-12-09 13:39:51.030000$GBGSV,2,1,06,12,17,125,42,14,27,189,41,24,61,048,48,25,52,278,47*61
###2023-12-09 13:39:51.031751$GBGSV,2,2,06,33,44,215,45,35,16,055,43,,,,,,,,*6C
###2023-12-09 13:39:51.033069$GNVTG,184.60,T,,M,3.44,N,6.37,K,A*29
###2023-12-09 13:39:51.034712$GNGST,183950.10,5.000,,,,0.092,0.067,0.150*6B
###2023-12-09 13:39:51.035998$GNZDA,183950.10,09,12,2023,00,00*76
###2023-12-09 13:39:51.036634$GNEBP,,,,,,M*13
###2023-12-09 13:39:51.206610$GNGGA,183950.30,4138.0406838,N,07032.3859914,W,1,25,0.6,13.455,M,-29.745,M,0.0,*5E
###2023-12-09 13:39:51.401594$GNGGA,183950.50,4138.0404976,N,07032.3860050,W,1,25,0.6,13.444,M,-29.745,M,0.0,*52
###2023-12-09 13:39:51.601173$GNGGA,183950.70,4138.0403083,N,07032.3860060,W,1,25,0.6,13.425,M,-29.745,M,0.0,*50
###2023-12-09 13:39:51.803510$GNGGA,183950.90,4138.0401227,N,07032.3860182,W,1,25,0.6,13.430,M,-29.745,M,0.0,*59
###2023-12-09 13:39:52.005170$GNRMC,183951.10,A,4138.0399315,N,07032.3860397,W,3.46,182.91,091223,,,A*51
###2023-12-09 13:39:52.008027$GNGGA,183951.10,4138.0399315,N,07032.3860397,W,1,25,0.6,13.464,M,-29.745,M,0.0,*51
###2023-12-09 13:39:52.009868$GPGSA,A,3,03,04,16,26,27,28,29,31,,,,,1.0,0.6,0.8*3F
###2023-12-09 13:39:52.011586$GLGSA,A,3,65,71,72,73,74,75,,,,,,,1.0,0.6,0.8*24
###2023-12-09 13:39:52.013160$GAGSA,A,3,04,19,21,27,,,,,,,,,1.0,0.6,0.8*26
###2023-12-09 13:39:52.014872$GBGSA,A,3,12,14,24,25,33,35,,,,,,,1.0,0.6,0.8*2E
###2023-12-09 13:39:52.017187$GPGSV,2,1,08,03,25,244,42,04,48,306,46,16,69,225,46,26,81,040,49*76
###2023-12-09 13:39:52.019514$GPGSV,2,2,08,27,19,172,38,28,36,087,46,29,19,045,42,31,58,070,47*7E
###2023-12-09 13:39:52.021834$GLGSV,2,1,06,65,40,316,44,71,20,176,39,72,60,217,45,73,20,054,42*6A
###2023-12-09 13:39:52.023584$GLGSV,2,2,06,74,58,018,43,75,45,275,48,,,,,,,,*6C
###2023-12-09 13:39:52.025905$GAGSV,1,1,04,04,41,309,44,19,70,181,42,21,75,045,47,27,21,050,40*62
###2023-12-09 13:39:52.028239$GBGSV,2,1,06,12,17,125,40,14,27,189,39,24,61,048,47,25,52,278,47*63
###2023-12-09 13:39:52.029978$GBGSV,2,2,06,33,44,215,44,35,16,055,43,,,,,,,,*6D
###2023-12-09 13:39:52.031310$GNVTG,182.91,T,,M,3.46,N,6.41,K,A*22
###2023-12-09 13:39:52.032922$GNGST,183951.10,5.600,,,,0.092,0.067,0.150*6C
###2023-12-09 13:39:52.034210$GNZDA,183951.10,09,12,2023,00,00*77
###2023-12-09 13:39:52.034858$GNEBP,,,,,,M*13
###2023-12-09 13:39:52.202484$GNGGA,183951.30,4138.0397419,N,07032.3860330,W,1,25,0.6,13.444,M,-29.745,M,0.0,*59
###2023-12-09 13:39:52.403040$GNGGA,183951.50,4138.0395651,N,07032.3860067,W,1,25,0.6,13.433,M,-29.745,M,0.0,*52
###2023-12-09 13:39:52.603190$GNGGA,183951.70,4138.0393761,N,07032.3860089,W,1,25,0.6,13.458,M,-29.745,M,0.0,*59
###2023-12-09 13:39:52.801005$GNGGA,183951.90,4138.0391842,N,07032.3860079,W,1,25,0.6,13.441,M,-29.745,M,0.0,*5C
###2023-12-09 13:39:53.005999$GNRMC,183952.10,A,4138.0390000,N,07032.3859913,W,3.42,175.61,091223,,,A*53
###2023-12-09 13:39:53.008871$GNGGA,183952.10,4138.0390000,N,07032.3859913,W,1,25,0.6,13.432,M,-29.745,M,0.0,*53
###2023-12-09 13:39:53.010783$GPGSA,A,3,03,04,16,26,27,28,29,31,,,,,1.0,0.6,0.8*3F
###2023-12-09 13:39:53.012494$GLGSA,A,3,65,71,72,73,74,75,,,,,,,1.0,0.6,0.8*24
###2023-12-09 13:39:53.014066$GAGSA,A,3,04,19,21,27,,,,,,,,,1.0,0.6,0.8*26
###2023-12-09 13:39:53.015785$GBGSA,A,3,12,14,24,25,33,35,,,,,,,1.0,0.6,0.8*2E
###2023-12-09 13:39:53.018103$GPGSV,2,1,08,03,25,244,43,04,48,306,46,16,69,225,46,26,81,040,49*77
###2023-12-09 13:39:53.020446$GPGSV,2,2,08,27,19,172,40,28,36,087,45,29,19,045,42,31,58,070,47*72
###2023-12-09 13:39:53.022785$GLGSV,2,1,06,65,40,316,44,71,20,176,42,72,60,217,45,73,20,054,42*66
###2023-12-09 13:39:53.024531$GLGSV,2,2,06,74,58,018,43,75,45,275,49,,,,,,,,*6D
###2023-12-09 13:39:53.026866$GAGSV,1,1,04,04,41,309,45,19,70,181,41,21,75,045,47,27,21,050,40*60
###2023-12-09 13:39:53.029179$GBGSV,2,1,06,12,17,125,41,14,27,189,41,24,61,048,48,25,52,278,49*6C
###2023-12-09 13:39:53.030927$GBGSV,2,2,06,33,44,215,45,35,16,055,44,,,,,,,,*6B
###2023-12-09 13:39:53.032247$GNVTG,175.61,T,,M,3.42,N,6.34,K,A*23
###2023-12-09 13:39:53.033858$GNGST,183952.10,5.400,,,,0.091,0.066,0.150*6F
###2023-12-09 13:39:53.035156$GNZDA,183952.10,09,12,2023,00,00*74
###2023-12-09 13:39:53.035794$GNEBP,,,,,,M*13
###2023-12-09 13:39:53.203509$GNGGA,183952.30,4138.0388187,N,07032.3859711,W,1,25,0.6,13.437,M,-29.745,M,0.0,*5F
###2023-12-09 13:39:53.403789$GNGGA,183952.50,4138.0386348,N,07032.3859579,W,1,25,0.6,13.440,M,-29.745,M,0.0,*5A
###2023-12-09 13:39:53.602665$GNGGA,183952.70,4138.0384437,N,07032.3859547,W,1,25,0.6,13.422,M,-29.745,M,0.0,*5C
###2023-12-09 13:39:53.800826$GNGGA,183952.90,4138.0382608,N,07032.3859493,W,1,25,0.6,13.410,M,-29.745,M,0.0,*53
###2023-12-09 13:39:54.005056$GNRMC,183953.10,A,4138.0380847,N,07032.3859630,W,3.30,187.26,091223,,,A*5D
###2023-12-09 13:39:54.007932$GNGGA,183953.10,4138.0380847,N,07032.3859630,W,1,25,0.6,13.437,M,-29.745,M,0.0,*53
###2023-12-09 13:39:54.009787$GPGSA,A,3,03,04,16,26,27,28,29,31,,,,,1.0,0.6,0.8*3F
###2023-12-09 13:39:54.011513$GLGSA,A,3,65,71,72,73,74,75,,,,,,,1.0,0.6,0.8*24
###2023-12-09 13:39:54.013096$GAGSA,A,3,04,19,21,27,,,,,,,,,1.0,0.6,0.8*26
###2023-12-09 13:39:54.014814$GBGSA,A,3,12,14,24,25,33,35,,,,,,,1.0,0.6,0.8*2E
###2023-12-09 13:39:54.017140$GPGSV,2,1,08,03,25,244,43,04,48,306,46,16,69,225,46,26,81,040,49*77
