###2023-12-09 12:46:14.958290$GPGSV,2,1,08,03,37,270,43,04,26,311,42,16,42,209,42,26,72,208,47*76
###2023-12-09 12:46:14.960668$GPGSV,2,2,08,28,54,062,43,29,26,068,42,31,72,018,48,32,25,137,43*78
###2023-12-09 12:46:14.963032$GLGSV,2,1,06,65,17,329,41,71,50,171,46,72,70,297,47,73,43,037,47*67
###2023-12-09 12:46:14.964783$GLGSV,2,2,06,74,71,310,43,75,26,245,42,,,,,,,,*60
###2023-12-09 12:46:14.967130$GAGSV,1,1,04,04,24,312,40,19,84,283,41,21,82,167,46,27,38,049,43*6D
###2023-12-09 12:46:14.969465$GBGSV,2,1,05,14,50,195,44,24,78,005,48,25,36,256,45,26,31,059,43*6F
###2023-12-09 12:46:14.970948$GBGSV,2,2,05,33,61,245,48,,,,,,,,,,,,*56
###2023-12-09 12:46:14.972270$GNVTG,266.23,T,,M,0.60,N,1.12,K,A*24
###2023-12-09 12:46:14.973917$GNGST,174614.10,18.000,,,,0.078,0.069,0.160*59
###2023-12-09 12:46:14.975218$GNZDA,174614.10,09,12,2023,00,00*71
###2023-12-09 12:46:14.975856$GNEBP,,,,,,M*13
###2023-12-09 12:46:15.145195$GNGGA,174614.30,4138.0482988,N,07032.3891516,W,1,24,0.6,13.334,M,-29.745,M,0.0,*54
###2023-12-09 12:46:15.345236$GNGGA,174614.50,4138.0482923,N,07032.3891523,W,1,24,0.6,13.324,M,-29.745,M,0.0,*54
###2023-12-09 12:46:15.549293$GNGGA,174614.70,4138.0482874,N,07032.3891712,W,1,24,0.6,13.318,M,-29.745,M,0.0,*5A
###2023-12-09 12:46:15.745049$GNGGA,174614.90,4138.0482867,N,07032.3892220,W,1,24,0.6,13.326,M,-29.745,M,0.0,*5C
###2023-12-09 12:46:15.947515$GNRMC,174615.10,A,4138.0482850,N,07032.3892676,W,0.43,266.23,091223,,,A*50
###2023-12-09 12:46:15.950369$GNGGA,174615.10,4138.0482850,N,07032.3892676,W,1,24,0.6,13.324,M,-29.745,M,0.0,*54
###2023-12-09 12:46:15.952236$GPGSA,A,3,03,04,16,26,28,29,31,32,,,,,1.1,0.6,0.9*3B
###2023-12-09 12:46:15.953952$GLGSA,A,3,65,71,72,73,74,75,,,,,,,1.1,0.6,0.9*24
###2023-12-09 12:46:15.955554$GAGSA,A,3,04,19,21,27,,,,,,,,,1.1,0.6,0.9*26
###2023-12-09 12:46:15.957206$GBGSA,A,3,14,24,25,26,33,,,,,,,,1.1,0.6,0.9*2F
###2023-12-09 12:46:15.959543$GPGSV,2,1,08,03,37,270,44,04,26,311,41,16,42,209,43,26,72,208,47*73
###2023-12-09 12:46:15.961871$GPGSV,2,2,08,28,54,062,45,29,26,068,42,31,72,018,48,32,25,137,43*7E
###2023-12-09 12:46:15.964207$GLGSV,2,1,06,65,17,329,40,71,50,171,46,72,70,297,47,73,43,037,45*64
###2023-12-09 12:46:15.965957$GLGSV,2,2,06,74,71,310,41,75,26,245,42,,,,,,,,*62
###2023-12-09 12:46:15.968308$GAGSV,1,1,04,04,24,312,40,19,84,283,41,21,82,167,46,27,38,049,43*6D
###2023-12-09 12:46:15.970647$GBGSV,2,1,05,14,50,195,44,24,78,005,49,25,36,256,44,26,31,059,43*6F
###2023-12-09 12:46:15.972100$GBGSV,2,2,05,33,61,245,48,,,,,,,,,,,,*56
###2023-12-09 12:46:15.973422$GNVTG,266.23,T,,M,0.43,N,0.79,K,A*29
###2023-12-09 12:46:15.975081$GNGST,174615.10,18.000,,,,0.078,0.069,0.160*58
###2023-12-09 12:46:15.976373$GNZDA,174615.10,09,12,2023,00,00*70
###2023-12-09 12:46:15.977010$GNEBP,,,,,,M*13
###2023-12-09 12:46:16.145327$GNGGA,174615.30,4138.0482804,N,07032.3892859,W,1,24,0.6,13.325,M,-29.745,M,0.0,*55
###2023-12-09 12:46:16.345191$GNGGA,174615.50,4138.0482732,N,07032.3892931,W,1,24,0.6,13.316,M,-29.745,M,0.0,*56
###2023-12-09 12:46:16.546132$GNGGA,174615.70,4138.0482682,N,07032.3893156,W,1,24,0.6,13.309,M,-29.745,M,0.0,*58
###2023-12-09 12:46:16.745021$GNGGA,174615.90,4138.0482666,N,07032.3893590,W,1,24,0.6,13.299,M,-29.745,M,0.0,*5A
###2023-12-09 12:46:16.947006$GNRMC,174616.10,A,4138.0482642,N,07032.3894068,W,0.54,266.23,091223,,,A*57
###2023-12-09 12:46:16.949882$GNGGA,174616.10,4138.0482642,N,07032.3894068,W,1,24,0.6,13.296,M,-29.745,M,0.0,*5D
###2023-12-09 12:46:16.951760$GPGSA,A,3,03,04,16,26,28,29,31,32,,,,,1.1,0.6,0.9*3B
###2023-12-09 12:46:16.953484$GLGSA,A,3,65,71,72,73,74,75,,,,,,,1.1,0.6,0.9*24
###2023-12-09 12:46:16.955090$GAGSA,A,3,04,19,21,27,,,,,,,,,1.1,0.6,0.9*26
###2023-12-09 12:46:16.956747$GBGSA,A,3,14,24,25,26,33,,,,,,,,1.1,0.6,0.9*2F
###2023-12-09 12:46:16.959111$GPGSV,2,1,08,03,37,270,45,04,26,311,42,16,42,209,43,26,72,208,48*7E
###2023-12-09 12:46:16.961461$GPGSV,2,2,08,28,54,062,46,29,26,068,41,31,72,018,48,32,25,137,45*78
###2023-12-09 12:46:16.963826$GLGSV,2,1,06,65,17,329,41,71,50,171,46,72,70,297,47,73,43,037,46*66
###2023-12-09 12:46:16.965586$GLGSV,2,2,06,74,71,310,42,75,26,245,42,,,,,,,,*61
###2023-12-09 12:46:16.967944$GAGSV,1,1,04,04,24,312,40,19,84,276,41,21,82,167,46,27,38,049,43*67
###2023-12-09 12:46:16.970296$GBGSV,2,1,05,14,50,195,44,24,78,005,49,25,36,256,44,26,31,059,43*6F
###2023-12-09 12:46:16.971777$GBGSV,2,2,05,33,61,245,48,,,,,,,,,,,,*56
###2023-12-09 12:46:16.973110$GNVTG,266.23,T,,M,0.54,N,1.01,K,A*21
###2023-12-09 12:46:16.974785$GNGST,174616.10,18.000,,,,0.078,0.069,0.160*5B
###2023-12-09 12:46:16.976090$GNZDA,174616.10,09,12,2023,00,00*73
###2023-12-09 12:46:16.976733$GNEBP,,,,,,M*13
###2023-12-09 12:46:17.145281$GNGGA,174616.30,4138.0482585,N,07032.3894298,W,1,24,0.6,13.292,M,-29.745,M,0.0,*5E
###2023-12-09 12:46:17.346309$GNGGA,174616.50,4138.0482508,N,07032.3894303,W,1,24,0.6,13.288,M,-29.745,M,0.0,*55
###2023-12-09 12:46:17.546207$GNGGA,174616.70,4138.0482462,N,07032.3894599,W,1,24,0.6,13.301,M,-29.745,M,0.0,*5F
###2023-12-09 12:46:17.746555$GNGGA,174616.90,4138.0482475,N,07032.3895191,W,1,24,0.6,13.302,M,-29.745,M,0.0,*59
###2023-12-09 12:46:17.947244$GNRMC,174617.10,A,4138.0482439,N,07032.3895572,W,0.25,266.23,091223,,,A*51
###2023-12-09 12:46:17.950109$GNGGA,174617.10,4138.0482439,N,07032.3895572,W,1,24,0.6,13.281,M,-29.745,M,0.0,*5B
###2023-12-09 12:46:17.951992$GPGSA,A,3,03,04,16,26,28,29,31,32,,,,,1.1,0.6,0.9*3B
###2023-12-09 12:46:17.953709$GLGSA,A,3,65,71,72,73,74,75,,,,,,,1.1,0.6,0.9*24
###2023-12-09 12:46:17.955313$GAGSA,A,3,04,19,21,27,,,,,,,,,1.1,0.6,0.9*26
###2023-12-09 12:46:17.956962$GBGSA,A,3,14,24,25,26,33,,,,,,,,1.1,0.6,0.9*2F
###2023-12-09 12:46:17.959308$GPGSV,2,1,08,03,37,270,45,04,26,311,43,16,42,209,43,26,72,208,47*70
###2023-12-09 12:46:17.961643$GPGSV,2,2,08,28,54,062,45,29,26,068,40,31,72,018,47,32,25,137,43*73
###2023-12-09 12:46:17.963982$GLGSV,2,1,06,65,17,329,41,71,50,171,46,72,70,297,47,73,43,037,45*65
###2023-12-09 12:46:17.965735$GLGSV,2,2,06,74,71,310,42,75,26,245,41,,,,,,,,*62
###2023-12-09 12:46:17.968074$GAGSV,1,1,04,04,24,312,40,19,84,276,41,21,82,165,46,27,38,049,43*65
###2023-12-09 12:46:17.970396$GBGSV,2,1,05,14,50,195,44,24,78,005,48,25,36,256,44,26,31,059,44*69
###2023-12-09 12:46:17.971877$GBGSV,2,2,05,33,61,245,48,,,,,,,,,,,,*56
###2023-12-09 12:46:17.973230$GNVTG,266.23,T,,M,0.25,N,0.47,K,A*24
###2023-12-09 12:46:17.974896$GNGST,174617.10,18.000,,,,0.078,0.069,0.160*5A
###2023-12-09 12:46:17.976194$GNZDA,174617.10,09,12,2023,00,00*72
###2023-12-09 12:46:17.976835$GNEBP,,,,,,M*13
###2023-12-09 12:46:18.145081$GNGGA,174617.30,4138.0482370,N,07032.3895571,W,1,24,0.6,13.263,M,-29.745,M,0.0,*5C
###2023-12-09 12:46:18.348020$GNGGA,174617.50,4138.0482279,N,07032.3895752,W,1,24,0.6,13.274,M,-29.745,M,0.0,*57
###2023-12-09 12:46:18.547218$GNGGA,174617.70,4138.0482290,N,07032.3896353,W,1,24,0.6,13.290,M,-29.745,M,0.0,*5E
###2023-12-09 12:46:18.745682$GNGGA,174617.90,4138.0482300,N,07032.3896876,W,1,24,0.6,13.285,M,-29.745,M,0.0,*50
###2023-12-09 12:46:18.946334$GNRMC,174618.10,A,4138.0482232,N,07032.3896952,W,0.21,266.23,091223,,,A*5A
###2023-12-09 12:46:18.949214$GNGGA,174618.10,4138.0482232,N,07032.3896952,W,1,24,0.6,13.267,M,-29.745,M,0.0,*5C
###2023-12-09 12:46:18.951089$GPGSA,A,3,03,04,16,26,28,29,31,32,,,,,1.1,0.6,0.9*3B
###2023-12-09 12:46:18.952805$GLGSA,A,3,65,71,72,73,74,75,,,,,,,1.1,0.6,0.9*24
###2023-12-09 12:46:18.954378$GAGSA,A,3,04,19,21,27,,,,,,,,,1.1,0.6,0.9*26
###2023-12-09 12:46:18.956037$GBGSA,A,3,14,24,25,26,33,,,,,,,,1.1,0.6,0.9*2F
###2023-12-09 12:46:18.958422$GPGSV,2,1,08,03,37,270,45,04,26,311,43,16,42,209,43,26,72,208,48*7F
###2023-12-09 12:46:18.960851$GPGSV,2,2,08,28,54,062,45,29,26,068,41,31,72,018,48,32,25,137,43*7D
###2023-12-09 12:46:18.963271$GLGSV,2,1,06,65,17,329,41,71,50,171,46,72,70,297,47,73,43,037,46*66
###2023-12-09 12:46:18.965116$GLGSV,2,2,06,74,71,310,43,75,26,245,41,,,,,,,,*63
###2023-12-09 12:46:18.967497$GAGSV,1,1,04,04,24,312,41,19,84,276,41,21,82,165,46,27,38,049,43*64
###2023-12-09 12:46:18.969828$GBGSV,2,1,05,14,50,195,44,24,78,005,49,25,36,256,44,26,31,059,43*6F
###2023-12-09 12:46:18.971297$GBGSV,2,2,05,33,61,245,48,,,,,,,,,,,,*56
###2023-12-09 12:46:18.972896$GNVTG,266.23,T,,M,0.21,N,0.40,K,A*27
###2023-12-09 12:46:18.974552$GNGST,174618.10,18.000,,,,0.078,0.069,0.160*55
###2023-12-09 12:46:18.975866$GNZDA,174618.10,09,12,2023,00,00*7D
###2023-12-09 12:46:18.976509$GNEBP,,,,,,M*13
###2023-12-09 12:46:19.146281$GNGGA,174618.30,4138.0482141,N,07032.3896956,W,1,24,0.6,13.250,M,-29.745,M,0.0,*59
###2023-12-09 12:46:19.346815$GNGGA,174618.50,4138.0482087,N,07032.3897329,W,1,24,0.6,13.260,M,-29.745,M,0.0,*54
###2023-12-09 12:46:19.547001$GNGGA,174618.70,4138.0482083,N,07032.3897954,W,1,24,0.6,13.269,M,-29.745,M,0.0,*5B
###2023-12-09 12:46:19.746010$GNGGA,174618.90,4138.0482062,N,07032.3898344,W,1,24,0.6,13.275,M,-29.745,M,0.0,*53
###2023-12-09 12:46:19.946943$GNRMC,174619.10,A,4138.0481979,N,07032.3898362,W,0.17,266.23,091223,,,A*5E
