###2023-12-09 13:38:00.003751$GNGGA,183759.10,4138.0275985,N,07032.3929675,W,1,23,0.6,13.396,M,-29.745,M,0.0,*5E
###2023-12-09 13:38:00.005573$GPGSA,A,3,04,16,26,27,28,29,31,,,,,,1.1,0.6,1.0*34
###2023-12-09 13:38:00.007316$GLGSA,A,3,65,71,72,73,74,75,,,,,,,1.1,0.6,1.0*2C
###2023-12-09 13:38:00.008903$GAGSA,A,3,04,19,21,27,,,,,,,,,1.1,0.6,1.0*2E
###2023-12-09 13:38:00.010628$GBGSA,A,3,12,14,24,25,33,35,,,,,,,1.1,0.6,1.0*26
###2023-12-09 13:38:00.012950$GPGSV,2,1,07,04,48,307,45,16,68,224,48,26,82,040,48,27,18,172,41*7A
###2023-12-09 13:38:00.015002$GPGSV,2,2,07,28,37,086,42,29,20,046,42,31,58,068,46,,,,*46
###2023-12-09 13:38:00.017335$GLGSV,2,1,06,65,39,317,44,71,21,175,44,72,61,219,47,73,21,053,40*64
###2023-12-09 13:38:00.019090$GLGSV,2,2,06,74,59,016,42,75,44,273,48,,,,,,,,*65
###2023-12-09 13:38:00.021413$GAGSV,1,1,04,04,41,309,44,19,70,181,42,21,75,045,46,27,22,050,39*6E
###2023-12-09 13:38:00.023766$GBGSV,2,1,06,12,16,125,38,14,28,189,40,24,62,047,47,25,52,277,48*60
###2023-12-09 13:38:00.025519$GBGSV,2,2,06,33,44,216,47,35,16,055,43,,,,,,,,*6D
###2023-12-09 13:38:00.026823$GNVTG,89.92,T,,M,0.64,N,1.19,K,A*12
###2023-12-09 13:38:00.028440$GNGST,183759.10,5.600,,,,0.120,0.098,0.220*66
###2023-12-09 13:38:00.029732$GNZDA,183759.10,09,12,2023,00,00*71
###2023-12-09 13:38:00.030372$GNEBP,,,,,,M*13
###2023-12-09 13:38:00.200676$GNGGA,183759.30,4138.0276176,N,07032.3929331,W,1,23,0.6,13.434,M,-29.745,M,0.0,*51
###2023-12-09 13:38:00.399661$GNGGA,183759.50,4138.0276419,N,07032.3929313,W,1,23,0.6,13.433,M,-29.745,M,0.0,*5C
###2023-12-09 13:38:00.598500$GNGGA,183759.70,4138.0276624,N,07032.3929400,W,1,23,0.6,13.403,M,-29.745,M,0.0,*54
###2023-12-09 13:38:00.799897$GNGGA,183759.90,4138.0276814,N,07032.3929411,W,1,23,0.6,13.401,M,-29.745,M,0.0,*55
###2023-12-09 13:38:01.002671$GNRMC,183800.10,A,4138.0277014,N,07032.3929297,W,0.41,89.92,091223,,,A*67
###2023-12-09 13:38:01.005539$GNGGA,183800.10,4138.0277014,N,07032.3929297,W,1,23,0.6,13.431,M,-29.745,M,0.0,*5C
###2023-12-09 13:38:01.007344$GPGSA,A,3,04,16,26,27,28,29,31,,,,,,1.1,0.6,0.9*3C
###2023-12-09 13:38:01.009065$GLGSA,A,3,65,71,72,73,74,75,,,,,,,1.1,0.6,0.9*24
###2023-12-09 13:38:01.010659$GAGSA,A,3,04,19,21,27,,,,,,,,,1.1,0.6,0.9*26
###2023-12-09 13:38:01.012375$GBGSA,A,3,12,14,24,25,33,35,,,,,,,1.1,0.6,0.9*2E
###2023-12-09 13:38:01.014713$GPGSV,2,1,07,04,48,307,44,16,68,224,47,26,82,040,48,27,18,172,42*77
###2023-12-09 13:38:01.016757$GPGSV,2,2,07,28,37,086,43,29,20,046,42,31,58,068,45,,,,*44
###2023-12-09 13:38:01.019107$GLGSV,2,1,06,65,39,317,44,71,21,175,45,72,61,219,46,73,21,053,37*64
###2023-12-09 13:38:01.020861$GLGSV,2,2,06,74,59,016,41,75,44,273,48,,,,,,,,*66
###2023-12-09 13:38:01.023200$GAGSV,1,1,04,04,41,309,44,19,70,181,42,21,75,045,46,27,22,050,39*6E
###2023-12-09 13:38:01.025528$GBGSV,2,1,06,12,16,125,38,14,28,189,39,24,62,047,46,25,52,277,47*60
###2023-12-09 13:38:01.027288$GBGSV,2,2,06,33,44,216,47,35,16,055,43,,,,,,,,*6D
###2023-12-09 13:38:01.028586$GNVTG,89.92,T,,M,0.41,N,0.76,K,A*1D
###2023-12-09 13:38:01.030211$GNGST,183800.10,5.700,,,,0.120,0.098,0.220*64
###2023-12-09 13:38:01.031520$GNZDA,183800.10,09,12,2023,00,00*72
###2023-12-09 13:38:01.032160$GNEBP,,,,,,M*13
###2023-12-09 13:38:01.203414$GNGGA,183800.30,4138.0277215,N,07032.3929130,W,1,23,0.6,13.452,M,-29.745,M,0.0,*56
###2023-12-09 13:38:01.397933$GNGGA,183800.50,4138.0277409,N,07032.3929001,W,1,23,0.6,13.441,M,-29.745,M,0.0,*5A
###2023-12-09 13:38:01.594688$GNGGA,183800.70,4138.0277618,N,07032.3929033,W,1,23,0.6,13.430,M,-29.745,M,0.0,*5D
###2023-12-09 13:38:01.796924$GNGGA,183800.90,4138.0277854,N,07032.3929143,W,1,23,0.6,13.430,M,-29.745,M,0.0,*53
###2023-12-09 13:38:02.001776$GNRMC,183801.10,A,4138.0278054,N,07032.3929047,W,0.43,89.92,091223,,,A*60
###2023-12-09 13:38:02.004670$GNGGA,183801.10,4138.0278054,N,07032.3929047,W,1,23,0.6,13.438,M,-29.745,M,0.0,*50
###2023-12-09 13:38:02.006463$GPGSA,A,3,04,16,26,27,28,29,31,,,,,,1.1,0.6,1.0*34
###2023-12-09 13:38:02.008187$GLGSA,A,3,65,71,72,73,74,75,,,,,,,1.1,0.6,1.0*2C
###2023-12-09 13:38:02.009772$GAGSA,A,3,04,19,21,27,,,,,,,,,1.1,0.6,1.0*2E
###2023-12-09 13:38:02.011495$GBGSA,A,3,12,14,24,25,33,35,,,,,,,1.1,0.6,1.0*26
###2023-12-09 13:38:02.013821$GPGSV,2,1,07,04,48,307,44,16,68,224,47,26,82,040,47,27,18,172,42*78
###2023-12-09 13:38:02.015874$GPGSV,2,2,07,28,37,086,43,29,20,046,41,31,58,068,46,,,,*44
###2023-12-09 13:38:02.018197$GLGSV,2,1,06,65,39,317,44,71,21,175,45,72,61,219,47,73,21,053,39*6B
###2023-12-09 13:38:02.019959$GLGSV,2,2,06,74,59,016,42,75,44,273,48,,,,,,,,*65
###2023-12-09 13:38:02.022283$GAGSV,1,1,04,04,41,309,44,19,70,181,42,21,75,045,45,27,22,050,38*6C
###2023-12-09 13:38:02.024622$GBGSV,2,1,06,12,16,125,38,14,28,189,40,24,62,047,46,25,52,277,47*6E
###2023-12-09 13:38:02.026372$GBGSV,2,2,06,33,44,216,47,35,16,055,42,,,,,,,,*6C
###2023-12-09 13:38:02.027672$GNVTG,89.92,T,,M,0.43,N,0.79,K,A*10
###2023-12-09 13:38:02.029283$GNGST,183801.10,5.400,,,,0.110,0.098,0.220*65
###2023-12-09 13:38:02.030607$GNZDA,183801.10,09,12,2023,00,00*73
###2023-12-09 13:38:02.031249$GNEBP,,,,,,M*13
###2023-12-09 13:38:02.195577$GNGGA,183801.30,4138.0278232,N,07032.3928847,W,1,23,0.6,13.449,M,-29.745,M,0.0,*5F
###2023-12-09 13:38:02.394867$GNGGA,183801.50,4138.0278447,N,07032.3928806,W,1,23,0.6,13.454,M,-29.745,M,0.0,*54
###2023-12-09 13:38:02.594556$GNGGA,183801.70,4138.0278667,N,07032.3928816,W,1,23,0.6,13.448,M,-29.745,M,0.0,*5A
###2023-12-09 13:38:02.797682$GNGGA,183801.90,4138.0278869,N,07032.3928850,W,1,23,0.6,13.437,M,-29.745,M,0.0,*5E
###2023-12-09 13:38:02.999213$GNRMC,183802.10,A,4138.0279057,N,07032.3928820,W,0.37,89.92,091223,,,A*6A
###2023-12-09 13:38:03.002078$GNGGA,183802.10,4138.0279057,N,07032.3928820,W,1,25,0.6,13.441,M,-29.745,M,0.0,*51
###2023-12-09 13:38:03.003954$GPGSA,A,3,03,04,16,26,27,28,29,31,,,,,1.1,0.6,0.9*3F
###2023-12-09 13:38:03.005739$GLGSA,A,3,65,71,72,73,74,75,83,,,,,,1.1,0.6,0.9*2F
###2023-12-09 13:38:03.007328$GAGSA,A,3,04,19,21,27,,,,,,,,,1.1,0.6,0.9*26
###2023-12-09 13:38:03.009039$GBGSA,A,3,12,14,24,25,33,35,,,,,,,1.1,0.6,0.9*2E
###2023-12-09 13:38:03.011372$GPGSV,2,1,08,03,25,245,35,04,48,307,44,16,68,224,47,26,82,040,48*77
###2023-12-09 13:38:03.013692$GPGSV,2,2,08,27,18,172,43,28,37,086,43,29,20,046,40,31,58,068,47*74
###2023-12-09 13:38:03.016028$GLGSV,2,1,07,65,39,317,43,71,21,175,46,72,61,219,47,73,21,053,39*6E
###2023-12-09 13:38:03.018068$GLGSV,2,2,07,74,59,016,42,75,44,273,47,83,15,046,35,,,,*50
###2023-12-09 13:38:03.020403$GAGSV,1,1,04,04,41,309,43,19,70,181,42,21,75,045,45,27,22,050,37*64
###2023-12-09 13:38:03.022747$GBGSV,2,1,06,12,16,125,39,14,28,189,39,24,62,047,46,25,52,277,47*61
###2023-12-09 13:38:03.024499$GBGSV,2,2,06,33,44,216,46,35,16,055,41,,,,,,,,*6E
###2023-12-09 13:38:03.025784$GNVTG,89.92,T,,M,0.37,N,0.68,K,A*13
###2023-12-09 13:38:03.027410$GNGST,183802.10,6.100,,,,0.110,0.098,0.220*60
###2023-12-09 13:38:03.028708$GNZDA,183802.10,09,12,2023,00,00*70
###2023-12-09 13:38:03.029346$GNEBP,,,,,,M*13
###2023-12-09 13:38:03.199074$GNGGA,183802.30,4138.0279255,N,07032.3928703,W,1,24,0.6,13.455,M,-29.745,M,0.0,*59
###2023-12-09 13:38:03.396212$GNGGA,183802.50,4138.0279453,N,07032.3928665,W,1,24,0.6,13.460,M,-29.745,M,0.0,*58
###2023-12-09 13:38:03.598503$GNGGA,183802.70,4138.0279649,N,07032.3928706,W,1,24,0.6,13.460,M,-29.745,M,0.0,*57
###2023-12-09 13:38:03.801700$GNGGA,183802.90,4138.0279868,N,07032.3928755,W,1,24,0.6,13.453,M,-29.745,M,0.0,*52
###2023-12-09 13:38:03.998670$GNRMC,183803.10,A,4138.0280059,N,07032.3928653,W,0.37,89.92,091223,,,A*69
###2023-12-09 13:38:04.001518$GNGGA,183803.10,4138.0280059,N,07032.3928653,W,1,24,0.6,13.442,M,-29.745,M,0.0,*50
###2023-12-09 13:38:04.003386$GPGSA,A,3,03,04,16,26,27,28,29,31,,,,,1.1,0.6,0.9*3F
###2023-12-09 13:38:04.005101$GLGSA,A,3,65,71,72,73,74,75,,,,,,,1.1,0.6,0.9*24
###2023-12-09 13:38:04.006696$GAGSA,A,3,04,19,21,27,,,,,,,,,1.1,0.6,0.9*26
###2023-12-09 13:38:04.008402$GBGSA,A,3,12,14,24,25,33,35,,,,,,,1.1,0.6,0.9*2E
###2023-12-09 13:38:04.010732$GPGSV,2,1,08,03,25,245,38,04,48,307,44,16,68,224,47,26,82,040,48*7A
###2023-12-09 13:38:04.013071$GPGSV,2,2,08,27,18,172,44,28,37,086,43,29,20,046,40,31,58,068,47*73
###2023-12-09 13:38:04.015669$GLGSV,2,1,06,65,39,317,43,71,21,175,45,72,61,219,46,73,21,053,39*6D
###2023-12-09 13:38:04.017434$GLGSV,2,2,06,74,59,016,41,75,44,273,48,,,,,,,,*66
###2023-12-09 13:38:04.019778$GAGSV,1,1,04,04,41,309,43,19,70,181,41,21,75,045,46,27,21,050,37*67
###2023-12-09 13:38:04.022113$GBGSV,2,1,06,12,16,125,39,14,28,189,40,24,62,047,46,25,52,277,46*6E
###2023-12-09 13:38:04.023875$GBGSV,2,2,06,33,44,216,45,35,16,055,41,,,,,,,,*6D
###2023-12-09 13:38:04.025165$GNVTG,89.92,T,,M,0.37,N,0.68,K,A*13
###2023-12-09 13:38:04.026793$GNGST,183803.10,5.300,,,,0.110,0.098,0.220*60
###2023-12-09 13:38:04.028091$GNZDA,183803.10,09,12,2023,00,00*71
###2023-12-09 13:38:04.028730$GNEBP,,,,,,M*13
