###2023-12-09 12:42:49.965598$GBGSV,2,1,05,14,51,196,44,24,79,359,48,25,34,255,45,26,33,058,44*63
###2023-12-09 12:42:49.967105$GBGSV,2,2,05,33,62,248,48,,,,,,,,,,,,*58
###2023-12-09 12:42:49.968436$GNVTG,210.12,T,,M,3.79,N,7.02,K,A*2B
###2023-12-09 12:42:49.970087$GNGST,174249.10,18.000,,,,0.080,0.070,0.160*5A
###2023-12-09 12:42:49.971398$GNZDA,174249.10,09,12,2023,00,00*7D
###2023-12-09 12:42:49.972036$GNEBP,,,,,,M*13
###2023-12-09 12:42:50.141819$GNGGA,174249.30,4138.0437478,N,07032.3896111,W,1,24,0.6,13.288,M,-29.745,M,0.0,*56
###2023-12-09 12:42:50.341713$GNGGA,174249.50,4138.0435530,N,07032.3896196,W,1,24,0.6,13.264,M,-29.745,M,0.0,*52
###2023-12-09 12:42:50.544950$GNGGA,174249.70,4138.0433680,N,07032.3896895,W,1,24,0.6,13.279,M,-29.745,M,0.0,*58
###2023-12-09 12:42:50.741348$GNGGA,174249.90,4138.0431925,N,07032.3898247,W,1,24,0.6,13.307,M,-29.745,M,0.0,*57
###2023-12-09 12:42:50.943789$GNRMC,174250.10,A,4138.0430148,N,07032.3899252,W,3.42,196.77,091223,,,A*5A
###2023-12-09 12:42:50.946667$GNGGA,174250.10,4138.0430148,N,07032.3899252,W,1,24,0.6,13.296,M,-29.745,M,0.0,*59
###2023-12-09 12:42:50.948543$GPGSA,A,3,03,04,16,26,28,29,31,32,,,,,1.1,0.6,0.9*3B
###2023-12-09 12:42:50.950255$GLGSA,A,3,65,71,72,73,74,75,,,,,,,1.1,0.6,0.9*24
###2023-12-09 12:42:50.951859$GAGSA,A,3,04,19,21,27,,,,,,,,,1.1,0.6,0.9*26
###2023-12-09 12:42:50.953496$GBGSA,A,3,14,24,25,26,33,,,,,,,,1.1,0.6,0.9*2F
###2023-12-09 12:42:50.955831$GPGSV,2,1,08,03,38,272,45,04,25,311,44,16,40,208,43,26,70,207,47*77
###2023-12-09 12:42:50.958168$GPGSV,2,2,08,28,55,060,44,29,25,070,40,31,72,013,48,32,27,136,42*7D
###2023-12-09 12:42:50.960516$GLGSV,2,1,06,65,15,329,41,71,52,170,45,72,68,302,47,73,44,035,46*65
###2023-12-09 12:42:50.962266$GLGSV,2,2,06,74,71,303,43,75,25,244,42,,,,,,,,*60
###2023-12-09 12:42:50.964605$GAGSV,1,1,04,04,23,311,44,19,84,288,40,21,81,170,46,27,39,049,43*63
###2023-12-09 12:42:50.966950$GBGSV,2,1,05,14,51,196,44,24,79,002,49,25,34,255,46,26,33,058,43*6B
###2023-12-09 12:42:50.968411$GBGSV,2,2,05,33,62,248,48,,,,,,,,,,,,*58
###2023-12-09 12:42:50.969732$GNVTG,196.77,T,,M,3.42,N,6.34,K,A*29
###2023-12-09 12:42:50.971391$GNGST,174250.10,18.000,,,,0.080,0.070,0.160*52
###2023-12-09 12:42:50.972685$GNZDA,174250.10,09,12,2023,00,00*75
###2023-12-09 12:42:50.973329$GNEBP,,,,,,M*13
###2023-12-09 12:42:51.142837$GNGGA,174250.30,4138.0428279,N,07032.3899875,W,1,24,0.6,13.296,M,-29.745,M,0.0,*5C
###2023-12-09 12:42:51.342783$GNGGA,174250.50,4138.0426435,N,07032.3900748,W,1,24,0.6,13.296,M,-29.745,M,0.0,*5A
###2023-12-09 12:42:51.542328$GNGGA,174250.70,4138.0424720,N,07032.3902020,W,1,24,0.6,13.296,M,-29.745,M,0.0,*56
###2023-12-09 12:42:51.742406$GNGGA,174250.90,4138.0423086,N,07032.3903403,W,1,24,0.6,13.291,M,-29.745,M,0.0,*57
###2023-12-09 12:42:51.941752$GNRMC,174251.10,A,4138.0421469,N,07032.3904752,W,3.50,210.96,091223,,,A*5C
###2023-12-09 12:42:51.944635$GNGGA,174251.10,4138.0421469,N,07032.3904752,W,1,24,0.6,13.308,M,-29.745,M,0.0,*58
###2023-12-09 12:42:51.946520$GPGSA,A,3,03,04,16,26,28,29,31,32,,,,,1.1,0.6,0.9*3B
###2023-12-09 12:42:51.948266$GLGSA,A,3,65,71,72,73,74,75,,,,,,,1.1,0.6,0.9*24
###2023-12-09 12:42:51.949859$GAGSA,A,3,04,19,21,27,,,,,,,,,1.1,0.6,0.9*26
###2023-12-09 12:42:51.951533$GBGSA,A,3,14,24,25,26,33,,,,,,,,1.1,0.6,0.9*2F
###2023-12-09 12:42:51.953871$GPGSV,2,1,08,03,38,272,44,04,25,311,43,16,40,208,43,26,70,207,47*71
###2023-12-09 12:42:51.956231$GPGSV,2,2,08,28,55,060,44,29,25,070,42,31,72,013,48,32,27,136,43*7E
###2023-12-09 12:42:51.958590$GLGSV,2,1,06,65,15,329,42,71,52,170,47,72,68,302,46,73,44,035,46*65
###2023-12-09 12:42:51.960347$GLGSV,2,2,06,74,71,303,43,75,25,244,41,,,,,,,,*63
###2023-12-09 12:42:51.962712$GAGSV,1,1,04,04,23,311,42,19,84,288,40,21,81,170,46,27,39,049,43*65
###2023-12-09 12:42:51.965086$GBGSV,2,1,05,14,51,196,45,24,79,002,49,25,35,255,46,26,33,058,45*6D
###2023-12-09 12:42:51.966544$GBGSV,2,2,05,33,62,248,47,,,,,,,,,,,,*57
###2023-12-09 12:42:51.967898$GNVTG,210.96,T,,M,3.50,N,6.48,K,A*23
###2023-12-09 12:42:51.969557$GNGST,174251.10,18.000,,,,0.080,0.070,0.160*53
###2023-12-09 12:42:51.970869$GNZDA,174251.10,09,12,2023,00,00*74
###2023-12-09 12:42:51.971510$GNEBP,,,,,,M*13
###2023-12-09 12:42:52.141789$GNGGA,174251.30,4138.0419819,N,07032.3906049,W,1,24,0.6,13.314,M,-29.745,M,0.0,*58
###2023-12-09 12:42:52.342854$GNGGA,174251.50,4138.0418257,N,07032.3907508,W,1,24,0.6,13.296,M,-29.745,M,0.0,*55
###2023-12-09 12:42:52.542854$GNGGA,174251.70,4138.0416825,N,07032.3909207,W,1,24,0.6,13.284,M,-29.745,M,0.0,*53
###2023-12-09 12:42:52.741983$GNGGA,174251.90,4138.0415568,N,07032.3911063,W,1,24,0.6,13.294,M,-29.745,M,0.0,*52
###2023-12-09 12:42:52.942792$GNRMC,174252.10,A,4138.0414321,N,07032.3912870,W,3.36,226.73,091223,,,A*54
###2023-12-09 12:42:52.945670$GNGGA,174252.10,4138.0414321,N,07032.3912870,W,1,24,0.6,13.308,M,-29.745,M,0.0,*5E
###2023-12-09 12:42:52.947558$GPGSA,A,3,03,04,16,26,28,29,31,32,,,,,1.1,0.6,0.9*3B
###2023-12-09 12:42:52.949294$GLGSA,A,3,65,71,72,73,74,75,,,,,,,1.1,0.6,0.9*24
###2023-12-09 12:42:52.950887$GAGSA,A,3,04,19,21,27,,,,,,,,,1.1,0.6,0.9*26
###2023-12-09 12:42:52.952536$GBGSA,A,3,14,24,25,26,33,,,,,,,,1.1,0.6,0.9*2F
###2023-12-09 12:42:52.954875$GPGSV,2,1,08,03,38,272,43,04,25,311,43,16,40,208,44,26,70,207,47*71
###2023-12-09 12:42:52.957214$GPGSV,2,2,08,28,55,060,45,29,25,070,43,31,72,013,48,32,27,136,44*79
###2023-12-09 12:42:52.959558$GLGSV,2,1,06,65,15,329,42,71,52,170,46,72,68,302,46,73,44,035,47*65
###2023-12-09 12:42:52.961308$GLGSV,2,2,06,74,71,303,42,75,25,244,41,,,,,,,,*62
###2023-12-09 12:42:52.963647$GAGSV,1,1,04,04,23,311,41,19,84,288,40,21,81,170,45,27,39,049,45*63
###2023-12-09 12:42:52.965982$GBGSV,2,1,05,14,51,196,45,24,79,002,48,25,35,255,44,26,32,059,46*6D
###2023-12-09 12:42:52.967445$GBGSV,2,2,05,33,62,248,48,,,,,,,,,,,,*58
###2023-12-09 12:42:52.968769$GNVTG,226.73,T,,M,3.36,N,6.23,K,A*20
###2023-12-09 12:42:52.970415$GNGST,174252.10,18.000,,,,0.079,0.070,0.160*56
###2023-12-09 12:42:52.971712$GNZDA,174252.10,09,12,2023,00,00*77
###2023-12-09 12:42:52.972351$GNEBP,,,,,,M*13
###2023-12-09 12:42:53.142491$GNGGA,174252.30,4138.0413114,N,07032.3914714,W,1,24,0.6,13.295,M,-29.745,M,0.0,*51
###2023-12-09 12:42:53.341865$GNGGA,174252.50,4138.0412103,N,07032.3916718,W,1,24,0.6,13.293,M,-29.745,M,0.0,*58
###2023-12-09 12:42:53.543771$GNGGA,174252.70,4138.0411186,N,07032.3918716,W,1,24,0.6,13.298,M,-29.745,M,0.0,*5F
###2023-12-09 12:42:53.746267$GNGGA,174252.90,4138.0410400,N,07032.3920748,W,1,24,0.6,13.303,M,-29.745,M,0.0,*58
###2023-12-09 12:42:53.942333$GNRMC,174253.10,A,4138.0409712,N,07032.3922808,W,3.01,247.06,091223,,,A*50
###2023-12-09 12:42:53.945804$GNGGA,174253.10,4138.0409712,N,07032.3922808,W,1,24,0.6,13.292,M,-29.745,M,0.0,*59
###2023-12-09 12:42:53.948113$GPGSA,A,3,03,04,16,26,28,29,31,32,,,,,1.1,0.6,0.9*3B
###2023-12-09 12:42:53.950209$GLGSA,A,3,65,71,72,73,74,75,,,,,,,1.1,0.6,0.9*24
###2023-12-09 12:42:53.952140$GAGSA,A,3,04,19,21,27,,,,,,,,,1.1,0.6,0.9*26
###2023-12-09 12:42:53.954123$GBGSA,A,3,14,24,25,26,33,,,,,,,,1.1,0.6,0.9*2F
###2023-12-09 12:42:53.956957$GPGSV,2,1,08,03,38,272,42,04,25,311,39,16,40,208,45,26,70,207,46*7D
###2023-12-09 12:42:53.959781$GPGSV,2,2,08,28,55,060,45,29,25,070,42,31,72,013,46,32,27,136,42*70
###2023-12-09 12:42:53.962611$GLGSV,2,1,06,65,15,329,42,71,52,170,48,72,68,302,45,73,44,035,47*68
###2023-12-09 12:42:53.964723$GLGSV,2,2,06,74,71,303,42,75,25,244,42,,,,,,,,*61
###2023-12-09 12:42:53.967599$GAGSV,1,1,04,04,23,311,39,19,84,288,40,21,81,170,45,27,39,049,44*6D
###2023-12-09 12:42:53.970416$GBGSV,2,1,05,14,51,196,45,24,79,002,48,25,35,255,45,26,32,059,44*6E
###2023-12-09 12:42:53.972190$GBGSV,2,2,05,33,62,248,47,,,,,,,,,,,,*57
###2023-12-09 12:42:53.973794$GNVTG,247.06,T,,M,3.01,N,5.58,K,A*2E
###2023-12-09 12:42:53.975800$GNGST,174253.10,18.000,,,,0.079,0.070,0.160*57
###2023-12-09 12:42:53.977360$GNZDA,174253.10,09,12,2023,00,00*76
###2023-12-09 12:42:53.978128$GNEBP,,,,,,M*13
###2023-12-09 12:42:54.143074$GNGGA,174253.30,4138.0409088,N,07032.3924883,W,1,24,0.6,13.302,M,-29.745,M,0.0,*52
###2023-12-09 12:42:54.343900$GNGGA,174253.50,4138.0408504,N,07032.3926975,W,1,24,0.6,13.305,M,-29.745,M,0.0,*59
###2023-12-09 12:42:54.542871$GNGGA,174253.70,4138.0408028,N,07032.3929105,W,1,24,0.6,13.302,M,-29.745,M,0.0,*57
###2023-12-09 12:42:54.742838$GNGGA,174253.90,4138.0407707,N,07032.3931305,W,1,24,0.6,13.299,M,-29.745,M,0.0,*54
###2023-12-09 12:42:54.944362$GNRMC,174254.10,A,4138.0407476,N,07032.3933476,W,2.97,262.96,091223,,,A*5D
###2023-12-09 12:42:54.947814$GNGGA,174254.10,4138.0407476,N,07032.3933476,W,1,24,0.6,13.297,M,-29.745,M,0.0,*51
###2023-12-09 12:42:54.950067$GPGSA,A,3,03,04,16,26,28,29,31,32,,,,,1.1,0.6,0.9*3B
###2023-12-09 12:42:54.952156$GLGSA,A,3,65,71,72,73,74,75,,,,,,,1.1,0.6,0.9*24
###2023-12-09 12:42:54.954060$GAGSA,A,3,04,19,21,27,,,,,,,,,1.1,0.6,0.9*26
###2023-12-09 12:42:54.956064$GBGSA,A,3,14,24,25,26,33,,,,,,,,1.1,0.6,0.9*2F
