###2023-12-09 12:52:49.978308$GBGSV,2,1,05,14,47,194,44,24,76,016,49,25,38,259,46,26,29,061,45*63
###2023-12-09 12:52:49.979814$GBGSV,2,2,05,33,60,238,49,,,,,,,,,,,,*5C
###2023-12-09 12:52:49.981145$GNVTG,160.14,T,,M,1.90,N,3.53,K,A*2C
###2023-12-09 12:52:49.982812$GNGST,175249.10,18.000,,,,0.080,0.067,0.160*5D
###2023-12-09 12:52:49.984104$GNZDA,175249.10,09,12,2023,00,00*7C
###2023-12-09 12:52:49.984745$GNEBP,,,,,,M*13
###2023-12-09 12:52:50.154101$GNGGA,175249.30,4138.0601103,N,07032.3822921,W,1,24,0.6,13.227,M,-29.744,M,0.0,*59
###2023-12-09 12:52:50.353095$GNGGA,175249.50,4138.0600126,N,07032.3822545,W,1,24,0.6,13.239,M,-29.744,M,0.0,*58
###2023-12-09 12:52:50.553088$GNGGA,175249.70,4138.0599127,N,07032.3822213,W,1,24,0.6,13.249,M,-29.744,M,0.0,*5B
###2023-12-09 12:52:50.754090$GNGGA,175249.90,4138.0598262,N,07032.3821837,W,1,24,0.6,13.247,M,-29.744,M,0.0,*57
###2023-12-09 12:52:50.954483$GNRMC,175250.10,A,4138.0597363,N,07032.3821586,W,1.79,171.08,091223,,,A*5A
###2023-12-09 12:52:50.957373$GNGGA,175250.10,4138.0597363,N,07032.3821586,W,1,24,0.6,13.244,M,-29.744,M,0.0,*5C
###2023-12-09 12:52:50.959252$GPGSA,A,3,03,04,16,26,28,29,31,32,,,,,1.1,0.6,0.9*3B
###2023-12-09 12:52:50.960978$GLGSA,A,3,65,71,72,73,74,75,,,,,,,1.1,0.6,0.9*24
###2023-12-09 12:52:50.962559$GAGSA,A,3,04,19,21,27,,,,,,,,,1.1,0.6,0.9*26
###2023-12-09 12:52:50.964218$GBGSA,A,3,14,24,25,26,33,,,,,,,,1.1,0.6,0.9*2F
###2023-12-09 12:52:50.966544$GPGSV,2,1,08,03,37,267,44,04,29,311,42,16,45,210,44,26,75,209,47*77
###2023-12-09 12:52:50.968892$GPGSV,2,2,08,28,52,066,45,29,26,065,43,31,71,026,48,32,23,138,41*75
###2023-12-09 12:52:50.971247$GLGSV,2,1,06,65,20,328,40,71,47,171,44,72,72,288,47,73,40,038,47*67
###2023-12-09 12:52:50.972994$GLGSV,2,2,06,74,71,321,43,75,28,248,44,,,,,,,,*67
###2023-12-09 12:52:50.975327$GAGSV,1,1,04,04,26,312,41,19,85,252,40,21,84,154,46,27,36,048,43*6B
###2023-12-09 12:52:50.977656$GBGSV,2,1,05,14,47,194,45,24,76,016,50,25,38,259,47,26,29,061,46*68
###2023-12-09 12:52:50.979119$GBGSV,2,2,05,33,60,238,50,,,,,,,,,,,,*54
###2023-12-09 12:52:50.980444$GNVTG,171.08,T,,M,1.79,N,3.31,K,A*22
###2023-12-09 12:52:50.982093$GNGST,175250.10,18.000,,,,0.080,0.067,0.160*55
###2023-12-09 12:52:50.983396$GNZDA,175250.10,09,12,2023,00,00*74
###2023-12-09 12:52:50.984035$GNEBP,,,,,,M*13
###2023-12-09 12:52:51.153356$GNGGA,175250.30,4138.0596458,N,07032.3821376,W,1,24,0.6,13.255,M,-29.744,M,0.0,*59
###2023-12-09 12:52:51.353112$GNGGA,175250.50,4138.0595628,N,07032.3821216,W,1,24,0.6,13.272,M,-29.744,M,0.0,*5B
###2023-12-09 12:52:51.553039$GNGGA,175250.70,4138.0594793,N,07032.3821031,W,1,24,0.6,13.271,M,-29.744,M,0.0,*5D
###2023-12-09 12:52:51.754494$GNGGA,175250.90,4138.0593972,N,07032.3820877,W,1,24,0.6,13.262,M,-29.744,M,0.0,*5C
###2023-12-09 12:52:51.955453$GNRMC,175251.10,A,4138.0593173,N,07032.3820745,W,1.46,178.43,091223,,,A*5A
###2023-12-09 12:52:51.958301$GNGGA,175251.10,4138.0593173,N,07032.3820745,W,1,24,0.6,13.266,M,-29.744,M,0.0,*56
###2023-12-09 12:52:51.960158$GPGSA,A,3,03,04,16,26,28,29,31,32,,,,,1.1,0.6,0.9*3B
###2023-12-09 12:52:51.961864$GLGSA,A,3,65,71,72,73,74,75,,,,,,,1.1,0.6,0.9*24
###2023-12-09 12:52:51.963451$GAGSA,A,3,04,19,21,27,,,,,,,,,1.1,0.6,0.9*26
###2023-12-09 12:52:51.965084$GBGSA,A,3,14,24,25,26,33,,,,,,,,1.1,0.6,0.9*2F
###2023-12-09 12:52:51.967412$GPGSV,2,1,08,03,37,267,46,04,29,311,43,16,45,210,47,26,75,209,50*71
###2023-12-09 12:52:51.969725$GPGSV,2,2,08,28,52,066,48,29,26,065,46,31,71,026,49,32,23,138,46*7B
###2023-12-09 12:52:51.972060$GLGSV,2,1,06,65,20,328,42,71,45,172,47,72,72,288,50,73,40,038,48*6E
###2023-12-09 12:52:51.973805$GLGSV,2,2,06,74,71,321,46,75,28,248,45,,,,,,,,*63
###2023-12-09 12:52:51.976142$GAGSV,1,1,04,04,26,312,41,19,85,252,42,21,84,154,47,27,36,048,44*6F
###2023-12-09 12:52:51.978472$GBGSV,2,1,05,14,47,194,44,24,76,016,50,25,38,259,47,26,29,061,47*68
###2023-12-09 12:52:51.979934$GBGSV,2,2,05,33,60,238,50,,,,,,,,,,,,*54
###2023-12-09 12:52:51.981253$GNVTG,178.43,T,,M,1.46,N,2.70,K,A*2C
###2023-12-09 12:52:51.982903$GNGST,175251.10,18.000,,,,0.080,0.066,0.160*55
###2023-12-09 12:52:51.984191$GNZDA,175251.10,09,12,2023,00,00*75
###2023-12-09 12:52:51.984826$GNEBP,,,,,,M*13
###2023-12-09 12:52:52.153710$GNGGA,175251.30,4138.0592398,N,07032.3820895,W,1,24,0.6,13.292,M,-29.744,M,0.0,*5B
###2023-12-09 12:52:52.353923$GNGGA,175251.50,4138.0591612,N,07032.3820883,W,1,24,0.6,13.288,M,-29.744,M,0.0,*55
###2023-12-09 12:52:52.554923$GNGGA,175251.70,4138.0590892,N,07032.3820726,W,1,24,0.6,13.265,M,-29.744,M,0.0,*53
###2023-12-09 12:52:52.752939$GNGGA,175251.90,4138.0590165,N,07032.3820877,W,1,24,0.6,13.286,M,-29.744,M,0.0,*5A
###2023-12-09 12:52:52.955430$GNRMC,175252.10,A,4138.0589453,N,07032.3821053,W,1.17,185.95,091223,,,A*59
###2023-12-09 12:52:52.958288$GNGGA,175252.10,4138.0589453,N,07032.3821053,W,1,24,0.6,13.305,M,-29.744,M,0.0,*5C
###2023-12-09 12:52:52.960158$GPGSA,A,3,03,04,16,26,28,29,31,32,,,,,1.1,0.6,0.9*3B
###2023-12-09 12:52:52.961877$GLGSA,A,3,65,71,72,73,74,75,,,,,,,1.1,0.6,0.9*24
###2023-12-09 12:52:52.963472$GAGSA,A,3,04,19,21,27,,,,,,,,,1.1,0.6,0.9*26
###2023-12-09 12:52:52.965120$GBGSA,A,3,14,24,25,26,33,,,,,,,,1.1,0.6,0.9*2F
###2023-12-09 12:52:52.967466$GPGSV,2,1,08,03,37,267,44,04,29,311,43,16,45,210,44,26,75,209,48*79
###2023-12-09 12:52:52.969805$GPGSV,2,2,08,28,52,066,46,29,26,065,40,31,71,026,47,32,23,138,44*7F
###2023-12-09 12:52:52.972152$GLGSV,2,1,06,65,20,328,41,71,45,172,47,72,72,285,49,73,40,038,47*67
###2023-12-09 12:52:52.973900$GLGSV,2,2,06,74,71,321,44,75,28,248,45,,,,,,,,*61
###2023-12-09 12:52:52.976230$GAGSV,1,1,04,04,26,312,41,19,85,252,41,21,84,154,46,27,36,048,42*6B
###2023-12-09 12:52:52.978554$GBGSV,2,1,05,14,47,194,43,24,76,016,49,25,38,259,45,26,29,061,42*60
###2023-12-09 12:52:52.980014$GBGSV,2,2,05,33,60,238,48,,,,,,,,,,,,*5D
###2023-12-09 12:52:52.981332$GNVTG,185.95,T,,M,1.17,N,2.16,K,A*21
###2023-12-09 12:52:52.982982$GNGST,175252.10,18.000,,,,0.079,0.066,0.150*53
###2023-12-09 12:52:52.984266$GNZDA,175252.10,09,12,2023,00,00*76
###2023-12-09 12:52:52.984900$GNEBP,,,,,,M*13
###2023-12-09 12:52:53.152983$GNGGA,175252.30,4138.0588816,N,07032.3821183,W,1,24,0.6,13.294,M,-29.744,M,0.0,*57
###2023-12-09 12:52:53.354019$GNGGA,175252.50,4138.0588188,N,07032.3821329,W,1,24,0.6,13.289,M,-29.744,M,0.0,*51
###2023-12-09 12:52:53.554074$GNGGA,175252.70,4138.0587508,N,07032.3821402,W,1,24,0.6,13.292,M,-29.744,M,0.0,*54
###2023-12-09 12:52:53.754541$GNGGA,175252.90,4138.0586890,N,07032.3821547,W,1,24,0.6,13.290,M,-29.744,M,0.0,*55
###2023-12-09 12:52:53.954418$GNRMC,175253.10,A,4138.0586374,N,07032.3821898,W,1.07,210.81,091223,,,A*51
###2023-12-09 12:52:53.957299$GNGGA,175253.10,4138.0586374,N,07032.3821898,W,1,24,0.6,13.305,M,-29.744,M,0.0,*5F
###2023-12-09 12:52:53.959166$GPGSA,A,3,03,04,16,26,28,29,31,32,,,,,1.1,0.6,0.9*3B
###2023-12-09 12:52:53.960878$GLGSA,A,3,65,71,72,73,74,75,,,,,,,1.1,0.6,0.9*24
###2023-12-09 12:52:53.962455$GAGSA,A,3,04,19,21,27,,,,,,,,,1.1,0.6,0.9*26
###2023-12-09 12:52:53.964112$GBGSA,A,3,14,24,25,26,33,,,,,,,,1.1,0.6,0.9*2F
###2023-12-09 12:52:53.966436$GPGSV,2,1,08,03,37,267,44,04,29,311,42,16,45,210,43,26,75,209,47*70
###2023-12-09 12:52:53.968770$GPGSV,2,2,08,28,52,066,45,29,26,065,41,31,71,026,47,32,23,138,44*7D
###2023-12-09 12:52:53.971107$GLGSV,2,1,06,65,20,328,40,71,45,172,47,72,72,285,47,73,39,039,46*66
###2023-12-09 12:52:53.972850$GLGSV,2,2,06,74,71,321,44,75,28,248,44,,,,,,,,*60
###2023-12-09 12:52:53.975179$GAGSV,1,1,04,04,26,312,41,19,85,252,40,21,84,154,46,27,36,048,43*6B
###2023-12-09 12:52:53.977499$GBGSV,2,1,05,14,47,194,43,24,76,016,49,25,38,259,45,26,29,061,42*60
###2023-12-09 12:52:53.978959$GBGSV,2,2,05,33,60,238,47,,,,,,,,,,,,*52
###2023-12-09 12:52:53.980277$GNVTG,210.81,T,,M,1.07,N,1.98,K,A*2F
###2023-12-09 12:52:53.981919$GNGST,175253.10,18.000,,,,0.078,0.065,0.150*50
###2023-12-09 12:52:53.983213$GNZDA,175253.10,09,12,2023,00,00*77
###2023-12-09 12:52:53.983853$GNEBP,,,,,,M*13
###2023-12-09 12:52:54.153211$GNGGA,175253.30,4138.0585806,N,07032.3822236,W,1,24,0.6,13.315,M,-29.744,M,0.0,*5C
###2023-12-09 12:52:54.354631$GNGGA,175253.50,4138.0585192,N,07032.3822347,W,1,24,0.6,13.303,M,-29.744,M,0.0,*5E
###2023-12-09 12:52:54.553745$GNGGA,175253.70,4138.0584595,N,07032.3822411,W,1,24,0.6,13.285,M,-29.744,M,0.0,*55
###2023-12-09 12:52:54.753959$GNGGA,175253.90,4138.0584091,N,07032.3822762,W,1,24,0.6,13.299,M,-29.744,M,0.0,*50
###2023-12-09 12:52:54.954453$GNRMC,175254.10,A,4138.0583625,N,07032.3823275,W,0.99,213.07,091223,,,A*52
###2023-12-09 12:52:54.957334$GNGGA,175254.10,4138.0583625,N,07032.3823275,W,1,24,0.6,13.314,M,-29.744,M,0.0,*57
###2023-12-09 12:52:54.959215$GPGSA,A,3,03,04,16,26,28,29,31,32,,,,,1.1,0.6,0.9*3B
###2023-12-09 12:52:54.960937$GLGSA,A,3,65,71,72,73,74,75,,,,,,,1.1,0.6,0.9*24
###2023-12-09 12:52:54.962523$GAGSA,A,3,04,19,21,27,,,,,,,,,1.1,0.6,0.9*26
###2023-12-09 12:52:54.964212$GBGSA,A,3,14,24,25,26,33,,,,,,,,1.1,0.6,0.9*2F
