###2023-12-09 13:45:45.015266$GAGSA,A,3,04,21,27,,,,,,,,,,1.3,0.7,1.1*24
###2023-12-09 13:45:45.016939$GBGSA,A,3,12,24,25,33,35,,,,,,,,1.3,0.7,1.1*21
###2023-12-09 13:45:45.019283$GPGSV,2,1,06,04,51,304,46,16,72,228,43,26,78,041,39,28,34,089,45*7D
###2023-12-09 13:45:45.021038$GPGSV,2,2,06,29,18,043,43,31,56,073,49,,,,,,,,*75
###2023-12-09 13:45:45.023389$GLGSV,2,1,06,65,42,313,45,72,57,214,38,73,18,056,43,74,56,022,37*63
###2023-12-09 13:45:45.025143$GLGSV,2,2,06,75,47,279,47,83,16,042,36,,,,,,,,*62
###2023-12-09 13:45:45.027193$GAGSV,1,1,03,04,43,308,44,21,73,044,38,27,19,051,42,,,,*50
###2023-12-09 13:45:45.029515$GBGSV,2,1,05,12,19,123,42,24,59,051,47,25,54,281,40,33,41,214,35*60
###2023-12-09 13:45:45.030985$GBGSV,2,2,05,35,16,052,37,,,,,,,,,,,,*5C
###2023-12-09 13:45:45.032304$GNVTG,243.17,T,,M,0.02,N,0.04,K,A*26
###2023-12-09 13:45:45.033921$GNGST,184544.10,7.200,,,,0.200,0.120,0.330*6A
###2023-12-09 13:45:45.035226$GNZDA,184544.10,09,12,2023,00,00*78
###2023-12-09 13:45:45.035867$GNEBP,,,,,,M*13
###2023-12-09 13:45:45.206828$GNGGA,184544.30,4138.0393251,N,07032.4389352,W,1,20,0.7,14.363,M,-29.746,M,0.0,*55
###2023-12-09 13:45:45.400890$GNGGA,184544.50,4138.0393264,N,07032.4389360,W,1,20,0.7,14.366,M,-29.746,M,0.0,*51
###2023-12-09 13:45:45.599169$GNGGA,184544.70,4138.0393282,N,07032.4389365,W,1,20,0.7,14.370,M,-29.746,M,0.0,*59
###2023-12-09 13:45:45.800512$GNGGA,184544.90,4138.0393282,N,07032.4389375,W,1,20,0.7,14.372,M,-29.746,M,0.0,*54
###2023-12-09 13:45:46.003914$GNRMC,184545.10,A,4138.0393291,N,07032.4389392,W,0.04,243.17,091223,,,A*53
###2023-12-09 13:45:46.006802$GNGGA,184545.10,4138.0393291,N,07032.4389392,W,1,20,0.7,14.375,M,-29.746,M,0.0,*51
###2023-12-09 13:45:46.008529$GPGSA,A,3,04,16,26,28,29,31,,,,,,,1.3,0.7,1.1*33
###2023-12-09 13:45:46.010245$GLGSA,A,3,65,72,73,74,75,83,,,,,,,1.3,0.7,1.1*23
###2023-12-09 13:45:46.011777$GAGSA,A,3,04,21,27,,,,,,,,,,1.3,0.7,1.1*24
###2023-12-09 13:45:46.013418$GBGSA,A,3,12,24,25,33,35,,,,,,,,1.3,0.7,1.1*21
###2023-12-09 13:45:46.015747$GPGSV,2,1,06,04,51,304,46,16,72,228,43,26,78,041,39,28,34,089,45*7D
###2023-12-09 13:45:46.017506$GPGSV,2,2,06,29,18,043,43,31,56,073,49,,,,,,,,*75
###2023-12-09 13:45:46.019850$GLGSV,2,1,06,65,42,313,45,72,57,214,38,73,18,056,43,74,56,022,38*6C
###2023-12-09 13:45:46.021599$GLGSV,2,2,06,75,47,279,47,83,16,042,37,,,,,,,,*63
###2023-12-09 13:45:46.023641$GAGSV,1,1,03,04,43,308,44,21,73,044,38,27,19,051,42,,,,*50
###2023-12-09 13:45:46.025979$GBGSV,2,1,05,12,19,123,43,24,59,051,47,25,54,281,40,33,41,214,35*61
###2023-12-09 13:45:46.027449$GBGSV,2,2,05,35,16,052,37,,,,,,,,,,,,*5C
###2023-12-09 13:45:46.028780$GNVTG,243.17,T,,M,0.04,N,0.07,K,A*23
###2023-12-09 13:45:46.030395$GNGST,184545.10,7.200,,,,0.200,0.120,0.330*6B
###2023-12-09 13:45:46.031690$GNZDA,184545.10,09,12,2023,00,00*79
###2023-12-09 13:45:46.032330$GNEBP,,,,,,M*13
###2023-12-09 13:45:46.202075$GNGGA,184545.30,4138.0393296,N,07032.4389403,W,1,20,0.7,14.372,M,-29.746,M,0.0,*5C
###2023-12-09 13:45:46.401067$GNGGA,184545.50,4138.0393321,N,07032.4389397,W,1,20,0.7,14.375,M,-29.746,M,0.0,*5A
###2023-12-09 13:45:46.598997$GNGGA,184545.70,4138.0393342,N,07032.4389400,W,1,20,0.7,14.372,M,-29.746,M,0.0,*53
###2023-12-09 13:45:46.800758$GNGGA,184545.90,4138.0393349,N,07032.4389412,W,1,20,0.7,14.378,M,-29.746,M,0.0,*5F
###2023-12-09 13:45:47.003438$GNRMC,184546.10,A,4138.0393359,N,07032.4389413,W,0.02,243.17,091223,,,A*5D
###2023-12-09 13:45:47.006306$GNGGA,184546.10,4138.0393359,N,07032.4389413,W,1,20,0.7,14.381,M,-29.746,M,0.0,*52
###2023-12-09 13:45:47.008047$GPGSA,A,3,04,16,26,28,29,31,,,,,,,1.3,0.7,1.1*33
###2023-12-09 13:45:47.009773$GLGSA,A,3,65,72,73,74,75,83,,,,,,,1.3,0.7,1.1*23
###2023-12-09 13:45:47.011311$GAGSA,A,3,04,21,27,,,,,,,,,,1.3,0.7,1.1*24
###2023-12-09 13:45:47.012968$GBGSA,A,3,12,24,25,33,35,,,,,,,,1.3,0.7,1.1*21
###2023-12-09 13:45:47.015323$GPGSV,2,1,06,04,51,304,46,16,72,228,43,26,78,041,39,28,34,089,45*7D
###2023-12-09 13:45:47.017084$GPGSV,2,2,06,29,18,043,43,31,56,073,49,,,,,,,,*75
###2023-12-09 13:45:47.019438$GLGSV,2,1,06,65,42,313,45,72,57,214,38,73,18,056,43,74,56,022,38*6C
###2023-12-09 13:45:47.021200$GLGSV,2,2,06,75,47,279,47,83,16,042,36,,,,,,,,*62
###2023-12-09 13:45:47.023257$GAGSV,1,1,03,04,43,308,44,21,73,044,38,27,19,051,42,,,,*50
###2023-12-09 13:45:47.025603$GBGSV,2,1,05,12,19,123,42,24,59,051,47,25,54,281,40,33,41,214,35*60
###2023-12-09 13:45:47.027078$GBGSV,2,2,05,35,16,052,39,,,,,,,,,,,,*52
###2023-12-09 13:45:47.028409$GNVTG,243.17,T,,M,0.02,N,0.04,K,A*26
###2023-12-09 13:45:47.030036$GNGST,184546.10,7.300,,,,0.200,0.120,0.330*69
###2023-12-09 13:45:47.031348$GNZDA,184546.10,09,12,2023,00,00*7A
###2023-12-09 13:45:47.031991$GNEBP,,,,,,M*13
###2023-12-09 13:45:47.201608$GNGGA,184546.30,4138.0393369,N,07032.4389417,W,1,20,0.7,14.379,M,-29.746,M,0.0,*50
###2023-12-09 13:45:47.401218$GNGGA,184546.50,4138.0393372,N,07032.4389411,W,1,20,0.7,14.382,M,-29.746,M,0.0,*5E
###2023-12-09 13:45:47.601105$GNGGA,184546.70,4138.0393369,N,07032.4389418,W,1,20,0.7,14.384,M,-29.746,M,0.0,*59
###2023-12-09 13:45:47.800581$GNGGA,184546.90,4138.0393382,N,07032.4389422,W,1,20,0.7,14.388,M,-29.746,M,0.0,*57
###2023-12-09 13:45:48.004224$GNRMC,184547.10,A,4138.0393365,N,07032.4389422,W,0.06,243.17,091223,,,A*55
###2023-12-09 13:45:48.007106$GNGGA,184547.10,4138.0393365,N,07032.4389422,W,1,20,0.7,14.390,M,-29.746,M,0.0,*5E
###2023-12-09 13:45:48.008833$GPGSA,A,3,04,16,26,28,29,31,,,,,,,1.3,0.7,1.1*33
###2023-12-09 13:45:48.010548$GLGSA,A,3,65,72,73,74,75,83,,,,,,,1.3,0.7,1.1*23
###2023-12-09 13:45:48.012081$GAGSA,A,3,04,21,27,,,,,,,,,,1.3,0.7,1.1*24
###2023-12-09 13:45:48.013736$GBGSA,A,3,12,24,25,33,35,,,,,,,,1.3,0.7,1.1*21
###2023-12-09 13:45:48.016098$GPGSV,2,1,06,04,51,304,46,16,72,228,43,26,78,041,39,28,34,089,45*7D
###2023-12-09 13:45:48.017856$GPGSV,2,2,06,29,18,043,43,31,56,073,49,,,,,,,,*75
###2023-12-09 13:45:48.020206$GLGSV,2,1,06,65,42,313,46,72,57,214,39,73,18,056,44,74,56,022,38*69
###2023-12-09 13:45:48.021959$GLGSV,2,2,06,75,47,279,47,83,16,042,36,,,,,,,,*62
###2023-12-09 13:45:48.024042$GAGSV,1,1,03,04,43,308,44,21,73,044,38,27,19,051,42,,,,*50
###2023-12-09 13:45:48.026365$GBGSV,2,1,05,12,19,123,42,24,59,051,47,25,54,281,39,33,41,214,36*6D
###2023-12-09 13:45:48.027831$GBGSV,2,2,05,35,16,052,37,,,,,,,,,,,,*5C
###2023-12-09 13:45:48.029151$GNVTG,243.17,T,,M,0.06,N,0.11,K,A*26
###2023-12-09 13:45:48.030773$GNGST,184547.10,7.200,,,,0.200,0.120,0.330*69
###2023-12-09 13:45:48.032062$GNZDA,184547.10,09,12,2023,00,00*7B
###2023-12-09 13:45:48.032699$GNEBP,,,,,,M*13
###2023-12-09 13:45:48.201931$GNGGA,184547.30,4138.0393366,N,07032.4389412,W,1,20,0.7,14.393,M,-29.746,M,0.0,*5F
###2023-12-09 13:45:48.400374$GNGGA,184547.50,4138.0393377,N,07032.4389394,W,1,20,0.7,14.401,M,-29.746,M,0.0,*5C
###2023-12-09 13:45:48.599773$GNGGA,184547.70,4138.0393384,N,07032.4389379,W,1,20,0.7,14.408,M,-29.746,M,0.0,*58
###2023-12-09 13:45:48.800769$GNGGA,184547.90,4138.0393400,N,07032.4389372,W,1,20,0.7,14.412,M,-29.746,M,0.0,*5D
###2023-12-09 13:45:49.005395$GNRMC,184548.10,A,4138.0393411,N,07032.4389356,W,0.08,243.17,091223,,,A*54
###2023-12-09 13:45:49.008287$GNGGA,184548.10,4138.0393411,N,07032.4389356,W,1,20,0.7,14.419,M,-29.746,M,0.0,*57
###2023-12-09 13:45:49.010022$GPGSA,A,3,04,16,26,28,29,31,,,,,,,1.3,0.7,1.1*33
###2023-12-09 13:45:49.011757$GLGSA,A,3,65,72,73,74,75,83,,,,,,,1.3,0.7,1.1*23
###2023-12-09 13:45:49.013284$GAGSA,A,3,04,21,27,,,,,,,,,,1.3,0.7,1.1*24
###2023-12-09 13:45:49.014943$GBGSA,A,3,12,24,25,33,35,,,,,,,,1.3,0.7,1.1*21
###2023-12-09 13:45:49.017274$GPGSV,2,1,06,04,51,304,46,16,72,228,44,26,78,041,40,28,34,089,45*74
###2023-12-09 13:45:49.019036$GPGSV,2,2,06,29,18,043,43,31,56,073,49,,,,,,,,*75
###2023-12-09 13:45:49.021375$GLGSV,2,1,06,65,42,313,46,72,57,214,38,73,18,056,43,74,56,022,38*6F
###2023-12-09 13:45:49.023138$GLGSV,2,2,06,75,47,279,47,83,16,042,37,,,,,,,,*63
###2023-12-09 13:45:49.025192$GAGSV,1,1,03,04,43,308,44,21,73,044,37,27,19,051,42,,,,*5F
###2023-12-09 13:45:49.027540$GBGSV,2,1,05,12,19,123,43,24,59,051,47,25,54,281,39,33,41,214,37*6D
###2023-12-09 13:45:49.029006$GBGSV,2,2,05,35,16,052,38,,,,,,,,,,,,*53
###2023-12-09 13:45:49.030576$GNVTG,243.17,T,,M,0.08,N,0.14,K,A*2D
###2023-12-09 13:45:49.032209$GNGST,184548.10,6.900,,,,0.200,0.120,0.330*6C
###2023-12-09 13:45:49.033510$GNZDA,184548.10,09,12,2023,00,00*74
###2023-12-09 13:45:49.034153$GNEBP,,,,,,M*13
###2023-12-09 13:45:49.203046$GNGGA,184548.30,4138.0393426,N,07032.4389341,W,1,20,0.7,14.426,M,-29.746,M,0.0,*5B
###2023-12-09 13:45:49.403036$GNGGA,184548.50,4138.0393438,N,07032.4389320,W,1,20,0.7,14.434,M,-29.746,M,0.0,*56
###2023-12-09 13:45:49.601089$GNGGA,184548.70,4138.0393448,N,07032.4389300,W,1,20,0.7,14.440,M,-29.746,M,0.0,*52
