###2023-12-09 13:04:01.768269$GNGGA,180400.90,4138.0592421,N,07032.3587276,W,1,24,0.6,13.267,M,-29.744,M,0.0,*51
###2023-12-09 13:04:01.967953$GNRMC,180401.10,A,4138.0592236,N,07032.3584690,W,3.56,98.33,091223,,,A*61
###2023-12-09 13:04:01.970838$GNGGA,180401.10,4138.0592236,N,07032.3584690,W,1,24,0.6,13.266,M,-29.744,M,0.0,*56
###2023-12-09 13:04:01.972704$GPGSA,A,3,03,04,16,26,28,29,31,32,,,,,1.1,0.6,0.9*3B
###2023-12-09 13:04:01.974420$GLGSA,A,3,65,71,72,73,74,75,,,,,,,1.1,0.6,0.9*24
###2023-12-09 13:04:01.976024$GAGSA,A,3,04,19,21,27,,,,,,,,,1.1,0.6,0.9*26
###2023-12-09 13:04:01.977680$GBGSA,A,3,14,24,25,26,33,,,,,,,,1.1,0.6,0.9*2F
###2023-12-09 13:04:01.980022$GPGSV,2,1,08,03,34,260,44,04,33,311,42,16,51,213,47,26,81,210,48*71
###2023-12-09 13:04:01.982349$GPGSV,2,2,08,28,48,071,44,29,25,060,41,31,68,040,47,32,18,140,40*7C
###2023-12-09 13:04:01.984685$GLGSV,2,1,06,65,25,327,40,71,40,173,46,72,73,265,46,73,35,042,44*65
###2023-12-09 13:04:01.986432$GLGSV,2,2,06,74,69,340,43,75,33,254,46,,,,,,,,*6C
###2023-12-09 13:04:01.988779$GAGSV,1,1,04,04,30,312,40,19,83,207,40,21,86,104,45,27,32,048,42*6A
###2023-12-09 13:04:01.991116$GBGSV,2,1,05,14,43,193,45,24,73,026,48,25,41,263,46,26,26,063,42*6B
###2023-12-09 13:04:01.992571$GBGSV,2,2,05,33,57,231,48,,,,,,,,,,,,*50
###2023-12-09 13:04:01.993856$GNVTG,98.33,T,,M,3.56,N,6.59,K,A*18
###2023-12-09 13:04:01.995512$GNGST,180401.10,18.000,,,,0.080,0.066,0.160*5C
###2023-12-09 13:04:01.996802$GNZDA,180401.10,09,12,2023,00,00*7C
###2023-12-09 13:04:01.997441$GNEBP,,,,,,M*13
###2023-12-09 13:04:02.166312$GNGGA,180401.30,4138.0591970,N,07032.3582163,W,1,24,0.6,13.262,M,-29.744,M,0.0,*57
###2023-12-09 13:04:02.367996$GNGGA,180401.50,4138.0591841,N,07032.3579611,W,1,24,0.6,13.279,M,-29.744,M,0.0,*5E
###2023-12-09 13:04:02.567762$GNGGA,180401.70,4138.0591619,N,07032.3576902,W,1,24,0.6,13.259,M,-29.744,M,0.0,*5F
###2023-12-09 13:04:02.765746$GNGGA,180401.90,4138.0591611,N,07032.3574413,W,1,24,0.6,13.254,M,-29.744,M,0.0,*5B
###2023-12-09 13:04:02.967817$GNRMC,180402.10,A,4138.0591730,N,07032.3571825,W,3.73,90.65,091223,,,A*64
###2023-12-09 13:04:02.970689$GNGGA,180402.10,4138.0591730,N,07032.3571825,W,1,24,0.6,13.283,M,-29.744,M,0.0,*54
###2023-12-09 13:04:02.972545$GPGSA,A,3,03,04,16,26,28,29,31,32,,,,,1.1,0.6,0.9*3B
###2023-12-09 13:04:02.974263$GLGSA,A,3,65,71,72,73,74,75,,,,,,,1.1,0.6,0.9*24
###2023-12-09 13:04:02.975863$GAGSA,A,3,04,19,21,27,,,,,,,,,1.1,0.6,0.9*26
###2023-12-09 13:04:02.977512$GBGSA,A,3,14,24,25,26,33,,,,,,,,1.1,0.6,0.9*2F
###2023-12-09 13:04:02.979852$GPGSV,2,1,08,03,34,260,44,04,33,311,42,16,51,213,45,26,81,210,47*7C
###2023-12-09 13:04:02.982202$GPGSV,2,2,08,28,48,071,42,29,25,060,40,31,68,040,46,32,18,140,40*7A
###2023-12-09 13:04:02.984550$GLGSV,2,1,06,65,25,327,40,71,40,173,45,72,73,265,46,73,35,042,44*66
###2023-12-09 13:04:02.986302$GLGSV,2,2,06,74,69,340,43,75,33,254,47,,,,,,,,*6D
###2023-12-09 13:04:02.988656$GAGSV,1,1,04,04,30,312,40,19,83,207,40,21,86,104,45,27,32,048,42*6A
###2023-12-09 13:04:02.991007$GBGSV,2,1,05,14,43,193,45,24,73,026,48,25,41,263,46,26,26,063,43*6A
###2023-12-09 13:04:02.992468$GBGSV,2,2,05,33,57,231,49,,,,,,,,,,,,*51
###2023-12-09 13:04:02.993765$GNVTG,90.65,T,,M,3.73,N,6.91,K,A*10
###2023-12-09 13:04:02.995432$GNGST,180402.10,18.000,,,,0.080,0.066,0.160*5F
###2023-12-09 13:04:02.996732$GNZDA,180402.10,09,12,2023,00,00*7F
###2023-12-09 13:04:02.997371$GNEBP,,,,,,M*13
###2023-12-09 13:04:03.168676$GNGGA,180402.30,4138.0591656,N,07032.3569183,W,1,24,0.6,13.265,M,-29.744,M,0.0,*53
###2023-12-09 13:04:03.366444$GNGGA,180402.50,4138.0591792,N,07032.3566697,W,1,24,0.6,13.261,M,-29.744,M,0.0,*55
###2023-12-09 13:04:03.567303$GNGGA,180402.70,4138.0592096,N,07032.3564197,W,1,24,0.6,13.282,M,-29.744,M,0.0,*5F
###2023-12-09 13:04:03.767892$GNGGA,180402.90,4138.0592247,N,07032.3561730,W,1,24,0.6,13.264,M,-29.744,M,0.0,*59
###2023-12-09 13:04:03.970098$GNRMC,180403.10,A,4138.0592419,N,07032.3559245,W,3.56,83.93,091223,,,A*64
###2023-12-09 13:04:03.972990$GNGGA,180403.10,4138.0592419,N,07032.3559245,W,1,24,0.6,13.270,M,-29.744,M,0.0,*54
###2023-12-09 13:04:03.974866$GPGSA,A,3,03,04,16,26,28,29,31,32,,,,,1.1,0.6,0.9*3B
###2023-12-09 13:04:03.976591$GLGSA,A,3,65,71,72,73,74,75,,,,,,,1.1,0.6,0.9*24
###2023-12-09 13:04:03.978178$GAGSA,A,3,04,19,21,27,,,,,,,,,1.1,0.6,0.9*26
###2023-12-09 13:04:03.979839$GBGSA,A,3,14,24,25,26,33,,,,,,,,1.1,0.6,0.9*2F
###2023-12-09 13:04:03.982169$GPGSV,2,1,08,03,34,260,45,04,33,311,42,16,51,213,46,26,81,210,48*71
###2023-12-09 13:04:03.984517$GPGSV,2,2,08,28,48,071,43,29,25,060,39,31,68,040,46,32,18,140,42*77
###2023-12-09 13:04:03.986873$GLGSV,2,1,06,65,25,327,40,71,40,173,47,72,73,265,46,73,35,042,43*63
###2023-12-09 13:04:03.988627$GLGSV,2,2,06,74,69,340,43,75,33,254,47,,,,,,,,*6D
###2023-12-09 13:04:03.990971$GAGSV,1,1,04,04,30,312,39,19,83,207,41,21,86,104,46,27,32,048,42*66
###2023-12-09 13:04:03.993299$GBGSV,2,1,05,14,43,193,46,24,73,026,48,25,41,263,47,26,26,063,43*68
###2023-12-09 13:04:03.994760$GBGSV,2,2,05,33,57,231,48,,,,,,,,,,,,*50
###2023-12-09 13:04:03.996048$GNVTG,83.93,T,,M,3.56,N,6.59,K,A*18
###2023-12-09 13:04:03.997689$GNGST,180403.10,18.000,,,,0.080,0.067,0.160*5F
###2023-12-09 13:04:03.998988$GNZDA,180403.10,09,12,2023,00,00*7E
###2023-12-09 13:04:03.999628$GNEBP,,,,,,M*13
###2023-12-09 13:04:04.165559$GNGGA,180403.30,4138.0592584,N,07032.3556776,W,1,24,0.6,13.257,M,-29.744,M,0.0,*5C
###2023-12-09 13:04:04.366314$GNGGA,180403.50,4138.0592867,N,07032.3554428,W,1,24,0.6,13.272,M,-29.744,M,0.0,*57
###2023-12-09 13:04:04.566331$GNGGA,180403.70,4138.0593009,N,07032.3551874,W,1,24,0.6,13.261,M,-29.744,M,0.0,*56
###2023-12-09 13:04:04.766637$GNGGA,180403.90,4138.0592997,N,07032.3549564,W,1,24,0.6,13.237,M,-29.744,M,0.0,*51
###2023-12-09 13:04:04.968891$GNRMC,180404.10,A,4138.0593087,N,07032.3547182,W,3.36,85.10,091223,,,A*6D
###2023-12-09 13:04:04.971759$GNGGA,180404.10,4138.0593087,N,07032.3547182,W,1,24,0.6,13.259,M,-29.744,M,0.0,*5D
###2023-12-09 13:04:04.973620$GPGSA,A,3,03,04,16,26,28,29,31,32,,,,,1.1,0.6,0.9*3B
###2023-12-09 13:04:04.975348$GLGSA,A,3,65,71,72,73,74,75,,,,,,,1.1,0.6,0.9*24
###2023-12-09 13:04:04.976932$GAGSA,A,3,04,19,21,27,,,,,,,,,1.1,0.6,0.9*26
###2023-12-09 13:04:04.978584$GBGSA,A,3,14,24,25,26,33,,,,,,,,1.1,0.6,0.9*2F
###2023-12-09 13:04:04.980904$GPGSV,2,1,08,03,34,260,45,04,33,311,42,16,51,213,48,26,81,210,48*7F
###2023-12-09 13:04:04.983242$GPGSV,2,2,08,28,48,071,43,29,25,060,43,31,68,040,47,32,18,140,42*7B
###2023-12-09 13:04:04.985567$GLGSV,2,1,06,65,25,327,40,71,40,173,45,72,73,265,46,73,35,042,44*66
###2023-12-09 13:04:04.987325$GLGSV,2,2,06,74,69,340,43,75,33,254,47,,,,,,,,*6D
###2023-12-09 13:04:04.989647$GAGSV,1,1,04,04,30,312,40,19,83,207,41,21,86,104,46,27,32,048,42*68
###2023-12-09 13:04:04.991991$GBGSV,2,1,05,14,43,193,46,24,73,026,48,25,41,263,47,26,26,063,43*68
###2023-12-09 13:04:04.993445$GBGSV,2,2,05,33,57,231,48,,,,,,,,,,,,*50
###2023-12-09 13:04:04.994741$GNVTG,85.10,T,,M,3.36,N,6.23,K,A*1E
###2023-12-09 13:04:04.996388$GNGST,180404.10,18.000,,,,0.080,0.067,0.160*58
###2023-12-09 13:04:04.997677$GNZDA,180404.10,09,12,2023,00,00*79
###2023-12-09 13:04:04.998315$GNEBP,,,,,,M*13
###2023-12-09 13:04:05.165497$GNGGA,180404.30,4138.0593122,N,07032.3544715,W,1,24,0.6,13.246,M,-29.744,M,0.0,*54
###2023-12-09 13:04:05.366482$GNGGA,180404.50,4138.0593007,N,07032.3542413,W,1,24,0.6,13.245,M,-29.744,M,0.0,*54
###2023-12-09 13:04:05.566222$GNGGA,180404.70,4138.0592860,N,07032.3539949,W,1,24,0.6,13.257,M,-29.744,M,0.0,*53
###2023-12-09 13:04:05.766704$GNGGA,180404.90,4138.0592704,N,07032.3537500,W,1,24,0.6,13.248,M,-29.744,M,0.0,*51
###2023-12-09 13:04:05.968468$GNRMC,180405.10,A,4138.0592633,N,07032.3535010,W,3.54,93.90,091223,,,A*60
###2023-12-09 13:04:05.971358$GNGGA,180405.10,4138.0592633,N,07032.3535010,W,1,24,0.6,13.248,M,-29.744,M,0.0,*5B
###2023-12-09 13:04:05.973218$GPGSA,A,3,03,04,16,26,28,29,31,32,,,,,1.1,0.6,0.9*3B
###2023-12-09 13:04:05.974939$GLGSA,A,3,65,71,72,73,74,75,,,,,,,1.1,0.6,0.9*24
###2023-12-09 13:04:05.976517$GAGSA,A,3,04,19,21,27,,,,,,,,,1.1,0.6,0.9*26
###2023-12-09 13:04:05.978155$GBGSA,A,3,14,24,25,26,33,,,,,,,,1.1,0.6,0.9*2F
###2023-12-09 13:04:05.980783$GPGSV,2,1,08,03,34,260,46,04,33,311,44,16,51,213,47,26,81,210,48*75
###2023-12-09 13:04:05.983150$GPGSV,2,2,08,28,48,071,44,29,25,060,41,31,68,040,47,32,18,140,42*7E
###2023-12-09 13:04:05.985492$GLGSV,2,1,06,65,25,327,42,71,40,173,46,72,73,265,46,73,35,042,45*66
###2023-12-09 13:04:05.987250$GLGSV,2,2,06,74,69,340,43,75,33,254,48,,,,,,,,*62
###2023-12-09 13:04:05.989584$GAGSV,1,1,04,04,30,312,41,19,83,207,41,21,86,104,46,27,32,048,43*68
###2023-12-09 13:04:05.991925$GBGSV,2,1,05,14,43,193,46,24,73,026,49,25,41,263,46,26,26,063,42*69
###2023-12-09 13:04:05.993378$GBGSV,2,2,05,33,57,231,48,,,,,,,,,,,,*50
###2023-12-09 13:04:05.994679$GNVTG,93.90,T,,M,3.54,N,6.55,K,A*14
###2023-12-09 13:04:05.996325$GNGST,180405.10,18.000,,,,0.080,0.066,0.160*58
