###2023-12-09 13:27:17.001996$GAGSA,A,3,04,19,21,27,,,,,,,,,1.1,0.6,0.9*26
###2023-12-09 13:27:17.003749$GBGSA,A,3,14,24,25,26,33,35,,,,,,,1.1,0.6,0.9*29
###2023-12-09 13:27:17.006077$GPGSV,2,1,07,03,28,249,41,04,43,309,45,16,63,220,46,26,88,044,48*7E
###2023-12-09 13:27:17.008141$GPGSV,2,2,07,28,41,081,45,29,22,050,43,31,62,060,47,,,,*43
###2023-12-09 13:27:17.010485$GLGSV,2,1,06,65,35,321,43,71,26,175,44,72,66,227,44,73,25,050,43*60
###2023-12-09 13:27:17.012269$GLGSV,2,2,06,74,62,008,43,75,41,267,46,,,,,,,,*6D
###2023-12-09 13:27:17.014616$GAGSV,1,1,04,04,37,311,41,19,75,184,40,21,80,050,46,27,25,049,40*6E
###2023-12-09 13:27:17.016944$GBGSV,2,1,06,14,32,190,43,24,65,042,49,25,49,273,46,26,18,069,45*66
###2023-12-09 13:27:17.018697$GBGSV,2,2,06,33,48,220,45,35,16,059,45,,,,,,,,*6C
###2023-12-09 13:27:17.020017$GNVTG,228.82,T,,M,3.56,N,6.59,K,A*2B
###2023-12-09 13:27:17.021664$GNGST,182716.10,18.000,,,,0.100,0.071,0.160*54
###2023-12-09 13:27:17.022978$GNZDA,182716.10,09,12,2023,00,00*7B
###2023-12-09 13:27:17.023619$GNEBP,,,,,,M*13
###2023-12-09 13:27:17.188679$GNGGA,182716.30,4138.0588991,N,07032.3973719,W,1,24,0.6,13.173,M,-29.744,M,0.0,*5D
###2023-12-09 13:27:17.388005$GNGGA,182716.50,4138.0587724,N,07032.3975824,W,1,24,0.6,13.182,M,-29.744,M,0.0,*5D
###2023-12-09 13:27:17.589544$GNGGA,182716.70,4138.0586518,N,07032.3978077,W,1,24,0.6,13.194,M,-29.744,M,0.0,*57
###2023-12-09 13:27:17.787729$GNGGA,182716.90,4138.0585380,N,07032.3980409,W,1,24,0.6,13.198,M,-29.744,M,0.0,*5B
###2023-12-09 13:27:17.993578$GNRMC,182717.10,A,4138.0584146,N,07032.3982612,W,3.65,229.29,091223,,,A*57
###2023-12-09 13:27:17.996479$GNGGA,182717.10,4138.0584146,N,07032.3982612,W,1,24,0.6,13.176,M,-29.744,M,0.0,*51
###2023-12-09 13:27:17.998276$GPGSA,A,3,03,04,16,26,28,29,31,,,,,,1.1,0.6,0.9*3A
###2023-12-09 13:27:18.000009$GLGSA,A,3,65,71,72,73,74,75,,,,,,,1.1,0.6,0.9*24
###2023-12-09 13:27:18.001588$GAGSA,A,3,04,19,21,27,,,,,,,,,1.1,0.6,0.9*26
###2023-12-09 13:27:18.003311$GBGSA,A,3,14,24,25,26,33,35,,,,,,,1.1,0.6,0.9*29
###2023-12-09 13:27:18.005634$GPGSV,2,1,07,03,28,249,41,04,43,309,43,16,63,220,45,26,88,044,48*7B
###2023-12-09 13:27:18.007689$GPGSV,2,2,07,28,41,081,44,29,22,050,42,31,62,060,47,,,,*43
###2023-12-09 13:27:18.010026$GLGSV,2,1,06,65,35,321,43,71,26,175,42,72,66,227,45,73,25,050,43*67
###2023-12-09 13:27:18.011786$GLGSV,2,2,06,74,62,008,43,75,41,267,45,,,,,,,,*6E
###2023-12-09 13:27:18.014119$GAGSV,1,1,04,04,37,311,42,19,75,184,41,21,80,050,46,27,25,049,41*6D
###2023-12-09 13:27:18.016466$GBGSV,2,1,06,14,32,190,42,24,65,042,49,25,49,273,46,26,18,069,45*67
###2023-12-09 13:27:18.018222$GBGSV,2,2,06,33,48,220,45,35,16,059,45,,,,,,,,*6C
###2023-12-09 13:27:18.019554$GNVTG,229.29,T,,M,3.65,N,6.77,K,A*27
###2023-12-09 13:27:18.021204$GNGST,182717.10,18.000,,,,0.100,0.071,0.160*55
###2023-12-09 13:27:18.022498$GNZDA,182717.10,09,12,2023,00,00*7A
###2023-12-09 13:27:18.023146$GNEBP,,,,,,M*13
###2023-12-09 13:27:18.189736$GNGGA,182717.30,4138.0582769,N,07032.3984602,W,1,24,0.6,13.143,M,-29.744,M,0.0,*5F
###2023-12-09 13:27:18.390851$GNGGA,182717.50,4138.0581462,N,07032.3986717,W,1,24,0.6,13.134,M,-29.744,M,0.0,*55
###2023-12-09 13:27:18.589522$GNGGA,182717.70,4138.0580265,N,07032.3988878,W,1,24,0.6,13.150,M,-29.744,M,0.0,*5D
###2023-12-09 13:27:18.789954$GNGGA,182717.90,4138.0578987,N,07032.3990915,W,1,24,0.6,13.164,M,-29.744,M,0.0,*57
###2023-12-09 13:27:18.993605$GNRMC,182718.10,A,4138.0577576,N,07032.3992865,W,3.65,227.40,091223,,,A*5D
###2023-12-09 13:27:18.996471$GNGGA,182718.10,4138.0577576,N,07032.3992865,W,1,24,0.6,13.156,M,-29.744,M,0.0,*58
###2023-12-09 13:27:18.998261$GPGSA,A,3,03,04,16,26,28,29,31,,,,,,1.1,0.6,0.9*3A
###2023-12-09 13:27:18.999980$GLGSA,A,3,65,71,72,73,74,75,,,,,,,1.1,0.6,0.9*24
###2023-12-09 13:27:19.001558$GAGSA,A,3,04,19,21,27,,,,,,,,,1.1,0.6,0.9*26
###2023-12-09 13:27:19.003275$GBGSA,A,3,14,24,25,26,33,35,,,,,,,1.1,0.6,0.9*29
###2023-12-09 13:27:19.005593$GPGSV,2,1,07,03,28,249,40,04,43,309,45,16,63,220,45,26,88,044,48*7C
###2023-12-09 13:27:19.007633$GPGSV,2,2,07,28,41,081,44,29,22,050,42,31,62,060,46,,,,*42
###2023-12-09 13:27:19.009944$GLGSV,2,1,06,65,35,321,43,71,26,175,43,72,66,227,45,73,25,050,43*66
###2023-12-09 13:27:19.011689$GLGSV,2,2,06,74,62,008,43,75,41,267,45,,,,,,,,*6E
###2023-12-09 13:27:19.014000$GAGSV,1,1,04,04,37,311,44,19,75,184,40,21,80,050,46,27,25,049,40*6B
###2023-12-09 13:27:19.016328$GBGSV,2,1,06,14,32,190,42,24,65,042,47,25,49,273,43,26,18,069,43*6A
###2023-12-09 13:27:19.018059$GBGSV,2,2,06,33,48,220,45,35,16,059,43,,,,,,,,*6A
###2023-12-09 13:27:19.019387$GNVTG,227.40,T,,M,3.65,N,6.77,K,A*26
###2023-12-09 13:27:19.021016$GNGST,182718.10,18.000,,,,0.100,0.071,0.160*5A
###2023-12-09 13:27:19.022291$GNZDA,182718.10,09,12,2023,00,00*75
###2023-12-09 13:27:19.022939$GNEBP,,,,,,M*13
###2023-12-09 13:27:19.188412$GNGGA,182718.30,4138.0576393,N,07032.3995085,W,1,24,0.6,13.160,M,-29.744,M,0.0,*52
###2023-12-09 13:27:19.388853$GNGGA,182718.50,4138.0575430,N,07032.3997574,W,1,24,0.6,13.173,M,-29.744,M,0.0,*52
###2023-12-09 13:27:19.587525$GNGGA,182718.70,4138.0574385,N,07032.3999926,W,1,24,0.6,13.152,M,-29.744,M,0.0,*5E
###2023-12-09 13:27:19.790241$GNGGA,182718.90,4138.0573194,N,07032.4002056,W,1,24,0.6,13.115,M,-29.744,M,0.0,*54
###2023-12-09 13:27:19.993628$GNRMC,182719.10,A,4138.0572083,N,07032.4004237,W,3.58,238.51,091223,,,A*5A
###2023-12-09 13:27:19.996512$GNGGA,182719.10,4138.0572083,N,07032.4004237,W,1,24,0.6,13.098,M,-29.744,M,0.0,*5C
###2023-12-09 13:27:19.998307$GPGSA,A,3,03,04,16,26,28,29,31,,,,,,1.1,0.6,0.9*3A
###2023-12-09 13:27:20.000028$GLGSA,A,3,65,71,72,73,74,75,,,,,,,1.1,0.6,0.9*24
###2023-12-09 13:27:20.001607$GAGSA,A,3,04,19,21,27,,,,,,,,,1.1,0.6,0.9*26
###2023-12-09 13:27:20.003337$GBGSA,A,3,14,24,25,26,33,35,,,,,,,1.1,0.6,0.9*29
###2023-12-09 13:27:20.005672$GPGSV,2,1,07,03,28,249,40,04,43,309,43,16,63,220,45,26,88,044,48*7A
###2023-12-09 13:27:20.007727$GPGSV,2,2,07,28,41,081,46,29,22,050,42,31,62,060,47,,,,*41
###2023-12-09 13:27:20.010069$GLGSV,2,1,06,65,35,321,41,71,26,175,45,72,66,227,45,73,25,050,42*63
###2023-12-09 13:27:20.011828$GLGSV,2,2,06,74,62,008,43,75,41,267,45,,,,,,,,*6E
###2023-12-09 13:27:20.014155$GAGSV,1,1,04,04,37,311,41,19,75,184,40,21,80,050,45,27,25,049,40*6D
###2023-12-09 13:27:20.016498$GBGSV,2,1,06,14,32,190,43,24,65,042,48,25,49,273,46,26,18,069,44*66
###2023-12-09 13:27:20.018241$GBGSV,2,2,06,33,48,220,45,35,16,059,45,,,,,,,,*6C
###2023-12-09 13:27:20.019575$GNVTG,238.51,T,,M,3.58,N,6.62,K,A*22
###2023-12-09 13:27:20.021219$GNGST,182719.10,18.000,,,,0.100,0.071,0.160*5B
###2023-12-09 13:27:20.022508$GNZDA,182719.10,09,12,2023,00,00*74
###2023-12-09 13:27:20.023158$GNEBP,,,,,,M*13
###2023-12-09 13:27:20.188755$GNGGA,182719.30,4138.0571130,N,07032.4006479,W,1,24,0.6,13.104,M,-29.744,M,0.0,*5E
###2023-12-09 13:27:20.387820$GNGGA,182719.50,4138.0570306,N,07032.4008758,W,1,24,0.6,13.117,M,-29.744,M,0.0,*52
###2023-12-09 13:27:20.589506$GNGGA,182719.70,4138.0569372,N,07032.4010906,W,1,24,0.6,13.121,M,-29.744,M,0.0,*52
###2023-12-09 13:27:20.788777$GNGGA,182719.90,4138.0568290,N,07032.4012941,W,1,24,0.6,13.098,M,-29.744,M,0.0,*52
###2023-12-09 13:27:21.000850$GNRMC,182720.10,A,4138.0567363,N,07032.4015208,W,3.58,244.59,091223,,,A*56
###2023-12-09 13:27:21.003739$GNGGA,182720.10,4138.0567363,N,07032.4015208,W,1,24,0.6,13.107,M,-29.744,M,0.0,*54
###2023-12-09 13:27:21.005544$GPGSA,A,3,03,04,16,26,28,29,31,,,,,,1.1,0.6,0.9*3A
###2023-12-09 13:27:21.007278$GLGSA,A,3,65,71,72,73,74,75,,,,,,,1.1,0.6,0.9*24
###2023-12-09 13:27:21.008866$GAGSA,A,3,04,19,21,27,,,,,,,,,1.1,0.6,0.9*26
###2023-12-09 13:27:21.010588$GBGSA,A,3,14,24,25,26,33,35,,,,,,,1.1,0.6,0.9*29
###2023-12-09 13:27:21.012917$GPGSV,2,1,07,03,28,249,40,04,43,309,44,16,63,220,45,26,88,044,48*7D
###2023-12-09 13:27:21.014961$GPGSV,2,2,07,28,41,081,44,29,22,050,44,31,62,060,46,,,,*44
###2023-12-09 13:27:21.017289$GLGSV,2,1,06,65,35,321,42,71,26,175,46,72,66,227,45,73,25,050,43*62
###2023-12-09 13:27:21.019052$GLGSV,2,2,06,74,62,008,43,75,41,267,45,,,,,,,,*6E
###2023-12-09 13:27:21.021386$GAGSV,1,1,04,04,37,311,42,19,75,184,40,21,80,050,46,27,25,049,41*6C
###2023-12-09 13:27:21.024004$GBGSV,2,1,06,14,32,190,43,24,65,042,48,25,49,273,44,26,18,069,44*64
###2023-12-09 13:27:21.025769$GBGSV,2,2,06,33,48,220,46,35,16,059,44,,,,,,,,*6E
###2023-12-09 13:27:21.027109$GNVTG,244.59,T,,M,3.58,N,6.62,K,A*21
###2023-12-09 13:27:21.028764$GNGST,182720.10,18.000,,,,0.100,0.071,0.160*51
###2023-12-09 13:27:21.030056$GNZDA,182720.10,09,12,2023,00,00*7E
###2023-12-09 13:27:21.030707$GNEBP,,,,,,M*13
###2023-12-09 13:27:21.196618$GNGGA,182720.30,4138.0566547,N,07032.4017731,W,1,24,0.6,13.115,M,-29.744,M,0.0,*59
###2023-12-09 13:27:21.387906$GNGGA,182720.50,4138.0565470,N,07032.4020039,W,1,24,0.6,13.111,M,-29.744,M,0.0,*56
###2023-12-09 13:27:21.589405$GNGGA,182720.70,4138.0564113,N,07032.4021986,W,1,24,0.6,13.109,M,-29.744,M,0.0,*50
