###2023-12-09 12:35:07.961758$GNVTG,303.39,T,,M,0.68,N,1.26,K,A*22
###2023-12-09 12:35:07.963448$GNGST,173507.10,18.000,,,,0.080,0.072,0.160*52
###2023-12-09 12:35:07.964756$GNZDA,173507.10,09,12,2023,00,00*77
###2023-12-09 12:35:07.965401$GNEBP,,,,,,M*13
###2023-12-09 12:35:08.134619$GNGGA,173507.30,4138.0486629,N,07032.4235690,W,1,23,0.7,13.069,M,-29.745,M,0.0,*51
###2023-12-09 12:35:08.336057$GNGGA,173507.50,4138.0486807,N,07032.4236140,W,1,23,0.7,13.049,M,-29.745,M,0.0,*5E
###2023-12-09 12:35:08.540596$GNGGA,173507.70,4138.0486727,N,07032.4235957,W,1,23,0.7,13.073,M,-29.745,M,0.0,*55
###2023-12-09 12:35:08.734786$GNGGA,173507.90,4138.0486638,N,07032.4235668,W,1,23,0.7,13.084,M,-29.745,M,0.0,*5F
###2023-12-09 12:35:08.942284$GNRMC,173508.10,A,4138.0486768,N,07032.4235893,W,0.78,300.95,091223,,,A*59
###2023-12-09 12:35:08.945196$GNGGA,173508.10,4138.0486768,N,07032.4235893,W,1,23,0.7,13.076,M,-29.745,M,0.0,*5B
###2023-12-09 12:35:08.947185$GPGSA,A,3,03,04,16,26,28,29,31,32,,,,,1.2,0.7,1.0*31
###2023-12-09 12:35:08.948886$GLGSA,A,3,71,72,73,74,75,,,,,,,,1.2,0.7,1.0*2D
###2023-12-09 12:35:08.950486$GAGSA,A,3,04,19,21,27,,,,,,,,,1.2,0.7,1.0*2C
###2023-12-09 12:35:08.952175$GBGSA,A,3,14,24,25,26,33,,,,,,,,1.2,0.7,1.0*25
###2023-12-09 12:35:08.954523$GPGSV,2,1,08,03,39,277,43,04,22,311,40,16,37,207,46,26,66,206,47*7A
###2023-12-09 12:35:08.956887$GPGSV,2,2,08,28,58,056,45,29,25,074,43,31,73,001,46,32,30,134,47*7E
###2023-12-09 12:35:08.959251$GLGSV,2,1,05,71,57,169,48,72,65,310,45,73,48,033,46,74,71,290,43*63
###2023-12-09 12:35:08.960713$GLGSV,2,2,05,75,22,241,42,,,,,,,,,,,,*53
###2023-12-09 12:35:08.963071$GAGSV,1,1,04,04,21,311,40,19,81,302,41,21,78,176,45,27,41,049,42*6F
###2023-12-09 12:35:08.965414$GBGSV,2,1,05,14,55,198,46,24,81,343,48,25,32,252,42,26,35,057,44*68
###2023-12-09 12:35:08.966895$GBGSV,2,2,05,33,63,255,48,,,,,,,,,,,,*55
###2023-12-09 12:35:08.968229$GNVTG,300.95,T,,M,0.78,N,1.44,K,A*22
###2023-12-09 12:35:08.969883$GNGST,173508.10,19.000,,,,0.080,0.072,0.160*5C
###2023-12-09 12:35:08.971192$GNZDA,173508.10,09,12,2023,00,00*78
###2023-12-09 12:35:08.971833$GNEBP,,,,,,M*13
###2023-12-09 12:35:09.140560$GNGGA,173508.30,4138.0486981,N,07032.4236382,W,1,23,0.7,13.064,M,-29.745,M,0.0,*5B
###2023-12-09 12:35:09.335168$GNGGA,173508.50,4138.0487049,N,07032.4236540,W,1,23,0.7,13.052,M,-29.745,M,0.0,*5C
###2023-12-09 12:35:09.536263$GNGGA,173508.70,4138.0486998,N,07032.4236371,W,1,23,0.7,13.076,M,-29.745,M,0.0,*58
###2023-12-09 12:35:09.746719$GNGGA,173508.90,4138.0487023,N,07032.4236365,W,1,23,0.7,13.091,M,-29.745,M,0.0,*52
###2023-12-09 12:35:09.933797$GNRMC,173509.10,A,4138.0487157,N,07032.4236649,W,0.49,300.95,091223,,,A*5B
###2023-12-09 12:35:09.936655$GNGGA,173509.10,4138.0487157,N,07032.4236649,W,1,23,0.7,13.079,M,-29.745,M,0.0,*54
###2023-12-09 12:35:09.938504$GPGSA,A,3,03,04,16,26,28,29,31,32,,,,,1.2,0.7,1.0*31
###2023-12-09 12:35:09.940168$GLGSA,A,3,71,72,73,74,75,,,,,,,,1.2,0.7,1.0*2D
###2023-12-09 12:35:09.941756$GAGSA,A,3,04,19,21,27,,,,,,,,,1.2,0.7,1.0*2C
###2023-12-09 12:35:09.943418$GBGSA,A,3,14,24,25,26,33,,,,,,,,1.2,0.7,1.0*25
###2023-12-09 12:35:09.945751$GPGSV,2,1,08,03,39,277,44,04,22,311,43,16,37,207,47,26,66,206,48*70
###2023-12-09 12:35:09.948112$GPGSV,2,2,08,28,58,056,44,29,25,074,42,31,73,001,46,32,30,134,46*7F
###2023-12-09 12:35:09.950464$GLGSV,2,1,05,71,57,169,48,72,65,310,46,73,48,033,45,74,71,290,44*64
###2023-12-09 12:35:09.951939$GLGSV,2,2,05,75,22,241,44,,,,,,,,,,,,*55
###2023-12-09 12:35:09.954265$GAGSV,1,1,04,04,21,311,40,19,81,302,41,21,78,176,46,27,41,049,41*6F
###2023-12-09 12:35:09.956627$GBGSV,2,1,05,14,55,198,45,24,81,343,48,25,32,252,43,26,35,057,45*6B
###2023-12-09 12:35:09.958088$GBGSV,2,2,05,33,63,255,47,,,,,,,,,,,,*5A
###2023-12-09 12:35:09.959423$GNVTG,300.95,T,,M,0.49,N,0.90,K,A*28
###2023-12-09 12:35:09.961070$GNGST,173509.10,18.000,,,,0.080,0.072,0.160*5C
###2023-12-09 12:35:09.962364$GNZDA,173509.10,09,12,2023,00,00*79
###2023-12-09 12:35:09.963016$GNEBP,,,,,,M*13
###2023-12-09 12:35:10.135370$GNGGA,173509.30,4138.0487272,N,07032.4236891,W,1,23,0.7,13.051,M,-29.745,M,0.0,*53
###2023-12-09 12:35:10.332724$GNGGA,173509.50,4138.0487305,N,07032.4236973,W,1,23,0.7,13.057,M,-29.745,M,0.0,*5F
###2023-12-09 12:35:10.541825$GNGGA,173509.70,4138.0487347,N,07032.4237025,W,1,23,0.7,13.088,M,-29.745,M,0.0,*52
###2023-12-09 12:35:10.734421$GNGGA,173509.90,4138.0487431,N,07032.4237170,W,1,23,0.7,13.108,M,-29.745,M,0.0,*52
###2023-12-09 12:35:10.939380$GNRMC,173510.10,A,4138.0487489,N,07032.4237275,W,0.06,300.95,091223,,,A*54
###2023-12-09 12:35:10.942234$GNGGA,173510.10,4138.0487489,N,07032.4237275,W,1,23,0.7,13.088,M,-29.745,M,0.0,*5E
###2023-12-09 12:35:10.944103$GPGSA,A,3,03,04,16,26,28,29,31,32,,,,,1.2,0.7,1.0*31
###2023-12-09 12:35:10.945756$GLGSA,A,3,71,72,73,74,75,,,,,,,,1.2,0.7,1.0*2D
###2023-12-09 12:35:10.947363$GAGSA,A,3,04,19,21,27,,,,,,,,,1.2,0.7,1.0*2C
###2023-12-09 12:35:10.949015$GBGSA,A,3,14,24,25,26,33,,,,,,,,1.2,0.7,1.0*25
###2023-12-09 12:35:10.951347$GPGSV,2,1,08,03,39,277,44,04,22,311,42,16,37,207,46,26,66,206,47*7F
###2023-12-09 12:35:10.953659$GPGSV,2,2,08,28,58,056,44,29,25,074,40,31,73,001,47,32,30,134,45*7F
###2023-12-09 12:35:10.956001$GLGSV,2,1,05,71,57,169,48,72,65,310,47,73,48,033,45,74,71,290,43*62
###2023-12-09 12:35:10.957455$GLGSV,2,2,05,75,22,241,45,,,,,,,,,,,,*54
###2023-12-09 12:35:10.959782$GAGSV,1,1,04,04,21,311,42,19,81,302,41,21,78,176,46,27,41,049,42*6E
###2023-12-09 12:35:10.962105$GBGSV,2,1,05,14,55,198,45,24,81,343,49,25,32,252,44,26,35,057,45*6D
###2023-12-09 12:35:10.963582$GBGSV,2,2,05,33,63,255,49,,,,,,,,,,,,*54
###2023-12-09 12:35:10.964903$GNVTG,300.95,T,,M,0.06,N,0.11,K,A*2A
###2023-12-09 12:35:10.966544$GNGST,173510.10,18.000,,,,0.079,0.072,0.160*52
###2023-12-09 12:35:10.967844$GNZDA,173510.10,09,12,2023,00,00*71
###2023-12-09 12:35:10.968481$GNEBP,,,,,,M*13
###2023-12-09 12:35:11.130952$GNGGA,173510.30,4138.0487523,N,07032.4237335,W,1,23,0.7,13.074,M,-29.745,M,0.0,*5B
###2023-12-09 12:35:11.339274$GNGGA,173510.50,4138.0487631,N,07032.4237563,W,1,23,0.7,13.079,M,-29.745,M,0.0,*55
###2023-12-09 12:35:11.541755$GNGGA,173510.70,4138.0487767,N,07032.4237856,W,1,23,0.7,13.098,M,-29.745,M,0.0,*51
###2023-12-09 12:35:11.737764$GNGGA,173510.90,4138.0487799,N,07032.4237836,W,1,23,0.7,13.104,M,-29.745,M,0.0,*5C
###2023-12-09 12:35:11.933416$GNRMC,173511.10,A,4138.0487755,N,07032.4237733,W,0.04,300.95,091223,,,A*52
###2023-12-09 12:35:11.936298$GNGGA,173511.10,4138.0487755,N,07032.4237733,W,1,23,0.7,13.096,M,-29.745,M,0.0,*55
###2023-12-09 12:35:11.938162$GPGSA,A,3,03,04,16,26,28,29,31,32,,,,,1.2,0.7,1.0*31
###2023-12-09 12:35:11.939833$GLGSA,A,3,71,72,73,74,75,,,,,,,,1.2,0.7,1.0*2D
###2023-12-09 12:35:11.941420$GAGSA,A,3,04,19,21,27,,,,,,,,,1.2,0.7,1.0*2C
###2023-12-09 12:35:11.943079$GBGSA,A,3,14,24,25,26,33,,,,,,,,1.2,0.7,1.0*25
###2023-12-09 12:35:11.945409$GPGSV,2,1,08,03,39,277,43,04,22,311,42,16,37,207,46,26,66,206,48*77
###2023-12-09 12:35:11.947768$GPGSV,2,2,08,28,58,056,45,29,25,074,40,31,73,001,46,32,30,134,46*7C
###2023-12-09 12:35:11.950126$GLGSV,2,1,05,71,57,169,48,72,65,310,47,73,48,033,46,74,71,290,44*66
###2023-12-09 12:35:11.951604$GLGSV,2,2,05,75,22,241,43,,,,,,,,,,,,*52
###2023-12-09 12:35:11.953933$GAGSV,1,1,04,04,21,311,41,19,81,302,41,21,78,176,46,27,41,049,42*6D
###2023-12-09 12:35:11.956288$GBGSV,2,1,05,14,55,198,45,24,81,343,48,25,32,252,44,26,35,057,44*6D
###2023-12-09 12:35:11.957750$GBGSV,2,2,05,33,63,255,48,,,,,,,,,,,,*55
###2023-12-09 12:35:11.959093$GNVTG,300.95,T,,M,0.04,N,0.07,K,A*2F
###2023-12-09 12:35:11.960745$GNGST,173511.10,18.000,,,,0.079,0.071,0.160*50
###2023-12-09 12:35:11.962037$GNZDA,173511.10,09,12,2023,00,00*70
###2023-12-09 12:35:11.962690$GNEBP,,,,,,M*13
###2023-12-09 12:35:12.132331$GNGGA,173511.30,4138.0487853,N,07032.4237938,W,1,23,0.7,13.091,M,-29.745,M,0.0,*5C
###2023-12-09 12:35:12.335510$GNGGA,173511.50,4138.0488043,N,07032.4238327,W,1,23,0.7,13.088,M,-29.745,M,0.0,*5F
###2023-12-09 12:35:12.532016$GNGGA,173511.70,4138.0488120,N,07032.4238475,W,1,23,0.7,13.094,M,-29.745,M,0.0,*54
###2023-12-09 12:35:12.732120$GNGGA,173511.90,4138.0488088,N,07032.4238376,W,1,23,0.7,13.111,M,-29.745,M,0.0,*51
###2023-12-09 12:35:12.932565$GNRMC,173512.10,A,4138.0488118,N,07032.4238419,W,0.21,300.95,091223,,,A*52
###2023-12-09 12:35:12.935434$GNGGA,173512.10,4138.0488118,N,07032.4238419,W,1,23,0.7,13.117,M,-29.745,M,0.0,*5A
###2023-12-09 12:35:12.937295$GPGSA,A,3,03,04,16,26,28,29,31,32,,,,,1.2,0.7,1.0*31
###2023-12-09 12:35:12.938962$GLGSA,A,3,71,72,73,74,75,,,,,,,,1.2,0.7,1.0*2D
###2023-12-09 12:35:12.940551$GAGSA,A,3,04,19,21,27,,,,,,,,,1.2,0.7,1.0*2C
###2023-12-09 12:35:12.942198$GBGSA,A,3,14,24,25,26,33,,,,,,,,1.2,0.7,1.0*25
###2023-12-09 12:35:12.944538$GPGSV,2,1,08,03,39,277,44,04,22,311,41,16,37,207,46,26,66,206,47*7C
###2023-12-09 12:35:12.946916$GPGSV,2,2,08,28,58,056,44,29,25,074,41,31,73,001,46,32,30,134,46*7C
