###2023-12-09 13:02:40.966503$GNRMC,180240.10,A,4138.0466833,N,07032.3398853,W,3.54,265.89,091223,,,A*5E
###2023-12-09 13:02:40.969410$GNGGA,180240.10,4138.0466833,N,07032.3398853,W,1,24,0.6,13.288,M,-29.744,M,0.0,*5A
###2023-12-09 13:02:40.971293$GPGSA,A,3,03,04,16,26,28,29,31,32,,,,,1.1,0.6,0.9*3B
###2023-12-09 13:02:40.973018$GLGSA,A,3,65,71,72,73,74,75,,,,,,,1.1,0.6,0.9*24
###2023-12-09 13:02:40.974609$GAGSA,A,3,04,19,21,27,,,,,,,,,1.1,0.6,0.9*26
###2023-12-09 13:02:40.976252$GBGSA,A,3,14,24,25,26,33,,,,,,,,1.1,0.6,0.9*2F
###2023-12-09 13:02:40.978627$GPGSV,2,1,08,03,35,261,43,04,33,311,41,16,50,212,46,26,80,210,48*75
###2023-12-09 13:02:40.980973$GPGSV,2,2,08,28,49,070,45,29,25,061,42,31,69,038,47,32,19,140,45*75
###2023-12-09 13:02:40.983324$GLGSV,2,1,06,65,25,327,41,71,41,173,47,72,73,269,45,73,36,041,44*6B
###2023-12-09 13:02:40.985074$GLGSV,2,2,06,74,70,337,42,75,32,253,43,,,,,,,,*66
###2023-12-09 13:02:40.987415$GAGSV,1,1,04,04,29,312,40,19,84,213,40,21,86,114,46,27,32,048,41*61
###2023-12-09 13:02:40.989747$GBGSV,2,1,05,14,43,193,44,24,73,026,48,25,41,263,44,26,26,063,40*6A
###2023-12-09 13:02:40.991215$GBGSV,2,2,05,33,57,231,46,,,,,,,,,,,,*5E
###2023-12-09 13:02:40.992542$GNVTG,265.89,T,,M,3.54,N,6.55,K,A*27
###2023-12-09 13:02:40.994197$GNGST,180240.10,18.000,,,,0.081,0.069,0.160*51
###2023-12-09 13:02:40.995502$GNZDA,180240.10,09,12,2023,00,00*7F
###2023-12-09 13:02:40.996143$GNEBP,,,,,,M*13
###2023-12-09 13:02:41.163209$GNGGA,180240.30,4138.0466726,N,07032.3401495,W,1,24,0.6,13.292,M,-29.744,M,0.0,*59
###2023-12-09 13:02:41.362919$GNGGA,180240.50,4138.0466620,N,07032.3404114,W,1,24,0.6,13.288,M,-29.744,M,0.0,*5A
###2023-12-09 13:02:41.563891$GNGGA,180240.70,4138.0466577,N,07032.3406710,W,1,24,0.6,13.285,M,-29.744,M,0.0,*54
###2023-12-09 13:02:41.765338$GNGGA,180240.90,4138.0466631,N,07032.3409281,W,1,24,0.6,13.285,M,-29.744,M,0.0,*59
###2023-12-09 13:02:41.966199$GNRMC,180241.10,A,4138.0466742,N,07032.3411830,W,3.36,273.97,091223,,,A*59
###2023-12-09 13:02:41.969084$GNGGA,180241.10,4138.0466742,N,07032.3411830,W,1,24,0.6,13.285,M,-29.744,M,0.0,*5C
###2023-12-09 13:02:41.970987$GPGSA,A,3,03,04,16,26,28,29,31,32,,,,,1.1,0.6,0.9*3B
###2023-12-09 13:02:41.972708$GLGSA,A,3,65,71,72,73,74,75,,,,,,,1.1,0.6,0.9*24
###2023-12-09 13:02:41.974290$GAGSA,A,3,04,19,21,27,,,,,,,,,1.1,0.6,0.9*26
###2023-12-09 13:02:41.975954$GBGSA,A,3,14,24,25,26,33,,,,,,,,1.1,0.6,0.9*2F
###2023-12-09 13:02:41.978286$GPGSV,2,1,08,03,35,261,42,04,33,311,40,16,50,212,46,26,80,210,48*75
###2023-12-09 13:02:41.980637$GPGSV,2,2,08,28,49,070,45,29,25,061,41,31,69,038,47,32,19,140,43*70
###2023-12-09 13:02:41.982981$GLGSV,2,1,06,65,25,327,39,71,41,173,46,72,73,269,45,73,36,041,45*64
###2023-12-09 13:02:41.984729$GLGSV,2,2,06,74,70,337,42,75,32,253,41,,,,,,,,*64
###2023-12-09 13:02:41.987063$GAGSV,1,1,04,04,29,312,38,19,84,213,40,21,86,114,46,27,32,048,41*6E
###2023-12-09 13:02:41.989391$GBGSV,2,1,05,14,43,193,44,24,73,026,48,25,41,263,44,26,26,063,41*6B
###2023-12-09 13:02:41.990853$GBGSV,2,2,05,33,57,231,48,,,,,,,,,,,,*50
###2023-12-09 13:02:41.992174$GNVTG,273.97,T,,M,3.36,N,6.23,K,A*2A
###2023-12-09 13:02:41.993813$GNGST,180241.10,18.000,,,,0.081,0.069,0.160*50
###2023-12-09 13:02:41.995112$GNZDA,180241.10,09,12,2023,00,00*7E
###2023-12-09 13:02:41.995749$GNEBP,,,,,,M*13
###2023-12-09 13:02:42.163184$GNGGA,180241.30,4138.0466898,N,07032.3414322,W,1,24,0.6,13.286,M,-29.744,M,0.0,*58
###2023-12-09 13:02:42.363495$GNGGA,180241.50,4138.0467116,N,07032.3416845,W,1,24,0.6,13.292,M,-29.744,M,0.0,*5D
###2023-12-09 13:02:42.564192$GNGGA,180241.70,4138.0467346,N,07032.3419370,W,1,24,0.6,13.293,M,-29.744,M,0.0,*5B
###2023-12-09 13:02:42.766209$GNGGA,180241.90,4138.0467584,N,07032.3421912,W,1,24,0.6,13.297,M,-29.744,M,0.0,*5C
###2023-12-09 13:02:42.965287$GNRMC,180242.10,A,4138.0467846,N,07032.3424512,W,3.56,277.97,091223,,,A*59
###2023-12-09 13:02:42.968170$GNGGA,180242.10,4138.0467846,N,07032.3424512,W,1,24,0.6,13.307,M,-29.744,M,0.0,*55
###2023-12-09 13:02:42.970040$GPGSA,A,3,03,04,16,26,28,29,31,32,,,,,1.1,0.6,0.9*3B
###2023-12-09 13:02:42.971773$GLGSA,A,3,65,71,72,73,74,75,,,,,,,1.1,0.6,0.9*24
###2023-12-09 13:02:42.973363$GAGSA,A,3,04,19,21,27,,,,,,,,,1.1,0.6,0.9*26
###2023-12-09 13:02:42.975025$GBGSA,A,3,14,24,25,26,33,,,,,,,,1.1,0.6,0.9*2F
###2023-12-09 13:02:42.977360$GPGSV,2,1,08,03,35,261,42,04,33,311,42,16,50,212,46,26,80,210,48*77
###2023-12-09 13:02:42.979709$GPGSV,2,2,08,28,49,070,45,29,25,061,41,31,69,038,47,32,19,140,44*77
###2023-12-09 13:02:42.982048$GLGSV,2,1,06,65,25,327,39,71,41,173,47,72,73,269,45,73,36,041,44*64
###2023-12-09 13:02:42.983807$GLGSV,2,2,06,74,70,337,42,75,32,253,41,,,,,,,,*64
###2023-12-09 13:02:42.986147$GAGSV,1,1,04,04,29,312,38,19,84,213,41,21,86,114,46,27,32,048,41*6F
###2023-12-09 13:02:42.988490$GBGSV,2,1,05,14,43,193,45,24,73,026,48,25,41,263,44,26,26,063,41*6A
###2023-12-09 13:02:42.989943$GBGSV,2,2,05,33,57,231,47,,,,,,,,,,,,*5F
###2023-12-09 13:02:42.991289$GNVTG,277.97,T,,M,3.56,N,6.59,K,A*25
###2023-12-09 13:02:42.992951$GNGST,180242.10,18.000,,,,0.081,0.070,0.160*5B
###2023-12-09 13:02:42.994244$GNZDA,180242.10,09,12,2023,00,00*7D
###2023-12-09 13:02:42.994897$GNEBP,,,,,,M*13
###2023-12-09 13:02:43.163066$GNGGA,180242.30,4138.0468042,N,07032.3427171,W,1,24,0.6,13.309,M,-29.744,M,0.0,*58
###2023-12-09 13:02:43.363199$GNGGA,180242.50,4138.0468093,N,07032.3429849,W,1,24,0.6,13.299,M,-29.744,M,0.0,*56
###2023-12-09 13:02:43.564268$GNGGA,180242.70,4138.0468113,N,07032.3432603,W,1,24,0.6,13.298,M,-29.744,M,0.0,*56
###2023-12-09 13:02:43.764681$GNGGA,180242.90,4138.0468162,N,07032.3435428,W,1,24,0.6,13.311,M,-29.744,M,0.0,*52
###2023-12-09 13:02:43.965566$GNRMC,180243.10,A,4138.0468109,N,07032.3438263,W,3.77,265.29,091223,,,A*5C
###2023-12-09 13:02:43.969028$GNGGA,180243.10,4138.0468109,N,07032.3438263,W,1,24,0.6,13.321,M,-29.744,M,0.0,*51
###2023-12-09 13:02:43.971283$GPGSA,A,3,03,04,16,26,28,29,31,32,,,,,1.1,0.6,0.9*3B
###2023-12-09 13:02:43.973361$GLGSA,A,3,65,71,72,73,74,75,,,,,,,1.1,0.6,0.9*24
###2023-12-09 13:02:43.975276$GAGSA,A,3,04,19,21,27,,,,,,,,,1.1,0.6,0.9*26
###2023-12-09 13:02:43.977262$GBGSA,A,3,14,24,25,26,33,,,,,,,,1.1,0.6,0.9*2F
###2023-12-09 13:02:43.980081$GPGSV,2,1,08,03,35,261,42,04,33,311,43,16,50,212,45,26,80,210,47*7A
###2023-12-09 13:02:43.982893$GPGSV,2,2,08,28,49,070,45,29,25,061,43,31,69,038,47,32,19,140,43*72
###2023-12-09 13:02:43.985693$GLGSV,2,1,06,65,25,327,41,71,41,173,46,72,73,269,45,73,36,041,45*6B
###2023-12-09 13:02:43.987822$GLGSV,2,2,06,74,70,337,43,75,32,253,43,,,,,,,,*67
###2023-12-09 13:02:43.990643$GAGSV,1,1,04,04,29,312,40,19,84,213,40,21,86,114,45,27,32,048,43*60
###2023-12-09 13:02:43.993443$GBGSV,2,1,05,14,43,193,43,24,73,026,48,25,41,263,44,26,26,063,42*6F
###2023-12-09 13:02:43.995207$GBGSV,2,2,05,33,57,231,47,,,,,,,,,,,,*5F
###2023-12-09 13:02:43.996795$GNVTG,265.29,T,,M,3.77,N,6.98,K,A*2D
###2023-12-09 13:02:43.998828$GNGST,180243.10,18.000,,,,0.081,0.069,0.160*52
###2023-12-09 13:02:44.000388$GNZDA,180243.10,09,12,2023,00,00*7C
###2023-12-09 13:02:44.001153$GNEBP,,,,,,M*13
###2023-12-09 13:02:44.163632$GNGGA,180243.30,4138.0467813,N,07032.3441019,W,1,24,0.6,13.320,M,-29.744,M,0.0,*5E
###2023-12-09 13:02:44.364115$GNGGA,180243.50,4138.0467385,N,07032.3443741,W,1,24,0.6,13.312,M,-29.744,M,0.0,*55
###2023-12-09 13:02:44.564377$GNGGA,180243.70,4138.0467090,N,07032.3446526,W,1,24,0.6,13.308,M,-29.744,M,0.0,*5D
###2023-12-09 13:02:44.764542$GNGGA,180243.90,4138.0467015,N,07032.3449363,W,1,24,0.6,13.311,M,-29.744,M,0.0,*5E
###2023-12-09 13:02:44.974596$GNRMC,180244.10,A,4138.0466835,N,07032.3452115,W,3.67,261.87,091223,,,A*5C
###2023-12-09 13:02:44.978083$GNGGA,180244.10,4138.0466835,N,07032.3452115,W,1,24,0.6,13.319,M,-29.744,M,0.0,*5B
###2023-12-09 13:02:44.980343$GPGSA,A,3,03,04,16,26,28,29,31,32,,,,,1.1,0.6,0.9*3B
###2023-12-09 13:02:44.982415$GLGSA,A,3,65,71,72,73,74,75,,,,,,,1.1,0.6,0.9*24
###2023-12-09 13:02:44.984346$GAGSA,A,3,04,19,21,27,,,,,,,,,1.1,0.6,0.9*26
###2023-12-09 13:02:44.986336$GBGSA,A,3,14,24,25,26,33,,,,,,,,1.1,0.6,0.9*2F
###2023-12-09 13:02:44.989173$GPGSV,2,1,08,03,35,261,43,04,33,311,42,16,50,212,46,26,80,210,48*76
###2023-12-09 13:02:44.992316$GPGSV,2,2,08,28,49,070,46,29,25,061,43,31,69,038,48,32,19,140,44*79
###2023-12-09 13:02:44.995162$GLGSV,2,1,06,65,25,327,42,71,40,173,47,72,73,269,44,73,36,041,46*6A
###2023-12-09 13:02:44.997274$GLGSV,2,2,06,74,70,337,43,75,32,253,43,,,,,,,,*67
###2023-12-09 13:02:45.000087$GAGSV,1,1,04,04,29,312,40,19,84,213,40,21,86,114,46,27,32,048,42*62
###2023-12-09 13:02:45.002901$GBGSV,2,1,05,14,43,193,43,24,73,026,48,25,41,263,43,26,26,063,43*69
###2023-12-09 13:02:45.004646$GBGSV,2,2,05,33,57,231,46,,,,,,,,,,,,*5E
###2023-12-09 13:02:45.006238$GNVTG,261.87,T,,M,3.67,N,6.80,K,A*25
###2023-12-09 13:02:45.008241$GNGST,180244.10,18.000,,,,0.081,0.069,0.160*55
###2023-12-09 13:02:45.009790$GNZDA,180244.10,09,12,2023,00,00*7B
