###2023-12-09 12:43:46.979745$GNGST,174346.10,18.000,,,,0.079,0.069,0.160*5A
###2023-12-09 12:43:46.981338$GNZDA,174346.10,09,12,2023,00,00*73
###2023-12-09 12:43:46.982112$GNEBP,,,,,,M*13
###2023-12-09 12:43:47.143635$GNGGA,174346.30,4138.0516517,N,07032.3863284,W,1,24,0.6,13.299,M,-29.744,M,0.0,*56
###2023-12-09 12:43:47.344656$GNGGA,174346.50,4138.0517554,N,07032.3864702,W,1,24,0.6,13.302,M,-29.744,M,0.0,*59
###2023-12-09 12:43:47.543860$GNGGA,174346.70,4138.0518534,N,07032.3866067,W,1,24,0.6,13.309,M,-29.744,M,0.0,*5F
###2023-12-09 12:43:47.743421$GNGGA,174346.90,4138.0519470,N,07032.3867419,W,1,24,0.6,13.311,M,-29.744,M,0.0,*54
###2023-12-09 12:43:47.945310$GNRMC,174347.10,A,4138.0520343,N,07032.3868746,W,2.35,311.26,091223,,,A*52
###2023-12-09 12:43:47.948799$GNGGA,174347.10,4138.0520343,N,07032.3868746,W,1,24,0.6,13.313,M,-29.744,M,0.0,*54
###2023-12-09 12:43:47.951108$GPGSA,A,3,03,04,16,26,28,29,31,32,,,,,1.1,0.6,0.9*3B
###2023-12-09 12:43:47.953221$GLGSA,A,3,65,71,72,73,74,75,,,,,,,1.1,0.6,0.9*24
###2023-12-09 12:43:47.955168$GAGSA,A,3,04,19,21,27,,,,,,,,,1.1,0.6,0.9*26
###2023-12-09 12:43:47.957146$GBGSA,A,3,14,24,25,26,33,,,,,,,,1.1,0.6,0.9*2F
###2023-12-09 12:43:47.959957$GPGSV,2,1,08,03,38,271,45,04,25,311,39,16,41,209,46,26,70,207,47*7B
###2023-12-09 12:43:47.962777$GPGSV,2,2,08,28,55,060,47,29,25,070,41,31,72,013,48,32,27,136,44*79
###2023-12-09 12:43:47.965585$GLGSV,2,1,06,65,16,329,38,71,51,170,48,72,69,300,45,73,44,036,47*65
###2023-12-09 12:43:47.967708$GLGSV,2,2,06,74,71,307,42,75,25,245,44,,,,,,,,*62
###2023-12-09 12:43:47.970513$GAGSV,1,1,04,04,23,312,38,19,84,288,41,21,81,170,46,27,39,049,45*6C
###2023-12-09 12:43:47.973333$GBGSV,2,1,05,14,51,196,45,24,79,002,49,25,35,255,45,26,32,059,44*6F
###2023-12-09 12:43:47.975106$GBGSV,2,2,05,33,62,246,47,,,,,,,,,,,,*59
###2023-12-09 12:43:47.976707$GNVTG,311.26,T,,M,2.35,N,4.36,K,A*21
###2023-12-09 12:43:47.978715$GNGST,174347.10,18.000,,,,0.079,0.069,0.160*5B
###2023-12-09 12:43:47.980271$GNZDA,174347.10,09,12,2023,00,00*72
###2023-12-09 12:43:47.981037$GNEBP,,,,,,M*13
###2023-12-09 12:43:48.145070$GNGGA,174347.30,4138.0521201,N,07032.3870072,W,1,24,0.6,13.316,M,-29.744,M,0.0,*5C
###2023-12-09 12:43:48.344584$GNGGA,174347.50,4138.0522066,N,07032.3871427,W,1,24,0.6,13.318,M,-29.744,M,0.0,*51
###2023-12-09 12:43:48.545523$GNGGA,174347.70,4138.0522872,N,07032.3872846,W,1,24,0.6,13.318,M,-29.744,M,0.0,*56
###2023-12-09 12:43:48.744916$GNGGA,174347.90,4138.0523665,N,07032.3874369,W,1,24,0.6,13.317,M,-29.744,M,0.0,*5E
###2023-12-09 12:43:48.945450$GNRMC,174348.10,A,4138.0524468,N,07032.3875948,W,2.57,303.34,091223,,,A*5F
###2023-12-09 12:43:48.948948$GNGGA,174348.10,4138.0524468,N,07032.3875948,W,1,24,0.6,13.323,M,-29.744,M,0.0,*5E
###2023-12-09 12:43:48.951246$GPGSA,A,3,03,04,16,26,28,29,31,32,,,,,1.1,0.6,0.9*3B
###2023-12-09 12:43:48.953313$GLGSA,A,3,65,71,72,73,74,75,,,,,,,1.1,0.6,0.9*24
###2023-12-09 12:43:48.955236$GAGSA,A,3,04,19,21,27,,,,,,,,,1.1,0.6,0.9*26
###2023-12-09 12:43:48.957231$GBGSA,A,3,14,24,25,26,33,,,,,,,,1.1,0.6,0.9*2F
###2023-12-09 12:43:48.960061$GPGSV,2,1,08,03,38,271,41,04,25,311,41,16,41,209,45,26,71,208,48*72
###2023-12-09 12:43:48.962876$GPGSV,2,2,08,28,55,060,46,29,25,070,40,31,72,013,48,32,27,136,44*79
###2023-12-09 12:43:48.965680$GLGSV,2,1,06,65,16,329,38,71,51,170,48,72,69,300,45,73,44,036,47*65
###2023-12-09 12:43:48.967796$GLGSV,2,2,06,74,71,307,42,75,25,245,44,,,,,,,,*62
###2023-12-09 12:43:48.970590$GAGSV,1,1,04,04,23,312,38,19,84,288,40,21,81,170,46,27,39,049,44*6C
###2023-12-09 12:43:48.973392$GBGSV,2,1,05,14,51,196,45,24,79,002,49,25,35,255,45,26,32,059,43*68
###2023-12-09 12:43:48.975148$GBGSV,2,2,05,33,62,246,47,,,,,,,,,,,,*59
###2023-12-09 12:43:48.976734$GNVTG,303.34,T,,M,2.57,N,4.75,K,A*22
###2023-12-09 12:43:48.978777$GNGST,174348.10,18.000,,,,0.079,0.069,0.160*54
###2023-12-09 12:43:48.980337$GNZDA,174348.10,09,12,2023,00,00*7D
###2023-12-09 12:43:48.981105$GNEBP,,,,,,M*13
###2023-12-09 12:43:49.145171$GNGGA,174348.30,4138.0525252,N,07032.3877584,W,1,24,0.6,13.321,M,-29.744,M,0.0,*5E
###2023-12-09 12:43:49.346679$GNGGA,174348.50,4138.0525966,N,07032.3879293,W,1,24,0.6,13.317,M,-29.744,M,0.0,*5E
###2023-12-09 12:43:49.545048$GNGGA,174348.70,4138.0526584,N,07032.3881034,W,1,24,0.6,13.315,M,-29.744,M,0.0,*55
###2023-12-09 12:43:49.743113$GNGGA,174348.90,4138.0527117,N,07032.3882823,W,1,24,0.6,13.315,M,-29.744,M,0.0,*59
###2023-12-09 12:43:49.945396$GNRMC,174349.10,A,4138.0527616,N,07032.3884619,W,2.57,288.33,091223,,,A*56
###2023-12-09 12:43:49.948273$GNGGA,174349.10,4138.0527616,N,07032.3884619,W,1,24,0.6,13.312,M,-29.744,M,0.0,*50
###2023-12-09 12:43:49.950140$GPGSA,A,3,03,04,16,26,28,29,31,32,,,,,1.1,0.6,0.9*3B
###2023-12-09 12:43:49.951876$GLGSA,A,3,65,71,72,73,74,75,,,,,,,1.1,0.6,0.9*24
###2023-12-09 12:43:49.953464$GAGSA,A,3,04,19,21,27,,,,,,,,,1.1,0.6,0.9*26
###2023-12-09 12:43:49.955129$GBGSA,A,3,14,24,25,26,33,,,,,,,,1.1,0.6,0.9*2F
###2023-12-09 12:43:49.957457$GPGSV,2,1,08,03,38,271,42,04,25,311,38,16,41,209,44,26,71,208,47*71
###2023-12-09 12:43:49.959841$GPGSV,2,2,08,28,55,060,44,29,25,070,40,31,72,013,46,32,27,136,42*73
###2023-12-09 12:43:49.962194$GLGSV,2,1,06,65,16,329,39,71,51,170,47,72,69,300,45,73,44,036,47*6B
###2023-12-09 12:43:49.963965$GLGSV,2,2,06,74,71,307,41,75,25,245,41,,,,,,,,*64
###2023-12-09 12:43:49.966300$GAGSV,1,1,04,04,23,312,37,19,84,288,40,21,81,170,46,27,39,049,43*64
###2023-12-09 12:43:49.968636$GBGSV,2,1,05,14,51,196,46,24,79,002,48,25,35,255,43,26,32,059,43*6C
###2023-12-09 12:43:49.970094$GBGSV,2,2,05,33,62,246,47,,,,,,,,,,,,*59
###2023-12-09 12:43:49.971429$GNVTG,288.33,T,,M,2.57,N,4.75,K,A*27
###2023-12-09 12:43:49.973072$GNGST,174349.10,18.000,,,,0.080,0.070,0.160*5B
###2023-12-09 12:43:49.974359$GNZDA,174349.10,09,12,2023,00,00*7C
###2023-12-09 12:43:49.975008$GNEBP,,,,,,M*13
###2023-12-09 12:43:50.145334$GNGGA,174349.30,4138.0528052,N,07032.3886441,W,1,24,0.6,13.310,M,-29.744,M,0.0,*54
###2023-12-09 12:43:50.346101$GNGGA,174349.50,4138.0528419,N,07032.3888304,W,1,24,0.6,13.313,M,-29.744,M,0.0,*52
###2023-12-09 12:43:50.551938$GNGGA,174349.70,4138.0528712,N,07032.3890226,W,1,24,0.6,13.311,M,-29.744,M,0.0,*52
###2023-12-09 12:43:50.744342$GNGGA,174349.90,4138.0528923,N,07032.3892201,W,1,24,0.6,13.313,M,-29.744,M,0.0,*55
###2023-12-09 12:43:50.944517$GNRMC,174350.10,A,4138.0529082,N,07032.3894263,W,2.84,274.13,091223,,,A*5C
###2023-12-09 12:43:50.947408$GNGGA,174350.10,4138.0529082,N,07032.3894263,W,1,24,0.6,13.316,M,-29.744,M,0.0,*51
###2023-12-09 12:43:50.949275$GPGSA,A,3,03,04,16,26,28,29,31,32,,,,,1.1,0.6,0.9*3B
###2023-12-09 12:43:50.951005$GLGSA,A,3,65,71,72,73,74,75,,,,,,,1.1,0.6,0.9*24
###2023-12-09 12:43:50.952579$GAGSA,A,3,04,19,21,27,,,,,,,,,1.1,0.6,0.9*26
###2023-12-09 12:43:50.954210$GBGSA,A,3,14,24,25,26,33,,,,,,,,1.1,0.6,0.9*2F
###2023-12-09 12:43:50.956534$GPGSV,2,1,08,03,38,271,43,04,25,311,38,16,41,209,45,26,71,208,47*71
###2023-12-09 12:43:50.958878$GPGSV,2,2,08,28,55,061,44,29,25,070,42,31,72,013,47,32,27,136,43*70
###2023-12-09 12:43:50.961203$GLGSV,2,1,06,65,16,329,40,71,51,170,47,72,69,300,45,73,44,036,46*64
###2023-12-09 12:43:50.962952$GLGSV,2,2,06,74,71,307,41,75,25,245,41,,,,,,,,*64
###2023-12-09 12:43:50.965273$GAGSV,1,1,04,04,23,312,38,19,84,288,40,21,81,170,46,27,39,049,43*6B
###2023-12-09 12:43:50.967617$GBGSV,2,1,05,14,51,196,43,24,79,002,49,25,35,255,45,26,32,059,43*6E
###2023-12-09 12:43:50.969084$GBGSV,2,2,05,33,62,246,47,,,,,,,,,,,,*59
###2023-12-09 12:43:50.970407$GNVTG,274.13,T,,M,2.84,N,5.26,K,A*2F
###2023-12-09 12:43:50.972072$GNGST,174350.10,18.000,,,,0.081,0.071,0.170*52
###2023-12-09 12:43:50.973367$GNZDA,174350.10,09,12,2023,00,00*74
###2023-12-09 12:43:50.974005$GNEBP,,,,,,M*13
###2023-12-09 12:43:51.144360$GNGGA,174350.30,4138.0529144,N,07032.3896430,W,1,24,0.6,13.321,M,-29.744,M,0.0,*5E
###2023-12-09 12:43:51.343805$GNGGA,174350.50,4138.0529070,N,07032.3898652,W,1,24,0.6,13.319,M,-29.744,M,0.0,*5D
###2023-12-09 12:43:51.544828$GNGGA,174350.70,4138.0528854,N,07032.3900915,W,1,24,0.6,13.321,M,-29.744,M,0.0,*57
###2023-12-09 12:43:51.744692$GNGGA,174350.90,4138.0528513,N,07032.3903211,W,1,24,0.6,13.321,M,-29.744,M,0.0,*5B
###2023-12-09 12:43:51.944820$GNRMC,174351.10,A,4138.0528098,N,07032.3905492,W,3.19,255.86,091223,,,A*5C
###2023-12-09 12:43:51.947714$GNGGA,174351.10,4138.0528098,N,07032.3905492,W,1,24,0.6,13.324,M,-29.744,M,0.0,*5A
###2023-12-09 12:43:51.949597$GPGSA,A,3,03,04,16,26,28,29,31,32,,,,,1.1,0.6,0.9*3B
###2023-12-09 12:43:51.951336$GLGSA,A,3,65,71,72,73,74,75,,,,,,,1.1,0.6,0.9*24
###2023-12-09 12:43:51.952923$GAGSA,A,3,04,19,21,27,,,,,,,,,1.1,0.6,0.9*26
###2023-12-09 12:43:51.954590$GBGSA,A,3,14,24,25,26,33,,,,,,,,1.1,0.6,0.9*2F
###2023-12-09 12:43:51.956924$GPGSV,2,1,08,03,38,271,42,04,25,311,40,16,41,209,44,26,71,208,46*7F
###2023-12-09 12:43:51.959282$GPGSV,2,2,08,28,55,061,44,29,26,069,42,31,72,013,47,32,27,136,44*7C
###2023-12-09 12:43:51.961629$GLGSV,2,1,06,65,16,329,42,71,51,170,46,72,69,300,45,73,44,036,47*66
