###2023-12-09 12:46:28.971827$GBGSV,2,2,05,33,61,245,48,,,,,,,,,,,,*56
###2023-12-09 12:46:28.973165$GNVTG,274.45,T,,M,0.12,N,0.22,K,A*20
###2023-12-09 12:46:28.974831$GNGST,174628.10,18.000,,,,0.079,0.070,0.160*5F
###2023-12-09 12:46:28.976132$GNZDA,174628.10,09,12,2023,00,00*7E
###2023-12-09 12:46:28.976774$GNEBP,,,,,,M*13
###2023-12-09 12:46:29.147141$GNGGA,174628.30,4138.0480233,N,07032.3912538,W,1,24,0.6,13.207,M,-29.745,M,0.0,*55
###2023-12-09 12:46:29.347729$GNGGA,174628.50,4138.0480158,N,07032.3912331,W,1,24,0.6,13.162,M,-29.745,M,0.0,*52
###2023-12-09 12:46:29.547842$GNGGA,174628.70,4138.0480190,N,07032.3912918,W,1,24,0.6,13.172,M,-29.745,M,0.0,*54
###2023-12-09 12:46:29.746059$GNGGA,174628.90,4138.0480257,N,07032.3913900,W,1,24,0.6,13.187,M,-29.745,M,0.0,*50
###2023-12-09 12:46:29.946493$GNRMC,174629.10,A,4138.0480239,N,07032.3914220,W,0.33,276.79,091223,,,A*59
###2023-12-09 12:46:29.949396$GNGGA,174629.10,4138.0480239,N,07032.3914220,W,1,24,0.6,13.189,M,-29.745,M,0.0,*51
###2023-12-09 12:46:29.951281$GPGSA,A,3,03,04,16,26,28,29,31,32,,,,,1.1,0.6,0.9*3B
###2023-12-09 12:46:29.952995$GLGSA,A,3,65,71,72,73,74,75,,,,,,,1.1,0.6,0.9*24
###2023-12-09 12:46:29.954586$GAGSA,A,3,04,19,21,27,,,,,,,,,1.1,0.6,0.9*26
###2023-12-09 12:46:29.956238$GBGSA,A,3,14,24,25,26,33,,,,,,,,1.1,0.6,0.9*2F
###2023-12-09 12:46:29.958558$GPGSV,2,1,08,03,37,270,45,04,26,311,45,16,42,209,41,26,72,208,45*76
###2023-12-09 12:46:29.960921$GPGSV,2,2,08,28,54,062,43,29,26,068,41,31,72,018,46,32,25,137,42*74
###2023-12-09 12:46:29.963272$GLGSV,2,1,06,65,17,329,42,71,50,171,45,72,70,297,47,73,43,037,45*65
###2023-12-09 12:46:29.965020$GLGSV,2,2,06,74,71,310,43,75,26,245,42,,,,,,,,*60
###2023-12-09 12:46:29.967352$GAGSV,1,1,04,04,24,312,43,19,84,276,40,21,82,165,44,27,38,049,41*67
###2023-12-09 12:46:29.969685$GBGSV,2,1,05,14,50,195,44,24,78,005,48,25,36,256,47,26,31,059,42*6C
###2023-12-09 12:46:29.971149$GBGSV,2,2,05,33,61,245,48,,,,,,,,,,,,*56
###2023-12-09 12:46:29.972473$GNVTG,276.79,T,,M,0.33,N,0.61,K,A*29
###2023-12-09 12:46:29.974114$GNGST,174629.10,18.000,,,,0.079,0.070,0.160*5E
###2023-12-09 12:46:29.975409$GNZDA,174629.10,09,12,2023,00,00*7F
###2023-12-09 12:46:29.976044$GNEBP,,,,,,M*13
###2023-12-09 12:46:30.146506$GNGGA,174629.30,4138.0480107,N,07032.3913800,W,1,24,0.6,13.178,M,-29.745,M,0.0,*5C
###2023-12-09 12:46:30.347568$GNGGA,174629.50,4138.0480034,N,07032.3913737,W,1,24,0.6,13.145,M,-29.745,M,0.0,*5E
###2023-12-09 12:46:30.546660$GNGGA,174629.70,4138.0480116,N,07032.3914601,W,1,24,0.6,13.177,M,-29.745,M,0.0,*5F
###2023-12-09 12:46:30.747490$GNGGA,174629.90,4138.0480160,N,07032.3915510,W,1,24,0.6,13.170,M,-29.745,M,0.0,*55
###2023-12-09 12:46:30.947471$GNRMC,174630.10,A,4138.0480083,N,07032.3915437,W,0.70,272.58,091223,,,A*53
###2023-12-09 12:46:30.950336$GNGGA,174630.10,4138.0480083,N,07032.3915437,W,1,24,0.6,13.167,M,-29.745,M,0.0,*5B
###2023-12-09 12:46:30.952204$GPGSA,A,3,03,04,16,26,28,29,31,32,,,,,1.1,0.6,0.9*3B
###2023-12-09 12:46:30.953924$GLGSA,A,3,65,71,72,73,74,75,,,,,,,1.1,0.6,0.9*24
###2023-12-09 12:46:30.955523$GAGSA,A,3,04,19,21,27,,,,,,,,,1.1,0.6,0.9*26
###2023-12-09 12:46:30.957165$GBGSA,A,3,14,24,25,26,33,,,,,,,,1.1,0.6,0.9*2F
###2023-12-09 12:46:30.959498$GPGSV,2,1,08,03,37,270,45,04,26,311,44,16,42,209,43,26,72,208,48*78
###2023-12-09 12:46:30.961834$GPGSV,2,2,08,28,54,062,44,29,26,068,41,31,72,018,47,32,25,137,42*72
###2023-12-09 12:46:30.964179$GLGSV,2,1,06,65,17,329,42,71,50,171,45,72,70,297,47,73,43,037,46*66
###2023-12-09 12:46:30.965926$GLGSV,2,2,06,74,71,310,43,75,26,245,44,,,,,,,,*66
###2023-12-09 12:46:30.968268$GAGSV,1,1,04,04,24,312,43,19,84,276,41,21,82,165,45,27,38,049,43*65
###2023-12-09 12:46:30.970617$GBGSV,2,1,05,14,50,195,45,24,78,005,48,25,36,256,46,26,31,059,42*6C
###2023-12-09 12:46:30.972076$GBGSV,2,2,05,33,61,245,48,,,,,,,,,,,,*56
###2023-12-09 12:46:30.973439$GNVTG,272.58,T,,M,0.70,N,1.30,K,A*2C
###2023-12-09 12:46:30.975121$GNGST,174630.10,18.000,,,,0.079,0.070,0.160*56
###2023-12-09 12:46:30.976422$GNZDA,174630.10,09,12,2023,00,00*77
###2023-12-09 12:46:30.977062$GNEBP,,,,,,M*13
###2023-12-09 12:46:31.151731$GNGGA,174630.30,4138.0479963,N,07032.3914983,W,1,24,0.6,13.140,M,-29.745,M,0.0,*5E
###2023-12-09 12:46:31.345594$GNGGA,174630.50,4138.0479945,N,07032.3915383,W,1,24,0.6,13.141,M,-29.745,M,0.0,*56
###2023-12-09 12:46:31.545736$GNGGA,174630.70,4138.0480016,N,07032.3916328,W,1,24,0.6,13.168,M,-29.745,M,0.0,*54
###2023-12-09 12:46:31.745547$GNGGA,174630.90,4138.0480038,N,07032.3916772,W,1,24,0.6,13.159,M,-29.745,M,0.0,*5F
###2023-12-09 12:46:31.946453$GNRMC,174631.10,A,4138.0479922,N,07032.3916508,W,0.58,275.39,091223,,,A*52
###2023-12-09 12:46:31.949370$GNGGA,174631.10,4138.0479922,N,07032.3916508,W,1,24,0.6,13.160,M,-29.745,M,0.0,*57
###2023-12-09 12:46:31.951260$GPGSA,A,3,03,04,16,26,28,29,31,32,,,,,1.1,0.6,0.9*3B
###2023-12-09 12:46:31.952985$GLGSA,A,3,65,71,72,73,74,75,,,,,,,1.1,0.6,0.9*24
###2023-12-09 12:46:31.954585$GAGSA,A,3,04,19,21,27,,,,,,,,,1.1,0.6,0.9*26
###2023-12-09 12:46:31.956279$GBGSA,A,3,14,24,25,26,33,,,,,,,,1.1,0.6,0.9*2F
###2023-12-09 12:46:31.958633$GPGSV,2,1,08,03,37,270,44,04,26,311,42,16,42,209,43,26,72,208,47*70
###2023-12-09 12:46:31.960973$GPGSV,2,2,08,28,54,062,45,29,26,068,42,31,72,018,48,32,25,137,43*7E
###2023-12-09 12:46:31.963327$GLGSV,2,1,06,65,17,329,41,71,50,171,46,72,70,297,47,73,43,037,45*65
###2023-12-09 12:46:31.965123$GLGSV,2,2,06,74,71,310,43,75,26,245,43,,,,,,,,*61
###2023-12-09 12:46:31.967477$GAGSV,1,1,04,04,24,312,42,19,84,276,41,21,82,165,45,27,38,049,43*64
###2023-12-09 12:46:31.969819$GBGSV,2,1,05,14,50,195,44,24,78,005,49,25,36,256,45,26,31,059,42*6F
###2023-12-09 12:46:31.971293$GBGSV,2,2,05,33,61,245,48,,,,,,,,,,,,*56
###2023-12-09 12:46:31.972618$GNVTG,275.39,T,,M,0.58,N,1.08,K,A*2D
###2023-12-09 12:46:31.974270$GNGST,174631.10,18.000,,,,0.079,0.070,0.160*57
###2023-12-09 12:46:31.975575$GNZDA,174631.10,09,12,2023,00,00*76
###2023-12-09 12:46:31.976216$GNEBP,,,,,,M*13
###2023-12-09 12:46:32.146097$GNGGA,174631.30,4138.0479843,N,07032.3916457,W,1,24,0.6,13.139,M,-29.745,M,0.0,*54
###2023-12-09 12:46:32.346790$GNGGA,174631.50,4138.0479855,N,07032.3917046,W,1,24,0.6,13.143,M,-29.745,M,0.0,*5D
###2023-12-09 12:46:32.545519$GNGGA,174631.70,4138.0479875,N,07032.3917702,W,1,24,0.6,13.145,M,-29.745,M,0.0,*5C
###2023-12-09 12:46:32.745120$GNGGA,174631.90,4138.0479825,N,07032.3917892,W,1,24,0.6,13.150,M,-29.745,M,0.0,*55
###2023-12-09 12:46:32.953287$GNRMC,174632.10,A,4138.0479759,N,07032.3917823,W,0.10,275.39,091223,,,A*5A
###2023-12-09 12:46:32.956182$GNGGA,174632.10,4138.0479759,N,07032.3917823,W,1,24,0.6,13.163,M,-29.745,M,0.0,*50
###2023-12-09 12:46:32.958086$GPGSA,A,3,03,04,16,26,28,29,31,32,,,,,1.1,0.6,0.9*3B
###2023-12-09 12:46:32.959843$GLGSA,A,3,65,71,72,73,74,75,,,,,,,1.1,0.6,0.9*24
###2023-12-09 12:46:32.961431$GAGSA,A,3,04,19,21,27,,,,,,,,,1.1,0.6,0.9*26
###2023-12-09 12:46:32.963091$GBGSA,A,3,14,24,25,26,33,,,,,,,,1.1,0.6,0.9*2F
###2023-12-09 12:46:32.965418$GPGSV,2,1,08,03,37,270,45,04,26,311,43,16,42,209,41,26,72,208,47*72
###2023-12-09 12:46:32.967755$GPGSV,2,2,08,28,54,062,45,29,26,068,42,31,72,018,48,32,25,137,44*79
###2023-12-09 12:46:32.970086$GLGSV,2,1,06,65,17,329,41,71,50,171,47,72,70,297,47,73,43,037,45*64
###2023-12-09 12:46:32.971840$GLGSV,2,2,06,74,71,310,43,75,26,245,42,,,,,,,,*60
###2023-12-09 12:46:32.974174$GAGSV,1,1,04,04,24,312,41,19,84,276,41,21,82,165,46,27,38,049,43*64
###2023-12-09 12:46:32.976527$GBGSV,2,1,05,14,50,195,45,24,78,005,48,25,36,256,44,26,31,059,43*6F
###2023-12-09 12:46:32.977988$GBGSV,2,2,05,33,61,245,47,,,,,,,,,,,,*59
###2023-12-09 12:46:32.979341$GNVTG,275.39,T,,M,0.10,N,0.18,K,A*21
###2023-12-09 12:46:32.980998$GNGST,174632.10,18.000,,,,0.079,0.070,0.160*54
###2023-12-09 12:46:32.982291$GNZDA,174632.10,09,12,2023,00,00*75
###2023-12-09 12:46:32.982946$GNEBP,,,,,,M*13
###2023-12-09 12:46:33.144711$GNGGA,174632.30,4138.0479735,N,07032.3918084,W,1,24,0.6,13.164,M,-29.745,M,0.0,*55
###2023-12-09 12:46:33.345573$GNGGA,174632.50,4138.0479739,N,07032.3918531,W,1,24,0.6,13.147,M,-29.745,M,0.0,*55
###2023-12-09 12:46:33.546758$GNGGA,174632.70,4138.0479697,N,07032.3918836,W,1,24,0.6,13.133,M,-29.745,M,0.0,*5B
###2023-12-09 12:46:33.746360$GNGGA,174632.90,4138.0479641,N,07032.3919039,W,1,24,0.6,13.152,M,-29.745,M,0.0,*5F
###2023-12-09 12:46:33.947298$GNRMC,174633.10,A,4138.0479646,N,07032.3919394,W,0.60,275.39,091223,,,A*5A
###2023-12-09 12:46:33.950156$GNGGA,174633.10,4138.0479646,N,07032.3919394,W,1,24,0.6,13.189,M,-29.745,M,0.0,*53
###2023-12-09 12:46:33.952024$GPGSA,A,3,03,04,16,26,28,29,31,32,,,,,1.1,0.6,0.9*3B
###2023-12-09 12:46:33.953740$GLGSA,A,3,65,71,72,73,74,75,,,,,,,1.1,0.6,0.9*24
###2023-12-09 12:46:33.955341$GAGSA,A,3,04,19,21,27,,,,,,,,,1.1,0.6,0.9*26
###2023-12-09 12:46:33.956991$GBGSA,A,3,14,24,25,26,33,,,,,,,,1.1,0.6,0.9*2F
###2023-12-09 12:46:33.959328$GPGSV,2,1,08,03,37,270,45,04,26,311,43,16,42,209,43,26,72,208,47*70
