###2023-12-09 13:28:37.999084$GLGSA,A,3,65,71,72,73,74,75,,,,,,,1.1,0.6,0.9*24
###2023-12-09 13:28:38.000677$GAGSA,A,3,04,19,21,27,,,,,,,,,1.1,0.6,0.9*26
###2023-12-09 13:28:38.002387$GBGSA,A,3,14,24,25,26,33,35,,,,,,,1.1,0.6,0.9*29
###2023-12-09 13:28:38.004722$GPGSV,2,1,07,03,28,249,41,04,43,309,44,16,63,220,47,26,87,041,48*74
###2023-12-09 13:28:38.006774$GPGSV,2,2,07,28,40,082,43,29,22,049,42,31,61,061,46,,,,*4D
###2023-12-09 13:28:38.009099$GLGSV,2,1,06,65,36,321,43,71,26,175,45,72,66,227,46,73,25,050,42*61
###2023-12-09 13:28:38.010858$GLGSV,2,2,06,74,62,008,42,75,41,267,45,,,,,,,,*6F
###2023-12-09 13:28:38.013172$GAGSV,1,1,04,04,38,311,43,19,74,183,42,21,79,049,46,27,24,049,40*68
###2023-12-09 13:28:38.015504$GBGSV,2,1,06,14,31,190,40,24,64,043,47,25,49,274,47,26,17,069,39*6A
###2023-12-09 13:28:38.017246$GBGSV,2,2,06,33,48,219,47,35,16,058,42,,,,,,,,*62
###2023-12-09 13:28:38.018534$GNVTG,25.74,T,,M,0.68,N,1.26,K,A*1C
###2023-12-09 13:28:38.020185$GNGST,182837.10,18.000,,,,0.120,0.081,0.190*5A
###2023-12-09 13:28:38.021470$GNZDA,182837.10,09,12,2023,00,00*77
###2023-12-09 13:28:38.022104$GNEBP,,,,,,M*13
###2023-12-09 13:28:38.189011$GNGGA,182837.30,4138.0446300,N,07032.4171301,W,1,24,0.6,13.630,M,-29.745,M,0.0,*51
###2023-12-09 13:28:38.388297$GNGGA,182837.50,4138.0446253,N,07032.4170830,W,1,24,0.6,13.642,M,-29.745,M,0.0,*5D
###2023-12-09 13:28:38.592907$GNGGA,182837.70,4138.0446372,N,07032.4170416,W,1,24,0.6,13.643,M,-29.745,M,0.0,*54
###2023-12-09 13:28:38.790127$GNGGA,182837.90,4138.0446750,N,07032.4170138,W,1,24,0.6,13.642,M,-29.745,M,0.0,*56
###2023-12-09 13:28:38.994283$GNRMC,182838.10,A,4138.0447045,N,07032.4169797,W,0.62,25.74,091223,,,A*6D
###2023-12-09 13:28:38.997159$GNGGA,182838.10,4138.0447045,N,07032.4169797,W,1,24,0.6,13.626,M,-29.745,M,0.0,*5A
###2023-12-09 13:28:38.998966$GPGSA,A,3,03,04,16,26,28,29,31,,,,,,1.1,0.6,0.9*3A
###2023-12-09 13:28:39.000682$GLGSA,A,3,65,71,72,73,74,75,,,,,,,1.1,0.6,0.9*24
###2023-12-09 13:28:39.002255$GAGSA,A,3,04,19,21,27,,,,,,,,,1.1,0.6,0.9*26
###2023-12-09 13:28:39.003974$GBGSA,A,3,14,24,25,26,33,35,,,,,,,1.1,0.6,0.9*29
###2023-12-09 13:28:39.006297$GPGSV,2,1,07,03,28,249,39,04,43,309,43,16,63,220,45,26,87,041,47*71
###2023-12-09 13:28:39.008339$GPGSV,2,2,07,28,40,082,40,29,22,049,39,31,61,061,44,,,,*40
###2023-12-09 13:28:39.010684$GLGSV,2,1,06,65,36,321,42,71,26,175,43,72,66,227,46,73,25,050,40*64
###2023-12-09 13:28:39.012432$GLGSV,2,2,06,74,62,008,42,75,41,267,48,,,,,,,,*62
###2023-12-09 13:28:39.014768$GAGSV,1,1,04,04,38,311,42,19,74,183,40,21,79,049,45,27,24,049,38*67
###2023-12-09 13:28:39.017095$GBGSV,2,1,06,14,31,190,42,24,64,043,48,25,49,274,48,26,17,069,41*67
###2023-12-09 13:28:39.018856$GBGSV,2,2,06,33,48,219,47,35,16,058,42,,,,,,,,*62
###2023-12-09 13:28:39.020144$GNVTG,25.74,T,,M,0.62,N,1.15,K,A*16
###2023-12-09 13:28:39.021786$GNGST,182838.10,18.000,,,,0.110,0.080,0.190*57
###2023-12-09 13:28:39.023115$GNZDA,182838.10,09,12,2023,00,00*78
###2023-12-09 13:28:39.023755$GNEBP,,,,,,M*13
###2023-12-09 13:28:39.193903$GNGGA,182838.30,4138.0447023,N,07032.4169397,W,1,24,0.6,13.626,M,-29.745,M,0.0,*5C
###2023-12-09 13:28:39.391163$GNGGA,182838.50,4138.0447049,N,07032.4168982,W,1,24,0.6,13.634,M,-29.745,M,0.0,*5A
###2023-12-09 13:28:39.589368$GNGGA,182838.70,4138.0447334,N,07032.4168650,W,1,24,0.6,13.639,M,-29.745,M,0.0,*5C
###2023-12-09 13:28:39.791255$GNGGA,182838.90,4138.0447641,N,07032.4168359,W,1,24,0.6,13.631,M,-29.745,M,0.0,*51
###2023-12-09 13:28:39.990583$GNRMC,182839.10,A,4138.0447748,N,07032.4168022,W,0.52,25.74,091223,,,A*6D
###2023-12-09 13:28:39.993439$GNGGA,182839.10,4138.0447748,N,07032.4168022,W,1,24,0.6,13.622,M,-29.745,M,0.0,*5D
###2023-12-09 13:28:39.995241$GPGSA,A,3,03,04,16,26,28,29,31,,,,,,1.1,0.6,0.9*3A
###2023-12-09 13:28:39.996957$GLGSA,A,3,65,71,72,73,74,75,,,,,,,1.1,0.6,0.9*24
###2023-12-09 13:28:39.998539$GAGSA,A,3,04,19,21,27,,,,,,,,,1.1,0.6,0.9*26
###2023-12-09 13:28:40.000252$GBGSA,A,3,14,24,25,26,33,35,,,,,,,1.1,0.6,0.9*29
###2023-12-09 13:28:40.002554$GPGSV,2,1,07,03,28,249,41,04,43,309,43,16,63,220,47,26,87,041,47*7C
###2023-12-09 13:28:40.004595$GPGSV,2,2,07,28,40,082,41,29,22,049,42,31,61,061,44,,,,*4D
###2023-12-09 13:28:40.006918$GLGSV,2,1,06,65,36,321,42,71,26,175,44,72,66,227,46,73,25,050,41*62
###2023-12-09 13:28:40.008645$GLGSV,2,2,06,74,62,008,43,75,41,267,47,,,,,,,,*6C
###2023-12-09 13:28:40.010953$GAGSV,1,1,04,04,38,311,43,19,74,183,42,21,79,049,46,27,24,049,40*68
###2023-12-09 13:28:40.013255$GBGSV,2,1,06,14,31,190,41,24,64,043,48,25,49,274,47,26,17,069,39*64
###2023-12-09 13:28:40.014995$GBGSV,2,2,06,33,48,219,47,35,16,058,42,,,,,,,,*62
###2023-12-09 13:28:40.016276$GNVTG,25.74,T,,M,0.52,N,0.97,K,A*1E
###2023-12-09 13:28:40.017909$GNGST,182839.10,18.000,,,,0.110,0.078,0.190*51
###2023-12-09 13:28:40.019199$GNZDA,182839.10,09,12,2023,00,00*79
###2023-12-09 13:28:40.019832$GNEBP,,,,,,M*13
###2023-12-09 13:28:40.187812$GNGGA,182839.30,4138.0447726,N,07032.4167618,W,1,24,0.6,13.622,M,-29.745,M,0.0,*57
###2023-12-09 13:28:40.388198$GNGGA,182839.50,4138.0447891,N,07032.4167272,W,1,24,0.6,13.625,M,-29.745,M,0.0,*5D
###2023-12-09 13:28:40.585572$GNGGA,182839.70,4138.0448182,N,07032.4167000,W,1,24,0.6,13.625,M,-29.745,M,0.0,*5C
###2023-12-09 13:28:40.787420$GNGGA,182839.90,4138.0448339,N,07032.4166666,W,1,24,0.6,13.618,M,-29.745,M,0.0,*59
###2023-12-09 13:28:40.991117$GNRMC,182840.10,A,4138.0448339,N,07032.4166309,W,0.49,25.74,091223,,,A*60
###2023-12-09 13:28:40.993990$GNGGA,182840.10,4138.0448339,N,07032.4166309,W,1,24,0.6,13.613,M,-29.745,M,0.0,*58
###2023-12-09 13:28:40.995797$GPGSA,A,3,03,04,16,26,28,29,31,,,,,,1.1,0.6,0.9*3A
###2023-12-09 13:28:40.997509$GLGSA,A,3,65,71,72,73,74,75,,,,,,,1.1,0.6,0.9*24
###2023-12-09 13:28:40.999103$GAGSA,A,3,04,19,21,27,,,,,,,,,1.1,0.6,0.9*26
###2023-12-09 13:28:41.000815$GBGSA,A,3,14,24,25,26,33,35,,,,,,,1.1,0.6,0.9*29
###2023-12-09 13:28:41.003159$GPGSV,2,1,07,03,28,249,42,04,43,309,44,16,63,220,47,26,87,041,48*77
###2023-12-09 13:28:41.005203$GPGSV,2,2,07,28,40,082,42,29,22,049,39,31,61,061,45,,,,*43
###2023-12-09 13:28:41.007547$GLGSV,2,1,06,65,36,321,43,71,26,175,45,72,66,227,47,73,25,050,40*62
###2023-12-09 13:28:41.009300$GLGSV,2,2,06,74,62,008,42,75,41,267,46,,,,,,,,*6C
###2023-12-09 13:28:41.011645$GAGSV,1,1,04,04,38,311,43,19,74,183,41,21,79,049,46,27,24,049,40*6B
###2023-12-09 13:28:41.013987$GBGSV,2,1,06,14,31,190,42,24,64,043,48,25,49,274,46,26,17,069,40*68
###2023-12-09 13:28:41.015754$GBGSV,2,2,06,33,48,219,46,35,16,058,42,,,,,,,,*63
###2023-12-09 13:28:41.017050$GNVTG,25.74,T,,M,0.49,N,0.90,K,A*13
###2023-12-09 13:28:41.018742$GNGST,182840.10,18.000,,,,0.110,0.077,0.180*51
###2023-12-09 13:28:41.020036$GNZDA,182840.10,09,12,2023,00,00*77
###2023-12-09 13:28:41.020678$GNEBP,,,,,,M*13
###2023-12-09 13:28:41.188360$GNGGA,182840.30,4138.0448422,N,07032.4165983,W,1,24,0.6,13.611,M,-29.745,M,0.0,*5E
###2023-12-09 13:28:41.389737$GNGGA,182840.50,4138.0448672,N,07032.4165716,W,1,24,0.6,13.610,M,-29.745,M,0.0,*5C
###2023-12-09 13:28:41.587791$GNGGA,182840.70,4138.0448912,N,07032.4165410,W,1,24,0.6,13.607,M,-29.745,M,0.0,*54
###2023-12-09 13:28:41.787238$GNGGA,182840.90,4138.0448962,N,07032.4165079,W,1,24,0.6,13.615,M,-29.745,M,0.0,*55
###2023-12-09 13:28:41.989384$GNRMC,182841.10,A,4138.0448933,N,07032.4164745,W,0.39,25.74,091223,,,A*68
###2023-12-09 13:28:41.992260$GNGGA,182841.10,4138.0448933,N,07032.4164745,W,1,24,0.6,13.607,M,-29.745,M,0.0,*52
###2023-12-09 13:28:41.994048$GPGSA,A,3,03,04,16,26,28,29,31,,,,,,1.1,0.6,0.9*3A
###2023-12-09 13:28:41.995773$GLGSA,A,3,65,71,72,73,74,75,,,,,,,1.1,0.6,0.9*24
###2023-12-09 13:28:41.997352$GAGSA,A,3,04,19,21,27,,,,,,,,,1.1,0.6,0.9*26
###2023-12-09 13:28:41.999067$GBGSA,A,3,14,24,25,26,33,35,,,,,,,1.1,0.6,0.9*29
###2023-12-09 13:28:42.001381$GPGSV,2,1,07,03,28,249,42,04,43,309,46,16,63,220,47,26,87,041,47*7A
###2023-12-09 13:28:42.003426$GPGSV,2,2,07,28,40,082,41,29,22,049,40,31,61,061,46,,,,*4D
###2023-12-09 13:28:42.005742$GLGSV,2,1,06,65,36,321,42,71,26,175,44,72,66,227,47,73,25,050,40*62
###2023-12-09 13:28:42.007490$GLGSV,2,2,06,74,62,008,42,75,41,267,46,,,,,,,,*6C
###2023-12-09 13:28:42.010054$GAGSV,1,1,04,04,38,311,44,19,74,183,41,21,79,049,45,27,24,049,39*61
###2023-12-09 13:28:42.012413$GBGSV,2,1,06,14,31,190,43,24,64,043,48,25,49,274,46,26,17,069,40*69
###2023-12-09 13:28:42.014166$GBGSV,2,2,06,33,48,219,48,35,16,058,41,,,,,,,,*6E
###2023-12-09 13:28:42.015476$GNVTG,25.74,T,,M,0.39,N,0.72,K,A*18
###2023-12-09 13:28:42.017132$GNGST,182841.10,18.000,,,,0.110,0.076,0.180*51
###2023-12-09 13:28:42.018430$GNZDA,182841.10,09,12,2023,00,00*76
###2023-12-09 13:28:42.019083$GNEBP,,,,,,M*13
###2023-12-09 13:28:42.189294$GNGGA,182841.30,4138.0449082,N,07032.4164484,W,1,24,0.6,13.610,M,-29.745,M,0.0,*5A
###2023-12-09 13:28:42.385833$GNGGA,182841.50,4138.0449420,N,07032.4164234,W,1,24,0.6,13.604,M,-29.745,M,0.0,*58
