###2023-12-09 12:39:29.963266$GBGSV,2,1,05,14,53,197,45,24,80,355,48,25,34,254,46,26,33,058,43*6E
###2023-12-09 12:39:29.964744$GBGSV,2,2,05,33,62,250,48,,,,,,,,,,,,*51
###2023-12-09 12:39:29.966066$GNVTG,283.25,T,,M,0.45,N,0.83,K,A*27
###2023-12-09 12:39:29.967781$GNGST,173929.10,18.000,,,,0.081,0.071,0.170*51
###2023-12-09 12:39:29.969079$GNZDA,173929.10,09,12,2023,00,00*77
###2023-12-09 12:39:29.969717$GNEBP,,,,,,M*13
###2023-12-09 12:39:30.139903$GNGGA,173929.30,4138.0537953,N,07032.3767651,W,1,23,0.7,13.582,M,-29.744,M,0.0,*51
###2023-12-09 12:39:30.340136$GNGGA,173929.50,4138.0537903,N,07032.3767354,W,1,23,0.7,13.535,M,-29.744,M,0.0,*5E
###2023-12-09 12:39:30.547107$GNGGA,173929.70,4138.0537968,N,07032.3767682,W,1,23,0.7,13.523,M,-29.744,M,0.0,*58
###2023-12-09 12:39:30.743553$GNGGA,173929.90,4138.0538159,N,07032.3768391,W,1,23,0.7,13.541,M,-29.744,M,0.0,*5F
###2023-12-09 12:39:30.941657$GNRMC,173930.10,A,4138.0538250,N,07032.3768648,W,0.14,289.50,091223,,,A*55
###2023-12-09 12:39:30.944550$GNGGA,173930.10,4138.0538250,N,07032.3768648,W,1,23,0.7,13.539,M,-29.744,M,0.0,*5B
###2023-12-09 12:39:30.946420$GPGSA,A,3,03,04,16,26,28,29,31,32,,,,,1.2,0.7,1.0*31
###2023-12-09 12:39:30.948116$GLGSA,A,3,71,72,73,74,75,,,,,,,,1.2,0.7,1.0*2D
###2023-12-09 12:39:30.949712$GAGSA,A,3,04,19,21,27,,,,,,,,,1.2,0.7,1.0*2C
###2023-12-09 12:39:30.951382$GBGSA,A,3,14,24,25,26,33,,,,,,,,1.2,0.7,1.0*25
###2023-12-09 12:39:30.953701$GPGSV,2,1,08,03,38,275,45,04,23,311,45,16,38,208,42,26,68,207,46*71
###2023-12-09 12:39:30.956049$GPGSV,2,2,08,28,57,058,43,29,25,072,40,31,73,007,47,32,28,135,43*77
###2023-12-09 12:39:30.958418$GLGSV,2,1,05,71,54,170,45,72,68,305,48,73,45,035,46,74,71,299,44*64
###2023-12-09 12:39:30.959899$GLGSV,2,2,05,75,24,243,41,,,,,,,,,,,,*54
###2023-12-09 12:39:30.962238$GAGSV,1,1,04,04,22,311,45,19,82,296,41,21,79,174,45,27,40,049,43*65
###2023-12-09 12:39:30.964574$GBGSV,2,1,05,14,53,197,45,24,80,355,48,25,34,254,46,26,33,058,44*69
###2023-12-09 12:39:30.966028$GBGSV,2,2,05,33,62,250,48,,,,,,,,,,,,*51
###2023-12-09 12:39:30.967364$GNVTG,289.50,T,,M,0.14,N,0.25,K,A*27
###2023-12-09 12:39:30.969014$GNGST,173930.10,18.000,,,,0.081,0.071,0.170*59
###2023-12-09 12:39:30.970308$GNZDA,173930.10,09,12,2023,00,00*7F
###2023-12-09 12:39:30.970956$GNEBP,,,,,,M*13
###2023-12-09 12:39:31.141151$GNGGA,173930.30,4138.0538190,N,07032.3768418,W,1,23,0.7,13.545,M,-29.744,M,0.0,*5A
###2023-12-09 12:39:31.342509$GNGGA,173930.50,4138.0538162,N,07032.3768334,W,1,23,0.7,13.527,M,-29.744,M,0.0,*5C
###2023-12-09 12:39:31.541208$GNGGA,173930.70,4138.0538334,N,07032.3768780,W,1,23,0.7,13.523,M,-29.744,M,0.0,*50
###2023-12-09 12:39:31.739294$GNGGA,173930.90,4138.0538510,N,07032.3769263,W,1,23,0.7,13.509,M,-29.744,M,0.0,*5F
###2023-12-09 12:39:31.940655$GNRMC,173931.10,A,4138.0538531,N,07032.3769347,W,0.10,289.50,091223,,,A*5B
###2023-12-09 12:39:31.943523$GNGGA,173931.10,4138.0538531,N,07032.3769347,W,1,23,0.7,13.510,M,-29.744,M,0.0,*5A
###2023-12-09 12:39:31.945380$GPGSA,A,3,03,04,16,26,28,29,31,32,,,,,1.2,0.7,1.0*31
###2023-12-09 12:39:31.947066$GLGSA,A,3,71,72,73,74,75,,,,,,,,1.2,0.7,1.0*2D
###2023-12-09 12:39:31.948657$GAGSA,A,3,04,19,21,27,,,,,,,,,1.2,0.7,1.0*2C
###2023-12-09 12:39:31.950299$GBGSA,A,3,14,24,25,26,33,,,,,,,,1.2,0.7,1.0*25
###2023-12-09 12:39:31.952644$GPGSV,2,1,08,03,38,274,42,04,23,311,43,16,38,208,42,26,68,207,45*72
###2023-12-09 12:39:31.955029$GPGSV,2,2,08,28,57,058,43,29,25,072,40,31,73,007,46,32,28,135,42*77
###2023-12-09 12:39:31.957375$GLGSV,2,1,05,71,54,170,45,72,68,305,48,73,45,035,46,74,71,299,43*63
###2023-12-09 12:39:31.958848$GLGSV,2,2,05,75,24,243,39,,,,,,,,,,,,*5B
###2023-12-09 12:39:31.961170$GAGSV,1,1,04,04,22,311,43,19,82,296,41,21,79,174,44,27,40,049,43*62
###2023-12-09 12:39:31.963508$GBGSV,2,1,05,14,53,197,45,24,80,355,49,25,34,254,44,26,33,058,45*6B
###2023-12-09 12:39:31.964964$GBGSV,2,2,05,33,62,250,48,,,,,,,,,,,,*51
###2023-12-09 12:39:31.966282$GNVTG,289.50,T,,M,0.10,N,0.18,K,A*2D
###2023-12-09 12:39:31.967939$GNGST,173931.10,19.000,,,,0.081,0.071,0.170*59
###2023-12-09 12:39:31.969234$GNZDA,173931.10,09,12,2023,00,00*7E
###2023-12-09 12:39:31.969872$GNEBP,,,,,,M*13
###2023-12-09 12:39:32.139526$GNGGA,173931.30,4138.0538486,N,07032.3769265,W,1,23,0.7,13.534,M,-29.744,M,0.0,*52
###2023-12-09 12:39:32.339852$GNGGA,173931.50,4138.0538570,N,07032.3769463,W,1,23,0.7,13.540,M,-29.744,M,0.0,*5F
###2023-12-09 12:39:32.541096$GNGGA,173931.70,4138.0538728,N,07032.3769844,W,1,23,0.7,13.521,M,-29.744,M,0.0,*5C
###2023-12-09 12:39:32.739332$GNGGA,173931.90,4138.0538799,N,07032.3770064,W,1,23,0.7,13.495,M,-29.744,M,0.0,*54
###2023-12-09 12:39:32.946529$GNRMC,173932.10,A,4138.0538790,N,07032.3770115,W,0.10,289.50,091223,,,A*5C
###2023-12-09 12:39:32.949434$GNGGA,173932.10,4138.0538790,N,07032.3770115,W,1,23,0.7,13.493,M,-29.744,M,0.0,*57
###2023-12-09 12:39:32.951311$GPGSA,A,3,03,04,16,26,28,29,31,32,,,,,1.2,0.7,1.0*31
###2023-12-09 12:39:32.952956$GLGSA,A,3,71,72,73,74,75,,,,,,,,1.2,0.7,1.0*2D
###2023-12-09 12:39:32.954535$GAGSA,A,3,04,19,21,27,,,,,,,,,1.2,0.7,1.0*2C
###2023-12-09 12:39:32.956196$GBGSA,A,3,14,24,25,26,33,,,,,,,,1.2,0.7,1.0*25
###2023-12-09 12:39:32.958518$GPGSV,2,1,08,03,38,274,42,04,24,311,41,16,38,208,42,26,68,207,45*77
###2023-12-09 12:39:32.960856$GPGSV,2,2,08,28,57,058,44,29,25,072,41,31,73,007,47,32,28,135,44*76
###2023-12-09 12:39:32.963205$GLGSV,2,1,05,71,54,170,47,72,68,305,47,73,45,035,46,74,71,299,43*6E
###2023-12-09 12:39:32.964666$GLGSV,2,2,05,75,24,243,39,,,,,,,,,,,,*5B
###2023-12-09 12:39:32.967037$GAGSV,1,1,04,04,22,311,41,19,82,296,41,21,79,174,46,27,40,049,44*65
###2023-12-09 12:39:32.969372$GBGSV,2,1,05,14,53,197,45,24,80,355,48,25,34,254,43,26,33,058,44*6C
###2023-12-09 12:39:32.970843$GBGSV,2,2,05,33,62,250,47,,,,,,,,,,,,*5E
###2023-12-09 12:39:32.972168$GNVTG,289.50,T,,M,0.10,N,0.18,K,A*2D
###2023-12-09 12:39:32.973823$GNGST,173932.10,19.000,,,,0.082,0.072,0.170*5A
###2023-12-09 12:39:32.975137$GNZDA,173932.10,09,12,2023,00,00*7D
###2023-12-09 12:39:32.975804$GNEBP,,,,,,M*13
###2023-12-09 12:39:33.140439$GNGGA,173932.30,4138.0538859,N,07032.3770312,W,1,23,0.7,13.513,M,-29.744,M,0.0,*53
###2023-12-09 12:39:33.340850$GNGGA,173932.50,4138.0539031,N,07032.3770704,W,1,23,0.7,13.529,M,-29.744,M,0.0,*58
###2023-12-09 12:39:33.541326$GNGGA,173932.70,4138.0539118,N,07032.3770949,W,1,23,0.7,13.511,M,-29.744,M,0.0,*5C
###2023-12-09 12:39:33.740218$GNGGA,173932.90,4138.0539076,N,07032.3770948,W,1,23,0.7,13.481,M,-29.744,M,0.0,*52
###2023-12-09 12:39:33.940383$GNRMC,173933.10,A,4138.0539085,N,07032.3771063,W,0.47,289.50,091223,,,A*5C
###2023-12-09 12:39:33.943259$GNGGA,173933.10,4138.0539085,N,07032.3771063,W,1,23,0.7,13.469,M,-29.744,M,0.0,*50
###2023-12-09 12:39:33.945116$GPGSA,A,3,03,04,16,26,28,29,31,32,,,,,1.2,0.7,1.0*31
###2023-12-09 12:39:33.946792$GLGSA,A,3,71,72,73,74,75,,,,,,,,1.2,0.7,1.0*2D
###2023-12-09 12:39:33.948405$GAGSA,A,3,04,19,21,27,,,,,,,,,1.2,0.7,1.0*2C
###2023-12-09 12:39:33.950071$GBGSA,A,3,14,24,25,26,33,,,,,,,,1.2,0.7,1.0*25
###2023-12-09 12:39:33.952427$GPGSV,2,1,08,03,38,274,42,04,24,311,39,16,38,208,42,26,68,207,47*7A
###2023-12-09 12:39:33.954779$GPGSV,2,2,08,28,57,058,45,29,25,072,43,31,73,007,47,32,28,135,46*77
###2023-12-09 12:39:33.957112$GLGSV,2,1,05,71,54,170,48,72,68,305,46,73,45,035,46,74,71,299,42*61
###2023-12-09 12:39:33.958581$GLGSV,2,2,05,75,24,243,39,,,,,,,,,,,,*5B
###2023-12-09 12:39:33.960903$GAGSV,1,1,04,04,22,311,38,19,82,296,41,21,79,174,46,27,40,049,44*6B
###2023-12-09 12:39:33.963252$GBGSV,2,1,05,14,53,197,45,24,80,355,48,25,34,254,41,26,33,058,44*6E
###2023-12-09 12:39:33.964707$GBGSV,2,2,05,33,62,250,47,,,,,,,,,,,,*5E
###2023-12-09 12:39:33.966031$GNVTG,289.50,T,,M,0.47,N,0.86,K,A*28
###2023-12-09 12:39:33.967694$GNGST,173933.10,19.000,,,,0.082,0.072,0.170*5B
###2023-12-09 12:39:33.968988$GNZDA,173933.10,09,12,2023,00,00*7C
###2023-12-09 12:39:33.969626$GNEBP,,,,,,M*13
###2023-12-09 12:39:34.141842$GNGGA,173933.30,4138.0539271,N,07032.3771519,W,1,23,0.7,13.495,M,-29.744,M,0.0,*50
###2023-12-09 12:39:34.341810$GNGGA,173933.50,4138.0539467,N,07032.3772009,W,1,23,0.7,13.509,M,-29.744,M,0.0,*54
###2023-12-09 12:39:34.542304$GNGGA,173933.70,4138.0539476,N,07032.3772122,W,1,23,0.7,13.500,M,-29.744,M,0.0,*57
###2023-12-09 12:39:34.744608$GNGGA,173933.90,4138.0539393,N,07032.3772011,W,1,23,0.7,13.472,M,-29.744,M,0.0,*50
###2023-12-09 12:39:34.944273$GNRMC,173934.10,A,4138.0539462,N,07032.3772253,W,0.72,289.50,091223,,,A*52
###2023-12-09 12:39:34.947176$GNGGA,173934.10,4138.0539462,N,07032.3772253,W,1,23,0.7,13.465,M,-29.744,M,0.0,*54
###2023-12-09 12:39:34.949061$GPGSA,A,3,03,04,16,26,28,29,31,32,,,,,1.2,0.7,1.0*31
###2023-12-09 12:39:34.950738$GLGSA,A,3,71,72,73,74,75,,,,,,,,1.2,0.7,1.0*2D
###2023-12-09 12:39:34.952339$GAGSA,A,3,04,19,21,27,,,,,,,,,1.2,0.7,1.0*2C
###2023-12-09 12:39:34.953996$GBGSA,A,3,14,24,25,26,33,,,,,,,,1.2,0.7,1.0*25
