###2023-12-09 13:11:14.988174$GPGSV,2,1,07,03,33,256,45,04,37,311,43,16,54,214,46,26,84,210,48*7E
###2023-12-09 13:11:14.990250$GPGSV,2,2,07,28,46,074,44,29,24,057,43,31,67,046,46,,,,*4E
###2023-12-09 13:11:14.992618$GLGSV,2,1,06,65,28,326,41,71,35,174,47,72,72,250,46,73,31,045,41*6D
###2023-12-09 13:11:14.994380$GLGSV,2,2,06,74,67,351,41,75,36,258,46,,,,,,,,*69
###2023-12-09 13:11:14.996717$GAGSV,1,1,04,04,32,312,42,19,81,195,41,21,84,075,46,27,30,048,41*66
###2023-12-09 13:11:14.999071$GBGSV,2,1,06,14,39,192,45,24,70,032,49,25,44,266,49,26,23,065,43*6E
###2023-12-09 13:11:15.000820$GBGSV,2,2,06,33,54,227,49,35,15,065,42,,,,,,,,*61
###2023-12-09 13:11:15.002079$GNVTG,4.82,T,,M,3.79,N,7.02,K,A*25
###2023-12-09 13:11:15.003737$GNGST,181114.10,18.000,,,,0.096,0.071,0.170*5C
###2023-12-09 13:11:15.005031$GNZDA,181114.10,09,12,2023,00,00*7C
###2023-12-09 13:11:15.005667$GNEBP,,,,,,M*13
###2023-12-09 13:11:15.174435$GNGGA,181114.30,4138.0291585,N,07032.2765403,W,1,24,0.7,12.981,M,-29.744,M,0.0,*59
###2023-12-09 13:11:15.374262$GNGGA,181114.50,4138.0293622,N,07032.2765262,W,1,24,0.7,12.985,M,-29.744,M,0.0,*56
###2023-12-09 13:11:15.572703$GNGGA,181114.70,4138.0295651,N,07032.2765270,W,1,24,0.7,12.982,M,-29.744,M,0.0,*52
###2023-12-09 13:11:15.771181$GNGGA,181114.90,4138.0297621,N,07032.2765530,W,1,24,0.7,12.976,M,-29.744,M,0.0,*51
###2023-12-09 13:11:15.975525$GNRMC,181115.10,A,4138.0299529,N,07032.2765871,W,3.48,353.35,091223,,,A*55
###2023-12-09 13:11:15.978392$GNGGA,181115.10,4138.0299529,N,07032.2765871,W,1,24,0.7,12.976,M,-29.744,M,0.0,*55
###2023-12-09 13:11:15.980189$GPGSA,A,3,03,04,16,26,28,29,31,,,,,,1.2,0.7,1.0*30
###2023-12-09 13:11:15.981894$GLGSA,A,3,65,71,72,73,74,75,,,,,,,1.2,0.7,1.0*2E
###2023-12-09 13:11:15.983483$GAGSA,A,3,04,19,21,27,,,,,,,,,1.2,0.7,1.0*2C
###2023-12-09 13:11:15.985195$GBGSA,A,3,14,24,25,26,33,35,,,,,,,1.2,0.7,1.0*23
###2023-12-09 13:11:15.987527$GPGSV,2,1,07,03,33,256,44,04,37,311,43,16,54,214,46,26,84,210,48*7F
###2023-12-09 13:11:15.989560$GPGSV,2,2,07,28,46,074,45,29,24,057,41,31,67,046,46,,,,*4D
###2023-12-09 13:11:15.991896$GLGSV,2,1,06,65,28,326,39,71,35,174,47,72,72,250,46,73,31,045,43*60
###2023-12-09 13:11:15.993632$GLGSV,2,2,06,74,67,351,41,75,36,258,46,,,,,,,,*69
###2023-12-09 13:11:15.995958$GAGSV,1,1,04,04,32,312,41,19,81,195,41,21,84,075,46,27,30,048,42*66
###2023-12-09 13:11:15.998281$GBGSV,2,1,06,14,39,192,43,24,70,032,48,25,44,266,46,26,23,065,41*64
###2023-12-09 13:11:16.000024$GBGSV,2,2,06,33,54,227,47,35,15,065,41,,,,,,,,*6C
###2023-12-09 13:11:16.001348$GNVTG,353.35,T,,M,3.48,N,6.44,K,A*29
###2023-12-09 13:11:16.003001$GNGST,181115.10,18.000,,,,0.096,0.071,0.170*5D
###2023-12-09 13:11:16.004289$GNZDA,181115.10,09,12,2023,00,00*7D
###2023-12-09 13:11:16.004927$GNEBP,,,,,,M*13
###2023-12-09 13:11:16.170531$GNGGA,181115.30,4138.0301491,N,07032.2766056,W,1,24,0.7,12.982,M,-29.744,M,0.0,*50
###2023-12-09 13:11:16.370927$GNGGA,181115.50,4138.0303464,N,07032.2766182,W,1,24,0.7,12.977,M,-29.744,M,0.0,*5C
###2023-12-09 13:11:16.571363$GNGGA,181115.70,4138.0305393,N,07032.2766422,W,1,24,0.7,12.977,M,-29.744,M,0.0,*58
###2023-12-09 13:11:16.771243$GNGGA,181115.90,4138.0307329,N,07032.2766724,W,1,24,0.7,12.976,M,-29.744,M,0.0,*51
###2023-12-09 13:11:16.978888$GNRMC,181116.10,A,4138.0309260,N,07032.2766886,W,3.44,359.04,091223,,,A*5B
###2023-12-09 13:11:16.982347$GNGGA,181116.10,4138.0309260,N,07032.2766886,W,1,24,0.7,12.962,M,-29.744,M,0.0,*5A
###2023-12-09 13:11:16.984521$GPGSA,A,3,03,04,16,26,28,29,31,,,,,,1.2,0.7,1.0*30
###2023-12-09 13:11:16.986595$GLGSA,A,3,65,71,72,73,74,75,,,,,,,1.2,0.7,1.0*2E
###2023-12-09 13:11:16.988490$GAGSA,A,3,04,19,21,27,,,,,,,,,1.2,0.7,1.0*2C
###2023-12-09 13:11:16.990541$GBGSA,A,3,14,24,25,26,33,35,,,,,,,1.2,0.7,1.0*23
###2023-12-09 13:11:16.993347$GPGSV,2,1,07,03,33,256,44,04,37,311,43,16,55,215,46,26,84,210,48*7F
###2023-12-09 13:11:16.995806$GPGSV,2,2,07,28,46,074,45,29,24,057,42,31,67,046,47,,,,*4F
###2023-12-09 13:11:16.998616$GLGSV,2,1,06,65,28,326,39,71,35,174,47,72,72,250,46,73,31,045,44*67
###2023-12-09 13:11:17.000742$GLGSV,2,2,06,74,67,351,41,75,36,258,46,,,,,,,,*69
###2023-12-09 13:11:17.003548$GAGSV,1,1,04,04,32,312,43,19,81,195,41,21,84,075,46,27,30,048,42*64
###2023-12-09 13:11:17.006348$GBGSV,2,1,06,14,39,192,45,24,70,032,50,25,44,266,48,26,23,065,43*67
###2023-12-09 13:11:17.008451$GBGSV,2,2,06,33,54,227,49,35,15,065,43,,,,,,,,*60
###2023-12-09 13:11:17.010039$GNVTG,359.04,T,,M,3.44,N,6.37,K,A*29
###2023-12-09 13:11:17.012025$GNGST,181116.10,18.000,,,,0.096,0.071,0.170*5E
###2023-12-09 13:11:17.013578$GNZDA,181116.10,09,12,2023,00,00*7E
###2023-12-09 13:11:17.014341$GNEBP,,,,,,M*13
###2023-12-09 13:11:17.173861$GNGGA,181116.30,4138.0311196,N,07032.2766890,W,1,24,0.7,12.964,M,-29.744,M,0.0,*5A
###2023-12-09 13:11:17.373316$GNGGA,181116.50,4138.0313148,N,07032.2766938,W,1,24,0.7,12.963,M,-29.744,M,0.0,*59
###2023-12-09 13:11:17.572426$GNGGA,181116.70,4138.0315108,N,07032.2767074,W,1,24,0.7,12.963,M,-29.744,M,0.0,*59
###2023-12-09 13:11:17.773537$GNGGA,181116.90,4138.0317079,N,07032.2767053,W,1,24,0.7,12.961,M,-29.744,M,0.0,*55
###2023-12-09 13:11:17.974477$GNRMC,181117.10,A,4138.0319070,N,07032.2766733,W,3.60,8.61,091223,,,A*5B
###2023-12-09 13:11:17.977366$GNGGA,181117.10,4138.0319070,N,07032.2766733,W,1,24,0.7,12.950,M,-29.744,M,0.0,*59
###2023-12-09 13:11:17.979170$GPGSA,A,3,03,04,16,26,28,29,31,,,,,,1.2,0.7,1.0*30
###2023-12-09 13:11:17.980881$GLGSA,A,3,65,71,72,73,74,75,,,,,,,1.2,0.7,1.0*2E
###2023-12-09 13:11:17.982462$GAGSA,A,3,04,19,21,27,,,,,,,,,1.2,0.7,1.0*2C
###2023-12-09 13:11:17.984185$GBGSA,A,3,14,24,25,26,33,35,,,,,,,1.2,0.7,1.0*23
###2023-12-09 13:11:17.986507$GPGSV,2,1,07,03,33,256,43,04,37,311,43,16,55,215,46,26,84,210,48*78
###2023-12-09 13:11:17.988557$GPGSV,2,2,07,28,46,074,45,29,24,057,40,31,67,046,46,,,,*4C
###2023-12-09 13:11:17.990889$GLGSV,2,1,06,65,28,326,41,71,35,174,47,72,72,250,46,73,31,045,43*6F
###2023-12-09 13:11:17.992642$GLGSV,2,2,06,74,67,351,41,75,36,258,46,,,,,,,,*69
###2023-12-09 13:11:17.994973$GAGSV,1,1,04,04,32,312,42,19,81,195,41,21,84,075,46,27,30,048,40*67
###2023-12-09 13:11:17.997297$GBGSV,2,1,06,14,39,192,46,24,70,032,48,25,44,266,48,26,23,065,44*6A
###2023-12-09 13:11:17.999047$GBGSV,2,2,06,33,54,227,47,35,15,065,43,,,,,,,,*6E
###2023-12-09 13:11:18.000300$GNVTG,8.61,T,,M,3.60,N,6.66,K,A*2F
###2023-12-09 13:11:18.001945$GNGST,181117.10,18.000,,,,0.096,0.070,0.170*5E
###2023-12-09 13:11:18.003240$GNZDA,181117.10,09,12,2023,00,00*7F
###2023-12-09 13:11:18.003881$GNEBP,,,,,,M*13
###2023-12-09 13:11:18.171514$GNGGA,181117.30,4138.0321035,N,07032.2766357,W,1,24,0.7,12.943,M,-29.744,M,0.0,*55
###2023-12-09 13:11:18.372121$GNGGA,181117.50,4138.0323039,N,07032.2766007,W,1,24,0.7,12.940,M,-29.744,M,0.0,*58
###2023-12-09 13:11:18.572529$GNGGA,181117.70,4138.0325073,N,07032.2765580,W,1,24,0.7,12.936,M,-29.744,M,0.0,*5A
###2023-12-09 13:11:18.772460$GNGGA,181117.90,4138.0327029,N,07032.2765066,W,1,24,0.7,12.936,M,-29.744,M,0.0,*54
###2023-12-09 13:11:18.975988$GNRMC,181118.10,A,4138.0328905,N,07032.2764676,W,3.32,8.12,091223,,,A*5C
###2023-12-09 13:11:18.978871$GNGGA,181118.10,4138.0328905,N,07032.2764676,W,1,24,0.7,12.947,M,-29.744,M,0.0,*5B
###2023-12-09 13:11:18.980662$GPGSA,A,3,03,04,16,26,28,29,31,,,,,,1.2,0.7,1.0*30
###2023-12-09 13:11:18.982376$GLGSA,A,3,65,71,72,73,74,75,,,,,,,1.2,0.7,1.0*2E
###2023-12-09 13:11:18.983973$GAGSA,A,3,04,19,21,27,,,,,,,,,1.2,0.7,1.0*2C
###2023-12-09 13:11:18.985690$GBGSA,A,3,14,24,25,26,33,35,,,,,,,1.2,0.7,1.0*23
###2023-12-09 13:11:18.988038$GPGSV,2,1,07,03,33,256,43,04,37,311,45,16,55,215,47,26,84,210,48*7F
###2023-12-09 13:11:18.990075$GPGSV,2,2,07,28,46,074,44,29,24,057,40,31,67,046,46,,,,*4D
###2023-12-09 13:11:18.992422$GLGSV,2,1,06,65,28,326,41,71,35,174,47,72,72,250,46,73,31,045,42*6E
###2023-12-09 13:11:18.994169$GLGSV,2,2,06,74,67,351,41,75,36,258,47,,,,,,,,*68
###2023-12-09 13:11:18.996510$GAGSV,1,1,04,04,32,312,43,19,81,195,40,21,84,075,45,27,30,048,38*6B
###2023-12-09 13:11:18.998853$GBGSV,2,1,06,14,39,192,46,24,70,032,48,25,44,266,48,26,23,065,41*6F
###2023-12-09 13:11:19.000602$GBGSV,2,2,06,33,54,227,47,35,15,065,41,,,,,,,,*6C
###2023-12-09 13:11:19.002165$GNVTG,8.12,T,,M,3.32,N,6.16,K,A*2B
###2023-12-09 13:11:19.003869$GNGST,181118.10,18.000,,,,0.095,0.070,0.170*52
###2023-12-09 13:11:19.005194$GNZDA,181118.10,09,12,2023,00,00*70
###2023-12-09 13:11:19.005843$GNEBP,,,,,,M*13
###2023-12-09 13:11:19.171560$GNGGA,181118.30,4138.0330691,N,07032.2764318,W,1,24,0.7,12.944,M,-29.744,M,0.0,*5C
###2023-12-09 13:11:19.372119$GNGGA,181118.50,4138.0332281,N,07032.2763766,W,1,24,0.7,12.932,M,-29.744,M,0.0,*56
###2023-12-09 13:11:19.573503$GNGGA,181118.70,4138.0333766,N,07032.2763225,W,1,24,0.7,12.921,M,-29.744,M,0.0,*59
###2023-12-09 13:11:19.772468$GNGGA,181118.90,4138.0335181,N,07032.2762748,W,1,24,0.7,12.913,M,-29.743,M,0.0,*57
###2023-12-09 13:11:19.981385$GNRMC,181119.10,A,4138.0336552,N,07032.2762412,W,2.47,8.87,091223,,,A*55
