###2023-12-09 13:22:21.785192$GNGGA,182220.90,4138.0752882,N,07032.3584496,W,1,24,0.7,12.982,M,-29.743,M,0.0,*50
###2023-12-09 13:22:21.988762$GNRMC,182221.10,A,4138.0751866,N,07032.3586745,W,3.77,245.55,091223,,,A*5F
###2023-12-09 13:22:21.991635$GNGGA,182221.10,4138.0751866,N,07032.3586745,W,1,24,0.7,13.033,M,-29.743,M,0.0,*5D
###2023-12-09 13:22:21.993426$GPGSA,A,3,03,04,16,26,28,29,31,,,,,,1.1,0.7,0.9*3B
###2023-12-09 13:22:21.995151$GLGSA,A,3,65,71,72,73,74,75,,,,,,,1.1,0.7,0.9*25
###2023-12-09 13:22:21.996732$GAGSA,A,3,04,19,21,27,,,,,,,,,1.1,0.7,0.9*27
###2023-12-09 13:22:21.998442$GBGSA,A,3,14,24,25,26,33,35,,,,,,,1.1,0.7,0.9*28
###2023-12-09 13:22:22.000793$GPGSV,2,1,07,03,30,252,40,04,41,310,43,16,60,218,44,26,90,099,48*73
###2023-12-09 13:22:22.002840$GPGSV,2,2,07,28,42,080,44,29,23,052,43,31,63,057,47,,,,*46
###2023-12-09 13:22:22.005170$GLGSV,2,1,06,65,33,323,43,71,30,174,44,72,69,234,45,73,27,048,43*65
###2023-12-09 13:22:22.006922$GLGSV,2,2,06,74,64,002,43,75,39,263,44,,,,,,,,*68
###2023-12-09 13:22:22.009239$GAGSV,1,1,04,04,36,311,42,19,77,186,40,21,81,054,45,27,26,049,40*69
###2023-12-09 13:22:22.011573$GBGSV,2,1,06,14,34,191,41,24,67,039,47,25,47,270,44,26,20,067,44*68
###2023-12-09 13:22:22.013317$GBGSV,2,2,06,33,51,222,44,35,16,062,43,,,,,,,,*69
###2023-12-09 13:22:22.014646$GNVTG,245.55,T,,M,3.77,N,6.98,K,A*24
###2023-12-09 13:22:22.016286$GNGST,182221.10,18.000,,,,0.100,0.072,0.170*57
###2023-12-09 13:22:22.017568$GNZDA,182221.10,09,12,2023,00,00*7A
###2023-12-09 13:22:22.018204$GNEBP,,,,,,M*13
###2023-12-09 13:22:22.184435$GNGGA,182221.30,4138.0750911,N,07032.3589276,W,1,24,0.7,13.044,M,-29.743,M,0.0,*55
###2023-12-09 13:22:22.384334$GNGGA,182221.50,4138.0749562,N,07032.3591194,W,1,24,0.7,13.022,M,-29.743,M,0.0,*55
###2023-12-09 13:22:22.584034$GNGGA,182221.70,4138.0748167,N,07032.3592911,W,1,24,0.7,13.045,M,-29.743,M,0.0,*50
###2023-12-09 13:22:22.785389$GNGGA,182221.90,4138.0747033,N,07032.3595306,W,1,24,0.7,13.083,M,-29.743,M,0.0,*50
###2023-12-09 13:22:22.997622$GNRMC,182222.10,A,4138.0745793,N,07032.3597551,W,3.56,221.92,091223,,,A*51
###2023-12-09 13:22:23.000495$GNGGA,182222.10,4138.0745793,N,07032.3597551,W,1,24,0.7,13.043,M,-29.743,M,0.0,*5E
###2023-12-09 13:22:23.002292$GPGSA,A,3,03,04,16,26,28,29,31,,,,,,1.1,0.7,0.9*3B
###2023-12-09 13:22:23.004019$GLGSA,A,3,65,71,72,73,74,75,,,,,,,1.1,0.7,0.9*25
###2023-12-09 13:22:23.005606$GAGSA,A,3,04,19,21,27,,,,,,,,,1.1,0.7,0.9*27
###2023-12-09 13:22:23.007327$GBGSA,A,3,14,24,25,26,33,35,,,,,,,1.1,0.7,0.9*28
###2023-12-09 13:22:23.009645$GPGSV,2,1,07,03,30,252,40,04,41,310,44,16,60,218,46,26,90,099,48*76
###2023-12-09 13:22:23.011691$GPGSV,2,2,07,28,42,080,43,29,23,052,43,31,63,057,47,,,,*41
###2023-12-09 13:22:23.014008$GLGSV,2,1,06,65,33,323,44,71,30,174,44,72,69,234,45,73,27,048,43*62
###2023-12-09 13:22:23.015766$GLGSV,2,2,06,74,64,002,43,75,39,263,45,,,,,,,,*69
###2023-12-09 13:22:23.018097$GAGSV,1,1,04,04,36,311,43,19,77,186,40,21,81,054,45,27,26,049,41*69
###2023-12-09 13:22:23.020433$GBGSV,2,1,06,14,34,191,42,24,67,039,48,25,47,270,45,26,20,067,43*62
###2023-12-09 13:22:23.022176$GBGSV,2,2,06,33,51,222,45,35,16,062,44,,,,,,,,*6F
###2023-12-09 13:22:23.023522$GNVTG,221.92,T,,M,3.56,N,6.59,K,A*23
###2023-12-09 13:22:23.025168$GNGST,182222.10,18.000,,,,0.100,0.072,0.170*54
###2023-12-09 13:22:23.026454$GNZDA,182222.10,09,12,2023,00,00*79
###2023-12-09 13:22:23.027102$GNEBP,,,,,,M*13
###2023-12-09 13:22:23.186707$GNGGA,182222.30,4138.0744288,N,07032.3599079,W,1,24,0.7,13.008,M,-29.743,M,0.0,*5C
###2023-12-09 13:22:23.383975$GNGGA,182222.50,4138.0742824,N,07032.3600843,W,1,24,0.7,13.029,M,-29.743,M,0.0,*51
###2023-12-09 13:22:23.584061$GNGGA,182222.70,4138.0741426,N,07032.3602849,W,1,24,0.7,13.035,M,-29.743,M,0.0,*5B
###2023-12-09 13:22:23.785069$GNGGA,182222.90,4138.0740027,N,07032.3604636,W,1,24,0.7,13.048,M,-29.743,M,0.0,*5B
###2023-12-09 13:22:23.988497$GNRMC,182223.10,A,4138.0738516,N,07032.3606308,W,3.58,217.90,091223,,,A*5D
###2023-12-09 13:22:23.991368$GNGGA,182223.10,4138.0738516,N,07032.3606308,W,1,24,0.7,13.081,M,-29.743,M,0.0,*55
###2023-12-09 13:22:23.993160$GPGSA,A,3,03,04,16,26,28,29,31,,,,,,1.1,0.7,0.9*3B
###2023-12-09 13:22:23.994877$GLGSA,A,3,65,71,72,73,74,75,,,,,,,1.1,0.7,0.9*25
###2023-12-09 13:22:23.996455$GAGSA,A,3,04,19,21,27,,,,,,,,,1.1,0.7,0.9*27
###2023-12-09 13:22:23.998154$GBGSA,A,3,14,24,25,26,33,35,,,,,,,1.1,0.7,0.9*28
###2023-12-09 13:22:24.000495$GPGSV,2,1,07,03,30,252,40,04,41,310,44,16,60,218,45,26,90,099,48*75
###2023-12-09 13:22:24.002530$GPGSV,2,2,07,28,42,080,44,29,23,052,44,31,63,057,47,,,,*41
###2023-12-09 13:22:24.004873$GLGSV,2,1,06,65,33,323,45,71,30,174,42,72,69,234,45,73,27,048,45*63
###2023-12-09 13:22:24.006664$GLGSV,2,2,06,74,64,002,43,75,39,263,46,,,,,,,,*6A
###2023-12-09 13:22:24.009000$GAGSV,1,1,04,04,36,311,44,19,77,186,40,21,81,054,46,27,26,049,42*6E
###2023-12-09 13:22:24.011340$GBGSV,2,1,06,14,34,191,42,24,67,039,50,25,47,270,47,26,20,067,43*69
###2023-12-09 13:22:24.013079$GBGSV,2,2,06,33,51,222,45,35,16,062,45,,,,,,,,*6E
###2023-12-09 13:22:24.014402$GNVTG,217.90,T,,M,3.58,N,6.62,K,A*22
###2023-12-09 13:22:24.016063$GNGST,182223.10,18.000,,,,0.100,0.072,0.170*55
###2023-12-09 13:22:24.017354$GNZDA,182223.10,09,12,2023,00,00*78
###2023-12-09 13:22:24.017990$GNEBP,,,,,,M*13
###2023-12-09 13:22:24.186385$GNGGA,182223.30,4138.0736907,N,07032.3607814,W,1,24,0.7,13.055,M,-29.743,M,0.0,*5B
###2023-12-09 13:22:24.384076$GNGGA,182223.50,4138.0735236,N,07032.3609152,W,1,24,0.7,13.005,M,-29.743,M,0.0,*57
###2023-12-09 13:22:24.585621$GNGGA,182223.70,4138.0733638,N,07032.3610713,W,1,24,0.7,13.032,M,-29.743,M,0.0,*56
###2023-12-09 13:22:24.786977$GNGGA,182223.90,4138.0732013,N,07032.3612506,W,1,24,0.7,13.075,M,-29.743,M,0.0,*51
###2023-12-09 13:22:24.991688$GNRMC,182224.10,A,4138.0730241,N,07032.3613695,W,3.48,196.25,091223,,,A*57
###2023-12-09 13:22:24.994537$GNGGA,182224.10,4138.0730241,N,07032.3613695,W,1,24,0.7,13.061,M,-29.743,M,0.0,*54
###2023-12-09 13:22:24.996344$GPGSA,A,3,03,04,16,26,28,29,31,,,,,,1.1,0.7,0.9*3B
###2023-12-09 13:22:24.998052$GLGSA,A,3,65,71,72,73,74,75,,,,,,,1.1,0.7,0.9*25
###2023-12-09 13:22:24.999647$GAGSA,A,3,04,19,21,27,,,,,,,,,1.1,0.7,0.9*27
###2023-12-09 13:22:25.001366$GBGSA,A,3,14,24,25,26,33,35,,,,,,,1.1,0.7,0.9*28
###2023-12-09 13:22:25.003711$GPGSV,2,1,07,03,30,252,41,04,41,310,46,16,60,218,45,26,90,099,47*79
###2023-12-09 13:22:25.005772$GPGSV,2,2,07,28,42,080,44,29,23,052,41,31,63,057,46,,,,*45
###2023-12-09 13:22:25.008133$GLGSV,2,1,06,65,33,323,44,71,30,174,40,72,69,234,46,73,27,048,43*65
###2023-12-09 13:22:25.009890$GLGSV,2,2,06,74,64,002,43,75,39,263,47,,,,,,,,*6B
###2023-12-09 13:22:25.012233$GAGSV,1,1,04,04,36,311,45,19,77,186,40,21,81,054,45,27,26,049,39*60
###2023-12-09 13:22:25.014584$GBGSV,2,1,06,14,34,191,43,24,67,039,49,25,47,270,49,26,20,067,43*6E
###2023-12-09 13:22:25.016340$GBGSV,2,2,06,33,51,222,48,35,16,062,43,,,,,,,,*65
###2023-12-09 13:22:25.017667$GNVTG,196.25,T,,M,3.48,N,6.44,K,A*23
###2023-12-09 13:22:25.019326$GNGST,182224.10,18.000,,,,0.100,0.072,0.170*52
###2023-12-09 13:22:25.020620$GNZDA,182224.10,09,12,2023,00,00*7F
###2023-12-09 13:22:25.021258$GNEBP,,,,,,M*13
###2023-12-09 13:22:25.185326$GNGGA,182224.30,4138.0728363,N,07032.3614202,W,1,24,0.7,13.028,M,-29.743,M,0.0,*5E
###2023-12-09 13:22:25.385186$GNGGA,182224.50,4138.0726470,N,07032.3615054,W,1,24,0.7,13.032,M,-29.743,M,0.0,*58
###2023-12-09 13:22:25.585678$GNGGA,182224.70,4138.0724598,N,07032.3616452,W,1,24,0.7,13.059,M,-29.743,M,0.0,*53
###2023-12-09 13:22:25.785885$GNGGA,182224.90,4138.0722685,N,07032.3617664,W,1,24,0.7,13.072,M,-29.743,M,0.0,*5B
###2023-12-09 13:22:25.995949$GNRMC,182225.10,A,4138.0720740,N,07032.3618239,W,3.54,181.67,091223,,,A*57
###2023-12-09 13:22:25.998829$GNGGA,182225.10,4138.0720740,N,07032.3618239,W,1,24,0.7,13.072,M,-29.743,M,0.0,*5B
###2023-12-09 13:22:26.000624$GPGSA,A,3,03,04,16,26,28,29,31,,,,,,1.1,0.7,0.9*3B
###2023-12-09 13:22:26.002337$GLGSA,A,3,65,71,72,73,74,75,,,,,,,1.1,0.7,0.9*25
###2023-12-09 13:22:26.003927$GAGSA,A,3,04,19,21,27,,,,,,,,,1.1,0.7,0.9*27
###2023-12-09 13:22:26.005634$GBGSA,A,3,14,24,25,26,33,35,,,,,,,1.1,0.7,0.9*28
###2023-12-09 13:22:26.008239$GPGSV,2,1,07,03,30,252,43,04,41,310,46,16,60,218,46,26,90,099,47*78
###2023-12-09 13:22:26.010297$GPGSV,2,2,07,28,42,080,44,29,23,052,40,31,63,057,46,,,,*44
###2023-12-09 13:22:26.012643$GLGSV,2,1,06,65,33,323,43,71,30,174,41,72,69,234,45,73,27,048,41*62
###2023-12-09 13:22:26.014390$GLGSV,2,2,06,74,64,002,43,75,39,263,47,,,,,,,,*6B
###2023-12-09 13:22:26.016731$GAGSV,1,1,04,04,36,311,44,19,77,186,40,21,81,054,45,27,26,049,39*61
###2023-12-09 13:22:26.019073$GBGSV,2,1,06,14,34,191,42,24,67,039,49,25,47,270,48,26,20,067,42*6F
###2023-12-09 13:22:26.020816$GBGSV,2,2,06,33,51,222,47,35,16,062,44,,,,,,,,*6D
###2023-12-09 13:22:26.022138$GNVTG,181.67,T,,M,3.54,N,6.55,K,A*2E
###2023-12-09 13:22:26.023793$GNGST,182225.10,18.000,,,,0.100,0.072,0.170*53
