###2023-12-09 12:28:35.931468$GPGSV,2,1,06,16,34,206,44,26,63,206,39,28,60,052,44,29,25,077,40*74
###2023-12-09 12:28:35.933452$GPGSV,2,2,06,31,73,351,43,32,33,132,45,,,,,,,,*79
###2023-12-09 12:28:35.935993$GLGSV,1,1,04,71,60,168,48,72,63,315,43,73,51,031,47,75,19,238,42*66
###2023-12-09 12:28:35.937951$GAGSV,1,1,02,21,75,179,38,27,44,050,45,,,,,,,,*6E
###2023-12-09 12:28:35.940177$GBGSV,1,1,03,14,58,200,46,26,37,056,49,33,64,261,39,,,,*53
###2023-12-09 12:28:35.941494$GNVTG,,T,,M,0.06,N,0.11,K,A*3B
###2023-12-09 12:28:35.943335$GNGST,172835.10,33.000,,,,0.120,0.130,0.300*5E
###2023-12-09 12:28:35.944796$GNZDA,172835.10,09,12,2023,00,00*7A
###2023-12-09 12:28:35.945594$GNEBP,,,,,,M*13
###2023-12-09 12:28:36.118052$GNGGA,172835.30,4138.0391633,N,07032.4362936,W,1,15,1.0,12.265,M,-29.746,M,0.0,*59
###2023-12-09 12:28:36.318390$GNGGA,172835.50,4138.0391599,N,07032.4362941,W,1,15,1.0,12.287,M,-29.746,M,0.0,*50
###2023-12-09 12:28:36.520070$GNGGA,172835.70,4138.0391563,N,07032.4362952,W,1,16,0.9,12.314,M,-29.746,M,0.0,*55
###2023-12-09 12:28:36.717299$GNGGA,172835.90,4138.0391523,N,07032.4362953,W,1,15,1.0,12.350,M,-29.746,M,0.0,*55
###2023-12-09 12:28:36.925540$GNRMC,172836.10,A,4138.0391472,N,07032.4362962,W,0.04,,091223,,,A*47
###2023-12-09 12:28:36.928648$GNGGA,172836.10,4138.0391472,N,07032.4362962,W,1,16,0.9,12.386,M,-29.746,M,0.0,*59
###2023-12-09 12:28:36.930592$GPGSA,A,3,16,26,28,29,31,32,,,,,,,1.6,0.9,1.2*3E
###2023-12-09 12:28:36.932376$GLGSA,A,3,71,72,73,75,,,,,,,,,1.6,0.9,1.2*26
###2023-12-09 12:28:36.934002$GAGSA,A,3,21,27,,,,,,,,,,,1.6,0.9,1.2*28
###2023-12-09 12:28:36.935714$GBGSA,A,3,14,26,33,,,,,,,,,,1.6,0.9,1.2*2C
###2023-12-09 12:28:36.938229$GPGSV,2,1,06,16,34,206,44,26,63,206,40,28,60,052,44,29,25,077,41*7B
###2023-12-09 12:28:36.940159$GPGSV,2,2,06,31,73,351,43,32,33,132,45,,,,,,,,*79
###2023-12-09 12:28:36.942669$GLGSV,1,1,04,71,60,168,49,72,63,315,43,73,51,031,47,75,19,238,42*67
###2023-12-09 12:28:36.944590$GAGSV,1,1,02,21,75,179,39,27,44,050,46,,,,,,,,*6C
###2023-12-09 12:28:36.947126$GBGSV,1,1,03,14,58,200,45,26,37,056,48,33,64,261,40,,,,*5F
###2023-12-09 12:28:36.948530$GNVTG,,T,,M,0.04,N,0.07,K,A*3E
###2023-12-09 12:28:36.950356$GNGST,172836.10,32.000,,,,0.120,0.130,0.300*5C
###2023-12-09 12:28:36.951848$GNZDA,172836.10,09,12,2023,00,00*79
###2023-12-09 12:28:36.952651$GNEBP,,,,,,M*13
###2023-12-09 12:28:37.117966$GNGGA,172836.30,4138.0391427,N,07032.4362977,W,1,15,1.0,12.417,M,-29.746,M,0.0,*5B
###2023-12-09 12:28:37.317988$GNGGA,172836.50,4138.0391376,N,07032.4362983,W,1,15,1.0,12.446,M,-29.746,M,0.0,*51
###2023-12-09 12:28:37.523522$GNGGA,172836.70,4138.0391341,N,07032.4363002,W,1,16,0.9,12.473,M,-29.746,M,0.0,*5B
###2023-12-09 12:28:37.717438$GNGGA,172836.90,4138.0391286,N,07032.4362992,W,1,15,1.0,12.506,M,-29.746,M,0.0,*56
###2023-12-09 12:28:37.918364$GNRMC,172837.10,A,4138.0391248,N,07032.4362970,W,0.04,,091223,,,A*4A
###2023-12-09 12:28:37.921451$GNGGA,172837.10,4138.0391248,N,07032.4362970,W,1,15,1.0,12.528,M,-29.746,M,0.0,*5D
###2023-12-09 12:28:37.923452$GPGSA,A,3,16,26,28,29,31,32,,,,,,,1.7,1.0,1.4*31
###2023-12-09 12:28:37.925611$GLGSA,A,3,71,72,73,75,,,,,,,,,1.7,1.0,1.4*29
###2023-12-09 12:28:37.927611$GAGSA,A,3,21,27,,,,,,,,,,,1.7,1.0,1.4*27
###2023-12-09 12:28:37.929669$GBGSA,A,3,14,26,33,,,,,,,,,,1.7,1.0,1.4*23
###2023-12-09 12:28:37.932869$GPGSV,2,1,06,16,34,206,44,26,63,206,39,28,60,052,44,29,25,077,41*75
###2023-12-09 12:28:37.935025$GPGSV,2,2,06,31,73,351,43,32,33,132,45,,,,,,,,*79
###2023-12-09 12:28:37.937355$GLGSV,1,1,04,71,60,168,48,72,63,315,43,73,51,031,47,75,19,238,42*66
###2023-12-09 12:28:37.939120$GAGSV,1,1,02,21,75,179,39,27,44,050,45,,,,,,,,*6F
###2023-12-09 12:28:37.941149$GBGSV,1,1,03,14,58,200,44,26,37,056,47,33,64,261,39,,,,*5F
###2023-12-09 12:28:37.942286$GNVTG,,T,,M,0.04,N,0.07,K,A*3E
###2023-12-09 12:28:37.943954$GNGST,172837.10,33.000,,,,0.120,0.130,0.300*5C
###2023-12-09 12:28:37.945247$GNZDA,172837.10,09,12,2023,00,00*78
###2023-12-09 12:28:37.945886$GNEBP,,,,,,M*13
###2023-12-09 12:28:38.122418$GNGGA,172837.30,4138.0391217,N,07032.4362949,W,1,15,1.0,12.550,M,-29.746,M,0.0,*50
###2023-12-09 12:28:38.319286$GNGGA,172837.50,4138.0391178,N,07032.4362939,W,1,15,1.0,12.570,M,-29.746,M,0.0,*59
###2023-12-09 12:28:38.518026$GNGGA,172837.70,4138.0391153,N,07032.4362921,W,1,15,1.0,12.595,M,-29.746,M,0.0,*50
###2023-12-09 12:28:38.717341$GNGGA,172837.90,4138.0391110,N,07032.4362901,W,1,15,1.0,12.620,M,-29.746,M,0.0,*56
###2023-12-09 12:28:38.920364$GNRMC,172838.10,A,4138.0391077,N,07032.4362895,W,0.02,,091223,,,A*47
###2023-12-09 12:28:38.923269$GNGGA,172838.10,4138.0391077,N,07032.4362895,W,1,16,0.9,12.639,M,-29.746,M,0.0,*5E
###2023-12-09 12:28:38.925087$GPGSA,A,3,03,16,26,28,29,31,32,,,,,,1.6,0.9,1.3*3C
###2023-12-09 12:28:38.926724$GLGSA,A,3,71,72,73,75,,,,,,,,,1.6,0.9,1.3*27
###2023-12-09 12:28:38.928197$GAGSA,A,3,21,27,,,,,,,,,,,1.6,0.9,1.3*29
###2023-12-09 12:28:38.929736$GBGSA,A,3,14,26,33,,,,,,,,,,1.6,0.9,1.3*2D
###2023-12-09 12:28:38.932106$GPGSV,2,1,07,03,39,281,35,16,34,206,44,26,63,206,39,28,60,052,44*79
###2023-12-09 12:28:38.934165$GPGSV,2,2,07,29,25,077,42,31,73,351,43,32,33,132,45,,,,*42
###2023-12-09 12:28:38.936523$GLGSV,1,1,04,71,60,168,48,72,63,315,43,73,51,031,47,75,19,238,41*65
###2023-12-09 12:28:38.938283$GAGSV,1,1,02,21,75,179,39,27,44,050,46,,,,,,,,*6C
###2023-12-09 12:28:38.940356$GBGSV,1,1,03,14,58,200,45,26,37,056,48,33,64,261,39,,,,*51
###2023-12-09 12:28:38.941500$GNVTG,,T,,M,0.02,N,0.04,K,A*3B
###2023-12-09 12:28:38.943174$GNGST,172838.10,32.000,,,,0.120,0.130,0.300*52
###2023-12-09 12:28:38.944480$GNZDA,172838.10,09,12,2023,00,00*77
###2023-12-09 12:28:38.945129$GNEBP,,,,,,M*13
###2023-12-09 12:28:39.120292$GNGGA,172838.30,4138.0391032,N,07032.4362854,W,1,16,0.9,12.664,M,-29.746,M,0.0,*58
###2023-12-09 12:28:39.318320$GNGGA,172838.50,4138.0390982,N,07032.4362843,W,1,16,0.9,12.684,M,-29.746,M,0.0,*55
###2023-12-09 12:28:39.519129$GNGGA,172838.70,4138.0390936,N,07032.4362809,W,1,17,0.8,12.701,M,-29.746,M,0.0,*5A
###2023-12-09 12:28:39.717444$GNGGA,172838.90,4138.0390897,N,07032.4362784,W,1,17,0.8,12.724,M,-29.746,M,0.0,*53
###2023-12-09 12:28:39.921140$GNRMC,172839.10,A,4138.0390854,N,07032.4362769,W,0.06,,091223,,,A*46
###2023-12-09 12:28:39.924208$GNGGA,172839.10,4138.0390854,N,07032.4362769,W,1,18,0.8,12.738,M,-29.746,M,0.0,*54
###2023-12-09 12:28:39.926176$GPGSA,A,3,03,16,26,28,29,31,32,,,,,,1.5,0.8,1.2*3F
###2023-12-09 12:28:39.927951$GLGSA,A,3,71,72,73,75,,,,,,,,,1.5,0.8,1.2*24
###2023-12-09 12:28:39.929578$GAGSA,A,3,21,27,,,,,,,,,,,1.5,0.8,1.2*2A
###2023-12-09 12:28:39.931336$GBGSA,A,3,14,25,26,33,,,,,,,,,1.5,0.8,1.2*29
###2023-12-09 12:28:39.933830$GPGSV,2,1,07,03,39,281,35,16,34,206,44,26,63,206,39,28,60,052,44*79
###2023-12-09 12:28:39.936052$GPGSV,2,2,07,29,25,077,42,31,73,351,43,32,33,132,45,,,,*42
###2023-12-09 12:28:39.938555$GLGSV,1,1,04,71,60,168,49,72,63,315,43,73,51,031,47,75,19,238,41*64
###2023-12-09 12:28:39.940448$GAGSV,1,1,02,21,75,179,39,27,44,050,46,,,,,,,,*6C
###2023-12-09 12:28:39.942904$GBGSV,1,1,04,14,58,200,44,25,30,250,35,26,37,056,48,33,64,261,39*62
###2023-12-09 12:28:39.944150$GNVTG,,T,,M,0.06,N,0.11,K,A*3B
###2023-12-09 12:28:39.945902$GNGST,172839.10,31.000,,,,0.120,0.130,0.300*50
###2023-12-09 12:28:39.947328$GNZDA,172839.10,09,12,2023,00,00*76
###2023-12-09 12:28:39.948106$GNEBP,,,,,,M*13
###2023-12-09 12:28:40.116458$GNGGA,172839.30,4138.0390807,N,07032.4362737,W,1,18,0.8,12.764,M,-29.746,M,0.0,*52
###2023-12-09 12:28:40.320644$GNGGA,172839.50,4138.0390769,N,07032.4362716,W,1,18,0.8,12.793,M,-29.746,M,0.0,*58
###2023-12-09 12:28:40.521173$GNGGA,172839.70,4138.0390731,N,07032.4362704,W,1,17,0.8,12.812,M,-29.746,M,0.0,*5D
###2023-12-09 12:28:40.716938$GNGGA,172839.90,4138.0390692,N,07032.4362654,W,1,17,0.8,12.839,M,-29.746,M,0.0,*56
###2023-12-09 12:28:40.920100$GNRMC,172840.10,A,4138.0390660,N,07032.4362637,W,0.02,,091223,,,A*4F
###2023-12-09 12:28:40.923188$GNGGA,172840.10,4138.0390660,N,07032.4362637,W,1,17,0.8,12.867,M,-29.746,M,0.0,*53
###2023-12-09 12:28:40.925173$GPGSA,A,3,03,16,26,28,29,31,32,,,,,,1.5,0.8,1.3*3E
###2023-12-09 12:28:40.927214$GLGSA,A,3,71,72,73,75,,,,,,,,,1.5,0.8,1.3*25
###2023-12-09 12:28:40.928867$GAGSA,A,3,21,27,,,,,,,,,,,1.5,0.8,1.3*2B
###2023-12-09 12:28:40.930636$GBGSA,A,3,14,25,26,33,,,,,,,,,1.5,0.8,1.3*28
###2023-12-09 12:28:40.932987$GPGSV,2,1,07,03,39,281,36,16,34,206,45,26,63,206,39,28,60,052,44*7B
###2023-12-09 12:28:40.935076$GPGSV,2,2,07,29,25,077,42,31,73,351,43,32,33,132,46,,,,*41
###2023-12-09 12:28:40.937439$GLGSV,1,1,04,71,60,168,49,72,63,315,43,73,51,031,47,75,19,238,41*64
###2023-12-09 12:28:40.939225$GAGSV,1,1,02,21,75,179,40,27,44,050,46,,,,,,,,*62
###2023-12-09 12:28:40.941576$GBGSV,1,1,04,14,58,200,45,25,30,250,35,26,37,056,48,33,64,261,40*6D
