###2023-12-09 13:00:45.996116$GNZDA,180045.10,09,12,2023,00,00*78
###2023-12-09 13:00:45.996778$GNEBP,,,,,,M*13
###2023-12-09 13:00:46.161596$GNGGA,180045.30,4138.0302071,N,07032.2935124,W,1,24,0.6,13.428,M,-29.744,M,0.0,*5D
###2023-12-09 13:00:46.363641$GNGGA,180045.50,4138.0303014,N,07032.2932859,W,1,24,0.6,13.418,M,-29.744,M,0.0,*5E
###2023-12-09 13:00:46.562819$GNGGA,180045.70,4138.0304035,N,07032.2930833,W,1,24,0.6,13.419,M,-29.744,M,0.0,*57
###2023-12-09 13:00:46.762700$GNGGA,180045.90,4138.0305273,N,07032.2928768,W,1,24,0.6,13.451,M,-29.744,M,0.0,*5C
###2023-12-09 13:00:46.964394$GNRMC,180046.10,A,4138.0306348,N,07032.2926418,W,3.56,59.53,091223,,,A*69
###2023-12-09 13:00:46.967252$GNGGA,180046.10,4138.0306348,N,07032.2926418,W,1,24,0.6,13.427,M,-29.744,M,0.0,*56
###2023-12-09 13:00:46.969106$GPGSA,A,3,03,04,16,26,28,29,31,32,,,,,1.1,0.6,0.9*3B
###2023-12-09 13:00:46.970834$GLGSA,A,3,65,71,72,73,74,75,,,,,,,1.1,0.6,0.9*24
###2023-12-09 13:00:46.972412$GAGSA,A,3,04,19,21,27,,,,,,,,,1.1,0.6,0.9*26
###2023-12-09 13:00:46.974052$GBGSA,A,3,14,24,25,26,33,,,,,,,,1.1,0.6,0.9*2F
###2023-12-09 13:00:46.976377$GPGSV,2,1,08,03,35,262,42,04,32,311,41,16,49,212,45,26,79,210,47*74
###2023-12-09 13:00:46.978708$GPGSV,2,2,08,28,49,070,42,29,25,061,40,31,69,036,45,32,19,140,42*7B
###2023-12-09 13:00:46.981026$GLGSV,2,1,06,65,24,327,42,71,41,173,48,72,73,269,46,73,36,041,43*62
###2023-12-09 13:00:46.982803$GLGSV,2,2,06,74,70,336,42,75,32,252,47,,,,,,,,*62
###2023-12-09 13:00:46.985115$GAGSV,1,1,04,04,29,312,42,19,84,219,40,21,86,122,45,27,33,048,41*6E
###2023-12-09 13:00:46.987481$GBGSV,2,1,05,14,43,193,45,24,74,024,48,25,41,262,45,26,26,063,43*6D
###2023-12-09 13:00:46.988934$GBGSV,2,2,05,33,57,233,47,,,,,,,,,,,,*5D
###2023-12-09 13:00:46.990216$GNVTG,59.53,T,,M,3.56,N,6.59,K,A*13
###2023-12-09 13:00:46.991871$GNGST,180046.10,18.000,,,,0.079,0.067,0.160*5C
###2023-12-09 13:00:46.993162$GNZDA,180046.10,09,12,2023,00,00*7B
###2023-12-09 13:00:46.993799$GNEBP,,,,,,M*13
###2023-12-09 13:00:47.162662$GNGGA,180046.30,4138.0307426,N,07032.2924303,W,1,24,0.6,13.413,M,-29.744,M,0.0,*52
###2023-12-09 13:00:47.362355$GNGGA,180046.50,4138.0308622,N,07032.2922311,W,1,24,0.6,13.437,M,-29.744,M,0.0,*5E
###2023-12-09 13:00:47.563608$GNGGA,180046.70,4138.0309647,N,07032.2920074,W,1,24,0.6,13.428,M,-29.744,M,0.0,*52
###2023-12-09 13:00:47.762784$GNGGA,180046.90,4138.0310541,N,07032.2917841,W,1,24,0.6,13.397,M,-29.744,M,0.0,*58
###2023-12-09 13:00:47.964692$GNRMC,180047.10,A,4138.0311598,N,07032.2915824,W,3.36,50.90,091223,,,A*66
###2023-12-09 13:00:47.967572$GNGGA,180047.10,4138.0311598,N,07032.2915824,W,1,24,0.6,13.406,M,-29.744,M,0.0,*5A
###2023-12-09 13:00:47.969420$GPGSA,A,3,03,04,16,26,28,29,31,32,,,,,1.1,0.6,0.9*3B
###2023-12-09 13:00:47.971136$GLGSA,A,3,65,71,72,73,74,75,,,,,,,1.1,0.6,0.9*24
###2023-12-09 13:00:47.972717$GAGSA,A,3,04,19,21,27,,,,,,,,,1.1,0.6,0.9*26
###2023-12-09 13:00:47.974357$GBGSA,A,3,14,24,25,26,33,,,,,,,,1.1,0.6,0.9*2F
###2023-12-09 13:00:47.976697$GPGSV,2,1,08,03,35,262,45,04,32,311,44,16,49,212,48,26,79,210,49*75
###2023-12-09 13:00:47.979076$GPGSV,2,2,08,28,49,070,45,29,25,061,43,31,69,036,47,32,19,140,45*7A
###2023-12-09 13:00:47.981405$GLGSV,2,1,06,65,24,327,43,71,41,173,49,72,73,269,46,73,36,041,41*60
###2023-12-09 13:00:47.983161$GLGSV,2,2,06,74,70,336,42,75,32,252,46,,,,,,,,*63
###2023-12-09 13:00:47.985489$GAGSV,1,1,04,04,29,312,43,19,84,219,41,21,86,122,47,27,33,048,42*6F
###2023-12-09 13:00:47.987850$GBGSV,2,1,05,14,43,193,45,24,74,024,46,25,41,262,44,26,26,063,42*63
###2023-12-09 13:00:47.989304$GBGSV,2,2,05,33,57,233,46,,,,,,,,,,,,*5C
###2023-12-09 13:00:47.990605$GNVTG,50.90,T,,M,3.36,N,6.23,K,A*1E
###2023-12-09 13:00:47.992257$GNGST,180047.10,18.000,,,,0.079,0.067,0.160*5D
###2023-12-09 13:00:47.993550$GNZDA,180047.10,09,12,2023,00,00*7A
###2023-12-09 13:00:47.994190$GNEBP,,,,,,M*13
###2023-12-09 13:00:48.161410$GNGGA,180047.30,4138.0312785,N,07032.2913849,W,1,24,0.6,13.417,M,-29.744,M,0.0,*58
###2023-12-09 13:00:48.361069$GNGGA,180047.50,4138.0313755,N,07032.2911611,W,1,24,0.6,13.428,M,-29.744,M,0.0,*5F
###2023-12-09 13:00:48.561128$GNGGA,180047.70,4138.0314565,N,07032.2909272,W,1,24,0.6,13.425,M,-29.744,M,0.0,*5E
###2023-12-09 13:00:48.762238$GNGGA,180047.90,4138.0315549,N,07032.2907077,W,1,24,0.6,13.427,M,-29.744,M,0.0,*54
###2023-12-09 13:00:48.965346$GNRMC,180048.10,A,4138.0316627,N,07032.2904863,W,3.56,60.62,091223,,,A*62
###2023-12-09 13:00:48.968227$GNGGA,180048.10,4138.0316627,N,07032.2904863,W,1,24,0.6,13.416,M,-29.744,M,0.0,*57
###2023-12-09 13:00:48.970114$GPGSA,A,3,03,04,16,26,28,29,31,32,,,,,1.1,0.6,0.9*3B
###2023-12-09 13:00:48.971851$GLGSA,A,3,65,71,72,73,74,75,,,,,,,1.1,0.6,0.9*24
###2023-12-09 13:00:48.973429$GAGSA,A,3,04,19,21,27,,,,,,,,,1.1,0.6,0.9*26
###2023-12-09 13:00:48.975094$GBGSA,A,3,14,24,25,26,33,,,,,,,,1.1,0.6,0.9*2F
###2023-12-09 13:00:48.977409$GPGSV,2,1,08,03,35,262,45,04,32,311,44,16,49,212,47,26,79,210,50*72
###2023-12-09 13:00:48.979748$GPGSV,2,2,08,28,49,070,44,29,25,061,42,31,69,036,47,32,19,140,44*7B
###2023-12-09 13:00:48.982074$GLGSV,2,1,06,65,24,327,43,71,41,173,48,72,73,269,46,73,36,041,42*62
###2023-12-09 13:00:48.983827$GLGSV,2,2,06,74,70,337,42,75,32,252,47,,,,,,,,*63
###2023-12-09 13:00:48.986147$GAGSV,1,1,04,04,29,312,42,19,84,219,41,21,86,122,46,27,33,048,41*6C
###2023-12-09 13:00:48.988480$GBGSV,2,1,05,14,43,193,45,24,74,024,49,25,41,262,44,26,26,063,42*6C
###2023-12-09 13:00:48.989925$GBGSV,2,2,05,33,57,233,48,,,,,,,,,,,,*52
###2023-12-09 13:00:48.991220$GNVTG,60.62,T,,M,3.56,N,6.59,K,A*1B
###2023-12-09 13:00:48.992858$GNGST,180048.10,18.000,,,,0.078,0.067,0.160*53
###2023-12-09 13:00:48.994142$GNZDA,180048.10,09,12,2023,00,00*75
###2023-12-09 13:00:48.994788$GNEBP,,,,,,M*13
###2023-12-09 13:00:49.162509$GNGGA,180048.30,4138.0317550,N,07032.2902626,W,1,24,0.6,13.406,M,-29.744,M,0.0,*5F
###2023-12-09 13:00:49.364678$GNGGA,180048.50,4138.0318345,N,07032.2900313,W,1,24,0.6,13.425,M,-29.744,M,0.0,*54
###2023-12-09 13:00:49.564331$GNGGA,180048.70,4138.0319134,N,07032.2897984,W,1,24,0.6,13.430,M,-29.744,M,0.0,*5C
###2023-12-09 13:00:49.764877$GNGGA,180048.90,4138.0319998,N,07032.2895671,W,1,24,0.6,13.421,M,-29.744,M,0.0,*5B
###2023-12-09 13:00:49.965295$GNRMC,180049.10,A,4138.0320989,N,07032.2893490,W,3.38,55.17,091223,,,A*6E
###2023-12-09 13:00:49.968201$GNGGA,180049.10,4138.0320989,N,07032.2893490,W,1,24,0.6,13.415,M,-29.744,M,0.0,*54
###2023-12-09 13:00:49.970055$GPGSA,A,3,03,04,16,26,28,29,31,32,,,,,1.1,0.6,0.9*3B
###2023-12-09 13:00:49.971777$GLGSA,A,3,65,71,72,73,74,75,,,,,,,1.1,0.6,0.9*24
###2023-12-09 13:00:49.973353$GAGSA,A,3,04,19,21,27,,,,,,,,,1.1,0.6,0.9*26
###2023-12-09 13:00:49.975005$GBGSA,A,3,14,24,25,26,33,,,,,,,,1.1,0.6,0.9*2F
###2023-12-09 13:00:49.977326$GPGSV,2,1,08,03,35,262,43,04,32,311,42,16,49,212,45,26,79,210,47*76
###2023-12-09 13:00:49.979653$GPGSV,2,2,08,28,49,070,42,29,25,061,40,31,69,036,46,32,19,140,43*79
###2023-12-09 13:00:49.981965$GLGSV,2,1,06,65,24,327,43,71,41,173,48,72,73,269,46,73,36,041,41*61
###2023-12-09 13:00:49.983719$GLGSV,2,2,06,74,70,337,42,75,32,253,47,,,,,,,,*62
###2023-12-09 13:00:49.986037$GAGSV,1,1,04,04,29,312,42,19,84,216,40,21,86,120,46,27,33,048,40*61
###2023-12-09 13:00:49.988378$GBGSV,2,1,05,14,43,193,46,24,74,024,49,25,41,262,46,26,26,063,43*6C
###2023-12-09 13:00:49.989827$GBGSV,2,2,05,33,57,233,48,,,,,,,,,,,,*52
###2023-12-09 13:00:49.991125$GNVTG,55.17,T,,M,3.38,N,6.26,K,A*1F
###2023-12-09 13:00:49.992763$GNGST,180049.10,18.000,,,,0.079,0.067,0.160*53
###2023-12-09 13:00:49.994090$GNZDA,180049.10,09,12,2023,00,00*74
###2023-12-09 13:00:49.994744$GNEBP,,,,,,M*13
###2023-12-09 13:00:50.162445$GNGGA,180049.30,4138.0322050,N,07032.2891339,W,1,24,0.6,13.424,M,-29.744,M,0.0,*5D
###2023-12-09 13:00:50.363308$GNGGA,180049.50,4138.0322866,N,07032.2888875,W,1,24,0.6,13.423,M,-29.744,M,0.0,*5A
###2023-12-09 13:00:50.564858$GNGGA,180049.70,4138.0323820,N,07032.2886596,W,1,24,0.6,13.414,M,-29.744,M,0.0,*51
###2023-12-09 13:00:50.764131$GNGGA,180049.90,4138.0325083,N,07032.2884493,W,1,24,0.6,13.430,M,-29.744,M,0.0,*58
###2023-12-09 13:00:50.965461$GNRMC,180050.10,A,4138.0326236,N,07032.2882298,W,3.62,59.38,091223,,,A*6F
###2023-12-09 13:00:50.968611$GNGGA,180050.10,4138.0326236,N,07032.2882298,W,1,24,0.6,13.423,M,-29.744,M,0.0,*5E
###2023-12-09 13:00:50.970474$GPGSA,A,3,03,04,16,26,28,29,31,32,,,,,1.1,0.6,0.9*3B
###2023-12-09 13:00:50.972198$GLGSA,A,3,65,71,72,73,74,75,,,,,,,1.1,0.6,0.9*24
###2023-12-09 13:00:50.973778$GAGSA,A,3,04,19,21,27,,,,,,,,,1.1,0.6,0.9*26
###2023-12-09 13:00:50.975430$GBGSA,A,3,14,24,25,26,33,,,,,,,,1.1,0.6,0.9*2F
###2023-12-09 13:00:50.977752$GPGSV,2,1,08,03,35,262,43,04,32,311,44,16,49,212,45,26,79,210,48*7F
###2023-12-09 13:00:50.980077$GPGSV,2,2,08,28,49,070,42,29,25,061,41,31,69,036,46,32,19,140,41*7A
###2023-12-09 13:00:50.982402$GLGSV,2,1,06,65,24,327,44,71,41,173,47,72,73,269,47,73,36,041,42*6B
###2023-12-09 13:00:50.984157$GLGSV,2,2,06,74,70,337,42,75,32,253,46,,,,,,,,*63
