###2023-12-09 12:59:58.971415$GPGSA,A,3,03,04,16,26,28,29,31,32,,,,,1.1,0.6,0.9*3B
###2023-12-09 12:59:58.973148$GLGSA,A,3,65,71,72,73,74,75,,,,,,,1.1,0.6,0.9*24
###2023-12-09 12:59:58.974749$GAGSA,A,3,04,19,21,27,,,,,,,,,1.1,0.6,0.9*26
###2023-12-09 12:59:58.976405$GBGSA,A,3,14,24,25,26,33,,,,,,,,1.1,0.6,0.9*2F
###2023-12-09 12:59:58.978754$GPGSV,2,1,08,03,35,262,43,04,32,311,41,16,49,212,45,26,79,210,47*75
###2023-12-09 12:59:58.981095$GPGSV,2,2,08,28,50,070,44,29,25,062,41,31,69,036,47,32,19,140,42*75
###2023-12-09 12:59:58.983490$GLGSV,2,1,06,65,23,328,43,71,42,172,46,72,73,273,45,73,37,041,46*6B
###2023-12-09 12:59:58.985241$GLGSV,2,2,06,74,70,334,42,75,31,252,43,,,,,,,,*67
###2023-12-09 12:59:58.987596$GAGSV,1,1,04,04,29,312,40,19,84,219,40,21,85,133,45,27,34,048,43*6A
###2023-12-09 12:59:58.989919$GBGSV,2,1,05,14,44,193,44,24,74,022,48,25,40,261,43,26,27,062,42*68
###2023-12-09 12:59:58.991386$GBGSV,2,2,05,33,58,234,48,,,,,,,,,,,,*5A
###2023-12-09 12:59:58.992707$GNVTG,249.50,T,,M,3.30,N,6.12,K,A*2C
###2023-12-09 12:59:58.994355$GNGST,175958.10,18.000,,,,0.081,0.069,0.160*59
###2023-12-09 12:59:58.995655$GNZDA,175958.10,09,12,2023,00,00*77
###2023-12-09 12:59:58.996295$GNEBP,,,,,,M*13
###2023-12-09 12:59:59.162422$GNGGA,175958.30,4138.0205137,N,07032.3002997,W,1,24,0.6,12.901,M,-29.744,M,0.0,*5C
###2023-12-09 12:59:59.363313$GNGGA,175958.50,4138.0205024,N,07032.3005441,W,1,24,0.6,12.909,M,-29.744,M,0.0,*50
###2023-12-09 12:59:59.563688$GNGGA,175958.70,4138.0205165,N,07032.3007943,W,1,24,0.6,12.927,M,-29.744,M,0.0,*57
###2023-12-09 12:59:59.762664$GNGGA,175958.90,4138.0205067,N,07032.3010402,W,1,24,0.6,12.928,M,-29.744,M,0.0,*5B
###2023-12-09 12:59:59.966775$GNRMC,175959.10,A,4138.0204821,N,07032.3012900,W,3.38,264.72,091223,,,A*5F
###2023-12-09 12:59:59.969628$GNGGA,175959.10,4138.0204821,N,07032.3012900,W,1,24,0.6,12.915,M,-29.744,M,0.0,*5A
###2023-12-09 12:59:59.971488$GPGSA,A,3,03,04,16,26,28,29,31,32,,,,,1.1,0.6,0.9*3B
###2023-12-09 12:59:59.973192$GLGSA,A,3,65,71,72,73,74,75,,,,,,,1.1,0.6,0.9*24
###2023-12-09 12:59:59.974777$GAGSA,A,3,04,19,21,27,,,,,,,,,1.1,0.6,0.9*26
###2023-12-09 12:59:59.976410$GBGSA,A,3,14,24,25,26,33,,,,,,,,1.1,0.6,0.9*2F
###2023-12-09 12:59:59.978728$GPGSV,2,1,08,03,35,262,43,04,32,311,42,16,49,212,45,26,79,210,47*76
###2023-12-09 12:59:59.981044$GPGSV,2,2,08,28,50,070,45,29,25,062,41,31,69,036,47,32,19,140,42*74
###2023-12-09 12:59:59.983373$GLGSV,2,1,06,65,23,328,40,71,42,172,47,72,73,273,45,73,37,041,45*6A
###2023-12-09 12:59:59.985109$GLGSV,2,2,06,74,70,334,42,75,31,252,41,,,,,,,,*65
###2023-12-09 12:59:59.987430$GAGSV,1,1,04,04,29,312,40,19,84,219,40,21,85,133,46,27,34,048,41*6B
###2023-12-09 12:59:59.989745$GBGSV,2,1,05,14,44,193,46,24,74,022,49,25,40,261,45,26,27,062,42*6D
###2023-12-09 12:59:59.991203$GBGSV,2,2,05,33,58,234,48,,,,,,,,,,,,*5A
###2023-12-09 12:59:59.992516$GNVTG,264.72,T,,M,3.38,N,6.26,K,A*2C
###2023-12-09 12:59:59.994155$GNGST,175959.10,18.000,,,,0.080,0.069,0.160*59
###2023-12-09 12:59:59.995449$GNZDA,175959.10,09,12,2023,00,00*76
###2023-12-09 12:59:59.996087$GNEBP,,,,,,M*13
###2023-12-09 13:00:00.162530$GNGGA,175959.30,4138.0204864,N,07032.3015486,W,1,24,0.6,12.931,M,-29.744,M,0.0,*5B
###2023-12-09 13:00:00.363342$GNGGA,175959.50,4138.0205170,N,07032.3018131,W,1,24,0.6,12.944,M,-29.744,M,0.0,*56
###2023-12-09 13:00:00.563990$GNGGA,175959.70,4138.0205303,N,07032.3020742,W,1,24,0.6,12.942,M,-29.744,M,0.0,*5D
###2023-12-09 13:00:00.764238$GNGGA,175959.90,4138.0205244,N,07032.3023344,W,1,24,0.6,12.927,M,-29.744,M,0.0,*53
###2023-12-09 13:00:00.967287$GNRMC,180000.10,A,4138.0205210,N,07032.3026007,W,3.58,272.54,091223,,,A*55
###2023-12-09 13:00:00.970775$GNGGA,180000.10,4138.0205210,N,07032.3026007,W,1,24,0.6,12.910,M,-29.744,M,0.0,*50
###2023-12-09 13:00:00.973023$GPGSA,A,3,03,04,16,26,28,29,31,32,,,,,1.1,0.6,0.9*3B
###2023-12-09 13:00:00.975111$GLGSA,A,3,65,71,72,73,74,75,,,,,,,1.1,0.6,0.9*24
###2023-12-09 13:00:00.977021$GAGSA,A,3,04,19,21,27,,,,,,,,,1.1,0.6,0.9*26
###2023-12-09 13:00:00.979017$GBGSA,A,3,14,24,25,26,33,,,,,,,,1.1,0.6,0.9*2F
###2023-12-09 13:00:00.981817$GPGSV,2,1,08,03,35,262,43,04,32,311,41,16,49,212,46,26,79,210,48*79
###2023-12-09 13:00:00.984640$GPGSV,2,2,08,28,50,070,45,29,25,062,41,31,69,036,47,32,19,140,43*75
###2023-12-09 13:00:00.987461$GLGSV,2,1,06,65,23,328,40,71,42,172,46,72,73,273,45,73,37,041,44*6A
###2023-12-09 13:00:00.989564$GLGSV,2,2,06,74,70,334,42,75,31,252,42,,,,,,,,*66
###2023-12-09 13:00:00.992358$GAGSV,1,1,04,04,29,312,38,19,84,219,40,21,85,133,46,27,34,048,42*67
###2023-12-09 13:00:00.995167$GBGSV,2,1,05,14,44,193,44,24,74,022,48,25,40,261,43,26,27,062,41*6B
###2023-12-09 13:00:00.996922$GBGSV,2,2,05,33,58,234,47,,,,,,,,,,,,*55
###2023-12-09 13:00:00.998540$GNVTG,272.54,T,,M,3.58,N,6.62,K,A*29
###2023-12-09 13:00:01.000542$GNGST,180000.10,18.000,,,,0.080,0.069,0.160*56
###2023-12-09 13:00:01.002097$GNZDA,180000.10,09,12,2023,00,00*79
###2023-12-09 13:00:01.002883$GNEBP,,,,,,M*13
###2023-12-09 13:00:01.164133$GNGGA,180000.30,4138.0205493,N,07032.3028660,W,1,24,0.6,12.926,M,-29.744,M,0.0,*53
###2023-12-09 13:00:01.365597$GNGGA,180000.50,4138.0205882,N,07032.3031364,W,1,24,0.6,12.956,M,-29.744,M,0.0,*57
###2023-12-09 13:00:01.566214$GNGGA,180000.70,4138.0206112,N,07032.3033993,W,1,24,0.6,12.966,M,-29.744,M,0.0,*55
###2023-12-09 13:00:01.765271$GNGGA,180000.90,4138.0206072,N,07032.3036558,W,1,24,0.6,12.950,M,-29.744,M,0.0,*57
###2023-12-09 13:00:01.967180$GNRMC,180001.10,A,4138.0205953,N,07032.3039144,W,3.46,268.98,091223,,,A*54
###2023-12-09 13:00:01.970647$GNGGA,180001.10,4138.0205953,N,07032.3039144,W,1,24,0.6,12.916,M,-29.744,M,0.0,*53
###2023-12-09 13:00:01.972894$GPGSA,A,3,03,04,16,26,28,29,31,32,,,,,1.1,0.6,0.9*3B
###2023-12-09 13:00:01.974974$GLGSA,A,3,65,71,72,73,74,75,,,,,,,1.1,0.6,0.9*24
###2023-12-09 13:00:01.976892$GAGSA,A,3,04,19,21,27,,,,,,,,,1.1,0.6,0.9*26
###2023-12-09 13:00:01.978886$GBGSA,A,3,14,24,25,26,33,,,,,,,,1.1,0.6,0.9*2F
###2023-12-09 13:00:01.981686$GPGSV,2,1,08,03,35,262,43,04,32,311,39,16,49,212,46,26,79,210,48*76
###2023-12-09 13:00:01.984494$GPGSV,2,2,08,28,49,070,44,29,25,061,41,31,69,036,46,32,19,140,44*79
###2023-12-09 13:00:01.987303$GLGSV,2,1,06,65,23,328,38,71,42,172,49,72,73,273,45,73,37,041,43*6D
###2023-12-09 13:00:01.989400$GLGSV,2,2,06,74,70,334,41,75,31,252,43,,,,,,,,*64
###2023-12-09 13:00:01.992246$GAGSV,1,1,04,04,29,312,38,19,84,219,40,21,85,133,45,27,34,048,40*66
###2023-12-09 13:00:01.995065$GBGSV,2,1,05,14,44,193,45,24,74,022,47,25,40,261,45,26,27,062,41*63
###2023-12-09 13:00:01.996820$GBGSV,2,2,05,33,58,234,46,,,,,,,,,,,,*54
###2023-12-09 13:00:01.998400$GNVTG,268.98,T,,M,3.46,N,6.41,K,A*2C
###2023-12-09 13:00:02.000400$GNGST,180001.10,18.000,,,,0.081,0.070,0.160*5E
###2023-12-09 13:00:02.001946$GNZDA,180001.10,09,12,2023,00,00*78
###2023-12-09 13:00:02.002730$GNEBP,,,,,,M*13
###2023-12-09 13:00:02.164020$GNGGA,180001.30,4138.0206177,N,07032.3041785,W,1,24,0.6,12.920,M,-29.744,M,0.0,*5D
###2023-12-09 13:00:02.364846$GNGGA,180001.50,4138.0206480,N,07032.3044409,W,1,24,0.6,12.953,M,-29.744,M,0.0,*50
###2023-12-09 13:00:02.563981$GNGGA,180001.70,4138.0206490,N,07032.3046901,W,1,24,0.6,12.977,M,-29.744,M,0.0,*52
###2023-12-09 13:00:02.764241$GNGGA,180001.90,4138.0206276,N,07032.3049300,W,1,24,0.6,12.978,M,-29.744,M,0.0,*59
###2023-12-09 13:00:02.966133$GNRMC,180002.10,A,4138.0206175,N,07032.3051746,W,3.32,271.48,091223,,,A*54
###2023-12-09 13:00:02.969649$GNGGA,180002.10,4138.0206175,N,07032.3051746,W,1,24,0.6,12.943,M,-29.744,M,0.0,*55
###2023-12-09 13:00:02.971916$GPGSA,A,3,03,04,16,26,28,29,31,32,,,,,1.1,0.6,0.9*3B
###2023-12-09 13:00:02.973988$GLGSA,A,3,65,71,72,73,74,75,,,,,,,1.1,0.6,0.9*24
###2023-12-09 13:00:02.975903$GAGSA,A,3,04,19,21,27,,,,,,,,,1.1,0.6,0.9*26
###2023-12-09 13:00:02.977891$GBGSA,A,3,14,24,25,26,33,,,,,,,,1.1,0.6,0.9*2F
###2023-12-09 13:00:02.980700$GPGSV,2,1,08,03,35,262,44,04,32,311,39,16,49,212,46,26,79,210,48*71
###2023-12-09 13:00:02.983511$GPGSV,2,2,08,28,49,070,44,29,25,061,41,31,69,036,47,32,19,140,46*7A
###2023-12-09 13:00:02.986320$GLGSV,2,1,06,65,23,328,37,71,42,172,48,72,73,273,45,73,37,041,43*63
###2023-12-09 13:00:02.988733$GLGSV,2,2,06,74,70,334,41,75,31,252,43,,,,,,,,*64
###2023-12-09 13:00:02.991566$GAGSV,1,1,04,04,29,312,38,19,84,219,40,21,86,124,45,27,34,048,40*63
###2023-12-09 13:00:02.994394$GBGSV,2,1,05,14,44,193,45,24,74,022,48,25,40,261,45,26,27,062,41*6C
###2023-12-09 13:00:02.996170$GBGSV,2,2,05,33,58,234,47,,,,,,,,,,,,*55
###2023-12-09 13:00:02.997774$GNVTG,271.48,T,,M,3.32,N,6.16,K,A*28
###2023-12-09 13:00:02.999822$GNGST,180002.10,18.000,,,,0.081,0.070,0.160*5D
###2023-12-09 13:00:03.001383$GNZDA,180002.10,09,12,2023,00,00*7B
###2023-12-09 13:00:03.002151$GNEBP,,,,,,M*13
###2023-12-09 13:00:03.166908$GNGGA,180002.30,4138.0206308,N,07032.3054248,W,1,24,0.6,12.943,M,-29.744,M,0.0,*51
