###2023-12-09 12:35:17.943017$GLGSA,A,3,71,72,73,74,75,,,,,,,,1.2,0.7,1.0*2D
###2023-12-09 12:35:17.944636$GAGSA,A,3,04,19,21,27,,,,,,,,,1.2,0.7,1.0*2C
###2023-12-09 12:35:17.946311$GBGSA,A,3,14,24,25,26,33,,,,,,,,1.2,0.7,1.0*25
###2023-12-09 12:35:17.948706$GPGSV,2,1,08,03,39,277,43,04,22,311,40,16,37,207,47,26,66,206,48*74
###2023-12-09 12:35:17.951104$GPGSV,2,2,08,28,58,056,44,29,25,074,42,31,73,001,46,32,30,134,47*7E
###2023-12-09 12:35:17.953461$GLGSV,2,1,05,71,57,169,48,72,65,310,47,73,48,033,44,74,71,290,42*62
###2023-12-09 12:35:17.954935$GLGSV,2,2,05,75,22,241,45,,,,,,,,,,,,*54
###2023-12-09 12:35:17.957266$GAGSV,1,1,04,04,21,311,39,19,81,302,41,21,78,176,46,27,41,049,43*63
###2023-12-09 12:35:17.959626$GBGSV,2,1,05,14,55,197,44,24,81,343,47,25,32,252,41,26,35,057,44*69
###2023-12-09 12:35:17.961084$GBGSV,2,2,05,33,63,255,47,,,,,,,,,,,,*5A
###2023-12-09 12:35:17.962407$GNVTG,300.95,T,,M,0.49,N,0.90,K,A*28
###2023-12-09 12:35:17.964071$GNGST,173517.10,18.000,,,,0.079,0.071,0.160*56
###2023-12-09 12:35:17.965370$GNZDA,173517.10,09,12,2023,00,00*76
###2023-12-09 12:35:17.966007$GNEBP,,,,,,M*13
###2023-12-09 12:35:18.134582$GNGGA,173517.30,4138.0489664,N,07032.4242366,W,1,23,0.7,13.249,M,-29.745,M,0.0,*5A
###2023-12-09 12:35:18.334881$GNGGA,173517.50,4138.0489829,N,07032.4242769,W,1,23,0.7,13.252,M,-29.745,M,0.0,*5A
###2023-12-09 12:35:18.534704$GNGGA,173517.70,4138.0489737,N,07032.4242590,W,1,23,0.7,13.273,M,-29.745,M,0.0,*5F
###2023-12-09 12:35:18.734492$GNGGA,173517.90,4138.0489624,N,07032.4242367,W,1,23,0.7,13.281,M,-29.745,M,0.0,*51
###2023-12-09 12:35:18.938017$GNRMC,173518.10,A,4138.0489758,N,07032.4242647,W,0.87,299.96,091223,,,A*51
###2023-12-09 12:35:18.940899$GNGGA,173518.10,4138.0489758,N,07032.4242647,W,1,23,0.7,13.284,M,-29.745,M,0.0,*5E
###2023-12-09 12:35:18.942772$GPGSA,A,3,03,04,16,26,28,29,31,32,,,,,1.2,0.7,1.0*31
###2023-12-09 12:35:18.944426$GLGSA,A,3,71,72,73,74,75,,,,,,,,1.2,0.7,1.0*2D
###2023-12-09 12:35:18.946012$GAGSA,A,3,04,19,21,27,,,,,,,,,1.2,0.7,1.0*2C
###2023-12-09 12:35:18.947692$GBGSA,A,3,14,24,25,26,33,,,,,,,,1.2,0.7,1.0*25
###2023-12-09 12:35:18.950045$GPGSV,2,1,08,03,39,277,44,04,22,311,39,16,37,207,47,26,66,206,48*7D
###2023-12-09 12:35:18.952401$GPGSV,2,2,08,28,58,056,45,29,25,074,42,31,73,001,46,32,30,134,47*7F
###2023-12-09 12:35:18.954758$GLGSV,2,1,05,71,57,169,49,72,65,310,46,73,48,033,45,74,71,290,43*62
###2023-12-09 12:35:18.956222$GLGSV,2,2,05,75,22,241,45,,,,,,,,,,,,*54
###2023-12-09 12:35:18.958559$GAGSV,1,1,04,04,21,311,39,19,81,302,40,21,78,176,46,27,41,049,42*63
###2023-12-09 12:35:18.960908$GBGSV,2,1,05,14,55,197,45,24,81,343,47,25,32,252,42,26,35,057,43*6C
###2023-12-09 12:35:18.962366$GBGSV,2,2,05,33,63,255,48,,,,,,,,,,,,*55
###2023-12-09 12:35:18.963700$GNVTG,299.96,T,,M,0.87,N,1.62,K,A*24
###2023-12-09 12:35:18.965352$GNGST,173518.10,18.000,,,,0.079,0.071,0.160*59
###2023-12-09 12:35:18.966662$GNZDA,173518.10,09,12,2023,00,00*79
###2023-12-09 12:35:18.967305$GNEBP,,,,,,M*13
###2023-12-09 12:35:19.134112$GNGGA,173518.30,4138.0489990,N,07032.4243182,W,1,23,0.7,13.281,M,-29.745,M,0.0,*5C
###2023-12-09 12:35:19.335808$GNGGA,173518.50,4138.0490035,N,07032.4243319,W,1,23,0.7,13.277,M,-29.745,M,0.0,*5D
###2023-12-09 12:35:19.534848$GNGGA,173518.70,4138.0489895,N,07032.4243022,W,1,23,0.7,13.289,M,-29.745,M,0.0,*5F
###2023-12-09 12:35:19.732966$GNGGA,173518.90,4138.0489860,N,07032.4242956,W,1,23,0.7,13.290,M,-29.745,M,0.0,*58
###2023-12-09 12:35:19.934531$GNRMC,173519.10,A,4138.0490057,N,07032.4243421,W,0.95,299.96,091223,,,A*50
###2023-12-09 12:35:19.937410$GNGGA,173519.10,4138.0490057,N,07032.4243421,W,1,23,0.7,13.298,M,-29.745,M,0.0,*51
###2023-12-09 12:35:19.939284$GPGSA,A,3,03,04,16,26,28,29,31,32,,,,,1.2,0.7,1.0*31
###2023-12-09 12:35:19.940933$GLGSA,A,3,71,72,73,74,75,,,,,,,,1.2,0.7,1.0*2D
###2023-12-09 12:35:19.942515$GAGSA,A,3,04,19,21,27,,,,,,,,,1.2,0.7,1.0*2C
###2023-12-09 12:35:19.944171$GBGSA,A,3,14,24,25,26,33,,,,,,,,1.2,0.7,1.0*25
###2023-12-09 12:35:19.946503$GPGSV,2,1,08,03,39,277,45,04,22,311,41,16,37,207,44,26,66,206,48*70
###2023-12-09 12:35:19.948859$GPGSV,2,2,08,28,58,056,44,29,25,074,41,31,73,001,46,32,30,134,46*7C
###2023-12-09 12:35:19.951215$GLGSV,2,1,05,71,57,169,48,72,65,310,46,73,48,033,45,74,71,290,43*63
###2023-12-09 12:35:19.952670$GLGSV,2,2,05,75,22,241,45,,,,,,,,,,,,*54
###2023-12-09 12:35:19.954995$GAGSV,1,1,04,04,21,311,42,19,81,302,41,21,78,176,46,27,41,049,42*6E
###2023-12-09 12:35:19.957311$GBGSV,2,1,05,14,55,197,44,24,80,347,47,25,32,252,42,26,35,057,45*6E
###2023-12-09 12:35:19.958770$GBGSV,2,2,05,33,63,255,48,,,,,,,,,,,,*55
###2023-12-09 12:35:19.960090$GNVTG,299.96,T,,M,0.95,N,1.76,K,A*22
###2023-12-09 12:35:19.961727$GNGST,173519.10,18.000,,,,0.079,0.071,0.160*58
###2023-12-09 12:35:19.963031$GNZDA,173519.10,09,12,2023,00,00*78
###2023-12-09 12:35:19.963669$GNEBP,,,,,,M*13
###2023-12-09 12:35:20.135812$GNGGA,173519.30,4138.0490217,N,07032.4243851,W,1,23,0.7,13.291,M,-29.745,M,0.0,*57
###2023-12-09 12:35:20.337113$GNGGA,173519.50,4138.0490153,N,07032.4243700,W,1,23,0.7,13.297,M,-29.745,M,0.0,*5F
###2023-12-09 12:35:20.542646$GNGGA,173519.70,4138.0490011,N,07032.4243417,W,1,23,0.7,13.291,M,-29.745,M,0.0,*59
###2023-12-09 12:35:20.735421$GNGGA,173519.90,4138.0490091,N,07032.4243662,W,1,23,0.7,13.295,M,-29.745,M,0.0,*5B
###2023-12-09 12:35:20.943146$GNRMC,173520.10,A,4138.0490337,N,07032.4244262,W,0.78,300.39,091223,,,A*5E
###2023-12-09 12:35:20.945996$GNGGA,173520.10,4138.0490337,N,07032.4244262,W,1,23,0.7,13.299,M,-29.745,M,0.0,*59
###2023-12-09 12:35:20.947881$GPGSA,A,3,03,04,16,26,28,29,31,32,,,,,1.2,0.7,1.0*31
###2023-12-09 12:35:20.949547$GLGSA,A,3,71,72,73,74,75,,,,,,,,1.2,0.7,1.0*2D
###2023-12-09 12:35:20.951163$GAGSA,A,3,04,19,21,27,,,,,,,,,1.2,0.7,1.0*2C
###2023-12-09 12:35:20.952825$GBGSA,A,3,14,24,25,26,33,,,,,,,,1.2,0.7,1.0*25
###2023-12-09 12:35:20.955182$GPGSV,2,1,08,03,39,277,46,04,22,311,43,16,37,207,46,26,66,206,48*73
###2023-12-09 12:35:20.957529$GPGSV,2,2,08,28,58,056,43,29,25,074,39,31,73,001,47,32,30,134,43*70
###2023-12-09 12:35:20.959881$GLGSV,2,1,05,71,57,169,47,72,65,310,48,73,48,033,45,74,71,290,43*62
###2023-12-09 12:35:20.961338$GLGSV,2,2,05,75,22,241,46,,,,,,,,,,,,*57
###2023-12-09 12:35:20.963684$GAGSV,1,1,04,04,21,311,45,19,81,302,41,21,78,176,46,27,41,049,42*69
###2023-12-09 12:35:20.966018$GBGSV,2,1,05,14,55,197,44,24,80,347,48,25,33,253,42,26,35,057,43*67
###2023-12-09 12:35:20.967485$GBGSV,2,2,05,33,63,255,48,,,,,,,,,,,,*55
###2023-12-09 12:35:20.968807$GNVTG,300.39,T,,M,0.78,N,1.44,K,A*24
###2023-12-09 12:35:20.970460$GNGST,173520.10,18.000,,,,0.080,0.071,0.160*54
###2023-12-09 12:35:20.971769$GNZDA,173520.10,09,12,2023,00,00*72
###2023-12-09 12:35:20.972449$GNEBP,,,,,,M*13
###2023-12-09 12:35:21.135472$GNGGA,173520.30,4138.0490371,N,07032.4244412,W,1,23,0.7,13.300,M,-29.745,M,0.0,*59
###2023-12-09 12:35:21.334650$GNGGA,173520.50,4138.0490210,N,07032.4244097,W,1,23,0.7,13.317,M,-29.745,M,0.0,*56
###2023-12-09 12:35:21.534921$GNGGA,173520.70,4138.0490141,N,07032.4244012,W,1,23,0.7,13.305,M,-29.745,M,0.0,*5D
###2023-12-09 12:35:21.735760$GNGGA,173520.90,4138.0490344,N,07032.4244513,W,1,23,0.7,13.307,M,-29.745,M,0.0,*52
###2023-12-09 12:35:21.935135$GNRMC,173521.10,A,4138.0490514,N,07032.4244989,W,0.29,300.39,091223,,,A*52
###2023-12-09 12:35:21.937971$GNGGA,173521.10,4138.0490514,N,07032.4244989,W,1,23,0.7,13.303,M,-29.745,M,0.0,*53
###2023-12-09 12:35:21.939830$GPGSA,A,3,03,04,16,26,28,29,31,32,,,,,1.2,0.7,1.0*31
###2023-12-09 12:35:21.941475$GLGSA,A,3,71,72,73,74,75,,,,,,,,1.2,0.7,1.0*2D
###2023-12-09 12:35:21.943066$GAGSA,A,3,04,19,21,27,,,,,,,,,1.2,0.7,1.0*2C
###2023-12-09 12:35:21.944707$GBGSA,A,3,14,24,25,26,33,,,,,,,,1.2,0.7,1.0*25
###2023-12-09 12:35:21.947061$GPGSV,2,1,08,03,39,277,46,04,22,311,44,16,37,207,45,26,66,206,48*77
###2023-12-09 12:35:21.949403$GPGSV,2,2,08,28,58,056,43,29,25,074,38,31,73,001,47,32,30,134,40*72
###2023-12-09 12:35:21.951750$GLGSV,2,1,05,71,57,169,46,72,65,310,48,73,48,033,46,74,71,290,44*67
###2023-12-09 12:35:21.953203$GLGSV,2,2,05,75,22,241,46,,,,,,,,,,,,*57
###2023-12-09 12:35:21.955537$GAGSV,1,1,04,04,21,311,45,19,81,302,41,21,78,176,46,27,41,049,42*69
###2023-12-09 12:35:21.958131$GBGSV,2,1,05,14,55,197,44,24,80,347,49,25,33,253,43,26,35,057,43*67
###2023-12-09 12:35:21.959627$GBGSV,2,2,05,33,63,255,49,,,,,,,,,,,,*54
###2023-12-09 12:35:21.960958$GNVTG,300.39,T,,M,0.29,N,0.54,K,A*20
###2023-12-09 12:35:21.962623$GNGST,173521.10,18.000,,,,0.080,0.071,0.160*55
###2023-12-09 12:35:21.963918$GNZDA,173521.10,09,12,2023,00,00*73
###2023-12-09 12:35:21.964558$GNEBP,,,,,,M*13
###2023-12-09 12:35:22.136915$GNGGA,173521.30,4138.0490422,N,07032.4244861,W,1,23,0.7,13.324,M,-29.745,M,0.0,*57
###2023-12-09 12:35:22.335608$GNGGA,173521.50,4138.0490266,N,07032.4244530,W,1,23,0.7,13.334,M,-29.745,M,0.0,*5F
