###2023-12-09 13:45:00.024269$GBGSV,1,1,04,12,19,123,42,24,59,051,48,25,54,281,42,35,16,052,39*67
###2023-12-09 13:45:00.025633$GNVTG,243.17,T,,M,0.04,N,0.07,K,A*23
###2023-12-09 13:45:00.027272$GNGST,184459.10,7.600,,,,0.190,0.110,0.300*69
###2023-12-09 13:45:00.028566$GNZDA,184459.10,09,12,2023,00,00*75
###2023-12-09 13:45:00.029208$GNEBP,,,,,,M*13
###2023-12-09 13:45:00.200878$GNGGA,184459.30,4138.0392385,N,07032.4388860,W,1,18,0.8,13.939,M,-29.746,M,0.0,*5C
###2023-12-09 13:45:00.400638$GNGGA,184459.50,4138.0392380,N,07032.4388876,W,1,18,0.8,13.940,M,-29.746,M,0.0,*56
###2023-12-09 13:45:00.598855$GNGGA,184459.70,4138.0392376,N,07032.4388882,W,1,18,0.8,13.946,M,-29.746,M,0.0,*50
###2023-12-09 13:45:00.799324$GNGGA,184459.90,4138.0392378,N,07032.4388882,W,1,18,0.8,13.950,M,-29.746,M,0.0,*57
###2023-12-09 13:45:01.002159$GNRMC,184500.10,A,4138.0392394,N,07032.4388881,W,0.08,243.17,091223,,,A*53
###2023-12-09 13:45:01.005038$GNGGA,184500.10,4138.0392394,N,07032.4388881,W,1,18,0.8,13.953,M,-29.746,M,0.0,*50
###2023-12-09 13:45:01.006777$GPGSA,A,3,04,16,26,28,29,31,,,,,,,1.3,0.8,1.1*3C
###2023-12-09 13:45:01.008420$GLGSA,A,3,65,73,74,75,83,,,,,,,,1.3,0.8,1.1*29
###2023-12-09 13:45:01.009934$GAGSA,A,3,04,21,27,,,,,,,,,,1.3,0.8,1.1*2B
###2023-12-09 13:45:01.011524$GBGSA,A,3,12,24,25,35,,,,,,,,,1.3,0.8,1.1*2E
###2023-12-09 13:45:01.013839$GPGSV,2,1,06,04,50,305,45,16,71,227,43,26,79,041,40,28,35,088,45*7D
###2023-12-09 13:45:01.015587$GPGSV,2,2,06,29,18,043,43,31,56,072,49,,,,,,,,*74
###2023-12-09 13:45:01.017905$GLGSV,2,1,05,65,42,313,45,73,18,056,44,74,56,022,36,75,47,279,45*61
###2023-12-09 13:45:01.019366$GLGSV,2,2,05,83,16,042,37,,,,,,,,,,,,*5E
###2023-12-09 13:45:01.021390$GAGSV,1,1,03,04,43,308,45,21,73,044,35,27,19,051,40,,,,*5E
###2023-12-09 13:45:01.023718$GBGSV,1,1,04,12,19,123,42,24,59,051,48,25,54,281,42,35,16,052,38*66
###2023-12-09 13:45:01.025043$GNVTG,243.17,T,,M,0.08,N,0.14,K,A*2D
###2023-12-09 13:45:01.026665$GNGST,184500.10,7.100,,,,0.190,0.110,0.300*63
###2023-12-09 13:45:01.027951$GNZDA,184500.10,09,12,2023,00,00*78
###2023-12-09 13:45:01.028586$GNEBP,,,,,,M*13
###2023-12-09 13:45:01.199703$GNGGA,184500.30,4138.0392415,N,07032.4388873,W,1,18,0.8,13.958,M,-29.746,M,0.0,*5A
###2023-12-09 13:45:01.400459$GNGGA,184500.50,4138.0392436,N,07032.4388867,W,1,19,0.8,13.960,M,-29.746,M,0.0,*52
###2023-12-09 13:45:01.599050$GNGGA,184500.70,4138.0392454,N,07032.4388870,W,1,19,0.8,13.956,M,-29.746,M,0.0,*57
###2023-12-09 13:45:01.799728$GNGGA,184500.90,4138.0392457,N,07032.4388853,W,1,19,0.8,13.963,M,-29.746,M,0.0,*5D
###2023-12-09 13:45:02.004805$GNRMC,184501.10,A,4138.0392456,N,07032.4388850,W,0.04,243.17,091223,,,A*5B
###2023-12-09 13:45:02.007780$GNGGA,184501.10,4138.0392456,N,07032.4388850,W,1,18,0.8,13.967,M,-29.746,M,0.0,*53
###2023-12-09 13:45:02.009509$GPGSA,A,3,04,16,26,28,29,31,,,,,,,1.3,0.8,1.1*3C
###2023-12-09 13:45:02.011166$GLGSA,A,3,65,73,74,75,83,,,,,,,,1.3,0.8,1.1*29
###2023-12-09 13:45:02.012679$GAGSA,A,3,04,21,27,,,,,,,,,,1.3,0.8,1.1*2B
###2023-12-09 13:45:02.014253$GBGSA,A,3,12,24,25,35,,,,,,,,,1.3,0.8,1.1*2E
###2023-12-09 13:45:02.016587$GPGSV,2,1,06,04,50,305,46,16,71,227,43,26,79,041,39,28,34,089,46*73
###2023-12-09 13:45:02.018334$GPGSV,2,2,06,29,18,043,44,31,56,072,49,,,,,,,,*73
###2023-12-09 13:45:02.020662$GLGSV,2,1,05,65,42,313,45,73,18,056,44,74,56,022,37,75,47,279,45*60
###2023-12-09 13:45:02.022118$GLGSV,2,2,05,83,16,042,37,,,,,,,,,,,,*5E
###2023-12-09 13:45:02.024155$GAGSV,1,1,03,04,43,308,45,21,73,044,35,27,19,051,40,,,,*5E
###2023-12-09 13:45:02.026475$GBGSV,1,1,04,12,19,123,42,24,59,051,48,25,54,281,42,35,16,052,39*67
###2023-12-09 13:45:02.027813$GNVTG,243.17,T,,M,0.04,N,0.07,K,A*23
###2023-12-09 13:45:02.029429$GNGST,184501.10,7.400,,,,0.190,0.110,0.300*67
###2023-12-09 13:45:02.030730$GNZDA,184501.10,09,12,2023,00,00*79
###2023-12-09 13:45:02.031368$GNEBP,,,,,,M*13
###2023-12-09 13:45:02.200613$GNGGA,184501.30,4138.0392456,N,07032.4388834,W,1,18,0.8,13.975,M,-29.746,M,0.0,*50
###2023-12-09 13:45:02.400447$GNGGA,184501.50,4138.0392466,N,07032.4388835,W,1,17,0.8,13.980,M,-29.746,M,0.0,*51
###2023-12-09 13:45:02.600205$GNGGA,184501.70,4138.0392460,N,07032.4388822,W,1,17,0.8,13.988,M,-29.746,M,0.0,*5B
###2023-12-09 13:45:02.800256$GNGGA,184501.90,4138.0392466,N,07032.4388825,W,1,17,0.8,13.988,M,-29.746,M,0.0,*54
###2023-12-09 13:45:03.001236$GNRMC,184502.10,A,4138.0392497,N,07032.4388838,W,0.06,243.17,091223,,,A*59
###2023-12-09 13:45:03.004120$GNGGA,184502.10,4138.0392497,N,07032.4388838,W,1,18,0.8,13.996,M,-29.746,M,0.0,*5D
###2023-12-09 13:45:03.005848$GPGSA,A,3,04,16,26,28,29,31,,,,,,,1.3,0.8,1.1*3C
###2023-12-09 13:45:03.007505$GLGSA,A,3,65,73,74,75,83,,,,,,,,1.3,0.8,1.1*29
###2023-12-09 13:45:03.009019$GAGSA,A,3,04,21,27,,,,,,,,,,1.3,0.8,1.1*2B
###2023-12-09 13:45:03.010608$GBGSA,A,3,12,24,25,35,,,,,,,,,1.3,0.8,1.1*2E
###2023-12-09 13:45:03.012931$GPGSV,2,1,06,04,50,305,46,16,71,227,44,26,79,041,39,28,34,089,45*77
###2023-12-09 13:45:03.014679$GPGSV,2,2,06,29,18,043,43,31,56,072,49,,,,,,,,*74
###2023-12-09 13:45:03.017004$GLGSV,2,1,05,65,42,313,45,73,18,056,43,74,56,022,37,75,47,279,45*67
###2023-12-09 13:45:03.018456$GLGSV,2,2,05,83,16,042,37,,,,,,,,,,,,*5E
###2023-12-09 13:45:03.020492$GAGSV,1,1,03,04,43,308,45,21,73,044,35,27,19,051,40,,,,*5E
###2023-12-09 13:45:03.022823$GBGSV,1,1,04,12,19,123,42,24,59,051,48,25,54,281,42,35,16,052,38*66
###2023-12-09 13:45:03.024148$GNVTG,243.17,T,,M,0.06,N,0.11,K,A*26
###2023-12-09 13:45:03.025762$GNGST,184502.10,6.900,,,,0.190,0.110,0.300*68
###2023-12-09 13:45:03.027064$GNZDA,184502.10,09,12,2023,00,00*7A
###2023-12-09 13:45:03.027701$GNEBP,,,,,,M*13
###2023-12-09 13:45:03.206194$GNGGA,184502.30,4138.0392490,N,07032.4388838,W,1,17,0.8,14.000,M,-29.746,M,0.0,*56
###2023-12-09 13:45:03.399143$GNGGA,184502.50,4138.0392522,N,07032.4388830,W,1,18,0.8,14.002,M,-29.746,M,0.0,*5D
###2023-12-09 13:45:03.598878$GNGGA,184502.70,4138.0392580,N,07032.4388822,W,1,18,0.8,14.009,M,-29.746,M,0.0,*5F
###2023-12-09 13:45:03.803698$GNGGA,184502.90,4138.0392598,N,07032.4388822,W,1,19,0.8,14.007,M,-29.746,M,0.0,*57
###2023-12-09 13:45:04.004330$GNRMC,184503.10,A,4138.0392604,N,07032.4388814,W,0.02,243.17,091223,,,A*5A
###2023-12-09 13:45:04.007183$GNGGA,184503.10,4138.0392604,N,07032.4388814,W,1,19,0.8,14.009,M,-29.746,M,0.0,*53
###2023-12-09 13:45:04.008901$GPGSA,A,3,04,16,26,28,29,31,,,,,,,1.3,0.8,1.1*3C
###2023-12-09 13:45:04.010629$GLGSA,A,3,65,72,73,74,75,83,,,,,,,1.3,0.8,1.1*2C
###2023-12-09 13:45:04.012144$GAGSA,A,3,04,21,27,,,,,,,,,,1.3,0.8,1.1*2B
###2023-12-09 13:45:04.013714$GBGSA,A,3,12,24,25,35,,,,,,,,,1.3,0.8,1.1*2E
###2023-12-09 13:45:04.016049$GPGSV,2,1,06,04,50,305,46,16,71,227,44,26,79,041,39,28,34,089,46*74
###2023-12-09 13:45:04.017787$GPGSV,2,2,06,29,18,043,43,31,56,072,49,,,,,,,,*74
###2023-12-09 13:45:04.020114$GLGSV,2,1,06,65,42,313,45,72,57,214,35,73,18,056,43,74,56,022,37*6E
###2023-12-09 13:45:04.021852$GLGSV,2,2,06,75,47,279,45,83,16,042,37,,,,,,,,*61
###2023-12-09 13:45:04.023880$GAGSV,1,1,03,04,43,308,44,21,73,044,35,27,19,051,40,,,,*5F
###2023-12-09 13:45:04.026198$GBGSV,1,1,04,12,19,123,42,24,59,051,48,25,54,281,41,35,16,052,39*64
###2023-12-09 13:45:04.027539$GNVTG,243.17,T,,M,0.02,N,0.04,K,A*26
###2023-12-09 13:45:04.029154$GNGST,184503.10,7.500,,,,0.190,0.110,0.300*64
###2023-12-09 13:45:04.030440$GNZDA,184503.10,09,12,2023,00,00*7B
###2023-12-09 13:45:04.031089$GNEBP,,,,,,M*13
###2023-12-09 13:45:04.200620$GNGGA,184503.30,4138.0392624,N,07032.4388807,W,1,19,0.8,14.012,M,-29.746,M,0.0,*5B
###2023-12-09 13:45:04.400582$GNGGA,184503.50,4138.0392633,N,07032.4388804,W,1,19,0.8,14.017,M,-29.746,M,0.0,*5D
###2023-12-09 13:45:04.599688$GNGGA,184503.70,4138.0392655,N,07032.4388792,W,1,18,0.8,14.024,M,-29.746,M,0.0,*5E
###2023-12-09 13:45:04.800169$GNGGA,184503.90,4138.0392670,N,07032.4388792,W,1,19,0.8,14.030,M,-29.746,M,0.0,*53
###2023-12-09 13:45:05.002233$GNRMC,184504.10,A,4138.0392689,N,07032.4388791,W,0.02,243.17,091223,,,A*5A
###2023-12-09 13:45:05.005215$GNGGA,184504.10,4138.0392689,N,07032.4388791,W,1,19,0.8,14.035,M,-29.746,M,0.0,*5C
###2023-12-09 13:45:05.006965$GPGSA,A,3,04,16,26,28,29,31,,,,,,,1.3,0.8,1.1*3C
###2023-12-09 13:45:05.008921$GLGSA,A,3,65,72,73,74,75,83,,,,,,,1.3,0.8,1.1*2C
###2023-12-09 13:45:05.010434$GAGSA,A,3,04,21,27,,,,,,,,,,1.3,0.8,1.1*2B
###2023-12-09 13:45:05.012028$GBGSA,A,3,12,24,25,35,,,,,,,,,1.3,0.8,1.1*2E
###2023-12-09 13:45:05.014348$GPGSV,2,1,06,04,51,304,46,16,71,227,43,26,79,041,39,28,34,089,46*73
###2023-12-09 13:45:05.016099$GPGSV,2,2,06,29,18,043,44,31,56,072,49,,,,,,,,*73
###2023-12-09 13:45:05.018415$GLGSV,2,1,06,65,42,313,45,72,57,214,35,73,18,056,43,74,56,022,38*61
###2023-12-09 13:45:05.020162$GLGSV,2,2,06,75,47,279,45,83,16,042,38,,,,,,,,*6E
###2023-12-09 13:45:05.022195$GAGSV,1,1,03,04,43,308,44,21,73,044,35,27,19,051,40,,,,*5F
