###2023-12-09 12:46:43.345197$GNGGA,174642.50,4138.0478467,N,07032.3930105,W,1,24,0.6,13.300,M,-29.745,M,0.0,*53
###2023-12-09 12:46:43.544743$GNGGA,174642.70,4138.0478453,N,07032.3930451,W,1,24,0.6,13.301,M,-29.745,M,0.0,*53
###2023-12-09 12:46:43.744396$GNGGA,174642.90,4138.0478414,N,07032.3930611,W,1,24,0.6,13.293,M,-29.745,M,0.0,*52
###2023-12-09 12:46:43.944240$GNRMC,174643.10,A,4138.0478353,N,07032.3930645,W,0.17,272.88,091223,,,A*52
###2023-12-09 12:46:43.947129$GNGGA,174643.10,4138.0478353,N,07032.3930645,W,1,24,0.6,13.295,M,-29.745,M,0.0,*58
###2023-12-09 12:46:43.949000$GPGSA,A,3,03,04,16,26,28,29,31,32,,,,,1.1,0.6,0.9*3B
###2023-12-09 12:46:43.950733$GLGSA,A,3,65,71,72,73,74,75,,,,,,,1.1,0.6,0.9*24
###2023-12-09 12:46:43.952314$GAGSA,A,3,04,19,21,27,,,,,,,,,1.1,0.6,0.9*26
###2023-12-09 12:46:43.953959$GBGSA,A,3,14,24,25,26,33,,,,,,,,1.1,0.6,0.9*2F
###2023-12-09 12:46:43.956307$GPGSV,2,1,08,03,37,270,44,04,26,311,41,16,42,209,43,26,72,208,48*7C
###2023-12-09 12:46:43.958656$GPGSV,2,2,08,28,54,062,45,29,26,068,42,31,72,018,48,32,25,137,45*78
###2023-12-09 12:46:43.960996$GLGSV,2,1,06,65,17,329,40,71,50,171,46,72,70,297,47,73,43,037,46*67
###2023-12-09 12:46:43.962762$GLGSV,2,2,06,74,71,310,43,75,26,245,42,,,,,,,,*60
###2023-12-09 12:46:43.965096$GAGSV,1,1,04,04,24,312,40,19,84,276,41,21,82,165,46,27,38,049,43*65
###2023-12-09 12:46:43.967448$GBGSV,2,1,05,14,50,195,44,24,78,005,49,25,36,256,45,26,31,059,43*6E
###2023-12-09 12:46:43.968912$GBGSV,2,2,05,33,61,245,48,,,,,,,,,,,,*56
###2023-12-09 12:46:43.970235$GNVTG,272.88,T,,M,0.17,N,0.32,K,A*23
###2023-12-09 12:46:43.971896$GNGST,174643.10,18.000,,,,0.079,0.069,0.160*5A
###2023-12-09 12:46:43.973191$GNZDA,174643.10,09,12,2023,00,00*73
###2023-12-09 12:46:43.973832$GNEBP,,,,,,M*13
###2023-12-09 12:46:44.144240$GNGGA,174643.30,4138.0478334,N,07032.3930918,W,1,24,0.6,13.307,M,-29.745,M,0.0,*56
###2023-12-09 12:46:44.345414$GNGGA,174643.50,4138.0478336,N,07032.3931314,W,1,24,0.6,13.311,M,-29.745,M,0.0,*52
###2023-12-09 12:46:44.544565$GNGGA,174643.70,4138.0478299,N,07032.3931443,W,1,24,0.6,13.301,M,-29.745,M,0.0,*50
###2023-12-09 12:46:44.745424$GNGGA,174643.90,4138.0478245,N,07032.3931465,W,1,24,0.6,13.301,M,-29.745,M,0.0,*5B
###2023-12-09 12:46:44.953189$GNRMC,174644.10,A,4138.0478212,N,07032.3931771,W,0.58,272.88,091223,,,A*5D
###2023-12-09 12:46:44.956074$GNGGA,174644.10,4138.0478212,N,07032.3931771,W,1,24,0.6,13.305,M,-29.745,M,0.0,*54
###2023-12-09 12:46:44.957965$GPGSA,A,3,03,04,16,26,28,29,31,32,,,,,1.1,0.6,0.9*3B
###2023-12-09 12:46:44.959755$GLGSA,A,3,65,71,72,73,74,75,,,,,,,1.1,0.6,0.9*24
###2023-12-09 12:46:44.961346$GAGSA,A,3,04,19,21,27,,,,,,,,,1.1,0.6,0.9*26
###2023-12-09 12:46:44.963003$GBGSA,A,3,14,24,25,26,33,,,,,,,,1.1,0.6,0.9*2F
###2023-12-09 12:46:44.965331$GPGSV,2,1,08,03,37,270,44,04,26,311,41,16,42,209,44,26,72,208,48*7B
###2023-12-09 12:46:44.967689$GPGSV,2,2,08,28,54,062,45,29,26,068,41,31,72,018,48,32,25,137,45*7B
###2023-12-09 12:46:44.970024$GLGSV,2,1,06,65,17,329,40,71,50,171,46,72,70,297,47,73,43,037,46*67
###2023-12-09 12:46:44.971782$GLGSV,2,2,06,74,71,310,43,75,26,245,41,,,,,,,,*63
###2023-12-09 12:46:44.974104$GAGSV,1,1,04,04,24,312,40,19,84,276,41,21,82,165,46,27,38,049,43*65
###2023-12-09 12:46:44.976445$GBGSV,2,1,05,14,50,195,44,24,78,008,48,25,36,256,44,26,31,059,43*63
###2023-12-09 12:46:44.977894$GBGSV,2,2,05,33,61,245,47,,,,,,,,,,,,*59
###2023-12-09 12:46:44.979229$GNVTG,272.88,T,,M,0.58,N,1.08,K,A*20
###2023-12-09 12:46:44.980875$GNGST,174644.10,18.000,,,,0.078,0.069,0.160*5C
###2023-12-09 12:46:44.982162$GNZDA,174644.10,09,12,2023,00,00*74
###2023-12-09 12:46:44.982812$GNEBP,,,,,,M*13
###2023-12-09 12:46:45.144583$GNGGA,174644.30,4138.0478199,N,07032.3932149,W,1,24,0.6,13.305,M,-29.745,M,0.0,*58
###2023-12-09 12:46:45.345362$GNGGA,174644.50,4138.0478173,N,07032.3932323,W,1,24,0.6,13.304,M,-29.745,M,0.0,*55
###2023-12-09 12:46:45.545687$GNGGA,174644.70,4138.0478124,N,07032.3932446,W,1,24,0.6,13.320,M,-29.745,M,0.0,*57
###2023-12-09 12:46:45.750465$GNGGA,174644.90,4138.0478091,N,07032.3932662,W,1,24,0.6,13.328,M,-29.745,M,0.0,*5A
###2023-12-09 12:46:45.944161$GNRMC,174645.10,A,4138.0478081,N,07032.3932902,W,0.31,272.88,091223,,,A*52
###2023-12-09 12:46:45.947093$GNGGA,174645.10,4138.0478081,N,07032.3932902,W,1,24,0.6,13.318,M,-29.745,M,0.0,*58
###2023-12-09 12:46:45.949019$GPGSA,A,3,03,04,16,26,28,29,31,32,,,,,1.1,0.6,0.9*3B
###2023-12-09 12:46:45.950818$GLGSA,A,3,65,71,72,73,74,75,,,,,,,1.1,0.6,0.9*24
###2023-12-09 12:46:45.952422$GAGSA,A,3,04,19,21,27,,,,,,,,,1.1,0.6,0.9*26
###2023-12-09 12:46:45.954078$GBGSA,A,3,14,24,25,26,33,,,,,,,,1.1,0.6,0.9*2F
###2023-12-09 12:46:45.956433$GPGSV,2,1,08,03,37,270,44,04,26,311,41,16,42,209,44,26,72,208,48*7B
###2023-12-09 12:46:45.958801$GPGSV,2,2,08,28,54,062,45,29,26,068,41,31,72,018,48,32,25,137,45*7B
###2023-12-09 12:46:45.961148$GLGSV,2,1,06,65,17,329,40,71,50,171,46,72,70,297,47,73,43,037,46*67
###2023-12-09 12:46:45.962918$GLGSV,2,2,06,74,71,310,43,75,26,245,42,,,,,,,,*60
###2023-12-09 12:46:45.965257$GAGSV,1,1,04,04,24,312,41,19,84,276,41,21,82,165,46,27,38,049,43*64
###2023-12-09 12:46:45.967612$GBGSV,2,1,05,14,50,195,44,24,78,008,49,25,36,257,44,26,31,059,43*63
###2023-12-09 12:46:45.969076$GBGSV,2,2,05,33,61,245,47,,,,,,,,,,,,*59
###2023-12-09 12:46:45.970403$GNVTG,272.88,T,,M,0.31,N,0.58,K,A*2B
###2023-12-09 12:46:45.972072$GNGST,174645.10,18.000,,,,0.078,0.069,0.160*5D
###2023-12-09 12:46:45.973369$GNZDA,174645.10,09,12,2023,00,00*75
###2023-12-09 12:46:45.974010$GNEBP,,,,,,M*13
###2023-12-09 12:46:46.148444$GNGGA,174645.30,4138.0478053,N,07032.3933095,W,1,24,0.6,13.310,M,-29.745,M,0.0,*5B
###2023-12-09 12:46:46.345501$GNGGA,174645.50,4138.0478010,N,07032.3933279,W,1,24,0.6,13.330,M,-29.745,M,0.0,*58
###2023-12-09 12:46:46.545453$GNGGA,174645.70,4138.0478005,N,07032.3933650,W,1,24,0.6,13.361,M,-29.745,M,0.0,*55
###2023-12-09 12:46:46.744363$GNGGA,174645.90,4138.0478015,N,07032.3934020,W,1,24,0.6,13.370,M,-29.745,M,0.0,*5C
###2023-12-09 12:46:46.946356$GNRMC,174646.10,A,4138.0478013,N,07032.3934029,W,0.23,272.88,091223,,,A*5F
###2023-12-09 12:46:46.949291$GNGGA,174646.10,4138.0478013,N,07032.3934029,W,1,24,0.6,13.344,M,-29.745,M,0.0,*5F
###2023-12-09 12:46:46.951182$GPGSA,A,3,03,04,16,26,28,29,31,32,,,,,1.1,0.6,0.9*3B
###2023-12-09 12:46:46.952900$GLGSA,A,3,65,71,72,73,74,75,,,,,,,1.1,0.6,0.9*24
###2023-12-09 12:46:46.954485$GAGSA,A,3,04,19,21,27,,,,,,,,,1.1,0.6,0.9*26
###2023-12-09 12:46:46.956156$GBGSA,A,3,14,24,25,26,33,,,,,,,,1.1,0.6,0.9*2F
###2023-12-09 12:46:46.958489$GPGSV,2,1,08,03,37,270,45,04,26,311,41,16,42,209,43,26,72,208,48*7D
###2023-12-09 12:46:46.960842$GPGSV,2,2,08,28,54,062,45,29,26,068,41,31,72,018,48,32,25,137,45*7B
###2023-12-09 12:46:46.963204$GLGSV,2,1,06,65,17,329,41,71,50,171,47,72,70,297,46,73,43,037,46*66
###2023-12-09 12:46:46.964962$GLGSV,2,2,06,74,71,310,43,75,26,245,42,,,,,,,,*60
###2023-12-09 12:46:46.967301$GAGSV,1,1,04,04,24,312,41,19,84,276,41,21,82,165,46,27,38,049,44*63
###2023-12-09 12:46:46.969635$GBGSV,2,1,05,14,50,195,45,24,78,008,48,25,36,257,43,26,31,060,43*6E
###2023-12-09 12:46:46.971105$GBGSV,2,2,05,33,61,245,47,,,,,,,,,,,,*59
###2023-12-09 12:46:46.972429$GNVTG,272.88,T,,M,0.23,N,0.43,K,A*22
###2023-12-09 12:46:46.974083$GNGST,174646.10,18.000,,,,0.078,0.069,0.160*5E
###2023-12-09 12:46:46.975394$GNZDA,174646.10,09,12,2023,00,00*76
###2023-12-09 12:46:46.976033$GNEBP,,,,,,M*13
###2023-12-09 12:46:47.147374$GNGGA,174646.30,4138.0477974,N,07032.3933977,W,1,24,0.6,13.319,M,-29.745,M,0.0,*57
###2023-12-09 12:46:47.347450$GNGGA,174646.50,4138.0477969,N,07032.3934450,W,1,24,0.6,13.347,M,-29.745,M,0.0,*59
###2023-12-09 12:46:47.547545$GNGGA,174646.70,4138.0478020,N,07032.3935127,W,1,24,0.6,13.376,M,-29.745,M,0.0,*56
###2023-12-09 12:46:47.747295$GNGGA,174646.90,4138.0478015,N,07032.3935259,W,1,24,0.6,13.380,M,-29.745,M,0.0,*5D
###2023-12-09 12:46:47.947239$GNRMC,174647.10,A,4138.0477965,N,07032.3934972,W,0.35,277.48,091223,,,A*50
###2023-12-09 12:46:47.950105$GNGGA,174647.10,4138.0477965,N,07032.3934972,W,1,24,0.6,13.361,M,-29.745,M,0.0,*59
###2023-12-09 12:46:47.951988$GPGSA,A,3,03,04,16,26,28,29,31,32,,,,,1.1,0.6,0.9*3B
###2023-12-09 12:46:47.953958$GLGSA,A,3,65,71,72,73,74,75,,,,,,,1.1,0.6,0.9*24
###2023-12-09 12:46:47.955570$GAGSA,A,3,04,19,21,27,,,,,,,,,1.1,0.6,0.9*26
###2023-12-09 12:46:47.957224$GBGSA,A,3,14,24,25,26,33,,,,,,,,1.1,0.6,0.9*2F
###2023-12-09 12:46:47.959574$GPGSV,2,1,08,03,37,270,44,04,26,311,40,16,42,209,43,26,72,208,48*7D
###2023-12-09 12:46:47.961909$GPGSV,2,2,08,28,54,062,45,29,26,068,43,31,72,018,48,32,25,137,45*79
###2023-12-09 12:46:47.964253$GLGSV,2,1,06,65,17,329,40,71,50,171,46,72,70,297,46,73,43,037,47*67
###2023-12-09 12:46:47.965998$GLGSV,2,2,06,74,71,310,42,75,26,245,41,,,,,,,,*62
###2023-12-09 12:46:47.968335$GAGSV,1,1,04,04,24,312,40,19,84,276,41,21,82,165,46,27,38,049,44*62
###2023-12-09 12:46:47.970673$GBGSV,2,1,05,14,50,195,45,24,78,008,49,25,36,257,44,26,31,060,44*6F
###2023-12-09 12:46:47.972127$GBGSV,2,2,05,33,61,245,48,,,,,,,,,,,,*56
