###2023-12-09 12:25:31.926160$GPGSA,A,3,03,16,25,26,28,29,31,32,,,,,1.2,0.7,1.0*32
###2023-12-09 12:25:31.927811$GLGSA,A,3,71,72,73,75,,,,,,,,,1.2,0.7,1.0*2E
###2023-12-09 12:25:31.929352$GAGSA,A,3,04,21,27,,,,,,,,,,1.2,0.7,1.0*24
###2023-12-09 12:25:31.930968$GBGSA,A,3,14,25,26,33,,,,,,,,,1.2,0.7,1.0*23
###2023-12-09 12:25:31.933304$GPGSV,2,1,08,03,39,282,43,16,32,206,38,25,15,045,39,26,62,205,44*72
###2023-12-09 12:25:31.935660$GPGSV,2,2,08,28,61,050,43,29,24,079,43,31,73,344,36,32,34,131,47*7C
###2023-12-09 12:25:31.938001$GLGSV,1,1,04,71,62,167,44,72,61,316,42,73,52,030,48,75,18,237,43*65
###2023-12-09 12:25:31.940075$GAGSV,1,1,03,04,18,310,35,21,74,180,45,27,45,051,47,,,,*59
###2023-12-09 12:25:31.942410$GBGSV,1,1,04,14,59,200,45,25,29,249,40,26,38,055,48,33,64,264,37*67
###2023-12-09 12:25:31.943573$GNVTG,,T,,M,0.00,N,0.00,K,A*3D
###2023-12-09 12:25:31.945232$GNGST,172531.10,30.000,,,,0.230,0.220,0.460*55
###2023-12-09 12:25:31.946535$GNZDA,172531.10,09,12,2023,00,00*73
###2023-12-09 12:25:31.947233$GNEBP,,,,,,M*13
###2023-12-09 12:25:32.117568$GNGGA,172531.30,4138.0386277,N,07032.4362842,W,1,19,0.7,10.424,M,-29.746,M,0.0,*5B
###2023-12-09 12:25:32.317315$GNGGA,172531.50,4138.0386244,N,07032.4362822,W,1,19,0.7,10.420,M,-29.746,M,0.0,*5F
###2023-12-09 12:25:32.516718$GNGGA,172531.70,4138.0386216,N,07032.4362809,W,1,19,0.7,10.419,M,-29.746,M,0.0,*59
###2023-12-09 12:25:32.715919$GNGGA,172531.90,4138.0386182,N,07032.4362790,W,1,19,0.7,10.418,M,-29.746,M,0.0,*57
###2023-12-09 12:25:32.925743$GNRMC,172532.10,A,4138.0386150,N,07032.4362777,W,0.02,,091223,,,A*41
###2023-12-09 12:25:32.928830$GNGGA,172532.10,4138.0386150,N,07032.4362777,W,1,19,0.7,10.414,M,-29.746,M,0.0,*56
###2023-12-09 12:25:32.930877$GPGSA,A,3,03,16,25,26,28,29,31,32,,,,,1.2,0.7,1.0*32
###2023-12-09 12:25:32.932498$GLGSA,A,3,71,72,73,75,,,,,,,,,1.2,0.7,1.0*2E
###2023-12-09 12:25:32.934042$GAGSA,A,3,04,21,27,,,,,,,,,,1.2,0.7,1.0*24
###2023-12-09 12:25:32.935656$GBGSA,A,3,14,25,26,33,,,,,,,,,1.2,0.7,1.0*23
###2023-12-09 12:25:32.938006$GPGSV,2,1,08,03,39,282,44,16,32,206,38,25,15,045,38,26,62,205,44*74
###2023-12-09 12:25:32.940374$GPGSV,2,2,08,28,61,050,43,29,24,079,42,31,73,344,36,32,34,131,46*7C
###2023-12-09 12:25:32.942740$GLGSV,1,1,04,71,62,167,44,72,61,316,41,73,52,030,48,75,18,237,42*67
###2023-12-09 12:25:32.944806$GAGSV,1,1,03,04,18,310,35,21,74,180,45,27,45,051,47,,,,*59
###2023-12-09 12:25:32.947172$GBGSV,1,1,04,14,59,200,45,25,29,249,40,26,38,055,49,33,64,264,37*66
###2023-12-09 12:25:32.948342$GNVTG,,T,,M,0.02,N,0.04,K,A*3B
###2023-12-09 12:25:32.950011$GNGST,172532.10,30.000,,,,0.230,0.220,0.460*56
###2023-12-09 12:25:32.951348$GNZDA,172532.10,09,12,2023,00,00*70
###2023-12-09 12:25:32.952013$GNEBP,,,,,,M*13
###2023-12-09 12:25:33.118932$GNGGA,172532.30,4138.0386120,N,07032.4362760,W,1,19,0.7,10.412,M,-29.746,M,0.0,*53
###2023-12-09 12:25:33.317548$GNGGA,172532.50,4138.0386082,N,07032.4362737,W,1,19,0.7,10.406,M,-29.746,M,0.0,*5B
###2023-12-09 12:25:33.516704$GNGGA,172532.70,4138.0386055,N,07032.4362713,W,1,19,0.7,10.407,M,-29.746,M,0.0,*54
###2023-12-09 12:25:33.717111$GNGGA,172532.90,4138.0386033,N,07032.4362700,W,1,19,0.7,10.407,M,-29.746,M,0.0,*58
###2023-12-09 12:25:33.917937$GNRMC,172533.10,A,4138.0386005,N,07032.4362686,W,0.02,,091223,,,A*4E
###2023-12-09 12:25:33.921057$GNGGA,172533.10,4138.0386005,N,07032.4362686,W,1,19,0.7,10.404,M,-29.746,M,0.0,*58
###2023-12-09 12:25:33.923138$GPGSA,A,3,03,16,25,26,28,29,31,32,,,,,1.2,0.7,1.0*32
###2023-12-09 12:25:33.924919$GLGSA,A,3,71,72,73,75,,,,,,,,,1.2,0.7,1.0*2E
###2023-12-09 12:25:33.926628$GAGSA,A,3,04,21,27,,,,,,,,,,1.2,0.7,1.0*24
###2023-12-09 12:25:33.928380$GBGSA,A,3,14,25,26,33,,,,,,,,,1.2,0.7,1.0*23
###2023-12-09 12:25:33.930895$GPGSV,2,1,08,03,39,282,44,16,32,206,38,25,15,045,38,26,62,205,44*74
###2023-12-09 12:25:33.933406$GPGSV,2,2,08,28,61,050,43,29,24,078,42,31,73,344,37,32,34,131,47*7D
###2023-12-09 12:25:33.935930$GLGSV,1,1,04,71,62,167,44,72,61,316,41,73,52,030,48,75,18,237,42*67
###2023-12-09 12:25:33.938141$GAGSV,1,1,03,04,18,310,35,21,74,180,45,27,45,051,47,,,,*59
###2023-12-09 12:25:33.940678$GBGSV,1,1,04,14,59,200,45,25,29,249,41,26,38,055,48,33,64,264,38*69
###2023-12-09 12:25:33.941948$GNVTG,,T,,M,0.02,N,0.04,K,A*3B
###2023-12-09 12:25:33.943724$GNGST,172533.10,30.000,,,,0.230,0.220,0.460*57
###2023-12-09 12:25:33.945129$GNZDA,172533.10,09,12,2023,00,00*71
###2023-12-09 12:25:33.945876$GNEBP,,,,,,M*13
###2023-12-09 12:25:34.117841$GNGGA,172533.30,4138.0385980,N,07032.4362656,W,1,19,0.7,10.397,M,-29.746,M,0.0,*5D
###2023-12-09 12:25:34.319175$GNGGA,172533.50,4138.0385956,N,07032.4362639,W,1,19,0.7,10.392,M,-29.746,M,0.0,*5C
###2023-12-09 12:25:34.518963$GNGGA,172533.70,4138.0385934,N,07032.4362618,W,1,19,0.7,10.392,M,-29.746,M,0.0,*59
###2023-12-09 12:25:34.715850$GNGGA,172533.90,4138.0385898,N,07032.4362598,W,1,19,0.7,10.394,M,-29.746,M,0.0,*5D
###2023-12-09 12:25:34.917553$GNRMC,172534.10,A,4138.0385868,N,07032.4362586,W,0.00,,091223,,,A*48
###2023-12-09 12:25:34.920448$GNGGA,172534.10,4138.0385868,N,07032.4362586,W,1,19,0.7,10.388,M,-29.746,M,0.0,*5F
###2023-12-09 12:25:34.922328$GPGSA,A,3,03,16,25,26,28,29,31,32,,,,,1.2,0.7,1.0*32
###2023-12-09 12:25:34.923947$GLGSA,A,3,71,72,73,75,,,,,,,,,1.2,0.7,1.0*2E
###2023-12-09 12:25:34.925485$GAGSA,A,3,04,21,27,,,,,,,,,,1.2,0.7,1.0*24
###2023-12-09 12:25:34.927093$GBGSA,A,3,14,25,26,33,,,,,,,,,1.2,0.7,1.0*23
###2023-12-09 12:25:34.929424$GPGSV,2,1,08,03,39,282,45,16,32,206,38,25,15,045,38,26,62,205,44*75
###2023-12-09 12:25:34.931784$GPGSV,2,2,08,28,61,050,42,29,24,078,42,31,73,346,38,32,34,131,47*71
###2023-12-09 12:25:34.934124$GLGSV,1,1,04,71,62,167,44,72,61,316,41,73,52,030,49,75,18,237,42*66
###2023-12-09 12:25:34.936188$GAGSV,1,1,03,04,18,310,35,21,74,180,45,27,45,051,47,,,,*59
###2023-12-09 12:25:34.938534$GBGSV,1,1,04,14,59,200,45,25,29,249,41,26,38,055,48,33,64,264,38*69
###2023-12-09 12:25:34.939694$GNVTG,,T,,M,0.00,N,0.00,K,A*3D
###2023-12-09 12:25:34.941354$GNGST,172534.10,29.000,,,,0.230,0.220,0.460*58
###2023-12-09 12:25:34.942668$GNZDA,172534.10,09,12,2023,00,00*76
###2023-12-09 12:25:34.943312$GNEBP,,,,,,M*13
###2023-12-09 12:25:35.116694$GNGGA,172534.30,4138.0385829,N,07032.4362563,W,1,19,0.7,10.381,M,-29.746,M,0.0,*5A
###2023-12-09 12:25:35.319388$GNGGA,172534.50,4138.0385796,N,07032.4362542,W,1,19,0.7,10.374,M,-29.746,M,0.0,*5E
###2023-12-09 12:25:35.525529$GNGGA,172534.70,4138.0385763,N,07032.4362528,W,1,19,0.7,10.366,M,-29.746,M,0.0,*59
###2023-12-09 12:25:35.716523$GNGGA,172534.90,4138.0385723,N,07032.4362508,W,1,18,0.8,10.363,M,-29.746,M,0.0,*5A
###2023-12-09 12:25:35.917686$GNRMC,172535.10,A,4138.0385703,N,07032.4362494,W,0.02,,091223,,,A*4B
###2023-12-09 12:25:35.920791$GNGGA,172535.10,4138.0385703,N,07032.4362494,W,1,19,0.7,10.354,M,-29.746,M,0.0,*5F
###2023-12-09 12:25:35.922684$GPGSA,A,3,03,16,25,26,28,29,31,32,,,,,1.2,0.7,1.0*32
###2023-12-09 12:25:35.924290$GLGSA,A,3,71,72,73,75,,,,,,,,,1.2,0.7,1.0*2E
###2023-12-09 12:25:35.925822$GAGSA,A,3,04,21,27,,,,,,,,,,1.2,0.7,1.0*24
###2023-12-09 12:25:35.927434$GBGSA,A,3,14,25,26,33,,,,,,,,,1.2,0.7,1.0*23
###2023-12-09 12:25:35.929769$GPGSV,2,1,08,03,39,282,44,16,32,206,37,25,15,045,38,26,62,205,44*7B
###2023-12-09 12:25:35.932130$GPGSV,2,2,08,28,61,050,43,29,24,078,43,31,73,346,38,32,34,132,47*72
###2023-12-09 12:25:35.934479$GLGSV,1,1,04,71,62,167,45,72,61,316,41,73,52,030,48,75,18,237,42*66
###2023-12-09 12:25:35.936547$GAGSV,1,1,03,04,18,310,35,21,74,180,45,27,45,051,46,,,,*58
###2023-12-09 12:25:35.938914$GBGSV,1,1,04,14,59,200,45,25,29,249,41,26,38,055,49,33,64,264,38*68
###2023-12-09 12:25:35.940062$GNVTG,,T,,M,0.02,N,0.04,K,A*3B
###2023-12-09 12:25:35.941710$GNGST,172535.10,29.000,,,,0.230,0.220,0.460*59
###2023-12-09 12:25:35.943019$GNZDA,172535.10,09,12,2023,00,00*77
###2023-12-09 12:25:35.943670$GNEBP,,,,,,M*13
###2023-12-09 12:25:36.117776$GNGGA,172535.30,4138.0385680,N,07032.4362467,W,1,19,0.7,10.349,M,-29.746,M,0.0,*57
###2023-12-09 12:25:36.317917$GNGGA,172535.50,4138.0385640,N,07032.4362440,W,1,19,0.7,10.347,M,-29.746,M,0.0,*56
###2023-12-09 12:25:36.517341$GNGGA,172535.70,4138.0385624,N,07032.4362434,W,1,19,0.7,10.338,M,-29.746,M,0.0,*5D
###2023-12-09 12:25:36.716479$GNGGA,172535.90,4138.0385600,N,07032.4362408,W,1,19,0.7,10.334,M,-29.746,M,0.0,*56
###2023-12-09 12:25:36.925101$GNRMC,172536.10,A,4138.0385563,N,07032.4362380,W,0.02,,091223,,,A*4E
###2023-12-09 12:25:36.928224$GNGGA,172536.10,4138.0385563,N,07032.4362380,W,1,19,0.7,10.331,M,-29.746,M,0.0,*59
###2023-12-09 12:25:36.930274$GPGSA,A,3,03,16,25,26,28,29,31,32,,,,,1.2,0.7,1.0*32
###2023-12-09 12:25:36.932054$GLGSA,A,3,71,72,73,75,,,,,,,,,1.2,0.7,1.0*2E
###2023-12-09 12:25:36.933740$GAGSA,A,3,04,21,27,,,,,,,,,,1.2,0.7,1.0*24
###2023-12-09 12:25:36.935506$GBGSA,A,3,14,25,26,33,,,,,,,,,1.2,0.7,1.0*23
###2023-12-09 12:25:36.938004$GPGSV,2,1,08,03,39,282,43,16,32,206,38,25,15,045,38,26,62,205,43*74
