###2023-12-09 13:47:36.031446$GNEBP,,,,,,M*13
###2023-12-09 13:47:36.203642$GNGGA,184735.30,4138.0393714,N,07032.4384787,W,1,17,0.8,15.599,M,-29.746,M,0.0,*5D
###2023-12-09 13:47:36.401623$GNGGA,184735.50,4138.0393663,N,07032.4384779,W,1,17,0.8,15.601,M,-29.746,M,0.0,*59
###2023-12-09 13:47:36.601792$GNGGA,184735.70,4138.0393629,N,07032.4384770,W,1,17,0.8,15.607,M,-29.746,M,0.0,*5A
###2023-12-09 13:47:36.802655$GNGGA,184735.90,4138.0393588,N,07032.4384769,W,1,17,0.8,15.609,M,-29.746,M,0.0,*5A
###2023-12-09 13:47:37.005888$GNRMC,184736.10,A,4138.0393538,N,07032.4384757,W,0.04,243.17,091223,,,A*51
###2023-12-09 13:47:37.008772$GNGGA,184736.10,4138.0393538,N,07032.4384757,W,1,17,0.8,15.612,M,-29.746,M,0.0,*5D
###2023-12-09 13:47:37.010495$GPGSA,A,3,04,16,26,28,29,31,,,,,,,1.3,0.8,1.1*3C
###2023-12-09 13:47:37.012156$GLGSA,A,3,65,72,73,74,75,,,,,,,,1.3,0.8,1.1*27
###2023-12-09 13:47:37.013669$GAGSA,A,3,04,21,27,,,,,,,,,,1.3,0.8,1.1*2B
###2023-12-09 13:47:37.015196$GBGSA,A,3,12,24,25,,,,,,,,,,1.3,0.8,1.1*28
###2023-12-09 13:47:37.017509$GPGSV,2,1,06,04,51,304,49,16,73,229,40,26,77,041,41,28,33,090,43*78
###2023-12-09 13:47:37.019254$GPGSV,2,2,06,29,17,042,42,31,55,075,50,,,,,,,,*77
###2023-12-09 13:47:37.021568$GLGSV,2,1,05,65,43,312,43,72,56,213,36,73,17,056,40,74,55,024,37*67
###2023-12-09 13:47:37.023031$GLGSV,2,2,05,75,47,280,46,,,,,,,,,,,,*59
###2023-12-09 13:47:37.025058$GAGSV,1,1,03,04,43,308,46,21,72,043,41,27,19,051,41,,,,*59
###2023-12-09 13:47:37.027108$GBGSV,1,1,03,12,19,122,41,24,58,052,46,25,54,282,44,,,,*57
###2023-12-09 13:47:37.028432$GNVTG,243.17,T,,M,0.04,N,0.07,K,A*23
###2023-12-09 13:47:37.030042$GNGST,184736.10,7.700,,,,0.200,0.120,0.320*69
###2023-12-09 13:47:37.031341$GNZDA,184736.10,09,12,2023,00,00*7F
###2023-12-09 13:47:37.031980$GNEBP,,,,,,M*13
###2023-12-09 13:47:37.204834$GNGGA,184736.30,4138.0393491,N,07032.4384755,W,1,17,0.8,15.614,M,-29.746,M,0.0,*59
###2023-12-09 13:47:37.403607$GNGGA,184736.50,4138.0393474,N,07032.4384739,W,1,17,0.8,15.618,M,-29.746,M,0.0,*52
###2023-12-09 13:47:37.603305$GNGGA,184736.70,4138.0393449,N,07032.4384730,W,1,17,0.8,15.622,M,-29.746,M,0.0,*5E
###2023-12-09 13:47:37.804060$GNGGA,184736.90,4138.0393402,N,07032.4384729,W,1,17,0.8,15.629,M,-29.746,M,0.0,*5C
###2023-12-09 13:47:38.006173$GNRMC,184737.10,A,4138.0393364,N,07032.4384716,W,0.00,243.17,091223,,,A*5E
###2023-12-09 13:47:38.009165$GNGGA,184737.10,4138.0393364,N,07032.4384716,W,1,17,0.8,15.640,M,-29.746,M,0.0,*51
###2023-12-09 13:47:38.010913$GPGSA,A,3,04,16,26,28,29,31,,,,,,,1.3,0.8,1.1*3C
###2023-12-09 13:47:38.012559$GLGSA,A,3,65,72,73,74,75,,,,,,,,1.3,0.8,1.1*27
###2023-12-09 13:47:38.014070$GAGSA,A,3,04,21,27,,,,,,,,,,1.3,0.8,1.1*2B
###2023-12-09 13:47:38.015597$GBGSA,A,3,12,24,25,,,,,,,,,,1.3,0.8,1.1*28
###2023-12-09 13:47:38.017920$GPGSV,2,1,06,04,51,304,49,16,73,229,40,26,77,041,41,28,33,090,43*78
###2023-12-09 13:47:38.019676$GPGSV,2,2,06,29,17,042,42,31,55,075,50,,,,,,,,*77
###2023-12-09 13:47:38.021992$GLGSV,2,1,05,65,43,312,44,72,56,213,36,73,17,056,41,74,55,024,37*61
###2023-12-09 13:47:38.023453$GLGSV,2,2,05,75,47,280,46,,,,,,,,,,,,*59
###2023-12-09 13:47:38.025477$GAGSV,1,1,03,04,43,308,46,21,72,043,41,27,19,051,41,,,,*59
###2023-12-09 13:47:38.027522$GBGSV,1,1,03,12,19,122,41,24,58,052,46,25,54,282,44,,,,*57
###2023-12-09 13:47:38.028844$GNVTG,243.17,T,,M,0.00,N,0.00,K,A*20
###2023-12-09 13:47:38.030455$GNGST,184737.10,7.700,,,,0.200,0.120,0.320*68
###2023-12-09 13:47:38.031758$GNZDA,184737.10,09,12,2023,00,00*7E
###2023-12-09 13:47:38.032398$GNEBP,,,,,,M*13
###2023-12-09 13:47:38.207319$GNGGA,184737.30,4138.0393330,N,07032.4384703,W,1,17,0.8,15.641,M,-29.746,M,0.0,*57
###2023-12-09 13:47:38.403290$GNGGA,184737.50,4138.0393303,N,07032.4384686,W,1,17,0.8,15.646,M,-29.746,M,0.0,*5A
###2023-12-09 13:47:38.602783$GNGGA,184737.70,4138.0393269,N,07032.4384680,W,1,17,0.8,15.649,M,-29.746,M,0.0,*5C
###2023-12-09 13:47:38.805551$GNGGA,184737.90,4138.0393243,N,07032.4384667,W,1,17,0.8,15.657,M,-29.746,M,0.0,*5C
###2023-12-09 13:47:39.004843$GNRMC,184738.10,A,4138.0393198,N,07032.4384662,W,0.10,243.17,091223,,,A*53
###2023-12-09 13:47:39.007713$GNGGA,184738.10,4138.0393198,N,07032.4384662,W,1,17,0.8,15.663,M,-29.746,M,0.0,*5C
###2023-12-09 13:47:39.009443$GPGSA,A,3,04,16,26,28,29,31,,,,,,,1.3,0.8,1.1*3C
###2023-12-09 13:47:39.011102$GLGSA,A,3,65,72,73,74,75,,,,,,,,1.3,0.8,1.1*27
###2023-12-09 13:47:39.012616$GAGSA,A,3,04,21,27,,,,,,,,,,1.3,0.8,1.1*2B
###2023-12-09 13:47:39.014123$GBGSA,A,3,12,24,25,,,,,,,,,,1.3,0.8,1.1*28
###2023-12-09 13:47:39.016444$GPGSV,2,1,06,04,51,304,49,16,73,229,40,26,77,041,42,28,33,090,42*7A
###2023-12-09 13:47:39.018184$GPGSV,2,2,06,29,17,042,42,31,55,075,50,,,,,,,,*77
###2023-12-09 13:47:39.020509$GLGSV,2,1,05,65,43,312,44,72,56,213,36,73,17,056,40,74,55,024,37*60
###2023-12-09 13:47:39.021960$GLGSV,2,2,05,75,47,280,46,,,,,,,,,,,,*59
###2023-12-09 13:47:39.023997$GAGSV,1,1,03,04,43,308,46,21,72,043,41,27,19,051,41,,,,*59
###2023-12-09 13:47:39.026028$GBGSV,1,1,03,12,19,122,41,24,58,052,47,25,54,282,44,,,,*56
###2023-12-09 13:47:39.027353$GNVTG,243.17,T,,M,0.10,N,0.18,K,A*28
###2023-12-09 13:47:39.028959$GNGST,184738.10,7.700,,,,0.210,0.120,0.320*66
###2023-12-09 13:47:39.030240$GNZDA,184738.10,09,12,2023,00,00*71
###2023-12-09 13:47:39.030888$GNEBP,,,,,,M*13
###2023-12-09 13:47:39.209958$GNGGA,184738.30,4138.0393162,N,07032.4384641,W,1,17,0.8,15.667,M,-29.746,M,0.0,*5E
###2023-12-09 13:47:39.405870$GNGGA,184738.50,4138.0393130,N,07032.4384640,W,1,17,0.8,15.669,M,-29.746,M,0.0,*50
###2023-12-09 13:47:39.603178$GNGGA,184738.70,4138.0393092,N,07032.4384626,W,1,17,0.8,15.676,M,-29.746,M,0.0,*55
###2023-12-09 13:47:39.806677$GNGGA,184738.90,4138.0393045,N,07032.4384629,W,1,17,0.8,15.678,M,-29.746,M,0.0,*50
###2023-12-09 13:47:40.004192$GNRMC,184739.10,A,4138.0393003,N,07032.4384620,W,0.06,243.17,091223,,,A*50
###2023-12-09 13:47:40.007064$GNGGA,184739.10,4138.0393003,N,07032.4384620,W,1,17,0.8,15.680,M,-29.746,M,0.0,*55
###2023-12-09 13:47:40.008791$GPGSA,A,3,04,16,26,28,29,31,,,,,,,1.3,0.8,1.1*3C
###2023-12-09 13:47:40.010441$GLGSA,A,3,65,72,73,74,75,,,,,,,,1.3,0.8,1.1*27
###2023-12-09 13:47:40.011967$GAGSA,A,3,04,21,27,,,,,,,,,,1.3,0.8,1.1*2B
###2023-12-09 13:47:40.013475$GBGSA,A,3,12,24,25,,,,,,,,,,1.3,0.8,1.1*28
###2023-12-09 13:47:40.015805$GPGSV,2,1,06,04,51,304,49,16,73,229,40,26,77,041,42,28,33,090,43*7B
###2023-12-09 13:47:40.017545$GPGSV,2,2,06,29,17,042,42,31,55,075,50,,,,,,,,*77
###2023-12-09 13:47:40.019877$GLGSV,2,1,05,65,43,312,44,72,56,213,36,73,17,056,40,74,55,024,36*61
###2023-12-09 13:47:40.021333$GLGSV,2,2,05,75,47,280,47,,,,,,,,,,,,*58
###2023-12-09 13:47:40.023374$GAGSV,1,1,03,04,43,308,46,21,72,043,41,27,19,051,42,,,,*5A
###2023-12-09 13:47:40.025407$GBGSV,1,1,03,12,19,122,41,24,58,052,46,25,54,282,44,,,,*57
###2023-12-09 13:47:40.026738$GNVTG,243.17,T,,M,0.06,N,0.11,K,A*26
###2023-12-09 13:47:40.028352$GNGST,184739.10,7.500,,,,0.210,0.120,0.320*65
###2023-12-09 13:47:40.029640$GNZDA,184739.10,09,12,2023,00,00*70
###2023-12-09 13:47:40.030278$GNEBP,,,,,,M*13
###2023-12-09 13:47:40.203303$GNGGA,184739.30,4138.0392982,N,07032.4384607,W,1,17,0.8,15.685,M,-29.746,M,0.0,*56
###2023-12-09 13:47:40.403304$GNGGA,184739.50,4138.0392965,N,07032.4384596,W,1,17,0.8,15.694,M,-29.746,M,0.0,*52
###2023-12-09 13:47:40.602490$GNGGA,184739.70,4138.0392912,N,07032.4384585,W,1,17,0.8,15.696,M,-29.746,M,0.0,*50
###2023-12-09 13:47:40.802359$GNGGA,184739.90,4138.0392861,N,07032.4384571,W,1,17,0.8,15.700,M,-29.746,M,0.0,*5E
###2023-12-09 13:47:41.006266$GNRMC,184740.10,A,4138.0392811,N,07032.4384560,W,0.04,243.17,091223,,,A*51
###2023-12-09 13:47:41.009335$GNGGA,184740.10,4138.0392811,N,07032.4384560,W,1,17,0.8,15.703,M,-29.746,M,0.0,*5C
###2023-12-09 13:47:41.011169$GPGSA,A,3,04,16,26,28,29,31,,,,,,,1.3,0.8,1.1*3C
###2023-12-09 13:47:41.012822$GLGSA,A,3,65,72,73,74,75,,,,,,,,1.3,0.8,1.1*27
###2023-12-09 13:47:41.014336$GAGSA,A,3,04,21,27,,,,,,,,,,1.3,0.8,1.1*2B
###2023-12-09 13:47:41.015860$GBGSA,A,3,12,24,25,,,,,,,,,,1.3,0.8,1.1*28
###2023-12-09 13:47:41.018181$GPGSV,2,1,06,04,51,304,49,16,73,229,40,26,77,041,42,28,33,090,43*7B
###2023-12-09 13:47:41.020164$GPGSV,2,2,06,29,17,042,42,31,55,075,50,,,,,,,,*77
###2023-12-09 13:47:41.022491$GLGSV,2,1,05,65,43,312,44,72,56,213,35,73,17,056,40,74,55,024,36*62
###2023-12-09 13:47:41.023960$GLGSV,2,2,05,75,47,280,47,,,,,,,,,,,,*58
###2023-12-09 13:47:41.025997$GAGSV,1,1,03,04,43,308,46,21,72,043,41,27,19,051,41,,,,*59
###2023-12-09 13:47:41.028042$GBGSV,1,1,03,12,19,122,41,24,58,052,46,25,54,282,44,,,,*57
###2023-12-09 13:47:41.029369$GNVTG,243.17,T,,M,0.04,N,0.07,K,A*23
###2023-12-09 13:47:41.031023$GNGST,184740.10,7.400,,,,0.210,0.120,0.320*6A
###2023-12-09 13:47:41.032316$GNZDA,184740.10,09,12,2023,00,00*7E
