###2023-12-09 12:54:48.981831$GBGSV,2,2,05,33,59,237,47,,,,,,,,,,,,*57
###2023-12-09 12:54:48.983195$GNVTG,154.16,T,,M,3.05,N,5.65,K,A*24
###2023-12-09 12:54:48.984846$GNGST,175448.10,19.000,,,,0.081,0.067,0.160*5A
###2023-12-09 12:54:48.986139$GNZDA,175448.10,09,12,2023,00,00*7B
###2023-12-09 12:54:48.986796$GNEBP,,,,,,M*13
###2023-12-09 12:54:49.155117$GNGGA,175448.30,4138.0547052,N,07032.3954731,W,1,24,0.6,13.154,M,-29.744,M,0.0,*52
###2023-12-09 12:54:49.356244$GNGGA,175448.50,4138.0545402,N,07032.3953849,W,1,24,0.6,13.159,M,-29.744,M,0.0,*5D
###2023-12-09 12:54:49.556316$GNGGA,175448.70,4138.0543831,N,07032.3952820,W,1,24,0.6,13.152,M,-29.744,M,0.0,*50
###2023-12-09 12:54:49.757248$GNGGA,175448.90,4138.0542463,N,07032.3951583,W,1,24,0.6,13.152,M,-29.744,M,0.0,*53
###2023-12-09 12:54:49.959110$GNRMC,175449.10,A,4138.0541022,N,07032.3950274,W,3.23,147.51,091223,,,A*50
###2023-12-09 12:54:49.961971$GNGGA,175449.10,4138.0541022,N,07032.3950274,W,1,24,0.6,13.157,M,-29.744,M,0.0,*53
###2023-12-09 12:54:49.963849$GPGSA,A,3,03,04,16,26,28,29,31,32,,,,,1.1,0.6,0.9*3B
###2023-12-09 12:54:49.965564$GLGSA,A,3,65,71,72,73,74,75,,,,,,,1.1,0.6,0.9*24
###2023-12-09 12:54:49.967164$GAGSA,A,3,04,19,21,27,,,,,,,,,1.1,0.6,0.9*26
###2023-12-09 12:54:49.968815$GBGSA,A,3,14,24,25,26,33,,,,,,,,1.1,0.6,0.9*2F
###2023-12-09 12:54:49.971159$GPGSV,2,1,08,03,36,266,44,04,29,311,42,16,46,211,45,26,76,209,48*78
###2023-12-09 12:54:49.973495$GPGSV,2,2,08,28,52,067,44,29,25,064,44,31,70,029,46,32,22,138,41*71
###2023-12-09 12:54:49.975844$GLGSV,2,1,06,65,21,328,41,71,44,172,45,72,72,285,46,73,39,039,46*64
###2023-12-09 12:54:49.977590$GLGSV,2,2,06,74,71,324,43,75,29,249,44,,,,,,,,*62
###2023-12-09 12:54:49.979930$GAGSV,1,1,04,04,27,312,40,19,85,242,40,21,84,147,45,27,35,048,44*6F
###2023-12-09 12:54:49.982260$GBGSV,2,1,05,14,46,194,44,24,75,018,48,25,39,260,45,26,28,061,44*66
###2023-12-09 12:54:49.983729$GBGSV,2,2,05,33,59,237,48,,,,,,,,,,,,*58
###2023-12-09 12:54:49.985048$GNVTG,147.51,T,,M,3.23,N,5.98,K,A*23
###2023-12-09 12:54:49.986697$GNGST,175449.10,18.000,,,,0.080,0.067,0.160*5B
###2023-12-09 12:54:49.987994$GNZDA,175449.10,09,12,2023,00,00*7A
###2023-12-09 12:54:49.988634$GNEBP,,,,,,M*13
###2023-12-09 12:54:50.153841$GNGGA,175449.30,4138.0539614,N,07032.3949011,W,1,24,0.6,13.146,M,-29.744,M,0.0,*54
###2023-12-09 12:54:50.355816$GNGGA,175449.50,4138.0538270,N,07032.3947575,W,1,24,0.6,13.156,M,-29.744,M,0.0,*5D
###2023-12-09 12:54:50.555770$GNGGA,175449.70,4138.0536960,N,07032.3945971,W,1,24,0.6,13.149,M,-29.744,M,0.0,*5F
###2023-12-09 12:54:50.755812$GNGGA,175449.90,4138.0535641,N,07032.3944460,W,1,24,0.6,13.149,M,-29.744,M,0.0,*52
###2023-12-09 12:54:50.957206$GNRMC,175450.10,A,4138.0534180,N,07032.3943014,W,3.44,143.74,091223,,,A*57
###2023-12-09 12:54:50.960084$GNGGA,175450.10,4138.0534180,N,07032.3943014,W,1,24,0.6,13.155,M,-29.744,M,0.0,*54
###2023-12-09 12:54:50.961946$GPGSA,A,3,03,04,16,26,28,29,31,32,,,,,1.1,0.6,0.9*3B
###2023-12-09 12:54:50.963680$GLGSA,A,3,65,71,72,73,74,75,,,,,,,1.1,0.6,0.9*24
###2023-12-09 12:54:50.965267$GAGSA,A,3,04,19,21,27,,,,,,,,,1.1,0.6,0.9*26
###2023-12-09 12:54:50.966921$GBGSA,A,3,14,24,25,26,33,,,,,,,,1.1,0.6,0.9*2F
###2023-12-09 12:54:50.969251$GPGSV,2,1,08,03,36,266,45,04,29,311,42,16,46,211,45,26,76,209,47*76
###2023-12-09 12:54:50.971601$GPGSV,2,2,08,28,52,067,44,29,25,064,44,31,70,029,47,32,22,138,42*73
###2023-12-09 12:54:50.973939$GLGSV,2,1,06,65,21,328,42,71,44,172,46,72,72,281,45,73,39,039,46*63
###2023-12-09 12:54:50.975705$GLGSV,2,2,06,74,71,324,43,75,29,249,45,,,,,,,,*63
###2023-12-09 12:54:50.978044$GAGSV,1,1,04,04,27,312,40,19,85,242,40,21,84,147,46,27,35,048,44*6C
###2023-12-09 12:54:50.980394$GBGSV,2,1,05,14,46,194,44,24,75,018,49,25,39,260,47,26,28,061,45*64
###2023-12-09 12:54:50.981854$GBGSV,2,2,05,33,59,237,48,,,,,,,,,,,,*58
###2023-12-09 12:54:50.983187$GNVTG,143.74,T,,M,3.44,N,6.37,K,A*27
###2023-12-09 12:54:50.984841$GNGST,175450.10,18.000,,,,0.080,0.067,0.160*53
###2023-12-09 12:54:50.986137$GNZDA,175450.10,09,12,2023,00,00*72
###2023-12-09 12:54:50.986788$GNEBP,,,,,,M*13
###2023-12-09 12:54:51.155004$GNGGA,175450.30,4138.0532708,N,07032.3941527,W,1,24,0.6,13.157,M,-29.744,M,0.0,*53
###2023-12-09 12:54:51.355738$GNGGA,175450.50,4138.0531280,N,07032.3940058,W,1,24,0.6,13.154,M,-29.744,M,0.0,*5C
###2023-12-09 12:54:51.555900$GNGGA,175450.70,4138.0529787,N,07032.3938628,W,1,24,0.6,13.166,M,-29.744,M,0.0,*5A
###2023-12-09 12:54:51.755777$GNGGA,175450.90,4138.0528206,N,07032.3937374,W,1,24,0.6,13.165,M,-29.744,M,0.0,*59
###2023-12-09 12:54:51.956360$GNRMC,175451.10,A,4138.0526597,N,07032.3936217,W,3.30,151.82,091223,,,A*5D
###2023-12-09 12:54:51.959245$GNGGA,175451.10,4138.0526597,N,07032.3936217,W,1,24,0.6,13.164,M,-29.744,M,0.0,*55
###2023-12-09 12:54:51.961112$GPGSA,A,3,03,04,16,26,28,29,31,32,,,,,1.1,0.6,0.9*3B
###2023-12-09 12:54:51.962850$GLGSA,A,3,65,71,72,73,74,75,,,,,,,1.1,0.6,0.9*24
###2023-12-09 12:54:51.964437$GAGSA,A,3,04,19,21,27,,,,,,,,,1.1,0.6,0.9*26
###2023-12-09 12:54:51.966081$GBGSA,A,3,14,24,25,26,33,,,,,,,,1.1,0.6,0.9*2F
###2023-12-09 12:54:51.968419$GPGSV,2,1,08,03,36,266,45,04,29,311,42,16,46,211,45,26,76,209,48*79
###2023-12-09 12:54:51.970779$GPGSV,2,2,08,28,52,067,45,29,25,064,44,31,70,029,47,32,22,138,41*71
###2023-12-09 12:54:51.973117$GLGSV,2,1,06,65,21,328,42,71,44,172,45,72,72,281,46,73,38,040,45*6F
###2023-12-09 12:54:51.974886$GLGSV,2,2,06,74,71,324,43,75,29,249,46,,,,,,,,*60
###2023-12-09 12:54:51.977215$GAGSV,1,1,04,04,27,312,40,19,85,242,40,21,84,147,46,27,35,048,43*6B
###2023-12-09 12:54:51.979560$GBGSV,2,1,05,14,46,194,44,24,75,018,48,25,39,260,47,26,28,061,45*65
###2023-12-09 12:54:51.981020$GBGSV,2,2,05,33,59,237,48,,,,,,,,,,,,*58
###2023-12-09 12:54:51.982343$GNVTG,151.82,T,,M,3.30,N,6.12,K,A*29
###2023-12-09 12:54:51.984009$GNGST,175451.10,18.000,,,,0.080,0.066,0.160*53
###2023-12-09 12:54:51.985303$GNZDA,175451.10,09,12,2023,00,00*73
###2023-12-09 12:54:51.985945$GNEBP,,,,,,M*13
###2023-12-09 12:54:52.154935$GNGGA,175451.30,4138.0524975,N,07032.3935205,W,1,24,0.6,13.174,M,-29.745,M,0.0,*55
###2023-12-09 12:54:52.356285$GNGGA,175451.50,4138.0523310,N,07032.3934341,W,1,24,0.6,13.183,M,-29.745,M,0.0,*55
###2023-12-09 12:54:52.555890$GNGGA,175451.70,4138.0521633,N,07032.3933498,W,1,24,0.6,13.168,M,-29.745,M,0.0,*50
###2023-12-09 12:54:52.756060$GNGGA,175451.90,4138.0519933,N,07032.3932980,W,1,24,0.6,13.174,M,-29.745,M,0.0,*52
###2023-12-09 12:54:52.957661$GNRMC,175452.10,A,4138.0518172,N,07032.3932516,W,3.40,166.01,091223,,,A*56
###2023-12-09 12:54:52.960552$GNGGA,175452.10,4138.0518172,N,07032.3932516,W,1,24,0.6,13.194,M,-29.745,M,0.0,*58
###2023-12-09 12:54:52.962416$GPGSA,A,3,03,04,16,26,28,29,31,32,,,,,1.1,0.6,0.9*3B
###2023-12-09 12:54:52.964157$GLGSA,A,3,65,71,72,73,74,75,,,,,,,1.1,0.6,0.9*24
###2023-12-09 12:54:52.965740$GAGSA,A,3,04,19,21,27,,,,,,,,,1.1,0.6,0.9*26
###2023-12-09 12:54:52.967401$GBGSA,A,3,14,24,25,26,33,,,,,,,,1.1,0.6,0.9*2F
###2023-12-09 12:54:52.969729$GPGSV,2,1,08,03,36,266,45,04,29,311,41,16,46,211,44,26,76,209,47*74
###2023-12-09 12:54:52.972077$GPGSV,2,2,08,28,52,067,45,29,25,064,44,31,70,029,47,32,22,138,41*71
###2023-12-09 12:54:52.974416$GLGSV,2,1,06,65,21,328,41,71,44,172,44,72,72,281,45,73,38,040,46*6D
###2023-12-09 12:54:52.976178$GLGSV,2,2,06,74,71,327,43,75,29,249,45,,,,,,,,*60
###2023-12-09 12:54:52.978511$GAGSV,1,1,04,04,27,312,40,19,85,242,40,21,84,147,46,27,35,048,43*6B
###2023-12-09 12:54:52.980859$GBGSV,2,1,05,14,46,194,44,24,75,018,49,25,39,260,47,26,28,061,45*64
###2023-12-09 12:54:52.982317$GBGSV,2,2,05,33,59,237,48,,,,,,,,,,,,*58
###2023-12-09 12:54:52.983651$GNVTG,166.01,T,,M,3.40,N,6.30,K,A*21
###2023-12-09 12:54:52.985300$GNGST,175452.10,18.000,,,,0.080,0.066,0.160*50
###2023-12-09 12:54:52.986602$GNZDA,175452.10,09,12,2023,00,00*70
###2023-12-09 12:54:52.987245$GNEBP,,,,,,M*13
###2023-12-09 12:54:53.154894$GNGGA,175452.30,4138.0516440,N,07032.3931823,W,1,24,0.6,13.181,M,-29.745,M,0.0,*5C
###2023-12-09 12:54:53.355947$GNGGA,175452.50,4138.0514779,N,07032.3931176,W,1,24,0.6,13.178,M,-29.745,M,0.0,*5E
###2023-12-09 12:54:53.555758$GNGGA,175452.70,4138.0512922,N,07032.3930740,W,1,24,0.6,13.196,M,-29.745,M,0.0,*58
###2023-12-09 12:54:53.754886$GNGGA,175452.90,4138.0511091,N,07032.3930164,W,1,24,0.6,13.178,M,-29.745,M,0.0,*54
###2023-12-09 12:54:53.958115$GNRMC,175453.10,A,4138.0509435,N,07032.3929396,W,3.17,159.79,091223,,,A*54
###2023-12-09 12:54:53.961023$GNGGA,175453.10,4138.0509435,N,07032.3929396,W,1,24,0.6,13.179,M,-29.745,M,0.0,*58
###2023-12-09 12:54:53.962912$GPGSA,A,3,03,04,16,26,28,29,31,32,,,,,1.1,0.6,0.9*3B
###2023-12-09 12:54:53.964633$GLGSA,A,3,65,71,72,73,74,75,,,,,,,1.1,0.6,0.9*24
###2023-12-09 12:54:53.966216$GAGSA,A,3,04,19,21,27,,,,,,,,,1.1,0.6,0.9*26
###2023-12-09 12:54:53.967874$GBGSA,A,3,14,24,25,26,33,,,,,,,,1.1,0.6,0.9*2F
###2023-12-09 12:54:53.970206$GPGSV,2,1,08,03,36,266,45,04,29,311,41,16,46,211,45,26,76,209,48*7A
