###2023-12-09 12:58:37.973011$GLGSA,A,3,65,71,72,73,74,75,,,,,,,1.1,0.6,0.9*24
###2023-12-09 12:58:37.974649$GAGSA,A,3,04,19,21,27,,,,,,,,,1.1,0.6,0.9*26
###2023-12-09 12:58:37.976310$GBGSA,A,3,14,24,25,26,33,,,,,,,,1.1,0.6,0.9*2F
###2023-12-09 12:58:37.978651$GPGSV,2,1,08,03,36,264,46,04,31,311,41,16,48,211,47,26,78,209,48*70
###2023-12-09 12:58:37.980987$GPGSV,2,2,08,28,50,069,43,29,25,063,41,31,69,033,47,32,20,139,42*7A
###2023-12-09 12:58:37.983338$GLGSV,2,1,06,65,22,328,39,71,43,172,46,72,73,277,46,73,37,040,45*63
###2023-12-09 12:58:37.985085$GLGSV,2,2,06,74,70,331,42,75,30,251,45,,,,,,,,*66
###2023-12-09 12:58:37.987471$GAGSV,1,1,04,04,28,312,40,19,85,226,40,21,85,133,46,27,34,048,44*62
###2023-12-09 12:58:37.989802$GBGSV,2,1,05,14,44,193,46,24,74,022,49,25,40,261,48,26,27,062,42*60
###2023-12-09 12:58:37.991264$GBGSV,2,2,05,33,59,235,48,,,,,,,,,,,,*5A
###2023-12-09 12:58:37.992551$GNVTG,92.05,T,,M,3.21,N,5.94,K,A*15
###2023-12-09 12:58:37.994191$GNGST,175837.10,18.000,,,,0.080,0.068,0.160*51
###2023-12-09 12:58:37.995492$GNZDA,175837.10,09,12,2023,00,00*7F
###2023-12-09 12:58:37.996133$GNEBP,,,,,,M*13
###2023-12-09 12:58:38.161136$GNGGA,175837.30,4138.0328304,N,07032.2924447,W,1,24,0.6,13.026,M,-29.744,M,0.0,*59
###2023-12-09 12:58:38.362219$GNGGA,175837.50,4138.0328455,N,07032.2921847,W,1,24,0.6,13.033,M,-29.744,M,0.0,*51
###2023-12-09 12:58:38.562181$GNGGA,175837.70,4138.0328383,N,07032.2919372,W,1,24,0.6,13.005,M,-29.744,M,0.0,*5C
###2023-12-09 12:58:38.765898$GNGGA,175837.90,4138.0328300,N,07032.2916892,W,1,24,0.6,13.039,M,-29.744,M,0.0,*5C
###2023-12-09 12:58:38.964346$GNRMC,175838.10,A,4138.0327964,N,07032.2914285,W,3.58,101.82,091223,,,A*58
###2023-12-09 12:58:38.967263$GNGGA,175838.10,4138.0327964,N,07032.2914285,W,1,24,0.6,13.049,M,-29.744,M,0.0,*55
###2023-12-09 12:58:38.969125$GPGSA,A,3,03,04,16,26,28,29,31,32,,,,,1.1,0.6,0.9*3B
###2023-12-09 12:58:38.970850$GLGSA,A,3,65,71,72,73,74,75,,,,,,,1.1,0.6,0.9*24
###2023-12-09 12:58:38.972430$GAGSA,A,3,04,19,21,27,,,,,,,,,1.1,0.6,0.9*26
###2023-12-09 12:58:38.974074$GBGSA,A,3,14,24,25,26,33,,,,,,,,1.1,0.6,0.9*2F
###2023-12-09 12:58:38.976416$GPGSV,2,1,08,03,36,264,46,04,31,311,43,16,48,211,46,26,78,209,48*73
###2023-12-09 12:58:38.978757$GPGSV,2,2,08,28,50,069,44,29,25,063,42,31,69,033,47,32,20,139,41*7D
###2023-12-09 12:58:38.981086$GLGSV,2,1,06,65,22,328,41,71,43,172,46,72,73,277,47,73,37,040,45*6D
###2023-12-09 12:58:38.982840$GLGSV,2,2,06,74,70,331,42,75,30,251,47,,,,,,,,*64
###2023-12-09 12:58:38.985158$GAGSV,1,1,04,04,28,312,42,19,85,226,40,21,85,133,46,27,34,048,43*67
###2023-12-09 12:58:38.987486$GBGSV,2,1,05,14,44,193,45,24,74,022,48,25,40,261,46,26,27,062,43*6D
###2023-12-09 12:58:38.988934$GBGSV,2,2,05,33,58,234,48,,,,,,,,,,,,*5A
###2023-12-09 12:58:38.990251$GNVTG,101.82,T,,M,3.58,N,6.62,K,A*25
###2023-12-09 12:58:38.991898$GNGST,175838.10,18.000,,,,0.080,0.067,0.160*51
###2023-12-09 12:58:38.993184$GNZDA,175838.10,09,12,2023,00,00*70
###2023-12-09 12:58:38.993816$GNEBP,,,,,,M*13
###2023-12-09 12:58:39.164237$GNGGA,175838.30,4138.0327569,N,07032.2911786,W,1,24,0.6,13.021,M,-29.744,M,0.0,*5B
###2023-12-09 12:58:39.362803$GNGGA,175838.50,4138.0327406,N,07032.2909244,W,1,24,0.6,13.040,M,-29.744,M,0.0,*50
###2023-12-09 12:58:39.562033$GNGGA,175838.70,4138.0327099,N,07032.2906657,W,1,24,0.6,13.045,M,-29.744,M,0.0,*5C
###2023-12-09 12:58:39.763503$GNGGA,175838.90,4138.0326598,N,07032.2904018,W,1,24,0.6,13.040,M,-29.744,M,0.0,*5D
###2023-12-09 12:58:39.963063$GNRMC,175839.10,A,4138.0326129,N,07032.2901404,W,3.60,100.43,091223,,,A*55
###2023-12-09 12:58:39.965896$GNGGA,175839.10,4138.0326129,N,07032.2901404,W,1,24,0.6,13.025,M,-29.744,M,0.0,*55
###2023-12-09 12:58:39.967767$GPGSA,A,3,03,04,16,26,28,29,31,32,,,,,1.1,0.6,0.9*3B
###2023-12-09 12:58:39.969476$GLGSA,A,3,65,71,72,73,74,75,,,,,,,1.1,0.6,0.9*24
###2023-12-09 12:58:39.971062$GAGSA,A,3,04,19,21,27,,,,,,,,,1.1,0.6,0.9*26
###2023-12-09 12:58:39.972698$GBGSA,A,3,14,24,25,26,33,,,,,,,,1.1,0.6,0.9*2F
###2023-12-09 12:58:39.975019$GPGSV,2,1,08,03,36,264,47,04,31,311,43,16,48,211,49,26,78,209,49*7C
###2023-12-09 12:58:39.977336$GPGSV,2,2,08,28,50,069,45,29,25,063,42,31,69,033,48,32,20,139,43*71
###2023-12-09 12:58:39.979673$GLGSV,2,1,06,65,22,328,41,71,43,172,47,72,73,277,47,73,37,040,45*6C
###2023-12-09 12:58:39.981409$GLGSV,2,2,06,74,70,331,43,75,30,251,46,,,,,,,,*64
###2023-12-09 12:58:39.983732$GAGSV,1,1,04,04,28,312,41,19,85,226,41,21,85,133,46,27,34,048,43*65
###2023-12-09 12:58:39.986048$GBGSV,2,1,05,14,44,193,46,24,74,022,49,25,40,261,47,26,27,062,42*6F
###2023-12-09 12:58:39.987507$GBGSV,2,2,05,33,58,234,48,,,,,,,,,,,,*5A
###2023-12-09 12:58:39.988828$GNVTG,100.43,T,,M,3.60,N,6.66,K,A*26
###2023-12-09 12:58:39.990465$GNGST,175839.10,18.000,,,,0.079,0.067,0.160*56
###2023-12-09 12:58:39.991765$GNZDA,175839.10,09,12,2023,00,00*71
###2023-12-09 12:58:39.992403$GNEBP,,,,,,M*13
###2023-12-09 12:58:40.160057$GNGGA,175839.30,4138.0325905,N,07032.2898804,W,1,24,0.6,13.040,M,-29.744,M,0.0,*5C
###2023-12-09 12:58:40.362155$GNGGA,175839.50,4138.0325783,N,07032.2896056,W,1,24,0.6,13.048,M,-29.744,M,0.0,*53
###2023-12-09 12:58:40.559690$GNGGA,175839.70,4138.0325436,N,07032.2893320,W,1,24,0.6,13.023,M,-29.744,M,0.0,*56
###2023-12-09 12:58:40.760013$GNGGA,175839.90,4138.0325231,N,07032.2890683,W,1,24,0.6,13.036,M,-29.744,M,0.0,*52
###2023-12-09 12:58:40.963133$GNRMC,175840.10,A,4138.0325165,N,07032.2887909,W,3.75,92.13,091223,,,A*64
###2023-12-09 12:58:40.965972$GNGGA,175840.10,4138.0325165,N,07032.2887909,W,1,24,0.6,13.049,M,-29.744,M,0.0,*55
###2023-12-09 12:58:40.967834$GPGSA,A,3,03,04,16,26,28,29,31,32,,,,,1.1,0.6,0.9*3B
###2023-12-09 12:58:40.969548$GLGSA,A,3,65,71,72,73,74,75,,,,,,,1.1,0.6,0.9*24
###2023-12-09 12:58:40.971144$GAGSA,A,3,04,19,21,27,,,,,,,,,1.1,0.6,0.9*26
###2023-12-09 12:58:40.972796$GBGSA,A,3,14,24,25,26,33,,,,,,,,1.1,0.6,0.9*2F
###2023-12-09 12:58:40.975127$GPGSV,2,1,08,03,36,264,47,04,31,311,42,16,48,211,47,26,78,209,49*73
###2023-12-09 12:58:40.977454$GPGSV,2,2,08,28,50,069,44,29,25,063,41,31,69,033,47,32,20,139,43*7C
###2023-12-09 12:58:40.979788$GLGSV,2,1,06,65,23,328,42,71,43,172,47,72,73,277,46,73,37,040,45*6F
###2023-12-09 12:58:40.981536$GLGSV,2,2,06,74,70,331,43,75,30,251,46,,,,,,,,*64
###2023-12-09 12:58:40.983863$GAGSV,1,1,04,04,28,312,40,19,85,226,41,21,85,133,46,27,34,048,42*65
###2023-12-09 12:58:40.986191$GBGSV,2,1,05,14,44,193,47,24,74,022,48,25,40,261,47,26,27,062,42*6F
###2023-12-09 12:58:40.987657$GBGSV,2,2,05,33,58,234,49,,,,,,,,,,,,*5B
###2023-12-09 12:58:40.988943$GNVTG,92.13,T,,M,3.75,N,6.95,K,A*11
###2023-12-09 12:58:40.990593$GNGST,175840.10,18.000,,,,0.079,0.067,0.160*58
###2023-12-09 12:58:40.991885$GNZDA,175840.10,09,12,2023,00,00*7F
###2023-12-09 12:58:40.992524$GNEBP,,,,,,M*13
###2023-12-09 12:58:41.161025$GNGGA,175840.30,4138.0325237,N,07032.2885231,W,1,24,0.6,13.032,M,-29.744,M,0.0,*5D
###2023-12-09 12:58:41.362367$GNGGA,175840.50,4138.0325424,N,07032.2882639,W,1,24,0.6,13.042,M,-29.744,M,0.0,*53
###2023-12-09 12:58:41.561210$GNGGA,175840.70,4138.0325536,N,07032.2879995,W,1,24,0.6,13.050,M,-29.744,M,0.0,*5D
###2023-12-09 12:58:41.761401$GNGGA,175840.90,4138.0325617,N,07032.2877347,W,1,24,0.6,13.020,M,-29.744,M,0.0,*5F
###2023-12-09 12:58:41.963934$GNRMC,175841.10,A,4138.0325882,N,07032.2874853,W,3.46,78.41,091223,,,A*64
###2023-12-09 12:58:41.966801$GNGGA,175841.10,4138.0325882,N,07032.2874853,W,1,24,0.6,13.020,M,-29.744,M,0.0,*59
###2023-12-09 12:58:41.968658$GPGSA,A,3,03,04,16,26,28,29,31,32,,,,,1.1,0.6,0.9*3B
###2023-12-09 12:58:41.970375$GLGSA,A,3,65,71,72,73,74,75,,,,,,,1.1,0.6,0.9*24
###2023-12-09 12:58:41.971972$GAGSA,A,3,04,19,21,27,,,,,,,,,1.1,0.6,0.9*26
###2023-12-09 12:58:41.973616$GBGSA,A,3,14,24,25,26,33,,,,,,,,1.1,0.6,0.9*2F
###2023-12-09 12:58:41.975956$GPGSV,2,1,08,03,36,264,47,04,31,311,42,16,48,211,48,26,78,209,49*7C
###2023-12-09 12:58:41.978283$GPGSV,2,2,08,28,50,069,44,29,25,063,40,31,69,033,47,32,20,139,44*7A
###2023-12-09 12:58:41.980627$GLGSV,2,1,06,65,23,328,41,71,43,172,47,72,73,277,47,73,37,040,45*6D
###2023-12-09 12:58:41.982373$GLGSV,2,2,06,74,70,331,43,75,30,251,46,,,,,,,,*64
###2023-12-09 12:58:41.984953$GAGSV,1,1,04,04,28,312,40,19,85,226,41,21,85,133,46,27,34,048,42*65
###2023-12-09 12:58:41.987316$GBGSV,2,1,05,14,44,193,47,24,74,022,49,25,40,261,48,26,27,062,40*63
###2023-12-09 12:58:41.988777$GBGSV,2,2,05,33,58,234,48,,,,,,,,,,,,*5A
###2023-12-09 12:58:41.990071$GNVTG,78.41,T,,M,3.46,N,6.41,K,A*1B
###2023-12-09 12:58:41.991734$GNGST,175841.10,18.000,,,,0.079,0.066,0.160*58
###2023-12-09 12:58:41.993030$GNZDA,175841.10,09,12,2023,00,00*7E
###2023-12-09 12:58:41.993670$GNEBP,,,,,,M*13
###2023-12-09 12:58:42.162060$GNGGA,175841.30,4138.0326248,N,07032.2872314,W,1,24,0.6,13.042,M,-29.744,M,0.0,*5E
###2023-12-09 12:58:42.362183$GNGGA,175841.50,4138.0326278,N,07032.2869688,W,1,24,0.6,13.027,M,-29.744,M,0.0,*52
