###2023-12-09 12:53:32.976942$GLGSV,2,1,06,65,20,328,42,71,45,172,48,72,72,285,46,73,39,039,47*6B
###2023-12-09 12:53:32.978737$GLGSV,2,2,06,74,71,324,43,75,29,249,42,,,,,,,,*64
###2023-12-09 12:53:32.981073$GAGSV,1,1,04,04,26,312,42,19,85,252,39,21,84,154,46,27,36,048,44*61
###2023-12-09 12:53:32.983427$GBGSV,2,1,05,14,47,194,45,24,76,016,49,25,38,259,45,26,29,061,44*60
###2023-12-09 12:53:32.984887$GBGSV,2,2,05,33,60,238,47,,,,,,,,,,,,*52
###2023-12-09 12:53:32.986209$GNVTG,301.56,T,,M,0.10,N,0.18,K,A*2A
###2023-12-09 12:53:32.987884$GNGST,175332.10,18.000,,,,0.075,0.067,0.160*5A
###2023-12-09 12:53:32.989186$GNZDA,175332.10,09,12,2023,00,00*71
###2023-12-09 12:53:32.989822$GNEBP,,,,,,M*13
###2023-12-09 12:53:33.155242$GNGGA,175332.30,4138.0587198,N,07032.3880975,W,1,24,0.6,13.411,M,-29.744,M,0.0,*51
###2023-12-09 12:53:33.355231$GNGGA,175332.50,4138.0587353,N,07032.3881349,W,1,24,0.6,13.420,M,-29.744,M,0.0,*54
###2023-12-09 12:53:33.554228$GNGGA,175332.70,4138.0587625,N,07032.3881864,W,1,24,0.6,13.435,M,-29.744,M,0.0,*52
###2023-12-09 12:53:33.754255$GNGGA,175332.90,4138.0587756,N,07032.3882170,W,1,24,0.6,13.432,M,-29.744,M,0.0,*51
###2023-12-09 12:53:33.955878$GNRMC,175333.10,A,4138.0587706,N,07032.3882182,W,0.14,301.56,091223,,,A*55
###2023-12-09 12:53:33.958749$GNGGA,175333.10,4138.0587706,N,07032.3882182,W,1,24,0.6,13.430,M,-29.744,M,0.0,*52
###2023-12-09 12:53:33.960614$GPGSA,A,3,03,04,16,26,28,29,31,32,,,,,1.1,0.6,0.9*3B
###2023-12-09 12:53:33.962339$GLGSA,A,3,65,71,72,73,74,75,,,,,,,1.1,0.6,0.9*24
###2023-12-09 12:53:33.963940$GAGSA,A,3,04,19,21,27,,,,,,,,,1.1,0.6,0.9*26
###2023-12-09 12:53:33.965597$GBGSA,A,3,14,24,25,26,33,,,,,,,,1.1,0.6,0.9*2F
###2023-12-09 12:53:33.967959$GPGSV,2,1,08,03,36,266,43,04,29,311,42,16,46,211,44,26,75,209,47*72
###2023-12-09 12:53:33.970308$GPGSV,2,2,08,28,52,066,44,29,26,065,43,31,71,026,47,32,23,138,44*7E
###2023-12-09 12:53:33.972657$GLGSV,2,1,06,65,20,328,43,71,45,172,47,72,72,285,46,73,39,039,47*65
###2023-12-09 12:53:33.974416$GLGSV,2,2,06,74,71,324,43,75,29,249,42,,,,,,,,*64
###2023-12-09 12:53:33.976772$GAGSV,1,1,04,04,26,312,42,19,85,252,40,21,84,154,46,27,36,048,45*6E
###2023-12-09 12:53:33.979126$GBGSV,2,1,05,14,47,194,45,24,76,016,49,25,38,259,45,26,29,061,45*61
###2023-12-09 12:53:33.980590$GBGSV,2,2,05,33,60,238,47,,,,,,,,,,,,*52
###2023-12-09 12:53:33.981920$GNVTG,301.56,T,,M,0.14,N,0.25,K,A*20
###2023-12-09 12:53:33.983582$GNGST,175333.10,18.000,,,,0.075,0.067,0.160*5B
###2023-12-09 12:53:33.984880$GNZDA,175333.10,09,12,2023,00,00*70
###2023-12-09 12:53:33.985518$GNEBP,,,,,,M*13
###2023-12-09 12:53:34.153366$GNGGA,175333.30,4138.0587742,N,07032.3882324,W,1,24,0.6,13.425,M,-29.744,M,0.0,*5A
###2023-12-09 12:53:34.355390$GNGGA,175333.50,4138.0587968,N,07032.3882788,W,1,24,0.6,13.440,M,-29.744,M,0.0,*5B
###2023-12-09 12:53:34.554179$GNGGA,175333.70,4138.0588181,N,07032.3883234,W,1,24,0.6,13.445,M,-29.744,M,0.0,*5F
###2023-12-09 12:53:34.754180$GNGGA,175333.90,4138.0588276,N,07032.3883462,W,1,24,0.6,13.454,M,-29.744,M,0.0,*5F
###2023-12-09 12:53:34.955901$GNRMC,175334.10,A,4138.0588314,N,07032.3883620,W,0.21,301.56,091223,,,A*52
###2023-12-09 12:53:34.958779$GNGGA,175334.10,4138.0588314,N,07032.3883620,W,1,24,0.6,13.458,M,-29.744,M,0.0,*5D
###2023-12-09 12:53:34.960645$GPGSA,A,3,03,04,16,26,28,29,31,32,,,,,1.1,0.6,0.9*3B
###2023-12-09 12:53:34.962371$GLGSA,A,3,65,71,72,73,74,75,,,,,,,1.1,0.6,0.9*24
###2023-12-09 12:53:34.964004$GAGSA,A,3,04,19,21,27,,,,,,,,,1.1,0.6,0.9*26
###2023-12-09 12:53:34.965665$GBGSA,A,3,14,24,25,26,33,,,,,,,,1.1,0.6,0.9*2F
###2023-12-09 12:53:34.968035$GPGSV,2,1,08,03,36,266,43,04,29,311,43,16,46,211,44,26,76,209,47*70
###2023-12-09 12:53:34.970388$GPGSV,2,2,08,28,52,066,44,29,26,065,43,31,71,026,47,32,23,138,44*7E
###2023-12-09 12:53:34.972746$GLGSV,2,1,06,65,20,328,42,71,45,172,48,72,72,285,46,73,39,039,47*6B
###2023-12-09 12:53:34.974503$GLGSV,2,2,06,74,71,324,44,75,29,249,42,,,,,,,,*63
###2023-12-09 12:53:34.976850$GAGSV,1,1,04,04,26,312,42,19,85,252,40,21,84,154,46,27,36,048,45*6E
###2023-12-09 12:53:34.979208$GBGSV,2,1,05,14,47,194,45,24,76,016,48,25,38,259,45,26,29,061,45*60
###2023-12-09 12:53:34.980664$GBGSV,2,2,05,33,60,238,47,,,,,,,,,,,,*52
###2023-12-09 12:53:34.981989$GNVTG,301.56,T,,M,0.21,N,0.40,K,A*25
###2023-12-09 12:53:34.983647$GNGST,175334.10,18.000,,,,0.075,0.067,0.160*5C
###2023-12-09 12:53:34.984941$GNZDA,175334.10,09,12,2023,00,00*77
###2023-12-09 12:53:34.985579$GNEBP,,,,,,M*13
###2023-12-09 12:53:35.154416$GNGGA,175334.30,4138.0588369,N,07032.3883796,W,1,24,0.6,13.441,M,-29.744,M,0.0,*51
###2023-12-09 12:53:35.354284$GNGGA,175334.50,4138.0588504,N,07032.3884128,W,1,24,0.6,13.440,M,-29.744,M,0.0,*5F
###2023-12-09 12:53:35.554224$GNGGA,175334.70,4138.0588709,N,07032.3884594,W,1,24,0.6,13.455,M,-29.744,M,0.0,*55
###2023-12-09 12:53:35.755453$GNGGA,175334.90,4138.0588885,N,07032.3884955,W,1,24,0.6,13.463,M,-29.744,M,0.0,*54
###2023-12-09 12:53:35.955650$GNRMC,175335.10,A,4138.0588922,N,07032.3885066,W,0.08,301.56,091223,,,A*55
###2023-12-09 12:53:35.958517$GNGGA,175335.10,4138.0588922,N,07032.3885066,W,1,24,0.6,13.459,M,-29.744,M,0.0,*50
###2023-12-09 12:53:35.960402$GPGSA,A,3,03,04,16,26,28,29,31,32,,,,,1.1,0.6,0.9*3B
###2023-12-09 12:53:35.962123$GLGSA,A,3,65,71,72,73,74,75,,,,,,,1.1,0.6,0.9*24
###2023-12-09 12:53:35.963719$GAGSA,A,3,04,19,21,27,,,,,,,,,1.1,0.6,0.9*26
###2023-12-09 12:53:35.965371$GBGSA,A,3,14,24,25,26,33,,,,,,,,1.1,0.6,0.9*2F
###2023-12-09 12:53:35.967714$GPGSV,2,1,08,03,36,266,43,04,29,311,43,16,46,211,44,26,76,209,47*70
###2023-12-09 12:53:35.970048$GPGSV,2,2,08,28,52,066,43,29,26,065,42,31,71,026,47,32,23,138,43*7F
###2023-12-09 12:53:35.972393$GLGSV,2,1,06,65,20,328,43,71,45,172,47,72,72,285,46,73,39,039,48*6A
###2023-12-09 12:53:35.974145$GLGSV,2,2,06,74,71,324,43,75,29,249,42,,,,,,,,*64
###2023-12-09 12:53:35.976494$GAGSV,1,1,04,04,26,312,42,19,85,252,40,21,84,154,46,27,36,048,45*6E
###2023-12-09 12:53:35.978850$GBGSV,2,1,05,14,47,194,45,24,76,016,48,25,38,259,44,26,29,061,43*67
###2023-12-09 12:53:35.980316$GBGSV,2,2,05,33,60,238,46,,,,,,,,,,,,*53
###2023-12-09 12:53:35.981646$GNVTG,301.56,T,,M,0.08,N,0.14,K,A*2F
###2023-12-09 12:53:35.983319$GNGST,175335.10,18.000,,,,0.075,0.067,0.160*5D
###2023-12-09 12:53:35.984624$GNZDA,175335.10,09,12,2023,00,00*76
###2023-12-09 12:53:35.985267$GNEBP,,,,,,M*13
###2023-12-09 12:53:36.154261$GNGGA,175335.30,4138.0588908,N,07032.3885141,W,1,24,0.6,13.447,M,-29.744,M,0.0,*51
###2023-12-09 12:53:36.354044$GNGGA,175335.50,4138.0589049,N,07032.3885529,W,1,24,0.6,13.451,M,-29.744,M,0.0,*57
###2023-12-09 12:53:36.554186$GNGGA,175335.70,4138.0589287,N,07032.3886036,W,1,24,0.6,13.460,M,-29.744,M,0.0,*5F
###2023-12-09 12:53:36.755249$GNGGA,175335.90,4138.0589403,N,07032.3886317,W,1,24,0.6,13.458,M,-29.744,M,0.0,*50
###2023-12-09 12:53:36.960028$GNRMC,175336.10,A,4138.0589378,N,07032.3886369,W,0.10,301.56,091223,,,A*54
###2023-12-09 12:53:36.962911$GNGGA,175336.10,4138.0589378,N,07032.3886369,W,1,24,0.6,13.469,M,-29.744,M,0.0,*5B
###2023-12-09 12:53:36.964775$GPGSA,A,3,03,04,16,26,28,29,31,32,,,,,1.1,0.6,0.9*3B
###2023-12-09 12:53:36.966486$GLGSA,A,3,65,71,72,73,74,75,,,,,,,1.1,0.6,0.9*24
###2023-12-09 12:53:36.968086$GAGSA,A,3,04,19,21,27,,,,,,,,,1.1,0.6,0.9*26
###2023-12-09 12:53:36.969724$GBGSA,A,3,14,24,25,26,33,,,,,,,,1.1,0.6,0.9*2F
###2023-12-09 12:53:36.972070$GPGSV,2,1,08,03,36,266,43,04,29,311,42,16,46,211,44,26,76,209,47*71
###2023-12-09 12:53:36.974392$GPGSV,2,2,08,28,52,067,44,29,26,065,42,31,71,026,47,32,23,138,44*7E
###2023-12-09 12:53:36.976740$GLGSV,2,1,06,65,20,328,42,71,45,172,47,72,72,285,46,73,39,039,47*64
###2023-12-09 12:53:36.978487$GLGSV,2,2,06,74,71,324,43,75,29,249,43,,,,,,,,*65
###2023-12-09 12:53:36.980830$GAGSV,1,1,04,04,26,312,41,19,85,252,40,21,84,154,46,27,36,048,44*6C
###2023-12-09 12:53:36.983179$GBGSV,2,1,05,14,47,194,45,24,76,016,49,25,38,259,45,26,29,061,44*60
###2023-12-09 12:53:36.984638$GBGSV,2,2,05,33,60,238,47,,,,,,,,,,,,*52
###2023-12-09 12:53:36.985961$GNVTG,301.56,T,,M,0.10,N,0.18,K,A*2A
###2023-12-09 12:53:36.987618$GNGST,175336.10,18.000,,,,0.075,0.067,0.160*5E
###2023-12-09 12:53:36.989169$GNZDA,175336.10,09,12,2023,00,00*75
###2023-12-09 12:53:36.989820$GNEBP,,,,,,M*13
###2023-12-09 12:53:37.153270$GNGGA,175336.30,4138.0589457,N,07032.3886587,W,1,24,0.6,13.475,M,-29.744,M,0.0,*58
###2023-12-09 12:53:37.355304$GNGGA,175336.50,4138.0589707,N,07032.3887091,W,1,24,0.6,13.484,M,-29.744,M,0.0,*55
###2023-12-09 12:53:37.555271$GNGGA,175336.70,4138.0589881,N,07032.3887482,W,1,24,0.6,13.462,M,-29.744,M,0.0,*58
###2023-12-09 12:53:37.754226$GNGGA,175336.90,4138.0589841,N,07032.3887549,W,1,24,0.6,13.449,M,-29.744,M,0.0,*55
###2023-12-09 12:53:37.956315$GNRMC,175337.10,A,4138.0589870,N,07032.3887735,W,0.62,301.56,091223,,,A*5F
###2023-12-09 12:53:37.959199$GNGGA,175337.10,4138.0589870,N,07032.3887735,W,1,24,0.6,13.470,M,-29.744,M,0.0,*5D
###2023-12-09 12:53:37.961052$GPGSA,A,3,03,04,16,26,28,29,31,32,,,,,1.1,0.6,0.9*3B
