###2023-12-09 13:16:05.013051$GNEBP,,,,,,M*13
###2023-12-09 13:16:05.178953$GNGGA,181604.30,4138.0558848,N,07032.2763850,W,1,24,0.7,13.318,M,-29.743,M,0.0,*51
###2023-12-09 13:16:05.377888$GNGGA,181604.50,4138.0560904,N,07032.2763759,W,1,24,0.7,13.315,M,-29.743,M,0.0,*5E
###2023-12-09 13:16:05.580876$GNGGA,181604.70,4138.0562934,N,07032.2763539,W,1,24,0.7,13.306,M,-29.743,M,0.0,*5B
###2023-12-09 13:16:05.780262$GNGGA,181604.90,4138.0564980,N,07032.2763207,W,1,24,0.7,13.309,M,-29.743,M,0.0,*59
###2023-12-09 13:16:05.981854$GNRMC,181605.10,A,4138.0567035,N,07032.2762740,W,3.79,10.71,091223,,,A*61
###2023-12-09 13:16:05.984758$GNGGA,181605.10,4138.0567035,N,07032.2762740,W,1,24,0.7,13.304,M,-29.743,M,0.0,*5E
###2023-12-09 13:16:05.986554$GPGSA,A,3,03,04,16,26,28,29,31,,,,,,1.2,0.7,1.0*30
###2023-12-09 13:16:05.988288$GLGSA,A,3,65,71,72,73,74,75,,,,,,,1.2,0.7,1.0*2E
###2023-12-09 13:16:05.989876$GAGSA,A,3,04,19,21,27,,,,,,,,,1.2,0.7,1.0*2C
###2023-12-09 13:16:05.991608$GBGSA,A,3,14,24,25,26,33,35,,,,,,,1.2,0.7,1.0*23
###2023-12-09 13:16:05.993936$GPGSV,2,1,07,03,32,254,42,04,38,311,45,16,57,216,46,26,87,208,48*78
###2023-12-09 13:16:05.996029$GPGSV,2,2,07,28,44,077,44,29,24,054,39,31,65,052,46,,,,*46
###2023-12-09 13:16:05.998372$GLGSV,2,1,06,65,30,325,42,71,33,174,46,72,71,243,46,73,30,046,40*61
###2023-12-09 13:16:06.000142$GLGSV,2,2,06,74,66,355,41,75,37,260,47,,,,,,,,*67
###2023-12-09 13:16:06.002469$GAGSV,1,1,04,04,34,312,43,19,79,190,40,21,83,062,45,27,28,049,37*69
###2023-12-09 13:16:06.004863$GBGSV,2,1,06,14,37,191,45,24,69,035,48,25,45,267,47,26,22,066,43*61
###2023-12-09 13:16:06.006628$GBGSV,2,2,06,33,53,225,47,35,16,064,41,,,,,,,,*6B
###2023-12-09 13:16:06.007924$GNVTG,10.71,T,,M,3.79,N,7.02,K,A*1C
###2023-12-09 13:16:06.009579$GNGST,181605.10,18.000,,,,0.098,0.071,0.170*55
###2023-12-09 13:16:06.010890$GNZDA,181605.10,09,12,2023,00,00*7B
###2023-12-09 13:16:06.011532$GNEBP,,,,,,M*13
###2023-12-09 13:16:06.179378$GNGGA,181605.30,4138.0569099,N,07032.2762261,W,1,24,0.7,13.297,M,-29.743,M,0.0,*59
###2023-12-09 13:16:06.378752$GNGGA,181605.50,4138.0571167,N,07032.2761832,W,1,24,0.7,13.293,M,-29.743,M,0.0,*5D
###2023-12-09 13:16:06.578799$GNGGA,181605.70,4138.0573266,N,07032.2761385,W,1,24,0.7,13.280,M,-29.743,M,0.0,*5A
###2023-12-09 13:16:06.779654$GNGGA,181605.90,4138.0575357,N,07032.2760862,W,1,24,0.7,13.272,M,-29.743,M,0.0,*5F
###2023-12-09 13:16:06.982860$GNRMC,181606.10,A,4138.0577491,N,07032.2760388,W,3.91,8.47,091223,,,A*51
###2023-12-09 13:16:06.985723$GNGGA,181606.10,4138.0577491,N,07032.2760388,W,1,24,0.7,13.271,M,-29.743,M,0.0,*57
###2023-12-09 13:16:06.987527$GPGSA,A,3,03,04,16,26,28,29,31,,,,,,1.2,0.7,1.0*30
###2023-12-09 13:16:06.989238$GLGSA,A,3,65,71,72,73,74,75,,,,,,,1.2,0.7,1.0*2E
###2023-12-09 13:16:06.990830$GAGSA,A,3,04,19,21,27,,,,,,,,,1.2,0.7,1.0*2C
###2023-12-09 13:16:06.992543$GBGSA,A,3,14,24,25,26,33,35,,,,,,,1.2,0.7,1.0*23
###2023-12-09 13:16:06.994875$GPGSV,2,1,07,03,32,254,42,04,38,311,44,16,57,216,45,26,87,208,48*7A
###2023-12-09 13:16:06.996918$GPGSV,2,2,07,28,44,077,44,29,24,054,41,31,65,052,46,,,,*49
###2023-12-09 13:16:06.999260$GLGSV,2,1,06,65,30,325,42,71,33,174,45,72,71,243,47,73,30,046,40*63
###2023-12-09 13:16:07.001010$GLGSV,2,2,06,74,66,355,41,75,37,260,46,,,,,,,,*66
###2023-12-09 13:16:07.003353$GAGSV,1,1,04,04,34,312,43,19,79,190,41,21,83,062,46,27,28,049,38*64
###2023-12-09 13:16:07.005686$GBGSV,2,1,06,14,37,191,45,24,69,035,48,25,45,267,47,26,22,066,43*61
###2023-12-09 13:16:07.007439$GBGSV,2,2,06,33,53,225,47,35,16,064,42,,,,,,,,*68
###2023-12-09 13:16:07.008698$GNVTG,8.47,T,,M,3.91,N,7.24,K,A*22
###2023-12-09 13:16:07.010336$GNGST,181606.10,18.000,,,,0.098,0.071,0.170*56
###2023-12-09 13:16:07.011642$GNZDA,181606.10,09,12,2023,00,00*78
###2023-12-09 13:16:07.012283$GNEBP,,,,,,M*13
###2023-12-09 13:16:07.177592$GNGGA,181606.30,4138.0579632,N,07032.2760077,W,1,24,0.7,13.270,M,-29.743,M,0.0,*52
###2023-12-09 13:16:07.379267$GNGGA,181606.50,4138.0581786,N,07032.2759796,W,1,24,0.7,13.277,M,-29.743,M,0.0,*58
###2023-12-09 13:16:07.579640$GNGGA,181606.70,4138.0583974,N,07032.2759337,W,1,24,0.7,13.270,M,-29.743,M,0.0,*53
###2023-12-09 13:16:07.778637$GNGGA,181606.90,4138.0586137,N,07032.2758930,W,1,24,0.7,13.259,M,-29.743,M,0.0,*50
###2023-12-09 13:16:07.981851$GNRMC,181607.10,A,4138.0588270,N,07032.2758754,W,3.85,2.17,091223,,,A*5D
###2023-12-09 13:16:07.984731$GNGGA,181607.10,4138.0588270,N,07032.2758754,W,1,24,0.7,13.253,M,-29.743,M,0.0,*51
###2023-12-09 13:16:07.986528$GPGSA,A,3,03,04,16,26,28,29,31,,,,,,1.2,0.7,1.0*30
###2023-12-09 13:16:07.988253$GLGSA,A,3,65,71,72,73,74,75,,,,,,,1.2,0.7,1.0*2E
###2023-12-09 13:16:07.989834$GAGSA,A,3,04,19,21,27,,,,,,,,,1.2,0.7,1.0*2C
###2023-12-09 13:16:07.991556$GBGSA,A,3,14,24,25,26,33,35,,,,,,,1.2,0.7,1.0*23
###2023-12-09 13:16:07.993877$GPGSV,2,1,07,03,32,254,44,04,38,311,44,16,57,216,46,26,87,208,48*7F
###2023-12-09 13:16:07.995922$GPGSV,2,2,07,28,44,077,45,29,24,054,40,31,65,052,46,,,,*49
###2023-12-09 13:16:07.998254$GLGSV,2,1,06,65,30,325,41,71,33,174,47,72,71,243,47,73,30,046,42*60
###2023-12-09 13:16:08.000007$GLGSV,2,2,06,74,66,355,41,75,37,260,47,,,,,,,,*67
###2023-12-09 13:16:08.002330$GAGSV,1,1,04,04,34,312,43,19,79,190,41,21,83,062,46,27,28,049,38*64
###2023-12-09 13:16:08.004681$GBGSV,2,1,06,14,37,191,44,24,69,035,47,25,45,267,47,26,22,066,43*6F
###2023-12-09 13:16:08.006433$GBGSV,2,2,06,33,53,225,47,35,16,064,43,,,,,,,,*69
###2023-12-09 13:16:08.007716$GNVTG,2.17,T,,M,3.85,N,7.13,K,A*2C
###2023-12-09 13:16:08.009373$GNGST,181607.10,18.000,,,,0.098,0.071,0.170*57
###2023-12-09 13:16:08.010679$GNZDA,181607.10,09,12,2023,00,00*79
###2023-12-09 13:16:08.011320$GNEBP,,,,,,M*13
###2023-12-09 13:16:08.177816$GNGGA,181607.30,4138.0590383,N,07032.2758614,W,1,24,0.7,13.244,M,-29.743,M,0.0,*54
###2023-12-09 13:16:08.378604$GNGGA,181607.50,4138.0592452,N,07032.2758428,W,1,24,0.7,13.238,M,-29.743,M,0.0,*5D
###2023-12-09 13:16:08.579256$GNGGA,181607.70,4138.0594481,N,07032.2758318,W,1,24,0.7,13.239,M,-29.743,M,0.0,*52
###2023-12-09 13:16:08.778615$GNGGA,181607.90,4138.0596456,N,07032.2758437,W,1,24,0.7,13.242,M,-29.743,M,0.0,*52
###2023-12-09 13:16:08.988828$GNRMC,181608.10,A,4138.0598389,N,07032.2758691,W,3.54,354.72,091223,,,A*53
###2023-12-09 13:16:08.991705$GNGGA,181608.10,4138.0598389,N,07032.2758691,W,1,24,0.7,13.238,M,-29.743,M,0.0,*5D
###2023-12-09 13:16:08.993500$GPGSA,A,3,03,04,16,26,28,29,31,,,,,,1.2,0.7,1.0*30
###2023-12-09 13:16:08.995231$GLGSA,A,3,65,71,72,73,74,75,,,,,,,1.2,0.7,1.0*2E
###2023-12-09 13:16:08.996816$GAGSA,A,3,04,19,21,27,,,,,,,,,1.2,0.7,1.0*2C
###2023-12-09 13:16:08.998536$GBGSA,A,3,14,24,25,26,33,35,,,,,,,1.2,0.7,1.0*23
###2023-12-09 13:16:09.000874$GPGSV,2,1,07,03,32,254,44,04,38,311,44,16,57,216,47,26,87,208,48*7E
###2023-12-09 13:16:09.002928$GPGSV,2,2,07,28,44,077,45,29,24,054,41,31,65,052,47,,,,*49
###2023-12-09 13:16:09.005254$GLGSV,2,1,06,65,30,325,37,71,33,174,46,72,71,243,46,73,30,046,43*60
###2023-12-09 13:16:09.007015$GLGSV,2,2,06,74,66,355,41,75,37,260,47,,,,,,,,*67
###2023-12-09 13:16:09.009343$GAGSV,1,1,04,04,34,312,43,19,79,190,41,21,83,062,46,27,28,049,40*6B
###2023-12-09 13:16:09.011690$GBGSV,2,1,06,14,37,191,43,24,69,035,46,25,45,267,46,26,22,066,42*69
###2023-12-09 13:16:09.013440$GBGSV,2,2,06,33,53,225,47,35,16,064,40,,,,,,,,*6A
###2023-12-09 13:16:09.014774$GNVTG,354.72,T,,M,3.54,N,6.55,K,A*20
###2023-12-09 13:16:09.016420$GNGST,181608.10,18.000,,,,0.098,0.071,0.170*58
###2023-12-09 13:16:09.017712$GNZDA,181608.10,09,12,2023,00,00*76
###2023-12-09 13:16:09.018350$GNEBP,,,,,,M*13
###2023-12-09 13:16:09.181534$GNGGA,181608.30,4138.0600324,N,07032.2758949,W,1,24,0.7,13.233,M,-29.742,M,0.0,*5A
###2023-12-09 13:16:09.378987$GNGGA,181608.50,4138.0602234,N,07032.2759230,W,1,24,0.7,13.231,M,-29.742,M,0.0,*58
###2023-12-09 13:16:09.578638$GNGGA,181608.70,4138.0604125,N,07032.2759637,W,1,24,0.7,13.230,M,-29.742,M,0.0,*5D
###2023-12-09 13:16:09.779783$GNGGA,181608.90,4138.0606009,N,07032.2760102,W,1,24,0.7,13.225,M,-29.742,M,0.0,*51
###2023-12-09 13:16:09.980544$GNRMC,181609.10,A,4138.0607911,N,07032.2760493,W,3.46,350.98,091223,,,A*54
###2023-12-09 13:16:09.983642$GNGGA,181609.10,4138.0607911,N,07032.2760493,W,1,24,0.7,13.229,M,-29.742,M,0.0,*58
###2023-12-09 13:16:09.985448$GPGSA,A,3,03,04,16,26,28,29,31,,,,,,1.2,0.7,1.0*30
###2023-12-09 13:16:09.987182$GLGSA,A,3,65,71,72,73,74,75,,,,,,,1.2,0.7,1.0*2E
###2023-12-09 13:16:09.988764$GAGSA,A,3,04,19,21,27,,,,,,,,,1.2,0.7,1.0*2C
###2023-12-09 13:16:09.990470$GBGSA,A,3,14,24,25,26,33,35,,,,,,,1.2,0.7,1.0*23
###2023-12-09 13:16:09.992795$GPGSV,2,1,07,03,32,254,44,04,38,311,44,16,57,216,47,26,87,208,48*7E
###2023-12-09 13:16:09.994839$GPGSV,2,2,07,28,44,077,46,29,24,054,41,31,65,052,47,,,,*4A
###2023-12-09 13:16:09.997171$GLGSV,2,1,06,65,30,325,38,71,33,174,45,72,71,243,46,73,30,046,43*6C
###2023-12-09 13:16:09.998932$GLGSV,2,2,06,74,66,355,41,75,37,260,47,,,,,,,,*67
###2023-12-09 13:16:10.001251$GAGSV,1,1,04,04,34,312,43,19,79,190,41,21,83,062,46,27,28,049,40*6B
