###2023-12-09 12:30:52.935178$GLGSA,A,3,71,72,73,75,,,,,,,,,1.4,0.8,1.2*25
###2023-12-09 12:30:52.936676$GAGSA,A,3,21,27,,,,,,,,,,,1.4,0.8,1.2*2B
###2023-12-09 12:30:52.938216$GBGSA,A,3,14,26,33,,,,,,,,,,1.4,0.8,1.2*2F
###2023-12-09 12:30:52.940592$GPGSV,2,1,08,03,39,279,40,04,20,310,35,16,34,206,38,26,64,206,44*7C
###2023-12-09 12:30:52.942970$GPGSV,2,2,08,28,60,053,44,29,25,076,44,31,73,353,42,32,32,133,48*7E
###2023-12-09 12:30:52.945321$GLGSV,1,1,04,71,59,168,48,72,64,313,42,73,50,032,45,75,20,239,40*65
###2023-12-09 12:30:52.947192$GAGSV,1,1,02,21,76,178,40,27,43,050,45,,,,,,,,*64
###2023-12-09 12:30:52.949261$GBGSV,1,1,03,14,57,199,43,26,36,056,44,33,63,258,35,,,,*57
###2023-12-09 12:30:52.950413$GNVTG,,T,,M,0.02,N,0.04,K,A*3B
###2023-12-09 12:30:52.952097$GNGST,173052.10,31.000,,,,0.100,0.099,0.250*50
###2023-12-09 12:30:52.953406$GNZDA,173052.10,09,12,2023,00,00*72
###2023-12-09 12:30:52.954059$GNEBP,,,,,,M*13
###2023-12-09 12:30:53.124849$GNGGA,173052.30,4138.0382458,N,07032.4365315,W,1,17,0.8,14.998,M,-29.746,M,0.0,*54
###2023-12-09 12:30:53.324770$GNGGA,173052.50,4138.0382508,N,07032.4365308,W,1,17,0.8,15.000,M,-29.746,M,0.0,*53
###2023-12-09 12:30:53.525940$GNGGA,173052.70,4138.0382565,N,07032.4365318,W,1,17,0.8,14.996,M,-29.746,M,0.0,*5C
###2023-12-09 12:30:53.727401$GNGGA,173052.90,4138.0382626,N,07032.4365323,W,1,17,0.8,14.995,M,-29.746,M,0.0,*5D
###2023-12-09 12:30:53.924936$GNRMC,173053.10,A,4138.0382697,N,07032.4365370,W,0.08,,091223,,,A*44
###2023-12-09 12:30:53.928001$GNGGA,173053.10,4138.0382697,N,07032.4365370,W,1,16,0.9,14.991,M,-29.746,M,0.0,*5C
###2023-12-09 12:30:53.929815$GPGSA,A,3,03,16,26,28,29,31,32,,,,,,1.6,0.9,1.4*3B
###2023-12-09 12:30:53.931446$GLGSA,A,3,71,72,73,75,,,,,,,,,1.6,0.9,1.4*20
###2023-12-09 12:30:53.932931$GAGSA,A,3,21,27,,,,,,,,,,,1.6,0.9,1.4*2E
###2023-12-09 12:30:53.934462$GBGSA,A,3,14,26,33,,,,,,,,,,1.6,0.9,1.4*2A
###2023-12-09 12:30:53.936823$GPGSV,2,1,07,03,39,279,38,16,34,206,36,26,64,206,43,28,60,053,43*7A
###2023-12-09 12:30:53.938896$GPGSV,2,2,07,29,25,076,43,31,73,353,41,32,32,133,47,,,,*40
###2023-12-09 12:30:53.941252$GLGSV,1,1,04,71,59,168,48,72,64,313,42,73,50,032,45,75,20,239,40*65
###2023-12-09 12:30:53.943047$GAGSV,1,1,02,21,76,178,40,27,43,050,45,,,,,,,,*64
###2023-12-09 12:30:53.945104$GBGSV,1,1,03,14,57,199,44,26,36,056,45,33,63,258,35,,,,*51
###2023-12-09 12:30:53.946255$GNVTG,,T,,M,0.08,N,0.14,K,A*30
###2023-12-09 12:30:53.947967$GNGST,173053.10,32.000,,,,0.100,0.100,0.260*50
###2023-12-09 12:30:53.949285$GNZDA,173053.10,09,12,2023,00,00*73
###2023-12-09 12:30:53.949942$GNEBP,,,,,,M*13
###2023-12-09 12:30:54.125883$GNGGA,173053.30,4138.0382764,N,07032.4365380,W,1,17,0.8,14.993,M,-29.746,M,0.0,*5E
###2023-12-09 12:30:54.325754$GNGGA,173053.50,4138.0382808,N,07032.4365381,W,1,17,0.8,14.996,M,-29.746,M,0.0,*59
###2023-12-09 12:30:54.526413$GNGGA,173053.70,4138.0382863,N,07032.4365387,W,1,17,0.8,14.992,M,-29.746,M,0.0,*54
###2023-12-09 12:30:54.725589$GNGGA,173053.90,4138.0382917,N,07032.4365386,W,1,15,0.9,14.997,M,-29.746,M,0.0,*5F
###2023-12-09 12:30:54.927625$GNRMC,173054.10,A,4138.0382970,N,07032.4365389,W,0.00,,091223,,,A*4B
###2023-12-09 12:30:54.930715$GNGGA,173054.10,4138.0382970,N,07032.4365389,W,1,15,0.9,15.005,M,-29.746,M,0.0,*5D
###2023-12-09 12:30:54.932687$GPGSA,A,3,03,16,26,28,29,31,32,,,,,,1.6,0.9,1.4*3B
###2023-12-09 12:30:54.934477$GLGSA,A,3,71,72,73,75,,,,,,,,,1.6,0.9,1.4*20
###2023-12-09 12:30:54.936120$GAGSA,A,3,21,27,,,,,,,,,,,1.6,0.9,1.4*2E
###2023-12-09 12:30:54.937741$GBGSA,A,3,14,26,,,,,,,,,,,1.6,0.9,1.4*2A
###2023-12-09 12:30:54.940248$GPGSV,2,1,07,03,39,279,39,16,34,206,37,26,64,206,44,28,60,053,44*7A
###2023-12-09 12:30:54.942453$GPGSV,2,2,07,29,25,076,43,31,73,353,42,32,32,133,48,,,,*4C
###2023-12-09 12:30:54.944994$GLGSV,1,1,04,71,59,168,47,72,64,313,42,73,50,032,45,75,20,239,40*6A
###2023-12-09 12:30:54.946952$GAGSV,1,1,02,21,76,178,40,27,43,050,45,,,,,,,,*64
###2023-12-09 12:30:54.948902$GBGSV,1,1,02,14,57,199,43,26,36,056,44,,,,,,,,*6A
###2023-12-09 12:30:54.950201$GNVTG,,T,,M,0.00,N,0.00,K,A*3D
###2023-12-09 12:30:54.952034$GNGST,173054.10,33.000,,,,0.100,0.110,0.260*57
###2023-12-09 12:30:54.953499$GNZDA,173054.10,09,12,2023,00,00*74
###2023-12-09 12:30:54.954303$GNEBP,,,,,,M*13
###2023-12-09 12:30:55.126414$GNGGA,173054.30,4138.0383032,N,07032.4365410,W,1,16,0.9,15.003,M,-29.746,M,0.0,*53
###2023-12-09 12:30:55.326318$GNGGA,173054.50,4138.0383085,N,07032.4365419,W,1,17,0.8,15.005,M,-29.746,M,0.0,*56
###2023-12-09 12:30:55.527082$GNGGA,173054.70,4138.0383121,N,07032.4365403,W,1,17,0.8,15.012,M,-29.746,M,0.0,*56
###2023-12-09 12:30:55.726327$GNGGA,173054.90,4138.0383180,N,07032.4365408,W,1,17,0.8,15.010,M,-29.746,M,0.0,*5A
###2023-12-09 12:30:55.928672$GNRMC,173055.10,A,4138.0383237,N,07032.4365416,W,0.08,,091223,,,A*4A
###2023-12-09 12:30:55.931663$GNGGA,173055.10,4138.0383237,N,07032.4365416,W,1,17,0.8,15.009,M,-29.746,M,0.0,*5B
###2023-12-09 12:30:55.933597$GPGSA,A,3,03,04,16,26,28,29,31,32,,,,,1.4,0.8,1.2*3A
###2023-12-09 12:30:55.935268$GLGSA,A,3,71,72,73,75,,,,,,,,,1.4,0.8,1.2*25
###2023-12-09 12:30:55.936774$GAGSA,A,3,21,27,,,,,,,,,,,1.4,0.8,1.2*2B
###2023-12-09 12:30:55.938337$GBGSA,A,3,14,26,33,,,,,,,,,,1.4,0.8,1.2*2F
###2023-12-09 12:30:55.940730$GPGSV,2,1,08,03,39,279,39,04,20,310,35,16,34,206,38,26,64,206,44*72
###2023-12-09 12:30:55.943138$GPGSV,2,2,08,28,60,053,44,29,25,076,44,31,73,353,42,32,32,133,48*7E
###2023-12-09 12:30:55.945512$GLGSV,1,1,04,71,59,168,48,72,64,313,42,73,50,032,45,75,20,239,41*64
###2023-12-09 12:30:55.947355$GAGSV,1,1,02,21,76,178,40,27,43,050,45,,,,,,,,*64
###2023-12-09 12:30:55.949457$GBGSV,1,1,03,14,57,199,43,26,36,056,45,33,63,258,35,,,,*56
###2023-12-09 12:30:55.950659$GNVTG,,T,,M,0.08,N,0.14,K,A*30
###2023-12-09 12:30:55.952352$GNGST,173055.10,31.000,,,,0.100,0.110,0.270*55
###2023-12-09 12:30:55.953689$GNZDA,173055.10,09,12,2023,00,00*75
###2023-12-09 12:30:55.954339$GNEBP,,,,,,M*13
###2023-12-09 12:30:56.126372$GNGGA,173055.30,4138.0383283,N,07032.4365422,W,1,18,0.7,15.008,M,-29.746,M,0.0,*50
###2023-12-09 12:30:56.326326$GNGGA,173055.50,4138.0383327,N,07032.4365425,W,1,18,0.7,15.017,M,-29.746,M,0.0,*50
###2023-12-09 12:30:56.526344$GNGGA,173055.70,4138.0383361,N,07032.4365406,W,1,17,0.8,15.022,M,-29.746,M,0.0,*57
###2023-12-09 12:30:56.725704$GNGGA,173055.90,4138.0383392,N,07032.4365381,W,1,19,0.7,15.029,M,-29.746,M,0.0,*57
###2023-12-09 12:30:56.931522$GNRMC,173056.10,A,4138.0383405,N,07032.4365378,W,0.02,,091223,,,A*4B
###2023-12-09 12:30:56.934405$GNGGA,173056.10,4138.0383405,N,07032.4365378,W,1,19,0.7,15.027,M,-29.746,M,0.0,*5D
###2023-12-09 12:30:56.936293$GPGSA,A,3,03,04,16,26,28,29,31,32,,,,,1.3,0.7,1.1*31
###2023-12-09 12:30:56.937890$GLGSA,A,3,71,72,73,75,,,,,,,,,1.3,0.7,1.1*2E
###2023-12-09 12:30:56.939368$GAGSA,A,3,21,27,,,,,,,,,,,1.3,0.7,1.1*20
###2023-12-09 12:30:56.940961$GBGSA,A,3,14,25,26,33,,,,,,,,,1.3,0.7,1.1*23
###2023-12-09 12:30:56.943313$GPGSV,2,1,08,03,39,279,42,04,20,310,35,16,34,206,39,26,64,206,45*7E
###2023-12-09 12:30:56.945653$GPGSV,2,2,08,28,60,053,46,29,25,076,44,31,73,353,44,32,32,133,50*73
###2023-12-09 12:30:56.948042$GLGSV,1,1,04,71,59,168,48,72,64,313,42,73,50,032,45,75,20,239,41*64
###2023-12-09 12:30:56.949827$GAGSV,1,1,02,21,76,178,40,27,43,050,46,,,,,,,,*67
###2023-12-09 12:30:56.952190$GBGSV,1,1,04,14,57,199,43,25,31,251,35,26,36,056,45,33,63,258,35*64
###2023-12-09 12:30:56.953337$GNVTG,,T,,M,0.02,N,0.04,K,A*3B
###2023-12-09 12:30:56.955018$GNGST,173056.10,30.000,,,,0.100,0.110,0.270*57
###2023-12-09 12:30:56.956322$GNZDA,173056.10,09,12,2023,00,00*76
###2023-12-09 12:30:56.956968$GNEBP,,,,,,M*13
###2023-12-09 12:30:57.129152$GNGGA,173056.30,4138.0383432,N,07032.4365380,W,1,18,0.7,15.023,M,-29.746,M,0.0,*59
###2023-12-09 12:30:57.324571$GNGGA,173056.50,4138.0383454,N,07032.4365375,W,1,16,0.9,15.024,M,-29.746,M,0.0,*52
###2023-12-09 12:30:57.525748$GNGGA,173056.70,4138.0383475,N,07032.4365347,W,1,16,0.9,15.024,M,-29.746,M,0.0,*52
###2023-12-09 12:30:57.724839$GNGGA,173056.90,4138.0383500,N,07032.4365344,W,1,16,0.9,15.027,M,-29.746,M,0.0,*5F
###2023-12-09 12:30:57.926868$GNRMC,173057.10,A,4138.0383534,N,07032.4365333,W,0.04,,091223,,,A*40
###2023-12-09 12:30:57.929988$GNGGA,173057.10,4138.0383534,N,07032.4365333,W,1,15,0.9,15.028,M,-29.746,M,0.0,*5D
###2023-12-09 12:30:57.931836$GPGSA,A,3,03,16,26,28,29,31,32,,,,,,1.6,0.9,1.4*3B
###2023-12-09 12:30:57.933448$GLGSA,A,3,71,72,73,75,,,,,,,,,1.6,0.9,1.4*20
###2023-12-09 12:30:57.934932$GAGSA,A,3,21,27,,,,,,,,,,,1.6,0.9,1.4*2E
###2023-12-09 12:30:57.936399$GBGSA,A,3,14,26,,,,,,,,,,,1.6,0.9,1.4*2A
###2023-12-09 12:30:57.938777$GPGSV,2,1,07,03,39,279,40,16,35,207,39,26,64,206,44,28,60,053,45*7B
###2023-12-09 12:30:57.940857$GPGSV,2,2,07,29,25,076,44,31,73,353,42,32,32,133,48,,,,*4B
