###2023-12-09 13:21:38.993489$GPGSA,A,3,03,04,16,26,28,29,31,,,,,,1.1,0.7,0.9*3B
###2023-12-09 13:21:38.995289$GLGSA,A,3,65,71,72,73,74,75,,,,,,,1.1,0.7,0.9*25
###2023-12-09 13:21:38.996889$GAGSA,A,3,04,19,21,27,,,,,,,,,1.1,0.7,0.9*27
###2023-12-09 13:21:38.998624$GBGSA,A,3,14,24,25,26,33,35,,,,,,,1.1,0.7,0.9*28
###2023-12-09 13:21:39.000957$GPGSV,2,1,07,03,30,252,43,04,41,310,45,16,60,218,46,26,90,099,48*74
###2023-12-09 13:21:39.003012$GPGSV,2,2,07,28,42,080,42,29,23,052,38,31,63,057,46,,,,*4D
###2023-12-09 13:21:39.005337$GLGSV,2,1,06,65,33,323,42,71,30,174,42,72,69,234,46,73,27,048,39*6C
###2023-12-09 13:21:39.007093$GLGSV,2,2,06,74,64,002,41,75,39,263,48,,,,,,,,*66
###2023-12-09 13:21:39.009405$GAGSV,1,1,04,04,35,311,43,19,77,186,41,21,81,055,45,27,27,049,38*65
###2023-12-09 13:21:39.011762$GBGSV,2,1,06,14,35,191,42,24,67,039,47,25,47,270,46,26,20,067,39*62
###2023-12-09 13:21:39.013510$GBGSV,2,2,06,33,51,222,46,35,16,062,38,,,,,,,,*67
###2023-12-09 13:21:39.014809$GNVTG,26.93,T,,M,3.40,N,6.30,K,A*1F
###2023-12-09 13:21:39.016456$GNGST,182138.10,18.000,,,,0.100,0.070,0.170*5E
###2023-12-09 13:21:39.017749$GNZDA,182138.10,09,12,2023,00,00*71
###2023-12-09 13:21:39.018388$GNEBP,,,,,,M*13
###2023-12-09 13:21:39.187243$GNGGA,182138.30,4138.0521551,N,07032.3410337,W,1,24,0.7,13.200,M,-29.744,M,0.0,*52
###2023-12-09 13:21:39.384853$GNGGA,182138.50,4138.0523348,N,07032.3409595,W,1,24,0.7,13.200,M,-29.744,M,0.0,*5E
###2023-12-09 13:21:39.585649$GNGGA,182138.70,4138.0525224,N,07032.3409284,W,1,24,0.7,13.199,M,-29.744,M,0.0,*55
###2023-12-09 13:21:39.785791$GNGGA,182138.90,4138.0527103,N,07032.3408897,W,1,24,0.7,13.185,M,-29.744,M,0.0,*5B
###2023-12-09 13:21:39.987374$GNRMC,182139.10,A,4138.0529034,N,07032.3408332,W,3.58,11.68,091223,,,A*64
###2023-12-09 13:21:39.990193$GNGGA,182139.10,4138.0529034,N,07032.3408332,W,1,24,0.7,13.190,M,-29.744,M,0.0,*59
###2023-12-09 13:21:39.991981$GPGSA,A,3,03,04,16,26,28,29,31,,,,,,1.1,0.7,0.9*3B
###2023-12-09 13:21:39.993683$GLGSA,A,3,65,71,72,73,74,75,,,,,,,1.1,0.7,0.9*25
###2023-12-09 13:21:39.995277$GAGSA,A,3,04,19,21,27,,,,,,,,,1.1,0.7,0.9*27
###2023-12-09 13:21:39.996975$GBGSA,A,3,14,24,25,26,33,35,,,,,,,1.1,0.7,0.9*28
###2023-12-09 13:21:39.999309$GPGSV,2,1,07,03,30,252,43,04,41,310,45,16,60,218,46,26,90,099,48*74
###2023-12-09 13:21:40.001345$GPGSV,2,2,07,28,42,080,44,29,23,052,39,31,63,057,46,,,,*4A
###2023-12-09 13:21:40.003673$GLGSV,2,1,06,65,33,323,42,71,30,174,42,72,69,234,46,73,27,048,40*62
###2023-12-09 13:21:40.005411$GLGSV,2,2,06,74,64,002,41,75,39,263,47,,,,,,,,*69
###2023-12-09 13:21:40.007737$GAGSV,1,1,04,04,35,311,43,19,77,186,41,21,81,055,45,27,27,049,38*65
###2023-12-09 13:21:40.010052$GBGSV,2,1,06,14,35,191,44,24,67,039,47,25,47,270,48,26,20,067,41*65
###2023-12-09 13:21:40.011802$GBGSV,2,2,06,33,51,222,47,35,16,062,41,,,,,,,,*68
###2023-12-09 13:21:40.013085$GNVTG,11.68,T,,M,3.58,N,6.62,K,A*11
###2023-12-09 13:21:40.014735$GNGST,182139.10,18.000,,,,0.100,0.071,0.170*5E
###2023-12-09 13:21:40.016018$GNZDA,182139.10,09,12,2023,00,00*70
###2023-12-09 13:21:40.016652$GNEBP,,,,,,M*13
###2023-12-09 13:21:40.183304$GNGGA,182139.30,4138.0531032,N,07032.3407906,W,1,24,0.7,13.202,M,-29.744,M,0.0,*5E
###2023-12-09 13:21:40.383005$GNGGA,182139.50,4138.0533064,N,07032.3407712,W,1,24,0.7,13.194,M,-29.744,M,0.0,*5E
###2023-12-09 13:21:40.582893$GNGGA,182139.70,4138.0535112,N,07032.3407759,W,1,24,0.7,13.183,M,-29.744,M,0.0,*53
###2023-12-09 13:21:40.782906$GNGGA,182139.90,4138.0537227,N,07032.3407679,W,1,24,0.7,13.180,M,-29.744,M,0.0,*5A
###2023-12-09 13:21:40.987280$GNRMC,182140.10,A,4138.0539363,N,07032.3407574,W,3.83,0.46,091223,,,A*5B
###2023-12-09 13:21:40.990118$GNGGA,182140.10,4138.0539363,N,07032.3407574,W,1,24,0.7,13.177,M,-29.744,M,0.0,*55
###2023-12-09 13:21:40.991922$GPGSA,A,3,03,04,16,26,28,29,31,,,,,,1.1,0.7,0.9*3B
###2023-12-09 13:21:40.993630$GLGSA,A,3,65,71,72,73,74,75,,,,,,,1.1,0.7,0.9*25
###2023-12-09 13:21:40.995229$GAGSA,A,3,04,19,21,27,,,,,,,,,1.1,0.7,0.9*27
###2023-12-09 13:21:40.996946$GBGSA,A,3,14,24,25,26,33,35,,,,,,,1.1,0.7,0.9*28
###2023-12-09 13:21:40.999285$GPGSV,2,1,07,03,30,252,44,04,41,310,45,16,60,218,47,26,90,099,48*72
###2023-12-09 13:21:41.001323$GPGSV,2,2,07,28,42,080,44,29,23,052,41,31,63,057,46,,,,*45
###2023-12-09 13:21:41.003668$GLGSV,2,1,06,65,33,323,42,71,30,174,45,72,69,234,46,73,27,048,41*64
###2023-12-09 13:21:41.005415$GLGSV,2,2,06,74,64,002,41,75,39,263,48,,,,,,,,*66
###2023-12-09 13:21:41.007758$GAGSV,1,1,04,04,35,311,43,19,77,186,41,21,81,055,46,27,27,049,40*69
###2023-12-09 13:21:41.010084$GBGSV,2,1,06,14,35,191,43,24,67,039,48,25,47,270,48,26,20,067,41*6D
###2023-12-09 13:21:41.011882$GBGSV,2,2,06,33,51,222,47,35,16,062,42,,,,,,,,*6B
###2023-12-09 13:21:41.013148$GNVTG,0.46,T,,M,3.83,N,7.09,K,A*27
###2023-12-09 13:21:41.014809$GNGST,182140.10,18.000,,,,0.100,0.070,0.170*51
###2023-12-09 13:21:41.016100$GNZDA,182140.10,09,12,2023,00,00*7E
###2023-12-09 13:21:41.016737$GNEBP,,,,,,M*13
###2023-12-09 13:21:41.182318$GNGGA,182140.30,4138.0541475,N,07032.3407604,W,1,24,0.7,13.182,M,-29.744,M,0.0,*56
###2023-12-09 13:21:41.382008$GNGGA,182140.50,4138.0543579,N,07032.3407884,W,1,24,0.7,13.186,M,-29.744,M,0.0,*5D
###2023-12-09 13:21:41.583787$GNGGA,182140.70,4138.0545659,N,07032.3408184,W,1,24,0.7,13.178,M,-29.744,M,0.0,*5F
###2023-12-09 13:21:41.784036$GNGGA,182140.90,4138.0547720,N,07032.3408396,W,1,24,0.7,13.166,M,-29.744,M,0.0,*52
###2023-12-09 13:21:41.986308$GNRMC,182141.10,A,4138.0549733,N,07032.3408714,W,3.60,350.56,091223,,,A*5D
###2023-12-09 13:21:41.989203$GNGGA,182141.10,4138.0549733,N,07032.3408714,W,1,24,0.7,13.165,M,-29.744,M,0.0,*5A
###2023-12-09 13:21:41.991008$GPGSA,A,3,03,04,16,26,28,29,31,,,,,,1.1,0.7,0.9*3B
###2023-12-09 13:21:41.992736$GLGSA,A,3,65,71,72,73,74,75,,,,,,,1.1,0.7,0.9*25
###2023-12-09 13:21:41.994329$GAGSA,A,3,04,19,21,27,,,,,,,,,1.1,0.7,0.9*27
###2023-12-09 13:21:41.996058$GBGSA,A,3,14,24,25,26,33,35,,,,,,,1.1,0.7,0.9*28
###2023-12-09 13:21:41.998404$GPGSV,2,1,07,03,30,252,43,04,41,310,42,16,60,218,46,26,90,099,47*7C
###2023-12-09 13:21:42.000468$GPGSV,2,2,07,28,42,080,43,29,23,052,41,31,63,057,46,,,,*42
###2023-12-09 13:21:42.002835$GLGSV,2,1,06,65,33,323,38,71,30,174,46,72,69,234,46,73,27,048,41*6A
###2023-12-09 13:21:42.004625$GLGSV,2,2,06,74,64,002,41,75,39,263,46,,,,,,,,*68
###2023-12-09 13:21:42.007000$GAGSV,1,1,04,04,35,311,41,19,77,186,41,21,81,055,46,27,27,049,40*6B
###2023-12-09 13:21:42.009343$GBGSV,2,1,06,14,35,191,42,24,67,039,47,25,47,270,46,26,20,067,42*6E
###2023-12-09 13:21:42.011138$GBGSV,2,2,06,33,51,222,47,35,16,062,41,,,,,,,,*68
###2023-12-09 13:21:42.012464$GNVTG,350.56,T,,M,3.60,N,6.66,K,A*25
###2023-12-09 13:21:42.014112$GNGST,182141.10,18.000,,,,0.100,0.070,0.170*50
###2023-12-09 13:21:42.015417$GNZDA,182141.10,09,12,2023,00,00*7F
###2023-12-09 13:21:42.016054$GNEBP,,,,,,M*13
###2023-12-09 13:21:42.184208$GNGGA,182141.30,4138.0551664,N,07032.3409263,W,1,24,0.7,13.163,M,-29.744,M,0.0,*50
###2023-12-09 13:21:42.383038$GNGGA,182141.50,4138.0553514,N,07032.3409845,W,1,24,0.7,13.162,M,-29.744,M,0.0,*5F
###2023-12-09 13:21:42.582953$GNGGA,182141.70,4138.0555294,N,07032.3410549,W,1,24,0.7,13.162,M,-29.744,M,0.0,*5D
###2023-12-09 13:21:42.784952$GNGGA,182141.90,4138.0557049,N,07032.3411305,W,1,24,0.7,13.166,M,-29.744,M,0.0,*58
###2023-12-09 13:21:42.987926$GNRMC,182142.10,A,4138.0558761,N,07032.3412132,W,3.29,337.71,091223,,,A*59
###2023-12-09 13:21:42.990798$GNGGA,182142.10,4138.0558761,N,07032.3412132,W,1,24,0.7,13.158,M,-29.744,M,0.0,*59
###2023-12-09 13:21:42.992594$GPGSA,A,3,03,04,16,26,28,29,31,,,,,,1.1,0.7,0.9*3B
###2023-12-09 13:21:42.994299$GLGSA,A,3,65,71,72,73,74,75,,,,,,,1.1,0.7,0.9*25
###2023-12-09 13:21:42.995933$GAGSA,A,3,04,19,21,27,,,,,,,,,1.1,0.7,0.9*27
###2023-12-09 13:21:42.997662$GBGSA,A,3,14,24,25,26,33,35,,,,,,,1.1,0.7,0.9*28
###2023-12-09 13:21:43.000009$GPGSV,2,1,07,03,30,252,43,04,41,310,42,16,60,218,46,26,90,099,48*73
###2023-12-09 13:21:43.002069$GPGSV,2,2,07,28,42,080,45,29,23,052,42,31,63,057,46,,,,*47
###2023-12-09 13:21:43.004420$GLGSV,2,1,06,65,33,323,40,71,30,174,44,72,69,234,46,73,27,048,44*62
###2023-12-09 13:21:43.006429$GLGSV,2,2,06,74,64,002,41,75,39,263,46,,,,,,,,*68
###2023-12-09 13:21:43.008792$GAGSV,1,1,04,04,35,311,41,19,77,186,41,21,81,055,46,27,27,049,41*6A
###2023-12-09 13:21:43.011149$GBGSV,2,1,06,14,35,191,42,24,67,039,49,25,47,270,48,26,20,067,43*6F
###2023-12-09 13:21:43.012906$GBGSV,2,2,06,33,51,222,48,35,16,062,43,,,,,,,,*65
###2023-12-09 13:21:43.014231$GNVTG,337.71,T,,M,3.29,N,6.08,K,A*24
###2023-12-09 13:21:43.015897$GNGST,182142.10,18.000,,,,0.100,0.071,0.170*52
###2023-12-09 13:21:43.017196$GNZDA,182142.10,09,12,2023,00,00*7C
###2023-12-09 13:21:43.017838$GNEBP,,,,,,M*13
###2023-12-09 13:21:43.183283$GNGGA,182142.30,4138.0560381,N,07032.3413138,W,1,24,0.7,13.161,M,-29.744,M,0.0,*5B
