###2023-12-09 12:43:23.345002$GNGGA,174322.50,4138.0483308,N,07032.3937102,W,1,24,0.6,13.217,M,-29.745,M,0.0,*5D
###2023-12-09 12:43:23.546641$GNGGA,174322.70,4138.0482435,N,07032.3938523,W,1,24,0.6,13.225,M,-29.745,M,0.0,*5E
###2023-12-09 12:43:23.745206$GNGGA,174322.90,4138.0481515,N,07032.3940007,W,1,24,0.6,13.235,M,-29.745,M,0.0,*5D
###2023-12-09 12:43:23.944303$GNRMC,174323.10,A,4138.0480487,N,07032.3941174,W,2.35,211.71,091223,,,A*5A
###2023-12-09 12:43:23.947223$GNGGA,174323.10,4138.0480487,N,07032.3941174,W,1,24,0.6,13.232,M,-29.745,M,0.0,*5C
###2023-12-09 12:43:23.949105$GPGSA,A,3,03,04,16,26,28,29,31,32,,,,,1.1,0.6,0.9*3B
###2023-12-09 12:43:23.950845$GLGSA,A,3,65,71,72,73,74,75,,,,,,,1.1,0.6,0.9*24
###2023-12-09 12:43:23.952442$GAGSA,A,3,04,19,21,27,,,,,,,,,1.1,0.6,0.9*26
###2023-12-09 12:43:23.954097$GBGSA,A,3,14,24,25,26,33,,,,,,,,1.1,0.6,0.9*2F
###2023-12-09 12:43:23.956457$GPGSV,2,1,08,03,38,272,44,04,25,311,43,16,40,208,42,26,70,207,47*70
###2023-12-09 12:43:23.958822$GPGSV,2,2,08,28,55,060,44,29,25,070,41,31,72,013,48,32,27,136,43*7D
###2023-12-09 12:43:23.961167$GLGSV,2,1,06,65,16,329,41,71,51,170,45,72,69,300,47,73,44,036,46*65
###2023-12-09 12:43:23.962935$GLGSV,2,2,06,74,71,307,42,75,25,245,41,,,,,,,,*67
###2023-12-09 12:43:23.965270$GAGSV,1,1,04,04,23,312,42,19,84,288,40,21,81,170,45,27,39,049,44*62
###2023-12-09 12:43:23.967632$GBGSV,2,1,05,14,51,196,44,24,79,002,48,25,35,255,45,26,32,059,43*68
###2023-12-09 12:43:23.969101$GBGSV,2,2,05,33,62,246,47,,,,,,,,,,,,*59
###2023-12-09 12:43:23.970434$GNVTG,211.71,T,,M,2.35,N,4.36,K,A*22
###2023-12-09 12:43:23.972101$GNGST,174323.10,18.000,,,,0.079,0.071,0.170*51
###2023-12-09 12:43:23.973396$GNZDA,174323.10,09,12,2023,00,00*70
###2023-12-09 12:43:23.974038$GNEBP,,,,,,M*13
###2023-12-09 12:43:24.144844$GNGGA,174323.30,4138.0479354,N,07032.3941951,W,1,24,0.6,13.220,M,-29.745,M,0.0,*5D
###2023-12-09 12:43:24.345018$GNGGA,174323.50,4138.0478256,N,07032.3942930,W,1,24,0.6,13.226,M,-29.745,M,0.0,*5B
###2023-12-09 12:43:24.546368$GNGGA,174323.70,4138.0477222,N,07032.3944280,W,1,24,0.6,13.251,M,-29.745,M,0.0,*53
###2023-12-09 12:43:24.745911$GNGGA,174323.90,4138.0476050,N,07032.3945448,W,1,24,0.6,13.232,M,-29.745,M,0.0,*5D
###2023-12-09 12:43:24.944109$GNRMC,174324.10,A,4138.0474824,N,07032.3945941,W,2.18,189.39,091223,,,A*58
###2023-12-09 12:43:24.947016$GNGGA,174324.10,4138.0474824,N,07032.3945941,W,1,24,0.6,13.217,M,-29.745,M,0.0,*58
###2023-12-09 12:43:24.948884$GPGSA,A,3,03,04,16,26,28,29,31,32,,,,,1.1,0.6,0.9*3B
###2023-12-09 12:43:24.950610$GLGSA,A,3,65,71,72,73,74,75,,,,,,,1.1,0.6,0.9*24
###2023-12-09 12:43:24.952194$GAGSA,A,3,04,19,21,27,,,,,,,,,1.1,0.6,0.9*26
###2023-12-09 12:43:24.953834$GBGSA,A,3,14,24,25,26,33,,,,,,,,1.1,0.6,0.9*2F
###2023-12-09 12:43:24.956178$GPGSV,2,1,08,03,38,272,44,04,25,311,42,16,40,208,43,26,70,207,46*71
###2023-12-09 12:43:24.958502$GPGSV,2,2,08,28,55,060,45,29,25,070,42,31,72,013,48,32,27,136,44*78
###2023-12-09 12:43:24.960879$GLGSV,2,1,06,65,16,329,40,71,51,170,46,72,69,300,46,73,44,036,46*66
###2023-12-09 12:43:24.962637$GLGSV,2,2,06,74,71,307,42,75,25,245,41,,,,,,,,*67
###2023-12-09 12:43:24.964958$GAGSV,1,1,04,04,23,312,41,19,84,288,40,21,81,170,46,27,39,049,43*65
###2023-12-09 12:43:24.967290$GBGSV,2,1,05,14,51,196,44,24,79,002,48,25,35,255,44,26,32,059,42*68
###2023-12-09 12:43:24.968740$GBGSV,2,2,05,33,62,246,47,,,,,,,,,,,,*59
###2023-12-09 12:43:24.970056$GNVTG,189.39,T,,M,2.18,N,4.03,K,A*25
###2023-12-09 12:43:24.971705$GNGST,174324.10,18.000,,,,0.079,0.071,0.170*56
###2023-12-09 12:43:24.972990$GNZDA,174324.10,09,12,2023,00,00*77
###2023-12-09 12:43:24.973626$GNEBP,,,,,,M*13
###2023-12-09 12:43:25.144364$GNGGA,174324.30,4138.0473647,N,07032.3946556,W,1,24,0.6,13.244,M,-29.745,M,0.0,*59
###2023-12-09 12:43:25.345555$GNGGA,174324.50,4138.0472401,N,07032.3947664,W,1,24,0.6,13.259,M,-29.745,M,0.0,*51
###2023-12-09 12:43:25.544801$GNGGA,174324.70,4138.0471093,N,07032.3948422,W,1,24,0.6,13.225,M,-29.745,M,0.0,*5B
###2023-12-09 12:43:25.743361$GNGGA,174324.90,4138.0469830,N,07032.3948664,W,1,24,0.6,13.224,M,-29.745,M,0.0,*5C
###2023-12-09 12:43:25.945179$GNRMC,174325.10,A,4138.0468515,N,07032.3949234,W,2.76,200.89,091223,,,A*5F
###2023-12-09 12:43:25.948107$GNGGA,174325.10,4138.0468515,N,07032.3949234,W,1,24,0.6,13.257,M,-29.745,M,0.0,*5A
###2023-12-09 12:43:25.949989$GPGSA,A,3,03,04,16,26,28,29,31,32,,,,,1.1,0.6,0.9*3B
###2023-12-09 12:43:25.951724$GLGSA,A,3,65,71,72,73,74,75,,,,,,,1.1,0.6,0.9*24
###2023-12-09 12:43:25.953309$GAGSA,A,3,04,19,21,27,,,,,,,,,1.1,0.6,0.9*26
###2023-12-09 12:43:25.954975$GBGSA,A,3,14,24,25,26,33,,,,,,,,1.1,0.6,0.9*2F
###2023-12-09 12:43:25.957306$GPGSV,2,1,08,03,38,271,44,04,25,311,40,16,40,208,43,26,70,207,46*70
###2023-12-09 12:43:25.959651$GPGSV,2,2,08,28,55,060,45,29,25,070,43,31,72,013,47,32,27,136,44*76
###2023-12-09 12:43:25.961979$GLGSV,2,1,06,65,16,329,40,71,51,170,46,72,69,300,46,73,44,036,48*68
###2023-12-09 12:43:25.963738$GLGSV,2,2,06,74,71,307,42,75,25,245,41,,,,,,,,*67
###2023-12-09 12:43:25.966062$GAGSV,1,1,04,04,23,312,40,19,84,288,40,21,81,170,46,27,39,049,43*64
###2023-12-09 12:43:25.968403$GBGSV,2,1,05,14,51,196,43,24,79,002,48,25,35,255,44,26,32,059,44*69
###2023-12-09 12:43:25.969854$GBGSV,2,2,05,33,62,246,47,,,,,,,,,,,,*59
###2023-12-09 12:43:25.971182$GNVTG,200.89,T,,M,2.76,N,5.11,K,A*26
###2023-12-09 12:43:25.972825$GNGST,174325.10,18.000,,,,0.079,0.070,0.160*57
###2023-12-09 12:43:25.974114$GNZDA,174325.10,09,12,2023,00,00*76
###2023-12-09 12:43:25.974763$GNEBP,,,,,,M*13
###2023-12-09 12:43:26.143970$GNGGA,174325.30,4138.0467067,N,07032.3949883,W,1,24,0.6,13.255,M,-29.745,M,0.0,*53
###2023-12-09 12:43:26.344283$GNGGA,174325.50,4138.0465682,N,07032.3950124,W,1,24,0.6,13.224,M,-29.745,M,0.0,*50
###2023-12-09 12:43:26.545794$GNGGA,174325.70,4138.0464352,N,07032.3950238,W,1,24,0.6,13.227,M,-29.745,M,0.0,*56
###2023-12-09 12:43:26.744805$GNGGA,174325.90,4138.0462912,N,07032.3950451,W,1,24,0.6,13.245,M,-29.745,M,0.0,*5D
###2023-12-09 12:43:26.944990$GNRMC,174326.10,A,4138.0461471,N,07032.3950564,W,2.57,181.00,091223,,,A*54
###2023-12-09 12:43:26.947887$GNGGA,174326.10,4138.0461471,N,07032.3950564,W,1,24,0.6,13.249,M,-29.745,M,0.0,*56
###2023-12-09 12:43:26.949758$GPGSA,A,3,03,04,16,26,28,29,31,32,,,,,1.1,0.6,0.9*3B
###2023-12-09 12:43:26.951505$GLGSA,A,3,65,71,72,73,74,75,,,,,,,1.1,0.6,0.9*24
###2023-12-09 12:43:26.953087$GAGSA,A,3,04,19,21,27,,,,,,,,,1.1,0.6,0.9*26
###2023-12-09 12:43:26.954746$GBGSA,A,3,14,24,25,26,33,,,,,,,,1.1,0.6,0.9*2F
###2023-12-09 12:43:26.957089$GPGSV,2,1,08,03,38,271,46,04,25,311,40,16,40,208,44,26,70,207,47*74
###2023-12-09 12:43:26.959431$GPGSV,2,2,08,28,55,060,45,29,25,070,44,31,72,013,47,32,27,136,41*74
###2023-12-09 12:43:26.961774$GLGSV,2,1,06,65,16,329,44,71,51,170,46,72,69,300,46,73,44,036,47*63
###2023-12-09 12:43:26.963543$GLGSV,2,2,06,74,71,307,42,75,25,245,45,,,,,,,,*63
###2023-12-09 12:43:26.965877$GAGSV,1,1,04,04,23,312,40,19,84,288,40,21,81,170,46,27,39,049,43*64
###2023-12-09 12:43:26.968232$GBGSV,2,1,05,14,51,196,45,24,79,002,48,25,35,255,45,26,32,059,45*6F
###2023-12-09 12:43:26.969694$GBGSV,2,2,05,33,62,246,48,,,,,,,,,,,,*56
###2023-12-09 12:43:26.971031$GNVTG,181.00,T,,M,2.57,N,4.75,K,A*2D
###2023-12-09 12:43:26.972677$GNGST,174326.10,18.000,,,,0.079,0.070,0.160*54
###2023-12-09 12:43:26.973970$GNZDA,174326.10,09,12,2023,00,00*75
###2023-12-09 12:43:26.974621$GNEBP,,,,,,M*13
###2023-12-09 12:43:27.147107$GNGGA,174326.30,4138.0460067,N,07032.3950503,W,1,24,0.6,13.243,M,-29.745,M,0.0,*5D
###2023-12-09 12:43:27.345236$GNGGA,174326.50,4138.0458685,N,07032.3950221,W,1,24,0.6,13.248,M,-29.745,M,0.0,*56
###2023-12-09 12:43:27.544331$GNGGA,174326.70,4138.0457277,N,07032.3949835,W,1,24,0.6,13.249,M,-29.745,M,0.0,*54
###2023-12-09 12:43:27.743681$GNGGA,174326.90,4138.0455830,N,07032.3949546,W,1,24,0.6,13.264,M,-29.745,M,0.0,*57
###2023-12-09 12:43:27.944103$GNRMC,174327.10,A,4138.0454356,N,07032.3949088,W,2.60,161.49,091223,,,A*59
###2023-12-09 12:43:27.947001$GNGGA,174327.10,4138.0454356,N,07032.3949088,W,1,24,0.6,13.262,M,-29.745,M,0.0,*55
###2023-12-09 12:43:27.948896$GPGSA,A,3,03,04,16,26,28,29,31,32,,,,,1.1,0.6,0.9*3B
###2023-12-09 12:43:27.950901$GLGSA,A,3,65,71,72,73,74,75,,,,,,,1.1,0.6,0.9*24
###2023-12-09 12:43:27.952503$GAGSA,A,3,04,19,21,27,,,,,,,,,1.1,0.6,0.9*26
###2023-12-09 12:43:27.954164$GBGSA,A,3,14,24,25,26,33,,,,,,,,1.1,0.6,0.9*2F
###2023-12-09 12:43:27.956527$GPGSV,2,1,08,03,38,271,44,04,25,311,40,16,40,208,44,26,70,207,48*79
###2023-12-09 12:43:27.958890$GPGSV,2,2,08,28,55,060,45,29,25,070,44,31,72,013,47,32,27,136,41*74
###2023-12-09 12:43:27.961230$GLGSV,2,1,06,65,16,329,44,71,51,170,47,72,69,300,46,73,44,036,46*63
###2023-12-09 12:43:27.963004$GLGSV,2,2,06,74,71,307,42,75,25,245,46,,,,,,,,*60
###2023-12-09 12:43:27.965336$GAGSV,1,1,04,04,23,312,40,19,84,288,40,21,81,170,46,27,39,049,44*63
###2023-12-09 12:43:27.967682$GBGSV,2,1,05,14,51,196,45,24,79,002,48,25,35,255,46,26,32,059,45*6C
###2023-12-09 12:43:27.969141$GBGSV,2,2,05,33,62,246,49,,,,,,,,,,,,*57
