###2023-12-09 12:26:18.939950$GAGSV,1,1,02,21,74,179,44,27,44,051,45,,,,,,,,*65
###2023-12-09 12:26:18.942316$GBGSV,1,1,04,14,59,200,46,25,30,250,36,26,38,056,48,33,64,263,39*6F
###2023-12-09 12:26:18.943491$GNVTG,,T,,M,0.02,N,0.04,K,A*3B
###2023-12-09 12:26:18.945156$GNGST,172618.10,30.000,,,,0.230,0.220,0.500*5A
###2023-12-09 12:26:18.946491$GNZDA,172618.10,09,12,2023,00,00*7B
###2023-12-09 12:26:18.947192$GNEBP,,,,,,M*13
###2023-12-09 12:26:19.116933$GNGGA,172618.30,4138.0381102,N,07032.4358234,W,1,18,0.8,8.854,M,-29.746,M,0.0,*6B
###2023-12-09 12:26:19.316994$GNGGA,172618.50,4138.0381081,N,07032.4358219,W,1,18,0.8,8.847,M,-29.746,M,0.0,*6A
###2023-12-09 12:26:19.516726$GNGGA,172618.70,4138.0381066,N,07032.4358213,W,1,18,0.8,8.843,M,-29.746,M,0.0,*6F
###2023-12-09 12:26:19.715962$GNGGA,172618.90,4138.0381056,N,07032.4358216,W,1,18,0.8,8.842,M,-29.746,M,0.0,*66
###2023-12-09 12:26:19.917566$GNRMC,172619.10,A,4138.0381039,N,07032.4358196,W,0.02,,091223,,,A*42
###2023-12-09 12:26:19.921064$GNGGA,172619.10,4138.0381039,N,07032.4358196,W,1,18,0.8,8.837,M,-29.746,M,0.0,*6F
###2023-12-09 12:26:19.923543$GPGSA,A,3,03,16,26,28,29,31,32,,,,,,1.4,0.8,1.2*3E
###2023-12-09 12:26:19.925520$GLGSA,A,3,71,72,73,75,,,,,,,,,1.4,0.8,1.2*25
###2023-12-09 12:26:19.927566$GAGSA,A,3,21,27,,,,,,,,,,,1.4,0.8,1.2*2B
###2023-12-09 12:26:19.929532$GBGSA,A,3,14,25,26,33,,,,,,,,,1.4,0.8,1.2*28
###2023-12-09 12:26:19.932625$GPGSV,2,1,07,03,39,282,45,16,32,206,43,26,62,205,43,28,61,050,43*77
###2023-12-09 12:26:19.935376$GPGSV,2,2,07,29,24,078,43,31,73,346,38,32,34,132,47,,,,*42
###2023-12-09 12:26:19.938259$GLGSV,1,1,04,71,61,167,47,72,62,315,45,73,52,031,49,75,19,238,44*6B
###2023-12-09 12:26:19.940431$GAGSV,1,1,02,21,74,179,44,27,44,051,45,,,,,,,,*65
###2023-12-09 12:26:19.943594$GBGSV,1,1,04,14,59,200,46,25,30,250,36,26,38,056,48,33,64,263,39*6F
###2023-12-09 12:26:19.945028$GNVTG,,T,,M,0.02,N,0.04,K,A*3B
###2023-12-09 12:26:19.947302$GNGST,172619.10,30.000,,,,0.230,0.220,0.510*5A
###2023-12-09 12:26:19.948933$GNZDA,172619.10,09,12,2023,00,00*7A
###2023-12-09 12:26:19.949755$GNEBP,,,,,,M*13
###2023-12-09 12:26:20.117774$GNGGA,172619.30,4138.0381029,N,07032.4358189,W,1,18,0.8,8.826,M,-29.746,M,0.0,*62
###2023-12-09 12:26:20.317464$GNGGA,172619.50,4138.0381024,N,07032.4358198,W,1,18,0.8,8.819,M,-29.746,M,0.0,*65
###2023-12-09 12:26:20.517466$GNGGA,172619.70,4138.0381008,N,07032.4358181,W,1,18,0.8,8.815,M,-29.746,M,0.0,*6D
###2023-12-09 12:26:20.716704$GNGGA,172619.90,4138.0380996,N,07032.4358177,W,1,18,0.8,8.808,M,-29.746,M,0.0,*69
###2023-12-09 12:26:20.923437$GNRMC,172620.10,A,4138.0380988,N,07032.4358169,W,0.02,,091223,,,A*4A
###2023-12-09 12:26:20.926287$GNGGA,172620.10,4138.0380988,N,07032.4358169,W,1,18,0.8,8.802,M,-29.746,M,0.0,*61
###2023-12-09 12:26:20.928117$GPGSA,A,3,03,16,26,28,29,31,32,,,,,,1.4,0.8,1.2*3E
###2023-12-09 12:26:20.929723$GLGSA,A,3,71,72,73,75,,,,,,,,,1.4,0.8,1.2*25
###2023-12-09 12:26:20.931216$GAGSA,A,3,21,27,,,,,,,,,,,1.4,0.8,1.2*2B
###2023-12-09 12:26:20.932813$GBGSA,A,3,14,25,26,33,,,,,,,,,1.4,0.8,1.2*28
###2023-12-09 12:26:20.935181$GPGSV,2,1,07,03,39,282,45,16,32,206,43,26,62,205,43,28,61,050,43*77
###2023-12-09 12:26:20.937242$GPGSV,2,2,07,29,24,078,43,31,73,346,38,32,34,132,47,,,,*42
###2023-12-09 12:26:20.939614$GLGSV,1,1,04,71,61,167,47,72,62,315,45,73,52,031,48,75,19,238,44*6A
###2023-12-09 12:26:20.941385$GAGSV,1,1,02,21,74,179,44,27,44,051,45,,,,,,,,*65
###2023-12-09 12:26:20.943746$GBGSV,1,1,04,14,59,200,46,25,30,250,36,26,38,056,48,33,64,263,39*6F
###2023-12-09 12:26:20.944896$GNVTG,,T,,M,0.02,N,0.04,K,A*3B
###2023-12-09 12:26:20.946610$GNGST,172620.10,30.000,,,,0.230,0.220,0.510*50
###2023-12-09 12:26:20.947969$GNZDA,172620.10,09,12,2023,00,00*70
###2023-12-09 12:26:20.948658$GNEBP,,,,,,M*13
###2023-12-09 12:26:21.118202$GNGGA,172620.30,4138.0380981,N,07032.4358175,W,1,18,0.8,8.791,M,-29.746,M,0.0,*62
###2023-12-09 12:26:21.316890$GNGGA,172620.50,4138.0380969,N,07032.4358169,W,1,18,0.8,8.785,M,-29.746,M,0.0,*6A
###2023-12-09 12:26:21.516771$GNGGA,172620.70,4138.0380953,N,07032.4358148,W,1,18,0.8,8.778,M,-29.746,M,0.0,*60
###2023-12-09 12:26:21.715990$GNGGA,172620.90,4138.0380924,N,07032.4358132,W,1,18,0.8,8.774,M,-29.746,M,0.0,*6F
###2023-12-09 12:26:21.919230$GNRMC,172621.10,A,4138.0380909,N,07032.4358129,W,0.00,,091223,,,A*44
###2023-12-09 12:26:21.922120$GNGGA,172621.10,4138.0380909,N,07032.4358129,W,1,18,0.8,8.763,M,-29.746,M,0.0,*65
###2023-12-09 12:26:21.923967$GPGSA,A,3,03,16,26,28,29,31,32,,,,,,1.4,0.8,1.2*3E
###2023-12-09 12:26:21.925638$GLGSA,A,3,71,72,73,75,,,,,,,,,1.4,0.8,1.2*25
###2023-12-09 12:26:21.927152$GAGSA,A,3,21,27,,,,,,,,,,,1.4,0.8,1.2*2B
###2023-12-09 12:26:21.928764$GBGSA,A,3,14,25,26,33,,,,,,,,,1.4,0.8,1.2*28
###2023-12-09 12:26:21.931140$GPGSV,2,1,07,03,39,282,45,16,32,206,43,26,62,205,43,28,61,050,43*77
###2023-12-09 12:26:21.933207$GPGSV,2,2,07,29,24,078,43,31,73,346,39,32,34,132,47,,,,*43
###2023-12-09 12:26:21.935575$GLGSV,1,1,04,71,61,167,47,72,62,315,45,73,52,031,48,75,19,238,44*6A
###2023-12-09 12:26:21.937356$GAGSV,1,1,02,21,74,179,44,27,44,051,45,,,,,,,,*65
###2023-12-09 12:26:21.939762$GBGSV,1,1,04,14,59,200,46,25,30,250,36,26,38,056,48,33,64,263,39*6F
###2023-12-09 12:26:21.940947$GNVTG,,T,,M,0.00,N,0.00,K,A*3D
###2023-12-09 12:26:21.942652$GNGST,172621.10,30.000,,,,0.230,0.220,0.510*51
###2023-12-09 12:26:21.943992$GNZDA,172621.10,09,12,2023,00,00*71
###2023-12-09 12:26:21.944673$GNEBP,,,,,,M*13
###2023-12-09 12:26:22.116859$GNGGA,172621.30,4138.0380889,N,07032.4358129,W,1,18,0.8,8.754,M,-29.746,M,0.0,*6A
###2023-12-09 12:26:22.317114$GNGGA,172621.50,4138.0380880,N,07032.4358114,W,1,18,0.8,8.745,M,-29.746,M,0.0,*6B
###2023-12-09 12:26:22.516741$GNGGA,172621.70,4138.0380855,N,07032.4358105,W,1,17,0.8,8.739,M,-29.746,M,0.0,*65
###2023-12-09 12:26:22.716012$GNGGA,172621.90,4138.0380841,N,07032.4358092,W,1,17,0.8,8.730,M,-29.746,M,0.0,*68
###2023-12-09 12:26:22.919534$GNRMC,172622.10,A,4138.0380823,N,07032.4358090,W,0.04,,091223,,,A*49
###2023-12-09 12:26:22.922441$GNGGA,172622.10,4138.0380823,N,07032.4358090,W,1,17,0.8,8.723,M,-29.746,M,0.0,*67
###2023-12-09 12:26:22.924292$GPGSA,A,3,03,16,26,28,29,31,32,,,,,,1.5,0.8,1.3*3E
###2023-12-09 12:26:22.925914$GLGSA,A,3,71,72,73,75,,,,,,,,,1.5,0.8,1.3*25
###2023-12-09 12:26:22.927420$GAGSA,A,3,21,27,,,,,,,,,,,1.5,0.8,1.3*2B
###2023-12-09 12:26:22.929039$GBGSA,A,3,14,25,26,33,,,,,,,,,1.5,0.8,1.3*28
###2023-12-09 12:26:22.931414$GPGSV,2,1,07,03,39,282,45,16,32,206,43,26,62,205,43,28,61,050,43*77
###2023-12-09 12:26:22.933499$GPGSV,2,2,07,29,24,078,42,31,73,346,39,32,34,132,47,,,,*42
###2023-12-09 12:26:22.935885$GLGSV,1,1,04,71,61,167,47,72,62,315,45,73,52,031,48,75,19,238,43*6D
###2023-12-09 12:26:22.937674$GAGSV,1,1,02,21,74,179,44,27,44,051,45,,,,,,,,*65
###2023-12-09 12:26:22.940062$GBGSV,1,1,04,14,59,200,46,25,30,250,36,26,38,056,48,33,64,263,39*6F
###2023-12-09 12:26:22.941234$GNVTG,,T,,M,0.04,N,0.07,K,A*3E
###2023-12-09 12:26:22.942932$GNGST,172622.10,30.000,,,,0.230,0.220,0.510*52
###2023-12-09 12:26:22.944264$GNZDA,172622.10,09,12,2023,00,00*72
###2023-12-09 12:26:22.944943$GNEBP,,,,,,M*13
###2023-12-09 12:26:23.116945$GNGGA,172622.30,4138.0380813,N,07032.4358084,W,1,17,0.8,8.715,M,-29.746,M,0.0,*66
###2023-12-09 12:26:23.316822$GNGGA,172622.50,4138.0380798,N,07032.4358081,W,1,17,0.8,8.707,M,-29.746,M,0.0,*6A
###2023-12-09 12:26:23.516706$GNGGA,172622.70,4138.0380782,N,07032.4358061,W,1,17,0.8,8.700,M,-29.746,M,0.0,*6A
###2023-12-09 12:26:23.715993$GNGGA,172622.90,4138.0380771,N,07032.4358057,W,1,17,0.8,8.694,M,-29.746,M,0.0,*61
###2023-12-09 12:26:23.917066$GNRMC,172623.10,A,4138.0380751,N,07032.4358038,W,0.02,,091223,,,A*46
###2023-12-09 12:26:23.920186$GNGGA,172623.10,4138.0380751,N,07032.4358038,W,1,17,0.8,8.691,M,-29.746,M,0.0,*66
###2023-12-09 12:26:23.922030$GPGSA,A,3,03,16,26,28,29,31,32,,,,,,1.5,0.8,1.3*3E
###2023-12-09 12:26:23.923674$GLGSA,A,3,71,72,73,75,,,,,,,,,1.5,0.8,1.3*25
###2023-12-09 12:26:23.925165$GAGSA,A,3,21,27,,,,,,,,,,,1.5,0.8,1.3*2B
###2023-12-09 12:26:23.926838$GBGSA,A,3,14,25,26,33,,,,,,,,,1.5,0.8,1.3*28
###2023-12-09 12:26:23.929199$GPGSV,2,1,07,03,39,282,45,16,32,206,43,26,62,205,43,28,61,050,43*77
###2023-12-09 12:26:23.931562$GPGSV,2,2,07,29,24,078,42,31,73,346,39,32,34,132,47,,,,*42
###2023-12-09 12:26:23.933944$GLGSV,1,1,04,71,61,167,47,72,62,315,45,73,52,031,48,75,19,238,43*6D
###2023-12-09 12:26:23.935746$GAGSV,1,1,02,21,74,179,44,27,44,051,45,,,,,,,,*65
###2023-12-09 12:26:23.938104$GBGSV,1,1,04,14,59,200,46,25,30,250,36,26,38,056,48,33,64,263,39*6F
###2023-12-09 12:26:23.939294$GNVTG,,T,,M,0.02,N,0.04,K,A*3B
###2023-12-09 12:26:23.940986$GNGST,172623.10,30.000,,,,0.230,0.220,0.510*53
###2023-12-09 12:26:23.942315$GNZDA,172623.10,09,12,2023,00,00*73
