###2023-12-09 13:08:13.988189$GPGSV,2,2,08,28,47,073,42,29,25,058,40,31,67,044,46,32,16,141,40*78
###2023-12-09 13:08:13.990550$GLGSV,2,1,06,65,26,326,42,71,37,173,44,72,72,258,46,73,33,043,44*6F
###2023-12-09 13:08:13.992322$GLGSV,2,2,06,74,68,345,42,75,34,256,47,,,,,,,,*6D
###2023-12-09 13:08:13.994665$GAGSV,1,1,04,04,31,312,41,19,82,199,41,21,85,085,46,27,31,048,40*67
###2023-12-09 13:08:13.996987$GBGSV,2,1,06,14,41,192,44,24,72,029,47,25,42,264,46,26,24,064,42*6A
###2023-12-09 13:08:13.998744$GBGSV,2,2,06,33,56,229,47,35,15,067,42,,,,,,,,*61
###2023-12-09 13:08:14.000033$GNVTG,75.89,T,,M,3.46,N,6.41,K,A*12
###2023-12-09 13:08:14.001671$GNGST,180813.10,18.000,,,,0.083,0.066,0.150*53
###2023-12-09 13:08:14.002985$GNZDA,180813.10,09,12,2023,00,00*73
###2023-12-09 13:08:14.003624$GNEBP,,,,,,M*13
###2023-12-09 13:08:14.168920$GNGGA,180813.30,4138.0815870,N,07032.3125948,W,1,25,0.6,13.289,M,-29.742,M,0.0,*52
###2023-12-09 13:08:14.370432$GNGGA,180813.50,4138.0816108,N,07032.3123188,W,1,25,0.6,13.265,M,-29.742,M,0.0,*51
###2023-12-09 13:08:14.568454$GNGGA,180813.70,4138.0816467,N,07032.3120622,W,1,25,0.6,13.218,M,-29.742,M,0.0,*51
###2023-12-09 13:08:14.767499$GNGGA,180813.90,4138.0817256,N,07032.3118253,W,1,25,0.6,13.247,M,-29.742,M,0.0,*59
###2023-12-09 13:08:14.969764$GNRMC,180814.10,A,4138.0817755,N,07032.3115643,W,3.75,83.17,091223,,,A*66
###2023-12-09 13:08:14.972635$GNGGA,180814.10,4138.0817755,N,07032.3115643,W,1,25,0.6,13.259,M,-29.742,M,0.0,*57
###2023-12-09 13:08:14.974488$GPGSA,A,3,03,04,16,26,28,29,31,32,,,,,1.1,0.6,0.9*3B
###2023-12-09 13:08:14.976219$GLGSA,A,3,65,71,72,73,74,75,,,,,,,1.1,0.6,0.9*24
###2023-12-09 13:08:14.977798$GAGSA,A,3,04,19,21,27,,,,,,,,,1.1,0.6,0.9*26
###2023-12-09 13:08:14.979525$GBGSA,A,3,14,24,25,26,33,35,,,,,,,1.1,0.6,0.9*29
###2023-12-09 13:08:14.981851$GPGSV,2,1,08,03,34,258,45,04,35,311,43,16,53,214,46,26,83,210,48*7A
###2023-12-09 13:08:14.984193$GPGSV,2,2,08,28,47,073,41,29,25,058,42,31,67,044,46,32,16,141,40*79
###2023-12-09 13:08:14.986530$GLGSV,2,1,06,65,26,326,43,71,37,173,44,72,72,258,46,73,33,043,44*6E
###2023-12-09 13:08:14.988286$GLGSV,2,2,06,74,68,345,43,75,34,256,48,,,,,,,,*63
###2023-12-09 13:08:14.990635$GAGSV,1,1,04,04,31,312,42,19,82,199,40,21,85,085,45,27,31,048,40*66
###2023-12-09 13:08:14.992964$GBGSV,2,1,06,14,41,192,45,24,72,029,49,25,42,264,47,26,24,064,43*65
###2023-12-09 13:08:14.994719$GBGSV,2,2,06,33,56,229,48,35,15,067,42,,,,,,,,*6E
###2023-12-09 13:08:14.996009$GNVTG,83.17,T,,M,3.75,N,6.95,K,A*15
###2023-12-09 13:08:14.997657$GNGST,180814.10,18.000,,,,0.083,0.066,0.150*54
###2023-12-09 13:08:14.998955$GNZDA,180814.10,09,12,2023,00,00*74
###2023-12-09 13:08:14.999595$GNEBP,,,,,,M*13
###2023-12-09 13:08:15.170388$GNGGA,180814.30,4138.0817926,N,07032.3112998,W,1,25,0.6,13.241,M,-29.742,M,0.0,*58
###2023-12-09 13:08:15.368490$GNGGA,180814.50,4138.0818247,N,07032.3110432,W,1,25,0.6,13.250,M,-29.742,M,0.0,*52
###2023-12-09 13:08:15.568568$GNGGA,180814.70,4138.0818852,N,07032.3107913,W,1,25,0.6,13.263,M,-29.742,M,0.0,*56
###2023-12-09 13:08:15.768584$GNGGA,180814.90,4138.0819384,N,07032.3105313,W,1,25,0.6,13.253,M,-29.742,M,0.0,*52
###2023-12-09 13:08:15.970658$GNRMC,180815.10,A,4138.0819639,N,07032.3102627,W,3.71,86.13,091223,,,A*63
###2023-12-09 13:08:15.973535$GNGGA,180815.10,4138.0819639,N,07032.3102627,W,1,25,0.6,13.236,M,-29.742,M,0.0,*5E
###2023-12-09 13:08:15.975415$GPGSA,A,3,03,04,16,26,28,29,31,32,,,,,1.1,0.6,0.9*3B
###2023-12-09 13:08:15.977128$GLGSA,A,3,65,71,72,73,74,75,,,,,,,1.1,0.6,0.9*24
###2023-12-09 13:08:15.978729$GAGSA,A,3,04,19,21,27,,,,,,,,,1.1,0.6,0.9*26
###2023-12-09 13:08:15.980448$GBGSA,A,3,14,24,25,26,33,35,,,,,,,1.1,0.6,0.9*29
###2023-12-09 13:08:15.982795$GPGSV,2,1,08,03,34,258,46,04,35,311,43,16,53,214,46,26,83,210,48*79
###2023-12-09 13:08:15.985142$GPGSV,2,2,08,28,47,073,42,29,25,058,40,31,67,044,46,32,16,141,41*79
###2023-12-09 13:08:15.987497$GLGSV,2,1,06,65,26,326,42,71,37,173,46,72,72,258,46,73,33,043,44*6D
###2023-12-09 13:08:15.989260$GLGSV,2,2,06,74,68,345,42,75,34,256,48,,,,,,,,*62
###2023-12-09 13:08:15.991614$GAGSV,1,1,04,04,31,312,41,19,82,199,41,21,85,085,46,27,31,048,40*67
###2023-12-09 13:08:15.993959$GBGSV,2,1,06,14,41,192,44,24,72,029,48,25,42,264,46,26,24,064,41*66
###2023-12-09 13:08:15.995730$GBGSV,2,2,06,33,56,229,47,35,15,067,42,,,,,,,,*61
###2023-12-09 13:08:15.997027$GNVTG,86.13,T,,M,3.71,N,6.88,K,A*1C
###2023-12-09 13:08:15.998690$GNGST,180815.10,18.000,,,,0.083,0.066,0.150*55
###2023-12-09 13:08:15.999986$GNZDA,180815.10,09,12,2023,00,00*75
###2023-12-09 13:08:16.000627$GNEBP,,,,,,M*13
###2023-12-09 13:08:16.166303$GNGGA,180815.30,4138.0819882,N,07032.3100010,W,1,25,0.6,13.244,M,-29.742,M,0.0,*57
###2023-12-09 13:08:16.368197$GNGGA,180815.50,4138.0820390,N,07032.3097416,W,1,25,0.6,13.271,M,-29.742,M,0.0,*58
###2023-12-09 13:08:16.568661$GNGGA,180815.70,4138.0820727,N,07032.3094649,W,1,25,0.6,13.255,M,-29.742,M,0.0,*5F
###2023-12-09 13:08:16.767479$GNGGA,180815.90,4138.0820997,N,07032.3091944,W,1,25,0.6,13.224,M,-29.742,M,0.0,*55
###2023-12-09 13:08:16.971692$GNRMC,180816.10,A,4138.0821504,N,07032.3089393,W,3.65,72.59,091223,,,A*6E
###2023-12-09 13:08:16.974544$GNGGA,180816.10,4138.0821504,N,07032.3089393,W,1,25,0.6,13.247,M,-29.742,M,0.0,*55
###2023-12-09 13:08:16.976412$GPGSA,A,3,03,04,16,26,28,29,31,32,,,,,1.1,0.6,0.9*3B
###2023-12-09 13:08:16.978126$GLGSA,A,3,65,71,72,73,74,75,,,,,,,1.1,0.6,0.9*24
###2023-12-09 13:08:16.979724$GAGSA,A,3,04,19,21,27,,,,,,,,,1.1,0.6,0.9*26
###2023-12-09 13:08:16.981431$GBGSA,A,3,14,24,25,26,33,35,,,,,,,1.1,0.6,0.9*29
###2023-12-09 13:08:16.983766$GPGSV,2,1,08,03,34,258,46,04,35,311,44,16,53,214,46,26,83,210,48*7E
###2023-12-09 13:08:16.986093$GPGSV,2,2,08,28,47,073,42,29,25,058,42,31,67,044,46,32,16,141,41*7B
###2023-12-09 13:08:16.988445$GLGSV,2,1,06,65,26,326,42,71,37,173,47,72,72,258,46,73,33,043,44*6C
###2023-12-09 13:08:16.990192$GLGSV,2,2,06,74,68,345,43,75,34,256,48,,,,,,,,*63
###2023-12-09 13:08:16.992533$GAGSV,1,1,04,04,31,312,42,19,82,199,41,21,85,085,46,27,31,048,40*64
###2023-12-09 13:08:16.994869$GBGSV,2,1,06,14,41,192,44,24,72,029,48,25,42,264,46,26,24,064,43*64
###2023-12-09 13:08:16.996613$GBGSV,2,2,06,33,56,229,47,35,15,067,42,,,,,,,,*61
###2023-12-09 13:08:16.997903$GNVTG,72.59,T,,M,3.65,N,6.77,K,A*1C
###2023-12-09 13:08:16.999561$GNGST,180816.10,18.000,,,,0.083,0.066,0.150*56
###2023-12-09 13:08:17.000849$GNZDA,180816.10,09,12,2023,00,00*76
###2023-12-09 13:08:17.001485$GNEBP,,,,,,M*13
###2023-12-09 13:08:17.173359$GNGGA,180816.30,4138.0822011,N,07032.3086726,W,1,25,0.6,13.260,M,-29.742,M,0.0,*55
###2023-12-09 13:08:17.368610$GNGGA,180816.50,4138.0822192,N,07032.3083941,W,1,25,0.6,13.216,M,-29.742,M,0.0,*52
###2023-12-09 13:08:17.569522$GNGGA,180816.70,4138.0822713,N,07032.3081455,W,1,25,0.6,13.223,M,-29.742,M,0.0,*53
###2023-12-09 13:08:17.768861$GNGGA,180816.90,4138.0823516,N,07032.3078950,W,1,25,0.6,13.249,M,-29.742,M,0.0,*59
###2023-12-09 13:08:17.971229$GNRMC,180817.10,A,4138.0823956,N,07032.3076284,W,3.54,83.09,091223,,,A*68
###2023-12-09 13:08:17.974095$GNGGA,180817.10,4138.0823956,N,07032.3076284,W,1,25,0.6,13.220,M,-29.742,M,0.0,*5B
###2023-12-09 13:08:17.975983$GPGSA,A,3,03,04,16,26,28,29,31,32,,,,,1.1,0.6,0.9*3B
###2023-12-09 13:08:17.977705$GLGSA,A,3,65,71,72,73,74,75,,,,,,,1.1,0.6,0.9*24
###2023-12-09 13:08:17.979310$GAGSA,A,3,04,19,21,27,,,,,,,,,1.1,0.6,0.9*26
###2023-12-09 13:08:17.981027$GBGSA,A,3,14,24,25,26,33,35,,,,,,,1.1,0.6,0.9*29
###2023-12-09 13:08:17.983373$GPGSV,2,1,08,03,34,258,45,04,35,311,44,16,53,214,46,26,83,210,48*7D
###2023-12-09 13:08:17.985714$GPGSV,2,2,08,28,47,073,43,29,25,058,40,31,67,044,46,32,16,141,40*79
###2023-12-09 13:08:17.988072$GLGSV,2,1,06,65,26,326,42,71,37,173,46,72,72,258,46,73,33,043,45*6C
###2023-12-09 13:08:17.989829$GLGSV,2,2,06,74,68,345,43,75,34,256,48,,,,,,,,*63
###2023-12-09 13:08:17.992167$GAGSV,1,1,04,04,31,312,41,19,82,199,41,21,85,085,46,27,31,048,42*65
###2023-12-09 13:08:17.994498$GBGSV,2,1,06,14,41,192,45,24,72,029,49,25,42,264,46,26,24,064,42*65
###2023-12-09 13:08:17.996254$GBGSV,2,2,06,33,56,229,47,35,15,067,41,,,,,,,,*62
###2023-12-09 13:08:17.997802$GNVTG,83.09,T,,M,3.54,N,6.55,K,A*15
###2023-12-09 13:08:17.999485$GNGST,180817.10,18.000,,,,0.082,0.065,0.150*55
###2023-12-09 13:08:18.000790$GNZDA,180817.10,09,12,2023,00,00*77
###2023-12-09 13:08:18.001434$GNEBP,,,,,,M*13
###2023-12-09 13:08:18.170154$GNGGA,180817.30,4138.0824217,N,07032.3073692,W,1,25,0.6,13.214,M,-29.742,M,0.0,*51
###2023-12-09 13:08:18.371839$GNGGA,180817.50,4138.0824744,N,07032.3071066,W,1,25,0.6,13.239,M,-29.742,M,0.0,*54
###2023-12-09 13:08:18.569478$GNGGA,180817.70,4138.0825285,N,07032.3068432,W,1,25,0.6,13.220,M,-29.742,M,0.0,*5A
###2023-12-09 13:08:18.769173$GNGGA,180817.90,4138.0825657,N,07032.3065787,W,1,25,0.6,13.201,M,-29.742,M,0.0,*5C
###2023-12-09 13:08:18.971935$GNRMC,180818.10,A,4138.0826008,N,07032.3063146,W,3.62,78.21,091223,,,A*62
###2023-12-09 13:08:18.974789$GNGGA,180818.10,4138.0826008,N,07032.3063146,W,1,25,0.6,13.206,M,-29.742,M,0.0,*5E
