###2023-12-09 13:33:04.196842$GNGGA,183303.30,4138.0415613,N,07032.4128479,W,1,24,0.6,13.334,M,-29.745,M,0.0,*58
###2023-12-09 13:33:04.392789$GNGGA,183303.50,4138.0417222,N,07032.4128264,W,1,24,0.6,13.317,M,-29.745,M,0.0,*51
###2023-12-09 13:33:04.595243$GNGGA,183303.70,4138.0418816,N,07032.4128038,W,1,24,0.6,13.323,M,-29.745,M,0.0,*5D
###2023-12-09 13:33:04.793683$GNGGA,183303.90,4138.0420487,N,07032.4127756,W,1,24,0.6,13.316,M,-29.745,M,0.0,*5A
###2023-12-09 13:33:04.996308$GNRMC,183304.10,A,4138.0422124,N,07032.4127589,W,2.97,1.62,091223,,,A*53
###2023-12-09 13:33:04.999193$GNGGA,183304.10,4138.0422124,N,07032.4127589,W,1,24,0.6,13.312,M,-29.745,M,0.0,*5F
###2023-12-09 13:33:05.000991$GPGSA,A,3,03,04,16,26,28,29,31,,,,,,1.1,0.6,0.9*3A
###2023-12-09 13:33:05.002718$GLGSA,A,3,65,71,72,73,74,75,,,,,,,1.1,0.6,0.9*24
###2023-12-09 13:33:05.004301$GAGSA,A,3,04,19,21,27,,,,,,,,,1.1,0.6,0.9*26
###2023-12-09 13:33:05.006008$GBGSA,A,3,14,24,25,26,33,35,,,,,,,1.1,0.6,0.9*29
###2023-12-09 13:33:05.008338$GPGSV,2,1,07,03,27,247,44,04,46,308,45,16,65,221,47,26,85,040,48*71
###2023-12-09 13:33:05.010376$GPGSV,2,2,07,28,39,084,43,29,21,048,39,31,60,064,46,,,,*4F
###2023-12-09 13:33:05.012701$GLGSV,2,1,06,65,38,319,43,71,23,175,44,72,63,222,47,73,23,052,40*67
###2023-12-09 13:33:05.014442$GLGSV,2,2,06,74,60,013,41,75,43,271,47,,,,,,,,*63
###2023-12-09 13:33:05.016768$GAGSV,1,1,04,04,39,310,43,19,73,182,41,21,77,047,46,27,23,050,38*6D
###2023-12-09 13:33:05.019101$GBGSV,2,1,06,14,29,190,41,24,63,045,47,25,50,275,48,26,16,070,42*60
###2023-12-09 13:33:05.020849$GBGSV,2,2,06,33,46,217,46,35,16,057,41,,,,,,,,*6F
###2023-12-09 13:33:05.022104$GNVTG,1.62,T,,M,2.97,N,5.51,K,A*2B
###2023-12-09 13:33:05.023759$GNGST,183304.10,18.000,,,,0.110,0.073,0.180*5F
###2023-12-09 13:33:05.025049$GNZDA,183304.10,09,12,2023,00,00*7D
###2023-12-09 13:33:05.025689$GNEBP,,,,,,M*13
###2023-12-09 13:33:05.193668$GNGGA,183304.30,4138.0423804,N,07032.4127557,W,1,24,0.6,13.334,M,-29.745,M,0.0,*50
###2023-12-09 13:33:05.392791$GNGGA,183304.50,4138.0425516,N,07032.4127322,W,1,24,0.6,13.327,M,-29.745,M,0.0,*58
###2023-12-09 13:33:05.593169$GNGGA,183304.70,4138.0427226,N,07032.4126980,W,1,24,0.6,13.307,M,-29.745,M,0.0,*5D
###2023-12-09 13:33:05.794442$GNGGA,183304.90,4138.0428858,N,07032.4126864,W,1,24,0.6,13.301,M,-29.745,M,0.0,*52
###2023-12-09 13:33:05.996290$GNRMC,183305.10,A,4138.0430468,N,07032.4126879,W,2.84,358.97,091223,,,A*58
###2023-12-09 13:33:05.999176$GNGGA,183305.10,4138.0430468,N,07032.4126879,W,1,24,0.6,13.297,M,-29.745,M,0.0,*5F
###2023-12-09 13:33:06.000978$GPGSA,A,3,03,04,16,26,28,29,31,,,,,,1.1,0.6,0.9*3A
###2023-12-09 13:33:06.002714$GLGSA,A,3,65,71,72,73,74,75,,,,,,,1.1,0.6,0.9*24
###2023-12-09 13:33:06.004306$GAGSA,A,3,04,19,21,27,,,,,,,,,1.1,0.6,0.9*26
###2023-12-09 13:33:06.006024$GBGSA,A,3,14,24,25,26,33,35,,,,,,,1.1,0.6,0.9*29
###2023-12-09 13:33:06.008377$GPGSV,2,1,07,03,27,247,41,04,46,308,45,16,65,221,46,26,85,040,48*75
###2023-12-09 13:33:06.010426$GPGSV,2,2,07,28,39,084,44,29,21,048,40,31,60,064,46,,,,*46
###2023-12-09 13:33:06.012789$GLGSV,2,1,06,65,38,319,43,71,23,175,43,72,63,222,47,73,23,052,40*60
###2023-12-09 13:33:06.014544$GLGSV,2,2,06,74,60,013,41,75,43,271,47,,,,,,,,*63
###2023-12-09 13:33:06.016891$GAGSV,1,1,04,04,39,310,44,19,73,182,41,21,77,047,46,27,23,050,39*6B
###2023-12-09 13:33:06.019241$GBGSV,2,1,06,14,29,190,42,24,63,045,48,25,50,275,46,26,16,070,40*60
###2023-12-09 13:33:06.021026$GBGSV,2,2,06,33,46,217,47,35,16,057,42,,,,,,,,*6D
###2023-12-09 13:33:06.022358$GNVTG,358.97,T,,M,2.84,N,5.26,K,A*2C
###2023-12-09 13:33:06.024034$GNGST,183305.10,18.000,,,,0.110,0.073,0.180*5E
###2023-12-09 13:33:06.025342$GNZDA,183305.10,09,12,2023,00,00*7C
###2023-12-09 13:33:06.025982$GNEBP,,,,,,M*13
###2023-12-09 13:33:06.193618$GNGGA,183305.30,4138.0432071,N,07032.4126819,W,1,24,0.6,13.304,M,-29.745,M,0.0,*5E
###2023-12-09 13:33:06.392732$GNGGA,183305.50,4138.0433686,N,07032.4126717,W,1,25,0.6,13.316,M,-29.745,M,0.0,*54
###2023-12-09 13:33:06.595116$GNGGA,183305.70,4138.0435369,N,07032.4126831,W,1,25,0.6,13.319,M,-29.745,M,0.0,*50
###2023-12-09 13:33:06.794790$GNGGA,183305.90,4138.0437049,N,07032.4127139,W,1,25,0.6,13.314,M,-29.745,M,0.0,*50
###2023-12-09 13:33:06.998654$GNRMC,183306.10,A,4138.0438768,N,07032.4127546,W,3.07,351.36,091223,,,A*58
###2023-12-09 13:33:07.001512$GNGGA,183306.10,4138.0438768,N,07032.4127546,W,1,25,0.6,13.305,M,-29.745,M,0.0,*5C
###2023-12-09 13:33:07.003378$GPGSA,A,3,03,04,16,26,27,28,29,31,,,,,1.0,0.6,0.8*3F
###2023-12-09 13:33:07.005090$GLGSA,A,3,65,71,72,73,74,75,,,,,,,1.0,0.6,0.8*24
###2023-12-09 13:33:07.006681$GAGSA,A,3,04,19,21,27,,,,,,,,,1.0,0.6,0.8*26
###2023-12-09 13:33:07.008390$GBGSA,A,3,14,24,25,26,33,35,,,,,,,1.0,0.6,0.8*29
###2023-12-09 13:33:07.010726$GPGSV,2,1,08,03,27,247,43,04,46,308,45,16,65,221,47,26,85,040,48*79
###2023-12-09 13:33:07.013088$GPGSV,2,2,08,27,16,173,36,28,39,084,45,29,21,048,40,31,60,064,47*7B
###2023-12-09 13:33:07.015429$GLGSV,2,1,06,65,38,319,42,71,23,175,43,72,63,222,47,73,23,052,40*61
###2023-12-09 13:33:07.017172$GLGSV,2,2,06,74,60,013,41,75,43,271,47,,,,,,,,*63
###2023-12-09 13:33:07.019500$GAGSV,1,1,04,04,39,310,43,19,73,182,41,21,77,047,45,27,23,050,38*6E
###2023-12-09 13:33:07.021820$GBGSV,2,1,06,14,29,190,43,24,63,045,48,25,50,275,47,26,16,070,42*62
###2023-12-09 13:33:07.023568$GBGSV,2,2,06,33,46,217,46,35,16,057,42,,,,,,,,*6C
###2023-12-09 13:33:07.024885$GNVTG,351.36,T,,M,3.07,N,5.69,K,A*2F
###2023-12-09 13:33:07.026526$GNGST,183306.10,18.000,,,,0.110,0.072,0.180*5C
###2023-12-09 13:33:07.027820$GNZDA,183306.10,09,12,2023,00,00*7F
###2023-12-09 13:33:07.028458$GNEBP,,,,,,M*13
###2023-12-09 13:33:07.194905$GNGGA,183306.30,4138.0440508,N,07032.4127783,W,1,25,0.6,13.311,M,-29.745,M,0.0,*5B
###2023-12-09 13:33:07.394147$GNGGA,183306.50,4138.0442275,N,07032.4127920,W,1,25,0.6,13.308,M,-29.745,M,0.0,*5D
###2023-12-09 13:33:07.594448$GNGGA,183306.70,4138.0443987,N,07032.4128086,W,1,25,0.6,13.299,M,-29.745,M,0.0,*5B
###2023-12-09 13:33:07.794221$GNGGA,183306.90,4138.0445690,N,07032.4128280,W,1,25,0.6,13.294,M,-29.745,M,0.0,*53
###2023-12-09 13:33:07.997965$GNRMC,183307.10,A,4138.0447370,N,07032.4128352,W,3.03,359.79,091223,,,A*57
###2023-12-09 13:33:08.001456$GNGGA,183307.10,4138.0447370,N,07032.4128352,W,1,25,0.6,13.285,M,-29.745,M,0.0,*5D
###2023-12-09 13:33:08.003714$GPGSA,A,3,03,04,16,26,27,28,29,31,,,,,1.0,0.6,0.8*3F
###2023-12-09 13:33:08.005815$GLGSA,A,3,65,71,72,73,74,75,,,,,,,1.0,0.6,0.8*24
###2023-12-09 13:33:08.007736$GAGSA,A,3,04,19,21,27,,,,,,,,,1.0,0.6,0.8*26
###2023-12-09 13:33:08.009806$GBGSA,A,3,14,24,25,26,33,35,,,,,,,1.0,0.6,0.8*29
###2023-12-09 13:33:08.012622$GPGSV,2,1,08,03,27,247,42,04,46,308,44,16,65,221,47,26,85,040,48*79
###2023-12-09 13:33:08.015444$GPGSV,2,2,08,27,16,173,38,28,39,084,44,29,21,048,40,31,60,064,46*75
###2023-12-09 13:33:08.018265$GLGSV,2,1,06,65,38,319,42,71,23,175,43,72,63,222,47,73,23,052,40*61
###2023-12-09 13:33:08.020438$GLGSV,2,2,06,74,60,013,41,75,43,271,48,,,,,,,,*6C
###2023-12-09 13:33:08.023249$GAGSV,1,1,04,04,39,310,44,19,73,182,41,21,77,047,46,27,23,050,39*6B
###2023-12-09 13:33:08.026046$GBGSV,2,1,06,14,29,190,42,24,63,045,47,25,50,275,48,26,16,070,42*63
###2023-12-09 13:33:08.028163$GBGSV,2,2,06,33,46,217,47,35,16,057,42,,,,,,,,*6D
###2023-12-09 13:33:08.029751$GNVTG,359.79,T,,M,3.03,N,5.62,K,A*23
###2023-12-09 13:33:08.031756$GNGST,183307.10,18.000,,,,0.110,0.072,0.170*52
###2023-12-09 13:33:08.033311$GNZDA,183307.10,09,12,2023,00,00*7E
###2023-12-09 13:33:08.034079$GNEBP,,,,,,M*13
###2023-12-09 13:33:08.196507$GNGGA,183307.30,4138.0449042,N,07032.4128300,W,1,25,0.6,13.291,M,-29.745,M,0.0,*51
###2023-12-09 13:33:08.394314$GNGGA,183307.50,4138.0450678,N,07032.4128281,W,1,25,0.6,13.302,M,-29.745,M,0.0,*53
###2023-12-09 13:33:08.595298$GNGGA,183307.70,4138.0452315,N,07032.4128276,W,1,25,0.6,13.302,M,-29.745,M,0.0,*55
###2023-12-09 13:33:08.793444$GNGGA,183307.90,4138.0453938,N,07032.4127998,W,1,25,0.6,13.293,M,-29.745,M,0.0,*52
###2023-12-09 13:33:09.004223$GNRMC,183308.10,A,4138.0455508,N,07032.4127598,W,2.80,10.21,091223,,,A*64
###2023-12-09 13:33:09.007106$GNGGA,183308.10,4138.0455508,N,07032.4127598,W,1,25,0.6,13.289,M,-29.745,M,0.0,*5B
###2023-12-09 13:33:09.009224$GPGSA,A,3,03,04,16,26,27,28,29,31,,,,,1.0,0.6,0.8*3F
###2023-12-09 13:33:09.010966$GLGSA,A,3,65,71,72,73,74,75,,,,,,,1.0,0.6,0.8*24
###2023-12-09 13:33:09.012551$GAGSA,A,3,04,19,21,27,,,,,,,,,1.0,0.6,0.8*26
###2023-12-09 13:33:09.014260$GBGSA,A,3,14,24,25,26,33,35,,,,,,,1.0,0.6,0.8*29
###2023-12-09 13:33:09.016601$GPGSV,2,1,08,03,27,247,41,04,46,308,45,16,65,221,47,26,85,040,48*7B
###2023-12-09 13:33:09.018938$GPGSV,2,2,08,27,16,173,37,28,39,084,44,29,21,048,40,31,60,064,47*7B
###2023-12-09 13:33:09.021268$GLGSV,2,1,06,65,38,319,42,71,23,175,43,72,63,222,46,73,23,052,38*6F
###2023-12-09 13:33:09.023022$GLGSV,2,2,06,74,60,013,41,75,43,271,47,,,,,,,,*63
###2023-12-09 13:33:09.025336$GAGSV,1,1,04,04,39,310,43,19,73,182,41,21,77,047,45,27,23,050,37*61
###2023-12-09 13:33:09.027664$GBGSV,2,1,06,14,29,190,40,24,63,045,47,25,50,275,47,26,16,070,42*6E
