###2023-12-09 13:05:36.978553$GAGSA,A,3,04,19,21,27,,,,,,,,,1.1,0.6,0.9*26
###2023-12-09 13:05:36.980274$GBGSA,A,3,14,24,25,26,33,,,,,,,,1.1,0.6,0.9*2F
###2023-12-09 13:05:36.982634$GPGSV,2,1,08,03,34,259,44,04,34,311,41,16,52,213,47,26,82,210,48*7F
###2023-12-09 13:05:36.984964$GPGSV,2,2,08,28,48,072,45,29,25,059,42,31,68,042,46,32,17,141,44*7E
###2023-12-09 13:05:36.987316$GLGSV,2,1,06,65,26,327,41,71,39,173,46,72,73,261,46,73,34,043,43*6A
###2023-12-09 13:05:36.989063$GLGSV,2,2,06,74,69,343,41,75,33,255,46,,,,,,,,*6C
###2023-12-09 13:05:36.991395$GAGSV,1,1,04,04,30,312,40,19,83,207,40,21,86,104,46,27,32,048,41*6A
###2023-12-09 13:05:36.993728$GBGSV,2,1,05,14,42,192,44,24,72,028,48,25,42,263,47,26,25,063,44*62
###2023-12-09 13:05:36.995202$GBGSV,2,2,05,33,56,230,47,,,,,,,,,,,,*5F
###2023-12-09 13:05:36.996527$GNVTG,342.97,T,,M,3.19,N,5.90,K,A*2F
###2023-12-09 13:05:36.998171$GNGST,180536.10,18.000,,,,0.081,0.066,0.150*5B
###2023-12-09 13:05:36.999487$GNZDA,180536.10,09,12,2023,00,00*79
###2023-12-09 13:05:37.000126$GNEBP,,,,,,M*13
###2023-12-09 13:05:37.166645$GNGGA,180536.30,4138.0668013,N,07032.2545278,W,1,24,0.6,13.511,M,-29.742,M,0.0,*5D
###2023-12-09 13:05:37.368635$GNGGA,180536.50,4138.0669638,N,07032.2546100,W,1,24,0.6,13.508,M,-29.742,M,0.0,*52
###2023-12-09 13:05:37.568797$GNGGA,180536.70,4138.0671193,N,07032.2547047,W,1,24,0.6,13.508,M,-29.742,M,0.0,*5C
###2023-12-09 13:05:37.768129$GNGGA,180536.90,4138.0672749,N,07032.2547974,W,1,24,0.6,13.510,M,-29.742,M,0.0,*50
###2023-12-09 13:05:37.969903$GNRMC,180537.10,A,4138.0674288,N,07032.2548905,W,3.07,334.49,091223,,,A*55
###2023-12-09 13:05:37.972802$GNGGA,180537.10,4138.0674288,N,07032.2548905,W,1,24,0.6,13.514,M,-29.742,M,0.0,*5A
###2023-12-09 13:05:37.974682$GPGSA,A,3,03,04,16,26,28,29,31,32,,,,,1.1,0.6,0.9*3B
###2023-12-09 13:05:37.976404$GLGSA,A,3,65,71,72,73,74,75,,,,,,,1.1,0.6,0.9*24
###2023-12-09 13:05:37.977988$GAGSA,A,3,04,19,21,27,,,,,,,,,1.1,0.6,0.9*26
###2023-12-09 13:05:37.979654$GBGSA,A,3,14,24,25,26,33,,,,,,,,1.1,0.6,0.9*2F
###2023-12-09 13:05:37.981995$GPGSV,2,1,08,03,34,259,43,04,34,311,41,16,52,213,46,26,82,210,48*79
###2023-12-09 13:05:37.984349$GPGSV,2,2,08,28,48,072,45,29,25,059,42,31,68,042,46,32,17,141,44*7E
###2023-12-09 13:05:37.986701$GLGSV,2,1,06,65,26,327,40,71,39,173,45,72,73,261,46,73,34,043,44*6F
###2023-12-09 13:05:37.988456$GLGSV,2,2,06,74,69,343,41,75,33,255,45,,,,,,,,*6F
###2023-12-09 13:05:37.990787$GAGSV,1,1,04,04,30,312,41,19,83,207,41,21,86,104,46,27,32,048,41*6A
###2023-12-09 13:05:37.993142$GBGSV,2,1,05,14,42,192,44,24,72,028,48,25,42,263,46,26,25,063,43*64
###2023-12-09 13:05:37.994643$GBGSV,2,2,05,33,56,230,47,,,,,,,,,,,,*5F
###2023-12-09 13:05:37.995977$GNVTG,334.49,T,,M,3.07,N,5.69,K,A*24
###2023-12-09 13:05:37.997630$GNGST,180537.10,18.000,,,,0.081,0.066,0.150*5A
###2023-12-09 13:05:37.998939$GNZDA,180537.10,09,12,2023,00,00*78
###2023-12-09 13:05:37.999582$GNEBP,,,,,,M*13
###2023-12-09 13:05:38.167082$GNGGA,180537.30,4138.0675813,N,07032.2549941,W,1,24,0.6,13.516,M,-29.742,M,0.0,*52
###2023-12-09 13:05:38.367057$GNGGA,180537.50,4138.0677336,N,07032.2551020,W,1,24,0.6,13.513,M,-29.742,M,0.0,*58
###2023-12-09 13:05:38.568404$GNGGA,180537.70,4138.0678856,N,07032.2552143,W,1,24,0.6,13.509,M,-29.742,M,0.0,*54
###2023-12-09 13:05:38.768634$GNGGA,180537.90,4138.0680355,N,07032.2553353,W,1,24,0.6,13.510,M,-29.742,M,0.0,*5F
###2023-12-09 13:05:38.971087$GNRMC,180538.10,A,4138.0681851,N,07032.2554685,W,3.25,325.19,091223,,,A*51
###2023-12-09 13:05:38.973954$GNGGA,180538.10,4138.0681851,N,07032.2554685,W,1,24,0.6,13.515,M,-29.742,M,0.0,*5A
###2023-12-09 13:05:38.975831$GPGSA,A,3,03,04,16,26,28,29,31,32,,,,,1.1,0.6,0.9*3B
###2023-12-09 13:05:38.977561$GLGSA,A,3,65,71,72,73,74,75,,,,,,,1.1,0.6,0.9*24
###2023-12-09 13:05:38.979167$GAGSA,A,3,04,19,21,27,,,,,,,,,1.1,0.6,0.9*26
###2023-12-09 13:05:38.980825$GBGSA,A,3,14,24,25,26,33,,,,,,,,1.1,0.6,0.9*2F
###2023-12-09 13:05:38.983178$GPGSV,2,1,08,03,34,259,44,04,34,311,42,16,52,213,45,26,82,210,48*7E
###2023-12-09 13:05:38.985524$GPGSV,2,2,08,28,48,072,45,29,25,059,42,31,68,042,47,32,17,141,44*7F
###2023-12-09 13:05:38.987886$GLGSV,2,1,06,65,26,327,40,71,39,173,45,72,73,261,45,73,34,043,44*6C
###2023-12-09 13:05:38.989648$GLGSV,2,2,06,74,69,343,41,75,33,255,45,,,,,,,,*6F
###2023-12-09 13:05:38.992010$GAGSV,1,1,04,04,30,312,41,19,83,207,41,21,86,104,46,27,32,048,41*6A
###2023-12-09 13:05:38.994352$GBGSV,2,1,05,14,42,192,43,24,72,028,48,25,42,263,46,26,25,063,43*63
###2023-12-09 13:05:38.995825$GBGSV,2,2,05,33,56,230,47,,,,,,,,,,,,*5F
###2023-12-09 13:05:38.997157$GNVTG,325.19,T,,M,3.25,N,6.01,K,A*2C
###2023-12-09 13:05:38.998823$GNGST,180538.10,18.000,,,,0.081,0.066,0.150*55
###2023-12-09 13:05:39.000124$GNZDA,180538.10,09,12,2023,00,00*77
###2023-12-09 13:05:39.000764$GNEBP,,,,,,M*13
###2023-12-09 13:05:39.170189$GNGGA,180538.30,4138.0683297,N,07032.2556141,W,1,24,0.6,13.518,M,-29.742,M,0.0,*5A
###2023-12-09 13:05:39.367944$GNGGA,180538.50,4138.0684731,N,07032.2557677,W,1,24,0.6,13.521,M,-29.742,M,0.0,*5B
###2023-12-09 13:05:39.568844$GNGGA,180538.70,4138.0686165,N,07032.2559338,W,1,24,0.6,13.518,M,-29.742,M,0.0,*56
###2023-12-09 13:05:39.768512$GNGGA,180538.90,4138.0687524,N,07032.2561130,W,1,24,0.6,13.519,M,-29.742,M,0.0,*58
###2023-12-09 13:05:39.967719$GNRMC,180539.10,A,4138.0688818,N,07032.2562999,W,3.48,311.80,091223,,,A*5F
###2023-12-09 13:05:39.970579$GNGGA,180539.10,4138.0688818,N,07032.2562999,W,1,24,0.6,13.517,M,-29.742,M,0.0,*5A
###2023-12-09 13:05:39.972444$GPGSA,A,3,03,04,16,26,28,29,31,32,,,,,1.1,0.6,0.9*3B
###2023-12-09 13:05:39.974162$GLGSA,A,3,65,71,72,73,74,75,,,,,,,1.1,0.6,0.9*24
###2023-12-09 13:05:39.975758$GAGSA,A,3,04,19,21,27,,,,,,,,,1.1,0.6,0.9*26
###2023-12-09 13:05:39.977391$GBGSA,A,3,14,24,25,26,33,,,,,,,,1.1,0.6,0.9*2F
###2023-12-09 13:05:39.979722$GPGSV,2,1,08,03,34,259,44,04,34,311,42,16,52,213,46,26,82,210,47*72
###2023-12-09 13:05:39.982042$GPGSV,2,2,08,28,48,072,45,29,25,059,42,31,68,042,46,32,17,141,43*79
###2023-12-09 13:05:39.984391$GLGSV,2,1,06,65,26,327,38,71,39,173,45,72,73,261,46,73,34,043,45*61
###2023-12-09 13:05:39.986135$GLGSV,2,2,06,74,69,343,42,75,33,255,45,,,,,,,,*6C
###2023-12-09 13:05:39.988475$GAGSV,1,1,04,04,30,312,41,19,83,207,40,21,86,104,46,27,32,048,43*69
###2023-12-09 13:05:39.990812$GBGSV,2,1,05,14,42,192,45,24,72,028,49,25,42,263,47,26,25,063,43*65
###2023-12-09 13:05:39.992258$GBGSV,2,2,05,33,56,230,47,,,,,,,,,,,,*5F
###2023-12-09 13:05:39.993580$GNVTG,311.80,T,,M,3.48,N,6.44,K,A*21
###2023-12-09 13:05:39.995245$GNGST,180539.10,18.000,,,,0.081,0.066,0.160*57
###2023-12-09 13:05:39.996539$GNZDA,180539.10,09,12,2023,00,00*76
###2023-12-09 13:05:39.997177$GNEBP,,,,,,M*13
###2023-12-09 13:05:40.165412$GNGGA,180539.30,4138.0690065,N,07032.2564924,W,1,24,0.6,13.520,M,-29.742,M,0.0,*57
###2023-12-09 13:05:40.365946$GNGGA,180539.50,4138.0691234,N,07032.2566943,W,1,24,0.6,13.513,M,-29.742,M,0.0,*55
###2023-12-09 13:05:40.566184$GNGGA,180539.70,4138.0692301,N,07032.2569025,W,1,24,0.6,13.505,M,-29.742,M,0.0,*52
###2023-12-09 13:05:40.767297$GNGGA,180539.90,4138.0693329,N,07032.2571132,W,1,24,0.6,13.507,M,-29.742,M,0.0,*5B
###2023-12-09 13:05:40.967654$GNRMC,180540.10,A,4138.0694314,N,07032.2573286,W,3.42,299.73,091223,,,A*59
###2023-12-09 13:05:40.970520$GNGGA,180540.10,4138.0694314,N,07032.2573286,W,1,24,0.6,13.509,M,-29.742,M,0.0,*54
###2023-12-09 13:05:40.972415$GPGSA,A,3,03,04,16,26,28,29,31,32,,,,,1.1,0.6,0.9*3B
###2023-12-09 13:05:40.974121$GLGSA,A,3,65,71,72,73,74,75,,,,,,,1.1,0.6,0.9*24
###2023-12-09 13:05:40.975711$GAGSA,A,3,04,19,21,27,,,,,,,,,1.1,0.6,0.9*26
###2023-12-09 13:05:40.977353$GBGSA,A,3,14,24,25,26,33,,,,,,,,1.1,0.6,0.9*2F
###2023-12-09 13:05:40.979700$GPGSV,2,1,08,03,34,259,43,04,34,311,42,16,52,213,46,26,82,210,48*7A
###2023-12-09 13:05:40.982044$GPGSV,2,2,08,28,48,072,45,29,25,059,41,31,68,042,47,32,17,141,43*7B
###2023-12-09 13:05:40.984398$GLGSV,2,1,06,65,26,327,37,71,39,173,46,72,73,261,46,73,34,043,45*6D
###2023-12-09 13:05:40.986142$GLGSV,2,2,06,74,69,343,42,75,33,255,45,,,,,,,,*6C
###2023-12-09 13:05:40.988486$GAGSV,1,1,04,04,30,312,39,19,83,207,40,21,86,104,46,27,32,048,42*67
###2023-12-09 13:05:40.991111$GBGSV,2,1,05,14,42,192,45,24,72,028,49,25,42,263,46,26,25,063,41*66
###2023-12-09 13:05:40.992591$GBGSV,2,2,05,33,56,230,47,,,,,,,,,,,,*5F
###2023-12-09 13:05:40.993919$GNVTG,299.73,T,,M,3.42,N,6.34,K,A*21
###2023-12-09 13:05:40.995582$GNGST,180540.10,18.000,,,,0.081,0.066,0.160*59
###2023-12-09 13:05:40.996878$GNZDA,180540.10,09,12,2023,00,00*78
###2023-12-09 13:05:40.997519$GNEBP,,,,,,M*13
###2023-12-09 13:05:41.165551$GNGGA,180540.30,4138.0695177,N,07032.2575524,W,1,24,0.6,13.509,M,-29.742,M,0.0,*59
###2023-12-09 13:05:41.365412$GNGGA,180540.50,4138.0695943,N,07032.2577803,W,1,24,0.6,13.511,M,-29.742,M,0.0,*53
###2023-12-09 13:05:41.567465$GNGGA,180540.70,4138.0696692,N,07032.2580092,W,1,24,0.6,13.519,M,-29.742,M,0.0,*51
