###2023-12-09 13:34:44.195858$GNGGA,183443.30,4138.0475025,N,07032.4040251,W,1,27,0.6,13.236,M,-29.745,M,0.0,*5D
###2023-12-09 13:34:44.394220$GNGGA,183443.50,4138.0474127,N,07032.4042233,W,1,27,0.6,13.238,M,-29.745,M,0.0,*51
###2023-12-09 13:34:44.597929$GNGGA,183443.70,4138.0473218,N,07032.4044227,W,1,27,0.6,13.237,M,-29.745,M,0.0,*57
###2023-12-09 13:34:44.794469$GNGGA,183443.90,4138.0472355,N,07032.4046286,W,1,27,0.6,13.235,M,-29.745,M,0.0,*5B
###2023-12-09 13:34:45.007059$GNRMC,183444.10,A,4138.0471597,N,07032.4048415,W,3.17,247.74,091223,,,A*58
###2023-12-09 13:34:45.009915$GNGGA,183444.10,4138.0471597,N,07032.4048415,W,1,27,0.6,13.234,M,-29.745,M,0.0,*5C
###2023-12-09 13:34:45.011781$GPGSA,A,3,03,04,16,26,27,28,29,31,,,,,1.0,0.6,0.8*3F
###2023-12-09 13:34:45.013555$GLGSA,A,3,65,71,72,73,74,75,83,,,,,,1.0,0.6,0.8*2F
###2023-12-09 13:34:45.015145$GAGSA,A,3,04,19,21,27,,,,,,,,,1.0,0.6,0.8*26
###2023-12-09 13:34:45.016914$GBGSA,A,3,12,14,24,25,26,33,35,,,,,,1.0,0.6,0.8*2A
###2023-12-09 13:34:45.019240$GPGSV,2,1,08,03,27,247,41,04,46,308,43,16,66,222,45,26,84,040,48*7E
###2023-12-09 13:34:45.021565$GPGSV,2,2,08,27,16,172,42,28,38,084,45,29,21,047,43,31,59,066,46*7D
###2023-12-09 13:34:45.023898$GLGSV,2,1,07,65,39,318,43,71,22,175,46,72,62,220,45,73,23,052,44*60
###2023-12-09 13:34:45.025926$GLGSV,2,2,07,74,60,013,43,75,43,271,46,83,15,048,37,,,,*56
###2023-12-09 13:34:45.028256$GAGSV,1,1,04,04,40,310,42,19,72,181,40,21,77,046,46,27,22,050,40*6E
###2023-12-09 13:34:45.030586$GBGSV,2,1,07,12,15,126,41,14,29,190,43,24,62,046,47,25,51,276,44*6A
###2023-12-09 13:34:45.032624$GBGSV,2,2,07,26,16,071,44,33,45,217,47,35,16,056,44,,,,*5D
###2023-12-09 13:34:45.033949$GNVTG,247.74,T,,M,3.17,N,5.87,K,A*2E
###2023-12-09 13:34:45.035603$GNGST,183444.10,5.400,,,,0.085,0.068,0.150*6E
###2023-12-09 13:34:45.036901$GNZDA,183444.10,09,12,2023,00,00*7E
###2023-12-09 13:34:45.037538$GNEBP,,,,,,M*13
###2023-12-09 13:34:45.203651$GNGGA,183444.30,4138.0471003,N,07032.4050617,W,1,27,0.6,13.238,M,-29.745,M,0.0,*53
###2023-12-09 13:34:45.394782$GNGGA,183444.50,4138.0470516,N,07032.4052877,W,1,27,0.6,13.245,M,-29.745,M,0.0,*55
###2023-12-09 13:34:45.597199$GNGGA,183444.70,4138.0470075,N,07032.4055192,W,1,27,0.6,13.245,M,-29.745,M,0.0,*52
###2023-12-09 13:34:45.797036$GNGGA,183444.90,4138.0469634,N,07032.4057528,W,1,27,0.6,13.243,M,-29.745,M,0.0,*56
###2023-12-09 13:34:45.999335$GNRMC,183445.10,A,4138.0469226,N,07032.4059887,W,3.30,258.30,091223,,,A*51
###2023-12-09 13:34:46.002196$GNGGA,183445.10,4138.0469226,N,07032.4059887,W,1,27,0.6,13.239,M,-29.745,M,0.0,*53
###2023-12-09 13:34:46.004069$GPGSA,A,3,03,04,16,26,27,28,29,31,,,,,1.0,0.6,0.8*3F
###2023-12-09 13:34:46.005860$GLGSA,A,3,65,71,72,73,74,75,83,,,,,,1.0,0.6,0.8*2F
###2023-12-09 13:34:46.007455$GAGSA,A,3,04,19,21,27,,,,,,,,,1.0,0.6,0.8*26
###2023-12-09 13:34:46.009236$GBGSA,A,3,12,14,24,25,26,33,35,,,,,,1.0,0.6,0.8*2A
###2023-12-09 13:34:46.011585$GPGSV,2,1,08,03,27,247,41,04,46,308,43,16,66,222,45,26,84,040,48*7E
###2023-12-09 13:34:46.013918$GPGSV,2,2,08,27,16,172,44,28,38,084,46,29,21,047,41,31,59,066,46*7A
###2023-12-09 13:34:46.016267$GLGSV,2,1,07,65,39,318,43,71,22,175,45,72,62,220,45,73,22,052,42*64
###2023-12-09 13:34:46.018310$GLGSV,2,2,07,74,60,013,43,75,43,271,43,83,15,048,35,,,,*51
###2023-12-09 13:34:46.020652$GAGSV,1,1,04,04,40,310,43,19,72,181,41,21,77,046,46,27,22,050,40*6E
###2023-12-09 13:34:46.023004$GBGSV,2,1,07,12,15,126,41,14,29,190,42,24,62,046,48,25,51,276,44*64
###2023-12-09 13:34:46.025044$GBGSV,2,2,07,26,16,071,45,33,45,217,47,35,16,056,44,,,,*5C
###2023-12-09 13:34:46.026367$GNVTG,258.30,T,,M,3.30,N,6.12,K,A*2A
###2023-12-09 13:34:46.028000$GNGST,183445.10,5.900,,,,0.084,0.068,0.150*63
###2023-12-09 13:34:46.029297$GNZDA,183445.10,09,12,2023,00,00*7F
###2023-12-09 13:34:46.029937$GNEBP,,,,,,M*13
###2023-12-09 13:34:46.195678$GNGGA,183445.30,4138.0468864,N,07032.4062278,W,1,27,0.6,13.241,M,-29.745,M,0.0,*51
###2023-12-09 13:34:46.394601$GNGGA,183445.50,4138.0468559,N,07032.4064678,W,1,27,0.6,13.244,M,-29.745,M,0.0,*53
###2023-12-09 13:34:46.593844$GNGGA,183445.70,4138.0468225,N,07032.4067031,W,1,27,0.6,13.253,M,-29.745,M,0.0,*53
###2023-12-09 13:34:46.796313$GNGGA,183445.90,4138.0467900,N,07032.4069385,W,1,27,0.6,13.255,M,-29.745,M,0.0,*5A
###2023-12-09 13:34:46.999605$GNRMC,183446.10,A,4138.0467586,N,07032.4071710,W,3.17,261.79,091223,,,A*58
###2023-12-09 13:34:47.002462$GNGGA,183446.10,4138.0467586,N,07032.4071710,W,1,27,0.6,13.259,M,-29.745,M,0.0,*5E
###2023-12-09 13:34:47.004333$GPGSA,A,3,03,04,16,26,27,28,29,31,,,,,1.0,0.6,0.8*3F
###2023-12-09 13:34:47.006114$GLGSA,A,3,65,71,72,73,74,75,83,,,,,,1.0,0.6,0.8*2F
###2023-12-09 13:34:47.007707$GAGSA,A,3,04,19,21,27,,,,,,,,,1.0,0.6,0.8*26
###2023-12-09 13:34:47.009485$GBGSA,A,3,12,14,24,25,26,33,35,,,,,,1.0,0.6,0.8*2A
###2023-12-09 13:34:47.011821$GPGSV,2,1,08,03,27,247,41,04,46,308,43,16,66,222,45,26,84,040,48*7E
###2023-12-09 13:34:47.014148$GPGSV,2,2,08,27,16,172,45,28,38,084,46,29,21,047,41,31,59,066,47*7A
###2023-12-09 13:34:47.016489$GLGSV,2,1,07,65,39,318,43,71,22,175,45,72,62,220,45,73,22,052,42*64
###2023-12-09 13:34:47.018520$GLGSV,2,2,07,74,59,015,43,75,43,271,43,83,15,048,35,,,,*5D
###2023-12-09 13:34:47.020859$GAGSV,1,1,04,04,40,310,42,19,72,181,41,21,77,046,46,27,22,050,40*6F
###2023-12-09 13:34:47.023198$GBGSV,2,1,07,12,15,126,41,14,29,190,42,24,62,046,48,25,51,276,44*64
###2023-12-09 13:34:47.025233$GBGSV,2,2,07,26,16,071,44,33,45,217,47,35,16,056,43,,,,*5A
###2023-12-09 13:34:47.026554$GNVTG,261.79,T,,M,3.17,N,5.87,K,A*27
###2023-12-09 13:34:47.028177$GNGST,183446.10,5.600,,,,0.084,0.068,0.150*6F
###2023-12-09 13:34:47.029461$GNZDA,183446.10,09,12,2023,00,00*7C
###2023-12-09 13:34:47.030098$GNEBP,,,,,,M*13
###2023-12-09 13:34:47.196779$GNGGA,183446.30,4138.0467322,N,07032.4074033,W,1,27,0.6,13.264,M,-29.745,M,0.0,*59
###2023-12-09 13:34:47.395980$GNGGA,183446.50,4138.0467051,N,07032.4076338,W,1,27,0.6,13.269,M,-29.745,M,0.0,*5F
###2023-12-09 13:34:47.594905$GNGGA,183446.70,4138.0466790,N,07032.4078618,W,1,27,0.6,13.273,M,-29.745,M,0.0,*54
###2023-12-09 13:34:47.795993$GNGGA,183446.90,4138.0466504,N,07032.4080884,W,1,27,0.6,13.278,M,-29.745,M,0.0,*52
###2023-12-09 13:34:47.999540$GNRMC,183447.10,A,4138.0466218,N,07032.4083162,W,3.07,259.86,091223,,,A*5C
###2023-12-09 13:34:48.002420$GNGGA,183447.10,4138.0466218,N,07032.4083162,W,1,27,0.6,13.280,M,-29.745,M,0.0,*54
###2023-12-09 13:34:48.004286$GPGSA,A,3,03,04,16,26,27,28,29,31,,,,,1.0,0.6,0.8*3F
###2023-12-09 13:34:48.006067$GLGSA,A,3,65,71,72,73,74,75,83,,,,,,1.0,0.6,0.8*2F
###2023-12-09 13:34:48.007662$GAGSA,A,3,04,19,21,27,,,,,,,,,1.0,0.6,0.8*26
###2023-12-09 13:34:48.009443$GBGSA,A,3,12,14,24,25,26,33,35,,,,,,1.0,0.6,0.8*2A
###2023-12-09 13:34:48.011782$GPGSV,2,1,08,03,27,247,41,04,46,308,43,16,66,222,45,26,84,040,48*7E
###2023-12-09 13:34:48.014114$GPGSV,2,2,08,27,16,172,44,28,38,084,45,29,21,047,41,31,59,066,46*79
###2023-12-09 13:34:48.016449$GLGSV,2,1,07,65,39,318,42,71,22,175,45,72,62,220,44,73,22,052,43*65
###2023-12-09 13:34:48.018483$GLGSV,2,2,07,74,59,015,43,75,44,272,43,83,15,048,35,,,,*59
###2023-12-09 13:34:48.020821$GAGSV,1,1,04,04,40,310,42,19,72,181,41,21,77,046,46,27,22,050,39*61
###2023-12-09 13:34:48.023160$GBGSV,2,1,07,12,15,126,42,14,29,190,42,24,62,046,49,25,51,276,45*67
###2023-12-09 13:34:48.025194$GBGSV,2,2,07,26,16,071,45,33,45,217,48,35,16,056,44,,,,*53
###2023-12-09 13:34:48.026520$GNVTG,259.86,T,,M,3.07,N,5.69,K,A*2D
###2023-12-09 13:34:48.028150$GNGST,183447.10,5.200,,,,0.084,0.068,0.150*6A
###2023-12-09 13:34:48.029459$GNZDA,183447.10,09,12,2023,00,00*7D
###2023-12-09 13:34:48.030104$GNEBP,,,,,,M*13
###2023-12-09 13:34:48.196860$GNGGA,183447.30,4138.0465954,N,07032.4085444,W,1,27,0.6,13.286,M,-29.745,M,0.0,*57
###2023-12-09 13:34:48.394657$GNGGA,183447.50,4138.0465696,N,07032.4087747,W,1,27,0.6,13.292,M,-29.745,M,0.0,*57
###2023-12-09 13:34:48.595747$GNGGA,183447.70,4138.0465385,N,07032.4090021,W,1,27,0.6,13.296,M,-29.745,M,0.0,*57
###2023-12-09 13:34:48.795989$GNGGA,183447.90,4138.0465039,N,07032.4092301,W,1,27,0.6,13.299,M,-29.745,M,0.0,*51
###2023-12-09 13:34:48.999666$GNRMC,183448.10,A,4138.0464681,N,07032.4094610,W,3.15,257.17,091223,,,A*54
###2023-12-09 13:34:49.002523$GNGGA,183448.10,4138.0464681,N,07032.4094610,W,1,27,0.6,13.302,M,-29.745,M,0.0,*52
###2023-12-09 13:34:49.004405$GPGSA,A,3,03,04,16,26,27,28,29,31,,,,,1.0,0.6,0.8*3F
###2023-12-09 13:34:49.006190$GLGSA,A,3,65,71,72,73,74,75,83,,,,,,1.0,0.6,0.8*2F
###2023-12-09 13:34:49.007789$GAGSA,A,3,04,19,21,27,,,,,,,,,1.0,0.6,0.8*26
###2023-12-09 13:34:49.009570$GBGSA,A,3,12,14,24,25,26,33,35,,,,,,1.0,0.6,0.8*2A
###2023-12-09 13:34:49.011921$GPGSV,2,1,08,03,27,247,39,04,46,308,43,16,66,222,45,26,84,040,48*71
###2023-12-09 13:34:49.014268$GPGSV,2,2,08,27,16,172,44,28,38,084,45,29,21,047,42,31,59,066,46*7A
###2023-12-09 13:34:49.016618$GLGSV,2,1,07,65,39,318,42,71,22,175,45,72,62,220,44,73,22,052,44*62
###2023-12-09 13:34:49.018701$GLGSV,2,2,07,74,59,015,43,75,44,272,44,83,15,048,35,,,,*5E
###2023-12-09 13:34:49.021038$GAGSV,1,1,04,04,40,310,42,19,72,181,41,21,77,046,46,27,22,050,40*6F
###2023-12-09 13:34:49.023380$GBGSV,2,1,07,12,15,126,42,14,29,190,41,24,62,046,48,25,51,276,45*65
