###2023-12-09 12:59:39.969399$GNGGA,175939.10,4138.0205711,N,07032.2764681,W,1,24,0.6,12.839,M,-29.744,M,0.0,*5F
###2023-12-09 12:59:39.971703$GPGSA,A,3,03,04,16,26,28,29,31,32,,,,,1.1,0.6,0.9*3B
###2023-12-09 12:59:39.973809$GLGSA,A,3,65,71,72,73,74,75,,,,,,,1.1,0.6,0.9*24
###2023-12-09 12:59:39.975762$GAGSA,A,3,04,19,21,27,,,,,,,,,1.1,0.6,0.9*26
###2023-12-09 12:59:39.977749$GBGSA,A,3,14,24,25,26,33,,,,,,,,1.1,0.6,0.9*2F
###2023-12-09 12:59:39.980586$GPGSV,2,1,08,03,35,262,40,04,32,311,40,16,49,212,44,26,79,210,47*76
###2023-12-09 12:59:39.983419$GPGSV,2,2,08,28,50,070,44,29,25,062,41,31,69,036,46,32,19,140,42*74
###2023-12-09 12:59:39.986231$GLGSV,2,1,06,65,23,328,38,71,42,172,47,72,73,273,45,73,37,041,46*66
###2023-12-09 12:59:39.988362$GLGSV,2,2,06,74,70,334,42,75,31,252,42,,,,,,,,*66
###2023-12-09 12:59:39.991192$GAGSV,1,1,04,04,28,312,39,19,85,226,40,21,85,133,46,27,34,048,42*6A
###2023-12-09 12:59:39.994014$GBGSV,2,1,05,14,44,193,46,24,74,022,48,25,40,261,44,26,27,062,43*6C
###2023-12-09 12:59:39.995777$GBGSV,2,2,05,33,58,234,48,,,,,,,,,,,,*5A
###2023-12-09 12:59:39.997370$GNVTG,283.53,T,,M,3.50,N,6.48,K,A*20
###2023-12-09 12:59:39.999364$GNGST,175939.10,18.000,,,,0.082,0.071,0.160*54
###2023-12-09 12:59:40.000925$GNZDA,175939.10,09,12,2023,00,00*70
###2023-12-09 12:59:40.001696$GNEBP,,,,,,M*13
###2023-12-09 12:59:40.161091$GNGGA,175939.30,4138.0206190,N,07032.2767187,W,1,24,0.6,12.842,M,-29.744,M,0.0,*5F
###2023-12-09 12:59:40.362953$GNGGA,175939.50,4138.0206660,N,07032.2769706,W,1,24,0.6,12.841,M,-29.744,M,0.0,*53
###2023-12-09 12:59:40.563256$GNGGA,175939.70,4138.0207078,N,07032.2772284,W,1,24,0.6,12.834,M,-29.744,M,0.0,*58
###2023-12-09 12:59:40.763366$GNGGA,175939.90,4138.0207497,N,07032.2774843,W,1,24,0.6,12.834,M,-29.744,M,0.0,*54
###2023-12-09 12:59:40.964256$GNRMC,175940.10,A,4138.0207965,N,07032.2777390,W,3.54,281.88,091223,,,A*57
###2023-12-09 12:59:40.967149$GNGGA,175940.10,4138.0207965,N,07032.2777390,W,1,24,0.6,12.842,M,-29.744,M,0.0,*55
###2023-12-09 12:59:40.969022$GPGSA,A,3,03,04,16,26,28,29,31,32,,,,,1.1,0.6,0.9*3B
###2023-12-09 12:59:40.970757$GLGSA,A,3,65,71,72,73,74,75,,,,,,,1.1,0.6,0.9*24
###2023-12-09 12:59:40.972340$GAGSA,A,3,04,19,21,27,,,,,,,,,1.1,0.6,0.9*26
###2023-12-09 12:59:40.973987$GBGSA,A,3,14,24,25,26,33,,,,,,,,1.1,0.6,0.9*2F
###2023-12-09 12:59:40.976334$GPGSV,2,1,08,03,35,262,40,04,32,311,40,16,49,212,45,26,79,210,47*77
###2023-12-09 12:59:40.978685$GPGSV,2,2,08,28,50,070,45,29,25,062,41,31,69,036,47,32,19,140,43*75
###2023-12-09 12:59:40.981024$GLGSV,2,1,06,65,23,328,38,71,42,172,47,72,73,273,45,73,37,041,46*66
###2023-12-09 12:59:40.982786$GLGSV,2,2,06,74,70,334,42,75,31,252,41,,,,,,,,*65
###2023-12-09 12:59:40.985120$GAGSV,1,1,04,04,28,312,38,19,85,226,40,21,85,133,46,27,34,048,41*68
###2023-12-09 12:59:40.987467$GBGSV,2,1,05,14,44,193,46,24,74,022,49,25,40,261,44,26,27,062,42*6C
###2023-12-09 12:59:40.988924$GBGSV,2,2,05,33,58,234,47,,,,,,,,,,,,*55
###2023-12-09 12:59:40.990243$GNVTG,281.88,T,,M,3.54,N,6.55,K,A*2C
###2023-12-09 12:59:40.991898$GNGST,175940.10,18.000,,,,0.082,0.071,0.160*5A
###2023-12-09 12:59:40.993198$GNZDA,175940.10,09,12,2023,00,00*7E
###2023-12-09 12:59:40.993836$GNEBP,,,,,,M*13
###2023-12-09 12:59:41.163108$GNGGA,175940.30,4138.0208361,N,07032.2779932,W,1,24,0.6,12.847,M,-29.744,M,0.0,*5F
###2023-12-09 12:59:41.370276$GNGGA,175940.50,4138.0208705,N,07032.2782433,W,1,24,0.6,12.836,M,-29.744,M,0.0,*51
###2023-12-09 12:59:41.561600$GNGGA,175940.70,4138.0208973,N,07032.2784913,W,1,24,0.6,12.822,M,-29.744,M,0.0,*50
###2023-12-09 12:59:41.760989$GNGGA,175940.90,4138.0209384,N,07032.2787378,W,1,24,0.6,12.822,M,-29.744,M,0.0,*59
###2023-12-09 12:59:41.964786$GNRMC,175941.10,A,4138.0209853,N,07032.2789778,W,3.40,282.70,091223,,,A*5E
###2023-12-09 12:59:41.967667$GNGGA,175941.10,4138.0209853,N,07032.2789778,W,1,24,0.6,12.840,M,-29.744,M,0.0,*5F
###2023-12-09 12:59:41.969532$GPGSA,A,3,03,04,16,26,28,29,31,32,,,,,1.1,0.6,0.9*3B
###2023-12-09 12:59:41.971262$GLGSA,A,3,65,71,72,73,74,75,,,,,,,1.1,0.6,0.9*24
###2023-12-09 12:59:41.972849$GAGSA,A,3,04,19,21,27,,,,,,,,,1.1,0.6,0.9*26
###2023-12-09 12:59:41.974498$GBGSA,A,3,14,24,25,26,33,,,,,,,,1.1,0.6,0.9*2F
###2023-12-09 12:59:41.976842$GPGSV,2,1,08,03,35,262,41,04,32,311,39,16,49,212,45,26,79,210,47*78
###2023-12-09 12:59:41.979190$GPGSV,2,2,08,28,50,070,44,29,25,062,41,31,69,036,47,32,19,140,43*74
###2023-12-09 12:59:41.981523$GLGSV,2,1,06,65,23,328,38,71,42,172,46,72,73,273,45,73,37,041,47*66
###2023-12-09 12:59:41.983283$GLGSV,2,2,06,74,70,334,42,75,31,252,41,,,,,,,,*65
###2023-12-09 12:59:41.985606$GAGSV,1,1,04,04,28,312,38,19,85,226,40,21,85,133,46,27,34,048,42*6B
###2023-12-09 12:59:41.987954$GBGSV,2,1,05,14,44,193,46,24,74,022,49,25,40,261,44,26,27,062,41*6F
###2023-12-09 12:59:41.989413$GBGSV,2,2,05,33,58,234,48,,,,,,,,,,,,*5A
###2023-12-09 12:59:41.990749$GNVTG,282.70,T,,M,3.40,N,6.30,K,A*2E
###2023-12-09 12:59:41.992399$GNGST,175941.10,18.000,,,,0.082,0.071,0.160*5B
###2023-12-09 12:59:41.993692$GNZDA,175941.10,09,12,2023,00,00*7F
###2023-12-09 12:59:41.994329$GNEBP,,,,,,M*13
###2023-12-09 12:59:42.160905$GNGGA,175941.30,4138.0210183,N,07032.2792195,W,1,24,0.6,12.834,M,-29.744,M,0.0,*5D
###2023-12-09 12:59:42.363082$GNGGA,175941.50,4138.0210461,N,07032.2794622,W,1,24,0.6,12.831,M,-29.744,M,0.0,*5A
###2023-12-09 12:59:42.565349$GNGGA,175941.70,4138.0210887,N,07032.2797064,W,1,24,0.6,12.839,M,-29.744,M,0.0,*53
###2023-12-09 12:59:42.763374$GNGGA,175941.90,4138.0211343,N,07032.2799548,W,1,24,0.6,12.843,M,-29.744,M,0.0,*57
###2023-12-09 12:59:42.965586$GNRMC,175942.10,A,4138.0211461,N,07032.2802020,W,3.29,268.58,091223,,,A*5E
###2023-12-09 12:59:42.968485$GNGGA,175942.10,4138.0211461,N,07032.2802020,W,1,24,0.6,12.819,M,-29.744,M,0.0,*52
###2023-12-09 12:59:42.970388$GPGSA,A,3,03,04,16,26,28,29,31,32,,,,,1.1,0.6,0.9*3B
###2023-12-09 12:59:42.972134$GLGSA,A,3,65,71,72,73,74,75,,,,,,,1.1,0.6,0.9*24
###2023-12-09 12:59:42.973726$GAGSA,A,3,04,19,21,27,,,,,,,,,1.1,0.6,0.9*26
###2023-12-09 12:59:42.975383$GBGSA,A,3,14,24,25,26,33,,,,,,,,1.1,0.6,0.9*2F
###2023-12-09 12:59:42.977707$GPGSV,2,1,08,03,35,262,43,04,32,311,40,16,49,212,46,26,79,210,47*77
###2023-12-09 12:59:42.980052$GPGSV,2,2,08,28,50,070,44,29,25,062,41,31,69,036,47,32,19,140,43*74
###2023-12-09 12:59:42.982390$GLGSV,2,1,06,65,23,328,40,71,42,172,46,72,73,273,45,73,37,041,45*6B
###2023-12-09 12:59:42.984150$GLGSV,2,2,06,74,70,334,42,75,31,252,41,,,,,,,,*65
###2023-12-09 12:59:42.986482$GAGSV,1,1,04,04,28,312,39,19,85,226,40,21,85,133,46,27,34,048,42*6A
###2023-12-09 12:59:42.988824$GBGSV,2,1,05,14,44,193,45,24,74,022,48,25,40,261,44,26,27,062,42*6E
###2023-12-09 12:59:42.990274$GBGSV,2,2,05,33,58,234,47,,,,,,,,,,,,*55
###2023-12-09 12:59:42.991613$GNVTG,268.58,T,,M,3.29,N,6.08,K,A*24
###2023-12-09 12:59:42.993268$GNGST,175942.10,18.000,,,,0.082,0.072,0.160*5B
###2023-12-09 12:59:42.994570$GNZDA,175942.10,09,12,2023,00,00*7C
###2023-12-09 12:59:42.995213$GNEBP,,,,,,M*13
###2023-12-09 12:59:43.161518$GNGGA,175942.30,4138.0211516,N,07032.2804499,W,1,24,0.6,12.815,M,-29.744,M,0.0,*5D
###2023-12-09 12:59:43.363563$GNGGA,175942.50,4138.0211814,N,07032.2807063,W,1,24,0.6,12.832,M,-29.744,M,0.0,*53
###2023-12-09 12:59:43.561594$GNGGA,175942.70,4138.0211953,N,07032.2809640,W,1,24,0.6,12.820,M,-29.744,M,0.0,*59
###2023-12-09 12:59:43.761912$GNGGA,175942.90,4138.0211841,N,07032.2812142,W,1,24,0.6,12.829,M,-29.744,M,0.0,*53
###2023-12-09 12:59:43.963770$GNRMC,175943.10,A,4138.0211788,N,07032.2814717,W,3.56,269.19,091223,,,A*53
###2023-12-09 12:59:43.966620$GNGGA,175943.10,4138.0211788,N,07032.2814717,W,1,24,0.6,12.853,M,-29.744,M,0.0,*5D
###2023-12-09 12:59:43.968470$GPGSA,A,3,03,04,16,26,28,29,31,32,,,,,1.1,0.6,0.9*3B
###2023-12-09 12:59:43.970182$GLGSA,A,3,65,71,72,73,74,75,,,,,,,1.1,0.6,0.9*24
###2023-12-09 12:59:43.971779$GAGSA,A,3,04,19,21,27,,,,,,,,,1.1,0.6,0.9*26
###2023-12-09 12:59:43.973424$GBGSA,A,3,14,24,25,26,33,,,,,,,,1.1,0.6,0.9*2F
###2023-12-09 12:59:43.975766$GPGSV,2,1,08,03,35,262,43,04,32,311,41,16,49,212,45,26,79,210,47*75
###2023-12-09 12:59:43.978102$GPGSV,2,2,08,28,50,070,45,29,25,062,42,31,69,036,47,32,19,140,44*71
###2023-12-09 12:59:43.980707$GLGSV,2,1,06,65,23,328,40,71,42,172,47,72,73,273,45,73,37,041,45*6A
###2023-12-09 12:59:43.982476$GLGSV,2,2,06,74,70,334,42,75,31,252,44,,,,,,,,*60
###2023-12-09 12:59:43.984812$GAGSV,1,1,04,04,28,312,40,19,85,226,40,21,85,133,46,27,34,048,42*64
###2023-12-09 12:59:43.987153$GBGSV,2,1,05,14,44,193,45,24,74,022,48,25,40,261,44,26,27,062,43*6F
###2023-12-09 12:59:43.988601$GBGSV,2,2,05,33,58,234,47,,,,,,,,,,,,*55
###2023-12-09 12:59:43.989917$GNVTG,269.19,T,,M,3.56,N,6.59,K,A*2C
###2023-12-09 12:59:43.991569$GNGST,175943.10,18.000,,,,0.082,0.071,0.160*59
###2023-12-09 12:59:43.992854$GNZDA,175943.10,09,12,2023,00,00*7D
###2023-12-09 12:59:43.993491$GNEBP,,,,,,M*13
