###2023-12-09 13:17:12.005015$GLGSV,2,2,06,74,65,358,42,75,38,261,47,,,,,,,,*64
###2023-12-09 13:17:12.007388$GAGSV,1,1,04,04,34,312,44,19,79,190,40,21,83,062,46,27,28,049,41*6C
###2023-12-09 13:17:12.009724$GBGSV,2,1,06,14,36,191,44,24,68,036,50,25,45,268,50,26,21,066,44*67
###2023-12-09 13:17:12.011489$GBGSV,2,2,06,33,52,224,49,35,16,063,44,,,,,,,,*67
###2023-12-09 13:17:12.012813$GNVTG,172.06,T,,M,3.23,N,5.98,K,A*27
###2023-12-09 13:17:12.014459$GNGST,181711.10,18.000,,,,0.099,0.070,0.170*51
###2023-12-09 13:17:12.015765$GNZDA,181711.10,09,12,2023,00,00*7F
###2023-12-09 13:17:12.016407$GNEBP,,,,,,M*13
###2023-12-09 13:17:12.181125$GNGGA,181711.30,4138.0681316,N,07032.2926315,W,1,24,0.7,13.036,M,-29.742,M,0.0,*58
###2023-12-09 13:17:12.379323$GNGGA,181711.50,4138.0679379,N,07032.2926438,W,1,24,0.7,13.057,M,-29.742,M,0.0,*5F
###2023-12-09 13:17:12.579389$GNGGA,181711.70,4138.0677441,N,07032.2926365,W,1,24,0.7,13.034,M,-29.742,M,0.0,*55
###2023-12-09 13:17:12.778432$GNGGA,181711.90,4138.0675635,N,07032.2926022,W,1,24,0.7,13.045,M,-29.742,M,0.0,*5E
###2023-12-09 13:17:12.984766$GNRMC,181712.10,A,4138.0673751,N,07032.2925726,W,3.42,174.54,091223,,,A*54
###2023-12-09 13:17:12.987660$GNGGA,181712.10,4138.0673751,N,07032.2925726,W,1,24,0.7,13.064,M,-29.742,M,0.0,*53
###2023-12-09 13:17:12.989453$GPGSA,A,3,03,04,16,26,28,29,31,,,,,,1.2,0.7,1.0*30
###2023-12-09 13:17:12.991185$GLGSA,A,3,65,71,72,73,74,75,,,,,,,1.2,0.7,1.0*2E
###2023-12-09 13:17:12.992784$GAGSA,A,3,04,19,21,27,,,,,,,,,1.2,0.7,1.0*2C
###2023-12-09 13:17:12.994499$GBGSA,A,3,14,24,25,26,33,35,,,,,,,1.2,0.7,1.0*23
###2023-12-09 13:17:12.996842$GPGSV,2,1,07,03,31,253,44,04,39,310,44,16,57,216,47,26,87,208,47*75
###2023-12-09 13:17:12.998896$GPGSV,2,2,07,28,44,077,45,29,24,054,42,31,65,052,47,,,,*4A
###2023-12-09 13:17:13.001234$GLGSV,2,1,06,65,31,324,43,71,32,174,43,72,70,240,46,73,29,047,43*6C
###2023-12-09 13:17:13.002992$GLGSV,2,2,06,74,65,358,43,75,38,261,46,,,,,,,,*64
###2023-12-09 13:17:13.005311$GAGSV,1,1,04,04,34,312,43,19,79,190,40,21,83,062,46,27,28,049,40*6A
###2023-12-09 13:17:13.007648$GBGSV,2,1,06,14,36,191,43,24,68,036,50,25,45,268,49,26,21,066,44*68
###2023-12-09 13:17:13.009392$GBGSV,2,2,06,33,52,224,49,35,16,063,43,,,,,,,,*60
###2023-12-09 13:17:13.010724$GNVTG,174.54,T,,M,3.42,N,6.34,K,A*24
###2023-12-09 13:17:13.012370$GNGST,181712.10,18.000,,,,0.098,0.069,0.170*5B
###2023-12-09 13:17:13.013654$GNZDA,181712.10,09,12,2023,00,00*7C
###2023-12-09 13:17:13.014291$GNEBP,,,,,,M*13
###2023-12-09 13:17:13.177726$GNGGA,181712.30,4138.0671873,N,07032.2925437,W,1,24,0.7,13.041,M,-29.742,M,0.0,*58
###2023-12-09 13:17:13.378437$GNGGA,181712.50,4138.0669999,N,07032.2925230,W,1,24,0.7,13.050,M,-29.742,M,0.0,*53
###2023-12-09 13:17:13.579283$GNGGA,181712.70,4138.0668074,N,07032.2925022,W,1,24,0.7,13.055,M,-29.742,M,0.0,*5E
###2023-12-09 13:17:13.780072$GNGGA,181712.90,4138.0666158,N,07032.2924804,W,1,24,0.7,13.045,M,-29.742,M,0.0,*5D
###2023-12-09 13:17:13.980491$GNRMC,181713.10,A,4138.0664263,N,07032.2924685,W,3.48,179.80,091223,,,A*50
###2023-12-09 13:17:13.983375$GNGGA,181713.10,4138.0664263,N,07032.2924685,W,1,24,0.7,13.045,M,-29.743,M,0.0,*5B
###2023-12-09 13:17:13.985174$GPGSA,A,3,03,04,16,26,28,29,31,,,,,,1.2,0.7,1.0*30
###2023-12-09 13:17:13.986906$GLGSA,A,3,65,71,72,73,74,75,,,,,,,1.2,0.7,1.0*2E
###2023-12-09 13:17:13.988495$GAGSA,A,3,04,19,21,27,,,,,,,,,1.2,0.7,1.0*2C
###2023-12-09 13:17:13.990214$GBGSA,A,3,14,24,25,26,33,35,,,,,,,1.2,0.7,1.0*23
###2023-12-09 13:17:13.992564$GPGSV,2,1,07,03,31,253,42,04,39,310,44,16,57,216,46,26,87,208,47*72
###2023-12-09 13:17:13.994624$GPGSV,2,2,07,28,44,077,45,29,24,054,42,31,65,052,47,,,,*4A
###2023-12-09 13:17:13.996965$GLGSV,2,1,06,65,31,324,42,71,32,174,42,72,70,240,45,73,29,047,44*68
###2023-12-09 13:17:13.998729$GLGSV,2,2,06,74,65,358,43,75,38,261,46,,,,,,,,*64
###2023-12-09 13:17:14.001057$GAGSV,1,1,04,04,34,312,43,19,79,190,40,21,83,062,46,27,28,049,40*6A
###2023-12-09 13:17:14.003401$GBGSV,2,1,06,14,36,191,41,24,68,036,49,25,45,268,47,26,21,066,43*6B
###2023-12-09 13:17:14.005152$GBGSV,2,2,06,33,52,224,47,35,16,063,44,,,,,,,,*69
###2023-12-09 13:17:14.006477$GNVTG,179.80,T,,M,3.48,N,6.44,K,A*2D
###2023-12-09 13:17:14.008138$GNGST,181713.10,18.000,,,,0.098,0.069,0.170*5A
###2023-12-09 13:17:14.009427$GNZDA,181713.10,09,12,2023,00,00*7D
###2023-12-09 13:17:14.010065$GNEBP,,,,,,M*13
###2023-12-09 13:17:14.177434$GNGGA,181713.30,4138.0662325,N,07032.2924745,W,1,24,0.7,13.054,M,-29.743,M,0.0,*51
###2023-12-09 13:17:14.377540$GNGGA,181713.50,4138.0660385,N,07032.2924914,W,1,24,0.7,13.041,M,-29.743,M,0.0,*51
###2023-12-09 13:17:14.578279$GNGGA,181713.70,4138.0658569,N,07032.2925383,W,1,24,0.7,13.069,M,-29.743,M,0.0,*53
###2023-12-09 13:17:14.776922$GNGGA,181713.90,4138.0656642,N,07032.2925730,W,1,24,0.7,13.064,M,-29.743,M,0.0,*58
###2023-12-09 13:17:14.983681$GNRMC,181714.10,A,4138.0654771,N,07032.2925934,W,3.30,187.78,091223,,,A*5F
###2023-12-09 13:17:14.986546$GNGGA,181714.10,4138.0654771,N,07032.2925934,W,1,24,0.7,13.019,M,-29.743,M,0.0,*54
###2023-12-09 13:17:14.988362$GPGSA,A,3,03,04,16,26,28,29,31,,,,,,1.2,0.7,1.0*30
###2023-12-09 13:17:14.990089$GLGSA,A,3,65,71,72,73,74,75,,,,,,,1.2,0.7,1.0*2E
###2023-12-09 13:17:14.991688$GAGSA,A,3,04,19,21,27,,,,,,,,,1.2,0.7,1.0*2C
###2023-12-09 13:17:14.993412$GBGSA,A,3,14,24,25,26,33,35,,,,,,,1.2,0.7,1.0*23
###2023-12-09 13:17:14.995763$GPGSV,2,1,07,03,31,253,43,04,39,310,44,16,57,216,47,26,87,208,48*7D
###2023-12-09 13:17:14.997816$GPGSV,2,2,07,28,44,077,45,29,24,054,44,31,65,052,48,,,,*43
###2023-12-09 13:17:15.000170$GLGSV,2,1,06,65,31,324,42,71,32,174,43,72,70,240,45,73,29,047,43*6E
###2023-12-09 13:17:15.001930$GLGSV,2,2,06,74,65,358,42,75,38,261,45,,,,,,,,*66
###2023-12-09 13:17:15.004281$GAGSV,1,1,04,04,34,312,42,19,79,190,40,21,83,062,46,27,28,049,41*6A
###2023-12-09 13:17:15.006638$GBGSV,2,1,06,14,36,191,41,24,68,036,50,25,45,268,46,26,21,066,45*64
###2023-12-09 13:17:15.008399$GBGSV,2,2,06,33,52,224,47,35,16,063,46,,,,,,,,*6B
###2023-12-09 13:17:15.009729$GNVTG,187.78,T,,M,3.30,N,6.12,K,A*27
###2023-12-09 13:17:15.011421$GNGST,181714.10,18.000,,,,0.099,0.069,0.170*5C
###2023-12-09 13:17:15.012727$GNZDA,181714.10,09,12,2023,00,00*7A
###2023-12-09 13:17:15.013372$GNEBP,,,,,,M*13
###2023-12-09 13:17:15.180340$GNGGA,181714.30,4138.0652879,N,07032.2926561,W,1,24,0.7,13.060,M,-29.743,M,0.0,*56
###2023-12-09 13:17:15.377447$GNGGA,181714.50,4138.0650904,N,07032.2927064,W,1,24,0.7,13.040,M,-29.743,M,0.0,*5A
###2023-12-09 13:17:15.577274$GNGGA,181714.70,4138.0649034,N,07032.2927146,W,1,24,0.7,13.032,M,-29.743,M,0.0,*5E
###2023-12-09 13:17:15.778379$GNGGA,181714.90,4138.0647090,N,07032.2927302,W,1,24,0.7,13.040,M,-29.743,M,0.0,*57
###2023-12-09 13:17:15.981519$GNRMC,181715.10,A,4138.0645119,N,07032.2927529,W,3.56,182.50,091223,,,A*5B
###2023-12-09 13:17:15.984426$GNGGA,181715.10,4138.0645119,N,07032.2927529,W,1,24,0.7,13.020,M,-29.743,M,0.0,*55
###2023-12-09 13:17:15.986234$GPGSA,A,3,03,04,16,26,28,29,31,,,,,,1.2,0.7,1.0*30
###2023-12-09 13:17:15.987968$GLGSA,A,3,65,71,72,73,74,75,,,,,,,1.2,0.7,1.0*2E
###2023-12-09 13:17:15.989561$GAGSA,A,3,04,19,21,27,,,,,,,,,1.2,0.7,1.0*2C
###2023-12-09 13:17:15.991286$GBGSA,A,3,14,24,25,26,33,35,,,,,,,1.2,0.7,1.0*23
###2023-12-09 13:17:15.993618$GPGSV,2,1,07,03,31,253,43,04,39,310,44,16,57,216,46,26,87,208,47*73
###2023-12-09 13:17:15.995677$GPGSV,2,2,07,28,44,077,46,29,24,054,42,31,65,052,47,,,,*49
###2023-12-09 13:17:15.998024$GLGSV,2,1,06,65,31,324,43,71,32,174,43,72,70,240,45,73,29,047,44*68
###2023-12-09 13:17:15.999793$GLGSV,2,2,06,74,65,358,42,75,38,261,46,,,,,,,,*65
###2023-12-09 13:17:16.002134$GAGSV,1,1,04,04,34,312,43,19,79,190,40,21,83,062,46,27,28,049,40*6A
###2023-12-09 13:17:16.004488$GBGSV,2,1,06,14,36,191,42,24,68,036,49,25,45,268,47,26,21,066,44*6F
###2023-12-09 13:17:16.006249$GBGSV,2,2,06,33,52,224,46,35,16,063,43,,,,,,,,*6F
###2023-12-09 13:17:16.007583$GNVTG,182.50,T,,M,3.56,N,6.59,K,A*27
###2023-12-09 13:17:16.009234$GNGST,181715.10,18.000,,,,0.099,0.069,0.170*5D
###2023-12-09 13:17:16.010529$GNZDA,181715.10,09,12,2023,00,00*7B
###2023-12-09 13:17:16.011178$GNEBP,,,,,,M*13
###2023-12-09 13:17:16.179329$GNGGA,181715.30,4138.0643217,N,07032.2927596,W,1,24,0.7,13.019,M,-29.743,M,0.0,*52
###2023-12-09 13:17:16.377470$GNGGA,181715.50,4138.0641291,N,07032.2927565,W,1,24,0.7,13.035,M,-29.743,M,0.0,*5A
###2023-12-09 13:17:16.576991$GNGGA,181715.70,4138.0639369,N,07032.2927457,W,1,24,0.7,13.028,M,-29.743,M,0.0,*5D
###2023-12-09 13:17:16.776903$GNGGA,181715.90,4138.0637491,N,07032.2927368,W,1,24,0.7,13.017,M,-29.743,M,0.0,*5A
###2023-12-09 13:17:16.982417$GNRMC,181716.10,A,4138.0635582,N,07032.2927354,W,3.56,176.84,091223,,,A*57
###2023-12-09 13:17:16.985291$GNGGA,181716.10,4138.0635582,N,07032.2927354,W,1,24,0.7,13.030,M,-29.743,M,0.0,*5A
###2023-12-09 13:17:16.987096$GPGSA,A,3,03,04,16,26,28,29,31,,,,,,1.2,0.7,1.0*30
###2023-12-09 13:17:16.988808$GLGSA,A,3,65,71,72,73,74,75,,,,,,,1.2,0.7,1.0*2E
