###2023-12-09 13:31:19.993515$GNGGA,183119.10,4138.0358766,N,07032.4176570,W,1,22,0.9,13.316,M,-29.745,M,0.0,*54
###2023-12-09 13:31:19.995343$GPGSA,A,3,03,04,16,26,28,29,31,,,,,,1.4,0.9,1.1*39
###2023-12-09 13:31:19.997059$GLGSA,A,3,65,72,73,74,75,83,,,,,,,1.4,0.9,1.1*2A
###2023-12-09 13:31:19.998653$GAGSA,A,3,04,19,21,27,,,,,,,,,1.4,0.9,1.1*25
###2023-12-09 13:31:20.000293$GBGSA,A,3,24,25,26,33,35,,,,,,,,1.4,0.9,1.1*2F
###2023-12-09 13:31:20.002636$GPGSV,2,1,07,03,27,247,36,04,45,308,43,16,65,221,45,26,86,041,47*7E
###2023-12-09 13:31:20.004666$GPGSV,2,2,07,28,39,083,45,29,21,049,41,31,61,063,45,,,,*45
###2023-12-09 13:31:20.006993$GLGSV,2,1,06,65,37,320,43,72,64,223,45,73,23,051,42,74,61,011,43*60
###2023-12-09 13:31:20.008735$GLGSV,2,2,06,75,42,269,44,83,15,049,36,,,,,,,,*6D
###2023-12-09 13:31:20.011058$GAGSV,1,1,04,04,39,310,42,19,73,182,40,21,78,047,46,27,23,050,39*63
###2023-12-09 13:31:20.013373$GBGSV,2,1,05,24,64,044,48,25,50,275,45,26,17,070,45,33,47,218,48*66
###2023-12-09 13:31:20.014832$GBGSV,2,2,05,35,16,058,44,,,,,,,,,,,,*52
###2023-12-09 13:31:20.016148$GNVTG,248.95,T,,M,2.66,N,4.93,K,A*2D
###2023-12-09 13:31:20.017759$GNGST,183119.10,6.100,,,,0.130,0.079,0.200*6C
###2023-12-09 13:31:20.019089$GNZDA,183119.10,09,12,2023,00,00*73
###2023-12-09 13:31:20.019729$GNEBP,,,,,,M*13
###2023-12-09 13:31:20.193129$GNGGA,183119.30,4138.0358293,N,07032.4178415,W,1,22,0.9,13.318,M,-29.745,M,0.0,*5B
###2023-12-09 13:31:20.388900$GNGGA,183119.50,4138.0357818,N,07032.4180204,W,1,22,0.9,13.323,M,-29.745,M,0.0,*52
###2023-12-09 13:31:20.594206$GNGGA,183119.70,4138.0357397,N,07032.4181944,W,1,23,0.7,13.321,M,-29.745,M,0.0,*5F
###2023-12-09 13:31:20.787523$GNGGA,183119.90,4138.0357031,N,07032.4183611,W,1,23,0.7,13.331,M,-29.745,M,0.0,*52
###2023-12-09 13:31:20.994532$GNRMC,183120.10,A,4138.0356714,N,07032.4185222,W,2.29,256.55,091223,,,A*59
###2023-12-09 13:31:20.997417$GNGGA,183120.10,4138.0356714,N,07032.4185222,W,1,22,0.9,13.330,M,-29.745,M,0.0,*5D
###2023-12-09 13:31:20.999216$GPGSA,A,3,03,04,16,26,28,29,31,,,,,,1.4,0.9,1.1*39
###2023-12-09 13:31:21.000922$GLGSA,A,3,65,72,73,74,75,83,,,,,,,1.4,0.9,1.1*2A
###2023-12-09 13:31:21.002490$GAGSA,A,3,04,19,21,27,,,,,,,,,1.4,0.9,1.1*25
###2023-12-09 13:31:21.004148$GBGSA,A,3,24,25,26,33,35,,,,,,,,1.4,0.9,1.1*2F
###2023-12-09 13:31:21.006469$GPGSV,2,1,07,03,27,247,36,04,45,308,43,16,65,221,45,26,86,041,48*71
###2023-12-09 13:31:21.008524$GPGSV,2,2,07,28,39,083,45,29,21,049,40,31,61,063,45,,,,*44
###2023-12-09 13:31:21.010863$GLGSV,2,1,06,65,37,320,43,72,64,223,46,73,23,051,42,74,61,011,43*63
###2023-12-09 13:31:21.012615$GLGSV,2,2,06,75,42,269,43,83,15,049,36,,,,,,,,*6A
###2023-12-09 13:31:21.014941$GAGSV,1,1,04,04,39,310,41,19,73,182,41,21,78,047,46,27,23,050,40*6F
###2023-12-09 13:31:21.017254$GBGSV,2,1,05,24,64,044,49,25,50,275,46,26,17,070,45,33,47,218,46*6A
###2023-12-09 13:31:21.018738$GBGSV,2,2,05,35,16,058,45,,,,,,,,,,,,*53
###2023-12-09 13:31:21.020060$GNVTG,256.55,T,,M,2.29,N,4.25,K,A*28
###2023-12-09 13:31:21.021668$GNGST,183120.10,6.100,,,,0.130,0.080,0.200*60
###2023-12-09 13:31:21.022964$GNZDA,183120.10,09,12,2023,00,00*79
###2023-12-09 13:31:21.023600$GNEBP,,,,,,M*13
###2023-12-09 13:31:21.192770$GNGGA,183120.30,4138.0356409,N,07032.4186763,W,1,22,0.9,13.335,M,-29.746,M,0.0,*55
###2023-12-09 13:31:21.389406$GNGGA,183120.50,4138.0356089,N,07032.4188239,W,1,22,0.9,13.339,M,-29.746,M,0.0,*57
###2023-12-09 13:31:21.589385$GNGGA,183120.70,4138.0355814,N,07032.4189743,W,1,22,0.9,13.340,M,-29.746,M,0.0,*5D
###2023-12-09 13:31:21.789642$GNGGA,183120.90,4138.0355540,N,07032.4191203,W,1,22,0.9,13.340,M,-29.746,M,0.0,*57
###2023-12-09 13:31:21.990527$GNRMC,183121.10,A,4138.0355314,N,07032.4192670,W,1.94,260.45,091223,,,A*5B
###2023-12-09 13:31:21.993431$GNGGA,183121.10,4138.0355314,N,07032.4192670,W,1,22,0.9,13.336,M,-29.746,M,0.0,*5B
###2023-12-09 13:31:21.995244$GPGSA,A,3,03,04,16,26,28,29,31,,,,,,1.4,0.9,1.1*39
###2023-12-09 13:31:21.996965$GLGSA,A,3,65,72,73,74,75,83,,,,,,,1.4,0.9,1.1*2A
###2023-12-09 13:31:21.998555$GAGSA,A,3,04,19,21,27,,,,,,,,,1.4,0.9,1.1*25
###2023-12-09 13:31:22.000250$GBGSA,A,3,24,25,26,33,35,,,,,,,,1.4,0.9,1.1*2F
###2023-12-09 13:31:22.002587$GPGSV,2,1,07,03,27,247,35,04,45,308,44,16,65,221,45,26,86,041,48*75
###2023-12-09 13:31:22.004640$GPGSV,2,2,07,28,39,083,45,29,21,049,40,31,61,063,45,,,,*44
###2023-12-09 13:31:22.006984$GLGSV,2,1,06,65,37,320,42,72,64,223,46,73,23,051,42,74,61,011,43*62
###2023-12-09 13:31:22.008734$GLGSV,2,2,06,75,42,269,43,83,15,049,35,,,,,,,,*69
###2023-12-09 13:31:22.011066$GAGSV,1,1,04,04,39,310,42,19,73,182,41,21,78,047,46,27,23,050,39*62
###2023-12-09 13:31:22.013390$GBGSV,2,1,05,24,64,044,49,25,50,275,47,26,17,070,45,33,47,218,48*65
###2023-12-09 13:31:22.014841$GBGSV,2,2,05,35,16,058,44,,,,,,,,,,,,*52
###2023-12-09 13:31:22.016154$GNVTG,260.45,T,,M,1.94,N,3.60,K,A*2F
###2023-12-09 13:31:22.017762$GNGST,183121.10,6.600,,,,0.130,0.080,0.200*66
###2023-12-09 13:31:22.019056$GNZDA,183121.10,09,12,2023,00,00*78
###2023-12-09 13:31:22.019693$GNEBP,,,,,,M*13
###2023-12-09 13:31:22.189497$GNGGA,183121.30,4138.0355101,N,07032.4194094,W,1,21,0.9,13.334,M,-29.746,M,0.0,*54
###2023-12-09 13:31:22.390827$GNGGA,183121.50,4138.0354867,N,07032.4195470,W,1,22,0.9,13.330,M,-29.746,M,0.0,*52
###2023-12-09 13:31:22.588662$GNGGA,183121.70,4138.0354672,N,07032.4196851,W,1,20,0.9,13.323,M,-29.746,M,0.0,*56
###2023-12-09 13:31:22.788487$GNGGA,183121.90,4138.0354525,N,07032.4198175,W,1,20,0.9,13.318,M,-29.746,M,0.0,*50
###2023-12-09 13:31:22.990446$GNRMC,183122.10,A,4138.0354397,N,07032.4199468,W,1.73,263.43,091223,,,A*5E
###2023-12-09 13:31:22.993450$GNGGA,183122.10,4138.0354397,N,07032.4199468,W,1,20,0.9,13.315,M,-29.746,M,0.0,*51
###2023-12-09 13:31:22.995196$GPGSA,A,3,04,16,26,28,29,31,,,,,,,1.6,0.9,1.3*3A
###2023-12-09 13:31:22.996841$GLGSA,A,3,65,72,73,74,75,,,,,,,,1.6,0.9,1.3*21
###2023-12-09 13:31:22.998416$GAGSA,A,3,04,19,21,27,,,,,,,,,1.6,0.9,1.3*25
###2023-12-09 13:31:23.000079$GBGSA,A,3,24,25,26,33,35,,,,,,,,1.6,0.9,1.3*2F
###2023-12-09 13:31:23.002402$GPGSV,2,1,06,04,45,308,44,16,65,221,46,26,86,041,49,28,39,083,46*7E
###2023-12-09 13:31:23.004156$GPGSV,2,2,06,29,21,049,40,31,61,063,47,,,,,,,,*7D
###2023-12-09 13:31:23.006479$GLGSV,2,1,05,65,37,320,41,72,64,223,45,73,23,051,42,74,61,011,43*61
###2023-12-09 13:31:23.007942$GLGSV,2,2,05,75,42,269,42,,,,,,,,,,,,*5F
###2023-12-09 13:31:23.010261$GAGSV,1,1,04,04,39,310,41,19,73,182,41,21,78,047,46,27,23,050,39*61
###2023-12-09 13:31:23.012603$GBGSV,2,1,05,24,64,044,49,25,50,275,45,26,17,070,44,33,47,218,47*69
###2023-12-09 13:31:23.014057$GBGSV,2,2,05,35,16,058,42,,,,,,,,,,,,*54
###2023-12-09 13:31:23.015390$GNVTG,263.43,T,,M,1.73,N,3.20,K,A*27
###2023-12-09 13:31:23.016999$GNGST,183122.10,5.300,,,,0.130,0.081,0.210*63
###2023-12-09 13:31:23.018290$GNZDA,183122.10,09,12,2023,00,00*7B
###2023-12-09 13:31:23.018938$GNEBP,,,,,,M*13
###2023-12-09 13:31:23.190078$GNGGA,183122.30,4138.0354276,N,07032.4200728,W,1,20,0.9,13.313,M,-29.746,M,0.0,*5F
###2023-12-09 13:31:23.386839$GNGGA,183122.50,4138.0354176,N,07032.4201937,W,1,21,0.9,13.311,M,-29.746,M,0.0,*58
###2023-12-09 13:31:23.588579$GNGGA,183122.70,4138.0354094,N,07032.4203150,W,1,21,0.9,13.303,M,-29.746,M,0.0,*5F
###2023-12-09 13:31:23.789229$GNGGA,183122.90,4138.0354088,N,07032.4204322,W,1,22,0.8,13.308,M,-29.746,M,0.0,*55
###2023-12-09 13:31:23.989372$GNRMC,183123.10,A,4138.0354071,N,07032.4205460,W,1.56,266.98,091223,,,A*5E
###2023-12-09 13:31:23.992284$GNGGA,183123.10,4138.0354071,N,07032.4205460,W,1,21,0.9,13.313,M,-29.746,M,0.0,*52
###2023-12-09 13:31:23.994087$GPGSA,A,3,03,04,16,26,28,29,31,,,,,,1.4,0.9,1.1*39
###2023-12-09 13:31:23.995762$GLGSA,A,3,65,72,73,74,75,,,,,,,,1.4,0.9,1.1*21
###2023-12-09 13:31:23.997354$GAGSA,A,3,04,19,21,27,,,,,,,,,1.4,0.9,1.1*25
###2023-12-09 13:31:23.999022$GBGSA,A,3,24,25,26,33,35,,,,,,,,1.4,0.9,1.1*2F
###2023-12-09 13:31:24.001358$GPGSV,2,1,07,03,27,247,35,04,45,308,45,16,65,221,46,26,86,041,49*76
###2023-12-09 13:31:24.003424$GPGSV,2,2,07,28,39,083,45,29,21,049,42,31,61,063,47,,,,*44
###2023-12-09 13:31:24.005761$GLGSV,2,1,05,65,37,320,43,72,64,223,45,73,23,051,41,74,61,011,43*60
###2023-12-09 13:31:24.007470$GLGSV,2,2,05,75,42,269,41,,,,,,,,,,,,*5C
###2023-12-09 13:31:24.009810$GAGSV,1,1,04,04,39,310,42,19,73,182,41,21,78,047,47,27,23,050,39*63
###2023-12-09 13:31:24.012165$GBGSV,2,1,05,24,64,044,48,25,50,275,45,26,17,070,42,33,47,218,47*6E
###2023-12-09 13:31:24.013621$GBGSV,2,2,05,35,16,058,41,,,,,,,,,,,,*57
###2023-12-09 13:31:24.014957$GNVTG,266.98,T,,M,1.56,N,2.88,K,A*20
###2023-12-09 13:31:24.016575$GNGST,183123.10,5.900,,,,0.130,0.082,0.210*6B
###2023-12-09 13:31:24.017875$GNZDA,183123.10,09,12,2023,00,00*7A
###2023-12-09 13:31:24.018516$GNEBP,,,,,,M*13
