###2023-12-09 12:41:19.943806$GNGGA,174119.10,4138.0617297,N,07032.3724859,W,1,23,0.7,13.384,M,-29.744,M,0.0,*5C
###2023-12-09 12:41:19.945682$GPGSA,A,3,03,04,16,26,28,29,31,32,,,,,1.2,0.7,1.0*31
###2023-12-09 12:41:19.947366$GLGSA,A,3,71,72,73,74,75,,,,,,,,1.2,0.7,1.0*2D
###2023-12-09 12:41:19.948974$GAGSA,A,3,04,19,21,27,,,,,,,,,1.2,0.7,1.0*2C
###2023-12-09 12:41:19.950642$GBGSA,A,3,14,24,25,26,33,,,,,,,,1.2,0.7,1.0*25
###2023-12-09 12:41:19.952977$GPGSV,2,1,08,03,38,274,46,04,24,311,39,16,39,208,45,26,69,207,48*76
###2023-12-09 12:41:19.955322$GPGSV,2,2,08,28,56,059,45,29,25,071,40,31,73,010,47,32,28,135,44*73
###2023-12-09 12:41:19.957660$GLGSV,2,1,05,71,52,170,48,72,68,302,47,73,44,035,46,74,71,303,42*62
###2023-12-09 12:41:19.959136$GLGSV,2,2,05,75,25,244,43,,,,,,,,,,,,*50
###2023-12-09 12:41:19.961457$GAGSV,1,1,04,04,23,311,40,19,83,292,40,21,80,172,46,27,39,049,43*68
###2023-12-09 12:41:19.963806$GBGSV,2,1,05,14,52,196,47,24,79,359,49,25,34,255,47,26,33,058,42*66
###2023-12-09 12:41:19.965266$GBGSV,2,2,05,33,62,248,47,,,,,,,,,,,,*57
###2023-12-09 12:41:19.966559$GNVTG,25.05,T,,M,0.17,N,0.32,K,A*16
###2023-12-09 12:41:19.968231$GNGST,174119.10,18.000,,,,0.078,0.069,0.160*53
###2023-12-09 12:41:19.969527$GNZDA,174119.10,09,12,2023,00,00*7B
###2023-12-09 12:41:19.970169$GNEBP,,,,,,M*13
###2023-12-09 12:41:20.144133$GNGGA,174119.30,4138.0617484,N,07032.3724939,W,1,23,0.7,13.388,M,-29.744,M,0.0,*51
###2023-12-09 12:41:20.343628$GNGGA,174119.50,4138.0617793,N,07032.3725038,W,1,23,0.7,13.396,M,-29.744,M,0.0,*54
###2023-12-09 12:41:20.543677$GNGGA,174119.70,4138.0617922,N,07032.3725045,W,1,23,0.7,13.397,M,-29.744,M,0.0,*59
###2023-12-09 12:41:20.741223$GNGGA,174119.90,4138.0617898,N,07032.3725016,W,1,23,0.7,13.396,M,-29.744,M,0.0,*50
###2023-12-09 12:41:20.949662$GNRMC,174120.10,A,4138.0618003,N,07032.3725052,W,0.47,25.05,091223,,,A*68
###2023-12-09 12:41:20.952585$GNGGA,174120.10,4138.0618003,N,07032.3725052,W,1,23,0.7,13.405,M,-29.744,M,0.0,*5A
###2023-12-09 12:41:20.954449$GPGSA,A,3,03,04,16,26,28,29,31,32,,,,,1.2,0.7,1.0*31
###2023-12-09 12:41:20.956120$GLGSA,A,3,71,72,73,74,75,,,,,,,,1.2,0.7,1.0*2D
###2023-12-09 12:41:20.957706$GAGSA,A,3,04,19,21,27,,,,,,,,,1.2,0.7,1.0*2C
###2023-12-09 12:41:20.959366$GBGSA,A,3,14,24,25,26,33,,,,,,,,1.2,0.7,1.0*25
###2023-12-09 12:41:20.961691$GPGSV,2,1,08,03,38,274,46,04,24,311,41,16,39,208,46,26,69,207,48*7A
###2023-12-09 12:41:20.964033$GPGSV,2,2,08,28,56,059,44,29,25,071,40,31,73,010,47,32,28,135,43*75
###2023-12-09 12:41:20.966402$GLGSV,2,1,05,71,52,170,48,72,68,302,46,73,44,035,45,74,71,303,43*61
###2023-12-09 12:41:20.967878$GLGSV,2,2,05,75,25,244,45,,,,,,,,,,,,*56
###2023-12-09 12:41:20.970199$GAGSV,1,1,04,04,23,311,40,19,83,292,40,21,80,172,46,27,39,049,43*68
###2023-12-09 12:41:20.972543$GBGSV,2,1,05,14,52,196,47,24,79,359,49,25,34,255,46,26,33,058,45*60
###2023-12-09 12:41:20.973993$GBGSV,2,2,05,33,62,248,48,,,,,,,,,,,,*58
###2023-12-09 12:41:20.975300$GNVTG,25.05,T,,M,0.47,N,0.86,K,A*1C
###2023-12-09 12:41:20.976947$GNGST,174120.10,18.000,,,,0.078,0.069,0.160*59
###2023-12-09 12:41:20.978237$GNZDA,174120.10,09,12,2023,00,00*71
###2023-12-09 12:41:20.978886$GNEBP,,,,,,M*13
###2023-12-09 12:41:21.140860$GNGGA,174120.30,4138.0618352,N,07032.3725192,W,1,23,0.7,13.417,M,-29.744,M,0.0,*51
###2023-12-09 12:41:21.340346$GNGGA,174120.50,4138.0618627,N,07032.3725289,W,1,23,0.7,13.413,M,-29.744,M,0.0,*5D
###2023-12-09 12:41:21.541225$GNGGA,174120.70,4138.0618635,N,07032.3725280,W,1,23,0.7,13.418,M,-29.744,M,0.0,*5E
###2023-12-09 12:41:21.740118$GNGGA,174120.90,4138.0618670,N,07032.3725266,W,1,23,0.7,13.423,M,-29.744,M,0.0,*51
###2023-12-09 12:41:21.939706$GNRMC,174121.10,A,4138.0618953,N,07032.3725390,W,0.66,25.05,091223,,,A*6B
###2023-12-09 12:41:21.942584$GNGGA,174121.10,4138.0618953,N,07032.3725390,W,1,23,0.7,13.427,M,-29.744,M,0.0,*5A
###2023-12-09 12:41:21.944451$GPGSA,A,3,03,04,16,26,28,29,31,32,,,,,1.2,0.7,1.0*31
###2023-12-09 12:41:21.946110$GLGSA,A,3,71,72,73,74,75,,,,,,,,1.2,0.7,1.0*2D
###2023-12-09 12:41:21.947769$GAGSA,A,3,04,19,21,27,,,,,,,,,1.2,0.7,1.0*2C
###2023-12-09 12:41:21.949443$GBGSA,A,3,14,24,25,26,33,,,,,,,,1.2,0.7,1.0*25
###2023-12-09 12:41:21.951801$GPGSV,2,1,08,03,38,274,44,04,24,311,41,16,39,208,46,26,69,207,48*78
###2023-12-09 12:41:21.954144$GPGSV,2,2,08,28,56,059,45,29,25,071,41,31,73,010,47,32,28,135,43*75
###2023-12-09 12:41:21.956495$GLGSV,2,1,05,71,52,170,48,72,68,302,46,73,44,035,46,74,71,303,43*62
###2023-12-09 12:41:21.957959$GLGSV,2,2,05,75,25,244,43,,,,,,,,,,,,*50
###2023-12-09 12:41:21.960313$GAGSV,1,1,04,04,23,311,40,19,83,292,40,21,80,172,46,27,39,049,42*69
###2023-12-09 12:41:21.962670$GBGSV,2,1,05,14,52,196,47,24,79,359,48,25,34,255,46,26,33,058,44*60
###2023-12-09 12:41:21.964136$GBGSV,2,2,05,33,62,248,48,,,,,,,,,,,,*58
###2023-12-09 12:41:21.965426$GNVTG,25.05,T,,M,0.66,N,1.22,K,A*10
###2023-12-09 12:41:21.967093$GNGST,174121.10,18.000,,,,0.078,0.069,0.160*58
###2023-12-09 12:41:21.968394$GNZDA,174121.10,09,12,2023,00,00*70
###2023-12-09 12:41:21.969033$GNEBP,,,,,,M*13
###2023-12-09 12:41:22.140224$GNGGA,174121.30,4138.0619278,N,07032.3725526,W,1,23,0.7,13.426,M,-29.744,M,0.0,*51
###2023-12-09 12:41:22.340774$GNGGA,174121.50,4138.0619389,N,07032.3725544,W,1,23,0.7,13.428,M,-29.744,M,0.0,*52
###2023-12-09 12:41:22.541022$GNGGA,174121.70,4138.0619464,N,07032.3725560,W,1,23,0.7,13.446,M,-29.744,M,0.0,*5A
###2023-12-09 12:41:22.740104$GNGGA,174121.90,4138.0619719,N,07032.3725652,W,1,23,0.7,13.452,M,-29.744,M,0.0,*5A
###2023-12-09 12:41:22.941673$GNRMC,174122.10,A,4138.0619971,N,07032.3725742,W,0.25,25.05,091223,,,A*65
###2023-12-09 12:41:22.944574$GNGGA,174122.10,4138.0619971,N,07032.3725742,W,1,23,0.7,13.441,M,-29.744,M,0.0,*53
###2023-12-09 12:41:22.946448$GPGSA,A,3,03,04,16,26,28,29,31,32,,,,,1.2,0.7,1.0*31
###2023-12-09 12:41:22.948137$GLGSA,A,3,71,72,73,74,75,,,,,,,,1.2,0.7,1.0*2D
###2023-12-09 12:41:22.949735$GAGSA,A,3,04,19,21,27,,,,,,,,,1.2,0.7,1.0*2C
###2023-12-09 12:41:22.951414$GBGSA,A,3,14,24,25,26,33,,,,,,,,1.2,0.7,1.0*25
###2023-12-09 12:41:22.953754$GPGSV,2,1,08,03,38,274,45,04,24,311,42,16,39,208,45,26,69,207,49*78
###2023-12-09 12:41:22.956118$GPGSV,2,2,08,28,56,059,44,29,25,071,41,31,73,010,47,32,28,135,42*75
###2023-12-09 12:41:22.958459$GLGSV,2,1,05,71,52,170,48,72,68,302,46,73,44,035,45,74,71,303,43*61
###2023-12-09 12:41:22.959942$GLGSV,2,2,05,75,25,244,43,,,,,,,,,,,,*50
###2023-12-09 12:41:22.962285$GAGSV,1,1,04,04,23,311,40,19,83,292,41,21,80,172,46,27,39,049,42*68
###2023-12-09 12:41:22.964643$GBGSV,2,1,05,14,52,196,45,24,79,359,48,25,34,255,46,26,33,058,44*62
###2023-12-09 12:41:22.966106$GBGSV,2,2,05,33,62,248,47,,,,,,,,,,,,*57
###2023-12-09 12:41:22.967419$GNVTG,25.05,T,,M,0.25,N,0.47,K,A*15
###2023-12-09 12:41:22.969081$GNGST,174122.10,18.000,,,,0.078,0.069,0.160*5B
###2023-12-09 12:41:22.970381$GNZDA,174122.10,09,12,2023,00,00*73
###2023-12-09 12:41:22.971035$GNEBP,,,,,,M*13
###2023-12-09 12:41:23.139857$GNGGA,174122.30,4138.0620096,N,07032.3725736,W,1,23,0.7,13.432,M,-29.744,M,0.0,*5C
###2023-12-09 12:41:23.343465$GNGGA,174122.50,4138.0620226,N,07032.3725789,W,1,23,0.7,13.447,M,-29.744,M,0.0,*55
###2023-12-09 12:41:23.542111$GNGGA,174122.70,4138.0620506,N,07032.3725937,W,1,23,0.7,13.471,M,-29.744,M,0.0,*5C
###2023-12-09 12:41:23.739088$GNGGA,174122.90,4138.0620801,N,07032.3726061,W,1,23,0.7,13.483,M,-29.744,M,0.0,*5C
###2023-12-09 12:41:23.944530$GNRMC,174123.10,A,4138.0620857,N,07032.3726029,W,0.16,25.05,091223,,,A*62
###2023-12-09 12:41:23.947638$GNGGA,174123.10,4138.0620857,N,07032.3726029,W,1,23,0.7,13.468,M,-29.744,M,0.0,*5F
###2023-12-09 12:41:23.949806$GPGSA,A,3,03,04,16,26,28,29,31,32,,,,,1.2,0.7,1.0*31
###2023-12-09 12:41:23.951534$GLGSA,A,3,71,72,73,74,75,,,,,,,,1.2,0.7,1.0*2D
###2023-12-09 12:41:23.953139$GAGSA,A,3,04,19,21,27,,,,,,,,,1.2,0.7,1.0*2C
###2023-12-09 12:41:23.954807$GBGSA,A,3,14,24,25,26,33,,,,,,,,1.2,0.7,1.0*25
###2023-12-09 12:41:23.957141$GPGSV,2,1,08,03,38,274,44,04,24,311,42,16,39,208,45,26,69,207,48*78
###2023-12-09 12:41:23.959539$GPGSV,2,2,08,28,56,059,44,29,25,071,39,31,73,010,47,32,28,135,43*7B
###2023-12-09 12:41:23.961882$GLGSV,2,1,05,71,52,170,48,72,68,302,46,73,44,035,46,74,71,303,43*62
###2023-12-09 12:41:23.963620$GLGSV,2,2,05,75,25,244,44,,,,,,,,,,,,*57
###2023-12-09 12:41:23.965949$GAGSV,1,1,04,04,23,311,42,19,83,292,41,21,80,172,46,27,39,049,41*69
###2023-12-09 12:41:23.968296$GBGSV,2,1,05,14,52,196,46,24,79,359,48,25,34,255,46,26,33,058,44*61
###2023-12-09 12:41:23.969754$GBGSV,2,2,05,33,62,248,46,,,,,,,,,,,,*56
###2023-12-09 12:41:23.971060$GNVTG,25.05,T,,M,0.16,N,0.29,K,A*1D
###2023-12-09 12:41:23.972712$GNGST,174123.10,18.000,,,,0.078,0.069,0.160*5A
###2023-12-09 12:41:23.974000$GNZDA,174123.10,09,12,2023,00,00*72
###2023-12-09 12:41:23.974655$GNEBP,,,,,,M*13
