###2023-12-09 13:31:34.004622$GPGSV,2,2,06,29,21,048,42,31,60,064,47,,,,,,,,*78
###2023-12-09 13:31:34.006993$GLGSV,2,1,06,65,37,320,43,72,64,223,46,73,23,051,42,74,61,011,42*62
###2023-12-09 13:31:34.008746$GLGSV,2,2,06,75,42,269,43,83,15,049,35,,,,,,,,*69
###2023-12-09 13:31:34.011091$GAGSV,1,1,04,04,39,310,41,19,73,182,41,21,78,047,46,27,23,050,40*6F
###2023-12-09 13:31:34.013421$GBGSV,2,1,05,24,64,044,48,25,50,275,45,26,17,070,44,33,47,218,46*69
###2023-12-09 13:31:34.014878$GBGSV,2,2,05,35,16,058,44,,,,,,,,,,,,*52
###2023-12-09 13:31:34.016202$GNVTG,264.48,T,,M,0.99,N,1.84,K,A*22
###2023-12-09 13:31:34.017801$GNGST,183133.10,6.200,,,,0.150,0.092,0.220*66
###2023-12-09 13:31:34.019104$GNZDA,183133.10,09,12,2023,00,00*7B
###2023-12-09 13:31:34.019745$GNEBP,,,,,,M*13
###2023-12-09 13:31:34.187593$GNGGA,183133.30,4138.0355112,N,07032.4258316,W,1,21,0.9,13.196,M,-29.746,M,0.0,*55
###2023-12-09 13:31:34.388732$GNGGA,183133.50,4138.0355056,N,07032.4259069,W,1,21,0.9,13.201,M,-29.746,M,0.0,*55
###2023-12-09 13:31:34.588706$GNGGA,183133.70,4138.0354951,N,07032.4259801,W,1,21,0.8,13.203,M,-29.746,M,0.0,*5D
###2023-12-09 13:31:34.788775$GNGGA,183133.90,4138.0354864,N,07032.4260507,W,1,22,0.9,13.201,M,-29.746,M,0.0,*55
###2023-12-09 13:31:34.991292$GNRMC,183134.10,A,4138.0354789,N,07032.4261191,W,0.91,258.62,091223,,,A*53
###2023-12-09 13:31:34.994133$GNGGA,183134.10,4138.0354789,N,07032.4261191,W,1,23,0.7,13.205,M,-29.746,M,0.0,*57
###2023-12-09 13:31:34.995865$GPGSA,A,3,04,16,26,28,29,31,,,,,,,1.2,0.7,1.0*33
###2023-12-09 13:31:34.997635$GLGSA,A,3,65,71,72,73,74,75,83,,,,,,1.2,0.7,1.0*25
###2023-12-09 13:31:34.999233$GAGSA,A,3,04,19,21,27,,,,,,,,,1.2,0.7,1.0*2C
###2023-12-09 13:31:35.000947$GBGSA,A,3,14,24,25,26,33,35,,,,,,,1.2,0.7,1.0*23
###2023-12-09 13:31:35.003291$GPGSV,2,1,06,04,45,308,45,16,65,221,47,26,85,040,48,28,39,084,45*79
###2023-12-09 13:31:35.005043$GPGSV,2,2,06,29,21,048,41,31,60,064,46,,,,,,,,*7A
###2023-12-09 13:31:35.007385$GLGSV,2,1,07,65,37,320,42,71,24,175,37,72,64,223,45,73,23,051,43*65
###2023-12-09 13:31:35.009426$GLGSV,2,2,07,74,61,011,43,75,42,269,44,83,15,049,36,,,,*5F
###2023-12-09 13:31:35.011766$GAGSV,1,1,04,04,39,310,43,19,73,182,41,21,78,047,47,27,23,050,41*6D
###2023-12-09 13:31:35.014094$GBGSV,2,1,06,14,30,190,35,24,64,044,49,25,50,275,45,26,17,070,46*6B
###2023-12-09 13:31:35.015856$GBGSV,2,2,06,33,47,218,44,35,16,058,45,,,,,,,,*68
###2023-12-09 13:31:35.017180$GNVTG,258.62,T,,M,0.91,N,1.69,K,A*2E
###2023-12-09 13:31:35.018803$GNGST,183134.10,6.600,,,,0.150,0.093,0.230*65
###2023-12-09 13:31:35.020093$GNZDA,183134.10,09,12,2023,00,00*7C
###2023-12-09 13:31:35.020729$GNEBP,,,,,,M*13
###2023-12-09 13:31:35.188524$GNGGA,183134.30,4138.0354689,N,07032.4261892,W,1,23,0.7,13.210,M,-29.746,M,0.0,*5A
###2023-12-09 13:31:35.389498$GNGGA,183134.50,4138.0354615,N,07032.4262572,W,1,24,0.7,13.219,M,-29.746,M,0.0,*57
###2023-12-09 13:31:35.589001$GNGGA,183134.70,4138.0354552,N,07032.4263276,W,1,23,0.7,13.220,M,-29.746,M,0.0,*5A
###2023-12-09 13:31:35.790400$GNGGA,183134.90,4138.0354485,N,07032.4263944,W,1,22,0.7,13.233,M,-29.746,M,0.0,*56
###2023-12-09 13:31:35.992602$GNRMC,183135.10,A,4138.0354415,N,07032.4264601,W,0.93,258.62,091223,,,A*5D
###2023-12-09 13:31:35.995477$GNGGA,183135.10,4138.0354415,N,07032.4264601,W,1,22,0.7,13.238,M,-29.746,M,0.0,*54
###2023-12-09 13:31:35.997212$GPGSA,A,3,04,16,26,28,29,31,,,,,,,1.2,0.7,1.0*33
###2023-12-09 13:31:35.998938$GLGSA,A,3,65,72,73,74,75,83,,,,,,,1.2,0.7,1.0*23
###2023-12-09 13:31:36.000522$GAGSA,A,3,04,19,21,27,,,,,,,,,1.2,0.7,1.0*2C
###2023-12-09 13:31:36.002232$GBGSA,A,3,14,24,25,26,33,35,,,,,,,1.2,0.7,1.0*23
###2023-12-09 13:31:36.004578$GPGSV,2,1,06,04,45,308,45,16,65,221,44,26,85,040,48,28,39,084,45*7A
###2023-12-09 13:31:36.006327$GPGSV,2,2,06,29,21,048,41,31,60,064,46,,,,,,,,*7A
###2023-12-09 13:31:36.008658$GLGSV,2,1,06,65,37,320,41,72,64,223,46,73,23,051,41,74,61,011,42*63
###2023-12-09 13:31:36.010404$GLGSV,2,2,06,75,42,269,45,83,15,049,36,,,,,,,,*6C
###2023-12-09 13:31:36.012769$GAGSV,1,1,04,04,39,310,43,19,73,182,41,21,78,047,46,27,23,050,40*6D
###2023-12-09 13:31:36.015115$GBGSV,2,1,06,14,30,190,38,24,64,044,48,25,50,275,45,26,17,070,44*65
###2023-12-09 13:31:36.016863$GBGSV,2,2,06,33,47,218,39,35,16,058,45,,,,,,,,*62
###2023-12-09 13:31:36.018185$GNVTG,258.62,T,,M,0.93,N,1.73,K,A*27
###2023-12-09 13:31:36.019805$GNGST,183135.10,6.200,,,,0.150,0.093,0.230*60
###2023-12-09 13:31:36.021086$GNZDA,183135.10,09,12,2023,00,00*7D
###2023-12-09 13:31:36.021720$GNEBP,,,,,,M*13
###2023-12-09 13:31:36.191652$GNGGA,183135.30,4138.0354330,N,07032.4265224,W,1,22,0.7,13.240,M,-29.746,M,0.0,*5B
###2023-12-09 13:31:36.390336$GNGGA,183135.50,4138.0354191,N,07032.4265819,W,1,21,0.8,13.234,M,-29.746,M,0.0,*5F
###2023-12-09 13:31:36.591141$GNGGA,183135.70,4138.0354085,N,07032.4266449,W,1,21,0.8,13.244,M,-29.746,M,0.0,*54
###2023-12-09 13:31:36.791626$GNGGA,183135.90,4138.0354059,N,07032.4267121,W,1,21,0.8,13.252,M,-29.746,M,0.0,*56
###2023-12-09 13:31:36.990127$GNRMC,183136.10,A,4138.0354026,N,07032.4267759,W,0.80,258.62,091223,,,A*57
###2023-12-09 13:31:36.993048$GNGGA,183136.10,4138.0354026,N,07032.4267759,W,1,21,0.8,13.261,M,-29.746,M,0.0,*5C
###2023-12-09 13:31:36.994993$GPGSA,A,3,04,16,26,28,29,31,,,,,,,1.2,0.8,1.0*3C
###2023-12-09 13:31:36.996727$GLGSA,A,3,65,72,73,74,75,83,,,,,,,1.2,0.8,1.0*2C
###2023-12-09 13:31:36.998309$GAGSA,A,3,04,19,21,27,,,,,,,,,1.2,0.8,1.0*23
###2023-12-09 13:31:36.999967$GBGSA,A,3,14,24,25,26,35,,,,,,,,1.2,0.8,1.0*2C
###2023-12-09 13:31:37.002289$GPGSV,2,1,06,04,45,308,43,16,65,221,45,26,85,040,48,28,39,084,45*7D
###2023-12-09 13:31:37.004270$GPGSV,2,2,06,29,21,048,42,31,60,064,46,,,,,,,,*79
###2023-12-09 13:31:37.006669$GLGSV,2,1,06,65,37,320,42,72,64,223,45,73,23,051,42,74,61,011,43*61
###2023-12-09 13:31:37.008432$GLGSV,2,2,06,75,42,269,44,83,15,049,36,,,,,,,,*6D
###2023-12-09 13:31:37.010814$GAGSV,1,1,04,04,39,310,43,19,73,182,41,21,78,047,47,27,23,050,40*6C
###2023-12-09 13:31:37.013159$GBGSV,2,1,05,14,30,190,36,24,64,044,47,25,50,275,45,26,17,070,44*67
###2023-12-09 13:31:37.014647$GBGSV,2,2,05,35,16,058,44,,,,,,,,,,,,*52
###2023-12-09 13:31:37.015972$GNVTG,258.62,T,,M,0.80,N,1.48,K,A*2D
###2023-12-09 13:31:37.017585$GNGST,183136.10,6.200,,,,0.160,0.094,0.230*67
###2023-12-09 13:31:37.018906$GNZDA,183136.10,09,12,2023,00,00*7E
###2023-12-09 13:31:37.019551$GNEBP,,,,,,M*13
###2023-12-09 13:31:37.188997$GNGGA,183136.30,4138.0353916,N,07032.4268337,W,1,21,0.8,13.256,M,-29.746,M,0.0,*54
###2023-12-09 13:31:37.388535$GNGGA,183136.50,4138.0353771,N,07032.4268869,W,1,22,0.8,13.257,M,-29.746,M,0.0,*5F
###2023-12-09 13:31:37.588564$GNGGA,183136.70,4138.0353637,N,07032.4269429,W,1,21,0.9,13.256,M,-29.746,M,0.0,*54
###2023-12-09 13:31:37.787560$GNGGA,183136.90,4138.0353579,N,07032.4270035,W,1,21,0.9,13.264,M,-29.746,M,0.0,*53
###2023-12-09 13:31:37.991214$GNRMC,183137.10,A,4138.0353542,N,07032.4270664,W,0.78,258.62,091223,,,A*58
###2023-12-09 13:31:37.994106$GNGGA,183137.10,4138.0353542,N,07032.4270664,W,1,22,0.7,13.274,M,-29.746,M,0.0,*5C
###2023-12-09 13:31:37.995845$GPGSA,A,3,04,16,26,28,29,31,,,,,,,1.2,0.7,1.0*33
###2023-12-09 13:31:37.997551$GLGSA,A,3,65,72,73,74,75,83,,,,,,,1.2,0.7,1.0*23
###2023-12-09 13:31:37.999138$GAGSA,A,3,04,19,21,27,,,,,,,,,1.2,0.7,1.0*2C
###2023-12-09 13:31:38.000842$GBGSA,A,3,14,24,25,26,33,35,,,,,,,1.2,0.7,1.0*23
###2023-12-09 13:31:38.003171$GPGSV,2,1,06,04,45,308,43,16,65,221,46,26,85,040,48,28,39,084,43*78
###2023-12-09 13:31:38.004911$GPGSV,2,2,06,29,21,048,44,31,60,064,46,,,,,,,,*7F
###2023-12-09 13:31:38.007243$GLGSV,2,1,06,65,37,320,44,72,64,223,46,73,23,051,43,74,61,011,44*62
###2023-12-09 13:31:38.008980$GLGSV,2,2,06,75,42,269,46,83,15,049,37,,,,,,,,*6E
###2023-12-09 13:31:38.011294$GAGSV,1,1,04,04,39,310,43,19,73,182,41,21,78,047,47,27,23,050,41*6D
###2023-12-09 13:31:38.013605$GBGSV,2,1,06,14,30,190,36,24,64,044,48,25,50,275,46,26,17,070,44*68
###2023-12-09 13:31:38.015343$GBGSV,2,2,06,33,47,218,38,35,16,058,44,,,,,,,,*62
###2023-12-09 13:31:38.016655$GNVTG,258.62,T,,M,0.78,N,1.44,K,A*26
###2023-12-09 13:31:38.018257$GNGST,183137.10,5.700,,,,0.160,0.095,0.240*66
###2023-12-09 13:31:38.019791$GNZDA,183137.10,09,12,2023,00,00*7F
###2023-12-09 13:31:38.020441$GNEBP,,,,,,M*13
###2023-12-09 13:31:38.189079$GNGGA,183137.30,4138.0353447,N,07032.4271228,W,1,22,0.7,13.278,M,-29.746,M,0.0,*5B
###2023-12-09 13:31:38.388365$GNGGA,183137.50,4138.0353286,N,07032.4271738,W,1,22,0.8,13.280,M,-29.746,M,0.0,*5A
###2023-12-09 13:31:38.588150$GNGGA,183137.70,4138.0353128,N,07032.4272272,W,1,22,0.8,13.263,M,-29.746,M,0.0,*5A
###2023-12-09 13:31:38.789671$GNGGA,183137.90,4138.0353096,N,07032.4272786,W,1,22,0.8,13.285,M,-29.746,M,0.0,*56
###2023-12-09 13:31:38.993834$GNRMC,183138.10,A,4138.0353001,N,07032.4273326,W,0.68,258.62,091223,,,A*54
###2023-12-09 13:31:38.996729$GNGGA,183138.10,4138.0353001,N,07032.4273326,W,1,22,0.7,13.292,M,-29.746,M,0.0,*59
