###2023-12-09 12:49:05.983418$GNZDA,174905.10,09,12,2023,00,00*7E
###2023-12-09 12:49:05.984224$GNEBP,,,,,,M*13
###2023-12-09 12:49:06.147696$GNGGA,174905.30,4138.0606935,N,07032.3901806,W,1,24,0.6,13.433,M,-29.744,M,0.0,*56
###2023-12-09 12:49:06.348048$GNGGA,174905.50,4138.0607313,N,07032.3901815,W,1,24,0.6,13.430,M,-29.744,M,0.0,*5E
###2023-12-09 12:49:06.548076$GNGGA,174905.70,4138.0607764,N,07032.3901823,W,1,24,0.6,13.449,M,-29.744,M,0.0,*53
###2023-12-09 12:49:06.747909$GNGGA,174905.90,4138.0607963,N,07032.3901764,W,1,24,0.6,13.468,M,-29.744,M,0.0,*5B
###2023-12-09 12:49:06.947886$GNRMC,174906.10,A,4138.0607976,N,07032.3901656,W,0.06,25.48,091223,,,A*67
###2023-12-09 12:49:06.951379$GNGGA,174906.10,4138.0607976,N,07032.3901656,W,1,24,0.6,13.455,M,-29.744,M,0.0,*5A
###2023-12-09 12:49:06.953640$GPGSA,A,3,03,04,16,26,28,29,31,32,,,,,1.1,0.6,0.9*3B
###2023-12-09 12:49:06.955753$GLGSA,A,3,65,71,72,73,74,75,,,,,,,1.1,0.6,0.9*24
###2023-12-09 12:49:06.957676$GAGSA,A,3,04,19,21,27,,,,,,,,,1.1,0.6,0.9*26
###2023-12-09 12:49:06.959681$GBGSA,A,3,14,24,25,26,33,,,,,,,,1.1,0.6,0.9*2F
###2023-12-09 12:49:06.962494$GPGSV,2,1,08,03,37,269,46,04,27,311,41,16,43,209,46,26,73,208,49*73
###2023-12-09 12:49:06.965402$GPGSV,2,2,08,28,53,064,45,29,26,067,42,31,71,021,47,32,24,137,42*76
###2023-12-09 12:49:06.968287$GLGSV,2,1,06,65,18,329,40,71,48,171,48,72,71,291,47,73,41,038,46*65
###2023-12-09 12:49:06.970410$GLGSV,2,2,06,74,71,317,43,75,28,247,45,,,,,,,,*6C
###2023-12-09 12:49:06.973238$GAGSV,1,1,04,04,25,312,39,19,85,269,41,21,83,162,46,27,37,048,43*6D
###2023-12-09 12:49:06.976086$GBGSV,2,1,05,14,49,195,46,24,77,011,49,25,37,257,47,26,30,060,43*67
###2023-12-09 12:49:06.977845$GBGSV,2,2,05,33,61,241,48,,,,,,,,,,,,*52
###2023-12-09 12:49:06.979418$GNVTG,25.48,T,,M,0.06,N,0.11,K,A*1E
###2023-12-09 12:49:06.981416$GNGST,174906.10,18.000,,,,0.077,0.068,0.160*5B
###2023-12-09 12:49:06.982988$GNZDA,174906.10,09,12,2023,00,00*7D
###2023-12-09 12:49:06.983764$GNEBP,,,,,,M*13
###2023-12-09 12:49:07.146812$GNGGA,174906.30,4138.0608131,N,07032.3901647,W,1,24,0.6,13.420,M,-29.744,M,0.0,*5E
###2023-12-09 12:49:07.347606$GNGGA,174906.50,4138.0608598,N,07032.3901668,W,1,24,0.6,13.413,M,-29.744,M,0.0,*52
###2023-12-09 12:49:07.547629$GNGGA,174906.70,4138.0609104,N,07032.3901706,W,1,24,0.6,13.414,M,-29.744,M,0.0,*5E
###2023-12-09 12:49:07.754246$GNGGA,174906.90,4138.0609194,N,07032.3901646,W,1,24,0.6,13.440,M,-29.744,M,0.0,*5D
###2023-12-09 12:49:07.948166$GNRMC,174907.10,A,4138.0609138,N,07032.3901539,W,0.06,355.85,091223,,,A*55
###2023-12-09 12:49:07.951071$GNGGA,174907.10,4138.0609138,N,07032.3901539,W,1,24,0.6,13.443,M,-29.744,M,0.0,*5A
###2023-12-09 12:49:07.952945$GPGSA,A,3,03,04,16,26,28,29,31,32,,,,,1.1,0.6,0.9*3B
###2023-12-09 12:49:07.954682$GLGSA,A,3,65,71,72,73,74,75,,,,,,,1.1,0.6,0.9*24
###2023-12-09 12:49:07.956271$GAGSA,A,3,04,19,21,27,,,,,,,,,1.1,0.6,0.9*26
###2023-12-09 12:49:07.957928$GBGSA,A,3,14,24,25,26,33,,,,,,,,1.1,0.6,0.9*2F
###2023-12-09 12:49:07.960283$GPGSV,2,1,08,03,37,269,46,04,27,311,42,16,43,209,46,26,73,208,48*71
###2023-12-09 12:49:07.962650$GPGSV,2,2,08,28,53,064,44,29,26,067,43,31,71,021,47,32,24,137,42*76
###2023-12-09 12:49:07.964997$GLGSV,2,1,06,65,18,329,42,71,48,171,49,72,71,291,47,73,41,038,45*65
###2023-12-09 12:49:07.966762$GLGSV,2,2,06,74,71,317,43,75,28,247,44,,,,,,,,*6D
###2023-12-09 12:49:07.969094$GAGSV,1,1,04,04,25,312,40,19,85,269,41,21,83,162,46,27,37,048,43*63
###2023-12-09 12:49:07.971441$GBGSV,2,1,05,14,49,195,46,24,77,011,48,25,37,257,47,26,30,060,43*66
###2023-12-09 12:49:07.972906$GBGSV,2,2,05,33,61,241,47,,,,,,,,,,,,*5D
###2023-12-09 12:49:07.974230$GNVTG,355.85,T,,M,0.06,N,0.11,K,A*2B
###2023-12-09 12:49:07.975902$GNGST,174907.10,18.000,,,,0.078,0.068,0.160*55
###2023-12-09 12:49:07.977199$GNZDA,174907.10,09,12,2023,00,00*7C
###2023-12-09 12:49:07.977839$GNEBP,,,,,,M*13
###2023-12-09 12:49:08.147044$GNGGA,174907.30,4138.0609374,N,07032.3901570,W,1,24,0.6,13.425,M,-29.744,M,0.0,*5F
###2023-12-09 12:49:08.349352$GNGGA,174907.50,4138.0609911,N,07032.3901639,W,1,24,0.6,13.406,M,-29.744,M,0.0,*5F
###2023-12-09 12:49:08.549052$GNGGA,174907.70,4138.0610350,N,07032.3901666,W,1,24,0.6,13.389,M,-29.744,M,0.0,*50
###2023-12-09 12:49:08.750416$GNGGA,174907.90,4138.0610363,N,07032.3901558,W,1,24,0.6,13.406,M,-29.744,M,0.0,*50
###2023-12-09 12:49:08.961230$GNRMC,174908.10,A,4138.0610329,N,07032.3901434,W,0.17,354.16,091223,,,A*57
###2023-12-09 12:49:08.964720$GNGGA,174908.10,4138.0610329,N,07032.3901434,W,1,24,0.6,13.413,M,-29.744,M,0.0,*56
###2023-12-09 12:49:08.966981$GPGSA,A,3,03,04,16,26,28,29,31,32,,,,,1.1,0.6,0.9*3B
###2023-12-09 12:49:08.969091$GLGSA,A,3,65,71,72,73,74,75,,,,,,,1.1,0.6,0.9*24
###2023-12-09 12:49:08.971019$GAGSA,A,3,04,19,21,27,,,,,,,,,1.1,0.6,0.9*26
###2023-12-09 12:49:08.973005$GBGSA,A,3,14,24,25,26,33,,,,,,,,1.1,0.6,0.9*2F
###2023-12-09 12:49:08.975836$GPGSV,2,1,08,03,37,269,46,04,27,311,41,16,43,209,46,26,73,208,48*72
###2023-12-09 12:49:08.978739$GPGSV,2,2,08,28,53,064,44,29,26,067,40,31,71,021,47,32,24,137,43*74
###2023-12-09 12:49:08.981594$GLGSV,2,1,06,65,18,329,42,71,48,171,49,72,71,291,46,73,41,038,46*67
###2023-12-09 12:49:08.983728$GLGSV,2,2,06,74,71,317,43,75,28,247,44,,,,,,,,*6D
###2023-12-09 12:49:08.986551$GAGSV,1,1,04,04,25,312,40,19,85,269,41,21,83,162,46,27,37,048,43*63
###2023-12-09 12:49:08.989375$GBGSV,2,1,05,14,49,195,46,24,77,011,48,25,37,257,47,26,30,060,43*66
###2023-12-09 12:49:08.991142$GBGSV,2,2,05,33,61,241,48,,,,,,,,,,,,*52
###2023-12-09 12:49:08.992740$GNVTG,354.16,T,,M,0.17,N,0.32,K,A*21
###2023-12-09 12:49:08.994752$GNGST,174908.10,18.000,,,,0.077,0.067,0.160*5A
###2023-12-09 12:49:08.996327$GNZDA,174908.10,09,12,2023,00,00*73
###2023-12-09 12:49:08.997099$GNEBP,,,,,,M*13
###2023-12-09 12:49:09.149870$GNGGA,174908.30,4138.0610619,N,07032.3901438,W,1,24,0.6,13.415,M,-29.744,M,0.0,*58
###2023-12-09 12:49:09.348111$GNGGA,174908.50,4138.0611124,N,07032.3901525,W,1,24,0.6,13.404,M,-29.744,M,0.0,*5B
###2023-12-09 12:49:09.548621$GNGGA,174908.70,4138.0611458,N,07032.3901548,W,1,24,0.6,13.402,M,-29.744,M,0.0,*5A
###2023-12-09 12:49:09.748362$GNGGA,174908.90,4138.0611471,N,07032.3901410,W,1,24,0.6,13.411,M,-29.744,M,0.0,*51
###2023-12-09 12:49:09.951017$GNRMC,174909.10,A,4138.0611526,N,07032.3901326,W,0.33,354.16,091223,,,A*5C
###2023-12-09 12:49:09.953898$GNGGA,174909.10,4138.0611526,N,07032.3901326,W,1,24,0.6,13.409,M,-29.744,M,0.0,*50
###2023-12-09 12:49:09.955781$GPGSA,A,3,03,04,16,26,28,29,31,32,,,,,1.1,0.6,0.9*3B
###2023-12-09 12:49:09.957497$GLGSA,A,3,65,71,72,73,74,75,,,,,,,1.1,0.6,0.9*24
###2023-12-09 12:49:09.959096$GAGSA,A,3,04,19,21,27,,,,,,,,,1.1,0.6,0.9*26
###2023-12-09 12:49:09.960745$GBGSA,A,3,14,24,25,26,33,,,,,,,,1.1,0.6,0.9*2F
###2023-12-09 12:49:09.963080$GPGSV,2,1,08,03,37,269,45,04,27,311,41,16,43,209,47,26,73,208,48*70
###2023-12-09 12:49:09.965407$GPGSV,2,2,08,28,53,064,44,29,26,067,41,31,71,021,47,32,24,137,43*75
###2023-12-09 12:49:09.967747$GLGSV,2,1,06,65,18,329,41,71,48,171,49,72,71,291,47,73,41,038,46*65
###2023-12-09 12:49:09.969493$GLGSV,2,2,06,74,71,317,43,75,28,247,44,,,,,,,,*6D
###2023-12-09 12:49:09.971832$GAGSV,1,1,04,04,25,312,41,19,85,269,40,21,83,162,46,27,37,048,43*63
###2023-12-09 12:49:09.974158$GBGSV,2,1,05,14,49,195,46,24,77,011,48,25,37,257,47,26,30,060,43*66
###2023-12-09 12:49:09.975624$GBGSV,2,2,05,33,61,241,47,,,,,,,,,,,,*5D
###2023-12-09 12:49:09.976942$GNVTG,354.16,T,,M,0.33,N,0.61,K,A*21
###2023-12-09 12:49:09.978600$GNGST,174909.10,18.000,,,,0.077,0.067,0.160*5B
###2023-12-09 12:49:09.979893$GNZDA,174909.10,09,12,2023,00,00*72
###2023-12-09 12:49:09.980531$GNEBP,,,,,,M*13
###2023-12-09 12:49:10.144577$GNGGA,174909.30,4138.0611859,N,07032.3901394,W,1,24,0.6,13.402,M,-29.744,M,0.0,*55
###2023-12-09 12:49:10.345304$GNGGA,174909.50,4138.0612342,N,07032.3901501,W,1,24,0.6,13.407,M,-29.744,M,0.0,*5E
###2023-12-09 12:49:10.546423$GNGGA,174909.70,4138.0612640,N,07032.3901507,W,1,24,0.6,13.419,M,-29.744,M,0.0,*52
###2023-12-09 12:49:10.745402$GNGGA,174909.90,4138.0612680,N,07032.3901389,W,1,24,0.6,13.429,M,-29.744,M,0.0,*53
###2023-12-09 12:49:10.946214$GNRMC,174910.10,A,4138.0612753,N,07032.3901336,W,0.31,354.16,091223,,,A*54
###2023-12-09 12:49:10.949379$GNGGA,174910.10,4138.0612753,N,07032.3901336,W,1,24,0.6,13.418,M,-29.744,M,0.0,*5A
###2023-12-09 12:49:10.951276$GPGSA,A,3,03,04,16,26,28,29,31,32,,,,,1.1,0.6,0.9*3B
###2023-12-09 12:49:10.953050$GLGSA,A,3,65,71,72,73,74,75,,,,,,,1.1,0.6,0.9*24
###2023-12-09 12:49:10.954663$GAGSA,A,3,04,19,21,27,,,,,,,,,1.1,0.6,0.9*26
###2023-12-09 12:49:10.956317$GBGSA,A,3,14,24,25,26,33,,,,,,,,1.1,0.6,0.9*2F
###2023-12-09 12:49:10.958677$GPGSV,2,1,08,03,37,269,46,04,27,311,41,16,43,209,47,26,73,208,48*73
###2023-12-09 12:49:10.961019$GPGSV,2,2,08,28,53,064,44,29,26,067,42,31,71,021,46,32,24,137,43*77
###2023-12-09 12:49:10.963379$GLGSV,2,1,06,65,18,329,41,71,48,171,49,72,71,291,46,73,41,038,45*67
###2023-12-09 12:49:10.965134$GLGSV,2,2,06,74,71,317,42,75,28,247,44,,,,,,,,*6C
