###2023-12-09 13:25:41.788862$GNGGA,182540.90,4138.0351153,N,07032.3430585,W,1,24,0.6,13.218,M,-29.744,M,0.0,*51
###2023-12-09 13:25:41.991563$GNRMC,182541.10,A,4138.0352607,N,07032.3432161,W,3.38,320.07,091223,,,A*50
###2023-12-09 13:25:41.994420$GNGGA,182541.10,4138.0352607,N,07032.3432161,W,1,24,0.6,13.227,M,-29.744,M,0.0,*5D
###2023-12-09 13:25:41.996216$GPGSA,A,3,03,04,16,26,28,29,31,,,,,,1.1,0.6,0.9*3A
###2023-12-09 13:25:41.997924$GLGSA,A,3,65,71,72,73,74,75,,,,,,,1.1,0.6,0.9*24
###2023-12-09 13:25:41.999511$GAGSA,A,3,04,19,21,27,,,,,,,,,1.1,0.6,0.9*26
###2023-12-09 13:25:42.001213$GBGSA,A,3,14,24,25,26,33,35,,,,,,,1.1,0.6,0.9*29
###2023-12-09 13:25:42.003531$GPGSV,2,1,07,03,29,250,42,04,43,309,40,16,62,219,45,26,88,044,48*79
###2023-12-09 13:25:42.005559$GPGSV,2,2,07,28,41,081,44,29,22,050,43,31,62,060,47,,,,*42
###2023-12-09 13:25:42.007883$GLGSV,2,1,06,65,34,322,40,71,27,175,45,72,67,229,47,73,26,049,44*61
###2023-12-09 13:25:42.009623$GLGSV,2,2,06,74,63,006,42,75,40,266,47,,,,,,,,*62
###2023-12-09 13:25:42.011944$GAGSV,1,1,04,04,37,311,41,19,76,185,40,21,80,051,46,27,26,049,41*6F
###2023-12-09 13:25:42.014263$GBGSV,2,1,06,14,33,190,42,24,66,041,48,25,48,272,46,26,19,068,42*60
###2023-12-09 13:25:42.016016$GBGSV,2,2,06,33,49,220,46,35,16,060,43,,,,,,,,*62
###2023-12-09 13:25:42.017342$GNVTG,320.07,T,,M,3.38,N,6.26,K,A*2F
###2023-12-09 13:25:42.018998$GNGST,182541.10,18.000,,,,0.100,0.070,0.160*55
###2023-12-09 13:25:42.020285$GNZDA,182541.10,09,12,2023,00,00*7B
###2023-12-09 13:25:42.020921$GNEBP,,,,,,M*13
###2023-12-09 13:25:42.188851$GNGGA,182541.30,4138.0354062,N,07032.3433740,W,1,24,0.6,13.223,M,-29.744,M,0.0,*5C
###2023-12-09 13:25:42.386916$GNGGA,182541.50,4138.0355548,N,07032.3435222,W,1,24,0.6,13.228,M,-29.744,M,0.0,*5A
###2023-12-09 13:25:42.587549$GNGGA,182541.70,4138.0357060,N,07032.3436604,W,1,24,0.6,13.231,M,-29.744,M,0.0,*5E
###2023-12-09 13:25:42.788973$GNGGA,182541.90,4138.0358650,N,07032.3437855,W,1,24,0.6,13.222,M,-29.744,M,0.0,*53
###2023-12-09 13:25:42.992619$GNRMC,182542.10,A,4138.0360312,N,07032.3438973,W,3.23,334.18,091223,,,A*53
###2023-12-09 13:25:42.995503$GNGGA,182542.10,4138.0360312,N,07032.3438973,W,1,24,0.6,13.215,M,-29.744,M,0.0,*5E
###2023-12-09 13:25:42.997294$GPGSA,A,3,03,04,16,26,28,29,31,,,,,,1.1,0.6,0.9*3A
###2023-12-09 13:25:42.999011$GLGSA,A,3,65,71,72,73,74,75,,,,,,,1.1,0.6,0.9*24
###2023-12-09 13:25:43.000585$GAGSA,A,3,04,19,21,27,,,,,,,,,1.1,0.6,0.9*26
###2023-12-09 13:25:43.002288$GBGSA,A,3,14,24,25,26,33,35,,,,,,,1.1,0.6,0.9*29
###2023-12-09 13:25:43.004623$GPGSV,2,1,07,03,29,250,43,04,43,309,44,16,62,219,46,26,88,044,48*7F
###2023-12-09 13:25:43.006673$GPGSV,2,2,07,28,41,081,44,29,22,050,42,31,62,060,46,,,,*42
###2023-12-09 13:25:43.008998$GLGSV,2,1,06,65,34,322,39,71,27,175,46,72,67,229,47,73,26,049,43*6B
###2023-12-09 13:25:43.010748$GLGSV,2,2,06,74,63,006,42,75,40,266,45,,,,,,,,*60
###2023-12-09 13:25:43.013067$GAGSV,1,1,04,04,37,311,42,19,76,185,41,21,80,051,46,27,26,049,41*6D
###2023-12-09 13:25:43.015398$GBGSV,2,1,06,14,33,190,41,24,66,041,49,25,48,272,46,26,19,068,43*63
###2023-12-09 13:25:43.017144$GBGSV,2,2,06,33,49,220,49,35,16,060,42,,,,,,,,*6C
###2023-12-09 13:25:43.018470$GNVTG,334.18,T,,M,3.23,N,5.98,K,A*28
###2023-12-09 13:25:43.020132$GNGST,182542.10,18.000,,,,0.100,0.070,0.160*56
###2023-12-09 13:25:43.021433$GNZDA,182542.10,09,12,2023,00,00*78
###2023-12-09 13:25:43.022068$GNEBP,,,,,,M*13
###2023-12-09 13:25:43.188316$GNGGA,182542.30,4138.0362015,N,07032.3439961,W,1,24,0.6,13.229,M,-29.744,M,0.0,*57
###2023-12-09 13:25:43.388124$GNGGA,182542.50,4138.0363806,N,07032.3440887,W,1,24,0.6,13.219,M,-29.744,M,0.0,*5E
###2023-12-09 13:25:43.588134$GNGGA,182542.70,4138.0365623,N,07032.3441559,W,1,24,0.6,13.231,M,-29.744,M,0.0,*56
###2023-12-09 13:25:43.788917$GNGGA,182542.90,4138.0367482,N,07032.3442361,W,1,24,0.6,13.239,M,-29.744,M,0.0,*55
###2023-12-09 13:25:43.992617$GNRMC,182543.10,A,4138.0369390,N,07032.3443135,W,3.58,341.85,091223,,,A*5D
###2023-12-09 13:25:43.995473$GNGGA,182543.10,4138.0369390,N,07032.3443135,W,1,24,0.6,13.227,M,-29.744,M,0.0,*5B
###2023-12-09 13:25:43.997257$GPGSA,A,3,03,04,16,26,28,29,31,,,,,,1.1,0.6,0.9*3A
###2023-12-09 13:25:43.998979$GLGSA,A,3,65,71,72,73,74,75,,,,,,,1.1,0.6,0.9*24
###2023-12-09 13:25:44.000560$GAGSA,A,3,04,19,21,27,,,,,,,,,1.1,0.6,0.9*26
###2023-12-09 13:25:44.002262$GBGSA,A,3,14,24,25,26,33,35,,,,,,,1.1,0.6,0.9*29
###2023-12-09 13:25:44.004601$GPGSV,2,1,07,03,29,250,43,04,43,309,44,16,62,219,46,26,88,044,48*7F
###2023-12-09 13:25:44.006646$GPGSV,2,2,07,28,41,081,45,29,22,050,42,31,62,060,46,,,,*43
###2023-12-09 13:25:44.008969$GLGSV,2,1,06,65,34,322,40,71,27,175,46,72,67,229,47,73,26,049,42*64
###2023-12-09 13:25:44.010718$GLGSV,2,2,06,74,63,006,42,75,40,266,46,,,,,,,,*63
###2023-12-09 13:25:44.013026$GAGSV,1,1,04,04,37,311,43,19,76,185,41,21,80,051,46,27,26,049,40*6D
###2023-12-09 13:25:44.015354$GBGSV,2,1,06,14,33,190,42,24,66,041,48,25,48,272,46,26,19,068,42*60
###2023-12-09 13:25:44.017089$GBGSV,2,2,06,33,49,220,48,35,16,060,42,,,,,,,,*6D
###2023-12-09 13:25:44.018404$GNVTG,341.85,T,,M,3.58,N,6.62,K,A*24
###2023-12-09 13:25:44.020094$GNGST,182543.10,18.000,,,,0.100,0.070,0.160*57
###2023-12-09 13:25:44.021389$GNZDA,182543.10,09,12,2023,00,00*79
###2023-12-09 13:25:44.022035$GNEBP,,,,,,M*13
###2023-12-09 13:25:44.187794$GNGGA,182543.30,4138.0371274,N,07032.3443870,W,1,24,0.6,13.219,M,-29.744,M,0.0,*5E
###2023-12-09 13:25:44.390416$GNGGA,182543.50,4138.0373217,N,07032.3444429,W,1,24,0.6,13.234,M,-29.744,M,0.0,*57
###2023-12-09 13:25:44.588448$GNGGA,182543.70,4138.0375155,N,07032.3445092,W,1,24,0.6,13.221,M,-29.744,M,0.0,*57
###2023-12-09 13:25:44.789159$GNGGA,182543.90,4138.0377003,N,07032.3445893,W,1,24,0.6,13.211,M,-29.744,M,0.0,*53
###2023-12-09 13:25:45.004354$GNRMC,182544.10,A,4138.0378872,N,07032.3446598,W,3.62,344.94,091223,,,A*57
###2023-12-09 13:25:45.007218$GNGGA,182544.10,4138.0378872,N,07032.3446598,W,1,24,0.6,13.214,M,-29.744,M,0.0,*5D
###2023-12-09 13:25:45.009010$GPGSA,A,3,03,04,16,26,28,29,31,,,,,,1.1,0.6,0.9*3A
###2023-12-09 13:25:45.010733$GLGSA,A,3,65,71,72,73,74,75,,,,,,,1.1,0.6,0.9*24
###2023-12-09 13:25:45.012307$GAGSA,A,3,04,19,21,27,,,,,,,,,1.1,0.6,0.9*26
###2023-12-09 13:25:45.014014$GBGSA,A,3,14,24,25,26,33,35,,,,,,,1.1,0.6,0.9*29
###2023-12-09 13:25:45.016352$GPGSV,2,1,07,03,29,250,43,04,43,309,44,16,62,219,46,26,88,044,48*7F
###2023-12-09 13:25:45.018394$GPGSV,2,2,07,28,41,081,44,29,22,050,42,31,62,060,46,,,,*42
###2023-12-09 13:25:45.020732$GLGSV,2,1,06,65,34,322,40,71,27,175,46,72,67,229,47,73,26,049,43*65
###2023-12-09 13:25:45.022473$GLGSV,2,2,06,74,63,006,42,75,40,266,46,,,,,,,,*63
###2023-12-09 13:25:45.024813$GAGSV,1,1,04,04,37,311,42,19,76,185,41,21,80,051,46,27,26,049,41*6D
###2023-12-09 13:25:45.027159$GBGSV,2,1,06,14,33,190,42,24,66,041,48,25,48,272,47,26,19,068,43*60
###2023-12-09 13:25:45.028905$GBGSV,2,2,06,33,49,220,49,35,16,060,42,,,,,,,,*6C
###2023-12-09 13:25:45.030228$GNVTG,344.94,T,,M,3.62,N,6.70,K,A*2B
###2023-12-09 13:25:45.031886$GNGST,182544.10,18.000,,,,0.099,0.070,0.160*51
###2023-12-09 13:25:45.033176$GNZDA,182544.10,09,12,2023,00,00*7E
###2023-12-09 13:25:45.033814$GNEBP,,,,,,M*13
###2023-12-09 13:25:45.191922$GNGGA,182544.30,4138.0380810,N,07032.3447295,W,1,24,0.6,13.214,M,-29.744,M,0.0,*57
###2023-12-09 13:25:45.387974$GNGGA,182544.50,4138.0382688,N,07032.3448081,W,1,24,0.6,13.209,M,-29.744,M,0.0,*58
###2023-12-09 13:25:45.588779$GNGGA,182544.70,4138.0384572,N,07032.3448938,W,1,24,0.6,13.210,M,-29.744,M,0.0,*59
###2023-12-09 13:25:45.788796$GNGGA,182544.90,4138.0386513,N,07032.3449782,W,1,24,0.6,13.199,M,-29.744,M,0.0,*5E
###2023-12-09 13:25:45.991547$GNRMC,182545.10,A,4138.0388457,N,07032.3450513,W,3.63,344.75,091223,,,A*58
###2023-12-09 13:25:45.994401$GNGGA,182545.10,4138.0388457,N,07032.3450513,W,1,24,0.6,13.184,M,-29.744,M,0.0,*56
###2023-12-09 13:25:45.996199$GPGSA,A,3,03,04,16,26,28,29,31,,,,,,1.1,0.6,0.9*3A
###2023-12-09 13:25:45.997902$GLGSA,A,3,65,71,72,73,74,75,,,,,,,1.1,0.6,0.9*24
###2023-12-09 13:25:45.999493$GAGSA,A,3,04,19,21,27,,,,,,,,,1.1,0.6,0.9*26
###2023-12-09 13:25:46.001198$GBGSA,A,3,14,24,25,26,33,35,,,,,,,1.1,0.6,0.9*29
###2023-12-09 13:25:46.003822$GPGSV,2,1,07,03,29,250,43,04,43,309,44,16,62,219,46,26,88,044,48*7F
###2023-12-09 13:25:46.005875$GPGSV,2,2,07,28,41,081,45,29,22,050,42,31,62,060,46,,,,*43
###2023-12-09 13:25:46.008216$GLGSV,2,1,06,65,34,322,40,71,27,175,45,72,67,229,47,73,26,049,43*66
###2023-12-09 13:25:46.009963$GLGSV,2,2,06,74,63,006,42,75,40,266,47,,,,,,,,*62
###2023-12-09 13:25:46.012291$GAGSV,1,1,04,04,37,311,42,19,76,185,41,21,80,051,46,27,26,049,40*6C
###2023-12-09 13:25:46.014625$GBGSV,2,1,06,14,33,190,44,24,66,041,49,25,48,272,47,26,19,068,44*60
###2023-12-09 13:25:46.016367$GBGSV,2,2,06,33,49,220,48,35,16,060,43,,,,,,,,*6C
###2023-12-09 13:25:46.017690$GNVTG,344.75,T,,M,3.63,N,6.73,K,A*26
###2023-12-09 13:25:46.019346$GNGST,182545.10,18.000,,,,0.099,0.070,0.160*50
