###2023-12-09 12:32:33.729514$GNGGA,173232.90,4138.0445787,N,07032.4282906,W,1,23,0.7,12.940,M,-29.745,M,0.0,*5F
###2023-12-09 12:32:33.929552$GNRMC,173233.10,A,4138.0445770,N,07032.4282907,W,0.17,316.77,091223,,,A*52
###2023-12-09 12:32:33.932469$GNGGA,173233.10,4138.0445770,N,07032.4282907,W,1,23,0.7,12.952,M,-29.745,M,0.0,*5C
###2023-12-09 12:32:33.934357$GPGSA,A,3,03,04,16,26,28,29,31,32,,,,,1.2,0.7,0.9*39
###2023-12-09 12:32:33.936055$GLGSA,A,3,71,72,73,74,75,,,,,,,,1.2,0.7,0.9*25
###2023-12-09 12:32:33.937666$GAGSA,A,3,04,19,21,27,,,,,,,,,1.2,0.7,0.9*24
###2023-12-09 12:32:33.939355$GBGSA,A,3,14,24,25,26,33,,,,,,,,1.2,0.7,0.9*2D
###2023-12-09 12:32:33.941704$GPGSV,2,1,08,03,39,278,46,04,21,310,43,16,35,207,43,26,65,206,48*7A
###2023-12-09 12:32:33.944076$GPGSV,2,2,08,28,59,054,44,29,25,075,40,31,73,356,46,32,31,133,46*78
###2023-12-09 12:32:33.946433$GLGSV,2,1,05,71,58,169,47,72,65,311,47,73,49,033,47,74,71,287,43*66
###2023-12-09 12:32:33.947948$GLGSV,2,2,05,75,21,240,36,,,,,,,,,,,,*52
###2023-12-09 12:32:33.950305$GAGSV,1,1,04,04,20,311,43,19,80,306,41,21,76,177,47,27,42,050,42*6E
###2023-12-09 12:32:33.952679$GBGSV,2,1,05,14,56,198,43,24,81,339,48,25,32,252,46,26,36,057,45*65
###2023-12-09 12:32:33.954156$GBGSV,2,2,05,33,63,257,47,,,,,,,,,,,,*58
###2023-12-09 12:32:33.955517$GNVTG,316.77,T,,M,0.17,N,0.32,K,A*20
###2023-12-09 12:32:33.957182$GNGST,173233.10,17.000,,,,0.150,0.140,0.230*57
###2023-12-09 12:32:33.958490$GNZDA,173233.10,09,12,2023,00,00*77
###2023-12-09 12:32:33.959165$GNEBP,,,,,,M*13
###2023-12-09 12:32:34.129487$GNGGA,173233.30,4138.0445871,N,07032.4283070,W,1,23,0.7,12.956,M,-29.745,M,0.0,*5C
###2023-12-09 12:32:34.330801$GNGGA,173233.50,4138.0445970,N,07032.4283237,W,1,23,0.7,12.951,M,-29.745,M,0.0,*5C
###2023-12-09 12:32:34.529690$GNGGA,173233.70,4138.0445997,N,07032.4283309,W,1,23,0.7,12.952,M,-29.745,M,0.0,*58
###2023-12-09 12:32:34.728968$GNGGA,173233.90,4138.0445979,N,07032.4283298,W,1,23,0.7,12.950,M,-29.745,M,0.0,*5D
###2023-12-09 12:32:34.932352$GNRMC,173234.10,A,4138.0446012,N,07032.4283345,W,0.23,316.77,091223,,,A*5F
###2023-12-09 12:32:34.935441$GNGGA,173234.10,4138.0446012,N,07032.4283345,W,1,23,0.7,12.954,M,-29.745,M,0.0,*50
###2023-12-09 12:32:34.937498$GPGSA,A,3,03,04,16,26,28,29,31,32,,,,,1.2,0.7,0.9*39
###2023-12-09 12:32:34.939342$GLGSA,A,3,71,72,73,74,75,,,,,,,,1.2,0.7,0.9*25
###2023-12-09 12:32:34.941100$GAGSA,A,3,04,19,21,27,,,,,,,,,1.2,0.7,0.9*24
###2023-12-09 12:32:34.942939$GBGSA,A,3,14,24,25,26,33,,,,,,,,1.2,0.7,0.9*2D
###2023-12-09 12:32:34.945441$GPGSV,2,1,08,03,39,278,46,04,21,310,43,16,35,207,44,26,65,206,48*7D
###2023-12-09 12:32:34.948018$GPGSV,2,2,08,28,59,054,43,29,25,075,40,31,73,356,46,32,31,133,46*7F
###2023-12-09 12:32:34.950601$GLGSV,2,1,05,71,58,169,47,72,65,311,48,73,49,033,46,74,71,287,43*68
###2023-12-09 12:32:34.952233$GLGSV,2,2,05,75,21,240,35,,,,,,,,,,,,*51
###2023-12-09 12:32:34.954733$GAGSV,1,1,04,04,20,311,43,19,80,306,41,21,76,177,46,27,42,050,41*6C
###2023-12-09 12:32:34.957240$GBGSV,2,1,05,14,56,198,45,24,81,339,48,25,32,252,46,26,36,057,44*62
###2023-12-09 12:32:34.958877$GBGSV,2,2,05,33,63,257,48,,,,,,,,,,,,*57
###2023-12-09 12:32:34.960367$GNVTG,316.77,T,,M,0.23,N,0.43,K,A*21
###2023-12-09 12:32:34.962137$GNGST,173234.10,17.000,,,,0.150,0.130,0.230*57
###2023-12-09 12:32:34.963565$GNZDA,173234.10,09,12,2023,00,00*70
###2023-12-09 12:32:34.964321$GNEBP,,,,,,M*13
###2023-12-09 12:32:35.130765$GNGGA,173234.30,4138.0446117,N,07032.4283523,W,1,23,0.7,12.963,M,-29.745,M,0.0,*54
###2023-12-09 12:32:35.329767$GNGGA,173234.50,4138.0446193,N,07032.4283702,W,1,23,0.7,12.972,M,-29.745,M,0.0,*5F
###2023-12-09 12:32:35.529693$GNGGA,173234.70,4138.0446202,N,07032.4283685,W,1,23,0.7,12.972,M,-29.745,M,0.0,*58
###2023-12-09 12:32:35.728782$GNGGA,173234.90,4138.0446144,N,07032.4283634,W,1,23,0.7,12.960,M,-29.745,M,0.0,*5E
###2023-12-09 12:32:35.929668$GNRMC,173235.10,A,4138.0446223,N,07032.4283814,W,0.56,316.77,091223,,,A*53
###2023-12-09 12:32:35.932590$GNGGA,173235.10,4138.0446223,N,07032.4283814,W,1,23,0.7,12.971,M,-29.745,M,0.0,*59
###2023-12-09 12:32:35.934467$GPGSA,A,3,03,04,16,26,28,29,31,32,,,,,1.2,0.7,0.9*39
###2023-12-09 12:32:35.936149$GLGSA,A,3,71,72,73,74,75,,,,,,,,1.2,0.7,0.9*25
###2023-12-09 12:32:35.937785$GAGSA,A,3,04,19,21,27,,,,,,,,,1.2,0.7,0.9*24
###2023-12-09 12:32:35.939465$GBGSA,A,3,14,24,25,26,33,,,,,,,,1.2,0.7,0.9*2D
###2023-12-09 12:32:35.941810$GPGSV,2,1,08,03,39,278,46,04,21,310,42,16,35,207,44,26,65,206,48*7C
###2023-12-09 12:32:35.944162$GPGSV,2,2,08,28,59,054,45,29,25,075,40,31,73,356,47,32,31,133,45*7B
###2023-12-09 12:32:35.946525$GLGSV,2,1,05,71,58,169,48,72,65,311,46,73,49,033,46,74,71,287,43*69
###2023-12-09 12:32:35.948051$GLGSV,2,2,05,75,21,240,36,,,,,,,,,,,,*52
###2023-12-09 12:32:35.950407$GAGSV,1,1,04,04,20,311,43,19,80,306,41,21,76,177,46,27,42,050,41*6C
###2023-12-09 12:32:35.952769$GBGSV,2,1,05,14,56,198,46,24,81,339,48,25,32,252,45,26,36,057,45*63
###2023-12-09 12:32:35.954236$GBGSV,2,2,05,33,63,257,48,,,,,,,,,,,,*57
###2023-12-09 12:32:35.955593$GNVTG,316.77,T,,M,0.56,N,1.04,K,A*21
###2023-12-09 12:32:35.957260$GNGST,173235.10,17.000,,,,0.140,0.130,0.230*57
###2023-12-09 12:32:35.958575$GNZDA,173235.10,09,12,2023,00,00*71
###2023-12-09 12:32:35.959228$GNEBP,,,,,,M*13
###2023-12-09 12:32:36.130461$GNGGA,173235.30,4138.0446416,N,07032.4284134,W,1,22,0.7,12.984,M,-29.745,M,0.0,*5C
###2023-12-09 12:32:36.329686$GNGGA,173235.50,4138.0446457,N,07032.4284216,W,1,22,0.7,12.989,M,-29.745,M,0.0,*51
###2023-12-09 12:32:36.532077$GNGGA,173235.70,4138.0446301,N,07032.4284065,W,1,22,0.7,12.976,M,-29.745,M,0.0,*51
###2023-12-09 12:32:36.728877$GNGGA,173235.90,4138.0446304,N,07032.4284137,W,1,22,0.7,12.969,M,-29.745,M,0.0,*52
###2023-12-09 12:32:36.933181$GNRMC,173236.10,A,4138.0446561,N,07032.4284533,W,0.82,316.77,091223,,,A*57
###2023-12-09 12:32:36.936202$GNGGA,173236.10,4138.0446561,N,07032.4284533,W,1,22,0.7,12.976,M,-29.745,M,0.0,*52
###2023-12-09 12:32:36.938074$GPGSA,A,3,03,04,16,26,28,29,31,32,,,,,1.2,0.7,1.0*31
###2023-12-09 12:32:36.939746$GLGSA,A,3,71,72,73,74,75,,,,,,,,1.2,0.7,1.0*2D
###2023-12-09 12:32:36.941345$GAGSA,A,3,04,19,21,27,,,,,,,,,1.2,0.7,1.0*2C
###2023-12-09 12:32:36.943013$GBGSA,A,3,14,24,25,26,33,,,,,,,,1.2,0.7,1.0*25
###2023-12-09 12:32:36.945354$GPGSV,2,1,08,03,39,278,44,04,21,310,43,16,36,207,44,26,65,206,48*7C
###2023-12-09 12:32:36.947755$GPGSV,2,2,08,28,59,054,45,29,25,075,39,31,73,356,46,32,31,133,45*74
###2023-12-09 12:32:36.950136$GLGSV,2,1,05,71,58,169,48,72,65,311,46,73,49,033,46,74,71,287,43*69
###2023-12-09 12:32:36.951632$GLGSV,2,2,05,75,21,240,40,,,,,,,,,,,,*53
###2023-12-09 12:32:36.953971$GAGSV,1,1,04,04,20,311,43,19,80,306,41,21,76,177,46,27,42,050,41*6C
###2023-12-09 12:32:36.956332$GBGSV,2,1,05,14,56,198,45,24,81,339,48,25,32,252,44,26,36,057,46*62
###2023-12-09 12:32:36.957799$GBGSV,2,2,05,33,63,257,48,,,,,,,,,,,,*57
###2023-12-09 12:32:36.959150$GNVTG,316.77,T,,M,0.82,N,1.51,K,A*28
###2023-12-09 12:32:36.960852$GNGST,173236.10,17.000,,,,0.140,0.130,0.230*54
###2023-12-09 12:32:36.962153$GNZDA,173236.10,09,12,2023,00,00*72
###2023-12-09 12:32:36.962819$GNEBP,,,,,,M*13
###2023-12-09 12:32:37.129819$GNGGA,173236.30,4138.0446706,N,07032.4284776,W,1,22,0.7,12.964,M,-29.745,M,0.0,*53
###2023-12-09 12:32:37.330686$GNGGA,173236.50,4138.0446579,N,07032.4284659,W,1,22,0.7,12.977,M,-29.745,M,0.0,*51
###2023-12-09 12:32:37.531483$GNGGA,173236.70,4138.0446472,N,07032.4284555,W,1,22,0.7,12.969,M,-29.745,M,0.0,*59
###2023-12-09 12:32:37.728909$GNGGA,173236.90,4138.0446628,N,07032.4284815,W,1,22,0.7,12.971,M,-29.745,M,0.0,*5A
###2023-12-09 12:32:37.931537$GNRMC,173237.10,A,4138.0446839,N,07032.4285225,W,0.51,316.77,091223,,,A*59
###2023-12-09 12:32:37.934440$GNGGA,173237.10,4138.0446839,N,07032.4285225,W,1,22,0.7,12.955,M,-29.745,M,0.0,*53
###2023-12-09 12:32:37.936343$GPGSA,A,3,03,04,16,26,28,29,31,32,,,,,1.2,0.7,1.0*31
###2023-12-09 12:32:37.938000$GLGSA,A,3,71,72,73,74,75,,,,,,,,1.2,0.7,1.0*2D
###2023-12-09 12:32:37.939609$GAGSA,A,3,04,19,21,27,,,,,,,,,1.2,0.7,1.0*2C
###2023-12-09 12:32:37.941273$GBGSA,A,3,14,24,25,26,33,,,,,,,,1.2,0.7,1.0*25
###2023-12-09 12:32:37.943880$GPGSV,2,1,08,03,39,278,43,04,21,310,43,16,36,207,45,26,65,206,48*7A
###2023-12-09 12:32:37.946236$GPGSV,2,2,08,28,59,054,45,29,25,075,41,31,73,356,47,32,31,133,44*7B
###2023-12-09 12:32:37.948611$GLGSV,2,1,05,71,58,169,48,72,65,311,47,73,49,033,46,74,71,287,43*68
###2023-12-09 12:32:37.950087$GLGSV,2,2,05,75,21,240,41,,,,,,,,,,,,*52
###2023-12-09 12:32:37.952441$GAGSV,1,1,04,04,20,311,43,19,80,306,41,21,76,177,45,27,42,050,41*6F
###2023-12-09 12:32:37.954804$GBGSV,2,1,05,14,56,198,44,24,81,339,49,25,32,252,46,26,36,057,45*63
###2023-12-09 12:32:37.956269$GBGSV,2,2,05,33,63,257,48,,,,,,,,,,,,*57
###2023-12-09 12:32:37.957593$GNVTG,316.77,T,,M,0.51,N,0.94,K,A*2E
###2023-12-09 12:32:37.959261$GNGST,173237.10,17.000,,,,0.140,0.120,0.230*54
