###2023-12-09 13:42:55.031402$GNGST,184254.10,5.800,,,,0.150,0.130,0.230*62
###2023-12-09 13:42:55.032721$GNZDA,184254.10,09,12,2023,00,00*7E
###2023-12-09 13:42:55.033367$GNEBP,,,,,,M*13
###2023-12-09 13:42:55.198744$GNGGA,184254.30,4138.0394949,N,07032.4270594,W,1,24,0.6,13.605,M,-29.745,M,0.0,*59
###2023-12-09 13:42:55.399968$GNGGA,184254.50,4138.0394952,N,07032.4270422,W,1,24,0.6,13.582,M,-29.745,M,0.0,*55
###2023-12-09 13:42:55.596485$GNGGA,184254.70,4138.0394785,N,07032.4270509,W,1,23,0.7,13.591,M,-29.745,M,0.0,*5F
###2023-12-09 13:42:55.798132$GNGGA,184254.90,4138.0394667,N,07032.4270656,W,1,23,0.6,13.573,M,-29.745,M,0.0,*58
###2023-12-09 13:42:56.002866$GNRMC,184255.10,A,4138.0394673,N,07032.4270520,W,0.39,287.37,091223,,,A*56
###2023-12-09 13:42:56.005746$GNGGA,184255.10,4138.0394673,N,07032.4270520,W,1,23,0.6,13.553,M,-29.745,M,0.0,*54
###2023-12-09 13:42:56.007621$GPGSA,A,3,03,04,09,16,26,28,29,31,,,,,1.1,0.6,0.8*32
###2023-12-09 13:42:56.009273$GLGSA,A,3,65,72,73,74,75,,,,,,,,1.1,0.6,0.8*23
###2023-12-09 13:42:56.010869$GAGSA,A,3,04,19,21,27,,,,,,,,,1.1,0.6,0.8*27
###2023-12-09 13:42:56.012518$GBGSA,A,3,12,24,25,33,35,,,,,,,,1.1,0.6,0.8*2A
###2023-12-09 13:42:56.014856$GPGSV,2,1,08,03,24,243,41,04,49,306,36,09,15,317,36,16,70,226,44*75
###2023-12-09 13:42:56.017197$GPGSV,2,2,08,26,80,041,49,28,35,088,44,29,19,044,43,31,57,071,46*79
###2023-12-09 13:42:56.019547$GLGSV,2,1,05,65,42,314,41,72,58,215,44,73,19,055,41,74,56,021,42*67
###2023-12-09 13:42:56.021002$GLGSV,2,2,05,75,46,277,37,,,,,,,,,,,,*56
###2023-12-09 13:42:56.023342$GAGSV,1,1,04,04,42,308,35,19,69,180,42,21,74,044,45,27,20,051,37*6D
###2023-12-09 13:42:56.025668$GBGSV,2,1,05,12,18,124,41,24,60,050,47,25,53,280,35,33,42,214,45*6E
###2023-12-09 13:42:56.027133$GBGSV,2,2,05,35,16,053,40,,,,,,,,,,,,*5D
###2023-12-09 13:42:56.028460$GNVTG,287.37,T,,M,0.39,N,0.72,K,A*25
###2023-12-09 13:42:56.030077$GNGST,184255.10,7.500,,,,0.150,0.120,0.230*6D
###2023-12-09 13:42:56.031383$GNZDA,184255.10,09,12,2023,00,00*7F
###2023-12-09 13:42:56.032025$GNEBP,,,,,,M*13
###2023-12-09 13:42:56.199276$GNGGA,184255.30,4138.0394701,N,07032.4270251,W,1,21,0.7,13.556,M,-29.745,M,0.0,*55
###2023-12-09 13:42:56.398723$GNGGA,184255.50,4138.0394698,N,07032.4270254,W,1,22,0.7,13.547,M,-29.745,M,0.0,*54
###2023-12-09 13:42:56.599554$GNGGA,184255.70,4138.0394651,N,07032.4270353,W,1,21,0.7,13.551,M,-29.745,M,0.0,*51
###2023-12-09 13:42:56.799309$GNGGA,184255.90,4138.0394595,N,07032.4270434,W,1,20,0.7,13.537,M,-29.745,M,0.0,*53
###2023-12-09 13:42:57.006105$GNRMC,184256.10,A,4138.0394582,N,07032.4270575,W,0.39,287.37,091223,,,A*58
###2023-12-09 13:42:57.008999$GNGGA,184256.10,4138.0394582,N,07032.4270575,W,1,21,0.7,13.535,M,-29.745,M,0.0,*59
###2023-12-09 13:42:57.010738$GPGSA,A,3,03,16,26,28,29,31,,,,,,,1.2,0.7,0.9*3C
###2023-12-09 13:42:57.012390$GLGSA,A,3,65,72,73,74,75,,,,,,,,1.2,0.7,0.9*20
###2023-12-09 13:42:57.013968$GAGSA,A,3,04,19,21,27,,,,,,,,,1.2,0.7,0.9*24
###2023-12-09 13:42:57.015631$GBGSA,A,3,12,24,25,33,35,,,,,,,,1.2,0.7,0.9*29
###2023-12-09 13:42:57.017957$GPGSV,2,1,06,03,24,243,41,16,70,226,45,26,80,041,49,28,35,088,46*74
###2023-12-09 13:42:57.019713$GPGSV,2,2,06,29,19,044,41,31,57,071,47,,,,,,,,*7C
###2023-12-09 13:42:57.022033$GLGSV,2,1,05,65,42,314,41,72,58,215,43,73,19,055,41,74,56,021,44*66
###2023-12-09 13:42:57.023493$GLGSV,2,2,05,75,46,277,35,,,,,,,,,,,,*54
###2023-12-09 13:42:57.025811$GAGSV,1,1,04,04,42,308,36,19,69,180,43,21,74,044,45,27,20,051,38*60
###2023-12-09 13:42:57.028143$GBGSV,2,1,05,12,18,124,37,24,60,050,50,25,53,280,35,33,42,214,42*6E
###2023-12-09 13:42:57.029596$GBGSV,2,2,05,35,16,053,41,,,,,,,,,,,,*5C
###2023-12-09 13:42:57.030923$GNVTG,287.37,T,,M,0.39,N,0.72,K,A*25
###2023-12-09 13:42:57.032535$GNGST,184256.10,7.600,,,,0.160,0.130,0.230*6F
###2023-12-09 13:42:57.033823$GNZDA,184256.10,09,12,2023,00,00*7C
###2023-12-09 13:42:57.034462$GNEBP,,,,,,M*13
###2023-12-09 13:42:57.204913$GNGGA,184256.30,4138.0394654,N,07032.4270890,W,1,20,0.7,13.530,M,-29.745,M,0.0,*51
###2023-12-09 13:42:57.398851$GNGGA,184256.50,4138.0394859,N,07032.4271418,W,1,20,0.7,13.516,M,-29.745,M,0.0,*5D
###2023-12-09 13:42:57.598093$GNGGA,184256.70,4138.0395024,N,07032.4272082,W,1,20,0.7,13.516,M,-29.745,M,0.0,*58
###2023-12-09 13:42:57.799664$GNGGA,184256.90,4138.0395250,N,07032.4272690,W,1,21,0.8,13.525,M,-29.745,M,0.0,*5C
###2023-12-09 13:42:58.001811$GNRMC,184257.10,A,4138.0395412,N,07032.4273156,W,0.78,297.91,091223,,,A*5E
###2023-12-09 13:42:58.004699$GNGGA,184257.10,4138.0395412,N,07032.4273156,W,1,19,0.8,13.541,M,-29.745,M,0.0,*50
###2023-12-09 13:42:58.006366$GPGSA,A,3,04,26,28,29,31,,,,,,,,1.4,0.8,1.2*3F
###2023-12-09 13:42:58.008080$GLGSA,A,3,65,72,73,74,75,83,,,,,,,1.4,0.8,1.2*28
###2023-12-09 13:42:58.009658$GAGSA,A,3,04,19,21,27,,,,,,,,,1.4,0.8,1.2*27
###2023-12-09 13:42:58.011239$GBGSA,A,3,12,24,33,35,,,,,,,,,1.4,0.8,1.2*2D
###2023-12-09 13:42:58.013566$GPGSV,2,1,05,04,49,306,39,26,80,041,47,28,35,088,48,29,19,044,42*76
###2023-12-09 13:42:58.015026$GPGSV,2,2,05,31,57,071,49,,,,,,,,,,,,*47
###2023-12-09 13:42:58.017348$GLGSV,2,1,06,65,42,314,41,72,58,215,39,73,19,055,43,74,56,021,43*6D
###2023-12-09 13:42:58.019102$GLGSV,2,2,06,75,46,277,37,83,16,043,35,,,,,,,,*68
###2023-12-09 13:42:58.021434$GAGSV,1,1,04,04,42,308,42,19,69,180,37,21,74,044,47,27,20,051,40*6D
###2023-12-09 13:42:58.023777$GBGSV,1,1,04,12,18,124,40,24,60,050,49,33,42,214,39,35,16,053,45*63
###2023-12-09 13:42:58.025107$GNVTG,297.91,T,,M,0.78,N,1.44,K,A*29
###2023-12-09 13:42:58.026738$GNGST,184257.10,6.600,,,,0.160,0.130,0.230*6F
###2023-12-09 13:42:58.028032$GNZDA,184257.10,09,12,2023,00,00*7D
###2023-12-09 13:42:58.028671$GNEBP,,,,,,M*13
###2023-12-09 13:42:58.198528$GNGGA,184257.30,4138.0395562,N,07032.4273553,W,1,18,0.9,13.550,M,-29.745,M,0.0,*55
###2023-12-09 13:42:58.399175$GNGGA,184257.50,4138.0395780,N,07032.4273833,W,1,19,0.9,13.574,M,-29.745,M,0.0,*51
###2023-12-09 13:42:58.595676$GNGGA,184257.70,4138.0395933,N,07032.4274147,W,1,18,0.9,13.585,M,-29.745,M,0.0,*57
###2023-12-09 13:42:58.797085$GNGGA,184257.90,4138.0396170,N,07032.4274469,W,1,18,1.0,13.621,M,-29.745,M,0.0,*59
###2023-12-09 13:42:58.999188$GNRMC,184258.10,A,4138.0396373,N,07032.4274988,W,0.95,297.91,091223,,,A*5D
###2023-12-09 13:42:59.002246$GNGGA,184258.10,4138.0396373,N,07032.4274988,W,1,20,0.8,13.653,M,-29.745,M,0.0,*5A
###2023-12-09 13:42:59.004178$GPGSA,A,3,03,04,16,26,28,29,31,,,,,,1.3,0.8,1.0*3E
###2023-12-09 13:42:59.006011$GLGSA,A,3,65,72,73,74,75,83,,,,,,,1.3,0.8,1.0*2D
###2023-12-09 13:42:59.007633$GAGSA,A,3,04,21,27,,,,,,,,,,1.3,0.8,1.0*2A
###2023-12-09 13:42:59.009221$GBGSA,A,3,12,24,25,35,,,,,,,,,1.3,0.8,1.0*2F
###2023-12-09 13:42:59.011557$GPGSV,2,1,07,03,24,243,35,04,49,306,46,16,70,226,40,26,80,041,47*7D
###2023-12-09 13:42:59.013602$GPGSV,2,2,07,28,35,088,44,29,19,044,41,31,57,071,48,,,,*4E
###2023-12-09 13:42:59.015939$GLGSV,2,1,06,65,42,314,44,72,58,215,37,73,19,055,43,74,56,021,44*61
###2023-12-09 13:42:59.017681$GLGSV,2,2,06,75,46,277,46,83,16,043,35,,,,,,,,*6E
###2023-12-09 13:42:59.019722$GAGSV,1,1,03,04,42,308,46,21,74,044,46,27,20,051,41,,,,*54
###2023-12-09 13:42:59.022051$GBGSV,1,1,04,12,18,124,38,24,60,050,51,25,53,280,47,35,16,053,39*6D
###2023-12-09 13:42:59.023387$GNVTG,297.91,T,,M,0.95,N,1.76,K,A*2B
###2023-12-09 13:42:59.024997$GNGST,184258.10,7.700,,,,0.170,0.130,0.240*66
###2023-12-09 13:42:59.026282$GNZDA,184258.10,09,12,2023,00,00*72
###2023-12-09 13:42:59.026931$GNEBP,,,,,,M*13
###2023-12-09 13:42:59.197830$GNGGA,184258.30,4138.0396675,N,07032.4275594,W,1,17,0.8,13.670,M,-29.745,M,0.0,*5E
###2023-12-09 13:42:59.396851$GNGGA,184258.50,4138.0396976,N,07032.4276529,W,1,16,1.5,13.697,M,-29.745,M,0.0,*55
###2023-12-09 13:42:59.594549$GNGGA,184258.70,4138.0397274,N,07032.4277657,W,1,17,1.2,13.739,M,-29.745,M,0.0,*57
###2023-12-09 13:42:59.795312$GNGGA,184258.90,4138.0397488,N,07032.4278672,W,1,18,0.9,13.772,M,-29.745,M,0.0,*5E
###2023-12-09 13:42:59.998063$GNRMC,184259.10,A,4138.0397787,N,07032.4279631,W,1.50,292.14,091223,,,A*52
###2023-12-09 13:43:00.000995$GNGGA,184259.10,4138.0397787,N,07032.4279631,W,1,20,0.9,13.861,M,-29.745,M,0.0,*5B
###2023-12-09 13:43:00.003053$GPGSA,A,3,03,04,16,26,28,29,31,,,,,,1.4,0.9,1.1*39
###2023-12-09 13:43:00.004723$GLGSA,A,3,65,72,73,74,75,,,,,,,,1.4,0.9,1.1*21
###2023-12-09 13:43:00.006249$GAGSA,A,3,04,21,27,,,,,,,,,,1.4,0.9,1.1*2D
###2023-12-09 13:43:00.007848$GBGSA,A,3,24,25,33,35,,,,,,,,,1.4,0.9,1.1*2B
###2023-12-09 13:43:00.010181$GPGSV,2,1,07,03,24,243,38,04,49,306,45,16,70,226,39,26,80,041,46*7C
###2023-12-09 13:43:00.012233$GPGSV,2,2,07,28,35,088,37,29,19,044,40,31,57,071,44,,,,*47
###2023-12-09 13:43:00.014583$GLGSV,2,1,05,65,42,314,42,72,58,215,39,73,19,055,42,74,56,021,45*6A
###2023-12-09 13:43:00.016042$GLGSV,2,2,05,75,46,277,47,,,,,,,,,,,,*51
###2023-12-09 13:43:00.018078$GAGSV,1,1,03,04,42,308,44,21,74,044,47,27,20,051,39,,,,*58
