###2023-12-09 12:42:54.959387$GPGSV,2,1,08,03,38,272,41,04,25,311,37,16,40,208,45,26,70,207,47*71
###2023-12-09 12:42:54.962229$GPGSV,2,2,08,28,55,060,44,29,25,070,42,31,72,013,47,32,27,136,42*70
###2023-12-09 12:42:54.965067$GLGSV,2,1,06,65,15,329,39,71,52,170,47,72,68,302,45,73,44,035,47*6B
###2023-12-09 12:42:54.967205$GLGSV,2,2,06,74,71,303,42,75,25,244,41,,,,,,,,*62
###2023-12-09 12:42:54.970005$GAGSV,1,1,04,04,23,312,37,19,84,288,40,21,81,170,46,27,39,049,43*64
###2023-12-09 12:42:54.972849$GBGSV,2,1,05,14,51,196,45,24,79,002,49,25,35,255,45,26,32,059,44*6F
###2023-12-09 12:42:54.974640$GBGSV,2,2,05,33,62,248,48,,,,,,,,,,,,*58
###2023-12-09 12:42:54.976243$GNVTG,262.96,T,,M,2.97,N,5.51,K,A*27
###2023-12-09 12:42:54.978227$GNGST,174254.10,18.000,,,,0.079,0.070,0.160*50
###2023-12-09 12:42:54.979803$GNZDA,174254.10,09,12,2023,00,00*71
###2023-12-09 12:42:54.980581$GNEBP,,,,,,M*13
###2023-12-09 12:42:55.141587$GNGGA,174254.30,4138.0407301,N,07032.3935649,W,1,24,0.6,13.292,M,-29.745,M,0.0,*59
###2023-12-09 12:42:55.343133$GNGGA,174254.50,4138.0407219,N,07032.3937782,W,1,24,0.6,13.288,M,-29.745,M,0.0,*58
###2023-12-09 12:42:55.542378$GNGGA,174254.70,4138.0407260,N,07032.3939869,W,1,24,0.6,13.284,M,-29.745,M,0.0,*5C
###2023-12-09 12:42:55.743786$GNGGA,174254.90,4138.0407409,N,07032.3941874,W,1,24,0.6,13.280,M,-29.745,M,0.0,*5C
###2023-12-09 12:42:55.942705$GNRMC,174255.10,A,4138.0407661,N,07032.3943787,W,2.57,281.78,091223,,,A*53
###2023-12-09 12:42:55.945571$GNGGA,174255.10,4138.0407661,N,07032.3943787,W,1,24,0.6,13.279,M,-29.745,M,0.0,*5E
###2023-12-09 12:42:55.947461$GPGSA,A,3,03,04,16,26,28,29,31,32,,,,,1.1,0.6,0.9*3B
###2023-12-09 12:42:55.949190$GLGSA,A,3,65,71,72,73,74,75,,,,,,,1.1,0.6,0.9*24
###2023-12-09 12:42:55.950792$GAGSA,A,3,04,19,21,27,,,,,,,,,1.1,0.6,0.9*26
###2023-12-09 12:42:55.952441$GBGSA,A,3,14,24,25,26,33,,,,,,,,1.1,0.6,0.9*2F
###2023-12-09 12:42:55.954783$GPGSV,2,1,08,03,38,272,41,04,25,311,37,16,40,208,45,26,70,207,47*71
###2023-12-09 12:42:55.957113$GPGSV,2,2,08,28,55,060,45,29,25,070,41,31,72,013,47,32,27,136,44*74
###2023-12-09 12:42:55.959460$GLGSV,2,1,06,65,15,329,38,71,52,170,48,72,68,302,45,73,44,035,47*65
###2023-12-09 12:42:55.961198$GLGSV,2,2,06,74,71,303,42,75,25,244,44,,,,,,,,*67
###2023-12-09 12:42:55.963534$GAGSV,1,1,04,04,23,312,37,19,84,288,40,21,81,170,46,27,39,049,44*63
###2023-12-09 12:42:55.965860$GBGSV,2,1,05,14,51,196,45,24,79,002,49,25,35,255,46,26,32,059,43*6B
###2023-12-09 12:42:55.967328$GBGSV,2,2,05,33,62,248,48,,,,,,,,,,,,*58
###2023-12-09 12:42:55.968648$GNVTG,281.78,T,,M,2.57,N,4.75,K,A*21
###2023-12-09 12:42:55.970289$GNGST,174255.10,18.000,,,,0.080,0.072,0.160*55
###2023-12-09 12:42:55.971593$GNZDA,174255.10,09,12,2023,00,00*70
###2023-12-09 12:42:55.972231$GNEBP,,,,,,M*13
###2023-12-09 12:42:56.142425$GNGGA,174255.30,4138.0408016,N,07032.3945642,W,1,24,0.6,13.277,M,-29.745,M,0.0,*55
###2023-12-09 12:42:56.342986$GNGGA,174255.50,4138.0408384,N,07032.3947403,W,1,24,0.6,13.274,M,-29.745,M,0.0,*5D
###2023-12-09 12:42:56.544408$GNGGA,174255.70,4138.0408878,N,07032.3949097,W,1,24,0.6,13.277,M,-29.745,M,0.0,*53
###2023-12-09 12:42:56.742200$GNGGA,174255.90,4138.0409503,N,07032.3950646,W,1,24,0.6,13.272,M,-29.745,M,0.0,*5A
###2023-12-09 12:42:56.950154$GNRMC,174256.10,A,4138.0410175,N,07032.3952058,W,2.22,305.39,091223,,,A*5B
###2023-12-09 12:42:56.953037$GNGGA,174256.10,4138.0410175,N,07032.3952058,W,1,24,0.6,13.276,M,-29.745,M,0.0,*53
###2023-12-09 12:42:56.954914$GPGSA,A,3,03,04,16,26,28,29,31,32,,,,,1.1,0.6,0.9*3B
###2023-12-09 12:42:56.956643$GLGSA,A,3,65,71,72,73,74,75,,,,,,,1.1,0.6,0.9*24
###2023-12-09 12:42:56.958228$GAGSA,A,3,04,19,21,27,,,,,,,,,1.1,0.6,0.9*26
###2023-12-09 12:42:56.959901$GBGSA,A,3,14,24,25,26,33,,,,,,,,1.1,0.6,0.9*2F
###2023-12-09 12:42:56.962228$GPGSV,2,1,08,03,38,272,43,04,25,311,39,16,40,208,45,26,70,207,47*7D
###2023-12-09 12:42:56.964568$GPGSV,2,2,08,28,55,060,45,29,25,070,41,31,72,013,47,32,27,136,42*72
###2023-12-09 12:42:56.966943$GLGSV,2,1,06,65,15,329,39,71,52,170,48,72,68,302,45,73,44,035,45*66
###2023-12-09 12:42:56.968691$GLGSV,2,2,06,74,71,303,42,75,25,244,47,,,,,,,,*64
###2023-12-09 12:42:56.971029$GAGSV,1,1,04,04,23,312,37,19,84,288,40,21,81,170,46,27,39,049,44*63
###2023-12-09 12:42:56.973360$GBGSV,2,1,05,14,51,196,45,24,79,002,48,25,35,255,45,26,32,059,44*6E
###2023-12-09 12:42:56.974832$GBGSV,2,2,05,33,62,248,47,,,,,,,,,,,,*57
###2023-12-09 12:42:56.976157$GNVTG,305.39,T,,M,2.22,N,4.10,K,A*28
###2023-12-09 12:42:56.977802$GNGST,174256.10,18.000,,,,0.081,0.072,0.170*56
###2023-12-09 12:42:56.979105$GNZDA,174256.10,09,12,2023,00,00*73
###2023-12-09 12:42:56.979745$GNEBP,,,,,,M*13
###2023-12-09 12:42:57.142437$GNGGA,174256.30,4138.0410898,N,07032.3953396,W,1,24,0.6,13.281,M,-29.745,M,0.0,*53
###2023-12-09 12:42:57.342845$GNGGA,174256.50,4138.0411665,N,07032.3954653,W,1,24,0.6,13.274,M,-29.745,M,0.0,*59
###2023-12-09 12:42:57.542776$GNGGA,174256.70,4138.0412461,N,07032.3955782,W,1,24,0.6,13.273,M,-29.745,M,0.0,*55
###2023-12-09 12:42:57.742353$GNGGA,174256.90,4138.0413310,N,07032.3956732,W,1,24,0.6,13.271,M,-29.745,M,0.0,*51
###2023-12-09 12:42:57.942786$GNRMC,174257.10,A,4138.0414174,N,07032.3957551,W,1.98,324.99,091223,,,A*5D
###2023-12-09 12:42:57.945621$GNGGA,174257.10,4138.0414174,N,07032.3957551,W,1,24,0.6,13.271,M,-29.745,M,0.0,*59
###2023-12-09 12:42:57.947491$GPGSA,A,3,03,04,16,26,28,29,31,32,,,,,1.1,0.6,0.9*3B
###2023-12-09 12:42:57.949218$GLGSA,A,3,65,71,72,73,74,75,,,,,,,1.1,0.6,0.9*24
###2023-12-09 12:42:57.950817$GAGSA,A,3,04,19,21,27,,,,,,,,,1.1,0.6,0.9*26
###2023-12-09 12:42:57.952456$GBGSA,A,3,14,24,25,26,33,,,,,,,,1.1,0.6,0.9*2F
###2023-12-09 12:42:57.954796$GPGSV,2,1,08,03,38,272,43,04,25,311,39,16,40,208,45,26,70,207,47*7D
###2023-12-09 12:42:57.957135$GPGSV,2,2,08,28,55,060,44,29,25,070,43,31,72,013,46,32,27,136,42*70
###2023-12-09 12:42:57.959478$GLGSV,2,1,06,65,15,329,38,71,52,170,48,72,68,302,45,73,44,035,46*64
###2023-12-09 12:42:57.961227$GLGSV,2,2,06,74,71,303,42,75,25,244,46,,,,,,,,*65
###2023-12-09 12:42:57.963582$GAGSV,1,1,04,04,23,312,39,19,84,288,40,21,81,170,46,27,39,049,43*6A
###2023-12-09 12:42:57.965916$GBGSV,2,1,05,14,51,196,44,24,79,002,47,25,35,255,45,26,32,059,43*67
###2023-12-09 12:42:57.967420$GBGSV,2,2,05,33,62,246,48,,,,,,,,,,,,*56
###2023-12-09 12:42:57.968742$GNVTG,324.99,T,,M,1.98,N,3.67,K,A*24
###2023-12-09 12:42:57.970384$GNGST,174257.10,18.000,,,,0.081,0.072,0.170*57
###2023-12-09 12:42:57.971685$GNZDA,174257.10,09,12,2023,00,00*72
###2023-12-09 12:42:57.972325$GNEBP,,,,,,M*13
###2023-12-09 12:42:58.144330$GNGGA,174257.30,4138.0415050,N,07032.3958365,W,1,24,0.6,13.269,M,-29.745,M,0.0,*5A
###2023-12-09 12:42:58.342702$GNGGA,174257.50,4138.0415962,N,07032.3959130,W,1,24,0.6,13.269,M,-29.745,M,0.0,*57
###2023-12-09 12:42:58.542157$GNGGA,174257.70,4138.0416907,N,07032.3959829,W,1,24,0.6,13.275,M,-29.745,M,0.0,*59
###2023-12-09 12:42:58.742126$GNGGA,174257.90,4138.0417894,N,07032.3960348,W,1,24,0.6,13.275,M,-29.745,M,0.0,*5B
###2023-12-09 12:42:58.945538$GNRMC,174258.10,A,4138.0418873,N,07032.3960746,W,1.75,345.04,091223,,,A*50
###2023-12-09 12:42:58.948433$GNGGA,174258.10,4138.0418873,N,07032.3960746,W,1,24,0.6,13.280,M,-29.745,M,0.0,*5A
###2023-12-09 12:42:58.950295$GPGSA,A,3,03,04,16,26,28,29,31,32,,,,,1.1,0.6,0.9*3B
###2023-12-09 12:42:58.952023$GLGSA,A,3,65,71,72,73,74,75,,,,,,,1.1,0.6,0.9*24
###2023-12-09 12:42:58.953605$GAGSA,A,3,04,19,21,27,,,,,,,,,1.1,0.6,0.9*26
###2023-12-09 12:42:58.955263$GBGSA,A,3,14,24,25,26,33,,,,,,,,1.1,0.6,0.9*2F
###2023-12-09 12:42:58.957590$GPGSV,2,1,08,03,38,272,44,04,25,311,43,16,40,208,44,26,70,207,47*76
###2023-12-09 12:42:58.959941$GPGSV,2,2,08,28,55,060,45,29,25,070,40,31,72,013,46,32,27,136,41*71
###2023-12-09 12:42:58.962275$GLGSV,2,1,06,65,15,329,40,71,52,170,47,72,68,302,46,73,44,035,45*64
###2023-12-09 12:42:58.964042$GLGSV,2,2,06,74,71,303,42,75,25,244,45,,,,,,,,*66
###2023-12-09 12:42:58.966378$GAGSV,1,1,04,04,23,312,41,19,84,288,40,21,81,170,45,27,39,049,42*67
###2023-12-09 12:42:58.968734$GBGSV,2,1,05,14,51,196,44,24,79,002,47,25,35,255,45,26,32,059,44*60
###2023-12-09 12:42:58.970195$GBGSV,2,2,05,33,62,246,47,,,,,,,,,,,,*59
###2023-12-09 12:42:58.971786$GNVTG,345.04,T,,M,1.75,N,3.24,K,A*23
###2023-12-09 12:42:58.973458$GNGST,174258.10,18.000,,,,0.081,0.071,0.170*5B
###2023-12-09 12:42:58.974774$GNZDA,174258.10,09,12,2023,00,00*7D
###2023-12-09 12:42:58.975418$GNEBP,,,,,,M*13
###2023-12-09 12:42:59.143424$GNGGA,174258.30,4138.0419826,N,07032.3961149,W,1,24,0.6,13.278,M,-29.745,M,0.0,*56
###2023-12-09 12:42:59.342900$GNGGA,174258.50,4138.0420773,N,07032.3961541,W,1,24,0.6,13.269,M,-29.745,M,0.0,*59
###2023-12-09 12:42:59.544156$GNGGA,174258.70,4138.0421687,N,07032.3961757,W,1,24,0.6,13.259,M,-29.745,M,0.0,*56
###2023-12-09 12:42:59.743456$GNGGA,174258.90,4138.0422602,N,07032.3961797,W,1,24,0.6,13.265,M,-29.745,M,0.0,*55
###2023-12-09 12:42:59.943947$GNRMC,174259.10,A,4138.0423501,N,07032.3961769,W,1.57,0.26,091223,,,A*5F
