###2023-12-09 13:34:30.024030$GBGSV,2,1,07,12,15,126,40,14,29,190,41,24,62,046,48,25,51,276,48*6A
###2023-12-09 13:34:30.026093$GBGSV,2,2,07,26,16,070,45,33,46,217,45,35,16,057,44,,,,*5D
###2023-12-09 13:34:30.027453$GNVTG,144.43,T,,M,2.20,N,4.07,K,A*26
###2023-12-09 13:34:30.029074$GNGST,183429.10,5.500,,,,0.089,0.068,0.150*68
###2023-12-09 13:34:30.030371$GNZDA,183429.10,09,12,2023,00,00*75
###2023-12-09 13:34:30.031030$GNEBP,,,,,,M*13
###2023-12-09 13:34:30.197271$GNGGA,183429.30,4138.0538058,N,07032.3966957,W,1,27,0.6,13.176,M,-29.744,M,0.0,*52
###2023-12-09 13:34:30.396019$GNGGA,183429.50,4138.0536877,N,07032.3966365,W,1,27,0.6,13.193,M,-29.745,M,0.0,*5E
###2023-12-09 13:34:30.595388$GNGGA,183429.70,4138.0535812,N,07032.3965685,W,1,27,0.6,13.188,M,-29.745,M,0.0,*5E
###2023-12-09 13:34:30.797094$GNGGA,183429.90,4138.0534702,N,07032.3965201,W,1,27,0.6,13.182,M,-29.745,M,0.0,*5D
###2023-12-09 13:34:31.000668$GNRMC,183430.10,A,4138.0533548,N,07032.3964847,W,2.08,166.39,091223,,,A*53
###2023-12-09 13:34:31.003542$GNGGA,183430.10,4138.0533548,N,07032.3964847,W,1,27,0.6,13.175,M,-29.745,M,0.0,*57
###2023-12-09 13:34:31.005397$GPGSA,A,3,03,04,16,26,27,28,29,31,,,,,1.0,0.6,0.8*3F
###2023-12-09 13:34:31.007184$GLGSA,A,3,65,71,72,73,74,75,83,,,,,,1.0,0.6,0.8*2F
###2023-12-09 13:34:31.008767$GAGSA,A,3,04,19,21,27,,,,,,,,,1.0,0.6,0.8*26
###2023-12-09 13:34:31.010542$GBGSA,A,3,12,14,24,25,26,33,35,,,,,,1.0,0.6,0.8*2A
###2023-12-09 13:34:31.012872$GPGSV,2,1,08,03,27,247,40,04,46,308,44,16,66,222,45,26,84,040,48*78
###2023-12-09 13:34:31.015212$GPGSV,2,2,08,27,16,172,37,28,38,084,45,29,21,047,41,31,59,066,47*7C
###2023-12-09 13:34:31.017550$GLGSV,2,1,07,65,38,319,42,71,23,175,39,72,63,222,45,73,23,052,42*6D
###2023-12-09 13:34:31.019607$GLGSV,2,2,07,74,60,013,42,75,43,271,47,83,15,048,35,,,,*54
###2023-12-09 13:34:31.021946$GAGSV,1,1,04,04,40,310,43,19,72,181,39,21,77,046,45,27,22,050,39*6C
###2023-12-09 13:34:31.024295$GBGSV,2,1,07,12,15,126,42,14,29,190,41,24,62,046,48,25,51,276,47*67
###2023-12-09 13:34:31.026345$GBGSV,2,2,07,26,16,071,43,33,46,217,44,35,16,057,44,,,,*5B
###2023-12-09 13:34:31.027686$GNVTG,166.39,T,,M,2.08,N,3.85,K,A*2C
###2023-12-09 13:34:31.029308$GNGST,183430.10,5.700,,,,0.090,0.068,0.150*6A
###2023-12-09 13:34:31.030618$GNZDA,183430.10,09,12,2023,00,00*7D
###2023-12-09 13:34:31.031261$GNEBP,,,,,,M*13
###2023-12-09 13:34:31.195900$GNGGA,183430.30,4138.0532464,N,07032.3964641,W,1,27,0.6,13.179,M,-29.745,M,0.0,*5F
###2023-12-09 13:34:31.396306$GNGGA,183430.50,4138.0531379,N,07032.3964579,W,1,27,0.6,13.181,M,-29.745,M,0.0,*5E
###2023-12-09 13:34:31.594093$GNGGA,183430.70,4138.0530298,N,07032.3964595,W,1,27,0.6,13.181,M,-29.745,M,0.0,*51
###2023-12-09 13:34:31.796231$GNGGA,183430.90,4138.0529244,N,07032.3964613,W,1,27,0.6,13.175,M,-29.745,M,0.0,*50
###2023-12-09 13:34:31.998926$GNRMC,183431.10,A,4138.0528234,N,07032.3964764,W,1.83,195.28,091223,,,A*56
###2023-12-09 13:34:32.001857$GNGGA,183431.10,4138.0528234,N,07032.3964764,W,1,27,0.6,13.177,M,-29.745,M,0.0,*5C
###2023-12-09 13:34:32.003721$GPGSA,A,3,03,04,16,26,27,28,29,31,,,,,1.0,0.6,0.8*3F
###2023-12-09 13:34:32.005496$GLGSA,A,3,65,71,72,73,74,75,83,,,,,,1.0,0.6,0.8*2F
###2023-12-09 13:34:32.007084$GAGSA,A,3,04,19,21,27,,,,,,,,,1.0,0.6,0.8*26
###2023-12-09 13:34:32.008853$GBGSA,A,3,12,14,24,25,26,33,35,,,,,,1.0,0.6,0.8*2A
###2023-12-09 13:34:32.011182$GPGSV,2,1,08,03,27,247,40,04,46,308,46,16,66,222,45,26,84,040,48*7A
###2023-12-09 13:34:32.013509$GPGSV,2,2,08,27,16,172,41,28,38,084,44,29,21,047,43,31,59,066,47*7E
###2023-12-09 13:34:32.015844$GLGSV,2,1,07,65,38,319,44,71,23,175,41,72,63,222,44,73,23,052,44*63
###2023-12-09 13:34:32.017874$GLGSV,2,2,07,74,60,013,42,75,43,271,45,83,15,048,36,,,,*55
###2023-12-09 13:34:32.020222$GAGSV,1,1,04,04,40,310,44,19,72,181,40,21,77,046,46,27,22,050,41*69
###2023-12-09 13:34:32.022558$GBGSV,2,1,07,12,15,126,41,14,29,190,41,24,62,046,47,25,51,276,46*6A
###2023-12-09 13:34:32.024610$GBGSV,2,2,07,26,16,071,43,33,46,217,44,35,16,057,44,,,,*5B
###2023-12-09 13:34:32.025933$GNVTG,195.28,T,,M,1.83,N,3.38,K,A*26
###2023-12-09 13:34:32.027569$GNGST,183431.10,5.600,,,,0.090,0.068,0.150*6A
###2023-12-09 13:34:32.028864$GNZDA,183431.10,09,12,2023,00,00*7C
###2023-12-09 13:34:32.029501$GNEBP,,,,,,M*13
###2023-12-09 13:34:32.196955$GNGGA,183431.30,4138.0527294,N,07032.3965201,W,1,27,0.6,13.189,M,-29.745,M,0.0,*5D
###2023-12-09 13:34:32.394983$GNGGA,183431.50,4138.0526311,N,07032.3965580,W,1,27,0.6,13.179,M,-29.745,M,0.0,*57
###2023-12-09 13:34:32.595320$GNGGA,183431.70,4138.0525373,N,07032.3965886,W,1,27,0.6,13.166,M,-29.745,M,0.0,*57
###2023-12-09 13:34:32.795444$GNGGA,183431.90,4138.0524444,N,07032.3966336,W,1,27,0.6,13.183,M,-29.745,M,0.0,*53
###2023-12-09 13:34:33.006349$GNRMC,183432.10,A,4138.0523502,N,07032.3966857,W,1.83,204.30,091223,,,A*53
###2023-12-09 13:34:33.009228$GNGGA,183432.10,4138.0523502,N,07032.3966857,W,1,27,0.6,13.179,M,-29.745,M,0.0,*55
###2023-12-09 13:34:33.011103$GPGSA,A,3,03,04,16,26,27,28,29,31,,,,,1.0,0.6,0.8*3F
###2023-12-09 13:34:33.012876$GLGSA,A,3,65,71,72,73,74,75,83,,,,,,1.0,0.6,0.8*2F
###2023-12-09 13:34:33.014452$GAGSA,A,3,04,19,21,27,,,,,,,,,1.0,0.6,0.8*26
###2023-12-09 13:34:33.016242$GBGSA,A,3,12,14,24,25,26,33,35,,,,,,1.0,0.6,0.8*2A
###2023-12-09 13:34:33.018590$GPGSV,2,1,08,03,27,247,40,04,46,308,45,16,66,222,45,26,84,040,48*79
###2023-12-09 13:34:33.020912$GPGSV,2,2,08,27,16,172,40,28,38,084,43,29,21,047,43,31,59,066,46*79
###2023-12-09 13:34:33.023255$GLGSV,2,1,07,65,38,319,44,71,23,175,41,72,63,222,44,73,23,052,44*63
###2023-12-09 13:34:33.025291$GLGSV,2,2,07,74,60,013,42,75,43,271,46,83,15,048,36,,,,*56
###2023-12-09 13:34:33.027634$GAGSV,1,1,04,04,40,310,45,19,72,181,40,21,77,046,46,27,22,050,41*68
###2023-12-09 13:34:33.029957$GBGSV,2,1,07,12,15,126,41,14,29,190,41,24,62,046,46,25,51,276,46*6B
###2023-12-09 13:34:33.032008$GBGSV,2,2,07,26,16,071,43,33,46,217,44,35,16,057,44,,,,*5B
###2023-12-09 13:34:33.033338$GNVTG,204.30,T,,M,1.83,N,3.38,K,A*24
###2023-12-09 13:34:33.034967$GNGST,183432.10,6.100,,,,0.089,0.068,0.150*65
###2023-12-09 13:34:33.036259$GNZDA,183432.10,09,12,2023,00,00*7F
###2023-12-09 13:34:33.036899$GNEBP,,,,,,M*13
###2023-12-09 13:34:33.203899$GNGGA,183432.30,4138.0522604,N,07032.3967431,W,1,27,0.6,13.174,M,-29.745,M,0.0,*53
###2023-12-09 13:34:33.394937$GNGGA,183432.50,4138.0521758,N,07032.3968170,W,1,27,0.6,13.190,M,-29.745,M,0.0,*5B
###2023-12-09 13:34:33.595214$GNGGA,183432.70,4138.0520889,N,07032.3968924,W,1,27,0.6,13.199,M,-29.745,M,0.0,*5B
###2023-12-09 13:34:33.797024$GNGGA,183432.90,4138.0519975,N,07032.3969512,W,1,27,0.6,13.172,M,-29.745,M,0.0,*50
###2023-12-09 13:34:34.000728$GNRMC,183433.10,A,4138.0519066,N,07032.3970090,W,1.89,209.41,091223,,,A*59
###2023-12-09 13:34:34.003599$GNGGA,183433.10,4138.0519066,N,07032.3970090,W,1,27,0.6,13.160,M,-29.745,M,0.0,*56
###2023-12-09 13:34:34.005462$GPGSA,A,3,03,04,16,26,27,28,29,31,,,,,1.0,0.6,0.8*3F
###2023-12-09 13:34:34.007253$GLGSA,A,3,65,71,72,73,74,75,83,,,,,,1.0,0.6,0.8*2F
###2023-12-09 13:34:34.008834$GAGSA,A,3,04,19,21,27,,,,,,,,,1.0,0.6,0.8*26
###2023-12-09 13:34:34.010619$GBGSA,A,3,12,14,24,25,26,33,35,,,,,,1.0,0.6,0.8*2A
###2023-12-09 13:34:34.012950$GPGSV,2,1,08,03,27,247,38,04,46,308,45,16,66,222,44,26,84,040,48*77
###2023-12-09 13:34:34.015297$GPGSV,2,2,08,27,16,172,40,28,38,084,43,29,21,047,43,31,59,066,46*79
###2023-12-09 13:34:34.017624$GLGSV,2,1,07,65,38,319,44,71,23,175,41,72,63,222,45,73,23,052,45*63
###2023-12-09 13:34:34.019677$GLGSV,2,2,07,74,60,013,42,75,43,271,46,83,15,048,36,,,,*56
###2023-12-09 13:34:34.022003$GAGSV,1,1,04,04,40,310,44,19,72,181,40,21,77,046,46,27,22,050,41*69
###2023-12-09 13:34:34.024345$GBGSV,2,1,07,12,15,126,43,14,29,190,41,24,62,046,48,25,51,276,47*66
###2023-12-09 13:34:34.026380$GBGSV,2,2,07,26,16,071,44,33,46,217,46,35,16,057,46,,,,*5C
###2023-12-09 13:34:34.027713$GNVTG,209.41,T,,M,1.89,N,3.49,K,A*23
###2023-12-09 13:34:34.029329$GNGST,183433.10,5.800,,,,0.089,0.068,0.150*6E
###2023-12-09 13:34:34.030629$GNZDA,183433.10,09,12,2023,00,00*7E
###2023-12-09 13:34:34.031265$GNEBP,,,,,,M*13
###2023-12-09 13:34:34.196502$GNGGA,183433.30,4138.0518204,N,07032.3970878,W,1,27,0.6,13.181,M,-29.745,M,0.0,*52
###2023-12-09 13:34:34.393850$GNGGA,183433.50,4138.0517421,N,07032.3971778,W,1,27,0.6,13.204,M,-29.745,M,0.0,*5A
###2023-12-09 13:34:34.594069$GNGGA,183433.70,4138.0516539,N,07032.3972554,W,1,27,0.6,13.193,M,-29.745,M,0.0,*53
###2023-12-09 13:34:34.794863$GNGGA,183433.90,4138.0515613,N,07032.3973082,W,1,27,0.6,13.167,M,-29.745,M,0.0,*51
###2023-12-09 13:34:35.001493$GNRMC,183434.10,A,4138.0514814,N,07032.3973914,W,1.98,228.22,091223,,,A*5E
###2023-12-09 13:34:35.004380$GNGGA,183434.10,4138.0514814,N,07032.3973914,W,1,27,0.6,13.190,M,-29.745,M,0.0,*58
###2023-12-09 13:34:35.006241$GPGSA,A,3,03,04,16,26,27,28,29,31,,,,,1.0,0.6,0.8*3F
###2023-12-09 13:34:35.008038$GLGSA,A,3,65,71,72,73,74,75,83,,,,,,1.0,0.6,0.8*2F
###2023-12-09 13:34:35.009620$GAGSA,A,3,04,19,21,27,,,,,,,,,1.0,0.6,0.8*26
###2023-12-09 13:34:35.011399$GBGSA,A,3,12,14,24,25,26,33,35,,,,,,1.0,0.6,0.8*2A
