###2023-12-09 13:33:52.016836$GLGSV,2,2,07,74,60,013,42,75,43,271,46,83,15,048,36,,,,*56
###2023-12-09 13:33:52.019211$GAGSV,1,1,04,04,40,310,43,19,73,182,40,21,77,047,46,27,23,050,42*6F
###2023-12-09 13:33:52.021549$GBGSV,2,1,07,12,15,126,43,14,29,190,42,24,63,045,49,25,50,275,46*65
###2023-12-09 13:33:52.023614$GBGSV,2,2,07,26,16,070,45,33,46,217,45,35,16,057,45,,,,*5C
###2023-12-09 13:33:52.024943$GNVTG,198.72,T,,M,2.84,N,5.26,K,A*29
###2023-12-09 13:33:52.026576$GNGST,183351.10,5.900,,,,0.092,0.068,0.150*66
###2023-12-09 13:33:52.027875$GNZDA,183351.10,09,12,2023,00,00*7D
###2023-12-09 13:33:52.028517$GNEBP,,,,,,M*13
###2023-12-09 13:33:52.195049$GNGGA,183351.30,4138.0445259,N,07032.4166412,W,1,26,0.6,13.514,M,-29.745,M,0.0,*51
###2023-12-09 13:33:52.393779$GNGGA,183351.50,4138.0443805,N,07032.4167447,W,1,26,0.6,13.543,M,-29.745,M,0.0,*51
###2023-12-09 13:33:52.593984$GNGGA,183351.70,4138.0442307,N,07032.4168014,W,1,26,0.6,13.546,M,-29.745,M,0.0,*53
###2023-12-09 13:33:52.793666$GNGGA,183351.90,4138.0440729,N,07032.4168018,W,1,26,0.6,13.497,M,-29.745,M,0.0,*56
###2023-12-09 13:33:52.998725$GNRMC,183352.10,A,4138.0439185,N,07032.4168447,W,3.09,203.09,091223,,,A*52
###2023-12-09 13:33:53.001615$GNGGA,183352.10,4138.0439185,N,07032.4168447,W,1,26,0.6,13.489,M,-29.745,M,0.0,*52
###2023-12-09 13:33:53.003418$GPGSA,A,3,03,04,16,26,28,29,31,,,,,,1.0,0.6,0.9*3B
###2023-12-09 13:33:53.005198$GLGSA,A,3,65,71,72,73,74,75,83,,,,,,1.0,0.6,0.9*2E
###2023-12-09 13:33:53.006791$GAGSA,A,3,04,19,21,27,,,,,,,,,1.0,0.6,0.9*27
###2023-12-09 13:33:53.008569$GBGSA,A,3,12,14,24,25,26,33,35,,,,,,1.0,0.6,0.9*2B
###2023-12-09 13:33:53.010910$GPGSV,2,1,07,03,27,247,40,04,46,308,43,16,66,222,45,26,84,040,47*7F
###2023-12-09 13:33:53.012951$GPGSV,2,2,07,28,38,084,45,29,21,047,44,31,59,066,48,,,,*4B
###2023-12-09 13:33:53.015298$GLGSV,2,1,07,65,38,319,41,71,23,175,41,72,63,222,44,73,23,052,45*67
###2023-12-09 13:33:53.017339$GLGSV,2,2,07,74,60,013,42,75,43,271,46,83,15,048,36,,,,*56
###2023-12-09 13:33:53.019695$GAGSV,1,1,04,04,40,310,42,19,73,182,40,21,77,047,46,27,23,050,43*6F
###2023-12-09 13:33:53.022024$GBGSV,2,1,07,12,15,126,44,14,29,190,40,24,63,045,51,25,50,275,47*68
###2023-12-09 13:33:53.024072$GBGSV,2,2,07,26,16,070,47,33,46,217,47,35,16,057,46,,,,*5F
###2023-12-09 13:33:53.025395$GNVTG,203.09,T,,M,3.09,N,5.72,K,A*21
###2023-12-09 13:33:53.027016$GNGST,183352.10,5.900,,,,0.092,0.068,0.150*65
###2023-12-09 13:33:53.028306$GNZDA,183352.10,09,12,2023,00,00*7E
###2023-12-09 13:33:53.028941$GNEBP,,,,,,M*13
###2023-12-09 13:33:53.193667$GNGGA,183352.30,4138.0437577,N,07032.4169545,W,1,25,0.6,13.537,M,-29.745,M,0.0,*52
###2023-12-09 13:33:53.391793$GNGGA,183352.50,4138.0435930,N,07032.4170203,W,1,25,0.6,13.531,M,-29.745,M,0.0,*52
###2023-12-09 13:33:53.592551$GNGGA,183352.70,4138.0434300,N,07032.4169922,W,1,25,0.6,13.507,M,-29.745,M,0.0,*5D
###2023-12-09 13:33:53.791944$GNGGA,183352.90,4138.0432735,N,07032.4169647,W,1,26,0.6,13.478,M,-29.745,M,0.0,*51
###2023-12-09 13:33:53.996959$GNRMC,183353.10,A,4138.0430994,N,07032.4170156,W,3.44,197.09,091223,,,A*59
###2023-12-09 13:33:53.999836$GNGGA,183353.10,4138.0430994,N,07032.4170156,W,1,26,0.6,13.515,M,-29.745,M,0.0,*5A
###2023-12-09 13:33:54.001629$GPGSA,A,3,03,04,16,26,28,29,31,,,,,,1.0,0.6,0.9*3B
###2023-12-09 13:33:54.003425$GLGSA,A,3,65,71,72,73,74,75,83,,,,,,1.0,0.6,0.9*2E
###2023-12-09 13:33:54.005011$GAGSA,A,3,04,19,21,27,,,,,,,,,1.0,0.6,0.9*27
###2023-12-09 13:33:54.006796$GBGSA,A,3,12,14,24,25,26,33,35,,,,,,1.0,0.6,0.9*2B
###2023-12-09 13:33:54.009127$GPGSV,2,1,07,03,27,247,42,04,46,308,43,16,66,222,45,26,84,040,48*72
###2023-12-09 13:33:54.011180$GPGSV,2,2,07,28,38,084,46,29,21,047,44,31,59,066,47,,,,*47
###2023-12-09 13:33:54.013517$GLGSV,2,1,07,65,38,319,42,71,23,175,37,72,63,222,45,73,23,052,44*65
###2023-12-09 13:33:54.015570$GLGSV,2,2,07,74,60,013,42,75,43,271,47,83,15,048,36,,,,*57
###2023-12-09 13:33:54.017904$GAGSV,1,1,04,04,40,310,42,19,73,182,40,21,77,047,46,27,23,050,43*6F
###2023-12-09 13:33:54.020254$GBGSV,2,1,07,12,15,126,42,14,29,190,39,24,63,045,48,25,50,275,47*68
###2023-12-09 13:33:54.022294$GBGSV,2,2,07,26,16,070,44,33,46,217,44,35,16,057,44,,,,*5D
###2023-12-09 13:33:54.023628$GNVTG,197.09,T,,M,3.44,N,6.37,K,A*24
###2023-12-09 13:33:54.025281$GNGST,183353.10,5.400,,,,0.093,0.068,0.150*68
###2023-12-09 13:33:54.026589$GNZDA,183353.10,09,12,2023,00,00*7F
###2023-12-09 13:33:54.027230$GNEBP,,,,,,M*13
###2023-12-09 13:33:54.193596$GNGGA,183353.30,4138.0429193,N,07032.4170627,W,1,25,0.6,13.509,M,-29.745,M,0.0,*50
###2023-12-09 13:33:54.394932$GNGGA,183353.50,4138.0427545,N,07032.4170268,W,1,25,0.6,13.503,M,-29.745,M,0.0,*52
###2023-12-09 13:33:54.594048$GNGGA,183353.70,4138.0426013,N,07032.4169556,W,1,25,0.6,13.497,M,-29.745,M,0.0,*59
###2023-12-09 13:33:54.795908$GNGGA,183353.90,4138.0424340,N,07032.4169182,W,1,23,0.6,13.485,M,-29.745,M,0.0,*58
###2023-12-09 13:33:54.998498$GNRMC,183354.10,A,4138.0422538,N,07032.4169108,W,3.30,176.55,091223,,,A*51
###2023-12-09 13:33:55.001373$GNGGA,183354.10,4138.0422538,N,07032.4169108,W,1,23,0.6,13.501,M,-29.745,M,0.0,*57
###2023-12-09 13:33:55.003179$GPGSA,A,3,03,04,16,26,28,29,31,,,,,,1.1,0.6,0.9*3A
###2023-12-09 13:33:55.004825$GLGSA,A,3,65,72,73,74,75,,,,,,,,1.1,0.6,0.9*22
###2023-12-09 13:33:55.006402$GAGSA,A,3,04,19,21,27,,,,,,,,,1.1,0.6,0.9*26
###2023-12-09 13:33:55.008120$GBGSA,A,3,12,24,25,26,33,35,,,,,,,1.1,0.6,0.9*2F
###2023-12-09 13:33:55.010435$GPGSV,2,1,07,03,27,247,42,04,46,308,44,16,66,222,45,26,84,040,47*7A
###2023-12-09 13:33:55.012478$GPGSV,2,2,07,28,38,084,43,29,21,047,43,31,59,066,47,,,,*45
###2023-12-09 13:33:55.014812$GLGSV,2,1,05,65,38,319,43,72,63,222,44,73,23,052,44,74,60,013,43*67
###2023-12-09 13:33:55.016296$GLGSV,2,2,05,75,43,271,48,,,,,,,,,,,,*5D
###2023-12-09 13:33:55.018630$GAGSV,1,1,04,04,40,310,42,19,73,182,39,21,77,047,45,27,23,050,41*60
###2023-12-09 13:33:55.020958$GBGSV,2,1,06,12,15,126,40,24,63,045,48,25,50,275,48,26,16,070,45*6D
###2023-12-09 13:33:55.022720$GBGSV,2,2,06,33,46,217,46,35,16,057,44,,,,,,,,*6A
###2023-12-09 13:33:55.024043$GNVTG,176.55,T,,M,3.30,N,6.12,K,A*26
###2023-12-09 13:33:55.025656$GNGST,183354.10,5.100,,,,0.094,0.068,0.150*6D
###2023-12-09 13:33:55.026954$GNZDA,183354.10,09,12,2023,00,00*78
###2023-12-09 13:33:55.027590$GNEBP,,,,,,M*13
###2023-12-09 13:33:55.195637$GNGGA,183354.30,4138.0420785,N,07032.4168680,W,1,24,0.6,13.493,M,-29.745,M,0.0,*58
###2023-12-09 13:33:55.394934$GNGGA,183354.50,4138.0419245,N,07032.4167712,W,1,24,0.6,13.502,M,-29.745,M,0.0,*51
###2023-12-09 13:33:55.595409$GNGGA,183354.70,4138.0417749,N,07032.4166675,W,1,25,0.6,13.499,M,-29.745,M,0.0,*57
###2023-12-09 13:33:55.795642$GNGGA,183354.90,4138.0416066,N,07032.4165861,W,1,25,0.6,13.504,M,-29.745,M,0.0,*5F
###2023-12-09 13:33:55.999612$GNRMC,183355.10,A,4138.0414372,N,07032.4165031,W,3.23,155.79,091223,,,A*57
###2023-12-09 13:33:56.002483$GNGGA,183355.10,4138.0414372,N,07032.4165031,W,1,24,0.6,13.499,M,-29.745,M,0.0,*5B
###2023-12-09 13:33:56.004292$GPGSA,A,3,03,04,16,26,28,29,31,,,,,,1.1,0.6,0.9*3A
###2023-12-09 13:33:56.005937$GLGSA,A,3,65,72,73,74,75,,,,,,,,1.1,0.6,0.9*22
###2023-12-09 13:33:56.007529$GAGSA,A,3,04,19,21,27,,,,,,,,,1.1,0.6,0.9*26
###2023-12-09 13:33:56.009296$GBGSA,A,3,12,14,24,25,26,33,35,,,,,,1.1,0.6,0.9*2A
###2023-12-09 13:33:56.011635$GPGSV,2,1,07,03,27,247,44,04,46,308,46,16,66,222,46,26,84,040,48*72
###2023-12-09 13:33:56.013674$GPGSV,2,2,07,28,38,084,44,29,21,047,42,31,59,066,47,,,,*43
###2023-12-09 13:33:56.016023$GLGSV,2,1,05,65,38,319,44,72,63,222,45,73,23,052,44,74,60,013,43*61
###2023-12-09 13:33:56.017474$GLGSV,2,2,05,75,43,271,47,,,,,,,,,,,,*52
###2023-12-09 13:33:56.019803$GAGSV,1,1,04,04,40,310,43,19,73,182,40,21,77,047,46,27,23,050,42*6F
###2023-12-09 13:33:56.022123$GBGSV,2,1,07,12,15,126,39,14,29,190,36,24,63,045,47,25,50,275,46*65
###2023-12-09 13:33:56.024162$GBGSV,2,2,07,26,16,070,42,33,46,217,45,35,16,057,43,,,,*5D
###2023-12-09 13:33:56.025475$GNVTG,155.79,T,,M,3.23,N,5.98,K,A*2A
###2023-12-09 13:33:56.027091$GNGST,183355.10,5.300,,,,0.096,0.068,0.150*6C
###2023-12-09 13:33:56.028376$GNZDA,183355.10,09,12,2023,00,00*79
###2023-12-09 13:33:56.029252$GNEBP,,,,,,M*13
###2023-12-09 13:33:56.195545$GNGGA,183355.30,4138.0412898,N,07032.4163884,W,1,24,0.6,13.500,M,-29.745,M,0.0,*51
###2023-12-09 13:33:56.395740$GNGGA,183355.50,4138.0411542,N,07032.4162536,W,1,25,0.6,13.510,M,-29.745,M,0.0,*5B
###2023-12-09 13:33:56.597775$GNGGA,183355.70,4138.0410143,N,07032.4161173,W,1,25,0.6,13.502,M,-29.745,M,0.0,*58
###2023-12-09 13:33:56.793614$GNGGA,183355.90,4138.0408780,N,07032.4159902,W,1,25,0.6,13.503,M,-29.745,M,0.0,*52
###2023-12-09 13:33:57.003202$GNRMC,183356.10,A,4138.0407362,N,07032.4158573,W,3.19,141.61,091223,,,A*5F
###2023-12-09 13:33:57.006062$GNGGA,183356.10,4138.0407362,N,07032.4158573,W,1,25,0.6,13.525,M,-29.745,M,0.0,*51
###2023-12-09 13:33:57.007867$GPGSA,A,3,03,04,16,26,28,29,31,,,,,,1.1,0.6,0.9*3A
###2023-12-09 13:33:57.009575$GLGSA,A,3,65,72,73,74,75,83,,,,,,,1.1,0.6,0.9*29
