###2023-12-09 13:20:17.993066$GLGSA,A,3,65,71,72,73,74,75,,,,,,,1.1,0.7,0.9*25
###2023-12-09 13:20:17.994701$GAGSA,A,3,04,19,21,27,,,,,,,,,1.1,0.7,0.9*27
###2023-12-09 13:20:17.996419$GBGSA,A,3,14,24,25,26,33,35,,,,,,,1.1,0.7,0.9*28
###2023-12-09 13:20:17.998760$GPGSV,2,1,07,03,31,253,44,04,40,310,47,16,59,217,48,26,89,196,50*74
###2023-12-09 13:20:18.000799$GPGSV,2,2,07,28,43,079,46,29,23,053,43,31,64,055,49,,,,*49
###2023-12-09 13:20:18.003136$GLGSV,2,1,06,65,32,324,42,71,31,174,41,72,69,237,46,73,28,047,43*66
###2023-12-09 13:20:18.004788$GLGSV,2,2,06,74,65,,43,75,38,262,47,,,,,,,,*58
###2023-12-09 13:20:18.007127$GAGSV,1,1,04,04,35,311,44,19,78,187,40,21,82,056,47,27,27,049,40*60
###2023-12-09 13:20:18.009439$GBGSV,2,1,06,14,35,191,40,24,68,038,49,25,46,269,48,26,20,067,42*6B
###2023-12-09 13:20:18.011190$GBGSV,2,2,06,33,51,223,47,35,16,062,43,,,,,,,,*6B
###2023-12-09 13:20:18.012514$GNVTG,172.11,T,,M,3.44,N,6.37,K,A*26
###2023-12-09 13:20:18.014165$GNGST,182017.10,18.000,,,,0.100,0.069,0.160*5B
###2023-12-09 13:20:18.015471$GNZDA,182017.10,09,12,2023,00,00*7D
###2023-12-09 13:20:18.016113$GNEBP,,,,,,M*13
###2023-12-09 13:20:18.182495$GNGGA,182017.30,4138.0560987,N,07032.3268904,W,1,24,0.7,12.776,M,-29.743,M,0.0,*5D
###2023-12-09 13:20:18.383550$GNGGA,182017.50,4138.0559030,N,07032.3268950,W,1,24,0.7,12.778,M,-29.743,M,0.0,*5B
###2023-12-09 13:20:18.583236$GNGGA,182017.70,4138.0557095,N,07032.3269094,W,1,24,0.7,12.771,M,-29.743,M,0.0,*51
###2023-12-09 13:20:18.783423$GNGGA,182017.90,4138.0555153,N,07032.3269153,W,1,24,0.7,12.765,M,-29.743,M,0.0,*59
###2023-12-09 13:20:18.988697$GNRMC,182018.10,A,4138.0553220,N,07032.3269230,W,3.36,187.23,091223,,,A*57
###2023-12-09 13:20:18.992192$GNGGA,182018.10,4138.0553220,N,07032.3269230,W,1,24,0.7,12.758,M,-29.743,M,0.0,*57
###2023-12-09 13:20:18.994363$GPGSA,A,3,03,04,16,26,28,29,31,,,,,,1.1,0.7,0.9*3B
###2023-12-09 13:20:18.996455$GLGSA,A,3,65,71,72,73,74,75,,,,,,,1.1,0.7,0.9*25
###2023-12-09 13:20:18.998377$GAGSA,A,3,04,19,21,27,,,,,,,,,1.1,0.7,0.9*27
###2023-12-09 13:20:19.000467$GBGSA,A,3,14,24,25,26,33,35,,,,,,,1.1,0.7,0.9*28
###2023-12-09 13:20:19.003304$GPGSV,2,1,07,03,31,253,43,04,40,310,46,16,59,217,47,26,89,196,49*75
###2023-12-09 13:20:19.005770$GPGSV,2,2,07,28,43,079,46,29,23,053,44,31,64,055,48,,,,*4F
###2023-12-09 13:20:19.008601$GLGSV,2,1,06,65,32,324,43,71,31,174,43,72,69,237,45,73,28,047,43*66
###2023-12-09 13:20:19.010599$GLGSV,2,2,06,74,65,,43,75,38,262,46,,,,,,,,*59
###2023-12-09 13:20:19.013422$GAGSV,1,1,04,04,35,311,43,19,78,187,40,21,82,056,47,27,27,049,40*67
###2023-12-09 13:20:19.016249$GBGSV,2,1,06,14,35,191,41,24,68,038,49,25,46,269,47,26,20,067,44*63
###2023-12-09 13:20:19.018361$GBGSV,2,2,06,33,51,223,46,35,16,062,44,,,,,,,,*6D
###2023-12-09 13:20:19.019967$GNVTG,187.23,T,,M,3.36,N,6.23,K,A*2D
###2023-12-09 13:20:19.021981$GNGST,182018.10,18.000,,,,0.100,0.069,0.160*54
###2023-12-09 13:20:19.023551$GNZDA,182018.10,09,12,2023,00,00*72
###2023-12-09 13:20:19.024321$GNEBP,,,,,,M*13
###2023-12-09 13:20:19.182474$GNGGA,182018.30,4138.0551331,N,07032.3269632,W,1,24,0.7,12.784,M,-29.743,M,0.0,*51
###2023-12-09 13:20:19.382334$GNGGA,182018.50,4138.0549371,N,07032.3269784,W,1,24,0.7,12.760,M,-29.743,M,0.0,*5C
###2023-12-09 13:20:19.583109$GNGGA,182018.70,4138.0547467,N,07032.3269786,W,1,24,0.7,12.746,M,-29.743,M,0.0,*56
###2023-12-09 13:20:19.783045$GNGGA,182018.90,4138.0545524,N,07032.3270060,W,1,24,0.7,12.777,M,-29.743,M,0.0,*59
###2023-12-09 13:20:19.986736$GNRMC,182019.10,A,4138.0543587,N,07032.3270382,W,3.50,183.90,091223,,,A*51
###2023-12-09 13:20:19.990192$GNGGA,182019.10,4138.0543587,N,07032.3270382,W,1,24,0.7,12.782,M,-29.743,M,0.0,*5A
###2023-12-09 13:20:19.992366$GPGSA,A,3,03,04,16,26,28,29,31,,,,,,1.1,0.7,0.9*3B
###2023-12-09 13:20:19.994442$GLGSA,A,3,65,71,72,73,74,75,,,,,,,1.1,0.7,0.9*25
###2023-12-09 13:20:19.996377$GAGSA,A,3,04,19,21,27,,,,,,,,,1.1,0.7,0.9*27
###2023-12-09 13:20:19.998445$GBGSA,A,3,14,24,25,26,33,35,,,,,,,1.1,0.7,0.9*28
###2023-12-09 13:20:20.001274$GPGSV,2,1,07,03,31,253,42,04,40,310,46,16,59,217,46,26,89,196,49*75
###2023-12-09 13:20:20.003756$GPGSV,2,2,07,28,43,079,45,29,23,053,41,31,64,055,48,,,,*49
###2023-12-09 13:20:20.006574$GLGSV,2,1,06,65,32,324,44,71,31,174,42,72,69,237,46,73,28,047,43*63
###2023-12-09 13:20:20.008569$GLGSV,2,2,06,74,65,,43,75,38,262,47,,,,,,,,*58
###2023-12-09 13:20:20.011381$GAGSV,1,1,04,04,35,311,44,19,78,187,40,21,82,056,47,27,27,049,40*60
###2023-12-09 13:20:20.014212$GBGSV,2,1,06,14,35,191,42,24,68,038,49,25,46,269,48,26,20,067,43*68
###2023-12-09 13:20:20.016335$GBGSV,2,2,06,33,51,223,46,35,16,062,45,,,,,,,,*6C
###2023-12-09 13:20:20.017927$GNVTG,183.90,T,,M,3.50,N,6.48,K,A*2C
###2023-12-09 13:20:20.019916$GNGST,182019.10,18.000,,,,0.100,0.069,0.160*55
###2023-12-09 13:20:20.021471$GNZDA,182019.10,09,12,2023,00,00*73
###2023-12-09 13:20:20.022239$GNEBP,,,,,,M*13
###2023-12-09 13:20:20.181539$GNGGA,182019.30,4138.0541666,N,07032.3270378,W,1,24,0.7,12.762,M,-29.743,M,0.0,*5D
###2023-12-09 13:20:20.381706$GNGGA,182019.50,4138.0539718,N,07032.3270368,W,1,24,0.7,12.761,M,-29.743,M,0.0,*5E
###2023-12-09 13:20:20.582221$GNGGA,182019.70,4138.0537786,N,07032.3270506,W,1,24,0.7,12.767,M,-29.743,M,0.0,*5D
###2023-12-09 13:20:20.782935$GNGGA,182019.90,4138.0535919,N,07032.3270938,W,1,24,0.7,12.808,M,-29.743,M,0.0,*5E
###2023-12-09 13:20:20.993378$GNRMC,182020.10,A,4138.0533971,N,07032.3271110,W,3.34,178.03,091223,,,A*5D
###2023-12-09 13:20:20.996282$GNGGA,182020.10,4138.0533971,N,07032.3271110,W,1,24,0.7,12.788,M,-29.743,M,0.0,*50
###2023-12-09 13:20:20.998084$GPGSA,A,3,03,04,16,26,28,29,31,,,,,,1.1,0.7,0.9*3B
###2023-12-09 13:20:20.999817$GLGSA,A,3,65,71,72,73,74,75,,,,,,,1.1,0.7,0.9*25
###2023-12-09 13:20:21.001398$GAGSA,A,3,04,19,21,27,,,,,,,,,1.1,0.7,0.9*27
###2023-12-09 13:20:21.003124$GBGSA,A,3,14,24,25,26,33,35,,,,,,,1.1,0.7,0.9*28
###2023-12-09 13:20:21.005458$GPGSV,2,1,07,03,31,253,43,04,40,310,45,16,59,217,47,26,89,196,48*77
###2023-12-09 13:20:21.007512$GPGSV,2,2,07,28,43,079,45,29,23,053,41,31,64,055,47,,,,*46
###2023-12-09 13:20:21.009849$GLGSV,2,1,06,65,32,324,43,71,31,174,42,72,69,237,46,73,28,047,43*64
###2023-12-09 13:20:21.011508$GLGSV,2,2,06,74,65,,43,75,38,262,47,,,,,,,,*58
###2023-12-09 13:20:21.013835$GAGSV,1,1,04,04,35,311,44,19,78,187,40,21,82,056,46,27,27,049,40*61
###2023-12-09 13:20:21.016181$GBGSV,2,1,06,14,35,191,41,24,68,038,48,25,46,269,48,26,20,067,42*6B
###2023-12-09 13:20:21.017927$GBGSV,2,2,06,33,51,223,47,35,16,062,43,,,,,,,,*6B
###2023-12-09 13:20:21.019264$GNVTG,178.03,T,,M,3.34,N,6.19,K,A*24
###2023-12-09 13:20:21.020915$GNGST,182020.10,18.000,,,,0.100,0.069,0.160*5F
###2023-12-09 13:20:21.022205$GNZDA,182020.10,09,12,2023,00,00*79
###2023-12-09 13:20:21.022856$GNEBP,,,,,,M*13
###2023-12-09 13:20:21.185856$GNGGA,182020.30,4138.0532155,N,07032.3271014,W,1,24,0.7,12.744,M,-29.744,M,0.0,*5F
###2023-12-09 13:20:21.382685$GNGGA,182020.50,4138.0530321,N,07032.3271555,W,1,24,0.7,12.809,M,-29.744,M,0.0,*5C
###2023-12-09 13:20:21.582222$GNGGA,182020.70,4138.0528381,N,07032.3272078,W,1,24,0.7,12.806,M,-29.744,M,0.0,*5B
###2023-12-09 13:20:21.783001$GNGGA,182020.90,4138.0526575,N,07032.3272097,W,1,24,0.7,12.796,M,-29.744,M,0.0,*51
###2023-12-09 13:20:21.985582$GNRMC,182021.10,A,4138.0524710,N,07032.3272028,W,3.52,181.69,091223,,,A*50
###2023-12-09 13:20:21.989068$GNGGA,182021.10,4138.0524710,N,07032.3272028,W,1,24,0.7,12.805,M,-29.744,M,0.0,*5A
###2023-12-09 13:20:21.991244$GPGSA,A,3,03,04,16,26,28,29,31,,,,,,1.1,0.7,0.9*3B
###2023-12-09 13:20:21.993312$GLGSA,A,3,65,71,72,73,74,75,,,,,,,1.1,0.7,0.9*25
###2023-12-09 13:20:21.995226$GAGSA,A,3,04,19,21,27,,,,,,,,,1.1,0.7,0.9*27
###2023-12-09 13:20:21.997288$GBGSA,A,3,14,24,25,26,33,35,,,,,,,1.1,0.7,0.9*28
###2023-12-09 13:20:22.000088$GPGSV,2,1,07,03,31,253,42,04,40,310,45,16,59,217,46,26,89,196,48*77
###2023-12-09 13:20:22.002550$GPGSV,2,2,07,28,43,079,46,29,23,053,44,31,64,055,47,,,,*40
###2023-12-09 13:20:22.005370$GLGSV,2,1,06,65,32,324,41,71,31,174,42,72,69,237,46,73,28,047,44*61
###2023-12-09 13:20:22.007375$GLGSV,2,2,06,74,65,,43,75,38,262,46,,,,,,,,*59
###2023-12-09 13:20:22.010474$GAGSV,1,1,04,04,35,311,42,19,78,187,40,21,82,056,46,27,27,049,41*66
###2023-12-09 13:20:22.013311$GBGSV,2,1,06,14,35,191,41,24,68,038,48,25,46,269,46,26,20,067,43*64
###2023-12-09 13:20:22.015464$GBGSV,2,2,06,33,51,223,45,35,16,062,44,,,,,,,,*6E
###2023-12-09 13:20:22.017065$GNVTG,181.69,T,,M,3.52,N,6.52,K,A*21
###2023-12-09 13:20:22.019063$GNGST,182021.10,18.000,,,,0.100,0.069,0.160*5E
###2023-12-09 13:20:22.020622$GNZDA,182021.10,09,12,2023,00,00*78
###2023-12-09 13:20:22.021392$GNEBP,,,,,,M*13
###2023-12-09 13:20:22.182405$GNGGA,182021.30,4138.0522775,N,07032.3272182,W,1,24,0.7,12.789,M,-29.744,M,0.0,*57
###2023-12-09 13:20:22.383214$GNGGA,182021.50,4138.0520880,N,07032.3272569,W,1,24,0.7,12.806,M,-29.744,M,0.0,*5F
