###2023-12-09 13:10:03.372295$GNGGA,181002.50,4138.0493017,N,07032.2593252,W,1,25,0.6,13.317,M,-29.743,M,0.0,*59
###2023-12-09 13:10:03.572074$GNGGA,181002.70,4138.0491004,N,07032.2593473,W,1,24,0.7,13.312,M,-29.743,M,0.0,*5B
###2023-12-09 13:10:03.772837$GNGGA,181002.90,4138.0489058,N,07032.2593655,W,1,24,0.7,13.305,M,-29.743,M,0.0,*55
###2023-12-09 13:10:03.975932$GNRMC,181003.10,A,4138.0487074,N,07032.2593821,W,3.60,183.99,091223,,,A*5A
###2023-12-09 13:10:03.978814$GNGGA,181003.10,4138.0487074,N,07032.2593821,W,1,24,0.7,13.302,M,-29.743,M,0.0,*56
###2023-12-09 13:10:03.980614$GPGSA,A,3,03,04,16,26,28,29,31,,,,,,1.2,0.7,1.0*30
###2023-12-09 13:10:03.982334$GLGSA,A,3,65,71,72,73,74,75,,,,,,,1.2,0.7,1.0*2E
###2023-12-09 13:10:03.983934$GAGSA,A,3,04,19,21,27,,,,,,,,,1.2,0.7,1.0*2C
###2023-12-09 13:10:03.985651$GBGSA,A,3,14,24,25,26,33,35,,,,,,,1.2,0.7,1.0*23
###2023-12-09 13:10:03.988010$GPGSV,2,1,07,03,33,257,42,04,36,311,45,16,54,214,45,26,84,210,48*7C
###2023-12-09 13:10:03.990061$GPGSV,2,2,07,28,46,074,45,29,24,057,43,31,67,046,47,,,,*4E
###2023-12-09 13:10:03.992416$GLGSV,2,1,06,65,27,326,43,71,36,173,42,72,72,254,46,73,32,044,44*62
###2023-12-09 13:10:03.994175$GLGSV,2,2,06,74,68,348,43,75,35,257,46,,,,,,,,*60
###2023-12-09 13:10:03.996535$GAGSV,1,1,04,04,32,312,43,19,81,196,40,21,85,078,46,27,30,048,42*6A
###2023-12-09 13:10:03.998892$GBGSV,2,1,06,14,40,192,42,24,71,031,49,25,43,265,47,26,24,064,44*6E
###2023-12-09 13:10:04.000655$GBGSV,2,2,06,33,55,228,47,35,15,066,44,,,,,,,,*64
###2023-12-09 13:10:04.001990$GNVTG,183.99,T,,M,3.60,N,6.66,K,A*2A
###2023-12-09 13:10:04.003658$GNGST,181003.10,18.000,,,,0.086,0.065,0.150*5D
###2023-12-09 13:10:04.004956$GNZDA,181003.10,09,12,2023,00,00*7B
###2023-12-09 13:10:04.005599$GNEBP,,,,,,M*13
###2023-12-09 13:10:04.171209$GNGGA,181003.30,4138.0485125,N,07032.2594002,W,1,24,0.7,13.304,M,-29.743,M,0.0,*5B
###2023-12-09 13:10:04.371665$GNGGA,181003.50,4138.0483132,N,07032.2594130,W,1,24,0.7,13.298,M,-29.743,M,0.0,*59
###2023-12-09 13:10:04.571091$GNGGA,181003.70,4138.0481181,N,07032.2594198,W,1,24,0.7,13.294,M,-29.743,M,0.0,*5F
###2023-12-09 13:10:04.773014$GNGGA,181003.90,4138.0479219,N,07032.2594175,W,1,24,0.7,13.290,M,-29.743,M,0.0,*53
###2023-12-09 13:10:04.974819$GNRMC,181004.10,A,4138.0477246,N,07032.2594189,W,3.52,180.21,091223,,,A*5C
###2023-12-09 13:10:04.977705$GNGGA,181004.10,4138.0477246,N,07032.2594189,W,1,24,0.7,13.296,M,-29.743,M,0.0,*5D
###2023-12-09 13:10:04.979521$GPGSA,A,3,03,04,16,26,28,29,31,,,,,,1.2,0.7,1.0*30
###2023-12-09 13:10:04.981247$GLGSA,A,3,65,71,72,73,74,75,,,,,,,1.2,0.7,1.0*2E
###2023-12-09 13:10:04.982852$GAGSA,A,3,04,19,21,27,,,,,,,,,1.2,0.7,1.0*2C
###2023-12-09 13:10:04.984572$GBGSA,A,3,14,24,25,26,33,35,,,,,,,1.2,0.7,1.0*23
###2023-12-09 13:10:04.986911$GPGSV,2,1,07,03,33,257,42,04,36,311,45,16,54,214,45,26,84,210,48*7C
###2023-12-09 13:10:04.988958$GPGSV,2,2,07,28,46,074,45,29,24,057,43,31,67,046,48,,,,*41
###2023-12-09 13:10:04.991305$GLGSV,2,1,06,65,27,326,43,71,36,173,43,72,72,254,46,73,32,044,45*62
###2023-12-09 13:10:04.993063$GLGSV,2,2,06,74,68,348,43,75,35,257,45,,,,,,,,*63
###2023-12-09 13:10:04.995415$GAGSV,1,1,04,04,32,312,43,19,81,196,40,21,85,078,46,27,30,048,42*6A
###2023-12-09 13:10:04.997763$GBGSV,2,1,06,14,40,192,42,24,71,031,49,25,43,265,47,26,24,064,43*69
###2023-12-09 13:10:04.999534$GBGSV,2,2,06,33,55,228,47,35,15,066,43,,,,,,,,*63
###2023-12-09 13:10:05.000866$GNVTG,180.21,T,,M,3.52,N,6.52,K,A*2C
###2023-12-09 13:10:05.002527$GNGST,181004.10,18.000,,,,0.087,0.066,0.150*58
###2023-12-09 13:10:05.003837$GNZDA,181004.10,09,12,2023,00,00*7C
###2023-12-09 13:10:05.004479$GNEBP,,,,,,M*13
###2023-12-09 13:10:05.172642$GNGGA,181004.30,4138.0475254,N,07032.2594101,W,1,24,0.7,13.289,M,-29.743,M,0.0,*50
###2023-12-09 13:10:05.370294$GNGGA,181004.50,4138.0473265,N,07032.2593955,W,1,24,0.7,13.272,M,-29.743,M,0.0,*58
###2023-12-09 13:10:05.572026$GNGGA,181004.70,4138.0471324,N,07032.2593833,W,1,24,0.7,13.281,M,-29.743,M,0.0,*51
###2023-12-09 13:10:05.772097$GNGGA,181004.90,4138.0469274,N,07032.2593794,W,1,24,0.7,13.278,M,-29.743,M,0.0,*56
###2023-12-09 13:10:05.973826$GNRMC,181005.10,A,4138.0467279,N,07032.2593736,W,3.67,178.94,091223,,,A*5A
###2023-12-09 13:10:05.976717$GNGGA,181005.10,4138.0467279,N,07032.2593736,W,1,24,0.7,13.244,M,-29.743,M,0.0,*5B
###2023-12-09 13:10:05.978520$GPGSA,A,3,03,04,16,26,28,29,31,,,,,,1.2,0.7,1.0*30
###2023-12-09 13:10:05.980254$GLGSA,A,3,65,71,72,73,74,75,,,,,,,1.2,0.7,1.0*2E
###2023-12-09 13:10:05.981845$GAGSA,A,3,04,19,21,27,,,,,,,,,1.2,0.7,1.0*2C
###2023-12-09 13:10:05.983569$GBGSA,A,3,14,24,25,26,33,35,,,,,,,1.2,0.7,1.0*23
###2023-12-09 13:10:05.985895$GPGSV,2,1,07,03,33,257,43,04,36,311,45,16,54,214,46,26,84,210,48*7E
###2023-12-09 13:10:05.987946$GPGSV,2,2,07,28,46,074,45,29,24,057,43,31,67,046,47,,,,*4E
###2023-12-09 13:10:05.990283$GLGSV,2,1,06,65,27,326,42,71,36,173,42,72,72,254,46,73,32,044,45*62
###2023-12-09 13:10:05.992045$GLGSV,2,2,06,74,68,348,43,75,35,257,46,,,,,,,,*60
###2023-12-09 13:10:05.994365$GAGSV,1,1,04,04,32,312,43,19,81,196,40,21,85,078,46,27,30,048,42*6A
###2023-12-09 13:10:05.996708$GBGSV,2,1,06,14,40,192,42,24,71,031,49,25,43,265,47,26,24,064,44*6E
###2023-12-09 13:10:05.998457$GBGSV,2,2,06,33,55,228,47,35,15,066,44,,,,,,,,*64
###2023-12-09 13:10:05.999792$GNVTG,178.94,T,,M,3.67,N,6.80,K,A*2C
###2023-12-09 13:10:06.001439$GNGST,181005.10,18.000,,,,0.089,0.067,0.150*56
###2023-12-09 13:10:06.002744$GNZDA,181005.10,09,12,2023,00,00*7D
###2023-12-09 13:10:06.003384$GNEBP,,,,,,M*13
###2023-12-09 13:10:06.171829$GNGGA,181005.30,4138.0465287,N,07032.2593847,W,1,24,0.7,13.252,M,-29.743,M,0.0,*54
###2023-12-09 13:10:06.370657$GNGGA,181005.50,4138.0463302,N,07032.2594154,W,1,24,0.7,13.263,M,-29.743,M,0.0,*56
###2023-12-09 13:10:06.572154$GNGGA,181005.70,4138.0461303,N,07032.2594374,W,1,24,0.7,13.248,M,-29.743,M,0.0,*5E
###2023-12-09 13:10:06.772237$GNGGA,181005.90,4138.0459350,N,07032.2594398,W,1,24,0.7,13.211,M,-29.743,M,0.0,*53
###2023-12-09 13:10:06.974595$GNRMC,181006.10,A,4138.0457428,N,07032.2594834,W,3.60,194.04,091223,,,A*5E
###2023-12-09 13:10:06.977452$GNGGA,181006.10,4138.0457428,N,07032.2594834,W,1,24,0.7,13.240,M,-29.743,M,0.0,*57
###2023-12-09 13:10:06.979261$GPGSA,A,3,03,04,16,26,28,29,31,,,,,,1.2,0.7,1.0*30
###2023-12-09 13:10:06.980979$GLGSA,A,3,65,71,72,73,74,75,,,,,,,1.2,0.7,1.0*2E
###2023-12-09 13:10:06.982602$GAGSA,A,3,04,19,21,27,,,,,,,,,1.2,0.7,1.0*2C
###2023-12-09 13:10:06.984326$GBGSA,A,3,14,24,25,26,33,35,,,,,,,1.2,0.7,1.0*23
###2023-12-09 13:10:06.986678$GPGSV,2,1,07,03,33,257,42,04,36,311,44,16,54,214,45,26,84,210,48*7D
###2023-12-09 13:10:06.988724$GPGSV,2,2,07,28,46,074,45,29,24,057,43,31,67,046,47,,,,*4E
###2023-12-09 13:10:06.991070$GLGSV,2,1,06,65,27,326,43,71,36,173,41,72,72,254,45,73,32,044,44*62
###2023-12-09 13:10:06.992827$GLGSV,2,2,06,74,68,348,43,75,35,257,45,,,,,,,,*63
###2023-12-09 13:10:06.995171$GAGSV,1,1,04,04,32,312,43,19,81,196,40,21,85,078,46,27,30,048,42*6A
###2023-12-09 13:10:06.997509$GBGSV,2,1,06,14,40,192,42,24,71,031,49,25,43,265,45,26,24,064,45*6D
###2023-12-09 13:10:06.999271$GBGSV,2,2,06,33,55,228,47,35,15,066,44,,,,,,,,*64
###2023-12-09 13:10:07.000598$GNVTG,194.04,T,,M,3.60,N,6.66,K,A*28
###2023-12-09 13:10:07.002251$GNGST,181006.10,18.000,,,,0.090,0.067,0.160*5E
###2023-12-09 13:10:07.003559$GNZDA,181006.10,09,12,2023,00,00*7E
###2023-12-09 13:10:07.004199$GNEBP,,,,,,M*13
###2023-12-09 13:10:07.170716$GNGGA,181006.30,4138.0455444,N,07032.2595372,W,1,24,0.7,13.241,M,-29.743,M,0.0,*54
###2023-12-09 13:10:07.372175$GNGGA,181006.50,4138.0453552,N,07032.2595507,W,1,24,0.7,13.211,M,-29.743,M,0.0,*53
###2023-12-09 13:10:07.571077$GNGGA,181006.70,4138.0451610,N,07032.2595552,W,1,24,0.7,13.218,M,-29.743,M,0.0,*5F
###2023-12-09 13:10:07.771271$GNGGA,181006.90,4138.0449678,N,07032.2595929,W,1,24,0.7,13.216,M,-29.743,M,0.0,*58
###2023-12-09 13:10:07.974540$GNRMC,181007.10,A,4138.0447722,N,07032.2596217,W,3.48,182.44,091223,,,A*57
###2023-12-09 13:10:07.977443$GNGGA,181007.10,4138.0447722,N,07032.2596217,W,1,24,0.7,13.218,M,-29.743,M,0.0,*5A
###2023-12-09 13:10:07.979257$GPGSA,A,3,03,04,16,26,28,29,31,,,,,,1.2,0.7,1.0*30
###2023-12-09 13:10:07.981220$GLGSA,A,3,65,71,72,73,74,75,,,,,,,1.2,0.7,1.0*2E
###2023-12-09 13:10:07.982822$GAGSA,A,3,04,19,21,27,,,,,,,,,1.2,0.7,1.0*2C
###2023-12-09 13:10:07.984542$GBGSA,A,3,14,24,25,26,33,35,,,,,,,1.2,0.7,1.0*23
###2023-12-09 13:10:07.986927$GPGSV,2,1,07,03,33,257,44,04,36,311,44,16,54,214,46,26,84,210,48*78
###2023-12-09 13:10:07.988974$GPGSV,2,2,07,28,46,074,44,29,24,057,42,31,67,046,47,,,,*4E
###2023-12-09 13:10:07.991311$GLGSV,2,1,06,65,27,326,43,71,36,173,43,72,72,254,45,73,32,044,44*60
###2023-12-09 13:10:07.993060$GLGSV,2,2,06,74,68,348,43,75,35,257,46,,,,,,,,*60
###2023-12-09 13:10:07.995395$GAGSV,1,1,04,04,32,312,44,19,81,196,40,21,85,078,46,27,30,048,41*6E
###2023-12-09 13:10:07.997717$GBGSV,2,1,06,14,40,192,42,24,71,031,49,25,43,265,47,26,24,064,43*69
###2023-12-09 13:10:07.999474$GBGSV,2,2,06,33,55,228,49,35,15,066,43,,,,,,,,*6D
