###2023-12-09 13:32:02.588568$GNGGA,183201.70,4138.0373743,N,07032.4208826,W,1,21,0.9,13.667,M,-29.745,M,0.0,*52
###2023-12-09 13:32:02.789259$GNGGA,183201.90,4138.0374132,N,07032.4207072,W,1,21,0.9,13.668,M,-29.745,M,0.0,*52
###2023-12-09 13:32:02.991124$GNRMC,183202.10,A,4138.0374577,N,07032.4205479,W,2.24,69.15,091223,,,A*69
###2023-12-09 13:32:02.993977$GNGGA,183202.10,4138.0374577,N,07032.4205479,W,1,21,0.9,13.668,M,-29.745,M,0.0,*51
###2023-12-09 13:32:02.995774$GPGSA,A,3,03,04,16,26,28,29,31,,,,,,1.4,0.9,1.1*39
###2023-12-09 13:32:02.997418$GLGSA,A,3,65,72,73,74,75,,,,,,,,1.4,0.9,1.1*21
###2023-12-09 13:32:02.999006$GAGSA,A,3,04,19,21,27,,,,,,,,,1.4,0.9,1.1*25
###2023-12-09 13:32:03.000650$GBGSA,A,3,24,25,26,33,35,,,,,,,,1.4,0.9,1.1*2F
###2023-12-09 13:32:03.002972$GPGSV,2,1,07,03,27,247,38,04,45,308,45,16,65,221,48,26,85,040,48*76
###2023-12-09 13:32:03.005006$GPGSV,2,2,07,28,39,084,42,29,21,048,40,31,60,064,45,,,,*43
###2023-12-09 13:32:03.007340$GLGSV,2,1,05,65,37,320,43,72,64,223,46,73,23,051,40,74,61,011,41*60
###2023-12-09 13:32:03.008789$GLGSV,2,2,05,75,42,269,46,,,,,,,,,,,,*5B
###2023-12-09 13:32:03.011111$GAGSV,1,1,04,04,39,310,44,19,73,182,42,21,77,047,47,27,23,050,38*68
###2023-12-09 13:32:03.013431$GBGSV,2,1,05,24,64,044,48,25,50,275,47,26,17,070,41,33,47,218,49*61
###2023-12-09 13:32:03.014888$GBGSV,2,2,05,35,16,058,42,,,,,,,,,,,,*54
###2023-12-09 13:32:03.016168$GNVTG,69.15,T,,M,2.24,N,4.14,K,A*1D
###2023-12-09 13:32:03.017770$GNGST,183202.10,5.800,,,,0.180,0.100,0.270*6C
###2023-12-09 13:32:03.019065$GNZDA,183202.10,09,12,2023,00,00*7A
###2023-12-09 13:32:03.019701$GNEBP,,,,,,M*13
###2023-12-09 13:32:03.190927$GNGGA,183202.30,4138.0375005,N,07032.4203906,W,1,21,0.9,13.674,M,-29.745,M,0.0,*5C
###2023-12-09 13:32:03.387984$GNGGA,183202.50,4138.0375363,N,07032.4202282,W,1,21,0.8,13.676,M,-29.745,M,0.0,*5C
###2023-12-09 13:32:03.588037$GNGGA,183202.70,4138.0375667,N,07032.4200770,W,1,21,0.9,13.678,M,-29.745,M,0.0,*5A
###2023-12-09 13:32:03.788400$GNGGA,183202.90,4138.0376034,N,07032.4199302,W,1,21,0.9,13.695,M,-29.745,M,0.0,*56
###2023-12-09 13:32:03.989483$GNRMC,183203.10,A,4138.0376427,N,07032.4197776,W,2.12,71.17,091223,,,A*64
###2023-12-09 13:32:03.992351$GNGGA,183203.10,4138.0376427,N,07032.4197776,W,1,22,0.7,13.696,M,-29.745,M,0.0,*5E
###2023-12-09 13:32:03.994147$GPGSA,A,3,03,04,16,26,28,29,31,,,,,,1.2,0.7,1.0*30
###2023-12-09 13:32:03.995874$GLGSA,A,3,65,71,72,73,74,75,,,,,,,1.2,0.7,1.0*2E
###2023-12-09 13:32:03.997453$GAGSA,A,3,04,19,21,27,,,,,,,,,1.2,0.7,1.0*2C
###2023-12-09 13:32:03.999101$GBGSA,A,3,24,25,26,33,35,,,,,,,,1.2,0.7,1.0*26
###2023-12-09 13:32:04.001424$GPGSV,2,1,07,03,27,247,40,04,45,308,45,16,65,221,47,26,85,040,48*76
###2023-12-09 13:32:04.003474$GPGSV,2,2,07,28,39,084,43,29,21,048,40,31,60,064,46,,,,*41
###2023-12-09 13:32:04.005797$GLGSV,2,1,06,65,37,320,41,71,24,175,35,72,64,223,46,73,23,051,40*65
###2023-12-09 13:32:04.007550$GLGSV,2,2,06,74,61,011,42,75,42,269,45,,,,,,,,*69
###2023-12-09 13:32:04.009873$GAGSV,1,1,04,04,39,310,44,19,73,182,42,21,77,047,47,27,23,050,39*69
###2023-12-09 13:32:04.012204$GBGSV,2,1,05,24,64,044,48,25,50,275,48,26,17,070,42,33,47,218,48*6C
###2023-12-09 13:32:04.013653$GBGSV,2,2,05,35,16,058,43,,,,,,,,,,,,*55
###2023-12-09 13:32:04.014946$GNVTG,71.17,T,,M,2.12,N,3.92,K,A*1A
###2023-12-09 13:32:04.016551$GNGST,183203.10,5.500,,,,0.180,0.100,0.270*60
###2023-12-09 13:32:04.017831$GNZDA,183203.10,09,12,2023,00,00*7B
###2023-12-09 13:32:04.018466$GNEBP,,,,,,M*13
###2023-12-09 13:32:04.188601$GNGGA,183203.30,4138.0376718,N,07032.4196390,W,1,21,0.9,13.702,M,-29.745,M,0.0,*5F
###2023-12-09 13:32:04.388317$GNGGA,183203.50,4138.0376976,N,07032.4195016,W,1,21,0.9,13.709,M,-29.745,M,0.0,*5A
###2023-12-09 13:32:04.588054$GNGGA,183203.70,4138.0377241,N,07032.4193597,W,1,21,0.9,13.721,M,-29.745,M,0.0,*56
###2023-12-09 13:32:04.787925$GNGGA,183203.90,4138.0377527,N,07032.4192306,W,1,21,0.9,13.711,M,-29.745,M,0.0,*53
###2023-12-09 13:32:04.989635$GNRMC,183204.10,A,4138.0377768,N,07032.4191099,W,1.73,72.82,091223,,,A*61
###2023-12-09 13:32:04.992612$GNGGA,183204.10,4138.0377768,N,07032.4191099,W,1,21,0.9,13.713,M,-29.745,M,0.0,*51
###2023-12-09 13:32:04.994404$GPGSA,A,3,03,04,16,26,28,29,31,,,,,,1.4,0.9,1.1*39
###2023-12-09 13:32:04.996075$GLGSA,A,3,65,72,73,74,75,,,,,,,,1.4,0.9,1.1*21
###2023-12-09 13:32:04.997660$GAGSA,A,3,04,19,21,27,,,,,,,,,1.4,0.9,1.1*25
###2023-12-09 13:32:04.999320$GBGSA,A,3,24,25,26,33,35,,,,,,,,1.4,0.9,1.1*2F
###2023-12-09 13:32:05.001647$GPGSV,2,1,07,03,27,247,41,04,45,308,45,16,65,221,48,26,85,040,48*78
###2023-12-09 13:32:05.003691$GPGSV,2,2,07,28,39,084,44,29,21,048,40,31,60,064,46,,,,*46
###2023-12-09 13:32:05.006019$GLGSV,2,1,05,65,37,320,42,72,64,223,48,73,23,051,38,74,61,011,42*63
###2023-12-09 13:32:05.007484$GLGSV,2,2,05,75,42,269,47,,,,,,,,,,,,*5A
###2023-12-09 13:32:05.009811$GAGSV,1,1,04,04,39,310,44,19,73,182,42,21,77,047,46,27,23,050,39*68
###2023-12-09 13:32:05.012236$GBGSV,2,1,05,24,64,044,49,25,50,275,47,26,17,070,40,33,47,218,48*60
###2023-12-09 13:32:05.013695$GBGSV,2,2,05,35,16,058,44,,,,,,,,,,,,*52
###2023-12-09 13:32:05.014996$GNVTG,72.82,T,,M,1.73,N,3.20,K,A*18
###2023-12-09 13:32:05.016616$GNGST,183204.10,5.200,,,,0.170,0.100,0.260*6E
###2023-12-09 13:32:05.017906$GNZDA,183204.10,09,12,2023,00,00*7C
###2023-12-09 13:32:05.018544$GNEBP,,,,,,M*13
###2023-12-09 13:32:05.188114$GNGGA,183204.30,4138.0377982,N,07032.4189808,W,1,21,0.9,13.727,M,-29.745,M,0.0,*57
###2023-12-09 13:32:05.386104$GNGGA,183204.50,4138.0378196,N,07032.4188609,W,1,21,0.9,13.731,M,-29.745,M,0.0,*5A
###2023-12-09 13:32:05.586757$GNGGA,183204.70,4138.0378389,N,07032.4187471,W,1,22,0.7,13.742,M,-29.745,M,0.0,*5F
###2023-12-09 13:32:05.786041$GNGGA,183204.90,4138.0378556,N,07032.4186306,W,1,22,0.7,13.751,M,-29.745,M,0.0,*51
###2023-12-09 13:32:05.989854$GNRMC,183205.10,A,4138.0378741,N,07032.4185171,W,1.52,73.36,091223,,,A*6B
###2023-12-09 13:32:05.992737$GNGGA,183205.10,4138.0378741,N,07032.4185171,W,1,21,0.9,13.755,M,-29.745,M,0.0,*54
###2023-12-09 13:32:05.994536$GPGSA,A,3,03,04,16,26,28,29,31,,,,,,1.4,0.9,1.1*39
###2023-12-09 13:32:05.996199$GLGSA,A,3,65,72,73,74,75,,,,,,,,1.4,0.9,1.1*21
###2023-12-09 13:32:05.997779$GAGSA,A,3,04,19,21,27,,,,,,,,,1.4,0.9,1.1*25
###2023-12-09 13:32:05.999432$GBGSA,A,3,24,25,26,33,35,,,,,,,,1.4,0.9,1.1*2F
###2023-12-09 13:32:06.001752$GPGSV,2,1,07,03,27,247,41,04,45,308,45,16,65,221,47,26,85,040,48*77
###2023-12-09 13:32:06.003793$GPGSV,2,2,07,28,39,084,42,29,21,048,43,31,60,064,46,,,,*43
###2023-12-09 13:32:06.006128$GLGSV,2,1,05,65,37,320,43,72,64,223,47,73,23,051,40,74,61,011,42*62
###2023-12-09 13:32:06.007593$GLGSV,2,2,05,75,42,269,47,,,,,,,,,,,,*5A
###2023-12-09 13:32:06.009912$GAGSV,1,1,04,04,39,310,44,19,73,182,42,21,77,047,46,27,23,050,41*67
###2023-12-09 13:32:06.012242$GBGSV,2,1,05,24,64,044,47,25,50,275,46,26,17,070,41,33,47,218,47*61
###2023-12-09 13:32:06.013696$GBGSV,2,2,05,35,16,058,41,,,,,,,,,,,,*57
###2023-12-09 13:32:06.015023$GNVTG,73.36,T,,M,1.52,N,2.81,K,A*1F
###2023-12-09 13:32:06.016639$GNGST,183205.10,5.500,,,,0.170,0.099,0.260*69
###2023-12-09 13:32:06.017928$GNZDA,183205.10,09,12,2023,00,00*7D
###2023-12-09 13:32:06.018574$GNEBP,,,,,,M*13
###2023-12-09 13:32:06.188275$GNGGA,183205.30,4138.0378893,N,07032.4184053,W,1,21,0.9,13.762,M,-29.745,M,0.0,*52
###2023-12-09 13:32:06.386987$GNGGA,183205.50,4138.0378969,N,07032.4182947,W,1,22,0.8,13.762,M,-29.745,M,0.0,*58
###2023-12-09 13:32:06.587167$GNGGA,183205.70,4138.0379056,N,07032.4181862,W,1,22,0.8,13.777,M,-29.745,M,0.0,*5F
###2023-12-09 13:32:06.788083$GNGGA,183205.90,4138.0379169,N,07032.4180828,W,1,22,0.8,13.784,M,-29.745,M,0.0,*5F
###2023-12-09 13:32:06.990363$GNRMC,183206.10,A,4138.0379232,N,07032.4179782,W,1.44,88.61,091223,,,A*60
###2023-12-09 13:32:06.993240$GNGGA,183206.10,4138.0379232,N,07032.4179782,W,1,22,0.8,13.784,M,-29.745,M,0.0,*50
###2023-12-09 13:32:06.995043$GPGSA,A,3,03,04,16,26,28,29,31,,,,,,1.4,0.8,1.1*38
###2023-12-09 13:32:06.996761$GLGSA,A,3,65,72,73,74,75,83,,,,,,,1.4,0.8,1.1*2B
###2023-12-09 13:32:06.998342$GAGSA,A,3,04,19,21,27,,,,,,,,,1.4,0.8,1.1*24
###2023-12-09 13:32:07.000259$GBGSA,A,3,24,25,26,33,35,,,,,,,,1.4,0.8,1.1*2E
###2023-12-09 13:32:07.002600$GPGSV,2,1,07,03,27,247,42,04,45,308,46,16,65,221,47,26,85,040,48*77
###2023-12-09 13:32:07.004655$GPGSV,2,2,07,28,39,084,42,29,21,048,43,31,60,064,46,,,,*43
###2023-12-09 13:32:07.007011$GLGSV,2,1,06,65,37,320,43,72,64,223,47,73,23,051,44,74,61,011,43*64
###2023-12-09 13:32:07.008758$GLGSV,2,2,06,75,42,269,48,83,15,049,35,,,,,,,,*62
###2023-12-09 13:32:07.011094$GAGSV,1,1,04,04,39,310,43,19,73,182,41,21,77,047,46,27,23,050,42*60
###2023-12-09 13:32:07.013427$GBGSV,2,1,05,24,64,044,48,25,50,275,47,26,17,070,43,33,47,218,48*62
###2023-12-09 13:32:07.014892$GBGSV,2,2,05,35,16,058,44,,,,,,,,,,,,*52
###2023-12-09 13:32:07.016180$GNVTG,88.61,T,,M,1.44,N,2.66,K,A*17
