###2023-12-09 12:57:25.989860$GNZDA,175725.10,09,12,2023,00,00*73
###2023-12-09 12:57:25.990523$GNEBP,,,,,,M*13
###2023-12-09 12:57:26.159586$GNGGA,175725.30,4138.0338228,N,07032.3830909,W,1,24,0.6,13.329,M,-29.745,M,0.0,*54
###2023-12-09 12:57:26.359459$GNGGA,175725.50,4138.0338117,N,07032.3828539,W,1,24,0.6,13.331,M,-29.745,M,0.0,*52
###2023-12-09 12:57:26.560410$GNGGA,175725.70,4138.0338091,N,07032.3826200,W,1,24,0.6,13.337,M,-29.745,M,0.0,*5A
###2023-12-09 12:57:26.758649$GNGGA,175725.90,4138.0338086,N,07032.3823781,W,1,24,0.6,13.336,M,-29.745,M,0.0,*5A
###2023-12-09 12:57:26.961527$GNRMC,175726.10,A,4138.0338176,N,07032.3821451,W,3.19,83.45,091223,,,A*61
###2023-12-09 12:57:26.964430$GNGGA,175726.10,4138.0338176,N,07032.3821451,W,1,24,0.6,13.329,M,-29.745,M,0.0,*5D
###2023-12-09 12:57:26.966291$GPGSA,A,3,03,04,16,26,28,29,31,32,,,,,1.1,0.6,0.9*3B
###2023-12-09 12:57:26.968019$GLGSA,A,3,65,71,72,73,74,75,,,,,,,1.1,0.6,0.9*24
###2023-12-09 12:57:26.969605$GAGSA,A,3,04,19,21,27,,,,,,,,,1.1,0.6,0.9*26
###2023-12-09 12:57:26.971261$GBGSA,A,3,14,24,25,26,33,,,,,,,,1.1,0.6,0.9*2F
###2023-12-09 12:57:26.973588$GPGSV,2,1,08,03,36,264,45,04,31,311,42,16,48,211,46,26,77,209,49*7F
###2023-12-09 12:57:26.975932$GPGSV,2,2,08,28,51,068,44,29,25,064,41,31,70,031,46,32,21,139,42*70
###2023-12-09 12:57:26.978258$GLGSV,2,1,06,65,22,328,43,71,43,172,47,72,73,277,47,73,37,040,46*6D
###2023-12-09 12:57:26.980019$GLGSV,2,2,06,74,70,331,43,75,30,251,46,,,,,,,,*64
###2023-12-09 12:57:26.982347$GAGSV,1,1,04,04,27,312,39,19,85,234,40,21,85,141,46,27,34,048,41*60
###2023-12-09 12:57:26.984714$GBGSV,2,1,05,14,45,193,45,24,75,020,48,25,39,260,47,26,27,062,43*61
###2023-12-09 12:57:26.986177$GBGSV,2,2,05,33,59,235,47,,,,,,,,,,,,*55
###2023-12-09 12:57:26.987481$GNVTG,83.45,T,,M,3.19,N,5.90,K,A*1E
###2023-12-09 12:57:26.989132$GNGST,175726.10,18.000,,,,0.078,0.066,0.160*57
###2023-12-09 12:57:26.990423$GNZDA,175726.10,09,12,2023,00,00*70
###2023-12-09 12:57:26.991073$GNEBP,,,,,,M*13
###2023-12-09 12:57:27.161689$GNGGA,175726.30,4138.0338425,N,07032.3819075,W,1,24,0.6,13.341,M,-29.745,M,0.0,*5B
###2023-12-09 12:57:27.360458$GNGGA,175726.50,4138.0338658,N,07032.3816676,W,1,24,0.6,13.332,M,-29.745,M,0.0,*5B
###2023-12-09 12:57:27.560436$GNGGA,175726.70,4138.0338994,N,07032.3814344,W,1,24,0.6,13.332,M,-29.745,M,0.0,*50
###2023-12-09 12:57:27.762385$GNGGA,175726.90,4138.0339399,N,07032.3811992,W,1,24,0.6,13.348,M,-29.745,M,0.0,*51
###2023-12-09 12:57:27.961350$GNRMC,175727.10,A,4138.0339800,N,07032.3809604,W,3.21,72.69,091223,,,A*6A
###2023-12-09 12:57:27.964226$GNGGA,175727.10,4138.0339800,N,07032.3809604,W,1,24,0.6,13.340,M,-29.745,M,0.0,*52
###2023-12-09 12:57:27.966088$GPGSA,A,3,03,04,16,26,28,29,31,32,,,,,1.1,0.6,0.9*3B
###2023-12-09 12:57:27.967818$GLGSA,A,3,65,71,72,73,74,75,,,,,,,1.1,0.6,0.9*24
###2023-12-09 12:57:27.969407$GAGSA,A,3,04,19,21,27,,,,,,,,,1.1,0.6,0.9*26
###2023-12-09 12:57:27.971082$GBGSA,A,3,14,24,25,26,33,,,,,,,,1.1,0.6,0.9*2F
###2023-12-09 12:57:27.973409$GPGSV,2,1,08,03,36,264,44,04,31,311,42,16,48,211,46,26,77,209,48*7F
###2023-12-09 12:57:27.975766$GPGSV,2,2,08,28,51,068,44,29,25,064,41,31,70,031,47,32,21,139,43*70
###2023-12-09 12:57:27.978103$GLGSV,2,1,06,65,22,328,43,71,43,172,48,72,73,277,47,73,37,040,45*61
###2023-12-09 12:57:27.979887$GLGSV,2,2,06,74,70,331,43,75,30,251,47,,,,,,,,*65
###2023-12-09 12:57:27.982223$GAGSV,1,1,04,04,27,312,41,19,85,234,40,21,85,141,46,27,34,048,40*6E
###2023-12-09 12:57:27.984581$GBGSV,2,1,05,14,45,193,45,24,75,020,48,25,39,260,46,26,27,062,42*61
###2023-12-09 12:57:27.986035$GBGSV,2,2,05,33,59,235,47,,,,,,,,,,,,*55
###2023-12-09 12:57:27.987336$GNVTG,72.69,T,,M,3.21,N,5.94,K,A*11
###2023-12-09 12:57:27.988988$GNGST,175727.10,18.000,,,,0.078,0.066,0.160*56
###2023-12-09 12:57:27.990280$GNZDA,175727.10,09,12,2023,00,00*71
###2023-12-09 12:57:27.990930$GNEBP,,,,,,M*13
###2023-12-09 12:57:28.159773$GNGGA,175727.30,4138.0340454,N,07032.3807405,W,1,24,0.6,13.341,M,-29.745,M,0.0,*5F
###2023-12-09 12:57:28.360501$GNGGA,175727.50,4138.0341113,N,07032.3805136,W,1,24,0.6,13.354,M,-29.745,M,0.0,*5D
###2023-12-09 12:57:28.558309$GNGGA,175727.70,4138.0341849,N,07032.3802892,W,1,24,0.6,13.362,M,-29.745,M,0.0,*5C
###2023-12-09 12:57:28.759829$GNGGA,175727.90,4138.0342603,N,07032.3800688,W,1,24,0.6,13.359,M,-29.745,M,0.0,*5E
###2023-12-09 12:57:28.960374$GNRMC,175728.10,A,4138.0343451,N,07032.3798501,W,3.42,62.02,091223,,,A*68
###2023-12-09 12:57:28.963249$GNGGA,175728.10,4138.0343451,N,07032.3798501,W,1,24,0.6,13.369,M,-29.745,M,0.0,*52
###2023-12-09 12:57:28.965106$GPGSA,A,3,03,04,16,26,28,29,31,32,,,,,1.1,0.6,0.9*3B
###2023-12-09 12:57:28.966831$GLGSA,A,3,65,71,72,73,74,75,,,,,,,1.1,0.6,0.9*24
###2023-12-09 12:57:28.968406$GAGSA,A,3,04,19,21,27,,,,,,,,,1.1,0.6,0.9*26
###2023-12-09 12:57:28.970048$GBGSA,A,3,14,24,25,26,33,,,,,,,,1.1,0.6,0.9*2F
###2023-12-09 12:57:28.972379$GPGSV,2,1,08,03,36,264,46,04,31,311,45,16,48,211,49,26,77,209,50*7C
###2023-12-09 12:57:28.974703$GPGSV,2,2,08,28,51,068,45,29,25,064,42,31,70,031,48,32,21,139,46*78
###2023-12-09 12:57:28.977015$GLGSV,2,1,06,65,22,328,43,71,43,172,48,72,73,277,47,73,37,040,44*60
###2023-12-09 12:57:28.978754$GLGSV,2,2,06,74,70,331,43,75,30,251,47,,,,,,,,*65
###2023-12-09 12:57:28.981059$GAGSV,1,1,04,04,27,312,43,19,85,234,42,21,85,141,47,27,34,048,43*6C
###2023-12-09 12:57:28.983377$GBGSV,2,1,05,14,45,193,45,24,75,020,47,25,39,260,45,26,27,062,41*6E
###2023-12-09 12:57:28.984823$GBGSV,2,2,05,33,59,235,46,,,,,,,,,,,,*54
###2023-12-09 12:57:28.986105$GNVTG,62.02,T,,M,3.42,N,6.34,K,A*11
###2023-12-09 12:57:28.987748$GNGST,175728.10,18.000,,,,0.077,0.066,0.160*56
###2023-12-09 12:57:28.989036$GNZDA,175728.10,09,12,2023,00,00*7E
###2023-12-09 12:57:28.989670$GNEBP,,,,,,M*13
###2023-12-09 12:57:29.158744$GNGGA,175728.30,4138.0344271,N,07032.3796268,W,1,24,0.6,13.366,M,-29.745,M,0.0,*5A
###2023-12-09 12:57:29.360558$GNGGA,175728.50,4138.0345048,N,07032.3794086,W,1,24,0.6,13.369,M,-29.745,M,0.0,*5A
###2023-12-09 12:57:29.561632$GNGGA,175728.70,4138.0345713,N,07032.3791739,W,1,24,0.6,13.371,M,-29.745,M,0.0,*5E
###2023-12-09 12:57:29.760821$GNGGA,175728.90,4138.0346301,N,07032.3789469,W,1,24,0.6,13.351,M,-29.745,M,0.0,*59
###2023-12-09 12:57:29.962361$GNRMC,175729.10,A,4138.0347031,N,07032.3787269,W,3.44,65.78,091223,,,A*64
###2023-12-09 12:57:29.965250$GNGGA,175729.10,4138.0347031,N,07032.3787269,W,1,24,0.6,13.367,M,-29.745,M,0.0,*5C
###2023-12-09 12:57:29.967136$GPGSA,A,3,03,04,16,26,28,29,31,32,,,,,1.1,0.6,0.9*3B
###2023-12-09 12:57:29.968862$GLGSA,A,3,65,71,72,73,74,75,,,,,,,1.1,0.6,0.9*24
###2023-12-09 12:57:29.970443$GAGSA,A,3,04,19,21,27,,,,,,,,,1.1,0.6,0.9*26
###2023-12-09 12:57:29.972105$GBGSA,A,3,14,24,25,26,33,,,,,,,,1.1,0.6,0.9*2F
###2023-12-09 12:57:29.974443$GPGSV,2,1,08,03,36,264,46,04,31,311,41,16,48,211,48,26,77,209,49*71
###2023-12-09 12:57:29.976788$GPGSV,2,2,08,28,51,068,44,29,25,064,42,31,70,031,47,32,21,139,43*73
###2023-12-09 12:57:29.979141$GLGSV,2,1,06,65,22,328,42,71,43,172,47,72,73,277,47,73,37,040,45*6F
###2023-12-09 12:57:29.980888$GLGSV,2,2,06,74,70,331,43,75,30,251,46,,,,,,,,*64
###2023-12-09 12:57:29.983227$GAGSV,1,1,04,04,27,312,41,19,85,234,41,21,85,141,46,27,34,048,42*6D
###2023-12-09 12:57:29.985554$GBGSV,2,1,05,14,45,193,46,24,75,020,48,25,39,260,46,26,27,062,43*63
###2023-12-09 12:57:29.987021$GBGSV,2,2,05,33,59,235,47,,,,,,,,,,,,*55
###2023-12-09 12:57:29.988316$GNVTG,65.78,T,,M,3.44,N,6.37,K,A*1E
###2023-12-09 12:57:29.989958$GNGST,175729.10,18.000,,,,0.077,0.066,0.150*54
###2023-12-09 12:57:29.991261$GNZDA,175729.10,09,12,2023,00,00*7F
###2023-12-09 12:57:29.991903$GNEBP,,,,,,M*13
###2023-12-09 12:57:30.160256$GNGGA,175729.30,4138.0347595,N,07032.3784895,W,1,24,0.6,13.351,M,-29.745,M,0.0,*5A
###2023-12-09 12:57:30.359422$GNGGA,175729.50,4138.0347913,N,07032.3782659,W,1,24,0.6,13.341,M,-29.745,M,0.0,*57
###2023-12-09 12:57:30.559401$GNGGA,175729.70,4138.0348269,N,07032.3780321,W,1,24,0.6,13.362,M,-29.745,M,0.0,*55
###2023-12-09 12:57:30.759459$GNGGA,175729.90,4138.0348571,N,07032.3777959,W,1,24,0.6,13.341,M,-29.745,M,0.0,*59
###2023-12-09 12:57:30.963292$GNRMC,175730.10,A,4138.0348733,N,07032.3775669,W,3.09,86.54,091223,,,A*65
###2023-12-09 12:57:30.966393$GNGGA,175730.10,4138.0348733,N,07032.3775669,W,1,24,0.6,13.336,M,-29.745,M,0.0,*53
###2023-12-09 12:57:30.968266$GPGSA,A,3,03,04,16,26,28,29,31,32,,,,,1.1,0.6,0.9*3B
###2023-12-09 12:57:30.969981$GLGSA,A,3,65,71,72,73,74,75,,,,,,,1.1,0.6,0.9*24
###2023-12-09 12:57:30.971569$GAGSA,A,3,04,19,21,27,,,,,,,,,1.1,0.6,0.9*26
###2023-12-09 12:57:30.973209$GBGSA,A,3,14,24,25,26,33,,,,,,,,1.1,0.6,0.9*2F
###2023-12-09 12:57:30.975539$GPGSV,2,1,08,03,36,264,45,04,31,311,42,16,48,211,48,26,78,209,49*7E
###2023-12-09 12:57:30.977862$GPGSV,2,2,08,28,51,068,46,29,25,064,41,31,70,031,47,32,21,139,43*72
###2023-12-09 12:57:30.980196$GLGSV,2,1,06,65,22,328,42,71,43,172,47,72,73,277,47,73,37,040,46*6C
###2023-12-09 12:57:30.981934$GLGSV,2,2,06,74,70,331,43,75,30,251,44,,,,,,,,*66
