###2023-12-09 12:34:53.950190$GPGSV,2,2,08,28,58,056,44,29,25,074,40,31,73,001,47,32,30,134,44*7E
###2023-12-09 12:34:53.952564$GLGSV,2,1,05,71,57,169,48,72,65,310,47,73,48,033,46,74,71,290,43*61
###2023-12-09 12:34:53.954026$GLGSV,2,2,05,75,22,241,45,,,,,,,,,,,,*54
###2023-12-09 12:34:53.956358$GAGSV,1,1,04,04,21,311,41,19,81,304,40,21,77,177,46,27,42,050,42*6F
###2023-12-09 12:34:53.958702$GBGSV,2,1,05,14,55,198,44,24,81,343,47,25,32,252,45,26,35,057,44*62
###2023-12-09 12:34:53.960151$GBGSV,2,2,05,33,63,255,47,,,,,,,,,,,,*5A
###2023-12-09 12:34:53.961430$GNVTG,84.40,T,,M,0.37,N,0.68,K,A*11
###2023-12-09 12:34:53.963127$GNGST,173453.10,19.000,,,,0.082,0.072,0.170*50
###2023-12-09 12:34:53.964422$GNZDA,173453.10,09,12,2023,00,00*77
###2023-12-09 12:34:53.965060$GNEBP,,,,,,M*13
###2023-12-09 12:34:54.135192$GNGGA,173453.30,4138.0479975,N,07032.4228490,W,1,23,0.7,13.041,M,-29.745,M,0.0,*53
###2023-12-09 12:34:54.334361$GNGGA,173453.50,4138.0479989,N,07032.4228475,W,1,23,0.7,13.052,M,-29.745,M,0.0,*5F
###2023-12-09 12:34:54.534262$GNGGA,173453.70,4138.0480031,N,07032.4228516,W,1,23,0.7,13.049,M,-29.745,M,0.0,*5F
###2023-12-09 12:34:54.734288$GNGGA,173453.90,4138.0480193,N,07032.4228682,W,1,23,0.7,13.044,M,-29.745,M,0.0,*5B
###2023-12-09 12:34:54.935002$GNRMC,173454.10,A,4138.0480397,N,07032.4228874,W,0.37,84.40,091223,,,A*6A
###2023-12-09 12:34:54.937848$GNGGA,173454.10,4138.0480397,N,07032.4228874,W,1,23,0.7,13.040,M,-29.745,M,0.0,*51
###2023-12-09 12:34:54.939715$GPGSA,A,3,03,04,16,26,28,29,31,32,,,,,1.2,0.7,1.0*31
###2023-12-09 12:34:54.941362$GLGSA,A,3,71,72,73,74,75,,,,,,,,1.2,0.7,1.0*2D
###2023-12-09 12:34:54.942952$GAGSA,A,3,04,19,21,27,,,,,,,,,1.2,0.7,1.0*2C
###2023-12-09 12:34:54.944591$GBGSA,A,3,14,24,25,26,33,,,,,,,,1.2,0.7,1.0*25
###2023-12-09 12:34:54.946929$GPGSV,2,1,08,03,39,277,46,04,22,311,44,16,37,207,45,26,66,206,48*77
###2023-12-09 12:34:54.949272$GPGSV,2,2,08,28,58,056,44,29,25,074,39,31,73,001,46,32,30,134,46*73
###2023-12-09 12:34:54.951618$GLGSV,2,1,05,71,57,169,48,72,65,310,47,73,48,033,47,74,71,290,43*60
###2023-12-09 12:34:54.953070$GLGSV,2,2,05,75,22,241,43,,,,,,,,,,,,*52
###2023-12-09 12:34:54.955400$GAGSV,1,1,04,04,21,311,41,19,81,304,41,21,77,177,46,27,42,050,41*6D
###2023-12-09 12:34:54.957727$GBGSV,2,1,05,14,55,198,45,24,81,343,50,25,32,252,47,26,35,057,45*66
###2023-12-09 12:34:54.959196$GBGSV,2,2,05,33,63,255,48,,,,,,,,,,,,*55
###2023-12-09 12:34:54.960486$GNVTG,84.40,T,,M,0.37,N,0.68,K,A*11
###2023-12-09 12:34:54.962128$GNGST,173454.10,19.000,,,,0.081,0.071,0.170*57
###2023-12-09 12:34:54.963430$GNZDA,173454.10,09,12,2023,00,00*70
###2023-12-09 12:34:54.964071$GNEBP,,,,,,M*13
###2023-12-09 12:34:55.132921$GNGGA,173454.30,4138.0480470,N,07032.4228905,W,1,23,0.7,13.049,M,-29.745,M,0.0,*53
###2023-12-09 12:34:55.334408$GNGGA,173454.50,4138.0480423,N,07032.4228832,W,1,23,0.7,13.055,M,-29.745,M,0.0,*5B
###2023-12-09 12:34:55.535491$GNGGA,173454.70,4138.0480476,N,07032.4228881,W,1,23,0.7,13.055,M,-29.745,M,0.0,*51
###2023-12-09 12:34:55.732721$GNGGA,173454.90,4138.0480714,N,07032.4229108,W,1,23,0.7,13.051,M,-29.745,M,0.0,*55
###2023-12-09 12:34:55.933908$GNRMC,173455.10,A,4138.0480864,N,07032.4229264,W,0.10,84.40,091223,,,A*63
###2023-12-09 12:34:55.936789$GNGGA,173455.10,4138.0480864,N,07032.4229264,W,1,23,0.7,13.047,M,-29.745,M,0.0,*5A
###2023-12-09 12:34:55.938658$GPGSA,A,3,03,04,16,26,28,29,31,32,,,,,1.2,0.7,1.0*31
###2023-12-09 12:34:55.940311$GLGSA,A,3,71,72,73,74,75,,,,,,,,1.2,0.7,1.0*2D
###2023-12-09 12:34:55.941902$GAGSA,A,3,04,19,21,27,,,,,,,,,1.2,0.7,1.0*2C
###2023-12-09 12:34:55.943565$GBGSA,A,3,14,24,25,26,33,,,,,,,,1.2,0.7,1.0*25
###2023-12-09 12:34:55.945894$GPGSV,2,1,08,03,39,277,44,04,22,311,44,16,37,207,45,26,66,206,49*74
###2023-12-09 12:34:55.948252$GPGSV,2,2,08,28,58,056,44,29,25,074,41,31,73,001,47,32,30,134,45*7E
###2023-12-09 12:34:55.950615$GLGSV,2,1,05,71,57,169,49,72,65,310,46,73,48,033,47,74,71,290,43*60
###2023-12-09 12:34:55.952075$GLGSV,2,2,05,75,22,241,43,,,,,,,,,,,,*52
###2023-12-09 12:34:55.954402$GAGSV,1,1,04,04,21,311,42,19,81,304,41,21,77,177,46,27,42,050,41*6E
###2023-12-09 12:34:55.956753$GBGSV,2,1,05,14,55,198,46,24,81,343,49,25,32,252,44,26,35,057,45*6E
###2023-12-09 12:34:55.958212$GBGSV,2,2,05,33,63,255,48,,,,,,,,,,,,*55
###2023-12-09 12:34:55.959515$GNVTG,84.40,T,,M,0.10,N,0.18,K,A*13
###2023-12-09 12:34:55.961167$GNGST,173455.10,18.000,,,,0.081,0.071,0.170*57
###2023-12-09 12:34:55.962461$GNZDA,173455.10,09,12,2023,00,00*71
###2023-12-09 12:34:55.963120$GNEBP,,,,,,M*13
###2023-12-09 12:34:56.133408$GNGGA,173455.30,4138.0480856,N,07032.4229259,W,1,23,0.7,13.050,M,-29.745,M,0.0,*51
###2023-12-09 12:34:56.336135$GNGGA,173455.50,4138.0480869,N,07032.4229239,W,1,23,0.7,13.066,M,-29.745,M,0.0,*58
###2023-12-09 12:34:56.540251$GNGGA,173455.70,4138.0481011,N,07032.4229337,W,1,23,0.7,13.063,M,-29.745,M,0.0,*56
###2023-12-09 12:34:56.733088$GNGGA,173455.90,4138.0481168,N,07032.4229514,W,1,23,0.7,13.054,M,-29.745,M,0.0,*54
###2023-12-09 12:34:56.941963$GNRMC,173456.10,A,4138.0481250,N,07032.4229616,W,0.14,84.40,091223,,,A*69
###2023-12-09 12:34:56.944821$GNGGA,173456.10,4138.0481250,N,07032.4229616,W,1,23,0.7,13.044,M,-29.745,M,0.0,*57
###2023-12-09 12:34:56.946689$GPGSA,A,3,03,04,16,26,28,29,31,32,,,,,1.2,0.7,1.0*31
###2023-12-09 12:34:56.948348$GLGSA,A,3,71,72,73,74,75,,,,,,,,1.2,0.7,1.0*2D
###2023-12-09 12:34:56.949921$GAGSA,A,3,04,19,21,27,,,,,,,,,1.2,0.7,1.0*2C
###2023-12-09 12:34:56.951571$GBGSA,A,3,14,24,25,26,33,,,,,,,,1.2,0.7,1.0*25
###2023-12-09 12:34:56.953882$GPGSV,2,1,08,03,39,277,45,04,22,311,44,16,37,207,45,26,66,206,48*74
###2023-12-09 12:34:56.956210$GPGSV,2,2,08,28,58,056,45,29,25,074,40,31,73,001,47,32,30,134,44*7F
###2023-12-09 12:34:56.958533$GLGSV,2,1,05,71,57,169,47,72,65,310,46,73,48,033,46,74,71,290,43*6F
###2023-12-09 12:34:56.960004$GLGSV,2,2,05,75,22,241,45,,,,,,,,,,,,*54
###2023-12-09 12:34:56.962325$GAGSV,1,1,04,04,21,311,41,19,81,304,41,21,77,177,46,27,42,050,41*6D
###2023-12-09 12:34:56.964667$GBGSV,2,1,05,14,55,198,43,24,81,343,48,25,32,252,43,26,35,057,44*6C
###2023-12-09 12:34:56.966114$GBGSV,2,2,05,33,63,255,47,,,,,,,,,,,,*5A
###2023-12-09 12:34:56.967415$GNVTG,84.40,T,,M,0.14,N,0.25,K,A*19
###2023-12-09 12:34:56.969055$GNGST,173456.10,18.000,,,,0.081,0.071,0.170*54
###2023-12-09 12:34:56.970336$GNZDA,173456.10,09,12,2023,00,00*72
###2023-12-09 12:34:56.970985$GNEBP,,,,,,M*13
###2023-12-09 12:34:57.139763$GNGGA,173456.30,4138.0481296,N,07032.4229635,W,1,23,0.7,13.053,M,-29.745,M,0.0,*58
###2023-12-09 12:34:57.335347$GNGGA,173456.50,4138.0481384,N,07032.4229674,W,1,23,0.7,13.060,M,-29.745,M,0.0,*59
###2023-12-09 12:34:57.536303$GNGGA,173456.70,4138.0481498,N,07032.4229816,W,1,23,0.7,13.057,M,-29.745,M,0.0,*5F
###2023-12-09 12:34:57.734887$GNGGA,173456.90,4138.0481620,N,07032.4229903,W,1,23,0.7,13.044,M,-29.745,M,0.0,*57
###2023-12-09 12:34:57.936627$GNRMC,173457.10,A,4138.0481675,N,07032.4229925,W,0.14,84.40,091223,,,A*64
###2023-12-09 12:34:57.939477$GNGGA,173457.10,4138.0481675,N,07032.4229925,W,1,23,0.7,13.031,M,-29.745,M,0.0,*58
###2023-12-09 12:34:57.941332$GPGSA,A,3,03,04,16,26,28,29,31,32,,,,,1.2,0.7,1.0*31
###2023-12-09 12:34:57.942990$GLGSA,A,3,71,72,73,74,75,,,,,,,,1.2,0.7,1.0*2D
###2023-12-09 12:34:57.944568$GAGSA,A,3,04,19,21,27,,,,,,,,,1.2,0.7,1.0*2C
###2023-12-09 12:34:57.946211$GBGSA,A,3,14,24,25,26,33,,,,,,,,1.2,0.7,1.0*25
###2023-12-09 12:34:57.948560$GPGSV,2,1,08,03,39,277,45,04,22,311,44,16,37,207,45,26,66,206,48*74
###2023-12-09 12:34:57.950921$GPGSV,2,2,08,28,58,056,44,29,25,074,40,31,73,001,47,32,30,134,44*7E
###2023-12-09 12:34:57.953258$GLGSV,2,1,05,71,57,169,48,72,65,310,46,73,48,033,46,74,71,290,43*60
###2023-12-09 12:34:57.954724$GLGSV,2,2,05,75,22,241,44,,,,,,,,,,,,*55
###2023-12-09 12:34:57.957045$GAGSV,1,1,04,04,21,311,41,19,81,304,40,21,77,177,46,27,42,050,41*6C
###2023-12-09 12:34:57.959386$GBGSV,2,1,05,14,55,198,44,24,81,343,48,25,32,252,44,26,35,057,46*6E
###2023-12-09 12:34:57.960838$GBGSV,2,2,05,33,63,255,47,,,,,,,,,,,,*5A
###2023-12-09 12:34:57.962127$GNVTG,84.40,T,,M,0.14,N,0.25,K,A*19
###2023-12-09 12:34:57.963781$GNGST,173457.10,18.000,,,,0.081,0.071,0.170*55
###2023-12-09 12:34:57.965327$GNZDA,173457.10,09,12,2023,00,00*73
###2023-12-09 12:34:57.965969$GNEBP,,,,,,M*13
###2023-12-09 12:34:58.136532$GNGGA,173457.30,4138.0481764,N,07032.4229995,W,1,23,0.7,13.034,M,-29.745,M,0.0,*55
###2023-12-09 12:34:58.334961$GNGGA,173457.50,4138.0481913,N,07032.4230165,W,1,23,0.7,13.046,M,-29.745,M,0.0,*57
###2023-12-09 12:34:58.534441$GNGGA,173457.70,4138.0482046,N,07032.4230305,W,1,23,0.7,13.049,M,-29.745,M,0.0,*54
###2023-12-09 12:34:58.733406$GNGGA,173457.90,4138.0482078,N,07032.4230297,W,1,23,0.7,13.039,M,-29.745,M,0.0,*5A
###2023-12-09 12:34:58.935866$GNRMC,173458.10,A,4138.0482119,N,07032.4230314,W,0.25,84.40,091223,,,A*67
###2023-12-09 12:34:58.938730$GNGGA,173458.10,4138.0482119,N,07032.4230314,W,1,23,0.7,13.024,M,-29.745,M,0.0,*5D
