###2023-12-09 12:27:37.935776$GLGSV,1,1,04,71,60,168,46,72,63,315,42,73,51,031,48,75,19,238,40*64
###2023-12-09 12:27:37.937559$GAGSV,1,1,02,21,75,179,41,27,44,050,45,,,,,,,,*60
###2023-12-09 12:27:37.939926$GBGSV,1,1,04,14,58,200,45,25,30,250,35,26,37,056,48,33,64,261,40*6D
###2023-12-09 12:27:37.941078$GNVTG,,T,,M,0.02,N,0.04,K,A*3B
###2023-12-09 12:27:37.942758$GNGST,172737.10,32.000,,,,0.100,0.098,0.260*54
###2023-12-09 12:27:37.944064$GNZDA,172737.10,09,12,2023,00,00*77
###2023-12-09 12:27:37.944716$GNEBP,,,,,,M*13
###2023-12-09 12:27:38.120370$GNGGA,172737.30,4138.0391658,N,07032.4363079,W,1,17,0.8,5.740,M,-29.746,M,0.0,*65
###2023-12-09 12:27:38.319331$GNGGA,172737.50,4138.0391669,N,07032.4363040,W,1,16,0.9,5.741,M,-29.746,M,0.0,*6A
###2023-12-09 12:27:38.524887$GNGGA,172737.70,4138.0391683,N,07032.4362989,W,1,17,0.8,5.744,M,-29.746,M,0.0,*64
###2023-12-09 12:27:38.722914$GNGGA,172737.90,4138.0391689,N,07032.4362937,W,1,17,0.8,5.750,M,-29.746,M,0.0,*60
###2023-12-09 12:27:38.921355$GNRMC,172738.10,A,4138.0391695,N,07032.4362891,W,0.02,,091223,,,A*46
###2023-12-09 12:27:38.924395$GNGGA,172738.10,4138.0391695,N,07032.4362891,W,1,17,0.8,5.753,M,-29.746,M,0.0,*64
###2023-12-09 12:27:38.926393$GPGSA,A,3,03,16,26,28,29,31,32,,,,,,1.5,0.8,1.3*3E
###2023-12-09 12:27:38.928179$GLGSA,A,3,71,72,73,75,,,,,,,,,1.5,0.8,1.3*25
###2023-12-09 12:27:38.929800$GAGSA,A,3,21,27,,,,,,,,,,,1.5,0.8,1.3*2B
###2023-12-09 12:27:38.931557$GBGSA,A,3,14,25,26,33,,,,,,,,,1.5,0.8,1.3*28
###2023-12-09 12:27:38.934065$GPGSV,2,1,07,03,39,281,42,16,33,206,45,26,62,205,41,28,60,051,42*77
###2023-12-09 12:27:38.936295$GPGSV,2,2,07,29,24,078,41,31,73,348,42,32,33,132,46,,,,*45
###2023-12-09 12:27:38.938828$GLGSV,1,1,04,71,60,168,46,72,63,315,42,73,51,031,48,75,19,238,40*64
###2023-12-09 12:27:38.940769$GAGSV,1,1,02,21,75,179,41,27,44,050,46,,,,,,,,*63
###2023-12-09 12:27:38.943281$GBGSV,1,1,04,14,58,200,45,25,30,250,35,26,37,056,48,33,64,261,41*6C
###2023-12-09 12:27:38.944586$GNVTG,,T,,M,0.02,N,0.04,K,A*3B
###2023-12-09 12:27:38.946385$GNGST,172738.10,32.000,,,,0.100,0.097,0.260*54
###2023-12-09 12:27:38.947734$GNZDA,172738.10,09,12,2023,00,00*78
###2023-12-09 12:27:38.948400$GNEBP,,,,,,M*13
###2023-12-09 12:27:39.121754$GNGGA,172738.30,4138.0391713,N,07032.4362830,W,1,17,0.8,5.755,M,-29.746,M,0.0,*64
###2023-12-09 12:27:39.318294$GNGGA,172738.50,4138.0391730,N,07032.4362774,W,1,17,0.8,5.765,M,-29.746,M,0.0,*6F
###2023-12-09 12:27:39.525034$GNGGA,172738.70,4138.0391734,N,07032.4362708,W,1,17,0.8,5.772,M,-29.746,M,0.0,*64
###2023-12-09 12:27:39.719778$GNGGA,172738.90,4138.0391754,N,07032.4362657,W,1,17,0.8,5.783,M,-29.746,M,0.0,*69
###2023-12-09 12:27:39.917066$GNRMC,172739.10,A,4138.0391770,N,07032.4362608,W,0.02,,091223,,,A*43
###2023-12-09 12:27:39.919929$GNGGA,172739.10,4138.0391770,N,07032.4362608,W,1,17,0.8,5.788,M,-29.746,M,0.0,*67
###2023-12-09 12:27:39.921752$GPGSA,A,3,03,16,26,28,29,31,32,,,,,,1.5,0.8,1.3*3E
###2023-12-09 12:27:39.923374$GLGSA,A,3,71,72,73,75,,,,,,,,,1.5,0.8,1.3*25
###2023-12-09 12:27:39.924850$GAGSA,A,3,21,27,,,,,,,,,,,1.5,0.8,1.3*2B
###2023-12-09 12:27:39.926458$GBGSA,A,3,14,25,26,33,,,,,,,,,1.5,0.8,1.3*28
###2023-12-09 12:27:39.928839$GPGSV,2,1,07,03,39,281,42,16,33,206,45,26,62,205,41,28,60,051,42*77
###2023-12-09 12:27:39.930913$GPGSV,2,2,07,29,24,078,41,31,73,348,42,32,33,132,46,,,,*45
###2023-12-09 12:27:39.933262$GLGSV,1,1,04,71,60,168,46,72,63,315,42,73,51,031,48,75,19,238,40*64
###2023-12-09 12:27:39.935042$GAGSV,1,1,02,21,75,179,41,27,44,050,46,,,,,,,,*63
###2023-12-09 12:27:39.937392$GBGSV,1,1,04,14,58,200,45,25,30,250,35,26,37,056,48,33,64,261,41*6C
###2023-12-09 12:27:39.938541$GNVTG,,T,,M,0.02,N,0.04,K,A*3B
###2023-12-09 12:27:39.940221$GNGST,172739.10,32.000,,,,0.100,0.097,0.260*55
###2023-12-09 12:27:39.941533$GNZDA,172739.10,09,12,2023,00,00*79
###2023-12-09 12:27:39.942190$GNEBP,,,,,,M*13
###2023-12-09 12:27:40.123985$GNGGA,172739.30,4138.0391779,N,07032.4362520,W,1,17,0.8,5.806,M,-29.746,M,0.0,*6C
###2023-12-09 12:27:40.319429$GNGGA,172739.50,4138.0391796,N,07032.4362436,W,1,17,0.8,5.821,M,-29.746,M,0.0,*68
###2023-12-09 12:27:40.517732$GNGGA,172739.70,4138.0391804,N,07032.4362342,W,1,17,0.8,5.843,M,-29.746,M,0.0,*6E
###2023-12-09 12:27:40.716533$GNGGA,172739.90,4138.0391818,N,07032.4362258,W,1,17,0.8,5.862,M,-29.746,M,0.0,*64
###2023-12-09 12:27:40.929979$GNRMC,172740.10,A,4138.0391841,N,07032.4362171,W,0.04,,091223,,,A*4F
###2023-12-09 12:27:40.932894$GNGGA,172740.10,4138.0391841,N,07032.4362171,W,1,17,0.8,5.885,M,-29.746,M,0.0,*6F
###2023-12-09 12:27:40.934737$GPGSA,A,3,03,16,26,28,29,31,32,,,,,,1.5,0.8,1.3*3E
###2023-12-09 12:27:40.936347$GLGSA,A,3,71,72,73,75,,,,,,,,,1.5,0.8,1.3*25
###2023-12-09 12:27:40.937817$GAGSA,A,3,21,27,,,,,,,,,,,1.5,0.8,1.3*2B
###2023-12-09 12:27:40.939438$GBGSA,A,3,14,25,26,33,,,,,,,,,1.5,0.8,1.3*28
###2023-12-09 12:27:40.941786$GPGSV,2,1,07,03,39,281,42,16,33,206,45,26,62,205,41,28,60,051,42*77
###2023-12-09 12:27:40.943858$GPGSV,2,2,07,29,24,078,41,31,73,348,43,32,33,132,46,,,,*44
###2023-12-09 12:27:40.946202$GLGSV,1,1,04,71,60,168,46,72,63,315,43,73,51,031,48,75,19,238,40*65
###2023-12-09 12:27:40.948017$GAGSV,1,1,02,21,75,179,41,27,44,050,45,,,,,,,,*60
###2023-12-09 12:27:40.950408$GBGSV,1,1,04,14,58,200,45,25,30,250,35,26,37,056,48,33,64,261,41*6C
###2023-12-09 12:27:40.951642$GNVTG,,T,,M,0.04,N,0.07,K,A*3E
###2023-12-09 12:27:40.953343$GNGST,172740.10,32.000,,,,0.100,0.096,0.260*5A
###2023-12-09 12:27:40.954678$GNZDA,172740.10,09,12,2023,00,00*77
###2023-12-09 12:27:40.955337$GNEBP,,,,,,M*13
###2023-12-09 12:27:41.118345$GNGGA,172740.30,4138.0391855,N,07032.4362061,W,1,17,0.8,5.914,M,-29.746,M,0.0,*61
###2023-12-09 12:27:41.318310$GNGGA,172740.50,4138.0391865,N,07032.4361953,W,1,17,0.8,5.932,M,-29.746,M,0.0,*6B
###2023-12-09 12:27:41.518267$GNGGA,172740.70,4138.0391877,N,07032.4361854,W,1,17,0.8,5.954,M,-29.746,M,0.0,*6C
###2023-12-09 12:27:41.717431$GNGGA,172740.90,4138.0391887,N,07032.4361753,W,1,17,0.8,5.976,M,-29.746,M,0.0,*65
###2023-12-09 12:27:41.925310$GNRMC,172741.10,A,4138.0391901,N,07032.4361655,W,0.02,,091223,,,A*4F
###2023-12-09 12:27:41.928171$GNGGA,172741.10,4138.0391901,N,07032.4361655,W,1,17,0.8,5.997,M,-29.746,M,0.0,*6B
###2023-12-09 12:27:41.929984$GPGSA,A,3,03,16,26,28,29,31,32,,,,,,1.5,0.8,1.3*3E
###2023-12-09 12:27:41.931618$GLGSA,A,3,71,72,73,75,,,,,,,,,1.5,0.8,1.3*25
###2023-12-09 12:27:41.933091$GAGSA,A,3,21,27,,,,,,,,,,,1.5,0.8,1.3*2B
###2023-12-09 12:27:41.934715$GBGSA,A,3,14,25,26,33,,,,,,,,,1.5,0.8,1.3*28
###2023-12-09 12:27:41.937059$GPGSV,2,1,07,03,39,281,41,16,33,206,45,26,62,205,41,28,60,051,42*74
###2023-12-09 12:27:41.939125$GPGSV,2,2,07,29,24,078,42,31,73,348,43,32,33,132,46,,,,*47
###2023-12-09 12:27:41.941465$GLGSV,1,1,04,71,60,168,47,72,63,315,43,73,51,031,48,75,19,238,40*64
###2023-12-09 12:27:41.943249$GAGSV,1,1,02,21,75,179,41,27,44,050,45,,,,,,,,*60
###2023-12-09 12:27:41.945592$GBGSV,1,1,04,14,58,200,45,25,30,250,35,26,37,056,48,33,64,261,41*6C
###2023-12-09 12:27:41.946774$GNVTG,,T,,M,0.02,N,0.04,K,A*3B
###2023-12-09 12:27:41.948457$GNGST,172741.10,32.000,,,,0.100,0.095,0.260*58
###2023-12-09 12:27:41.949766$GNZDA,172741.10,09,12,2023,00,00*76
###2023-12-09 12:27:41.950420$GNEBP,,,,,,M*13
###2023-12-09 12:27:42.118249$GNGGA,172741.30,4138.0391911,N,07032.4361555,W,1,17,0.8,6.022,M,-29.746,M,0.0,*6F
###2023-12-09 12:27:42.318227$GNGGA,172741.50,4138.0391924,N,07032.4361462,W,1,17,0.8,6.035,M,-29.746,M,0.0,*6C
###2023-12-09 12:27:42.518198$GNGGA,172741.70,4138.0391932,N,07032.4361367,W,1,17,0.8,6.059,M,-29.746,M,0.0,*61
###2023-12-09 12:27:42.717388$GNGGA,172741.90,4138.0391949,N,07032.4361278,W,1,17,0.8,6.081,M,-29.746,M,0.0,*69
###2023-12-09 12:27:42.918983$GNRMC,172742.10,A,4138.0391968,N,07032.4361189,W,0.02,,091223,,,A*45
###2023-12-09 12:27:42.922003$GNGGA,172742.10,4138.0391968,N,07032.4361189,W,1,17,0.8,6.102,M,-29.746,M,0.0,*66
###2023-12-09 12:27:42.923990$GPGSA,A,3,03,16,26,28,29,31,32,,,,,,1.5,0.8,1.3*3E
###2023-12-09 12:27:42.925758$GLGSA,A,3,71,72,73,75,,,,,,,,,1.5,0.8,1.3*25
###2023-12-09 12:27:42.927386$GAGSA,A,3,21,27,,,,,,,,,,,1.5,0.8,1.3*2B
###2023-12-09 12:27:42.929408$GBGSA,A,3,14,25,26,33,,,,,,,,,1.5,0.8,1.3*28
###2023-12-09 12:27:42.931931$GPGSV,2,1,07,03,39,281,41,16,33,206,44,26,62,205,41,28,60,051,42*75
###2023-12-09 12:27:42.934155$GPGSV,2,2,07,29,24,078,43,31,73,348,43,32,33,132,46,,,,*46
###2023-12-09 12:27:42.936687$GLGSV,1,1,04,71,60,168,47,72,63,315,43,73,51,031,48,75,19,238,40*64
###2023-12-09 12:27:42.938656$GAGSV,1,1,02,21,75,179,41,27,44,050,45,,,,,,,,*60
###2023-12-09 12:27:42.941163$GBGSV,1,1,04,14,58,200,46,25,30,250,36,26,37,056,48,33,64,261,41*6C
###2023-12-09 12:27:42.942469$GNVTG,,T,,M,0.02,N,0.04,K,A*3B
###2023-12-09 12:27:42.944283$GNGST,172742.10,32.000,,,,0.100,0.095,0.260*5B
