###2023-12-09 13:23:57.006272$GAGSA,A,3,04,19,21,27,,,,,,,,,1.1,0.7,0.9*27
###2023-12-09 13:23:57.008041$GBGSA,A,3,14,24,25,26,33,35,,,,,,,1.1,0.7,0.9*28
###2023-12-09 13:23:57.010384$GPGSV,2,1,07,03,30,251,43,04,42,310,45,16,61,218,46,26,89,050,47*77
###2023-12-09 13:23:57.012451$GPGSV,2,2,07,28,41,080,44,29,22,051,39,31,63,058,45,,,,*47
###2023-12-09 13:23:57.014807$GLGSV,2,1,06,65,34,323,42,71,29,175,43,72,68,232,46,73,27,049,39*65
###2023-12-09 13:23:57.016566$GLGSV,2,2,06,74,63,004,41,75,40,265,47,,,,,,,,*60
###2023-12-09 13:23:57.018926$GAGSV,1,1,04,04,36,311,44,19,76,185,41,21,81,054,46,27,26,049,37*6F
###2023-12-09 13:23:57.021267$GBGSV,2,1,06,14,34,191,44,24,66,040,47,25,47,271,47,26,19,068,42*63
###2023-12-09 13:23:57.023035$GBGSV,2,2,06,33,50,221,46,35,16,061,41,,,,,,,,*68
###2023-12-09 13:23:57.024302$GNVTG,5.66,T,,M,3.69,N,6.84,K,A*20
###2023-12-09 13:23:57.025952$GNGST,182356.10,18.000,,,,0.100,0.071,0.170*55
###2023-12-09 13:23:57.027256$GNZDA,182356.10,09,12,2023,00,00*7B
###2023-12-09 13:23:57.027892$GNEBP,,,,,,M*13
###2023-12-09 13:23:57.194690$GNGGA,182356.30,4138.0580937,N,07032.3764017,W,1,24,0.7,12.741,M,-29.744,M,0.0,*5F
###2023-12-09 13:23:57.384997$GNGGA,182356.50,4138.0583004,N,07032.3763845,W,1,24,0.7,12.738,M,-29.744,M,0.0,*55
###2023-12-09 13:23:57.585658$GNGGA,182356.70,4138.0585075,N,07032.3763652,W,1,24,0.7,12.733,M,-29.744,M,0.0,*54
###2023-12-09 13:23:57.786090$GNGGA,182356.90,4138.0587156,N,07032.3763412,W,1,24,0.7,12.726,M,-29.744,M,0.0,*5A
###2023-12-09 13:23:57.993513$GNRMC,182357.10,A,4138.0589160,N,07032.3763156,W,3.56,6.50,091223,,,A*59
###2023-12-09 13:23:57.996375$GNGGA,182357.10,4138.0589160,N,07032.3763156,W,1,24,0.7,12.727,M,-29.744,M,0.0,*5C
###2023-12-09 13:23:57.998161$GPGSA,A,3,03,04,16,26,28,29,31,,,,,,1.1,0.7,0.9*3B
###2023-12-09 13:23:57.999881$GLGSA,A,3,65,71,72,73,74,75,,,,,,,1.1,0.7,0.9*25
###2023-12-09 13:23:58.001455$GAGSA,A,3,04,19,21,27,,,,,,,,,1.1,0.7,0.9*27
###2023-12-09 13:23:58.003164$GBGSA,A,3,14,24,25,26,33,35,,,,,,,1.1,0.7,0.9*28
###2023-12-09 13:23:58.005479$GPGSV,2,1,07,03,30,251,43,04,42,310,45,16,61,218,46,26,89,050,48*78
###2023-12-09 13:23:58.007519$GPGSV,2,2,07,28,41,080,44,29,22,051,39,31,63,058,46,,,,*44
###2023-12-09 13:23:58.009851$GLGSV,2,1,06,65,34,323,42,71,29,175,44,72,68,232,47,73,27,049,40*6D
###2023-12-09 13:23:58.011598$GLGSV,2,2,06,74,63,004,41,75,40,265,47,,,,,,,,*60
###2023-12-09 13:23:58.013907$GAGSV,1,1,04,04,36,311,43,19,76,185,41,21,81,054,45,27,26,049,38*64
###2023-12-09 13:23:58.016237$GBGSV,2,1,06,14,34,191,43,24,66,040,47,25,47,271,47,26,19,068,41*67
###2023-12-09 13:23:58.017980$GBGSV,2,2,06,33,50,221,47,35,16,061,42,,,,,,,,*6A
###2023-12-09 13:23:58.019245$GNVTG,6.50,T,,M,3.56,N,6.59,K,A*2A
###2023-12-09 13:23:58.020884$GNGST,182357.10,18.000,,,,0.100,0.071,0.170*54
###2023-12-09 13:23:58.022170$GNZDA,182357.10,09,12,2023,00,00*7A
###2023-12-09 13:23:58.022815$GNEBP,,,,,,M*13
###2023-12-09 13:23:58.185528$GNGGA,182357.30,4138.0591141,N,07032.3762830,W,1,24,0.7,12.719,M,-29.744,M,0.0,*51
###2023-12-09 13:23:58.386147$GNGGA,182357.50,4138.0593066,N,07032.3762707,W,1,24,0.7,12.713,M,-29.744,M,0.0,*50
###2023-12-09 13:23:58.586546$GNGGA,182357.70,4138.0594947,N,07032.3762789,W,1,24,0.7,12.719,M,-29.744,M,0.0,*53
###2023-12-09 13:23:58.788042$GNGGA,182357.90,4138.0596822,N,07032.3762874,W,1,24,0.7,12.730,M,-29.744,M,0.0,*5B
###2023-12-09 13:23:58.992051$GNRMC,182358.10,A,4138.0598685,N,07032.3763088,W,3.38,353.76,091223,,,A*57
###2023-12-09 13:23:58.994935$GNGGA,182358.10,4138.0598685,N,07032.3763088,W,1,24,0.7,12.742,M,-29.744,M,0.0,*5E
###2023-12-09 13:23:58.996735$GPGSA,A,3,03,04,16,26,28,29,31,,,,,,1.1,0.7,0.9*3B
###2023-12-09 13:23:58.998449$GLGSA,A,3,65,71,72,73,74,75,,,,,,,1.1,0.7,0.9*25
###2023-12-09 13:23:59.000049$GAGSA,A,3,04,19,21,27,,,,,,,,,1.1,0.7,0.9*27
###2023-12-09 13:23:59.001762$GBGSA,A,3,14,24,25,26,33,35,,,,,,,1.1,0.7,0.9*28
###2023-12-09 13:23:59.004099$GPGSV,2,1,07,03,30,251,43,04,42,310,44,16,61,218,47,26,89,050,48*78
###2023-12-09 13:23:59.006136$GPGSV,2,2,07,28,41,080,45,29,22,051,41,31,63,058,47,,,,*4B
###2023-12-09 13:23:59.008478$GLGSV,2,1,06,65,34,323,41,71,29,175,43,72,68,232,46,73,27,049,42*6A
###2023-12-09 13:23:59.010226$GLGSV,2,2,06,74,63,004,41,75,40,265,47,,,,,,,,*60
###2023-12-09 13:23:59.012561$GAGSV,1,1,04,04,36,311,43,19,76,185,41,21,81,054,46,27,26,049,39*66
###2023-12-09 13:23:59.014913$GBGSV,2,1,06,14,34,191,43,24,66,040,49,25,47,271,47,26,19,068,45*6D
###2023-12-09 13:23:59.016662$GBGSV,2,2,06,33,50,221,48,35,16,061,43,,,,,,,,*64
###2023-12-09 13:23:59.017987$GNVTG,353.76,T,,M,3.38,N,6.26,K,A*2D
###2023-12-09 13:23:59.019645$GNGST,182358.10,18.000,,,,0.100,0.071,0.170*5B
###2023-12-09 13:23:59.020939$GNZDA,182358.10,09,12,2023,00,00*75
###2023-12-09 13:23:59.021578$GNEBP,,,,,,M*13
###2023-12-09 13:23:59.187414$GNGGA,182358.30,4138.0600578,N,07032.3763427,W,1,24,0.7,12.743,M,-29.744,M,0.0,*5F
###2023-12-09 13:23:59.386213$GNGGA,182358.50,4138.0602475,N,07032.3763866,W,1,24,0.7,12.745,M,-29.744,M,0.0,*58
###2023-12-09 13:23:59.587852$GNGGA,182358.70,4138.0604481,N,07032.3764327,W,1,24,0.7,12.751,M,-29.744,M,0.0,*5B
###2023-12-09 13:23:59.787231$GNGGA,182358.90,4138.0606561,N,07032.3764750,W,1,24,0.7,12.764,M,-29.744,M,0.0,*5A
###2023-12-09 13:23:59.990929$GNRMC,182359.10,A,4138.0608687,N,07032.3765224,W,3.91,350.24,091223,,,A*5B
###2023-12-09 13:23:59.993790$GNGGA,182359.10,4138.0608687,N,07032.3765224,W,1,24,0.7,12.768,M,-29.744,M,0.0,*5D
###2023-12-09 13:23:59.995593$GPGSA,A,3,03,04,16,26,28,29,31,,,,,,1.1,0.7,0.9*3B
###2023-12-09 13:23:59.997308$GLGSA,A,3,65,71,72,73,74,75,,,,,,,1.1,0.7,0.9*25
###2023-12-09 13:23:59.998900$GAGSA,A,3,04,19,21,27,,,,,,,,,1.1,0.7,0.9*27
###2023-12-09 13:24:00.000612$GBGSA,A,3,14,24,25,26,33,35,,,,,,,1.1,0.7,0.9*28
###2023-12-09 13:24:00.002944$GPGSV,2,1,07,03,30,251,44,04,42,310,45,16,61,218,47,26,89,050,48*7E
###2023-12-09 13:24:00.004979$GPGSV,2,2,07,28,41,080,44,29,22,051,42,31,63,058,47,,,,*49
###2023-12-09 13:24:00.007315$GLGSV,2,1,06,65,34,323,43,71,29,175,43,72,68,232,47,73,27,049,41*6A
###2023-12-09 13:24:00.009059$GLGSV,2,2,06,74,63,004,41,75,40,265,48,,,,,,,,*6F
###2023-12-09 13:24:00.011392$GAGSV,1,1,04,04,36,311,44,19,76,185,41,21,80,052,46,27,26,049,40*68
###2023-12-09 13:24:00.013713$GBGSV,2,1,06,14,34,191,45,24,66,040,48,25,47,271,48,26,19,068,43*63
###2023-12-09 13:24:00.015467$GBGSV,2,2,06,33,50,221,47,35,16,061,43,,,,,,,,*6B
###2023-12-09 13:24:00.016791$GNVTG,350.24,T,,M,3.91,N,7.24,K,A*29
###2023-12-09 13:24:00.018430$GNGST,182359.10,18.000,,,,0.100,0.070,0.170*5B
###2023-12-09 13:24:00.019727$GNZDA,182359.10,09,12,2023,00,00*74
###2023-12-09 13:24:00.020366$GNEBP,,,,,,M*13
###2023-12-09 13:24:00.187403$GNGGA,182359.30,4138.0610853,N,07032.3765768,W,1,24,0.7,12.780,M,-29.744,M,0.0,*5A
###2023-12-09 13:24:00.385118$GNGGA,182359.50,4138.0613049,N,07032.3766175,W,1,24,0.7,12.783,M,-29.744,M,0.0,*56
###2023-12-09 13:24:00.591144$GNGGA,182359.70,4138.0615259,N,07032.3766356,W,1,24,0.7,12.777,M,-29.744,M,0.0,*59
###2023-12-09 13:24:00.785691$GNGGA,182359.90,4138.0617437,N,07032.3766485,W,1,24,0.7,12.774,M,-29.744,M,0.0,*51
###2023-12-09 13:24:00.989836$GNRMC,182400.10,A,4138.0619570,N,07032.3766692,W,3.75,355.37,091223,,,A*5C
###2023-12-09 13:24:00.992704$GNGGA,182400.10,4138.0619570,N,07032.3766692,W,1,24,0.7,12.763,M,-29.744,M,0.0,*5C
###2023-12-09 13:24:00.994489$GPGSA,A,3,03,04,16,26,28,29,31,,,,,,1.1,0.7,0.9*3B
###2023-12-09 13:24:00.996214$GLGSA,A,3,65,71,72,73,74,75,,,,,,,1.1,0.7,0.9*25
###2023-12-09 13:24:00.997796$GAGSA,A,3,04,19,21,27,,,,,,,,,1.1,0.7,0.9*27
###2023-12-09 13:24:00.999510$GBGSA,A,3,14,24,25,26,33,35,,,,,,,1.1,0.7,0.9*28
###2023-12-09 13:24:01.001826$GPGSV,2,1,07,03,30,251,44,04,42,310,45,16,61,218,47,26,89,050,48*7E
###2023-12-09 13:24:01.003874$GPGSV,2,2,07,28,41,080,45,29,22,051,42,31,63,058,46,,,,*49
###2023-12-09 13:24:01.006193$GLGSV,2,1,06,65,34,323,41,71,29,175,44,72,68,232,47,73,27,049,43*6D
###2023-12-09 13:24:01.007943$GLGSV,2,2,06,74,63,004,41,75,40,265,47,,,,,,,,*60
###2023-12-09 13:24:01.010257$GAGSV,1,1,04,04,36,311,43,19,76,185,41,21,80,052,45,27,26,049,41*6D
###2023-12-09 13:24:01.012823$GBGSV,2,1,06,14,34,191,44,24,66,040,47,25,47,271,47,26,19,068,44*65
###2023-12-09 13:24:01.014586$GBGSV,2,2,06,33,50,221,47,35,16,061,44,,,,,,,,*6C
###2023-12-09 13:24:01.015911$GNVTG,355.37,T,,M,3.75,N,6.95,K,A*2F
###2023-12-09 13:24:01.017556$GNGST,182400.10,18.000,,,,0.100,0.070,0.170*50
###2023-12-09 13:24:01.018853$GNZDA,182400.10,09,12,2023,00,00*7F
###2023-12-09 13:24:01.019492$GNEBP,,,,,,M*13
###2023-12-09 13:24:01.185392$GNGGA,182400.30,4138.0621680,N,07032.3766924,W,1,24,0.7,12.761,M,-29.744,M,0.0,*59
###2023-12-09 13:24:01.386119$GNGGA,182400.50,4138.0623754,N,07032.3767088,W,1,24,0.6,12.768,M,-29.744,M,0.0,*53
###2023-12-09 13:24:01.585500$GNGGA,182400.70,4138.0625836,N,07032.3767213,W,1,24,0.6,12.776,M,-29.744,M,0.0,*53
