###2023-12-09 12:25:20.944870$GNVTG,,T,,M,0.02,N,0.04,K,A*3B
###2023-12-09 12:25:20.946714$GNGST,172520.10,30.000,,,,0.220,0.210,0.430*52
###2023-12-09 12:25:20.948195$GNZDA,172520.10,09,12,2023,00,00*73
###2023-12-09 12:25:20.948972$GNEBP,,,,,,M*13
###2023-12-09 12:25:21.117058$GNGGA,172520.30,4138.0387769,N,07032.4363925,W,1,18,0.7,10.632,M,-29.746,M,0.0,*55
###2023-12-09 12:25:21.316121$GNGGA,172520.50,4138.0387742,N,07032.4363897,W,1,18,0.7,10.632,M,-29.746,M,0.0,*52
###2023-12-09 12:25:21.515956$GNGGA,172520.70,4138.0387713,N,07032.4363875,W,1,18,0.7,10.624,M,-29.746,M,0.0,*5F
###2023-12-09 12:25:21.715129$GNGGA,172520.90,4138.0387704,N,07032.4363853,W,1,18,0.7,10.622,M,-29.746,M,0.0,*55
###2023-12-09 12:25:21.916791$GNRMC,172521.10,A,4138.0387672,N,07032.4363829,W,0.02,,091223,,,A*40
###2023-12-09 12:25:21.919666$GNGGA,172521.10,4138.0387672,N,07032.4363829,W,1,18,0.7,10.626,M,-29.746,M,0.0,*55
###2023-12-09 12:25:21.921481$GPGSA,A,3,03,16,25,26,28,29,32,,,,,,1.2,0.7,1.0*30
###2023-12-09 12:25:21.923106$GLGSA,A,3,71,72,73,75,,,,,,,,,1.2,0.7,1.0*2E
###2023-12-09 12:25:21.924643$GAGSA,A,3,04,21,27,,,,,,,,,,1.2,0.7,1.0*24
###2023-12-09 12:25:21.926228$GBGSA,A,3,14,25,26,33,,,,,,,,,1.2,0.7,1.0*23
###2023-12-09 12:25:21.928574$GPGSV,2,1,07,03,39,282,43,16,32,206,38,25,16,045,40,26,61,205,43*74
###2023-12-09 12:25:21.930643$GPGSV,2,2,07,28,61,050,43,29,24,079,44,32,34,131,46,,,,*45
###2023-12-09 12:25:21.932989$GLGSV,1,1,04,71,62,167,43,72,61,316,40,73,52,030,48,75,18,237,41*62
###2023-12-09 12:25:21.935059$GAGSV,1,1,03,04,18,310,36,21,74,180,45,27,45,051,46,,,,*5B
###2023-12-09 12:25:21.937416$GBGSV,1,1,04,14,59,200,45,25,29,249,37,26,38,055,48,33,64,264,36*66
###2023-12-09 12:25:21.938584$GNVTG,,T,,M,0.02,N,0.04,K,A*3B
###2023-12-09 12:25:21.940271$GNGST,172521.10,30.000,,,,0.220,0.210,0.430*53
###2023-12-09 12:25:21.941580$GNZDA,172521.10,09,12,2023,00,00*72
###2023-12-09 12:25:21.942236$GNEBP,,,,,,M*13
###2023-12-09 12:25:22.116009$GNGGA,172521.30,4138.0387654,N,07032.4363815,W,1,18,0.7,10.621,M,-29.746,M,0.0,*5B
###2023-12-09 12:25:22.317131$GNGGA,172521.50,4138.0387628,N,07032.4363786,W,1,18,0.7,10.617,M,-29.746,M,0.0,*56
###2023-12-09 12:25:22.515935$GNGGA,172521.70,4138.0387600,N,07032.4363771,W,1,18,0.7,10.612,M,-29.746,M,0.0,*53
###2023-12-09 12:25:22.715107$GNGGA,172521.90,4138.0387563,N,07032.4363751,W,1,18,0.7,10.605,M,-29.746,M,0.0,*5F
###2023-12-09 12:25:22.922841$GNRMC,172522.10,A,4138.0387544,N,07032.4363730,W,0.04,,091223,,,A*44
###2023-12-09 12:25:22.925905$GNGGA,172522.10,4138.0387544,N,07032.4363730,W,1,18,0.7,10.607,M,-29.746,M,0.0,*54
###2023-12-09 12:25:22.927905$GPGSA,A,3,03,16,25,26,28,29,32,,,,,,1.2,0.7,1.0*30
###2023-12-09 12:25:22.929660$GLGSA,A,3,71,72,73,75,,,,,,,,,1.2,0.7,1.0*2E
###2023-12-09 12:25:22.931349$GAGSA,A,3,04,21,27,,,,,,,,,,1.2,0.7,1.0*24
###2023-12-09 12:25:22.933078$GBGSA,A,3,14,25,26,33,,,,,,,,,1.2,0.7,1.0*23
###2023-12-09 12:25:22.935587$GPGSV,2,1,07,03,39,282,44,16,32,206,37,25,16,045,40,26,61,205,44*7B
###2023-12-09 12:25:22.937791$GPGSV,2,2,07,28,61,050,43,29,24,079,45,32,34,131,46,,,,*44
###2023-12-09 12:25:22.940288$GLGSV,1,1,04,71,62,167,43,72,61,316,39,73,52,030,48,75,18,237,41*6C
###2023-12-09 12:25:22.942480$GAGSV,1,1,03,04,18,310,35,21,74,180,45,27,45,051,46,,,,*58
###2023-12-09 12:25:22.944974$GBGSV,1,1,04,14,59,200,44,25,29,249,38,26,38,055,48,33,64,264,35*6B
###2023-12-09 12:25:22.946227$GNVTG,,T,,M,0.04,N,0.07,K,A*3E
###2023-12-09 12:25:22.947920$GNGST,172522.10,30.000,,,,0.220,0.210,0.430*50
###2023-12-09 12:25:22.949234$GNZDA,172522.10,09,12,2023,00,00*71
###2023-12-09 12:25:22.949881$GNEBP,,,,,,M*13
###2023-12-09 12:25:23.117354$GNGGA,172522.30,4138.0387516,N,07032.4363710,W,1,18,0.7,10.602,M,-29.746,M,0.0,*56
###2023-12-09 12:25:23.315909$GNGGA,172522.50,4138.0387482,N,07032.4363684,W,1,18,0.7,10.600,M,-29.746,M,0.0,*52
###2023-12-09 12:25:23.517151$GNGGA,172522.70,4138.0387454,N,07032.4363660,W,1,18,0.7,10.599,M,-29.746,M,0.0,*52
###2023-12-09 12:25:23.715070$GNGGA,172522.90,4138.0387430,N,07032.4363650,W,1,18,0.7,10.598,M,-29.746,M,0.0,*5C
###2023-12-09 12:25:23.922231$GNRMC,172523.10,A,4138.0387399,N,07032.4363631,W,0.04,,091223,,,A*43
###2023-12-09 12:25:23.925334$GNGGA,172523.10,4138.0387399,N,07032.4363631,W,1,18,0.7,10.595,M,-29.746,M,0.0,*5B
###2023-12-09 12:25:23.927174$GPGSA,A,3,03,16,25,26,28,29,32,,,,,,1.2,0.7,1.0*30
###2023-12-09 12:25:23.928781$GLGSA,A,3,71,72,73,75,,,,,,,,,1.2,0.7,1.0*2E
###2023-12-09 12:25:23.930314$GAGSA,A,3,04,21,27,,,,,,,,,,1.2,0.7,1.0*24
###2023-12-09 12:25:23.931930$GBGSA,A,3,14,25,26,33,,,,,,,,,1.2,0.7,1.0*23
###2023-12-09 12:25:23.934276$GPGSV,2,1,07,03,39,282,44,16,32,206,38,25,16,045,40,26,61,205,44*74
###2023-12-09 12:25:23.936350$GPGSV,2,2,07,28,61,050,43,29,24,079,44,32,34,131,46,,,,*45
###2023-12-09 12:25:23.938704$GLGSV,1,1,04,71,62,167,43,72,61,316,39,73,52,030,48,75,18,237,41*6C
###2023-12-09 12:25:23.940763$GAGSV,1,1,03,04,18,310,35,21,74,180,45,27,45,051,46,,,,*58
###2023-12-09 12:25:23.943123$GBGSV,1,1,04,14,59,200,44,25,29,249,38,26,38,055,48,33,64,264,36*68
###2023-12-09 12:25:23.944267$GNVTG,,T,,M,0.04,N,0.07,K,A*3E
###2023-12-09 12:25:23.945919$GNGST,172523.10,30.000,,,,0.220,0.220,0.440*55
###2023-12-09 12:25:23.947261$GNZDA,172523.10,09,12,2023,00,00*70
###2023-12-09 12:25:23.947924$GNEBP,,,,,,M*13
###2023-12-09 12:25:24.118097$GNGGA,172523.30,4138.0387374,N,07032.4363614,W,1,18,0.7,10.592,M,-29.746,M,0.0,*5A
###2023-12-09 12:25:24.319656$GNGGA,172523.50,4138.0387347,N,07032.4363593,W,1,18,0.7,10.585,M,-29.746,M,0.0,*56
###2023-12-09 12:25:24.516866$GNGGA,172523.70,4138.0387323,N,07032.4363578,W,1,18,0.7,10.579,M,-29.746,M,0.0,*50
###2023-12-09 12:25:24.716055$GNGGA,172523.90,4138.0387294,N,07032.4363557,W,1,18,0.7,10.569,M,-29.746,M,0.0,*5F
###2023-12-09 12:25:24.919719$GNRMC,172524.10,A,4138.0387266,N,07032.4363535,W,0.02,,091223,,,A*44
###2023-12-09 12:25:24.922787$GNGGA,172524.10,4138.0387266,N,07032.4363535,W,1,18,0.7,10.567,M,-29.746,M,0.0,*57
###2023-12-09 12:25:24.924773$GPGSA,A,3,03,16,25,26,28,29,32,,,,,,1.2,0.7,1.0*30
###2023-12-09 12:25:24.926528$GLGSA,A,3,71,72,73,75,,,,,,,,,1.2,0.7,1.0*2E
###2023-12-09 12:25:24.928231$GAGSA,A,3,04,21,27,,,,,,,,,,1.2,0.7,1.0*24
###2023-12-09 12:25:24.929968$GBGSA,A,3,14,25,26,33,,,,,,,,,1.2,0.7,1.0*23
###2023-12-09 12:25:24.932459$GPGSV,2,1,07,03,39,282,44,16,32,206,38,25,16,045,40,26,61,205,44*74
###2023-12-09 12:25:24.934680$GPGSV,2,2,07,28,61,050,43,29,24,079,45,32,34,131,46,,,,*44
###2023-12-09 12:25:24.937166$GLGSV,1,1,04,71,62,167,44,72,61,316,40,73,52,030,48,75,18,237,41*65
###2023-12-09 12:25:24.939382$GAGSV,1,1,03,04,18,310,35,21,74,180,45,27,45,051,46,,,,*58
###2023-12-09 12:25:24.941877$GBGSV,1,1,04,14,59,200,45,25,29,249,38,26,38,055,48,33,64,264,36*69
###2023-12-09 12:25:24.943191$GNVTG,,T,,M,0.02,N,0.04,K,A*3B
###2023-12-09 12:25:24.945006$GNGST,172524.10,30.000,,,,0.230,0.220,0.440*53
###2023-12-09 12:25:24.946442$GNZDA,172524.10,09,12,2023,00,00*77
###2023-12-09 12:25:24.947247$GNEBP,,,,,,M*13
###2023-12-09 12:25:25.116666$GNGGA,172524.30,4138.0387236,N,07032.4363517,W,1,18,0.7,10.561,M,-29.746,M,0.0,*56
###2023-12-09 12:25:25.317000$GNGGA,172524.50,4138.0387215,N,07032.4363496,W,1,18,0.7,10.556,M,-29.746,M,0.0,*5D
###2023-12-09 12:25:25.516848$GNGGA,172524.70,4138.0387193,N,07032.4363484,W,1,18,0.7,10.550,M,-29.746,M,0.0,*57
###2023-12-09 12:25:25.716150$GNGGA,172524.90,4138.0387167,N,07032.4363449,W,1,18,0.7,10.546,M,-29.746,M,0.0,*54
###2023-12-09 12:25:25.917646$GNRMC,172525.10,A,4138.0387148,N,07032.4363440,W,0.04,,091223,,,A*4F
###2023-12-09 12:25:25.920749$GNGGA,172525.10,4138.0387148,N,07032.4363440,W,1,18,0.7,10.544,M,-29.746,M,0.0,*5B
###2023-12-09 12:25:25.922572$GPGSA,A,3,03,16,25,26,28,29,32,,,,,,1.2,0.7,1.0*30
###2023-12-09 12:25:25.924172$GLGSA,A,3,71,72,73,75,,,,,,,,,1.2,0.7,1.0*2E
###2023-12-09 12:25:25.925705$GAGSA,A,3,04,21,27,,,,,,,,,,1.2,0.7,1.0*24
###2023-12-09 12:25:25.927312$GBGSA,A,3,14,25,26,33,,,,,,,,,1.2,0.7,1.0*23
###2023-12-09 12:25:25.929646$GPGSV,2,1,07,03,39,282,44,16,32,206,38,25,16,045,40,26,61,205,43*73
###2023-12-09 12:25:25.931719$GPGSV,2,2,07,28,61,050,43,29,24,079,45,32,34,131,46,,,,*44
###2023-12-09 12:25:25.934309$GLGSV,1,1,04,71,62,167,44,72,61,316,40,73,52,030,48,75,18,237,41*65
###2023-12-09 12:25:25.936402$GAGSV,1,1,03,04,18,310,35,21,74,180,45,27,45,051,46,,,,*58
###2023-12-09 12:25:25.938767$GBGSV,1,1,04,14,59,200,45,25,29,249,38,26,38,055,48,33,64,264,36*69
###2023-12-09 12:25:25.939924$GNVTG,,T,,M,0.04,N,0.07,K,A*3E
###2023-12-09 12:25:25.941589$GNGST,172525.10,30.000,,,,0.230,0.220,0.440*52
###2023-12-09 12:25:25.942913$GNZDA,172525.10,09,12,2023,00,00*76
###2023-12-09 12:25:25.943565$GNEBP,,,,,,M*13
###2023-12-09 12:25:26.121316$GNGGA,172525.30,4138.0387126,N,07032.4363406,W,1,18,0.7,10.540,M,-29.746,M,0.0,*57
