###2023-12-09 13:22:16.996802$GAGSA,A,3,04,19,21,27,,,,,,,,,1.1,0.7,0.9*27
###2023-12-09 13:22:16.998535$GBGSA,A,3,14,24,25,26,33,35,,,,,,,1.1,0.7,0.9*28
###2023-12-09 13:22:17.000907$GPGSV,2,1,07,03,30,252,40,04,41,310,44,16,60,218,45,26,90,099,47*7A
###2023-12-09 13:22:17.002965$GPGSV,2,2,07,28,42,080,43,29,23,052,42,31,63,057,46,,,,*41
###2023-12-09 13:22:17.005299$GLGSV,2,1,06,65,33,323,44,71,30,174,43,72,69,234,46,73,27,048,45*60
###2023-12-09 13:22:17.007073$GLGSV,2,2,06,74,64,002,43,75,39,263,46,,,,,,,,*6A
###2023-12-09 13:22:17.009390$GAGSV,1,1,04,04,36,311,43,19,77,186,40,21,81,054,46,27,26,049,42*69
###2023-12-09 13:22:17.011723$GBGSV,2,1,06,14,35,191,40,24,67,039,48,25,47,270,46,26,20,067,44*65
###2023-12-09 13:22:17.013465$GBGSV,2,2,06,33,51,222,45,35,16,062,44,,,,,,,,*6F
###2023-12-09 13:22:17.014810$GNVTG,231.25,T,,M,3.30,N,6.12,K,A*21
###2023-12-09 13:22:17.016451$GNGST,182216.10,18.000,,,,0.100,0.073,0.170*52
###2023-12-09 13:22:17.017736$GNZDA,182216.10,09,12,2023,00,00*7E
###2023-12-09 13:22:17.018373$GNEBP,,,,,,M*13
###2023-12-09 13:22:17.183525$GNGGA,182216.30,4138.0782575,N,07032.3543873,W,1,24,0.7,12.992,M,-29.743,M,0.0,*5A
###2023-12-09 13:22:17.385412$GNGGA,182216.50,4138.0781241,N,07032.3545468,W,1,24,0.7,13.007,M,-29.743,M,0.0,*5B
###2023-12-09 13:22:17.584703$GNGGA,182216.70,4138.0779723,N,07032.3546624,W,1,24,0.7,12.957,M,-29.743,M,0.0,*5B
###2023-12-09 13:22:17.785951$GNGGA,182216.90,4138.0778304,N,07032.3548021,W,1,24,0.7,12.935,M,-29.743,M,0.0,*5C
###2023-12-09 13:22:17.988530$GNRMC,182217.10,A,4138.0776958,N,07032.3549818,W,3.44,223.36,091223,,,A*52
###2023-12-09 13:22:17.991402$GNGGA,182217.10,4138.0776958,N,07032.3549818,W,1,24,0.7,12.958,M,-29.743,M,0.0,*50
###2023-12-09 13:22:17.993186$GPGSA,A,3,03,04,16,26,28,29,31,,,,,,1.1,0.7,0.9*3B
###2023-12-09 13:22:17.994903$GLGSA,A,3,65,71,72,73,74,75,,,,,,,1.1,0.7,0.9*25
###2023-12-09 13:22:17.996477$GAGSA,A,3,04,19,21,27,,,,,,,,,1.1,0.7,0.9*27
###2023-12-09 13:22:17.998176$GBGSA,A,3,14,24,25,26,33,35,,,,,,,1.1,0.7,0.9*28
###2023-12-09 13:22:18.000506$GPGSV,2,1,07,03,30,252,40,04,41,310,46,16,60,218,45,26,90,099,48*77
###2023-12-09 13:22:18.002537$GPGSV,2,2,07,28,42,080,44,29,23,052,44,31,63,057,47,,,,*41
###2023-12-09 13:22:18.004868$GLGSV,2,1,06,65,33,323,44,71,30,174,42,72,69,234,45,73,27,048,45*62
###2023-12-09 13:22:18.006649$GLGSV,2,2,06,74,64,002,42,75,39,263,46,,,,,,,,*6B
###2023-12-09 13:22:18.008967$GAGSV,1,1,04,04,36,311,43,19,77,186,40,21,81,054,46,27,26,049,42*69
###2023-12-09 13:22:18.011298$GBGSV,2,1,06,14,35,191,41,24,67,039,48,25,47,270,46,26,20,067,44*64
###2023-12-09 13:22:18.013034$GBGSV,2,2,06,33,51,222,45,35,16,062,44,,,,,,,,*6F
###2023-12-09 13:22:18.014351$GNVTG,223.36,T,,M,3.44,N,6.37,K,A*24
###2023-12-09 13:22:18.015996$GNGST,182217.10,18.000,,,,0.100,0.073,0.170*53
###2023-12-09 13:22:18.017284$GNZDA,182217.10,09,12,2023,00,00*7F
###2023-12-09 13:22:18.017919$GNEBP,,,,,,M*13
###2023-12-09 13:22:18.185597$GNGGA,182217.30,4138.0775527,N,07032.3551327,W,1,24,0.7,12.967,M,-29.743,M,0.0,*57
###2023-12-09 13:22:18.384287$GNGGA,182217.50,4138.0774000,N,07032.3552599,W,1,24,0.7,12.999,M,-29.743,M,0.0,*51
###2023-12-09 13:22:18.585157$GNGGA,182217.70,4138.0772456,N,07032.3553958,W,1,24,0.7,12.988,M,-29.743,M,0.0,*52
###2023-12-09 13:22:18.785070$GNGGA,182217.90,4138.0771024,N,07032.3555627,W,1,24,0.7,12.960,M,-29.743,M,0.0,*59
###2023-12-09 13:22:18.988592$GNRMC,182218.10,A,4138.0769702,N,07032.3557408,W,3.40,224.27,091223,,,A*53
###2023-12-09 13:22:18.991477$GNGGA,182218.10,4138.0769702,N,07032.3557408,W,1,24,0.7,12.970,M,-29.743,M,0.0,*58
###2023-12-09 13:22:18.993270$GPGSA,A,3,03,04,16,26,28,29,31,,,,,,1.1,0.7,0.9*3B
###2023-12-09 13:22:18.994998$GLGSA,A,3,65,71,72,73,74,75,,,,,,,1.1,0.7,0.9*25
###2023-12-09 13:22:18.996581$GAGSA,A,3,04,19,21,27,,,,,,,,,1.1,0.7,0.9*27
###2023-12-09 13:22:18.998289$GBGSA,A,3,14,24,25,26,33,35,,,,,,,1.1,0.7,0.9*28
###2023-12-09 13:22:19.000624$GPGSV,2,1,07,03,30,252,39,04,41,310,44,16,60,218,45,26,90,099,47*74
###2023-12-09 13:22:19.002672$GPGSV,2,2,07,28,42,080,44,29,23,052,42,31,63,057,47,,,,*47
###2023-12-09 13:22:19.004994$GLGSV,2,1,06,65,33,323,43,71,30,174,42,72,69,234,45,73,27,048,44*64
###2023-12-09 13:22:19.006748$GLGSV,2,2,06,74,64,002,44,75,39,263,45,,,,,,,,*6E
###2023-12-09 13:22:19.009066$GAGSV,1,1,04,04,36,311,42,19,77,186,40,21,81,054,46,27,26,049,41*6B
###2023-12-09 13:22:19.011397$GBGSV,2,1,06,14,35,191,42,24,67,039,49,25,47,270,46,26,20,067,44*66
###2023-12-09 13:22:19.013138$GBGSV,2,2,06,33,51,222,45,35,16,062,45,,,,,,,,*6E
###2023-12-09 13:22:19.014460$GNVTG,224.27,T,,M,3.40,N,6.30,K,A*20
###2023-12-09 13:22:19.016116$GNGST,182218.10,18.000,,,,0.100,0.073,0.170*5C
###2023-12-09 13:22:19.017403$GNZDA,182218.10,09,12,2023,00,00*70
###2023-12-09 13:22:19.018039$GNEBP,,,,,,M*13
###2023-12-09 13:22:19.184499$GNGGA,182218.30,4138.0768308,N,07032.3559087,W,1,24,0.7,12.978,M,-29.743,M,0.0,*50
###2023-12-09 13:22:19.384318$GNGGA,182218.50,4138.0766860,N,07032.3560480,W,1,24,0.7,12.970,M,-29.743,M,0.0,*5C
###2023-12-09 13:22:19.584821$GNGGA,182218.70,4138.0765501,N,07032.3562022,W,1,24,0.7,12.985,M,-29.743,M,0.0,*53
###2023-12-09 13:22:19.785045$GNGGA,182218.90,4138.0764256,N,07032.3563858,W,1,24,0.7,13.002,M,-29.743,M,0.0,*5A
###2023-12-09 13:22:19.988875$GNRMC,182219.10,A,4138.0763016,N,07032.3565728,W,3.36,228.33,091223,,,A*52
###2023-12-09 13:22:19.991757$GNGGA,182219.10,4138.0763016,N,07032.3565728,W,1,24,0.7,12.990,M,-29.743,M,0.0,*5F
###2023-12-09 13:22:19.993550$GPGSA,A,3,03,04,16,26,28,29,31,,,,,,1.1,0.7,0.9*3B
###2023-12-09 13:22:19.995278$GLGSA,A,3,65,71,72,73,74,75,,,,,,,1.1,0.7,0.9*25
###2023-12-09 13:22:19.996862$GAGSA,A,3,04,19,21,27,,,,,,,,,1.1,0.7,0.9*27
###2023-12-09 13:22:19.998585$GBGSA,A,3,14,24,25,26,33,35,,,,,,,1.1,0.7,0.9*28
###2023-12-09 13:22:20.000913$GPGSV,2,1,07,03,30,252,41,04,41,310,44,16,60,218,46,26,90,099,47*78
###2023-12-09 13:22:20.002965$GPGSV,2,2,07,28,42,080,44,29,23,052,42,31,63,057,46,,,,*46
###2023-12-09 13:22:20.005304$GLGSV,2,1,06,65,33,323,43,71,30,174,43,72,69,234,45,73,27,048,42*63
###2023-12-09 13:22:20.007068$GLGSV,2,2,06,74,64,002,42,75,39,263,45,,,,,,,,*68
###2023-12-09 13:22:20.009395$GAGSV,1,1,04,04,36,311,42,19,77,186,40,21,81,054,46,27,26,049,40*6A
###2023-12-09 13:22:20.011737$GBGSV,2,1,06,14,35,191,44,24,67,039,49,25,47,270,46,26,20,067,44*60
###2023-12-09 13:22:20.013483$GBGSV,2,2,06,33,51,222,46,35,16,062,45,,,,,,,,*6D
###2023-12-09 13:22:20.014817$GNVTG,228.33,T,,M,3.36,N,6.23,K,A*2A
###2023-12-09 13:22:20.016460$GNGST,182219.10,18.000,,,,0.100,0.072,0.170*5C
###2023-12-09 13:22:20.017747$GNZDA,182219.10,09,12,2023,00,00*71
###2023-12-09 13:22:20.018384$GNEBP,,,,,,M*13
###2023-12-09 13:22:20.184313$GNGGA,182219.30,4138.0761747,N,07032.3567533,W,1,24,0.7,12.983,M,-29.743,M,0.0,*54
###2023-12-09 13:22:20.384187$GNGGA,182219.50,4138.0760581,N,07032.3569522,W,1,24,0.7,13.005,M,-29.743,M,0.0,*53
###2023-12-09 13:22:20.585376$GNGGA,182219.70,4138.0759516,N,07032.3571670,W,1,24,0.7,13.029,M,-29.743,M,0.0,*56
###2023-12-09 13:22:20.784122$GNGGA,182219.90,4138.0758411,N,07032.3573782,W,1,24,0.7,13.013,M,-29.743,M,0.0,*58
###2023-12-09 13:22:20.997602$GNRMC,182220.10,A,4138.0757290,N,07032.3575894,W,3.56,237.29,091223,,,A*59
###2023-12-09 13:22:21.000497$GNGGA,182220.10,4138.0757290,N,07032.3575894,W,1,24,0.7,13.007,M,-29.743,M,0.0,*51
###2023-12-09 13:22:21.002296$GPGSA,A,3,03,04,16,26,28,29,31,,,,,,1.1,0.7,0.9*3B
###2023-12-09 13:22:21.004022$GLGSA,A,3,65,71,72,73,74,75,,,,,,,1.1,0.7,0.9*25
###2023-12-09 13:22:21.005604$GAGSA,A,3,04,19,21,27,,,,,,,,,1.1,0.7,0.9*27
###2023-12-09 13:22:21.007329$GBGSA,A,3,14,24,25,26,33,35,,,,,,,1.1,0.7,0.9*28
###2023-12-09 13:22:21.009655$GPGSV,2,1,07,03,30,252,41,04,41,310,43,16,60,218,45,26,90,099,48*73
###2023-12-09 13:22:21.011702$GPGSV,2,2,07,28,42,080,44,29,23,052,42,31,63,057,46,,,,*46
###2023-12-09 13:22:21.014033$GLGSV,2,1,06,65,33,323,43,71,30,174,45,72,69,234,45,73,27,048,42*65
###2023-12-09 13:22:21.015794$GLGSV,2,2,06,74,64,002,43,75,39,263,45,,,,,,,,*69
###2023-12-09 13:22:21.018119$GAGSV,1,1,04,04,36,311,42,19,77,186,40,21,81,054,45,27,26,049,40*69
###2023-12-09 13:22:21.020716$GBGSV,2,1,06,14,35,191,44,24,67,039,49,25,47,270,46,26,20,067,44*60
###2023-12-09 13:22:21.022484$GBGSV,2,2,06,33,51,222,46,35,16,062,45,,,,,,,,*6D
###2023-12-09 13:22:21.023828$GNVTG,237.29,T,,M,3.56,N,6.59,K,A*24
###2023-12-09 13:22:21.025484$GNGST,182220.10,18.000,,,,0.100,0.072,0.170*56
###2023-12-09 13:22:21.026797$GNZDA,182220.10,09,12,2023,00,00*7B
###2023-12-09 13:22:21.027436$GNEBP,,,,,,M*13
###2023-12-09 13:22:21.188278$GNGGA,182220.30,4138.0756273,N,07032.3578154,W,1,24,0.7,13.026,M,-29.743,M,0.0,*54
###2023-12-09 13:22:21.384198$GNGGA,182220.50,4138.0755366,N,07032.3580535,W,1,24,0.7,13.056,M,-29.743,M,0.0,*57
###2023-12-09 13:22:21.585006$GNGGA,182220.70,4138.0754218,N,07032.3582738,W,1,24,0.7,13.023,M,-29.743,M,0.0,*53
