###2023-12-09 13:43:45.020460$GPGSV,2,2,06,29,18,043,42,31,56,072,50,,,,,,,,*7D
###2023-12-09 13:43:45.022828$GLGSV,2,1,05,65,42,314,43,73,19,055,43,74,56,021,36,75,46,277,43*6F
###2023-12-09 13:43:45.024287$GLGSV,2,2,05,83,16,043,35,,,,,,,,,,,,*5D
###2023-12-09 13:43:45.026327$GAGSV,1,1,03,04,42,308,43,21,74,044,38,27,20,051,41,,,,*58
###2023-12-09 13:43:45.028682$GBGSV,2,1,05,12,18,124,39,14,25,189,35,24,60,050,44,25,53,280,45*61
###2023-12-09 13:43:45.030143$GBGSV,2,2,05,35,16,053,37,,,,,,,,,,,,*5D
###2023-12-09 13:43:45.031481$GNVTG,243.17,T,,M,0.02,N,0.04,K,A*26
###2023-12-09 13:43:45.033097$GNGST,184344.10,8.200,,,,0.220,0.120,0.310*63
###2023-12-09 13:43:45.034386$GNZDA,184344.10,09,12,2023,00,00*7E
###2023-12-09 13:43:45.035048$GNEBP,,,,,,M*13
###2023-12-09 13:43:45.205723$GNGGA,184344.30,4138.0391242,N,07032.4385989,W,1,19,0.8,14.892,M,-29.746,M,0.0,*53
###2023-12-09 13:43:45.399737$GNGGA,184344.50,4138.0391247,N,07032.4386001,W,1,19,0.8,14.891,M,-29.746,M,0.0,*59
###2023-12-09 13:43:45.600611$GNGGA,184344.70,4138.0391253,N,07032.4386013,W,1,19,0.8,14.886,M,-29.746,M,0.0,*5B
###2023-12-09 13:43:45.800130$GNGGA,184344.90,4138.0391239,N,07032.4386029,W,1,18,0.8,14.881,M,-29.746,M,0.0,*56
###2023-12-09 13:43:46.002586$GNRMC,184345.10,A,4138.0391215,N,07032.4386045,W,0.02,243.17,091223,,,A*5B
###2023-12-09 13:43:46.005446$GNGGA,184345.10,4138.0391215,N,07032.4386045,W,1,18,0.8,14.874,M,-29.746,M,0.0,*51
###2023-12-09 13:43:46.007181$GPGSA,A,3,04,16,26,28,29,31,,,,,,,1.3,0.8,1.1*3C
###2023-12-09 13:43:46.008827$GLGSA,A,3,65,73,74,75,83,,,,,,,,1.3,0.8,1.1*29
###2023-12-09 13:43:46.010346$GAGSA,A,3,04,21,27,,,,,,,,,,1.3,0.8,1.1*2B
###2023-12-09 13:43:46.011942$GBGSA,A,3,12,24,25,35,,,,,,,,,1.3,0.8,1.1*2E
###2023-12-09 13:43:46.014277$GPGSV,2,1,06,04,50,305,45,16,71,227,37,26,79,041,40,28,35,088,43*78
###2023-12-09 13:43:46.016043$GPGSV,2,2,06,29,18,043,42,31,56,072,50,,,,,,,,*7D
###2023-12-09 13:43:46.018366$GLGSV,2,1,05,65,42,314,43,73,19,055,43,74,56,021,36,75,46,277,43*6F
###2023-12-09 13:43:46.019821$GLGSV,2,2,05,83,16,043,35,,,,,,,,,,,,*5D
###2023-12-09 13:43:46.021848$GAGSV,1,1,03,04,42,308,43,21,74,044,38,27,20,051,41,,,,*58
###2023-12-09 13:43:46.024190$GBGSV,1,1,04,12,18,124,39,24,60,050,43,25,53,280,45,35,16,053,37*63
###2023-12-09 13:43:46.025520$GNVTG,243.17,T,,M,0.02,N,0.04,K,A*26
###2023-12-09 13:43:46.027151$GNGST,184345.10,7.500,,,,0.220,0.120,0.310*6A
###2023-12-09 13:43:46.028447$GNZDA,184345.10,09,12,2023,00,00*7F
###2023-12-09 13:43:46.029084$GNEBP,,,,,,M*13
###2023-12-09 13:43:46.200310$GNGGA,184345.30,4138.0391196,N,07032.4386054,W,1,18,0.8,14.867,M,-29.746,M,0.0,*59
###2023-12-09 13:43:46.398246$GNGGA,184345.50,4138.0391169,N,07032.4386070,W,1,19,0.8,14.861,M,-29.746,M,0.0,*5E
###2023-12-09 13:43:46.598228$GNGGA,184345.70,4138.0391170,N,07032.4386074,W,1,19,0.8,14.857,M,-29.746,M,0.0,*55
###2023-12-09 13:43:46.798903$GNGGA,184345.90,4138.0391160,N,07032.4386090,W,1,19,0.8,14.854,M,-29.746,M,0.0,*53
###2023-12-09 13:43:47.005270$GNRMC,184346.10,A,4138.0391149,N,07032.4386095,W,0.02,243.17,091223,,,A*5F
###2023-12-09 13:43:47.008143$GNGGA,184346.10,4138.0391149,N,07032.4386095,W,1,18,0.8,14.853,M,-29.746,M,0.0,*50
###2023-12-09 13:43:47.009867$GPGSA,A,3,04,16,26,28,29,31,,,,,,,1.3,0.8,1.1*3C
###2023-12-09 13:43:47.011536$GLGSA,A,3,65,73,74,75,83,,,,,,,,1.3,0.8,1.1*29
###2023-12-09 13:43:47.013060$GAGSA,A,3,04,21,27,,,,,,,,,,1.3,0.8,1.1*2B
###2023-12-09 13:43:47.014661$GBGSA,A,3,12,24,25,35,,,,,,,,,1.3,0.8,1.1*2E
###2023-12-09 13:43:47.017003$GPGSV,2,1,06,04,50,305,45,16,71,227,37,26,79,041,40,28,35,088,43*78
###2023-12-09 13:43:47.018771$GPGSV,2,2,06,29,18,043,41,31,56,072,50,,,,,,,,*7E
###2023-12-09 13:43:47.021117$GLGSV,2,1,05,65,42,314,43,73,19,055,43,74,56,021,35,75,46,277,43*6C
###2023-12-09 13:43:47.022588$GLGSV,2,2,05,83,16,043,35,,,,,,,,,,,,*5D
###2023-12-09 13:43:47.024631$GAGSV,1,1,03,04,42,308,43,21,74,044,38,27,20,051,40,,,,*59
###2023-12-09 13:43:47.026979$GBGSV,1,1,04,12,18,124,38,24,60,050,43,25,53,280,45,35,16,053,35*60
###2023-12-09 13:43:47.028317$GNVTG,243.17,T,,M,0.02,N,0.04,K,A*26
###2023-12-09 13:43:47.029937$GNGST,184346.10,8.000,,,,0.220,0.120,0.310*63
###2023-12-09 13:43:47.031247$GNZDA,184346.10,09,12,2023,00,00*7C
###2023-12-09 13:43:47.031889$GNEBP,,,,,,M*13
###2023-12-09 13:43:47.199574$GNGGA,184346.30,4138.0391142,N,07032.4386117,W,1,19,0.8,14.844,M,-29.746,M,0.0,*55
###2023-12-09 13:43:47.398730$GNGGA,184346.50,4138.0391117,N,07032.4386125,W,1,19,0.8,14.843,M,-29.746,M,0.0,*55
###2023-12-09 13:43:47.598847$GNGGA,184346.70,4138.0391103,N,07032.4386140,W,1,19,0.8,14.837,M,-29.746,M,0.0,*52
###2023-12-09 13:43:47.798878$GNGGA,184346.90,4138.0391070,N,07032.4386151,W,1,19,0.8,14.829,M,-29.746,M,0.0,*56
###2023-12-09 13:43:48.002850$GNRMC,184347.10,A,4138.0391064,N,07032.4386170,W,0.06,243.17,091223,,,A*5E
###2023-12-09 13:43:48.005728$GNGGA,184347.10,4138.0391064,N,07032.4386170,W,1,19,0.8,14.825,M,-29.746,M,0.0,*55
###2023-12-09 13:43:48.007465$GPGSA,A,3,04,16,26,28,29,31,,,,,,,1.3,0.8,1.1*3C
###2023-12-09 13:43:48.009118$GLGSA,A,3,65,73,74,75,83,,,,,,,,1.3,0.8,1.1*29
###2023-12-09 13:43:48.010651$GAGSA,A,3,04,21,27,,,,,,,,,,1.3,0.8,1.1*2B
###2023-12-09 13:43:48.012301$GBGSA,A,3,12,14,24,25,35,,,,,,,,1.3,0.8,1.1*2B
###2023-12-09 13:43:48.014637$GPGSV,2,1,06,04,50,305,44,16,71,227,37,26,79,041,40,28,35,088,43*79
###2023-12-09 13:43:48.016389$GPGSV,2,2,06,29,18,043,42,31,56,072,50,,,,,,,,*7D
###2023-12-09 13:43:48.018729$GLGSV,2,1,05,65,42,314,43,73,19,055,43,74,56,021,35,75,46,277,43*6C
###2023-12-09 13:43:48.020188$GLGSV,2,2,05,83,16,043,35,,,,,,,,,,,,*5D
###2023-12-09 13:43:48.022220$GAGSV,1,1,03,04,43,308,43,21,74,044,38,27,20,051,40,,,,*58
###2023-12-09 13:43:48.024557$GBGSV,2,1,05,12,18,124,39,14,25,189,35,24,60,050,44,25,53,280,47*63
###2023-12-09 13:43:48.026011$GBGSV,2,2,05,35,16,053,36,,,,,,,,,,,,*5C
###2023-12-09 13:43:48.027343$GNVTG,243.17,T,,M,0.06,N,0.11,K,A*26
###2023-12-09 13:43:48.028956$GNGST,184347.10,8.100,,,,0.220,0.120,0.310*63
###2023-12-09 13:43:48.030250$GNZDA,184347.10,09,12,2023,00,00*7D
###2023-12-09 13:43:48.030899$GNEBP,,,,,,M*13
###2023-12-09 13:43:48.200407$GNGGA,184347.30,4138.0391046,N,07032.4386194,W,1,19,0.8,14.817,M,-29.746,M,0.0,*5C
###2023-12-09 13:43:48.400567$GNGGA,184347.50,4138.0391034,N,07032.4386198,W,1,19,0.8,14.818,M,-29.746,M,0.0,*5C
###2023-12-09 13:43:48.600119$GNGGA,184347.70,4138.0391013,N,07032.4386216,W,1,19,0.8,14.810,M,-29.746,M,0.0,*56
###2023-12-09 13:43:48.801931$GNGGA,184347.90,4138.0391016,N,07032.4386239,W,1,19,0.8,14.804,M,-29.746,M,0.0,*55
###2023-12-09 13:43:49.006401$GNRMC,184348.10,A,4138.0391011,N,07032.4386258,W,0.04,243.17,091223,,,A*58
###2023-12-09 13:43:49.009888$GNGGA,184348.10,4138.0391011,N,07032.4386258,W,1,19,0.8,14.799,M,-29.746,M,0.0,*59
###2023-12-09 13:43:49.011982$GPGSA,A,3,04,16,26,28,29,31,,,,,,,1.3,0.8,1.1*3C
###2023-12-09 13:43:49.013960$GLGSA,A,3,65,73,74,75,83,,,,,,,,1.3,0.8,1.1*29
###2023-12-09 13:43:49.015805$GAGSA,A,3,04,21,27,,,,,,,,,,1.3,0.8,1.1*2B
###2023-12-09 13:43:49.017781$GBGSA,A,3,12,14,24,25,35,,,,,,,,1.3,0.8,1.1*2B
###2023-12-09 13:43:49.020608$GPGSV,2,1,06,04,50,305,44,16,71,227,37,26,79,041,41,28,35,088,44*7F
###2023-12-09 13:43:49.022716$GPGSV,2,2,06,29,18,043,41,31,56,072,50,,,,,,,,*7E
###2023-12-09 13:43:49.025528$GLGSV,2,1,05,65,42,314,43,73,19,055,43,74,56,021,35,75,46,277,43*6C
###2023-12-09 13:43:49.027368$GLGSV,2,2,05,83,16,043,35,,,,,,,,,,,,*5D
###2023-12-09 13:43:49.029824$GAGSV,1,1,03,04,43,308,43,21,74,044,38,27,20,051,40,,,,*58
###2023-12-09 13:43:49.032635$GBGSV,2,1,05,12,18,124,39,14,25,189,35,24,60,050,44,25,53,280,46*62
###2023-12-09 13:43:49.034389$GBGSV,2,2,05,35,16,053,36,,,,,,,,,,,,*5C
###2023-12-09 13:43:49.035993$GNVTG,243.17,T,,M,0.04,N,0.07,K,A*23
###2023-12-09 13:43:49.037939$GNGST,184348.10,8.000,,,,0.220,0.120,0.310*6D
###2023-12-09 13:43:49.039508$GNZDA,184348.10,09,12,2023,00,00*72
###2023-12-09 13:43:49.040289$GNEBP,,,,,,M*13
###2023-12-09 13:43:49.201878$GNGGA,184348.30,4138.0391002,N,07032.4386267,W,1,19,0.8,14.794,M,-29.746,M,0.0,*58
###2023-12-09 13:43:49.400598$GNGGA,184348.50,4138.0390970,N,07032.4386285,W,1,19,0.8,14.786,M,-29.746,M,0.0,*5C
###2023-12-09 13:43:49.598936$GNGGA,184348.70,4138.0390954,N,07032.4386295,W,1,19,0.8,14.779,M,-29.746,M,0.0,*59
###2023-12-09 13:43:49.799707$GNGGA,184348.90,4138.0390930,N,07032.4386311,W,1,19,0.8,14.769,M,-29.746,M,0.0,*59
###2023-12-09 13:43:50.003781$GNRMC,184349.10,A,4138.0390932,N,07032.4386305,W,0.02,243.17,091223,,,A*5F
###2023-12-09 13:43:50.006921$GNGGA,184349.10,4138.0390932,N,07032.4386305,W,1,19,0.8,14.770,M,-29.746,M,0.0,*5F
###2023-12-09 13:43:50.008785$GPGSA,A,3,04,16,26,28,29,31,,,,,,,1.3,0.8,1.1*3C
###2023-12-09 13:43:50.010433$GLGSA,A,3,65,73,74,75,83,,,,,,,,1.3,0.8,1.1*29
