###2023-12-09 12:37:21.740282$GNGGA,173720.90,4138.0625848,N,07032.3719222,W,1,23,0.7,13.322,M,-29.744,M,0.0,*52
###2023-12-09 12:37:21.937654$GNRMC,173721.10,A,4138.0625317,N,07032.3721785,W,3.60,255.56,091223,,,A*5C
###2023-12-09 12:37:21.940525$GNGGA,173721.10,4138.0625317,N,07032.3721785,W,1,23,0.7,13.312,M,-29.744,M,0.0,*5A
###2023-12-09 12:37:21.942386$GPGSA,A,3,03,04,16,26,28,29,31,32,,,,,1.2,0.7,1.0*31
###2023-12-09 12:37:21.944050$GLGSA,A,3,71,72,73,74,75,,,,,,,,1.2,0.7,1.0*2D
###2023-12-09 12:37:21.945635$GAGSA,A,3,04,19,21,27,,,,,,,,,1.2,0.7,1.0*2C
###2023-12-09 12:37:21.947305$GBGSA,A,3,14,24,25,26,33,,,,,,,,1.2,0.7,1.0*25
###2023-12-09 12:37:21.949648$GPGSV,2,1,08,03,38,276,40,04,22,311,40,16,37,207,45,26,67,207,46*7B
###2023-12-09 12:37:21.952001$GPGSV,2,2,08,28,57,057,44,29,25,073,42,31,73,004,47,32,29,134,43*7F
###2023-12-09 12:37:21.954333$GLGSV,2,1,05,71,55,169,47,72,67,307,46,73,46,034,47,74,71,296,42*66
###2023-12-09 12:37:21.955820$GLGSV,2,2,05,75,23,242,41,,,,,,,,,,,,*52
###2023-12-09 12:37:21.958175$GAGSV,1,1,04,04,21,311,40,19,82,299,40,21,78,175,46,27,41,049,45*69
###2023-12-09 12:37:21.960538$GBGSV,2,1,05,14,54,197,44,24,80,351,48,25,33,253,43,26,34,058,45*68
###2023-12-09 12:37:21.961994$GBGSV,2,2,05,33,63,252,47,,,,,,,,,,,,*5D
###2023-12-09 12:37:21.963330$GNVTG,255.56,T,,M,3.60,N,6.66,K,A*21
###2023-12-09 12:37:21.964976$GNGST,173721.10,18.000,,,,0.086,0.074,0.180*5A
###2023-12-09 12:37:21.966266$GNZDA,173721.10,09,12,2023,00,00*71
###2023-12-09 12:37:21.966918$GNEBP,,,,,,M*13
###2023-12-09 12:37:22.137260$GNGGA,173721.30,4138.0624816,N,07032.3724343,W,1,23,0.7,13.302,M,-29.744,M,0.0,*59
###2023-12-09 12:37:22.337185$GNGGA,173721.50,4138.0624509,N,07032.3726841,W,1,23,0.7,13.295,M,-29.744,M,0.0,*58
###2023-12-09 12:37:22.536696$GNGGA,173721.70,4138.0624384,N,07032.3729297,W,1,23,0.7,13.304,M,-29.744,M,0.0,*5E
###2023-12-09 12:37:22.735749$GNGGA,173721.90,4138.0624306,N,07032.3731706,W,1,23,0.7,13.309,M,-29.744,M,0.0,*53
###2023-12-09 12:37:22.938138$GNRMC,173722.10,A,4138.0624211,N,07032.3734102,W,3.23,267.10,091223,,,A*50
###2023-12-09 12:37:22.941029$GNGGA,173722.10,4138.0624211,N,07032.3734102,W,1,23,0.7,13.309,M,-29.744,M,0.0,*58
###2023-12-09 12:37:22.942902$GPGSA,A,3,03,04,16,26,28,29,31,32,,,,,1.2,0.7,1.0*31
###2023-12-09 12:37:22.944551$GLGSA,A,3,71,72,73,74,75,,,,,,,,1.2,0.7,1.0*2D
###2023-12-09 12:37:22.946134$GAGSA,A,3,04,19,21,27,,,,,,,,,1.2,0.7,1.0*2C
###2023-12-09 12:37:22.947814$GBGSA,A,3,14,24,25,26,33,,,,,,,,1.2,0.7,1.0*25
###2023-12-09 12:37:22.950156$GPGSV,2,1,08,03,38,276,42,04,22,311,38,16,37,207,45,26,67,207,47*77
###2023-12-09 12:37:22.952509$GPGSV,2,2,08,28,57,057,44,29,25,073,41,31,73,004,47,32,29,134,40*7F
###2023-12-09 12:37:22.954861$GLGSV,2,1,05,71,55,169,47,72,67,307,45,73,46,034,47,74,71,296,42*65
###2023-12-09 12:37:22.956328$GLGSV,2,2,05,75,23,242,42,,,,,,,,,,,,*51
###2023-12-09 12:37:22.958664$GAGSV,1,1,04,04,21,311,38,19,82,299,40,21,78,175,46,27,41,049,44*67
###2023-12-09 12:37:22.960991$GBGSV,2,1,05,14,54,197,45,24,80,351,48,25,33,253,44,26,34,058,45*6E
###2023-12-09 12:37:22.962442$GBGSV,2,2,05,33,63,252,47,,,,,,,,,,,,*5D
###2023-12-09 12:37:22.963787$GNVTG,267.10,T,,M,3.23,N,5.98,K,A*27
###2023-12-09 12:37:22.965444$GNGST,173722.10,18.000,,,,0.086,0.074,0.180*59
###2023-12-09 12:37:22.966755$GNZDA,173722.10,09,12,2023,00,00*72
###2023-12-09 12:37:22.967397$GNEBP,,,,,,M*13
###2023-12-09 12:37:23.137739$GNGGA,173722.30,4138.0624159,N,07032.3736520,W,1,23,0.7,13.312,M,-29.744,M,0.0,*59
###2023-12-09 12:37:23.338364$GNGGA,173722.50,4138.0624167,N,07032.3738980,W,1,23,0.7,13.313,M,-29.744,M,0.0,*5B
###2023-12-09 12:37:23.541438$GNGGA,173722.70,4138.0624180,N,07032.3741461,W,1,23,0.7,13.309,M,-29.744,M,0.0,*57
###2023-12-09 12:37:23.736650$GNGGA,173722.90,4138.0624077,N,07032.3743901,W,1,23,0.7,13.310,M,-29.744,M,0.0,*51
###2023-12-09 12:37:23.939414$GNRMC,173723.10,A,4138.0623914,N,07032.3746277,W,3.17,263.18,091223,,,A*57
###2023-12-09 12:37:23.942269$GNGGA,173723.10,4138.0623914,N,07032.3746277,W,1,23,0.7,13.304,M,-29.744,M,0.0,*59
###2023-12-09 12:37:23.944137$GPGSA,A,3,03,04,16,26,28,29,31,32,,,,,1.2,0.7,1.0*31
###2023-12-09 12:37:23.945791$GLGSA,A,3,71,72,73,74,75,,,,,,,,1.2,0.7,1.0*2D
###2023-12-09 12:37:23.947413$GAGSA,A,3,04,19,21,27,,,,,,,,,1.2,0.7,1.0*2C
###2023-12-09 12:37:23.949096$GBGSA,A,3,14,24,25,26,33,,,,,,,,1.2,0.7,1.0*25
###2023-12-09 12:37:23.951458$GPGSV,2,1,08,03,38,276,42,04,22,311,39,16,37,207,44,26,67,207,47*77
###2023-12-09 12:37:23.953805$GPGSV,2,2,08,28,57,057,44,29,25,073,42,31,73,004,47,32,29,134,43*7F
###2023-12-09 12:37:23.956206$GLGSV,2,1,05,71,55,169,46,72,67,307,45,73,46,034,47,74,71,296,42*64
###2023-12-09 12:37:23.957668$GLGSV,2,2,05,75,23,242,41,,,,,,,,,,,,*52
###2023-12-09 12:37:23.960028$GAGSV,1,1,04,04,21,311,38,19,82,299,40,21,78,175,46,27,41,049,44*67
###2023-12-09 12:37:23.962370$GBGSV,2,1,05,14,54,197,43,24,80,351,47,25,33,253,44,26,34,058,43*61
###2023-12-09 12:37:23.963848$GBGSV,2,2,05,33,63,252,46,,,,,,,,,,,,*5C
###2023-12-09 12:37:23.965177$GNVTG,263.18,T,,M,3.17,N,5.87,K,A*22
###2023-12-09 12:37:23.966853$GNGST,173723.10,18.000,,,,0.087,0.075,0.180*58
###2023-12-09 12:37:23.968155$GNZDA,173723.10,09,12,2023,00,00*73
###2023-12-09 12:37:23.968797$GNEBP,,,,,,M*13
###2023-12-09 12:37:24.138399$GNGGA,173723.30,4138.0623698,N,07032.3748561,W,1,23,0.7,13.305,M,-29.744,M,0.0,*5F
###2023-12-09 12:37:24.336350$GNGGA,173723.50,4138.0623553,N,07032.3750737,W,1,23,0.7,13.314,M,-29.744,M,0.0,*55
###2023-12-09 12:37:24.537526$GNGGA,173723.70,4138.0623500,N,07032.3752843,W,1,23,0.7,13.313,M,-29.744,M,0.0,*58
###2023-12-09 12:37:24.736474$GNGGA,173723.90,4138.0623450,N,07032.3754866,W,1,23,0.7,13.318,M,-29.744,M,0.0,*58
###2023-12-09 12:37:24.938799$GNRMC,173724.10,A,4138.0623404,N,07032.3756830,W,2.64,267.76,091223,,,A*5D
###2023-12-09 12:37:24.941658$GNGGA,173724.10,4138.0623404,N,07032.3756830,W,1,23,0.7,13.321,M,-29.744,M,0.0,*5D
###2023-12-09 12:37:24.943532$GPGSA,A,3,03,04,16,26,28,29,31,32,,,,,1.2,0.7,1.0*31
###2023-12-09 12:37:24.945175$GLGSA,A,3,71,72,73,74,75,,,,,,,,1.2,0.7,1.0*2D
###2023-12-09 12:37:24.946798$GAGSA,A,3,04,19,21,27,,,,,,,,,1.2,0.7,1.0*2C
###2023-12-09 12:37:24.948477$GBGSA,A,3,14,24,25,26,33,,,,,,,,1.2,0.7,1.0*25
###2023-12-09 12:37:24.950829$GPGSV,2,1,08,03,38,276,42,04,22,311,39,16,37,207,45,26,67,207,47*76
###2023-12-09 12:37:24.953161$GPGSV,2,2,08,28,57,057,44,29,25,073,42,31,73,004,48,32,29,134,42*71
###2023-12-09 12:37:24.955502$GLGSV,2,1,05,71,55,169,48,72,67,307,46,73,46,034,47,74,71,296,42*69
###2023-12-09 12:37:24.956958$GLGSV,2,2,05,75,23,242,43,,,,,,,,,,,,*50
###2023-12-09 12:37:24.959293$GAGSV,1,1,04,04,21,311,39,19,82,299,41,21,78,175,46,27,41,049,44*67
###2023-12-09 12:37:24.961620$GBGSV,2,1,05,14,54,197,44,24,80,351,48,25,33,253,43,26,34,058,44*69
###2023-12-09 12:37:24.963091$GBGSV,2,2,05,33,63,252,47,,,,,,,,,,,,*5D
###2023-12-09 12:37:24.964412$GNVTG,267.76,T,,M,2.64,N,4.90,K,A*2C
###2023-12-09 12:37:24.966054$GNGST,173724.10,18.000,,,,0.088,0.075,0.180*50
###2023-12-09 12:37:24.967362$GNZDA,173724.10,09,12,2023,00,00*74
###2023-12-09 12:37:24.968001$GNEBP,,,,,,M*13
###2023-12-09 12:37:25.137795$GNGGA,173724.30,4138.0623326,N,07032.3758753,W,1,23,0.7,13.316,M,-29.744,M,0.0,*58
###2023-12-09 12:37:25.337323$GNGGA,173724.50,4138.0623269,N,07032.3760618,W,1,23,0.7,13.309,M,-29.744,M,0.0,*5F
###2023-12-09 12:37:25.537717$GNGGA,173724.70,4138.0623286,N,07032.3762440,W,1,23,0.7,13.311,M,-29.744,M,0.0,*58
###2023-12-09 12:37:25.736884$GNGGA,173724.90,4138.0623291,N,07032.3764193,W,1,23,0.7,13.304,M,-29.744,M,0.0,*59
###2023-12-09 12:37:25.937755$GNRMC,173725.10,A,4138.0623334,N,07032.3765929,W,2.31,273.01,091223,,,A*54
###2023-12-09 12:37:25.940639$GNGGA,173725.10,4138.0623334,N,07032.3765929,W,1,23,0.7,13.296,M,-29.744,M,0.0,*5C
###2023-12-09 12:37:25.942498$GPGSA,A,3,03,04,16,26,28,29,31,32,,,,,1.2,0.7,1.0*31
###2023-12-09 12:37:25.944152$GLGSA,A,3,71,72,73,74,75,,,,,,,,1.2,0.7,1.0*2D
###2023-12-09 12:37:25.945729$GAGSA,A,3,04,19,21,27,,,,,,,,,1.2,0.7,1.0*2C
###2023-12-09 12:37:25.947401$GBGSA,A,3,14,24,25,26,33,,,,,,,,1.2,0.7,1.0*25
###2023-12-09 12:37:25.949988$GPGSV,2,1,08,03,38,276,42,04,22,311,38,16,37,207,46,26,67,207,48*7B
###2023-12-09 12:37:25.952341$GPGSV,2,2,08,28,57,057,46,29,25,073,42,31,73,004,48,32,29,134,43*72
###2023-12-09 12:37:25.954728$GLGSV,2,1,05,71,55,169,47,72,67,307,45,73,46,034,48,74,71,296,42*6A
###2023-12-09 12:37:25.956182$GLGSV,2,2,05,75,23,242,40,,,,,,,,,,,,*53
###2023-12-09 12:37:25.958489$GAGSV,1,1,04,04,21,311,37,19,82,299,40,21,78,175,46,27,41,049,44*68
###2023-12-09 12:37:25.960812$GBGSV,2,1,05,14,54,197,46,24,80,351,49,25,33,253,43,26,34,058,44*6A
###2023-12-09 12:37:25.962261$GBGSV,2,2,05,33,63,252,49,,,,,,,,,,,,*53
###2023-12-09 12:37:25.963587$GNVTG,273.01,T,,M,2.31,N,4.28,K,A*2A
###2023-12-09 12:37:25.965226$GNGST,173725.10,18.000,,,,0.088,0.075,0.180*51
