###2023-12-09 13:24:16.000342$GBGSA,A,3,14,24,25,26,33,35,,,,,,,1.1,0.6,0.9*29
###2023-12-09 13:24:16.002957$GPGSV,2,1,07,03,30,251,39,04,42,310,42,16,61,218,45,26,89,050,47*7E
###2023-12-09 13:24:16.005050$GPGSV,2,2,07,28,41,080,43,29,22,051,40,31,63,058,46,,,,*4D
###2023-12-09 13:24:16.007507$GLGSV,2,1,06,65,34,323,41,71,29,175,45,72,68,232,45,73,27,049,42*6F
###2023-12-09 13:24:16.009308$GLGSV,2,2,06,74,63,004,43,75,40,265,42,,,,,,,,*67
###2023-12-09 13:24:16.011771$GAGSV,1,1,04,04,36,311,41,19,76,185,40,21,80,052,45,27,26,049,37*6F
###2023-12-09 13:24:16.014170$GBGSV,2,1,06,14,34,191,43,24,66,040,49,25,47,271,43,26,19,068,43*6F
###2023-12-09 13:24:16.015996$GBGSV,2,2,06,33,50,221,47,35,16,061,42,,,,,,,,*6A
###2023-12-09 13:24:16.017368$GNVTG,280.40,T,,M,3.36,N,6.23,K,A*2C
###2023-12-09 13:24:16.019170$GNGST,182415.10,18.000,,,,0.100,0.073,0.170*57
###2023-12-09 13:24:16.020514$GNZDA,182415.10,09,12,2023,00,00*7B
###2023-12-09 13:24:16.021194$GNEBP,,,,,,M*13
###2023-12-09 13:24:16.186185$GNGGA,182415.30,4138.0747251,N,07032.3839123,W,1,24,0.6,12.980,M,-29.744,M,0.0,*5E
###2023-12-09 13:24:16.385029$GNGGA,182415.50,4138.0747373,N,07032.3841581,W,1,24,0.6,12.985,M,-29.744,M,0.0,*5F
###2023-12-09 13:24:16.585808$GNGGA,182415.70,4138.0747348,N,07032.3844008,W,1,24,0.6,12.986,M,-29.744,M,0.0,*57
###2023-12-09 13:24:16.786212$GNGGA,182415.90,4138.0747298,N,07032.3846436,W,1,24,0.6,12.989,M,-29.744,M,0.0,*51
###2023-12-09 13:24:16.990377$GNRMC,182416.10,A,4138.0747223,N,07032.3848842,W,3.23,266.32,091223,,,A*57
###2023-12-09 13:24:16.993856$GNGGA,182416.10,4138.0747223,N,07032.3848842,W,1,24,0.6,12.993,M,-29.744,M,0.0,*50
###2023-12-09 13:24:16.996055$GPGSA,A,3,03,04,16,26,28,29,31,,,,,,1.1,0.6,0.9*3A
###2023-12-09 13:24:16.998136$GLGSA,A,3,65,71,72,73,74,75,,,,,,,1.1,0.6,0.9*24
###2023-12-09 13:24:17.000062$GAGSA,A,3,04,19,21,27,,,,,,,,,1.1,0.6,0.9*26
###2023-12-09 13:24:17.002117$GBGSA,A,3,14,24,25,26,33,35,,,,,,,1.1,0.6,0.9*29
###2023-12-09 13:24:17.004931$GPGSV,2,1,07,03,30,251,41,04,42,310,44,16,61,218,45,26,89,050,48*78
###2023-12-09 13:24:17.007433$GPGSV,2,2,07,28,41,080,45,29,22,051,41,31,63,058,46,,,,*4A
###2023-12-09 13:24:17.010240$GLGSV,2,1,06,65,34,323,41,71,29,175,45,72,68,232,44,73,27,049,43*6F
###2023-12-09 13:24:17.012360$GLGSV,2,2,06,74,63,004,43,75,40,265,44,,,,,,,,*61
###2023-12-09 13:24:17.015178$GAGSV,1,1,04,04,36,311,41,19,76,185,40,21,80,052,45,27,26,049,40*6F
###2023-12-09 13:24:17.017986$GBGSV,2,1,06,14,34,191,42,24,66,040,48,25,47,271,44,26,19,068,44*6F
###2023-12-09 13:24:17.020103$GBGSV,2,2,06,33,50,221,46,35,16,061,44,,,,,,,,*6D
###2023-12-09 13:24:17.021704$GNVTG,266.32,T,,M,3.23,N,5.98,K,A*26
###2023-12-09 13:24:17.023701$GNGST,182416.10,18.000,,,,0.100,0.073,0.170*54
###2023-12-09 13:24:17.025266$GNZDA,182416.10,09,12,2023,00,00*78
###2023-12-09 13:24:17.026042$GNEBP,,,,,,M*13
###2023-12-09 13:24:17.185671$GNGGA,182416.30,4138.0747030,N,07032.3851165,W,1,24,0.6,12.990,M,-29.744,M,0.0,*55
###2023-12-09 13:24:17.386038$GNGGA,182416.50,4138.0746663,N,07032.3853368,W,1,24,0.6,12.984,M,-29.744,M,0.0,*5A
###2023-12-09 13:24:17.586304$GNGGA,182416.70,4138.0746335,N,07032.3855550,W,1,24,0.6,12.987,M,-29.744,M,0.0,*56
###2023-12-09 13:24:17.786144$GNGGA,182416.90,4138.0746102,N,07032.3857749,W,1,24,0.6,12.993,M,-29.744,M,0.0,*53
###2023-12-09 13:24:17.989939$GNRMC,182417.10,A,4138.0745770,N,07032.3859904,W,2.86,254.54,091223,,,A*5B
###2023-12-09 13:24:17.993395$GNGGA,182417.10,4138.0745770,N,07032.3859904,W,1,24,0.6,12.997,M,-29.744,M,0.0,*57
###2023-12-09 13:24:17.995559$GPGSA,A,3,03,04,16,26,28,29,31,,,,,,1.1,0.6,0.9*3A
###2023-12-09 13:24:17.997618$GLGSA,A,3,65,71,72,73,74,75,,,,,,,1.1,0.6,0.9*24
###2023-12-09 13:24:17.999574$GAGSA,A,3,04,19,21,27,,,,,,,,,1.1,0.6,0.9*26
###2023-12-09 13:24:18.001648$GBGSA,A,3,14,24,25,26,33,35,,,,,,,1.1,0.6,0.9*29
###2023-12-09 13:24:18.004439$GPGSV,2,1,07,03,30,251,40,04,42,310,44,16,61,218,45,26,89,050,47*76
###2023-12-09 13:24:18.006905$GPGSV,2,2,07,28,41,080,45,29,22,051,43,31,63,058,46,,,,*48
###2023-12-09 13:24:18.009698$GLGSV,2,1,06,65,34,323,43,71,29,175,43,72,68,232,45,73,27,049,41*68
###2023-12-09 13:24:18.011810$GLGSV,2,2,06,74,63,004,43,75,40,265,45,,,,,,,,*60
###2023-12-09 13:24:18.014654$GAGSV,1,1,04,04,36,311,42,19,76,185,41,21,80,052,46,27,26,049,39*60
###2023-12-09 13:24:18.017449$GBGSV,2,1,06,14,34,191,42,24,66,040,49,25,47,271,45,26,19,068,44*6F
###2023-12-09 13:24:18.019557$GBGSV,2,2,06,33,50,221,46,35,16,061,44,,,,,,,,*6D
###2023-12-09 13:24:18.021142$GNVTG,254.54,T,,M,2.86,N,5.29,K,A*23
###2023-12-09 13:24:18.023136$GNGST,182417.10,18.000,,,,0.100,0.073,0.170*55
###2023-12-09 13:24:18.024693$GNZDA,182417.10,09,12,2023,00,00*79
###2023-12-09 13:24:18.025461$GNEBP,,,,,,M*13
###2023-12-09 13:24:18.187052$GNGGA,182417.30,4138.0745263,N,07032.3861969,W,1,24,0.6,12.997,M,-29.744,M,0.0,*52
###2023-12-09 13:24:18.386367$GNGGA,182417.50,4138.0744692,N,07032.3864071,W,1,24,0.6,13.001,M,-29.744,M,0.0,*5D
###2023-12-09 13:24:18.585852$GNGGA,182417.70,4138.0744199,N,07032.3866287,W,1,24,0.6,13.012,M,-29.744,M,0.0,*58
###2023-12-09 13:24:18.788154$GNGGA,182417.90,4138.0743628,N,07032.3868542,W,1,24,0.6,13.015,M,-29.744,M,0.0,*5B
###2023-12-09 13:24:18.991722$GNRMC,182418.10,A,4138.0742824,N,07032.3870662,W,3.19,240.13,091223,,,A*58
###2023-12-09 13:24:18.995178$GNGGA,182418.10,4138.0742824,N,07032.3870662,W,1,24,0.6,13.012,M,-29.744,M,0.0,*50
###2023-12-09 13:24:18.997330$GPGSA,A,3,03,04,16,26,28,29,31,,,,,,1.1,0.6,0.9*3A
###2023-12-09 13:24:18.999415$GLGSA,A,3,65,71,72,73,74,75,,,,,,,1.1,0.6,0.9*24
###2023-12-09 13:24:19.001320$GAGSA,A,3,04,19,21,27,,,,,,,,,1.1,0.6,0.9*26
###2023-12-09 13:24:19.003406$GBGSA,A,3,14,24,25,26,33,35,,,,,,,1.1,0.6,0.9*29
###2023-12-09 13:24:19.006219$GPGSV,2,1,07,03,30,251,40,04,42,310,45,16,61,218,45,26,89,050,48*78
###2023-12-09 13:24:19.008719$GPGSV,2,2,07,28,41,080,44,29,22,051,44,31,63,058,45,,,,*4D
###2023-12-09 13:24:19.011547$GLGSV,2,1,06,65,34,323,44,71,29,175,43,72,68,232,44,73,27,049,43*6C
###2023-12-09 13:24:19.013655$GLGSV,2,2,06,74,63,004,43,75,40,265,46,,,,,,,,*63
###2023-12-09 13:24:19.016484$GAGSV,1,1,04,04,36,311,43,19,76,185,40,21,80,052,45,27,26,049,40*6D
###2023-12-09 13:24:19.019307$GBGSV,2,1,06,14,34,191,43,24,66,040,47,25,47,271,45,26,19,068,43*67
###2023-12-09 13:24:19.021421$GBGSV,2,2,06,33,50,221,46,35,16,061,44,,,,,,,,*6D
###2023-12-09 13:24:19.023030$GNVTG,240.13,T,,M,3.19,N,5.90,K,A*20
###2023-12-09 13:24:19.025011$GNGST,182418.10,18.000,,,,0.100,0.073,0.170*5A
###2023-12-09 13:24:19.026574$GNZDA,182418.10,09,12,2023,00,00*76
###2023-12-09 13:24:19.027347$GNEBP,,,,,,M*13
###2023-12-09 13:24:19.185707$GNGGA,182418.30,4138.0741923,N,07032.3872709,W,1,24,0.6,13.012,M,-29.744,M,0.0,*59
###2023-12-09 13:24:19.387279$GNGGA,182418.50,4138.0741093,N,07032.3874911,W,1,24,0.6,13.024,M,-29.744,M,0.0,*59
###2023-12-09 13:24:19.589611$GNGGA,182418.70,4138.0740180,N,07032.3877081,W,1,24,0.6,13.022,M,-29.744,M,0.0,*5C
###2023-12-09 13:24:19.786787$GNGGA,182418.90,4138.0739011,N,07032.3878752,W,1,24,0.6,13.007,M,-29.744,M,0.0,*54
###2023-12-09 13:24:19.990273$GNRMC,182419.10,A,4138.0737742,N,07032.3880205,W,3.05,223.18,091223,,,A*5D
###2023-12-09 13:24:19.993145$GNGGA,182419.10,4138.0737742,N,07032.3880205,W,1,24,0.6,12.996,M,-29.744,M,0.0,*52
###2023-12-09 13:24:19.994945$GPGSA,A,3,03,04,16,26,28,29,31,,,,,,1.1,0.6,0.9*3A
###2023-12-09 13:24:19.996660$GLGSA,A,3,65,71,72,73,74,75,,,,,,,1.1,0.6,0.9*24
###2023-12-09 13:24:19.998239$GAGSA,A,3,04,19,21,27,,,,,,,,,1.1,0.6,0.9*26
###2023-12-09 13:24:19.999961$GBGSA,A,3,14,24,25,26,33,35,,,,,,,1.1,0.6,0.9*29
###2023-12-09 13:24:20.002282$GPGSV,2,1,07,03,30,251,37,04,42,310,44,16,61,218,45,26,89,050,48*79
###2023-12-09 13:24:20.004333$GPGSV,2,2,07,28,41,080,45,29,22,051,43,31,63,058,47,,,,*49
###2023-12-09 13:24:20.006671$GLGSV,2,1,06,65,34,323,43,71,29,175,44,72,68,232,45,73,27,049,44*6A
###2023-12-09 13:24:20.008416$GLGSV,2,2,06,74,63,004,43,75,40,265,45,,,,,,,,*60
###2023-12-09 13:24:20.010740$GAGSV,1,1,04,04,36,311,43,19,76,185,41,21,80,052,46,27,26,049,43*6C
###2023-12-09 13:24:20.013069$GBGSV,2,1,06,14,34,191,42,24,66,040,48,25,47,271,45,26,19,068,44*6E
###2023-12-09 13:24:20.015074$GBGSV,2,2,06,33,50,221,45,35,16,061,44,,,,,,,,*6E
###2023-12-09 13:24:20.016418$GNVTG,223.18,T,,M,3.05,N,5.65,K,A*29
###2023-12-09 13:24:20.018068$GNGST,182419.10,18.000,,,,0.100,0.073,0.170*5B
###2023-12-09 13:24:20.019376$GNZDA,182419.10,09,12,2023,00,00*77
###2023-12-09 13:24:20.020017$GNEBP,,,,,,M*13
###2023-12-09 13:24:20.185970$GNGGA,182419.30,4138.0736542,N,07032.3881827,W,1,24,0.6,13.000,M,-29.744,M,0.0,*5F
###2023-12-09 13:24:20.384566$GNGGA,182419.50,4138.0735356,N,07032.3883491,W,1,24,0.6,13.012,M,-29.744,M,0.0,*59
###2023-12-09 13:24:20.586310$GNGGA,182419.70,4138.0734070,N,07032.3885051,W,1,24,0.6,13.032,M,-29.744,M,0.0,*51
###2023-12-09 13:24:20.785474$GNGGA,182419.90,4138.0732726,N,07032.3886482,W,1,24,0.6,13.038,M,-29.744,M,0.0,*5E
