###2023-12-09 12:36:00.936901$GNRMC,173600.10,A,4138.0466393,N,07032.4035737,W,1.61,74.58,091223,,,A*67
###2023-12-09 12:36:00.939788$GNGGA,173600.10,4138.0466393,N,07032.4035737,W,1,23,0.7,13.333,M,-29.745,M,0.0,*5F
###2023-12-09 12:36:00.941653$GPGSA,A,3,03,04,16,26,28,29,31,32,,,,,1.2,0.7,1.0*31
###2023-12-09 12:36:00.943319$GLGSA,A,3,71,72,73,74,75,,,,,,,,1.2,0.7,1.0*2D
###2023-12-09 12:36:00.944899$GAGSA,A,3,04,19,21,27,,,,,,,,,1.2,0.7,1.0*2C
###2023-12-09 12:36:00.946553$GBGSA,A,3,14,24,25,26,33,,,,,,,,1.2,0.7,1.0*25
###2023-12-09 12:36:00.948911$GPGSV,2,1,08,03,38,276,46,04,22,311,42,16,37,207,46,26,66,206,50*7B
###2023-12-09 12:36:00.951263$GPGSV,2,2,08,28,58,056,46,29,25,074,43,31,73,001,49,32,30,134,45*70
###2023-12-09 12:36:00.953584$GLGSV,2,1,05,71,56,169,48,72,66,308,47,73,47,034,47,74,71,293,43*60
###2023-12-09 12:36:00.955050$GLGSV,2,2,05,75,22,241,46,,,,,,,,,,,,*57
###2023-12-09 12:36:00.957364$GAGSV,1,1,04,04,21,311,40,19,82,300,42,21,78,176,47,27,41,049,44*69
###2023-12-09 12:36:00.959753$GBGSV,2,1,05,14,55,197,45,24,80,348,48,25,33,253,45,26,35,057,42*6F
###2023-12-09 12:36:00.961223$GBGSV,2,2,05,33,63,253,46,,,,,,,,,,,,*5D
###2023-12-09 12:36:00.962521$GNVTG,74.58,T,,M,1.61,N,2.99,K,A*19
###2023-12-09 12:36:00.964187$GNGST,173600.10,18.000,,,,0.080,0.070,0.160*54
###2023-12-09 12:36:00.965485$GNZDA,173600.10,09,12,2023,00,00*73
###2023-12-09 12:36:00.966128$GNEBP,,,,,,M*13
###2023-12-09 12:36:01.135866$GNGGA,173600.30,4138.0466596,N,07032.4034521,W,1,23,0.7,13.343,M,-29.745,M,0.0,*5D
###2023-12-09 12:36:01.336981$GNGGA,173600.50,4138.0466800,N,07032.4033251,W,1,23,0.7,13.346,M,-29.745,M,0.0,*5B
###2023-12-09 12:36:01.535709$GNGGA,173600.70,4138.0466997,N,07032.4032097,W,1,23,0.7,13.345,M,-29.745,M,0.0,*5C
###2023-12-09 12:36:01.735750$GNGGA,173600.90,4138.0467205,N,07032.4030986,W,1,23,0.7,13.348,M,-29.745,M,0.0,*55
###2023-12-09 12:36:01.937046$GNRMC,173601.10,A,4138.0467466,N,07032.4029875,W,1.65,72.92,091223,,,A*6A
###2023-12-09 12:36:01.940058$GNGGA,173601.10,4138.0467466,N,07032.4029875,W,1,23,0.7,13.353,M,-29.745,M,0.0,*50
###2023-12-09 12:36:01.941945$GPGSA,A,3,03,04,16,26,28,29,31,32,,,,,1.2,0.7,1.0*31
###2023-12-09 12:36:01.943626$GLGSA,A,3,71,72,73,74,75,,,,,,,,1.2,0.7,1.0*2D
###2023-12-09 12:36:01.945224$GAGSA,A,3,04,19,21,27,,,,,,,,,1.2,0.7,1.0*2C
###2023-12-09 12:36:01.946906$GBGSA,A,3,14,24,25,26,33,,,,,,,,1.2,0.7,1.0*25
###2023-12-09 12:36:01.949258$GPGSV,2,1,08,03,38,276,45,04,22,311,43,16,37,207,46,26,66,206,49*71
###2023-12-09 12:36:01.951623$GPGSV,2,2,08,28,58,056,46,29,25,074,43,31,73,001,48,32,30,134,45*71
###2023-12-09 12:36:01.953963$GLGSV,2,1,05,71,56,169,48,72,66,308,47,73,47,034,47,74,71,293,43*60
###2023-12-09 12:36:01.955440$GLGSV,2,2,05,75,22,241,42,,,,,,,,,,,,*53
###2023-12-09 12:36:01.957770$GAGSV,1,1,04,04,21,311,42,19,82,300,41,21,78,176,47,27,41,049,44*68
###2023-12-09 12:36:01.960131$GBGSV,2,1,05,14,55,197,46,24,80,348,48,25,33,253,45,26,35,057,43*6D
###2023-12-09 12:36:01.961596$GBGSV,2,2,05,33,63,253,47,,,,,,,,,,,,*5C
###2023-12-09 12:36:01.962908$GNVTG,72.92,T,,M,1.65,N,3.06,K,A*1A
###2023-12-09 12:36:01.964558$GNGST,173601.10,18.000,,,,0.079,0.069,0.160*5B
###2023-12-09 12:36:01.965854$GNZDA,173601.10,09,12,2023,00,00*72
###2023-12-09 12:36:01.966498$GNEBP,,,,,,M*13
###2023-12-09 12:36:02.135768$GNGGA,173601.30,4138.0467654,N,07032.4028744,W,1,23,0.7,13.356,M,-29.745,M,0.0,*58
###2023-12-09 12:36:02.335722$GNGGA,173601.50,4138.0467792,N,07032.4027691,W,1,23,0.7,13.352,M,-29.745,M,0.0,*57
###2023-12-09 12:36:02.537555$GNGGA,173601.70,4138.0467978,N,07032.4026654,W,1,23,0.7,13.350,M,-29.745,M,0.0,*55
###2023-12-09 12:36:02.752360$GNGGA,173601.90,4138.0468222,N,07032.4025607,W,1,23,0.7,13.357,M,-29.745,M,0.0,*52
###2023-12-09 12:36:02.939530$GNRMC,173602.10,A,4138.0468427,N,07032.4024635,W,1.36,75.93,091223,,,A*64
###2023-12-09 12:36:02.942406$GNGGA,173602.10,4138.0468427,N,07032.4024635,W,1,23,0.7,13.354,M,-29.745,M,0.0,*59
###2023-12-09 12:36:02.944293$GPGSA,A,3,03,04,16,26,28,29,31,32,,,,,1.2,0.7,1.0*31
###2023-12-09 12:36:02.945949$GLGSA,A,3,71,72,73,74,75,,,,,,,,1.2,0.7,1.0*2D
###2023-12-09 12:36:02.947567$GAGSA,A,3,04,19,21,27,,,,,,,,,1.2,0.7,1.0*2C
###2023-12-09 12:36:02.949238$GBGSA,A,3,14,24,25,26,33,,,,,,,,1.2,0.7,1.0*25
###2023-12-09 12:36:02.951582$GPGSV,2,1,08,03,38,276,45,04,22,311,42,16,37,207,45,26,66,206,49*73
###2023-12-09 12:36:02.953922$GPGSV,2,2,08,28,58,056,45,29,25,074,41,31,73,001,48,32,30,134,43*76
###2023-12-09 12:36:02.956275$GLGSV,2,1,05,71,56,169,48,72,66,308,47,73,47,034,47,74,71,293,43*60
###2023-12-09 12:36:02.957738$GLGSV,2,2,05,75,22,241,44,,,,,,,,,,,,*55
###2023-12-09 12:36:02.960081$GAGSV,1,1,04,04,21,311,42,19,82,300,41,21,78,176,47,27,41,049,45*69
###2023-12-09 12:36:02.962408$GBGSV,2,1,05,14,55,197,46,24,80,348,48,25,33,253,45,26,35,057,42*6C
###2023-12-09 12:36:02.963878$GBGSV,2,2,05,33,63,253,48,,,,,,,,,,,,*53
###2023-12-09 12:36:02.965172$GNVTG,75.93,T,,M,1.36,N,2.52,K,A*1A
###2023-12-09 12:36:02.966874$GNGST,173602.10,18.000,,,,0.079,0.069,0.160*58
###2023-12-09 12:36:02.968177$GNZDA,173602.10,09,12,2023,00,00*71
###2023-12-09 12:36:02.968823$GNEBP,,,,,,M*13
###2023-12-09 12:36:03.136674$GNGGA,173602.30,4138.0468546,N,07032.4023664,W,1,23,0.7,13.357,M,-29.745,M,0.0,*5D
###2023-12-09 12:36:03.336069$GNGGA,173602.50,4138.0468749,N,07032.4022688,W,1,23,0.7,13.358,M,-29.745,M,0.0,*5A
###2023-12-09 12:36:03.537458$GNGGA,173602.70,4138.0468972,N,07032.4021720,W,1,23,0.7,13.354,M,-29.745,M,0.0,*52
###2023-12-09 12:36:03.738779$GNGGA,173602.90,4138.0469143,N,07032.4020815,W,1,23,0.7,13.347,M,-29.745,M,0.0,*5D
###2023-12-09 12:36:03.938601$GNRMC,173603.10,A,4138.0469316,N,07032.4019932,W,1.34,74.80,091223,,,A*66
###2023-12-09 12:36:03.942059$GNGGA,173603.10,4138.0469316,N,07032.4019932,W,1,23,0.7,13.345,M,-29.745,M,0.0,*5A
###2023-12-09 12:36:03.944321$GPGSA,A,3,03,04,16,26,28,29,31,32,,,,,1.2,0.7,1.0*31
###2023-12-09 12:36:03.946329$GLGSA,A,3,71,72,73,74,75,,,,,,,,1.2,0.7,1.0*2D
###2023-12-09 12:36:03.948286$GAGSA,A,3,04,19,21,27,,,,,,,,,1.2,0.7,1.0*2C
###2023-12-09 12:36:03.950290$GBGSA,A,3,14,24,25,26,33,,,,,,,,1.2,0.7,1.0*25
###2023-12-09 12:36:03.953160$GPGSV,2,1,08,03,38,276,43,04,22,311,39,16,37,207,44,26,66,206,47*76
###2023-12-09 12:36:03.956006$GPGSV,2,2,08,28,58,056,43,29,25,074,40,31,73,001,46,32,30,134,41*7D
###2023-12-09 12:36:03.958838$GLGSV,2,1,05,71,56,169,48,72,66,308,47,73,47,034,46,74,71,293,43*61
###2023-12-09 12:36:03.960586$GLGSV,2,2,05,75,22,241,43,,,,,,,,,,,,*52
###2023-12-09 12:36:03.963415$GAGSV,1,1,04,04,21,311,42,19,82,300,40,21,78,176,45,27,41,049,43*6C
###2023-12-09 12:36:03.966228$GBGSV,2,1,05,14,55,197,46,24,80,348,49,25,33,253,45,26,35,057,43*6C
###2023-12-09 12:36:03.967994$GBGSV,2,2,05,33,63,253,48,,,,,,,,,,,,*53
###2023-12-09 12:36:03.969555$GNVTG,74.80,T,,M,1.34,N,2.48,K,A*10
###2023-12-09 12:36:03.971563$GNGST,173603.10,18.000,,,,0.079,0.070,0.160*51
###2023-12-09 12:36:03.973119$GNZDA,173603.10,09,12,2023,00,00*70
###2023-12-09 12:36:03.973897$GNEBP,,,,,,M*13
###2023-12-09 12:36:04.136030$GNGGA,173603.30,4138.0469494,N,07032.4018998,W,1,23,0.7,13.353,M,-29.745,M,0.0,*53
###2023-12-09 12:36:04.337414$GNGGA,173603.50,4138.0469661,N,07032.4018135,W,1,23,0.7,13.348,M,-29.745,M,0.0,*58
###2023-12-09 12:36:04.544498$GNGGA,173603.70,4138.0469823,N,07032.4017290,W,1,23,0.7,13.336,M,-29.745,M,0.0,*58
###2023-12-09 12:36:04.735135$GNGGA,173603.90,4138.0470004,N,07032.4016427,W,1,23,0.7,13.335,M,-29.745,M,0.0,*5B
###2023-12-09 12:36:04.937562$GNRMC,173604.10,A,4138.0470173,N,07032.4015560,W,1.15,75.57,091223,,,A*67
###2023-12-09 12:36:04.940536$GNGGA,173604.10,4138.0470173,N,07032.4015560,W,1,23,0.7,13.333,M,-29.745,M,0.0,*52
###2023-12-09 12:36:04.942396$GPGSA,A,3,03,04,16,26,28,29,31,32,,,,,1.2,0.7,1.0*31
###2023-12-09 12:36:04.944058$GLGSA,A,3,71,72,73,74,75,,,,,,,,1.2,0.7,1.0*2D
###2023-12-09 12:36:04.945635$GAGSA,A,3,04,19,21,27,,,,,,,,,1.2,0.7,1.0*2C
###2023-12-09 12:36:04.947316$GBGSA,A,3,14,24,25,26,33,,,,,,,,1.2,0.7,1.0*25
###2023-12-09 12:36:04.949665$GPGSV,2,1,08,03,38,276,44,04,22,311,41,16,37,207,45,26,66,206,47*7F
###2023-12-09 12:36:04.952023$GPGSV,2,2,08,28,58,056,44,29,25,074,40,31,73,001,46,32,30,134,42*79
###2023-12-09 12:36:04.954646$GLGSV,2,1,05,71,56,169,48,72,66,308,47,73,47,034,47,74,71,293,43*60
###2023-12-09 12:36:04.956118$GLGSV,2,2,05,75,22,241,43,,,,,,,,,,,,*52
###2023-12-09 12:36:04.958442$GAGSV,1,1,04,04,21,311,41,19,82,300,40,21,78,176,46,27,41,049,43*6C
###2023-12-09 12:36:04.960787$GBGSV,2,1,05,14,55,197,46,24,80,348,48,25,33,253,45,26,35,057,42*6C
###2023-12-09 12:36:04.962244$GBGSV,2,2,05,33,63,253,47,,,,,,,,,,,,*5C
###2023-12-09 12:36:04.963558$GNVTG,75.57,T,,M,1.15,N,2.12,K,A*17
###2023-12-09 12:36:04.965209$GNGST,173604.10,18.000,,,,0.079,0.070,0.160*56
###2023-12-09 12:36:04.966500$GNZDA,173604.10,09,12,2023,00,00*77
