###2023-12-09 12:39:44.139404$GNGGA,173943.30,4138.0544383,N,07032.3785936,W,1,23,0.7,13.404,M,-29.744,M,0.0,*53
###2023-12-09 12:39:44.339453$GNGGA,173943.50,4138.0544399,N,07032.3786041,W,1,23,0.7,13.379,M,-29.744,M,0.0,*59
###2023-12-09 12:39:44.540774$GNGGA,173943.70,4138.0544504,N,07032.3786318,W,1,23,0.7,13.372,M,-29.744,M,0.0,*5D
###2023-12-09 12:39:44.737977$GNGGA,173943.90,4138.0544787,N,07032.3786870,W,1,23,0.7,13.383,M,-29.744,M,0.0,*51
###2023-12-09 12:39:44.946358$GNRMC,173944.10,A,4138.0545056,N,07032.3787367,W,0.56,305.95,091223,,,A*5B
###2023-12-09 12:39:44.949276$GNGGA,173944.10,4138.0545056,N,07032.3787367,W,1,23,0.7,13.383,M,-29.744,M,0.0,*58
###2023-12-09 12:39:44.951150$GPGSA,A,3,03,04,16,26,28,29,31,32,,,,,1.2,0.7,1.0*31
###2023-12-09 12:39:44.952792$GLGSA,A,3,71,72,73,74,75,,,,,,,,1.2,0.7,1.0*2D
###2023-12-09 12:39:44.954367$GAGSA,A,3,04,19,21,27,,,,,,,,,1.2,0.7,1.0*2C
###2023-12-09 12:39:44.956035$GBGSA,A,3,14,24,25,26,33,,,,,,,,1.2,0.7,1.0*25
###2023-12-09 12:39:44.958361$GPGSV,2,1,08,03,38,274,45,04,24,311,43,16,39,208,42,26,68,207,46*70
###2023-12-09 12:39:44.960716$GPGSV,2,2,08,28,57,058,44,29,25,072,42,31,73,007,47,32,28,135,44*75
###2023-12-09 12:39:44.963066$GLGSV,2,1,05,71,54,170,47,72,68,305,47,73,45,035,47,74,71,299,43*6F
###2023-12-09 12:39:44.964528$GLGSV,2,2,05,75,24,243,40,,,,,,,,,,,,*55
###2023-12-09 12:39:44.966874$GAGSV,1,1,04,04,22,311,42,19,82,296,40,21,79,174,45,27,40,049,44*64
###2023-12-09 12:39:44.969207$GBGSV,2,1,05,14,53,197,45,24,80,355,48,25,34,254,45,26,33,058,46*68
###2023-12-09 12:39:44.970672$GBGSV,2,2,05,33,62,250,47,,,,,,,,,,,,*5E
###2023-12-09 12:39:44.971994$GNVTG,305.95,T,,M,0.56,N,1.04,K,A*2F
###2023-12-09 12:39:44.973646$GNGST,173944.10,18.000,,,,0.079,0.069,0.170*54
###2023-12-09 12:39:44.974947$GNZDA,173944.10,09,12,2023,00,00*7C
###2023-12-09 12:39:44.975585$GNEBP,,,,,,M*13
###2023-12-09 12:39:45.138757$GNGGA,173944.30,4138.0545094,N,07032.3787519,W,1,23,0.7,13.381,M,-29.744,M,0.0,*59
###2023-12-09 12:39:45.339939$GNGGA,173944.50,4138.0545021,N,07032.3787476,W,1,23,0.7,13.357,M,-29.744,M,0.0,*52
###2023-12-09 12:39:45.539801$GNGGA,173944.70,4138.0545165,N,07032.3787766,W,1,23,0.7,13.343,M,-29.744,M,0.0,*56
###2023-12-09 12:39:45.738923$GNGGA,173944.90,4138.0545486,N,07032.3788411,W,1,23,0.7,13.361,M,-29.744,M,0.0,*5C
###2023-12-09 12:39:45.939312$GNRMC,173945.10,A,4138.0545748,N,07032.3788893,W,0.49,305.42,091223,,,A*59
###2023-12-09 12:39:45.942175$GNGGA,173945.10,4138.0545748,N,07032.3788893,W,1,23,0.7,13.360,M,-29.744,M,0.0,*53
###2023-12-09 12:39:45.944039$GPGSA,A,3,03,04,16,26,28,29,31,32,,,,,1.2,0.7,1.0*31
###2023-12-09 12:39:45.945686$GLGSA,A,3,71,72,73,74,75,,,,,,,,1.2,0.7,1.0*2D
###2023-12-09 12:39:45.947295$GAGSA,A,3,04,19,21,27,,,,,,,,,1.2,0.7,1.0*2C
###2023-12-09 12:39:45.948958$GBGSA,A,3,14,24,25,26,33,,,,,,,,1.2,0.7,1.0*25
###2023-12-09 12:39:45.951306$GPGSV,2,1,08,03,38,274,47,04,24,311,46,16,39,208,43,26,68,207,49*79
###2023-12-09 12:39:45.953640$GPGSV,2,2,08,28,57,058,46,29,25,072,43,31,73,007,49,32,28,135,45*79
###2023-12-09 12:39:45.955994$GLGSV,2,1,05,71,54,170,46,72,68,305,47,73,45,035,46,74,71,299,43*6F
###2023-12-09 12:39:45.957450$GLGSV,2,2,05,75,24,243,42,,,,,,,,,,,,*57
###2023-12-09 12:39:45.959797$GAGSV,1,1,04,04,22,311,44,19,82,296,42,21,79,174,46,27,40,049,47*60
###2023-12-09 12:39:45.962127$GBGSV,2,1,05,14,53,197,45,24,80,355,48,25,34,254,44,26,33,058,45*6A
###2023-12-09 12:39:45.963596$GBGSV,2,2,05,33,62,250,47,,,,,,,,,,,,*5E
###2023-12-09 12:39:45.964923$GNVTG,305.42,T,,M,0.49,N,0.90,K,A*27
###2023-12-09 12:39:45.966590$GNGST,173945.10,18.000,,,,0.079,0.069,0.170*55
###2023-12-09 12:39:45.967892$GNZDA,173945.10,09,12,2023,00,00*7D
###2023-12-09 12:39:45.968536$GNEBP,,,,,,M*13
###2023-12-09 12:39:46.139830$GNGGA,173945.30,4138.0545763,N,07032.3788962,W,1,23,0.7,13.363,M,-29.744,M,0.0,*54
###2023-12-09 12:39:46.340516$GNGGA,173945.50,4138.0545707,N,07032.3788885,W,1,23,0.7,13.333,M,-29.744,M,0.0,*5D
###2023-12-09 12:39:46.537888$GNGGA,173945.70,4138.0545835,N,07032.3789198,W,1,23,0.7,13.317,M,-29.744,M,0.0,*53
###2023-12-09 12:39:46.737988$GNGGA,173945.90,4138.0546161,N,07032.3789867,W,1,23,0.7,13.332,M,-29.744,M,0.0,*58
###2023-12-09 12:39:46.942429$GNRMC,173946.10,A,4138.0546421,N,07032.3790389,W,0.49,304.76,091223,,,A*5A
###2023-12-09 12:39:46.945310$GNGGA,173946.10,4138.0546421,N,07032.3790389,W,1,23,0.7,13.329,M,-29.744,M,0.0,*5B
###2023-12-09 12:39:46.947192$GPGSA,A,3,03,04,16,26,28,29,31,32,,,,,1.2,0.7,1.0*31
###2023-12-09 12:39:46.948853$GLGSA,A,3,71,72,73,74,75,,,,,,,,1.2,0.7,1.0*2D
###2023-12-09 12:39:46.950435$GAGSA,A,3,04,19,21,27,,,,,,,,,1.2,0.7,1.0*2C
###2023-12-09 12:39:46.952098$GBGSA,A,3,14,24,25,26,33,,,,,,,,1.2,0.7,1.0*25
###2023-12-09 12:39:46.954417$GPGSV,2,1,08,03,38,274,45,04,24,311,45,16,39,208,44,26,68,207,48*7E
###2023-12-09 12:39:46.956769$GPGSV,2,2,08,28,57,058,45,29,25,072,43,31,73,007,49,32,28,135,43*7C
###2023-12-09 12:39:46.959113$GLGSV,2,1,05,71,54,170,47,72,68,305,47,73,45,035,47,74,71,299,43*6F
###2023-12-09 12:39:46.960570$GLGSV,2,2,05,75,24,243,41,,,,,,,,,,,,*54
###2023-12-09 12:39:46.962911$GAGSV,1,1,04,04,22,311,43,19,82,296,41,21,79,174,45,27,40,049,45*65
###2023-12-09 12:39:46.965237$GBGSV,2,1,05,14,53,197,44,24,80,355,47,25,34,254,44,26,33,058,45*64
###2023-12-09 12:39:46.966699$GBGSV,2,2,05,33,62,250,46,,,,,,,,,,,,*5F
###2023-12-09 12:39:46.968022$GNVTG,304.76,T,,M,0.49,N,0.90,K,A*21
###2023-12-09 12:39:46.969666$GNGST,173946.10,18.000,,,,0.078,0.069,0.160*56
###2023-12-09 12:39:46.970965$GNZDA,173946.10,09,12,2023,00,00*7E
###2023-12-09 12:39:46.971609$GNEBP,,,,,,M*13
###2023-12-09 12:39:47.140721$GNGGA,173946.30,4138.0546449,N,07032.3790453,W,1,23,0.7,13.333,M,-29.744,M,0.0,*5C
###2023-12-09 12:39:47.340534$GNGGA,173946.50,4138.0546346,N,07032.3790273,W,1,23,0.7,13.295,M,-29.744,M,0.0,*5B
###2023-12-09 12:39:47.541881$GNGGA,173946.70,4138.0546483,N,07032.3790549,W,1,22,0.7,13.277,M,-29.744,M,0.0,*54
###2023-12-09 12:39:47.741050$GNGGA,173946.90,4138.0546873,N,07032.3791360,W,1,23,0.7,13.314,M,-29.744,M,0.0,*50
###2023-12-09 12:39:47.941561$GNRMC,173947.10,A,4138.0547118,N,07032.3791890,W,0.29,303.03,091223,,,A*54
###2023-12-09 12:39:47.944421$GNGGA,173947.10,4138.0547118,N,07032.3791890,W,1,23,0.7,13.313,M,-29.744,M,0.0,*5F
###2023-12-09 12:39:47.946274$GPGSA,A,3,03,04,16,26,28,29,31,32,,,,,1.2,0.7,1.0*31
###2023-12-09 12:39:47.947981$GLGSA,A,3,71,72,73,74,75,,,,,,,,1.2,0.7,1.0*2D
###2023-12-09 12:39:47.949588$GAGSA,A,3,04,19,21,27,,,,,,,,,1.2,0.7,1.0*2C
###2023-12-09 12:39:47.951261$GBGSA,A,3,14,24,25,26,33,,,,,,,,1.2,0.7,1.0*25
###2023-12-09 12:39:47.953583$GPGSV,2,1,08,03,38,274,46,04,24,311,45,16,39,208,42,26,68,207,47*74
###2023-12-09 12:39:47.955938$GPGSV,2,2,08,28,57,058,44,29,25,072,41,31,73,007,48,32,28,135,42*7F
###2023-12-09 12:39:47.958265$GLGSV,2,1,05,71,54,170,46,72,68,305,47,73,45,035,46,74,71,299,43*6F
###2023-12-09 12:39:47.959736$GLGSV,2,2,05,75,24,243,42,,,,,,,,,,,,*57
###2023-12-09 12:39:47.962052$GAGSV,1,1,04,04,22,311,44,19,82,296,40,21,79,174,44,27,40,049,44*63
###2023-12-09 12:39:47.964395$GBGSV,2,1,05,14,53,197,44,24,80,355,47,25,34,254,43,26,33,058,44*62
###2023-12-09 12:39:47.965845$GBGSV,2,2,05,33,62,250,47,,,,,,,,,,,,*5E
###2023-12-09 12:39:47.967181$GNVTG,303.03,T,,M,0.29,N,0.54,K,A*2A
###2023-12-09 12:39:47.968822$GNGST,173947.10,18.000,,,,0.079,0.069,0.170*57
###2023-12-09 12:39:47.970107$GNZDA,173947.10,09,12,2023,00,00*7F
###2023-12-09 12:39:47.970757$GNEBP,,,,,,M*13
###2023-12-09 12:39:48.141539$GNGGA,173947.30,4138.0547060,N,07032.3791798,W,1,23,0.7,13.325,M,-29.744,M,0.0,*51
###2023-12-09 12:39:48.340538$GNGGA,173947.50,4138.0546999,N,07032.3791613,W,1,22,0.7,13.285,M,-29.744,M,0.0,*51
###2023-12-09 12:39:48.541838$GNGGA,173947.70,4138.0547207,N,07032.3792047,W,1,22,0.7,13.279,M,-29.744,M,0.0,*59
###2023-12-09 12:39:48.741043$GNGGA,173947.90,4138.0547553,N,07032.3792780,W,1,23,0.7,13.300,M,-29.744,M,0.0,*53
###2023-12-09 12:39:48.942445$GNRMC,173948.10,A,4138.0547733,N,07032.3793142,W,0.06,303.72,091223,,,A*5B
###2023-12-09 12:39:48.945328$GNGGA,173948.10,4138.0547733,N,07032.3793142,W,1,23,0.7,13.304,M,-29.744,M,0.0,*5D
###2023-12-09 12:39:48.947467$GPGSA,A,3,03,04,16,26,28,29,31,32,,,,,1.2,0.7,1.0*31
###2023-12-09 12:39:48.949157$GLGSA,A,3,71,72,73,74,75,,,,,,,,1.2,0.7,1.0*2D
###2023-12-09 12:39:48.950771$GAGSA,A,3,04,19,21,27,,,,,,,,,1.2,0.7,1.0*2C
###2023-12-09 12:39:48.952422$GBGSA,A,3,14,24,25,26,33,,,,,,,,1.2,0.7,1.0*25
###2023-12-09 12:39:48.954757$GPGSV,2,1,08,03,38,274,46,04,24,311,45,16,39,208,42,26,68,207,47*74
###2023-12-09 12:39:48.957099$GPGSV,2,2,08,28,57,058,44,29,25,072,41,31,73,007,48,32,28,135,42*7F
###2023-12-09 12:39:48.959441$GLGSV,2,1,05,71,54,170,46,72,68,305,48,73,45,035,46,74,71,299,43*60
###2023-12-09 12:39:48.960899$GLGSV,2,2,05,75,24,243,41,,,,,,,,,,,,*54
###2023-12-09 12:39:48.963235$GAGSV,1,1,04,04,22,311,44,19,82,296,40,21,79,174,44,27,40,049,44*63
###2023-12-09 12:39:48.965565$GBGSV,2,1,05,14,53,197,44,24,80,355,47,25,34,254,43,26,33,058,44*62
