###2023-12-09 13:06:52.990890$GLGSV,2,1,06,65,26,326,40,71,37,173,46,72,72,258,46,73,33,043,44*6F
###2023-12-09 13:06:52.992666$GLGSV,2,2,06,74,68,345,42,75,34,256,42,,,,,,,,*68
###2023-12-09 13:06:52.995028$GAGSV,1,1,04,04,31,312,41,19,83,203,40,21,85,092,46,27,31,048,41*60
###2023-12-09 13:06:52.997361$GBGSV,2,1,06,14,41,192,44,24,72,029,48,25,42,264,45,26,24,064,43*67
###2023-12-09 13:06:52.999134$GBGSV,2,2,06,33,56,229,47,35,15,067,44,,,,,,,,*67
###2023-12-09 13:06:53.000463$GNVTG,278.32,T,,M,3.30,N,6.12,K,A*2A
###2023-12-09 13:06:53.002115$GNGST,180652.10,18.000,,,,0.081,0.067,0.150*5B
###2023-12-09 13:06:53.003434$GNZDA,180652.10,09,12,2023,00,00*78
###2023-12-09 13:06:53.004076$GNEBP,,,,,,M*13
###2023-12-09 13:06:53.169635$GNGGA,180652.30,4138.0720800,N,07032.3440376,W,1,25,0.6,12.979,M,-29.743,M,0.0,*52
###2023-12-09 13:06:53.369665$GNGGA,180652.50,4138.0720955,N,07032.3442839,W,1,25,0.6,12.978,M,-29.743,M,0.0,*56
###2023-12-09 13:06:53.568759$GNGGA,180652.70,4138.0721062,N,07032.3445335,W,1,25,0.6,12.978,M,-29.743,M,0.0,*58
###2023-12-09 13:06:53.769315$GNGGA,180652.90,4138.0721014,N,07032.3447806,W,1,25,0.6,12.974,M,-29.743,M,0.0,*52
###2023-12-09 13:06:53.970652$GNRMC,180653.10,A,4138.0720872,N,07032.3450274,W,3.34,265.13,091223,,,A*55
###2023-12-09 13:06:53.973527$GNGGA,180653.10,4138.0720872,N,07032.3450274,W,1,25,0.6,12.974,M,-29.743,M,0.0,*5B
###2023-12-09 13:06:53.975397$GPGSA,A,3,03,04,16,26,28,29,31,32,,,,,1.1,0.6,0.9*3B
###2023-12-09 13:06:53.977116$GLGSA,A,3,65,71,72,73,74,75,,,,,,,1.1,0.6,0.9*24
###2023-12-09 13:06:53.978713$GAGSA,A,3,04,19,21,27,,,,,,,,,1.1,0.6,0.9*26
###2023-12-09 13:06:53.980421$GBGSA,A,3,14,24,25,26,33,35,,,,,,,1.1,0.6,0.9*29
###2023-12-09 13:06:53.982787$GPGSV,2,1,08,03,34,259,43,04,34,311,43,16,52,213,46,26,82,210,48*7B
###2023-12-09 13:06:53.985125$GPGSV,2,2,08,28,48,072,45,29,25,059,42,31,68,042,48,32,17,141,44*70
###2023-12-09 13:06:53.987484$GLGSV,2,1,06,65,26,326,42,71,37,173,47,72,72,258,45,73,33,043,45*6E
###2023-12-09 13:06:53.989244$GLGSV,2,2,06,74,68,345,42,75,34,256,43,,,,,,,,*69
###2023-12-09 13:06:53.991597$GAGSV,1,1,04,04,31,312,41,19,83,203,40,21,85,092,46,27,31,048,41*60
###2023-12-09 13:06:53.993943$GBGSV,2,1,06,14,41,192,45,24,72,029,49,25,42,264,44,26,24,064,43*66
###2023-12-09 13:06:53.995704$GBGSV,2,2,06,33,56,229,47,35,15,067,45,,,,,,,,*66
###2023-12-09 13:06:53.997036$GNVTG,265.13,T,,M,3.34,N,6.19,K,A*2A
###2023-12-09 13:06:53.998707$GNGST,180653.10,18.000,,,,0.080,0.067,0.150*5B
###2023-12-09 13:06:54.000014$GNZDA,180653.10,09,12,2023,00,00*79
###2023-12-09 13:06:54.000658$GNEBP,,,,,,M*13
###2023-12-09 13:06:54.168547$GNGGA,180653.30,4138.0720717,N,07032.3452766,W,1,25,0.6,12.981,M,-29.743,M,0.0,*5B
###2023-12-09 13:06:54.372633$GNGGA,180653.50,4138.0720451,N,07032.3455243,W,1,25,0.6,12.983,M,-29.743,M,0.0,*5B
###2023-12-09 13:06:54.568864$GNGGA,180653.70,4138.0720108,N,07032.3457684,W,1,25,0.6,12.980,M,-29.743,M,0.0,*5E
###2023-12-09 13:06:54.768919$GNGGA,180653.90,4138.0719754,N,07032.3460155,W,1,25,0.6,12.974,M,-29.743,M,0.0,*51
###2023-12-09 13:06:54.971331$GNRMC,180654.10,A,4138.0719423,N,07032.3462655,W,3.44,260.99,091223,,,A*56
###2023-12-09 13:06:54.974185$GNGGA,180654.10,4138.0719423,N,07032.3462655,W,1,25,0.6,12.963,M,-29.743,M,0.0,*5E
###2023-12-09 13:06:54.976057$GPGSA,A,3,03,04,16,26,28,29,31,32,,,,,1.1,0.6,0.9*3B
###2023-12-09 13:06:54.977770$GLGSA,A,3,65,71,72,73,74,75,,,,,,,1.1,0.6,0.9*24
###2023-12-09 13:06:54.979363$GAGSA,A,3,04,19,21,27,,,,,,,,,1.1,0.6,0.9*26
###2023-12-09 13:06:54.981079$GBGSA,A,3,14,24,25,26,33,35,,,,,,,1.1,0.6,0.9*29
###2023-12-09 13:06:54.983425$GPGSV,2,1,08,03,34,259,43,04,34,311,43,16,52,213,46,26,82,210,48*7B
###2023-12-09 13:06:54.985760$GPGSV,2,2,08,28,48,072,45,29,25,059,42,31,68,042,48,32,17,141,44*70
###2023-12-09 13:06:54.988107$GLGSV,2,1,06,65,26,326,41,71,37,173,47,72,72,258,45,73,33,043,45*6D
###2023-12-09 13:06:54.989861$GLGSV,2,2,06,74,68,345,43,75,34,256,43,,,,,,,,*68
###2023-12-09 13:06:54.992205$GAGSV,1,1,04,04,31,312,41,19,83,203,40,21,85,092,46,27,31,048,42*63
###2023-12-09 13:06:54.994546$GBGSV,2,1,06,14,41,192,44,24,72,029,48,25,42,264,44,26,24,064,43*66
###2023-12-09 13:06:54.996316$GBGSV,2,2,06,33,56,229,46,35,15,067,45,,,,,,,,*67
###2023-12-09 13:06:54.997651$GNVTG,260.99,T,,M,3.44,N,6.37,K,A*26
###2023-12-09 13:06:54.999313$GNGST,180654.10,18.000,,,,0.080,0.067,0.150*5C
###2023-12-09 13:06:55.000610$GNZDA,180654.10,09,12,2023,00,00*7E
###2023-12-09 13:06:55.001248$GNEBP,,,,,,M*13
###2023-12-09 13:06:55.168120$GNGGA,180654.30,4138.0719163,N,07032.3465154,W,1,25,0.6,12.956,M,-29.743,M,0.0,*5A
###2023-12-09 13:06:55.368534$GNGGA,180654.50,4138.0718950,N,07032.3467621,W,1,25,0.6,12.955,M,-29.743,M,0.0,*51
###2023-12-09 13:06:55.568862$GNGGA,180654.70,4138.0718731,N,07032.3470070,W,1,25,0.6,12.947,M,-29.743,M,0.0,*5D
###2023-12-09 13:06:55.768990$GNGGA,180654.90,4138.0718689,N,07032.3472508,W,1,25,0.6,12.942,M,-29.743,M,0.0,*5C
###2023-12-09 13:06:55.971720$GNRMC,180655.10,A,4138.0718862,N,07032.3474935,W,3.32,278.15,091223,,,A*5D
###2023-12-09 13:06:55.974598$GNGGA,180655.10,4138.0718862,N,07032.3474935,W,1,25,0.6,12.943,M,-29.743,M,0.0,*5B
###2023-12-09 13:06:55.976456$GPGSA,A,3,03,04,16,26,28,29,31,32,,,,,1.1,0.6,0.9*3B
###2023-12-09 13:06:55.978168$GLGSA,A,3,65,71,72,73,74,75,,,,,,,1.1,0.6,0.9*24
###2023-12-09 13:06:55.979763$GAGSA,A,3,04,19,21,27,,,,,,,,,1.1,0.6,0.9*26
###2023-12-09 13:06:55.981476$GBGSA,A,3,14,24,25,26,33,35,,,,,,,1.1,0.6,0.9*29
###2023-12-09 13:06:55.983811$GPGSV,2,1,08,03,34,259,42,04,34,311,42,16,52,213,47,26,82,210,48*7A
###2023-12-09 13:06:55.986140$GPGSV,2,2,08,28,48,072,44,29,25,059,38,31,68,042,47,32,17,141,43*74
###2023-12-09 13:06:55.988481$GLGSV,2,1,06,65,26,326,39,71,37,173,46,72,72,258,45,73,33,043,44*62
###2023-12-09 13:06:55.990232$GLGSV,2,2,06,74,68,345,42,75,34,256,41,,,,,,,,*6B
###2023-12-09 13:06:55.992567$GAGSV,1,1,04,04,31,312,39,19,83,203,40,21,85,092,46,27,31,048,42*6C
###2023-12-09 13:06:55.994909$GBGSV,2,1,06,14,41,192,45,24,72,029,49,25,42,264,43,26,24,064,40*62
###2023-12-09 13:06:55.996654$GBGSV,2,2,06,33,56,229,48,35,15,067,43,,,,,,,,*6F
###2023-12-09 13:06:55.997978$GNVTG,278.15,T,,M,3.32,N,6.16,K,A*29
###2023-12-09 13:06:55.999632$GNGST,180655.10,18.000,,,,0.080,0.067,0.150*5D
###2023-12-09 13:06:56.000922$GNZDA,180655.10,09,12,2023,00,00*7F
###2023-12-09 13:06:56.001560$GNEBP,,,,,,M*13
###2023-12-09 13:06:56.168909$GNGGA,180655.30,4138.0719139,N,07032.3477357,W,1,25,0.6,12.944,M,-29.743,M,0.0,*55
###2023-12-09 13:06:56.372004$GNGGA,180655.50,4138.0719424,N,07032.3479777,W,1,25,0.6,12.945,M,-29.743,M,0.0,*53
###2023-12-09 13:06:56.568913$GNGGA,180655.70,4138.0719664,N,07032.3482225,W,1,25,0.6,12.939,M,-29.743,M,0.0,*5A
###2023-12-09 13:06:56.770035$GNGGA,180655.90,4138.0719867,N,07032.3484674,W,1,25,0.6,12.935,M,-29.743,M,0.0,*53
###2023-12-09 13:06:56.978404$GNRMC,180656.10,A,4138.0720063,N,07032.3487161,W,3.38,273.97,091223,,,A*52
###2023-12-09 13:06:56.981276$GNGGA,180656.10,4138.0720063,N,07032.3487161,W,1,25,0.6,12.933,M,-29.743,M,0.0,*58
###2023-12-09 13:06:56.983142$GPGSA,A,3,03,04,16,26,28,29,31,32,,,,,1.1,0.6,0.9*3B
###2023-12-09 13:06:56.984860$GLGSA,A,3,65,71,72,73,74,75,,,,,,,1.1,0.6,0.9*24
###2023-12-09 13:06:56.986442$GAGSA,A,3,04,19,21,27,,,,,,,,,1.1,0.6,0.9*26
###2023-12-09 13:06:56.988170$GBGSA,A,3,14,24,25,26,33,35,,,,,,,1.1,0.6,0.9*29
###2023-12-09 13:06:56.990507$GPGSV,2,1,08,03,34,259,43,04,34,311,42,16,52,213,46,26,82,210,48*7A
###2023-12-09 13:06:56.992856$GPGSV,2,2,08,28,48,072,45,29,25,059,41,31,68,042,48,32,17,141,44*73
###2023-12-09 13:06:56.995201$GLGSV,2,1,06,65,26,326,41,71,37,173,46,72,72,258,45,73,33,043,44*6D
###2023-12-09 13:06:56.996951$GLGSV,2,2,06,74,68,345,42,75,34,256,42,,,,,,,,*68
###2023-12-09 13:06:56.999279$GAGSV,1,1,04,04,31,312,40,19,83,203,40,21,85,092,46,27,31,048,41*61
###2023-12-09 13:06:57.001614$GBGSV,2,1,06,14,41,192,45,24,72,029,48,25,42,264,44,26,24,064,41*65
###2023-12-09 13:06:57.003374$GBGSV,2,2,06,33,56,229,48,35,15,067,43,,,,,,,,*6F
###2023-12-09 13:06:57.004699$GNVTG,273.97,T,,M,3.38,N,6.26,K,A*21
###2023-12-09 13:06:57.006349$GNGST,180656.10,18.000,,,,0.080,0.067,0.150*5E
###2023-12-09 13:06:57.007910$GNZDA,180656.10,09,12,2023,00,00*7C
###2023-12-09 13:06:57.008560$GNEBP,,,,,,M*13
###2023-12-09 13:06:57.170947$GNGGA,180656.30,4138.0720174,N,07032.3489637,W,1,25,0.6,12.920,M,-29.743,M,0.0,*55
###2023-12-09 13:06:57.368469$GNGGA,180656.50,4138.0720288,N,07032.3492109,W,1,25,0.6,12.923,M,-29.743,M,0.0,*50
###2023-12-09 13:06:57.568925$GNGGA,180656.70,4138.0720314,N,07032.3494605,W,1,25,0.6,12.926,M,-29.743,M,0.0,*5E
###2023-12-09 13:06:57.768951$GNGGA,180656.90,4138.0720344,N,07032.3497120,W,1,25,0.6,12.930,M,-29.743,M,0.0,*51
###2023-12-09 13:06:57.973150$GNRMC,180657.10,A,4138.0720306,N,07032.3499646,W,3.44,267.38,091223,,,A*55
###2023-12-09 13:06:57.976034$GNGGA,180657.10,4138.0720306,N,07032.3499646,W,1,25,0.6,12.924,M,-29.743,M,0.0,*52
###2023-12-09 13:06:57.977901$GPGSA,A,3,03,04,16,26,28,29,31,32,,,,,1.1,0.6,0.9*3B
