###2023-12-09 12:41:09.964091$GBGSV,2,1,05,14,52,196,45,24,79,359,48,25,34,255,42,26,33,058,45*67
###2023-12-09 12:41:09.965568$GBGSV,2,2,05,33,62,248,47,,,,,,,,,,,,*57
###2023-12-09 12:41:09.966877$GNVTG,25.05,T,,M,0.23,N,0.43,K,A*17
###2023-12-09 12:41:09.968522$GNGST,174109.10,19.000,,,,0.080,0.071,0.170*5C
###2023-12-09 12:41:09.969813$GNZDA,174109.10,09,12,2023,00,00*7A
###2023-12-09 12:41:09.970448$GNEBP,,,,,,M*13
###2023-12-09 12:41:10.140561$GNGGA,174109.30,4138.0609700,N,07032.3724948,W,1,23,0.7,13.310,M,-29.744,M,0.0,*57
###2023-12-09 12:41:10.342233$GNGGA,174109.50,4138.0609937,N,07032.3724800,W,1,23,0.7,13.315,M,-29.744,M,0.0,*53
###2023-12-09 12:41:10.543283$GNGGA,174109.70,4138.0610133,N,07032.3724634,W,1,23,0.7,13.321,M,-29.744,M,0.0,*5B
###2023-12-09 12:41:10.739223$GNGGA,174109.90,4138.0610250,N,07032.3724598,W,1,23,0.7,13.324,M,-29.744,M,0.0,*53
###2023-12-09 12:41:10.940841$GNRMC,174110.10,A,4138.0610354,N,07032.3724604,W,0.25,25.05,091223,,,A*62
###2023-12-09 12:41:10.943717$GNGGA,174110.10,4138.0610354,N,07032.3724604,W,1,23,0.7,13.315,M,-29.744,M,0.0,*52
###2023-12-09 12:41:10.945574$GPGSA,A,3,03,04,16,26,28,29,31,32,,,,,1.2,0.7,1.0*31
###2023-12-09 12:41:10.947273$GLGSA,A,3,71,72,73,74,75,,,,,,,,1.2,0.7,1.0*2D
###2023-12-09 12:41:10.948891$GAGSA,A,3,04,19,21,27,,,,,,,,,1.2,0.7,1.0*2C
###2023-12-09 12:41:10.950532$GBGSA,A,3,14,24,25,26,33,,,,,,,,1.2,0.7,1.0*25
###2023-12-09 12:41:10.952877$GPGSV,2,1,08,03,38,274,45,04,24,311,43,16,39,208,46,26,69,207,48*7B
###2023-12-09 12:41:10.955222$GPGSV,2,2,08,28,56,059,45,29,25,071,41,31,73,010,48,32,28,135,41*78
###2023-12-09 12:41:10.957554$GLGSV,2,1,05,71,52,170,47,72,68,302,48,73,44,035,46,74,71,299,43*61
###2023-12-09 12:41:10.959020$GLGSV,2,2,05,75,24,243,43,,,,,,,,,,,,*56
###2023-12-09 12:41:10.961346$GAGSV,1,1,04,04,23,311,41,19,83,292,40,21,80,172,46,27,39,049,44*6E
###2023-12-09 12:41:10.963740$GBGSV,2,1,05,14,52,196,46,24,79,359,48,25,34,255,44,26,33,058,45*62
###2023-12-09 12:41:10.965204$GBGSV,2,2,05,33,62,248,48,,,,,,,,,,,,*58
###2023-12-09 12:41:10.966537$GNVTG,25.05,T,,M,0.25,N,0.47,K,A*15
###2023-12-09 12:41:10.968214$GNGST,174110.10,18.000,,,,0.080,0.071,0.170*55
###2023-12-09 12:41:10.969516$GNZDA,174110.10,09,12,2023,00,00*72
###2023-12-09 12:41:10.970156$GNEBP,,,,,,M*13
###2023-12-09 12:41:11.138769$GNGGA,174110.30,4138.0610521,N,07032.3724547,W,1,23,0.7,13.309,M,-29.744,M,0.0,*5D
###2023-12-09 12:41:11.340369$GNGGA,174110.50,4138.0610755,N,07032.3724439,W,1,23,0.7,13.318,M,-29.744,M,0.0,*52
###2023-12-09 12:41:11.540359$GNGGA,174110.70,4138.0611012,N,07032.3724361,W,1,23,0.7,13.320,M,-29.744,M,0.0,*54
###2023-12-09 12:41:11.739270$GNGGA,174110.90,4138.0611130,N,07032.3724334,W,1,23,0.7,13.323,M,-29.744,M,0.0,*58
###2023-12-09 12:41:11.939706$GNRMC,174111.10,A,4138.0611171,N,07032.3724356,W,0.14,25.05,091223,,,A*67
###2023-12-09 12:41:11.942583$GNGGA,174111.10,4138.0611171,N,07032.3724356,W,1,23,0.7,13.319,M,-29.744,M,0.0,*59
###2023-12-09 12:41:11.944448$GPGSA,A,3,03,04,16,26,28,29,31,32,,,,,1.2,0.7,1.0*31
###2023-12-09 12:41:11.946103$GLGSA,A,3,71,72,73,74,75,,,,,,,,1.2,0.7,1.0*2D
###2023-12-09 12:41:11.947723$GAGSA,A,3,04,19,21,27,,,,,,,,,1.2,0.7,1.0*2C
###2023-12-09 12:41:11.949396$GBGSA,A,3,14,24,25,26,33,,,,,,,,1.2,0.7,1.0*25
###2023-12-09 12:41:11.951741$GPGSV,2,1,08,03,38,274,45,04,24,311,42,16,39,208,47,26,69,207,48*7B
###2023-12-09 12:41:11.954075$GPGSV,2,2,08,28,56,059,45,29,25,071,41,31,73,010,48,32,28,135,40*79
###2023-12-09 12:41:11.956461$GLGSV,2,1,05,71,52,170,47,72,68,302,47,73,44,035,46,74,71,303,43*6C
###2023-12-09 12:41:11.957919$GLGSV,2,2,05,75,24,243,43,,,,,,,,,,,,*56
###2023-12-09 12:41:11.960265$GAGSV,1,1,04,04,23,311,41,19,83,292,40,21,80,172,46,27,39,049,44*6E
###2023-12-09 12:41:11.962601$GBGSV,2,1,05,14,52,196,46,24,79,359,48,25,34,255,44,26,33,058,45*62
###2023-12-09 12:41:11.964060$GBGSV,2,2,05,33,62,248,48,,,,,,,,,,,,*58
###2023-12-09 12:41:11.965355$GNVTG,25.05,T,,M,0.14,N,0.25,K,A*13
###2023-12-09 12:41:11.967010$GNGST,174111.10,18.000,,,,0.079,0.071,0.170*52
###2023-12-09 12:41:11.968309$GNZDA,174111.10,09,12,2023,00,00*73
###2023-12-09 12:41:11.968959$GNEBP,,,,,,M*13
###2023-12-09 12:41:12.141510$GNGGA,174111.30,4138.0611364,N,07032.3724329,W,1,23,0.7,13.317,M,-29.744,M,0.0,*5B
###2023-12-09 12:41:12.340828$GNGGA,174111.50,4138.0611694,N,07032.3724215,W,1,23,0.7,13.319,M,-29.744,M,0.0,*57
###2023-12-09 12:41:12.547128$GNGGA,174111.70,4138.0611916,N,07032.3724172,W,1,23,0.7,13.315,M,-29.744,M,0.0,*5E
###2023-12-09 12:41:12.743954$GNGGA,174111.90,4138.0611956,N,07032.3724190,W,1,23,0.7,13.325,M,-29.744,M,0.0,*5B
###2023-12-09 12:41:12.945694$GNRMC,174112.10,A,4138.0612029,N,07032.3724198,W,0.27,25.05,091223,,,A*6B
###2023-12-09 12:41:12.948580$GNGGA,174112.10,4138.0612029,N,07032.3724198,W,1,23,0.7,13.322,M,-29.744,M,0.0,*5D
###2023-12-09 12:41:12.950464$GPGSA,A,3,03,04,16,26,28,29,31,32,,,,,1.2,0.7,1.0*31
###2023-12-09 12:41:12.952140$GLGSA,A,3,71,72,73,74,75,,,,,,,,1.2,0.7,1.0*2D
###2023-12-09 12:41:12.953724$GAGSA,A,3,04,19,21,27,,,,,,,,,1.2,0.7,1.0*2C
###2023-12-09 12:41:12.955389$GBGSA,A,3,14,24,25,26,33,,,,,,,,1.2,0.7,1.0*25
###2023-12-09 12:41:12.957724$GPGSV,2,1,08,03,38,274,46,04,24,311,42,16,39,208,47,26,69,207,48*78
###2023-12-09 12:41:12.960077$GPGSV,2,2,08,28,56,059,45,29,25,071,41,31,73,010,48,32,28,135,40*79
###2023-12-09 12:41:12.962422$GLGSV,2,1,05,71,52,170,47,72,68,302,47,73,44,035,46,74,71,303,43*6C
###2023-12-09 12:41:12.963887$GLGSV,2,2,05,75,25,244,43,,,,,,,,,,,,*50
###2023-12-09 12:41:12.966223$GAGSV,1,1,04,04,23,311,41,19,83,292,41,21,80,172,46,27,39,049,44*6F
###2023-12-09 12:41:12.968575$GBGSV,2,1,05,14,52,196,47,24,79,359,49,25,34,255,45,26,33,058,46*60
###2023-12-09 12:41:12.970029$GBGSV,2,2,05,33,62,248,49,,,,,,,,,,,,*59
###2023-12-09 12:41:12.971333$GNVTG,25.05,T,,M,0.27,N,0.50,K,A*11
###2023-12-09 12:41:12.972985$GNGST,174112.10,18.000,,,,0.079,0.070,0.170*50
###2023-12-09 12:41:12.974279$GNZDA,174112.10,09,12,2023,00,00*70
###2023-12-09 12:41:12.974933$GNEBP,,,,,,M*13
###2023-12-09 12:41:13.139138$GNGGA,174112.30,4138.0612261,N,07032.3724157,W,1,23,0.7,13.318,M,-29.744,M,0.0,*5B
###2023-12-09 12:41:13.339989$GNGGA,174112.50,4138.0612543,N,07032.3724106,W,1,23,0.7,13.316,M,-29.744,M,0.0,*50
###2023-12-09 12:41:13.540292$GNGGA,174112.70,4138.0612729,N,07032.3724089,W,1,23,0.7,13.324,M,-29.744,M,0.0,*5B
###2023-12-09 12:41:13.739413$GNGGA,174112.90,4138.0612795,N,07032.3724081,W,1,23,0.7,13.330,M,-29.744,M,0.0,*5F
###2023-12-09 12:41:13.940647$GNRMC,174113.10,A,4138.0612837,N,07032.3724078,W,0.17,25.05,091223,,,A*61
###2023-12-09 12:41:13.943505$GNGGA,174113.10,4138.0612837,N,07032.3724078,W,1,23,0.7,13.321,M,-29.744,M,0.0,*57
###2023-12-09 12:41:13.945357$GPGSA,A,3,03,04,16,26,28,29,31,32,,,,,1.2,0.7,1.0*31
###2023-12-09 12:41:13.947031$GLGSA,A,3,71,72,73,74,75,,,,,,,,1.2,0.7,1.0*2D
###2023-12-09 12:41:13.948623$GAGSA,A,3,04,19,21,27,,,,,,,,,1.2,0.7,1.0*2C
###2023-12-09 12:41:13.950262$GBGSA,A,3,14,24,25,26,33,,,,,,,,1.2,0.7,1.0*25
###2023-12-09 12:41:13.952613$GPGSV,2,1,08,03,38,274,45,04,24,311,42,16,39,208,47,26,69,207,48*7B
###2023-12-09 12:41:13.954949$GPGSV,2,2,08,28,56,059,45,29,25,071,40,31,73,010,47,32,28,135,41*76
###2023-12-09 12:41:13.957282$GLGSV,2,1,05,71,52,170,47,72,68,302,48,73,44,035,46,74,71,303,43*63
###2023-12-09 12:41:13.958751$GLGSV,2,2,05,75,25,244,44,,,,,,,,,,,,*57
###2023-12-09 12:41:13.961069$GAGSV,1,1,04,04,23,311,41,19,83,292,41,21,80,172,46,27,39,049,45*6E
###2023-12-09 12:41:13.963397$GBGSV,2,1,05,14,52,196,47,24,79,359,50,25,34,255,46,26,33,058,46*6B
###2023-12-09 12:41:13.964845$GBGSV,2,2,05,33,62,248,49,,,,,,,,,,,,*59
###2023-12-09 12:41:13.966126$GNVTG,25.05,T,,M,0.17,N,0.32,K,A*16
###2023-12-09 12:41:13.967776$GNGST,174113.10,18.000,,,,0.079,0.070,0.170*51
###2023-12-09 12:41:13.969062$GNZDA,174113.10,09,12,2023,00,00*71
###2023-12-09 12:41:13.969702$GNEBP,,,,,,M*13
###2023-12-09 12:41:14.142441$GNGGA,174113.30,4138.0613032,N,07032.3724054,W,1,23,0.7,13.317,M,-29.744,M,0.0,*52
###2023-12-09 12:41:14.341379$GNGGA,174113.50,4138.0613358,N,07032.3724033,W,1,23,0.7,13.321,M,-29.744,M,0.0,*5F
###2023-12-09 12:41:14.541172$GNGGA,174113.70,4138.0613563,N,07032.3724013,W,1,23,0.7,13.331,M,-29.744,M,0.0,*50
###2023-12-09 12:41:14.738420$GNGGA,174113.90,4138.0613526,N,07032.3723992,W,1,23,0.7,13.331,M,-29.744,M,0.0,*58
###2023-12-09 12:41:14.940781$GNRMC,174114.10,A,4138.0613572,N,07032.3724010,W,0.25,25.05,091223,,,A*64
###2023-12-09 12:41:14.943666$GNGGA,174114.10,4138.0613572,N,07032.3724010,W,1,23,0.7,13.324,M,-29.744,M,0.0,*56
###2023-12-09 12:41:14.945526$GPGSA,A,3,03,04,16,26,28,29,31,32,,,,,1.2,0.7,1.0*31
###2023-12-09 12:41:14.947208$GLGSA,A,3,71,72,73,74,75,,,,,,,,1.2,0.7,1.0*2D
###2023-12-09 12:41:14.948814$GAGSA,A,3,04,19,21,27,,,,,,,,,1.2,0.7,1.0*2C
###2023-12-09 12:41:14.950468$GBGSA,A,3,14,24,25,26,33,,,,,,,,1.2,0.7,1.0*25
