###2023-12-09 13:10:12.988204$GLGSV,2,1,06,65,27,326,43,71,36,173,43,72,72,254,45,73,32,044,44*60
###2023-12-09 13:10:12.989987$GLGSV,2,2,06,74,68,348,43,75,35,257,45,,,,,,,,*63
###2023-12-09 13:10:12.992345$GAGSV,1,1,04,04,32,312,44,19,81,196,40,21,85,078,46,27,30,048,41*6E
###2023-12-09 13:10:12.994710$GBGSV,2,1,06,14,40,192,43,24,71,031,49,25,43,265,47,26,24,064,44*6F
###2023-12-09 13:10:12.996474$GBGSV,2,2,06,33,55,228,47,35,15,066,44,,,,,,,,*64
###2023-12-09 13:10:12.997811$GNVTG,182.73,T,,M,3.58,N,6.62,K,A*20
###2023-12-09 13:10:12.999478$GNGST,181012.10,18.000,,,,0.095,0.069,0.160*50
###2023-12-09 13:10:13.000779$GNZDA,181012.10,09,12,2023,00,00*7B
###2023-12-09 13:10:13.001419$GNEBP,,,,,,M*13
###2023-12-09 13:10:13.168573$GNGGA,181012.30,4138.0395797,N,07032.2597666,W,1,24,0.7,13.029,M,-29.743,M,0.0,*59
###2023-12-09 13:10:13.369531$GNGGA,181012.50,4138.0393743,N,07032.2597808,W,1,24,0.7,13.007,M,-29.743,M,0.0,*5A
###2023-12-09 13:10:13.570064$GNGGA,181012.70,4138.0391705,N,07032.2597897,W,1,24,0.7,12.999,M,-29.743,M,0.0,*51
###2023-12-09 13:10:13.769715$GNGGA,181012.90,4138.0389666,N,07032.2598169,W,1,24,0.7,13.004,M,-29.743,M,0.0,*59
###2023-12-09 13:10:13.972548$GNRMC,181013.10,A,4138.0387614,N,07032.2598380,W,3.50,181.59,091223,,,A*5A
###2023-12-09 13:10:13.975436$GNGGA,181013.10,4138.0387614,N,07032.2598380,W,1,24,0.7,12.970,M,-29.743,M,0.0,*55
###2023-12-09 13:10:13.977232$GPGSA,A,3,03,04,16,26,28,29,31,,,,,,1.2,0.7,1.0*30
###2023-12-09 13:10:13.978966$GLGSA,A,3,65,71,72,73,74,75,,,,,,,1.2,0.7,1.0*2E
###2023-12-09 13:10:13.980556$GAGSA,A,3,04,19,21,27,,,,,,,,,1.2,0.7,1.0*2C
###2023-12-09 13:10:13.982277$GBGSA,A,3,14,24,25,26,33,35,,,,,,,1.2,0.7,1.0*23
###2023-12-09 13:10:13.984631$GPGSV,2,1,07,03,33,257,42,04,36,311,45,16,54,214,45,26,84,210,48*7C
###2023-12-09 13:10:13.986692$GPGSV,2,2,07,28,46,074,45,29,24,057,41,31,67,046,47,,,,*4C
###2023-12-09 13:10:13.989035$GLGSV,2,1,06,65,27,326,42,71,36,173,43,72,72,254,45,73,32,044,44*61
###2023-12-09 13:10:13.990800$GLGSV,2,2,06,74,68,348,43,75,35,257,46,,,,,,,,*60
###2023-12-09 13:10:13.993139$GAGSV,1,1,04,04,32,312,42,19,81,196,40,21,85,078,46,27,30,048,41*68
###2023-12-09 13:10:13.995492$GBGSV,2,1,06,14,40,192,43,24,71,031,49,25,43,265,46,26,24,064,44*6E
###2023-12-09 13:10:13.997250$GBGSV,2,2,06,33,55,228,47,35,15,066,44,,,,,,,,*64
###2023-12-09 13:10:13.998598$GNVTG,181.59,T,,M,3.50,N,6.48,K,A*2B
###2023-12-09 13:10:14.000268$GNGST,181013.10,18.000,,,,0.095,0.069,0.160*51
###2023-12-09 13:10:14.001568$GNZDA,181013.10,09,12,2023,00,00*7A
###2023-12-09 13:10:14.002210$GNEBP,,,,,,M*13
###2023-12-09 13:10:14.169952$GNGGA,181013.30,4138.0385688,N,07032.2598504,W,1,24,0.7,12.960,M,-29.743,M,0.0,*5B
###2023-12-09 13:10:14.368758$GNGGA,181013.50,4138.0383675,N,07032.2598904,W,1,24,0.7,12.978,M,-29.743,M,0.0,*5C
###2023-12-09 13:10:14.570759$GNGGA,181013.70,4138.0381726,N,07032.2599193,W,1,24,0.7,12.958,M,-29.743,M,0.0,*5E
###2023-12-09 13:10:14.770849$GNGGA,181013.90,4138.0379774,N,07032.2599132,W,1,24,0.7,12.938,M,-29.743,M,0.0,*5D
###2023-12-09 13:10:14.973122$GNRMC,181014.10,A,4138.0377830,N,07032.2599188,W,3.52,186.01,091223,,,A*59
###2023-12-09 13:10:14.976007$GNGGA,181014.10,4138.0377830,N,07032.2599188,W,1,24,0.7,12.936,M,-29.743,M,0.0,*5C
###2023-12-09 13:10:14.977808$GPGSA,A,3,03,04,16,26,28,29,31,,,,,,1.2,0.7,1.0*30
###2023-12-09 13:10:14.979548$GLGSA,A,3,65,71,72,73,74,75,,,,,,,1.2,0.7,1.0*2E
###2023-12-09 13:10:14.981141$GAGSA,A,3,04,19,21,27,,,,,,,,,1.2,0.7,1.0*2C
###2023-12-09 13:10:14.982874$GBGSA,A,3,14,24,25,26,33,35,,,,,,,1.2,0.7,1.0*23
###2023-12-09 13:10:14.985208$GPGSV,2,1,07,03,33,257,42,04,36,311,44,16,54,214,45,26,84,210,48*7D
###2023-12-09 13:10:14.987274$GPGSV,2,2,07,28,46,074,45,29,24,057,44,31,67,046,47,,,,*49
###2023-12-09 13:10:14.989612$GLGSV,2,1,06,65,27,326,42,71,36,173,42,72,72,254,45,73,32,044,45*61
###2023-12-09 13:10:14.991376$GLGSV,2,2,06,74,68,348,43,75,35,257,45,,,,,,,,*63
###2023-12-09 13:10:14.993710$GAGSV,1,1,04,04,32,312,42,19,81,196,40,21,85,078,46,27,30,048,41*68
###2023-12-09 13:10:14.996060$GBGSV,2,1,06,14,40,192,41,24,71,031,48,25,43,265,45,26,24,064,43*69
###2023-12-09 13:10:14.997821$GBGSV,2,2,06,33,55,228,46,35,15,066,43,,,,,,,,*62
###2023-12-09 13:10:14.999161$GNVTG,186.01,T,,M,3.52,N,6.52,K,A*28
###2023-12-09 13:10:15.000820$GNGST,181014.10,18.000,,,,0.096,0.069,0.160*55
###2023-12-09 13:10:15.002118$GNZDA,181014.10,09,12,2023,00,00*7D
###2023-12-09 13:10:15.002780$GNEBP,,,,,,M*13
###2023-12-09 13:10:15.172035$GNGGA,181014.30,4138.0375855,N,07032.2599534,W,1,24,0.7,12.950,M,-29.743,M,0.0,*5C
###2023-12-09 13:10:15.369182$GNGGA,181014.50,4138.0373885,N,07032.2599649,W,1,24,0.7,12.931,M,-29.743,M,0.0,*5F
###2023-12-09 13:10:15.569090$GNGGA,181014.70,4138.0371974,N,07032.2599499,W,1,24,0.7,12.922,M,-29.743,M,0.0,*5D
###2023-12-09 13:10:15.770159$GNGGA,181014.90,4138.0369977,N,07032.2599502,W,1,24,0.7,12.930,M,-29.743,M,0.0,*59
###2023-12-09 13:10:15.971230$GNRMC,181015.10,A,4138.0367999,N,07032.2599584,W,3.50,181.64,091223,,,A*55
###2023-12-09 13:10:15.974111$GNGGA,181015.10,4138.0367999,N,07032.2599584,W,1,24,0.7,12.916,M,-29.743,M,0.0,*54
###2023-12-09 13:10:15.975919$GPGSA,A,3,03,04,16,26,28,29,31,,,,,,1.2,0.7,1.0*30
###2023-12-09 13:10:15.977639$GLGSA,A,3,65,71,72,73,74,75,,,,,,,1.2,0.7,1.0*2E
###2023-12-09 13:10:15.979239$GAGSA,A,3,04,19,21,27,,,,,,,,,1.2,0.7,1.0*2C
###2023-12-09 13:10:15.980965$GBGSA,A,3,14,24,25,26,33,35,,,,,,,1.2,0.7,1.0*23
###2023-12-09 13:10:15.983328$GPGSV,2,1,07,03,33,257,42,04,36,311,44,16,54,214,45,26,84,210,48*7D
###2023-12-09 13:10:15.985386$GPGSV,2,2,07,28,46,074,46,29,24,057,42,31,67,046,47,,,,*4C
###2023-12-09 13:10:15.987743$GLGSV,2,1,06,65,27,326,42,71,36,173,43,72,72,254,46,73,32,044,44*62
###2023-12-09 13:10:15.989498$GLGSV,2,2,06,74,68,348,43,75,35,257,46,,,,,,,,*60
###2023-12-09 13:10:15.991850$GAGSV,1,1,04,04,32,312,42,19,81,196,40,21,85,078,46,27,30,048,41*68
###2023-12-09 13:10:15.994185$GBGSV,2,1,06,14,40,192,41,24,71,031,48,25,43,265,47,26,24,064,43*6B
###2023-12-09 13:10:15.995955$GBGSV,2,2,06,33,55,228,48,35,15,066,43,,,,,,,,*6C
###2023-12-09 13:10:15.997288$GNVTG,181.64,T,,M,3.50,N,6.48,K,A*25
###2023-12-09 13:10:15.998959$GNGST,181015.10,18.000,,,,0.097,0.070,0.160*5D
###2023-12-09 13:10:16.000257$GNZDA,181015.10,09,12,2023,00,00*7C
###2023-12-09 13:10:16.000899$GNEBP,,,,,,M*13
###2023-12-09 13:10:16.169391$GNGGA,181015.30,4138.0366039,N,07032.2599556,W,1,24,0.7,12.914,M,-29.743,M,0.0,*59
###2023-12-09 13:10:16.370392$GNGGA,181015.50,4138.0364055,N,07032.2599440,W,1,24,0.7,12.920,M,-29.743,M,0.0,*56
###2023-12-09 13:10:16.571356$GNGGA,181015.70,4138.0362066,N,07032.2599377,W,1,24,0.7,12.916,M,-29.743,M,0.0,*54
###2023-12-09 13:10:16.770289$GNGGA,181015.90,4138.0360056,N,07032.2599486,W,1,24,0.7,12.922,M,-29.743,M,0.0,*55
###2023-12-09 13:10:16.974360$GNRMC,181016.10,A,4138.0358057,N,07032.2599550,W,3.50,180.77,091223,,,A*5B
###2023-12-09 13:10:16.977877$GNGGA,181016.10,4138.0358057,N,07032.2599550,W,1,24,0.7,12.917,M,-29.743,M,0.0,*58
###2023-12-09 13:10:16.980172$GPGSA,A,3,03,04,16,26,28,29,31,,,,,,1.2,0.7,1.0*30
###2023-12-09 13:10:16.982254$GLGSA,A,3,65,71,72,73,74,75,,,,,,,1.2,0.7,1.0*2E
###2023-12-09 13:10:16.984187$GAGSA,A,3,04,19,21,27,,,,,,,,,1.2,0.7,1.0*2C
###2023-12-09 13:10:16.986265$GBGSA,A,3,14,24,25,26,33,35,,,,,,,1.2,0.7,1.0*23
###2023-12-09 13:10:16.989099$GPGSV,2,1,07,03,33,257,43,04,36,311,45,16,54,214,46,26,84,210,48*7E
###2023-12-09 13:10:16.991592$GPGSV,2,2,07,28,46,074,45,29,24,057,42,31,67,046,48,,,,*40
###2023-12-09 13:10:16.994422$GLGSV,2,1,06,65,27,326,43,71,36,173,42,72,72,254,46,73,32,044,44*62
###2023-12-09 13:10:16.996560$GLGSV,2,2,06,74,68,348,43,75,35,257,46,,,,,,,,*60
###2023-12-09 13:10:16.999389$GAGSV,1,1,04,04,32,312,43,19,81,196,40,21,85,078,46,27,30,048,41*69
###2023-12-09 13:10:17.002218$GBGSV,2,1,06,14,40,192,41,24,71,031,50,25,43,265,47,26,24,064,44*65
###2023-12-09 13:10:17.004342$GBGSV,2,2,06,33,55,228,48,35,15,066,43,,,,,,,,*6C
###2023-12-09 13:10:17.005945$GNVTG,180.77,T,,M,3.50,N,6.48,K,A*26
###2023-12-09 13:10:17.007953$GNGST,181016.10,18.000,,,,0.097,0.070,0.160*5E
###2023-12-09 13:10:17.009818$GNZDA,181016.10,09,12,2023,00,00*7F
###2023-12-09 13:10:17.010672$GNEBP,,,,,,M*13
###2023-12-09 13:10:17.170329$GNGGA,181016.30,4138.0356022,N,07032.2599578,W,1,24,0.7,12.908,M,-29.743,M,0.0,*52
###2023-12-09 13:10:17.370801$GNGGA,181016.50,4138.0353997,N,07032.2599660,W,1,24,0.7,12.905,M,-29.743,M,0.0,*51
###2023-12-09 13:10:17.574116$GNGGA,181016.70,4138.0351960,N,07032.2599901,W,1,24,0.7,12.913,M,-29.743,M,0.0,*56
###2023-12-09 13:10:17.771641$GNGGA,181016.90,4138.0349923,N,07032.2600066,W,1,24,0.7,12.911,M,-29.743,M,0.0,*5F
###2023-12-09 13:10:17.972179$GNRMC,181017.10,A,4138.0347898,N,07032.2600173,W,3.71,183.78,091223,,,A*56
###2023-12-09 13:10:17.975064$GNGGA,181017.10,4138.0347898,N,07032.2600173,W,1,24,0.7,12.900,M,-29.743,M,0.0,*5C
###2023-12-09 13:10:17.976864$GPGSA,A,3,03,04,16,26,28,29,31,,,,,,1.2,0.7,1.0*30
