###2023-12-09 13:12:45.013308$GNEBP,,,,,,M*13
###2023-12-09 13:12:45.175910$GNGGA,181244.30,4138.0444103,N,07032.2898353,W,1,24,0.7,12.796,M,-29.743,M,0.0,*5B
###2023-12-09 13:12:45.374223$GNGGA,181244.50,4138.0444369,N,07032.2895653,W,1,24,0.7,12.814,M,-29.743,M,0.0,*5E
###2023-12-09 13:12:45.575199$GNGGA,181244.70,4138.0444303,N,07032.2892911,W,1,24,0.7,12.804,M,-29.743,M,0.0,*5F
###2023-12-09 13:12:45.776644$GNGGA,181244.90,4138.0444455,N,07032.2890185,W,1,24,0.7,12.790,M,-29.743,M,0.0,*50
###2023-12-09 13:12:45.979688$GNRMC,181245.10,A,4138.0444909,N,07032.2887586,W,3.65,75.06,091223,,,A*65
###2023-12-09 13:12:45.983200$GNGGA,181245.10,4138.0444909,N,07032.2887586,W,1,24,0.7,12.801,M,-29.743,M,0.0,*5B
###2023-12-09 13:12:45.985372$GPGSA,A,3,03,04,16,26,28,29,31,,,,,,1.2,0.7,1.0*30
###2023-12-09 13:12:45.987468$GLGSA,A,3,65,71,72,73,74,75,,,,,,,1.2,0.7,1.0*2E
###2023-12-09 13:12:45.989383$GAGSA,A,3,04,19,21,27,,,,,,,,,1.2,0.7,1.0*2C
###2023-12-09 13:12:45.991467$GBGSA,A,3,14,24,25,26,33,35,,,,,,,1.2,0.7,1.0*23
###2023-12-09 13:12:45.994271$GPGSV,2,1,07,03,33,256,44,04,37,311,45,16,55,215,48,26,85,210,49*77
###2023-12-09 13:12:45.996748$GPGSV,2,2,07,28,46,075,43,29,24,056,41,31,66,048,46,,,,*44
###2023-12-09 13:12:45.999607$GLGSV,2,1,06,65,29,325,41,71,34,174,45,72,71,246,46,73,31,045,43*6A
###2023-12-09 13:12:46.001718$GLGSV,2,2,06,74,67,351,42,75,36,258,47,,,,,,,,*6B
###2023-12-09 13:12:46.004543$GAGSV,1,1,04,04,33,312,42,19,81,194,41,21,84,070,45,27,29,048,41*68
###2023-12-09 13:12:46.007388$GBGSV,2,1,06,14,38,192,43,24,70,034,46,25,44,267,45,26,22,065,42*6D
###2023-12-09 13:12:46.009490$GBGSV,2,2,06,33,53,226,47,35,15,065,41,,,,,,,,*6A
###2023-12-09 13:12:46.011064$GNVTG,75.06,T,,M,3.65,N,6.77,K,A*11
###2023-12-09 13:12:46.013079$GNGST,181245.10,18.000,,,,0.097,0.071,0.170*5A
###2023-12-09 13:12:46.014659$GNZDA,181245.10,09,12,2023,00,00*7B
###2023-12-09 13:12:46.015427$GNEBP,,,,,,M*13
###2023-12-09 13:12:46.174040$GNGGA,181245.30,4138.0445217,N,07032.2884877,W,1,24,0.7,12.813,M,-29.743,M,0.0,*5F
###2023-12-09 13:12:46.375252$GNGGA,181245.50,4138.0445024,N,07032.2882143,W,1,24,0.7,12.808,M,-29.743,M,0.0,*59
###2023-12-09 13:12:46.575389$GNGGA,181245.70,4138.0444852,N,07032.2879513,W,1,24,0.7,12.803,M,-29.743,M,0.0,*5D
###2023-12-09 13:12:46.775176$GNGGA,181245.90,4138.0445020,N,07032.2876829,W,1,24,0.7,12.814,M,-29.743,M,0.0,*52
###2023-12-09 13:12:46.976890$GNRMC,181246.10,A,4138.0445174,N,07032.2874127,W,3.62,90.74,091223,,,A*6F
###2023-12-09 13:12:46.979774$GNGGA,181246.10,4138.0445174,N,07032.2874127,W,1,24,0.7,12.790,M,-29.743,M,0.0,*5F
###2023-12-09 13:12:46.981577$GPGSA,A,3,03,04,16,26,28,29,31,,,,,,1.2,0.7,1.0*30
###2023-12-09 13:12:46.983311$GLGSA,A,3,65,71,72,73,74,75,,,,,,,1.2,0.7,1.0*2E
###2023-12-09 13:12:46.984902$GAGSA,A,3,04,19,21,27,,,,,,,,,1.2,0.7,1.0*2C
###2023-12-09 13:12:46.986628$GBGSA,A,3,14,24,25,26,33,35,,,,,,,1.2,0.7,1.0*23
###2023-12-09 13:12:46.988965$GPGSV,2,1,07,03,33,256,42,04,37,311,43,16,55,215,45,26,85,210,47*74
###2023-12-09 13:12:46.991023$GPGSV,2,2,07,28,46,075,42,29,24,056,40,31,66,048,45,,,,*47
###2023-12-09 13:12:46.993360$GLGSV,2,1,06,65,29,325,41,71,34,174,43,72,71,246,46,73,31,045,44*6B
###2023-12-09 13:12:46.995117$GLGSV,2,2,06,74,66,353,42,75,36,258,47,,,,,,,,*68
###2023-12-09 13:12:46.997451$GAGSV,1,1,04,04,33,312,41,19,81,194,39,21,84,070,44,27,29,048,41*65
###2023-12-09 13:12:46.999801$GBGSV,2,1,06,14,38,192,44,24,70,034,49,25,44,267,46,26,22,065,42*66
###2023-12-09 13:12:47.001553$GBGSV,2,2,06,33,53,226,47,35,15,065,43,,,,,,,,*68
###2023-12-09 13:12:47.002862$GNVTG,90.74,T,,M,3.62,N,6.70,K,A*1F
###2023-12-09 13:12:47.004517$GNGST,181246.10,18.000,,,,0.097,0.071,0.170*59
###2023-12-09 13:12:47.005817$GNZDA,181246.10,09,12,2023,00,00*78
###2023-12-09 13:12:47.006459$GNEBP,,,,,,M*13
###2023-12-09 13:12:47.173140$GNGGA,181246.30,4138.0445025,N,07032.2871448,W,1,24,0.7,12.799,M,-29.743,M,0.0,*58
###2023-12-09 13:12:47.372887$GNGGA,181246.50,4138.0444901,N,07032.2868706,W,1,24,0.7,12.828,M,-29.743,M,0.0,*54
###2023-12-09 13:12:47.573795$GNGGA,181246.70,4138.0444912,N,07032.2865872,W,1,24,0.7,12.817,M,-29.743,M,0.0,*59
###2023-12-09 13:12:47.773752$GNGGA,181246.90,4138.0445139,N,07032.2863187,W,1,24,0.7,12.794,M,-29.743,M,0.0,*56
###2023-12-09 13:12:47.976198$GNRMC,181247.10,A,4138.0445407,N,07032.2860481,W,3.81,83.78,091223,,,A*60
###2023-12-09 13:12:47.979077$GNGGA,181247.10,4138.0445407,N,07032.2860481,W,1,24,0.7,12.815,M,-29.743,M,0.0,*51
###2023-12-09 13:12:47.980869$GPGSA,A,3,03,04,16,26,28,29,31,,,,,,1.2,0.7,1.0*30
###2023-12-09 13:12:47.982593$GLGSA,A,3,65,71,72,73,74,75,,,,,,,1.2,0.7,1.0*2E
###2023-12-09 13:12:47.984178$GAGSA,A,3,04,19,21,27,,,,,,,,,1.2,0.7,1.0*2C
###2023-12-09 13:12:47.985884$GBGSA,A,3,14,24,25,26,33,35,,,,,,,1.2,0.7,1.0*23
###2023-12-09 13:12:47.988212$GPGSV,2,1,07,03,33,256,43,04,37,311,43,16,55,215,46,26,85,210,47*76
###2023-12-09 13:12:47.990247$GPGSV,2,2,07,28,46,075,41,29,24,056,39,31,66,048,45,,,,*4A
###2023-12-09 13:12:47.992593$GLGSV,2,1,06,65,29,325,42,71,34,174,44,72,71,246,47,73,31,045,44*6E
###2023-12-09 13:12:47.994333$GLGSV,2,2,06,74,66,353,42,75,36,259,48,,,,,,,,*66
###2023-12-09 13:12:47.996674$GAGSV,1,1,04,04,33,312,42,19,81,194,40,21,84,070,45,27,29,048,40*68
###2023-12-09 13:12:47.999008$GBGSV,2,1,06,14,38,192,43,24,70,034,48,25,44,267,46,26,22,065,43*61
###2023-12-09 13:12:48.000757$GBGSV,2,2,06,33,53,226,47,35,15,065,42,,,,,,,,*69
###2023-12-09 13:12:48.002050$GNVTG,83.78,T,,M,3.81,N,7.06,K,A*1C
###2023-12-09 13:12:48.003716$GNGST,181247.10,18.000,,,,0.097,0.071,0.170*58
###2023-12-09 13:12:48.005006$GNZDA,181247.10,09,12,2023,00,00*79
###2023-12-09 13:12:48.005645$GNEBP,,,,,,M*13
###2023-12-09 13:12:48.174131$GNGGA,181247.30,4138.0445508,N,07032.2857626,W,1,24,0.7,12.825,M,-29.743,M,0.0,*55
###2023-12-09 13:12:48.373193$GNGGA,181247.50,4138.0445618,N,07032.2854928,W,1,24,0.7,12.821,M,-29.743,M,0.0,*57
###2023-12-09 13:12:48.574001$GNGGA,181247.70,4138.0445999,N,07032.2852234,W,1,24,0.7,12.835,M,-29.743,M,0.0,*56
###2023-12-09 13:12:48.773983$GNGGA,181247.90,4138.0446427,N,07032.2849536,W,1,24,0.7,12.810,M,-29.743,M,0.0,*5B
###2023-12-09 13:12:48.977476$GNRMC,181248.10,A,4138.0446810,N,07032.2846954,W,3.60,78.94,091223,,,A*6E
###2023-12-09 13:12:48.980373$GNGGA,181248.10,4138.0446810,N,07032.2846954,W,1,24,0.7,12.826,M,-29.743,M,0.0,*56
###2023-12-09 13:12:48.982171$GPGSA,A,3,03,04,16,26,28,29,31,,,,,,1.2,0.7,1.0*30
###2023-12-09 13:12:48.983897$GLGSA,A,3,65,71,72,73,74,75,,,,,,,1.2,0.7,1.0*2E
###2023-12-09 13:12:48.985485$GAGSA,A,3,04,19,21,27,,,,,,,,,1.2,0.7,1.0*2C
###2023-12-09 13:12:48.987201$GBGSA,A,3,14,24,25,26,33,35,,,,,,,1.2,0.7,1.0*23
###2023-12-09 13:12:48.989523$GPGSV,2,1,07,03,33,256,43,04,37,311,45,16,55,215,46,26,85,210,48*7F
###2023-12-09 13:12:48.991572$GPGSV,2,2,07,28,46,075,42,29,24,056,40,31,66,048,46,,,,*44
###2023-12-09 13:12:48.993898$GLGSV,2,1,06,65,29,325,41,71,34,174,45,72,71,246,47,73,31,045,43*6B
###2023-12-09 13:12:48.995654$GLGSV,2,2,06,74,66,353,42,75,36,259,48,,,,,,,,*66
###2023-12-09 13:12:48.997974$GAGSV,1,1,04,04,33,312,42,19,81,194,41,21,84,070,46,27,29,048,40*6A
###2023-12-09 13:12:49.000308$GBGSV,2,1,06,14,38,192,44,24,70,034,47,25,44,267,46,26,22,065,42*68
###2023-12-09 13:12:49.002050$GBGSV,2,2,06,33,53,226,47,35,15,065,42,,,,,,,,*69
###2023-12-09 13:12:49.003347$GNVTG,78.94,T,,M,3.60,N,6.66,K,A*12
###2023-12-09 13:12:49.004992$GNGST,181248.10,18.000,,,,0.097,0.072,0.170*54
###2023-12-09 13:12:49.006282$GNZDA,181248.10,09,12,2023,00,00*76
###2023-12-09 13:12:49.006930$GNEBP,,,,,,M*13
###2023-12-09 13:12:49.172784$GNGGA,181248.30,4138.0447062,N,07032.2844253,W,1,24,0.7,12.859,M,-29.743,M,0.0,*5E
###2023-12-09 13:12:49.373922$GNGGA,181248.50,4138.0447088,N,07032.2841521,W,1,24,0.7,12.825,M,-29.743,M,0.0,*50
###2023-12-09 13:12:49.574725$GNGGA,181248.70,4138.0447354,N,07032.2838966,W,1,24,0.7,12.830,M,-29.743,M,0.0,*55
###2023-12-09 13:12:49.773668$GNGGA,181248.90,4138.0447822,N,07032.2836410,W,1,24,0.7,12.867,M,-29.743,M,0.0,*51
###2023-12-09 13:12:49.977956$GNRMC,181249.10,A,4138.0447789,N,07032.2833668,W,3.54,97.09,091223,,,A*61
###2023-12-09 13:12:49.981085$GNGGA,181249.10,4138.0447789,N,07032.2833668,W,1,24,0.7,12.838,M,-29.743,M,0.0,*54
###2023-12-09 13:12:49.982904$GPGSA,A,3,03,04,16,26,28,29,31,,,,,,1.2,0.7,1.0*30
###2023-12-09 13:12:49.984630$GLGSA,A,3,65,71,72,73,74,75,,,,,,,1.2,0.7,1.0*2E
###2023-12-09 13:12:49.986213$GAGSA,A,3,04,19,21,27,,,,,,,,,1.2,0.7,1.0*2C
###2023-12-09 13:12:49.987943$GBGSA,A,3,14,24,25,26,33,35,,,,,,,1.2,0.7,1.0*23
###2023-12-09 13:12:49.990270$GPGSV,2,1,07,03,33,256,43,04,37,311,43,16,55,215,46,26,85,210,48*79
###2023-12-09 13:12:49.992320$GPGSV,2,2,07,28,46,075,43,29,24,056,41,31,66,048,47,,,,*45
###2023-12-09 13:12:49.994662$GLGSV,2,1,06,65,29,325,41,71,34,174,44,72,71,246,46,73,31,045,43*6B
###2023-12-09 13:12:49.996408$GLGSV,2,2,06,74,66,353,41,75,36,259,47,,,,,,,,*6A
###2023-12-09 13:12:49.998737$GAGSV,1,1,04,04,33,312,42,19,81,194,41,21,84,070,46,27,29,048,43*69
