###2023-12-09 13:39:30.033950$GBGSV,2,1,06,12,17,125,43,14,27,189,41,24,61,048,49,25,52,278,49*6F
###2023-12-09 13:39:30.036133$GBGSV,2,2,06,33,44,215,46,35,16,055,44,,,,,,,,*68
###2023-12-09 13:39:30.037744$GNVTG,182.08,T,,M,3.07,N,5.69,K,A*2E
###2023-12-09 13:39:30.039708$GNGST,183929.10,5.300,,,,0.091,0.068,0.150*6A
###2023-12-09 13:39:30.041263$GNZDA,183929.10,09,12,2023,00,00*78
###2023-12-09 13:39:30.042039$GNEBP,,,,,,M*13
###2023-12-09 13:39:30.203948$GNGGA,183929.30,4138.0592089,N,07032.3862257,W,1,25,0.6,13.352,M,-29.744,M,0.0,*5B
###2023-12-09 13:39:30.400982$GNGGA,183929.50,4138.0590477,N,07032.3862213,W,1,25,0.6,13.342,M,-29.744,M,0.0,*5B
###2023-12-09 13:39:30.600991$GNGGA,183929.70,4138.0588710,N,07032.3862371,W,1,25,0.6,13.357,M,-29.744,M,0.0,*53
###2023-12-09 13:39:30.802365$GNGGA,183929.90,4138.0586977,N,07032.3862352,W,1,25,0.6,13.340,M,-29.744,M,0.0,*5B
###2023-12-09 13:39:31.007171$GNRMC,183930.10,A,4138.0585320,N,07032.3862011,W,2.94,171.50,091223,,,A*5B
###2023-12-09 13:39:31.010031$GNGGA,183930.10,4138.0585320,N,07032.3862011,W,1,25,0.6,13.332,M,-29.744,M,0.0,*51
###2023-12-09 13:39:31.011899$GPGSA,A,3,03,04,16,26,27,28,29,31,,,,,1.0,0.6,0.8*3F
###2023-12-09 13:39:31.013619$GLGSA,A,3,65,71,72,73,74,75,,,,,,,1.0,0.6,0.8*24
###2023-12-09 13:39:31.015216$GAGSA,A,3,04,19,21,27,,,,,,,,,1.0,0.6,0.8*26
###2023-12-09 13:39:31.016926$GBGSA,A,3,12,14,24,25,33,35,,,,,,,1.0,0.6,0.8*2E
###2023-12-09 13:39:31.019258$GPGSV,2,1,08,03,25,244,41,04,48,306,45,16,69,225,46,26,81,040,48*77
###2023-12-09 13:39:31.021589$GPGSV,2,2,08,27,19,172,40,28,36,087,45,29,19,045,43,31,58,068,46*7B
###2023-12-09 13:39:31.023932$GLGSV,2,1,06,65,40,316,44,71,20,176,41,72,60,217,44,73,20,054,44*62
###2023-12-09 13:39:31.025684$GLGSV,2,2,06,74,58,018,42,75,45,275,49,,,,,,,,*6C
###2023-12-09 13:39:31.028026$GAGSV,1,1,04,04,41,309,44,19,70,181,40,21,75,045,46,27,21,050,42*63
###2023-12-09 13:39:31.030352$GBGSV,2,1,06,12,17,125,41,14,27,189,42,24,61,048,48,25,52,278,49*6F
###2023-12-09 13:39:31.032108$GBGSV,2,2,06,33,44,215,45,35,16,055,44,,,,,,,,*6B
###2023-12-09 13:39:31.033430$GNVTG,171.50,T,,M,2.94,N,5.44,K,A*2B
###2023-12-09 13:39:31.035052$GNGST,183930.10,5.200,,,,0.090,0.067,0.150*6D
###2023-12-09 13:39:31.036342$GNZDA,183930.10,09,12,2023,00,00*70
###2023-12-09 13:39:31.036980$GNEBP,,,,,,M*13
###2023-12-09 13:39:31.201943$GNGGA,183930.30,4138.0583590,N,07032.3861849,W,1,25,0.6,13.348,M,-29.744,M,0.0,*53
###2023-12-09 13:39:31.402208$GNGGA,183930.50,4138.0581809,N,07032.3861736,W,1,25,0.6,13.340,M,-29.744,M,0.0,*55
###2023-12-09 13:39:31.600897$GNGGA,183930.70,4138.0580086,N,07032.3861463,W,1,25,0.6,13.324,M,-29.744,M,0.0,*58
###2023-12-09 13:39:31.802034$GNGGA,183930.90,4138.0578313,N,07032.3861148,W,1,25,0.6,13.327,M,-29.744,M,0.0,*51
###2023-12-09 13:39:32.005465$GNRMC,183931.10,A,4138.0576587,N,07032.3860921,W,3.13,175.63,091223,,,A*5F
###2023-12-09 13:39:32.008350$GNGGA,183931.10,4138.0576587,N,07032.3860921,W,1,25,0.6,13.317,M,-29.744,M,0.0,*58
###2023-12-09 13:39:32.010210$GPGSA,A,3,03,04,16,26,27,28,29,31,,,,,1.0,0.6,0.8*3F
###2023-12-09 13:39:32.011924$GLGSA,A,3,65,71,72,73,74,75,,,,,,,1.0,0.6,0.8*24
###2023-12-09 13:39:32.013493$GAGSA,A,3,04,19,21,27,,,,,,,,,1.0,0.6,0.8*26
###2023-12-09 13:39:32.015201$GBGSA,A,3,12,14,24,25,33,35,,,,,,,1.0,0.6,0.8*2E
###2023-12-09 13:39:32.017510$GPGSV,2,1,08,03,25,244,41,04,48,306,44,16,69,225,46,26,81,040,48*76
###2023-12-09 13:39:32.019844$GPGSV,2,2,08,27,19,172,39,28,36,087,45,29,19,045,41,31,58,070,46*7E
###2023-12-09 13:39:32.022160$GLGSV,2,1,06,65,40,316,43,71,20,176,41,72,60,217,44,73,20,054,44*65
###2023-12-09 13:39:32.023908$GLGSV,2,2,06,74,58,018,43,75,45,275,48,,,,,,,,*6C
###2023-12-09 13:39:32.026221$GAGSV,1,1,04,04,41,309,45,19,70,181,40,21,75,045,46,27,21,050,41*61
###2023-12-09 13:39:32.028548$GBGSV,2,1,06,12,17,125,41,14,27,189,41,24,61,048,48,25,52,278,48*6D
###2023-12-09 13:39:32.030283$GBGSV,2,2,06,33,44,215,45,35,16,055,44,,,,,,,,*6B
###2023-12-09 13:39:32.031608$GNVTG,175.63,T,,M,3.13,N,5.80,K,A*29
###2023-12-09 13:39:32.033205$GNGST,183931.10,5.100,,,,0.090,0.067,0.150*6F
###2023-12-09 13:39:32.034483$GNZDA,183931.10,09,12,2023,00,00*71
###2023-12-09 13:39:32.035129$GNEBP,,,,,,M*13
###2023-12-09 13:39:32.203739$GNGGA,183931.30,4138.0574773,N,07032.3860810,W,1,25,0.6,13.338,M,-29.744,M,0.0,*5F
###2023-12-09 13:39:32.402106$GNGGA,183931.50,4138.0572972,N,07032.3860696,W,1,25,0.6,13.333,M,-29.744,M,0.0,*5B
###2023-12-09 13:39:32.602936$GNGGA,183931.70,4138.0571210,N,07032.3860499,W,1,25,0.6,13.323,M,-29.744,M,0.0,*59
###2023-12-09 13:39:32.802411$GNGGA,183931.90,4138.0569366,N,07032.3860369,W,1,25,0.6,13.324,M,-29.744,M,0.0,*51
###2023-12-09 13:39:33.015379$GNRMC,183932.10,A,4138.0567578,N,07032.3860405,W,3.19,179.98,091223,,,A*55
###2023-12-09 13:39:33.018214$GNGGA,183932.10,4138.0567578,N,07032.3860405,W,1,25,0.6,13.325,M,-29.744,M,0.0,*51
###2023-12-09 13:39:33.020073$GPGSA,A,3,03,04,16,26,27,28,29,31,,,,,1.0,0.6,0.8*3F
###2023-12-09 13:39:33.021784$GLGSA,A,3,65,71,72,73,74,75,,,,,,,1.0,0.6,0.8*24
###2023-12-09 13:39:33.023377$GAGSA,A,3,04,19,21,27,,,,,,,,,1.0,0.6,0.8*26
###2023-12-09 13:39:33.025082$GBGSA,A,3,12,14,24,25,33,35,,,,,,,1.0,0.6,0.8*2E
###2023-12-09 13:39:33.027415$GPGSV,2,1,08,03,25,244,41,04,48,306,45,16,69,225,46,26,81,040,49*76
###2023-12-09 13:39:33.029739$GPGSV,2,2,08,27,19,172,39,28,36,087,46,29,19,045,42,31,58,070,46*7E
###2023-12-09 13:39:33.032077$GLGSV,2,1,06,65,40,316,44,71,20,176,41,72,60,217,45,73,20,054,43*64
###2023-12-09 13:39:33.033817$GLGSV,2,2,06,74,58,018,43,75,45,275,47,,,,,,,,*63
###2023-12-09 13:39:33.036148$GAGSV,1,1,04,04,41,309,45,19,70,181,40,21,75,045,46,27,21,050,41*61
###2023-12-09 13:39:33.038475$GBGSV,2,1,06,12,17,125,42,14,27,189,40,24,61,048,48,25,52,278,48*6F
###2023-12-09 13:39:33.040225$GBGSV,2,2,06,33,44,215,45,35,16,055,43,,,,,,,,*6C
###2023-12-09 13:39:33.041543$GNVTG,179.98,T,,M,3.19,N,5.90,K,A*2A
###2023-12-09 13:39:33.043166$GNGST,183932.10,5.100,,,,0.090,0.067,0.150*6C
###2023-12-09 13:39:33.044454$GNZDA,183932.10,09,12,2023,00,00*72
###2023-12-09 13:39:33.045090$GNEBP,,,,,,M*13
###2023-12-09 13:39:33.212952$GNGGA,183932.30,4138.0565784,N,07032.3860354,W,1,25,0.6,13.324,M,-29.744,M,0.0,*52
###2023-12-09 13:39:33.402174$GNGGA,183932.50,4138.0563978,N,07032.3860294,W,1,25,0.6,13.335,M,-29.744,M,0.0,*52
###2023-12-09 13:39:33.602431$GNGGA,183932.70,4138.0562232,N,07032.3860259,W,1,25,0.6,13.332,M,-29.744,M,0.0,*52
###2023-12-09 13:39:33.804182$GNGGA,183932.90,4138.0560491,N,07032.3860181,W,1,25,0.6,13.330,M,-29.744,M,0.0,*55
###2023-12-09 13:39:34.007891$GNRMC,183933.10,A,4138.0558695,N,07032.3860138,W,3.27,179.80,091223,,,A*57
###2023-12-09 13:39:34.011369$GNGGA,183933.10,4138.0558695,N,07032.3860138,W,1,25,0.6,13.334,M,-29.744,M,0.0,*57
###2023-12-09 13:39:34.013603$GPGSA,A,3,03,04,16,26,27,28,29,31,,,,,1.0,0.6,0.8*3F
###2023-12-09 13:39:34.015682$GLGSA,A,3,65,71,72,73,74,75,,,,,,,1.0,0.6,0.8*24
###2023-12-09 13:39:34.017576$GAGSA,A,3,04,19,21,27,,,,,,,,,1.0,0.6,0.8*26
###2023-12-09 13:39:34.019645$GBGSA,A,3,12,14,24,25,33,35,,,,,,,1.0,0.6,0.8*2E
###2023-12-09 13:39:34.022440$GPGSV,2,1,08,03,25,244,42,04,48,306,45,16,69,225,46,26,81,040,48*74
###2023-12-09 13:39:34.025257$GPGSV,2,2,08,27,19,172,39,28,36,087,45,29,19,045,43,31,58,070,46*7C
###2023-12-09 13:39:34.028093$GLGSV,2,1,06,65,40,316,44,71,20,176,40,72,60,217,45,73,20,054,44*62
###2023-12-09 13:39:34.030191$GLGSV,2,2,06,74,58,018,43,75,45,275,48,,,,,,,,*6C
###2023-12-09 13:39:34.032906$GAGSV,1,1,04,04,41,309,44,19,70,181,40,21,75,045,47,27,21,050,42*62
###2023-12-09 13:39:34.035233$GBGSV,2,1,06,12,17,125,43,14,27,189,41,24,61,048,49,25,52,278,49*6F
###2023-12-09 13:39:34.036974$GBGSV,2,2,06,33,44,215,45,35,16,055,45,,,,,,,,*6A
###2023-12-09 13:39:34.038285$GNVTG,179.80,T,,M,3.27,N,6.05,K,A*21
###2023-12-09 13:39:34.039892$GNGST,183933.10,5.100,,,,0.090,0.067,0.150*6D
###2023-12-09 13:39:34.041170$GNZDA,183933.10,09,12,2023,00,00*73
###2023-12-09 13:39:34.041800$GNEBP,,,,,,M*13
###2023-12-09 13:39:34.205422$GNGGA,183933.30,4138.0556886,N,07032.3860152,W,1,25,0.6,13.345,M,-29.744,M,0.0,*5D
###2023-12-09 13:39:34.403317$GNGGA,183933.50,4138.0555174,N,07032.3860090,W,1,25,0.6,13.350,M,-29.744,M,0.0,*57
###2023-12-09 13:39:34.601933$GNGGA,183933.70,4138.0553348,N,07032.3859824,W,1,25,0.6,13.351,M,-29.744,M,0.0,*52
###2023-12-09 13:39:34.802678$GNGGA,183933.90,4138.0551606,N,07032.3859629,W,1,25,0.6,13.333,M,-29.744,M,0.0,*56
###2023-12-09 13:39:35.006262$GNRMC,183934.10,A,4138.0549807,N,07032.3859641,W,3.44,180.43,091223,,,A*5A
###2023-12-09 13:39:35.009183$GNGGA,183934.10,4138.0549807,N,07032.3859641,W,1,25,0.6,13.368,M,-29.744,M,0.0,*5F
###2023-12-09 13:39:35.011054$GPGSA,A,3,03,04,16,26,27,28,29,31,,,,,1.0,0.6,0.8*3F
###2023-12-09 13:39:35.012761$GLGSA,A,3,65,71,72,73,74,75,,,,,,,1.0,0.6,0.8*24
###2023-12-09 13:39:35.014332$GAGSA,A,3,04,19,21,27,,,,,,,,,1.0,0.6,0.8*26
###2023-12-09 13:39:35.016040$GBGSA,A,3,12,14,24,25,33,35,,,,,,,1.0,0.6,0.8*2E
