###2023-12-09 13:04:53.983466$GPGSV,2,2,08,28,48,071,43,29,25,060,40,31,68,040,47,32,18,140,42*78
###2023-12-09 13:04:53.985815$GLGSV,2,1,06,65,26,327,39,71,39,173,46,72,73,261,47,73,34,043,44*63
###2023-12-09 13:04:53.987580$GLGSV,2,2,06,74,69,343,43,75,33,255,47,,,,,,,,*6F
###2023-12-09 13:04:53.989906$GAGSV,1,1,04,04,30,312,40,19,83,207,41,21,86,104,46,27,32,048,43*69
###2023-12-09 13:04:53.992248$GBGSV,2,1,05,14,42,192,46,24,72,028,48,25,42,263,47,26,25,063,41*65
###2023-12-09 13:04:53.993700$GBGSV,2,2,05,33,56,230,48,,,,,,,,,,,,*50
###2023-12-09 13:04:53.995002$GNVTG,88.19,T,,M,3.56,N,6.59,K,A*11
###2023-12-09 13:04:53.996642$GNGST,180453.10,18.000,,,,0.080,0.066,0.160*5B
###2023-12-09 13:04:53.997926$GNZDA,180453.10,09,12,2023,00,00*7B
###2023-12-09 13:04:53.998570$GNEBP,,,,,,M*13
###2023-12-09 13:04:54.166530$GNGGA,180453.30,4138.0580765,N,07032.2922872,W,1,24,0.6,13.210,M,-29.743,M,0.0,*56
###2023-12-09 13:04:54.367074$GNGGA,180453.50,4138.0580539,N,07032.2920218,W,1,24,0.6,13.218,M,-29.743,M,0.0,*57
###2023-12-09 13:04:54.567287$GNGGA,180453.70,4138.0580479,N,07032.2917639,W,1,24,0.6,13.223,M,-29.743,M,0.0,*5B
###2023-12-09 13:04:54.767506$GNGGA,180453.90,4138.0580656,N,07032.2915063,W,1,24,0.6,13.233,M,-29.743,M,0.0,*50
###2023-12-09 13:04:54.968778$GNRMC,180454.10,A,4138.0580788,N,07032.2912496,W,3.38,86.19,091223,,,A*6B
###2023-12-09 13:04:54.971652$GNGGA,180454.10,4138.0580788,N,07032.2912496,W,1,24,0.6,13.213,M,-29.743,M,0.0,*56
###2023-12-09 13:04:54.973522$GPGSA,A,3,03,04,16,26,28,29,31,32,,,,,1.1,0.6,0.9*3B
###2023-12-09 13:04:54.975250$GLGSA,A,3,65,71,72,73,74,75,,,,,,,1.1,0.6,0.9*24
###2023-12-09 13:04:54.976836$GAGSA,A,3,04,19,21,27,,,,,,,,,1.1,0.6,0.9*26
###2023-12-09 13:04:54.978485$GBGSA,A,3,14,24,25,26,33,,,,,,,,1.1,0.6,0.9*2F
###2023-12-09 13:04:54.980826$GPGSV,2,1,08,03,34,260,45,04,33,311,43,16,51,213,47,26,81,210,48*71
###2023-12-09 13:04:54.983172$GPGSV,2,2,08,28,48,071,43,29,25,060,40,31,68,040,46,32,18,140,42*79
###2023-12-09 13:04:54.985512$GLGSV,2,1,06,65,26,327,40,71,39,173,46,72,73,261,47,73,34,043,43*6A
###2023-12-09 13:04:54.987272$GLGSV,2,2,06,74,69,343,43,75,33,255,47,,,,,,,,*6F
###2023-12-09 13:04:54.989606$GAGSV,1,1,04,04,30,312,40,19,83,207,41,21,86,104,45,27,32,048,42*6B
###2023-12-09 13:04:54.991955$GBGSV,2,1,05,14,42,192,46,24,72,028,48,25,42,263,46,26,25,063,41*64
###2023-12-09 13:04:54.993416$GBGSV,2,2,05,33,56,230,48,,,,,,,,,,,,*50
###2023-12-09 13:04:54.994717$GNVTG,86.19,T,,M,3.38,N,6.26,K,A*1F
###2023-12-09 13:04:54.996363$GNGST,180454.10,18.000,,,,0.080,0.066,0.160*5C
###2023-12-09 13:04:54.997655$GNZDA,180454.10,09,12,2023,00,00*7C
###2023-12-09 13:04:54.998293$GNEBP,,,,,,M*13
###2023-12-09 13:04:55.167201$GNGGA,180454.30,4138.0580984,N,07032.2910002,W,1,24,0.6,13.225,M,-29.743,M,0.0,*58
###2023-12-09 13:04:55.368060$GNGGA,180454.50,4138.0581144,N,07032.2907513,W,1,24,0.6,13.250,M,-29.743,M,0.0,*5A
###2023-12-09 13:04:55.567839$GNGGA,180454.70,4138.0581125,N,07032.2904971,W,1,24,0.6,13.233,M,-29.743,M,0.0,*51
###2023-12-09 13:04:55.768104$GNGGA,180454.90,4138.0581117,N,07032.2902496,W,1,24,0.6,13.211,M,-29.743,M,0.0,*5C
###2023-12-09 13:04:55.969192$GNRMC,180455.10,A,4138.0581456,N,07032.2900097,W,3.38,76.11,091223,,,A*6A
###2023-12-09 13:04:55.972667$GNGGA,180455.10,4138.0581456,N,07032.2900097,W,1,24,0.6,13.243,M,-29.743,M,0.0,*55
###2023-12-09 13:04:55.974926$GPGSA,A,3,03,04,16,26,28,29,31,32,,,,,1.1,0.6,0.9*3B
###2023-12-09 13:04:55.977008$GLGSA,A,3,65,71,72,73,74,75,,,,,,,1.1,0.6,0.9*24
###2023-12-09 13:04:55.978935$GAGSA,A,3,04,19,21,27,,,,,,,,,1.1,0.6,0.9*26
###2023-12-09 13:04:55.980928$GBGSA,A,3,14,24,25,26,33,,,,,,,,1.1,0.6,0.9*2F
###2023-12-09 13:04:55.983740$GPGSV,2,1,08,03,34,260,43,04,33,311,42,16,51,213,46,26,81,210,47*78
###2023-12-09 13:04:55.986560$GPGSV,2,2,08,28,48,071,42,29,25,060,39,31,68,040,45,32,18,140,38*78
###2023-12-09 13:04:55.989398$GLGSV,2,1,06,65,26,327,41,71,39,173,45,72,73,261,47,73,34,043,44*6F
###2023-12-09 13:04:55.991521$GLGSV,2,2,06,74,69,343,43,75,33,255,46,,,,,,,,*6E
###2023-12-09 13:04:55.994333$GAGSV,1,1,04,04,30,312,40,19,83,207,40,21,86,104,45,27,32,048,42*6A
###2023-12-09 13:04:55.997191$GBGSV,2,1,05,14,42,192,45,24,72,028,49,25,42,263,46,26,25,063,42*65
###2023-12-09 13:04:55.998968$GBGSV,2,2,05,33,56,230,49,,,,,,,,,,,,*51
###2023-12-09 13:04:56.000525$GNVTG,76.11,T,,M,3.38,N,6.26,K,A*18
###2023-12-09 13:04:56.002500$GNGST,180455.10,18.000,,,,0.081,0.067,0.160*5D
###2023-12-09 13:04:56.004063$GNZDA,180455.10,09,12,2023,00,00*7D
###2023-12-09 13:04:56.004829$GNEBP,,,,,,M*13
###2023-12-09 13:04:56.166959$GNGGA,180455.30,4138.0581646,N,07032.2897504,W,1,24,0.6,13.247,M,-29.743,M,0.0,*50
###2023-12-09 13:04:56.366596$GNGGA,180455.50,4138.0581307,N,07032.2895012,W,1,24,0.6,13.219,M,-29.743,M,0.0,*5D
###2023-12-09 13:04:56.567884$GNGGA,180455.70,4138.0580932,N,07032.2892612,W,1,24,0.6,13.220,M,-29.743,M,0.0,*59
###2023-12-09 13:04:56.769929$GNGGA,180455.90,4138.0581003,N,07032.2890139,W,1,24,0.6,13.247,M,-29.743,M,0.0,*50
###2023-12-09 13:04:56.979551$GNRMC,180456.10,A,4138.0580835,N,07032.2887600,W,3.63,104.45,091223,,,A*5C
###2023-12-09 13:04:56.982440$GNGGA,180456.10,4138.0580835,N,07032.2887600,W,1,24,0.6,13.235,M,-29.743,M,0.0,*59
###2023-12-09 13:04:56.984324$GPGSA,A,3,03,04,16,26,28,29,31,32,,,,,1.1,0.6,0.9*3B
###2023-12-09 13:04:56.986042$GLGSA,A,3,65,71,72,73,74,75,,,,,,,1.1,0.6,0.9*24
###2023-12-09 13:04:56.987641$GAGSA,A,3,04,19,21,27,,,,,,,,,1.1,0.6,0.9*26
###2023-12-09 13:04:56.989297$GBGSA,A,3,14,24,25,26,33,,,,,,,,1.1,0.6,0.9*2F
###2023-12-09 13:04:56.991653$GPGSV,2,1,08,03,34,260,43,04,33,311,42,16,51,213,46,26,81,210,48*77
###2023-12-09 13:04:56.993995$GPGSV,2,2,08,28,48,071,45,29,25,060,42,31,68,040,46,32,18,140,39*71
###2023-12-09 13:04:56.996340$GLGSV,2,1,06,65,26,327,41,71,39,173,45,72,73,261,46,73,34,043,45*6F
###2023-12-09 13:04:56.998085$GLGSV,2,2,06,74,69,343,43,75,33,255,46,,,,,,,,*6E
###2023-12-09 13:04:57.000425$GAGSV,1,1,04,04,30,312,42,19,83,207,41,21,86,104,46,27,32,048,43*6B
###2023-12-09 13:04:57.002767$GBGSV,2,1,05,14,42,192,44,24,72,028,49,25,42,263,46,26,25,063,44*62
###2023-12-09 13:04:57.004228$GBGSV,2,2,05,33,56,230,48,,,,,,,,,,,,*50
###2023-12-09 13:04:57.005554$GNVTG,104.45,T,,M,3.63,N,6.73,K,A*23
###2023-12-09 13:04:57.007218$GNGST,180456.10,18.000,,,,0.081,0.067,0.160*5E
###2023-12-09 13:04:57.008515$GNZDA,180456.10,09,12,2023,00,00*7E
###2023-12-09 13:04:57.009157$GNEBP,,,,,,M*13
###2023-12-09 13:04:57.169383$GNGGA,180456.30,4138.0580245,N,07032.2885114,W,1,24,0.6,13.217,M,-29.743,M,0.0,*56
###2023-12-09 13:04:57.367125$GNGGA,180456.50,4138.0579920,N,07032.2882667,W,1,24,0.6,13.235,M,-29.743,M,0.0,*5A
###2023-12-09 13:04:57.567575$GNGGA,180456.70,4138.0579835,N,07032.2880087,W,1,24,0.6,13.243,M,-29.743,M,0.0,*56
###2023-12-09 13:04:57.769445$GNGGA,180456.90,4138.0579772,N,07032.2877575,W,1,24,0.6,13.243,M,-29.743,M,0.0,*54
###2023-12-09 13:04:57.970157$GNRMC,180457.10,A,4138.0579527,N,07032.2874948,W,3.63,103.71,091223,,,A*5A
###2023-12-09 13:04:57.973039$GNGGA,180457.10,4138.0579527,N,07032.2874948,W,1,24,0.6,13.227,M,-29.743,M,0.0,*5C
###2023-12-09 13:04:57.974915$GPGSA,A,3,03,04,16,26,28,29,31,32,,,,,1.1,0.6,0.9*3B
###2023-12-09 13:04:57.976631$GLGSA,A,3,65,71,72,73,74,75,,,,,,,1.1,0.6,0.9*24
###2023-12-09 13:04:57.978223$GAGSA,A,3,04,19,21,27,,,,,,,,,1.1,0.6,0.9*26
###2023-12-09 13:04:57.979889$GBGSA,A,3,14,24,25,26,33,,,,,,,,1.1,0.6,0.9*2F
###2023-12-09 13:04:57.982223$GPGSV,2,1,08,03,34,260,43,04,33,311,42,16,51,213,47,26,81,210,48*76
###2023-12-09 13:04:57.984568$GPGSV,2,2,08,28,48,071,44,29,25,060,41,31,68,040,46,32,18,140,41*7C
###2023-12-09 13:04:57.986908$GLGSV,2,1,06,65,26,327,41,71,39,173,46,72,73,261,46,73,34,043,44*6D
###2023-12-09 13:04:57.988654$GLGSV,2,2,06,74,69,343,43,75,33,255,45,,,,,,,,*6D
###2023-12-09 13:04:57.990991$GAGSV,1,1,04,04,30,312,41,19,83,207,40,21,86,104,46,27,32,048,42*68
###2023-12-09 13:04:57.993319$GBGSV,2,1,05,14,42,192,44,24,72,028,47,25,42,263,46,26,25,063,42*6A
###2023-12-09 13:04:57.994782$GBGSV,2,2,05,33,56,230,48,,,,,,,,,,,,*50
###2023-12-09 13:04:57.996105$GNVTG,103.71,T,,M,3.63,N,6.73,K,A*23
###2023-12-09 13:04:57.998005$GNGST,180457.10,18.000,,,,0.082,0.068,0.160*53
###2023-12-09 13:04:57.999327$GNZDA,180457.10,09,12,2023,00,00*7F
###2023-12-09 13:04:57.999969$GNEBP,,,,,,M*13
###2023-12-09 13:04:58.166546$GNGGA,180457.30,4138.0579206,N,07032.2872505,W,1,24,0.6,13.227,M,-29.743,M,0.0,*59
###2023-12-09 13:04:58.368929$GNGGA,180457.50,4138.0579446,N,07032.2870040,W,1,24,0.6,13.261,M,-29.743,M,0.0,*59
###2023-12-09 13:04:58.567458$GNGGA,180457.70,4138.0579619,N,07032.2867454,W,1,24,0.6,13.244,M,-29.743,M,0.0,*53
###2023-12-09 13:04:58.767651$GNGGA,180457.90,4138.0579535,N,07032.2865033,W,1,24,0.6,13.216,M,-29.743,M,0.0,*50
###2023-12-09 13:04:58.970023$GNRMC,180458.10,A,4138.0579625,N,07032.2862596,W,3.42,83.59,091223,,,A*6C
###2023-12-09 13:04:58.972892$GNGGA,180458.10,4138.0579625,N,07032.2862596,W,1,24,0.6,13.254,M,-29.743,M,0.0,*5E
