###2023-12-09 12:50:45.978378$GNZDA,175045.10,09,12,2023,00,00*72
###2023-12-09 12:50:45.979057$GNEBP,,,,,,M*13
###2023-12-09 12:50:46.146600$GNGGA,175045.30,4138.0560673,N,07032.3761876,W,1,24,0.6,13.709,M,-29.744,M,0.0,*51
###2023-12-09 12:50:46.348428$GNGGA,175045.50,4138.0560604,N,07032.3761478,W,1,24,0.6,13.709,M,-29.744,M,0.0,*55
###2023-12-09 12:50:46.548502$GNGGA,175045.70,4138.0560510,N,07032.3761112,W,1,24,0.6,13.706,M,-29.744,M,0.0,*57
###2023-12-09 12:50:46.747670$GNGGA,175045.90,4138.0560400,N,07032.3760808,W,1,24,0.6,13.701,M,-29.744,M,0.0,*5D
###2023-12-09 12:50:46.949478$GNRMC,175046.10,A,4138.0560306,N,07032.3760538,W,0.35,110.98,091223,,,A*5C
###2023-12-09 12:50:46.952362$GNGGA,175046.10,4138.0560306,N,07032.3760538,W,1,24,0.6,13.702,M,-29.744,M,0.0,*5A
###2023-12-09 12:50:46.954217$GPGSA,A,3,03,04,16,26,28,29,31,32,,,,,1.1,0.6,0.9*3B
###2023-12-09 12:50:46.955949$GLGSA,A,3,65,71,72,73,74,75,,,,,,,1.1,0.6,0.9*24
###2023-12-09 12:50:46.957535$GAGSA,A,3,04,19,21,27,,,,,,,,,1.1,0.6,0.9*26
###2023-12-09 12:50:46.959198$GBGSA,A,3,14,24,25,26,33,,,,,,,,1.1,0.6,0.9*2F
###2023-12-09 12:50:46.961530$GPGSV,2,1,08,03,37,268,44,04,28,311,43,16,44,210,45,26,74,208,47*78
###2023-12-09 12:50:46.963880$GPGSV,2,2,08,28,53,065,43,29,26,066,42,31,71,024,46,32,23,138,40*7E
###2023-12-09 12:50:46.966211$GLGSV,2,1,06,65,18,329,43,71,48,171,46,72,71,291,46,73,41,038,46*69
###2023-12-09 12:50:46.967971$GLGSV,2,2,06,74,71,317,43,75,28,247,43,,,,,,,,*6A
###2023-12-09 12:50:46.970302$GAGSV,1,1,04,04,26,312,41,19,85,260,40,21,83,158,45,27,36,048,43*62
###2023-12-09 12:50:46.972646$GBGSV,2,1,05,14,48,194,45,24,77,014,48,25,37,258,46,26,29,060,44*61
###2023-12-09 12:50:46.974102$GBGSV,2,2,05,33,60,240,49,,,,,,,,,,,,*53
###2023-12-09 12:50:46.975442$GNVTG,110.98,T,,M,0.35,N,0.65,K,A*27
###2023-12-09 12:50:46.977105$GNGST,175046.10,18.000,,,,0.077,0.066,0.160*59
###2023-12-09 12:50:46.978400$GNZDA,175046.10,09,12,2023,00,00*71
###2023-12-09 12:50:46.979053$GNEBP,,,,,,M*13
###2023-12-09 12:50:47.148872$GNGGA,175046.30,4138.0560219,N,07032.3760218,W,1,24,0.6,13.712,M,-29.744,M,0.0,*53
###2023-12-09 12:50:47.349787$GNGGA,175046.50,4138.0560139,N,07032.3759882,W,1,24,0.6,13.710,M,-29.744,M,0.0,*55
###2023-12-09 12:50:47.549728$GNGGA,175046.70,4138.0560091,N,07032.3759645,W,1,24,0.6,13.706,M,-29.744,M,0.0,*56
###2023-12-09 12:50:47.749795$GNGGA,175046.90,4138.0560033,N,07032.3759487,W,1,24,0.6,13.699,M,-29.744,M,0.0,*5B
###2023-12-09 12:50:47.949476$GNRMC,175047.10,A,4138.0559890,N,07032.3759237,W,0.51,110.98,091223,,,A*53
###2023-12-09 12:50:47.952374$GNGGA,175047.10,4138.0559890,N,07032.3759237,W,1,24,0.6,13.696,M,-29.744,M,0.0,*5B
###2023-12-09 12:50:47.954246$GPGSA,A,3,03,04,16,26,28,29,31,32,,,,,1.1,0.6,0.9*3B
###2023-12-09 12:50:47.955989$GLGSA,A,3,65,71,72,73,74,75,,,,,,,1.1,0.6,0.9*24
###2023-12-09 12:50:47.957580$GAGSA,A,3,04,19,21,27,,,,,,,,,1.1,0.6,0.9*26
###2023-12-09 12:50:47.959249$GBGSA,A,3,14,24,25,26,33,,,,,,,,1.1,0.6,0.9*2F
###2023-12-09 12:50:47.961582$GPGSV,2,1,08,03,37,268,44,04,28,311,41,16,44,210,45,26,74,208,48*75
###2023-12-09 12:50:47.963941$GPGSV,2,2,08,28,53,065,43,29,26,066,43,31,71,024,46,32,23,138,38*70
###2023-12-09 12:50:47.966292$GLGSV,2,1,06,65,19,329,43,71,48,171,46,72,71,291,46,73,41,038,46*68
###2023-12-09 12:50:47.968066$GLGSV,2,2,06,74,71,317,44,75,28,247,45,,,,,,,,*6B
###2023-12-09 12:50:47.970413$GAGSV,1,1,04,04,26,312,41,19,85,260,41,21,83,158,46,27,36,048,44*67
###2023-12-09 12:50:47.972782$GBGSV,2,1,05,14,48,194,44,24,77,014,48,25,37,258,45,26,29,060,44*63
###2023-12-09 12:50:47.974249$GBGSV,2,2,05,33,60,240,47,,,,,,,,,,,,*5D
###2023-12-09 12:50:47.975589$GNVTG,110.98,T,,M,0.51,N,0.94,K,A*2B
###2023-12-09 12:50:47.977250$GNGST,175047.10,18.000,,,,0.077,0.066,0.160*58
###2023-12-09 12:50:47.978560$GNZDA,175047.10,09,12,2023,00,00*70
###2023-12-09 12:50:47.979221$GNEBP,,,,,,M*13
###2023-12-09 12:50:48.148659$GNGGA,175047.30,4138.0559810,N,07032.3758924,W,1,24,0.6,13.699,M,-29.744,M,0.0,*56
###2023-12-09 12:50:48.349722$GNGGA,175047.50,4138.0559800,N,07032.3758675,W,1,24,0.6,13.700,M,-29.744,M,0.0,*5B
###2023-12-09 12:50:48.549738$GNGGA,175047.70,4138.0559758,N,07032.3758531,W,1,24,0.6,13.701,M,-29.744,M,0.0,*59
###2023-12-09 12:50:48.752649$GNGGA,175047.90,4138.0559647,N,07032.3758375,W,1,24,0.6,13.703,M,-29.744,M,0.0,*5C
###2023-12-09 12:50:48.950446$GNRMC,175048.10,A,4138.0559554,N,07032.3758177,W,0.33,110.98,091223,,,A*5B
###2023-12-09 12:50:48.953308$GNGGA,175048.10,4138.0559554,N,07032.3758177,W,1,24,0.6,13.706,M,-29.744,M,0.0,*5F
###2023-12-09 12:50:48.955179$GPGSA,A,3,03,04,16,26,28,29,31,32,,,,,1.1,0.6,0.9*3B
###2023-12-09 12:50:48.956896$GLGSA,A,3,65,71,72,73,74,75,,,,,,,1.1,0.6,0.9*24
###2023-12-09 12:50:48.958476$GAGSA,A,3,04,19,21,27,,,,,,,,,1.1,0.6,0.9*26
###2023-12-09 12:50:48.960141$GBGSA,A,3,14,24,25,26,33,,,,,,,,1.1,0.6,0.9*2F
###2023-12-09 12:50:48.962463$GPGSV,2,1,08,03,37,268,45,04,28,311,42,16,44,210,46,26,74,208,48*74
###2023-12-09 12:50:48.964802$GPGSV,2,2,08,28,53,065,44,29,26,066,44,31,71,024,47,32,23,138,39*70
###2023-12-09 12:50:48.967145$GLGSV,2,1,06,65,19,329,42,71,48,171,47,72,71,291,46,73,41,038,46*68
###2023-12-09 12:50:48.968891$GLGSV,2,2,06,74,71,317,43,75,28,247,45,,,,,,,,*6C
###2023-12-09 12:50:48.971228$GAGSV,1,1,04,04,26,312,39,19,85,260,40,21,83,158,45,27,36,048,44*6A
###2023-12-09 12:50:48.973545$GBGSV,2,1,05,14,48,194,44,24,77,014,48,25,37,258,45,26,29,060,45*62
###2023-12-09 12:50:48.975006$GBGSV,2,2,05,33,60,240,49,,,,,,,,,,,,*53
###2023-12-09 12:50:48.976330$GNVTG,110.98,T,,M,0.33,N,0.61,K,A*25
###2023-12-09 12:50:48.977975$GNGST,175048.10,18.000,,,,0.078,0.067,0.160*59
###2023-12-09 12:50:48.979284$GNZDA,175048.10,09,12,2023,00,00*7F
###2023-12-09 12:50:48.979944$GNEBP,,,,,,M*13
###2023-12-09 12:50:49.148596$GNGGA,175048.30,4138.0559527,N,07032.3757905,W,1,24,0.6,13.701,M,-29.744,M,0.0,*5C
###2023-12-09 12:50:49.349174$GNGGA,175048.50,4138.0559521,N,07032.3757650,W,1,24,0.6,13.684,M,-29.744,M,0.0,*5F
###2023-12-09 12:50:49.549546$GNGGA,175048.70,4138.0559430,N,07032.3757493,W,1,24,0.6,13.681,M,-29.744,M,0.0,*54
###2023-12-09 12:50:49.749381$GNGGA,175048.90,4138.0559301,N,07032.3757369,W,1,24,0.6,13.690,M,-29.744,M,0.0,*5D
###2023-12-09 12:50:49.949320$GNRMC,175049.10,A,4138.0559238,N,07032.3757182,W,0.29,110.98,091223,,,A*59
###2023-12-09 12:50:49.952198$GNGGA,175049.10,4138.0559238,N,07032.3757182,W,1,24,0.6,13.695,M,-29.744,M,0.0,*5D
###2023-12-09 12:50:49.954053$GPGSA,A,3,03,04,16,26,28,29,31,32,,,,,1.1,0.6,0.9*3B
###2023-12-09 12:50:49.955789$GLGSA,A,3,65,71,72,73,74,75,,,,,,,1.1,0.6,0.9*24
###2023-12-09 12:50:49.957371$GAGSA,A,3,04,19,21,27,,,,,,,,,1.1,0.6,0.9*26
###2023-12-09 12:50:49.959033$GBGSA,A,3,14,24,25,26,33,,,,,,,,1.1,0.6,0.9*2F
###2023-12-09 12:50:49.961363$GPGSV,2,1,08,03,37,268,46,04,28,311,43,16,44,210,46,26,74,208,48*76
###2023-12-09 12:50:49.963716$GPGSV,2,2,08,28,53,065,44,29,26,066,44,31,71,024,47,32,23,138,39*70
###2023-12-09 12:50:49.966051$GLGSV,2,1,06,65,19,329,40,71,48,171,46,72,71,291,46,73,41,038,46*6B
###2023-12-09 12:50:49.967814$GLGSV,2,2,06,74,71,317,43,75,28,247,44,,,,,,,,*6D
###2023-12-09 12:50:49.970151$GAGSV,1,1,04,04,26,312,40,19,85,258,41,21,83,157,46,27,36,048,44*62
###2023-12-09 12:50:49.972500$GBGSV,2,1,05,14,48,194,45,24,77,014,48,25,37,258,46,26,29,060,45*60
###2023-12-09 12:50:49.973957$GBGSV,2,2,05,33,60,240,48,,,,,,,,,,,,*52
###2023-12-09 12:50:49.975290$GNVTG,110.98,T,,M,0.29,N,0.54,K,A*28
###2023-12-09 12:50:49.976940$GNGST,175049.10,18.000,,,,0.079,0.068,0.160*56
###2023-12-09 12:50:49.978232$GNZDA,175049.10,09,12,2023,00,00*7E
###2023-12-09 12:50:49.978886$GNEBP,,,,,,M*13
###2023-12-09 12:50:50.151622$GNGGA,175049.30,4138.0559247,N,07032.3756943,W,1,24,0.6,13.686,M,-29.744,M,0.0,*51
###2023-12-09 12:50:50.349559$GNGGA,175049.50,4138.0559239,N,07032.3756738,W,1,24,0.6,13.664,M,-29.744,M,0.0,*50
###2023-12-09 12:50:50.549570$GNGGA,175049.70,4138.0559146,N,07032.3756611,W,1,24,0.6,13.656,M,-29.744,M,0.0,*52
###2023-12-09 12:50:50.749679$GNGGA,175049.90,4138.0559035,N,07032.3756519,W,1,24,0.6,13.660,M,-29.744,M,0.0,*57
###2023-12-09 12:50:50.949217$GNRMC,175050.10,A,4138.0559018,N,07032.3756340,W,0.29,110.98,091223,,,A*5C
###2023-12-09 12:50:50.952354$GNGGA,175050.10,4138.0559018,N,07032.3756340,W,1,24,0.6,13.664,M,-29.744,M,0.0,*56
###2023-12-09 12:50:50.954231$GPGSA,A,3,03,04,16,26,28,29,31,32,,,,,1.1,0.6,0.9*3B
###2023-12-09 12:50:50.955975$GLGSA,A,3,65,71,72,73,74,75,,,,,,,1.1,0.6,0.9*24
###2023-12-09 12:50:50.957566$GAGSA,A,3,04,19,21,27,,,,,,,,,1.1,0.6,0.9*26
###2023-12-09 12:50:50.959242$GBGSA,A,3,14,24,25,26,33,,,,,,,,1.1,0.6,0.9*2F
###2023-12-09 12:50:50.961582$GPGSV,2,1,08,03,37,268,45,04,28,311,42,16,44,210,46,26,74,208,48*74
###2023-12-09 12:50:50.963935$GPGSV,2,2,08,28,53,065,45,29,26,066,44,31,71,024,46,32,23,138,40*7E
###2023-12-09 12:50:50.966280$GLGSV,2,1,06,65,19,329,41,71,48,171,46,72,71,291,47,73,41,038,46*6B
###2023-12-09 12:50:50.968046$GLGSV,2,2,06,74,71,317,43,75,28,247,44,,,,,,,,*6D
