###2023-12-09 13:20:51.009502$GAGSV,1,1,04,04,35,311,44,19,77,186,40,21,81,055,46,27,27,049,41*6E
###2023-12-09 13:20:51.011877$GBGSV,2,1,06,14,35,191,43,24,67,039,49,25,47,270,48,26,20,067,43*6E
###2023-12-09 13:20:51.013628$GBGSV,2,2,06,33,51,222,46,35,16,062,43,,,,,,,,*6B
###2023-12-09 13:20:51.014971$GNVTG,188.39,T,,M,3.60,N,6.66,K,A*2B
###2023-12-09 13:20:51.016612$GNGST,182050.10,18.000,,,,0.100,0.069,0.160*58
###2023-12-09 13:20:51.017902$GNZDA,182050.10,09,12,2023,00,00*7E
###2023-12-09 13:20:51.018541$GNEBP,,,,,,M*13
###2023-12-09 13:20:51.184283$GNGGA,182050.30,4138.0247510,N,07032.3279216,W,1,24,0.7,12.769,M,-29.745,M,0.0,*5E
###2023-12-09 13:20:51.383193$GNGGA,182050.50,4138.0245667,N,07032.3279164,W,1,24,0.7,12.766,M,-29.745,M,0.0,*50
###2023-12-09 13:20:51.583167$GNGGA,182050.70,4138.0243730,N,07032.3279146,W,1,24,0.7,12.759,M,-29.745,M,0.0,*5B
###2023-12-09 13:20:51.783727$GNGGA,182050.90,4138.0241851,N,07032.3279513,W,1,24,0.7,12.774,M,-29.745,M,0.0,*54
###2023-12-09 13:20:51.987584$GNRMC,182051.10,A,4138.0239976,N,07032.3279818,W,3.44,181.11,091223,,,A*5A
###2023-12-09 13:20:51.990452$GNGGA,182051.10,4138.0239976,N,07032.3279818,W,1,24,0.7,12.795,M,-29.745,M,0.0,*5F
###2023-12-09 13:20:51.992269$GPGSA,A,3,03,04,16,26,28,29,31,,,,,,1.1,0.7,0.9*3B
###2023-12-09 13:20:51.993986$GLGSA,A,3,65,71,72,73,74,75,,,,,,,1.1,0.7,0.9*25
###2023-12-09 13:20:51.995576$GAGSA,A,3,04,19,21,27,,,,,,,,,1.1,0.7,0.9*27
###2023-12-09 13:20:51.997290$GBGSA,A,3,14,24,25,26,33,35,,,,,,,1.1,0.7,0.9*28
###2023-12-09 13:20:51.999626$GPGSV,2,1,07,03,31,253,42,04,40,310,45,16,59,217,46,26,89,196,48*77
###2023-12-09 13:20:52.001657$GPGSV,2,2,07,28,43,079,44,29,23,053,40,31,64,055,46,,,,*47
###2023-12-09 13:20:52.003998$GLGSV,2,1,06,65,33,323,43,71,30,174,42,72,69,234,46,73,27,048,41*62
###2023-12-09 13:20:52.005744$GLGSV,2,2,06,74,64,002,43,75,39,263,48,,,,,,,,*64
###2023-12-09 13:20:52.008072$GAGSV,1,1,04,04,35,311,45,19,77,186,40,21,81,055,45,27,27,049,39*63
###2023-12-09 13:20:52.010399$GBGSV,2,1,06,14,35,191,42,24,67,039,48,25,47,270,49,26,20,067,43*6F
###2023-12-09 13:20:52.012156$GBGSV,2,2,06,33,51,222,46,35,16,062,44,,,,,,,,*6C
###2023-12-09 13:20:52.013478$GNVTG,181.11,T,,M,3.44,N,6.37,K,A*2A
###2023-12-09 13:20:52.015129$GNGST,182051.10,18.000,,,,0.100,0.069,0.160*59
###2023-12-09 13:20:52.016458$GNZDA,182051.10,09,12,2023,00,00*7F
###2023-12-09 13:20:52.017100$GNEBP,,,,,,M*13
###2023-12-09 13:20:52.182310$GNGGA,182051.30,4138.0238052,N,07032.3279790,W,1,24,0.7,12.768,M,-29.745,M,0.0,*5E
###2023-12-09 13:20:52.382086$GNGGA,182051.50,4138.0236168,N,07032.3280014,W,1,24,0.7,12.750,M,-29.745,M,0.0,*58
###2023-12-09 13:20:52.581404$GNGGA,182051.70,4138.0234285,N,07032.3280538,W,1,24,0.7,12.760,M,-29.745,M,0.0,*50
###2023-12-09 13:20:52.783530$GNGGA,182051.90,4138.0232473,N,07032.3281188,W,1,24,0.7,12.775,M,-29.745,M,0.0,*5D
###2023-12-09 13:20:52.997415$GNRMC,182052.10,A,4138.0230756,N,07032.3281969,W,3.27,198.07,091223,,,A*56
###2023-12-09 13:20:53.000901$GNGGA,182052.10,4138.0230756,N,07032.3281969,W,1,24,0.7,12.786,M,-29.745,M,0.0,*5B
###2023-12-09 13:20:53.003078$GPGSA,A,3,03,04,16,26,28,29,31,,,,,,1.1,0.7,0.9*3B
###2023-12-09 13:20:53.005148$GLGSA,A,3,65,71,72,73,74,75,,,,,,,1.1,0.7,0.9*25
###2023-12-09 13:20:53.007073$GAGSA,A,3,04,19,21,27,,,,,,,,,1.1,0.7,0.9*27
###2023-12-09 13:20:53.009180$GBGSA,A,3,14,24,25,26,33,35,,,,,,,1.1,0.7,0.9*28
###2023-12-09 13:20:53.012012$GPGSV,2,1,07,03,31,253,41,04,40,310,46,16,59,217,46,26,89,196,48*77
###2023-12-09 13:20:53.014482$GPGSV,2,2,07,28,43,079,44,29,23,053,42,31,64,055,47,,,,*44
###2023-12-09 13:20:53.017317$GLGSV,2,1,06,65,33,323,44,71,30,174,40,72,69,234,46,73,27,048,43*65
###2023-12-09 13:20:53.019462$GLGSV,2,2,06,74,64,002,43,75,39,263,47,,,,,,,,*6B
###2023-12-09 13:20:53.022281$GAGSV,1,1,04,04,35,311,45,19,77,186,40,21,81,055,46,27,27,049,41*6F
###2023-12-09 13:20:53.025120$GBGSV,2,1,06,14,35,191,42,24,67,039,49,25,47,270,47,26,20,067,43*60
###2023-12-09 13:20:53.027239$GBGSV,2,2,06,33,51,222,46,35,16,062,44,,,,,,,,*6C
###2023-12-09 13:20:53.028839$GNVTG,198.07,T,,M,3.27,N,6.05,K,A*21
###2023-12-09 13:20:53.030875$GNGST,182052.10,18.000,,,,0.100,0.069,0.160*5A
###2023-12-09 13:20:53.032439$GNZDA,182052.10,09,12,2023,00,00*7C
###2023-12-09 13:20:53.033206$GNEBP,,,,,,M*13
###2023-12-09 13:20:53.183939$GNGGA,182052.30,4138.0228907,N,07032.3282584,W,1,24,0.7,12.754,M,-29.745,M,0.0,*59
###2023-12-09 13:20:53.384446$GNGGA,182052.50,4138.0227153,N,07032.3283421,W,1,24,0.7,12.712,M,-29.745,M,0.0,*54
###2023-12-09 13:20:53.585746$GNGGA,182052.70,4138.0225656,N,07032.3284868,W,1,24,0.7,12.768,M,-29.745,M,0.0,*5D
###2023-12-09 13:20:53.784428$GNGGA,182052.90,4138.0224106,N,07032.3286159,W,1,24,0.7,12.789,M,-29.745,M,0.0,*56
###2023-12-09 13:20:53.987457$GNRMC,182053.10,A,4138.0222461,N,07032.3287280,W,3.30,210.54,091223,,,A*5A
###2023-12-09 13:20:53.990340$GNGGA,182053.10,4138.0222461,N,07032.3287280,W,1,24,0.7,12.723,M,-29.745,M,0.0,*5B
###2023-12-09 13:20:53.992143$GPGSA,A,3,03,04,16,26,28,29,31,,,,,,1.1,0.7,0.9*3B
###2023-12-09 13:20:53.993856$GLGSA,A,3,65,71,72,73,74,75,,,,,,,1.1,0.7,0.9*25
###2023-12-09 13:20:53.995453$GAGSA,A,3,04,19,21,27,,,,,,,,,1.1,0.7,0.9*27
###2023-12-09 13:20:53.997166$GBGSA,A,3,14,24,25,26,33,35,,,,,,,1.1,0.7,0.9*28
###2023-12-09 13:20:53.999503$GPGSV,2,1,07,03,31,253,42,04,40,310,44,16,59,217,44,26,89,196,48*74
###2023-12-09 13:20:54.001544$GPGSV,2,2,07,28,43,079,44,29,23,053,42,31,64,055,47,,,,*44
###2023-12-09 13:20:54.003882$GLGSV,2,1,06,65,33,323,43,71,30,174,44,72,69,234,46,73,27,048,45*60
###2023-12-09 13:20:54.005630$GLGSV,2,2,06,74,64,002,43,75,39,263,45,,,,,,,,*69
###2023-12-09 13:20:54.007961$GAGSV,1,1,04,04,35,311,43,19,77,186,40,21,81,055,46,27,27,049,41*69
###2023-12-09 13:20:54.010280$GBGSV,2,1,06,14,35,191,42,24,67,039,49,25,47,270,45,26,20,067,45*64
###2023-12-09 13:20:54.012033$GBGSV,2,2,06,33,51,222,46,35,16,062,44,,,,,,,,*6C
###2023-12-09 13:20:54.013356$GNVTG,210.54,T,,M,3.30,N,6.12,K,A*24
###2023-12-09 13:20:54.015017$GNGST,182053.10,18.000,,,,0.100,0.069,0.160*5B
###2023-12-09 13:20:54.016310$GNZDA,182053.10,09,12,2023,00,00*7D
###2023-12-09 13:20:54.016951$GNEBP,,,,,,M*13
###2023-12-09 13:20:54.183579$GNGGA,182053.30,4138.0221033,N,07032.3288789,W,1,24,0.7,12.714,M,-29.745,M,0.0,*5E
###2023-12-09 13:20:54.381936$GNGGA,182053.50,4138.0219765,N,07032.3290538,W,1,24,0.7,12.758,M,-29.745,M,0.0,*5E
###2023-12-09 13:20:54.583832$GNGGA,182053.70,4138.0218459,N,07032.3292217,W,1,24,0.7,12.753,M,-29.745,M,0.0,*52
###2023-12-09 13:20:54.784729$GNGGA,182053.90,4138.0217169,N,07032.3293851,W,1,24,0.7,12.698,M,-29.745,M,0.0,*5A
###2023-12-09 13:20:54.994898$GNRMC,182054.10,A,4138.0216276,N,07032.3295925,W,3.32,241.23,091223,,,A*5B
###2023-12-09 13:20:54.997776$GNGGA,182054.10,4138.0216276,N,07032.3295925,W,1,24,0.7,12.729,M,-29.745,M,0.0,*56
###2023-12-09 13:20:54.999584$GPGSA,A,3,03,04,16,26,28,29,31,,,,,,1.1,0.7,0.9*3B
###2023-12-09 13:20:55.001300$GLGSA,A,3,65,71,72,73,74,75,,,,,,,1.1,0.7,0.9*25
###2023-12-09 13:20:55.002901$GAGSA,A,3,04,19,21,27,,,,,,,,,1.1,0.7,0.9*27
###2023-12-09 13:20:55.004620$GBGSA,A,3,14,24,25,26,33,35,,,,,,,1.1,0.7,0.9*28
###2023-12-09 13:20:55.006964$GPGSV,2,1,07,03,31,253,43,04,40,310,45,16,59,217,45,26,89,196,48*75
###2023-12-09 13:20:55.009002$GPGSV,2,2,07,28,43,079,44,29,23,053,44,31,64,055,47,,,,*42
###2023-12-09 13:20:55.011348$GLGSV,2,1,06,65,33,323,42,71,30,174,44,72,69,234,45,73,27,048,43*64
###2023-12-09 13:20:55.013099$GLGSV,2,2,06,74,64,002,43,75,39,263,44,,,,,,,,*68
###2023-12-09 13:20:55.015439$GAGSV,1,1,04,04,35,311,43,19,77,186,40,21,81,055,47,27,27,049,41*68
###2023-12-09 13:20:55.017771$GBGSV,2,1,06,14,35,191,44,24,67,039,49,25,47,270,45,26,20,067,43*64
###2023-12-09 13:20:55.019533$GBGSV,2,2,06,33,51,222,46,35,16,062,44,,,,,,,,*6C
###2023-12-09 13:20:55.020863$GNVTG,241.23,T,,M,3.32,N,6.16,K,A*26
###2023-12-09 13:20:55.022518$GNGST,182054.10,18.000,,,,0.100,0.069,0.160*5C
###2023-12-09 13:20:55.023819$GNZDA,182054.10,09,12,2023,00,00*7A
###2023-12-09 13:20:55.024461$GNEBP,,,,,,M*13
###2023-12-09 13:20:55.183160$GNGGA,182054.30,4138.0215240,N,07032.3297940,W,1,24,0.7,12.757,M,-29.745,M,0.0,*5A
###2023-12-09 13:20:55.382959$GNGGA,182054.50,4138.0214170,N,07032.3299806,W,1,24,0.7,12.723,M,-29.745,M,0.0,*53
###2023-12-09 13:20:55.584256$GNGGA,182054.70,4138.0213357,N,07032.3301855,W,1,24,0.7,12.706,M,-29.745,M,0.0,*50
###2023-12-09 13:20:55.783032$GNGGA,182054.90,4138.0212610,N,07032.3304031,W,1,24,0.7,12.715,M,-29.745,M,0.0,*54
###2023-12-09 13:20:55.987396$GNRMC,182055.10,A,4138.0211869,N,07032.3306119,W,3.09,246.59,091223,,,A*57
###2023-12-09 13:20:55.990259$GNGGA,182055.10,4138.0211869,N,07032.3306119,W,1,24,0.7,12.726,M,-29.745,M,0.0,*57
###2023-12-09 13:20:55.992074$GPGSA,A,3,03,04,16,26,28,29,31,,,,,,1.1,0.7,0.9*3B
###2023-12-09 13:20:55.993799$GLGSA,A,3,65,71,72,73,74,75,,,,,,,1.1,0.7,0.9*25
###2023-12-09 13:20:55.995396$GAGSA,A,3,04,19,21,27,,,,,,,,,1.1,0.7,0.9*27
