###2023-12-09 12:51:00.949853$GNRMC,175100.10,A,4138.0557465,N,07032.3753002,W,0.04,110.98,091223,,,A*57
###2023-12-09 12:51:00.952739$GNGGA,175100.10,4138.0557465,N,07032.3753002,W,1,24,0.6,13.662,M,-29.744,M,0.0,*54
###2023-12-09 12:51:00.954609$GPGSA,A,3,03,04,16,26,28,29,31,32,,,,,1.1,0.6,0.9*3B
###2023-12-09 12:51:00.956325$GLGSA,A,3,65,71,72,73,74,75,,,,,,,1.1,0.6,0.9*24
###2023-12-09 12:51:00.957903$GAGSA,A,3,04,19,21,27,,,,,,,,,1.1,0.6,0.9*26
###2023-12-09 12:51:00.959561$GBGSA,A,3,14,24,25,26,33,,,,,,,,1.1,0.6,0.9*2F
###2023-12-09 12:51:00.961885$GPGSV,2,1,08,03,37,268,45,04,28,311,41,16,44,210,44,26,74,208,48*75
###2023-12-09 12:51:00.964228$GPGSV,2,2,08,28,53,065,45,29,26,066,44,31,71,024,47,32,23,138,42*7D
###2023-12-09 12:51:00.966553$GLGSV,2,1,06,65,19,329,42,71,47,171,45,72,72,288,46,73,40,038,47*6E
###2023-12-09 12:51:00.968316$GLGSV,2,2,06,74,71,321,43,75,28,248,45,,,,,,,,*66
###2023-12-09 12:51:00.970655$GAGSV,1,1,04,04,26,312,39,19,85,258,41,21,83,157,45,27,36,048,42*69
###2023-12-09 12:51:00.972981$GBGSV,2,1,05,14,48,194,43,24,77,014,48,25,37,258,45,26,29,060,44*64
###2023-12-09 12:51:00.974437$GBGSV,2,2,05,33,60,240,48,,,,,,,,,,,,*52
###2023-12-09 12:51:00.975772$GNVTG,110.98,T,,M,0.04,N,0.07,K,A*21
###2023-12-09 12:51:00.977420$GNGST,175100.10,18.000,,,,0.079,0.066,0.160*54
###2023-12-09 12:51:00.978722$GNZDA,175100.10,09,12,2023,00,00*72
###2023-12-09 12:51:00.979361$GNEBP,,,,,,M*13
###2023-12-09 12:51:01.149741$GNGGA,175100.30,4138.0557423,N,07032.3752998,W,1,24,0.6,13.673,M,-29.744,M,0.0,*5F
###2023-12-09 12:51:01.350277$GNGGA,175100.50,4138.0557398,N,07032.3753162,W,1,24,0.6,13.686,M,-29.744,M,0.0,*58
###2023-12-09 12:51:01.549336$GNGGA,175100.70,4138.0557369,N,07032.3753287,W,1,24,0.6,13.677,M,-29.744,M,0.0,*52
###2023-12-09 12:51:01.749228$GNGGA,175100.90,4138.0557370,N,07032.3753230,W,1,24,0.6,13.669,M,-29.744,M,0.0,*57
###2023-12-09 12:51:01.952760$GNRMC,175101.10,A,4138.0557375,N,07032.3753193,W,0.12,110.98,091223,,,A*5E
###2023-12-09 12:51:01.955634$GNGGA,175101.10,4138.0557375,N,07032.3753193,W,1,24,0.6,13.672,M,-29.744,M,0.0,*5B
###2023-12-09 12:51:01.957494$GPGSA,A,3,03,04,16,26,28,29,31,32,,,,,1.1,0.6,0.9*3B
###2023-12-09 12:51:01.959232$GLGSA,A,3,65,71,72,73,74,75,,,,,,,1.1,0.6,0.9*24
###2023-12-09 12:51:01.960818$GAGSA,A,3,04,19,21,27,,,,,,,,,1.1,0.6,0.9*26
###2023-12-09 12:51:01.962462$GBGSA,A,3,14,24,25,26,33,,,,,,,,1.1,0.6,0.9*2F
###2023-12-09 12:51:01.964806$GPGSV,2,1,08,03,37,268,45,04,28,311,40,16,44,210,44,26,74,208,47*7B
###2023-12-09 12:51:01.967147$GPGSV,2,2,08,28,53,065,46,29,26,066,44,31,71,024,47,32,23,138,42*7E
###2023-12-09 12:51:01.969480$GLGSV,2,1,06,65,19,329,42,71,47,171,46,72,72,288,47,73,40,038,47*6C
###2023-12-09 12:51:01.971242$GLGSV,2,2,06,74,71,321,43,75,28,248,45,,,,,,,,*66
###2023-12-09 12:51:01.973576$GAGSV,1,1,04,04,26,312,39,19,85,258,41,21,83,157,46,27,36,048,43*6B
###2023-12-09 12:51:01.975915$GBGSV,2,1,05,14,48,194,43,24,77,014,48,25,37,258,44,26,29,060,44*65
###2023-12-09 12:51:01.977373$GBGSV,2,2,05,33,60,240,48,,,,,,,,,,,,*52
###2023-12-09 12:51:01.978708$GNVTG,110.98,T,,M,0.12,N,0.22,K,A*21
###2023-12-09 12:51:01.980355$GNGST,175101.10,18.000,,,,0.079,0.066,0.160*55
###2023-12-09 12:51:01.981651$GNZDA,175101.10,09,12,2023,00,00*73
###2023-12-09 12:51:01.982290$GNEBP,,,,,,M*13
###2023-12-09 12:51:02.149422$GNGGA,175101.30,4138.0557342,N,07032.3753404,W,1,24,0.6,13.689,M,-29.744,M,0.0,*52
###2023-12-09 12:51:02.350308$GNGGA,175101.50,4138.0557303,N,07032.3753617,W,1,24,0.6,13.696,M,-29.744,M,0.0,*5F
###2023-12-09 12:51:02.550266$GNGGA,175101.70,4138.0557325,N,07032.3753592,W,1,24,0.6,13.683,M,-29.744,M,0.0,*53
###2023-12-09 12:51:02.753551$GNGGA,175101.90,4138.0557342,N,07032.3753465,W,1,24,0.6,13.667,M,-29.744,M,0.0,*5F
###2023-12-09 12:51:02.950645$GNRMC,175102.10,A,4138.0557306,N,07032.3753585,W,0.43,110.98,091223,,,A*5E
###2023-12-09 12:51:02.953497$GNGGA,175102.10,4138.0557306,N,07032.3753585,W,1,24,0.6,13.674,M,-29.744,M,0.0,*59
###2023-12-09 12:51:02.955377$GPGSA,A,3,03,04,16,26,28,29,31,32,,,,,1.1,0.6,0.9*3B
###2023-12-09 12:51:02.957098$GLGSA,A,3,65,71,72,73,74,75,,,,,,,1.1,0.6,0.9*24
###2023-12-09 12:51:02.958696$GAGSA,A,3,04,19,21,27,,,,,,,,,1.1,0.6,0.9*26
###2023-12-09 12:51:02.960350$GBGSA,A,3,14,24,25,26,33,,,,,,,,1.1,0.6,0.9*2F
###2023-12-09 12:51:02.962697$GPGSV,2,1,08,03,37,268,44,04,28,311,40,16,44,210,44,26,74,208,47*7A
###2023-12-09 12:51:02.965030$GPGSV,2,2,08,28,53,065,46,29,26,066,43,31,71,024,48,32,23,138,42*76
###2023-12-09 12:51:02.967380$GLGSV,2,1,06,65,19,329,42,71,47,171,46,72,72,288,47,73,40,038,47*6C
###2023-12-09 12:51:02.969134$GLGSV,2,2,06,74,71,321,43,75,28,248,44,,,,,,,,*67
###2023-12-09 12:51:02.971474$GAGSV,1,1,04,04,26,312,39,19,85,258,41,21,83,157,46,27,36,048,43*6B
###2023-12-09 12:51:02.973804$GBGSV,2,1,05,14,48,194,42,24,77,014,48,25,37,258,44,26,29,060,44*64
###2023-12-09 12:51:02.975274$GBGSV,2,2,05,33,60,240,47,,,,,,,,,,,,*5D
###2023-12-09 12:51:02.976597$GNVTG,110.98,T,,M,0.43,N,0.79,K,A*2B
###2023-12-09 12:51:02.978238$GNGST,175102.10,18.000,,,,0.079,0.066,0.160*56
###2023-12-09 12:51:02.979542$GNZDA,175102.10,09,12,2023,00,00*70
###2023-12-09 12:51:02.980183$GNEBP,,,,,,M*13
###2023-12-09 12:51:03.150337$GNGGA,175102.30,4138.0557273,N,07032.3753915,W,1,24,0.6,13.684,M,-29.744,M,0.0,*52
###2023-12-09 12:51:03.350214$GNGGA,175102.50,4138.0557288,N,07032.3754001,W,1,24,0.6,13.682,M,-29.744,M,0.0,*5D
###2023-12-09 12:51:03.550344$GNGGA,175102.70,4138.0557304,N,07032.3753841,W,1,24,0.6,13.679,M,-29.744,M,0.0,*55
###2023-12-09 12:51:03.750207$GNGGA,175102.90,4138.0557312,N,07032.3753839,W,1,24,0.6,13.672,M,-29.744,M,0.0,*58
###2023-12-09 12:51:03.950026$GNRMC,175103.10,A,4138.0557320,N,07032.3754115,W,0.41,110.98,091223,,,A*53
###2023-12-09 12:51:03.952891$GNGGA,175103.10,4138.0557320,N,07032.3754115,W,1,24,0.6,13.670,M,-29.744,M,0.0,*52
###2023-12-09 12:51:03.954757$GPGSA,A,3,03,04,16,26,28,29,31,32,,,,,1.1,0.6,0.9*3B
###2023-12-09 12:51:03.956460$GLGSA,A,3,65,71,72,73,74,75,,,,,,,1.1,0.6,0.9*24
###2023-12-09 12:51:03.958030$GAGSA,A,3,04,19,21,27,,,,,,,,,1.1,0.6,0.9*26
###2023-12-09 12:51:03.959687$GBGSA,A,3,14,24,25,26,33,,,,,,,,1.1,0.6,0.9*2F
###2023-12-09 12:51:03.962014$GPGSV,2,1,08,03,37,268,44,04,28,311,39,16,44,210,44,26,74,208,47*74
###2023-12-09 12:51:03.964357$GPGSV,2,2,08,28,53,065,46,29,26,066,42,31,71,024,48,32,23,138,43*76
###2023-12-09 12:51:03.966692$GLGSV,2,1,06,65,19,329,42,71,47,171,46,72,72,288,47,73,40,038,48*63
###2023-12-09 12:51:03.968441$GLGSV,2,2,06,74,71,321,43,75,28,248,44,,,,,,,,*67
###2023-12-09 12:51:03.970771$GAGSV,1,1,04,04,26,312,40,19,85,258,40,21,83,157,45,27,36,048,43*67
###2023-12-09 12:51:03.973098$GBGSV,2,1,05,14,48,194,43,24,77,014,48,25,37,258,44,26,29,060,43*62
###2023-12-09 12:51:03.974549$GBGSV,2,2,05,33,60,240,47,,,,,,,,,,,,*5D
###2023-12-09 12:51:03.975881$GNVTG,110.98,T,,M,0.41,N,0.76,K,A*26
###2023-12-09 12:51:03.977531$GNGST,175103.10,18.000,,,,0.079,0.067,0.160*56
###2023-12-09 12:51:03.978833$GNZDA,175103.10,09,12,2023,00,00*71
###2023-12-09 12:51:03.979471$GNEBP,,,,,,M*13
###2023-12-09 12:51:04.149484$GNGGA,175103.30,4138.0557340,N,07032.3754355,W,1,24,0.6,13.667,M,-29.744,M,0.0,*56
###2023-12-09 12:51:04.351174$GNGGA,175103.50,4138.0557351,N,07032.3754430,W,1,24,0.6,13.670,M,-29.744,M,0.0,*52
###2023-12-09 12:51:04.550318$GNGGA,175103.70,4138.0557333,N,07032.3754400,W,1,24,0.6,13.671,M,-29.744,M,0.0,*56
###2023-12-09 12:51:04.752583$GNGGA,175103.90,4138.0557343,N,07032.3754391,W,1,24,0.6,13.658,M,-29.744,M,0.0,*5B
###2023-12-09 12:51:04.951464$GNRMC,175104.10,A,4138.0557382,N,07032.3754564,W,0.45,110.98,091223,,,A*5A
###2023-12-09 12:51:04.954315$GNGGA,175104.10,4138.0557382,N,07032.3754564,W,1,24,0.6,13.648,M,-29.744,M,0.0,*54
###2023-12-09 12:51:04.956191$GPGSA,A,3,03,04,16,26,28,29,31,32,,,,,1.1,0.6,0.9*3B
###2023-12-09 12:51:04.957902$GLGSA,A,3,65,71,72,73,74,75,,,,,,,1.1,0.6,0.9*24
###2023-12-09 12:51:04.959493$GAGSA,A,3,04,19,21,27,,,,,,,,,1.1,0.6,0.9*26
###2023-12-09 12:51:04.961134$GBGSA,A,3,14,24,25,26,33,,,,,,,,1.1,0.6,0.9*2F
###2023-12-09 12:51:04.963464$GPGSV,2,1,08,03,37,268,44,04,28,311,40,16,44,210,45,26,74,208,48*74
###2023-12-09 12:51:04.966030$GPGSV,2,2,08,28,53,065,46,29,26,066,43,31,71,024,48,32,23,138,44*70
###2023-12-09 12:51:04.968398$GLGSV,2,1,06,65,19,329,41,71,47,171,46,72,72,288,47,73,40,038,47*6F
###2023-12-09 12:51:04.970154$GLGSV,2,2,06,74,71,321,43,75,28,248,43,,,,,,,,*60
###2023-12-09 12:51:04.972494$GAGSV,1,1,04,04,26,312,41,19,85,258,41,21,83,157,46,27,36,048,43*64
###2023-12-09 12:51:04.974835$GBGSV,2,1,05,14,48,194,44,24,77,014,50,25,37,258,45,26,29,060,46*68
###2023-12-09 12:51:04.976290$GBGSV,2,2,05,33,60,240,49,,,,,,,,,,,,*53
###2023-12-09 12:51:04.977611$GNVTG,110.98,T,,M,0.45,N,0.83,K,A*28
###2023-12-09 12:51:04.979303$GNGST,175104.10,18.000,,,,0.079,0.066,0.160*50
###2023-12-09 12:51:04.980596$GNZDA,175104.10,09,12,2023,00,00*76
