###2023-12-09 12:40:26.976093$GNGST,174026.10,19.000,,,,0.078,0.069,0.160*5F
###2023-12-09 12:40:26.977684$GNZDA,174026.10,09,12,2023,00,00*76
###2023-12-09 12:40:26.978508$GNEBP,,,,,,M*13
###2023-12-09 12:40:27.141787$GNGGA,174026.30,4138.0578524,N,07032.3840202,W,1,23,0.7,13.565,M,-29.744,M,0.0,*56
###2023-12-09 12:40:27.340853$GNGGA,174026.50,4138.0578576,N,07032.3840261,W,1,23,0.7,13.547,M,-29.744,M,0.0,*52
###2023-12-09 12:40:27.541247$GNGGA,174026.70,4138.0578616,N,07032.3840327,W,1,23,0.7,13.545,M,-29.744,M,0.0,*54
###2023-12-09 12:40:27.741325$GNGGA,174026.90,4138.0578847,N,07032.3840635,W,1,23,0.7,13.589,M,-29.744,M,0.0,*56
###2023-12-09 12:40:27.940584$GNRMC,174027.10,A,4138.0579196,N,07032.3841104,W,0.87,315.09,091223,,,A*58
###2023-12-09 12:40:27.943453$GNGGA,174027.10,4138.0579196,N,07032.3841104,W,1,23,0.7,13.616,M,-29.744,M,0.0,*5A
###2023-12-09 12:40:27.945312$GPGSA,A,3,03,04,16,26,28,29,31,32,,,,,1.2,0.7,1.0*31
###2023-12-09 12:40:27.947013$GLGSA,A,3,71,72,73,74,75,,,,,,,,1.2,0.7,1.0*2D
###2023-12-09 12:40:27.948645$GAGSA,A,3,04,19,21,27,,,,,,,,,1.2,0.7,1.0*2C
###2023-12-09 12:40:27.950303$GBGSA,A,3,14,24,25,26,33,,,,,,,,1.2,0.7,1.0*25
###2023-12-09 12:40:27.952656$GPGSV,2,1,08,03,38,274,44,04,24,311,42,16,39,208,43,26,69,207,47*71
###2023-12-09 12:40:27.955012$GPGSV,2,2,08,28,56,059,45,29,25,071,43,31,73,010,48,32,28,135,44*7F
###2023-12-09 12:40:27.957357$GLGSV,2,1,05,71,54,170,47,72,68,305,47,73,45,035,47,74,71,299,43*6F
###2023-12-09 12:40:27.958837$GLGSV,2,2,05,75,24,243,42,,,,,,,,,,,,*57
###2023-12-09 12:40:27.961161$GAGSV,1,1,04,04,23,311,43,19,83,293,41,21,80,172,46,27,40,049,45*63
###2023-12-09 12:40:27.963510$GBGSV,2,1,05,14,53,197,45,24,80,355,48,25,34,254,45,26,33,058,45*6B
###2023-12-09 12:40:27.964969$GBGSV,2,2,05,33,62,250,47,,,,,,,,,,,,*5E
###2023-12-09 12:40:27.966289$GNVTG,315.09,T,,M,0.87,N,1.62,K,A*27
###2023-12-09 12:40:27.967949$GNGST,174027.10,18.000,,,,0.078,0.069,0.160*5F
###2023-12-09 12:40:27.969243$GNZDA,174027.10,09,12,2023,00,00*77
###2023-12-09 12:40:27.969881$GNEBP,,,,,,M*13
###2023-12-09 12:40:28.141583$GNGGA,174027.30,4138.0579374,N,07032.3841332,W,1,23,0.7,13.618,M,-29.744,M,0.0,*5F
###2023-12-09 12:40:28.341953$GNGGA,174027.50,4138.0579239,N,07032.3841148,W,1,23,0.7,13.572,M,-29.744,M,0.0,*51
###2023-12-09 12:40:28.543094$GNGGA,174027.70,4138.0579214,N,07032.3841150,W,1,22,0.7,13.540,M,-29.744,M,0.0,*55
###2023-12-09 12:40:28.740279$GNGGA,174027.90,4138.0579624,N,07032.3841728,W,1,23,0.7,13.604,M,-29.744,M,0.0,*57
###2023-12-09 12:40:28.942639$GNRMC,174028.10,A,4138.0580086,N,07032.3842376,W,0.72,315.10,091223,,,A*57
###2023-12-09 12:40:28.945484$GNGGA,174028.10,4138.0580086,N,07032.3842376,W,1,23,0.7,13.616,M,-29.744,M,0.0,*57
###2023-12-09 12:40:28.947356$GPGSA,A,3,03,04,16,26,28,29,31,32,,,,,1.2,0.7,1.0*31
###2023-12-09 12:40:28.949016$GLGSA,A,3,71,72,73,74,75,,,,,,,,1.2,0.7,1.0*2D
###2023-12-09 12:40:28.950606$GAGSA,A,3,04,19,21,27,,,,,,,,,1.2,0.7,1.0*2C
###2023-12-09 12:40:28.952244$GBGSA,A,3,14,24,25,26,33,,,,,,,,1.2,0.7,1.0*25
###2023-12-09 12:40:28.954551$GPGSV,2,1,08,03,38,274,46,04,24,311,43,16,39,208,42,26,69,207,46*72
###2023-12-09 12:40:28.956895$GPGSV,2,2,08,28,56,059,43,29,25,071,42,31,73,010,47,32,28,135,43*70
###2023-12-09 12:40:28.959240$GLGSV,2,1,05,71,54,170,45,72,68,305,47,73,45,035,46,74,71,299,43*6C
###2023-12-09 12:40:28.960694$GLGSV,2,2,05,75,24,243,42,,,,,,,,,,,,*57
###2023-12-09 12:40:28.963018$GAGSV,1,1,04,04,23,311,43,19,83,293,40,21,80,172,45,27,40,049,45*61
###2023-12-09 12:40:28.965334$GBGSV,2,1,05,14,53,197,43,24,80,355,47,25,34,254,45,26,33,058,44*63
###2023-12-09 12:40:28.966788$GBGSV,2,2,05,33,62,250,46,,,,,,,,,,,,*5F
###2023-12-09 12:40:28.968101$GNVTG,315.10,T,,M,0.72,N,1.33,K,A*21
###2023-12-09 12:40:28.969735$GNGST,174028.10,18.000,,,,0.078,0.069,0.160*50
###2023-12-09 12:40:28.971029$GNZDA,174028.10,09,12,2023,00,00*78
###2023-12-09 12:40:28.971671$GNEBP,,,,,,M*13
###2023-12-09 12:40:29.140952$GNGGA,174028.30,4138.0580133,N,07032.3842413,W,1,23,0.7,13.635,M,-29.744,M,0.0,*5F
###2023-12-09 12:40:29.341797$GNGGA,174028.50,4138.0579936,N,07032.3842111,W,1,23,0.7,13.597,M,-29.744,M,0.0,*5E
###2023-12-09 12:40:29.543274$GNGGA,174028.70,4138.0580017,N,07032.3842255,W,1,21,0.7,13.557,M,-29.744,M,0.0,*5D
###2023-12-09 12:40:29.740222$GNGGA,174028.90,4138.0580460,N,07032.3842897,W,1,23,0.7,13.600,M,-29.744,M,0.0,*50
###2023-12-09 12:40:29.941717$GNRMC,174029.10,A,4138.0580827,N,07032.3843396,W,0.52,316.18,091223,,,A*53
###2023-12-09 12:40:29.944607$GNGGA,174029.10,4138.0580827,N,07032.3843396,W,1,23,0.7,13.618,M,-29.744,M,0.0,*54
###2023-12-09 12:40:29.946497$GPGSA,A,3,03,04,16,26,28,29,31,32,,,,,1.2,0.7,1.0*31
###2023-12-09 12:40:29.948188$GLGSA,A,3,71,72,73,74,75,,,,,,,,1.2,0.7,1.0*2D
###2023-12-09 12:40:29.949785$GAGSA,A,3,04,19,21,27,,,,,,,,,1.2,0.7,1.0*2C
###2023-12-09 12:40:29.951459$GBGSA,A,3,14,24,25,26,33,,,,,,,,1.2,0.7,1.0*25
###2023-12-09 12:40:29.953801$GPGSV,2,1,08,03,38,274,45,04,24,311,44,16,39,208,43,26,69,207,46*77
###2023-12-09 12:40:29.956206$GPGSV,2,2,08,28,56,059,43,29,25,071,41,31,73,010,48,32,28,135,41*7E
###2023-12-09 12:40:29.958575$GLGSV,2,1,05,71,54,170,43,72,68,305,46,73,45,035,47,74,71,299,42*6B
###2023-12-09 12:40:29.960044$GLGSV,2,2,05,75,24,243,41,,,,,,,,,,,,*54
###2023-12-09 12:40:29.962377$GAGSV,1,1,04,04,23,311,44,19,83,293,40,21,80,172,45,27,40,049,44*67
###2023-12-09 12:40:29.964737$GBGSV,2,1,05,14,53,197,45,24,80,355,48,25,34,254,44,26,33,058,44*6B
###2023-12-09 12:40:29.966201$GBGSV,2,2,05,33,62,250,47,,,,,,,,,,,,*5E
###2023-12-09 12:40:29.967547$GNVTG,316.18,T,,M,0.52,N,0.97,K,A*27
###2023-12-09 12:40:29.969210$GNGST,174029.10,18.000,,,,0.079,0.069,0.170*51
###2023-12-09 12:40:29.970506$GNZDA,174029.10,09,12,2023,00,00*79
###2023-12-09 12:40:29.971158$GNEBP,,,,,,M*13
###2023-12-09 12:40:30.143522$GNGGA,174029.30,4138.0580856,N,07032.3843465,W,1,23,0.7,13.667,M,-29.744,M,0.0,*53
###2023-12-09 12:40:30.343900$GNGGA,174029.50,4138.0580781,N,07032.3843281,W,1,23,0.7,13.634,M,-29.744,M,0.0,*5A
###2023-12-09 12:40:30.544826$GNGGA,174029.70,4138.0580859,N,07032.3843384,W,1,21,0.8,13.568,M,-29.744,M,0.0,*51
###2023-12-09 12:40:30.741380$GNGGA,174029.90,4138.0581210,N,07032.3843947,W,1,23,0.7,13.602,M,-29.744,M,0.0,*5E
###2023-12-09 12:40:30.944169$GNRMC,174030.10,A,4138.0581586,N,07032.3844523,W,0.78,312.88,091223,,,A*56
###2023-12-09 12:40:30.947084$GNGGA,174030.10,4138.0581586,N,07032.3844523,W,1,23,0.7,13.629,M,-29.744,M,0.0,*56
###2023-12-09 12:40:30.948969$GPGSA,A,3,03,04,16,26,28,29,31,32,,,,,1.2,0.7,1.0*31
###2023-12-09 12:40:30.950637$GLGSA,A,3,71,72,73,74,75,,,,,,,,1.2,0.7,1.0*2D
###2023-12-09 12:40:30.952216$GAGSA,A,3,04,19,21,27,,,,,,,,,1.2,0.7,1.0*2C
###2023-12-09 12:40:30.953857$GBGSA,A,3,14,24,25,26,33,,,,,,,,1.2,0.7,1.0*25
###2023-12-09 12:40:30.956200$GPGSV,2,1,08,03,38,274,46,04,24,311,44,16,39,208,42,26,69,207,47*74
###2023-12-09 12:40:30.958535$GPGSV,2,2,08,28,56,059,43,29,25,071,41,31,73,010,48,32,28,135,41*7E
###2023-12-09 12:40:30.960892$GLGSV,2,1,05,71,54,170,45,72,68,305,46,73,45,035,46,74,71,299,43*6D
###2023-12-09 12:40:30.962351$GLGSV,2,2,05,75,24,243,42,,,,,,,,,,,,*57
###2023-12-09 12:40:30.964697$GAGSV,1,1,04,04,23,311,44,19,83,293,40,21,80,172,44,27,40,049,44*66
###2023-12-09 12:40:30.967040$GBGSV,2,1,05,14,53,197,44,24,80,355,48,25,34,254,43,26,33,058,44*6D
###2023-12-09 12:40:30.968496$GBGSV,2,2,05,33,62,250,46,,,,,,,,,,,,*5F
###2023-12-09 12:40:30.969821$GNVTG,312.88,T,,M,0.78,N,1.44,K,A*2D
###2023-12-09 12:40:30.971486$GNGST,174030.10,18.000,,,,0.079,0.070,0.170*51
###2023-12-09 12:40:30.972781$GNZDA,174030.10,09,12,2023,00,00*71
###2023-12-09 12:40:30.973419$GNEBP,,,,,,M*13
###2023-12-09 12:40:31.142468$GNGGA,174030.30,4138.0581724,N,07032.3844688,W,1,23,0.7,13.672,M,-29.744,M,0.0,*52
###2023-12-09 12:40:31.343952$GNGGA,174030.50,4138.0581660,N,07032.3844472,W,1,23,0.7,13.660,M,-29.744,M,0.0,*51
###2023-12-09 12:40:31.543484$GNGGA,174030.70,4138.0581686,N,07032.3844518,W,1,21,0.8,13.591,M,-29.744,M,0.0,*56
###2023-12-09 12:40:31.741338$GNGGA,174030.90,4138.0582009,N,07032.3845021,W,1,23,0.7,13.614,M,-29.744,M,0.0,*57
###2023-12-09 12:40:31.941628$GNRMC,174031.10,A,4138.0582363,N,07032.3845546,W,0.76,313.71,091223,,,A*52
###2023-12-09 12:40:31.944517$GNGGA,174031.10,4138.0582363,N,07032.3845546,W,1,23,0.7,13.627,M,-29.744,M,0.0,*55
###2023-12-09 12:40:31.946388$GPGSA,A,3,03,04,16,26,28,29,31,32,,,,,1.2,0.7,1.0*31
###2023-12-09 12:40:31.948070$GLGSA,A,3,71,72,73,74,75,,,,,,,,1.2,0.7,1.0*2D
###2023-12-09 12:40:31.949667$GAGSA,A,3,04,19,21,27,,,,,,,,,1.2,0.7,1.0*2C
###2023-12-09 12:40:31.951331$GBGSA,A,3,14,24,25,26,33,,,,,,,,1.2,0.7,1.0*25
###2023-12-09 12:40:31.953659$GPGSV,2,1,08,03,38,274,45,04,24,311,44,16,39,208,43,26,69,207,47*76
###2023-12-09 12:40:31.956002$GPGSV,2,2,08,28,56,059,44,29,25,071,42,31,73,010,47,32,28,135,43*77
###2023-12-09 12:40:31.958335$GLGSV,2,1,05,71,54,170,47,72,68,305,46,73,45,035,47,74,71,299,43*6E
