###2023-12-09 12:36:57.944515$GLGSA,A,3,71,72,73,74,75,,,,,,,,1.2,0.7,1.0*2D
###2023-12-09 12:36:57.946133$GAGSA,A,3,04,19,21,27,,,,,,,,,1.2,0.7,1.0*2C
###2023-12-09 12:36:57.947831$GBGSA,A,3,14,24,25,26,33,,,,,,,,1.2,0.7,1.0*25
###2023-12-09 12:36:57.950188$GPGSV,2,1,08,03,38,276,45,04,22,311,41,16,37,207,43,26,67,207,48*77
###2023-12-09 12:36:57.952552$GPGSV,2,2,08,28,57,057,45,29,25,073,43,31,73,004,46,32,29,134,42*7F
###2023-12-09 12:36:57.954940$GLGSV,2,1,05,71,56,169,48,72,66,308,46,73,47,034,46,74,71,293,42*61
###2023-12-09 12:36:57.956407$GLGSV,2,2,05,75,22,241,43,,,,,,,,,,,,*52
###2023-12-09 12:36:57.958750$GAGSV,1,1,04,04,21,311,40,19,82,299,40,21,78,175,46,27,41,049,43*6F
###2023-12-09 12:36:57.961082$GBGSV,2,1,05,14,55,197,45,24,80,348,49,25,33,253,46,26,34,058,44*65
###2023-12-09 12:36:57.962540$GBGSV,2,2,05,33,63,253,48,,,,,,,,,,,,*53
###2023-12-09 12:36:57.963894$GNVTG,353.15,T,,M,2.94,N,5.44,K,A*28
###2023-12-09 12:36:57.965539$GNGST,173657.10,18.000,,,,0.080,0.070,0.160*56
###2023-12-09 12:36:57.966839$GNZDA,173657.10,09,12,2023,00,00*71
###2023-12-09 12:36:57.967477$GNEBP,,,,,,M*13
###2023-12-09 12:36:58.136199$GNGGA,173657.30,4138.0528559,N,07032.3532179,W,1,23,0.7,13.197,M,-29.744,M,0.0,*50
###2023-12-09 12:36:58.337659$GNGGA,173657.50,4138.0530165,N,07032.3532199,W,1,23,0.7,13.197,M,-29.744,M,0.0,*5A
###2023-12-09 12:36:58.538300$GNGGA,173657.70,4138.0531750,N,07032.3532159,W,1,23,0.7,13.194,M,-29.744,M,0.0,*56
###2023-12-09 12:36:58.736332$GNGGA,173657.90,4138.0533252,N,07032.3532362,W,1,23,0.7,13.194,M,-29.744,M,0.0,*57
###2023-12-09 12:36:58.939174$GNRMC,173658.10,A,4138.0534654,N,07032.3532743,W,2.55,348.85,091223,,,A*5C
###2023-12-09 12:36:58.942661$GNGGA,173658.10,4138.0534654,N,07032.3532743,W,1,23,0.7,13.208,M,-29.744,M,0.0,*54
###2023-12-09 12:36:58.944908$GPGSA,A,3,03,04,16,26,28,29,31,32,,,,,1.2,0.7,1.0*31
###2023-12-09 12:36:58.946921$GLGSA,A,3,71,72,73,74,75,,,,,,,,1.2,0.7,1.0*2D
###2023-12-09 12:36:58.948849$GAGSA,A,3,04,19,21,27,,,,,,,,,1.2,0.7,1.0*2C
###2023-12-09 12:36:58.950859$GBGSA,A,3,14,24,25,26,33,,,,,,,,1.2,0.7,1.0*25
###2023-12-09 12:36:58.953671$GPGSV,2,1,08,03,38,276,44,04,22,311,40,16,37,207,44,26,67,207,48*70
###2023-12-09 12:36:58.956500$GPGSV,2,2,08,28,57,057,46,29,25,073,43,31,73,004,46,32,29,134,43*7D
###2023-12-09 12:36:58.959336$GLGSV,2,1,05,71,56,169,47,72,66,308,46,73,47,034,46,74,71,293,42*6E
###2023-12-09 12:36:58.961095$GLGSV,2,2,05,75,22,241,45,,,,,,,,,,,,*54
###2023-12-09 12:36:58.963943$GAGSV,1,1,04,04,21,311,39,19,82,299,40,21,78,175,46,27,41,049,43*61
###2023-12-09 12:36:58.966755$GBGSV,2,1,05,14,55,197,45,24,80,348,48,25,33,253,45,26,34,058,45*66
###2023-12-09 12:36:58.968519$GBGSV,2,2,05,33,63,253,49,,,,,,,,,,,,*52
###2023-12-09 12:36:58.970113$GNVTG,348.85,T,,M,2.55,N,4.72,K,A*22
###2023-12-09 12:36:58.972121$GNGST,173658.10,18.000,,,,0.080,0.070,0.160*59
###2023-12-09 12:36:58.973671$GNZDA,173658.10,09,12,2023,00,00*7E
###2023-12-09 12:36:58.974439$GNEBP,,,,,,M*13
###2023-12-09 12:36:59.137136$GNGGA,173658.30,4138.0536038,N,07032.3533111,W,1,23,0.7,13.208,M,-29.744,M,0.0,*58
###2023-12-09 12:36:59.337549$GNGGA,173658.50,4138.0537383,N,07032.3533541,W,1,23,0.7,13.213,M,-29.744,M,0.0,*57
###2023-12-09 12:36:59.538660$GNGGA,173658.70,4138.0538719,N,07032.3534067,W,1,23,0.7,13.221,M,-29.744,M,0.0,*5A
###2023-12-09 12:36:59.740571$GNGGA,173658.90,4138.0540088,N,07032.3534674,W,1,23,0.7,13.233,M,-29.744,M,0.0,*53
###2023-12-09 12:36:59.937697$GNRMC,173659.10,A,4138.0541450,N,07032.3535306,W,2.60,339.32,091223,,,A*57
###2023-12-09 12:36:59.941166$GNGGA,173659.10,4138.0541450,N,07032.3535306,W,1,23,0.7,13.228,M,-29.744,M,0.0,*51
###2023-12-09 12:36:59.943427$GPGSA,A,3,03,04,16,26,28,29,31,32,,,,,1.2,0.7,1.0*31
###2023-12-09 12:36:59.945417$GLGSA,A,3,71,72,73,74,75,,,,,,,,1.2,0.7,1.0*2D
###2023-12-09 12:36:59.947364$GAGSA,A,3,04,19,21,27,,,,,,,,,1.2,0.7,1.0*2C
###2023-12-09 12:36:59.949370$GBGSA,A,3,14,24,25,26,33,,,,,,,,1.2,0.7,1.0*25
###2023-12-09 12:36:59.952201$GPGSV,2,1,08,03,38,276,46,04,22,311,40,16,37,207,44,26,67,207,47*7D
###2023-12-09 12:36:59.955034$GPGSV,2,2,08,28,57,057,46,29,25,073,43,31,73,004,47,32,29,134,44*7B
###2023-12-09 12:36:59.957883$GLGSV,2,1,05,71,56,169,47,72,66,308,46,73,47,034,46,74,71,293,42*6E
###2023-12-09 12:36:59.959652$GLGSV,2,2,05,75,22,241,45,,,,,,,,,,,,*54
###2023-12-09 12:36:59.962450$GAGSV,1,1,04,04,21,311,39,19,82,299,40,21,78,175,46,27,41,049,43*61
###2023-12-09 12:36:59.965272$GBGSV,2,1,05,14,54,197,45,24,80,348,49,25,33,253,46,26,34,058,45*65
###2023-12-09 12:36:59.967030$GBGSV,2,2,05,33,63,253,48,,,,,,,,,,,,*53
###2023-12-09 12:36:59.968619$GNVTG,339.32,T,,M,2.60,N,4.82,K,A*21
###2023-12-09 12:36:59.970618$GNGST,173659.10,18.000,,,,0.081,0.070,0.160*59
###2023-12-09 12:36:59.972166$GNZDA,173659.10,09,12,2023,00,00*7F
###2023-12-09 12:36:59.972935$GNEBP,,,,,,M*13
###2023-12-09 12:37:00.137731$GNGGA,173659.30,4138.0542770,N,07032.3536048,W,1,23,0.7,13.224,M,-29.744,M,0.0,*57
###2023-12-09 12:37:00.336887$GNGGA,173659.50,4138.0544102,N,07032.3536841,W,1,23,0.7,13.225,M,-29.744,M,0.0,*54
###2023-12-09 12:37:00.537941$GNGGA,173659.70,4138.0545426,N,07032.3537620,W,1,23,0.7,13.226,M,-29.744,M,0.0,*5F
###2023-12-09 12:37:00.737795$GNGGA,173659.90,4138.0546663,N,07032.3538474,W,1,23,0.7,13.226,M,-29.744,M,0.0,*5D
###2023-12-09 12:37:00.937100$GNRMC,173700.10,A,4138.0547830,N,07032.3539440,W,2.39,326.36,091223,,,A*59
###2023-12-09 12:37:00.940569$GNGGA,173700.10,4138.0547830,N,07032.3539440,W,1,23,0.7,13.227,M,-29.744,M,0.0,*56
###2023-12-09 12:37:00.942827$GPGSA,A,3,03,04,16,26,28,29,31,32,,,,,1.2,0.7,1.0*31
###2023-12-09 12:37:00.944821$GLGSA,A,3,71,72,73,74,75,,,,,,,,1.2,0.7,1.0*2D
###2023-12-09 12:37:00.946794$GAGSA,A,3,04,19,21,27,,,,,,,,,1.2,0.7,1.0*2C
###2023-12-09 12:37:00.948877$GBGSA,A,3,14,24,25,26,33,,,,,,,,1.2,0.7,1.0*25
###2023-12-09 12:37:00.951777$GPGSV,2,1,08,03,38,276,44,04,22,311,37,16,37,207,45,26,67,207,47*7E
###2023-12-09 12:37:00.954598$GPGSV,2,2,08,28,57,057,45,29,25,073,42,31,73,004,46,32,29,134,44*78
###2023-12-09 12:37:00.957396$GLGSV,2,1,05,71,56,169,48,72,66,308,45,73,47,034,46,74,71,293,42*62
###2023-12-09 12:37:00.959161$GLGSV,2,2,05,75,22,241,46,,,,,,,,,,,,*57
###2023-12-09 12:37:00.961945$GAGSV,1,1,04,04,21,311,37,19,82,299,40,21,78,175,46,27,41,049,43*6F
###2023-12-09 12:37:00.964758$GBGSV,2,1,05,14,54,197,45,24,80,348,49,25,33,253,45,26,34,058,45*66
###2023-12-09 12:37:00.966505$GBGSV,2,2,05,33,63,253,47,,,,,,,,,,,,*5C
###2023-12-09 12:37:00.968109$GNVTG,326.36,T,,M,2.39,N,4.43,K,A*2A
###2023-12-09 12:37:00.970080$GNGST,173700.10,18.000,,,,0.082,0.070,0.160*57
###2023-12-09 12:37:00.971645$GNZDA,173700.10,09,12,2023,00,00*72
###2023-12-09 12:37:00.972410$GNEBP,,,,,,M*13
###2023-12-09 12:37:01.137360$GNGGA,173700.30,4138.0548946,N,07032.3540476,W,1,23,0.7,13.227,M,-29.744,M,0.0,*50
###2023-12-09 12:37:01.338264$GNGGA,173700.50,4138.0550010,N,07032.3541567,W,1,23,0.7,13.227,M,-29.744,M,0.0,*55
###2023-12-09 12:37:01.541293$GNGGA,173700.70,4138.0551004,N,07032.3542739,W,1,23,0.7,13.229,M,-29.744,M,0.0,*57
###2023-12-09 12:37:01.736770$GNGGA,173700.90,4138.0551966,N,07032.3543986,W,1,23,0.7,13.232,M,-29.744,M,0.0,*55
###2023-12-09 12:37:01.937107$GNRMC,173701.10,A,4138.0552920,N,07032.3545259,W,2.39,314.30,091223,,,A*5E
###2023-12-09 12:37:01.939976$GNGGA,173701.10,4138.0552920,N,07032.3545259,W,1,23,0.7,13.230,M,-29.744,M,0.0,*50
###2023-12-09 12:37:01.941824$GPGSA,A,3,03,04,16,26,28,29,31,32,,,,,1.2,0.7,1.0*31
###2023-12-09 12:37:01.943483$GLGSA,A,3,71,72,73,74,75,,,,,,,,1.2,0.7,1.0*2D
###2023-12-09 12:37:01.945072$GAGSA,A,3,04,19,21,27,,,,,,,,,1.2,0.7,1.0*2C
###2023-12-09 12:37:01.946750$GBGSA,A,3,14,24,25,26,33,,,,,,,,1.2,0.7,1.0*25
###2023-12-09 12:37:01.949111$GPGSV,2,1,08,03,38,276,44,04,22,311,37,16,37,207,45,26,67,207,47*7E
###2023-12-09 12:37:01.951497$GPGSV,2,2,08,28,57,057,45,29,25,073,41,31,73,004,46,32,29,134,44*7B
###2023-12-09 12:37:01.953841$GLGSV,2,1,05,71,56,169,48,72,66,308,45,73,47,034,47,74,71,293,42*63
###2023-12-09 12:37:01.955312$GLGSV,2,2,05,75,22,241,44,,,,,,,,,,,,*55
###2023-12-09 12:37:01.957652$GAGSV,1,1,04,04,21,311,36,19,82,299,40,21,78,175,46,27,41,049,45*68
###2023-12-09 12:37:01.960267$GBGSV,2,1,05,14,54,197,45,24,80,348,49,25,33,253,45,26,34,058,45*66
###2023-12-09 12:37:01.961737$GBGSV,2,2,05,33,63,253,47,,,,,,,,,,,,*5C
###2023-12-09 12:37:01.963081$GNVTG,314.30,T,,M,2.39,N,4.43,K,A*2D
###2023-12-09 12:37:01.964731$GNGST,173701.10,18.000,,,,0.083,0.071,0.160*56
###2023-12-09 12:37:01.966023$GNZDA,173701.10,09,12,2023,00,00*73
###2023-12-09 12:37:01.966681$GNEBP,,,,,,M*13
###2023-12-09 12:37:02.136781$GNGGA,173701.30,4138.0553857,N,07032.3546549,W,1,23,0.7,13.231,M,-29.744,M,0.0,*56
###2023-12-09 12:37:02.337115$GNGGA,173701.50,4138.0554814,N,07032.3547887,W,1,23,0.7,13.232,M,-29.744,M,0.0,*5D
