###2023-12-09 13:27:31.017344$GAGSV,1,1,04,04,37,311,43,19,75,184,40,21,80,050,46,27,25,049,41*6D
###2023-12-09 13:27:31.019735$GBGSV,2,1,06,14,32,190,42,24,65,042,48,25,49,273,46,26,18,069,44*67
###2023-12-09 13:27:31.021500$GBGSV,2,2,06,33,48,220,44,35,16,059,45,,,,,,,,*6D
###2023-12-09 13:27:31.022848$GNVTG,226.69,T,,M,3.71,N,6.88,K,A*29
###2023-12-09 13:27:31.024506$GNGST,182730.10,18.000,,,,0.100,0.071,0.160*50
###2023-12-09 13:27:31.025799$GNZDA,182730.10,09,12,2023,00,00*7F
###2023-12-09 13:27:31.026435$GNEBP,,,,,,M*13
###2023-12-09 13:27:31.189417$GNGGA,182730.30,4138.0508203,N,07032.4124959,W,1,24,0.6,13.007,M,-29.745,M,0.0,*55
###2023-12-09 13:27:31.393754$GNGGA,182730.50,4138.0506835,N,07032.4127056,W,1,24,0.6,13.013,M,-29.745,M,0.0,*52
###2023-12-09 13:27:31.589013$GNGGA,182730.70,4138.0505620,N,07032.4129275,W,1,24,0.6,13.025,M,-29.745,M,0.0,*51
###2023-12-09 13:27:31.789598$GNGGA,182730.90,4138.0504563,N,07032.4131630,W,1,24,0.6,13.022,M,-29.745,M,0.0,*51
###2023-12-09 13:27:31.992291$GNRMC,182731.10,A,4138.0503567,N,07032.4134026,W,3.73,242.96,091223,,,A*56
###2023-12-09 13:27:31.995172$GNGGA,182731.10,4138.0503567,N,07032.4134026,W,1,24,0.6,13.016,M,-29.745,M,0.0,*58
###2023-12-09 13:27:31.996980$GPGSA,A,3,03,04,16,26,28,29,31,,,,,,1.1,0.6,0.9*3A
###2023-12-09 13:27:31.998716$GLGSA,A,3,65,71,72,73,74,75,,,,,,,1.1,0.6,0.9*24
###2023-12-09 13:27:32.000302$GAGSA,A,3,04,19,21,27,,,,,,,,,1.1,0.6,0.9*26
###2023-12-09 13:27:32.002012$GBGSA,A,3,14,24,25,26,33,35,,,,,,,1.1,0.6,0.9*29
###2023-12-09 13:27:32.004349$GPGSV,2,1,07,03,28,249,42,04,43,309,44,16,63,220,45,26,87,041,48*75
###2023-12-09 13:27:32.006395$GPGSV,2,2,07,28,40,082,44,29,22,049,43,31,61,061,47,,,,*4A
###2023-12-09 13:27:32.008746$GLGSV,2,1,06,65,35,321,42,71,26,175,44,72,66,227,45,73,25,050,43*60
###2023-12-09 13:27:32.010490$GLGSV,2,2,06,74,62,008,43,75,41,267,45,,,,,,,,*6E
###2023-12-09 13:27:32.012837$GAGSV,1,1,04,04,37,311,41,19,75,184,40,21,80,050,46,27,25,049,41*6F
###2023-12-09 13:27:32.015175$GBGSV,2,1,06,14,32,190,42,24,65,042,48,25,49,273,44,26,18,069,43*62
###2023-12-09 13:27:32.016928$GBGSV,2,2,06,33,48,220,46,35,16,059,44,,,,,,,,*6E
###2023-12-09 13:27:32.018250$GNVTG,242.96,T,,M,3.73,N,6.91,K,A*21
###2023-12-09 13:27:32.019913$GNGST,182731.10,18.000,,,,0.100,0.071,0.160*51
###2023-12-09 13:27:32.021210$GNZDA,182731.10,09,12,2023,00,00*7E
###2023-12-09 13:27:32.021847$GNEBP,,,,,,M*13
###2023-12-09 13:27:32.188503$GNGGA,182731.30,4138.0502586,N,07032.4136445,W,1,24,0.6,13.012,M,-29.745,M,0.0,*53
###2023-12-09 13:27:32.388798$GNGGA,182731.50,4138.0501585,N,07032.4138811,W,1,24,0.6,13.002,M,-29.745,M,0.0,*57
###2023-12-09 13:27:32.590288$GNGGA,182731.70,4138.0500645,N,07032.4141208,W,1,24,0.6,12.998,M,-29.745,M,0.0,*5C
###2023-12-09 13:27:32.789588$GNGGA,182731.90,4138.0499750,N,07032.4143632,W,1,24,0.6,13.000,M,-29.745,M,0.0,*50
###2023-12-09 13:27:32.999864$GNRMC,182732.10,A,4138.0498818,N,07032.4146023,W,3.69,244.19,091223,,,A*59
###2023-12-09 13:27:33.002765$GNGGA,182732.10,4138.0498818,N,07032.4146023,W,1,24,0.6,12.999,M,-29.745,M,0.0,*52
###2023-12-09 13:27:33.004546$GPGSA,A,3,03,04,16,26,28,29,31,,,,,,1.1,0.6,0.9*3A
###2023-12-09 13:27:33.006251$GLGSA,A,3,65,71,72,73,74,75,,,,,,,1.1,0.6,0.9*24
###2023-12-09 13:27:33.007842$GAGSA,A,3,04,19,21,27,,,,,,,,,1.1,0.6,0.9*26
###2023-12-09 13:27:33.009545$GBGSA,A,3,14,24,25,26,33,35,,,,,,,1.1,0.6,0.9*29
###2023-12-09 13:27:33.011909$GPGSV,2,1,07,03,28,249,41,04,43,309,44,16,63,220,45,26,87,041,48*76
###2023-12-09 13:27:33.013936$GPGSV,2,2,07,28,40,082,44,29,22,049,43,31,61,061,47,,,,*4A
###2023-12-09 13:27:33.016278$GLGSV,2,1,06,65,35,321,42,71,26,175,43,72,66,227,45,73,25,050,42*66
###2023-12-09 13:27:33.018016$GLGSV,2,2,06,74,62,008,43,75,41,267,45,,,,,,,,*6E
###2023-12-09 13:27:33.020340$GAGSV,1,1,04,04,37,311,42,19,75,184,41,21,80,050,46,27,25,049,40*6C
###2023-12-09 13:27:33.022666$GBGSV,2,1,06,14,32,190,41,24,65,042,47,25,49,273,44,26,18,069,44*69
###2023-12-09 13:27:33.024404$GBGSV,2,2,06,33,48,220,45,35,16,059,44,,,,,,,,*6D
###2023-12-09 13:27:33.025721$GNVTG,244.19,T,,M,3.69,N,6.84,K,A*2F
###2023-12-09 13:27:33.027372$GNGST,182732.10,18.000,,,,0.100,0.071,0.160*52
###2023-12-09 13:27:33.028656$GNZDA,182732.10,09,12,2023,00,00*7D
###2023-12-09 13:27:33.029291$GNEBP,,,,,,M*13
###2023-12-09 13:27:33.196815$GNGGA,182732.30,4138.0497865,N,07032.4148408,W,1,24,0.6,13.001,M,-29.745,M,0.0,*5F
###2023-12-09 13:27:33.388755$GNGGA,182732.50,4138.0496847,N,07032.4150755,W,1,24,0.6,13.001,M,-29.745,M,0.0,*5A
###2023-12-09 13:27:33.589445$GNGGA,182732.70,4138.0495782,N,07032.4153099,W,1,24,0.6,12.991,M,-29.745,M,0.0,*58
###2023-12-09 13:27:33.790502$GNGGA,182732.90,4138.0494682,N,07032.4155405,W,1,24,0.6,12.984,M,-29.745,M,0.0,*55
###2023-12-09 13:27:33.995538$GNRMC,182733.10,A,4138.0493481,N,07032.4157639,W,3.69,233.10,091223,,,A*5B
###2023-12-09 13:27:33.998398$GNGGA,182733.10,4138.0493481,N,07032.4157639,W,1,24,0.6,12.972,M,-29.745,M,0.0,*5C
###2023-12-09 13:27:34.000203$GPGSA,A,3,03,04,16,26,28,29,31,,,,,,1.1,0.6,0.9*3A
###2023-12-09 13:27:34.001923$GLGSA,A,3,65,71,72,73,74,75,,,,,,,1.1,0.6,0.9*24
###2023-12-09 13:27:34.003524$GAGSA,A,3,04,19,21,27,,,,,,,,,1.1,0.6,0.9*26
###2023-12-09 13:27:34.005244$GBGSA,A,3,14,24,25,26,33,35,,,,,,,1.1,0.6,0.9*29
###2023-12-09 13:27:34.007594$GPGSV,2,1,07,03,28,249,40,04,43,309,44,16,63,220,45,26,87,041,48*77
###2023-12-09 13:27:34.009633$GPGSV,2,2,07,28,40,082,45,29,22,049,43,31,61,061,46,,,,*4A
###2023-12-09 13:27:34.011974$GLGSV,2,1,06,65,35,321,42,71,26,175,44,72,66,227,45,73,25,050,43*60
###2023-12-09 13:27:34.013723$GLGSV,2,2,06,74,62,008,43,75,41,267,45,,,,,,,,*6E
###2023-12-09 13:27:34.016064$GAGSV,1,1,04,04,37,311,42,19,75,184,41,21,80,050,46,27,25,049,40*6C
###2023-12-09 13:27:34.018393$GBGSV,2,1,06,14,32,190,42,24,65,042,49,25,49,273,45,26,18,069,45*64
###2023-12-09 13:27:34.020153$GBGSV,2,2,06,33,48,220,45,35,16,059,44,,,,,,,,*6D
###2023-12-09 13:27:34.021478$GNVTG,233.10,T,,M,3.69,N,6.84,K,A*26
###2023-12-09 13:27:34.023173$GNGST,182733.10,18.000,,,,0.100,0.071,0.160*53
###2023-12-09 13:27:34.024463$GNZDA,182733.10,09,12,2023,00,00*7C
###2023-12-09 13:27:34.025101$GNEBP,,,,,,M*13
###2023-12-09 13:27:34.190436$GNGGA,182733.30,4138.0492186,N,07032.4159809,W,1,24,0.6,12.966,M,-29.745,M,0.0,*5B
###2023-12-09 13:27:34.389774$GNGGA,182733.50,4138.0490914,N,07032.4162024,W,1,24,0.6,12.975,M,-29.745,M,0.0,*51
###2023-12-09 13:27:34.590108$GNGGA,182733.70,4138.0489595,N,07032.4164220,W,1,24,0.6,12.985,M,-29.745,M,0.0,*51
###2023-12-09 13:27:34.789541$GNGGA,182733.90,4138.0488212,N,07032.4166291,W,1,24,0.6,12.985,M,-29.745,M,0.0,*5E
###2023-12-09 13:27:34.997025$GNRMC,182734.10,A,4138.0486711,N,07032.4168175,W,3.65,223.77,091223,,,A*5D
###2023-12-09 13:27:34.999888$GNGGA,182734.10,4138.0486711,N,07032.4168175,W,1,24,0.6,12.974,M,-29.745,M,0.0,*50
###2023-12-09 13:27:35.001672$GPGSA,A,3,03,04,16,26,28,29,31,,,,,,1.1,0.6,0.9*3A
###2023-12-09 13:27:35.003392$GLGSA,A,3,65,71,72,73,74,75,,,,,,,1.1,0.6,0.9*24
###2023-12-09 13:27:35.004968$GAGSA,A,3,04,19,21,27,,,,,,,,,1.1,0.6,0.9*26
###2023-12-09 13:27:35.006677$GBGSA,A,3,14,24,25,26,33,35,,,,,,,1.1,0.6,0.9*29
###2023-12-09 13:27:35.008993$GPGSV,2,1,07,03,28,249,39,04,43,309,44,16,63,220,45,26,87,041,48*79
###2023-12-09 13:27:35.011038$GPGSV,2,2,07,28,40,082,45,29,22,049,43,31,61,061,47,,,,*4B
###2023-12-09 13:27:35.013369$GLGSV,2,1,06,65,35,321,43,71,26,175,43,72,66,227,45,73,25,050,44*61
###2023-12-09 13:27:35.015120$GLGSV,2,2,06,74,62,008,43,75,41,267,45,,,,,,,,*6E
###2023-12-09 13:27:35.017446$GAGSV,1,1,04,04,37,311,42,19,75,184,40,21,80,050,46,27,25,049,41*6C
###2023-12-09 13:27:35.019777$GBGSV,2,1,06,14,32,190,39,24,65,042,49,25,49,273,45,26,18,069,45*68
###2023-12-09 13:27:35.021521$GBGSV,2,2,06,33,48,220,45,35,16,059,45,,,,,,,,*6C
###2023-12-09 13:27:35.022858$GNVTG,223.77,T,,M,3.65,N,6.77,K,A*26
###2023-12-09 13:27:35.024508$GNGST,182734.10,18.000,,,,0.100,0.071,0.160*54
###2023-12-09 13:27:35.025797$GNZDA,182734.10,09,12,2023,00,00*7B
###2023-12-09 13:27:35.026435$GNEBP,,,,,,M*13
###2023-12-09 13:27:35.190306$GNGGA,182734.30,4138.0485227,N,07032.4170085,W,1,24,0.6,12.963,M,-29.745,M,0.0,*50
###2023-12-09 13:27:35.391104$GNGGA,182734.50,4138.0483735,N,07032.4171962,W,1,24,0.6,12.954,M,-29.745,M,0.0,*53
###2023-12-09 13:27:35.590149$GNGGA,182734.70,4138.0482189,N,07032.4173695,W,1,24,0.6,12.954,M,-29.745,M,0.0,*54
###2023-12-09 13:27:35.788478$GNGGA,182734.90,4138.0480546,N,07032.4175348,W,1,24,0.6,12.956,M,-29.745,M,0.0,*5E
###2023-12-09 13:27:35.995428$GNRMC,182735.10,A,4138.0479020,N,07032.4177230,W,3.77,226.70,091223,,,A*54
###2023-12-09 13:27:35.998288$GNGGA,182735.10,4138.0479020,N,07032.4177230,W,1,24,0.6,12.972,M,-29.745,M,0.0,*5E
###2023-12-09 13:27:36.000097$GPGSA,A,3,03,04,16,26,28,29,31,,,,,,1.1,0.6,0.9*3A
###2023-12-09 13:27:36.001814$GLGSA,A,3,65,71,72,73,74,75,,,,,,,1.1,0.6,0.9*24
###2023-12-09 13:27:36.003408$GAGSA,A,3,04,19,21,27,,,,,,,,,1.1,0.6,0.9*26
