###2023-12-09 12:46:00.945232$GNRMC,174600.10,A,4138.0487556,N,07032.3872057,W,0.56,259.61,091223,,,A*5F
###2023-12-09 12:46:00.948127$GNGGA,174600.10,4138.0487556,N,07032.3872057,W,1,24,0.6,13.444,M,-29.745,M,0.0,*54
###2023-12-09 12:46:00.950001$GPGSA,A,3,03,04,16,26,28,29,31,32,,,,,1.1,0.6,0.9*3B
###2023-12-09 12:46:00.951733$GLGSA,A,3,65,71,72,73,74,75,,,,,,,1.1,0.6,0.9*24
###2023-12-09 12:46:00.953325$GAGSA,A,3,04,19,21,27,,,,,,,,,1.1,0.6,0.9*26
###2023-12-09 12:46:00.954984$GBGSA,A,3,14,24,25,26,33,,,,,,,,1.1,0.6,0.9*2F
###2023-12-09 12:46:00.957311$GPGSV,2,1,08,03,37,270,44,04,26,311,41,16,42,209,43,26,72,208,47*73
###2023-12-09 12:46:00.959668$GPGSV,2,2,08,28,54,062,45,29,26,068,41,31,72,018,48,32,25,137,43*7D
###2023-12-09 12:46:00.961996$GLGSV,2,1,06,65,17,329,39,71,50,171,46,72,70,297,47,73,43,037,46*69
###2023-12-09 12:46:00.963754$GLGSV,2,2,06,74,71,310,43,75,26,245,42,,,,,,,,*60
###2023-12-09 12:46:00.966069$GAGSV,1,1,04,04,24,312,41,19,84,283,40,21,82,167,45,27,38,049,41*6C
###2023-12-09 12:46:00.968408$GBGSV,2,1,05,14,50,195,45,24,78,005,49,25,36,256,45,26,31,059,43*6F
###2023-12-09 12:46:00.969861$GBGSV,2,2,05,33,61,245,48,,,,,,,,,,,,*56
###2023-12-09 12:46:00.971190$GNVTG,259.61,T,,M,0.56,N,1.04,K,A*2C
###2023-12-09 12:46:00.972834$GNGST,174600.10,18.000,,,,0.078,0.069,0.160*5C
###2023-12-09 12:46:00.974123$GNZDA,174600.10,09,12,2023,00,00*74
###2023-12-09 12:46:00.974771$GNEBP,,,,,,M*13
###2023-12-09 12:46:01.147706$GNGGA,174600.30,4138.0487411,N,07032.3871989,W,1,24,0.6,13.443,M,-29.745,M,0.0,*5A
###2023-12-09 12:46:01.347461$GNGGA,174600.50,4138.0487328,N,07032.3872586,W,1,24,0.6,13.459,M,-29.745,M,0.0,*5A
###2023-12-09 12:46:01.547286$GNGGA,174600.70,4138.0487229,N,07032.3873194,W,1,24,0.6,13.458,M,-29.745,M,0.0,*5F
###2023-12-09 12:46:01.744736$GNGGA,174600.90,4138.0487116,N,07032.3873289,W,1,24,0.6,13.458,M,-29.745,M,0.0,*51
###2023-12-09 12:46:01.946093$GNRMC,174601.10,A,4138.0486950,N,07032.3873179,W,0.33,259.81,091223,,,A*54
###2023-12-09 12:46:01.948970$GNGGA,174601.10,4138.0486950,N,07032.3873179,W,1,24,0.6,13.460,M,-29.745,M,0.0,*54
###2023-12-09 12:46:01.950850$GPGSA,A,3,03,04,16,26,28,29,31,32,,,,,1.1,0.6,0.9*3B
###2023-12-09 12:46:01.952564$GLGSA,A,3,65,71,72,73,74,75,,,,,,,1.1,0.6,0.9*24
###2023-12-09 12:46:01.954142$GAGSA,A,3,04,19,21,27,,,,,,,,,1.1,0.6,0.9*26
###2023-12-09 12:46:01.955795$GBGSA,A,3,14,24,25,26,33,,,,,,,,1.1,0.6,0.9*2F
###2023-12-09 12:46:01.958119$GPGSV,2,1,08,03,37,270,44,04,26,311,41,16,42,209,43,26,72,208,47*73
###2023-12-09 12:46:01.960462$GPGSV,2,2,08,28,54,062,45,29,26,068,43,31,72,018,48,32,25,137,44*78
###2023-12-09 12:46:01.962804$GLGSV,2,1,06,65,17,329,39,71,50,171,47,72,70,297,46,73,43,037,46*69
###2023-12-09 12:46:01.964548$GLGSV,2,2,06,74,71,310,43,75,26,245,40,,,,,,,,*62
###2023-12-09 12:46:01.966878$GAGSV,1,1,04,04,24,312,41,19,84,283,40,21,82,167,45,27,38,049,42*6F
###2023-12-09 12:46:01.969194$GBGSV,2,1,05,14,50,195,44,24,78,005,48,25,36,256,44,26,31,059,42*6F
###2023-12-09 12:46:01.970652$GBGSV,2,2,05,33,61,245,48,,,,,,,,,,,,*56
###2023-12-09 12:46:01.971969$GNVTG,259.81,T,,M,0.33,N,0.61,K,A*23
###2023-12-09 12:46:01.973609$GNGST,174601.10,18.000,,,,0.079,0.069,0.160*5C
###2023-12-09 12:46:01.974905$GNZDA,174601.10,09,12,2023,00,00*75
###2023-12-09 12:46:01.975542$GNEBP,,,,,,M*13
###2023-12-09 12:46:02.145366$GNGGA,174601.30,4138.0486819,N,07032.3873383,W,1,24,0.6,13.460,M,-29.745,M,0.0,*5D
###2023-12-09 12:46:02.347273$GNGGA,174601.50,4138.0486726,N,07032.3873864,W,1,24,0.6,13.455,M,-29.745,M,0.0,*5C
###2023-12-09 12:46:02.546255$GNGGA,174601.70,4138.0486633,N,07032.3874287,W,1,24,0.6,13.458,M,-29.745,M,0.0,*56
###2023-12-09 12:46:02.745153$GNGGA,174601.90,4138.0486522,N,07032.3874482,W,1,24,0.6,13.468,M,-29.745,M,0.0,*5B
###2023-12-09 12:46:02.945952$GNRMC,174602.10,A,4138.0486394,N,07032.3874589,W,0.25,259.81,091223,,,A*5E
###2023-12-09 12:46:02.948811$GNGGA,174602.10,4138.0486394,N,07032.3874589,W,1,24,0.6,13.464,M,-29.745,M,0.0,*5D
###2023-12-09 12:46:02.950688$GPGSA,A,3,03,04,16,26,28,29,31,32,,,,,1.1,0.6,0.9*3B
###2023-12-09 12:46:02.952398$GLGSA,A,3,65,71,72,73,74,75,,,,,,,1.1,0.6,0.9*24
###2023-12-09 12:46:02.953976$GAGSA,A,3,04,19,21,27,,,,,,,,,1.1,0.6,0.9*26
###2023-12-09 12:46:02.955630$GBGSA,A,3,14,24,25,26,33,,,,,,,,1.1,0.6,0.9*2F
###2023-12-09 12:46:02.957944$GPGSV,2,1,08,03,37,270,44,04,26,311,42,16,42,209,43,26,72,208,47*70
###2023-12-09 12:46:02.960274$GPGSV,2,2,08,28,54,062,46,29,26,068,42,31,72,018,48,32,25,137,44*7A
###2023-12-09 12:46:02.962595$GLGSV,2,1,06,65,17,329,41,71,50,171,46,72,70,297,47,73,43,037,46*66
###2023-12-09 12:46:02.964329$GLGSV,2,2,06,74,71,310,43,75,26,245,41,,,,,,,,*63
###2023-12-09 12:46:02.966662$GAGSV,1,1,04,04,24,312,41,19,84,283,41,21,82,167,46,27,38,049,44*6B
###2023-12-09 12:46:02.968977$GBGSV,2,1,05,14,50,195,44,24,78,005,48,25,36,256,44,26,31,059,42*6F
###2023-12-09 12:46:02.970420$GBGSV,2,2,05,33,61,245,48,,,,,,,,,,,,*56
###2023-12-09 12:46:02.971755$GNVTG,259.81,T,,M,0.25,N,0.47,K,A*20
###2023-12-09 12:46:02.973408$GNGST,174602.10,18.000,,,,0.079,0.070,0.160*57
###2023-12-09 12:46:02.974746$GNZDA,174602.10,09,12,2023,00,00*76
###2023-12-09 12:46:02.975389$GNEBP,,,,,,M*13
###2023-12-09 12:46:03.145786$GNGGA,174602.30,4138.0486267,N,07032.3874709,W,1,24,0.6,13.446,M,-29.745,M,0.0,*58
###2023-12-09 12:46:03.346173$GNGGA,174602.50,4138.0486171,N,07032.3874964,W,1,24,0.6,13.443,M,-29.745,M,0.0,*5A
###2023-12-09 12:46:03.546166$GNGGA,174602.70,4138.0486103,N,07032.3875523,W,1,24,0.6,13.466,M,-29.745,M,0.0,*54
###2023-12-09 12:46:03.746154$GNGGA,174602.90,4138.0486027,N,07032.3876032,W,1,24,0.6,13.483,M,-29.745,M,0.0,*50
###2023-12-09 12:46:03.945619$GNRMC,174603.10,A,4138.0485904,N,07032.3876095,W,0.37,259.81,091223,,,A*56
###2023-12-09 12:46:03.948487$GNGGA,174603.10,4138.0485904,N,07032.3876095,W,1,24,0.6,13.472,M,-29.745,M,0.0,*51
###2023-12-09 12:46:03.950353$GPGSA,A,3,03,04,16,26,28,29,31,32,,,,,1.1,0.6,0.9*3B
###2023-12-09 12:46:03.952083$GLGSA,A,3,65,71,72,73,74,75,,,,,,,1.1,0.6,0.9*24
###2023-12-09 12:46:03.953665$GAGSA,A,3,04,19,21,27,,,,,,,,,1.1,0.6,0.9*26
###2023-12-09 12:46:03.955326$GBGSA,A,3,14,24,25,26,33,,,,,,,,1.1,0.6,0.9*2F
###2023-12-09 12:46:03.957643$GPGSV,2,1,08,03,37,270,44,04,26,311,42,16,42,209,44,26,72,208,47*77
###2023-12-09 12:46:03.959979$GPGSV,2,2,08,28,54,062,45,29,26,068,40,31,72,018,48,32,25,137,43*7C
###2023-12-09 12:46:03.962301$GLGSV,2,1,06,65,17,329,41,71,50,171,45,72,70,297,47,73,43,037,46*65
###2023-12-09 12:46:03.964057$GLGSV,2,2,06,74,71,310,43,75,26,245,42,,,,,,,,*60
###2023-12-09 12:46:03.966382$GAGSV,1,1,04,04,24,312,41,19,84,283,41,21,82,167,46,27,38,049,43*6C
###2023-12-09 12:46:03.968731$GBGSV,2,1,05,14,50,195,44,24,78,005,48,25,36,256,44,26,31,059,42*6F
###2023-12-09 12:46:03.970188$GBGSV,2,2,05,33,61,245,47,,,,,,,,,,,,*59
###2023-12-09 12:46:03.971522$GNVTG,259.81,T,,M,0.37,N,0.68,K,A*2E
###2023-12-09 12:46:03.973177$GNGST,174603.10,18.000,,,,0.079,0.069,0.160*5E
###2023-12-09 12:46:03.974471$GNZDA,174603.10,09,12,2023,00,00*77
###2023-12-09 12:46:03.975122$GNEBP,,,,,,M*13
###2023-12-09 12:46:04.145331$GNGGA,174603.30,4138.0485747,N,07032.3875960,W,1,24,0.6,13.434,M,-29.745,M,0.0,*58
###2023-12-09 12:46:04.346209$GNGGA,174603.50,4138.0485669,N,07032.3876335,W,1,24,0.6,13.429,M,-29.745,M,0.0,*56
###2023-12-09 12:46:04.547076$GNGGA,174603.70,4138.0485640,N,07032.3877101,W,1,24,0.6,13.449,M,-29.745,M,0.0,*5D
###2023-12-09 12:46:04.744527$GNGGA,174603.90,4138.0485559,N,07032.3877487,W,1,24,0.6,13.452,M,-29.745,M,0.0,*59
###2023-12-09 12:46:04.946659$GNRMC,174604.10,A,4138.0485392,N,07032.3877332,W,0.41,268.99,091223,,,A*51
###2023-12-09 12:46:04.949538$GNGGA,174604.10,4138.0485392,N,07032.3877332,W,1,24,0.6,13.445,M,-29.745,M,0.0,*58
###2023-12-09 12:46:04.951434$GPGSA,A,3,03,04,16,26,28,29,31,32,,,,,1.1,0.6,0.9*3B
###2023-12-09 12:46:04.953156$GLGSA,A,3,65,71,72,73,74,75,,,,,,,1.1,0.6,0.9*24
###2023-12-09 12:46:04.954763$GAGSA,A,3,04,19,21,27,,,,,,,,,1.1,0.6,0.9*26
###2023-12-09 12:46:04.956408$GBGSA,A,3,14,24,25,26,33,,,,,,,,1.1,0.6,0.9*2F
###2023-12-09 12:46:04.958748$GPGSV,2,1,08,03,37,270,46,04,26,311,41,16,42,209,43,26,72,208,47*71
###2023-12-09 12:46:04.961351$GPGSV,2,2,08,28,54,062,46,29,26,068,42,31,72,018,48,32,25,137,43*7D
###2023-12-09 12:46:04.963720$GLGSV,2,1,06,65,17,329,40,71,50,171,45,72,70,297,47,73,43,037,46*64
###2023-12-09 12:46:04.965489$GLGSV,2,2,06,74,71,310,43,75,26,245,43,,,,,,,,*61
###2023-12-09 12:46:04.967847$GAGSV,1,1,04,04,24,312,42,19,84,283,41,21,82,167,46,27,38,049,42*6E
###2023-12-09 12:46:04.970184$GBGSV,2,1,05,14,50,195,43,24,78,005,48,25,36,256,44,26,31,059,42*68
###2023-12-09 12:46:04.971657$GBGSV,2,2,05,33,61,245,47,,,,,,,,,,,,*59
###2023-12-09 12:46:04.972994$GNVTG,268.99,T,,M,0.41,N,0.76,K,A*2B
###2023-12-09 12:46:04.974662$GNGST,174604.10,18.000,,,,0.079,0.069,0.160*59
###2023-12-09 12:46:04.975961$GNZDA,174604.10,09,12,2023,00,00*70
