###2023-12-09 13:41:15.012812$GPGSV,2,1,07,04,49,306,47,16,69,225,44,26,81,040,48,27,19,172,37*77
###2023-12-09 13:41:15.014882$GPGSV,2,2,07,28,36,087,43,29,19,045,40,31,58,070,47,,,,*44
###2023-12-09 13:41:15.017214$GLGSV,2,1,06,65,41,315,46,71,19,176,37,72,59,216,46,73,20,054,43*67
###2023-12-09 13:41:15.018987$GLGSV,2,2,06,74,57,019,42,75,45,276,48,,,,,,,,*60
###2023-12-09 13:41:15.021323$GAGSV,1,1,04,04,41,309,46,19,69,180,40,21,74,044,46,27,20,051,39*64
###2023-12-09 13:41:15.023679$GBGSV,2,1,06,12,17,124,38,14,26,189,39,24,60,049,46,25,53,279,47*6D
###2023-12-09 13:41:15.025430$GBGSV,2,2,06,33,43,215,44,35,16,054,42,,,,,,,,*6A
###2023-12-09 13:41:15.026773$GNVTG,284.17,T,,M,0.64,N,1.19,K,A*20
###2023-12-09 13:41:15.028389$GNGST,184114.10,6.600,,,,0.110,0.093,0.210*66
###2023-12-09 13:41:15.029681$GNZDA,184114.10,09,12,2023,00,00*79
###2023-12-09 13:41:15.030317$GNEBP,,,,,,M*13
###2023-12-09 13:41:15.203015$GNGGA,184114.30,4138.0266850,N,07032.3904553,W,1,24,0.6,13.244,M,-29.745,M,0.0,*5E
###2023-12-09 13:41:15.398924$GNGGA,184114.50,4138.0266841,N,07032.3904691,W,1,24,0.6,13.226,M,-29.745,M,0.0,*51
###2023-12-09 13:41:15.596603$GNGGA,184114.70,4138.0266965,N,07032.3905420,W,1,23,0.6,13.277,M,-29.745,M,0.0,*5E
###2023-12-09 13:41:15.797959$GNGGA,184114.90,4138.0267063,N,07032.3905957,W,1,23,0.7,13.300,M,-29.745,M,0.0,*53
###2023-12-09 13:41:16.002297$GNRMC,184115.10,A,4138.0267007,N,07032.3905696,W,0.87,280.96,091223,,,A*50
###2023-12-09 13:41:16.005183$GNGGA,184115.10,4138.0267007,N,07032.3905696,W,1,23,0.7,13.304,M,-29.745,M,0.0,*5E
###2023-12-09 13:41:16.006985$GPGSA,A,3,04,16,26,27,28,29,31,,,,,,1.2,0.7,1.0*36
###2023-12-09 13:41:16.008698$GLGSA,A,3,65,71,72,73,74,75,,,,,,,1.2,0.7,1.0*2E
###2023-12-09 13:41:16.010280$GAGSA,A,3,04,19,21,27,,,,,,,,,1.2,0.7,1.0*2C
###2023-12-09 13:41:16.011986$GBGSA,A,3,12,14,24,25,33,35,,,,,,,1.2,0.7,1.0*24
###2023-12-09 13:41:16.014299$GPGSV,2,1,07,04,49,306,46,16,69,225,45,26,81,040,48,27,19,172,38*78
###2023-12-09 13:41:16.016343$GPGSV,2,2,07,28,36,087,44,29,19,045,39,31,58,070,47,,,,*4D
###2023-12-09 13:41:16.018679$GLGSV,2,1,06,65,41,315,45,71,19,176,37,72,59,216,46,73,20,054,42*65
###2023-12-09 13:41:16.020421$GLGSV,2,2,06,74,57,019,42,75,45,276,47,,,,,,,,*6F
###2023-12-09 13:41:16.022760$GAGSV,1,1,04,04,41,309,46,19,69,180,39,21,74,044,46,27,20,051,38*6B
###2023-12-09 13:41:16.025085$GBGSV,2,1,06,12,17,124,41,14,26,189,38,24,60,049,48,25,53,279,49*62
###2023-12-09 13:41:16.026834$GBGSV,2,2,06,33,43,215,45,35,16,054,44,,,,,,,,*6D
###2023-12-09 13:41:16.028150$GNVTG,280.96,T,,M,0.87,N,1.62,K,A*2C
###2023-12-09 13:41:16.029755$GNGST,184115.10,5.800,,,,0.110,0.094,0.210*6D
###2023-12-09 13:41:16.031050$GNZDA,184115.10,09,12,2023,00,00*78
###2023-12-09 13:41:16.031685$GNEBP,,,,,,M*13
###2023-12-09 13:41:16.197684$GNGGA,184115.30,4138.0266901,N,07032.3905239,W,1,24,0.6,13.200,M,-29.745,M,0.0,*50
###2023-12-09 13:41:16.398478$GNGGA,184115.50,4138.0266892,N,07032.3905551,W,1,24,0.6,13.209,M,-29.745,M,0.0,*5D
###2023-12-09 13:41:16.595738$GNGGA,184115.70,4138.0266990,N,07032.3906459,W,1,23,0.6,13.250,M,-29.745,M,0.0,*5D
###2023-12-09 13:41:16.798786$GNGGA,184115.90,4138.0266941,N,07032.3906688,W,1,23,0.6,13.267,M,-29.745,M,0.0,*55
###2023-12-09 13:41:17.004386$GNRMC,184116.10,A,4138.0266726,N,07032.3906248,W,0.84,273.27,091223,,,A*57
###2023-12-09 13:41:17.007359$GNGGA,184116.10,4138.0266726,N,07032.3906248,W,1,23,0.6,13.274,M,-29.745,M,0.0,*5B
###2023-12-09 13:41:17.009144$GPGSA,A,3,04,16,26,27,28,29,31,,,,,,1.2,0.6,1.0*37
###2023-12-09 13:41:17.010866$GLGSA,A,3,65,71,72,73,74,75,,,,,,,1.2,0.6,1.0*2F
###2023-12-09 13:41:17.012442$GAGSA,A,3,04,19,21,27,,,,,,,,,1.2,0.6,1.0*2D
###2023-12-09 13:41:17.014149$GBGSA,A,3,12,14,24,25,33,35,,,,,,,1.2,0.6,1.0*25
###2023-12-09 13:41:17.016480$GPGSV,2,1,07,04,49,306,46,16,70,226,46,26,81,040,48,27,19,172,39*71
###2023-12-09 13:41:17.018514$GPGSV,2,2,07,28,36,087,45,29,19,045,42,31,58,070,47,,,,*40
###2023-12-09 13:41:17.020846$GLGSV,2,1,06,65,41,315,45,71,19,176,39,72,59,216,45,73,20,054,42*68
###2023-12-09 13:41:17.022600$GLGSV,2,2,06,74,57,019,42,75,45,276,47,,,,,,,,*6F
###2023-12-09 13:41:17.024916$GAGSV,1,1,04,04,41,309,46,19,69,180,40,21,74,044,47,27,20,051,41*6A
###2023-12-09 13:41:17.027261$GBGSV,2,1,06,12,17,124,43,14,26,189,38,24,60,049,49,25,53,279,48*60
###2023-12-09 13:41:17.029021$GBGSV,2,2,06,33,43,215,46,35,16,054,45,,,,,,,,*6F
###2023-12-09 13:41:17.030346$GNVTG,273.27,T,,M,0.84,N,1.55,K,A*2D
###2023-12-09 13:41:17.031979$GNGST,184116.10,5.900,,,,0.110,0.095,0.210*6E
###2023-12-09 13:41:17.033281$GNZDA,184116.10,09,12,2023,00,00*7B
###2023-12-09 13:41:17.033920$GNEBP,,,,,,M*13
###2023-12-09 13:41:17.199073$GNGGA,184116.30,4138.0266553,N,07032.3906063,W,1,24,0.6,13.203,M,-29.745,M,0.0,*55
###2023-12-09 13:41:17.398042$GNGGA,184116.50,4138.0266423,N,07032.3906569,W,1,24,0.6,13.201,M,-29.745,M,0.0,*58
###2023-12-09 13:41:17.598959$GNGGA,184116.70,4138.0266273,N,07032.3907223,W,1,23,0.6,13.212,M,-29.745,M,0.0,*54
###2023-12-09 13:41:17.798798$GNGGA,184116.90,4138.0265976,N,07032.3907410,W,1,23,0.7,13.249,M,-29.745,M,0.0,*5E
###2023-12-09 13:41:18.005863$GNRMC,184117.10,A,4138.0265560,N,07032.3907291,W,0.80,256.17,091223,,,A*50
###2023-12-09 13:41:18.008732$GNGGA,184117.10,4138.0265560,N,07032.3907291,W,1,23,0.6,13.266,M,-29.745,M,0.0,*5F
###2023-12-09 13:41:18.010518$GPGSA,A,3,04,16,26,27,28,29,31,,,,,,1.2,0.6,1.0*37
###2023-12-09 13:41:18.012242$GLGSA,A,3,65,71,72,73,74,75,,,,,,,1.2,0.6,1.0*2F
###2023-12-09 13:41:18.013820$GAGSA,A,3,04,19,21,27,,,,,,,,,1.2,0.6,1.0*2D
###2023-12-09 13:41:18.015534$GBGSA,A,3,12,14,24,25,33,35,,,,,,,1.2,0.6,1.0*25
###2023-12-09 13:41:18.017848$GPGSV,2,1,07,04,49,306,46,16,70,226,45,26,81,040,48,27,19,172,37*7C
###2023-12-09 13:41:18.019884$GPGSV,2,2,07,28,36,087,44,29,19,045,41,31,58,070,46,,,,*43
###2023-12-09 13:41:18.022196$GLGSV,2,1,06,65,41,315,44,71,19,176,39,72,59,216,44,73,20,054,41*6B
###2023-12-09 13:41:18.023951$GLGSV,2,2,06,74,57,019,41,75,45,276,45,,,,,,,,*6E
###2023-12-09 13:41:18.026267$GAGSV,1,1,04,04,41,309,45,19,69,180,40,21,74,044,46,27,20,051,39*67
###2023-12-09 13:41:18.028591$GBGSV,2,1,06,12,17,124,42,14,26,189,37,24,60,049,47,25,53,279,48*60
###2023-12-09 13:41:18.030339$GBGSV,2,2,06,33,43,215,44,35,16,054,43,,,,,,,,*6B
###2023-12-09 13:41:18.031674$GNVTG,256.17,T,,M,0.80,N,1.48,K,A*21
###2023-12-09 13:41:18.033282$GNGST,184117.10,6.300,,,,0.110,0.095,0.210*66
###2023-12-09 13:41:18.034592$GNZDA,184117.10,09,12,2023,00,00*7A
###2023-12-09 13:41:18.035232$GNEBP,,,,,,M*13
###2023-12-09 13:41:18.201114$GNGGA,184117.30,4138.0265130,N,07032.3907303,W,1,23,0.6,13.197,M,-29.745,M,0.0,*5B
###2023-12-09 13:41:18.398131$GNGGA,184117.50,4138.0264716,N,07032.3907734,W,1,24,0.6,13.168,M,-29.745,M,0.0,*59
###2023-12-09 13:41:18.597583$GNGGA,184117.70,4138.0264323,N,07032.3908385,W,1,24,0.6,13.192,M,-29.745,M,0.0,*5D
###2023-12-09 13:41:18.799165$GNGGA,184117.90,4138.0263857,N,07032.3908853,W,1,24,0.6,13.234,M,-29.745,M,0.0,*53
###2023-12-09 13:41:19.006543$GNRMC,184118.10,A,4138.0263252,N,07032.3909037,W,1.24,185.48,091223,,,A*57
###2023-12-09 13:41:19.009397$GNGGA,184118.10,4138.0263252,N,07032.3909037,W,1,24,0.6,13.238,M,-29.745,M,0.0,*5C
###2023-12-09 13:41:19.011188$GPGSA,A,3,04,16,26,27,28,29,31,,,,,,1.2,0.6,1.0*37
###2023-12-09 13:41:19.012963$GLGSA,A,3,65,71,72,73,74,75,83,,,,,,1.2,0.6,1.0*24
###2023-12-09 13:41:19.014528$GAGSA,A,3,04,19,21,27,,,,,,,,,1.2,0.6,1.0*2D
###2023-12-09 13:41:19.016236$GBGSA,A,3,12,14,24,25,33,35,,,,,,,1.2,0.6,1.0*25
###2023-12-09 13:41:19.018543$GPGSV,2,1,07,04,49,306,46,16,70,226,45,26,81,040,47,27,19,172,40*73
###2023-12-09 13:41:19.020571$GPGSV,2,2,07,28,36,087,43,29,19,045,42,31,58,070,46,,,,*47
###2023-12-09 13:41:19.022889$GLGSV,2,1,07,65,41,315,44,71,19,176,37,72,59,216,44,73,20,054,40*65
###2023-12-09 13:41:19.024912$GLGSV,2,2,07,74,57,019,42,75,45,276,45,83,16,044,35,,,,*56
###2023-12-09 13:41:19.027238$GAGSV,1,1,04,04,41,309,45,19,69,180,40,21,74,044,46,27,20,051,39*67
###2023-12-09 13:41:19.029552$GBGSV,2,1,06,12,17,124,40,14,26,189,38,24,60,049,47,25,53,279,49*6C
###2023-12-09 13:41:19.031308$GBGSV,2,2,06,33,43,215,45,35,16,054,43,,,,,,,,*6A
###2023-12-09 13:41:19.033844$GNVTG,185.48,T,,M,1.24,N,2.30,K,A*25
###2023-12-09 13:41:19.035506$GNGST,184118.10,6.400,,,,0.110,0.096,0.210*6D
###2023-12-09 13:41:19.036805$GNZDA,184118.10,09,12,2023,00,00*75
###2023-12-09 13:41:19.037448$GNEBP,,,,,,M*13
###2023-12-09 13:41:19.201217$GNGGA,184118.30,4138.0262530,N,07032.3909221,W,1,24,0.6,13.192,M,-29.745,M,0.0,*5A
###2023-12-09 13:41:19.401073$GNGGA,184118.50,4138.0261904,N,07032.3909803,W,1,24,0.6,13.167,M,-29.745,M,0.0,*54
###2023-12-09 13:41:19.598522$GNGGA,184118.70,4138.0261408,N,07032.3910646,W,1,24,0.6,13.193,M,-29.745,M,0.0,*5B
###2023-12-09 13:41:19.798407$GNGGA,184118.90,4138.0260804,N,07032.3911349,W,1,24,0.6,13.205,M,-29.745,M,0.0,*53
###2023-12-09 13:41:20.002202$GNRMC,184119.10,A,4138.0260010,N,07032.3911840,W,1.73,202.74,091223,,,A*51
