###2023-12-09 13:47:17.006256$GNRMC,184716.10,A,4138.0395646,N,07032.4384848,W,0.04,243.17,091223,,,A*5E
###2023-12-09 13:47:17.009245$GNGGA,184716.10,4138.0395646,N,07032.4384848,W,1,19,0.7,15.629,M,-29.746,M,0.0,*5B
###2023-12-09 13:47:17.010989$GPGSA,A,3,04,16,26,28,29,31,,,,,,,1.3,0.7,1.1*33
###2023-12-09 13:47:17.012635$GLGSA,A,3,65,72,73,74,75,,,,,,,,1.3,0.7,1.1*28
###2023-12-09 13:47:17.014143$GAGSA,A,3,04,21,27,,,,,,,,,,1.3,0.7,1.1*24
###2023-12-09 13:47:17.015799$GBGSA,A,3,12,24,25,33,35,,,,,,,,1.3,0.7,1.1*21
###2023-12-09 13:47:17.018120$GPGSV,2,1,06,04,51,304,48,16,73,229,40,26,78,041,42,28,34,089,45*7C
###2023-12-09 13:47:17.019872$GPGSV,2,2,06,29,18,043,42,31,56,073,49,,,,,,,,*74
###2023-12-09 13:47:17.022196$GLGSV,2,1,05,65,43,312,43,72,56,213,38,73,17,056,39,74,55,024,38*68
###2023-12-09 13:47:17.023659$GLGSV,2,2,05,75,47,280,46,,,,,,,,,,,,*59
###2023-12-09 13:47:17.025689$GAGSV,1,1,03,04,43,308,45,21,72,043,40,27,19,051,42,,,,*58
###2023-12-09 13:47:17.028026$GBGSV,2,1,05,12,19,122,42,24,58,052,47,25,54,282,44,33,40,213,37*60
###2023-12-09 13:47:17.029477$GBGSV,2,2,05,35,16,051,36,,,,,,,,,,,,*5E
###2023-12-09 13:47:17.030811$GNVTG,243.17,T,,M,0.04,N,0.07,K,A*23
###2023-12-09 13:47:17.032431$GNGST,184716.10,7.000,,,,0.200,0.120,0.320*6C
###2023-12-09 13:47:17.033735$GNZDA,184716.10,09,12,2023,00,00*7D
###2023-12-09 13:47:17.034381$GNEBP,,,,,,M*13
###2023-12-09 13:47:17.204369$GNGGA,184716.30,4138.0395642,N,07032.4384839,W,1,19,0.7,15.634,M,-29.746,M,0.0,*57
###2023-12-09 13:47:17.402624$GNGGA,184716.50,4138.0395645,N,07032.4384843,W,1,19,0.7,15.637,M,-29.746,M,0.0,*58
###2023-12-09 13:47:17.601425$GNGGA,184716.70,4138.0395637,N,07032.4384847,W,1,19,0.7,15.638,M,-29.746,M,0.0,*54
###2023-12-09 13:47:17.801832$GNGGA,184716.90,4138.0395633,N,07032.4384834,W,1,19,0.7,15.645,M,-29.746,M,0.0,*50
###2023-12-09 13:47:18.004261$GNRMC,184717.10,A,4138.0395627,N,07032.4384837,W,0.02,243.17,091223,,,A*56
###2023-12-09 13:47:18.007121$GNGGA,184717.10,4138.0395627,N,07032.4384837,W,1,19,0.7,15.650,M,-29.746,M,0.0,*5B
###2023-12-09 13:47:18.008842$GPGSA,A,3,04,16,26,28,29,31,,,,,,,1.3,0.7,1.1*33
###2023-12-09 13:47:18.010480$GLGSA,A,3,65,72,73,74,75,,,,,,,,1.3,0.7,1.1*28
###2023-12-09 13:47:18.012000$GAGSA,A,3,04,21,27,,,,,,,,,,1.3,0.7,1.1*24
###2023-12-09 13:47:18.013634$GBGSA,A,3,12,24,25,33,35,,,,,,,,1.3,0.7,1.1*21
###2023-12-09 13:47:18.015958$GPGSV,2,1,06,04,51,304,49,16,73,229,40,26,78,041,42,28,34,089,45*7D
###2023-12-09 13:47:18.017704$GPGSV,2,2,06,29,18,043,42,31,56,073,49,,,,,,,,*74
###2023-12-09 13:47:18.020038$GLGSV,2,1,05,65,43,312,43,72,56,213,38,73,17,056,38,74,55,024,38*69
###2023-12-09 13:47:18.021490$GLGSV,2,2,05,75,47,280,46,,,,,,,,,,,,*59
###2023-12-09 13:47:18.023555$GAGSV,1,1,03,04,43,308,45,21,72,043,40,27,19,051,42,,,,*58
###2023-12-09 13:47:18.025878$GBGSV,2,1,05,12,19,122,42,24,58,052,47,25,54,282,44,33,40,213,37*60
###2023-12-09 13:47:18.027340$GBGSV,2,2,05,35,16,051,35,,,,,,,,,,,,*5D
###2023-12-09 13:47:18.028660$GNVTG,243.17,T,,M,0.02,N,0.04,K,A*26
###2023-12-09 13:47:18.030269$GNGST,184717.10,7.200,,,,0.200,0.120,0.320*6F
###2023-12-09 13:47:18.031568$GNZDA,184717.10,09,12,2023,00,00*7C
###2023-12-09 13:47:18.032210$GNEBP,,,,,,M*13
###2023-12-09 13:47:18.203404$GNGGA,184717.30,4138.0395611,N,07032.4384832,W,1,19,0.7,15.654,M,-29.746,M,0.0,*5D
###2023-12-09 13:47:18.401073$GNGGA,184717.50,4138.0395611,N,07032.4384835,W,1,18,0.7,15.653,M,-29.746,M,0.0,*5A
###2023-12-09 13:47:18.600094$GNGGA,184717.70,4138.0395596,N,07032.4384838,W,1,18,0.7,15.657,M,-29.746,M,0.0,*5D
###2023-12-09 13:47:18.799458$GNGGA,184717.90,4138.0395591,N,07032.4384837,W,1,19,0.7,15.662,M,-29.746,M,0.0,*5C
###2023-12-09 13:47:19.002875$GNRMC,184718.10,A,4138.0395575,N,07032.4384838,W,0.00,243.17,091223,,,A*50
###2023-12-09 13:47:19.005728$GNGGA,184718.10,4138.0395575,N,07032.4384838,W,1,18,0.7,15.662,M,-29.746,M,0.0,*5F
###2023-12-09 13:47:19.007458$GPGSA,A,3,04,16,26,28,29,31,,,,,,,1.3,0.7,1.1*33
###2023-12-09 13:47:19.009101$GLGSA,A,3,65,72,73,74,75,,,,,,,,1.3,0.7,1.1*28
###2023-12-09 13:47:19.010621$GAGSA,A,3,04,21,27,,,,,,,,,,1.3,0.7,1.1*24
###2023-12-09 13:47:19.012203$GBGSA,A,3,12,24,25,33,,,,,,,,,1.3,0.7,1.1*27
###2023-12-09 13:47:19.014530$GPGSV,2,1,06,04,51,304,49,16,73,229,40,26,78,041,41,28,34,089,45*7E
###2023-12-09 13:47:19.016288$GPGSV,2,2,06,29,18,043,42,31,56,073,50,,,,,,,,*7C
###2023-12-09 13:47:19.018620$GLGSV,2,1,05,65,43,312,44,72,56,213,38,73,17,056,38,74,55,024,38*6E
###2023-12-09 13:47:19.020076$GLGSV,2,2,05,75,47,280,46,,,,,,,,,,,,*59
###2023-12-09 13:47:19.022099$GAGSV,1,1,03,04,43,308,45,21,72,043,40,27,19,051,42,,,,*58
###2023-12-09 13:47:19.024434$GBGSV,1,1,04,12,19,122,41,24,58,052,47,25,54,282,44,33,40,213,37*61
###2023-12-09 13:47:19.025757$GNVTG,243.17,T,,M,0.00,N,0.00,K,A*20
###2023-12-09 13:47:19.027377$GNGST,184718.10,7.100,,,,0.200,0.120,0.320*63
###2023-12-09 13:47:19.028663$GNZDA,184718.10,09,12,2023,00,00*73
###2023-12-09 13:47:19.029297$GNEBP,,,,,,M*13
###2023-12-09 13:47:19.202242$GNGGA,184718.30,4138.0395568,N,07032.4384850,W,1,19,0.7,15.662,M,-29.746,M,0.0,*5E
###2023-12-09 13:47:19.403113$GNGGA,184718.50,4138.0395553,N,07032.4384851,W,1,19,0.7,15.663,M,-29.746,M,0.0,*50
###2023-12-09 13:47:19.601088$GNGGA,184718.70,4138.0395538,N,07032.4384850,W,1,19,0.7,15.668,M,-29.746,M,0.0,*55
###2023-12-09 13:47:19.801293$GNGGA,184718.90,4138.0395509,N,07032.4384856,W,1,19,0.7,15.666,M,-29.746,M,0.0,*51
###2023-12-09 13:47:20.004904$GNRMC,184719.10,A,4138.0395475,N,07032.4384852,W,0.04,243.17,091223,,,A*58
###2023-12-09 13:47:20.007971$GNGGA,184719.10,4138.0395475,N,07032.4384852,W,1,19,0.7,15.667,M,-29.746,M,0.0,*57
###2023-12-09 13:47:20.009814$GPGSA,A,3,04,16,26,28,29,31,,,,,,,1.3,0.7,1.1*33
###2023-12-09 13:47:20.011593$GLGSA,A,3,65,72,73,74,75,,,,,,,,1.3,0.7,1.1*28
###2023-12-09 13:47:20.013217$GAGSA,A,3,04,21,27,,,,,,,,,,1.3,0.7,1.1*24
###2023-12-09 13:47:20.014961$GBGSA,A,3,12,24,25,33,35,,,,,,,,1.3,0.7,1.1*21
###2023-12-09 13:47:20.017275$GPGSV,2,1,06,04,51,304,49,16,73,229,40,26,78,041,41,28,34,089,45*7E
###2023-12-09 13:47:20.019028$GPGSV,2,2,06,29,18,043,42,31,56,073,50,,,,,,,,*7C
###2023-12-09 13:47:20.021347$GLGSV,2,1,05,65,43,312,44,72,56,213,37,73,17,056,39,74,55,024,37*6F
###2023-12-09 13:47:20.022805$GLGSV,2,2,05,75,47,280,46,,,,,,,,,,,,*59
###2023-12-09 13:47:20.024831$GAGSV,1,1,03,04,43,308,45,21,72,043,40,27,19,051,42,,,,*58
###2023-12-09 13:47:20.027169$GBGSV,2,1,05,12,19,122,42,24,58,052,47,25,54,282,44,33,40,213,37*60
###2023-12-09 13:47:20.028621$GBGSV,2,2,05,35,16,051,35,,,,,,,,,,,,*5D
###2023-12-09 13:47:20.029936$GNVTG,243.17,T,,M,0.04,N,0.07,K,A*23
###2023-12-09 13:47:20.031550$GNGST,184719.10,7.600,,,,0.200,0.120,0.320*65
###2023-12-09 13:47:20.032838$GNZDA,184719.10,09,12,2023,00,00*72
###2023-12-09 13:47:20.033473$GNEBP,,,,,,M*13
###2023-12-09 13:47:20.201418$GNGGA,184719.30,4138.0395462,N,07032.4384859,W,1,19,0.7,15.668,M,-29.746,M,0.0,*57
###2023-12-09 13:47:20.403218$GNGGA,184719.50,4138.0395442,N,07032.4384850,W,1,19,0.7,15.664,M,-29.746,M,0.0,*56
###2023-12-09 13:47:20.601006$GNGGA,184719.70,4138.0395418,N,07032.4384846,W,1,19,0.7,15.670,M,-29.746,M,0.0,*59
###2023-12-09 13:47:20.808173$GNGGA,184719.90,4138.0395391,N,07032.4384847,W,1,19,0.7,15.671,M,-29.746,M,0.0,*51
###2023-12-09 13:47:21.005176$GNRMC,184720.10,A,4138.0395362,N,07032.4384858,W,0.04,243.17,091223,,,A*59
###2023-12-09 13:47:21.008060$GNGGA,184720.10,4138.0395362,N,07032.4384858,W,1,19,0.7,15.669,M,-29.746,M,0.0,*58
###2023-12-09 13:47:21.009789$GPGSA,A,3,04,16,26,28,29,31,,,,,,,1.3,0.7,1.1*33
###2023-12-09 13:47:21.011456$GLGSA,A,3,65,72,73,74,75,,,,,,,,1.3,0.7,1.1*28
###2023-12-09 13:47:21.012972$GAGSA,A,3,04,21,27,,,,,,,,,,1.3,0.7,1.1*24
###2023-12-09 13:47:21.014625$GBGSA,A,3,12,24,25,33,35,,,,,,,,1.3,0.7,1.1*21
###2023-12-09 13:47:21.016952$GPGSV,2,1,06,04,51,304,49,16,73,229,41,26,78,041,41,28,34,089,45*7F
###2023-12-09 13:47:21.018707$GPGSV,2,2,06,29,18,043,42,31,56,073,49,,,,,,,,*74
###2023-12-09 13:47:21.021040$GLGSV,2,1,05,65,43,312,44,72,56,213,36,73,17,056,38,74,55,024,37*6F
###2023-12-09 13:47:21.022495$GLGSV,2,2,05,75,47,280,46,,,,,,,,,,,,*59
###2023-12-09 13:47:21.024796$GAGSV,1,1,03,04,43,308,45,21,72,043,40,27,19,051,42,,,,*58
###2023-12-09 13:47:21.027152$GBGSV,2,1,05,12,19,122,42,24,58,052,47,25,54,282,44,33,40,213,36*61
###2023-12-09 13:47:21.028614$GBGSV,2,2,05,35,16,051,35,,,,,,,,,,,,*5D
###2023-12-09 13:47:21.029938$GNVTG,243.17,T,,M,0.04,N,0.07,K,A*23
###2023-12-09 13:47:21.031570$GNGST,184720.10,7.600,,,,0.200,0.120,0.320*6F
###2023-12-09 13:47:21.032860$GNZDA,184720.10,09,12,2023,00,00*78
###2023-12-09 13:47:21.033499$GNEBP,,,,,,M*13
