###2023-12-09 13:20:46.016507$GNZDA,182045.10,09,12,2023,00,00*7A
###2023-12-09 13:20:46.017165$GNEBP,,,,,,M*13
###2023-12-09 13:20:46.182371$GNGGA,182045.30,4138.0295119,N,07032.3276012,W,1,24,0.7,12.718,M,-29.744,M,0.0,*56
###2023-12-09 13:20:46.383379$GNGGA,182045.50,4138.0293267,N,07032.3276121,W,1,24,0.7,12.710,M,-29.744,M,0.0,*55
###2023-12-09 13:20:46.582871$GNGGA,182045.70,4138.0291366,N,07032.3276261,W,1,24,0.7,12.719,M,-29.744,M,0.0,*5B
###2023-12-09 13:20:46.783031$GNGGA,182045.90,4138.0289500,N,07032.3276551,W,1,24,0.7,12.740,M,-29.744,M,0.0,*52
###2023-12-09 13:20:46.988111$GNRMC,182046.10,A,4138.0287577,N,07032.3276654,W,3.50,178.67,091223,,,A*5F
###2023-12-09 13:20:46.990990$GNGGA,182046.10,4138.0287577,N,07032.3276654,W,1,24,0.7,12.728,M,-29.744,M,0.0,*5F
###2023-12-09 13:20:46.992814$GPGSA,A,3,03,04,16,26,28,29,31,,,,,,1.1,0.7,0.9*3B
###2023-12-09 13:20:46.994530$GLGSA,A,3,65,71,72,73,74,75,,,,,,,1.1,0.7,0.9*25
###2023-12-09 13:20:46.996116$GAGSA,A,3,04,19,21,27,,,,,,,,,1.1,0.7,0.9*27
###2023-12-09 13:20:46.997824$GBGSA,A,3,14,24,25,26,33,35,,,,,,,1.1,0.7,0.9*28
###2023-12-09 13:20:47.000154$GPGSV,2,1,07,03,31,253,41,04,40,310,45,16,59,217,45,26,89,196,48*77
###2023-12-09 13:20:47.002195$GPGSV,2,2,07,28,43,079,45,29,23,053,41,31,64,055,47,,,,*46
###2023-12-09 13:20:47.004547$GLGSV,2,1,06,65,33,323,43,71,30,174,42,72,69,234,45,73,27,048,43*63
###2023-12-09 13:20:47.006296$GLGSV,2,2,06,74,64,002,43,75,38,262,46,,,,,,,,*6A
###2023-12-09 13:20:47.008636$GAGSV,1,1,04,04,35,311,44,19,78,187,40,21,82,056,46,27,27,049,40*61
###2023-12-09 13:20:47.010970$GBGSV,2,1,06,14,35,191,41,24,67,039,49,25,47,270,48,26,20,067,44*6B
###2023-12-09 13:20:47.012712$GBGSV,2,2,06,33,51,222,47,35,16,062,44,,,,,,,,*6D
###2023-12-09 13:20:47.014032$GNVTG,178.67,T,,M,3.50,N,6.48,K,A*20
###2023-12-09 13:20:47.015687$GNGST,182046.10,18.000,,,,0.100,0.069,0.160*5F
###2023-12-09 13:20:47.016980$GNZDA,182046.10,09,12,2023,00,00*79
###2023-12-09 13:20:47.017619$GNEBP,,,,,,M*13
###2023-12-09 13:20:47.182295$GNGGA,182046.30,4138.0285679,N,07032.3276665,W,1,24,0.7,12.713,M,-29.744,M,0.0,*58
###2023-12-09 13:20:47.383306$GNGGA,182046.50,4138.0283774,N,07032.3276910,W,1,24,0.7,12.736,M,-29.744,M,0.0,*5E
###2023-12-09 13:20:47.584025$GNGGA,182046.70,4138.0281822,N,07032.3277040,W,1,24,0.7,12.728,M,-29.744,M,0.0,*50
###2023-12-09 13:20:47.783294$GNGGA,182046.90,4138.0279978,N,07032.3277118,W,1,24,0.7,12.735,M,-29.744,M,0.0,*57
###2023-12-09 13:20:47.987391$GNRMC,182047.10,A,4138.0278054,N,07032.3277293,W,3.58,181.04,091223,,,A*5F
###2023-12-09 13:20:47.990259$GNGGA,182047.10,4138.0278054,N,07032.3277293,W,1,24,0.7,12.756,M,-29.744,M,0.0,*5D
###2023-12-09 13:20:47.992063$GPGSA,A,3,03,04,16,26,28,29,31,,,,,,1.1,0.7,0.9*3B
###2023-12-09 13:20:47.993779$GLGSA,A,3,65,71,72,73,74,75,,,,,,,1.1,0.7,0.9*25
###2023-12-09 13:20:47.995371$GAGSA,A,3,04,19,21,27,,,,,,,,,1.1,0.7,0.9*27
###2023-12-09 13:20:47.997083$GBGSA,A,3,14,24,25,26,33,35,,,,,,,1.1,0.7,0.9*28
###2023-12-09 13:20:47.999418$GPGSV,2,1,07,03,31,253,42,04,40,310,44,16,59,217,46,26,89,196,48*76
###2023-12-09 13:20:48.001447$GPGSV,2,2,07,28,43,079,45,29,23,053,42,31,64,055,47,,,,*45
###2023-12-09 13:20:48.003782$GLGSV,2,1,06,65,33,323,43,71,30,174,43,72,69,234,45,73,27,048,43*62
###2023-12-09 13:20:48.005530$GLGSV,2,2,06,74,64,002,43,75,39,263,47,,,,,,,,*6B
###2023-12-09 13:20:48.007862$GAGSV,1,1,04,04,35,311,43,19,78,187,40,21,82,056,46,27,27,049,41*67
###2023-12-09 13:20:48.010189$GBGSV,2,1,06,14,35,191,42,24,67,039,49,25,47,270,48,26,20,067,44*68
###2023-12-09 13:20:48.011933$GBGSV,2,2,06,33,51,222,48,35,16,062,44,,,,,,,,*62
###2023-12-09 13:20:48.013254$GNVTG,181.04,T,,M,3.58,N,6.62,K,A*23
###2023-12-09 13:20:48.014908$GNGST,182047.10,18.000,,,,0.100,0.069,0.160*5E
###2023-12-09 13:20:48.016235$GNZDA,182047.10,09,12,2023,00,00*78
###2023-12-09 13:20:48.016875$GNEBP,,,,,,M*13
###2023-12-09 13:20:48.183471$GNGGA,182047.30,4138.0276146,N,07032.3277296,W,1,24,0.7,12.718,M,-29.744,M,0.0,*5C
###2023-12-09 13:20:48.383159$GNGGA,182047.50,4138.0274284,N,07032.3277487,W,1,24,0.7,12.750,M,-29.744,M,0.0,*5F
###2023-12-09 13:20:48.586392$GNGGA,182047.70,4138.0272304,N,07032.3277794,W,1,24,0.7,12.764,M,-29.744,M,0.0,*54
###2023-12-09 13:20:48.783925$GNGGA,182047.90,4138.0270447,N,07032.3277675,W,1,24,0.7,12.733,M,-29.744,M,0.0,*54
###2023-12-09 13:20:48.995211$GNRMC,182048.10,A,4138.0268554,N,07032.3277614,W,3.63,183.58,091223,,,A*5C
###2023-12-09 13:20:48.998074$GNGGA,182048.10,4138.0268554,N,07032.3277614,W,1,24,0.7,12.756,M,-29.745,M,0.0,*5C
###2023-12-09 13:20:48.999887$GPGSA,A,3,03,04,16,26,28,29,31,,,,,,1.1,0.7,0.9*3B
###2023-12-09 13:20:49.001598$GLGSA,A,3,65,71,72,73,74,75,,,,,,,1.1,0.7,0.9*25
###2023-12-09 13:20:49.003194$GAGSA,A,3,04,19,21,27,,,,,,,,,1.1,0.7,0.9*27
###2023-12-09 13:20:49.004905$GBGSA,A,3,14,24,25,26,33,35,,,,,,,1.1,0.7,0.9*28
###2023-12-09 13:20:49.007240$GPGSV,2,1,07,03,31,253,40,04,40,310,45,16,59,217,45,26,89,196,48*76
###2023-12-09 13:20:49.009278$GPGSV,2,2,07,28,43,079,45,29,23,053,43,31,64,055,47,,,,*44
###2023-12-09 13:20:49.011614$GLGSV,2,1,06,65,33,323,43,71,30,174,43,72,69,234,45,73,27,048,44*65
###2023-12-09 13:20:49.013362$GLGSV,2,2,06,74,64,002,43,75,39,263,46,,,,,,,,*6A
###2023-12-09 13:20:49.015704$GAGSV,1,1,04,04,35,311,43,19,78,187,40,21,82,056,46,27,27,049,42*64
###2023-12-09 13:20:49.018044$GBGSV,2,1,06,14,35,191,41,24,67,039,49,25,47,270,47,26,20,067,45*65
###2023-12-09 13:20:49.019807$GBGSV,2,2,06,33,51,222,46,35,16,062,44,,,,,,,,*6C
###2023-12-09 13:20:49.021141$GNVTG,183.58,T,,M,3.63,N,6.73,K,A*20
###2023-12-09 13:20:49.022804$GNGST,182048.10,18.000,,,,0.100,0.069,0.160*51
###2023-12-09 13:20:49.024097$GNZDA,182048.10,09,12,2023,00,00*77
###2023-12-09 13:20:49.024739$GNEBP,,,,,,M*13
###2023-12-09 13:20:49.190131$GNGGA,182048.30,4138.0266613,N,07032.3277806,W,1,24,0.7,12.753,M,-29.745,M,0.0,*58
###2023-12-09 13:20:49.383127$GNGGA,182048.50,4138.0264708,N,07032.3277953,W,1,24,0.7,12.755,M,-29.745,M,0.0,*50
###2023-12-09 13:20:49.584038$GNGGA,182048.70,4138.0262803,N,07032.3277859,W,1,24,0.7,12.751,M,-29.745,M,0.0,*5F
###2023-12-09 13:20:49.783986$GNGGA,182048.90,4138.0260900,N,07032.3277876,W,1,24,0.7,12.744,M,-29.745,M,0.0,*58
###2023-12-09 13:20:49.988360$GNRMC,182049.10,A,4138.0258934,N,07032.3277959,W,3.56,182.57,091223,,,A*5A
###2023-12-09 13:20:49.991241$GNGGA,182049.10,4138.0258934,N,07032.3277959,W,1,24,0.7,12.742,M,-29.745,M,0.0,*57
###2023-12-09 13:20:49.993029$GPGSA,A,3,03,04,16,26,28,29,31,,,,,,1.1,0.7,0.9*3B
###2023-12-09 13:20:49.994752$GLGSA,A,3,65,71,72,73,74,75,,,,,,,1.1,0.7,0.9*25
###2023-12-09 13:20:49.996334$GAGSA,A,3,04,19,21,27,,,,,,,,,1.1,0.7,0.9*27
###2023-12-09 13:20:49.998039$GBGSA,A,3,14,24,25,26,33,35,,,,,,,1.1,0.7,0.9*28
###2023-12-09 13:20:50.000386$GPGSV,2,1,07,03,31,253,41,04,40,310,45,16,59,217,46,26,89,196,48*74
###2023-12-09 13:20:50.002437$GPGSV,2,2,07,28,43,079,45,29,23,053,42,31,64,055,46,,,,*44
###2023-12-09 13:20:50.004784$GLGSV,2,1,06,65,33,323,42,71,30,174,43,72,69,234,45,73,27,048,43*63
###2023-12-09 13:20:50.006541$GLGSV,2,2,06,74,64,002,43,75,39,263,47,,,,,,,,*6B
###2023-12-09 13:20:50.008878$GAGSV,1,1,04,04,35,311,44,19,77,186,40,21,81,055,47,27,27,049,40*6E
###2023-12-09 13:20:50.011217$GBGSV,2,1,06,14,35,191,43,24,67,039,49,25,47,270,47,26,20,067,45*67
###2023-12-09 13:20:50.012959$GBGSV,2,2,06,33,51,222,46,35,16,062,44,,,,,,,,*6C
###2023-12-09 13:20:50.014283$GNVTG,182.57,T,,M,3.56,N,6.59,K,A*20
###2023-12-09 13:20:50.015941$GNGST,182049.10,18.000,,,,0.100,0.069,0.160*50
###2023-12-09 13:20:50.017231$GNZDA,182049.10,09,12,2023,00,00*76
###2023-12-09 13:20:50.017868$GNEBP,,,,,,M*13
###2023-12-09 13:20:50.184041$GNGGA,182049.30,4138.0257073,N,07032.3278214,W,1,24,0.7,12.757,M,-29.745,M,0.0,*59
###2023-12-09 13:20:50.383864$GNGGA,182049.50,4138.0255155,N,07032.3278423,W,1,24,0.7,12.781,M,-29.745,M,0.0,*51
###2023-12-09 13:20:50.585099$GNGGA,182049.70,4138.0253217,N,07032.3278402,W,1,24,0.7,12.744,M,-29.745,M,0.0,*5A
###2023-12-09 13:20:50.784343$GNGGA,182049.90,4138.0251354,N,07032.3278499,W,1,24,0.7,12.743,M,-29.745,M,0.0,*55
###2023-12-09 13:20:50.988384$GNRMC,182050.10,A,4138.0249410,N,07032.3278976,W,3.60,188.39,091223,,,A*5C
###2023-12-09 13:20:50.991518$GNGGA,182050.10,4138.0249410,N,07032.3278976,W,1,24,0.7,12.797,M,-29.745,M,0.0,*5E
###2023-12-09 13:20:50.993324$GPGSA,A,3,03,04,16,26,28,29,31,,,,,,1.1,0.7,0.9*3B
###2023-12-09 13:20:50.995057$GLGSA,A,3,65,71,72,73,74,75,,,,,,,1.1,0.7,0.9*25
###2023-12-09 13:20:50.996643$GAGSA,A,3,04,19,21,27,,,,,,,,,1.1,0.7,0.9*27
###2023-12-09 13:20:50.998351$GBGSA,A,3,14,24,25,26,33,35,,,,,,,1.1,0.7,0.9*28
###2023-12-09 13:20:51.000685$GPGSV,2,1,07,03,31,253,41,04,40,310,45,16,59,217,46,26,89,196,48*74
###2023-12-09 13:20:51.002728$GPGSV,2,2,07,28,43,079,44,29,23,053,40,31,64,055,46,,,,*47
###2023-12-09 13:20:51.005049$GLGSV,2,1,06,65,33,323,42,71,30,174,43,72,69,234,46,73,27,048,43*60
###2023-12-09 13:20:51.006811$GLGSV,2,2,06,74,64,002,43,75,39,263,47,,,,,,,,*6B
