###2023-12-09 13:14:01.775184$GNGGA,181400.90,4138.0455308,N,07032.2980620,W,1,24,0.7,13.006,M,-29.743,M,0.0,*58
###2023-12-09 13:14:01.978490$GNRMC,181401.10,A,4138.0455162,N,07032.2983281,W,3.62,266.30,091223,,,A*51
###2023-12-09 13:14:01.981368$GNGGA,181401.10,4138.0455162,N,07032.2983281,W,1,24,0.7,13.026,M,-29.743,M,0.0,*51
###2023-12-09 13:14:01.983172$GPGSA,A,3,03,04,16,26,28,29,31,,,,,,1.2,0.7,1.0*30
###2023-12-09 13:14:01.984882$GLGSA,A,3,65,71,72,73,74,75,,,,,,,1.2,0.7,1.0*2E
###2023-12-09 13:14:01.986461$GAGSA,A,3,04,19,21,27,,,,,,,,,1.2,0.7,1.0*2C
###2023-12-09 13:14:01.988186$GBGSA,A,3,14,24,25,26,33,35,,,,,,,1.2,0.7,1.0*23
###2023-12-09 13:14:01.990510$GPGSV,2,1,07,03,32,255,42,04,38,311,43,16,56,215,46,26,86,209,48*7D
###2023-12-09 13:14:01.992566$GPGSV,2,2,07,28,45,076,45,29,24,055,41,31,65,050,47,,,,*4A
###2023-12-09 13:14:01.994910$GLGSV,2,1,06,65,29,325,41,71,34,174,46,72,71,246,45,73,31,045,44*6D
###2023-12-09 13:14:01.996663$GLGSV,2,2,06,74,66,353,43,75,36,259,42,,,,,,,,*6D
###2023-12-09 13:14:01.998995$GAGSV,1,1,04,04,33,312,40,19,80,192,40,21,84,066,45,27,29,048,40*6A
###2023-12-09 13:14:02.001320$GBGSV,2,1,06,14,38,192,43,24,70,034,49,25,44,267,43,26,22,065,45*63
###2023-12-09 13:14:02.003074$GBGSV,2,2,06,33,53,226,47,35,15,065,45,,,,,,,,*6E
###2023-12-09 13:14:02.004404$GNVTG,266.30,T,,M,3.62,N,6.70,K,A*24
###2023-12-09 13:14:02.006052$GNGST,181401.10,18.000,,,,0.097,0.074,0.170*59
###2023-12-09 13:14:02.007356$GNZDA,181401.10,09,12,2023,00,00*7D
###2023-12-09 13:14:02.007996$GNEBP,,,,,,M*13
###2023-12-09 13:14:02.174224$GNGGA,181401.30,4138.0455102,N,07032.2986026,W,1,24,0.7,13.038,M,-29.743,M,0.0,*50
###2023-12-09 13:14:02.376039$GNGGA,181401.50,4138.0455010,N,07032.2988804,W,1,24,0.7,13.034,M,-29.743,M,0.0,*5E
###2023-12-09 13:14:02.576321$GNGGA,181401.70,4138.0454701,N,07032.2991492,W,1,24,0.7,13.019,M,-29.743,M,0.0,*5E
###2023-12-09 13:14:02.776522$GNGGA,181401.90,4138.0454502,N,07032.2994200,W,1,24,0.7,13.036,M,-29.743,M,0.0,*54
###2023-12-09 13:14:02.978936$GNRMC,181402.10,A,4138.0454277,N,07032.2996886,W,3.63,264.04,091223,,,A*59
###2023-12-09 13:14:02.981812$GNGGA,181402.10,4138.0454277,N,07032.2996886,W,1,24,0.7,13.038,M,-29.743,M,0.0,*52
###2023-12-09 13:14:02.983632$GPGSA,A,3,03,04,16,26,28,29,31,,,,,,1.2,0.7,1.0*30
###2023-12-09 13:14:02.985351$GLGSA,A,3,65,71,72,73,74,75,,,,,,,1.2,0.7,1.0*2E
###2023-12-09 13:14:02.986944$GAGSA,A,3,04,19,21,27,,,,,,,,,1.2,0.7,1.0*2C
###2023-12-09 13:14:02.988658$GBGSA,A,3,14,24,25,26,33,35,,,,,,,1.2,0.7,1.0*23
###2023-12-09 13:14:02.990994$GPGSV,2,1,07,03,32,255,42,04,38,311,42,16,56,215,46,26,86,209,48*7C
###2023-12-09 13:14:02.993038$GPGSV,2,2,07,28,45,076,45,29,24,055,40,31,65,050,47,,,,*4B
###2023-12-09 13:14:02.995378$GLGSV,2,1,06,65,29,325,41,71,34,174,46,72,71,246,44,73,31,045,44*6C
###2023-12-09 13:14:02.997141$GLGSV,2,2,06,74,66,353,43,75,36,259,43,,,,,,,,*6C
###2023-12-09 13:14:02.999492$GAGSV,1,1,04,04,33,312,40,19,80,192,40,21,84,066,46,27,29,048,41*68
###2023-12-09 13:14:03.001835$GBGSV,2,1,06,14,38,192,43,24,70,034,49,25,44,267,43,26,22,065,43*65
###2023-12-09 13:14:03.003608$GBGSV,2,2,06,33,53,226,48,35,15,065,44,,,,,,,,*60
###2023-12-09 13:14:03.004952$GNVTG,264.04,T,,M,3.63,N,6.73,K,A*23
###2023-12-09 13:14:03.006634$GNGST,181402.10,18.000,,,,0.097,0.074,0.170*5A
###2023-12-09 13:14:03.007934$GNZDA,181402.10,09,12,2023,00,00*7E
###2023-12-09 13:14:03.008575$GNEBP,,,,,,M*13
###2023-12-09 13:14:03.177227$GNGGA,181402.30,4138.0454197,N,07032.2999555,W,1,24,0.7,13.039,M,-29.743,M,0.0,*50
###2023-12-09 13:14:03.374353$GNGGA,181402.50,4138.0454104,N,07032.3002244,W,1,24,0.7,13.054,M,-29.743,M,0.0,*5A
###2023-12-09 13:14:03.576230$GNGGA,181402.70,4138.0454070,N,07032.3005004,W,1,24,0.7,13.058,M,-29.743,M,0.0,*57
###2023-12-09 13:14:03.775124$GNGGA,181402.90,4138.0454126,N,07032.3007830,W,1,24,0.7,13.061,M,-29.743,M,0.0,*5C
###2023-12-09 13:14:03.984381$GNRMC,181403.10,A,4138.0454215,N,07032.3010715,W,3.95,272.98,091223,,,A*54
###2023-12-09 13:14:03.987263$GNGGA,181403.10,4138.0454215,N,07032.3010715,W,1,24,0.7,13.060,M,-29.743,M,0.0,*59
###2023-12-09 13:14:03.989059$GPGSA,A,3,03,04,16,26,28,29,31,,,,,,1.2,0.7,1.0*30
###2023-12-09 13:14:03.990789$GLGSA,A,3,65,71,72,73,74,75,,,,,,,1.2,0.7,1.0*2E
###2023-12-09 13:14:03.992377$GAGSA,A,3,04,19,21,27,,,,,,,,,1.2,0.7,1.0*2C
###2023-12-09 13:14:03.994086$GBGSA,A,3,14,24,25,26,33,35,,,,,,,1.2,0.7,1.0*23
###2023-12-09 13:14:03.996424$GPGSV,2,1,07,03,32,255,40,04,38,311,43,16,56,215,46,26,86,209,48*7F
###2023-12-09 13:14:03.998467$GPGSV,2,2,07,28,45,076,45,29,24,055,41,31,65,050,47,,,,*4A
###2023-12-09 13:14:04.000805$GLGSV,2,1,06,65,29,325,41,71,34,174,45,72,71,246,45,73,31,045,43*69
###2023-12-09 13:14:04.002559$GLGSV,2,2,06,74,66,353,43,75,36,259,42,,,,,,,,*6D
###2023-12-09 13:14:04.004927$GAGSV,1,1,04,04,33,312,40,19,80,192,40,21,84,066,46,27,29,048,40*69
###2023-12-09 13:14:04.007267$GBGSV,2,1,06,14,38,192,43,24,70,034,49,25,44,267,44,26,22,065,43*62
###2023-12-09 13:14:04.009013$GBGSV,2,2,06,33,53,226,48,35,15,065,43,,,,,,,,*67
###2023-12-09 13:14:04.010336$GNVTG,272.98,T,,M,3.95,N,7.31,K,A*2F
###2023-12-09 13:14:04.011987$GNGST,181403.10,18.000,,,,0.097,0.074,0.170*5B
###2023-12-09 13:14:04.013280$GNZDA,181403.10,09,12,2023,00,00*7F
###2023-12-09 13:14:04.013919$GNEBP,,,,,,M*13
###2023-12-09 13:14:04.174047$GNGGA,181403.30,4138.0454349,N,07032.3013646,W,1,24,0.7,13.061,M,-29.743,M,0.0,*56
###2023-12-09 13:14:04.374448$GNGGA,181403.50,4138.0454565,N,07032.3016566,W,1,24,0.7,13.062,M,-29.743,M,0.0,*5F
###2023-12-09 13:14:04.575185$GNGGA,181403.70,4138.0454797,N,07032.3019509,W,1,24,0.7,13.059,M,-29.743,M,0.0,*5C
###2023-12-09 13:14:04.775006$GNGGA,181403.90,4138.0455108,N,07032.3022448,W,1,24,0.7,13.064,M,-29.743,M,0.0,*51
###2023-12-09 13:14:04.977522$GNRMC,181404.10,A,4138.0455549,N,07032.3025391,W,4.04,281.40,091223,,,A*54
###2023-12-09 13:14:04.980394$GNGGA,181404.10,4138.0455549,N,07032.3025391,W,1,24,0.7,13.079,M,-29.743,M,0.0,*57
###2023-12-09 13:14:04.982189$GPGSA,A,3,03,04,16,26,28,29,31,,,,,,1.2,0.7,1.0*30
###2023-12-09 13:14:04.983925$GLGSA,A,3,65,71,72,73,74,75,,,,,,,1.2,0.7,1.0*2E
###2023-12-09 13:14:04.985511$GAGSA,A,3,04,19,21,27,,,,,,,,,1.2,0.7,1.0*2C
###2023-12-09 13:14:04.987238$GBGSA,A,3,14,24,25,26,33,35,,,,,,,1.2,0.7,1.0*23
###2023-12-09 13:14:04.989567$GPGSV,2,1,07,03,32,255,40,04,38,311,42,16,56,215,46,26,86,209,48*7E
###2023-12-09 13:14:04.991622$GPGSV,2,2,07,28,45,076,46,29,24,055,41,31,65,050,47,,,,*49
###2023-12-09 13:14:04.993959$GLGSV,2,1,06,65,29,325,40,71,34,174,46,72,71,246,44,73,31,045,42*6B
###2023-12-09 13:14:04.995720$GLGSV,2,2,06,74,66,353,42,75,36,259,41,,,,,,,,*6F
###2023-12-09 13:14:04.998045$GAGSV,1,1,04,04,33,312,39,19,80,192,40,21,84,066,45,27,29,048,39*6A
###2023-12-09 13:14:05.000391$GBGSV,2,1,06,14,38,192,44,24,70,034,48,25,44,267,44,26,22,065,41*66
###2023-12-09 13:14:05.002147$GBGSV,2,2,06,33,53,226,47,35,15,065,43,,,,,,,,*68
###2023-12-09 13:14:05.003485$GNVTG,281.40,T,,M,4.04,N,7.49,K,A*26
###2023-12-09 13:14:05.005132$GNGST,181404.10,18.000,,,,0.097,0.074,0.170*5C
###2023-12-09 13:14:05.006422$GNZDA,181404.10,09,12,2023,00,00*78
###2023-12-09 13:14:05.007072$GNEBP,,,,,,M*13
###2023-12-09 13:14:05.174232$GNGGA,181404.30,4138.0455976,N,07032.3028335,W,1,24,0.7,13.080,M,-29.743,M,0.0,*50
###2023-12-09 13:14:05.374434$GNGGA,181404.50,4138.0456318,N,07032.3031295,W,1,24,0.7,13.074,M,-29.743,M,0.0,*5F
###2023-12-09 13:14:05.575859$GNGGA,181404.70,4138.0456703,N,07032.3034242,W,1,24,0.7,13.071,M,-29.743,M,0.0,*59
###2023-12-09 13:14:05.775299$GNGGA,181404.90,4138.0457141,N,07032.3037181,W,1,24,0.7,13.072,M,-29.743,M,0.0,*5A
###2023-12-09 13:14:05.978466$GNRMC,181405.10,A,4138.0457509,N,07032.3040116,W,3.98,276.96,091223,,,A*5C
###2023-12-09 13:14:05.981347$GNGGA,181405.10,4138.0457509,N,07032.3040116,W,1,24,0.7,13.070,M,-29.743,M,0.0,*57
###2023-12-09 13:14:05.983160$GPGSA,A,3,03,04,16,26,28,29,31,,,,,,1.2,0.7,1.0*30
###2023-12-09 13:14:05.984882$GLGSA,A,3,65,71,72,73,74,75,,,,,,,1.2,0.7,1.0*2E
###2023-12-09 13:14:05.986470$GAGSA,A,3,04,19,21,27,,,,,,,,,1.2,0.7,1.0*2C
###2023-12-09 13:14:05.988199$GBGSA,A,3,14,24,25,26,33,35,,,,,,,1.2,0.7,1.0*23
###2023-12-09 13:14:05.990909$GPGSV,2,1,07,03,32,255,42,04,38,311,43,16,56,215,46,26,86,209,48*7D
###2023-12-09 13:14:05.992970$GPGSV,2,2,07,28,45,076,46,29,24,055,41,31,65,050,47,,,,*49
###2023-12-09 13:14:05.995326$GLGSV,2,1,06,65,29,325,40,71,34,174,45,72,71,246,44,73,31,045,42*68
###2023-12-09 13:14:05.997084$GLGSV,2,2,06,74,66,353,42,75,36,259,42,,,,,,,,*6C
###2023-12-09 13:14:05.999423$GAGSV,1,1,04,04,33,312,41,19,80,192,40,21,84,066,46,27,29,048,40*68
###2023-12-09 13:14:06.001758$GBGSV,2,1,06,14,38,192,44,24,70,034,49,25,44,267,43,26,22,065,42*63
###2023-12-09 13:14:06.003521$GBGSV,2,2,06,33,53,226,47,35,15,065,43,,,,,,,,*68
###2023-12-09 13:14:06.004846$GNVTG,276.96,T,,M,3.98,N,7.38,K,A*21
###2023-12-09 13:14:06.006494$GNGST,181405.10,18.000,,,,0.097,0.075,0.170*5C
