###2023-12-09 13:42:31.027454$GNEBP,,,,,,M*13
###2023-12-09 13:42:31.198436$GNGGA,184230.30,4138.0394834,N,07032.4270325,W,1,22,0.7,13.654,M,-29.745,M,0.0,*5F
###2023-12-09 13:42:31.397519$GNGGA,184230.50,4138.0394874,N,07032.4270407,W,1,21,0.7,13.670,M,-29.745,M,0.0,*5F
###2023-12-09 13:42:31.597222$GNGGA,184230.70,4138.0394909,N,07032.4270455,W,1,21,0.7,13.658,M,-29.745,M,0.0,*5B
###2023-12-09 13:42:31.797154$GNGGA,184230.90,4138.0394931,N,07032.4270461,W,1,21,0.7,13.624,M,-29.745,M,0.0,*52
###2023-12-09 13:42:32.001322$GNRMC,184231.10,A,4138.0394912,N,07032.4270485,W,0.08,287.37,091223,,,A*50
###2023-12-09 13:42:32.004204$GNGGA,184231.10,4138.0394912,N,07032.4270485,W,1,22,0.7,13.629,M,-29.745,M,0.0,*5E
###2023-12-09 13:42:32.006058$GPGSA,A,3,03,04,09,16,26,28,29,31,,,,,1.1,0.7,0.8*33
###2023-12-09 13:42:32.007714$GLGSA,A,3,65,72,73,74,75,,,,,,,,1.1,0.7,0.8*22
###2023-12-09 13:42:32.009226$GAGSA,A,3,19,21,27,,,,,,,,,,1.1,0.7,0.8*22
###2023-12-09 13:42:32.010877$GBGSA,A,3,12,24,25,33,35,,,,,,,,1.1,0.7,0.8*2B
###2023-12-09 13:42:32.013194$GPGSV,2,1,08,03,24,243,37,04,49,306,35,09,15,317,35,16,70,226,48*78
###2023-12-09 13:42:32.015521$GPGSV,2,2,08,26,80,041,49,28,35,088,44,29,19,044,41,31,57,071,46*7B
###2023-12-09 13:42:32.017849$GLGSV,2,1,05,65,41,315,35,72,59,216,49,73,20,054,40,74,57,019,39*65
###2023-12-09 13:42:32.019309$GLGSV,2,2,05,75,45,276,41,,,,,,,,,,,,*55
###2023-12-09 13:42:32.021338$GAGSV,1,1,03,19,69,180,43,21,74,044,48,27,20,051,40,,,,*59
###2023-12-09 13:42:32.023668$GBGSV,2,1,05,12,18,124,43,24,60,050,46,25,53,280,40,33,43,215,42*68
###2023-12-09 13:42:32.025115$GBGSV,2,2,05,35,16,054,41,,,,,,,,,,,,*5B
###2023-12-09 13:42:32.026428$GNVTG,287.37,T,,M,0.08,N,0.14,K,A*27
###2023-12-09 13:42:32.028057$GNGST,184231.10,6.900,,,,0.140,0.110,0.210*62
###2023-12-09 13:42:32.029351$GNZDA,184231.10,09,12,2023,00,00*7D
###2023-12-09 13:42:32.029989$GNEBP,,,,,,M*13
###2023-12-09 13:42:32.197600$GNGGA,184231.30,4138.0394882,N,07032.4270501,W,1,23,0.6,13.664,M,-29.745,M,0.0,*50
###2023-12-09 13:42:32.403989$GNGGA,184231.50,4138.0394903,N,07032.4270502,W,1,23,0.6,13.673,M,-29.745,M,0.0,*5B
###2023-12-09 13:42:32.597108$GNGGA,184231.70,4138.0394910,N,07032.4270457,W,1,22,0.7,13.652,M,-29.745,M,0.0,*59
###2023-12-09 13:42:32.796735$GNGGA,184231.90,4138.0394902,N,07032.4270425,W,1,21,0.7,13.654,M,-29.745,M,0.0,*54
###2023-12-09 13:42:33.004781$GNRMC,184232.10,A,4138.0394866,N,07032.4270294,W,0.27,287.37,091223,,,A*5A
###2023-12-09 13:42:33.007661$GNGGA,184232.10,4138.0394866,N,07032.4270294,W,1,21,0.7,13.675,M,-29.745,M,0.0,*53
###2023-12-09 13:42:33.009513$GPGSA,A,3,03,04,09,16,26,28,29,31,,,,,1.1,0.7,0.8*33
###2023-12-09 13:42:33.011111$GLGSA,A,3,72,73,74,75,,,,,,,,,1.1,0.7,0.8*21
###2023-12-09 13:42:33.012626$GAGSA,A,3,19,21,27,,,,,,,,,,1.1,0.7,0.8*22
###2023-12-09 13:42:33.014268$GBGSA,A,3,12,24,25,33,35,,,,,,,,1.1,0.7,0.8*2B
###2023-12-09 13:42:33.016618$GPGSV,2,1,08,03,24,243,39,04,49,306,37,09,15,317,36,16,70,226,49*76
###2023-12-09 13:42:33.018963$GPGSV,2,2,08,26,80,041,50,28,35,088,45,29,19,044,43,31,57,071,48*7E
###2023-12-09 13:42:33.021331$GLGSV,1,1,04,72,59,216,49,73,20,054,40,74,57,019,40,75,45,276,39*64
###2023-12-09 13:42:33.023382$GAGSV,1,1,03,19,69,180,43,21,74,044,48,27,20,051,41,,,,*58
###2023-12-09 13:42:33.025716$GBGSV,2,1,05,12,18,124,43,24,60,050,47,25,53,280,41,33,43,215,44*6E
###2023-12-09 13:42:33.027180$GBGSV,2,2,05,35,16,054,42,,,,,,,,,,,,*58
###2023-12-09 13:42:33.028498$GNVTG,287.37,T,,M,0.27,N,0.50,K,A*2A
###2023-12-09 13:42:33.030106$GNGST,184232.10,6.000,,,,0.140,0.110,0.210*68
###2023-12-09 13:42:33.031406$GNZDA,184232.10,09,12,2023,00,00*7E
###2023-12-09 13:42:33.032042$GNEBP,,,,,,M*13
###2023-12-09 13:42:33.202840$GNGGA,184232.30,4138.0394830,N,07032.4270143,W,1,23,0.6,13.708,M,-29.745,M,0.0,*53
###2023-12-09 13:42:33.397235$GNGGA,184232.50,4138.0394772,N,07032.4270207,W,1,21,0.6,13.719,M,-29.745,M,0.0,*5D
###2023-12-09 13:42:33.596925$GNGGA,184232.70,4138.0394746,N,07032.4270358,W,1,21,0.7,13.728,M,-29.745,M,0.0,*50
###2023-12-09 13:42:33.798486$GNGGA,184232.90,4138.0394693,N,07032.4270572,W,1,21,0.6,13.749,M,-29.745,M,0.0,*5F
###2023-12-09 13:42:34.000193$GNRMC,184233.10,A,4138.0394670,N,07032.4270844,W,0.35,287.37,091223,,,A*56
###2023-12-09 13:42:34.003092$GNGGA,184233.10,4138.0394670,N,07032.4270844,W,1,19,0.8,13.801,M,-29.745,M,0.0,*55
###2023-12-09 13:42:34.004757$GPGSA,A,3,16,26,28,29,31,,,,,,,,1.3,0.8,1.0*39
###2023-12-09 13:42:34.006413$GLGSA,A,3,65,72,73,74,75,,,,,,,,1.3,0.8,1.0*26
###2023-12-09 13:42:34.007939$GAGSA,A,3,19,21,27,,,,,,,,,,1.3,0.8,1.0*26
###2023-12-09 13:42:34.009582$GBGSA,A,3,12,24,25,33,35,,,,,,,,1.3,0.8,1.0*2F
###2023-12-09 13:42:34.011925$GPGSV,2,1,05,16,70,226,48,26,80,041,48,28,35,088,46,29,19,044,39*77
###2023-12-09 13:42:34.013382$GPGSV,2,2,05,31,57,071,48,,,,,,,,,,,,*46
###2023-12-09 13:42:34.015728$GLGSV,2,1,05,65,41,315,39,72,59,216,47,73,20,054,41,74,57,019,41*69
###2023-12-09 13:42:34.017183$GLGSV,2,2,05,75,45,276,41,,,,,,,,,,,,*55
###2023-12-09 13:42:34.019218$GAGSV,1,1,03,19,69,180,43,21,74,044,47,27,20,051,40,,,,*56
###2023-12-09 13:42:34.021541$GBGSV,2,1,05,12,18,124,41,24,60,050,47,25,53,280,39,33,43,215,40*67
###2023-12-09 13:42:34.023000$GBGSV,2,2,05,35,16,054,41,,,,,,,,,,,,*5B
###2023-12-09 13:42:34.024320$GNVTG,287.37,T,,M,0.35,N,0.65,K,A*2F
###2023-12-09 13:42:34.025929$GNGST,184233.10,5.600,,,,0.140,0.110,0.210*6C
###2023-12-09 13:42:34.027227$GNZDA,184233.10,09,12,2023,00,00*7F
###2023-12-09 13:42:34.027863$GNEBP,,,,,,M*13
###2023-12-09 13:42:34.197888$GNGGA,184233.30,4138.0394608,N,07032.4270999,W,1,21,0.7,13.894,M,-29.745,M,0.0,*51
###2023-12-09 13:42:34.398256$GNGGA,184233.50,4138.0394613,N,07032.4271167,W,1,21,0.7,14.038,M,-29.745,M,0.0,*5C
###2023-12-09 13:42:34.596845$GNGGA,184233.70,4138.0394687,N,07032.4271497,W,1,21,0.7,14.165,M,-29.745,M,0.0,*50
###2023-12-09 13:42:34.796050$GNGGA,184233.90,4138.0394784,N,07032.4271816,W,1,23,0.6,14.266,M,-29.745,M,0.0,*5A
###2023-12-09 13:42:34.999714$GNRMC,184234.10,A,4138.0394919,N,07032.4272059,W,0.08,287.37,091223,,,A*59
###2023-12-09 13:42:35.002588$GNGGA,184234.10,4138.0394919,N,07032.4272059,W,1,23,0.6,14.340,M,-29.745,M,0.0,*5A
###2023-12-09 13:42:35.004448$GPGSA,A,3,03,04,09,16,26,28,29,31,,,,,1.1,0.6,0.8*32
###2023-12-09 13:42:35.006093$GLGSA,A,3,65,72,73,74,75,,,,,,,,1.1,0.6,0.8*23
###2023-12-09 13:42:35.007680$GAGSA,A,3,04,19,21,27,,,,,,,,,1.1,0.6,0.8*27
###2023-12-09 13:42:35.009317$GBGSA,A,3,12,24,25,33,35,,,,,,,,1.1,0.6,0.8*2A
###2023-12-09 13:42:35.011639$GPGSV,2,1,08,03,24,243,41,04,49,306,43,09,15,317,35,16,70,226,47*77
###2023-12-09 13:42:35.013961$GPGSV,2,2,08,26,80,041,48,28,35,088,45,29,19,044,39,31,57,071,46*74
###2023-12-09 13:42:35.016290$GLGSV,2,1,05,65,41,315,43,72,59,216,46,73,20,054,43,74,57,019,42*64
###2023-12-09 13:42:35.017736$GLGSV,2,2,05,75,45,276,47,,,,,,,,,,,,*53
###2023-12-09 13:42:35.020067$GAGSV,1,1,04,04,42,309,41,19,69,180,41,21,74,044,47,27,20,051,41*6F
###2023-12-09 13:42:35.022394$GBGSV,2,1,05,12,18,124,42,24,60,050,48,25,53,280,47,33,43,215,45*67
###2023-12-09 13:42:35.023858$GBGSV,2,2,05,35,16,054,44,,,,,,,,,,,,*5E
###2023-12-09 13:42:35.025172$GNVTG,287.37,T,,M,0.08,N,0.14,K,A*27
###2023-12-09 13:42:35.026789$GNGST,184234.10,5.900,,,,0.140,0.110,0.210*64
###2023-12-09 13:42:35.028077$GNZDA,184234.10,09,12,2023,00,00*78
###2023-12-09 13:42:35.028713$GNEBP,,,,,,M*13
###2023-12-09 13:42:35.198732$GNGGA,184234.30,4138.0395091,N,07032.4272161,W,1,23,0.6,14.393,M,-29.745,M,0.0,*54
###2023-12-09 13:42:35.397817$GNGGA,184234.50,4138.0395286,N,07032.4272207,W,1,23,0.6,14.416,M,-29.745,M,0.0,*5F
###2023-12-09 13:42:35.599065$GNGGA,184234.70,4138.0395432,N,07032.4272255,W,1,23,0.6,14.424,M,-29.745,M,0.0,*52
###2023-12-09 13:42:35.797511$GNGGA,184234.90,4138.0395559,N,07032.4272239,W,1,23,0.6,14.439,M,-29.745,M,0.0,*56
###2023-12-09 13:42:36.000440$GNRMC,184235.10,A,4138.0395691,N,07032.4272215,W,0.19,287.37,091223,,,A*5C
###2023-12-09 13:42:36.003313$GNGGA,184235.10,4138.0395691,N,07032.4272215,W,1,23,0.6,14.441,M,-29.745,M,0.0,*59
###2023-12-09 13:42:36.005175$GPGSA,A,3,03,04,09,16,26,28,29,31,,,,,1.1,0.6,0.8*32
###2023-12-09 13:42:36.007084$GLGSA,A,3,65,72,73,74,75,,,,,,,,1.1,0.6,0.8*23
###2023-12-09 13:42:36.008680$GAGSA,A,3,04,19,21,27,,,,,,,,,1.1,0.6,0.8*27
###2023-12-09 13:42:36.010330$GBGSA,A,3,12,24,25,33,35,,,,,,,,1.1,0.6,0.8*2A
###2023-12-09 13:42:36.012669$GPGSV,2,1,08,03,24,243,40,04,49,306,43,09,15,317,36,16,70,226,48*7A
###2023-12-09 13:42:36.015010$GPGSV,2,2,08,26,80,041,49,28,35,088,47,29,19,044,40,31,57,071,48*77
###2023-12-09 13:42:36.017341$GLGSV,2,1,05,65,41,315,43,72,59,216,46,73,20,054,44,74,57,019,43*62
###2023-12-09 13:42:36.018799$GLGSV,2,2,05,75,45,276,47,,,,,,,,,,,,*53
###2023-12-09 13:42:36.021113$GAGSV,1,1,04,04,42,309,42,19,69,180,43,21,74,044,47,27,20,051,42*6D
###2023-12-09 13:42:36.023446$GBGSV,2,1,05,12,18,124,40,24,60,050,48,25,53,280,45,33,42,214,44*66
