###2023-12-09 13:28:57.011116$GAGSA,A,3,04,19,21,27,,,,,,,,,1.1,0.6,0.9*26
###2023-12-09 13:28:57.012853$GBGSA,A,3,14,24,25,26,33,35,,,,,,,1.1,0.6,0.9*29
###2023-12-09 13:28:57.015194$GPGSV,2,1,07,03,28,249,42,04,43,309,45,16,63,220,46,26,87,041,48*77
###2023-12-09 13:28:57.017237$GPGSV,2,2,07,28,40,082,43,29,22,049,40,31,61,061,46,,,,*4F
###2023-12-09 13:28:57.019575$GLGSV,2,1,06,65,36,321,44,71,25,175,42,72,65,225,46,73,24,050,41*61
###2023-12-09 13:28:57.021316$GLGSV,2,2,06,74,61,010,42,75,42,268,47,,,,,,,,*6B
###2023-12-09 13:28:57.023647$GAGSV,1,1,04,04,38,311,43,19,74,183,41,21,79,049,45,27,24,049,37*68
###2023-12-09 13:28:57.025967$GBGSV,2,1,06,14,31,190,41,24,64,043,47,25,49,274,46,26,17,069,40*64
###2023-12-09 13:28:57.027731$GBGSV,2,2,06,33,48,219,46,35,16,058,40,,,,,,,,*61
###2023-12-09 13:28:57.029014$GNVTG,25.74,T,,M,0.58,N,1.08,K,A*13
###2023-12-09 13:28:57.030661$GNGST,182856.10,18.000,,,,0.100,0.070,0.160*5E
###2023-12-09 13:28:57.031949$GNZDA,182856.10,09,12,2023,00,00*70
###2023-12-09 13:28:57.032584$GNEBP,,,,,,M*13
###2023-12-09 13:28:57.201530$GNGGA,182856.30,4138.0458810,N,07032.4157281,W,1,24,0.6,13.368,M,-29.745,M,0.0,*56
###2023-12-09 13:28:57.391448$GNGGA,182856.50,4138.0458882,N,07032.4157202,W,1,24,0.6,13.383,M,-29.745,M,0.0,*55
###2023-12-09 13:28:57.597423$GNGGA,182856.70,4138.0458984,N,07032.4157114,W,1,24,0.6,13.381,M,-29.745,M,0.0,*56
###2023-12-09 13:28:57.791707$GNGGA,182856.90,4138.0459195,N,07032.4157207,W,1,24,0.6,13.364,M,-29.745,M,0.0,*5B
###2023-12-09 13:28:57.997084$GNRMC,182857.10,A,4138.0459464,N,07032.4157384,W,0.54,25.74,091223,,,A*62
###2023-12-09 13:28:57.999959$GNGGA,182857.10,4138.0459464,N,07032.4157384,W,1,24,0.6,13.340,M,-29.745,M,0.0,*55
###2023-12-09 13:28:58.001751$GPGSA,A,3,03,04,16,26,28,29,31,,,,,,1.1,0.6,0.9*3A
###2023-12-09 13:28:58.003478$GLGSA,A,3,65,71,72,73,74,75,,,,,,,1.1,0.6,0.9*24
###2023-12-09 13:28:58.005064$GAGSA,A,3,04,19,21,27,,,,,,,,,1.1,0.6,0.9*26
###2023-12-09 13:28:58.006781$GBGSA,A,3,14,24,25,26,33,35,,,,,,,1.1,0.6,0.9*29
###2023-12-09 13:28:58.009091$GPGSV,2,1,07,03,28,249,45,04,43,309,45,16,63,220,47,26,87,041,48*71
###2023-12-09 13:28:58.011143$GPGSV,2,2,07,28,40,082,44,29,22,049,40,31,61,061,46,,,,*48
###2023-12-09 13:28:58.013472$GLGSV,2,1,06,65,36,321,44,71,25,175,39,72,65,225,47,73,24,050,40*6D
###2023-12-09 13:28:58.015227$GLGSV,2,2,06,74,61,010,42,75,42,268,47,,,,,,,,*6B
###2023-12-09 13:28:58.017551$GAGSV,1,1,04,04,38,311,43,19,74,183,41,21,79,049,46,27,24,049,39*65
###2023-12-09 13:28:58.019893$GBGSV,2,1,06,14,31,190,44,24,64,043,49,25,49,274,48,26,17,069,43*62
###2023-12-09 13:28:58.021630$GBGSV,2,2,06,33,48,219,48,35,16,058,42,,,,,,,,*6D
###2023-12-09 13:28:58.022929$GNVTG,25.74,T,,M,0.54,N,1.01,K,A*16
###2023-12-09 13:28:58.024571$GNGST,182857.10,18.000,,,,0.100,0.070,0.170*5E
###2023-12-09 13:28:58.025855$GNZDA,182857.10,09,12,2023,00,00*71
###2023-12-09 13:28:58.026491$GNEBP,,,,,,M*13
###2023-12-09 13:28:58.191574$GNGGA,182857.30,4138.0459729,N,07032.4157544,W,1,24,0.6,13.329,M,-29.745,M,0.0,*58
###2023-12-09 13:28:58.390827$GNGGA,182857.50,4138.0459904,N,07032.4157567,W,1,24,0.6,13.333,M,-29.745,M,0.0,*55
###2023-12-09 13:28:58.592715$GNGGA,182857.70,4138.0460045,N,07032.4157545,W,1,24,0.6,13.346,M,-29.745,M,0.0,*53
###2023-12-09 13:28:58.791734$GNGGA,182857.90,4138.0460218,N,07032.4157542,W,1,24,0.6,13.336,M,-29.745,M,0.0,*57
###2023-12-09 13:28:58.997958$GNRMC,182858.10,A,4138.0460466,N,07032.4157660,W,0.52,25.74,091223,,,A*6C
###2023-12-09 13:28:59.000858$GNGGA,182858.10,4138.0460466,N,07032.4157660,W,1,24,0.6,13.312,M,-29.745,M,0.0,*5A
###2023-12-09 13:28:59.002675$GPGSA,A,3,03,04,16,26,28,29,31,,,,,,1.1,0.6,0.9*3A
###2023-12-09 13:28:59.004406$GLGSA,A,3,65,71,72,73,74,75,,,,,,,1.1,0.6,0.9*24
###2023-12-09 13:28:59.005997$GAGSA,A,3,04,19,21,27,,,,,,,,,1.1,0.6,0.9*26
###2023-12-09 13:28:59.007725$GBGSA,A,3,14,24,25,26,33,35,,,,,,,1.1,0.6,0.9*29
###2023-12-09 13:28:59.010052$GPGSV,2,1,07,03,28,249,42,04,43,309,45,16,63,220,46,26,87,041,49*76
###2023-12-09 13:28:59.012104$GPGSV,2,2,07,28,40,082,44,29,22,049,40,31,61,061,46,,,,*48
###2023-12-09 13:28:59.014428$GLGSV,2,1,06,65,36,321,43,71,25,175,41,72,65,225,47,73,24,050,43*66
###2023-12-09 13:28:59.016187$GLGSV,2,2,06,74,61,010,41,75,42,268,47,,,,,,,,*68
###2023-12-09 13:28:59.018512$GAGSV,1,1,04,04,38,311,43,19,74,183,41,21,79,049,46,27,24,049,39*65
###2023-12-09 13:28:59.020850$GBGSV,2,1,06,14,31,190,43,24,64,043,48,25,49,274,47,26,17,069,42*6A
###2023-12-09 13:28:59.022607$GBGSV,2,2,06,33,48,219,48,35,16,058,43,,,,,,,,*6C
###2023-12-09 13:28:59.023906$GNVTG,25.74,T,,M,0.52,N,0.97,K,A*1E
###2023-12-09 13:28:59.025555$GNGST,182858.10,18.000,,,,0.100,0.070,0.170*51
###2023-12-09 13:28:59.026896$GNZDA,182858.10,09,12,2023,00,00*7E
###2023-12-09 13:28:59.027543$GNEBP,,,,,,M*13
###2023-12-09 13:28:59.192824$GNGGA,182858.30,4138.0460720,N,07032.4157843,W,1,24,0.6,13.295,M,-29.745,M,0.0,*58
###2023-12-09 13:28:59.391398$GNGGA,182858.50,4138.0460915,N,07032.4157937,W,1,24,0.6,13.295,M,-29.745,M,0.0,*54
###2023-12-09 13:28:59.591771$GNGGA,182858.70,4138.0461077,N,07032.4157939,W,1,24,0.6,13.307,M,-29.745,M,0.0,*5E
###2023-12-09 13:28:59.791932$GNGGA,182858.90,4138.0461268,N,07032.4157974,W,1,24,0.6,13.315,M,-29.745,M,0.0,*56
###2023-12-09 13:28:59.996387$GNRMC,182859.10,A,4138.0461482,N,07032.4158076,W,0.41,25.74,091223,,,A*6A
###2023-12-09 13:28:59.999256$GNGGA,182859.10,4138.0461482,N,07032.4158076,W,1,24,0.6,13.302,M,-29.745,M,0.0,*5F
###2023-12-09 13:29:00.001042$GPGSA,A,3,03,04,16,26,28,29,31,,,,,,1.1,0.6,0.9*3A
###2023-12-09 13:29:00.002764$GLGSA,A,3,65,71,72,73,74,75,,,,,,,1.1,0.6,0.9*24
###2023-12-09 13:29:00.004349$GAGSA,A,3,04,19,21,27,,,,,,,,,1.1,0.6,0.9*26
###2023-12-09 13:29:00.006061$GBGSA,A,3,14,24,25,26,33,35,,,,,,,1.1,0.6,0.9*29
###2023-12-09 13:29:00.008394$GPGSV,2,1,07,03,28,249,43,04,43,309,45,16,63,220,46,26,87,041,49*77
###2023-12-09 13:29:00.010425$GPGSV,2,2,07,28,40,082,45,29,22,049,40,31,61,061,46,,,,*49
###2023-12-09 13:29:00.012758$GLGSV,2,1,06,65,36,321,43,71,25,175,39,72,65,225,47,73,24,050,40*6A
###2023-12-09 13:29:00.014501$GLGSV,2,2,06,74,61,010,41,75,42,268,47,,,,,,,,*68
###2023-12-09 13:29:00.016833$GAGSV,1,1,04,04,38,311,43,19,74,183,41,21,79,049,46,27,24,049,39*65
###2023-12-09 13:29:00.019165$GBGSV,2,1,06,14,31,190,43,24,64,043,47,25,49,274,47,26,17,069,42*65
###2023-12-09 13:29:00.020905$GBGSV,2,2,06,33,48,219,47,35,16,058,43,,,,,,,,*63
###2023-12-09 13:29:00.022190$GNVTG,25.74,T,,M,0.41,N,0.76,K,A*13
###2023-12-09 13:29:00.023839$GNGST,182859.10,18.000,,,,0.100,0.070,0.170*50
###2023-12-09 13:29:00.025124$GNZDA,182859.10,09,12,2023,00,00*7F
###2023-12-09 13:29:00.025758$GNEBP,,,,,,M*13
###2023-12-09 13:29:00.193900$GNGGA,182859.30,4138.0461703,N,07032.4158222,W,1,24,0.6,13.289,M,-29.745,M,0.0,*56
###2023-12-09 13:29:00.390365$GNGGA,182859.50,4138.0461877,N,07032.4158312,W,1,24,0.6,13.278,M,-29.745,M,0.0,*50
###2023-12-09 13:29:00.591689$GNGGA,182859.70,4138.0462054,N,07032.4158354,W,1,24,0.6,13.281,M,-29.745,M,0.0,*5C
###2023-12-09 13:29:00.791884$GNGGA,182859.90,4138.0462261,N,07032.4158504,W,1,24,0.6,13.290,M,-29.745,M,0.0,*55
###2023-12-09 13:29:00.995593$GNRMC,182900.10,A,4138.0462508,N,07032.4158662,W,0.37,25.74,091223,,,A*65
###2023-12-09 13:29:00.998450$GNGGA,182900.10,4138.0462508,N,07032.4158662,W,1,24,0.6,13.295,M,-29.745,M,0.0,*5E
###2023-12-09 13:29:01.000260$GPGSA,A,3,03,04,16,26,28,29,31,,,,,,1.1,0.6,0.9*3A
###2023-12-09 13:29:01.001987$GLGSA,A,3,65,71,72,73,74,75,,,,,,,1.1,0.6,0.9*24
###2023-12-09 13:29:01.003588$GAGSA,A,3,04,19,21,27,,,,,,,,,1.1,0.6,0.9*26
###2023-12-09 13:29:01.005311$GBGSA,A,3,14,24,25,26,33,35,,,,,,,1.1,0.6,0.9*29
###2023-12-09 13:29:01.007660$GPGSV,2,1,07,03,28,249,43,04,43,309,45,16,63,220,47,26,87,041,48*77
###2023-12-09 13:29:01.009707$GPGSV,2,2,07,28,40,082,43,29,22,049,37,31,61,061,46,,,,*4F
###2023-12-09 13:29:01.012061$GLGSV,2,1,06,65,36,321,43,71,25,175,39,72,65,225,47,73,24,050,42*68
###2023-12-09 13:29:01.013824$GLGSV,2,2,06,74,61,010,41,75,42,268,48,,,,,,,,*67
###2023-12-09 13:29:01.016172$GAGSV,1,1,04,04,38,311,45,19,74,183,42,21,79,049,46,27,24,049,38*61
###2023-12-09 13:29:01.018760$GBGSV,2,1,06,14,31,190,42,24,64,043,47,25,49,274,48,26,17,069,42*6B
###2023-12-09 13:29:01.020535$GBGSV,2,2,06,33,48,219,47,35,16,058,42,,,,,,,,*62
###2023-12-09 13:29:01.021832$GNVTG,25.74,T,,M,0.37,N,0.68,K,A*1D
###2023-12-09 13:29:01.023502$GNGST,182900.10,18.000,,,,0.100,0.070,0.170*5D
###2023-12-09 13:29:01.024799$GNZDA,182900.10,09,12,2023,00,00*72
###2023-12-09 13:29:01.025442$GNEBP,,,,,,M*13
###2023-12-09 13:29:01.191581$GNGGA,182900.30,4138.0462641,N,07032.4158623,W,1,24,0.6,13.274,M,-29.745,M,0.0,*58
###2023-12-09 13:29:01.390902$GNGGA,182900.50,4138.0462735,N,07032.4158557,W,1,24,0.6,13.248,M,-29.745,M,0.0,*53
###2023-12-09 13:29:01.591470$GNGGA,182900.70,4138.0462987,N,07032.4158766,W,1,24,0.6,13.254,M,-29.745,M,0.0,*5B
