###2023-12-09 12:34:19.965162$GNZDA,173419.10,09,12,2023,00,00*79
###2023-12-09 12:34:19.965825$GNEBP,,,,,,M*13
###2023-12-09 12:34:20.135916$GNGGA,173419.30,4138.0463353,N,07032.4229294,W,1,22,0.7,12.792,M,-29.745,M,0.0,*52
###2023-12-09 12:34:20.336120$GNGGA,173419.50,4138.0463569,N,07032.4229240,W,1,22,0.7,12.796,M,-29.745,M,0.0,*56
###2023-12-09 12:34:20.535949$GNGGA,173419.70,4138.0463721,N,07032.4229114,W,1,22,0.7,12.802,M,-29.745,M,0.0,*5A
###2023-12-09 12:34:20.732671$GNGGA,173419.90,4138.0463704,N,07032.4228876,W,1,23,0.7,12.803,M,-29.745,M,0.0,*5F
###2023-12-09 12:34:20.942981$GNRMC,173420.10,A,4138.0463652,N,07032.4228691,W,0.19,84.40,091223,,,A*61
###2023-12-09 12:34:20.945839$GNGGA,173420.10,4138.0463652,N,07032.4228691,W,1,23,0.7,12.799,M,-29.745,M,0.0,*54
###2023-12-09 12:34:20.947749$GPGSA,A,3,03,04,16,26,28,29,31,32,,,,,1.2,0.7,1.0*31
###2023-12-09 12:34:20.949426$GLGSA,A,3,71,72,73,74,75,,,,,,,,1.2,0.7,1.0*2D
###2023-12-09 12:34:20.951024$GAGSA,A,3,04,19,21,27,,,,,,,,,1.2,0.7,1.0*2C
###2023-12-09 12:34:20.952669$GBGSA,A,3,14,24,25,26,33,,,,,,,,1.2,0.7,1.0*25
###2023-12-09 12:34:20.955011$GPGSV,2,1,08,03,39,277,44,04,22,311,41,16,37,207,46,26,65,206,49*71
###2023-12-09 12:34:20.957345$GPGSV,2,2,08,28,58,055,45,29,25,075,41,31,73,358,46,32,31,134,42*75
###2023-12-09 12:34:20.959693$GLGSV,2,1,05,71,57,169,48,72,65,310,46,73,48,033,46,74,71,290,43*60
###2023-12-09 12:34:20.961152$GLGSV,2,2,05,75,22,241,40,,,,,,,,,,,,*51
###2023-12-09 12:34:20.963502$GAGSV,1,1,04,04,20,311,40,19,81,304,41,21,77,177,46,27,42,050,43*6F
###2023-12-09 12:34:20.965843$GBGSV,2,1,05,14,55,198,45,24,81,343,48,25,32,252,44,26,35,057,44*6D
###2023-12-09 12:34:20.967325$GBGSV,2,2,05,33,63,255,47,,,,,,,,,,,,*5A
###2023-12-09 12:34:20.968624$GNVTG,84.40,T,,M,0.19,N,0.36,K,A*16
###2023-12-09 12:34:20.970273$GNGST,173420.10,19.000,,,,0.087,0.079,0.180*55
###2023-12-09 12:34:20.971588$GNZDA,173420.10,09,12,2023,00,00*73
###2023-12-09 12:34:20.972231$GNEBP,,,,,,M*13
###2023-12-09 12:34:21.137162$GNGGA,173420.30,4138.0463854,N,07032.4228633,W,1,23,0.7,12.801,M,-29.745,M,0.0,*58
###2023-12-09 12:34:21.336141$GNGGA,173420.50,4138.0464155,N,07032.4228605,W,1,23,0.7,12.804,M,-29.745,M,0.0,*51
###2023-12-09 12:34:21.535549$GNGGA,173420.70,4138.0464205,N,07032.4228464,W,1,23,0.7,12.808,M,-29.745,M,0.0,*5C
###2023-12-09 12:34:21.733084$GNGGA,173420.90,4138.0464079,N,07032.4228204,W,1,23,0.7,12.806,M,-29.745,M,0.0,*55
###2023-12-09 12:34:21.934275$GNRMC,173421.10,A,4138.0464144,N,07032.4228079,W,0.45,84.40,091223,,,A*6E
###2023-12-09 12:34:21.937154$GNGGA,173421.10,4138.0464144,N,07032.4228079,W,1,23,0.7,12.801,M,-29.745,M,0.0,*5C
###2023-12-09 12:34:21.939065$GPGSA,A,3,03,04,16,26,28,29,31,32,,,,,1.2,0.7,1.0*31
###2023-12-09 12:34:21.940861$GLGSA,A,3,71,72,73,74,75,,,,,,,,1.2,0.7,1.0*2D
###2023-12-09 12:34:21.942462$GAGSA,A,3,04,19,21,27,,,,,,,,,1.2,0.7,1.0*2C
###2023-12-09 12:34:21.944159$GBGSA,A,3,14,24,25,26,33,,,,,,,,1.2,0.7,1.0*25
###2023-12-09 12:34:21.946475$GPGSV,2,1,08,03,39,277,44,04,22,311,40,16,37,207,45,26,65,206,48*72
###2023-12-09 12:34:21.948837$GPGSV,2,2,08,28,58,055,45,29,25,075,42,31,73,358,47,32,31,134,45*70
###2023-12-09 12:34:21.951184$GLGSV,2,1,05,71,57,169,49,72,65,310,46,73,48,033,46,74,71,290,43*61
###2023-12-09 12:34:21.952634$GLGSV,2,2,05,75,22,241,41,,,,,,,,,,,,*50
###2023-12-09 12:34:21.954952$GAGSV,1,1,04,04,20,311,40,19,81,304,41,21,77,177,46,27,42,050,43*6F
###2023-12-09 12:34:21.957281$GBGSV,2,1,05,14,55,198,47,24,81,343,48,25,32,252,45,26,35,057,45*6F
###2023-12-09 12:34:21.958753$GBGSV,2,2,05,33,63,255,47,,,,,,,,,,,,*5A
###2023-12-09 12:34:21.960049$GNVTG,84.40,T,,M,0.45,N,0.83,K,A*11
###2023-12-09 12:34:21.961700$GNGST,173421.10,19.000,,,,0.088,0.081,0.190*5D
###2023-12-09 12:34:21.963005$GNZDA,173421.10,09,12,2023,00,00*72
###2023-12-09 12:34:21.963646$GNEBP,,,,,,M*13
###2023-12-09 12:34:22.133834$GNGGA,173421.30,4138.0464490,N,07032.4228101,W,1,23,0.7,12.804,M,-29.745,M,0.0,*59
###2023-12-09 12:34:22.332754$GNGGA,173421.50,4138.0464710,N,07032.4228053,W,1,23,0.7,12.801,M,-29.745,M,0.0,*57
###2023-12-09 12:34:22.552157$GNGGA,173421.70,4138.0464622,N,07032.4227820,W,1,23,0.7,12.813,M,-29.745,M,0.0,*55
###2023-12-09 12:34:22.732104$GNGGA,173421.90,4138.0464535,N,07032.4227585,W,1,23,0.7,12.812,M,-29.745,M,0.0,*5D
###2023-12-09 12:34:22.935675$GNRMC,173422.10,A,4138.0464740,N,07032.4227542,W,0.62,84.40,091223,,,A*68
###2023-12-09 12:34:22.938543$GNGGA,173422.10,4138.0464740,N,07032.4227542,W,1,23,0.7,12.812,M,-29.745,M,0.0,*5D
###2023-12-09 12:34:22.940412$GPGSA,A,3,03,04,16,26,28,29,31,32,,,,,1.2,0.7,1.0*31
###2023-12-09 12:34:22.942064$GLGSA,A,3,71,72,73,74,75,,,,,,,,1.2,0.7,1.0*2D
###2023-12-09 12:34:22.943665$GAGSA,A,3,04,19,21,27,,,,,,,,,1.2,0.7,1.0*2C
###2023-12-09 12:34:22.945307$GBGSA,A,3,14,24,25,26,33,,,,,,,,1.2,0.7,1.0*25
###2023-12-09 12:34:22.947655$GPGSV,2,1,08,03,39,277,44,04,22,311,42,16,37,207,45,26,65,206,48*70
###2023-12-09 12:34:22.950012$GPGSV,2,2,08,28,58,055,45,29,25,075,41,31,73,358,47,32,31,134,43*75
###2023-12-09 12:34:22.952365$GLGSV,2,1,05,71,57,169,48,72,65,310,45,73,48,033,46,74,71,290,43*63
###2023-12-09 12:34:22.953826$GLGSV,2,2,05,75,22,241,40,,,,,,,,,,,,*51
###2023-12-09 12:34:22.956164$GAGSV,1,1,04,04,20,311,40,19,81,304,41,21,77,177,47,27,42,050,42*6F
###2023-12-09 12:34:22.958508$GBGSV,2,1,05,14,55,198,47,24,81,343,48,25,32,252,45,26,35,057,45*6F
###2023-12-09 12:34:22.959982$GBGSV,2,2,05,33,63,255,46,,,,,,,,,,,,*5B
###2023-12-09 12:34:22.961276$GNVTG,84.40,T,,M,0.62,N,1.15,K,A*1A
###2023-12-09 12:34:22.962943$GNGST,173422.10,17.000,,,,0.090,0.083,0.190*5B
###2023-12-09 12:34:22.964235$GNZDA,173422.10,09,12,2023,00,00*71
###2023-12-09 12:34:22.964875$GNEBP,,,,,,M*13
###2023-12-09 12:34:23.132386$GNGGA,173422.30,4138.0465065,N,07032.4227559,W,1,23,0.7,12.802,M,-29.745,M,0.0,*55
###2023-12-09 12:34:23.332920$GNGGA,173422.50,4138.0465166,N,07032.4227433,W,1,23,0.7,12.802,M,-29.745,M,0.0,*5C
###2023-12-09 12:34:23.534001$GNGGA,173422.70,4138.0465054,N,07032.4227207,W,1,23,0.7,12.813,M,-29.745,M,0.0,*5F
###2023-12-09 12:34:23.732181$GNGGA,173422.90,4138.0465087,N,07032.4227047,W,1,23,0.7,12.819,M,-29.745,M,0.0,*53
###2023-12-09 12:34:23.933255$GNRMC,173423.10,A,4138.0465371,N,07032.4227012,W,0.64,84.40,091223,,,A*68
###2023-12-09 12:34:23.936126$GNGGA,173423.10,4138.0465371,N,07032.4227012,W,1,23,0.7,12.820,M,-29.745,M,0.0,*5A
###2023-12-09 12:34:23.937987$GPGSA,A,3,03,04,16,26,28,29,31,32,,,,,1.2,0.7,1.0*31
###2023-12-09 12:34:23.939653$GLGSA,A,3,71,72,73,74,75,,,,,,,,1.2,0.7,1.0*2D
###2023-12-09 12:34:23.941243$GAGSA,A,3,04,19,21,27,,,,,,,,,1.2,0.7,1.0*2C
###2023-12-09 12:34:23.942909$GBGSA,A,3,14,24,25,26,33,,,,,,,,1.2,0.7,1.0*25
###2023-12-09 12:34:23.945234$GPGSV,2,1,08,03,39,277,45,04,22,311,41,16,37,207,45,26,65,206,48*72
###2023-12-09 12:34:23.947586$GPGSV,2,2,08,28,58,055,44,29,25,075,39,31,73,358,47,32,31,134,44*7C
###2023-12-09 12:34:23.949939$GLGSV,2,1,05,71,57,169,49,72,65,310,47,73,48,033,46,74,71,290,43*60
###2023-12-09 12:34:23.951412$GLGSV,2,2,05,75,22,241,38,,,,,,,,,,,,*5E
###2023-12-09 12:34:23.953736$GAGSV,1,1,04,04,20,311,40,19,81,304,41,21,77,177,46,27,42,050,43*6F
###2023-12-09 12:34:23.956082$GBGSV,2,1,05,14,55,198,46,24,81,343,48,25,32,252,45,26,35,057,44*6F
###2023-12-09 12:34:23.957541$GBGSV,2,2,05,33,63,255,47,,,,,,,,,,,,*5A
###2023-12-09 12:34:23.958846$GNVTG,84.40,T,,M,0.64,N,1.19,K,A*10
###2023-12-09 12:34:23.960529$GNGST,173423.10,17.000,,,,0.092,0.084,0.190*5F
###2023-12-09 12:34:23.961816$GNZDA,173423.10,09,12,2023,00,00*70
###2023-12-09 12:34:23.962454$GNEBP,,,,,,M*13
###2023-12-09 12:34:24.133731$GNGGA,173423.30,4138.0465622,N,07032.4226988,W,1,23,0.7,12.813,M,-29.745,M,0.0,*50
###2023-12-09 12:34:24.331669$GNGGA,173423.50,4138.0465621,N,07032.4226835,W,1,23,0.7,12.819,M,-29.745,M,0.0,*58
###2023-12-09 12:34:24.534225$GNGGA,173423.70,4138.0465560,N,07032.4226638,W,1,23,0.7,12.824,M,-29.745,M,0.0,*51
###2023-12-09 12:34:24.735241$GNGGA,173423.90,4138.0465707,N,07032.4226532,W,1,23,0.7,12.828,M,-29.745,M,0.0,*59
###2023-12-09 12:34:24.935539$GNRMC,173424.10,A,4138.0465988,N,07032.4226532,W,0.47,84.40,091223,,,A*64
###2023-12-09 12:34:24.938656$GNGGA,173424.10,4138.0465988,N,07032.4226532,W,1,23,0.7,12.822,M,-29.745,M,0.0,*55
###2023-12-09 12:34:24.940535$GPGSA,A,3,03,04,16,26,28,29,31,32,,,,,1.2,0.7,1.0*31
###2023-12-09 12:34:24.942190$GLGSA,A,3,71,72,73,74,75,,,,,,,,1.2,0.7,1.0*2D
###2023-12-09 12:34:24.943789$GAGSA,A,3,04,19,21,27,,,,,,,,,1.2,0.7,1.0*2C
###2023-12-09 12:34:24.945437$GBGSA,A,3,14,24,25,26,33,,,,,,,,1.2,0.7,1.0*25
###2023-12-09 12:34:24.947786$GPGSV,2,1,08,03,39,277,44,04,22,311,42,16,37,207,44,26,65,206,48*71
###2023-12-09 12:34:24.950138$GPGSV,2,2,08,28,58,055,45,29,25,075,40,31,73,358,48,32,31,134,41*79
###2023-12-09 12:34:24.952536$GLGSV,2,1,05,71,57,169,48,72,65,310,46,73,48,033,46,74,71,290,43*60
###2023-12-09 12:34:24.953999$GLGSV,2,2,05,75,22,241,38,,,,,,,,,,,,*5E
