###2023-12-09 12:23:46.932054$GPGSV,2,2,08,28,62,049,40,29,24,079,43,31,73,343,36,32,35,131,48*7D
###2023-12-09 12:23:46.934428$GLGSV,1,1,04,71,63,167,45,72,61,317,37,73,53,030,47,75,18,236,42*68
###2023-12-09 12:23:46.936520$GAGSV,1,1,03,04,17,310,36,21,73,180,47,27,45,051,46,,,,*51
###2023-12-09 12:23:46.938895$GBGSV,1,1,04,14,60,201,43,25,29,249,40,26,39,055,46,33,64,265,38*6B
###2023-12-09 12:23:46.940055$GNVTG,,T,,M,0.02,N,0.04,K,A*3B
###2023-12-09 12:23:46.941714$GNGST,172346.10,32.000,,,,0.110,0.100,0.240*55
###2023-12-09 12:23:46.943048$GNZDA,172346.10,09,12,2023,00,00*75
###2023-12-09 12:23:46.943707$GNEBP,,,,,,M*13
###2023-12-09 12:23:47.113977$GNGGA,172346.30,4138.0390311,N,07032.4356221,W,1,19,0.8,18.017,M,-29.746,M,0.0,*50
###2023-12-09 12:23:47.315586$GNGGA,172346.50,4138.0390354,N,07032.4356264,W,1,19,0.8,17.948,M,-29.746,M,0.0,*5A
###2023-12-09 12:23:47.514864$GNGGA,172346.70,4138.0390405,N,07032.4356302,W,1,19,0.8,17.884,M,-29.746,M,0.0,*5B
###2023-12-09 12:23:47.713731$GNGGA,172346.90,4138.0390457,N,07032.4356323,W,1,19,0.8,17.820,M,-29.746,M,0.0,*5F
###2023-12-09 12:23:47.913995$GNRMC,172347.10,A,4138.0390497,N,07032.4356342,W,0.04,,091223,,,A*4F
###2023-12-09 12:23:47.917096$GNGGA,172347.10,4138.0390497,N,07032.4356342,W,1,19,0.8,17.761,M,-29.746,M,0.0,*57
###2023-12-09 12:23:47.919007$GPGSA,A,3,03,16,25,26,28,29,31,32,,,,,1.3,0.8,1.0*3C
###2023-12-09 12:23:47.920608$GLGSA,A,3,71,72,73,75,,,,,,,,,1.3,0.8,1.0*20
###2023-12-09 12:23:47.922132$GAGSA,A,3,04,21,27,,,,,,,,,,1.3,0.8,1.0*2A
###2023-12-09 12:23:47.923742$GBGSA,A,3,14,25,26,33,,,,,,,,,1.3,0.8,1.0*2D
###2023-12-09 12:23:47.926074$GPGSV,2,1,08,03,39,283,42,16,31,206,43,25,16,045,42,26,61,205,45*70
###2023-12-09 12:23:47.928430$GPGSV,2,2,08,28,62,049,40,29,24,079,43,31,73,343,36,32,35,131,47*72
###2023-12-09 12:23:47.930776$GLGSV,1,1,04,71,63,167,45,72,61,317,37,73,53,030,48,75,18,236,42*67
###2023-12-09 12:23:47.932820$GAGSV,1,1,03,04,17,310,36,21,73,180,47,27,45,051,46,,,,*51
###2023-12-09 12:23:47.935167$GBGSV,1,1,04,14,60,201,44,25,29,249,41,26,39,055,46,33,64,265,39*6C
###2023-12-09 12:23:47.936312$GNVTG,,T,,M,0.04,N,0.07,K,A*3E
###2023-12-09 12:23:47.937966$GNGST,172347.10,32.000,,,,0.100,0.100,0.240*55
###2023-12-09 12:23:47.939275$GNZDA,172347.10,09,12,2023,00,00*74
###2023-12-09 12:23:47.939926$GNEBP,,,,,,M*13
###2023-12-09 12:23:48.113900$GNGGA,172347.30,4138.0390537,N,07032.4356370,W,1,19,0.8,17.700,M,-29.746,M,0.0,*58
###2023-12-09 12:23:48.314195$GNGGA,172347.50,4138.0390586,N,07032.4356401,W,1,19,0.8,17.640,M,-29.746,M,0.0,*50
###2023-12-09 12:23:48.514463$GNGGA,172347.70,4138.0390634,N,07032.4356414,W,1,19,0.8,17.576,M,-29.746,M,0.0,*5A
###2023-12-09 12:23:48.713653$GNGGA,172347.90,4138.0390680,N,07032.4356443,W,1,19,0.8,17.516,M,-29.746,M,0.0,*5F
###2023-12-09 12:23:48.917240$GNRMC,172348.10,A,4138.0390733,N,07032.4356485,W,0.04,,091223,,,A*41
###2023-12-09 12:23:48.920999$GNGGA,172348.10,4138.0390733,N,07032.4356485,W,1,19,0.8,17.455,M,-29.746,M,0.0,*5D
###2023-12-09 12:23:48.923543$GPGSA,A,3,03,16,25,26,28,29,31,32,,,,,1.3,0.8,1.0*3C
###2023-12-09 12:23:48.925711$GLGSA,A,3,71,72,73,75,,,,,,,,,1.3,0.8,1.0*20
###2023-12-09 12:23:48.927784$GAGSA,A,3,04,21,27,,,,,,,,,,1.3,0.8,1.0*2A
###2023-12-09 12:23:48.930144$GBGSA,A,3,14,25,26,33,,,,,,,,,1.3,0.8,1.0*2D
###2023-12-09 12:23:48.933211$GPGSV,2,1,08,03,39,283,42,16,31,206,43,25,16,045,42,26,61,205,44*71
###2023-12-09 12:23:48.936502$GPGSV,2,2,08,28,62,049,40,29,24,079,42,31,73,343,35,32,35,131,47*70
###2023-12-09 12:23:48.939570$GLGSV,1,1,04,71,63,167,45,72,61,317,36,73,53,030,47,75,18,236,42*69
###2023-12-09 12:23:48.942275$GAGSV,1,1,03,04,17,310,36,21,73,180,47,27,45,051,46,,,,*51
###2023-12-09 12:23:48.945328$GBGSV,1,1,04,14,60,201,44,25,29,249,41,26,39,055,46,33,64,265,39*6C
###2023-12-09 12:23:48.946964$GNVTG,,T,,M,0.04,N,0.07,K,A*3E
###2023-12-09 12:23:48.949060$GNGST,172348.10,32.000,,,,0.100,0.100,0.240*5A
###2023-12-09 12:23:48.950976$GNZDA,172348.10,09,12,2023,00,00*7B
###2023-12-09 12:23:48.952035$GNEBP,,,,,,M*13
###2023-12-09 12:23:49.114392$GNGGA,172348.30,4138.0390773,N,07032.4356518,W,1,19,0.8,17.401,M,-29.746,M,0.0,*5F
###2023-12-09 12:23:49.317975$GNGGA,172348.50,4138.0390818,N,07032.4356544,W,1,19,0.8,17.349,M,-29.746,M,0.0,*59
###2023-12-09 12:23:49.519546$GNGGA,172348.70,4138.0390861,N,07032.4356589,W,1,19,0.8,17.287,M,-29.746,M,0.0,*57
###2023-12-09 12:23:49.713154$GNGGA,172348.90,4138.0390909,N,07032.4356633,W,1,19,0.8,17.235,M,-29.746,M,0.0,*5D
###2023-12-09 12:23:49.914298$GNRMC,172349.10,A,4138.0390958,N,07032.4356675,W,0.02,,091223,,,A*48
###2023-12-09 12:23:49.917382$GNGGA,172349.10,4138.0390958,N,07032.4356675,W,1,19,0.8,17.179,M,-29.746,M,0.0,*59
###2023-12-09 12:23:49.919437$GPGSA,A,3,03,16,25,26,28,29,31,32,,,,,1.3,0.8,1.0*3C
###2023-12-09 12:23:49.921200$GLGSA,A,3,71,72,73,75,,,,,,,,,1.3,0.8,1.0*20
###2023-12-09 12:23:49.922899$GAGSA,A,3,04,21,27,,,,,,,,,,1.3,0.8,1.0*2A
###2023-12-09 12:23:49.924631$GBGSA,A,3,14,25,26,33,,,,,,,,,1.3,0.8,1.0*2D
###2023-12-09 12:23:49.927130$GPGSV,2,1,08,03,39,283,42,16,31,206,43,25,16,045,42,26,61,205,45*70
###2023-12-09 12:23:49.929629$GPGSV,2,2,08,28,62,049,40,29,24,079,43,31,73,343,35,32,35,131,47*71
###2023-12-09 12:23:49.932132$GLGSV,1,1,04,71,63,167,44,72,61,317,36,73,53,030,47,75,18,236,42*68
###2023-12-09 12:23:49.934294$GAGSV,1,1,03,04,17,310,36,21,73,180,47,27,45,051,46,,,,*51
###2023-12-09 12:23:49.936741$GBGSV,1,1,04,14,60,201,44,25,29,249,41,26,39,055,47,33,64,265,39*6D
###2023-12-09 12:23:49.937983$GNVTG,,T,,M,0.02,N,0.04,K,A*3B
###2023-12-09 12:23:49.939741$GNGST,172349.10,32.000,,,,0.100,0.100,0.230*5C
###2023-12-09 12:23:49.941153$GNZDA,172349.10,09,12,2023,00,00*7A
###2023-12-09 12:23:49.941901$GNEBP,,,,,,M*13
###2023-12-09 12:23:50.112789$GNGGA,172349.30,4138.0391010,N,07032.4356726,W,1,19,0.8,17.132,M,-29.746,M,0.0,*57
###2023-12-09 12:23:50.312815$GNGGA,172349.50,4138.0391048,N,07032.4356766,W,1,19,0.8,17.077,M,-29.746,M,0.0,*58
###2023-12-09 12:23:50.512570$GNGGA,172349.70,4138.0391082,N,07032.4356807,W,1,19,0.8,17.030,M,-29.746,M,0.0,*57
###2023-12-09 12:23:50.711955$GNGGA,172349.90,4138.0391124,N,07032.4356836,W,1,19,0.8,16.983,M,-29.746,M,0.0,*56
###2023-12-09 12:23:50.915850$GNRMC,172350.10,A,4138.0391155,N,07032.4356880,W,0.02,,091223,,,A*40
###2023-12-09 12:23:50.918758$GNGGA,172350.10,4138.0391155,N,07032.4356880,W,1,19,0.8,16.937,M,-29.746,M,0.0,*52
###2023-12-09 12:23:50.920642$GPGSA,A,3,03,16,25,26,28,29,31,32,,,,,1.3,0.8,1.0*3C
###2023-12-09 12:23:50.922248$GLGSA,A,3,71,72,73,75,,,,,,,,,1.3,0.8,1.0*20
###2023-12-09 12:23:50.923801$GAGSA,A,3,04,21,27,,,,,,,,,,1.3,0.8,1.0*2A
###2023-12-09 12:23:50.925408$GBGSA,A,3,14,25,26,33,,,,,,,,,1.3,0.8,1.0*2D
###2023-12-09 12:23:50.927786$GPGSV,2,1,08,03,39,283,42,16,31,206,43,25,16,045,42,26,61,205,45*70
###2023-12-09 12:23:50.930139$GPGSV,2,2,08,28,62,049,40,29,24,079,43,31,73,343,35,32,35,131,47*71
###2023-12-09 12:23:50.932503$GLGSV,1,1,04,71,63,167,44,72,61,317,36,73,53,030,47,75,18,236,41*6B
###2023-12-09 12:23:50.934589$GAGSV,1,1,03,04,17,310,35,21,73,180,46,27,45,051,45,,,,*50
###2023-12-09 12:23:50.936950$GBGSV,1,1,04,14,60,201,44,25,29,249,41,26,39,055,46,33,64,265,39*6C
###2023-12-09 12:23:50.938099$GNVTG,,T,,M,0.02,N,0.04,K,A*3B
###2023-12-09 12:23:50.939783$GNGST,172350.10,32.000,,,,0.100,0.100,0.230*54
###2023-12-09 12:23:50.941103$GNZDA,172350.10,09,12,2023,00,00*72
###2023-12-09 12:23:50.941759$GNEBP,,,,,,M*13
###2023-12-09 12:23:51.114961$GNGGA,172350.30,4138.0391188,N,07032.4356932,W,1,19,0.8,16.894,M,-29.746,M,0.0,*50
###2023-12-09 12:23:51.312881$GNGGA,172350.50,4138.0391222,N,07032.4356977,W,1,19,0.8,16.846,M,-29.746,M,0.0,*5B
###2023-12-09 12:23:51.514389$GNGGA,172350.70,4138.0391256,N,07032.4357017,W,1,19,0.8,16.801,M,-29.746,M,0.0,*57
###2023-12-09 12:23:51.711956$GNGGA,172350.90,4138.0391289,N,07032.4357070,W,1,18,0.8,16.756,M,-29.746,M,0.0,*56
###2023-12-09 12:23:51.913584$GNRMC,172351.10,A,4138.0391331,N,07032.4357135,W,0.04,,091223,,,A*41
###2023-12-09 12:23:51.916647$GNGGA,172351.10,4138.0391331,N,07032.4357135,W,1,18,0.8,16.711,M,-29.746,M,0.0,*5E
###2023-12-09 12:23:51.918628$GPGSA,A,3,03,16,25,26,28,29,32,,,,,,1.3,0.8,1.1*3F
###2023-12-09 12:23:51.920660$GLGSA,A,3,71,72,73,75,,,,,,,,,1.3,0.8,1.1*21
###2023-12-09 12:23:51.922360$GAGSA,A,3,04,21,27,,,,,,,,,,1.3,0.8,1.1*2B
###2023-12-09 12:23:51.924123$GBGSA,A,3,14,25,26,33,,,,,,,,,1.3,0.8,1.1*2C
###2023-12-09 12:23:51.926626$GPGSV,2,1,07,03,39,283,41,16,31,206,43,25,16,045,42,26,61,205,46*7F
###2023-12-09 12:23:51.928837$GPGSV,2,2,07,28,62,049,40,29,24,079,43,32,35,131,47,,,,*4A
###2023-12-09 12:23:51.931350$GLGSV,1,1,04,71,63,167,43,72,61,317,36,73,53,030,47,75,18,236,41*6C
###2023-12-09 12:23:51.933517$GAGSV,1,1,03,04,17,310,36,21,73,180,46,27,45,051,46,,,,*50
###2023-12-09 12:23:51.935969$GBGSV,1,1,04,14,60,201,44,25,29,249,41,26,39,055,46,33,64,265,39*6C
###2023-12-09 12:23:51.937217$GNVTG,,T,,M,0.04,N,0.07,K,A*3E
