###2023-12-09 12:48:18.951507$GPGSA,A,3,03,04,16,26,28,29,31,32,,,,,1.1,0.6,0.9*3B
###2023-12-09 12:48:18.953252$GLGSA,A,3,65,71,72,73,74,75,,,,,,,1.1,0.6,0.9*24
###2023-12-09 12:48:18.954859$GAGSA,A,3,04,19,21,27,,,,,,,,,1.1,0.6,0.9*26
###2023-12-09 12:48:18.956515$GBGSA,A,3,14,24,25,26,33,,,,,,,,1.1,0.6,0.9*2F
###2023-12-09 12:48:18.958872$GPGSV,2,1,08,03,37,269,44,04,27,311,43,16,43,209,45,26,73,208,48*71
###2023-12-09 12:48:18.961209$GPGSV,2,2,08,28,53,064,44,29,26,067,39,31,71,021,46,32,24,137,42*7A
###2023-12-09 12:48:18.963558$GLGSV,2,1,06,65,17,329,43,71,49,171,48,72,70,294,47,73,42,037,43*65
###2023-12-09 12:48:18.965309$GLGSV,2,2,06,74,71,314,42,75,27,246,45,,,,,,,,*60
###2023-12-09 12:48:18.967698$GAGSV,1,1,04,04,25,312,41,19,85,269,41,21,83,162,46,27,37,048,42*63
###2023-12-09 12:48:18.970033$GBGSV,2,1,05,14,50,195,46,24,78,008,48,25,36,257,45,26,31,060,43*6B
###2023-12-09 12:48:18.971505$GBGSV,2,2,05,33,61,243,49,,,,,,,,,,,,*51
###2023-12-09 12:48:18.972824$GNVTG,312.46,T,,M,0.91,N,1.69,K,A*27
###2023-12-09 12:48:18.974471$GNGST,174818.10,18.000,,,,0.077,0.069,0.160*54
###2023-12-09 12:48:18.975763$GNZDA,174818.10,09,12,2023,00,00*73
###2023-12-09 12:48:18.976401$GNEBP,,,,,,M*13
###2023-12-09 12:48:19.145567$GNGGA,174818.30,4138.0549014,N,07032.4026407,W,1,24,0.6,13.520,M,-29.745,M,0.0,*5D
###2023-12-09 12:48:19.346132$GNGGA,174818.50,4138.0549036,N,07032.4026381,W,1,24,0.6,13.527,M,-29.745,M,0.0,*55
###2023-12-09 12:48:19.547037$GNGGA,174818.70,4138.0549112,N,07032.4026443,W,1,24,0.6,13.513,M,-29.745,M,0.0,*5E
###2023-12-09 12:48:19.746195$GNGGA,174818.90,4138.0549380,N,07032.4026824,W,1,24,0.6,13.514,M,-29.745,M,0.0,*53
###2023-12-09 12:48:19.947415$GNRMC,174819.10,A,4138.0549732,N,07032.4027355,W,0.76,311.85,091223,,,A*51
###2023-12-09 12:48:19.950280$GNGGA,174819.10,4138.0549732,N,07032.4027355,W,1,24,0.6,13.510,M,-29.745,M,0.0,*5F
###2023-12-09 12:48:19.952169$GPGSA,A,3,03,04,16,26,28,29,31,32,,,,,1.1,0.6,0.9*3B
###2023-12-09 12:48:19.953880$GLGSA,A,3,65,71,72,73,74,75,,,,,,,1.1,0.6,0.9*24
###2023-12-09 12:48:19.955474$GAGSA,A,3,04,19,21,27,,,,,,,,,1.1,0.6,0.9*26
###2023-12-09 12:48:19.957115$GBGSA,A,3,14,24,25,26,33,,,,,,,,1.1,0.6,0.9*2F
###2023-12-09 12:48:19.959451$GPGSV,2,1,08,03,37,269,44,04,27,311,44,16,43,209,44,26,73,208,49*76
###2023-12-09 12:48:19.961779$GPGSV,2,2,08,28,53,064,43,29,26,067,38,31,71,021,47,32,24,137,40*7F
###2023-12-09 12:48:19.964124$GLGSV,2,1,06,65,17,329,43,71,49,171,47,72,70,294,47,73,42,037,42*6B
###2023-12-09 12:48:19.965869$GLGSV,2,2,06,74,71,314,43,75,27,246,45,,,,,,,,*61
###2023-12-09 12:48:19.968206$GAGSV,1,1,04,04,25,312,42,19,85,269,40,21,83,162,46,27,37,048,42*61
###2023-12-09 12:48:19.970530$GBGSV,2,1,05,14,50,195,44,24,78,008,49,25,36,257,45,26,31,060,43*68
###2023-12-09 12:48:19.971995$GBGSV,2,2,05,33,61,243,48,,,,,,,,,,,,*50
###2023-12-09 12:48:19.973319$GNVTG,311.85,T,,M,0.76,N,1.40,K,A*29
###2023-12-09 12:48:19.974983$GNGST,174819.10,18.000,,,,0.077,0.070,0.160*5D
###2023-12-09 12:48:19.976276$GNZDA,174819.10,09,12,2023,00,00*72
###2023-12-09 12:48:19.976914$GNEBP,,,,,,M*13
###2023-12-09 12:48:20.149455$GNGGA,174819.30,4138.0549858,N,07032.4027543,W,1,24,0.6,13.513,M,-29.745,M,0.0,*5C
###2023-12-09 12:48:20.347279$GNGGA,174819.50,4138.0549872,N,07032.4027506,W,1,24,0.6,13.526,M,-29.745,M,0.0,*55
###2023-12-09 12:48:20.550619$GNGGA,174819.70,4138.0550013,N,07032.4027686,W,1,24,0.6,13.529,M,-29.745,M,0.0,*54
###2023-12-09 12:48:20.747238$GNGGA,174819.90,4138.0550343,N,07032.4028149,W,1,24,0.6,13.526,M,-29.745,M,0.0,*58
###2023-12-09 12:48:20.948090$GNRMC,174820.10,A,4138.0550639,N,07032.4028552,W,0.41,311.85,091223,,,A*53
###2023-12-09 12:48:20.950969$GNGGA,174820.10,4138.0550639,N,07032.4028552,W,1,24,0.6,13.511,M,-29.745,M,0.0,*58
###2023-12-09 12:48:20.952834$GPGSA,A,3,03,04,16,26,28,29,31,32,,,,,1.1,0.6,0.9*3B
###2023-12-09 12:48:20.954549$GLGSA,A,3,65,71,72,73,74,75,,,,,,,1.1,0.6,0.9*24
###2023-12-09 12:48:20.956153$GAGSA,A,3,04,19,21,27,,,,,,,,,1.1,0.6,0.9*26
###2023-12-09 12:48:20.957802$GBGSA,A,3,14,24,25,26,33,,,,,,,,1.1,0.6,0.9*2F
###2023-12-09 12:48:20.960151$GPGSV,2,1,08,03,37,269,44,04,27,311,44,16,43,209,45,26,73,208,48*76
###2023-12-09 12:48:20.962496$GPGSV,2,2,08,28,53,064,44,29,26,067,38,31,71,021,46,32,24,137,41*78
###2023-12-09 12:48:20.964848$GLGSV,2,1,06,65,17,329,44,71,49,171,47,72,70,294,45,73,42,037,43*6F
###2023-12-09 12:48:20.966616$GLGSV,2,2,06,74,71,314,43,75,27,246,46,,,,,,,,*62
###2023-12-09 12:48:20.968948$GAGSV,1,1,04,04,25,312,44,19,85,269,41,21,83,162,46,27,37,048,43*67
###2023-12-09 12:48:20.971290$GBGSV,2,1,05,14,50,195,44,24,78,008,49,25,36,257,44,26,31,060,44*6E
###2023-12-09 12:48:20.972751$GBGSV,2,2,05,33,61,243,48,,,,,,,,,,,,*50
###2023-12-09 12:48:20.974079$GNVTG,311.85,T,,M,0.41,N,0.76,K,A*29
###2023-12-09 12:48:20.975741$GNGST,174820.10,18.000,,,,0.077,0.070,0.160*57
###2023-12-09 12:48:20.977037$GNZDA,174820.10,09,12,2023,00,00*78
###2023-12-09 12:48:20.977676$GNEBP,,,,,,M*13
###2023-12-09 12:48:21.147608$GNGGA,174820.30,4138.0550694,N,07032.4028620,W,1,24,0.6,13.516,M,-29.745,M,0.0,*5C
###2023-12-09 12:48:21.347283$GNGGA,174820.50,4138.0550717,N,07032.4028657,W,1,24,0.6,13.528,M,-29.745,M,0.0,*5D
###2023-12-09 12:48:21.547384$GNGGA,174820.70,4138.0550944,N,07032.4028969,W,1,24,0.6,13.544,M,-29.745,M,0.0,*5F
###2023-12-09 12:48:21.747221$GNGGA,174820.90,4138.0551276,N,07032.4029420,W,1,24,0.6,13.545,M,-29.745,M,0.0,*5A
###2023-12-09 12:48:21.947444$GNRMC,174821.10,A,4138.0551462,N,07032.4029681,W,0.16,311.85,091223,,,A*51
###2023-12-09 12:48:21.950300$GNGGA,174821.10,4138.0551462,N,07032.4029681,W,1,24,0.6,13.543,M,-29.745,M,0.0,*5F
###2023-12-09 12:48:21.952181$GPGSA,A,3,03,04,16,26,28,29,31,32,,,,,1.1,0.6,0.9*3B
###2023-12-09 12:48:21.953896$GLGSA,A,3,65,71,72,73,74,75,,,,,,,1.1,0.6,0.9*24
###2023-12-09 12:48:21.955495$GAGSA,A,3,04,19,21,27,,,,,,,,,1.1,0.6,0.9*26
###2023-12-09 12:48:21.957138$GBGSA,A,3,14,24,25,26,33,,,,,,,,1.1,0.6,0.9*2F
###2023-12-09 12:48:21.959480$GPGSV,2,1,08,03,37,269,43,04,27,311,43,16,43,209,45,26,73,208,48*76
###2023-12-09 12:48:21.961811$GPGSV,2,2,08,28,53,064,43,29,26,067,40,31,71,021,46,32,24,137,41*70
###2023-12-09 12:48:21.964156$GLGSV,2,1,06,65,17,329,44,71,49,171,47,72,70,294,46,73,42,037,43*6C
###2023-12-09 12:48:21.965907$GLGSV,2,2,06,74,71,314,43,75,27,246,46,,,,,,,,*62
###2023-12-09 12:48:21.968242$GAGSV,1,1,04,04,25,312,43,19,85,269,41,21,83,162,46,27,37,048,43*60
###2023-12-09 12:48:21.970573$GBGSV,2,1,05,14,50,195,44,24,78,008,49,25,36,257,44,26,31,060,42*68
###2023-12-09 12:48:21.972024$GBGSV,2,2,05,33,61,243,48,,,,,,,,,,,,*50
###2023-12-09 12:48:21.973343$GNVTG,311.85,T,,M,0.16,N,0.29,K,A*21
###2023-12-09 12:48:21.974999$GNGST,174821.10,18.000,,,,0.077,0.070,0.160*56
###2023-12-09 12:48:21.976293$GNZDA,174821.10,09,12,2023,00,00*79
###2023-12-09 12:48:21.976929$GNEBP,,,,,,M*13
###2023-12-09 12:48:22.146616$GNGGA,174821.30,4138.0551469,N,07032.4029749,W,1,24,0.6,13.541,M,-29.745,M,0.0,*51
###2023-12-09 12:48:22.347193$GNGGA,174821.50,4138.0551546,N,07032.4029848,W,1,24,0.6,13.535,M,-29.745,M,0.0,*56
###2023-12-09 12:48:22.549677$GNGGA,174821.70,4138.0551788,N,07032.4030176,W,1,24,0.6,13.542,M,-29.745,M,0.0,*58
###2023-12-09 12:48:22.747389$GNGGA,174821.90,4138.0552098,N,07032.4030640,W,1,24,0.6,13.541,M,-29.745,M,0.0,*52
###2023-12-09 12:48:22.947283$GNRMC,174822.10,A,4138.0552232,N,07032.4030862,W,0.12,311.85,091223,,,A*5D
###2023-12-09 12:48:22.950147$GNGGA,174822.10,4138.0552232,N,07032.4030862,W,1,24,0.6,13.551,M,-29.745,M,0.0,*54
###2023-12-09 12:48:22.952034$GPGSA,A,3,03,04,16,26,28,29,31,32,,,,,1.1,0.6,0.9*3B
###2023-12-09 12:48:22.953754$GLGSA,A,3,65,71,72,73,74,75,,,,,,,1.1,0.6,0.9*24
###2023-12-09 12:48:22.955359$GAGSA,A,3,04,19,21,27,,,,,,,,,1.1,0.6,0.9*26
###2023-12-09 12:48:22.957011$GBGSA,A,3,14,24,25,26,33,,,,,,,,1.1,0.6,0.9*2F
###2023-12-09 12:48:22.959364$GPGSV,2,1,08,03,37,269,45,04,27,311,43,16,43,209,45,26,73,208,48*70
###2023-12-09 12:48:22.961715$GPGSV,2,2,08,28,53,064,43,29,26,067,40,31,71,021,47,32,24,137,39*7E
###2023-12-09 12:48:22.964079$GLGSV,2,1,06,65,17,329,45,71,49,171,47,72,70,294,47,73,42,037,43*6C
###2023-12-09 12:48:22.966073$GLGSV,2,2,06,74,71,314,43,75,27,246,46,,,,,,,,*62
###2023-12-09 12:48:22.968445$GAGSV,1,1,04,04,25,312,44,19,85,269,41,21,83,162,46,27,37,048,43*67
###2023-12-09 12:48:22.970816$GBGSV,2,1,05,14,50,195,43,24,78,008,48,25,36,257,46,26,31,060,42*6C
###2023-12-09 12:48:22.972283$GBGSV,2,2,05,33,61,243,49,,,,,,,,,,,,*51
###2023-12-09 12:48:22.973617$GNVTG,311.85,T,,M,0.12,N,0.22,K,A*2E
###2023-12-09 12:48:22.975292$GNGST,174822.10,18.000,,,,0.077,0.070,0.160*55
###2023-12-09 12:48:22.976594$GNZDA,174822.10,09,12,2023,00,00*7A
###2023-12-09 12:48:22.977235$GNEBP,,,,,,M*13
###2023-12-09 12:48:23.146648$GNGGA,174822.30,4138.0552279,N,07032.4030848,W,1,24,0.6,13.556,M,-29.745,M,0.0,*56
