###2023-12-09 13:06:43.366673$GNGGA,180642.50,4138.0718842,N,07032.3323544,W,1,25,0.6,12.958,M,-29.743,M,0.0,*5E
###2023-12-09 13:06:43.567910$GNGGA,180642.70,4138.0719263,N,07032.3325728,W,1,25,0.6,12.952,M,-29.743,M,0.0,*50
###2023-12-09 13:06:43.766829$GNGGA,180642.90,4138.0719729,N,07032.3327893,W,1,25,0.6,12.943,M,-29.743,M,0.0,*58
###2023-12-09 13:06:43.970613$GNRMC,180643.10,A,4138.0720273,N,07032.3329995,W,3.05,290.70,091223,,,A*5F
###2023-12-09 13:06:43.973490$GNGGA,180643.10,4138.0720273,N,07032.3329995,W,1,25,0.6,12.943,M,-29.743,M,0.0,*58
###2023-12-09 13:06:43.975374$GPGSA,A,3,03,04,16,26,28,29,31,32,,,,,1.1,0.6,0.9*3B
###2023-12-09 13:06:43.977095$GLGSA,A,3,65,71,72,73,74,75,,,,,,,1.1,0.6,0.9*24
###2023-12-09 13:06:43.978703$GAGSA,A,3,04,19,21,27,,,,,,,,,1.1,0.6,0.9*26
###2023-12-09 13:06:43.980423$GBGSA,A,3,14,24,25,26,33,35,,,,,,,1.1,0.6,0.9*29
###2023-12-09 13:06:43.982773$GPGSV,2,1,08,03,34,259,42,04,34,311,40,16,52,213,45,26,82,210,49*7B
###2023-12-09 13:06:43.985111$GPGSV,2,2,08,28,48,072,44,29,25,059,41,31,68,042,47,32,17,141,44*7D
###2023-12-09 13:06:43.987459$GLGSV,2,1,06,65,26,326,37,71,37,173,47,72,73,261,45,73,34,043,45*60
###2023-12-09 13:06:43.989211$GLGSV,2,2,06,74,69,343,42,75,33,255,44,,,,,,,,*6D
###2023-12-09 13:06:43.991555$GAGSV,1,1,04,04,31,312,38,19,83,203,41,21,85,092,46,27,31,048,41*6F
###2023-12-09 13:06:43.993887$GBGSV,2,1,06,14,41,192,46,24,72,029,49,25,42,264,45,26,24,064,40*67
###2023-12-09 13:06:43.995646$GBGSV,2,2,06,33,56,229,47,35,15,067,42,,,,,,,,*61
###2023-12-09 13:06:43.996972$GNVTG,290.70,T,,M,3.05,N,5.65,K,A*2F
###2023-12-09 13:06:43.998630$GNGST,180643.10,18.000,,,,0.081,0.068,0.150*54
###2023-12-09 13:06:43.999926$GNZDA,180643.10,09,12,2023,00,00*78
###2023-12-09 13:06:44.000567$GNEBP,,,,,,M*13
###2023-12-09 13:06:44.167858$GNGGA,180643.30,4138.0720893,N,07032.3332081,W,1,25,0.6,12.946,M,-29.743,M,0.0,*5D
###2023-12-09 13:06:44.367533$GNGGA,180643.50,4138.0721442,N,07032.3334227,W,1,25,0.6,12.943,M,-29.743,M,0.0,*57
###2023-12-09 13:06:44.567940$GNGGA,180643.70,4138.0721941,N,07032.3336457,W,1,25,0.6,12.943,M,-29.743,M,0.0,*58
###2023-12-09 13:06:44.766996$GNGGA,180643.90,4138.0722429,N,07032.3338823,W,1,25,0.6,12.948,M,-29.743,M,0.0,*5C
###2023-12-09 13:06:44.978685$GNRMC,180644.10,A,4138.0722809,N,07032.3341366,W,3.63,278.39,091223,,,A*5E
###2023-12-09 13:06:44.981552$GNGGA,180644.10,4138.0722809,N,07032.3341366,W,1,25,0.6,12.946,M,-29.743,M,0.0,*57
###2023-12-09 13:06:44.983420$GPGSA,A,3,03,04,16,26,28,29,31,32,,,,,1.1,0.6,0.9*3B
###2023-12-09 13:06:44.985132$GLGSA,A,3,65,71,72,73,74,75,,,,,,,1.1,0.6,0.9*24
###2023-12-09 13:06:44.986724$GAGSA,A,3,04,19,21,27,,,,,,,,,1.1,0.6,0.9*26
###2023-12-09 13:06:44.988432$GBGSA,A,3,14,24,25,26,33,35,,,,,,,1.1,0.6,0.9*29
###2023-12-09 13:06:44.990767$GPGSV,2,1,08,03,34,259,42,04,34,311,43,16,52,213,46,26,82,210,48*7A
###2023-12-09 13:06:44.993103$GPGSV,2,2,08,28,48,072,45,29,25,059,43,31,68,042,47,32,17,141,42*78
###2023-12-09 13:06:44.995450$GLGSV,2,1,06,65,26,326,41,71,37,173,47,72,72,258,46,73,34,043,44*68
###2023-12-09 13:06:44.997210$GLGSV,2,2,06,74,69,343,42,75,33,255,43,,,,,,,,*6A
###2023-12-09 13:06:44.999555$GAGSV,1,1,04,04,31,312,40,19,83,203,41,21,85,092,46,27,31,048,41*60
###2023-12-09 13:06:45.001889$GBGSV,2,1,06,14,41,192,43,24,72,029,49,25,42,264,44,26,24,064,45*66
###2023-12-09 13:06:45.003656$GBGSV,2,2,06,33,56,229,48,35,15,067,44,,,,,,,,*68
###2023-12-09 13:06:45.004983$GNVTG,278.39,T,,M,3.63,N,6.73,K,A*20
###2023-12-09 13:06:45.006645$GNGST,180644.10,18.000,,,,0.081,0.068,0.150*53
###2023-12-09 13:06:45.007944$GNZDA,180644.10,09,12,2023,00,00*7F
###2023-12-09 13:06:45.008583$GNEBP,,,,,,M*13
###2023-12-09 13:06:45.169185$GNGGA,180644.30,4138.0723009,N,07032.3344070,W,1,25,0.6,12.950,M,-29.743,M,0.0,*5A
###2023-12-09 13:06:45.370330$GNGGA,180644.50,4138.0723116,N,07032.3346890,W,1,25,0.6,12.966,M,-29.743,M,0.0,*52
###2023-12-09 13:06:45.567929$GNGGA,180644.70,4138.0723051,N,07032.3349769,W,1,25,0.6,12.967,M,-29.743,M,0.0,*55
###2023-12-09 13:06:45.769198$GNGGA,180644.90,4138.0722636,N,07032.3352424,W,1,25,0.6,12.956,M,-29.743,M,0.0,*5F
###2023-12-09 13:06:45.972578$GNRMC,180645.10,A,4138.0721970,N,07032.3354869,W,3.42,246.32,091223,,,A*56
###2023-12-09 13:06:45.975480$GNGGA,180645.10,4138.0721970,N,07032.3354869,W,1,25,0.6,12.944,M,-29.743,M,0.0,*58
###2023-12-09 13:06:45.977358$GPGSA,A,3,03,04,16,26,28,29,31,32,,,,,1.1,0.6,0.9*3B
###2023-12-09 13:06:45.979091$GLGSA,A,3,65,71,72,73,74,75,,,,,,,1.1,0.6,0.9*24
###2023-12-09 13:06:45.980673$GAGSA,A,3,04,19,21,27,,,,,,,,,1.1,0.6,0.9*26
###2023-12-09 13:06:45.982384$GBGSA,A,3,14,24,25,26,33,35,,,,,,,1.1,0.6,0.9*29
###2023-12-09 13:06:45.984726$GPGSV,2,1,08,03,34,259,42,04,34,311,43,16,52,213,45,26,82,210,48*79
###2023-12-09 13:06:45.987070$GPGSV,2,2,08,28,48,072,45,29,25,059,42,31,68,042,47,32,17,141,43*78
###2023-12-09 13:06:45.989404$GLGSV,2,1,06,65,26,326,42,71,37,173,46,72,72,258,45,73,33,043,46*6C
###2023-12-09 13:06:45.991166$GLGSV,2,2,06,74,69,343,43,75,33,255,45,,,,,,,,*6D
###2023-12-09 13:06:45.993492$GAGSV,1,1,04,04,31,312,41,19,83,203,40,21,85,092,45,27,31,048,42*60
###2023-12-09 13:06:45.995872$GBGSV,2,1,06,14,41,192,45,24,72,029,49,25,42,264,45,26,24,064,43*67
###2023-12-09 13:06:45.997624$GBGSV,2,2,06,33,56,229,46,35,15,067,45,,,,,,,,*67
###2023-12-09 13:06:45.998958$GNVTG,246.32,T,,M,3.42,N,6.34,K,A*26
###2023-12-09 13:06:46.000611$GNGST,180645.10,18.000,,,,0.081,0.068,0.150*52
###2023-12-09 13:06:46.001904$GNZDA,180645.10,09,12,2023,00,00*7E
###2023-12-09 13:06:46.002543$GNEBP,,,,,,M*13
###2023-12-09 13:06:46.167051$GNGGA,180645.30,4138.0721148,N,07032.3357169,W,1,25,0.6,12.927,M,-29.743,M,0.0,*56
###2023-12-09 13:06:46.367546$GNGGA,180645.50,4138.0720316,N,07032.3359435,W,1,25,0.6,12.919,M,-29.743,M,0.0,*57
###2023-12-09 13:06:46.568746$GNGGA,180645.70,4138.0719520,N,07032.3361746,W,1,25,0.6,12.920,M,-29.743,M,0.0,*5A
###2023-12-09 13:06:46.769168$GNGGA,180645.90,4138.0718758,N,07032.3364065,W,1,25,0.6,12.938,M,-29.743,M,0.0,*52
###2023-12-09 13:06:46.973028$GNRMC,180646.10,A,4138.0718140,N,07032.3366403,W,3.30,251.20,091223,,,A*55
###2023-12-09 13:06:46.975921$GNGGA,180646.10,4138.0718140,N,07032.3366403,W,1,25,0.6,12.960,M,-29.743,M,0.0,*5D
###2023-12-09 13:06:46.977790$GPGSA,A,3,03,04,16,26,28,29,31,32,,,,,1.1,0.6,0.9*3B
###2023-12-09 13:06:46.979522$GLGSA,A,3,65,71,72,73,74,75,,,,,,,1.1,0.6,0.9*24
###2023-12-09 13:06:46.981106$GAGSA,A,3,04,19,21,27,,,,,,,,,1.1,0.6,0.9*26
###2023-12-09 13:06:46.982837$GBGSA,A,3,14,24,25,26,33,35,,,,,,,1.1,0.6,0.9*29
###2023-12-09 13:06:46.985173$GPGSV,2,1,08,03,34,259,43,04,34,311,44,16,52,213,45,26,82,210,47*70
###2023-12-09 13:06:46.987523$GPGSV,2,2,08,28,48,072,45,29,25,059,42,31,68,042,47,32,17,141,42*79
###2023-12-09 13:06:46.989863$GLGSV,2,1,06,65,26,326,41,71,37,173,45,72,72,258,45,73,33,043,46*6C
###2023-12-09 13:06:46.991627$GLGSV,2,2,06,74,68,345,43,75,33,255,44,,,,,,,,*6B
###2023-12-09 13:06:46.993963$GAGSV,1,1,04,04,31,312,41,19,83,203,40,21,85,092,45,27,31,048,42*60
###2023-12-09 13:06:46.996309$GBGSV,2,1,06,14,41,192,44,24,72,029,49,25,42,264,44,26,24,064,43*67
###2023-12-09 13:06:46.998060$GBGSV,2,2,06,33,56,229,47,35,15,067,44,,,,,,,,*67
###2023-12-09 13:06:46.999399$GNVTG,251.20,T,,M,3.30,N,6.12,K,A*22
###2023-12-09 13:06:47.001051$GNGST,180646.10,18.000,,,,0.081,0.067,0.150*5E
###2023-12-09 13:06:47.002346$GNZDA,180646.10,09,12,2023,00,00*7D
###2023-12-09 13:06:47.002998$GNEBP,,,,,,M*13
###2023-12-09 13:06:47.170044$GNGGA,180646.30,4138.0717379,N,07032.3368657,W,1,25,0.6,12.940,M,-29.743,M,0.0,*57
###2023-12-09 13:06:47.369954$GNGGA,180646.50,4138.0716671,N,07032.3370889,W,1,25,0.6,12.898,M,-29.743,M,0.0,*5D
###2023-12-09 13:06:47.570513$GNGGA,180646.70,4138.0716267,N,07032.3373190,W,1,25,0.6,12.912,M,-29.743,M,0.0,*5D
###2023-12-09 13:06:47.769190$GNGGA,180646.90,4138.0715818,N,07032.3375439,W,1,25,0.6,12.932,M,-29.743,M,0.0,*50
###2023-12-09 13:06:47.970934$GNRMC,180647.10,A,4138.0715518,N,07032.3377697,W,3.11,264.14,091223,,,A*5D
###2023-12-09 13:06:47.973806$GNGGA,180647.10,4138.0715518,N,07032.3377697,W,1,25,0.6,12.943,M,-29.743,M,0.0,*56
###2023-12-09 13:06:47.975923$GPGSA,A,3,03,04,16,26,28,29,31,32,,,,,1.1,0.6,0.9*3B
###2023-12-09 13:06:47.977655$GLGSA,A,3,65,71,72,73,74,75,,,,,,,1.1,0.6,0.9*24
###2023-12-09 13:06:47.979254$GAGSA,A,3,04,19,21,27,,,,,,,,,1.1,0.6,0.9*26
###2023-12-09 13:06:47.980974$GBGSA,A,3,14,24,25,26,33,35,,,,,,,1.1,0.6,0.9*29
###2023-12-09 13:06:47.983323$GPGSV,2,1,08,03,34,259,42,04,34,311,42,16,52,213,47,26,82,210,47*75
###2023-12-09 13:06:47.985665$GPGSV,2,2,08,28,48,072,45,29,25,059,42,31,68,042,47,32,17,141,44*7F
###2023-12-09 13:06:47.988029$GLGSV,2,1,06,65,26,326,41,71,37,173,46,72,72,258,46,73,33,043,45*6F
###2023-12-09 13:06:47.989786$GLGSV,2,2,06,74,68,345,43,75,34,256,43,,,,,,,,*68
###2023-12-09 13:06:47.992140$GAGSV,1,1,04,04,31,312,40,19,83,203,40,21,85,092,46,27,31,048,41*61
###2023-12-09 13:06:47.994482$GBGSV,2,1,06,14,41,192,43,24,72,029,49,25,42,264,43,26,24,064,43*67
###2023-12-09 13:06:47.996239$GBGSV,2,2,06,33,56,229,47,35,15,067,44,,,,,,,,*67
