###2023-12-09 12:29:54.937705$GBGSA,A,3,14,25,26,33,,,,,,,,,1.4,0.7,1.2*27
###2023-12-09 12:29:54.940091$GPGSV,2,1,08,03,39,280,40,04,20,310,36,16,34,206,43,26,64,206,44*75
###2023-12-09 12:29:54.942431$GPGSV,2,2,08,28,60,053,45,29,25,076,44,31,73,353,44,32,32,133,48*79
###2023-12-09 12:29:54.944785$GLGSV,1,1,04,71,60,168,48,72,63,314,44,73,50,032,43,75,20,239,38*60
###2023-12-09 12:29:54.946548$GAGSV,1,1,02,21,75,179,39,27,43,050,43,,,,,,,,*6E
###2023-12-09 12:29:54.948938$GBGSV,1,1,04,14,57,199,45,25,31,251,39,26,37,056,46,33,64,260,39*6C
###2023-12-09 12:29:54.950085$GNVTG,,T,,M,0.06,N,0.11,K,A*3B
###2023-12-09 12:29:54.951754$GNGST,172954.10,31.000,,,,0.100,0.100,0.270*5D
###2023-12-09 12:29:54.953061$GNZDA,172954.10,09,12,2023,00,00*7C
###2023-12-09 12:29:54.953710$GNEBP,,,,,,M*13
###2023-12-09 12:29:55.125091$GNGGA,172954.30,4138.0385391,N,07032.4368760,W,1,18,0.7,12.573,M,-29.746,M,0.0,*5B
###2023-12-09 12:29:55.325034$GNGGA,172954.50,4138.0385373,N,07032.4368766,W,1,18,0.7,12.581,M,-29.746,M,0.0,*5A
###2023-12-09 12:29:55.525743$GNGGA,172954.70,4138.0385359,N,07032.4368777,W,1,19,0.7,12.588,M,-29.746,M,0.0,*58
###2023-12-09 12:29:55.722887$GNGGA,172954.90,4138.0385343,N,07032.4368773,W,1,19,0.7,12.590,M,-29.746,M,0.0,*50
###2023-12-09 12:29:55.925022$GNRMC,172955.10,A,4138.0385323,N,07032.4368759,W,0.08,,091223,,,A*45
###2023-12-09 12:29:55.928031$GNGGA,172955.10,4138.0385323,N,07032.4368759,W,1,18,0.7,12.606,M,-29.746,M,0.0,*5A
###2023-12-09 12:29:55.929901$GPGSA,A,3,03,04,16,26,28,29,31,32,,,,,1.4,0.7,1.2*35
###2023-12-09 12:29:55.931511$GLGSA,A,3,71,72,73,75,,,,,,,,,1.4,0.7,1.2*2A
###2023-12-09 12:29:55.932967$GAGSA,A,3,21,27,,,,,,,,,,,1.4,0.7,1.2*24
###2023-12-09 12:29:55.934551$GBGSA,A,3,14,25,26,33,,,,,,,,,1.4,0.7,1.2*27
###2023-12-09 12:29:55.936897$GPGSV,2,1,08,03,39,280,39,04,20,310,36,16,34,206,43,26,64,206,43*7C
###2023-12-09 12:29:55.939247$GPGSV,2,2,08,28,60,053,44,29,25,076,43,31,73,353,44,32,32,133,48*7F
###2023-12-09 12:29:55.941583$GLGSV,1,1,04,71,60,168,48,72,63,314,44,73,50,032,42,75,20,239,38*61
###2023-12-09 12:29:55.943353$GAGSV,1,1,02,21,75,179,39,27,43,050,43,,,,,,,,*6E
###2023-12-09 12:29:55.945685$GBGSV,1,1,04,14,57,199,45,25,31,251,39,26,37,056,46,33,64,260,39*6C
###2023-12-09 12:29:55.946848$GNVTG,,T,,M,0.08,N,0.14,K,A*30
###2023-12-09 12:29:55.948517$GNGST,172955.10,31.000,,,,0.100,0.100,0.260*5D
###2023-12-09 12:29:55.949811$GNZDA,172955.10,09,12,2023,00,00*7D
###2023-12-09 12:29:55.950456$GNEBP,,,,,,M*13
###2023-12-09 12:29:56.124058$GNGGA,172955.30,4138.0385305,N,07032.4368743,W,1,18,0.7,12.615,M,-29.746,M,0.0,*55
###2023-12-09 12:29:56.324913$GNGGA,172955.50,4138.0385289,N,07032.4368751,W,1,18,0.7,12.629,M,-29.746,M,0.0,*5A
###2023-12-09 12:29:56.522892$GNGGA,172955.70,4138.0385264,N,07032.4368732,W,1,18,0.7,12.644,M,-29.746,M,0.0,*55
###2023-12-09 12:29:56.721993$GNGGA,172955.90,4138.0385236,N,07032.4368724,W,1,18,0.7,12.657,M,-29.746,M,0.0,*59
###2023-12-09 12:29:56.930829$GNRMC,172956.10,A,4138.0385214,N,07032.4368711,W,0.00,,091223,,,A*47
###2023-12-09 12:29:56.933684$GNGGA,172956.10,4138.0385214,N,07032.4368711,W,1,18,0.7,12.675,M,-29.746,M,0.0,*54
###2023-12-09 12:29:56.935568$GPGSA,A,3,03,04,16,26,28,29,31,32,,,,,1.4,0.7,1.2*35
###2023-12-09 12:29:56.937160$GLGSA,A,3,71,72,73,75,,,,,,,,,1.4,0.7,1.2*2A
###2023-12-09 12:29:56.938636$GAGSA,A,3,21,27,,,,,,,,,,,1.4,0.7,1.2*24
###2023-12-09 12:29:56.940218$GBGSA,A,3,14,25,26,33,,,,,,,,,1.4,0.7,1.2*27
###2023-12-09 12:29:56.942541$GPGSV,2,1,08,03,39,280,39,04,20,310,35,16,34,206,42,26,64,206,43*7E
###2023-12-09 12:29:56.944904$GPGSV,2,2,08,28,60,053,44,29,25,076,43,31,73,353,44,32,32,133,48*7F
###2023-12-09 12:29:56.947279$GLGSV,1,1,04,71,60,168,48,72,63,314,44,73,50,032,42,75,20,239,38*61
###2023-12-09 12:29:56.949060$GAGSV,1,1,02,21,75,179,39,27,43,050,43,,,,,,,,*6E
###2023-12-09 12:29:56.951410$GBGSV,1,1,04,14,57,199,44,25,31,251,39,26,37,056,46,33,64,260,39*6D
###2023-12-09 12:29:56.952557$GNVTG,,T,,M,0.00,N,0.00,K,A*3D
###2023-12-09 12:29:56.954200$GNGST,172956.10,31.000,,,,0.100,0.110,0.270*5E
###2023-12-09 12:29:56.955511$GNZDA,172956.10,09,12,2023,00,00*7E
###2023-12-09 12:29:56.956165$GNEBP,,,,,,M*13
###2023-12-09 12:29:57.125240$GNGGA,172956.30,4138.0385196,N,07032.4368711,W,1,18,0.7,12.682,M,-29.746,M,0.0,*57
###2023-12-09 12:29:57.323911$GNGGA,172956.50,4138.0385185,N,07032.4368748,W,1,18,0.7,12.686,M,-29.746,M,0.0,*5B
###2023-12-09 12:29:57.531101$GNGGA,172956.70,4138.0385172,N,07032.4368754,W,1,18,0.7,12.689,M,-29.746,M,0.0,*53
###2023-12-09 12:29:57.721864$GNGGA,172956.90,4138.0385164,N,07032.4368777,W,1,18,0.7,12.694,M,-29.746,M,0.0,*57
###2023-12-09 12:29:57.922915$GNRMC,172957.10,A,4138.0385158,N,07032.4368805,W,0.00,,091223,,,A*47
###2023-12-09 12:29:57.925780$GNGGA,172957.10,4138.0385158,N,07032.4368805,W,1,18,0.7,12.694,M,-29.746,M,0.0,*5B
###2023-12-09 12:29:57.927670$GPGSA,A,3,03,04,16,26,28,29,31,32,,,,,1.4,0.7,1.2*35
###2023-12-09 12:29:57.929267$GLGSA,A,3,71,72,73,75,,,,,,,,,1.4,0.7,1.2*2A
###2023-12-09 12:29:57.930746$GAGSA,A,3,21,27,,,,,,,,,,,1.4,0.7,1.2*24
###2023-12-09 12:29:57.932338$GBGSA,A,3,14,25,26,33,,,,,,,,,1.4,0.7,1.2*27
###2023-12-09 12:29:57.934684$GPGSV,2,1,08,03,39,280,40,04,20,310,36,16,34,206,42,26,64,206,44*74
###2023-12-09 12:29:57.937019$GPGSV,2,2,08,28,60,053,44,29,25,076,43,31,73,353,44,32,32,133,48*7F
###2023-12-09 12:29:57.939366$GLGSV,1,1,04,71,60,168,47,72,63,314,44,73,50,032,42,75,20,239,39*6F
###2023-12-09 12:29:57.941116$GAGSV,1,1,02,21,75,179,39,27,43,050,43,,,,,,,,*6E
###2023-12-09 12:29:57.943461$GBGSV,1,1,04,14,57,199,44,25,31,251,39,26,37,056,45,33,64,260,39*6E
###2023-12-09 12:29:57.944602$GNVTG,,T,,M,0.00,N,0.00,K,A*3D
###2023-12-09 12:29:57.946252$GNGST,172957.10,31.000,,,,0.100,0.100,0.260*5F
###2023-12-09 12:29:57.947610$GNZDA,172957.10,09,12,2023,00,00*7F
###2023-12-09 12:29:57.948288$GNEBP,,,,,,M*13
###2023-12-09 12:29:58.123970$GNGGA,172957.30,4138.0385142,N,07032.4368839,W,1,18,0.7,12.691,M,-29.746,M,0.0,*58
###2023-12-09 12:29:58.323881$GNGGA,172957.50,4138.0385112,N,07032.4368881,W,1,18,0.7,12.677,M,-29.746,M,0.0,*50
###2023-12-09 12:29:58.522826$GNGGA,172957.70,4138.0385092,N,07032.4368923,W,1,18,0.7,12.666,M,-29.746,M,0.0,*52
###2023-12-09 12:29:58.722834$GNGGA,172957.90,4138.0385065,N,07032.4368953,W,1,18,0.7,12.658,M,-29.746,M,0.0,*5E
###2023-12-09 12:29:58.928305$GNRMC,172958.10,A,4138.0385047,N,07032.4368986,W,0.06,,091223,,,A*4B
###2023-12-09 12:29:58.931194$GNGGA,172958.10,4138.0385047,N,07032.4368986,W,1,18,0.7,12.654,M,-29.746,M,0.0,*5D
###2023-12-09 12:29:58.933079$GPGSA,A,3,03,04,16,26,28,29,31,32,,,,,1.4,0.7,1.2*35
###2023-12-09 12:29:58.934697$GLGSA,A,3,71,72,73,75,,,,,,,,,1.4,0.7,1.2*2A
###2023-12-09 12:29:58.936157$GAGSA,A,3,21,27,,,,,,,,,,,1.4,0.7,1.2*24
###2023-12-09 12:29:58.937762$GBGSA,A,3,14,25,26,33,,,,,,,,,1.4,0.7,1.2*27
###2023-12-09 12:29:58.940158$GPGSV,2,1,08,03,39,280,40,04,20,310,36,16,34,206,42,26,64,206,45*75
###2023-12-09 12:29:58.942506$GPGSV,2,2,08,28,60,053,44,29,25,076,43,31,73,353,44,32,32,133,48*7F
###2023-12-09 12:29:58.944868$GLGSV,1,1,04,71,60,168,48,72,63,314,44,73,50,032,42,75,20,239,38*61
###2023-12-09 12:29:58.946657$GAGSV,1,1,02,21,75,179,39,27,43,050,44,,,,,,,,*69
###2023-12-09 12:29:58.949017$GBGSV,1,1,04,14,57,199,44,25,31,251,39,26,37,056,46,33,64,260,38*6C
###2023-12-09 12:29:58.950181$GNVTG,,T,,M,0.06,N,0.11,K,A*3B
###2023-12-09 12:29:58.951880$GNGST,172958.10,31.000,,,,0.100,0.100,0.260*50
###2023-12-09 12:29:58.953195$GNZDA,172958.10,09,12,2023,00,00*70
###2023-12-09 12:29:58.953848$GNEBP,,,,,,M*13
###2023-12-09 12:29:59.123967$GNGGA,172958.30,4138.0385017,N,07032.4369022,W,1,18,0.7,12.653,M,-29.746,M,0.0,*5B
###2023-12-09 12:29:59.324089$GNGGA,172958.50,4138.0384993,N,07032.4369040,W,1,18,0.7,12.648,M,-29.746,M,0.0,*57
###2023-12-09 12:29:59.523941$GNGGA,172958.70,4138.0384977,N,07032.4369089,W,1,18,0.7,12.642,M,-29.746,M,0.0,*50
###2023-12-09 12:29:59.721798$GNGGA,172958.90,4138.0384960,N,07032.4369125,W,1,18,0.7,12.631,M,-29.746,M,0.0,*5B
###2023-12-09 12:29:59.927396$GNRMC,172959.10,A,4138.0384942,N,07032.4369164,W,0.04,,091223,,,A*40
###2023-12-09 12:29:59.930736$GNGGA,172959.10,4138.0384942,N,07032.4369164,W,1,18,0.7,12.623,M,-29.746,M,0.0,*54
###2023-12-09 12:29:59.932801$GPGSA,A,3,03,04,16,26,28,29,31,32,,,,,1.4,0.7,1.2*35
###2023-12-09 12:29:59.934573$GLGSA,A,3,71,72,73,75,,,,,,,,,1.4,0.7,1.2*2A
###2023-12-09 12:29:59.936211$GAGSA,A,3,21,27,,,,,,,,,,,1.4,0.7,1.2*24
###2023-12-09 12:29:59.937959$GBGSA,A,3,14,25,26,33,,,,,,,,,1.4,0.7,1.2*27
###2023-12-09 12:29:59.940465$GPGSV,2,1,08,03,39,280,40,04,20,310,36,16,34,206,42,26,64,206,45*75
###2023-12-09 12:29:59.942983$GPGSV,2,2,08,28,60,053,44,29,25,076,42,31,73,353,44,32,32,133,48*7E
###2023-12-09 12:29:59.945485$GLGSV,1,1,04,71,60,168,48,72,63,314,44,73,50,032,42,75,20,239,38*61
###2023-12-09 12:29:59.947432$GAGSV,1,1,02,21,75,179,39,27,43,050,43,,,,,,,,*6E
