###2023-12-09 13:45:40.018957$GPGSV,2,1,06,04,51,304,45,16,72,228,43,26,78,041,39,28,34,089,45*7E
###2023-12-09 13:45:40.020723$GPGSV,2,2,06,29,18,043,43,31,56,073,49,,,,,,,,*75
###2023-12-09 13:45:40.023063$GLGSV,2,1,06,65,42,313,45,72,57,214,37,73,18,056,44,74,56,022,37*6B
###2023-12-09 13:45:40.024808$GLGSV,2,2,06,75,47,279,47,83,16,042,37,,,,,,,,*63
###2023-12-09 13:45:40.026841$GAGSV,1,1,03,04,43,308,44,21,73,044,38,27,19,051,42,,,,*50
###2023-12-09 13:45:40.029170$GBGSV,1,1,04,12,19,123,42,24,59,051,47,25,54,281,40,35,16,052,36*65
###2023-12-09 13:45:40.030499$GNVTG,243.17,T,,M,0.02,N,0.04,K,A*26
###2023-12-09 13:45:40.032134$GNGST,184539.10,7.500,,,,0.200,0.120,0.320*66
###2023-12-09 13:45:40.033429$GNZDA,184539.10,09,12,2023,00,00*72
###2023-12-09 13:45:40.034068$GNEBP,,,,,,M*13
###2023-12-09 13:45:40.201717$GNGGA,184539.30,4138.0393204,N,07032.4389076,W,1,19,0.8,14.348,M,-29.746,M,0.0,*56
###2023-12-09 13:45:40.404502$GNGGA,184539.50,4138.0393187,N,07032.4389075,W,1,19,0.8,14.348,M,-29.746,M,0.0,*5B
###2023-12-09 13:45:40.600018$GNGGA,184539.70,4138.0393182,N,07032.4389093,W,1,19,0.8,14.346,M,-29.746,M,0.0,*5A
###2023-12-09 13:45:40.800249$GNGGA,184539.90,4138.0393182,N,07032.4389096,W,1,19,0.8,14.345,M,-29.746,M,0.0,*52
###2023-12-09 13:45:41.003350$GNRMC,184540.10,A,4138.0393185,N,07032.4389107,W,0.04,243.17,091223,,,A*5E
###2023-12-09 13:45:41.006203$GNGGA,184540.10,4138.0393185,N,07032.4389107,W,1,19,0.8,14.345,M,-29.746,M,0.0,*5A
###2023-12-09 13:45:41.007943$GPGSA,A,3,04,16,26,28,29,31,,,,,,,1.3,0.8,1.1*3C
###2023-12-09 13:45:41.009658$GLGSA,A,3,65,72,73,74,75,83,,,,,,,1.3,0.8,1.1*2C
###2023-12-09 13:45:41.011186$GAGSA,A,3,04,21,27,,,,,,,,,,1.3,0.8,1.1*2B
###2023-12-09 13:45:41.012765$GBGSA,A,3,12,24,25,35,,,,,,,,,1.3,0.8,1.1*2E
###2023-12-09 13:45:41.015081$GPGSV,2,1,06,04,51,304,45,16,72,228,43,26,78,041,39,28,34,089,45*7E
###2023-12-09 13:45:41.016813$GPGSV,2,2,06,29,18,043,43,31,56,073,49,,,,,,,,*75
###2023-12-09 13:45:41.019129$GLGSV,2,1,06,65,42,313,46,72,57,214,37,73,18,056,44,74,56,022,36*69
###2023-12-09 13:45:41.020869$GLGSV,2,2,06,75,47,279,47,83,16,042,37,,,,,,,,*63
###2023-12-09 13:45:41.022901$GAGSV,1,1,03,04,43,308,44,21,73,044,38,27,19,051,42,,,,*50
###2023-12-09 13:45:41.025213$GBGSV,1,1,04,12,19,123,42,24,59,051,47,25,54,281,40,35,16,052,36*65
###2023-12-09 13:45:41.026537$GNVTG,243.17,T,,M,0.04,N,0.07,K,A*23
###2023-12-09 13:45:41.028160$GNGST,184540.10,7.400,,,,0.200,0.120,0.320*69
###2023-12-09 13:45:41.029450$GNZDA,184540.10,09,12,2023,00,00*7C
###2023-12-09 13:45:41.030087$GNEBP,,,,,,M*13
###2023-12-09 13:45:41.200899$GNGGA,184540.30,4138.0393207,N,07032.4389124,W,1,19,0.8,14.346,M,-29.746,M,0.0,*53
###2023-12-09 13:45:41.401563$GNGGA,184540.50,4138.0393182,N,07032.4389127,W,1,19,0.8,14.344,M,-29.746,M,0.0,*5A
###2023-12-09 13:45:41.601027$GNGGA,184540.70,4138.0393179,N,07032.4389135,W,1,20,0.7,14.347,M,-29.746,M,0.0,*59
###2023-12-09 13:45:41.800813$GNGGA,184540.90,4138.0393177,N,07032.4389135,W,1,20,0.7,14.349,M,-29.746,M,0.0,*57
###2023-12-09 13:45:42.004189$GNRMC,184541.10,A,4138.0393179,N,07032.4389150,W,0.04,243.17,091223,,,A*5E
###2023-12-09 13:45:42.007064$GNGGA,184541.10,4138.0393179,N,07032.4389150,W,1,20,0.7,14.345,M,-29.746,M,0.0,*5F
###2023-12-09 13:45:42.008788$GPGSA,A,3,04,16,26,28,29,31,,,,,,,1.3,0.7,1.1*33
###2023-12-09 13:45:42.010496$GLGSA,A,3,65,72,73,74,75,83,,,,,,,1.3,0.7,1.1*23
###2023-12-09 13:45:42.012022$GAGSA,A,3,04,21,27,,,,,,,,,,1.3,0.7,1.1*24
###2023-12-09 13:45:42.013663$GBGSA,A,3,12,24,25,33,35,,,,,,,,1.3,0.7,1.1*21
###2023-12-09 13:45:42.015987$GPGSV,2,1,06,04,51,304,45,16,72,228,43,26,78,041,39,28,34,089,45*7E
###2023-12-09 13:45:42.017728$GPGSV,2,2,06,29,18,043,42,31,56,073,49,,,,,,,,*74
###2023-12-09 13:45:42.020062$GLGSV,2,1,06,65,42,313,45,72,57,214,37,73,18,056,44,74,56,022,37*6B
###2023-12-09 13:45:42.021812$GLGSV,2,2,06,75,47,279,47,83,16,042,37,,,,,,,,*63
###2023-12-09 13:45:42.023848$GAGSV,1,1,03,04,43,308,44,21,73,044,38,27,19,051,42,,,,*50
###2023-12-09 13:45:42.026172$GBGSV,2,1,05,12,19,123,42,24,59,051,47,25,54,281,40,33,41,214,35*60
###2023-12-09 13:45:42.027629$GBGSV,2,2,05,35,16,052,37,,,,,,,,,,,,*5C
###2023-12-09 13:45:42.028941$GNVTG,243.17,T,,M,0.04,N,0.07,K,A*23
###2023-12-09 13:45:42.030546$GNGST,184541.10,7.300,,,,0.200,0.120,0.330*6E
###2023-12-09 13:45:42.031837$GNZDA,184541.10,09,12,2023,00,00*7D
###2023-12-09 13:45:42.032474$GNEBP,,,,,,M*13
###2023-12-09 13:45:42.202145$GNGGA,184541.30,4138.0393177,N,07032.4389164,W,1,20,0.7,14.346,M,-29.746,M,0.0,*57
###2023-12-09 13:45:42.400714$GNGGA,184541.50,4138.0393176,N,07032.4389170,W,1,20,0.7,14.349,M,-29.746,M,0.0,*5A
###2023-12-09 13:45:42.599984$GNGGA,184541.70,4138.0393182,N,07032.4389182,W,1,19,0.8,14.347,M,-29.746,M,0.0,*55
###2023-12-09 13:45:42.801635$GNGGA,184541.90,4138.0393197,N,07032.4389196,W,1,20,0.7,14.347,M,-29.746,M,0.0,*5F
###2023-12-09 13:45:43.004166$GNRMC,184542.10,A,4138.0393191,N,07032.4389206,W,0.04,243.17,091223,,,A*5B
###2023-12-09 13:45:43.007022$GNGGA,184542.10,4138.0393191,N,07032.4389206,W,1,20,0.7,14.347,M,-29.746,M,0.0,*58
###2023-12-09 13:45:43.008745$GPGSA,A,3,04,16,26,28,29,31,,,,,,,1.3,0.7,1.1*33
###2023-12-09 13:45:43.010449$GLGSA,A,3,65,72,73,74,75,83,,,,,,,1.3,0.7,1.1*23
###2023-12-09 13:45:43.011982$GAGSA,A,3,04,21,27,,,,,,,,,,1.3,0.7,1.1*24
###2023-12-09 13:45:43.013624$GBGSA,A,3,12,24,25,33,35,,,,,,,,1.3,0.7,1.1*21
###2023-12-09 13:45:43.015959$GPGSV,2,1,06,04,51,304,46,16,72,228,43,26,78,041,39,28,34,089,45*7D
###2023-12-09 13:45:43.017704$GPGSV,2,2,06,29,18,043,43,31,56,073,49,,,,,,,,*75
###2023-12-09 13:45:43.020042$GLGSV,2,1,06,65,42,313,45,72,57,214,37,73,18,056,44,74,56,022,37*6B
###2023-12-09 13:45:43.021784$GLGSV,2,2,06,75,47,279,47,83,16,042,36,,,,,,,,*62
###2023-12-09 13:45:43.023831$GAGSV,1,1,03,04,43,308,44,21,73,044,38,27,19,051,42,,,,*50
###2023-12-09 13:45:43.026159$GBGSV,2,1,05,12,19,123,42,24,59,051,47,25,54,281,40,33,41,214,35*60
###2023-12-09 13:45:43.027629$GBGSV,2,2,05,35,16,052,38,,,,,,,,,,,,*53
###2023-12-09 13:45:43.028950$GNVTG,243.17,T,,M,0.04,N,0.07,K,A*23
###2023-12-09 13:45:43.030597$GNGST,184542.10,7.300,,,,0.200,0.120,0.330*6D
###2023-12-09 13:45:43.031897$GNZDA,184542.10,09,12,2023,00,00*7E
###2023-12-09 13:45:43.032534$GNEBP,,,,,,M*13
###2023-12-09 13:45:43.200885$GNGGA,184542.30,4138.0393197,N,07032.4389226,W,1,20,0.7,14.344,M,-29.746,M,0.0,*5D
###2023-12-09 13:45:43.401086$GNGGA,184542.50,4138.0393197,N,07032.4389238,W,1,20,0.7,14.345,M,-29.746,M,0.0,*55
###2023-12-09 13:45:43.600045$GNGGA,184542.70,4138.0393202,N,07032.4389261,W,1,19,0.8,14.349,M,-29.746,M,0.0,*5D
###2023-12-09 13:45:43.800789$GNGGA,184542.90,4138.0393207,N,07032.4389277,W,1,19,0.8,14.350,M,-29.746,M,0.0,*59
###2023-12-09 13:45:44.005190$GNRMC,184543.10,A,4138.0393206,N,07032.4389291,W,0.08,243.17,091223,,,A*55
###2023-12-09 13:45:44.008072$GNGGA,184543.10,4138.0393206,N,07032.4389291,W,1,19,0.8,14.348,M,-29.746,M,0.0,*50
###2023-12-09 13:45:44.009797$GPGSA,A,3,04,16,26,28,29,31,,,,,,,1.3,0.8,1.1*3C
###2023-12-09 13:45:44.011523$GLGSA,A,3,65,72,73,74,75,83,,,,,,,1.3,0.8,1.1*2C
###2023-12-09 13:45:44.013039$GAGSA,A,3,04,21,27,,,,,,,,,,1.3,0.8,1.1*2B
###2023-12-09 13:45:44.014637$GBGSA,A,3,12,24,25,35,,,,,,,,,1.3,0.8,1.1*2E
###2023-12-09 13:45:44.016959$GPGSV,2,1,06,04,51,304,46,16,72,228,43,26,78,041,39,28,34,089,45*7D
###2023-12-09 13:45:44.018716$GPGSV,2,2,06,29,18,043,43,31,56,073,49,,,,,,,,*75
###2023-12-09 13:45:44.021037$GLGSV,2,1,06,65,42,313,45,72,57,214,37,73,18,056,44,74,56,022,37*6B
###2023-12-09 13:45:44.022790$GLGSV,2,2,06,75,47,279,47,83,16,042,36,,,,,,,,*62
###2023-12-09 13:45:44.024827$GAGSV,1,1,03,04,43,308,44,21,73,044,38,27,19,051,42,,,,*50
###2023-12-09 13:45:44.027166$GBGSV,1,1,04,12,19,123,42,24,59,051,47,25,54,281,40,35,16,052,37*64
###2023-12-09 13:45:44.028492$GNVTG,243.17,T,,M,0.08,N,0.14,K,A*2D
###2023-12-09 13:45:44.030104$GNGST,184543.10,7.100,,,,0.200,0.120,0.330*6E
###2023-12-09 13:45:44.031405$GNZDA,184543.10,09,12,2023,00,00*7F
###2023-12-09 13:45:44.032045$GNEBP,,,,,,M*13
###2023-12-09 13:45:44.201473$GNGGA,184543.30,4138.0393204,N,07032.4389295,W,1,20,0.7,14.350,M,-29.746,M,0.0,*58
###2023-12-09 13:45:44.406245$GNGGA,184543.50,4138.0393206,N,07032.4389306,W,1,20,0.7,14.352,M,-29.746,M,0.0,*55
###2023-12-09 13:45:44.600258$GNGGA,184543.70,4138.0393207,N,07032.4389318,W,1,20,0.7,14.356,M,-29.746,M,0.0,*5D
###2023-12-09 13:45:44.801345$GNGGA,184543.90,4138.0393228,N,07032.4389325,W,1,20,0.7,14.363,M,-29.746,M,0.0,*56
###2023-12-09 13:45:45.007040$GNRMC,184544.10,A,4138.0393240,N,07032.4389340,W,0.02,243.17,091223,,,A*57
###2023-12-09 13:45:45.009881$GNGGA,184544.10,4138.0393240,N,07032.4389340,W,1,20,0.7,14.362,M,-29.746,M,0.0,*55
###2023-12-09 13:45:45.011618$GPGSA,A,3,04,16,26,28,29,31,,,,,,,1.3,0.7,1.1*33
###2023-12-09 13:45:45.013328$GLGSA,A,3,65,72,73,74,75,83,,,,,,,1.3,0.7,1.1*23
