###2023-12-09 13:28:23.384677$GNGGA,182822.50,4138.0422505,N,07032.4250046,W,1,23,0.7,13.191,M,-29.745,M,0.0,*58
###2023-12-09 13:28:23.585866$GNGGA,182822.70,4138.0422751,N,07032.4248104,W,1,22,0.7,13.190,M,-29.745,M,0.0,*57
###2023-12-09 13:28:23.785354$GNGGA,182822.90,4138.0422975,N,07032.4246214,W,1,23,0.7,13.194,M,-29.745,M,0.0,*58
###2023-12-09 13:28:23.989267$GNRMC,182823.10,A,4138.0423231,N,07032.4244295,W,2.84,81.60,091223,,,A*6E
###2023-12-09 13:28:23.992135$GNGGA,182823.10,4138.0423231,N,07032.4244295,W,1,23,0.7,13.211,M,-29.745,M,0.0,*5E
###2023-12-09 13:28:23.993852$GPGSA,A,3,04,16,26,28,29,31,,,,,,,1.2,0.7,1.0*33
###2023-12-09 13:28:23.995580$GLGSA,A,3,65,71,72,73,74,75,,,,,,,1.2,0.7,1.0*2E
###2023-12-09 13:28:23.997160$GAGSA,A,3,04,19,21,27,,,,,,,,,1.2,0.7,1.0*2C
###2023-12-09 13:28:23.998877$GBGSA,A,3,14,24,25,26,33,35,,,,,,,1.2,0.7,1.0*23
###2023-12-09 13:28:24.001205$GPGSV,2,1,06,04,43,309,44,16,63,220,47,26,87,041,48,28,40,082,42*74
###2023-12-09 13:28:24.002967$GPGSV,2,2,06,29,22,049,40,31,61,061,46,,,,,,,,*7D
###2023-12-09 13:28:24.005295$GLGSV,2,1,06,65,35,321,42,71,26,175,37,72,66,227,46,73,25,050,40*64
###2023-12-09 13:28:24.007053$GLGSV,2,2,06,74,62,008,42,75,41,267,46,,,,,,,,*6C
###2023-12-09 13:28:24.009379$GAGSV,1,1,04,04,38,311,42,19,74,183,41,21,79,049,46,27,24,049,38*65
###2023-12-09 13:28:24.011724$GBGSV,2,1,06,14,31,190,43,24,65,042,48,25,49,273,46,26,18,069,41*60
###2023-12-09 13:28:24.013467$GBGSV,2,2,06,33,48,220,48,35,16,059,41,,,,,,,,*65
###2023-12-09 13:28:24.014765$GNVTG,81.60,T,,M,2.84,N,5.26,K,A*13
###2023-12-09 13:28:24.016412$GNGST,182823.10,18.000,,,,0.150,0.094,0.240*52
###2023-12-09 13:28:24.017699$GNZDA,182823.10,09,12,2023,00,00*72
###2023-12-09 13:28:24.018339$GNEBP,,,,,,M*13
###2023-12-09 13:28:24.203373$GNGGA,182823.30,4138.0423539,N,07032.4242293,W,1,23,0.7,13.206,M,-29.745,M,0.0,*55
###2023-12-09 13:28:24.385534$GNGGA,182823.50,4138.0423999,N,07032.4240316,W,1,23,0.7,13.210,M,-29.745,M,0.0,*5C
###2023-12-09 13:28:24.587347$GNGGA,182823.70,4138.0424394,N,07032.4238199,W,1,24,0.6,13.210,M,-29.745,M,0.0,*52
###2023-12-09 13:28:24.787689$GNGGA,182823.90,4138.0424848,N,07032.4236006,W,1,24,0.6,13.228,M,-29.745,M,0.0,*54
###2023-12-09 13:28:24.990654$GNRMC,182824.10,A,4138.0425352,N,07032.4233785,W,3.07,74.75,091223,,,A*6B
###2023-12-09 13:28:24.993519$GNGGA,182824.10,4138.0425352,N,07032.4233785,W,1,24,0.6,13.230,M,-29.745,M,0.0,*5A
###2023-12-09 13:28:24.995319$GPGSA,A,3,03,04,16,26,28,29,31,,,,,,1.1,0.6,0.9*3A
###2023-12-09 13:28:24.997032$GLGSA,A,3,65,71,72,73,74,75,,,,,,,1.1,0.6,0.9*24
###2023-12-09 13:28:24.998621$GAGSA,A,3,04,19,21,27,,,,,,,,,1.1,0.6,0.9*26
###2023-12-09 13:28:25.000327$GBGSA,A,3,14,24,25,26,33,35,,,,,,,1.1,0.6,0.9*29
###2023-12-09 13:28:25.002655$GPGSV,2,1,07,03,28,249,38,04,43,309,45,16,63,220,46,26,87,041,48*7A
###2023-12-09 13:28:25.004687$GPGSV,2,2,07,28,40,082,43,29,22,049,41,31,61,061,46,,,,*4E
###2023-12-09 13:28:25.007019$GLGSV,2,1,06,65,35,321,43,71,26,175,35,72,66,227,47,73,25,050,41*67
###2023-12-09 13:28:25.008773$GLGSV,2,2,06,74,62,008,42,75,41,267,46,,,,,,,,*6C
###2023-12-09 13:28:25.011111$GAGSV,1,1,04,04,38,311,42,19,74,183,41,21,79,049,45,27,24,049,39*67
###2023-12-09 13:28:25.013441$GBGSV,2,1,06,14,31,190,42,24,65,042,48,25,49,273,47,26,18,069,40*61
###2023-12-09 13:28:25.015198$GBGSV,2,2,06,33,48,220,48,35,16,059,41,,,,,,,,*65
###2023-12-09 13:28:25.016490$GNVTG,74.75,T,,M,3.07,N,5.69,K,A*1C
###2023-12-09 13:28:25.018139$GNGST,182824.10,18.000,,,,0.140,0.094,0.240*54
###2023-12-09 13:28:25.019440$GNZDA,182824.10,09,12,2023,00,00*75
###2023-12-09 13:28:25.020080$GNEBP,,,,,,M*13
###2023-12-09 13:28:25.188310$GNGGA,182824.30,4138.0425900,N,07032.4231548,W,1,23,0.7,13.240,M,-29.745,M,0.0,*55
###2023-12-09 13:28:25.387746$GNGGA,182824.50,4138.0426438,N,07032.4229196,W,1,24,0.6,13.228,M,-29.745,M,0.0,*50
###2023-12-09 13:28:25.588117$GNGGA,182824.70,4138.0426963,N,07032.4227045,W,1,24,0.6,13.240,M,-29.745,M,0.0,*5E
###2023-12-09 13:28:25.788547$GNGGA,182824.90,4138.0427508,N,07032.4224848,W,1,24,0.6,13.268,M,-29.745,M,0.0,*5C
###2023-12-09 13:28:25.991280$GNRMC,182825.10,A,4138.0427949,N,07032.4222772,W,2.55,72.08,091223,,,A*6A
###2023-12-09 13:28:25.994146$GNGGA,182825.10,4138.0427949,N,07032.4222772,W,1,24,0.6,13.254,M,-29.745,M,0.0,*53
###2023-12-09 13:28:25.995948$GPGSA,A,3,03,04,16,26,28,29,31,,,,,,1.1,0.6,0.9*3A
###2023-12-09 13:28:25.997666$GLGSA,A,3,65,71,72,73,74,75,,,,,,,1.1,0.6,0.9*24
###2023-12-09 13:28:25.999269$GAGSA,A,3,04,19,21,27,,,,,,,,,1.1,0.6,0.9*26
###2023-12-09 13:28:26.000988$GBGSA,A,3,14,24,25,26,33,35,,,,,,,1.1,0.6,0.9*29
###2023-12-09 13:28:26.003365$GPGSV,2,1,07,03,28,249,41,04,43,309,44,16,63,220,46,26,87,041,48*75
###2023-12-09 13:28:26.005406$GPGSV,2,2,07,28,40,082,42,29,22,049,40,31,61,061,46,,,,*4E
###2023-12-09 13:28:26.007745$GLGSV,2,1,06,65,35,321,43,71,26,175,39,72,66,227,46,73,25,050,40*6B
###2023-12-09 13:28:26.009492$GLGSV,2,2,06,74,62,008,42,75,41,267,48,,,,,,,,*62
###2023-12-09 13:28:26.011831$GAGSV,1,1,04,04,38,311,43,19,74,183,42,21,79,049,46,27,24,049,40*68
###2023-12-09 13:28:26.014157$GBGSV,2,1,06,14,31,190,42,24,65,042,47,25,49,273,46,26,18,069,41*6E
###2023-12-09 13:28:26.015913$GBGSV,2,2,06,33,48,220,47,35,16,059,41,,,,,,,,*6A
###2023-12-09 13:28:26.017208$GNVTG,72.08,T,,M,2.55,N,4.72,K,A*1D
###2023-12-09 13:28:26.018871$GNGST,182825.10,17.000,,,,0.140,0.095,0.230*5C
###2023-12-09 13:28:26.020169$GNZDA,182825.10,09,12,2023,00,00*74
###2023-12-09 13:28:26.020808$GNEBP,,,,,,M*13
###2023-12-09 13:28:26.187107$GNGGA,182825.30,4138.0428502,N,07032.4221102,W,1,24,0.6,13.276,M,-29.745,M,0.0,*5F
###2023-12-09 13:28:26.387035$GNGGA,182825.50,4138.0429022,N,07032.4219318,W,1,24,0.6,13.299,M,-29.745,M,0.0,*5C
###2023-12-09 13:28:26.587797$GNGGA,182825.70,4138.0429330,N,07032.4217532,W,1,24,0.6,13.271,M,-29.745,M,0.0,*58
###2023-12-09 13:28:26.787136$GNGGA,182825.90,4138.0429785,N,07032.4216145,W,1,24,0.6,13.278,M,-29.745,M,0.0,*50
###2023-12-09 13:28:26.990068$GNRMC,182826.10,A,4138.0430308,N,07032.4214628,W,2.47,65.85,091223,,,A*6B
###2023-12-09 13:28:26.992959$GNGGA,182826.10,4138.0430308,N,07032.4214628,W,1,24,0.6,13.305,M,-29.745,M,0.0,*57
###2023-12-09 13:28:26.994771$GPGSA,A,3,03,04,16,26,28,29,31,,,,,,1.1,0.6,0.9*3A
###2023-12-09 13:28:26.996477$GLGSA,A,3,65,71,72,73,74,75,,,,,,,1.1,0.6,0.9*24
###2023-12-09 13:28:26.998058$GAGSA,A,3,04,19,21,27,,,,,,,,,1.1,0.6,0.9*26
###2023-12-09 13:28:26.999777$GBGSA,A,3,14,24,25,26,33,35,,,,,,,1.1,0.6,0.9*29
###2023-12-09 13:28:27.002104$GPGSV,2,1,07,03,28,249,38,04,43,309,46,16,63,220,48,26,87,041,48*77
###2023-12-09 13:28:27.004153$GPGSV,2,2,07,28,40,082,43,29,22,049,41,31,61,061,46,,,,*4E
###2023-12-09 13:28:27.006470$GLGSV,2,1,06,65,35,321,43,71,26,175,41,72,66,227,47,73,25,050,40*65
###2023-12-09 13:28:27.008229$GLGSV,2,2,06,74,62,008,42,75,41,267,47,,,,,,,,*6D
###2023-12-09 13:28:27.010554$GAGSV,1,1,04,04,38,311,45,19,74,183,42,21,79,049,46,27,24,049,40*6E
###2023-12-09 13:28:27.012888$GBGSV,2,1,06,14,31,190,44,24,65,042,48,25,49,273,48,26,18,069,41*69
###2023-12-09 13:28:27.014645$GBGSV,2,2,06,33,48,220,48,35,16,059,42,,,,,,,,*66
###2023-12-09 13:28:27.015935$GNVTG,65.85,T,,M,2.47,N,4.57,K,A*1A
###2023-12-09 13:28:27.017579$GNGST,182826.10,17.000,,,,0.140,0.095,0.230*5F
###2023-12-09 13:28:27.018881$GNZDA,182826.10,09,12,2023,00,00*77
###2023-12-09 13:28:27.019520$GNEBP,,,,,,M*13
###2023-12-09 13:28:27.194114$GNGGA,182826.30,4138.0430696,N,07032.4213101,W,1,24,0.6,13.288,M,-29.745,M,0.0,*58
###2023-12-09 13:28:27.387108$GNGGA,182826.50,4138.0431034,N,07032.4211792,W,1,24,0.6,13.298,M,-29.745,M,0.0,*5E
###2023-12-09 13:28:27.588241$GNGGA,182826.70,4138.0431593,N,07032.4210491,W,1,24,0.6,13.316,M,-29.745,M,0.0,*52
###2023-12-09 13:28:27.790441$GNGGA,182826.90,4138.0432072,N,07032.4209155,W,1,24,0.6,13.326,M,-29.745,M,0.0,*53
###2023-12-09 13:28:27.994332$GNRMC,182827.10,A,4138.0432429,N,07032.4207886,W,1.83,71.13,091223,,,A*65
###2023-12-09 13:28:27.997792$GNGGA,182827.10,4138.0432429,N,07032.4207886,W,1,24,0.6,13.326,M,-29.745,M,0.0,*59
###2023-12-09 13:28:27.999956$GPGSA,A,3,03,04,16,26,28,29,31,,,,,,1.1,0.6,0.9*3A
###2023-12-09 13:28:28.002305$GLGSA,A,3,65,71,72,73,74,75,,,,,,,1.1,0.6,0.9*24
###2023-12-09 13:28:28.004251$GAGSA,A,3,04,19,21,27,,,,,,,,,1.1,0.6,0.9*26
###2023-12-09 13:28:28.006318$GBGSA,A,3,14,24,25,26,33,35,,,,,,,1.1,0.6,0.9*29
###2023-12-09 13:28:28.009142$GPGSV,2,1,07,03,28,249,42,04,43,309,45,16,63,220,47,26,87,041,48*76
###2023-12-09 13:28:28.011604$GPGSV,2,2,07,28,40,082,42,29,22,049,41,31,61,061,46,,,,*4F
###2023-12-09 13:28:28.014393$GLGSV,2,1,06,65,35,321,44,71,26,175,39,72,66,227,47,73,25,050,41*6C
###2023-12-09 13:28:28.016524$GLGSV,2,2,06,74,62,008,42,75,41,267,48,,,,,,,,*62
###2023-12-09 13:28:28.019349$GAGSV,1,1,04,04,38,311,43,19,74,183,41,21,79,049,46,27,24,049,38*64
###2023-12-09 13:28:28.022144$GBGSV,2,1,06,14,31,190,42,24,65,042,46,25,49,273,47,26,18,069,42*6D
###2023-12-09 13:28:28.024259$GBGSV,2,2,06,33,48,220,47,35,16,059,42,,,,,,,,*69
