###2023-12-09 13:31:00.989440$GNRMC,183100.10,A,4138.0324430,N,07032.4122015,W,1.54,105.49,091223,,,A*51
###2023-12-09 13:31:00.992324$GNGGA,183100.10,4138.0324430,N,07032.4122015,W,1,20,0.9,13.112,M,-29.746,M,0.0,*57
###2023-12-09 13:31:00.994057$GPGSA,A,3,04,16,26,28,29,31,,,,,,,1.6,0.9,1.2*3B
###2023-12-09 13:31:00.995719$GLGSA,A,3,65,72,73,74,75,,,,,,,,1.6,0.9,1.2*20
###2023-12-09 13:31:00.997295$GAGSA,A,3,04,19,21,27,,,,,,,,,1.6,0.9,1.2*24
###2023-12-09 13:31:00.998945$GBGSA,A,3,24,25,26,33,35,,,,,,,,1.6,0.9,1.2*2E
###2023-12-09 13:31:01.001267$GPGSV,2,1,06,04,44,309,45,16,64,220,47,26,86,041,48,28,39,083,42*7B
###2023-12-09 13:31:01.003019$GPGSV,2,2,06,29,21,049,40,31,61,063,45,,,,,,,,*7F
###2023-12-09 13:31:01.005339$GLGSV,2,1,05,65,37,320,43,72,64,223,46,73,23,051,40,74,61,011,42*63
###2023-12-09 13:31:01.006807$GLGSV,2,2,05,75,42,269,46,,,,,,,,,,,,*5B
###2023-12-09 13:31:01.009117$GAGSV,1,1,04,04,39,310,44,19,73,182,42,21,78,047,46,27,23,050,39*67
###2023-12-09 13:31:01.011447$GBGSV,2,1,05,24,64,044,47,25,50,275,46,26,17,070,41,33,47,218,46*60
###2023-12-09 13:31:01.012892$GBGSV,2,2,05,35,16,058,43,,,,,,,,,,,,*55
###2023-12-09 13:31:01.014204$GNVTG,105.49,T,,M,1.54,N,2.84,K,A*24
###2023-12-09 13:31:01.015828$GNGST,183100.10,5.800,,,,0.140,0.080,0.220*6D
###2023-12-09 13:31:01.017116$GNZDA,183100.10,09,12,2023,00,00*7B
###2023-12-09 13:31:01.017750$GNEBP,,,,,,M*13
###2023-12-09 13:31:01.191147$GNGGA,183100.30,4138.0324280,N,07032.4120982,W,1,21,0.9,13.118,M,-29.746,M,0.0,*56
###2023-12-09 13:31:01.388370$GNGGA,183100.50,4138.0324211,N,07032.4119968,W,1,21,0.9,13.127,M,-29.746,M,0.0,*5A
###2023-12-09 13:31:01.588554$GNGGA,183100.70,4138.0324195,N,07032.4118987,W,1,21,0.9,13.112,M,-29.746,M,0.0,*51
###2023-12-09 13:31:01.787949$GNGGA,183100.90,4138.0324138,N,07032.4118124,W,1,20,0.9,13.118,M,-29.746,M,0.0,*52
###2023-12-09 13:31:01.992102$GNRMC,183101.10,A,4138.0324090,N,07032.4117207,W,1.22,85.33,091223,,,A*6C
###2023-12-09 13:31:01.994971$GNGGA,183101.10,4138.0324090,N,07032.4117207,W,1,22,0.8,13.144,M,-29.746,M,0.0,*5F
###2023-12-09 13:31:01.996768$GPGSA,A,3,03,04,16,26,28,29,31,,,,,,1.3,0.8,1.0*3E
###2023-12-09 13:31:01.998425$GLGSA,A,3,65,72,73,74,75,,,,,,,,1.3,0.8,1.0*26
###2023-12-09 13:31:02.000018$GAGSA,A,3,04,19,21,27,,,,,,,,,1.3,0.8,1.0*22
###2023-12-09 13:31:02.001665$GBGSA,A,3,24,25,26,33,35,,,,,,,,1.3,0.8,1.0*28
###2023-12-09 13:31:02.004030$GPGSV,2,1,07,03,28,248,36,04,44,309,44,16,64,220,48,26,86,041,48*7B
###2023-12-09 13:31:02.006067$GPGSV,2,2,07,28,39,083,44,29,21,049,41,31,61,063,45,,,,*44
###2023-12-09 13:31:02.008403$GLGSV,2,1,05,65,37,320,42,72,64,223,47,73,23,051,41,74,61,011,42*62
###2023-12-09 13:31:02.009852$GLGSV,2,2,05,75,42,269,47,,,,,,,,,,,,*5A
###2023-12-09 13:31:02.012180$GAGSV,1,1,04,04,39,310,45,19,73,182,42,21,78,047,46,27,23,050,41*69
###2023-12-09 13:31:02.014502$GBGSV,2,1,05,24,64,044,47,25,50,275,47,26,17,070,42,33,47,218,49*6D
###2023-12-09 13:31:02.015963$GBGSV,2,2,05,35,16,058,42,,,,,,,,,,,,*54
###2023-12-09 13:31:02.017246$GNVTG,85.33,T,,M,1.22,N,2.27,K,A*18
###2023-12-09 13:31:02.018864$GNGST,183101.10,5.900,,,,0.140,0.080,0.220*6D
###2023-12-09 13:31:02.020154$GNZDA,183101.10,09,12,2023,00,00*7A
###2023-12-09 13:31:02.020789$GNEBP,,,,,,M*13
###2023-12-09 13:31:02.188195$GNGGA,183101.30,4138.0324127,N,07032.4116293,W,1,23,0.7,13.146,M,-29.746,M,0.0,*50
###2023-12-09 13:31:02.389841$GNGGA,183101.50,4138.0324177,N,07032.4115554,W,1,23,0.7,13.142,M,-29.746,M,0.0,*58
###2023-12-09 13:31:02.589556$GNGGA,183101.70,4138.0324273,N,07032.4114838,W,1,23,0.7,13.164,M,-29.746,M,0.0,*5F
###2023-12-09 13:31:02.788706$GNGGA,183101.90,4138.0324347,N,07032.4114038,W,1,22,0.7,13.169,M,-29.746,M,0.0,*53
###2023-12-09 13:31:02.993204$GNRMC,183102.10,A,4138.0324400,N,07032.4113257,W,0.97,86.35,091223,,,A*69
###2023-12-09 13:31:02.996103$GNGGA,183102.10,4138.0324400,N,07032.4113257,W,1,21,0.9,13.182,M,-29.746,M,0.0,*58
###2023-12-09 13:31:02.997904$GPGSA,A,3,03,04,16,26,28,29,31,,,,,,1.4,0.9,1.1*39
###2023-12-09 13:31:02.999572$GLGSA,A,3,65,72,73,74,75,,,,,,,,1.4,0.9,1.1*21
###2023-12-09 13:31:03.001168$GAGSA,A,3,04,19,21,27,,,,,,,,,1.4,0.9,1.1*25
###2023-12-09 13:31:03.002838$GBGSA,A,3,24,25,26,33,35,,,,,,,,1.4,0.9,1.1*2F
###2023-12-09 13:31:03.005182$GPGSV,2,1,07,03,28,248,40,04,44,309,46,16,64,220,46,26,86,041,48*76
###2023-12-09 13:31:03.007240$GPGSV,2,2,07,28,39,083,44,29,21,049,40,31,61,063,46,,,,*46
###2023-12-09 13:31:03.009563$GLGSV,2,1,05,65,37,320,44,72,64,223,46,73,23,051,42,74,61,011,42*66
###2023-12-09 13:31:03.011029$GLGSV,2,2,05,75,42,269,47,,,,,,,,,,,,*5A
###2023-12-09 13:31:03.013350$GAGSV,1,1,04,04,39,310,45,19,73,182,41,21,78,047,46,27,23,050,39*65
###2023-12-09 13:31:03.015681$GBGSV,2,1,05,24,64,044,47,25,50,275,46,26,17,070,40,33,47,218,46*61
###2023-12-09 13:31:03.017136$GBGSV,2,2,05,35,16,058,41,,,,,,,,,,,,*57
###2023-12-09 13:31:03.018422$GNVTG,86.35,T,,M,0.97,N,1.80,K,A*1C
###2023-12-09 13:31:03.020042$GNGST,183102.10,5.500,,,,0.140,0.080,0.220*62
###2023-12-09 13:31:03.021331$GNZDA,183102.10,09,12,2023,00,00*79
###2023-12-09 13:31:03.021966$GNEBP,,,,,,M*13
###2023-12-09 13:31:03.193157$GNGGA,183102.30,4138.0324426,N,07032.4112568,W,1,21,0.9,13.183,M,-29.746,M,0.0,*55
###2023-12-09 13:31:03.387198$GNGGA,183102.50,4138.0324602,N,07032.4111943,W,1,21,0.9,13.195,M,-29.746,M,0.0,*56
###2023-12-09 13:31:03.588190$GNGGA,183102.70,4138.0324767,N,07032.4111293,W,1,22,0.7,13.203,M,-29.746,M,0.0,*51
###2023-12-09 13:31:03.789277$GNGGA,183102.90,4138.0324833,N,07032.4110583,W,1,22,0.7,13.209,M,-29.746,M,0.0,*5C
###2023-12-09 13:31:03.991601$GNRMC,183103.10,A,4138.0324948,N,07032.4109774,W,1.07,73.36,091223,,,A*67
###2023-12-09 13:31:03.994469$GNGGA,183103.10,4138.0324948,N,07032.4109774,W,1,22,0.7,13.207,M,-29.746,M,0.0,*54
###2023-12-09 13:31:03.996281$GPGSA,A,3,03,04,16,26,28,29,31,,,,,,1.2,0.7,1.0*30
###2023-12-09 13:31:03.997992$GLGSA,A,3,65,71,72,73,74,75,,,,,,,1.2,0.7,1.0*2E
###2023-12-09 13:31:03.999588$GAGSA,A,3,04,19,21,27,,,,,,,,,1.2,0.7,1.0*2C
###2023-12-09 13:31:04.001240$GBGSA,A,3,24,25,26,33,35,,,,,,,,1.2,0.7,1.0*26
###2023-12-09 13:31:04.003570$GPGSV,2,1,07,03,27,247,41,04,44,309,47,16,64,220,49,26,86,041,50*70
###2023-12-09 13:31:04.005606$GPGSV,2,2,07,28,39,083,45,29,21,049,39,31,61,063,47,,,,*48
###2023-12-09 13:31:04.007960$GLGSV,2,1,06,65,37,320,43,71,24,175,36,72,64,223,47,73,23,051,40*65
###2023-12-09 13:31:04.009708$GLGSV,2,2,06,74,61,011,42,75,42,269,47,,,,,,,,*6B
###2023-12-09 13:31:04.012046$GAGSV,1,1,04,04,39,310,46,19,73,182,42,21,78,047,46,27,23,050,38*64
###2023-12-09 13:31:04.014368$GBGSV,2,1,05,24,64,044,47,25,50,275,47,26,17,070,41,33,47,218,47*60
###2023-12-09 13:31:04.015835$GBGSV,2,2,05,35,16,058,43,,,,,,,,,,,,*55
###2023-12-09 13:31:04.017125$GNVTG,73.36,T,,M,1.07,N,1.98,K,A*14
###2023-12-09 13:31:04.018747$GNGST,183103.10,7.900,,,,0.140,0.079,0.220*6B
###2023-12-09 13:31:04.020037$GNZDA,183103.10,09,12,2023,00,00*78
###2023-12-09 13:31:04.020675$GNEBP,,,,,,M*13
###2023-12-09 13:31:04.189055$GNGGA,183103.30,4138.0325173,N,07032.4109015,W,1,21,0.9,13.212,M,-29.746,M,0.0,*5E
###2023-12-09 13:31:04.388345$GNGGA,183103.50,4138.0325604,N,07032.4108243,W,1,21,0.9,13.223,M,-29.746,M,0.0,*5D
###2023-12-09 13:31:04.587934$GNGGA,183103.70,4138.0326005,N,07032.4107174,W,1,21,0.9,13.226,M,-29.745,M,0.0,*55
###2023-12-09 13:31:04.790489$GNGGA,183103.90,4138.0326307,N,07032.4105973,W,1,23,0.7,13.208,M,-29.745,M,0.0,*57
###2023-12-09 13:31:04.991614$GNRMC,183104.10,A,4138.0326900,N,07032.4105019,W,1.89,40.81,091223,,,A*64
###2023-12-09 13:31:04.994475$GNGGA,183104.10,4138.0326900,N,07032.4105019,W,1,22,0.7,13.234,M,-29.745,M,0.0,*5E
###2023-12-09 13:31:04.996271$GPGSA,A,3,03,04,16,26,28,29,31,,,,,,1.2,0.7,1.0*30
###2023-12-09 13:31:04.997986$GLGSA,A,3,65,71,72,73,74,75,,,,,,,1.2,0.7,1.0*2E
###2023-12-09 13:31:04.999576$GAGSA,A,3,04,19,21,27,,,,,,,,,1.2,0.7,1.0*2C
###2023-12-09 13:31:05.001225$GBGSA,A,3,24,25,26,33,35,,,,,,,,1.2,0.7,1.0*26
###2023-12-09 13:31:05.003555$GPGSV,2,1,07,03,27,247,37,04,45,308,45,16,64,220,47,26,86,041,48*74
###2023-12-09 13:31:05.005590$GPGSV,2,2,07,28,39,083,44,29,21,049,40,31,61,063,46,,,,*46
###2023-12-09 13:31:05.008184$GLGSV,2,1,06,65,37,320,42,71,24,175,36,72,64,223,47,73,23,051,40*64
###2023-12-09 13:31:05.009955$GLGSV,2,2,06,74,61,011,40,75,42,269,47,,,,,,,,*69
###2023-12-09 13:31:05.012302$GAGSV,1,1,04,04,39,310,44,19,73,182,41,21,78,047,46,27,23,050,37*6A
###2023-12-09 13:31:05.014650$GBGSV,2,1,05,24,64,044,47,25,50,275,48,26,17,070,42,33,47,218,49*62
###2023-12-09 13:31:05.016106$GBGSV,2,2,05,35,16,058,42,,,,,,,,,,,,*54
###2023-12-09 13:31:05.017397$GNVTG,40.81,T,,M,1.89,N,3.49,K,A*10
###2023-12-09 13:31:05.019016$GNGST,183104.10,6.700,,,,0.140,0.079,0.220*63
###2023-12-09 13:31:05.020300$GNZDA,183104.10,09,12,2023,00,00*7F
