###2023-12-09 12:26:45.117576$GNGGA,172644.30,4138.0379873,N,07032.4357028,W,1,17,0.8,8.077,M,-29.746,M,0.0,*6C
###2023-12-09 12:26:45.316601$GNGGA,172644.50,4138.0379858,N,07032.4357025,W,1,17,0.8,8.071,M,-29.746,M,0.0,*68
###2023-12-09 12:26:45.516219$GNGGA,172644.70,4138.0379844,N,07032.4357002,W,1,17,0.8,8.070,M,-29.746,M,0.0,*63
###2023-12-09 12:26:45.716248$GNGGA,172644.90,4138.0379831,N,07032.4357005,W,1,17,0.8,8.065,M,-29.746,M,0.0,*6C
###2023-12-09 12:26:45.919028$GNRMC,172645.10,A,4138.0379828,N,07032.4357008,W,0.00,,091223,,,A*4F
###2023-12-09 12:26:45.922062$GNGGA,172645.10,4138.0379828,N,07032.4357008,W,1,17,0.8,8.059,M,-29.746,M,0.0,*6F
###2023-12-09 12:26:45.924043$GPGSA,A,3,03,16,26,28,29,31,32,,,,,,1.5,0.8,1.3*3E
###2023-12-09 12:26:45.925795$GLGSA,A,3,71,72,73,75,,,,,,,,,1.5,0.8,1.3*25
###2023-12-09 12:26:45.927424$GAGSA,A,3,21,27,,,,,,,,,,,1.5,0.8,1.3*2B
###2023-12-09 12:26:45.929169$GBGSA,A,3,14,25,26,33,,,,,,,,,1.5,0.8,1.3*28
###2023-12-09 12:26:45.931672$GPGSV,2,1,07,03,39,281,43,16,33,206,41,26,62,205,41,28,61,050,43*73
###2023-12-09 12:26:45.933888$GPGSV,2,2,07,29,24,078,41,31,73,346,40,32,34,132,47,,,,*4F
###2023-12-09 12:26:45.936409$GLGSV,1,1,04,71,61,167,48,72,62,315,45,73,52,031,48,75,19,238,42*63
###2023-12-09 12:26:45.938334$GAGSV,1,1,02,21,74,179,42,27,44,051,46,,,,,,,,*60
###2023-12-09 12:26:45.940834$GBGSV,1,1,04,14,59,200,45,25,30,250,37,26,38,056,48,33,64,263,38*6C
###2023-12-09 12:26:45.942131$GNVTG,,T,,M,0.00,N,0.00,K,A*3D
###2023-12-09 12:26:45.943968$GNGST,172645.10,30.000,,,,0.230,0.220,0.540*56
###2023-12-09 12:26:45.945442$GNZDA,172645.10,09,12,2023,00,00*73
###2023-12-09 12:26:45.946252$GNEBP,,,,,,M*13
###2023-12-09 12:26:46.116397$GNGGA,172645.30,4138.0379826,N,07032.4357005,W,1,17,0.8,8.051,M,-29.746,M,0.0,*66
###2023-12-09 12:26:46.317449$GNGGA,172645.50,4138.0379822,N,07032.4357000,W,1,17,0.8,8.045,M,-29.746,M,0.0,*64
###2023-12-09 12:26:46.514430$GNGGA,172645.70,4138.0379822,N,07032.4356991,W,1,17,0.8,8.043,M,-29.746,M,0.0,*60
###2023-12-09 12:26:46.713733$GNGGA,172645.90,4138.0379808,N,07032.4356978,W,1,17,0.8,8.037,M,-29.746,M,0.0,*62
###2023-12-09 12:26:46.917666$GNRMC,172646.10,A,4138.0379802,N,07032.4356983,W,0.04,,091223,,,A*4B
###2023-12-09 12:26:46.920820$GNGGA,172646.10,4138.0379802,N,07032.4356983,W,1,17,0.8,8.032,M,-29.746,M,0.0,*62
###2023-12-09 12:26:46.922693$GPGSA,A,3,03,16,26,28,29,31,32,,,,,,1.5,0.8,1.3*3E
###2023-12-09 12:26:46.924337$GLGSA,A,3,71,72,73,75,,,,,,,,,1.5,0.8,1.3*25
###2023-12-09 12:26:46.925841$GAGSA,A,3,21,27,,,,,,,,,,,1.5,0.8,1.3*2B
###2023-12-09 12:26:46.927484$GBGSA,A,3,14,25,26,33,,,,,,,,,1.5,0.8,1.3*28
###2023-12-09 12:26:46.929841$GPGSV,2,1,07,03,39,281,42,16,33,206,41,26,62,205,41,28,61,050,42*73
###2023-12-09 12:26:46.931929$GPGSV,2,2,07,29,24,078,41,31,73,346,40,32,34,132,47,,,,*4F
###2023-12-09 12:26:46.934296$GLGSV,1,1,04,71,61,167,48,72,62,315,45,73,52,031,49,75,19,238,42*62
###2023-12-09 12:26:46.936143$GAGSV,1,1,02,21,74,179,42,27,44,051,45,,,,,,,,*63
###2023-12-09 12:26:46.938693$GBGSV,1,1,04,14,59,200,46,25,30,250,38,26,38,056,48,33,64,263,38*60
###2023-12-09 12:26:46.940091$GNVTG,,T,,M,0.04,N,0.07,K,A*3E
###2023-12-09 12:26:46.941786$GNGST,172646.10,30.000,,,,0.230,0.220,0.540*55
###2023-12-09 12:26:46.943138$GNZDA,172646.10,09,12,2023,00,00*70
###2023-12-09 12:26:46.943821$GNEBP,,,,,,M*13
###2023-12-09 12:26:47.116200$GNGGA,172646.30,4138.0379781,N,07032.4356973,W,1,17,0.8,8.026,M,-29.746,M,0.0,*6E
###2023-12-09 12:26:47.317202$GNGGA,172646.50,4138.0379774,N,07032.4356974,W,1,17,0.8,8.018,M,-29.746,M,0.0,*68
###2023-12-09 12:26:47.516029$GNGGA,172646.70,4138.0379767,N,07032.4356965,W,1,17,0.8,8.015,M,-29.746,M,0.0,*65
###2023-12-09 12:26:47.715399$GNGGA,172646.90,4138.0379752,N,07032.4356956,W,1,17,0.8,8.007,M,-29.746,M,0.0,*6E
###2023-12-09 12:26:47.917796$GNRMC,172647.10,A,4138.0379734,N,07032.4356944,W,0.04,,091223,,,A*4B
###2023-12-09 12:26:47.920895$GNGGA,172647.10,4138.0379734,N,07032.4356944,W,1,17,0.8,8.009,M,-29.746,M,0.0,*6A
###2023-12-09 12:26:47.922917$GPGSA,A,3,03,16,26,28,29,31,32,,,,,,1.5,0.8,1.3*3E
###2023-12-09 12:26:47.924708$GLGSA,A,3,71,72,73,75,,,,,,,,,1.5,0.8,1.3*25
###2023-12-09 12:26:47.926339$GAGSA,A,3,21,27,,,,,,,,,,,1.5,0.8,1.3*2B
###2023-12-09 12:26:47.928123$GBGSA,A,3,14,25,26,33,,,,,,,,,1.5,0.8,1.3*28
###2023-12-09 12:26:47.931015$GPGSV,2,1,07,03,39,281,43,16,33,206,42,26,62,205,42,28,61,050,43*73
###2023-12-09 12:26:47.933272$GPGSV,2,2,07,29,24,078,42,31,73,346,41,32,34,132,47,,,,*4D
###2023-12-09 12:26:47.935807$GLGSV,1,1,04,71,61,167,48,72,62,315,45,73,52,031,48,75,19,238,42*63
###2023-12-09 12:26:47.937755$GAGSV,1,1,02,21,74,179,42,27,44,051,46,,,,,,,,*60
###2023-12-09 12:26:47.940283$GBGSV,1,1,04,14,59,200,46,25,30,250,38,26,38,056,49,33,64,263,38*61
###2023-12-09 12:26:47.941606$GNVTG,,T,,M,0.04,N,0.07,K,A*3E
###2023-12-09 12:26:47.943497$GNGST,172647.10,30.000,,,,0.230,0.220,0.540*54
###2023-12-09 12:26:47.945165$GNZDA,172647.10,09,12,2023,00,00*71
###2023-12-09 12:26:47.946000$GNEBP,,,,,,M*13
###2023-12-09 12:26:48.116861$GNGGA,172647.30,4138.0379732,N,07032.4356935,W,1,17,0.8,8.003,M,-29.746,M,0.0,*62
###2023-12-09 12:26:48.322899$GNGGA,172647.50,4138.0379729,N,07032.4356935,W,1,17,0.8,7.992,M,-29.746,M,0.0,*60
###2023-12-09 12:26:48.521642$GNGGA,172647.70,4138.0379722,N,07032.4356923,W,1,17,0.8,7.987,M,-29.746,M,0.0,*6A
###2023-12-09 12:26:48.716328$GNGGA,172647.90,4138.0379713,N,07032.4356915,W,1,17,0.8,7.982,M,-29.746,M,0.0,*66
###2023-12-09 12:26:48.917665$GNRMC,172648.10,A,4138.0379710,N,07032.4356913,W,0.04,,091223,,,A*40
###2023-12-09 12:26:48.920776$GNGGA,172648.10,4138.0379710,N,07032.4356913,W,1,17,0.8,7.973,M,-29.746,M,0.0,*6A
###2023-12-09 12:26:48.922799$GPGSA,A,3,03,16,26,28,29,31,32,,,,,,1.5,0.8,1.3*3E
###2023-12-09 12:26:48.924586$GLGSA,A,3,71,72,73,75,,,,,,,,,1.5,0.8,1.3*25
###2023-12-09 12:26:48.926224$GAGSA,A,3,21,27,,,,,,,,,,,1.5,0.8,1.3*2B
###2023-12-09 12:26:48.928014$GBGSA,A,3,14,25,26,33,,,,,,,,,1.5,0.8,1.3*28
###2023-12-09 12:26:48.930535$GPGSV,2,1,07,03,39,281,44,16,33,206,42,26,62,205,42,28,60,051,43*74
###2023-12-09 12:26:48.932783$GPGSV,2,2,07,29,24,078,42,31,73,346,41,32,34,132,48,,,,*42
###2023-12-09 12:26:48.935347$GLGSV,1,1,04,71,61,167,48,72,62,315,45,73,52,031,48,75,19,238,42*63
###2023-12-09 12:26:48.937301$GAGSV,1,1,02,21,74,179,42,27,44,051,46,,,,,,,,*60
###2023-12-09 12:26:48.939836$GBGSV,1,1,04,14,59,200,45,25,30,250,37,26,38,056,48,33,64,263,36*62
###2023-12-09 12:26:48.941164$GNVTG,,T,,M,0.04,N,0.07,K,A*3E
###2023-12-09 12:26:48.943005$GNGST,172648.10,29.000,,,,0.230,0.220,0.540*53
###2023-12-09 12:26:48.944481$GNZDA,172648.10,09,12,2023,00,00*7E
###2023-12-09 12:26:48.945486$GNEBP,,,,,,M*13
###2023-12-09 12:26:49.116100$GNGGA,172648.30,4138.0379696,N,07032.4356911,W,1,17,0.8,7.972,M,-29.746,M,0.0,*64
###2023-12-09 12:26:49.317278$GNGGA,172648.50,4138.0379694,N,07032.4356912,W,1,17,0.8,7.960,M,-29.746,M,0.0,*60
###2023-12-09 12:26:49.516011$GNGGA,172648.70,4138.0379680,N,07032.4356902,W,1,17,0.8,7.957,M,-29.746,M,0.0,*62
###2023-12-09 12:26:49.715470$GNGGA,172648.90,4138.0379680,N,07032.4356887,W,1,17,0.8,7.951,M,-29.746,M,0.0,*66
###2023-12-09 12:26:49.916483$GNRMC,172649.10,A,4138.0379670,N,07032.4356875,W,0.02,,091223,,,A*41
###2023-12-09 12:26:49.919552$GNGGA,172649.10,4138.0379670,N,07032.4356875,W,1,17,0.8,7.945,M,-29.746,M,0.0,*68
###2023-12-09 12:26:49.921386$GPGSA,A,3,03,16,26,28,29,31,32,,,,,,1.5,0.8,1.3*3E
###2023-12-09 12:26:49.923015$GLGSA,A,3,71,72,73,75,,,,,,,,,1.5,0.8,1.3*25
###2023-12-09 12:26:49.924484$GAGSA,A,3,21,27,,,,,,,,,,,1.5,0.8,1.3*2B
###2023-12-09 12:26:49.926076$GBGSA,A,3,14,25,26,33,,,,,,,,,1.5,0.8,1.3*28
###2023-12-09 12:26:49.928436$GPGSV,2,1,07,03,39,281,44,16,33,206,42,26,62,205,41,28,60,051,43*77
###2023-12-09 12:26:49.930496$GPGSV,2,2,07,29,24,078,40,31,73,346,41,32,34,132,47,,,,*4F
###2023-12-09 12:26:49.932848$GLGSV,1,1,04,71,61,167,47,72,62,315,45,73,52,031,48,75,19,238,42*6C
###2023-12-09 12:26:49.934653$GAGSV,1,1,02,21,74,179,42,27,44,051,46,,,,,,,,*60
###2023-12-09 12:26:49.937005$GBGSV,1,1,04,14,59,200,45,25,30,250,38,26,38,056,48,33,64,263,36*6D
###2023-12-09 12:26:49.938403$GNVTG,,T,,M,0.02,N,0.04,K,A*3B
###2023-12-09 12:26:49.940099$GNGST,172649.10,30.000,,,,0.230,0.220,0.540*5A
###2023-12-09 12:26:49.941418$GNZDA,172649.10,09,12,2023,00,00*7F
###2023-12-09 12:26:49.942078$GNEBP,,,,,,M*13
###2023-12-09 12:26:50.116352$GNGGA,172649.30,4138.0379663,N,07032.4356866,W,1,17,0.8,7.937,M,-29.746,M,0.0,*6F
###2023-12-09 12:26:50.317175$GNGGA,172649.50,4138.0379652,N,07032.4356853,W,1,17,0.8,7.935,M,-29.746,M,0.0,*6F
###2023-12-09 12:26:50.516382$GNGGA,172649.70,4138.0379654,N,07032.4356847,W,1,16,0.8,7.925,M,-29.746,M,0.0,*6E
###2023-12-09 12:26:50.715304$GNGGA,172649.90,4138.0379653,N,07032.4356852,W,1,16,0.8,7.922,M,-29.746,M,0.0,*64
###2023-12-09 12:26:50.918431$GNRMC,172650.10,A,4138.0379655,N,07032.4356854,W,0.06,,091223,,,A*49
