###2023-12-09 12:32:03.948747$GLGSV,2,2,05,75,20,239,36,,,,,,,,,,,,*5D
###2023-12-09 12:32:03.951140$GAGSV,1,1,04,04,20,311,41,19,80,306,41,21,76,177,47,27,42,050,42*6C
###2023-12-09 12:32:03.953495$GBGSV,2,1,05,14,56,198,46,24,81,339,49,25,32,252,40,26,36,057,46*64
###2023-12-09 12:32:03.954992$GBGSV,2,2,05,33,63,257,48,,,,,,,,,,,,*57
###2023-12-09 12:32:03.956333$GNVTG,320.35,T,,M,0.16,N,0.29,K,A*28
###2023-12-09 12:32:03.957983$GNGST,173203.10,19.000,,,,0.083,0.075,0.180*5A
###2023-12-09 12:32:03.959295$GNZDA,173203.10,09,12,2023,00,00*74
###2023-12-09 12:32:03.959942$GNEBP,,,,,,M*13
###2023-12-09 12:32:04.129372$GNGGA,173203.30,4138.0427691,N,07032.4262312,W,1,22,0.7,13.138,M,-29.745,M,0.0,*53
###2023-12-09 12:32:04.329941$GNGGA,173203.50,4138.0427838,N,07032.4262413,W,1,22,0.7,13.133,M,-29.745,M,0.0,*55
###2023-12-09 12:32:04.532966$GNGGA,173203.70,4138.0427950,N,07032.4262451,W,1,22,0.7,13.134,M,-29.745,M,0.0,*59
###2023-12-09 12:32:04.729391$GNGGA,173203.90,4138.0427985,N,07032.4262454,W,1,22,0.7,13.127,M,-29.745,M,0.0,*58
###2023-12-09 12:32:04.931880$GNRMC,173204.10,A,4138.0428030,N,07032.4262498,W,0.23,320.35,091223,,,A*5F
###2023-12-09 12:32:04.935680$GNGGA,173204.10,4138.0428030,N,07032.4262498,W,1,21,0.7,13.109,M,-29.745,M,0.0,*50
###2023-12-09 12:32:04.938193$GPGSA,A,3,03,04,16,26,28,29,31,32,,,,,1.3,0.7,1.1*31
###2023-12-09 12:32:04.940364$GLGSA,A,3,71,72,73,74,,,,,,,,,1.3,0.7,1.1*2F
###2023-12-09 12:32:04.942510$GAGSA,A,3,04,19,21,27,,,,,,,,,1.3,0.7,1.1*2C
###2023-12-09 12:32:04.944747$GBGSA,A,3,14,24,25,26,33,,,,,,,,1.3,0.7,1.1*25
###2023-12-09 12:32:04.947843$GPGSV,2,1,08,03,39,279,44,04,20,310,43,16,35,207,43,26,65,206,49*79
###2023-12-09 12:32:04.951021$GPGSV,2,2,08,28,59,054,45,29,25,075,40,31,73,356,47,32,31,133,45*7B
###2023-12-09 12:32:04.954012$GLGSV,1,1,04,71,59,168,47,72,64,313,46,73,50,032,45,74,70,284,43*6F
###2023-12-09 12:32:04.957003$GAGSV,1,1,04,04,20,311,41,19,80,306,41,21,76,177,46,27,42,050,43*6C
###2023-12-09 12:32:04.960015$GBGSV,2,1,05,14,56,198,46,24,81,339,49,25,32,252,40,26,36,057,46*64
###2023-12-09 12:32:04.961930$GBGSV,2,2,05,33,63,257,48,,,,,,,,,,,,*57
###2023-12-09 12:32:04.963676$GNVTG,320.35,T,,M,0.23,N,0.43,K,A*22
###2023-12-09 12:32:04.965803$GNGST,173204.10,19.000,,,,0.083,0.075,0.170*52
###2023-12-09 12:32:04.967520$GNZDA,173204.10,09,12,2023,00,00*73
###2023-12-09 12:32:04.968432$GNEBP,,,,,,M*13
###2023-12-09 12:32:05.129611$GNGGA,173204.30,4138.0428195,N,07032.4262621,W,1,21,0.7,13.096,M,-29.745,M,0.0,*5B
###2023-12-09 12:32:05.331062$GNGGA,173204.50,4138.0428392,N,07032.4262770,W,1,21,0.7,13.094,M,-29.745,M,0.0,*5F
###2023-12-09 12:32:05.529329$GNGGA,173204.70,4138.0428484,N,07032.4262796,W,1,21,0.7,13.093,M,-29.745,M,0.0,*52
###2023-12-09 12:32:05.727468$GNGGA,173204.90,4138.0428458,N,07032.4262742,W,1,21,0.7,13.081,M,-29.745,M,0.0,*57
###2023-12-09 12:32:05.929184$GNRMC,173205.10,A,4138.0428538,N,07032.4262819,W,0.41,320.35,091223,,,A*52
###2023-12-09 12:32:05.932100$GNGGA,173205.10,4138.0428538,N,07032.4262819,W,1,21,0.7,13.067,M,-29.745,M,0.0,*50
###2023-12-09 12:32:05.933985$GPGSA,A,3,03,04,16,26,28,29,31,32,,,,,1.3,0.7,1.1*31
###2023-12-09 12:32:05.935623$GLGSA,A,3,71,72,73,74,,,,,,,,,1.3,0.7,1.1*2F
###2023-12-09 12:32:05.937238$GAGSA,A,3,04,19,21,27,,,,,,,,,1.3,0.7,1.1*2C
###2023-12-09 12:32:05.938924$GBGSA,A,3,14,24,25,26,33,,,,,,,,1.3,0.7,1.1*25
###2023-12-09 12:32:05.941280$GPGSV,2,1,08,03,39,279,44,04,20,310,41,16,35,207,45,26,65,206,48*7C
###2023-12-09 12:32:05.943663$GPGSV,2,2,08,28,59,054,44,29,25,075,40,31,73,356,46,32,31,133,45*7B
###2023-12-09 12:32:05.946032$GLGSV,1,1,04,71,58,169,47,72,64,313,46,73,50,032,45,74,70,284,43*6F
###2023-12-09 12:32:05.948739$GAGSV,1,1,04,04,20,311,39,19,80,306,40,21,76,177,45,27,42,050,41*63
###2023-12-09 12:32:05.951141$GBGSV,2,1,05,14,56,198,46,24,81,339,48,25,32,252,40,26,36,057,46*65
###2023-12-09 12:32:05.952633$GBGSV,2,2,05,33,63,257,48,,,,,,,,,,,,*57
###2023-12-09 12:32:05.953982$GNVTG,320.35,T,,M,0.41,N,0.76,K,A*20
###2023-12-09 12:32:05.955665$GNGST,173205.10,19.000,,,,0.083,0.074,0.170*52
###2023-12-09 12:32:05.956977$GNZDA,173205.10,09,12,2023,00,00*72
###2023-12-09 12:32:05.957632$GNEBP,,,,,,M*13
###2023-12-09 12:32:06.129992$GNGGA,173205.30,4138.0428784,N,07032.4263067,W,1,21,0.7,13.063,M,-29.745,M,0.0,*53
###2023-12-09 12:32:06.329735$GNGGA,173205.50,4138.0428994,N,07032.4263236,W,1,21,0.7,13.062,M,-29.745,M,0.0,*5D
###2023-12-09 12:32:06.529192$GNGGA,173205.70,4138.0428996,N,07032.4263202,W,1,21,0.7,13.059,M,-29.745,M,0.0,*52
###2023-12-09 12:32:06.728338$GNGGA,173205.90,4138.0428951,N,07032.4263158,W,1,21,0.7,13.050,M,-29.745,M,0.0,*52
###2023-12-09 12:32:06.931371$GNRMC,173206.10,A,4138.0429162,N,07032.4263337,W,0.78,320.35,091223,,,A*57
###2023-12-09 12:32:06.934253$GNGGA,173206.10,4138.0429162,N,07032.4263337,W,1,21,0.7,13.047,M,-29.745,M,0.0,*5D
###2023-12-09 12:32:06.936155$GPGSA,A,3,03,04,16,26,28,29,31,32,,,,,1.3,0.7,1.1*31
###2023-12-09 12:32:06.937763$GLGSA,A,3,71,72,73,74,,,,,,,,,1.3,0.7,1.1*2F
###2023-12-09 12:32:06.939380$GAGSA,A,3,04,19,21,27,,,,,,,,,1.3,0.7,1.1*2C
###2023-12-09 12:32:06.941043$GBGSA,A,3,14,24,25,26,33,,,,,,,,1.3,0.7,1.1*25
###2023-12-09 12:32:06.943400$GPGSV,2,1,08,03,39,279,43,04,20,310,41,16,35,207,45,26,65,206,48*7B
###2023-12-09 12:32:06.945740$GPGSV,2,2,08,28,59,054,44,29,25,075,41,31,73,356,47,32,31,133,45*7B
###2023-12-09 12:32:06.948133$GLGSV,1,1,04,71,58,169,48,72,65,311,47,73,50,032,47,74,70,284,43*60
###2023-12-09 12:32:06.950509$GAGSV,1,1,04,04,20,311,40,19,80,306,41,21,76,177,47,27,42,050,42*6D
###2023-12-09 12:32:06.952884$GBGSV,2,1,05,14,56,198,45,24,81,339,49,25,32,252,38,26,36,057,46*68
###2023-12-09 12:32:06.954349$GBGSV,2,2,05,33,63,257,49,,,,,,,,,,,,*56
###2023-12-09 12:32:06.955699$GNVTG,320.35,T,,M,0.78,N,1.44,K,A*2A
###2023-12-09 12:32:06.957365$GNGST,173206.10,19.000,,,,0.083,0.074,0.170*51
###2023-12-09 12:32:06.958687$GNZDA,173206.10,09,12,2023,00,00*71
###2023-12-09 12:32:06.959341$GNEBP,,,,,,M*13
###2023-12-09 12:32:07.128012$GNGGA,173206.30,4138.0429479,N,07032.4263674,W,1,21,0.7,13.039,M,-29.745,M,0.0,*5B
###2023-12-09 12:32:07.329165$GNGGA,173206.50,4138.0429614,N,07032.4263794,W,1,21,0.7,13.040,M,-29.745,M,0.0,*55
###2023-12-09 12:32:07.539595$GNGGA,173206.70,4138.0429588,N,07032.4263713,W,1,21,0.7,13.046,M,-29.745,M,0.0,*58
###2023-12-09 12:32:07.731966$GNGGA,173206.90,4138.0429684,N,07032.4263758,W,1,21,0.7,13.039,M,-29.745,M,0.0,*5E
###2023-12-09 12:32:07.931308$GNRMC,173207.10,A,4138.0429967,N,07032.4264068,W,0.78,320.35,091223,,,A*55
###2023-12-09 12:32:07.934201$GNGGA,173207.10,4138.0429967,N,07032.4264068,W,1,21,0.7,13.028,M,-29.745,M,0.0,*56
###2023-12-09 12:32:07.936102$GPGSA,A,3,03,04,16,26,28,29,31,32,,,,,1.3,0.7,1.1*31
###2023-12-09 12:32:07.937712$GLGSA,A,3,71,72,73,74,,,,,,,,,1.3,0.7,1.1*2F
###2023-12-09 12:32:07.939330$GAGSA,A,3,04,19,21,27,,,,,,,,,1.3,0.7,1.1*2C
###2023-12-09 12:32:07.940997$GBGSA,A,3,14,24,25,26,33,,,,,,,,1.3,0.7,1.1*25
###2023-12-09 12:32:07.943363$GPGSV,2,1,08,03,39,279,43,04,20,310,42,16,35,207,45,26,65,206,48*78
###2023-12-09 12:32:07.945726$GPGSV,2,2,08,28,59,054,44,29,25,075,40,31,73,356,45,32,31,133,44*79
###2023-12-09 12:32:07.948114$GLGSV,1,1,04,71,58,169,48,72,65,311,47,73,49,033,46,74,70,284,43*68
###2023-12-09 12:32:07.950476$GAGSV,1,1,04,04,20,311,42,19,80,306,41,21,76,177,45,27,42,050,42*6D
###2023-12-09 12:32:07.952847$GBGSV,2,1,05,14,56,198,44,24,81,339,49,25,32,252,39,26,36,057,45*6B
###2023-12-09 12:32:07.954314$GBGSV,2,2,05,33,63,257,48,,,,,,,,,,,,*57
###2023-12-09 12:32:07.955664$GNVTG,320.35,T,,M,0.78,N,1.44,K,A*2A
###2023-12-09 12:32:07.957323$GNGST,173207.10,20.000,,,,0.083,0.074,0.170*5A
###2023-12-09 12:32:07.958645$GNZDA,173207.10,09,12,2023,00,00*70
###2023-12-09 12:32:07.959299$GNEBP,,,,,,M*13
###2023-12-09 12:32:08.129964$GNGGA,173207.30,4138.0430256,N,07032.4264422,W,1,21,0.7,13.021,M,-29.745,M,0.0,*56
###2023-12-09 12:32:08.330065$GNGGA,173207.50,4138.0430369,N,07032.4264482,W,1,21,0.7,13.021,M,-29.745,M,0.0,*57
###2023-12-09 12:32:08.529840$GNGGA,173207.70,4138.0430377,N,07032.4264379,W,1,21,0.7,13.020,M,-29.745,M,0.0,*58
###2023-12-09 12:32:08.728953$GNGGA,173207.90,4138.0430517,N,07032.4264491,W,1,21,0.7,13.018,M,-29.745,M,0.0,*5C
###2023-12-09 12:32:08.933656$GNRMC,173208.10,A,4138.0430830,N,07032.4264880,W,0.95,320.35,091223,,,A*5C
###2023-12-09 12:32:08.937448$GNGGA,173208.10,4138.0430830,N,07032.4264880,W,1,21,0.7,13.012,M,-29.745,M,0.0,*55
###2023-12-09 12:32:08.939978$GPGSA,A,3,03,04,16,26,28,29,31,32,,,,,1.3,0.7,1.1*31
###2023-12-09 12:32:08.942057$GLGSA,A,3,71,72,73,74,,,,,,,,,1.3,0.7,1.1*2F
###2023-12-09 12:32:08.944434$GAGSA,A,3,04,19,21,27,,,,,,,,,1.3,0.7,1.1*2C
###2023-12-09 12:32:08.946724$GBGSA,A,3,14,24,25,26,33,,,,,,,,1.3,0.7,1.1*25
###2023-12-09 12:32:08.949837$GPGSV,2,1,08,03,39,279,43,04,20,310,43,16,35,207,45,26,65,206,47*76
###2023-12-09 12:32:08.952920$GPGSV,2,2,08,28,59,054,44,29,25,075,40,31,73,356,46,32,31,133,43*7D
