###2023-12-09 13:36:10.023147$GBGSV,2,1,07,12,15,126,40,14,29,190,41,24,62,046,47,25,51,276,46*6B
###2023-12-09 13:36:10.025210$GBGSV,2,2,07,26,16,071,42,33,45,217,45,35,16,056,42,,,,*5F
###2023-12-09 13:36:10.026509$GNVTG,16.80,T,,M,2.72,N,5.04,K,A*1A
###2023-12-09 13:36:10.028128$GNGST,183609.10,5.300,,,,0.086,0.067,0.150*6E
###2023-12-09 13:36:10.029414$GNZDA,183609.10,09,12,2023,00,00*75
###2023-12-09 13:36:10.030050$GNEBP,,,,,,M*13
###2023-12-09 13:36:10.195818$GNGGA,183609.30,4138.0532926,N,07032.4166234,W,1,26,0.6,13.201,M,-29.745,M,0.0,*5A
###2023-12-09 13:36:10.395673$GNGGA,183609.50,4138.0534426,N,07032.4165869,W,1,26,0.6,13.200,M,-29.745,M,0.0,*57
###2023-12-09 13:36:10.593673$GNGGA,183609.70,4138.0535791,N,07032.4165059,W,1,26,0.6,13.196,M,-29.745,M,0.0,*5C
###2023-12-09 13:36:10.795771$GNGGA,183609.90,4138.0536949,N,07032.4163788,W,1,26,0.6,13.177,M,-29.745,M,0.0,*58
###2023-12-09 13:36:10.997791$GNRMC,183610.10,A,4138.0538131,N,07032.4162896,W,2.60,17.04,091223,,,A*60
###2023-12-09 13:36:11.000658$GNGGA,183610.10,4138.0538131,N,07032.4162896,W,1,26,0.6,13.195,M,-29.745,M,0.0,*5C
###2023-12-09 13:36:11.002515$GPGSA,A,3,03,04,16,26,27,28,29,31,,,,,1.0,0.6,0.8*3F
###2023-12-09 13:36:11.004231$GLGSA,A,3,65,71,72,73,74,75,,,,,,,1.0,0.6,0.8*24
###2023-12-09 13:36:11.005812$GAGSA,A,3,04,19,21,27,,,,,,,,,1.0,0.6,0.8*26
###2023-12-09 13:36:11.007591$GBGSA,A,3,12,14,24,25,26,33,35,,,,,,1.0,0.6,0.8*2A
###2023-12-09 13:36:11.009900$GPGSV,2,1,08,03,26,246,42,04,47,307,45,16,67,223,46,26,83,040,48*71
###2023-12-09 13:36:11.012231$GPGSV,2,2,08,27,17,172,42,28,37,085,42,29,20,046,41,31,59,067,46*76
###2023-12-09 13:36:11.014544$GLGSV,2,1,06,65,39,318,42,71,22,175,43,72,62,220,46,73,22,052,42*61
###2023-12-09 13:36:11.016294$GLGSV,2,2,06,74,59,015,41,75,44,272,46,,,,,,,,*6A
###2023-12-09 13:36:11.018626$GAGSV,1,1,04,04,40,310,44,19,71,181,41,21,76,045,45,27,22,050,39*65
###2023-12-09 13:36:11.020947$GBGSV,2,1,07,12,15,126,42,14,29,190,41,24,62,046,47,25,51,276,47*68
###2023-12-09 13:36:11.022981$GBGSV,2,2,07,26,16,071,42,33,45,217,47,35,16,056,42,,,,*5D
###2023-12-09 13:36:11.024270$GNVTG,17.04,T,,M,2.60,N,4.82,K,A*1B
###2023-12-09 13:36:11.025873$GNGST,183610.10,5.200,,,,0.087,0.067,0.150*66
###2023-12-09 13:36:11.027167$GNZDA,183610.10,09,12,2023,00,00*7D
###2023-12-09 13:36:11.027803$GNEBP,,,,,,M*13
###2023-12-09 13:36:11.202958$GNGGA,183610.30,4138.0539650,N,07032.4162446,W,1,26,0.6,13.219,M,-29.745,M,0.0,*59
###2023-12-09 13:36:11.399394$GNGGA,183610.50,4138.0540959,N,07032.4161527,W,1,25,0.6,13.205,M,-29.745,M,0.0,*5C
###2023-12-09 13:36:11.593316$GNGGA,183610.70,4138.0541842,N,07032.4160043,W,1,26,0.6,13.198,M,-29.745,M,0.0,*56
###2023-12-09 13:36:11.795005$GNGGA,183610.90,4138.0542663,N,07032.4158635,W,1,26,0.6,13.194,M,-29.745,M,0.0,*56
###2023-12-09 13:36:11.996346$GNRMC,183611.10,A,4138.0543790,N,07032.4157592,W,2.57,26.97,091223,,,A*63
###2023-12-09 13:36:11.999224$GNGGA,183611.10,4138.0543790,N,07032.4157592,W,1,26,0.6,13.217,M,-29.745,M,0.0,*5A
###2023-12-09 13:36:12.001080$GPGSA,A,3,03,04,16,26,27,28,29,31,,,,,1.0,0.6,0.8*3F
###2023-12-09 13:36:12.002835$GLGSA,A,3,65,71,72,73,74,75,,,,,,,1.0,0.6,0.8*24
###2023-12-09 13:36:12.004417$GAGSA,A,3,04,19,21,27,,,,,,,,,1.0,0.6,0.8*26
###2023-12-09 13:36:12.006187$GBGSA,A,3,12,14,24,25,26,33,35,,,,,,1.0,0.6,0.8*2A
###2023-12-09 13:36:12.008505$GPGSV,2,1,08,03,26,246,40,04,47,307,44,16,67,223,47,26,83,040,48*73
###2023-12-09 13:36:12.010837$GPGSV,2,2,08,27,17,172,40,28,37,085,41,29,20,046,37,31,59,067,45*75
###2023-12-09 13:36:12.013156$GLGSV,2,1,06,65,39,318,43,71,22,175,45,72,62,220,46,73,22,052,37*64
###2023-12-09 13:36:12.014904$GLGSV,2,2,06,74,59,015,41,75,44,272,47,,,,,,,,*6B
###2023-12-09 13:36:12.017221$GAGSV,1,1,04,04,40,310,44,19,71,181,41,21,76,045,45,27,22,050,37*6B
###2023-12-09 13:36:12.019552$GBGSV,2,1,07,12,15,126,41,14,29,190,42,24,62,046,48,25,51,276,47*67
###2023-12-09 13:36:12.021592$GBGSV,2,2,07,26,16,071,42,33,45,217,48,35,16,056,41,,,,*51
###2023-12-09 13:36:12.022895$GNVTG,26.97,T,,M,2.57,N,4.75,K,A*1F
###2023-12-09 13:36:12.024504$GNGST,183611.10,5.800,,,,0.088,0.067,0.150*62
###2023-12-09 13:36:12.025788$GNZDA,183611.10,09,12,2023,00,00*7C
###2023-12-09 13:36:12.026423$GNEBP,,,,,,M*13
###2023-12-09 13:36:12.195367$GNGGA,183611.30,4138.0545002,N,07032.4156502,W,1,26,0.6,13.218,M,-29.745,M,0.0,*55
###2023-12-09 13:36:12.393016$GNGGA,183611.50,4138.0545750,N,07032.4154999,W,1,26,0.6,13.207,M,-29.745,M,0.0,*51
###2023-12-09 13:36:12.594008$GNGGA,183611.70,4138.0546161,N,07032.4153385,W,1,26,0.6,13.211,M,-29.745,M,0.0,*53
###2023-12-09 13:36:12.794254$GNGGA,183611.90,4138.0546785,N,07032.4151928,W,1,26,0.6,13.224,M,-29.745,M,0.0,*58
###2023-12-09 13:36:12.996186$GNRMC,183612.10,A,4138.0547669,N,07032.4150527,W,2.47,52.65,091223,,,A*65
###2023-12-09 13:36:12.999054$GNGGA,183612.10,4138.0547669,N,07032.4150527,W,1,26,0.6,13.224,M,-29.745,M,0.0,*53
###2023-12-09 13:36:13.000901$GPGSA,A,3,03,04,16,26,27,28,29,31,,,,,1.0,0.6,0.9*3E
###2023-12-09 13:36:13.002622$GLGSA,A,3,65,71,72,73,74,75,,,,,,,1.0,0.6,0.9*25
###2023-12-09 13:36:13.004206$GAGSA,A,3,04,19,21,27,,,,,,,,,1.0,0.6,0.9*27
###2023-12-09 13:36:13.005971$GBGSA,A,3,12,14,24,25,26,33,35,,,,,,1.0,0.6,0.9*2B
###2023-12-09 13:36:13.008297$GPGSV,2,1,08,03,26,246,42,04,47,307,44,16,67,223,47,26,83,040,47*7E
###2023-12-09 13:36:13.010643$GPGSV,2,2,08,27,17,172,40,28,37,085,42,29,20,046,41,31,59,067,45*77
###2023-12-09 13:36:13.012970$GLGSV,2,1,06,65,39,318,43,71,22,175,44,72,62,220,46,73,22,052,42*67
###2023-12-09 13:36:13.014729$GLGSV,2,2,06,74,59,015,41,75,44,272,47,,,,,,,,*6B
###2023-12-09 13:36:13.017039$GAGSV,1,1,04,04,40,310,42,19,71,181,41,21,76,045,45,27,22,050,39*63
###2023-12-09 13:36:13.019374$GBGSV,2,1,07,12,15,126,40,14,29,190,42,24,62,046,47,25,51,276,46*68
###2023-12-09 13:36:13.021408$GBGSV,2,2,07,26,16,071,41,33,45,217,47,35,16,056,41,,,,*5D
###2023-12-09 13:36:13.022708$GNVTG,52.65,T,,M,2.47,N,4.57,K,A*10
###2023-12-09 13:36:13.024310$GNGST,183612.10,5.500,,,,0.088,0.067,0.150*6C
###2023-12-09 13:36:13.025587$GNZDA,183612.10,09,12,2023,00,00*7F
###2023-12-09 13:36:13.026259$GNEBP,,,,,,M*13
###2023-12-09 13:36:13.196676$GNGGA,183612.30,4138.0548258,N,07032.4148980,W,1,26,0.6,13.210,M,-29.745,M,0.0,*57
###2023-12-09 13:36:13.393283$GNGGA,183612.50,4138.0548509,N,07032.4147374,W,1,26,0.6,13.216,M,-29.745,M,0.0,*5A
###2023-12-09 13:36:13.592987$GNGGA,183612.70,4138.0548723,N,07032.4145785,W,1,26,0.6,13.224,M,-29.745,M,0.0,*5B
###2023-12-09 13:36:13.794646$GNGGA,183612.90,4138.0549034,N,07032.4144201,W,1,26,0.6,13.221,M,-29.745,M,0.0,*58
###2023-12-09 13:36:13.997781$GNRMC,183613.10,A,4138.0549349,N,07032.4142580,W,2.18,75.99,091223,,,A*6F
###2023-12-09 13:36:14.000776$GNGGA,183613.10,4138.0549349,N,07032.4142580,W,1,27,0.6,13.218,M,-29.745,M,0.0,*5B
###2023-12-09 13:36:14.002654$GPGSA,A,3,03,04,16,26,27,28,29,31,,,,,1.0,0.6,0.8*3F
###2023-12-09 13:36:14.004431$GLGSA,A,3,65,71,72,73,74,75,83,,,,,,1.0,0.6,0.8*2F
###2023-12-09 13:36:14.006018$GAGSA,A,3,04,19,21,27,,,,,,,,,1.0,0.6,0.8*26
###2023-12-09 13:36:14.007812$GBGSA,A,3,12,14,24,25,26,33,35,,,,,,1.0,0.6,0.8*2A
###2023-12-09 13:36:14.010141$GPGSV,2,1,08,03,26,246,40,04,47,307,45,16,67,223,46,26,83,040,47*7C
###2023-12-09 13:36:14.012491$GPGSV,2,2,08,27,17,172,40,28,37,085,41,29,20,046,43,31,59,067,45*76
###2023-12-09 13:36:14.014840$GLGSV,2,1,07,65,39,318,43,71,22,175,45,72,62,220,47,73,22,052,42*66
###2023-12-09 13:36:14.016887$GLGSV,2,2,07,74,59,015,42,75,44,272,47,83,15,047,36,,,,*50
###2023-12-09 13:36:14.019237$GAGSV,1,1,04,04,40,310,43,19,71,181,41,21,76,045,45,27,22,050,41*6D
###2023-12-09 13:36:14.021580$GBGSV,2,1,07,12,15,126,40,14,29,190,42,24,62,046,47,25,51,276,48*66
###2023-12-09 13:36:14.023637$GBGSV,2,2,07,26,16,071,42,33,45,217,47,35,16,056,44,,,,*5B
###2023-12-09 13:36:14.024937$GNVTG,75.99,T,,M,2.18,N,4.03,K,A*1D
###2023-12-09 13:36:14.026560$GNGST,183613.10,6.100,,,,0.088,0.068,0.150*65
###2023-12-09 13:36:14.027864$GNZDA,183613.10,09,12,2023,00,00*7E
###2023-12-09 13:36:14.028504$GNEBP,,,,,,M*13
###2023-12-09 13:36:14.193331$GNGGA,183613.30,4138.0549549,N,07032.4141017,W,1,27,0.6,13.217,M,-29.745,M,0.0,*58
###2023-12-09 13:36:14.394046$GNGGA,183613.50,4138.0549469,N,07032.4139453,W,1,27,0.6,13.225,M,-29.745,M,0.0,*57
###2023-12-09 13:36:14.594215$GNGGA,183613.70,4138.0549247,N,07032.4137926,W,1,27,0.6,13.227,M,-29.745,M,0.0,*5C
###2023-12-09 13:36:14.794899$GNGGA,183613.90,4138.0549180,N,07032.4136439,W,1,27,0.6,13.225,M,-29.745,M,0.0,*5A
###2023-12-09 13:36:15.002508$GNRMC,183614.10,A,4138.0549113,N,07032.4134861,W,2.25,98.66,091223,,,A*6B
###2023-12-09 13:36:15.005391$GNGGA,183614.10,4138.0549113,N,07032.4134861,W,1,27,0.6,13.233,M,-29.745,M,0.0,*5B
###2023-12-09 13:36:15.007255$GPGSA,A,3,03,04,16,26,27,28,29,31,,,,,1.0,0.6,0.8*3F
###2023-12-09 13:36:15.009034$GLGSA,A,3,65,71,72,73,74,75,83,,,,,,1.0,0.6,0.8*2F
###2023-12-09 13:36:15.010663$GAGSA,A,3,04,19,21,27,,,,,,,,,1.0,0.6,0.8*26
###2023-12-09 13:36:15.012443$GBGSA,A,3,12,14,24,25,26,33,35,,,,,,1.0,0.6,0.8*2A
