###2023-12-09 13:01:09.989742$GBGSV,2,1,05,14,43,193,42,24,74,024,48,25,41,262,45,26,26,063,42*6B
###2023-12-09 13:01:09.991243$GBGSV,2,2,05,33,57,233,46,,,,,,,,,,,,*5C
###2023-12-09 13:01:09.992541$GNVTG,66.13,T,,M,3.54,N,6.55,K,A*15
###2023-12-09 13:01:09.994190$GNGST,180109.10,18.000,,,,0.079,0.067,0.160*56
###2023-12-09 13:01:09.995500$GNZDA,180109.10,09,12,2023,00,00*71
###2023-12-09 13:01:09.996141$GNEBP,,,,,,M*13
###2023-12-09 13:01:10.162833$GNGGA,180109.30,4138.0411532,N,07032.2663345,W,1,24,0.6,13.356,M,-29.743,M,0.0,*53
###2023-12-09 13:01:10.363762$GNGGA,180109.50,4138.0412104,N,07032.2660898,W,1,24,0.6,13.324,M,-29.743,M,0.0,*5A
###2023-12-09 13:01:10.562847$GNGGA,180109.70,4138.0413055,N,07032.2658562,W,1,24,0.6,13.325,M,-29.743,M,0.0,*5E
###2023-12-09 13:01:10.763110$GNGGA,180109.90,4138.0414049,N,07032.2656274,W,1,24,0.6,13.321,M,-29.743,M,0.0,*50
###2023-12-09 13:01:10.965556$GNRMC,180110.10,A,4138.0414638,N,07032.2653620,W,3.95,79.87,091223,,,A*6D
###2023-12-09 13:01:10.968456$GNGGA,180110.10,4138.0414638,N,07032.2653620,W,1,24,0.6,13.352,M,-29.743,M,0.0,*54
###2023-12-09 13:01:10.970320$GPGSA,A,3,03,04,16,26,28,29,31,32,,,,,1.1,0.6,0.9*3B
###2023-12-09 13:01:10.972046$GLGSA,A,3,65,71,72,73,74,75,,,,,,,1.1,0.6,0.9*24
###2023-12-09 13:01:10.973632$GAGSA,A,3,04,19,21,27,,,,,,,,,1.1,0.6,0.9*26
###2023-12-09 13:01:10.975298$GBGSA,A,3,14,24,25,26,33,,,,,,,,1.1,0.6,0.9*2F
###2023-12-09 13:01:10.977636$GPGSV,2,1,08,03,35,261,44,04,33,311,43,16,49,212,44,26,79,210,48*7C
###2023-12-09 13:01:10.979983$GPGSV,2,2,08,28,49,070,43,29,25,061,42,31,69,036,46,32,19,140,38*76
###2023-12-09 13:01:10.982312$GLGSV,2,1,06,65,24,327,45,71,41,173,45,72,73,269,46,73,36,041,44*6F
###2023-12-09 13:01:10.984072$GLGSV,2,2,06,74,70,337,42,75,32,253,46,,,,,,,,*63
###2023-12-09 13:01:10.986393$GAGSV,1,1,04,04,29,312,41,19,84,216,40,21,86,120,46,27,33,048,40*62
###2023-12-09 13:01:10.988734$GBGSV,2,1,05,14,43,193,42,24,74,024,48,25,41,262,45,26,26,063,43*6A
###2023-12-09 13:01:10.990187$GBGSV,2,2,05,33,57,233,46,,,,,,,,,,,,*5C
###2023-12-09 13:01:10.991490$GNVTG,79.87,T,,M,3.95,N,7.31,K,A*18
###2023-12-09 13:01:10.993140$GNGST,180110.10,18.000,,,,0.079,0.067,0.160*5E
###2023-12-09 13:01:10.994430$GNZDA,180110.10,09,12,2023,00,00*79
###2023-12-09 13:01:10.995080$GNEBP,,,,,,M*13
###2023-12-09 13:01:11.163018$GNGGA,180110.30,4138.0414894,N,07032.2650794,W,1,24,0.6,13.342,M,-29.743,M,0.0,*52
###2023-12-09 13:01:11.363837$GNGGA,180110.50,4138.0415599,N,07032.2648328,W,1,24,0.6,13.334,M,-29.743,M,0.0,*5E
###2023-12-09 13:01:11.563883$GNGGA,180110.70,4138.0416701,N,07032.2646087,W,1,24,0.6,13.345,M,-29.743,M,0.0,*52
###2023-12-09 13:01:11.769610$GNGGA,180110.90,4138.0417560,N,07032.2643689,W,1,24,0.6,13.313,M,-29.743,M,0.0,*56
###2023-12-09 13:01:11.966066$GNRMC,180111.10,A,4138.0418142,N,07032.2641153,W,3.48,71.68,091223,,,A*63
###2023-12-09 13:01:11.968966$GNGGA,180111.10,4138.0418142,N,07032.2641153,W,1,24,0.6,13.340,M,-29.743,M,0.0,*50
###2023-12-09 13:01:11.970861$GPGSA,A,3,03,04,16,26,28,29,31,32,,,,,1.1,0.6,0.9*3B
###2023-12-09 13:01:11.972578$GLGSA,A,3,65,71,72,73,74,75,,,,,,,1.1,0.6,0.9*24
###2023-12-09 13:01:11.974163$GAGSA,A,3,04,19,21,27,,,,,,,,,1.1,0.6,0.9*26
###2023-12-09 13:01:11.975825$GBGSA,A,3,14,24,25,26,33,,,,,,,,1.1,0.6,0.9*2F
###2023-12-09 13:01:11.978163$GPGSV,2,1,08,03,35,261,44,04,33,311,43,16,49,212,46,26,79,210,48*7E
###2023-12-09 13:01:11.980519$GPGSV,2,2,08,28,49,070,44,29,25,061,41,31,69,036,46,32,19,140,41*7C
###2023-12-09 13:01:11.982873$GLGSV,2,1,06,65,24,327,44,71,41,173,47,72,73,269,46,73,36,041,42*6A
###2023-12-09 13:01:11.984626$GLGSV,2,2,06,74,70,337,43,75,32,253,47,,,,,,,,*63
###2023-12-09 13:01:11.986959$GAGSV,1,1,04,04,29,312,41,19,84,216,40,21,86,120,46,27,33,048,40*62
###2023-12-09 13:01:11.989286$GBGSV,2,1,05,14,43,193,45,24,74,024,49,25,41,262,46,26,26,063,42*6E
###2023-12-09 13:01:11.990781$GBGSV,2,2,05,33,57,233,47,,,,,,,,,,,,*5D
###2023-12-09 13:01:11.992075$GNVTG,71.68,T,,M,3.48,N,6.44,K,A*12
###2023-12-09 13:01:11.993724$GNGST,180111.10,18.000,,,,0.079,0.067,0.160*5F
###2023-12-09 13:01:11.995029$GNZDA,180111.10,09,12,2023,00,00*78
###2023-12-09 13:01:11.995674$GNEBP,,,,,,M*13
###2023-12-09 13:01:12.163033$GNGGA,180111.30,4138.0419115,N,07032.2638926,W,1,24,0.6,13.407,M,-29.743,M,0.0,*51
###2023-12-09 13:01:12.364872$GNGGA,180111.50,4138.0420362,N,07032.2636690,W,1,24,0.6,13.413,M,-29.743,M,0.0,*56
###2023-12-09 13:01:12.563927$GNGGA,180111.70,4138.0421262,N,07032.2634224,W,1,24,0.6,13.344,M,-29.743,M,0.0,*58
###2023-12-09 13:01:12.765844$GNGGA,180111.90,4138.0422173,N,07032.2631983,W,1,24,0.6,13.348,M,-29.743,M,0.0,*59
###2023-12-09 13:01:12.968302$GNRMC,180112.10,A,4138.0423442,N,07032.2629981,W,3.65,51.49,091223,,,A*6A
###2023-12-09 13:01:12.971149$GNGGA,180112.10,4138.0423442,N,07032.2629981,W,1,24,0.6,13.402,M,-29.743,M,0.0,*56
###2023-12-09 13:01:12.972996$GPGSA,A,3,03,04,16,26,28,29,31,32,,,,,1.1,0.6,0.9*3B
###2023-12-09 13:01:12.974717$GLGSA,A,3,65,71,72,73,74,75,,,,,,,1.1,0.6,0.9*24
###2023-12-09 13:01:12.976298$GAGSA,A,3,04,19,21,27,,,,,,,,,1.1,0.6,0.9*26
###2023-12-09 13:01:12.977936$GBGSA,A,3,14,24,25,26,33,,,,,,,,1.1,0.6,0.9*2F
###2023-12-09 13:01:12.980273$GPGSV,2,1,08,03,35,261,45,04,33,311,45,16,49,212,46,26,79,210,48*79
###2023-12-09 13:01:12.982616$GPGSV,2,2,08,28,49,070,42,29,25,061,41,31,69,036,46,32,19,140,40*7B
###2023-12-09 13:01:12.984938$GLGSV,2,1,06,65,24,327,43,71,41,173,46,72,73,269,46,73,36,041,41*6F
###2023-12-09 13:01:12.986688$GLGSV,2,2,06,74,70,337,42,75,32,253,47,,,,,,,,*62
###2023-12-09 13:01:12.989007$GAGSV,1,1,04,04,29,312,43,19,84,216,40,21,86,120,46,27,33,048,40*60
###2023-12-09 13:01:12.991336$GBGSV,2,1,05,14,43,193,45,24,74,024,49,25,41,262,48,26,26,063,43*61
###2023-12-09 13:01:12.992784$GBGSV,2,2,05,33,57,233,49,,,,,,,,,,,,*53
###2023-12-09 13:01:12.994069$GNVTG,51.49,T,,M,3.65,N,6.77,K,A*1C
###2023-12-09 13:01:12.995721$GNGST,180112.10,18.000,,,,0.079,0.067,0.160*5C
###2023-12-09 13:01:12.997007$GNZDA,180112.10,09,12,2023,00,00*7B
###2023-12-09 13:01:12.997642$GNEBP,,,,,,M*13
###2023-12-09 13:01:13.163912$GNGGA,180112.30,4138.0424448,N,07032.2627672,W,1,24,0.6,13.423,M,-29.743,M,0.0,*57
###2023-12-09 13:01:13.364740$GNGGA,180112.50,4138.0425137,N,07032.2625240,W,1,24,0.6,13.398,M,-29.743,M,0.0,*5D
###2023-12-09 13:01:13.562687$GNGGA,180112.70,4138.0425930,N,07032.2622974,W,1,24,0.6,13.385,M,-29.743,M,0.0,*57
###2023-12-09 13:01:13.763967$GNGGA,180112.90,4138.0427071,N,07032.2620923,W,1,24,0.6,13.396,M,-29.743,M,0.0,*55
###2023-12-09 13:01:13.966306$GNRMC,180113.10,A,4138.0428052,N,07032.2618771,W,3.36,65.34,091223,,,A*6D
###2023-12-09 13:01:13.969212$GNGGA,180113.10,4138.0428052,N,07032.2618771,W,1,24,0.6,13.401,M,-29.743,M,0.0,*59
###2023-12-09 13:01:13.971105$GPGSA,A,3,03,04,16,26,28,29,31,32,,,,,1.1,0.6,0.9*3B
###2023-12-09 13:01:13.972820$GLGSA,A,3,65,71,72,73,74,75,,,,,,,1.1,0.6,0.9*24
###2023-12-09 13:01:13.974405$GAGSA,A,3,04,19,21,27,,,,,,,,,1.1,0.6,0.9*26
###2023-12-09 13:01:13.976064$GBGSA,A,3,14,24,25,26,33,,,,,,,,1.1,0.6,0.9*2F
###2023-12-09 13:01:13.978393$GPGSV,2,1,08,03,35,261,45,04,33,311,44,16,49,212,45,26,79,210,48*7B
###2023-12-09 13:01:13.980737$GPGSV,2,2,08,28,49,070,42,29,25,061,41,31,69,036,46,32,19,140,39*75
###2023-12-09 13:01:13.983085$GLGSV,2,1,06,65,24,327,44,71,41,173,45,72,73,269,46,73,36,041,42*68
###2023-12-09 13:01:13.984832$GLGSV,2,2,06,74,70,337,42,75,32,253,47,,,,,,,,*62
###2023-12-09 13:01:13.987164$GAGSV,1,1,04,04,29,312,43,19,84,216,41,21,86,120,46,27,33,048,41*60
###2023-12-09 13:01:13.989485$GBGSV,2,1,05,14,43,193,44,24,74,024,48,25,41,262,46,26,26,063,42*6E
###2023-12-09 13:01:13.990946$GBGSV,2,2,05,33,57,233,47,,,,,,,,,,,,*5D
###2023-12-09 13:01:13.992232$GNVTG,65.34,T,,M,3.36,N,6.23,K,A*16
###2023-12-09 13:01:13.993874$GNGST,180113.10,18.000,,,,0.079,0.067,0.160*5D
###2023-12-09 13:01:13.995175$GNZDA,180113.10,09,12,2023,00,00*7A
###2023-12-09 13:01:13.995814$GNEBP,,,,,,M*13
###2023-12-09 13:01:14.162996$GNGGA,180113.30,4138.0428679,N,07032.2616396,W,1,24,0.6,13.434,M,-29.743,M,0.0,*51
###2023-12-09 13:01:14.363567$GNGGA,180113.50,4138.0429275,N,07032.2614001,W,1,24,0.6,13.441,M,-29.743,M,0.0,*53
###2023-12-09 13:01:14.564955$GNGGA,180113.70,4138.0430178,N,07032.2611800,W,1,24,0.6,13.419,M,-29.743,M,0.0,*56
###2023-12-09 13:01:14.764077$GNGGA,180113.90,4138.0431251,N,07032.2609714,W,1,24,0.6,13.410,M,-29.743,M,0.0,*5B
###2023-12-09 13:01:14.965816$GNRMC,180114.10,A,4138.0432159,N,07032.2607523,W,3.36,64.34,091223,,,A*61
###2023-12-09 13:01:14.968716$GNGGA,180114.10,4138.0432159,N,07032.2607523,W,1,24,0.6,13.429,M,-29.743,M,0.0,*5E
###2023-12-09 13:01:14.970590$GPGSA,A,3,03,04,16,26,28,29,31,32,,,,,1.1,0.6,0.9*3B
###2023-12-09 13:01:14.972306$GLGSA,A,3,65,71,72,73,74,75,,,,,,,1.1,0.6,0.9*24
###2023-12-09 13:01:14.973885$GAGSA,A,3,04,19,21,27,,,,,,,,,1.1,0.6,0.9*26
###2023-12-09 13:01:14.975535$GBGSA,A,3,14,24,25,26,33,,,,,,,,1.1,0.6,0.9*2F
