###2023-12-09 13:46:28.012109$GNGGA,184627.10,4138.0395126,N,07032.4387613,W,1,19,0.7,15.555,M,-29.746,M,0.0,*52
###2023-12-09 13:46:28.013850$GPGSA,A,3,04,16,26,28,29,31,,,,,,,1.3,0.7,1.1*33
###2023-12-09 13:46:28.015513$GLGSA,A,3,65,72,73,75,83,,,,,,,,1.3,0.7,1.1*20
###2023-12-09 13:46:28.017030$GAGSA,A,3,04,21,27,,,,,,,,,,1.3,0.7,1.1*24
###2023-12-09 13:46:28.018685$GBGSA,A,3,12,24,25,33,35,,,,,,,,1.3,0.7,1.1*21
###2023-12-09 13:46:28.021001$GPGSV,2,1,06,04,51,304,46,16,72,228,42,26,78,041,40,28,34,089,46*71
###2023-12-09 13:46:28.022763$GPGSV,2,2,06,29,18,043,42,31,56,073,50,,,,,,,,*7C
###2023-12-09 13:46:28.025078$GLGSV,2,1,05,65,42,313,44,72,57,214,39,73,18,056,40,75,47,279,45*6B
###2023-12-09 13:46:28.026522$GLGSV,2,2,05,83,16,042,36,,,,,,,,,,,,*5F
###2023-12-09 13:46:28.028560$GAGSV,1,1,03,04,43,308,45,21,72,043,40,27,19,051,43,,,,*59
###2023-12-09 13:46:28.030901$GBGSV,2,1,05,12,19,122,42,24,59,051,48,25,54,281,41,33,41,214,38*62
###2023-12-09 13:46:28.032349$GBGSV,2,2,05,35,16,052,36,,,,,,,,,,,,*5D
###2023-12-09 13:46:28.033666$GNVTG,243.17,T,,M,0.02,N,0.04,K,A*26
###2023-12-09 13:46:28.035288$GNGST,184627.10,6.700,,,,0.190,0.120,0.310*60
###2023-12-09 13:46:28.036571$GNZDA,184627.10,09,12,2023,00,00*7E
###2023-12-09 13:46:28.037204$GNEBP,,,,,,M*13
###2023-12-09 13:46:28.206297$GNGGA,184627.30,4138.0395123,N,07032.4387583,W,1,19,0.7,15.559,M,-29.746,M,0.0,*53
###2023-12-09 13:46:28.407124$GNGGA,184627.50,4138.0395117,N,07032.4387562,W,1,20,0.7,15.560,M,-29.746,M,0.0,*5D
###2023-12-09 13:46:28.606350$GNGGA,184627.70,4138.0395106,N,07032.4387550,W,1,20,0.7,15.564,M,-29.746,M,0.0,*5A
###2023-12-09 13:46:28.806967$GNGGA,184627.90,4138.0395106,N,07032.4387538,W,1,20,0.7,15.566,M,-29.746,M,0.0,*58
###2023-12-09 13:46:29.009944$GNRMC,184628.10,A,4138.0395117,N,07032.4387514,W,0.02,243.17,091223,,,A*50
###2023-12-09 13:46:29.012823$GNGGA,184628.10,4138.0395117,N,07032.4387514,W,1,20,0.7,15.572,M,-29.746,M,0.0,*54
###2023-12-09 13:46:29.014549$GPGSA,A,3,04,16,26,28,29,31,,,,,,,1.3,0.7,1.1*33
###2023-12-09 13:46:29.016274$GLGSA,A,3,65,72,73,74,75,83,,,,,,,1.3,0.7,1.1*23
###2023-12-09 13:46:29.017788$GAGSA,A,3,04,21,27,,,,,,,,,,1.3,0.7,1.1*24
###2023-12-09 13:46:29.019441$GBGSA,A,3,12,24,25,33,35,,,,,,,,1.3,0.7,1.1*21
###2023-12-09 13:46:29.021756$GPGSV,2,1,06,04,51,304,46,16,72,228,42,26,78,041,39,28,34,089,47*7E
###2023-12-09 13:46:29.023499$GPGSV,2,2,06,29,18,043,42,31,56,073,50,,,,,,,,*7C
###2023-12-09 13:46:29.025811$GLGSV,2,1,06,65,42,313,44,72,57,214,39,73,18,056,39,74,56,022,35*6C
###2023-12-09 13:46:29.027559$GLGSV,2,2,06,75,47,279,45,83,16,042,36,,,,,,,,*60
###2023-12-09 13:46:29.029588$GAGSV,1,1,03,04,43,308,45,21,72,043,40,27,19,051,43,,,,*59
###2023-12-09 13:46:29.031905$GBGSV,2,1,05,12,19,122,42,24,58,052,48,25,54,281,41,33,41,214,38*60
###2023-12-09 13:46:29.033350$GBGSV,2,2,05,35,16,052,36,,,,,,,,,,,,*5D
###2023-12-09 13:46:29.034678$GNVTG,243.17,T,,M,0.02,N,0.04,K,A*26
###2023-12-09 13:46:29.036291$GNGST,184628.10,7.300,,,,0.190,0.120,0.310*6A
###2023-12-09 13:46:29.037580$GNZDA,184628.10,09,12,2023,00,00*71
###2023-12-09 13:46:29.038214$GNEBP,,,,,,M*13
###2023-12-09 13:46:29.207283$GNGGA,184628.30,4138.0395103,N,07032.4387510,W,1,19,0.7,15.572,M,-29.746,M,0.0,*5D
###2023-12-09 13:46:29.409579$GNGGA,184628.50,4138.0395111,N,07032.4387491,W,1,19,0.7,15.572,M,-29.746,M,0.0,*50
###2023-12-09 13:46:29.606585$GNGGA,184628.70,4138.0395107,N,07032.4387485,W,1,19,0.7,15.569,M,-29.746,M,0.0,*5A
###2023-12-09 13:46:29.805791$GNGGA,184628.90,4138.0395103,N,07032.4387473,W,1,19,0.7,15.568,M,-29.746,M,0.0,*58
###2023-12-09 13:46:30.011121$GNRMC,184629.10,A,4138.0395108,N,07032.4387452,W,0.02,243.17,091223,,,A*5C
###2023-12-09 13:46:30.013964$GNGGA,184629.10,4138.0395108,N,07032.4387452,W,1,19,0.7,15.574,M,-29.746,M,0.0,*54
###2023-12-09 13:46:30.015698$GPGSA,A,3,04,16,26,28,29,31,,,,,,,1.3,0.7,1.1*33
###2023-12-09 13:46:30.017347$GLGSA,A,3,65,72,73,75,83,,,,,,,,1.3,0.7,1.1*20
###2023-12-09 13:46:30.018875$GAGSA,A,3,04,21,27,,,,,,,,,,1.3,0.7,1.1*24
###2023-12-09 13:46:30.020513$GBGSA,A,3,12,24,25,33,35,,,,,,,,1.3,0.7,1.1*21
###2023-12-09 13:46:30.022839$GPGSV,2,1,06,04,51,304,46,16,72,228,42,26,78,041,39,28,34,089,46*7F
###2023-12-09 13:46:30.024575$GPGSV,2,2,06,29,18,043,42,31,56,073,50,,,,,,,,*7C
###2023-12-09 13:46:30.026897$GLGSV,2,1,05,65,42,313,45,72,57,214,39,73,18,056,39,75,47,279,46*67
###2023-12-09 13:46:30.028343$GLGSV,2,2,05,83,16,042,36,,,,,,,,,,,,*5F
###2023-12-09 13:46:30.030369$GAGSV,1,1,03,04,43,308,45,21,72,043,40,27,19,051,43,,,,*59
###2023-12-09 13:46:30.032692$GBGSV,2,1,05,12,19,122,42,24,58,052,48,25,54,282,41,33,41,214,38*63
###2023-12-09 13:46:30.034139$GBGSV,2,2,05,35,16,052,35,,,,,,,,,,,,*5E
###2023-12-09 13:46:30.035470$GNVTG,243.17,T,,M,0.02,N,0.04,K,A*26
###2023-12-09 13:46:30.037079$GNGST,184629.10,7.200,,,,0.190,0.120,0.310*6A
###2023-12-09 13:46:30.038366$GNZDA,184629.10,09,12,2023,00,00*70
###2023-12-09 13:46:30.039028$GNEBP,,,,,,M*13
###2023-12-09 13:46:30.208464$GNGGA,184629.30,4138.0395112,N,07032.4387434,W,1,19,0.7,15.576,M,-29.746,M,0.0,*5F
###2023-12-09 13:46:30.407118$GNGGA,184629.50,4138.0395112,N,07032.4387413,W,1,19,0.7,15.580,M,-29.746,M,0.0,*55
###2023-12-09 13:46:30.606235$GNGGA,184629.70,4138.0395123,N,07032.4387377,W,1,19,0.7,15.584,M,-29.746,M,0.0,*54
###2023-12-09 13:46:30.806832$GNGGA,184629.90,4138.0395122,N,07032.4387364,W,1,19,0.7,15.585,M,-29.746,M,0.0,*58
###2023-12-09 13:46:31.009150$GNRMC,184630.10,A,4138.0395132,N,07032.4387329,W,0.02,243.17,091223,,,A*56
###2023-12-09 13:46:31.012027$GNGGA,184630.10,4138.0395132,N,07032.4387329,W,1,19,0.7,15.591,M,-29.746,M,0.0,*55
###2023-12-09 13:46:31.013747$GPGSA,A,3,04,16,26,28,29,31,,,,,,,1.3,0.7,1.1*33
###2023-12-09 13:46:31.015396$GLGSA,A,3,65,72,73,75,83,,,,,,,,1.3,0.7,1.1*20
###2023-12-09 13:46:31.016908$GAGSA,A,3,04,21,27,,,,,,,,,,1.3,0.7,1.1*24
###2023-12-09 13:46:31.018543$GBGSA,A,3,12,24,25,33,35,,,,,,,,1.3,0.7,1.1*21
###2023-12-09 13:46:31.020872$GPGSV,2,1,06,04,51,304,46,16,72,228,42,26,78,041,39,28,34,089,46*7F
###2023-12-09 13:46:31.022624$GPGSV,2,2,06,29,18,043,42,31,56,073,50,,,,,,,,*7C
###2023-12-09 13:46:31.024947$GLGSV,2,1,05,65,42,313,44,72,57,214,39,73,18,056,39,75,47,279,46*66
###2023-12-09 13:46:31.026395$GLGSV,2,2,05,83,16,042,36,,,,,,,,,,,,*5F
###2023-12-09 13:46:31.028431$GAGSV,1,1,03,04,43,308,45,21,72,043,40,27,19,051,43,,,,*59
###2023-12-09 13:46:31.030759$GBGSV,2,1,05,12,19,122,42,24,58,052,48,25,54,282,41,33,41,214,38*63
###2023-12-09 13:46:31.032209$GBGSV,2,2,05,35,16,052,35,,,,,,,,,,,,*5E
###2023-12-09 13:46:31.033523$GNVTG,243.17,T,,M,0.02,N,0.04,K,A*26
###2023-12-09 13:46:31.035143$GNGST,184630.10,7.600,,,,0.190,0.120,0.310*66
###2023-12-09 13:46:31.036426$GNZDA,184630.10,09,12,2023,00,00*78
###2023-12-09 13:46:31.037061$GNEBP,,,,,,M*13
###2023-12-09 13:46:31.207085$GNGGA,184630.30,4138.0395137,N,07032.4387317,W,1,19,0.7,15.590,M,-29.746,M,0.0,*5E
###2023-12-09 13:46:31.410849$GNGGA,184630.50,4138.0395135,N,07032.4387302,W,1,19,0.7,15.588,M,-29.746,M,0.0,*57
###2023-12-09 13:46:31.608194$GNGGA,184630.70,4138.0395138,N,07032.4387285,W,1,19,0.7,15.589,M,-29.746,M,0.0,*57
###2023-12-09 13:46:31.806272$GNGGA,184630.90,4138.0395142,N,07032.4387260,W,1,19,0.7,15.595,M,-29.746,M,0.0,*52
###2023-12-09 13:46:32.012655$GNRMC,184631.10,A,4138.0395142,N,07032.4387232,W,0.00,243.17,091223,,,A*59
###2023-12-09 13:46:32.015531$GNGGA,184631.10,4138.0395142,N,07032.4387232,W,1,18,0.7,15.598,M,-29.746,M,0.0,*50
###2023-12-09 13:46:32.017256$GPGSA,A,3,04,16,26,28,29,31,,,,,,,1.3,0.7,1.1*33
###2023-12-09 13:46:32.018918$GLGSA,A,3,65,72,73,75,83,,,,,,,,1.3,0.7,1.1*20
###2023-12-09 13:46:32.020441$GAGSA,A,3,04,21,27,,,,,,,,,,1.3,0.7,1.1*24
###2023-12-09 13:46:32.022020$GBGSA,A,3,12,24,25,33,,,,,,,,,1.3,0.7,1.1*27
###2023-12-09 13:46:32.024356$GPGSV,2,1,06,04,51,304,46,16,72,228,42,26,78,041,39,28,34,089,46*7F
###2023-12-09 13:46:32.026101$GPGSV,2,2,06,29,18,043,42,31,56,073,49,,,,,,,,*74
###2023-12-09 13:46:32.028443$GLGSV,2,1,05,65,42,313,44,72,57,214,39,73,18,056,39,75,47,279,46*66
###2023-12-09 13:46:32.029897$GLGSV,2,2,05,83,16,042,36,,,,,,,,,,,,*5F
###2023-12-09 13:46:32.032189$GAGSV,1,1,03,04,43,308,45,21,72,043,40,27,19,051,43,,,,*59
###2023-12-09 13:46:32.034538$GBGSV,1,1,04,12,19,122,42,24,58,052,48,25,54,282,42,33,41,214,38*62
###2023-12-09 13:46:32.035889$GNVTG,243.17,T,,M,0.00,N,0.00,K,A*20
###2023-12-09 13:46:32.037503$GNGST,184631.10,7.000,,,,0.190,0.120,0.310*61
###2023-12-09 13:46:32.038806$GNZDA,184631.10,09,12,2023,00,00*79
###2023-12-09 13:46:32.039446$GNEBP,,,,,,M*13
###2023-12-09 13:46:32.206927$GNGGA,184631.30,4138.0395145,N,07032.4387215,W,1,18,0.7,15.597,M,-29.746,M,0.0,*5F
