###2023-12-09 12:25:26.316958$GNGGA,172525.50,4138.0387093,N,07032.4363391,W,1,18,0.7,10.540,M,-29.746,M,0.0,*57
###2023-12-09 12:25:26.516776$GNGGA,172525.70,4138.0387067,N,07032.4363377,W,1,18,0.7,10.540,M,-29.746,M,0.0,*56
###2023-12-09 12:25:26.716051$GNGGA,172525.90,4138.0387026,N,07032.4363340,W,1,18,0.7,10.535,M,-29.746,M,0.0,*5B
###2023-12-09 12:25:26.923152$GNRMC,172526.10,A,4138.0386999,N,07032.4363337,W,0.02,,091223,,,A*48
###2023-12-09 12:25:26.926248$GNGGA,172526.10,4138.0386999,N,07032.4363337,W,1,18,0.7,10.528,M,-29.746,M,0.0,*50
###2023-12-09 12:25:26.928244$GPGSA,A,3,03,16,25,26,28,29,32,,,,,,1.2,0.7,1.0*30
###2023-12-09 12:25:26.930044$GLGSA,A,3,71,72,73,75,,,,,,,,,1.2,0.7,1.0*2E
###2023-12-09 12:25:26.931749$GAGSA,A,3,04,21,27,,,,,,,,,,1.2,0.7,1.0*24
###2023-12-09 12:25:26.933495$GBGSA,A,3,14,25,26,33,,,,,,,,,1.2,0.7,1.0*23
###2023-12-09 12:25:26.936011$GPGSV,2,1,07,03,39,282,44,16,32,206,37,25,16,045,40,26,61,205,43*7C
###2023-12-09 12:25:26.938243$GPGSV,2,2,07,28,61,050,43,29,24,079,44,32,34,131,46,,,,*45
###2023-12-09 12:25:26.940766$GLGSV,1,1,04,71,62,167,44,72,61,316,40,73,52,030,48,75,18,237,42*66
###2023-12-09 12:25:26.943016$GAGSV,1,1,03,04,18,310,35,21,74,180,46,27,45,051,46,,,,*5B
###2023-12-09 12:25:26.945541$GBGSV,1,1,04,14,59,200,44,25,29,249,38,26,38,055,47,33,64,264,35*64
###2023-12-09 12:25:26.946874$GNVTG,,T,,M,0.02,N,0.04,K,A*3B
###2023-12-09 12:25:26.948728$GNGST,172526.10,30.000,,,,0.230,0.220,0.440*51
###2023-12-09 12:25:26.950194$GNZDA,172526.10,09,12,2023,00,00*75
###2023-12-09 12:25:26.951027$GNEBP,,,,,,M*13
###2023-12-09 12:25:27.117698$GNGGA,172526.30,4138.0386974,N,07032.4363312,W,1,18,0.7,10.531,M,-29.746,M,0.0,*5E
###2023-12-09 12:25:27.317288$GNGGA,172526.50,4138.0386949,N,07032.4363293,W,1,18,0.7,10.525,M,-29.746,M,0.0,*5B
###2023-12-09 12:25:27.517022$GNGGA,172526.70,4138.0386916,N,07032.4363260,W,1,19,0.7,10.528,M,-29.746,M,0.0,*53
###2023-12-09 12:25:27.716072$GNGGA,172526.90,4138.0386892,N,07032.4363239,W,1,18,0.8,10.522,M,-29.746,M,0.0,*58
###2023-12-09 12:25:27.918233$GNRMC,172527.10,A,4138.0386859,N,07032.4363203,W,0.02,,091223,,,A*42
###2023-12-09 12:25:27.921305$GNGGA,172527.10,4138.0386859,N,07032.4363203,W,1,18,0.8,10.520,M,-29.746,M,0.0,*5D
###2023-12-09 12:25:27.923374$GPGSA,A,3,03,16,25,26,28,29,31,32,,,,,1.4,0.8,1.1*3A
###2023-12-09 12:25:27.925138$GLGSA,A,3,71,72,73,75,,,,,,,,,1.4,0.8,1.1*26
###2023-12-09 12:25:27.926776$GAGSA,A,3,21,27,,,,,,,,,,,1.4,0.8,1.1*28
###2023-12-09 12:25:27.928525$GBGSA,A,3,14,25,26,33,,,,,,,,,1.4,0.8,1.1*2B
###2023-12-09 12:25:27.931049$GPGSV,2,1,08,03,39,282,44,16,32,206,37,25,16,045,40,26,61,205,43*73
###2023-12-09 12:25:27.933566$GPGSV,2,2,08,28,61,050,44,29,24,079,44,31,73,344,35,32,34,131,47*7F
###2023-12-09 12:25:27.936083$GLGSV,1,1,04,71,62,167,44,72,61,316,40,73,52,030,48,75,18,237,42*66
###2023-12-09 12:25:27.938000$GAGSV,1,1,02,21,74,180,45,27,45,051,46,,,,,,,,*60
###2023-12-09 12:25:27.940525$GBGSV,1,1,04,14,59,200,44,25,29,249,38,26,38,055,48,33,64,264,35*6B
###2023-12-09 12:25:27.941836$GNVTG,,T,,M,0.02,N,0.04,K,A*3B
###2023-12-09 12:25:27.943657$GNGST,172527.10,30.000,,,,0.230,0.220,0.450*51
###2023-12-09 12:25:27.945102$GNZDA,172527.10,09,12,2023,00,00*74
###2023-12-09 12:25:27.945897$GNEBP,,,,,,M*13
###2023-12-09 12:25:28.117203$GNGGA,172527.30,4138.0386845,N,07032.4363207,W,1,18,0.8,10.511,M,-29.746,M,0.0,*54
###2023-12-09 12:25:28.318631$GNGGA,172527.50,4138.0386816,N,07032.4363187,W,1,18,0.8,10.505,M,-29.746,M,0.0,*5A
###2023-12-09 12:25:28.519111$GNGGA,172527.70,4138.0386788,N,07032.4363169,W,1,18,0.8,10.498,M,-29.746,M,0.0,*55
###2023-12-09 12:25:28.716777$GNGGA,172527.90,4138.0386760,N,07032.4363158,W,1,17,0.8,10.493,M,-29.746,M,0.0,*5B
###2023-12-09 12:25:28.920105$GNRMC,172528.10,A,4138.0386724,N,07032.4363140,W,0.02,,091223,,,A*4C
###2023-12-09 12:25:28.923228$GNGGA,172528.10,4138.0386724,N,07032.4363140,W,1,18,0.7,10.490,M,-29.746,M,0.0,*56
###2023-12-09 12:25:28.925270$GPGSA,A,3,03,16,25,26,28,29,31,32,,,,,1.3,0.7,1.1*32
###2023-12-09 12:25:28.927033$GLGSA,A,3,71,72,73,75,,,,,,,,,1.3,0.7,1.1*2E
###2023-12-09 12:25:28.928722$GAGSA,A,3,04,21,27,,,,,,,,,,1.3,0.7,1.1*24
###2023-12-09 12:25:28.930283$GBGSA,A,3,14,25,26,,,,,,,,,,1.3,0.7,1.1*23
###2023-12-09 12:25:28.932661$GPGSV,2,1,08,03,39,282,44,16,32,206,37,25,16,045,39,26,61,205,43*7D
###2023-12-09 12:25:28.935040$GPGSV,2,2,08,28,61,050,43,29,24,079,43,31,73,344,35,32,34,131,47*7F
###2023-12-09 12:25:28.937391$GLGSV,1,1,04,71,62,167,43,72,61,316,41,73,52,030,48,75,18,237,42*60
###2023-12-09 12:25:28.939455$GAGSV,1,1,03,04,18,310,35,21,74,180,45,27,45,051,46,,,,*58
###2023-12-09 12:25:28.941500$GBGSV,1,1,03,14,59,200,44,25,29,249,38,26,38,055,46,,,,*56
###2023-12-09 12:25:28.942659$GNVTG,,T,,M,0.02,N,0.04,K,A*3B
###2023-12-09 12:25:28.944317$GNGST,172528.10,30.000,,,,0.230,0.220,0.450*5E
###2023-12-09 12:25:28.945629$GNZDA,172528.10,09,12,2023,00,00*7B
###2023-12-09 12:25:28.946292$GNEBP,,,,,,M*13
###2023-12-09 12:25:29.122682$GNGGA,172528.30,4138.0386688,N,07032.4363114,W,1,19,0.7,10.486,M,-29.746,M,0.0,*54
###2023-12-09 12:25:29.317902$GNGGA,172528.50,4138.0386654,N,07032.4363099,W,1,18,0.8,10.481,M,-29.746,M,0.0,*5E
###2023-12-09 12:25:29.517748$GNGGA,172528.70,4138.0386635,N,07032.4363085,W,1,18,0.8,10.479,M,-29.746,M,0.0,*51
###2023-12-09 12:25:29.716036$GNGGA,172528.90,4138.0386607,N,07032.4363059,W,1,18,0.8,10.475,M,-29.746,M,0.0,*53
###2023-12-09 12:25:29.920944$GNRMC,172529.10,A,4138.0386578,N,07032.4363047,W,0.02,,091223,,,A*40
###2023-12-09 12:25:29.924536$GNGGA,172529.10,4138.0386578,N,07032.4363047,W,1,18,0.8,10.466,M,-29.746,M,0.0,*5C
###2023-12-09 12:25:29.926591$GPGSA,A,3,03,16,25,26,28,29,31,32,,,,,1.4,0.8,1.1*3A
###2023-12-09 12:25:29.928303$GLGSA,A,3,71,72,73,75,,,,,,,,,1.4,0.8,1.1*26
###2023-12-09 12:25:29.929840$GAGSA,A,3,21,27,,,,,,,,,,,1.4,0.8,1.1*28
###2023-12-09 12:25:29.931630$GBGSA,A,3,14,25,26,33,,,,,,,,,1.4,0.8,1.1*2B
###2023-12-09 12:25:29.934126$GPGSV,2,1,08,03,39,282,44,16,32,206,37,25,16,045,39,26,61,205,43*7D
###2023-12-09 12:25:29.936587$GPGSV,2,2,08,28,61,050,43,29,24,079,45,31,73,344,37,32,34,131,47*7B
###2023-12-09 12:25:29.939084$GLGSV,1,1,04,71,62,167,45,72,61,316,42,73,52,030,48,75,18,237,42*65
###2023-12-09 12:25:29.940910$GAGSV,1,1,02,21,74,180,45,27,45,051,46,,,,,,,,*60
###2023-12-09 12:25:29.943354$GBGSV,1,1,04,14,59,200,44,25,29,249,38,26,38,055,47,33,64,264,35*64
###2023-12-09 12:25:29.944562$GNVTG,,T,,M,0.02,N,0.04,K,A*3B
###2023-12-09 12:25:29.946309$GNGST,172529.10,30.000,,,,0.230,0.220,0.450*5F
###2023-12-09 12:25:29.947782$GNZDA,172529.10,09,12,2023,00,00*7A
###2023-12-09 12:25:29.948482$GNEBP,,,,,,M*13
###2023-12-09 12:25:30.117954$GNGGA,172529.30,4138.0386542,N,07032.4363014,W,1,18,0.8,10.466,M,-29.746,M,0.0,*51
###2023-12-09 12:25:30.318090$GNGGA,172529.50,4138.0386515,N,07032.4362998,W,1,18,0.8,10.460,M,-29.746,M,0.0,*5F
###2023-12-09 12:25:30.516777$GNGGA,172529.70,4138.0386496,N,07032.4362980,W,1,18,0.8,10.457,M,-29.746,M,0.0,*5A
###2023-12-09 12:25:30.721730$GNGGA,172529.90,4138.0386468,N,07032.4362960,W,1,18,0.8,10.454,M,-29.746,M,0.0,*58
###2023-12-09 12:25:30.919431$GNRMC,172530.10,A,4138.0386439,N,07032.4362936,W,0.06,,091223,,,A*46
###2023-12-09 12:25:30.922308$GNGGA,172530.10,4138.0386439,N,07032.4362936,W,1,19,0.7,10.446,M,-29.746,M,0.0,*52
###2023-12-09 12:25:30.924205$GPGSA,A,3,03,16,25,26,28,29,31,32,,,,,1.2,0.7,1.0*32
###2023-12-09 12:25:30.925810$GLGSA,A,3,71,72,73,75,,,,,,,,,1.2,0.7,1.0*2E
###2023-12-09 12:25:30.927363$GAGSA,A,3,04,21,27,,,,,,,,,,1.2,0.7,1.0*24
###2023-12-09 12:25:30.928970$GBGSA,A,3,14,25,26,33,,,,,,,,,1.2,0.7,1.0*23
###2023-12-09 12:25:30.931336$GPGSV,2,1,08,03,39,282,44,16,32,206,38,25,15,045,39,26,61,205,43*71
###2023-12-09 12:25:30.933693$GPGSV,2,2,08,28,61,050,43,29,24,079,43,31,73,344,36,32,34,131,47*7C
###2023-12-09 12:25:30.936061$GLGSV,1,1,04,71,62,167,44,72,61,316,42,73,52,030,48,75,18,237,42*64
###2023-12-09 12:25:30.938127$GAGSV,1,1,03,04,18,310,35,21,74,180,45,27,45,051,46,,,,*58
###2023-12-09 12:25:30.940495$GBGSV,1,1,04,14,59,200,44,25,29,249,38,26,38,055,48,33,64,264,36*68
###2023-12-09 12:25:30.941652$GNVTG,,T,,M,0.06,N,0.11,K,A*3B
###2023-12-09 12:25:30.943605$GNGST,172530.10,30.000,,,,0.230,0.220,0.450*57
###2023-12-09 12:25:30.944930$GNZDA,172530.10,09,12,2023,00,00*72
###2023-12-09 12:25:30.945588$GNEBP,,,,,,M*13
###2023-12-09 12:25:31.117826$GNGGA,172530.30,4138.0386412,N,07032.4362923,W,1,19,0.7,10.440,M,-29.746,M,0.0,*5B
###2023-12-09 12:25:31.318036$GNGGA,172530.50,4138.0386391,N,07032.4362914,W,1,19,0.7,10.436,M,-29.746,M,0.0,*54
###2023-12-09 12:25:31.518065$GNGGA,172530.70,4138.0386366,N,07032.4362896,W,1,19,0.7,10.432,M,-29.746,M,0.0,*51
###2023-12-09 12:25:31.717009$GNGGA,172530.90,4138.0386337,N,07032.4362875,W,1,19,0.7,10.423,M,-29.746,M,0.0,*56
###2023-12-09 12:25:31.920976$GNRMC,172531.10,A,4138.0386315,N,07032.4362864,W,0.00,,091223,,,A*4E
###2023-12-09 12:25:31.923858$GNGGA,172531.10,4138.0386315,N,07032.4362864,W,1,19,0.7,10.423,M,-29.746,M,0.0,*5F
