###2023-12-09 13:01:47.994332$GNVTG,253.40,T,,M,2.95,N,5.47,K,A*2B
###2023-12-09 13:01:47.996022$GNGST,180147.10,18.000,,,,0.079,0.067,0.160*5C
###2023-12-09 13:01:47.997315$GNZDA,180147.10,09,12,2023,00,00*7B
###2023-12-09 13:01:47.997960$GNEBP,,,,,,M*13
###2023-12-09 13:01:48.164227$GNGGA,180147.30,4138.0451072,N,07032.2742337,W,1,24,0.6,13.263,M,-29.743,M,0.0,*5C
###2023-12-09 13:01:48.365208$GNGGA,180147.50,4138.0450474,N,07032.2744473,W,1,24,0.6,13.278,M,-29.743,M,0.0,*52
###2023-12-09 13:01:48.565163$GNGGA,180147.70,4138.0449879,N,07032.2746613,W,1,24,0.6,13.290,M,-29.743,M,0.0,*59
###2023-12-09 13:01:48.765399$GNGGA,180147.90,4138.0449349,N,07032.2748777,W,1,24,0.6,13.308,M,-29.743,M,0.0,*52
###2023-12-09 13:01:48.967411$GNRMC,180148.10,A,4138.0448686,N,07032.2750961,W,3.19,243.47,091223,,,A*57
###2023-12-09 13:01:48.970284$GNGGA,180148.10,4138.0448686,N,07032.2750961,W,1,24,0.6,13.303,M,-29.743,M,0.0,*59
###2023-12-09 13:01:48.972159$GPGSA,A,3,03,04,16,26,28,29,31,32,,,,,1.1,0.6,0.9*3B
###2023-12-09 13:01:48.973883$GLGSA,A,3,65,71,72,73,74,75,,,,,,,1.1,0.6,0.9*24
###2023-12-09 13:01:48.975478$GAGSA,A,3,04,19,21,27,,,,,,,,,1.1,0.6,0.9*26
###2023-12-09 13:01:48.977126$GBGSA,A,3,14,24,25,26,33,,,,,,,,1.1,0.6,0.9*2F
###2023-12-09 13:01:48.979481$GPGSV,2,1,08,03,35,261,42,04,33,311,43,16,50,212,45,26,80,210,48*75
###2023-12-09 13:01:48.981823$GPGSV,2,2,08,28,49,070,45,29,25,061,42,31,69,038,48,32,19,140,43*7C
###2023-12-09 13:01:48.984168$GLGSV,2,1,06,65,24,327,42,71,41,173,46,72,73,269,45,73,36,041,46*6A
###2023-12-09 13:01:48.985911$GLGSV,2,2,06,74,70,337,43,75,32,253,43,,,,,,,,*67
###2023-12-09 13:01:48.988256$GAGSV,1,1,04,04,29,312,41,19,84,216,40,21,86,120,45,27,33,048,43*62
###2023-12-09 13:01:48.990634$GBGSV,2,1,05,14,43,193,45,24,74,024,49,25,41,262,45,26,26,063,42*6D
###2023-12-09 13:01:48.992098$GBGSV,2,2,05,33,57,233,47,,,,,,,,,,,,*5D
###2023-12-09 13:01:48.993421$GNVTG,243.47,T,,M,3.19,N,5.90,K,A*22
###2023-12-09 13:01:48.995078$GNGST,180148.10,18.000,,,,0.079,0.067,0.160*53
###2023-12-09 13:01:48.996368$GNZDA,180148.10,09,12,2023,00,00*74
###2023-12-09 13:01:48.997008$GNEBP,,,,,,M*13
###2023-12-09 13:01:49.164362$GNGGA,180148.30,4138.0447883,N,07032.2753040,W,1,24,0.6,13.265,M,-29.743,M,0.0,*57
###2023-12-09 13:01:49.365171$GNGGA,180148.50,4138.0447257,N,07032.2755190,W,1,24,0.6,13.269,M,-29.743,M,0.0,*54
###2023-12-09 13:01:49.565108$GNGGA,180148.70,4138.0446949,N,07032.2757469,W,1,24,0.6,13.322,M,-29.743,M,0.0,*5C
###2023-12-09 13:01:49.765356$GNGGA,180148.90,4138.0446568,N,07032.2759679,W,1,24,0.6,13.328,M,-29.743,M,0.0,*5A
###2023-12-09 13:01:49.966402$GNRMC,180149.10,A,4138.0446006,N,07032.2761812,W,3.01,257.09,091223,,,A*57
###2023-12-09 13:01:49.969305$GNGGA,180149.10,4138.0446006,N,07032.2761812,W,1,24,0.6,13.276,M,-29.743,M,0.0,*5C
###2023-12-09 13:01:49.971175$GPGSA,A,3,03,04,16,26,28,29,31,32,,,,,1.1,0.6,0.9*3B
###2023-12-09 13:01:49.972888$GLGSA,A,3,65,71,72,73,74,75,,,,,,,1.1,0.6,0.9*24
###2023-12-09 13:01:49.974460$GAGSA,A,3,04,19,21,27,,,,,,,,,1.1,0.6,0.9*26
###2023-12-09 13:01:49.976108$GBGSA,A,3,14,24,25,26,33,,,,,,,,1.1,0.6,0.9*2F
###2023-12-09 13:01:49.978415$GPGSV,2,1,08,03,35,261,43,04,33,311,42,16,50,212,47,26,80,210,48*77
###2023-12-09 13:01:49.980743$GPGSV,2,2,08,28,49,070,46,29,25,061,43,31,69,038,48,32,19,140,44*79
###2023-12-09 13:01:49.983074$GLGSV,2,1,06,65,24,327,40,71,41,173,47,72,73,269,46,73,36,041,45*69
###2023-12-09 13:01:49.984805$GLGSV,2,2,06,74,70,337,42,75,32,253,42,,,,,,,,*67
###2023-12-09 13:01:49.987129$GAGSV,1,1,04,04,29,312,41,19,84,216,40,21,86,120,46,27,33,048,42*60
###2023-12-09 13:01:49.989445$GBGSV,2,1,05,14,43,193,45,24,74,024,49,25,41,262,44,26,26,063,43*6D
###2023-12-09 13:01:49.990900$GBGSV,2,2,05,33,57,233,48,,,,,,,,,,,,*52
###2023-12-09 13:01:49.992214$GNVTG,257.09,T,,M,3.01,N,5.58,K,A*20
###2023-12-09 13:01:49.993858$GNGST,180149.10,18.000,,,,0.079,0.067,0.160*52
###2023-12-09 13:01:49.995156$GNZDA,180149.10,09,12,2023,00,00*75
###2023-12-09 13:01:49.995791$GNEBP,,,,,,M*13
###2023-12-09 13:01:50.163227$GNGGA,180149.30,4138.0445832,N,07032.2764015,W,1,24,0.6,13.287,M,-29.743,M,0.0,*56
###2023-12-09 13:01:50.364113$GNGGA,180149.50,4138.0445819,N,07032.2766263,W,1,24,0.6,13.317,M,-29.743,M,0.0,*50
###2023-12-09 13:01:50.564156$GNGGA,180149.70,4138.0445763,N,07032.2768447,W,1,24,0.6,13.320,M,-29.743,M,0.0,*5A
###2023-12-09 13:01:50.764287$GNGGA,180149.90,4138.0445827,N,07032.2770666,W,1,24,0.6,13.310,M,-29.743,M,0.0,*50
###2023-12-09 13:01:50.966454$GNRMC,180150.10,A,4138.0445993,N,07032.2772953,W,3.19,275.44,091223,,,A*5F
###2023-12-09 13:01:50.969327$GNGGA,180150.10,4138.0445993,N,07032.2772953,W,1,24,0.6,13.325,M,-29.743,M,0.0,*53
###2023-12-09 13:01:50.971196$GPGSA,A,3,03,04,16,26,28,29,31,32,,,,,1.1,0.6,0.9*3B
###2023-12-09 13:01:50.972906$GLGSA,A,3,65,71,72,73,74,75,,,,,,,1.1,0.6,0.9*24
###2023-12-09 13:01:50.974478$GAGSA,A,3,04,19,21,27,,,,,,,,,1.1,0.6,0.9*26
###2023-12-09 13:01:50.976124$GBGSA,A,3,14,24,25,26,33,,,,,,,,1.1,0.6,0.9*2F
###2023-12-09 13:01:50.978433$GPGSV,2,1,08,03,35,261,41,04,33,311,41,16,50,212,46,26,80,210,48*77
###2023-12-09 13:01:50.980771$GPGSV,2,2,08,28,49,070,46,29,25,061,42,31,69,038,48,32,19,140,43*7F
###2023-12-09 13:01:50.983100$GLGSV,2,1,06,65,24,327,39,71,41,173,45,72,73,269,45,73,36,041,46*65
###2023-12-09 13:01:50.984833$GLGSV,2,2,06,74,70,337,42,75,32,253,42,,,,,,,,*67
###2023-12-09 13:01:50.987154$GAGSV,1,1,04,04,29,312,39,19,84,216,40,21,86,120,46,27,33,048,42*6F
###2023-12-09 13:01:50.989473$GBGSV,2,1,05,14,43,193,46,24,74,024,48,25,41,262,44,26,26,063,42*6E
###2023-12-09 13:01:50.990972$GBGSV,2,2,05,33,57,233,48,,,,,,,,,,,,*52
###2023-12-09 13:01:50.992294$GNVTG,275.44,T,,M,3.19,N,5.90,K,A*24
###2023-12-09 13:01:50.993931$GNGST,180150.10,18.000,,,,0.079,0.067,0.160*5A
###2023-12-09 13:01:50.995230$GNZDA,180150.10,09,12,2023,00,00*7D
###2023-12-09 13:01:50.995865$GNEBP,,,,,,M*13
###2023-12-09 13:01:51.166331$GNGGA,180150.30,4138.0446198,N,07032.2775251,W,1,24,0.6,13.326,M,-29.743,M,0.0,*5C
###2023-12-09 13:01:51.363666$GNGGA,180150.50,4138.0446561,N,07032.2777481,W,1,24,0.6,13.321,M,-29.743,M,0.0,*56
###2023-12-09 13:01:51.565160$GNGGA,180150.70,4138.0446975,N,07032.2779674,W,1,24,0.6,13.318,M,-29.743,M,0.0,*51
###2023-12-09 13:01:51.765362$GNGGA,180150.90,4138.0447364,N,07032.2781838,W,1,24,0.6,13.322,M,-29.743,M,0.0,*5C
###2023-12-09 13:01:51.967380$GNRMC,180151.10,A,4138.0447696,N,07032.2784010,W,2.97,281.40,091223,,,A*59
###2023-12-09 13:01:51.970242$GNGGA,180151.10,4138.0447696,N,07032.2784010,W,1,24,0.6,13.322,M,-29.743,M,0.0,*5A
###2023-12-09 13:01:51.972114$GPGSA,A,3,03,04,16,26,28,29,31,32,,,,,1.1,0.6,0.9*3B
###2023-12-09 13:01:51.973826$GLGSA,A,3,65,71,72,73,74,75,,,,,,,1.1,0.6,0.9*24
###2023-12-09 13:01:51.975416$GAGSA,A,3,04,19,21,27,,,,,,,,,1.1,0.6,0.9*26
###2023-12-09 13:01:51.977060$GBGSA,A,3,14,24,25,26,33,,,,,,,,1.1,0.6,0.9*2F
###2023-12-09 13:01:51.979399$GPGSV,2,1,08,03,35,261,41,04,33,311,41,16,50,212,46,26,80,210,49*76
###2023-12-09 13:01:51.981721$GPGSV,2,2,08,28,49,070,46,29,25,061,41,31,69,038,47,32,19,140,44*74
###2023-12-09 13:01:51.984097$GLGSV,2,1,06,65,24,327,37,71,41,173,47,72,73,269,45,73,36,041,45*6A
###2023-12-09 13:01:51.985843$GLGSV,2,2,06,74,70,337,42,75,32,253,44,,,,,,,,*61
###2023-12-09 13:01:51.988187$GAGSV,1,1,04,04,29,312,38,19,84,216,40,21,86,120,46,27,33,048,42*6E
###2023-12-09 13:01:51.990520$GBGSV,2,1,05,14,43,193,46,24,74,024,48,25,41,262,44,26,26,063,42*6E
###2023-12-09 13:01:51.991991$GBGSV,2,2,05,33,57,233,47,,,,,,,,,,,,*5D
###2023-12-09 13:01:51.993318$GNVTG,281.40,T,,M,2.97,N,5.51,K,A*21
###2023-12-09 13:01:51.994982$GNGST,180151.10,18.000,,,,0.079,0.068,0.160*54
###2023-12-09 13:01:51.996275$GNZDA,180151.10,09,12,2023,00,00*7C
###2023-12-09 13:01:51.996913$GNEBP,,,,,,M*13
###2023-12-09 13:01:52.164918$GNGGA,180151.30,4138.0448161,N,07032.2786121,W,1,24,0.6,13.323,M,-29.743,M,0.0,*58
###2023-12-09 13:01:52.363816$GNGGA,180151.50,4138.0448853,N,07032.2788163,W,1,24,0.6,13.343,M,-29.743,M,0.0,*58
###2023-12-09 13:01:52.564177$GNGGA,180151.70,4138.0449496,N,07032.2790324,W,1,24,0.6,13.353,M,-29.743,M,0.0,*57
###2023-12-09 13:01:52.764994$GNGGA,180151.90,4138.0449891,N,07032.2792568,W,1,24,0.6,13.346,M,-29.743,M,0.0,*5A
###2023-12-09 13:01:52.973070$GNRMC,180152.10,A,4138.0450377,N,07032.2794876,W,3.40,289.70,091223,,,A*5F
###2023-12-09 13:01:52.976589$GNGGA,180152.10,4138.0450377,N,07032.2794876,W,1,24,0.6,13.362,M,-29.743,M,0.0,*58
###2023-12-09 13:01:52.978863$GPGSA,A,3,03,04,16,26,28,29,31,32,,,,,1.1,0.6,0.9*3B
###2023-12-09 13:01:52.980941$GLGSA,A,3,65,71,72,73,74,75,,,,,,,1.1,0.6,0.9*24
###2023-12-09 13:01:52.982869$GAGSA,A,3,04,19,21,27,,,,,,,,,1.1,0.6,0.9*26
###2023-12-09 13:01:52.984874$GBGSA,A,3,14,24,25,26,33,,,,,,,,1.1,0.6,0.9*2F
###2023-12-09 13:01:52.987705$GPGSV,2,1,08,03,35,261,41,04,33,311,42,16,50,212,46,26,80,210,48*74
###2023-12-09 13:01:52.990542$GPGSV,2,2,08,28,49,070,45,29,25,061,42,31,69,038,47,32,19,140,43*73
