###2023-12-09 13:13:23.374140$GNGGA,181322.50,4138.0539244,N,07032.2543057,W,1,24,0.7,12.756,M,-29.742,M,0.0,*56
###2023-12-09 13:13:23.576303$GNGGA,181322.70,4138.0539669,N,07032.2545270,W,1,24,0.7,12.760,M,-29.742,M,0.0,*5B
###2023-12-09 13:13:23.773920$GNGGA,181322.90,4138.0539976,N,07032.2547516,W,1,24,0.7,12.763,M,-29.742,M,0.0,*52
###2023-12-09 13:13:23.977225$GNRMC,181323.10,A,4138.0540100,N,07032.2549768,W,3.01,272.18,091223,,,A*55
###2023-12-09 13:13:23.980109$GNGGA,181323.10,4138.0540100,N,07032.2549768,W,1,24,0.7,12.765,M,-29.742,M,0.0,*5F
###2023-12-09 13:13:23.981908$GPGSA,A,3,03,04,16,26,28,29,31,,,,,,1.2,0.7,1.0*30
###2023-12-09 13:13:23.983638$GLGSA,A,3,65,71,72,73,74,75,,,,,,,1.2,0.7,1.0*2E
###2023-12-09 13:13:23.985227$GAGSA,A,3,04,19,21,27,,,,,,,,,1.2,0.7,1.0*2C
###2023-12-09 13:13:23.986951$GBGSA,A,3,14,24,25,26,33,35,,,,,,,1.2,0.7,1.0*23
###2023-12-09 13:13:23.989279$GPGSV,2,1,07,03,32,255,43,04,38,311,43,16,56,215,45,26,85,210,48*74
###2023-12-09 13:13:23.991331$GPGSV,2,2,07,28,46,075,45,29,24,056,42,31,66,048,47,,,,*40
###2023-12-09 13:13:23.993666$GLGSV,2,1,06,65,29,325,42,71,34,174,46,72,71,246,45,73,31,045,44*6E
###2023-12-09 13:13:23.995426$GLGSV,2,2,06,74,66,353,43,75,36,259,43,,,,,,,,*6C
###2023-12-09 13:13:23.997745$GAGSV,1,1,04,04,33,312,42,19,81,194,40,21,84,070,46,27,29,048,42*69
###2023-12-09 13:13:24.000089$GBGSV,2,1,06,14,38,192,44,24,70,034,49,25,44,267,44,26,22,065,43*65
###2023-12-09 13:13:24.001840$GBGSV,2,2,06,33,53,226,47,35,15,065,46,,,,,,,,*6D
###2023-12-09 13:13:24.003178$GNVTG,272.18,T,,M,3.01,N,5.58,K,A*27
###2023-12-09 13:13:24.004831$GNGST,181323.10,18.000,,,,0.097,0.072,0.170*58
###2023-12-09 13:13:24.006126$GNZDA,181323.10,09,12,2023,00,00*7A
###2023-12-09 13:13:24.006775$GNEBP,,,,,,M*13
###2023-12-09 13:13:24.174417$GNGGA,181323.30,4138.0540026,N,07032.2551920,W,1,24,0.7,12.756,M,-29.742,M,0.0,*53
###2023-12-09 13:13:24.373206$GNGGA,181323.50,4138.0539768,N,07032.2553935,W,1,24,0.7,12.745,M,-29.742,M,0.0,*52
###2023-12-09 13:13:24.575010$GNGGA,181323.70,4138.0539475,N,07032.2555948,W,1,24,0.7,12.737,M,-29.742,M,0.0,*56
###2023-12-09 13:13:24.774994$GNGGA,181323.90,4138.0539214,N,07032.2557995,W,1,24,0.7,12.750,M,-29.742,M,0.0,*5A
###2023-12-09 13:13:24.978999$GNRMC,181324.10,A,4138.0538963,N,07032.2560088,W,2.86,259.68,091223,,,A*52
###2023-12-09 13:13:24.981861$GNGGA,181324.10,4138.0538963,N,07032.2560088,W,1,24,0.7,12.770,M,-29.742,M,0.0,*5C
###2023-12-09 13:13:24.983671$GPGSA,A,3,03,04,16,26,28,29,31,,,,,,1.2,0.7,1.0*30
###2023-12-09 13:13:24.985392$GLGSA,A,3,65,71,72,73,74,75,,,,,,,1.2,0.7,1.0*2E
###2023-12-09 13:13:24.986981$GAGSA,A,3,04,19,21,27,,,,,,,,,1.2,0.7,1.0*2C
###2023-12-09 13:13:24.988695$GBGSA,A,3,14,24,25,26,33,35,,,,,,,1.2,0.7,1.0*23
###2023-12-09 13:13:24.991029$GPGSV,2,1,07,03,32,255,43,04,38,311,44,16,56,215,45,26,85,210,48*73
###2023-12-09 13:13:24.993067$GPGSV,2,2,07,28,46,075,45,29,24,056,41,31,66,048,47,,,,*43
###2023-12-09 13:13:24.995401$GLGSV,2,1,06,65,29,325,42,71,34,174,45,72,71,246,45,73,31,045,44*6D
###2023-12-09 13:13:24.997144$GLGSV,2,2,06,74,66,353,42,75,36,259,44,,,,,,,,*6A
###2023-12-09 13:13:24.999479$GAGSV,1,1,04,04,33,312,42,19,81,194,40,21,84,070,46,27,29,048,42*69
###2023-12-09 13:13:25.001812$GBGSV,2,1,06,14,38,192,44,24,70,034,49,25,44,267,45,26,22,065,43*64
###2023-12-09 13:13:25.003569$GBGSV,2,2,06,33,53,226,47,35,15,065,45,,,,,,,,*6E
###2023-12-09 13:13:25.004889$GNVTG,259.68,T,,M,2.86,N,5.29,K,A*21
###2023-12-09 13:13:25.006528$GNGST,181324.10,18.000,,,,0.097,0.072,0.170*5F
###2023-12-09 13:13:25.007825$GNZDA,181324.10,09,12,2023,00,00*7D
###2023-12-09 13:13:25.008462$GNEBP,,,,,,M*13
###2023-12-09 13:13:25.174036$GNGGA,181324.30,4138.0538566,N,07032.2562118,W,1,24,0.7,12.775,M,-29.742,M,0.0,*58
###2023-12-09 13:13:25.374347$GNGGA,181324.50,4138.0537900,N,07032.2563907,W,1,24,0.7,12.759,M,-29.742,M,0.0,*54
###2023-12-09 13:13:25.574960$GNGGA,181324.70,4138.0537137,N,07032.2565606,W,1,24,0.7,12.744,M,-29.742,M,0.0,*5E
###2023-12-09 13:13:25.774979$GNGGA,181324.90,4138.0536541,N,07032.2567537,W,1,24,0.7,12.759,M,-29.742,M,0.0,*5B
###2023-12-09 13:13:25.977742$GNRMC,181325.10,A,4138.0535929,N,07032.2569527,W,2.88,241.33,091223,,,A*50
###2023-12-09 13:13:25.980632$GNGGA,181325.10,4138.0535929,N,07032.2569527,W,1,24,0.7,12.764,M,-29.742,M,0.0,*52
###2023-12-09 13:13:25.982436$GPGSA,A,3,03,04,16,26,28,29,31,,,,,,1.2,0.7,1.0*30
###2023-12-09 13:13:25.984175$GLGSA,A,3,65,71,72,73,74,75,,,,,,,1.2,0.7,1.0*2E
###2023-12-09 13:13:25.985762$GAGSA,A,3,04,19,21,27,,,,,,,,,1.2,0.7,1.0*2C
###2023-12-09 13:13:25.987488$GBGSA,A,3,14,24,25,26,33,35,,,,,,,1.2,0.7,1.0*23
###2023-12-09 13:13:25.989815$GPGSV,2,1,07,03,32,255,40,04,38,311,44,16,56,215,45,26,85,210,47*7F
###2023-12-09 13:13:25.991870$GPGSV,2,2,07,28,46,075,44,29,24,056,42,31,66,048,47,,,,*41
###2023-12-09 13:13:25.994205$GLGSV,2,1,06,65,29,325,43,71,34,174,44,72,71,246,45,73,31,045,45*6C
###2023-12-09 13:13:25.995968$GLGSV,2,2,06,74,66,353,43,75,36,259,45,,,,,,,,*6A
###2023-12-09 13:13:25.998296$GAGSV,1,1,04,04,33,312,43,19,81,194,40,21,84,070,46,27,29,048,42*68
###2023-12-09 13:13:26.000637$GBGSV,2,1,06,14,38,192,44,24,70,034,49,25,44,267,46,26,22,065,43*67
###2023-12-09 13:13:26.002385$GBGSV,2,2,06,33,53,226,46,35,15,065,45,,,,,,,,*6F
###2023-12-09 13:13:26.003720$GNVTG,241.33,T,,M,2.88,N,5.33,K,A*23
###2023-12-09 13:13:26.005378$GNGST,181325.10,18.000,,,,0.097,0.072,0.170*5E
###2023-12-09 13:13:26.006687$GNZDA,181325.10,09,12,2023,00,00*7C
###2023-12-09 13:13:26.007328$GNEBP,,,,,,M*13
###2023-12-09 13:13:26.173209$GNGGA,181325.30,4138.0535031,N,07032.2571195,W,1,24,0.7,12.755,M,-29.742,M,0.0,*56
###2023-12-09 13:13:26.374986$GNGGA,181325.50,4138.0534044,N,07032.2572661,W,1,24,0.7,12.759,M,-29.742,M,0.0,*50
###2023-12-09 13:13:26.574957$GNGGA,181325.70,4138.0533139,N,07032.2574303,W,1,24,0.7,12.771,M,-29.742,M,0.0,*53
###2023-12-09 13:13:26.774908$GNGGA,181325.90,4138.0532155,N,07032.2575987,W,1,24,0.7,12.751,M,-29.742,M,0.0,*53
###2023-12-09 13:13:26.978859$GNRMC,181326.10,A,4138.0531121,N,07032.2577554,W,2.78,228.53,091223,,,A*5A
###2023-12-09 13:13:26.981722$GNGGA,181326.10,4138.0531121,N,07032.2577554,W,1,24,0.7,12.741,M,-29.742,M,0.0,*59
###2023-12-09 13:13:26.983532$GPGSA,A,3,03,04,16,26,28,29,31,,,,,,1.2,0.7,1.0*30
###2023-12-09 13:13:26.985243$GLGSA,A,3,65,71,72,73,74,75,,,,,,,1.2,0.7,1.0*2E
###2023-12-09 13:13:26.986831$GAGSA,A,3,04,19,21,27,,,,,,,,,1.2,0.7,1.0*2C
###2023-12-09 13:13:26.988544$GBGSA,A,3,14,24,25,26,33,35,,,,,,,1.2,0.7,1.0*23
###2023-12-09 13:13:26.990888$GPGSV,2,1,07,03,32,255,41,04,38,311,44,16,56,215,45,26,86,209,47*75
###2023-12-09 13:13:26.992936$GPGSV,2,2,07,28,46,075,45,29,24,056,42,31,66,048,47,,,,*40
###2023-12-09 13:13:26.995290$GLGSV,2,1,06,65,29,325,43,71,34,174,44,72,71,246,45,73,31,045,45*6C
###2023-12-09 13:13:26.997048$GLGSV,2,2,06,74,66,353,43,75,36,259,45,,,,,,,,*6A
###2023-12-09 13:13:26.999390$GAGSV,1,1,04,04,33,312,43,19,81,194,40,21,84,070,46,27,29,048,42*68
###2023-12-09 13:13:27.001727$GBGSV,2,1,06,14,38,192,44,24,70,034,49,25,44,267,46,26,22,065,44*60
###2023-12-09 13:13:27.003491$GBGSV,2,2,06,33,53,226,47,35,15,065,44,,,,,,,,*6F
###2023-12-09 13:13:27.004820$GNVTG,228.53,T,,M,2.78,N,5.15,K,A*21
###2023-12-09 13:13:27.006468$GNGST,181326.10,18.000,,,,0.097,0.072,0.170*5D
###2023-12-09 13:13:27.007776$GNZDA,181326.10,09,12,2023,00,00*7F
###2023-12-09 13:13:27.008419$GNEBP,,,,,,M*13
###2023-12-09 13:13:27.176670$GNGGA,181326.30,4138.0530115,N,07032.2579173,W,1,24,0.7,12.767,M,-29.742,M,0.0,*56
###2023-12-09 13:13:27.374223$GNGGA,181326.50,4138.0529074,N,07032.2580894,W,1,24,0.7,12.766,M,-29.743,M,0.0,*58
###2023-12-09 13:13:27.576130$GNGGA,181326.70,4138.0528012,N,07032.2582584,W,1,24,0.7,12.746,M,-29.743,M,0.0,*57
###2023-12-09 13:13:27.774916$GNGGA,181326.90,4138.0527046,N,07032.2584305,W,1,24,0.7,12.750,M,-29.743,M,0.0,*59
###2023-12-09 13:13:27.977515$GNRMC,181327.10,A,4138.0526135,N,07032.2586133,W,2.97,237.14,091223,,,A*5F
###2023-12-09 13:13:27.980396$GNGGA,181327.10,4138.0526135,N,07032.2586133,W,1,24,0.7,12.749,M,-29.743,M,0.0,*59
###2023-12-09 13:13:27.982182$GPGSA,A,3,03,04,16,26,28,29,31,,,,,,1.2,0.7,1.0*30
###2023-12-09 13:13:27.984158$GLGSA,A,3,65,71,72,73,74,75,,,,,,,1.2,0.7,1.0*2E
###2023-12-09 13:13:27.985754$GAGSA,A,3,04,19,21,27,,,,,,,,,1.2,0.7,1.0*2C
###2023-12-09 13:13:27.987485$GBGSA,A,3,14,24,25,26,33,35,,,,,,,1.2,0.7,1.0*23
###2023-12-09 13:13:27.989820$GPGSV,2,1,07,03,32,255,41,04,38,311,44,16,56,215,45,26,86,209,48*7A
###2023-12-09 13:13:27.991868$GPGSV,2,2,07,28,46,075,46,29,24,056,42,31,66,048,47,,,,*43
###2023-12-09 13:13:27.994192$GLGSV,2,1,06,65,29,325,43,71,34,174,45,72,71,246,45,73,31,045,45*6D
###2023-12-09 13:13:27.995947$GLGSV,2,2,06,74,66,353,42,75,36,259,44,,,,,,,,*6A
###2023-12-09 13:13:27.998273$GAGSV,1,1,04,04,33,312,42,19,81,194,40,21,84,070,46,27,29,048,42*69
###2023-12-09 13:13:28.000610$GBGSV,2,1,06,14,38,192,45,24,70,034,49,25,44,267,46,26,22,065,44*61
###2023-12-09 13:13:28.002354$GBGSV,2,2,06,33,53,226,47,35,15,065,44,,,,,,,,*6F
