###2023-12-09 12:40:03.341271$GNGGA,174002.50,4138.0558860,N,07032.3812522,W,1,23,0.7,13.369,M,-29.744,M,0.0,*51
###2023-12-09 12:40:03.541501$GNGGA,174002.70,4138.0558943,N,07032.3812585,W,1,23,0.7,13.354,M,-29.744,M,0.0,*50
###2023-12-09 12:40:03.740720$GNGGA,174002.90,4138.0559094,N,07032.3812832,W,1,23,0.7,13.329,M,-29.744,M,0.0,*57
###2023-12-09 12:40:03.941020$GNRMC,174003.10,A,4138.0559346,N,07032.3813287,W,0.80,305.01,091223,,,A*52
###2023-12-09 12:40:03.943894$GNGGA,174003.10,4138.0559346,N,07032.3813287,W,1,23,0.7,13.342,M,-29.744,M,0.0,*5A
###2023-12-09 12:40:03.945748$GPGSA,A,3,03,04,16,26,28,29,31,32,,,,,1.2,0.7,1.0*31
###2023-12-09 12:40:03.947453$GLGSA,A,3,71,72,73,74,75,,,,,,,,1.2,0.7,1.0*2D
###2023-12-09 12:40:03.949067$GAGSA,A,3,04,19,21,27,,,,,,,,,1.2,0.7,1.0*2C
###2023-12-09 12:40:03.950735$GBGSA,A,3,14,24,25,26,33,,,,,,,,1.2,0.7,1.0*25
###2023-12-09 12:40:03.953076$GPGSV,2,1,08,03,38,274,41,04,24,311,41,16,39,208,40,26,69,207,45*76
###2023-12-09 12:40:03.955426$GPGSV,2,2,08,28,56,059,43,29,25,071,41,31,73,010,46,32,28,135,43*72
###2023-12-09 12:40:03.957767$GLGSV,2,1,05,71,54,170,46,72,68,305,47,73,45,035,46,74,71,299,43*6F
###2023-12-09 12:40:03.959239$GLGSV,2,2,05,75,24,243,39,,,,,,,,,,,,*5B
###2023-12-09 12:40:03.961569$GAGSV,1,1,04,04,22,311,39,19,82,296,40,21,79,174,45,27,40,049,43*6F
###2023-12-09 12:40:03.963913$GBGSV,2,1,05,14,53,197,42,24,80,355,46,25,34,254,41,26,33,058,42*61
###2023-12-09 12:40:03.965371$GBGSV,2,2,05,33,62,250,45,,,,,,,,,,,,*5C
###2023-12-09 12:40:03.966712$GNVTG,305.01,T,,M,0.80,N,1.48,K,A*21
###2023-12-09 12:40:03.968363$GNGST,174003.10,19.000,,,,0.079,0.070,0.170*50
###2023-12-09 12:40:03.969657$GNZDA,174003.10,09,12,2023,00,00*71
###2023-12-09 12:40:03.970296$GNEBP,,,,,,M*13
###2023-12-09 12:40:04.140821$GNGGA,174003.30,4138.0559543,N,07032.3813648,W,1,23,0.7,13.342,M,-29.744,M,0.0,*5C
###2023-12-09 12:40:04.341616$GNGGA,174003.50,4138.0559628,N,07032.3813722,W,1,23,0.7,13.357,M,-29.744,M,0.0,*5D
###2023-12-09 12:40:04.544151$GNGGA,174003.70,4138.0559732,N,07032.3813784,W,1,23,0.7,13.359,M,-29.744,M,0.0,*57
###2023-12-09 12:40:04.740783$GNGGA,174003.90,4138.0559919,N,07032.3814073,W,1,23,0.7,13.341,M,-29.744,M,0.0,*5F
###2023-12-09 12:40:04.942104$GNRMC,174004.10,A,4138.0560133,N,07032.3814464,W,0.68,305.01,091223,,,A*55
###2023-12-09 12:40:04.944983$GNGGA,174004.10,4138.0560133,N,07032.3814464,W,1,23,0.7,13.329,M,-29.744,M,0.0,*56
###2023-12-09 12:40:04.946858$GPGSA,A,3,03,04,16,26,28,29,31,32,,,,,1.2,0.7,1.0*31
###2023-12-09 12:40:04.948531$GLGSA,A,3,71,72,73,74,75,,,,,,,,1.2,0.7,1.0*2D
###2023-12-09 12:40:04.950120$GAGSA,A,3,04,19,21,27,,,,,,,,,1.2,0.7,1.0*2C
###2023-12-09 12:40:04.951788$GBGSA,A,3,14,24,25,26,33,,,,,,,,1.2,0.7,1.0*25
###2023-12-09 12:40:04.954131$GPGSV,2,1,08,03,38,274,41,04,24,311,40,16,39,208,41,26,69,207,46*75
###2023-12-09 12:40:04.956495$GPGSV,2,2,08,28,56,059,44,29,25,071,42,31,73,010,47,32,28,135,44*70
###2023-12-09 12:40:04.958850$GLGSV,2,1,05,71,54,170,47,72,68,305,46,73,45,035,46,74,71,299,42*6E
###2023-12-09 12:40:04.960313$GLGSV,2,2,05,75,24,243,39,,,,,,,,,,,,*5B
###2023-12-09 12:40:04.962658$GAGSV,1,1,04,04,22,311,41,19,82,296,41,21,79,174,46,27,40,049,44*65
###2023-12-09 12:40:04.964998$GBGSV,2,1,05,14,53,197,45,24,80,355,48,25,34,254,43,26,33,058,45*6D
###2023-12-09 12:40:04.966460$GBGSV,2,2,05,33,62,250,46,,,,,,,,,,,,*5F
###2023-12-09 12:40:04.967808$GNVTG,305.01,T,,M,0.68,N,1.26,K,A*2F
###2023-12-09 12:40:04.969461$GNGST,174004.10,19.000,,,,0.080,0.071,0.170*50
###2023-12-09 12:40:04.970769$GNZDA,174004.10,09,12,2023,00,00*76
###2023-12-09 12:40:04.971411$GNEBP,,,,,,M*13
###2023-12-09 12:40:05.140812$GNGGA,174004.30,4138.0560308,N,07032.3814760,W,1,23,0.7,13.322,M,-29.744,M,0.0,*52
###2023-12-09 12:40:05.341230$GNGGA,174004.50,4138.0560428,N,07032.3814925,W,1,23,0.7,13.330,M,-29.744,M,0.0,*5D
###2023-12-09 12:40:05.544156$GNGGA,174004.70,4138.0560574,N,07032.3815151,W,1,23,0.7,13.341,M,-29.744,M,0.0,*5B
###2023-12-09 12:40:05.741481$GNGGA,174004.90,4138.0560761,N,07032.3815456,W,1,23,0.7,13.337,M,-29.744,M,0.0,*50
###2023-12-09 12:40:05.942220$GNRMC,174005.10,A,4138.0560928,N,07032.3815669,W,0.33,305.01,091223,,,A*56
###2023-12-09 12:40:05.945132$GNGGA,174005.10,4138.0560928,N,07032.3815669,W,1,23,0.7,13.312,M,-29.744,M,0.0,*53
###2023-12-09 12:40:05.947040$GPGSA,A,3,03,04,16,26,28,29,31,32,,,,,1.2,0.7,1.0*31
###2023-12-09 12:40:05.948712$GLGSA,A,3,71,72,73,74,75,,,,,,,,1.2,0.7,1.0*2D
###2023-12-09 12:40:05.950300$GAGSA,A,3,04,19,21,27,,,,,,,,,1.2,0.7,1.0*2C
###2023-12-09 12:40:05.951975$GBGSA,A,3,14,24,25,26,33,,,,,,,,1.2,0.7,1.0*25
###2023-12-09 12:40:05.954316$GPGSV,2,1,08,03,38,274,44,04,24,311,40,16,39,208,41,26,69,207,46*70
###2023-12-09 12:40:05.956670$GPGSV,2,2,08,28,56,059,44,29,25,071,42,31,73,010,47,32,28,135,45*71
###2023-12-09 12:40:05.959027$GLGSV,2,1,05,71,54,170,47,72,68,305,46,73,45,035,46,74,71,299,43*6F
###2023-12-09 12:40:05.960491$GLGSV,2,2,05,75,24,243,40,,,,,,,,,,,,*55
###2023-12-09 12:40:05.962843$GAGSV,1,1,04,04,22,311,40,19,82,296,41,21,79,174,46,27,40,049,44*64
###2023-12-09 12:40:05.965187$GBGSV,2,1,05,14,53,197,45,24,80,355,48,25,34,254,43,26,33,058,46*6E
###2023-12-09 12:40:05.966655$GBGSV,2,2,05,33,62,250,47,,,,,,,,,,,,*5E
###2023-12-09 12:40:05.967988$GNVTG,305.01,T,,M,0.33,N,0.61,K,A*23
###2023-12-09 12:40:05.969642$GNGST,174005.10,19.000,,,,0.080,0.071,0.170*51
###2023-12-09 12:40:05.970950$GNZDA,174005.10,09,12,2023,00,00*77
###2023-12-09 12:40:05.971592$GNEBP,,,,,,M*13
###2023-12-09 12:40:06.141769$GNGGA,174005.30,4138.0561043,N,07032.3815843,W,1,23,0.7,13.295,M,-29.744,M,0.0,*5C
###2023-12-09 12:40:06.340655$GNGGA,174005.50,4138.0561198,N,07032.3816132,W,1,23,0.7,13.305,M,-29.744,M,0.0,*59
###2023-12-09 12:40:06.541453$GNGGA,174005.70,4138.0561428,N,07032.3816529,W,1,23,0.7,13.325,M,-29.744,M,0.0,*59
###2023-12-09 12:40:06.740712$GNGGA,174005.90,4138.0561621,N,07032.3816828,W,1,23,0.7,13.323,M,-29.744,M,0.0,*56
###2023-12-09 12:40:06.942888$GNRMC,174006.10,A,4138.0561682,N,07032.3816875,W,0.06,305.01,091223,,,A*5D
###2023-12-09 12:40:06.945742$GNGGA,174006.10,4138.0561682,N,07032.3816875,W,1,23,0.7,13.295,M,-29.744,M,0.0,*50
###2023-12-09 12:40:06.947639$GPGSA,A,3,03,04,16,26,28,29,31,32,,,,,1.2,0.7,1.0*31
###2023-12-09 12:40:06.949313$GLGSA,A,3,71,72,73,74,75,,,,,,,,1.2,0.7,1.0*2D
###2023-12-09 12:40:06.950921$GAGSA,A,3,04,19,21,27,,,,,,,,,1.2,0.7,1.0*2C
###2023-12-09 12:40:06.952570$GBGSA,A,3,14,24,25,26,33,,,,,,,,1.2,0.7,1.0*25
###2023-12-09 12:40:06.954919$GPGSV,2,1,08,03,38,274,44,04,24,311,42,16,39,208,42,26,69,207,46*71
###2023-12-09 12:40:06.957255$GPGSV,2,2,08,28,56,059,44,29,25,071,42,31,73,010,47,32,28,135,45*71
###2023-12-09 12:40:06.959606$GLGSV,2,1,05,71,54,170,47,72,68,305,47,73,45,035,46,74,71,299,43*6E
###2023-12-09 12:40:06.961103$GLGSV,2,2,05,75,24,243,40,,,,,,,,,,,,*55
###2023-12-09 12:40:06.963440$GAGSV,1,1,04,04,22,311,41,19,82,296,41,21,79,174,46,27,40,049,44*65
###2023-12-09 12:40:06.965767$GBGSV,2,1,05,14,53,197,45,24,80,355,49,25,34,254,44,26,33,058,47*69
###2023-12-09 12:40:06.967236$GBGSV,2,2,05,33,62,250,48,,,,,,,,,,,,*51
###2023-12-09 12:40:06.968564$GNVTG,305.01,T,,M,0.06,N,0.11,K,A*22
###2023-12-09 12:40:06.970221$GNGST,174006.10,18.000,,,,0.080,0.070,0.170*52
###2023-12-09 12:40:06.971529$GNZDA,174006.10,09,12,2023,00,00*74
###2023-12-09 12:40:06.972171$GNEBP,,,,,,M*13
###2023-12-09 12:40:07.141161$GNGGA,174006.30,4138.0561699,N,07032.3816911,W,1,23,0.7,13.274,M,-29.744,M,0.0,*54
###2023-12-09 12:40:07.342314$GNGGA,174006.50,4138.0561915,N,07032.3817305,W,1,23,0.7,13.289,M,-29.744,M,0.0,*55
###2023-12-09 12:40:07.541536$GNGGA,174006.70,4138.0562236,N,07032.3817864,W,1,23,0.7,13.304,M,-29.744,M,0.0,*56
###2023-12-09 12:40:07.740621$GNGGA,174006.90,4138.0562397,N,07032.3818122,W,1,23,0.7,13.306,M,-29.744,M,0.0,*54
###2023-12-09 12:40:07.942809$GNRMC,174007.10,A,4138.0562373,N,07032.3818010,W,0.25,307.14,091223,,,A*56
###2023-12-09 12:40:07.945673$GNGGA,174007.10,4138.0562373,N,07032.3818010,W,1,23,0.7,13.290,M,-29.744,M,0.0,*59
###2023-12-09 12:40:07.947566$GPGSA,A,3,03,04,16,26,28,29,31,32,,,,,1.2,0.7,1.0*31
###2023-12-09 12:40:07.949488$GLGSA,A,3,71,72,73,74,75,,,,,,,,1.2,0.7,1.0*2D
###2023-12-09 12:40:07.951103$GAGSA,A,3,04,19,21,27,,,,,,,,,1.2,0.7,1.0*2C
###2023-12-09 12:40:07.952755$GBGSA,A,3,14,24,25,26,33,,,,,,,,1.2,0.7,1.0*25
###2023-12-09 12:40:07.955104$GPGSV,2,1,08,03,38,274,43,04,24,311,41,16,39,208,42,26,69,207,47*74
###2023-12-09 12:40:07.957442$GPGSV,2,2,08,28,56,059,45,29,25,071,43,31,73,010,47,32,28,135,45*71
###2023-12-09 12:40:07.959780$GLGSV,2,1,05,71,54,170,47,72,68,305,47,73,45,035,46,74,71,299,44*69
###2023-12-09 12:40:07.961233$GLGSV,2,2,05,75,24,243,40,,,,,,,,,,,,*55
###2023-12-09 12:40:07.963563$GAGSV,1,1,04,04,22,311,41,19,82,296,41,21,79,174,45,27,40,049,44*66
###2023-12-09 12:40:07.965886$GBGSV,2,1,05,14,53,197,44,24,80,355,48,25,34,254,43,26,33,058,45*6C
###2023-12-09 12:40:07.967356$GBGSV,2,2,05,33,62,250,47,,,,,,,,,,,,*5E
