###2023-12-09 13:13:47.006947$GNGST,181346.10,18.000,,,,0.096,0.072,0.170*5A
###2023-12-09 13:13:47.008261$GNZDA,181346.10,09,12,2023,00,00*79
###2023-12-09 13:13:47.008906$GNEBP,,,,,,M*13
###2023-12-09 13:13:47.174515$GNGGA,181346.30,4138.0442407,N,07032.2783645,W,1,24,0.7,12.859,M,-29.743,M,0.0,*54
###2023-12-09 13:13:47.374673$GNGGA,181346.50,4138.0442463,N,07032.2786288,W,1,24,0.7,12.884,M,-29.743,M,0.0,*50
###2023-12-09 13:13:47.575642$GNGGA,181346.70,4138.0442747,N,07032.2789068,W,1,24,0.7,12.911,M,-29.743,M,0.0,*59
###2023-12-09 13:13:47.774470$GNGGA,181346.90,4138.0442626,N,07032.2791790,W,1,24,0.7,12.897,M,-29.743,M,0.0,*57
###2023-12-09 13:13:47.977927$GNRMC,181347.10,A,4138.0442415,N,07032.2794478,W,3.65,266.92,091223,,,A*50
###2023-12-09 13:13:47.980820$GNGGA,181347.10,4138.0442415,N,07032.2794478,W,1,24,0.7,12.916,M,-29.743,M,0.0,*54
###2023-12-09 13:13:47.982629$GPGSA,A,3,03,04,16,26,28,29,31,,,,,,1.2,0.7,1.0*30
###2023-12-09 13:13:47.984342$GLGSA,A,3,65,71,72,73,74,75,,,,,,,1.2,0.7,1.0*2E
###2023-12-09 13:13:47.985924$GAGSA,A,3,04,19,21,27,,,,,,,,,1.2,0.7,1.0*2C
###2023-12-09 13:13:47.987650$GBGSA,A,3,14,24,25,26,33,35,,,,,,,1.2,0.7,1.0*23
###2023-12-09 13:13:47.989975$GPGSV,2,1,07,03,32,255,40,04,38,311,41,16,56,215,44,26,86,209,47*70
###2023-12-09 13:13:47.992037$GPGSV,2,2,07,28,45,076,44,29,24,055,41,31,65,050,46,,,,*4A
###2023-12-09 13:13:47.994375$GLGSV,2,1,06,65,29,325,41,71,34,174,45,72,71,246,45,73,31,045,44*6E
###2023-12-09 13:13:47.996138$GLGSV,2,2,06,74,66,353,43,75,36,259,42,,,,,,,,*6D
###2023-12-09 13:13:47.998463$GAGSV,1,1,04,04,33,312,40,19,81,194,39,21,84,070,46,27,29,048,41*66
###2023-12-09 13:13:48.000801$GBGSV,2,1,06,14,38,192,43,24,70,034,48,25,44,267,44,26,22,065,44*64
###2023-12-09 13:13:48.002548$GBGSV,2,2,06,33,53,226,48,35,15,065,44,,,,,,,,*60
###2023-12-09 13:13:48.003887$GNVTG,266.92,T,,M,3.65,N,6.77,K,A*2C
###2023-12-09 13:13:48.005542$GNGST,181347.10,18.000,,,,0.096,0.073,0.170*5A
###2023-12-09 13:13:48.006876$GNZDA,181347.10,09,12,2023,00,00*78
###2023-12-09 13:13:48.007521$GNEBP,,,,,,M*13
###2023-12-09 13:13:48.174464$GNGGA,181347.30,4138.0442498,N,07032.2797253,W,1,24,0.7,12.926,M,-29.743,M,0.0,*5C
###2023-12-09 13:13:48.374643$GNGGA,181347.50,4138.0442748,N,07032.2800001,W,1,24,0.7,12.914,M,-29.743,M,0.0,*51
###2023-12-09 13:13:48.575644$GNGGA,181347.70,4138.0443051,N,07032.2802621,W,1,24,0.7,12.917,M,-29.743,M,0.0,*58
###2023-12-09 13:13:48.775477$GNGGA,181347.90,4138.0443264,N,07032.2805178,W,1,24,0.7,12.932,M,-29.743,M,0.0,*59
###2023-12-09 13:13:48.978755$GNRMC,181348.10,A,4138.0443457,N,07032.2807691,W,3.36,278.62,091223,,,A*5E
###2023-12-09 13:13:48.981627$GNGGA,181348.10,4138.0443457,N,07032.2807691,W,1,24,0.7,12.920,M,-29.743,M,0.0,*59
###2023-12-09 13:13:48.983442$GPGSA,A,3,03,04,16,26,28,29,31,,,,,,1.2,0.7,1.0*30
###2023-12-09 13:13:48.985161$GLGSA,A,3,65,71,72,73,74,75,,,,,,,1.2,0.7,1.0*2E
###2023-12-09 13:13:48.986759$GAGSA,A,3,04,19,21,27,,,,,,,,,1.2,0.7,1.0*2C
###2023-12-09 13:13:48.988470$GBGSA,A,3,14,24,25,26,33,35,,,,,,,1.2,0.7,1.0*23
###2023-12-09 13:13:48.990810$GPGSV,2,1,07,03,32,255,40,04,38,311,41,16,56,215,45,26,86,209,47*71
###2023-12-09 13:13:48.992854$GPGSV,2,2,07,28,45,076,44,29,24,055,41,31,65,050,47,,,,*4B
###2023-12-09 13:13:48.995196$GLGSV,2,1,06,65,29,325,38,71,34,174,46,72,71,246,45,73,31,045,44*63
###2023-12-09 13:13:48.996956$GLGSV,2,2,06,74,66,353,42,75,36,259,41,,,,,,,,*6F
###2023-12-09 13:13:48.999304$GAGSV,1,1,04,04,33,312,40,19,81,194,40,21,84,070,46,27,29,048,40*69
###2023-12-09 13:13:49.001644$GBGSV,2,1,06,14,38,192,45,24,70,034,48,25,44,267,44,26,22,065,40*66
###2023-12-09 13:13:49.003412$GBGSV,2,2,06,33,53,226,47,35,15,065,41,,,,,,,,*6A
###2023-12-09 13:13:49.004736$GNVTG,278.62,T,,M,3.36,N,6.23,K,A*2B
###2023-12-09 13:13:49.006377$GNGST,181348.10,18.000,,,,0.097,0.073,0.170*54
###2023-12-09 13:13:49.007678$GNZDA,181348.10,09,12,2023,00,00*77
###2023-12-09 13:13:49.008321$GNEBP,,,,,,M*13
###2023-12-09 13:13:49.174454$GNGGA,181348.30,4138.0443867,N,07032.2810090,W,1,24,0.7,12.930,M,-29.743,M,0.0,*54
###2023-12-09 13:13:49.376447$GNGGA,181348.50,4138.0444450,N,07032.2812431,W,1,24,0.7,12.952,M,-29.743,M,0.0,*54
###2023-12-09 13:13:49.577117$GNGGA,181348.70,4138.0444956,N,07032.2814799,W,1,24,0.7,12.960,M,-29.743,M,0.0,*5B
###2023-12-09 13:13:49.775370$GNGGA,181348.90,4138.0445462,N,07032.2817203,W,1,24,0.7,12.961,M,-29.743,M,0.0,*5A
###2023-12-09 13:13:49.980004$GNRMC,181349.10,A,4138.0446021,N,07032.2819673,W,3.60,287.62,091223,,,A*5F
###2023-12-09 13:13:49.982879$GNGGA,181349.10,4138.0446021,N,07032.2819673,W,1,24,0.7,12.964,M,-29.743,M,0.0,*5B
###2023-12-09 13:13:49.984670$GPGSA,A,3,03,04,16,26,28,29,31,,,,,,1.2,0.7,1.0*30
###2023-12-09 13:13:49.986378$GLGSA,A,3,65,71,72,73,74,75,,,,,,,1.2,0.7,1.0*2E
###2023-12-09 13:13:49.987980$GAGSA,A,3,04,19,21,27,,,,,,,,,1.2,0.7,1.0*2C
###2023-12-09 13:13:49.989692$GBGSA,A,3,14,24,25,26,33,35,,,,,,,1.2,0.7,1.0*23
###2023-12-09 13:13:49.992037$GPGSV,2,1,07,03,32,255,40,04,38,311,43,16,56,215,46,26,86,209,48*7F
###2023-12-09 13:13:49.994074$GPGSV,2,2,07,28,45,076,44,29,24,055,41,31,65,050,47,,,,*4B
###2023-12-09 13:13:49.996418$GLGSV,2,1,06,65,29,325,40,71,34,174,45,72,71,246,45,73,31,045,42*69
###2023-12-09 13:13:49.998169$GLGSV,2,2,06,74,66,353,42,75,36,259,43,,,,,,,,*6D
###2023-12-09 13:13:50.000524$GAGSV,1,1,04,04,33,312,40,19,81,194,41,21,84,070,46,27,29,048,40*68
###2023-12-09 13:13:50.002870$GBGSV,2,1,06,14,38,192,46,24,70,034,49,25,44,267,45,26,22,065,41*64
###2023-12-09 13:13:50.004623$GBGSV,2,2,06,33,53,226,48,35,15,065,42,,,,,,,,*66
###2023-12-09 13:13:50.005946$GNVTG,287.62,T,,M,3.60,N,6.66,K,A*29
###2023-12-09 13:13:50.007600$GNGST,181349.10,18.000,,,,0.097,0.074,0.170*52
###2023-12-09 13:13:50.008883$GNZDA,181349.10,09,12,2023,00,00*76
###2023-12-09 13:13:50.009522$GNEBP,,,,,,M*13
###2023-12-09 13:13:50.176637$GNGGA,181349.30,4138.0446618,N,07032.2822220,W,1,24,0.7,12.967,M,-29.743,M,0.0,*5C
###2023-12-09 13:13:50.374680$GNGGA,181349.50,4138.0447110,N,07032.2824817,W,1,24,0.7,12.973,M,-29.743,M,0.0,*59
###2023-12-09 13:13:50.576429$GNGGA,181349.70,4138.0447525,N,07032.2827458,W,1,24,0.7,12.983,M,-29.743,M,0.0,*52
###2023-12-09 13:13:50.775478$GNGGA,181349.90,4138.0447901,N,07032.2830113,W,1,24,0.7,12.980,M,-29.743,M,0.0,*59
###2023-12-09 13:13:50.979019$GNRMC,181350.10,A,4138.0448322,N,07032.2832743,W,3.65,282.63,091223,,,A*53
###2023-12-09 13:13:50.981884$GNGGA,181350.10,4138.0448322,N,07032.2832743,W,1,24,0.7,12.978,M,-29.743,M,0.0,*5B
###2023-12-09 13:13:50.983702$GPGSA,A,3,03,04,16,26,28,29,31,,,,,,1.2,0.7,1.0*30
###2023-12-09 13:13:50.985435$GLGSA,A,3,65,71,72,73,74,75,,,,,,,1.2,0.7,1.0*2E
###2023-12-09 13:13:50.987042$GAGSA,A,3,04,19,21,27,,,,,,,,,1.2,0.7,1.0*2C
###2023-12-09 13:13:50.988750$GBGSA,A,3,14,24,25,26,33,35,,,,,,,1.2,0.7,1.0*23
###2023-12-09 13:13:50.991098$GPGSV,2,1,07,03,32,255,40,04,38,311,41,16,56,215,45,26,86,209,47*71
###2023-12-09 13:13:50.993134$GPGSV,2,2,07,28,45,076,45,29,24,055,41,31,65,050,47,,,,*4A
###2023-12-09 13:13:50.995473$GLGSV,2,1,06,65,29,325,40,71,34,174,46,72,71,246,45,73,31,045,41*69
###2023-12-09 13:13:50.997217$GLGSV,2,2,06,74,66,353,42,75,36,259,42,,,,,,,,*6C
###2023-12-09 13:13:50.999555$GAGSV,1,1,04,04,33,312,39,19,81,194,40,21,84,070,46,27,29,048,40*67
###2023-12-09 13:13:51.001880$GBGSV,2,1,06,14,38,192,45,24,70,034,49,25,44,267,44,26,22,065,41*66
###2023-12-09 13:13:51.003634$GBGSV,2,2,06,33,53,226,48,35,15,065,43,,,,,,,,*67
###2023-12-09 13:13:51.004961$GNVTG,282.63,T,,M,3.65,N,6.77,K,A*28
###2023-12-09 13:13:51.006618$GNGST,181350.10,18.000,,,,0.097,0.074,0.170*5A
###2023-12-09 13:13:51.007909$GNZDA,181350.10,09,12,2023,00,00*7E
###2023-12-09 13:13:51.008547$GNEBP,,,,,,M*13
###2023-12-09 13:13:51.178304$GNGGA,181350.30,4138.0448787,N,07032.2835353,W,1,24,0.7,12.976,M,-29.743,M,0.0,*5E
###2023-12-09 13:13:51.374777$GNGGA,181350.50,4138.0449205,N,07032.2837967,W,1,24,0.7,12.979,M,-29.743,M,0.0,*56
###2023-12-09 13:13:51.575288$GNGGA,181350.70,4138.0449613,N,07032.2840608,W,1,24,0.7,12.983,M,-29.743,M,0.0,*54
###2023-12-09 13:13:51.774393$GNGGA,181350.90,4138.0450044,N,07032.2843267,W,1,24,0.7,12.991,M,-29.743,M,0.0,*5B
###2023-12-09 13:13:51.978679$GNRMC,181351.10,A,4138.0450430,N,07032.2845968,W,3.69,278.97,091223,,,A*5A
###2023-12-09 13:13:51.981544$GNGGA,181351.10,4138.0450430,N,07032.2845968,W,1,24,0.7,12.994,M,-29.743,M,0.0,*52
###2023-12-09 13:13:51.983354$GPGSA,A,3,03,04,16,26,28,29,31,,,,,,1.2,0.7,1.0*30
###2023-12-09 13:13:51.985071$GLGSA,A,3,65,71,72,73,74,75,,,,,,,1.2,0.7,1.0*2E
###2023-12-09 13:13:51.986669$GAGSA,A,3,04,19,21,27,,,,,,,,,1.2,0.7,1.0*2C
###2023-12-09 13:13:51.988392$GBGSA,A,3,14,24,25,26,33,35,,,,,,,1.2,0.7,1.0*23
###2023-12-09 13:13:51.990777$GPGSV,2,1,07,03,32,255,40,04,38,311,42,16,56,215,45,26,86,209,47*72
###2023-12-09 13:13:51.992820$GPGSV,2,2,07,28,45,076,45,29,24,055,40,31,65,050,47,,,,*4B
###2023-12-09 13:13:51.995157$GLGSV,2,1,06,65,29,325,40,71,34,174,45,72,71,246,45,73,31,045,43*68
