###2023-12-09 12:47:59.954402$GNGGA,174759.10,4138.0530677,N,07032.4005008,W,1,24,0.6,13.407,M,-29.745,M,0.0,*56
###2023-12-09 12:47:59.956754$GPGSA,A,3,03,04,16,26,28,29,31,32,,,,,1.1,0.6,0.9*3B
###2023-12-09 12:47:59.958866$GLGSA,A,3,65,71,72,73,74,75,,,,,,,1.1,0.6,0.9*24
###2023-12-09 12:47:59.960795$GAGSA,A,3,04,19,21,27,,,,,,,,,1.1,0.6,0.9*26
###2023-12-09 12:47:59.962816$GBGSA,A,3,14,24,25,26,33,,,,,,,,1.1,0.6,0.9*2F
###2023-12-09 12:47:59.965641$GPGSV,2,1,08,03,37,269,42,04,27,311,42,16,43,209,44,26,73,208,48*77
###2023-12-09 12:47:59.968496$GPGSV,2,2,08,28,53,064,44,29,26,067,40,31,71,021,46,32,24,137,43*75
###2023-12-09 12:47:59.971339$GLGSV,2,1,06,65,17,329,44,71,49,171,47,72,70,294,46,73,42,037,44*6B
###2023-12-09 12:47:59.973455$GLGSV,2,2,06,74,71,314,43,75,27,246,44,,,,,,,,*60
###2023-12-09 12:47:59.976288$GAGSV,1,1,04,04,24,312,42,19,84,276,40,21,82,165,46,27,38,049,41*64
###2023-12-09 12:47:59.979138$GBGSV,2,1,05,14,50,195,45,24,78,008,48,25,36,257,46,26,31,060,43*6B
###2023-12-09 12:47:59.980901$GBGSV,2,2,05,33,61,243,47,,,,,,,,,,,,*5F
###2023-12-09 12:47:59.982497$GNVTG,321.46,T,,M,0.84,N,1.55,K,A*2C
###2023-12-09 12:47:59.984489$GNGST,174759.10,18.000,,,,0.075,0.068,0.160*5D
###2023-12-09 12:47:59.986051$GNZDA,174759.10,09,12,2023,00,00*79
###2023-12-09 12:47:59.986871$GNEBP,,,,,,M*13
###2023-12-09 12:48:00.147564$GNGGA,174759.30,4138.0530889,N,07032.4005265,W,1,24,0.6,13.418,M,-29.745,M,0.0,*5C
###2023-12-09 12:48:00.353678$GNGGA,174759.50,4138.0530957,N,07032.4005329,W,1,24,0.6,13.452,M,-29.745,M,0.0,*5F
###2023-12-09 12:48:00.551218$GNGGA,174759.70,4138.0531072,N,07032.4005426,W,1,24,0.6,13.457,M,-29.745,M,0.0,*5F
###2023-12-09 12:48:00.746745$GNGGA,174759.90,4138.0531297,N,07032.4005678,W,1,24,0.6,13.440,M,-29.745,M,0.0,*57
###2023-12-09 12:48:00.947687$GNRMC,174800.10,A,4138.0531582,N,07032.4006011,W,0.74,321.46,091223,,,A*51
###2023-12-09 12:48:00.950538$GNGGA,174800.10,4138.0531582,N,07032.4006011,W,1,24,0.6,13.426,M,-29.745,M,0.0,*55
###2023-12-09 12:48:00.952405$GPGSA,A,3,03,04,16,26,28,29,31,32,,,,,1.1,0.6,0.9*3B
###2023-12-09 12:48:00.954118$GLGSA,A,3,65,71,72,73,74,75,,,,,,,1.1,0.6,0.9*24
###2023-12-09 12:48:00.955724$GAGSA,A,3,04,19,21,27,,,,,,,,,1.1,0.6,0.9*26
###2023-12-09 12:48:00.957375$GBGSA,A,3,14,24,25,26,33,,,,,,,,1.1,0.6,0.9*2F
###2023-12-09 12:48:00.959722$GPGSV,2,1,08,03,37,269,43,04,27,311,42,16,43,209,45,26,73,208,48*77
###2023-12-09 12:48:00.962064$GPGSV,2,2,08,28,53,064,44,29,26,067,40,31,71,021,46,32,24,137,45*73
###2023-12-09 12:48:00.964419$GLGSV,2,1,06,65,17,329,43,71,49,171,48,72,70,294,46,73,42,037,44*63
###2023-12-09 12:48:00.966168$GLGSV,2,2,06,74,71,314,43,75,27,246,44,,,,,,,,*60
###2023-12-09 12:48:00.968511$GAGSV,1,1,04,04,24,312,41,19,84,276,40,21,82,165,46,27,38,049,42*64
###2023-12-09 12:48:00.970861$GBGSV,2,1,05,14,50,195,45,24,78,008,48,25,36,257,46,26,31,060,45*6D
###2023-12-09 12:48:00.972316$GBGSV,2,2,05,33,61,243,47,,,,,,,,,,,,*5F
###2023-12-09 12:48:00.973642$GNVTG,321.46,T,,M,0.74,N,1.37,K,A*27
###2023-12-09 12:48:00.975296$GNGST,174800.10,18.000,,,,0.075,0.068,0.160*5E
###2023-12-09 12:48:00.976590$GNZDA,174800.10,09,12,2023,00,00*7A
###2023-12-09 12:48:00.977227$GNEBP,,,,,,M*13
###2023-12-09 12:48:01.145907$GNGGA,174800.30,4138.0531849,N,07032.4006306,W,1,24,0.6,13.426,M,-29.745,M,0.0,*58
###2023-12-09 12:48:01.346969$GNGGA,174800.50,4138.0531984,N,07032.4006479,W,1,24,0.6,13.453,M,-29.745,M,0.0,*53
###2023-12-09 12:48:01.546970$GNGGA,174800.70,4138.0532096,N,07032.4006600,W,1,24,0.6,13.474,M,-29.745,M,0.0,*51
###2023-12-09 12:48:01.746690$GNGGA,174800.90,4138.0532253,N,07032.4006776,W,1,24,0.6,13.467,M,-29.745,M,0.0,*56
###2023-12-09 12:48:01.946618$GNRMC,174801.10,A,4138.0532484,N,07032.4007033,W,0.62,321.46,091223,,,A*52
###2023-12-09 12:48:01.949500$GNGGA,174801.10,4138.0532484,N,07032.4007033,W,1,24,0.6,13.456,M,-29.745,M,0.0,*56
###2023-12-09 12:48:01.951381$GPGSA,A,3,03,04,16,26,28,29,31,32,,,,,1.1,0.6,0.9*3B
###2023-12-09 12:48:01.953105$GLGSA,A,3,65,71,72,73,74,75,,,,,,,1.1,0.6,0.9*24
###2023-12-09 12:48:01.954696$GAGSA,A,3,04,19,21,27,,,,,,,,,1.1,0.6,0.9*26
###2023-12-09 12:48:01.956342$GBGSA,A,3,14,24,25,26,33,,,,,,,,1.1,0.6,0.9*2F
###2023-12-09 12:48:01.958688$GPGSV,2,1,08,03,37,269,42,04,27,311,41,16,43,209,45,26,73,208,48*75
###2023-12-09 12:48:01.961023$GPGSV,2,2,08,28,53,064,44,29,26,067,40,31,71,021,46,32,24,137,45*73
###2023-12-09 12:48:01.963373$GLGSV,2,1,06,65,17,329,43,71,49,171,49,72,70,294,46,73,42,037,45*63
###2023-12-09 12:48:01.965120$GLGSV,2,2,06,74,71,314,43,75,27,246,45,,,,,,,,*61
###2023-12-09 12:48:01.967469$GAGSV,1,1,04,04,24,312,41,19,84,276,40,21,82,165,46,27,38,049,42*64
###2023-12-09 12:48:01.969799$GBGSV,2,1,05,14,50,195,45,24,78,008,48,25,36,257,46,26,31,060,45*6D
###2023-12-09 12:48:01.971263$GBGSV,2,2,05,33,61,243,46,,,,,,,,,,,,*5E
###2023-12-09 12:48:01.972584$GNVTG,321.46,T,,M,0.62,N,1.15,K,A*20
###2023-12-09 12:48:01.974227$GNGST,174801.10,18.000,,,,0.076,0.068,0.160*5C
###2023-12-09 12:48:01.975532$GNZDA,174801.10,09,12,2023,00,00*7B
###2023-12-09 12:48:01.976169$GNEBP,,,,,,M*13
###2023-12-09 12:48:02.146202$GNGGA,174801.30,4138.0532783,N,07032.4007366,W,1,24,0.6,13.455,M,-29.745,M,0.0,*50
###2023-12-09 12:48:02.347076$GNGGA,174801.50,4138.0532998,N,07032.4007635,W,1,24,0.6,13.465,M,-29.745,M,0.0,*52
###2023-12-09 12:48:02.549130$GNGGA,174801.70,4138.0533111,N,07032.4007764,W,1,24,0.6,13.488,M,-29.745,M,0.0,*5E
###2023-12-09 12:48:02.746909$GNGGA,174801.90,4138.0533216,N,07032.4007876,W,1,24,0.6,13.486,M,-29.745,M,0.0,*56
###2023-12-09 12:48:02.946620$GNRMC,174802.10,A,4138.0533437,N,07032.4008113,W,0.62,321.46,091223,,,A*54
###2023-12-09 12:48:02.949517$GNGGA,174802.10,4138.0533437,N,07032.4008113,W,1,24,0.6,13.477,M,-29.745,M,0.0,*53
###2023-12-09 12:48:02.951420$GPGSA,A,3,03,04,16,26,28,29,31,32,,,,,1.1,0.6,0.9*3B
###2023-12-09 12:48:02.953140$GLGSA,A,3,65,71,72,73,74,75,,,,,,,1.1,0.6,0.9*24
###2023-12-09 12:48:02.954748$GAGSA,A,3,04,19,21,27,,,,,,,,,1.1,0.6,0.9*26
###2023-12-09 12:48:02.956400$GBGSA,A,3,14,24,25,26,33,,,,,,,,1.1,0.6,0.9*2F
###2023-12-09 12:48:02.958757$GPGSV,2,1,08,03,37,269,41,04,27,311,41,16,43,209,45,26,73,208,49*77
###2023-12-09 12:48:02.961105$GPGSV,2,2,08,28,53,064,44,29,26,067,41,31,71,021,46,32,24,137,44*73
###2023-12-09 12:48:02.963470$GLGSV,2,1,06,65,17,329,42,71,49,171,49,72,70,294,46,73,42,037,43*64
###2023-12-09 12:48:02.965234$GLGSV,2,2,06,74,71,314,43,75,27,246,45,,,,,,,,*61
###2023-12-09 12:48:02.967589$GAGSV,1,1,04,04,24,312,41,19,84,276,40,21,82,165,46,27,38,049,42*64
###2023-12-09 12:48:02.969928$GBGSV,2,1,05,14,50,195,45,24,78,008,48,25,36,257,45,26,31,060,45*6E
###2023-12-09 12:48:02.971402$GBGSV,2,2,05,33,61,243,47,,,,,,,,,,,,*5F
###2023-12-09 12:48:02.972730$GNVTG,321.46,T,,M,0.62,N,1.15,K,A*20
###2023-12-09 12:48:02.974374$GNGST,174802.10,18.000,,,,0.076,0.068,0.160*5F
###2023-12-09 12:48:02.975681$GNZDA,174802.10,09,12,2023,00,00*78
###2023-12-09 12:48:02.976321$GNEBP,,,,,,M*13
###2023-12-09 12:48:03.146280$GNGGA,174802.30,4138.0533724,N,07032.4008441,W,1,24,0.6,13.471,M,-29.745,M,0.0,*54
###2023-12-09 12:48:03.346728$GNGGA,174802.50,4138.0533981,N,07032.4008749,W,1,24,0.6,13.471,M,-29.745,M,0.0,*58
###2023-12-09 12:48:03.548457$GNGGA,174802.70,4138.0534123,N,07032.4008927,W,1,24,0.6,13.487,M,-29.745,M,0.0,*52
###2023-12-09 12:48:03.746585$GNGGA,174802.90,4138.0534312,N,07032.4009137,W,1,24,0.6,13.498,M,-29.745,M,0.0,*5A
###2023-12-09 12:48:03.947598$GNRMC,174803.10,A,4138.0534557,N,07032.4009371,W,0.47,321.46,091223,,,A*55
###2023-12-09 12:48:03.950475$GNGGA,174803.10,4138.0534557,N,07032.4009371,W,1,24,0.6,13.493,M,-29.745,M,0.0,*5F
###2023-12-09 12:48:03.952366$GPGSA,A,3,03,04,16,26,28,29,31,32,,,,,1.1,0.6,0.9*3B
###2023-12-09 12:48:03.954094$GLGSA,A,3,65,71,72,73,74,75,,,,,,,1.1,0.6,0.9*24
###2023-12-09 12:48:03.955710$GAGSA,A,3,04,19,21,27,,,,,,,,,1.1,0.6,0.9*26
###2023-12-09 12:48:03.957368$GBGSA,A,3,14,24,25,26,33,,,,,,,,1.1,0.6,0.9*2F
###2023-12-09 12:48:03.959723$GPGSV,2,1,08,03,37,269,43,04,27,311,42,16,43,209,44,26,73,208,48*76
###2023-12-09 12:48:03.962076$GPGSV,2,2,08,28,53,064,44,29,26,067,40,31,71,021,46,32,24,137,43*75
###2023-12-09 12:48:03.964720$GLGSV,2,1,06,65,17,329,44,71,49,171,48,72,70,294,46,73,42,037,44*64
###2023-12-09 12:48:03.966493$GLGSV,2,2,06,74,71,314,43,75,27,246,45,,,,,,,,*61
###2023-12-09 12:48:03.968863$GAGSV,1,1,04,04,25,312,42,19,84,276,41,21,82,165,46,27,38,049,42*67
###2023-12-09 12:48:03.971243$GBGSV,2,1,05,14,50,195,44,24,78,008,48,25,36,257,45,26,31,060,45*6F
###2023-12-09 12:48:03.972714$GBGSV,2,2,05,33,61,243,48,,,,,,,,,,,,*50
###2023-12-09 12:48:03.974045$GNVTG,321.46,T,,M,0.47,N,0.86,K,A*2C
###2023-12-09 12:48:03.975711$GNGST,174803.10,18.000,,,,0.076,0.068,0.160*5E
###2023-12-09 12:48:03.977009$GNZDA,174803.10,09,12,2023,00,00*79
###2023-12-09 12:48:03.977653$GNEBP,,,,,,M*13
