###2023-12-09 12:37:25.966926$GNZDA,173725.10,09,12,2023,00,00*75
###2023-12-09 12:37:25.967588$GNEBP,,,,,,M*13
###2023-12-09 12:37:26.136142$GNGGA,173725.30,4138.0623436,N,07032.3767600,W,1,23,0.7,13.297,M,-29.744,M,0.0,*5C
###2023-12-09 12:37:26.337225$GNGGA,173725.50,4138.0623616,N,07032.3769212,W,1,23,0.7,13.298,M,-29.744,M,0.0,*5C
###2023-12-09 12:37:26.537543$GNGGA,173725.70,4138.0623840,N,07032.3770774,W,1,23,0.7,13.298,M,-29.744,M,0.0,*5E
###2023-12-09 12:37:26.736628$GNGGA,173725.90,4138.0624087,N,07032.3772270,W,1,23,0.7,13.294,M,-29.744,M,0.0,*5B
###2023-12-09 12:37:26.937119$GNRMC,173726.10,A,4138.0624324,N,07032.3773719,W,1.96,282.73,091223,,,A*5E
###2023-12-09 12:37:26.939986$GNGGA,173726.10,4138.0624324,N,07032.3773719,W,1,23,0.7,13.288,M,-29.744,M,0.0,*5C
###2023-12-09 12:37:26.941845$GPGSA,A,3,03,04,16,26,28,29,31,32,,,,,1.2,0.7,1.0*31
###2023-12-09 12:37:26.943514$GLGSA,A,3,71,72,73,74,75,,,,,,,,1.2,0.7,1.0*2D
###2023-12-09 12:37:26.945099$GAGSA,A,3,04,19,21,27,,,,,,,,,1.2,0.7,1.0*2C
###2023-12-09 12:37:26.946787$GBGSA,A,3,14,24,25,26,33,,,,,,,,1.2,0.7,1.0*25
###2023-12-09 12:37:26.949139$GPGSV,2,1,08,03,38,276,44,04,22,311,39,16,37,207,46,26,67,207,49*7D
###2023-12-09 12:37:26.951502$GPGSV,2,2,08,28,57,057,47,29,25,073,44,31,73,004,49,32,29,134,44*73
###2023-12-09 12:37:26.953845$GLGSV,2,1,05,71,55,169,47,72,67,307,46,73,46,034,49,74,71,296,42*68
###2023-12-09 12:37:26.955324$GLGSV,2,2,05,75,23,242,39,,,,,,,,,,,,*5D
###2023-12-09 12:37:26.957656$GAGSV,1,1,04,04,21,311,37,19,82,299,42,21,78,175,47,27,41,049,45*6A
###2023-12-09 12:37:26.960010$GBGSV,2,1,05,14,54,197,46,24,80,351,49,25,33,253,43,26,34,058,44*6A
###2023-12-09 12:37:26.961476$GBGSV,2,2,05,33,63,252,48,,,,,,,,,,,,*52
###2023-12-09 12:37:26.962818$GNVTG,282.73,T,,M,1.96,N,3.64,K,A*20
###2023-12-09 12:37:26.964470$GNGST,173726.10,18.000,,,,0.087,0.075,0.180*5D
###2023-12-09 12:37:26.965801$GNZDA,173726.10,09,12,2023,00,00*76
###2023-12-09 12:37:26.966446$GNEBP,,,,,,M*13
###2023-12-09 12:37:27.136727$GNGGA,173726.30,4138.0624572,N,07032.3775119,W,1,23,0.7,13.286,M,-29.744,M,0.0,*55
###2023-12-09 12:37:27.337921$GNGGA,173726.50,4138.0624772,N,07032.3776466,W,1,23,0.7,13.278,M,-29.744,M,0.0,*5E
###2023-12-09 12:37:27.538221$GNGGA,173726.70,4138.0624882,N,07032.3777770,W,1,23,0.7,13.274,M,-29.744,M,0.0,*55
###2023-12-09 12:37:27.741588$GNGGA,173726.90,4138.0625032,N,07032.3779058,W,1,23,0.7,13.276,M,-29.744,M,0.0,*58
###2023-12-09 12:37:27.936503$GNRMC,173727.10,A,4138.0625247,N,07032.3780331,W,1.73,282.19,091223,,,A*5F
###2023-12-09 12:37:27.939962$GNGGA,173727.10,4138.0625247,N,07032.3780331,W,1,23,0.7,13.288,M,-29.744,M,0.0,*5A
###2023-12-09 12:37:27.942194$GPGSA,A,3,03,04,16,26,28,29,31,32,,,,,1.2,0.7,1.0*31
###2023-12-09 12:37:27.944203$GLGSA,A,3,71,72,73,74,75,,,,,,,,1.2,0.7,1.0*2D
###2023-12-09 12:37:27.946119$GAGSA,A,3,04,19,21,27,,,,,,,,,1.2,0.7,1.0*2C
###2023-12-09 12:37:27.948129$GBGSA,A,3,14,24,25,26,33,,,,,,,,1.2,0.7,1.0*25
###2023-12-09 12:37:27.950962$GPGSV,2,1,08,03,38,276,43,04,22,311,39,16,37,207,46,26,67,207,49*7A
###2023-12-09 12:37:27.953787$GPGSV,2,2,08,28,57,057,46,29,25,073,43,31,73,004,49,32,29,134,44*75
###2023-12-09 12:37:27.956616$GLGSV,2,1,05,71,55,169,48,72,67,307,46,73,46,034,48,74,71,296,42*66
###2023-12-09 12:37:27.958411$GLGSV,2,2,05,75,23,242,41,,,,,,,,,,,,*52
###2023-12-09 12:37:27.961244$GAGSV,1,1,04,04,21,311,37,19,82,299,40,21,78,175,47,27,41,049,44*69
###2023-12-09 12:37:27.964092$GBGSV,2,1,05,14,54,197,45,24,80,351,49,25,33,253,44,26,34,058,44*6E
###2023-12-09 12:37:27.965853$GBGSV,2,2,05,33,63,252,48,,,,,,,,,,,,*52
###2023-12-09 12:37:27.967465$GNVTG,282.19,T,,M,1.73,N,3.20,K,A*27
###2023-12-09 12:37:27.969461$GNGST,173727.10,18.000,,,,0.086,0.074,0.180*5C
###2023-12-09 12:37:27.971031$GNZDA,173727.10,09,12,2023,00,00*77
###2023-12-09 12:37:27.971802$GNEBP,,,,,,M*13
###2023-12-09 12:37:28.138379$GNGGA,173727.30,4138.0625446,N,07032.3781589,W,1,23,0.7,13.283,M,-29.744,M,0.0,*50
###2023-12-09 12:37:28.338672$GNGGA,173727.50,4138.0625614,N,07032.3782819,W,1,23,0.7,13.283,M,-29.744,M,0.0,*54
###2023-12-09 12:37:28.538428$GNGGA,173727.70,4138.0625824,N,07032.3784034,W,1,23,0.7,13.277,M,-29.744,M,0.0,*51
###2023-12-09 12:37:28.737240$GNGGA,173727.90,4138.0626103,N,07032.3785216,W,1,23,0.7,13.269,M,-29.744,M,0.0,*5C
###2023-12-09 12:37:28.937194$GNRMC,173728.10,A,4138.0626376,N,07032.3786408,W,1.61,286.45,091223,,,A*55
###2023-12-09 12:37:28.940081$GNGGA,173728.10,4138.0626376,N,07032.3786408,W,1,23,0.7,13.262,M,-29.744,M,0.0,*5A
###2023-12-09 12:37:28.941942$GPGSA,A,3,03,04,16,26,28,29,31,32,,,,,1.2,0.7,1.0*31
###2023-12-09 12:37:28.943608$GLGSA,A,3,71,72,73,74,75,,,,,,,,1.2,0.7,1.0*2D
###2023-12-09 12:37:28.945192$GAGSA,A,3,04,19,21,27,,,,,,,,,1.2,0.7,1.0*2C
###2023-12-09 12:37:28.946868$GBGSA,A,3,14,24,25,26,33,,,,,,,,1.2,0.7,1.0*25
###2023-12-09 12:37:28.949217$GPGSV,2,1,08,03,38,276,43,04,22,311,41,16,37,207,45,26,67,207,48*77
###2023-12-09 12:37:28.951565$GPGSV,2,2,08,28,57,057,45,29,25,073,44,31,73,004,48,32,29,134,43*77
###2023-12-09 12:37:28.953890$GLGSV,2,1,05,71,55,169,47,72,67,307,46,73,46,034,47,74,71,296,42*66
###2023-12-09 12:37:28.955356$GLGSV,2,2,05,75,23,242,42,,,,,,,,,,,,*51
###2023-12-09 12:37:28.957674$GAGSV,1,1,04,04,21,311,39,19,82,299,41,21,78,175,46,27,41,049,44*67
###2023-12-09 12:37:28.960009$GBGSV,2,1,05,14,54,197,44,24,80,351,49,25,33,253,43,26,34,058,44*68
###2023-12-09 12:37:28.961460$GBGSV,2,2,05,33,63,252,47,,,,,,,,,,,,*5D
###2023-12-09 12:37:28.962789$GNVTG,286.45,T,,M,1.61,N,2.99,K,A*2A
###2023-12-09 12:37:28.964430$GNGST,173728.10,18.000,,,,0.086,0.074,0.180*53
###2023-12-09 12:37:28.965712$GNZDA,173728.10,09,12,2023,00,00*78
###2023-12-09 12:37:28.966348$GNEBP,,,,,,M*13
###2023-12-09 12:37:29.136728$GNGGA,173728.30,4138.0626553,N,07032.3787539,W,1,23,0.7,13.258,M,-29.744,M,0.0,*52
###2023-12-09 12:37:29.337330$GNGGA,173728.50,4138.0626619,N,07032.3788592,W,1,23,0.7,13.253,M,-29.744,M,0.0,*5C
###2023-12-09 12:37:29.537483$GNGGA,173728.70,4138.0626715,N,07032.3789599,W,1,23,0.7,13.243,M,-29.744,M,0.0,*58
###2023-12-09 12:37:29.735712$GNGGA,173728.90,4138.0626957,N,07032.3790611,W,1,23,0.7,13.247,M,-29.744,M,0.0,*51
###2023-12-09 12:37:29.937707$GNRMC,173729.10,A,4138.0627186,N,07032.3791609,W,1.32,282.01,091223,,,A*5F
###2023-12-09 12:37:29.940600$GNGGA,173729.10,4138.0627186,N,07032.3791609,W,1,23,0.7,13.242,M,-29.744,M,0.0,*50
###2023-12-09 12:37:29.942467$GPGSA,A,3,03,04,16,26,28,29,31,32,,,,,1.2,0.7,1.0*31
###2023-12-09 12:37:29.944138$GLGSA,A,3,71,72,73,74,75,,,,,,,,1.2,0.7,1.0*2D
###2023-12-09 12:37:29.945725$GAGSA,A,3,04,19,21,27,,,,,,,,,1.2,0.7,1.0*2C
###2023-12-09 12:37:29.947397$GBGSA,A,3,14,24,25,26,33,,,,,,,,1.2,0.7,1.0*25
###2023-12-09 12:37:29.949757$GPGSV,2,1,08,03,38,276,43,04,22,311,41,16,37,207,45,26,67,207,48*77
###2023-12-09 12:37:29.952110$GPGSV,2,2,08,28,57,057,45,29,25,073,44,31,73,004,48,32,29,134,44*70
###2023-12-09 12:37:29.954451$GLGSV,2,1,05,71,55,169,48,72,67,307,46,73,46,034,47,74,71,296,42*69
###2023-12-09 12:37:29.955918$GLGSV,2,2,05,75,23,242,42,,,,,,,,,,,,*51
###2023-12-09 12:37:29.958243$GAGSV,1,1,04,04,21,311,41,19,82,299,41,21,78,175,46,27,41,049,45*69
###2023-12-09 12:37:29.960594$GBGSV,2,1,05,14,54,197,44,24,80,351,49,25,33,253,45,26,34,058,44*6E
###2023-12-09 12:37:29.962055$GBGSV,2,2,05,33,63,252,47,,,,,,,,,,,,*5D
###2023-12-09 12:37:29.963394$GNVTG,282.01,T,,M,1.32,N,2.45,K,A*29
###2023-12-09 12:37:29.965046$GNGST,173729.10,18.000,,,,0.085,0.074,0.170*5E
###2023-12-09 12:37:29.966342$GNZDA,173729.10,09,12,2023,00,00*79
###2023-12-09 12:37:29.966997$GNEBP,,,,,,M*13
###2023-12-09 12:37:30.137666$GNGGA,173729.30,4138.0627243,N,07032.3792555,W,1,23,0.7,13.240,M,-29.744,M,0.0,*53
###2023-12-09 12:37:30.337987$GNGGA,173729.50,4138.0627234,N,07032.3793475,W,1,23,0.7,13.243,M,-29.744,M,0.0,*54
###2023-12-09 12:37:30.538063$GNGGA,173729.70,4138.0627300,N,07032.3794423,W,1,23,0.7,13.244,M,-29.744,M,0.0,*53
###2023-12-09 12:37:30.737068$GNGGA,173729.90,4138.0627461,N,07032.3795409,W,1,23,0.7,13.240,M,-29.744,M,0.0,*50
###2023-12-09 12:37:30.938701$GNRMC,173730.10,A,4138.0627608,N,07032.3796335,W,1.22,281.12,091223,,,A*5B
###2023-12-09 12:37:30.942459$GNGGA,173730.10,4138.0627608,N,07032.3796335,W,1,23,0.7,13.242,M,-29.744,M,0.0,*54
###2023-12-09 12:37:30.944745$GPGSA,A,3,03,04,16,26,28,29,31,32,,,,,1.2,0.7,1.0*31
###2023-12-09 12:37:30.946792$GLGSA,A,3,71,72,73,74,75,,,,,,,,1.2,0.7,1.0*2D
###2023-12-09 12:37:30.948729$GAGSA,A,3,04,19,21,27,,,,,,,,,1.2,0.7,1.0*2C
###2023-12-09 12:37:30.950736$GBGSA,A,3,14,24,25,26,33,,,,,,,,1.2,0.7,1.0*25
###2023-12-09 12:37:30.953548$GPGSV,2,1,08,03,38,276,42,04,22,311,41,16,37,207,46,26,67,207,47*7A
###2023-12-09 12:37:30.956393$GPGSV,2,2,08,28,57,057,45,29,25,073,42,31,73,004,47,32,29,134,44*79
###2023-12-09 12:37:30.959238$GLGSV,2,1,05,71,55,169,47,72,67,307,47,73,46,034,47,74,71,296,42*67
###2023-12-09 12:37:30.960989$GLGSV,2,2,05,75,23,242,40,,,,,,,,,,,,*53
