###2023-12-09 13:15:55.993287$GBGSA,A,3,14,24,25,26,33,35,,,,,,,1.2,0.7,1.0*23
###2023-12-09 13:15:55.995939$GPGSV,2,1,07,03,32,254,42,04,38,311,45,16,57,216,46,26,87,208,48*78
###2023-12-09 13:15:55.998415$GPGSV,2,2,07,28,44,077,44,29,24,054,38,31,65,052,45,,,,*44
###2023-12-09 13:15:56.001259$GLGSV,2,1,06,65,30,325,42,71,33,174,46,72,71,243,46,73,30,046,40*61
###2023-12-09 13:15:56.003396$GLGSV,2,2,06,74,66,355,41,75,37,260,47,,,,,,,,*67
###2023-12-09 13:15:56.006210$GAGSV,1,1,04,04,34,312,43,19,80,192,40,21,84,066,46,27,29,048,37*6D
###2023-12-09 13:15:56.009041$GBGSV,2,1,06,14,37,191,44,24,69,035,47,25,45,267,46,26,22,066,42*6F
###2023-12-09 13:15:56.011177$GBGSV,2,2,06,33,53,225,47,35,16,064,41,,,,,,,,*6B
###2023-12-09 13:15:56.012699$GNVTG,9.33,T,,M,3.69,N,6.84,K,A*2C
###2023-12-09 13:15:56.014702$GNGST,181555.10,18.000,,,,0.098,0.072,0.180*5F
###2023-12-09 13:15:56.016260$GNZDA,181555.10,09,12,2023,00,00*7D
###2023-12-09 13:15:56.017027$GNEBP,,,,,,M*13
###2023-12-09 13:15:56.179948$GNGGA,181555.30,4138.0465636,N,07032.2764591,W,1,24,0.7,13.199,M,-29.743,M,0.0,*52
###2023-12-09 13:15:56.378627$GNGGA,181555.50,4138.0467658,N,07032.2764111,W,1,24,0.7,13.184,M,-29.743,M,0.0,*5E
###2023-12-09 13:15:56.581127$GNGGA,181555.70,4138.0469673,N,07032.2763758,W,1,24,0.7,13.185,M,-29.743,M,0.0,*56
###2023-12-09 13:15:56.778787$GNGGA,181555.90,4138.0471679,N,07032.2763537,W,1,24,0.7,13.195,M,-29.743,M,0.0,*51
###2023-12-09 13:15:56.988511$GNRMC,181556.10,A,4138.0473683,N,07032.2763233,W,3.67,7.98,091223,,,A*55
###2023-12-09 13:15:56.991982$GNGGA,181556.10,4138.0473683,N,07032.2763233,W,1,24,0.7,13.203,M,-29.743,M,0.0,*52
###2023-12-09 13:15:56.994137$GPGSA,A,3,03,04,16,26,28,29,31,,,,,,1.2,0.7,1.0*30
###2023-12-09 13:15:56.996240$GLGSA,A,3,65,71,72,73,74,75,,,,,,,1.2,0.7,1.0*2E
###2023-12-09 13:15:56.998142$GAGSA,A,3,04,19,21,27,,,,,,,,,1.2,0.7,1.0*2C
###2023-12-09 13:15:57.000221$GBGSA,A,3,14,24,25,26,33,35,,,,,,,1.2,0.7,1.0*23
###2023-12-09 13:15:57.003039$GPGSV,2,1,07,03,32,254,43,04,38,311,44,16,57,216,46,26,87,208,48*78
###2023-12-09 13:15:57.005505$GPGSV,2,2,07,28,44,077,44,29,24,054,40,31,65,052,46,,,,*48
###2023-12-09 13:15:57.008333$GLGSV,2,1,06,65,30,325,42,71,33,174,45,72,71,243,46,73,30,046,42*60
###2023-12-09 13:15:57.010441$GLGSV,2,2,06,74,66,355,41,75,37,260,47,,,,,,,,*67
###2023-12-09 13:15:57.013268$GAGSV,1,1,04,04,34,312,42,19,80,192,41,21,84,066,46,27,29,048,38*62
###2023-12-09 13:15:57.016088$GBGSV,2,1,06,14,37,191,44,24,69,035,47,25,45,267,48,26,22,066,42*61
###2023-12-09 13:15:57.018195$GBGSV,2,2,06,33,53,225,47,35,16,064,42,,,,,,,,*68
###2023-12-09 13:15:57.019752$GNVTG,7.98,T,,M,3.67,N,6.80,K,A*29
###2023-12-09 13:15:57.021749$GNGST,181556.10,18.000,,,,0.098,0.072,0.180*5C
###2023-12-09 13:15:57.023319$GNZDA,181556.10,09,12,2023,00,00*7E
###2023-12-09 13:15:57.024090$GNEBP,,,,,,M*13
###2023-12-09 13:15:57.182401$GNGGA,181556.30,4138.0475698,N,07032.2762916,W,1,24,0.7,13.198,M,-29.743,M,0.0,*50
###2023-12-09 13:15:57.379015$GNGGA,181556.50,4138.0477749,N,07032.2762783,W,1,24,0.7,13.192,M,-29.743,M,0.0,*51
###2023-12-09 13:15:57.579021$GNGGA,181556.70,4138.0479825,N,07032.2762852,W,1,24,0.7,13.193,M,-29.743,M,0.0,*5A
###2023-12-09 13:15:57.779992$GNGGA,181556.90,4138.0481950,N,07032.2762855,W,1,24,0.7,13.196,M,-29.743,M,0.0,*52
###2023-12-09 13:15:57.981979$GNRMC,181557.10,A,4138.0484124,N,07032.2762734,W,3.97,1.94,091223,,,A*50
###2023-12-09 13:15:57.984848$GNGGA,181557.10,4138.0484124,N,07032.2762734,W,1,24,0.7,13.201,M,-29.743,M,0.0,*50
###2023-12-09 13:15:57.986654$GPGSA,A,3,03,04,16,26,28,29,31,,,,,,1.2,0.7,1.0*30
###2023-12-09 13:15:57.988374$GLGSA,A,3,65,71,72,73,74,75,,,,,,,1.2,0.7,1.0*2E
###2023-12-09 13:15:57.989957$GAGSA,A,3,04,19,21,27,,,,,,,,,1.2,0.7,1.0*2C
###2023-12-09 13:15:57.991681$GBGSA,A,3,14,24,25,26,33,35,,,,,,,1.2,0.7,1.0*23
###2023-12-09 13:15:57.994011$GPGSV,2,1,07,03,32,254,44,04,38,311,44,16,57,216,47,26,87,208,48*7E
###2023-12-09 13:15:57.996063$GPGSV,2,2,07,28,44,077,44,29,24,054,41,31,65,052,46,,,,*49
###2023-12-09 13:15:57.998392$GLGSV,2,1,06,65,30,325,41,71,33,174,45,72,71,243,46,73,30,046,41*60
###2023-12-09 13:15:58.000151$GLGSV,2,2,06,74,66,355,41,75,37,260,47,,,,,,,,*67
###2023-12-09 13:15:58.002472$GAGSV,1,1,04,04,34,312,43,19,80,192,40,21,84,066,46,27,29,048,38*62
###2023-12-09 13:15:58.004813$GBGSV,2,1,06,14,37,191,44,24,69,035,47,25,45,267,47,26,22,066,42*6E
###2023-12-09 13:15:58.006578$GBGSV,2,2,06,33,53,225,47,35,16,064,41,,,,,,,,*6B
###2023-12-09 13:15:58.007843$GNVTG,1.94,T,,M,3.97,N,7.34,K,A*22
###2023-12-09 13:15:58.009491$GNGST,181557.10,18.000,,,,0.098,0.072,0.180*5D
###2023-12-09 13:15:58.010794$GNZDA,181557.10,09,12,2023,00,00*7F
###2023-12-09 13:15:58.011442$GNEBP,,,,,,M*13
###2023-12-09 13:15:58.178185$GNGGA,181557.30,4138.0486307,N,07032.2762682,W,1,24,0.7,13.203,M,-29.743,M,0.0,*5D
###2023-12-09 13:15:58.379116$GNGGA,181557.50,4138.0488490,N,07032.2762796,W,1,24,0.7,13.207,M,-29.743,M,0.0,*5C
###2023-12-09 13:15:58.580002$GNGGA,181557.70,4138.0490672,N,07032.2762983,W,1,24,0.7,13.201,M,-29.743,M,0.0,*55
###2023-12-09 13:15:58.778966$GNGGA,181557.90,4138.0492826,N,07032.2763072,W,1,24,0.7,13.203,M,-29.743,M,0.0,*52
###2023-12-09 13:15:58.983145$GNRMC,181558.10,A,4138.0494961,N,07032.2763133,W,3.75,358.58,091223,,,A*54
###2023-12-09 13:15:58.985986$GNGGA,181558.10,4138.0494961,N,07032.2763133,W,1,24,0.7,13.205,M,-29.743,M,0.0,*53
###2023-12-09 13:15:58.987788$GPGSA,A,3,03,04,16,26,28,29,31,,,,,,1.2,0.7,1.0*30
###2023-12-09 13:15:58.989497$GLGSA,A,3,65,71,72,73,74,75,,,,,,,1.2,0.7,1.0*2E
###2023-12-09 13:15:58.991091$GAGSA,A,3,04,19,21,27,,,,,,,,,1.2,0.7,1.0*2C
###2023-12-09 13:15:58.992795$GBGSA,A,3,14,24,25,26,33,35,,,,,,,1.2,0.7,1.0*23
###2023-12-09 13:15:58.995135$GPGSV,2,1,07,03,32,254,44,04,38,311,44,16,57,216,46,26,87,208,48*7F
###2023-12-09 13:15:58.997173$GPGSV,2,2,07,28,44,077,44,29,24,054,41,31,65,052,46,,,,*49
###2023-12-09 13:15:58.999520$GLGSV,2,1,06,65,30,325,39,71,33,174,46,72,71,243,46,73,30,046,41*6C
###2023-12-09 13:15:59.001291$GLGSV,2,2,06,74,66,355,41,75,37,260,46,,,,,,,,*66
###2023-12-09 13:15:59.003647$GAGSV,1,1,04,04,34,312,43,19,79,190,41,21,84,066,46,27,29,048,39*66
###2023-12-09 13:15:59.005985$GBGSV,2,1,06,14,37,191,43,24,69,035,47,25,45,267,47,26,22,066,42*69
###2023-12-09 13:15:59.007742$GBGSV,2,2,06,33,53,225,48,35,16,064,43,,,,,,,,*66
###2023-12-09 13:15:59.009064$GNVTG,358.58,T,,M,3.75,N,6.95,K,A*2B
###2023-12-09 13:15:59.010717$GNGST,181558.10,18.000,,,,0.098,0.071,0.170*5E
###2023-12-09 13:15:59.012012$GNZDA,181558.10,09,12,2023,00,00*70
###2023-12-09 13:15:59.012648$GNEBP,,,,,,M*13
###2023-12-09 13:15:59.177913$GNGGA,181558.30,4138.0497031,N,07032.2763242,W,1,24,0.7,13.199,M,-29.743,M,0.0,*5D
###2023-12-09 13:15:59.378082$GNGGA,181558.50,4138.0499056,N,07032.2763387,W,1,24,0.7,13.196,M,-29.743,M,0.0,*53
###2023-12-09 13:15:59.579980$GNGGA,181558.70,4138.0501074,N,07032.2763542,W,1,24,0.7,13.200,M,-29.743,M,0.0,*52
###2023-12-09 13:15:59.779914$GNGGA,181558.90,4138.0503122,N,07032.2763626,W,1,24,0.7,13.212,M,-29.743,M,0.0,*5E
###2023-12-09 13:15:59.981445$GNRMC,181559.10,A,4138.0505187,N,07032.2763662,W,3.73,359.86,091223,,,A*5B
###2023-12-09 13:15:59.984311$GNGGA,181559.10,4138.0505187,N,07032.2763662,W,1,24,0.7,13.224,M,-29.743,M,0.0,*5B
###2023-12-09 13:15:59.986101$GPGSA,A,3,03,04,16,26,28,29,31,,,,,,1.2,0.7,1.0*30
###2023-12-09 13:15:59.987817$GLGSA,A,3,65,71,72,73,74,75,,,,,,,1.2,0.7,1.0*2E
###2023-12-09 13:15:59.989391$GAGSA,A,3,04,19,21,27,,,,,,,,,1.2,0.7,1.0*2C
###2023-12-09 13:15:59.991109$GBGSA,A,3,14,24,25,26,33,35,,,,,,,1.2,0.7,1.0*23
###2023-12-09 13:15:59.993420$GPGSV,2,1,07,03,32,254,44,04,38,311,44,16,57,216,47,26,87,208,48*7E
###2023-12-09 13:15:59.995452$GPGSV,2,2,07,28,44,077,44,29,24,054,41,31,65,052,46,,,,*49
###2023-12-09 13:15:59.997764$GLGSV,2,1,06,65,30,325,41,71,33,174,45,72,71,243,46,73,30,046,41*60
###2023-12-09 13:15:59.999515$GLGSV,2,2,06,74,66,355,41,75,37,260,47,,,,,,,,*67
###2023-12-09 13:16:00.001837$GAGSV,1,1,04,04,34,312,43,19,79,190,41,21,83,062,46,27,29,048,39*65
###2023-12-09 13:16:00.004181$GBGSV,2,1,06,14,37,191,44,24,69,035,47,25,45,267,46,26,22,066,42*6F
###2023-12-09 13:16:00.006247$GBGSV,2,2,06,33,53,225,46,35,16,064,42,,,,,,,,*69
###2023-12-09 13:16:00.007603$GNVTG,359.86,T,,M,3.73,N,6.91,K,A*2B
###2023-12-09 13:16:00.009244$GNGST,181559.10,18.000,,,,0.099,0.071,0.170*5E
###2023-12-09 13:16:00.010527$GNZDA,181559.10,09,12,2023,00,00*71
###2023-12-09 13:16:00.011176$GNEBP,,,,,,M*13
###2023-12-09 13:16:00.178946$GNGGA,181559.30,4138.0507241,N,07032.2763686,W,1,24,0.7,13.230,M,-29.743,M,0.0,*5D
###2023-12-09 13:16:00.379229$GNGGA,181559.50,4138.0509288,N,07032.2763716,W,1,24,0.7,13.235,M,-29.743,M,0.0,*5D
###2023-12-09 13:16:00.579091$GNGGA,181559.70,4138.0511316,N,07032.2763594,W,1,24,0.7,13.230,M,-29.743,M,0.0,*5D
###2023-12-09 13:16:00.780022$GNGGA,181559.90,4138.0513333,N,07032.2763269,W,1,24,0.7,13.231,M,-29.743,M,0.0,*52
