###2023-12-09 12:43:08.981605$GBGSV,2,2,05,33,62,246,47,,,,,,,,,,,,*59
###2023-12-09 12:43:08.983231$GNVTG,52.47,T,,M,2.70,N,5.00,K,A*17
###2023-12-09 12:43:08.985239$GNGST,174308.10,18.000,,,,0.079,0.071,0.160*59
###2023-12-09 12:43:08.986827$GNZDA,174308.10,09,12,2023,00,00*79
###2023-12-09 12:43:08.987610$GNEBP,,,,,,M*13
###2023-12-09 12:43:09.145102$GNGGA,174308.30,4138.0438017,N,07032.3899470,W,1,24,0.6,13.254,M,-29.745,M,0.0,*5C
###2023-12-09 12:43:09.344341$GNGGA,174308.50,4138.0438765,N,07032.3897798,W,1,24,0.6,13.260,M,-29.745,M,0.0,*54
###2023-12-09 12:43:09.545308$GNGGA,174308.70,4138.0439649,N,07032.3896174,W,1,24,0.6,13.254,M,-29.745,M,0.0,*5A
###2023-12-09 12:43:09.747916$GNGGA,174308.90,4138.0440744,N,07032.3894851,W,1,24,0.6,13.251,M,-29.745,M,0.0,*5F
###2023-12-09 12:43:09.942220$GNRMC,174309.10,A,4138.0441751,N,07032.3893459,W,2.57,50.90,091223,,,A*6F
###2023-12-09 12:43:09.945683$GNGGA,174309.10,4138.0441751,N,07032.3893459,W,1,24,0.6,13.250,M,-29.745,M,0.0,*51
###2023-12-09 12:43:09.947952$GPGSA,A,3,03,04,16,26,28,29,31,32,,,,,1.1,0.6,0.9*3B
###2023-12-09 12:43:09.950022$GLGSA,A,3,65,71,72,73,74,75,,,,,,,1.1,0.6,0.9*24
###2023-12-09 12:43:09.951940$GAGSA,A,3,04,19,21,27,,,,,,,,,1.1,0.6,0.9*26
###2023-12-09 12:43:09.953917$GBGSA,A,3,14,24,25,26,33,,,,,,,,1.1,0.6,0.9*2F
###2023-12-09 12:43:09.956787$GPGSV,2,1,08,03,38,272,44,04,25,311,43,16,40,208,44,26,70,207,48*79
###2023-12-09 12:43:09.959609$GPGSV,2,2,08,28,55,060,44,29,25,070,39,31,72,013,46,32,27,136,43*7C
###2023-12-09 12:43:09.962411$GLGSV,2,1,06,65,16,329,43,71,51,170,47,72,69,300,46,73,44,036,43*61
###2023-12-09 12:43:09.964521$GLGSV,2,2,06,74,71,307,42,75,25,245,45,,,,,,,,*63
###2023-12-09 12:43:09.967374$GAGSV,1,1,04,04,23,312,43,19,84,288,40,21,81,170,46,27,39,049,41*65
###2023-12-09 12:43:09.970179$GBGSV,2,1,05,14,51,196,43,24,79,002,48,25,35,255,44,26,32,059,42*6F
###2023-12-09 12:43:09.971944$GBGSV,2,2,05,33,62,246,47,,,,,,,,,,,,*59
###2023-12-09 12:43:09.973503$GNVTG,50.90,T,,M,2.57,N,4.75,K,A*19
###2023-12-09 12:43:09.975507$GNGST,174309.10,18.000,,,,0.078,0.071,0.160*59
###2023-12-09 12:43:09.977062$GNZDA,174309.10,09,12,2023,00,00*78
###2023-12-09 12:43:09.977831$GNEBP,,,,,,M*13
###2023-12-09 12:43:10.140640$GNGGA,174309.30,4138.0442810,N,07032.3892118,W,1,24,0.6,13.254,M,-29.745,M,0.0,*5F
###2023-12-09 12:43:10.341990$GNGGA,174309.50,4138.0443964,N,07032.3890748,W,1,24,0.6,13.257,M,-29.745,M,0.0,*58
###2023-12-09 12:43:10.541139$GNGGA,174309.70,4138.0445137,N,07032.3889651,W,1,24,0.6,13.253,M,-29.745,M,0.0,*57
###2023-12-09 12:43:10.740627$GNGGA,174309.90,4138.0446411,N,07032.3888726,W,1,24,0.6,13.267,M,-29.745,M,0.0,*5C
###2023-12-09 12:43:10.943756$GNRMC,174310.10,A,4138.0447666,N,07032.3887693,W,2.66,31.49,091223,,,A*64
###2023-12-09 12:43:10.947231$GNGGA,174310.10,4138.0447666,N,07032.3887693,W,1,24,0.6,13.272,M,-29.745,M,0.0,*5B
###2023-12-09 12:43:10.949493$GPGSA,A,3,03,04,16,26,28,29,31,32,,,,,1.1,0.6,0.9*3B
###2023-12-09 12:43:10.951583$GLGSA,A,3,65,71,72,73,74,75,,,,,,,1.1,0.6,0.9*24
###2023-12-09 12:43:10.953482$GAGSA,A,3,04,19,21,27,,,,,,,,,1.1,0.6,0.9*26
###2023-12-09 12:43:10.955482$GBGSA,A,3,14,24,25,26,33,,,,,,,,1.1,0.6,0.9*2F
###2023-12-09 12:43:10.958316$GPGSV,2,1,08,03,38,272,45,04,25,311,42,16,40,208,45,26,70,207,47*77
###2023-12-09 12:43:10.961159$GPGSV,2,2,08,28,55,060,44,29,25,070,40,31,72,013,46,32,27,136,42*73
###2023-12-09 12:43:10.963990$GLGSV,2,1,06,65,16,329,42,71,51,170,47,72,69,300,46,73,44,036,43*60
###2023-12-09 12:43:10.966090$GLGSV,2,2,06,74,71,307,42,75,25,245,41,,,,,,,,*67
###2023-12-09 12:43:10.968906$GAGSV,1,1,04,04,23,312,42,19,84,288,41,21,81,170,46,27,39,049,41*65
###2023-12-09 12:43:10.971742$GBGSV,2,1,05,14,51,196,44,24,79,002,48,25,35,255,46,26,32,059,42*6A
###2023-12-09 12:43:10.973492$GBGSV,2,2,05,33,62,246,48,,,,,,,,,,,,*56
###2023-12-09 12:43:10.975063$GNVTG,31.49,T,,M,2.66,N,4.93,K,A*10
###2023-12-09 12:43:10.977053$GNGST,174310.10,18.000,,,,0.078,0.071,0.160*51
###2023-12-09 12:43:10.978621$GNZDA,174310.10,09,12,2023,00,00*70
###2023-12-09 12:43:10.979388$GNEBP,,,,,,M*13
###2023-12-09 12:43:11.142367$GNGGA,174310.30,4138.0448932,N,07032.3886785,W,1,24,0.6,13.262,M,-29.745,M,0.0,*5E
###2023-12-09 12:43:11.342020$GNGGA,174310.50,4138.0450207,N,07032.3886035,W,1,24,0.6,13.267,M,-29.745,M,0.0,*55
###2023-12-09 12:43:11.544789$GNGGA,174310.70,4138.0451478,N,07032.3885266,W,1,24,0.6,13.268,M,-29.745,M,0.0,*50
###2023-12-09 12:43:11.741806$GNGGA,174310.90,4138.0452742,N,07032.3884492,W,1,24,0.6,13.268,M,-29.745,M,0.0,*5B
###2023-12-09 12:43:11.942412$GNRMC,174311.10,A,4138.0454044,N,07032.3883995,W,2.39,14.59,091223,,,A*60
###2023-12-09 12:43:11.945292$GNGGA,174311.10,4138.0454044,N,07032.3883995,W,1,24,0.6,13.276,M,-29.745,M,0.0,*57
###2023-12-09 12:43:11.947177$GPGSA,A,3,03,04,16,26,28,29,31,32,,,,,1.1,0.6,0.9*3B
###2023-12-09 12:43:11.948906$GLGSA,A,3,65,71,72,73,74,75,,,,,,,1.1,0.6,0.9*24
###2023-12-09 12:43:11.950524$GAGSA,A,3,04,19,21,27,,,,,,,,,1.1,0.6,0.9*26
###2023-12-09 12:43:11.952185$GBGSA,A,3,14,24,25,26,33,,,,,,,,1.1,0.6,0.9*2F
###2023-12-09 12:43:11.954510$GPGSV,2,1,08,03,38,272,45,04,25,311,41,16,40,208,45,26,70,207,47*74
###2023-12-09 12:43:11.956854$GPGSV,2,2,08,28,55,060,44,29,25,070,42,31,72,013,46,32,27,136,43*70
###2023-12-09 12:43:11.959197$GLGSV,2,1,06,65,16,329,41,71,51,170,47,72,69,300,45,73,44,036,46*65
###2023-12-09 12:43:11.960943$GLGSV,2,2,06,74,71,307,42,75,25,245,43,,,,,,,,*65
###2023-12-09 12:43:11.963288$GAGSV,1,1,04,04,23,312,41,19,84,288,41,21,81,170,46,27,39,049,42*65
###2023-12-09 12:43:11.965618$GBGSV,2,1,05,14,51,196,45,24,79,002,48,25,35,255,45,26,32,059,43*69
###2023-12-09 12:43:11.967090$GBGSV,2,2,05,33,62,246,47,,,,,,,,,,,,*59
###2023-12-09 12:43:11.968387$GNVTG,14.59,T,,M,2.39,N,4.43,K,A*11
###2023-12-09 12:43:11.970038$GNGST,174311.10,18.000,,,,0.078,0.071,0.160*50
###2023-12-09 12:43:11.971342$GNZDA,174311.10,09,12,2023,00,00*71
###2023-12-09 12:43:11.971985$GNEBP,,,,,,M*13
###2023-12-09 12:43:12.142597$GNGGA,174311.30,4138.0455346,N,07032.3883596,W,1,24,0.6,13.289,M,-29.745,M,0.0,*5A
###2023-12-09 12:43:12.343911$GNGGA,174311.50,4138.0456645,N,07032.3883187,W,1,24,0.6,13.279,M,-29.745,M,0.0,*52
###2023-12-09 12:43:12.541661$GNGGA,174311.70,4138.0457925,N,07032.3882846,W,1,24,0.6,13.273,M,-29.745,M,0.0,*57
###2023-12-09 12:43:12.743411$GNGGA,174311.90,4138.0459189,N,07032.3882559,W,1,24,0.6,13.279,M,-29.745,M,0.0,*50
###2023-12-09 12:43:12.943617$GNRMC,174312.10,A,4138.0460428,N,07032.3882350,W,2.12,5.47,091223,,,A*5E
###2023-12-09 12:43:12.946484$GNGGA,174312.10,4138.0460428,N,07032.3882350,W,1,24,0.6,13.285,M,-29.745,M,0.0,*53
###2023-12-09 12:43:12.948381$GPGSA,A,3,03,04,16,26,28,29,31,32,,,,,1.1,0.6,0.9*3B
###2023-12-09 12:43:12.950100$GLGSA,A,3,65,71,72,73,74,75,,,,,,,1.1,0.6,0.9*24
###2023-12-09 12:43:12.951696$GAGSA,A,3,04,19,21,27,,,,,,,,,1.1,0.6,0.9*26
###2023-12-09 12:43:12.953342$GBGSA,A,3,14,24,25,26,33,,,,,,,,1.1,0.6,0.9*2F
###2023-12-09 12:43:12.955691$GPGSV,2,1,08,03,38,272,45,04,25,311,41,16,40,208,44,26,70,207,47*75
###2023-12-09 12:43:12.958025$GPGSV,2,2,08,28,55,060,45,29,25,070,42,31,72,013,46,32,27,136,41*73
###2023-12-09 12:43:12.960372$GLGSV,2,1,06,65,16,329,38,71,51,170,47,72,69,300,45,73,44,036,46*6B
###2023-12-09 12:43:12.962121$GLGSV,2,2,06,74,71,307,41,75,25,245,44,,,,,,,,*61
###2023-12-09 12:43:12.964452$GAGSV,1,1,04,04,23,312,41,19,84,288,40,21,81,170,46,27,39,049,42*64
###2023-12-09 12:43:12.966796$GBGSV,2,1,05,14,51,196,44,24,79,002,47,25,35,255,45,26,32,059,42*66
###2023-12-09 12:43:12.968257$GBGSV,2,2,05,33,62,246,46,,,,,,,,,,,,*58
###2023-12-09 12:43:12.969515$GNVTG,5.47,T,,M,2.12,N,3.92,K,A*2C
###2023-12-09 12:43:12.971184$GNGST,174312.10,18.000,,,,0.078,0.070,0.160*52
###2023-12-09 12:43:12.972478$GNZDA,174312.10,09,12,2023,00,00*72
###2023-12-09 12:43:12.973117$GNEBP,,,,,,M*13
###2023-12-09 12:43:13.141255$GNGGA,174312.30,4138.0461645,N,07032.3882293,W,1,24,0.6,13.284,M,-29.745,M,0.0,*56
###2023-12-09 12:43:13.342400$GNGGA,174312.50,4138.0462843,N,07032.3882278,W,1,24,0.6,13.283,M,-29.745,M,0.0,*59
###2023-12-09 12:43:13.544473$GNGGA,174312.70,4138.0464082,N,07032.3882320,W,1,24,0.6,13.279,M,-29.745,M,0.0,*51
###2023-12-09 12:43:13.740980$GNGGA,174312.90,4138.0465297,N,07032.3882446,W,1,24,0.6,13.295,M,-29.745,M,0.0,*5D
###2023-12-09 12:43:13.942747$GNRMC,174313.10,A,4138.0466505,N,07032.3882671,W,2.12,352.49,091223,,,A*5E
###2023-12-09 12:43:13.945617$GNGGA,174313.10,4138.0466505,N,07032.3882671,W,1,24,0.6,13.306,M,-29.745,M,0.0,*56
###2023-12-09 12:43:13.947504$GPGSA,A,3,03,04,16,26,28,29,31,32,,,,,1.1,0.6,0.9*3B
###2023-12-09 12:43:13.949239$GLGSA,A,3,65,71,72,73,74,75,,,,,,,1.1,0.6,0.9*24
###2023-12-09 12:43:13.950837$GAGSA,A,3,04,19,21,27,,,,,,,,,1.1,0.6,0.9*26
###2023-12-09 12:43:13.952482$GBGSA,A,3,14,24,25,26,33,,,,,,,,1.1,0.6,0.9*2F
###2023-12-09 12:43:13.954819$GPGSV,2,1,08,03,38,272,43,04,25,311,38,16,40,208,45,26,70,207,48*73
