###2023-12-09 12:55:07.982545$GNVTG,282.85,T,,M,1.90,N,3.53,K,A*2B
###2023-12-09 12:55:07.984238$GNGST,175507.10,18.000,,,,0.078,0.067,0.160*57
###2023-12-09 12:55:07.985541$GNZDA,175507.10,09,12,2023,00,00*71
###2023-12-09 12:55:07.986186$GNEBP,,,,,,M*13
###2023-12-09 12:55:08.153602$GNGGA,175507.30,4138.0411263,N,07032.3933246,W,1,24,0.6,13.239,M,-29.745,M,0.0,*57
###2023-12-09 12:55:08.355397$GNGGA,175507.50,4138.0411468,N,07032.3934590,W,1,24,0.6,13.236,M,-29.745,M,0.0,*58
###2023-12-09 12:55:08.556332$GNGGA,175507.70,4138.0411670,N,07032.3935960,W,1,24,0.6,13.230,M,-29.745,M,0.0,*55
###2023-12-09 12:55:08.755604$GNGGA,175507.90,4138.0412011,N,07032.3937213,W,1,24,0.6,13.229,M,-29.745,M,0.0,*5C
###2023-12-09 12:55:08.960818$GNRMC,175508.10,A,4138.0412486,N,07032.3938353,W,1.73,300.22,091223,,,A*51
###2023-12-09 12:55:08.963694$GNGGA,175508.10,4138.0412486,N,07032.3938353,W,1,24,0.6,13.233,M,-29.745,M,0.0,*50
###2023-12-09 12:55:08.965549$GPGSA,A,3,03,04,16,26,28,29,31,32,,,,,1.1,0.6,0.9*3B
###2023-12-09 12:55:08.967283$GLGSA,A,3,65,71,72,73,74,75,,,,,,,1.1,0.6,0.9*24
###2023-12-09 12:55:08.968858$GAGSA,A,3,04,19,21,27,,,,,,,,,1.1,0.6,0.9*26
###2023-12-09 12:55:08.970502$GBGSA,A,3,14,24,25,26,33,,,,,,,,1.1,0.6,0.9*2F
###2023-12-09 12:55:08.972836$GPGSV,2,1,08,03,36,266,42,04,29,311,40,16,46,211,45,26,76,209,47*73
###2023-12-09 12:55:08.975171$GPGSV,2,2,08,28,52,067,44,29,25,064,41,31,70,029,46,32,22,138,42*77
###2023-12-09 12:55:08.977486$GLGSV,2,1,06,65,21,328,37,71,44,172,48,72,72,281,45,73,38,040,45*63
###2023-12-09 12:55:08.979235$GLGSV,2,2,06,74,71,327,42,75,30,250,46,,,,,,,,*62
###2023-12-09 12:55:08.981550$GAGSV,1,1,04,04,27,312,39,19,85,242,39,21,84,147,45,27,35,048,42*69
###2023-12-09 12:55:08.983879$GBGSV,2,1,05,14,46,194,45,24,75,018,48,25,39,260,45,26,28,061,42*61
###2023-12-09 12:55:08.985328$GBGSV,2,2,05,33,59,237,48,,,,,,,,,,,,*58
###2023-12-09 12:55:08.986652$GNVTG,300.22,T,,M,1.73,N,3.20,K,A*24
###2023-12-09 12:55:08.988296$GNGST,175508.10,18.000,,,,0.079,0.067,0.160*59
###2023-12-09 12:55:08.989576$GNZDA,175508.10,09,12,2023,00,00*7E
###2023-12-09 12:55:08.990210$GNEBP,,,,,,M*13
###2023-12-09 12:55:09.155629$GNGGA,175508.30,4138.0412982,N,07032.3939390,W,1,24,0.6,13.240,M,-29.745,M,0.0,*51
###2023-12-09 12:55:09.356390$GNGGA,175508.50,4138.0413483,N,07032.3940441,W,1,24,0.6,13.240,M,-29.745,M,0.0,*5F
###2023-12-09 12:55:09.555432$GNGGA,175508.70,4138.0414025,N,07032.3941423,W,1,24,0.6,13.238,M,-29.745,M,0.0,*58
###2023-12-09 12:55:09.756334$GNGGA,175508.90,4138.0414620,N,07032.3942338,W,1,24,0.6,13.236,M,-29.745,M,0.0,*55
###2023-12-09 12:55:09.952953$GNRMC,175509.10,A,4138.0415244,N,07032.3943187,W,1.57,316.62,091223,,,A*5D
###2023-12-09 12:55:09.955826$GNGGA,175509.10,4138.0415244,N,07032.3943187,W,1,24,0.6,13.236,M,-29.745,M,0.0,*5C
###2023-12-09 12:55:09.957684$GPGSA,A,3,03,04,16,26,28,29,31,32,,,,,1.1,0.6,0.9*3B
###2023-12-09 12:55:09.959429$GLGSA,A,3,65,71,72,73,74,75,,,,,,,1.1,0.6,0.9*24
###2023-12-09 12:55:09.961009$GAGSA,A,3,04,19,21,27,,,,,,,,,1.1,0.6,0.9*26
###2023-12-09 12:55:09.962659$GBGSA,A,3,14,24,25,26,33,,,,,,,,1.1,0.6,0.9*2F
###2023-12-09 12:55:09.964973$GPGSV,2,1,08,03,36,265,43,04,29,311,39,16,46,211,46,26,76,209,47*7C
###2023-12-09 12:55:09.967309$GPGSV,2,2,08,28,52,067,45,29,25,064,42,31,70,029,46,32,22,138,43*74
###2023-12-09 12:55:09.969630$GLGSV,2,1,06,65,21,328,38,71,44,172,47,72,72,281,46,73,38,040,45*60
###2023-12-09 12:55:09.971377$GLGSV,2,2,06,74,71,327,42,75,30,250,46,,,,,,,,*62
###2023-12-09 12:55:09.973698$GAGSV,1,1,04,04,27,312,40,19,85,242,40,21,84,147,46,27,35,048,42*6A
###2023-12-09 12:55:09.976035$GBGSV,2,1,05,14,46,194,45,24,75,018,48,25,39,260,46,26,28,061,43*63
###2023-12-09 12:55:09.977487$GBGSV,2,2,05,33,59,237,48,,,,,,,,,,,,*58
###2023-12-09 12:55:09.978820$GNVTG,316.62,T,,M,1.57,N,2.92,K,A*29
###2023-12-09 12:55:09.980468$GNGST,175509.10,18.000,,,,0.079,0.067,0.160*58
###2023-12-09 12:55:09.981757$GNZDA,175509.10,09,12,2023,00,00*7F
###2023-12-09 12:55:09.982397$GNEBP,,,,,,M*13
###2023-12-09 12:55:10.152493$GNGGA,175509.30,4138.0415926,N,07032.3944019,W,1,24,0.6,13.235,M,-29.745,M,0.0,*53
###2023-12-09 12:55:10.355692$GNGGA,175509.50,4138.0416626,N,07032.3944804,W,1,24,0.6,13.225,M,-29.745,M,0.0,*5C
###2023-12-09 12:55:10.553412$GNGGA,175509.70,4138.0417375,N,07032.3945501,W,1,24,0.6,13.225,M,-29.745,M,0.0,*55
###2023-12-09 12:55:10.753296$GNGGA,175509.90,4138.0418121,N,07032.3946139,W,1,24,0.6,13.227,M,-29.745,M,0.0,*59
###2023-12-09 12:55:10.954109$GNRMC,175510.10,A,4138.0418884,N,07032.3946760,W,1.52,328.07,091223,,,A*5F
###2023-12-09 12:55:10.956976$GNGGA,175510.10,4138.0418884,N,07032.3946760,W,1,24,0.6,13.228,M,-29.745,M,0.0,*5A
###2023-12-09 12:55:10.958856$GPGSA,A,3,03,04,16,26,28,29,31,32,,,,,1.1,0.6,0.9*3B
###2023-12-09 12:55:10.960563$GLGSA,A,3,65,71,72,73,74,75,,,,,,,1.1,0.6,0.9*24
###2023-12-09 12:55:10.962132$GAGSA,A,3,04,19,21,27,,,,,,,,,1.1,0.6,0.9*26
###2023-12-09 12:55:10.963785$GBGSA,A,3,14,24,25,26,33,,,,,,,,1.1,0.6,0.9*2F
###2023-12-09 12:55:10.966098$GPGSV,2,1,08,03,36,265,44,04,30,311,39,16,46,211,45,26,76,209,47*70
###2023-12-09 12:55:10.968434$GPGSV,2,2,08,28,52,067,44,29,25,064,42,31,70,029,45,32,22,138,41*74
###2023-12-09 12:55:10.970778$GLGSV,2,1,06,65,21,328,39,71,44,172,46,72,72,281,46,73,38,040,45*60
###2023-12-09 12:55:10.972524$GLGSV,2,2,06,74,71,327,41,75,30,250,47,,,,,,,,*60
###2023-12-09 12:55:10.974848$GAGSV,1,1,04,04,27,312,39,19,85,242,40,21,84,147,46,27,35,048,42*64
###2023-12-09 12:55:10.977163$GBGSV,2,1,05,14,46,194,45,24,75,018,48,25,39,260,46,26,28,061,43*63
###2023-12-09 12:55:10.978630$GBGSV,2,2,05,33,59,237,47,,,,,,,,,,,,*57
###2023-12-09 12:55:10.979948$GNVTG,328.07,T,,M,1.52,N,2.81,K,A*20
###2023-12-09 12:55:10.981590$GNGST,175510.10,18.000,,,,0.080,0.068,0.160*59
###2023-12-09 12:55:10.982894$GNZDA,175510.10,09,12,2023,00,00*77
###2023-12-09 12:55:10.983534$GNEBP,,,,,,M*13
###2023-12-09 12:55:11.153441$GNGGA,175510.30,4138.0419645,N,07032.3947333,W,1,24,0.6,13.227,M,-29.745,M,0.0,*56
###2023-12-09 12:55:11.354308$GNGGA,175510.50,4138.0420444,N,07032.3947756,W,1,24,0.6,13.217,M,-29.745,M,0.0,*5D
###2023-12-09 12:55:11.554318$GNGGA,175510.70,4138.0421296,N,07032.3948143,W,1,24,0.6,13.218,M,-29.745,M,0.0,*55
###2023-12-09 12:55:11.752225$GNGGA,175510.90,4138.0422175,N,07032.3948544,W,1,24,0.6,13.221,M,-29.745,M,0.0,*5F
###2023-12-09 12:55:11.953992$GNRMC,175511.10,A,4138.0423133,N,07032.3948963,W,1.83,344.28,091223,,,A*5B
###2023-12-09 12:55:11.956882$GNGGA,175511.10,4138.0423133,N,07032.3948963,W,1,24,0.6,13.217,M,-29.745,M,0.0,*59
###2023-12-09 12:55:11.958760$GPGSA,A,3,03,04,16,26,28,29,31,32,,,,,1.1,0.6,0.9*3B
###2023-12-09 12:55:11.960467$GLGSA,A,3,65,71,72,73,74,75,,,,,,,1.1,0.6,0.9*24
###2023-12-09 12:55:11.962039$GAGSA,A,3,04,19,21,27,,,,,,,,,1.1,0.6,0.9*26
###2023-12-09 12:55:11.963688$GBGSA,A,3,14,24,25,26,33,,,,,,,,1.1,0.6,0.9*2F
###2023-12-09 12:55:11.965987$GPGSV,2,1,08,03,36,265,45,04,30,311,43,16,46,211,46,26,76,209,47*7F
###2023-12-09 12:55:11.968313$GPGSV,2,2,08,28,52,067,44,29,25,064,41,31,70,029,46,32,22,138,41*74
###2023-12-09 12:55:11.970648$GLGSV,2,1,06,65,21,328,41,71,44,172,46,72,72,281,46,73,38,040,42*68
###2023-12-09 12:55:11.972395$GLGSV,2,2,06,74,71,327,42,75,30,250,44,,,,,,,,*60
###2023-12-09 12:55:11.974722$GAGSV,1,1,04,04,27,312,43,19,85,242,40,21,84,147,46,27,35,048,40*6B
###2023-12-09 12:55:11.977041$GBGSV,2,1,05,14,46,194,44,24,75,018,49,25,39,260,48,26,28,061,42*6C
###2023-12-09 12:55:11.978487$GBGSV,2,2,05,33,59,237,50,,,,,,,,,,,,*51
###2023-12-09 12:55:11.979819$GNVTG,344.28,T,,M,1.83,N,3.38,K,A*28
###2023-12-09 12:55:11.981460$GNGST,175511.10,18.000,,,,0.080,0.068,0.160*58
###2023-12-09 12:55:11.982759$GNZDA,175511.10,09,12,2023,00,00*76
###2023-12-09 12:55:11.983396$GNEBP,,,,,,M*13
###2023-12-09 12:55:12.154129$GNGGA,175511.30,4138.0424098,N,07032.3949205,W,1,24,0.6,13.215,M,-29.745,M,0.0,*54
###2023-12-09 12:55:12.354309$GNGGA,175511.50,4138.0425025,N,07032.3949097,W,1,24,0.6,13.214,M,-29.745,M,0.0,*5D
###2023-12-09 12:55:12.554403$GNGGA,175511.70,4138.0425921,N,07032.3948833,W,1,24,0.6,13.207,M,-29.745,M,0.0,*57
###2023-12-09 12:55:12.754520$GNGGA,175511.90,4138.0426858,N,07032.3948798,W,1,24,0.6,13.208,M,-29.745,M,0.0,*54
###2023-12-09 12:55:12.953987$GNRMC,175512.10,A,4138.0427960,N,07032.3948946,W,2.06,356.33,091223,,,A*52
###2023-12-09 12:55:12.956871$GNGGA,175512.10,4138.0427960,N,07032.3948946,W,1,24,0.6,13.204,M,-29.745,M,0.0,*55
###2023-12-09 12:55:12.958740$GPGSA,A,3,03,04,16,26,28,29,31,32,,,,,1.1,0.6,0.9*3B
###2023-12-09 12:55:12.960455$GLGSA,A,3,65,71,72,73,74,75,,,,,,,1.1,0.6,0.9*24
###2023-12-09 12:55:12.962033$GAGSA,A,3,04,19,21,27,,,,,,,,,1.1,0.6,0.9*26
###2023-12-09 12:55:12.963703$GBGSA,A,3,14,24,25,26,33,,,,,,,,1.1,0.6,0.9*2F
###2023-12-09 12:55:12.966027$GPGSV,2,1,08,03,36,265,44,04,30,311,43,16,46,211,45,26,76,209,48*72
###2023-12-09 12:55:12.968373$GPGSV,2,2,08,28,52,067,42,29,25,064,39,31,70,029,46,32,22,138,41*7D
