###2023-12-09 12:25:57.937244$GLGSV,1,1,04,71,62,167,47,72,61,316,43,73,52,030,48,75,18,237,43*67
###2023-12-09 12:25:57.939071$GAGSV,1,1,02,21,74,179,45,27,45,051,45,,,,,,,,*65
###2023-12-09 12:25:57.941433$GBGSV,1,1,04,14,59,200,44,25,29,249,39,26,38,055,48,33,64,264,39*66
###2023-12-09 12:25:57.942613$GNVTG,,T,,M,0.02,N,0.04,K,A*3B
###2023-12-09 12:25:57.944279$GNGST,172557.10,30.000,,,,0.230,0.220,0.490*5A
###2023-12-09 12:25:57.945589$GNZDA,172557.10,09,12,2023,00,00*73
###2023-12-09 12:25:57.946240$GNEBP,,,,,,M*13
###2023-12-09 12:25:58.118366$GNGGA,172557.30,4138.0382961,N,07032.4360190,W,1,18,0.8,9.697,M,-29.746,M,0.0,*6B
###2023-12-09 12:25:58.319399$GNGGA,172557.50,4138.0382938,N,07032.4360170,W,1,18,0.8,9.687,M,-29.746,M,0.0,*6E
###2023-12-09 12:25:58.517256$GNGGA,172557.70,4138.0382923,N,07032.4360151,W,1,18,0.8,9.680,M,-29.746,M,0.0,*62
###2023-12-09 12:25:58.717482$GNGGA,172557.90,4138.0382905,N,07032.4360133,W,1,18,0.8,9.677,M,-29.746,M,0.0,*64
###2023-12-09 12:25:58.920388$GNRMC,172558.10,A,4138.0382893,N,07032.4360107,W,0.02,,091223,,,A*4C
###2023-12-09 12:25:58.923448$GNGGA,172558.10,4138.0382893,N,07032.4360107,W,1,18,0.8,9.666,M,-29.746,M,0.0,*6A
###2023-12-09 12:25:58.925334$GPGSA,A,3,03,16,25,26,28,29,31,32,,,,,1.4,0.8,1.1*3A
###2023-12-09 12:25:58.926954$GLGSA,A,3,71,72,73,75,,,,,,,,,1.4,0.8,1.1*26
###2023-12-09 12:25:58.928421$GAGSA,A,3,21,27,,,,,,,,,,,1.4,0.8,1.1*28
###2023-12-09 12:25:58.930011$GBGSA,A,3,14,25,26,33,,,,,,,,,1.4,0.8,1.1*2B
###2023-12-09 12:25:58.932354$GPGSV,2,1,08,03,39,282,44,16,32,206,41,25,15,045,40,26,62,205,44*75
###2023-12-09 12:25:58.934708$GPGSV,2,2,08,28,61,050,42,29,24,078,41,31,73,346,39,32,34,132,46*71
###2023-12-09 12:25:58.937046$GLGSV,1,1,04,71,62,167,47,72,61,316,44,73,52,030,48,75,18,237,43*60
###2023-12-09 12:25:58.938851$GAGSV,1,1,02,21,74,179,45,27,44,051,45,,,,,,,,*64
###2023-12-09 12:25:58.941193$GBGSV,1,1,04,14,59,200,44,25,29,249,39,26,38,055,47,33,64,264,39*69
###2023-12-09 12:25:58.942346$GNVTG,,T,,M,0.02,N,0.04,K,A*3B
###2023-12-09 12:25:58.944021$GNGST,172558.10,29.000,,,,0.230,0.220,0.490*5D
###2023-12-09 12:25:58.945332$GNZDA,172558.10,09,12,2023,00,00*7C
###2023-12-09 12:25:58.945986$GNEBP,,,,,,M*13
###2023-12-09 12:25:59.118464$GNGGA,172558.30,4138.0382876,N,07032.4360091,W,1,18,0.8,9.658,M,-29.746,M,0.0,*60
###2023-12-09 12:25:59.318453$GNGGA,172558.50,4138.0382842,N,07032.4360055,W,1,18,0.8,9.648,M,-29.746,M,0.0,*68
###2023-12-09 12:25:59.518284$GNGGA,172558.70,4138.0382823,N,07032.4360026,W,1,18,0.8,9.640,M,-29.746,M,0.0,*61
###2023-12-09 12:25:59.717487$GNGGA,172558.90,4138.0382811,N,07032.4360012,W,1,18,0.8,9.630,M,-29.746,M,0.0,*6E
###2023-12-09 12:25:59.920807$GNRMC,172559.10,A,4138.0382794,N,07032.4360005,W,0.04,,091223,,,A*40
###2023-12-09 12:25:59.923673$GNGGA,172559.10,4138.0382794,N,07032.4360005,W,1,18,0.8,9.621,M,-29.746,M,0.0,*63
###2023-12-09 12:25:59.925553$GPGSA,A,3,03,16,25,26,28,29,31,32,,,,,1.4,0.8,1.1*3A
###2023-12-09 12:25:59.927176$GLGSA,A,3,71,72,73,75,,,,,,,,,1.4,0.8,1.1*26
###2023-12-09 12:25:59.928644$GAGSA,A,3,21,27,,,,,,,,,,,1.4,0.8,1.1*28
###2023-12-09 12:25:59.930240$GBGSA,A,3,14,25,26,33,,,,,,,,,1.4,0.8,1.1*2B
###2023-12-09 12:25:59.932601$GPGSV,2,1,08,03,39,282,44,16,32,206,41,25,15,045,40,26,62,205,43*72
###2023-12-09 12:25:59.934970$GPGSV,2,2,08,28,61,050,41,29,24,078,41,31,73,346,39,32,34,132,45*71
###2023-12-09 12:25:59.937315$GLGSV,1,1,04,71,62,167,47,72,61,316,44,73,52,030,48,75,18,237,43*60
###2023-12-09 12:25:59.939100$GAGSV,1,1,02,21,74,179,45,27,44,051,45,,,,,,,,*64
###2023-12-09 12:25:59.941446$GBGSV,1,1,04,14,59,200,45,25,29,249,39,26,38,055,48,33,64,264,40*69
###2023-12-09 12:25:59.942612$GNVTG,,T,,M,0.04,N,0.07,K,A*3E
###2023-12-09 12:25:59.944277$GNGST,172559.10,30.000,,,,0.230,0.220,0.490*54
###2023-12-09 12:25:59.945578$GNZDA,172559.10,09,12,2023,00,00*7D
###2023-12-09 12:25:59.946229$GNEBP,,,,,,M*13
###2023-12-09 12:26:00.119388$GNGGA,172559.30,4138.0382781,N,07032.4359979,W,1,18,0.8,9.609,M,-29.746,M,0.0,*67
###2023-12-09 12:26:00.318603$GNGGA,172559.50,4138.0382754,N,07032.4359959,W,1,18,0.8,9.599,M,-29.746,M,0.0,*61
###2023-12-09 12:26:00.518297$GNGGA,172559.70,4138.0382736,N,07032.4359924,W,1,18,0.8,9.590,M,-29.746,M,0.0,*64
###2023-12-09 12:26:00.718510$GNGGA,172559.90,4138.0382718,N,07032.4359911,W,1,18,0.8,9.586,M,-29.746,M,0.0,*67
###2023-12-09 12:26:00.921514$GNRMC,172600.10,A,4138.0382695,N,07032.4359884,W,0.02,,091223,,,A*42
###2023-12-09 12:26:00.924387$GNGGA,172600.10,4138.0382695,N,07032.4359884,W,1,18,0.8,9.576,M,-29.746,M,0.0,*66
###2023-12-09 12:26:00.926268$GPGSA,A,3,03,16,25,26,28,29,31,32,,,,,1.4,0.8,1.1*3A
###2023-12-09 12:26:00.927897$GLGSA,A,3,71,72,73,75,,,,,,,,,1.4,0.8,1.1*26
###2023-12-09 12:26:00.929384$GAGSA,A,3,21,27,,,,,,,,,,,1.4,0.8,1.1*28
###2023-12-09 12:26:00.931012$GBGSA,A,3,14,25,26,33,,,,,,,,,1.4,0.8,1.1*2B
###2023-12-09 12:26:00.933370$GPGSV,2,1,08,03,39,282,44,16,32,206,41,25,15,045,40,26,62,205,43*72
###2023-12-09 12:26:00.935749$GPGSV,2,2,08,28,61,050,42,29,24,078,42,31,73,346,39,32,34,132,46*72
###2023-12-09 12:26:00.938101$GLGSV,1,1,04,71,62,167,47,72,61,316,44,73,52,030,48,75,18,237,43*60
###2023-12-09 12:26:00.939880$GAGSV,1,1,02,21,74,179,44,27,44,051,45,,,,,,,,*65
###2023-12-09 12:26:00.942223$GBGSV,1,1,04,14,59,200,44,25,29,249,37,26,38,055,48,33,64,264,39*68
###2023-12-09 12:26:00.943386$GNVTG,,T,,M,0.02,N,0.04,K,A*3B
###2023-12-09 12:26:00.945044$GNGST,172600.10,30.000,,,,0.230,0.220,0.490*5B
###2023-12-09 12:26:00.946350$GNZDA,172600.10,09,12,2023,00,00*72
###2023-12-09 12:26:00.947079$GNEBP,,,,,,M*13
###2023-12-09 12:26:01.118352$GNGGA,172600.30,4138.0382673,N,07032.4359866,W,1,18,0.8,9.562,M,-29.746,M,0.0,*65
###2023-12-09 12:26:01.319475$GNGGA,172600.50,4138.0382649,N,07032.4359842,W,1,18,0.8,9.555,M,-29.746,M,0.0,*68
###2023-12-09 12:26:01.518540$GNGGA,172600.70,4138.0382627,N,07032.4359820,W,1,18,0.8,9.546,M,-29.746,M,0.0,*64
###2023-12-09 12:26:01.717504$GNGGA,172600.90,4138.0382609,N,07032.4359806,W,1,18,0.8,9.530,M,-29.746,M,0.0,*63
###2023-12-09 12:26:01.918709$GNRMC,172601.10,A,4138.0382588,N,07032.4359784,W,0.04,,091223,,,A*45
###2023-12-09 12:26:01.921761$GNGGA,172601.10,4138.0382588,N,07032.4359784,W,1,18,0.8,9.525,M,-29.746,M,0.0,*61
###2023-12-09 12:26:01.923801$GPGSA,A,3,03,16,25,26,28,29,31,32,,,,,1.4,0.8,1.1*3A
###2023-12-09 12:26:01.925563$GLGSA,A,3,71,72,73,75,,,,,,,,,1.4,0.8,1.1*26
###2023-12-09 12:26:01.927205$GAGSA,A,3,21,27,,,,,,,,,,,1.4,0.8,1.1*28
###2023-12-09 12:26:01.928965$GBGSA,A,3,14,25,26,33,,,,,,,,,1.4,0.8,1.1*2B
###2023-12-09 12:26:01.931492$GPGSV,2,1,08,03,39,282,44,16,32,206,41,25,15,045,40,26,62,205,44*75
###2023-12-09 12:26:01.933998$GPGSV,2,2,08,28,61,050,42,29,24,078,42,31,73,346,39,32,34,132,46*72
###2023-12-09 12:26:01.936515$GLGSV,1,1,04,71,62,167,47,72,61,316,44,73,52,030,48,75,18,237,43*60
###2023-12-09 12:26:01.938440$GAGSV,1,1,02,21,74,179,44,27,44,051,45,,,,,,,,*65
###2023-12-09 12:26:01.940933$GBGSV,1,1,04,14,59,200,44,25,29,249,38,26,38,055,48,33,64,264,39*67
###2023-12-09 12:26:01.942242$GNVTG,,T,,M,0.04,N,0.07,K,A*3E
###2023-12-09 12:26:01.944025$GNGST,172601.10,30.000,,,,0.230,0.220,0.490*5A
###2023-12-09 12:26:01.945429$GNZDA,172601.10,09,12,2023,00,00*73
###2023-12-09 12:26:01.946171$GNEBP,,,,,,M*13
###2023-12-09 12:26:02.119296$GNGGA,172601.30,4138.0382572,N,07032.4359779,W,1,18,0.8,9.514,M,-29.746,M,0.0,*66
###2023-12-09 12:26:02.320325$GNGGA,172601.50,4138.0382553,N,07032.4359753,W,1,18,0.8,9.510,M,-29.746,M,0.0,*6F
###2023-12-09 12:26:02.519743$GNGGA,172601.70,4138.0382533,N,07032.4359722,W,1,18,0.8,9.502,M,-29.746,M,0.0,*6E
###2023-12-09 12:26:02.718011$GNGGA,172601.90,4138.0382512,N,07032.4359697,W,1,18,0.8,9.490,M,-29.746,M,0.0,*66
###2023-12-09 12:26:02.920910$GNRMC,172602.10,A,4138.0382496,N,07032.4359665,W,0.02,,091223,,,A*40
###2023-12-09 12:26:02.924413$GNGGA,172602.10,4138.0382496,N,07032.4359665,W,1,18,0.8,9.482,M,-29.746,M,0.0,*6E
###2023-12-09 12:26:02.926715$GPGSA,A,3,03,16,25,26,28,29,31,32,,,,,1.4,0.8,1.1*3A
###2023-12-09 12:26:02.928697$GLGSA,A,3,71,72,73,75,,,,,,,,,1.4,0.8,1.1*26
###2023-12-09 12:26:02.930504$GAGSA,A,3,21,27,,,,,,,,,,,1.4,0.8,1.1*28
###2023-12-09 12:26:02.932775$GBGSA,A,3,14,25,26,33,,,,,,,,,1.4,0.8,1.1*2B
###2023-12-09 12:26:02.935659$GPGSV,2,1,08,03,39,282,44,16,32,206,41,25,15,045,40,26,62,205,44*75
###2023-12-09 12:26:02.938519$GPGSV,2,2,08,28,61,050,42,29,24,078,43,31,73,346,39,32,34,132,47*72
###2023-12-09 12:26:02.941395$GLGSV,1,1,04,71,62,167,47,72,61,316,44,73,52,030,48,75,18,237,43*60
###2023-12-09 12:26:02.943560$GAGSV,1,1,02,21,74,179,45,27,44,051,45,,,,,,,,*64
###2023-12-09 12:26:02.946429$GBGSV,1,1,04,14,59,200,45,25,29,249,38,26,38,055,48,33,64,264,39*66
###2023-12-09 12:26:02.947897$GNVTG,,T,,M,0.02,N,0.04,K,A*3B
###2023-12-09 12:26:02.950198$GNGST,172602.10,30.000,,,,0.230,0.220,0.500*51
