###2023-12-09 13:07:02.568800$GNGGA,180701.70,4138.0725685,N,07032.3557079,W,1,25,0.6,12.948,M,-29.743,M,0.0,*5E
###2023-12-09 13:07:02.768869$GNGGA,180701.90,4138.0725846,N,07032.3559531,W,1,25,0.6,12.950,M,-29.743,M,0.0,*5F
###2023-12-09 13:07:02.975218$GNRMC,180702.10,A,4138.0725908,N,07032.3562000,W,3.40,271.19,091223,,,A*54
###2023-12-09 13:07:02.978066$GNGGA,180702.10,4138.0725908,N,07032.3562000,W,1,25,0.6,12.946,M,-29.743,M,0.0,*57
###2023-12-09 13:07:02.979932$GPGSA,A,3,03,04,16,26,28,29,31,32,,,,,1.1,0.6,0.9*3B
###2023-12-09 13:07:02.981639$GLGSA,A,3,65,71,72,73,74,75,,,,,,,1.1,0.6,0.9*24
###2023-12-09 13:07:02.983230$GAGSA,A,3,04,19,21,27,,,,,,,,,1.1,0.6,0.9*26
###2023-12-09 13:07:02.984947$GBGSA,A,3,14,24,25,26,33,35,,,,,,,1.1,0.6,0.9*29
###2023-12-09 13:07:02.987287$GPGSV,2,1,08,03,34,259,42,04,34,311,42,16,52,213,46,26,82,210,47*74
###2023-12-09 13:07:02.989624$GPGSV,2,2,08,28,48,072,45,29,25,059,41,31,68,042,47,32,17,141,44*7C
###2023-12-09 13:07:02.991970$GLGSV,2,1,06,65,26,326,39,71,37,173,48,72,72,258,45,73,33,043,44*6C
###2023-12-09 13:07:02.993720$GLGSV,2,2,06,74,68,345,42,75,34,256,43,,,,,,,,*69
###2023-12-09 13:07:02.996060$GAGSV,1,1,04,04,31,312,41,19,83,203,40,21,85,092,46,27,31,048,41*60
###2023-12-09 13:07:02.998392$GBGSV,2,1,06,14,41,192,44,24,72,029,49,25,42,264,45,26,24,064,42*67
###2023-12-09 13:07:03.000152$GBGSV,2,2,06,33,56,229,47,35,15,067,45,,,,,,,,*66
###2023-12-09 13:07:03.001477$GNVTG,271.19,T,,M,3.40,N,6.30,K,A*2D
###2023-12-09 13:07:03.003135$GNGST,180702.10,18.000,,,,0.081,0.068,0.150*50
###2023-12-09 13:07:03.004429$GNZDA,180702.10,09,12,2023,00,00*7C
###2023-12-09 13:07:03.005068$GNEBP,,,,,,M*13
###2023-12-09 13:07:03.171519$GNGGA,180702.30,4138.0725951,N,07032.3564477,W,1,25,0.6,12.943,M,-29.743,M,0.0,*5E
###2023-12-09 13:07:03.369133$GNGGA,180702.50,4138.0725956,N,07032.3566980,W,1,25,0.6,12.937,M,-29.743,M,0.0,*5B
###2023-12-09 13:07:03.568834$GNGGA,180702.70,4138.0725870,N,07032.3569463,W,1,25,0.6,12.942,M,-29.743,M,0.0,*51
###2023-12-09 13:07:03.768774$GNGGA,180702.90,4138.0725683,N,07032.3571971,W,1,25,0.6,12.951,M,-29.743,M,0.0,*58
###2023-12-09 13:07:03.971915$GNRMC,180703.10,A,4138.0725514,N,07032.3574469,W,3.44,264.65,091223,,,A*53
###2023-12-09 13:07:03.974784$GNGGA,180703.10,4138.0725514,N,07032.3574469,W,1,25,0.6,12.969,M,-29.743,M,0.0,*56
###2023-12-09 13:07:03.976642$GPGSA,A,3,03,04,16,26,28,29,31,32,,,,,1.1,0.6,0.9*3B
###2023-12-09 13:07:03.978349$GLGSA,A,3,65,71,72,73,74,75,,,,,,,1.1,0.6,0.9*24
###2023-12-09 13:07:03.979939$GAGSA,A,3,04,19,21,27,,,,,,,,,1.1,0.6,0.9*26
###2023-12-09 13:07:03.981648$GBGSA,A,3,14,24,25,26,33,35,,,,,,,1.1,0.6,0.9*29
###2023-12-09 13:07:03.984004$GPGSV,2,1,08,03,34,258,43,04,34,311,42,16,52,213,46,26,82,210,47*74
###2023-12-09 13:07:03.986323$GPGSV,2,2,08,28,48,072,45,29,25,059,41,31,68,042,47,32,17,141,42*7A
###2023-12-09 13:07:03.988664$GLGSV,2,1,06,65,26,326,41,71,37,173,46,72,72,258,45,73,33,043,45*6C
###2023-12-09 13:07:03.990408$GLGSV,2,2,06,74,68,345,43,75,34,256,44,,,,,,,,*6F
###2023-12-09 13:07:03.992747$GAGSV,1,1,04,04,31,312,41,19,83,203,40,21,85,092,46,27,31,048,42*63
###2023-12-09 13:07:03.995076$GBGSV,2,1,06,14,41,192,43,24,72,029,48,25,42,264,44,26,24,064,42*60
###2023-12-09 13:07:03.996818$GBGSV,2,2,06,33,56,229,47,35,15,067,45,,,,,,,,*66
###2023-12-09 13:07:03.998135$GNVTG,264.65,T,,M,3.44,N,6.37,K,A*21
###2023-12-09 13:07:03.999787$GNGST,180703.10,18.000,,,,0.081,0.068,0.150*51
###2023-12-09 13:07:04.001071$GNZDA,180703.10,09,12,2023,00,00*7D
###2023-12-09 13:07:04.001707$GNEBP,,,,,,M*13
###2023-12-09 13:07:04.167997$GNGGA,180703.30,4138.0725224,N,07032.3576966,W,1,25,0.6,12.973,M,-29.743,M,0.0,*5B
###2023-12-09 13:07:04.369365$GNGGA,180703.50,4138.0724707,N,07032.3579387,W,1,25,0.6,12.942,M,-29.743,M,0.0,*50
###2023-12-09 13:07:04.568856$GNGGA,180703.70,4138.0724309,N,07032.3581883,W,1,25,0.6,12.945,M,-29.743,M,0.0,*57
###2023-12-09 13:07:04.768663$GNGGA,180703.90,4138.0724076,N,07032.3584478,W,1,25,0.6,12.969,M,-29.743,M,0.0,*51
###2023-12-09 13:07:04.971799$GNRMC,180704.10,A,4138.0723803,N,07032.3587074,W,3.52,258.53,091223,,,A*50
###2023-12-09 13:07:04.974679$GNGGA,180704.10,4138.0723803,N,07032.3587074,W,1,25,0.6,12.982,M,-29.743,M,0.0,*5D
###2023-12-09 13:07:04.976546$GPGSA,A,3,03,04,16,26,28,29,31,32,,,,,1.1,0.6,0.9*3B
###2023-12-09 13:07:04.978270$GLGSA,A,3,65,71,72,73,74,75,,,,,,,1.1,0.6,0.9*24
###2023-12-09 13:07:04.979873$GAGSA,A,3,04,19,21,27,,,,,,,,,1.1,0.6,0.9*26
###2023-12-09 13:07:04.981593$GBGSA,A,3,14,24,25,26,33,35,,,,,,,1.1,0.6,0.9*29
###2023-12-09 13:07:04.983944$GPGSV,2,1,08,03,34,258,43,04,35,311,44,16,52,213,46,26,82,210,48*7C
###2023-12-09 13:07:04.986288$GPGSV,2,2,08,28,48,072,45,29,25,059,42,31,68,042,48,32,17,141,42*76
###2023-12-09 13:07:04.988630$GLGSV,2,1,06,65,26,326,40,71,37,173,46,72,72,258,44,73,33,043,45*6C
###2023-12-09 13:07:04.990385$GLGSV,2,2,06,74,68,345,43,75,34,256,43,,,,,,,,*68
###2023-12-09 13:07:04.992725$GAGSV,1,1,04,04,31,312,41,19,83,203,40,21,85,092,45,27,31,048,42*60
###2023-12-09 13:07:04.995078$GBGSV,2,1,06,14,41,192,44,24,72,029,50,25,42,264,44,26,24,064,44*68
###2023-12-09 13:07:04.996831$GBGSV,2,2,06,33,56,229,47,35,15,067,46,,,,,,,,*65
###2023-12-09 13:07:04.998156$GNVTG,258.53,T,,M,3.52,N,6.52,K,A*2F
###2023-12-09 13:07:04.999817$GNGST,180704.10,18.000,,,,0.081,0.068,0.150*56
###2023-12-09 13:07:05.001109$GNZDA,180704.10,09,12,2023,00,00*7A
###2023-12-09 13:07:05.001748$GNEBP,,,,,,M*13
###2023-12-09 13:07:05.168888$GNGGA,180704.30,4138.0723366,N,07032.3589637,W,1,25,0.6,12.978,M,-29.743,M,0.0,*5D
###2023-12-09 13:07:05.370332$GNGGA,180704.50,4138.0723041,N,07032.3592274,W,1,25,0.6,12.965,M,-29.743,M,0.0,*58
###2023-12-09 13:07:05.570169$GNGGA,180704.70,4138.0722910,N,07032.3594963,W,1,25,0.6,12.961,M,-29.743,M,0.0,*59
###2023-12-09 13:07:05.769975$GNGGA,180704.90,4138.0722856,N,07032.3597629,W,1,25,0.6,12.964,M,-29.743,M,0.0,*53
###2023-12-09 13:07:05.971679$GNRMC,180705.10,A,4138.0722797,N,07032.3600236,W,3.52,268.38,091223,,,A*54
###2023-12-09 13:07:05.974534$GNGGA,180705.10,4138.0722797,N,07032.3600236,W,1,25,0.6,12.968,M,-29.743,M,0.0,*53
###2023-12-09 13:07:05.976401$GPGSA,A,3,03,04,16,26,28,29,31,32,,,,,1.1,0.6,0.9*3B
###2023-12-09 13:07:05.978117$GLGSA,A,3,65,71,72,73,74,75,,,,,,,1.1,0.6,0.9*24
###2023-12-09 13:07:05.979716$GAGSA,A,3,04,19,21,27,,,,,,,,,1.1,0.6,0.9*26
###2023-12-09 13:07:05.981426$GBGSA,A,3,14,24,25,26,33,35,,,,,,,1.1,0.6,0.9*29
###2023-12-09 13:07:05.983768$GPGSV,2,1,08,03,34,258,42,04,35,311,43,16,52,213,46,26,82,210,48*7A
###2023-12-09 13:07:05.986101$GPGSV,2,2,08,28,48,072,45,29,25,059,42,31,68,042,47,32,17,141,43*78
###2023-12-09 13:07:05.988454$GLGSV,2,1,06,65,26,326,40,71,37,173,45,72,72,258,45,73,33,043,45*6E
###2023-12-09 13:07:05.990204$GLGSV,2,2,06,74,68,345,42,75,34,256,41,,,,,,,,*6B
###2023-12-09 13:07:05.992548$GAGSV,1,1,04,04,31,312,41,19,83,203,40,21,85,092,46,27,31,048,41*60
###2023-12-09 13:07:05.994894$GBGSV,2,1,06,14,41,192,43,24,72,029,47,25,42,264,43,26,24,064,42*68
###2023-12-09 13:07:05.996648$GBGSV,2,2,06,33,56,229,46,35,15,067,43,,,,,,,,*61
###2023-12-09 13:07:05.997973$GNVTG,268.38,T,,M,3.52,N,6.52,K,A*21
###2023-12-09 13:07:05.999669$GNGST,180705.10,18.000,,,,0.081,0.067,0.150*58
###2023-12-09 13:07:06.000971$GNZDA,180705.10,09,12,2023,00,00*7B
###2023-12-09 13:07:06.001608$GNEBP,,,,,,M*13
###2023-12-09 13:07:06.167838$GNGGA,180705.30,4138.0722777,N,07032.3602829,W,1,25,0.6,12.976,M,-29.743,M,0.0,*56
###2023-12-09 13:07:06.368009$GNGGA,180705.50,4138.0722937,N,07032.3605403,W,1,25,0.6,12.973,M,-29.743,M,0.0,*5C
###2023-12-09 13:07:06.568892$GNGGA,180705.70,4138.0723224,N,07032.3607908,W,1,25,0.6,12.980,M,-29.743,M,0.0,*5E
###2023-12-09 13:07:06.768983$GNGGA,180705.90,4138.0723482,N,07032.3610421,W,1,25,0.6,12.983,M,-29.743,M,0.0,*59
###2023-12-09 13:07:06.981900$GNRMC,180706.10,A,4138.0723587,N,07032.3612914,W,3.32,271.68,091223,,,A*56
###2023-12-09 13:07:06.984786$GNGGA,180706.10,4138.0723587,N,07032.3612914,W,1,25,0.6,12.979,M,-29.743,M,0.0,*5A
###2023-12-09 13:07:06.986657$GPGSA,A,3,03,04,16,26,28,29,31,32,,,,,1.1,0.6,0.9*3B
###2023-12-09 13:07:06.988372$GLGSA,A,3,65,71,72,73,74,75,,,,,,,1.1,0.6,0.9*24
###2023-12-09 13:07:06.990232$GAGSA,A,3,04,19,21,27,,,,,,,,,1.1,0.6,0.9*26
###2023-12-09 13:07:06.991974$GBGSA,A,3,14,24,25,26,33,35,,,,,,,1.1,0.6,0.9*29
###2023-12-09 13:07:06.994322$GPGSV,2,1,08,03,34,258,42,04,35,311,43,16,52,213,47,26,82,210,48*7B
###2023-12-09 13:07:06.996686$GPGSV,2,2,08,28,48,072,45,29,25,059,42,31,68,042,47,32,17,141,43*78
###2023-12-09 13:07:06.999048$GLGSV,2,1,06,65,26,326,39,71,37,173,46,72,72,258,45,73,33,043,43*65
###2023-12-09 13:07:07.000803$GLGSV,2,2,06,74,68,345,42,75,34,256,42,,,,,,,,*68
###2023-12-09 13:07:07.003153$GAGSV,1,1,04,04,31,312,41,19,83,203,40,21,85,092,46,27,31,048,41*60
###2023-12-09 13:07:07.005497$GBGSV,2,1,06,14,41,192,44,24,72,029,48,25,42,264,43,26,24,064,41*63
###2023-12-09 13:07:07.007265$GBGSV,2,2,06,33,56,229,47,35,15,067,43,,,,,,,,*60
###2023-12-09 13:07:07.008593$GNVTG,271.68,T,,M,3.32,N,6.16,K,A*2A
