###2023-12-09 13:16:14.993523$GPGSV,2,1,07,03,32,254,43,04,38,311,44,16,57,216,46,26,87,208,48*78
###2023-12-09 13:16:14.995611$GPGSV,2,2,07,28,44,077,45,29,24,054,41,31,65,052,46,,,,*48
###2023-12-09 13:16:14.997951$GLGSV,2,1,06,65,30,325,41,71,33,174,46,72,71,243,46,73,30,046,43*61
###2023-12-09 13:16:14.999722$GLGSV,2,2,06,74,66,355,41,75,37,260,47,,,,,,,,*67
###2023-12-09 13:16:15.002046$GAGSV,1,1,04,04,34,312,43,19,79,190,41,21,83,062,46,27,28,049,39*65
###2023-12-09 13:16:15.004382$GBGSV,2,1,06,14,37,191,44,24,69,035,47,25,45,267,48,26,22,066,43*60
###2023-12-09 13:16:15.006129$GBGSV,2,2,06,33,53,225,48,35,16,064,44,,,,,,,,*61
###2023-12-09 13:16:15.007406$GNVTG,6.35,T,,M,3.17,N,5.87,K,A*2C
###2023-12-09 13:16:15.009052$GNGST,181614.10,18.000,,,,0.098,0.071,0.170*55
###2023-12-09 13:16:15.010340$GNZDA,181614.10,09,12,2023,00,00*7B
###2023-12-09 13:16:15.011000$GNEBP,,,,,,M*13
###2023-12-09 13:16:15.180258$GNGGA,181614.30,4138.0659398,N,07032.2748557,W,1,24,0.7,13.255,M,-29.742,M,0.0,*5E
###2023-12-09 13:16:15.376353$GNGGA,181614.50,4138.0661144,N,07032.2748415,W,1,24,0.7,13.256,M,-29.742,M,0.0,*54
###2023-12-09 13:16:15.576409$GNGGA,181614.70,4138.0662910,N,07032.2748410,W,1,24,0.7,13.263,M,-29.742,M,0.0,*5F
###2023-12-09 13:16:15.780261$GNGGA,181614.90,4138.0664668,N,07032.2748622,W,1,24,0.7,13.266,M,-29.742,M,0.0,*51
###2023-12-09 13:16:15.981736$GNRMC,181615.10,A,4138.0666434,N,07032.2748969,W,3.23,351.96,091223,,,A*5A
###2023-12-09 13:16:15.984629$GNGGA,181615.10,4138.0666434,N,07032.2748969,W,1,24,0.7,13.268,M,-29.742,M,0.0,*5F
###2023-12-09 13:16:15.986416$GPGSA,A,3,03,04,16,26,28,29,31,,,,,,1.2,0.7,1.0*30
###2023-12-09 13:16:15.988140$GLGSA,A,3,65,71,72,73,74,75,,,,,,,1.2,0.7,1.0*2E
###2023-12-09 13:16:15.989725$GAGSA,A,3,04,19,21,27,,,,,,,,,1.2,0.7,1.0*2C
###2023-12-09 13:16:15.991450$GBGSA,A,3,14,24,25,26,33,35,,,,,,,1.2,0.7,1.0*23
###2023-12-09 13:16:15.993776$GPGSV,2,1,07,03,32,254,44,04,38,311,44,16,57,216,47,26,87,208,48*7E
###2023-12-09 13:16:15.995829$GPGSV,2,2,07,28,44,077,45,29,24,054,41,31,65,052,46,,,,*48
###2023-12-09 13:16:15.998162$GLGSV,2,1,06,65,30,325,38,71,33,174,46,72,71,243,47,73,30,046,44*69
###2023-12-09 13:16:15.999917$GLGSV,2,2,06,74,66,355,40,75,37,260,48,,,,,,,,*69
###2023-12-09 13:16:16.002241$GAGSV,1,1,04,04,34,312,43,19,79,190,41,21,83,062,46,27,28,049,41*6A
###2023-12-09 13:16:16.004590$GBGSV,2,1,06,14,37,191,43,24,69,035,46,25,45,267,46,26,22,066,43*68
###2023-12-09 13:16:16.006345$GBGSV,2,2,06,33,53,225,48,35,16,064,42,,,,,,,,*67
###2023-12-09 13:16:16.007682$GNVTG,351.96,T,,M,3.23,N,5.98,K,A*2D
###2023-12-09 13:16:16.009325$GNGST,181615.10,18.000,,,,0.098,0.070,0.170*55
###2023-12-09 13:16:16.010624$GNZDA,181615.10,09,12,2023,00,00*7A
###2023-12-09 13:16:16.011262$GNEBP,,,,,,M*13
###2023-12-09 13:16:16.175494$GNGGA,181615.30,4138.0668259,N,07032.2749316,W,1,24,0.7,13.263,M,-29.742,M,0.0,*56
###2023-12-09 13:16:16.377505$GNGGA,181615.50,4138.0670136,N,07032.2749673,W,1,24,0.7,13.263,M,-29.742,M,0.0,*55
###2023-12-09 13:16:16.578898$GNGGA,181615.70,4138.0672065,N,07032.2750169,W,1,24,0.7,13.260,M,-29.742,M,0.0,*55
###2023-12-09 13:16:16.776377$GNGGA,181615.90,4138.0674006,N,07032.2750768,W,1,24,0.7,13.263,M,-29.742,M,0.0,*5C
###2023-12-09 13:16:16.984120$GNRMC,181616.10,A,4138.0675986,N,07032.2751372,W,3.73,346.65,091223,,,A*58
###2023-12-09 13:16:16.987000$GNGGA,181616.10,4138.0675986,N,07032.2751372,W,1,24,0.7,13.272,M,-29.742,M,0.0,*59
###2023-12-09 13:16:16.988798$GPGSA,A,3,03,04,16,26,28,29,31,,,,,,1.2,0.7,1.0*30
###2023-12-09 13:16:16.990511$GLGSA,A,3,65,71,72,73,74,75,,,,,,,1.2,0.7,1.0*2E
###2023-12-09 13:16:16.992107$GAGSA,A,3,04,19,21,27,,,,,,,,,1.2,0.7,1.0*2C
###2023-12-09 13:16:16.993821$GBGSA,A,3,14,24,25,26,33,35,,,,,,,1.2,0.7,1.0*23
###2023-12-09 13:16:16.996157$GPGSV,2,1,07,03,32,254,43,04,38,311,44,16,57,216,46,26,87,208,48*78
###2023-12-09 13:16:16.998197$GPGSV,2,2,07,28,44,077,45,29,24,054,41,31,65,052,46,,,,*48
###2023-12-09 13:16:17.000544$GLGSV,2,1,06,65,30,325,38,71,33,174,46,72,71,243,46,73,30,046,43*6F
###2023-12-09 13:16:17.002292$GLGSV,2,2,06,74,66,355,41,75,37,260,48,,,,,,,,*68
###2023-12-09 13:16:17.004631$GAGSV,1,1,04,04,34,312,43,19,79,190,41,21,83,062,45,27,28,049,41*69
###2023-12-09 13:16:17.006971$GBGSV,2,1,06,14,37,191,43,24,69,035,49,25,45,267,48,26,22,066,44*6E
###2023-12-09 13:16:17.008711$GBGSV,2,2,06,33,53,225,49,35,16,064,42,,,,,,,,*66
###2023-12-09 13:16:17.010030$GNVTG,346.65,T,,M,3.73,N,6.91,K,A*28
###2023-12-09 13:16:17.011683$GNGST,181616.10,18.000,,,,0.098,0.070,0.170*56
###2023-12-09 13:16:17.012970$GNZDA,181616.10,09,12,2023,00,00*79
###2023-12-09 13:16:17.013605$GNEBP,,,,,,M*13
###2023-12-09 13:16:17.177437$GNGGA,181616.30,4138.0677991,N,07032.2752000,W,1,24,0.7,13.269,M,-29.742,M,0.0,*50
###2023-12-09 13:16:17.376613$GNGGA,181616.50,4138.0679995,N,07032.2752615,W,1,24,0.7,13.265,M,-29.742,M,0.0,*52
###2023-12-09 13:16:17.578636$GNGGA,181616.70,4138.0681974,N,07032.2753201,W,1,24,0.7,13.255,M,-29.742,M,0.0,*5B
###2023-12-09 13:16:17.777979$GNGGA,181616.90,4138.0683952,N,07032.2753622,W,1,24,0.7,13.245,M,-29.742,M,0.0,*57
###2023-12-09 13:16:17.980791$GNRMC,181617.10,A,4138.0685919,N,07032.2753928,W,3.58,354.12,091223,,,A*5D
###2023-12-09 13:16:17.983670$GNGGA,181617.10,4138.0685919,N,07032.2753928,W,1,24,0.7,13.241,M,-29.742,M,0.0,*56
###2023-12-09 13:16:17.985459$GPGSA,A,3,03,04,16,26,28,29,31,,,,,,1.2,0.7,1.0*30
###2023-12-09 13:16:17.987190$GLGSA,A,3,65,71,72,73,74,75,,,,,,,1.2,0.7,1.0*2E
###2023-12-09 13:16:17.988771$GAGSA,A,3,04,19,21,27,,,,,,,,,1.2,0.7,1.0*2C
###2023-12-09 13:16:17.990482$GBGSA,A,3,14,24,25,26,33,35,,,,,,,1.2,0.7,1.0*23
###2023-12-09 13:16:17.992819$GPGSV,2,1,07,03,32,254,44,04,38,311,44,16,57,216,47,26,87,208,48*7E
###2023-12-09 13:16:17.994869$GPGSV,2,2,07,28,44,077,45,29,24,054,41,31,65,052,46,,,,*48
###2023-12-09 13:16:17.997230$GLGSV,2,1,06,65,30,325,41,71,33,174,46,72,71,243,47,73,30,046,42*61
###2023-12-09 13:16:17.998997$GLGSV,2,2,06,74,66,355,41,75,37,260,46,,,,,,,,*66
###2023-12-09 13:16:18.001315$GAGSV,1,1,04,04,34,312,43,19,79,190,40,21,83,062,45,27,28,049,40*69
###2023-12-09 13:16:18.003690$GBGSV,2,1,06,14,37,191,44,24,69,035,48,25,45,267,47,26,22,066,43*60
###2023-12-09 13:16:18.005444$GBGSV,2,2,06,33,53,225,48,35,16,064,43,,,,,,,,*66
###2023-12-09 13:16:18.006779$GNVTG,354.12,T,,M,3.58,N,6.62,K,A*2E
###2023-12-09 13:16:18.008428$GNGST,181617.10,18.000,,,,0.097,0.070,0.170*58
###2023-12-09 13:16:18.009717$GNZDA,181617.10,09,12,2023,00,00*78
###2023-12-09 13:16:18.010357$GNEBP,,,,,,M*13
###2023-12-09 13:16:18.177595$GNGGA,181617.30,4138.0687873,N,07032.2754166,W,1,24,0.7,13.242,M,-29.742,M,0.0,*5D
###2023-12-09 13:16:18.377667$GNGGA,181617.50,4138.0689821,N,07032.2754293,W,1,24,0.7,13.250,M,-29.742,M,0.0,*58
###2023-12-09 13:16:18.577392$GNGGA,181617.70,4138.0691743,N,07032.2754331,W,1,24,0.7,13.253,M,-29.742,M,0.0,*52
###2023-12-09 13:16:18.778444$GNGGA,181617.90,4138.0693651,N,07032.2754280,W,1,24,0.7,13.248,M,-29.742,M,0.0,*5D
###2023-12-09 13:16:18.981715$GNRMC,181618.10,A,4138.0695509,N,07032.2754140,W,3.32,2.59,091223,,,A*5C
###2023-12-09 13:16:18.984603$GNGGA,181618.10,4138.0695509,N,07032.2754140,W,1,24,0.7,13.238,M,-29.742,M,0.0,*5A
###2023-12-09 13:16:18.986396$GPGSA,A,3,03,04,16,26,28,29,31,,,,,,1.2,0.7,1.0*30
###2023-12-09 13:16:18.988122$GLGSA,A,3,65,71,72,73,74,75,,,,,,,1.2,0.7,1.0*2E
###2023-12-09 13:16:18.989732$GAGSA,A,3,04,19,21,27,,,,,,,,,1.2,0.7,1.0*2C
###2023-12-09 13:16:18.991455$GBGSA,A,3,14,24,25,26,33,35,,,,,,,1.2,0.7,1.0*23
###2023-12-09 13:16:18.993772$GPGSV,2,1,07,03,32,254,43,04,38,311,43,16,57,216,46,26,87,208,48*7F
###2023-12-09 13:16:18.995818$GPGSV,2,2,07,28,44,077,44,29,24,054,40,31,65,052,46,,,,*48
###2023-12-09 13:16:18.998162$GLGSV,2,1,06,65,30,325,42,71,33,174,47,72,71,243,47,73,30,046,42*63
###2023-12-09 13:16:18.999917$GLGSV,2,2,06,74,66,355,41,75,37,260,45,,,,,,,,*65
###2023-12-09 13:16:19.002252$GAGSV,1,1,04,04,34,312,42,19,79,190,40,21,83,062,45,27,28,049,40*68
###2023-12-09 13:16:19.004596$GBGSV,2,1,06,14,37,191,44,24,69,035,47,25,45,267,47,26,22,066,43*6F
###2023-12-09 13:16:19.006350$GBGSV,2,2,06,33,53,225,47,35,16,064,42,,,,,,,,*68
###2023-12-09 13:16:19.007868$GNVTG,2.59,T,,M,3.32,N,6.16,K,A*2E
###2023-12-09 13:16:19.009523$GNGST,181618.10,18.000,,,,0.097,0.070,0.170*57
###2023-12-09 13:16:19.010826$GNZDA,181618.10,09,12,2023,00,00*77
###2023-12-09 13:16:19.011467$GNEBP,,,,,,M*13
###2023-12-09 13:16:19.177416$GNGGA,181618.30,4138.0697349,N,07032.2754065,W,1,24,0.7,13.236,M,-29.742,M,0.0,*50
###2023-12-09 13:16:19.377713$GNGGA,181618.50,4138.0699194,N,07032.2753964,W,1,24,0.7,13.231,M,-29.742,M,0.0,*52
###2023-12-09 13:16:19.579284$GNGGA,181618.70,4138.0701052,N,07032.2753887,W,1,24,0.7,13.232,M,-29.742,M,0.0,*54
###2023-12-09 13:16:19.779647$GNGGA,181618.90,4138.0702967,N,07032.2753881,W,1,24,0.7,13.240,M,-29.742,M,0.0,*55
###2023-12-09 13:16:19.981170$GNRMC,181619.10,A,4138.0704936,N,07032.2753864,W,3.65,359.51,091223,,,A*5B
