###2023-12-09 13:40:18.012740$GLGSA,A,3,65,71,72,73,74,75,83,,,,,,1.0,0.6,0.8*2F
###2023-12-09 13:40:18.014356$GAGSA,A,3,04,19,21,27,,,,,,,,,1.0,0.6,0.8*26
###2023-12-09 13:40:18.016104$GBGSA,A,3,12,14,24,25,33,35,,,,,,,1.0,0.6,0.8*2E
###2023-12-09 13:40:18.018444$GPGSV,2,1,08,03,25,244,39,04,48,306,45,16,69,225,46,26,81,040,48*78
###2023-12-09 13:40:18.020798$GPGSV,2,2,08,27,19,172,39,28,36,087,45,29,19,045,43,31,58,070,47*7D
###2023-12-09 13:40:18.023140$GLGSV,2,1,07,65,40,316,44,71,20,176,41,72,60,217,46,73,20,054,43*66
###2023-12-09 13:40:18.025189$GLGSV,2,2,07,74,58,018,43,75,45,275,49,83,16,045,35,,,,*57
###2023-12-09 13:40:18.027551$GAGSV,1,1,04,04,41,309,44,19,69,180,40,21,74,044,47,27,21,050,41*68
###2023-12-09 13:40:18.029878$GBGSV,2,1,06,12,17,125,40,14,27,189,39,24,61,048,48,25,52,278,48*63
###2023-12-09 13:40:18.031635$GBGSV,2,2,06,33,44,215,45,35,16,055,44,,,,,,,,*6B
###2023-12-09 13:40:18.032960$GNVTG,219.26,T,,M,0.25,N,0.47,K,A*29
###2023-12-09 13:40:18.034616$GNGST,184017.10,6.000,,,,0.091,0.069,0.160*6B
###2023-12-09 13:40:18.035954$GNZDA,184017.10,09,12,2023,00,00*7B
###2023-12-09 13:40:18.036596$GNEBP,,,,,,M*13
###2023-12-09 13:40:18.205354$GNGGA,184017.30,4138.0275984,N,07032.3871996,W,1,25,0.6,13.444,M,-29.745,M,0.0,*57
###2023-12-09 13:40:18.402013$GNGGA,184017.50,4138.0275757,N,07032.3872122,W,1,25,0.6,13.448,M,-29.745,M,0.0,*59
###2023-12-09 13:40:18.601575$GNGGA,184017.70,4138.0275502,N,07032.3872345,W,1,25,0.6,13.463,M,-29.745,M,0.0,*53
###2023-12-09 13:40:18.803226$GNGGA,184017.90,4138.0275341,N,07032.3872393,W,1,25,0.6,13.462,M,-29.745,M,0.0,*56
###2023-12-09 13:40:19.004631$GNRMC,184018.10,A,4138.0275235,N,07032.3872263,W,0.25,219.26,091223,,,A*50
###2023-12-09 13:40:19.007519$GNGGA,184018.10,4138.0275235,N,07032.3872263,W,1,25,0.6,13.455,M,-29.745,M,0.0,*59
###2023-12-09 13:40:19.009388$GPGSA,A,3,03,04,16,26,27,28,29,31,,,,,1.1,0.6,0.9*3F
###2023-12-09 13:40:19.011185$GLGSA,A,3,65,71,72,73,74,75,83,,,,,,1.1,0.6,0.9*2F
###2023-12-09 13:40:19.012772$GAGSA,A,3,04,19,21,27,,,,,,,,,1.1,0.6,0.9*26
###2023-12-09 13:40:19.014477$GBGSA,A,3,12,14,24,25,33,35,,,,,,,1.1,0.6,0.9*2E
###2023-12-09 13:40:19.016818$GPGSV,2,1,08,03,25,244,39,04,48,306,45,16,69,225,47,26,81,040,49*78
###2023-12-09 13:40:19.019164$GPGSV,2,2,08,27,19,172,39,28,36,087,45,29,19,045,43,31,58,070,47*7D
###2023-12-09 13:40:19.021498$GLGSV,2,1,07,65,40,316,44,71,20,176,41,72,60,217,45,73,20,054,43*65
###2023-12-09 13:40:19.023542$GLGSV,2,2,07,74,58,018,43,75,45,275,48,83,16,045,35,,,,*56
###2023-12-09 13:40:19.025871$GAGSV,1,1,04,04,41,309,45,19,69,180,41,21,74,044,47,27,21,050,41*68
###2023-12-09 13:40:19.028242$GBGSV,2,1,06,12,17,125,40,14,27,189,39,24,61,048,48,25,52,278,48*63
###2023-12-09 13:40:19.029994$GBGSV,2,2,06,33,44,215,46,35,16,055,43,,,,,,,,*6F
###2023-12-09 13:40:19.031329$GNVTG,219.26,T,,M,0.25,N,0.47,K,A*29
###2023-12-09 13:40:19.032937$GNGST,184018.10,5.600,,,,0.091,0.069,0.160*61
###2023-12-09 13:40:19.034225$GNZDA,184018.10,09,12,2023,00,00*74
###2023-12-09 13:40:19.034875$GNEBP,,,,,,M*13
###2023-12-09 13:40:19.204139$GNGGA,184018.30,4138.0275058,N,07032.3872251,W,1,25,0.6,13.451,M,-29.745,M,0.0,*57
###2023-12-09 13:40:19.402110$GNGGA,184018.50,4138.0274831,N,07032.3872444,W,1,25,0.6,13.447,M,-29.745,M,0.0,*52
###2023-12-09 13:40:19.601596$GNGGA,184018.70,4138.0274607,N,07032.3872663,W,1,25,0.6,13.449,M,-29.745,M,0.0,*52
###2023-12-09 13:40:19.803127$GNGGA,184018.90,4138.0274412,N,07032.3872741,W,1,25,0.6,13.458,M,-29.745,M,0.0,*5B
###2023-12-09 13:40:20.008302$GNRMC,184019.10,A,4138.0274287,N,07032.3872642,W,0.27,219.26,091223,,,A*5C
###2023-12-09 13:40:20.011157$GNGGA,184019.10,4138.0274287,N,07032.3872642,W,1,24,0.6,13.452,M,-29.745,M,0.0,*51
###2023-12-09 13:40:20.013010$GPGSA,A,3,03,04,16,26,27,28,29,31,,,,,1.1,0.6,0.9*3F
###2023-12-09 13:40:20.014728$GLGSA,A,3,65,71,72,73,74,75,,,,,,,1.1,0.6,0.9*24
###2023-12-09 13:40:20.016311$GAGSA,A,3,04,19,21,27,,,,,,,,,1.1,0.6,0.9*26
###2023-12-09 13:40:20.018010$GBGSA,A,3,12,14,24,25,33,35,,,,,,,1.1,0.6,0.9*2E
###2023-12-09 13:40:20.020341$GPGSV,2,1,08,03,25,244,37,04,48,306,43,16,69,225,45,26,81,040,47*7C
###2023-12-09 13:40:20.022684$GPGSV,2,2,08,27,19,172,37,28,36,087,43,29,19,045,41,31,58,070,45*75
###2023-12-09 13:40:20.025008$GLGSV,2,1,06,65,40,316,44,71,20,176,41,72,60,217,45,73,20,054,43*64
###2023-12-09 13:40:20.026796$GLGSV,2,2,06,74,58,018,43,75,45,275,49,,,,,,,,*6D
###2023-12-09 13:40:20.029123$GAGSV,1,1,04,04,41,309,42,19,69,180,39,21,74,044,45,27,21,050,39*6D
###2023-12-09 13:40:20.031462$GBGSV,2,1,06,12,17,124,40,14,27,189,40,24,61,048,48,25,52,278,48*6C
###2023-12-09 13:40:20.033206$GBGSV,2,2,06,33,44,215,46,35,16,055,43,,,,,,,,*6F
###2023-12-09 13:40:20.034526$GNVTG,219.26,T,,M,0.27,N,0.50,K,A*2D
###2023-12-09 13:40:20.036145$GNGST,184019.10,5.500,,,,0.090,0.069,0.160*62
###2023-12-09 13:40:20.037430$GNZDA,184019.10,09,12,2023,00,00*75
###2023-12-09 13:40:20.038065$GNEBP,,,,,,M*13
###2023-12-09 13:40:20.203293$GNGGA,184019.30,4138.0274209,N,07032.3872550,W,1,25,0.6,13.427,M,-29.745,M,0.0,*56
###2023-12-09 13:40:20.402768$GNGGA,184019.50,4138.0273982,N,07032.3872809,W,1,25,0.6,13.434,M,-29.745,M,0.0,*5C
###2023-12-09 13:40:20.603430$GNGGA,184019.70,4138.0273690,N,07032.3873170,W,1,24,0.6,13.448,M,-29.745,M,0.0,*5E
###2023-12-09 13:40:20.801365$GNGGA,184019.90,4138.0273552,N,07032.3873160,W,1,24,0.6,13.447,M,-29.745,M,0.0,*53
###2023-12-09 13:40:21.014768$GNRMC,184020.10,A,4138.0273521,N,07032.3872928,W,0.21,219.26,091223,,,A*5F
###2023-12-09 13:40:21.018214$GNGGA,184020.10,4138.0273521,N,07032.3872928,W,1,24,0.6,13.432,M,-29.745,M,0.0,*52
###2023-12-09 13:40:21.020461$GPGSA,A,3,03,04,16,26,27,28,29,31,,,,,1.1,0.6,0.9*3F
###2023-12-09 13:40:21.022525$GLGSA,A,3,65,71,72,73,74,75,,,,,,,1.1,0.6,0.9*24
###2023-12-09 13:40:21.024446$GAGSA,A,3,04,19,21,27,,,,,,,,,1.1,0.6,0.9*26
###2023-12-09 13:40:21.026505$GBGSA,A,3,12,14,24,25,33,35,,,,,,,1.1,0.6,0.9*2E
###2023-12-09 13:40:21.029322$GPGSV,2,1,08,03,25,244,36,04,48,306,45,16,69,225,45,26,81,040,47*7B
###2023-12-09 13:40:21.032134$GPGSV,2,2,08,27,19,172,39,28,36,087,44,29,19,045,42,31,58,070,46*7C
###2023-12-09 13:40:21.034998$GLGSV,2,1,06,65,40,316,44,71,20,176,41,72,60,217,46,73,20,054,45*61
###2023-12-09 13:40:21.037100$GLGSV,2,2,06,74,58,018,44,75,45,275,48,,,,,,,,*6B
###2023-12-09 13:40:21.039906$GAGSV,1,1,04,04,41,309,44,19,69,180,41,21,74,044,46,27,21,050,42*6B
###2023-12-09 13:40:21.042718$GBGSV,2,1,06,12,17,124,42,14,27,189,40,24,61,048,49,25,52,278,49*6E
###2023-12-09 13:40:21.044851$GBGSV,2,2,06,33,44,215,46,35,16,055,45,,,,,,,,*69
###2023-12-09 13:40:21.046449$GNVTG,219.26,T,,M,0.21,N,0.40,K,A*2A
###2023-12-09 13:40:21.048402$GNGST,184020.10,5.400,,,,0.091,0.070,0.160*60
###2023-12-09 13:40:21.049958$GNZDA,184020.10,09,12,2023,00,00*7F
###2023-12-09 13:40:21.050753$GNEBP,,,,,,M*13
###2023-12-09 13:40:21.212849$GNGGA,184020.30,4138.0273380,N,07032.3872988,W,1,25,0.6,13.431,M,-29.745,M,0.0,*55
###2023-12-09 13:40:21.401895$GNGGA,184020.50,4138.0273113,N,07032.3873405,W,1,25,0.6,13.443,M,-29.745,M,0.0,*57
###2023-12-09 13:40:21.601520$GNGGA,184020.70,4138.0272915,N,07032.3873667,W,1,26,0.6,13.444,M,-29.745,M,0.0,*58
###2023-12-09 13:40:21.803200$GNGGA,184020.90,4138.0272840,N,07032.3873514,W,1,26,0.6,13.434,M,-29.745,M,0.0,*57
###2023-12-09 13:40:22.008109$GNRMC,184021.10,A,4138.0272786,N,07032.3873288,W,0.21,219.26,091223,,,A*50
###2023-12-09 13:40:22.011568$GNGGA,184021.10,4138.0272786,N,07032.3873288,W,1,25,0.6,13.413,M,-29.745,M,0.0,*5F
###2023-12-09 13:40:22.013806$GPGSA,A,3,03,04,16,26,27,28,29,31,,,,,1.1,0.6,0.9*3F
###2023-12-09 13:40:22.015966$GLGSA,A,3,65,71,72,73,74,75,83,,,,,,1.1,0.6,0.9*2F
###2023-12-09 13:40:22.017875$GAGSA,A,3,04,19,21,27,,,,,,,,,1.1,0.6,0.9*26
###2023-12-09 13:40:22.019946$GBGSA,A,3,12,14,24,25,33,35,,,,,,,1.1,0.6,0.9*2E
###2023-12-09 13:40:22.022754$GPGSV,2,1,08,03,25,244,36,04,48,306,44,16,69,225,45,26,81,040,48*75
###2023-12-09 13:40:22.025559$GPGSV,2,2,08,27,19,172,39,28,36,087,44,29,19,045,43,31,58,070,47*7C
###2023-12-09 13:40:22.028419$GLGSV,2,1,07,65,40,316,44,71,20,176,41,72,60,217,46,73,20,054,44*61
###2023-12-09 13:40:22.031181$GLGSV,2,2,07,74,58,018,43,75,45,275,48,83,16,045,35,,,,*56
###2023-12-09 13:40:22.034007$GAGSV,1,1,04,04,41,309,44,19,69,180,40,21,74,044,46,27,21,050,42*6A
###2023-12-09 13:40:22.036905$GBGSV,2,1,06,12,17,124,40,14,26,189,38,24,61,048,47,25,52,278,46*63
###2023-12-09 13:40:22.039032$GBGSV,2,2,06,33,44,215,44,35,16,055,43,,,,,,,,*6D
###2023-12-09 13:40:22.040628$GNVTG,219.26,T,,M,0.21,N,0.40,K,A*2A
###2023-12-09 13:40:22.042575$GNGST,184021.10,5.800,,,,0.091,0.070,0.160*6D
###2023-12-09 13:40:22.044123$GNZDA,184021.10,09,12,2023,00,00*7E
###2023-12-09 13:40:22.044888$GNEBP,,,,,,M*13
###2023-12-09 13:40:22.203138$GNGGA,184021.30,4138.0272581,N,07032.3873515,W,1,25,0.6,13.423,M,-29.745,M,0.0,*58
###2023-12-09 13:40:22.403569$GNGGA,184021.50,4138.0272331,N,07032.3874007,W,1,25,0.6,13.433,M,-29.745,M,0.0,*53
