###2023-12-09 12:39:34.956748$GPGSV,2,1,08,03,38,274,42,04,24,311,38,16,38,208,42,26,68,207,47*7B
###2023-12-09 12:39:34.959130$GPGSV,2,2,08,28,57,058,45,29,25,072,43,31,73,007,48,32,28,135,46*78
###2023-12-09 12:39:34.961483$GLGSV,2,1,05,71,54,170,48,72,68,305,45,73,45,035,47,74,71,299,42*63
###2023-12-09 12:39:34.962963$GLGSV,2,2,05,75,24,243,39,,,,,,,,,,,,*5B
###2023-12-09 12:39:34.965293$GAGSV,1,1,04,04,22,311,37,19,82,296,41,21,79,174,46,27,40,049,44*64
###2023-12-09 12:39:34.967656$GBGSV,2,1,05,14,53,197,46,24,80,355,48,25,34,254,42,26,33,058,46*6C
###2023-12-09 12:39:34.969118$GBGSV,2,2,05,33,62,250,47,,,,,,,,,,,,*5E
###2023-12-09 12:39:34.970443$GNVTG,289.50,T,,M,0.72,N,1.33,K,A*21
###2023-12-09 12:39:34.972104$GNGST,173934.10,19.000,,,,0.081,0.071,0.170*5C
###2023-12-09 12:39:34.973399$GNZDA,173934.10,09,12,2023,00,00*7B
###2023-12-09 12:39:34.974038$GNEBP,,,,,,M*13
###2023-12-09 12:39:35.140347$GNGGA,173934.30,4138.0539683,N,07032.3772818,W,1,23,0.7,13.480,M,-29.744,M,0.0,*55
###2023-12-09 12:39:35.339926$GNGGA,173934.50,4138.0539835,N,07032.3773220,W,1,23,0.7,13.487,M,-29.744,M,0.0,*57
###2023-12-09 12:39:35.541201$GNGGA,173934.70,4138.0539800,N,07032.3773291,W,1,23,0.7,13.493,M,-29.744,M,0.0,*5C
###2023-12-09 12:39:35.738462$GNGGA,173934.90,4138.0539756,N,07032.3773301,W,1,23,0.7,13.480,M,-29.744,M,0.0,*54
###2023-12-09 12:39:35.940613$GNRMC,173935.10,A,4138.0539818,N,07032.3773568,W,0.62,289.50,091223,,,A*5D
###2023-12-09 12:39:35.943498$GNGGA,173935.10,4138.0539818,N,07032.3773568,W,1,23,0.7,13.462,M,-29.744,M,0.0,*5D
###2023-12-09 12:39:35.945357$GPGSA,A,3,03,04,16,26,28,29,31,32,,,,,1.2,0.7,1.0*31
###2023-12-09 12:39:35.947071$GLGSA,A,3,71,72,73,74,75,,,,,,,,1.2,0.7,1.0*2D
###2023-12-09 12:39:35.948676$GAGSA,A,3,04,19,21,27,,,,,,,,,1.2,0.7,1.0*2C
###2023-12-09 12:39:35.950324$GBGSA,A,3,14,24,25,26,33,,,,,,,,1.2,0.7,1.0*25
###2023-12-09 12:39:35.952683$GPGSV,2,1,08,03,38,274,43,04,24,311,40,16,38,208,42,26,68,207,47*75
###2023-12-09 12:39:35.955047$GPGSV,2,2,08,28,57,058,45,29,25,072,44,31,73,007,47,32,28,135,45*73
###2023-12-09 12:39:35.957391$GLGSV,2,1,05,71,54,170,48,72,68,305,46,73,45,035,46,74,71,299,42*61
###2023-12-09 12:39:35.958874$GLGSV,2,2,05,75,24,243,40,,,,,,,,,,,,*55
###2023-12-09 12:39:35.961211$GAGSV,1,1,04,04,22,311,38,19,82,296,40,21,79,174,45,27,40,049,44*69
###2023-12-09 12:39:35.963569$GBGSV,2,1,05,14,53,197,45,24,80,355,48,25,34,254,41,26,33,058,45*6F
###2023-12-09 12:39:35.965034$GBGSV,2,2,05,33,62,250,46,,,,,,,,,,,,*5F
###2023-12-09 12:39:35.966362$GNVTG,289.50,T,,M,0.62,N,1.15,K,A*24
###2023-12-09 12:39:35.968026$GNGST,173935.10,19.000,,,,0.081,0.071,0.170*5D
###2023-12-09 12:39:35.969326$GNZDA,173935.10,09,12,2023,00,00*7A
###2023-12-09 12:39:35.969968$GNEBP,,,,,,M*13
###2023-12-09 12:39:36.142187$GNGGA,173935.30,4138.0539990,N,07032.3774020,W,1,23,0.7,13.465,M,-29.744,M,0.0,*57
###2023-12-09 12:39:36.340765$GNGGA,173935.50,4138.0540132,N,07032.3774420,W,1,23,0.7,13.471,M,-29.744,M,0.0,*5E
###2023-12-09 12:39:36.542097$GNGGA,173935.70,4138.0540189,N,07032.3774640,W,1,23,0.7,13.495,M,-29.744,M,0.0,*52
###2023-12-09 12:39:36.742145$GNGGA,173935.90,4138.0540188,N,07032.3774747,W,1,23,0.7,13.492,M,-29.744,M,0.0,*5C
###2023-12-09 12:39:36.941449$GNRMC,173936.10,A,4138.0540171,N,07032.3774883,W,0.27,289.50,091223,,,A*58
###2023-12-09 12:39:36.944308$GNGGA,173936.10,4138.0540171,N,07032.3774883,W,1,23,0.7,13.461,M,-29.744,M,0.0,*5A
###2023-12-09 12:39:36.946163$GPGSA,A,3,03,04,16,26,28,29,31,32,,,,,1.2,0.7,1.0*31
###2023-12-09 12:39:36.947852$GLGSA,A,3,71,72,73,74,75,,,,,,,,1.2,0.7,1.0*2D
###2023-12-09 12:39:36.949457$GAGSA,A,3,04,19,21,27,,,,,,,,,1.2,0.7,1.0*2C
###2023-12-09 12:39:36.951125$GBGSA,A,3,14,24,25,26,33,,,,,,,,1.2,0.7,1.0*25
###2023-12-09 12:39:36.953468$GPGSV,2,1,08,03,38,274,43,04,24,311,40,16,38,208,42,26,68,207,47*75
###2023-12-09 12:39:36.955835$GPGSV,2,2,08,28,57,058,45,29,25,072,44,31,73,007,47,32,28,135,45*73
###2023-12-09 12:39:36.958182$GLGSV,2,1,05,71,54,170,48,72,68,305,46,73,45,035,47,74,71,299,42*60
###2023-12-09 12:39:36.959659$GLGSV,2,2,05,75,24,243,40,,,,,,,,,,,,*55
###2023-12-09 12:39:36.961987$GAGSV,1,1,04,04,22,311,40,19,82,296,40,21,79,174,45,27,40,049,44*66
###2023-12-09 12:39:36.964341$GBGSV,2,1,05,14,53,197,45,24,80,355,49,25,34,254,43,26,33,058,46*6F
###2023-12-09 12:39:36.965799$GBGSV,2,2,05,33,62,250,47,,,,,,,,,,,,*5E
###2023-12-09 12:39:36.967135$GNVTG,289.50,T,,M,0.27,N,0.50,K,A*25
###2023-12-09 12:39:36.968789$GNGST,173936.10,18.000,,,,0.080,0.071,0.170*5E
###2023-12-09 12:39:36.970081$GNZDA,173936.10,09,12,2023,00,00*79
###2023-12-09 12:39:36.970731$GNEBP,,,,,,M*13
###2023-12-09 12:39:37.142029$GNGGA,173936.30,4138.0540285,N,07032.3775210,W,1,23,0.7,13.459,M,-29.744,M,0.0,*5A
###2023-12-09 12:39:37.341766$GNGGA,173936.50,4138.0540526,N,07032.3775731,W,1,23,0.7,13.484,M,-29.744,M,0.0,*54
###2023-12-09 12:39:37.541176$GNGGA,173936.70,4138.0540696,N,07032.3776177,W,1,23,0.7,13.497,M,-29.744,M,0.0,*5B
###2023-12-09 12:39:37.740202$GNGGA,173936.90,4138.0540660,N,07032.3776253,W,1,23,0.7,13.498,M,-29.744,M,0.0,*56
###2023-12-09 12:39:37.941519$GNRMC,173937.10,A,4138.0540537,N,07032.3776178,W,0.10,289.50,091223,,,A*54
###2023-12-09 12:39:37.944380$GNGGA,173937.10,4138.0540537,N,07032.3776178,W,1,23,0.7,13.462,M,-29.744,M,0.0,*51
###2023-12-09 12:39:37.946235$GPGSA,A,3,03,04,16,26,28,29,31,32,,,,,1.2,0.7,1.0*31
###2023-12-09 12:39:37.947917$GLGSA,A,3,71,72,73,74,75,,,,,,,,1.2,0.7,1.0*2D
###2023-12-09 12:39:37.949519$GAGSA,A,3,04,19,21,27,,,,,,,,,1.2,0.7,1.0*2C
###2023-12-09 12:39:37.951187$GBGSA,A,3,14,24,25,26,33,,,,,,,,1.2,0.7,1.0*25
###2023-12-09 12:39:37.953523$GPGSV,2,1,08,03,38,274,42,04,24,311,39,16,38,208,42,26,68,207,46*7B
###2023-12-09 12:39:37.955873$GPGSV,2,2,08,28,57,058,45,29,25,072,45,31,73,007,47,32,28,135,45*72
###2023-12-09 12:39:37.958208$GLGSV,2,1,05,71,54,170,49,72,68,305,45,73,45,035,46,74,71,299,42*63
###2023-12-09 12:39:37.959678$GLGSV,2,2,05,75,24,243,40,,,,,,,,,,,,*55
###2023-12-09 12:39:37.962006$GAGSV,1,1,04,04,22,311,39,19,82,296,41,21,79,174,46,27,40,049,45*6B
###2023-12-09 12:39:37.964355$GBGSV,2,1,05,14,53,197,45,24,80,355,48,25,34,254,41,26,33,058,46*6C
###2023-12-09 12:39:37.965810$GBGSV,2,2,05,33,62,250,46,,,,,,,,,,,,*5F
###2023-12-09 12:39:37.967144$GNVTG,289.50,T,,M,0.10,N,0.18,K,A*2D
###2023-12-09 12:39:37.968789$GNGST,173937.10,18.000,,,,0.080,0.070,0.170*5E
###2023-12-09 12:39:37.970080$GNZDA,173937.10,09,12,2023,00,00*78
###2023-12-09 12:39:37.970730$GNEBP,,,,,,M*13
###2023-12-09 12:39:38.140602$GNGGA,173937.30,4138.0540674,N,07032.3776537,W,1,23,0.7,13.468,M,-29.744,M,0.0,*52
###2023-12-09 12:39:38.340931$GNGGA,173937.50,4138.0541020,N,07032.3777260,W,1,23,0.7,13.496,M,-29.744,M,0.0,*57
###2023-12-09 12:39:38.543671$GNGGA,173937.70,4138.0541218,N,07032.3777717,W,1,23,0.7,13.493,M,-29.744,M,0.0,*5C
###2023-12-09 12:39:38.741053$GNGGA,173937.90,4138.0541110,N,07032.3777659,W,1,23,0.7,13.497,M,-29.744,M,0.0,*56
###2023-12-09 12:39:38.943185$GNRMC,173938.10,A,4138.0540974,N,07032.3777623,W,0.17,304.12,091223,,,A*5D
###2023-12-09 12:39:38.946068$GNGGA,173938.10,4138.0540974,N,07032.3777623,W,1,23,0.7,13.459,M,-29.744,M,0.0,*55
###2023-12-09 12:39:38.947955$GPGSA,A,3,03,04,16,26,28,29,31,32,,,,,1.2,0.7,1.0*31
###2023-12-09 12:39:38.949623$GLGSA,A,3,71,72,73,74,75,,,,,,,,1.2,0.7,1.0*2D
###2023-12-09 12:39:38.951227$GAGSA,A,3,04,19,21,27,,,,,,,,,1.2,0.7,1.0*2C
###2023-12-09 12:39:38.952870$GBGSA,A,3,14,24,25,26,33,,,,,,,,1.2,0.7,1.0*25
###2023-12-09 12:39:38.955202$GPGSV,2,1,08,03,38,274,42,04,24,311,39,16,38,208,43,26,68,207,46*7A
###2023-12-09 12:39:38.957532$GPGSV,2,2,08,28,57,058,46,29,25,072,44,31,73,007,47,32,28,135,46*73
###2023-12-09 12:39:38.959873$GLGSV,2,1,05,71,54,170,48,72,68,305,45,73,45,035,45,74,71,299,41*62
###2023-12-09 12:39:38.961327$GLGSV,2,2,05,75,24,243,40,,,,,,,,,,,,*55
###2023-12-09 12:39:38.963663$GAGSV,1,1,04,04,22,311,37,19,82,296,40,21,79,174,46,27,40,049,44*65
###2023-12-09 12:39:38.965994$GBGSV,2,1,05,14,53,197,46,24,80,355,49,25,34,254,42,26,33,058,46*6D
###2023-12-09 12:39:38.967464$GBGSV,2,2,05,33,62,250,47,,,,,,,,,,,,*5E
###2023-12-09 12:39:38.969035$GNVTG,304.12,T,,M,0.17,N,0.32,K,A*20
###2023-12-09 12:39:38.970713$GNGST,173938.10,18.000,,,,0.080,0.070,0.170*51
###2023-12-09 12:39:38.972013$GNZDA,173938.10,09,12,2023,00,00*77
###2023-12-09 12:39:38.972659$GNEBP,,,,,,M*13
###2023-12-09 12:39:39.141627$GNGGA,173938.30,4138.0541179,N,07032.3778039,W,1,23,0.7,13.469,M,-29.744,M,0.0,*52
###2023-12-09 12:39:39.340739$GNGGA,173938.50,4138.0541568,N,07032.3778755,W,1,23,0.7,13.483,M,-29.744,M,0.0,*59
###2023-12-09 12:39:39.543574$GNGGA,173938.70,4138.0541731,N,07032.3779184,W,1,23,0.7,13.488,M,-29.744,M,0.0,*55
###2023-12-09 12:39:39.741980$GNGGA,173938.90,4138.0541610,N,07032.3779129,W,1,23,0.7,13.496,M,-29.744,M,0.0,*51
###2023-12-09 12:39:39.940073$GNRMC,173939.10,A,4138.0541534,N,07032.3779166,W,0.39,305.24,091223,,,A*55
