###2023-12-09 13:44:55.024445$GBGSV,1,1,04,12,19,123,42,24,59,051,48,25,54,281,43,35,16,052,39*66
###2023-12-09 13:44:55.025796$GNVTG,243.17,T,,M,0.02,N,0.04,K,A*26
###2023-12-09 13:44:55.027430$GNGST,184454.10,7.300,,,,0.190,0.110,0.300*61
###2023-12-09 13:44:55.028720$GNZDA,184454.10,09,12,2023,00,00*78
###2023-12-09 13:44:55.029360$GNEBP,,,,,,M*13
###2023-12-09 13:44:55.200121$GNGGA,184454.30,4138.0391972,N,07032.4388947,W,1,18,0.8,13.903,M,-29.746,M,0.0,*5D
###2023-12-09 13:44:55.403478$GNGGA,184454.50,4138.0391988,N,07032.4388942,W,1,18,0.8,13.904,M,-29.746,M,0.0,*5C
###2023-12-09 13:44:55.599200$GNGGA,184454.70,4138.0392003,N,07032.4388946,W,1,18,0.8,13.904,M,-29.746,M,0.0,*53
###2023-12-09 13:44:55.799092$GNGGA,184454.90,4138.0392040,N,07032.4388931,W,1,18,0.8,13.902,M,-29.746,M,0.0,*5C
###2023-12-09 13:44:56.004754$GNRMC,184455.10,A,4138.0392054,N,07032.4388916,W,0.04,243.17,091223,,,A*5E
###2023-12-09 13:44:56.007639$GNGGA,184455.10,4138.0392054,N,07032.4388916,W,1,18,0.8,13.901,M,-29.746,M,0.0,*56
###2023-12-09 13:44:56.009363$GPGSA,A,3,04,16,26,28,29,31,,,,,,,1.4,0.8,1.1*3B
###2023-12-09 13:44:56.011024$GLGSA,A,3,65,72,73,75,83,,,,,,,,1.4,0.8,1.1*28
###2023-12-09 13:44:56.012535$GAGSA,A,3,04,21,27,,,,,,,,,,1.4,0.8,1.1*2C
###2023-12-09 13:44:56.014109$GBGSA,A,3,12,24,25,35,,,,,,,,,1.4,0.8,1.1*29
###2023-12-09 13:44:56.016446$GPGSV,2,1,06,04,50,305,45,16,71,227,43,26,79,041,38,28,35,088,44*73
###2023-12-09 13:44:56.018192$GPGSV,2,2,06,29,18,043,43,31,56,072,50,,,,,,,,*7C
###2023-12-09 13:44:56.020529$GLGSV,2,1,05,65,42,313,45,72,57,214,36,73,18,056,43,75,47,279,46*65
###2023-12-09 13:44:56.021986$GLGSV,2,2,05,83,16,042,38,,,,,,,,,,,,*51
###2023-12-09 13:44:56.024018$GAGSV,1,1,03,04,43,308,45,21,73,044,36,27,19,051,40,,,,*5D
###2023-12-09 13:44:56.026344$GBGSV,1,1,04,12,19,123,42,24,59,051,48,25,54,281,43,35,16,052,40*68
###2023-12-09 13:44:56.027689$GNVTG,243.17,T,,M,0.04,N,0.07,K,A*23
###2023-12-09 13:44:56.029298$GNGST,184455.10,7.400,,,,0.190,0.110,0.300*67
###2023-12-09 13:44:56.030592$GNZDA,184455.10,09,12,2023,00,00*79
###2023-12-09 13:44:56.031230$GNEBP,,,,,,M*13
###2023-12-09 13:44:56.199601$GNGGA,184455.30,4138.0392076,N,07032.4388908,W,1,18,0.8,13.901,M,-29.746,M,0.0,*5B
###2023-12-09 13:44:56.399888$GNGGA,184455.50,4138.0392084,N,07032.4388905,W,1,18,0.8,13.902,M,-29.746,M,0.0,*5E
###2023-12-09 13:44:56.599015$GNGGA,184455.70,4138.0392101,N,07032.4388905,W,1,18,0.8,13.903,M,-29.746,M,0.0,*51
###2023-12-09 13:44:56.799234$GNGGA,184455.90,4138.0392130,N,07032.4388902,W,1,18,0.8,13.905,M,-29.746,M,0.0,*5C
###2023-12-09 13:44:57.006180$GNRMC,184456.10,A,4138.0392160,N,07032.4388903,W,0.02,243.17,091223,,,A*59
###2023-12-09 13:44:57.009070$GNGGA,184456.10,4138.0392160,N,07032.4388903,W,1,18,0.8,13.903,M,-29.746,M,0.0,*55
###2023-12-09 13:44:57.010804$GPGSA,A,3,04,16,26,28,29,31,,,,,,,1.4,0.8,1.1*3B
###2023-12-09 13:44:57.012445$GLGSA,A,3,65,72,73,75,83,,,,,,,,1.4,0.8,1.1*28
###2023-12-09 13:44:57.013953$GAGSA,A,3,04,21,27,,,,,,,,,,1.4,0.8,1.1*2C
###2023-12-09 13:44:57.015536$GBGSA,A,3,12,24,25,35,,,,,,,,,1.4,0.8,1.1*29
###2023-12-09 13:44:57.017859$GPGSV,2,1,06,04,50,305,45,16,71,227,44,26,79,041,39,28,35,088,44*75
###2023-12-09 13:44:57.019611$GPGSV,2,2,06,29,18,043,43,31,56,072,50,,,,,,,,*7C
###2023-12-09 13:44:57.021933$GLGSV,2,1,05,65,42,313,45,72,57,214,36,73,18,056,44,75,47,279,46*62
###2023-12-09 13:44:57.023400$GLGSV,2,2,05,83,16,042,37,,,,,,,,,,,,*5E
###2023-12-09 13:44:57.025429$GAGSV,1,1,03,04,43,308,45,21,73,044,35,27,19,051,39,,,,*50
###2023-12-09 13:44:57.027763$GBGSV,1,1,04,12,19,123,42,24,59,051,48,25,54,281,43,35,16,052,40*68
###2023-12-09 13:44:57.029091$GNVTG,243.17,T,,M,0.02,N,0.04,K,A*26
###2023-12-09 13:44:57.030712$GNGST,184456.10,8.100,,,,0.190,0.110,0.300*6E
###2023-12-09 13:44:57.032001$GNZDA,184456.10,09,12,2023,00,00*7A
###2023-12-09 13:44:57.032641$GNEBP,,,,,,M*13
###2023-12-09 13:44:57.207322$GNGGA,184456.30,4138.0392189,N,07032.4388895,W,1,18,0.8,13.903,M,-29.746,M,0.0,*5E
###2023-12-09 13:44:57.400410$GNGGA,184456.50,4138.0392214,N,07032.4388882,W,1,18,0.8,13.905,M,-29.746,M,0.0,*5F
###2023-12-09 13:44:57.598888$GNGGA,184456.70,4138.0392236,N,07032.4388871,W,1,18,0.8,13.910,M,-29.746,M,0.0,*55
###2023-12-09 13:44:57.800175$GNGGA,184456.90,4138.0392248,N,07032.4388874,W,1,18,0.8,13.912,M,-29.746,M,0.0,*55
###2023-12-09 13:44:58.002133$GNRMC,184457.10,A,4138.0392253,N,07032.4388867,W,0.04,243.17,091223,,,A*5E
###2023-12-09 13:44:58.005026$GNGGA,184457.10,4138.0392253,N,07032.4388867,W,1,18,0.8,13.915,M,-29.746,M,0.0,*53
###2023-12-09 13:44:58.006780$GPGSA,A,3,04,16,26,28,29,31,,,,,,,1.4,0.8,1.1*3B
###2023-12-09 13:44:58.008434$GLGSA,A,3,65,72,73,75,83,,,,,,,,1.4,0.8,1.1*28
###2023-12-09 13:44:58.009954$GAGSA,A,3,04,21,27,,,,,,,,,,1.4,0.8,1.1*2C
###2023-12-09 13:44:58.011545$GBGSA,A,3,12,24,25,35,,,,,,,,,1.4,0.8,1.1*29
###2023-12-09 13:44:58.013866$GPGSV,2,1,06,04,50,305,45,16,71,227,44,26,79,041,39,28,35,088,44*75
###2023-12-09 13:44:58.015628$GPGSV,2,2,06,29,18,043,43,31,56,072,50,,,,,,,,*7C
###2023-12-09 13:44:58.017954$GLGSV,2,1,05,65,42,313,45,72,57,214,35,73,18,056,44,75,47,279,46*61
###2023-12-09 13:44:58.019423$GLGSV,2,2,05,83,16,042,37,,,,,,,,,,,,*5E
###2023-12-09 13:44:58.021464$GAGSV,1,1,03,04,43,308,45,21,73,044,35,27,19,051,39,,,,*50
###2023-12-09 13:44:58.023842$GBGSV,1,1,04,12,19,123,42,24,59,051,48,25,54,281,42,35,16,052,39*67
###2023-12-09 13:44:58.025181$GNVTG,243.17,T,,M,0.04,N,0.07,K,A*23
###2023-12-09 13:44:58.026819$GNGST,184457.10,8.100,,,,0.190,0.110,0.300*6F
###2023-12-09 13:44:58.028111$GNZDA,184457.10,09,12,2023,00,00*7B
###2023-12-09 13:44:58.028751$GNEBP,,,,,,M*13
###2023-12-09 13:44:58.201888$GNGGA,184457.30,4138.0392258,N,07032.4388858,W,1,18,0.8,13.919,M,-29.746,M,0.0,*5A
###2023-12-09 13:44:58.400860$GNGGA,184457.50,4138.0392271,N,07032.4388858,W,1,18,0.8,13.924,M,-29.746,M,0.0,*59
###2023-12-09 13:44:58.599112$GNGGA,184457.70,4138.0392297,N,07032.4388855,W,1,18,0.8,13.922,M,-29.746,M,0.0,*58
###2023-12-09 13:44:58.799348$GNGGA,184457.90,4138.0392315,N,07032.4388839,W,1,18,0.8,13.932,M,-29.746,M,0.0,*56
###2023-12-09 13:44:59.004052$GNRMC,184458.10,A,4138.0392328,N,07032.4388846,W,0.02,243.17,091223,,,A*59
###2023-12-09 13:44:59.007098$GNGGA,184458.10,4138.0392328,N,07032.4388846,W,1,18,0.8,13.929,M,-29.746,M,0.0,*5D
###2023-12-09 13:44:59.008873$GPGSA,A,3,04,16,26,28,29,31,,,,,,,1.4,0.8,1.1*3B
###2023-12-09 13:44:59.010511$GLGSA,A,3,65,72,73,75,83,,,,,,,,1.4,0.8,1.1*28
###2023-12-09 13:44:59.012035$GAGSA,A,3,04,21,27,,,,,,,,,,1.4,0.8,1.1*2C
###2023-12-09 13:44:59.013606$GBGSA,A,3,12,24,25,35,,,,,,,,,1.4,0.8,1.1*29
###2023-12-09 13:44:59.015925$GPGSV,2,1,06,04,50,305,45,16,71,227,43,26,79,041,39,28,35,088,44*72
###2023-12-09 13:44:59.017660$GPGSV,2,2,06,29,18,043,43,31,56,072,50,,,,,,,,*7C
###2023-12-09 13:44:59.019977$GLGSV,2,1,05,65,42,313,45,72,57,214,35,73,18,056,43,75,47,279,46*66
###2023-12-09 13:44:59.021423$GLGSV,2,2,05,83,16,042,37,,,,,,,,,,,,*5E
###2023-12-09 13:44:59.023448$GAGSV,1,1,03,04,43,308,45,21,73,044,36,27,19,051,39,,,,*53
###2023-12-09 13:44:59.025765$GBGSV,1,1,04,12,19,123,43,24,59,051,48,25,54,281,42,35,16,052,40*68
###2023-12-09 13:44:59.027097$GNVTG,243.17,T,,M,0.02,N,0.04,K,A*26
###2023-12-09 13:44:59.028708$GNGST,184458.10,8.000,,,,0.190,0.110,0.300*61
###2023-12-09 13:44:59.029993$GNZDA,184458.10,09,12,2023,00,00*74
###2023-12-09 13:44:59.030636$GNEBP,,,,,,M*13
###2023-12-09 13:44:59.200753$GNGGA,184458.30,4138.0392339,N,07032.4388838,W,1,18,0.8,13.931,M,-29.746,M,0.0,*5F
###2023-12-09 13:44:59.400189$GNGGA,184458.50,4138.0392343,N,07032.4388847,W,1,18,0.8,13.928,M,-29.746,M,0.0,*54
###2023-12-09 13:44:59.600360$GNGGA,184458.70,4138.0392349,N,07032.4388850,W,1,19,0.8,13.931,M,-29.746,M,0.0,*53
###2023-12-09 13:44:59.799319$GNGGA,184458.90,4138.0392369,N,07032.4388847,W,1,18,0.8,13.935,M,-29.746,M,0.0,*5C
###2023-12-09 13:45:00.002045$GNRMC,184459.10,A,4138.0392376,N,07032.4388854,W,0.04,243.17,091223,,,A*56
###2023-12-09 13:45:00.004929$GNGGA,184459.10,4138.0392376,N,07032.4388854,W,1,18,0.8,13.936,M,-29.746,M,0.0,*5A
###2023-12-09 13:45:00.006678$GPGSA,A,3,04,16,26,28,29,31,,,,,,,1.3,0.8,1.1*3C
###2023-12-09 13:45:00.008577$GLGSA,A,3,65,73,74,75,83,,,,,,,,1.3,0.8,1.1*29
###2023-12-09 13:45:00.010103$GAGSA,A,3,04,21,27,,,,,,,,,,1.3,0.8,1.1*2B
###2023-12-09 13:45:00.011701$GBGSA,A,3,12,24,25,35,,,,,,,,,1.3,0.8,1.1*2E
###2023-12-09 13:45:00.014020$GPGSV,2,1,06,04,50,305,45,16,71,227,43,26,79,041,39,28,35,088,45*73
###2023-12-09 13:45:00.015763$GPGSV,2,2,06,29,18,043,43,31,56,072,49,,,,,,,,*74
###2023-12-09 13:45:00.018069$GLGSV,2,1,05,65,42,313,45,73,18,056,43,74,56,022,35,75,47,279,45*65
###2023-12-09 13:45:00.019526$GLGSV,2,2,05,83,16,042,37,,,,,,,,,,,,*5E
###2023-12-09 13:45:00.021542$GAGSV,1,1,03,04,43,308,45,21,73,044,35,27,19,051,40,,,,*5E
