###2023-12-09 13:46:57.028284$GLGSV,2,2,05,83,16,041,35,,,,,,,,,,,,*5F
###2023-12-09 13:46:57.030334$GAGSV,1,1,03,04,43,308,46,21,72,043,40,27,19,051,43,,,,*5A
###2023-12-09 13:46:57.032697$GBGSV,1,1,04,12,19,122,42,24,58,052,47,25,54,282,43,35,16,051,40*64
###2023-12-09 13:46:57.034030$GNVTG,243.17,T,,M,0.00,N,0.00,K,A*20
###2023-12-09 13:46:57.035685$GNGST,184656.10,7.400,,,,0.200,0.120,0.320*6D
###2023-12-09 13:46:57.036974$GNZDA,184656.10,09,12,2023,00,00*78
###2023-12-09 13:46:57.037614$GNEBP,,,,,,M*13
###2023-12-09 13:46:57.215755$GNGGA,184656.30,4138.0395721,N,07032.4385337,W,1,18,0.8,15.472,M,-29.746,M,0.0,*5C
###2023-12-09 13:46:57.406482$GNGGA,184656.50,4138.0395714,N,07032.4385335,W,1,18,0.8,15.476,M,-29.746,M,0.0,*5A
###2023-12-09 13:46:57.604777$GNGGA,184656.70,4138.0395725,N,07032.4385328,W,1,19,0.8,15.475,M,-29.746,M,0.0,*54
###2023-12-09 13:46:57.805297$GNGGA,184656.90,4138.0395720,N,07032.4385322,W,1,19,0.8,15.475,M,-29.746,M,0.0,*55
###2023-12-09 13:46:58.010018$GNRMC,184657.10,A,4138.0395727,N,07032.4385310,W,0.06,243.17,091223,,,A*59
###2023-12-09 13:46:58.012892$GNGGA,184657.10,4138.0395727,N,07032.4385310,W,1,19,0.8,15.475,M,-29.746,M,0.0,*5A
###2023-12-09 13:46:58.014630$GPGSA,A,3,04,16,26,28,29,31,,,,,,,1.3,0.8,1.1*3C
###2023-12-09 13:46:58.016345$GLGSA,A,3,65,72,73,74,75,83,,,,,,,1.3,0.8,1.1*2C
###2023-12-09 13:46:58.017856$GAGSA,A,3,04,21,27,,,,,,,,,,1.3,0.8,1.1*2B
###2023-12-09 13:46:58.019444$GBGSA,A,3,12,24,25,35,,,,,,,,,1.3,0.8,1.1*2E
###2023-12-09 13:46:58.021764$GPGSV,2,1,06,04,51,304,47,16,72,228,42,26,78,041,40,28,34,089,46*70
###2023-12-09 13:46:58.023516$GPGSV,2,2,06,29,18,043,42,31,56,073,50,,,,,,,,*7C
###2023-12-09 13:46:58.025839$GLGSV,2,1,06,65,43,312,44,72,56,213,38,73,17,056,38,74,55,024,35*60
###2023-12-09 13:46:58.027592$GLGSV,2,2,06,75,47,280,46,83,16,041,35,,,,,,,,*65
###2023-12-09 13:46:58.029628$GAGSV,1,1,03,04,43,308,46,21,72,043,40,27,19,051,43,,,,*5A
###2023-12-09 13:46:58.031965$GBGSV,1,1,04,12,19,122,41,24,58,052,47,25,54,282,43,35,16,051,40*67
###2023-12-09 13:46:58.033292$GNVTG,243.17,T,,M,0.06,N,0.11,K,A*26
###2023-12-09 13:46:58.034919$GNGST,184657.10,7.800,,,,0.200,0.120,0.320*60
###2023-12-09 13:46:58.036214$GNZDA,184657.10,09,12,2023,00,00*79
###2023-12-09 13:46:58.036852$GNEBP,,,,,,M*13
###2023-12-09 13:46:58.207243$GNGGA,184657.30,4138.0395734,N,07032.4385297,W,1,19,0.8,15.480,M,-29.746,M,0.0,*5E
###2023-12-09 13:46:58.407417$GNGGA,184657.50,4138.0395726,N,07032.4385289,W,1,19,0.8,15.480,M,-29.746,M,0.0,*54
###2023-12-09 13:46:58.605982$GNGGA,184657.70,4138.0395730,N,07032.4385282,W,1,19,0.8,15.485,M,-29.746,M,0.0,*5F
###2023-12-09 13:46:58.807602$GNGGA,184657.90,4138.0395726,N,07032.4385277,W,1,19,0.8,15.482,M,-29.746,M,0.0,*5B
###2023-12-09 13:46:59.008834$GNRMC,184658.10,A,4138.0395730,N,07032.4385264,W,0.02,243.17,091223,,,A*56
###2023-12-09 13:46:59.012560$GNGGA,184658.10,4138.0395730,N,07032.4385264,W,1,19,0.8,15.489,M,-29.746,M,0.0,*52
###2023-12-09 13:46:59.014775$GPGSA,A,3,04,16,26,28,29,31,,,,,,,1.3,0.8,1.1*3C
###2023-12-09 13:46:59.016845$GLGSA,A,3,65,72,73,74,75,83,,,,,,,1.3,0.8,1.1*2C
###2023-12-09 13:46:59.018691$GAGSA,A,3,04,21,27,,,,,,,,,,1.3,0.8,1.1*2B
###2023-12-09 13:46:59.020590$GBGSA,A,3,12,24,25,35,,,,,,,,,1.3,0.8,1.1*2E
###2023-12-09 13:46:59.023393$GPGSV,2,1,06,04,51,304,47,16,72,228,42,26,78,041,41,28,34,089,46*71
###2023-12-09 13:46:59.025485$GPGSV,2,2,06,29,18,043,42,31,56,073,50,,,,,,,,*7C
###2023-12-09 13:46:59.028288$GLGSV,2,1,06,65,43,312,45,72,56,213,38,73,17,056,38,74,55,024,35*61
###2023-12-09 13:46:59.030387$GLGSV,2,2,06,75,47,280,47,83,16,041,35,,,,,,,,*64
###2023-12-09 13:46:59.032842$GAGSV,1,1,03,04,43,308,46,21,72,043,40,27,19,051,43,,,,*5A
###2023-12-09 13:46:59.035653$GBGSV,1,1,04,12,19,122,41,24,58,052,47,25,54,282,43,35,16,051,40*67
###2023-12-09 13:46:59.037252$GNVTG,243.17,T,,M,0.02,N,0.04,K,A*26
###2023-12-09 13:46:59.039228$GNGST,184658.10,7.700,,,,0.200,0.120,0.320*60
###2023-12-09 13:46:59.040824$GNZDA,184658.10,09,12,2023,00,00*76
###2023-12-09 13:46:59.041592$GNEBP,,,,,,M*13
###2023-12-09 13:46:59.207057$GNGGA,184658.30,4138.0395729,N,07032.4385256,W,1,18,0.8,15.490,M,-29.746,M,0.0,*50
###2023-12-09 13:46:59.406856$GNGGA,184658.50,4138.0395723,N,07032.4385249,W,1,19,0.8,15.490,M,-29.746,M,0.0,*53
###2023-12-09 13:46:59.606393$GNGGA,184658.70,4138.0395718,N,07032.4385244,W,1,19,0.8,15.497,M,-29.746,M,0.0,*53
###2023-12-09 13:46:59.808271$GNGGA,184658.90,4138.0395709,N,07032.4385237,W,1,19,0.8,15.496,M,-29.746,M,0.0,*58
###2023-12-09 13:47:00.010701$GNRMC,184659.10,A,4138.0395712,N,07032.4385222,W,0.04,243.17,091223,,,A*53
###2023-12-09 13:47:00.014168$GNGGA,184659.10,4138.0395712,N,07032.4385222,W,1,19,0.8,15.501,M,-29.746,M,0.0,*50
###2023-12-09 13:47:00.016258$GPGSA,A,3,04,16,26,28,29,31,,,,,,,1.3,0.8,1.1*3C
###2023-12-09 13:47:00.018323$GLGSA,A,3,65,72,73,74,75,83,,,,,,,1.3,0.8,1.1*2C
###2023-12-09 13:47:00.020172$GAGSA,A,3,04,21,27,,,,,,,,,,1.3,0.8,1.1*2B
###2023-12-09 13:47:00.022086$GBGSA,A,3,12,24,25,35,,,,,,,,,1.3,0.8,1.1*2E
###2023-12-09 13:47:00.024913$GPGSV,2,1,06,04,51,304,47,16,72,228,42,26,78,041,41,28,34,089,46*71
###2023-12-09 13:47:00.027031$GPGSV,2,2,06,29,18,043,42,31,56,073,50,,,,,,,,*7C
###2023-12-09 13:47:00.029830$GLGSV,2,1,06,65,43,312,45,72,56,213,38,73,17,056,38,74,55,024,35*61
###2023-12-09 13:47:00.031946$GLGSV,2,2,06,75,47,280,46,83,16,041,35,,,,,,,,*65
###2023-12-09 13:47:00.034435$GAGSV,1,1,03,04,43,308,46,21,72,043,40,27,19,051,43,,,,*5A
###2023-12-09 13:47:00.037259$GBGSV,1,1,04,12,19,122,41,24,58,052,46,25,54,282,42,35,16,051,39*69
###2023-12-09 13:47:00.038881$GNVTG,243.17,T,,M,0.04,N,0.07,K,A*23
###2023-12-09 13:47:00.040830$GNGST,184659.10,7.700,,,,0.200,0.120,0.320*61
###2023-12-09 13:47:00.042386$GNZDA,184659.10,09,12,2023,00,00*77
###2023-12-09 13:47:00.043174$GNEBP,,,,,,M*13
###2023-12-09 13:47:00.207391$GNGGA,184659.30,4138.0395701,N,07032.4385211,W,1,19,0.8,15.503,M,-29.746,M,0.0,*52
###2023-12-09 13:47:00.405910$GNGGA,184659.50,4138.0395701,N,07032.4385207,W,1,19,0.8,15.502,M,-29.746,M,0.0,*52
###2023-12-09 13:47:00.606034$GNGGA,184659.70,4138.0395718,N,07032.4385189,W,1,19,0.8,15.504,M,-29.746,M,0.0,*5B
###2023-12-09 13:47:00.806363$GNGGA,184659.90,4138.0395709,N,07032.4385173,W,1,19,0.8,15.504,M,-29.746,M,0.0,*50
###2023-12-09 13:47:01.008505$GNRMC,184700.10,A,4138.0395722,N,07032.4385159,W,0.04,243.17,091223,,,A*52
###2023-12-09 13:47:01.011371$GNGGA,184700.10,4138.0395722,N,07032.4385159,W,1,19,0.8,15.506,M,-29.746,M,0.0,*56
###2023-12-09 13:47:01.013098$GPGSA,A,3,04,16,26,28,29,31,,,,,,,1.3,0.8,1.1*3C
###2023-12-09 13:47:01.014818$GLGSA,A,3,65,72,73,74,75,83,,,,,,,1.3,0.8,1.1*2C
###2023-12-09 13:47:01.016330$GAGSA,A,3,04,21,27,,,,,,,,,,1.3,0.8,1.1*2B
###2023-12-09 13:47:01.017900$GBGSA,A,3,12,24,25,35,,,,,,,,,1.3,0.8,1.1*2E
###2023-12-09 13:47:01.020223$GPGSV,2,1,06,04,51,304,47,16,72,228,42,26,78,041,41,28,34,089,45*72
###2023-12-09 13:47:01.021959$GPGSV,2,2,06,29,18,043,42,31,56,073,50,,,,,,,,*7C
###2023-12-09 13:47:01.024284$GLGSV,2,1,06,65,43,312,45,72,56,213,39,73,17,056,39,74,55,024,35*61
###2023-12-09 13:47:01.026026$GLGSV,2,2,06,75,47,280,46,83,16,041,35,,,,,,,,*65
###2023-12-09 13:47:01.028063$GAGSV,1,1,03,04,43,308,46,21,72,043,40,27,19,051,43,,,,*5A
###2023-12-09 13:47:01.030382$GBGSV,1,1,04,12,19,122,41,24,58,052,46,25,54,282,42,35,16,051,39*69
###2023-12-09 13:47:01.031720$GNVTG,243.17,T,,M,0.04,N,0.07,K,A*23
###2023-12-09 13:47:01.033318$GNGST,184700.10,7.700,,,,0.200,0.120,0.320*6C
###2023-12-09 13:47:01.034607$GNZDA,184700.10,09,12,2023,00,00*7A
###2023-12-09 13:47:01.035245$GNEBP,,,,,,M*13
###2023-12-09 13:47:01.206380$GNGGA,184700.30,4138.0395757,N,07032.4385143,W,1,19,0.8,15.510,M,-29.746,M,0.0,*5A
###2023-12-09 13:47:01.406417$GNGGA,184700.50,4138.0395756,N,07032.4385133,W,1,19,0.8,15.513,M,-29.746,M,0.0,*59
###2023-12-09 13:47:01.604429$GNGGA,184700.70,4138.0395766,N,07032.4385128,W,1,19,0.8,15.517,M,-29.746,M,0.0,*56
###2023-12-09 13:47:01.805044$GNGGA,184700.90,4138.0395777,N,07032.4385120,W,1,19,0.8,15.517,M,-29.746,M,0.0,*50
###2023-12-09 13:47:02.009850$GNRMC,184701.10,A,4138.0395778,N,07032.4385100,W,0.04,243.17,091223,,,A*50
###2023-12-09 13:47:02.012994$GNGGA,184701.10,4138.0395778,N,07032.4385100,W,1,19,0.8,15.517,M,-29.746,M,0.0,*54
###2023-12-09 13:47:02.014758$GPGSA,A,3,04,16,26,28,29,31,,,,,,,1.3,0.8,1.1*3C
###2023-12-09 13:47:02.016487$GLGSA,A,3,65,72,73,74,75,83,,,,,,,1.3,0.8,1.1*2C
###2023-12-09 13:47:02.018014$GAGSA,A,3,04,21,27,,,,,,,,,,1.3,0.8,1.1*2B
###2023-12-09 13:47:02.019621$GBGSA,A,3,12,24,25,35,,,,,,,,,1.3,0.8,1.1*2E
###2023-12-09 13:47:02.021962$GPGSV,2,1,06,04,51,304,47,16,72,228,42,26,78,041,40,28,34,089,45*73
###2023-12-09 13:47:02.023733$GPGSV,2,2,06,29,18,043,42,31,56,073,50,,,,,,,,*7C
###2023-12-09 13:47:02.026072$GLGSV,2,1,06,65,43,312,44,72,56,213,39,73,17,056,39,74,55,024,35*60
