###2023-12-09 13:40:37.011055$GAGSA,A,3,04,19,21,27,,,,,,,,,1.1,0.6,0.9*26
###2023-12-09 13:40:37.012784$GBGSA,A,3,12,14,24,25,33,35,,,,,,,1.1,0.6,0.9*2E
###2023-12-09 13:40:37.015134$GPGSV,2,1,08,03,25,244,38,04,48,306,45,16,69,225,47,26,81,040,48*78
###2023-12-09 13:40:37.017464$GPGSV,2,2,08,27,19,172,39,28,36,087,46,29,19,045,43,31,58,070,47*7E
###2023-12-09 13:40:37.019807$GLGSV,2,1,06,65,40,316,44,71,20,176,42,72,60,217,44,73,20,054,43*66
###2023-12-09 13:40:37.021551$GLGSV,2,2,06,74,58,018,42,75,45,275,49,,,,,,,,*6C
###2023-12-09 13:40:37.023892$GAGSV,1,1,04,04,41,309,44,19,69,180,40,21,74,044,46,27,21,050,40*68
###2023-12-09 13:40:37.026208$GBGSV,2,1,06,12,17,124,41,14,26,189,40,24,60,049,48,25,53,279,48*6C
###2023-12-09 13:40:37.027960$GBGSV,2,2,06,33,43,215,46,35,16,054,44,,,,,,,,*6E
###2023-12-09 13:40:37.029277$GNVTG,243.13,T,,M,0.33,N,0.61,K,A*23
###2023-12-09 13:40:37.030893$GNGST,184036.10,5.700,,,,0.086,0.074,0.160*66
###2023-12-09 13:40:37.032177$GNZDA,184036.10,09,12,2023,00,00*78
###2023-12-09 13:40:37.032811$GNEBP,,,,,,M*13
###2023-12-09 13:40:37.203928$GNGGA,184036.30,4138.0267982,N,07032.3879639,W,1,25,0.6,13.357,M,-29.745,M,0.0,*56
###2023-12-09 13:40:37.405179$GNGGA,184036.50,4138.0267858,N,07032.3880027,W,1,25,0.6,13.366,M,-29.745,M,0.0,*5B
###2023-12-09 13:40:37.600423$GNGGA,184036.70,4138.0267765,N,07032.3880393,W,1,24,0.6,13.366,M,-29.745,M,0.0,*55
###2023-12-09 13:40:37.801402$GNGGA,184036.90,4138.0267761,N,07032.3880347,W,1,24,0.6,13.367,M,-29.745,M,0.0,*57
###2023-12-09 13:40:38.007116$GNRMC,184037.10,A,4138.0267779,N,07032.3880227,W,0.06,243.13,091223,,,A*56
###2023-12-09 13:40:38.009982$GNGGA,184037.10,4138.0267779,N,07032.3880227,W,1,25,0.6,13.375,M,-29.745,M,0.0,*52
###2023-12-09 13:40:38.011854$GPGSA,A,3,03,04,16,26,27,28,29,31,,,,,1.1,0.6,0.9*3F
###2023-12-09 13:40:38.013626$GLGSA,A,3,65,71,72,73,74,75,83,,,,,,1.1,0.6,0.9*2F
###2023-12-09 13:40:38.015213$GAGSA,A,3,04,19,21,27,,,,,,,,,1.1,0.6,0.9*26
###2023-12-09 13:40:38.016923$GBGSA,A,3,12,14,24,25,33,35,,,,,,,1.1,0.6,0.9*2E
###2023-12-09 13:40:38.019250$GPGSV,2,1,08,03,25,244,37,04,48,306,46,16,69,225,47,26,81,040,50*7D
###2023-12-09 13:40:38.021572$GPGSV,2,2,08,27,19,172,39,28,36,087,46,29,19,045,44,31,58,070,48*76
###2023-12-09 13:40:38.023907$GLGSV,2,1,07,65,41,315,44,71,20,176,40,72,60,217,44,73,20,054,44*60
###2023-12-09 13:40:38.025942$GLGSV,2,2,07,74,58,018,42,75,45,275,49,83,16,045,35,,,,*56
###2023-12-09 13:40:38.028278$GAGSV,1,1,04,04,41,309,44,19,69,180,40,21,74,044,46,27,21,050,42*6A
###2023-12-09 13:40:38.030617$GBGSV,2,1,06,12,17,124,42,14,26,189,39,24,60,049,48,25,53,279,48*61
###2023-12-09 13:40:38.032365$GBGSV,2,2,06,33,43,215,46,35,16,054,44,,,,,,,,*6E
###2023-12-09 13:40:38.033686$GNVTG,243.13,T,,M,0.06,N,0.11,K,A*22
###2023-12-09 13:40:38.035389$GNGST,184037.10,6.100,,,,0.086,0.074,0.160*62
###2023-12-09 13:40:38.036688$GNZDA,184037.10,09,12,2023,00,00*79
###2023-12-09 13:40:38.037327$GNEBP,,,,,,M*13
###2023-12-09 13:40:38.201617$GNGGA,184037.30,4138.0267734,N,07032.3880410,W,1,25,0.6,13.375,M,-29.745,M,0.0,*5B
###2023-12-09 13:40:38.400801$GNGGA,184037.50,4138.0267672,N,07032.3880766,W,1,25,0.6,13.364,M,-29.745,M,0.0,*5C
###2023-12-09 13:40:38.601651$GNGGA,184037.70,4138.0267620,N,07032.3880935,W,1,25,0.6,13.352,M,-29.745,M,0.0,*54
###2023-12-09 13:40:38.802142$GNGGA,184037.90,4138.0267600,N,07032.3880907,W,1,25,0.6,13.353,M,-29.745,M,0.0,*58
###2023-12-09 13:40:39.007829$GNRMC,184038.10,A,4138.0267577,N,07032.3880958,W,0.21,243.13,091223,,,A*53
###2023-12-09 13:40:39.010686$GNGGA,184038.10,4138.0267577,N,07032.3880958,W,1,25,0.6,13.363,M,-29.745,M,0.0,*55
###2023-12-09 13:40:39.012541$GPGSA,A,3,03,04,16,26,27,28,29,31,,,,,1.1,0.6,0.9*3F
###2023-12-09 13:40:39.014314$GLGSA,A,3,65,71,72,73,74,75,83,,,,,,1.1,0.6,0.9*2F
###2023-12-09 13:40:39.015907$GAGSA,A,3,04,19,21,27,,,,,,,,,1.1,0.6,0.9*26
###2023-12-09 13:40:39.017614$GBGSA,A,3,12,14,24,25,33,35,,,,,,,1.1,0.6,0.9*2E
###2023-12-09 13:40:39.019946$GPGSV,2,1,08,03,25,244,37,04,48,306,46,16,69,225,46,26,81,040,49*74
###2023-12-09 13:40:39.022262$GPGSV,2,2,08,27,19,172,39,28,36,087,46,29,19,045,44,31,58,070,47*79
###2023-12-09 13:40:39.024603$GLGSV,2,1,07,65,41,315,44,71,20,176,39,72,60,217,45,73,20,054,45*6E
###2023-12-09 13:40:39.026647$GLGSV,2,2,07,74,58,018,43,75,45,275,48,83,16,045,35,,,,*56
###2023-12-09 13:40:39.028978$GAGSV,1,1,04,04,41,309,44,19,69,180,41,21,74,044,46,27,21,050,43*6A
###2023-12-09 13:40:39.031320$GBGSV,2,1,06,12,17,124,42,14,26,189,40,24,60,049,48,25,53,279,48*6F
###2023-12-09 13:40:39.033060$GBGSV,2,2,06,33,43,215,46,35,16,054,45,,,,,,,,*6F
###2023-12-09 13:40:39.034384$GNVTG,243.13,T,,M,0.21,N,0.40,K,A*23
###2023-12-09 13:40:39.036003$GNGST,184038.10,5.700,,,,0.086,0.074,0.160*68
###2023-12-09 13:40:39.037290$GNZDA,184038.10,09,12,2023,00,00*76
###2023-12-09 13:40:39.037926$GNEBP,,,,,,M*13
###2023-12-09 13:40:39.212182$GNGGA,184038.30,4138.0267524,N,07032.3881205,W,1,25,0.6,13.367,M,-29.745,M,0.0,*57
###2023-12-09 13:40:39.405259$GNGGA,184038.50,4138.0267491,N,07032.3881366,W,1,25,0.6,13.355,M,-29.745,M,0.0,*5B
###2023-12-09 13:40:39.604247$GNGGA,184038.70,4138.0267468,N,07032.3881428,W,1,25,0.6,13.345,M,-29.745,M,0.0,*53
###2023-12-09 13:40:39.800757$GNGGA,184038.90,4138.0267412,N,07032.3881589,W,1,25,0.6,13.356,M,-29.745,M,0.0,*58
###2023-12-09 13:40:40.005441$GNRMC,184039.10,A,4138.0267351,N,07032.3881814,W,0.25,243.13,091223,,,A*5C
###2023-12-09 13:40:40.008335$GNGGA,184039.10,4138.0267351,N,07032.3881814,W,1,25,0.6,13.370,M,-29.745,M,0.0,*5C
###2023-12-09 13:40:40.010201$GPGSA,A,3,03,04,16,26,27,28,29,31,,,,,1.1,0.6,0.9*3F
###2023-12-09 13:40:40.011989$GLGSA,A,3,65,71,72,73,74,75,83,,,,,,1.1,0.6,0.9*2F
###2023-12-09 13:40:40.013571$GAGSA,A,3,04,19,21,27,,,,,,,,,1.1,0.6,0.9*26
###2023-12-09 13:40:40.015296$GBGSA,A,3,12,14,24,25,33,35,,,,,,,1.1,0.6,0.9*2E
###2023-12-09 13:40:40.017617$GPGSV,2,1,08,03,25,244,36,04,48,306,47,16,69,225,47,26,81,040,49*75
###2023-12-09 13:40:40.019954$GPGSV,2,2,08,27,19,172,39,28,36,087,46,29,19,045,44,31,58,070,47*79
###2023-12-09 13:40:40.022276$GLGSV,2,1,07,65,41,315,44,71,20,176,39,72,60,217,45,73,20,054,44*6F
###2023-12-09 13:40:40.024315$GLGSV,2,2,07,74,58,018,42,75,45,275,48,83,16,045,35,,,,*57
###2023-12-09 13:40:40.026653$GAGSV,1,1,04,04,41,309,45,19,69,180,41,21,74,044,46,27,21,050,42*6A
###2023-12-09 13:40:40.028979$GBGSV,2,1,06,12,17,124,42,14,26,189,40,24,60,049,48,25,53,279,48*6F
###2023-12-09 13:40:40.030727$GBGSV,2,2,06,33,43,215,47,35,16,054,44,,,,,,,,*6F
###2023-12-09 13:40:40.032049$GNVTG,243.13,T,,M,0.25,N,0.47,K,A*20
###2023-12-09 13:40:40.033654$GNGST,184039.10,5.700,,,,0.087,0.074,0.160*68
###2023-12-09 13:40:40.034954$GNZDA,184039.10,09,12,2023,00,00*77
###2023-12-09 13:40:40.035591$GNEBP,,,,,,M*13
###2023-12-09 13:40:40.200464$GNGGA,184039.30,4138.0267345,N,07032.3881894,W,1,24,0.6,13.361,M,-29.745,M,0.0,*52
###2023-12-09 13:40:40.399851$GNGGA,184039.50,4138.0267362,N,07032.3881853,W,1,24,0.6,13.345,M,-29.745,M,0.0,*5C
###2023-12-09 13:40:40.598428$GNGGA,184039.70,4138.0267311,N,07032.3881978,W,1,24,0.6,13.352,M,-29.745,M,0.0,*54
###2023-12-09 13:40:40.799100$GNGGA,184039.90,4138.0267227,N,07032.3882330,W,1,24,0.6,13.362,M,-29.745,M,0.0,*58
###2023-12-09 13:40:41.004109$GNRMC,184040.10,A,4138.0267212,N,07032.3882488,W,0.06,243.13,091223,,,A*5F
###2023-12-09 13:40:41.006985$GNGGA,184040.10,4138.0267212,N,07032.3882488,W,1,24,0.6,13.358,M,-29.745,M,0.0,*55
###2023-12-09 13:40:41.008832$GPGSA,A,3,03,04,16,26,27,28,29,31,,,,,1.1,0.6,0.9*3F
###2023-12-09 13:40:41.010541$GLGSA,A,3,65,71,72,73,74,75,,,,,,,1.1,0.6,0.9*24
###2023-12-09 13:40:41.012129$GAGSA,A,3,04,19,21,27,,,,,,,,,1.1,0.6,0.9*26
###2023-12-09 13:40:41.013833$GBGSA,A,3,12,14,24,25,33,35,,,,,,,1.1,0.6,0.9*2E
###2023-12-09 13:40:41.016158$GPGSV,2,1,08,03,25,244,35,04,48,306,45,16,69,225,47,26,81,040,47*7A
###2023-12-09 13:40:41.018482$GPGSV,2,2,08,27,19,172,39,28,36,087,44,29,19,045,42,31,58,070,45*7F
###2023-12-09 13:40:41.020817$GLGSV,2,1,06,65,41,315,45,71,20,176,39,72,60,217,46,73,20,054,43*6B
###2023-12-09 13:40:41.022560$GLGSV,2,2,06,74,58,018,43,75,45,275,48,,,,,,,,*6C
###2023-12-09 13:40:41.025133$GAGSV,1,1,04,04,41,309,44,19,69,180,41,21,74,044,46,27,21,050,42*6B
###2023-12-09 13:40:41.027491$GBGSV,2,1,06,12,17,124,42,14,26,189,41,24,60,049,49,25,53,279,49*6E
###2023-12-09 13:40:41.029244$GBGSV,2,2,06,33,43,215,48,35,16,054,44,,,,,,,,*60
###2023-12-09 13:40:41.030587$GNVTG,243.13,T,,M,0.06,N,0.11,K,A*22
###2023-12-09 13:40:41.032204$GNGST,184040.10,5.800,,,,0.087,0.074,0.160*69
###2023-12-09 13:40:41.033497$GNZDA,184040.10,09,12,2023,00,00*79
###2023-12-09 13:40:41.034134$GNEBP,,,,,,M*13
###2023-12-09 13:40:41.200378$GNGGA,184040.30,4138.0267238,N,07032.3882390,W,1,24,0.6,13.347,M,-29.745,M,0.0,*5F
###2023-12-09 13:40:41.399610$GNGGA,184040.50,4138.0267210,N,07032.3882401,W,1,23,0.6,13.347,M,-29.745,M,0.0,*5B
###2023-12-09 13:40:41.599603$GNGGA,184040.70,4138.0267159,N,07032.3882681,W,1,23,0.6,13.352,M,-29.745,M,0.0,*59
