###2023-12-09 13:38:47.033563$GNGST,183846.10,5.200,,,,0.089,0.068,0.160*69
###2023-12-09 13:38:47.034905$GNZDA,183846.10,09,12,2023,00,00*70
###2023-12-09 13:38:47.035554$GNEBP,,,,,,M*13
###2023-12-09 13:38:47.207210$GNGGA,183846.30,4138.0625605,N,07032.3932276,W,1,25,0.6,13.189,M,-29.744,M,0.0,*5D
###2023-12-09 13:38:47.400056$GNGGA,183846.50,4138.0627179,N,07032.3932747,W,1,25,0.6,13.208,M,-29.744,M,0.0,*58
###2023-12-09 13:38:47.603522$GNGGA,183846.70,4138.0628764,N,07032.3933311,W,1,25,0.6,13.224,M,-29.744,M,0.0,*57
###2023-12-09 13:38:47.800704$GNGGA,183846.90,4138.0630401,N,07032.3933858,W,1,25,0.6,13.225,M,-29.744,M,0.0,*57
###2023-12-09 13:38:48.004879$GNRMC,183847.10,A,4138.0632081,N,07032.3934368,W,3.13,346.75,091223,,,A*5D
###2023-12-09 13:38:48.007757$GNGGA,183847.10,4138.0632081,N,07032.3934368,W,1,25,0.6,13.221,M,-29.744,M,0.0,*5B
###2023-12-09 13:38:48.009617$GPGSA,A,3,03,04,16,26,27,28,29,31,,,,,1.1,0.6,0.9*3F
###2023-12-09 13:38:48.011350$GLGSA,A,3,65,71,72,73,74,75,,,,,,,1.1,0.6,0.9*24
###2023-12-09 13:38:48.012933$GAGSA,A,3,04,19,21,27,,,,,,,,,1.1,0.6,0.9*26
###2023-12-09 13:38:48.014659$GBGSA,A,3,12,14,24,25,33,35,,,,,,,1.1,0.6,0.9*2E
###2023-12-09 13:38:48.016976$GPGSV,2,1,08,03,25,245,41,04,48,307,45,16,68,224,45,26,82,040,48*77
###2023-12-09 13:38:48.019317$GPGSV,2,2,08,27,18,172,42,28,37,086,45,29,20,046,41,31,58,068,47*72
###2023-12-09 13:38:48.021643$GLGSV,2,1,06,65,40,316,42,71,20,176,42,72,60,217,46,73,20,054,42*63
###2023-12-09 13:38:48.023399$GLGSV,2,2,06,74,58,018,41,75,45,275,46,,,,,,,,*60
###2023-12-09 13:38:48.025722$GAGSV,1,1,04,04,41,309,43,19,70,181,41,21,75,045,46,27,21,050,40*67
###2023-12-09 13:38:48.028057$GBGSV,2,1,06,12,17,125,40,14,27,189,41,24,61,048,48,25,52,278,46*62
###2023-12-09 13:38:48.029806$GBGSV,2,2,06,33,44,215,45,35,16,055,43,,,,,,,,*6C
###2023-12-09 13:38:48.031145$GNVTG,346.75,T,,M,3.13,N,5.80,K,A*2C
###2023-12-09 13:38:48.032757$GNGST,183847.10,5.200,,,,0.089,0.068,0.160*68
###2023-12-09 13:38:48.034045$GNZDA,183847.10,09,12,2023,00,00*71
###2023-12-09 13:38:48.034693$GNEBP,,,,,,M*13
###2023-12-09 13:38:48.202769$GNGGA,183847.30,4138.0633775,N,07032.3934902,W,1,25,0.6,13.223,M,-29.744,M,0.0,*50
###2023-12-09 13:38:48.401304$GNGGA,183847.50,4138.0635478,N,07032.3935423,W,1,25,0.6,13.223,M,-29.744,M,0.0,*51
###2023-12-09 13:38:48.600764$GNGGA,183847.70,4138.0637190,N,07032.3935555,W,1,25,0.6,13.217,M,-29.744,M,0.0,*55
###2023-12-09 13:38:48.801798$GNGGA,183847.90,4138.0638871,N,07032.3935409,W,1,25,0.6,13.221,M,-29.744,M,0.0,*5F
###2023-12-09 13:38:49.004305$GNRMC,183848.10,A,4138.0640542,N,07032.3935439,W,3.03,355.83,091223,,,A*55
###2023-12-09 13:38:49.007181$GNGGA,183848.10,4138.0640542,N,07032.3935439,W,1,25,0.6,13.227,M,-29.744,M,0.0,*5F
###2023-12-09 13:38:49.009048$GPGSA,A,3,03,04,16,26,27,28,29,31,,,,,1.0,0.6,0.8*3F
###2023-12-09 13:38:49.010782$GLGSA,A,3,65,71,72,73,74,75,,,,,,,1.0,0.6,0.8*24
###2023-12-09 13:38:49.012370$GAGSA,A,3,04,19,21,27,,,,,,,,,1.0,0.6,0.8*26
###2023-12-09 13:38:49.014086$GBGSA,A,3,12,14,24,25,33,35,,,,,,,1.0,0.6,0.8*2E
###2023-12-09 13:38:49.016424$GPGSV,2,1,08,03,25,245,41,04,48,307,44,16,68,224,46,26,82,040,48*75
###2023-12-09 13:38:49.018777$GPGSV,2,2,08,27,18,172,43,28,37,086,44,29,20,046,40,31,58,068,47*73
###2023-12-09 13:38:49.021103$GLGSV,2,1,06,65,40,316,43,71,20,176,45,72,60,217,46,73,20,054,39*69
###2023-12-09 13:38:49.022894$GLGSV,2,2,06,74,58,018,41,75,45,275,48,,,,,,,,*6E
###2023-12-09 13:38:49.025226$GAGSV,1,1,04,04,41,309,44,19,70,181,41,21,75,045,45,27,21,050,38*6C
###2023-12-09 13:38:49.027570$GBGSV,2,1,06,12,17,125,39,14,27,189,39,24,61,048,47,25,52,278,48*62
###2023-12-09 13:38:49.029318$GBGSV,2,2,06,33,44,215,46,35,16,055,41,,,,,,,,*6D
###2023-12-09 13:38:49.030652$GNVTG,355.83,T,,M,3.03,N,5.62,K,A*2A
###2023-12-09 13:38:49.032272$GNGST,183848.10,6.000,,,,0.089,0.068,0.160*66
###2023-12-09 13:38:49.033562$GNZDA,183848.10,09,12,2023,00,00*7E
###2023-12-09 13:38:49.034202$GNEBP,,,,,,M*13
###2023-12-09 13:38:49.201977$GNGGA,183848.30,4138.0642245,N,07032.3935525,W,1,25,0.6,13.234,M,-29.744,M,0.0,*51
###2023-12-09 13:38:49.401313$GNGGA,183848.50,4138.0643953,N,07032.3935230,W,1,25,0.6,13.234,M,-29.744,M,0.0,*59
###2023-12-09 13:38:49.600695$GNGGA,183848.70,4138.0645641,N,07032.3934725,W,1,25,0.6,13.250,M,-29.744,M,0.0,*53
###2023-12-09 13:38:49.801653$GNGGA,183848.90,4138.0647365,N,07032.3934262,W,1,25,0.6,13.257,M,-29.744,M,0.0,*5D
###2023-12-09 13:38:50.004372$GNRMC,183849.10,A,4138.0649070,N,07032.3933941,W,3.03,6.79,091223,,,A*5D
###2023-12-09 13:38:50.007236$GNGGA,183849.10,4138.0649070,N,07032.3933941,W,1,25,0.6,13.244,M,-29.744,M,0.0,*52
###2023-12-09 13:38:50.009089$GPGSA,A,3,03,04,16,26,27,28,29,31,,,,,1.0,0.6,0.8*3F
###2023-12-09 13:38:50.010811$GLGSA,A,3,65,71,72,73,74,75,,,,,,,1.0,0.6,0.8*24
###2023-12-09 13:38:50.012391$GAGSA,A,3,04,19,21,27,,,,,,,,,1.0,0.6,0.8*26
###2023-12-09 13:38:50.014100$GBGSA,A,3,12,14,24,25,33,35,,,,,,,1.0,0.6,0.8*2E
###2023-12-09 13:38:50.016434$GPGSV,2,1,08,03,25,245,41,04,48,307,44,16,68,224,46,26,82,040,48*75
###2023-12-09 13:38:50.018762$GPGSV,2,2,08,27,18,172,42,28,37,086,44,29,20,046,39,31,58,068,46*7D
###2023-12-09 13:38:50.021086$GLGSV,2,1,06,65,40,316,43,71,20,176,45,72,60,217,46,73,20,054,40*67
###2023-12-09 13:38:50.022871$GLGSV,2,2,06,74,58,018,41,75,45,275,47,,,,,,,,*61
###2023-12-09 13:38:50.025202$GAGSV,1,1,04,04,41,309,43,19,70,181,41,21,75,045,45,27,21,050,38*6B
###2023-12-09 13:38:50.027541$GBGSV,2,1,06,12,17,125,39,14,27,189,40,24,61,048,46,25,52,278,46*63
###2023-12-09 13:38:50.029294$GBGSV,2,2,06,33,44,215,44,35,16,055,41,,,,,,,,*6F
###2023-12-09 13:38:50.030556$GNVTG,6.79,T,,M,3.03,N,5.62,K,A*2A
###2023-12-09 13:38:50.032179$GNGST,183849.10,5.500,,,,0.089,0.068,0.160*61
###2023-12-09 13:38:50.033473$GNZDA,183849.10,09,12,2023,00,00*7F
###2023-12-09 13:38:50.034111$GNEBP,,,,,,M*13
###2023-12-09 13:38:50.202143$GNGGA,183849.30,4138.0650699,N,07032.3933679,W,1,25,0.6,13.243,M,-29.744,M,0.0,*5A
###2023-12-09 13:38:50.402271$GNGGA,183849.50,4138.0652248,N,07032.3933247,W,1,25,0.6,13.242,M,-29.744,M,0.0,*5E
###2023-12-09 13:38:50.601845$GNGGA,183849.70,4138.0653699,N,07032.3932725,W,1,25,0.6,13.248,M,-29.744,M,0.0,*5F
###2023-12-09 13:38:50.800964$GNGGA,183849.90,4138.0655130,N,07032.3932405,W,1,25,0.6,13.257,M,-29.744,M,0.0,*5C
###2023-12-09 13:38:51.008343$GNRMC,183850.10,A,4138.0656547,N,07032.3932256,W,2.53,5.23,091223,,,A*5E
###2023-12-09 13:38:51.011215$GNGGA,183850.10,4138.0656547,N,07032.3932256,W,1,25,0.6,13.267,M,-29.744,M,0.0,*58
###2023-12-09 13:38:51.013071$GPGSA,A,3,03,04,16,26,27,28,29,31,,,,,1.0,0.6,0.8*3F
###2023-12-09 13:38:51.014799$GLGSA,A,3,65,71,72,73,74,75,,,,,,,1.0,0.6,0.8*24
###2023-12-09 13:38:51.016383$GAGSA,A,3,04,19,21,27,,,,,,,,,1.0,0.6,0.8*26
###2023-12-09 13:38:51.018096$GBGSA,A,3,12,14,24,25,33,35,,,,,,,1.0,0.6,0.8*2E
###2023-12-09 13:38:51.020442$GPGSV,2,1,08,03,25,245,40,04,48,307,44,16,68,224,46,26,82,040,48*74
###2023-12-09 13:38:51.022783$GPGSV,2,2,08,27,18,172,42,28,37,086,44,29,20,046,41,31,58,068,46*72
###2023-12-09 13:38:51.025109$GLGSV,2,1,06,65,40,316,44,71,20,176,44,72,60,217,46,73,20,054,39*6F
###2023-12-09 13:38:51.026863$GLGSV,2,2,06,74,58,018,41,75,45,275,47,,,,,,,,*61
###2023-12-09 13:38:51.029198$GAGSV,1,1,04,04,41,309,44,19,70,181,41,21,75,045,46,27,21,050,38*6F
###2023-12-09 13:38:51.031536$GBGSV,2,1,06,12,17,125,40,14,27,189,41,24,61,048,48,25,52,278,49*6D
###2023-12-09 13:38:51.033285$GBGSV,2,2,06,33,44,215,47,35,16,055,43,,,,,,,,*6E
###2023-12-09 13:38:51.034546$GNVTG,5.23,T,,M,2.53,N,4.68,K,A*29
###2023-12-09 13:38:51.036170$GNGST,183850.10,5.200,,,,0.089,0.068,0.160*6E
###2023-12-09 13:38:51.037464$GNZDA,183850.10,09,12,2023,00,00*77
###2023-12-09 13:38:51.038103$GNEBP,,,,,,M*13
###2023-12-09 13:38:51.204746$GNGGA,183850.30,4138.0657917,N,07032.3931959,W,1,25,0.6,13.265,M,-29.744,M,0.0,*57
###2023-12-09 13:38:51.401572$GNGGA,183850.50,4138.0659157,N,07032.3931366,W,1,25,0.6,13.264,M,-29.744,M,0.0,*54
###2023-12-09 13:38:51.600908$GNGGA,183850.70,4138.0660315,N,07032.3930777,W,1,25,0.6,13.257,M,-29.744,M,0.0,*5D
###2023-12-09 13:38:51.801846$GNGGA,183850.90,4138.0661490,N,07032.3930567,W,1,25,0.6,13.264,M,-29.744,M,0.0,*5B
###2023-12-09 13:38:52.004323$GNRMC,183851.10,A,4138.0662648,N,07032.3930447,W,2.04,9.64,091223,,,A*5D
###2023-12-09 13:38:52.007195$GNGGA,183851.10,4138.0662648,N,07032.3930447,W,1,25,0.6,13.274,M,-29.744,M,0.0,*54
###2023-12-09 13:38:52.009051$GPGSA,A,3,03,04,16,26,27,28,29,31,,,,,1.0,0.6,0.8*3F
###2023-12-09 13:38:52.010775$GLGSA,A,3,65,71,72,73,74,75,,,,,,,1.0,0.6,0.8*24
###2023-12-09 13:38:52.012353$GAGSA,A,3,04,19,21,27,,,,,,,,,1.0,0.6,0.8*26
###2023-12-09 13:38:52.014060$GBGSA,A,3,12,14,24,25,33,35,,,,,,,1.0,0.6,0.8*2E
###2023-12-09 13:38:52.016391$GPGSV,2,1,08,03,25,245,40,04,48,307,43,16,68,224,46,26,82,040,47*7C
###2023-12-09 13:38:52.018733$GPGSV,2,2,08,27,18,172,41,28,37,086,42,29,20,046,41,31,58,068,46*77
###2023-12-09 13:38:52.021059$GLGSV,2,1,06,65,40,316,44,71,20,176,44,72,60,217,46,73,20,054,39*6F
