###2023-12-09 12:56:19.960666$GNGGA,175619.10,4138.0436664,N,07032.3892671,W,1,24,0.6,13.357,M,-29.745,M,0.0,*5C
###2023-12-09 12:56:19.962545$GPGSA,A,3,03,04,16,26,28,29,31,32,,,,,1.1,0.6,0.9*3B
###2023-12-09 12:56:19.964286$GLGSA,A,3,65,71,72,73,74,75,,,,,,,1.1,0.6,0.9*24
###2023-12-09 12:56:19.965874$GAGSA,A,3,04,19,21,27,,,,,,,,,1.1,0.6,0.9*26
###2023-12-09 12:56:19.967541$GBGSA,A,3,14,24,25,26,33,,,,,,,,1.1,0.6,0.9*2F
###2023-12-09 12:56:19.969869$GPGSV,2,1,08,03,36,265,45,04,30,311,41,16,47,211,46,26,77,209,49*73
###2023-12-09 12:56:19.972212$GPGSV,2,2,08,28,51,068,44,29,25,064,41,31,70,031,46,32,21,139,42*70
###2023-12-09 12:56:19.974540$GLGSV,2,1,06,65,21,328,43,71,44,172,46,72,72,281,47,73,38,040,46*6F
###2023-12-09 12:56:19.976290$GLGSV,2,2,06,74,71,327,44,75,30,250,45,,,,,,,,*67
###2023-12-09 12:56:19.978629$GAGSV,1,1,04,04,27,312,40,19,85,234,41,21,85,141,46,27,34,048,44*6A
###2023-12-09 12:56:19.980955$GBGSV,2,1,05,14,46,194,46,24,75,018,49,25,39,260,46,26,28,061,43*61
###2023-12-09 12:56:19.982404$GBGSV,2,2,05,33,59,237,48,,,,,,,,,,,,*58
###2023-12-09 12:56:19.983739$GNVTG,352.98,T,,M,0.29,N,0.54,K,A*2C
###2023-12-09 12:56:19.985385$GNGST,175619.10,18.000,,,,0.076,0.065,0.150*54
###2023-12-09 12:56:19.986706$GNZDA,175619.10,09,12,2023,00,00*7D
###2023-12-09 12:56:19.987351$GNEBP,,,,,,M*13
###2023-12-09 12:56:20.153928$GNGGA,175619.30,4138.0436642,N,07032.3892611,W,1,24,0.6,13.353,M,-29.745,M,0.0,*58
###2023-12-09 12:56:20.357197$GNGGA,175619.50,4138.0436947,N,07032.3892608,W,1,24,0.6,13.360,M,-29.745,M,0.0,*5C
###2023-12-09 12:56:20.557159$GNGGA,175619.70,4138.0437365,N,07032.3892602,W,1,24,0.6,13.357,M,-29.745,M,0.0,*5B
###2023-12-09 12:56:20.759532$GNGGA,175619.90,4138.0437485,N,07032.3892539,W,1,24,0.6,13.359,M,-29.745,M,0.0,*59
###2023-12-09 12:56:20.963307$GNRMC,175620.10,A,4138.0437370,N,07032.3892434,W,0.21,352.98,091223,,,A*56
###2023-12-09 12:56:20.966182$GNGGA,175620.10,4138.0437370,N,07032.3892434,W,1,24,0.6,13.355,M,-29.745,M,0.0,*56
###2023-12-09 12:56:20.968053$GPGSA,A,3,03,04,16,26,28,29,31,32,,,,,1.1,0.6,0.9*3B
###2023-12-09 12:56:20.969775$GLGSA,A,3,65,71,72,73,74,75,,,,,,,1.1,0.6,0.9*24
###2023-12-09 12:56:20.971369$GAGSA,A,3,04,19,21,27,,,,,,,,,1.1,0.6,0.9*26
###2023-12-09 12:56:20.973010$GBGSA,A,3,14,24,25,26,33,,,,,,,,1.1,0.6,0.9*2F
###2023-12-09 12:56:20.975348$GPGSV,2,1,08,03,36,265,45,04,30,311,42,16,47,211,46,26,77,209,48*71
###2023-12-09 12:56:20.977680$GPGSV,2,2,08,28,51,068,45,29,25,064,41,31,70,031,47,32,21,139,43*71
###2023-12-09 12:56:20.980034$GLGSV,2,1,06,65,21,328,43,71,44,172,47,72,72,281,47,73,38,040,46*6E
###2023-12-09 12:56:20.981788$GLGSV,2,2,06,74,71,327,43,75,30,250,45,,,,,,,,*60
###2023-12-09 12:56:20.984131$GAGSV,1,1,04,04,27,312,40,19,85,234,41,21,85,141,47,27,34,048,43*6C
###2023-12-09 12:56:20.986461$GBGSV,2,1,05,14,46,194,47,24,75,018,49,25,39,260,48,26,28,061,43*6E
###2023-12-09 12:56:20.987927$GBGSV,2,2,05,33,59,237,48,,,,,,,,,,,,*58
###2023-12-09 12:56:20.989251$GNVTG,352.98,T,,M,0.21,N,0.40,K,A*21
###2023-12-09 12:56:20.990912$GNGST,175620.10,18.000,,,,0.076,0.065,0.150*5E
###2023-12-09 12:56:20.992200$GNZDA,175620.10,09,12,2023,00,00*77
###2023-12-09 12:56:20.992839$GNEBP,,,,,,M*13
###2023-12-09 12:56:21.155628$GNGGA,175620.30,4138.0437462,N,07032.3892391,W,1,24,0.6,13.349,M,-29.745,M,0.0,*55
###2023-12-09 12:56:21.357957$GNGGA,175620.50,4138.0437855,N,07032.3892406,W,1,24,0.6,13.356,M,-29.745,M,0.0,*5C
###2023-12-09 12:56:21.555723$GNGGA,175620.70,4138.0438221,N,07032.3892442,W,1,24,0.6,13.356,M,-29.745,M,0.0,*58
###2023-12-09 12:56:21.756020$GNGGA,175620.90,4138.0438240,N,07032.3892362,W,1,24,0.6,13.367,M,-29.745,M,0.0,*56
###2023-12-09 12:56:21.955534$GNRMC,175621.10,A,4138.0438149,N,07032.3892254,W,0.04,352.98,091223,,,A*57
###2023-12-09 12:56:21.958390$GNGGA,175621.10,4138.0438149,N,07032.3892254,W,1,24,0.6,13.362,M,-29.745,M,0.0,*54
###2023-12-09 12:56:21.960265$GPGSA,A,3,03,04,16,26,28,29,31,32,,,,,1.1,0.6,0.9*3B
###2023-12-09 12:56:21.961982$GLGSA,A,3,65,71,72,73,74,75,,,,,,,1.1,0.6,0.9*24
###2023-12-09 12:56:21.963583$GAGSA,A,3,04,19,21,27,,,,,,,,,1.1,0.6,0.9*26
###2023-12-09 12:56:21.965237$GBGSA,A,3,14,24,25,26,33,,,,,,,,1.1,0.6,0.9*2F
###2023-12-09 12:56:21.967592$GPGSV,2,1,08,03,36,265,45,04,30,311,41,16,47,211,46,26,77,209,47*7D
###2023-12-09 12:56:21.969935$GPGSV,2,2,08,28,51,068,43,29,25,064,41,31,70,031,45,32,21,139,43*75
###2023-12-09 12:56:21.972308$GLGSV,2,1,06,65,21,328,41,71,44,172,48,72,72,281,47,73,38,040,46*63
###2023-12-09 12:56:21.974068$GLGSV,2,2,06,74,71,327,43,75,30,250,45,,,,,,,,*60
###2023-12-09 12:56:21.976418$GAGSV,1,1,04,04,27,312,40,19,85,234,39,21,85,141,46,27,34,048,43*62
###2023-12-09 12:56:21.978763$GBGSV,2,1,05,14,46,194,46,24,75,018,49,25,39,260,47,26,28,061,44*67
###2023-12-09 12:56:21.980224$GBGSV,2,2,05,33,59,237,48,,,,,,,,,,,,*58
###2023-12-09 12:56:21.981547$GNVTG,352.98,T,,M,0.04,N,0.07,K,A*25
###2023-12-09 12:56:21.983239$GNGST,175621.10,18.000,,,,0.076,0.065,0.150*5F
###2023-12-09 12:56:21.984535$GNZDA,175621.10,09,12,2023,00,00*76
###2023-12-09 12:56:21.985173$GNEBP,,,,,,M*13
###2023-12-09 12:56:22.156078$GNGGA,175621.30,4138.0438333,N,07032.3892251,W,1,24,0.6,13.362,M,-29.745,M,0.0,*5C
###2023-12-09 12:56:22.356778$GNGGA,175621.50,4138.0438809,N,07032.3892341,W,1,24,0.6,13.373,M,-29.745,M,0.0,*58
###2023-12-09 12:56:22.557979$GNGGA,175621.70,4138.0439096,N,07032.3892357,W,1,24,0.6,13.379,M,-29.745,M,0.0,*58
###2023-12-09 12:56:22.757777$GNGGA,175621.90,4138.0439020,N,07032.3892235,W,1,24,0.6,13.393,M,-29.745,M,0.0,*5A
###2023-12-09 12:56:22.957108$GNRMC,175622.10,A,4138.0438978,N,07032.3892150,W,0.23,352.98,091223,,,A*5C
###2023-12-09 12:56:22.959995$GNGGA,175622.10,4138.0438978,N,07032.3892150,W,1,24,0.6,13.387,M,-29.745,M,0.0,*51
###2023-12-09 12:56:22.961851$GPGSA,A,3,03,04,16,26,28,29,31,32,,,,,1.1,0.6,0.9*3B
###2023-12-09 12:56:22.963584$GLGSA,A,3,65,71,72,73,74,75,,,,,,,1.1,0.6,0.9*24
###2023-12-09 12:56:22.965174$GAGSA,A,3,04,19,21,27,,,,,,,,,1.1,0.6,0.9*26
###2023-12-09 12:56:22.966836$GBGSA,A,3,14,24,25,26,33,,,,,,,,1.1,0.6,0.9*2F
###2023-12-09 12:56:22.969170$GPGSV,2,1,08,03,36,265,45,04,30,311,41,16,47,211,46,26,77,209,48*72
###2023-12-09 12:56:22.971523$GPGSV,2,2,08,28,51,068,44,29,25,064,41,31,70,031,46,32,21,139,43*71
###2023-12-09 12:56:22.973859$GLGSV,2,1,06,65,21,328,39,71,44,172,49,72,72,281,47,73,38,040,47*6C
###2023-12-09 12:56:22.975614$GLGSV,2,2,06,74,71,327,42,75,30,250,45,,,,,,,,*61
###2023-12-09 12:56:22.977945$GAGSV,1,1,04,04,27,312,41,19,85,234,40,21,85,141,46,27,34,048,41*6F
###2023-12-09 12:56:22.980291$GBGSV,2,1,05,14,46,194,47,24,75,018,48,25,39,260,47,26,28,061,43*60
###2023-12-09 12:56:22.981748$GBGSV,2,2,05,33,59,237,48,,,,,,,,,,,,*58
###2023-12-09 12:56:22.983089$GNVTG,352.98,T,,M,0.23,N,0.43,K,A*20
###2023-12-09 12:56:22.984739$GNGST,175622.10,18.000,,,,0.076,0.065,0.150*5C
###2023-12-09 12:56:22.986031$GNZDA,175622.10,09,12,2023,00,00*75
###2023-12-09 12:56:22.986681$GNEBP,,,,,,M*13
###2023-12-09 12:56:23.154910$GNGGA,175622.30,4138.0439323,N,07032.3892219,W,1,24,0.6,13.388,M,-29.745,M,0.0,*57
###2023-12-09 12:56:23.355739$GNGGA,175622.50,4138.0439802,N,07032.3892337,W,1,24,0.6,13.388,M,-29.745,M,0.0,*54
###2023-12-09 12:56:23.555837$GNGGA,175622.70,4138.0439940,N,07032.3892309,W,1,24,0.6,13.397,M,-29.745,M,0.0,*52
###2023-12-09 12:56:23.757547$GNGGA,175622.90,4138.0439827,N,07032.3892153,W,1,24,0.6,13.412,M,-29.745,M,0.0,*5B
###2023-12-09 12:56:23.956840$GNRMC,175623.10,A,4138.0439887,N,07032.3892107,W,0.49,348.69,091223,,,A*56
###2023-12-09 12:56:23.959728$GNGGA,175623.10,4138.0439887,N,07032.3892107,W,1,24,0.6,13.404,M,-29.745,M,0.0,*5E
###2023-12-09 12:56:23.961588$GPGSA,A,3,03,04,16,26,28,29,31,32,,,,,1.1,0.6,0.9*3B
###2023-12-09 12:56:23.963320$GLGSA,A,3,65,71,72,73,74,75,,,,,,,1.1,0.6,0.9*24
###2023-12-09 12:56:23.964906$GAGSA,A,3,04,19,21,27,,,,,,,,,1.1,0.6,0.9*26
###2023-12-09 12:56:23.966549$GBGSA,A,3,14,24,25,26,33,,,,,,,,1.1,0.6,0.9*2F
###2023-12-09 12:56:23.968886$GPGSV,2,1,08,03,36,265,45,04,30,311,42,16,47,211,46,26,77,209,48*71
###2023-12-09 12:56:23.971227$GPGSV,2,2,08,28,51,068,44,29,25,064,40,31,70,031,46,32,21,139,44*77
###2023-12-09 12:56:23.973785$GLGSV,2,1,06,65,21,328,39,71,44,172,48,72,72,281,46,73,38,040,45*6E
###2023-12-09 12:56:23.975555$GLGSV,2,2,06,74,71,327,42,75,30,250,45,,,,,,,,*61
###2023-12-09 12:56:23.977892$GAGSV,1,1,04,04,27,312,41,19,85,234,40,21,85,141,46,27,34,048,41*6F
###2023-12-09 12:56:23.980235$GBGSV,2,1,05,14,46,194,47,24,75,018,48,25,39,260,48,26,28,061,43*6F
###2023-12-09 12:56:23.981690$GBGSV,2,2,05,33,59,237,48,,,,,,,,,,,,*58
###2023-12-09 12:56:23.983023$GNVTG,348.69,T,,M,0.49,N,0.90,K,A*27
###2023-12-09 12:56:23.984674$GNGST,175623.10,18.000,,,,0.076,0.065,0.150*5D
###2023-12-09 12:56:23.985966$GNZDA,175623.10,09,12,2023,00,00*74
###2023-12-09 12:56:23.986650$GNEBP,,,,,,M*13
