###2023-12-09 12:47:40.948558$GNRMC,174740.10,A,4138.0511625,N,07032.3991343,W,0.16,7.86,091223,,,A*5D
###2023-12-09 12:47:40.951496$GNGGA,174740.10,4138.0511625,N,07032.3991343,W,1,24,0.6,13.382,M,-29.745,M,0.0,*5F
###2023-12-09 12:47:40.953361$GPGSA,A,3,03,04,16,26,28,29,31,32,,,,,1.1,0.6,0.9*3B
###2023-12-09 12:47:40.955093$GLGSA,A,3,65,71,72,73,74,75,,,,,,,1.1,0.6,0.9*24
###2023-12-09 12:47:40.956681$GAGSA,A,3,04,19,21,27,,,,,,,,,1.1,0.6,0.9*26
###2023-12-09 12:47:40.958321$GBGSA,A,3,14,24,25,26,33,,,,,,,,1.1,0.6,0.9*2F
###2023-12-09 12:47:40.960650$GPGSV,2,1,08,03,37,269,45,04,27,311,43,16,43,209,44,26,72,208,48*70
###2023-12-09 12:47:40.962996$GPGSV,2,2,08,28,54,062,44,29,26,068,40,31,72,018,47,32,25,137,40*71
###2023-12-09 12:47:40.965323$GLGSV,2,1,06,65,17,329,44,71,49,171,47,72,70,294,47,73,42,037,46*68
###2023-12-09 12:47:40.967082$GLGSV,2,2,06,74,71,314,43,75,27,246,44,,,,,,,,*60
###2023-12-09 12:47:40.969409$GAGSV,1,1,04,04,24,312,43,19,84,276,41,21,82,165,46,27,38,049,41*64
###2023-12-09 12:47:40.971750$GBGSV,2,1,05,14,50,195,44,24,78,008,48,25,36,257,46,26,31,060,43*6A
###2023-12-09 12:47:40.973209$GBGSV,2,2,05,33,61,243,48,,,,,,,,,,,,*50
###2023-12-09 12:47:40.974471$GNVTG,7.86,T,,M,0.16,N,0.29,K,A*26
###2023-12-09 12:47:40.976134$GNGST,174740.10,18.000,,,,0.077,0.068,0.160*57
###2023-12-09 12:47:40.977427$GNZDA,174740.10,09,12,2023,00,00*71
###2023-12-09 12:47:40.978071$GNEBP,,,,,,M*13
###2023-12-09 12:47:41.144484$GNGGA,174740.30,4138.0511559,N,07032.3991232,W,1,24,0.6,13.390,M,-29.745,M,0.0,*51
###2023-12-09 12:47:41.348961$GNGGA,174740.50,4138.0511596,N,07032.3991241,W,1,24,0.6,13.370,M,-29.745,M,0.0,*5E
###2023-12-09 12:47:41.546830$GNGGA,174740.70,4138.0511992,N,07032.3991453,W,1,24,0.6,13.353,M,-29.745,M,0.0,*50
###2023-12-09 12:47:41.751693$GNGGA,174740.90,4138.0512456,N,07032.3991717,W,1,24,0.6,13.339,M,-29.745,M,0.0,*57
###2023-12-09 12:47:41.948320$GNRMC,174741.10,A,4138.0512544,N,07032.3991772,W,0.16,336.59,091223,,,A*5E
###2023-12-09 12:47:41.951193$GNGGA,174741.10,4138.0512544,N,07032.3991772,W,1,24,0.6,13.349,M,-29.745,M,0.0,*58
###2023-12-09 12:47:41.953048$GPGSA,A,3,03,04,16,26,28,29,31,32,,,,,1.1,0.6,0.9*3B
###2023-12-09 12:47:41.954779$GLGSA,A,3,65,71,72,73,74,75,,,,,,,1.1,0.6,0.9*24
###2023-12-09 12:47:41.956362$GAGSA,A,3,04,19,21,27,,,,,,,,,1.1,0.6,0.9*26
###2023-12-09 12:47:41.958007$GBGSA,A,3,14,24,25,26,33,,,,,,,,1.1,0.6,0.9*2F
###2023-12-09 12:47:41.960349$GPGSV,2,1,08,03,37,269,44,04,27,311,43,16,43,209,45,26,72,208,48*70
###2023-12-09 12:47:41.962690$GPGSV,2,2,08,28,54,062,44,29,26,068,39,31,72,018,47,32,25,137,40*7F
###2023-12-09 12:47:41.965018$GLGSV,2,1,06,65,17,329,44,71,49,171,47,72,70,294,46,73,42,037,46*69
###2023-12-09 12:47:41.966774$GLGSV,2,2,06,74,71,314,43,75,27,246,44,,,,,,,,*60
###2023-12-09 12:47:41.969100$GAGSV,1,1,04,04,24,312,43,19,84,276,41,21,82,165,46,27,38,049,42*67
###2023-12-09 12:47:41.971441$GBGSV,2,1,05,14,50,195,43,24,78,008,48,25,36,257,46,26,31,060,42*6C
###2023-12-09 12:47:41.972897$GBGSV,2,2,05,33,61,243,47,,,,,,,,,,,,*5F
###2023-12-09 12:47:41.974221$GNVTG,336.59,T,,M,0.16,N,0.29,K,A*25
###2023-12-09 12:47:41.975883$GNGST,174741.10,18.000,,,,0.077,0.068,0.160*56
###2023-12-09 12:47:41.977178$GNZDA,174741.10,09,12,2023,00,00*70
###2023-12-09 12:47:41.977816$GNEBP,,,,,,M*13
###2023-12-09 12:47:42.144306$GNGGA,174741.30,4138.0512519,N,07032.3991716,W,1,24,0.6,13.369,M,-29.745,M,0.0,*52
###2023-12-09 12:47:42.346518$GNGGA,174741.50,4138.0512694,N,07032.3991761,W,1,24,0.6,13.356,M,-29.745,M,0.0,*5E
###2023-12-09 12:47:42.546854$GNGGA,174741.70,4138.0513027,N,07032.3991944,W,1,24,0.6,13.330,M,-29.745,M,0.0,*5A
###2023-12-09 12:47:42.750495$GNGGA,174741.90,4138.0513348,N,07032.3992136,W,1,24,0.6,13.317,M,-29.745,M,0.0,*55
###2023-12-09 12:47:42.948275$GNRMC,174742.10,A,4138.0513545,N,07032.3992247,W,0.23,336.59,091223,,,A*5B
###2023-12-09 12:47:42.951145$GNGGA,174742.10,4138.0513545,N,07032.3992247,W,1,24,0.6,13.331,M,-29.745,M,0.0,*54
###2023-12-09 12:47:42.953006$GPGSA,A,3,03,04,16,26,28,29,31,32,,,,,1.1,0.6,0.9*3B
###2023-12-09 12:47:42.954739$GLGSA,A,3,65,71,72,73,74,75,,,,,,,1.1,0.6,0.9*24
###2023-12-09 12:47:42.956329$GAGSA,A,3,04,19,21,27,,,,,,,,,1.1,0.6,0.9*26
###2023-12-09 12:47:42.957973$GBGSA,A,3,14,24,25,26,33,,,,,,,,1.1,0.6,0.9*2F
###2023-12-09 12:47:42.960320$GPGSV,2,1,08,03,37,269,45,04,27,311,44,16,43,209,45,26,73,208,49*76
###2023-12-09 12:47:42.962680$GPGSV,2,2,08,28,54,062,44,29,26,068,39,31,72,018,47,32,25,137,42*7D
###2023-12-09 12:47:42.965032$GLGSV,2,1,06,65,17,329,44,71,49,171,46,72,70,294,46,73,42,037,45*6B
###2023-12-09 12:47:42.966802$GLGSV,2,2,06,74,71,314,43,75,27,246,42,,,,,,,,*66
###2023-12-09 12:47:42.969136$GAGSV,1,1,04,04,24,312,42,19,84,276,41,21,82,165,46,27,38,049,42*66
###2023-12-09 12:47:42.971471$GBGSV,2,1,05,14,50,195,45,24,78,008,48,25,36,257,46,26,31,060,43*6B
###2023-12-09 12:47:42.972919$GBGSV,2,2,05,33,61,243,48,,,,,,,,,,,,*50
###2023-12-09 12:47:42.974233$GNVTG,336.59,T,,M,0.23,N,0.43,K,A*2F
###2023-12-09 12:47:42.975891$GNGST,174742.10,18.000,,,,0.076,0.068,0.160*54
###2023-12-09 12:47:42.977177$GNZDA,174742.10,09,12,2023,00,00*73
###2023-12-09 12:47:42.977812$GNEBP,,,,,,M*13
###2023-12-09 12:47:43.144272$GNGGA,174742.30,4138.0513671,N,07032.3992274,W,1,24,0.6,13.352,M,-29.745,M,0.0,*57
###2023-12-09 12:47:43.345060$GNGGA,174742.50,4138.0513832,N,07032.3992295,W,1,24,0.6,13.347,M,-29.745,M,0.0,*53
###2023-12-09 12:47:43.545567$GNGGA,174742.70,4138.0514055,N,07032.3992409,W,1,24,0.6,13.325,M,-29.745,M,0.0,*58
###2023-12-09 12:47:43.749758$GNGGA,174742.90,4138.0514341,N,07032.3992595,W,1,24,0.6,13.311,M,-29.745,M,0.0,*53
###2023-12-09 12:47:43.948380$GNRMC,174743.10,A,4138.0514615,N,07032.3992738,W,0.43,336.59,091223,,,A*50
###2023-12-09 12:47:43.951267$GNGGA,174743.10,4138.0514615,N,07032.3992738,W,1,24,0.6,13.306,M,-29.745,M,0.0,*5D
###2023-12-09 12:47:43.953139$GPGSA,A,3,03,04,16,26,28,29,31,32,,,,,1.1,0.6,0.9*3B
###2023-12-09 12:47:43.954888$GLGSA,A,3,65,71,72,73,74,75,,,,,,,1.1,0.6,0.9*24
###2023-12-09 12:47:43.956489$GAGSA,A,3,04,19,21,27,,,,,,,,,1.1,0.6,0.9*26
###2023-12-09 12:47:43.958129$GBGSA,A,3,14,24,25,26,33,,,,,,,,1.1,0.6,0.9*2F
###2023-12-09 12:47:43.960481$GPGSV,2,1,08,03,37,269,44,04,27,311,43,16,43,209,46,26,73,208,49*73
###2023-12-09 12:47:43.962838$GPGSV,2,2,08,28,54,062,44,29,26,068,41,31,72,018,47,32,25,137,43*73
###2023-12-09 12:47:43.965173$GLGSV,2,1,06,65,17,329,44,71,49,171,48,72,70,294,46,73,42,037,44*64
###2023-12-09 12:47:43.966936$GLGSV,2,2,06,74,71,314,43,75,27,246,44,,,,,,,,*60
###2023-12-09 12:47:43.969265$GAGSV,1,1,04,04,24,312,42,19,84,276,41,21,82,165,47,27,38,049,42*67
###2023-12-09 12:47:43.971612$GBGSV,2,1,05,14,50,195,46,24,78,008,49,25,36,257,46,26,31,060,43*69
###2023-12-09 12:47:43.973067$GBGSV,2,2,05,33,61,243,48,,,,,,,,,,,,*50
###2023-12-09 12:47:43.974386$GNVTG,336.59,T,,M,0.43,N,0.79,K,A*20
###2023-12-09 12:47:43.976048$GNGST,174743.10,18.000,,,,0.076,0.068,0.160*55
###2023-12-09 12:47:43.977340$GNZDA,174743.10,09,12,2023,00,00*72
###2023-12-09 12:47:43.977976$GNEBP,,,,,,M*13
###2023-12-09 12:47:44.144403$GNGGA,174743.30,4138.0514819,N,07032.3992828,W,1,24,0.6,13.330,M,-29.745,M,0.0,*56
###2023-12-09 12:47:44.345040$GNGGA,174743.50,4138.0514991,N,07032.3992873,W,1,24,0.6,13.349,M,-29.745,M,0.0,*51
###2023-12-09 12:47:44.545757$GNGGA,174743.70,4138.0515169,N,07032.3992931,W,1,24,0.6,13.335,M,-29.745,M,0.0,*51
###2023-12-09 12:47:44.744022$GNGGA,174743.90,4138.0515373,N,07032.3993049,W,1,24,0.6,13.299,M,-29.745,M,0.0,*56
###2023-12-09 12:47:44.947786$GNRMC,174744.10,A,4138.0515644,N,07032.3993221,W,0.56,336.59,091223,,,A*5A
###2023-12-09 12:47:44.950668$GNGGA,174744.10,4138.0515644,N,07032.3993221,W,1,24,0.6,13.288,M,-29.745,M,0.0,*54
###2023-12-09 12:47:44.952534$GPGSA,A,3,03,04,16,26,28,29,31,32,,,,,1.1,0.6,0.9*3B
###2023-12-09 12:47:44.954249$GLGSA,A,3,65,71,72,73,74,75,,,,,,,1.1,0.6,0.9*24
###2023-12-09 12:47:44.955853$GAGSA,A,3,04,19,21,27,,,,,,,,,1.1,0.6,0.9*26
###2023-12-09 12:47:44.957506$GBGSA,A,3,14,24,25,26,33,,,,,,,,1.1,0.6,0.9*2F
###2023-12-09 12:47:44.959848$GPGSV,2,1,08,03,37,269,43,04,27,311,43,16,43,209,46,26,73,208,49*74
###2023-12-09 12:47:44.962436$GPGSV,2,2,08,28,53,064,45,29,26,068,40,31,72,018,47,32,25,137,45*74
###2023-12-09 12:47:44.964802$GLGSV,2,1,06,65,17,329,43,71,49,171,49,72,70,294,46,73,42,037,44*62
###2023-12-09 12:47:44.966571$GLGSV,2,2,06,74,71,314,43,75,27,246,44,,,,,,,,*60
###2023-12-09 12:47:44.968919$GAGSV,1,1,04,04,24,312,41,19,84,276,41,21,82,165,46,27,38,049,41*66
###2023-12-09 12:47:44.971271$GBGSV,2,1,05,14,50,195,46,24,78,008,48,25,36,257,45,26,31,060,44*6C
###2023-12-09 12:47:44.972735$GBGSV,2,2,05,33,61,243,47,,,,,,,,,,,,*5F
###2023-12-09 12:47:44.974065$GNVTG,336.59,T,,M,0.56,N,1.04,K,A*2F
###2023-12-09 12:47:44.975732$GNGST,174744.10,18.000,,,,0.076,0.068,0.160*52
###2023-12-09 12:47:44.977027$GNZDA,174744.10,09,12,2023,00,00*75
