###2023-12-09 13:33:19.005058$GPGSA,A,3,03,04,16,26,27,28,29,31,,,,,1.0,0.6,0.8*3F
###2023-12-09 13:33:19.006806$GLGSA,A,3,65,71,72,73,74,75,,,,,,,1.0,0.6,0.8*24
###2023-12-09 13:33:19.008387$GAGSA,A,3,04,19,21,27,,,,,,,,,1.0,0.6,0.8*26
###2023-12-09 13:33:19.010159$GBGSA,A,3,12,14,24,25,26,33,35,,,,,,1.0,0.6,0.8*2A
###2023-12-09 13:33:19.012494$GPGSV,2,1,08,03,27,247,40,04,46,308,45,16,66,222,46,26,85,040,47*74
###2023-12-09 13:33:19.014837$GPGSV,2,2,08,27,16,173,40,28,39,084,43,29,21,048,40,31,60,064,46*7D
###2023-12-09 13:33:19.017157$GLGSV,2,1,06,65,38,319,43,71,23,175,41,72,63,222,46,73,23,052,40*63
###2023-12-09 13:33:19.018908$GLGSV,2,2,06,74,60,013,41,75,43,271,46,,,,,,,,*62
###2023-12-09 13:33:19.021224$GAGSV,1,1,04,04,39,310,44,19,73,182,41,21,77,047,45,27,23,050,38*69
###2023-12-09 13:33:19.023561$GBGSV,2,1,07,12,15,126,40,14,29,190,41,24,63,045,47,25,50,275,46*6B
###2023-12-09 13:33:19.025581$GBGSV,2,2,07,26,16,070,41,33,46,217,47,35,16,057,41,,,,*5E
###2023-12-09 13:33:19.026880$GNVTG,33.41,T,,M,3.42,N,6.34,K,A*12
###2023-12-09 13:33:19.028483$GNGST,183318.10,4.800,,,,0.095,0.069,0.160*6E
###2023-12-09 13:33:19.029766$GNZDA,183318.10,09,12,2023,00,00*70
###2023-12-09 13:33:19.030399$GNEBP,,,,,,M*13
###2023-12-09 13:33:19.198426$GNGGA,183318.30,4138.0530634,N,07032.4082437,W,1,26,0.6,13.434,M,-29.745,M,0.0,*5F
###2023-12-09 13:33:19.395489$GNGGA,183318.50,4138.0532331,N,07032.4081929,W,1,26,0.6,13.454,M,-29.745,M,0.0,*5C
###2023-12-09 13:33:19.594610$GNGGA,183318.70,4138.0533936,N,07032.4081149,W,1,26,0.6,13.455,M,-29.745,M,0.0,*5D
###2023-12-09 13:33:19.796088$GNGGA,183318.90,4138.0535500,N,07032.4080049,W,1,26,0.6,13.429,M,-29.745,M,0.0,*57
###2023-12-09 13:33:19.999229$GNRMC,183319.10,A,4138.0537048,N,07032.4079332,W,2.94,11.26,091223,,,A*6F
###2023-12-09 13:33:20.002093$GNGGA,183319.10,4138.0537048,N,07032.4079332,W,1,26,0.6,13.426,M,-29.745,M,0.0,*53
###2023-12-09 13:33:20.003980$GPGSA,A,3,03,04,16,26,27,28,29,31,,,,,1.0,0.6,0.8*3F
###2023-12-09 13:33:20.005706$GLGSA,A,3,65,71,72,73,74,75,,,,,,,1.0,0.6,0.8*24
###2023-12-09 13:33:20.007314$GAGSA,A,3,04,19,21,27,,,,,,,,,1.0,0.6,0.8*26
###2023-12-09 13:33:20.009099$GBGSA,A,3,12,14,24,25,26,33,35,,,,,,1.0,0.6,0.8*2A
###2023-12-09 13:33:20.011442$GPGSV,2,1,08,03,27,247,42,04,46,308,44,16,66,222,46,26,85,040,47*77
###2023-12-09 13:33:20.013779$GPGSV,2,2,08,27,16,173,43,28,39,084,44,29,21,048,41,31,60,064,46*78
###2023-12-09 13:33:20.016130$GLGSV,2,1,06,65,38,319,41,71,23,175,44,72,63,222,46,73,23,052,41*65
###2023-12-09 13:33:20.017879$GLGSV,2,2,06,74,60,013,41,75,43,271,48,,,,,,,,*6C
###2023-12-09 13:33:20.020222$GAGSV,1,1,04,04,39,310,43,19,73,182,41,21,77,047,45,27,23,050,40*61
###2023-12-09 13:33:20.022553$GBGSV,2,1,07,12,15,126,40,14,29,190,40,24,63,045,46,25,50,275,46*6B
###2023-12-09 13:33:20.024606$GBGSV,2,2,07,26,16,070,43,33,46,217,45,35,16,057,41,,,,*5E
###2023-12-09 13:33:20.025902$GNVTG,11.26,T,,M,2.94,N,5.44,K,A*1D
###2023-12-09 13:33:20.027529$GNGST,183319.10,5.400,,,,0.093,0.068,0.160*65
###2023-12-09 13:33:20.028820$GNZDA,183319.10,09,12,2023,00,00*71
###2023-12-09 13:33:20.029460$GNEBP,,,,,,M*13
###2023-12-09 13:33:20.198357$GNGGA,183319.30,4138.0538674,N,07032.4079090,W,1,26,0.6,13.456,M,-29.745,M,0.0,*5B
###2023-12-09 13:33:20.396043$GNGGA,183319.50,4138.0540388,N,07032.4078854,W,1,26,0.6,13.456,M,-29.745,M,0.0,*55
###2023-12-09 13:33:20.595649$GNGGA,183319.70,4138.0542142,N,07032.4078358,W,1,26,0.6,13.459,M,-29.745,M,0.0,*59
###2023-12-09 13:33:20.795588$GNGGA,183319.90,4138.0543943,N,07032.4077869,W,1,26,0.6,13.461,M,-29.745,M,0.0,*52
###2023-12-09 13:33:21.005762$GNRMC,183320.10,A,4138.0545786,N,07032.4077667,W,3.36,2.74,091223,,,A*52
###2023-12-09 13:33:21.008641$GNGGA,183320.10,4138.0545786,N,07032.4077667,W,1,26,0.6,13.460,M,-29.745,M,0.0,*50
###2023-12-09 13:33:21.010491$GPGSA,A,3,03,04,16,26,27,28,29,31,,,,,1.0,0.6,0.8*3F
###2023-12-09 13:33:21.012211$GLGSA,A,3,65,71,72,73,74,75,,,,,,,1.0,0.6,0.8*24
###2023-12-09 13:33:21.013783$GAGSA,A,3,04,19,21,27,,,,,,,,,1.0,0.6,0.8*26
###2023-12-09 13:33:21.015563$GBGSA,A,3,12,14,24,25,26,33,35,,,,,,1.0,0.6,0.8*2A
###2023-12-09 13:33:21.017874$GPGSV,2,1,08,03,27,247,43,04,46,308,45,16,66,222,47,26,85,040,48*79
###2023-12-09 13:33:21.020210$GPGSV,2,2,08,27,16,173,44,28,39,084,44,29,21,048,41,31,60,064,47*7E
###2023-12-09 13:33:21.022528$GLGSV,2,1,06,65,38,319,43,71,23,175,42,72,63,222,46,73,23,052,41*61
###2023-12-09 13:33:21.024274$GLGSV,2,2,06,74,60,013,41,75,43,271,47,,,,,,,,*63
###2023-12-09 13:33:21.026594$GAGSV,1,1,04,04,39,310,44,19,73,182,42,21,77,047,46,27,23,050,40*66
###2023-12-09 13:33:21.028913$GBGSV,2,1,07,12,15,126,40,14,29,190,41,24,63,045,47,25,50,275,47*6A
###2023-12-09 13:33:21.030948$GBGSV,2,2,07,26,16,070,42,33,46,217,47,35,16,057,42,,,,*5E
###2023-12-09 13:33:21.032206$GNVTG,2.74,T,,M,3.36,N,6.23,K,A*23
###2023-12-09 13:33:21.033808$GNGST,183320.10,5.700,,,,0.092,0.068,0.160*6D
###2023-12-09 13:33:21.035100$GNZDA,183320.10,09,12,2023,00,00*7B
###2023-12-09 13:33:21.035737$GNEBP,,,,,,M*13
###2023-12-09 13:33:21.203733$GNGGA,183320.30,4138.0547601,N,07032.4077636,W,1,26,0.6,13.437,M,-29.745,M,0.0,*58
###2023-12-09 13:33:21.393046$GNGGA,183320.50,4138.0549357,N,07032.4077531,W,1,26,0.6,13.426,M,-29.745,M,0.0,*52
###2023-12-09 13:33:21.592682$GNGGA,183320.70,4138.0551052,N,07032.4077324,W,1,26,0.6,13.419,M,-29.745,M,0.0,*51
###2023-12-09 13:33:21.794756$GNGGA,183320.90,4138.0552663,N,07032.4077300,W,1,26,0.6,13.406,M,-29.745,M,0.0,*50
###2023-12-09 13:33:21.999339$GNRMC,183321.10,A,4138.0554130,N,07032.4077583,W,2.53,349.44,091223,,,A*5C
###2023-12-09 13:33:22.002208$GNGGA,183321.10,4138.0554130,N,07032.4077583,W,1,26,0.6,13.415,M,-29.745,M,0.0,*51
###2023-12-09 13:33:22.004072$GPGSA,A,3,03,04,16,26,27,28,29,31,,,,,1.0,0.6,0.8*3F
###2023-12-09 13:33:22.005792$GLGSA,A,3,65,71,72,73,74,75,,,,,,,1.0,0.6,0.8*24
###2023-12-09 13:33:22.007384$GAGSA,A,3,04,19,21,27,,,,,,,,,1.0,0.6,0.8*26
###2023-12-09 13:33:22.009160$GBGSA,A,3,12,14,24,25,26,33,35,,,,,,1.0,0.6,0.8*2A
###2023-12-09 13:33:22.011491$GPGSV,2,1,08,03,27,247,44,04,46,308,44,16,66,222,45,26,85,040,48*7D
###2023-12-09 13:33:22.013822$GPGSV,2,2,08,27,16,173,43,28,39,084,46,29,21,048,42,31,60,064,47*78
###2023-12-09 13:33:22.016146$GLGSV,2,1,06,65,38,319,40,71,23,175,43,72,63,222,45,73,23,052,44*65
###2023-12-09 13:33:22.017885$GLGSV,2,2,06,74,60,013,42,75,43,271,45,,,,,,,,*62
###2023-12-09 13:33:22.020208$GAGSV,1,1,04,04,39,310,42,19,73,182,42,21,77,047,46,27,23,050,40*60
###2023-12-09 13:33:22.022520$GBGSV,2,1,07,12,15,126,39,14,29,190,40,24,63,045,48,25,50,275,46*6B
###2023-12-09 13:33:22.024554$GBGSV,2,2,07,26,16,070,42,33,46,217,47,35,16,057,42,,,,*5E
###2023-12-09 13:33:22.025871$GNVTG,349.44,T,,M,2.53,N,4.68,K,A*23
###2023-12-09 13:33:22.027484$GNGST,183321.10,5.800,,,,0.091,0.068,0.160*60
###2023-12-09 13:33:22.028765$GNZDA,183321.10,09,12,2023,00,00*7A
###2023-12-09 13:33:22.029399$GNEBP,,,,,,M*13
###2023-12-09 13:33:22.194357$GNGGA,183321.30,4138.0555533,N,07032.4078071,W,1,26,0.6,13.434,M,-29.745,M,0.0,*51
###2023-12-09 13:33:22.394584$GNGGA,183321.50,4138.0556994,N,07032.4078574,W,1,26,0.6,13.440,M,-29.745,M,0.0,*56
###2023-12-09 13:33:22.593559$GNGGA,183321.70,4138.0558455,N,07032.4079271,W,1,27,0.6,13.435,M,-29.745,M,0.0,*5A
###2023-12-09 13:33:22.794459$GNGGA,183321.90,4138.0559908,N,07032.4080186,W,1,27,0.6,13.438,M,-29.745,M,0.0,*50
###2023-12-09 13:33:22.998313$GNRMC,183322.10,A,4138.0561441,N,07032.4081167,W,3.09,335.51,091223,,,A*5C
###2023-12-09 13:33:23.001203$GNGGA,183322.10,4138.0561441,N,07032.4081167,W,1,26,0.6,13.434,M,-29.745,M,0.0,*53
###2023-12-09 13:33:23.003077$GPGSA,A,3,03,04,16,26,27,28,29,31,,,,,1.0,0.6,0.8*3F
###2023-12-09 13:33:23.004785$GLGSA,A,3,65,71,72,73,74,75,,,,,,,1.0,0.6,0.8*24
###2023-12-09 13:33:23.006357$GAGSA,A,3,04,19,21,27,,,,,,,,,1.0,0.6,0.8*26
###2023-12-09 13:33:23.008133$GBGSA,A,3,12,14,24,25,26,33,35,,,,,,1.0,0.6,0.8*2A
###2023-12-09 13:33:23.010442$GPGSV,2,1,08,03,27,247,43,04,46,308,44,16,66,222,46,26,85,040,48*79
###2023-12-09 13:33:23.012775$GPGSV,2,2,08,27,16,173,41,28,39,084,44,29,21,048,42,31,60,064,46*79
###2023-12-09 13:33:23.015381$GLGSV,2,1,06,65,38,319,41,71,23,175,43,72,63,222,46,73,23,052,43*60
###2023-12-09 13:33:23.017138$GLGSV,2,2,06,74,60,013,42,75,43,271,47,,,,,,,,*60
###2023-12-09 13:33:23.019503$GAGSV,1,1,04,04,39,310,43,19,73,182,42,21,77,047,46,27,23,050,41*60
###2023-12-09 13:33:23.021840$GBGSV,2,1,07,12,15,126,40,14,29,190,40,24,63,045,48,25,50,275,46*65
###2023-12-09 13:33:23.023893$GBGSV,2,2,07,26,16,070,39,33,46,217,47,35,16,057,41,,,,*51
###2023-12-09 13:33:23.025217$GNVTG,335.51,T,,M,3.09,N,5.72,K,A*28
###2023-12-09 13:33:23.026830$GNGST,183322.10,5.700,,,,0.090,0.068,0.160*6D
###2023-12-09 13:33:23.028114$GNZDA,183322.10,09,12,2023,00,00*79
###2023-12-09 13:33:23.028750$GNEBP,,,,,,M*13
###2023-12-09 13:33:23.193323$GNGGA,183322.30,4138.0563007,N,07032.4082117,W,1,26,0.6,13.438,M,-29.745,M,0.0,*5D
