###2023-12-09 12:52:35.966540$GBGSA,A,3,14,24,25,26,33,,,,,,,,1.1,0.6,0.9*2F
###2023-12-09 12:52:35.969418$GPGSV,2,1,08,03,37,267,45,04,29,311,46,16,45,210,46,26,75,209,50*76
###2023-12-09 12:52:35.972271$GPGSV,2,2,08,28,52,066,45,29,26,065,43,31,71,026,48,32,23,138,46*72
###2023-12-09 12:52:35.975146$GLGSV,2,1,06,65,19,329,44,71,47,171,47,72,72,288,46,73,40,038,41*6C
###2023-12-09 12:52:35.977256$GLGSV,2,2,06,74,71,321,43,75,28,248,45,,,,,,,,*66
###2023-12-09 12:52:35.980089$GAGSV,1,1,04,04,26,312,45,19,85,252,42,21,84,154,48,27,36,048,44*64
###2023-12-09 12:52:35.982905$GBGSV,2,1,05,14,47,194,44,24,77,014,48,25,37,258,45,26,29,060,42*6A
###2023-12-09 12:52:35.984654$GBGSV,2,2,05,33,60,240,46,,,,,,,,,,,,*5C
###2023-12-09 12:52:35.986248$GNVTG,309.67,T,,M,0.35,N,0.65,K,A*2D
###2023-12-09 12:52:35.988258$GNGST,175235.10,18.000,,,,0.078,0.068,0.160*5E
###2023-12-09 12:52:35.989820$GNZDA,175235.10,09,12,2023,00,00*77
###2023-12-09 12:52:35.990607$GNEBP,,,,,,M*13
###2023-12-09 12:52:36.154275$GNGGA,175235.30,4138.0633816,N,07032.3875994,W,1,24,0.6,13.146,M,-29.744,M,0.0,*56
###2023-12-09 12:52:36.354312$GNGGA,175235.50,4138.0634002,N,07032.3876363,W,1,24,0.6,13.142,M,-29.744,M,0.0,*5F
###2023-12-09 12:52:36.553325$GNGGA,175235.70,4138.0634147,N,07032.3876663,W,1,24,0.6,13.139,M,-29.744,M,0.0,*54
###2023-12-09 12:52:36.753376$GNGGA,175235.90,4138.0634216,N,07032.3876840,W,1,24,0.6,13.148,M,-29.744,M,0.0,*54
###2023-12-09 12:52:36.952958$GNRMC,175236.10,A,4138.0634319,N,07032.3877043,W,0.43,309.67,091223,,,A*5E
###2023-12-09 12:52:36.955864$GNGGA,175236.10,4138.0634319,N,07032.3877043,W,1,24,0.6,13.154,M,-29.744,M,0.0,*56
###2023-12-09 12:52:36.957740$GPGSA,A,3,03,04,16,26,28,29,31,32,,,,,1.1,0.6,0.9*3B
###2023-12-09 12:52:36.959474$GLGSA,A,3,65,71,72,73,74,75,,,,,,,1.1,0.6,0.9*24
###2023-12-09 12:52:36.961058$GAGSA,A,3,04,19,21,27,,,,,,,,,1.1,0.6,0.9*26
###2023-12-09 12:52:36.962714$GBGSA,A,3,14,24,25,26,33,,,,,,,,1.1,0.6,0.9*2F
###2023-12-09 12:52:36.965033$GPGSV,2,1,08,03,37,267,43,04,29,311,44,16,45,210,46,26,75,209,48*7B
###2023-12-09 12:52:36.967392$GPGSV,2,2,08,28,52,066,45,29,26,065,42,31,71,026,48,32,23,138,44*71
###2023-12-09 12:52:36.969715$GLGSV,2,1,06,65,19,329,44,71,47,171,48,72,72,288,46,73,40,038,41*63
###2023-12-09 12:52:36.971475$GLGSV,2,2,06,74,71,321,43,75,28,248,45,,,,,,,,*66
###2023-12-09 12:52:36.973792$GAGSV,1,1,04,04,26,312,43,19,85,252,40,21,84,154,46,27,36,048,43*69
###2023-12-09 12:52:36.976129$GBGSV,2,1,05,14,47,194,45,24,76,016,47,25,37,258,44,26,29,060,42*66
###2023-12-09 12:52:36.977587$GBGSV,2,2,05,33,60,240,47,,,,,,,,,,,,*5D
###2023-12-09 12:52:36.978940$GNVTG,309.67,T,,M,0.43,N,0.79,K,A*21
###2023-12-09 12:52:36.980587$GNGST,175236.10,18.000,,,,0.077,0.067,0.160*5D
###2023-12-09 12:52:36.981876$GNZDA,175236.10,09,12,2023,00,00*74
###2023-12-09 12:52:36.982513$GNEBP,,,,,,M*13
###2023-12-09 12:52:37.152840$GNGGA,175236.30,4138.0634494,N,07032.3877394,W,1,24,0.6,13.156,M,-29.744,M,0.0,*5D
###2023-12-09 12:52:37.353969$GNGGA,175236.50,4138.0634705,N,07032.3877767,W,1,24,0.6,13.156,M,-29.744,M,0.0,*58
###2023-12-09 12:52:37.554866$GNGGA,175236.70,4138.0634908,N,07032.3877999,W,1,24,0.6,13.157,M,-29.744,M,0.0,*57
###2023-12-09 12:52:37.753349$GNGGA,175236.90,4138.0635084,N,07032.3878064,W,1,24,0.6,13.153,M,-29.744,M,0.0,*55
###2023-12-09 12:52:37.954961$GNRMC,175237.10,A,4138.0635300,N,07032.3878156,W,0.51,309.67,091223,,,A*5F
###2023-12-09 12:52:37.957846$GNGGA,175237.10,4138.0635300,N,07032.3878156,W,1,24,0.6,13.153,M,-29.744,M,0.0,*53
###2023-12-09 12:52:37.959718$GPGSA,A,3,03,04,16,26,28,29,31,32,,,,,1.1,0.6,0.9*3B
###2023-12-09 12:52:37.961432$GLGSA,A,3,65,71,72,73,74,75,,,,,,,1.1,0.6,0.9*24
###2023-12-09 12:52:37.963025$GAGSA,A,3,04,19,21,27,,,,,,,,,1.1,0.6,0.9*26
###2023-12-09 12:52:37.964674$GBGSA,A,3,14,24,25,26,33,,,,,,,,1.1,0.6,0.9*2F
###2023-12-09 12:52:37.967022$GPGSV,2,1,08,03,37,267,43,04,29,311,43,16,45,210,47,26,75,209,49*7C
###2023-12-09 12:52:37.969352$GPGSV,2,2,08,28,52,066,44,29,26,065,41,31,71,026,46,32,23,138,45*7C
###2023-12-09 12:52:37.971699$GLGSV,2,1,06,65,19,329,44,71,47,171,47,72,72,288,46,73,40,038,41*6C
###2023-12-09 12:52:37.973452$GLGSV,2,2,06,74,71,321,42,75,28,248,45,,,,,,,,*67
###2023-12-09 12:52:37.975792$GAGSV,1,1,04,04,26,312,43,19,85,252,41,21,84,154,46,27,36,048,42*69
###2023-12-09 12:52:37.978119$GBGSV,2,1,05,14,47,194,45,24,76,016,48,25,38,259,45,26,29,060,42*66
###2023-12-09 12:52:37.979580$GBGSV,2,2,05,33,60,240,47,,,,,,,,,,,,*5D
###2023-12-09 12:52:37.980904$GNVTG,309.67,T,,M,0.51,N,0.94,K,A*21
###2023-12-09 12:52:37.982548$GNGST,175237.10,18.000,,,,0.077,0.067,0.160*5C
###2023-12-09 12:52:37.983845$GNZDA,175237.10,09,12,2023,00,00*75
###2023-12-09 12:52:37.984483$GNEBP,,,,,,M*13
###2023-12-09 12:52:38.153706$GNGGA,175237.30,4138.0635644,N,07032.3878330,W,1,24,0.6,13.155,M,-29.744,M,0.0,*50
###2023-12-09 12:52:38.353345$GNGGA,175237.50,4138.0636121,N,07032.3878540,W,1,24,0.6,13.162,M,-29.744,M,0.0,*54
###2023-12-09 12:52:38.553271$GNGGA,175237.70,4138.0636630,N,07032.3878542,W,1,24,0.6,13.160,M,-29.744,M,0.0,*51
###2023-12-09 12:52:38.753322$GNGGA,175237.90,4138.0637037,N,07032.3878298,W,1,24,0.6,13.155,M,-29.744,M,0.0,*59
###2023-12-09 12:52:38.953755$GNRMC,175238.10,A,4138.0637473,N,07032.3877980,W,1.03,26.37,091223,,,A*60
###2023-12-09 12:52:38.956671$GNGGA,175238.10,4138.0637473,N,07032.3877980,W,1,24,0.6,13.146,M,-29.744,M,0.0,*55
###2023-12-09 12:52:38.958538$GPGSA,A,3,03,04,16,26,28,29,31,32,,,,,1.1,0.6,0.9*3B
###2023-12-09 12:52:38.960279$GLGSA,A,3,65,71,72,73,74,75,,,,,,,1.1,0.6,0.9*24
###2023-12-09 12:52:38.961868$GAGSA,A,3,04,19,21,27,,,,,,,,,1.1,0.6,0.9*26
###2023-12-09 12:52:38.963533$GBGSA,A,3,14,24,25,26,33,,,,,,,,1.1,0.6,0.9*2F
###2023-12-09 12:52:38.965855$GPGSV,2,1,08,03,37,267,42,04,29,311,43,16,45,210,46,26,75,209,48*7D
###2023-12-09 12:52:38.968204$GPGSV,2,2,08,28,52,066,45,29,26,065,40,31,71,026,47,32,23,138,45*7D
###2023-12-09 12:52:38.970544$GLGSV,2,1,06,65,19,329,42,71,47,171,47,72,72,288,46,73,40,038,42*69
###2023-12-09 12:52:38.972309$GLGSV,2,2,06,74,71,321,42,75,28,248,46,,,,,,,,*64
###2023-12-09 12:52:38.974648$GAGSV,1,1,04,04,26,312,41,19,85,252,41,21,84,154,46,27,36,048,42*6B
###2023-12-09 12:52:38.976986$GBGSV,2,1,05,14,47,194,45,24,76,016,47,25,38,259,44,26,29,061,43*68
###2023-12-09 12:52:38.978445$GBGSV,2,2,05,33,60,240,47,,,,,,,,,,,,*5D
###2023-12-09 12:52:38.979750$GNVTG,26.37,T,,M,1.03,N,1.91,K,A*18
###2023-12-09 12:52:38.981399$GNGST,175238.10,18.000,,,,0.077,0.067,0.160*53
###2023-12-09 12:52:38.982703$GNZDA,175238.10,09,12,2023,00,00*7A
###2023-12-09 12:52:38.983344$GNEBP,,,,,,M*13
###2023-12-09 12:52:39.153473$GNGGA,175238.30,4138.0638124,N,07032.3877750,W,1,24,0.6,13.150,M,-29.744,M,0.0,*5B
###2023-12-09 12:52:39.355943$GNGGA,175238.50,4138.0638894,N,07032.3877452,W,1,24,0.6,13.150,M,-29.744,M,0.0,*5E
###2023-12-09 12:52:39.553204$GNGGA,175238.70,4138.0639550,N,07032.3876912,W,1,24,0.6,13.153,M,-29.744,M,0.0,*53
###2023-12-09 12:52:39.753939$GNGGA,175238.90,4138.0640056,N,07032.3876170,W,1,24,0.6,13.156,M,-29.744,M,0.0,*59
###2023-12-09 12:52:39.954424$GNRMC,175239.10,A,4138.0640560,N,07032.3875333,W,1.59,52.23,091223,,,A*6B
###2023-12-09 12:52:39.957313$GNGGA,175239.10,4138.0640560,N,07032.3875333,W,1,24,0.6,13.153,M,-29.744,M,0.0,*53
###2023-12-09 12:52:39.959205$GPGSA,A,3,03,04,16,26,28,29,31,32,,,,,1.1,0.6,0.9*3B
###2023-12-09 12:52:39.960930$GLGSA,A,3,65,71,72,73,74,75,,,,,,,1.1,0.6,0.9*24
###2023-12-09 12:52:39.962521$GAGSA,A,3,04,19,21,27,,,,,,,,,1.1,0.6,0.9*26
###2023-12-09 12:52:39.964191$GBGSA,A,3,14,24,25,26,33,,,,,,,,1.1,0.6,0.9*2F
###2023-12-09 12:52:39.966529$GPGSV,2,1,08,03,37,267,44,04,29,311,40,16,45,210,44,26,75,209,47*75
###2023-12-09 12:52:39.968880$GPGSV,2,2,08,28,52,066,42,29,26,065,38,31,71,026,45,32,23,138,41*73
###2023-12-09 12:52:39.971234$GLGSV,2,1,06,65,19,329,42,71,47,171,47,72,72,288,46,73,40,038,45*6E
###2023-12-09 12:52:39.972988$GLGSV,2,2,06,74,71,321,42,75,28,248,45,,,,,,,,*67
###2023-12-09 12:52:39.975327$GAGSV,1,1,04,04,26,312,39,19,85,252,39,21,84,154,45,27,36,048,40*6A
###2023-12-09 12:52:39.977667$GBGSV,2,1,05,14,47,194,46,24,76,016,48,25,38,259,46,26,29,061,43*66
###2023-12-09 12:52:39.979381$GBGSV,2,2,05,33,60,240,47,,,,,,,,,,,,*5D
###2023-12-09 12:52:39.980688$GNVTG,52.23,T,,M,1.59,N,2.95,K,A*16
###2023-12-09 12:52:39.982338$GNGST,175239.10,18.000,,,,0.078,0.068,0.160*52
###2023-12-09 12:52:39.983642$GNZDA,175239.10,09,12,2023,00,00*7B
###2023-12-09 12:52:39.984287$GNEBP,,,,,,M*13
###2023-12-09 12:52:40.151554$GNGGA,175239.30,4138.0641160,N,07032.3874445,W,1,24,0.6,13.153,M,-29.744,M,0.0,*53
###2023-12-09 12:52:40.352351$GNGGA,175239.50,4138.0641883,N,07032.3873549,W,1,24,0.6,13.159,M,-29.744,M,0.0,*51
###2023-12-09 12:52:40.552244$GNGGA,175239.70,4138.0642528,N,07032.3872484,W,1,24,0.6,13.161,M,-29.744,M,0.0,*56
###2023-12-09 12:52:40.752312$GNGGA,175239.90,4138.0642780,N,07032.3871141,W,1,24,0.6,13.150,M,-29.744,M,0.0,*55
