###2023-12-09 12:41:47.969712$GNVTG,314.33,T,,M,0.45,N,0.83,K,A*2F
###2023-12-09 12:41:47.971402$GNGST,174147.10,18.000,,,,0.076,0.069,0.160*56
###2023-12-09 12:41:47.972701$GNZDA,174147.10,09,12,2023,00,00*70
###2023-12-09 12:41:47.973342$GNEBP,,,,,,M*13
###2023-12-09 12:41:48.142819$GNGGA,174147.30,4138.0646809,N,07032.3746884,W,1,24,0.6,13.445,M,-29.744,M,0.0,*54
###2023-12-09 12:41:48.343749$GNGGA,174147.50,4138.0646881,N,07032.3746945,W,1,24,0.6,13.463,M,-29.744,M,0.0,*5A
###2023-12-09 12:41:48.545082$GNGGA,174147.70,4138.0647078,N,07032.3747171,W,1,24,0.6,13.471,M,-29.744,M,0.0,*5A
###2023-12-09 12:41:48.743575$GNGGA,174147.90,4138.0647396,N,07032.3747559,W,1,24,0.6,13.458,M,-29.744,M,0.0,*52
###2023-12-09 12:41:48.944765$GNRMC,174148.10,A,4138.0647615,N,07032.3747866,W,0.29,314.33,091223,,,A*5A
###2023-12-09 12:41:48.947652$GNGGA,174148.10,4138.0647615,N,07032.3747866,W,1,24,0.6,13.447,M,-29.744,M,0.0,*54
###2023-12-09 12:41:48.949541$GPGSA,A,3,03,04,16,26,28,29,31,32,,,,,1.1,0.6,0.9*3B
###2023-12-09 12:41:48.951293$GLGSA,A,3,65,71,72,73,74,75,,,,,,,1.1,0.6,0.9*24
###2023-12-09 12:41:48.952885$GAGSA,A,3,04,19,21,27,,,,,,,,,1.1,0.6,0.9*26
###2023-12-09 12:41:48.954535$GBGSA,A,3,14,24,25,26,33,,,,,,,,1.1,0.6,0.9*2F
###2023-12-09 12:41:48.956892$GPGSV,2,1,08,03,38,272,44,04,25,311,44,16,40,208,46,26,69,207,49*75
###2023-12-09 12:41:48.959252$GPGSV,2,2,08,28,56,059,44,29,25,071,39,31,73,010,47,32,28,135,45*7D
###2023-12-09 12:41:48.961589$GLGSV,2,1,06,65,15,329,43,71,52,170,48,72,68,302,46,73,44,035,45*68
###2023-12-09 12:41:48.963359$GLGSV,2,2,06,74,71,303,43,75,25,244,45,,,,,,,,*67
###2023-12-09 12:41:48.965694$GAGSV,1,1,04,04,23,311,42,19,83,292,41,21,80,172,46,27,39,049,42*6A
###2023-12-09 12:41:48.968051$GBGSV,2,1,05,14,52,196,44,24,79,359,48,25,34,255,45,26,33,058,45*61
###2023-12-09 12:41:48.969513$GBGSV,2,2,05,33,62,248,48,,,,,,,,,,,,*58
###2023-12-09 12:41:48.970854$GNVTG,314.33,T,,M,0.29,N,0.54,K,A*2F
###2023-12-09 12:41:48.972514$GNGST,174148.10,18.000,,,,0.076,0.069,0.160*59
###2023-12-09 12:41:48.973805$GNZDA,174148.10,09,12,2023,00,00*7F
###2023-12-09 12:41:48.974446$GNEBP,,,,,,M*13
###2023-12-09 12:41:49.144771$GNGGA,174148.30,4138.0647699,N,07032.3747959,W,1,24,0.6,13.450,M,-29.744,M,0.0,*59
###2023-12-09 12:41:49.344544$GNGGA,174148.50,4138.0647802,N,07032.3748069,W,1,24,0.6,13.459,M,-29.744,M,0.0,*5F
###2023-12-09 12:41:49.543519$GNGGA,174148.70,4138.0648050,N,07032.3748385,W,1,24,0.6,13.469,M,-29.744,M,0.0,*5F
###2023-12-09 12:41:49.743522$GNGGA,174148.90,4138.0648372,N,07032.3748812,W,1,24,0.6,13.471,M,-29.744,M,0.0,*5E
###2023-12-09 12:41:49.943799$GNRMC,174149.10,A,4138.0648564,N,07032.3749065,W,0.16,314.33,091223,,,A*58
###2023-12-09 12:41:49.946683$GNGGA,174149.10,4138.0648564,N,07032.3749065,W,1,24,0.6,13.468,M,-29.744,M,0.0,*57
###2023-12-09 12:41:49.948559$GPGSA,A,3,03,04,16,26,28,29,31,32,,,,,1.1,0.6,0.9*3B
###2023-12-09 12:41:49.950277$GLGSA,A,3,65,71,72,73,74,75,,,,,,,1.1,0.6,0.9*24
###2023-12-09 12:41:49.951877$GAGSA,A,3,04,19,21,27,,,,,,,,,1.1,0.6,0.9*26
###2023-12-09 12:41:49.953528$GBGSA,A,3,14,24,25,26,33,,,,,,,,1.1,0.6,0.9*2F
###2023-12-09 12:41:49.955869$GPGSV,2,1,08,03,38,272,45,04,25,311,45,16,40,208,45,26,69,207,48*77
###2023-12-09 12:41:49.958200$GPGSV,2,2,08,28,56,059,43,29,25,071,39,31,73,010,47,32,28,135,42*7D
###2023-12-09 12:41:49.960556$GLGSV,2,1,06,65,15,329,43,71,52,170,48,72,68,302,47,73,44,035,44*68
###2023-12-09 12:41:49.962313$GLGSV,2,2,06,74,71,303,43,75,25,244,46,,,,,,,,*64
###2023-12-09 12:41:49.964653$GAGSV,1,1,04,04,23,311,42,19,83,292,41,21,80,172,46,27,39,049,42*6A
###2023-12-09 12:41:49.966995$GBGSV,2,1,05,14,52,196,45,24,79,359,48,25,34,255,44,26,33,058,44*60
###2023-12-09 12:41:49.968458$GBGSV,2,2,05,33,62,248,48,,,,,,,,,,,,*58
###2023-12-09 12:41:49.969777$GNVTG,314.33,T,,M,0.16,N,0.29,K,A*29
###2023-12-09 12:41:49.971466$GNGST,174149.10,18.000,,,,0.075,0.069,0.160*5B
###2023-12-09 12:41:49.972762$GNZDA,174149.10,09,12,2023,00,00*7E
###2023-12-09 12:41:49.973401$GNEBP,,,,,,M*13
###2023-12-09 12:41:50.142878$GNGGA,174149.30,4138.0648594,N,07032.3749068,W,1,24,0.6,13.461,M,-29.744,M,0.0,*5E
###2023-12-09 12:41:50.343114$GNGGA,174149.50,4138.0648669,N,07032.3749180,W,1,24,0.6,13.446,M,-29.744,M,0.0,*5B
###2023-12-09 12:41:50.545150$GNGGA,174149.70,4138.0648966,N,07032.3749589,W,1,24,0.6,13.450,M,-29.744,M,0.0,*53
###2023-12-09 12:41:50.741547$GNGGA,174149.90,4138.0649338,N,07032.3750101,W,1,24,0.6,13.451,M,-29.744,M,0.0,*50
###2023-12-09 12:41:50.946807$GNRMC,174150.10,A,4138.0649500,N,07032.3750309,W,0.06,314.64,091223,,,A*51
###2023-12-09 12:41:50.949702$GNGGA,174150.10,4138.0649500,N,07032.3750309,W,1,24,0.6,13.474,M,-29.744,M,0.0,*50
###2023-12-09 12:41:50.951608$GPGSA,A,3,03,04,16,26,28,29,31,32,,,,,1.1,0.6,0.9*3B
###2023-12-09 12:41:50.953333$GLGSA,A,3,65,71,72,73,74,75,,,,,,,1.1,0.6,0.9*24
###2023-12-09 12:41:50.954936$GAGSA,A,3,04,19,21,27,,,,,,,,,1.1,0.6,0.9*26
###2023-12-09 12:41:50.956586$GBGSA,A,3,14,24,25,26,33,,,,,,,,1.1,0.6,0.9*2F
###2023-12-09 12:41:50.958927$GPGSV,2,1,08,03,38,272,45,04,25,311,44,16,40,208,44,26,69,207,48*77
###2023-12-09 12:41:50.961265$GPGSV,2,2,08,28,56,059,43,29,25,071,40,31,73,010,47,32,28,135,40*71
###2023-12-09 12:41:50.963613$GLGSV,2,1,06,65,15,329,44,71,52,170,46,72,68,302,47,73,44,035,43*66
###2023-12-09 12:41:50.965364$GLGSV,2,2,06,74,71,303,43,75,25,244,46,,,,,,,,*64
###2023-12-09 12:41:50.967710$GAGSV,1,1,04,04,23,311,43,19,83,292,41,21,80,172,46,27,39,049,43*6A
###2023-12-09 12:41:50.970043$GBGSV,2,1,05,14,52,196,44,24,79,359,48,25,34,255,45,26,33,058,43*67
###2023-12-09 12:41:50.971514$GBGSV,2,2,05,33,62,248,48,,,,,,,,,,,,*58
###2023-12-09 12:41:50.972839$GNVTG,314.64,T,,M,0.06,N,0.11,K,A*21
###2023-12-09 12:41:50.974489$GNGST,174150.10,18.000,,,,0.076,0.069,0.160*50
###2023-12-09 12:41:50.975802$GNZDA,174150.10,09,12,2023,00,00*76
###2023-12-09 12:41:50.976444$GNEBP,,,,,,M*13
###2023-12-09 12:41:51.143727$GNGGA,174150.30,4138.0649463,N,07032.3750211,W,1,24,0.6,13.472,M,-29.744,M,0.0,*58
###2023-12-09 12:41:51.345001$GNGGA,174150.50,4138.0649511,N,07032.3750298,W,1,24,0.6,13.445,M,-29.744,M,0.0,*5F
###2023-12-09 12:41:51.543494$GNGGA,174150.70,4138.0649904,N,07032.3750855,W,1,24,0.6,13.445,M,-29.744,M,0.0,*5E
###2023-12-09 12:41:51.742551$GNGGA,174150.90,4138.0650276,N,07032.3751381,W,1,24,0.6,13.437,M,-29.744,M,0.0,*50
###2023-12-09 12:41:51.942939$GNRMC,174151.10,A,4138.0650322,N,07032.3751450,W,0.29,314.82,091223,,,A*51
###2023-12-09 12:41:51.945799$GNGGA,174151.10,4138.0650322,N,07032.3751450,W,1,24,0.6,13.468,M,-29.744,M,0.0,*58
###2023-12-09 12:41:51.947689$GPGSA,A,3,03,04,16,26,28,29,31,32,,,,,1.1,0.6,0.9*3B
###2023-12-09 12:41:51.949423$GLGSA,A,3,65,71,72,73,74,75,,,,,,,1.1,0.6,0.9*24
###2023-12-09 12:41:51.951031$GAGSA,A,3,04,19,21,27,,,,,,,,,1.1,0.6,0.9*26
###2023-12-09 12:41:51.952676$GBGSA,A,3,14,24,25,26,33,,,,,,,,1.1,0.6,0.9*2F
###2023-12-09 12:41:51.955050$GPGSV,2,1,08,03,38,272,45,04,25,311,44,16,40,208,43,26,70,207,48*78
###2023-12-09 12:41:51.957387$GPGSV,2,2,08,28,56,059,42,29,25,071,40,31,73,010,46,32,28,135,40*71
###2023-12-09 12:41:51.959731$GLGSV,2,1,06,65,15,329,44,71,52,170,46,72,68,302,47,73,44,035,44*61
###2023-12-09 12:41:51.961472$GLGSV,2,2,06,74,71,303,43,75,25,244,44,,,,,,,,*66
###2023-12-09 12:41:51.963801$GAGSV,1,1,04,04,23,311,42,19,83,292,40,21,80,172,45,27,39,049,42*68
###2023-12-09 12:41:51.966132$GBGSV,2,1,05,14,52,196,44,24,79,359,48,25,34,255,46,26,33,058,43*64
###2023-12-09 12:41:51.967611$GBGSV,2,2,05,33,62,248,48,,,,,,,,,,,,*58
###2023-12-09 12:41:51.968939$GNVTG,314.82,T,,M,0.29,N,0.54,K,A*25
###2023-12-09 12:41:51.970598$GNGST,174151.10,18.000,,,,0.076,0.069,0.160*51
###2023-12-09 12:41:51.971889$GNZDA,174151.10,09,12,2023,00,00*77
###2023-12-09 12:41:51.972528$GNEBP,,,,,,M*13
###2023-12-09 12:41:52.141540$GNGGA,174151.30,4138.0650261,N,07032.3751288,W,1,24,0.6,13.479,M,-29.744,M,0.0,*5F
###2023-12-09 12:41:52.343126$GNGGA,174151.50,4138.0650373,N,07032.3751452,W,1,24,0.6,13.455,M,-29.744,M,0.0,*54
###2023-12-09 12:41:52.543430$GNGGA,174151.70,4138.0650762,N,07032.3752043,W,1,24,0.6,13.448,M,-29.744,M,0.0,*59
###2023-12-09 12:41:52.742741$GNGGA,174151.90,4138.0651085,N,07032.3752558,W,1,24,0.6,13.434,M,-29.744,M,0.0,*5C
###2023-12-09 12:41:52.942932$GNRMC,174152.10,A,4138.0651093,N,07032.3752539,W,0.29,311.24,091223,,,A*5E
###2023-12-09 12:41:52.945792$GNGGA,174152.10,4138.0651093,N,07032.3752539,W,1,24,0.6,13.466,M,-29.744,M,0.0,*50
###2023-12-09 12:41:52.947668$GPGSA,A,3,03,04,16,26,28,29,31,32,,,,,1.1,0.6,0.9*3B
###2023-12-09 12:41:52.949391$GLGSA,A,3,65,71,72,73,74,75,,,,,,,1.1,0.6,0.9*24
###2023-12-09 12:41:52.950981$GAGSA,A,3,04,19,21,27,,,,,,,,,1.1,0.6,0.9*26
###2023-12-09 12:41:52.952623$GBGSA,A,3,14,24,25,26,33,,,,,,,,1.1,0.6,0.9*2F
###2023-12-09 12:41:52.954957$GPGSV,2,1,08,03,38,272,46,04,25,311,45,16,40,208,44,26,70,207,49*7C
###2023-12-09 12:41:52.957281$GPGSV,2,2,08,28,56,059,43,29,25,071,40,31,73,010,47,32,28,135,40*71
