###2023-12-09 12:23:41.919601$GPGSA,A,3,03,16,25,26,28,29,31,32,,,,,1.3,0.8,1.0*3C
###2023-12-09 12:23:41.921229$GLGSA,A,3,71,72,73,75,,,,,,,,,1.3,0.8,1.0*20
###2023-12-09 12:23:41.922794$GAGSA,A,3,04,21,27,,,,,,,,,,1.3,0.8,1.0*2A
###2023-12-09 12:23:41.924398$GBGSA,A,3,14,25,26,33,,,,,,,,,1.3,0.8,1.0*2D
###2023-12-09 12:23:41.926750$GPGSV,2,1,08,03,39,283,42,16,31,206,42,25,16,045,41,26,61,205,44*73
###2023-12-09 12:23:41.929093$GPGSV,2,2,08,28,62,049,39,29,24,079,43,31,73,343,36,32,35,131,47*7C
###2023-12-09 12:23:41.931452$GLGSV,1,1,04,71,63,167,46,72,61,317,36,73,53,030,47,75,18,236,42*6A
###2023-12-09 12:23:41.933514$GAGSV,1,1,03,04,17,310,35,21,73,180,47,27,45,051,46,,,,*52
###2023-12-09 12:23:41.935871$GBGSV,1,1,04,14,60,201,43,25,29,249,41,26,39,055,46,33,64,266,38*69
###2023-12-09 12:23:41.937023$GNVTG,,T,,M,0.04,N,0.07,K,A*3E
###2023-12-09 12:23:41.938729$GNGST,172341.10,31.000,,,,0.110,0.100,0.240*51
###2023-12-09 12:23:41.940035$GNZDA,172341.10,09,12,2023,00,00*72
###2023-12-09 12:23:41.940680$GNEBP,,,,,,M*13
###2023-12-09 12:23:42.112712$GNGGA,172341.30,4138.0388769,N,07032.4356326,W,1,18,0.8,20.123,M,-29.746,M,0.0,*5F
###2023-12-09 12:23:42.313999$GNGGA,172341.50,4138.0388879,N,07032.4356262,W,1,18,0.8,20.047,M,-29.746,M,0.0,*55
###2023-12-09 12:23:42.513775$GNGGA,172341.70,4138.0388988,N,07032.4356192,W,1,18,0.8,19.974,M,-29.746,M,0.0,*57
###2023-12-09 12:23:42.712816$GNGGA,172341.90,4138.0389097,N,07032.4356144,W,1,18,0.8,19.898,M,-29.746,M,0.0,*57
###2023-12-09 12:23:42.914050$GNRMC,172342.10,A,4138.0389157,N,07032.4356128,W,0.02,,091223,,,A*43
###2023-12-09 12:23:42.917125$GNGGA,172342.10,4138.0389157,N,07032.4356128,W,1,18,0.8,19.791,M,-29.746,M,0.0,*5D
###2023-12-09 12:23:42.919165$GPGSA,A,3,03,16,25,26,28,29,31,32,,,,,1.4,0.8,1.1*3A
###2023-12-09 12:23:42.920929$GLGSA,A,3,71,72,73,75,,,,,,,,,1.4,0.8,1.1*26
###2023-12-09 12:23:42.922557$GAGSA,A,3,21,27,,,,,,,,,,,1.4,0.8,1.1*28
###2023-12-09 12:23:42.924321$GBGSA,A,3,14,25,26,33,,,,,,,,,1.4,0.8,1.1*2B
###2023-12-09 12:23:42.926835$GPGSV,2,1,08,03,39,283,42,16,31,206,41,25,16,045,41,26,61,205,44*70
###2023-12-09 12:23:42.929350$GPGSV,2,2,08,28,62,049,40,29,24,079,43,31,73,343,36,32,35,131,47*72
###2023-12-09 12:23:42.931888$GLGSV,1,1,04,71,63,167,46,72,61,317,36,73,53,030,47,75,18,236,42*6A
###2023-12-09 12:23:42.933816$GAGSV,1,1,02,21,73,180,46,27,45,051,46,,,,,,,,*64
###2023-12-09 12:23:42.936357$GBGSV,1,1,04,14,60,201,44,25,29,249,41,26,39,055,45,33,64,266,38*6D
###2023-12-09 12:23:42.937681$GNVTG,,T,,M,0.02,N,0.04,K,A*3B
###2023-12-09 12:23:42.939516$GNGST,172342.10,32.000,,,,0.110,0.100,0.240*51
###2023-12-09 12:23:42.940977$GNZDA,172342.10,09,12,2023,00,00*71
###2023-12-09 12:23:42.941784$GNEBP,,,,,,M*13
###2023-12-09 12:23:43.112676$GNGGA,172342.30,4138.0389211,N,07032.4356112,W,1,18,0.8,19.688,M,-29.746,M,0.0,*5E
###2023-12-09 12:23:43.312735$GNGGA,172342.50,4138.0389268,N,07032.4356092,W,1,19,0.8,19.587,M,-29.746,M,0.0,*52
###2023-12-09 12:23:43.511500$GNGGA,172342.70,4138.0389327,N,07032.4356079,W,1,19,0.8,19.490,M,-29.746,M,0.0,*58
###2023-12-09 12:23:43.711174$GNGGA,172342.90,4138.0389382,N,07032.4356069,W,1,19,0.8,19.393,M,-29.746,M,0.0,*5C
###2023-12-09 12:23:43.914126$GNRMC,172343.10,A,4138.0389441,N,07032.4356058,W,0.02,,091223,,,A*46
###2023-12-09 12:23:43.917031$GNGGA,172343.10,4138.0389441,N,07032.4356058,W,1,19,0.8,19.294,M,-29.746,M,0.0,*59
###2023-12-09 12:23:43.918932$GPGSA,A,3,03,16,25,26,28,29,31,32,,,,,1.3,0.8,1.0*3C
###2023-12-09 12:23:43.920542$GLGSA,A,3,71,72,73,75,,,,,,,,,1.3,0.8,1.0*20
###2023-12-09 12:23:43.922076$GAGSA,A,3,04,21,27,,,,,,,,,,1.3,0.8,1.0*2A
###2023-12-09 12:23:43.923689$GBGSA,A,3,14,25,26,33,,,,,,,,,1.3,0.8,1.0*2D
###2023-12-09 12:23:43.926032$GPGSV,2,1,08,03,39,283,42,16,31,206,42,25,16,045,41,26,61,205,44*73
###2023-12-09 12:23:43.928386$GPGSV,2,2,08,28,62,049,40,29,24,079,43,31,73,343,36,32,35,131,47*72
###2023-12-09 12:23:43.930746$GLGSV,1,1,04,71,63,167,46,72,61,317,36,73,53,030,48,75,18,236,42*65
###2023-12-09 12:23:43.932791$GAGSV,1,1,03,04,17,310,35,21,73,180,46,27,45,051,45,,,,*50
###2023-12-09 12:23:43.935135$GBGSV,1,1,04,14,60,201,44,25,29,249,41,26,39,055,46,33,64,266,38*6E
###2023-12-09 12:23:43.936272$GNVTG,,T,,M,0.02,N,0.04,K,A*3B
###2023-12-09 12:23:43.937919$GNGST,172343.10,32.000,,,,0.110,0.100,0.240*50
###2023-12-09 12:23:43.939263$GNZDA,172343.10,09,12,2023,00,00*70
###2023-12-09 12:23:43.939912$GNEBP,,,,,,M*13
###2023-12-09 12:23:44.112737$GNGGA,172343.30,4138.0389505,N,07032.4356060,W,1,19,0.8,19.193,M,-29.746,M,0.0,*55
###2023-12-09 12:23:44.312985$GNGGA,172343.50,4138.0389571,N,07032.4356060,W,1,19,0.8,19.103,M,-29.746,M,0.0,*59
###2023-12-09 12:23:44.514737$GNGGA,172343.70,4138.0389625,N,07032.4356060,W,1,19,0.8,19.009,M,-29.746,M,0.0,*52
###2023-12-09 12:23:44.716849$GNGGA,172343.90,4138.0389678,N,07032.4356054,W,1,19,0.8,18.919,M,-29.746,M,0.0,*5A
###2023-12-09 12:23:44.918990$GNRMC,172344.10,A,4138.0389735,N,07032.4356062,W,0.06,,091223,,,A*4C
###2023-12-09 12:23:44.921867$GNGGA,172344.10,4138.0389735,N,07032.4356062,W,1,19,0.8,18.830,M,-29.746,M,0.0,*52
###2023-12-09 12:23:44.923773$GPGSA,A,3,03,16,25,26,28,29,31,32,,,,,1.3,0.8,1.0*3C
###2023-12-09 12:23:44.925381$GLGSA,A,3,71,72,73,75,,,,,,,,,1.3,0.8,1.0*20
###2023-12-09 12:23:44.926937$GAGSA,A,3,04,21,27,,,,,,,,,,1.3,0.8,1.0*2A
###2023-12-09 12:23:44.928547$GBGSA,A,3,14,25,26,33,,,,,,,,,1.3,0.8,1.0*2D
###2023-12-09 12:23:44.930899$GPGSV,2,1,08,03,39,283,43,16,31,206,42,25,16,045,42,26,61,205,45*70
###2023-12-09 12:23:44.933251$GPGSV,2,2,08,28,62,049,40,29,24,079,43,31,73,343,36,32,35,131,47*72
###2023-12-09 12:23:44.935620$GLGSV,1,1,04,71,63,167,46,72,61,317,36,73,53,030,48,75,18,236,42*65
###2023-12-09 12:23:44.937684$GAGSV,1,1,03,04,17,310,35,21,73,180,47,27,45,051,46,,,,*52
###2023-12-09 12:23:44.940055$GBGSV,1,1,04,14,60,201,43,25,29,249,40,26,39,055,45,33,64,265,38*68
###2023-12-09 12:23:44.941211$GNVTG,,T,,M,0.06,N,0.11,K,A*3B
###2023-12-09 12:23:44.942900$GNGST,172344.10,32.000,,,,0.110,0.100,0.240*57
###2023-12-09 12:23:44.944219$GNZDA,172344.10,09,12,2023,00,00*77
###2023-12-09 12:23:44.944876$GNEBP,,,,,,M*13
###2023-12-09 12:23:45.114942$GNGGA,172344.30,4138.0389791,N,07032.4356065,W,1,19,0.8,18.747,M,-29.746,M,0.0,*56
###2023-12-09 12:23:45.313149$GNGGA,172344.50,4138.0389847,N,07032.4356070,W,1,19,0.8,18.662,M,-29.746,M,0.0,*56
###2023-12-09 12:23:45.517171$GNGGA,172344.70,4138.0389906,N,07032.4356083,W,1,19,0.8,18.584,M,-29.746,M,0.0,*57
###2023-12-09 12:23:45.718645$GNGGA,172344.90,4138.0389955,N,07032.4356089,W,1,19,0.8,18.509,M,-29.746,M,0.0,*50
###2023-12-09 12:23:45.913555$GNRMC,172345.10,A,4138.0389998,N,07032.4356088,W,0.02,,091223,,,A*44
###2023-12-09 12:23:45.916632$GNGGA,172345.10,4138.0389998,N,07032.4356088,W,1,19,0.8,18.433,M,-29.746,M,0.0,*51
###2023-12-09 12:23:45.918688$GPGSA,A,3,03,16,25,26,28,29,31,32,,,,,1.3,0.8,1.0*3C
###2023-12-09 12:23:45.920454$GLGSA,A,3,71,72,73,75,,,,,,,,,1.3,0.8,1.0*20
###2023-12-09 12:23:45.922137$GAGSA,A,3,04,21,27,,,,,,,,,,1.3,0.8,1.0*2A
###2023-12-09 12:23:45.923887$GBGSA,A,3,14,25,26,33,,,,,,,,,1.3,0.8,1.0*2D
###2023-12-09 12:23:45.926384$GPGSV,2,1,08,03,39,283,43,16,31,206,42,25,16,045,42,26,61,205,45*70
###2023-12-09 12:23:45.928911$GPGSV,2,2,08,28,62,049,40,29,24,079,43,31,73,343,36,32,35,131,47*72
###2023-12-09 12:23:45.931436$GLGSV,1,1,04,71,63,167,46,72,61,317,36,73,53,030,47,75,18,236,42*6A
###2023-12-09 12:23:45.933669$GAGSV,1,1,03,04,17,310,35,21,73,180,47,27,45,051,46,,,,*52
###2023-12-09 12:23:45.936181$GBGSV,1,1,04,14,60,201,43,25,29,249,40,26,39,055,46,33,64,265,38*6B
###2023-12-09 12:23:45.937485$GNVTG,,T,,M,0.02,N,0.04,K,A*3B
###2023-12-09 12:23:45.939303$GNGST,172345.10,32.000,,,,0.110,0.100,0.240*56
###2023-12-09 12:23:45.940776$GNZDA,172345.10,09,12,2023,00,00*76
###2023-12-09 12:23:45.941581$GNEBP,,,,,,M*13
###2023-12-09 12:23:46.113379$GNGGA,172345.30,4138.0390057,N,07032.4356102,W,1,19,0.8,18.365,M,-29.746,M,0.0,*56
###2023-12-09 12:23:46.313951$GNGGA,172345.50,4138.0390114,N,07032.4356131,W,1,19,0.8,18.292,M,-29.746,M,0.0,*5F
###2023-12-09 12:23:46.512784$GNGGA,172345.70,4138.0390168,N,07032.4356153,W,1,19,0.8,18.217,M,-29.746,M,0.0,*5F
###2023-12-09 12:23:46.712090$GNGGA,172345.90,4138.0390219,N,07032.4356179,W,1,19,0.8,18.155,M,-29.746,M,0.0,*59
###2023-12-09 12:23:46.917298$GNRMC,172346.10,A,4138.0390267,N,07032.4356196,W,0.02,,091223,,,A*4A
###2023-12-09 12:23:46.920200$GNGGA,172346.10,4138.0390267,N,07032.4356196,W,1,19,0.8,18.082,M,-29.746,M,0.0,*51
###2023-12-09 12:23:46.922085$GPGSA,A,3,03,16,25,26,28,29,31,32,,,,,1.3,0.8,1.0*3C
###2023-12-09 12:23:46.923720$GLGSA,A,3,71,72,73,75,,,,,,,,,1.3,0.8,1.0*20
###2023-12-09 12:23:46.925268$GAGSA,A,3,04,21,27,,,,,,,,,,1.3,0.8,1.0*2A
###2023-12-09 12:23:46.926893$GBGSA,A,3,14,25,26,33,,,,,,,,,1.3,0.8,1.0*2D
###2023-12-09 12:23:46.929249$GPGSV,2,1,08,03,39,283,43,16,31,206,43,25,16,045,42,26,61,205,44*70
