###2023-12-09 12:38:23.339168$GNGGA,173822.50,4138.0576324,N,07032.3797445,W,1,23,0.7,13.488,M,-29.744,M,0.0,*51
###2023-12-09 12:38:23.542049$GNGGA,173822.70,4138.0575697,N,07032.3795294,W,1,23,0.7,13.478,M,-29.744,M,0.0,*5A
###2023-12-09 12:38:23.738896$GNGGA,173822.90,4138.0575206,N,07032.3793092,W,1,23,0.7,13.481,M,-29.744,M,0.0,*5C
###2023-12-09 12:38:23.939665$GNRMC,173823.10,A,4138.0574692,N,07032.3790832,W,3.21,108.32,091223,,,A*5B
###2023-12-09 12:38:23.942516$GNGGA,173823.10,4138.0574692,N,07032.3790832,W,1,23,0.7,13.491,M,-29.744,M,0.0,*5D
###2023-12-09 12:38:23.944381$GPGSA,A,3,03,04,16,26,28,29,31,32,,,,,1.2,0.7,1.0*31
###2023-12-09 12:38:23.946059$GLGSA,A,3,71,72,73,74,75,,,,,,,,1.2,0.7,1.0*2D
###2023-12-09 12:38:23.947667$GAGSA,A,3,04,19,21,27,,,,,,,,,1.2,0.7,1.0*2C
###2023-12-09 12:38:23.949322$GBGSA,A,3,14,24,25,26,33,,,,,,,,1.2,0.7,1.0*25
###2023-12-09 12:38:23.951661$GPGSV,2,1,08,03,38,275,44,04,23,311,41,16,38,208,45,26,68,207,48*7D
###2023-12-09 12:38:23.953991$GPGSV,2,2,08,28,57,058,44,29,25,072,39,31,73,007,47,32,28,135,40*7D
###2023-12-09 12:38:23.956333$GLGSV,2,1,05,71,55,169,46,72,67,307,46,73,46,034,47,74,71,296,42*67
###2023-12-09 12:38:23.957780$GLGSV,2,2,05,75,23,242,43,,,,,,,,,,,,*50
###2023-12-09 12:38:23.960111$GAGSV,1,1,04,04,22,311,41,19,82,299,41,21,78,175,46,27,41,049,44*6B
###2023-12-09 12:38:23.962433$GBGSV,2,1,05,14,54,197,45,24,80,351,49,25,33,253,44,26,34,058,46*6C
###2023-12-09 12:38:23.963900$GBGSV,2,2,05,33,63,252,48,,,,,,,,,,,,*52
###2023-12-09 12:38:23.965218$GNVTG,108.32,T,,M,3.21,N,5.94,K,A*23
###2023-12-09 12:38:23.966868$GNGST,173823.10,19.000,,,,0.080,0.069,0.160*52
###2023-12-09 12:38:23.968149$GNZDA,173823.10,09,12,2023,00,00*7C
###2023-12-09 12:38:23.968783$GNEBP,,,,,,M*13
###2023-12-09 12:38:24.139104$GNGGA,173823.30,4138.0574222,N,07032.3788547,W,1,23,0.7,13.490,M,-29.744,M,0.0,*57
###2023-12-09 12:38:24.339039$GNGGA,173823.50,4138.0573861,N,07032.3786207,W,1,23,0.7,13.502,M,-29.744,M,0.0,*5C
###2023-12-09 12:38:24.540817$GNGGA,173823.70,4138.0573639,N,07032.3783832,W,1,23,0.7,13.507,M,-29.744,M,0.0,*51
###2023-12-09 12:38:24.738616$GNGGA,173823.90,4138.0573519,N,07032.3781430,W,1,23,0.7,13.508,M,-29.744,M,0.0,*5D
###2023-12-09 12:38:24.940869$GNRMC,173824.10,A,4138.0573353,N,07032.3778978,W,3.38,96.12,091223,,,A*66
###2023-12-09 12:38:24.943711$GNGGA,173824.10,4138.0573353,N,07032.3778978,W,1,23,0.7,13.513,M,-29.744,M,0.0,*57
###2023-12-09 12:38:24.945565$GPGSA,A,3,03,04,16,26,28,29,31,32,,,,,1.2,0.7,1.0*31
###2023-12-09 12:38:24.947243$GLGSA,A,3,71,72,73,74,75,,,,,,,,1.2,0.7,1.0*2D
###2023-12-09 12:38:24.948843$GAGSA,A,3,04,19,21,27,,,,,,,,,1.2,0.7,1.0*2C
###2023-12-09 12:38:24.950484$GBGSA,A,3,14,24,25,26,33,,,,,,,,1.2,0.7,1.0*25
###2023-12-09 12:38:24.952823$GPGSV,2,1,08,03,38,275,44,04,23,311,40,16,38,208,46,26,68,207,48*7F
###2023-12-09 12:38:24.955173$GPGSV,2,2,08,28,57,058,44,29,25,072,40,31,73,007,47,32,28,135,42*71
###2023-12-09 12:38:24.957507$GLGSV,2,1,05,71,55,169,47,72,67,307,46,73,46,034,46,74,71,296,43*66
###2023-12-09 12:38:24.958979$GLGSV,2,2,05,75,23,242,43,,,,,,,,,,,,*50
###2023-12-09 12:38:24.961312$GAGSV,1,1,04,04,22,311,41,19,82,299,41,21,78,175,46,27,41,049,44*6B
###2023-12-09 12:38:24.963652$GBGSV,2,1,05,14,54,197,45,24,80,351,48,25,33,253,44,26,34,058,45*6E
###2023-12-09 12:38:24.965103$GBGSV,2,2,05,33,63,252,48,,,,,,,,,,,,*52
###2023-12-09 12:38:24.966392$GNVTG,96.12,T,,M,3.38,N,6.26,K,A*15
###2023-12-09 12:38:24.968055$GNGST,173824.10,18.000,,,,0.080,0.069,0.160*54
###2023-12-09 12:38:24.969346$GNZDA,173824.10,09,12,2023,00,00*7B
###2023-12-09 12:38:24.969985$GNEBP,,,,,,M*13
###2023-12-09 12:38:25.138750$GNGGA,173824.30,4138.0573119,N,07032.3776511,W,1,23,0.7,13.519,M,-29.744,M,0.0,*5E
###2023-12-09 12:38:25.339034$GNGGA,173824.50,4138.0572889,N,07032.3774136,W,1,23,0.7,13.524,M,-29.744,M,0.0,*54
###2023-12-09 12:38:25.546774$GNGGA,173824.70,4138.0572722,N,07032.3771678,W,1,23,0.7,13.539,M,-29.744,M,0.0,*5C
###2023-12-09 12:38:25.742778$GNGGA,173824.90,4138.0572433,N,07032.3769236,W,1,23,0.7,13.527,M,-29.744,M,0.0,*59
###2023-12-09 12:38:25.941206$GNRMC,173825.10,A,4138.0572013,N,07032.3766932,W,3.21,105.93,091223,,,A*5A
###2023-12-09 12:38:25.944101$GNGGA,173825.10,4138.0572013,N,07032.3766932,W,1,23,0.7,13.528,M,-29.744,M,0.0,*59
###2023-12-09 12:38:25.945982$GPGSA,A,3,03,04,16,26,28,29,31,32,,,,,1.2,0.7,1.0*31
###2023-12-09 12:38:25.947667$GLGSA,A,3,71,72,73,74,75,,,,,,,,1.2,0.7,1.0*2D
###2023-12-09 12:38:25.949265$GAGSA,A,3,04,19,21,27,,,,,,,,,1.2,0.7,1.0*2C
###2023-12-09 12:38:25.950927$GBGSA,A,3,14,24,25,26,33,,,,,,,,1.2,0.7,1.0*25
###2023-12-09 12:38:25.953257$GPGSV,2,1,08,03,38,275,45,04,23,311,42,16,38,208,46,26,68,207,48*7C
###2023-12-09 12:38:25.955606$GPGSV,2,2,08,28,57,058,45,29,25,072,42,31,73,007,47,32,28,135,43*73
###2023-12-09 12:38:25.957946$GLGSV,2,1,05,71,55,169,47,72,67,307,46,73,46,034,45,74,71,296,43*65
###2023-12-09 12:38:25.959421$GLGSV,2,2,05,75,23,242,43,,,,,,,,,,,,*50
###2023-12-09 12:38:25.961743$GAGSV,1,1,04,04,22,311,42,19,82,299,41,21,78,175,46,27,41,049,44*68
###2023-12-09 12:38:25.964092$GBGSV,2,1,05,14,54,197,46,24,80,351,48,25,33,253,44,26,34,058,45*6D
###2023-12-09 12:38:25.965553$GBGSV,2,2,05,33,63,252,48,,,,,,,,,,,,*52
###2023-12-09 12:38:25.966894$GNVTG,105.93,T,,M,3.21,N,5.94,K,A*25
###2023-12-09 12:38:25.968545$GNGST,173825.10,19.000,,,,0.080,0.069,0.160*54
###2023-12-09 12:38:25.969840$GNZDA,173825.10,09,12,2023,00,00*7A
###2023-12-09 12:38:25.970480$GNEBP,,,,,,M*13
###2023-12-09 12:38:26.139759$GNGGA,173825.30,4138.0571533,N,07032.3764576,W,1,23,0.7,13.548,M,-29.744,M,0.0,*57
###2023-12-09 12:38:26.339069$GNGGA,173825.50,4138.0571016,N,07032.3762259,W,1,23,0.7,13.541,M,-29.744,M,0.0,*56
###2023-12-09 12:38:26.546422$GNGGA,173825.70,4138.0570421,N,07032.3760062,W,1,23,0.7,13.542,M,-29.744,M,0.0,*5E
###2023-12-09 12:38:26.743563$GNGGA,173825.90,4138.0569672,N,07032.3757895,W,1,23,0.7,13.551,M,-29.744,M,0.0,*5A
###2023-12-09 12:38:26.942047$GNRMC,173826.10,A,4138.0568905,N,07032.3755868,W,3.15,117.62,091223,,,A*58
###2023-12-09 12:38:26.944924$GNGGA,173826.10,4138.0568905,N,07032.3755868,W,1,23,0.7,13.551,M,-29.744,M,0.0,*5F
###2023-12-09 12:38:26.946799$GPGSA,A,3,03,04,16,26,28,29,31,32,,,,,1.2,0.7,1.0*31
###2023-12-09 12:38:26.948479$GLGSA,A,3,71,72,73,74,75,,,,,,,,1.2,0.7,1.0*2D
###2023-12-09 12:38:26.950072$GAGSA,A,3,04,19,21,27,,,,,,,,,1.2,0.7,1.0*2C
###2023-12-09 12:38:26.951736$GBGSA,A,3,14,24,25,26,33,,,,,,,,1.2,0.7,1.0*25
###2023-12-09 12:38:26.954092$GPGSV,2,1,08,03,38,275,44,04,23,311,41,16,38,208,44,26,68,207,47*73
###2023-12-09 12:38:26.956430$GPGSV,2,2,08,28,57,058,44,29,25,072,43,31,73,007,47,32,28,135,43*73
###2023-12-09 12:38:26.958769$GLGSV,2,1,05,71,55,169,46,72,67,307,46,73,46,034,48,74,71,296,43*69
###2023-12-09 12:38:26.960217$GLGSV,2,2,05,75,23,242,43,,,,,,,,,,,,*50
###2023-12-09 12:38:26.962518$GAGSV,1,1,04,04,22,311,41,19,82,299,41,21,78,175,46,27,41,049,43*6C
###2023-12-09 12:38:26.964878$GBGSV,2,1,05,14,54,197,45,24,80,351,48,25,33,253,44,26,34,058,45*6E
###2023-12-09 12:38:26.966333$GBGSV,2,2,05,33,63,252,48,,,,,,,,,,,,*52
###2023-12-09 12:38:26.967672$GNVTG,117.62,T,,M,3.15,N,5.83,K,A*29
###2023-12-09 12:38:26.969321$GNGST,173826.10,19.000,,,,0.080,0.069,0.160*57
###2023-12-09 12:38:26.970628$GNZDA,173826.10,09,12,2023,00,00*79
###2023-12-09 12:38:26.971269$GNEBP,,,,,,M*13
###2023-12-09 12:38:27.139134$GNGGA,173826.30,4138.0567994,N,07032.3753869,W,1,23,0.7,13.561,M,-29.744,M,0.0,*5E
###2023-12-09 12:38:27.339131$GNGGA,173826.50,4138.0567073,N,07032.3751913,W,1,23,0.7,13.552,M,-29.744,M,0.0,*56
###2023-12-09 12:38:27.539379$GNGGA,173826.70,4138.0566144,N,07032.3749922,W,1,23,0.7,13.566,M,-29.744,M,0.0,*5C
###2023-12-09 12:38:27.738482$GNGGA,173826.90,4138.0565167,N,07032.3747940,W,1,23,0.7,13.565,M,-29.744,M,0.0,*59
###2023-12-09 12:38:27.940808$GNRMC,173827.10,A,4138.0564197,N,07032.3745966,W,3.27,123.30,091223,,,A*59
###2023-12-09 12:38:27.943667$GNGGA,173827.10,4138.0564197,N,07032.3745966,W,1,23,0.7,13.572,M,-29.744,M,0.0,*5E
###2023-12-09 12:38:27.945520$GPGSA,A,3,03,04,16,26,28,29,31,32,,,,,1.2,0.7,1.0*31
###2023-12-09 12:38:27.947492$GLGSA,A,3,71,72,73,74,75,,,,,,,,1.2,0.7,1.0*2D
###2023-12-09 12:38:27.949120$GAGSA,A,3,04,19,21,27,,,,,,,,,1.2,0.7,1.0*2C
###2023-12-09 12:38:27.950786$GBGSA,A,3,14,24,25,26,33,,,,,,,,1.2,0.7,1.0*25
###2023-12-09 12:38:27.953110$GPGSV,2,1,08,03,38,275,45,04,23,311,41,16,38,208,44,26,68,207,47*72
###2023-12-09 12:38:27.955466$GPGSV,2,2,08,28,57,058,44,29,25,072,43,31,73,007,47,32,28,135,42*72
###2023-12-09 12:38:27.957806$GLGSV,2,1,05,71,55,169,46,72,67,307,46,73,46,034,48,74,71,296,43*69
###2023-12-09 12:38:27.959275$GLGSV,2,2,05,75,23,242,43,,,,,,,,,,,,*50
###2023-12-09 12:38:27.961584$GAGSV,1,1,04,04,22,311,41,19,82,299,41,21,78,175,46,27,41,049,43*6C
###2023-12-09 12:38:27.963916$GBGSV,2,1,05,14,54,197,44,24,80,351,48,25,33,253,44,26,34,058,45*6F
###2023-12-09 12:38:27.965363$GBGSV,2,2,05,33,63,252,48,,,,,,,,,,,,*52
