###2023-12-09 12:57:54.975162$GPGSV,2,1,08,03,36,264,46,04,31,311,42,16,48,211,47,26,78,209,48*73
###2023-12-09 12:57:54.977530$GPGSV,2,2,08,28,50,069,44,29,25,063,41,31,69,033,46,32,20,139,42*7C
###2023-12-09 12:57:54.979893$GLGSV,2,1,06,65,22,328,40,71,43,172,47,72,73,277,47,73,37,040,46*6E
###2023-12-09 12:57:54.981644$GLGSV,2,2,06,74,70,331,43,75,30,251,46,,,,,,,,*64
###2023-12-09 12:57:54.983984$GAGSV,1,1,04,04,28,312,39,19,85,234,40,21,85,141,46,27,34,048,43*6D
###2023-12-09 12:57:54.986313$GBGSV,2,1,05,14,45,193,45,24,75,020,48,25,39,260,47,26,27,062,41*63
###2023-12-09 12:57:54.987789$GBGSV,2,2,05,33,59,235,48,,,,,,,,,,,,*5A
###2023-12-09 12:57:54.989071$GNVTG,96.10,T,,M,3.38,N,6.26,K,A*17
###2023-12-09 12:57:54.990738$GNGST,175754.10,18.000,,,,0.078,0.067,0.160*53
###2023-12-09 12:57:54.992033$GNZDA,175754.10,09,12,2023,00,00*75
###2023-12-09 12:57:54.992672$GNEBP,,,,,,M*13
###2023-12-09 12:57:55.159085$GNGGA,175754.30,4138.0339816,N,07032.3471978,W,1,24,0.6,13.326,M,-29.745,M,0.0,*54
###2023-12-09 12:57:55.360940$GNGGA,175754.50,4138.0339884,N,07032.3469412,W,1,24,0.6,13.363,M,-29.745,M,0.0,*50
###2023-12-09 12:57:55.559827$GNGGA,175754.70,4138.0339592,N,07032.3466769,W,1,24,0.6,13.329,M,-29.745,M,0.0,*56
###2023-12-09 12:57:55.760151$GNGGA,175754.90,4138.0339292,N,07032.3464341,W,1,24,0.6,13.326,M,-29.745,M,0.0,*5C
###2023-12-09 12:57:55.962525$GNRMC,175755.10,A,4138.0339387,N,07032.3461747,W,3.54,86.96,091223,,,A*66
###2023-12-09 12:57:55.965403$GNGGA,175755.10,4138.0339387,N,07032.3461747,W,1,24,0.6,13.347,M,-29.745,M,0.0,*50
###2023-12-09 12:57:55.967267$GPGSA,A,3,03,04,16,26,28,29,31,32,,,,,1.1,0.6,0.9*3B
###2023-12-09 12:57:55.968975$GLGSA,A,3,65,71,72,73,74,75,,,,,,,1.1,0.6,0.9*24
###2023-12-09 12:57:55.970559$GAGSA,A,3,04,19,21,27,,,,,,,,,1.1,0.6,0.9*26
###2023-12-09 12:57:55.972214$GBGSA,A,3,14,24,25,26,33,,,,,,,,1.1,0.6,0.9*2F
###2023-12-09 12:57:55.974529$GPGSV,2,1,08,03,36,264,45,04,31,311,42,16,48,211,47,26,78,209,48*70
###2023-12-09 12:57:55.976865$GPGSV,2,2,08,28,50,069,44,29,25,063,41,31,69,033,46,32,20,139,41*7F
###2023-12-09 12:57:55.979198$GLGSV,2,1,06,65,22,328,40,71,43,172,47,72,73,277,47,73,37,040,46*6E
###2023-12-09 12:57:55.980941$GLGSV,2,2,06,74,70,331,43,75,30,251,46,,,,,,,,*64
###2023-12-09 12:57:55.983279$GAGSV,1,1,04,04,28,312,41,19,85,234,40,21,85,141,46,27,34,048,43*62
###2023-12-09 12:57:55.985609$GBGSV,2,1,05,14,45,193,46,24,75,020,49,25,39,260,47,26,27,062,43*63
###2023-12-09 12:57:55.987071$GBGSV,2,2,05,33,59,235,49,,,,,,,,,,,,*5B
###2023-12-09 12:57:55.988361$GNVTG,86.96,T,,M,3.54,N,6.55,K,A*16
###2023-12-09 12:57:55.990008$GNGST,175755.10,18.000,,,,0.078,0.067,0.160*52
###2023-12-09 12:57:55.991309$GNZDA,175755.10,09,12,2023,00,00*74
###2023-12-09 12:57:55.991949$GNEBP,,,,,,M*13
###2023-12-09 12:57:56.158935$GNGGA,175755.30,4138.0339400,N,07032.3459138,W,1,24,0.6,13.330,M,-29.745,M,0.0,*5F
###2023-12-09 12:57:56.359652$GNGGA,175755.50,4138.0339142,N,07032.3456516,W,1,24,0.6,13.338,M,-29.744,M,0.0,*54
###2023-12-09 12:57:56.559535$GNGGA,175755.70,4138.0338841,N,07032.3453827,W,1,24,0.6,13.339,M,-29.744,M,0.0,*56
###2023-12-09 12:57:56.759522$GNGGA,175755.90,4138.0338782,N,07032.3451211,W,1,24,0.6,13.333,M,-29.744,M,0.0,*5F
###2023-12-09 12:57:56.970913$GNRMC,175756.10,A,4138.0339003,N,07032.3448605,W,3.69,85.25,091223,,,A*63
###2023-12-09 12:57:56.973791$GNGGA,175756.10,4138.0339003,N,07032.3448605,W,1,24,0.6,13.351,M,-29.744,M,0.0,*56
###2023-12-09 12:57:56.975661$GPGSA,A,3,03,04,16,26,28,29,31,32,,,,,1.1,0.6,0.9*3B
###2023-12-09 12:57:56.977368$GLGSA,A,3,65,71,72,73,74,75,,,,,,,1.1,0.6,0.9*24
###2023-12-09 12:57:56.978966$GAGSA,A,3,04,19,21,27,,,,,,,,,1.1,0.6,0.9*26
###2023-12-09 12:57:56.980622$GBGSA,A,3,14,24,25,26,33,,,,,,,,1.1,0.6,0.9*2F
###2023-12-09 12:57:56.982954$GPGSV,2,1,08,03,36,264,46,04,31,311,42,16,48,211,47,26,78,209,48*73
###2023-12-09 12:57:56.985280$GPGSV,2,2,08,28,50,069,44,29,25,063,40,31,69,033,47,32,20,139,40*7E
###2023-12-09 12:57:56.987605$GLGSV,2,1,06,65,22,328,43,71,43,172,46,72,73,277,47,73,37,040,45*6F
###2023-12-09 12:57:56.989350$GLGSV,2,2,06,74,70,331,43,75,30,251,46,,,,,,,,*64
###2023-12-09 12:57:56.991670$GAGSV,1,1,04,04,28,312,40,19,85,234,40,21,85,141,46,27,34,048,43*63
###2023-12-09 12:57:56.993987$GBGSV,2,1,05,14,45,193,46,24,75,020,49,25,39,260,46,26,27,062,42*63
###2023-12-09 12:57:56.995443$GBGSV,2,2,05,33,59,235,48,,,,,,,,,,,,*5A
###2023-12-09 12:57:56.996723$GNVTG,85.25,T,,M,3.69,N,6.84,K,A*1F
###2023-12-09 12:57:56.998354$GNGST,175756.10,18.000,,,,0.078,0.067,0.160*51
###2023-12-09 12:57:56.999646$GNZDA,175756.10,09,12,2023,00,00*77
###2023-12-09 12:57:57.000285$GNEBP,,,,,,M*13
###2023-12-09 12:57:57.164991$GNGGA,175756.30,4138.0338860,N,07032.3445847,W,1,24,0.6,13.336,M,-29.744,M,0.0,*5C
###2023-12-09 12:57:57.359781$GNGGA,175756.50,4138.0338626,N,07032.3443282,W,1,24,0.6,13.330,M,-29.744,M,0.0,*55
###2023-12-09 12:57:57.561008$GNGGA,175756.70,4138.0338729,N,07032.3440628,W,1,24,0.6,13.360,M,-29.744,M,0.0,*5B
###2023-12-09 12:57:57.763773$GNGGA,175756.90,4138.0338683,N,07032.3437932,W,1,24,0.6,13.333,M,-29.744,M,0.0,*56
###2023-12-09 12:57:57.962705$GNRMC,175757.10,A,4138.0338519,N,07032.3435345,W,3.50,93.48,091223,,,A*60
###2023-12-09 12:57:57.965540$GNGGA,175757.10,4138.0338519,N,07032.3435345,W,1,24,0.6,13.332,M,-29.744,M,0.0,*56
###2023-12-09 12:57:57.967410$GPGSA,A,3,03,04,16,26,28,29,31,32,,,,,1.1,0.6,0.9*3B
###2023-12-09 12:57:57.969121$GLGSA,A,3,65,71,72,73,74,75,,,,,,,1.1,0.6,0.9*24
###2023-12-09 12:57:57.970709$GAGSA,A,3,04,19,21,27,,,,,,,,,1.1,0.6,0.9*26
###2023-12-09 12:57:57.972347$GBGSA,A,3,14,24,25,26,33,,,,,,,,1.1,0.6,0.9*2F
###2023-12-09 12:57:57.974670$GPGSV,2,1,08,03,36,264,46,04,31,311,41,16,48,211,47,26,78,209,48*70
###2023-12-09 12:57:57.976988$GPGSV,2,2,08,28,50,069,44,29,25,063,40,31,69,033,46,32,20,139,43*7C
###2023-12-09 12:57:57.979324$GLGSV,2,1,06,65,22,328,42,71,43,172,46,72,73,277,47,73,37,040,45*6E
###2023-12-09 12:57:57.981059$GLGSV,2,2,06,74,70,331,43,75,30,251,45,,,,,,,,*67
###2023-12-09 12:57:57.983391$GAGSV,1,1,04,04,28,312,41,19,85,234,41,21,85,141,46,27,34,048,43*63
###2023-12-09 12:57:57.985719$GBGSV,2,1,05,14,45,193,46,24,75,020,49,25,39,260,48,26,27,062,42*6D
###2023-12-09 12:57:57.987184$GBGSV,2,2,05,33,59,235,48,,,,,,,,,,,,*5A
###2023-12-09 12:57:57.988468$GNVTG,93.48,T,,M,3.50,N,6.48,K,A*19
###2023-12-09 12:57:57.990112$GNGST,175757.10,18.000,,,,0.078,0.067,0.160*50
###2023-12-09 12:57:57.991413$GNZDA,175757.10,09,12,2023,00,00*76
###2023-12-09 12:57:57.992052$GNEBP,,,,,,M*13
###2023-12-09 12:57:58.160878$GNGGA,175757.30,4138.0338418,N,07032.3432681,W,1,24,0.6,13.353,M,-29.744,M,0.0,*59
###2023-12-09 12:57:58.362234$GNGGA,175757.50,4138.0338212,N,07032.3430049,W,1,24,0.6,13.334,M,-29.744,M,0.0,*52
###2023-12-09 12:57:58.561613$GNGGA,175757.70,4138.0338166,N,07032.3427487,W,1,24,0.6,13.340,M,-29.744,M,0.0,*53
###2023-12-09 12:57:58.762135$GNGGA,175757.90,4138.0338052,N,07032.3424825,W,1,24,0.6,13.341,M,-29.744,M,0.0,*5D
###2023-12-09 12:57:58.962331$GNRMC,175758.10,A,4138.0337799,N,07032.3422249,W,3.40,96.40,091223,,,A*6D
###2023-12-09 12:57:58.965234$GNGGA,175758.10,4138.0337799,N,07032.3422249,W,1,24,0.6,13.332,M,-29.744,M,0.0,*57
###2023-12-09 12:57:58.967106$GPGSA,A,3,03,04,16,26,28,29,31,32,,,,,1.1,0.6,0.9*3B
###2023-12-09 12:57:58.968828$GLGSA,A,3,65,71,72,73,74,75,,,,,,,1.1,0.6,0.9*24
###2023-12-09 12:57:58.970418$GAGSA,A,3,04,19,21,27,,,,,,,,,1.1,0.6,0.9*26
###2023-12-09 12:57:58.972078$GBGSA,A,3,14,24,25,26,33,,,,,,,,1.1,0.6,0.9*2F
###2023-12-09 12:57:58.974399$GPGSV,2,1,08,03,36,264,45,04,31,311,41,16,48,211,47,26,78,209,48*73
###2023-12-09 12:57:58.976736$GPGSV,2,2,08,28,50,069,44,29,25,063,40,31,69,033,46,32,20,139,42*7D
###2023-12-09 12:57:58.979075$GLGSV,2,1,06,65,22,328,41,71,43,172,46,72,73,277,47,73,37,040,45*6D
###2023-12-09 12:57:58.980821$GLGSV,2,2,06,74,70,331,43,75,30,251,46,,,,,,,,*64
###2023-12-09 12:57:58.983153$GAGSV,1,1,04,04,28,312,41,19,85,234,41,21,85,141,46,27,34,048,43*63
###2023-12-09 12:57:58.985474$GBGSV,2,1,05,14,45,193,46,24,75,020,48,25,39,260,47,26,27,062,43*62
###2023-12-09 12:57:58.986938$GBGSV,2,2,05,33,59,235,48,,,,,,,,,,,,*5A
###2023-12-09 12:57:58.988481$GNVTG,96.40,T,,M,3.40,N,6.30,K,A*1A
###2023-12-09 12:57:58.990135$GNGST,175758.10,18.000,,,,0.078,0.066,0.160*5E
###2023-12-09 12:57:58.991447$GNZDA,175758.10,09,12,2023,00,00*79
###2023-12-09 12:57:58.992090$GNEBP,,,,,,M*13
###2023-12-09 12:57:59.159136$GNGGA,175758.30,4138.0337689,N,07032.3419677,W,1,24,0.6,13.346,M,-29.744,M,0.0,*57
###2023-12-09 12:57:59.360948$GNGGA,175758.50,4138.0337593,N,07032.3417012,W,1,24,0.6,13.344,M,-29.744,M,0.0,*50
###2023-12-09 12:57:59.560983$GNGGA,175758.70,4138.0337401,N,07032.3414432,W,1,24,0.6,13.331,M,-29.744,M,0.0,*5F
###2023-12-09 12:57:59.762545$GNGGA,175758.90,4138.0337388,N,07032.3411841,W,1,24,0.6,13.346,M,-29.744,M,0.0,*5A
###2023-12-09 12:57:59.966704$GNRMC,175759.10,A,4138.0337246,N,07032.3409139,W,3.63,96.60,091223,,,A*65
