###2023-12-09 13:30:17.999170$GLGSA,A,3,65,72,73,74,75,,,,,,,,1.6,0.9,1.3*21
###2023-12-09 13:30:18.001103$GAGSA,A,3,04,19,21,27,,,,,,,,,1.6,0.9,1.3*25
###2023-12-09 13:30:18.003113$GBGSA,A,3,24,25,26,33,35,,,,,,,,1.6,0.9,1.3*2F
###2023-12-09 13:30:18.005912$GPGSV,2,1,06,04,44,309,45,16,64,220,46,26,86,041,49,28,39,083,41*78
###2023-12-09 13:30:18.008037$GPGSV,2,2,06,29,21,049,41,31,61,063,45,,,,,,,,*7E
###2023-12-09 13:30:18.010841$GLGSV,2,1,05,65,37,320,43,72,65,224,46,73,24,051,41,74,61,011,42*63
###2023-12-09 13:30:18.012583$GLGSV,2,2,05,75,42,268,48,,,,,,,,,,,,*54
###2023-12-09 13:30:18.015394$GAGSV,1,1,04,04,38,310,43,19,74,182,42,21,78,048,45,27,24,050,39*6D
###2023-12-09 13:30:18.018172$GBGSV,2,1,05,24,64,043,48,25,49,274,47,26,17,069,43,33,48,219,49*6B
###2023-12-09 13:30:18.019932$GBGSV,2,2,05,35,16,058,42,,,,,,,,,,,,*54
###2023-12-09 13:30:18.021478$GNVTG,84.87,T,,M,2.55,N,4.72,K,A*13
###2023-12-09 13:30:18.023415$GNGST,183017.10,5.200,,,,0.160,0.096,0.250*62
###2023-12-09 13:30:18.024990$GNZDA,183017.10,09,12,2023,00,00*7C
###2023-12-09 13:30:18.025758$GNEBP,,,,,,M*13
###2023-12-09 13:30:18.191795$GNGGA,183017.30,4138.0352458,N,07032.4193362,W,1,20,0.9,13.202,M,-29.746,M,0.0,*56
###2023-12-09 13:30:18.388405$GNGGA,183017.50,4138.0352690,N,07032.4191469,W,1,20,0.9,13.203,M,-29.746,M,0.0,*59
###2023-12-09 13:30:18.590407$GNGGA,183017.70,4138.0352833,N,07032.4189732,W,1,20,0.9,13.203,M,-29.746,M,0.0,*58
###2023-12-09 13:30:18.791881$GNGGA,183017.90,4138.0352972,N,07032.4188019,W,1,22,0.8,13.206,M,-29.746,M,0.0,*5B
###2023-12-09 13:30:18.993778$GNRMC,183018.10,A,4138.0353169,N,07032.4186255,W,2.41,84.70,091223,,,A*6D
###2023-12-09 13:30:18.997256$GNGGA,183018.10,4138.0353169,N,07032.4186255,W,1,22,0.8,13.229,M,-29.746,M,0.0,*56
###2023-12-09 13:30:18.999427$GPGSA,A,3,03,04,16,26,28,29,31,,,,,,1.3,0.8,1.0*3E
###2023-12-09 13:30:19.001443$GLGSA,A,3,65,72,73,74,75,,,,,,,,1.3,0.8,1.0*26
###2023-12-09 13:30:19.003371$GAGSA,A,3,04,19,21,27,,,,,,,,,1.3,0.8,1.0*22
###2023-12-09 13:30:19.005363$GBGSA,A,3,24,25,26,33,35,,,,,,,,1.3,0.8,1.0*28
###2023-12-09 13:30:19.008164$GPGSV,2,1,07,03,28,248,36,04,44,309,45,16,64,220,47,26,86,041,49*74
###2023-12-09 13:30:19.010633$GPGSV,2,2,07,28,39,083,41,29,21,049,40,31,61,063,45,,,,*40
###2023-12-09 13:30:19.013441$GLGSV,2,1,05,65,37,320,42,72,65,224,46,73,24,051,41,74,61,011,42*62
###2023-12-09 13:30:19.015202$GLGSV,2,2,05,75,42,268,47,,,,,,,,,,,,*5B
###2023-12-09 13:30:19.017987$GAGSV,1,1,04,04,38,310,43,19,74,182,42,21,78,048,46,27,24,050,39*6E
###2023-12-09 13:30:19.020787$GBGSV,2,1,05,24,64,043,47,25,49,274,44,26,17,069,42,33,48,219,48*67
###2023-12-09 13:30:19.022530$GBGSV,2,2,05,35,16,058,43,,,,,,,,,,,,*55
###2023-12-09 13:30:19.024091$GNVTG,84.70,T,,M,2.41,N,4.46,K,A*19
###2023-12-09 13:30:19.026024$GNGST,183018.10,7.300,,,,0.170,0.096,0.250*6F
###2023-12-09 13:30:19.027582$GNZDA,183018.10,09,12,2023,00,00*73
###2023-12-09 13:30:19.028349$GNEBP,,,,,,M*13
###2023-12-09 13:30:19.191101$GNGGA,183018.30,4138.0353407,N,07032.4184606,W,1,22,0.8,13.245,M,-29.746,M,0.0,*53
###2023-12-09 13:30:19.391236$GNGGA,183018.50,4138.0353592,N,07032.4183026,W,1,20,0.9,13.253,M,-29.746,M,0.0,*5F
###2023-12-09 13:30:19.587671$GNGGA,183018.70,4138.0353752,N,07032.4181324,W,1,22,0.7,13.273,M,-29.746,M,0.0,*5E
###2023-12-09 13:30:19.787805$GNGGA,183018.90,4138.0353864,N,07032.4179687,W,1,22,0.7,13.281,M,-29.746,M,0.0,*5C
###2023-12-09 13:30:19.992006$GNRMC,183019.10,A,4138.0354056,N,07032.4178133,W,2.18,87.08,091223,,,A*64
###2023-12-09 13:30:19.994903$GNGGA,183019.10,4138.0354056,N,07032.4178133,W,1,21,0.8,13.290,M,-29.745,M,0.0,*5D
###2023-12-09 13:30:19.996619$GPGSA,A,3,04,16,26,28,29,31,,,,,,,1.3,0.8,1.0*3D
###2023-12-09 13:30:19.998261$GLGSA,A,3,65,72,73,74,75,,,,,,,,1.3,0.8,1.0*26
###2023-12-09 13:30:19.999846$GAGSA,A,3,04,19,21,27,,,,,,,,,1.3,0.8,1.0*22
###2023-12-09 13:30:20.001487$GBGSA,A,3,24,25,26,33,35,,,,,,,,1.3,0.8,1.0*28
###2023-12-09 13:30:20.003811$GPGSV,2,1,06,04,44,309,47,16,64,220,49,26,86,041,50,28,39,083,44*78
###2023-12-09 13:30:20.005550$GPGSV,2,2,06,29,21,049,43,31,61,063,47,,,,,,,,*7E
###2023-12-09 13:30:20.007872$GLGSV,2,1,05,65,37,320,44,72,65,224,45,73,24,051,41,74,61,011,43*66
###2023-12-09 13:30:20.009321$GLGSV,2,2,05,75,42,268,47,,,,,,,,,,,,*5B
###2023-12-09 13:30:20.011669$GAGSV,1,1,04,04,38,310,45,19,74,182,43,21,78,048,46,27,24,050,41*66
###2023-12-09 13:30:20.013989$GBGSV,2,1,05,24,64,043,47,25,49,274,46,26,17,069,42,33,48,219,49*64
###2023-12-09 13:30:20.015442$GBGSV,2,2,05,35,16,058,44,,,,,,,,,,,,*52
###2023-12-09 13:30:20.016724$GNVTG,87.08,T,,M,2.18,N,4.03,K,A*18
###2023-12-09 13:30:20.018324$GNGST,183019.10,5.900,,,,0.170,0.096,0.250*66
###2023-12-09 13:30:20.019613$GNZDA,183019.10,09,12,2023,00,00*72
###2023-12-09 13:30:20.020249$GNEBP,,,,,,M*13
###2023-12-09 13:30:20.189853$GNGGA,183019.30,4138.0354210,N,07032.4176541,W,1,22,0.7,13.287,M,-29.745,M,0.0,*5A
###2023-12-09 13:30:20.388763$GNGGA,183019.50,4138.0354356,N,07032.4175089,W,1,20,0.9,13.290,M,-29.745,M,0.0,*57
###2023-12-09 13:30:20.589618$GNGGA,183019.70,4138.0354455,N,07032.4173651,W,1,22,0.8,13.295,M,-29.745,M,0.0,*52
###2023-12-09 13:30:20.788923$GNGGA,183019.90,4138.0354505,N,07032.4172223,W,1,21,0.9,13.294,M,-29.745,M,0.0,*5B
###2023-12-09 13:30:20.995616$GNRMC,183020.10,A,4138.0354572,N,07032.4170938,W,1.75,90.79,091223,,,A*6E
###2023-12-09 13:30:20.998478$GNGGA,183020.10,4138.0354572,N,07032.4170938,W,1,21,0.9,13.287,M,-29.745,M,0.0,*58
###2023-12-09 13:30:21.000278$GPGSA,A,3,03,04,16,26,28,29,31,,,,,,1.4,0.9,1.1*39
###2023-12-09 13:30:21.001924$GLGSA,A,3,65,72,73,74,75,,,,,,,,1.4,0.9,1.1*21
###2023-12-09 13:30:21.003512$GAGSA,A,3,04,19,21,27,,,,,,,,,1.4,0.9,1.1*25
###2023-12-09 13:30:21.005145$GBGSA,A,3,24,25,26,33,35,,,,,,,,1.4,0.9,1.1*2F
###2023-12-09 13:30:21.007469$GPGSV,2,1,07,03,28,248,37,04,44,309,47,16,64,220,48,26,86,041,49*78
###2023-12-09 13:30:21.009497$GPGSV,2,2,07,28,39,083,44,29,21,049,44,31,61,063,47,,,,*43
###2023-12-09 13:30:21.011828$GLGSV,2,1,05,65,37,320,44,72,65,224,47,73,24,051,42,74,61,011,42*66
###2023-12-09 13:30:21.013274$GLGSV,2,2,05,75,42,268,47,,,,,,,,,,,,*5B
###2023-12-09 13:30:21.015596$GAGSV,1,1,04,04,38,310,44,19,74,182,42,21,78,048,46,27,24,050,42*65
###2023-12-09 13:30:21.017956$GBGSV,2,1,05,24,64,043,47,25,49,274,45,26,17,069,42,33,48,219,48*66
###2023-12-09 13:30:21.019415$GBGSV,2,2,05,35,16,058,43,,,,,,,,,,,,*55
###2023-12-09 13:30:21.020693$GNVTG,90.79,T,,M,1.75,N,3.24,K,A*12
###2023-12-09 13:30:21.022293$GNGST,183020.10,6.000,,,,0.170,0.096,0.250*66
###2023-12-09 13:30:21.023586$GNZDA,183020.10,09,12,2023,00,00*78
###2023-12-09 13:30:21.024221$GNEBP,,,,,,M*13
###2023-12-09 13:30:21.193157$GNGGA,183020.30,4138.0354671,N,07032.4169703,W,1,20,0.9,13.293,M,-29.745,M,0.0,*50
###2023-12-09 13:30:21.389133$GNGGA,183020.50,4138.0354755,N,07032.4168379,W,1,21,0.8,13.303,M,-29.745,M,0.0,*51
###2023-12-09 13:30:21.589710$GNGGA,183020.70,4138.0354763,N,07032.4167263,W,1,21,0.8,13.287,M,-29.745,M,0.0,*5E
###2023-12-09 13:30:21.791576$GNGGA,183020.90,4138.0354850,N,07032.4166201,W,1,22,0.7,13.296,M,-29.745,M,0.0,*56
###2023-12-09 13:30:21.994217$GNRMC,183021.10,A,4138.0354920,N,07032.4164943,W,1.67,90.95,091223,,,A*6C
###2023-12-09 13:30:21.997112$GNGGA,183021.10,4138.0354920,N,07032.4164943,W,1,21,0.8,13.314,M,-29.745,M,0.0,*51
###2023-12-09 13:30:21.998854$GPGSA,A,3,04,16,26,28,29,31,,,,,,,1.4,0.8,1.1*3B
###2023-12-09 13:30:22.000511$GLGSA,A,3,65,72,73,74,75,,,,,,,,1.4,0.8,1.1*20
###2023-12-09 13:30:22.002093$GAGSA,A,3,04,19,21,27,,,,,,,,,1.4,0.8,1.1*24
###2023-12-09 13:30:22.003817$GBGSA,A,3,14,24,25,26,33,35,,,,,,,1.4,0.8,1.1*2B
###2023-12-09 13:30:22.006137$GPGSV,2,1,06,04,44,309,45,16,64,220,48,26,86,041,49,28,39,083,41*76
###2023-12-09 13:30:22.007896$GPGSV,2,2,06,29,21,049,43,31,61,063,47,,,,,,,,*7E
###2023-12-09 13:30:22.010216$GLGSV,2,1,05,65,37,320,44,72,65,224,48,73,24,051,42,74,61,011,42*69
###2023-12-09 13:30:22.011678$GLGSV,2,2,05,75,42,268,47,,,,,,,,,,,,*5B
###2023-12-09 13:30:22.013998$GAGSV,1,1,04,04,38,310,43,19,74,182,42,21,78,048,47,27,24,050,40*61
###2023-12-09 13:30:22.016331$GBGSV,2,1,06,14,30,190,35,24,64,043,47,25,49,274,47,26,17,069,43*64
###2023-12-09 13:30:22.018321$GBGSV,2,2,06,33,48,219,47,35,16,058,43,,,,,,,,*63
###2023-12-09 13:30:22.019626$GNVTG,90.95,T,,M,1.67,N,3.10,K,A*14
###2023-12-09 13:30:22.021275$GNGST,183021.10,19.000,,,,0.160,0.097,0.250*59
###2023-12-09 13:30:22.022575$GNZDA,183021.10,09,12,2023,00,00*79
###2023-12-09 13:30:22.023216$GNEBP,,,,,,M*13
###2023-12-09 13:30:22.191237$GNGGA,183021.30,4138.0355011,N,07032.4163862,W,1,22,0.7,13.313,M,-29.745,M,0.0,*57
###2023-12-09 13:30:22.390069$GNGGA,183021.50,4138.0355077,N,07032.4162889,W,1,22,0.7,13.322,M,-29.745,M,0.0,*57
