###2023-12-09 13:27:26.023532$GNZDA,182725.10,09,12,2023,00,00*7B
###2023-12-09 13:27:26.024191$GNEBP,,,,,,M*13
###2023-12-09 13:27:26.188915$GNGGA,182725.30,4138.0539689,N,07032.4073441,W,1,24,0.6,13.053,M,-29.745,M,0.0,*53
###2023-12-09 13:27:26.387769$GNGGA,182725.50,4138.0538245,N,07032.4075544,W,1,24,0.6,13.057,M,-29.745,M,0.0,*56
###2023-12-09 13:27:26.589381$GNGGA,182725.70,4138.0536772,N,07032.4077585,W,1,24,0.6,13.054,M,-29.745,M,0.0,*57
###2023-12-09 13:27:26.788669$GNGGA,182725.90,4138.0535220,N,07032.4079461,W,1,24,0.6,13.040,M,-29.745,M,0.0,*58
###2023-12-09 13:27:26.993576$GNRMC,182726.10,A,4138.0533690,N,07032.4081400,W,3.81,223.09,091223,,,A*5B
###2023-12-09 13:27:26.996444$GNGGA,182726.10,4138.0533690,N,07032.4081400,W,1,24,0.6,13.045,M,-29.745,M,0.0,*5F
###2023-12-09 13:27:26.998239$GPGSA,A,3,03,04,16,26,28,29,31,,,,,,1.1,0.6,0.9*3A
###2023-12-09 13:27:26.999967$GLGSA,A,3,65,71,72,73,74,75,,,,,,,1.1,0.6,0.9*24
###2023-12-09 13:27:27.001547$GAGSA,A,3,04,19,21,27,,,,,,,,,1.1,0.6,0.9*26
###2023-12-09 13:27:27.003268$GBGSA,A,3,14,24,25,26,33,35,,,,,,,1.1,0.6,0.9*29
###2023-12-09 13:27:27.005599$GPGSV,2,1,07,03,28,249,40,04,43,309,45,16,63,220,45,26,87,041,48*76
###2023-12-09 13:27:27.007658$GPGSV,2,2,07,28,41,081,44,29,22,050,44,31,62,060,47,,,,*45
###2023-12-09 13:27:27.009992$GLGSV,2,1,06,65,35,321,44,71,26,175,45,72,66,227,45,73,25,050,44*60
###2023-12-09 13:27:27.011752$GLGSV,2,2,06,74,62,008,43,75,41,267,45,,,,,,,,*6E
###2023-12-09 13:27:27.014075$GAGSV,1,1,04,04,37,311,42,19,75,184,40,21,80,050,46,27,25,049,42*6F
###2023-12-09 13:27:27.016411$GBGSV,2,1,06,14,32,190,42,24,65,042,48,25,49,273,45,26,18,069,43*63
###2023-12-09 13:27:27.018158$GBGSV,2,2,06,33,48,220,44,35,16,059,43,,,,,,,,*6B
###2023-12-09 13:27:27.019488$GNVTG,223.09,T,,M,3.81,N,7.06,K,A*22
###2023-12-09 13:27:27.021132$GNGST,182726.10,18.000,,,,0.100,0.071,0.160*57
###2023-12-09 13:27:27.022418$GNZDA,182726.10,09,12,2023,00,00*78
###2023-12-09 13:27:27.023067$GNEBP,,,,,,M*13
###2023-12-09 13:27:27.192841$GNGGA,182726.30,4138.0532229,N,07032.4083402,W,1,24,0.6,13.048,M,-29.745,M,0.0,*57
###2023-12-09 13:27:27.388707$GNGGA,182726.50,4138.0530833,N,07032.4085401,W,1,24,0.6,13.049,M,-29.745,M,0.0,*56
###2023-12-09 13:27:27.592704$GNGGA,182726.70,4138.0529516,N,07032.4087444,W,1,24,0.6,13.041,M,-29.745,M,0.0,*5D
###2023-12-09 13:27:27.789884$GNGGA,182726.90,4138.0528326,N,07032.4089533,W,1,24,0.6,13.026,M,-29.745,M,0.0,*59
###2023-12-09 13:27:27.993364$GNRMC,182727.10,A,4138.0527260,N,07032.4091642,W,3.42,238.76,091223,,,A*5C
###2023-12-09 13:27:27.996234$GNGGA,182727.10,4138.0527260,N,07032.4091642,W,1,24,0.6,13.009,M,-29.745,M,0.0,*5D
###2023-12-09 13:27:27.998028$GPGSA,A,3,03,04,16,26,28,29,31,,,,,,1.1,0.6,0.9*3A
###2023-12-09 13:27:27.999747$GLGSA,A,3,65,71,72,73,74,75,,,,,,,1.1,0.6,0.9*24
###2023-12-09 13:27:28.001326$GAGSA,A,3,04,19,21,27,,,,,,,,,1.1,0.6,0.9*26
###2023-12-09 13:27:28.003048$GBGSA,A,3,14,24,25,26,33,35,,,,,,,1.1,0.6,0.9*29
###2023-12-09 13:27:28.005378$GPGSV,2,1,07,03,28,249,40,04,43,309,43,16,63,220,45,26,87,041,48*70
###2023-12-09 13:27:28.007430$GPGSV,2,2,07,28,41,081,45,29,22,050,43,31,62,060,47,,,,*43
###2023-12-09 13:27:28.009758$GLGSV,2,1,06,65,35,321,42,71,26,175,44,72,66,227,45,73,25,050,43*60
###2023-12-09 13:27:28.011511$GLGSV,2,2,06,74,62,008,43,75,41,267,44,,,,,,,,*6F
###2023-12-09 13:27:28.013827$GAGSV,1,1,04,04,37,311,42,19,75,184,40,21,80,050,46,27,25,049,40*6D
###2023-12-09 13:27:28.016166$GBGSV,2,1,06,14,32,190,43,24,65,042,49,25,49,273,45,26,18,069,44*64
###2023-12-09 13:27:28.017905$GBGSV,2,2,06,33,48,220,45,35,16,059,44,,,,,,,,*6D
###2023-12-09 13:27:28.019238$GNVTG,238.76,T,,M,3.42,N,6.34,K,A*2F
###2023-12-09 13:27:28.020885$GNGST,182727.10,18.000,,,,0.100,0.071,0.160*56
###2023-12-09 13:27:28.022174$GNZDA,182727.10,09,12,2023,00,00*79
###2023-12-09 13:27:28.022822$GNEBP,,,,,,M*13
###2023-12-09 13:27:28.189737$GNGGA,182727.30,4138.0526323,N,07032.4093787,W,1,24,0.6,13.010,M,-29.745,M,0.0,*5A
###2023-12-09 13:27:28.388607$GNGGA,182727.50,4138.0525471,N,07032.4095942,W,1,24,0.6,13.017,M,-29.745,M,0.0,*59
###2023-12-09 13:27:28.588279$GNGGA,182727.70,4138.0524641,N,07032.4098152,W,1,24,0.6,13.021,M,-29.745,M,0.0,*5A
###2023-12-09 13:27:28.789513$GNGGA,182727.90,4138.0523718,N,07032.4100328,W,1,24,0.6,13.022,M,-29.745,M,0.0,*52
###2023-12-09 13:27:28.993695$GNRMC,182728.10,A,4138.0522759,N,07032.4102596,W,3.56,241.27,091223,,,A*57
###2023-12-09 13:27:28.996577$GNGGA,182728.10,4138.0522759,N,07032.4102596,W,1,24,0.6,13.020,M,-29.745,M,0.0,*52
###2023-12-09 13:27:28.998368$GPGSA,A,3,03,04,16,26,28,29,31,,,,,,1.1,0.6,0.9*3A
###2023-12-09 13:27:29.000088$GLGSA,A,3,65,71,72,73,74,75,,,,,,,1.1,0.6,0.9*24
###2023-12-09 13:27:29.001668$GAGSA,A,3,04,19,21,27,,,,,,,,,1.1,0.6,0.9*26
###2023-12-09 13:27:29.003391$GBGSA,A,3,14,24,25,26,33,35,,,,,,,1.1,0.6,0.9*29
###2023-12-09 13:27:29.005713$GPGSV,2,1,07,03,28,249,40,04,43,309,45,16,63,220,45,26,87,041,48*76
###2023-12-09 13:27:29.007771$GPGSV,2,2,07,28,40,082,43,29,22,050,44,31,62,060,47,,,,*40
###2023-12-09 13:27:29.010106$GLGSV,2,1,06,65,35,321,42,71,26,175,45,72,66,227,45,73,25,050,43*61
###2023-12-09 13:27:29.011865$GLGSV,2,2,06,74,62,008,43,75,41,267,45,,,,,,,,*6E
###2023-12-09 13:27:29.014177$GAGSV,1,1,04,04,37,311,42,19,75,184,41,21,80,050,46,27,25,049,41*6D
###2023-12-09 13:27:29.016511$GBGSV,2,1,06,14,32,190,44,24,65,042,48,25,49,273,45,26,18,069,44*62
###2023-12-09 13:27:29.018250$GBGSV,2,2,06,33,48,220,47,35,16,059,44,,,,,,,,*6F
###2023-12-09 13:27:29.019583$GNVTG,241.27,T,,M,3.56,N,6.59,K,A*2B
###2023-12-09 13:27:29.021225$GNGST,182728.10,18.000,,,,0.100,0.071,0.160*59
###2023-12-09 13:27:29.022515$GNZDA,182728.10,09,12,2023,00,00*76
###2023-12-09 13:27:29.023164$GNEBP,,,,,,M*13
###2023-12-09 13:27:29.189466$GNGGA,182728.30,4138.0521800,N,07032.4104909,W,1,24,0.6,13.028,M,-29.745,M,0.0,*54
###2023-12-09 13:27:29.387661$GNGGA,182728.50,4138.0520723,N,07032.4107197,W,1,24,0.6,13.031,M,-29.745,M,0.0,*59
###2023-12-09 13:27:29.589308$GNGGA,182728.70,4138.0519501,N,07032.4109322,W,1,24,0.6,13.026,M,-29.745,M,0.0,*57
###2023-12-09 13:27:29.790162$GNGGA,182728.90,4138.0518172,N,07032.4111331,W,1,24,0.6,13.022,M,-29.745,M,0.0,*57
###2023-12-09 13:27:29.999651$GNRMC,182729.10,A,4138.0516824,N,07032.4113308,W,3.58,227.90,091223,,,A*57
###2023-12-09 13:27:30.002527$GNGGA,182729.10,4138.0516824,N,07032.4113308,W,1,24,0.6,13.018,M,-29.745,M,0.0,*5B
###2023-12-09 13:27:30.004329$GPGSA,A,3,03,04,16,26,28,29,31,,,,,,1.1,0.6,0.9*3A
###2023-12-09 13:27:30.006040$GLGSA,A,3,65,71,72,73,74,75,,,,,,,1.1,0.6,0.9*24
###2023-12-09 13:27:30.007637$GAGSA,A,3,04,19,21,27,,,,,,,,,1.1,0.6,0.9*26
###2023-12-09 13:27:30.009351$GBGSA,A,3,14,24,25,26,33,35,,,,,,,1.1,0.6,0.9*29
###2023-12-09 13:27:30.011682$GPGSV,2,1,07,03,28,249,40,04,43,309,45,16,63,220,45,26,87,041,49*77
###2023-12-09 13:27:30.013713$GPGSV,2,2,07,28,40,082,44,29,22,049,43,31,62,060,47,,,,*48
###2023-12-09 13:27:30.016043$GLGSV,2,1,06,65,35,321,43,71,26,175,44,72,66,227,45,73,25,050,44*66
###2023-12-09 13:27:30.017792$GLGSV,2,2,06,74,62,008,43,75,41,267,45,,,,,,,,*6E
###2023-12-09 13:27:30.020111$GAGSV,1,1,04,04,37,311,42,19,75,184,40,21,80,050,46,27,25,049,41*6C
###2023-12-09 13:27:30.022427$GBGSV,2,1,06,14,32,190,41,24,65,042,49,25,49,273,46,26,18,069,45*64
###2023-12-09 13:27:30.024183$GBGSV,2,2,06,33,48,220,45,35,16,059,45,,,,,,,,*6C
###2023-12-09 13:27:30.025505$GNVTG,227.90,T,,M,3.58,N,6.62,K,A*21
###2023-12-09 13:27:30.027158$GNGST,182729.10,18.000,,,,0.100,0.071,0.160*58
###2023-12-09 13:27:30.028450$GNZDA,182729.10,09,12,2023,00,00*77
###2023-12-09 13:27:30.029086$GNEBP,,,,,,M*13
###2023-12-09 13:27:30.189665$GNGGA,182729.30,4138.0515456,N,07032.4115271,W,1,24,0.6,13.018,M,-29.745,M,0.0,*5A
###2023-12-09 13:27:30.387783$GNGGA,182729.50,4138.0514003,N,07032.4117119,W,1,24,0.6,13.018,M,-29.745,M,0.0,*56
###2023-12-09 13:27:30.589211$GNGGA,182729.70,4138.0512526,N,07032.4118982,W,1,24,0.6,13.017,M,-29.745,M,0.0,*5A
###2023-12-09 13:27:30.789679$GNGGA,182729.90,4138.0511074,N,07032.4120905,W,1,24,0.6,13.021,M,-29.745,M,0.0,*54
###2023-12-09 13:27:30.996154$GNRMC,182730.10,A,4138.0509639,N,07032.4122944,W,3.71,226.69,091223,,,A*5F
###2023-12-09 13:27:30.999297$GNGGA,182730.10,4138.0509639,N,07032.4122944,W,1,24,0.6,13.011,M,-29.745,M,0.0,*56
###2023-12-09 13:27:31.001104$GPGSA,A,3,03,04,16,26,28,29,31,,,,,,1.1,0.6,0.9*3A
###2023-12-09 13:27:31.002838$GLGSA,A,3,65,71,72,73,74,75,,,,,,,1.1,0.6,0.9*24
###2023-12-09 13:27:31.004431$GAGSA,A,3,04,19,21,27,,,,,,,,,1.1,0.6,0.9*26
###2023-12-09 13:27:31.006150$GBGSA,A,3,14,24,25,26,33,35,,,,,,,1.1,0.6,0.9*29
###2023-12-09 13:27:31.008493$GPGSV,2,1,07,03,28,249,40,04,43,309,45,16,63,220,45,26,87,041,47*79
###2023-12-09 13:27:31.010540$GPGSV,2,2,07,28,40,082,44,29,22,049,42,31,62,060,47,,,,*49
###2023-12-09 13:27:31.012878$GLGSV,2,1,06,65,35,321,43,71,26,175,43,72,66,227,45,73,25,050,42*67
###2023-12-09 13:27:31.014642$GLGSV,2,2,06,74,62,008,43,75,41,267,45,,,,,,,,*6E
