###2023-12-09 13:06:09.992798$GBGSV,2,1,05,14,42,192,46,24,72,028,49,25,42,263,45,26,25,063,43*64
###2023-12-09 13:06:09.994279$GBGSV,2,2,05,33,56,230,48,,,,,,,,,,,,*50
###2023-12-09 13:06:09.995626$GNVTG,291.30,T,,M,3.29,N,6.08,K,A*2C
###2023-12-09 13:06:09.997276$GNGST,180609.10,18.000,,,,0.081,0.069,0.160*58
###2023-12-09 13:06:09.998587$GNZDA,180609.10,09,12,2023,00,00*76
###2023-12-09 13:06:09.999235$GNEBP,,,,,,M*13
###2023-12-09 13:06:10.166060$GNGGA,180609.30,4138.0712350,N,07032.2912026,W,1,24,0.6,13.378,M,-29.742,M,0.0,*54
###2023-12-09 13:06:10.367255$GNGGA,180609.50,4138.0712875,N,07032.2914406,W,1,24,0.6,13.374,M,-29.742,M,0.0,*52
###2023-12-09 13:06:10.567343$GNGGA,180609.70,4138.0713556,N,07032.2916792,W,1,24,0.6,13.378,M,-29.742,M,0.0,*5D
###2023-12-09 13:06:10.767856$GNGGA,180609.90,4138.0714188,N,07032.2919215,W,1,24,0.6,13.375,M,-29.742,M,0.0,*5B
###2023-12-09 13:06:10.969262$GNRMC,180610.10,A,4138.0714647,N,07032.2921733,W,3.52,281.17,091223,,,A*5F
###2023-12-09 13:06:10.972149$GNGGA,180610.10,4138.0714647,N,07032.2921733,W,1,24,0.6,13.381,M,-29.742,M,0.0,*5E
###2023-12-09 13:06:10.974014$GPGSA,A,3,03,04,16,26,28,29,31,32,,,,,1.1,0.6,0.9*3B
###2023-12-09 13:06:10.975739$GLGSA,A,3,65,71,72,73,74,75,,,,,,,1.1,0.6,0.9*24
###2023-12-09 13:06:10.977326$GAGSA,A,3,04,19,21,27,,,,,,,,,1.1,0.6,0.9*26
###2023-12-09 13:06:10.978995$GBGSA,A,3,14,24,25,26,33,,,,,,,,1.1,0.6,0.9*2F
###2023-12-09 13:06:10.981322$GPGSV,2,1,08,03,34,259,40,04,34,311,41,16,52,213,45,26,82,210,48*79
###2023-12-09 13:06:10.983663$GPGSV,2,2,08,28,48,072,46,29,25,059,41,31,68,042,47,32,17,141,43*78
###2023-12-09 13:06:10.986006$GLGSV,2,1,06,65,26,327,40,71,39,173,46,72,73,261,46,73,34,043,44*6C
###2023-12-09 13:06:10.987767$GLGSV,2,2,06,74,69,343,42,75,33,255,42,,,,,,,,*6B
###2023-12-09 13:06:10.990101$GAGSV,1,1,04,04,31,312,39,19,83,203,40,21,85,094,46,27,31,048,41*69
###2023-12-09 13:06:10.992444$GBGSV,2,1,05,14,42,192,45,24,72,028,49,25,42,263,44,26,25,063,42*67
###2023-12-09 13:06:10.993909$GBGSV,2,2,05,33,56,230,48,,,,,,,,,,,,*50
###2023-12-09 13:06:10.995248$GNVTG,281.17,T,,M,3.52,N,6.52,K,A*2B
###2023-12-09 13:06:10.996907$GNGST,180610.10,18.000,,,,0.081,0.069,0.160*50
###2023-12-09 13:06:10.998203$GNZDA,180610.10,09,12,2023,00,00*7E
###2023-12-09 13:06:10.998855$GNEBP,,,,,,M*13
###2023-12-09 13:06:11.166352$GNGGA,180610.30,4138.0715012,N,07032.2924288,W,1,24,0.6,13.374,M,-29.742,M,0.0,*51
###2023-12-09 13:06:11.367091$GNGGA,180610.50,4138.0715397,N,07032.2926836,W,1,24,0.6,13.374,M,-29.742,M,0.0,*54
###2023-12-09 13:06:11.567767$GNGGA,180610.70,4138.0715769,N,07032.2929389,W,1,24,0.6,13.369,M,-29.742,M,0.0,*5F
###2023-12-09 13:06:11.767832$GNGGA,180610.90,4138.0715965,N,07032.2931885,W,1,24,0.6,13.358,M,-29.742,M,0.0,*5F
###2023-12-09 13:06:11.968918$GNRMC,180611.10,A,4138.0715960,N,07032.2934365,W,3.30,269.37,091223,,,A*56
###2023-12-09 13:06:11.971793$GNGGA,180611.10,4138.0715960,N,07032.2934365,W,1,24,0.6,13.342,M,-29.742,M,0.0,*58
###2023-12-09 13:06:11.973662$GPGSA,A,3,03,04,16,26,28,29,31,32,,,,,1.1,0.6,0.9*3B
###2023-12-09 13:06:11.975388$GLGSA,A,3,65,71,72,73,74,75,,,,,,,1.1,0.6,0.9*24
###2023-12-09 13:06:11.976971$GAGSA,A,3,04,19,21,27,,,,,,,,,1.1,0.6,0.9*26
###2023-12-09 13:06:11.978624$GBGSA,A,3,14,24,25,26,33,,,,,,,,1.1,0.6,0.9*2F
###2023-12-09 13:06:11.980952$GPGSV,2,1,08,03,34,259,42,04,34,311,41,16,52,213,46,26,82,210,48*78
###2023-12-09 13:06:11.983297$GPGSV,2,2,08,28,48,072,45,29,25,059,40,31,68,042,47,32,17,141,43*7A
###2023-12-09 13:06:11.985635$GLGSV,2,1,06,65,26,327,40,71,39,173,46,72,73,261,45,73,34,043,42*69
###2023-12-09 13:06:11.987394$GLGSV,2,2,06,74,69,343,42,75,33,255,42,,,,,,,,*6B
###2023-12-09 13:06:11.989721$GAGSV,1,1,04,04,31,312,40,19,83,203,40,21,85,094,46,27,31,048,41*67
###2023-12-09 13:06:11.992058$GBGSV,2,1,05,14,42,192,44,24,72,028,49,25,42,263,43,26,25,063,40*63
###2023-12-09 13:06:11.993508$GBGSV,2,2,05,33,56,230,47,,,,,,,,,,,,*5F
###2023-12-09 13:06:11.994842$GNVTG,269.37,T,,M,3.30,N,6.12,K,A*2F
###2023-12-09 13:06:11.996494$GNGST,180611.10,18.000,,,,0.081,0.069,0.160*51
###2023-12-09 13:06:11.997779$GNZDA,180611.10,09,12,2023,00,00*7F
###2023-12-09 13:06:11.998420$GNEBP,,,,,,M*13
###2023-12-09 13:06:12.166274$GNGGA,180611.30,4138.0716051,N,07032.2936832,W,1,24,0.6,13.345,M,-29.742,M,0.0,*5E
###2023-12-09 13:06:12.367247$GNGGA,180611.50,4138.0716327,N,07032.2939325,W,1,24,0.6,13.373,M,-29.742,M,0.0,*5D
###2023-12-09 13:06:12.570943$GNGGA,180611.70,4138.0716471,N,07032.2941859,W,1,24,0.6,13.376,M,-29.742,M,0.0,*51
###2023-12-09 13:06:12.766590$GNGGA,180611.90,4138.0716150,N,07032.2944249,W,1,24,0.6,13.339,M,-29.742,M,0.0,*5C
###2023-12-09 13:06:12.968325$GNRMC,180612.10,A,4138.0715844,N,07032.2946612,W,3.36,267.91,091223,,,A*56
###2023-12-09 13:06:12.971216$GNGGA,180612.10,4138.0715844,N,07032.2946612,W,1,24,0.6,13.324,M,-29.742,M,0.0,*5C
###2023-12-09 13:06:12.973075$GPGSA,A,3,03,04,16,26,28,29,31,32,,,,,1.1,0.6,0.9*3B
###2023-12-09 13:06:12.974807$GLGSA,A,3,65,71,72,73,74,75,,,,,,,1.1,0.6,0.9*24
###2023-12-09 13:06:12.976397$GAGSA,A,3,04,19,21,27,,,,,,,,,1.1,0.6,0.9*26
###2023-12-09 13:06:12.978039$GBGSA,A,3,14,24,25,26,33,,,,,,,,1.1,0.6,0.9*2F
###2023-12-09 13:06:12.980412$GPGSV,2,1,08,03,34,259,42,04,34,311,41,16,52,213,46,26,82,210,48*78
###2023-12-09 13:06:12.982761$GPGSV,2,2,08,28,48,072,44,29,25,059,43,31,68,042,47,32,17,141,44*7F
###2023-12-09 13:06:12.985091$GLGSV,2,1,06,65,26,327,40,71,39,173,46,72,73,261,45,73,34,043,42*69
###2023-12-09 13:06:12.986859$GLGSV,2,2,06,74,69,343,42,75,33,255,43,,,,,,,,*6A
###2023-12-09 13:06:12.989198$GAGSV,1,1,04,04,31,312,38,19,83,203,40,21,85,094,46,27,31,048,39*67
###2023-12-09 13:06:12.991532$GBGSV,2,1,05,14,42,192,45,24,72,028,49,25,42,263,45,26,25,063,44*60
###2023-12-09 13:06:12.992995$GBGSV,2,2,05,33,56,230,48,,,,,,,,,,,,*50
###2023-12-09 13:06:12.994326$GNVTG,267.91,T,,M,3.36,N,6.23,K,A*29
###2023-12-09 13:06:12.995987$GNGST,180612.10,18.000,,,,0.081,0.069,0.160*52
###2023-12-09 13:06:12.997284$GNZDA,180612.10,09,12,2023,00,00*7C
###2023-12-09 13:06:12.997924$GNEBP,,,,,,M*13
###2023-12-09 13:06:13.165642$GNGGA,180612.30,4138.0715917,N,07032.2949224,W,1,24,0.6,13.361,M,-29.742,M,0.0,*56
###2023-12-09 13:06:13.366825$GNGGA,180612.50,4138.0715837,N,07032.2951883,W,1,24,0.6,13.350,M,-29.742,M,0.0,*5F
###2023-12-09 13:06:13.567452$GNGGA,180612.70,4138.0715279,N,07032.2954203,W,1,24,0.6,13.362,M,-29.742,M,0.0,*5B
###2023-12-09 13:06:13.766495$GNGGA,180612.90,4138.0714548,N,07032.2956482,W,1,24,0.6,13.361,M,-29.742,M,0.0,*5F
###2023-12-09 13:06:13.968157$GNRMC,180613.10,A,4138.0714051,N,07032.2958940,W,3.44,259.36,091223,,,A*58
###2023-12-09 13:06:13.971034$GNGGA,180613.10,4138.0714051,N,07032.2958940,W,1,24,0.6,13.352,M,-29.742,M,0.0,*56
###2023-12-09 13:06:13.972905$GPGSA,A,3,03,04,16,26,28,29,31,32,,,,,1.1,0.6,0.9*3B
###2023-12-09 13:06:13.974640$GLGSA,A,3,65,71,72,73,74,75,,,,,,,1.1,0.6,0.9*24
###2023-12-09 13:06:13.976229$GAGSA,A,3,04,19,21,27,,,,,,,,,1.1,0.6,0.9*26
###2023-12-09 13:06:13.977879$GBGSA,A,3,14,24,25,26,33,,,,,,,,1.1,0.6,0.9*2F
###2023-12-09 13:06:13.980221$GPGSV,2,1,08,03,34,259,42,04,34,311,42,16,52,213,45,26,82,210,48*78
###2023-12-09 13:06:13.982574$GPGSV,2,2,08,28,48,072,44,29,25,059,41,31,68,042,47,32,17,141,44*7D
###2023-12-09 13:06:13.984911$GLGSV,2,1,06,65,26,327,41,71,39,173,46,72,73,261,45,73,34,043,45*6F
###2023-12-09 13:06:13.986709$GLGSV,2,2,06,74,69,343,43,75,33,255,43,,,,,,,,*6B
###2023-12-09 13:06:13.989056$GAGSV,1,1,04,04,31,312,40,19,83,203,40,21,85,094,45,27,31,048,42*67
###2023-12-09 13:06:13.991412$GBGSV,2,1,05,14,42,192,45,24,72,028,49,25,42,263,45,26,25,063,43*67
###2023-12-09 13:06:13.992873$GBGSV,2,2,05,33,56,230,47,,,,,,,,,,,,*5F
###2023-12-09 13:06:13.994201$GNVTG,259.36,T,,M,3.44,N,6.37,K,A*29
###2023-12-09 13:06:13.995870$GNGST,180613.10,18.000,,,,0.081,0.069,0.160*53
###2023-12-09 13:06:13.997171$GNZDA,180613.10,09,12,2023,00,00*7D
###2023-12-09 13:06:13.997813$GNEBP,,,,,,M*13
###2023-12-09 13:06:14.165659$GNGGA,180613.30,4138.0713754,N,07032.2961539,W,1,24,0.6,13.356,M,-29.742,M,0.0,*5D
###2023-12-09 13:06:14.366109$GNGGA,180613.50,4138.0713216,N,07032.2964001,W,1,24,0.6,13.345,M,-29.742,M,0.0,*51
###2023-12-09 13:06:14.566771$GNGGA,180613.70,4138.0712556,N,07032.2966381,W,1,24,0.6,13.341,M,-29.742,M,0.0,*5C
###2023-12-09 13:06:14.767535$GNGGA,180613.90,4138.0712161,N,07032.2968881,W,1,24,0.6,13.357,M,-29.742,M,0.0,*50
###2023-12-09 13:06:14.970325$GNRMC,180614.10,A,4138.0712029,N,07032.2971406,W,3.38,269.08,091223,,,A*57
###2023-12-09 13:06:14.973214$GNGGA,180614.10,4138.0712029,N,07032.2971406,W,1,24,0.6,13.364,M,-29.742,M,0.0,*59
###2023-12-09 13:06:14.975096$GPGSA,A,3,03,04,16,26,28,29,31,32,,,,,1.1,0.6,0.9*3B
###2023-12-09 13:06:14.976810$GLGSA,A,3,65,71,72,73,74,75,,,,,,,1.1,0.6,0.9*24
###2023-12-09 13:06:14.978387$GAGSA,A,3,04,19,21,27,,,,,,,,,1.1,0.6,0.9*26
###2023-12-09 13:06:14.980052$GBGSA,A,3,14,24,25,26,33,,,,,,,,1.1,0.6,0.9*2F
