###2023-12-09 12:23:25.939468$GNVTG,,T,,M,0.02,N,0.04,K,A*3B
###2023-12-09 12:23:25.941374$GNGST,172325.10,31.000,,,,0.100,0.097,0.230*5A
###2023-12-09 12:23:25.942868$GNZDA,172325.10,09,12,2023,00,00*70
###2023-12-09 12:23:25.943682$GNEBP,,,,,,M*13
###2023-12-09 12:23:26.114232$GNGGA,172325.30,4138.0385629,N,07032.4359539,W,1,18,0.8,22.803,M,-29.746,M,0.0,*5B
###2023-12-09 12:23:26.314231$GNGGA,172325.50,4138.0385659,N,07032.4359517,W,1,18,0.8,22.819,M,-29.746,M,0.0,*5D
###2023-12-09 12:23:26.514373$GNGGA,172325.70,4138.0385685,N,07032.4359496,W,1,18,0.8,22.831,M,-29.746,M,0.0,*5C
###2023-12-09 12:23:26.713469$GNGGA,172325.90,4138.0385701,N,07032.4359465,W,1,18,0.8,22.845,M,-29.746,M,0.0,*50
###2023-12-09 12:23:26.917305$GNRMC,172326.10,A,4138.0385726,N,07032.4359437,W,0.08,,091223,,,A*43
###2023-12-09 12:23:26.920913$GNGGA,172326.10,4138.0385726,N,07032.4359437,W,1,18,0.8,22.858,M,-29.746,M,0.0,*55
###2023-12-09 12:23:26.923248$GPGSA,A,3,03,16,25,26,28,29,31,32,,,,,1.4,0.8,1.1*3A
###2023-12-09 12:23:26.925222$GLGSA,A,3,71,72,73,75,,,,,,,,,1.4,0.8,1.1*26
###2023-12-09 12:23:26.927038$GAGSA,A,3,21,27,,,,,,,,,,,1.4,0.8,1.1*28
###2023-12-09 12:23:26.928998$GBGSA,A,3,14,25,26,33,,,,,,,,,1.4,0.8,1.1*2B
###2023-12-09 12:23:26.931867$GPGSV,2,1,08,03,39,283,44,16,31,206,42,25,16,045,42,26,61,205,44*76
###2023-12-09 12:23:26.934773$GPGSV,2,2,08,28,62,049,41,29,24,079,45,31,73,343,38,32,35,131,47*7B
###2023-12-09 12:23:26.937629$GLGSV,1,1,04,71,63,167,46,72,61,317,37,73,53,030,47,75,18,236,42*6B
###2023-12-09 12:23:26.939802$GAGSV,1,1,02,21,73,180,47,27,45,051,45,,,,,,,,*66
###2023-12-09 12:23:26.942671$GBGSV,1,1,04,14,60,201,44,25,29,249,41,26,39,055,46,33,64,266,41*60
###2023-12-09 12:23:26.944094$GNVTG,,T,,M,0.08,N,0.14,K,A*30
###2023-12-09 12:23:26.946126$GNGST,172326.10,31.000,,,,0.100,0.097,0.230*59
###2023-12-09 12:23:26.947799$GNZDA,172326.10,09,12,2023,00,00*73
###2023-12-09 12:23:26.948652$GNEBP,,,,,,M*13
###2023-12-09 12:23:27.115967$GNGGA,172326.30,4138.0385746,N,07032.4359411,W,1,18,0.8,22.872,M,-29.746,M,0.0,*5D
###2023-12-09 12:23:27.313951$GNGGA,172326.50,4138.0385778,N,07032.4359397,W,1,18,0.8,22.884,M,-29.746,M,0.0,*56
###2023-12-09 12:23:27.514463$GNGGA,172326.70,4138.0385796,N,07032.4359381,W,1,18,0.8,22.893,M,-29.746,M,0.0,*55
###2023-12-09 12:23:27.713494$GNGGA,172326.90,4138.0385824,N,07032.4359377,W,1,18,0.8,22.903,M,-29.746,M,0.0,*5C
###2023-12-09 12:23:27.917582$GNRMC,172327.10,A,4138.0385853,N,07032.4359366,W,0.00,,091223,,,A*44
###2023-12-09 12:23:27.920505$GNGGA,172327.10,4138.0385853,N,07032.4359366,W,1,18,0.8,22.918,M,-29.746,M,0.0,*5F
###2023-12-09 12:23:27.922388$GPGSA,A,3,03,16,25,26,28,29,31,32,,,,,1.4,0.8,1.1*3A
###2023-12-09 12:23:27.924030$GLGSA,A,3,71,72,73,75,,,,,,,,,1.4,0.8,1.1*26
###2023-12-09 12:23:27.925512$GAGSA,A,3,21,27,,,,,,,,,,,1.4,0.8,1.1*28
###2023-12-09 12:23:27.927122$GBGSA,A,3,14,25,26,33,,,,,,,,,1.4,0.8,1.1*2B
###2023-12-09 12:23:27.929464$GPGSV,2,1,08,03,39,283,44,16,31,206,42,25,16,045,42,26,61,205,45*77
###2023-12-09 12:23:27.931837$GPGSV,2,2,08,28,62,049,40,29,24,079,45,31,73,343,38,32,35,131,47*7A
###2023-12-09 12:23:27.934184$GLGSV,1,1,04,71,63,167,46,72,61,317,37,73,53,030,47,75,18,236,42*6B
###2023-12-09 12:23:27.935968$GAGSV,1,1,02,21,73,180,47,27,45,051,45,,,,,,,,*66
###2023-12-09 12:23:27.938308$GBGSV,1,1,04,14,60,201,44,25,29,249,41,26,39,055,46,33,64,266,41*60
###2023-12-09 12:23:27.939482$GNVTG,,T,,M,0.00,N,0.00,K,A*3D
###2023-12-09 12:23:27.941147$GNGST,172327.10,31.000,,,,0.100,0.097,0.230*58
###2023-12-09 12:23:27.942453$GNZDA,172327.10,09,12,2023,00,00*72
###2023-12-09 12:23:27.943125$GNEBP,,,,,,M*13
###2023-12-09 12:23:28.114295$GNGGA,172327.30,4138.0385875,N,07032.4359355,W,1,18,0.8,22.929,M,-29.746,M,0.0,*5B
###2023-12-09 12:23:28.314344$GNGGA,172327.50,4138.0385890,N,07032.4359345,W,1,18,0.8,22.942,M,-29.746,M,0.0,*5A
###2023-12-09 12:23:28.514454$GNGGA,172327.70,4138.0385917,N,07032.4359350,W,1,18,0.8,22.957,M,-29.746,M,0.0,*56
###2023-12-09 12:23:28.712330$GNGGA,172327.90,4138.0385937,N,07032.4359329,W,1,18,0.8,22.973,M,-29.746,M,0.0,*52
###2023-12-09 12:23:28.917339$GNRMC,172328.10,A,4138.0385961,N,07032.4359323,W,0.04,,091223,,,A*4E
###2023-12-09 12:23:28.920495$GNGGA,172328.10,4138.0385961,N,07032.4359323,W,1,18,0.8,22.981,M,-29.746,M,0.0,*51
###2023-12-09 12:23:28.922407$GPGSA,A,3,03,16,25,26,28,29,31,32,,,,,1.4,0.8,1.1*3A
###2023-12-09 12:23:28.924069$GLGSA,A,3,71,72,73,75,,,,,,,,,1.4,0.8,1.1*26
###2023-12-09 12:23:28.925574$GAGSA,A,3,21,27,,,,,,,,,,,1.4,0.8,1.1*28
###2023-12-09 12:23:28.927406$GBGSA,A,3,14,25,26,33,,,,,,,,,1.4,0.8,1.1*2B
###2023-12-09 12:23:28.929793$GPGSV,2,1,08,03,39,283,43,16,31,206,42,25,16,045,42,26,61,205,44*71
###2023-12-09 12:23:28.932187$GPGSV,2,2,08,28,62,049,40,29,24,079,45,31,73,343,38,32,35,131,47*7A
###2023-12-09 12:23:28.934574$GLGSV,1,1,04,71,63,167,46,72,61,317,37,73,53,030,47,75,18,236,42*6B
###2023-12-09 12:23:28.936370$GAGSV,1,1,02,21,73,180,47,27,45,051,45,,,,,,,,*66
###2023-12-09 12:23:28.938797$GBGSV,1,1,04,14,60,201,44,25,29,249,41,26,39,055,46,33,64,266,41*60
###2023-12-09 12:23:28.939986$GNVTG,,T,,M,0.04,N,0.07,K,A*3E
###2023-12-09 12:23:28.941675$GNGST,172328.10,31.000,,,,0.100,0.097,0.230*57
###2023-12-09 12:23:28.943026$GNZDA,172328.10,09,12,2023,00,00*7D
###2023-12-09 12:23:28.943711$GNEBP,,,,,,M*13
###2023-12-09 12:23:29.113182$GNGGA,172328.30,4138.0385984,N,07032.4359317,W,1,18,0.8,22.993,M,-29.746,M,0.0,*5C
###2023-12-09 12:23:29.314222$GNGGA,172328.50,4138.0385991,N,07032.4359306,W,1,18,0.8,23.003,M,-29.746,M,0.0,*5F
###2023-12-09 12:23:29.514087$GNGGA,172328.70,4138.0385996,N,07032.4359292,W,1,18,0.8,23.011,M,-29.746,M,0.0,*55
###2023-12-09 12:23:29.713277$GNGGA,172328.90,4138.0386011,N,07032.4359283,W,1,18,0.8,23.020,M,-29.746,M,0.0,*5C
###2023-12-09 12:23:29.915395$GNRMC,172329.10,A,4138.0386023,N,07032.4359281,W,0.02,,091223,,,A*4C
###2023-12-09 12:23:29.918344$GNGGA,172329.10,4138.0386023,N,07032.4359281,W,1,19,0.8,23.027,M,-29.746,M,0.0,*50
###2023-12-09 12:23:29.920272$GPGSA,A,3,03,16,25,26,28,29,31,32,,,,,1.4,0.8,1.1*3A
###2023-12-09 12:23:29.921977$GLGSA,A,3,71,72,73,74,75,,,,,,,,1.4,0.8,1.1*25
###2023-12-09 12:23:29.923497$GAGSA,A,3,21,27,,,,,,,,,,,1.4,0.8,1.1*28
###2023-12-09 12:23:29.925124$GBGSA,A,3,14,25,26,33,,,,,,,,,1.4,0.8,1.1*2B
###2023-12-09 12:23:29.927517$GPGSV,2,1,08,03,39,283,43,16,31,206,42,25,16,045,42,26,61,205,44*71
###2023-12-09 12:23:29.929938$GPGSV,2,2,08,28,62,049,40,29,24,079,45,31,73,343,37,32,35,131,47*75
###2023-12-09 12:23:29.932331$GLGSV,2,1,05,71,63,167,46,72,61,317,37,73,53,030,47,74,69,272,35*6E
###2023-12-09 12:23:29.933833$GLGSV,2,2,05,75,18,236,42,,,,,,,,,,,,*5A
###2023-12-09 12:23:29.935634$GAGSV,1,1,02,21,73,180,47,27,45,051,45,,,,,,,,*66
###2023-12-09 12:23:29.938002$GBGSV,1,1,04,14,60,201,44,25,29,249,41,26,39,055,46,33,64,266,41*60
###2023-12-09 12:23:29.939221$GNVTG,,T,,M,0.02,N,0.04,K,A*3B
###2023-12-09 12:23:29.940917$GNGST,172329.10,30.000,,,,0.100,0.097,0.230*57
###2023-12-09 12:23:29.942254$GNZDA,172329.10,09,12,2023,00,00*7C
###2023-12-09 12:23:29.942949$GNEBP,,,,,,M*13
###2023-12-09 12:23:30.114128$GNGGA,172329.30,4138.0386027,N,07032.4359273,W,1,19,0.8,23.033,M,-29.746,M,0.0,*5E
###2023-12-09 12:23:30.313261$GNGGA,172329.50,4138.0386040,N,07032.4359260,W,1,19,0.8,23.037,M,-29.746,M,0.0,*5F
###2023-12-09 12:23:30.515165$GNGGA,172329.70,4138.0386048,N,07032.4359257,W,1,19,0.8,23.043,M,-29.746,M,0.0,*52
###2023-12-09 12:23:30.712311$GNGGA,172329.90,4138.0386062,N,07032.4359246,W,1,19,0.8,23.050,M,-29.746,M,0.0,*56
###2023-12-09 12:23:30.915140$GNRMC,172330.10,A,4138.0386068,N,07032.4359233,W,0.02,,091223,,,A*42
###2023-12-09 12:23:30.918058$GNGGA,172330.10,4138.0386068,N,07032.4359233,W,1,19,0.8,23.060,M,-29.746,M,0.0,*5D
###2023-12-09 12:23:30.919991$GPGSA,A,3,03,16,25,26,28,29,31,32,,,,,1.4,0.8,1.1*3A
###2023-12-09 12:23:30.921736$GLGSA,A,3,71,72,73,74,75,,,,,,,,1.4,0.8,1.1*25
###2023-12-09 12:23:30.923261$GAGSA,A,3,21,27,,,,,,,,,,,1.4,0.8,1.1*28
###2023-12-09 12:23:30.924894$GBGSA,A,3,14,25,26,33,,,,,,,,,1.4,0.8,1.1*2B
###2023-12-09 12:23:30.927286$GPGSV,2,1,08,03,39,283,43,16,31,206,42,25,16,045,42,26,61,205,45*70
###2023-12-09 12:23:30.930129$GPGSV,2,2,08,28,62,049,40,29,24,079,45,31,73,343,37,32,35,131,47*75
###2023-12-09 12:23:30.932582$GLGSV,2,1,05,71,63,167,46,72,61,317,38,73,53,030,47,74,69,272,35*61
###2023-12-09 12:23:30.934097$GLGSV,2,2,05,75,18,236,42,,,,,,,,,,,,*5A
###2023-12-09 12:23:30.935898$GAGSV,1,1,02,21,73,180,47,27,45,051,45,,,,,,,,*66
###2023-12-09 12:23:30.938265$GBGSV,1,1,04,14,60,201,43,25,29,249,40,26,39,055,45,33,64,266,40*64
###2023-12-09 12:23:30.939452$GNVTG,,T,,M,0.02,N,0.04,K,A*3B
###2023-12-09 12:23:30.941315$GNGST,172330.10,30.000,,,,0.100,0.097,0.230*5F
###2023-12-09 12:23:30.942887$GNZDA,172330.10,09,12,2023,00,00*74
