###2023-12-09 13:24:30.012736$GBGSV,2,1,06,14,33,190,42,24,66,041,47,25,48,272,46,26,19,068,43*6E
###2023-12-09 13:24:30.014505$GBGSV,2,2,06,33,50,221,48,35,16,061,43,,,,,,,,*64
###2023-12-09 13:24:30.015858$GNVTG,116.85,T,,M,3.05,N,5.65,K,A*28
###2023-12-09 13:24:30.017513$GNGST,182429.10,18.000,,,,0.100,0.070,0.160*5A
###2023-12-09 13:24:30.018859$GNZDA,182429.10,09,12,2023,00,00*74
###2023-12-09 13:24:30.019506$GNEBP,,,,,,M*13
###2023-12-09 13:24:30.188457$GNGGA,182429.30,4138.0679735,N,07032.3843774,W,1,24,0.6,13.032,M,-29.744,M,0.0,*52
###2023-12-09 13:24:30.384501$GNGGA,182429.50,4138.0678986,N,07032.3841653,W,1,24,0.6,13.054,M,-29.744,M,0.0,*55
###2023-12-09 13:24:30.584843$GNGGA,182429.70,4138.0678176,N,07032.3839501,W,1,24,0.6,13.044,M,-29.744,M,0.0,*5A
###2023-12-09 13:24:30.786649$GNGGA,182429.90,4138.0677271,N,07032.3837524,W,1,24,0.6,13.047,M,-29.744,M,0.0,*55
###2023-12-09 13:24:30.990382$GNRMC,182430.10,A,4138.0676322,N,07032.3835432,W,3.29,121.57,091223,,,A*58
###2023-12-09 13:24:30.993264$GNGGA,182430.10,4138.0676322,N,07032.3835432,W,1,24,0.6,13.065,M,-29.744,M,0.0,*57
###2023-12-09 13:24:30.995077$GPGSA,A,3,03,04,16,26,28,29,31,,,,,,1.1,0.6,0.9*3A
###2023-12-09 13:24:30.996795$GLGSA,A,3,65,71,72,73,74,75,,,,,,,1.1,0.6,0.9*24
###2023-12-09 13:24:30.998365$GAGSA,A,3,04,19,21,27,,,,,,,,,1.1,0.6,0.9*26
###2023-12-09 13:24:31.000081$GBGSA,A,3,14,24,25,26,33,35,,,,,,,1.1,0.6,0.9*29
###2023-12-09 13:24:31.002404$GPGSV,2,1,07,03,30,251,43,04,42,310,45,16,61,218,47,26,89,050,48*79
###2023-12-09 13:24:31.004446$GPGSV,2,2,07,28,41,080,44,29,22,051,43,31,63,058,46,,,,*49
###2023-12-09 13:24:31.006777$GLGSV,2,1,06,65,34,323,42,71,29,175,42,72,68,232,47,73,27,049,43*68
###2023-12-09 13:24:31.008520$GLGSV,2,2,06,74,63,004,44,75,40,265,48,,,,,,,,*6A
###2023-12-09 13:24:31.010853$GAGSV,1,1,04,04,36,311,44,19,76,185,40,21,80,051,45,27,26,049,40*69
###2023-12-09 13:24:31.013175$GBGSV,2,1,06,14,33,190,41,24,66,041,48,25,48,272,45,26,19,068,43*61
###2023-12-09 13:24:31.014925$GBGSV,2,2,06,33,50,221,48,35,16,061,42,,,,,,,,*65
###2023-12-09 13:24:31.016248$GNVTG,121.57,T,,M,3.29,N,6.08,K,A*25
###2023-12-09 13:24:31.017888$GNGST,182430.10,18.000,,,,0.100,0.070,0.160*52
###2023-12-09 13:24:31.019183$GNZDA,182430.10,09,12,2023,00,00*7C
###2023-12-09 13:24:31.019818$GNEBP,,,,,,M*13
###2023-12-09 13:24:31.184808$GNGGA,182430.30,4138.0675393,N,07032.3833350,W,1,24,0.6,13.069,M,-29.744,M,0.0,*55
###2023-12-09 13:24:31.385550$GNGGA,182430.50,4138.0674450,N,07032.3831184,W,1,24,0.6,13.067,M,-29.744,M,0.0,*5D
###2023-12-09 13:24:31.586475$GNGGA,182430.70,4138.0673521,N,07032.3829058,W,1,24,0.6,13.072,M,-29.744,M,0.0,*52
###2023-12-09 13:24:31.786838$GNGGA,182430.90,4138.0672478,N,07032.3826923,W,1,24,0.6,13.085,M,-29.744,M,0.0,*52
###2023-12-09 13:24:31.996085$GNRMC,182431.10,A,4138.0671412,N,07032.3824700,W,3.42,119.06,091223,,,A*5A
###2023-12-09 13:24:31.998956$GNGGA,182431.10,4138.0671412,N,07032.3824700,W,1,24,0.6,13.079,M,-29.744,M,0.0,*5A
###2023-12-09 13:24:32.000750$GPGSA,A,3,03,04,16,26,28,29,31,,,,,,1.1,0.6,0.9*3A
###2023-12-09 13:24:32.002461$GLGSA,A,3,65,71,72,73,74,75,,,,,,,1.1,0.6,0.9*24
###2023-12-09 13:24:32.004060$GAGSA,A,3,04,19,21,27,,,,,,,,,1.1,0.6,0.9*26
###2023-12-09 13:24:32.005772$GBGSA,A,3,14,24,25,26,33,35,,,,,,,1.1,0.6,0.9*29
###2023-12-09 13:24:32.008123$GPGSV,2,1,07,03,30,251,43,04,42,310,44,16,61,218,47,26,89,050,48*78
###2023-12-09 13:24:32.010173$GPGSV,2,2,07,28,41,080,44,29,22,051,42,31,63,058,47,,,,*49
###2023-12-09 13:24:32.012529$GLGSV,2,1,06,65,34,323,42,71,29,175,43,72,68,232,47,73,27,049,43*69
###2023-12-09 13:24:32.014286$GLGSV,2,2,06,74,63,004,42,75,40,265,47,,,,,,,,*63
###2023-12-09 13:24:32.016628$GAGSV,1,1,04,04,36,311,44,19,76,185,40,21,80,051,46,27,26,049,41*6B
###2023-12-09 13:24:32.018976$GBGSV,2,1,06,14,33,190,42,24,66,041,48,25,48,272,46,26,19,068,43*61
###2023-12-09 13:24:32.020733$GBGSV,2,2,06,33,50,221,48,35,16,061,43,,,,,,,,*64
###2023-12-09 13:24:32.022061$GNVTG,119.06,T,,M,3.42,N,6.34,K,A*28
###2023-12-09 13:24:32.023727$GNGST,182431.10,18.000,,,,0.100,0.070,0.160*53
###2023-12-09 13:24:32.025028$GNZDA,182431.10,09,12,2023,00,00*7D
###2023-12-09 13:24:32.025670$GNEBP,,,,,,M*13
###2023-12-09 13:24:32.192315$GNGGA,182431.30,4138.0670504,N,07032.3822539,W,1,24,0.6,13.075,M,-29.744,M,0.0,*5D
###2023-12-09 13:24:32.384427$GNGGA,182431.50,4138.0669488,N,07032.3820244,W,1,24,0.6,13.096,M,-29.744,M,0.0,*54
###2023-12-09 13:24:32.592544$GNGGA,182431.70,4138.0668449,N,07032.3818019,W,1,24,0.6,13.077,M,-29.744,M,0.0,*54
###2023-12-09 13:24:32.786462$GNGGA,182431.90,4138.0667436,N,07032.3815852,W,1,24,0.6,13.084,M,-29.744,M,0.0,*5B
###2023-12-09 13:24:32.996046$GNRMC,182432.10,A,4138.0666452,N,07032.3813568,W,3.58,118.75,091223,,,A*5D
###2023-12-09 13:24:32.998934$GNGGA,182432.10,4138.0666452,N,07032.3813568,W,1,24,0.6,13.088,M,-29.744,M,0.0,*5D
###2023-12-09 13:24:33.000729$GPGSA,A,3,03,04,16,26,28,29,31,,,,,,1.1,0.6,0.9*3A
###2023-12-09 13:24:33.002447$GLGSA,A,3,65,71,72,73,74,75,,,,,,,1.1,0.6,0.9*24
###2023-12-09 13:24:33.004042$GAGSA,A,3,04,19,21,27,,,,,,,,,1.1,0.6,0.9*26
###2023-12-09 13:24:33.005763$GBGSA,A,3,14,24,25,26,33,35,,,,,,,1.1,0.6,0.9*29
###2023-12-09 13:24:33.008101$GPGSV,2,1,07,03,30,251,42,04,42,310,43,16,61,218,47,26,89,050,48*7E
###2023-12-09 13:24:33.010141$GPGSV,2,2,07,28,41,080,44,29,22,051,42,31,63,058,46,,,,*48
###2023-12-09 13:24:33.012479$GLGSV,2,1,06,65,34,323,41,71,29,175,42,72,68,232,47,73,27,049,43*6B
###2023-12-09 13:24:33.014226$GLGSV,2,2,06,74,63,004,43,75,40,265,46,,,,,,,,*63
###2023-12-09 13:24:33.016564$GAGSV,1,1,04,04,36,311,44,19,76,185,40,21,80,051,46,27,26,049,41*6B
###2023-12-09 13:24:33.018899$GBGSV,2,1,06,14,33,190,41,24,66,041,49,25,48,272,47,26,19,068,43*62
###2023-12-09 13:24:33.020647$GBGSV,2,2,06,33,50,221,48,35,16,061,43,,,,,,,,*64
###2023-12-09 13:24:33.021971$GNVTG,118.75,T,,M,3.58,N,6.62,K,A*25
###2023-12-09 13:24:33.023630$GNGST,182432.10,18.000,,,,0.100,0.070,0.160*50
###2023-12-09 13:24:33.024921$GNZDA,182432.10,09,12,2023,00,00*7E
###2023-12-09 13:24:33.025561$GNEBP,,,,,,M*13
###2023-12-09 13:24:33.189221$GNGGA,182432.30,4138.0665460,N,07032.3811308,W,1,24,0.6,13.082,M,-29.744,M,0.0,*55
###2023-12-09 13:24:33.389327$GNGGA,182432.50,4138.0664381,N,07032.3809117,W,1,24,0.6,13.094,M,-29.744,M,0.0,*58
###2023-12-09 13:24:33.586771$GNGGA,182432.70,4138.0663236,N,07032.3806937,W,1,24,0.6,13.092,M,-29.744,M,0.0,*53
###2023-12-09 13:24:33.786163$GNGGA,182432.90,4138.0662169,N,07032.3804767,W,1,24,0.6,13.092,M,-29.744,M,0.0,*5C
###2023-12-09 13:24:33.989968$GNRMC,182433.10,A,4138.0660980,N,07032.3802586,W,3.69,127.20,091223,,,A*56
###2023-12-09 13:24:33.992848$GNGGA,182433.10,4138.0660980,N,07032.3802586,W,1,24,0.6,13.099,M,-29.744,M,0.0,*58
###2023-12-09 13:24:33.994648$GPGSA,A,3,03,04,16,26,28,29,31,,,,,,1.1,0.6,0.9*3A
###2023-12-09 13:24:33.996364$GLGSA,A,3,65,71,72,73,74,75,,,,,,,1.1,0.6,0.9*24
###2023-12-09 13:24:33.997949$GAGSA,A,3,04,19,21,27,,,,,,,,,1.1,0.6,0.9*26
###2023-12-09 13:24:33.999677$GBGSA,A,3,14,24,25,26,33,35,,,,,,,1.1,0.6,0.9*29
###2023-12-09 13:24:34.002019$GPGSV,2,1,07,03,30,251,43,04,42,310,43,16,61,218,46,26,89,050,48*7E
###2023-12-09 13:24:34.004077$GPGSV,2,2,07,28,41,080,44,29,22,051,44,31,63,058,46,,,,*4E
###2023-12-09 13:24:34.006411$GLGSV,2,1,06,65,34,323,43,71,29,175,42,72,68,232,47,73,27,049,44*6E
###2023-12-09 13:24:34.008172$GLGSV,2,2,06,74,63,004,42,75,40,265,47,,,,,,,,*63
###2023-12-09 13:24:34.010498$GAGSV,1,1,04,04,36,311,45,19,76,185,41,21,80,051,46,27,26,049,43*69
###2023-12-09 13:24:34.012846$GBGSV,2,1,06,14,33,190,42,24,66,041,49,25,48,272,47,26,19,068,44*66
###2023-12-09 13:24:34.014613$GBGSV,2,2,06,33,50,221,48,35,16,061,44,,,,,,,,*63
###2023-12-09 13:24:34.015947$GNVTG,127.20,T,,M,3.69,N,6.84,K,A*23
###2023-12-09 13:24:34.017597$GNGST,182433.10,18.000,,,,0.100,0.070,0.160*51
###2023-12-09 13:24:34.018897$GNZDA,182433.10,09,12,2023,00,00*7F
###2023-12-09 13:24:34.019538$GNEBP,,,,,,M*13
###2023-12-09 13:24:34.184733$GNGGA,182433.30,4138.0659829,N,07032.3800456,W,1,24,0.6,13.078,M,-29.744,M,0.0,*53
###2023-12-09 13:24:34.385379$GNGGA,182433.50,4138.0658653,N,07032.3798407,W,1,24,0.6,13.087,M,-29.744,M,0.0,*5D
###2023-12-09 13:24:34.584775$GNGGA,182433.70,4138.0657371,N,07032.3796350,W,1,24,0.6,13.085,M,-29.744,M,0.0,*5C
###2023-12-09 13:24:34.785255$GNGGA,182433.90,4138.0656161,N,07032.3794374,W,1,24,0.6,13.064,M,-29.744,M,0.0,*5B
###2023-12-09 13:24:34.990215$GNRMC,182434.10,A,4138.0654846,N,07032.3792419,W,3.63,132.99,091223,,,A*50
###2023-12-09 13:24:34.993117$GNGGA,182434.10,4138.0654846,N,07032.3792419,W,1,24,0.6,13.081,M,-29.744,M,0.0,*5B
###2023-12-09 13:24:34.994940$GPGSA,A,3,03,04,16,26,28,29,31,,,,,,1.1,0.6,0.9*3A
###2023-12-09 13:24:34.996665$GLGSA,A,3,65,71,72,73,74,75,,,,,,,1.1,0.6,0.9*24
###2023-12-09 13:24:34.998252$GAGSA,A,3,04,19,21,27,,,,,,,,,1.1,0.6,0.9*26
###2023-12-09 13:24:34.999981$GBGSA,A,3,14,24,25,26,33,35,,,,,,,1.1,0.6,0.9*29
