###2023-12-09 12:35:31.955758$GLGSV,2,2,05,75,22,241,46,,,,,,,,,,,,*57
###2023-12-09 12:35:31.958108$GAGSV,1,1,04,04,21,311,45,19,81,302,41,21,78,176,46,27,41,049,41*6A
###2023-12-09 12:35:31.960461$GBGSV,2,1,05,14,55,197,45,24,80,347,49,25,33,253,44,26,35,057,43*61
###2023-12-09 12:35:31.961936$GBGSV,2,2,05,33,63,253,48,,,,,,,,,,,,*53
###2023-12-09 12:35:31.963250$GNVTG,35.53,T,,M,1.07,N,1.98,K,A*15
###2023-12-09 12:35:31.964898$GNGST,173531.10,18.000,,,,0.080,0.072,0.160*57
###2023-12-09 12:35:31.966187$GNZDA,173531.10,09,12,2023,00,00*72
###2023-12-09 12:35:31.966846$GNEBP,,,,,,M*13
###2023-12-09 12:35:32.136730$GNGGA,173531.30,4138.0495978,N,07032.4245917,W,1,23,0.7,13.410,M,-29.745,M,0.0,*50
###2023-12-09 12:35:32.336562$GNGGA,173531.50,4138.0496347,N,07032.4245200,W,1,23,0.7,13.394,M,-29.745,M,0.0,*55
###2023-12-09 12:35:32.536913$GNGGA,173531.70,4138.0497019,N,07032.4244915,W,1,23,0.7,13.403,M,-29.745,M,0.0,*59
###2023-12-09 12:35:32.734106$GNGGA,173531.90,4138.0497818,N,07032.4244714,W,1,23,0.7,13.389,M,-29.745,M,0.0,*54
###2023-12-09 12:35:32.942856$GNRMC,173532.10,A,4138.0498365,N,07032.4244077,W,1.42,55.35,091223,,,A*63
###2023-12-09 12:35:32.945745$GNGGA,173532.10,4138.0498365,N,07032.4244077,W,1,23,0.7,13.397,M,-29.745,M,0.0,*5C
###2023-12-09 12:35:32.947670$GPGSA,A,3,03,04,16,26,28,29,31,32,,,,,1.2,0.7,1.0*31
###2023-12-09 12:35:32.949351$GLGSA,A,3,71,72,73,74,75,,,,,,,,1.2,0.7,1.0*2D
###2023-12-09 12:35:32.950973$GAGSA,A,3,04,19,21,27,,,,,,,,,1.2,0.7,1.0*2C
###2023-12-09 12:35:32.952634$GBGSA,A,3,14,24,25,26,33,,,,,,,,1.2,0.7,1.0*25
###2023-12-09 12:35:32.954985$GPGSV,2,1,08,03,39,277,46,04,22,311,44,16,37,207,46,26,66,206,48*74
###2023-12-09 12:35:32.957329$GPGSV,2,2,08,28,58,056,44,29,25,074,40,31,73,001,46,32,30,134,43*78
###2023-12-09 12:35:32.959688$GLGSV,2,1,05,71,56,169,47,72,66,308,47,73,47,034,45,74,71,290,44*69
###2023-12-09 12:35:32.961152$GLGSV,2,2,05,75,22,241,46,,,,,,,,,,,,*57
###2023-12-09 12:35:32.963495$GAGSV,1,1,04,04,21,311,44,19,81,302,41,21,78,176,46,27,41,049,41*6B
###2023-12-09 12:35:32.965829$GBGSV,2,1,05,14,55,197,45,24,80,347,48,25,33,253,42,26,35,057,44*61
###2023-12-09 12:35:32.967315$GBGSV,2,2,05,33,63,253,47,,,,,,,,,,,,*5C
###2023-12-09 12:35:32.968621$GNVTG,55.35,T,,M,1.42,N,2.63,K,A*15
###2023-12-09 12:35:32.970279$GNGST,173532.10,18.000,,,,0.080,0.072,0.160*54
###2023-12-09 12:35:32.971587$GNZDA,173532.10,09,12,2023,00,00*71
###2023-12-09 12:35:32.972235$GNEBP,,,,,,M*13
###2023-12-09 12:35:33.138184$GNGGA,173532.30,4138.0498806,N,07032.4243112,W,1,23,0.7,13.398,M,-29.745,M,0.0,*5A
###2023-12-09 12:35:33.335242$GNGGA,173532.50,4138.0499442,N,07032.4242414,W,1,23,0.7,13.401,M,-29.745,M,0.0,*54
###2023-12-09 12:35:33.535345$GNGGA,173532.70,4138.0500271,N,07032.4241996,W,1,23,0.7,13.402,M,-29.745,M,0.0,*56
###2023-12-09 12:35:33.735444$GNGGA,173532.90,4138.0501032,N,07032.4241415,W,1,23,0.7,13.401,M,-29.745,M,0.0,*59
###2023-12-09 12:35:33.935818$GNRMC,173533.10,A,4138.0501595,N,07032.4240409,W,1.77,59.09,091223,,,A*66
###2023-12-09 12:35:33.938722$GNGGA,173533.10,4138.0501595,N,07032.4240409,W,1,23,0.7,13.411,M,-29.745,M,0.0,*55
###2023-12-09 12:35:33.940605$GPGSA,A,3,03,04,16,26,28,29,31,32,,,,,1.2,0.7,1.0*31
###2023-12-09 12:35:33.942277$GLGSA,A,3,71,72,73,74,75,,,,,,,,1.2,0.7,1.0*2D
###2023-12-09 12:35:33.943897$GAGSA,A,3,04,19,21,27,,,,,,,,,1.2,0.7,1.0*2C
###2023-12-09 12:35:33.945563$GBGSA,A,3,14,24,25,26,33,,,,,,,,1.2,0.7,1.0*25
###2023-12-09 12:35:33.947936$GPGSV,2,1,08,03,39,277,45,04,22,311,42,16,37,207,45,26,66,206,48*72
###2023-12-09 12:35:33.950298$GPGSV,2,2,08,28,58,056,44,29,25,074,39,31,73,001,47,32,30,134,43*77
###2023-12-09 12:35:33.952665$GLGSV,2,1,05,71,56,169,48,72,66,308,47,73,47,034,45,74,71,293,43*62
###2023-12-09 12:35:33.954131$GLGSV,2,2,05,75,22,241,44,,,,,,,,,,,,*55
###2023-12-09 12:35:33.956488$GAGSV,1,1,04,04,21,311,43,19,81,302,40,21,78,176,46,27,41,049,41*6D
###2023-12-09 12:35:33.958858$GBGSV,2,1,05,14,55,197,45,24,80,347,49,25,33,253,44,26,35,057,45*67
###2023-12-09 12:35:33.960329$GBGSV,2,2,05,33,63,253,49,,,,,,,,,,,,*52
###2023-12-09 12:35:33.961625$GNVTG,59.09,T,,M,1.77,N,3.28,K,A*1E
###2023-12-09 12:35:33.963304$GNGST,173533.10,18.000,,,,0.080,0.072,0.160*55
###2023-12-09 12:35:33.964608$GNZDA,173533.10,09,12,2023,00,00*70
###2023-12-09 12:35:33.965256$GNEBP,,,,,,M*13
###2023-12-09 12:35:34.138626$GNGGA,173533.30,4138.0502128,N,07032.4239360,W,1,23,0.7,13.401,M,-29.745,M,0.0,*51
###2023-12-09 12:35:34.336296$GNGGA,173533.50,4138.0502887,N,07032.4238633,W,1,23,0.7,13.410,M,-29.745,M,0.0,*59
###2023-12-09 12:35:34.534492$GNGGA,173533.70,4138.0503784,N,07032.4238012,W,1,23,0.7,13.410,M,-29.745,M,0.0,*53
###2023-12-09 12:35:34.733799$GNGGA,173533.90,4138.0504504,N,07032.4237011,W,1,23,0.7,13.405,M,-29.745,M,0.0,*58
###2023-12-09 12:35:34.938557$GNRMC,173534.10,A,4138.0504989,N,07032.4235826,W,1.79,56.33,091223,,,A*6E
###2023-12-09 12:35:34.941655$GNGGA,173534.10,4138.0504989,N,07032.4235826,W,1,23,0.7,13.413,M,-29.745,M,0.0,*57
###2023-12-09 12:35:34.943704$GPGSA,A,3,03,04,16,26,28,29,31,32,,,,,1.2,0.7,1.0*31
###2023-12-09 12:35:34.945541$GLGSA,A,3,71,72,73,74,75,,,,,,,,1.2,0.7,1.0*2D
###2023-12-09 12:35:34.947333$GAGSA,A,3,04,19,21,27,,,,,,,,,1.2,0.7,1.0*2C
###2023-12-09 12:35:34.949177$GBGSA,A,3,14,24,25,26,33,,,,,,,,1.2,0.7,1.0*25
###2023-12-09 12:35:34.951634$GPGSV,2,1,08,03,39,277,44,04,22,311,41,16,37,207,45,26,66,206,48*70
###2023-12-09 12:35:34.954064$GPGSV,2,2,08,28,58,056,44,29,25,074,40,31,73,001,46,32,30,134,45*7E
###2023-12-09 12:35:34.956512$GLGSV,2,1,05,71,56,169,49,72,66,308,46,73,47,034,45,74,71,293,43*62
###2023-12-09 12:35:34.958084$GLGSV,2,2,05,75,22,241,44,,,,,,,,,,,,*55
###2023-12-09 12:35:34.960531$GAGSV,1,1,04,04,21,311,40,19,81,302,40,21,78,176,46,27,41,049,41*6E
###2023-12-09 12:35:34.962991$GBGSV,2,1,05,14,55,197,44,24,80,347,48,25,33,253,45,26,35,057,45*66
###2023-12-09 12:35:34.964554$GBGSV,2,2,05,33,63,253,47,,,,,,,,,,,,*5C
###2023-12-09 12:35:34.965940$GNVTG,56.33,T,,M,1.79,N,3.31,K,A*1E
###2023-12-09 12:35:34.967690$GNGST,173534.10,18.000,,,,0.080,0.072,0.160*52
###2023-12-09 12:35:34.969086$GNZDA,173534.10,09,12,2023,00,00*77
###2023-12-09 12:35:34.969827$GNEBP,,,,,,M*13
###2023-12-09 12:35:35.138315$GNGGA,173534.30,4138.0505701,N,07032.4234793,W,1,23,0.7,13.420,M,-29.745,M,0.0,*5A
###2023-12-09 12:35:35.335265$GNGGA,173534.50,4138.0506618,N,07032.4233924,W,1,23,0.7,13.411,M,-29.745,M,0.0,*51
###2023-12-09 12:35:35.535610$GNGGA,173534.70,4138.0507422,N,07032.4232894,W,1,23,0.7,13.397,M,-29.745,M,0.0,*5B
###2023-12-09 12:35:35.733911$GNGGA,173534.90,4138.0507998,N,07032.4231595,W,1,23,0.7,13.407,M,-29.745,M,0.0,*58
###2023-12-09 12:35:35.935751$GNRMC,173535.10,A,4138.0508565,N,07032.4230245,W,2.12,53.65,091223,,,A*6F
###2023-12-09 12:35:35.938630$GNGGA,173535.10,4138.0508565,N,07032.4230245,W,1,23,0.7,13.409,M,-29.745,M,0.0,*55
###2023-12-09 12:35:35.940497$GPGSA,A,3,03,04,16,26,28,29,31,32,,,,,1.2,0.7,1.0*31
###2023-12-09 12:35:35.942154$GLGSA,A,3,71,72,73,74,75,,,,,,,,1.2,0.7,1.0*2D
###2023-12-09 12:35:35.943766$GAGSA,A,3,04,19,21,27,,,,,,,,,1.2,0.7,1.0*2C
###2023-12-09 12:35:35.945420$GBGSA,A,3,14,24,25,26,33,,,,,,,,1.2,0.7,1.0*25
###2023-12-09 12:35:35.947793$GPGSV,2,1,08,03,39,277,45,04,22,311,40,16,37,207,45,26,66,206,49*71
###2023-12-09 12:35:35.950147$GPGSV,2,2,08,28,58,056,45,29,25,074,41,31,73,001,46,32,30,134,44*7F
###2023-12-09 12:35:35.952500$GLGSV,2,1,05,71,56,169,47,72,66,308,46,73,47,034,45,74,71,293,43*6C
###2023-12-09 12:35:35.953956$GLGSV,2,2,05,75,22,241,46,,,,,,,,,,,,*57
###2023-12-09 12:35:35.956293$GAGSV,1,1,04,04,21,311,38,19,81,302,41,21,78,176,46,27,41,049,39*6F
###2023-12-09 12:35:35.958632$GBGSV,2,1,05,14,55,197,45,24,80,347,48,25,33,253,45,26,35,057,44*66
###2023-12-09 12:35:35.960090$GBGSV,2,2,05,33,63,253,47,,,,,,,,,,,,*5C
###2023-12-09 12:35:35.961379$GNVTG,53.65,T,,M,2.12,N,3.92,K,A*1F
###2023-12-09 12:35:35.963040$GNGST,173535.10,19.000,,,,0.081,0.072,0.160*53
###2023-12-09 12:35:35.964335$GNZDA,173535.10,09,12,2023,00,00*76
###2023-12-09 12:35:35.964978$GNEBP,,,,,,M*13
###2023-12-09 12:35:36.134402$GNGGA,173535.30,4138.0509333,N,07032.4229055,W,1,23,0.7,13.403,M,-29.745,M,0.0,*52
###2023-12-09 12:35:36.333309$GNGGA,173535.50,4138.0510153,N,07032.4227830,W,1,23,0.7,13.386,M,-29.745,M,0.0,*57
###2023-12-09 12:35:36.536308$GNGGA,173535.70,4138.0510790,N,07032.4226517,W,1,23,0.7,13.388,M,-29.745,M,0.0,*5B
###2023-12-09 12:35:36.733784$GNGGA,173535.90,4138.0511338,N,07032.4225071,W,1,23,0.7,13.409,M,-29.745,M,0.0,*5A
###2023-12-09 12:35:36.934845$GNRMC,173536.10,A,4138.0511915,N,07032.4223544,W,2.24,61.48,091223,,,A*60
###2023-12-09 12:35:36.937835$GNGGA,173536.10,4138.0511915,N,07032.4223544,W,1,23,0.7,13.399,M,-29.745,M,0.0,*5F
###2023-12-09 12:35:36.939822$GPGSA,A,3,03,04,16,26,28,29,31,32,,,,,1.2,0.7,1.0*31
###2023-12-09 12:35:36.941493$GLGSA,A,3,71,72,73,74,75,,,,,,,,1.2,0.7,1.0*2D
