###2023-12-09 13:38:42.598964$GNGGA,183841.70,4138.0585932,N,07032.3936075,W,1,25,0.6,13.104,M,-29.744,M,0.0,*5C
###2023-12-09 13:38:42.799632$GNGGA,183841.90,4138.0587664,N,07032.3936437,W,1,25,0.6,13.113,M,-29.744,M,0.0,*58
###2023-12-09 13:38:43.002346$GNRMC,183842.10,A,4138.0589424,N,07032.3936527,W,3.19,3.14,091223,,,A*50
###2023-12-09 13:38:43.005225$GNGGA,183842.10,4138.0589424,N,07032.3936527,W,1,25,0.6,13.113,M,-29.744,M,0.0,*5B
###2023-12-09 13:38:43.007094$GPGSA,A,3,03,04,16,26,27,28,29,31,,,,,1.0,0.6,0.8*3F
###2023-12-09 13:38:43.008802$GLGSA,A,3,65,71,72,73,74,75,,,,,,,1.0,0.6,0.8*24
###2023-12-09 13:38:43.010381$GAGSA,A,3,04,19,21,27,,,,,,,,,1.0,0.6,0.8*26
###2023-12-09 13:38:43.012097$GBGSA,A,3,12,14,24,25,33,35,,,,,,,1.0,0.6,0.8*2E
###2023-12-09 13:38:43.014416$GPGSV,2,1,08,03,25,245,43,04,48,307,45,16,68,224,46,26,82,040,48*76
###2023-12-09 13:38:43.016751$GPGSV,2,2,08,27,18,172,43,28,37,086,44,29,20,046,38,31,58,068,46*7D
###2023-12-09 13:38:43.019090$GLGSV,2,1,06,65,40,316,43,71,21,175,44,72,61,219,46,73,21,053,39*63
###2023-12-09 13:38:43.020839$GLGSV,2,2,06,74,59,016,42,75,44,273,48,,,,,,,,*65
###2023-12-09 13:38:43.023184$GAGSV,1,1,04,04,41,309,44,19,70,181,41,21,75,045,46,27,21,050,38*6F
###2023-12-09 13:38:43.025508$GBGSV,2,1,06,12,17,125,38,14,27,189,40,24,61,048,46,25,52,278,47*63
###2023-12-09 13:38:43.027264$GBGSV,2,2,06,33,44,215,45,35,16,055,39,,,,,,,,*61
###2023-12-09 13:38:43.028522$GNVTG,3.14,T,,M,3.19,N,5.90,K,A*22
###2023-12-09 13:38:43.030138$GNGST,183842.10,6.100,,,,0.092,0.069,0.170*67
###2023-12-09 13:38:43.031441$GNZDA,183842.10,09,12,2023,00,00*74
###2023-12-09 13:38:43.032081$GNEBP,,,,,,M*13
###2023-12-09 13:38:43.201591$GNGGA,183842.30,4138.0591173,N,07032.3936318,W,1,25,0.6,13.104,M,-29.744,M,0.0,*5B
###2023-12-09 13:38:43.402522$GNGGA,183842.50,4138.0592919,N,07032.3936297,W,1,25,0.6,13.105,M,-29.744,M,0.0,*5D
###2023-12-09 13:38:43.599140$GNGGA,183842.70,4138.0594730,N,07032.3936402,W,1,25,0.6,13.100,M,-29.744,M,0.0,*53
###2023-12-09 13:38:43.798515$GNGGA,183842.90,4138.0596559,N,07032.3936260,W,1,25,0.6,13.101,M,-29.744,M,0.0,*51
###2023-12-09 13:38:44.002505$GNRMC,183843.10,A,4138.0598406,N,07032.3935947,W,3.44,7.60,091223,,,A*57
###2023-12-09 13:38:44.005369$GNGGA,183843.10,4138.0598406,N,07032.3935947,W,1,25,0.6,13.112,M,-29.744,M,0.0,*52
###2023-12-09 13:38:44.007232$GPGSA,A,3,03,04,16,26,27,28,29,31,,,,,1.0,0.6,0.8*3F
###2023-12-09 13:38:44.008938$GLGSA,A,3,65,71,72,73,74,75,,,,,,,1.0,0.6,0.8*24
###2023-12-09 13:38:44.010512$GAGSA,A,3,04,19,21,27,,,,,,,,,1.0,0.6,0.8*26
###2023-12-09 13:38:44.012225$GBGSA,A,3,12,14,24,25,33,35,,,,,,,1.0,0.6,0.8*2E
###2023-12-09 13:38:44.014587$GPGSV,2,1,08,03,25,245,41,04,48,307,45,16,68,224,46,26,82,040,48*74
###2023-12-09 13:38:44.016911$GPGSV,2,2,08,27,18,172,42,28,37,086,43,29,20,046,40,31,58,068,45*77
###2023-12-09 13:38:44.019243$GLGSV,2,1,06,65,40,316,44,71,20,176,43,72,61,219,46,73,21,053,38*60
###2023-12-09 13:38:44.020981$GLGSV,2,2,06,74,59,016,41,75,44,273,48,,,,,,,,*66
###2023-12-09 13:38:44.023305$GAGSV,1,1,04,04,41,309,44,19,70,181,41,21,75,045,46,27,21,050,38*6F
###2023-12-09 13:38:44.025617$GBGSV,2,1,06,12,17,125,39,14,27,189,40,24,61,048,47,25,52,278,48*6C
###2023-12-09 13:38:44.027361$GBGSV,2,2,06,33,44,215,46,35,16,055,42,,,,,,,,*6E
###2023-12-09 13:38:44.028612$GNVTG,7.60,T,,M,3.44,N,6.37,K,A*23
###2023-12-09 13:38:44.030218$GNGST,183843.10,5.600,,,,0.092,0.069,0.170*62
###2023-12-09 13:38:44.031511$GNZDA,183843.10,09,12,2023,00,00*75
###2023-12-09 13:38:44.032145$GNEBP,,,,,,M*13
###2023-12-09 13:38:44.198968$GNGGA,183843.30,4138.0600274,N,07032.3935573,W,1,25,0.6,13.128,M,-29.744,M,0.0,*53
###2023-12-09 13:38:44.399179$GNGGA,183843.50,4138.0602117,N,07032.3935244,W,1,25,0.6,13.134,M,-29.744,M,0.0,*5F
###2023-12-09 13:38:44.599332$GNGGA,183843.70,4138.0603935,N,07032.3934924,W,1,25,0.6,13.140,M,-29.744,M,0.0,*5B
###2023-12-09 13:38:44.799833$GNGGA,183843.90,4138.0605718,N,07032.3934373,W,1,25,0.6,13.123,M,-29.744,M,0.0,*5F
###2023-12-09 13:38:45.009913$GNRMC,183844.10,A,4138.0607422,N,07032.3933851,W,3.13,10.16,091223,,,A*66
###2023-12-09 13:38:45.012795$GNGGA,183844.10,4138.0607422,N,07032.3933851,W,1,25,0.6,13.113,M,-29.744,M,0.0,*57
###2023-12-09 13:38:45.014666$GPGSA,A,3,03,04,16,26,27,28,29,31,,,,,1.0,0.6,0.8*3F
###2023-12-09 13:38:45.016391$GLGSA,A,3,65,71,72,73,74,75,,,,,,,1.0,0.6,0.8*24
###2023-12-09 13:38:45.017970$GAGSA,A,3,04,19,21,27,,,,,,,,,1.0,0.6,0.8*26
###2023-12-09 13:38:45.019688$GBGSA,A,3,12,14,24,25,33,35,,,,,,,1.0,0.6,0.8*2E
###2023-12-09 13:38:45.022008$GPGSV,2,1,08,03,25,245,42,04,48,307,44,16,68,224,46,26,82,040,47*79
###2023-12-09 13:38:45.024356$GPGSV,2,2,08,27,18,172,43,28,37,086,44,29,20,046,40,31,58,068,46*72
###2023-12-09 13:38:45.026701$GLGSV,2,1,06,65,40,316,42,71,20,176,45,72,60,217,46,73,21,053,40*60
###2023-12-09 13:38:45.028456$GLGSV,2,2,06,74,59,016,41,75,44,273,48,,,,,,,,*66
###2023-12-09 13:38:45.030806$GAGSV,1,1,04,04,41,309,44,19,70,181,41,21,75,045,45,27,21,050,38*6C
###2023-12-09 13:38:45.033145$GBGSV,2,1,06,12,17,125,40,14,27,189,40,24,61,048,47,25,52,278,47*6D
###2023-12-09 13:38:45.034910$GBGSV,2,2,06,33,44,215,45,35,16,055,41,,,,,,,,*6E
###2023-12-09 13:38:45.036210$GNVTG,10.16,T,,M,3.13,N,5.80,K,A*19
###2023-12-09 13:38:45.037830$GNGST,183844.10,5.300,,,,0.091,0.069,0.160*62
###2023-12-09 13:38:45.039170$GNZDA,183844.10,09,12,2023,00,00*72
###2023-12-09 13:38:45.039817$GNEBP,,,,,,M*13
###2023-12-09 13:38:45.208161$GNGGA,183844.30,4138.0609133,N,07032.3933525,W,1,25,0.6,13.137,M,-29.744,M,0.0,*56
###2023-12-09 13:38:45.398169$GNGGA,183844.50,4138.0610867,N,07032.3933204,W,1,25,0.6,13.159,M,-29.744,M,0.0,*5C
###2023-12-09 13:38:45.598823$GNGGA,183844.70,4138.0612581,N,07032.3932799,W,1,25,0.6,13.169,M,-29.744,M,0.0,*5A
###2023-12-09 13:38:45.801225$GNGGA,183844.90,4138.0614312,N,07032.3932459,W,1,25,0.6,13.172,M,-29.744,M,0.0,*5B
###2023-12-09 13:38:46.003313$GNRMC,183845.10,A,4138.0615996,N,07032.3932192,W,3.05,4.86,091223,,,A*5A
###2023-12-09 13:38:46.006171$GNGGA,183845.10,4138.0615996,N,07032.3932192,W,1,25,0.6,13.166,M,-29.744,M,0.0,*52
###2023-12-09 13:38:46.008035$GPGSA,A,3,03,04,16,26,27,28,29,31,,,,,1.0,0.6,0.8*3F
###2023-12-09 13:38:46.009746$GLGSA,A,3,65,71,72,73,74,75,,,,,,,1.0,0.6,0.8*24
###2023-12-09 13:38:46.011334$GAGSA,A,3,04,19,21,27,,,,,,,,,1.0,0.6,0.8*26
###2023-12-09 13:38:46.013069$GBGSA,A,3,12,14,24,25,33,35,,,,,,,1.0,0.6,0.8*2E
###2023-12-09 13:38:46.015401$GPGSV,2,1,08,03,25,245,43,04,48,307,45,16,68,224,46,26,82,040,48*76
###2023-12-09 13:38:46.017716$GPGSV,2,2,08,27,18,172,43,28,37,086,44,29,20,046,40,31,58,068,46*72
###2023-12-09 13:38:46.020044$GLGSV,2,1,06,65,40,316,43,71,20,176,45,72,60,217,46,73,20,054,40*67
###2023-12-09 13:38:46.021780$GLGSV,2,2,06,74,59,016,41,75,44,273,47,,,,,,,,*69
###2023-12-09 13:38:46.024102$GAGSV,1,1,04,04,41,309,44,19,70,181,41,21,75,045,45,27,21,050,38*6C
###2023-12-09 13:38:46.026409$GBGSV,2,1,06,12,17,125,41,14,27,189,42,24,61,048,47,25,52,278,47*6E
###2023-12-09 13:38:46.028152$GBGSV,2,2,06,33,44,215,46,35,16,055,42,,,,,,,,*6E
###2023-12-09 13:38:46.029402$GNVTG,4.86,T,,M,3.05,N,5.65,K,A*29
###2023-12-09 13:38:46.031020$GNGST,183845.10,5.700,,,,0.090,0.068,0.160*67
###2023-12-09 13:38:46.032305$GNZDA,183845.10,09,12,2023,00,00*73
###2023-12-09 13:38:46.032941$GNEBP,,,,,,M*13
###2023-12-09 13:38:46.200204$GNGGA,183845.30,4138.0617628,N,07032.3932105,W,1,25,0.6,13.160,M,-29.744,M,0.0,*50
###2023-12-09 13:38:46.399426$GNGGA,183845.50,4138.0619235,N,07032.3932043,W,1,25,0.6,13.171,M,-29.744,M,0.0,*53
###2023-12-09 13:38:46.598783$GNGGA,183845.70,4138.0620820,N,07032.3931922,W,1,25,0.6,13.194,M,-29.744,M,0.0,*53
###2023-12-09 13:38:46.804249$GNGGA,183845.90,4138.0622435,N,07032.3931881,W,1,25,0.6,13.202,M,-29.744,M,0.0,*53
###2023-12-09 13:38:47.005002$GNRMC,183846.10,A,4138.0624039,N,07032.3931966,W,2.86,354.65,091223,,,A*56
###2023-12-09 13:38:47.007877$GNGGA,183846.10,4138.0624039,N,07032.3931966,W,1,25,0.6,13.185,M,-29.744,M,0.0,*52
###2023-12-09 13:38:47.009733$GPGSA,A,3,03,04,16,26,27,28,29,31,,,,,1.1,0.6,0.9*3F
###2023-12-09 13:38:47.011463$GLGSA,A,3,65,71,72,73,74,75,,,,,,,1.1,0.6,0.9*24
###2023-12-09 13:38:47.013307$GAGSA,A,3,04,19,21,27,,,,,,,,,1.1,0.6,0.9*26
###2023-12-09 13:38:47.015045$GBGSA,A,3,12,14,24,25,33,35,,,,,,,1.1,0.6,0.9*2E
###2023-12-09 13:38:47.017378$GPGSV,2,1,08,03,25,245,41,04,48,307,44,16,68,224,45,26,82,040,48*76
###2023-12-09 13:38:47.019723$GPGSV,2,2,08,27,18,172,43,28,37,086,45,29,20,046,43,31,58,068,47*71
###2023-12-09 13:38:47.022053$GLGSV,2,1,06,65,40,316,43,71,20,176,45,72,60,217,46,73,20,054,42*65
###2023-12-09 13:38:47.023814$GLGSV,2,2,06,74,58,018,41,75,44,273,46,,,,,,,,*67
###2023-12-09 13:38:47.026146$GAGSV,1,1,04,04,41,309,44,19,70,181,41,21,75,045,46,27,21,050,40*60
###2023-12-09 13:38:47.028492$GBGSV,2,1,06,12,17,125,40,14,27,189,40,24,61,048,47,25,52,278,45*6F
###2023-12-09 13:38:47.030245$GBGSV,2,2,06,33,44,215,45,35,16,055,42,,,,,,,,*6D
###2023-12-09 13:38:47.031583$GNVTG,354.65,T,,M,2.86,N,5.29,K,A*20
