###2023-12-09 12:47:02.547819$GNGGA,174701.70,4138.0466048,N,07032.3961593,W,1,24,0.6,13.435,M,-29.745,M,0.0,*5F
###2023-12-09 12:47:02.750274$GNGGA,174701.90,4138.0465265,N,07032.3963493,W,1,24,0.6,13.451,M,-29.745,M,0.0,*5E
###2023-12-09 12:47:02.946227$GNRMC,174702.10,A,4138.0464581,N,07032.3965439,W,2.90,243.35,091223,,,A*52
###2023-12-09 12:47:02.949775$GNGGA,174702.10,4138.0464581,N,07032.3965439,W,1,24,0.6,13.463,M,-29.745,M,0.0,*5E
###2023-12-09 12:47:02.952072$GPGSA,A,3,03,04,16,26,28,29,31,32,,,,,1.1,0.6,0.9*3B
###2023-12-09 12:47:02.954160$GLGSA,A,3,65,71,72,73,74,75,,,,,,,1.1,0.6,0.9*24
###2023-12-09 12:47:02.956094$GAGSA,A,3,04,19,21,27,,,,,,,,,1.1,0.6,0.9*26
###2023-12-09 12:47:02.958088$GBGSA,A,3,14,24,25,26,33,,,,,,,,1.1,0.6,0.9*2F
###2023-12-09 12:47:02.960913$GPGSV,2,1,08,03,37,270,42,04,26,311,41,16,42,209,46,26,72,208,48*7F
###2023-12-09 12:47:02.963756$GPGSV,2,2,08,28,54,062,45,29,26,068,42,31,72,018,48,32,25,137,43*7E
###2023-12-09 12:47:02.966592$GLGSV,2,1,06,65,17,329,42,71,49,171,45,72,70,294,44,73,42,037,46*6F
###2023-12-09 12:47:02.968712$GLGSV,2,2,06,74,71,314,42,75,26,245,43,,,,,,,,*64
###2023-12-09 12:47:02.971556$GAGSV,1,1,04,04,24,312,41,19,84,276,40,21,82,165,46,27,38,049,45*63
###2023-12-09 12:47:02.974382$GBGSV,2,1,05,14,50,195,44,24,78,008,48,25,36,257,44,26,31,060,43*68
###2023-12-09 12:47:02.976206$GBGSV,2,2,05,33,61,243,47,,,,,,,,,,,,*5F
###2023-12-09 12:47:02.977814$GNVTG,243.35,T,,M,2.90,N,5.36,K,A*2B
###2023-12-09 12:47:02.979818$GNGST,174702.10,18.000,,,,0.079,0.070,0.160*56
###2023-12-09 12:47:02.981387$GNZDA,174702.10,09,12,2023,00,00*77
###2023-12-09 12:47:02.982162$GNEBP,,,,,,M*13
###2023-12-09 12:47:03.145309$GNGGA,174702.30,4138.0463791,N,07032.3967316,W,1,24,0.6,13.457,M,-29.745,M,0.0,*57
###2023-12-09 12:47:03.347024$GNGGA,174702.50,4138.0462926,N,07032.3969173,W,1,24,0.6,13.451,M,-29.745,M,0.0,*5B
###2023-12-09 12:47:03.547399$GNGGA,174702.70,4138.0462228,N,07032.3971151,W,1,24,0.6,13.447,M,-29.745,M,0.0,*52
###2023-12-09 12:47:03.747109$GNGGA,174702.90,4138.0461796,N,07032.3973161,W,1,24,0.6,13.453,M,-29.745,M,0.0,*5B
###2023-12-09 12:47:03.945782$GNRMC,174703.10,A,4138.0461529,N,07032.3975167,W,2.70,260.58,091223,,,A*5F
###2023-12-09 12:47:03.948674$GNGGA,174703.10,4138.0461529,N,07032.3975167,W,1,24,0.6,13.446,M,-29.745,M,0.0,*50
###2023-12-09 12:47:03.950544$GPGSA,A,3,03,04,16,26,28,29,31,32,,,,,1.1,0.6,0.9*3B
###2023-12-09 12:47:03.952274$GLGSA,A,3,65,71,72,73,74,75,,,,,,,1.1,0.6,0.9*24
###2023-12-09 12:47:03.953851$GAGSA,A,3,04,19,21,27,,,,,,,,,1.1,0.6,0.9*26
###2023-12-09 12:47:03.955520$GBGSA,A,3,14,24,25,26,33,,,,,,,,1.1,0.6,0.9*2F
###2023-12-09 12:47:03.957856$GPGSV,2,1,08,03,37,270,44,04,26,311,38,16,42,209,45,26,72,208,47*7B
###2023-12-09 12:47:03.960204$GPGSV,2,2,08,28,54,062,45,29,26,068,42,31,72,018,47,32,25,137,43*71
###2023-12-09 12:47:03.962539$GLGSV,2,1,06,65,17,329,41,71,49,171,47,72,70,294,44,73,42,037,47*6F
###2023-12-09 12:47:03.964299$GLGSV,2,2,06,74,71,314,42,75,27,246,42,,,,,,,,*67
###2023-12-09 12:47:03.966643$GAGSV,1,1,04,04,24,312,37,19,84,276,40,21,82,165,46,27,38,049,43*64
###2023-12-09 12:47:03.968980$GBGSV,2,1,05,14,50,195,44,24,78,008,49,25,36,257,44,26,31,060,42*68
###2023-12-09 12:47:03.970433$GBGSV,2,2,05,33,61,243,47,,,,,,,,,,,,*5F
###2023-12-09 12:47:03.971767$GNVTG,260.58,T,,M,2.70,N,5.00,K,A*2A
###2023-12-09 12:47:03.973412$GNGST,174703.10,18.000,,,,0.079,0.070,0.160*57
###2023-12-09 12:47:03.974714$GNZDA,174703.10,09,12,2023,00,00*76
###2023-12-09 12:47:03.975354$GNEBP,,,,,,M*13
###2023-12-09 12:47:04.145588$GNGGA,174703.30,4138.0461271,N,07032.3977124,W,1,24,0.6,13.442,M,-29.745,M,0.0,*59
###2023-12-09 12:47:04.346089$GNGGA,174703.50,4138.0460933,N,07032.3979032,W,1,24,0.6,13.432,M,-29.745,M,0.0,*5C
###2023-12-09 12:47:04.546618$GNGGA,174703.70,4138.0460743,N,07032.3980919,W,1,24,0.6,13.421,M,-29.745,M,0.0,*53
###2023-12-09 12:47:04.745814$GNGGA,174703.90,4138.0460821,N,07032.3982715,W,1,24,0.6,13.424,M,-29.745,M,0.0,*53
###2023-12-09 12:47:04.944716$GNRMC,174704.10,A,4138.0461016,N,07032.3984454,W,2.33,279.83,091223,,,A*53
###2023-12-09 12:47:04.947611$GNGGA,174704.10,4138.0461016,N,07032.3984454,W,1,24,0.6,13.427,M,-29.745,M,0.0,*52
###2023-12-09 12:47:04.949484$GPGSA,A,3,03,04,16,26,28,29,31,32,,,,,1.1,0.6,0.9*3B
###2023-12-09 12:47:04.951215$GLGSA,A,3,65,71,72,73,74,75,,,,,,,1.1,0.6,0.9*24
###2023-12-09 12:47:04.952805$GAGSA,A,3,04,19,21,27,,,,,,,,,1.1,0.6,0.9*26
###2023-12-09 12:47:04.954460$GBGSA,A,3,14,24,25,26,33,,,,,,,,1.1,0.6,0.9*2F
###2023-12-09 12:47:04.956806$GPGSV,2,1,08,03,37,270,41,04,26,311,40,16,42,209,46,26,72,208,48*7D
###2023-12-09 12:47:04.959166$GPGSV,2,2,08,28,54,062,45,29,26,068,41,31,72,018,48,32,25,137,45*7B
###2023-12-09 12:47:04.961504$GLGSV,2,1,06,65,17,329,38,71,49,171,48,72,70,294,44,73,42,037,47*6E
###2023-12-09 12:47:04.963271$GLGSV,2,2,06,74,71,314,42,75,27,246,43,,,,,,,,*66
###2023-12-09 12:47:04.965605$GAGSV,1,1,04,04,24,312,38,19,84,276,40,21,82,165,46,27,38,049,44*6C
###2023-12-09 12:47:04.967954$GBGSV,2,1,05,14,50,195,45,24,78,008,48,25,36,257,45,26,31,060,43*68
###2023-12-09 12:47:04.969414$GBGSV,2,2,05,33,61,243,48,,,,,,,,,,,,*50
###2023-12-09 12:47:04.970751$GNVTG,279.83,T,,M,2.33,N,4.32,K,A*23
###2023-12-09 12:47:04.972401$GNGST,174704.10,18.000,,,,0.080,0.071,0.160*57
###2023-12-09 12:47:04.973694$GNZDA,174704.10,09,12,2023,00,00*71
###2023-12-09 12:47:04.974337$GNEBP,,,,,,M*13
###2023-12-09 12:47:05.146686$GNGGA,174704.30,4138.0461201,N,07032.3986153,W,1,24,0.6,13.430,M,-29.745,M,0.0,*52
###2023-12-09 12:47:05.344880$GNGGA,174704.50,4138.0461376,N,07032.3987847,W,1,24,0.6,13.421,M,-29.745,M,0.0,*58
###2023-12-09 12:47:05.544963$GNGGA,174704.70,4138.0461659,N,07032.3989496,W,1,24,0.6,13.414,M,-29.745,M,0.0,*5A
###2023-12-09 12:47:05.744807$GNGGA,174704.90,4138.0462109,N,07032.3991023,W,1,24,0.6,13.411,M,-29.745,M,0.0,*53
###2023-12-09 12:47:05.944730$GNRMC,174705.10,A,4138.0462616,N,07032.3992468,W,2.18,295.82,091223,,,A*55
###2023-12-09 12:47:05.947643$GNGGA,174705.10,4138.0462616,N,07032.3992468,W,1,24,0.6,13.413,M,-29.745,M,0.0,*59
###2023-12-09 12:47:05.949520$GPGSA,A,3,03,04,16,26,28,29,31,32,,,,,1.1,0.6,0.9*3B
###2023-12-09 12:47:05.951257$GLGSA,A,3,65,71,72,73,74,75,,,,,,,1.1,0.6,0.9*24
###2023-12-09 12:47:05.952851$GAGSA,A,3,04,19,21,27,,,,,,,,,1.1,0.6,0.9*26
###2023-12-09 12:47:05.954502$GBGSA,A,3,14,24,25,26,33,,,,,,,,1.1,0.6,0.9*2F
###2023-12-09 12:47:05.956855$GPGSV,2,1,08,03,37,270,45,04,26,311,40,16,42,209,46,26,72,208,48*79
###2023-12-09 12:47:05.959219$GPGSV,2,2,08,28,54,062,46,29,26,068,42,31,72,018,48,32,25,137,43*7D
###2023-12-09 12:47:05.961563$GLGSV,2,1,06,65,17,329,39,71,49,171,47,72,70,294,45,73,42,037,46*60
###2023-12-09 12:47:05.963329$GLGSV,2,2,06,74,71,314,42,75,27,246,43,,,,,,,,*66
###2023-12-09 12:47:05.965660$GAGSV,1,1,04,04,24,312,36,19,84,276,40,21,82,165,46,27,38,049,45*63
###2023-12-09 12:47:05.968013$GBGSV,2,1,05,14,50,195,45,24,78,008,48,25,36,257,46,26,31,060,43*6B
###2023-12-09 12:47:05.969466$GBGSV,2,2,05,33,61,243,47,,,,,,,,,,,,*5F
###2023-12-09 12:47:05.970799$GNVTG,295.82,T,,M,2.18,N,4.03,K,A*2B
###2023-12-09 12:47:05.972452$GNGST,174705.10,18.000,,,,0.079,0.070,0.160*51
###2023-12-09 12:47:05.973744$GNZDA,174705.10,09,12,2023,00,00*70
###2023-12-09 12:47:05.974387$GNEBP,,,,,,M*13
###2023-12-09 12:47:06.144622$GNGGA,174705.30,4138.0463112,N,07032.3993918,W,1,24,0.6,13.410,M,-29.745,M,0.0,*51
###2023-12-09 12:47:06.345830$GNGGA,174705.50,4138.0463603,N,07032.3995372,W,1,24,0.6,13.404,M,-29.745,M,0.0,*55
###2023-12-09 12:47:06.545006$GNGGA,174705.70,4138.0464195,N,07032.3996741,W,1,24,0.6,13.400,M,-29.745,M,0.0,*5B
###2023-12-09 12:47:06.745365$GNGGA,174705.90,4138.0464870,N,07032.3997923,W,1,24,0.6,13.401,M,-29.745,M,0.0,*5D
###2023-12-09 12:47:06.945677$GNRMC,174706.10,A,4138.0465593,N,07032.3999025,W,2.00,312.53,091223,,,A*52
###2023-12-09 12:47:06.948566$GNGGA,174706.10,4138.0465593,N,07032.3999025,W,1,24,0.6,13.402,M,-29.745,M,0.0,*55
###2023-12-09 12:47:06.950433$GPGSA,A,3,03,04,16,26,28,29,31,32,,,,,1.1,0.6,0.9*3B
###2023-12-09 12:47:06.952170$GLGSA,A,3,65,71,72,73,74,75,,,,,,,1.1,0.6,0.9*24
###2023-12-09 12:47:06.953985$GAGSA,A,3,04,19,21,27,,,,,,,,,1.1,0.6,0.9*26
###2023-12-09 12:47:06.955670$GBGSA,A,3,14,24,25,26,33,,,,,,,,1.1,0.6,0.9*2F
###2023-12-09 12:47:06.958006$GPGSV,2,1,08,03,37,270,44,04,26,311,41,16,42,209,46,26,72,208,48*79
###2023-12-09 12:47:06.960363$GPGSV,2,2,08,28,54,062,46,29,26,068,43,31,72,018,47,32,25,137,43*73
###2023-12-09 12:47:06.962751$GLGSV,2,1,06,65,17,329,39,71,49,171,47,72,70,294,45,73,42,037,46*60
###2023-12-09 12:47:06.964499$GLGSV,2,2,06,74,71,314,41,75,27,246,46,,,,,,,,*60
###2023-12-09 12:47:06.966825$GAGSV,1,1,04,04,24,312,41,19,84,276,40,21,82,165,46,27,38,049,44*62
###2023-12-09 12:47:06.969152$GBGSV,2,1,05,14,50,195,44,24,78,008,48,25,36,257,44,26,31,060,44*6F
###2023-12-09 12:47:06.970612$GBGSV,2,2,05,33,61,243,48,,,,,,,,,,,,*50
###2023-12-09 12:47:06.971938$GNVTG,312.53,T,,M,2.00,N,3.71,K,A*22
