###2023-12-09 13:24:20.997201$GNRMC,182420.10,A,4138.0731324,N,07032.3887615,W,2.82,208.93,091223,,,A*53
###2023-12-09 13:24:21.000095$GNGGA,182420.10,4138.0731324,N,07032.3887615,W,1,24,0.6,13.028,M,-29.744,M,0.0,*55
###2023-12-09 13:24:21.001889$GPGSA,A,3,03,04,16,26,28,29,31,,,,,,1.1,0.6,0.9*3A
###2023-12-09 13:24:21.003620$GLGSA,A,3,65,71,72,73,74,75,,,,,,,1.1,0.6,0.9*24
###2023-12-09 13:24:21.005199$GAGSA,A,3,04,19,21,27,,,,,,,,,1.1,0.6,0.9*26
###2023-12-09 13:24:21.006923$GBGSA,A,3,14,24,25,26,33,35,,,,,,,1.1,0.6,0.9*29
###2023-12-09 13:24:21.009239$GPGSV,2,1,07,03,30,251,41,04,42,310,45,16,61,218,45,26,89,050,48*79
###2023-12-09 13:24:21.011276$GPGSV,2,2,07,28,41,080,45,29,22,051,43,31,63,058,48,,,,*46
###2023-12-09 13:24:21.013592$GLGSV,2,1,06,65,34,323,43,71,29,175,40,72,68,232,45,73,27,049,43*69
###2023-12-09 13:24:21.015340$GLGSV,2,2,06,74,63,004,43,75,40,265,47,,,,,,,,*62
###2023-12-09 13:24:21.017647$GAGSV,1,1,04,04,36,311,45,19,76,185,40,21,80,052,46,27,26,049,41*69
###2023-12-09 13:24:21.019973$GBGSV,2,1,06,14,34,191,43,24,66,040,49,25,47,271,47,26,19,068,44*6C
###2023-12-09 13:24:21.021711$GBGSV,2,2,06,33,50,221,46,35,16,061,44,,,,,,,,*6D
###2023-12-09 13:24:21.023037$GNVTG,208.93,T,,M,2.82,N,5.22,K,A*2E
###2023-12-09 13:24:21.024678$GNGST,182420.10,18.000,,,,0.100,0.073,0.170*51
###2023-12-09 13:24:21.025963$GNZDA,182420.10,09,12,2023,00,00*7D
###2023-12-09 13:24:21.026610$GNEBP,,,,,,M*13
###2023-12-09 13:24:21.188288$GNGGA,182420.30,4138.0729915,N,07032.3888556,W,1,24,0.6,13.018,M,-29.744,M,0.0,*5E
###2023-12-09 13:24:21.382492$GNGGA,182420.50,4138.0728458,N,07032.3889664,W,1,24,0.6,13.013,M,-29.744,M,0.0,*55
###2023-12-09 13:24:21.584484$GNGGA,182420.70,4138.0726981,N,07032.3890593,W,1,24,0.6,12.996,M,-29.744,M,0.0,*56
###2023-12-09 13:24:21.784606$GNGGA,182420.90,4138.0725541,N,07032.3891484,W,1,24,0.6,13.024,M,-29.744,M,0.0,*5C
###2023-12-09 13:24:21.989400$GNRMC,182421.10,A,4138.0724022,N,07032.3892669,W,3.11,206.81,091223,,,A*5A
###2023-12-09 13:24:21.992301$GNGGA,182421.10,4138.0724022,N,07032.3892669,W,1,24,0.6,13.064,M,-29.744,M,0.0,*52
###2023-12-09 13:24:21.994094$GPGSA,A,3,03,04,16,26,28,29,31,,,,,,1.1,0.6,0.9*3A
###2023-12-09 13:24:21.995819$GLGSA,A,3,65,71,72,73,74,75,,,,,,,1.1,0.6,0.9*24
###2023-12-09 13:24:21.997398$GAGSA,A,3,04,19,21,27,,,,,,,,,1.1,0.6,0.9*26
###2023-12-09 13:24:21.999116$GBGSA,A,3,14,24,25,26,33,35,,,,,,,1.1,0.6,0.9*29
###2023-12-09 13:24:22.001428$GPGSV,2,1,07,03,30,251,42,04,42,310,46,16,61,218,45,26,89,050,48*79
###2023-12-09 13:24:22.003471$GPGSV,2,2,07,28,41,080,44,29,22,051,40,31,63,058,47,,,,*4B
###2023-12-09 13:24:22.005804$GLGSV,2,1,06,65,34,323,43,71,29,175,42,72,68,232,46,73,27,049,42*69
###2023-12-09 13:24:22.007568$GLGSV,2,2,06,74,63,004,42,75,40,265,47,,,,,,,,*63
###2023-12-09 13:24:22.009883$GAGSV,1,1,04,04,36,311,44,19,76,185,40,21,80,052,45,27,26,049,39*64
###2023-12-09 13:24:22.012208$GBGSV,2,1,06,14,33,190,42,24,66,040,48,25,47,271,48,26,19,068,42*63
###2023-12-09 13:24:22.013951$GBGSV,2,2,06,33,50,221,47,35,16,061,43,,,,,,,,*6B
###2023-12-09 13:24:22.015325$GNVTG,206.81,T,,M,3.11,N,5.76,K,A*29
###2023-12-09 13:24:22.016965$GNGST,182421.10,18.000,,,,0.100,0.073,0.170*50
###2023-12-09 13:24:22.018248$GNZDA,182421.10,09,12,2023,00,00*7C
###2023-12-09 13:24:22.018896$GNEBP,,,,,,M*13
###2023-12-09 13:24:22.184335$GNGGA,182421.30,4138.0722417,N,07032.3893178,W,1,24,0.6,13.016,M,-29.744,M,0.0,*57
###2023-12-09 13:24:22.383671$GNGGA,182421.50,4138.0720912,N,07032.3893180,W,1,24,0.6,12.976,M,-29.744,M,0.0,*52
###2023-12-09 13:24:22.584297$GNGGA,182421.70,4138.0719300,N,07032.3893979,W,1,24,0.6,13.034,M,-29.744,M,0.0,*53
###2023-12-09 13:24:22.784508$GNGGA,182421.90,4138.0717576,N,07032.3894954,W,1,24,0.6,13.033,M,-29.744,M,0.0,*5B
###2023-12-09 13:24:22.990649$GNRMC,182422.10,A,4138.0715979,N,07032.3894948,W,2.74,165.92,091223,,,A*50
###2023-12-09 13:24:22.993521$GNGGA,182422.10,4138.0715979,N,07032.3894948,W,1,24,0.6,13.011,M,-29.744,M,0.0,*5C
###2023-12-09 13:24:22.995366$GPGSA,A,3,03,04,16,26,28,29,31,,,,,,1.1,0.6,0.9*3A
###2023-12-09 13:24:22.997083$GLGSA,A,3,65,71,72,73,74,75,,,,,,,1.1,0.6,0.9*24
###2023-12-09 13:24:22.998676$GAGSA,A,3,04,19,21,27,,,,,,,,,1.1,0.6,0.9*26
###2023-12-09 13:24:23.000383$GBGSA,A,3,14,24,25,26,33,35,,,,,,,1.1,0.6,0.9*29
###2023-12-09 13:24:23.002719$GPGSV,2,1,07,03,30,251,44,04,42,310,45,16,61,218,46,26,89,050,48*7F
###2023-12-09 13:24:23.004760$GPGSV,2,2,07,28,41,080,44,29,22,051,41,31,63,058,45,,,,*48
###2023-12-09 13:24:23.007133$GLGSV,2,1,06,65,34,323,43,71,29,175,43,72,68,232,46,73,27,049,41*6B
###2023-12-09 13:24:23.008880$GLGSV,2,2,06,74,63,004,42,75,40,265,49,,,,,,,,*6D
###2023-12-09 13:24:23.011205$GAGSV,1,1,04,04,36,311,43,19,76,185,40,21,80,052,45,27,26,049,39*63
###2023-12-09 13:24:23.013536$GBGSV,2,1,06,14,33,190,42,24,66,040,48,25,47,271,48,26,19,068,39*6F
###2023-12-09 13:24:23.015283$GBGSV,2,2,06,33,50,221,48,35,16,061,42,,,,,,,,*65
###2023-12-09 13:24:23.016606$GNVTG,165.92,T,,M,2.74,N,5.08,K,A*26
###2023-12-09 13:24:23.018250$GNGST,182422.10,18.000,,,,0.100,0.073,0.170*53
###2023-12-09 13:24:23.019546$GNZDA,182422.10,09,12,2023,00,00*7F
###2023-12-09 13:24:23.020187$GNEBP,,,,,,M*13
###2023-12-09 13:24:23.185353$GNGGA,182422.30,4138.0714495,N,07032.3894372,W,1,24,0.6,12.990,M,-29.744,M,0.0,*52
###2023-12-09 13:24:23.384523$GNGGA,182422.50,4138.0712818,N,07032.3894429,W,1,24,0.6,13.017,M,-29.744,M,0.0,*55
###2023-12-09 13:24:23.585523$GNGGA,182422.70,4138.0710963,N,07032.3894916,W,1,24,0.6,13.030,M,-29.744,M,0.0,*5C
###2023-12-09 13:24:23.785428$GNGGA,182422.90,4138.0709346,N,07032.3894780,W,1,24,0.6,13.008,M,-29.744,M,0.0,*5D
###2023-12-09 13:24:23.988334$GNRMC,182423.10,A,4138.0707906,N,07032.3894074,W,2.97,155.51,091223,,,A*5D
###2023-12-09 13:24:23.991203$GNGGA,182423.10,4138.0707906,N,07032.3894074,W,1,24,0.6,13.030,M,-29.744,M,0.0,*53
###2023-12-09 13:24:23.992991$GPGSA,A,3,03,04,16,26,28,29,31,,,,,,1.1,0.6,0.9*3A
###2023-12-09 13:24:23.994710$GLGSA,A,3,65,71,72,73,74,75,,,,,,,1.1,0.6,0.9*24
###2023-12-09 13:24:23.996280$GAGSA,A,3,04,19,21,27,,,,,,,,,1.1,0.6,0.9*26
###2023-12-09 13:24:23.997978$GBGSA,A,3,14,24,25,26,33,35,,,,,,,1.1,0.6,0.9*29
###2023-12-09 13:24:24.000341$GPGSV,2,1,07,03,30,251,44,04,42,310,45,16,61,218,46,26,89,050,48*7F
###2023-12-09 13:24:24.002367$GPGSV,2,2,07,28,41,080,43,29,22,051,42,31,63,058,47,,,,*4E
###2023-12-09 13:24:24.004702$GLGSV,2,1,06,65,34,323,45,71,29,175,41,72,68,232,46,73,27,049,44*6A
###2023-12-09 13:24:24.006443$GLGSV,2,2,06,74,63,004,43,75,40,265,48,,,,,,,,*6D
###2023-12-09 13:24:24.008772$GAGSV,1,1,04,04,36,311,42,19,76,185,40,21,80,052,46,27,26,049,41*6E
###2023-12-09 13:24:24.011097$GBGSV,2,1,06,14,33,190,41,24,66,040,49,25,47,271,49,26,19,068,46*64
###2023-12-09 13:24:24.012835$GBGSV,2,2,06,33,50,221,47,35,16,061,46,,,,,,,,*6E
###2023-12-09 13:24:24.014149$GNVTG,155.51,T,,M,2.97,N,5.51,K,A*2B
###2023-12-09 13:24:24.015791$GNGST,182423.10,18.000,,,,0.100,0.072,0.170*53
###2023-12-09 13:24:24.017075$GNZDA,182423.10,09,12,2023,00,00*7E
###2023-12-09 13:24:24.017708$GNEBP,,,,,,M*13
###2023-12-09 13:24:24.186762$GNGGA,182423.30,4138.0706300,N,07032.3893364,W,1,24,0.6,12.997,M,-29.744,M,0.0,*5C
###2023-12-09 13:24:24.384825$GNGGA,182423.50,4138.0704760,N,07032.3893054,W,1,24,0.6,12.987,M,-29.744,M,0.0,*5B
###2023-12-09 13:24:24.584678$GNGGA,182423.70,4138.0703068,N,07032.3892735,W,1,24,0.6,13.025,M,-29.744,M,0.0,*50
###2023-12-09 13:24:24.786801$GNGGA,182423.90,4138.0701461,N,07032.3892022,W,1,24,0.6,13.014,M,-29.744,M,0.0,*52
###2023-12-09 13:24:24.988352$GNRMC,182424.10,A,4138.0700203,N,07032.3890951,W,2.57,141.75,091223,,,A*56
###2023-12-09 13:24:24.991249$GNGGA,182424.10,4138.0700203,N,07032.3890951,W,1,24,0.6,12.992,M,-29.744,M,0.0,*57
###2023-12-09 13:24:24.993037$GPGSA,A,3,03,04,16,26,28,29,31,,,,,,1.1,0.6,0.9*3A
###2023-12-09 13:24:24.994750$GLGSA,A,3,65,71,72,73,74,75,,,,,,,1.1,0.6,0.9*24
###2023-12-09 13:24:24.996330$GAGSA,A,3,04,19,21,27,,,,,,,,,1.1,0.6,0.9*26
###2023-12-09 13:24:24.998030$GBGSA,A,3,14,24,25,26,33,35,,,,,,,1.1,0.6,0.9*29
###2023-12-09 13:24:25.000361$GPGSV,2,1,07,03,30,251,42,04,42,310,45,16,61,218,46,26,89,050,48*79
###2023-12-09 13:24:25.002653$GPGSV,2,2,07,28,41,080,42,29,22,051,44,31,63,058,47,,,,*49
###2023-12-09 13:24:25.004989$GLGSV,2,1,06,65,34,323,44,71,29,175,43,72,68,232,47,73,27,049,45*69
###2023-12-09 13:24:25.006751$GLGSV,2,2,06,74,63,004,42,75,40,265,47,,,,,,,,*63
###2023-12-09 13:24:25.009068$GAGSV,1,1,04,04,36,311,43,19,76,185,40,21,80,051,46,27,26,049,42*6F
###2023-12-09 13:24:25.011407$GBGSV,2,1,06,14,33,190,42,24,66,040,48,25,47,271,47,26,19,068,45*6B
###2023-12-09 13:24:25.013149$GBGSV,2,2,06,33,50,221,47,35,16,061,45,,,,,,,,*6D
###2023-12-09 13:24:25.014471$GNVTG,141.75,T,,M,2.57,N,4.75,K,A*23
###2023-12-09 13:24:25.016131$GNGST,182424.10,18.000,,,,0.100,0.072,0.170*54
###2023-12-09 13:24:25.017420$GNZDA,182424.10,09,12,2023,00,00*79
