###2023-12-09 12:24:12.926820$GAGSA,A,3,04,21,27,,,,,,,,,,1.3,0.8,1.1*2B
###2023-12-09 12:24:12.928619$GBGSA,A,3,14,25,26,33,,,,,,,,,1.3,0.8,1.1*2C
###2023-12-09 12:24:12.931147$GPGSV,2,1,07,03,39,283,42,16,31,206,43,25,16,045,42,26,61,205,45*7F
###2023-12-09 12:24:12.933222$GPGSV,2,2,07,28,62,049,41,29,24,079,45,32,35,131,46,,,,*4C
###2023-12-09 12:24:12.935601$GLGSV,1,1,04,71,63,167,46,72,61,317,36,73,53,030,48,75,18,237,42*64
###2023-12-09 12:24:12.937674$GAGSV,1,1,03,04,17,310,37,21,73,180,46,27,45,051,46,,,,*51
###2023-12-09 12:24:12.940061$GBGSV,1,1,04,14,60,201,45,25,29,249,41,26,39,055,47,33,64,265,38*6D
###2023-12-09 12:24:12.941218$GNVTG,,T,,M,0.04,N,0.07,K,A*3E
###2023-12-09 12:24:12.942904$GNGST,172412.10,32.000,,,,0.100,0.100,0.230*55
###2023-12-09 12:24:12.944219$GNZDA,172412.10,09,12,2023,00,00*73
###2023-12-09 12:24:12.944872$GNEBP,,,,,,M*13
###2023-12-09 12:24:13.118339$GNGGA,172412.30,4138.0392813,N,07032.4361108,W,1,18,0.8,13.677,M,-29.746,M,0.0,*5B
###2023-12-09 12:24:13.314376$GNGGA,172412.50,4138.0392770,N,07032.4361114,W,1,18,0.8,13.657,M,-29.746,M,0.0,*58
###2023-12-09 12:24:13.514150$GNGGA,172412.70,4138.0392752,N,07032.4361135,W,1,18,0.8,13.635,M,-29.746,M,0.0,*5D
###2023-12-09 12:24:13.714357$GNGGA,172412.90,4138.0392723,N,07032.4361146,W,1,18,0.8,13.616,M,-29.746,M,0.0,*50
###2023-12-09 12:24:13.915374$GNRMC,172413.10,A,4138.0392710,N,07032.4361176,W,0.04,,091223,,,A*46
###2023-12-09 12:24:13.918234$GNGGA,172413.10,4138.0392710,N,07032.4361176,W,1,18,0.8,13.594,M,-29.746,M,0.0,*53
###2023-12-09 12:24:13.920060$GPGSA,A,3,03,16,25,26,28,29,32,,,,,,1.3,0.8,1.1*3F
###2023-12-09 12:24:13.921658$GLGSA,A,3,71,72,73,75,,,,,,,,,1.3,0.8,1.1*21
###2023-12-09 12:24:13.923198$GAGSA,A,3,04,21,27,,,,,,,,,,1.3,0.8,1.1*2B
###2023-12-09 12:24:13.924786$GBGSA,A,3,14,25,26,33,,,,,,,,,1.3,0.8,1.1*2C
###2023-12-09 12:24:13.927130$GPGSV,2,1,07,03,39,283,41,16,31,206,42,25,16,045,41,26,61,205,45*7E
###2023-12-09 12:24:13.929175$GPGSV,2,2,07,28,62,049,40,29,24,079,44,32,35,131,45,,,,*4F
###2023-12-09 12:24:13.931518$GLGSV,1,1,04,71,63,167,46,72,61,317,36,73,53,030,47,75,18,237,42*6B
###2023-12-09 12:24:13.933564$GAGSV,1,1,03,04,17,310,36,21,73,180,46,27,45,051,46,,,,*50
###2023-12-09 12:24:13.935910$GBGSV,1,1,04,14,60,201,45,25,29,249,41,26,39,055,47,33,64,265,38*6D
###2023-12-09 12:24:13.937057$GNVTG,,T,,M,0.04,N,0.07,K,A*3E
###2023-12-09 12:24:13.938727$GNGST,172413.10,32.000,,,,0.100,0.100,0.230*54
###2023-12-09 12:24:13.940052$GNZDA,172413.10,09,12,2023,00,00*72
###2023-12-09 12:24:13.940718$GNEBP,,,,,,M*13
###2023-12-09 12:24:14.115629$GNGGA,172413.30,4138.0392685,N,07032.4361199,W,1,18,0.8,13.577,M,-29.746,M,0.0,*50
###2023-12-09 12:24:14.313417$GNGGA,172413.50,4138.0392670,N,07032.4361223,W,1,18,0.8,13.561,M,-29.746,M,0.0,*59
###2023-12-09 12:24:14.513393$GNGGA,172413.70,4138.0392651,N,07032.4361254,W,1,18,0.8,13.541,M,-29.746,M,0.0,*5A
###2023-12-09 12:24:14.712312$GNGGA,172413.90,4138.0392627,N,07032.4361279,W,1,18,0.8,13.517,M,-29.746,M,0.0,*59
###2023-12-09 12:24:14.919757$GNRMC,172414.10,A,4138.0392613,N,07032.4361313,W,0.02,,091223,,,A*44
###2023-12-09 12:24:14.922650$GNGGA,172414.10,4138.0392613,N,07032.4361313,W,1,18,0.8,13.499,M,-29.746,M,0.0,*5B
###2023-12-09 12:24:14.924464$GPGSA,A,3,03,16,25,26,28,29,32,,,,,,1.3,0.8,1.1*3F
###2023-12-09 12:24:14.926067$GLGSA,A,3,71,72,73,75,,,,,,,,,1.3,0.8,1.1*21
###2023-12-09 12:24:14.927622$GAGSA,A,3,04,21,27,,,,,,,,,,1.3,0.8,1.1*2B
###2023-12-09 12:24:14.929221$GBGSA,A,3,14,25,26,33,,,,,,,,,1.3,0.8,1.1*2C
###2023-12-09 12:24:14.931580$GPGSV,2,1,07,03,39,283,41,16,31,206,42,25,16,045,42,26,61,205,45*7D
###2023-12-09 12:24:14.933640$GPGSV,2,2,07,28,62,049,40,29,24,079,44,32,35,131,46,,,,*4C
###2023-12-09 12:24:14.936009$GLGSV,1,1,04,71,63,167,46,72,61,317,36,73,53,030,47,75,18,237,42*6B
###2023-12-09 12:24:14.938068$GAGSV,1,1,03,04,17,310,36,21,73,180,46,27,45,051,46,,,,*50
###2023-12-09 12:24:14.940436$GBGSV,1,1,04,14,60,201,45,25,29,249,41,26,39,055,47,33,64,265,38*6D
###2023-12-09 12:24:14.941585$GNVTG,,T,,M,0.02,N,0.04,K,A*3B
###2023-12-09 12:24:14.943264$GNGST,172414.10,32.000,,,,0.100,0.100,0.230*53
###2023-12-09 12:24:14.944574$GNZDA,172414.10,09,12,2023,00,00*75
###2023-12-09 12:24:14.945234$GNEBP,,,,,,M*13
###2023-12-09 12:24:15.115376$GNGGA,172414.30,4138.0392589,N,07032.4361358,W,1,18,0.8,13.475,M,-29.746,M,0.0,*54
###2023-12-09 12:24:15.314296$GNGGA,172414.50,4138.0392582,N,07032.4361399,W,1,18,0.8,13.460,M,-29.746,M,0.0,*50
###2023-12-09 12:24:15.513157$GNGGA,172414.70,4138.0392582,N,07032.4361460,W,1,18,0.8,13.441,M,-29.746,M,0.0,*50
###2023-12-09 12:24:15.713314$GNGGA,172414.90,4138.0392568,N,07032.4361509,W,1,18,0.8,13.427,M,-29.746,M,0.0,*54
###2023-12-09 12:24:15.913442$GNRMC,172415.10,A,4138.0392550,N,07032.4361553,W,0.02,,091223,,,A*43
###2023-12-09 12:24:15.916542$GNGGA,172415.10,4138.0392550,N,07032.4361553,W,1,18,0.8,13.409,M,-29.746,M,0.0,*55
###2023-12-09 12:24:15.918348$GPGSA,A,3,03,16,25,26,28,29,32,,,,,,1.3,0.8,1.1*3F
###2023-12-09 12:24:15.919970$GLGSA,A,3,71,72,73,75,,,,,,,,,1.3,0.8,1.1*21
###2023-12-09 12:24:15.921500$GAGSA,A,3,04,21,27,,,,,,,,,,1.3,0.8,1.1*2B
###2023-12-09 12:24:15.923114$GBGSA,A,3,14,25,26,33,,,,,,,,,1.3,0.8,1.1*2C
###2023-12-09 12:24:15.925454$GPGSV,2,1,07,03,39,283,41,16,31,206,42,25,16,045,42,26,61,205,44*7C
###2023-12-09 12:24:15.927537$GPGSV,2,2,07,28,62,049,40,29,24,079,45,32,35,131,46,,,,*4D
###2023-12-09 12:24:15.929892$GLGSV,1,1,04,71,63,167,46,72,61,317,36,73,53,030,47,75,18,237,42*6B
###2023-12-09 12:24:15.931967$GAGSV,1,1,03,04,17,310,37,21,73,180,46,27,45,051,46,,,,*51
###2023-12-09 12:24:15.934309$GBGSV,1,1,04,14,60,201,45,25,29,249,41,26,39,055,47,33,64,265,38*6D
###2023-12-09 12:24:15.935471$GNVTG,,T,,M,0.02,N,0.04,K,A*3B
###2023-12-09 12:24:15.937132$GNGST,172415.10,32.000,,,,0.110,0.100,0.230*53
###2023-12-09 12:24:15.938436$GNZDA,172415.10,09,12,2023,00,00*74
###2023-12-09 12:24:15.939102$GNEBP,,,,,,M*13
###2023-12-09 12:24:16.114406$GNGGA,172415.30,4138.0392546,N,07032.4361595,W,1,18,0.8,13.389,M,-29.746,M,0.0,*55
###2023-12-09 12:24:16.315358$GNGGA,172415.50,4138.0392526,N,07032.4361633,W,1,18,0.8,13.372,M,-29.746,M,0.0,*5E
###2023-12-09 12:24:16.518132$GNGGA,172415.70,4138.0392514,N,07032.4361663,W,1,18,0.8,13.359,M,-29.746,M,0.0,*51
###2023-12-09 12:24:16.717782$GNGGA,172415.90,4138.0392493,N,07032.4361702,W,1,18,0.8,13.340,M,-29.746,M,0.0,*5F
###2023-12-09 12:24:16.919109$GNRMC,172416.10,A,4138.0392488,N,07032.4361736,W,0.02,,091223,,,A*45
###2023-12-09 12:24:16.921993$GNGGA,172416.10,4138.0392488,N,07032.4361736,W,1,18,0.8,13.324,M,-29.746,M,0.0,*5B
###2023-12-09 12:24:16.923822$GPGSA,A,3,03,16,25,26,28,29,32,,,,,,1.3,0.8,1.1*3F
###2023-12-09 12:24:16.925421$GLGSA,A,3,71,72,73,75,,,,,,,,,1.3,0.8,1.1*21
###2023-12-09 12:24:16.926968$GAGSA,A,3,04,21,27,,,,,,,,,,1.3,0.8,1.1*2B
###2023-12-09 12:24:16.928560$GBGSA,A,3,14,25,26,33,,,,,,,,,1.3,0.8,1.1*2C
###2023-12-09 12:24:16.930907$GPGSV,2,1,07,03,39,283,41,16,32,206,42,25,16,045,42,26,61,205,44*7F
###2023-12-09 12:24:16.932953$GPGSV,2,2,07,28,62,049,40,29,24,079,45,32,35,131,46,,,,*4D
###2023-12-09 12:24:16.935302$GLGSV,1,1,04,71,63,167,46,72,61,317,35,73,53,030,47,75,18,237,43*69
###2023-12-09 12:24:16.937350$GAGSV,1,1,03,04,17,310,36,21,73,180,46,27,45,051,46,,,,*50
###2023-12-09 12:24:16.939698$GBGSV,1,1,04,14,60,201,45,25,29,249,41,26,39,055,47,33,64,265,38*6D
###2023-12-09 12:24:16.940847$GNVTG,,T,,M,0.02,N,0.04,K,A*3B
###2023-12-09 12:24:16.942509$GNGST,172416.10,32.000,,,,0.110,0.100,0.230*50
###2023-12-09 12:24:16.943826$GNZDA,172416.10,09,12,2023,00,00*77
###2023-12-09 12:24:16.944481$GNEBP,,,,,,M*13
###2023-12-09 12:24:17.115467$GNGGA,172416.30,4138.0392481,N,07032.4361783,W,1,18,0.8,13.307,M,-29.746,M,0.0,*5F
###2023-12-09 12:24:17.315578$GNGGA,172416.50,4138.0392483,N,07032.4361841,W,1,18,0.8,13.288,M,-29.746,M,0.0,*5C
###2023-12-09 12:24:17.515138$GNGGA,172416.70,4138.0392470,N,07032.4361887,W,1,18,0.8,13.269,M,-29.746,M,0.0,*57
###2023-12-09 12:24:17.713362$GNGGA,172416.90,4138.0392472,N,07032.4361936,W,1,18,0.8,13.248,M,-29.746,M,0.0,*53
###2023-12-09 12:24:17.915765$GNRMC,172417.10,A,4138.0392451,N,07032.4361975,W,0.04,,091223,,,A*4F
###2023-12-09 12:24:17.918900$GNGGA,172417.10,4138.0392451,N,07032.4361975,W,1,18,0.8,13.227,M,-29.746,M,0.0,*55
###2023-12-09 12:24:17.920725$GPGSA,A,3,03,16,25,26,28,29,32,,,,,,1.3,0.8,1.1*3F
###2023-12-09 12:24:17.922336$GLGSA,A,3,71,72,73,75,,,,,,,,,1.3,0.8,1.1*21
###2023-12-09 12:24:17.923885$GAGSA,A,3,04,21,27,,,,,,,,,,1.3,0.8,1.1*2B
###2023-12-09 12:24:17.925490$GBGSA,A,3,14,25,26,33,,,,,,,,,1.3,0.8,1.1*2C
###2023-12-09 12:24:17.927851$GPGSV,2,1,07,03,39,283,41,16,32,206,42,25,16,045,42,26,61,205,44*7F
###2023-12-09 12:24:17.929913$GPGSV,2,2,07,28,62,049,41,29,24,079,44,32,35,131,46,,,,*4D
###2023-12-09 12:24:17.932273$GLGSV,1,1,04,71,63,167,46,72,61,317,35,73,53,030,48,75,18,237,43*66
