###2023-12-09 13:00:41.764136$GNGGA,180040.90,4138.0279580,N,07032.2981924,W,1,24,0.6,13.444,M,-29.744,M,0.0,*59
###2023-12-09 13:00:41.964812$GNRMC,180041.10,A,4138.0280589,N,07032.2979890,W,3.34,59.83,091223,,,A*65
###2023-12-09 13:00:41.967706$GNGGA,180041.10,4138.0280589,N,07032.2979890,W,1,24,0.6,13.441,M,-29.744,M,0.0,*53
###2023-12-09 13:00:41.969570$GPGSA,A,3,03,04,16,26,28,29,31,32,,,,,1.1,0.6,0.9*3B
###2023-12-09 13:00:41.971340$GLGSA,A,3,65,71,72,73,74,75,,,,,,,1.1,0.6,0.9*24
###2023-12-09 13:00:41.972926$GAGSA,A,3,04,19,21,27,,,,,,,,,1.1,0.6,0.9*26
###2023-12-09 13:00:41.974572$GBGSA,A,3,14,24,25,26,33,,,,,,,,1.1,0.6,0.9*2F
###2023-12-09 13:00:41.976900$GPGSV,2,1,08,03,35,262,44,04,32,311,44,16,49,212,46,26,79,210,49*7A
###2023-12-09 13:00:41.979244$GPGSV,2,2,08,28,49,070,43,29,25,061,41,31,69,036,47,32,19,140,43*78
###2023-12-09 13:00:41.981567$GLGSV,2,1,06,65,24,327,44,71,41,173,47,72,73,271,46,73,36,041,42*63
###2023-12-09 13:00:41.983327$GLGSV,2,2,06,74,70,336,42,75,32,252,46,,,,,,,,*63
###2023-12-09 13:00:41.985657$GAGSV,1,1,04,04,29,312,43,19,84,219,41,21,86,122,46,27,33,048,42*6E
###2023-12-09 13:00:41.987996$GBGSV,2,1,05,14,43,193,45,24,74,024,48,25,41,262,45,26,26,063,41*6F
###2023-12-09 13:00:41.989443$GBGSV,2,2,05,33,57,233,47,,,,,,,,,,,,*5D
###2023-12-09 13:00:41.990742$GNVTG,59.83,T,,M,3.34,N,6.19,K,A*1E
###2023-12-09 13:00:41.992382$GNGST,180041.10,18.000,,,,0.078,0.066,0.150*58
###2023-12-09 13:00:41.993669$GNZDA,180041.10,09,12,2023,00,00*7C
###2023-12-09 13:00:41.994305$GNEBP,,,,,,M*13
###2023-12-09 13:00:42.162707$GNGGA,180041.30,4138.0281496,N,07032.2977738,W,1,24,0.6,13.438,M,-29.744,M,0.0,*52
###2023-12-09 13:00:42.363568$GNGGA,180041.50,4138.0282488,N,07032.2975683,W,1,24,0.6,13.440,M,-29.744,M,0.0,*54
###2023-12-09 13:00:42.562354$GNGGA,180041.70,4138.0283616,N,07032.2973697,W,1,24,0.6,13.443,M,-29.744,M,0.0,*52
###2023-12-09 13:00:42.763781$GNGGA,180041.90,4138.0284616,N,07032.2971485,W,1,24,0.6,13.423,M,-29.744,M,0.0,*5E
###2023-12-09 13:00:42.964624$GNRMC,180042.10,A,4138.0285482,N,07032.2969291,W,3.27,57.06,091223,,,A*62
###2023-12-09 13:00:42.967495$GNGGA,180042.10,4138.0285482,N,07032.2969291,W,1,24,0.6,13.400,M,-29.744,M,0.0,*50
###2023-12-09 13:00:42.969345$GPGSA,A,3,03,04,16,26,28,29,31,32,,,,,1.1,0.6,0.9*3B
###2023-12-09 13:00:42.971073$GLGSA,A,3,65,71,72,73,74,75,,,,,,,1.1,0.6,0.9*24
###2023-12-09 13:00:42.972653$GAGSA,A,3,04,19,21,27,,,,,,,,,1.1,0.6,0.9*26
###2023-12-09 13:00:42.974296$GBGSA,A,3,14,24,25,26,33,,,,,,,,1.1,0.6,0.9*2F
###2023-12-09 13:00:42.976627$GPGSV,2,1,08,03,35,262,45,04,32,311,43,16,49,212,47,26,79,210,49*7D
###2023-12-09 13:00:42.978956$GPGSV,2,2,08,28,49,070,44,29,25,061,41,31,69,036,47,32,19,140,44*78
###2023-12-09 13:00:42.981277$GLGSV,2,1,06,65,24,327,43,71,41,173,48,72,73,271,47,73,36,041,42*6A
###2023-12-09 13:00:42.983027$GLGSV,2,2,06,74,70,336,42,75,32,252,46,,,,,,,,*63
###2023-12-09 13:00:42.985347$GAGSV,1,1,04,04,29,312,42,19,84,219,41,21,86,122,46,27,33,048,42*6F
###2023-12-09 13:00:42.987687$GBGSV,2,1,05,14,43,193,45,24,74,024,48,25,41,262,44,26,26,063,42*6D
###2023-12-09 13:00:42.989139$GBGSV,2,2,05,33,57,233,47,,,,,,,,,,,,*5D
###2023-12-09 13:00:42.990430$GNVTG,57.06,T,,M,3.27,N,6.05,K,A*12
###2023-12-09 13:00:42.992085$GNGST,180042.10,18.000,,,,0.078,0.066,0.150*5B
###2023-12-09 13:00:42.993379$GNZDA,180042.10,09,12,2023,00,00*7F
###2023-12-09 13:00:42.994016$GNEBP,,,,,,M*13
###2023-12-09 13:00:43.161566$GNGGA,180042.30,4138.0286623,N,07032.2967356,W,1,24,0.6,13.434,M,-29.744,M,0.0,*5B
###2023-12-09 13:00:43.363036$GNGGA,180042.50,4138.0287728,N,07032.2965191,W,1,24,0.6,13.432,M,-29.744,M,0.0,*5B
###2023-12-09 13:00:43.563399$GNGGA,180042.70,4138.0288582,N,07032.2962893,W,1,24,0.6,13.405,M,-29.744,M,0.0,*5C
###2023-12-09 13:00:43.762661$GNGGA,180042.90,4138.0289579,N,07032.2960799,W,1,24,0.6,13.417,M,-29.744,M,0.0,*53
###2023-12-09 13:00:43.964407$GNRMC,180043.10,A,4138.0290821,N,07032.2958835,W,3.46,51.65,091223,,,A*60
###2023-12-09 13:00:43.967279$GNGGA,180043.10,4138.0290821,N,07032.2958835,W,1,24,0.6,13.434,M,-29.744,M,0.0,*51
###2023-12-09 13:00:43.969138$GPGSA,A,3,03,04,16,26,28,29,31,32,,,,,1.1,0.6,0.9*3B
###2023-12-09 13:00:43.970869$GLGSA,A,3,65,71,72,73,74,75,,,,,,,1.1,0.6,0.9*24
###2023-12-09 13:00:43.972455$GAGSA,A,3,04,19,21,27,,,,,,,,,1.1,0.6,0.9*26
###2023-12-09 13:00:43.974105$GBGSA,A,3,14,24,25,26,33,,,,,,,,1.1,0.6,0.9*2F
###2023-12-09 13:00:43.976449$GPGSV,2,1,08,03,35,262,44,04,32,311,44,16,49,212,45,26,79,210,48*78
###2023-12-09 13:00:43.978798$GPGSV,2,2,08,28,49,070,42,29,25,061,41,31,69,036,46,32,19,140,42*79
###2023-12-09 13:00:43.981140$GLGSV,2,1,06,65,24,327,43,71,41,173,47,72,73,271,47,73,36,041,41*66
###2023-12-09 13:00:43.982898$GLGSV,2,2,06,74,70,336,42,75,32,252,46,,,,,,,,*63
###2023-12-09 13:00:43.985227$GAGSV,1,1,04,04,29,312,42,19,84,219,40,21,86,122,46,27,33,048,41*6D
###2023-12-09 13:00:43.987569$GBGSV,2,1,05,14,43,193,45,24,74,024,48,25,41,262,46,26,26,063,42*6F
###2023-12-09 13:00:43.989026$GBGSV,2,2,05,33,57,233,48,,,,,,,,,,,,*52
###2023-12-09 13:00:43.990320$GNVTG,51.65,T,,M,3.46,N,6.41,K,A*16
###2023-12-09 13:00:43.991980$GNGST,180043.10,18.000,,,,0.078,0.066,0.150*5A
###2023-12-09 13:00:43.993276$GNZDA,180043.10,09,12,2023,00,00*7E
###2023-12-09 13:00:43.993917$GNEBP,,,,,,M*13
###2023-12-09 13:00:44.161534$GNGGA,180043.30,4138.0291802,N,07032.2956630,W,1,24,0.6,13.420,M,-29.744,M,0.0,*53
###2023-12-09 13:00:44.362338$GNGGA,180043.50,4138.0292616,N,07032.2954380,W,1,24,0.6,13.395,M,-29.744,M,0.0,*58
###2023-12-09 13:00:44.563686$GNGGA,180043.70,4138.0293673,N,07032.2952403,W,1,24,0.6,13.415,M,-29.744,M,0.0,*5D
###2023-12-09 13:00:44.761625$GNGGA,180043.90,4138.0294892,N,07032.2950399,W,1,24,0.6,13.425,M,-29.744,M,0.0,*50
###2023-12-09 13:00:44.972811$GNRMC,180044.10,A,4138.0295829,N,07032.2948103,W,3.38,64.50,091223,,,A*6E
###2023-12-09 13:00:44.975697$GNGGA,180044.10,4138.0295829,N,07032.2948103,W,1,24,0.6,13.412,M,-29.744,M,0.0,*52
###2023-12-09 13:00:44.977564$GPGSA,A,3,03,04,16,26,28,29,31,32,,,,,1.1,0.6,0.9*3B
###2023-12-09 13:00:44.979296$GLGSA,A,3,65,71,72,73,74,75,,,,,,,1.1,0.6,0.9*24
###2023-12-09 13:00:44.980891$GAGSA,A,3,04,19,21,27,,,,,,,,,1.1,0.6,0.9*26
###2023-12-09 13:00:44.982543$GBGSA,A,3,14,24,25,26,33,,,,,,,,1.1,0.6,0.9*2F
###2023-12-09 13:00:44.984880$GPGSV,2,1,08,03,35,262,44,04,32,311,43,16,49,212,45,26,79,210,48*7F
###2023-12-09 13:00:44.987226$GPGSV,2,2,08,28,49,070,42,29,25,061,41,31,69,036,46,32,19,140,41*7A
###2023-12-09 13:00:44.989560$GLGSV,2,1,06,65,24,327,44,71,41,173,46,72,73,271,46,73,36,041,44*64
###2023-12-09 13:00:44.991314$GLGSV,2,2,06,74,70,336,43,75,32,252,46,,,,,,,,*62
###2023-12-09 13:00:44.993625$GAGSV,1,1,04,04,29,312,43,19,84,219,40,21,86,122,46,27,33,048,41*6C
###2023-12-09 13:00:44.995959$GBGSV,2,1,05,14,43,193,44,24,74,024,49,25,41,262,45,26,26,063,43*6D
###2023-12-09 13:00:44.997404$GBGSV,2,2,05,33,57,233,47,,,,,,,,,,,,*5D
###2023-12-09 13:00:44.998697$GNVTG,64.50,T,,M,3.38,N,6.26,K,A*1E
###2023-12-09 13:00:45.000339$GNGST,180044.10,18.000,,,,0.079,0.067,0.160*5E
###2023-12-09 13:00:45.001659$GNZDA,180044.10,09,12,2023,00,00*79
###2023-12-09 13:00:45.002302$GNEBP,,,,,,M*13
###2023-12-09 13:00:45.166713$GNGGA,180044.30,4138.0296746,N,07032.2945923,W,1,24,0.6,13.429,M,-29.744,M,0.0,*5A
###2023-12-09 13:00:45.364831$GNGGA,180044.50,4138.0297972,N,07032.2943809,W,1,24,0.6,13.459,M,-29.744,M,0.0,*5C
###2023-12-09 13:00:45.562318$GNGGA,180044.70,4138.0299075,N,07032.2941574,W,1,24,0.6,13.431,M,-29.744,M,0.0,*55
###2023-12-09 13:00:45.763876$GNGGA,180044.90,4138.0300052,N,07032.2939370,W,1,24,0.6,13.406,M,-29.744,M,0.0,*56
###2023-12-09 13:00:45.966589$GNRMC,180045.10,A,4138.0301021,N,07032.2937247,W,3.38,57.25,091223,,,A*6A
###2023-12-09 13:00:45.969471$GNGGA,180045.10,4138.0301021,N,07032.2937247,W,1,24,0.6,13.417,M,-29.744,M,0.0,*51
###2023-12-09 13:00:45.971374$GPGSA,A,3,03,04,16,26,28,29,31,32,,,,,1.1,0.6,0.9*3B
###2023-12-09 13:00:45.973087$GLGSA,A,3,65,71,72,73,74,75,,,,,,,1.1,0.6,0.9*24
###2023-12-09 13:00:45.974679$GAGSA,A,3,04,19,21,27,,,,,,,,,1.1,0.6,0.9*26
###2023-12-09 13:00:45.976324$GBGSA,A,3,14,24,25,26,33,,,,,,,,1.1,0.6,0.9*2F
###2023-12-09 13:00:45.978915$GPGSV,2,1,08,03,35,262,41,04,32,311,42,16,49,212,44,26,79,210,47*75
###2023-12-09 13:00:45.981253$GPGSV,2,2,08,28,49,070,41,29,25,061,40,31,69,036,44,32,19,140,42*79
###2023-12-09 13:00:45.983603$GLGSV,2,1,06,65,24,327,43,71,41,173,49,72,73,271,46,73,36,041,42*6A
###2023-12-09 13:00:45.985348$GLGSV,2,2,06,74,70,336,42,75,32,252,47,,,,,,,,*62
###2023-12-09 13:00:45.987680$GAGSV,1,1,04,04,29,312,41,19,84,219,40,21,86,122,44,27,33,048,40*6D
###2023-12-09 13:00:45.990001$GBGSV,2,1,05,14,43,193,45,24,74,024,48,25,41,262,45,26,26,063,43*6D
###2023-12-09 13:00:45.991465$GBGSV,2,2,05,33,57,233,48,,,,,,,,,,,,*52
###2023-12-09 13:00:45.992754$GNVTG,57.25,T,,M,3.38,N,6.26,K,A*1C
###2023-12-09 13:00:45.994440$GNGST,180045.10,18.000,,,,0.079,0.067,0.160*5F
