###2023-12-09 12:57:30.984665$GAGSV,1,1,04,04,27,312,39,19,85,234,41,21,85,141,46,27,34,048,43*63
###2023-12-09 12:57:30.987034$GBGSV,2,1,05,14,45,193,46,24,75,020,48,25,39,260,45,26,27,062,42*61
###2023-12-09 12:57:30.988496$GBGSV,2,2,05,33,59,235,47,,,,,,,,,,,,*55
###2023-12-09 12:57:30.989787$GNVTG,86.54,T,,M,3.09,N,5.72,K,A*16
###2023-12-09 12:57:30.991454$GNGST,175730.10,18.000,,,,0.077,0.066,0.150*5C
###2023-12-09 12:57:30.992745$GNZDA,175730.10,09,12,2023,00,00*77
###2023-12-09 12:57:30.993386$GNEBP,,,,,,M*13
###2023-12-09 12:57:31.159688$GNGGA,175730.30,4138.0348749,N,07032.3773302,W,1,24,0.6,13.347,M,-29.745,M,0.0,*54
###2023-12-09 12:57:31.360401$GNGGA,175730.50,4138.0348612,N,07032.3770884,W,1,24,0.6,13.341,M,-29.745,M,0.0,*5D
###2023-12-09 12:57:31.560344$GNGGA,175730.70,4138.0348421,N,07032.3768522,W,1,24,0.6,13.339,M,-29.745,M,0.0,*5A
###2023-12-09 12:57:31.760415$GNGGA,175730.90,4138.0348269,N,07032.3766053,W,1,24,0.6,13.346,M,-29.745,M,0.0,*5B
###2023-12-09 12:57:31.961354$GNRMC,175731.10,A,4138.0348020,N,07032.3763547,W,3.29,97.54,091223,,,A*6B
###2023-12-09 12:57:31.964254$GNGGA,175731.10,4138.0348020,N,07032.3763547,W,1,24,0.6,13.327,M,-29.745,M,0.0,*5F
###2023-12-09 12:57:31.966113$GPGSA,A,3,03,04,16,26,28,29,31,32,,,,,1.1,0.6,0.9*3B
###2023-12-09 12:57:31.967836$GLGSA,A,3,65,71,72,73,74,75,,,,,,,1.1,0.6,0.9*24
###2023-12-09 12:57:31.969419$GAGSA,A,3,04,19,21,27,,,,,,,,,1.1,0.6,0.9*26
###2023-12-09 12:57:31.971078$GBGSA,A,3,14,24,25,26,33,,,,,,,,1.1,0.6,0.9*2F
###2023-12-09 12:57:31.973400$GPGSV,2,1,08,03,36,264,46,04,31,311,41,16,48,211,47,26,78,209,48*70
###2023-12-09 12:57:31.975736$GPGSV,2,2,08,28,51,068,44,29,25,064,41,31,70,031,47,32,21,139,42*71
###2023-12-09 12:57:31.978059$GLGSV,2,1,06,65,22,328,39,71,43,172,46,72,73,277,47,73,37,040,46*61
###2023-12-09 12:57:31.979812$GLGSV,2,2,06,74,70,331,43,75,30,251,46,,,,,,,,*64
###2023-12-09 12:57:31.982128$GAGSV,1,1,04,04,27,312,41,19,85,234,41,21,85,141,46,27,34,048,44*6B
###2023-12-09 12:57:31.984454$GBGSV,2,1,05,14,45,193,46,24,75,020,49,25,39,260,48,26,27,062,42*6D
###2023-12-09 12:57:31.985901$GBGSV,2,2,05,33,59,235,48,,,,,,,,,,,,*5A
###2023-12-09 12:57:31.987193$GNVTG,97.54,T,,M,3.29,N,6.08,K,A*1A
###2023-12-09 12:57:31.988829$GNGST,175731.10,18.000,,,,0.077,0.065,0.150*5E
###2023-12-09 12:57:31.990114$GNZDA,175731.10,09,12,2023,00,00*76
###2023-12-09 12:57:31.990760$GNEBP,,,,,,M*13
###2023-12-09 12:57:32.158471$GNGGA,175731.30,4138.0347884,N,07032.3761150,W,1,24,0.6,13.344,M,-29.745,M,0.0,*51
###2023-12-09 12:57:32.360399$GNGGA,175731.50,4138.0347645,N,07032.3758603,W,1,24,0.6,13.338,M,-29.745,M,0.0,*54
###2023-12-09 12:57:32.560371$GNGGA,175731.70,4138.0347465,N,07032.3756146,W,1,24,0.6,13.340,M,-29.745,M,0.0,*51
###2023-12-09 12:57:32.766167$GNGGA,175731.90,4138.0347381,N,07032.3753600,W,1,24,0.6,13.342,M,-29.745,M,0.0,*50
###2023-12-09 12:57:32.971527$GNRMC,175732.10,A,4138.0347256,N,07032.3751098,W,3.36,92.29,091223,,,A*63
###2023-12-09 12:57:32.974402$GNGGA,175732.10,4138.0347256,N,07032.3751098,W,1,24,0.6,13.337,M,-29.745,M,0.0,*57
###2023-12-09 12:57:32.976267$GPGSA,A,3,03,04,16,26,28,29,31,32,,,,,1.1,0.6,0.9*3B
###2023-12-09 12:57:32.977972$GLGSA,A,3,65,71,72,73,74,75,,,,,,,1.1,0.6,0.9*24
###2023-12-09 12:57:32.979567$GAGSA,A,3,04,19,21,27,,,,,,,,,1.1,0.6,0.9*26
###2023-12-09 12:57:32.981217$GBGSA,A,3,14,24,25,26,33,,,,,,,,1.1,0.6,0.9*2F
###2023-12-09 12:57:32.983539$GPGSV,2,1,08,03,36,264,45,04,31,311,41,16,48,211,47,26,78,209,48*73
###2023-12-09 12:57:32.985862$GPGSV,2,2,08,28,50,069,44,29,25,064,41,31,70,031,47,32,21,139,43*70
###2023-12-09 12:57:32.988206$GLGSV,2,1,06,65,22,328,41,71,43,172,46,72,73,277,47,73,37,040,45*6D
###2023-12-09 12:57:32.989953$GLGSV,2,2,06,74,70,331,43,75,30,251,46,,,,,,,,*64
###2023-12-09 12:57:32.992297$GAGSV,1,1,04,04,27,312,40,19,85,234,41,21,85,141,46,27,34,048,43*6D
###2023-12-09 12:57:32.994631$GBGSV,2,1,05,14,45,193,45,24,75,020,48,25,39,260,46,26,27,062,42*61
###2023-12-09 12:57:32.996085$GBGSV,2,2,05,33,59,235,48,,,,,,,,,,,,*5A
###2023-12-09 12:57:32.997374$GNVTG,92.29,T,,M,3.36,N,6.23,K,A*12
###2023-12-09 12:57:32.999028$GNGST,175732.10,18.000,,,,0.077,0.065,0.150*5D
###2023-12-09 12:57:33.000321$GNZDA,175732.10,09,12,2023,00,00*75
###2023-12-09 12:57:33.000959$GNEBP,,,,,,M*13
###2023-12-09 12:57:33.167869$GNGGA,175732.30,4138.0347180,N,07032.3748580,W,1,24,0.6,13.342,M,-29.745,M,0.0,*5B
###2023-12-09 12:57:33.365086$GNGGA,175732.50,4138.0347112,N,07032.3746024,W,1,24,0.6,13.346,M,-29.745,M,0.0,*57
###2023-12-09 12:57:33.560141$GNGGA,175732.70,4138.0347184,N,07032.3743518,W,1,24,0.6,13.344,M,-29.745,M,0.0,*57
###2023-12-09 12:57:33.760400$GNGGA,175732.90,4138.0347312,N,07032.3741003,W,1,24,0.6,13.345,M,-29.745,M,0.0,*58
###2023-12-09 12:57:33.960301$GNRMC,175733.10,A,4138.0347468,N,07032.3738512,W,3.44,83.57,091223,,,A*6D
###2023-12-09 12:57:33.963162$GNGGA,175733.10,4138.0347468,N,07032.3738512,W,1,24,0.6,13.343,M,-29.745,M,0.0,*56
###2023-12-09 12:57:33.965015$GPGSA,A,3,03,04,16,26,28,29,31,32,,,,,1.1,0.6,0.9*3B
###2023-12-09 12:57:33.966740$GLGSA,A,3,65,71,72,73,74,75,,,,,,,1.1,0.6,0.9*24
###2023-12-09 12:57:33.968332$GAGSA,A,3,04,19,21,27,,,,,,,,,1.1,0.6,0.9*26
###2023-12-09 12:57:33.969981$GBGSA,A,3,14,24,25,26,33,,,,,,,,1.1,0.6,0.9*2F
###2023-12-09 12:57:33.972329$GPGSV,2,1,08,03,36,264,46,04,31,311,43,16,48,211,46,26,78,209,49*72
###2023-12-09 12:57:33.974689$GPGSV,2,2,08,28,50,069,43,29,25,063,41,31,70,031,47,32,21,139,43*70
###2023-12-09 12:57:33.977032$GLGSV,2,1,06,65,22,328,42,71,43,172,46,72,73,277,47,73,37,040,46*6D
###2023-12-09 12:57:33.978794$GLGSV,2,2,06,74,70,331,44,75,30,251,46,,,,,,,,*63
###2023-12-09 12:57:33.981119$GAGSV,1,1,04,04,27,312,40,19,85,234,41,21,85,141,46,27,34,048,42*6C
###2023-12-09 12:57:33.983472$GBGSV,2,1,05,14,45,193,45,24,75,020,47,25,39,260,47,26,27,062,41*6C
###2023-12-09 12:57:33.984933$GBGSV,2,2,05,33,59,235,47,,,,,,,,,,,,*55
###2023-12-09 12:57:33.986223$GNVTG,83.57,T,,M,3.44,N,6.37,K,A*1B
###2023-12-09 12:57:33.987885$GNGST,175733.10,18.000,,,,0.077,0.065,0.150*5C
###2023-12-09 12:57:33.989176$GNZDA,175733.10,09,12,2023,00,00*74
###2023-12-09 12:57:33.989814$GNEBP,,,,,,M*13
###2023-12-09 12:57:34.159456$GNGGA,175733.30,4138.0347626,N,07032.3735988,W,1,24,0.6,13.344,M,-29.745,M,0.0,*59
###2023-12-09 12:57:34.365320$GNGGA,175733.50,4138.0347861,N,07032.3733533,W,1,24,0.6,13.339,M,-29.745,M,0.0,*52
###2023-12-09 12:57:34.562342$GNGGA,175733.70,4138.0348264,N,07032.3731158,W,1,24,0.6,13.337,M,-29.745,M,0.0,*55
###2023-12-09 12:57:34.760720$GNGGA,175733.90,4138.0348603,N,07032.3728682,W,1,24,0.6,13.332,M,-29.745,M,0.0,*53
###2023-12-09 12:57:34.961644$GNRMC,175734.10,A,4138.0348781,N,07032.3726251,W,3.27,83.13,091223,,,A*6B
###2023-12-09 12:57:34.964548$GNGGA,175734.10,4138.0348781,N,07032.3726251,W,1,24,0.6,13.319,M,-29.745,M,0.0,*5A
###2023-12-09 12:57:34.966415$GPGSA,A,3,03,04,16,26,28,29,31,32,,,,,1.1,0.6,0.9*3B
###2023-12-09 12:57:34.968173$GLGSA,A,3,65,71,72,73,74,75,,,,,,,1.1,0.6,0.9*24
###2023-12-09 12:57:34.969760$GAGSA,A,3,04,19,21,27,,,,,,,,,1.1,0.6,0.9*26
###2023-12-09 12:57:34.971421$GBGSA,A,3,14,24,25,26,33,,,,,,,,1.1,0.6,0.9*2F
###2023-12-09 12:57:34.973759$GPGSV,2,1,08,03,36,264,46,04,31,311,40,16,48,211,46,26,78,209,48*70
###2023-12-09 12:57:34.976112$GPGSV,2,2,08,28,50,069,43,29,25,063,41,31,70,031,46,32,21,139,43*71
###2023-12-09 12:57:34.978449$GLGSV,2,1,06,65,22,328,41,71,43,172,47,72,73,277,47,73,37,040,45*6C
###2023-12-09 12:57:34.980212$GLGSV,2,2,06,74,70,331,43,75,30,251,46,,,,,,,,*64
###2023-12-09 12:57:34.982543$GAGSV,1,1,04,04,27,312,39,19,85,234,41,21,85,141,46,27,34,048,43*63
###2023-12-09 12:57:34.984892$GBGSV,2,1,05,14,45,193,46,24,75,020,48,25,39,260,47,26,27,062,42*63
###2023-12-09 12:57:34.986353$GBGSV,2,2,05,33,59,235,47,,,,,,,,,,,,*55
###2023-12-09 12:57:34.987659$GNVTG,83.13,T,,M,3.27,N,6.05,K,A*1F
###2023-12-09 12:57:34.989309$GNGST,175734.10,18.000,,,,0.077,0.065,0.150*5B
###2023-12-09 12:57:34.990610$GNZDA,175734.10,09,12,2023,00,00*73
###2023-12-09 12:57:34.991250$GNEBP,,,,,,M*13
###2023-12-09 12:57:35.160439$GNGGA,175734.30,4138.0349059,N,07032.3723852,W,1,24,0.6,13.328,M,-29.745,M,0.0,*55
###2023-12-09 12:57:35.365205$GNGGA,175734.50,4138.0349308,N,07032.3721385,W,1,24,0.6,13.325,M,-29.745,M,0.0,*5A
###2023-12-09 12:57:35.566301$GNGGA,175734.70,4138.0349452,N,07032.3718982,W,1,24,0.6,13.316,M,-29.745,M,0.0,*57
###2023-12-09 12:57:35.760622$GNGGA,175734.90,4138.0349478,N,07032.3716537,W,1,24,0.6,13.320,M,-29.745,M,0.0,*58
###2023-12-09 12:57:35.962765$GNRMC,175735.10,A,4138.0349417,N,07032.3714118,W,3.30,93.77,091223,,,A*6D
###2023-12-09 12:57:35.965634$GNGGA,175735.10,4138.0349417,N,07032.3714118,W,1,24,0.6,13.321,M,-29.745,M,0.0,*52
###2023-12-09 12:57:35.967504$GPGSA,A,3,03,04,16,26,28,29,31,32,,,,,1.1,0.6,0.9*3B
###2023-12-09 12:57:35.969217$GLGSA,A,3,65,71,72,73,74,75,,,,,,,1.1,0.6,0.9*24
###2023-12-09 12:57:35.970802$GAGSA,A,3,04,19,21,27,,,,,,,,,1.1,0.6,0.9*26
