###2023-12-09 12:43:32.968341$GLGSV,2,1,06,65,16,329,41,71,51,170,46,72,69,300,46,73,44,036,46*67
###2023-12-09 12:43:32.970123$GLGSV,2,2,06,74,71,307,42,75,25,245,42,,,,,,,,*64
###2023-12-09 12:43:32.972478$GAGSV,1,1,04,04,23,312,40,19,84,288,40,21,81,170,46,27,39,049,44*63
###2023-12-09 12:43:32.974840$GBGSV,2,1,05,14,51,196,45,24,79,002,48,25,35,255,45,26,32,059,43*69
###2023-12-09 12:43:32.976309$GBGSV,2,2,05,33,62,246,48,,,,,,,,,,,,*56
###2023-12-09 12:43:32.977610$GNVTG,91.47,T,,M,2.80,N,5.18,K,A*1E
###2023-12-09 12:43:32.979285$GNGST,174332.10,18.000,,,,0.079,0.070,0.160*51
###2023-12-09 12:43:32.980589$GNZDA,174332.10,09,12,2023,00,00*70
###2023-12-09 12:43:32.981233$GNEBP,,,,,,M*13
###2023-12-09 12:43:33.146490$GNGGA,174332.30,4138.0437067,N,07032.3906789,W,1,24,0.6,13.314,M,-29.745,M,0.0,*5A
###2023-12-09 12:43:33.344261$GNGGA,174332.50,4138.0436965,N,07032.3904750,W,1,24,0.6,13.297,M,-29.745,M,0.0,*5A
###2023-12-09 12:43:33.544555$GNGGA,174332.70,4138.0436833,N,07032.3902714,W,1,24,0.6,13.306,M,-29.745,M,0.0,*55
###2023-12-09 12:43:33.745280$GNGGA,174332.90,4138.0436587,N,07032.3900569,W,1,24,0.6,13.308,M,-29.745,M,0.0,*5D
###2023-12-09 12:43:33.944968$GNRMC,174333.10,A,4138.0436309,N,07032.3898440,W,2.78,98.89,091223,,,A*6D
###2023-12-09 12:43:33.947870$GNGGA,174333.10,4138.0436309,N,07032.3898440,W,1,24,0.6,13.293,M,-29.745,M,0.0,*5D
###2023-12-09 12:43:33.949735$GPGSA,A,3,03,04,16,26,28,29,31,32,,,,,1.1,0.6,0.9*3B
###2023-12-09 12:43:33.951471$GLGSA,A,3,65,71,72,73,74,75,,,,,,,1.1,0.6,0.9*24
###2023-12-09 12:43:33.953051$GAGSA,A,3,04,19,21,27,,,,,,,,,1.1,0.6,0.9*26
###2023-12-09 12:43:33.954715$GBGSA,A,3,14,24,25,26,33,,,,,,,,1.1,0.6,0.9*2F
###2023-12-09 12:43:33.957051$GPGSV,2,1,08,03,38,271,45,04,25,311,41,16,40,208,46,26,70,207,47*74
###2023-12-09 12:43:33.959410$GPGSV,2,2,08,28,55,060,45,29,25,070,40,31,72,013,47,32,27,136,39*7F
###2023-12-09 12:43:33.961753$GLGSV,2,1,06,65,16,329,41,71,51,170,46,72,69,300,47,73,44,036,46*66
###2023-12-09 12:43:33.963515$GLGSV,2,2,06,74,71,307,42,75,25,245,41,,,,,,,,*67
###2023-12-09 12:43:33.965843$GAGSV,1,1,04,04,23,312,40,19,84,288,40,21,81,170,46,27,39,049,44*63
###2023-12-09 12:43:33.968190$GBGSV,2,1,05,14,51,196,45,24,79,002,47,25,35,255,44,26,32,059,44*60
###2023-12-09 12:43:33.969651$GBGSV,2,2,05,33,62,246,48,,,,,,,,,,,,*56
###2023-12-09 12:43:33.970960$GNVTG,98.89,T,,M,2.78,N,5.15,K,A*1F
###2023-12-09 12:43:33.972607$GNGST,174333.10,18.000,,,,0.079,0.071,0.160*51
###2023-12-09 12:43:33.973901$GNZDA,174333.10,09,12,2023,00,00*71
###2023-12-09 12:43:33.974539$GNEBP,,,,,,M*13
###2023-12-09 12:43:34.143705$GNGGA,174333.30,4138.0436127,N,07032.3896390,W,1,24,0.6,13.305,M,-29.745,M,0.0,*5B
###2023-12-09 12:43:34.344196$GNGGA,174333.50,4138.0435977,N,07032.3894182,W,1,24,0.6,13.306,M,-29.745,M,0.0,*53
###2023-12-09 12:43:34.548543$GNGGA,174333.70,4138.0435766,N,07032.3892050,W,1,24,0.6,13.296,M,-29.745,M,0.0,*5F
###2023-12-09 12:43:34.742612$GNGGA,174333.90,4138.0435618,N,07032.3889895,W,1,24,0.6,13.317,M,-29.745,M,0.0,*5A
###2023-12-09 12:43:34.944819$GNRMC,174334.10,A,4138.0435488,N,07032.3887655,W,2.90,92.33,091223,,,A*62
###2023-12-09 12:43:34.947716$GNGGA,174334.10,4138.0435488,N,07032.3887655,W,1,24,0.6,13.315,M,-29.745,M,0.0,*50
###2023-12-09 12:43:34.949598$GPGSA,A,3,03,04,16,26,28,29,31,32,,,,,1.1,0.6,0.9*3B
###2023-12-09 12:43:34.951337$GLGSA,A,3,65,71,72,73,74,75,,,,,,,1.1,0.6,0.9*24
###2023-12-09 12:43:34.952929$GAGSA,A,3,04,19,21,27,,,,,,,,,1.1,0.6,0.9*26
###2023-12-09 12:43:34.954581$GBGSA,A,3,14,24,25,26,33,,,,,,,,1.1,0.6,0.9*2F
###2023-12-09 12:43:34.956911$GPGSV,2,1,08,03,38,271,44,04,25,311,40,16,40,208,46,26,70,207,48*7B
###2023-12-09 12:43:34.959259$GPGSV,2,2,08,28,55,060,45,29,25,070,41,31,72,013,47,32,27,136,41*71
###2023-12-09 12:43:34.961591$GLGSV,2,1,06,65,16,329,42,71,51,170,47,72,69,300,47,73,44,036,46*64
###2023-12-09 12:43:34.963352$GLGSV,2,2,06,74,71,307,42,75,25,245,43,,,,,,,,*65
###2023-12-09 12:43:34.965676$GAGSV,1,1,04,04,23,312,40,19,84,288,40,21,81,170,46,27,39,049,44*63
###2023-12-09 12:43:34.968015$GBGSV,2,1,05,14,51,196,45,24,79,002,48,25,35,255,44,26,32,059,43*68
###2023-12-09 12:43:34.969472$GBGSV,2,2,05,33,62,246,47,,,,,,,,,,,,*59
###2023-12-09 12:43:34.970776$GNVTG,92.33,T,,M,2.90,N,5.36,K,A*13
###2023-12-09 12:43:34.972425$GNGST,174334.10,18.000,,,,0.080,0.071,0.160*50
###2023-12-09 12:43:34.973714$GNZDA,174334.10,09,12,2023,00,00*76
###2023-12-09 12:43:34.974351$GNEBP,,,,,,M*13
###2023-12-09 12:43:35.144120$GNGGA,174334.30,4138.0435509,N,07032.3885520,W,1,24,0.6,13.313,M,-29.745,M,0.0,*5F
###2023-12-09 12:43:35.344009$GNGGA,174334.50,4138.0435557,N,07032.3883264,W,1,24,0.6,13.327,M,-29.745,M,0.0,*54
###2023-12-09 12:43:35.544706$GNGGA,174334.70,4138.0435569,N,07032.3881059,W,1,24,0.6,13.319,M,-29.745,M,0.0,*58
###2023-12-09 12:43:35.745141$GNGGA,174334.90,4138.0435756,N,07032.3878854,W,1,24,0.6,13.342,M,-29.745,M,0.0,*55
###2023-12-09 12:43:35.945354$GNRMC,174335.10,A,4138.0435942,N,07032.3876547,W,3.05,82.17,091223,,,A*6C
###2023-12-09 12:43:35.948853$GNGGA,174335.10,4138.0435942,N,07032.3876547,W,1,24,0.6,13.331,M,-29.745,M,0.0,*52
###2023-12-09 12:43:35.951221$GPGSA,A,3,03,04,16,26,28,29,31,32,,,,,1.1,0.6,0.9*3B
###2023-12-09 12:43:35.953309$GLGSA,A,3,65,71,72,73,74,75,,,,,,,1.1,0.6,0.9*24
###2023-12-09 12:43:35.955240$GAGSA,A,3,04,19,21,27,,,,,,,,,1.1,0.6,0.9*26
###2023-12-09 12:43:35.957228$GBGSA,A,3,14,24,25,26,33,,,,,,,,1.1,0.6,0.9*2F
###2023-12-09 12:43:35.960058$GPGSV,2,1,08,03,38,271,44,04,25,311,41,16,40,208,45,26,70,207,48*79
###2023-12-09 12:43:35.962893$GPGSV,2,2,08,28,55,060,45,29,25,070,41,31,72,013,46,32,27,136,42*73
###2023-12-09 12:43:35.965719$GLGSV,2,1,06,65,16,329,41,71,51,170,47,72,69,300,46,73,44,036,46*66
###2023-12-09 12:43:35.967884$GLGSV,2,2,06,74,71,307,42,75,25,245,43,,,,,,,,*65
###2023-12-09 12:43:35.970714$GAGSV,1,1,04,04,23,312,41,19,84,288,40,21,81,170,46,27,39,049,43*65
###2023-12-09 12:43:35.973528$GBGSV,2,1,05,14,51,196,45,24,79,002,48,25,35,255,45,26,32,059,42*68
###2023-12-09 12:43:35.975299$GBGSV,2,2,05,33,62,246,47,,,,,,,,,,,,*59
###2023-12-09 12:43:35.976857$GNVTG,82.17,T,,M,3.05,N,5.65,K,A*1F
###2023-12-09 12:43:35.978862$GNGST,174335.10,18.000,,,,0.079,0.071,0.160*57
###2023-12-09 12:43:35.980425$GNZDA,174335.10,09,12,2023,00,00*77
###2023-12-09 12:43:35.981192$GNEBP,,,,,,M*13
###2023-12-09 12:43:36.145141$GNGGA,174335.30,4138.0436334,N,07032.3874447,W,1,24,0.6,13.336,M,-29.745,M,0.0,*5C
###2023-12-09 12:43:36.344572$GNGGA,174335.50,4138.0436745,N,07032.3872215,W,1,24,0.6,13.354,M,-29.745,M,0.0,*5B
###2023-12-09 12:43:36.547161$GNGGA,174335.70,4138.0437133,N,07032.3869915,W,1,24,0.6,13.335,M,-29.745,M,0.0,*59
###2023-12-09 12:43:36.745118$GNGGA,174335.90,4138.0437756,N,07032.3867827,W,1,24,0.6,13.338,M,-29.745,M,0.0,*51
###2023-12-09 12:43:36.944542$GNRMC,174336.10,A,4138.0438536,N,07032.3865795,W,3.19,64.14,091223,,,A*64
###2023-12-09 12:43:36.948031$GNGGA,174336.10,4138.0438536,N,07032.3865795,W,1,24,0.6,13.367,M,-29.745,M,0.0,*5F
###2023-12-09 12:43:36.950289$GPGSA,A,3,03,04,16,26,28,29,31,32,,,,,1.1,0.6,0.9*3B
###2023-12-09 12:43:36.952421$GLGSA,A,3,65,71,72,73,74,75,,,,,,,1.1,0.6,0.9*24
###2023-12-09 12:43:36.954340$GAGSA,A,3,04,19,21,27,,,,,,,,,1.1,0.6,0.9*26
###2023-12-09 12:43:36.956349$GBGSA,A,3,14,24,25,26,33,,,,,,,,1.1,0.6,0.9*2F
###2023-12-09 12:43:36.959180$GPGSV,2,1,08,03,38,271,43,04,25,311,42,16,40,208,45,26,70,207,48*7D
###2023-12-09 12:43:36.962042$GPGSV,2,2,08,28,55,060,44,29,25,070,41,31,72,013,47,32,27,136,42*73
###2023-12-09 12:43:36.964882$GLGSV,2,1,06,65,16,329,44,71,51,170,48,72,69,300,46,73,44,036,45*6F
###2023-12-09 12:43:36.967013$GLGSV,2,2,06,74,71,307,42,75,25,245,45,,,,,,,,*63
###2023-12-09 12:43:36.969837$GAGSV,1,1,04,04,23,312,41,19,84,288,41,21,81,170,46,27,39,049,40*67
###2023-12-09 12:43:36.972666$GBGSV,2,1,05,14,51,196,45,24,79,002,48,25,35,255,44,26,32,059,43*68
###2023-12-09 12:43:36.974431$GBGSV,2,2,05,33,62,246,48,,,,,,,,,,,,*56
###2023-12-09 12:43:36.976000$GNVTG,64.14,T,,M,3.19,N,5.90,K,A*13
###2023-12-09 12:43:36.978003$GNGST,174336.10,18.000,,,,0.079,0.070,0.160*55
###2023-12-09 12:43:36.979879$GNZDA,174336.10,09,12,2023,00,00*74
###2023-12-09 12:43:36.980676$GNEBP,,,,,,M*13
###2023-12-09 12:43:37.144253$GNGGA,174336.30,4138.0439228,N,07032.3863519,W,1,24,0.6,13.353,M,-29.745,M,0.0,*53
###2023-12-09 12:43:37.345591$GNGGA,174336.50,4138.0439987,N,07032.3861423,W,1,24,0.6,13.319,M,-29.745,M,0.0,*5F
###2023-12-09 12:43:37.544581$GNGGA,174336.70,4138.0441118,N,07032.3859701,W,1,24,0.6,13.358,M,-29.745,M,0.0,*51
###2023-12-09 12:43:37.743507$GNGGA,174336.90,4138.0442163,N,07032.3857668,W,1,24,0.6,13.372,M,-29.745,M,0.0,*58
###2023-12-09 12:43:37.944019$GNRMC,174337.10,A,4138.0443179,N,07032.3855705,W,3.07,46.27,091223,,,A*63
###2023-12-09 12:43:37.946893$GNGGA,174337.10,4138.0443179,N,07032.3855705,W,1,24,0.6,13.337,M,-29.745,M,0.0,*52
###2023-12-09 12:43:37.948764$GPGSA,A,3,03,04,16,26,28,29,31,32,,,,,1.1,0.6,0.9*3B
