###2023-12-09 13:31:38.998870$GPGSA,A,3,04,16,26,28,29,31,,,,,,,1.2,0.7,1.0*33
###2023-12-09 13:31:39.000608$GLGSA,A,3,65,72,73,74,75,83,,,,,,,1.2,0.7,1.0*23
###2023-12-09 13:31:39.002200$GAGSA,A,3,04,19,21,27,,,,,,,,,1.2,0.7,1.0*2C
###2023-12-09 13:31:39.003933$GBGSA,A,3,14,24,25,26,33,35,,,,,,,1.2,0.7,1.0*23
###2023-12-09 13:31:39.006258$GPGSV,2,1,06,04,45,308,44,16,65,221,46,26,85,040,48,28,39,084,45*79
###2023-12-09 13:31:39.008019$GPGSV,2,2,06,29,21,048,43,31,60,064,47,,,,,,,,*79
###2023-12-09 13:31:39.010353$GLGSV,2,1,06,65,37,320,42,72,64,223,45,73,23,051,43,74,61,011,42*61
###2023-12-09 13:31:39.012118$GLGSV,2,2,06,75,42,269,44,83,15,049,37,,,,,,,,*6C
###2023-12-09 13:31:39.014445$GAGSV,1,1,04,04,39,310,44,19,73,182,40,21,78,047,47,27,23,050,40*6A
###2023-12-09 13:31:39.016797$GBGSV,2,1,06,14,30,190,35,24,64,044,47,25,50,275,44,26,17,070,44*66
###2023-12-09 13:31:39.018537$GBGSV,2,2,06,33,47,218,41,35,16,058,44,,,,,,,,*6C
###2023-12-09 13:31:39.019866$GNVTG,258.62,T,,M,0.68,N,1.26,K,A*23
###2023-12-09 13:31:39.021477$GNGST,183138.10,6.200,,,,0.160,0.095,0.240*6F
###2023-12-09 13:31:39.022778$GNZDA,183138.10,09,12,2023,00,00*70
###2023-12-09 13:31:39.023417$GNEBP,,,,,,M*13
###2023-12-09 13:31:39.194187$GNGGA,183138.30,4138.0352909,N,07032.4273839,W,1,21,0.9,13.304,M,-29.746,M,0.0,*5D
###2023-12-09 13:31:39.387525$GNGGA,183138.50,4138.0352751,N,07032.4274302,W,1,21,0.9,13.296,M,-29.746,M,0.0,*56
###2023-12-09 13:31:39.588185$GNGGA,183138.70,4138.0352658,N,07032.4274809,W,1,21,0.8,13.306,M,-29.746,M,0.0,*55
###2023-12-09 13:31:39.787620$GNGGA,183138.90,4138.0352626,N,07032.4275272,W,1,21,0.8,13.298,M,-29.746,M,0.0,*53
###2023-12-09 13:31:39.991052$GNRMC,183139.10,A,4138.0352645,N,07032.4275498,W,0.14,258.62,091223,,,A*5D
###2023-12-09 13:31:39.993916$GNGGA,183139.10,4138.0352645,N,07032.4275498,W,1,22,0.8,13.299,M,-29.746,M,0.0,*5F
###2023-12-09 13:31:39.995658$GPGSA,A,3,04,16,26,28,29,31,,,,,,,1.3,0.8,1.1*3C
###2023-12-09 13:31:39.997369$GLGSA,A,3,65,72,73,74,75,83,,,,,,,1.3,0.8,1.1*2C
###2023-12-09 13:31:39.998957$GAGSA,A,3,04,19,21,27,,,,,,,,,1.3,0.8,1.1*23
###2023-12-09 13:31:40.000665$GBGSA,A,3,14,24,25,26,33,35,,,,,,,1.3,0.8,1.1*2C
###2023-12-09 13:31:40.002994$GPGSV,2,1,06,04,45,308,44,16,65,221,46,26,85,040,48,28,39,084,43*7F
###2023-12-09 13:31:40.004739$GPGSV,2,2,06,29,21,048,41,31,60,064,46,,,,,,,,*7A
###2023-12-09 13:31:40.007068$GLGSV,2,1,06,65,37,320,43,72,64,223,45,73,23,051,45,74,61,011,42*66
###2023-12-09 13:31:40.008813$GLGSV,2,2,06,75,42,269,43,83,15,049,37,,,,,,,,*6B
###2023-12-09 13:31:40.011145$GAGSV,1,1,04,04,39,310,45,19,73,182,41,21,78,047,46,27,23,050,40*6B
###2023-12-09 13:31:40.013475$GBGSV,2,1,06,14,30,190,38,24,64,044,47,25,50,275,42,26,17,070,44*6D
###2023-12-09 13:31:40.015229$GBGSV,2,2,06,33,47,218,36,35,16,058,44,,,,,,,,*6C
###2023-12-09 13:31:40.016552$GNVTG,258.62,T,,M,0.14,N,0.25,K,A*2A
###2023-12-09 13:31:40.018163$GNGST,183139.10,6.100,,,,0.170,0.096,0.240*6F
###2023-12-09 13:31:40.019464$GNZDA,183139.10,09,12,2023,00,00*71
###2023-12-09 13:31:40.020106$GNEBP,,,,,,M*13
###2023-12-09 13:31:40.186393$GNGGA,183139.30,4138.0352801,N,07032.4275427,W,1,22,0.8,13.318,M,-29.746,M,0.0,*5F
###2023-12-09 13:31:40.386764$GNGGA,183139.50,4138.0353000,N,07032.4275104,W,1,22,0.8,13.332,M,-29.746,M,0.0,*5D
###2023-12-09 13:31:40.584775$GNGGA,183139.70,4138.0353253,N,07032.4274541,W,1,21,0.8,13.332,M,-29.746,M,0.0,*5C
###2023-12-09 13:31:40.789840$GNGGA,183139.90,4138.0353448,N,07032.4273842,W,1,21,0.9,13.330,M,-29.746,M,0.0,*54
###2023-12-09 13:31:40.992164$GNRMC,183140.10,A,4138.0353657,N,07032.4273070,W,1.21,69.04,091223,,,A*62
###2023-12-09 13:31:40.995028$GNGGA,183140.10,4138.0353657,N,07032.4273070,W,1,20,0.9,13.340,M,-29.746,M,0.0,*51
###2023-12-09 13:31:40.996754$GPGSA,A,3,04,16,26,28,29,31,,,,,,,1.6,0.9,1.3*3A
###2023-12-09 13:31:40.998405$GLGSA,A,3,65,72,73,74,75,,,,,,,,1.6,0.9,1.3*21
###2023-12-09 13:31:41$GAGSA,A,3,04,19,21,27,,,,,,,,,1.6,0.9,1.3*25
###2023-12-09 13:31:41.001649$GBGSA,A,3,24,25,26,33,35,,,,,,,,1.6,0.9,1.3*2F
###2023-12-09 13:31:41.003994$GPGSV,2,1,06,04,45,308,44,16,65,221,46,26,85,040,49,28,39,084,47*7A
###2023-12-09 13:31:41.005745$GPGSV,2,2,06,29,21,048,41,31,60,064,46,,,,,,,,*7A
###2023-12-09 13:31:41.008090$GLGSV,2,1,05,65,37,320,42,72,64,223,45,73,23,051,42,74,61,011,42*63
###2023-12-09 13:31:41.009551$GLGSV,2,2,05,75,42,269,42,,,,,,,,,,,,*5F
###2023-12-09 13:31:41.011894$GAGSV,1,1,04,04,39,310,44,19,73,182,41,21,78,047,46,27,23,050,40*6A
###2023-12-09 13:31:41.014232$GBGSV,2,1,05,24,64,044,49,25,50,275,43,26,17,070,44,33,47,218,41*69
###2023-12-09 13:31:41.015699$GBGSV,2,2,05,35,16,058,44,,,,,,,,,,,,*52
###2023-12-09 13:31:41.016991$GNVTG,69.04,T,,M,1.21,N,2.23,K,A*19
###2023-12-09 13:31:41.018614$GNGST,183140.10,4.900,,,,0.170,0.097,0.240*6A
###2023-12-09 13:31:41.019912$GNZDA,183140.10,09,12,2023,00,00*7F
###2023-12-09 13:31:41.020552$GNEBP,,,,,,M*13
###2023-12-09 13:31:41.188655$GNGGA,183140.30,4138.0353777,N,07032.4272253,W,1,21,0.9,13.346,M,-29.746,M,0.0,*55
###2023-12-09 13:31:41.387770$GNGGA,183140.50,4138.0353797,N,07032.4271457,W,1,23,0.7,13.358,M,-29.746,M,0.0,*5F
###2023-12-09 13:31:41.587995$GNGGA,183140.70,4138.0353737,N,07032.4270716,W,1,23,0.7,13.350,M,-29.746,M,0.0,*58
###2023-12-09 13:31:41.788014$GNGGA,183140.90,4138.0353701,N,07032.4270033,W,1,22,0.8,13.359,M,-29.746,M,0.0,*54
###2023-12-09 13:31:41.989972$GNRMC,183141.10,A,4138.0353633,N,07032.4269465,W,0.91,99.64,091223,,,A*69
###2023-12-09 13:31:41.992875$GNGGA,183141.10,4138.0353633,N,07032.4269465,W,1,21,0.8,13.364,M,-29.746,M,0.0,*5F
###2023-12-09 13:31:41.994686$GPGSA,A,3,03,04,16,26,28,29,31,,,,,,1.4,0.8,1.1*38
###2023-12-09 13:31:41.996342$GLGSA,A,3,65,72,73,74,75,,,,,,,,1.4,0.8,1.1*20
###2023-12-09 13:31:41.997925$GAGSA,A,3,04,19,21,27,,,,,,,,,1.4,0.8,1.1*24
###2023-12-09 13:31:41.999591$GBGSA,A,3,24,25,26,33,35,,,,,,,,1.4,0.8,1.1*2E
###2023-12-09 13:31:42.001939$GPGSV,2,1,07,03,27,247,37,04,45,308,41,16,65,221,46,26,85,040,49*72
###2023-12-09 13:31:42.004000$GPGSV,2,2,07,28,39,084,45,29,21,048,43,31,60,064,47,,,,*45
###2023-12-09 13:31:42.006343$GLGSV,2,1,05,65,37,320,41,72,64,223,46,73,23,051,44,74,61,011,42*65
###2023-12-09 13:31:42.007818$GLGSV,2,2,05,75,42,269,45,,,,,,,,,,,,*58
###2023-12-09 13:31:42.010144$GAGSV,1,1,04,04,39,310,40,19,73,182,40,21,78,047,46,27,23,050,40*6F
###2023-12-09 13:31:42.012490$GBGSV,2,1,05,24,64,044,49,25,50,275,48,26,17,070,43,33,47,218,36*65
###2023-12-09 13:31:42.013947$GBGSV,2,2,05,35,16,058,42,,,,,,,,,,,,*54
###2023-12-09 13:31:42.015250$GNVTG,99.64,T,,M,0.91,N,1.69,K,A*17
###2023-12-09 13:31:42.016868$GNGST,183141.10,6.100,,,,0.170,0.097,0.240*61
###2023-12-09 13:31:42.018161$GNZDA,183141.10,09,12,2023,00,00*7E
###2023-12-09 13:31:42.018809$GNEBP,,,,,,M*13
###2023-12-09 13:31:42.189738$GNGGA,183141.30,4138.0353493,N,07032.4268861,W,1,21,0.9,13.361,M,-29.746,M,0.0,*58
###2023-12-09 13:31:42.386408$GNGGA,183141.50,4138.0353439,N,07032.4268274,W,1,21,0.9,13.364,M,-29.746,M,0.0,*55
###2023-12-09 13:31:42.586712$GNGGA,183141.70,4138.0353339,N,07032.4267797,W,1,22,0.8,13.367,M,-29.746,M,0.0,*56
###2023-12-09 13:31:42.789700$GNGGA,183141.90,4138.0353184,N,07032.4267316,W,1,21,0.9,13.366,M,-29.746,M,0.0,*52
###2023-12-09 13:31:42.990237$GNRMC,183142.10,A,4138.0353057,N,07032.4266800,W,0.72,99.64,091223,,,A*63
###2023-12-09 13:31:42.993115$GNGGA,183142.10,4138.0353057,N,07032.4266800,W,1,21,0.8,13.367,M,-29.746,M,0.0,*5B
###2023-12-09 13:31:42.994857$GPGSA,A,3,04,16,26,28,29,31,,,,,,,1.4,0.8,1.1*3B
###2023-12-09 13:31:42.996577$GLGSA,A,3,65,72,73,74,75,83,,,,,,,1.4,0.8,1.1*2B
###2023-12-09 13:31:42.998161$GAGSA,A,3,04,19,21,27,,,,,,,,,1.4,0.8,1.1*24
###2023-12-09 13:31:42.999814$GBGSA,A,3,24,25,26,33,35,,,,,,,,1.4,0.8,1.1*2E
###2023-12-09 13:31:43.002143$GPGSV,2,1,06,04,45,308,41,16,65,221,48,26,85,040,49,28,39,084,43*75
###2023-12-09 13:31:43.003905$GPGSV,2,2,06,29,21,048,42,31,60,064,49,,,,,,,,*76
###2023-12-09 13:31:43.006241$GLGSV,2,1,06,65,37,320,40,72,64,223,46,73,23,051,44,74,61,011,42*67
###2023-12-09 13:31:43.007995$GLGSV,2,2,06,75,42,269,48,83,15,049,35,,,,,,,,*62
###2023-12-09 13:31:43.010322$GAGSV,1,1,04,04,39,310,42,19,73,182,41,21,78,047,47,27,23,050,40*6D
###2023-12-09 13:31:43.012926$GBGSV,2,1,05,24,64,044,49,25,50,275,46,26,17,070,41,33,47,218,40*68
###2023-12-09 13:31:43.014398$GBGSV,2,2,05,35,16,058,41,,,,,,,,,,,,*57
###2023-12-09 13:31:43.015707$GNVTG,99.64,T,,M,0.72,N,1.33,K,A*15
###2023-12-09 13:31:43.017330$GNGST,183142.10,5.900,,,,0.170,0.098,0.250*67
###2023-12-09 13:31:43.018665$GNZDA,183142.10,09,12,2023,00,00*7D
###2023-12-09 13:31:43.019311$GNEBP,,,,,,M*13
###2023-12-09 13:31:43.189635$GNGGA,183142.30,4138.0352977,N,07032.4266333,W,1,21,0.8,13.373,M,-29.746,M,0.0,*5D
