###2023-12-09 12:32:28.936198$GPGSA,A,3,03,04,16,26,28,29,31,32,,,,,1.2,0.7,0.9*39
###2023-12-09 12:32:28.937883$GLGSA,A,3,71,72,73,74,75,,,,,,,,1.2,0.7,0.9*25
###2023-12-09 12:32:28.939521$GAGSA,A,3,04,19,21,27,,,,,,,,,1.2,0.7,0.9*24
###2023-12-09 12:32:28.941181$GBGSA,A,3,14,24,25,26,33,,,,,,,,1.2,0.7,0.9*2D
###2023-12-09 12:32:28.943531$GPGSV,2,1,08,03,39,278,44,04,21,310,45,16,35,207,44,26,65,206,47*76
###2023-12-09 12:32:28.945867$GPGSV,2,2,08,28,59,054,45,29,25,075,40,31,73,356,46,32,31,133,45*7A
###2023-12-09 12:32:28.948233$GLGSV,2,1,05,71,58,169,47,72,65,311,47,73,49,033,47,74,71,287,43*66
###2023-12-09 12:32:28.949718$GLGSV,2,2,05,75,21,240,43,,,,,,,,,,,,*50
###2023-12-09 12:32:28.952083$GAGSV,1,1,04,04,20,311,44,19,80,306,41,21,76,177,46,27,42,050,42*68
###2023-12-09 12:32:28.954422$GBGSV,2,1,05,14,56,198,45,24,81,339,49,25,32,252,45,26,36,057,46*62
###2023-12-09 12:32:28.955912$GBGSV,2,2,05,33,63,257,48,,,,,,,,,,,,*57
###2023-12-09 12:32:28.957246$GNVTG,316.77,T,,M,0.43,N,0.79,K,A*2E
###2023-12-09 12:32:28.958927$GNGST,173228.10,17.000,,,,0.180,0.180,0.240*5B
###2023-12-09 12:32:28.960229$GNZDA,173228.10,09,12,2023,00,00*7D
###2023-12-09 12:32:28.960881$GNEBP,,,,,,M*13
###2023-12-09 12:32:29.131219$GNGGA,173228.30,4138.0444439,N,07032.4280440,W,1,23,0.7,12.952,M,-29.745,M,0.0,*57
###2023-12-09 12:32:29.331281$GNGGA,173228.50,4138.0444548,N,07032.4280654,W,1,23,0.7,12.948,M,-29.745,M,0.0,*5A
###2023-12-09 12:32:29.531412$GNGGA,173228.70,4138.0444800,N,07032.4281067,W,1,23,0.7,12.931,M,-29.745,M,0.0,*50
###2023-12-09 12:32:29.729879$GNGGA,173228.90,4138.0444845,N,07032.4281215,W,1,23,0.7,12.918,M,-29.745,M,0.0,*53
###2023-12-09 12:32:29.930420$GNRMC,173229.10,A,4138.0444726,N,07032.4281079,W,0.33,316.77,091223,,,A*5E
###2023-12-09 12:32:29.933522$GNGGA,173229.10,4138.0444726,N,07032.4281079,W,1,23,0.7,12.934,M,-29.745,M,0.0,*56
###2023-12-09 12:32:29.935588$GPGSA,A,3,03,04,16,26,28,29,31,32,,,,,1.2,0.7,0.9*39
###2023-12-09 12:32:29.937424$GLGSA,A,3,71,72,73,74,75,,,,,,,,1.2,0.7,0.9*25
###2023-12-09 12:32:29.939197$GAGSA,A,3,04,19,21,27,,,,,,,,,1.2,0.7,0.9*24
###2023-12-09 12:32:29.941035$GBGSA,A,3,14,24,25,26,33,,,,,,,,1.2,0.7,0.9*2D
###2023-12-09 12:32:29.943563$GPGSV,2,1,08,03,39,278,44,04,21,310,44,16,35,207,45,26,65,206,47*76
###2023-12-09 12:32:29.946070$GPGSV,2,2,08,28,59,054,44,29,25,075,40,31,73,356,47,32,31,133,44*7B
###2023-12-09 12:32:29.948631$GLGSV,2,1,05,71,58,169,47,72,65,311,46,73,49,033,47,74,71,287,44*60
###2023-12-09 12:32:29.950297$GLGSV,2,2,05,75,21,240,42,,,,,,,,,,,,*51
###2023-12-09 12:32:29.952817$GAGSV,1,1,04,04,20,311,43,19,80,306,41,21,76,177,46,27,42,050,42*6F
###2023-12-09 12:32:29.955334$GBGSV,2,1,05,14,56,198,45,24,81,339,48,25,32,252,45,26,36,057,45*60
###2023-12-09 12:32:29.956962$GBGSV,2,2,05,33,63,257,48,,,,,,,,,,,,*57
###2023-12-09 12:32:29.958305$GNVTG,316.77,T,,M,0.33,N,0.61,K,A*20
###2023-12-09 12:32:29.959986$GNGST,173229.10,17.000,,,,0.170,0.160,0.230*5C
###2023-12-09 12:32:29.961287$GNZDA,173229.10,09,12,2023,00,00*7C
###2023-12-09 12:32:29.961931$GNEBP,,,,,,M*13
###2023-12-09 12:32:30.131389$GNGGA,173229.30,4138.0444662,N,07032.4281008,W,1,23,0.7,12.929,M,-29.745,M,0.0,*5F
###2023-12-09 12:32:30.336536$GNGGA,173229.50,4138.0444787,N,07032.4281263,W,1,23,0.7,12.911,M,-29.745,M,0.0,*57
###2023-12-09 12:32:30.531173$GNGGA,173229.70,4138.0444991,N,07032.4281612,W,1,23,0.7,12.905,M,-29.745,M,0.0,*5B
###2023-12-09 12:32:30.729577$GNGGA,173229.90,4138.0445057,N,07032.4281708,W,1,23,0.7,12.915,M,-29.745,M,0.0,*5C
###2023-12-09 12:32:30.931153$GNRMC,173230.10,A,4138.0444953,N,07032.4281569,W,0.23,316.77,091223,,,A*5F
###2023-12-09 12:32:30.934015$GNGGA,173230.10,4138.0444953,N,07032.4281569,W,1,23,0.7,12.933,M,-29.745,M,0.0,*51
###2023-12-09 12:32:30.935911$GPGSA,A,3,03,04,16,26,28,29,31,32,,,,,1.2,0.7,0.9*39
###2023-12-09 12:32:30.937582$GLGSA,A,3,71,72,73,74,75,,,,,,,,1.2,0.7,0.9*25
###2023-12-09 12:32:30.939201$GAGSA,A,3,04,19,21,27,,,,,,,,,1.2,0.7,0.9*24
###2023-12-09 12:32:30.940869$GBGSA,A,3,14,24,25,26,33,,,,,,,,1.2,0.7,0.9*2D
###2023-12-09 12:32:30.943225$GPGSV,2,1,08,03,39,278,44,04,21,310,43,16,35,207,43,26,65,206,47*77
###2023-12-09 12:32:30.945581$GPGSV,2,2,08,28,59,054,44,29,25,075,40,31,73,356,46,32,31,133,45*7B
###2023-12-09 12:32:30.947962$GLGSV,2,1,05,71,58,169,48,72,65,311,47,73,49,033,46,74,71,287,43*68
###2023-12-09 12:32:30.949444$GLGSV,2,2,05,75,21,240,37,,,,,,,,,,,,*53
###2023-12-09 12:32:30.951807$GAGSV,1,1,04,04,20,311,41,19,80,306,40,21,76,177,45,27,42,050,40*6D
###2023-12-09 12:32:30.954162$GBGSV,2,1,05,14,56,198,45,24,81,339,49,25,32,252,45,26,36,057,45*61
###2023-12-09 12:32:30.955653$GBGSV,2,2,05,33,63,257,49,,,,,,,,,,,,*56
###2023-12-09 12:32:30.956998$GNVTG,316.77,T,,M,0.23,N,0.43,K,A*21
###2023-12-09 12:32:30.958685$GNGST,173230.10,17.000,,,,0.170,0.150,0.230*57
###2023-12-09 12:32:30.959993$GNZDA,173230.10,09,12,2023,00,00*74
###2023-12-09 12:32:30.960648$GNEBP,,,,,,M*13
###2023-12-09 12:32:31.130854$GNGGA,173230.30,4138.0444877,N,07032.4281555,W,1,23,0.7,12.921,M,-29.745,M,0.0,*58
###2023-12-09 12:32:31.331214$GNGGA,173230.50,4138.0445041,N,07032.4281824,W,1,23,0.7,12.906,M,-29.745,M,0.0,*5C
###2023-12-09 12:32:31.529776$GNGGA,173230.70,4138.0445265,N,07032.4282128,W,1,22,0.7,12.898,M,-29.745,M,0.0,*5B
###2023-12-09 12:32:31.729534$GNGGA,173230.90,4138.0445289,N,07032.4282149,W,1,22,0.7,12.917,M,-29.745,M,0.0,*56
###2023-12-09 12:32:31.935102$GNRMC,173231.10,A,4138.0445183,N,07032.4282004,W,0.17,316.77,091223,,,A*50
###2023-12-09 12:32:31.937985$GNGGA,173231.10,4138.0445183,N,07032.4282004,W,1,22,0.7,12.933,M,-29.745,M,0.0,*58
###2023-12-09 12:32:31.939877$GPGSA,A,3,03,04,16,26,28,29,31,32,,,,,1.2,0.7,1.0*31
###2023-12-09 12:32:31.941483$GLGSA,A,3,71,72,73,74,,,,,,,,,1.2,0.7,1.0*2F
###2023-12-09 12:32:31.943096$GAGSA,A,3,04,19,21,27,,,,,,,,,1.2,0.7,1.0*2C
###2023-12-09 12:32:31.944765$GBGSA,A,3,14,24,25,26,33,,,,,,,,1.2,0.7,1.0*25
###2023-12-09 12:32:31.947140$GPGSV,2,1,08,03,39,278,46,04,21,310,43,16,35,207,45,26,65,206,47*73
###2023-12-09 12:32:31.949512$GPGSV,2,2,08,28,59,054,44,29,25,075,40,31,73,356,46,32,31,133,45*7B
###2023-12-09 12:32:31.951894$GLGSV,1,1,04,71,58,169,48,72,65,311,47,73,49,033,47,74,71,287,43*6B
###2023-12-09 12:32:31.954250$GAGSV,1,1,04,04,20,311,42,19,80,306,41,21,76,177,46,27,42,050,41*6D
###2023-12-09 12:32:31.956632$GBGSV,2,1,05,14,56,198,44,24,81,339,48,25,32,252,45,26,36,057,45*61
###2023-12-09 12:32:31.958112$GBGSV,2,2,05,33,63,257,48,,,,,,,,,,,,*57
###2023-12-09 12:32:31.959476$GNVTG,316.77,T,,M,0.17,N,0.32,K,A*20
###2023-12-09 12:32:31.961150$GNGST,173231.10,17.000,,,,0.160,0.150,0.230*57
###2023-12-09 12:32:31.962461$GNZDA,173231.10,09,12,2023,00,00*75
###2023-12-09 12:32:31.963135$GNEBP,,,,,,M*13
###2023-12-09 12:32:32.131125$GNGGA,173231.30,4138.0445204,N,07032.4282056,W,1,22,0.7,12.930,M,-29.745,M,0.0,*52
###2023-12-09 12:32:32.331067$GNGGA,173231.50,4138.0445413,N,07032.4282313,W,1,22,0.7,12.921,M,-29.745,M,0.0,*56
###2023-12-09 12:32:32.531045$GNGGA,173231.70,4138.0445586,N,07032.4282535,W,1,22,0.7,12.908,M,-29.745,M,0.0,*50
###2023-12-09 12:32:32.729565$GNGGA,173231.90,4138.0445556,N,07032.4282500,W,1,22,0.7,12.924,M,-29.745,M,0.0,*5B
###2023-12-09 12:32:32.936440$GNRMC,173232.10,A,4138.0445472,N,07032.4282384,W,0.02,316.77,091223,,,A*57
###2023-12-09 12:32:32.939345$GNGGA,173232.10,4138.0445472,N,07032.4282384,W,1,22,0.7,12.938,M,-29.745,M,0.0,*50
###2023-12-09 12:32:32.941228$GPGSA,A,3,03,04,16,26,28,29,31,32,,,,,1.2,0.7,1.0*31
###2023-12-09 12:32:32.942854$GLGSA,A,3,71,72,73,74,,,,,,,,,1.2,0.7,1.0*2F
###2023-12-09 12:32:32.944457$GAGSA,A,3,04,19,21,27,,,,,,,,,1.2,0.7,1.0*2C
###2023-12-09 12:32:32.946125$GBGSA,A,3,14,24,25,26,33,,,,,,,,1.2,0.7,1.0*25
###2023-12-09 12:32:32.948572$GPGSV,2,1,08,03,39,278,46,04,21,310,43,16,35,207,45,26,65,206,48*7C
###2023-12-09 12:32:32.950959$GPGSV,2,2,08,28,59,054,45,29,25,075,39,31,73,356,47,32,31,133,45*75
###2023-12-09 12:32:32.953309$GLGSV,1,1,04,71,58,169,48,72,65,311,46,73,49,033,46,74,71,287,43*6B
###2023-12-09 12:32:32.955670$GAGSV,1,1,04,04,20,311,41,19,80,306,40,21,76,177,45,27,42,050,42*6F
###2023-12-09 12:32:32.958267$GBGSV,2,1,05,14,56,198,43,24,81,339,48,25,32,252,46,26,36,057,45*65
###2023-12-09 12:32:32.959785$GBGSV,2,2,05,33,63,257,48,,,,,,,,,,,,*57
###2023-12-09 12:32:32.961134$GNVTG,316.77,T,,M,0.02,N,0.04,K,A*21
###2023-12-09 12:32:32.962826$GNGST,173232.10,17.000,,,,0.160,0.140,0.230*55
###2023-12-09 12:32:32.964134$GNZDA,173232.10,09,12,2023,00,00*76
###2023-12-09 12:32:32.964791$GNEBP,,,,,,M*13
###2023-12-09 12:32:33.131206$GNGGA,173232.30,4138.0445568,N,07032.4282501,W,1,22,0.7,12.943,M,-29.745,M,0.0,*5F
###2023-12-09 12:32:33.330929$GNGGA,173232.50,4138.0445740,N,07032.4282784,W,1,23,0.7,12.941,M,-29.745,M,0.0,*5D
###2023-12-09 12:32:33.529762$GNGGA,173232.70,4138.0445819,N,07032.4282923,W,1,23,0.7,12.932,M,-29.745,M,0.0,*5B
