###2023-12-09 13:15:41.780156$GNGGA,181540.90,4138.0320416,N,07032.2783771,W,1,24,0.7,13.149,M,-29.744,M,0.0,*55
###2023-12-09 13:15:41.980530$GNRMC,181541.10,A,4138.0322296,N,07032.2783588,W,3.42,1.18,091223,,,A*50
###2023-12-09 13:15:41.983399$GNGGA,181541.10,4138.0322296,N,07032.2783588,W,1,24,0.7,13.147,M,-29.744,M,0.0,*5A
###2023-12-09 13:15:41.985189$GPGSA,A,3,03,04,16,26,28,29,31,,,,,,1.2,0.7,1.0*30
###2023-12-09 13:15:41.986908$GLGSA,A,3,65,71,72,73,74,75,,,,,,,1.2,0.7,1.0*2E
###2023-12-09 13:15:41.988485$GAGSA,A,3,04,19,21,27,,,,,,,,,1.2,0.7,1.0*2C
###2023-12-09 13:15:41.990187$GBGSA,A,3,14,24,25,26,33,35,,,,,,,1.2,0.7,1.0*23
###2023-12-09 13:15:41.992514$GPGSV,2,1,07,03,32,254,43,04,38,311,43,16,57,216,46,26,87,208,47*70
###2023-12-09 13:15:41.994542$GPGSV,2,2,07,28,44,077,44,29,24,054,41,31,65,052,45,,,,*4A
###2023-12-09 13:15:41.996882$GLGSV,2,1,06,65,30,325,42,71,33,174,47,72,71,243,46,73,30,046,41*61
###2023-12-09 13:15:41.998634$GLGSV,2,2,06,74,66,355,41,75,37,260,46,,,,,,,,*66
###2023-12-09 13:15:42.000957$GAGSV,1,1,04,04,33,312,43,19,80,192,41,21,84,066,46,27,29,048,40*6B
###2023-12-09 13:15:42.003326$GBGSV,2,1,06,14,37,191,44,24,69,035,46,25,45,267,47,26,22,066,42*6F
###2023-12-09 13:15:42.005079$GBGSV,2,2,06,33,53,225,47,35,16,064,42,,,,,,,,*68
###2023-12-09 13:15:42.006329$GNVTG,1.18,T,,M,3.42,N,6.34,K,A*2F
###2023-12-09 13:15:42.007981$GNGST,181541.10,18.000,,,,0.098,0.071,0.170*56
###2023-12-09 13:15:42.009272$GNZDA,181541.10,09,12,2023,00,00*78
###2023-12-09 13:15:42.009909$GNEBP,,,,,,M*13
###2023-12-09 13:15:42.192778$GNGGA,181541.30,4138.0324182,N,07032.2783573,W,1,24,0.7,13.146,M,-29.744,M,0.0,*5D
###2023-12-09 13:15:42.378416$GNGGA,181541.50,4138.0326061,N,07032.2783565,W,1,24,0.7,13.142,M,-29.744,M,0.0,*56
###2023-12-09 13:15:42.578145$GNGGA,181541.70,4138.0327966,N,07032.2783404,W,1,24,0.7,13.145,M,-29.744,M,0.0,*5A
###2023-12-09 13:15:42.778135$GNGGA,181541.90,4138.0329870,N,07032.2783440,W,1,24,0.7,13.153,M,-29.744,M,0.0,*5B
###2023-12-09 13:15:42.981684$GNRMC,181542.10,A,4138.0331775,N,07032.2783809,W,3.50,347.99,091223,,,A*56
###2023-12-09 13:15:42.984592$GNGGA,181542.10,4138.0331775,N,07032.2783809,W,1,24,0.7,13.157,M,-29.744,M,0.0,*56
###2023-12-09 13:15:42.986375$GPGSA,A,3,03,04,16,26,28,29,31,,,,,,1.2,0.7,1.0*30
###2023-12-09 13:15:42.988088$GLGSA,A,3,65,71,72,73,74,75,,,,,,,1.2,0.7,1.0*2E
###2023-12-09 13:15:42.989663$GAGSA,A,3,04,19,21,27,,,,,,,,,1.2,0.7,1.0*2C
###2023-12-09 13:15:42.991372$GBGSA,A,3,14,24,25,26,33,35,,,,,,,1.2,0.7,1.0*23
###2023-12-09 13:15:42.993682$GPGSV,2,1,07,03,32,254,43,04,38,311,44,16,57,216,46,26,87,208,48*78
###2023-12-09 13:15:42.995805$GPGSV,2,2,07,28,44,077,45,29,24,054,43,31,65,052,46,,,,*4A
###2023-12-09 13:15:42.998128$GLGSV,2,1,06,65,30,325,39,71,33,174,47,72,71,243,46,73,30,046,43*6F
###2023-12-09 13:15:42.999886$GLGSV,2,2,06,74,66,355,41,75,37,260,47,,,,,,,,*67
###2023-12-09 13:15:43.002195$GAGSV,1,1,04,04,33,312,42,19,80,192,40,21,84,066,46,27,29,048,41*6A
###2023-12-09 13:15:43.004532$GBGSV,2,1,06,14,37,191,43,24,69,035,47,25,45,267,47,26,22,066,43*68
###2023-12-09 13:15:43.006275$GBGSV,2,2,06,33,53,225,48,35,16,064,42,,,,,,,,*67
###2023-12-09 13:15:43.007617$GNVTG,347.99,T,,M,3.50,N,6.48,K,A*2F
###2023-12-09 13:15:43.009266$GNGST,181542.10,18.000,,,,0.098,0.071,0.170*55
###2023-12-09 13:15:43.010549$GNZDA,181542.10,09,12,2023,00,00*7B
###2023-12-09 13:15:43.011232$GNEBP,,,,,,M*13
###2023-12-09 13:15:43.176170$GNGGA,181542.30,4138.0333668,N,07032.2784325,W,1,24,0.7,13.149,M,-29.744,M,0.0,*56
###2023-12-09 13:15:43.377312$GNGGA,181542.50,4138.0335642,N,07032.2784605,W,1,24,0.7,13.160,M,-29.744,M,0.0,*52
###2023-12-09 13:15:43.578108$GNGGA,181542.70,4138.0337654,N,07032.2784774,W,1,24,0.7,13.167,M,-29.744,M,0.0,*55
###2023-12-09 13:15:43.777213$GNGGA,181542.90,4138.0339663,N,07032.2785091,W,1,24,0.7,13.160,M,-29.744,M,0.0,*5B
###2023-12-09 13:15:43.980558$GNRMC,181543.10,A,4138.0341667,N,07032.2785492,W,3.69,352.45,091223,,,A*55
###2023-12-09 13:15:43.983418$GNGGA,181543.10,4138.0341667,N,07032.2785492,W,1,24,0.7,13.150,M,-29.744,M,0.0,*5D
###2023-12-09 13:15:43.985210$GPGSA,A,3,03,04,16,26,28,29,31,,,,,,1.2,0.7,1.0*30
###2023-12-09 13:15:43.986931$GLGSA,A,3,65,71,72,73,74,75,,,,,,,1.2,0.7,1.0*2E
###2023-12-09 13:15:43.988518$GAGSA,A,3,04,19,21,27,,,,,,,,,1.2,0.7,1.0*2C
###2023-12-09 13:15:43.990221$GBGSA,A,3,14,24,25,26,33,35,,,,,,,1.2,0.7,1.0*23
###2023-12-09 13:15:43.992557$GPGSV,2,1,07,03,32,254,43,04,38,311,44,16,57,216,46,26,87,208,48*78
###2023-12-09 13:15:43.994606$GPGSV,2,2,07,28,44,077,45,29,24,054,41,31,65,052,46,,,,*48
###2023-12-09 13:15:43.996928$GLGSV,2,1,06,65,30,325,41,71,33,174,47,72,71,243,46,73,30,046,42*61
###2023-12-09 13:15:43.998708$GLGSV,2,2,06,74,66,355,41,75,37,260,47,,,,,,,,*67
###2023-12-09 13:15:44.001029$GAGSV,1,1,04,04,33,312,42,19,80,192,40,21,84,066,46,27,29,048,40*6B
###2023-12-09 13:15:44.003359$GBGSV,2,1,06,14,37,191,43,24,69,035,47,25,45,267,46,26,22,066,42*68
###2023-12-09 13:15:44.005105$GBGSV,2,2,06,33,53,225,47,35,16,064,41,,,,,,,,*6B
###2023-12-09 13:15:44.006421$GNVTG,352.45,T,,M,3.69,N,6.84,K,A*20
###2023-12-09 13:15:44.008072$GNGST,181543.10,18.000,,,,0.098,0.071,0.170*54
###2023-12-09 13:15:44.009366$GNZDA,181543.10,09,12,2023,00,00*7A
###2023-12-09 13:15:44.010004$GNEBP,,,,,,M*13
###2023-12-09 13:15:44.177849$GNGGA,181543.30,4138.0343703,N,07032.2785764,W,1,24,0.7,13.159,M,-29.744,M,0.0,*5D
###2023-12-09 13:15:44.377026$GNGGA,181543.50,4138.0345708,N,07032.2785805,W,1,24,0.7,13.175,M,-29.743,M,0.0,*57
###2023-12-09 13:15:44.578168$GNGGA,181543.70,4138.0347685,N,07032.2785742,W,1,24,0.7,13.182,M,-29.743,M,0.0,*57
###2023-12-09 13:15:44.777046$GNGGA,181543.90,4138.0349613,N,07032.2785701,W,1,24,0.7,13.172,M,-29.743,M,0.0,*50
###2023-12-09 13:15:44.988332$GNRMC,181544.10,A,4138.0351501,N,07032.2785650,W,3.36,4.32,091223,,,A*56
###2023-12-09 13:15:44.991203$GNGGA,181544.10,4138.0351501,N,07032.2785650,W,1,24,0.7,13.160,M,-29.743,M,0.0,*50
###2023-12-09 13:15:44.992991$GPGSA,A,3,03,04,16,26,28,29,31,,,,,,1.2,0.7,1.0*30
###2023-12-09 13:15:44.994720$GLGSA,A,3,65,71,72,73,74,75,,,,,,,1.2,0.7,1.0*2E
###2023-12-09 13:15:44.996296$GAGSA,A,3,04,19,21,27,,,,,,,,,1.2,0.7,1.0*2C
###2023-12-09 13:15:44.997995$GBGSA,A,3,14,24,25,26,33,35,,,,,,,1.2,0.7,1.0*23
###2023-12-09 13:15:45.000325$GPGSV,2,1,07,03,32,254,42,04,38,311,43,16,57,216,47,26,87,208,48*7F
###2023-12-09 13:15:45.002361$GPGSV,2,2,07,28,44,077,45,29,24,054,40,31,65,052,46,,,,*49
###2023-12-09 13:15:45.004700$GLGSV,2,1,06,65,30,325,42,71,33,174,46,72,71,243,46,73,30,046,41*60
###2023-12-09 13:15:45.006439$GLGSV,2,2,06,74,66,355,41,75,37,260,46,,,,,,,,*66
###2023-12-09 13:15:45.008758$GAGSV,1,1,04,04,33,312,42,19,80,192,40,21,84,066,45,27,29,048,38*67
###2023-12-09 13:15:45.011086$GBGSV,2,1,06,14,37,191,45,24,69,035,48,25,45,267,47,26,22,066,42*60
###2023-12-09 13:15:45.012838$GBGSV,2,2,06,33,53,225,47,35,16,064,42,,,,,,,,*68
###2023-12-09 13:15:45.014090$GNVTG,4.32,T,,M,3.36,N,6.23,K,A*27
###2023-12-09 13:15:45.015742$GNGST,181544.10,18.000,,,,0.097,0.071,0.170*5C
###2023-12-09 13:15:45.017027$GNZDA,181544.10,09,12,2023,00,00*7D
###2023-12-09 13:15:45.017663$GNEBP,,,,,,M*13
###2023-12-09 13:15:45.180417$GNGGA,181544.30,4138.0353357,N,07032.2785281,W,1,24,0.7,13.155,M,-29.743,M,0.0,*5B
###2023-12-09 13:15:45.378184$GNGGA,181544.50,4138.0355163,N,07032.2784720,W,1,24,0.7,13.159,M,-29.743,M,0.0,*5D
###2023-12-09 13:15:45.578015$GNGGA,181544.70,4138.0356996,N,07032.2784174,W,1,24,0.7,13.175,M,-29.743,M,0.0,*57
###2023-12-09 13:15:45.779436$GNGGA,181544.90,4138.0358895,N,07032.2783701,W,1,24,0.7,13.187,M,-29.743,M,0.0,*5B
###2023-12-09 13:15:45.982424$GNRMC,181545.10,A,4138.0360862,N,07032.2783083,W,3.65,15.45,091223,,,A*65
###2023-12-09 13:15:45.985315$GNGGA,181545.10,4138.0360862,N,07032.2783083,W,1,24,0.7,13.188,M,-29.743,M,0.0,*53
###2023-12-09 13:15:45.987117$GPGSA,A,3,03,04,16,26,28,29,31,,,,,,1.2,0.7,1.0*30
###2023-12-09 13:15:45.988827$GLGSA,A,3,65,71,72,73,74,75,,,,,,,1.2,0.7,1.0*2E
###2023-12-09 13:15:45.990403$GAGSA,A,3,04,19,21,27,,,,,,,,,1.2,0.7,1.0*2C
###2023-12-09 13:15:45.992119$GBGSA,A,3,14,24,25,26,33,35,,,,,,,1.2,0.7,1.0*23
###2023-12-09 13:15:45.994709$GPGSV,2,1,07,03,32,254,42,04,38,311,44,16,57,216,46,26,87,208,48*79
###2023-12-09 13:15:45.996751$GPGSV,2,2,07,28,44,077,43,29,24,054,39,31,65,052,46,,,,*41
###2023-12-09 13:15:45.999095$GLGSV,2,1,06,65,30,325,42,71,33,174,45,72,71,243,46,73,30,046,40*62
###2023-12-09 13:15:46.000837$GLGSV,2,2,06,74,66,355,41,75,37,260,47,,,,,,,,*67
###2023-12-09 13:15:46.003166$GAGSV,1,1,04,04,33,312,43,19,80,192,41,21,84,066,45,27,29,048,37*68
###2023-12-09 13:15:46.005483$GBGSV,2,1,06,14,37,191,44,24,69,035,48,25,45,267,48,26,22,066,40*6C
###2023-12-09 13:15:46.007236$GBGSV,2,2,06,33,53,225,48,35,16,064,40,,,,,,,,*65
###2023-12-09 13:15:46.008523$GNVTG,15.45,T,,M,3.65,N,6.77,K,A*10
###2023-12-09 13:15:46.010164$GNGST,181545.10,18.000,,,,0.097,0.071,0.170*5D
