###2023-12-09 12:38:37.947598$GLGSA,A,3,71,72,73,74,75,,,,,,,,1.2,0.7,1.0*2D
###2023-12-09 12:38:37.949216$GAGSA,A,3,04,19,21,27,,,,,,,,,1.2,0.7,1.0*2C
###2023-12-09 12:38:37.950884$GBGSA,A,3,14,24,25,26,33,,,,,,,,1.2,0.7,1.0*25
###2023-12-09 12:38:37.953220$GPGSV,2,1,08,03,38,275,44,04,23,311,38,16,38,208,43,26,68,207,48*75
###2023-12-09 12:38:37.955574$GPGSV,2,2,08,28,57,058,44,29,25,072,43,31,73,007,46,32,28,135,43*72
###2023-12-09 12:38:37.957915$GLGSV,2,1,05,71,55,169,47,72,67,307,47,73,46,034,47,74,71,296,43*66
###2023-12-09 12:38:37.959383$GLGSV,2,2,05,75,23,242,44,,,,,,,,,,,,*57
###2023-12-09 12:38:37.961704$GAGSV,1,1,04,04,22,311,41,19,82,296,41,21,79,174,46,27,40,049,45*64
###2023-12-09 12:38:37.964042$GBGSV,2,1,05,14,54,197,45,24,80,351,48,25,33,253,45,26,34,058,45*6F
###2023-12-09 12:38:37.965489$GBGSV,2,2,05,33,63,252,48,,,,,,,,,,,,*52
###2023-12-09 12:38:37.966825$GNVTG,124.15,T,,M,0.66,N,1.22,K,A*21
###2023-12-09 12:38:37.968470$GNGST,173837.10,18.000,,,,0.080,0.069,0.160*56
###2023-12-09 12:38:37.969759$GNZDA,173837.10,09,12,2023,00,00*79
###2023-12-09 12:38:37.970396$GNEBP,,,,,,M*13
###2023-12-09 12:38:38.144425$GNGGA,173837.30,4138.0542350,N,07032.3681967,W,1,23,0.7,13.611,M,-29.744,M,0.0,*5E
###2023-12-09 12:38:38.340106$GNGGA,173837.50,4138.0542252,N,07032.3681650,W,1,23,0.7,13.605,M,-29.744,M,0.0,*55
###2023-12-09 12:38:38.540834$GNGGA,173837.70,4138.0542122,N,07032.3681285,W,1,23,0.7,13.598,M,-29.744,M,0.0,*58
###2023-12-09 12:38:38.739314$GNGGA,173837.90,4138.0541929,N,07032.3680942,W,1,23,0.7,13.610,M,-29.744,M,0.0,*54
###2023-12-09 12:38:38.940532$GNRMC,173838.10,A,4138.0541760,N,07032.3680671,W,0.47,124.15,091223,,,A*5A
###2023-12-09 12:38:38.943406$GNGGA,173838.10,4138.0541760,N,07032.3680671,W,1,23,0.7,13.630,M,-29.744,M,0.0,*5D
###2023-12-09 12:38:38.945267$GPGSA,A,3,03,04,16,26,28,29,31,32,,,,,1.2,0.7,1.0*31
###2023-12-09 12:38:38.946958$GLGSA,A,3,71,72,73,74,75,,,,,,,,1.2,0.7,1.0*2D
###2023-12-09 12:38:38.948561$GAGSA,A,3,04,19,21,27,,,,,,,,,1.2,0.7,1.0*2C
###2023-12-09 12:38:38.950218$GBGSA,A,3,14,24,25,26,33,,,,,,,,1.2,0.7,1.0*25
###2023-12-09 12:38:38.952576$GPGSV,2,1,08,03,38,275,46,04,23,311,41,16,38,208,46,26,68,207,49*7D
###2023-12-09 12:38:38.954933$GPGSV,2,2,08,28,57,058,46,29,25,072,44,31,73,007,49,32,28,135,45*7E
###2023-12-09 12:38:38.957260$GLGSV,2,1,05,71,55,169,47,72,67,307,47,73,46,034,46,74,71,296,43*67
###2023-12-09 12:38:38.958722$GLGSV,2,2,05,75,23,242,44,,,,,,,,,,,,*57
###2023-12-09 12:38:38.961041$GAGSV,1,1,04,04,22,311,40,19,82,296,41,21,79,174,46,27,40,049,45*65
###2023-12-09 12:38:38.963426$GBGSV,2,1,05,14,54,197,45,24,80,351,48,25,33,253,45,26,34,058,46*6C
###2023-12-09 12:38:38.964893$GBGSV,2,2,05,33,63,252,49,,,,,,,,,,,,*53
###2023-12-09 12:38:38.966210$GNVTG,124.15,T,,M,0.47,N,0.86,K,A*2D
###2023-12-09 12:38:38.967868$GNGST,173838.10,18.000,,,,0.080,0.068,0.160*58
###2023-12-09 12:38:38.969158$GNZDA,173838.10,09,12,2023,00,00*76
###2023-12-09 12:38:38.969795$GNEBP,,,,,,M*13
###2023-12-09 12:38:39.139971$GNGGA,173838.30,4138.0541634,N,07032.3680331,W,1,23,0.7,13.629,M,-29.744,M,0.0,*56
###2023-12-09 12:38:39.341139$GNGGA,173838.50,4138.0541524,N,07032.3679971,W,1,23,0.7,13.614,M,-29.744,M,0.0,*54
###2023-12-09 12:38:39.543129$GNGGA,173838.70,4138.0541373,N,07032.3679742,W,1,23,0.7,13.620,M,-29.744,M,0.0,*5B
###2023-12-09 12:38:39.740441$GNGGA,173838.90,4138.0541188,N,07032.3679587,W,1,23,0.7,13.647,M,-29.744,M,0.0,*59
###2023-12-09 12:38:39.937798$GNRMC,173839.10,A,4138.0541052,N,07032.3679302,W,0.52,124.15,091223,,,A*5E
###2023-12-09 12:38:39.940660$GNGGA,173839.10,4138.0541052,N,07032.3679302,W,1,23,0.7,13.648,M,-29.744,M,0.0,*52
###2023-12-09 12:38:39.942509$GPGSA,A,3,03,04,16,26,28,29,31,32,,,,,1.2,0.7,1.0*31
###2023-12-09 12:38:39.944161$GLGSA,A,3,71,72,73,74,75,,,,,,,,1.2,0.7,1.0*2D
###2023-12-09 12:38:39.945738$GAGSA,A,3,04,19,21,27,,,,,,,,,1.2,0.7,1.0*2C
###2023-12-09 12:38:39.947409$GBGSA,A,3,14,24,25,26,33,,,,,,,,1.2,0.7,1.0*25
###2023-12-09 12:38:39.949757$GPGSV,2,1,08,03,38,275,46,04,23,311,40,16,38,208,45,26,68,207,49*7F
###2023-12-09 12:38:39.952108$GPGSV,2,2,08,28,57,058,47,29,25,072,44,31,73,007,48,32,28,135,44*7F
###2023-12-09 12:38:39.954449$GLGSV,2,1,05,71,55,169,47,72,67,307,47,73,46,034,47,74,71,296,43*66
###2023-12-09 12:38:39.955921$GLGSV,2,2,05,75,23,242,45,,,,,,,,,,,,*56
###2023-12-09 12:38:39.958245$GAGSV,1,1,04,04,22,311,40,19,82,296,41,21,79,174,46,27,40,049,43*63
###2023-12-09 12:38:39.960598$GBGSV,2,1,05,14,54,197,45,24,80,351,47,25,33,253,44,26,34,058,45*61
###2023-12-09 12:38:39.962053$GBGSV,2,2,05,33,63,252,48,,,,,,,,,,,,*52
###2023-12-09 12:38:39.963382$GNVTG,124.15,T,,M,0.52,N,0.97,K,A*29
###2023-12-09 12:38:39.965024$GNGST,173839.10,18.000,,,,0.079,0.068,0.160*5F
###2023-12-09 12:38:39.966309$GNZDA,173839.10,09,12,2023,00,00*77
###2023-12-09 12:38:39.966959$GNEBP,,,,,,M*13
###2023-12-09 12:38:40.137037$GNGGA,173839.30,4138.0541012,N,07032.3678947,W,1,23,0.7,13.634,M,-29.744,M,0.0,*55
###2023-12-09 12:38:40.338862$GNGGA,173839.50,4138.0540920,N,07032.3678786,W,1,23,0.7,13.645,M,-29.744,M,0.0,*5F
###2023-12-09 12:38:40.540103$GNGGA,173839.70,4138.0540705,N,07032.3678721,W,1,23,0.7,13.662,M,-29.744,M,0.0,*5C
###2023-12-09 12:38:40.737344$GNGGA,173839.90,4138.0540568,N,07032.3678536,W,1,23,0.7,13.661,M,-29.744,M,0.0,*5C
###2023-12-09 12:38:40.938673$GNRMC,173840.10,A,4138.0540582,N,07032.3678230,W,0.45,124.15,091223,,,A*5E
###2023-12-09 12:38:40.941523$GNGGA,173840.10,4138.0540582,N,07032.3678230,W,1,23,0.7,13.654,M,-29.744,M,0.0,*59
###2023-12-09 12:38:40.943388$GPGSA,A,3,03,04,16,26,28,29,31,32,,,,,1.2,0.7,1.0*31
###2023-12-09 12:38:40.945035$GLGSA,A,3,71,72,73,74,75,,,,,,,,1.2,0.7,1.0*2D
###2023-12-09 12:38:40.946672$GAGSA,A,3,04,19,21,27,,,,,,,,,1.2,0.7,1.0*2C
###2023-12-09 12:38:40.948342$GBGSA,A,3,14,24,25,26,33,,,,,,,,1.2,0.7,1.0*25
###2023-12-09 12:38:40.950694$GPGSV,2,1,08,03,38,275,45,04,23,311,41,16,38,208,44,26,68,207,48*7D
###2023-12-09 12:38:40.953020$GPGSV,2,2,08,28,57,058,46,29,25,072,45,31,73,007,48,32,28,135,43*78
###2023-12-09 12:38:40.955361$GLGSV,2,1,05,71,55,169,47,72,67,307,48,73,46,034,47,74,71,296,43*69
###2023-12-09 12:38:40.956810$GLGSV,2,2,05,75,23,242,45,,,,,,,,,,,,*56
###2023-12-09 12:38:40.959146$GAGSV,1,1,04,04,22,311,40,19,82,296,40,21,79,174,46,27,40,049,44*65
###2023-12-09 12:38:40.961485$GBGSV,2,1,05,14,54,197,46,24,80,351,49,25,33,253,45,26,34,058,46*6E
###2023-12-09 12:38:40.962957$GBGSV,2,2,05,33,63,252,49,,,,,,,,,,,,*53
###2023-12-09 12:38:40.964273$GNVTG,124.15,T,,M,0.45,N,0.83,K,A*2A
###2023-12-09 12:38:40.965917$GNGST,173840.10,18.000,,,,0.079,0.068,0.160*51
###2023-12-09 12:38:40.967220$GNZDA,173840.10,09,12,2023,00,00*79
###2023-12-09 12:38:40.967858$GNEBP,,,,,,M*13
###2023-12-09 12:38:41.137323$GNGGA,173840.30,4138.0540557,N,07032.3678034,W,1,23,0.7,13.652,M,-29.744,M,0.0,*53
###2023-12-09 12:38:41.337981$GNGGA,173840.50,4138.0540336,N,07032.3678000,W,1,23,0.7,13.671,M,-29.744,M,0.0,*52
###2023-12-09 12:38:41.538005$GNGGA,173840.70,4138.0540210,N,07032.3677928,W,1,23,0.7,13.670,M,-29.744,M,0.0,*58
###2023-12-09 12:38:41.737191$GNGGA,173840.90,4138.0540189,N,07032.3677708,W,1,23,0.7,13.671,M,-29.744,M,0.0,*58
###2023-12-09 12:38:41.937857$GNRMC,173841.10,A,4138.0540161,N,07032.3677501,W,0.21,124.15,091223,,,A*5E
###2023-12-09 12:38:41.940803$GNGGA,173841.10,4138.0540161,N,07032.3677501,W,1,23,0.7,13.673,M,-29.744,M,0.0,*5E
###2023-12-09 12:38:41.942687$GPGSA,A,3,03,04,16,26,28,29,31,32,,,,,1.2,0.7,1.0*31
###2023-12-09 12:38:41.944349$GLGSA,A,3,71,72,73,74,75,,,,,,,,1.2,0.7,1.0*2D
###2023-12-09 12:38:41.945942$GAGSA,A,3,04,19,21,27,,,,,,,,,1.2,0.7,1.0*2C
###2023-12-09 12:38:41.947614$GBGSA,A,3,14,24,25,26,33,,,,,,,,1.2,0.7,1.0*25
###2023-12-09 12:38:41.949968$GPGSV,2,1,08,03,38,275,45,04,23,311,41,16,38,208,44,26,68,207,48*7D
###2023-12-09 12:38:41.952327$GPGSV,2,2,08,28,57,058,46,29,25,072,45,31,73,007,48,32,28,135,42*79
###2023-12-09 12:38:41.954686$GLGSV,2,1,05,71,55,169,47,72,67,307,47,73,46,034,47,74,71,296,43*66
###2023-12-09 12:38:41.956146$GLGSV,2,2,05,75,23,242,44,,,,,,,,,,,,*57
###2023-12-09 12:38:41.958482$GAGSV,1,1,04,04,22,311,39,19,82,296,40,21,79,174,46,27,40,049,45*6A
###2023-12-09 12:38:41.961112$GBGSV,2,1,05,14,54,197,44,24,80,351,48,25,33,253,44,26,34,058,45*6F
###2023-12-09 12:38:41.962603$GBGSV,2,2,05,33,63,252,48,,,,,,,,,,,,*52
###2023-12-09 12:38:41.963939$GNVTG,124.15,T,,M,0.21,N,0.40,K,A*27
###2023-12-09 12:38:41.965589$GNGST,173841.10,18.000,,,,0.079,0.068,0.160*50
###2023-12-09 12:38:41.966897$GNZDA,173841.10,09,12,2023,00,00*78
###2023-12-09 12:38:41.967537$GNEBP,,,,,,M*13
###2023-12-09 12:38:42.138010$GNGGA,173841.30,4138.0540045,N,07032.3677481,W,1,23,0.7,13.679,M,-29.744,M,0.0,*58
###2023-12-09 12:38:42.337802$GNGGA,173841.50,4138.0539876,N,07032.3677474,W,1,23,0.7,13.682,M,-29.744,M,0.0,*56
