###2023-12-09 13:05:22.567847$GNGGA,180521.70,4138.0576404,N,07032.2561370,W,1,24,0.6,13.532,M,-29.742,M,0.0,*5F
###2023-12-09 13:05:22.767926$GNGGA,180521.90,4138.0576915,N,07032.2558871,W,1,24,0.6,13.519,M,-29.742,M,0.0,*55
###2023-12-09 13:05:22.969220$GNRMC,180522.10,A,4138.0577502,N,07032.2556570,W,3.27,68.48,091223,,,A*6C
###2023-12-09 13:05:22.972108$GNGGA,180522.10,4138.0577502,N,07032.2556570,W,1,24,0.6,13.517,M,-29.742,M,0.0,*59
###2023-12-09 13:05:22.973962$GPGSA,A,3,03,04,16,26,28,29,31,32,,,,,1.1,0.6,0.9*3B
###2023-12-09 13:05:22.975689$GLGSA,A,3,65,71,72,73,74,75,,,,,,,1.1,0.6,0.9*24
###2023-12-09 13:05:22.977271$GAGSA,A,3,04,19,21,27,,,,,,,,,1.1,0.6,0.9*26
###2023-12-09 13:05:22.978929$GBGSA,A,3,14,24,25,26,33,,,,,,,,1.1,0.6,0.9*2F
###2023-12-09 13:05:22.981254$GPGSV,2,1,08,03,34,259,44,04,34,311,44,16,52,213,47,26,81,210,49*78
###2023-12-09 13:05:22.983592$GPGSV,2,2,08,28,48,071,42,29,25,060,42,31,68,040,46,32,18,140,42*7A
###2023-12-09 13:05:22.985920$GLGSV,2,1,06,65,26,327,44,71,39,173,46,72,73,261,46,73,34,043,41*6D
###2023-12-09 13:05:22.987675$GLGSV,2,2,06,74,69,343,43,75,33,255,47,,,,,,,,*6F
###2023-12-09 13:05:22.989993$GAGSV,1,1,04,04,30,312,41,19,83,207,40,21,86,104,46,27,32,048,39*64
###2023-12-09 13:05:22.992331$GBGSV,2,1,05,14,42,192,45,24,72,028,48,25,42,263,46,26,25,063,43*65
###2023-12-09 13:05:22.993789$GBGSV,2,2,05,33,56,230,48,,,,,,,,,,,,*50
###2023-12-09 13:05:22.995092$GNVTG,68.48,T,,M,3.27,N,6.05,K,A*14
###2023-12-09 13:05:22.996733$GNGST,180522.10,18.000,,,,0.082,0.068,0.160*50
###2023-12-09 13:05:22.998015$GNZDA,180522.10,09,12,2023,00,00*7C
###2023-12-09 13:05:22.998665$GNEBP,,,,,,M*13
###2023-12-09 13:05:23.167734$GNGGA,180522.30,4138.0578133,N,07032.2554187,W,1,24,0.6,13.531,M,-29.742,M,0.0,*58
###2023-12-09 13:05:23.367855$GNGGA,180522.50,4138.0578715,N,07032.2551769,W,1,24,0.6,13.506,M,-29.742,M,0.0,*5B
###2023-12-09 13:05:23.567809$GNGGA,180522.70,4138.0579600,N,07032.2549733,W,1,24,0.6,13.518,M,-29.742,M,0.0,*54
###2023-12-09 13:05:23.766879$GNGGA,180522.90,4138.0580621,N,07032.2547657,W,1,24,0.6,13.553,M,-29.742,M,0.0,*5D
###2023-12-09 13:05:23.970944$GNRMC,180523.10,A,4138.0581432,N,07032.2545347,W,3.30,66.62,091223,,,A*66
###2023-12-09 13:05:23.973787$GNGGA,180523.10,4138.0581432,N,07032.2545347,W,1,24,0.6,13.541,M,-29.742,M,0.0,*50
###2023-12-09 13:05:23.975646$GPGSA,A,3,03,04,16,26,28,29,31,32,,,,,1.1,0.6,0.9*3B
###2023-12-09 13:05:23.977349$GLGSA,A,3,65,71,72,73,74,75,,,,,,,1.1,0.6,0.9*24
###2023-12-09 13:05:23.978940$GAGSA,A,3,04,19,21,27,,,,,,,,,1.1,0.6,0.9*26
###2023-12-09 13:05:23.980584$GBGSA,A,3,14,24,25,26,33,,,,,,,,1.1,0.6,0.9*2F
###2023-12-09 13:05:23.982918$GPGSV,2,1,08,03,34,259,41,04,34,311,42,16,52,213,44,26,81,210,46*77
###2023-12-09 13:05:23.985240$GPGSV,2,2,08,28,48,071,42,29,25,060,40,31,68,040,45,32,18,140,41*78
###2023-12-09 13:05:23.987572$GLGSV,2,1,06,65,26,327,42,71,39,173,46,72,73,261,46,73,34,043,42*68
###2023-12-09 13:05:23.989308$GLGSV,2,2,06,74,69,343,42,75,33,255,45,,,,,,,,*6C
###2023-12-09 13:05:23.991634$GAGSV,1,1,04,04,30,312,42,19,83,207,39,21,86,104,44,27,32,048,40*65
###2023-12-09 13:05:23.993949$GBGSV,2,1,05,14,42,192,46,24,72,028,49,25,42,263,47,26,25,063,44*61
###2023-12-09 13:05:23.995407$GBGSV,2,2,05,33,56,230,48,,,,,,,,,,,,*50
###2023-12-09 13:05:23.996689$GNVTG,66.62,T,,M,3.30,N,6.12,K,A*12
###2023-12-09 13:05:23.998332$GNGST,180523.10,18.000,,,,0.082,0.067,0.160*5E
###2023-12-09 13:05:23.999630$GNZDA,180523.10,09,12,2023,00,00*7D
###2023-12-09 13:05:24.000268$GNEBP,,,,,,M*13
###2023-12-09 13:05:24.167017$GNGGA,180523.30,4138.0582316,N,07032.2543277,W,1,24,0.6,13.527,M,-29.742,M,0.0,*54
###2023-12-09 13:05:24.367543$GNGGA,180523.50,4138.0583388,N,07032.2541360,W,1,24,0.6,13.535,M,-29.742,M,0.0,*52
###2023-12-09 13:05:24.568048$GNGGA,180523.70,4138.0584418,N,07032.2539404,W,1,24,0.6,13.515,M,-29.742,M,0.0,*51
###2023-12-09 13:05:24.767874$GNGGA,180523.90,4138.0585437,N,07032.2537638,W,1,24,0.6,13.515,M,-29.742,M,0.0,*50
###2023-12-09 13:05:24.970014$GNRMC,180524.10,A,4138.0586452,N,07032.2535833,W,3.21,55.72,091223,,,A*6E
###2023-12-09 13:05:24.972890$GNGGA,180524.10,4138.0586452,N,07032.2535833,W,1,24,0.6,13.540,M,-29.742,M,0.0,*58
###2023-12-09 13:05:24.974749$GPGSA,A,3,03,04,16,26,28,29,31,32,,,,,1.1,0.6,0.9*3B
###2023-12-09 13:05:24.976456$GLGSA,A,3,65,71,72,73,74,75,,,,,,,1.1,0.6,0.9*24
###2023-12-09 13:05:24.978031$GAGSA,A,3,04,19,21,27,,,,,,,,,1.1,0.6,0.9*26
###2023-12-09 13:05:24.979681$GBGSA,A,3,14,24,25,26,33,,,,,,,,1.1,0.6,0.9*2F
###2023-12-09 13:05:24.982001$GPGSV,2,1,08,03,34,259,41,04,34,311,43,16,52,213,45,26,81,210,47*76
###2023-12-09 13:05:24.984334$GPGSV,2,2,08,28,48,071,42,29,25,060,40,31,68,040,45,32,18,140,40*79
###2023-12-09 13:05:24.986667$GLGSV,2,1,06,65,26,327,42,71,39,173,46,72,73,261,46,73,34,043,43*69
###2023-12-09 13:05:24.988406$GLGSV,2,2,06,74,69,343,42,75,33,255,44,,,,,,,,*6D
###2023-12-09 13:05:24.990765$GAGSV,1,1,04,04,30,312,43,19,83,207,41,21,86,104,46,27,32,048,42*6B
###2023-12-09 13:05:24.993084$GBGSV,2,1,05,14,42,192,43,24,72,028,47,25,42,263,45,26,25,063,39*62
###2023-12-09 13:05:24.994532$GBGSV,2,2,05,33,56,230,47,,,,,,,,,,,,*5F
###2023-12-09 13:05:24.995829$GNVTG,55.72,T,,M,3.21,N,5.94,K,A*1E
###2023-12-09 13:05:24.997464$GNGST,180524.10,18.000,,,,0.082,0.068,0.160*56
###2023-12-09 13:05:24.998757$GNZDA,180524.10,09,12,2023,00,00*7A
###2023-12-09 13:05:24.999396$GNEBP,,,,,,M*13
###2023-12-09 13:05:25.166858$GNGGA,180524.30,4138.0587523,N,07032.2533962,W,1,24,0.6,13.531,M,-29.742,M,0.0,*59
###2023-12-09 13:05:25.367424$GNGGA,180524.50,4138.0588872,N,07032.2532576,W,1,24,0.6,13.530,M,-29.742,M,0.0,*50
###2023-12-09 13:05:25.568141$GNGGA,180524.70,4138.0590272,N,07032.2531196,W,1,24,0.6,13.542,M,-29.742,M,0.0,*5D
###2023-12-09 13:05:25.767892$GNGGA,180524.90,4138.0591435,N,07032.2529429,W,1,24,0.6,13.539,M,-29.742,M,0.0,*53
###2023-12-09 13:05:25.969100$GNRMC,180525.10,A,4138.0592698,N,07032.2527770,W,3.09,39.58,091223,,,A*6D
###2023-12-09 13:05:25.971981$GNGGA,180525.10,4138.0592698,N,07032.2527770,W,1,24,0.6,13.530,M,-29.742,M,0.0,*54
###2023-12-09 13:05:25.973818$GPGSA,A,3,03,04,16,26,28,29,31,32,,,,,1.1,0.6,0.9*3B
###2023-12-09 13:05:25.975534$GLGSA,A,3,65,71,72,73,74,75,,,,,,,1.1,0.6,0.9*24
###2023-12-09 13:05:25.977106$GAGSA,A,3,04,19,21,27,,,,,,,,,1.1,0.6,0.9*26
###2023-12-09 13:05:25.978754$GBGSA,A,3,14,24,25,26,33,,,,,,,,1.1,0.6,0.9*2F
###2023-12-09 13:05:25.981065$GPGSV,2,1,08,03,34,259,41,04,34,311,43,16,52,213,46,26,81,210,47*75
###2023-12-09 13:05:25.983435$GPGSV,2,2,08,28,48,071,43,29,25,060,39,31,68,040,45,32,18,140,44*72
###2023-12-09 13:05:25.985753$GLGSV,2,1,06,65,26,327,42,71,39,173,46,72,73,261,46,73,34,043,43*69
###2023-12-09 13:05:25.987501$GLGSV,2,2,06,74,69,343,42,75,33,255,43,,,,,,,,*6A
###2023-12-09 13:05:25.989795$GAGSV,1,1,04,04,30,312,42,19,83,207,40,21,86,104,46,27,32,048,41*68
###2023-12-09 13:05:25.992109$GBGSV,2,1,05,14,42,192,44,24,72,028,47,25,42,263,44,26,25,063,40*6A
###2023-12-09 13:05:25.993553$GBGSV,2,2,05,33,56,230,45,,,,,,,,,,,,*5D
###2023-12-09 13:05:25.994844$GNVTG,39.58,T,,M,3.09,N,5.72,K,A*1E
###2023-12-09 13:05:25.996480$GNGST,180525.10,18.000,,,,0.082,0.068,0.160*57
###2023-12-09 13:05:25.997761$GNZDA,180525.10,09,12,2023,00,00*7B
###2023-12-09 13:05:25.998393$GNEBP,,,,,,M*13
###2023-12-09 13:05:26.167271$GNGGA,180525.30,4138.0594112,N,07032.2526546,W,1,24,0.6,13.534,M,-29.742,M,0.0,*57
###2023-12-09 13:05:26.368660$GNGGA,180525.50,4138.0595528,N,07032.2525424,W,1,24,0.6,13.538,M,-29.742,M,0.0,*57
###2023-12-09 13:05:26.567700$GNGGA,180525.70,4138.0596838,N,07032.2524085,W,1,24,0.6,13.543,M,-29.742,M,0.0,*58
###2023-12-09 13:05:26.767788$GNGGA,180525.90,4138.0598198,N,07032.2522810,W,1,24,0.6,13.543,M,-29.742,M,0.0,*59
###2023-12-09 13:05:26.969866$GNRMC,180526.10,A,4138.0599636,N,07032.2521808,W,2.88,23.48,091223,,,A*65
###2023-12-09 13:05:26.972745$GNGGA,180526.10,4138.0599636,N,07032.2521808,W,1,24,0.6,13.548,M,-29.742,M,0.0,*51
###2023-12-09 13:05:26.974634$GPGSA,A,3,03,04,16,26,28,29,31,32,,,,,1.1,0.6,0.9*3B
###2023-12-09 13:05:26.976345$GLGSA,A,3,65,71,72,73,74,75,,,,,,,1.1,0.6,0.9*24
###2023-12-09 13:05:26.978171$GAGSA,A,3,04,19,21,27,,,,,,,,,1.1,0.6,0.9*26
###2023-12-09 13:05:26.979841$GBGSA,A,3,14,24,25,26,33,,,,,,,,1.1,0.6,0.9*2F
###2023-12-09 13:05:26.982168$GPGSV,2,1,08,03,34,259,42,04,34,311,43,16,52,213,46,26,82,210,48*7A
###2023-12-09 13:05:26.984518$GPGSV,2,2,08,28,48,071,44,29,25,060,39,31,68,040,46,32,18,140,42*70
###2023-12-09 13:05:26.986860$GLGSV,2,1,06,65,26,327,42,71,39,173,46,72,73,261,46,73,34,043,43*69
###2023-12-09 13:05:26.988604$GLGSV,2,2,06,74,69,343,42,75,33,255,45,,,,,,,,*6C
###2023-12-09 13:05:26.990933$GAGSV,1,1,04,04,30,312,42,19,83,207,41,21,86,104,46,27,32,048,41*69
###2023-12-09 13:05:26.993255$GBGSV,2,1,05,14,42,192,45,24,72,028,49,25,42,263,47,26,25,063,43*65
###2023-12-09 13:05:26.994715$GBGSV,2,2,05,33,56,230,47,,,,,,,,,,,,*5F
###2023-12-09 13:05:26.995998$GNVTG,23.48,T,,M,2.88,N,5.33,K,A*19
