###2023-12-09 13:40:41.800328$GNGGA,184040.90,4138.0267121,N,07032.3882945,W,1,24,0.6,13.349,M,-29.745,M,0.0,*52
###2023-12-09 13:40:42.002955$GNRMC,184041.10,A,4138.0267102,N,07032.3882989,W,0.12,243.13,091223,,,A*55
###2023-12-09 13:40:42.005818$GNGGA,184041.10,4138.0267102,N,07032.3882989,W,1,24,0.6,13.353,M,-29.745,M,0.0,*51
###2023-12-09 13:40:42.007686$GPGSA,A,3,03,04,16,26,27,28,29,31,,,,,1.1,0.6,0.9*3F
###2023-12-09 13:40:42.009385$GLGSA,A,3,65,71,72,73,74,75,,,,,,,1.1,0.6,0.9*24
###2023-12-09 13:40:42.010967$GAGSA,A,3,04,19,21,27,,,,,,,,,1.1,0.6,0.9*26
###2023-12-09 13:40:42.012662$GBGSA,A,3,12,14,24,25,33,35,,,,,,,1.1,0.6,0.9*2E
###2023-12-09 13:40:42.014974$GPGSV,2,1,08,03,25,244,36,04,48,306,45,16,69,225,46,26,81,040,49*76
###2023-12-09 13:40:42.017297$GPGSV,2,2,08,27,19,172,39,28,36,087,45,29,19,045,42,31,58,070,46*7D
###2023-12-09 13:40:42.019630$GLGSV,2,1,06,65,41,315,45,71,20,176,38,72,60,217,46,73,20,054,43*6A
###2023-12-09 13:40:42.021368$GLGSV,2,2,06,74,58,018,43,75,45,275,48,,,,,,,,*6C
###2023-12-09 13:40:42.023705$GAGSV,1,1,04,04,41,309,45,19,69,180,41,21,74,044,46,27,21,050,42*6A
###2023-12-09 13:40:42.026031$GBGSV,2,1,06,12,17,124,41,14,26,189,41,24,60,049,48,25,53,279,49*6C
###2023-12-09 13:40:42.027784$GBGSV,2,2,06,33,43,215,47,35,16,054,45,,,,,,,,*6E
###2023-12-09 13:40:42.029103$GNVTG,243.13,T,,M,0.12,N,0.22,K,A*27
###2023-12-09 13:40:42.030722$GNGST,184041.10,5.700,,,,0.088,0.074,0.160*68
###2023-12-09 13:40:42.032010$GNZDA,184041.10,09,12,2023,00,00*78
###2023-12-09 13:40:42.032645$GNEBP,,,,,,M*13
###2023-12-09 13:40:42.201437$GNGGA,184041.30,4138.0267100,N,07032.3882921,W,1,23,0.6,13.356,M,-29.745,M,0.0,*51
###2023-12-09 13:40:42.403062$GNGGA,184041.50,4138.0267100,N,07032.3883038,W,1,24,0.6,13.351,M,-29.745,M,0.0,*57
###2023-12-09 13:40:42.599395$GNGGA,184041.70,4138.0267053,N,07032.3883292,W,1,24,0.6,13.351,M,-29.745,M,0.0,*50
###2023-12-09 13:40:42.800412$GNGGA,184041.90,4138.0267021,N,07032.3883431,W,1,23,0.6,13.355,M,-29.745,M,0.0,*57
###2023-12-09 13:40:43.004810$GNRMC,184042.10,A,4138.0267010,N,07032.3883455,W,0.04,243.13,091223,,,A*5E
###2023-12-09 13:40:43.007681$GNGGA,184042.10,4138.0267010,N,07032.3883455,W,1,23,0.6,13.354,M,-29.745,M,0.0,*5D
###2023-12-09 13:40:43.009473$GPGSA,A,3,04,16,26,27,28,29,31,,,,,,1.2,0.6,1.0*37
###2023-12-09 13:40:43.011199$GLGSA,A,3,65,71,72,73,74,75,,,,,,,1.2,0.6,1.0*2F
###2023-12-09 13:40:43.012783$GAGSA,A,3,04,19,21,27,,,,,,,,,1.2,0.6,1.0*2D
###2023-12-09 13:40:43.014495$GBGSA,A,3,12,14,24,25,33,35,,,,,,,1.2,0.6,1.0*25
###2023-12-09 13:40:43.016843$GPGSV,2,1,07,04,48,306,44,16,69,225,45,26,81,040,47,27,19,172,39*75
###2023-12-09 13:40:43.018894$GPGSV,2,2,07,28,36,087,43,29,19,045,42,31,58,070,45,,,,*44
###2023-12-09 13:40:43.021229$GLGSV,2,1,06,65,41,315,45,71,20,176,37,72,60,217,46,73,20,054,43*65
###2023-12-09 13:40:43.022989$GLGSV,2,2,06,74,58,018,44,75,45,275,48,,,,,,,,*6B
###2023-12-09 13:40:43.025323$GAGSV,1,1,04,04,41,309,44,19,69,180,40,21,74,044,46,27,21,050,41*69
###2023-12-09 13:40:43.027663$GBGSV,2,1,06,12,17,124,42,14,26,189,41,24,60,049,48,25,53,279,49*6F
###2023-12-09 13:40:43.029409$GBGSV,2,2,06,33,43,215,47,35,16,054,44,,,,,,,,*6F
###2023-12-09 13:40:43.030742$GNVTG,243.13,T,,M,0.04,N,0.07,K,A*27
###2023-12-09 13:40:43.032358$GNGST,184042.10,5.600,,,,0.088,0.075,0.170*6A
###2023-12-09 13:40:43.033649$GNZDA,184042.10,09,12,2023,00,00*7B
###2023-12-09 13:40:43.034285$GNEBP,,,,,,M*13
###2023-12-09 13:40:43.198129$GNGGA,184042.30,4138.0267008,N,07032.3883478,W,1,23,0.6,13.349,M,-29.745,M,0.0,*55
###2023-12-09 13:40:43.398860$GNGGA,184042.50,4138.0266970,N,07032.3883610,W,1,23,0.6,13.352,M,-29.745,M,0.0,*52
###2023-12-09 13:40:43.597243$GNGGA,184042.70,4138.0266914,N,07032.3883773,W,1,23,0.6,13.355,M,-29.745,M,0.0,*51
###2023-12-09 13:40:43.796986$GNGGA,184042.90,4138.0266895,N,07032.3883830,W,1,23,0.6,13.356,M,-29.745,M,0.0,*5C
###2023-12-09 13:40:44.001667$GNRMC,184043.10,A,4138.0266882,N,07032.3883869,W,0.12,243.13,091223,,,A*59
###2023-12-09 13:40:44.004553$GNGGA,184043.10,4138.0266882,N,07032.3883869,W,1,23,0.6,13.357,M,-29.745,M,0.0,*5E
###2023-12-09 13:40:44.006357$GPGSA,A,3,04,16,26,27,28,29,31,,,,,,1.2,0.6,1.0*37
###2023-12-09 13:40:44.008095$GLGSA,A,3,65,71,72,73,74,75,,,,,,,1.2,0.6,1.0*2F
###2023-12-09 13:40:44.009684$GAGSA,A,3,04,19,21,27,,,,,,,,,1.2,0.6,1.0*2D
###2023-12-09 13:40:44.011414$GBGSA,A,3,12,14,24,25,33,35,,,,,,,1.2,0.6,1.0*25
###2023-12-09 13:40:44.013743$GPGSV,2,1,07,04,48,306,45,16,69,225,46,26,81,040,48,27,19,172,39*78
###2023-12-09 13:40:44.015792$GPGSV,2,2,07,28,36,087,45,29,19,045,41,31,58,070,45,,,,*41
###2023-12-09 13:40:44.018124$GLGSV,2,1,06,65,41,315,44,71,19,176,38,72,60,217,46,73,20,054,44*66
###2023-12-09 13:40:44.019885$GLGSV,2,2,06,74,58,018,43,75,45,275,48,,,,,,,,*6C
###2023-12-09 13:40:44.022210$GAGSV,1,1,04,04,41,309,44,19,69,180,40,21,74,044,45,27,21,050,41*6A
###2023-12-09 13:40:44.024552$GBGSV,2,1,06,12,17,124,42,14,26,189,40,24,60,049,48,25,53,279,48*6F
###2023-12-09 13:40:44.026299$GBGSV,2,2,06,33,43,215,46,35,16,054,44,,,,,,,,*6E
###2023-12-09 13:40:44.027631$GNVTG,243.13,T,,M,0.12,N,0.22,K,A*27
###2023-12-09 13:40:44.029244$GNGST,184043.10,5.300,,,,0.089,0.075,0.170*6F
###2023-12-09 13:40:44.030535$GNZDA,184043.10,09,12,2023,00,00*7A
###2023-12-09 13:40:44.031188$GNEBP,,,,,,M*13
###2023-12-09 13:40:44.198446$GNGGA,184043.30,4138.0266856,N,07032.3883938,W,1,23,0.6,13.354,M,-29.745,M,0.0,*53
###2023-12-09 13:40:44.398330$GNGGA,184043.50,4138.0266826,N,07032.3884056,W,1,23,0.6,13.350,M,-29.745,M,0.0,*50
###2023-12-09 13:40:44.597197$GNGGA,184043.70,4138.0266798,N,07032.3884176,W,1,23,0.6,13.356,M,-29.745,M,0.0,*5D
###2023-12-09 13:40:44.797810$GNGGA,184043.90,4138.0266765,N,07032.3884232,W,1,23,0.6,13.356,M,-29.745,M,0.0,*52
###2023-12-09 13:40:45.006523$GNRMC,184044.10,A,4138.0266765,N,07032.3884240,W,0.04,243.13,091223,,,A*59
###2023-12-09 13:40:45.009411$GNGGA,184044.10,4138.0266765,N,07032.3884240,W,1,23,0.6,13.342,M,-29.745,M,0.0,*5D
###2023-12-09 13:40:45.011222$GPGSA,A,3,04,16,26,27,28,29,31,,,,,,1.2,0.6,1.0*37
###2023-12-09 13:40:45.012947$GLGSA,A,3,65,71,72,73,74,75,,,,,,,1.2,0.6,1.0*2F
###2023-12-09 13:40:45.014535$GAGSA,A,3,04,19,21,27,,,,,,,,,1.2,0.6,1.0*2D
###2023-12-09 13:40:45.016267$GBGSA,A,3,12,14,24,25,33,35,,,,,,,1.2,0.6,1.0*25
###2023-12-09 13:40:45.018611$GPGSV,2,1,07,04,48,306,45,16,69,225,46,26,81,040,48,27,19,172,37*76
###2023-12-09 13:40:45.020649$GPGSV,2,2,07,28,36,087,44,29,19,045,43,31,58,070,46,,,,*41
###2023-12-09 13:40:45.022991$GLGSV,2,1,06,65,41,315,44,71,19,176,38,72,59,216,45,73,20,054,44*6E
###2023-12-09 13:40:45.024738$GLGSV,2,2,06,74,58,018,43,75,45,275,48,,,,,,,,*6C
###2023-12-09 13:40:45.027077$GAGSV,1,1,04,04,41,309,44,19,69,180,40,21,74,044,45,27,21,050,41*6A
###2023-12-09 13:40:45.029403$GBGSV,2,1,06,12,17,124,42,14,26,189,40,24,60,049,48,25,53,279,48*6F
###2023-12-09 13:40:45.031162$GBGSV,2,2,06,33,43,215,45,35,16,054,44,,,,,,,,*6D
###2023-12-09 13:40:45.032491$GNVTG,243.13,T,,M,0.04,N,0.07,K,A*27
###2023-12-09 13:40:45.034120$GNGST,184044.10,5.500,,,,0.090,0.076,0.170*65
###2023-12-09 13:40:45.035426$GNZDA,184044.10,09,12,2023,00,00*7D
###2023-12-09 13:40:45.036065$GNEBP,,,,,,M*13
###2023-12-09 13:40:45.209982$GNGGA,184044.30,4138.0266747,N,07032.3884325,W,1,24,0.6,13.340,M,-29.745,M,0.0,*58
###2023-12-09 13:40:45.399494$GNGGA,184044.50,4138.0266700,N,07032.3884514,W,1,24,0.6,13.345,M,-29.745,M,0.0,*5C
###2023-12-09 13:40:45.599018$GNGGA,184044.70,4138.0266662,N,07032.3884637,W,1,24,0.6,13.343,M,-29.745,M,0.0,*5F
###2023-12-09 13:40:45.798847$GNGGA,184044.90,4138.0266655,N,07032.3884621,W,1,23,0.6,13.338,M,-29.745,M,0.0,*59
###2023-12-09 13:40:46.001805$GNRMC,184045.10,A,4138.0266656,N,07032.3884574,W,0.02,243.13,091223,,,A*5F
###2023-12-09 13:40:46.004692$GNGGA,184045.10,4138.0266656,N,07032.3884574,W,1,24,0.6,13.330,M,-29.745,M,0.0,*5F
###2023-12-09 13:40:46.006488$GPGSA,A,3,04,16,26,27,28,29,31,,,,,,1.2,0.6,1.0*37
###2023-12-09 13:40:46.008287$GLGSA,A,3,65,71,72,73,74,75,83,,,,,,1.2,0.6,1.0*24
###2023-12-09 13:40:46.009873$GAGSA,A,3,04,19,21,27,,,,,,,,,1.2,0.6,1.0*2D
###2023-12-09 13:40:46.011596$GBGSA,A,3,12,14,24,25,33,35,,,,,,,1.2,0.6,1.0*25
###2023-12-09 13:40:46.014202$GPGSV,2,1,07,04,48,306,45,16,69,225,46,26,81,040,48,27,19,172,37*76
###2023-12-09 13:40:46.016269$GPGSV,2,2,07,28,36,087,45,29,19,045,42,31,58,070,46,,,,*41
###2023-12-09 13:40:46.018617$GLGSV,2,1,07,65,41,315,44,71,19,176,38,72,59,216,44,73,20,054,44*6E
###2023-12-09 13:40:46.020664$GLGSV,2,2,07,74,58,018,43,75,45,275,48,83,16,045,35,,,,*56
###2023-12-09 13:40:46.023009$GAGSV,1,1,04,04,41,309,44,19,69,180,40,21,74,044,46,27,21,050,41*69
###2023-12-09 13:40:46.025344$GBGSV,2,1,06,12,17,124,42,14,26,189,40,24,60,049,48,25,53,279,48*6F
###2023-12-09 13:40:46.027102$GBGSV,2,2,06,33,43,215,45,35,16,054,44,,,,,,,,*6D
###2023-12-09 13:40:46.028430$GNVTG,243.13,T,,M,0.02,N,0.04,K,A*22
###2023-12-09 13:40:46.030049$GNGST,184045.10,5.700,,,,0.091,0.076,0.170*67
