###2023-12-09 13:45:35.017509$GPGSV,2,1,06,04,51,304,44,16,72,228,44,26,78,041,38,28,34,089,44*78
###2023-12-09 13:45:35.019295$GPGSV,2,2,06,29,18,043,43,31,56,073,49,,,,,,,,*75
###2023-12-09 13:45:35.021616$GLGSV,2,1,06,65,42,313,45,72,57,214,37,73,18,056,43,74,56,022,37*6C
###2023-12-09 13:45:35.023373$GLGSV,2,2,06,75,47,279,47,83,16,042,37,,,,,,,,*63
###2023-12-09 13:45:35.025404$GAGSV,1,1,03,04,43,308,44,21,73,044,38,27,19,051,42,,,,*50
###2023-12-09 13:45:35.027744$GBGSV,1,1,04,12,19,123,42,24,59,051,47,25,54,281,41,35,16,052,35*67
###2023-12-09 13:45:35.029072$GNVTG,243.17,T,,M,0.02,N,0.04,K,A*26
###2023-12-09 13:45:35.030696$GNGST,184534.10,7.800,,,,0.200,0.120,0.320*66
###2023-12-09 13:45:35.031985$GNZDA,184534.10,09,12,2023,00,00*7F
###2023-12-09 13:45:35.032620$GNEBP,,,,,,M*13
###2023-12-09 13:45:35.203374$GNGGA,184534.30,4138.0393131,N,07032.4388910,W,1,19,0.8,14.352,M,-29.746,M,0.0,*5D
###2023-12-09 13:45:35.402898$GNGGA,184534.50,4138.0393143,N,07032.4388925,W,1,19,0.8,14.347,M,-29.746,M,0.0,*5C
###2023-12-09 13:45:35.602410$GNGGA,184534.70,4138.0393146,N,07032.4388931,W,1,19,0.8,14.346,M,-29.746,M,0.0,*5F
###2023-12-09 13:45:35.801428$GNGGA,184534.90,4138.0393145,N,07032.4388938,W,1,19,0.8,14.347,M,-29.746,M,0.0,*5A
###2023-12-09 13:45:36.004783$GNRMC,184535.10,A,4138.0393132,N,07032.4388949,W,0.08,243.17,091223,,,A*5F
###2023-12-09 13:45:36.007679$GNGGA,184535.10,4138.0393132,N,07032.4388949,W,1,19,0.8,14.342,M,-29.746,M,0.0,*50
###2023-12-09 13:45:36.009415$GPGSA,A,3,04,16,26,28,29,31,,,,,,,1.3,0.8,1.1*3C
###2023-12-09 13:45:36.011141$GLGSA,A,3,65,72,73,74,75,83,,,,,,,1.3,0.8,1.1*2C
###2023-12-09 13:45:36.012664$GAGSA,A,3,04,21,27,,,,,,,,,,1.3,0.8,1.1*2B
###2023-12-09 13:45:36.014247$GBGSA,A,3,12,24,25,35,,,,,,,,,1.3,0.8,1.1*2E
###2023-12-09 13:45:36.016586$GPGSV,2,1,06,04,51,304,45,16,72,228,44,26,78,041,38,28,34,089,44*79
###2023-12-09 13:45:36.018337$GPGSV,2,2,06,29,18,043,43,31,56,073,49,,,,,,,,*75
###2023-12-09 13:45:36.020689$GLGSV,2,1,06,65,42,313,45,72,57,214,38,73,18,056,43,74,56,022,37*63
###2023-12-09 13:45:36.022438$GLGSV,2,2,06,75,47,279,47,83,16,042,37,,,,,,,,*63
###2023-12-09 13:45:36.024485$GAGSV,1,1,03,04,43,308,44,21,73,044,38,27,19,051,42,,,,*50
###2023-12-09 13:45:36.026861$GBGSV,1,1,04,12,19,123,42,24,59,051,47,25,54,281,41,35,16,052,35*67
###2023-12-09 13:45:36.028196$GNVTG,243.17,T,,M,0.08,N,0.14,K,A*2D
###2023-12-09 13:45:36.029804$GNGST,184535.10,7.700,,,,0.200,0.120,0.320*68
###2023-12-09 13:45:36.031107$GNZDA,184535.10,09,12,2023,00,00*7E
###2023-12-09 13:45:36.031749$GNEBP,,,,,,M*13
###2023-12-09 13:45:36.203534$GNGGA,184535.30,4138.0393140,N,07032.4388955,W,1,19,0.8,14.343,M,-29.746,M,0.0,*5B
###2023-12-09 13:45:36.408635$GNGGA,184535.50,4138.0393139,N,07032.4388960,W,1,19,0.8,14.341,M,-29.746,M,0.0,*57
###2023-12-09 13:45:36.601633$GNGGA,184535.70,4138.0393144,N,07032.4388979,W,1,19,0.8,14.341,M,-29.746,M,0.0,*57
###2023-12-09 13:45:36.802306$GNGGA,184535.90,4138.0393144,N,07032.4388987,W,1,19,0.8,14.344,M,-29.746,M,0.0,*5D
###2023-12-09 13:45:37.004685$GNRMC,184536.10,A,4138.0393142,N,07032.4388987,W,0.04,243.17,091223,,,A*55
###2023-12-09 13:45:37.007562$GNGGA,184536.10,4138.0393142,N,07032.4388987,W,1,19,0.8,14.346,M,-29.746,M,0.0,*52
###2023-12-09 13:45:37.009283$GPGSA,A,3,04,16,26,28,29,31,,,,,,,1.3,0.8,1.1*3C
###2023-12-09 13:45:37.011006$GLGSA,A,3,65,72,73,74,75,83,,,,,,,1.3,0.8,1.1*2C
###2023-12-09 13:45:37.012521$GAGSA,A,3,04,21,27,,,,,,,,,,1.3,0.8,1.1*2B
###2023-12-09 13:45:37.014098$GBGSA,A,3,12,24,25,35,,,,,,,,,1.3,0.8,1.1*2E
###2023-12-09 13:45:37.016428$GPGSV,2,1,06,04,51,304,45,16,72,228,44,26,78,041,38,28,34,089,44*79
###2023-12-09 13:45:37.018165$GPGSV,2,2,06,29,18,043,43,31,56,073,49,,,,,,,,*75
###2023-12-09 13:45:37.020494$GLGSV,2,1,06,65,42,313,45,72,57,214,38,73,18,056,43,74,56,022,37*63
###2023-12-09 13:45:37.022238$GLGSV,2,2,06,75,47,279,47,83,16,042,37,,,,,,,,*63
###2023-12-09 13:45:37.024274$GAGSV,1,1,03,04,43,308,44,21,73,044,38,27,19,051,42,,,,*50
###2023-12-09 13:45:37.026601$GBGSV,1,1,04,12,19,123,42,24,59,051,47,25,54,281,41,35,16,052,35*67
###2023-12-09 13:45:37.027929$GNVTG,243.17,T,,M,0.04,N,0.07,K,A*23
###2023-12-09 13:45:37.029543$GNGST,184536.10,7.600,,,,0.200,0.120,0.320*6A
###2023-12-09 13:45:37.030842$GNZDA,184536.10,09,12,2023,00,00*7D
###2023-12-09 13:45:37.031482$GNEBP,,,,,,M*13
###2023-12-09 13:45:37.203342$GNGGA,184536.30,4138.0393141,N,07032.4388990,W,1,19,0.8,14.346,M,-29.746,M,0.0,*55
###2023-12-09 13:45:37.403159$GNGGA,184536.50,4138.0393136,N,07032.4388994,W,1,19,0.8,14.341,M,-29.746,M,0.0,*50
###2023-12-09 13:45:37.602496$GNGGA,184536.70,4138.0393141,N,07032.4389002,W,1,19,0.8,14.341,M,-29.746,M,0.0,*55
###2023-12-09 13:45:37.804547$GNGGA,184536.90,4138.0393135,N,07032.4389015,W,1,19,0.8,14.340,M,-29.746,M,0.0,*5F
###2023-12-09 13:45:38.007114$GNRMC,184537.10,A,4138.0393128,N,07032.4389030,W,0.04,243.17,091223,,,A*5C
###2023-12-09 13:45:38.010117$GNGGA,184537.10,4138.0393128,N,07032.4389030,W,1,19,0.8,14.339,M,-29.746,M,0.0,*53
###2023-12-09 13:45:38.011872$GPGSA,A,3,04,16,26,28,29,31,,,,,,,1.3,0.8,1.1*3C
###2023-12-09 13:45:38.013592$GLGSA,A,3,65,72,73,74,75,83,,,,,,,1.3,0.8,1.1*2C
###2023-12-09 13:45:38.015126$GAGSA,A,3,04,21,27,,,,,,,,,,1.3,0.8,1.1*2B
###2023-12-09 13:45:38.016706$GBGSA,A,3,12,24,25,35,,,,,,,,,1.3,0.8,1.1*2E
###2023-12-09 13:45:38.019046$GPGSV,2,1,06,04,51,304,45,16,72,228,43,26,78,041,39,28,34,089,44*7F
###2023-12-09 13:45:38.020800$GPGSV,2,2,06,29,18,043,43,31,56,073,49,,,,,,,,*75
###2023-12-09 13:45:38.023145$GLGSV,2,1,06,65,42,313,46,72,57,214,38,73,18,056,43,74,56,022,37*60
###2023-12-09 13:45:38.024890$GLGSV,2,2,06,75,47,279,47,83,16,042,37,,,,,,,,*63
###2023-12-09 13:45:38.026941$GAGSV,1,1,03,04,43,308,45,21,73,044,38,27,19,051,42,,,,*51
###2023-12-09 13:45:38.029273$GBGSV,1,1,04,12,19,123,42,24,59,051,47,25,54,281,41,35,16,052,35*67
###2023-12-09 13:45:38.030619$GNVTG,243.17,T,,M,0.04,N,0.07,K,A*23
###2023-12-09 13:45:38.032240$GNGST,184537.10,7.500,,,,0.200,0.120,0.320*68
###2023-12-09 13:45:38.033537$GNZDA,184537.10,09,12,2023,00,00*7C
###2023-12-09 13:45:38.034177$GNEBP,,,,,,M*13
###2023-12-09 13:45:38.204348$GNGGA,184537.30,4138.0393138,N,07032.4389027,W,1,19,0.8,14.342,M,-29.746,M,0.0,*5A
###2023-12-09 13:45:38.402984$GNGGA,184537.50,4138.0393155,N,07032.4389031,W,1,19,0.8,14.346,M,-29.746,M,0.0,*54
###2023-12-09 13:45:38.602291$GNGGA,184537.70,4138.0393156,N,07032.4389045,W,1,19,0.8,14.343,M,-29.746,M,0.0,*53
###2023-12-09 13:45:38.802726$GNGGA,184537.90,4138.0393155,N,07032.4389042,W,1,19,0.8,14.344,M,-29.746,M,0.0,*5E
###2023-12-09 13:45:39.006328$GNRMC,184538.10,A,4138.0393162,N,07032.4389051,W,0.02,243.17,091223,,,A*5C
###2023-12-09 13:45:39.009226$GNGGA,184538.10,4138.0393162,N,07032.4389051,W,1,19,0.8,14.341,M,-29.746,M,0.0,*5A
###2023-12-09 13:45:39.010976$GPGSA,A,3,04,16,26,28,29,31,,,,,,,1.3,0.8,1.1*3C
###2023-12-09 13:45:39.012692$GLGSA,A,3,65,72,73,74,75,83,,,,,,,1.3,0.8,1.1*2C
###2023-12-09 13:45:39.014211$GAGSA,A,3,04,21,27,,,,,,,,,,1.3,0.8,1.1*2B
###2023-12-09 13:45:39.015800$GBGSA,A,3,12,24,25,35,,,,,,,,,1.3,0.8,1.1*2E
###2023-12-09 13:45:39.018133$GPGSV,2,1,06,04,51,304,45,16,72,228,43,26,78,041,39,28,34,089,44*7F
###2023-12-09 13:45:39.019897$GPGSV,2,2,06,29,18,043,43,31,56,073,49,,,,,,,,*75
###2023-12-09 13:45:39.022230$GLGSV,2,1,06,65,42,313,45,72,57,214,38,73,18,056,43,74,56,022,37*63
###2023-12-09 13:45:39.023995$GLGSV,2,2,06,75,47,279,47,83,16,042,37,,,,,,,,*63
###2023-12-09 13:45:39.026034$GAGSV,1,1,03,04,43,308,45,21,73,044,38,27,19,051,42,,,,*51
###2023-12-09 13:45:39.028378$GBGSV,1,1,04,12,19,123,42,24,59,051,47,25,54,281,41,35,16,052,35*67
###2023-12-09 13:45:39.029711$GNVTG,243.17,T,,M,0.02,N,0.04,K,A*26
###2023-12-09 13:45:39.031342$GNGST,184538.10,7.500,,,,0.200,0.120,0.320*67
###2023-12-09 13:45:39.032635$GNZDA,184538.10,09,12,2023,00,00*73
###2023-12-09 13:45:39.033274$GNEBP,,,,,,M*13
###2023-12-09 13:45:39.209358$GNGGA,184538.30,4138.0393163,N,07032.4389059,W,1,19,0.8,14.343,M,-29.746,M,0.0,*53
###2023-12-09 13:45:39.403605$GNGGA,184538.50,4138.0393180,N,07032.4389050,W,1,19,0.8,14.346,M,-29.746,M,0.0,*54
###2023-12-09 13:45:39.603158$GNGGA,184538.70,4138.0393203,N,07032.4389054,W,1,19,0.8,14.348,M,-29.746,M,0.0,*54
###2023-12-09 13:45:39.804245$GNGGA,184538.90,4138.0393217,N,07032.4389064,W,1,19,0.8,14.349,M,-29.746,M,0.0,*5D
###2023-12-09 13:45:40.006844$GNRMC,184539.10,A,4138.0393207,N,07032.4389065,W,0.02,243.17,091223,,,A*5A
###2023-12-09 13:45:40.009700$GNGGA,184539.10,4138.0393207,N,07032.4389065,W,1,19,0.8,14.349,M,-29.746,M,0.0,*54
###2023-12-09 13:45:40.011432$GPGSA,A,3,04,16,26,28,29,31,,,,,,,1.3,0.8,1.1*3C
###2023-12-09 13:45:40.013143$GLGSA,A,3,65,72,73,74,75,83,,,,,,,1.3,0.8,1.1*2C
###2023-12-09 13:45:40.014667$GAGSA,A,3,04,21,27,,,,,,,,,,1.3,0.8,1.1*2B
###2023-12-09 13:45:40.016244$GBGSA,A,3,12,24,25,35,,,,,,,,,1.3,0.8,1.1*2E
