###2023-12-09 12:36:04.967541$GNEBP,,,,,,M*13
###2023-12-09 12:36:05.134337$GNGGA,173604.30,4138.0470298,N,07032.4014798,W,1,23,0.7,13.325,M,-29.745,M,0.0,*55
###2023-12-09 12:36:05.335957$GNGGA,173604.50,4138.0470471,N,07032.4013994,W,1,23,0.7,13.323,M,-29.745,M,0.0,*51
###2023-12-09 12:36:05.537674$GNGGA,173604.70,4138.0470655,N,07032.4013164,W,1,23,0.7,13.313,M,-29.745,M,0.0,*53
###2023-12-09 12:36:05.735468$GNGGA,173604.90,4138.0470799,N,07032.4012434,W,1,23,0.7,13.308,M,-29.745,M,0.0,*57
###2023-12-09 12:36:05.936780$GNRMC,173605.10,A,4138.0470940,N,07032.4011707,W,1.11,73.92,091223,,,A*62
###2023-12-09 12:36:05.940264$GNGGA,173605.10,4138.0470940,N,07032.4011707,W,1,23,0.7,13.301,M,-29.745,M,0.0,*5D
###2023-12-09 12:36:05.942532$GPGSA,A,3,03,04,16,26,28,29,31,32,,,,,1.2,0.7,1.0*31
###2023-12-09 12:36:05.944547$GLGSA,A,3,71,72,73,74,75,,,,,,,,1.2,0.7,1.0*2D
###2023-12-09 12:36:05.946473$GAGSA,A,3,04,19,21,27,,,,,,,,,1.2,0.7,1.0*2C
###2023-12-09 12:36:05.948515$GBGSA,A,3,14,24,25,26,33,,,,,,,,1.2,0.7,1.0*25
###2023-12-09 12:36:05.951368$GPGSV,2,1,08,03,38,276,45,04,22,311,42,16,37,207,45,26,66,206,48*72
###2023-12-09 12:36:05.954197$GPGSV,2,2,08,28,58,056,45,29,25,074,41,31,73,001,47,32,30,134,44*7E
###2023-12-09 12:36:05.957041$GLGSV,2,1,05,71,56,169,48,72,66,308,47,73,47,034,47,74,71,293,43*60
###2023-12-09 12:36:05.958871$GLGSV,2,2,05,75,22,241,42,,,,,,,,,,,,*53
###2023-12-09 12:36:05.961707$GAGSV,1,1,04,04,21,311,41,19,82,300,41,21,78,176,47,27,41,049,43*6C
###2023-12-09 12:36:05.964565$GBGSV,2,1,05,14,55,197,46,24,80,348,48,25,33,253,45,26,35,057,43*6D
###2023-12-09 12:36:05.966346$GBGSV,2,2,05,33,63,253,47,,,,,,,,,,,,*5C
###2023-12-09 12:36:05.967962$GNVTG,73.92,T,,M,1.11,N,2.05,K,A*1A
###2023-12-09 12:36:05.969971$GNGST,173605.10,18.000,,,,0.080,0.070,0.160*51
###2023-12-09 12:36:05.971546$GNZDA,173605.10,09,12,2023,00,00*76
###2023-12-09 12:36:05.972329$GNEBP,,,,,,M*13
###2023-12-09 12:36:06.136954$GNGGA,173605.30,4138.0471126,N,07032.4010927,W,1,23,0.7,13.300,M,-29.745,M,0.0,*5A
###2023-12-09 12:36:06.335855$GNGGA,173605.50,4138.0471287,N,07032.4010201,W,1,23,0.7,13.288,M,-29.745,M,0.0,*5A
###2023-12-09 12:36:06.535875$GNGGA,173605.70,4138.0471411,N,07032.4009514,W,1,23,0.7,13.281,M,-29.745,M,0.0,*53
###2023-12-09 12:36:06.735212$GNGGA,173605.90,4138.0471557,N,07032.4008810,W,1,23,0.7,13.278,M,-29.745,M,0.0,*50
###2023-12-09 12:36:06.935563$GNRMC,173606.10,A,4138.0471750,N,07032.4008125,W,0.95,69.07,091223,,,A*6B
###2023-12-09 12:36:06.938419$GNGGA,173606.10,4138.0471750,N,07032.4008125,W,1,23,0.7,13.272,M,-29.745,M,0.0,*5B
###2023-12-09 12:36:06.940305$GPGSA,A,3,03,04,16,26,28,29,31,32,,,,,1.2,0.7,1.0*31
###2023-12-09 12:36:06.941961$GLGSA,A,3,71,72,73,74,75,,,,,,,,1.2,0.7,1.0*2D
###2023-12-09 12:36:06.943565$GAGSA,A,3,04,19,21,27,,,,,,,,,1.2,0.7,1.0*2C
###2023-12-09 12:36:06.945219$GBGSA,A,3,14,24,25,26,33,,,,,,,,1.2,0.7,1.0*25
###2023-12-09 12:36:06.947579$GPGSV,2,1,08,03,38,276,44,04,22,311,40,16,37,207,44,26,66,206,47*7F
###2023-12-09 12:36:06.949929$GPGSV,2,2,08,28,58,056,45,29,25,074,41,31,73,001,47,32,30,134,43*79
###2023-12-09 12:36:06.952285$GLGSV,2,1,05,71,56,169,48,72,66,308,47,73,47,034,46,74,71,293,43*61
###2023-12-09 12:36:06.953739$GLGSV,2,2,05,75,22,241,44,,,,,,,,,,,,*55
###2023-12-09 12:36:06.956092$GAGSV,1,1,04,04,21,311,41,19,82,300,41,21,78,176,47,27,41,049,44*6B
###2023-12-09 12:36:06.958422$GBGSV,2,1,05,14,55,197,46,24,80,348,49,25,33,253,45,26,35,057,44*6B
###2023-12-09 12:36:06.959898$GBGSV,2,2,05,33,63,253,48,,,,,,,,,,,,*53
###2023-12-09 12:36:06.961188$GNVTG,69.07,T,,M,0.95,N,1.76,K,A*17
###2023-12-09 12:36:06.962852$GNGST,173606.10,18.000,,,,0.079,0.070,0.160*54
###2023-12-09 12:36:06.964143$GNZDA,173606.10,09,12,2023,00,00*75
###2023-12-09 12:36:06.964780$GNEBP,,,,,,M*13
###2023-12-09 12:36:07.135654$GNGGA,173606.30,4138.0471902,N,07032.4007433,W,1,23,0.7,13.267,M,-29.745,M,0.0,*59
###2023-12-09 12:36:07.336802$GNGGA,173606.50,4138.0471987,N,07032.4006734,W,1,23,0.7,13.262,M,-29.745,M,0.0,*52
###2023-12-09 12:36:07.536056$GNGGA,173606.70,4138.0472092,N,07032.4006077,W,1,23,0.7,13.253,M,-29.745,M,0.0,*5C
###2023-12-09 12:36:07.734953$GNGGA,173606.90,4138.0472305,N,07032.4005421,W,1,23,0.7,13.254,M,-29.745,M,0.0,*5C
###2023-12-09 12:36:07.935547$GNRMC,173607.10,A,4138.0472490,N,07032.4004746,W,0.87,66.38,091223,,,A*69
###2023-12-09 12:36:07.938408$GNGGA,173607.10,4138.0472490,N,07032.4004746,W,1,23,0.7,13.243,M,-29.745,M,0.0,*5B
###2023-12-09 12:36:07.940293$GPGSA,A,3,03,04,16,26,28,29,31,32,,,,,1.2,0.7,1.0*31
###2023-12-09 12:36:07.941956$GLGSA,A,3,71,72,73,74,75,,,,,,,,1.2,0.7,1.0*2D
###2023-12-09 12:36:07.943565$GAGSA,A,3,04,19,21,27,,,,,,,,,1.2,0.7,1.0*2C
###2023-12-09 12:36:07.945221$GBGSA,A,3,14,24,25,26,33,,,,,,,,1.2,0.7,1.0*25
###2023-12-09 12:36:07.947585$GPGSV,2,1,08,03,38,276,45,04,22,311,42,16,37,207,44,26,66,206,48*73
###2023-12-09 12:36:07.949946$GPGSV,2,2,08,28,58,056,45,29,25,074,40,31,73,001,47,32,30,134,43*78
###2023-12-09 12:36:07.952317$GLGSV,2,1,05,71,56,169,48,72,66,308,47,73,47,034,48,74,71,293,43*6F
###2023-12-09 12:36:07.953782$GLGSV,2,2,05,75,22,241,43,,,,,,,,,,,,*52
###2023-12-09 12:36:07.956135$GAGSV,1,1,04,04,21,311,40,19,82,300,41,21,78,176,47,27,41,049,45*6B
###2023-12-09 12:36:07.958474$GBGSV,2,1,05,14,55,197,46,24,80,348,48,25,33,253,44,26,35,057,44*6B
###2023-12-09 12:36:07.959966$GBGSV,2,2,05,33,63,253,46,,,,,,,,,,,,*5D
###2023-12-09 12:36:07.961268$GNVTG,66.38,T,,M,0.87,N,1.62,K,A*12
###2023-12-09 12:36:07.962976$GNGST,173607.10,18.000,,,,0.079,0.070,0.160*55
###2023-12-09 12:36:07.964277$GNZDA,173607.10,09,12,2023,00,00*74
###2023-12-09 12:36:07.964916$GNEBP,,,,,,M*13
###2023-12-09 12:36:08.135640$GNGGA,173607.30,4138.0472548,N,07032.4004163,W,1,23,0.7,13.236,M,-29.745,M,0.0,*5E
###2023-12-09 12:36:08.335823$GNGGA,173607.50,4138.0472652,N,07032.4003550,W,1,23,0.7,13.231,M,-29.745,M,0.0,*54
###2023-12-09 12:36:08.546828$GNGGA,173607.70,4138.0472837,N,07032.4002897,W,1,23,0.7,13.228,M,-29.745,M,0.0,*54
###2023-12-09 12:36:08.736645$GNGGA,173607.90,4138.0473025,N,07032.4002336,W,1,23,0.7,13.223,M,-29.745,M,0.0,*5B
###2023-12-09 12:36:08.943446$GNRMC,173608.10,A,4138.0473088,N,07032.4001793,W,0.76,66.38,091223,,,A*69
###2023-12-09 12:36:08.946336$GNGGA,173608.10,4138.0473088,N,07032.4001793,W,1,23,0.7,13.214,M,-29.745,M,0.0,*57
###2023-12-09 12:36:08.948239$GPGSA,A,3,03,04,16,26,28,29,31,32,,,,,1.2,0.7,1.0*31
###2023-12-09 12:36:08.949911$GLGSA,A,3,71,72,73,74,75,,,,,,,,1.2,0.7,1.0*2D
###2023-12-09 12:36:08.951520$GAGSA,A,3,04,19,21,27,,,,,,,,,1.2,0.7,1.0*2C
###2023-12-09 12:36:08.953171$GBGSA,A,3,14,24,25,26,33,,,,,,,,1.2,0.7,1.0*25
###2023-12-09 12:36:08.955526$GPGSV,2,1,08,03,38,276,46,04,22,311,42,16,37,207,45,26,66,206,48*71
###2023-12-09 12:36:08.957875$GPGSV,2,2,08,28,58,056,45,29,25,074,41,31,73,001,48,32,30,134,42*77
###2023-12-09 12:36:08.960232$GLGSV,2,1,05,71,56,169,47,72,66,308,47,73,47,034,47,74,71,293,43*6F
###2023-12-09 12:36:08.961698$GLGSV,2,2,05,75,22,241,43,,,,,,,,,,,,*52
###2023-12-09 12:36:08.964047$GAGSV,1,1,04,04,21,311,40,19,82,300,41,21,78,176,46,27,41,049,45*6A
###2023-12-09 12:36:08.966390$GBGSV,2,1,05,14,55,197,46,24,80,348,49,25,33,253,44,26,35,057,44*6A
###2023-12-09 12:36:08.967866$GBGSV,2,2,05,33,63,253,48,,,,,,,,,,,,*53
###2023-12-09 12:36:08.969162$GNVTG,66.38,T,,M,0.76,N,1.40,K,A*1C
###2023-12-09 12:36:08.970858$GNGST,173608.10,18.000,,,,0.079,0.070,0.160*5A
###2023-12-09 12:36:08.972182$GNZDA,173608.10,09,12,2023,00,00*7B
###2023-12-09 12:36:08.972854$GNEBP,,,,,,M*13
###2023-12-09 12:36:09.139930$GNGGA,173608.30,4138.0473141,N,07032.4001169,W,1,23,0.7,13.212,M,-29.745,M,0.0,*54
###2023-12-09 12:36:09.335691$GNGGA,173608.50,4138.0473255,N,07032.4000574,W,1,23,0.7,13.217,M,-29.745,M,0.0,*58
###2023-12-09 12:36:09.538049$GNGGA,173608.70,4138.0473423,N,07032.4000074,W,1,23,0.7,13.207,M,-29.745,M,0.0,*59
###2023-12-09 12:36:09.735891$GNGGA,173608.90,4138.0473538,N,07032.3999545,W,1,23,0.7,13.204,M,-29.745,M,0.0,*56
###2023-12-09 12:36:09.933607$GNRMC,173609.10,A,4138.0473600,N,07032.3998974,W,0.74,66.38,091223,,,A*65
###2023-12-09 12:36:09.936497$GNGGA,173609.10,4138.0473600,N,07032.3998974,W,1,23,0.7,13.201,M,-29.745,M,0.0,*5D
###2023-12-09 12:36:09.938629$GPGSA,A,3,03,04,16,26,28,29,31,32,,,,,1.2,0.7,1.0*31
###2023-12-09 12:36:09.940291$GLGSA,A,3,71,72,73,74,75,,,,,,,,1.2,0.7,1.0*2D
###2023-12-09 12:36:09.941883$GAGSA,A,3,04,19,21,27,,,,,,,,,1.2,0.7,1.0*2C
###2023-12-09 12:36:09.943553$GBGSA,A,3,14,24,25,26,33,,,,,,,,1.2,0.7,1.0*25
###2023-12-09 12:36:09.945890$GPGSV,2,1,08,03,38,276,45,04,22,311,39,16,37,207,45,26,66,206,47*71
###2023-12-09 12:36:09.948256$GPGSV,2,2,08,28,58,056,44,29,25,074,41,31,73,001,48,32,30,134,42*76
###2023-12-09 12:36:09.950631$GLGSV,2,1,05,71,56,169,48,72,66,308,47,73,47,034,47,74,71,293,43*60
###2023-12-09 12:36:09.952101$GLGSV,2,2,05,75,22,241,43,,,,,,,,,,,,*52
###2023-12-09 12:36:09.954435$GAGSV,1,1,04,04,21,311,40,19,82,300,41,21,78,176,46,27,41,049,44*6B
