###2023-12-09 12:51:09.971332$GBGSV,2,1,05,14,48,194,44,24,77,014,48,25,37,258,46,26,29,060,44*60
###2023-12-09 12:51:09.972816$GBGSV,2,2,05,33,60,240,47,,,,,,,,,,,,*5D
###2023-12-09 12:51:09.974148$GNVTG,110.98,T,,M,0.27,N,0.50,K,A*22
###2023-12-09 12:51:09.975820$GNGST,175109.10,18.000,,,,0.078,0.067,0.160*5D
###2023-12-09 12:51:09.977124$GNZDA,175109.10,09,12,2023,00,00*7B
###2023-12-09 12:51:09.977764$GNEBP,,,,,,M*13
###2023-12-09 12:51:10.147100$GNGGA,175109.30,4138.0558036,N,07032.3758574,W,1,24,0.6,13.617,M,-29.744,M,0.0,*5F
###2023-12-09 12:51:10.348017$GNGGA,175109.50,4138.0558137,N,07032.3758964,W,1,24,0.6,13.623,M,-29.744,M,0.0,*53
###2023-12-09 12:51:10.548001$GNGGA,175109.70,4138.0558296,N,07032.3759489,W,1,24,0.6,13.633,M,-29.744,M,0.0,*57
###2023-12-09 12:51:10.749421$GNGGA,175109.90,4138.0558333,N,07032.3759720,W,1,24,0.6,13.638,M,-29.744,M,0.0,*5C
###2023-12-09 12:51:10.949090$GNRMC,175110.10,A,4138.0558270,N,07032.3759642,W,0.21,110.98,091223,,,A*54
###2023-12-09 12:51:10.951987$GNGGA,175110.10,4138.0558270,N,07032.3759642,W,1,24,0.6,13.642,M,-29.744,M,0.0,*52
###2023-12-09 12:51:10.953850$GPGSA,A,3,03,04,16,26,28,29,31,32,,,,,1.1,0.6,0.9*3B
###2023-12-09 12:51:10.955584$GLGSA,A,3,65,71,72,73,74,75,,,,,,,1.1,0.6,0.9*24
###2023-12-09 12:51:10.957179$GAGSA,A,3,04,19,21,27,,,,,,,,,1.1,0.6,0.9*26
###2023-12-09 12:51:10.958843$GBGSA,A,3,14,24,25,26,33,,,,,,,,1.1,0.6,0.9*2F
###2023-12-09 12:51:10.961180$GPGSV,2,1,08,03,37,268,44,04,28,311,43,16,44,210,43,26,74,208,47*7E
###2023-12-09 12:51:10.963541$GPGSV,2,2,08,28,53,065,45,29,26,066,43,31,71,024,48,32,23,138,45*72
###2023-12-09 12:51:10.965885$GLGSV,2,1,06,65,19,329,42,71,47,171,47,72,72,288,46,73,40,038,47*6C
###2023-12-09 12:51:10.967648$GLGSV,2,2,06,74,71,321,43,75,28,248,42,,,,,,,,*61
###2023-12-09 12:51:10.969974$GAGSV,1,1,04,04,26,312,42,19,85,258,40,21,83,157,45,27,36,048,44*62
###2023-12-09 12:51:10.972320$GBGSV,2,1,05,14,48,194,44,24,77,014,47,25,37,258,44,26,29,060,44*6D
###2023-12-09 12:51:10.973777$GBGSV,2,2,05,33,60,240,46,,,,,,,,,,,,*5C
###2023-12-09 12:51:10.975114$GNVTG,110.98,T,,M,0.21,N,0.40,K,A*25
###2023-12-09 12:51:10.976760$GNGST,175110.10,18.000,,,,0.078,0.067,0.160*55
###2023-12-09 12:51:10.978048$GNZDA,175110.10,09,12,2023,00,00*73
###2023-12-09 12:51:10.978696$GNEBP,,,,,,M*13
###2023-12-09 12:51:11.149296$GNGGA,175110.30,4138.0558265,N,07032.3759722,W,1,24,0.6,13.637,M,-29.744,M,0.0,*51
###2023-12-09 12:51:11.349144$GNGGA,175110.50,4138.0558422,N,07032.3760187,W,1,24,0.6,13.642,M,-29.744,M,0.0,*53
###2023-12-09 12:51:11.551605$GNGGA,175110.70,4138.0558584,N,07032.3760643,W,1,24,0.6,13.641,M,-29.744,M,0.0,*50
###2023-12-09 12:51:11.749161$GNGGA,175110.90,4138.0558623,N,07032.3760835,W,1,24,0.6,13.641,M,-29.744,M,0.0,*5F
###2023-12-09 12:51:11.949181$GNRMC,175111.10,A,4138.0558591,N,07032.3760855,W,0.10,110.98,091223,,,A*5D
###2023-12-09 12:51:11.952689$GNGGA,175111.10,4138.0558591,N,07032.3760855,W,1,24,0.6,13.647,M,-29.744,M,0.0,*5C
###2023-12-09 12:51:11.954967$GPGSA,A,3,03,04,16,26,28,29,31,32,,,,,1.1,0.6,0.9*3B
###2023-12-09 12:51:11.957046$GLGSA,A,3,65,71,72,73,74,75,,,,,,,1.1,0.6,0.9*24
###2023-12-09 12:51:11.958978$GAGSA,A,3,04,19,21,27,,,,,,,,,1.1,0.6,0.9*26
###2023-12-09 12:51:11.960962$GBGSA,A,3,14,24,25,26,33,,,,,,,,1.1,0.6,0.9*2F
###2023-12-09 12:51:11.963779$GPGSV,2,1,08,03,37,268,44,04,28,311,43,16,44,210,43,26,74,208,47*7E
###2023-12-09 12:51:11.966603$GPGSV,2,2,08,28,53,065,45,29,26,066,43,31,71,024,48,32,23,138,45*72
###2023-12-09 12:51:11.969443$GLGSV,2,1,06,65,19,329,42,71,47,171,47,72,72,288,46,73,40,038,47*6C
###2023-12-09 12:51:11.971571$GLGSV,2,2,06,74,71,321,43,75,28,248,42,,,,,,,,*61
###2023-12-09 12:51:11.974370$GAGSV,1,1,04,04,26,312,42,19,85,258,40,21,83,157,45,27,36,048,44*62
###2023-12-09 12:51:11.977192$GBGSV,2,1,05,14,48,194,45,24,77,014,48,25,37,258,45,26,29,060,45*63
###2023-12-09 12:51:11.978978$GBGSV,2,2,05,33,60,240,46,,,,,,,,,,,,*5C
###2023-12-09 12:51:11.980570$GNVTG,110.98,T,,M,0.10,N,0.18,K,A*2A
###2023-12-09 12:51:11.982573$GNGST,175111.10,18.000,,,,0.077,0.067,0.160*5B
###2023-12-09 12:51:11.984135$GNZDA,175111.10,09,12,2023,00,00*72
###2023-12-09 12:51:11.984919$GNEBP,,,,,,M*13
###2023-12-09 12:51:12.152442$GNGGA,175111.30,4138.0558629,N,07032.3761049,W,1,24,0.6,13.650,M,-29.744,M,0.0,*5C
###2023-12-09 12:51:12.348482$GNGGA,175111.50,4138.0558825,N,07032.3761523,W,1,24,0.6,13.665,M,-29.744,M,0.0,*57
###2023-12-09 12:51:12.549650$GNGGA,175111.70,4138.0559011,N,07032.3762017,W,1,24,0.6,13.664,M,-29.744,M,0.0,*5B
###2023-12-09 12:51:12.749526$GNGGA,175111.90,4138.0559032,N,07032.3762204,W,1,24,0.6,13.651,M,-29.744,M,0.0,*52
###2023-12-09 12:51:12.949061$GNRMC,175112.10,A,4138.0558951,N,07032.3762190,W,0.17,110.98,091223,,,A*5B
###2023-12-09 12:51:12.952552$GNGGA,175112.10,4138.0558951,N,07032.3762190,W,1,24,0.6,13.637,M,-29.744,M,0.0,*5A
###2023-12-09 12:51:12.954819$GPGSA,A,3,03,04,16,26,28,29,31,32,,,,,1.1,0.6,0.9*3B
###2023-12-09 12:51:12.956893$GLGSA,A,3,65,71,72,73,74,75,,,,,,,1.1,0.6,0.9*24
###2023-12-09 12:51:12.958830$GAGSA,A,3,04,19,21,27,,,,,,,,,1.1,0.6,0.9*26
###2023-12-09 12:51:12.960850$GBGSA,A,3,14,24,25,26,33,,,,,,,,1.1,0.6,0.9*2F
###2023-12-09 12:51:12.963677$GPGSV,2,1,08,03,37,268,43,04,28,311,42,16,44,210,43,26,74,208,47*78
###2023-12-09 12:51:12.966491$GPGSV,2,2,08,28,53,065,45,29,26,066,44,31,71,024,48,32,23,138,45*75
###2023-12-09 12:51:12.969330$GLGSV,2,1,06,65,19,329,40,71,47,171,47,72,72,288,46,73,40,038,47*6E
###2023-12-09 12:51:12.971450$GLGSV,2,2,06,74,71,321,43,75,28,248,41,,,,,,,,*62
###2023-12-09 12:51:12.974277$GAGSV,1,1,04,04,26,312,41,19,85,258,40,21,83,157,46,27,36,048,44*62
###2023-12-09 12:51:12.977116$GBGSV,2,1,05,14,48,194,45,24,77,014,49,25,37,258,45,26,29,060,45*62
###2023-12-09 12:51:12.978887$GBGSV,2,2,05,33,60,240,46,,,,,,,,,,,,*5C
###2023-12-09 12:51:12.980489$GNVTG,110.98,T,,M,0.17,N,0.32,K,A*25
###2023-12-09 12:51:12.982476$GNGST,175112.10,18.000,,,,0.077,0.066,0.160*59
###2023-12-09 12:51:12.984056$GNZDA,175112.10,09,12,2023,00,00*71
###2023-12-09 12:51:12.984828$GNEBP,,,,,,M*13
###2023-12-09 12:51:13.148882$GNGGA,175112.30,4138.0558976,N,07032.3762479,W,1,24,0.6,13.652,M,-29.744,M,0.0,*5C
###2023-12-09 12:51:13.349030$GNGGA,175112.50,4138.0559179,N,07032.3763107,W,1,24,0.6,13.672,M,-29.744,M,0.0,*53
###2023-12-09 12:51:13.549148$GNGGA,175112.70,4138.0559286,N,07032.3763623,W,1,24,0.6,13.670,M,-29.744,M,0.0,*51
###2023-12-09 12:51:13.749341$GNGGA,175112.90,4138.0559075,N,07032.3763733,W,1,24,0.6,13.654,M,-29.744,M,0.0,*57
###2023-12-09 12:51:13.949560$GNRMC,175113.10,A,4138.0558782,N,07032.3763833,W,0.60,294.22,091223,,,A*55
###2023-12-09 12:51:13.952470$GNGGA,175113.10,4138.0558782,N,07032.3763833,W,1,24,0.6,13.633,M,-29.744,M,0.0,*5E
###2023-12-09 12:51:13.954337$GPGSA,A,3,03,04,16,26,28,29,31,32,,,,,1.1,0.6,0.9*3B
###2023-12-09 12:51:13.956086$GLGSA,A,3,65,71,72,73,74,75,,,,,,,1.1,0.6,0.9*24
###2023-12-09 12:51:13.957677$GAGSA,A,3,04,19,21,27,,,,,,,,,1.1,0.6,0.9*26
###2023-12-09 12:51:13.959340$GBGSA,A,3,14,24,25,26,33,,,,,,,,1.1,0.6,0.9*2F
###2023-12-09 12:51:13.961669$GPGSV,2,1,08,03,37,267,42,04,28,311,39,16,44,210,44,26,74,208,48*72
###2023-12-09 12:51:13.964021$GPGSV,2,2,08,28,53,065,46,29,26,066,44,31,71,024,48,32,23,138,46*75
###2023-12-09 12:51:13.966366$GLGSV,2,1,06,65,19,329,41,71,47,171,47,72,72,288,45,73,40,038,47*6C
###2023-12-09 12:51:13.968136$GLGSV,2,2,06,74,71,321,43,75,28,248,40,,,,,,,,*63
###2023-12-09 12:51:13.970469$GAGSV,1,1,04,04,26,312,39,19,85,258,40,21,83,157,46,27,36,048,44*6D
###2023-12-09 12:51:13.972822$GBGSV,2,1,05,14,48,194,46,24,77,014,49,25,37,258,44,26,29,060,45*60
###2023-12-09 12:51:13.974282$GBGSV,2,2,05,33,60,240,46,,,,,,,,,,,,*5C
###2023-12-09 12:51:13.975622$GNVTG,294.22,T,,M,0.60,N,1.12,K,A*28
###2023-12-09 12:51:13.977274$GNGST,175113.10,18.000,,,,0.077,0.066,0.160*58
###2023-12-09 12:51:13.978576$GNZDA,175113.10,09,12,2023,00,00*70
###2023-12-09 12:51:13.979222$GNEBP,,,,,,M*13
###2023-12-09 12:51:14.149206$GNGGA,175113.30,4138.0558706,N,07032.3764490,W,1,24,0.6,13.653,M,-29.744,M,0.0,*54
###2023-12-09 12:51:14.350284$GNGGA,175113.50,4138.0558760,N,07032.3765412,W,1,24,0.6,13.669,M,-29.744,M,0.0,*50
###2023-12-09 12:51:14.549193$GNGGA,175113.70,4138.0558477,N,07032.3765965,W,1,24,0.6,13.663,M,-29.744,M,0.0,*50
###2023-12-09 12:51:14.749281$GNGGA,175113.90,4138.0557823,N,07032.3766209,W,1,24,0.6,13.627,M,-29.744,M,0.0,*5E
###2023-12-09 12:51:14.948540$GNRMC,175114.10,A,4138.0557312,N,07032.3766848,W,1.52,252.46,091223,,,A*51
###2023-12-09 12:51:14.951424$GNGGA,175114.10,4138.0557312,N,07032.3766848,W,1,24,0.6,13.608,M,-29.744,M,0.0,*5A
###2023-12-09 12:51:14.953280$GPGSA,A,3,03,04,16,26,28,29,31,32,,,,,1.1,0.6,0.9*3B
###2023-12-09 12:51:14.955009$GLGSA,A,3,65,71,72,73,74,75,,,,,,,1.1,0.6,0.9*24
###2023-12-09 12:51:14.956594$GAGSA,A,3,04,19,21,27,,,,,,,,,1.1,0.6,0.9*26
###2023-12-09 12:51:14.958240$GBGSA,A,3,14,24,25,26,33,,,,,,,,1.1,0.6,0.9*2F
