###2023-12-09 13:37:36.010924$GBGSA,A,3,12,14,24,25,33,35,,,,,,,1.1,0.6,1.0*26
###2023-12-09 13:37:36.013276$GPGSV,2,1,07,04,48,307,44,16,68,224,45,26,82,040,48,27,18,172,40*77
###2023-12-09 13:37:36.015337$GPGSV,2,2,07,28,37,086,44,29,20,046,44,31,58,068,48,,,,*48
###2023-12-09 13:37:36.017694$GLGSV,2,1,07,65,39,317,43,71,21,175,38,72,61,219,45,73,21,053,44*6F
###2023-12-09 13:37:36.019748$GLGSV,2,2,07,74,59,016,43,75,44,273,46,83,15,046,37,,,,*52
###2023-12-09 13:37:36.022075$GAGSV,1,1,04,04,40,309,43,19,71,181,39,21,76,045,47,27,22,050,42*6B
###2023-12-09 13:37:36.024413$GBGSV,2,1,06,12,16,125,42,14,28,189,41,24,62,047,48,25,52,277,46*6D
###2023-12-09 13:37:36.026159$GBGSV,2,2,06,33,44,216,44,35,16,055,45,,,,,,,,*68
###2023-12-09 13:37:36.027503$GNVTG,270.75,T,,M,0.33,N,0.61,K,A*23
###2023-12-09 13:37:36.029113$GNGST,183735.10,5.800,,,,0.100,0.087,0.190*66
###2023-12-09 13:37:36.030403$GNZDA,183735.10,09,12,2023,00,00*7B
###2023-12-09 13:37:36.031056$GNEBP,,,,,,M*13
###2023-12-09 13:37:36.198292$GNGGA,183735.30,4138.0298370,N,07032.3969957,W,1,24,0.6,13.332,M,-29.745,M,0.0,*57
###2023-12-09 13:37:36.405529$GNGGA,183735.50,4138.0298307,N,07032.3970570,W,1,24,0.6,13.375,M,-29.745,M,0.0,*53
###2023-12-09 13:37:36.596288$GNGGA,183735.70,4138.0298248,N,07032.3971011,W,1,23,0.6,13.395,M,-29.745,M,0.0,*51
###2023-12-09 13:37:36.797994$GNGGA,183735.90,4138.0298145,N,07032.3970784,W,1,23,0.6,13.389,M,-29.745,M,0.0,*56
###2023-12-09 13:37:37.000423$GNRMC,183736.10,A,4138.0298059,N,07032.3970425,W,0.10,270.75,091223,,,A*5F
###2023-12-09 13:37:37.003304$GNGGA,183736.10,4138.0298059,N,07032.3970425,W,1,24,0.6,13.335,M,-29.745,M,0.0,*59
###2023-12-09 13:37:37.005096$GPGSA,A,3,04,16,26,27,28,29,31,,,,,,1.1,0.6,1.0*34
###2023-12-09 13:37:37.006884$GLGSA,A,3,65,71,72,73,74,75,83,,,,,,1.1,0.6,1.0*27
###2023-12-09 13:37:37.008467$GAGSA,A,3,04,19,21,27,,,,,,,,,1.1,0.6,1.0*2E
###2023-12-09 13:37:37.010170$GBGSA,A,3,12,14,24,25,33,35,,,,,,,1.1,0.6,1.0*26
###2023-12-09 13:37:37.012508$GPGSV,2,1,07,04,48,307,44,16,68,224,45,26,82,040,47,27,18,172,41*79
###2023-12-09 13:37:37.014540$GPGSV,2,2,07,28,37,086,45,29,20,046,45,31,58,068,48,,,,*48
###2023-12-09 13:37:37.016886$GLGSV,2,1,07,65,39,317,42,71,21,175,38,72,61,219,45,73,21,053,45*6F
###2023-12-09 13:37:37.018935$GLGSV,2,2,07,74,59,016,44,75,44,273,46,83,15,046,36,,,,*54
###2023-12-09 13:37:37.021266$GAGSV,1,1,04,04,40,309,43,19,71,181,41,21,76,045,46,27,22,050,42*65
###2023-12-09 13:37:37.023614$GBGSV,2,1,06,12,16,125,45,14,28,189,40,24,62,047,49,25,52,277,47*6B
###2023-12-09 13:37:37.025360$GBGSV,2,2,06,33,44,216,45,35,16,055,46,,,,,,,,*6A
###2023-12-09 13:37:37.026691$GNVTG,270.75,T,,M,0.10,N,0.18,K,A*2C
###2023-12-09 13:37:37.028310$GNGST,183736.10,6.200,,,,0.100,0.088,0.190*63
###2023-12-09 13:37:37.029602$GNZDA,183736.10,09,12,2023,00,00*78
###2023-12-09 13:37:37.030237$GNEBP,,,,,,M*13
###2023-12-09 13:37:37.199815$GNGGA,183736.30,4138.0297968,N,07032.3970788,W,1,24,0.6,13.349,M,-29.745,M,0.0,*50
###2023-12-09 13:37:37.398317$GNGGA,183736.50,4138.0297886,N,07032.3971484,W,1,23,0.6,13.376,M,-29.745,M,0.0,*52
###2023-12-09 13:37:37.599717$GNGGA,183736.70,4138.0297825,N,07032.3971718,W,1,23,0.6,13.392,M,-29.745,M,0.0,*55
###2023-12-09 13:37:37.797934$GNGGA,183736.90,4138.0297761,N,07032.3971344,W,1,23,0.6,13.383,M,-29.745,M,0.0,*59
###2023-12-09 13:37:38.002876$GNRMC,183737.10,A,4138.0297678,N,07032.3971064,W,0.19,261.27,091223,,,A*5A
###2023-12-09 13:37:38.005712$GNGGA,183737.10,4138.0297678,N,07032.3971064,W,1,24,0.6,13.328,M,-29.745,M,0.0,*5E
###2023-12-09 13:37:38.007505$GPGSA,A,3,04,16,26,27,28,29,31,,,,,,1.1,0.6,1.0*34
###2023-12-09 13:37:38.009265$GLGSA,A,3,65,71,72,73,74,75,83,,,,,,1.1,0.6,1.0*27
###2023-12-09 13:37:38.010847$GAGSA,A,3,04,19,21,27,,,,,,,,,1.1,0.6,1.0*2E
###2023-12-09 13:37:38.012557$GBGSA,A,3,12,14,24,25,33,35,,,,,,,1.1,0.6,1.0*26
###2023-12-09 13:37:38.014890$GPGSV,2,1,07,04,48,307,43,16,68,224,45,26,82,040,48,27,18,172,40*70
###2023-12-09 13:37:38.016922$GPGSV,2,2,07,28,37,086,45,29,20,046,44,31,58,068,48,,,,*49
###2023-12-09 13:37:38.019260$GLGSV,2,1,07,65,39,317,41,71,21,175,36,72,61,219,44,73,21,053,45*63
###2023-12-09 13:37:38.021307$GLGSV,2,2,07,74,59,016,43,75,44,273,47,83,15,046,37,,,,*53
###2023-12-09 13:37:38.023639$GAGSV,1,1,04,04,40,309,42,19,71,181,39,21,76,045,46,27,22,050,42*6B
###2023-12-09 13:37:38.025973$GBGSV,2,1,06,12,16,125,44,14,28,189,40,24,62,047,49,25,52,277,46*6B
###2023-12-09 13:37:38.027727$GBGSV,2,2,06,33,44,216,45,35,16,055,46,,,,,,,,*6A
###2023-12-09 13:37:38.029047$GNVTG,261.27,T,,M,0.19,N,0.36,K,A*2E
###2023-12-09 13:37:38.030672$GNGST,183737.10,6.000,,,,0.110,0.088,0.190*61
###2023-12-09 13:37:38.031962$GNZDA,183737.10,09,12,2023,00,00*79
###2023-12-09 13:37:38.032595$GNEBP,,,,,,M*13
###2023-12-09 13:37:38.198283$GNGGA,183737.30,4138.0297591,N,07032.3971522,W,1,24,0.6,13.349,M,-29.745,M,0.0,*58
###2023-12-09 13:37:38.398040$GNGGA,183737.50,4138.0297503,N,07032.3972282,W,1,22,0.6,13.376,M,-29.745,M,0.0,*51
###2023-12-09 13:37:38.597475$GNGGA,183737.70,4138.0297436,N,07032.3972340,W,1,23,0.6,13.384,M,-29.745,M,0.0,*57
###2023-12-09 13:37:38.796130$GNGGA,183737.90,4138.0297377,N,07032.3971734,W,1,23,0.6,13.347,M,-29.745,M,0.0,*50
###2023-12-09 13:37:39.001726$GNRMC,183738.10,A,4138.0297327,N,07032.3971744,W,0.70,95.62,091223,,,A*68
###2023-12-09 13:37:39.004617$GNGGA,183738.10,4138.0297327,N,07032.3971744,W,1,24,0.6,13.321,M,-29.745,M,0.0,*52
###2023-12-09 13:37:39.006416$GPGSA,A,3,04,16,26,27,28,29,31,,,,,,1.1,0.6,1.0*34
###2023-12-09 13:37:39.008204$GLGSA,A,3,65,71,72,73,74,75,83,,,,,,1.1,0.6,1.0*27
###2023-12-09 13:37:39.009786$GAGSA,A,3,04,19,21,27,,,,,,,,,1.1,0.6,1.0*2E
###2023-12-09 13:37:39.011509$GBGSA,A,3,12,14,24,25,33,35,,,,,,,1.1,0.6,1.0*26
###2023-12-09 13:37:39.013833$GPGSV,2,1,07,04,48,307,42,16,68,224,45,26,82,040,48,27,18,172,39*7F
###2023-12-09 13:37:39.015885$GPGSV,2,2,07,28,37,086,46,29,20,046,44,31,58,068,48,,,,*4A
###2023-12-09 13:37:39.018224$GLGSV,2,1,07,65,39,317,41,71,21,175,37,72,61,219,44,73,21,053,46*61
###2023-12-09 13:37:39.020285$GLGSV,2,2,07,74,59,016,43,75,44,273,46,83,15,046,37,,,,*52
###2023-12-09 13:37:39.022627$GAGSV,1,1,04,04,40,309,41,19,71,181,40,21,76,045,46,27,22,050,43*67
###2023-12-09 13:37:39.024964$GBGSV,2,1,06,12,16,125,44,14,28,189,36,24,62,047,49,25,52,277,45*69
###2023-12-09 13:37:39.026723$GBGSV,2,2,06,33,44,216,44,35,16,055,45,,,,,,,,*68
###2023-12-09 13:37:39.028019$GNVTG,95.62,T,,M,0.70,N,1.30,K,A*1E
###2023-12-09 13:37:39.029635$GNGST,183738.10,6.000,,,,0.110,0.089,0.200*65
###2023-12-09 13:37:39.030937$GNZDA,183738.10,09,12,2023,00,00*76
###2023-12-09 13:37:39.031576$GNEBP,,,,,,M*13
###2023-12-09 13:37:39.205144$GNGGA,183738.30,4138.0297225,N,07032.3972541,W,1,24,0.6,13.364,M,-29.745,M,0.0,*56
###2023-12-09 13:37:39.397212$GNGGA,183738.50,4138.0297135,N,07032.3972978,W,1,23,0.6,13.362,M,-29.745,M,0.0,*55
###2023-12-09 13:37:39.598265$GNGGA,183738.70,4138.0297099,N,07032.3972566,W,1,23,0.6,13.373,M,-29.745,M,0.0,*53
###2023-12-09 13:37:39.801256$GNGGA,183738.90,4138.0297051,N,07032.3972251,W,1,24,0.6,13.359,M,-29.745,M,0.0,*55
###2023-12-09 13:37:40.003187$GNRMC,183739.10,A,4138.0296958,N,07032.3972656,W,0.80,263.64,091223,,,A*59
###2023-12-09 13:37:40.010240$GNGGA,183739.10,4138.0296958,N,07032.3972656,W,1,24,0.6,13.362,M,-29.745,M,0.0,*56
###2023-12-09 13:37:40.013126$GPGSA,A,3,04,16,26,27,28,29,31,,,,,,1.1,0.6,1.0*34
###2023-12-09 13:37:40.014905$GLGSA,A,3,65,71,72,73,74,75,83,,,,,,1.1,0.6,1.0*27
###2023-12-09 13:37:40.016473$GAGSA,A,3,04,19,21,27,,,,,,,,,1.1,0.6,1.0*2E
###2023-12-09 13:37:40.018155$GBGSA,A,3,12,14,24,25,33,35,,,,,,,1.1,0.6,1.0*26
###2023-12-09 13:37:40.020457$GPGSV,2,1,07,04,48,307,43,16,68,224,46,26,82,040,48,27,18,172,39*7D
###2023-12-09 13:37:40.022465$GPGSV,2,2,07,28,37,086,45,29,20,046,43,31,58,068,48,,,,*4E
###2023-12-09 13:37:40.024779$GLGSV,2,1,07,65,39,317,41,71,21,175,35,72,61,219,44,73,21,053,44*61
###2023-12-09 13:37:40.026805$GLGSV,2,2,07,74,59,016,43,75,44,273,46,83,15,046,37,,,,*52
###2023-12-09 13:37:40.029090$GAGSV,1,1,04,04,40,309,42,19,71,181,39,21,76,045,45,27,22,050,41*6B
###2023-12-09 13:37:40.031673$GBGSV,2,1,06,12,16,125,44,14,28,189,37,24,62,047,48,25,52,277,47*6B
###2023-12-09 13:37:40.033417$GBGSV,2,2,06,33,44,216,45,35,16,055,46,,,,,,,,*6A
###2023-12-09 13:37:40.034744$GNVTG,263.64,T,,M,0.80,N,1.48,K,A*23
###2023-12-09 13:37:40.036335$GNGST,183739.10,6.300,,,,0.110,0.090,0.200*6F
###2023-12-09 13:37:40.037605$GNZDA,183739.10,09,12,2023,00,00*77
###2023-12-09 13:37:40.038233$GNEBP,,,,,,M*13
###2023-12-09 13:37:40.196153$GNGGA,183739.30,4138.0296882,N,07032.3973166,W,1,22,0.6,13.352,M,-29.745,M,0.0,*52
###2023-12-09 13:37:40.395248$GNGGA,183739.50,4138.0296802,N,07032.3973224,W,1,22,0.6,13.366,M,-29.745,M,0.0,*5E
###2023-12-09 13:37:40.593021$GNGGA,183739.70,4138.0296761,N,07032.3973013,W,1,22,0.6,13.387,M,-29.745,M,0.0,*5F
###2023-12-09 13:37:40.794771$GNGGA,183739.90,4138.0296699,N,07032.3972897,W,1,23,0.6,13.362,M,-29.745,M,0.0,*58
