###2023-12-09 13:26:48.017885$GNVTG,259.82,T,,M,3.75,N,6.95,K,A*2C
###2023-12-09 13:26:48.019588$GNGST,182647.10,18.000,,,,0.097,0.071,0.160*5E
###2023-12-09 13:26:48.020902$GNZDA,182647.10,09,12,2023,00,00*7E
###2023-12-09 13:26:48.021553$GNEBP,,,,,,M*13
###2023-12-09 13:26:48.188958$GNGGA,182647.30,4138.0727648,N,07032.3677813,W,1,24,0.6,13.257,M,-29.743,M,0.0,*58
###2023-12-09 13:26:48.387674$GNGGA,182647.50,4138.0727493,N,07032.3680632,W,1,24,0.6,13.254,M,-29.743,M,0.0,*5C
###2023-12-09 13:26:48.588134$GNGGA,182647.70,4138.0727392,N,07032.3683474,W,1,24,0.6,13.256,M,-29.743,M,0.0,*59
###2023-12-09 13:26:48.789454$GNGGA,182647.90,4138.0727135,N,07032.3686328,W,1,24,0.6,13.247,M,-29.743,M,0.0,*53
###2023-12-09 13:26:48.992248$GNRMC,182648.10,A,4138.0726616,N,07032.3689083,W,3.77,253.64,091223,,,A*59
###2023-12-09 13:26:48.995120$GNGGA,182648.10,4138.0726616,N,07032.3689083,W,1,24,0.6,13.237,M,-29.743,M,0.0,*59
###2023-12-09 13:26:48.996900$GPGSA,A,3,03,04,16,26,28,29,31,,,,,,1.1,0.6,0.9*3A
###2023-12-09 13:26:48.998619$GLGSA,A,3,65,71,72,73,74,75,,,,,,,1.1,0.6,0.9*24
###2023-12-09 13:26:49.000197$GAGSA,A,3,04,19,21,27,,,,,,,,,1.1,0.6,0.9*26
###2023-12-09 13:26:49.001935$GBGSA,A,3,14,24,25,26,33,35,,,,,,,1.1,0.6,0.9*29
###2023-12-09 13:26:49.004275$GPGSV,2,1,07,03,29,250,41,04,43,309,44,16,62,219,45,26,88,044,48*7E
###2023-12-09 13:26:49.006307$GPGSV,2,2,07,28,41,081,45,29,22,050,43,31,62,060,47,,,,*43
###2023-12-09 13:26:49.008641$GLGSV,2,1,06,65,35,321,42,71,26,175,44,72,66,227,44,73,25,050,44*66
###2023-12-09 13:26:49.010380$GLGSV,2,2,06,74,62,008,43,75,41,267,44,,,,,,,,*6F
###2023-12-09 13:26:49.012710$GAGSV,1,1,04,04,37,311,42,19,75,184,40,21,80,050,46,27,25,049,41*6C
###2023-12-09 13:26:49.015036$GBGSV,2,1,06,14,32,190,42,24,65,042,48,25,49,273,45,26,18,069,45*65
###2023-12-09 13:26:49.016770$GBGSV,2,2,06,33,48,220,47,35,16,059,45,,,,,,,,*6E
###2023-12-09 13:26:49.018083$GNVTG,253.64,T,,M,3.77,N,6.98,K,A*21
###2023-12-09 13:26:49.019737$GNGST,182648.10,18.000,,,,0.097,0.071,0.160*51
###2023-12-09 13:26:49.021032$GNZDA,182648.10,09,12,2023,00,00*71
###2023-12-09 13:26:49.021671$GNEBP,,,,,,M*13
###2023-12-09 13:26:49.189320$GNGGA,182648.30,4138.0726066,N,07032.3691844,W,1,24,0.6,13.239,M,-29.743,M,0.0,*5E
###2023-12-09 13:26:49.389529$GNGGA,182648.50,4138.0725508,N,07032.3694646,W,1,24,0.6,13.239,M,-29.743,M,0.0,*5F
###2023-12-09 13:26:49.590184$GNGGA,182648.70,4138.0724797,N,07032.3697371,W,1,24,0.6,13.237,M,-29.743,M,0.0,*54
###2023-12-09 13:26:49.791094$GNGGA,182648.90,4138.0723931,N,07032.3699998,W,1,24,0.6,13.251,M,-29.743,M,0.0,*5C
###2023-12-09 13:26:49.993829$GNRMC,182649.10,A,4138.0723008,N,07032.3702617,W,3.93,245.68,091223,,,A*5C
###2023-12-09 13:26:49.996736$GNGGA,182649.10,4138.0723008,N,07032.3702617,W,1,24,0.6,13.260,M,-29.743,M,0.0,*5F
###2023-12-09 13:26:49.998535$GPGSA,A,3,03,04,16,26,28,29,31,,,,,,1.1,0.6,0.9*3A
###2023-12-09 13:26:50.000279$GLGSA,A,3,65,71,72,73,74,75,,,,,,,1.1,0.6,0.9*24
###2023-12-09 13:26:50.001866$GAGSA,A,3,04,19,21,27,,,,,,,,,1.1,0.6,0.9*26
###2023-12-09 13:26:50.003596$GBGSA,A,3,14,24,25,26,33,35,,,,,,,1.1,0.6,0.9*29
###2023-12-09 13:26:50.005931$GPGSV,2,1,07,03,29,250,41,04,43,309,44,16,62,219,46,26,88,044,47*72
###2023-12-09 13:26:50.007984$GPGSV,2,2,07,28,41,081,44,29,22,050,44,31,62,060,47,,,,*45
###2023-12-09 13:26:50.010312$GLGSV,2,1,06,65,35,321,43,71,26,175,43,72,66,227,45,73,25,050,43*66
###2023-12-09 13:26:50.012080$GLGSV,2,2,06,74,62,008,43,75,41,267,45,,,,,,,,*6E
###2023-12-09 13:26:50.014402$GAGSV,1,1,04,04,37,311,43,19,75,184,41,21,80,050,46,27,25,049,41*6C
###2023-12-09 13:26:50.016749$GBGSV,2,1,06,14,32,190,43,24,65,042,49,25,49,273,46,26,18,069,45*66
###2023-12-09 13:26:50.018494$GBGSV,2,2,06,33,48,220,47,35,16,059,45,,,,,,,,*6E
###2023-12-09 13:26:50.019827$GNVTG,245.68,T,,M,3.93,N,7.27,K,A*25
###2023-12-09 13:26:50.021463$GNGST,182649.10,18.000,,,,0.097,0.071,0.160*50
###2023-12-09 13:26:50.022758$GNZDA,182649.10,09,12,2023,00,00*70
###2023-12-09 13:26:50.023396$GNEBP,,,,,,M*13
###2023-12-09 13:26:50.189361$GNGGA,182649.30,4138.0722162,N,07032.3705374,W,1,24,0.6,13.253,M,-29.743,M,0.0,*56
###2023-12-09 13:26:50.387397$GNGGA,182649.50,4138.0721384,N,07032.3708197,W,1,24,0.6,13.251,M,-29.743,M,0.0,*59
###2023-12-09 13:26:50.591873$GNGGA,182649.70,4138.0720623,N,07032.3711010,W,1,24,0.6,13.256,M,-29.743,M,0.0,*53
###2023-12-09 13:26:50.787464$GNGGA,182649.90,4138.0719858,N,07032.3713789,W,1,24,0.6,13.261,M,-29.743,M,0.0,*54
###2023-12-09 13:26:50.993650$GNRMC,182650.10,A,4138.0719149,N,07032.3716555,W,3.87,253.11,091223,,,A*55
###2023-12-09 13:26:50.996531$GNGGA,182650.10,4138.0719149,N,07032.3716555,W,1,24,0.6,13.242,M,-29.743,M,0.0,*5A
###2023-12-09 13:26:50.998327$GPGSA,A,3,03,04,16,26,28,29,31,,,,,,1.1,0.6,0.9*3A
###2023-12-09 13:26:51.000056$GLGSA,A,3,65,71,72,73,74,75,,,,,,,1.1,0.6,0.9*24
###2023-12-09 13:26:51.001637$GAGSA,A,3,04,19,21,27,,,,,,,,,1.1,0.6,0.9*26
###2023-12-09 13:26:51.003350$GBGSA,A,3,14,24,25,26,33,35,,,,,,,1.1,0.6,0.9*29
###2023-12-09 13:26:51.005668$GPGSV,2,1,07,03,29,250,43,04,43,309,44,16,62,219,46,26,88,044,48*7F
###2023-12-09 13:26:51.007705$GPGSV,2,2,07,28,41,081,44,29,22,050,42,31,62,060,47,,,,*43
###2023-12-09 13:26:51.010024$GLGSV,2,1,06,65,35,321,41,71,26,175,45,72,66,227,45,73,25,050,42*63
###2023-12-09 13:26:51.011790$GLGSV,2,2,06,74,62,008,43,75,41,267,43,,,,,,,,*68
###2023-12-09 13:26:51.014127$GAGSV,1,1,04,04,37,311,42,19,75,184,40,21,80,050,46,27,25,049,41*6C
###2023-12-09 13:26:51.016471$GBGSV,2,1,06,14,32,190,43,24,65,042,48,25,49,273,44,26,18,069,44*64
###2023-12-09 13:26:51.018215$GBGSV,2,2,06,33,48,220,47,35,16,059,44,,,,,,,,*6F
###2023-12-09 13:26:51.019548$GNVTG,253.11,T,,M,3.87,N,7.16,K,A*2B
###2023-12-09 13:26:51.021202$GNGST,182650.10,18.000,,,,0.097,0.071,0.160*58
###2023-12-09 13:26:51.022487$GNZDA,182650.10,09,12,2023,00,00*78
###2023-12-09 13:26:51.023135$GNEBP,,,,,,M*13
###2023-12-09 13:26:51.191950$GNGGA,182650.30,4138.0718652,N,07032.3719338,W,1,24,0.6,13.234,M,-29.743,M,0.0,*57
###2023-12-09 13:26:51.388450$GNGGA,182650.50,4138.0718363,N,07032.3722139,W,1,24,0.6,13.248,M,-29.743,M,0.0,*56
###2023-12-09 13:26:51.590286$GNGGA,182650.70,4138.0718177,N,07032.3724937,W,1,24,0.6,13.258,M,-29.743,M,0.0,*52
###2023-12-09 13:26:51.790347$GNGGA,182650.90,4138.0718037,N,07032.3727767,W,1,24,0.6,13.258,M,-29.743,M,0.0,*51
###2023-12-09 13:26:51.993219$GNRMC,182651.10,A,4138.0717947,N,07032.3730589,W,3.85,267.55,091223,,,A*5C
###2023-12-09 13:26:51.996118$GNGGA,182651.10,4138.0717947,N,07032.3730589,W,1,24,0.6,13.260,M,-29.743,M,0.0,*56
###2023-12-09 13:26:51.997926$GPGSA,A,3,03,04,16,26,28,29,31,,,,,,1.1,0.6,0.9*3A
###2023-12-09 13:26:51.999660$GLGSA,A,3,65,71,72,73,74,75,,,,,,,1.1,0.6,0.9*24
###2023-12-09 13:26:52.001249$GAGSA,A,3,04,19,21,27,,,,,,,,,1.1,0.6,0.9*26
###2023-12-09 13:26:52.002986$GBGSA,A,3,14,24,25,26,33,35,,,,,,,1.1,0.6,0.9*29
###2023-12-09 13:26:52.005329$GPGSV,2,1,07,03,29,250,42,04,43,309,43,16,62,219,45,26,88,044,48*7A
###2023-12-09 13:26:52.007388$GPGSV,2,2,07,28,41,081,44,29,22,050,40,31,62,060,47,,,,*41
###2023-12-09 13:26:52.009772$GLGSV,2,1,06,65,35,321,42,71,26,175,45,72,66,227,45,73,25,050,43*61
###2023-12-09 13:26:52.011548$GLGSV,2,2,06,74,62,008,42,75,41,267,43,,,,,,,,*69
###2023-12-09 13:26:52.013877$GAGSV,1,1,04,04,37,311,43,19,75,184,41,21,80,050,46,27,25,049,40*6D
###2023-12-09 13:26:52.016215$GBGSV,2,1,06,14,32,190,44,24,65,042,50,25,49,273,46,26,18,069,45*69
###2023-12-09 13:26:52.017969$GBGSV,2,2,06,33,48,220,48,35,16,059,43,,,,,,,,*67
###2023-12-09 13:26:52.019301$GNVTG,267.55,T,,M,3.85,N,7.13,K,A*2B
###2023-12-09 13:26:52.020945$GNGST,182651.10,18.000,,,,0.097,0.071,0.160*59
###2023-12-09 13:26:52.022233$GNZDA,182651.10,09,12,2023,00,00*79
###2023-12-09 13:26:52.022880$GNEBP,,,,,,M*13
###2023-12-09 13:26:52.188492$GNGGA,182651.30,4138.0717894,N,07032.3733415,W,1,24,0.6,13.261,M,-29.743,M,0.0,*5D
###2023-12-09 13:26:52.390690$GNGGA,182651.50,4138.0717893,N,07032.3736193,W,1,24,0.6,13.256,M,-29.743,M,0.0,*56
###2023-12-09 13:26:52.587089$GNGGA,182651.70,4138.0717938,N,07032.3738934,W,1,24,0.6,13.256,M,-29.743,M,0.0,*5F
###2023-12-09 13:26:52.788617$GNGGA,182651.90,4138.0717987,N,07032.3741621,W,1,24,0.6,13.256,M,-29.743,M,0.0,*50
###2023-12-09 13:26:52.995036$GNRMC,182652.10,A,4138.0718073,N,07032.3744238,W,3.48,273.79,091223,,,A*5A
###2023-12-09 13:26:52.997928$GNGGA,182652.10,4138.0718073,N,07032.3744238,W,1,24,0.6,13.257,M,-29.743,M,0.0,*5E
###2023-12-09 13:26:52.999746$GPGSA,A,3,03,04,16,26,28,29,31,,,,,,1.1,0.6,0.9*3A
###2023-12-09 13:26:53.001459$GLGSA,A,3,65,71,72,73,74,75,,,,,,,1.1,0.6,0.9*24
###2023-12-09 13:26:53.003058$GAGSA,A,3,04,19,21,27,,,,,,,,,1.1,0.6,0.9*26
###2023-12-09 13:26:53.004774$GBGSA,A,3,14,24,25,26,33,35,,,,,,,1.1,0.6,0.9*29
###2023-12-09 13:26:53.007115$GPGSV,2,1,07,03,29,250,41,04,43,309,43,16,62,219,45,26,88,044,48*79
###2023-12-09 13:26:53.009151$GPGSV,2,2,07,28,41,081,44,29,22,050,40,31,62,060,47,,,,*41
