###2023-12-09 13:19:25.014145$GNEBP,,,,,,M*13
###2023-12-09 13:19:25.180837$GNGGA,181924.30,4138.0811529,N,07032.3092149,W,1,24,0.7,13.193,M,-29.742,M,0.0,*5F
###2023-12-09 13:19:25.380956$GNGGA,181924.50,4138.0813543,N,07032.3091417,W,1,24,0.7,13.207,M,-29.742,M,0.0,*54
###2023-12-09 13:19:25.582131$GNGGA,181924.70,4138.0815588,N,07032.3090662,W,1,24,0.7,13.205,M,-29.742,M,0.0,*54
###2023-12-09 13:19:25.781766$GNGGA,181924.90,4138.0817683,N,07032.3089903,W,1,24,0.7,13.205,M,-29.742,M,0.0,*50
###2023-12-09 13:19:25.984794$GNRMC,181925.10,A,4138.0819831,N,07032.3089336,W,3.95,9.01,091223,,,A*5F
###2023-12-09 13:19:25.987659$GNGGA,181925.10,4138.0819831,N,07032.3089336,W,1,24,0.7,13.211,M,-29.742,M,0.0,*59
###2023-12-09 13:19:25.989452$GPGSA,A,3,03,04,16,26,28,29,31,,,,,,1.1,0.7,0.9*3B
###2023-12-09 13:19:25.991180$GLGSA,A,3,65,71,72,73,74,75,,,,,,,1.1,0.7,0.9*25
###2023-12-09 13:19:25.992759$GAGSA,A,3,04,19,21,27,,,,,,,,,1.1,0.7,0.9*27
###2023-12-09 13:19:25.994468$GBGSA,A,3,14,24,25,26,33,35,,,,,,,1.1,0.7,0.9*28
###2023-12-09 13:19:25.996814$GPGSV,2,1,07,03,31,253,42,04,40,310,44,16,59,217,46,26,88,205,48*7E
###2023-12-09 13:19:25.998868$GPGSV,2,2,07,28,43,078,44,29,23,053,41,31,64,053,45,,,,*42
###2023-12-09 13:19:26.001200$GLGSV,2,1,06,65,32,324,40,71,31,174,45,72,69,237,46,73,28,047,41*62
###2023-12-09 13:19:26.002858$GLGSV,2,2,06,74,65,,41,75,38,262,47,,,,,,,,*5A
###2023-12-09 13:19:26.005187$GAGSV,1,1,04,04,35,311,43,19,78,188,39,21,82,058,46,27,27,049,40*69
###2023-12-09 13:19:26.007529$GBGSV,2,1,06,14,35,191,45,24,68,038,47,25,46,269,47,26,20,067,42*6F
###2023-12-09 13:19:26.009277$GBGSV,2,2,06,33,51,223,47,35,16,062,42,,,,,,,,*6A
###2023-12-09 13:19:26.010535$GNVTG,9.01,T,,M,3.95,N,7.31,K,A*21
###2023-12-09 13:19:26.012198$GNGST,181925.10,18.000,,,,0.100,0.070,0.170*59
###2023-12-09 13:19:26.013493$GNZDA,181925.10,09,12,2023,00,00*76
###2023-12-09 13:19:26.014132$GNEBP,,,,,,M*13
###2023-12-09 13:19:26.180376$GNGGA,181925.30,4138.0822014,N,07032.3088798,W,1,24,0.7,13.218,M,-29.742,M,0.0,*54
###2023-12-09 13:19:26.380690$GNGGA,181925.50,4138.0824153,N,07032.3088073,W,1,24,0.7,13.216,M,-29.742,M,0.0,*5A
###2023-12-09 13:19:26.581710$GNGGA,181925.70,4138.0826276,N,07032.3087387,W,1,24,0.7,13.211,M,-29.742,M,0.0,*5E
###2023-12-09 13:19:26.783153$GNGGA,181925.90,4138.0828407,N,07032.3086754,W,1,24,0.7,13.196,M,-29.742,M,0.0,*59
###2023-12-09 13:19:26.986771$GNRMC,181926.10,A,4138.0830518,N,07032.3086391,W,3.77,4.11,091223,,,A*53
###2023-12-09 13:19:26.989614$GNGGA,181926.10,4138.0830518,N,07032.3086391,W,1,24,0.7,13.181,M,-29.742,M,0.0,*5F
###2023-12-09 13:19:26.991414$GPGSA,A,3,03,04,16,26,28,29,31,,,,,,1.1,0.7,0.9*3B
###2023-12-09 13:19:26.993129$GLGSA,A,3,65,71,72,73,74,75,,,,,,,1.1,0.7,0.9*25
###2023-12-09 13:19:26.994750$GAGSA,A,3,04,19,21,27,,,,,,,,,1.1,0.7,0.9*27
###2023-12-09 13:19:26.996462$GBGSA,A,3,14,24,25,26,33,35,,,,,,,1.1,0.7,0.9*28
###2023-12-09 13:19:26.998795$GPGSV,2,1,07,03,31,253,43,04,40,310,43,16,59,217,47,26,89,196,48*71
###2023-12-09 13:19:27.000832$GPGSV,2,2,07,28,43,078,45,29,23,053,41,31,64,053,46,,,,*40
###2023-12-09 13:19:27.003172$GLGSV,2,1,06,65,32,324,43,71,31,174,45,72,69,237,47,73,28,047,41*60
###2023-12-09 13:19:27.004815$GLGSV,2,2,06,74,65,,41,75,38,262,46,,,,,,,,*5B
###2023-12-09 13:19:27.007141$GAGSV,1,1,04,04,35,311,42,19,78,188,41,21,82,058,46,27,27,049,40*67
###2023-12-09 13:19:27.009472$GBGSV,2,1,06,14,35,191,44,24,68,038,48,25,46,269,48,26,20,067,43*6F
###2023-12-09 13:19:27.011227$GBGSV,2,2,06,33,51,223,48,35,16,062,43,,,,,,,,*64
###2023-12-09 13:19:27.012481$GNVTG,4.11,T,,M,3.77,N,6.98,K,A*23
###2023-12-09 13:19:27.014119$GNGST,181926.10,18.000,,,,0.099,0.070,0.170*5B
###2023-12-09 13:19:27.015420$GNZDA,181926.10,09,12,2023,00,00*75
###2023-12-09 13:19:27.016057$GNEBP,,,,,,M*13
###2023-12-09 13:19:27.183984$GNGGA,181926.30,4138.0832596,N,07032.3086186,W,1,24,0.7,13.191,M,-29.742,M,0.0,*5C
###2023-12-09 13:19:27.381371$GNGGA,181926.50,4138.0834684,N,07032.3085831,W,1,24,0.7,13.208,M,-29.742,M,0.0,*59
###2023-12-09 13:19:27.581421$GNGGA,181926.70,4138.0836790,N,07032.3085460,W,1,24,0.7,13.201,M,-29.742,M,0.0,*5C
###2023-12-09 13:19:27.782365$GNGGA,181926.90,4138.0838866,N,07032.3085461,W,1,24,0.7,13.187,M,-29.742,M,0.0,*56
###2023-12-09 13:19:27.984886$GNRMC,181927.10,A,4138.0840922,N,07032.3085640,W,3.71,357.85,091223,,,A*54
###2023-12-09 13:19:27.988366$GNGGA,181927.10,4138.0840922,N,07032.3085640,W,1,24,0.7,13.183,M,-29.742,M,0.0,*54
###2023-12-09 13:19:27.990538$GPGSA,A,3,03,04,16,26,28,29,31,,,,,,1.1,0.7,0.9*3B
###2023-12-09 13:19:27.992629$GLGSA,A,3,65,71,72,73,74,75,,,,,,,1.1,0.7,0.9*25
###2023-12-09 13:19:27.994542$GAGSA,A,3,04,19,21,27,,,,,,,,,1.1,0.7,0.9*27
###2023-12-09 13:19:27.996622$GBGSA,A,3,14,24,25,26,33,35,,,,,,,1.1,0.7,0.9*28
###2023-12-09 13:19:27.999441$GPGSV,2,1,07,03,31,253,44,04,40,310,45,16,59,217,48,26,89,196,49*7E
###2023-12-09 13:19:28.001910$GPGSV,2,2,07,28,43,078,45,29,23,053,41,31,64,053,47,,,,*41
###2023-12-09 13:19:28.004735$GLGSV,2,1,06,65,32,324,40,71,31,174,46,72,69,237,47,73,28,047,41*60
###2023-12-09 13:19:28.006743$GLGSV,2,2,06,74,65,,41,75,38,262,47,,,,,,,,*5A
###2023-12-09 13:19:28.009554$GAGSV,1,1,04,04,35,311,44,19,78,188,41,21,82,058,47,27,27,049,41*61
###2023-12-09 13:19:28.012409$GBGSV,2,1,06,14,35,191,42,24,68,038,48,25,46,269,47,26,20,067,40*65
###2023-12-09 13:19:28.014518$GBGSV,2,2,06,33,51,223,48,35,16,062,40,,,,,,,,*67
###2023-12-09 13:19:28.016142$GNVTG,357.85,T,,M,3.71,N,6.88,K,A*2C
###2023-12-09 13:19:28.018148$GNGST,181927.10,18.000,,,,0.099,0.070,0.170*5A
###2023-12-09 13:19:28.019723$GNZDA,181927.10,09,12,2023,00,00*74
###2023-12-09 13:19:28.020495$GNEBP,,,,,,M*13
###2023-12-09 13:19:28.181525$GNGGA,181927.30,4138.0843008,N,07032.3085641,W,1,24,0.7,13.181,M,-29.742,M,0.0,*57
###2023-12-09 13:19:28.381410$GNGGA,181927.50,4138.0845118,N,07032.3085576,W,1,24,0.7,13.184,M,-29.742,M,0.0,*55
###2023-12-09 13:19:28.582118$GNGGA,181927.70,4138.0847224,N,07032.3085749,W,1,24,0.7,13.188,M,-29.742,M,0.0,*5B
###2023-12-09 13:19:28.783210$GNGGA,181927.90,4138.0849329,N,07032.3086210,W,1,24,0.7,13.192,M,-29.742,M,0.0,*56
###2023-12-09 13:19:28.986898$GNRMC,181928.10,A,4138.0851456,N,07032.3086679,W,3.95,351.59,091223,,,A*51
###2023-12-09 13:19:28.990377$GNGGA,181928.10,4138.0851456,N,07032.3086679,W,1,24,0.7,13.185,M,-29.742,M,0.0,*5A
###2023-12-09 13:19:28.992566$GPGSA,A,3,03,04,16,26,28,29,31,,,,,,1.1,0.7,0.9*3B
###2023-12-09 13:19:28.994656$GLGSA,A,3,65,71,72,73,74,75,,,,,,,1.1,0.7,0.9*25
###2023-12-09 13:19:28.996579$GAGSA,A,3,04,19,21,27,,,,,,,,,1.1,0.7,0.9*27
###2023-12-09 13:19:28.998667$GBGSA,A,3,14,24,25,26,33,35,,,,,,,1.1,0.7,0.9*28
###2023-12-09 13:19:29.001489$GPGSV,2,1,07,03,31,253,45,04,40,310,46,16,59,217,49,26,89,196,50*75
###2023-12-09 13:19:29.004012$GPGSV,2,2,07,28,43,079,45,29,23,053,42,31,64,053,47,,,,*43
###2023-12-09 13:19:29.006852$GLGSV,2,1,06,65,32,324,38,71,31,174,47,72,69,237,47,73,28,047,42*6D
###2023-12-09 13:19:29.008841$GLGSV,2,2,06,74,65,,41,75,38,262,46,,,,,,,,*5B
###2023-12-09 13:19:29.011661$GAGSV,1,1,04,04,35,311,44,19,78,188,42,21,82,058,47,27,27,049,41*62
###2023-12-09 13:19:29.014477$GBGSV,2,1,06,14,35,191,42,24,68,038,48,25,46,269,47,26,20,067,42*67
###2023-12-09 13:19:29.016603$GBGSV,2,2,06,33,51,223,49,35,16,062,38,,,,,,,,*69
###2023-12-09 13:19:29.018208$GNVTG,351.59,T,,M,3.95,N,7.31,K,A*22
###2023-12-09 13:19:29.020206$GNGST,181928.10,18.000,,,,0.098,0.070,0.170*54
###2023-12-09 13:19:29.021766$GNZDA,181928.10,09,12,2023,00,00*7B
###2023-12-09 13:19:29.022536$GNEBP,,,,,,M*13
###2023-12-09 13:19:29.181503$GNGGA,181928.30,4138.0853591,N,07032.3087108,W,1,24,0.7,13.192,M,-29.742,M,0.0,*56
###2023-12-09 13:19:29.381388$GNGGA,181928.50,4138.0855765,N,07032.3087603,W,1,24,0.7,13.202,M,-29.742,M,0.0,*59
###2023-12-09 13:19:29.581234$GNGGA,181928.70,4138.0857865,N,07032.3088292,W,1,24,0.7,13.197,M,-29.742,M,0.0,*5A
###2023-12-09 13:19:29.781061$GNGGA,181928.90,4138.0859893,N,07032.3089191,W,1,24,0.7,13.189,M,-29.742,M,0.0,*5D
###2023-12-09 13:19:29.985398$GNRMC,181929.10,A,4138.0861893,N,07032.3090101,W,3.91,341.75,091223,,,A*52
###2023-12-09 13:19:29.989178$GNGGA,181929.10,4138.0861893,N,07032.3090101,W,1,24,0.7,13.188,M,-29.742,M,0.0,*5F
###2023-12-09 13:19:29.991381$GPGSA,A,3,03,04,16,26,28,29,31,,,,,,1.1,0.7,0.9*3B
###2023-12-09 13:19:29.993465$GLGSA,A,3,65,71,72,73,74,75,,,,,,,1.1,0.7,0.9*25
###2023-12-09 13:19:29.995434$GAGSA,A,3,04,19,21,27,,,,,,,,,1.1,0.7,0.9*27
###2023-12-09 13:19:29.997499$GBGSA,A,3,14,24,25,26,33,35,,,,,,,1.1,0.7,0.9*28
###2023-12-09 13:19:30.000331$GPGSV,2,1,07,03,31,253,45,04,40,310,44,16,59,217,47,26,89,196,48*70
###2023-12-09 13:19:30.002799$GPGSV,2,2,07,28,43,079,45,29,23,053,42,31,64,053,47,,,,*43
###2023-12-09 13:19:30.005610$GLGSV,2,1,06,65,32,324,40,71,31,174,45,72,69,237,46,73,28,047,43*60
###2023-12-09 13:19:30.007612$GLGSV,2,2,06,74,65,,41,75,38,262,45,,,,,,,,*58
###2023-12-09 13:19:30.010411$GAGSV,1,1,04,04,35,311,41,19,78,188,41,21,82,058,46,27,27,049,40*64
