###2023-12-09 12:48:13.960118$GPGSV,2,2,08,28,53,064,44,29,26,067,39,31,71,021,46,32,24,137,43*7B
###2023-12-09 12:48:13.962477$GLGSV,2,1,06,65,17,329,43,71,49,171,46,72,70,294,47,73,42,037,43*6B
###2023-12-09 12:48:13.964253$GLGSV,2,2,06,74,71,314,43,75,27,246,45,,,,,,,,*61
###2023-12-09 12:48:13.966613$GAGSV,1,1,04,04,25,312,44,19,85,269,41,21,82,165,46,27,38,049,43*6F
###2023-12-09 12:48:13.968945$GBGSV,2,1,05,14,50,195,43,24,78,008,48,25,36,257,44,26,31,060,43*6F
###2023-12-09 12:48:13.970399$GBGSV,2,2,05,33,61,243,47,,,,,,,,,,,,*5F
###2023-12-09 12:48:13.971734$GNVTG,309.73,T,,M,0.23,N,0.43,K,A*2B
###2023-12-09 12:48:13.973387$GNGST,174813.10,18.000,,,,0.077,0.069,0.160*5F
###2023-12-09 12:48:13.974692$GNZDA,174813.10,09,12,2023,00,00*78
###2023-12-09 12:48:13.975330$GNEBP,,,,,,M*13
###2023-12-09 12:48:14.144636$GNGGA,174813.30,4138.0544169,N,07032.4020234,W,1,24,0.6,13.552,M,-29.745,M,0.0,*55
###2023-12-09 12:48:14.345554$GNGGA,174813.50,4138.0544351,N,07032.4020452,W,1,24,0.6,13.569,M,-29.745,M,0.0,*54
###2023-12-09 12:48:14.547340$GNGGA,174813.70,4138.0544563,N,07032.4020717,W,1,24,0.6,13.562,M,-29.745,M,0.0,*58
###2023-12-09 12:48:14.745367$GNGGA,174813.90,4138.0544724,N,07032.4020942,W,1,24,0.6,13.547,M,-29.745,M,0.0,*5E
###2023-12-09 12:48:14.944289$GNRMC,174814.10,A,4138.0544899,N,07032.4021194,W,0.51,309.73,091223,,,A*53
###2023-12-09 12:48:14.947158$GNGGA,174814.10,4138.0544899,N,07032.4021194,W,1,24,0.6,13.545,M,-29.745,M,0.0,*58
###2023-12-09 12:48:14.949034$GPGSA,A,3,03,04,16,26,28,29,31,32,,,,,1.1,0.6,0.9*3B
###2023-12-09 12:48:14.950760$GLGSA,A,3,65,71,72,73,74,75,,,,,,,1.1,0.6,0.9*24
###2023-12-09 12:48:14.952340$GAGSA,A,3,04,19,21,27,,,,,,,,,1.1,0.6,0.9*26
###2023-12-09 12:48:14.953988$GBGSA,A,3,14,24,25,26,33,,,,,,,,1.1,0.6,0.9*2F
###2023-12-09 12:48:14.956350$GPGSV,2,1,08,03,37,269,44,04,27,311,44,16,43,209,45,26,73,208,48*76
###2023-12-09 12:48:14.958707$GPGSV,2,2,08,28,53,064,44,29,26,067,40,31,71,021,46,32,24,137,43*75
###2023-12-09 12:48:14.961048$GLGSV,2,1,06,65,17,329,43,71,49,171,47,72,70,294,47,73,42,037,42*6B
###2023-12-09 12:48:14.962813$GLGSV,2,2,06,74,71,314,43,75,27,246,46,,,,,,,,*62
###2023-12-09 12:48:14.965146$GAGSV,1,1,04,04,25,312,43,19,85,269,41,21,83,162,46,27,38,049,43*6E
###2023-12-09 12:48:14.967495$GBGSV,2,1,05,14,50,195,44,24,78,008,47,25,36,257,43,26,31,060,43*60
###2023-12-09 12:48:14.968959$GBGSV,2,2,05,33,61,243,48,,,,,,,,,,,,*50
###2023-12-09 12:48:14.970282$GNVTG,309.73,T,,M,0.51,N,0.94,K,A*24
###2023-12-09 12:48:14.971944$GNGST,174814.10,18.000,,,,0.077,0.070,0.160*50
###2023-12-09 12:48:14.973238$GNZDA,174814.10,09,12,2023,00,00*7F
###2023-12-09 12:48:14.973878$GNEBP,,,,,,M*13
###2023-12-09 12:48:15.145572$GNGGA,174814.30,4138.0545123,N,07032.4021472,W,1,24,0.6,13.543,M,-29.745,M,0.0,*58
###2023-12-09 12:48:15.345442$GNGGA,174814.50,4138.0545323,N,07032.4021702,W,1,24,0.6,13.538,M,-29.745,M,0.0,*54
###2023-12-09 12:48:15.547773$GNGGA,174814.70,4138.0545452,N,07032.4021853,W,1,24,0.6,13.538,M,-29.745,M,0.0,*5C
###2023-12-09 12:48:15.745647$GNGGA,174814.90,4138.0545600,N,07032.4022024,W,1,24,0.6,13.539,M,-29.745,M,0.0,*5D
###2023-12-09 12:48:15.944277$GNRMC,174815.10,A,4138.0545839,N,07032.4022349,W,0.70,309.73,091223,,,A*5B
###2023-12-09 12:48:15.947163$GNGGA,174815.10,4138.0545839,N,07032.4022349,W,1,24,0.6,13.540,M,-29.745,M,0.0,*56
###2023-12-09 12:48:15.949045$GPGSA,A,3,03,04,16,26,28,29,31,32,,,,,1.1,0.6,0.9*3B
###2023-12-09 12:48:15.950772$GLGSA,A,3,65,71,72,73,74,75,,,,,,,1.1,0.6,0.9*24
###2023-12-09 12:48:15.952358$GAGSA,A,3,04,19,21,27,,,,,,,,,1.1,0.6,0.9*26
###2023-12-09 12:48:15.953997$GBGSA,A,3,14,24,25,26,33,,,,,,,,1.1,0.6,0.9*2F
###2023-12-09 12:48:15.956375$GPGSV,2,1,08,03,37,269,43,04,27,311,44,16,43,209,45,26,73,208,49*70
###2023-12-09 12:48:15.958733$GPGSV,2,2,08,28,53,064,45,29,26,067,40,31,71,021,46,32,24,137,44*73
###2023-12-09 12:48:15.961068$GLGSV,2,1,06,65,17,329,42,71,49,171,47,72,70,294,47,73,42,037,42*6A
###2023-12-09 12:48:15.962831$GLGSV,2,2,06,74,71,314,43,75,27,246,45,,,,,,,,*61
###2023-12-09 12:48:15.965160$GAGSV,1,1,04,04,25,312,43,19,85,269,41,21,83,162,46,27,38,049,43*6E
###2023-12-09 12:48:15.967500$GBGSV,2,1,05,14,50,195,45,24,78,008,48,25,36,257,44,26,31,060,43*69
###2023-12-09 12:48:15.968949$GBGSV,2,2,05,33,61,243,48,,,,,,,,,,,,*50
###2023-12-09 12:48:15.970266$GNVTG,309.73,T,,M,0.70,N,1.30,K,A*28
###2023-12-09 12:48:15.971926$GNGST,174815.10,18.000,,,,0.077,0.069,0.160*59
###2023-12-09 12:48:15.973219$GNZDA,174815.10,09,12,2023,00,00*7E
###2023-12-09 12:48:15.973859$GNEBP,,,,,,M*13
###2023-12-09 12:48:16.145302$GNGGA,174815.30,4138.0546095,N,07032.4022703,W,1,24,0.6,13.534,M,-29.745,M,0.0,*50
###2023-12-09 12:48:16.345495$GNGGA,174815.50,4138.0546266,N,07032.4022925,W,1,24,0.6,13.533,M,-29.745,M,0.0,*55
###2023-12-09 12:48:16.545589$GNGGA,174815.70,4138.0546366,N,07032.4023014,W,1,24,0.6,13.535,M,-29.745,M,0.0,*5A
###2023-12-09 12:48:16.745399$GNGGA,174815.90,4138.0546534,N,07032.4023212,W,1,24,0.6,13.539,M,-29.745,M,0.0,*5D
###2023-12-09 12:48:16.946596$GNRMC,174816.10,A,4138.0546809,N,07032.4023584,W,0.76,309.73,091223,,,A*58
###2023-12-09 12:48:16.949481$GNGGA,174816.10,4138.0546809,N,07032.4023584,W,1,24,0.6,13.542,M,-29.745,M,0.0,*51
###2023-12-09 12:48:16.951360$GPGSA,A,3,03,04,16,26,28,29,31,32,,,,,1.1,0.6,0.9*3B
###2023-12-09 12:48:16.953080$GLGSA,A,3,65,71,72,73,74,75,,,,,,,1.1,0.6,0.9*24
###2023-12-09 12:48:16.954684$GAGSA,A,3,04,19,21,27,,,,,,,,,1.1,0.6,0.9*26
###2023-12-09 12:48:16.956337$GBGSA,A,3,14,24,25,26,33,,,,,,,,1.1,0.6,0.9*2F
###2023-12-09 12:48:16.958694$GPGSV,2,1,08,03,37,269,43,04,27,311,43,16,43,209,46,26,73,208,48*75
###2023-12-09 12:48:16.961049$GPGSV,2,2,08,28,53,064,44,29,26,067,39,31,71,021,46,32,24,137,43*7B
###2023-12-09 12:48:16.963419$GLGSV,2,1,06,65,17,329,43,71,49,171,47,72,70,294,47,73,42,037,42*6B
###2023-12-09 12:48:16.965181$GLGSV,2,2,06,74,71,314,43,75,27,246,45,,,,,,,,*61
###2023-12-09 12:48:16.967533$GAGSV,1,1,04,04,25,312,43,19,85,269,41,21,83,162,46,27,38,049,43*6E
###2023-12-09 12:48:16.969878$GBGSV,2,1,05,14,50,195,44,24,78,008,48,25,36,257,44,26,31,060,43*68
###2023-12-09 12:48:16.971355$GBGSV,2,2,05,33,61,243,47,,,,,,,,,,,,*5F
###2023-12-09 12:48:16.972689$GNVTG,309.73,T,,M,0.76,N,1.40,K,A*29
###2023-12-09 12:48:16.974342$GNGST,174816.10,18.000,,,,0.077,0.069,0.160*5A
###2023-12-09 12:48:16.975650$GNZDA,174816.10,09,12,2023,00,00*7D
###2023-12-09 12:48:16.976292$GNEBP,,,,,,M*13
###2023-12-09 12:48:17.148388$GNGGA,174816.30,4138.0547084,N,07032.4023954,W,1,24,0.6,13.540,M,-29.745,M,0.0,*5C
###2023-12-09 12:48:17.346491$GNGGA,174816.50,4138.0547232,N,07032.4024094,W,1,24,0.6,13.539,M,-29.745,M,0.0,*59
###2023-12-09 12:48:17.546810$GNGGA,174816.70,4138.0547325,N,07032.4024157,W,1,24,0.6,13.537,M,-29.745,M,0.0,*5C
###2023-12-09 12:48:17.746614$GNGGA,174816.90,4138.0547521,N,07032.4024377,W,1,24,0.6,13.534,M,-29.745,M,0.0,*53
###2023-12-09 12:48:17.948903$GNRMC,174817.10,A,4138.0547821,N,07032.4024825,W,0.84,309.73,091223,,,A*5E
###2023-12-09 12:48:17.951785$GNGGA,174817.10,4138.0547821,N,07032.4024825,W,1,24,0.6,13.536,M,-29.745,M,0.0,*59
###2023-12-09 12:48:17.953654$GPGSA,A,3,03,04,16,26,28,29,31,32,,,,,1.1,0.6,0.9*3B
###2023-12-09 12:48:17.955385$GLGSA,A,3,65,71,72,73,74,75,,,,,,,1.1,0.6,0.9*24
###2023-12-09 12:48:17.956970$GAGSA,A,3,04,19,21,27,,,,,,,,,1.1,0.6,0.9*26
###2023-12-09 12:48:17.958634$GBGSA,A,3,14,24,25,26,33,,,,,,,,1.1,0.6,0.9*2F
###2023-12-09 12:48:17.960963$GPGSV,2,1,08,03,37,269,45,04,27,311,43,16,43,209,46,26,73,208,48*73
###2023-12-09 12:48:17.963314$GPGSV,2,2,08,28,53,064,44,29,26,067,39,31,71,021,46,32,24,137,41*79
###2023-12-09 12:48:17.965659$GLGSV,2,1,06,65,17,329,43,71,49,171,48,72,70,294,46,73,42,037,43*64
###2023-12-09 12:48:17.967455$GLGSV,2,2,06,74,71,314,43,75,27,246,45,,,,,,,,*61
###2023-12-09 12:48:17.969795$GAGSV,1,1,04,04,25,312,42,19,85,269,41,21,83,162,46,27,38,049,43*6F
###2023-12-09 12:48:17.972164$GBGSV,2,1,05,14,50,195,45,24,78,008,49,25,36,257,45,26,31,060,43*69
###2023-12-09 12:48:17.973646$GBGSV,2,2,05,33,61,243,48,,,,,,,,,,,,*50
###2023-12-09 12:48:17.974989$GNVTG,309.73,T,,M,0.84,N,1.55,K,A*20
###2023-12-09 12:48:17.976899$GNGST,174817.10,18.000,,,,0.077,0.069,0.160*5B
###2023-12-09 12:48:17.978204$GNZDA,174817.10,09,12,2023,00,00*7C
###2023-12-09 12:48:17.978864$GNEBP,,,,,,M*13
###2023-12-09 12:48:18.145997$GNGGA,174817.30,4138.0548094,N,07032.4025216,W,1,24,0.6,13.532,M,-29.745,M,0.0,*5D
###2023-12-09 12:48:18.346381$GNGGA,174817.50,4138.0548192,N,07032.4025269,W,1,24,0.6,13.542,M,-29.745,M,0.0,*53
###2023-12-09 12:48:18.546465$GNGGA,174817.70,4138.0548240,N,07032.4025267,W,1,24,0.6,13.525,M,-29.745,M,0.0,*52
###2023-12-09 12:48:18.746432$GNGGA,174817.90,4138.0548432,N,07032.4025558,W,1,24,0.6,13.523,M,-29.745,M,0.0,*52
###2023-12-09 12:48:18.946266$GNRMC,174818.10,A,4138.0548807,N,07032.4026101,W,0.91,312.46,091223,,,A*5F
###2023-12-09 12:48:18.949199$GNGGA,174818.10,4138.0548807,N,07032.4026101,W,1,24,0.6,13.519,M,-29.745,M,0.0,*5D
