###2023-12-09 12:58:46.993877$GNGST,175846.10,18.000,,,,0.079,0.066,0.160*5F
###2023-12-09 12:58:46.995223$GNZDA,175846.10,09,12,2023,00,00*79
###2023-12-09 12:58:46.995871$GNEBP,,,,,,M*13
###2023-12-09 12:58:47.163791$GNGGA,175846.30,4138.0324447,N,07032.2808813,W,1,24,0.6,13.030,M,-29.744,M,0.0,*56
###2023-12-09 12:58:47.362929$GNGGA,175846.50,4138.0324804,N,07032.2806326,W,1,24,0.6,13.055,M,-29.744,M,0.0,*5B
###2023-12-09 12:58:47.563938$GNGGA,175846.70,4138.0324554,N,07032.2803727,W,1,24,0.6,13.021,M,-29.744,M,0.0,*52
###2023-12-09 12:58:47.763382$GNGGA,175846.90,4138.0324051,N,07032.2801342,W,1,24,0.6,13.021,M,-29.744,M,0.0,*59
###2023-12-09 12:58:47.964991$GNRMC,175847.10,A,4138.0324082,N,07032.2798874,W,3.44,82.86,091223,,,A*6F
###2023-12-09 12:58:47.967881$GNGGA,175847.10,4138.0324082,N,07032.2798874,W,1,24,0.6,13.065,M,-29.744,M,0.0,*5F
###2023-12-09 12:58:47.969733$GPGSA,A,3,03,04,16,26,28,29,31,32,,,,,1.1,0.6,0.9*3B
###2023-12-09 12:58:47.971459$GLGSA,A,3,65,71,72,73,74,75,,,,,,,1.1,0.6,0.9*24
###2023-12-09 12:58:47.973046$GAGSA,A,3,04,19,21,27,,,,,,,,,1.1,0.6,0.9*26
###2023-12-09 12:58:47.974708$GBGSA,A,3,14,24,25,26,33,,,,,,,,1.1,0.6,0.9*2F
###2023-12-09 12:58:47.977037$GPGSV,2,1,08,03,36,264,45,04,31,311,42,16,48,211,47,26,78,209,48*70
###2023-12-09 12:58:47.979381$GPGSV,2,2,08,28,50,069,44,29,25,063,39,31,69,033,47,32,20,139,42*72
###2023-12-09 12:58:47.981722$GLGSV,2,1,06,65,23,328,40,71,42,172,47,72,73,273,47,73,37,040,45*69
###2023-12-09 12:58:47.983488$GLGSV,2,2,06,74,70,331,42,75,30,251,46,,,,,,,,*65
###2023-12-09 12:58:47.985823$GAGSV,1,1,04,04,28,312,40,19,85,226,41,21,85,133,46,27,34,048,43*64
###2023-12-09 12:58:47.988173$GBGSV,2,1,05,14,44,193,46,24,74,022,48,25,40,261,46,26,27,062,42*6F
###2023-12-09 12:58:47.989633$GBGSV,2,2,05,33,58,234,48,,,,,,,,,,,,*5A
###2023-12-09 12:58:47.990939$GNVTG,82.86,T,,M,3.44,N,6.37,K,A*16
###2023-12-09 12:58:47.992588$GNGST,175847.10,18.000,,,,0.079,0.067,0.160*5F
###2023-12-09 12:58:47.993881$GNZDA,175847.10,09,12,2023,00,00*78
###2023-12-09 12:58:47.994519$GNEBP,,,,,,M*13
###2023-12-09 12:58:48.162051$GNGGA,175847.30,4138.0324139,N,07032.2796319,W,1,24,0.6,13.047,M,-29.744,M,0.0,*52
###2023-12-09 12:58:48.362525$GNGGA,175847.50,4138.0324023,N,07032.2793846,W,1,24,0.6,13.031,M,-29.744,M,0.0,*5B
###2023-12-09 12:58:48.562267$GNGGA,175847.70,4138.0323906,N,07032.2791349,W,1,24,0.6,13.060,M,-29.744,M,0.0,*52
###2023-12-09 12:58:48.772014$GNGGA,175847.90,4138.0323867,N,07032.2788797,W,1,24,0.6,13.083,M,-29.744,M,0.0,*58
###2023-12-09 12:58:48.971723$GNRMC,175848.10,A,4138.0323865,N,07032.2786169,W,3.52,88.66,091223,,,A*6F
###2023-12-09 12:58:48.974581$GNGGA,175848.10,4138.0323865,N,07032.2786169,W,1,24,0.6,13.067,M,-29.744,M,0.0,*5E
###2023-12-09 12:58:48.976430$GPGSA,A,3,03,04,16,26,28,29,31,32,,,,,1.1,0.6,0.9*3B
###2023-12-09 12:58:48.978137$GLGSA,A,3,65,71,72,73,74,75,,,,,,,1.1,0.6,0.9*24
###2023-12-09 12:58:48.979728$GAGSA,A,3,04,19,21,27,,,,,,,,,1.1,0.6,0.9*26
###2023-12-09 12:58:48.981369$GBGSA,A,3,14,24,25,26,33,,,,,,,,1.1,0.6,0.9*2F
###2023-12-09 12:58:48.983694$GPGSV,2,1,08,03,36,264,46,04,31,311,41,16,48,211,47,26,78,209,48*70
###2023-12-09 12:58:48.986019$GPGSV,2,2,08,28,50,069,44,29,25,063,40,31,69,033,47,32,20,139,43*7D
###2023-12-09 12:58:48.988354$GLGSV,2,1,06,65,23,328,41,71,42,172,47,72,73,273,46,73,37,041,45*68
###2023-12-09 12:58:48.990098$GLGSV,2,2,06,74,70,331,43,75,30,251,46,,,,,,,,*64
###2023-12-09 12:58:48.992409$GAGSV,1,1,04,04,28,312,39,19,85,226,40,21,85,133,45,27,34,048,43*68
###2023-12-09 12:58:48.994737$GBGSV,2,1,05,14,44,193,47,24,74,022,48,25,40,261,47,26,27,062,41*6C
###2023-12-09 12:58:48.996186$GBGSV,2,2,05,33,58,234,48,,,,,,,,,,,,*5A
###2023-12-09 12:58:48.997469$GNVTG,88.66,T,,M,3.52,N,6.52,K,A*16
###2023-12-09 12:58:48.999116$GNGST,175848.10,18.000,,,,0.079,0.067,0.160*50
###2023-12-09 12:58:49.000400$GNZDA,175848.10,09,12,2023,00,00*77
###2023-12-09 12:58:49.001034$GNEBP,,,,,,M*13
###2023-12-09 12:58:49.166044$GNGGA,175848.30,4138.0324023,N,07032.2783661,W,1,24,0.6,13.054,M,-29.744,M,0.0,*5B
###2023-12-09 12:58:49.367895$GNGGA,175848.50,4138.0324278,N,07032.2781167,W,1,24,0.6,13.088,M,-29.744,M,0.0,*53
###2023-12-09 12:58:49.562721$GNGGA,175848.70,4138.0324371,N,07032.2778557,W,1,24,0.6,13.093,M,-29.744,M,0.0,*52
###2023-12-09 12:58:49.770280$GNGGA,175848.90,4138.0324366,N,07032.2776056,W,1,24,0.6,13.088,M,-29.744,M,0.0,*5A
###2023-12-09 12:58:49.968103$GNRMC,175849.10,A,4138.0324540,N,07032.2773542,W,3.44,81.17,091223,,,A*6C
###2023-12-09 12:58:49.970970$GNGGA,175849.10,4138.0324540,N,07032.2773542,W,1,24,0.6,13.098,M,-29.744,M,0.0,*55
###2023-12-09 12:58:49.972820$GPGSA,A,3,03,04,16,26,28,29,31,32,,,,,1.1,0.6,0.9*3B
###2023-12-09 12:58:49.974530$GLGSA,A,3,65,71,72,73,74,75,,,,,,,1.1,0.6,0.9*24
###2023-12-09 12:58:49.976119$GAGSA,A,3,04,19,21,27,,,,,,,,,1.1,0.6,0.9*26
###2023-12-09 12:58:49.977763$GBGSA,A,3,14,24,25,26,33,,,,,,,,1.1,0.6,0.9*2F
###2023-12-09 12:58:49.980095$GPGSV,2,1,08,03,36,264,45,04,31,311,40,16,48,211,47,26,78,209,48*72
###2023-12-09 12:58:49.982428$GPGSV,2,2,08,28,50,069,44,29,25,063,40,31,69,033,46,32,20,139,43*7C
###2023-12-09 12:58:49.984769$GLGSV,2,1,06,65,23,328,40,71,42,172,48,72,73,273,46,73,37,041,44*67
###2023-12-09 12:58:49.986515$GLGSV,2,2,06,74,70,334,42,75,30,251,45,,,,,,,,*63
###2023-12-09 12:58:49.988852$GAGSV,1,1,04,04,28,312,39,19,85,226,41,21,85,133,46,27,34,048,42*6B
###2023-12-09 12:58:49.991194$GBGSV,2,1,05,14,44,193,46,24,74,022,48,25,40,261,46,26,27,062,41*6C
###2023-12-09 12:58:49.992652$GBGSV,2,2,05,33,58,234,48,,,,,,,,,,,,*5A
###2023-12-09 12:58:49.993939$GNVTG,81.17,T,,M,3.44,N,6.37,K,A*1D
###2023-12-09 12:58:49.995598$GNGST,175849.10,18.000,,,,0.079,0.067,0.160*51
###2023-12-09 12:58:49.996893$GNZDA,175849.10,09,12,2023,00,00*76
###2023-12-09 12:58:49.997530$GNEBP,,,,,,M*13
###2023-12-09 12:58:50.161792$GNGGA,175849.30,4138.0324792,N,07032.2771061,W,1,24,0.6,13.093,M,-29.744,M,0.0,*57
###2023-12-09 12:58:50.367722$GNGGA,175849.50,4138.0324987,N,07032.2768607,W,1,24,0.6,13.112,M,-29.744,M,0.0,*5D
###2023-12-09 12:58:50.562744$GNGGA,175849.70,4138.0324747,N,07032.2766030,W,1,24,0.6,13.107,M,-29.744,M,0.0,*55
###2023-12-09 12:58:50.773601$GNGGA,175849.90,4138.0324682,N,07032.2763584,W,1,24,0.6,13.110,M,-29.744,M,0.0,*5A
###2023-12-09 12:58:50.965905$GNRMC,175850.10,A,4138.0324930,N,07032.2761067,W,3.54,88.12,091223,,,A*63
###2023-12-09 12:58:50.968809$GNGGA,175850.10,4138.0324930,N,07032.2761067,W,1,24,0.6,13.122,M,-29.744,M,0.0,*57
###2023-12-09 12:58:50.970693$GPGSA,A,3,03,04,16,26,28,29,31,32,,,,,1.1,0.6,0.9*3B
###2023-12-09 12:58:50.972415$GLGSA,A,3,65,71,72,73,74,75,,,,,,,1.1,0.6,0.9*24
###2023-12-09 12:58:50.974007$GAGSA,A,3,04,19,21,27,,,,,,,,,1.1,0.6,0.9*26
###2023-12-09 12:58:50.975668$GBGSA,A,3,14,24,25,26,33,,,,,,,,1.1,0.6,0.9*2F
###2023-12-09 12:58:50.977987$GPGSV,2,1,08,03,36,264,46,04,31,311,42,16,48,211,46,26,78,209,48*72
###2023-12-09 12:58:50.980333$GPGSV,2,2,08,28,50,069,44,29,25,063,40,31,69,033,47,32,20,139,40*7E
###2023-12-09 12:58:50.982674$GLGSV,2,1,06,65,23,328,41,71,42,172,46,72,73,273,46,73,37,041,45*69
###2023-12-09 12:58:50.984414$GLGSV,2,2,06,74,70,334,43,75,31,252,46,,,,,,,,*63
###2023-12-09 12:58:50.986754$GAGSV,1,1,04,04,28,312,40,19,85,226,41,21,85,133,46,27,34,048,43*64
###2023-12-09 12:58:50.989082$GBGSV,2,1,05,14,44,193,45,24,74,022,49,25,40,261,47,26,27,062,42*6C
###2023-12-09 12:58:50.990534$GBGSV,2,2,05,33,58,234,48,,,,,,,,,,,,*5A
###2023-12-09 12:58:50.991836$GNVTG,88.12,T,,M,3.54,N,6.55,K,A*14
###2023-12-09 12:58:50.993486$GNGST,175850.10,18.000,,,,0.079,0.067,0.160*59
###2023-12-09 12:58:50.994789$GNZDA,175850.10,09,12,2023,00,00*7E
###2023-12-09 12:58:50.995430$GNEBP,,,,,,M*13
###2023-12-09 12:58:51.165659$GNGGA,175850.30,4138.0324839,N,07032.2758565,W,1,24,0.6,13.111,M,-29.744,M,0.0,*50
###2023-12-09 12:58:51.364774$GNGGA,175850.50,4138.0324690,N,07032.2756029,W,1,24,0.6,13.127,M,-29.744,M,0.0,*5D
###2023-12-09 12:58:51.562723$GNGGA,175850.70,4138.0324530,N,07032.2753483,W,1,24,0.6,13.136,M,-29.744,M,0.0,*57
###2023-12-09 12:58:51.766186$GNGGA,175850.90,4138.0324707,N,07032.2750957,W,1,24,0.6,13.152,M,-29.744,M,0.0,*5A
###2023-12-09 12:58:51.967216$GNRMC,175851.10,A,4138.0324732,N,07032.2748288,W,3.50,93.02,091223,,,A*69
###2023-12-09 12:58:51.970085$GNGGA,175851.10,4138.0324732,N,07032.2748288,W,1,24,0.6,13.136,M,-29.744,M,0.0,*57
###2023-12-09 12:58:51.971982$GPGSA,A,3,03,04,16,26,28,29,31,32,,,,,1.1,0.6,0.9*3B
###2023-12-09 12:58:51.973706$GLGSA,A,3,65,71,72,73,74,75,,,,,,,1.1,0.6,0.9*24
###2023-12-09 12:58:51.975307$GAGSA,A,3,04,19,21,27,,,,,,,,,1.1,0.6,0.9*26
###2023-12-09 12:58:51.976961$GBGSA,A,3,14,24,25,26,33,,,,,,,,1.1,0.6,0.9*2F
###2023-12-09 12:58:51.979295$GPGSV,2,1,08,03,36,264,46,04,31,311,41,16,48,211,46,26,78,209,48*71
###2023-12-09 12:58:51.981638$GPGSV,2,2,08,28,50,069,44,29,25,063,40,31,69,033,47,32,20,139,43*7D
###2023-12-09 12:58:51.983991$GLGSV,2,1,06,65,23,328,42,71,42,172,47,72,73,273,47,73,37,041,45*6A
