###2023-12-09 12:59:05.995698$GNZDA,175905.10,09,12,2023,00,00*7F
###2023-12-09 12:59:05.996362$GNEBP,,,,,,M*13
###2023-12-09 12:59:06.163403$GNGGA,175905.30,4138.0321390,N,07032.2569631,W,1,24,0.6,13.226,M,-29.743,M,0.0,*5E
###2023-12-09 12:59:06.364573$GNGGA,175905.50,4138.0320964,N,07032.2567366,W,1,24,0.6,13.236,M,-29.743,M,0.0,*50
###2023-12-09 12:59:06.563404$GNGGA,175905.70,4138.0320400,N,07032.2565099,W,1,24,0.6,13.220,M,-29.743,M,0.0,*5B
###2023-12-09 12:59:06.774669$GNGGA,175905.90,4138.0319435,N,07032.2563120,W,1,24,0.6,13.210,M,-29.743,M,0.0,*5F
###2023-12-09 12:59:06.967967$GNRMC,175906.10,A,4138.0318462,N,07032.2561301,W,3.05,123.94,091223,,,A*5F
###2023-12-09 12:59:06.970847$GNGGA,175906.10,4138.0318462,N,07032.2561301,W,1,24,0.6,13.214,M,-29.743,M,0.0,*50
###2023-12-09 12:59:06.972709$GPGSA,A,3,03,04,16,26,28,29,31,32,,,,,1.1,0.6,0.9*3B
###2023-12-09 12:59:06.974428$GLGSA,A,3,65,71,72,73,74,75,,,,,,,1.1,0.6,0.9*24
###2023-12-09 12:59:06.976029$GAGSA,A,3,04,19,21,27,,,,,,,,,1.1,0.6,0.9*26
###2023-12-09 12:59:06.977678$GBGSA,A,3,14,24,25,26,33,,,,,,,,1.1,0.6,0.9*2F
###2023-12-09 12:59:06.980026$GPGSV,2,1,08,03,35,262,44,04,31,311,44,16,48,211,46,26,78,209,48*73
###2023-12-09 12:59:06.982368$GPGSV,2,2,08,28,50,069,44,29,25,063,44,31,69,033,47,32,20,139,41*7B
###2023-12-09 12:59:06.984728$GLGSV,2,1,06,65,23,328,44,71,42,172,44,72,73,273,46,73,37,041,46*6D
###2023-12-09 12:59:06.986486$GLGSV,2,2,06,74,70,334,43,75,31,252,46,,,,,,,,*63
###2023-12-09 12:59:06.988829$GAGSV,1,1,04,04,28,312,42,19,85,226,40,21,85,133,45,27,34,048,44*63
###2023-12-09 12:59:06.991177$GBGSV,2,1,05,14,44,193,44,24,74,022,49,25,40,261,47,26,27,062,44*6B
###2023-12-09 12:59:06.992633$GBGSV,2,2,05,33,58,234,49,,,,,,,,,,,,*5B
###2023-12-09 12:59:06.993959$GNVTG,123.94,T,,M,3.05,N,5.65,K,A*2E
###2023-12-09 12:59:06.995625$GNGST,175906.10,18.000,,,,0.079,0.066,0.160*5A
###2023-12-09 12:59:06.996917$GNZDA,175906.10,09,12,2023,00,00*7C
###2023-12-09 12:59:06.997555$GNEBP,,,,,,M*13
###2023-12-09 12:59:07.163354$GNGGA,175906.30,4138.0317512,N,07032.2559302,W,1,24,0.6,13.227,M,-29.743,M,0.0,*53
###2023-12-09 12:59:07.365070$GNGGA,175906.50,4138.0316433,N,07032.2557403,W,1,24,0.6,13.196,M,-29.743,M,0.0,*57
###2023-12-09 12:59:07.563792$GNGGA,175906.70,4138.0315234,N,07032.2555889,W,1,24,0.6,13.194,M,-29.743,M,0.0,*59
###2023-12-09 12:59:07.765176$GNGGA,175906.90,4138.0313919,N,07032.2554340,W,1,24,0.6,13.206,M,-29.743,M,0.0,*52
###2023-12-09 12:59:07.968748$GNRMC,175907.10,A,4138.0312555,N,07032.2552979,W,2.92,149.72,091223,,,A*5F
###2023-12-09 12:59:07.971632$GNGGA,175907.10,4138.0312555,N,07032.2552979,W,1,24,0.6,13.191,M,-29.743,M,0.0,*55
###2023-12-09 12:59:07.973496$GPGSA,A,3,03,04,16,26,28,29,31,32,,,,,1.1,0.6,0.9*3B
###2023-12-09 12:59:07.975224$GLGSA,A,3,65,71,72,73,74,75,,,,,,,1.1,0.6,0.9*24
###2023-12-09 12:59:07.976803$GAGSA,A,3,04,19,21,27,,,,,,,,,1.1,0.6,0.9*26
###2023-12-09 12:59:07.978451$GBGSA,A,3,14,24,25,26,33,,,,,,,,1.1,0.6,0.9*2F
###2023-12-09 12:59:07.980787$GPGSV,2,1,08,03,35,262,46,04,32,311,42,16,48,211,46,26,78,209,47*7B
###2023-12-09 12:59:07.983130$GPGSV,2,2,08,28,50,069,46,29,25,063,44,31,69,033,47,32,20,139,41*79
###2023-12-09 12:59:07.985461$GLGSV,2,1,06,65,23,328,42,71,42,172,45,72,73,273,46,73,37,041,46*6A
###2023-12-09 12:59:07.987257$GLGSV,2,2,06,74,70,334,43,75,31,252,46,,,,,,,,*63
###2023-12-09 12:59:07.989593$GAGSV,1,1,04,04,28,312,40,19,85,226,40,21,85,133,46,27,34,048,43*65
###2023-12-09 12:59:07.991945$GBGSV,2,1,05,14,44,193,43,24,74,022,49,25,40,261,48,26,27,062,45*62
###2023-12-09 12:59:07.993404$GBGSV,2,2,05,33,58,234,48,,,,,,,,,,,,*5A
###2023-12-09 12:59:07.994738$GNVTG,149.72,T,,M,2.92,N,5.40,K,A*22
###2023-12-09 12:59:07.996384$GNGST,175907.10,18.000,,,,0.079,0.066,0.160*5B
###2023-12-09 12:59:07.997672$GNZDA,175907.10,09,12,2023,00,00*7D
###2023-12-09 12:59:07.998310$GNEBP,,,,,,M*13
###2023-12-09 12:59:08.162602$GNGGA,175907.30,4138.0311129,N,07032.2551878,W,1,24,0.6,13.199,M,-29.743,M,0.0,*50
###2023-12-09 12:59:08.362020$GNGGA,175907.50,4138.0309627,N,07032.2550794,W,1,24,0.6,13.198,M,-29.743,M,0.0,*5B
###2023-12-09 12:59:08.563294$GNGGA,175907.70,4138.0308121,N,07032.2549915,W,1,24,0.6,13.185,M,-29.743,M,0.0,*5A
###2023-12-09 12:59:08.772859$GNGGA,175907.90,4138.0306547,N,07032.2549255,W,1,24,0.6,13.188,M,-29.743,M,0.0,*5C
###2023-12-09 12:59:08.977067$GNRMC,175908.10,A,4138.0304928,N,07032.2548692,W,2.86,168.29,091223,,,A*58
###2023-12-09 12:59:08.979926$GNGGA,175908.10,4138.0304928,N,07032.2548692,W,1,24,0.6,13.175,M,-29.743,M,0.0,*50
###2023-12-09 12:59:08.981765$GPGSA,A,3,03,04,16,26,28,29,31,32,,,,,1.1,0.6,0.9*3B
###2023-12-09 12:59:08.983482$GLGSA,A,3,65,71,72,73,74,75,,,,,,,1.1,0.6,0.9*24
###2023-12-09 12:59:08.985059$GAGSA,A,3,04,19,21,27,,,,,,,,,1.1,0.6,0.9*26
###2023-12-09 12:59:08.986710$GBGSA,A,3,14,24,25,26,33,,,,,,,,1.1,0.6,0.9*2F
###2023-12-09 12:59:08.989025$GPGSV,2,1,08,03,35,262,45,04,32,311,43,16,48,211,44,26,78,209,48*74
###2023-12-09 12:59:08.991365$GPGSV,2,2,08,28,50,069,45,29,25,063,43,31,69,033,47,32,20,139,41*7D
###2023-12-09 12:59:08.993680$GLGSV,2,1,06,65,23,328,42,71,42,172,43,72,73,273,46,73,37,041,46*6C
###2023-12-09 12:59:08.995430$GLGSV,2,2,06,74,70,334,43,75,31,252,45,,,,,,,,*60
###2023-12-09 12:59:08.997750$GAGSV,1,1,04,04,28,312,41,19,85,226,40,21,85,133,46,27,34,048,42*65
###2023-12-09 12:59:09.000090$GBGSV,2,1,05,14,44,193,43,24,74,022,48,25,40,261,47,26,27,062,43*6A
###2023-12-09 12:59:09.001538$GBGSV,2,2,05,33,58,234,48,,,,,,,,,,,,*5A
###2023-12-09 12:59:09.002867$GNVTG,168.29,T,,M,2.86,N,5.29,K,A*25
###2023-12-09 12:59:09.004508$GNGST,175908.10,18.000,,,,0.080,0.066,0.160*52
###2023-12-09 12:59:09.005796$GNZDA,175908.10,09,12,2023,00,00*72
###2023-12-09 12:59:09.006432$GNEBP,,,,,,M*13
###2023-12-09 12:59:09.167860$GNGGA,175908.30,4138.0303393,N,07032.2548340,W,1,24,0.6,13.184,M,-29.743,M,0.0,*5B
###2023-12-09 12:59:09.363268$GNGGA,175908.50,4138.0301785,N,07032.2548160,W,1,24,0.6,13.181,M,-29.743,M,0.0,*59
###2023-12-09 12:59:09.563387$GNGGA,175908.70,4138.0300240,N,07032.2548121,W,1,24,0.6,13.166,M,-29.743,M,0.0,*5A
###2023-12-09 12:59:09.766758$GNGGA,175908.90,4138.0298728,N,07032.2548307,W,1,24,0.6,13.181,M,-29.743,M,0.0,*50
###2023-12-09 12:59:09.964504$GNRMC,175909.10,A,4138.0297156,N,07032.2548571,W,2.72,187.18,091223,,,A*55
###2023-12-09 12:59:09.967363$GNGGA,175909.10,4138.0297156,N,07032.2548571,W,1,24,0.6,13.179,M,-29.743,M,0.0,*59
###2023-12-09 12:59:09.969216$GPGSA,A,3,03,04,16,26,28,29,31,32,,,,,1.1,0.6,0.9*3B
###2023-12-09 12:59:09.970940$GLGSA,A,3,65,71,72,73,74,75,,,,,,,1.1,0.6,0.9*24
###2023-12-09 12:59:09.972518$GAGSA,A,3,04,19,21,27,,,,,,,,,1.1,0.6,0.9*26
###2023-12-09 12:59:09.974155$GBGSA,A,3,14,24,25,26,33,,,,,,,,1.1,0.6,0.9*2F
###2023-12-09 12:59:09.976492$GPGSV,2,1,08,03,35,262,44,04,32,311,44,16,48,211,45,26,78,209,48*73
###2023-12-09 12:59:09.978821$GPGSV,2,2,08,28,50,069,45,29,25,063,42,31,69,033,48,32,20,139,43*71
###2023-12-09 12:59:09.981146$GLGSV,2,1,06,65,23,328,41,71,42,172,45,72,73,273,46,73,37,041,45*6A
###2023-12-09 12:59:09.982894$GLGSV,2,2,06,74,70,334,43,75,31,252,44,,,,,,,,*61
###2023-12-09 12:59:09.985213$GAGSV,1,1,04,04,28,312,42,19,85,226,40,21,85,133,46,27,34,048,41*65
###2023-12-09 12:59:09.987548$GBGSV,2,1,05,14,44,193,43,24,74,022,49,25,40,261,46,26,27,062,44*6D
###2023-12-09 12:59:09.989003$GBGSV,2,2,05,33,58,234,49,,,,,,,,,,,,*5B
###2023-12-09 12:59:09.990319$GNVTG,187.18,T,,M,2.72,N,5.04,K,A*22
###2023-12-09 12:59:09.991975$GNGST,175909.10,18.000,,,,0.080,0.066,0.160*53
###2023-12-09 12:59:09.993267$GNZDA,175909.10,09,12,2023,00,00*73
###2023-12-09 12:59:09.993903$GNEBP,,,,,,M*13
###2023-12-09 12:59:10.161209$GNGGA,175909.30,4138.0295605,N,07032.2548776,W,1,24,0.6,13.169,M,-29.743,M,0.0,*5C
###2023-12-09 12:59:10.360971$GNGGA,175909.50,4138.0294057,N,07032.2549007,W,1,24,0.6,13.155,M,-29.743,M,0.0,*55
###2023-12-09 12:59:10.561353$GNGGA,175909.70,4138.0292533,N,07032.2549404,W,1,24,0.6,13.163,M,-29.743,M,0.0,*54
###2023-12-09 12:59:10.760678$GNGGA,175909.90,4138.0290953,N,07032.2549925,W,1,24,0.6,13.154,M,-29.743,M,0.0,*58
###2023-12-09 12:59:10.963263$GNRMC,175910.10,A,4138.0289448,N,07032.2550189,W,2.70,185.48,091223,,,A*57
###2023-12-09 12:59:10.966366$GNGGA,175910.10,4138.0289448,N,07032.2550189,W,1,24,0.6,13.136,M,-29.743,M,0.0,*55
###2023-12-09 12:59:10.968245$GPGSA,A,3,03,04,16,26,28,29,31,32,,,,,1.1,0.6,0.9*3B
###2023-12-09 12:59:10.969967$GLGSA,A,3,65,71,72,73,74,75,,,,,,,1.1,0.6,0.9*24
###2023-12-09 12:59:10.971563$GAGSA,A,3,04,19,21,27,,,,,,,,,1.1,0.6,0.9*26
###2023-12-09 12:59:10.973215$GBGSA,A,3,14,24,25,26,33,,,,,,,,1.1,0.6,0.9*2F
###2023-12-09 12:59:10.975564$GPGSV,2,1,08,03,35,262,43,04,32,311,44,16,48,211,45,26,78,209,47*7B
###2023-12-09 12:59:10.977892$GPGSV,2,2,08,28,50,069,45,29,25,063,43,31,69,033,47,32,20,139,44*78
###2023-12-09 12:59:10.980232$GLGSV,2,1,06,65,23,328,41,71,42,172,45,72,73,273,46,73,37,041,45*6A
###2023-12-09 12:59:10.981976$GLGSV,2,2,06,74,70,334,43,75,31,252,44,,,,,,,,*61
