###2023-12-09 13:48:27.035930$GNVTG,243.17,T,,M,0.02,N,0.04,K,A*26
###2023-12-09 13:48:27.037561$GNGST,184826.10,6.600,,,,0.200,0.120,0.320*67
###2023-12-09 13:48:27.038871$GNZDA,184826.10,09,12,2023,00,00*71
###2023-12-09 13:48:27.039515$GNEBP,,,,,,M*13
###2023-12-09 13:48:27.213724$GNGGA,184826.30,4138.0389766,N,07032.4382802,W,1,17,0.7,15.095,M,-29.746,M,0.0,*5C
###2023-12-09 13:48:27.407445$GNGGA,184826.50,4138.0389770,N,07032.4382788,W,1,17,0.7,15.092,M,-29.746,M,0.0,*57
###2023-12-09 13:48:27.606643$GNGGA,184826.70,4138.0389764,N,07032.4382772,W,1,17,0.7,15.087,M,-29.746,M,0.0,*51
###2023-12-09 13:48:27.807043$GNGGA,184826.90,4138.0389750,N,07032.4382762,W,1,18,0.7,15.088,M,-29.746,M,0.0,*59
###2023-12-09 13:48:28.011237$GNRMC,184827.10,A,4138.0389748,N,07032.4382756,W,0.06,243.17,091223,,,A*55
###2023-12-09 13:48:28.014080$GNGGA,184827.10,4138.0389748,N,07032.4382756,W,1,18,0.7,15.088,M,-29.746,M,0.0,*5E
###2023-12-09 13:48:28.015815$GPGSA,A,3,04,16,26,28,29,31,,,,,,,1.2,0.7,1.1*32
###2023-12-09 13:48:28.017401$GLGSA,A,3,65,73,74,75,,,,,,,,,1.2,0.7,1.1*2C
###2023-12-09 13:48:28.018931$GAGSA,A,3,04,21,27,,,,,,,,,,1.2,0.7,1.1*25
###2023-12-09 13:48:28.020579$GBGSA,A,3,12,24,25,33,35,,,,,,,,1.2,0.7,1.1*20
###2023-12-09 13:48:28.022921$GPGSV,2,1,06,04,51,304,48,16,73,229,40,26,77,041,43,28,33,090,42*7A
###2023-12-09 13:48:28.024676$GPGSV,2,2,06,29,17,042,43,31,55,075,49,,,,,,,,*7E
###2023-12-09 13:48:28.027018$GLGSV,1,1,04,65,43,312,44,73,17,056,43,74,55,024,35,75,47,280,48*67
###2023-12-09 13:48:28.029058$GAGSV,1,1,03,04,44,307,44,21,71,043,40,27,18,051,40,,,,*51
###2023-12-09 13:48:28.031404$GBGSV,2,1,05,12,20,122,40,24,58,052,45,25,54,282,47,33,40,213,38*66
###2023-12-09 13:48:28.032865$GBGSV,2,2,05,35,16,051,38,,,,,,,,,,,,*50
###2023-12-09 13:48:28.034187$GNVTG,243.17,T,,M,0.06,N,0.11,K,A*26
###2023-12-09 13:48:28.035816$GNGST,184827.10,7.000,,,,0.200,0.120,0.320*61
###2023-12-09 13:48:28.037110$GNZDA,184827.10,09,12,2023,00,00*70
###2023-12-09 13:48:28.037748$GNEBP,,,,,,M*13
###2023-12-09 13:48:28.212313$GNGGA,184827.30,4138.0389739,N,07032.4382757,W,1,18,0.7,15.085,M,-29.746,M,0.0,*56
###2023-12-09 13:48:28.407537$GNGGA,184827.50,4138.0389743,N,07032.4382741,W,1,18,0.7,15.085,M,-29.746,M,0.0,*5A
###2023-12-09 13:48:28.606716$GNGGA,184827.70,4138.0389747,N,07032.4382718,W,1,19,0.7,15.087,M,-29.746,M,0.0,*53
###2023-12-09 13:48:28.806863$GNGGA,184827.90,4138.0389756,N,07032.4382711,W,1,19,0.7,15.083,M,-29.746,M,0.0,*50
###2023-12-09 13:48:29.011930$GNRMC,184828.10,A,4138.0389761,N,07032.4382697,W,0.08,243.17,091223,,,A*53
###2023-12-09 13:48:29.014987$GNGGA,184828.10,4138.0389761,N,07032.4382697,W,1,19,0.7,15.081,M,-29.746,M,0.0,*5E
###2023-12-09 13:48:29.016784$GPGSA,A,3,04,16,26,28,29,31,,,,,,,1.2,0.7,1.0*33
###2023-12-09 13:48:29.018428$GLGSA,A,3,65,72,73,74,75,,,,,,,,1.2,0.7,1.0*28
###2023-12-09 13:48:29.019957$GAGSA,A,3,04,21,27,,,,,,,,,,1.2,0.7,1.0*24
###2023-12-09 13:48:29.021602$GBGSA,A,3,12,24,25,33,35,,,,,,,,1.2,0.7,1.0*21
###2023-12-09 13:48:29.023934$GPGSV,2,1,06,04,51,304,48,16,73,229,40,26,77,041,43,28,33,090,42*7A
###2023-12-09 13:48:29.025676$GPGSV,2,2,06,29,17,042,42,31,55,075,49,,,,,,,,*7F
###2023-12-09 13:48:29.028014$GLGSV,2,1,05,65,43,312,44,72,56,213,35,73,17,056,42,74,55,024,36*60
###2023-12-09 13:48:29.029468$GLGSV,2,2,05,75,47,280,48,,,,,,,,,,,,*57
###2023-12-09 13:48:29.031505$GAGSV,1,1,03,04,44,307,44,21,71,043,40,27,18,051,40,,,,*51
###2023-12-09 13:48:29.033833$GBGSV,2,1,05,12,20,122,40,24,58,053,45,25,54,282,46,33,40,213,38*66
###2023-12-09 13:48:29.035298$GBGSV,2,2,05,35,16,051,39,,,,,,,,,,,,*51
###2023-12-09 13:48:29.036622$GNVTG,243.17,T,,M,0.08,N,0.14,K,A*2D
###2023-12-09 13:48:29.038227$GNGST,184828.10,7.100,,,,0.200,0.120,0.320*6F
###2023-12-09 13:48:29.039532$GNZDA,184828.10,09,12,2023,00,00*7F
###2023-12-09 13:48:29.040168$GNEBP,,,,,,M*13
###2023-12-09 13:48:29.207872$GNGGA,184828.30,4138.0389763,N,07032.4382679,W,1,19,0.7,15.082,M,-29.746,M,0.0,*5D
###2023-12-09 13:48:29.407464$GNGGA,184828.50,4138.0389777,N,07032.4382653,W,1,19,0.7,15.081,M,-29.746,M,0.0,*55
###2023-12-09 13:48:29.609038$GNGGA,184828.70,4138.0389792,N,07032.4382645,W,1,19,0.7,15.076,M,-29.746,M,0.0,*53
###2023-12-09 13:48:29.808444$GNGGA,184828.90,4138.0389801,N,07032.4382619,W,1,19,0.7,15.080,M,-29.746,M,0.0,*58
###2023-12-09 13:48:30.011655$GNRMC,184829.10,A,4138.0389814,N,07032.4382605,W,0.04,243.17,091223,,,A*58
###2023-12-09 13:48:30.014497$GNGGA,184829.10,4138.0389814,N,07032.4382605,W,1,19,0.7,15.084,M,-29.746,M,0.0,*5C
###2023-12-09 13:48:30.016235$GPGSA,A,3,04,16,26,28,29,31,,,,,,,1.2,0.7,1.0*33
###2023-12-09 13:48:30.017883$GLGSA,A,3,65,72,73,74,75,,,,,,,,1.2,0.7,1.0*28
###2023-12-09 13:48:30.019411$GAGSA,A,3,04,21,27,,,,,,,,,,1.2,0.7,1.0*24
###2023-12-09 13:48:30.021045$GBGSA,A,3,12,24,25,33,35,,,,,,,,1.2,0.7,1.0*21
###2023-12-09 13:48:30.023373$GPGSV,2,1,06,04,51,304,48,16,73,229,40,26,77,041,44,28,33,090,42*7D
###2023-12-09 13:48:30.025118$GPGSV,2,2,06,29,17,042,43,31,55,075,49,,,,,,,,*7E
###2023-12-09 13:48:30.027450$GLGSV,2,1,05,65,43,312,44,72,56,213,35,73,17,056,42,74,55,024,35*63
###2023-12-09 13:48:30.028907$GLGSV,2,2,05,75,47,280,48,,,,,,,,,,,,*57
###2023-12-09 13:48:30.030953$GAGSV,1,1,03,04,44,307,44,21,71,043,40,27,18,051,40,,,,*51
###2023-12-09 13:48:30.033278$GBGSV,2,1,05,12,20,122,41,24,58,053,44,25,55,284,46,33,40,213,39*60
###2023-12-09 13:48:30.034739$GBGSV,2,2,05,35,16,051,38,,,,,,,,,,,,*50
###2023-12-09 13:48:30.036054$GNVTG,243.17,T,,M,0.04,N,0.07,K,A*23
###2023-12-09 13:48:30.037659$GNGST,184829.10,7.200,,,,0.200,0.120,0.320*6D
###2023-12-09 13:48:30.038955$GNZDA,184829.10,09,12,2023,00,00*7E
###2023-12-09 13:48:30.039596$GNEBP,,,,,,M*13
###2023-12-09 13:48:30.207929$GNGGA,184829.30,4138.0389837,N,07032.4382591,W,1,19,0.7,15.084,M,-29.746,M,0.0,*51
###2023-12-09 13:48:30.407379$GNGGA,184829.50,4138.0389847,N,07032.4382582,W,1,19,0.7,15.085,M,-29.746,M,0.0,*53
###2023-12-09 13:48:30.606656$GNGGA,184829.70,4138.0389864,N,07032.4382571,W,1,19,0.7,15.089,M,-29.746,M,0.0,*50
###2023-12-09 13:48:30.807305$GNGGA,184829.90,4138.0389882,N,07032.4382564,W,1,19,0.7,15.091,M,-29.746,M,0.0,*5B
###2023-12-09 13:48:31.012998$GNRMC,184830.10,A,4138.0389895,N,07032.4382547,W,0.02,243.17,091223,,,A*5A
###2023-12-09 13:48:31.015873$GNGGA,184830.10,4138.0389895,N,07032.4382547,W,1,19,0.7,15.094,M,-29.746,M,0.0,*59
###2023-12-09 13:48:31.017599$GPGSA,A,3,04,16,26,28,29,31,,,,,,,1.2,0.7,1.0*33
###2023-12-09 13:48:31.019259$GLGSA,A,3,65,72,73,74,75,,,,,,,,1.2,0.7,1.0*28
###2023-12-09 13:48:31.020779$GAGSA,A,3,04,21,27,,,,,,,,,,1.2,0.7,1.0*24
###2023-12-09 13:48:31.022424$GBGSA,A,3,12,24,25,33,35,,,,,,,,1.2,0.7,1.0*21
###2023-12-09 13:48:31.024758$GPGSV,2,1,06,04,51,304,49,16,73,229,40,26,77,041,44,28,33,090,42*7C
###2023-12-09 13:48:31.026509$GPGSV,2,2,06,29,17,042,43,31,55,075,49,,,,,,,,*7E
###2023-12-09 13:48:31.028845$GLGSV,2,1,05,65,43,312,44,72,56,213,36,73,17,056,42,74,55,024,36*63
###2023-12-09 13:48:31.030300$GLGSV,2,2,05,75,47,280,48,,,,,,,,,,,,*57
###2023-12-09 13:48:31.032344$GAGSV,1,1,03,04,44,307,44,21,71,043,40,27,18,051,40,,,,*51
###2023-12-09 13:48:31.034683$GBGSV,2,1,05,12,20,122,40,24,58,053,45,25,55,284,46,33,40,213,39*60
###2023-12-09 13:48:31.036138$GBGSV,2,2,05,35,16,051,38,,,,,,,,,,,,*50
###2023-12-09 13:48:31.037461$GNVTG,243.17,T,,M,0.02,N,0.04,K,A*26
###2023-12-09 13:48:31.039085$GNGST,184830.10,7.000,,,,0.200,0.120,0.320*67
###2023-12-09 13:48:31.040374$GNZDA,184830.10,09,12,2023,00,00*76
###2023-12-09 13:48:31.041014$GNEBP,,,,,,M*13
###2023-12-09 13:48:31.207821$GNGGA,184830.30,4138.0389929,N,07032.4382530,W,1,19,0.7,15.097,M,-29.746,M,0.0,*5E
###2023-12-09 13:48:31.408715$GNGGA,184830.50,4138.0389945,N,07032.4382521,W,1,19,0.7,15.096,M,-29.746,M,0.0,*53
###2023-12-09 13:48:31.614675$GNGGA,184830.70,4138.0389972,N,07032.4382499,W,1,19,0.7,15.102,M,-29.746,M,0.0,*5B
###2023-12-09 13:48:31.807243$GNGGA,184830.90,4138.0390002,N,07032.4382481,W,1,19,0.7,15.106,M,-29.746,M,0.0,*5E
###2023-12-09 13:48:32.010207$GNRMC,184831.10,A,4138.0390032,N,07032.4382464,W,0.02,243.17,091223,,,A*56
###2023-12-09 13:48:32.013108$GNGGA,184831.10,4138.0390032,N,07032.4382464,W,1,19,0.7,15.110,M,-29.746,M,0.0,*58
###2023-12-09 13:48:32.015085$GPGSA,A,3,04,16,26,28,29,31,,,,,,,1.2,0.7,1.0*33
###2023-12-09 13:48:32.016741$GLGSA,A,3,65,72,73,74,75,,,,,,,,1.2,0.7,1.0*28
###2023-12-09 13:48:32.018270$GAGSA,A,3,04,21,27,,,,,,,,,,1.2,0.7,1.0*24
###2023-12-09 13:48:32.019929$GBGSA,A,3,12,24,25,33,35,,,,,,,,1.2,0.7,1.0*21
###2023-12-09 13:48:32.022261$GPGSV,2,1,06,04,51,304,48,16,73,229,40,26,77,041,43,28,33,090,42*7A
###2023-12-09 13:48:32.024019$GPGSV,2,2,06,29,17,042,43,31,55,075,49,,,,,,,,*7E
###2023-12-09 13:48:32.026354$GLGSV,2,1,05,65,43,312,44,72,56,213,37,73,17,056,43,74,55,024,35*60
