###2023-12-09 12:44:01.743713$GNGGA,174400.90,4138.0459569,N,07032.3916062,W,1,24,0.6,13.330,M,-29.745,M,0.0,*50
###2023-12-09 12:44:01.944937$GNRMC,174401.10,A,4138.0458094,N,07032.3914964,W,3.09,153.38,091223,,,A*51
###2023-12-09 12:44:01.948432$GNGGA,174401.10,4138.0458094,N,07032.3914964,W,1,24,0.6,13.333,M,-29.745,M,0.0,*51
###2023-12-09 12:44:01.950722$GPGSA,A,3,03,04,16,26,28,29,31,32,,,,,1.1,0.6,0.9*3B
###2023-12-09 12:44:01.952801$GLGSA,A,3,65,71,72,73,74,75,,,,,,,1.1,0.6,0.9*24
###2023-12-09 12:44:01.954736$GAGSA,A,3,04,19,21,27,,,,,,,,,1.1,0.6,0.9*26
###2023-12-09 12:44:01.956731$GBGSA,A,3,14,24,25,26,33,,,,,,,,1.1,0.6,0.9*2F
###2023-12-09 12:44:01.959556$GPGSV,2,1,08,03,38,271,44,04,25,311,40,16,41,209,44,26,71,208,47*78
###2023-12-09 12:44:01.962388$GPGSV,2,2,08,28,55,061,47,29,26,069,45,31,72,015,47,32,26,136,42*79
###2023-12-09 12:44:01.965224$GLGSV,2,1,06,65,16,329,43,71,51,170,47,72,69,300,46,73,44,036,47*65
###2023-12-09 12:44:01.967366$GLGSV,2,2,06,74,71,307,43,75,25,245,44,,,,,,,,*63
###2023-12-09 12:44:01.970235$GAGSV,1,1,04,04,23,312,40,19,84,288,40,21,81,170,45,27,39,049,44*60
###2023-12-09 12:44:01.973121$GBGSV,2,1,05,14,51,196,44,24,79,002,48,25,35,255,45,26,32,059,45*6E
###2023-12-09 12:44:01.974897$GBGSV,2,2,05,33,62,246,48,,,,,,,,,,,,*56
###2023-12-09 12:44:01.976507$GNVTG,153.38,T,,M,3.09,N,5.72,K,A*25
###2023-12-09 12:44:01.978504$GNGST,174401.10,18.000,,,,0.079,0.069,0.160*5E
###2023-12-09 12:44:01.980072$GNZDA,174401.10,09,12,2023,00,00*77
###2023-12-09 12:44:01.980847$GNEBP,,,,,,M*13
###2023-12-09 12:44:02.144743$GNGGA,174401.30,4138.0456473,N,07032.3914016,W,1,24,0.6,13.341,M,-29.745,M,0.0,*59
###2023-12-09 12:44:02.344172$GNGGA,174401.50,4138.0454939,N,07032.3912913,W,1,24,0.6,13.334,M,-29.745,M,0.0,*56
###2023-12-09 12:44:02.544605$GNGGA,174401.70,4138.0453534,N,07032.3911614,W,1,24,0.6,13.327,M,-29.745,M,0.0,*5B
###2023-12-09 12:44:02.743110$GNGGA,174401.90,4138.0452081,N,07032.3910364,W,1,24,0.6,13.330,M,-29.745,M,0.0,*5A
###2023-12-09 12:44:02.945445$GNRMC,174402.10,A,4138.0450530,N,07032.3909164,W,3.23,148.18,091223,,,A*55
###2023-12-09 12:44:02.948334$GNGGA,174402.10,4138.0450530,N,07032.3909164,W,1,24,0.6,13.336,M,-29.745,M,0.0,*50
###2023-12-09 12:44:02.950204$GPGSA,A,3,03,04,16,26,28,29,31,32,,,,,1.1,0.6,0.9*3B
###2023-12-09 12:44:02.951935$GLGSA,A,3,65,71,72,73,74,75,,,,,,,1.1,0.6,0.9*24
###2023-12-09 12:44:02.953514$GAGSA,A,3,04,19,21,27,,,,,,,,,1.1,0.6,0.9*26
###2023-12-09 12:44:02.955182$GBGSA,A,3,14,24,25,26,33,,,,,,,,1.1,0.6,0.9*2F
###2023-12-09 12:44:02.957504$GPGSV,2,1,08,03,38,271,44,04,25,311,40,16,41,209,44,26,71,208,48*77
###2023-12-09 12:44:02.959842$GPGSV,2,2,08,28,55,061,45,29,26,069,44,31,72,015,48,32,26,136,42*75
###2023-12-09 12:44:02.962170$GLGSV,2,1,06,65,16,329,42,71,51,170,46,72,69,300,46,73,44,036,47*65
###2023-12-09 12:44:02.963932$GLGSV,2,2,06,74,71,307,43,75,25,245,43,,,,,,,,*64
###2023-12-09 12:44:02.966257$GAGSV,1,1,04,04,23,312,40,19,84,288,40,21,81,170,45,27,39,049,45*61
###2023-12-09 12:44:02.968624$GBGSV,2,1,05,14,51,196,44,24,79,002,48,25,35,255,45,26,32,059,44*6F
###2023-12-09 12:44:02.970076$GBGSV,2,2,05,33,62,246,48,,,,,,,,,,,,*56
###2023-12-09 12:44:02.971408$GNVTG,148.18,T,,M,3.23,N,5.98,K,A*21
###2023-12-09 12:44:02.973049$GNGST,174402.10,18.000,,,,0.079,0.069,0.160*5D
###2023-12-09 12:44:02.974338$GNZDA,174402.10,09,12,2023,00,00*74
###2023-12-09 12:44:02.974986$GNEBP,,,,,,M*13
###2023-12-09 12:44:03.146749$GNGGA,174402.30,4138.0449046,N,07032.3907864,W,1,24,0.6,13.327,M,-29.745,M,0.0,*59
###2023-12-09 12:44:03.344715$GNGGA,174402.50,4138.0447699,N,07032.3906428,W,1,24,0.6,13.333,M,-29.745,M,0.0,*55
###2023-12-09 12:44:03.544606$GNGGA,174402.70,4138.0446301,N,07032.3904925,W,1,24,0.6,13.348,M,-29.745,M,0.0,*5C
###2023-12-09 12:44:03.744057$GNGGA,174402.90,4138.0444925,N,07032.3903349,W,1,24,0.6,13.344,M,-29.745,M,0.0,*57
###2023-12-09 12:44:03.944928$GNRMC,174403.10,A,4138.0443618,N,07032.3901707,W,3.17,135.33,091223,,,A*50
###2023-12-09 12:44:03.947824$GNGGA,174403.10,4138.0443618,N,07032.3901707,W,1,24,0.6,13.346,M,-29.745,M,0.0,*56
###2023-12-09 12:44:03.949697$GPGSA,A,3,03,04,16,26,28,29,31,32,,,,,1.1,0.6,0.9*3B
###2023-12-09 12:44:03.951431$GLGSA,A,3,65,71,72,73,74,75,,,,,,,1.1,0.6,0.9*24
###2023-12-09 12:44:03.953021$GAGSA,A,3,04,19,21,27,,,,,,,,,1.1,0.6,0.9*26
###2023-12-09 12:44:03.954759$GBGSA,A,3,14,24,25,26,33,,,,,,,,1.1,0.6,0.9*2F
###2023-12-09 12:44:03.957104$GPGSV,2,1,08,03,38,271,44,04,25,311,42,16,41,209,45,26,71,208,47*7B
###2023-12-09 12:44:03.959457$GPGSV,2,2,08,28,55,061,44,29,26,069,43,31,72,015,47,32,26,136,42*7C
###2023-12-09 12:44:03.961798$GLGSV,2,1,06,65,16,329,43,71,51,170,46,72,69,300,46,73,44,036,47*64
###2023-12-09 12:44:03.963567$GLGSV,2,2,06,74,71,307,43,75,25,245,43,,,,,,,,*64
###2023-12-09 12:44:03.965894$GAGSV,1,1,04,04,23,312,40,19,84,288,40,21,81,170,45,27,39,049,44*60
###2023-12-09 12:44:03.968235$GBGSV,2,1,05,14,51,196,45,24,79,002,48,25,35,255,46,26,32,059,44*6D
###2023-12-09 12:44:03.969697$GBGSV,2,2,05,33,62,246,48,,,,,,,,,,,,*56
###2023-12-09 12:44:03.971032$GNVTG,135.33,T,,M,3.17,N,5.87,K,A*2B
###2023-12-09 12:44:03.972684$GNGST,174403.10,18.000,,,,0.079,0.068,0.160*5D
###2023-12-09 12:44:03.973977$GNZDA,174403.10,09,12,2023,00,00*75
###2023-12-09 12:44:03.974627$GNEBP,,,,,,M*13
###2023-12-09 12:44:04.144672$GNGGA,174403.30,4138.0442251,N,07032.3899982,W,1,24,0.6,13.359,M,-29.745,M,0.0,*51
###2023-12-09 12:44:04.345487$GNGGA,174403.50,4138.0440941,N,07032.3898118,W,1,24,0.6,13.354,M,-29.745,M,0.0,*58
###2023-12-09 12:44:04.546864$GNGGA,174403.70,4138.0439754,N,07032.3896136,W,1,24,0.6,13.351,M,-29.745,M,0.0,*59
###2023-12-09 12:44:04.744008$GNGGA,174403.90,4138.0438534,N,07032.3894117,W,1,24,0.6,13.359,M,-29.745,M,0.0,*5B
###2023-12-09 12:44:04.945290$GNRMC,174404.10,A,4138.0437185,N,07032.3892157,W,3.54,133.43,091223,,,A*59
###2023-12-09 12:44:04.948185$GNGGA,174404.10,4138.0437185,N,07032.3892157,W,1,24,0.6,13.363,M,-29.745,M,0.0,*5E
###2023-12-09 12:44:04.950056$GPGSA,A,3,03,04,16,26,28,29,31,32,,,,,1.1,0.6,0.9*3B
###2023-12-09 12:44:04.951791$GLGSA,A,3,65,71,72,73,74,75,,,,,,,1.1,0.6,0.9*24
###2023-12-09 12:44:04.953376$GAGSA,A,3,04,19,21,27,,,,,,,,,1.1,0.6,0.9*26
###2023-12-09 12:44:04.955040$GBGSA,A,3,14,24,25,26,33,,,,,,,,1.1,0.6,0.9*2F
###2023-12-09 12:44:04.957366$GPGSV,2,1,08,03,38,271,45,04,25,311,42,16,41,209,45,26,71,208,48*75
###2023-12-09 12:44:04.959711$GPGSV,2,2,08,28,55,061,44,29,26,069,42,31,72,015,47,32,26,136,43*7C
###2023-12-09 12:44:04.962039$GLGSV,2,1,06,65,16,329,43,71,51,170,46,72,69,300,47,73,44,036,47*65
###2023-12-09 12:44:04.963798$GLGSV,2,2,06,74,71,307,43,75,25,245,44,,,,,,,,*63
###2023-12-09 12:44:04.966121$GAGSV,1,1,04,04,23,312,41,19,84,288,40,21,81,170,46,27,39,049,44*62
###2023-12-09 12:44:04.968455$GBGSV,2,1,05,14,51,196,46,24,79,002,48,25,35,255,47,26,32,059,45*6E
###2023-12-09 12:44:04.969909$GBGSV,2,2,05,33,62,246,49,,,,,,,,,,,,*57
###2023-12-09 12:44:04.971245$GNVTG,133.43,T,,M,3.54,N,6.55,K,A*21
###2023-12-09 12:44:04.972888$GNGST,174404.10,18.000,,,,0.078,0.068,0.160*5B
###2023-12-09 12:44:04.974176$GNZDA,174404.10,09,12,2023,00,00*72
###2023-12-09 12:44:04.974826$GNEBP,,,,,,M*13
###2023-12-09 12:44:05.145978$GNGGA,174404.30,4138.0435810,N,07032.3890229,W,1,24,0.6,13.365,M,-29.745,M,0.0,*55
###2023-12-09 12:44:05.346545$GNGGA,174404.50,4138.0434482,N,07032.3888267,W,1,24,0.6,13.364,M,-29.745,M,0.0,*57
###2023-12-09 12:44:05.546833$GNGGA,174404.70,4138.0433055,N,07032.3886408,W,1,24,0.6,13.368,M,-29.745,M,0.0,*51
###2023-12-09 12:44:05.745104$GNGGA,174404.90,4138.0431580,N,07032.3884712,W,1,24,0.6,13.379,M,-29.745,M,0.0,*5A
###2023-12-09 12:44:05.946661$GNRMC,174405.10,A,4138.0429998,N,07032.3883165,W,3.44,144.23,091223,,,A*55
###2023-12-09 12:44:05.949553$GNGGA,174405.10,4138.0429998,N,07032.3883165,W,1,24,0.6,13.387,M,-29.745,M,0.0,*5F
###2023-12-09 12:44:05.951455$GPGSA,A,3,03,04,16,26,28,29,31,32,,,,,1.1,0.6,0.9*3B
###2023-12-09 12:44:05.953176$GLGSA,A,3,65,71,72,73,74,75,,,,,,,1.1,0.6,0.9*24
###2023-12-09 12:44:05.954777$GAGSA,A,3,04,19,21,27,,,,,,,,,1.1,0.6,0.9*26
###2023-12-09 12:44:05.956431$GBGSA,A,3,14,24,25,26,33,,,,,,,,1.1,0.6,0.9*2F
###2023-12-09 12:44:05.959029$GPGSV,2,1,08,03,38,271,45,04,25,311,42,16,41,209,45,26,71,208,48*75
###2023-12-09 12:44:05.961377$GPGSV,2,2,08,28,55,061,46,29,26,069,44,31,72,015,47,32,26,136,42*79
###2023-12-09 12:44:05.963726$GLGSV,2,1,06,65,16,329,43,71,51,170,46,72,69,300,47,73,44,036,46*64
###2023-12-09 12:44:05.965472$GLGSV,2,2,06,74,71,307,43,75,25,245,44,,,,,,,,*63
###2023-12-09 12:44:05.967811$GAGSV,1,1,04,04,23,312,41,19,84,288,40,21,81,170,46,27,39,049,44*62
###2023-12-09 12:44:05.970176$GBGSV,2,1,05,14,51,196,43,24,79,002,47,25,35,255,45,26,32,059,44*67
###2023-12-09 12:44:05.971690$GBGSV,2,2,05,33,62,246,47,,,,,,,,,,,,*59
###2023-12-09 12:44:05.973014$GNVTG,144.23,T,,M,3.44,N,6.37,K,A*22
###2023-12-09 12:44:05.974666$GNGST,174405.10,18.000,,,,0.078,0.068,0.160*5A
