###2023-12-09 13:05:12.989198$GLGSV,2,1,06,65,26,327,41,71,39,173,45,72,73,261,47,73,34,043,44*6F
###2023-12-09 13:05:12.991001$GLGSV,2,2,06,74,69,343,43,75,33,255,47,,,,,,,,*6F
###2023-12-09 13:05:12.993329$GAGSV,1,1,04,04,30,312,40,19,83,207,41,21,86,104,46,27,32,048,42*68
###2023-12-09 13:05:12.995663$GBGSV,2,1,05,14,42,192,44,24,72,028,49,25,42,263,47,26,25,063,42*65
###2023-12-09 13:05:12.997117$GBGSV,2,2,05,33,56,230,48,,,,,,,,,,,,*50
###2023-12-09 13:05:12.998404$GNVTG,82.06,T,,M,3.44,N,6.37,K,A*1E
###2023-12-09 13:05:13.000062$GNGST,180512.10,18.000,,,,0.081,0.067,0.160*5F
###2023-12-09 13:05:13.001351$GNZDA,180512.10,09,12,2023,00,00*7F
###2023-12-09 13:05:13.001987$GNEBP,,,,,,M*13
###2023-12-09 13:05:13.165192$GNGGA,180512.30,4138.0575255,N,07032.2682072,W,1,24,0.6,13.386,M,-29.742,M,0.0,*5C
###2023-12-09 13:05:13.365645$GNGGA,180512.50,4138.0574895,N,07032.2679426,W,1,24,0.6,13.386,M,-29.742,M,0.0,*5C
###2023-12-09 13:05:13.566141$GNGGA,180512.70,4138.0574638,N,07032.2676980,W,1,24,0.6,13.383,M,-29.742,M,0.0,*5C
###2023-12-09 13:05:13.765694$GNGGA,180512.90,4138.0574803,N,07032.2674491,W,1,24,0.6,13.408,M,-29.742,M,0.0,*5F
###2023-12-09 13:05:13.968246$GNRMC,180513.10,A,4138.0574971,N,07032.2671893,W,3.52,89.62,091223,,,A*66
###2023-12-09 13:05:13.971125$GNGGA,180513.10,4138.0574971,N,07032.2671893,W,1,24,0.6,13.397,M,-29.742,M,0.0,*58
###2023-12-09 13:05:13.972985$GPGSA,A,3,03,04,16,26,28,29,31,32,,,,,1.1,0.6,0.9*3B
###2023-12-09 13:05:13.974713$GLGSA,A,3,65,71,72,73,74,75,,,,,,,1.1,0.6,0.9*24
###2023-12-09 13:05:13.976297$GAGSA,A,3,04,19,21,27,,,,,,,,,1.1,0.6,0.9*26
###2023-12-09 13:05:13.977944$GBGSA,A,3,14,24,25,26,33,,,,,,,,1.1,0.6,0.9*2F
###2023-12-09 13:05:13.980286$GPGSV,2,1,08,03,34,259,44,04,34,311,42,16,51,213,45,26,81,210,48*7E
###2023-12-09 13:05:13.982625$GPGSV,2,2,08,28,48,071,44,29,25,060,41,31,68,040,47,32,18,140,40*7C
###2023-12-09 13:05:13.984959$GLGSV,2,1,06,65,26,327,42,71,39,173,45,72,73,261,47,73,34,043,43*6B
###2023-12-09 13:05:13.986715$GLGSV,2,2,06,74,69,343,43,75,33,255,46,,,,,,,,*6E
###2023-12-09 13:05:13.989039$GAGSV,1,1,04,04,30,312,41,19,83,207,40,21,86,104,46,27,32,048,42*68
###2023-12-09 13:05:13.991373$GBGSV,2,1,05,14,42,192,44,24,72,028,48,25,42,263,46,26,25,063,42*65
###2023-12-09 13:05:13.992824$GBGSV,2,2,05,33,56,230,47,,,,,,,,,,,,*5F
###2023-12-09 13:05:13.994115$GNVTG,89.62,T,,M,3.52,N,6.52,K,A*13
###2023-12-09 13:05:13.995766$GNGST,180513.10,18.000,,,,0.082,0.067,0.160*5D
###2023-12-09 13:05:13.997058$GNZDA,180513.10,09,12,2023,00,00*7E
###2023-12-09 13:05:13.997700$GNEBP,,,,,,M*13
###2023-12-09 13:05:14.165704$GNGGA,180513.30,4138.0574821,N,07032.2669364,W,1,24,0.6,13.396,M,-29.742,M,0.0,*55
###2023-12-09 13:05:14.365384$GNGGA,180513.50,4138.0574616,N,07032.2666883,W,1,24,0.6,13.423,M,-29.742,M,0.0,*5D
###2023-12-09 13:05:14.566878$GNGGA,180513.70,4138.0574698,N,07032.2664326,W,1,24,0.6,13.441,M,-29.742,M,0.0,*5B
###2023-12-09 13:05:14.765167$GNGGA,180513.90,4138.0574749,N,07032.2661761,W,1,24,0.6,13.409,M,-29.742,M,0.0,*56
###2023-12-09 13:05:14.969815$GNRMC,180514.10,A,4138.0574819,N,07032.2659284,W,3.38,86.60,091223,,,A*69
###2023-12-09 13:05:14.972704$GNGGA,180514.10,4138.0574819,N,07032.2659284,W,1,24,0.6,13.410,M,-29.742,M,0.0,*5E
###2023-12-09 13:05:14.974573$GPGSA,A,3,03,04,16,26,28,29,31,32,,,,,1.1,0.6,0.9*3B
###2023-12-09 13:05:14.976298$GLGSA,A,3,65,71,72,73,74,75,,,,,,,1.1,0.6,0.9*24
###2023-12-09 13:05:14.977879$GAGSA,A,3,04,19,21,27,,,,,,,,,1.1,0.6,0.9*26
###2023-12-09 13:05:14.979535$GBGSA,A,3,14,24,25,26,33,,,,,,,,1.1,0.6,0.9*2F
###2023-12-09 13:05:14.981867$GPGSV,2,1,08,03,34,259,44,04,34,311,42,16,51,213,46,26,81,210,48*7D
###2023-12-09 13:05:14.984211$GPGSV,2,2,08,28,48,071,43,29,25,060,41,31,68,040,47,32,18,140,41*7A
###2023-12-09 13:05:14.986543$GLGSV,2,1,06,65,26,327,42,71,39,173,45,72,73,261,47,73,34,043,44*6C
###2023-12-09 13:05:14.988300$GLGSV,2,2,06,74,69,343,43,75,33,255,46,,,,,,,,*6E
###2023-12-09 13:05:14.990628$GAGSV,1,1,04,04,30,312,40,19,83,207,40,21,86,104,46,27,32,048,42*69
###2023-12-09 13:05:14.992963$GBGSV,2,1,05,14,42,192,44,24,72,028,48,25,42,263,46,26,25,063,42*65
###2023-12-09 13:05:14.994418$GBGSV,2,2,05,33,56,230,47,,,,,,,,,,,,*5F
###2023-12-09 13:05:14.995713$GNVTG,86.60,T,,M,3.38,N,6.26,K,A*11
###2023-12-09 13:05:14.997354$GNGST,180514.10,18.000,,,,0.082,0.067,0.160*5A
###2023-12-09 13:05:14.998650$GNZDA,180514.10,09,12,2023,00,00*79
###2023-12-09 13:05:14.999292$GNEBP,,,,,,M*13
###2023-12-09 13:05:15.168098$GNGGA,180514.30,4138.0574979,N,07032.2656773,W,1,24,0.6,13.455,M,-29.742,M,0.0,*58
###2023-12-09 13:05:15.365442$GNGGA,180514.50,4138.0575093,N,07032.2654193,W,1,24,0.6,13.478,M,-29.742,M,0.0,*57
###2023-12-09 13:05:15.565647$GNGGA,180514.70,4138.0575040,N,07032.2651583,W,1,24,0.6,13.448,M,-29.742,M,0.0,*58
###2023-12-09 13:05:15.765845$GNGGA,180514.90,4138.0575004,N,07032.2649052,W,1,24,0.6,13.426,M,-29.742,M,0.0,*5E
###2023-12-09 13:05:15.969320$GNRMC,180515.10,A,4138.0575340,N,07032.2646557,W,3.44,76.80,091223,,,A*63
###2023-12-09 13:05:15.972207$GNGGA,180515.10,4138.0575340,N,07032.2646557,W,1,24,0.6,13.459,M,-29.742,M,0.0,*53
###2023-12-09 13:05:15.974060$GPGSA,A,3,03,04,16,26,28,29,31,32,,,,,1.1,0.6,0.9*3B
###2023-12-09 13:05:15.975780$GLGSA,A,3,65,71,72,73,74,75,,,,,,,1.1,0.6,0.9*24
###2023-12-09 13:05:15.977363$GAGSA,A,3,04,19,21,27,,,,,,,,,1.1,0.6,0.9*26
###2023-12-09 13:05:15.979020$GBGSA,A,3,14,24,25,26,33,,,,,,,,1.1,0.6,0.9*2F
###2023-12-09 13:05:15.981346$GPGSV,2,1,08,03,34,259,44,04,34,311,42,16,51,213,46,26,81,210,48*7D
###2023-12-09 13:05:15.983693$GPGSV,2,2,08,28,48,071,43,29,25,060,39,31,68,040,47,32,18,140,39*7A
###2023-12-09 13:05:15.986024$GLGSV,2,1,06,65,26,327,42,71,39,173,45,72,73,261,46,73,34,043,44*6D
###2023-12-09 13:05:15.987783$GLGSV,2,2,06,74,69,343,43,75,33,255,46,,,,,,,,*6E
###2023-12-09 13:05:15.990109$GAGSV,1,1,04,04,30,312,40,19,83,207,41,21,86,104,46,27,32,048,43*69
###2023-12-09 13:05:15.992454$GBGSV,2,1,05,14,42,192,44,24,72,028,48,25,42,263,46,26,25,063,42*65
###2023-12-09 13:05:15.993912$GBGSV,2,2,05,33,56,230,48,,,,,,,,,,,,*50
###2023-12-09 13:05:15.995210$GNVTG,76.80,T,,M,3.44,N,6.37,K,A*1B
###2023-12-09 13:05:15.996851$GNGST,180515.10,18.000,,,,0.082,0.068,0.160*54
###2023-12-09 13:05:15.998139$GNZDA,180515.10,09,12,2023,00,00*78
###2023-12-09 13:05:15.998786$GNEBP,,,,,,M*13
###2023-12-09 13:05:16.164851$GNGGA,180515.30,4138.0575453,N,07032.2643992,W,1,24,0.6,13.485,M,-29.742,M,0.0,*55
###2023-12-09 13:05:16.365554$GNGGA,180515.50,4138.0575072,N,07032.2641377,W,1,24,0.6,13.485,M,-29.742,M,0.0,*57
###2023-12-09 13:05:16.565027$GNGGA,180515.70,4138.0574685,N,07032.2638846,W,1,24,0.6,13.452,M,-29.742,M,0.0,*57
###2023-12-09 13:05:16.765832$GNGGA,180515.90,4138.0574905,N,07032.2636323,W,1,24,0.6,13.482,M,-29.742,M,0.0,*55
###2023-12-09 13:05:16.973277$GNRMC,180516.10,A,4138.0575137,N,07032.2633684,W,3.63,95.55,091223,,,A*6D
###2023-12-09 13:05:16.976145$GNGGA,180516.10,4138.0575137,N,07032.2633684,W,1,24,0.6,13.483,M,-29.742,M,0.0,*5A
###2023-12-09 13:05:16.977999$GPGSA,A,3,03,04,16,26,28,29,31,32,,,,,1.1,0.6,0.9*3B
###2023-12-09 13:05:16.979723$GLGSA,A,3,65,71,72,73,74,75,,,,,,,1.1,0.6,0.9*24
###2023-12-09 13:05:16.981305$GAGSA,A,3,04,19,21,27,,,,,,,,,1.1,0.6,0.9*26
###2023-12-09 13:05:16.982959$GBGSA,A,3,14,24,25,26,33,,,,,,,,1.1,0.6,0.9*2F
###2023-12-09 13:05:16.985287$GPGSV,2,1,08,03,34,259,43,04,34,311,44,16,52,213,44,26,81,210,47*72
###2023-12-09 13:05:16.987625$GPGSV,2,2,08,28,48,071,44,29,25,060,42,31,68,040,47,32,18,140,37*7F
###2023-12-09 13:05:16.989957$GLGSV,2,1,06,65,26,327,42,71,39,173,44,72,73,261,46,73,34,043,44*6C
###2023-12-09 13:05:16.991720$GLGSV,2,2,06,74,69,343,44,75,33,255,46,,,,,,,,*69
###2023-12-09 13:05:16.994051$GAGSV,1,1,04,04,30,312,42,19,83,207,40,21,86,104,45,27,32,048,43*69
###2023-12-09 13:05:16.996395$GBGSV,2,1,05,14,42,192,42,24,72,028,49,25,42,263,45,26,25,063,44*67
###2023-12-09 13:05:16.997849$GBGSV,2,2,05,33,56,230,48,,,,,,,,,,,,*50
###2023-12-09 13:05:16.999142$GNVTG,95.55,T,,M,3.63,N,6.73,K,A*1B
###2023-12-09 13:05:17.000789$GNGST,180516.10,18.000,,,,0.083,0.068,0.160*56
###2023-12-09 13:05:17.002402$GNZDA,180516.10,09,12,2023,00,00*7B
###2023-12-09 13:05:17.003077$GNEBP,,,,,,M*13
###2023-12-09 13:05:17.167131$GNGGA,180516.30,4138.0574571,N,07032.2631039,W,1,24,0.6,13.482,M,-29.742,M,0.0,*5C
###2023-12-09 13:05:17.367887$GNGGA,180516.50,4138.0573959,N,07032.2628506,W,1,24,0.6,13.474,M,-29.742,M,0.0,*53
###2023-12-09 13:05:17.567807$GNGGA,180516.70,4138.0574130,N,07032.2625932,W,1,24,0.6,13.502,M,-29.742,M,0.0,*57
###2023-12-09 13:05:17.767968$GNGGA,180516.90,4138.0574333,N,07032.2623333,W,1,24,0.6,13.487,M,-29.742,M,0.0,*59
###2023-12-09 13:05:17.969162$GNRMC,180517.10,A,4138.0574052,N,07032.2620760,W,3.54,101.77,091223,,,A*5E
###2023-12-09 13:05:17.972064$GNGGA,180517.10,4138.0574052,N,07032.2620760,W,1,24,0.6,13.488,M,-29.742,M,0.0,*5A
###2023-12-09 13:05:17.973931$GPGSA,A,3,03,04,16,26,28,29,31,32,,,,,1.1,0.6,0.9*3B
