###2023-12-09 13:45:59.024829$GAGSV,1,1,03,04,43,308,44,21,73,044,39,27,19,051,42,,,,*51
###2023-12-09 13:45:59.027204$GBGSV,2,1,05,12,19,123,42,24,59,051,46,25,54,281,39,33,41,214,38*62
###2023-12-09 13:45:59.028668$GBGSV,2,2,05,35,16,052,37,,,,,,,,,,,,*5C
###2023-12-09 13:45:59.029988$GNVTG,243.17,T,,M,0.02,N,0.04,K,A*26
###2023-12-09 13:45:59.031612$GNGST,184558.10,6.700,,,,0.200,0.120,0.320*62
###2023-12-09 13:45:59.032898$GNZDA,184558.10,09,12,2023,00,00*75
###2023-12-09 13:45:59.033533$GNEBP,,,,,,M*13
###2023-12-09 13:45:59.204508$GNGGA,184558.30,4138.0393639,N,07032.4388934,W,1,20,0.7,14.783,M,-29.746,M,0.0,*53
###2023-12-09 13:45:59.401666$GNGGA,184558.50,4138.0393639,N,07032.4388931,W,1,20,0.7,14.789,M,-29.746,M,0.0,*5A
###2023-12-09 13:45:59.602058$GNGGA,184558.70,4138.0393664,N,07032.4388927,W,1,20,0.7,14.799,M,-29.746,M,0.0,*56
###2023-12-09 13:45:59.801264$GNGGA,184558.90,4138.0393675,N,07032.4388920,W,1,20,0.7,14.809,M,-29.746,M,0.0,*59
###2023-12-09 13:46:00.004531$GNRMC,184559.10,A,4138.0393665,N,07032.4388912,W,0.00,243.17,091223,,,A*56
###2023-12-09 13:46:00.007424$GNGGA,184559.10,4138.0393665,N,07032.4388912,W,1,20,0.7,14.818,M,-29.746,M,0.0,*50
###2023-12-09 13:46:00.009153$GPGSA,A,3,04,16,26,28,29,31,,,,,,,1.3,0.7,1.1*33
###2023-12-09 13:46:00.010874$GLGSA,A,3,65,72,73,74,75,83,,,,,,,1.3,0.7,1.1*23
###2023-12-09 13:46:00.012390$GAGSA,A,3,04,21,27,,,,,,,,,,1.3,0.7,1.1*24
###2023-12-09 13:46:00.014032$GBGSA,A,3,12,24,25,33,35,,,,,,,,1.3,0.7,1.1*21
###2023-12-09 13:46:00.016365$GPGSV,2,1,06,04,51,304,47,16,72,228,43,26,78,041,40,28,34,089,46*71
###2023-12-09 13:46:00.018111$GPGSV,2,2,06,29,18,043,42,31,56,073,49,,,,,,,,*74
###2023-12-09 13:46:00.020459$GLGSV,2,1,06,65,42,313,45,72,57,214,38,73,18,056,41,74,56,022,38*6E
###2023-12-09 13:46:00.022203$GLGSV,2,2,06,75,47,279,46,83,16,042,37,,,,,,,,*62
###2023-12-09 13:46:00.024247$GAGSV,1,1,03,04,43,308,44,21,72,043,39,27,19,051,42,,,,*57
###2023-12-09 13:46:00.026583$GBGSV,2,1,05,12,19,123,42,24,59,051,47,25,54,281,39,33,41,214,38*63
###2023-12-09 13:46:00.028035$GBGSV,2,2,05,35,16,052,37,,,,,,,,,,,,*5C
###2023-12-09 13:46:00.029354$GNVTG,243.17,T,,M,0.00,N,0.00,K,A*20
###2023-12-09 13:46:00.030976$GNGST,184559.10,6.600,,,,0.200,0.120,0.320*62
###2023-12-09 13:46:00.032259$GNZDA,184559.10,09,12,2023,00,00*74
###2023-12-09 13:46:00.032898$GNEBP,,,,,,M*13
###2023-12-09 13:46:00.202895$GNGGA,184559.30,4138.0393669,N,07032.4388910,W,1,20,0.7,14.824,M,-29.746,M,0.0,*53
###2023-12-09 13:46:00.402560$GNGGA,184559.50,4138.0393689,N,07032.4388902,W,1,20,0.7,14.833,M,-29.746,M,0.0,*5E
###2023-12-09 13:46:00.601645$GNGGA,184559.70,4138.0393705,N,07032.4388903,W,1,20,0.7,14.840,M,-29.746,M,0.0,*5C
###2023-12-09 13:46:00.803103$GNGGA,184559.90,4138.0393711,N,07032.4388899,W,1,20,0.7,14.852,M,-29.746,M,0.0,*56
###2023-12-09 13:46:01.004435$GNRMC,184600.10,A,4138.0393725,N,07032.4388901,W,0.04,243.17,091223,,,A*5A
###2023-12-09 13:46:01.007295$GNGGA,184600.10,4138.0393725,N,07032.4388901,W,1,20,0.7,14.854,M,-29.746,M,0.0,*50
###2023-12-09 13:46:01.009027$GPGSA,A,3,04,16,26,28,29,31,,,,,,,1.3,0.7,1.1*33
###2023-12-09 13:46:01.010747$GLGSA,A,3,65,72,73,74,75,83,,,,,,,1.3,0.7,1.1*23
###2023-12-09 13:46:01.012265$GAGSA,A,3,04,21,27,,,,,,,,,,1.3,0.7,1.1*24
###2023-12-09 13:46:01.013904$GBGSA,A,3,12,24,25,33,35,,,,,,,,1.3,0.7,1.1*21
###2023-12-09 13:46:01.016252$GPGSV,2,1,06,04,51,304,47,16,72,228,43,26,78,041,40,28,34,089,46*71
###2023-12-09 13:46:01.018000$GPGSV,2,2,06,29,18,043,42,31,56,073,49,,,,,,,,*74
###2023-12-09 13:46:01.020340$GLGSV,2,1,06,65,42,313,45,72,57,214,38,73,18,056,41,74,56,022,38*6E
###2023-12-09 13:46:01.022092$GLGSV,2,2,06,75,47,279,46,83,16,042,37,,,,,,,,*62
###2023-12-09 13:46:01.024164$GAGSV,1,1,03,04,43,308,44,21,72,043,39,27,19,051,42,,,,*57
###2023-12-09 13:46:01.026494$GBGSV,2,1,05,12,19,123,42,24,59,051,46,25,54,281,39,33,41,214,39*63
###2023-12-09 13:46:01.027962$GBGSV,2,2,05,35,16,052,37,,,,,,,,,,,,*5C
###2023-12-09 13:46:01.029284$GNVTG,243.17,T,,M,0.04,N,0.07,K,A*23
###2023-12-09 13:46:01.030907$GNGST,184600.10,6.600,,,,0.190,0.120,0.320*67
###2023-12-09 13:46:01.032203$GNZDA,184600.10,09,12,2023,00,00*7B
###2023-12-09 13:46:01.032840$GNEBP,,,,,,M*13
###2023-12-09 13:46:01.203028$GNGGA,184600.30,4138.0393746,N,07032.4388891,W,1,20,0.7,14.868,M,-29.746,M,0.0,*50
###2023-12-09 13:46:01.402763$GNGGA,184600.50,4138.0393750,N,07032.4388892,W,1,20,0.7,14.877,M,-29.746,M,0.0,*5C
###2023-12-09 13:46:01.601948$GNGGA,184600.70,4138.0393759,N,07032.4388888,W,1,20,0.7,14.883,M,-29.746,M,0.0,*57
###2023-12-09 13:46:01.805429$GNGGA,184600.90,4138.0393783,N,07032.4388884,W,1,20,0.7,14.891,M,-29.746,M,0.0,*51
###2023-12-09 13:46:02.007315$GNRMC,184601.10,A,4138.0393784,N,07032.4388883,W,0.02,243.17,091223,,,A*5D
###2023-12-09 13:46:02.010171$GNGGA,184601.10,4138.0393784,N,07032.4388883,W,1,20,0.7,14.898,M,-29.746,M,0.0,*51
###2023-12-09 13:46:02.011904$GPGSA,A,3,04,16,26,28,29,31,,,,,,,1.3,0.7,1.1*33
###2023-12-09 13:46:02.013622$GLGSA,A,3,65,72,73,74,75,83,,,,,,,1.3,0.7,1.1*23
###2023-12-09 13:46:02.015155$GAGSA,A,3,04,21,27,,,,,,,,,,1.3,0.7,1.1*24
###2023-12-09 13:46:02.016804$GBGSA,A,3,12,24,25,33,35,,,,,,,,1.3,0.7,1.1*21
###2023-12-09 13:46:02.019145$GPGSV,2,1,06,04,51,304,47,16,72,228,43,26,78,041,40,28,34,089,47*70
###2023-12-09 13:46:02.020902$GPGSV,2,2,06,29,18,043,42,31,56,073,49,,,,,,,,*74
###2023-12-09 13:46:02.023244$GLGSV,2,1,06,65,42,313,45,72,57,214,38,73,18,056,42,74,56,022,38*6D
###2023-12-09 13:46:02.024994$GLGSV,2,2,06,75,47,279,46,83,16,042,37,,,,,,,,*62
###2023-12-09 13:46:02.027040$GAGSV,1,1,03,04,43,308,44,21,72,043,39,27,19,051,42,,,,*57
###2023-12-09 13:46:02.029372$GBGSV,2,1,05,12,19,123,42,24,59,051,47,25,54,281,39,33,41,214,39*62
###2023-12-09 13:46:02.030840$GBGSV,2,2,05,35,16,052,37,,,,,,,,,,,,*5C
###2023-12-09 13:46:02.032163$GNVTG,243.17,T,,M,0.02,N,0.04,K,A*26
###2023-12-09 13:46:02.033776$GNGST,184601.10,6.700,,,,0.190,0.120,0.320*67
###2023-12-09 13:46:02.035077$GNZDA,184601.10,09,12,2023,00,00*7A
###2023-12-09 13:46:02.035716$GNEBP,,,,,,M*13
###2023-12-09 13:46:02.203117$GNGGA,184601.30,4138.0393806,N,07032.4388877,W,1,20,0.7,14.904,M,-29.746,M,0.0,*59
###2023-12-09 13:46:02.402605$GNGGA,184601.50,4138.0393822,N,07032.4388864,W,1,20,0.7,14.916,M,-29.746,M,0.0,*58
###2023-12-09 13:46:02.605025$GNGGA,184601.70,4138.0393849,N,07032.4388859,W,1,20,0.7,14.922,M,-29.746,M,0.0,*5E
###2023-12-09 13:46:02.801001$GNGGA,184601.90,4138.0393874,N,07032.4388862,W,1,20,0.7,14.927,M,-29.746,M,0.0,*53
###2023-12-09 13:46:03.004309$GNRMC,184602.10,A,4138.0393884,N,07032.4388858,W,0.02,243.17,091223,,,A*57
###2023-12-09 13:46:03.007186$GNGGA,184602.10,4138.0393884,N,07032.4388858,W,1,20,0.7,14.931,M,-29.746,M,0.0,*59
###2023-12-09 13:46:03.008907$GPGSA,A,3,04,16,26,28,29,31,,,,,,,1.3,0.7,1.1*33
###2023-12-09 13:46:03.010632$GLGSA,A,3,65,72,73,74,75,83,,,,,,,1.3,0.7,1.1*23
###2023-12-09 13:46:03.012148$GAGSA,A,3,04,21,27,,,,,,,,,,1.3,0.7,1.1*24
###2023-12-09 13:46:03.013791$GBGSA,A,3,12,24,25,33,35,,,,,,,,1.3,0.7,1.1*21
###2023-12-09 13:46:03.016130$GPGSV,2,1,06,04,51,304,47,16,72,228,43,26,78,041,40,28,34,089,46*71
###2023-12-09 13:46:03.017885$GPGSV,2,2,06,29,18,043,43,31,56,073,49,,,,,,,,*75
###2023-12-09 13:46:03.020220$GLGSV,2,1,06,65,42,313,45,72,57,214,38,73,18,056,41,74,56,022,38*6E
###2023-12-09 13:46:03.021973$GLGSV,2,2,06,75,47,279,46,83,16,042,37,,,,,,,,*62
###2023-12-09 13:46:03.024049$GAGSV,1,1,03,04,43,308,44,21,72,043,39,27,19,051,42,,,,*57
###2023-12-09 13:46:03.026380$GBGSV,2,1,05,12,19,123,42,24,59,051,47,25,54,281,39,33,41,214,39*62
###2023-12-09 13:46:03.027856$GBGSV,2,2,05,35,16,052,39,,,,,,,,,,,,*52
###2023-12-09 13:46:03.029183$GNVTG,243.17,T,,M,0.02,N,0.04,K,A*26
###2023-12-09 13:46:03.030808$GNGST,184602.10,6.500,,,,0.190,0.120,0.320*66
###2023-12-09 13:46:03.032100$GNZDA,184602.10,09,12,2023,00,00*79
###2023-12-09 13:46:03.032738$GNEBP,,,,,,M*13
###2023-12-09 13:46:03.212793$GNGGA,184602.30,4138.0393897,N,07032.4388850,W,1,20,0.7,14.943,M,-29.746,M,0.0,*54
###2023-12-09 13:46:03.402541$GNGGA,184602.50,4138.0393915,N,07032.4388846,W,1,20,0.7,14.950,M,-29.746,M,0.0,*5C
###2023-12-09 13:46:03.602464$GNGGA,184602.70,4138.0393933,N,07032.4388841,W,1,20,0.7,14.957,M,-29.746,M,0.0,*5A
###2023-12-09 13:46:03.802288$GNGGA,184602.90,4138.0393948,N,07032.4388840,W,1,20,0.7,14.966,M,-29.746,M,0.0,*5B
###2023-12-09 13:46:04.006035$GNRMC,184603.10,A,4138.0393981,N,07032.4388828,W,0.04,243.17,091223,,,A*53
###2023-12-09 13:46:04.008923$GNGGA,184603.10,4138.0393981,N,07032.4388828,W,1,20,0.7,14.977,M,-29.746,M,0.0,*59
###2023-12-09 13:46:04.010658$GPGSA,A,3,04,16,26,28,29,31,,,,,,,1.3,0.7,1.1*33
###2023-12-09 13:46:04.012372$GLGSA,A,3,65,72,73,74,75,83,,,,,,,1.3,0.7,1.1*23
###2023-12-09 13:46:04.013890$GAGSA,A,3,04,21,27,,,,,,,,,,1.3,0.7,1.1*24
