###2023-12-09 13:37:45.032791$GNEBP,,,,,,M*13
###2023-12-09 13:37:45.205646$GNGGA,183744.30,4138.0290465,N,07032.3975566,W,1,22,0.6,13.318,M,-29.745,M,0.0,*57
###2023-12-09 13:37:45.396571$GNGGA,183744.50,4138.0289683,N,07032.3975435,W,1,24,0.6,13.305,M,-29.745,M,0.0,*5E
###2023-12-09 13:37:45.595781$GNGGA,183744.70,4138.0289083,N,07032.3975048,W,1,23,0.6,13.298,M,-29.745,M,0.0,*56
###2023-12-09 13:37:45.795948$GNGGA,183744.90,4138.0288295,N,07032.3974801,W,1,24,0.6,13.302,M,-29.745,M,0.0,*5D
###2023-12-09 13:37:45.998186$GNRMC,183745.10,A,4138.0287304,N,07032.3974731,W,1.79,175.66,091223,,,A*56
###2023-12-09 13:37:46.001056$GNGGA,183745.10,4138.0287304,N,07032.3974731,W,1,23,0.6,13.307,M,-29.745,M,0.0,*5C
###2023-12-09 13:37:46.002853$GPGSA,A,3,04,16,26,27,28,29,31,,,,,,1.1,0.6,1.0*34
###2023-12-09 13:37:46.004566$GLGSA,A,3,65,71,72,73,74,75,,,,,,,1.1,0.6,1.0*2C
###2023-12-09 13:37:46.006149$GAGSA,A,3,04,19,21,27,,,,,,,,,1.1,0.6,1.0*2E
###2023-12-09 13:37:46.007868$GBGSA,A,3,12,14,24,25,33,35,,,,,,,1.1,0.6,1.0*26
###2023-12-09 13:37:46.010189$GPGSV,2,1,07,04,48,307,45,16,68,224,47,26,82,040,48,27,18,172,39*7A
###2023-12-09 13:37:46.012238$GPGSV,2,2,07,28,37,086,44,29,20,046,41,31,58,068,47,,,,*42
###2023-12-09 13:37:46.014575$GLGSV,2,1,06,65,39,317,43,71,21,175,36,72,61,219,44,73,21,053,44*61
###2023-12-09 13:37:46.016318$GLGSV,2,2,06,74,59,016,43,75,44,273,46,,,,,,,,*6A
###2023-12-09 13:37:46.018646$GAGSV,1,1,04,04,40,309,43,19,71,181,40,21,76,045,45,27,22,050,42*67
###2023-12-09 13:37:46.020968$GBGSV,2,1,06,12,16,125,40,14,28,189,35,24,62,047,48,25,52,277,47*6D
###2023-12-09 13:37:46.022720$GBGSV,2,2,06,33,44,216,47,35,16,055,45,,,,,,,,*6B
###2023-12-09 13:37:46.024041$GNVTG,175.66,T,,M,1.79,N,3.31,K,A*2E
###2023-12-09 13:37:46.025651$GNGST,183745.10,6.200,,,,0.120,0.093,0.210*64
###2023-12-09 13:37:46.026980$GNZDA,183745.10,09,12,2023,00,00*7C
###2023-12-09 13:37:46.027620$GNEBP,,,,,,M*13
###2023-12-09 13:37:46.197041$GNGGA,183745.30,4138.0286373,N,07032.3974502,W,1,23,0.6,13.306,M,-29.745,M,0.0,*5C
###2023-12-09 13:37:46.395761$GNGGA,183745.50,4138.0285569,N,07032.3974024,W,1,22,0.6,13.299,M,-29.745,M,0.0,*53
###2023-12-09 13:37:46.595607$GNGGA,183745.70,4138.0284744,N,07032.3973379,W,1,22,0.6,13.301,M,-29.745,M,0.0,*51
###2023-12-09 13:37:46.794978$GNGGA,183745.90,4138.0283821,N,07032.3972766,W,1,23,0.6,13.294,M,-29.745,M,0.0,*53
###2023-12-09 13:37:46.999445$GNRMC,183746.10,A,4138.0282804,N,07032.3972260,W,2.04,159.93,091223,,,A*51
###2023-12-09 13:37:47.002291$GNGGA,183746.10,4138.0282804,N,07032.3972260,W,1,23,0.6,13.292,M,-29.745,M,0.0,*5B
###2023-12-09 13:37:47.004088$GPGSA,A,3,04,16,26,27,28,29,31,,,,,,1.1,0.6,1.0*34
###2023-12-09 13:37:47.005797$GLGSA,A,3,65,72,73,74,75,83,,,,,,,1.1,0.6,1.0*21
###2023-12-09 13:37:47.007392$GAGSA,A,3,04,19,21,27,,,,,,,,,1.1,0.6,1.0*2E
###2023-12-09 13:37:47.009109$GBGSA,A,3,12,14,24,25,33,35,,,,,,,1.1,0.6,1.0*26
###2023-12-09 13:37:47.011460$GPGSV,2,1,07,04,48,307,44,16,68,224,46,26,82,040,48,27,18,172,37*74
###2023-12-09 13:37:47.013493$GPGSV,2,2,07,28,37,086,44,29,20,046,45,31,58,068,46,,,,*47
###2023-12-09 13:37:47.015821$GLGSV,2,1,06,65,39,317,43,72,61,219,45,73,21,053,44,74,59,016,43*6C
###2023-12-09 13:37:47.017562$GLGSV,2,2,06,75,44,273,46,83,15,046,35,,,,,,,,*6E
###2023-12-09 13:37:47.019885$GAGSV,1,1,04,04,40,309,44,19,71,181,40,21,76,045,46,27,22,050,43*62
###2023-12-09 13:37:47.022207$GBGSV,2,1,06,12,16,125,37,14,28,189,36,24,62,047,48,25,52,277,46*6F
###2023-12-09 13:37:47.023954$GBGSV,2,2,06,33,44,216,45,35,16,055,43,,,,,,,,*6F
###2023-12-09 13:37:47.025268$GNVTG,159.93,T,,M,2.04,N,3.78,K,A*2E
###2023-12-09 13:37:47.026884$GNGST,183746.10,6.600,,,,0.120,0.094,0.210*64
###2023-12-09 13:37:47.028177$GNZDA,183746.10,09,12,2023,00,00*7F
###2023-12-09 13:37:47.028814$GNEBP,,,,,,M*13
###2023-12-09 13:37:47.197147$GNGGA,183746.30,4138.0281819,N,07032.3971591,W,1,22,0.6,13.298,M,-29.745,M,0.0,*57
###2023-12-09 13:37:47.397327$GNGGA,183746.50,4138.0280955,N,07032.3970661,W,1,23,0.7,13.302,M,-29.745,M,0.0,*56
###2023-12-09 13:37:47.595940$GNGGA,183746.70,4138.0280154,N,07032.3969661,W,1,23,0.6,13.303,M,-29.745,M,0.0,*55
###2023-12-09 13:37:47.795389$GNGGA,183746.90,4138.0279235,N,07032.3968678,W,1,23,0.6,13.296,M,-29.745,M,0.0,*5D
###2023-12-09 13:37:47.999135$GNRMC,183747.10,A,4138.0278319,N,07032.3967685,W,2.18,138.06,091223,,,A*5F
###2023-12-09 13:37:48.001987$GNGGA,183747.10,4138.0278319,N,07032.3967685,W,1,24,0.6,13.300,M,-29.745,M,0.0,*5E
###2023-12-09 13:37:48.003788$GPGSA,A,3,04,16,26,27,28,29,31,,,,,,1.1,0.6,1.0*34
###2023-12-09 13:37:48.005567$GLGSA,A,3,65,71,72,73,74,75,83,,,,,,1.1,0.6,1.0*27
###2023-12-09 13:37:48.007165$GAGSA,A,3,04,19,21,27,,,,,,,,,1.1,0.6,1.0*2E
###2023-12-09 13:37:48.008875$GBGSA,A,3,12,14,24,25,33,35,,,,,,,1.1,0.6,1.0*26
###2023-12-09 13:37:48.011217$GPGSV,2,1,07,04,48,307,44,16,68,224,45,26,82,040,47,27,18,172,35*7A
###2023-12-09 13:37:48.013259$GPGSV,2,2,07,28,37,086,44,29,20,046,43,31,58,068,46,,,,*41
###2023-12-09 13:37:48.015599$GLGSV,2,1,07,65,39,317,43,71,21,175,36,72,61,219,46,73,21,053,43*65
###2023-12-09 13:37:48.017638$GLGSV,2,2,07,74,59,016,42,75,44,273,46,83,15,046,35,,,,*51
###2023-12-09 13:37:48.019975$GAGSV,1,1,04,04,41,309,43,19,71,181,40,21,76,045,46,27,22,050,42*65
###2023-12-09 13:37:48.022306$GBGSV,2,1,06,12,16,125,39,14,28,189,36,24,62,047,48,25,52,277,47*60
###2023-12-09 13:37:48.024065$GBGSV,2,2,06,33,44,216,46,35,16,055,44,,,,,,,,*6B
###2023-12-09 13:37:48.025390$GNVTG,138.06,T,,M,2.18,N,4.03,K,A*23
###2023-12-09 13:37:48.027018$GNGST,183747.10,6.700,,,,0.120,0.095,0.220*66
###2023-12-09 13:37:48.028310$GNZDA,183747.10,09,12,2023,00,00*7E
###2023-12-09 13:37:48.028947$GNEBP,,,,,,M*13
###2023-12-09 13:37:48.197670$GNGGA,183747.30,4138.0277422,N,07032.3966526,W,1,24,0.6,13.305,M,-29.745,M,0.0,*52
###2023-12-09 13:37:48.395261$GNGGA,183747.50,4138.0276678,N,07032.3965253,W,1,24,0.6,13.308,M,-29.745,M,0.0,*53
###2023-12-09 13:37:48.594974$GNGGA,183747.70,4138.0276072,N,07032.3963952,W,1,24,0.6,13.306,M,-29.745,M,0.0,*5F
###2023-12-09 13:37:48.797171$GNGGA,183747.90,4138.0275460,N,07032.3962627,W,1,24,0.6,13.304,M,-29.745,M,0.0,*5B
###2023-12-09 13:37:48.999622$GNRMC,183748.10,A,4138.0274779,N,07032.3961407,W,1.98,126.52,091223,,,A*55
###2023-12-09 13:37:49.002443$GNGGA,183748.10,4138.0274779,N,07032.3961407,W,1,24,0.6,13.306,M,-29.745,M,0.0,*57
###2023-12-09 13:37:49.004237$GPGSA,A,3,04,16,26,27,28,29,31,,,,,,1.1,0.6,1.0*34
###2023-12-09 13:37:49.006011$GLGSA,A,3,65,71,72,73,74,75,83,,,,,,1.1,0.6,1.0*27
###2023-12-09 13:37:49.007601$GAGSA,A,3,04,19,21,27,,,,,,,,,1.1,0.6,1.0*2E
###2023-12-09 13:37:49.009318$GBGSA,A,3,12,14,24,25,33,35,,,,,,,1.1,0.6,1.0*26
###2023-12-09 13:37:49.011646$GPGSV,2,1,07,04,48,307,45,16,68,224,46,26,82,040,48,27,18,172,39*7B
###2023-12-09 13:37:49.013677$GPGSV,2,2,07,28,37,086,41,29,20,046,44,31,58,068,46,,,,*43
###2023-12-09 13:37:49.016007$GLGSV,2,1,07,65,39,317,43,71,21,175,38,72,61,219,46,73,21,053,45*6D
###2023-12-09 13:37:49.018042$GLGSV,2,2,07,74,59,016,43,75,44,273,47,83,15,046,35,,,,*51
###2023-12-09 13:37:49.020372$GAGSV,1,1,04,04,41,309,42,19,71,181,41,21,76,045,46,27,22,050,42*65
###2023-12-09 13:37:49.022713$GBGSV,2,1,06,12,16,125,39,14,28,189,37,24,62,047,47,25,52,277,47*6E
###2023-12-09 13:37:49.024449$GBGSV,2,2,06,33,44,216,48,35,16,055,45,,,,,,,,*64
###2023-12-09 13:37:49.025767$GNVTG,126.52,T,,M,1.98,N,3.67,K,A*23
###2023-12-09 13:37:49.027380$GNGST,183748.10,6.500,,,,0.120,0.095,0.220*6B
###2023-12-09 13:37:49.028663$GNZDA,183748.10,09,12,2023,00,00*71
###2023-12-09 13:37:49.029297$GNEBP,,,,,,M*13
###2023-12-09 13:37:49.194747$GNGGA,183748.30,4138.0274168,N,07032.3960257,W,1,24,0.6,13.312,M,-29.745,M,0.0,*54
###2023-12-09 13:37:49.396495$GNGGA,183748.50,4138.0273734,N,07032.3959015,W,1,24,0.6,13.318,M,-29.745,M,0.0,*5E
###2023-12-09 13:37:49.593925$GNGGA,183748.70,4138.0273391,N,07032.3957869,W,1,24,0.6,13.319,M,-29.745,M,0.0,*5B
###2023-12-09 13:37:49.794489$GNGGA,183748.90,4138.0272985,N,07032.3956760,W,1,24,0.6,13.320,M,-29.745,M,0.0,*56
###2023-12-09 13:37:49.999690$GNRMC,183749.10,A,4138.0272553,N,07032.3955595,W,1.63,117.24,091223,,,A*52
###2023-12-09 13:37:50.003026$GNGGA,183749.10,4138.0272553,N,07032.3955595,W,1,24,0.6,13.321,M,-29.745,M,0.0,*52
###2023-12-09 13:37:50.004900$GPGSA,A,3,04,16,26,27,28,29,31,,,,,,1.1,0.6,1.0*34
###2023-12-09 13:37:50.006692$GLGSA,A,3,65,71,72,73,74,75,83,,,,,,1.1,0.6,1.0*27
###2023-12-09 13:37:50.008270$GAGSA,A,3,04,19,21,27,,,,,,,,,1.1,0.6,1.0*2E
###2023-12-09 13:37:50.009976$GBGSA,A,3,12,14,24,25,33,35,,,,,,,1.1,0.6,1.0*26
###2023-12-09 13:37:50.012299$GPGSV,2,1,07,04,48,307,46,16,68,224,47,26,82,040,48,27,18,172,39*79
###2023-12-09 13:37:50.014341$GPGSV,2,2,07,28,37,086,42,29,20,046,44,31,58,068,46,,,,*40
###2023-12-09 13:37:50.016665$GLGSV,2,1,07,65,39,317,43,71,21,175,41,72,61,219,46,73,21,053,42*64
###2023-12-09 13:37:50.018704$GLGSV,2,2,07,74,59,016,43,75,44,273,47,83,15,046,35,,,,*51
###2023-12-09 13:37:50.021021$GAGSV,1,1,04,04,41,309,43,19,71,181,40,21,76,045,46,27,22,050,42*65
