###2023-12-09 13:18:47.015899$GNGST,181846.10,18.000,,,,0.097,0.071,0.170*53
###2023-12-09 13:18:47.017208$GNZDA,181846.10,09,12,2023,00,00*72
###2023-12-09 13:18:47.017853$GNEBP,,,,,,M*13
###2023-12-09 13:18:47.183496$GNGGA,181846.30,4138.0447788,N,07032.3083577,W,1,24,0.7,13.330,M,-29.744,M,0.0,*58
###2023-12-09 13:18:47.380476$GNGGA,181846.50,4138.0449736,N,07032.3082369,W,1,24,0.7,13.334,M,-29.744,M,0.0,*59
###2023-12-09 13:18:47.582307$GNGGA,181846.70,4138.0451614,N,07032.3081092,W,1,24,0.7,13.331,M,-29.744,M,0.0,*52
###2023-12-09 13:18:47.782438$GNGGA,181846.90,4138.0453486,N,07032.3079813,W,1,24,0.7,13.335,M,-29.744,M,0.0,*55
###2023-12-09 13:18:47.985096$GNRMC,181847.10,A,4138.0455416,N,07032.3078657,W,3.81,24.20,091223,,,A*62
###2023-12-09 13:18:47.987996$GNGGA,181847.10,4138.0455416,N,07032.3078657,W,1,24,0.7,13.332,M,-29.744,M,0.0,*5B
###2023-12-09 13:18:47.989787$GPGSA,A,3,03,04,16,26,28,29,31,,,,,,1.1,0.7,0.9*3B
###2023-12-09 13:18:47.991512$GLGSA,A,3,65,71,72,73,74,75,,,,,,,1.1,0.7,0.9*25
###2023-12-09 13:18:47.993095$GAGSA,A,3,04,19,21,27,,,,,,,,,1.1,0.7,0.9*27
###2023-12-09 13:18:47.994818$GBGSA,A,3,14,24,25,26,33,35,,,,,,,1.1,0.7,0.9*28
###2023-12-09 13:18:47.997136$GPGSV,2,1,07,03,31,253,41,04,39,310,45,16,58,216,46,26,88,205,49*73
###2023-12-09 13:18:47.999178$GPGSV,2,2,07,28,43,078,43,29,23,053,42,31,64,053,46,,,,*45
###2023-12-09 13:18:48.001495$GLGSV,2,1,06,65,32,324,42,71,31,174,44,72,69,237,47,73,28,047,42*63
###2023-12-09 13:18:48.003147$GLGSV,2,2,06,74,65,,41,75,38,262,47,,,,,,,,*5A
###2023-12-09 13:18:48.005461$GAGSV,1,1,04,04,34,311,43,19,78,188,41,21,82,058,46,27,27,049,40*67
###2023-12-09 13:18:48.007790$GBGSV,2,1,06,14,35,191,44,24,68,038,48,25,46,269,47,26,20,067,43*60
###2023-12-09 13:18:48.009529$GBGSV,2,2,06,33,51,223,48,35,16,062,43,,,,,,,,*64
###2023-12-09 13:18:48.010825$GNVTG,24.20,T,,M,3.81,N,7.06,K,A*1C
###2023-12-09 13:18:48.012468$GNGST,181847.10,18.000,,,,0.098,0.070,0.170*5C
###2023-12-09 13:18:48.013747$GNZDA,181847.10,09,12,2023,00,00*73
###2023-12-09 13:18:48.014380$GNEBP,,,,,,M*13
###2023-12-09 13:18:48.182613$GNGGA,181847.30,4138.0457280,N,07032.3077431,W,1,24,0.7,13.326,M,-29.744,M,0.0,*5A
###2023-12-09 13:18:48.381204$GNGGA,181847.50,4138.0459014,N,07032.3075976,W,1,24,0.7,13.323,M,-29.743,M,0.0,*53
###2023-12-09 13:18:48.582488$GNGGA,181847.70,4138.0460763,N,07032.3074552,W,1,24,0.7,13.324,M,-29.743,M,0.0,*50
###2023-12-09 13:18:48.783848$GNGGA,181847.90,4138.0462621,N,07032.3073497,W,1,24,0.7,13.327,M,-29.743,M,0.0,*57
###2023-12-09 13:18:48.986947$GNRMC,181848.10,A,4138.0464468,N,07032.3072312,W,3.69,30.56,091223,,,A*6A
###2023-12-09 13:18:48.989785$GNGGA,181848.10,4138.0464468,N,07032.3072312,W,1,24,0.7,13.327,M,-29.743,M,0.0,*52
###2023-12-09 13:18:48.991574$GPGSA,A,3,03,04,16,26,28,29,31,,,,,,1.1,0.7,0.9*3B
###2023-12-09 13:18:48.993282$GLGSA,A,3,65,71,72,73,74,75,,,,,,,1.1,0.7,0.9*25
###2023-12-09 13:18:48.994874$GAGSA,A,3,04,19,21,27,,,,,,,,,1.1,0.7,0.9*27
###2023-12-09 13:18:48.996587$GBGSA,A,3,14,24,25,26,33,35,,,,,,,1.1,0.7,0.9*28
###2023-12-09 13:18:48.998913$GPGSV,2,1,07,03,31,253,42,04,39,310,45,16,58,216,48,26,88,205,50*76
###2023-12-09 13:18:49.000952$GPGSV,2,2,07,28,43,078,45,29,23,053,42,31,64,053,47,,,,*42
###2023-12-09 13:18:49.003288$GLGSV,2,1,06,65,32,324,42,71,31,174,45,72,69,237,47,73,28,047,42*62
###2023-12-09 13:18:49.004943$GLGSV,2,2,06,74,65,,41,75,38,262,47,,,,,,,,*5A
###2023-12-09 13:18:49.007284$GAGSV,1,1,04,04,34,311,43,19,78,188,42,21,82,058,46,27,27,049,42*66
###2023-12-09 13:18:49.009610$GBGSV,2,1,06,14,35,191,45,24,68,038,47,25,46,269,48,26,20,067,42*60
###2023-12-09 13:18:49.011365$GBGSV,2,2,06,33,51,223,48,35,16,062,42,,,,,,,,*65
###2023-12-09 13:18:49.012654$GNVTG,30.56,T,,M,3.69,N,6.84,K,A*15
###2023-12-09 13:18:49.014297$GNGST,181848.10,18.000,,,,0.098,0.070,0.170*53
###2023-12-09 13:18:49.015597$GNZDA,181848.10,09,12,2023,00,00*7C
###2023-12-09 13:18:49.016236$GNEBP,,,,,,M*13
###2023-12-09 13:18:49.182266$GNGGA,181848.30,4138.0466223,N,07032.3070904,W,1,24,0.7,13.319,M,-29.743,M,0.0,*59
###2023-12-09 13:18:49.382629$GNGGA,181848.50,4138.0468147,N,07032.3069831,W,1,24,0.7,13.342,M,-29.743,M,0.0,*51
###2023-12-09 13:18:49.582518$GNGGA,181848.70,4138.0470159,N,07032.3068780,W,1,24,0.7,13.342,M,-29.743,M,0.0,*51
###2023-12-09 13:18:49.782400$GNGGA,181848.90,4138.0472100,N,07032.3067644,W,1,24,0.7,13.335,M,-29.743,M,0.0,*57
###2023-12-09 13:18:49.988486$GNRMC,181849.10,A,4138.0474053,N,07032.3066417,W,3.98,28.65,091223,,,A*66
###2023-12-09 13:18:49.991357$GNGGA,181849.10,4138.0474053,N,07032.3066417,W,1,24,0.7,13.340,M,-29.743,M,0.0,*58
###2023-12-09 13:18:49.993152$GPGSA,A,3,03,04,16,26,28,29,31,,,,,,1.1,0.7,0.9*3B
###2023-12-09 13:18:49.994886$GLGSA,A,3,65,71,72,73,74,75,,,,,,,1.1,0.7,0.9*25
###2023-12-09 13:18:49.996461$GAGSA,A,3,04,19,21,27,,,,,,,,,1.1,0.7,0.9*27
###2023-12-09 13:18:49.998164$GBGSA,A,3,14,24,25,26,33,35,,,,,,,1.1,0.7,0.9*28
###2023-12-09 13:18:50.000508$GPGSV,2,1,07,03,31,253,43,04,39,310,45,16,58,216,48,26,88,205,49*7F
###2023-12-09 13:18:50.002556$GPGSV,2,2,07,28,43,078,44,29,23,053,42,31,64,053,48,,,,*4C
###2023-12-09 13:18:50.004894$GLGSV,2,1,06,65,32,324,41,71,31,174,45,72,69,237,47,73,28,047,42*61
###2023-12-09 13:18:50.006533$GLGSV,2,2,06,74,65,,41,75,38,262,46,,,,,,,,*5B
###2023-12-09 13:18:50.008866$GAGSV,1,1,04,04,34,311,42,19,78,188,41,21,82,058,46,27,27,049,40*66
###2023-12-09 13:18:50.011207$GBGSV,2,1,06,14,35,191,44,24,68,038,47,25,46,269,47,26,20,067,41*6D
###2023-12-09 13:18:50.012955$GBGSV,2,2,06,33,51,223,47,35,16,062,41,,,,,,,,*69
###2023-12-09 13:18:50.014248$GNVTG,28.65,T,,M,3.98,N,7.38,K,A*14
###2023-12-09 13:18:50.015902$GNGST,181849.10,18.000,,,,0.098,0.070,0.170*52
###2023-12-09 13:18:50.017189$GNZDA,181849.10,09,12,2023,00,00*7D
###2023-12-09 13:18:50.017825$GNEBP,,,,,,M*13
###2023-12-09 13:18:50.181669$GNGGA,181849.30,4138.0475971,N,07032.3064988,W,1,24,0.7,13.328,M,-29.743,M,0.0,*55
###2023-12-09 13:18:50.381501$GNGGA,181849.50,4138.0477926,N,07032.3063813,W,1,24,0.7,13.313,M,-29.743,M,0.0,*5F
###2023-12-09 13:18:50.582326$GNGGA,181849.70,4138.0479933,N,07032.3062848,W,1,24,0.7,13.328,M,-29.743,M,0.0,*50
###2023-12-09 13:18:50.781495$GNGGA,181849.90,4138.0481885,N,07032.3061646,W,1,24,0.7,13.347,M,-29.743,M,0.0,*5F
###2023-12-09 13:18:50.987171$GNRMC,181850.10,A,4138.0483771,N,07032.3060228,W,3.95,30.39,091223,,,A*60
###2023-12-09 13:18:50.990025$GNGGA,181850.10,4138.0483771,N,07032.3060228,W,1,24,0.7,13.343,M,-29.743,M,0.0,*50
###2023-12-09 13:18:50.991839$GPGSA,A,3,03,04,16,26,28,29,31,,,,,,1.1,0.7,0.9*3B
###2023-12-09 13:18:50.993563$GLGSA,A,3,65,71,72,73,74,75,,,,,,,1.1,0.7,0.9*25
###2023-12-09 13:18:50.995158$GAGSA,A,3,04,19,21,27,,,,,,,,,1.1,0.7,0.9*27
###2023-12-09 13:18:50.996878$GBGSA,A,3,14,24,25,26,33,35,,,,,,,1.1,0.7,0.9*28
###2023-12-09 13:18:50.999214$GPGSV,2,1,07,03,31,253,43,04,39,310,44,16,58,216,47,26,88,205,48*70
###2023-12-09 13:18:51.001255$GPGSV,2,2,07,28,43,078,43,29,23,053,41,31,64,053,46,,,,*46
###2023-12-09 13:18:51.003592$GLGSV,2,1,06,65,32,324,42,71,31,174,46,72,69,237,47,73,28,047,42*61
###2023-12-09 13:18:51.005236$GLGSV,2,2,06,74,65,,41,75,38,262,46,,,,,,,,*5B
###2023-12-09 13:18:51.007564$GAGSV,1,1,04,04,34,311,43,19,78,188,41,21,82,058,46,27,27,049,40*67
###2023-12-09 13:18:51.009885$GBGSV,2,1,06,14,35,191,46,24,68,038,48,25,46,269,47,26,20,067,41*60
###2023-12-09 13:18:51.011629$GBGSV,2,2,06,33,51,223,48,35,16,062,41,,,,,,,,*66
###2023-12-09 13:18:51.012915$GNVTG,30.39,T,,M,3.95,N,7.31,K,A*10
###2023-12-09 13:18:51.014572$GNGST,181850.10,18.000,,,,0.098,0.070,0.170*5A
###2023-12-09 13:18:51.015864$GNZDA,181850.10,09,12,2023,00,00*75
###2023-12-09 13:18:51.016501$GNEBP,,,,,,M*13
###2023-12-09 13:18:51.184337$GNGGA,181850.30,4138.0485669,N,07032.3058907,W,1,24,0.7,13.320,M,-29.743,M,0.0,*54
###2023-12-09 13:18:51.381331$GNGGA,181850.50,4138.0487644,N,07032.3058049,W,1,24,0.7,13.323,M,-29.743,M,0.0,*5F
###2023-12-09 13:18:51.581614$GNGGA,181850.70,4138.0489638,N,07032.3057318,W,1,24,0.7,13.329,M,-29.743,M,0.0,*5A
###2023-12-09 13:18:51.784329$GNGGA,181850.90,4138.0491595,N,07032.3056297,W,1,24,0.7,13.340,M,-29.743,M,0.0,*51
###2023-12-09 13:18:51.986995$GNRMC,181851.10,A,4138.0493586,N,07032.3055208,W,3.85,20.96,091223,,,A*6B
###2023-12-09 13:18:51.990477$GNGGA,181851.10,4138.0493586,N,07032.3055208,W,1,24,0.7,13.329,M,-29.743,M,0.0,*52
###2023-12-09 13:18:51.992670$GPGSA,A,3,03,04,16,26,28,29,31,,,,,,1.1,0.7,0.9*3B
###2023-12-09 13:18:51.994763$GLGSA,A,3,65,71,72,73,74,75,,,,,,,1.1,0.7,0.9*25
###2023-12-09 13:18:51.996673$GAGSA,A,3,04,19,21,27,,,,,,,,,1.1,0.7,0.9*27
###2023-12-09 13:18:51.998754$GBGSA,A,3,14,24,25,26,33,35,,,,,,,1.1,0.7,0.9*28
###2023-12-09 13:18:52.001572$GPGSV,2,1,07,03,31,253,42,04,39,310,45,16,58,216,46,26,88,205,48*71
###2023-12-09 13:18:52.004051$GPGSV,2,2,07,28,43,078,44,29,23,053,41,31,64,053,46,,,,*41
###2023-12-09 13:18:52.006892$GLGSV,2,1,06,65,32,324,42,71,31,174,46,72,69,237,46,73,28,047,41*63
