###2023-12-09 12:27:27.520950$GNGGA,172726.70,4138.0390380,N,07032.4363682,W,1,19,0.7,5.917,M,-29.746,M,0.0,*6F
###2023-12-09 12:27:27.719387$GNGGA,172726.90,4138.0390392,N,07032.4363707,W,1,19,0.7,5.904,M,-29.746,M,0.0,*6C
###2023-12-09 12:27:27.922115$GNRMC,172727.10,A,4138.0390407,N,07032.4363736,W,0.04,,091223,,,A*45
###2023-12-09 12:27:27.925867$GNGGA,172727.10,4138.0390407,N,07032.4363736,W,1,18,0.7,5.889,M,-29.746,M,0.0,*69
###2023-12-09 12:27:27.928110$GPGSA,A,3,03,16,26,28,29,31,32,,,,,,1.4,0.7,1.1*32
###2023-12-09 12:27:27.930076$GLGSA,A,3,71,72,73,75,,,,,,,,,1.4,0.7,1.1*29
###2023-12-09 12:27:27.931979$GAGSA,A,3,04,21,27,,,,,,,,,,1.4,0.7,1.1*23
###2023-12-09 12:27:27.933939$GBGSA,A,3,14,25,26,33,,,,,,,,,1.4,0.7,1.1*24
###2023-12-09 12:27:27.936814$GPGSV,2,1,07,03,39,281,40,16,33,206,44,26,62,205,43,28,60,051,42*76
###2023-12-09 12:27:27.939348$GPGSV,2,2,07,29,24,078,41,31,73,348,42,32,33,132,46,,,,*45
###2023-12-09 12:27:27.942212$GLGSV,1,1,04,71,61,167,47,72,62,315,44,73,52,031,48,75,19,238,42*6D
###2023-12-09 12:27:27.944724$GAGSV,1,1,03,04,19,310,35,21,75,179,40,27,44,050,45,,,,*58
###2023-12-09 12:27:27.947613$GBGSV,1,1,04,14,58,200,46,25,30,250,37,26,37,056,48,33,64,261,41*6D
###2023-12-09 12:27:27.949017$GNVTG,,T,,M,0.04,N,0.07,K,A*3E
###2023-12-09 12:27:27.951036$GNGST,172727.10,31.000,,,,0.110,0.095,0.260*5A
###2023-12-09 12:27:27.952607$GNZDA,172727.10,09,12,2023,00,00*76
###2023-12-09 12:27:27.953385$GNEBP,,,,,,M*13
###2023-12-09 12:27:28.122475$GNGGA,172727.30,4138.0390429,N,07032.4363761,W,1,18,0.7,5.877,M,-29.746,M,0.0,*64
###2023-12-09 12:27:28.321116$GNGGA,172727.50,4138.0390454,N,07032.4363794,W,1,18,0.7,5.865,M,-29.746,M,0.0,*61
###2023-12-09 12:27:28.521260$GNGGA,172727.70,4138.0390478,N,07032.4363799,W,1,17,0.8,5.861,M,-29.746,M,0.0,*64
###2023-12-09 12:27:28.720393$GNGGA,172727.90,4138.0390498,N,07032.4363800,W,1,17,0.8,5.863,M,-29.746,M,0.0,*69
###2023-12-09 12:27:28.923125$GNRMC,172728.10,A,4138.0390519,N,07032.4363793,W,0.02,,091223,,,A*4D
###2023-12-09 12:27:28.926183$GNGGA,172728.10,4138.0390519,N,07032.4363793,W,1,17,0.8,5.861,M,-29.746,M,0.0,*61
###2023-12-09 12:27:28.928185$GPGSA,A,3,03,16,26,28,29,31,32,,,,,,1.5,0.8,1.3*3E
###2023-12-09 12:27:28.929957$GLGSA,A,3,71,72,73,75,,,,,,,,,1.5,0.8,1.3*25
###2023-12-09 12:27:28.931602$GAGSA,A,3,21,27,,,,,,,,,,,1.5,0.8,1.3*2B
###2023-12-09 12:27:28.933353$GBGSA,A,3,14,25,26,33,,,,,,,,,1.5,0.8,1.3*28
###2023-12-09 12:27:28.935872$GPGSV,2,1,07,03,39,281,39,16,33,206,43,26,62,205,40,28,60,051,40*7E
###2023-12-09 12:27:28.938090$GPGSV,2,2,07,29,24,078,40,31,73,348,40,32,33,132,44,,,,*44
###2023-12-09 12:27:28.940593$GLGSV,1,1,04,71,61,167,45,72,62,315,42,73,52,031,46,75,19,238,39*6B
###2023-12-09 12:27:28.942471$GAGSV,1,1,02,21,75,179,40,27,44,050,45,,,,,,,,*61
###2023-12-09 12:27:28.944923$GBGSV,1,1,04,14,58,200,44,25,30,250,35,26,37,056,47,33,64,261,40*63
###2023-12-09 12:27:28.946169$GNVTG,,T,,M,0.02,N,0.04,K,A*3B
###2023-12-09 12:27:28.947875$GNGST,172728.10,32.000,,,,0.110,0.098,0.260*5B
###2023-12-09 12:27:28.949209$GNZDA,172728.10,09,12,2023,00,00*79
###2023-12-09 12:27:28.949868$GNEBP,,,,,,M*13
###2023-12-09 12:27:29.121816$GNGGA,172728.30,4138.0390539,N,07032.4363779,W,1,17,0.8,5.860,M,-29.746,M,0.0,*64
###2023-12-09 12:27:29.321819$GNGGA,172728.50,4138.0390550,N,07032.4363743,W,1,17,0.8,5.862,M,-29.746,M,0.0,*66
###2023-12-09 12:27:29.521795$GNGGA,172728.70,4138.0390574,N,07032.4363719,W,1,17,0.8,5.863,M,-29.746,M,0.0,*6C
###2023-12-09 12:27:29.719300$GNGGA,172728.90,4138.0390607,N,07032.4363721,W,1,17,0.8,5.858,M,-29.746,M,0.0,*66
###2023-12-09 12:27:29.921210$GNRMC,172729.10,A,4138.0390638,N,07032.4363712,W,0.10,,091223,,,A*46
###2023-12-09 12:27:29.924065$GNGGA,172729.10,4138.0390638,N,07032.4363712,W,1,17,0.8,5.853,M,-29.746,M,0.0,*68
###2023-12-09 12:27:29.925873$GPGSA,A,3,03,16,26,28,29,31,32,,,,,,1.5,0.8,1.3*3E
###2023-12-09 12:27:29.927489$GLGSA,A,3,71,72,73,75,,,,,,,,,1.5,0.8,1.3*25
###2023-12-09 12:27:29.928956$GAGSA,A,3,21,27,,,,,,,,,,,1.5,0.8,1.3*2B
###2023-12-09 12:27:29.930551$GBGSA,A,3,14,25,26,33,,,,,,,,,1.5,0.8,1.3*28
###2023-12-09 12:27:29.932910$GPGSV,2,1,07,03,39,281,41,16,33,206,45,26,62,205,42,28,60,051,42*77
###2023-12-09 12:27:29.934979$GPGSV,2,2,07,29,24,078,40,31,73,348,43,32,33,132,47,,,,*44
###2023-12-09 12:27:29.937326$GLGSV,1,1,04,71,61,167,46,72,62,315,42,73,52,031,46,75,19,238,40*66
###2023-12-09 12:27:29.939106$GAGSV,1,1,02,21,75,179,42,27,44,050,47,,,,,,,,*61
###2023-12-09 12:27:29.941455$GBGSV,1,1,04,14,58,200,46,25,30,250,36,26,37,056,48,33,64,261,40*6D
###2023-12-09 12:27:29.942608$GNVTG,,T,,M,0.10,N,0.18,K,A*35
###2023-12-09 12:27:29.944265$GNGST,172729.10,32.000,,,,0.110,0.100,0.260*5A
###2023-12-09 12:27:29.945564$GNZDA,172729.10,09,12,2023,00,00*78
###2023-12-09 12:27:29.946212$GNEBP,,,,,,M*13
###2023-12-09 12:27:30.121841$GNGGA,172729.30,4138.0390677,N,07032.4363727,W,1,17,0.8,5.842,M,-29.746,M,0.0,*67
###2023-12-09 12:27:30.320511$GNGGA,172729.50,4138.0390709,N,07032.4363726,W,1,18,0.7,5.836,M,-29.746,M,0.0,*6B
###2023-12-09 12:27:30.521875$GNGGA,172729.70,4138.0390734,N,07032.4363703,W,1,18,0.7,5.835,M,-29.746,M,0.0,*63
###2023-12-09 12:27:30.720359$GNGGA,172729.90,4138.0390756,N,07032.4363693,W,1,18,0.7,5.828,M,-29.746,M,0.0,*6D
###2023-12-09 12:27:30.924982$GNRMC,172730.10,A,4138.0390793,N,07032.4363695,W,0.04,,091223,,,A*45
###2023-12-09 12:27:30.928026$GNGGA,172730.10,4138.0390793,N,07032.4363695,W,1,18,0.7,5.814,M,-29.746,M,0.0,*6D
###2023-12-09 12:27:30.929856$GPGSA,A,3,03,16,26,28,29,31,32,,,,,,1.4,0.7,1.1*32
###2023-12-09 12:27:30.931483$GLGSA,A,3,71,72,73,75,,,,,,,,,1.4,0.7,1.1*29
###2023-12-09 12:27:30.933025$GAGSA,A,3,04,21,27,,,,,,,,,,1.4,0.7,1.1*23
###2023-12-09 12:27:30.934648$GBGSA,A,3,14,25,26,33,,,,,,,,,1.4,0.7,1.1*24
###2023-12-09 12:27:30.936993$GPGSV,2,1,07,03,39,281,41,16,33,206,45,26,62,205,42,28,60,051,42*77
###2023-12-09 12:27:30.939054$GPGSV,2,2,07,29,24,078,41,31,73,348,43,32,33,132,47,,,,*45
###2023-12-09 12:27:30.941406$GLGSV,1,1,04,71,61,167,46,72,62,315,42,73,52,031,47,75,19,238,40*67
###2023-12-09 12:27:30.943481$GAGSV,1,1,03,04,19,310,35,21,75,179,42,27,44,050,46,,,,*59
###2023-12-09 12:27:30.945829$GBGSV,1,1,04,14,58,200,46,25,30,250,36,26,37,056,48,33,64,261,41*6C
###2023-12-09 12:27:30.947008$GNVTG,,T,,M,0.04,N,0.07,K,A*3E
###2023-12-09 12:27:30.948682$GNGST,172730.10,31.000,,,,0.110,0.100,0.260*51
###2023-12-09 12:27:30.949989$GNZDA,172730.10,09,12,2023,00,00*70
###2023-12-09 12:27:30.950653$GNEBP,,,,,,M*13
###2023-12-09 12:27:31.121787$GNGGA,172730.30,4138.0390818,N,07032.4363684,W,1,18,0.7,5.809,M,-29.746,M,0.0,*6F
###2023-12-09 12:27:31.320852$GNGGA,172730.50,4138.0390843,N,07032.4363678,W,1,18,0.7,5.803,M,-29.746,M,0.0,*6E
###2023-12-09 12:27:31.520708$GNGGA,172730.70,4138.0390872,N,07032.4363670,W,1,18,0.7,5.801,M,-29.746,M,0.0,*64
###2023-12-09 12:27:31.719290$GNGGA,172730.90,4138.0390907,N,07032.4363671,W,1,18,0.7,5.796,M,-29.746,M,0.0,*69
###2023-12-09 12:27:31.920578$GNRMC,172731.10,A,4138.0390953,N,07032.4363669,W,0.06,,091223,,,A*47
###2023-12-09 12:27:31.923634$GNGGA,172731.10,4138.0390953,N,07032.4363669,W,1,18,0.7,5.791,M,-29.746,M,0.0,*6F
###2023-12-09 12:27:31.925617$GPGSA,A,3,03,16,26,28,29,31,32,,,,,,1.4,0.7,1.1*32
###2023-12-09 12:27:31.927389$GLGSA,A,3,71,72,73,75,,,,,,,,,1.4,0.7,1.1*29
###2023-12-09 12:27:31.929075$GAGSA,A,3,04,21,27,,,,,,,,,,1.4,0.7,1.1*23
###2023-12-09 12:27:31.930825$GBGSA,A,3,14,25,26,33,,,,,,,,,1.4,0.7,1.1*24
###2023-12-09 12:27:31.933328$GPGSV,2,1,07,03,39,281,40,16,33,206,45,26,62,205,42,28,60,051,42*76
###2023-12-09 12:27:31.935582$GPGSV,2,2,07,29,24,078,41,31,73,348,42,32,33,132,47,,,,*44
###2023-12-09 12:27:31.938093$GLGSV,1,1,04,71,61,167,46,72,62,315,43,73,52,031,47,75,19,238,40*66
###2023-12-09 12:27:31.940275$GAGSV,1,1,03,04,19,310,35,21,75,179,42,27,44,050,46,,,,*59
###2023-12-09 12:27:31.942728$GBGSV,1,1,04,14,58,200,45,25,30,250,36,26,37,056,48,33,64,261,41*6F
###2023-12-09 12:27:31.943979$GNVTG,,T,,M,0.06,N,0.11,K,A*3B
###2023-12-09 12:27:31.945727$GNGST,172731.10,31.000,,,,0.110,0.098,0.260*50
###2023-12-09 12:27:31.947147$GNZDA,172731.10,09,12,2023,00,00*71
###2023-12-09 12:27:31.948193$GNEBP,,,,,,M*13
###2023-12-09 12:27:32.120859$GNGGA,172731.30,4138.0390993,N,07032.4363673,W,1,18,0.7,5.786,M,-29.746,M,0.0,*6C
###2023-12-09 12:27:32.320628$GNGGA,172731.50,4138.0391020,N,07032.4363665,W,1,18,0.7,5.786,M,-29.746,M,0.0,*6D
###2023-12-09 12:27:32.519537$GNGGA,172731.70,4138.0391046,N,07032.4363643,W,1,18,0.7,5.784,M,-29.746,M,0.0,*69
###2023-12-09 12:27:32.718677$GNGGA,172731.90,4138.0391073,N,07032.4363616,W,1,18,0.7,5.789,M,-29.746,M,0.0,*6C
###2023-12-09 12:27:32.925112$GNRMC,172732.10,A,4138.0391088,N,07032.4363596,W,0.04,,091223,,,A*4B
###2023-12-09 12:27:32.929654$GNGGA,172732.10,4138.0391088,N,07032.4363596,W,1,18,0.7,5.788,M,-29.746,M,0.0,*69
###2023-12-09 12:27:32.932378$GPGSA,A,3,03,16,26,28,29,31,32,,,,,,1.4,0.7,1.1*32
