###2023-12-09 13:32:36.003952$GBGSA,A,3,24,25,26,33,35,,,,,,,,1.3,0.8,1.0*28
###2023-12-09 13:32:36.006299$GPGSV,2,1,06,04,45,308,45,16,65,221,45,26,85,040,48,28,39,084,44*7A
###2023-12-09 13:32:36.008071$GPGSV,2,2,06,29,21,048,42,31,60,064,46,,,,,,,,*79
###2023-12-09 13:32:36.010393$GLGSV,2,1,06,65,37,320,45,72,64,223,46,73,23,051,44,74,61,011,43*63
###2023-12-09 13:32:36.012152$GLGSV,2,2,06,75,42,269,47,83,15,049,36,,,,,,,,*6E
###2023-12-09 13:32:36.014476$GAGSV,1,1,04,04,39,310,45,19,73,182,40,21,77,047,46,27,23,050,41*64
###2023-12-09 13:32:36.016819$GBGSV,2,1,05,24,63,045,48,25,50,275,47,26,16,070,42,33,46,217,45*67
###2023-12-09 13:32:36.018270$GBGSV,2,2,05,35,16,058,43,,,,,,,,,,,,*55
###2023-12-09 13:32:36.019580$GNVTG,97.99,T,,M,0.49,N,0.90,K,A*19
###2023-12-09 13:32:36.021190$GNGST,183235.10,6.100,,,,0.150,0.080,0.220*63
###2023-12-09 13:32:36.022472$GNZDA,183235.10,09,12,2023,00,00*7E
###2023-12-09 13:32:36.023119$GNEBP,,,,,,M*13
###2023-12-09 13:32:36.192402$GNGGA,183235.30,4138.0363830,N,07032.4156885,W,1,22,0.8,13.817,M,-29.745,M,0.0,*51
###2023-12-09 13:32:36.390413$GNGGA,183235.50,4138.0363848,N,07032.4157069,W,1,22,0.8,13.815,M,-29.745,M,0.0,*51
###2023-12-09 13:32:36.594612$GNGGA,183235.70,4138.0363965,N,07032.4157391,W,1,23,0.7,13.835,M,-29.745,M,0.0,*55
###2023-12-09 13:32:36.794546$GNGGA,183235.90,4138.0363937,N,07032.4157510,W,1,22,0.8,13.854,M,-29.745,M,0.0,*5A
###2023-12-09 13:32:36.996159$GNRMC,183236.10,A,4138.0363759,N,07032.4157398,W,0.35,97.99,091223,,,A*6D
###2023-12-09 13:32:36.999030$GNGGA,183236.10,4138.0363759,N,07032.4157398,W,1,22,0.8,13.849,M,-29.745,M,0.0,*5D
###2023-12-09 13:32:37.000757$GPGSA,A,3,04,16,26,28,29,31,,,,,,,1.3,0.8,1.0*3D
###2023-12-09 13:32:37.002468$GLGSA,A,3,65,72,73,74,75,83,,,,,,,1.3,0.8,1.0*2D
###2023-12-09 13:32:37.004061$GAGSA,A,3,04,19,21,27,,,,,,,,,1.3,0.8,1.0*22
###2023-12-09 13:32:37.005703$GBGSA,A,3,24,25,26,33,35,,,,,,,,1.3,0.8,1.0*28
###2023-12-09 13:32:37.008038$GPGSV,2,1,06,04,45,308,46,16,65,221,45,26,85,040,48,28,39,084,44*79
###2023-12-09 13:32:37.009799$GPGSV,2,2,06,29,21,048,42,31,60,064,46,,,,,,,,*79
###2023-12-09 13:32:37.012139$GLGSV,2,1,06,65,37,320,44,72,64,223,46,73,23,051,43,74,61,011,44*62
###2023-12-09 13:32:37.013886$GLGSV,2,2,06,75,42,269,47,83,15,049,36,,,,,,,,*6E
###2023-12-09 13:32:37.016222$GAGSV,1,1,04,04,39,310,45,19,73,182,39,21,77,047,46,27,23,050,40*6B
###2023-12-09 13:32:37.018546$GBGSV,2,1,05,24,63,045,47,25,50,275,47,26,16,070,44,33,46,217,46*6D
###2023-12-09 13:32:37.020011$GBGSV,2,2,05,35,16,057,45,,,,,,,,,,,,*5C
###2023-12-09 13:32:37.021295$GNVTG,97.99,T,,M,0.35,N,0.65,K,A*18
###2023-12-09 13:32:37.022918$GNGST,183236.10,6.200,,,,0.150,0.080,0.220*63
###2023-12-09 13:32:37.024206$GNZDA,183236.10,09,12,2023,00,00*7D
###2023-12-09 13:32:37.024841$GNEBP,,,,,,M*13
###2023-12-09 13:32:37.193299$GNGGA,183236.30,4138.0363582,N,07032.4157385,W,1,22,0.8,13.824,M,-29.745,M,0.0,*5C
###2023-12-09 13:32:37.392695$GNGGA,183236.50,4138.0363462,N,07032.4157751,W,1,22,0.8,13.828,M,-29.745,M,0.0,*54
###2023-12-09 13:32:37.593020$GNGGA,183236.70,4138.0363264,N,07032.4158397,W,1,22,0.8,13.840,M,-29.745,M,0.0,*59
###2023-12-09 13:32:37.792220$GNGGA,183236.90,4138.0362843,N,07032.4158976,W,1,21,0.9,13.837,M,-29.745,M,0.0,*5E
###2023-12-09 13:32:37.992837$GNRMC,183237.10,A,4138.0362208,N,07032.4159340,W,1.36,201.94,091223,,,A*55
###2023-12-09 13:32:37.995705$GNGGA,183237.10,4138.0362208,N,07032.4159340,W,1,21,0.9,13.827,M,-29.745,M,0.0,*5D
###2023-12-09 13:32:37.997428$GPGSA,A,3,04,16,26,28,29,31,,,,,,,1.6,0.9,1.2*3B
###2023-12-09 13:32:37.999152$GLGSA,A,3,65,72,73,74,75,83,,,,,,,1.6,0.9,1.2*2B
###2023-12-09 13:32:38.000728$GAGSA,A,3,04,19,21,27,,,,,,,,,1.6,0.9,1.2*24
###2023-12-09 13:32:38.002374$GBGSA,A,3,24,25,26,33,35,,,,,,,,1.6,0.9,1.2*2E
###2023-12-09 13:32:38.004706$GPGSV,2,1,06,04,45,308,46,16,65,221,45,26,85,040,47,28,39,084,44*76
###2023-12-09 13:32:38.006455$GPGSV,2,2,06,29,21,048,43,31,60,064,47,,,,,,,,*79
###2023-12-09 13:32:38.008788$GLGSV,2,1,06,65,38,319,45,72,64,223,45,73,23,051,44,74,61,011,42*64
###2023-12-09 13:32:38.010533$GLGSV,2,2,06,75,42,269,46,83,15,049,36,,,,,,,,*6F
###2023-12-09 13:32:38.012864$GAGSV,1,1,04,04,39,310,45,19,73,182,40,21,77,047,46,27,23,050,42*67
###2023-12-09 13:32:38.015192$GBGSV,2,1,05,24,63,045,47,25,50,275,46,26,16,070,44,33,46,217,45*6F
###2023-12-09 13:32:38.016641$GBGSV,2,2,05,35,16,057,43,,,,,,,,,,,,*5A
###2023-12-09 13:32:38.017956$GNVTG,201.94,T,,M,1.36,N,2.52,K,A*2C
###2023-12-09 13:32:38.019575$GNGST,183237.10,5.800,,,,0.150,0.079,0.220*6D
###2023-12-09 13:32:38.020859$GNZDA,183237.10,09,12,2023,00,00*7C
###2023-12-09 13:32:38.021494$GNEBP,,,,,,M*13
###2023-12-09 13:32:38.190283$GNGGA,183237.30,4138.0361451,N,07032.4159854,W,1,21,0.9,13.816,M,-29.745,M,0.0,*5A
###2023-12-09 13:32:38.390261$GNGGA,183237.50,4138.0360604,N,07032.4160755,W,1,23,0.7,13.822,M,-29.745,M,0.0,*50
###2023-12-09 13:32:38.592200$GNGGA,183237.70,4138.0359727,N,07032.4161750,W,1,22,0.7,13.836,M,-29.745,M,0.0,*58
###2023-12-09 13:32:38.789994$GNGGA,183237.90,4138.0358638,N,07032.4162393,W,1,22,0.7,13.827,M,-29.745,M,0.0,*50
###2023-12-09 13:32:38.993998$GNRMC,183238.10,A,4138.0357471,N,07032.4162578,W,2.06,182.56,091223,,,A*57
###2023-12-09 13:32:38.996912$GNGGA,183238.10,4138.0357471,N,07032.4162578,W,1,21,0.8,13.800,M,-29.745,M,0.0,*5D
###2023-12-09 13:32:38.998656$GPGSA,A,3,04,16,26,28,29,31,,,,,,,1.3,0.8,1.1*3C
###2023-12-09 13:32:39.000367$GLGSA,A,3,65,72,73,74,75,83,,,,,,,1.3,0.8,1.1*2C
###2023-12-09 13:32:39.001942$GAGSA,A,3,04,19,21,27,,,,,,,,,1.3,0.8,1.1*23
###2023-12-09 13:32:39.003592$GBGSA,A,3,24,25,26,33,35,,,,,,,,1.3,0.8,1.1*29
###2023-12-09 13:32:39.005906$GPGSV,2,1,06,04,45,308,45,16,65,221,45,26,85,040,48,28,39,084,45*7B
###2023-12-09 13:32:39.007652$GPGSV,2,2,06,29,21,048,43,31,60,064,47,,,,,,,,*79
###2023-12-09 13:32:39.009965$GLGSV,2,1,06,65,38,319,42,72,64,223,45,73,23,051,42,74,61,011,42*65
###2023-12-09 13:32:39.011714$GLGSV,2,2,06,75,42,269,46,83,15,049,36,,,,,,,,*6F
###2023-12-09 13:32:39.014031$GAGSV,1,1,04,04,39,310,43,19,73,182,40,21,77,047,46,27,23,050,40*63
###2023-12-09 13:32:39.016369$GBGSV,2,1,05,24,63,045,49,25,50,275,47,26,16,070,44,33,46,217,46*63
###2023-12-09 13:32:39.017817$GBGSV,2,2,05,35,16,057,45,,,,,,,,,,,,*5C
###2023-12-09 13:32:39.019142$GNVTG,182.56,T,,M,2.06,N,3.82,K,A*26
###2023-12-09 13:32:39.020770$GNGST,183238.10,19.000,,,,0.150,0.079,0.220*57
###2023-12-09 13:32:39.022053$GNZDA,183238.10,09,12,2023,00,00*73
###2023-12-09 13:32:39.022695$GNEBP,,,,,,M*13
###2023-12-09 13:32:39.195203$GNGGA,183238.30,4138.0356280,N,07032.4162898,W,1,21,0.9,13.802,M,-29.745,M,0.0,*56
###2023-12-09 13:32:39.389374$GNGGA,183238.50,4138.0355020,N,07032.4163757,W,1,21,0.9,13.842,M,-29.745,M,0.0,*52
###2023-12-09 13:32:39.589740$GNGGA,183238.70,4138.0353663,N,07032.4164318,W,1,21,0.9,13.831,M,-29.745,M,0.0,*5B
###2023-12-09 13:32:39.790424$GNGGA,183238.90,4138.0352335,N,07032.4164170,W,1,22,0.8,13.815,M,-29.745,M,0.0,*5A
###2023-12-09 13:32:39.989844$GNRMC,183239.10,A,4138.0350999,N,07032.4163961,W,2.47,180.88,091223,,,A*5B
###2023-12-09 13:32:39.992737$GNGGA,183239.10,4138.0350999,N,07032.4163961,W,1,21,0.9,13.807,M,-29.745,M,0.0,*53
###2023-12-09 13:32:39.994460$GPGSA,A,3,04,16,26,28,29,31,,,,,,,1.6,0.9,1.2*3B
###2023-12-09 13:32:39.996183$GLGSA,A,3,65,72,73,74,75,83,,,,,,,1.6,0.9,1.2*2B
###2023-12-09 13:32:39.997766$GAGSA,A,3,04,19,21,27,,,,,,,,,1.6,0.9,1.2*24
###2023-12-09 13:32:39.999420$GBGSA,A,3,24,25,26,33,35,,,,,,,,1.6,0.9,1.2*2E
###2023-12-09 13:32:40.001747$GPGSV,2,1,06,04,45,308,44,16,65,221,46,26,85,040,48,28,39,084,46*7A
###2023-12-09 13:32:40.003503$GPGSV,2,2,06,29,21,048,44,31,60,064,48,,,,,,,,*71
###2023-12-09 13:32:40.005837$GLGSV,2,1,06,65,38,319,43,72,64,223,45,73,23,051,45,74,61,011,43*62
###2023-12-09 13:32:40.007594$GLGSV,2,2,06,75,42,269,46,83,15,049,35,,,,,,,,*6C
###2023-12-09 13:32:40.009915$GAGSV,1,1,04,04,39,310,43,19,73,182,40,21,77,047,46,27,23,050,43*60
###2023-12-09 13:32:40.012260$GBGSV,2,1,05,24,63,045,48,25,50,275,47,26,16,070,45,33,46,217,46*63
###2023-12-09 13:32:40.013717$GBGSV,2,2,05,35,16,057,45,,,,,,,,,,,,*5C
###2023-12-09 13:32:40.015366$GNVTG,180.88,T,,M,2.47,N,4.57,K,A*2D
###2023-12-09 13:32:40.016995$GNGST,183239.10,5.600,,,,0.150,0.079,0.220*6D
###2023-12-09 13:32:40.018287$GNZDA,183239.10,09,12,2023,00,00*72
###2023-12-09 13:32:40.018942$GNEBP,,,,,,M*13
###2023-12-09 13:32:40.188488$GNGGA,183239.30,4138.0349512,N,07032.4164269,W,1,22,0.8,13.850,M,-29.745,M,0.0,*52
###2023-12-09 13:32:40.388565$GNGGA,183239.50,4138.0347930,N,07032.4164518,W,1,22,0.8,13.842,M,-29.746,M,0.0,*57
###2023-12-09 13:32:40.589298$GNGGA,183239.70,4138.0346591,N,07032.4164109,W,1,23,0.8,13.824,M,-29.746,M,0.0,*56
###2023-12-09 13:32:40.791073$GNGGA,183239.90,4138.0345260,N,07032.4163480,W,1,22,0.8,13.827,M,-29.746,M,0.0,*53
