###2023-12-09 12:52:21.753675$GNGGA,175220.90,4138.0623038,N,07032.3857596,W,1,24,0.6,13.124,M,-29.744,M,0.0,*57
###2023-12-09 12:52:21.955062$GNRMC,175221.10,A,4138.0623397,N,07032.3858164,W,0.91,311.66,091223,,,A*56
###2023-12-09 12:52:21.957922$GNGGA,175221.10,4138.0623397,N,07032.3858164,W,1,24,0.6,13.095,M,-29.744,M,0.0,*55
###2023-12-09 12:52:21.959808$GPGSA,A,3,03,04,16,26,28,29,31,32,,,,,1.1,0.6,0.9*3B
###2023-12-09 12:52:21.961520$GLGSA,A,3,65,71,72,73,74,75,,,,,,,1.1,0.6,0.9*24
###2023-12-09 12:52:21.963120$GAGSA,A,3,04,19,21,27,,,,,,,,,1.1,0.6,0.9*26
###2023-12-09 12:52:21.964767$GBGSA,A,3,14,24,25,26,33,,,,,,,,1.1,0.6,0.9*2F
###2023-12-09 12:52:21.967122$GPGSV,2,1,08,03,37,267,43,04,29,311,43,16,45,210,46,26,75,209,49*7D
###2023-12-09 12:52:21.969466$GPGSV,2,2,08,28,52,066,44,29,26,065,41,31,71,026,46,32,23,138,44*7D
###2023-12-09 12:52:21.971839$GLGSV,2,1,06,65,19,329,43,71,47,171,47,72,72,288,46,73,40,038,41*6B
###2023-12-09 12:52:21.973595$GLGSV,2,2,06,74,71,321,42,75,28,248,45,,,,,,,,*67
###2023-12-09 12:52:21.975944$GAGSV,1,1,04,04,26,312,43,19,85,252,40,21,84,154,46,27,36,048,42*68
###2023-12-09 12:52:21.978281$GBGSV,2,1,05,14,48,194,45,24,77,014,48,25,37,258,45,26,29,060,42*64
###2023-12-09 12:52:21.979749$GBGSV,2,2,05,33,60,240,47,,,,,,,,,,,,*5D
###2023-12-09 12:52:21.981072$GNVTG,311.66,T,,M,0.91,N,1.69,K,A*26
###2023-12-09 12:52:21.982728$GNGST,175221.10,18.000,,,,0.078,0.069,0.160*5A
###2023-12-09 12:52:21.984013$GNZDA,175221.10,09,12,2023,00,00*72
###2023-12-09 12:52:21.984647$GNEBP,,,,,,M*13
###2023-12-09 12:52:22.152955$GNGGA,175221.30,4138.0623545,N,07032.3858467,W,1,24,0.6,13.074,M,-29.744,M,0.0,*57
###2023-12-09 12:52:22.353645$GNGGA,175221.50,4138.0623502,N,07032.3858407,W,1,24,0.6,13.102,M,-29.744,M,0.0,*54
###2023-12-09 12:52:22.553314$GNGGA,175221.70,4138.0623582,N,07032.3858461,W,1,24,0.6,13.126,M,-29.744,M,0.0,*58
###2023-12-09 12:52:22.753327$GNGGA,175221.90,4138.0623804,N,07032.3858768,W,1,24,0.6,13.111,M,-29.744,M,0.0,*5B
###2023-12-09 12:52:22.954795$GNRMC,175222.10,A,4138.0624027,N,07032.3859120,W,0.56,311.66,091223,,,A*50
###2023-12-09 12:52:22.957667$GNGGA,175222.10,4138.0624027,N,07032.3859120,W,1,24,0.6,13.081,M,-29.744,M,0.0,*5D
###2023-12-09 12:52:22.959535$GPGSA,A,3,03,04,16,26,28,29,31,32,,,,,1.1,0.6,0.9*3B
###2023-12-09 12:52:22.961247$GLGSA,A,3,65,71,72,73,74,75,,,,,,,1.1,0.6,0.9*24
###2023-12-09 12:52:22.962877$GAGSA,A,3,04,19,21,27,,,,,,,,,1.1,0.6,0.9*26
###2023-12-09 12:52:22.964528$GBGSA,A,3,14,24,25,26,33,,,,,,,,1.1,0.6,0.9*2F
###2023-12-09 12:52:22.966876$GPGSV,2,1,08,03,37,267,43,04,29,311,43,16,45,210,46,26,75,209,48*7C
###2023-12-09 12:52:22.969210$GPGSV,2,2,08,28,52,066,44,29,26,065,41,31,71,026,46,32,23,138,44*7D
###2023-12-09 12:52:22.971543$GLGSV,2,1,06,65,19,329,43,71,47,171,47,72,72,288,46,73,40,038,42*68
###2023-12-09 12:52:22.973282$GLGSV,2,2,06,74,71,321,43,75,28,248,45,,,,,,,,*66
###2023-12-09 12:52:22.975606$GAGSV,1,1,04,04,26,312,43,19,85,252,41,21,84,154,47,27,36,048,43*69
###2023-12-09 12:52:22.977924$GBGSV,2,1,05,14,48,194,45,24,77,014,48,25,37,258,44,26,29,060,44*63
###2023-12-09 12:52:22.979389$GBGSV,2,2,05,33,60,240,48,,,,,,,,,,,,*52
###2023-12-09 12:52:22.980706$GNVTG,311.66,T,,M,0.56,N,1.04,K,A*26
###2023-12-09 12:52:22.982351$GNGST,175222.10,18.000,,,,0.078,0.069,0.160*59
###2023-12-09 12:52:22.983652$GNZDA,175222.10,09,12,2023,00,00*71
###2023-12-09 12:52:22.984290$GNEBP,,,,,,M*13
###2023-12-09 12:52:23.153573$GNGGA,175222.30,4138.0624170,N,07032.3859381,W,1,24,0.6,13.073,M,-29.744,M,0.0,*58
###2023-12-09 12:52:23.353640$GNGGA,175222.50,4138.0624241,N,07032.3859499,W,1,24,0.6,13.093,M,-29.744,M,0.0,*5F
###2023-12-09 12:52:23.553642$GNGGA,175222.70,4138.0624352,N,07032.3859679,W,1,24,0.6,13.113,M,-29.744,M,0.0,*5B
###2023-12-09 12:52:23.754224$GNGGA,175222.90,4138.0624557,N,07032.3859973,W,1,24,0.6,13.113,M,-29.744,M,0.0,*53
###2023-12-09 12:52:23.955021$GNRMC,175223.10,A,4138.0624747,N,07032.3860226,W,0.37,311.66,091223,,,A*58
###2023-12-09 12:52:23.957884$GNGGA,175223.10,4138.0624747,N,07032.3860226,W,1,24,0.6,13.101,M,-29.744,M,0.0,*5B
###2023-12-09 12:52:23.959755$GPGSA,A,3,03,04,16,26,28,29,31,32,,,,,1.1,0.6,0.9*3B
###2023-12-09 12:52:23.961479$GLGSA,A,3,65,71,72,73,74,75,,,,,,,1.1,0.6,0.9*24
###2023-12-09 12:52:23.963077$GAGSA,A,3,04,19,21,27,,,,,,,,,1.1,0.6,0.9*26
###2023-12-09 12:52:23.964724$GBGSA,A,3,14,24,25,26,33,,,,,,,,1.1,0.6,0.9*2F
###2023-12-09 12:52:23.967062$GPGSV,2,1,08,03,37,267,43,04,29,311,43,16,45,210,46,26,75,209,48*7C
###2023-12-09 12:52:23.969400$GPGSV,2,2,08,28,52,066,44,29,26,065,41,31,71,026,47,32,23,138,43*7B
###2023-12-09 12:52:23.971748$GLGSV,2,1,06,65,19,329,44,71,47,171,47,72,72,288,47,73,40,038,43*6F
###2023-12-09 12:52:23.973494$GLGSV,2,2,06,74,71,321,43,75,28,248,46,,,,,,,,*65
###2023-12-09 12:52:23.975869$GAGSV,1,1,04,04,26,312,43,19,85,252,41,21,84,154,47,27,36,048,43*69
###2023-12-09 12:52:23.978193$GBGSV,2,1,05,14,48,194,45,24,77,014,49,25,37,258,46,26,29,060,43*67
###2023-12-09 12:52:23.979657$GBGSV,2,2,05,33,60,240,48,,,,,,,,,,,,*52
###2023-12-09 12:52:23.980981$GNVTG,311.66,T,,M,0.37,N,0.68,K,A*2A
###2023-12-09 12:52:23.982633$GNGST,175223.10,18.000,,,,0.078,0.068,0.160*59
###2023-12-09 12:52:23.983924$GNZDA,175223.10,09,12,2023,00,00*70
###2023-12-09 12:52:23.984560$GNEBP,,,,,,M*13
###2023-12-09 12:52:24.152779$GNGGA,175223.30,4138.0624838,N,07032.3860346,W,1,24,0.6,13.083,M,-29.744,M,0.0,*52
###2023-12-09 12:52:24.354258$GNGGA,175223.50,4138.0624914,N,07032.3860499,W,1,24,0.6,13.082,M,-29.744,M,0.0,*5F
###2023-12-09 12:52:24.554829$GNGGA,175223.70,4138.0625126,N,07032.3860811,W,1,24,0.6,13.102,M,-29.744,M,0.0,*50
###2023-12-09 12:52:24.753506$GNGGA,175223.90,4138.0625358,N,07032.3861135,W,1,24,0.6,13.112,M,-29.744,M,0.0,*5A
###2023-12-09 12:52:24.954373$GNRMC,175224.10,A,4138.0625456,N,07032.3861275,W,0.12,311.66,091223,,,A*5D
###2023-12-09 12:52:24.957251$GNGGA,175224.10,4138.0625456,N,07032.3861275,W,1,24,0.6,13.111,M,-29.744,M,0.0,*58
###2023-12-09 12:52:24.959125$GPGSA,A,3,03,04,16,26,28,29,31,32,,,,,1.1,0.6,0.9*3B
###2023-12-09 12:52:24.960832$GLGSA,A,3,65,71,72,73,74,75,,,,,,,1.1,0.6,0.9*24
###2023-12-09 12:52:24.962402$GAGSA,A,3,04,19,21,27,,,,,,,,,1.1,0.6,0.9*26
###2023-12-09 12:52:24.964059$GBGSA,A,3,14,24,25,26,33,,,,,,,,1.1,0.6,0.9*2F
###2023-12-09 12:52:24.966419$GPGSV,2,1,08,03,37,267,44,04,29,311,44,16,45,210,45,26,75,209,48*7F
###2023-12-09 12:52:24.968760$GPGSV,2,2,08,28,52,066,43,29,26,065,40,31,71,026,47,32,23,138,42*7C
###2023-12-09 12:52:24.971109$GLGSV,2,1,06,65,19,329,43,71,47,171,47,72,72,288,47,73,40,038,41*6A
###2023-12-09 12:52:24.972860$GLGSV,2,2,06,74,71,321,43,75,28,248,45,,,,,,,,*66
###2023-12-09 12:52:24.975212$GAGSV,1,1,04,04,26,312,43,19,85,252,40,21,84,154,46,27,36,048,43*69
###2023-12-09 12:52:24.977544$GBGSV,2,1,05,14,48,194,45,24,77,014,49,25,37,258,45,26,29,060,42*65
###2023-12-09 12:52:24.979050$GBGSV,2,2,05,33,60,240,48,,,,,,,,,,,,*52
###2023-12-09 12:52:24.980377$GNVTG,311.66,T,,M,0.12,N,0.22,K,A*23
###2023-12-09 12:52:24.982022$GNGST,175224.10,18.000,,,,0.077,0.068,0.160*51
###2023-12-09 12:52:24.983331$GNZDA,175224.10,09,12,2023,00,00*77
###2023-12-09 12:52:24.983971$GNEBP,,,,,,M*13
###2023-12-09 12:52:25.152834$GNGGA,175224.30,4138.0625522,N,07032.3861370,W,1,24,0.6,13.098,M,-29.744,M,0.0,*5C
###2023-12-09 12:52:25.353610$GNGGA,175224.50,4138.0625671,N,07032.3861593,W,1,24,0.6,13.092,M,-29.744,M,0.0,*5E
###2023-12-09 12:52:25.553610$GNGGA,175224.70,4138.0625875,N,07032.3861939,W,1,24,0.6,13.090,M,-29.744,M,0.0,*58
###2023-12-09 12:52:25.752632$GNGGA,175224.90,4138.0626048,N,07032.3862260,W,1,24,0.6,13.097,M,-29.744,M,0.0,*50
###2023-12-09 12:52:25.955153$GNRMC,175225.10,A,4138.0626202,N,07032.3862455,W,0.31,311.66,091223,,,A*5E
###2023-12-09 12:52:25.958032$GNGGA,175225.10,4138.0626202,N,07032.3862455,W,1,24,0.6,13.115,M,-29.744,M,0.0,*5E
###2023-12-09 12:52:25.959909$GPGSA,A,3,03,04,16,26,28,29,31,32,,,,,1.1,0.6,0.9*3B
###2023-12-09 12:52:25.961625$GLGSA,A,3,65,71,72,73,74,75,,,,,,,1.1,0.6,0.9*24
###2023-12-09 12:52:25.963219$GAGSA,A,3,04,19,21,27,,,,,,,,,1.1,0.6,0.9*26
###2023-12-09 12:52:25.964862$GBGSA,A,3,14,24,25,26,33,,,,,,,,1.1,0.6,0.9*2F
###2023-12-09 12:52:25.967484$GPGSV,2,1,08,03,37,267,45,04,29,311,45,16,45,210,45,26,75,209,48*7F
###2023-12-09 12:52:25.969829$GPGSV,2,2,08,28,52,066,43,29,26,065,40,31,71,026,46,32,23,138,40*7F
###2023-12-09 12:52:25.972168$GLGSV,2,1,06,65,19,329,44,71,47,171,45,72,72,288,46,73,40,038,43*6C
###2023-12-09 12:52:25.973904$GLGSV,2,2,06,74,71,321,43,75,28,248,46,,,,,,,,*65
###2023-12-09 12:52:25.976238$GAGSV,1,1,04,04,26,312,43,19,85,252,40,21,84,154,46,27,36,048,43*69
###2023-12-09 12:52:25.978556$GBGSV,2,1,05,14,48,194,44,24,77,014,48,25,37,258,46,26,29,060,42*66
###2023-12-09 12:52:25.980021$GBGSV,2,2,05,33,60,240,48,,,,,,,,,,,,*52
###2023-12-09 12:52:25.981337$GNVTG,311.66,T,,M,0.31,N,0.58,K,A*2F
###2023-12-09 12:52:25.982988$GNGST,175225.10,18.000,,,,0.077,0.068,0.160*50
