###2023-12-09 13:04:10.989093$GAGSV,1,1,04,04,30,312,42,19,83,207,41,21,86,104,46,27,32,048,43*6B
###2023-12-09 13:04:10.991466$GBGSV,2,1,05,14,43,193,46,24,73,026,48,25,41,263,47,26,26,063,42*69
###2023-12-09 13:04:10.992932$GBGSV,2,2,05,33,57,231,48,,,,,,,,,,,,*50
###2023-12-09 13:04:10.994227$GNVTG,94.03,T,,M,3.56,N,6.59,K,A*17
###2023-12-09 13:04:10.995889$GNGST,180410.10,18.000,,,,0.080,0.066,0.160*5C
###2023-12-09 13:04:10.997173$GNZDA,180410.10,09,12,2023,00,00*7C
###2023-12-09 13:04:10.997811$GNEBP,,,,,,M*13
###2023-12-09 13:04:11.165449$GNGGA,180410.30,4138.0593530,N,07032.3468726,W,1,24,0.6,13.191,M,-29.744,M,0.0,*50
###2023-12-09 13:04:11.365889$GNGGA,180410.50,4138.0593730,N,07032.3466040,W,1,24,0.6,13.189,M,-29.744,M,0.0,*54
###2023-12-09 13:04:11.567202$GNGGA,180410.70,4138.0593770,N,07032.3463413,W,1,24,0.6,13.177,M,-29.744,M,0.0,*54
###2023-12-09 13:04:11.766504$GNGGA,180410.90,4138.0593553,N,07032.3460716,W,1,24,0.6,13.186,M,-29.744,M,0.0,*52
###2023-12-09 13:04:11.969377$GNRMC,180411.10,A,4138.0593363,N,07032.3458087,W,3.48,92.85,091223,,,A*68
###2023-12-09 13:04:11.972268$GNGGA,180411.10,4138.0593363,N,07032.3458087,W,1,24,0.6,13.183,M,-29.744,M,0.0,*5F
###2023-12-09 13:04:11.974127$GPGSA,A,3,03,04,16,26,28,29,31,32,,,,,1.1,0.6,0.9*3B
###2023-12-09 13:04:11.975858$GLGSA,A,3,65,71,72,73,74,75,,,,,,,1.1,0.6,0.9*24
###2023-12-09 13:04:11.977444$GAGSA,A,3,04,19,21,27,,,,,,,,,1.1,0.6,0.9*26
###2023-12-09 13:04:11.979098$GBGSA,A,3,14,24,25,26,33,,,,,,,,1.1,0.6,0.9*2F
###2023-12-09 13:04:11.981425$GPGSV,2,1,08,03,34,260,45,04,33,311,42,16,51,213,48,26,81,210,48*7F
###2023-12-09 13:04:11.983761$GPGSV,2,2,08,28,48,071,43,29,25,060,41,31,68,040,46,32,18,140,41*7B
###2023-12-09 13:04:11.986097$GLGSV,2,1,06,65,25,327,39,71,40,173,46,72,73,265,46,73,35,042,44*6B
###2023-12-09 13:04:11.987845$GLGSV,2,2,06,74,69,340,43,75,33,254,47,,,,,,,,*6D
###2023-12-09 13:04:11.990174$GAGSV,1,1,04,04,30,312,41,19,83,207,41,21,86,104,46,27,32,048,43*68
###2023-12-09 13:04:11.992505$GBGSV,2,1,05,14,43,193,46,24,73,026,48,25,41,263,47,26,26,063,41*6A
###2023-12-09 13:04:11.993960$GBGSV,2,2,05,33,57,231,48,,,,,,,,,,,,*50
###2023-12-09 13:04:11.995259$GNVTG,92.85,T,,M,3.48,N,6.44,K,A*1C
###2023-12-09 13:04:11.996904$GNGST,180411.10,18.000,,,,0.080,0.066,0.160*5D
###2023-12-09 13:04:11.998196$GNZDA,180411.10,09,12,2023,00,00*7D
###2023-12-09 13:04:11.998844$GNEBP,,,,,,M*13
###2023-12-09 13:04:12.165362$GNGGA,180411.30,4138.0593349,N,07032.3455508,W,1,24,0.6,13.192,M,-29.744,M,0.0,*5A
###2023-12-09 13:04:12.370753$GNGGA,180411.50,4138.0593205,N,07032.3452879,W,1,24,0.6,13.187,M,-29.744,M,0.0,*5D
###2023-12-09 13:04:12.566216$GNGGA,180411.70,4138.0592983,N,07032.3450315,W,1,24,0.6,13.190,M,-29.744,M,0.0,*5E
###2023-12-09 13:04:12.766448$GNGGA,180411.90,4138.0592746,N,07032.3447723,W,1,24,0.6,13.194,M,-29.744,M,0.0,*54
###2023-12-09 13:04:12.968694$GNRMC,180412.10,A,4138.0592543,N,07032.3445199,W,3.34,93.23,091223,,,A*6A
###2023-12-09 13:04:12.971569$GNGGA,180412.10,4138.0592543,N,07032.3445199,W,1,24,0.6,13.185,M,-29.744,M,0.0,*5D
###2023-12-09 13:04:12.973426$GPGSA,A,3,03,04,16,26,28,29,31,32,,,,,1.1,0.6,0.9*3B
###2023-12-09 13:04:12.975167$GLGSA,A,3,65,71,72,73,74,75,,,,,,,1.1,0.6,0.9*24
###2023-12-09 13:04:12.976761$GAGSA,A,3,04,19,21,27,,,,,,,,,1.1,0.6,0.9*26
###2023-12-09 13:04:12.978417$GBGSA,A,3,14,24,25,26,33,,,,,,,,1.1,0.6,0.9*2F
###2023-12-09 13:04:12.980763$GPGSV,2,1,08,03,34,260,46,04,33,311,42,16,51,213,48,26,81,210,49*7D
###2023-12-09 13:04:12.983114$GPGSV,2,2,08,28,48,071,44,29,25,060,41,31,68,040,47,32,18,140,43*7F
###2023-12-09 13:04:12.985443$GLGSV,2,1,06,65,25,327,41,71,40,173,46,72,73,265,46,73,35,042,44*64
###2023-12-09 13:04:12.987201$GLGSV,2,2,06,74,69,340,43,75,33,254,48,,,,,,,,*62
###2023-12-09 13:04:12.989533$GAGSV,1,1,04,04,30,312,41,19,83,207,41,21,86,104,46,27,32,048,42*69
###2023-12-09 13:04:12.991879$GBGSV,2,1,05,14,43,193,46,24,73,026,49,25,41,263,47,26,26,063,41*6B
###2023-12-09 13:04:12.993336$GBGSV,2,2,05,33,57,231,48,,,,,,,,,,,,*50
###2023-12-09 13:04:12.994639$GNVTG,93.23,T,,M,3.34,N,6.19,K,A*12
###2023-12-09 13:04:12.996297$GNGST,180412.10,18.000,,,,0.080,0.066,0.150*5D
###2023-12-09 13:04:12.997593$GNZDA,180412.10,09,12,2023,00,00*7E
###2023-12-09 13:04:12.998231$GNEBP,,,,,,M*13
###2023-12-09 13:04:13.165378$GNGGA,180412.30,4138.0592491,N,07032.3442676,W,1,24,0.6,13.201,M,-29.744,M,0.0,*5F
###2023-12-09 13:04:13.365777$GNGGA,180412.50,4138.0592310,N,07032.3440053,W,1,24,0.6,13.189,M,-29.744,M,0.0,*57
###2023-12-09 13:04:13.564907$GNGGA,180412.70,4138.0592148,N,07032.3437568,W,1,24,0.6,13.181,M,-29.744,M,0.0,*5F
###2023-12-09 13:04:13.765742$GNGGA,180412.90,4138.0592115,N,07032.3435054,W,1,24,0.6,13.199,M,-29.744,M,0.0,*58
###2023-12-09 13:04:13.970247$GNRMC,180413.10,A,4138.0592074,N,07032.3432441,W,3.50,93.50,091223,,,A*6C
###2023-12-09 13:04:13.973145$GNGGA,180413.10,4138.0592074,N,07032.3432441,W,1,24,0.6,13.195,M,-29.744,M,0.0,*5C
###2023-12-09 13:04:13.975024$GPGSA,A,3,03,04,16,26,28,29,31,32,,,,,1.1,0.6,0.9*3B
###2023-12-09 13:04:13.976742$GLGSA,A,3,65,71,72,73,74,75,,,,,,,1.1,0.6,0.9*24
###2023-12-09 13:04:13.978313$GAGSA,A,3,04,19,21,27,,,,,,,,,1.1,0.6,0.9*26
###2023-12-09 13:04:13.979967$GBGSA,A,3,14,24,25,26,33,,,,,,,,1.1,0.6,0.9*2F
###2023-12-09 13:04:13.982276$GPGSV,2,1,08,03,34,260,45,04,33,311,42,16,51,213,47,26,81,210,48*70
###2023-12-09 13:04:13.984621$GPGSV,2,2,08,28,48,071,44,29,25,060,40,31,68,040,47,32,18,140,42*7F
###2023-12-09 13:04:13.986970$GLGSV,2,1,06,65,25,327,42,71,40,173,46,72,73,265,46,73,35,042,44*67
###2023-12-09 13:04:13.988718$GLGSV,2,2,06,74,69,340,43,75,33,254,47,,,,,,,,*6D
###2023-12-09 13:04:13.991057$GAGSV,1,1,04,04,30,312,41,19,83,207,41,21,86,104,46,27,32,048,43*68
###2023-12-09 13:04:13.993393$GBGSV,2,1,05,14,43,193,45,24,73,026,48,25,41,263,46,26,26,063,42*6B
###2023-12-09 13:04:13.994876$GBGSV,2,2,05,33,57,231,47,,,,,,,,,,,,*5F
###2023-12-09 13:04:13.996167$GNVTG,93.50,T,,M,3.50,N,6.48,K,A*10
###2023-12-09 13:04:13.997815$GNGST,180413.10,18.000,,,,0.079,0.066,0.150*5A
###2023-12-09 13:04:13.999122$GNZDA,180413.10,09,12,2023,00,00*7F
###2023-12-09 13:04:13.999763$GNEBP,,,,,,M*13
###2023-12-09 13:04:14.164215$GNGGA,180413.30,4138.0592013,N,07032.3429893,W,1,24,0.6,13.186,M,-29.744,M,0.0,*54
###2023-12-09 13:04:14.365001$GNGGA,180413.50,4138.0592049,N,07032.3427322,W,1,24,0.6,13.198,M,-29.744,M,0.0,*5D
###2023-12-09 13:04:14.564933$GNGGA,180413.70,4138.0592058,N,07032.3424730,W,1,24,0.6,13.198,M,-29.744,M,0.0,*5B
###2023-12-09 13:04:14.765061$GNGGA,180413.90,4138.0592220,N,07032.3422191,W,1,24,0.6,13.199,M,-29.743,M,0.0,*55
###2023-12-09 13:04:14.966297$GNRMC,180414.10,A,4138.0592266,N,07032.3419603,W,3.30,91.25,091223,,,A*61
###2023-12-09 13:04:14.969181$GNGGA,180414.10,4138.0592266,N,07032.3419603,W,1,24,0.6,13.184,M,-29.743,M,0.0,*50
###2023-12-09 13:04:14.971061$GPGSA,A,3,03,04,16,26,28,29,31,32,,,,,1.1,0.6,0.9*3B
###2023-12-09 13:04:14.972790$GLGSA,A,3,65,71,72,73,74,75,,,,,,,1.1,0.6,0.9*24
###2023-12-09 13:04:14.974388$GAGSA,A,3,04,19,21,27,,,,,,,,,1.1,0.6,0.9*26
###2023-12-09 13:04:14.976056$GBGSA,A,3,14,24,25,26,33,,,,,,,,1.1,0.6,0.9*2F
###2023-12-09 13:04:14.978388$GPGSV,2,1,08,03,34,260,45,04,33,311,42,16,51,213,47,26,81,210,48*70
###2023-12-09 13:04:14.980750$GPGSV,2,2,08,28,48,071,44,29,25,060,41,31,68,040,47,32,18,140,43*7F
###2023-12-09 13:04:14.983107$GLGSV,2,1,06,65,25,327,42,71,40,173,47,72,73,265,46,73,35,042,45*67
###2023-12-09 13:04:14.984859$GLGSV,2,2,06,74,69,340,43,75,33,254,48,,,,,,,,*62
###2023-12-09 13:04:14.987210$GAGSV,1,1,04,04,30,312,40,19,83,207,41,21,86,104,46,27,32,048,43*69
###2023-12-09 13:04:14.989549$GBGSV,2,1,05,14,43,193,47,24,73,026,49,25,41,263,47,26,26,063,42*69
###2023-12-09 13:04:14.991026$GBGSV,2,2,05,33,57,231,48,,,,,,,,,,,,*50
###2023-12-09 13:04:14.992319$GNVTG,91.25,T,,M,3.30,N,6.12,K,A*19
###2023-12-09 13:04:14.993971$GNGST,180414.10,18.000,,,,0.079,0.066,0.150*5D
###2023-12-09 13:04:14.995277$GNZDA,180414.10,09,12,2023,00,00*78
###2023-12-09 13:04:14.995918$GNEBP,,,,,,M*13
###2023-12-09 13:04:15.167437$GNGGA,180414.30,4138.0592331,N,07032.3417181,W,1,24,0.6,13.195,M,-29.743,M,0.0,*52
###2023-12-09 13:04:15.369037$GNGGA,180414.50,4138.0592484,N,07032.3414606,W,1,24,0.6,13.206,M,-29.743,M,0.0,*5F
###2023-12-09 13:04:15.564865$GNGGA,180414.70,4138.0592479,N,07032.3412121,W,1,24,0.6,13.175,M,-29.743,M,0.0,*5C
###2023-12-09 13:04:15.765164$GNGGA,180414.90,4138.0592410,N,07032.3409686,W,1,24,0.6,13.196,M,-29.743,M,0.0,*50
###2023-12-09 13:04:15.968691$GNRMC,180415.10,A,4138.0592292,N,07032.3407099,W,3.42,95.95,091223,,,A*6B
###2023-12-09 13:04:15.971584$GNGGA,180415.10,4138.0592292,N,07032.3407099,W,1,24,0.6,13.197,M,-29.743,M,0.0,*52
###2023-12-09 13:04:15.973456$GPGSA,A,3,03,04,16,26,28,29,31,32,,,,,1.1,0.6,0.9*3B
###2023-12-09 13:04:15.975196$GLGSA,A,3,65,71,72,73,74,75,,,,,,,1.1,0.6,0.9*24
###2023-12-09 13:04:15.976796$GAGSA,A,3,04,19,21,27,,,,,,,,,1.1,0.6,0.9*26
