###2023-12-09 13:33:38.004003$GLGSA,A,3,65,71,72,73,74,75,,,,,,,1.0,0.6,0.8*24
###2023-12-09 13:33:38.005607$GAGSA,A,3,04,19,21,27,,,,,,,,,1.0,0.6,0.8*26
###2023-12-09 13:33:38.007404$GBGSA,A,3,12,14,24,25,26,33,35,,,,,,1.0,0.6,0.8*2A
###2023-12-09 13:33:38.009731$GPGSV,2,1,08,03,27,247,38,04,46,308,43,16,66,222,45,26,84,040,48*70
###2023-12-09 13:33:38.012083$GPGSV,2,2,08,27,16,172,36,28,38,084,45,29,21,047,42,31,59,066,46*7F
###2023-12-09 13:33:38.014410$GLGSV,2,1,06,65,38,319,43,71,23,175,40,72,63,222,44,73,23,052,42*62
###2023-12-09 13:33:38.016159$GLGSV,2,2,06,74,60,013,42,75,43,271,46,,,,,,,,*61
###2023-12-09 13:33:38.018477$GAGSV,1,1,04,04,39,310,44,19,73,182,40,21,77,047,46,27,23,050,41*65
###2023-12-09 13:33:38.020809$GBGSV,2,1,07,12,15,126,42,14,29,190,42,24,63,045,48,25,50,275,46*65
###2023-12-09 13:33:38.022875$GBGSV,2,2,07,26,16,070,43,33,46,217,45,35,16,057,45,,,,*5A
###2023-12-09 13:33:38.024198$GNVTG,189.80,T,,M,2.60,N,4.82,K,A*21
###2023-12-09 13:33:38.025805$GNGST,183337.10,5.500,,,,0.089,0.068,0.150*60
###2023-12-09 13:33:38.027105$GNZDA,183337.10,09,12,2023,00,00*7D
###2023-12-09 13:33:38.027743$GNEBP,,,,,,M*13
###2023-12-09 13:33:38.194218$GNGGA,183337.30,4138.0554149,N,07032.4162079,W,1,26,0.6,13.549,M,-29.745,M,0.0,*57
###2023-12-09 13:33:38.392007$GNGGA,183337.50,4138.0552764,N,07032.4162350,W,1,26,0.6,13.539,M,-29.745,M,0.0,*51
###2023-12-09 13:33:38.592286$GNGGA,183337.70,4138.0551322,N,07032.4162691,W,1,26,0.6,13.559,M,-29.745,M,0.0,*58
###2023-12-09 13:33:38.792970$GNGGA,183337.90,4138.0549902,N,07032.4162879,W,1,26,0.6,13.561,M,-29.745,M,0.0,*54
###2023-12-09 13:33:38.997801$GNRMC,183338.10,A,4138.0548495,N,07032.4162917,W,2.57,180.65,091223,,,A*57
###2023-12-09 13:33:39.000683$GNGGA,183338.10,4138.0548495,N,07032.4162917,W,1,26,0.6,13.541,M,-29.745,M,0.0,*5A
###2023-12-09 13:33:39.002535$GPGSA,A,3,03,04,16,26,27,28,29,31,,,,,1.0,0.6,0.8*3F
###2023-12-09 13:33:39.004254$GLGSA,A,3,65,71,72,73,74,75,,,,,,,1.0,0.6,0.8*24
###2023-12-09 13:33:39.005834$GAGSA,A,3,04,19,21,27,,,,,,,,,1.0,0.6,0.8*26
###2023-12-09 13:33:39.007612$GBGSA,A,3,12,14,24,25,26,33,35,,,,,,1.0,0.6,0.8*2A
###2023-12-09 13:33:39.009930$GPGSV,2,1,08,03,27,247,40,04,46,308,45,16,66,222,45,26,84,040,48*79
###2023-12-09 13:33:39.012254$GPGSV,2,2,08,27,16,172,37,28,38,084,44,29,21,047,41,31,59,066,46*7C
###2023-12-09 13:33:39.014587$GLGSV,2,1,06,65,38,319,40,71,23,175,40,72,63,222,44,73,23,052,43*60
###2023-12-09 13:33:39.016330$GLGSV,2,2,06,74,60,013,42,75,43,271,47,,,,,,,,*60
###2023-12-09 13:33:39.018659$GAGSV,1,1,04,04,39,310,43,19,73,182,40,21,77,047,46,27,23,050,40*63
###2023-12-09 13:33:39.020981$GBGSV,2,1,07,12,15,126,42,14,29,190,41,24,63,045,49,25,50,275,48*69
###2023-12-09 13:33:39.023017$GBGSV,2,2,07,26,16,070,43,33,46,217,46,35,16,057,45,,,,*59
###2023-12-09 13:33:39.024338$GNVTG,180.65,T,,M,2.57,N,4.75,K,A*2F
###2023-12-09 13:33:39.025940$GNGST,183338.10,5.700,,,,0.089,0.068,0.150*6D
###2023-12-09 13:33:39.027268$GNZDA,183338.10,09,12,2023,00,00*72
###2023-12-09 13:33:39.027909$GNEBP,,,,,,M*13
###2023-12-09 13:33:39.198211$GNGGA,183338.30,4138.0547033,N,07032.4162980,W,1,26,0.6,13.532,M,-29.745,M,0.0,*55
###2023-12-09 13:33:39.392928$GNGGA,183338.50,4138.0545564,N,07032.4163300,W,1,26,0.6,13.551,M,-29.745,M,0.0,*50
###2023-12-09 13:33:39.596784$GNGGA,183338.70,4138.0544066,N,07032.4163560,W,1,26,0.6,13.558,M,-29.745,M,0.0,*5D
###2023-12-09 13:33:39.794589$GNGGA,183338.90,4138.0542600,N,07032.4163339,W,1,26,0.6,13.533,M,-29.745,M,0.0,*54
###2023-12-09 13:33:39.995439$GNRMC,183339.10,A,4138.0541165,N,07032.4163106,W,2.66,179.93,091223,,,A*51
###2023-12-09 13:33:39.998296$GNGGA,183339.10,4138.0541165,N,07032.4163106,W,1,26,0.6,13.533,M,-29.745,M,0.0,*54
###2023-12-09 13:33:40.000162$GPGSA,A,3,03,04,16,26,27,28,29,31,,,,,1.0,0.6,0.8*3F
###2023-12-09 13:33:40.001873$GLGSA,A,3,65,71,72,73,74,75,,,,,,,1.0,0.6,0.8*24
###2023-12-09 13:33:40.003461$GAGSA,A,3,04,19,21,27,,,,,,,,,1.0,0.6,0.8*26
###2023-12-09 13:33:40.005228$GBGSA,A,3,12,14,24,25,26,33,35,,,,,,1.0,0.6,0.8*2A
###2023-12-09 13:33:40.007574$GPGSV,2,1,08,03,27,247,42,04,46,308,44,16,66,222,45,26,84,040,48*7A
###2023-12-09 13:33:40.009910$GPGSV,2,2,08,27,16,172,40,28,38,084,45,29,21,047,43,31,59,066,46*7F
###2023-12-09 13:33:40.012247$GLGSV,2,1,06,65,38,319,42,71,23,175,39,72,63,222,44,73,23,052,43*6C
###2023-12-09 13:33:40.013991$GLGSV,2,2,06,74,60,013,43,75,43,271,47,,,,,,,,*61
###2023-12-09 13:33:40.016317$GAGSV,1,1,04,04,39,310,42,19,73,182,40,21,77,047,46,27,23,050,42*60
###2023-12-09 13:33:40.018655$GBGSV,2,1,07,12,15,126,41,14,29,190,40,24,63,045,49,25,50,275,47*64
###2023-12-09 13:33:40.020690$GBGSV,2,2,07,26,16,070,45,33,46,217,46,35,16,057,44,,,,*5E
###2023-12-09 13:33:40.022013$GNVTG,179.93,T,,M,2.66,N,4.93,K,A*2A
###2023-12-09 13:33:40.023635$GNGST,183339.10,5.000,,,,0.089,0.068,0.150*6B
###2023-12-09 13:33:40.024916$GNZDA,183339.10,09,12,2023,00,00*73
###2023-12-09 13:33:40.025550$GNEBP,,,,,,M*13
###2023-12-09 13:33:40.191872$GNGGA,183339.30,4138.0539600,N,07032.4163248,W,1,27,0.6,13.557,M,-29.745,M,0.0,*57
###2023-12-09 13:33:40.392039$GNGGA,183339.50,4138.0538016,N,07032.4163256,W,1,27,0.6,13.549,M,-29.745,M,0.0,*51
###2023-12-09 13:33:40.591080$GNGGA,183339.70,4138.0536582,N,07032.4162889,W,1,26,0.6,13.546,M,-29.745,M,0.0,*52
###2023-12-09 13:33:40.791538$GNGGA,183339.90,4138.0535101,N,07032.4162425,W,1,26,0.6,13.555,M,-29.745,M,0.0,*58
###2023-12-09 13:33:40.995674$GNRMC,183340.10,A,4138.0533552,N,07032.4162064,W,2.78,171.38,091223,,,A*58
###2023-12-09 13:33:40.998551$GNGGA,183340.10,4138.0533552,N,07032.4162064,W,1,26,0.6,13.542,M,-29.745,M,0.0,*5D
###2023-12-09 13:33:41.000432$GPGSA,A,3,03,04,16,26,27,28,29,31,,,,,1.0,0.6,0.8*3F
###2023-12-09 13:33:41.002158$GLGSA,A,3,65,71,72,73,74,75,,,,,,,1.0,0.6,0.8*24
###2023-12-09 13:33:41.003758$GAGSA,A,3,04,19,21,27,,,,,,,,,1.0,0.6,0.8*26
###2023-12-09 13:33:41.005539$GBGSA,A,3,12,14,24,25,26,33,35,,,,,,1.0,0.6,0.8*2A
###2023-12-09 13:33:41.007887$GPGSV,2,1,08,03,27,247,42,04,46,308,44,16,66,222,45,26,84,040,48*7A
###2023-12-09 13:33:41.010215$GPGSV,2,2,08,27,16,172,39,28,38,084,45,29,21,047,43,31,59,066,46*71
###2023-12-09 13:33:41.012563$GLGSV,2,1,06,65,38,319,43,71,23,175,40,72,63,222,45,73,23,052,43*62
###2023-12-09 13:33:41.014312$GLGSV,2,2,06,74,60,013,42,75,43,271,47,,,,,,,,*60
###2023-12-09 13:33:41.016658$GAGSV,1,1,04,04,39,310,41,19,73,182,40,21,77,047,45,27,23,050,40*62
###2023-12-09 13:33:41.019003$GBGSV,2,1,07,12,15,126,39,14,29,190,38,24,63,045,47,25,50,275,47*6A
###2023-12-09 13:33:41.021042$GBGSV,2,2,07,26,16,070,44,33,46,217,45,35,16,057,42,,,,*5A
###2023-12-09 13:33:41.022368$GNVTG,171.38,T,,M,2.78,N,5.15,K,A*23
###2023-12-09 13:33:41.024003$GNGST,183340.10,5.200,,,,0.089,0.068,0.150*67
###2023-12-09 13:33:41.025294$GNZDA,183340.10,09,12,2023,00,00*7D
###2023-12-09 13:33:41.025934$GNEBP,,,,,,M*13
###2023-12-09 13:33:41.191755$GNGGA,183340.30,4138.0532000,N,07032.4161857,W,1,27,0.6,13.560,M,-29.745,M,0.0,*56
###2023-12-09 13:33:41.392004$GNGGA,183340.50,4138.0530373,N,07032.4161442,W,1,26,0.6,13.571,M,-29.745,M,0.0,*5C
###2023-12-09 13:33:41.592413$GNGGA,183340.70,4138.0528854,N,07032.4160762,W,1,26,0.6,13.538,M,-29.745,M,0.0,*54
###2023-12-09 13:33:41.792879$GNGGA,183340.90,4138.0527279,N,07032.4160414,W,1,26,0.6,13.561,M,-29.745,M,0.0,*5E
###2023-12-09 13:33:41.996601$GNRMC,183341.10,A,4138.0525551,N,07032.4160241,W,3.09,169.96,091223,,,A*50
###2023-12-09 13:33:41.999467$GNGGA,183341.10,4138.0525551,N,07032.4160241,W,1,26,0.6,13.579,M,-29.745,M,0.0,*57
###2023-12-09 13:33:42.001324$GPGSA,A,3,03,04,16,26,27,28,29,31,,,,,1.0,0.6,0.8*3F
###2023-12-09 13:33:42.003054$GLGSA,A,3,65,71,72,73,74,75,,,,,,,1.0,0.6,0.8*24
###2023-12-09 13:33:42.004641$GAGSA,A,3,04,19,21,27,,,,,,,,,1.0,0.6,0.8*26
###2023-12-09 13:33:42.006417$GBGSA,A,3,12,14,24,25,26,33,35,,,,,,1.0,0.6,0.8*2A
###2023-12-09 13:33:42.008758$GPGSV,2,1,08,03,27,247,42,04,46,308,45,16,66,222,46,26,84,040,47*77
###2023-12-09 13:33:42.011096$GPGSV,2,2,08,27,16,172,40,28,38,084,44,29,21,047,42,31,59,066,46*7F
###2023-12-09 13:33:42.013421$GLGSV,2,1,06,65,38,319,43,71,23,175,41,72,63,222,46,73,23,052,42*61
###2023-12-09 13:33:42.015445$GLGSV,2,2,06,74,60,013,42,75,43,271,48,,,,,,,,*6F
###2023-12-09 13:33:42.017788$GAGSV,1,1,04,04,39,310,43,19,73,182,40,21,77,047,45,27,23,050,40*60
###2023-12-09 13:33:42.020135$GBGSV,2,1,07,12,15,126,40,14,29,190,40,24,63,045,48,25,50,275,48*6B
###2023-12-09 13:33:42.022181$GBGSV,2,2,07,26,16,070,44,33,46,217,47,35,16,057,42,,,,*58
###2023-12-09 13:33:42.023522$GNVTG,169.96,T,,M,3.09,N,5.72,K,A*28
###2023-12-09 13:33:42.025136$GNGST,183341.10,5.100,,,,0.089,0.068,0.150*65
###2023-12-09 13:33:42.026423$GNZDA,183341.10,09,12,2023,00,00*7C
###2023-12-09 13:33:42.027072$GNEBP,,,,,,M*13
###2023-12-09 13:33:42.195315$GNGGA,183341.30,4138.0523933,N,07032.4159674,W,1,26,0.6,13.550,M,-29.745,M,0.0,*58
###2023-12-09 13:33:42.393514$GNGGA,183341.50,4138.0522351,N,07032.4159070,W,1,27,0.6,13.550,M,-29.745,M,0.0,*52
