###2023-12-09 13:45:10.025579$GBGSV,1,1,04,12,19,123,42,24,59,051,48,25,54,281,40,35,16,052,39*65
###2023-12-09 13:45:10.026964$GNVTG,243.17,T,,M,0.04,N,0.07,K,A*23
###2023-12-09 13:45:10.028578$GNGST,184509.10,7.200,,,,0.190,0.110,0.300*69
###2023-12-09 13:45:10.029860$GNZDA,184509.10,09,12,2023,00,00*71
###2023-12-09 13:45:10.030496$GNEBP,,,,,,M*13
###2023-12-09 13:45:10.199927$GNGGA,184509.30,4138.0392892,N,07032.4388731,W,1,19,0.8,14.138,M,-29.746,M,0.0,*51
###2023-12-09 13:45:10.399408$GNGGA,184509.50,4138.0392895,N,07032.4388729,W,1,19,0.8,14.138,M,-29.746,M,0.0,*59
###2023-12-09 13:45:10.597777$GNGGA,184509.70,4138.0392924,N,07032.4388726,W,1,19,0.8,14.143,M,-29.746,M,0.0,*53
###2023-12-09 13:45:10.798980$GNGGA,184509.90,4138.0392926,N,07032.4388729,W,1,18,0.8,14.147,M,-29.746,M,0.0,*55
###2023-12-09 13:45:11.003716$GNRMC,184510.10,A,4138.0392925,N,07032.4388725,W,0.02,243.17,091223,,,A*59
###2023-12-09 13:45:11.006621$GNGGA,184510.10,4138.0392925,N,07032.4388725,W,1,17,0.8,14.158,M,-29.746,M,0.0,*5B
###2023-12-09 13:45:11.008356$GPGSA,A,3,04,16,26,28,29,31,,,,,,,1.3,0.8,1.1*3C
###2023-12-09 13:45:11.010015$GLGSA,A,3,65,73,74,75,83,,,,,,,,1.3,0.8,1.1*29
###2023-12-09 13:45:11.011494$GAGSA,A,3,04,27,,,,,,,,,,,1.3,0.8,1.1*28
###2023-12-09 13:45:11.013084$GBGSA,A,3,12,24,25,35,,,,,,,,,1.3,0.8,1.1*2E
###2023-12-09 13:45:11.015437$GPGSV,2,1,06,04,51,304,46,16,71,227,44,26,79,041,41,28,34,089,45*78
###2023-12-09 13:45:11.017225$GPGSV,2,2,06,29,18,043,44,31,56,072,49,,,,,,,,*73
###2023-12-09 13:45:11.019572$GLGSV,2,1,05,65,42,313,45,73,18,056,43,74,56,022,36,75,47,279,45*66
###2023-12-09 13:45:11.021032$GLGSV,2,2,05,83,16,042,37,,,,,,,,,,,,*5E
###2023-12-09 13:45:11.022794$GAGSV,1,1,02,04,43,308,44,27,19,051,39,,,,,,,,*61
###2023-12-09 13:45:11.025128$GBGSV,1,1,04,12,19,123,42,24,59,051,48,25,54,281,41,35,16,052,37*6A
###2023-12-09 13:45:11.026455$GNVTG,243.17,T,,M,0.02,N,0.04,K,A*26
###2023-12-09 13:45:11.028085$GNGST,184510.10,6.800,,,,0.190,0.110,0.300*6A
###2023-12-09 13:45:11.029381$GNZDA,184510.10,09,12,2023,00,00*79
###2023-12-09 13:45:11.030022$GNEBP,,,,,,M*13
###2023-12-09 13:45:11.200315$GNGGA,184510.30,4138.0392924,N,07032.4388729,W,1,17,0.8,14.159,M,-29.746,M,0.0,*55
###2023-12-09 13:45:11.401938$GNGGA,184510.50,4138.0392904,N,07032.4388726,W,1,18,0.8,14.156,M,-29.746,M,0.0,*5E
###2023-12-09 13:45:11.600054$GNGGA,184510.70,4138.0392919,N,07032.4388724,W,1,18,0.8,14.161,M,-29.746,M,0.0,*56
###2023-12-09 13:45:11.803602$GNGGA,184510.90,4138.0392919,N,07032.4388736,W,1,19,0.7,14.161,M,-29.746,M,0.0,*55
###2023-12-09 13:45:12.003023$GNRMC,184511.10,A,4138.0392921,N,07032.4388739,W,0.02,243.17,091223,,,A*51
###2023-12-09 13:45:12.005883$GNGGA,184511.10,4138.0392921,N,07032.4388739,W,1,19,0.7,14.165,M,-29.746,M,0.0,*5C
###2023-12-09 13:45:12.007618$GPGSA,A,3,04,16,26,28,29,31,,,,,,,1.3,0.7,1.1*33
###2023-12-09 13:45:12.009301$GLGSA,A,3,65,73,74,75,83,,,,,,,,1.3,0.7,1.1*26
###2023-12-09 13:45:12.010765$GAGSA,A,3,04,27,,,,,,,,,,,1.3,0.7,1.1*27
###2023-12-09 13:45:12.012464$GBGSA,A,3,12,14,24,25,33,35,,,,,,,1.3,0.7,1.1*24
###2023-12-09 13:45:12.014786$GPGSV,2,1,06,04,51,304,47,16,71,227,43,26,79,041,41,28,34,089,45*7E
###2023-12-09 13:45:12.016535$GPGSV,2,2,06,29,18,043,43,31,56,072,49,,,,,,,,*74
###2023-12-09 13:45:12.018883$GLGSV,2,1,05,65,42,313,45,73,18,056,42,74,56,022,36,75,47,279,46*64
###2023-12-09 13:45:12.020332$GLGSV,2,2,05,83,16,042,37,,,,,,,,,,,,*5E
###2023-12-09 13:45:12.022065$GAGSV,1,1,02,04,43,308,44,27,19,051,39,,,,,,,,*61
###2023-12-09 13:45:12.024385$GBGSV,2,1,06,12,19,123,41,14,24,189,35,24,59,051,47,25,54,281,41*60
###2023-12-09 13:45:12.026119$GBGSV,2,2,06,33,41,214,35,35,16,052,38,,,,,,,,*64
###2023-12-09 13:45:12.027451$GNVTG,243.17,T,,M,0.02,N,0.04,K,A*26
###2023-12-09 13:45:12.029058$GNGST,184511.10,7.400,,,,0.190,0.110,0.300*66
###2023-12-09 13:45:12.030339$GNZDA,184511.10,09,12,2023,00,00*78
###2023-12-09 13:45:12.030989$GNEBP,,,,,,M*13
###2023-12-09 13:45:12.201074$GNGGA,184511.30,4138.0392915,N,07032.4388723,W,1,20,0.7,14.168,M,-29.746,M,0.0,*55
###2023-12-09 13:45:12.399640$GNGGA,184511.50,4138.0392930,N,07032.4388718,W,1,19,0.7,14.173,M,-29.746,M,0.0,*5C
###2023-12-09 13:45:12.599705$GNGGA,184511.70,4138.0392943,N,07032.4388715,W,1,19,0.7,14.176,M,-29.746,M,0.0,*52
###2023-12-09 13:45:12.800263$GNGGA,184511.90,4138.0392953,N,07032.4388720,W,1,19,0.7,14.176,M,-29.746,M,0.0,*5B
###2023-12-09 13:45:13.002284$GNRMC,184512.10,A,4138.0392960,N,07032.4388707,W,0.02,243.17,091223,,,A*5A
###2023-12-09 13:45:13.005151$GNGGA,184512.10,4138.0392960,N,07032.4388707,W,1,19,0.8,14.183,M,-29.746,M,0.0,*50
###2023-12-09 13:45:13.006885$GPGSA,A,3,04,16,26,28,29,31,,,,,,,1.3,0.8,1.1*3C
###2023-12-09 13:45:13.008528$GLGSA,A,3,65,73,74,75,83,,,,,,,,1.3,0.8,1.1*29
###2023-12-09 13:45:13.010044$GAGSA,A,3,04,21,27,,,,,,,,,,1.3,0.8,1.1*2B
###2023-12-09 13:45:13.011711$GBGSA,A,3,12,14,24,25,35,,,,,,,,1.3,0.8,1.1*2B
###2023-12-09 13:45:13.014035$GPGSV,2,1,06,04,51,304,47,16,71,227,43,26,79,041,40,28,34,089,45*7F
###2023-12-09 13:45:13.015794$GPGSV,2,2,06,29,18,043,43,31,56,072,48,,,,,,,,*75
###2023-12-09 13:45:13.018112$GLGSV,2,1,05,65,42,313,45,73,18,056,43,74,56,022,36,75,47,279,46*65
###2023-12-09 13:45:13.019580$GLGSV,2,2,05,83,16,042,37,,,,,,,,,,,,*5E
###2023-12-09 13:45:13.021615$GAGSV,1,1,03,04,43,308,44,21,73,044,35,27,19,051,39,,,,*51
###2023-12-09 13:45:13.023950$GBGSV,2,1,05,12,19,123,42,14,24,189,35,24,59,051,48,25,54,281,41*6F
###2023-12-09 13:45:13.025395$GBGSV,2,2,05,35,16,052,36,,,,,,,,,,,,*5D
###2023-12-09 13:45:13.026720$GNVTG,243.17,T,,M,0.02,N,0.04,K,A*26
###2023-12-09 13:45:13.028323$GNGST,184512.10,7.500,,,,0.190,0.110,0.300*64
###2023-12-09 13:45:13.029606$GNZDA,184512.10,09,12,2023,00,00*7B
###2023-12-09 13:45:13.030240$GNEBP,,,,,,M*13
###2023-12-09 13:45:13.200412$GNGGA,184512.30,4138.0392964,N,07032.4388709,W,1,18,0.8,14.185,M,-29.746,M,0.0,*5F
###2023-12-09 13:45:13.402330$GNGGA,184512.50,4138.0392961,N,07032.4388709,W,1,18,0.8,14.187,M,-29.746,M,0.0,*5E
###2023-12-09 13:45:13.598894$GNGGA,184512.70,4138.0392955,N,07032.4388712,W,1,18,0.8,14.183,M,-29.746,M,0.0,*55
###2023-12-09 13:45:13.798765$GNGGA,184512.90,4138.0392958,N,07032.4388720,W,1,18,0.8,14.185,M,-29.746,M,0.0,*51
###2023-12-09 13:45:14.005717$GNRMC,184513.10,A,4138.0392951,N,07032.4388714,W,0.02,243.17,091223,,,A*5B
###2023-12-09 13:45:14.009316$GNGGA,184513.10,4138.0392951,N,07032.4388714,W,1,18,0.8,14.189,M,-29.746,M,0.0,*5A
###2023-12-09 13:45:14.011421$GPGSA,A,3,04,16,26,28,29,31,,,,,,,1.3,0.8,1.1*3C
###2023-12-09 13:45:14.013424$GLGSA,A,3,65,73,74,75,83,,,,,,,,1.3,0.8,1.1*29
###2023-12-09 13:45:14.015210$GAGSA,A,3,04,27,,,,,,,,,,,1.3,0.8,1.1*28
###2023-12-09 13:45:14.017204$GBGSA,A,3,12,14,24,25,35,,,,,,,,1.3,0.8,1.1*2B
###2023-12-09 13:45:14.020023$GPGSV,2,1,06,04,51,304,47,16,71,227,43,26,79,041,40,28,34,089,45*7F
###2023-12-09 13:45:14.022130$GPGSV,2,2,06,29,18,043,43,31,56,072,49,,,,,,,,*74
###2023-12-09 13:45:14.024982$GLGSV,2,1,05,65,42,313,44,73,18,056,43,74,56,022,36,75,47,279,46*64
###2023-12-09 13:45:14.026762$GLGSV,2,2,05,83,16,042,37,,,,,,,,,,,,*5E
###2023-12-09 13:45:14.028862$GAGSV,1,1,02,04,43,308,44,27,19,051,39,,,,,,,,*61
###2023-12-09 13:45:14.031698$GBGSV,2,1,05,12,19,123,42,14,24,189,35,24,59,051,48,25,54,281,40*6E
###2023-12-09 13:45:14.033452$GBGSV,2,2,05,35,16,052,36,,,,,,,,,,,,*5D
###2023-12-09 13:45:14.035080$GNVTG,243.17,T,,M,0.02,N,0.04,K,A*26
###2023-12-09 13:45:14.037031$GNGST,184513.10,7.200,,,,0.190,0.110,0.300*62
###2023-12-09 13:45:14.038607$GNZDA,184513.10,09,12,2023,00,00*7A
###2023-12-09 13:45:14.039376$GNEBP,,,,,,M*13
###2023-12-09 13:45:14.199418$GNGGA,184513.30,4138.0392958,N,07032.4388712,W,1,19,0.8,14.194,M,-29.746,M,0.0,*5A
###2023-12-09 13:45:14.400345$GNGGA,184513.50,4138.0392959,N,07032.4388730,W,1,18,0.8,14.197,M,-29.746,M,0.0,*5F
###2023-12-09 13:45:14.606203$GNGGA,184513.70,4138.0392951,N,07032.4388732,W,1,19,0.8,14.194,M,-29.746,M,0.0,*55
###2023-12-09 13:45:14.800155$GNGGA,184513.90,4138.0392964,N,07032.4388720,W,1,18,0.8,14.198,M,-29.746,M,0.0,*53
###2023-12-09 13:45:15.002069$GNRMC,184514.10,A,4138.0392959,N,07032.4388715,W,0.04,243.17,091223,,,A*53
###2023-12-09 13:45:15.005205$GNGGA,184514.10,4138.0392959,N,07032.4388715,W,1,18,0.8,14.203,M,-29.746,M,0.0,*55
###2023-12-09 13:45:15.006959$GPGSA,A,3,04,16,26,28,29,31,,,,,,,1.3,0.8,1.1*3C
###2023-12-09 13:45:15.008612$GLGSA,A,3,65,73,74,75,83,,,,,,,,1.3,0.8,1.1*29
###2023-12-09 13:45:15.010067$GAGSA,A,3,04,27,,,,,,,,,,,1.3,0.8,1.1*28
###2023-12-09 13:45:15.011720$GBGSA,A,3,12,14,24,25,35,,,,,,,,1.3,0.8,1.1*2B
###2023-12-09 13:45:15.014037$GPGSV,2,1,06,04,51,304,47,16,71,227,43,26,79,041,40,28,34,089,44*7E
###2023-12-09 13:45:15.015798$GPGSV,2,2,06,29,18,043,44,31,56,072,49,,,,,,,,*73
