###2023-12-09 13:26:43.385856$GNGGA,182642.50,4138.0742953,N,07032.3615187,W,1,24,0.6,13.277,M,-29.743,M,0.0,*5F
###2023-12-09 13:26:43.585248$GNGGA,182642.70,4138.0742222,N,07032.3617875,W,1,24,0.6,13.277,M,-29.743,M,0.0,*56
###2023-12-09 13:26:43.786427$GNGGA,182642.90,4138.0741387,N,07032.3620460,W,1,24,0.6,13.257,M,-29.743,M,0.0,*5B
###2023-12-09 13:26:43.990540$GNRMC,182643.10,A,4138.0740619,N,07032.3622989,W,3.73,248.97,091223,,,A*5D
###2023-12-09 13:26:43.993423$GNGGA,182643.10,4138.0740619,N,07032.3622989,W,1,24,0.6,13.265,M,-29.743,M,0.0,*58
###2023-12-09 13:26:43.995236$GPGSA,A,3,03,04,16,26,28,29,31,,,,,,1.1,0.6,0.9*3A
###2023-12-09 13:26:43.996962$GLGSA,A,3,65,71,72,73,74,75,,,,,,,1.1,0.6,0.9*24
###2023-12-09 13:26:43.998540$GAGSA,A,3,04,19,21,27,,,,,,,,,1.1,0.6,0.9*26
###2023-12-09 13:26:44.000262$GBGSA,A,3,14,24,25,26,33,35,,,,,,,1.1,0.6,0.9*29
###2023-12-09 13:26:44.002606$GPGSV,2,1,07,03,29,250,40,04,43,309,43,16,62,219,45,26,88,044,48*78
###2023-12-09 13:26:44.004654$GPGSV,2,2,07,28,41,081,44,29,22,050,42,31,62,060,47,,,,*43
###2023-12-09 13:26:44.006997$GLGSV,2,1,06,65,35,321,42,71,26,175,44,72,67,229,45,73,26,049,42*65
###2023-12-09 13:26:44.008748$GLGSV,2,2,06,74,63,006,43,75,40,266,44,,,,,,,,*60
###2023-12-09 13:26:44.011090$GAGSV,1,1,04,04,37,311,40,19,75,184,40,21,80,050,46,27,25,049,40*6F
###2023-12-09 13:26:44.013425$GBGSV,2,1,06,14,32,190,43,24,65,042,49,25,49,273,45,26,18,069,44*64
###2023-12-09 13:26:44.015184$GBGSV,2,2,06,33,48,220,47,35,16,059,46,,,,,,,,*6D
###2023-12-09 13:26:44.016513$GNVTG,248.97,T,,M,3.73,N,6.91,K,A*2A
###2023-12-09 13:26:44.018163$GNGST,182643.10,18.000,,,,0.098,0.071,0.160*55
###2023-12-09 13:26:44.019480$GNZDA,182643.10,09,12,2023,00,00*7A
###2023-12-09 13:26:44.020127$GNEBP,,,,,,M*13
###2023-12-09 13:26:44.186317$GNGGA,182643.30,4138.0739904,N,07032.3625500,W,1,24,0.6,13.263,M,-29.743,M,0.0,*5B
###2023-12-09 13:26:44.389587$GNGGA,182643.50,4138.0739241,N,07032.3627913,W,1,24,0.6,13.265,M,-29.743,M,0.0,*5D
###2023-12-09 13:26:44.587391$GNGGA,182643.70,4138.0738562,N,07032.3630264,W,1,24,0.6,13.270,M,-29.743,M,0.0,*51
###2023-12-09 13:26:44.787583$GNGGA,182643.90,4138.0737885,N,07032.3632604,W,1,24,0.6,13.270,M,-29.743,M,0.0,*54
###2023-12-09 13:26:44.998608$GNRMC,182644.10,A,4138.0737409,N,07032.3635036,W,3.44,259.09,091223,,,A*51
###2023-12-09 13:26:45.001472$GNGGA,182644.10,4138.0737409,N,07032.3635036,W,1,24,0.6,13.290,M,-29.743,M,0.0,*5D
###2023-12-09 13:26:45.003277$GPGSA,A,3,03,04,16,26,28,29,31,,,,,,1.1,0.6,0.9*3A
###2023-12-09 13:26:45.004989$GLGSA,A,3,65,71,72,73,74,75,,,,,,,1.1,0.6,0.9*24
###2023-12-09 13:26:45.006574$GAGSA,A,3,04,19,21,27,,,,,,,,,1.1,0.6,0.9*26
###2023-12-09 13:26:45.008278$GBGSA,A,3,14,24,25,26,33,35,,,,,,,1.1,0.6,0.9*29
###2023-12-09 13:26:45.010602$GPGSV,2,1,07,03,29,250,41,04,43,309,43,16,62,219,46,26,88,044,48*7A
###2023-12-09 13:26:45.012636$GPGSV,2,2,07,28,41,081,44,29,22,050,42,31,62,060,47,,,,*43
###2023-12-09 13:26:45.014976$GLGSV,2,1,06,65,35,321,42,71,26,175,45,72,66,227,45,73,26,049,41*68
###2023-12-09 13:26:45.016718$GLGSV,2,2,06,74,63,006,43,75,40,266,44,,,,,,,,*60
###2023-12-09 13:26:45.019053$GAGSV,1,1,04,04,37,311,42,19,75,184,40,21,80,050,46,27,25,049,39*63
###2023-12-09 13:26:45.021381$GBGSV,2,1,06,14,32,190,43,24,65,042,48,25,49,273,45,26,18,069,44*65
###2023-12-09 13:26:45.023136$GBGSV,2,2,06,33,48,220,47,35,16,059,44,,,,,,,,*6F
###2023-12-09 13:26:45.024463$GNVTG,259.09,T,,M,3.44,N,6.37,K,A*25
###2023-12-09 13:26:45.026112$GNGST,182644.10,18.000,,,,0.097,0.071,0.160*5D
###2023-12-09 13:26:45.027412$GNZDA,182644.10,09,12,2023,00,00*7D
###2023-12-09 13:26:45.028053$GNEBP,,,,,,M*13
###2023-12-09 13:26:45.195015$GNGGA,182644.30,4138.0736952,N,07032.3637524,W,1,24,0.6,13.294,M,-29.743,M,0.0,*5D
###2023-12-09 13:26:45.385629$GNGGA,182644.50,4138.0736259,N,07032.3639929,W,1,24,0.6,13.270,M,-29.743,M,0.0,*5E
###2023-12-09 13:26:45.587290$GNGGA,182644.70,4138.0735559,N,07032.3642412,W,1,24,0.6,13.266,M,-29.743,M,0.0,*56
###2023-12-09 13:26:45.788859$GNGGA,182644.90,4138.0735019,N,07032.3645036,W,1,24,0.6,13.286,M,-29.743,M,0.0,*52
###2023-12-09 13:26:45.992629$GNRMC,182645.10,A,4138.0734452,N,07032.3647660,W,3.67,248.63,091223,,,A*50
###2023-12-09 13:26:45.995502$GNGGA,182645.10,4138.0734452,N,07032.3647660,W,1,24,0.6,13.299,M,-29.743,M,0.0,*58
###2023-12-09 13:26:45.997308$GPGSA,A,3,03,04,16,26,28,29,31,,,,,,1.1,0.6,0.9*3A
###2023-12-09 13:26:45.999049$GLGSA,A,3,65,71,72,73,74,75,,,,,,,1.1,0.6,0.9*24
###2023-12-09 13:26:46.000637$GAGSA,A,3,04,19,21,27,,,,,,,,,1.1,0.6,0.9*26
###2023-12-09 13:26:46.002347$GBGSA,A,3,14,24,25,26,33,35,,,,,,,1.1,0.6,0.9*29
###2023-12-09 13:26:46.004689$GPGSV,2,1,07,03,29,250,41,04,43,309,45,16,62,219,46,26,88,044,47*73
###2023-12-09 13:26:46.006754$GPGSV,2,2,07,28,41,081,44,29,22,050,42,31,62,060,47,,,,*43
###2023-12-09 13:26:46.009077$GLGSV,2,1,06,65,35,321,43,71,26,175,43,72,66,227,45,73,25,050,42*67
###2023-12-09 13:26:46.010827$GLGSV,2,2,06,74,63,006,43,75,40,266,45,,,,,,,,*61
###2023-12-09 13:26:46.013140$GAGSV,1,1,04,04,37,311,43,19,75,184,40,21,80,050,45,27,25,049,40*6F
###2023-12-09 13:26:46.015473$GBGSV,2,1,06,14,32,190,43,24,65,042,48,25,49,273,46,26,18,069,44*66
###2023-12-09 13:26:46.017216$GBGSV,2,2,06,33,48,220,46,35,16,059,44,,,,,,,,*6E
###2023-12-09 13:26:46.018533$GNVTG,248.63,T,,M,3.67,N,6.80,K,A*24
###2023-12-09 13:26:46.020193$GNGST,182645.10,18.000,,,,0.097,0.071,0.160*5C
###2023-12-09 13:26:46.021487$GNZDA,182645.10,09,12,2023,00,00*7C
###2023-12-09 13:26:46.022123$GNEBP,,,,,,M*13
###2023-12-09 13:26:46.189283$GNGGA,182645.30,4138.0733582,N,07032.3650139,W,1,24,0.6,13.285,M,-29.743,M,0.0,*51
###2023-12-09 13:26:46.388833$GNGGA,182645.50,4138.0732743,N,07032.3652668,W,1,24,0.6,13.272,M,-29.743,M,0.0,*50
###2023-12-09 13:26:46.589181$GNGGA,182645.70,4138.0732017,N,07032.3655358,W,1,24,0.6,13.281,M,-29.743,M,0.0,*59
###2023-12-09 13:26:46.787362$GNGGA,182645.90,4138.0731337,N,07032.3658141,W,1,24,0.6,13.277,M,-29.743,M,0.0,*5B
###2023-12-09 13:26:46.993471$GNRMC,182646.10,A,4138.0730554,N,07032.3660862,W,3.95,245.90,091223,,,A*55
###2023-12-09 13:26:46.996377$GNGGA,182646.10,4138.0730554,N,07032.3660862,W,1,24,0.6,13.289,M,-29.743,M,0.0,*50
###2023-12-09 13:26:46.998177$GPGSA,A,3,03,04,16,26,28,29,31,,,,,,1.1,0.6,0.9*3A
###2023-12-09 13:26:46.999903$GLGSA,A,3,65,71,72,73,74,75,,,,,,,1.1,0.6,0.9*24
###2023-12-09 13:26:47.001490$GAGSA,A,3,04,19,21,27,,,,,,,,,1.1,0.6,0.9*26
###2023-12-09 13:26:47.003218$GBGSA,A,3,14,24,25,26,33,35,,,,,,,1.1,0.6,0.9*29
###2023-12-09 13:26:47.005547$GPGSV,2,1,07,03,29,250,41,04,43,309,45,16,62,219,46,26,88,044,47*73
###2023-12-09 13:26:47.007600$GPGSV,2,2,07,28,41,081,44,29,22,050,43,31,62,060,46,,,,*43
###2023-12-09 13:26:47.009925$GLGSV,2,1,06,65,35,321,43,71,26,175,43,72,66,227,45,73,25,050,43*66
###2023-12-09 13:26:47.011679$GLGSV,2,2,06,74,62,008,43,75,40,266,45,,,,,,,,*6E
###2023-12-09 13:26:47.014004$GAGSV,1,1,04,04,37,311,44,19,75,184,40,21,80,050,45,27,25,049,40*68
###2023-12-09 13:26:47.016338$GBGSV,2,1,06,14,32,190,43,24,65,042,49,25,49,273,46,26,18,069,45*66
###2023-12-09 13:26:47.018114$GBGSV,2,2,06,33,48,220,47,35,16,059,46,,,,,,,,*6D
###2023-12-09 13:26:47.019449$GNVTG,245.90,T,,M,3.95,N,7.31,K,A*23
###2023-12-09 13:26:47.021098$GNGST,182646.10,18.000,,,,0.097,0.071,0.160*5F
###2023-12-09 13:26:47.022388$GNZDA,182646.10,09,12,2023,00,00*7F
###2023-12-09 13:26:47.023035$GNEBP,,,,,,M*13
###2023-12-09 13:26:47.187306$GNGGA,182646.30,4138.0729675,N,07032.3663583,W,1,24,0.6,13.286,M,-29.743,M,0.0,*54
###2023-12-09 13:26:47.387491$GNGGA,182646.50,4138.0728986,N,07032.3666407,W,1,24,0.6,13.263,M,-29.743,M,0.0,*53
###2023-12-09 13:26:47.593036$GNGGA,182646.70,4138.0728624,N,07032.3669367,W,1,24,0.6,13.264,M,-29.743,M,0.0,*5F
###2023-12-09 13:26:47.788506$GNGGA,182646.90,4138.0728289,N,07032.3672250,W,1,24,0.6,13.254,M,-29.743,M,0.0,*5E
###2023-12-09 13:26:47.991239$GNRMC,182647.10,A,4138.0727948,N,07032.3675035,W,3.75,259.82,091223,,,A*5D
###2023-12-09 13:26:47.994122$GNGGA,182647.10,4138.0727948,N,07032.3675035,W,1,24,0.6,13.248,M,-29.743,M,0.0,*55
###2023-12-09 13:26:47.995937$GPGSA,A,3,03,04,16,26,28,29,31,,,,,,1.1,0.6,0.9*3A
###2023-12-09 13:26:47.997899$GLGSA,A,3,65,71,72,73,74,75,,,,,,,1.1,0.6,0.9*24
###2023-12-09 13:26:47.999511$GAGSA,A,3,04,19,21,27,,,,,,,,,1.1,0.6,0.9*26
###2023-12-09 13:26:48.001239$GBGSA,A,3,14,24,25,26,33,35,,,,,,,1.1,0.6,0.9*29
###2023-12-09 13:26:48.003589$GPGSV,2,1,07,03,29,250,42,04,43,309,43,16,62,219,46,26,88,044,48*79
###2023-12-09 13:26:48.005637$GPGSV,2,2,07,28,41,081,45,29,22,050,41,31,62,060,47,,,,*41
###2023-12-09 13:26:48.007996$GLGSV,2,1,06,65,35,321,42,71,26,175,46,72,66,227,44,73,25,050,43*63
###2023-12-09 13:26:48.009746$GLGSV,2,2,06,74,62,008,42,75,41,267,43,,,,,,,,*69
###2023-12-09 13:26:48.012097$GAGSV,1,1,04,04,37,311,42,19,75,184,41,21,80,050,46,27,25,049,40*6C
###2023-12-09 13:26:48.014433$GBGSV,2,1,06,14,32,190,43,24,65,042,48,25,49,273,44,26,18,069,45*65
###2023-12-09 13:26:48.016192$GBGSV,2,2,06,33,48,220,48,35,16,059,43,,,,,,,,*67
