###2023-12-09 13:11:47.999836$GNVTG,234.53,T,,M,3.83,N,7.09,K,A*26
###2023-12-09 13:11:48.001505$GNGST,181147.10,18.000,,,,0.096,0.072,0.170*59
###2023-12-09 13:11:48.002821$GNZDA,181147.10,09,12,2023,00,00*7A
###2023-12-09 13:11:48.003469$GNEBP,,,,,,M*13
###2023-12-09 13:11:48.171067$GNGGA,181147.30,4138.0392411,N,07032.2891006,W,1,24,0.7,12.673,M,-29.743,M,0.0,*51
###2023-12-09 13:11:48.372407$GNGGA,181147.50,4138.0391163,N,07032.2893265,W,1,24,0.7,12.668,M,-29.743,M,0.0,*5B
###2023-12-09 13:11:48.571632$GNGGA,181147.70,4138.0390459,N,07032.2895930,W,1,24,0.7,12.713,M,-29.743,M,0.0,*54
###2023-12-09 13:11:48.771603$GNGGA,181147.90,4138.0389879,N,07032.2898563,W,1,24,0.7,12.711,M,-29.743,M,0.0,*59
###2023-12-09 13:11:48.975170$GNRMC,181148.10,A,4138.0389132,N,07032.2901046,W,3.63,247.64,091223,,,A*5A
###2023-12-09 13:11:48.978027$GNGGA,181148.10,4138.0389132,N,07032.2901046,W,1,24,0.7,12.664,M,-29.743,M,0.0,*58
###2023-12-09 13:11:48.979833$GPGSA,A,3,03,04,16,26,28,29,31,,,,,,1.2,0.7,1.0*30
###2023-12-09 13:11:48.981546$GLGSA,A,3,65,71,72,73,74,75,,,,,,,1.2,0.7,1.0*2E
###2023-12-09 13:11:48.983140$GAGSA,A,3,04,19,21,27,,,,,,,,,1.2,0.7,1.0*2C
###2023-12-09 13:11:48.984847$GBGSA,A,3,14,24,25,26,33,35,,,,,,,1.2,0.7,1.0*23
###2023-12-09 13:11:48.987171$GPGSV,2,1,07,03,33,256,43,04,37,311,42,16,55,215,45,26,85,210,48*7B
###2023-12-09 13:11:48.989207$GPGSV,2,2,07,28,46,075,45,29,24,056,43,31,66,048,48,,,,*4E
###2023-12-09 13:11:48.991540$GLGSV,2,1,06,65,28,326,42,71,35,174,44,72,72,250,45,73,31,045,45*6A
###2023-12-09 13:11:48.993284$GLGSV,2,2,06,74,67,351,43,75,36,258,42,,,,,,,,*6F
###2023-12-09 13:11:48.995624$GAGSV,1,1,04,04,33,312,42,19,81,195,40,21,84,075,46,27,30,048,41*66
###2023-12-09 13:11:48.997946$GBGSV,2,1,06,14,39,192,44,24,70,032,49,25,44,266,44,26,23,065,43*62
###2023-12-09 13:11:48.999713$GBGSV,2,2,06,33,54,227,46,35,15,065,45,,,,,,,,*69
###2023-12-09 13:11:49.001035$GNVTG,247.64,T,,M,3.63,N,6.73,K,A*24
###2023-12-09 13:11:49.002723$GNGST,181148.10,18.000,,,,0.096,0.072,0.170*56
###2023-12-09 13:11:49.004019$GNZDA,181148.10,09,12,2023,00,00*75
###2023-12-09 13:11:49.004658$GNEBP,,,,,,M*13
###2023-12-09 13:11:49.171917$GNGGA,181148.30,4138.0388475,N,07032.2903533,W,1,24,0.7,12.643,M,-29.744,M,0.0,*5A
###2023-12-09 13:11:49.372062$GNGGA,181148.50,4138.0388220,N,07032.2906033,W,1,24,0.7,12.684,M,-29.744,M,0.0,*51
###2023-12-09 13:11:49.573625$GNGGA,181148.70,4138.0388259,N,07032.2908548,W,1,24,0.7,12.721,M,-29.744,M,0.0,*54
###2023-12-09 13:11:49.772895$GNGGA,181148.90,4138.0388119,N,07032.2911092,W,1,24,0.7,12.703,M,-29.744,M,0.0,*57
###2023-12-09 13:11:49.977476$GNRMC,181149.10,A,4138.0387812,N,07032.2913614,W,3.52,261.91,091223,,,A*50
###2023-12-09 13:11:49.980358$GNGGA,181149.10,4138.0387812,N,07032.2913614,W,1,24,0.7,12.687,M,-29.744,M,0.0,*54
###2023-12-09 13:11:49.982148$GPGSA,A,3,03,04,16,26,28,29,31,,,,,,1.2,0.7,1.0*30
###2023-12-09 13:11:49.983871$GLGSA,A,3,65,71,72,73,74,75,,,,,,,1.2,0.7,1.0*2E
###2023-12-09 13:11:49.985448$GAGSA,A,3,04,19,21,27,,,,,,,,,1.2,0.7,1.0*2C
###2023-12-09 13:11:49.987173$GBGSA,A,3,14,24,25,26,33,35,,,,,,,1.2,0.7,1.0*23
###2023-12-09 13:11:49.989493$GPGSV,2,1,07,03,33,256,42,04,37,311,43,16,55,215,46,26,85,210,48*78
###2023-12-09 13:11:49.991541$GPGSV,2,2,07,28,46,075,45,29,24,056,42,31,66,048,48,,,,*4F
###2023-12-09 13:11:49.993868$GLGSV,2,1,06,65,28,326,40,71,35,174,46,72,72,250,45,73,31,045,43*6C
###2023-12-09 13:11:49.995627$GLGSV,2,2,06,74,67,351,43,75,36,258,42,,,,,,,,*6F
###2023-12-09 13:11:49.997954$GAGSV,1,1,04,04,33,312,41,19,81,195,40,21,84,075,46,27,30,048,42*66
###2023-12-09 13:11:50.000293$GBGSV,2,1,06,14,39,192,45,24,70,032,49,25,44,266,45,26,23,065,44*65
###2023-12-09 13:11:50.002039$GBGSV,2,2,06,33,54,227,48,35,15,065,45,,,,,,,,*67
###2023-12-09 13:11:50.003381$GNVTG,261.91,T,,M,3.52,N,6.52,K,A*2B
###2023-12-09 13:11:50.005029$GNGST,181149.10,18.000,,,,0.096,0.072,0.170*57
###2023-12-09 13:11:50.006316$GNZDA,181149.10,09,12,2023,00,00*74
###2023-12-09 13:11:50.006966$GNEBP,,,,,,M*13
###2023-12-09 13:11:50.173168$GNGGA,181149.30,4138.0387668,N,07032.2916243,W,1,24,0.7,12.689,M,-29.744,M,0.0,*58
###2023-12-09 13:11:50.372163$GNGGA,181149.50,4138.0387679,N,07032.2918904,W,1,24,0.7,12.692,M,-29.744,M,0.0,*52
###2023-12-09 13:11:50.572721$GNGGA,181149.70,4138.0387618,N,07032.2921520,W,1,24,0.7,12.693,M,-29.744,M,0.0,*56
###2023-12-09 13:11:50.771892$GNGGA,181149.90,4138.0387302,N,07032.2924054,W,1,24,0.7,12.693,M,-29.744,M,0.0,*55
###2023-12-09 13:11:50.975663$GNRMC,181150.10,A,4138.0387052,N,07032.2926628,W,3.54,267.76,091223,,,A*54
###2023-12-09 13:11:50.978509$GNGGA,181150.10,4138.0387052,N,07032.2926628,W,1,24,0.7,12.697,M,-29.744,M,0.0,*58
###2023-12-09 13:11:50.980303$GPGSA,A,3,03,04,16,26,28,29,31,,,,,,1.2,0.7,1.0*30
###2023-12-09 13:11:50.982011$GLGSA,A,3,65,71,72,73,74,75,,,,,,,1.2,0.7,1.0*2E
###2023-12-09 13:11:50.983608$GAGSA,A,3,04,19,21,27,,,,,,,,,1.2,0.7,1.0*2C
###2023-12-09 13:11:50.985316$GBGSA,A,3,14,24,25,26,33,35,,,,,,,1.2,0.7,1.0*23
###2023-12-09 13:11:50.987643$GPGSV,2,1,07,03,33,256,42,04,37,311,42,16,55,215,47,26,85,210,49*79
###2023-12-09 13:11:50.989679$GPGSV,2,2,07,28,46,075,45,29,24,056,42,31,66,048,47,,,,*40
###2023-12-09 13:11:50.992021$GLGSV,2,1,06,65,28,326,40,71,35,174,46,72,72,250,45,73,31,045,44*6B
###2023-12-09 13:11:50.993770$GLGSV,2,2,06,74,67,351,42,75,36,258,43,,,,,,,,*6F
###2023-12-09 13:11:50.996107$GAGSV,1,1,04,04,33,312,40,19,81,195,41,21,84,075,46,27,30,048,40*64
###2023-12-09 13:11:50.998439$GBGSV,2,1,06,14,39,192,43,24,70,032,48,25,44,266,43,26,23,065,43*63
###2023-12-09 13:11:51.000198$GBGSV,2,2,06,33,54,227,46,35,15,065,44,,,,,,,,*68
###2023-12-09 13:11:51.001524$GNVTG,267.76,T,,M,3.54,N,6.55,K,A*25
###2023-12-09 13:11:51.003183$GNGST,181150.10,18.000,,,,0.096,0.072,0.170*5F
###2023-12-09 13:11:51.004474$GNZDA,181150.10,09,12,2023,00,00*7C
###2023-12-09 13:11:51.005114$GNEBP,,,,,,M*13
###2023-12-09 13:11:51.175964$GNGGA,181150.30,4138.0387083,N,07032.2929291,W,1,24,0.7,12.718,M,-29.744,M,0.0,*59
###2023-12-09 13:11:51.374255$GNGGA,181150.50,4138.0387078,N,07032.2931917,W,1,24,0.7,12.722,M,-29.744,M,0.0,*5E
###2023-12-09 13:11:51.573973$GNGGA,181150.70,4138.0386825,N,07032.2934455,W,1,24,0.7,12.712,M,-29.744,M,0.0,*50
###2023-12-09 13:11:51.774042$GNGGA,181150.90,4138.0386523,N,07032.2937012,W,1,24,0.7,12.691,M,-29.744,M,0.0,*5B
###2023-12-09 13:11:51.976578$GNRMC,181151.10,A,4138.0386445,N,07032.2939620,W,3.58,270.05,091223,,,A*5E
###2023-12-09 13:11:51.979451$GNGGA,181151.10,4138.0386445,N,07032.2939620,W,1,24,0.7,12.698,M,-29.744,M,0.0,*53
###2023-12-09 13:11:51.981242$GPGSA,A,3,03,04,16,26,28,29,31,,,,,,1.2,0.7,1.0*30
###2023-12-09 13:11:51.982972$GLGSA,A,3,65,71,72,73,74,75,,,,,,,1.2,0.7,1.0*2E
###2023-12-09 13:11:51.984557$GAGSA,A,3,04,19,21,27,,,,,,,,,1.2,0.7,1.0*2C
###2023-12-09 13:11:51.986264$GBGSA,A,3,14,24,25,26,33,35,,,,,,,1.2,0.7,1.0*23
###2023-12-09 13:11:51.988600$GPGSV,2,1,07,03,33,256,42,04,37,311,40,16,55,215,46,26,85,210,48*7B
###2023-12-09 13:11:51.990646$GPGSV,2,2,07,28,46,075,45,29,24,056,42,31,66,048,47,,,,*40
###2023-12-09 13:11:51.992982$GLGSV,2,1,06,65,28,326,40,71,35,174,45,72,72,250,45,73,31,045,44*68
###2023-12-09 13:11:51.994756$GLGSV,2,2,06,74,67,351,41,75,36,258,43,,,,,,,,*6C
###2023-12-09 13:11:51.997082$GAGSV,1,1,04,04,33,312,40,19,81,195,41,21,84,075,46,27,30,048,40*64
###2023-12-09 13:11:51.999428$GBGSV,2,1,06,14,39,192,43,24,70,033,49,25,44,266,43,26,23,065,44*64
###2023-12-09 13:11:52.001175$GBGSV,2,2,06,33,54,227,47,35,15,065,45,,,,,,,,*68
###2023-12-09 13:11:52.002496$GNVTG,270.05,T,,M,3.58,N,6.62,K,A*2F
###2023-12-09 13:11:52.004157$GNGST,181151.10,18.000,,,,0.096,0.073,0.170*5F
###2023-12-09 13:11:52.005447$GNZDA,181151.10,09,12,2023,00,00*7D
###2023-12-09 13:11:52.006085$GNEBP,,,,,,M*13
###2023-12-09 13:11:52.172913$GNGGA,181151.30,4138.0386352,N,07032.2942241,W,1,24,0.7,12.711,M,-29.744,M,0.0,*5F
###2023-12-09 13:11:52.373409$GNGGA,181151.50,4138.0386058,N,07032.2944787,W,1,24,0.7,12.716,M,-29.744,M,0.0,*5E
###2023-12-09 13:11:52.572825$GNGGA,181151.70,4138.0385697,N,07032.2947310,W,1,24,0.7,12.707,M,-29.744,M,0.0,*53
###2023-12-09 13:11:52.772779$GNGGA,181151.90,4138.0385585,N,07032.2949956,W,1,24,0.7,12.715,M,-29.744,M,0.0,*58
###2023-12-09 13:11:52.976517$GNRMC,181152.10,A,4138.0385581,N,07032.2952700,W,3.69,267.21,091223,,,A*5B
###2023-12-09 13:11:52.979416$GNGGA,181152.10,4138.0385581,N,07032.2952700,W,1,24,0.7,12.725,M,-29.744,M,0.0,*53
###2023-12-09 13:11:52.981218$GPGSA,A,3,03,04,16,26,28,29,31,,,,,,1.2,0.7,1.0*30
###2023-12-09 13:11:52.982943$GLGSA,A,3,65,71,72,73,74,75,,,,,,,1.2,0.7,1.0*2E
###2023-12-09 13:11:52.984532$GAGSA,A,3,04,19,21,27,,,,,,,,,1.2,0.7,1.0*2C
###2023-12-09 13:11:52.986247$GBGSA,A,3,14,24,25,26,33,35,,,,,,,1.2,0.7,1.0*23
###2023-12-09 13:11:52.988594$GPGSV,2,1,07,03,33,256,42,04,37,311,43,16,55,215,46,26,85,210,48*78
###2023-12-09 13:11:52.990650$GPGSV,2,2,07,28,46,075,46,29,24,056,41,31,66,048,47,,,,*40
