###2023-12-09 13:16:00.983304$GNRMC,181600.10,A,4138.0515378,N,07032.2762973,W,3.71,5.57,091223,,,A*5D
###2023-12-09 13:16:00.986168$GNGGA,181600.10,4138.0515378,N,07032.2762973,W,1,24,0.7,13.236,M,-29.743,M,0.0,*5A
###2023-12-09 13:16:00.987980$GPGSA,A,3,03,04,16,26,28,29,31,,,,,,1.2,0.7,1.0*30
###2023-12-09 13:16:00.989701$GLGSA,A,3,65,71,72,73,74,75,,,,,,,1.2,0.7,1.0*2E
###2023-12-09 13:16:00.991293$GAGSA,A,3,04,19,21,27,,,,,,,,,1.2,0.7,1.0*2C
###2023-12-09 13:16:00.993003$GBGSA,A,3,14,24,25,26,33,35,,,,,,,1.2,0.7,1.0*23
###2023-12-09 13:16:00.995341$GPGSV,2,1,07,03,32,254,42,04,38,311,44,16,57,216,46,26,87,208,48*79
###2023-12-09 13:16:00.997378$GPGSV,2,2,07,28,44,077,44,29,24,054,39,31,65,052,46,,,,*46
###2023-12-09 13:16:00.999718$GLGSV,2,1,06,65,30,325,41,71,33,174,45,72,71,243,46,73,30,046,40*61
###2023-12-09 13:16:01.001469$GLGSV,2,2,06,74,66,355,41,75,37,260,47,,,,,,,,*67
###2023-12-09 13:16:01.003804$GAGSV,1,1,04,04,34,312,42,19,79,190,41,21,83,062,46,27,29,048,37*6A
###2023-12-09 13:16:01.006134$GBGSV,2,1,06,14,37,191,44,24,69,035,47,25,45,267,47,26,22,066,41*6D
###2023-12-09 13:16:01.007890$GBGSV,2,2,06,33,53,225,47,35,16,064,42,,,,,,,,*68
###2023-12-09 13:16:01.009147$GNVTG,5.57,T,,M,3.71,N,6.88,K,A*27
###2023-12-09 13:16:01.010799$GNGST,181600.10,18.000,,,,0.099,0.071,0.170*51
###2023-12-09 13:16:01.012085$GNZDA,181600.10,09,12,2023,00,00*7E
###2023-12-09 13:16:01.012723$GNEBP,,,,,,M*13
###2023-12-09 13:16:01.178114$GNGGA,181600.30,4138.0517440,N,07032.2762735,W,1,24,0.7,13.248,M,-29.743,M,0.0,*53
###2023-12-09 13:16:01.379113$GNGGA,181600.50,4138.0519523,N,07032.2762336,W,1,24,0.7,13.260,M,-29.743,M,0.0,*52
###2023-12-09 13:16:01.579951$GNGGA,181600.70,4138.0521628,N,07032.2761851,W,1,24,0.7,13.258,M,-29.743,M,0.0,*51
###2023-12-09 13:16:01.779145$GNGGA,181600.90,4138.0523764,N,07032.2761454,W,1,24,0.7,13.254,M,-29.743,M,0.0,*51
###2023-12-09 13:16:01.983283$GNRMC,181601.10,A,4138.0525894,N,07032.2761253,W,3.87,4.22,091223,,,A*56
###2023-12-09 13:16:01.986122$GNGGA,181601.10,4138.0525894,N,07032.2761253,W,1,24,0.7,13.252,M,-29.743,M,0.0,*59
###2023-12-09 13:16:01.987924$GPGSA,A,3,03,04,16,26,28,29,31,,,,,,1.2,0.7,1.0*30
###2023-12-09 13:16:01.989627$GLGSA,A,3,65,71,72,73,74,75,,,,,,,1.2,0.7,1.0*2E
###2023-12-09 13:16:01.991214$GAGSA,A,3,04,19,21,27,,,,,,,,,1.2,0.7,1.0*2C
###2023-12-09 13:16:01.992917$GBGSA,A,3,14,24,25,26,33,35,,,,,,,1.2,0.7,1.0*23
###2023-12-09 13:16:01.995248$GPGSV,2,1,07,03,32,254,43,04,38,311,44,16,57,216,46,26,87,208,48*78
###2023-12-09 13:16:01.997279$GPGSV,2,2,07,28,44,077,44,29,24,054,40,31,65,052,46,,,,*48
###2023-12-09 13:16:01.999618$GLGSV,2,1,06,65,30,325,42,71,33,174,45,72,71,243,46,73,30,046,40*62
###2023-12-09 13:16:02.001370$GLGSV,2,2,06,74,66,355,41,75,37,260,47,,,,,,,,*67
###2023-12-09 13:16:02.003694$GAGSV,1,1,04,04,34,312,43,19,79,190,41,21,83,062,46,27,29,048,38*64
###2023-12-09 13:16:02.006018$GBGSV,2,1,06,14,37,191,44,24,69,035,47,25,45,267,47,26,22,066,42*6E
###2023-12-09 13:16:02.007765$GBGSV,2,2,06,33,53,225,47,35,16,064,42,,,,,,,,*68
###2023-12-09 13:16:02.009015$GNVTG,4.22,T,,M,3.87,N,7.16,K,A*2B
###2023-12-09 13:16:02.010663$GNGST,181601.10,18.000,,,,0.099,0.072,0.180*5C
###2023-12-09 13:16:02.011947$GNZDA,181601.10,09,12,2023,00,00*7F
###2023-12-09 13:16:02.012580$GNEBP,,,,,,M*13
###2023-12-09 13:16:02.179459$GNGGA,181601.30,4138.0528048,N,07032.2761002,W,1,24,0.7,13.260,M,-29.743,M,0.0,*58
###2023-12-09 13:16:02.378589$GNGGA,181601.50,4138.0530207,N,07032.2760634,W,1,24,0.7,13.265,M,-29.743,M,0.0,*59
###2023-12-09 13:16:02.579847$GNGGA,181601.70,4138.0532361,N,07032.2760426,W,1,24,0.7,13.274,M,-29.743,M,0.0,*59
###2023-12-09 13:16:02.777690$GNGGA,181601.90,4138.0534493,N,07032.2760373,W,1,24,0.7,13.272,M,-29.743,M,0.0,*5A
###2023-12-09 13:16:02.983075$GNRMC,181602.10,A,4138.0536590,N,07032.2760451,W,3.75,357.59,091223,,,A*5F
###2023-12-09 13:16:02.985944$GNGGA,181602.10,4138.0536590,N,07032.2760451,W,1,24,0.7,13.269,M,-29.743,M,0.0,*5C
###2023-12-09 13:16:02.987760$GPGSA,A,3,03,04,16,26,28,29,31,,,,,,1.2,0.7,1.0*30
###2023-12-09 13:16:02.989480$GLGSA,A,3,65,71,72,73,74,75,,,,,,,1.2,0.7,1.0*2E
###2023-12-09 13:16:02.991081$GAGSA,A,3,04,19,21,27,,,,,,,,,1.2,0.7,1.0*2C
###2023-12-09 13:16:02.992803$GBGSA,A,3,14,24,25,26,33,35,,,,,,,1.2,0.7,1.0*23
###2023-12-09 13:16:02.995153$GPGSV,2,1,07,03,32,254,44,04,38,311,44,16,57,216,47,26,87,208,48*7E
###2023-12-09 13:16:02.997206$GPGSV,2,2,07,28,44,077,44,29,24,054,42,31,65,052,46,,,,*4A
###2023-12-09 13:16:02.999552$GLGSV,2,1,06,65,30,325,39,71,33,174,46,72,71,243,46,73,30,046,41*6C
###2023-12-09 13:16:03.001303$GLGSV,2,2,06,74,66,355,41,75,37,260,46,,,,,,,,*66
###2023-12-09 13:16:03.003651$GAGSV,1,1,04,04,34,312,42,19,79,190,41,21,83,062,46,27,29,048,40*6A
###2023-12-09 13:16:03.005995$GBGSV,2,1,06,14,37,191,43,24,69,035,47,25,45,267,46,26,22,066,42*68
###2023-12-09 13:16:03.007759$GBGSV,2,2,06,33,53,225,48,35,16,064,41,,,,,,,,*64
###2023-12-09 13:16:03.009079$GNVTG,357.59,T,,M,3.75,N,6.95,K,A*25
###2023-12-09 13:16:03.010739$GNGST,181602.10,18.000,,,,0.099,0.072,0.180*5F
###2023-12-09 13:16:03.012033$GNZDA,181602.10,09,12,2023,00,00*7C
###2023-12-09 13:16:03.012672$GNEBP,,,,,,M*13
###2023-12-09 13:16:03.180993$GNGGA,181602.30,4138.0538679,N,07032.2760662,W,1,24,0.7,13.281,M,-29.743,M,0.0,*50
###2023-12-09 13:16:03.379034$GNGGA,181602.50,4138.0540754,N,07032.2760885,W,1,24,0.7,13.300,M,-29.743,M,0.0,*58
###2023-12-09 13:16:03.578342$GNGGA,181602.70,4138.0542797,N,07032.2761257,W,1,24,0.7,13.307,M,-29.743,M,0.0,*54
###2023-12-09 13:16:03.780316$GNGGA,181602.90,4138.0544803,N,07032.2761823,W,1,24,0.7,13.303,M,-29.743,M,0.0,*53
###2023-12-09 13:16:03.983014$GNRMC,181603.10,A,4138.0546797,N,07032.2762372,W,3.63,350.67,091223,,,A*55
###2023-12-09 13:16:03.985857$GNGGA,181603.10,4138.0546797,N,07032.2762372,W,1,24,0.7,13.302,M,-29.743,M,0.0,*57
###2023-12-09 13:16:03.987663$GPGSA,A,3,03,04,16,26,28,29,31,,,,,,1.2,0.7,1.0*30
###2023-12-09 13:16:03.989375$GLGSA,A,3,65,71,72,73,74,75,,,,,,,1.2,0.7,1.0*2E
###2023-12-09 13:16:03.990968$GAGSA,A,3,04,19,21,27,,,,,,,,,1.2,0.7,1.0*2C
###2023-12-09 13:16:03.992675$GBGSA,A,3,14,24,25,26,33,35,,,,,,,1.2,0.7,1.0*23
###2023-12-09 13:16:03.995012$GPGSV,2,1,07,03,32,254,43,04,38,311,44,16,57,216,46,26,87,208,48*78
###2023-12-09 13:16:03.997045$GPGSV,2,2,07,28,44,077,45,29,24,054,42,31,65,052,46,,,,*4B
###2023-12-09 13:16:03.999386$GLGSV,2,1,06,65,30,325,39,71,33,174,46,72,71,243,46,73,30,046,42*6F
###2023-12-09 13:16:04.001131$GLGSV,2,2,06,74,66,355,41,75,37,260,46,,,,,,,,*66
###2023-12-09 13:16:04.003468$GAGSV,1,1,04,04,34,312,42,19,79,190,40,21,83,062,45,27,28,049,40*68
###2023-12-09 13:16:04.005795$GBGSV,2,1,06,14,37,191,44,24,69,035,48,25,45,267,48,26,22,066,44*68
###2023-12-09 13:16:04.007549$GBGSV,2,2,06,33,53,225,49,35,16,064,43,,,,,,,,*67
###2023-12-09 13:16:04.008875$GNVTG,350.67,T,,M,3.63,N,6.73,K,A*20
###2023-12-09 13:16:04.010517$GNGST,181603.10,18.000,,,,0.099,0.071,0.170*52
###2023-12-09 13:16:04.011820$GNZDA,181603.10,09,12,2023,00,00*7D
###2023-12-09 13:16:04.012461$GNEBP,,,,,,M*13
###2023-12-09 13:16:04.177748$GNGGA,181603.30,4138.0548798,N,07032.2762700,W,1,24,0.7,13.303,M,-29.743,M,0.0,*54
###2023-12-09 13:16:04.378996$GNGGA,181603.50,4138.0550809,N,07032.2762897,W,1,24,0.7,13.304,M,-29.743,M,0.0,*5A
###2023-12-09 13:16:04.578823$GNGGA,181603.70,4138.0552802,N,07032.2763263,W,1,24,0.7,13.314,M,-29.743,M,0.0,*50
###2023-12-09 13:16:04.779041$GNGGA,181603.90,4138.0554805,N,07032.2763665,W,1,24,0.7,13.313,M,-29.743,M,0.0,*5A
###2023-12-09 13:16:04.982942$GNRMC,181604.10,A,4138.0556807,N,07032.2763824,W,3.62,359.21,091223,,,A*56
###2023-12-09 13:16:04.985790$GNGGA,181604.10,4138.0556807,N,07032.2763824,W,1,24,0.7,13.312,M,-29.743,M,0.0,*5F
###2023-12-09 13:16:04.987594$GPGSA,A,3,03,04,16,26,28,29,31,,,,,,1.2,0.7,1.0*30
###2023-12-09 13:16:04.989312$GLGSA,A,3,65,71,72,73,74,75,,,,,,,1.2,0.7,1.0*2E
###2023-12-09 13:16:04.990907$GAGSA,A,3,04,19,21,27,,,,,,,,,1.2,0.7,1.0*2C
###2023-12-09 13:16:04.992617$GBGSA,A,3,14,24,25,26,33,35,,,,,,,1.2,0.7,1.0*23
###2023-12-09 13:16:04.994953$GPGSV,2,1,07,03,32,254,43,04,38,311,45,16,57,216,47,26,87,208,48*78
###2023-12-09 13:16:04.997218$GPGSV,2,2,07,28,44,077,44,29,24,054,41,31,65,052,46,,,,*49
###2023-12-09 13:16:04.999579$GLGSV,2,1,06,65,30,325,42,71,33,174,45,72,71,243,46,73,30,046,41*63
###2023-12-09 13:16:05.001335$GLGSV,2,2,06,74,66,355,41,75,37,260,46,,,,,,,,*66
###2023-12-09 13:16:05.003676$GAGSV,1,1,04,04,34,312,43,19,79,190,40,21,83,062,45,27,28,049,39*67
###2023-12-09 13:16:05.006024$GBGSV,2,1,06,14,37,191,44,24,69,035,47,25,45,267,47,26,22,066,43*6F
###2023-12-09 13:16:05.007788$GBGSV,2,2,06,33,53,225,47,35,16,064,43,,,,,,,,*69
###2023-12-09 13:16:05.009117$GNVTG,359.21,T,,M,3.62,N,6.70,K,A*29
###2023-12-09 13:16:05.010772$GNGST,181604.10,18.000,,,,0.098,0.071,0.170*54
###2023-12-09 13:16:05.012064$GNZDA,181604.10,09,12,2023,00,00*7A
