###2023-12-09 13:35:22.596217$GNGGA,183521.70,4138.0411695,N,07032.3968793,W,1,27,0.6,13.181,M,-29.745,M,0.0,*53
###2023-12-09 13:35:22.796158$GNGGA,183521.90,4138.0411036,N,07032.3967151,W,1,27,0.6,13.189,M,-29.745,M,0.0,*5D
###2023-12-09 13:35:23.000719$GNRMC,183522.10,A,4138.0410423,N,07032.3965584,W,2.25,116.55,091223,,,A*5C
###2023-12-09 13:35:23.003584$GNGGA,183522.10,4138.0410423,N,07032.3965584,W,1,27,0.6,13.172,M,-29.745,M,0.0,*5D
###2023-12-09 13:35:23.005440$GPGSA,A,3,03,04,16,26,27,28,29,31,,,,,1.0,0.6,0.8*3F
###2023-12-09 13:35:23.007272$GLGSA,A,3,65,71,72,73,74,75,83,,,,,,1.0,0.6,0.8*2F
###2023-12-09 13:35:23.008846$GAGSA,A,3,04,19,21,27,,,,,,,,,1.0,0.6,0.8*26
###2023-12-09 13:35:23.010618$GBGSA,A,3,12,14,24,25,26,33,35,,,,,,1.0,0.6,0.8*2A
###2023-12-09 13:35:23.012927$GPGSV,2,1,08,03,26,246,42,04,47,307,44,16,67,223,46,26,84,040,48*77
###2023-12-09 13:35:23.015261$GPGSV,2,2,08,27,16,172,40,28,38,084,45,29,21,047,44,31,59,066,46*78
###2023-12-09 13:35:23.017577$GLGSV,2,1,07,65,39,318,44,71,22,175,41,72,62,220,46,73,22,052,44*62
###2023-12-09 13:35:23.019618$GLGSV,2,2,07,74,59,015,42,75,44,272,47,83,15,047,35,,,,*53
###2023-12-09 13:35:23.021936$GAGSV,1,1,04,04,40,310,44,19,72,181,41,21,77,046,46,27,22,050,42*6B
###2023-12-09 13:35:23.024279$GBGSV,2,1,07,12,15,126,39,14,29,190,41,24,62,046,49,25,51,276,47*6A
###2023-12-09 13:35:23.026318$GBGSV,2,2,07,26,16,071,45,33,45,217,47,35,16,056,44,,,,*5C
###2023-12-09 13:35:23.027686$GNVTG,116.55,T,,M,2.25,N,4.18,K,A*2D
###2023-12-09 13:35:23.029304$GNGST,183522.10,5.300,,,,0.093,0.069,0.150*6E
###2023-12-09 13:35:23.030619$GNZDA,183522.10,09,12,2023,00,00*7F
###2023-12-09 13:35:23.031264$GNEBP,,,,,,M*13
###2023-12-09 13:35:23.197269$GNGGA,183522.30,4138.0409832,N,07032.3964092,W,1,27,0.6,13.176,M,-29.745,M,0.0,*5C
###2023-12-09 13:35:23.395602$GNGGA,183522.50,4138.0409075,N,07032.3962662,W,1,27,0.6,13.181,M,-29.745,M,0.0,*56
###2023-12-09 13:35:23.596129$GNGGA,183522.70,4138.0408321,N,07032.3961366,W,1,27,0.6,13.165,M,-29.745,M,0.0,*5F
###2023-12-09 13:35:23.794927$GNGGA,183522.90,4138.0407505,N,07032.3960364,W,1,27,0.6,13.176,M,-29.745,M,0.0,*5F
###2023-12-09 13:35:23.999502$GNRMC,183523.10,A,4138.0406562,N,07032.3959401,W,2.12,138.46,091223,,,A*57
###2023-12-09 13:35:24.002353$GNGGA,183523.10,4138.0406562,N,07032.3959401,W,1,27,0.6,13.192,M,-29.745,M,0.0,*52
###2023-12-09 13:35:24.004223$GPGSA,A,3,03,04,16,26,27,28,29,31,,,,,1.0,0.6,0.8*3F
###2023-12-09 13:35:24.006009$GLGSA,A,3,65,71,72,73,74,75,83,,,,,,1.0,0.6,0.8*2F
###2023-12-09 13:35:24.007607$GAGSA,A,3,04,19,21,27,,,,,,,,,1.0,0.6,0.8*26
###2023-12-09 13:35:24.009378$GBGSA,A,3,12,14,24,25,26,33,35,,,,,,1.0,0.6,0.8*2A
###2023-12-09 13:35:24.011703$GPGSV,2,1,08,03,26,246,43,04,47,307,44,16,67,223,47,26,84,040,48*77
###2023-12-09 13:35:24.014030$GPGSV,2,2,08,27,16,172,40,28,38,084,44,29,21,047,43,31,59,066,47*7F
###2023-12-09 13:35:24.016372$GLGSV,2,1,07,65,39,318,45,71,22,175,43,72,62,220,46,73,22,052,43*66
###2023-12-09 13:35:24.018406$GLGSV,2,2,07,74,59,015,43,75,44,272,48,83,15,047,35,,,,*5D
###2023-12-09 13:35:24.020764$GAGSV,1,1,04,04,40,310,44,19,72,181,40,21,77,046,46,27,22,050,41*69
###2023-12-09 13:35:24.023107$GBGSV,2,1,07,12,15,126,41,14,29,190,42,24,62,046,48,25,51,276,49*69
###2023-12-09 13:35:24.025146$GBGSV,2,2,07,26,16,071,44,33,45,217,47,35,16,056,45,,,,*5C
###2023-12-09 13:35:24.026467$GNVTG,138.46,T,,M,2.12,N,3.92,K,A*22
###2023-12-09 13:35:24.028094$GNGST,183523.10,5.800,,,,0.092,0.069,0.150*65
###2023-12-09 13:35:24.029378$GNZDA,183523.10,09,12,2023,00,00*7E
###2023-12-09 13:35:24.030013$GNEBP,,,,,,M*13
###2023-12-09 13:35:24.196988$GNGGA,183523.30,4138.0405807,N,07032.3958373,W,1,26,0.6,13.170,M,-29.745,M,0.0,*53
###2023-12-09 13:35:24.395857$GNGGA,183523.50,4138.0404998,N,07032.3957615,W,1,26,0.6,13.179,M,-29.745,M,0.0,*50
###2023-12-09 13:35:24.595283$GNGGA,183523.70,4138.0404015,N,07032.3957056,W,1,26,0.6,13.195,M,-29.745,M,0.0,*5D
###2023-12-09 13:35:24.796665$GNGGA,183523.90,4138.0403218,N,07032.3956351,W,1,26,0.6,13.169,M,-29.745,M,0.0,*5D
###2023-12-09 13:35:25.000409$GNRMC,183524.10,A,4138.0402392,N,07032.3956068,W,1.73,173.93,091223,,,A*5A
###2023-12-09 13:35:25.003874$GNGGA,183524.10,4138.0402392,N,07032.3956068,W,1,26,0.6,13.189,M,-29.745,M,0.0,*57
###2023-12-09 13:35:25.006127$GPGSA,A,3,03,04,16,26,27,28,29,31,,,,,1.0,0.6,0.8*3F
###2023-12-09 13:35:25.008224$GLGSA,A,3,65,71,72,73,74,75,,,,,,,1.0,0.6,0.8*24
###2023-12-09 13:35:25.010148$GAGSA,A,3,04,19,21,27,,,,,,,,,1.0,0.6,0.8*26
###2023-12-09 13:35:25.012359$GBGSA,A,3,12,14,24,25,26,33,35,,,,,,1.0,0.6,0.8*2A
###2023-12-09 13:35:25.015193$GPGSV,2,1,08,03,26,246,40,04,47,307,45,16,67,223,46,26,84,040,48*74
###2023-12-09 13:35:25.018019$GPGSV,2,2,08,27,16,172,36,28,38,084,45,29,21,047,43,31,59,066,46*7E
###2023-12-09 13:35:25.020861$GLGSV,2,1,06,65,39,318,44,71,22,175,41,72,62,220,45,73,22,052,44*60
###2023-12-09 13:35:25.023030$GLGSV,2,2,06,74,59,015,43,75,44,272,48,,,,,,,,*66
###2023-12-09 13:35:25.025854$GAGSV,1,1,04,04,40,310,43,19,72,181,40,21,77,046,46,27,22,050,41*6E
###2023-12-09 13:35:25.028683$GBGSV,2,1,07,12,15,126,42,14,29,190,42,24,62,046,49,25,51,276,49*6B
###2023-12-09 13:35:25.031168$GBGSV,2,2,07,26,16,071,44,33,45,217,45,35,16,056,45,,,,*5E
###2023-12-09 13:35:25.032775$GNVTG,173.93,T,,M,1.73,N,3.20,K,A*28
###2023-12-09 13:35:25.034740$GNGST,183524.10,5.600,,,,0.092,0.068,0.150*6D
###2023-12-09 13:35:25.036294$GNZDA,183524.10,09,12,2023,00,00*79
###2023-12-09 13:35:25.037080$GNEBP,,,,,,M*13
###2023-12-09 13:35:25.196579$GNGGA,183524.30,4138.0401486,N,07032.3955783,W,1,26,0.6,13.209,M,-29.745,M,0.0,*5E
###2023-12-09 13:35:25.395551$GNGGA,183524.50,4138.0400629,N,07032.3955247,W,1,26,0.6,13.173,M,-29.745,M,0.0,*5D
###2023-12-09 13:35:25.595779$GNGGA,183524.70,4138.0399848,N,07032.3954902,W,1,27,0.6,13.154,M,-29.745,M,0.0,*5E
###2023-12-09 13:35:25.796845$GNGGA,183524.90,4138.0399033,N,07032.3955077,W,1,27,0.6,13.204,M,-29.745,M,0.0,*58
###2023-12-09 13:35:26.000045$GNRMC,183525.10,A,4138.0398213,N,07032.3955143,W,1.56,163.13,091223,,,A*52
###2023-12-09 13:35:26.003517$GNGGA,183525.10,4138.0398213,N,07032.3955143,W,1,27,0.6,13.215,M,-29.745,M,0.0,*56
###2023-12-09 13:35:26.005749$GPGSA,A,3,03,04,16,26,27,28,29,31,,,,,1.0,0.6,0.8*3F
###2023-12-09 13:35:26.007901$GLGSA,A,3,65,71,72,73,74,75,83,,,,,,1.0,0.6,0.8*2F
###2023-12-09 13:35:26.009798$GAGSA,A,3,04,19,21,27,,,,,,,,,1.0,0.6,0.8*26
###2023-12-09 13:35:26.011948$GBGSA,A,3,12,14,24,25,26,33,35,,,,,,1.0,0.6,0.8*2A
###2023-12-09 13:35:26.014802$GPGSV,2,1,08,03,26,246,42,04,47,307,46,16,67,223,46,26,84,040,48*75
###2023-12-09 13:35:26.017615$GPGSV,2,2,08,27,16,172,38,28,38,084,44,29,21,047,41,31,59,066,46*73
###2023-12-09 13:35:26.020431$GLGSV,2,1,07,65,39,318,42,71,22,175,41,72,62,220,45,73,22,052,39*6D
###2023-12-09 13:35:26.022888$GLGSV,2,2,07,74,59,015,43,75,44,272,46,83,15,047,35,,,,*53
###2023-12-09 13:35:26.025691$GAGSV,1,1,04,04,40,310,45,19,72,181,40,21,77,046,46,27,22,050,38*66
###2023-12-09 13:35:26.028507$GBGSV,2,1,07,12,15,126,42,14,29,190,44,24,62,046,48,25,51,276,49*6C
###2023-12-09 13:35:26.031009$GBGSV,2,2,07,26,16,071,43,33,45,217,46,35,16,056,44,,,,*5B
###2023-12-09 13:35:26.032604$GNVTG,163.13,T,,M,1.56,N,2.88,K,A*25
###2023-12-09 13:35:26.034543$GNGST,183525.10,6.100,,,,0.091,0.068,0.150*6B
###2023-12-09 13:35:26.036106$GNZDA,183525.10,09,12,2023,00,00*78
###2023-12-09 13:35:26.036872$GNEBP,,,,,,M*13
###2023-12-09 13:35:26.198709$GNGGA,183525.30,4138.0397401,N,07032.3954815,W,1,27,0.6,13.148,M,-29.745,M,0.0,*5E
###2023-12-09 13:35:26.396477$GNGGA,183525.50,4138.0396708,N,07032.3954877,W,1,27,0.6,13.149,M,-29.745,M,0.0,*56
###2023-12-09 13:35:26.598108$GNGGA,183525.70,4138.0395966,N,07032.3955244,W,1,27,0.6,13.206,M,-29.745,M,0.0,*52
###2023-12-09 13:35:26.796736$GNGGA,183525.90,4138.0395234,N,07032.3955297,W,1,27,0.6,13.189,M,-29.745,M,0.0,*5A
###2023-12-09 13:35:27.001882$GNRMC,183526.10,A,4138.0394563,N,07032.3955355,W,1.30,190.63,091223,,,A*53
###2023-12-09 13:35:27.004770$GNGGA,183526.10,4138.0394563,N,07032.3955355,W,1,27,0.6,13.147,M,-29.745,M,0.0,*58
###2023-12-09 13:35:27.006642$GPGSA,A,3,03,04,16,26,27,28,29,31,,,,,1.0,0.6,0.8*3F
###2023-12-09 13:35:27.008673$GLGSA,A,3,65,71,72,73,74,75,83,,,,,,1.0,0.6,0.8*2F
###2023-12-09 13:35:27.010267$GAGSA,A,3,04,19,21,27,,,,,,,,,1.0,0.6,0.8*26
###2023-12-09 13:35:27.012058$GBGSA,A,3,12,14,24,25,26,33,35,,,,,,1.0,0.6,0.8*2A
###2023-12-09 13:35:27.014380$GPGSV,2,1,08,03,26,246,41,04,47,307,45,16,67,223,45,26,83,040,48*71
###2023-12-09 13:35:27.016714$GPGSV,2,2,08,27,16,172,40,28,38,084,44,29,21,047,43,31,59,066,46*7E
###2023-12-09 13:35:27.019052$GLGSV,2,1,07,65,39,318,44,71,22,175,39,72,62,220,45,73,22,052,44*6E
###2023-12-09 13:35:27.021085$GLGSV,2,2,07,74,59,015,42,75,44,272,46,83,15,047,36,,,,*51
###2023-12-09 13:35:27.023421$GAGSV,1,1,04,04,40,310,45,19,72,181,41,21,77,046,46,27,22,050,42*6A
###2023-12-09 13:35:27.025744$GBGSV,2,1,07,12,15,126,41,14,29,190,41,24,62,046,48,25,51,276,48*6B
###2023-12-09 13:35:27.027785$GBGSV,2,2,07,26,16,071,44,33,45,217,44,35,16,056,44,,,,*5E
###2023-12-09 13:35:27.029107$GNVTG,190.63,T,,M,1.30,N,2.41,K,A*2B
