###2023-12-09 12:37:02.537686$GNGGA,173701.70,4138.0555719,N,07032.3549305,W,1,23,0.7,13.230,M,-29.744,M,0.0,*51
###2023-12-09 12:37:02.736070$GNGGA,173701.90,4138.0556616,N,07032.3550787,W,1,23,0.7,13.232,M,-29.744,M,0.0,*56
###2023-12-09 12:37:02.937512$GNRMC,173702.10,A,4138.0557583,N,07032.3552256,W,2.62,310.97,091223,,,A*53
###2023-12-09 12:37:02.940400$GNGGA,173702.10,4138.0557583,N,07032.3552256,W,1,23,0.7,13.231,M,-29.744,M,0.0,*5B
###2023-12-09 12:37:02.942268$GPGSA,A,3,03,04,16,26,28,29,31,32,,,,,1.2,0.7,1.0*31
###2023-12-09 12:37:02.943938$GLGSA,A,3,71,72,73,74,75,,,,,,,,1.2,0.7,1.0*2D
###2023-12-09 12:37:02.945528$GAGSA,A,3,04,19,21,27,,,,,,,,,1.2,0.7,1.0*2C
###2023-12-09 12:37:02.947219$GBGSA,A,3,14,24,25,26,33,,,,,,,,1.2,0.7,1.0*25
###2023-12-09 12:37:02.949573$GPGSV,2,1,08,03,38,276,44,04,22,311,37,16,37,207,45,26,67,207,47*7E
###2023-12-09 12:37:02.951935$GPGSV,2,2,08,28,57,057,45,29,25,073,41,31,73,004,46,32,29,134,44*7B
###2023-12-09 12:37:02.954274$GLGSV,2,1,05,71,56,169,48,72,66,308,45,73,47,034,47,74,71,293,42*63
###2023-12-09 12:37:02.955745$GLGSV,2,2,05,75,22,241,44,,,,,,,,,,,,*55
###2023-12-09 12:37:02.958075$GAGSV,1,1,04,04,21,311,37,19,82,299,40,21,78,175,46,27,41,049,45*69
###2023-12-09 12:37:02.960438$GBGSV,2,1,05,14,54,197,45,24,80,348,48,25,33,253,44,26,34,058,44*67
###2023-12-09 12:37:02.961904$GBGSV,2,2,05,33,63,253,47,,,,,,,,,,,,*5C
###2023-12-09 12:37:02.963279$GNVTG,310.97,T,,M,2.62,N,4.86,K,A*23
###2023-12-09 12:37:02.964944$GNGST,173702.10,18.000,,,,0.084,0.071,0.170*53
###2023-12-09 12:37:02.966239$GNZDA,173702.10,09,12,2023,00,00*70
###2023-12-09 12:37:02.966894$GNEBP,,,,,,M*13
###2023-12-09 12:37:03.136749$GNGGA,173702.30,4138.0558590,N,07032.3553744,W,1,23,0.7,13.238,M,-29.744,M,0.0,*5A
###2023-12-09 12:37:03.336714$GNGGA,173702.50,4138.0559617,N,07032.3555285,W,1,23,0.7,13.238,M,-29.744,M,0.0,*5F
###2023-12-09 12:37:03.537042$GNGGA,173702.70,4138.0560689,N,07032.3556833,W,1,23,0.7,13.236,M,-29.744,M,0.0,*5A
###2023-12-09 12:37:03.736175$GNGGA,173702.90,4138.0561864,N,07032.3558306,W,1,23,0.7,13.235,M,-29.744,M,0.0,*58
###2023-12-09 12:37:03.937015$GNRMC,173703.10,A,4138.0563138,N,07032.3559694,W,2.92,321.80,091223,,,A*5B
###2023-12-09 12:37:03.939873$GNGGA,173703.10,4138.0563138,N,07032.3559694,W,1,23,0.7,13.240,M,-29.744,M,0.0,*5E
###2023-12-09 12:37:03.941732$GPGSA,A,3,03,04,16,26,28,29,31,32,,,,,1.2,0.7,1.0*31
###2023-12-09 12:37:03.943397$GLGSA,A,3,71,72,73,74,75,,,,,,,,1.2,0.7,1.0*2D
###2023-12-09 12:37:03.944983$GAGSA,A,3,04,19,21,27,,,,,,,,,1.2,0.7,1.0*2C
###2023-12-09 12:37:03.946662$GBGSA,A,3,14,24,25,26,33,,,,,,,,1.2,0.7,1.0*25
###2023-12-09 12:37:03.949012$GPGSV,2,1,08,03,38,276,43,04,22,311,39,16,37,207,44,26,67,207,47*76
###2023-12-09 12:37:03.951364$GPGSV,2,2,08,28,57,057,45,29,25,073,43,31,73,004,47,32,29,134,43*7F
###2023-12-09 12:37:03.953692$GLGSV,2,1,05,71,56,169,48,72,66,308,46,73,47,034,47,74,71,293,42*60
###2023-12-09 12:37:03.955167$GLGSV,2,2,05,75,22,241,45,,,,,,,,,,,,*54
###2023-12-09 12:37:03.957493$GAGSV,1,1,04,04,21,311,39,19,82,299,40,21,78,175,45,27,41,049,43*62
###2023-12-09 12:37:03.959842$GBGSV,2,1,05,14,54,197,45,24,80,348,48,25,33,253,46,26,34,058,44*65
###2023-12-09 12:37:03.961302$GBGSV,2,2,05,33,63,253,48,,,,,,,,,,,,*53
###2023-12-09 12:37:03.962641$GNVTG,321.80,T,,M,2.92,N,5.40,K,A*23
###2023-12-09 12:37:03.964294$GNGST,173703.10,18.000,,,,0.085,0.072,0.170*50
###2023-12-09 12:37:03.965584$GNZDA,173703.10,09,12,2023,00,00*71
###2023-12-09 12:37:03.966222$GNEBP,,,,,,M*13
###2023-12-09 12:37:04.136719$GNGGA,173703.30,4138.0564465,N,07032.3560970,W,1,23,0.7,13.233,M,-29.744,M,0.0,*5D
###2023-12-09 12:37:04.337561$GNGGA,173703.50,4138.0565844,N,07032.3562137,W,1,23,0.7,13.225,M,-29.744,M,0.0,*5B
###2023-12-09 12:37:04.536146$GNGGA,173703.70,4138.0567292,N,07032.3563191,W,1,23,0.7,13.219,M,-29.744,M,0.0,*58
###2023-12-09 12:37:04.736006$GNGGA,173703.90,4138.0568808,N,07032.3563987,W,1,23,0.7,13.220,M,-29.744,M,0.0,*55
###2023-12-09 12:37:04.938411$GNRMC,173704.10,A,4138.0570395,N,07032.3564506,W,2.94,347.84,091223,,,A*5F
###2023-12-09 12:37:04.941292$GNGGA,173704.10,4138.0570395,N,07032.3564506,W,1,23,0.7,13.224,M,-29.744,M,0.0,*5A
###2023-12-09 12:37:04.943169$GPGSA,A,3,03,04,16,26,28,29,31,32,,,,,1.2,0.7,1.0*31
###2023-12-09 12:37:04.944824$GLGSA,A,3,71,72,73,74,75,,,,,,,,1.2,0.7,1.0*2D
###2023-12-09 12:37:04.946420$GAGSA,A,3,04,19,21,27,,,,,,,,,1.2,0.7,1.0*2C
###2023-12-09 12:37:04.948107$GBGSA,A,3,14,24,25,26,33,,,,,,,,1.2,0.7,1.0*25
###2023-12-09 12:37:04.950446$GPGSV,2,1,08,03,38,276,44,04,22,311,40,16,37,207,44,26,67,207,48*70
###2023-12-09 12:37:04.952803$GPGSV,2,2,08,28,57,057,44,29,25,073,43,31,73,004,46,32,29,134,42*7E
###2023-12-09 12:37:04.955156$GLGSV,2,1,05,71,56,169,47,72,66,308,46,73,47,034,45,74,71,293,42*6D
###2023-12-09 12:37:04.956613$GLGSV,2,2,05,75,22,241,45,,,,,,,,,,,,*54
###2023-12-09 12:37:04.958957$GAGSV,1,1,04,04,21,311,40,19,82,299,40,21,78,175,46,27,41,049,43*6F
###2023-12-09 12:37:04.961287$GBGSV,2,1,05,14,54,197,45,24,80,348,48,25,33,253,45,26,34,058,42*60
###2023-12-09 12:37:04.962763$GBGSV,2,2,05,33,63,253,47,,,,,,,,,,,,*5C
###2023-12-09 12:37:04.964089$GNVTG,347.84,T,,M,2.94,N,5.44,K,A*25
###2023-12-09 12:37:04.965737$GNGST,173704.10,18.000,,,,0.085,0.072,0.170*57
###2023-12-09 12:37:04.967039$GNZDA,173704.10,09,12,2023,00,00*76
###2023-12-09 12:37:04.967679$GNEBP,,,,,,M*13
###2023-12-09 12:37:05.136786$GNGGA,173704.30,4138.0572014,N,07032.3564957,W,1,23,0.7,13.221,M,-29.744,M,0.0,*5D
###2023-12-09 12:37:05.336617$GNGGA,173704.50,4138.0573674,N,07032.3565480,W,1,23,0.7,13.220,M,-29.744,M,0.0,*5D
###2023-12-09 12:37:05.537867$GNGGA,173704.70,4138.0575364,N,07032.3566023,W,1,23,0.7,13.225,M,-29.744,M,0.0,*56
###2023-12-09 12:37:05.736124$GNGGA,173704.90,4138.0577117,N,07032.3566462,W,1,23,0.7,13.232,M,-29.744,M,0.0,*5B
###2023-12-09 12:37:05.937980$GNRMC,173705.10,A,4138.0578925,N,07032.3566764,W,3.32,354.67,091223,,,A*51
###2023-12-09 12:37:05.940876$GNGGA,173705.10,4138.0578925,N,07032.3566764,W,1,23,0.7,13.232,M,-29.744,M,0.0,*51
###2023-12-09 12:37:05.942750$GPGSA,A,3,03,04,16,26,28,29,31,32,,,,,1.2,0.7,1.0*31
###2023-12-09 12:37:05.944403$GLGSA,A,3,71,72,73,74,75,,,,,,,,1.2,0.7,1.0*2D
###2023-12-09 12:37:05.945990$GAGSA,A,3,04,19,21,27,,,,,,,,,1.2,0.7,1.0*2C
###2023-12-09 12:37:05.947669$GBGSA,A,3,14,24,25,26,33,,,,,,,,1.2,0.7,1.0*25
###2023-12-09 12:37:05.950021$GPGSV,2,1,08,03,38,276,44,04,22,311,40,16,37,207,43,26,67,207,47*78
###2023-12-09 12:37:05.952399$GPGSV,2,2,08,28,57,057,44,29,25,073,42,31,73,004,45,32,29,134,42*7C
###2023-12-09 12:37:05.954760$GLGSV,2,1,05,71,56,169,47,72,66,308,46,73,47,034,46,74,71,293,42*6E
###2023-12-09 12:37:05.956221$GLGSV,2,2,05,75,22,241,44,,,,,,,,,,,,*55
###2023-12-09 12:37:05.958551$GAGSV,1,1,04,04,21,311,40,19,82,299,40,21,78,175,46,27,41,049,42*6E
###2023-12-09 12:37:05.960904$GBGSV,2,1,05,14,54,197,45,24,80,348,48,25,33,253,45,26,34,058,43*61
###2023-12-09 12:37:05.962364$GBGSV,2,2,05,33,63,253,47,,,,,,,,,,,,*5C
###2023-12-09 12:37:05.963702$GNVTG,354.67,T,,M,3.32,N,6.16,K,A*23
###2023-12-09 12:37:05.965355$GNGST,173705.10,18.000,,,,0.084,0.072,0.170*57
###2023-12-09 12:37:05.966659$GNZDA,173705.10,09,12,2023,00,00*77
###2023-12-09 12:37:05.967299$GNEBP,,,,,,M*13
###2023-12-09 12:37:06.138053$GNGGA,173705.30,4138.0580733,N,07032.3567078,W,1,23,0.7,13.228,M,-29.744,M,0.0,*5D
###2023-12-09 12:37:06.335655$GNGGA,173705.50,4138.0582478,N,07032.3567636,W,1,23,0.7,13.233,M,-29.744,M,0.0,*53
###2023-12-09 12:37:06.538280$GNGGA,173705.70,4138.0584235,N,07032.3568201,W,1,23,0.7,13.237,M,-29.744,M,0.0,*53
###2023-12-09 12:37:06.736883$GNGGA,173705.90,4138.0586007,N,07032.3568524,W,1,23,0.7,13.229,M,-29.744,M,0.0,*53
###2023-12-09 12:37:06.937412$GNRMC,173706.10,A,4138.0587742,N,07032.3568856,W,3.13,349.44,091223,,,A*53
###2023-12-09 12:37:06.940277$GNGGA,173706.10,4138.0587742,N,07032.3568856,W,1,23,0.7,13.227,M,-29.744,M,0.0,*59
###2023-12-09 12:37:06.942135$GPGSA,A,3,03,04,16,26,28,29,31,32,,,,,1.2,0.7,1.0*31
###2023-12-09 12:37:06.943802$GLGSA,A,3,71,72,73,74,75,,,,,,,,1.2,0.7,1.0*2D
###2023-12-09 12:37:06.945389$GAGSA,A,3,04,19,21,27,,,,,,,,,1.2,0.7,1.0*2C
###2023-12-09 12:37:06.947310$GBGSA,A,3,14,24,25,26,33,,,,,,,,1.2,0.7,1.0*25
###2023-12-09 12:37:06.949671$GPGSV,2,1,08,03,38,276,44,04,22,311,40,16,37,207,43,26,67,207,47*78
###2023-12-09 12:37:06.952047$GPGSV,2,2,08,28,57,057,45,29,25,073,42,31,73,004,45,32,29,134,42*7D
###2023-12-09 12:37:06.954407$GLGSV,2,1,05,71,56,169,48,72,66,308,46,73,47,034,45,74,71,293,42*62
###2023-12-09 12:37:06.955894$GLGSV,2,2,05,75,22,241,45,,,,,,,,,,,,*54
###2023-12-09 12:37:06.958238$GAGSV,1,1,04,04,21,311,40,19,82,299,40,21,78,175,46,27,41,049,42*6E
###2023-12-09 12:37:06.960590$GBGSV,2,1,05,14,54,197,45,24,80,351,48,25,33,253,45,26,34,058,44*6E
###2023-12-09 12:37:06.962047$GBGSV,2,2,05,33,63,253,48,,,,,,,,,,,,*53
###2023-12-09 12:37:06.963389$GNVTG,349.44,T,,M,3.13,N,5.80,K,A*21
