###2023-12-09 12:50:17.955584$GLGSA,A,3,65,71,72,73,74,75,,,,,,,1.1,0.6,0.9*24
###2023-12-09 12:50:17.957191$GAGSA,A,3,04,19,21,27,,,,,,,,,1.1,0.6,0.9*26
###2023-12-09 12:50:17.958852$GBGSA,A,3,14,24,25,26,33,,,,,,,,1.1,0.6,0.9*2F
###2023-12-09 12:50:17.961172$GPGSV,2,1,08,03,37,268,44,04,28,311,40,16,44,210,44,26,74,208,47*7A
###2023-12-09 12:50:17.963513$GPGSV,2,2,08,28,53,065,45,29,26,066,43,31,71,024,46,32,23,138,42*7B
###2023-12-09 12:50:17.965852$GLGSV,2,1,06,65,18,329,43,71,48,171,45,72,71,291,45,73,41,038,46*69
###2023-12-09 12:50:17.967627$GLGSV,2,2,06,74,71,317,43,75,28,247,46,,,,,,,,*6F
###2023-12-09 12:50:17.969959$GAGSV,1,1,04,04,26,312,39,19,85,260,40,21,83,158,45,27,36,048,44*6A
###2023-12-09 12:50:17.972307$GBGSV,2,1,05,14,49,195,43,24,77,011,48,25,37,257,46,26,30,060,44*65
###2023-12-09 12:50:17.973762$GBGSV,2,2,05,33,61,241,48,,,,,,,,,,,,*52
###2023-12-09 12:50:17.975096$GNVTG,152.77,T,,M,2.51,N,4.64,K,A*25
###2023-12-09 12:50:17.976742$GNGST,175017.10,18.000,,,,0.080,0.070,0.160*52
###2023-12-09 12:50:17.978037$GNZDA,175017.10,09,12,2023,00,00*75
###2023-12-09 12:50:17.978684$GNEBP,,,,,,M*13
###2023-12-09 12:50:18.148414$GNGGA,175017.30,4138.0668490,N,07032.3895819,W,1,24,0.6,13.558,M,-29.744,M,0.0,*59
###2023-12-09 12:50:18.348998$GNGGA,175017.50,4138.0667196,N,07032.3894948,W,1,24,0.6,13.549,M,-29.744,M,0.0,*57
###2023-12-09 12:50:18.549042$GNGGA,175017.70,4138.0665871,N,07032.3894262,W,1,24,0.6,13.552,M,-29.744,M,0.0,*5E
###2023-12-09 12:50:18.750115$GNGGA,175017.90,4138.0664476,N,07032.3893601,W,1,24,0.6,13.549,M,-29.744,M,0.0,*56
###2023-12-09 12:50:18.947627$GNRMC,175018.10,A,4138.0663174,N,07032.3892896,W,2.59,158.99,091223,,,A*5E
###2023-12-09 12:50:18.950487$GNGGA,175018.10,4138.0663174,N,07032.3892896,W,1,24,0.6,13.549,M,-29.744,M,0.0,*50
###2023-12-09 12:50:18.952365$GPGSA,A,3,03,04,16,26,28,29,31,32,,,,,1.1,0.6,0.9*3B
###2023-12-09 12:50:18.954083$GLGSA,A,3,65,71,72,73,74,75,,,,,,,1.1,0.6,0.9*24
###2023-12-09 12:50:18.955692$GAGSA,A,3,04,19,21,27,,,,,,,,,1.1,0.6,0.9*26
###2023-12-09 12:50:18.957348$GBGSA,A,3,14,24,25,26,33,,,,,,,,1.1,0.6,0.9*2F
###2023-12-09 12:50:18.959700$GPGSV,2,1,08,03,37,268,44,04,28,311,40,16,44,210,44,26,74,208,47*7A
###2023-12-09 12:50:18.962051$GPGSV,2,2,08,28,53,065,45,29,26,066,44,31,71,024,47,32,23,138,42*7D
###2023-12-09 12:50:18.964410$GLGSV,2,1,06,65,18,329,43,71,48,171,45,72,71,291,46,73,41,038,46*6A
###2023-12-09 12:50:18.966161$GLGSV,2,2,06,74,71,317,43,75,28,247,45,,,,,,,,*6C
###2023-12-09 12:50:18.968508$GAGSV,1,1,04,04,26,312,40,19,85,260,40,21,83,158,45,27,36,048,44*64
###2023-12-09 12:50:18.970853$GBGSV,2,1,05,14,49,195,44,24,77,011,47,25,37,257,46,26,30,060,45*6C
###2023-12-09 12:50:18.972314$GBGSV,2,2,05,33,61,241,48,,,,,,,,,,,,*52
###2023-12-09 12:50:18.973634$GNVTG,158.99,T,,M,2.59,N,4.79,K,A*2B
###2023-12-09 12:50:18.975295$GNGST,175018.10,18.000,,,,0.080,0.069,0.160*55
###2023-12-09 12:50:18.976587$GNZDA,175018.10,09,12,2023,00,00*7A
###2023-12-09 12:50:18.977227$GNEBP,,,,,,M*13
###2023-12-09 12:50:19.147149$GNGGA,175018.30,4138.0661757,N,07032.3892225,W,1,24,0.6,13.549,M,-29.744,M,0.0,*55
###2023-12-09 12:50:19.347553$GNGGA,175018.50,4138.0660426,N,07032.3891591,W,1,24,0.6,13.537,M,-29.744,M,0.0,*55
###2023-12-09 12:50:19.547956$GNGGA,175018.70,4138.0659129,N,07032.3891029,W,1,24,0.6,13.550,M,-29.744,M,0.0,*50
###2023-12-09 12:50:19.746926$GNGGA,175018.90,4138.0657682,N,07032.3890444,W,1,24,0.6,13.543,M,-29.744,M,0.0,*5A
###2023-12-09 12:50:19.948983$GNRMC,175019.10,A,4138.0656457,N,07032.3889770,W,2.18,155.13,091223,,,A*5A
###2023-12-09 12:50:19.951858$GNGGA,175019.10,4138.0656457,N,07032.3889770,W,1,24,0.6,13.525,M,-29.744,M,0.0,*54
###2023-12-09 12:50:19.953730$GPGSA,A,3,03,04,16,26,28,29,31,32,,,,,1.1,0.6,0.9*3B
###2023-12-09 12:50:19.955473$GLGSA,A,3,65,71,72,73,74,75,,,,,,,1.1,0.6,0.9*24
###2023-12-09 12:50:19.957056$GAGSA,A,3,04,19,21,27,,,,,,,,,1.1,0.6,0.9*26
###2023-12-09 12:50:19.958728$GBGSA,A,3,14,24,25,26,33,,,,,,,,1.1,0.6,0.9*2F
###2023-12-09 12:50:19.961068$GPGSV,2,1,08,03,37,268,44,04,28,311,40,16,44,210,45,26,74,208,47*7B
###2023-12-09 12:50:19.963420$GPGSV,2,2,08,28,53,065,45,29,26,066,44,31,71,024,46,32,23,138,41*7F
###2023-12-09 12:50:19.965763$GLGSV,2,1,06,65,18,329,43,71,48,171,46,72,71,291,46,73,41,038,47*68
###2023-12-09 12:50:19.967520$GLGSV,2,2,06,74,71,317,43,75,28,247,45,,,,,,,,*6C
###2023-12-09 12:50:19.969856$GAGSV,1,1,04,04,26,312,40,19,85,260,40,21,83,158,45,27,36,048,44*64
###2023-12-09 12:50:19.972199$GBGSV,2,1,05,14,49,195,44,24,77,011,48,25,37,257,47,26,30,060,46*61
###2023-12-09 12:50:19.973656$GBGSV,2,2,05,33,61,241,48,,,,,,,,,,,,*52
###2023-12-09 12:50:19.974988$GNVTG,155.13,T,,M,2.18,N,4.03,K,A*2C
###2023-12-09 12:50:19.976644$GNGST,175019.10,18.000,,,,0.080,0.069,0.160*54
###2023-12-09 12:50:19.977933$GNZDA,175019.10,09,12,2023,00,00*7B
###2023-12-09 12:50:19.978578$GNEBP,,,,,,M*13
###2023-12-09 12:50:20.152485$GNGGA,175019.30,4138.0655248,N,07032.3889113,W,1,24,0.6,13.538,M,-29.744,M,0.0,*52
###2023-12-09 12:50:20.349023$GNGGA,175019.50,4138.0653853,N,07032.3888512,W,1,24,0.6,13.551,M,-29.744,M,0.0,*59
###2023-12-09 12:50:20.549004$GNGGA,175019.70,4138.0652626,N,07032.3887911,W,1,24,0.6,13.543,M,-29.744,M,0.0,*55
###2023-12-09 12:50:20.752553$GNGGA,175019.90,4138.0651437,N,07032.3887056,W,1,24,0.6,13.545,M,-29.744,M,0.0,*56
###2023-12-09 12:50:20.951327$GNRMC,175020.10,A,4138.0650229,N,07032.3886163,W,2.39,152.39,091223,,,A*5E
###2023-12-09 12:50:20.954838$GNGGA,175020.10,4138.0650229,N,07032.3886163,W,1,24,0.6,13.539,M,-29.744,M,0.0,*51
###2023-12-09 12:50:20.957088$GPGSA,A,3,03,04,16,26,28,29,31,32,,,,,1.1,0.6,0.9*3B
###2023-12-09 12:50:20.959173$GLGSA,A,3,65,71,72,73,74,75,,,,,,,1.1,0.6,0.9*24
###2023-12-09 12:50:20.961084$GAGSA,A,3,04,19,21,27,,,,,,,,,1.1,0.6,0.9*26
###2023-12-09 12:50:20.963079$GBGSA,A,3,14,24,25,26,33,,,,,,,,1.1,0.6,0.9*2F
###2023-12-09 12:50:20.965880$GPGSV,2,1,08,03,37,268,44,04,28,311,41,16,44,210,46,26,74,208,48*76
###2023-12-09 12:50:20.968691$GPGSV,2,2,08,28,53,065,45,29,26,066,43,31,71,024,47,32,23,138,42*7A
###2023-12-09 12:50:20.971506$GLGSV,2,1,06,65,18,329,42,71,48,171,46,72,71,291,46,73,41,038,47*69
###2023-12-09 12:50:20.973638$GLGSV,2,2,06,74,71,317,43,75,28,247,44,,,,,,,,*6D
###2023-12-09 12:50:20.976439$GAGSV,1,1,04,04,26,312,39,19,85,260,40,21,83,158,45,27,36,048,44*6A
###2023-12-09 12:50:20.979249$GBGSV,2,1,05,14,49,195,45,24,77,011,49,25,37,257,47,26,30,060,45*62
###2023-12-09 12:50:20.980990$GBGSV,2,2,05,33,61,241,49,,,,,,,,,,,,*53
###2023-12-09 12:50:20.982590$GNVTG,152.39,T,,M,2.39,N,4.43,K,A*24
###2023-12-09 12:50:20.984562$GNGST,175020.10,18.000,,,,0.080,0.068,0.160*5F
###2023-12-09 12:50:20.986116$GNZDA,175020.10,09,12,2023,00,00*71
###2023-12-09 12:50:20.986904$GNEBP,,,,,,M*13
###2023-12-09 12:50:21.149319$GNGGA,175020.30,4138.0649089,N,07032.3885356,W,1,24,0.6,13.541,M,-29.744,M,0.0,*5B
###2023-12-09 12:50:21.349318$GNGGA,175020.50,4138.0647804,N,07032.3884445,W,1,24,0.6,13.561,M,-29.744,M,0.0,*58
###2023-12-09 12:50:21.548976$GNGGA,175020.70,4138.0646586,N,07032.3883427,W,1,24,0.6,13.547,M,-29.744,M,0.0,*5B
###2023-12-09 12:50:21.748920$GNGGA,175020.90,4138.0645610,N,07032.3882297,W,1,24,0.6,13.541,M,-29.744,M,0.0,*50
###2023-12-09 12:50:21.947822$GNRMC,175021.10,A,4138.0644567,N,07032.3881079,W,2.66,139.80,091223,,,A*5F
###2023-12-09 12:50:21.950699$GNGGA,175021.10,4138.0644567,N,07032.3881079,W,1,24,0.6,13.553,M,-29.744,M,0.0,*59
###2023-12-09 12:50:21.952558$GPGSA,A,3,03,04,16,26,28,29,31,32,,,,,1.1,0.6,0.9*3B
###2023-12-09 12:50:21.954275$GLGSA,A,3,65,71,72,73,74,75,,,,,,,1.1,0.6,0.9*24
###2023-12-09 12:50:21.955876$GAGSA,A,3,04,19,21,27,,,,,,,,,1.1,0.6,0.9*26
###2023-12-09 12:50:21.957527$GBGSA,A,3,14,24,25,26,33,,,,,,,,1.1,0.6,0.9*2F
###2023-12-09 12:50:21.959868$GPGSV,2,1,08,03,37,268,44,04,28,311,43,16,44,210,45,26,74,208,48*77
###2023-12-09 12:50:21.962194$GPGSV,2,2,08,28,53,065,44,29,26,066,44,31,71,024,47,32,23,138,42*7C
###2023-12-09 12:50:21.964533$GLGSV,2,1,06,65,18,329,44,71,48,171,45,72,71,291,46,73,41,038,47*6C
###2023-12-09 12:50:21.966275$GLGSV,2,2,06,74,71,317,42,75,28,247,43,,,,,,,,*6B
###2023-12-09 12:50:21.968896$GAGSV,1,1,04,04,26,312,41,19,85,260,40,21,83,158,45,27,36,048,43*62
###2023-12-09 12:50:21.971259$GBGSV,2,1,05,14,49,195,44,24,77,011,47,25,37,257,45,26,30,060,45*6F
###2023-12-09 12:50:21.972720$GBGSV,2,2,05,33,61,241,47,,,,,,,,,,,,*5D
###2023-12-09 12:50:21.974039$GNVTG,139.80,T,,M,2.66,N,4.93,K,A*2C
###2023-12-09 12:50:21.975695$GNGST,175021.10,18.000,,,,0.079,0.068,0.160*58
###2023-12-09 12:50:21.976983$GNZDA,175021.10,09,12,2023,00,00*70
###2023-12-09 12:50:21.977623$GNEBP,,,,,,M*13
###2023-12-09 12:50:22.148197$GNGGA,175021.30,4138.0643442,N,07032.3879845,W,1,24,0.6,13.552,M,-29.744,M,0.0,*5B
###2023-12-09 12:50:22.348838$GNGGA,175021.50,4138.0642471,N,07032.3878592,W,1,24,0.6,13.557,M,-29.744,M,0.0,*5F
