###2023-12-09 13:09:49.000613$GBGSV,2,2,06,33,55,228,48,35,15,066,43,,,,,,,,*6C
###2023-12-09 13:09:49.001962$GNVTG,180.75,T,,M,3.50,N,6.48,K,A*24
###2023-12-09 13:09:49.003641$GNGST,180948.10,18.000,,,,0.083,0.064,0.150*5E
###2023-12-09 13:09:49.004938$GNZDA,180948.10,09,12,2023,00,00*7C
###2023-12-09 13:09:49.005581$GNEBP,,,,,,M*13
###2023-12-09 13:09:49.171405$GNGGA,180948.30,4138.0631455,N,07032.2587899,W,1,25,0.6,13.307,M,-29.742,M,0.0,*59
###2023-12-09 13:09:49.372011$GNGGA,180948.50,4138.0629502,N,07032.2588037,W,1,25,0.6,13.311,M,-29.742,M,0.0,*51
###2023-12-09 13:09:49.573397$GNGGA,180948.70,4138.0627537,N,07032.2588205,W,1,25,0.6,13.305,M,-29.742,M,0.0,*5D
###2023-12-09 13:09:49.772242$GNGGA,180948.90,4138.0625554,N,07032.2588468,W,1,25,0.6,13.309,M,-29.742,M,0.0,*55
###2023-12-09 13:09:49.975611$GNRMC,180949.10,A,4138.0623561,N,07032.2588814,W,3.54,187.95,091223,,,A*52
###2023-12-09 13:09:49.979121$GNGGA,180949.10,4138.0623561,N,07032.2588814,W,1,25,0.6,13.310,M,-29.742,M,0.0,*53
###2023-12-09 13:09:49.981379$GPGSA,A,3,03,04,16,26,28,29,31,32,,,,,1.1,0.6,0.9*3B
###2023-12-09 13:09:49.983481$GLGSA,A,3,65,71,72,73,74,75,,,,,,,1.1,0.6,0.9*24
###2023-12-09 13:09:49.985408$GAGSA,A,3,04,19,21,27,,,,,,,,,1.1,0.6,0.9*26
###2023-12-09 13:09:49.987508$GBGSA,A,3,14,24,25,26,33,35,,,,,,,1.1,0.6,0.9*29
###2023-12-09 13:09:49.990336$GPGSV,2,1,08,03,33,257,41,04,36,311,45,16,54,214,45,26,84,210,47*7F
###2023-12-09 13:09:49.993183$GPGSV,2,2,08,28,46,074,46,29,24,057,42,31,67,046,47,32,15,141,42*74
###2023-12-09 13:09:49.996026$GLGSV,2,1,06,65,27,326,42,71,36,173,42,72,72,254,46,73,32,044,44*63
###2023-12-09 13:09:49.998153$GLGSV,2,2,06,74,68,348,43,75,35,257,46,,,,,,,,*60
###2023-12-09 13:09:50.001022$GAGSV,1,1,04,04,32,312,43,19,82,199,40,21,85,085,46,27,31,048,40*67
###2023-12-09 13:09:50.003858$GBGSV,2,1,06,14,40,192,42,24,71,031,48,25,43,265,47,26,24,064,44*6F
###2023-12-09 13:09:50.005968$GBGSV,2,2,06,33,55,228,47,35,15,066,44,,,,,,,,*64
###2023-12-09 13:09:50.007579$GNVTG,187.95,T,,M,3.54,N,6.55,K,A*25
###2023-12-09 13:09:50.009572$GNGST,180949.10,18.000,,,,0.083,0.064,0.150*5F
###2023-12-09 13:09:50.011144$GNZDA,180949.10,09,12,2023,00,00*7D
###2023-12-09 13:09:50.011918$GNEBP,,,,,,M*13
###2023-12-09 13:09:50.171938$GNGGA,180949.30,4138.0621636,N,07032.2589282,W,1,25,0.6,13.312,M,-29.742,M,0.0,*54
###2023-12-09 13:09:50.372888$GNGGA,180949.50,4138.0619685,N,07032.2589620,W,1,25,0.6,13.302,M,-29.742,M,0.0,*5C
###2023-12-09 13:09:50.574111$GNGGA,180949.70,4138.0617683,N,07032.2589916,W,1,25,0.6,13.296,M,-29.742,M,0.0,*50
###2023-12-09 13:09:50.774556$GNGGA,180949.90,4138.0615786,N,07032.2590467,W,1,25,0.6,13.314,M,-29.742,M,0.0,*50
###2023-12-09 13:09:50.973646$GNRMC,180950.10,A,4138.0613787,N,07032.2590932,W,3.63,184.04,091223,,,A*50
###2023-12-09 13:09:50.977107$GNGGA,180950.10,4138.0613787,N,07032.2590932,W,1,25,0.6,13.308,M,-29.742,M,0.0,*57
###2023-12-09 13:09:50.979358$GPGSA,A,3,03,04,16,26,28,29,31,32,,,,,1.1,0.6,0.9*3B
###2023-12-09 13:09:50.981426$GLGSA,A,3,65,71,72,73,74,75,,,,,,,1.1,0.6,0.9*24
###2023-12-09 13:09:50.983349$GAGSA,A,3,04,19,21,27,,,,,,,,,1.1,0.6,0.9*26
###2023-12-09 13:09:50.985412$GBGSA,A,3,14,24,25,26,33,35,,,,,,,1.1,0.6,0.9*29
###2023-12-09 13:09:50.988223$GPGSV,2,1,08,03,33,257,43,04,36,311,45,16,54,214,45,26,84,210,47*7D
###2023-12-09 13:09:50.991040$GPGSV,2,2,08,28,46,074,45,29,24,057,40,31,67,046,48,32,15,141,41*79
###2023-12-09 13:09:50.993884$GLGSV,2,1,06,65,27,326,42,71,36,173,42,72,72,254,46,73,32,044,44*63
###2023-12-09 13:09:50.996015$GLGSV,2,2,06,74,68,348,43,75,35,257,46,,,,,,,,*60
###2023-12-09 13:09:50.998880$GAGSV,1,1,04,04,32,312,43,19,82,199,40,21,85,085,46,27,31,048,41*66
###2023-12-09 13:09:51.001692$GBGSV,2,1,06,14,40,192,42,24,71,031,48,25,43,265,47,26,24,064,43*68
###2023-12-09 13:09:51.003814$GBGSV,2,2,06,33,55,228,47,35,15,066,44,,,,,,,,*64
###2023-12-09 13:09:51.005413$GNVTG,184.04,T,,M,3.63,N,6.73,K,A*2E
###2023-12-09 13:09:51.007412$GNGST,180950.10,18.000,,,,0.084,0.064,0.150*50
###2023-12-09 13:09:51.008970$GNZDA,180950.10,09,12,2023,00,00*75
###2023-12-09 13:09:51.009738$GNEBP,,,,,,M*13
###2023-12-09 13:09:51.174002$GNGGA,180950.30,4138.0611837,N,07032.2591110,W,1,25,0.6,13.283,M,-29.742,M,0.0,*58
###2023-12-09 13:09:51.372110$GNGGA,180950.50,4138.0609939,N,07032.2591639,W,1,25,0.6,13.322,M,-29.742,M,0.0,*5E
###2023-12-09 13:09:51.571763$GNGGA,180950.70,4138.0607977,N,07032.2592156,W,1,25,0.6,13.315,M,-29.742,M,0.0,*51
###2023-12-09 13:09:51.771923$GNGGA,180950.90,4138.0606063,N,07032.2592180,W,1,25,0.6,13.294,M,-29.742,M,0.0,*51
###2023-12-09 13:09:51.973657$GNRMC,180951.10,A,4138.0604173,N,07032.2592315,W,3.54,183.75,091223,,,A*52
###2023-12-09 13:09:51.977125$GNGGA,180951.10,4138.0604173,N,07032.2592315,W,1,25,0.6,13.323,M,-29.742,M,0.0,*59
###2023-12-09 13:09:51.979378$GPGSA,A,3,03,04,16,26,28,29,31,32,,,,,1.1,0.6,0.9*3B
###2023-12-09 13:09:51.981446$GLGSA,A,3,65,71,72,73,74,75,,,,,,,1.1,0.6,0.9*24
###2023-12-09 13:09:51.983355$GAGSA,A,3,04,19,21,27,,,,,,,,,1.1,0.6,0.9*26
###2023-12-09 13:09:51.985409$GBGSA,A,3,14,24,25,26,33,35,,,,,,,1.1,0.6,0.9*29
###2023-12-09 13:09:51.988215$GPGSV,2,1,08,03,33,257,42,04,36,311,45,16,54,214,46,26,84,210,48*70
###2023-12-09 13:09:51.991025$GPGSV,2,2,08,28,46,074,46,29,24,057,43,31,67,046,48,32,15,141,40*78
###2023-12-09 13:09:51.993829$GLGSV,2,1,06,65,27,326,42,71,36,173,43,72,72,254,46,73,32,044,45*63
###2023-12-09 13:09:51.995949$GLGSV,2,2,06,74,68,348,43,75,35,257,45,,,,,,,,*63
###2023-12-09 13:09:51.998803$GAGSV,1,1,04,04,32,312,42,19,82,199,40,21,85,085,46,27,31,048,42*64
###2023-12-09 13:09:52.001646$GBGSV,2,1,06,14,40,192,42,24,71,031,50,25,43,265,47,26,24,064,44*66
###2023-12-09 13:09:52.003759$GBGSV,2,2,06,33,55,228,48,35,15,066,44,,,,,,,,*6B
###2023-12-09 13:09:52.005357$GNVTG,183.75,T,,M,3.54,N,6.55,K,A*2F
###2023-12-09 13:09:52.007353$GNGST,180951.10,18.000,,,,0.084,0.064,0.150*51
###2023-12-09 13:09:52.008903$GNZDA,180951.10,09,12,2023,00,00*74
###2023-12-09 13:09:52.009679$GNEBP,,,,,,M*13
###2023-12-09 13:09:52.172154$GNGGA,180951.30,4138.0602169,N,07032.2592542,W,1,25,0.6,13.317,M,-29.742,M,0.0,*55
###2023-12-09 13:09:52.373811$GNGGA,180951.50,4138.0600280,N,07032.2592542,W,1,25,0.6,13.309,M,-29.742,M,0.0,*5A
###2023-12-09 13:09:52.574805$GNGGA,180951.70,4138.0598370,N,07032.2592501,W,1,25,0.6,13.331,M,-29.742,M,0.0,*58
###2023-12-09 13:09:52.772541$GNGGA,180951.90,4138.0596391,N,07032.2592342,W,1,25,0.6,13.309,M,-29.742,M,0.0,*5D
###2023-12-09 13:09:52.975489$GNRMC,180952.10,A,4138.0594524,N,07032.2592300,W,3.38,180.82,091223,,,A*58
###2023-12-09 13:09:52.978345$GNGGA,180952.10,4138.0594524,N,07032.2592300,W,1,25,0.6,13.305,M,-29.742,M,0.0,*56
###2023-12-09 13:09:52.980210$GPGSA,A,3,03,04,16,26,28,29,31,32,,,,,1.1,0.6,0.9*3B
###2023-12-09 13:09:52.981914$GLGSA,A,3,65,71,72,73,74,75,,,,,,,1.1,0.6,0.9*24
###2023-12-09 13:09:52.983504$GAGSA,A,3,04,19,21,27,,,,,,,,,1.1,0.6,0.9*26
###2023-12-09 13:09:52.985211$GBGSA,A,3,14,24,25,26,33,35,,,,,,,1.1,0.6,0.9*29
###2023-12-09 13:09:52.987537$GPGSV,2,1,08,03,33,257,44,04,36,311,45,16,54,214,48,26,84,210,49*79
###2023-12-09 13:09:52.989858$GPGSV,2,2,08,28,46,074,46,29,24,057,44,31,67,046,48,32,15,141,42*7D
###2023-12-09 13:09:52.992186$GLGSV,2,1,06,65,27,326,42,71,36,173,46,72,72,254,46,73,32,044,45*66
###2023-12-09 13:09:52.993958$GLGSV,2,2,06,74,68,348,42,75,35,257,45,,,,,,,,*62
###2023-12-09 13:09:52.996296$GAGSV,1,1,04,04,32,312,42,19,82,199,40,21,85,085,47,27,31,048,43*64
###2023-12-09 13:09:52.998630$GBGSV,2,1,06,14,40,192,43,24,71,031,49,25,43,265,47,26,24,064,44*6F
###2023-12-09 13:09:53.000371$GBGSV,2,2,06,33,55,228,48,35,15,066,44,,,,,,,,*6B
###2023-12-09 13:09:53.001687$GNVTG,180.82,T,,M,3.38,N,6.26,K,A*2A
###2023-12-09 13:09:53.003333$GNGST,180952.10,18.000,,,,0.084,0.064,0.150*52
###2023-12-09 13:09:53.004615$GNZDA,180952.10,09,12,2023,00,00*77
###2023-12-09 13:09:53.005249$GNEBP,,,,,,M*13
###2023-12-09 13:09:53.171241$GNGGA,180952.30,4138.0592598,N,07032.2592380,W,1,25,0.6,13.329,M,-29.742,M,0.0,*53
###2023-12-09 13:09:53.370875$GNGGA,180952.50,4138.0590670,N,07032.2592345,W,1,25,0.6,13.321,M,-29.742,M,0.0,*53
###2023-12-09 13:09:53.572398$GNGGA,180952.70,4138.0588759,N,07032.2592319,W,1,25,0.6,13.313,M,-29.742,M,0.0,*5A
###2023-12-09 13:09:53.773975$GNGGA,180952.90,4138.0586848,N,07032.2592320,W,1,25,0.6,13.317,M,-29.742,M,0.0,*5B
###2023-12-09 13:09:53.972946$GNRMC,180953.10,A,4138.0584894,N,07032.2592439,W,3.50,183.87,091223,,,A*5B
###2023-12-09 13:09:53.975830$GNGGA,180953.10,4138.0584894,N,07032.2592439,W,1,25,0.6,13.332,M,-29.742,M,0.0,*59
###2023-12-09 13:09:53.977695$GPGSA,A,3,03,04,16,26,28,29,31,32,,,,,1.1,0.6,0.9*3B
###2023-12-09 13:09:53.979428$GLGSA,A,3,65,71,72,73,74,75,,,,,,,1.1,0.6,0.9*24
###2023-12-09 13:09:53.981010$GAGSA,A,3,04,19,21,27,,,,,,,,,1.1,0.6,0.9*26
###2023-12-09 13:09:53.982731$GBGSA,A,3,14,24,25,26,33,35,,,,,,,1.1,0.6,0.9*29
###2023-12-09 13:09:53.985073$GPGSV,2,1,08,03,33,257,43,04,36,311,44,16,54,214,45,26,84,210,48*73
