###2023-12-09 13:41:58.016296$GLGSA,A,3,65,72,73,74,75,,,,,,,,1.2,0.7,0.9*20
###2023-12-09 13:41:58.017911$GAGSA,A,3,04,19,21,27,,,,,,,,,1.2,0.7,0.9*24
###2023-12-09 13:41:58.019588$GBGSA,A,3,12,24,25,33,35,,,,,,,,1.2,0.7,0.9*29
###2023-12-09 13:41:58.021922$GPGSV,2,1,08,03,24,243,40,04,49,306,44,09,15,317,43,16,70,226,46*71
###2023-12-09 13:41:58.024271$GPGSV,2,2,08,26,80,041,48,28,35,088,45,29,19,044,40,31,57,071,47*7B
###2023-12-09 13:41:58.026620$GLGSV,2,1,05,65,41,315,42,72,59,216,46,73,20,054,43,74,57,019,43*64
###2023-12-09 13:41:58.028078$GLGSV,2,2,05,75,45,276,46,,,,,,,,,,,,*52
###2023-12-09 13:41:58.030398$GAGSV,1,1,04,04,42,309,43,19,69,180,41,21,74,044,46,27,20,051,42*6F
###2023-12-09 13:41:58.032744$GBGSV,2,1,05,12,17,124,42,24,60,049,49,25,53,279,46,33,43,215,47*64
###2023-12-09 13:41:58.034196$GBGSV,2,2,05,35,16,054,44,,,,,,,,,,,,*5E
###2023-12-09 13:41:58.035543$GNVTG,278.17,T,,M,1.13,N,2.09,K,A*20
###2023-12-09 13:41:58.037158$GNGST,184157.10,5.600,,,,0.130,0.095,0.220*65
###2023-12-09 13:41:58.038446$GNZDA,184157.10,09,12,2023,00,00*7E
###2023-12-09 13:41:58.039093$GNEBP,,,,,,M*13
###2023-12-09 13:41:58.198167$GNGGA,184157.30,4138.0386265,N,07032.4233266,W,1,22,0.7,13.348,M,-29.745,M,0.0,*59
###2023-12-09 13:41:58.398504$GNGGA,184157.50,4138.0386396,N,07032.4234087,W,1,22,0.7,13.352,M,-29.745,M,0.0,*53
###2023-12-09 13:41:58.596082$GNGGA,184157.70,4138.0386529,N,07032.4234863,W,1,23,0.7,13.347,M,-29.745,M,0.0,*54
###2023-12-09 13:41:58.795825$GNGGA,184157.90,4138.0386641,N,07032.4235652,W,1,22,0.7,13.351,M,-29.745,M,0.0,*5C
###2023-12-09 13:41:59.001718$GNRMC,184158.10,A,4138.0386765,N,07032.4236412,W,1.07,282.22,091223,,,A*52
###2023-12-09 13:41:59.007184$GNGGA,184158.10,4138.0386765,N,07032.4236412,W,1,22,0.7,13.360,M,-29.745,M,0.0,*5B
###2023-12-09 13:41:59.009695$GPGSA,A,3,03,04,09,16,26,28,29,31,,,,,1.2,0.7,0.9*31
###2023-12-09 13:41:59.011597$GLGSA,A,3,65,72,73,74,75,,,,,,,,1.2,0.7,0.9*20
###2023-12-09 13:41:59.013405$GAGSA,A,3,04,19,21,27,,,,,,,,,1.2,0.7,0.9*24
###2023-12-09 13:41:59.015300$GBGSA,A,3,12,24,25,33,35,,,,,,,,1.2,0.7,0.9*29
###2023-12-09 13:41:59.017967$GPGSV,2,1,08,03,24,243,37,04,49,306,43,09,15,317,42,16,70,226,45*74
###2023-12-09 13:41:59.020474$GPGSV,2,2,08,26,80,041,48,28,35,088,45,29,19,044,41,31,57,071,47*7A
###2023-12-09 13:41:59.022801$GLGSV,2,1,05,65,41,315,42,72,59,216,46,73,20,054,43,74,57,019,43*64
###2023-12-09 13:41:59.024243$GLGSV,2,2,05,75,45,276,44,,,,,,,,,,,,*50
###2023-12-09 13:41:59.026545$GAGSV,1,1,04,04,42,309,42,19,69,180,41,21,74,044,46,27,20,051,41*6D
###2023-12-09 13:41:59.028860$GBGSV,2,1,05,12,17,124,40,24,60,049,49,25,53,279,45,33,43,215,46*64
###2023-12-09 13:41:59.030295$GBGSV,2,2,05,35,16,054,43,,,,,,,,,,,,*59
###2023-12-09 13:41:59.031612$GNVTG,282.22,T,,M,1.07,N,1.98,K,A*2D
###2023-12-09 13:41:59.033213$GNGST,184158.10,5.700,,,,0.130,0.094,0.220*6A
###2023-12-09 13:41:59.034486$GNZDA,184158.10,09,12,2023,00,00*71
###2023-12-09 13:41:59.035128$GNEBP,,,,,,M*13
###2023-12-09 13:41:59.202662$GNGGA,184158.30,4138.0386882,N,07032.4237193,W,1,21,0.7,13.348,M,-29.745,M,0.0,*5B
###2023-12-09 13:41:59.396141$GNGGA,184158.50,4138.0387053,N,07032.4237929,W,1,21,0.7,13.355,M,-29.745,M,0.0,*5D
###2023-12-09 13:41:59.597267$GNGGA,184158.70,4138.0387197,N,07032.4238658,W,1,22,0.7,13.364,M,-29.745,M,0.0,*51
###2023-12-09 13:41:59.796563$GNGGA,184158.90,4138.0387319,N,07032.4239417,W,1,22,0.7,13.367,M,-29.745,M,0.0,*50
###2023-12-09 13:41:59.999503$GNRMC,184159.10,A,4138.0387437,N,07032.4240132,W,1.01,281.35,091223,,,A*53
###2023-12-09 13:42:00.002372$GNGGA,184159.10,4138.0387437,N,07032.4240132,W,1,22,0.7,13.365,M,-29.745,M,0.0,*5C
###2023-12-09 13:42:00.004250$GPGSA,A,3,03,04,09,16,26,28,29,31,,,,,1.2,0.7,0.9*31
###2023-12-09 13:42:00.005899$GLGSA,A,3,65,72,73,74,75,,,,,,,,1.2,0.7,0.9*20
###2023-12-09 13:42:00.007493$GAGSA,A,3,04,19,21,27,,,,,,,,,1.2,0.7,0.9*24
###2023-12-09 13:42:00.009136$GBGSA,A,3,12,24,25,33,35,,,,,,,,1.2,0.7,0.9*29
###2023-12-09 13:42:00.011473$GPGSV,2,1,08,03,24,243,37,04,49,306,41,09,15,317,39,16,70,226,44*7B
###2023-12-09 13:42:00.013803$GPGSV,2,2,08,26,80,041,47,28,35,088,43,29,19,044,39,31,57,071,46*7D
###2023-12-09 13:42:00.016145$GLGSV,2,1,05,65,41,315,42,72,59,216,46,73,20,054,41,74,57,019,43*66
###2023-12-09 13:42:00.017597$GLGSV,2,2,05,75,45,276,45,,,,,,,,,,,,*51
###2023-12-09 13:42:00.019928$GAGSV,1,1,04,04,42,309,41,19,69,180,41,21,74,044,46,27,20,051,40*6F
###2023-12-09 13:42:00.022260$GBGSV,2,1,05,12,17,124,42,24,60,049,50,25,53,279,47,33,43,215,46*6C
###2023-12-09 13:42:00.023720$GBGSV,2,2,05,35,16,054,42,,,,,,,,,,,,*58
###2023-12-09 13:42:00.025042$GNVTG,281.35,T,,M,1.01,N,1.87,K,A*20
###2023-12-09 13:42:00.026669$GNGST,184159.10,5.100,,,,0.130,0.094,0.220*6D
###2023-12-09 13:42:00.027967$GNZDA,184159.10,09,12,2023,00,00*70
###2023-12-09 13:42:00.028609$GNEBP,,,,,,M*13
###2023-12-09 13:42:00.198748$GNGGA,184159.30,4138.0387579,N,07032.4240876,W,1,22,0.7,13.361,M,-29.745,M,0.0,*58
###2023-12-09 13:42:00.397866$GNGGA,184159.50,4138.0387743,N,07032.4241564,W,1,22,0.7,13.364,M,-29.745,M,0.0,*5F
###2023-12-09 13:42:00.596640$GNGGA,184159.70,4138.0387921,N,07032.4242221,W,1,22,0.7,13.363,M,-29.745,M,0.0,*55
###2023-12-09 13:42:00.798434$GNGGA,184159.90,4138.0388029,N,07032.4242910,W,1,22,0.7,13.360,M,-29.745,M,0.0,*5F
###2023-12-09 13:42:01.001131$GNRMC,184200.10,A,4138.0388146,N,07032.4243581,W,0.99,287.13,091223,,,A*5D
###2023-12-09 13:42:01.004003$GNGGA,184200.10,4138.0388146,N,07032.4243581,W,1,21,0.7,13.362,M,-29.745,M,0.0,*54
###2023-12-09 13:42:01.005783$GPGSA,A,3,04,09,16,26,28,29,31,,,,,,1.2,0.7,0.9*32
###2023-12-09 13:42:01.007435$GLGSA,A,3,65,72,73,74,75,,,,,,,,1.2,0.7,0.9*20
###2023-12-09 13:42:01.009016$GAGSA,A,3,04,19,21,27,,,,,,,,,1.2,0.7,0.9*24
###2023-12-09 13:42:01.010675$GBGSA,A,3,12,24,25,33,35,,,,,,,,1.2,0.7,0.9*29
###2023-12-09 13:42:01.012999$GPGSV,2,1,07,04,49,306,42,09,15,317,40,16,70,226,46,26,80,041,47*75
###2023-12-09 13:42:01.015051$GPGSV,2,2,07,28,35,088,43,29,19,044,41,31,57,071,47,,,,*46
###2023-12-09 13:42:01.017379$GLGSV,2,1,05,65,41,315,41,72,59,216,46,73,20,054,42,74,57,019,43*66
###2023-12-09 13:42:01.018842$GLGSV,2,2,05,75,45,276,48,,,,,,,,,,,,*5C
###2023-12-09 13:42:01.021157$GAGSV,1,1,04,04,42,309,41,19,69,180,41,21,74,044,46,27,20,051,40*6F
###2023-12-09 13:42:01.023497$GBGSV,2,1,05,12,17,124,42,24,60,049,49,25,53,279,45,33,43,215,48*68
###2023-12-09 13:42:01.024951$GBGSV,2,2,05,35,16,054,44,,,,,,,,,,,,*5E
###2023-12-09 13:42:01.026275$GNVTG,287.13,T,,M,0.99,N,1.84,K,A*21
###2023-12-09 13:42:01.027901$GNGST,184200.10,5.300,,,,0.130,0.094,0.220*60
###2023-12-09 13:42:01.029186$GNZDA,184200.10,09,12,2023,00,00*7F
###2023-12-09 13:42:01.029823$GNEBP,,,,,,M*13
###2023-12-09 13:42:01.198670$GNGGA,184200.30,4138.0388298,N,07032.4244232,W,1,22,0.7,13.363,M,-29.745,M,0.0,*5C
###2023-12-09 13:42:01.399027$GNGGA,184200.50,4138.0388491,N,07032.4244860,W,1,22,0.7,13.365,M,-29.745,M,0.0,*5E
###2023-12-09 13:42:01.596699$GNGGA,184200.70,4138.0388663,N,07032.4245494,W,1,22,0.7,13.368,M,-29.745,M,0.0,*58
###2023-12-09 13:42:01.797973$GNGGA,184200.90,4138.0388785,N,07032.4246142,W,1,22,0.7,13.372,M,-29.745,M,0.0,*59
###2023-12-09 13:42:02.001570$GNRMC,184201.10,A,4138.0388926,N,07032.4246749,W,0.87,287.13,091223,,,A*5E
###2023-12-09 13:42:02.004464$GNGGA,184201.10,4138.0388926,N,07032.4246749,W,1,22,0.7,13.372,M,-29.745,M,0.0,*5A
###2023-12-09 13:42:02.006325$GPGSA,A,3,03,04,09,16,26,28,29,31,,,,,1.2,0.7,0.9*31
###2023-12-09 13:42:02.007989$GLGSA,A,3,65,72,73,74,75,,,,,,,,1.2,0.7,0.9*20
###2023-12-09 13:42:02.009579$GAGSA,A,3,04,19,21,27,,,,,,,,,1.2,0.7,0.9*24
###2023-12-09 13:42:02.011238$GBGSA,A,3,12,24,25,33,35,,,,,,,,1.2,0.7,0.9*29
###2023-12-09 13:42:02.013566$GPGSV,2,1,08,03,24,243,44,04,49,306,43,09,15,317,41,16,70,226,46*70
###2023-12-09 13:42:02.015917$GPGSV,2,2,08,26,80,041,48,28,35,088,43,29,19,044,41,31,57,071,47*7C
###2023-12-09 13:42:02.018243$GLGSV,2,1,05,65,41,315,41,72,59,216,46,73,20,054,41,74,57,019,43*65
###2023-12-09 13:42:02.019706$GLGSV,2,2,05,75,45,276,45,,,,,,,,,,,,*51
###2023-12-09 13:42:02.022029$GAGSV,1,1,04,04,42,309,41,19,69,180,41,21,74,044,47,27,20,051,41*6F
###2023-12-09 13:42:02.024632$GBGSV,2,1,05,12,17,124,41,24,60,049,48,25,53,279,46,33,43,215,47*66
###2023-12-09 13:42:02.026104$GBGSV,2,2,05,35,16,054,42,,,,,,,,,,,,*58
###2023-12-09 13:42:02.027443$GNVTG,287.13,T,,M,0.87,N,1.62,K,A*26
###2023-12-09 13:42:02.029068$GNGST,184201.10,5.600,,,,0.130,0.094,0.220*64
###2023-12-09 13:42:02.030360$GNZDA,184201.10,09,12,2023,00,00*7E
###2023-12-09 13:42:02.031014$GNEBP,,,,,,M*13
###2023-12-09 13:42:02.200388$GNGGA,184201.30,4138.0389084,N,07032.4247325,W,1,22,0.7,13.371,M,-29.745,M,0.0,*54
###2023-12-09 13:42:02.397516$GNGGA,184201.50,4138.0389273,N,07032.4247872,W,1,22,0.7,13.374,M,-29.745,M,0.0,*54
