###2023-12-09 13:11:05.005717$GNEBP,,,,,,M*13
###2023-12-09 13:11:05.171966$GNGGA,181104.30,4138.0189176,N,07032.2782895,W,1,24,0.7,13.022,M,-29.744,M,0.0,*51
###2023-12-09 13:11:05.371392$GNGGA,181104.50,4138.0191074,N,07032.2782714,W,1,24,0.7,13.028,M,-29.744,M,0.0,*51
###2023-12-09 13:11:05.572810$GNGGA,181104.70,4138.0192984,N,07032.2782500,W,1,24,0.7,13.027,M,-29.744,M,0.0,*5E
###2023-12-09 13:11:05.772826$GNGGA,181104.90,4138.0194869,N,07032.2782103,W,1,24,0.7,13.021,M,-29.744,M,0.0,*55
###2023-12-09 13:11:05.976249$GNRMC,181105.10,A,4138.0196765,N,07032.2781711,W,3.42,8.81,091223,,,A*59
###2023-12-09 13:11:05.979121$GNGGA,181105.10,4138.0196765,N,07032.2781711,W,1,24,0.7,13.030,M,-29.744,M,0.0,*5B
###2023-12-09 13:11:05.980913$GPGSA,A,3,03,04,16,26,28,29,31,,,,,,1.2,0.7,1.0*30
###2023-12-09 13:11:05.982637$GLGSA,A,3,65,71,72,73,74,75,,,,,,,1.2,0.7,1.0*2E
###2023-12-09 13:11:05.984217$GAGSA,A,3,04,19,21,27,,,,,,,,,1.2,0.7,1.0*2C
###2023-12-09 13:11:05.985923$GBGSA,A,3,14,24,25,26,33,35,,,,,,,1.2,0.7,1.0*23
###2023-12-09 13:11:05.988254$GPGSV,2,1,07,03,33,256,44,04,37,311,44,16,54,214,46,26,84,210,48*78
###2023-12-09 13:11:05.990292$GPGSV,2,2,07,28,46,074,44,29,24,057,40,31,67,046,46,,,,*4D
###2023-12-09 13:11:05.992628$GLGSV,2,1,06,65,28,326,42,71,35,174,47,72,72,250,46,73,31,045,44*6B
###2023-12-09 13:11:05.994372$GLGSV,2,2,06,74,67,351,41,75,36,258,47,,,,,,,,*68
###2023-12-09 13:11:05.996708$GAGSV,1,1,04,04,32,312,42,19,81,195,41,21,84,075,46,27,30,048,40*67
###2023-12-09 13:11:05.999046$GBGSV,2,1,06,14,39,192,45,24,70,032,48,25,44,266,48,26,23,065,43*6E
###2023-12-09 13:11:06.000792$GBGSV,2,2,06,33,54,227,48,35,15,065,43,,,,,,,,*61
###2023-12-09 13:11:06.002050$GNVTG,8.81,T,,M,3.42,N,6.34,K,A*26
###2023-12-09 13:11:06.003708$GNGST,181105.10,18.000,,,,0.096,0.071,0.170*5C
###2023-12-09 13:11:06.005002$GNZDA,181105.10,09,12,2023,00,00*7C
###2023-12-09 13:11:06.005641$GNEBP,,,,,,M*13
###2023-12-09 13:11:06.172850$GNGGA,181105.30,4138.0198657,N,07032.2781390,W,1,24,0.7,13.026,M,-29.744,M,0.0,*5D
###2023-12-09 13:11:06.373509$GNGGA,181105.50,4138.0200523,N,07032.2781204,W,1,24,0.7,13.015,M,-29.744,M,0.0,*55
###2023-12-09 13:11:06.572777$GNGGA,181105.70,4138.0202407,N,07032.2780999,W,1,24,0.7,13.014,M,-29.744,M,0.0,*5D
###2023-12-09 13:11:06.773395$GNGGA,181105.90,4138.0204270,N,07032.2780936,W,1,24,0.7,13.019,M,-29.744,M,0.0,*5B
###2023-12-09 13:11:06.977083$GNRMC,181106.10,A,4138.0206185,N,07032.2780954,W,3.48,1.42,091223,,,A*5A
###2023-12-09 13:11:06.979950$GNGGA,181106.10,4138.0206185,N,07032.2780954,W,1,24,0.7,13.026,M,-29.744,M,0.0,*53
###2023-12-09 13:11:06.981745$GPGSA,A,3,03,04,16,26,28,29,31,,,,,,1.2,0.7,1.0*30
###2023-12-09 13:11:06.983467$GLGSA,A,3,65,71,72,73,74,75,,,,,,,1.2,0.7,1.0*2E
###2023-12-09 13:11:06.985047$GAGSA,A,3,04,19,21,27,,,,,,,,,1.2,0.7,1.0*2C
###2023-12-09 13:11:06.986765$GBGSA,A,3,14,24,25,26,33,35,,,,,,,1.2,0.7,1.0*23
###2023-12-09 13:11:06.989082$GPGSV,2,1,07,03,33,256,44,04,37,311,45,16,54,214,46,26,84,210,48*79
###2023-12-09 13:11:06.991126$GPGSV,2,2,07,28,46,074,45,29,24,057,41,31,67,046,46,,,,*4D
###2023-12-09 13:11:06.993453$GLGSV,2,1,06,65,28,326,40,71,35,174,46,72,72,250,46,73,31,045,45*69
###2023-12-09 13:11:06.995204$GLGSV,2,2,06,74,67,351,41,75,36,258,47,,,,,,,,*68
###2023-12-09 13:11:06.997527$GAGSV,1,1,04,04,32,312,42,19,81,195,40,21,84,075,46,27,30,048,41*67
###2023-12-09 13:11:06.999857$GBGSV,2,1,06,14,39,192,44,24,70,032,47,25,44,266,46,26,23,065,42*6F
###2023-12-09 13:11:07.001606$GBGSV,2,2,06,33,54,227,47,35,15,065,43,,,,,,,,*6E
###2023-12-09 13:11:07.002878$GNVTG,1.42,T,,M,3.48,N,6.44,K,A*2D
###2023-12-09 13:11:07.004523$GNGST,181106.10,18.000,,,,0.096,0.071,0.170*5F
###2023-12-09 13:11:07.005814$GNZDA,181106.10,09,12,2023,00,00*7F
###2023-12-09 13:11:07.006453$GNEBP,,,,,,M*13
###2023-12-09 13:11:07.172573$GNGGA,181106.30,4138.0208096,N,07032.2780814,W,1,24,0.7,13.008,M,-29.744,M,0.0,*55
###2023-12-09 13:11:07.373568$GNGGA,181106.50,4138.0210034,N,07032.2780730,W,1,24,0.7,13.016,M,-29.744,M,0.0,*54
###2023-12-09 13:11:07.572820$GNGGA,181106.70,4138.0212035,N,07032.2780797,W,1,24,0.7,13.024,M,-29.744,M,0.0,*59
###2023-12-09 13:11:07.772814$GNGGA,181106.90,4138.0213993,N,07032.2780694,W,1,24,0.7,13.018,M,-29.744,M,0.0,*5E
###2023-12-09 13:11:07.975437$GNRMC,181107.10,A,4138.0215977,N,07032.2780340,W,3.69,9.68,091223,,,A*50
###2023-12-09 13:11:07.978304$GNGGA,181107.10,4138.0215977,N,07032.2780340,W,1,24,0.7,13.014,M,-29.744,M,0.0,*5B
###2023-12-09 13:11:07.980116$GPGSA,A,3,03,04,16,26,28,29,31,,,,,,1.2,0.7,1.0*30
###2023-12-09 13:11:07.981836$GLGSA,A,3,65,71,72,73,74,75,,,,,,,1.2,0.7,1.0*2E
###2023-12-09 13:11:07.983432$GAGSA,A,3,04,19,21,27,,,,,,,,,1.2,0.7,1.0*2C
###2023-12-09 13:11:07.985147$GBGSA,A,3,14,24,25,26,33,35,,,,,,,1.2,0.7,1.0*23
###2023-12-09 13:11:07.987492$GPGSV,2,1,07,03,33,256,43,04,37,311,43,16,54,214,46,26,84,210,47*77
###2023-12-09 13:11:07.989534$GPGSV,2,2,07,28,46,074,44,29,24,057,40,31,67,046,45,,,,*4E
###2023-12-09 13:11:07.991879$GLGSV,2,1,06,65,28,326,41,71,35,174,46,72,72,250,46,73,31,045,43*6E
###2023-12-09 13:11:07.993631$GLGSV,2,2,06,74,67,351,41,75,36,258,46,,,,,,,,*69
###2023-12-09 13:11:07.995970$GAGSV,1,1,04,04,32,312,42,19,81,195,40,21,84,075,46,27,30,048,39*68
###2023-12-09 13:11:07.998304$GBGSV,2,1,06,14,39,192,46,24,70,032,48,25,44,266,48,26,23,065,43*6D
###2023-12-09 13:11:08.000061$GBGSV,2,2,06,33,54,227,48,35,15,065,43,,,,,,,,*61
###2023-12-09 13:11:08.001330$GNVTG,9.68,T,,M,3.69,N,6.84,K,A*22
###2023-12-09 13:11:08.003004$GNGST,181107.10,18.000,,,,0.096,0.071,0.170*5E
###2023-12-09 13:11:08.004298$GNZDA,181107.10,09,12,2023,00,00*7E
###2023-12-09 13:11:08.004938$GNEBP,,,,,,M*13
###2023-12-09 13:11:08.172912$GNGGA,181107.30,4138.0217954,N,07032.2779911,W,1,24,0.7,12.993,M,-29.744,M,0.0,*55
###2023-12-09 13:11:08.372097$GNGGA,181107.50,4138.0219918,N,07032.2779678,W,1,24,0.7,12.997,M,-29.744,M,0.0,*51
###2023-12-09 13:11:08.573180$GNGGA,181107.70,4138.0221954,N,07032.2779291,W,1,24,0.7,13.011,M,-29.744,M,0.0,*55
###2023-12-09 13:11:08.774053$GNGGA,181107.90,4138.0223971,N,07032.2778444,W,1,24,0.7,13.007,M,-29.744,M,0.0,*56
###2023-12-09 13:11:08.985002$GNRMC,181108.10,A,4138.0226023,N,07032.2777664,W,3.87,11.20,091223,,,A*69
###2023-12-09 13:11:08.987890$GNGGA,181108.10,4138.0226023,N,07032.2777664,W,1,24,0.7,13.004,M,-29.744,M,0.0,*56
###2023-12-09 13:11:08.989689$GPGSA,A,3,03,04,16,26,28,29,31,,,,,,1.2,0.7,1.0*30
###2023-12-09 13:11:08.991423$GLGSA,A,3,65,71,72,73,74,75,,,,,,,1.2,0.7,1.0*2E
###2023-12-09 13:11:08.993004$GAGSA,A,3,04,19,21,27,,,,,,,,,1.2,0.7,1.0*2C
###2023-12-09 13:11:08.994722$GBGSA,A,3,14,24,25,26,33,35,,,,,,,1.2,0.7,1.0*23
###2023-12-09 13:11:08.997052$GPGSV,2,1,07,03,33,256,43,04,37,311,44,16,54,214,45,26,84,210,48*7C
###2023-12-09 13:11:08.999103$GPGSV,2,2,07,28,46,074,44,29,24,057,41,31,67,046,46,,,,*4C
###2023-12-09 13:11:09.001429$GLGSV,2,1,06,65,28,326,41,71,35,174,46,72,72,250,46,73,31,045,42*6F
###2023-12-09 13:11:09.003181$GLGSV,2,2,06,74,67,351,41,75,36,258,45,,,,,,,,*6A
###2023-12-09 13:11:09.005507$GAGSV,1,1,04,04,32,312,41,19,81,195,40,21,84,075,46,27,30,048,39*6B
###2023-12-09 13:11:09.007852$GBGSV,2,1,06,14,39,192,45,24,70,032,48,25,44,266,46,26,23,065,44*67
###2023-12-09 13:11:09.009594$GBGSV,2,2,06,33,54,227,46,35,15,065,43,,,,,,,,*6F
###2023-12-09 13:11:09.010893$GNVTG,11.20,T,,M,3.87,N,7.16,K,A*1D
###2023-12-09 13:11:09.012538$GNGST,181108.10,18.000,,,,0.096,0.071,0.170*51
###2023-12-09 13:11:09.013824$GNZDA,181108.10,09,12,2023,00,00*71
###2023-12-09 13:11:09.014463$GNEBP,,,,,,M*13
###2023-12-09 13:11:09.176571$GNGGA,181108.30,4138.0228187,N,07032.2777336,W,1,24,0.7,13.016,M,-29.744,M,0.0,*54
###2023-12-09 13:11:09.372864$GNGGA,181108.50,4138.0230335,N,07032.2777044,W,1,24,0.7,13.019,M,-29.744,M,0.0,*59
###2023-12-09 13:11:09.576170$GNGGA,181108.70,4138.0232511,N,07032.2776403,W,1,24,0.7,13.023,M,-29.744,M,0.0,*56
###2023-12-09 13:11:09.774976$GNGGA,181108.90,4138.0234651,N,07032.2775607,W,1,24,0.7,13.012,M,-29.744,M,0.0,*5E
###2023-12-09 13:11:09.976060$GNRMC,181109.10,A,4138.0236771,N,07032.2775207,W,3.83,2.97,091223,,,A*50
###2023-12-09 13:11:09.979173$GNGGA,181109.10,4138.0236771,N,07032.2775207,W,1,24,0.7,13.006,M,-29.744,M,0.0,*57
###2023-12-09 13:11:09.980982$GPGSA,A,3,03,04,16,26,28,29,31,,,,,,1.2,0.7,1.0*30
###2023-12-09 13:11:09.982709$GLGSA,A,3,65,71,72,73,74,75,,,,,,,1.2,0.7,1.0*2E
###2023-12-09 13:11:09.984290$GAGSA,A,3,04,19,21,27,,,,,,,,,1.2,0.7,1.0*2C
###2023-12-09 13:11:09.986001$GBGSA,A,3,14,24,25,26,33,35,,,,,,,1.2,0.7,1.0*23
###2023-12-09 13:11:09.988342$GPGSV,2,1,07,03,33,256,43,04,37,311,43,16,54,214,46,26,84,210,47*77
###2023-12-09 13:11:09.990383$GPGSV,2,2,07,28,46,074,45,29,24,057,42,31,67,046,46,,,,*4E
###2023-12-09 13:11:09.992726$GLGSV,2,1,06,65,28,326,40,71,35,174,47,72,72,250,45,73,31,045,42*6C
###2023-12-09 13:11:09.994464$GLGSV,2,2,06,74,67,351,41,75,36,258,45,,,,,,,,*6A
###2023-12-09 13:11:09.996791$GAGSV,1,1,04,04,32,312,42,19,81,195,40,21,84,075,46,27,30,048,39*68
