###2023-12-09 13:32:26.023039$GNZDA,183225.10,09,12,2023,00,00*7F
###2023-12-09 13:32:26.023700$GNEBP,,,,,,M*13
###2023-12-09 13:32:26.193513$GNGGA,183225.30,4138.0367306,N,07032.4154599,W,1,21,0.9,13.849,M,-29.745,M,0.0,*51
###2023-12-09 13:32:26.391115$GNGGA,183225.50,4138.0367163,N,07032.4154495,W,1,22,0.8,13.843,M,-29.745,M,0.0,*53
###2023-12-09 13:32:26.591654$GNGGA,183225.70,4138.0366938,N,07032.4154211,W,1,21,0.9,13.815,M,-29.745,M,0.0,*5D
###2023-12-09 13:32:26.790370$GNGGA,183225.90,4138.0366852,N,07032.4154211,W,1,21,0.9,13.807,M,-29.745,M,0.0,*5D
###2023-12-09 13:32:26.994005$GNRMC,183226.10,A,4138.0366882,N,07032.4154517,W,0.52,97.99,091223,,,A*63
###2023-12-09 13:32:26.996918$GNGGA,183226.10,4138.0366882,N,07032.4154517,W,1,21,0.9,13.825,M,-29.745,M,0.0,*5A
###2023-12-09 13:32:26.998673$GPGSA,A,3,04,16,26,28,29,31,,,,,,,1.6,0.9,1.2*3B
###2023-12-09 13:32:27.000407$GLGSA,A,3,65,72,73,74,75,83,,,,,,,1.6,0.9,1.2*2B
###2023-12-09 13:32:27.001997$GAGSA,A,3,04,19,21,27,,,,,,,,,1.6,0.9,1.2*24
###2023-12-09 13:32:27.003673$GBGSA,A,3,24,25,26,33,35,,,,,,,,1.6,0.9,1.2*2E
###2023-12-09 13:32:27.006020$GPGSV,2,1,06,04,45,308,45,16,65,221,46,26,85,040,48,28,39,084,44*79
###2023-12-09 13:32:27.007786$GPGSV,2,2,06,29,21,048,44,31,60,064,46,,,,,,,,*7F
###2023-12-09 13:32:27.010125$GLGSV,2,1,06,65,37,320,45,72,64,223,45,73,23,051,44,74,61,011,42*61
###2023-12-09 13:32:27.011889$GLGSV,2,2,06,75,42,269,47,83,15,049,36,,,,,,,,*6E
###2023-12-09 13:32:27.014225$GAGSV,1,1,04,04,39,310,44,19,73,182,41,21,77,047,46,27,23,050,41*64
###2023-12-09 13:32:27.016575$GBGSV,2,1,05,24,64,044,48,25,50,275,47,26,17,070,45,33,47,218,45*69
###2023-12-09 13:32:27.018032$GBGSV,2,2,05,35,16,058,45,,,,,,,,,,,,*53
###2023-12-09 13:32:27.019336$GNVTG,97.99,T,,M,0.52,N,0.97,K,A*14
###2023-12-09 13:32:27.020949$GNGST,183226.10,6.000,,,,0.150,0.086,0.230*67
###2023-12-09 13:32:27.022240$GNZDA,183226.10,09,12,2023,00,00*7C
###2023-12-09 13:32:27.022890$GNEBP,,,,,,M*13
###2023-12-09 13:32:27.194761$GNGGA,183226.30,4138.0366853,N,07032.4154707,W,1,22,0.8,13.836,M,-29.745,M,0.0,*57
###2023-12-09 13:32:27.389596$GNGGA,183226.50,4138.0366678,N,07032.4154502,W,1,22,0.8,13.829,M,-29.745,M,0.0,*5F
###2023-12-09 13:32:27.593055$GNGGA,183226.70,4138.0366456,N,07032.4154210,W,1,21,0.9,13.795,M,-29.745,M,0.0,*5D
###2023-12-09 13:32:27.791802$GNGGA,183226.90,4138.0366408,N,07032.4154360,W,1,21,0.9,13.801,M,-29.745,M,0.0,*5C
###2023-12-09 13:32:27.993940$GNRMC,183227.10,A,4138.0366510,N,07032.4154750,W,0.47,97.99,091223,,,A*61
###2023-12-09 13:32:27.996828$GNGGA,183227.10,4138.0366510,N,07032.4154750,W,1,21,0.9,13.826,M,-29.745,M,0.0,*5F
###2023-12-09 13:32:27.998575$GPGSA,A,3,04,16,26,28,29,31,,,,,,,1.6,0.9,1.2*3B
###2023-12-09 13:32:28.000292$GLGSA,A,3,65,72,73,74,75,83,,,,,,,1.6,0.9,1.2*2B
###2023-12-09 13:32:28.001879$GAGSA,A,3,04,19,21,27,,,,,,,,,1.6,0.9,1.2*24
###2023-12-09 13:32:28.003534$GBGSA,A,3,24,25,26,33,35,,,,,,,,1.6,0.9,1.2*2E
###2023-12-09 13:32:28.005864$GPGSV,2,1,06,04,45,308,47,16,65,221,47,26,85,040,48,28,39,084,44*7A
###2023-12-09 13:32:28.007620$GPGSV,2,2,06,29,21,048,42,31,60,064,47,,,,,,,,*78
###2023-12-09 13:32:28.009941$GLGSV,2,1,06,65,37,320,45,72,64,223,44,73,23,051,44,74,61,011,43*61
###2023-12-09 13:32:28.011694$GLGSV,2,2,06,75,42,269,48,83,15,049,36,,,,,,,,*61
###2023-12-09 13:32:28.014021$GAGSV,1,1,04,04,39,310,44,19,73,182,41,21,77,047,47,27,23,050,41*65
###2023-12-09 13:32:28.016359$GBGSV,2,1,05,24,64,044,47,25,50,275,47,26,17,070,44,33,47,218,45*67
###2023-12-09 13:32:28.017815$GBGSV,2,2,05,35,16,058,44,,,,,,,,,,,,*52
###2023-12-09 13:32:28.019115$GNVTG,97.99,T,,M,0.47,N,0.86,K,A*10
###2023-12-09 13:32:28.020725$GNGST,183227.10,5.600,,,,0.150,0.085,0.230*60
###2023-12-09 13:32:28.022011$GNZDA,183227.10,09,12,2023,00,00*7D
###2023-12-09 13:32:28.022653$GNEBP,,,,,,M*13
###2023-12-09 13:32:28.191401$GNGGA,183227.30,4138.0366439,N,07032.4154780,W,1,22,0.8,13.822,M,-29.745,M,0.0,*5C
###2023-12-09 13:32:28.390644$GNGGA,183227.50,4138.0366220,N,07032.4154480,W,1,21,0.9,13.814,M,-29.745,M,0.0,*50
###2023-12-09 13:32:28.590669$GNGGA,183227.70,4138.0366060,N,07032.4154365,W,1,21,0.9,13.806,M,-29.745,M,0.0,*5B
###2023-12-09 13:32:28.792672$GNGGA,183227.90,4138.0366085,N,07032.4154643,W,1,21,0.9,13.815,M,-29.745,M,0.0,*5D
###2023-12-09 13:32:28.994456$GNRMC,183228.10,A,4138.0366112,N,07032.4154888,W,0.14,97.99,091223,,,A*64
###2023-12-09 13:32:28.997337$GNGGA,183228.10,4138.0366112,N,07032.4154888,W,1,22,0.8,13.811,M,-29.745,M,0.0,*5A
###2023-12-09 13:32:28.999073$GPGSA,A,3,04,16,26,28,29,31,,,,,,,1.3,0.8,1.0*3D
###2023-12-09 13:32:29.000788$GLGSA,A,3,65,72,73,74,75,83,,,,,,,1.3,0.8,1.0*2D
###2023-12-09 13:32:29.002372$GAGSA,A,3,04,19,21,27,,,,,,,,,1.3,0.8,1.0*22
###2023-12-09 13:32:29.004032$GBGSA,A,3,24,25,26,33,35,,,,,,,,1.3,0.8,1.0*28
###2023-12-09 13:32:29.006355$GPGSV,2,1,06,04,45,308,47,16,65,221,46,26,85,040,48,28,39,084,45*7A
###2023-12-09 13:32:29.008113$GPGSV,2,2,06,29,21,048,43,31,60,064,46,,,,,,,,*78
###2023-12-09 13:32:29.010444$GLGSV,2,1,06,65,37,320,45,72,64,223,44,73,23,051,42,74,61,011,43*67
###2023-12-09 13:32:29.012207$GLGSV,2,2,06,75,42,269,47,83,15,049,36,,,,,,,,*6E
###2023-12-09 13:32:29.014535$GAGSV,1,1,04,04,39,310,44,19,73,182,39,21,77,047,46,27,23,050,41*6B
###2023-12-09 13:32:29.016877$GBGSV,2,1,05,24,63,045,48,25,50,275,47,26,17,070,44,33,47,218,45*6E
###2023-12-09 13:32:29.018326$GBGSV,2,2,05,35,16,058,44,,,,,,,,,,,,*52
###2023-12-09 13:32:29.019622$GNVTG,97.99,T,,M,0.14,N,0.25,K,A*1F
###2023-12-09 13:32:29.021231$GNGST,183228.10,6.300,,,,0.150,0.084,0.230*68
###2023-12-09 13:32:29.022514$GNZDA,183228.10,09,12,2023,00,00*72
###2023-12-09 13:32:29.023162$GNEBP,,,,,,M*13
###2023-12-09 13:32:29.191455$GNGGA,183228.30,4138.0365960,N,07032.4154796,W,1,22,0.8,13.816,M,-29.745,M,0.0,*51
###2023-12-09 13:32:29.392963$GNGGA,183228.50,4138.0365768,N,07032.4154604,W,1,22,0.8,13.816,M,-29.745,M,0.0,*5B
###2023-12-09 13:32:29.591561$GNGGA,183228.70,4138.0365678,N,07032.4154644,W,1,21,0.9,13.802,M,-29.745,M,0.0,*5A
###2023-12-09 13:32:29.793744$GNGGA,183228.90,4138.0365686,N,07032.4154841,W,1,22,0.8,13.797,M,-29.745,M,0.0,*5F
###2023-12-09 13:32:29.996939$GNRMC,183229.10,A,4138.0365607,N,07032.4154922,W,0.14,97.99,091223,,,A*64
###2023-12-09 13:32:29.999804$GNGGA,183229.10,4138.0365607,N,07032.4154922,W,1,22,0.8,13.796,M,-29.745,M,0.0,*5A
###2023-12-09 13:32:30.001526$GPGSA,A,3,04,16,26,28,29,31,,,,,,,1.3,0.8,1.0*3D
###2023-12-09 13:32:30.003246$GLGSA,A,3,65,72,73,74,75,83,,,,,,,1.3,0.8,1.0*2D
###2023-12-09 13:32:30.004824$GAGSA,A,3,04,19,21,27,,,,,,,,,1.3,0.8,1.0*22
###2023-12-09 13:32:30.006463$GBGSA,A,3,24,25,26,33,35,,,,,,,,1.3,0.8,1.0*28
###2023-12-09 13:32:30.008776$GPGSV,2,1,06,04,45,308,46,16,65,221,46,26,85,040,48,28,39,084,42*7C
###2023-12-09 13:32:30.010511$GPGSV,2,2,06,29,21,048,43,31,60,064,46,,,,,,,,*78
###2023-12-09 13:32:30.012831$GLGSV,2,1,06,65,37,320,45,72,64,223,44,73,23,051,44,74,61,011,43*61
###2023-12-09 13:32:30.014576$GLGSV,2,2,06,75,42,269,46,83,15,049,36,,,,,,,,*6F
###2023-12-09 13:32:30.016889$GAGSV,1,1,04,04,39,310,45,19,73,182,40,21,77,047,46,27,23,050,40*65
###2023-12-09 13:32:30.019210$GBGSV,2,1,05,24,63,045,48,25,50,275,47,26,17,070,42,33,47,218,44*69
###2023-12-09 13:32:30.020656$GBGSV,2,2,05,35,16,058,45,,,,,,,,,,,,*53
###2023-12-09 13:32:30.021934$GNVTG,97.99,T,,M,0.14,N,0.25,K,A*1F
###2023-12-09 13:32:30.023544$GNGST,183229.10,6.100,,,,0.150,0.083,0.230*6C
###2023-12-09 13:32:30.024826$GNZDA,183229.10,09,12,2023,00,00*73
###2023-12-09 13:32:30.025461$GNEBP,,,,,,M*13
###2023-12-09 13:32:30.197085$GNGGA,183229.30,4138.0365485,N,07032.4154932,W,1,22,0.8,13.815,M,-29.745,M,0.0,*55
###2023-12-09 13:32:30.391467$GNGGA,183229.50,4138.0365445,N,07032.4154993,W,1,22,0.8,13.815,M,-29.745,M,0.0,*54
###2023-12-09 13:32:30.595953$GNGGA,183229.70,4138.0365358,N,07032.4155011,W,1,22,0.8,13.786,M,-29.745,M,0.0,*5A
###2023-12-09 13:32:30.792487$GNGGA,183229.90,4138.0365249,N,07032.4155027,W,1,22,0.8,13.779,M,-29.745,M,0.0,*50
###2023-12-09 13:32:30.993358$GNRMC,183230.10,A,4138.0365198,N,07032.4155152,W,0.29,97.99,091223,,,A*6D
###2023-12-09 13:32:30.996229$GNGGA,183230.10,4138.0365198,N,07032.4155152,W,1,22,0.8,13.794,M,-29.745,M,0.0,*5F
###2023-12-09 13:32:30.998209$GPGSA,A,3,04,16,26,28,29,31,,,,,,,1.3,0.8,1.0*3D
###2023-12-09 13:32:30.999947$GLGSA,A,3,65,72,73,74,75,83,,,,,,,1.3,0.8,1.0*2D
###2023-12-09 13:32:31.001539$GAGSA,A,3,04,19,21,27,,,,,,,,,1.3,0.8,1.0*22
###2023-12-09 13:32:31.003202$GBGSA,A,3,24,25,26,33,35,,,,,,,,1.3,0.8,1.0*28
###2023-12-09 13:32:31.005524$GPGSV,2,1,06,04,45,308,44,16,65,221,45,26,85,040,48,28,39,084,43*7C
###2023-12-09 13:32:31.007283$GPGSV,2,2,06,29,21,048,44,31,60,064,47,,,,,,,,*7E
###2023-12-09 13:32:31.009611$GLGSV,2,1,06,65,37,320,44,72,64,223,44,73,23,051,43,74,61,011,43*67
###2023-12-09 13:32:31.011366$GLGSV,2,2,06,75,42,269,46,83,15,049,37,,,,,,,,*6E
