###2023-12-09 13:19:44.179781$GNGGA,181943.30,4138.0872216,N,07032.3219869,W,1,24,0.7,13.243,M,-29.742,M,0.0,*54
###2023-12-09 13:19:44.381129$GNGGA,181943.50,4138.0870910,N,07032.3221562,W,1,24,0.7,13.227,M,-29.742,M,0.0,*52
###2023-12-09 13:19:44.582254$GNGGA,181943.70,4138.0869224,N,07032.3222579,W,1,24,0.7,13.202,M,-29.742,M,0.0,*5A
###2023-12-09 13:19:44.781224$GNGGA,181943.90,4138.0867708,N,07032.3223986,W,1,24,0.7,13.163,M,-29.742,M,0.0,*58
###2023-12-09 13:19:44.991671$GNRMC,181944.10,A,4138.0866523,N,07032.3226111,W,3.60,237.31,091223,,,A*58
###2023-12-09 13:19:44.994529$GNGGA,181944.10,4138.0866523,N,07032.3226111,W,1,24,0.7,13.216,M,-29.742,M,0.0,*5F
###2023-12-09 13:19:44.996333$GPGSA,A,3,03,04,16,26,28,29,31,,,,,,1.1,0.7,0.9*3B
###2023-12-09 13:19:44.998039$GLGSA,A,3,65,71,72,73,74,75,,,,,,,1.1,0.7,0.9*25
###2023-12-09 13:19:44.999635$GAGSA,A,3,04,19,21,27,,,,,,,,,1.1,0.7,0.9*27
###2023-12-09 13:19:45.001347$GBGSA,A,3,14,24,25,26,33,35,,,,,,,1.1,0.7,0.9*28
###2023-12-09 13:19:45.003685$GPGSV,2,1,07,03,31,253,40,04,40,310,44,16,59,217,44,26,89,196,47*79
###2023-12-09 13:19:45.005716$GPGSV,2,2,07,28,43,079,44,29,23,053,44,31,64,055,46,,,,*43
###2023-12-09 13:19:45.008047$GLGSV,2,1,06,65,32,324,44,71,31,174,44,72,69,237,45,73,28,047,46*63
###2023-12-09 13:19:45.009689$GLGSV,2,2,06,74,65,,42,75,38,262,44,,,,,,,,*5A
###2023-12-09 13:19:45.012020$GAGSV,1,1,04,04,35,311,43,19,78,188,40,21,82,058,46,27,27,049,43*64
###2023-12-09 13:19:45.014355$GBGSV,2,1,06,14,35,191,42,24,68,038,49,25,46,269,45,26,20,067,44*62
###2023-12-09 13:19:45.016117$GBGSV,2,2,06,33,51,223,45,35,16,062,44,,,,,,,,*6E
###2023-12-09 13:19:45.017454$GNVTG,237.31,T,,M,3.60,N,6.66,K,A*24
###2023-12-09 13:19:45.019113$GNGST,181944.10,18.000,,,,0.099,0.073,0.170*5C
###2023-12-09 13:19:45.020400$GNZDA,181944.10,09,12,2023,00,00*71
###2023-12-09 13:19:45.021037$GNEBP,,,,,,M*13
###2023-12-09 13:19:45.190933$GNGGA,181944.30,4138.0865245,N,07032.3228025,W,1,24,0.7,13.222,M,-29.742,M,0.0,*56
###2023-12-09 13:19:45.380237$GNGGA,181944.50,4138.0863553,N,07032.3229076,W,1,24,0.7,13.210,M,-29.742,M,0.0,*50
###2023-12-09 13:19:45.580887$GNGGA,181944.70,4138.0861900,N,07032.3230053,W,1,24,0.7,13.164,M,-29.742,M,0.0,*55
###2023-12-09 13:19:45.781911$GNGGA,181944.90,4138.0860472,N,07032.3231911,W,1,24,0.7,13.207,M,-29.742,M,0.0,*5A
###2023-12-09 13:19:45.985703$GNRMC,181945.10,A,4138.0859098,N,07032.3233939,W,3.60,220.43,091223,,,A*55
###2023-12-09 13:19:45.989201$GNGGA,181945.10,4138.0859098,N,07032.3233939,W,1,24,0.7,13.211,M,-29.742,M,0.0,*56
###2023-12-09 13:19:45.991407$GPGSA,A,3,03,04,16,26,28,29,31,,,,,,1.1,0.7,0.9*3B
###2023-12-09 13:19:45.993484$GLGSA,A,3,65,71,72,73,74,75,,,,,,,1.1,0.7,0.9*25
###2023-12-09 13:19:45.995446$GAGSA,A,3,04,19,21,27,,,,,,,,,1.1,0.7,0.9*27
###2023-12-09 13:19:45.997517$GBGSA,A,3,14,24,25,26,33,35,,,,,,,1.1,0.7,0.9*28
###2023-12-09 13:19:46.000338$GPGSV,2,1,07,03,31,253,42,04,40,310,45,16,59,217,44,26,89,196,47*7A
###2023-12-09 13:19:46.002812$GPGSV,2,2,07,28,43,079,43,29,23,053,42,31,64,055,45,,,,*41
###2023-12-09 13:19:46.005633$GLGSV,2,1,06,65,32,324,44,71,31,174,42,72,69,237,45,73,28,047,44*67
###2023-12-09 13:19:46.007643$GLGSV,2,2,06,74,65,,43,75,38,262,46,,,,,,,,*59
###2023-12-09 13:19:46.010449$GAGSV,1,1,04,04,35,311,45,19,78,188,39,21,82,058,45,27,27,049,42*6E
###2023-12-09 13:19:46.013274$GBGSV,2,1,06,14,35,191,42,24,68,038,47,25,46,269,47,26,20,067,42*68
###2023-12-09 13:19:46.015400$GBGSV,2,2,06,33,51,223,47,35,16,062,43,,,,,,,,*6B
###2023-12-09 13:19:46.017001$GNVTG,220.43,T,,M,3.60,N,6.66,K,A*27
###2023-12-09 13:19:46.019007$GNGST,181945.10,18.000,,,,0.100,0.073,0.170*5C
###2023-12-09 13:19:46.020580$GNZDA,181945.10,09,12,2023,00,00*70
###2023-12-09 13:19:46.021356$GNEBP,,,,,,M*13
###2023-12-09 13:19:46.182650$GNGGA,181945.30,4138.0857497,N,07032.3235173,W,1,24,0.7,13.217,M,-29.742,M,0.0,*57
###2023-12-09 13:19:46.382423$GNGGA,181945.50,4138.0855840,N,07032.3236157,W,1,24,0.7,13.224,M,-29.742,M,0.0,*50
###2023-12-09 13:19:46.582810$GNGGA,181945.70,4138.0854209,N,07032.3237654,W,1,24,0.7,13.190,M,-29.742,M,0.0,*5D
###2023-12-09 13:19:46.785369$GNGGA,181945.90,4138.0852670,N,07032.3239138,W,1,24,0.7,13.164,M,-29.742,M,0.0,*57
###2023-12-09 13:19:46.985702$GNRMC,181946.10,A,4138.0851166,N,07032.3240811,W,3.54,215.08,091223,,,A*5F
###2023-12-09 13:19:46.988594$GNGGA,181946.10,4138.0851166,N,07032.3240811,W,1,24,0.7,13.211,M,-29.742,M,0.0,*52
###2023-12-09 13:19:46.990390$GPGSA,A,3,03,04,16,26,28,29,31,,,,,,1.1,0.7,0.9*3B
###2023-12-09 13:19:46.992115$GLGSA,A,3,65,71,72,73,74,75,,,,,,,1.1,0.7,0.9*25
###2023-12-09 13:19:46.993703$GAGSA,A,3,04,19,21,27,,,,,,,,,1.1,0.7,0.9*27
###2023-12-09 13:19:46.995428$GBGSA,A,3,14,24,25,26,33,35,,,,,,,1.1,0.7,0.9*28
###2023-12-09 13:19:46.997749$GPGSV,2,1,07,03,31,253,40,04,40,310,46,16,59,217,44,26,89,196,48*74
###2023-12-09 13:19:46.999804$GPGSV,2,2,07,28,43,079,42,29,23,053,43,31,64,055,46,,,,*42
###2023-12-09 13:19:47.002138$GLGSV,2,1,06,65,32,324,45,71,31,174,42,72,69,237,44,73,28,047,45*66
###2023-12-09 13:19:47.003816$GLGSV,2,2,06,74,65,,43,75,38,262,47,,,,,,,,*58
###2023-12-09 13:19:47.006143$GAGSV,1,1,04,04,35,311,45,19,78,188,40,21,82,058,46,27,27,049,42*63
###2023-12-09 13:19:47.008481$GBGSV,2,1,06,14,35,191,42,24,68,038,49,25,46,269,47,26,20,067,43*67
###2023-12-09 13:19:47.010225$GBGSV,2,2,06,33,51,223,46,35,16,062,43,,,,,,,,*6A
###2023-12-09 13:19:47.011562$GNVTG,215.08,T,,M,3.54,N,6.55,K,A*29
###2023-12-09 13:19:47.013209$GNGST,181946.10,18.000,,,,0.100,0.073,0.170*5F
###2023-12-09 13:19:47.014496$GNZDA,181946.10,09,12,2023,00,00*73
###2023-12-09 13:19:47.015145$GNEBP,,,,,,M*13
###2023-12-09 13:19:47.184827$GNGGA,181946.30,4138.0849498,N,07032.3242042,W,1,24,0.7,13.218,M,-29.742,M,0.0,*58
###2023-12-09 13:19:47.382260$GNGGA,181946.50,4138.0847864,N,07032.3242800,W,1,24,0.7,13.169,M,-29.742,M,0.0,*54
###2023-12-09 13:19:47.587745$GNGGA,181946.70,4138.0846188,N,07032.3243922,W,1,24,0.7,13.154,M,-29.742,M,0.0,*52
###2023-12-09 13:19:47.782062$GNGGA,181946.90,4138.0844602,N,07032.3245457,W,1,24,0.7,13.160,M,-29.742,M,0.0,*55
###2023-12-09 13:19:47.985967$GNRMC,181947.10,A,4138.0843146,N,07032.3246977,W,3.29,212.33,091223,,,A*5D
###2023-12-09 13:19:47.988841$GNGGA,181947.10,4138.0843146,N,07032.3246977,W,1,24,0.7,13.193,M,-29.742,M,0.0,*5C
###2023-12-09 13:19:47.990645$GPGSA,A,3,03,04,16,26,28,29,31,,,,,,1.1,0.7,0.9*3B
###2023-12-09 13:19:47.992358$GLGSA,A,3,65,71,72,73,74,75,,,,,,,1.1,0.7,0.9*25
###2023-12-09 13:19:47.993944$GAGSA,A,3,04,19,21,27,,,,,,,,,1.1,0.7,0.9*27
###2023-12-09 13:19:47.995665$GBGSA,A,3,14,24,25,26,33,35,,,,,,,1.1,0.7,0.9*28
###2023-12-09 13:19:47.997994$GPGSV,2,1,07,03,31,253,41,04,40,310,47,16,59,217,44,26,89,196,48*74
###2023-12-09 13:19:48.000051$GPGSV,2,2,07,28,43,079,42,29,23,053,42,31,64,055,45,,,,*40
###2023-12-09 13:19:48.002384$GLGSV,2,1,06,65,32,324,44,71,31,174,42,72,69,237,45,73,28,047,44*67
###2023-12-09 13:19:48.004050$GLGSV,2,2,06,74,65,,42,75,38,262,48,,,,,,,,*56
###2023-12-09 13:19:48.006376$GAGSV,1,1,04,04,35,311,46,19,78,188,40,21,82,058,45,27,27,049,42*63
###2023-12-09 13:19:48.008722$GBGSV,2,1,06,14,35,191,40,24,68,038,47,25,46,269,48,26,20,067,43*64
###2023-12-09 13:19:48.010470$GBGSV,2,2,06,33,51,223,47,35,16,062,42,,,,,,,,*6A
###2023-12-09 13:19:48.011803$GNVTG,212.33,T,,M,3.29,N,6.08,K,A*24
###2023-12-09 13:19:48.013448$GNGST,181947.10,18.000,,,,0.100,0.073,0.170*5E
###2023-12-09 13:19:48.014781$GNZDA,181947.10,09,12,2023,00,00*72
###2023-12-09 13:19:48.015422$GNEBP,,,,,,M*13
###2023-12-09 13:19:48.182470$GNGGA,181947.30,4138.0841468,N,07032.3247952,W,1,24,0.7,13.225,M,-29.742,M,0.0,*5D
###2023-12-09 13:19:48.382485$GNGGA,181947.50,4138.0839669,N,07032.3248396,W,1,24,0.7,13.118,M,-29.742,M,0.0,*57
###2023-12-09 13:19:48.583099$GNGGA,181947.70,4138.0838044,N,07032.3249535,W,1,24,0.7,13.135,M,-29.742,M,0.0,*5C
###2023-12-09 13:19:48.784447$GNGGA,181947.90,4138.0836486,N,07032.3251310,W,1,24,0.7,13.189,M,-29.742,M,0.0,*59
###2023-12-09 13:19:48.987337$GNRMC,181948.10,A,4138.0834791,N,07032.3252181,W,3.36,185.82,091223,,,A*53
###2023-12-09 13:19:48.990188$GNGGA,181948.10,4138.0834791,N,07032.3252181,W,1,24,0.7,13.190,M,-29.742,M,0.0,*58
###2023-12-09 13:19:48.992257$GPGSA,A,3,03,04,16,26,28,29,31,,,,,,1.1,0.7,0.9*3B
###2023-12-09 13:19:48.993985$GLGSA,A,3,65,71,72,73,74,75,,,,,,,1.1,0.7,0.9*25
###2023-12-09 13:19:48.995581$GAGSA,A,3,04,19,21,27,,,,,,,,,1.1,0.7,0.9*27
###2023-12-09 13:19:48.997296$GBGSA,A,3,14,24,25,26,33,35,,,,,,,1.1,0.7,0.9*28
###2023-12-09 13:19:48.999636$GPGSV,2,1,07,03,31,253,43,04,40,310,47,16,59,217,45,26,89,196,48*77
###2023-12-09 13:19:49.001675$GPGSV,2,2,07,28,43,079,42,29,23,053,40,31,64,055,45,,,,*42
###2023-12-09 13:19:49.004023$GLGSV,2,1,06,65,32,324,45,71,31,174,40,72,69,237,45,73,28,047,43*63
###2023-12-09 13:19:49.005675$GLGSV,2,2,06,74,65,,42,75,38,262,48,,,,,,,,*56
###2023-12-09 13:19:49.008011$GAGSV,1,1,04,04,35,311,46,19,78,188,38,21,82,058,44,27,27,049,41*6E
###2023-12-09 13:19:49.010343$GBGSV,2,1,06,14,35,191,41,24,68,038,47,25,46,269,48,26,20,067,42*64
