###2023-12-09 12:36:28.962211$GBGSV,2,2,05,33,63,253,47,,,,,,,,,,,,*5C
###2023-12-09 12:36:28.963550$GNVTG,91.21,T,,M,3.11,N,5.76,K,A*1F
###2023-12-09 12:36:28.965208$GNGST,173628.10,19.000,,,,0.080,0.070,0.160*5F
###2023-12-09 12:36:28.966507$GNZDA,173628.10,09,12,2023,00,00*79
###2023-12-09 12:36:28.967172$GNEBP,,,,,,M*13
###2023-12-09 12:36:29.136678$GNGGA,173628.30,4138.0439236,N,07032.3846089,W,1,23,0.7,13.264,M,-29.745,M,0.0,*59
###2023-12-09 12:36:29.337048$GNGGA,173628.50,4138.0439044,N,07032.3843686,W,1,23,0.7,13.259,M,-29.745,M,0.0,*5A
###2023-12-09 12:36:29.537556$GNGGA,173628.70,4138.0438836,N,07032.3841304,W,1,23,0.7,13.260,M,-29.745,M,0.0,*53
###2023-12-09 12:36:29.736287$GNGGA,173628.90,4138.0438649,N,07032.3838824,W,1,23,0.7,13.260,M,-29.745,M,0.0,*5C
###2023-12-09 12:36:29.936845$GNRMC,173629.10,A,4138.0438431,N,07032.3836346,W,3.25,94.86,091223,,,A*69
###2023-12-09 12:36:29.940335$GNGGA,173629.10,4138.0438431,N,07032.3836346,W,1,23,0.7,13.245,M,-29.745,M,0.0,*5E
###2023-12-09 12:36:29.942594$GPGSA,A,3,03,04,16,26,28,29,31,32,,,,,1.2,0.7,1.0*31
###2023-12-09 12:36:29.944602$GLGSA,A,3,71,72,73,74,75,,,,,,,,1.2,0.7,1.0*2D
###2023-12-09 12:36:29.946530$GAGSA,A,3,04,19,21,27,,,,,,,,,1.2,0.7,1.0*2C
###2023-12-09 12:36:29.948573$GBGSA,A,3,14,24,25,26,33,,,,,,,,1.2,0.7,1.0*25
###2023-12-09 12:36:29.951400$GPGSV,2,1,08,03,38,276,45,04,22,311,41,16,37,207,45,26,67,207,48*71
###2023-12-09 12:36:29.954253$GPGSV,2,2,08,28,57,057,45,29,25,073,41,31,73,004,47,32,29,134,42*7C
###2023-12-09 12:36:29.957097$GLGSV,2,1,05,71,56,169,46,72,66,308,46,73,47,034,47,74,71,293,43*6F
###2023-12-09 12:36:29.958881$GLGSV,2,2,05,75,22,241,43,,,,,,,,,,,,*52
###2023-12-09 12:36:29.961696$GAGSV,1,1,04,04,21,311,40,19,82,300,40,21,78,175,46,27,41,049,44*69
###2023-12-09 12:36:29.964531$GBGSV,2,1,05,14,55,197,45,24,80,348,49,25,33,253,44,26,35,057,45*68
###2023-12-09 12:36:29.966298$GBGSV,2,2,05,33,63,253,47,,,,,,,,,,,,*5C
###2023-12-09 12:36:29.967878$GNVTG,94.86,T,,M,3.25,N,6.01,K,A*13
###2023-12-09 12:36:29.969872$GNGST,173629.10,18.000,,,,0.080,0.070,0.160*5F
###2023-12-09 12:36:29.971453$GNZDA,173629.10,09,12,2023,00,00*78
###2023-12-09 12:36:29.972226$GNEBP,,,,,,M*13
###2023-12-09 12:36:30.136937$GNGGA,173629.30,4138.0438278,N,07032.3833909,W,1,23,0.7,13.257,M,-29.745,M,0.0,*50
###2023-12-09 12:36:30.335204$GNGGA,173629.50,4138.0438064,N,07032.3831370,W,1,23,0.7,13.256,M,-29.745,M,0.0,*5E
###2023-12-09 12:36:30.536597$GNGGA,173629.70,4138.0437933,N,07032.3828867,W,1,23,0.7,13.242,M,-29.745,M,0.0,*58
###2023-12-09 12:36:30.735712$GNGGA,173629.90,4138.0437855,N,07032.3826394,W,1,23,0.7,13.239,M,-29.745,M,0.0,*52
###2023-12-09 12:36:30.936186$GNRMC,173630.10,A,4138.0437802,N,07032.3823878,W,3.44,90.67,091223,,,A*6C
###2023-12-09 12:36:30.939052$GNGGA,173630.10,4138.0437802,N,07032.3823878,W,1,23,0.7,13.238,M,-29.745,M,0.0,*5D
###2023-12-09 12:36:30.940904$GPGSA,A,3,03,04,16,26,28,29,31,32,,,,,1.2,0.7,1.0*31
###2023-12-09 12:36:30.942552$GLGSA,A,3,71,72,73,74,75,,,,,,,,1.2,0.7,1.0*2D
###2023-12-09 12:36:30.944135$GAGSA,A,3,04,19,21,27,,,,,,,,,1.2,0.7,1.0*2C
###2023-12-09 12:36:30.945775$GBGSA,A,3,14,24,25,26,33,,,,,,,,1.2,0.7,1.0*25
###2023-12-09 12:36:30.948137$GPGSV,2,1,08,03,38,276,44,04,22,311,41,16,37,207,45,26,67,207,47*7F
###2023-12-09 12:36:30.950479$GPGSV,2,2,08,28,57,057,44,29,25,073,41,31,73,004,47,32,29,134,42*7D
###2023-12-09 12:36:30.952823$GLGSV,2,1,05,71,56,169,46,72,66,308,46,73,47,034,46,74,71,293,43*6E
###2023-12-09 12:36:30.954287$GLGSV,2,2,05,75,22,241,43,,,,,,,,,,,,*52
###2023-12-09 12:36:30.956650$GAGSV,1,1,04,04,21,311,40,19,82,300,40,21,78,175,46,27,41,049,44*69
###2023-12-09 12:36:30.959009$GBGSV,2,1,05,14,55,197,46,24,80,348,48,25,33,253,45,26,35,057,43*6D
###2023-12-09 12:36:30.960471$GBGSV,2,2,05,33,63,253,47,,,,,,,,,,,,*5C
###2023-12-09 12:36:30.961764$GNVTG,90.67,T,,M,3.44,N,6.37,K,A*1A
###2023-12-09 12:36:30.963440$GNGST,173630.10,18.000,,,,0.080,0.070,0.160*57
###2023-12-09 12:36:30.964755$GNZDA,173630.10,09,12,2023,00,00*70
###2023-12-09 12:36:30.965399$GNEBP,,,,,,M*13
###2023-12-09 12:36:31.136211$GNGGA,173630.30,4138.0437810,N,07032.3821372,W,1,23,0.7,13.226,M,-29.745,M,0.0,*50
###2023-12-09 12:36:31.336429$GNGGA,173630.50,4138.0437893,N,07032.3818894,W,1,23,0.7,13.224,M,-29.745,M,0.0,*56
###2023-12-09 12:36:31.536806$GNGGA,173630.70,4138.0438056,N,07032.3816415,W,1,23,0.7,13.221,M,-29.745,M,0.0,*54
###2023-12-09 12:36:31.735752$GNGGA,173630.90,4138.0438249,N,07032.3813936,W,1,23,0.7,13.212,M,-29.745,M,0.0,*5F
###2023-12-09 12:36:31.936785$GNRMC,173631.10,A,4138.0438483,N,07032.3811531,W,3.34,82.08,091223,,,A*6B
###2023-12-09 12:36:31.939679$GNGGA,173631.10,4138.0438483,N,07032.3811531,W,1,23,0.7,13.205,M,-29.745,M,0.0,*59
###2023-12-09 12:36:31.941553$GPGSA,A,3,03,04,16,26,28,29,31,32,,,,,1.2,0.7,1.0*31
###2023-12-09 12:36:31.943222$GLGSA,A,3,71,72,73,74,75,,,,,,,,1.2,0.7,1.0*2D
###2023-12-09 12:36:31.944813$GAGSA,A,3,04,19,21,27,,,,,,,,,1.2,0.7,1.0*2C
###2023-12-09 12:36:31.946472$GBGSA,A,3,14,24,25,26,33,,,,,,,,1.2,0.7,1.0*25
###2023-12-09 12:36:31.948865$GPGSV,2,1,08,03,38,276,43,04,22,311,42,16,37,207,44,26,67,207,48*75
###2023-12-09 12:36:31.951250$GPGSV,2,2,08,28,57,057,44,29,25,073,40,31,73,004,47,32,29,134,42*7C
###2023-12-09 12:36:31.953588$GLGSV,2,1,05,71,56,169,47,72,66,308,46,73,47,034,46,74,71,293,43*6F
###2023-12-09 12:36:31.955058$GLGSV,2,2,05,75,22,241,44,,,,,,,,,,,,*55
###2023-12-09 12:36:31.957382$GAGSV,1,1,04,04,21,311,42,19,82,300,41,21,78,175,46,27,41,049,44*6A
###2023-12-09 12:36:31.959728$GBGSV,2,1,05,14,55,197,46,24,80,348,48,25,33,253,46,26,35,057,44*69
###2023-12-09 12:36:31.961184$GBGSV,2,2,05,33,63,253,48,,,,,,,,,,,,*53
###2023-12-09 12:36:31.962477$GNVTG,82.08,T,,M,3.34,N,6.19,K,A*1B
###2023-12-09 12:36:31.964141$GNGST,173631.10,18.000,,,,0.080,0.070,0.160*56
###2023-12-09 12:36:31.965438$GNZDA,173631.10,09,12,2023,00,00*71
###2023-12-09 12:36:31.966076$GNEBP,,,,,,M*13
###2023-12-09 12:36:32.136374$GNGGA,173631.30,4138.0438825,N,07032.3809077,W,1,23,0.7,13.197,M,-29.745,M,0.0,*5D
###2023-12-09 12:36:32.338454$GNGGA,173631.50,4138.0439195,N,07032.3806685,W,1,23,0.7,13.187,M,-29.745,M,0.0,*5D
###2023-12-09 12:36:32.539120$GNGGA,173631.70,4138.0439754,N,07032.3804461,W,1,23,0.7,13.195,M,-29.745,M,0.0,*5D
###2023-12-09 12:36:32.737593$GNGGA,173631.90,4138.0440207,N,07032.3802048,W,1,23,0.7,13.182,M,-29.745,M,0.0,*51
###2023-12-09 12:36:32.944584$GNRMC,173632.10,A,4138.0440814,N,07032.3799860,W,3.07,63.51,091223,,,A*60
###2023-12-09 12:36:32.947475$GNGGA,173632.10,4138.0440814,N,07032.3799860,W,1,23,0.7,13.165,M,-29.745,M,0.0,*54
###2023-12-09 12:36:32.949358$GPGSA,A,3,03,04,16,26,28,29,31,32,,,,,1.2,0.7,1.0*31
###2023-12-09 12:36:32.951031$GLGSA,A,3,71,72,73,74,75,,,,,,,,1.2,0.7,1.0*2D
###2023-12-09 12:36:32.952615$GAGSA,A,3,04,19,21,27,,,,,,,,,1.2,0.7,1.0*2C
###2023-12-09 12:36:32.954265$GBGSA,A,3,14,24,25,26,33,,,,,,,,1.2,0.7,1.0*25
###2023-12-09 12:36:32.956621$GPGSV,2,1,08,03,38,276,43,04,22,311,42,16,37,207,44,26,67,207,48*75
###2023-12-09 12:36:32.958977$GPGSV,2,2,08,28,57,057,44,29,25,073,41,31,73,004,47,32,29,134,44*7B
###2023-12-09 12:36:32.961314$GLGSV,2,1,05,71,56,169,48,72,66,308,46,73,47,034,46,74,71,293,42*61
###2023-12-09 12:36:32.962787$GLGSV,2,2,05,75,22,241,44,,,,,,,,,,,,*55
###2023-12-09 12:36:32.965124$GAGSV,1,1,04,04,21,311,40,19,82,300,40,21,78,175,46,27,41,049,42*6F
###2023-12-09 12:36:32.967487$GBGSV,2,1,05,14,55,197,46,24,80,348,48,25,33,253,45,26,35,057,44*6A
###2023-12-09 12:36:32.968951$GBGSV,2,2,05,33,63,253,48,,,,,,,,,,,,*53
###2023-12-09 12:36:32.970243$GNVTG,63.51,T,,M,3.07,N,5.69,K,A*1C
###2023-12-09 12:36:32.971913$GNGST,173632.10,18.000,,,,0.080,0.070,0.160*55
###2023-12-09 12:36:32.973208$GNZDA,173632.10,09,12,2023,00,00*72
###2023-12-09 12:36:32.973847$GNEBP,,,,,,M*13
###2023-12-09 12:36:33.136844$GNGGA,173632.30,4138.0441622,N,07032.3797798,W,1,23,0.7,13.179,M,-29.745,M,0.0,*57
###2023-12-09 12:36:33.337384$GNGGA,173632.50,4138.0442334,N,07032.3795574,W,1,23,0.7,13.167,M,-29.745,M,0.0,*5D
###2023-12-09 12:36:33.537999$GNGGA,173632.70,4138.0442954,N,07032.3793388,W,1,23,0.7,13.145,M,-29.745,M,0.0,*50
###2023-12-09 12:36:33.736904$GNGGA,173632.90,4138.0443755,N,07032.3791308,W,1,23,0.7,13.153,M,-29.745,M,0.0,*5D
###2023-12-09 12:36:33.936209$GNRMC,173633.10,A,4138.0444548,N,07032.3789147,W,3.19,66.58,091223,,,A*6F
###2023-12-09 12:36:33.939094$GNGGA,173633.10,4138.0444548,N,07032.3789147,W,1,23,0.7,13.141,M,-29.745,M,0.0,*5E
###2023-12-09 12:36:33.940961$GPGSA,A,3,03,04,16,26,28,29,31,32,,,,,1.2,0.7,1.0*31
###2023-12-09 12:36:33.942630$GLGSA,A,3,71,72,73,74,75,,,,,,,,1.2,0.7,1.0*2D
###2023-12-09 12:36:33.944218$GAGSA,A,3,04,19,21,27,,,,,,,,,1.2,0.7,1.0*2C
###2023-12-09 12:36:33.945868$GBGSA,A,3,14,24,25,26,33,,,,,,,,1.2,0.7,1.0*25
###2023-12-09 12:36:33.948230$GPGSV,2,1,08,03,38,276,42,04,22,311,42,16,37,207,44,26,67,207,48*74
