###2023-12-09 12:26:29.918658$GNRMC,172629.10,A,4138.0380387,N,07032.4357708,W,0.02,,091223,,,A*48
###2023-12-09 12:26:29.922155$GNGGA,172629.10,4138.0380387,N,07032.4357708,W,1,17,0.8,8.498,M,-29.746,M,0.0,*63
###2023-12-09 12:26:29.924416$GPGSA,A,3,03,16,26,28,29,31,32,,,,,,1.5,0.8,1.3*3E
###2023-12-09 12:26:29.926403$GLGSA,A,3,71,72,73,75,,,,,,,,,1.5,0.8,1.3*25
###2023-12-09 12:26:29.928230$GAGSA,A,3,21,27,,,,,,,,,,,1.5,0.8,1.3*2B
###2023-12-09 12:26:29.930188$GBGSA,A,3,14,25,26,33,,,,,,,,,1.5,0.8,1.3*28
###2023-12-09 12:26:29.933065$GPGSV,2,1,07,03,39,282,45,16,32,206,43,26,62,205,43,28,61,050,43*77
###2023-12-09 12:26:29.935598$GPGSV,2,2,07,29,24,078,43,31,73,346,40,32,34,132,47,,,,*4D
###2023-12-09 12:26:29.938454$GLGSV,1,1,04,71,61,167,48,72,62,315,44,73,52,031,48,75,19,238,43*63
###2023-12-09 12:26:29.940624$GAGSV,1,1,02,21,74,179,44,27,44,051,45,,,,,,,,*65
###2023-12-09 12:26:29.943533$GBGSV,1,1,04,14,59,200,46,25,30,250,36,26,38,056,48,33,64,263,38*6E
###2023-12-09 12:26:29.944963$GNVTG,,T,,M,0.02,N,0.04,K,A*3B
###2023-12-09 12:26:29.947050$GNGST,172629.10,30.000,,,,0.230,0.220,0.520*5A
###2023-12-09 12:26:29.948688$GNZDA,172629.10,09,12,2023,00,00*79
###2023-12-09 12:26:29.949516$GNEBP,,,,,,M*13
###2023-12-09 12:26:30.118368$GNGGA,172629.30,4138.0380378,N,07032.4357686,W,1,17,0.8,8.499,M,-29.746,M,0.0,*67
###2023-12-09 12:26:30.318546$GNGGA,172629.50,4138.0380366,N,07032.4357663,W,1,17,0.8,8.493,M,-29.746,M,0.0,*6F
###2023-12-09 12:26:30.517237$GNGGA,172629.70,4138.0380350,N,07032.4357643,W,1,18,0.7,8.488,M,-29.746,M,0.0,*60
###2023-12-09 12:26:30.718349$GNGGA,172629.90,4138.0380353,N,07032.4357626,W,1,17,0.8,8.486,M,-29.746,M,0.0,*60
###2023-12-09 12:26:30.918463$GNRMC,172630.10,A,4138.0380338,N,07032.4357615,W,0.04,,091223,,,A*4F
###2023-12-09 12:26:30.921985$GNGGA,172630.10,4138.0380338,N,07032.4357615,W,1,18,0.7,8.476,M,-29.746,M,0.0,*62
###2023-12-09 12:26:30.924236$GPGSA,A,3,03,16,26,28,29,31,32,,,,,,1.4,0.7,1.1*32
###2023-12-09 12:26:30.926206$GLGSA,A,3,71,72,73,75,,,,,,,,,1.4,0.7,1.1*29
###2023-12-09 12:26:30.928123$GAGSA,A,3,04,21,27,,,,,,,,,,1.4,0.7,1.1*23
###2023-12-09 12:26:30.930077$GBGSA,A,3,14,25,26,33,,,,,,,,,1.4,0.7,1.1*24
###2023-12-09 12:26:30.933165$GPGSV,2,1,07,03,39,282,44,16,32,206,43,26,62,205,43,28,61,050,43*76
###2023-12-09 12:26:30.935950$GPGSV,2,2,07,29,24,078,43,31,73,346,40,32,34,132,47,,,,*4D
###2023-12-09 12:26:30.938842$GLGSV,1,1,04,71,61,167,48,72,62,315,44,73,52,031,48,75,19,238,43*63
###2023-12-09 12:26:30.941344$GAGSV,1,1,03,04,18,310,35,21,74,179,43,27,44,051,46,,,,*59
###2023-12-09 12:26:30.944225$GBGSV,1,1,04,14,59,200,47,25,30,250,37,26,38,056,48,33,64,263,38*6E
###2023-12-09 12:26:30.945644$GNVTG,,T,,M,0.04,N,0.07,K,A*3E
###2023-12-09 12:26:30.947713$GNGST,172630.10,30.000,,,,0.230,0.220,0.520*52
###2023-12-09 12:26:30.949336$GNZDA,172630.10,09,12,2023,00,00*71
###2023-12-09 12:26:30.950162$GNEBP,,,,,,M*13
###2023-12-09 12:26:31.118485$GNGGA,172630.30,4138.0380323,N,07032.4357602,W,1,18,0.7,8.473,M,-29.746,M,0.0,*69
###2023-12-09 12:26:31.318444$GNGGA,172630.50,4138.0380318,N,07032.4357581,W,1,18,0.7,8.468,M,-29.746,M,0.0,*65
###2023-12-09 12:26:31.518295$GNGGA,172630.70,4138.0380301,N,07032.4357567,W,1,17,0.8,8.459,M,-29.746,M,0.0,*65
###2023-12-09 12:26:31.717462$GNGGA,172630.90,4138.0380288,N,07032.4357554,W,1,17,0.8,8.453,M,-29.746,M,0.0,*61
###2023-12-09 12:26:31.924071$GNRMC,172631.10,A,4138.0380283,N,07032.4357544,W,0.04,,091223,,,A*48
###2023-12-09 12:26:31.926922$GNGGA,172631.10,4138.0380283,N,07032.4357544,W,1,17,0.8,8.446,M,-29.746,M,0.0,*66
###2023-12-09 12:26:31.928736$GPGSA,A,3,03,16,26,28,29,31,32,,,,,,1.5,0.8,1.3*3E
###2023-12-09 12:26:31.930343$GLGSA,A,3,71,72,73,75,,,,,,,,,1.5,0.8,1.3*25
###2023-12-09 12:26:31.931834$GAGSA,A,3,21,27,,,,,,,,,,,1.5,0.8,1.3*2B
###2023-12-09 12:26:31.933436$GBGSA,A,3,14,25,26,33,,,,,,,,,1.5,0.8,1.3*28
###2023-12-09 12:26:31.935794$GPGSV,2,1,07,03,39,282,44,16,32,206,43,26,62,205,43,28,61,050,43*76
###2023-12-09 12:26:31.937873$GPGSV,2,2,07,29,24,078,42,31,73,346,40,32,34,132,47,,,,*4C
###2023-12-09 12:26:31.940251$GLGSV,1,1,04,71,61,167,48,72,62,315,44,73,52,031,48,75,19,238,42*62
###2023-12-09 12:26:31.942024$GAGSV,1,1,02,21,74,179,43,27,44,051,46,,,,,,,,*61
###2023-12-09 12:26:31.944392$GBGSV,1,1,04,14,59,200,47,25,30,250,37,26,38,056,48,33,64,263,38*6E
###2023-12-09 12:26:31.945542$GNVTG,,T,,M,0.04,N,0.07,K,A*3E
###2023-12-09 12:26:31.947248$GNGST,172631.10,30.000,,,,0.230,0.220,0.520*53
###2023-12-09 12:26:31.948583$GNZDA,172631.10,09,12,2023,00,00*70
###2023-12-09 12:26:31.949244$GNEBP,,,,,,M*13
###2023-12-09 12:26:32.118479$GNGGA,172631.30,4138.0380274,N,07032.4357517,W,1,17,0.8,8.447,M,-29.746,M,0.0,*6B
###2023-12-09 12:26:32.317945$GNGGA,172631.50,4138.0380263,N,07032.4357510,W,1,17,0.8,8.441,M,-29.746,M,0.0,*6A
###2023-12-09 12:26:32.519620$GNGGA,172631.70,4138.0380249,N,07032.4357507,W,1,17,0.8,8.436,M,-29.746,M,0.0,*66
###2023-12-09 12:26:32.715758$GNGGA,172631.90,4138.0380244,N,07032.4357503,W,1,17,0.8,8.429,M,-29.746,M,0.0,*6F
###2023-12-09 12:26:32.921093$GNRMC,172632.10,A,4138.0380241,N,07032.4357488,W,0.02,,091223,,,A*42
###2023-12-09 12:26:32.924165$GNGGA,172632.10,4138.0380241,N,07032.4357488,W,1,17,0.8,8.424,M,-29.746,M,0.0,*6E
###2023-12-09 12:26:32.925986$GPGSA,A,3,03,16,26,28,29,31,32,,,,,,1.5,0.8,1.3*3E
###2023-12-09 12:26:32.927616$GLGSA,A,3,71,72,73,75,,,,,,,,,1.5,0.8,1.3*25
###2023-12-09 12:26:32.929091$GAGSA,A,3,21,27,,,,,,,,,,,1.5,0.8,1.3*2B
###2023-12-09 12:26:32.930707$GBGSA,A,3,14,25,26,33,,,,,,,,,1.5,0.8,1.3*28
###2023-12-09 12:26:32.933059$GPGSV,2,1,07,03,39,281,44,16,32,206,43,26,62,205,43,28,61,050,43*75
###2023-12-09 12:26:32.935139$GPGSV,2,2,07,29,24,078,42,31,73,346,40,32,34,132,47,,,,*4C
###2023-12-09 12:26:32.937486$GLGSV,1,1,04,71,61,167,48,72,62,315,44,73,52,031,48,75,19,238,42*62
###2023-12-09 12:26:32.939268$GAGSV,1,1,02,21,74,179,43,27,44,051,46,,,,,,,,*61
###2023-12-09 12:26:32.941615$GBGSV,1,1,04,14,59,200,47,25,30,250,37,26,38,056,48,33,64,263,38*6E
###2023-12-09 12:26:32.942779$GNVTG,,T,,M,0.02,N,0.04,K,A*3B
###2023-12-09 12:26:32.944446$GNGST,172632.10,30.000,,,,0.230,0.220,0.520*50
###2023-12-09 12:26:32.945755$GNZDA,172632.10,09,12,2023,00,00*73
###2023-12-09 12:26:32.946413$GNEBP,,,,,,M*13
###2023-12-09 12:26:33.119378$GNGGA,172632.30,4138.0380220,N,07032.4357466,W,1,17,0.8,8.417,M,-29.746,M,0.0,*6B
###2023-12-09 12:26:33.318367$GNGGA,172632.50,4138.0380223,N,07032.4357443,W,1,17,0.8,8.407,M,-29.746,M,0.0,*68
###2023-12-09 12:26:33.518382$GNGGA,172632.70,4138.0380219,N,07032.4357436,W,1,17,0.8,8.402,M,-29.746,M,0.0,*64
###2023-12-09 12:26:33.717513$GNGGA,172632.90,4138.0380214,N,07032.4357430,W,1,17,0.8,8.396,M,-29.746,M,0.0,*6B
###2023-12-09 12:26:33.917085$GNRMC,172633.10,A,4138.0380207,N,07032.4357420,W,0.00,,091223,,,A*41
###2023-12-09 12:26:33.920111$GNGGA,172633.10,4138.0380207,N,07032.4357420,W,1,17,0.8,8.387,M,-29.746,M,0.0,*61
###2023-12-09 12:26:33.922037$GPGSA,A,3,03,16,26,28,29,31,32,,,,,,1.5,0.8,1.3*3E
###2023-12-09 12:26:33.923755$GLGSA,A,3,71,72,73,75,,,,,,,,,1.5,0.8,1.3*25
###2023-12-09 12:26:33.925222$GAGSA,A,3,21,27,,,,,,,,,,,1.5,0.8,1.3*2B
###2023-12-09 12:26:33.926862$GBGSA,A,3,14,25,26,33,,,,,,,,,1.5,0.8,1.3*28
###2023-12-09 12:26:33.929199$GPGSV,2,1,07,03,39,281,44,16,32,206,43,26,62,205,43,28,61,050,43*75
###2023-12-09 12:26:33.931249$GPGSV,2,2,07,29,24,078,42,31,73,346,40,32,34,132,47,,,,*4C
###2023-12-09 12:26:33.933567$GLGSV,1,1,04,71,61,167,48,72,62,315,45,73,52,031,48,75,19,238,42*63
###2023-12-09 12:26:33.935333$GAGSV,1,1,02,21,74,179,42,27,44,051,46,,,,,,,,*60
###2023-12-09 12:26:33.937655$GBGSV,1,1,04,14,59,200,47,25,30,250,37,26,38,056,49,33,64,263,38*6F
###2023-12-09 12:26:33.938802$GNVTG,,T,,M,0.00,N,0.00,K,A*3D
###2023-12-09 12:26:33.940457$GNGST,172633.10,30.000,,,,0.230,0.220,0.520*51
###2023-12-09 12:26:33.941745$GNZDA,172633.10,09,12,2023,00,00*72
###2023-12-09 12:26:33.942386$GNEBP,,,,,,M*13
###2023-12-09 12:26:34.117618$GNGGA,172633.30,4138.0380207,N,07032.4357424,W,1,17,0.8,8.379,M,-29.746,M,0.0,*66
###2023-12-09 12:26:34.318018$GNGGA,172633.50,4138.0380202,N,07032.4357421,W,1,17,0.8,8.372,M,-29.746,M,0.0,*6B
###2023-12-09 12:26:34.518946$GNGGA,172633.70,4138.0380203,N,07032.4357418,W,1,17,0.8,8.362,M,-29.746,M,0.0,*63
###2023-12-09 12:26:34.717322$GNGGA,172633.90,4138.0380193,N,07032.4357409,W,1,17,0.8,8.355,M,-29.746,M,0.0,*63
###2023-12-09 12:26:34.919751$GNRMC,172634.10,A,4138.0380186,N,07032.4357406,W,0.02,,091223,,,A*4A
###2023-12-09 12:26:34.922599$GNGGA,172634.10,4138.0380186,N,07032.4357406,W,1,17,0.8,8.349,M,-29.746,M,0.0,*6A
###2023-12-09 12:26:34.924402$GPGSA,A,3,03,16,26,28,29,31,32,,,,,,1.5,0.8,1.3*3E
###2023-12-09 12:26:34.925997$GLGSA,A,3,71,72,73,75,,,,,,,,,1.5,0.8,1.3*25
###2023-12-09 12:26:34.927478$GAGSA,A,3,21,27,,,,,,,,,,,1.5,0.8,1.3*2B
