###2023-12-09 13:34:11.020457$GAGSV,1,1,04,04,40,310,44,19,72,181,42,21,77,046,46,27,22,050,38*65
###2023-12-09 13:34:11.022825$GBGSV,2,1,07,12,15,126,40,14,29,190,42,24,63,045,47,25,50,275,48*66
###2023-12-09 13:34:11.024874$GBGSV,2,2,07,26,16,070,39,33,46,217,47,35,16,057,40,,,,*50
###2023-12-09 13:34:11.026169$GNVTG,12.23,T,,M,2.97,N,5.51,K,A*1C
###2023-12-09 13:34:11.027795$GNGST,183410.10,5.400,,,,0.096,0.069,0.160*6F
###2023-12-09 13:34:11.029087$GNZDA,183410.10,09,12,2023,00,00*7F
###2023-12-09 13:34:11.029723$GNEBP,,,,,,M*13
###2023-12-09 13:34:11.195991$GNGGA,183410.30,4138.0449144,N,07032.4082013,W,1,26,0.6,13.511,M,-29.745,M,0.0,*5B
###2023-12-09 13:34:11.394719$GNGGA,183410.50,4138.0450800,N,07032.4082012,W,1,26,0.6,13.506,M,-29.745,M,0.0,*5B
###2023-12-09 13:34:11.595183$GNGGA,183410.70,4138.0452451,N,07032.4082258,W,1,26,0.6,13.501,M,-29.745,M,0.0,*58
###2023-12-09 13:34:11.793833$GNGGA,183410.90,4138.0454134,N,07032.4082355,W,1,26,0.6,13.489,M,-29.745,M,0.0,*5B
###2023-12-09 13:34:11.997693$GNRMC,183411.10,A,4138.0455831,N,07032.4082423,W,3.03,358.16,091223,,,A*52
###2023-12-09 13:34:12.001199$GNGGA,183411.10,4138.0455831,N,07032.4082423,W,1,26,0.6,13.486,M,-29.745,M,0.0,*56
###2023-12-09 13:34:12.003467$GPGSA,A,3,03,04,16,26,27,28,29,31,,,,,1.0,0.6,0.9*3E
###2023-12-09 13:34:12.005536$GLGSA,A,3,65,71,72,73,74,75,,,,,,,1.0,0.6,0.9*25
###2023-12-09 13:34:12.007466$GAGSA,A,3,04,19,21,27,,,,,,,,,1.0,0.6,0.9*27
###2023-12-09 13:34:12.009637$GBGSA,A,3,12,14,24,25,26,33,35,,,,,,1.0,0.6,0.9*2B
###2023-12-09 13:34:12.012483$GPGSV,2,1,08,03,27,247,43,04,46,308,45,16,66,222,46,26,84,040,48*79
###2023-12-09 13:34:12.015320$GPGSV,2,2,08,27,16,172,42,28,38,084,45,29,21,047,41,31,59,066,46*7F
###2023-12-09 13:34:12.018140$GLGSV,2,1,06,65,38,319,42,71,23,175,44,72,63,222,46,73,23,052,41*66
###2023-12-09 13:34:12.020278$GLGSV,2,2,06,74,60,013,41,75,43,271,47,,,,,,,,*63
###2023-12-09 13:34:12.023112$GAGSV,1,1,04,04,40,310,44,19,72,181,42,21,77,046,46,27,22,050,39*64
###2023-12-09 13:34:12.025925$GBGSV,2,1,07,12,15,126,41,14,29,190,41,24,63,045,47,25,50,275,46*6A
###2023-12-09 13:34:12.028410$GBGSV,2,2,07,26,16,070,41,33,46,217,46,35,16,057,43,,,,*5D
###2023-12-09 13:34:12.030013$GNVTG,358.16,T,,M,3.03,N,5.62,K,A*2B
###2023-12-09 13:34:12.031965$GNGST,183411.10,5.400,,,,0.095,0.068,0.160*6C
###2023-12-09 13:34:12.033530$GNZDA,183411.10,09,12,2023,00,00*7E
###2023-12-09 13:34:12.034306$GNEBP,,,,,,M*13
###2023-12-09 13:34:12.195139$GNGGA,183411.30,4138.0457542,N,07032.4082560,W,1,26,0.6,13.495,M,-29.745,M,0.0,*5B
###2023-12-09 13:34:12.393948$GNGGA,183411.50,4138.0459263,N,07032.4082781,W,1,26,0.6,13.487,M,-29.745,M,0.0,*59
###2023-12-09 13:34:12.594137$GNGGA,183411.70,4138.0461009,N,07032.4082788,W,1,26,0.6,13.469,M,-29.745,M,0.0,*57
###2023-12-09 13:34:12.795106$GNGGA,183411.90,4138.0462737,N,07032.4082683,W,1,26,0.6,13.461,M,-29.745,M,0.0,*52
###2023-12-09 13:34:12.998720$GNRMC,183412.10,A,4138.0464493,N,07032.4082757,W,3.09,356.55,091223,,,A*54
###2023-12-09 13:34:13.002202$GNGGA,183412.10,4138.0464493,N,07032.4082757,W,1,26,0.6,13.466,M,-29.745,M,0.0,*5D
###2023-12-09 13:34:13.004467$GPGSA,A,3,03,04,16,26,27,28,29,31,,,,,1.0,0.6,0.8*3F
###2023-12-09 13:34:13.006544$GLGSA,A,3,65,71,72,73,74,75,,,,,,,1.0,0.6,0.8*24
###2023-12-09 13:34:13.008467$GAGSA,A,3,04,19,21,27,,,,,,,,,1.0,0.6,0.8*26
###2023-12-09 13:34:13.010669$GBGSA,A,3,12,14,24,25,26,33,35,,,,,,1.0,0.6,0.8*2A
###2023-12-09 13:34:13.013489$GPGSV,2,1,08,03,27,247,41,04,46,308,45,16,66,222,46,26,84,040,48*7B
###2023-12-09 13:34:13.016339$GPGSV,2,2,08,27,16,172,43,28,38,084,44,29,21,047,39,31,59,066,46*70
###2023-12-09 13:34:13.019169$GLGSV,2,1,06,65,38,319,42,71,23,175,45,72,63,222,47,73,23,052,38*68
###2023-12-09 13:34:13.021288$GLGSV,2,2,06,74,60,013,41,75,43,271,47,,,,,,,,*63
###2023-12-09 13:34:13.024111$GAGSV,1,1,04,04,40,310,43,19,72,181,41,21,77,046,46,27,22,050,37*6E
###2023-12-09 13:34:13.026943$GBGSV,2,1,07,12,15,126,39,14,29,190,41,24,63,045,47,25,50,275,48*6B
###2023-12-09 13:34:13.029402$GBGSV,2,2,07,26,16,070,41,33,46,217,46,35,16,057,42,,,,*5C
###2023-12-09 13:34:13.031016$GNVTG,356.55,T,,M,3.09,N,5.72,K,A*29
###2023-12-09 13:34:13.032973$GNGST,183412.10,6.000,,,,0.094,0.068,0.160*69
###2023-12-09 13:34:13.034575$GNZDA,183412.10,09,12,2023,00,00*7D
###2023-12-09 13:34:13.035348$GNEBP,,,,,,M*13
###2023-12-09 13:34:13.194823$GNGGA,183412.30,4138.0466250,N,07032.4082798,W,1,26,0.6,13.466,M,-29.745,M,0.0,*57
###2023-12-09 13:34:13.393602$GNGGA,183412.50,4138.0468001,N,07032.4082482,W,1,26,0.6,13.457,M,-29.745,M,0.0,*53
###2023-12-09 13:34:13.591503$GNGGA,183412.70,4138.0469708,N,07032.4082004,W,1,26,0.6,13.450,M,-29.745,M,0.0,*53
###2023-12-09 13:34:13.793312$GNGGA,183412.90,4138.0471446,N,07032.4081835,W,1,26,0.6,13.448,M,-29.745,M,0.0,*5D
###2023-12-09 13:34:13.997172$GNRMC,183413.10,A,4138.0473205,N,07032.4081684,W,3.13,6.04,091223,,,A*5F
###2023-12-09 13:34:14.000056$GNGGA,183413.10,4138.0473205,N,07032.4081684,W,1,26,0.6,13.445,M,-29.745,M,0.0,*5E
###2023-12-09 13:34:14.001911$GPGSA,A,3,03,04,16,26,27,28,29,31,,,,,1.0,0.6,0.8*3F
###2023-12-09 13:34:14.003634$GLGSA,A,3,65,71,72,73,74,75,,,,,,,1.0,0.6,0.8*24
###2023-12-09 13:34:14.005217$GAGSA,A,3,04,19,21,27,,,,,,,,,1.0,0.6,0.8*26
###2023-12-09 13:34:14.007009$GBGSA,A,3,12,14,24,25,26,33,35,,,,,,1.0,0.6,0.8*2A
###2023-12-09 13:34:14.009334$GPGSV,2,1,08,03,27,247,42,04,46,308,44,16,66,222,47,26,84,040,48*78
###2023-12-09 13:34:14.011680$GPGSV,2,2,08,27,16,172,42,28,38,084,44,29,21,047,41,31,59,066,45*7D
###2023-12-09 13:34:14.014003$GLGSV,2,1,06,65,38,319,43,71,23,175,43,72,63,222,47,73,23,052,38*6F
###2023-12-09 13:34:14.015758$GLGSV,2,2,06,74,60,013,41,75,43,271,48,,,,,,,,*6C
###2023-12-09 13:34:14.018076$GAGSV,1,1,04,04,40,310,43,19,72,181,41,21,77,046,46,27,22,050,39*60
###2023-12-09 13:34:14.020410$GBGSV,2,1,07,12,15,126,38,14,29,190,40,24,63,045,47,25,50,275,47*64
###2023-12-09 13:34:14.022446$GBGSV,2,2,07,26,16,070,41,33,46,217,46,35,16,057,42,,,,*5C
###2023-12-09 13:34:14.023720$GNVTG,6.04,T,,M,3.13,N,5.80,K,A*2D
###2023-12-09 13:34:14.025325$GNGST,183413.10,5.000,,,,0.093,0.068,0.160*6C
###2023-12-09 13:34:14.026625$GNZDA,183413.10,09,12,2023,00,00*7C
###2023-12-09 13:34:14.027261$GNEBP,,,,,,M*13
###2023-12-09 13:34:14.199930$GNGGA,183413.30,4138.0474902,N,07032.4081224,W,1,26,0.6,13.446,M,-29.745,M,0.0,*5A
###2023-12-09 13:34:14.394296$GNGGA,183413.50,4138.0476564,N,07032.4080336,W,1,26,0.6,13.444,M,-29.745,M,0.0,*53
###2023-12-09 13:34:14.594355$GNGGA,183413.70,4138.0478179,N,07032.4079463,W,1,26,0.6,13.428,M,-29.745,M,0.0,*5C
###2023-12-09 13:34:14.794196$GNGGA,183413.90,4138.0479851,N,07032.4078943,W,1,26,0.6,13.432,M,-29.745,M,0.0,*55
###2023-12-09 13:34:14.999172$GNRMC,183414.10,A,4138.0481550,N,07032.4078387,W,3.23,21.84,091223,,,A*6C
###2023-12-09 13:34:15.002037$GNGGA,183414.10,4138.0481550,N,07032.4078387,W,1,26,0.6,13.432,M,-29.745,M,0.0,*53
###2023-12-09 13:34:15.003917$GPGSA,A,3,03,04,16,26,27,28,29,31,,,,,1.0,0.6,0.8*3F
###2023-12-09 13:34:15.005644$GLGSA,A,3,65,71,72,73,74,75,,,,,,,1.0,0.6,0.8*24
###2023-12-09 13:34:15.007245$GAGSA,A,3,04,19,21,27,,,,,,,,,1.0,0.6,0.8*26
###2023-12-09 13:34:15.009023$GBGSA,A,3,12,14,24,25,26,33,35,,,,,,1.0,0.6,0.8*2A
###2023-12-09 13:34:15.011364$GPGSV,2,1,08,03,27,247,39,04,46,308,44,16,66,222,47,26,84,040,48*74
###2023-12-09 13:34:15.013694$GPGSV,2,2,08,27,16,172,43,28,38,084,42,29,21,047,40,31,59,066,45*7B
###2023-12-09 13:34:15.016038$GLGSV,2,1,06,65,38,319,44,71,23,175,42,72,63,222,46,73,23,052,39*69
###2023-12-09 13:34:15.017782$GLGSV,2,2,06,74,60,013,41,75,43,271,48,,,,,,,,*6C
###2023-12-09 13:34:15.020131$GAGSV,1,1,04,04,40,310,43,19,72,181,42,21,77,046,45,27,22,050,39*60
###2023-12-09 13:34:15.022473$GBGSV,2,1,07,12,15,126,36,14,29,190,40,24,63,045,46,25,50,275,47*6B
###2023-12-09 13:34:15.024532$GBGSV,2,2,07,26,16,070,40,33,46,217,46,35,16,057,42,,,,*5D
###2023-12-09 13:34:15.025834$GNVTG,21.84,T,,M,3.23,N,5.98,K,A*1A
###2023-12-09 13:34:15.027493$GNGST,183414.10,5.400,,,,0.092,0.068,0.160*6E
###2023-12-09 13:34:15.028791$GNZDA,183414.10,09,12,2023,00,00*7B
###2023-12-09 13:34:15.029433$GNEBP,,,,,,M*13
###2023-12-09 13:34:15.198450$GNGGA,183414.30,4138.0483153,N,07032.4077338,W,1,26,0.6,13.423,M,-29.745,M,0.0,*5F
###2023-12-09 13:34:15.393369$GNGGA,183414.50,4138.0484643,N,07032.4076195,W,1,26,0.6,13.424,M,-29.745,M,0.0,*5B
###2023-12-09 13:34:15.595145$GNGGA,183414.70,4138.0486252,N,07032.4075356,W,1,26,0.6,13.424,M,-29.745,M,0.0,*51
###2023-12-09 13:34:15.797568$GNGGA,183414.90,4138.0487884,N,07032.4074505,W,1,26,0.6,13.413,M,-29.745,M,0.0,*5A
###2023-12-09 13:34:15.999185$GNRMC,183415.10,A,4138.0489404,N,07032.4073423,W,3.09,31.43,091223,,,A*65
###2023-12-09 13:34:16.002043$GNGGA,183415.10,4138.0489404,N,07032.4073423,W,1,26,0.6,13.415,M,-29.745,M,0.0,*5D
###2023-12-09 13:34:16.003917$GPGSA,A,3,03,04,16,26,27,28,29,31,,,,,1.0,0.6,0.8*3F
###2023-12-09 13:34:16.005634$GLGSA,A,3,65,71,72,73,74,75,,,,,,,1.0,0.6,0.8*24
###2023-12-09 13:34:16.007219$GAGSA,A,3,04,19,21,27,,,,,,,,,1.0,0.6,0.8*26
