###2023-12-09 13:03:27.995660$GNVTG,22.72,T,,M,2.72,N,5.04,K,A*10
###2023-12-09 13:03:27.997321$GNGST,180327.10,18.000,,,,0.081,0.068,0.160*50
###2023-12-09 13:03:27.998629$GNZDA,180327.10,09,12,2023,00,00*7F
###2023-12-09 13:03:27.999273$GNEBP,,,,,,M*13
###2023-12-09 13:03:28.165382$GNGGA,180327.30,4138.0530876,N,07032.3914955,W,1,24,0.6,13.333,M,-29.744,M,0.0,*53
###2023-12-09 13:03:28.368745$GNGGA,180327.50,4138.0532356,N,07032.3914378,W,1,24,0.6,13.329,M,-29.744,M,0.0,*50
###2023-12-09 13:03:28.565220$GNGGA,180327.70,4138.0533840,N,07032.3914205,W,1,24,0.6,13.326,M,-29.744,M,0.0,*5B
###2023-12-09 13:03:28.766476$GNGGA,180327.90,4138.0535385,N,07032.3914061,W,1,24,0.6,13.321,M,-29.744,M,0.0,*56
###2023-12-09 13:03:28.968726$GNRMC,180328.10,A,4138.0536990,N,07032.3913571,W,3.01,13.87,091223,,,A*64
###2023-12-09 13:03:28.971586$GNGGA,180328.10,4138.0536990,N,07032.3913571,W,1,24,0.6,13.318,M,-29.744,M,0.0,*55
###2023-12-09 13:03:28.973443$GPGSA,A,3,03,04,16,26,28,29,31,32,,,,,1.1,0.6,0.9*3B
###2023-12-09 13:03:28.975170$GLGSA,A,3,65,71,72,73,74,75,,,,,,,1.1,0.6,0.9*24
###2023-12-09 13:03:28.976753$GAGSA,A,3,04,19,21,27,,,,,,,,,1.1,0.6,0.9*26
###2023-12-09 13:03:28.978394$GBGSA,A,3,14,24,25,26,33,,,,,,,,1.1,0.6,0.9*2F
###2023-12-09 13:03:28.980728$GPGSV,2,1,08,03,34,260,45,04,33,311,43,16,51,213,47,26,81,210,48*71
###2023-12-09 13:03:28.983114$GPGSV,2,2,08,28,49,070,44,29,25,061,41,31,69,038,46,32,19,140,41*72
###2023-12-09 13:03:28.985446$GLGSV,2,1,06,65,25,327,40,71,40,173,46,72,73,265,46,73,35,042,43*62
###2023-12-09 13:03:28.987201$GLGSV,2,2,06,74,69,340,41,75,33,254,47,,,,,,,,*6F
###2023-12-09 13:03:28.989527$GAGSV,1,1,04,04,29,312,43,19,84,213,40,21,86,114,46,27,32,048,40*63
###2023-12-09 13:03:28.991868$GBGSV,2,1,05,14,43,193,45,24,73,026,48,25,41,263,46,26,26,063,43*6A
###2023-12-09 13:03:28.993321$GBGSV,2,2,05,33,57,231,49,,,,,,,,,,,,*51
###2023-12-09 13:03:28.994618$GNVTG,13.87,T,,M,3.01,N,5.58,K,A*14
###2023-12-09 13:03:28.996267$GNGST,180328.10,18.000,,,,0.081,0.068,0.160*5F
###2023-12-09 13:03:28.997556$GNZDA,180328.10,09,12,2023,00,00*70
###2023-12-09 13:03:28.998193$GNEBP,,,,,,M*13
###2023-12-09 13:03:29.165271$GNGGA,180328.30,4138.0538629,N,07032.3913271,W,1,24,0.6,13.327,M,-29.744,M,0.0,*5F
###2023-12-09 13:03:29.365934$GNGGA,180328.50,4138.0540330,N,07032.3913334,W,1,24,0.6,13.335,M,-29.744,M,0.0,*58
###2023-12-09 13:03:29.565248$GNGGA,180328.70,4138.0542030,N,07032.3913472,W,1,24,0.6,13.320,M,-29.744,M,0.0,*5A
###2023-12-09 13:03:29.764829$GNGGA,180328.90,4138.0543726,N,07032.3913612,W,1,24,0.6,13.312,M,-29.744,M,0.0,*50
###2023-12-09 13:03:29.968689$GNRMC,180329.10,A,4138.0545447,N,07032.3913760,W,3.15,356.64,091223,,,A*5E
###2023-12-09 13:03:29.971558$GNGGA,180329.10,4138.0545447,N,07032.3913760,W,1,24,0.6,13.314,M,-29.744,M,0.0,*59
###2023-12-09 13:03:29.973451$GPGSA,A,3,03,04,16,26,28,29,31,32,,,,,1.1,0.6,0.9*3B
###2023-12-09 13:03:29.975175$GLGSA,A,3,65,71,72,73,74,75,,,,,,,1.1,0.6,0.9*24
###2023-12-09 13:03:29.976758$GAGSA,A,3,04,19,21,27,,,,,,,,,1.1,0.6,0.9*26
###2023-12-09 13:03:29.978393$GBGSA,A,3,14,24,25,26,33,,,,,,,,1.1,0.6,0.9*2F
###2023-12-09 13:03:29.980734$GPGSV,2,1,08,03,34,260,44,04,33,311,43,16,51,213,46,26,81,210,48*71
###2023-12-09 13:03:29.983074$GPGSV,2,2,08,28,48,071,44,29,25,061,41,31,69,038,46,32,19,140,41*72
###2023-12-09 13:03:29.985406$GLGSV,2,1,06,65,25,327,38,71,40,173,47,72,73,265,46,73,35,042,43*6C
###2023-12-09 13:03:29.987163$GLGSV,2,2,06,74,69,340,41,75,33,254,46,,,,,,,,*6E
###2023-12-09 13:03:29.989490$GAGSV,1,1,04,04,29,312,42,19,84,213,40,21,86,114,46,27,32,048,40*62
###2023-12-09 13:03:29.991831$GBGSV,2,1,05,14,43,193,44,24,73,026,47,25,41,263,47,26,26,063,43*65
###2023-12-09 13:03:29.993283$GBGSV,2,2,05,33,57,231,47,,,,,,,,,,,,*5F
###2023-12-09 13:03:29.994613$GNVTG,356.64,T,,M,3.15,N,5.83,K,A*28
###2023-12-09 13:03:29.996258$GNGST,180329.10,18.000,,,,0.082,0.067,0.160*52
###2023-12-09 13:03:29.997543$GNZDA,180329.10,09,12,2023,00,00*71
###2023-12-09 13:03:29.998180$GNEBP,,,,,,M*13
###2023-12-09 13:03:30.164709$GNGGA,180329.30,4138.0547124,N,07032.3913977,W,1,24,0.6,13.313,M,-29.744,M,0.0,*56
###2023-12-09 13:03:30.363533$GNGGA,180329.50,4138.0548777,N,07032.3914321,W,1,24,0.6,13.308,M,-29.744,M,0.0,*5B
###2023-12-09 13:03:30.563818$GNGGA,180329.70,4138.0550404,N,07032.3914721,W,1,24,0.6,13.298,M,-29.744,M,0.0,*5B
###2023-12-09 13:03:30.765419$GNGGA,180329.90,4138.0552056,N,07032.3915152,W,1,24,0.6,13.300,M,-29.744,M,0.0,*57
###2023-12-09 13:03:30.968135$GNRMC,180330.10,A,4138.0553706,N,07032.3915511,W,3.07,350.89,091223,,,A*53
###2023-12-09 13:03:30.971015$GNGGA,180330.10,4138.0553706,N,07032.3915511,W,1,24,0.6,13.298,M,-29.744,M,0.0,*57
###2023-12-09 13:03:30.972872$GPGSA,A,3,03,04,16,26,28,29,31,32,,,,,1.1,0.6,0.9*3B
###2023-12-09 13:03:30.974602$GLGSA,A,3,65,71,72,73,74,75,,,,,,,1.1,0.6,0.9*24
###2023-12-09 13:03:30.976190$GAGSA,A,3,04,19,21,27,,,,,,,,,1.1,0.6,0.9*26
###2023-12-09 13:03:30.977837$GBGSA,A,3,14,24,25,26,33,,,,,,,,1.1,0.6,0.9*2F
###2023-12-09 13:03:30.980185$GPGSV,2,1,08,03,34,260,45,04,33,311,42,16,51,213,46,26,81,210,48*71
###2023-12-09 13:03:30.982525$GPGSV,2,2,08,28,48,071,45,29,25,060,42,31,69,038,46,32,19,140,43*73
###2023-12-09 13:03:30.984870$GLGSV,2,1,06,65,25,327,39,71,40,173,47,72,73,265,46,73,35,042,44*6A
###2023-12-09 13:03:30.986662$GLGSV,2,2,06,74,69,340,41,75,33,254,46,,,,,,,,*6E
###2023-12-09 13:03:30.988998$GAGSV,1,1,04,04,29,312,39,19,84,213,40,21,86,114,46,27,32,048,40*6E
###2023-12-09 13:03:30.991352$GBGSV,2,1,05,14,43,193,44,24,73,026,48,25,41,263,46,26,26,063,43*6B
###2023-12-09 13:03:30.992814$GBGSV,2,2,05,33,57,231,47,,,,,,,,,,,,*5F
###2023-12-09 13:03:30.994133$GNVTG,350.89,T,,M,3.07,N,5.69,K,A*2A
###2023-12-09 13:03:30.995794$GNGST,180330.10,18.000,,,,0.082,0.067,0.160*5A
###2023-12-09 13:03:30.997092$GNZDA,180330.10,09,12,2023,00,00*79
###2023-12-09 13:03:30.997767$GNEBP,,,,,,M*13
###2023-12-09 13:03:31.165274$GNGGA,180330.30,4138.0555353,N,07032.3915860,W,1,24,0.6,13.295,M,-29.744,M,0.0,*51
###2023-12-09 13:03:31.366152$GNGGA,180330.50,4138.0557001,N,07032.3916296,W,1,24,0.6,13.302,M,-29.744,M,0.0,*5E
###2023-12-09 13:03:31.566084$GNGGA,180330.70,4138.0558640,N,07032.3916800,W,1,24,0.6,13.304,M,-29.744,M,0.0,*53
###2023-12-09 13:03:31.765536$GNGGA,180330.90,4138.0560316,N,07032.3917183,W,1,24,0.6,13.310,M,-29.744,M,0.0,*56
###2023-12-09 13:03:31.967150$GNRMC,180331.10,A,4138.0561995,N,07032.3917298,W,3.05,359.65,091223,,,A*5A
###2023-12-09 13:03:31.970009$GNGGA,180331.10,4138.0561995,N,07032.3917298,W,1,24,0.6,13.306,M,-29.744,M,0.0,*51
###2023-12-09 13:03:31.971890$GPGSA,A,3,03,04,16,26,28,29,31,32,,,,,1.1,0.6,0.9*3B
###2023-12-09 13:03:31.973619$GLGSA,A,3,65,71,72,73,74,75,,,,,,,1.1,0.6,0.9*24
###2023-12-09 13:03:31.975221$GAGSA,A,3,04,19,21,27,,,,,,,,,1.1,0.6,0.9*26
###2023-12-09 13:03:31.976877$GBGSA,A,3,14,24,25,26,33,,,,,,,,1.1,0.6,0.9*2F
###2023-12-09 13:03:31.979222$GPGSV,2,1,08,03,34,260,45,04,33,311,43,16,51,213,45,26,81,210,48*73
###2023-12-09 13:03:31.981559$GPGSV,2,2,08,28,48,071,44,29,25,060,41,31,69,038,46,32,19,140,42*70
###2023-12-09 13:03:31.983907$GLGSV,2,1,06,65,25,327,37,71,40,173,47,72,73,265,46,73,35,042,45*65
###2023-12-09 13:03:31.985660$GLGSV,2,2,06,74,69,340,41,75,33,254,45,,,,,,,,*6D
###2023-12-09 13:03:31.988005$GAGSV,1,1,04,04,29,312,42,19,84,213,40,21,86,114,46,27,32,048,41*63
###2023-12-09 13:03:31.990376$GBGSV,2,1,05,14,43,193,43,24,73,026,46,25,41,263,46,26,26,063,41*60
###2023-12-09 13:03:31.991846$GBGSV,2,2,05,33,57,231,47,,,,,,,,,,,,*5F
###2023-12-09 13:03:31.993178$GNVTG,359.65,T,,M,3.05,N,5.65,K,A*2F
###2023-12-09 13:03:31.994843$GNGST,180331.10,18.000,,,,0.082,0.067,0.160*5B
###2023-12-09 13:03:31.996143$GNZDA,180331.10,09,12,2023,00,00*78
###2023-12-09 13:03:31.996780$GNEBP,,,,,,M*13
###2023-12-09 13:03:32.164347$GNGGA,180331.30,4138.0563643,N,07032.3917292,W,1,24,0.6,13.290,M,-29.744,M,0.0,*51
###2023-12-09 13:03:32.364694$GNGGA,180331.50,4138.0565287,N,07032.3917393,W,1,24,0.6,13.288,M,-29.744,M,0.0,*54
###2023-12-09 13:03:32.565196$GNGGA,180331.70,4138.0566978,N,07032.3917566,W,1,24,0.6,13.292,M,-29.744,M,0.0,*59
###2023-12-09 13:03:32.765408$GNGGA,180331.90,4138.0568698,N,07032.3917594,W,1,24,0.6,13.303,M,-29.744,M,0.0,*5C
###2023-12-09 13:03:32.975232$GNRMC,180332.10,A,4138.0570409,N,07032.3917262,W,3.09,14.18,091223,,,A*68
###2023-12-09 13:03:32.978091$GNGGA,180332.10,4138.0570409,N,07032.3917262,W,1,24,0.6,13.316,M,-29.744,M,0.0,*5E
###2023-12-09 13:03:32.979950$GPGSA,A,3,03,04,16,26,28,29,31,32,,,,,1.1,0.6,0.9*3B
###2023-12-09 13:03:32.981691$GLGSA,A,3,65,71,72,73,74,75,,,,,,,1.1,0.6,0.9*24
###2023-12-09 13:03:32.983281$GAGSA,A,3,04,19,21,27,,,,,,,,,1.1,0.6,0.9*26
###2023-12-09 13:03:32.984920$GBGSA,A,3,14,24,25,26,33,,,,,,,,1.1,0.6,0.9*2F
###2023-12-09 13:03:32.987250$GPGSV,2,1,08,03,34,260,43,04,33,311,43,16,51,213,46,26,81,210,48*76
###2023-12-09 13:03:32.989575$GPGSV,2,2,08,28,48,071,43,29,25,060,35,31,68,040,45,32,19,140,42*79
