###2023-12-09 12:31:02.953676$GNZDA,173102.10,09,12,2023,00,00*76
###2023-12-09 12:31:02.954358$GNEBP,,,,,,M*13
###2023-12-09 12:31:03.126484$GNGGA,173102.30,4138.0384067,N,07032.4365989,W,1,15,0.8,14.811,M,-29.746,M,0.0,*53
###2023-12-09 12:31:03.326229$GNGGA,173102.50,4138.0384023,N,07032.4366119,W,1,14,0.8,14.799,M,-29.746,M,0.0,*59
###2023-12-09 12:31:03.525606$GNGGA,173102.70,4138.0383998,N,07032.4366280,W,1,14,0.8,14.777,M,-29.746,M,0.0,*56
###2023-12-09 12:31:03.727647$GNGGA,173102.90,4138.0384007,N,07032.4366449,W,1,13,0.8,14.763,M,-29.746,M,0.0,*51
###2023-12-09 12:31:03.927117$GNRMC,173103.10,A,4138.0384000,N,07032.4366591,W,0.06,,091223,,,A*4A
###2023-12-09 12:31:03.930003$GNGGA,173103.10,4138.0384000,N,07032.4366591,W,1,13,0.8,14.740,M,-29.746,M,0.0,*5A
###2023-12-09 12:31:03.931782$GPGSA,A,3,03,04,16,26,29,32,,,,,,,1.7,0.8,1.5*36
###2023-12-09 12:31:03.933394$GLGSA,A,3,71,72,73,75,,,,,,,,,1.7,0.8,1.5*21
###2023-12-09 12:31:03.934816$GAGSA,A,3,27,,,,,,,,,,,,1.7,0.8,1.5*2C
###2023-12-09 12:31:03.936284$GBGSA,A,3,14,26,,,,,,,,,,,1.7,0.8,1.5*2B
###2023-12-09 12:31:03.938637$GPGSV,2,1,06,03,39,279,35,04,20,310,38,16,35,207,40,26,64,206,46*70
###2023-12-09 12:31:03.940405$GPGSV,2,2,06,29,25,076,35,32,32,133,47,,,,,,,,*76
###2023-12-09 12:31:03.942760$GLGSV,1,1,04,71,59,168,48,72,64,313,37,73,50,032,44,75,20,239,39*68
###2023-12-09 12:31:03.944233$GAGSV,1,1,01,27,43,050,43,,,,,,,,,,,,*59
###2023-12-09 12:31:03.945991$GBGSV,1,1,02,14,57,199,47,26,36,056,45,,,,,,,,*6F
###2023-12-09 12:31:03.947168$GNVTG,,T,,M,0.06,N,0.11,K,A*3B
###2023-12-09 12:31:03.948849$GNGST,173103.10,27.000,,,,0.110,0.120,0.280*5D
###2023-12-09 12:31:03.950167$GNZDA,173103.10,09,12,2023,00,00*77
###2023-12-09 12:31:03.950839$GNEBP,,,,,,M*13
###2023-12-09 12:31:04.126625$GNGGA,173103.30,4138.0384015,N,07032.4366730,W,1,13,0.8,14.726,M,-29.746,M,0.0,*55
###2023-12-09 12:31:04.326600$GNGGA,173103.50,4138.0384079,N,07032.4366737,W,1,13,0.8,14.735,M,-29.746,M,0.0,*5C
###2023-12-09 12:31:04.525588$GNGGA,173103.70,4138.0384067,N,07032.4366640,W,1,15,0.8,14.788,M,-29.746,M,0.0,*50
###2023-12-09 12:31:04.724877$GNGGA,173103.90,4138.0384067,N,07032.4366420,W,1,13,0.9,14.868,M,-29.746,M,0.0,*5C
###2023-12-09 12:31:04.924538$GNRMC,173104.10,A,4138.0384140,N,07032.4366148,W,0.97,,091223,,,A*40
###2023-12-09 12:31:04.927641$GNGGA,173104.10,4138.0384140,N,07032.4366148,W,1,12,1.0,14.944,M,-29.746,M,0.0,*5A
###2023-12-09 12:31:04.929268$GPGSA,A,3,16,26,29,32,,,,,,,,,1.8,1.0,1.5*37
###2023-12-09 12:31:04.930756$GLGSA,A,3,71,75,,,,,,,,,,,1.8,1.0,1.5*26
###2023-12-09 12:31:04.932155$GAGSA,A,3,27,,,,,,,,,,,,1.8,1.0,1.5*2A
###2023-12-09 12:31:04.933749$GBGSA,A,3,14,25,26,33,,,,,,,,,1.8,1.0,1.5*2A
###2023-12-09 12:31:04.936104$GPGSV,1,1,04,16,35,207,42,26,64,206,47,29,25,076,40,32,32,133,48*7A
###2023-12-09 12:31:04.937872$GLGSV,1,1,02,71,59,168,44,75,20,239,44,,,,,,,,*6A
###2023-12-09 12:31:04.939360$GAGSV,1,1,01,27,43,050,39,,,,,,,,,,,,*54
###2023-12-09 12:31:04.941703$GBGSV,1,1,04,14,57,199,47,25,31,251,39,26,36,056,43,33,63,258,39*66
###2023-12-09 12:31:04.942866$GNVTG,,T,,M,0.97,N,1.80,K,A*3A
###2023-12-09 12:31:04.944531$GNGST,173104.10,26.000,,,,0.120,0.120,0.290*59
###2023-12-09 12:31:04.945838$GNZDA,173104.10,09,12,2023,00,00*70
###2023-12-09 12:31:04.946498$GNEBP,,,,,,M*13
###2023-12-09 12:31:05.122607$GNGGA,173104.30,4138.0384204,N,07032.4365354,W,1,12,0.8,14.948,M,-29.746,M,0.0,*52
###2023-12-09 12:31:05.323646$GNGGA,173104.50,4138.0384322,N,07032.4364040,W,1,14,0.7,14.930,M,-29.746,M,0.0,*50
###2023-12-09 12:31:05.523690$GNGGA,173104.70,4138.0384382,N,07032.4362605,W,1,13,0.9,14.938,M,-29.746,M,0.0,*58
###2023-12-09 12:31:05.722650$GNGGA,173104.90,4138.0384317,N,07032.4360975,W,1,17,0.8,14.904,M,-29.746,M,0.0,*5A
###2023-12-09 12:31:05.926021$GNRMC,173105.10,A,4138.0384365,N,07032.4359051,W,2.88,90.07,091223,,,A*6D
###2023-12-09 12:31:05.929107$GNGGA,173105.10,4138.0384365,N,07032.4359051,W,1,14,1.0,14.869,M,-29.746,M,0.0,*53
###2023-12-09 12:31:05.930876$GPGSA,A,3,16,26,28,29,31,32,,,,,,,1.7,1.0,1.3*36
###2023-12-09 12:31:05.932422$GLGSA,A,3,71,73,75,,,,,,,,,,1.7,1.0,1.3*2B
###2023-12-09 12:31:05.933893$GAGSA,A,3,21,27,,,,,,,,,,,1.7,1.0,1.3*20
###2023-12-09 12:31:05.935371$GBGSA,A,3,25,26,,,,,,,,,,,1.7,1.0,1.3*26
###2023-12-09 12:31:05.937709$GPGSV,2,1,06,16,35,207,36,26,64,206,45,28,60,053,38,29,25,076,39*78
###2023-12-09 12:31:05.939482$GPGSV,2,2,06,31,73,353,42,32,32,133,44,,,,,,,,*7B
###2023-12-09 12:31:05.941536$GLGSV,1,1,03,71,59,168,50,73,50,032,45,75,20,239,37,,,,*5B
###2023-12-09 12:31:05.943320$GAGSV,1,1,02,21,76,178,47,27,43,050,46,,,,,,,,*60
###2023-12-09 12:31:05.945078$GBGSV,1,1,02,25,31,251,38,26,36,056,46,,,,,,,,*61
###2023-12-09 12:31:05.946402$GNVTG,90.07,T,,M,2.88,N,5.33,K,A*1A
###2023-12-09 12:31:05.948125$GNGST,173105.10,34.000,,,,0.130,0.130,0.310*52
###2023-12-09 12:31:05.949456$GNZDA,173105.10,09,12,2023,00,00*71
###2023-12-09 12:31:05.950115$GNEBP,,,,,,M*13
###2023-12-09 12:31:06.125474$GNGGA,173105.30,4138.0384420,N,07032.4357071,W,1,14,1.0,14.828,M,-29.746,M,0.0,*5E
###2023-12-09 12:31:06.323836$GNGGA,173105.50,4138.0384630,N,07032.4355249,W,1,15,1.0,14.744,M,-29.746,M,0.0,*54
###2023-12-09 12:31:06.524950$GNGGA,173105.70,4138.0384866,N,07032.4353184,W,1,14,0.9,14.728,M,-29.746,M,0.0,*5C
###2023-12-09 12:31:06.721536$GNGGA,173105.90,4138.0385058,N,07032.4351190,W,1,13,1.1,14.701,M,-29.746,M,0.0,*54
###2023-12-09 12:31:06.925013$GNRMC,173106.10,A,4138.0385134,N,07032.4349385,W,2.55,87.15,091223,,,A*67
###2023-12-09 12:31:06.928080$GNGGA,173106.10,4138.0385134,N,07032.4349385,W,1,15,1.0,14.627,M,-29.746,M,0.0,*59
###2023-12-09 12:31:06.929827$GPGSA,A,3,16,26,28,29,31,32,,,,,,,1.7,1.0,1.4*31
###2023-12-09 12:31:06.931449$GLGSA,A,3,71,72,73,75,,,,,,,,,1.7,1.0,1.4*29
###2023-12-09 12:31:06.932981$GAGSA,A,3,19,21,27,,,,,,,,,,1.7,1.0,1.4*2F
###2023-12-09 12:31:06.934438$GBGSA,A,3,14,26,,,,,,,,,,,1.7,1.0,1.4*23
###2023-12-09 12:31:06.936788$GPGSV,2,1,06,16,35,207,40,26,64,206,50,28,60,053,47,29,25,076,43*78
###2023-12-09 12:31:06.938547$GPGSV,2,2,06,31,73,353,37,32,32,133,42,,,,,,,,*7F
###2023-12-09 12:31:06.940889$GLGSV,1,1,04,71,59,168,49,72,64,313,36,73,50,032,48,75,20,239,41*6B
###2023-12-09 12:31:06.942946$GAGSV,1,1,03,19,80,307,35,21,76,178,48,27,43,050,43,,,,*59
###2023-12-09 12:31:06.944697$GBGSV,1,1,02,14,57,199,45,26,36,056,46,,,,,,,,*6E
###2023-12-09 12:31:06.945999$GNVTG,87.15,T,,M,2.55,N,4.72,K,A*1B
###2023-12-09 12:31:06.947687$GNGST,173106.10,23.000,,,,0.130,0.140,0.320*53
###2023-12-09 12:31:06.949013$GNZDA,173106.10,09,12,2023,00,00*72
###2023-12-09 12:31:06.949670$GNEBP,,,,,,M*13
###2023-12-09 12:31:07.123604$GNGGA,173106.30,4138.0385258,N,07032.4347404,W,1,16,1.0,14.605,M,-29.746,M,0.0,*51
###2023-12-09 12:31:07.324463$GNGGA,173106.50,4138.0385518,N,07032.4345785,W,1,16,1.0,14.568,M,-29.746,M,0.0,*54
###2023-12-09 12:31:07.525750$GNGGA,173106.70,4138.0385685,N,07032.4344194,W,1,14,1.4,14.534,M,-29.746,M,0.0,*59
###2023-12-09 12:31:07.723329$GNGGA,173106.90,4138.0385733,N,07032.4342553,W,1,13,1.6,14.508,M,-29.746,M,0.0,*58
###2023-12-09 12:31:07.928255$GNRMC,173107.10,A,4138.0385697,N,07032.4340794,W,2.43,97.35,091223,,,A*61
###2023-12-09 12:31:07.931128$GNGGA,173107.10,4138.0385697,N,07032.4340794,W,1,14,1.5,14.462,M,-29.746,M,0.0,*5C
###2023-12-09 12:31:07.932879$GPGSA,A,3,16,26,28,29,31,32,,,,,,,2.8,1.5,2.4*3B
###2023-12-09 12:31:07.934422$GLGSA,A,3,71,73,74,,,,,,,,,,2.8,1.5,2.4*27
###2023-12-09 12:31:07.935976$GAGSA,A,3,19,21,27,,,,,,,,,,2.8,1.5,2.4*25
###2023-12-09 12:31:07.937447$GBGSA,A,3,14,26,,,,,,,,,,,2.8,1.5,2.4*29
###2023-12-09 12:31:07.939803$GPGSV,2,1,06,16,35,207,39,26,65,206,48,28,60,053,46,29,25,076,45*79
###2023-12-09 12:31:07.941575$GPGSV,2,2,06,31,73,353,41,32,32,133,46,,,,,,,,*7A
###2023-12-09 12:31:07.943639$GLGSV,1,1,03,71,59,168,50,73,50,032,47,74,70,284,35,,,,*59
###2023-12-09 12:31:07.945699$GAGSV,1,1,03,19,80,307,38,21,76,178,45,27,43,050,43,,,,*59
###2023-12-09 12:31:07.947513$GBGSV,1,1,02,14,57,199,44,26,36,056,43,,,,,,,,*6A
###2023-12-09 12:31:07.948841$GNVTG,97.35,T,,M,2.43,N,4.50,K,A*1F
###2023-12-09 12:31:07.950513$GNGST,173107.10,24.000,,,,0.130,0.160,0.340*51
###2023-12-09 12:31:07.952138$GNZDA,173107.10,09,12,2023,00,00*73
###2023-12-09 12:31:07.952812$GNEBP,,,,,,M*13
###2023-12-09 12:31:08.124927$GNGGA,173107.30,4138.0385748,N,07032.4339155,W,1,15,1.3,14.479,M,-29.746,M,0.0,*55
###2023-12-09 12:31:08.326814$GNGGA,173107.50,4138.0385914,N,07032.4337498,W,1,15,1.3,14.472,M,-29.746,M,0.0,*55
###2023-12-09 12:31:08.526750$GNGGA,173107.70,4138.0386054,N,07032.4335756,W,1,16,1.3,14.456,M,-29.746,M,0.0,*5F
###2023-12-09 12:31:08.724266$GNGGA,173107.90,4138.0386210,N,07032.4334115,W,1,17,1.0,14.450,M,-29.746,M,0.0,*57
