###2023-12-09 12:44:53.963933$GPGSV,2,2,08,28,55,061,44,29,26,069,42,31,72,015,48,32,26,136,45*75
###2023-12-09 12:44:53.966803$GLGSV,2,1,06,65,16,329,41,71,51,170,46,72,69,300,45,73,44,036,46*64
###2023-12-09 12:44:53.968933$GLGSV,2,2,06,74,71,307,43,75,25,245,41,,,,,,,,*66
###2023-12-09 12:44:53.971761$GAGSV,1,1,04,04,24,312,42,19,84,283,40,21,81,168,46,27,38,049,44*65
###2023-12-09 12:44:53.974653$GBGSV,2,1,05,14,50,195,43,24,78,005,47,25,36,256,43,26,31,059,43*61
###2023-12-09 12:44:53.976419$GBGSV,2,2,05,33,62,246,46,,,,,,,,,,,,*58
###2023-12-09 12:44:53.978017$GNVTG,239.03,T,,M,2.02,N,3.74,K,A*28
###2023-12-09 12:44:53.980035$GNGST,174453.10,18.000,,,,0.080,0.071,0.170*57
###2023-12-09 12:44:53.981598$GNZDA,174453.10,09,12,2023,00,00*70
###2023-12-09 12:44:53.982367$GNEBP,,,,,,M*13
###2023-12-09 12:44:54.145072$GNGGA,174453.30,4138.0459025,N,07032.3970206,W,1,24,0.6,13.311,M,-29.745,M,0.0,*52
###2023-12-09 12:44:54.344449$GNGGA,174453.50,4138.0458234,N,07032.3970923,W,1,24,0.6,13.324,M,-29.745,M,0.0,*5D
###2023-12-09 12:44:54.544495$GNGGA,174453.70,4138.0457400,N,07032.3971397,W,1,24,0.6,13.283,M,-29.745,M,0.0,*59
###2023-12-09 12:44:54.745037$GNGGA,174453.90,4138.0456640,N,07032.3972197,W,1,24,0.6,13.263,M,-29.745,M,0.0,*5F
###2023-12-09 12:44:54.950130$GNRMC,174454.10,A,4138.0455954,N,07032.3973510,W,2.27,237.70,091223,,,A*57
###2023-12-09 12:44:54.953030$GNGGA,174454.10,4138.0455954,N,07032.3973510,W,1,24,0.6,13.299,M,-29.745,M,0.0,*56
###2023-12-09 12:44:54.954908$GPGSA,A,3,03,04,16,26,28,29,31,32,,,,,1.1,0.6,0.9*3B
###2023-12-09 12:44:54.956625$GLGSA,A,3,65,71,72,73,74,75,,,,,,,1.1,0.6,0.9*24
###2023-12-09 12:44:54.958208$GAGSA,A,3,04,19,21,27,,,,,,,,,1.1,0.6,0.9*26
###2023-12-09 12:44:54.959870$GBGSA,A,3,14,24,25,26,33,,,,,,,,1.1,0.6,0.9*2F
###2023-12-09 12:44:54.962195$GPGSV,2,1,08,03,38,271,44,04,25,311,42,16,41,209,42,26,71,208,46*7D
###2023-12-09 12:44:54.964554$GPGSV,2,2,08,28,55,061,45,29,26,069,42,31,72,015,47,32,26,136,43*7D
###2023-12-09 12:44:54.966904$GLGSV,2,1,06,65,16,329,40,71,51,170,45,72,69,300,46,73,44,036,46*65
###2023-12-09 12:44:54.968651$GLGSV,2,2,06,74,71,307,42,75,25,245,38,,,,,,,,*69
###2023-12-09 12:44:54.970985$GAGSV,1,1,04,04,24,312,41,19,84,283,40,21,81,168,46,27,38,049,43*61
###2023-12-09 12:44:54.973315$GBGSV,2,1,05,14,50,195,44,24,78,005,48,25,36,256,45,26,31,059,43*6F
###2023-12-09 12:44:54.974786$GBGSV,2,2,05,33,61,245,47,,,,,,,,,,,,*59
###2023-12-09 12:44:54.976109$GNVTG,237.70,T,,M,2.27,N,4.21,K,A*22
###2023-12-09 12:44:54.977761$GNGST,174454.10,18.000,,,,0.080,0.071,0.170*50
###2023-12-09 12:44:54.979068$GNZDA,174454.10,09,12,2023,00,00*77
###2023-12-09 12:44:54.979709$GNEBP,,,,,,M*13
###2023-12-09 12:44:55.144685$GNGGA,174454.30,4138.0455127,N,07032.3974490,W,1,24,0.6,13.291,M,-29.745,M,0.0,*5E
###2023-12-09 12:44:55.345480$GNGGA,174454.50,4138.0454178,N,07032.3974598,W,1,24,0.6,13.270,M,-29.745,M,0.0,*55
###2023-12-09 12:44:55.545514$GNGGA,174454.70,4138.0453268,N,07032.3974825,W,1,24,0.6,13.259,M,-29.745,M,0.0,*52
###2023-12-09 12:44:55.744058$GNGGA,174454.90,4138.0452375,N,07032.3975950,W,1,24,0.6,13.289,M,-29.745,M,0.0,*5F
###2023-12-09 12:44:55.945251$GNRMC,174455.10,A,4138.0451400,N,07032.3977080,W,2.06,212.16,091223,,,A*52
###2023-12-09 12:44:55.948143$GNGGA,174455.10,4138.0451400,N,07032.3977080,W,1,24,0.6,13.286,M,-29.745,M,0.0,*59
###2023-12-09 12:44:55.950013$GPGSA,A,3,03,04,16,26,28,29,31,32,,,,,1.1,0.6,0.9*3B
###2023-12-09 12:44:55.951747$GLGSA,A,3,65,71,72,73,74,75,,,,,,,1.1,0.6,0.9*24
###2023-12-09 12:44:55.953321$GAGSA,A,3,04,19,21,27,,,,,,,,,1.1,0.6,0.9*26
###2023-12-09 12:44:55.954976$GBGSA,A,3,14,24,25,26,33,,,,,,,,1.1,0.6,0.9*2F
###2023-12-09 12:44:55.957292$GPGSV,2,1,08,03,38,271,46,04,25,311,42,16,41,209,43,26,71,208,46*7E
###2023-12-09 12:44:55.959634$GPGSV,2,2,08,28,55,061,43,29,26,069,41,31,72,015,47,32,26,136,43*78
###2023-12-09 12:44:55.961954$GLGSV,2,1,06,65,16,329,40,71,51,170,46,72,69,300,46,73,44,036,45*65
###2023-12-09 12:44:55.963722$GLGSV,2,2,06,74,71,307,42,75,25,245,43,,,,,,,,*65
###2023-12-09 12:44:55.966045$GAGSV,1,1,04,04,24,312,42,19,84,283,40,21,81,168,45,27,38,049,43*61
###2023-12-09 12:44:55.968390$GBGSV,2,1,05,14,50,195,43,24,78,005,48,25,36,256,46,26,31,059,43*6B
###2023-12-09 12:44:55.969847$GBGSV,2,2,05,33,61,245,47,,,,,,,,,,,,*59
###2023-12-09 12:44:55.971179$GNVTG,212.16,T,,M,2.06,N,3.82,K,A*28
###2023-12-09 12:44:55.972827$GNGST,174455.10,18.000,,,,0.081,0.071,0.170*50
###2023-12-09 12:44:55.974121$GNZDA,174455.10,09,12,2023,00,00*76
###2023-12-09 12:44:55.974772$GNEBP,,,,,,M*13
###2023-12-09 12:44:56.147339$GNGGA,174455.30,4138.0450358,N,07032.3977418,W,1,24,0.6,13.280,M,-29.745,M,0.0,*53
###2023-12-09 12:44:56.345720$GNGGA,174455.50,4138.0449309,N,07032.3977219,W,1,24,0.6,13.252,M,-29.745,M,0.0,*51
###2023-12-09 12:44:56.544727$GNGGA,174455.70,4138.0448248,N,07032.3977560,W,1,24,0.6,13.254,M,-29.745,M,0.0,*59
###2023-12-09 12:44:56.745032$GNGGA,174455.90,4138.0447100,N,07032.3978517,W,1,24,0.6,13.275,M,-29.745,M,0.0,*5B
###2023-12-09 12:44:56.952414$GNRMC,174456.10,A,4138.0445902,N,07032.3979052,W,2.12,181.22,091223,,,A*51
###2023-12-09 12:44:56.955305$GNGGA,174456.10,4138.0445902,N,07032.3979052,W,1,24,0.6,13.265,M,-29.745,M,0.0,*5C
###2023-12-09 12:44:56.957165$GPGSA,A,3,03,04,16,26,28,29,31,32,,,,,1.1,0.6,0.9*3B
###2023-12-09 12:44:56.958887$GLGSA,A,3,65,71,72,73,74,75,,,,,,,1.1,0.6,0.9*24
###2023-12-09 12:44:56.960461$GAGSA,A,3,04,19,21,27,,,,,,,,,1.1,0.6,0.9*26
###2023-12-09 12:44:56.962092$GBGSA,A,3,14,24,25,26,33,,,,,,,,1.1,0.6,0.9*2F
###2023-12-09 12:44:56.964421$GPGSV,2,1,08,03,38,271,47,04,25,311,40,16,41,209,44,26,71,208,46*7A
###2023-12-09 12:44:56.966805$GPGSV,2,2,08,28,55,061,43,29,26,069,39,31,72,015,46,32,26,136,41*74
###2023-12-09 12:44:56.969129$GLGSV,2,1,06,65,17,329,43,71,51,170,45,72,69,300,46,73,44,036,45*64
###2023-12-09 12:44:56.970887$GLGSV,2,2,06,74,71,307,42,75,25,245,45,,,,,,,,*63
###2023-12-09 12:44:56.973213$GAGSV,1,1,04,04,24,312,41,19,84,283,40,21,81,168,45,27,38,049,41*60
###2023-12-09 12:44:56.975564$GBGSV,2,1,05,14,50,195,44,24,78,005,47,25,36,256,45,26,31,059,41*62
###2023-12-09 12:44:56.977018$GBGSV,2,2,05,33,61,245,48,,,,,,,,,,,,*56
###2023-12-09 12:44:56.978331$GNVTG,181.22,T,,M,2.12,N,3.92,K,A*22
###2023-12-09 12:44:56.979992$GNGST,174456.10,18.000,,,,0.081,0.071,0.170*53
###2023-12-09 12:44:56.981277$GNZDA,174456.10,09,12,2023,00,00*75
###2023-12-09 12:44:56.981911$GNEBP,,,,,,M*13
###2023-12-09 12:44:57.144786$GNGGA,174456.30,4138.0444785,N,07032.3978725,W,1,24,0.6,13.260,M,-29.745,M,0.0,*5D
###2023-12-09 12:44:57.345253$GNGGA,174456.50,4138.0443753,N,07032.3978416,W,1,24,0.6,13.240,M,-29.745,M,0.0,*56
###2023-12-09 12:44:57.545432$GNGGA,174456.70,4138.0442472,N,07032.3978811,W,1,24,0.6,13.271,M,-29.745,M,0.0,*5C
###2023-12-09 12:44:57.744875$GNGGA,174456.90,4138.0441071,N,07032.3979194,W,1,24,0.6,13.258,M,-29.745,M,0.0,*58
###2023-12-09 12:44:57.944363$GNRMC,174457.10,A,4138.0439890,N,07032.3978894,W,2.06,155.48,091223,,,A*52
###2023-12-09 12:44:57.947243$GNGGA,174457.10,4138.0439890,N,07032.3978894,W,1,24,0.6,13.243,M,-29.745,M,0.0,*5B
###2023-12-09 12:44:57.949119$GPGSA,A,3,03,04,16,26,28,29,31,32,,,,,1.1,0.6,0.9*3B
###2023-12-09 12:44:57.950843$GLGSA,A,3,65,71,72,73,74,75,,,,,,,1.1,0.6,0.9*24
###2023-12-09 12:44:57.952420$GAGSA,A,3,04,19,21,27,,,,,,,,,1.1,0.6,0.9*26
###2023-12-09 12:44:57.954063$GBGSA,A,3,14,24,25,26,33,,,,,,,,1.1,0.6,0.9*2F
###2023-12-09 12:44:57.956400$GPGSV,2,1,08,03,38,271,46,04,25,311,43,16,41,209,45,26,71,208,48*77
###2023-12-09 12:44:57.958790$GPGSV,2,2,08,28,55,061,43,29,26,069,42,31,72,015,46,32,26,136,40*79
###2023-12-09 12:44:57.961121$GLGSV,2,1,06,65,17,329,43,71,51,170,46,72,69,300,46,73,44,036,44*66
###2023-12-09 12:44:57.962888$GLGSV,2,2,06,74,71,307,43,75,25,245,45,,,,,,,,*62
###2023-12-09 12:44:57.965219$GAGSV,1,1,04,04,24,312,41,19,84,283,40,21,81,168,45,27,38,049,43*62
###2023-12-09 12:44:57.967557$GBGSV,2,1,05,14,50,195,46,24,78,005,48,25,36,256,47,26,31,059,43*6F
###2023-12-09 12:44:57.969015$GBGSV,2,2,05,33,61,245,50,,,,,,,,,,,,*5F
###2023-12-09 12:44:57.970334$GNVTG,155.48,T,,M,2.06,N,3.82,K,A*23
###2023-12-09 12:44:57.973307$GNGST,174457.10,18.000,,,,0.081,0.071,0.170*52
###2023-12-09 12:44:57.974684$GNZDA,174457.10,09,12,2023,00,00*74
###2023-12-09 12:44:57.975335$GNEBP,,,,,,M*13
###2023-12-09 12:44:58.145301$GNGGA,174457.30,4138.0438813,N,07032.3978279,W,1,24,0.6,13.257,M,-29.745,M,0.0,*5F
###2023-12-09 12:44:58.345346$GNGGA,174457.50,4138.0437539,N,07032.3977974,W,1,24,0.6,13.260,M,-29.745,M,0.0,*5E
###2023-12-09 12:44:58.545484$GNGGA,174457.70,4138.0436183,N,07032.3977823,W,1,24,0.6,13.250,M,-29.745,M,0.0,*58
###2023-12-09 12:44:58.745283$GNGGA,174457.90,4138.0434909,N,07032.3977518,W,1,24,0.6,13.254,M,-29.745,M,0.0,*5F
###2023-12-09 12:44:58.949669$GNRMC,174458.10,A,4138.0433713,N,07032.3976836,W,2.41,152.41,091223,,,A*58
###2023-12-09 12:44:58.952557$GNGGA,174458.10,4138.0433713,N,07032.3976836,W,1,24,0.6,13.263,M,-29.745,M,0.0,*5E
