###2023-12-09 12:37:30.964283$GAGSV,1,1,04,04,21,311,41,19,82,299,41,21,78,175,46,27,41,049,44*68
###2023-12-09 12:37:30.967187$GBGSV,2,1,05,14,54,197,46,24,80,351,49,25,33,253,45,26,34,058,46*6E
###2023-12-09 12:37:30.968956$GBGSV,2,2,05,33,63,252,47,,,,,,,,,,,,*5D
###2023-12-09 12:37:30.970549$GNVTG,281.12,T,,M,1.22,N,2.27,K,A*2D
###2023-12-09 12:37:30.972557$GNGST,173730.10,18.000,,,,0.084,0.072,0.170*51
###2023-12-09 12:37:30.974115$GNZDA,173730.10,09,12,2023,00,00*71
###2023-12-09 12:37:30.974917$GNEBP,,,,,,M*13
###2023-12-09 12:37:31.137048$GNGGA,173730.30,4138.0627617,N,07032.3797115,W,1,23,0.7,13.236,M,-29.744,M,0.0,*5A
###2023-12-09 12:37:31.338786$GNGGA,173730.50,4138.0627492,N,07032.3797768,W,1,23,0.7,13.228,M,-29.744,M,0.0,*50
###2023-12-09 12:37:31.537222$GNGGA,173730.70,4138.0627504,N,07032.3798514,W,1,23,0.7,13.233,M,-29.744,M,0.0,*50
###2023-12-09 12:37:31.742181$GNGGA,173730.90,4138.0627756,N,07032.3799451,W,1,23,0.7,13.249,M,-29.744,M,0.0,*57
###2023-12-09 12:37:31.936805$GNRMC,173731.10,A,4138.0627893,N,07032.3800354,W,1.05,271.03,091223,,,A*5B
###2023-12-09 12:37:31.939676$GNGGA,173731.10,4138.0627893,N,07032.3800354,W,1,23,0.7,13.254,M,-29.744,M,0.0,*59
###2023-12-09 12:37:31.941538$GPGSA,A,3,03,04,16,26,28,29,31,32,,,,,1.2,0.7,1.0*31
###2023-12-09 12:37:31.943200$GLGSA,A,3,71,72,73,74,75,,,,,,,,1.2,0.7,1.0*2D
###2023-12-09 12:37:31.944787$GAGSA,A,3,04,19,21,27,,,,,,,,,1.2,0.7,1.0*2C
###2023-12-09 12:37:31.946454$GBGSA,A,3,14,24,25,26,33,,,,,,,,1.2,0.7,1.0*25
###2023-12-09 12:37:31.948838$GPGSV,2,1,08,03,38,276,44,04,22,311,43,16,37,207,45,26,67,207,48*72
###2023-12-09 12:37:31.951228$GPGSV,2,2,08,28,57,057,45,29,25,073,43,31,73,004,48,32,29,134,43*70
###2023-12-09 12:37:31.953581$GLGSV,2,1,05,71,55,169,46,72,67,307,47,73,46,034,48,74,71,296,42*69
###2023-12-09 12:37:31.955095$GLGSV,2,2,05,75,23,242,42,,,,,,,,,,,,*51
###2023-12-09 12:37:31.957437$GAGSV,1,1,04,04,21,311,41,19,82,299,40,21,78,175,45,27,41,049,44*6A
###2023-12-09 12:37:31.959787$GBGSV,2,1,05,14,54,197,45,24,80,351,49,25,33,253,45,26,34,058,46*6D
###2023-12-09 12:37:31.961252$GBGSV,2,2,05,33,63,252,47,,,,,,,,,,,,*5D
###2023-12-09 12:37:31.962594$GNVTG,271.03,T,,M,1.05,N,1.94,K,A*2C
###2023-12-09 12:37:31.964249$GNGST,173731.10,18.000,,,,0.083,0.072,0.170*57
###2023-12-09 12:37:31.965547$GNZDA,173731.10,09,12,2023,00,00*70
###2023-12-09 12:37:31.966187$GNEBP,,,,,,M*13
###2023-12-09 12:37:32.136732$GNGGA,173731.30,4138.0627789,N,07032.3800990,W,1,23,0.7,13.253,M,-29.744,M,0.0,*5A
###2023-12-09 12:37:32.337039$GNGGA,173731.50,4138.0627632,N,07032.3801535,W,1,23,0.7,13.249,M,-29.744,M,0.0,*54
###2023-12-09 12:37:32.538832$GNGGA,173731.70,4138.0627667,N,07032.3802213,W,1,23,0.7,13.244,M,-29.744,M,0.0,*5B
###2023-12-09 12:37:32.738226$GNGGA,173731.90,4138.0627814,N,07032.3802997,W,1,23,0.7,13.243,M,-29.744,M,0.0,*5F
###2023-12-09 12:37:32.945614$GNRMC,173732.10,A,4138.0627860,N,07032.3803675,W,0.84,283.09,091223,,,A*5E
###2023-12-09 12:37:32.948541$GNGGA,173732.10,4138.0627860,N,07032.3803675,W,1,23,0.7,13.252,M,-29.744,M,0.0,*55
###2023-12-09 12:37:32.950415$GPGSA,A,3,03,04,16,26,28,29,31,32,,,,,1.2,0.7,1.0*31
###2023-12-09 12:37:32.952085$GLGSA,A,3,71,72,73,74,75,,,,,,,,1.2,0.7,1.0*2D
###2023-12-09 12:37:32.953668$GAGSA,A,3,04,19,21,27,,,,,,,,,1.2,0.7,1.0*2C
###2023-12-09 12:37:32.955331$GBGSA,A,3,14,24,25,26,33,,,,,,,,1.2,0.7,1.0*25
###2023-12-09 12:37:32.957660$GPGSV,2,1,08,03,38,276,45,04,22,311,43,16,37,207,43,26,67,207,48*75
###2023-12-09 12:37:32.960006$GPGSV,2,2,08,28,57,057,45,29,25,073,44,31,73,004,48,32,29,134,44*70
###2023-12-09 12:37:32.962342$GLGSV,2,1,05,71,55,169,46,72,67,307,46,73,46,034,47,74,71,296,42*67
###2023-12-09 12:37:32.963812$GLGSV,2,2,05,75,23,242,41,,,,,,,,,,,,*52
###2023-12-09 12:37:32.966124$GAGSV,1,1,04,04,21,311,43,19,82,299,41,21,78,175,46,27,41,049,45*6B
###2023-12-09 12:37:32.968466$GBGSV,2,1,05,14,54,197,45,24,80,351,48,25,33,253,43,26,34,058,46*6A
###2023-12-09 12:37:32.969919$GBGSV,2,2,05,33,63,252,47,,,,,,,,,,,,*5D
###2023-12-09 12:37:32.971250$GNVTG,283.09,T,,M,0.84,N,1.55,K,A*2E
###2023-12-09 12:37:32.972897$GNGST,173732.10,18.000,,,,0.082,0.071,0.170*56
###2023-12-09 12:37:32.974189$GNZDA,173732.10,09,12,2023,00,00*73
###2023-12-09 12:37:32.974842$GNEBP,,,,,,M*13
###2023-12-09 12:37:33.138656$GNGGA,173732.30,4138.0627834,N,07032.3804250,W,1,23,0.7,13.264,M,-29.744,M,0.0,*57
###2023-12-09 12:37:33.338909$GNGGA,173732.50,4138.0627777,N,07032.3804782,W,1,23,0.7,13.268,M,-29.744,M,0.0,*5F
###2023-12-09 12:37:33.549925$GNGGA,173732.70,4138.0627693,N,07032.3805325,W,1,23,0.7,13.261,M,-29.744,M,0.0,*57
###2023-12-09 12:37:33.740703$GNGGA,173732.90,4138.0627703,N,07032.3805941,W,1,23,0.7,13.268,M,-29.744,M,0.0,*50
###2023-12-09 12:37:33.937506$GNRMC,173733.10,A,4138.0627802,N,07032.3806666,W,0.99,279.63,091223,,,A*59
###2023-12-09 12:37:33.940355$GNGGA,173733.10,4138.0627802,N,07032.3806666,W,1,23,0.7,13.278,M,-29.744,M,0.0,*5F
###2023-12-09 12:37:33.942208$GPGSA,A,3,03,04,16,26,28,29,31,32,,,,,1.2,0.7,1.0*31
###2023-12-09 12:37:33.943862$GLGSA,A,3,71,72,73,74,75,,,,,,,,1.2,0.7,1.0*2D
###2023-12-09 12:37:33.945439$GAGSA,A,3,04,19,21,27,,,,,,,,,1.2,0.7,1.0*2C
###2023-12-09 12:37:33.947112$GBGSA,A,3,14,24,25,26,33,,,,,,,,1.2,0.7,1.0*25
###2023-12-09 12:37:33.949454$GPGSV,2,1,08,03,38,276,44,04,22,311,43,16,37,207,42,26,67,207,46*7B
###2023-12-09 12:37:33.951799$GPGSV,2,2,08,28,57,057,45,29,25,073,43,31,73,004,47,32,29,134,45*79
###2023-12-09 12:37:33.954131$GLGSV,2,1,05,71,55,169,48,72,67,307,46,73,46,034,46,74,71,296,43*69
###2023-12-09 12:37:33.955598$GLGSV,2,2,05,75,23,242,40,,,,,,,,,,,,*53
###2023-12-09 12:37:33.957960$GAGSV,1,1,04,04,21,311,42,19,82,299,41,21,78,175,46,27,41,049,45*6A
###2023-12-09 12:37:33.960315$GBGSV,2,1,05,14,54,197,45,24,80,351,48,25,33,253,44,26,34,058,46*6D
###2023-12-09 12:37:33.961778$GBGSV,2,2,05,33,63,252,47,,,,,,,,,,,,*5D
###2023-12-09 12:37:33.963108$GNVTG,279.63,T,,M,0.99,N,1.84,K,A*27
###2023-12-09 12:37:33.964758$GNGST,173733.10,18.000,,,,0.081,0.070,0.170*55
###2023-12-09 12:37:33.966048$GNZDA,173733.10,09,12,2023,00,00*72
###2023-12-09 12:37:33.966696$GNEBP,,,,,,M*13
###2023-12-09 12:37:34.138144$GNGGA,173733.30,4138.0627799,N,07032.3807235,W,1,23,0.7,13.286,M,-29.744,M,0.0,*52
###2023-12-09 12:37:34.337909$GNGGA,173733.50,4138.0627660,N,07032.3807563,W,1,23,0.7,13.289,M,-29.744,M,0.0,*58
###2023-12-09 12:37:34.537573$GNGGA,173733.70,4138.0627584,N,07032.3807913,W,1,23,0.7,13.293,M,-29.744,M,0.0,*53
###2023-12-09 12:37:34.740670$GNGGA,173733.90,4138.0627625,N,07032.3808568,W,1,23,0.7,13.304,M,-29.744,M,0.0,*55
###2023-12-09 12:37:34.938887$GNRMC,173734.10,A,4138.0627692,N,07032.3809283,W,0.86,281.59,091223,,,A*59
###2023-12-09 12:37:34.941738$GNGGA,173734.10,4138.0627692,N,07032.3809283,W,1,23,0.7,13.310,M,-29.744,M,0.0,*50
###2023-12-09 12:37:34.943602$GPGSA,A,3,03,04,16,26,28,29,31,32,,,,,1.2,0.7,1.0*31
###2023-12-09 12:37:34.945250$GLGSA,A,3,71,72,73,74,75,,,,,,,,1.2,0.7,1.0*2D
###2023-12-09 12:37:34.946851$GAGSA,A,3,04,19,21,27,,,,,,,,,1.2,0.7,1.0*2C
###2023-12-09 12:37:34.948513$GBGSA,A,3,14,24,25,26,33,,,,,,,,1.2,0.7,1.0*25
###2023-12-09 12:37:34.950882$GPGSV,2,1,08,03,38,276,43,04,22,311,43,16,37,207,43,26,67,207,46*7D
###2023-12-09 12:37:34.953203$GPGSV,2,2,08,28,57,057,45,29,25,073,42,31,73,004,47,32,29,134,45*78
###2023-12-09 12:37:34.955546$GLGSV,2,1,05,71,55,169,48,72,67,307,47,73,46,034,47,74,71,296,43*69
###2023-12-09 12:37:34.957003$GLGSV,2,2,05,75,23,242,41,,,,,,,,,,,,*52
###2023-12-09 12:37:34.959331$GAGSV,1,1,04,04,21,311,41,19,82,299,41,21,78,175,45,27,41,049,45*6A
###2023-12-09 12:37:34.961651$GBGSV,2,1,05,14,54,197,45,24,80,351,48,25,33,253,44,26,34,058,46*6D
###2023-12-09 12:37:34.963113$GBGSV,2,2,05,33,63,252,47,,,,,,,,,,,,*5D
###2023-12-09 12:37:34.964427$GNVTG,281.59,T,,M,0.86,N,1.58,K,A*26
###2023-12-09 12:37:34.966069$GNGST,173734.10,19.000,,,,0.081,0.070,0.170*53
###2023-12-09 12:37:34.967368$GNZDA,173734.10,09,12,2023,00,00*75
###2023-12-09 12:37:34.968001$GNEBP,,,,,,M*13
###2023-12-09 12:37:35.135598$GNGGA,173734.30,4138.0627642,N,07032.3809733,W,1,23,0.7,13.312,M,-29.744,M,0.0,*53
###2023-12-09 12:37:35.338620$GNGGA,173734.50,4138.0627513,N,07032.3809945,W,1,23,0.7,13.312,M,-29.744,M,0.0,*5D
###2023-12-09 12:37:35.539114$GNGGA,173734.70,4138.0627463,N,07032.3810328,W,1,23,0.7,13.311,M,-29.744,M,0.0,*53
###2023-12-09 12:37:35.739016$GNGGA,173734.90,4138.0627549,N,07032.3811011,W,1,23,0.7,13.323,M,-29.744,M,0.0,*5D
###2023-12-09 12:37:35.937031$GNRMC,173735.10,A,4138.0627591,N,07032.3811614,W,0.60,279.35,091223,,,A*5E
###2023-12-09 12:37:35.939927$GNGGA,173735.10,4138.0627591,N,07032.3811614,W,1,23,0.7,13.323,M,-29.744,M,0.0,*52
###2023-12-09 12:37:35.941797$GPGSA,A,3,03,04,16,26,28,29,31,32,,,,,1.2,0.7,1.0*31
###2023-12-09 12:37:35.943468$GLGSA,A,3,71,72,73,74,75,,,,,,,,1.2,0.7,1.0*2D
###2023-12-09 12:37:35.945055$GAGSA,A,3,04,19,21,27,,,,,,,,,1.2,0.7,1.0*2C
