###2023-12-09 13:30:08.016912$GNVTG,127.62,T,,M,1.56,N,2.88,K,A*23
###2023-12-09 13:30:08.018539$GNGST,183007.10,4.900,,,,0.150,0.088,0.220*62
###2023-12-09 13:30:08.019861$GNZDA,183007.10,09,12,2023,00,00*7D
###2023-12-09 13:30:08.020504$GNEBP,,,,,,M*13
###2023-12-09 13:30:08.190160$GNGGA,183007.30,4138.0356985,N,07032.4271162,W,1,21,0.9,13.126,M,-29.746,M,0.0,*57
###2023-12-09 13:30:08.389771$GNGGA,183007.50,4138.0356433,N,07032.4270157,W,1,21,0.7,13.125,M,-29.746,M,0.0,*5B
###2023-12-09 13:30:08.590778$GNGGA,183007.70,4138.0355931,N,07032.4269240,W,1,21,0.9,13.116,M,-29.746,M,0.0,*56
###2023-12-09 13:30:08.789876$GNGGA,183007.90,4138.0355459,N,07032.4268450,W,1,21,0.9,13.129,M,-29.746,M,0.0,*51
###2023-12-09 13:30:08.998916$GNRMC,183008.10,A,4138.0354915,N,07032.4267608,W,1.69,132.99,091223,,,A*5A
###2023-12-09 13:30:09.001773$GNGGA,183008.10,4138.0354915,N,07032.4267608,W,1,21,0.9,13.128,M,-29.746,M,0.0,*53
###2023-12-09 13:30:09.003568$GPGSA,A,3,03,04,16,26,28,29,31,,,,,,1.4,0.9,1.1*39
###2023-12-09 13:30:09.005214$GLGSA,A,3,65,72,73,74,75,,,,,,,,1.4,0.9,1.1*21
###2023-12-09 13:30:09.006800$GAGSA,A,3,04,19,21,27,,,,,,,,,1.4,0.9,1.1*25
###2023-12-09 13:30:09.008443$GBGSA,A,3,24,25,26,33,35,,,,,,,,1.4,0.9,1.1*2F
###2023-12-09 13:30:09.010773$GPGSV,2,1,07,03,28,248,37,04,44,309,44,16,64,220,47,26,86,041,47*7A
###2023-12-09 13:30:09.012807$GPGSV,2,2,07,28,39,083,43,29,21,049,43,31,61,063,45,,,,*41
###2023-12-09 13:30:09.015134$GLGSV,2,1,05,65,36,321,40,72,65,225,47,73,24,050,44,74,61,010,43*64
###2023-12-09 13:30:09.016618$GLGSV,2,2,05,75,42,268,48,,,,,,,,,,,,*54
###2023-12-09 13:30:09.018940$GAGSV,1,1,04,04,38,310,44,19,74,182,41,21,78,048,45,27,24,050,41*66
###2023-12-09 13:30:09.021258$GBGSV,2,1,05,24,64,043,47,25,49,274,48,26,17,069,44,33,48,219,35*67
###2023-12-09 13:30:09.022717$GBGSV,2,2,05,35,16,058,44,,,,,,,,,,,,*52
###2023-12-09 13:30:09.024031$GNVTG,132.99,T,,M,1.69,N,3.13,K,A*2C
###2023-12-09 13:30:09.025637$GNGST,183008.10,5.700,,,,0.150,0.089,0.220*63
###2023-12-09 13:30:09.026927$GNZDA,183008.10,09,12,2023,00,00*72
###2023-12-09 13:30:09.027564$GNEBP,,,,,,M*13
###2023-12-09 13:30:09.201368$GNGGA,183008.30,4138.0354557,N,07032.4266665,W,1,20,0.8,13.138,M,-29.746,M,0.0,*50
###2023-12-09 13:30:09.391789$GNGGA,183008.50,4138.0354225,N,07032.4265849,W,1,21,0.8,13.126,M,-29.746,M,0.0,*59
###2023-12-09 13:30:09.590790$GNGGA,183008.70,4138.0353771,N,07032.4265075,W,1,21,0.8,13.137,M,-29.746,M,0.0,*5F
###2023-12-09 13:30:09.791379$GNGGA,183008.90,4138.0353281,N,07032.4264234,W,1,20,0.9,13.138,M,-29.746,M,0.0,*52
###2023-12-09 13:30:09.991979$GNRMC,183009.10,A,4138.0352967,N,07032.4263447,W,1.15,111.62,091223,,,A*5B
###2023-12-09 13:30:09.994856$GNGGA,183009.10,4138.0352967,N,07032.4263447,W,1,22,0.7,13.135,M,-29.746,M,0.0,*5D
###2023-12-09 13:30:09.996650$GPGSA,A,3,03,04,16,26,28,29,31,,,,,,1.3,0.7,1.0*31
###2023-12-09 13:30:09.998295$GLGSA,A,3,65,72,73,74,75,,,,,,,,1.3,0.7,1.0*29
###2023-12-09 13:30:09.999889$GAGSA,A,3,04,19,21,27,,,,,,,,,1.3,0.7,1.0*2D
###2023-12-09 13:30:10.001596$GBGSA,A,3,14,24,25,26,33,35,,,,,,,1.3,0.7,1.0*22
###2023-12-09 13:30:10.003930$GPGSV,2,1,07,03,28,248,36,04,44,309,43,16,64,220,46,26,86,041,48*72
###2023-12-09 13:30:10.005964$GPGSV,2,2,07,28,39,083,43,29,21,049,44,31,61,063,46,,,,*45
###2023-12-09 13:30:10.008294$GLGSV,2,1,05,65,37,320,43,72,65,224,45,73,24,051,43,74,61,011,42*62
###2023-12-09 13:30:10.009742$GLGSV,2,2,05,75,42,268,49,,,,,,,,,,,,*55
###2023-12-09 13:30:10.012089$GAGSV,1,1,04,04,38,310,44,19,74,182,41,21,78,048,46,27,24,050,41*65
###2023-12-09 13:30:10.014403$GBGSV,2,1,06,14,31,190,37,24,64,043,47,25,49,274,45,26,17,069,43*65
###2023-12-09 13:30:10.016148$GBGSV,2,2,06,33,48,219,43,35,16,058,44,,,,,,,,*60
###2023-12-09 13:30:10.017462$GNVTG,111.62,T,,M,1.15,N,2.12,K,A*22
###2023-12-09 13:30:10.019077$GNGST,183009.10,5.800,,,,0.160,0.090,0.220*66
###2023-12-09 13:30:10.020364$GNZDA,183009.10,09,12,2023,00,00*73
###2023-12-09 13:30:10.021000$GNEBP,,,,,,M*13
###2023-12-09 13:30:10.192468$GNGGA,183009.30,4138.0352733,N,07032.4262701,W,1,21,0.8,13.145,M,-29.746,M,0.0,*5B
###2023-12-09 13:30:10.388199$GNGGA,183009.50,4138.0352354,N,07032.4261956,W,1,21,0.8,13.148,M,-29.746,M,0.0,*5A
###2023-12-09 13:30:10.586365$GNGGA,183009.70,4138.0351987,N,07032.4261185,W,1,21,0.8,13.157,M,-29.746,M,0.0,*57
###2023-12-09 13:30:10.788041$GNGGA,183009.90,4138.0351625,N,07032.4260527,W,1,20,0.9,13.144,M,-29.746,M,0.0,*51
###2023-12-09 13:30:10.991984$GNRMC,183010.10,A,4138.0351366,N,07032.4259849,W,1.17,113.47,091223,,,A*57
###2023-12-09 13:30:10.994827$GNGGA,183010.10,4138.0351366,N,07032.4259849,W,1,20,0.9,13.142,M,-29.746,M,0.0,*5A
###2023-12-09 13:30:10.996545$GPGSA,A,3,04,16,26,28,29,31,,,,,,,1.6,0.9,1.3*3A
###2023-12-09 13:30:10.998184$GLGSA,A,3,65,72,73,74,75,,,,,,,,1.6,0.9,1.3*21
###2023-12-09 13:30:10.999774$GAGSA,A,3,04,19,21,27,,,,,,,,,1.6,0.9,1.3*25
###2023-12-09 13:30:11.001414$GBGSA,A,3,24,25,26,33,35,,,,,,,,1.6,0.9,1.3*2F
###2023-12-09 13:30:11.003745$GPGSV,2,1,06,04,44,309,45,16,64,220,46,26,86,041,47,28,39,083,43*74
###2023-12-09 13:30:11.005488$GPGSV,2,2,06,29,21,049,44,31,61,063,46,,,,,,,,*78
###2023-12-09 13:30:11.007813$GLGSV,2,1,05,65,37,320,43,72,65,224,45,73,24,051,44,74,61,011,43*64
###2023-12-09 13:30:11.009259$GLGSV,2,2,05,75,42,268,48,,,,,,,,,,,,*54
###2023-12-09 13:30:11.011578$GAGSV,1,1,04,04,38,310,43,19,74,182,40,21,78,048,45,27,24,050,40*61
###2023-12-09 13:30:11.013886$GBGSV,2,1,05,24,64,043,47,25,49,274,44,26,17,069,42,33,48,219,48*67
###2023-12-09 13:30:11.015336$GBGSV,2,2,05,35,16,058,44,,,,,,,,,,,,*52
###2023-12-09 13:30:11.016684$GNVTG,113.47,T,,M,1.17,N,2.16,K,A*21
###2023-12-09 13:30:11.018286$GNGST,183010.10,5.000,,,,0.160,0.090,0.230*67
###2023-12-09 13:30:11.019575$GNZDA,183010.10,09,12,2023,00,00*7B
###2023-12-09 13:30:11.020208$GNEBP,,,,,,M*13
###2023-12-09 13:30:11.187801$GNGGA,183010.30,4138.0351070,N,07032.4259136,W,1,20,0.9,13.142,M,-29.746,M,0.0,*5D
###2023-12-09 13:30:11.387273$GNGGA,183010.50,4138.0350820,N,07032.4258470,W,1,21,0.7,13.155,M,-29.746,M,0.0,*58
###2023-12-09 13:30:11.586290$GNGGA,183010.70,4138.0350471,N,07032.4257848,W,1,20,0.9,13.146,M,-29.746,M,0.0,*57
###2023-12-09 13:30:11.787338$GNGGA,183010.90,4138.0350178,N,07032.4257135,W,1,20,0.9,13.154,M,-29.746,M,0.0,*55
###2023-12-09 13:30:11.989531$GNRMC,183011.10,A,4138.0349871,N,07032.4256223,W,1.38,109.78,091223,,,A*51
###2023-12-09 13:30:11.992407$GNGGA,183011.10,4138.0349871,N,07032.4256223,W,1,20,0.9,13.154,M,-29.746,M,0.0,*51
###2023-12-09 13:30:11.994128$GPGSA,A,3,04,16,26,28,29,31,,,,,,,1.6,0.9,1.3*3A
###2023-12-09 13:30:11.995785$GLGSA,A,3,65,72,73,74,75,,,,,,,,1.6,0.9,1.3*21
###2023-12-09 13:30:11.997354$GAGSA,A,3,04,19,21,27,,,,,,,,,1.6,0.9,1.3*25
###2023-12-09 13:30:11.998999$GBGSA,A,3,24,25,26,33,35,,,,,,,,1.6,0.9,1.3*2F
###2023-12-09 13:30:12.001310$GPGSV,2,1,06,04,44,309,47,16,64,220,47,26,86,041,48,28,39,083,43*78
###2023-12-09 13:30:12.003056$GPGSV,2,2,06,29,21,049,43,31,61,063,46,,,,,,,,*7F
###2023-12-09 13:30:12.005364$GLGSV,2,1,05,65,37,320,44,72,65,224,46,73,24,051,43,74,61,011,43*67
###2023-12-09 13:30:12.006820$GLGSV,2,2,05,75,42,268,47,,,,,,,,,,,,*5B
###2023-12-09 13:30:12.009164$GAGSV,1,1,04,04,38,310,43,19,74,182,41,21,78,048,45,27,24,050,41*61
###2023-12-09 13:30:12.011491$GBGSV,2,1,05,24,64,043,47,25,49,274,46,26,17,069,42,33,48,219,46*6B
###2023-12-09 13:30:12.012936$GBGSV,2,2,05,35,16,058,43,,,,,,,,,,,,*55
###2023-12-09 13:30:12.014246$GNVTG,109.78,T,,M,1.38,N,2.56,K,A*2F
###2023-12-09 13:30:12.015860$GNGST,183011.10,5.500,,,,0.160,0.091,0.230*62
###2023-12-09 13:30:12.017140$GNZDA,183011.10,09,12,2023,00,00*7A
###2023-12-09 13:30:12.017773$GNEBP,,,,,,M*13
###2023-12-09 13:30:12.188443$GNGGA,183011.30,4138.0349547,N,07032.4255205,W,1,20,0.8,13.152,M,-29.746,M,0.0,*5B
###2023-12-09 13:30:12.386128$GNGGA,183011.50,4138.0349149,N,07032.4254125,W,1,20,0.9,13.145,M,-29.746,M,0.0,*50
###2023-12-09 13:30:12.586353$GNGGA,183011.70,4138.0348695,N,07032.4252889,W,1,20,0.9,13.148,M,-29.746,M,0.0,*51
###2023-12-09 13:30:12.788102$GNGGA,183011.90,4138.0348371,N,07032.4251536,W,1,20,0.9,13.148,M,-29.746,M,0.0,*5A
###2023-12-09 13:30:12.990758$GNRMC,183012.10,A,4138.0348115,N,07032.4250063,W,2.06,107.27,091223,,,A*52
###2023-12-09 13:30:12.993630$GNGGA,183012.10,4138.0348115,N,07032.4250063,W,1,20,0.9,13.146,M,-29.746,M,0.0,*5B
###2023-12-09 13:30:12.995370$GPGSA,A,3,04,16,26,28,29,31,,,,,,,1.6,0.9,1.3*3A
###2023-12-09 13:30:12.997017$GLGSA,A,3,65,72,73,74,75,,,,,,,,1.6,0.9,1.3*21
###2023-12-09 13:30:12.998602$GAGSA,A,3,04,19,21,27,,,,,,,,,1.6,0.9,1.3*25
###2023-12-09 13:30:13.000248$GBGSA,A,3,24,25,26,33,35,,,,,,,,1.6,0.9,1.3*2F
###2023-12-09 13:30:13.002575$GPGSV,2,1,06,04,44,309,45,16,64,220,47,26,86,041,48,28,39,083,42*7B
###2023-12-09 13:30:13.004324$GPGSV,2,2,06,29,21,049,42,31,61,063,45,,,,,,,,*7D
