###2023-12-09 13:40:08.030970$GNVTG,125.35,T,,M,0.97,N,1.80,K,A*24
###2023-12-09 13:40:08.032595$GNGST,184007.10,5.700,,,,0.090,0.066,0.150*63
###2023-12-09 13:40:08.033887$GNZDA,184007.10,09,12,2023,00,00*7A
###2023-12-09 13:40:08.034526$GNEBP,,,,,,M*13
###2023-12-09 13:40:08.200550$GNGGA,184007.30,4138.0291208,N,07032.3868224,W,1,25,0.6,13.360,M,-29.745,M,0.0,*58
###2023-12-09 13:40:08.400422$GNGGA,184007.50,4138.0290574,N,07032.3869128,W,1,25,0.6,13.408,M,-29.745,M,0.0,*54
###2023-12-09 13:40:08.600291$GNGGA,184007.70,4138.0290053,N,07032.3869414,W,1,25,0.6,13.395,M,-29.745,M,0.0,*5F
###2023-12-09 13:40:08.800490$GNGGA,184007.90,4138.0289731,N,07032.3868802,W,1,25,0.6,13.363,M,-29.745,M,0.0,*59
###2023-12-09 13:40:09.010926$GNRMC,184008.10,A,4138.0289340,N,07032.3868560,W,1.13,206.39,091223,,,A*5A
###2023-12-09 13:40:09.013780$GNGGA,184008.10,4138.0289340,N,07032.3868560,W,1,26,0.6,13.331,M,-29.745,M,0.0,*51
###2023-12-09 13:40:09.015645$GPGSA,A,3,03,04,16,26,27,28,29,31,,,,,1.0,0.6,0.8*3F
###2023-12-09 13:40:09.017423$GLGSA,A,3,65,71,72,73,74,75,83,,,,,,1.0,0.6,0.8*2F
###2023-12-09 13:40:09.019017$GAGSA,A,3,04,19,21,27,,,,,,,,,1.0,0.6,0.8*26
###2023-12-09 13:40:09.020734$GBGSA,A,3,12,14,24,25,33,35,,,,,,,1.0,0.6,0.8*2E
###2023-12-09 13:40:09.023067$GPGSV,2,1,08,03,25,244,39,04,48,306,45,16,69,225,47,26,81,040,50*70
###2023-12-09 13:40:09.025395$GPGSV,2,2,08,27,19,172,39,28,36,087,48,29,19,045,47,31,58,070,50*72
###2023-12-09 13:40:09.027744$GLGSV,2,1,07,65,40,316,42,71,20,176,40,72,60,217,45,73,20,054,47*66
###2023-12-09 13:40:09.029776$GLGSV,2,2,07,74,58,018,43,75,45,275,47,83,16,045,37,,,,*5B
###2023-12-09 13:40:09.032118$GAGSV,1,1,04,04,41,309,44,19,69,180,41,21,74,044,47,27,21,050,44*6C
###2023-12-09 13:40:09.034443$GBGSV,2,1,06,12,17,125,44,14,27,189,37,24,61,048,51,25,52,278,46*6F
###2023-12-09 13:40:09.036198$GBGSV,2,2,06,33,44,215,46,35,16,055,47,,,,,,,,*6B
###2023-12-09 13:40:09.037522$GNVTG,206.39,T,,M,1.13,N,2.09,K,A*25
###2023-12-09 13:40:09.039145$GNGST,184008.10,5.800,,,,0.090,0.066,0.150*63
###2023-12-09 13:40:09.040437$GNZDA,184008.10,09,12,2023,00,00*75
###2023-12-09 13:40:09.041075$GNEBP,,,,,,M*13
###2023-12-09 13:40:09.209863$GNGGA,184008.30,4138.0288744,N,07032.3869202,W,1,26,0.6,13.380,M,-29.745,M,0.0,*5A
###2023-12-09 13:40:09.400363$GNGGA,184008.50,4138.0288208,N,07032.3869796,W,1,25,0.6,13.377,M,-29.745,M,0.0,*52
###2023-12-09 13:40:09.602704$GNGGA,184008.70,4138.0287807,N,07032.3869529,W,1,25,0.6,13.379,M,-29.745,M,0.0,*52
###2023-12-09 13:40:09.802913$GNGGA,184008.90,4138.0287535,N,07032.3868914,W,1,26,0.6,13.332,M,-29.745,M,0.0,*5F
###2023-12-09 13:40:10.003124$GNRMC,184009.10,A,4138.0287147,N,07032.3869035,W,1.26,223.68,091223,,,A*51
###2023-12-09 13:40:10.006599$GNGGA,184009.10,4138.0287147,N,07032.3869035,W,1,26,0.6,13.326,M,-29.745,M,0.0,*59
###2023-12-09 13:40:10.008836$GPGSA,A,3,03,04,16,26,27,28,29,31,,,,,1.0,0.6,0.8*3F
###2023-12-09 13:40:10.011002$GLGSA,A,3,65,71,72,73,74,75,83,,,,,,1.0,0.6,0.8*2F
###2023-12-09 13:40:10.012903$GAGSA,A,3,04,19,21,27,,,,,,,,,1.0,0.6,0.8*26
###2023-12-09 13:40:10.014969$GBGSA,A,3,12,14,24,25,33,35,,,,,,,1.0,0.6,0.8*2E
###2023-12-09 13:40:10.017764$GPGSV,2,1,08,03,25,244,38,04,48,306,44,16,69,225,45,26,81,040,49*7A
###2023-12-09 13:40:10.020613$GPGSV,2,2,08,27,19,172,38,28,36,087,46,29,19,045,46,31,58,070,49*74
###2023-12-09 13:40:10.023454$GLGSV,2,1,07,65,40,316,43,71,20,176,42,72,60,217,46,73,20,054,46*67
###2023-12-09 13:40:10.025920$GLGSV,2,2,07,74,58,018,44,75,45,275,47,83,16,045,37,,,,*5C
###2023-12-09 13:40:10.028743$GAGSV,1,1,04,04,41,309,42,19,69,180,40,21,74,044,46,27,21,050,44*6A
###2023-12-09 13:40:10.031560$GBGSV,2,1,06,12,17,125,42,14,27,189,37,24,61,048,49,25,52,278,46*60
###2023-12-09 13:40:10.033670$GBGSV,2,2,06,33,44,215,45,35,16,055,47,,,,,,,,*68
###2023-12-09 13:40:10.035280$GNVTG,223.68,T,,M,1.26,N,2.34,K,A*2E
###2023-12-09 13:40:10.037223$GNGST,184009.10,5.800,,,,0.090,0.066,0.150*62
###2023-12-09 13:40:10.038787$GNZDA,184009.10,09,12,2023,00,00*74
###2023-12-09 13:40:10.039555$GNEBP,,,,,,M*13
###2023-12-09 13:40:10.200831$GNGGA,184009.30,4138.0286583,N,07032.3869840,W,1,26,0.6,13.367,M,-29.745,M,0.0,*59
###2023-12-09 13:40:10.400618$GNGGA,184009.50,4138.0286117,N,07032.3870078,W,1,25,0.6,13.367,M,-29.745,M,0.0,*5E
###2023-12-09 13:40:10.597603$GNGGA,184009.70,4138.0285926,N,07032.3869525,W,1,25,0.6,13.355,M,-29.745,M,0.0,*51
###2023-12-09 13:40:10.797839$GNGGA,184009.90,4138.0285683,N,07032.3869177,W,1,26,0.6,13.306,M,-29.745,M,0.0,*59
###2023-12-09 13:40:11.004465$GNRMC,184010.10,A,4138.0285166,N,07032.3869672,W,1.42,227.85,091223,,,A*58
###2023-12-09 13:40:11.007334$GNGGA,184010.10,4138.0285166,N,07032.3869672,W,1,26,0.6,13.348,M,-29.745,M,0.0,*5D
###2023-12-09 13:40:11.009186$GPGSA,A,3,03,04,16,26,27,28,29,31,,,,,1.0,0.6,0.8*3F
###2023-12-09 13:40:11.010972$GLGSA,A,3,65,71,72,73,74,75,83,,,,,,1.0,0.6,0.8*2F
###2023-12-09 13:40:11.012553$GAGSA,A,3,04,19,21,27,,,,,,,,,1.0,0.6,0.8*26
###2023-12-09 13:40:11.014256$GBGSA,A,3,12,14,24,25,33,35,,,,,,,1.0,0.6,0.8*2E
###2023-12-09 13:40:11.016585$GPGSV,2,1,08,03,25,244,39,04,48,306,45,16,69,225,47,26,81,040,49*78
###2023-12-09 13:40:11.018918$GPGSV,2,2,08,27,19,172,38,28,36,087,46,29,19,045,45,31,58,070,49*77
###2023-12-09 13:40:11.021242$GLGSV,2,1,07,65,40,316,43,71,20,176,41,72,60,217,45,73,20,054,45*64
###2023-12-09 13:40:11.023283$GLGSV,2,2,07,74,58,018,44,75,45,275,49,83,16,045,37,,,,*52
###2023-12-09 13:40:11.025603$GAGSV,1,1,04,04,41,309,44,19,69,180,40,21,74,044,46,27,21,050,43*6B
###2023-12-09 13:40:11.027932$GBGSV,2,1,06,12,17,125,42,14,27,189,37,24,61,048,48,25,52,278,48*6F
###2023-12-09 13:40:11.029672$GBGSV,2,2,06,33,44,215,45,35,16,055,45,,,,,,,,*6A
###2023-12-09 13:40:11.031003$GNVTG,227.85,T,,M,1.42,N,2.63,K,A*29
###2023-12-09 13:40:11.032607$GNGST,184010.10,5.700,,,,0.090,0.067,0.150*64
###2023-12-09 13:40:11.033889$GNZDA,184010.10,09,12,2023,00,00*7C
###2023-12-09 13:40:11.034524$GNEBP,,,,,,M*13
###2023-12-09 13:40:11.201221$GNGGA,184010.30,4138.0284687,N,07032.3870324,W,1,25,0.6,13.358,M,-29.745,M,0.0,*5A
###2023-12-09 13:40:11.400429$GNGGA,184010.50,4138.0284402,N,07032.3870160,W,1,25,0.6,13.374,M,-29.745,M,0.0,*5F
###2023-12-09 13:40:11.599760$GNGGA,184010.70,4138.0284247,N,07032.3869522,W,1,26,0.6,13.344,M,-29.745,M,0.0,*50
###2023-12-09 13:40:11.800264$GNGGA,184010.90,4138.0283940,N,07032.3869529,W,1,25,0.6,13.331,M,-29.745,M,0.0,*5F
###2023-12-09 13:40:12.004682$GNRMC,184011.10,A,4138.0283417,N,07032.3870177,W,1.36,223.86,091223,,,A*52
###2023-12-09 13:40:12.008163$GNGGA,184011.10,4138.0283417,N,07032.3870177,W,1,26,0.6,13.372,M,-29.745,M,0.0,*5A
###2023-12-09 13:40:12.010386$GPGSA,A,3,03,04,16,26,27,28,29,31,,,,,1.0,0.6,0.8*3F
###2023-12-09 13:40:12.012534$GLGSA,A,3,65,71,72,73,74,75,83,,,,,,1.0,0.6,0.8*2F
###2023-12-09 13:40:12.014431$GAGSA,A,3,04,19,21,27,,,,,,,,,1.0,0.6,0.8*26
###2023-12-09 13:40:12.016503$GBGSA,A,3,12,14,24,25,33,35,,,,,,,1.0,0.6,0.8*2E
###2023-12-09 13:40:12.019319$GPGSV,2,1,08,03,25,244,41,04,48,306,46,16,69,225,47,26,81,040,49*74
###2023-12-09 13:40:12.022106$GPGSV,2,2,08,27,19,172,37,28,36,087,45,29,19,045,45,31,58,070,48*7A
###2023-12-09 13:40:12.024909$GLGSV,2,1,07,65,40,316,45,71,20,176,41,72,60,217,46,73,20,054,42*66
###2023-12-09 13:40:12.027371$GLGSV,2,2,07,74,58,018,44,75,45,275,49,83,16,045,37,,,,*52
###2023-12-09 13:40:12.030167$GAGSV,1,1,04,04,41,309,44,19,69,180,40,21,74,044,46,27,21,050,41*69
###2023-12-09 13:40:12.032971$GBGSV,2,1,06,12,17,125,41,14,27,189,41,24,61,048,48,25,52,278,49*6C
###2023-12-09 13:40:12.035100$GBGSV,2,2,06,33,44,215,47,35,16,055,43,,,,,,,,*6E
###2023-12-09 13:40:12.036695$GNVTG,223.86,T,,M,1.36,N,2.52,K,A*2F
###2023-12-09 13:40:12.038647$GNGST,184011.10,5.800,,,,0.090,0.067,0.150*6A
###2023-12-09 13:40:12.040203$GNZDA,184011.10,09,12,2023,00,00*7D
###2023-12-09 13:40:12.040970$GNEBP,,,,,,M*13
###2023-12-09 13:40:12.201652$GNGGA,184011.30,4138.0283003,N,07032.3870545,W,1,25,0.6,13.373,M,-29.745,M,0.0,*5E
###2023-12-09 13:40:12.400311$GNGGA,184011.50,4138.0282829,N,07032.3870092,W,1,25,0.6,13.388,M,-29.745,M,0.0,*52
###2023-12-09 13:40:12.599905$GNGGA,184011.70,4138.0282722,N,07032.3869619,W,1,25,0.6,13.351,M,-29.745,M,0.0,*5D
###2023-12-09 13:40:12.800607$GNGGA,184011.90,4138.0282318,N,07032.3869956,W,1,25,0.6,13.366,M,-29.745,M,0.0,*5E
###2023-12-09 13:40:13.005687$GNRMC,184012.10,A,4138.0281813,N,07032.3870546,W,0.86,220.26,091223,,,A*5E
###2023-12-09 13:40:13.008572$GNGGA,184012.10,4138.0281813,N,07032.3870546,W,1,26,0.6,13.384,M,-29.745,M,0.0,*5C
###2023-12-09 13:40:13.010425$GPGSA,A,3,03,04,16,26,27,28,29,31,,,,,1.0,0.6,0.8*3F
###2023-12-09 13:40:13.012210$GLGSA,A,3,65,71,72,73,74,75,83,,,,,,1.0,0.6,0.8*2F
###2023-12-09 13:40:13.013788$GAGSA,A,3,04,19,21,27,,,,,,,,,1.0,0.6,0.8*26
###2023-12-09 13:40:13.015506$GBGSA,A,3,12,14,24,25,33,35,,,,,,,1.0,0.6,0.8*2E
###2023-12-09 13:40:13.017818$GPGSV,2,1,08,03,25,244,41,04,48,306,46,16,69,225,47,26,81,040,48*75
###2023-12-09 13:40:13.020148$GPGSV,2,2,08,27,19,172,37,28,36,087,44,29,19,045,42,31,58,070,46*72
