###2023-12-09 12:30:57.943647$GLGSV,1,1,04,71,59,168,48,72,64,313,41,73,50,032,45,75,20,239,41*67
###2023-12-09 12:30:57.945440$GAGSV,1,1,02,21,76,178,40,27,43,050,45,,,,,,,,*64
###2023-12-09 12:30:57.947250$GBGSV,1,1,02,14,57,199,42,26,36,056,45,,,,,,,,*6A
###2023-12-09 12:30:57.948417$GNVTG,,T,,M,0.04,N,0.07,K,A*3E
###2023-12-09 12:30:57.950080$GNGST,173057.10,33.000,,,,0.100,0.110,0.260*54
###2023-12-09 12:30:57.951406$GNZDA,173057.10,09,12,2023,00,00*77
###2023-12-09 12:30:57.952066$GNEBP,,,,,,M*13
###2023-12-09 12:30:58.126335$GNGGA,173057.30,4138.0383568,N,07032.4365338,W,1,16,0.9,15.026,M,-29.746,M,0.0,*50
###2023-12-09 12:30:58.326374$GNGGA,173057.50,4138.0383588,N,07032.4365329,W,1,17,0.8,15.013,M,-29.746,M,0.0,*5E
###2023-12-09 12:30:58.526789$GNGGA,173057.70,4138.0383607,N,07032.4365319,W,1,16,0.9,15.010,M,-29.746,M,0.0,*58
###2023-12-09 12:30:58.728924$GNGGA,173057.90,4138.0383636,N,07032.4365329,W,1,16,0.9,15.003,M,-29.746,M,0.0,*55
###2023-12-09 12:30:58.927712$GNRMC,173058.10,A,4138.0383661,N,07032.4365333,W,0.04,,091223,,,A*4C
###2023-12-09 12:30:58.930831$GNGGA,173058.10,4138.0383661,N,07032.4365333,W,1,16,0.9,14.996,M,-29.746,M,0.0,*5F
###2023-12-09 12:30:58.932831$GPGSA,A,3,03,16,26,28,29,31,32,,,,,,1.6,0.9,1.4*3B
###2023-12-09 12:30:58.934615$GLGSA,A,3,71,72,73,75,,,,,,,,,1.6,0.9,1.4*20
###2023-12-09 12:30:58.936256$GAGSA,A,3,21,27,,,,,,,,,,,1.6,0.9,1.4*2E
###2023-12-09 12:30:58.937947$GBGSA,A,3,14,26,33,,,,,,,,,,1.6,0.9,1.4*2A
###2023-12-09 12:30:58.940475$GPGSV,2,1,07,03,39,279,37,16,35,207,39,26,64,206,45,28,60,053,44*7B
###2023-12-09 12:30:58.942749$GPGSV,2,2,07,29,25,076,43,31,73,353,43,32,32,133,48,,,,*4D
###2023-12-09 12:30:58.945292$GLGSV,1,1,04,71,59,168,48,72,64,313,40,73,50,032,47,75,20,239,41*64
###2023-12-09 12:30:58.947120$GAGSV,1,1,02,21,76,178,40,27,43,050,45,,,,,,,,*64
###2023-12-09 12:30:58.949207$GBGSV,1,1,03,14,57,199,43,26,36,056,45,33,63,258,36,,,,*55
###2023-12-09 12:30:58.950361$GNVTG,,T,,M,0.04,N,0.07,K,A*3E
###2023-12-09 12:30:58.952048$GNGST,173058.10,32.000,,,,0.100,0.110,0.260*5A
###2023-12-09 12:30:58.953366$GNZDA,173058.10,09,12,2023,00,00*78
###2023-12-09 12:30:58.954021$GNEBP,,,,,,M*13
###2023-12-09 12:30:59.124662$GNGGA,173058.30,4138.0383671,N,07032.4365308,W,1,16,0.9,14.998,M,-29.746,M,0.0,*5A
###2023-12-09 12:30:59.325767$GNGGA,173058.50,4138.0383714,N,07032.4365296,W,1,16,0.9,15.006,M,-29.746,M,0.0,*57
###2023-12-09 12:30:59.525948$GNGGA,173058.70,4138.0383759,N,07032.4365296,W,1,17,0.8,14.998,M,-29.746,M,0.0,*53
###2023-12-09 12:30:59.724322$GNGGA,173058.90,4138.0383804,N,07032.4365276,W,1,17,0.8,14.999,M,-29.746,M,0.0,*55
###2023-12-09 12:30:59.924419$GNRMC,173059.10,A,4138.0383834,N,07032.4365252,W,0.06,,091223,,,A*47
###2023-12-09 12:30:59.927311$GNGGA,173059.10,4138.0383834,N,07032.4365252,W,1,17,0.8,14.993,M,-29.746,M,0.0,*53
###2023-12-09 12:30:59.929190$GPGSA,A,3,03,04,16,26,28,29,31,32,,,,,1.4,0.8,1.2*3A
###2023-12-09 12:30:59.930812$GLGSA,A,3,71,72,73,75,,,,,,,,,1.4,0.8,1.2*25
###2023-12-09 12:30:59.932295$GAGSA,A,3,21,27,,,,,,,,,,,1.4,0.8,1.2*2B
###2023-12-09 12:30:59.933837$GBGSA,A,3,14,26,33,,,,,,,,,,1.4,0.8,1.2*2F
###2023-12-09 12:30:59.936204$GPGSV,2,1,08,03,39,279,38,04,20,310,36,16,35,207,38,26,64,206,45*71
###2023-12-09 12:30:59.938554$GPGSV,2,2,08,28,60,053,44,29,25,076,44,31,73,353,40,32,32,133,48*7C
###2023-12-09 12:30:59.940920$GLGSV,1,1,04,71,59,168,47,72,64,313,42,73,50,032,45,75,20,239,41*6B
###2023-12-09 12:30:59.942700$GAGSV,1,1,02,21,76,178,38,27,43,050,46,,,,,,,,*68
###2023-12-09 12:30:59.944749$GBGSV,1,1,03,14,57,199,43,26,36,056,45,33,63,258,36,,,,*55
###2023-12-09 12:30:59.945895$GNVTG,,T,,M,0.06,N,0.11,K,A*3B
###2023-12-09 12:30:59.947588$GNGST,173059.10,31.000,,,,0.100,0.110,0.270*59
###2023-12-09 12:30:59.948921$GNZDA,173059.10,09,12,2023,00,00*79
###2023-12-09 12:30:59.949586$GNEBP,,,,,,M*13
###2023-12-09 12:31:00.128052$GNGGA,173059.30,4138.0383861,N,07032.4365222,W,1,17,0.8,15.004,M,-29.746,M,0.0,*50
###2023-12-09 12:31:00.325686$GNGGA,173059.50,4138.0383907,N,07032.4365204,W,1,17,0.8,15.000,M,-29.746,M,0.0,*57
###2023-12-09 12:31:00.526009$GNGGA,173059.70,4138.0383931,N,07032.4365174,W,1,17,0.8,15.000,M,-29.746,M,0.0,*54
###2023-12-09 12:31:00.724848$GNGGA,173059.90,4138.0383972,N,07032.4365151,W,1,16,0.9,15.000,M,-29.746,M,0.0,*5A
###2023-12-09 12:31:00.926997$GNRMC,173100.10,A,4138.0383988,N,07032.4365210,W,0.02,,091223,,,A*4E
###2023-12-09 12:31:00.930036$GNGGA,173100.10,4138.0383988,N,07032.4365210,W,1,16,0.9,14.984,M,-29.746,M,0.0,*58
###2023-12-09 12:31:00.932021$GPGSA,A,3,03,16,26,28,29,31,32,,,,,,1.6,0.9,1.4*3B
###2023-12-09 12:31:00.933775$GLGSA,A,3,71,72,73,75,,,,,,,,,1.6,0.9,1.4*20
###2023-12-09 12:31:00.935406$GAGSA,A,3,21,27,,,,,,,,,,,1.6,0.9,1.4*2E
###2023-12-09 12:31:00.937089$GBGSA,A,3,14,26,33,,,,,,,,,,1.6,0.9,1.4*2A
###2023-12-09 12:31:00.939591$GPGSV,2,1,07,03,39,279,40,16,35,207,40,26,64,206,45,28,60,053,43*72
###2023-12-09 12:31:00.941804$GPGSV,2,2,07,29,25,076,42,31,73,353,39,32,32,133,48,,,,*41
###2023-12-09 12:31:00.944308$GLGSV,1,1,04,71,59,168,47,72,64,313,42,73,50,032,39,75,20,239,41*60
###2023-12-09 12:31:00.946245$GAGSV,1,1,02,21,76,178,40,27,43,050,46,,,,,,,,*67
###2023-12-09 12:31:00.948516$GBGSV,1,1,03,14,57,199,42,26,36,056,46,33,63,258,37,,,,*56
###2023-12-09 12:31:00.949837$GNVTG,,T,,M,0.02,N,0.04,K,A*3B
###2023-12-09 12:31:00.951672$GNGST,173100.10,32.000,,,,0.100,0.110,0.270*57
###2023-12-09 12:31:00.953171$GNZDA,173100.10,09,12,2023,00,00*74
###2023-12-09 12:31:00.953994$GNEBP,,,,,,M*13
###2023-12-09 12:31:01.126374$GNGGA,173100.30,4138.0383975,N,07032.4365299,W,1,16,0.9,14.960,M,-29.746,M,0.0,*53
###2023-12-09 12:31:01.327264$GNGGA,173100.50,4138.0383977,N,07032.4365345,W,1,14,0.9,14.939,M,-29.746,M,0.0,*59
###2023-12-09 12:31:01.526718$GNGGA,173100.70,4138.0383984,N,07032.4365335,W,1,14,0.9,14.938,M,-29.746,M,0.0,*51
###2023-12-09 12:31:01.725307$GNGGA,173100.90,4138.0384002,N,07032.4365410,W,1,14,0.9,14.911,M,-29.746,M,0.0,*54
###2023-12-09 12:31:01.930627$GNRMC,173101.10,A,4138.0384003,N,07032.4365492,W,0.08,,091223,,,A*44
###2023-12-09 12:31:01.934407$GNGGA,173101.10,4138.0384003,N,07032.4365492,W,1,14,0.9,14.880,M,-29.746,M,0.0,*5F
###2023-12-09 12:31:01.936847$GPGSA,A,3,03,16,26,28,29,31,32,,,,,,1.6,0.9,1.4*3B
###2023-12-09 12:31:01.938942$GLGSA,A,3,71,72,75,,,,,,,,,,1.6,0.9,1.4*24
###2023-12-09 12:31:01.940931$GAGSA,A,3,21,27,,,,,,,,,,,1.6,0.9,1.4*2E
###2023-12-09 12:31:01.942922$GBGSA,A,3,14,26,,,,,,,,,,,1.6,0.9,1.4*2A
###2023-12-09 12:31:01.945951$GPGSV,2,1,07,03,39,279,40,16,35,207,39,26,64,206,45,28,60,053,39*71
###2023-12-09 12:31:01.948691$GPGSV,2,2,07,29,25,076,45,31,73,353,40,32,32,133,47,,,,*47
###2023-12-09 12:31:01.951456$GLGSV,1,1,03,71,59,168,48,72,64,313,41,75,20,239,41,,,,*51
###2023-12-09 12:31:01.953828$GAGSV,1,1,02,21,76,178,40,27,43,050,45,,,,,,,,*64
###2023-12-09 12:31:01.956186$GBGSV,1,1,02,14,57,199,42,26,36,056,45,,,,,,,,*6A
###2023-12-09 12:31:01.957822$GNVTG,,T,,M,0.08,N,0.14,K,A*30
###2023-12-09 12:31:01.960065$GNGST,173101.10,34.000,,,,0.110,0.110,0.270*51
###2023-12-09 12:31:01.961889$GNZDA,173101.10,09,12,2023,00,00*75
###2023-12-09 12:31:01.962909$GNEBP,,,,,,M*13
###2023-12-09 12:31:02.126290$GNGGA,173101.30,4138.0383997,N,07032.4365530,W,1,15,0.9,14.865,M,-29.746,M,0.0,*5D
###2023-12-09 12:31:02.325644$GNGGA,173101.50,4138.0384010,N,07032.4365605,W,1,15,0.9,14.850,M,-29.746,M,0.0,*59
###2023-12-09 12:31:02.525626$GNGGA,173101.70,4138.0384037,N,07032.4365665,W,1,16,0.8,14.845,M,-29.746,M,0.0,*5E
###2023-12-09 12:31:02.724719$GNGGA,173101.90,4138.0384035,N,07032.4365771,W,1,15,0.8,14.822,M,-29.746,M,0.0,*54
###2023-12-09 12:31:02.928818$GNRMC,173102.10,A,4138.0384085,N,07032.4365797,W,0.10,,091223,,,A*46
###2023-12-09 12:31:02.931757$GNGGA,173102.10,4138.0384085,N,07032.4365797,W,1,16,0.8,14.827,M,-29.746,M,0.0,*5A
###2023-12-09 12:31:02.933585$GPGSA,A,3,03,04,16,26,29,31,32,,,,,,1.4,0.8,1.2*30
###2023-12-09 12:31:02.935212$GLGSA,A,3,71,72,73,75,,,,,,,,,1.4,0.8,1.2*25
###2023-12-09 12:31:02.936694$GAGSA,A,3,21,27,,,,,,,,,,,1.4,0.8,1.2*2B
###2023-12-09 12:31:02.938234$GBGSA,A,3,14,26,33,,,,,,,,,,1.4,0.8,1.2*2F
###2023-12-09 12:31:02.940864$GPGSV,2,1,07,03,39,279,39,04,20,310,38,16,35,207,39,26,64,206,46*73
###2023-12-09 12:31:02.942947$GPGSV,2,2,07,29,25,076,40,31,73,353,36,32,32,133,47,,,,*43
###2023-12-09 12:31:02.945282$GLGSV,1,1,04,71,59,168,49,72,64,313,39,73,50,032,37,75,20,239,40*6D
###2023-12-09 12:31:02.947075$GAGSV,1,1,02,21,76,178,36,27,43,050,43,,,,,,,,*63
###2023-12-09 12:31:02.949141$GBGSV,1,1,03,14,57,199,45,26,36,056,44,33,63,258,35,,,,*51
###2023-12-09 12:31:02.950290$GNVTG,,T,,M,0.10,N,0.18,K,A*35
###2023-12-09 12:31:02.951968$GNGST,173102.10,24.000,,,,0.110,0.110,0.270*53
