###2023-12-09 13:42:50.598543$GNGGA,184249.70,4138.0395513,N,07032.4272527,W,1,21,0.7,13.664,M,-29.745,M,0.0,*5A
###2023-12-09 13:42:50.798093$GNGGA,184249.90,4138.0395445,N,07032.4272480,W,1,20,0.7,13.677,M,-29.745,M,0.0,*59
###2023-12-09 13:42:51.000353$GNRMC,184250.10,A,4138.0395382,N,07032.4272500,W,0.08,287.37,091223,,,A*5B
###2023-12-09 13:42:51.003235$GNGGA,184250.10,4138.0395382,N,07032.4272500,W,1,21,0.7,13.679,M,-29.745,M,0.0,*53
###2023-12-09 13:42:51.005026$GPGSA,A,3,03,04,16,26,28,29,31,,,,,,1.3,0.7,1.1*30
###2023-12-09 13:42:51.006679$GLGSA,A,3,65,72,73,74,75,,,,,,,,1.3,0.7,1.1*28
###2023-12-09 13:42:51.008248$GAGSA,A,3,04,19,21,27,,,,,,,,,1.3,0.7,1.1*2C
###2023-12-09 13:42:51.009877$GBGSA,A,3,12,24,25,33,35,,,,,,,,1.3,0.7,1.1*21
###2023-12-09 13:42:51.012205$GPGSV,2,1,07,03,24,243,35,04,49,306,36,16,70,226,39,26,80,041,47*74
###2023-12-09 13:42:51.014237$GPGSV,2,2,07,28,35,088,46,29,19,044,41,31,57,071,49,,,,*4D
###2023-12-09 13:42:51.016563$GLGSV,2,1,05,65,42,314,37,72,58,215,41,73,19,055,45,74,56,021,44*61
###2023-12-09 13:42:51.018013$GLGSV,2,2,05,75,46,277,42,,,,,,,,,,,,*54
###2023-12-09 13:42:51.020373$GAGSV,1,1,04,04,42,309,41,19,69,180,43,21,74,044,46,27,20,051,43*6E
###2023-12-09 13:42:51.022758$GBGSV,2,1,05,12,18,124,41,24,60,050,49,25,53,280,39,33,42,214,41*68
###2023-12-09 13:42:51.024217$GBGSV,2,2,05,35,16,053,47,,,,,,,,,,,,*5A
###2023-12-09 13:42:51.025537$GNVTG,287.37,T,,M,0.08,N,0.14,K,A*27
###2023-12-09 13:42:51.027192$GNGST,184250.10,6.800,,,,0.160,0.130,0.240*61
###2023-12-09 13:42:51.028487$GNZDA,184250.10,09,12,2023,00,00*7A
###2023-12-09 13:42:51.029129$GNEBP,,,,,,M*13
###2023-12-09 13:42:51.201940$GNGGA,184250.30,4138.0395353,N,07032.4272454,W,1,20,0.8,13.688,M,-29.745,M,0.0,*5D
###2023-12-09 13:42:51.401905$GNGGA,184250.50,4138.0395338,N,07032.4272448,W,1,20,0.8,13.690,M,-29.745,M,0.0,*52
###2023-12-09 13:42:51.596825$GNGGA,184250.70,4138.0395319,N,07032.4272431,W,1,20,0.8,13.690,M,-29.745,M,0.0,*5D
###2023-12-09 13:42:51.803279$GNGGA,184250.90,4138.0395300,N,07032.4272387,W,1,20,0.8,13.691,M,-29.745,M,0.0,*50
###2023-12-09 13:42:52.000840$GNRMC,184251.10,A,4138.0395285,N,07032.4272249,W,0.19,287.37,091223,,,A*56
###2023-12-09 13:42:52.003719$GNGGA,184251.10,4138.0395285,N,07032.4272249,W,1,20,0.8,13.689,M,-29.745,M,0.0,*5F
###2023-12-09 13:42:52.005451$GPGSA,A,3,04,16,26,28,29,31,,,,,,,1.4,0.8,1.1*3B
###2023-12-09 13:42:52.007103$GLGSA,A,3,65,72,73,74,75,,,,,,,,1.4,0.8,1.1*20
###2023-12-09 13:42:52.008675$GAGSA,A,3,04,19,21,27,,,,,,,,,1.4,0.8,1.1*24
###2023-12-09 13:42:52.010315$GBGSA,A,3,12,24,25,33,35,,,,,,,,1.4,0.8,1.1*29
###2023-12-09 13:42:52.012646$GPGSV,2,1,06,04,49,306,36,16,70,226,39,26,80,041,48,28,35,088,46*72
###2023-12-09 13:42:52.014387$GPGSV,2,2,06,29,19,044,42,31,57,071,49,,,,,,,,*71
###2023-12-09 13:42:52.016756$GLGSV,2,1,05,65,42,314,37,72,58,215,41,73,19,055,46,74,56,021,43*65
###2023-12-09 13:42:52.018212$GLGSV,2,2,05,75,46,277,41,,,,,,,,,,,,*57
###2023-12-09 13:42:52.020542$GAGSV,1,1,04,04,42,309,41,19,69,180,42,21,74,044,46,27,20,051,43*6F
###2023-12-09 13:42:52.022880$GBGSV,2,1,05,12,18,124,39,24,60,050,49,25,53,280,37,33,42,214,42*6A
###2023-12-09 13:42:52.024328$GBGSV,2,2,05,35,16,053,45,,,,,,,,,,,,*58
###2023-12-09 13:42:52.025642$GNVTG,287.37,T,,M,0.19,N,0.36,K,A*27
###2023-12-09 13:42:52.027265$GNGST,184251.10,6.200,,,,0.160,0.130,0.240*6A
###2023-12-09 13:42:52.028549$GNZDA,184251.10,09,12,2023,00,00*7B
###2023-12-09 13:42:52.029184$GNEBP,,,,,,M*13
###2023-12-09 13:42:52.199651$GNGGA,184251.30,4138.0395281,N,07032.4272049,W,1,22,0.7,13.690,M,-29.745,M,0.0,*5E
###2023-12-09 13:42:52.405201$GNGGA,184251.50,4138.0395286,N,07032.4271915,W,1,21,0.7,13.694,M,-29.745,M,0.0,*5B
###2023-12-09 13:42:52.597765$GNGGA,184251.70,4138.0395213,N,07032.4271795,W,1,21,0.7,13.683,M,-29.745,M,0.0,*55
###2023-12-09 13:42:52.797284$GNGGA,184251.90,4138.0395150,N,07032.4271668,W,1,22,0.6,13.686,M,-29.745,M,0.0,*5B
###2023-12-09 13:42:53.009530$GNRMC,184252.10,A,4138.0395180,N,07032.4271637,W,0.16,287.37,091223,,,A*52
###2023-12-09 13:42:53.012405$GNGGA,184252.10,4138.0395180,N,07032.4271637,W,1,23,0.6,13.703,M,-29.745,M,0.0,*5A
###2023-12-09 13:42:53.014261$GPGSA,A,3,03,04,09,16,26,28,29,31,,,,,1.1,0.6,0.9*33
###2023-12-09 13:42:53.015929$GLGSA,A,3,65,72,73,74,75,,,,,,,,1.1,0.6,0.9*22
###2023-12-09 13:42:53.017504$GAGSA,A,3,04,19,21,27,,,,,,,,,1.1,0.6,0.9*26
###2023-12-09 13:42:53.019223$GBGSA,A,3,12,14,24,25,33,35,,,,,,,1.1,0.6,0.9*2E
###2023-12-09 13:42:53.021542$GPGSV,2,1,08,03,24,243,41,04,49,306,35,09,15,317,35,16,70,226,46*77
###2023-12-09 13:42:53.023936$GPGSV,2,2,08,26,80,041,48,28,35,088,45,29,19,044,40,31,57,071,47*7B
###2023-12-09 13:42:53.026284$GLGSV,2,1,05,65,42,314,42,72,58,215,46,73,19,055,41,74,56,021,40*64
###2023-12-09 13:42:53.027758$GLGSV,2,2,05,75,46,277,42,,,,,,,,,,,,*54
###2023-12-09 13:42:53.030095$GAGSV,1,1,04,04,42,309,42,19,69,180,44,21,74,044,47,27,20,051,41*69
###2023-12-09 13:42:53.032440$GBGSV,2,1,06,12,18,124,40,14,25,189,35,24,60,050,48,25,53,280,38*6A
###2023-12-09 13:42:53.034191$GBGSV,2,2,06,33,42,214,40,35,16,053,44,,,,,,,,*6F
###2023-12-09 13:42:53.035527$GNVTG,287.37,T,,M,0.16,N,0.29,K,A*26
###2023-12-09 13:42:53.037143$GNGST,184252.10,6.700,,,,0.160,0.130,0.240*6C
###2023-12-09 13:42:53.038431$GNZDA,184252.10,09,12,2023,00,00*78
###2023-12-09 13:42:53.039083$GNEBP,,,,,,M*13
###2023-12-09 13:42:53.198615$GNGGA,184252.30,4138.0395256,N,07032.4271352,W,1,24,0.6,13.692,M,-29.745,M,0.0,*58
###2023-12-09 13:42:53.398185$GNGGA,184252.50,4138.0395298,N,07032.4270989,W,1,24,0.6,13.689,M,-29.745,M,0.0,*5B
###2023-12-09 13:42:53.598630$GNGGA,184252.70,4138.0395244,N,07032.4271021,W,1,23,0.6,13.704,M,-29.745,M,0.0,*51
###2023-12-09 13:42:53.799255$GNGGA,184252.90,4138.0395171,N,07032.4271066,W,1,24,0.6,13.693,M,-29.745,M,0.0,*51
###2023-12-09 13:42:54.001488$GNRMC,184253.10,A,4138.0395169,N,07032.4270948,W,0.12,287.37,091223,,,A*56
###2023-12-09 13:42:54.004380$GNGGA,184253.10,4138.0395169,N,07032.4270948,W,1,24,0.6,13.673,M,-29.745,M,0.0,*5B
###2023-12-09 13:42:54.006243$GPGSA,A,3,03,04,09,16,26,28,29,31,,,,,1.0,0.6,0.8*33
###2023-12-09 13:42:54.007912$GLGSA,A,3,65,72,73,74,75,,,,,,,,1.0,0.6,0.8*22
###2023-12-09 13:42:54.009496$GAGSA,A,3,04,19,21,27,,,,,,,,,1.0,0.6,0.8*26
###2023-12-09 13:42:54.011224$GBGSA,A,3,12,14,24,25,33,35,,,,,,,1.0,0.6,0.8*2E
###2023-12-09 13:42:54.013554$GPGSV,2,1,08,03,24,243,43,04,49,306,43,09,15,317,38,16,70,226,47*78
###2023-12-09 13:42:54.015901$GPGSV,2,2,08,26,80,041,48,28,35,088,45,29,19,044,41,31,57,071,46*7B
###2023-12-09 13:42:54.018235$GLGSV,2,1,05,65,42,314,44,72,58,215,47,73,19,055,42,74,56,021,41*61
###2023-12-09 13:42:54.019694$GLGSV,2,2,05,75,46,277,43,,,,,,,,,,,,*55
###2023-12-09 13:42:54.022026$GAGSV,1,1,04,04,42,309,44,19,69,180,42,21,74,044,47,27,20,051,41*69
###2023-12-09 13:42:54.024375$GBGSV,2,1,06,12,18,124,40,14,25,189,35,24,60,050,48,25,53,280,45*60
###2023-12-09 13:42:54.026126$GBGSV,2,2,06,33,42,214,48,35,16,053,43,,,,,,,,*60
###2023-12-09 13:42:54.027469$GNVTG,287.37,T,,M,0.12,N,0.22,K,A*29
###2023-12-09 13:42:54.029083$GNGST,184253.10,6.100,,,,0.160,0.130,0.240*6B
###2023-12-09 13:42:54.030377$GNZDA,184253.10,09,12,2023,00,00*79
###2023-12-09 13:42:54.031029$GNEBP,,,,,,M*13
###2023-12-09 13:42:54.200252$GNGGA,184253.30,4138.0395147,N,07032.4270901,W,1,24,0.6,13.674,M,-29.745,M,0.0,*5F
###2023-12-09 13:42:54.399062$GNGGA,184253.50,4138.0395111,N,07032.4270727,W,1,24,0.6,13.657,M,-29.745,M,0.0,*51
###2023-12-09 13:42:54.597722$GNGGA,184253.70,4138.0395104,N,07032.4270659,W,1,24,0.6,13.631,M,-29.745,M,0.0,*5F
###2023-12-09 13:42:54.799276$GNGGA,184253.90,4138.0395027,N,07032.4270842,W,1,24,0.6,13.633,M,-29.745,M,0.0,*57
###2023-12-09 13:42:55.003265$GNRMC,184254.10,A,4138.0394946,N,07032.4270857,W,0.31,287.37,091223,,,A*5B
###2023-12-09 13:42:55.006118$GNGGA,184254.10,4138.0394946,N,07032.4270857,W,1,24,0.6,13.628,M,-29.745,M,0.0,*59
###2023-12-09 13:42:55.007986$GPGSA,A,3,03,04,09,16,26,28,29,31,,,,,1.0,0.6,0.8*33
###2023-12-09 13:42:55.009635$GLGSA,A,3,65,72,73,74,75,,,,,,,,1.0,0.6,0.8*22
###2023-12-09 13:42:55.011223$GAGSA,A,3,04,19,21,27,,,,,,,,,1.0,0.6,0.8*26
###2023-12-09 13:42:55.013172$GBGSA,A,3,12,14,24,25,33,35,,,,,,,1.0,0.6,0.8*2E
###2023-12-09 13:42:55.015517$GPGSV,2,1,08,03,24,243,42,04,49,306,44,09,15,317,38,16,70,226,48*71
###2023-12-09 13:42:55.017847$GPGSV,2,2,08,26,80,041,47,28,35,088,45,29,19,044,40,31,57,071,47*74
###2023-12-09 13:42:55.020186$GLGSV,2,1,05,65,42,314,44,72,58,215,46,73,19,055,38,74,56,021,41*6D
###2023-12-09 13:42:55.021641$GLGSV,2,2,05,75,46,277,43,,,,,,,,,,,,*55
###2023-12-09 13:42:55.023977$GAGSV,1,1,04,04,42,308,44,19,69,180,42,21,74,044,46,27,20,051,39*66
###2023-12-09 13:42:55.026305$GBGSV,2,1,06,12,18,124,39,14,25,189,35,24,60,050,47,25,53,280,46*62
###2023-12-09 13:42:55.028061$GBGSV,2,2,06,33,42,214,47,35,16,053,41,,,,,,,,*6D
###2023-12-09 13:42:55.029389$GNVTG,287.37,T,,M,0.31,N,0.58,K,A*25
