###2023-12-09 12:29:38.944650$GAGSV,1,1,02,21,75,179,39,27,43,050,45,,,,,,,,*68
###2023-12-09 12:29:38.947075$GBGSV,1,1,04,14,57,199,46,25,31,251,38,26,37,056,46,33,64,260,39*6E
###2023-12-09 12:29:38.948277$GNVTG,,T,,M,0.06,N,0.11,K,A*3B
###2023-12-09 12:29:38.949954$GNGST,172938.10,31.000,,,,0.110,0.120,0.290*5A
###2023-12-09 12:29:38.951294$GNZDA,172938.10,09,12,2023,00,00*76
###2023-12-09 12:29:38.951955$GNEBP,,,,,,M*13
###2023-12-09 12:29:39.125441$GNGGA,172938.30,4138.0384789,N,07032.4368471,W,1,18,0.7,12.439,M,-29.746,M,0.0,*51
###2023-12-09 12:29:39.323150$GNGGA,172938.50,4138.0384772,N,07032.4368436,W,1,18,0.7,12.445,M,-29.746,M,0.0,*5B
###2023-12-09 12:29:39.523403$GNGGA,172938.70,4138.0384762,N,07032.4368391,W,1,18,0.7,12.451,M,-29.746,M,0.0,*57
###2023-12-09 12:29:39.722508$GNGGA,172938.90,4138.0384743,N,07032.4368342,W,1,18,0.7,12.455,M,-29.746,M,0.0,*50
###2023-12-09 12:29:39.920264$GNRMC,172939.10,A,4138.0384727,N,07032.4368298,W,0.04,,091223,,,A*4A
###2023-12-09 12:29:39.923164$GNGGA,172939.10,4138.0384727,N,07032.4368298,W,1,18,0.7,12.464,M,-29.746,M,0.0,*5F
###2023-12-09 12:29:39.925053$GPGSA,A,3,03,04,16,26,28,29,31,32,,,,,1.4,0.7,1.2*35
###2023-12-09 12:29:39.926675$GLGSA,A,3,71,72,73,75,,,,,,,,,1.4,0.7,1.2*2A
###2023-12-09 12:29:39.928152$GAGSA,A,3,21,27,,,,,,,,,,,1.4,0.7,1.2*24
###2023-12-09 12:29:39.929752$GBGSA,A,3,14,25,26,33,,,,,,,,,1.4,0.7,1.2*27
###2023-12-09 12:29:39.932112$GPGSV,2,1,08,03,39,280,39,04,20,310,35,16,34,206,44,26,64,206,44*7F
###2023-12-09 12:29:39.934466$GPGSV,2,2,08,28,60,053,45,29,25,076,43,31,73,353,45,32,33,132,48*7F
###2023-12-09 12:29:39.936832$GLGSV,1,1,04,71,60,168,48,72,63,314,43,73,50,032,43,75,20,239,38*67
###2023-12-09 12:29:39.938639$GAGSV,1,1,02,21,75,179,39,27,43,050,45,,,,,,,,*68
###2023-12-09 12:29:39.940979$GBGSV,1,1,04,14,57,199,45,25,31,251,38,26,37,056,45,33,64,260,39*6E
###2023-12-09 12:29:39.942132$GNVTG,,T,,M,0.04,N,0.07,K,A*3E
###2023-12-09 12:29:39.943811$GNGST,172939.10,31.000,,,,0.110,0.120,0.290*5B
###2023-12-09 12:29:39.945117$GNZDA,172939.10,09,12,2023,00,00*77
###2023-12-09 12:29:39.945769$GNEBP,,,,,,M*13
###2023-12-09 12:29:40.121249$GNGGA,172939.30,4138.0384709,N,07032.4368246,W,1,18,0.7,12.469,M,-29.746,M,0.0,*5F
###2023-12-09 12:29:40.321712$GNGGA,172939.50,4138.0384707,N,07032.4368195,W,1,18,0.7,12.475,M,-29.746,M,0.0,*57
###2023-12-09 12:29:40.523281$GNGGA,172939.70,4138.0384702,N,07032.4368150,W,1,18,0.7,12.478,M,-29.746,M,0.0,*54
###2023-12-09 12:29:40.721363$GNGGA,172939.90,4138.0384699,N,07032.4368093,W,1,18,0.7,12.486,M,-29.746,M,0.0,*56
###2023-12-09 12:29:40.924639$GNRMC,172940.10,A,4138.0384710,N,07032.4368039,W,0.06,,091223,,,A*4B
###2023-12-09 12:29:40.928191$GNGGA,172940.10,4138.0384710,N,07032.4368039,W,1,18,0.7,12.497,M,-29.746,M,0.0,*50
###2023-12-09 12:29:40.930494$GPGSA,A,3,03,04,16,26,28,29,31,32,,,,,1.4,0.7,1.2*35
###2023-12-09 12:29:40.932520$GLGSA,A,3,71,72,73,75,,,,,,,,,1.4,0.7,1.2*2A
###2023-12-09 12:29:40.934328$GAGSA,A,3,21,27,,,,,,,,,,,1.4,0.7,1.2*24
###2023-12-09 12:29:40.936299$GBGSA,A,3,14,25,26,33,,,,,,,,,1.4,0.7,1.2*27
###2023-12-09 12:29:40.939182$GPGSV,2,1,08,03,39,280,39,04,20,310,36,16,34,206,44,26,64,206,43*7B
###2023-12-09 12:29:40.942038$GPGSV,2,2,08,28,60,053,45,29,25,076,44,31,73,353,45,32,32,133,49*79
###2023-12-09 12:29:40.944906$GLGSV,1,1,04,71,60,168,47,72,63,314,43,73,50,032,44,75,20,239,38*6F
###2023-12-09 12:29:40.947107$GAGSV,1,1,02,21,75,179,39,27,43,050,44,,,,,,,,*69
###2023-12-09 12:29:40.949988$GBGSV,1,1,04,14,57,199,45,25,31,251,38,26,37,056,46,33,64,260,39*6D
###2023-12-09 12:29:40.951419$GNVTG,,T,,M,0.06,N,0.11,K,A*3B
###2023-12-09 12:29:40.953445$GNGST,172940.10,31.000,,,,0.110,0.120,0.290*55
###2023-12-09 12:29:40.955083$GNZDA,172940.10,09,12,2023,00,00*79
###2023-12-09 12:29:40.955899$GNEBP,,,,,,M*13
###2023-12-09 12:29:41.121611$GNGGA,172940.30,4138.0384708,N,07032.4367990,W,1,18,0.7,12.497,M,-29.746,M,0.0,*5E
###2023-12-09 12:29:41.321640$GNGGA,172940.50,4138.0384710,N,07032.4367915,W,1,18,0.7,12.517,M,-29.746,M,0.0,*55
###2023-12-09 12:29:41.521530$GNGGA,172940.70,4138.0384703,N,07032.4367865,W,1,18,0.7,12.521,M,-29.746,M,0.0,*56
###2023-12-09 12:29:41.719137$GNGGA,172940.90,4138.0384704,N,07032.4367805,W,1,18,0.7,12.536,M,-29.746,M,0.0,*5F
###2023-12-09 12:29:41.922642$GNRMC,172941.10,A,4138.0384715,N,07032.4367745,W,0.08,,091223,,,A*42
###2023-12-09 12:29:41.925523$GNGGA,172941.10,4138.0384715,N,07032.4367745,W,1,18,0.7,12.551,M,-29.746,M,0.0,*5C
###2023-12-09 12:29:41.927434$GPGSA,A,3,03,04,16,26,28,29,31,32,,,,,1.4,0.7,1.2*35
###2023-12-09 12:29:41.929049$GLGSA,A,3,71,72,73,75,,,,,,,,,1.4,0.7,1.2*2A
###2023-12-09 12:29:41.930530$GAGSA,A,3,21,27,,,,,,,,,,,1.4,0.7,1.2*24
###2023-12-09 12:29:41.932156$GBGSA,A,3,14,25,26,33,,,,,,,,,1.4,0.7,1.2*27
###2023-12-09 12:29:41.934490$GPGSV,2,1,08,03,39,280,39,04,20,310,36,16,34,206,44,26,64,206,43*7B
###2023-12-09 12:29:41.936851$GPGSV,2,2,08,28,60,053,45,29,25,076,42,31,73,353,45,32,32,133,48*7E
###2023-12-09 12:29:41.939214$GLGSV,1,1,04,71,60,168,47,72,63,314,43,73,50,032,43,75,20,239,38*68
###2023-12-09 12:29:41.940985$GAGSV,1,1,02,21,75,179,39,27,43,050,44,,,,,,,,*69
###2023-12-09 12:29:41.943350$GBGSV,1,1,04,14,57,199,46,25,31,251,39,26,37,056,47,33,64,260,40*60
###2023-12-09 12:29:41.944498$GNVTG,,T,,M,0.08,N,0.14,K,A*30
###2023-12-09 12:29:41.946164$GNGST,172941.10,30.000,,,,0.110,0.120,0.290*55
###2023-12-09 12:29:41.947500$GNZDA,172941.10,09,12,2023,00,00*78
###2023-12-09 12:29:41.948174$GNEBP,,,,,,M*13
###2023-12-09 12:29:42.122622$GNGGA,172941.30,4138.0384718,N,07032.4367682,W,1,18,0.7,12.566,M,-29.746,M,0.0,*5D
###2023-12-09 12:29:42.321118$GNGGA,172941.50,4138.0384726,N,07032.4367609,W,1,18,0.7,12.582,M,-29.746,M,0.0,*5F
###2023-12-09 12:29:42.521074$GNGGA,172941.70,4138.0384732,N,07032.4367547,W,1,18,0.7,12.598,M,-29.746,M,0.0,*5A
###2023-12-09 12:29:42.723354$GNGGA,172941.90,4138.0384742,N,07032.4367503,W,1,18,0.7,12.611,M,-29.746,M,0.0,*51
###2023-12-09 12:29:42.924916$GNRMC,172942.10,A,4138.0384753,N,07032.4367447,W,0.04,,091223,,,A*4E
###2023-12-09 12:29:42.930251$GNGGA,172942.10,4138.0384753,N,07032.4367447,W,1,18,0.7,12.626,M,-29.746,M,0.0,*5F
###2023-12-09 12:29:42.932821$GPGSA,A,3,03,04,16,26,28,29,31,32,,,,,1.4,0.7,1.2*35
###2023-12-09 12:29:42.934415$GLGSA,A,3,71,72,73,75,,,,,,,,,1.4,0.7,1.2*2A
###2023-12-09 12:29:42.935889$GAGSA,A,3,21,27,,,,,,,,,,,1.4,0.7,1.2*24
###2023-12-09 12:29:42.937473$GBGSA,A,3,14,25,26,33,,,,,,,,,1.4,0.7,1.2*27
###2023-12-09 12:29:42.939810$GPGSV,2,1,08,03,39,280,39,04,20,310,36,16,34,206,44,26,64,206,43*7B
###2023-12-09 12:29:42.942142$GPGSV,2,2,08,28,60,053,45,29,25,076,43,31,73,353,45,32,32,133,49*7E
###2023-12-09 12:29:42.944483$GLGSV,1,1,04,71,60,168,47,72,63,314,43,73,50,032,44,75,20,239,38*6F
###2023-12-09 12:29:42.946237$GAGSV,1,1,02,21,75,179,39,27,43,050,44,,,,,,,,*69
###2023-12-09 12:29:42.948606$GBGSV,1,1,04,14,57,199,45,25,31,251,38,26,37,056,45,33,64,260,39*6E
###2023-12-09 12:29:42.949772$GNVTG,,T,,M,0.04,N,0.07,K,A*3E
###2023-12-09 12:29:42.951453$GNGST,172942.10,31.000,,,,0.110,0.120,0.290*57
###2023-12-09 12:29:42.952755$GNZDA,172942.10,09,12,2023,00,00*7B
###2023-12-09 12:29:42.953407$GNEBP,,,,,,M*13
###2023-12-09 12:29:43.121079$GNGGA,172942.30,4138.0384764,N,07032.4367407,W,1,18,0.7,12.635,M,-29.746,M,0.0,*5F
###2023-12-09 12:29:43.321071$GNGGA,172942.50,4138.0384781,N,07032.4367362,W,1,18,0.7,12.648,M,-29.746,M,0.0,*5C
###2023-12-09 12:29:43.519978$GNGGA,172942.70,4138.0384783,N,07032.4367319,W,1,18,0.7,12.660,M,-29.746,M,0.0,*5A
###2023-12-09 12:29:43.719741$GNGGA,172942.90,4138.0384791,N,07032.4367280,W,1,18,0.7,12.672,M,-29.746,M,0.0,*55
###2023-12-09 12:29:43.921646$GNRMC,172943.10,A,4138.0384801,N,07032.4367225,W,0.04,,091223,,,A*45
###2023-12-09 12:29:43.925465$GNGGA,172943.10,4138.0384801,N,07032.4367225,W,1,18,0.7,12.693,M,-29.746,M,0.0,*5A
###2023-12-09 12:29:43.927988$GPGSA,A,3,03,04,16,26,28,29,31,32,,,,,1.4,0.7,1.2*35
###2023-12-09 12:29:43.930146$GLGSA,A,3,71,72,73,75,,,,,,,,,1.4,0.7,1.2*2A
###2023-12-09 12:29:43.932135$GAGSA,A,3,21,27,,,,,,,,,,,1.4,0.7,1.2*24
###2023-12-09 12:29:43.934286$GBGSA,A,3,14,25,26,33,,,,,,,,,1.4,0.7,1.2*27
###2023-12-09 12:29:43.937676$GPGSV,2,1,08,03,39,280,39,04,20,310,36,16,34,206,44,26,64,206,43*7B
###2023-12-09 12:29:43.940811$GPGSV,2,2,08,28,60,053,45,29,25,076,44,31,73,353,45,32,32,133,49*79
###2023-12-09 12:29:43.943902$GLGSV,1,1,04,71,60,168,48,72,63,314,43,73,50,032,44,75,20,239,38*60
###2023-12-09 12:29:43.946264$GAGSV,1,1,02,21,75,179,39,27,43,050,44,,,,,,,,*69
###2023-12-09 12:29:43.949605$GBGSV,1,1,04,14,57,199,45,25,31,251,38,26,37,056,45,33,64,260,39*6E
###2023-12-09 12:29:43.951076$GNVTG,,T,,M,0.04,N,0.07,K,A*3E
###2023-12-09 12:29:43.953126$GNGST,172943.10,31.000,,,,0.110,0.120,0.290*56
###2023-12-09 12:29:43.954817$GNZDA,172943.10,09,12,2023,00,00*7A
