###2023-12-09 12:45:36.955570$GAGSA,A,3,04,19,21,27,,,,,,,,,1.1,0.6,0.9*26
###2023-12-09 12:45:36.957240$GBGSA,A,3,14,24,25,26,33,,,,,,,,1.1,0.6,0.9*2F
###2023-12-09 12:45:36.959591$GPGSV,2,1,08,03,37,270,46,04,26,311,42,16,42,209,48,26,71,208,50*7C
###2023-12-09 12:45:36.961933$GPGSV,2,2,08,28,55,061,45,29,26,069,43,31,72,015,48,32,26,136,45*75
###2023-12-09 12:45:36.964305$GLGSV,2,1,06,65,17,329,42,71,50,171,48,72,70,297,46,73,43,037,45*69
###2023-12-09 12:45:36.966060$GLGSV,2,2,06,74,71,310,43,75,26,245,42,,,,,,,,*60
###2023-12-09 12:45:36.968412$GAGSV,1,1,04,04,24,312,42,19,84,283,42,21,82,167,47,27,38,049,44*6A
###2023-12-09 12:45:36.970790$GBGSV,2,1,05,14,50,195,46,24,78,005,48,25,36,256,46,26,31,059,42*6F
###2023-12-09 12:45:36.972257$GBGSV,2,2,05,33,61,245,48,,,,,,,,,,,,*56
###2023-12-09 12:45:36.973550$GNVTG,82.06,T,,M,3.29,N,6.08,K,A*19
###2023-12-09 12:45:36.975215$GNGST,174536.10,18.000,,,,0.076,0.067,0.160*5A
###2023-12-09 12:45:36.976513$GNZDA,174536.10,09,12,2023,00,00*72
###2023-12-09 12:45:36.977154$GNEBP,,,,,,M*13
###2023-12-09 12:45:37.146543$GNGGA,174536.30,4138.0431282,N,07032.3857047,W,1,24,0.6,13.503,M,-29.745,M,0.0,*57
###2023-12-09 12:45:37.348320$GNGGA,174536.50,4138.0431674,N,07032.3854444,W,1,24,0.6,13.496,M,-29.745,M,0.0,*55
###2023-12-09 12:45:37.544710$GNGGA,174536.70,4138.0432095,N,07032.3851983,W,1,24,0.6,13.462,M,-29.745,M,0.0,*55
###2023-12-09 12:45:37.745309$GNGGA,174536.90,4138.0432860,N,07032.3849752,W,1,24,0.6,13.492,M,-29.745,M,0.0,*5D
###2023-12-09 12:45:37.946646$GNRMC,174537.10,A,4138.0433535,N,07032.3847299,W,3.63,74.58,091223,,,A*66
###2023-12-09 12:45:37.949516$GNGGA,174537.10,4138.0433535,N,07032.3847299,W,1,24,0.6,13.512,M,-29.745,M,0.0,*5D
###2023-12-09 12:45:37.951392$GPGSA,A,3,03,04,16,26,28,29,31,32,,,,,1.1,0.6,0.9*3B
###2023-12-09 12:45:37.953109$GLGSA,A,3,65,71,72,73,74,75,,,,,,,1.1,0.6,0.9*24
###2023-12-09 12:45:37.954712$GAGSA,A,3,04,19,21,27,,,,,,,,,1.1,0.6,0.9*26
###2023-12-09 12:45:37.956363$GBGSA,A,3,14,24,25,26,33,,,,,,,,1.1,0.6,0.9*2F
###2023-12-09 12:45:37.958697$GPGSV,2,1,08,03,37,270,46,04,26,311,43,16,42,209,45,26,71,208,49*78
###2023-12-09 12:45:37.961028$GPGSV,2,2,08,28,55,061,45,29,26,069,42,31,72,015,47,32,26,136,42*7C
###2023-12-09 12:45:37.963379$GLGSV,2,1,06,65,17,329,45,71,50,171,48,72,70,297,46,73,43,037,45*6E
###2023-12-09 12:45:37.965129$GLGSV,2,2,06,74,71,310,43,75,26,245,46,,,,,,,,*64
###2023-12-09 12:45:37.967466$GAGSV,1,1,04,04,24,312,42,19,84,283,40,21,82,167,46,27,38,049,41*6C
###2023-12-09 12:45:37.969787$GBGSV,2,1,05,14,50,195,45,24,78,005,48,25,36,256,44,26,31,059,44*68
###2023-12-09 12:45:37.971266$GBGSV,2,2,05,33,61,245,47,,,,,,,,,,,,*59
###2023-12-09 12:45:37.972572$GNVTG,74.58,T,,M,3.63,N,6.73,K,A*19
###2023-12-09 12:45:37.974226$GNGST,174537.10,18.000,,,,0.076,0.067,0.160*5B
###2023-12-09 12:45:37.975537$GNZDA,174537.10,09,12,2023,00,00*73
###2023-12-09 12:45:37.976181$GNEBP,,,,,,M*13
###2023-12-09 12:45:38.145704$GNGGA,174537.30,4138.0434105,N,07032.3844752,W,1,24,0.6,13.469,M,-29.745,M,0.0,*53
###2023-12-09 12:45:38.346025$GNGGA,174537.50,4138.0435060,N,07032.3842634,W,1,24,0.6,13.476,M,-29.745,M,0.0,*5F
###2023-12-09 12:45:38.547007$GNGGA,174537.70,4138.0436180,N,07032.3840564,W,1,24,0.6,13.514,M,-29.745,M,0.0,*50
###2023-12-09 12:45:38.745327$GNGGA,174537.90,4138.0437058,N,07032.3838164,W,1,24,0.6,13.499,M,-29.745,M,0.0,*54
###2023-12-09 12:45:38.948143$GNRMC,174538.10,A,4138.0437963,N,07032.3835849,W,3.40,55.34,091223,,,A*68
###2023-12-09 12:45:38.951034$GNGGA,174538.10,4138.0437963,N,07032.3835849,W,1,24,0.6,13.458,M,-29.745,M,0.0,*54
###2023-12-09 12:45:38.952899$GPGSA,A,3,03,04,16,26,28,29,31,32,,,,,1.1,0.6,0.9*3B
###2023-12-09 12:45:38.954632$GLGSA,A,3,65,71,72,73,74,75,,,,,,,1.1,0.6,0.9*24
###2023-12-09 12:45:38.956221$GAGSA,A,3,04,19,21,27,,,,,,,,,1.1,0.6,0.9*26
###2023-12-09 12:45:38.957870$GBGSA,A,3,14,24,25,26,33,,,,,,,,1.1,0.6,0.9*2F
###2023-12-09 12:45:38.960206$GPGSV,2,1,08,03,37,270,41,04,26,311,41,16,42,209,44,26,71,208,46*73
###2023-12-09 12:45:38.962542$GPGSV,2,2,08,28,55,061,42,29,26,069,40,31,72,015,45,32,26,136,43*7A
###2023-12-09 12:45:38.964903$GLGSV,2,1,06,65,17,329,41,71,50,171,49,72,70,297,46,73,43,037,43*6D
###2023-12-09 12:45:38.966681$GLGSV,2,2,06,74,71,310,43,75,26,245,45,,,,,,,,*67
###2023-12-09 12:45:38.969048$GAGSV,1,1,04,04,24,312,40,19,84,283,39,21,82,167,45,27,38,049,40*62
###2023-12-09 12:45:38.971391$GBGSV,2,1,05,14,50,195,45,24,78,005,48,25,36,256,43,26,31,059,42*69
###2023-12-09 12:45:38.972863$GBGSV,2,2,05,33,61,245,47,,,,,,,,,,,,*59
###2023-12-09 12:45:38.974158$GNVTG,55.34,T,,M,3.40,N,6.30,K,A*16
###2023-12-09 12:45:38.975817$GNGST,174538.10,18.000,,,,0.076,0.067,0.160*54
###2023-12-09 12:45:38.977108$GNZDA,174538.10,09,12,2023,00,00*7C
###2023-12-09 12:45:38.977743$GNEBP,,,,,,M*13
###2023-12-09 12:45:39.145747$GNGGA,174538.30,4138.0439287,N,07032.3834065,W,1,24,0.6,13.489,M,-29.745,M,0.0,*52
###2023-12-09 12:45:39.345893$GNGGA,174538.50,4138.0440597,N,07032.3832158,W,1,24,0.6,13.506,M,-29.745,M,0.0,*53
###2023-12-09 12:45:39.546727$GNGGA,174538.70,4138.0441722,N,07032.3829999,W,1,24,0.6,13.483,M,-29.745,M,0.0,*5F
###2023-12-09 12:45:39.748217$GNGGA,174538.90,4138.0443035,N,07032.3828153,W,1,24,0.6,13.476,M,-29.745,M,0.0,*57
###2023-12-09 12:45:39.944314$GNRMC,174539.10,A,4138.0444531,N,07032.3826476,W,3.58,40.56,091223,,,A*6D
###2023-12-09 12:45:39.947214$GNGGA,174539.10,4138.0444531,N,07032.3826476,W,1,24,0.6,13.488,M,-29.745,M,0.0,*55
###2023-12-09 12:45:39.949091$GPGSA,A,3,03,04,16,26,28,29,31,32,,,,,1.1,0.6,0.9*3B
###2023-12-09 12:45:39.950827$GLGSA,A,3,65,71,72,73,74,75,,,,,,,1.1,0.6,0.9*24
###2023-12-09 12:45:39.952415$GAGSA,A,3,04,19,21,27,,,,,,,,,1.1,0.6,0.9*26
###2023-12-09 12:45:39.954062$GBGSA,A,3,14,24,25,26,33,,,,,,,,1.1,0.6,0.9*2F
###2023-12-09 12:45:39.956406$GPGSV,2,1,08,03,37,270,43,04,26,311,42,16,42,209,45,26,71,208,48*7D
###2023-12-09 12:45:39.958759$GPGSV,2,2,08,28,55,061,43,29,26,069,39,31,72,015,46,32,26,136,44*71
###2023-12-09 12:45:39.961134$GLGSV,2,1,06,65,17,329,43,71,50,171,47,72,70,297,46,73,43,037,42*60
###2023-12-09 12:45:39.962899$GLGSV,2,2,06,74,71,310,43,75,26,245,44,,,,,,,,*66
###2023-12-09 12:45:39.965230$GAGSV,1,1,04,04,24,312,43,19,84,283,40,21,82,167,46,27,38,049,41*6D
###2023-12-09 12:45:39.967582$GBGSV,2,1,05,14,50,195,45,24,78,005,48,25,36,256,44,26,31,059,43*6F
###2023-12-09 12:45:39.969043$GBGSV,2,2,05,33,61,245,48,,,,,,,,,,,,*56
###2023-12-09 12:45:39.970337$GNVTG,40.56,T,,M,3.58,N,6.62,K,A*18
###2023-12-09 12:45:39.972000$GNGST,174539.10,18.000,,,,0.076,0.069,0.160*5B
###2023-12-09 12:45:39.973298$GNZDA,174539.10,09,12,2023,00,00*7D
###2023-12-09 12:45:39.973938$GNEBP,,,,,,M*13
###2023-12-09 12:45:40.143123$GNGGA,174539.30,4138.0445967,N,07032.3824844,W,1,24,0.6,13.475,M,-29.745,M,0.0,*54
###2023-12-09 12:45:40.344576$GNGGA,174539.50,4138.0447467,N,07032.3823273,W,1,24,0.6,13.495,M,-29.745,M,0.0,*5A
###2023-12-09 12:45:40.543616$GNGGA,174539.70,4138.0449002,N,07032.3821595,W,1,24,0.6,13.499,M,-29.745,M,0.0,*50
###2023-12-09 12:45:40.743463$GNGGA,174539.90,4138.0450563,N,07032.3820163,W,1,24,0.6,13.475,M,-29.745,M,0.0,*5A
###2023-12-09 12:45:40.945446$GNRMC,174540.10,A,4138.0452218,N,07032.3819092,W,3.34,27.42,091223,,,A*64
###2023-12-09 12:45:40.948401$GNGGA,174540.10,4138.0452218,N,07032.3819092,W,1,24,0.6,13.470,M,-29.745,M,0.0,*55
###2023-12-09 12:45:40.950279$GPGSA,A,3,03,04,16,26,28,29,31,32,,,,,1.1,0.6,0.9*3B
###2023-12-09 12:45:40.952028$GLGSA,A,3,65,71,72,73,74,75,,,,,,,1.1,0.6,0.9*24
###2023-12-09 12:45:40.953631$GAGSA,A,3,04,19,21,27,,,,,,,,,1.1,0.6,0.9*26
###2023-12-09 12:45:40.955311$GBGSA,A,3,14,24,25,26,33,,,,,,,,1.1,0.6,0.9*2F
###2023-12-09 12:45:40.957652$GPGSV,2,1,08,03,37,270,44,04,26,311,41,16,42,209,46,26,71,208,47*75
###2023-12-09 12:45:40.960012$GPGSV,2,2,08,28,55,061,43,29,26,069,39,31,72,015,45,32,26,136,43*75
###2023-12-09 12:45:40.962357$GLGSV,2,1,06,65,17,329,42,71,50,171,47,72,70,297,46,73,43,037,42*61
###2023-12-09 12:45:40.964127$GLGSV,2,2,06,74,71,310,42,75,26,245,43,,,,,,,,*60
###2023-12-09 12:45:40.966475$GAGSV,1,1,04,04,24,312,43,19,84,283,41,21,82,167,46,27,38,049,42*6F
###2023-12-09 12:45:40.969075$GBGSV,2,1,05,14,50,195,44,24,78,005,47,25,36,256,44,26,31,059,41*63
###2023-12-09 12:45:40.970554$GBGSV,2,2,05,33,61,245,48,,,,,,,,,,,,*56
###2023-12-09 12:45:40.971864$GNVTG,27.42,T,,M,3.34,N,6.19,K,A*1A
###2023-12-09 12:45:40.973530$GNGST,174540.10,18.000,,,,0.076,0.069,0.160*55
###2023-12-09 12:45:40.974847$GNZDA,174540.10,09,12,2023,00,00*73
###2023-12-09 12:45:40.975495$GNEBP,,,,,,M*13
###2023-12-09 12:45:41.142788$GNGGA,174540.30,4138.0453839,N,07032.3817793,W,1,24,0.6,13.458,M,-29.745,M,0.0,*5D
###2023-12-09 12:45:41.344572$GNGGA,174540.50,4138.0455444,N,07032.3816692,W,1,24,0.6,13.462,M,-29.745,M,0.0,*53
###2023-12-09 12:45:41.544571$GNGGA,174540.70,4138.0457109,N,07032.3815679,W,1,24,0.6,13.478,M,-29.745,M,0.0,*52
