###2023-12-09 13:42:07.029329$GNGST,184206.10,6.200,,,,0.130,0.091,0.210*62
###2023-12-09 13:42:07.030668$GNZDA,184206.10,09,12,2023,00,00*79
###2023-12-09 13:42:07.031318$GNEBP,,,,,,M*13
###2023-12-09 13:42:07.198509$GNGGA,184206.30,4138.0392797,N,07032.4258821,W,1,22,0.8,13.427,M,-29.745,M,0.0,*56
###2023-12-09 13:42:07.398920$GNGGA,184206.50,4138.0392924,N,07032.4259201,W,1,22,0.8,13.428,M,-29.745,M,0.0,*50
###2023-12-09 13:42:07.597492$GNGGA,184206.70,4138.0393065,N,07032.4259543,W,1,22,0.8,13.427,M,-29.745,M,0.0,*51
###2023-12-09 13:42:07.796738$GNGGA,184206.90,4138.0393228,N,07032.4259783,W,1,22,0.8,13.426,M,-29.745,M,0.0,*5B
###2023-12-09 13:42:08.001687$GNRMC,184207.10,A,4138.0393375,N,07032.4260070,W,0.56,287.13,091223,,,A*5B
###2023-12-09 13:42:08.004577$GNGGA,184207.10,4138.0393375,N,07032.4260070,W,1,22,0.8,13.437,M,-29.745,M,0.0,*5A
###2023-12-09 13:42:08.006439$GPGSA,A,3,03,04,09,16,26,28,29,31,,,,,1.4,0.8,1.2*32
###2023-12-09 13:42:08.008110$GLGSA,A,3,65,72,73,74,75,,,,,,,,1.4,0.8,1.2*23
###2023-12-09 13:42:08.009694$GAGSA,A,3,04,19,21,27,,,,,,,,,1.4,0.8,1.2*27
###2023-12-09 13:42:08.011351$GBGSA,A,3,12,24,25,33,35,,,,,,,,1.4,0.8,1.2*2A
###2023-12-09 13:42:08.013686$GPGSV,2,1,08,03,24,243,38,04,49,306,45,09,15,317,36,16,70,226,46*7D
###2023-12-09 13:42:08.016028$GPGSV,2,2,08,26,80,041,48,28,35,088,45,29,19,044,41,31,57,071,47*7A
###2023-12-09 13:42:08.018358$GLGSV,2,1,05,65,41,315,42,72,59,216,47,73,20,054,43,74,57,019,41*67
###2023-12-09 13:42:08.019822$GLGSV,2,2,05,75,45,276,44,,,,,,,,,,,,*50
###2023-12-09 13:42:08.022142$GAGSV,1,1,04,04,42,309,45,19,69,180,42,21,74,044,46,27,20,051,41*69
###2023-12-09 13:42:08.024483$GBGSV,2,1,05,12,17,124,38,24,60,049,49,25,53,279,48,33,43,215,47*67
###2023-12-09 13:42:08.025933$GBGSV,2,2,05,35,16,054,43,,,,,,,,,,,,*59
###2023-12-09 13:42:08.027266$GNVTG,287.13,T,,M,0.56,N,1.04,K,A*2A
###2023-12-09 13:42:08.028872$GNGST,184207.10,5.700,,,,0.130,0.091,0.210*65
###2023-12-09 13:42:08.030165$GNZDA,184207.10,09,12,2023,00,00*78
###2023-12-09 13:42:08.030816$GNEBP,,,,,,M*13
###2023-12-09 13:42:08.205573$GNGGA,184207.30,4138.0393502,N,07032.4260432,W,1,23,0.7,13.448,M,-29.745,M,0.0,*5A
###2023-12-09 13:42:08.396838$GNGGA,184207.50,4138.0393629,N,07032.4260729,W,1,23,0.7,13.438,M,-29.745,M,0.0,*58
###2023-12-09 13:42:08.597631$GNGGA,184207.70,4138.0393764,N,07032.4260938,W,1,23,0.7,13.433,M,-29.745,M,0.0,*57
###2023-12-09 13:42:08.796911$GNGGA,184207.90,4138.0393915,N,07032.4261089,W,1,22,0.8,13.433,M,-29.745,M,0.0,*5D
###2023-12-09 13:42:09.005208$GNRMC,184208.10,A,4138.0394044,N,07032.4261382,W,0.60,287.13,091223,,,A*58
###2023-12-09 13:42:09.008097$GNGGA,184208.10,4138.0394044,N,07032.4261382,W,1,22,0.7,13.437,M,-29.745,M,0.0,*53
###2023-12-09 13:42:09.009956$GPGSA,A,3,03,04,09,16,26,28,29,31,,,,,1.3,0.7,1.0*38
###2023-12-09 13:42:09.011617$GLGSA,A,3,65,72,73,74,75,,,,,,,,1.3,0.7,1.0*29
###2023-12-09 13:42:09.013201$GAGSA,A,3,04,19,21,27,,,,,,,,,1.3,0.7,1.0*2D
###2023-12-09 13:42:09.014855$GBGSA,A,3,12,24,25,33,35,,,,,,,,1.3,0.7,1.0*20
###2023-12-09 13:42:09.017180$GPGSV,2,1,08,03,24,243,38,04,49,306,45,09,15,317,38,16,70,226,45*70
###2023-12-09 13:42:09.019522$GPGSV,2,2,08,26,80,041,47,28,35,088,44,29,19,044,38,31,57,071,46*7B
###2023-12-09 13:42:09.021854$GLGSV,2,1,05,65,41,315,42,72,59,216,48,73,20,054,41,74,57,019,43*68
###2023-12-09 13:42:09.023317$GLGSV,2,2,05,75,45,276,47,,,,,,,,,,,,*53
###2023-12-09 13:42:09.025628$GAGSV,1,1,04,04,42,309,46,19,69,180,42,21,74,044,46,27,20,051,41*6A
###2023-12-09 13:42:09.027954$GBGSV,2,1,05,12,17,124,41,24,60,049,48,25,53,279,47,33,43,215,43*63
###2023-12-09 13:42:09.029406$GBGSV,2,2,05,35,16,054,43,,,,,,,,,,,,*59
###2023-12-09 13:42:09.030737$GNVTG,287.13,T,,M,0.60,N,1.12,K,A*28
###2023-12-09 13:42:09.032346$GNGST,184208.10,6.300,,,,0.130,0.091,0.210*6D
###2023-12-09 13:42:09.033634$GNZDA,184208.10,09,12,2023,00,00*77
###2023-12-09 13:42:09.034270$GNEBP,,,,,,M*13
###2023-12-09 13:42:09.205078$GNGGA,184208.30,4138.0394157,N,07032.4261790,W,1,22,0.7,13.431,M,-29.745,M,0.0,*53
###2023-12-09 13:42:09.400193$GNGGA,184208.50,4138.0394269,N,07032.4262045,W,1,22,0.7,13.427,M,-29.745,M,0.0,*50
###2023-12-09 13:42:09.597410$GNGGA,184208.70,4138.0394382,N,07032.4262037,W,1,22,0.7,13.438,M,-29.745,M,0.0,*5D
###2023-12-09 13:42:09.798703$GNGGA,184208.90,4138.0394506,N,07032.4262096,W,1,22,0.7,13.443,M,-29.745,M,0.0,*5E
###2023-12-09 13:42:09.999004$GNRMC,184209.10,A,4138.0394617,N,07032.4262518,W,0.82,287.13,091223,,,A*53
###2023-12-09 13:42:10.001863$GNGGA,184209.10,4138.0394617,N,07032.4262518,W,1,23,0.7,13.443,M,-29.745,M,0.0,*56
###2023-12-09 13:42:10.003727$GPGSA,A,3,03,04,09,16,26,28,29,31,,,,,1.2,0.7,0.9*31
###2023-12-09 13:42:10.005385$GLGSA,A,3,65,72,73,74,75,,,,,,,,1.2,0.7,0.9*20
###2023-12-09 13:42:10.006979$GAGSA,A,3,04,19,21,27,,,,,,,,,1.2,0.7,0.9*24
###2023-12-09 13:42:10.008630$GBGSA,A,3,12,24,25,33,35,,,,,,,,1.2,0.7,0.9*29
###2023-12-09 13:42:10.010981$GPGSV,2,1,08,03,24,243,38,04,49,306,45,09,15,317,39,16,70,226,46*72
###2023-12-09 13:42:10.013315$GPGSV,2,2,08,26,80,041,48,28,35,088,44,29,19,044,41,31,57,071,47*7B
###2023-12-09 13:42:10.015673$GLGSV,2,1,05,65,41,315,44,72,59,216,47,73,20,054,43,74,57,019,42*62
###2023-12-09 13:42:10.017137$GLGSV,2,2,05,75,45,276,47,,,,,,,,,,,,*53
###2023-12-09 13:42:10.019487$GAGSV,1,1,04,04,42,309,46,19,69,180,42,21,74,044,46,27,20,051,41*6A
###2023-12-09 13:42:10.021830$GBGSV,2,1,05,12,17,124,40,24,60,049,47,25,53,279,48,33,43,215,45*64
###2023-12-09 13:42:10.023302$GBGSV,2,2,05,35,16,054,43,,,,,,,,,,,,*59
###2023-12-09 13:42:10.024624$GNVTG,287.13,T,,M,0.82,N,1.51,K,A*23
###2023-12-09 13:42:10.026245$GNGST,184209.10,6.900,,,,0.130,0.090,0.210*67
###2023-12-09 13:42:10.027546$GNZDA,184209.10,09,12,2023,00,00*76
###2023-12-09 13:42:10.028189$GNEBP,,,,,,M*13
###2023-12-09 13:42:10.199200$GNGGA,184209.30,4138.0394724,N,07032.4262999,W,1,23,0.7,13.454,M,-29.745,M,0.0,*56
###2023-12-09 13:42:10.396965$GNGGA,184209.50,4138.0394835,N,07032.4263083,W,1,23,0.7,13.471,M,-29.745,M,0.0,*5B
###2023-12-09 13:42:10.594541$GNGGA,184209.70,4138.0394942,N,07032.4262939,W,1,23,0.7,13.445,M,-29.745,M,0.0,*56
###2023-12-09 13:42:10.796264$GNGGA,184209.90,4138.0395026,N,07032.4263008,W,1,23,0.7,13.429,M,-29.745,M,0.0,*52
###2023-12-09 13:42:10.998319$GNRMC,184210.10,A,4138.0395129,N,07032.4263582,W,1.13,282.64,091223,,,A*5E
###2023-12-09 13:42:11.001386$GNGGA,184210.10,4138.0395129,N,07032.4263582,W,1,23,0.7,13.467,M,-29.745,M,0.0,*51
###2023-12-09 13:42:11.003345$GPGSA,A,3,03,04,09,16,26,28,29,31,,,,,1.2,0.7,0.9*31
###2023-12-09 13:42:11.004998$GLGSA,A,3,65,72,73,74,75,,,,,,,,1.2,0.7,0.9*20
###2023-12-09 13:42:11.006597$GAGSA,A,3,04,19,21,27,,,,,,,,,1.2,0.7,0.9*24
###2023-12-09 13:42:11.008233$GBGSA,A,3,12,24,25,33,35,,,,,,,,1.2,0.7,0.9*29
###2023-12-09 13:42:11.010571$GPGSV,2,1,08,03,24,243,38,04,49,306,44,09,15,317,38,16,70,226,47*73
###2023-12-09 13:42:11.012910$GPGSV,2,2,08,26,80,041,48,28,35,088,44,29,19,044,42,31,57,071,46*79
###2023-12-09 13:42:11.015247$GLGSV,2,1,05,65,41,315,44,72,59,216,45,73,20,054,40,74,57,019,42*63
###2023-12-09 13:42:11.016693$GLGSV,2,2,05,75,45,276,48,,,,,,,,,,,,*5C
###2023-12-09 13:42:11.019035$GAGSV,1,1,04,04,42,309,44,19,69,180,42,21,74,044,46,27,20,051,40*69
###2023-12-09 13:42:11.021364$GBGSV,2,1,05,12,17,124,40,24,60,049,48,25,53,279,48,33,43,215,47*69
###2023-12-09 13:42:11.022826$GBGSV,2,2,05,35,16,054,43,,,,,,,,,,,,*59
###2023-12-09 13:42:11.024150$GNVTG,282.64,T,,M,1.13,N,2.09,K,A*21
###2023-12-09 13:42:11.025769$GNGST,184210.10,6.400,,,,0.130,0.090,0.210*62
###2023-12-09 13:42:11.027074$GNZDA,184210.10,09,12,2023,00,00*7E
###2023-12-09 13:42:11.027710$GNEBP,,,,,,M*13
###2023-12-09 13:42:11.197038$GNGGA,184210.30,4138.0395270,N,07032.4264209,W,1,22,0.8,13.464,M,-29.745,M,0.0,*52
###2023-12-09 13:42:11.395038$GNGGA,184210.50,4138.0395379,N,07032.4264070,W,1,23,0.7,13.467,M,-29.745,M,0.0,*5D
###2023-12-09 13:42:11.596551$GNGGA,184210.70,4138.0395492,N,07032.4263672,W,1,23,0.7,13.434,M,-29.745,M,0.0,*58
###2023-12-09 13:42:11.794984$GNGGA,184210.90,4138.0395577,N,07032.4263912,W,1,24,0.7,13.442,M,-29.745,M,0.0,*53
###2023-12-09 13:42:11.997131$GNRMC,184211.10,A,4138.0395674,N,07032.4264734,W,1.11,278.70,091223,,,A*5A
###2023-12-09 13:42:12.000029$GNGGA,184211.10,4138.0395674,N,07032.4264734,W,1,23,0.7,13.456,M,-29.745,M,0.0,*55
###2023-12-09 13:42:12.001894$GPGSA,A,3,03,04,09,16,26,28,29,31,,,,,1.2,0.7,0.9*31
###2023-12-09 13:42:12.003564$GLGSA,A,3,65,72,73,74,75,,,,,,,,1.2,0.7,0.9*20
###2023-12-09 13:42:12.005145$GAGSA,A,3,04,19,21,27,,,,,,,,,1.2,0.7,0.9*24
###2023-12-09 13:42:12.006802$GBGSA,A,3,12,24,25,33,35,,,,,,,,1.2,0.7,0.9*29
###2023-12-09 13:42:12.009126$GPGSV,2,1,08,03,24,243,37,04,49,306,46,09,15,317,39,16,70,226,46*7E
###2023-12-09 13:42:12.011475$GPGSV,2,2,08,26,80,041,47,28,35,088,45,29,19,044,39,31,57,071,45*78
###2023-12-09 13:42:12.013804$GLGSV,2,1,05,65,41,315,45,72,59,216,47,73,20,054,37,74,57,019,41*63
