###2023-12-09 13:17:59.992311$GNGGA,181759.10,4138.0223913,N,07032.2944251,W,1,24,0.7,12.769,M,-29.744,M,0.0,*5A
###2023-12-09 13:17:59.994505$GPGSA,A,3,03,04,16,26,28,29,31,,,,,,1.2,0.7,0.9*38
###2023-12-09 13:17:59.996621$GLGSA,A,3,65,71,72,73,74,75,,,,,,,1.2,0.7,0.9*26
###2023-12-09 13:17:59.998536$GAGSA,A,3,04,19,21,27,,,,,,,,,1.2,0.7,0.9*24
###2023-12-09 13:18:00.000611$GBGSA,A,3,14,24,25,26,33,35,,,,,,,1.2,0.7,0.9*2B
###2023-12-09 13:18:00.003439$GPGSV,2,1,07,03,31,253,41,04,39,310,44,16,58,216,45,26,88,205,47*7F
###2023-12-09 13:18:00.005899$GPGSV,2,2,07,28,43,078,45,29,23,053,42,31,64,053,46,,,,*43
###2023-12-09 13:18:00.008718$GLGSV,2,1,06,65,31,324,43,71,32,174,43,72,70,240,45,73,29,047,44*68
###2023-12-09 13:18:00.010864$GLGSV,2,2,06,74,65,358,43,75,38,261,46,,,,,,,,*64
###2023-12-09 13:18:00.013657$GAGSV,1,1,04,04,34,311,42,19,78,188,40,21,82,059,46,27,28,049,41*68
###2023-12-09 13:18:00.016476$GBGSV,2,1,06,14,36,191,42,24,68,036,50,25,45,268,47,26,21,066,45*66
###2023-12-09 13:18:00.018596$GBGSV,2,2,06,33,52,224,47,35,16,063,45,,,,,,,,*68
###2023-12-09 13:18:00.020233$GNVTG,183.04,T,,M,3.58,N,6.62,K,A*21
###2023-12-09 13:18:00.022233$GNGST,181759.10,18.000,,,,0.100,0.069,0.160*55
###2023-12-09 13:18:00.023806$GNZDA,181759.10,09,12,2023,00,00*73
###2023-12-09 13:18:00.024579$GNEBP,,,,,,M*13
###2023-12-09 13:18:00.183411$GNGGA,181759.30,4138.0221951,N,07032.2944277,W,1,24,0.7,12.757,M,-29.744,M,0.0,*55
###2023-12-09 13:18:00.383157$GNGGA,181759.50,4138.0220007,N,07032.2944207,W,1,24,0.7,12.754,M,-29.744,M,0.0,*5C
###2023-12-09 13:18:00.582415$GNGGA,181759.70,4138.0218093,N,07032.2944245,W,1,24,0.7,12.774,M,-29.744,M,0.0,*5C
###2023-12-09 13:18:00.783267$GNGGA,181759.90,4138.0216123,N,07032.2944043,W,1,24,0.7,12.758,M,-29.744,M,0.0,*5C
###2023-12-09 13:18:00.988439$GNRMC,181800.10,A,4138.0214244,N,07032.2943812,W,3.38,181.45,091223,,,A*53
###2023-12-09 13:18:00.991298$GNGGA,181800.10,4138.0214244,N,07032.2943812,W,1,24,0.7,12.739,M,-29.744,M,0.0,*5B
###2023-12-09 13:18:00.993099$GPGSA,A,3,03,04,16,26,28,29,31,,,,,,1.2,0.7,0.9*38
###2023-12-09 13:18:00.994841$GLGSA,A,3,65,71,72,73,74,75,,,,,,,1.2,0.7,0.9*26
###2023-12-09 13:18:00.996427$GAGSA,A,3,04,19,21,27,,,,,,,,,1.2,0.7,0.9*24
###2023-12-09 13:18:00.998141$GBGSA,A,3,14,24,25,26,33,35,,,,,,,1.2,0.7,0.9*2B
###2023-12-09 13:18:01.000486$GPGSV,2,1,07,03,31,253,42,04,39,310,44,16,58,216,45,26,88,205,48*73
###2023-12-09 13:18:01.002530$GPGSV,2,2,07,28,43,078,44,29,23,053,44,31,64,053,47,,,,*45
###2023-12-09 13:18:01.004870$GLGSV,2,1,06,65,31,324,43,71,32,174,41,72,70,240,45,73,29,047,45*6B
###2023-12-09 13:18:01.006655$GLGSV,2,2,06,74,65,358,43,75,38,261,45,,,,,,,,*67
###2023-12-09 13:18:01.008983$GAGSV,1,1,04,04,34,311,43,19,78,188,40,21,82,059,46,27,28,049,42*6A
###2023-12-09 13:18:01.011318$GBGSV,2,1,06,14,36,191,43,24,68,036,49,25,45,268,47,26,21,066,45*6F
###2023-12-09 13:18:01.013057$GBGSV,2,2,06,33,52,224,47,35,16,063,44,,,,,,,,*69
###2023-12-09 13:18:01.014375$GNVTG,181.45,T,,M,3.38,N,6.26,K,A*20
###2023-12-09 13:18:01.016033$GNGST,181800.10,18.000,,,,0.100,0.069,0.160*56
###2023-12-09 13:18:01.017320$GNZDA,181800.10,09,12,2023,00,00*70
###2023-12-09 13:18:01.017959$GNEBP,,,,,,M*13
###2023-12-09 13:18:01.181558$GNGGA,181800.30,4138.0212347,N,07032.2944064,W,1,24,0.7,12.781,M,-29.744,M,0.0,*50
###2023-12-09 13:18:01.382553$GNGGA,181800.50,4138.0210389,N,07032.2944212,W,1,24,0.7,12.788,M,-29.744,M,0.0,*5C
###2023-12-09 13:18:01.582483$GNGGA,181800.70,4138.0208476,N,07032.2944007,W,1,24,0.7,12.760,M,-29.744,M,0.0,*50
###2023-12-09 13:18:01.782374$GNGGA,181800.90,4138.0206619,N,07032.2944001,W,1,24,0.7,12.778,M,-29.744,M,0.0,*54
###2023-12-09 13:18:01.992130$GNRMC,181801.10,A,4138.0204657,N,07032.2944315,W,3.67,186.42,091223,,,A*54
###2023-12-09 13:18:01.994993$GNGGA,181801.10,4138.0204657,N,07032.2944315,W,1,24,0.7,12.800,M,-29.744,M,0.0,*53
###2023-12-09 13:18:01.996780$GPGSA,A,3,03,04,16,26,28,29,31,,,,,,1.2,0.7,0.9*38
###2023-12-09 13:18:01.998487$GLGSA,A,3,65,71,72,73,74,75,,,,,,,1.2,0.7,0.9*26
###2023-12-09 13:18:02.000081$GAGSA,A,3,04,19,21,27,,,,,,,,,1.2,0.7,0.9*24
###2023-12-09 13:18:02.001790$GBGSA,A,3,14,24,25,26,33,35,,,,,,,1.2,0.7,0.9*2B
###2023-12-09 13:18:02.004119$GPGSV,2,1,07,03,31,253,41,04,39,310,45,16,58,216,46,26,88,205,48*72
###2023-12-09 13:18:02.006147$GPGSV,2,2,07,28,43,078,45,29,23,053,42,31,64,053,47,,,,*42
###2023-12-09 13:18:02.008473$GLGSV,2,1,06,65,31,324,42,71,32,174,43,72,70,240,46,73,29,047,43*6D
###2023-12-09 13:18:02.010213$GLGSV,2,2,06,74,65,358,43,75,38,261,47,,,,,,,,*65
###2023-12-09 13:18:02.012536$GAGSV,1,1,04,04,34,311,44,19,78,188,40,21,82,059,46,27,28,049,41*6E
###2023-12-09 13:18:02.014871$GBGSV,2,1,06,14,36,191,41,24,68,036,48,25,45,268,46,26,21,066,43*6B
###2023-12-09 13:18:02.016616$GBGSV,2,2,06,33,52,224,44,35,16,063,44,,,,,,,,*6A
###2023-12-09 13:18:02.017944$GNVTG,186.42,T,,M,3.67,N,6.80,K,A*26
###2023-12-09 13:18:02.019608$GNGST,181801.10,18.000,,,,0.100,0.069,0.160*57
###2023-12-09 13:18:02.020908$GNZDA,181801.10,09,12,2023,00,00*71
###2023-12-09 13:18:02.021546$GNEBP,,,,,,M*13
###2023-12-09 13:18:02.182613$GNGGA,181801.30,4138.0202728,N,07032.2944549,W,1,24,0.7,12.776,M,-29.744,M,0.0,*5F
###2023-12-09 13:18:02.381513$GNGGA,181801.50,4138.0200822,N,07032.2944561,W,1,24,0.7,12.783,M,-29.744,M,0.0,*5E
###2023-12-09 13:18:02.583335$GNGGA,181801.70,4138.0198888,N,07032.2944691,W,1,24,0.7,12.801,M,-29.744,M,0.0,*57
###2023-12-09 13:18:02.782337$GNGGA,181801.90,4138.0196938,N,07032.2944910,W,1,24,0.7,12.785,M,-29.744,M,0.0,*58
###2023-12-09 13:18:02.985032$GNRMC,181802.10,A,4138.0195044,N,07032.2945171,W,3.42,185.59,091223,,,A*57
###2023-12-09 13:18:02.987924$GNGGA,181802.10,4138.0195044,N,07032.2945171,W,1,24,0.7,12.789,M,-29.744,M,0.0,*50
###2023-12-09 13:18:02.989727$GPGSA,A,3,03,04,16,26,28,29,31,,,,,,1.2,0.7,0.9*38
###2023-12-09 13:18:02.991456$GLGSA,A,3,65,71,72,73,74,75,,,,,,,1.2,0.7,0.9*26
###2023-12-09 13:18:02.993041$GAGSA,A,3,04,19,21,27,,,,,,,,,1.2,0.7,0.9*24
###2023-12-09 13:18:02.994762$GBGSA,A,3,14,24,25,26,33,35,,,,,,,1.2,0.7,0.9*2B
###2023-12-09 13:18:02.997082$GPGSV,2,1,07,03,31,253,42,04,39,310,45,16,58,216,45,26,88,205,48*72
###2023-12-09 13:18:02.999127$GPGSV,2,2,07,28,43,078,45,29,23,053,41,31,64,053,47,,,,*41
###2023-12-09 13:18:03.001448$GLGSV,2,1,06,65,31,324,42,71,32,174,41,72,70,240,45,73,29,047,43*6C
###2023-12-09 13:18:03.003200$GLGSV,2,2,06,74,65,358,43,75,38,261,46,,,,,,,,*64
###2023-12-09 13:18:03.005517$GAGSV,1,1,04,04,34,311,43,19,78,188,40,21,82,059,46,27,28,049,40*68
###2023-12-09 13:18:03.007847$GBGSV,2,1,06,14,36,191,42,24,68,036,49,25,45,268,46,26,21,066,44*6E
###2023-12-09 13:18:03.009584$GBGSV,2,2,06,33,52,224,46,35,16,063,44,,,,,,,,*68
###2023-12-09 13:18:03.010917$GNVTG,185.59,T,,M,3.42,N,6.34,K,A*27
###2023-12-09 13:18:03.012562$GNGST,181802.10,18.000,,,,0.100,0.069,0.160*54
###2023-12-09 13:18:03.013851$GNZDA,181802.10,09,12,2023,00,00*72
###2023-12-09 13:18:03.014492$GNEBP,,,,,,M*13
###2023-12-09 13:18:03.184338$GNGGA,181802.30,4138.0193139,N,07032.2945368,W,1,24,0.7,12.810,M,-29.744,M,0.0,*5A
###2023-12-09 13:18:03.380653$GNGGA,181802.50,4138.0191228,N,07032.2945583,W,1,24,0.7,12.812,M,-29.744,M,0.0,*5C
###2023-12-09 13:18:03.582043$GNGGA,181802.70,4138.0189293,N,07032.2945583,W,1,24,0.7,12.785,M,-29.744,M,0.0,*56
###2023-12-09 13:18:03.783284$GNGGA,181802.90,4138.0187402,N,07032.2945773,W,1,24,0.7,12.801,M,-29.744,M,0.0,*56
###2023-12-09 13:18:03.987292$GNRMC,181803.10,A,4138.0185460,N,07032.2946140,W,3.58,183.45,091223,,,A*54
###2023-12-09 13:18:03.990757$GNGGA,181803.10,4138.0185460,N,07032.2946140,W,1,24,0.7,12.822,M,-29.744,M,0.0,*5D
###2023-12-09 13:18:03.992921$GPGSA,A,3,03,04,16,26,28,29,31,,,,,,1.2,0.7,0.9*38
###2023-12-09 13:18:03.995009$GLGSA,A,3,65,71,72,73,74,75,,,,,,,1.2,0.7,0.9*26
###2023-12-09 13:18:03.996916$GAGSA,A,3,04,19,21,27,,,,,,,,,1.2,0.7,0.9*24
###2023-12-09 13:18:03.998997$GBGSA,A,3,14,24,25,26,33,35,,,,,,,1.2,0.7,0.9*2B
###2023-12-09 13:18:04.001803$GPGSV,2,1,07,03,31,253,42,04,39,310,45,16,58,216,46,26,88,205,48*71
###2023-12-09 13:18:04.004321$GPGSV,2,2,07,28,43,078,45,29,23,053,40,31,64,053,47,,,,*40
###2023-12-09 13:18:04.007442$GLGSV,2,1,06,65,31,324,43,71,32,174,43,72,70,240,46,73,29,047,44*6B
###2023-12-09 13:18:04.009571$GLGSV,2,2,06,74,65,358,43,75,38,261,47,,,,,,,,*65
###2023-12-09 13:18:04.012407$GAGSV,1,1,04,04,34,311,44,19,78,188,40,21,82,059,46,27,27,049,40*60
###2023-12-09 13:18:04.015235$GBGSV,2,1,06,14,36,191,41,24,68,036,48,25,45,268,46,26,21,066,41*69
###2023-12-09 13:18:04.017354$GBGSV,2,2,06,33,52,224,45,35,16,063,43,,,,,,,,*6C
###2023-12-09 13:18:04.018968$GNVTG,183.45,T,,M,3.58,N,6.62,K,A*24
###2023-12-09 13:18:04.020970$GNGST,181803.10,18.000,,,,0.100,0.070,0.160*5D
###2023-12-09 13:18:04.022531$GNZDA,181803.10,09,12,2023,00,00*73
###2023-12-09 13:18:04.023321$GNEBP,,,,,,M*13
