###2023-12-09 13:16:48.012639$GNVTG,197.73,T,,M,2.59,N,4.79,K,A*2C
###2023-12-09 13:16:48.014315$GNGST,181647.10,18.000,,,,0.097,0.072,0.170*5F
###2023-12-09 13:16:48.015650$GNZDA,181647.10,09,12,2023,00,00*7D
###2023-12-09 13:16:48.016300$GNEBP,,,,,,M*13
###2023-12-09 13:16:48.177920$GNGGA,181647.30,4138.0881762,N,07032.2856204,W,1,24,0.7,13.179,M,-29.742,M,0.0,*5E
###2023-12-09 13:16:48.378066$GNGGA,181647.50,4138.0880247,N,07032.2857277,W,1,24,0.7,13.133,M,-29.742,M,0.0,*50
###2023-12-09 13:16:48.581876$GNGGA,181647.70,4138.0879244,N,07032.2859143,W,1,24,0.7,13.171,M,-29.742,M,0.0,*5B
###2023-12-09 13:16:48.779898$GNGGA,181647.90,4138.0878311,N,07032.2861154,W,1,24,0.7,13.212,M,-29.742,M,0.0,*5E
###2023-12-09 13:16:48.983127$GNRMC,181648.10,A,4138.0876807,N,07032.2862374,W,3.34,202.17,091223,,,A*58
###2023-12-09 13:16:48.985977$GNGGA,181648.10,4138.0876807,N,07032.2862374,W,1,24,0.7,13.208,M,-29.742,M,0.0,*53
###2023-12-09 13:16:48.987783$GPGSA,A,3,03,04,16,26,28,29,31,,,,,,1.2,0.7,1.0*30
###2023-12-09 13:16:48.989492$GLGSA,A,3,65,71,72,73,74,75,,,,,,,1.2,0.7,1.0*2E
###2023-12-09 13:16:48.991081$GAGSA,A,3,04,19,21,27,,,,,,,,,1.2,0.7,1.0*2C
###2023-12-09 13:16:48.992787$GBGSA,A,3,14,24,25,26,33,35,,,,,,,1.2,0.7,1.0*23
###2023-12-09 13:16:48.995119$GPGSV,2,1,07,03,32,254,42,04,38,311,46,16,57,216,46,26,87,208,48*7B
###2023-12-09 13:16:48.997150$GPGSV,2,2,07,28,44,077,44,29,24,054,41,31,65,052,46,,,,*49
###2023-12-09 13:16:48.999489$GLGSV,2,1,06,65,31,324,44,71,32,174,43,72,70,240,45,73,29,047,45*6E
###2023-12-09 13:16:49.001231$GLGSV,2,2,06,74,65,358,43,75,38,261,46,,,,,,,,*64
###2023-12-09 13:16:49.003565$GAGSV,1,1,04,04,34,312,44,19,79,190,40,21,83,062,45,27,28,049,41*6F
###2023-12-09 13:16:49.005889$GBGSV,2,1,06,14,36,191,43,24,68,036,48,25,45,268,47,26,21,066,41*6A
###2023-12-09 13:16:49.007646$GBGSV,2,2,06,33,52,224,46,35,16,063,43,,,,,,,,*6F
###2023-12-09 13:16:49.008963$GNVTG,202.17,T,,M,3.34,N,6.19,K,A*2F
###2023-12-09 13:16:49.010618$GNGST,181648.10,18.000,,,,0.097,0.072,0.170*50
###2023-12-09 13:16:49.011911$GNZDA,181648.10,09,12,2023,00,00*72
###2023-12-09 13:16:49.012548$GNEBP,,,,,,M*13
###2023-12-09 13:16:49.177215$GNGGA,181648.30,4138.0875309,N,07032.2863584,W,1,24,0.7,13.153,M,-29.742,M,0.0,*52
###2023-12-09 13:16:49.378026$GNGGA,181648.50,4138.0874397,N,07032.2865702,W,1,24,0.7,13.202,M,-29.742,M,0.0,*5F
###2023-12-09 13:16:49.578890$GNGGA,181648.70,4138.0873549,N,07032.2867938,W,1,24,0.7,13.220,M,-29.742,M,0.0,*5A
###2023-12-09 13:16:49.777792$GNGGA,181648.90,4138.0872285,N,07032.2869562,W,1,24,0.7,13.190,M,-29.742,M,0.0,*57
###2023-12-09 13:16:49.981475$GNRMC,181649.10,A,4138.0871176,N,07032.2871316,W,3.15,240.19,091223,,,A*5C
###2023-12-09 13:16:49.984348$GNGGA,181649.10,4138.0871176,N,07032.2871316,W,1,24,0.7,13.201,M,-29.742,M,0.0,*55
###2023-12-09 13:16:49.986141$GPGSA,A,3,03,04,16,26,28,29,31,,,,,,1.2,0.7,1.0*30
###2023-12-09 13:16:49.987866$GLGSA,A,3,65,71,72,73,74,75,,,,,,,1.2,0.7,1.0*2E
###2023-12-09 13:16:49.989449$GAGSA,A,3,04,19,21,27,,,,,,,,,1.2,0.7,1.0*2C
###2023-12-09 13:16:49.991175$GBGSA,A,3,14,24,25,26,33,35,,,,,,,1.2,0.7,1.0*23
###2023-12-09 13:16:49.993501$GPGSV,2,1,07,03,32,254,41,04,38,311,43,16,57,216,45,26,87,208,48*7E
###2023-12-09 13:16:49.995548$GPGSV,2,2,07,28,44,077,45,29,24,054,43,31,65,052,47,,,,*4B
###2023-12-09 13:16:49.997888$GLGSV,2,1,06,65,31,324,42,71,32,174,46,72,70,240,45,73,29,047,43*6B
###2023-12-09 13:16:49.999672$GLGSV,2,2,06,74,65,358,43,75,38,261,44,,,,,,,,*66
###2023-12-09 13:16:50.002005$GAGSV,1,1,04,04,34,312,41,19,79,190,40,21,83,062,46,27,28,049,40*68
###2023-12-09 13:16:50.004348$GBGSV,2,1,06,14,36,191,44,24,68,036,50,25,45,268,45,26,21,066,44*63
###2023-12-09 13:16:50.006096$GBGSV,2,2,06,33,52,224,46,35,16,063,45,,,,,,,,*69
###2023-12-09 13:16:50.007438$GNVTG,240.19,T,,M,3.15,N,5.83,K,A*24
###2023-12-09 13:16:50.009085$GNGST,181649.10,18.000,,,,0.097,0.072,0.170*51
###2023-12-09 13:16:50.010375$GNZDA,181649.10,09,12,2023,00,00*73
###2023-12-09 13:16:50.011024$GNEBP,,,,,,M*13
###2023-12-09 13:16:50.177985$GNGGA,181649.30,4138.0870442,N,07032.2873529,W,1,24,0.7,13.230,M,-29.742,M,0.0,*5E
###2023-12-09 13:16:50.377649$GNGGA,181649.50,4138.0869705,N,07032.2875728,W,1,24,0.7,13.198,M,-29.742,M,0.0,*54
###2023-12-09 13:16:50.579238$GNGGA,181649.70,4138.0868883,N,07032.2877770,W,1,24,0.7,13.178,M,-29.742,M,0.0,*57
###2023-12-09 13:16:50.778924$GNGGA,181649.90,4138.0868053,N,07032.2879927,W,1,24,0.7,13.212,M,-29.742,M,0.0,*51
###2023-12-09 13:16:50.983900$GNRMC,181650.10,A,4138.0867315,N,07032.2882314,W,3.44,246.88,091223,,,A*50
###2023-12-09 13:16:50.987390$GNGGA,181650.10,4138.0867315,N,07032.2882314,W,1,24,0.7,13.229,M,-29.742,M,0.0,*59
###2023-12-09 13:16:50.989565$GPGSA,A,3,03,04,16,26,28,29,31,,,,,,1.2,0.7,1.0*30
###2023-12-09 13:16:50.991687$GLGSA,A,3,65,71,72,73,74,75,,,,,,,1.2,0.7,1.0*2E
###2023-12-09 13:16:50.993604$GAGSA,A,3,04,19,21,27,,,,,,,,,1.2,0.7,1.0*2C
###2023-12-09 13:16:50.995692$GBGSA,A,3,14,24,25,26,33,35,,,,,,,1.2,0.7,1.0*23
###2023-12-09 13:16:50.998512$GPGSV,2,1,07,03,32,254,43,04,38,311,44,16,57,216,46,26,87,208,48*78
###2023-12-09 13:16:51.001002$GPGSV,2,2,07,28,44,077,45,29,24,054,43,31,65,052,47,,,,*4B
###2023-12-09 13:16:51.003868$GLGSV,2,1,06,65,31,324,42,71,32,174,44,72,70,240,45,73,29,047,43*69
###2023-12-09 13:16:51.005992$GLGSV,2,2,06,74,65,358,42,75,38,261,44,,,,,,,,*67
###2023-12-09 13:16:51.008816$GAGSV,1,1,04,04,34,312,41,19,79,190,40,21,83,062,46,27,28,049,40*68
###2023-12-09 13:16:51.011644$GBGSV,2,1,06,14,36,191,43,24,68,036,48,25,45,268,45,26,21,066,42*6B
###2023-12-09 13:16:51.013753$GBGSV,2,2,06,33,52,224,46,35,16,063,43,,,,,,,,*6F
###2023-12-09 13:16:51.015373$GNVTG,246.88,T,,M,3.44,N,6.37,K,A*22
###2023-12-09 13:16:51.017353$GNGST,181650.10,18.000,,,,0.097,0.072,0.170*59
###2023-12-09 13:16:51.018926$GNZDA,181650.10,09,12,2023,00,00*7B
###2023-12-09 13:16:51.019698$GNEBP,,,,,,M*13
###2023-12-09 13:16:51.180846$GNGGA,181650.30,4138.0866609,N,07032.2884593,W,1,24,0.7,13.229,M,-29.742,M,0.0,*5D
###2023-12-09 13:16:51.377571$GNGGA,181650.50,4138.0865842,N,07032.2886947,W,1,24,0.7,13.237,M,-29.742,M,0.0,*51
###2023-12-09 13:16:51.578448$GNGGA,181650.70,4138.0864963,N,07032.2889234,W,1,24,0.7,13.214,M,-29.742,M,0.0,*51
###2023-12-09 13:16:51.779066$GNGGA,181650.90,4138.0864044,N,07032.2891448,W,1,24,0.7,13.202,M,-29.742,M,0.0,*50
###2023-12-09 13:16:51.981976$GNRMC,181651.10,A,4138.0863157,N,07032.2893702,W,3.48,244.27,091223,,,A*59
###2023-12-09 13:16:51.984848$GNGGA,181651.10,4138.0863157,N,07032.2893702,W,1,24,0.7,13.208,M,-29.742,M,0.0,*58
###2023-12-09 13:16:51.986654$GPGSA,A,3,03,04,16,26,28,29,31,,,,,,1.2,0.7,1.0*30
###2023-12-09 13:16:51.988368$GLGSA,A,3,65,71,72,73,74,75,,,,,,,1.2,0.7,1.0*2E
###2023-12-09 13:16:51.989942$GAGSA,A,3,04,19,21,27,,,,,,,,,1.2,0.7,1.0*2C
###2023-12-09 13:16:51.991661$GBGSA,A,3,14,24,25,26,33,35,,,,,,,1.2,0.7,1.0*23
###2023-12-09 13:16:51.993983$GPGSV,2,1,07,03,32,254,39,04,38,311,41,16,57,216,44,26,87,208,46*7C
###2023-12-09 13:16:51.996024$GPGSV,2,2,07,28,44,077,43,29,24,054,40,31,65,052,45,,,,*4C
###2023-12-09 13:16:51.998351$GLGSV,2,1,06,65,31,324,42,71,32,174,45,72,70,240,45,73,29,047,43*68
###2023-12-09 13:16:52.000116$GLGSV,2,2,06,74,65,358,43,75,38,261,45,,,,,,,,*67
###2023-12-09 13:16:52.002436$GAGSV,1,1,04,04,34,312,40,19,79,190,39,21,83,062,45,27,28,049,39*6A
###2023-12-09 13:16:52.004771$GBGSV,2,1,06,14,36,191,43,24,68,036,48,25,45,268,45,26,21,066,45*6C
###2023-12-09 13:16:52.006517$GBGSV,2,2,06,33,52,224,46,35,16,063,45,,,,,,,,*69
###2023-12-09 13:16:52.007848$GNVTG,244.27,T,,M,3.48,N,6.44,K,A*2D
###2023-12-09 13:16:52.009489$GNGST,181651.10,18.000,,,,0.097,0.072,0.170*58
###2023-12-09 13:16:52.010818$GNZDA,181651.10,09,12,2023,00,00*7A
###2023-12-09 13:16:52.011459$GNEBP,,,,,,M*13
###2023-12-09 13:16:52.176828$GNGGA,181651.30,4138.0862385,N,07032.2896100,W,1,24,0.7,13.229,M,-29.742,M,0.0,*54
###2023-12-09 13:16:52.377947$GNGGA,181651.50,4138.0861445,N,07032.2898368,W,1,24,0.7,13.235,M,-29.742,M,0.0,*55
###2023-12-09 13:16:52.579356$GNGGA,181651.70,4138.0860331,N,07032.2900318,W,1,24,0.7,13.223,M,-29.742,M,0.0,*52
###2023-12-09 13:16:52.777822$GNGGA,181651.90,4138.0859320,N,07032.2902496,W,1,24,0.7,13.232,M,-29.742,M,0.0,*55
###2023-12-09 13:16:52.983638$GNRMC,181652.10,A,4138.0858303,N,07032.2904831,W,3.52,234.17,091223,,,A*5E
###2023-12-09 13:16:52.986516$GNGGA,181652.10,4138.0858303,N,07032.2904831,W,1,24,0.7,13.207,M,-29.742,M,0.0,*5F
###2023-12-09 13:16:52.988328$GPGSA,A,3,03,04,16,26,28,29,31,,,,,,1.2,0.7,1.0*30
###2023-12-09 13:16:52.990046$GLGSA,A,3,65,71,72,73,74,75,,,,,,,1.2,0.7,1.0*2E
###2023-12-09 13:16:52.991641$GAGSA,A,3,04,19,21,27,,,,,,,,,1.2,0.7,1.0*2C
###2023-12-09 13:16:52.993348$GBGSA,A,3,14,24,25,26,33,35,,,,,,,1.2,0.7,1.0*23
###2023-12-09 13:16:52.995688$GPGSV,2,1,07,03,32,254,41,04,38,311,42,16,57,216,45,26,87,208,47*70
###2023-12-09 13:16:52.997722$GPGSV,2,2,07,28,44,077,44,29,24,054,41,31,65,052,46,,,,*49
