###2023-12-09 12:47:06.973943$GNGST,174706.10,18.000,,,,0.079,0.070,0.160*52
###2023-12-09 12:47:06.975286$GNZDA,174706.10,09,12,2023,00,00*73
###2023-12-09 12:47:06.975935$GNEBP,,,,,,M*13
###2023-12-09 12:47:07.148091$GNGGA,174706.30,4138.0466279,N,07032.4000067,W,1,24,0.6,13.401,M,-29.745,M,0.0,*5C
###2023-12-09 12:47:07.346016$GNGGA,174706.50,4138.0466964,N,07032.4001076,W,1,24,0.6,13.403,M,-29.745,M,0.0,*5E
###2023-12-09 12:47:07.546068$GNGGA,174706.70,4138.0467688,N,07032.4001985,W,1,24,0.6,13.402,M,-29.745,M,0.0,*54
###2023-12-09 12:47:07.745794$GNGGA,174706.90,4138.0468461,N,07032.4002767,W,1,24,0.6,13.396,M,-29.745,M,0.0,*5B
###2023-12-09 12:47:07.945984$GNRMC,174707.10,A,4138.0469274,N,07032.4003423,W,1.75,329.34,091223,,,A*56
###2023-12-09 12:47:07.948869$GNGGA,174707.10,4138.0469274,N,07032.4003423,W,1,24,0.6,13.392,M,-29.745,M,0.0,*57
###2023-12-09 12:47:07.950758$GPGSA,A,3,03,04,16,26,28,29,31,32,,,,,1.1,0.6,0.9*3B
###2023-12-09 12:47:07.952474$GLGSA,A,3,65,71,72,73,74,75,,,,,,,1.1,0.6,0.9*24
###2023-12-09 12:47:07.954054$GAGSA,A,3,04,19,21,27,,,,,,,,,1.1,0.6,0.9*26
###2023-12-09 12:47:07.955714$GBGSA,A,3,14,24,25,26,33,,,,,,,,1.1,0.6,0.9*2F
###2023-12-09 12:47:07.958036$GPGSV,2,1,08,03,37,270,44,04,26,311,40,16,42,209,46,26,72,208,47*77
###2023-12-09 12:47:07.960395$GPGSV,2,2,08,28,54,062,45,29,26,068,44,31,72,018,47,32,25,137,42*76
###2023-12-09 12:47:07.962743$GLGSV,2,1,06,65,17,329,38,71,49,171,47,72,70,294,45,73,42,037,45*62
###2023-12-09 12:47:07.964484$GLGSV,2,2,06,74,71,314,41,75,27,246,44,,,,,,,,*62
###2023-12-09 12:47:07.966816$GAGSV,1,1,04,04,24,312,38,19,84,276,40,21,82,165,46,27,38,049,43*6B
###2023-12-09 12:47:07.969142$GBGSV,2,1,05,14,50,195,45,24,78,008,47,25,36,257,46,26,31,060,44*63
###2023-12-09 12:47:07.970602$GBGSV,2,2,05,33,61,243,47,,,,,,,,,,,,*5F
###2023-12-09 12:47:07.971923$GNVTG,329.34,T,,M,1.75,N,3.24,K,A*2A
###2023-12-09 12:47:07.973567$GNGST,174707.10,18.000,,,,0.079,0.069,0.160*5B
###2023-12-09 12:47:07.974869$GNZDA,174707.10,09,12,2023,00,00*72
###2023-12-09 12:47:07.975515$GNEBP,,,,,,M*13
###2023-12-09 12:47:08.145391$GNGGA,174707.30,4138.0470080,N,07032.4004082,W,1,24,0.6,13.393,M,-29.745,M,0.0,*5D
###2023-12-09 12:47:08.346001$GNGGA,174707.50,4138.0470909,N,07032.4004779,W,1,24,0.6,13.394,M,-29.745,M,0.0,*57
###2023-12-09 12:47:08.545829$GNGGA,174707.70,4138.0471759,N,07032.4005354,W,1,24,0.6,13.392,M,-29.745,M,0.0,*53
###2023-12-09 12:47:08.745830$GNGGA,174707.90,4138.0472619,N,07032.4005654,W,1,24,0.6,13.390,M,-29.745,M,0.0,*5C
###2023-12-09 12:47:08.953778$GNRMC,174708.10,A,4138.0473452,N,07032.4005807,W,1.54,350.57,091223,,,A*54
###2023-12-09 12:47:08.956693$GNGGA,174708.10,4138.0473452,N,07032.4005807,W,1,24,0.6,13.385,M,-29.745,M,0.0,*5B
###2023-12-09 12:47:08.958551$GPGSA,A,3,03,04,16,26,28,29,31,32,,,,,1.1,0.6,0.9*3B
###2023-12-09 12:47:08.960296$GLGSA,A,3,65,71,72,73,74,75,,,,,,,1.1,0.6,0.9*24
###2023-12-09 12:47:08.961879$GAGSA,A,3,04,19,21,27,,,,,,,,,1.1,0.6,0.9*26
###2023-12-09 12:47:08.963536$GBGSA,A,3,14,24,25,26,33,,,,,,,,1.1,0.6,0.9*2F
###2023-12-09 12:47:08.965864$GPGSV,2,1,08,03,37,270,44,04,26,311,43,16,42,209,45,26,72,208,48*78
###2023-12-09 12:47:08.968210$GPGSV,2,2,08,28,54,062,45,29,26,068,41,31,72,018,47,32,25,137,42*73
###2023-12-09 12:47:08.970542$GLGSV,2,1,06,65,17,329,38,71,49,171,47,72,70,294,45,73,42,037,45*62
###2023-12-09 12:47:08.972301$GLGSV,2,2,06,74,71,314,42,75,27,246,44,,,,,,,,*61
###2023-12-09 12:47:08.974632$GAGSV,1,1,04,04,24,312,42,19,84,276,40,21,82,165,46,27,38,049,41*64
###2023-12-09 12:47:08.976994$GBGSV,2,1,05,14,50,195,45,24,78,008,48,25,36,257,47,26,31,060,44*6D
###2023-12-09 12:47:08.978457$GBGSV,2,2,05,33,61,243,48,,,,,,,,,,,,*50
###2023-12-09 12:47:08.979796$GNVTG,350.57,T,,M,1.54,N,2.84,K,A*29
###2023-12-09 12:47:08.981443$GNGST,174708.10,18.000,,,,0.079,0.069,0.160*54
###2023-12-09 12:47:08.982737$GNZDA,174708.10,09,12,2023,00,00*7D
###2023-12-09 12:47:08.983375$GNEBP,,,,,,M*13
###2023-12-09 12:47:09.145924$GNGGA,174708.30,4138.0474284,N,07032.4006036,W,1,24,0.6,13.383,M,-29.745,M,0.0,*5C
###2023-12-09 12:47:09.346459$GNGGA,174708.50,4138.0475149,N,07032.4006299,W,1,24,0.6,13.375,M,-29.745,M,0.0,*57
###2023-12-09 12:47:09.546080$GNGGA,174708.70,4138.0476019,N,07032.4006348,W,1,24,0.6,13.377,M,-29.745,M,0.0,*5D
###2023-12-09 12:47:09.746744$GNGGA,174708.90,4138.0476903,N,07032.4006243,W,1,24,0.6,13.390,M,-29.745,M,0.0,*52
###2023-12-09 12:47:09.946974$GNRMC,174709.10,A,4138.0477797,N,07032.4006192,W,1.71,2.37,091223,,,A*58
###2023-12-09 12:47:09.949895$GNGGA,174709.10,4138.0477797,N,07032.4006192,W,1,24,0.6,13.391,M,-29.745,M,0.0,*57
###2023-12-09 12:47:09.951830$GPGSA,A,3,03,04,16,26,28,29,31,32,,,,,1.1,0.6,0.9*3B
###2023-12-09 12:47:09.953601$GLGSA,A,3,65,71,72,73,74,75,,,,,,,1.1,0.6,0.9*24
###2023-12-09 12:47:09.955256$GAGSA,A,3,04,19,21,27,,,,,,,,,1.1,0.6,0.9*26
###2023-12-09 12:47:09.956938$GBGSA,A,3,14,24,25,26,33,,,,,,,,1.1,0.6,0.9*2F
###2023-12-09 12:47:09.959369$GPGSV,2,1,08,03,37,270,46,04,26,311,43,16,42,209,45,26,72,208,48*7A
###2023-12-09 12:47:09.961738$GPGSV,2,2,08,28,54,062,44,29,26,068,39,31,72,018,47,32,25,137,42*7D
###2023-12-09 12:47:09.964105$GLGSV,2,1,06,65,17,329,42,71,49,171,46,72,70,294,46,73,42,037,43*6B
###2023-12-09 12:47:09.965861$GLGSV,2,2,06,74,71,314,42,75,27,246,42,,,,,,,,*67
###2023-12-09 12:47:09.968208$GAGSV,1,1,04,04,24,312,43,19,84,276,41,21,82,165,46,27,38,049,41*64
###2023-12-09 12:47:09.970538$GBGSV,2,1,05,14,50,195,45,24,78,008,48,25,36,257,45,26,31,060,42*69
###2023-12-09 12:47:09.972008$GBGSV,2,2,05,33,61,243,49,,,,,,,,,,,,*51
###2023-12-09 12:47:09.973269$GNVTG,2.37,T,,M,1.71,N,3.17,K,A*27
###2023-12-09 12:47:09.974929$GNGST,174709.10,18.000,,,,0.079,0.069,0.160*55
###2023-12-09 12:47:09.976221$GNZDA,174709.10,09,12,2023,00,00*7C
###2023-12-09 12:47:09.976860$GNEBP,,,,,,M*13
###2023-12-09 12:47:10.143407$GNGGA,174709.30,4138.0478704,N,07032.4006128,W,1,24,0.6,13.382,M,-29.745,M,0.0,*53
###2023-12-09 12:47:10.344893$GNGGA,174709.50,4138.0479561,N,07032.4005875,W,1,24,0.6,13.369,M,-29.745,M,0.0,*52
###2023-12-09 12:47:10.544938$GNGGA,174709.70,4138.0480355,N,07032.4005610,W,1,24,0.6,13.375,M,-29.745,M,0.0,*57
###2023-12-09 12:47:10.751637$GNGGA,174709.90,4138.0481149,N,07032.4005420,W,1,24,0.6,13.392,M,-29.745,M,0.0,*5F
###2023-12-09 12:47:10.944531$GNRMC,174710.10,A,4138.0481957,N,07032.4005252,W,1.48,11.21,091223,,,A*68
###2023-12-09 12:47:10.947414$GNGGA,174710.10,4138.0481957,N,07032.4005252,W,1,24,0.6,13.408,M,-29.745,M,0.0,*5F
###2023-12-09 12:47:10.949287$GPGSA,A,3,03,04,16,26,28,29,31,32,,,,,1.1,0.6,0.9*3B
###2023-12-09 12:47:10.951021$GLGSA,A,3,65,71,72,73,74,75,,,,,,,1.1,0.6,0.9*24
###2023-12-09 12:47:10.952610$GAGSA,A,3,04,19,21,27,,,,,,,,,1.1,0.6,0.9*26
###2023-12-09 12:47:10.954268$GBGSA,A,3,14,24,25,26,33,,,,,,,,1.1,0.6,0.9*2F
###2023-12-09 12:47:10.956629$GPGSV,2,1,08,03,37,270,46,04,26,311,43,16,42,209,46,26,72,208,49*78
###2023-12-09 12:47:10.958992$GPGSV,2,2,08,28,54,062,44,29,26,068,39,31,72,018,46,32,25,137,42*7C
###2023-12-09 12:47:10.961336$GLGSV,2,1,06,65,17,329,42,71,49,171,46,72,70,294,47,73,42,037,42*6B
###2023-12-09 12:47:10.963107$GLGSV,2,2,06,74,71,314,42,75,27,246,43,,,,,,,,*66
###2023-12-09 12:47:10.965445$GAGSV,1,1,04,04,24,312,43,19,84,276,41,21,82,165,46,27,38,049,42*67
###2023-12-09 12:47:10.967797$GBGSV,2,1,05,14,50,195,45,24,78,008,48,25,36,257,45,26,31,060,42*69
###2023-12-09 12:47:10.969256$GBGSV,2,2,05,33,61,243,48,,,,,,,,,,,,*50
###2023-12-09 12:47:10.970549$GNVTG,11.21,T,,M,1.48,N,2.74,K,A*1C
###2023-12-09 12:47:10.972218$GNGST,174710.10,18.000,,,,0.079,0.070,0.160*55
###2023-12-09 12:47:10.973514$GNZDA,174710.10,09,12,2023,00,00*74
###2023-12-09 12:47:10.974153$GNEBP,,,,,,M*13
###2023-12-09 12:47:11.144720$GNGGA,174710.30,4138.0482700,N,07032.4004982,W,1,24,0.6,13.398,M,-29.745,M,0.0,*5B
###2023-12-09 12:47:11.343845$GNGGA,174710.50,4138.0483358,N,07032.4004633,W,1,24,0.6,13.386,M,-29.745,M,0.0,*5F
###2023-12-09 12:47:11.545709$GNGGA,174710.70,4138.0484083,N,07032.4004457,W,1,24,0.6,13.394,M,-29.745,M,0.0,*5C
###2023-12-09 12:47:11.745274$GNGGA,174710.90,4138.0484875,N,07032.4004432,W,1,24,0.6,13.406,M,-29.745,M,0.0,*5C
###2023-12-09 12:47:11.945188$GNRMC,174711.10,A,4138.0485496,N,07032.4004081,W,1.21,42.17,091223,,,A*6C
###2023-12-09 12:47:11.948705$GNGGA,174711.10,4138.0485496,N,07032.4004081,W,1,24,0.6,13.405,M,-29.745,M,0.0,*5A
###2023-12-09 12:47:11.950994$GPGSA,A,3,03,04,16,26,28,29,31,32,,,,,1.1,0.6,0.9*3B
###2023-12-09 12:47:11.953099$GLGSA,A,3,65,71,72,73,74,75,,,,,,,1.1,0.6,0.9*24
###2023-12-09 12:47:11.955025$GAGSA,A,3,04,19,21,27,,,,,,,,,1.1,0.6,0.9*26
###2023-12-09 12:47:11.957019$GBGSA,A,3,14,24,25,26,33,,,,,,,,1.1,0.6,0.9*2F
###2023-12-09 12:47:11.959839$GPGSV,2,1,08,03,37,270,44,04,26,311,43,16,42,209,45,26,72,208,48*78
###2023-12-09 12:47:11.962678$GPGSV,2,2,08,28,54,062,43,29,26,068,38,31,72,018,46,32,25,137,41*79
###2023-12-09 12:47:11.965489$GLGSV,2,1,06,65,17,329,44,71,49,171,46,72,70,294,47,73,42,037,42*6D
