###2023-12-09 12:44:05.976340$GNZDA,174405.10,09,12,2023,00,00*73
###2023-12-09 12:44:05.977005$GNEBP,,,,,,M*13
###2023-12-09 12:44:06.145104$GNGGA,174405.30,4138.0428481,N,07032.3881639,W,1,24,0.6,13.387,M,-29.745,M,0.0,*55
###2023-12-09 12:44:06.345498$GNGGA,174405.50,4138.0426904,N,07032.3880268,W,1,24,0.6,13.386,M,-29.745,M,0.0,*5D
###2023-12-09 12:44:06.545542$GNGGA,174405.70,4138.0425284,N,07032.3879017,W,1,24,0.6,13.390,M,-29.745,M,0.0,*54
###2023-12-09 12:44:06.750158$GNGGA,174405.90,4138.0423620,N,07032.3877960,W,1,24,0.6,13.386,M,-29.745,M,0.0,*56
###2023-12-09 12:44:06.945949$GNRMC,174406.10,A,4138.0422008,N,07032.3877020,W,3.17,158.89,091223,,,A*5D
###2023-12-09 12:44:06.948863$GNGGA,174406.10,4138.0422008,N,07032.3877020,W,1,24,0.6,13.392,M,-29.745,M,0.0,*58
###2023-12-09 12:44:06.950772$GPGSA,A,3,03,04,16,26,28,29,31,32,,,,,1.1,0.6,0.9*3B
###2023-12-09 12:44:06.952487$GLGSA,A,3,65,71,72,73,74,75,,,,,,,1.1,0.6,0.9*24
###2023-12-09 12:44:06.954071$GAGSA,A,3,04,19,21,27,,,,,,,,,1.1,0.6,0.9*26
###2023-12-09 12:44:06.955737$GBGSA,A,3,14,24,25,26,33,,,,,,,,1.1,0.6,0.9*2F
###2023-12-09 12:44:06.958063$GPGSV,2,1,08,03,38,271,46,04,25,311,40,16,41,209,44,26,71,208,47*7A
###2023-12-09 12:44:06.960415$GPGSV,2,2,08,28,55,061,45,29,26,069,44,31,72,015,47,32,26,136,42*7A
###2023-12-09 12:44:06.962770$GLGSV,2,1,06,65,16,329,44,71,51,170,46,72,69,300,46,73,44,036,47*63
###2023-12-09 12:44:06.964525$GLGSV,2,2,06,74,71,307,43,75,25,245,44,,,,,,,,*63
###2023-12-09 12:44:06.966858$GAGSV,1,1,04,04,23,312,39,19,84,288,40,21,81,170,46,27,39,049,44*6D
###2023-12-09 12:44:06.969180$GBGSV,2,1,05,14,51,196,44,24,79,002,48,25,35,255,46,26,32,059,44*6C
###2023-12-09 12:44:06.970647$GBGSV,2,2,05,33,62,246,48,,,,,,,,,,,,*56
###2023-12-09 12:44:06.971978$GNVTG,158.89,T,,M,3.17,N,5.87,K,A*21
###2023-12-09 12:44:06.973628$GNGST,174406.10,18.000,,,,0.078,0.068,0.160*59
###2023-12-09 12:44:06.974935$GNZDA,174406.10,09,12,2023,00,00*70
###2023-12-09 12:44:06.975576$GNEBP,,,,,,M*13
###2023-12-09 12:44:07.146776$GNGGA,174406.30,4138.0420293,N,07032.3876232,W,1,24,0.6,13.403,M,-29.745,M,0.0,*57
###2023-12-09 12:44:07.345522$GNGGA,174406.50,4138.0418643,N,07032.3875501,W,1,24,0.6,13.380,M,-29.745,M,0.0,*5B
###2023-12-09 12:44:07.548617$GNGGA,174406.70,4138.0417022,N,07032.3875081,W,1,24,0.6,13.395,M,-29.745,M,0.0,*5E
###2023-12-09 12:44:07.744833$GNGGA,174406.90,4138.0415368,N,07032.3874749,W,1,24,0.6,13.410,M,-29.745,M,0.0,*57
###2023-12-09 12:44:07.945978$GNRMC,174407.10,A,4138.0413753,N,07032.3874472,W,2.84,177.11,091223,,,A*50
###2023-12-09 12:44:07.948895$GNGGA,174407.10,4138.0413753,N,07032.3874472,W,1,24,0.6,13.391,M,-29.745,M,0.0,*51
###2023-12-09 12:44:07.950799$GPGSA,A,3,03,04,16,26,28,29,31,32,,,,,1.1,0.6,0.9*3B
###2023-12-09 12:44:07.952518$GLGSA,A,3,65,71,72,73,74,75,,,,,,,1.1,0.6,0.9*24
###2023-12-09 12:44:07.954097$GAGSA,A,3,04,19,21,27,,,,,,,,,1.1,0.6,0.9*26
###2023-12-09 12:44:07.955762$GBGSA,A,3,14,24,25,26,33,,,,,,,,1.1,0.6,0.9*2F
###2023-12-09 12:44:07.958096$GPGSV,2,1,08,03,38,271,45,04,25,311,40,16,41,209,43,26,71,208,47*7E
###2023-12-09 12:44:07.960449$GPGSV,2,2,08,28,55,061,45,29,26,069,43,31,72,015,47,32,26,136,44*7B
###2023-12-09 12:44:07.962793$GLGSV,2,1,06,65,16,329,41,71,51,170,46,72,69,300,46,73,44,036,47*66
###2023-12-09 12:44:07.964539$GLGSV,2,2,06,74,71,307,42,75,25,245,43,,,,,,,,*65
###2023-12-09 12:44:07.966889$GAGSV,1,1,04,04,23,312,40,19,84,288,41,21,81,170,46,27,39,049,44*62
###2023-12-09 12:44:07.969224$GBGSV,2,1,05,14,51,196,44,24,79,002,48,25,35,255,44,26,32,059,43*69
###2023-12-09 12:44:07.970686$GBGSV,2,2,05,33,62,246,48,,,,,,,,,,,,*56
###2023-12-09 12:44:07.972006$GNVTG,177.11,T,,M,2.84,N,5.26,K,A*2D
###2023-12-09 12:44:07.973644$GNGST,174407.10,18.000,,,,0.079,0.068,0.160*59
###2023-12-09 12:44:07.974946$GNZDA,174407.10,09,12,2023,00,00*71
###2023-12-09 12:44:07.975584$GNEBP,,,,,,M*13
###2023-12-09 12:44:08.145366$GNGGA,174407.30,4138.0412230,N,07032.3874508,W,1,24,0.6,13.409,M,-29.745,M,0.0,*58
###2023-12-09 12:44:08.345380$GNGGA,174407.50,4138.0410648,N,07032.3874586,W,1,24,0.6,13.434,M,-29.745,M,0.0,*5F
###2023-12-09 12:44:08.545477$GNGGA,174407.70,4138.0409090,N,07032.3874584,W,1,24,0.6,13.409,M,-29.745,M,0.0,*5A
###2023-12-09 12:44:08.744939$GNGGA,174407.90,4138.0407698,N,07032.3874955,W,1,24,0.6,13.424,M,-29.745,M,0.0,*5B
###2023-12-09 12:44:08.951263$GNRMC,174408.10,A,4138.0406307,N,07032.3875490,W,2.64,194.80,091223,,,A*58
###2023-12-09 12:44:08.954131$GNGGA,174408.10,4138.0406307,N,07032.3875490,W,1,24,0.6,13.466,M,-29.745,M,0.0,*5D
###2023-12-09 12:44:08.956003$GPGSA,A,3,03,04,16,26,28,29,31,32,,,,,1.1,0.6,0.9*3B
###2023-12-09 12:44:08.957723$GLGSA,A,3,65,71,72,73,74,75,,,,,,,1.1,0.6,0.9*24
###2023-12-09 12:44:08.959325$GAGSA,A,3,04,19,21,27,,,,,,,,,1.1,0.6,0.9*26
###2023-12-09 12:44:08.960972$GBGSA,A,3,14,24,25,26,33,,,,,,,,1.1,0.6,0.9*2F
###2023-12-09 12:44:08.963316$GPGSV,2,1,08,03,38,271,44,04,25,311,42,16,41,209,42,26,71,208,46*7D
###2023-12-09 12:44:08.965660$GPGSV,2,2,08,28,55,061,45,29,26,069,40,31,72,015,47,32,26,136,43*7F
###2023-12-09 12:44:08.968006$GLGSV,2,1,06,65,16,329,40,71,51,170,46,72,69,300,46,73,44,036,45*65
###2023-12-09 12:44:08.969759$GLGSV,2,2,06,74,71,307,42,75,25,245,41,,,,,,,,*67
###2023-12-09 12:44:08.972103$GAGSV,1,1,04,04,23,312,41,19,84,288,40,21,81,170,46,27,39,049,42*64
###2023-12-09 12:44:08.974431$GBGSV,2,1,05,14,51,196,45,24,79,002,48,25,35,255,44,26,32,059,42*69
###2023-12-09 12:44:08.975901$GBGSV,2,2,05,33,62,246,48,,,,,,,,,,,,*56
###2023-12-09 12:44:08.977225$GNVTG,194.80,T,,M,2.64,N,4.90,K,A*2A
###2023-12-09 12:44:08.978886$GNGST,174408.10,18.000,,,,0.079,0.068,0.160*56
###2023-12-09 12:44:08.980182$GNZDA,174408.10,09,12,2023,00,00*7E
###2023-12-09 12:44:08.980823$GNEBP,,,,,,M*13
###2023-12-09 12:44:09.146715$GNGGA,174408.30,4138.0404877,N,07032.3875823,W,1,24,0.6,13.447,M,-29.745,M,0.0,*56
###2023-12-09 12:44:09.344542$GNGGA,174408.50,4138.0403634,N,07032.3876405,W,1,24,0.6,13.430,M,-29.745,M,0.0,*55
###2023-12-09 12:44:09.545441$GNGGA,174408.70,4138.0402590,N,07032.3877389,W,1,24,0.6,13.490,M,-29.745,M,0.0,*53
###2023-12-09 12:44:09.745703$GNGGA,174408.90,4138.0401374,N,07032.3877996,W,1,24,0.6,13.477,M,-29.745,M,0.0,*5F
###2023-12-09 12:44:09.943783$GNRMC,174409.10,A,4138.0400287,N,07032.3878675,W,2.08,218.30,091223,,,A*54
###2023-12-09 12:44:09.946645$GNGGA,174409.10,4138.0400287,N,07032.3878675,W,1,24,0.6,13.425,M,-29.745,M,0.0,*50
###2023-12-09 12:44:09.948514$GPGSA,A,3,03,04,16,26,28,29,31,32,,,,,1.1,0.6,0.9*3B
###2023-12-09 12:44:09.950232$GLGSA,A,3,65,71,72,73,74,75,,,,,,,1.1,0.6,0.9*24
###2023-12-09 12:44:09.951839$GAGSA,A,3,04,19,21,27,,,,,,,,,1.1,0.6,0.9*26
###2023-12-09 12:44:09.953483$GBGSA,A,3,14,24,25,26,33,,,,,,,,1.1,0.6,0.9*2F
###2023-12-09 12:44:09.955827$GPGSV,2,1,08,03,38,271,42,04,25,311,42,16,41,209,42,26,71,208,47*7A
###2023-12-09 12:44:09.958174$GPGSV,2,2,08,28,55,061,45,29,26,069,45,31,72,015,47,32,26,136,46*7F
###2023-12-09 12:44:09.960541$GLGSV,2,1,06,65,16,329,41,71,51,170,47,72,69,300,45,73,44,036,47*64
###2023-12-09 12:44:09.962287$GLGSV,2,2,06,74,71,307,41,75,25,245,41,,,,,,,,*64
###2023-12-09 12:44:09.964635$GAGSV,1,1,04,04,24,312,40,19,84,288,40,21,81,170,46,27,39,049,45*65
###2023-12-09 12:44:09.966985$GBGSV,2,1,05,14,51,196,46,24,79,002,49,25,35,255,43,26,32,059,46*68
###2023-12-09 12:44:09.968454$GBGSV,2,2,05,33,62,246,46,,,,,,,,,,,,*58
###2023-12-09 12:44:09.969780$GNVTG,218.30,T,,M,2.08,N,3.85,K,A*2F
###2023-12-09 12:44:09.971450$GNGST,174409.10,18.000,,,,0.078,0.068,0.160*56
###2023-12-09 12:44:09.972756$GNZDA,174409.10,09,12,2023,00,00*7F
###2023-12-09 12:44:09.973399$GNEBP,,,,,,M*13
###2023-12-09 12:44:10.146336$GNGGA,174409.30,4138.0399461,N,07032.3879778,W,1,24,0.6,13.466,M,-29.745,M,0.0,*51
###2023-12-09 12:44:10.343636$GNGGA,174409.50,4138.0398627,N,07032.3880847,W,1,24,0.6,13.503,M,-29.745,M,0.0,*51
###2023-12-09 12:44:10.543349$GNGGA,174409.70,4138.0397794,N,07032.3881753,W,1,24,0.6,13.489,M,-29.745,M,0.0,*5D
###2023-12-09 12:44:10.741946$GNGGA,174409.90,4138.0396911,N,07032.3882656,W,1,24,0.6,13.463,M,-29.745,M,0.0,*52
###2023-12-09 12:44:10.944289$GNRMC,174410.10,A,4138.0396068,N,07032.3883631,W,1.92,225.23,091223,,,A*5F
###2023-12-09 12:44:10.947422$GNGGA,174410.10,4138.0396068,N,07032.3883631,W,1,24,0.6,13.461,M,-29.745,M,0.0,*57
###2023-12-09 12:44:10.949315$GPGSA,A,3,03,04,16,26,28,29,31,32,,,,,1.1,0.6,0.9*3B
###2023-12-09 12:44:10.951056$GLGSA,A,3,65,71,72,73,74,75,,,,,,,1.1,0.6,0.9*24
###2023-12-09 12:44:10.952644$GAGSA,A,3,04,19,21,27,,,,,,,,,1.1,0.6,0.9*26
###2023-12-09 12:44:10.954294$GBGSA,A,3,14,24,25,26,33,,,,,,,,1.1,0.6,0.9*2F
###2023-12-09 12:44:10.956641$GPGSV,2,1,08,03,38,271,41,04,25,311,41,16,41,209,44,26,71,208,47*7C
###2023-12-09 12:44:10.958992$GPGSV,2,2,08,28,55,061,45,29,26,069,45,31,72,015,47,32,26,136,45*7C
###2023-12-09 12:44:10.961321$GLGSV,2,1,06,65,16,329,40,71,51,170,47,72,69,300,45,73,44,036,46*64
###2023-12-09 12:44:10.963083$GLGSV,2,2,06,74,71,307,42,75,25,245,42,,,,,,,,*64
