###2023-12-09 12:56:28.981715$GBGSV,2,2,05,33,59,237,48,,,,,,,,,,,,*58
###2023-12-09 12:56:28.983089$GNVTG,345.30,T,,M,0.47,N,0.86,K,A*2F
###2023-12-09 12:56:28.984746$GNGST,175628.10,18.000,,,,0.075,0.065,0.150*55
###2023-12-09 12:56:28.986045$GNZDA,175628.10,09,12,2023,00,00*7F
###2023-12-09 12:56:28.986703$GNEBP,,,,,,M*13
###2023-12-09 12:56:29.154900$GNGGA,175628.30,4138.0445649,N,07032.3892826,W,1,24,0.6,13.482,M,-29.745,M,0.0,*54
###2023-12-09 12:56:29.356680$GNGGA,175628.50,4138.0445842,N,07032.3892817,W,1,24,0.6,13.490,M,-29.745,M,0.0,*56
###2023-12-09 12:56:29.556697$GNGGA,175628.70,4138.0446055,N,07032.3892796,W,1,24,0.6,13.488,M,-29.745,M,0.0,*56
###2023-12-09 12:56:29.759209$GNGGA,175628.90,4138.0446291,N,07032.3892856,W,1,24,0.6,13.486,M,-29.745,M,0.0,*5F
###2023-12-09 12:56:29.958043$GNRMC,175629.10,A,4138.0446556,N,07032.3892970,W,0.54,345.30,091223,,,A*50
###2023-12-09 12:56:29.960940$GNGGA,175629.10,4138.0446556,N,07032.3892970,W,1,24,0.6,13.492,M,-29.745,M,0.0,*5A
###2023-12-09 12:56:29.962793$GPGSA,A,3,03,04,16,26,28,29,31,32,,,,,1.1,0.6,0.9*3B
###2023-12-09 12:56:29.964513$GLGSA,A,3,65,71,72,73,74,75,,,,,,,1.1,0.6,0.9*24
###2023-12-09 12:56:29.966087$GAGSA,A,3,04,19,21,27,,,,,,,,,1.1,0.6,0.9*26
###2023-12-09 12:56:29.967739$GBGSA,A,3,14,24,25,26,33,,,,,,,,1.1,0.6,0.9*2F
###2023-12-09 12:56:29.970055$GPGSV,2,1,08,03,36,265,43,04,30,311,44,16,47,211,46,26,77,209,48*71
###2023-12-09 12:56:29.972477$GPGSV,2,2,08,28,51,068,43,29,25,064,40,31,70,031,47,32,21,139,43*76
###2023-12-09 12:56:29.974841$GLGSV,2,1,06,65,21,328,43,71,44,172,48,72,72,281,47,73,38,040,43*64
###2023-12-09 12:56:29.976599$GLGSV,2,2,06,74,71,327,43,75,30,250,46,,,,,,,,*63
###2023-12-09 12:56:29.978946$GAGSV,1,1,04,04,27,312,41,19,85,234,41,21,85,141,47,27,34,048,42*6C
###2023-12-09 12:56:29.981283$GBGSV,2,1,05,14,45,193,45,24,75,018,47,25,39,260,46,26,28,061,41*6A
###2023-12-09 12:56:29.982752$GBGSV,2,2,05,33,59,237,47,,,,,,,,,,,,*57
###2023-12-09 12:56:29.984081$GNVTG,345.30,T,,M,0.54,N,1.01,K,A*23
###2023-12-09 12:56:29.985726$GNGST,175629.10,18.000,,,,0.075,0.065,0.150*54
###2023-12-09 12:56:29.987033$GNZDA,175629.10,09,12,2023,00,00*7E
###2023-12-09 12:56:29.987672$GNEBP,,,,,,M*13
###2023-12-09 12:56:30.155814$GNGGA,175629.30,4138.0446842,N,07032.3893048,W,1,24,0.6,13.498,M,-29.745,M,0.0,*59
###2023-12-09 12:56:30.356679$GNGGA,175629.50,4138.0447048,N,07032.3893037,W,1,24,0.6,13.505,M,-29.745,M,0.0,*51
###2023-12-09 12:56:30.555711$GNGGA,175629.70,4138.0447211,N,07032.3893000,W,1,24,0.6,13.502,M,-29.745,M,0.0,*5E
###2023-12-09 12:56:30.756949$GNGGA,175629.90,4138.0447408,N,07032.3893022,W,1,24,0.6,13.501,M,-29.745,M,0.0,*5D
###2023-12-09 12:56:30.956740$GNRMC,175630.10,A,4138.0447700,N,07032.3893148,W,0.64,345.30,091223,,,A*59
###2023-12-09 12:56:30.959621$GNGGA,175630.10,4138.0447700,N,07032.3893148,W,1,24,0.6,13.498,M,-29.745,M,0.0,*5A
###2023-12-09 12:56:30.961484$GPGSA,A,3,03,04,16,26,28,29,31,32,,,,,1.1,0.6,0.9*3B
###2023-12-09 12:56:30.963222$GLGSA,A,3,65,71,72,73,74,75,,,,,,,1.1,0.6,0.9*24
###2023-12-09 12:56:30.964811$GAGSA,A,3,04,19,21,27,,,,,,,,,1.1,0.6,0.9*26
###2023-12-09 12:56:30.966469$GBGSA,A,3,14,24,25,26,33,,,,,,,,1.1,0.6,0.9*2F
###2023-12-09 12:56:30.968818$GPGSV,2,1,08,03,36,265,45,04,30,311,44,16,47,211,47,26,77,209,49*77
###2023-12-09 12:56:30.971171$GPGSV,2,2,08,28,51,068,44,29,25,064,40,31,70,031,47,32,21,139,44*76
###2023-12-09 12:56:30.973510$GLGSV,2,1,06,65,21,328,43,71,44,172,49,72,72,281,47,73,38,040,42*64
###2023-12-09 12:56:30.975271$GLGSV,2,2,06,74,71,327,43,75,30,250,47,,,,,,,,*62
###2023-12-09 12:56:30.977601$GAGSV,1,1,04,04,27,312,42,19,85,234,41,21,85,141,47,27,34,048,43*6E
###2023-12-09 12:56:30.979945$GBGSV,2,1,05,14,45,193,44,24,75,018,47,25,39,260,46,26,28,061,42*68
###2023-12-09 12:56:30.981403$GBGSV,2,2,05,33,59,237,47,,,,,,,,,,,,*57
###2023-12-09 12:56:30.982731$GNVTG,345.30,T,,M,0.64,N,1.19,K,A*29
###2023-12-09 12:56:30.984391$GNGST,175630.10,18.000,,,,0.075,0.065,0.150*5C
###2023-12-09 12:56:30.985693$GNZDA,175630.10,09,12,2023,00,00*76
###2023-12-09 12:56:30.986331$GNEBP,,,,,,M*13
###2023-12-09 12:56:31.155759$GNGGA,175630.30,4138.0448020,N,07032.3893295,W,1,24,0.6,13.505,M,-29.745,M,0.0,*54
###2023-12-09 12:56:31.361536$GNGGA,175630.50,4138.0448218,N,07032.3893289,W,1,24,0.6,13.512,M,-29.745,M,0.0,*50
###2023-12-09 12:56:31.557386$GNGGA,175630.70,4138.0448323,N,07032.3893205,W,1,24,0.6,13.510,M,-29.745,M,0.0,*5D
###2023-12-09 12:56:31.756752$GNGGA,175630.90,4138.0448505,N,07032.3893238,W,1,24,0.6,13.502,M,-29.745,M,0.0,*5C
###2023-12-09 12:56:31.956548$GNRMC,175631.10,A,4138.0448841,N,07032.3893394,W,0.72,345.30,091223,,,A*59
###2023-12-09 12:56:31.959440$GNGGA,175631.10,4138.0448841,N,07032.3893394,W,1,24,0.6,13.499,M,-29.745,M,0.0,*5C
###2023-12-09 12:56:31.961308$GPGSA,A,3,03,04,16,26,28,29,31,32,,,,,1.1,0.6,0.9*3B
###2023-12-09 12:56:31.963050$GLGSA,A,3,65,71,72,73,74,75,,,,,,,1.1,0.6,0.9*24
###2023-12-09 12:56:31.964632$GAGSA,A,3,04,19,21,27,,,,,,,,,1.1,0.6,0.9*26
###2023-12-09 12:56:31.966277$GBGSA,A,3,14,24,25,26,33,,,,,,,,1.1,0.6,0.9*2F
###2023-12-09 12:56:31.968617$GPGSV,2,1,08,03,36,265,44,04,30,311,43,16,47,211,46,26,77,209,48*71
###2023-12-09 12:56:31.970968$GPGSV,2,2,08,28,51,068,44,29,25,064,40,31,70,031,47,32,21,139,44*76
###2023-12-09 12:56:31.973296$GLGSV,2,1,06,65,21,328,44,71,44,172,48,72,72,281,47,73,38,040,42*62
###2023-12-09 12:56:31.975056$GLGSV,2,2,06,74,71,327,43,75,30,250,45,,,,,,,,*60
###2023-12-09 12:56:31.977368$GAGSV,1,1,04,04,27,312,42,19,85,234,41,21,85,141,47,27,34,048,42*6F
###2023-12-09 12:56:31.979737$GBGSV,2,1,05,14,45,193,46,24,75,018,49,25,39,260,46,26,28,061,43*65
###2023-12-09 12:56:31.981195$GBGSV,2,2,05,33,59,237,48,,,,,,,,,,,,*58
###2023-12-09 12:56:31.982509$GNVTG,345.30,T,,M,0.72,N,1.33,K,A*26
###2023-12-09 12:56:31.984166$GNGST,175631.10,18.000,,,,0.075,0.065,0.150*5D
###2023-12-09 12:56:31.985453$GNZDA,175631.10,09,12,2023,00,00*77
###2023-12-09 12:56:31.986091$GNEBP,,,,,,M*13
###2023-12-09 12:56:32.155814$GNGGA,175631.30,4138.0449157,N,07032.3893549,W,1,24,0.6,13.505,M,-29.745,M,0.0,*53
###2023-12-09 12:56:32.356289$GNGGA,175631.50,4138.0449300,N,07032.3893504,W,1,24,0.6,13.520,M,-29.745,M,0.0,*5B
###2023-12-09 12:56:32.556706$GNGGA,175631.70,4138.0449349,N,07032.3893415,W,1,24,0.6,13.521,M,-29.745,M,0.0,*54
###2023-12-09 12:56:32.756274$GNGGA,175631.90,4138.0449552,N,07032.3893477,W,1,24,0.6,13.514,M,-29.745,M,0.0,*54
###2023-12-09 12:56:32.965543$GNRMC,175632.10,A,4138.0449904,N,07032.3893635,W,0.70,345.30,091223,,,A*57
###2023-12-09 12:56:32.968434$GNGGA,175632.10,4138.0449904,N,07032.3893635,W,1,24,0.6,13.502,M,-29.745,M,0.0,*53
###2023-12-09 12:56:32.970301$GPGSA,A,3,03,04,16,26,28,29,31,32,,,,,1.1,0.6,0.9*3B
###2023-12-09 12:56:32.972049$GLGSA,A,3,65,71,72,73,74,75,,,,,,,1.1,0.6,0.9*24
###2023-12-09 12:56:32.973641$GAGSA,A,3,04,19,21,27,,,,,,,,,1.1,0.6,0.9*26
###2023-12-09 12:56:32.975310$GBGSA,A,3,14,24,25,26,33,,,,,,,,1.1,0.6,0.9*2F
###2023-12-09 12:56:32.977644$GPGSV,2,1,08,03,36,265,44,04,30,311,44,16,47,211,46,26,77,209,48*76
###2023-12-09 12:56:32.980007$GPGSV,2,2,08,28,51,068,44,29,25,064,40,31,70,031,46,32,21,139,45*76
###2023-12-09 12:56:32.982351$GLGSV,2,1,06,65,21,328,44,71,44,172,47,72,72,281,47,73,38,040,42*6D
###2023-12-09 12:56:32.984116$GLGSV,2,2,06,74,71,327,43,75,30,250,46,,,,,,,,*63
###2023-12-09 12:56:32.986439$GAGSV,1,1,04,04,27,312,43,19,85,234,41,21,85,141,46,27,34,048,42*6F
###2023-12-09 12:56:32.988787$GBGSV,2,1,05,14,45,193,46,24,75,020,48,25,39,260,47,26,28,061,42*6F
###2023-12-09 12:56:32.990240$GBGSV,2,2,05,33,59,237,48,,,,,,,,,,,,*58
###2023-12-09 12:56:32.991573$GNVTG,345.30,T,,M,0.70,N,1.30,K,A*27
###2023-12-09 12:56:32.993220$GNGST,175632.10,18.000,,,,0.075,0.065,0.150*5E
###2023-12-09 12:56:32.994512$GNZDA,175632.10,09,12,2023,00,00*74
###2023-12-09 12:56:32.995165$GNEBP,,,,,,M*13
###2023-12-09 12:56:33.161367$GNGGA,175632.30,4138.0450176,N,07032.3893740,W,1,24,0.6,13.495,M,-29.745,M,0.0,*58
###2023-12-09 12:56:33.356631$GNGGA,175632.50,4138.0450293,N,07032.3893727,W,1,24,0.6,13.516,M,-29.745,M,0.0,*5D
###2023-12-09 12:56:33.556681$GNGGA,175632.70,4138.0450382,N,07032.3893670,W,1,24,0.6,13.521,M,-29.745,M,0.0,*59
###2023-12-09 12:56:33.758038$GNGGA,175632.90,4138.0450574,N,07032.3893698,W,1,24,0.6,13.507,M,-29.745,M,0.0,*5A
###2023-12-09 12:56:33.957523$GNRMC,175633.10,A,4138.0450858,N,07032.3893819,W,0.54,345.30,091223,,,A*50
###2023-12-09 12:56:33.960409$GNGGA,175633.10,4138.0450858,N,07032.3893819,W,1,24,0.6,13.495,M,-29.745,M,0.0,*5D
###2023-12-09 12:56:33.962269$GPGSA,A,3,03,04,16,26,28,29,31,32,,,,,1.1,0.6,0.9*3B
###2023-12-09 12:56:33.964003$GLGSA,A,3,65,71,72,73,74,75,,,,,,,1.1,0.6,0.9*24
###2023-12-09 12:56:33.965586$GAGSA,A,3,04,19,21,27,,,,,,,,,1.1,0.6,0.9*26
###2023-12-09 12:56:33.967247$GBGSA,A,3,14,24,25,26,33,,,,,,,,1.1,0.6,0.9*2F
###2023-12-09 12:56:33.969570$GPGSV,2,1,08,03,36,265,45,04,30,311,43,16,47,211,46,26,77,209,48*70
