###2023-12-09 13:02:21.764860$GNGGA,180220.90,4138.0463331,N,07032.3154305,W,1,24,0.6,13.399,M,-29.744,M,0.0,*53
###2023-12-09 13:02:21.966900$GNRMC,180221.10,A,4138.0463200,N,07032.3156887,W,3.56,269.33,091223,,,A*50
###2023-12-09 13:02:21.969748$GNGGA,180221.10,4138.0463200,N,07032.3156887,W,1,24,0.6,13.383,M,-29.744,M,0.0,*51
###2023-12-09 13:02:21.971613$GPGSA,A,3,03,04,16,26,28,29,31,32,,,,,1.1,0.6,0.9*3B
###2023-12-09 13:02:21.973325$GLGSA,A,3,65,71,72,73,74,75,,,,,,,1.1,0.6,0.9*24
###2023-12-09 13:02:21.974921$GAGSA,A,3,04,19,21,27,,,,,,,,,1.1,0.6,0.9*26
###2023-12-09 13:02:21.976568$GBGSA,A,3,14,24,25,26,33,,,,,,,,1.1,0.6,0.9*2F
###2023-12-09 13:02:21.978905$GPGSV,2,1,08,03,35,261,43,04,33,311,40,16,50,212,47,26,80,210,48*75
###2023-12-09 13:02:21.981238$GPGSV,2,2,08,28,49,070,45,29,25,061,41,31,69,038,47,32,19,140,45*76
###2023-12-09 13:02:21.983573$GLGSV,2,1,06,65,24,327,39,71,41,173,47,72,73,269,45,73,36,041,44*65
###2023-12-09 13:02:21.985317$GLGSV,2,2,06,74,70,337,42,75,32,253,44,,,,,,,,*61
###2023-12-09 13:02:21.987659$GAGSV,1,1,04,04,29,312,40,19,84,213,40,21,86,114,46,27,33,048,41*60
###2023-12-09 13:02:21.989987$GBGSV,2,1,05,14,43,193,45,24,74,024,49,25,41,262,45,26,26,063,42*6D
###2023-12-09 13:02:21.991459$GBGSV,2,2,05,33,57,233,47,,,,,,,,,,,,*5D
###2023-12-09 13:02:21.992780$GNVTG,269.33,T,,M,3.56,N,6.59,K,A*24
###2023-12-09 13:02:21.994424$GNGST,180221.10,18.000,,,,0.082,0.070,0.160*5D
###2023-12-09 13:02:21.995729$GNZDA,180221.10,09,12,2023,00,00*78
###2023-12-09 13:02:21.996370$GNEBP,,,,,,M*13
###2023-12-09 13:02:22.163656$GNGGA,180221.30,4138.0463160,N,07032.3159501,W,1,24,0.6,13.381,M,-29.744,M,0.0,*58
###2023-12-09 13:02:22.364139$GNGGA,180221.50,4138.0463053,N,07032.3162051,W,1,24,0.6,13.384,M,-29.744,M,0.0,*52
###2023-12-09 13:02:22.564437$GNGGA,180221.70,4138.0462804,N,07032.3164589,W,1,24,0.6,13.394,M,-29.744,M,0.0,*5C
###2023-12-09 13:02:22.764687$GNGGA,180221.90,4138.0462633,N,07032.3167159,W,1,24,0.6,13.386,M,-29.744,M,0.0,*51
###2023-12-09 13:02:22.966682$GNRMC,180222.10,A,4138.0462701,N,07032.3169752,W,3.48,275.51,091223,,,A*5B
###2023-12-09 13:02:22.969559$GNGGA,180222.10,4138.0462701,N,07032.3169752,W,1,24,0.6,13.381,M,-29.744,M,0.0,*5E
###2023-12-09 13:02:22.971436$GPGSA,A,3,03,04,16,26,28,29,31,32,,,,,1.1,0.6,0.9*3B
###2023-12-09 13:02:22.973157$GLGSA,A,3,65,71,72,73,74,75,,,,,,,1.1,0.6,0.9*24
###2023-12-09 13:02:22.974756$GAGSA,A,3,04,19,21,27,,,,,,,,,1.1,0.6,0.9*26
###2023-12-09 13:02:22.976403$GBGSA,A,3,14,24,25,26,33,,,,,,,,1.1,0.6,0.9*2F
###2023-12-09 13:02:22.978742$GPGSV,2,1,08,03,35,261,42,04,33,311,40,16,50,212,47,26,80,210,48*74
###2023-12-09 13:02:22.981087$GPGSV,2,2,08,28,49,070,44,29,25,061,40,31,69,038,47,32,19,140,44*77
###2023-12-09 13:02:22.983436$GLGSV,2,1,06,65,24,327,39,71,41,173,46,72,73,269,45,73,36,041,43*63
###2023-12-09 13:02:22.985193$GLGSV,2,2,06,74,70,337,42,75,32,253,41,,,,,,,,*64
###2023-12-09 13:02:22.987545$GAGSV,1,1,04,04,29,312,38,19,84,213,40,21,86,114,46,27,33,048,40*6E
###2023-12-09 13:02:22.989885$GBGSV,2,1,05,14,43,193,44,24,74,024,48,25,41,262,44,26,26,063,42*6C
###2023-12-09 13:02:22.991371$GBGSV,2,2,05,33,57,233,47,,,,,,,,,,,,*5D
###2023-12-09 13:02:22.992708$GNVTG,275.51,T,,M,3.48,N,6.44,K,A*2E
###2023-12-09 13:02:22.994362$GNGST,180222.10,18.000,,,,0.082,0.070,0.160*5E
###2023-12-09 13:02:22.995680$GNZDA,180222.10,09,12,2023,00,00*7B
###2023-12-09 13:02:22.996322$GNEBP,,,,,,M*13
###2023-12-09 13:02:23.163589$GNGGA,180222.30,4138.0462977,N,07032.3172323,W,1,24,0.6,13.387,M,-29.744,M,0.0,*5D
###2023-12-09 13:02:23.364017$GNGGA,180222.50,4138.0463139,N,07032.3174820,W,1,24,0.6,13.383,M,-29.744,M,0.0,*52
###2023-12-09 13:02:23.564508$GNGGA,180222.70,4138.0463205,N,07032.3177272,W,1,24,0.6,13.372,M,-29.744,M,0.0,*5C
###2023-12-09 13:02:23.765600$GNGGA,180222.90,4138.0463373,N,07032.3179709,W,1,24,0.6,13.365,M,-29.744,M,0.0,*53
###2023-12-09 13:02:23.967426$GNRMC,180223.10,A,4138.0463734,N,07032.3182099,W,3.29,282.85,091223,,,A*5E
###2023-12-09 13:02:23.970274$GNGGA,180223.10,4138.0463734,N,07032.3182099,W,1,24,0.6,13.368,M,-29.744,M,0.0,*5A
###2023-12-09 13:02:23.972142$GPGSA,A,3,03,04,16,26,28,29,31,32,,,,,1.1,0.6,0.9*3B
###2023-12-09 13:02:23.973854$GLGSA,A,3,65,71,72,73,74,75,,,,,,,1.1,0.6,0.9*24
###2023-12-09 13:02:23.975447$GAGSA,A,3,04,19,21,27,,,,,,,,,1.1,0.6,0.9*26
###2023-12-09 13:02:23.977088$GBGSA,A,3,14,24,25,26,33,,,,,,,,1.1,0.6,0.9*2F
###2023-12-09 13:02:23.979426$GPGSV,2,1,08,03,35,261,42,04,33,311,39,16,50,212,46,26,80,210,48*7B
###2023-12-09 13:02:23.981757$GPGSV,2,2,08,28,49,070,44,29,25,061,40,31,69,038,47,32,19,140,44*77
###2023-12-09 13:02:23.984093$GLGSV,2,1,06,65,24,327,39,71,41,173,46,72,73,269,45,73,36,041,45*65
###2023-12-09 13:02:23.985829$GLGSV,2,2,06,74,70,337,42,75,32,253,41,,,,,,,,*64
###2023-12-09 13:02:23.988160$GAGSV,1,1,04,04,29,312,38,19,84,213,41,21,86,114,46,27,33,048,41*6E
###2023-12-09 13:02:23.990485$GBGSV,2,1,05,14,43,193,46,24,74,024,49,25,41,262,44,26,26,063,41*6C
###2023-12-09 13:02:23.991954$GBGSV,2,2,05,33,57,233,48,,,,,,,,,,,,*52
###2023-12-09 13:02:23.993280$GNVTG,282.85,T,,M,3.29,N,6.08,K,A*20
###2023-12-09 13:02:23.994938$GNGST,180223.10,18.000,,,,0.082,0.070,0.160*5F
###2023-12-09 13:02:23.996228$GNZDA,180223.10,09,12,2023,00,00*7A
###2023-12-09 13:02:23.996866$GNEBP,,,,,,M*13
###2023-12-09 13:02:24.164649$GNGGA,180223.30,4138.0464076,N,07032.3184473,W,1,24,0.6,13.377,M,-29.744,M,0.0,*56
###2023-12-09 13:02:24.364990$GNGGA,180223.50,4138.0464196,N,07032.3186876,W,1,24,0.6,13.376,M,-29.744,M,0.0,*55
###2023-12-09 13:02:24.564374$GNGGA,180223.70,4138.0464327,N,07032.3189324,W,1,24,0.6,13.379,M,-29.744,M,0.0,*53
###2023-12-09 13:02:24.766032$GNGGA,180223.90,4138.0464608,N,07032.3191875,W,1,24,0.6,13.394,M,-29.744,M,0.0,*50
###2023-12-09 13:02:24.966683$GNRMC,180224.10,A,4138.0464892,N,07032.3194516,W,3.65,274.98,091223,,,A*55
###2023-12-09 13:02:24.969538$GNGGA,180224.10,4138.0464892,N,07032.3194516,W,1,24,0.6,13.409,M,-29.744,M,0.0,*5C
###2023-12-09 13:02:24.971410$GPGSA,A,3,03,04,16,26,28,29,31,32,,,,,1.1,0.6,0.9*3B
###2023-12-09 13:02:24.973128$GLGSA,A,3,65,71,72,73,74,75,,,,,,,1.1,0.6,0.9*24
###2023-12-09 13:02:24.974710$GAGSA,A,3,04,19,21,27,,,,,,,,,1.1,0.6,0.9*26
###2023-12-09 13:02:24.976347$GBGSA,A,3,14,24,25,26,33,,,,,,,,1.1,0.6,0.9*2F
###2023-12-09 13:02:24.978670$GPGSV,2,1,08,03,35,261,42,04,33,311,42,16,50,212,46,26,80,210,48*77
###2023-12-09 13:02:24.980999$GPGSV,2,2,08,28,49,070,46,29,25,061,44,31,69,038,47,32,19,140,43*76
###2023-12-09 13:02:24.983328$GLGSV,2,1,06,65,24,327,41,71,41,173,47,72,73,269,45,73,36,041,44*6A
###2023-12-09 13:02:24.985064$GLGSV,2,2,06,74,70,337,42,75,32,253,43,,,,,,,,*66
###2023-12-09 13:02:24.987399$GAGSV,1,1,04,04,29,312,39,19,84,213,40,21,86,114,46,27,32,048,41*6F
###2023-12-09 13:02:24.989719$GBGSV,2,1,05,14,43,193,45,24,74,024,49,25,41,262,43,26,26,063,44*6D
###2023-12-09 13:02:24.991181$GBGSV,2,2,05,33,57,233,47,,,,,,,,,,,,*5D
###2023-12-09 13:02:24.992502$GNVTG,274.98,T,,M,3.65,N,6.77,K,A*25
###2023-12-09 13:02:24.994161$GNGST,180224.10,18.000,,,,0.082,0.070,0.160*58
###2023-12-09 13:02:24.995465$GNZDA,180224.10,09,12,2023,00,00*7D
###2023-12-09 13:02:24.996104$GNEBP,,,,,,M*13
###2023-12-09 13:02:25.163489$GNGGA,180224.30,4138.0464887,N,07032.3197192,W,1,24,0.6,13.408,M,-29.744,M,0.0,*50
###2023-12-09 13:02:25.363940$GNGGA,180224.50,4138.0464667,N,07032.3199793,W,1,24,0.6,13.415,M,-29.744,M,0.0,*53
###2023-12-09 13:02:25.564248$GNGGA,180224.70,4138.0464421,N,07032.3202465,W,1,24,0.6,13.421,M,-29.744,M,0.0,*5D
###2023-12-09 13:02:25.765063$GNGGA,180224.90,4138.0464057,N,07032.3205122,W,1,24,0.6,13.411,M,-29.744,M,0.0,*54
###2023-12-09 13:02:25.966611$GNRMC,180225.10,A,4138.0463659,N,07032.3207769,W,3.63,259.27,091223,,,A*54
###2023-12-09 13:02:25.969459$GNGGA,180225.10,4138.0463659,N,07032.3207769,W,1,24,0.6,13.414,M,-29.744,M,0.0,*5C
###2023-12-09 13:02:25.971330$GPGSA,A,3,03,04,16,26,28,29,31,32,,,,,1.1,0.6,0.9*3B
###2023-12-09 13:02:25.973040$GLGSA,A,3,65,71,72,73,74,75,,,,,,,1.1,0.6,0.9*24
###2023-12-09 13:02:25.974637$GAGSA,A,3,04,19,21,27,,,,,,,,,1.1,0.6,0.9*26
###2023-12-09 13:02:25.976281$GBGSA,A,3,14,24,25,26,33,,,,,,,,1.1,0.6,0.9*2F
###2023-12-09 13:02:25.978887$GPGSV,2,1,08,03,35,261,43,04,33,311,42,16,50,212,46,26,80,210,48*76
###2023-12-09 13:02:25.981231$GPGSV,2,2,08,28,49,070,45,29,25,061,42,31,69,038,47,32,19,140,43*73
###2023-12-09 13:02:25.983579$GLGSV,2,1,06,65,24,327,42,71,41,173,46,72,73,269,45,73,36,041,46*6A
###2023-12-09 13:02:25.985331$GLGSV,2,2,06,74,70,337,43,75,32,253,44,,,,,,,,*60
###2023-12-09 13:02:25.987667$GAGSV,1,1,04,04,29,312,40,19,84,213,40,21,86,114,46,27,32,048,42*62
###2023-12-09 13:02:25.989986$GBGSV,2,1,05,14,43,193,44,24,74,024,48,25,41,262,43,26,26,063,42*6B
###2023-12-09 13:02:25.991447$GBGSV,2,2,05,33,57,233,46,,,,,,,,,,,,*5C
###2023-12-09 13:02:25.992767$GNVTG,259.27,T,,M,3.63,N,6.73,K,A*2C
###2023-12-09 13:02:25.994420$GNGST,180225.10,18.000,,,,0.082,0.070,0.160*59
