###2023-12-09 13:06:33.986308$GPGSV,2,2,08,28,48,072,45,29,25,059,40,31,68,042,48,32,17,141,44*72
###2023-12-09 13:06:33.988678$GLGSV,2,1,06,65,26,327,40,71,39,173,46,72,73,261,45,73,34,043,43*68
###2023-12-09 13:06:33.990436$GLGSV,2,2,06,74,69,343,42,75,33,255,42,,,,,,,,*6B
###2023-12-09 13:06:33.992782$GAGSV,1,1,04,04,31,312,41,19,83,203,40,21,85,092,46,27,31,048,40*61
###2023-12-09 13:06:33.995127$GBGSV,2,1,06,14,41,192,43,24,72,029,48,25,42,264,44,26,24,064,41*63
###2023-12-09 13:06:33.996876$GBGSV,2,2,06,33,56,230,47,35,15,068,44,,,,,,,,*60
###2023-12-09 13:06:33.998202$GNVTG,274.97,T,,M,3.44,N,6.37,K,A*2D
###2023-12-09 13:06:33.999864$GNGST,180633.10,18.000,,,,0.081,0.068,0.150*53
###2023-12-09 13:06:34.001159$GNZDA,180633.10,09,12,2023,00,00*7F
###2023-12-09 13:06:34.001797$GNEBP,,,,,,M*13
###2023-12-09 13:06:34.167560$GNGGA,180633.30,4138.0716230,N,07032.3209247,W,1,25,0.6,12.964,M,-29.743,M,0.0,*5D
###2023-12-09 13:06:34.369257$GNGGA,180633.50,4138.0716495,N,07032.3211802,W,1,25,0.6,12.970,M,-29.743,M,0.0,*55
###2023-12-09 13:06:34.569394$GNGGA,180633.70,4138.0716553,N,07032.3214262,W,1,25,0.6,12.955,M,-29.743,M,0.0,*52
###2023-12-09 13:06:34.768360$GNGGA,180633.90,4138.0716496,N,07032.3216712,W,1,25,0.6,12.931,M,-29.743,M,0.0,*56
###2023-12-09 13:06:34.970784$GNRMC,180634.10,A,4138.0716675,N,07032.3219209,W,3.36,278.33,091223,,,A*55
###2023-12-09 13:06:34.973657$GNGGA,180634.10,4138.0716675,N,07032.3219209,W,1,25,0.6,12.912,M,-29.743,M,0.0,*57
###2023-12-09 13:06:34.975539$GPGSA,A,3,03,04,16,26,28,29,31,32,,,,,1.1,0.6,0.9*3B
###2023-12-09 13:06:34.977261$GLGSA,A,3,65,71,72,73,74,75,,,,,,,1.1,0.6,0.9*24
###2023-12-09 13:06:34.978867$GAGSA,A,3,04,19,21,27,,,,,,,,,1.1,0.6,0.9*26
###2023-12-09 13:06:34.980592$GBGSA,A,3,14,24,25,26,33,35,,,,,,,1.1,0.6,0.9*29
###2023-12-09 13:06:34.982935$GPGSV,2,1,08,03,34,259,42,04,34,311,39,16,52,213,47,26,82,210,48*76
###2023-12-09 13:06:34.985271$GPGSV,2,2,08,28,48,072,45,29,25,059,38,31,68,042,47,32,17,141,45*73
###2023-12-09 13:06:34.987617$GLGSV,2,1,06,65,26,327,38,71,39,173,46,72,73,261,45,73,34,043,44*60
###2023-12-09 13:06:34.989365$GLGSV,2,2,06,74,69,343,42,75,33,255,42,,,,,,,,*6B
###2023-12-09 13:06:34.991706$GAGSV,1,1,04,04,31,312,39,19,83,203,40,21,85,092,46,27,31,048,41*6F
###2023-12-09 13:06:34.994042$GBGSV,2,1,06,14,41,192,46,24,72,029,50,25,42,264,45,26,24,064,40*6F
###2023-12-09 13:06:34.995802$GBGSV,2,2,06,33,56,230,48,35,15,068,45,,,,,,,,*6E
###2023-12-09 13:06:34.997132$GNVTG,278.33,T,,M,3.36,N,6.23,K,A*2F
###2023-12-09 13:06:34.998795$GNGST,180634.10,18.000,,,,0.081,0.068,0.150*54
###2023-12-09 13:06:35.000092$GNZDA,180634.10,09,12,2023,00,00*78
###2023-12-09 13:06:35.000735$GNEBP,,,,,,M*13
###2023-12-09 13:06:35.168508$GNGGA,180634.30,4138.0716951,N,07032.3221659,W,1,25,0.6,12.917,M,-29.743,M,0.0,*53
###2023-12-09 13:06:35.368023$GNGGA,180634.50,4138.0717184,N,07032.3224097,W,1,25,0.6,12.945,M,-29.743,M,0.0,*52
###2023-12-09 13:06:35.569352$GNGGA,180634.70,4138.0717319,N,07032.3226623,W,1,25,0.6,12.963,M,-29.743,M,0.0,*59
###2023-12-09 13:06:35.768308$GNGGA,180634.90,4138.0717347,N,07032.3229206,W,1,25,0.6,12.954,M,-29.743,M,0.0,*54
###2023-12-09 13:06:35.971825$GNRMC,180635.10,A,4138.0717387,N,07032.3231794,W,3.56,274.74,091223,,,A*5F
###2023-12-09 13:06:35.974700$GNGGA,180635.10,4138.0717387,N,07032.3231794,W,1,25,0.6,12.949,M,-29.743,M,0.0,*5A
###2023-12-09 13:06:35.976564$GPGSA,A,3,03,04,16,26,28,29,31,32,,,,,1.1,0.6,0.9*3B
###2023-12-09 13:06:35.978293$GLGSA,A,3,65,71,72,73,74,75,,,,,,,1.1,0.6,0.9*24
###2023-12-09 13:06:35.979899$GAGSA,A,3,04,19,21,27,,,,,,,,,1.1,0.6,0.9*26
###2023-12-09 13:06:35.981621$GBGSA,A,3,14,24,25,26,33,35,,,,,,,1.1,0.6,0.9*29
###2023-12-09 13:06:35.983976$GPGSV,2,1,08,03,34,259,42,04,34,311,42,16,52,213,46,26,82,210,48*7B
###2023-12-09 13:06:35.986322$GPGSV,2,2,08,28,48,072,45,29,25,059,41,31,68,042,48,32,17,141,45*72
###2023-12-09 13:06:35.988692$GLGSV,2,1,06,65,26,327,38,71,39,173,46,72,73,261,45,73,34,043,44*60
###2023-12-09 13:06:35.990450$GLGSV,2,2,06,74,69,343,42,75,33,255,42,,,,,,,,*6B
###2023-12-09 13:06:35.992799$GAGSV,1,1,04,04,31,312,41,19,83,203,40,21,85,092,46,27,31,048,40*61
###2023-12-09 13:06:35.995142$GBGSV,2,1,06,14,41,192,45,24,72,029,49,25,42,264,45,26,24,064,42*66
###2023-12-09 13:06:35.996885$GBGSV,2,2,06,33,56,229,47,35,15,068,45,,,,,,,,*69
###2023-12-09 13:06:35.998215$GNVTG,274.74,T,,M,3.56,N,6.59,K,A*2B
###2023-12-09 13:06:35.999883$GNGST,180635.10,18.000,,,,0.081,0.068,0.150*55
###2023-12-09 13:06:36.001176$GNZDA,180635.10,09,12,2023,00,00*79
###2023-12-09 13:06:36.001816$GNEBP,,,,,,M*13
###2023-12-09 13:06:36.168371$GNGGA,180635.30,4138.0717588,N,07032.3234436,W,1,25,0.6,12.962,M,-29.743,M,0.0,*56
###2023-12-09 13:06:36.368906$GNGGA,180635.50,4138.0717648,N,07032.3237011,W,1,25,0.6,12.951,M,-29.743,M,0.0,*5D
###2023-12-09 13:06:36.568332$GNGGA,180635.70,4138.0717513,N,07032.3239468,W,1,25,0.6,12.944,M,-29.743,M,0.0,*52
###2023-12-09 13:06:36.769315$GNGGA,180635.90,4138.0717437,N,07032.3241877,W,1,25,0.6,12.933,M,-29.743,M,0.0,*56
###2023-12-09 13:06:36.974186$GNRMC,180636.10,A,4138.0717482,N,07032.3244269,W,3.21,271.93,091223,,,A*57
###2023-12-09 13:06:36.977095$GNGGA,180636.10,4138.0717482,N,07032.3244269,W,1,25,0.6,12.925,M,-29.743,M,0.0,*54
###2023-12-09 13:06:36.978977$GPGSA,A,3,03,04,16,26,28,29,31,32,,,,,1.1,0.6,0.9*3B
###2023-12-09 13:06:36.980695$GLGSA,A,3,65,71,72,73,74,75,,,,,,,1.1,0.6,0.9*24
###2023-12-09 13:06:36.982280$GAGSA,A,3,04,19,21,27,,,,,,,,,1.1,0.6,0.9*26
###2023-12-09 13:06:36.984003$GBGSA,A,3,14,24,25,26,33,35,,,,,,,1.1,0.6,0.9*29
###2023-12-09 13:06:36.986330$GPGSV,2,1,08,03,34,259,42,04,34,311,41,16,52,213,47,26,82,210,48*79
###2023-12-09 13:06:36.988671$GPGSV,2,2,08,28,48,072,45,29,25,059,40,31,68,042,47,32,17,141,44*7D
###2023-12-09 13:06:36.991008$GLGSV,2,1,06,65,26,327,40,71,39,173,46,72,73,261,45,73,34,043,43*68
###2023-12-09 13:06:36.992755$GLGSV,2,2,06,74,69,343,42,75,33,255,43,,,,,,,,*6A
###2023-12-09 13:06:36.995093$GAGSV,1,1,04,04,31,312,39,19,83,203,40,21,85,092,46,27,31,048,42*6C
###2023-12-09 13:06:36.997421$GBGSV,2,1,06,14,41,192,43,24,72,029,47,25,42,264,43,26,24,064,40*6A
###2023-12-09 13:06:36.999175$GBGSV,2,2,06,33,56,229,46,35,15,067,43,,,,,,,,*61
###2023-12-09 13:06:37.000500$GNVTG,271.93,T,,M,3.21,N,5.94,K,A*25
###2023-12-09 13:06:37.002144$GNGST,180636.10,18.000,,,,0.081,0.068,0.150*56
###2023-12-09 13:06:37.003448$GNZDA,180636.10,09,12,2023,00,00*7A
###2023-12-09 13:06:37.004089$GNEBP,,,,,,M*13
###2023-12-09 13:06:37.168494$GNGGA,180636.30,4138.0717556,N,07032.3246641,W,1,25,0.6,12.927,M,-29.743,M,0.0,*50
###2023-12-09 13:06:37.368885$GNGGA,180636.50,4138.0717687,N,07032.3249023,W,1,25,0.6,12.946,M,-29.743,M,0.0,*53
###2023-12-09 13:06:37.569336$GNGGA,180636.70,4138.0717843,N,07032.3251444,W,1,25,0.6,12.969,M,-29.743,M,0.0,*56
###2023-12-09 13:06:37.769381$GNGGA,180636.90,4138.0717911,N,07032.3253853,W,1,25,0.6,12.962,M,-29.743,M,0.0,*5D
###2023-12-09 13:06:37.970716$GNRMC,180637.10,A,4138.0717715,N,07032.3256217,W,3.32,262.21,091223,,,A*58
###2023-12-09 13:06:37.973573$GNGGA,180637.10,4138.0717715,N,07032.3256217,W,1,25,0.6,12.939,M,-29.743,M,0.0,*5F
###2023-12-09 13:06:37.975449$GPGSA,A,3,03,04,16,26,28,29,31,32,,,,,1.1,0.6,0.9*3B
###2023-12-09 13:06:37.977162$GLGSA,A,3,65,71,72,73,74,75,,,,,,,1.1,0.6,0.9*24
###2023-12-09 13:06:37.978759$GAGSA,A,3,04,19,21,27,,,,,,,,,1.1,0.6,0.9*26
###2023-12-09 13:06:37.980464$GBGSA,A,3,14,24,25,26,33,35,,,,,,,1.1,0.6,0.9*29
###2023-12-09 13:06:37.982800$GPGSV,2,1,08,03,34,259,42,04,34,311,42,16,52,213,46,26,82,210,48*7B
###2023-12-09 13:06:37.985117$GPGSV,2,2,08,28,48,072,45,29,25,059,42,31,68,042,47,32,17,141,44*7F
###2023-12-09 13:06:37.987458$GLGSV,2,1,06,65,26,326,40,71,39,173,46,72,73,261,45,73,34,043,44*6E
###2023-12-09 13:06:37.989210$GLGSV,2,2,06,74,69,343,42,75,33,255,44,,,,,,,,*6D
###2023-12-09 13:06:37.991557$GAGSV,1,1,04,04,31,312,41,19,83,203,40,21,85,092,46,27,31,048,40*61
###2023-12-09 13:06:37.993895$GBGSV,2,1,06,14,41,192,44,24,72,029,48,25,42,264,44,26,24,064,43*66
###2023-12-09 13:06:37.995659$GBGSV,2,2,06,33,56,229,47,35,15,067,45,,,,,,,,*66
###2023-12-09 13:06:37.997226$GNVTG,262.21,T,,M,3.32,N,6.16,K,A*25
###2023-12-09 13:06:37.998900$GNGST,180637.10,18.000,,,,0.081,0.068,0.150*57
###2023-12-09 13:06:38.000200$GNZDA,180637.10,09,12,2023,00,00*7B
###2023-12-09 13:06:38.000845$GNEBP,,,,,,M*13
###2023-12-09 13:06:38.168447$GNGGA,180637.30,4138.0717490,N,07032.3258654,W,1,25,0.6,12.932,M,-29.743,M,0.0,*55
###2023-12-09 13:06:38.367513$GNGGA,180637.50,4138.0717387,N,07032.3261197,W,1,25,0.6,12.954,M,-29.743,M,0.0,*50
###2023-12-09 13:06:38.568358$GNGGA,180637.70,4138.0717147,N,07032.3263703,W,1,25,0.6,12.975,M,-29.743,M,0.0,*56
###2023-12-09 13:06:38.769198$GNGGA,180637.90,4138.0716670,N,07032.3266183,W,1,25,0.6,12.986,M,-29.743,M,0.0,*5D
###2023-12-09 13:06:38.970895$GNRMC,180638.10,A,4138.0716226,N,07032.3268733,W,3.58,261.27,091223,,,A*54
###2023-12-09 13:06:38.973774$GNGGA,180638.10,4138.0716226,N,07032.3268733,W,1,25,0.6,12.970,M,-29.743,M,0.0,*57
