###2023-12-09 12:56:57.970136$GLGSA,A,3,65,71,72,73,74,75,,,,,,,1.1,0.6,0.9*24
###2023-12-09 12:56:57.971776$GAGSA,A,3,04,19,21,27,,,,,,,,,1.1,0.6,0.9*26
###2023-12-09 12:56:57.973429$GBGSA,A,3,14,24,25,26,33,,,,,,,,1.1,0.6,0.9*2F
###2023-12-09 12:56:57.975765$GPGSV,2,1,08,03,36,265,43,04,30,311,41,16,47,211,44,26,77,209,48*76
###2023-12-09 12:56:57.978091$GPGSV,2,2,08,28,51,068,45,29,25,064,42,31,70,031,47,32,21,139,45*74
###2023-12-09 12:56:57.980430$GLGSV,2,1,06,65,22,328,39,71,43,172,46,72,73,277,46,73,37,040,43*65
###2023-12-09 12:56:57.982171$GLGSV,2,2,06,74,70,331,43,75,30,251,43,,,,,,,,*61
###2023-12-09 12:56:57.984520$GAGSV,1,1,04,04,27,312,39,19,85,234,40,21,85,141,46,27,34,048,42*63
###2023-12-09 12:56:57.986853$GBGSV,2,1,05,14,45,193,43,24,75,020,49,25,39,260,44,26,27,062,43*65
###2023-12-09 12:56:57.988307$GBGSV,2,2,05,33,59,235,47,,,,,,,,,,,,*55
###2023-12-09 12:56:57.989634$GNVTG,184.49,T,,M,2.22,N,4.10,K,A*24
###2023-12-09 12:56:57.991293$GNGST,175657.10,18.000,,,,0.080,0.068,0.160*59
###2023-12-09 12:56:57.992581$GNZDA,175657.10,09,12,2023,00,00*77
###2023-12-09 12:56:57.993220$GNEBP,,,,,,M*13
###2023-12-09 12:56:58.158230$GNGGA,175657.30,4138.0454143,N,07032.3854427,W,1,24,0.6,13.644,M,-29.745,M,0.0,*5E
###2023-12-09 12:56:58.360099$GNGGA,175657.50,4138.0452812,N,07032.3854553,W,1,24,0.6,13.636,M,-29.745,M,0.0,*54
###2023-12-09 12:56:58.558986$GNGGA,175657.70,4138.0451572,N,07032.3854914,W,1,24,0.6,13.628,M,-29.745,M,0.0,*5E
###2023-12-09 12:56:58.759495$GNGGA,175657.90,4138.0450398,N,07032.3855266,W,1,24,0.6,13.644,M,-29.745,M,0.0,*56
###2023-12-09 12:56:58.960148$GNRMC,175658.10,A,4138.0449224,N,07032.3855837,W,2.27,201.59,091223,,,A*5A
###2023-12-09 12:56:58.963040$GNGGA,175658.10,4138.0449224,N,07032.3855837,W,1,24,0.6,13.648,M,-29.745,M,0.0,*5D
###2023-12-09 12:56:58.964905$GPGSA,A,3,03,04,16,26,28,29,31,32,,,,,1.1,0.6,0.9*3B
###2023-12-09 12:56:58.966639$GLGSA,A,3,65,71,72,73,74,75,,,,,,,1.1,0.6,0.9*24
###2023-12-09 12:56:58.968231$GAGSA,A,3,04,19,21,27,,,,,,,,,1.1,0.6,0.9*26
###2023-12-09 12:56:58.969881$GBGSA,A,3,14,24,25,26,33,,,,,,,,1.1,0.6,0.9*2F
###2023-12-09 12:56:58.972232$GPGSV,2,1,08,03,36,265,43,04,30,311,43,16,47,211,43,26,77,209,47*7C
###2023-12-09 12:56:58.974584$GPGSV,2,2,08,28,51,068,44,29,25,064,42,31,70,031,47,32,21,139,44*74
###2023-12-09 12:56:58.976931$GLGSV,2,1,06,65,22,328,40,71,43,172,45,72,73,277,45,73,37,040,47*6F
###2023-12-09 12:56:58.978694$GLGSV,2,2,06,74,70,331,42,75,30,251,42,,,,,,,,*61
###2023-12-09 12:56:58.981033$GAGSV,1,1,04,04,27,312,42,19,85,234,40,21,85,141,46,27,34,048,44*69
###2023-12-09 12:56:58.983381$GBGSV,2,1,05,14,45,193,44,24,75,020,49,25,39,260,45,26,27,062,44*64
###2023-12-09 12:56:58.984843$GBGSV,2,2,05,33,59,235,47,,,,,,,,,,,,*55
###2023-12-09 12:56:58.986170$GNVTG,201.59,T,,M,2.27,N,4.21,K,A*2C
###2023-12-09 12:56:58.987837$GNGST,175658.10,18.000,,,,0.080,0.068,0.160*56
###2023-12-09 12:56:58.989136$GNZDA,175658.10,09,12,2023,00,00*78
###2023-12-09 12:56:58.989778$GNEBP,,,,,,M*13
###2023-12-09 12:56:59.158898$GNGGA,175658.30,4138.0448082,N,07032.3856466,W,1,24,0.6,13.629,M,-29.745,M,0.0,*5C
###2023-12-09 12:56:59.360441$GNGGA,175658.50,4138.0447029,N,07032.3857172,W,1,24,0.6,13.627,M,-29.745,M,0.0,*5B
###2023-12-09 12:56:59.558842$GNGGA,175658.70,4138.0445996,N,07032.3857999,W,1,24,0.6,13.637,M,-29.745,M,0.0,*5A
###2023-12-09 12:56:59.758240$GNGGA,175658.90,4138.0445043,N,07032.3858885,W,1,24,0.6,13.634,M,-29.745,M,0.0,*55
###2023-12-09 12:56:59.962173$GNRMC,175659.10,A,4138.0444188,N,07032.3859919,W,2.12,224.76,091223,,,A*5E
###2023-12-09 12:56:59.965044$GNGGA,175659.10,4138.0444188,N,07032.3859919,W,1,24,0.6,13.638,M,-29.745,M,0.0,*52
###2023-12-09 12:56:59.966907$GPGSA,A,3,03,04,16,26,28,29,31,32,,,,,1.1,0.6,0.9*3B
###2023-12-09 12:56:59.968612$GLGSA,A,3,65,71,72,73,74,75,,,,,,,1.1,0.6,0.9*24
###2023-12-09 12:56:59.970203$GAGSA,A,3,04,19,21,27,,,,,,,,,1.1,0.6,0.9*26
###2023-12-09 12:56:59.971865$GBGSA,A,3,14,24,25,26,33,,,,,,,,1.1,0.6,0.9*2F
###2023-12-09 12:56:59.974191$GPGSV,2,1,08,03,36,265,42,04,30,311,42,16,47,211,44,26,77,209,47*7B
###2023-12-09 12:56:59.976529$GPGSV,2,2,08,28,51,068,45,29,25,064,42,31,70,031,47,32,21,139,44*75
###2023-12-09 12:56:59.978877$GLGSV,2,1,06,65,22,328,42,71,43,172,47,72,73,277,45,73,37,040,47*6F
###2023-12-09 12:56:59.980626$GLGSV,2,2,06,74,70,331,42,75,30,251,43,,,,,,,,*60
###2023-12-09 12:56:59.982967$GAGSV,1,1,04,04,27,312,41,19,85,234,40,21,85,141,46,27,34,048,44*6A
###2023-12-09 12:56:59.985298$GBGSV,2,1,05,14,45,193,46,24,75,020,50,25,39,260,44,26,27,062,45*6E
###2023-12-09 12:56:59.986760$GBGSV,2,2,05,33,59,235,48,,,,,,,,,,,,*5A
###2023-12-09 12:56:59.988083$GNVTG,224.76,T,,M,2.12,N,3.92,K,A*2F
###2023-12-09 12:56:59.989736$GNGST,175659.10,18.000,,,,0.079,0.067,0.160*5E
###2023-12-09 12:56:59.991035$GNZDA,175659.10,09,12,2023,00,00*79
###2023-12-09 12:56:59.991676$GNEBP,,,,,,M*13
###2023-12-09 12:57:00.158080$GNGGA,175659.30,4138.0443364,N,07032.3861040,W,1,24,0.6,13.633,M,-29.745,M,0.0,*52
###2023-12-09 12:57:00.359153$GNGGA,175659.50,4138.0442548,N,07032.3862175,W,1,24,0.6,13.634,M,-29.745,M,0.0,*5E
###2023-12-09 12:57:00.559020$GNGGA,175659.70,4138.0441776,N,07032.3863318,W,1,24,0.6,13.645,M,-29.745,M,0.0,*5E
###2023-12-09 12:57:00.759143$GNGGA,175659.90,4138.0441026,N,07032.3864508,W,1,24,0.6,13.636,M,-29.745,M,0.0,*56
###2023-12-09 12:57:00.961621$GNRMC,175700.10,A,4138.0440358,N,07032.3865791,W,2.12,237.28,091223,,,A*50
###2023-12-09 12:57:00.964500$GNGGA,175700.10,4138.0440358,N,07032.3865791,W,1,24,0.6,13.627,M,-29.745,M,0.0,*5B
###2023-12-09 12:57:00.966366$GPGSA,A,3,03,04,16,26,28,29,31,32,,,,,1.1,0.6,0.9*3B
###2023-12-09 12:57:00.968109$GLGSA,A,3,65,71,72,73,74,75,,,,,,,1.1,0.6,0.9*24
###2023-12-09 12:57:00.969691$GAGSA,A,3,04,19,21,27,,,,,,,,,1.1,0.6,0.9*26
###2023-12-09 12:57:00.971350$GBGSA,A,3,14,24,25,26,33,,,,,,,,1.1,0.6,0.9*2F
###2023-12-09 12:57:00.973671$GPGSV,2,1,08,03,36,265,41,04,30,311,42,16,47,211,45,26,77,209,47*79
###2023-12-09 12:57:00.976010$GPGSV,2,2,08,28,51,068,45,29,25,064,42,31,70,031,47,32,21,139,44*75
###2023-12-09 12:57:00.978332$GLGSV,2,1,06,65,22,328,41,71,43,172,47,72,73,277,45,73,37,040,46*6D
###2023-12-09 12:57:00.980085$GLGSV,2,2,06,74,70,331,42,75,30,251,44,,,,,,,,*67
###2023-12-09 12:57:00.982414$GAGSV,1,1,04,04,27,312,40,19,85,234,40,21,85,141,46,27,34,048,45*6A
###2023-12-09 12:57:00.984756$GBGSV,2,1,05,14,45,193,46,24,75,020,49,25,39,260,44,26,27,062,43*60
###2023-12-09 12:57:00.986214$GBGSV,2,2,05,33,59,235,46,,,,,,,,,,,,*54
###2023-12-09 12:57:00.987559$GNVTG,237.28,T,,M,2.12,N,3.92,K,A*26
###2023-12-09 12:57:00.989216$GNGST,175700.10,18.000,,,,0.078,0.067,0.160*52
###2023-12-09 12:57:00.990508$GNZDA,175700.10,09,12,2023,00,00*74
###2023-12-09 12:57:00.991160$GNEBP,,,,,,M*13
###2023-12-09 12:57:01.158016$GNGGA,175700.30,4138.0439721,N,07032.3867149,W,1,24,0.6,13.636,M,-29.745,M,0.0,*5C
###2023-12-09 12:57:01.358827$GNGGA,175700.50,4138.0439048,N,07032.3868442,W,1,24,0.6,13.643,M,-29.745,M,0.0,*51
###2023-12-09 12:57:01.557742$GNGGA,175700.70,4138.0438354,N,07032.3869739,W,1,24,0.6,13.634,M,-29.745,M,0.0,*52
###2023-12-09 12:57:01.761556$GNGGA,175700.90,4138.0437730,N,07032.3871145,W,1,24,0.6,13.625,M,-29.745,M,0.0,*51
###2023-12-09 12:57:01.961215$GNRMC,175701.10,A,4138.0437171,N,07032.3872667,W,2.31,243.79,091223,,,A*50
###2023-12-09 12:57:01.964117$GNGGA,175701.10,4138.0437171,N,07032.3872667,W,1,24,0.6,13.631,M,-29.745,M,0.0,*5A
###2023-12-09 12:57:01.965977$GPGSA,A,3,03,04,16,26,28,29,31,32,,,,,1.1,0.6,0.9*3B
###2023-12-09 12:57:01.967699$GLGSA,A,3,65,71,72,73,74,75,,,,,,,1.1,0.6,0.9*24
###2023-12-09 12:57:01.969285$GAGSA,A,3,04,19,21,27,,,,,,,,,1.1,0.6,0.9*26
###2023-12-09 12:57:01.970943$GBGSA,A,3,14,24,25,26,33,,,,,,,,1.1,0.6,0.9*2F
###2023-12-09 12:57:01.973273$GPGSV,2,1,08,03,36,265,42,04,30,311,42,16,47,211,46,26,77,209,47*79
###2023-12-09 12:57:01.975626$GPGSV,2,2,08,28,51,068,45,29,25,064,42,31,70,031,47,32,21,139,44*75
###2023-12-09 12:57:01.977964$GLGSV,2,1,06,65,22,328,43,71,43,172,46,72,73,277,46,73,37,040,47*6C
###2023-12-09 12:57:01.979731$GLGSV,2,2,06,74,70,331,42,75,30,251,44,,,,,,,,*67
###2023-12-09 12:57:01.982321$GAGSV,1,1,04,04,27,312,42,19,85,234,40,21,85,141,46,27,34,048,44*69
###2023-12-09 12:57:01.984693$GBGSV,2,1,05,14,45,193,45,24,75,020,49,25,39,260,44,26,27,062,43*63
###2023-12-09 12:57:01.986160$GBGSV,2,2,05,33,59,235,48,,,,,,,,,,,,*5A
###2023-12-09 12:57:01.987502$GNVTG,243.79,T,,M,2.31,N,4.28,K,A*26
###2023-12-09 12:57:01.989159$GNGST,175701.10,18.000,,,,0.078,0.067,0.160*53
###2023-12-09 12:57:01.990454$GNZDA,175701.10,09,12,2023,00,00*75
###2023-12-09 12:57:01.991104$GNEBP,,,,,,M*13
###2023-12-09 12:57:02.158699$GNGGA,175701.30,4138.0436584,N,07032.3874239,W,1,24,0.6,13.636,M,-29.745,M,0.0,*59
###2023-12-09 12:57:02.357905$GNGGA,175701.50,4138.0435919,N,07032.3875730,W,1,24,0.6,13.636,M,-29.745,M,0.0,*59
