###2023-12-09 12:23:51.939382$GNGST,172351.10,33.000,,,,0.100,0.100,0.230*54
###2023-12-09 12:23:51.940826$GNZDA,172351.10,09,12,2023,00,00*73
###2023-12-09 12:23:51.941580$GNEBP,,,,,,M*13
###2023-12-09 12:23:52.112699$GNGGA,172351.30,4138.0391365,N,07032.4357190,W,1,18,0.8,16.671,M,-29.746,M,0.0,*55
###2023-12-09 12:23:52.313734$GNGGA,172351.50,4138.0391403,N,07032.4357250,W,1,18,0.8,16.624,M,-29.746,M,0.0,*5B
###2023-12-09 12:23:52.512623$GNGGA,172351.70,4138.0391440,N,07032.4357295,W,1,18,0.8,16.576,M,-29.746,M,0.0,*53
###2023-12-09 12:23:52.711959$GNGGA,172351.90,4138.0391479,N,07032.4357357,W,1,18,0.8,16.536,M,-29.746,M,0.0,*5C
###2023-12-09 12:23:52.916985$GNRMC,172352.10,A,4138.0391514,N,07032.4357414,W,0.02,,091223,,,A*43
###2023-12-09 12:23:52.920163$GNGGA,172352.10,4138.0391514,N,07032.4357414,W,1,18,0.8,16.492,M,-29.746,M,0.0,*52
###2023-12-09 12:23:52.922015$GPGSA,A,3,03,16,25,26,28,29,32,,,,,,1.3,0.8,1.1*3F
###2023-12-09 12:23:52.923706$GLGSA,A,3,71,72,73,75,,,,,,,,,1.3,0.8,1.1*21
###2023-12-09 12:23:52.925275$GAGSA,A,3,04,21,27,,,,,,,,,,1.3,0.8,1.1*2B
###2023-12-09 12:23:52.926917$GBGSA,A,3,14,25,26,33,,,,,,,,,1.3,0.8,1.1*2C
###2023-12-09 12:23:52.929287$GPGSV,2,1,07,03,39,283,41,16,31,206,43,25,16,045,42,26,61,205,45*7C
###2023-12-09 12:23:52.931378$GPGSV,2,2,07,28,62,049,40,29,24,079,43,32,35,131,47,,,,*4A
###2023-12-09 12:23:52.933747$GLGSV,1,1,04,71,63,167,44,72,61,317,35,73,53,030,47,75,18,236,41*68
###2023-12-09 12:23:52.935840$GAGSV,1,1,03,04,17,310,36,21,73,180,47,27,45,051,46,,,,*51
###2023-12-09 12:23:52.938210$GBGSV,1,1,04,14,60,201,44,25,29,249,41,26,39,055,47,33,64,265,39*6D
###2023-12-09 12:23:52.939374$GNVTG,,T,,M,0.02,N,0.04,K,A*3B
###2023-12-09 12:23:52.941028$GNGST,172352.10,33.000,,,,0.100,0.100,0.230*57
###2023-12-09 12:23:52.942326$GNZDA,172352.10,09,12,2023,00,00*70
###2023-12-09 12:23:52.942985$GNEBP,,,,,,M*13
###2023-12-09 12:23:53.117453$GNGGA,172352.30,4138.0391554,N,07032.4357476,W,1,18,0.8,16.442,M,-29.746,M,0.0,*5D
###2023-12-09 12:23:53.313750$GNGGA,172352.50,4138.0391585,N,07032.4357527,W,1,18,0.8,16.409,M,-29.746,M,0.0,*5D
###2023-12-09 12:23:53.513434$GNGGA,172352.70,4138.0391631,N,07032.4357590,W,1,18,0.8,16.363,M,-29.746,M,0.0,*54
###2023-12-09 12:23:53.712906$GNGGA,172352.90,4138.0391671,N,07032.4357653,W,1,18,0.8,16.325,M,-29.746,M,0.0,*50
###2023-12-09 12:23:53.914791$GNRMC,172353.10,A,4138.0391704,N,07032.4357712,W,0.02,,091223,,,A*44
###2023-12-09 12:23:53.917669$GNGGA,172353.10,4138.0391704,N,07032.4357712,W,1,18,0.8,16.282,M,-29.746,M,0.0,*52
###2023-12-09 12:23:53.919500$GPGSA,A,3,03,16,25,26,28,29,32,,,,,,1.3,0.8,1.1*3F
###2023-12-09 12:23:53.921095$GLGSA,A,3,71,72,73,75,,,,,,,,,1.3,0.8,1.1*21
###2023-12-09 12:23:53.922628$GAGSA,A,3,04,21,27,,,,,,,,,,1.3,0.8,1.1*2B
###2023-12-09 12:23:53.924213$GBGSA,A,3,14,25,26,33,,,,,,,,,1.3,0.8,1.1*2C
###2023-12-09 12:23:53.926551$GPGSV,2,1,07,03,39,283,41,16,31,206,43,25,16,045,42,26,61,205,45*7C
###2023-12-09 12:23:53.928618$GPGSV,2,2,07,28,62,049,40,29,24,079,44,32,35,131,47,,,,*4D
###2023-12-09 12:23:53.930968$GLGSV,1,1,04,71,63,167,44,72,61,317,36,73,53,030,47,75,18,236,41*6B
###2023-12-09 12:23:53.933023$GAGSV,1,1,03,04,17,310,35,21,73,180,46,27,45,051,46,,,,*53
###2023-12-09 12:23:53.935378$GBGSV,1,1,04,14,60,201,44,25,29,249,41,26,39,055,46,33,64,265,39*6C
###2023-12-09 12:23:53.936520$GNVTG,,T,,M,0.02,N,0.04,K,A*3B
###2023-12-09 12:23:53.938172$GNGST,172353.10,33.000,,,,0.100,0.100,0.230*56
###2023-12-09 12:23:53.939484$GNZDA,172353.10,09,12,2023,00,00*71
###2023-12-09 12:23:53.940130$GNEBP,,,,,,M*13
###2023-12-09 12:23:54.113719$GNGGA,172353.30,4138.0391744,N,07032.4357773,W,1,18,0.8,16.243,M,-29.746,M,0.0,*5E
###2023-12-09 12:23:54.313749$GNGGA,172353.50,4138.0391785,N,07032.4357838,W,1,18,0.8,16.202,M,-29.746,M,0.0,*50
###2023-12-09 12:23:54.515577$GNGGA,172353.70,4138.0391824,N,07032.4357899,W,1,18,0.8,16.158,M,-29.746,M,0.0,*51
###2023-12-09 12:23:54.713000$GNGGA,172353.90,4138.0391854,N,07032.4357946,W,1,18,0.8,16.115,M,-29.746,M,0.0,*52
###2023-12-09 12:23:54.918463$GNRMC,172354.10,A,4138.0391888,N,07032.4357998,W,0.02,,091223,,,A*44
###2023-12-09 12:23:54.921402$GNGGA,172354.10,4138.0391888,N,07032.4357998,W,1,18,0.8,16.072,M,-29.746,M,0.0,*5F
###2023-12-09 12:23:54.923270$GPGSA,A,3,03,16,25,26,28,29,32,,,,,,1.3,0.8,1.1*3F
###2023-12-09 12:23:54.924905$GLGSA,A,3,71,72,73,75,,,,,,,,,1.3,0.8,1.1*21
###2023-12-09 12:23:54.926469$GAGSA,A,3,04,21,27,,,,,,,,,,1.3,0.8,1.1*2B
###2023-12-09 12:23:54.928106$GBGSA,A,3,14,25,26,33,,,,,,,,,1.3,0.8,1.1*2C
###2023-12-09 12:23:54.930471$GPGSV,2,1,07,03,39,283,41,16,31,206,43,25,16,045,42,26,61,205,45*7C
###2023-12-09 12:23:54.932570$GPGSV,2,2,07,28,62,049,40,29,24,079,44,32,35,131,47,,,,*4D
###2023-12-09 12:23:54.934959$GLGSV,1,1,04,71,63,167,45,72,61,317,36,73,53,030,48,75,18,236,41*65
###2023-12-09 12:23:54.937011$GAGSV,1,1,03,04,17,310,36,21,73,180,46,27,45,051,45,,,,*53
###2023-12-09 12:23:54.939404$GBGSV,1,1,04,14,60,201,44,25,29,249,40,26,39,055,46,33,64,265,38*6C
###2023-12-09 12:23:54.940554$GNVTG,,T,,M,0.02,N,0.04,K,A*3B
###2023-12-09 12:23:54.942212$GNGST,172354.10,33.000,,,,0.100,0.100,0.230*51
###2023-12-09 12:23:54.943535$GNZDA,172354.10,09,12,2023,00,00*76
###2023-12-09 12:23:54.944183$GNEBP,,,,,,M*13
###2023-12-09 12:23:55.114878$GNGGA,172354.30,4138.0391926,N,07032.4358051,W,1,18,0.8,16.034,M,-29.746,M,0.0,*59
###2023-12-09 12:23:55.314666$GNGGA,172354.50,4138.0391949,N,07032.4358101,W,1,18,0.8,15.991,M,-29.746,M,0.0,*57
###2023-12-09 12:23:55.515205$GNGGA,172354.70,4138.0391979,N,07032.4358160,W,1,19,0.8,15.951,M,-29.746,M,0.0,*5C
###2023-12-09 12:23:55.714937$GNGGA,172354.90,4138.0392005,N,07032.4358226,W,1,19,0.8,15.909,M,-29.746,M,0.0,*5F
###2023-12-09 12:23:55.916751$GNRMC,172355.10,A,4138.0392026,N,07032.4358271,W,0.04,,091223,,,A*4F
###2023-12-09 12:23:55.919657$GNGGA,172355.10,4138.0392026,N,07032.4358271,W,1,19,0.8,15.873,M,-29.746,M,0.0,*59
###2023-12-09 12:23:55.921474$GPGSA,A,3,03,16,25,26,28,29,32,,,,,,1.3,0.8,1.1*3F
###2023-12-09 12:23:55.923167$GLGSA,A,3,71,72,73,74,75,,,,,,,,1.3,0.8,1.1*22
###2023-12-09 12:23:55.924713$GAGSA,A,3,04,21,27,,,,,,,,,,1.3,0.8,1.1*2B
###2023-12-09 12:23:55.926318$GBGSA,A,3,14,25,26,33,,,,,,,,,1.3,0.8,1.1*2C
###2023-12-09 12:23:55.928686$GPGSV,2,1,07,03,39,283,41,16,31,206,43,25,16,045,42,26,61,205,45*7C
###2023-12-09 12:23:55.930763$GPGSV,2,2,07,28,62,049,40,29,24,079,44,32,35,131,47,,,,*4D
###2023-12-09 12:23:55.933119$GLGSV,2,1,05,71,63,167,45,72,61,317,37,73,53,030,48,74,69,274,35*64
###2023-12-09 12:23:55.934608$GLGSV,2,2,05,75,18,236,41,,,,,,,,,,,,*59
###2023-12-09 12:23:55.936662$GAGSV,1,1,03,04,17,310,36,21,73,180,46,27,45,051,45,,,,*53
###2023-12-09 12:23:55.939027$GBGSV,1,1,04,14,60,201,44,25,29,249,41,26,39,055,46,33,64,265,39*6C
###2023-12-09 12:23:55.940181$GNVTG,,T,,M,0.04,N,0.07,K,A*3E
###2023-12-09 12:23:55.941853$GNGST,172355.10,32.000,,,,0.100,0.100,0.230*51
###2023-12-09 12:23:55.943184$GNZDA,172355.10,09,12,2023,00,00*77
###2023-12-09 12:23:55.943839$GNEBP,,,,,,M*13
###2023-12-09 12:23:56.115674$GNGGA,172355.30,4138.0392052,N,07032.4358342,W,1,19,0.8,15.837,M,-29.746,M,0.0,*59
###2023-12-09 12:23:56.315677$GNGGA,172355.50,4138.0392074,N,07032.4358392,W,1,19,0.8,15.799,M,-29.746,M,0.0,*5D
###2023-12-09 12:23:56.515191$GNGGA,172355.70,4138.0392092,N,07032.4358444,W,1,19,0.8,15.760,M,-29.746,M,0.0,*5D
###2023-12-09 12:23:56.714721$GNGGA,172355.90,4138.0392117,N,07032.4358496,W,1,19,0.8,15.726,M,-29.746,M,0.0,*52
###2023-12-09 12:23:56.924419$GNRMC,172356.10,A,4138.0392132,N,07032.4358549,W,0.04,,091223,,,A*44
###2023-12-09 12:23:56.927314$GNGGA,172356.10,4138.0392132,N,07032.4358549,W,1,19,0.8,15.693,M,-29.746,M,0.0,*52
###2023-12-09 12:23:56.929133$GPGSA,A,3,03,16,25,26,28,29,32,,,,,,1.3,0.8,1.1*3F
###2023-12-09 12:23:56.930829$GLGSA,A,3,71,72,73,74,75,,,,,,,,1.3,0.8,1.1*22
###2023-12-09 12:23:56.932380$GAGSA,A,3,04,21,27,,,,,,,,,,1.3,0.8,1.1*2B
###2023-12-09 12:23:56.933979$GBGSA,A,3,14,25,26,33,,,,,,,,,1.3,0.8,1.1*2C
###2023-12-09 12:23:56.936347$GPGSV,2,1,07,03,39,283,41,16,31,206,43,25,16,045,42,26,61,205,45*7C
###2023-12-09 12:23:56.938420$GPGSV,2,2,07,28,62,049,40,29,24,079,44,32,35,131,47,,,,*4D
###2023-12-09 12:23:56.941051$GLGSV,2,1,05,71,63,167,45,72,61,317,37,73,53,030,48,74,69,274,36*67
###2023-12-09 12:23:56.942552$GLGSV,2,2,05,75,18,237,41,,,,,,,,,,,,*58
###2023-12-09 12:23:56.944639$GAGSV,1,1,03,04,17,310,36,21,73,180,46,27,45,051,46,,,,*50
###2023-12-09 12:23:56.947051$GBGSV,1,1,04,14,60,201,45,25,29,249,41,26,39,055,47,33,64,265,39*6C
###2023-12-09 12:23:56.948244$GNVTG,,T,,M,0.04,N,0.07,K,A*3E
###2023-12-09 12:23:56.949929$GNGST,172356.10,32.000,,,,0.100,0.100,0.230*52
###2023-12-09 12:23:56.951273$GNZDA,172356.10,09,12,2023,00,00*74
###2023-12-09 12:23:56.951941$GNEBP,,,,,,M*13
