###2023-12-09 12:50:36.958414$GAGSA,A,3,04,19,21,27,,,,,,,,,1.1,0.6,0.9*26
###2023-12-09 12:50:36.960107$GBGSA,A,3,14,24,25,26,33,,,,,,,,1.1,0.6,0.9*2F
###2023-12-09 12:50:36.962442$GPGSV,2,1,08,03,37,268,45,04,28,311,44,16,44,210,47,26,74,208,48*73
###2023-12-09 12:50:36.964808$GPGSV,2,2,08,28,53,065,46,29,26,066,44,31,71,024,48,32,23,138,41*72
###2023-12-09 12:50:36.967162$GLGSV,2,1,06,65,18,329,44,71,48,171,47,72,71,291,46,73,41,038,45*6C
###2023-12-09 12:50:36.968910$GLGSV,2,2,06,74,71,317,43,75,28,247,43,,,,,,,,*6A
###2023-12-09 12:50:36.971259$GAGSV,1,1,04,04,26,312,43,19,85,260,41,21,83,158,46,27,36,048,43*62
###2023-12-09 12:50:36.973580$GBGSV,2,1,05,14,48,194,44,24,77,011,48,25,37,257,45,26,30,060,44*61
###2023-12-09 12:50:36.975050$GBGSV,2,2,05,33,61,241,48,,,,,,,,,,,,*52
###2023-12-09 12:50:36.976370$GNVTG,112.12,T,,M,1.34,N,2.48,K,A*2A
###2023-12-09 12:50:36.978009$GNGST,175036.10,18.000,,,,0.075,0.064,0.150*5D
###2023-12-09 12:50:36.979312$GNZDA,175036.10,09,12,2023,00,00*76
###2023-12-09 12:50:36.979950$GNEBP,,,,,,M*13
###2023-12-09 12:50:37.147798$GNGGA,175036.30,4138.0567585,N,07032.3788181,W,1,24,0.6,13.660,M,-29.744,M,0.0,*50
###2023-12-09 12:50:37.349844$GNGGA,175036.50,4138.0567222,N,07032.3787410,W,1,24,0.6,13.663,M,-29.744,M,0.0,*5D
###2023-12-09 12:50:37.549884$GNGGA,175036.70,4138.0566926,N,07032.3786594,W,1,24,0.6,13.672,M,-29.744,M,0.0,*5D
###2023-12-09 12:50:37.751386$GNGGA,175036.90,4138.0566710,N,07032.3785734,W,1,24,0.6,13.675,M,-29.744,M,0.0,*54
###2023-12-09 12:50:37.949967$GNRMC,175037.10,A,4138.0566462,N,07032.3784930,W,1.22,116.42,091223,,,A*51
###2023-12-09 12:50:37.952853$GNGGA,175037.10,4138.0566462,N,07032.3784930,W,1,24,0.6,13.675,M,-29.744,M,0.0,*50
###2023-12-09 12:50:37.954727$GPGSA,A,3,03,04,16,26,28,29,31,32,,,,,1.1,0.6,0.9*3B
###2023-12-09 12:50:37.956437$GLGSA,A,3,65,71,72,73,74,75,,,,,,,1.1,0.6,0.9*24
###2023-12-09 12:50:37.958010$GAGSA,A,3,04,19,21,27,,,,,,,,,1.1,0.6,0.9*26
###2023-12-09 12:50:37.959669$GBGSA,A,3,14,24,25,26,33,,,,,,,,1.1,0.6,0.9*2F
###2023-12-09 12:50:37.961984$GPGSV,2,1,08,03,37,268,45,04,28,311,42,16,44,210,47,26,74,208,49*74
###2023-12-09 12:50:37.964320$GPGSV,2,2,08,28,53,065,47,29,26,066,45,31,71,024,48,32,23,138,41*72
###2023-12-09 12:50:37.966664$GLGSV,2,1,06,65,18,329,43,71,48,171,46,72,71,291,47,73,41,038,45*6B
###2023-12-09 12:50:37.968417$GLGSV,2,2,06,74,71,317,43,75,28,247,43,,,,,,,,*6A
###2023-12-09 12:50:37.970753$GAGSV,1,1,04,04,26,312,42,19,85,260,41,21,83,158,46,27,36,048,44*64
###2023-12-09 12:50:37.973086$GBGSV,2,1,05,14,48,194,45,24,77,011,49,25,37,257,47,26,30,060,46*61
###2023-12-09 12:50:37.974537$GBGSV,2,2,05,33,61,241,49,,,,,,,,,,,,*53
###2023-12-09 12:50:37.975875$GNVTG,116.42,T,,M,1.22,N,2.27,K,A*25
###2023-12-09 12:50:37.977526$GNGST,175037.10,18.000,,,,0.075,0.064,0.150*5C
###2023-12-09 12:50:37.978831$GNZDA,175037.10,09,12,2023,00,00*77
###2023-12-09 12:50:37.979468$GNEBP,,,,,,M*13
###2023-12-09 12:50:38.148534$GNGGA,175037.30,4138.0566157,N,07032.3784168,W,1,24,0.6,13.670,M,-29.744,M,0.0,*51
###2023-12-09 12:50:38.349870$GNGGA,175037.50,4138.0565905,N,07032.3783443,W,1,24,0.6,13.676,M,-29.744,M,0.0,*56
###2023-12-09 12:50:38.549956$GNGGA,175037.70,4138.0565697,N,07032.3782636,W,1,24,0.6,13.687,M,-29.744,M,0.0,*5F
###2023-12-09 12:50:38.750265$GNGGA,175037.90,4138.0565466,N,07032.3781874,W,1,24,0.6,13.686,M,-29.744,M,0.0,*57
###2023-12-09 12:50:38.949457$GNRMC,175038.10,A,4138.0565243,N,07032.3781199,W,0.99,115.37,091223,,,A*56
###2023-12-09 12:50:38.952347$GNGGA,175038.10,4138.0565243,N,07032.3781199,W,1,24,0.6,13.685,M,-29.744,M,0.0,*58
###2023-12-09 12:50:38.954200$GPGSA,A,3,03,04,16,26,28,29,31,32,,,,,1.1,0.6,0.9*3B
###2023-12-09 12:50:38.955934$GLGSA,A,3,65,71,72,73,74,75,,,,,,,1.1,0.6,0.9*24
###2023-12-09 12:50:38.957514$GAGSA,A,3,04,19,21,27,,,,,,,,,1.1,0.6,0.9*26
###2023-12-09 12:50:38.959169$GBGSA,A,3,14,24,25,26,33,,,,,,,,1.1,0.6,0.9*2F
###2023-12-09 12:50:38.961487$GPGSV,2,1,08,03,37,268,44,04,28,311,44,16,44,210,47,26,74,208,49*73
###2023-12-09 12:50:38.963823$GPGSV,2,2,08,28,53,065,46,29,26,066,44,31,71,024,47,32,23,138,41*7D
###2023-12-09 12:50:38.966151$GLGSV,2,1,06,65,18,329,43,71,48,171,46,72,71,291,47,73,41,038,45*6B
###2023-12-09 12:50:38.967918$GLGSV,2,2,06,74,71,317,43,75,28,247,43,,,,,,,,*6A
###2023-12-09 12:50:38.970245$GAGSV,1,1,04,04,26,312,42,19,85,260,41,21,83,158,46,27,36,048,44*64
###2023-12-09 12:50:38.972586$GBGSV,2,1,05,14,48,194,46,24,77,014,49,25,37,257,46,26,30,060,45*65
###2023-12-09 12:50:38.974040$GBGSV,2,2,05,33,61,241,49,,,,,,,,,,,,*53
###2023-12-09 12:50:38.975378$GNVTG,115.37,T,,M,0.99,N,1.84,K,A*2F
###2023-12-09 12:50:38.977025$GNGST,175038.10,18.000,,,,0.075,0.064,0.150*53
###2023-12-09 12:50:38.978309$GNZDA,175038.10,09,12,2023,00,00*78
###2023-12-09 12:50:38.978956$GNEBP,,,,,,M*13
###2023-12-09 12:50:39.149551$GNGGA,175038.30,4138.0565028,N,07032.3780482,W,1,24,0.6,13.688,M,-29.744,M,0.0,*56
###2023-12-09 12:50:39.349657$GNGGA,175038.50,4138.0564834,N,07032.3779718,W,1,24,0.6,13.684,M,-29.744,M,0.0,*5E
###2023-12-09 12:50:39.549783$GNGGA,175038.70,4138.0564693,N,07032.3779040,W,1,24,0.6,13.681,M,-29.744,M,0.0,*50
###2023-12-09 12:50:39.751364$GNGGA,175038.90,4138.0564554,N,07032.3778412,W,1,24,0.6,13.696,M,-29.744,M,0.0,*52
###2023-12-09 12:50:39.946398$GNRMC,175039.10,A,4138.0564357,N,07032.3777747,W,1.01,110.98,091223,,,A*5E
###2023-12-09 12:50:39.949299$GNGGA,175039.10,4138.0564357,N,07032.3777747,W,1,24,0.6,13.704,M,-29.744,M,0.0,*58
###2023-12-09 12:50:39.951199$GPGSA,A,3,03,04,16,26,28,29,31,32,,,,,1.1,0.6,0.9*3B
###2023-12-09 12:50:39.952934$GLGSA,A,3,65,71,72,73,74,75,,,,,,,1.1,0.6,0.9*24
###2023-12-09 12:50:39.954525$GAGSA,A,3,04,19,21,27,,,,,,,,,1.1,0.6,0.9*26
###2023-12-09 12:50:39.956193$GBGSA,A,3,14,24,25,26,33,,,,,,,,1.1,0.6,0.9*2F
###2023-12-09 12:50:39.958521$GPGSV,2,1,08,03,37,268,45,04,28,311,43,16,44,210,46,26,74,208,48*75
###2023-12-09 12:50:39.960889$GPGSV,2,2,08,28,53,065,46,29,26,066,44,31,71,024,48,32,23,138,41*72
###2023-12-09 12:50:39.963251$GLGSV,2,1,06,65,18,329,41,71,48,171,47,72,71,291,47,73,41,038,45*68
###2023-12-09 12:50:39.965008$GLGSV,2,2,06,74,71,317,43,75,28,247,43,,,,,,,,*6A
###2023-12-09 12:50:39.967354$GAGSV,1,1,04,04,26,312,43,19,85,260,41,21,83,158,46,27,36,048,44*65
###2023-12-09 12:50:39.969693$GBGSV,2,1,05,14,48,194,45,24,77,014,48,25,37,258,46,26,30,060,45*68
###2023-12-09 12:50:39.971163$GBGSV,2,2,05,33,61,241,49,,,,,,,,,,,,*53
###2023-12-09 12:50:39.972491$GNVTG,110.98,T,,M,1.01,N,1.87,K,A*2C
###2023-12-09 12:50:39.974138$GNGST,175039.10,18.000,,,,0.075,0.064,0.150*52
###2023-12-09 12:50:39.975445$GNZDA,175039.10,09,12,2023,00,00*79
###2023-12-09 12:50:39.976088$GNEBP,,,,,,M*13
###2023-12-09 12:50:40.146772$GNGGA,175039.30,4138.0564189,N,07032.3777076,W,1,24,0.6,13.696,M,-29.744,M,0.0,*54
###2023-12-09 12:50:40.347625$GNGGA,175039.50,4138.0564072,N,07032.3776464,W,1,24,0.6,13.683,M,-29.744,M,0.0,*55
###2023-12-09 12:50:40.547585$GNGGA,175039.70,4138.0563933,N,07032.3775839,W,1,24,0.6,13.678,M,-29.744,M,0.0,*5F
###2023-12-09 12:50:40.747599$GNGGA,175039.90,4138.0563762,N,07032.3775200,W,1,24,0.6,13.686,M,-29.744,M,0.0,*5A
###2023-12-09 12:50:40.947249$GNRMC,175040.10,A,4138.0563611,N,07032.3774614,W,0.80,110.98,091223,,,A*5C
###2023-12-09 12:50:40.950115$GNGGA,175040.10,4138.0563611,N,07032.3774614,W,1,24,0.6,13.694,M,-29.744,M,0.0,*5A
###2023-12-09 12:50:40.951993$GPGSA,A,3,03,04,16,26,28,29,31,32,,,,,1.1,0.6,0.9*3B
###2023-12-09 12:50:40.953720$GLGSA,A,3,65,71,72,73,74,75,,,,,,,1.1,0.6,0.9*24
###2023-12-09 12:50:40.955329$GAGSA,A,3,04,19,21,27,,,,,,,,,1.1,0.6,0.9*26
###2023-12-09 12:50:40.956979$GBGSA,A,3,14,24,25,26,33,,,,,,,,1.1,0.6,0.9*2F
###2023-12-09 12:50:40.959333$GPGSV,2,1,08,03,37,268,45,04,28,311,44,16,44,210,47,26,74,208,49*72
###2023-12-09 12:50:40.961670$GPGSV,2,2,08,28,53,065,46,29,26,066,44,31,71,024,48,32,23,138,42*71
###2023-12-09 12:50:40.964015$GLGSV,2,1,06,65,18,329,45,71,48,171,49,72,71,291,48,73,41,038,47*6F
###2023-12-09 12:50:40.965761$GLGSV,2,2,06,74,71,317,45,75,28,247,45,,,,,,,,*6A
###2023-12-09 12:50:40.968134$GAGSV,1,1,04,04,26,312,42,19,85,260,41,21,83,158,46,27,36,048,44*64
###2023-12-09 12:50:40.970752$GBGSV,2,1,05,14,48,194,46,24,77,014,50,25,37,258,47,26,29,060,46*68
###2023-12-09 12:50:40.972224$GBGSV,2,2,05,33,61,241,50,,,,,,,,,,,,*5B
###2023-12-09 12:50:40.973551$GNVTG,110.98,T,,M,0.80,N,1.48,K,A*27
###2023-12-09 12:50:40.975215$GNGST,175040.10,18.000,,,,0.074,0.064,0.150*5D
###2023-12-09 12:50:40.976507$GNZDA,175040.10,09,12,2023,00,00*77
###2023-12-09 12:50:40.977145$GNEBP,,,,,,M*13
###2023-12-09 12:50:41.146732$GNGGA,175040.30,4138.0563498,N,07032.3774026,W,1,24,0.6,13.692,M,-29.744,M,0.0,*5A
###2023-12-09 12:50:41.347557$GNGGA,175040.50,4138.0563392,N,07032.3773432,W,1,24,0.6,13.680,M,-29.744,M,0.0,*54
###2023-12-09 12:50:41.547541$GNGGA,175040.70,4138.0563239,N,07032.3772839,W,1,24,0.6,13.678,M,-29.744,M,0.0,*57
