###2023-12-09 12:25:36.940953$GPGSV,2,2,08,28,61,050,43,29,24,078,42,31,73,346,38,32,34,132,46*72
###2023-12-09 12:25:36.943522$GLGSV,1,1,04,71,62,167,45,72,61,316,40,73,52,030,48,75,18,237,42*67
###2023-12-09 12:25:36.945744$GAGSV,1,1,03,04,18,310,35,21,74,180,44,27,45,051,46,,,,*59
###2023-12-09 12:25:36.948291$GBGSV,1,1,04,14,59,200,45,25,29,249,40,26,38,055,49,33,64,264,37*66
###2023-12-09 12:25:36.949651$GNVTG,,T,,M,0.02,N,0.04,K,A*3B
###2023-12-09 12:25:36.951497$GNGST,172536.10,30.000,,,,0.230,0.220,0.470*53
###2023-12-09 12:25:36.952922$GNZDA,172536.10,09,12,2023,00,00*74
###2023-12-09 12:25:36.953677$GNEBP,,,,,,M*13
###2023-12-09 12:25:37.117079$GNGGA,172536.30,4138.0385529,N,07032.4362352,W,1,19,0.7,10.326,M,-29.746,M,0.0,*5C
###2023-12-09 12:25:37.322724$GNGGA,172536.50,4138.0385511,N,07032.4362347,W,1,19,0.7,10.324,M,-29.746,M,0.0,*57
###2023-12-09 12:25:37.518860$GNGGA,172536.70,4138.0385487,N,07032.4362320,W,1,19,0.7,10.317,M,-29.746,M,0.0,*5A
###2023-12-09 12:25:37.717529$GNGGA,172536.90,4138.0385459,N,07032.4362304,W,1,19,0.7,10.314,M,-29.746,M,0.0,*52
###2023-12-09 12:25:37.919873$GNRMC,172537.10,A,4138.0385427,N,07032.4362291,W,0.02,,091223,,,A*4F
###2023-12-09 12:25:37.922784$GNGGA,172537.10,4138.0385427,N,07032.4362291,W,1,19,0.7,10.308,M,-29.746,M,0.0,*52
###2023-12-09 12:25:37.924678$GPGSA,A,3,03,16,25,26,28,29,31,32,,,,,1.2,0.7,1.0*32
###2023-12-09 12:25:37.926293$GLGSA,A,3,71,72,73,75,,,,,,,,,1.2,0.7,1.0*2E
###2023-12-09 12:25:37.927848$GAGSA,A,3,04,21,27,,,,,,,,,,1.2,0.7,1.0*24
###2023-12-09 12:25:37.929446$GBGSA,A,3,14,25,26,33,,,,,,,,,1.2,0.7,1.0*23
###2023-12-09 12:25:37.931810$GPGSV,2,1,08,03,39,282,44,16,32,206,39,25,15,045,38,26,62,205,44*75
###2023-12-09 12:25:37.934162$GPGSV,2,2,08,28,61,050,43,29,24,078,42,31,73,346,38,32,34,132,47*73
###2023-12-09 12:25:37.936533$GLGSV,1,1,04,71,62,167,45,72,61,316,41,73,52,030,48,75,18,237,42*66
###2023-12-09 12:25:37.938601$GAGSV,1,1,03,04,18,310,36,21,74,180,45,27,45,051,47,,,,*5A
###2023-12-09 12:25:37.940955$GBGSV,1,1,04,14,59,200,45,25,29,249,40,26,38,055,48,33,64,264,37*67
###2023-12-09 12:25:37.942100$GNVTG,,T,,M,0.02,N,0.04,K,A*3B
###2023-12-09 12:25:37.943771$GNGST,172537.10,29.000,,,,0.230,0.220,0.470*5A
###2023-12-09 12:25:37.945080$GNZDA,172537.10,09,12,2023,00,00*75
###2023-12-09 12:25:37.945743$GNEBP,,,,,,M*13
###2023-12-09 12:25:38.120082$GNGGA,172537.30,4138.0385391,N,07032.4362273,W,1,19,0.7,10.303,M,-29.746,M,0.0,*5D
###2023-12-09 12:25:38.316699$GNGGA,172537.50,4138.0385362,N,07032.4362260,W,1,19,0.7,10.296,M,-29.746,M,0.0,*58
###2023-12-09 12:25:38.517605$GNGGA,172537.70,4138.0385333,N,07032.4362245,W,1,19,0.7,10.292,M,-29.746,M,0.0,*5D
###2023-12-09 12:25:38.716514$GNGGA,172537.90,4138.0385291,N,07032.4362225,W,1,19,0.7,10.292,M,-29.746,M,0.0,*5C
###2023-12-09 12:25:38.920207$GNRMC,172538.10,A,4138.0385263,N,07032.4362206,W,0.02,,091223,,,A*48
###2023-12-09 12:25:38.923102$GNGGA,172538.10,4138.0385263,N,07032.4362206,W,1,19,0.7,10.288,M,-29.746,M,0.0,*5C
###2023-12-09 12:25:38.924981$GPGSA,A,3,03,16,25,26,28,29,31,32,,,,,1.2,0.7,1.0*32
###2023-12-09 12:25:38.926598$GLGSA,A,3,71,72,73,75,,,,,,,,,1.2,0.7,1.0*2E
###2023-12-09 12:25:38.928131$GAGSA,A,3,04,21,27,,,,,,,,,,1.2,0.7,1.0*24
###2023-12-09 12:25:38.929730$GBGSA,A,3,14,25,26,33,,,,,,,,,1.2,0.7,1.0*23
###2023-12-09 12:25:38.932098$GPGSV,2,1,08,03,39,282,44,16,32,206,39,25,15,045,38,26,62,205,43*72
###2023-12-09 12:25:38.934452$GPGSV,2,2,08,28,61,050,43,29,24,078,42,31,73,346,38,32,34,132,47*73
###2023-12-09 12:25:38.936816$GLGSV,1,1,04,71,62,167,46,72,61,316,41,73,52,030,48,75,18,237,43*64
###2023-12-09 12:25:38.938917$GAGSV,1,1,03,04,18,310,35,21,74,180,44,27,45,051,46,,,,*59
###2023-12-09 12:25:38.941266$GBGSV,1,1,04,14,59,200,45,25,29,249,40,26,38,055,48,33,64,264,37*67
###2023-12-09 12:25:38.942413$GNVTG,,T,,M,0.02,N,0.04,K,A*3B
###2023-12-09 12:25:38.944094$GNGST,172538.10,29.000,,,,0.230,0.220,0.470*55
###2023-12-09 12:25:38.945392$GNZDA,172538.10,09,12,2023,00,00*7A
###2023-12-09 12:25:38.946039$GNEBP,,,,,,M*13
###2023-12-09 12:25:39.118784$GNGGA,172538.30,4138.0385236,N,07032.4362194,W,1,19,0.7,10.280,M,-29.746,M,0.0,*5E
###2023-12-09 12:25:39.318517$GNGGA,172538.50,4138.0385198,N,07032.4362168,W,1,19,0.7,10.278,M,-29.746,M,0.0,*5B
###2023-12-09 12:25:39.517587$GNGGA,172538.70,4138.0385162,N,07032.4362142,W,1,19,0.7,10.275,M,-29.746,M,0.0,*59
###2023-12-09 12:25:39.717010$GNGGA,172538.90,4138.0385133,N,07032.4362118,W,1,19,0.7,10.272,M,-29.746,M,0.0,*5B
###2023-12-09 12:25:39.916249$GNRMC,172539.10,A,4138.0385103,N,07032.4362092,W,0.02,,091223,,,A*43
###2023-12-09 12:25:39.919320$GNGGA,172539.10,4138.0385103,N,07032.4362092,W,1,19,0.7,10.270,M,-29.746,M,0.0,*50
###2023-12-09 12:25:39.921377$GPGSA,A,3,03,16,25,26,28,29,31,32,,,,,1.2,0.7,1.0*32
###2023-12-09 12:25:39.923151$GLGSA,A,3,71,72,73,75,,,,,,,,,1.2,0.7,1.0*2E
###2023-12-09 12:25:39.924849$GAGSA,A,3,04,21,27,,,,,,,,,,1.2,0.7,1.0*24
###2023-12-09 12:25:39.926640$GBGSA,A,3,14,25,26,33,,,,,,,,,1.2,0.7,1.0*23
###2023-12-09 12:25:39.929166$GPGSV,2,1,08,03,39,282,44,16,32,206,39,25,15,045,39,26,62,205,44*74
###2023-12-09 12:25:39.931687$GPGSV,2,2,08,28,61,050,43,29,24,078,43,31,73,346,38,32,34,132,47*72
###2023-12-09 12:25:39.934188$GLGSV,1,1,04,71,62,167,45,72,61,316,41,73,52,030,48,75,18,237,43*67
###2023-12-09 12:25:39.936436$GAGSV,1,1,03,04,18,310,35,21,74,180,45,27,45,051,46,,,,*58
###2023-12-09 12:25:39.938993$GBGSV,1,1,04,14,59,200,45,25,29,249,39,26,38,055,48,33,64,264,38*66
###2023-12-09 12:25:39.940166$GNVTG,,T,,M,0.02,N,0.04,K,A*3B
###2023-12-09 12:25:39.941844$GNGST,172539.10,29.000,,,,0.230,0.220,0.470*54
###2023-12-09 12:25:39.943175$GNZDA,172539.10,09,12,2023,00,00*7B
###2023-12-09 12:25:39.943829$GNEBP,,,,,,M*13
###2023-12-09 12:25:40.116280$GNGGA,172539.30,4138.0385075,N,07032.4362073,W,1,18,0.8,10.266,M,-29.746,M,0.0,*54
###2023-12-09 12:25:40.316356$GNGGA,172539.50,4138.0385042,N,07032.4362061,W,1,18,0.8,10.261,M,-29.746,M,0.0,*52
###2023-12-09 12:25:40.516298$GNGGA,172539.70,4138.0385011,N,07032.4362036,W,1,18,0.8,10.262,M,-29.746,M,0.0,*57
###2023-12-09 12:25:40.714823$GNGGA,172539.90,4138.0384980,N,07032.4362023,W,1,18,0.8,10.254,M,-29.746,M,0.0,*58
###2023-12-09 12:25:40.917368$GNRMC,172540.10,A,4138.0384948,N,07032.4361997,W,0.02,,091223,,,A*44
###2023-12-09 12:25:40.920460$GNGGA,172540.10,4138.0384948,N,07032.4361997,W,1,18,0.8,10.247,M,-29.746,M,0.0,*5D
###2023-12-09 12:25:40.922507$GPGSA,A,3,03,16,25,26,28,29,31,32,,,,,1.4,0.8,1.1*3A
###2023-12-09 12:25:40.924278$GLGSA,A,3,71,72,73,75,,,,,,,,,1.4,0.8,1.1*26
###2023-12-09 12:25:40.925902$GAGSA,A,3,21,27,,,,,,,,,,,1.4,0.8,1.1*28
###2023-12-09 12:25:40.927659$GBGSA,A,3,14,25,26,33,,,,,,,,,1.4,0.8,1.1*2B
###2023-12-09 12:25:40.930164$GPGSV,2,1,08,03,39,282,44,16,32,206,39,25,15,045,39,26,62,205,45*75
###2023-12-09 12:25:40.932679$GPGSV,2,2,08,28,61,050,43,29,24,078,42,31,73,346,38,32,34,132,46*72
###2023-12-09 12:25:40.935191$GLGSV,1,1,04,71,62,167,45,72,61,316,41,73,52,030,48,75,18,237,43*67
###2023-12-09 12:25:40.937116$GAGSV,1,1,02,21,74,180,45,27,45,051,46,,,,,,,,*60
###2023-12-09 12:25:40.939649$GBGSV,1,1,04,14,59,200,45,25,29,249,39,26,38,055,48,33,64,264,38*66
###2023-12-09 12:25:40.940956$GNVTG,,T,,M,0.02,N,0.04,K,A*3B
###2023-12-09 12:25:40.942743$GNGST,172540.10,29.000,,,,0.230,0.220,0.470*5A
###2023-12-09 12:25:40.944157$GNZDA,172540.10,09,12,2023,00,00*75
###2023-12-09 12:25:40.944900$GNEBP,,,,,,M*13
###2023-12-09 12:25:41.115292$GNGGA,172540.30,4138.0384921,N,07032.4361987,W,1,18,0.8,10.244,M,-29.746,M,0.0,*52
###2023-12-09 12:25:41.315621$GNGGA,172540.50,4138.0384896,N,07032.4361977,W,1,18,0.8,10.241,M,-29.746,M,0.0,*53
###2023-12-09 12:25:41.515592$GNGGA,172540.70,4138.0384866,N,07032.4361971,W,1,18,0.8,10.237,M,-29.746,M,0.0,*59
###2023-12-09 12:25:41.715383$GNGGA,172540.90,4138.0384843,N,07032.4361961,W,1,18,0.8,10.234,M,-29.746,M,0.0,*52
###2023-12-09 12:25:41.916079$GNRMC,172541.10,A,4138.0384818,N,07032.4361951,W,0.02,,091223,,,A*4B
###2023-12-09 12:25:41.919154$GNGGA,172541.10,4138.0384818,N,07032.4361951,W,1,18,0.8,10.226,M,-29.746,M,0.0,*55
###2023-12-09 12:25:41.921189$GPGSA,A,3,03,16,25,26,28,29,31,32,,,,,1.4,0.8,1.1*3A
###2023-12-09 12:25:41.923236$GLGSA,A,3,71,72,73,75,,,,,,,,,1.4,0.8,1.1*26
###2023-12-09 12:25:41.924876$GAGSA,A,3,21,27,,,,,,,,,,,1.4,0.8,1.1*28
###2023-12-09 12:25:41.926637$GBGSA,A,3,14,25,26,33,,,,,,,,,1.4,0.8,1.1*2B
###2023-12-09 12:25:41.929116$GPGSV,2,1,08,03,39,282,44,16,32,206,40,25,15,045,39,26,62,205,44*7A
###2023-12-09 12:25:41.931620$GPGSV,2,2,08,28,61,050,43,29,24,078,42,31,73,346,37,32,34,132,46*7D
###2023-12-09 12:25:41.934128$GLGSV,1,1,04,71,62,167,45,72,61,316,42,73,52,030,48,75,18,237,43*64
###2023-12-09 12:25:41.936052$GAGSV,1,1,02,21,74,180,45,27,45,051,46,,,,,,,,*60
###2023-12-09 12:25:41.938546$GBGSV,1,1,04,14,59,200,45,25,29,249,38,26,38,055,48,33,64,264,38*67
###2023-12-09 12:25:41.939904$GNVTG,,T,,M,0.02,N,0.04,K,A*3B
