###2023-12-09 12:46:04.976971$GNEBP,,,,,,M*13
###2023-12-09 12:46:05.146132$GNGGA,174604.30,4138.0485259,N,07032.3877299,W,1,24,0.6,13.426,M,-29.745,M,0.0,*59
###2023-12-09 12:46:05.347274$GNGGA,174604.50,4138.0485229,N,07032.3877874,W,1,24,0.6,13.433,M,-29.745,M,0.0,*55
###2023-12-09 12:46:05.547361$GNGGA,174604.70,4138.0485185,N,07032.3878588,W,1,24,0.6,13.428,M,-29.745,M,0.0,*59
###2023-12-09 12:46:05.746615$GNGGA,174604.90,4138.0485056,N,07032.3878732,W,1,24,0.6,13.412,M,-29.745,M,0.0,*52
###2023-12-09 12:46:05.946857$GNRMC,174605.10,A,4138.0484902,N,07032.3878513,W,0.31,266.50,091223,,,A*54
###2023-12-09 12:46:05.949731$GNGGA,174605.10,4138.0484902,N,07032.3878513,W,1,24,0.6,13.407,M,-29.745,M,0.0,*57
###2023-12-09 12:46:05.951615$GPGSA,A,3,03,04,16,26,28,29,31,32,,,,,1.1,0.6,0.9*3B
###2023-12-09 12:46:05.953323$GLGSA,A,3,65,71,72,73,74,75,,,,,,,1.1,0.6,0.9*24
###2023-12-09 12:46:05.954921$GAGSA,A,3,04,19,21,27,,,,,,,,,1.1,0.6,0.9*26
###2023-12-09 12:46:05.956563$GBGSA,A,3,14,24,25,26,33,,,,,,,,1.1,0.6,0.9*2F
###2023-12-09 12:46:05.958889$GPGSV,2,1,08,03,37,270,44,04,26,311,42,16,42,209,42,26,72,208,48*7E
###2023-12-09 12:46:05.961215$GPGSV,2,2,08,28,54,062,46,29,26,068,43,31,72,018,48,32,25,137,45*7A
###2023-12-09 12:46:05.963554$GLGSV,2,1,06,65,17,329,42,71,50,171,47,72,70,297,47,73,43,037,46*64
###2023-12-09 12:46:05.965296$GLGSV,2,2,06,74,71,310,43,75,26,245,42,,,,,,,,*60
###2023-12-09 12:46:05.967632$GAGSV,1,1,04,04,24,312,41,19,84,283,41,21,82,167,46,27,38,049,43*6C
###2023-12-09 12:46:05.969954$GBGSV,2,1,05,14,50,195,43,24,78,005,48,25,36,256,44,26,31,059,42*68
###2023-12-09 12:46:05.971416$GBGSV,2,2,05,33,61,245,46,,,,,,,,,,,,*58
###2023-12-09 12:46:05.972732$GNVTG,266.50,T,,M,0.31,N,0.58,K,A*2B
###2023-12-09 12:46:05.974378$GNGST,174605.10,18.000,,,,0.078,0.069,0.160*59
###2023-12-09 12:46:05.975685$GNZDA,174605.10,09,12,2023,00,00*71
###2023-12-09 12:46:05.976323$GNEBP,,,,,,M*13
###2023-12-09 12:46:06.147029$GNGGA,174605.30,4138.0484839,N,07032.3878807,W,1,24,0.6,13.418,M,-29.745,M,0.0,*5A
###2023-12-09 12:46:06.345704$GNGGA,174605.50,4138.0484841,N,07032.3879596,W,1,24,0.6,13.429,M,-29.745,M,0.0,*55
###2023-12-09 12:46:06.546144$GNGGA,174605.70,4138.0484770,N,07032.3880056,W,1,24,0.6,13.412,M,-29.745,M,0.0,*5D
###2023-12-09 12:46:06.746304$GNGGA,174605.90,4138.0484623,N,07032.3879892,W,1,24,0.6,13.389,M,-29.745,M,0.0,*57
###2023-12-09 12:46:06.947142$GNRMC,174606.10,A,4138.0484518,N,07032.3879859,W,0.49,270.37,091223,,,A*5B
###2023-12-09 12:46:06.950014$GNGGA,174606.10,4138.0484518,N,07032.3879859,W,1,24,0.6,13.382,M,-29.745,M,0.0,*5B
###2023-12-09 12:46:06.951895$GPGSA,A,3,03,04,16,26,28,29,31,32,,,,,1.1,0.6,0.9*3B
###2023-12-09 12:46:06.953617$GLGSA,A,3,65,71,72,73,74,75,,,,,,,1.1,0.6,0.9*24
###2023-12-09 12:46:06.955226$GAGSA,A,3,04,19,21,27,,,,,,,,,1.1,0.6,0.9*26
###2023-12-09 12:46:06.956883$GBGSA,A,3,14,24,25,26,33,,,,,,,,1.1,0.6,0.9*2F
###2023-12-09 12:46:06.959220$GPGSV,2,1,08,03,37,270,42,04,26,311,38,16,42,209,43,26,72,208,47*7B
###2023-12-09 12:46:06.961554$GPGSV,2,2,08,28,54,062,46,29,26,068,44,31,72,018,48,32,25,137,46*7E
###2023-12-09 12:46:06.963914$GLGSV,2,1,06,65,17,329,41,71,50,171,47,72,70,297,46,73,43,037,47*67
###2023-12-09 12:46:06.965664$GLGSV,2,2,06,74,71,310,43,75,26,245,41,,,,,,,,*63
###2023-12-09 12:46:06.968017$GAGSV,1,1,04,04,24,312,39,19,84,283,41,21,82,167,46,27,38,049,44*64
###2023-12-09 12:46:06.970342$GBGSV,2,1,05,14,50,195,45,24,78,005,49,25,36,256,44,26,31,059,43*6E
###2023-12-09 12:46:06.971806$GBGSV,2,2,05,33,61,245,48,,,,,,,,,,,,*56
###2023-12-09 12:46:06.973133$GNVTG,270.37,T,,M,0.49,N,0.90,K,A*26
###2023-12-09 12:46:06.974797$GNGST,174606.10,18.000,,,,0.078,0.069,0.160*5A
###2023-12-09 12:46:06.976089$GNZDA,174606.10,09,12,2023,00,00*72
###2023-12-09 12:46:06.976726$GNEBP,,,,,,M*13
###2023-12-09 12:46:07.145338$GNGGA,174606.30,4138.0484490,N,07032.3880455,W,1,24,0.6,13.406,M,-29.745,M,0.0,*55
###2023-12-09 12:46:07.346239$GNGGA,174606.50,4138.0484465,N,07032.3881153,W,1,24,0.6,13.416,M,-29.745,M,0.0,*5A
###2023-12-09 12:46:07.547446$GNGGA,174606.70,4138.0484389,N,07032.3881385,W,1,24,0.6,13.417,M,-29.745,M,0.0,*55
###2023-12-09 12:46:07.745582$GNGGA,174606.90,4138.0484287,N,07032.3881211,W,1,24,0.6,13.385,M,-29.745,M,0.0,*54
###2023-12-09 12:46:07.951236$GNRMC,174607.10,A,4138.0484216,N,07032.3881215,W,0.45,267.93,091223,,,A*52
###2023-12-09 12:46:07.954100$GNGGA,174607.10,4138.0484216,N,07032.3881215,W,1,24,0.6,13.343,M,-29.745,M,0.0,*5B
###2023-12-09 12:46:07.955983$GPGSA,A,3,03,04,16,26,28,29,31,32,,,,,1.1,0.6,0.9*3B
###2023-12-09 12:46:07.957703$GLGSA,A,3,65,71,72,73,74,75,,,,,,,1.1,0.6,0.9*24
###2023-12-09 12:46:07.959308$GAGSA,A,3,04,19,21,27,,,,,,,,,1.1,0.6,0.9*26
###2023-12-09 12:46:07.960955$GBGSA,A,3,14,24,25,26,33,,,,,,,,1.1,0.6,0.9*2F
###2023-12-09 12:46:07.963295$GPGSV,2,1,08,03,37,270,44,04,26,311,39,16,42,209,43,26,72,208,47*7C
###2023-12-09 12:46:07.965627$GPGSV,2,2,08,28,54,062,47,29,26,068,45,31,72,018,48,32,25,137,47*7F
###2023-12-09 12:46:07.967972$GLGSV,2,1,06,65,17,329,39,71,50,171,47,72,70,297,46,73,43,037,47*68
###2023-12-09 12:46:07.969715$GLGSV,2,2,06,74,71,310,43,75,26,245,39,,,,,,,,*6C
###2023-12-09 12:46:07.972046$GAGSV,1,1,04,04,24,312,40,19,84,283,41,21,82,167,46,27,38,049,45*6B
###2023-12-09 12:46:07.974376$GBGSV,2,1,05,14,50,195,43,24,78,005,48,25,36,256,42,26,31,059,44*68
###2023-12-09 12:46:07.975847$GBGSV,2,2,05,33,61,245,47,,,,,,,,,,,,*59
###2023-12-09 12:46:07.977168$GNVTG,267.93,T,,M,0.45,N,0.83,K,A*20
###2023-12-09 12:46:07.978822$GNGST,174607.10,18.000,,,,0.078,0.069,0.160*5B
###2023-12-09 12:46:07.980120$GNZDA,174607.10,09,12,2023,00,00*73
###2023-12-09 12:46:07.980761$GNEBP,,,,,,M*13
###2023-12-09 12:46:08.145196$GNGGA,174607.30,4138.0484182,N,07032.3881876,W,1,24,0.6,13.375,M,-29.745,M,0.0,*5D
###2023-12-09 12:46:08.345278$GNGGA,174607.50,4138.0484184,N,07032.3882770,W,1,24,0.6,13.407,M,-29.745,M,0.0,*55
###2023-12-09 12:46:08.546250$GNGGA,174607.70,4138.0484142,N,07032.3882933,W,1,24,0.6,13.411,M,-29.745,M,0.0,*53
###2023-12-09 12:46:08.746118$GNGGA,174607.90,4138.0484079,N,07032.3882498,W,1,24,0.6,13.361,M,-29.745,M,0.0,*58
###2023-12-09 12:46:08.953552$GNRMC,174608.10,A,4138.0484013,N,07032.3882715,W,0.93,269.58,091223,,,A*5E
###2023-12-09 12:46:08.956437$GNGGA,174608.10,4138.0484013,N,07032.3882715,W,1,24,0.6,13.333,M,-29.745,M,0.0,*52
###2023-12-09 12:46:08.958302$GPGSA,A,3,03,04,16,26,28,29,31,32,,,,,1.1,0.6,0.9*3B
###2023-12-09 12:46:08.960035$GLGSA,A,3,65,71,72,73,74,75,,,,,,,1.1,0.6,0.9*24
###2023-12-09 12:46:08.961620$GAGSA,A,3,04,19,21,27,,,,,,,,,1.1,0.6,0.9*26
###2023-12-09 12:46:08.963277$GBGSA,A,3,14,24,25,26,33,,,,,,,,1.1,0.6,0.9*2F
###2023-12-09 12:46:08.965601$GPGSV,2,1,08,03,37,270,42,04,26,311,38,16,42,209,42,26,72,208,47*7A
###2023-12-09 12:46:08.967937$GPGSV,2,2,08,28,54,062,47,29,26,068,46,31,72,018,47,32,25,137,47*73
###2023-12-09 12:46:08.970261$GLGSV,2,1,06,65,17,329,37,71,50,171,48,72,70,297,45,73,43,037,47*6A
###2023-12-09 12:46:08.972018$GLGSV,2,2,06,74,71,310,43,75,26,245,39,,,,,,,,*6C
###2023-12-09 12:46:08.974337$GAGSV,1,1,04,04,24,312,37,19,84,283,41,21,82,167,46,27,38,049,44*6A
###2023-12-09 12:46:08.976675$GBGSV,2,1,05,14,50,195,44,24,78,005,49,25,36,256,42,26,31,059,46*6C
###2023-12-09 12:46:08.978128$GBGSV,2,2,05,33,61,245,47,,,,,,,,,,,,*59
###2023-12-09 12:46:08.979460$GNVTG,269.58,T,,M,0.93,N,1.73,K,A*2C
###2023-12-09 12:46:08.981099$GNGST,174608.10,19.000,,,,0.078,0.069,0.160*55
###2023-12-09 12:46:08.982390$GNZDA,174608.10,09,12,2023,00,00*7C
###2023-12-09 12:46:08.983050$GNEBP,,,,,,M*13
###2023-12-09 12:46:09.146315$GNGGA,174608.30,4138.0483996,N,07032.3883659,W,1,24,0.6,13.373,M,-29.745,M,0.0,*5F
###2023-12-09 12:46:09.346933$GNGGA,174608.50,4138.0483963,N,07032.3884234,W,1,24,0.6,13.372,M,-29.745,M,0.0,*5A
###2023-12-09 12:46:09.546190$GNGGA,174608.70,4138.0483874,N,07032.3883971,W,1,24,0.6,13.390,M,-29.745,M,0.0,*5E
###2023-12-09 12:46:09.746976$GNGGA,174608.90,4138.0483826,N,07032.3883730,W,1,24,0.6,13.358,M,-29.745,M,0.0,*58
###2023-12-09 12:46:09.943790$GNRMC,174609.10,A,4138.0483818,N,07032.3884228,W,0.99,264.30,091223,,,A*5F
###2023-12-09 12:46:09.946982$GNGGA,174609.10,4138.0483818,N,07032.3884228,W,1,24,0.6,13.353,M,-29.745,M,0.0,*5C
###2023-12-09 12:46:09.948879$GPGSA,A,3,03,04,16,26,28,29,31,32,,,,,1.1,0.6,0.9*3B
###2023-12-09 12:46:09.950619$GLGSA,A,3,65,71,72,73,74,75,,,,,,,1.1,0.6,0.9*24
###2023-12-09 12:46:09.952216$GAGSA,A,3,04,19,21,27,,,,,,,,,1.1,0.6,0.9*26
###2023-12-09 12:46:09.953867$GBGSA,A,3,14,24,25,26,33,,,,,,,,1.1,0.6,0.9*2F
###2023-12-09 12:46:09.956207$GPGSV,2,1,08,03,37,270,41,04,26,311,39,16,42,209,41,26,72,208,46*7A
###2023-12-09 12:46:09.958545$GPGSV,2,2,08,28,54,062,46,29,26,068,43,31,72,018,46,32,25,137,45*74
###2023-12-09 12:46:09.960897$GLGSV,2,1,06,65,17,329,39,71,50,171,47,72,70,297,46,73,43,037,47*68
###2023-12-09 12:46:09.962668$GLGSV,2,2,06,74,71,310,43,75,26,245,41,,,,,,,,*63
###2023-12-09 12:46:09.964992$GAGSV,1,1,04,04,24,312,39,19,84,283,40,21,82,167,45,27,38,049,44*66
