###2023-12-09 12:39:05.969871$GNZDA,173905.10,09,12,2023,00,00*79
###2023-12-09 12:39:05.970533$GNEBP,,,,,,M*13
###2023-12-09 12:39:06.139989$GNGGA,173905.30,4138.0534830,N,07032.3730538,W,1,23,0.7,13.639,M,-29.744,M,0.0,*55
###2023-12-09 12:39:06.340158$GNGGA,173905.50,4138.0534923,N,07032.3731202,W,1,23,0.7,13.641,M,-29.744,M,0.0,*50
###2023-12-09 12:39:06.541950$GNGGA,173905.70,4138.0534815,N,07032.3731505,W,1,23,0.7,13.642,M,-29.744,M,0.0,*55
###2023-12-09 12:39:06.739752$GNGGA,173905.90,4138.0534674,N,07032.3731696,W,1,23,0.7,13.617,M,-29.744,M,0.0,*5B
###2023-12-09 12:39:06.941715$GNRMC,173906.10,A,4138.0534678,N,07032.3732186,W,0.97,289.31,091223,,,A*54
###2023-12-09 12:39:06.944611$GNGGA,173906.10,4138.0534678,N,07032.3732186,W,1,23,0.7,13.609,M,-29.744,M,0.0,*56
###2023-12-09 12:39:06.946488$GPGSA,A,3,03,04,16,26,28,29,31,32,,,,,1.2,0.7,1.0*31
###2023-12-09 12:39:06.948180$GLGSA,A,3,71,72,73,74,75,,,,,,,,1.2,0.7,1.0*2D
###2023-12-09 12:39:06.949774$GAGSA,A,3,04,19,21,27,,,,,,,,,1.2,0.7,1.0*2C
###2023-12-09 12:39:06.951447$GBGSA,A,3,14,24,25,26,33,,,,,,,,1.2,0.7,1.0*25
###2023-12-09 12:39:06.953792$GPGSV,2,1,08,03,38,275,42,04,23,311,39,16,38,208,42,26,68,207,46*7D
###2023-12-09 12:39:06.956156$GPGSV,2,2,08,28,57,058,45,29,25,072,44,31,73,007,47,32,28,135,45*73
###2023-12-09 12:39:06.958500$GLGSV,2,1,05,71,55,169,48,72,67,307,45,73,46,034,46,74,71,296,42*6B
###2023-12-09 12:39:06.959983$GLGSV,2,2,05,75,23,242,40,,,,,,,,,,,,*53
###2023-12-09 12:39:06.962330$GAGSV,1,1,04,04,22,311,39,19,82,296,40,21,79,174,46,27,40,049,44*6B
###2023-12-09 12:39:06.964684$GBGSV,2,1,05,14,53,197,45,24,80,355,48,25,34,254,43,26,33,058,45*6D
###2023-12-09 12:39:06.966153$GBGSV,2,2,05,33,62,250,46,,,,,,,,,,,,*5F
###2023-12-09 12:39:06.967501$GNVTG,289.31,T,,M,0.97,N,1.80,K,A*25
###2023-12-09 12:39:06.969164$GNGST,173906.10,18.000,,,,0.081,0.071,0.170*5C
###2023-12-09 12:39:06.970468$GNZDA,173906.10,09,12,2023,00,00*7A
###2023-12-09 12:39:06.971124$GNEBP,,,,,,M*13
###2023-12-09 12:39:07.141539$GNGGA,173906.30,4138.0534875,N,07032.3732955,W,1,23,0.7,13.628,M,-29.744,M,0.0,*52
###2023-12-09 12:39:07.339074$GNGGA,173906.50,4138.0535009,N,07032.3733644,W,1,23,0.7,13.632,M,-29.744,M,0.0,*53
###2023-12-09 12:39:07.538481$GNGGA,173906.70,4138.0534939,N,07032.3733968,W,1,23,0.7,13.634,M,-29.744,M,0.0,*5D
###2023-12-09 12:39:07.740346$GNGGA,173906.90,4138.0534774,N,07032.3734070,W,1,23,0.7,13.613,M,-29.744,M,0.0,*56
###2023-12-09 12:39:07.939889$GNRMC,173907.10,A,4138.0534771,N,07032.3734456,W,0.93,290.29,091223,,,A*56
###2023-12-09 12:39:07.942786$GNGGA,173907.10,4138.0534771,N,07032.3734456,W,1,23,0.7,13.596,M,-29.744,M,0.0,*54
###2023-12-09 12:39:07.944645$GPGSA,A,3,03,04,16,26,28,29,31,32,,,,,1.2,0.7,1.0*31
###2023-12-09 12:39:07.946298$GLGSA,A,3,71,72,73,74,75,,,,,,,,1.2,0.7,1.0*2D
###2023-12-09 12:39:07.947918$GAGSA,A,3,04,19,21,27,,,,,,,,,1.2,0.7,1.0*2C
###2023-12-09 12:39:07.949577$GBGSA,A,3,14,24,25,26,33,,,,,,,,1.2,0.7,1.0*25
###2023-12-09 12:39:07.951931$GPGSV,2,1,08,03,38,275,41,04,23,311,38,16,38,208,42,26,68,207,47*7E
###2023-12-09 12:39:07.954283$GPGSV,2,2,08,28,57,058,45,29,25,072,44,31,73,007,47,32,28,135,47*71
###2023-12-09 12:39:07.956641$GLGSV,2,1,05,71,55,169,48,72,67,307,45,73,46,034,47,74,71,296,42*6A
###2023-12-09 12:39:07.958104$GLGSV,2,2,05,75,23,242,38,,,,,,,,,,,,*5C
###2023-12-09 12:39:07.960442$GAGSV,1,1,04,04,22,311,36,19,82,296,40,21,79,174,46,27,40,049,44*64
###2023-12-09 12:39:07.962788$GBGSV,2,1,05,14,53,197,45,24,80,355,47,25,34,254,42,26,33,058,45*63
###2023-12-09 12:39:07.964245$GBGSV,2,2,05,33,62,250,46,,,,,,,,,,,,*5F
###2023-12-09 12:39:07.965567$GNVTG,290.29,T,,M,0.93,N,1.73,K,A*2C
###2023-12-09 12:39:07.967233$GNGST,173907.10,19.000,,,,0.081,0.071,0.170*5C
###2023-12-09 12:39:07.968524$GNZDA,173907.10,09,12,2023,00,00*7B
###2023-12-09 12:39:07.969160$GNEBP,,,,,,M*13
###2023-12-09 12:39:08.140891$GNGGA,173907.30,4138.0534931,N,07032.3735185,W,1,23,0.7,13.612,M,-29.744,M,0.0,*59
###2023-12-09 12:39:08.339108$GNGGA,173907.50,4138.0535038,N,07032.3735842,W,1,23,0.7,13.624,M,-29.744,M,0.0,*59
###2023-12-09 12:39:08.539515$GNGGA,173907.70,4138.0535026,N,07032.3736238,W,1,23,0.7,13.641,M,-29.744,M,0.0,*53
###2023-12-09 12:39:08.737720$GNGGA,173907.90,4138.0534963,N,07032.3736442,W,1,23,0.7,13.624,M,-29.744,M,0.0,*5C
###2023-12-09 12:39:08.947142$GNRMC,173908.10,A,4138.0534888,N,07032.3736702,W,0.54,287.32,091223,,,A*57
###2023-12-09 12:39:08.950000$GNGGA,173908.10,4138.0534888,N,07032.3736702,W,1,23,0.7,13.584,M,-29.744,M,0.0,*51
###2023-12-09 12:39:08.951872$GPGSA,A,3,03,04,16,26,28,29,31,32,,,,,1.2,0.7,1.0*31
###2023-12-09 12:39:08.953517$GLGSA,A,3,71,72,73,74,75,,,,,,,,1.2,0.7,1.0*2D
###2023-12-09 12:39:08.955150$GAGSA,A,3,04,19,21,27,,,,,,,,,1.2,0.7,1.0*2C
###2023-12-09 12:39:08.956807$GBGSA,A,3,14,24,25,26,33,,,,,,,,1.2,0.7,1.0*25
###2023-12-09 12:39:08.959151$GPGSV,2,1,08,03,38,275,42,04,23,311,37,16,38,208,42,26,68,207,47*72
###2023-12-09 12:39:08.961486$GPGSV,2,2,08,28,57,058,45,29,25,072,43,31,73,007,47,32,28,135,47*76
###2023-12-09 12:39:08.963837$GLGSV,2,1,05,71,55,169,48,72,67,307,45,73,46,034,47,74,71,296,41*69
###2023-12-09 12:39:08.965298$GLGSV,2,2,05,75,23,242,39,,,,,,,,,,,,*5D
###2023-12-09 12:39:08.967642$GAGSV,1,1,04,04,22,311,36,19,82,296,40,21,79,174,45,27,40,049,44*67
###2023-12-09 12:39:08.969976$GBGSV,2,1,05,14,53,197,46,24,80,355,48,25,34,254,42,26,33,058,45*6F
###2023-12-09 12:39:08.971439$GBGSV,2,2,05,33,62,250,46,,,,,,,,,,,,*5F
###2023-12-09 12:39:08.972761$GNVTG,287.32,T,,M,0.54,N,1.01,K,A*2E
###2023-12-09 12:39:08.974405$GNGST,173908.10,19.000,,,,0.081,0.071,0.170*53
###2023-12-09 12:39:08.975710$GNZDA,173908.10,09,12,2023,00,00*74
###2023-12-09 12:39:08.976354$GNEBP,,,,,,M*13
###2023-12-09 12:39:09.139923$GNGGA,173908.30,4138.0534957,N,07032.3737265,W,1,23,0.7,13.582,M,-29.744,M,0.0,*53
###2023-12-09 12:39:09.340243$GNGGA,173908.50,4138.0535094,N,07032.3737987,W,1,23,0.7,13.600,M,-29.744,M,0.0,*5C
###2023-12-09 12:39:09.540556$GNGGA,173908.70,4138.0535122,N,07032.3738452,W,1,23,0.7,13.607,M,-29.744,M,0.0,*5F
###2023-12-09 12:39:09.739920$GNGGA,173908.90,4138.0535035,N,07032.3738587,W,1,23,0.7,13.605,M,-29.744,M,0.0,*5D
###2023-12-09 12:39:09.939783$GNRMC,173909.10,A,4138.0534977,N,07032.3738746,W,0.49,284.24,091223,,,A*51
###2023-12-09 12:39:09.942648$GNGGA,173909.10,4138.0534977,N,07032.3738746,W,1,23,0.7,13.577,M,-29.744,M,0.0,*53
###2023-12-09 12:39:09.944506$GPGSA,A,3,03,04,16,26,28,29,31,32,,,,,1.2,0.7,1.0*31
###2023-12-09 12:39:09.946162$GLGSA,A,3,71,72,73,74,75,,,,,,,,1.2,0.7,1.0*2D
###2023-12-09 12:39:09.947778$GAGSA,A,3,04,19,21,27,,,,,,,,,1.2,0.7,1.0*2C
###2023-12-09 12:39:09.949443$GBGSA,A,3,14,24,25,26,33,,,,,,,,1.2,0.7,1.0*25
###2023-12-09 12:39:09.951798$GPGSV,2,1,08,03,38,275,41,04,23,311,38,16,38,208,42,26,68,207,46*7F
###2023-12-09 12:39:09.954150$GPGSV,2,2,08,28,57,058,45,29,25,072,41,31,73,007,47,32,28,135,45*76
###2023-12-09 12:39:09.956510$GLGSV,2,1,05,71,55,169,47,72,67,307,46,73,46,034,47,74,71,296,42*66
###2023-12-09 12:39:09.957973$GLGSV,2,2,05,75,23,242,39,,,,,,,,,,,,*5D
###2023-12-09 12:39:09.960328$GAGSV,1,1,04,04,22,311,36,19,82,296,41,21,79,174,46,27,40,049,44*65
###2023-12-09 12:39:09.962684$GBGSV,2,1,05,14,53,197,45,24,80,355,47,25,34,254,42,26,33,058,45*63
###2023-12-09 12:39:09.964147$GBGSV,2,2,05,33,62,250,46,,,,,,,,,,,,*5F
###2023-12-09 12:39:09.965475$GNVTG,284.24,T,,M,0.49,N,0.90,K,A*2F
###2023-12-09 12:39:09.967142$GNGST,173909.10,19.000,,,,0.081,0.071,0.170*52
###2023-12-09 12:39:09.968440$GNZDA,173909.10,09,12,2023,00,00*75
###2023-12-09 12:39:09.969084$GNEBP,,,,,,M*13
###2023-12-09 12:39:10.139386$GNGGA,173909.30,4138.0535044,N,07032.3739314,W,1,23,0.7,13.563,M,-29.744,M,0.0,*5E
###2023-12-09 12:39:10.338136$GNGGA,173909.50,4138.0535161,N,07032.3739992,W,1,23,0.7,13.565,M,-29.744,M,0.0,*5C
###2023-12-09 12:39:10.540090$GNGGA,173909.70,4138.0535182,N,07032.3740376,W,1,23,0.7,13.570,M,-29.744,M,0.0,*59
###2023-12-09 12:39:10.738532$GNGGA,173909.90,4138.0535123,N,07032.3740549,W,1,23,0.7,13.585,M,-29.744,M,0.0,*5C
###2023-12-09 12:39:10.940763$GNRMC,173910.10,A,4138.0535112,N,07032.3740845,W,0.54,283.61,091223,,,A*5A
###2023-12-09 12:39:10.943880$GNGGA,173910.10,4138.0535112,N,07032.3740845,W,1,23,0.7,13.584,M,-29.744,M,0.0,*5E
###2023-12-09 12:39:10.945743$GPGSA,A,3,03,04,16,26,28,29,31,32,,,,,1.2,0.7,1.0*31
###2023-12-09 12:39:10.947412$GLGSA,A,3,71,72,73,74,75,,,,,,,,1.2,0.7,1.0*2D
###2023-12-09 12:39:10.948997$GAGSA,A,3,04,19,21,27,,,,,,,,,1.2,0.7,1.0*2C
###2023-12-09 12:39:10.950650$GBGSA,A,3,14,24,25,26,33,,,,,,,,1.2,0.7,1.0*25
###2023-12-09 12:39:10.952955$GPGSV,2,1,08,03,38,275,43,04,23,311,40,16,38,208,42,26,68,207,47*73
###2023-12-09 12:39:10.955281$GPGSV,2,2,08,28,57,058,45,29,25,072,42,31,73,007,47,32,28,135,45*75
###2023-12-09 12:39:10.957596$GLGSV,2,1,05,71,55,169,47,72,67,307,47,73,46,034,46,74,71,296,43*67
###2023-12-09 12:39:10.959053$GLGSV,2,2,05,75,23,242,37,,,,,,,,,,,,*53
