###2023-12-09 13:36:34.019919$GPGSV,2,2,08,27,17,172,41,28,37,085,44,29,20,046,44,31,59,067,47*77
###2023-12-09 13:36:34.022808$GLGSV,2,1,07,65,39,318,46,71,22,175,42,72,62,220,48,73,22,052,46*6F
###2023-12-09 13:36:34.025289$GLGSV,2,2,07,74,59,015,44,75,44,272,48,83,15,047,38,,,,*57
###2023-12-09 13:36:34.028132$GAGSV,1,1,04,04,40,310,45,19,71,181,41,21,76,045,46,27,22,050,43*6A
###2023-12-09 13:36:34.030978$GBGSV,2,1,07,12,16,125,36,14,28,189,41,24,62,047,48,25,52,277,47*6E
###2023-12-09 13:36:34.033443$GBGSV,2,2,07,26,15,071,44,33,45,217,47,35,16,056,45,,,,*5F
###2023-12-09 13:36:34.035077$GNVTG,125.75,T,,M,1.38,N,2.56,K,A*2C
###2023-12-09 13:36:34.037024$GNGST,183633.10,5.600,,,,0.086,0.066,0.140*62
###2023-12-09 13:36:34.038593$GNZDA,183633.10,09,12,2023,00,00*7C
###2023-12-09 13:36:34.039372$GNEBP,,,,,,M*13
###2023-12-09 13:36:34.200722$GNGGA,183633.30,4138.0453342,N,07032.4029333,W,1,27,0.6,13.447,M,-29.745,M,0.0,*54
###2023-12-09 13:36:34.397847$GNGGA,183633.50,4138.0452820,N,07032.4028471,W,1,27,0.6,13.447,M,-29.745,M,0.0,*5C
###2023-12-09 13:36:34.597642$GNGGA,183633.70,4138.0452369,N,07032.4027682,W,1,27,0.6,13.450,M,-29.745,M,0.0,*5F
###2023-12-09 13:36:34.798263$GNGGA,183633.90,4138.0451908,N,07032.4026885,W,1,27,0.6,13.450,M,-29.745,M,0.0,*57
###2023-12-09 13:36:35.002029$GNRMC,183634.10,A,4138.0451444,N,07032.4026132,W,1.26,130.61,091223,,,A*5F
###2023-12-09 13:36:35.004920$GNGGA,183634.10,4138.0451444,N,07032.4026132,W,1,27,0.6,13.452,M,-29.745,M,0.0,*5A
###2023-12-09 13:36:35.006791$GPGSA,A,3,03,04,16,26,27,28,29,31,,,,,1.0,0.6,0.8*3F
###2023-12-09 13:36:35.008562$GLGSA,A,3,65,71,72,73,74,75,83,,,,,,1.0,0.6,0.8*2F
###2023-12-09 13:36:35.010140$GAGSA,A,3,04,19,21,27,,,,,,,,,1.0,0.6,0.8*26
###2023-12-09 13:36:35.011923$GBGSA,A,3,12,14,24,25,26,33,35,,,,,,1.0,0.6,0.8*2A
###2023-12-09 13:36:35.014240$GPGSV,2,1,08,03,26,246,43,04,47,307,46,16,67,223,48,26,83,040,50*74
###2023-12-09 13:36:35.016574$GPGSV,2,2,08,27,17,172,40,28,37,085,47,29,20,046,46,31,59,067,48*78
###2023-12-09 13:36:35.018912$GLGSV,2,1,07,65,39,318,45,71,22,175,42,72,62,220,48,73,22,052,46*6C
###2023-12-09 13:36:35.020949$GLGSV,2,2,07,74,59,015,43,75,44,272,49,83,15,047,38,,,,*51
###2023-12-09 13:36:35.023287$GAGSV,1,1,04,04,40,310,47,19,71,181,42,21,76,045,48,27,22,050,44*62
###2023-12-09 13:36:35.025618$GBGSV,2,1,07,12,16,125,39,14,28,189,41,24,62,047,48,25,52,277,47*61
###2023-12-09 13:36:35.027725$GBGSV,2,2,07,26,15,071,45,33,45,217,48,35,16,056,45,,,,*51
###2023-12-09 13:36:35.029058$GNVTG,130.61,T,,M,1.26,N,2.34,K,A*26
###2023-12-09 13:36:35.030684$GNGST,183634.10,5.600,,,,0.086,0.065,0.140*66
###2023-12-09 13:36:35.031975$GNZDA,183634.10,09,12,2023,00,00*7B
###2023-12-09 13:36:35.032616$GNEBP,,,,,,M*13
###2023-12-09 13:36:35.199374$GNGGA,183634.30,4138.0451030,N,07032.4025402,W,1,27,0.6,13.459,M,-29.745,M,0.0,*51
###2023-12-09 13:36:35.398079$GNGGA,183634.50,4138.0450585,N,07032.4024607,W,1,27,0.6,13.458,M,-29.745,M,0.0,*5A
###2023-12-09 13:36:35.601688$GNGGA,183634.70,4138.0450139,N,07032.4023894,W,1,27,0.6,13.457,M,-29.745,M,0.0,*57
###2023-12-09 13:36:35.797307$GNGGA,183634.90,4138.0449796,N,07032.4023308,W,1,27,0.6,13.462,M,-29.745,M,0.0,*5A
###2023-12-09 13:36:36.002155$GNRMC,183635.10,A,4138.0449383,N,07032.4022667,W,1.26,132.72,091223,,,A*58
###2023-12-09 13:36:36.005056$GNGGA,183635.10,4138.0449383,N,07032.4022667,W,1,27,0.6,13.474,M,-29.745,M,0.0,*59
###2023-12-09 13:36:36.006937$GPGSA,A,3,03,04,16,26,27,28,29,31,,,,,1.0,0.6,0.8*3F
###2023-12-09 13:36:36.008718$GLGSA,A,3,65,71,72,73,74,75,83,,,,,,1.0,0.6,0.8*2F
###2023-12-09 13:36:36.010293$GAGSA,A,3,04,19,21,27,,,,,,,,,1.0,0.6,0.8*26
###2023-12-09 13:36:36.012075$GBGSA,A,3,12,14,24,25,26,33,35,,,,,,1.0,0.6,0.8*2A
###2023-12-09 13:36:36.014392$GPGSV,2,1,08,03,26,246,43,04,47,307,45,16,67,223,47,26,83,040,49*70
###2023-12-09 13:36:36.016716$GPGSV,2,2,08,27,17,172,40,28,37,085,45,29,20,046,44,31,59,067,47*77
###2023-12-09 13:36:36.019042$GLGSV,2,1,07,65,39,318,44,71,22,175,42,72,62,220,48,73,22,052,46*6D
###2023-12-09 13:36:36.021113$GLGSV,2,2,07,74,59,015,43,75,44,272,48,83,15,047,37,,,,*5F
###2023-12-09 13:36:36.023454$GAGSV,1,1,04,04,40,310,45,19,71,181,41,21,76,045,46,27,22,050,43*6A
###2023-12-09 13:36:36.025777$GBGSV,2,1,07,12,16,125,38,14,28,189,42,24,62,047,48,25,52,277,47*63
###2023-12-09 13:36:36.027815$GBGSV,2,2,07,26,15,071,44,33,44,216,47,35,16,056,44,,,,*5E
###2023-12-09 13:36:36.029135$GNVTG,132.72,T,,M,1.26,N,2.34,K,A*26
###2023-12-09 13:36:36.030751$GNGST,183635.10,5.700,,,,0.085,0.065,0.140*65
###2023-12-09 13:36:36.032032$GNZDA,183635.10,09,12,2023,00,00*7A
###2023-12-09 13:36:36.032666$GNEBP,,,,,,M*13
###2023-12-09 13:36:36.199502$GNGGA,183635.30,4138.0448963,N,07032.4021987,W,1,27,0.6,13.479,M,-29.745,M,0.0,*51
###2023-12-09 13:36:36.397807$GNGGA,183635.50,4138.0448692,N,07032.4021422,W,1,27,0.6,13.473,M,-29.745,M,0.0,*5E
###2023-12-09 13:36:36.597635$GNGGA,183635.70,4138.0448341,N,07032.4020950,W,1,27,0.6,13.476,M,-29.745,M,0.0,*5B
###2023-12-09 13:36:36.800571$GNGGA,183635.90,4138.0447909,N,07032.4020392,W,1,27,0.6,13.488,M,-29.745,M,0.0,*59
###2023-12-09 13:36:37.001963$GNRMC,183636.10,A,4138.0447606,N,07032.4019827,W,0.80,126.95,091223,,,A*5E
###2023-12-09 13:36:37.004860$GNGGA,183636.10,4138.0447606,N,07032.4019827,W,1,27,0.6,13.497,M,-29.745,M,0.0,*53
###2023-12-09 13:36:37.006731$GPGSA,A,3,03,04,16,26,27,28,29,31,,,,,1.0,0.6,0.8*3F
###2023-12-09 13:36:37.008507$GLGSA,A,3,65,71,72,73,74,75,83,,,,,,1.0,0.6,0.8*2F
###2023-12-09 13:36:37.010089$GAGSA,A,3,04,19,21,27,,,,,,,,,1.0,0.6,0.8*26
###2023-12-09 13:36:37.011913$GBGSA,A,3,12,14,24,25,26,33,35,,,,,,1.0,0.6,0.8*2A
###2023-12-09 13:36:37.014234$GPGSV,2,1,08,03,26,246,43,04,47,307,45,16,67,223,47,26,83,040,49*70
###2023-12-09 13:36:37.016581$GPGSV,2,2,08,27,17,172,40,28,37,085,45,29,20,046,44,31,59,067,47*77
###2023-12-09 13:36:37.018932$GLGSV,2,1,07,65,39,318,45,71,22,175,43,72,62,220,48,73,22,052,46*6D
###2023-12-09 13:36:37.020978$GLGSV,2,2,07,74,59,015,43,75,44,272,48,83,15,047,37,,,,*5F
###2023-12-09 13:36:37.023317$GAGSV,1,1,04,04,40,310,44,19,71,181,41,21,76,045,46,27,22,050,42*6A
###2023-12-09 13:36:37.025651$GBGSV,2,1,07,12,16,125,40,14,28,189,41,24,62,047,48,25,52,277,46*6E
###2023-12-09 13:36:37.027718$GBGSV,2,2,07,26,15,071,45,33,44,216,47,35,16,055,44,,,,*5C
###2023-12-09 13:36:37.029045$GNVTG,126.95,T,,M,0.80,N,1.48,K,A*2F
###2023-12-09 13:36:37.030671$GNGST,183636.10,5.700,,,,0.085,0.065,0.140*66
###2023-12-09 13:36:37.031966$GNZDA,183636.10,09,12,2023,00,00*79
###2023-12-09 13:36:37.032606$GNEBP,,,,,,M*13
###2023-12-09 13:36:37.198256$GNGGA,183636.30,4138.0447379,N,07032.4019365,W,1,27,0.6,13.496,M,-29.745,M,0.0,*50
###2023-12-09 13:36:37.398642$GNGGA,183636.50,4138.0446987,N,07032.4018945,W,1,27,0.6,13.497,M,-29.745,M,0.0,*54
###2023-12-09 13:36:37.596731$GNGGA,183636.70,4138.0446623,N,07032.4018493,W,1,27,0.6,13.497,M,-29.745,M,0.0,*51
###2023-12-09 13:36:37.798273$GNGGA,183636.90,4138.0446375,N,07032.4018051,W,1,27,0.6,13.501,M,-29.745,M,0.0,*5D
###2023-12-09 13:36:38.002024$GNRMC,183637.10,A,4138.0446141,N,07032.4017612,W,0.78,126.95,091223,,,A*5B
###2023-12-09 13:36:38.004920$GNGGA,183637.10,4138.0446141,N,07032.4017612,W,1,27,0.6,13.498,M,-29.745,M,0.0,*5E
###2023-12-09 13:36:38.006796$GPGSA,A,3,03,04,16,26,27,28,29,31,,,,,1.0,0.6,0.8*3F
###2023-12-09 13:36:38.008575$GLGSA,A,3,65,71,72,73,74,75,83,,,,,,1.0,0.6,0.8*2F
###2023-12-09 13:36:38.010157$GAGSA,A,3,04,19,21,27,,,,,,,,,1.0,0.6,0.8*26
###2023-12-09 13:36:38.011941$GBGSA,A,3,12,14,24,25,26,33,35,,,,,,1.0,0.6,0.8*2A
###2023-12-09 13:36:38.014274$GPGSV,2,1,08,03,26,246,42,04,47,307,45,16,67,223,47,26,83,040,48*70
###2023-12-09 13:36:38.016619$GPGSV,2,2,08,27,17,172,39,28,37,085,45,29,20,046,44,31,59,067,46*78
###2023-12-09 13:36:38.018966$GLGSV,2,1,07,65,39,317,45,71,22,175,41,72,62,220,47,73,22,052,46*6F
###2023-12-09 13:36:38.021002$GLGSV,2,2,07,74,59,015,44,75,44,272,48,83,15,047,36,,,,*59
###2023-12-09 13:36:38.023346$GAGSV,1,1,04,04,40,310,45,19,71,181,41,21,76,045,47,27,22,050,43*6B
###2023-12-09 13:36:38.025676$GBGSV,2,1,07,12,16,125,38,14,28,189,42,24,62,047,49,25,52,277,47*62
###2023-12-09 13:36:38.027966$GBGSV,2,2,07,26,15,071,45,33,44,216,47,35,16,055,43,,,,*5B
###2023-12-09 13:36:38.029309$GNVTG,126.95,T,,M,0.78,N,1.44,K,A*24
###2023-12-09 13:36:38.030948$GNGST,183637.10,5.600,,,,0.085,0.064,0.140*67
###2023-12-09 13:36:38.032246$GNZDA,183637.10,09,12,2023,00,00*78
###2023-12-09 13:36:38.032889$GNEBP,,,,,,M*13
###2023-12-09 13:36:38.198388$GNGGA,183637.30,4138.0445802,N,07032.4017227,W,1,27,0.6,13.507,M,-29.745,M,0.0,*54
###2023-12-09 13:36:38.397433$GNGGA,183637.50,4138.0445435,N,07032.4016852,W,1,27,0.6,13.511,M,-29.745,M,0.0,*54
###2023-12-09 13:36:38.598639$GNGGA,183637.70,4138.0445199,N,07032.4016460,W,1,27,0.6,13.504,M,-29.745,M,0.0,*5C
###2023-12-09 13:36:38.798308$GNGGA,183637.90,4138.0444966,N,07032.4016085,W,1,27,0.6,13.499,M,-29.745,M,0.0,*51
###2023-12-09 13:36:39.008139$GNRMC,183638.10,A,4138.0444647,N,07032.4015740,W,0.80,126.95,091223,,,A*54
###2023-12-09 13:36:39.011026$GNGGA,183638.10,4138.0444647,N,07032.4015740,W,1,27,0.6,13.506,M,-29.745,M,0.0,*50
