###2023-12-09 13:08:37.979506$GLGSA,A,3,65,71,72,73,74,75,,,,,,,1.1,0.6,0.9*24
###2023-12-09 13:08:37.981112$GAGSA,A,3,04,19,21,27,,,,,,,,,1.1,0.6,0.9*26
###2023-12-09 13:08:37.982849$GBGSA,A,3,14,24,25,26,33,35,,,,,,,1.1,0.6,0.9*29
###2023-12-09 13:08:37.985179$GPGSV,2,1,08,03,34,258,45,04,35,311,44,16,53,214,47,26,83,210,48*7C
###2023-12-09 13:08:37.987526$GPGSV,2,2,08,28,47,073,44,29,25,058,42,31,67,044,46,32,16,141,41*7D
###2023-12-09 13:08:37.989868$GLGSV,2,1,06,65,27,326,42,71,37,173,46,72,72,258,46,73,33,043,45*6D
###2023-12-09 13:08:37.991636$GLGSV,2,2,06,74,68,345,42,75,34,256,48,,,,,,,,*62
###2023-12-09 13:08:37.993963$GAGSV,1,1,04,04,31,312,42,19,82,199,40,21,85,085,45,27,31,048,42*64
###2023-12-09 13:08:37.996301$GBGSV,2,1,06,14,40,192,45,24,71,031,49,25,43,265,47,26,24,064,43*6E
###2023-12-09 13:08:37.998048$GBGSV,2,2,06,33,55,228,48,35,15,066,42,,,,,,,,*6D
###2023-12-09 13:08:37.999355$GNVTG,94.53,T,,M,3.42,N,6.34,K,A*1C
###2023-12-09 13:08:38.000995$GNGST,180837.10,18.000,,,,0.081,0.065,0.150*54
###2023-12-09 13:08:38.002282$GNZDA,180837.10,09,12,2023,00,00*75
###2023-12-09 13:08:38.002931$GNEBP,,,,,,M*13
###2023-12-09 13:08:38.169818$GNGGA,180837.30,4138.0831008,N,07032.2808343,W,1,25,0.6,13.149,M,-29.742,M,0.0,*5C
###2023-12-09 13:08:38.370414$GNGGA,180837.50,4138.0830704,N,07032.2805858,W,1,25,0.6,13.103,M,-29.742,M,0.0,*52
###2023-12-09 13:08:38.570969$GNGGA,180837.70,4138.0830883,N,07032.2803455,W,1,25,0.6,13.138,M,-29.742,M,0.0,*5F
###2023-12-09 13:08:38.770897$GNGGA,180837.90,4138.0830805,N,07032.2800829,W,1,25,0.6,13.163,M,-29.742,M,0.0,*55
###2023-12-09 13:08:38.972533$GNRMC,180838.10,A,4138.0830253,N,07032.2798373,W,3.34,110.43,091223,,,A*55
###2023-12-09 13:08:38.975410$GNGGA,180838.10,4138.0830253,N,07032.2798373,W,1,25,0.6,13.135,M,-29.742,M,0.0,*52
###2023-12-09 13:08:38.977272$GPGSA,A,3,03,04,16,26,28,29,31,32,,,,,1.1,0.6,0.9*3B
###2023-12-09 13:08:38.979001$GLGSA,A,3,65,71,72,73,74,75,,,,,,,1.1,0.6,0.9*24
###2023-12-09 13:08:38.980588$GAGSA,A,3,04,19,21,27,,,,,,,,,1.1,0.6,0.9*26
###2023-12-09 13:08:38.982301$GBGSA,A,3,14,24,25,26,33,35,,,,,,,1.1,0.6,0.9*29
###2023-12-09 13:08:38.984642$GPGSV,2,1,08,03,34,258,44,04,35,311,43,16,53,214,47,26,83,210,48*7A
###2023-12-09 13:08:38.986983$GPGSV,2,2,08,28,47,073,44,29,25,058,43,31,67,044,46,32,16,141,40*7D
###2023-12-09 13:08:38.989324$GLGSV,2,1,06,65,27,326,41,71,37,173,46,72,72,258,46,73,33,043,44*6F
###2023-12-09 13:08:38.991085$GLGSV,2,2,06,74,68,345,42,75,34,256,47,,,,,,,,*6D
###2023-12-09 13:08:38.993406$GAGSV,1,1,04,04,31,312,43,19,82,199,40,21,85,085,46,27,31,048,43*67
###2023-12-09 13:08:38.995753$GBGSV,2,1,06,14,40,192,44,24,71,031,48,25,43,265,46,26,24,064,43*6F
###2023-12-09 13:08:38.997496$GBGSV,2,2,06,33,55,228,47,35,15,066,40,,,,,,,,*60
###2023-12-09 13:08:38.998839$GNVTG,110.43,T,,M,3.34,N,6.19,K,A*2E
###2023-12-09 13:08:39.000491$GNGST,180838.10,18.000,,,,0.081,0.065,0.150*5B
###2023-12-09 13:08:39.001781$GNZDA,180838.10,09,12,2023,00,00*7A
###2023-12-09 13:08:39.002423$GNEBP,,,,,,M*13
###2023-12-09 13:08:39.172453$GNGGA,180838.30,4138.0829785,N,07032.2796000,W,1,25,0.6,13.149,M,-29.742,M,0.0,*54
###2023-12-09 13:08:39.370706$GNGGA,180838.50,4138.0829668,N,07032.2793425,W,1,25,0.6,13.171,M,-29.742,M,0.0,*5D
###2023-12-09 13:08:39.569701$GNGGA,180838.70,4138.0829196,N,07032.2790902,W,1,25,0.6,13.145,M,-29.742,M,0.0,*55
###2023-12-09 13:08:39.771574$GNGGA,180838.90,4138.0828596,N,07032.2788430,W,1,25,0.6,13.147,M,-29.742,M,0.0,*59
###2023-12-09 13:08:39.970340$GNRMC,180839.10,A,4138.0828109,N,07032.2785920,W,3.54,105.41,091223,,,A*51
###2023-12-09 13:08:39.973250$GNGGA,180839.10,4138.0828109,N,07032.2785920,W,1,25,0.6,13.171,M,-29.742,M,0.0,*56
###2023-12-09 13:08:39.975134$GPGSA,A,3,03,04,16,26,28,29,31,32,,,,,1.1,0.6,0.9*3B
###2023-12-09 13:08:39.976858$GLGSA,A,3,65,71,72,73,74,75,,,,,,,1.1,0.6,0.9*24
###2023-12-09 13:08:39.978443$GAGSA,A,3,04,19,21,27,,,,,,,,,1.1,0.6,0.9*26
###2023-12-09 13:08:39.980169$GBGSA,A,3,14,24,25,26,33,35,,,,,,,1.1,0.6,0.9*29
###2023-12-09 13:08:39.982504$GPGSV,2,1,08,03,34,258,44,04,35,311,43,16,53,214,47,26,83,210,48*7A
###2023-12-09 13:08:39.984849$GPGSV,2,2,08,28,47,073,43,29,25,058,42,31,67,044,46,32,16,141,39*75
###2023-12-09 13:08:39.987201$GLGSV,2,1,06,65,27,326,41,71,37,173,45,72,72,258,46,73,33,043,45*6D
###2023-12-09 13:08:39.988956$GLGSV,2,2,06,74,68,345,43,75,34,256,47,,,,,,,,*6C
###2023-12-09 13:08:39.991299$GAGSV,1,1,04,04,31,312,41,19,82,199,40,21,85,085,46,27,31,048,42*64
###2023-12-09 13:08:39.993633$GBGSV,2,1,06,14,40,192,44,24,71,031,49,25,43,265,47,26,24,064,42*6E
###2023-12-09 13:08:39.995396$GBGSV,2,2,06,33,55,228,48,35,15,066,41,,,,,,,,*6E
###2023-12-09 13:08:39.996726$GNVTG,105.41,T,,M,3.54,N,6.55,K,A*26
###2023-12-09 13:08:39.998380$GNGST,180839.10,18.000,,,,0.082,0.065,0.150*59
###2023-12-09 13:08:39.999691$GNZDA,180839.10,09,12,2023,00,00*7B
###2023-12-09 13:08:40.000333$GNEBP,,,,,,M*13
###2023-12-09 13:08:40.167812$GNGGA,180839.30,4138.0827543,N,07032.2783343,W,1,25,0.6,13.161,M,-29.742,M,0.0,*59
###2023-12-09 13:08:40.368190$GNGGA,180839.50,4138.0827088,N,07032.2780712,W,1,25,0.6,13.139,M,-29.742,M,0.0,*53
###2023-12-09 13:08:40.568968$GNGGA,180839.70,4138.0826772,N,07032.2778093,W,1,25,0.6,13.148,M,-29.742,M,0.0,*5D
###2023-12-09 13:08:40.769581$GNGGA,180839.90,4138.0826329,N,07032.2775459,W,1,25,0.6,13.173,M,-29.742,M,0.0,*5E
###2023-12-09 13:08:40.971454$GNRMC,180840.10,A,4138.0825667,N,07032.2772717,W,3.89,106.26,091223,,,A*5D
###2023-12-09 13:08:40.974322$GNGGA,180840.10,4138.0825667,N,07032.2772717,W,1,25,0.6,13.152,M,-29.742,M,0.0,*59
###2023-12-09 13:08:40.976192$GPGSA,A,3,03,04,16,26,28,29,31,32,,,,,1.1,0.6,0.9*3B
###2023-12-09 13:08:40.977911$GLGSA,A,3,65,71,72,73,74,75,,,,,,,1.1,0.6,0.9*24
###2023-12-09 13:08:40.979515$GAGSA,A,3,04,19,21,27,,,,,,,,,1.1,0.6,0.9*26
###2023-12-09 13:08:40.981237$GBGSA,A,3,14,24,25,26,33,35,,,,,,,1.1,0.6,0.9*29
###2023-12-09 13:08:40.983575$GPGSV,2,1,08,03,34,258,44,04,35,311,43,16,53,214,47,26,83,210,48*7A
###2023-12-09 13:08:40.985911$GPGSV,2,2,08,28,47,073,43,29,25,058,41,31,67,044,46,32,16,141,42*7A
###2023-12-09 13:08:40.988255$GLGSV,2,1,06,65,27,326,41,71,37,173,47,72,72,258,47,73,33,043,44*6F
###2023-12-09 13:08:40.989996$GLGSV,2,2,06,74,68,345,43,75,34,256,47,,,,,,,,*6C
###2023-12-09 13:08:40.992331$GAGSV,1,1,04,04,31,312,41,19,82,199,40,21,85,085,45,27,31,048,41*64
###2023-12-09 13:08:40.994668$GBGSV,2,1,06,14,40,192,45,24,71,031,48,25,43,265,47,26,24,064,40*6C
###2023-12-09 13:08:40.996416$GBGSV,2,2,06,33,55,228,48,35,15,066,41,,,,,,,,*6E
###2023-12-09 13:08:40.997740$GNVTG,106.26,T,,M,3.89,N,7.20,K,A*27
###2023-12-09 13:08:40.999396$GNGST,180840.10,18.000,,,,0.082,0.065,0.150*57
###2023-12-09 13:08:41.000690$GNZDA,180840.10,09,12,2023,00,00*75
###2023-12-09 13:08:41.001331$GNEBP,,,,,,M*13
###2023-12-09 13:08:41.171088$GNGGA,180840.30,4138.0825401,N,07032.2770047,W,1,25,0.6,13.133,M,-29.742,M,0.0,*5E
###2023-12-09 13:08:41.369433$GNGGA,180840.50,4138.0825442,N,07032.2767375,W,1,25,0.6,13.154,M,-29.742,M,0.0,*5A
###2023-12-09 13:08:41.569021$GNGGA,180840.70,4138.0825215,N,07032.2764649,W,1,25,0.6,13.157,M,-29.742,M,0.0,*56
###2023-12-09 13:08:41.768681$GNGGA,180840.90,4138.0824985,N,07032.2761903,W,1,25,0.6,13.155,M,-29.742,M,0.0,*5D
###2023-12-09 13:08:41.970664$GNRMC,180841.10,A,4138.0824841,N,07032.2759148,W,3.56,88.40,091223,,,A*67
###2023-12-09 13:08:41.973516$GNGGA,180841.10,4138.0824841,N,07032.2759148,W,1,25,0.6,13.141,M,-29.742,M,0.0,*54
###2023-12-09 13:08:41.975390$GPGSA,A,3,03,04,16,26,28,29,31,32,,,,,1.1,0.6,0.9*3B
###2023-12-09 13:08:41.977103$GLGSA,A,3,65,71,72,73,74,75,,,,,,,1.1,0.6,0.9*24
###2023-12-09 13:08:41.978695$GAGSA,A,3,04,19,21,27,,,,,,,,,1.1,0.6,0.9*26
###2023-12-09 13:08:41.980407$GBGSA,A,3,14,24,25,26,33,35,,,,,,,1.1,0.6,0.9*29
###2023-12-09 13:08:41.982747$GPGSV,2,1,08,03,34,258,45,04,35,311,43,16,53,214,47,26,83,210,48*7B
###2023-12-09 13:08:41.985074$GPGSV,2,2,08,28,47,073,42,29,25,058,39,31,67,044,46,32,16,141,43*75
###2023-12-09 13:08:41.987425$GLGSV,2,1,06,65,27,326,40,71,37,173,47,72,72,258,47,73,33,043,44*6E
###2023-12-09 13:08:41.989182$GLGSV,2,2,06,74,68,345,42,75,34,256,48,,,,,,,,*62
###2023-12-09 13:08:41.991794$GAGSV,1,1,04,04,31,312,41,19,82,199,41,21,85,085,46,27,31,048,42*65
###2023-12-09 13:08:41.994149$GBGSV,2,1,06,14,40,192,46,24,71,031,47,25,43,265,46,26,24,064,40*61
###2023-12-09 13:08:41.995912$GBGSV,2,2,06,33,55,228,47,35,15,066,41,,,,,,,,*61
###2023-12-09 13:08:41.997209$GNVTG,88.40,T,,M,3.56,N,6.59,K,A*1D
###2023-12-09 13:08:41.998868$GNGST,180841.10,18.000,,,,0.082,0.066,0.150*55
###2023-12-09 13:08:42.000162$GNZDA,180841.10,09,12,2023,00,00*74
###2023-12-09 13:08:42.000805$GNEBP,,,,,,M*13
###2023-12-09 13:08:42.167898$GNGGA,180841.30,4138.0825165,N,07032.2756568,W,1,25,0.6,13.163,M,-29.742,M,0.0,*51
###2023-12-09 13:08:42.370700$GNGGA,180841.50,4138.0825433,N,07032.2753812,W,1,25,0.6,13.181,M,-29.742,M,0.0,*58
