###2023-12-09 12:52:30.975586$GAGSV,1,1,04,04,26,312,42,19,85,252,40,21,84,154,46,27,36,048,43*68
###2023-12-09 12:52:30.977937$GBGSV,2,1,05,14,47,194,45,24,77,014,48,25,37,258,44,26,29,060,44*6C
###2023-12-09 12:52:30.979428$GBGSV,2,2,05,33,60,240,47,,,,,,,,,,,,*5D
###2023-12-09 12:52:30.980752$GNVTG,309.67,T,,M,1.09,N,2.02,K,A*20
###2023-12-09 12:52:30.982389$GNGST,175230.10,18.000,,,,0.078,0.069,0.160*5A
###2023-12-09 12:52:30.983693$GNZDA,175230.10,09,12,2023,00,00*72
###2023-12-09 12:52:30.984332$GNEBP,,,,,,M*13
###2023-12-09 12:52:31.152738$GNGGA,175230.30,4138.0630425,N,07032.3869225,W,1,24,0.6,13.115,M,-29.744,M,0.0,*56
###2023-12-09 12:52:31.353400$GNGGA,175230.50,4138.0630442,N,07032.3869282,W,1,24,0.6,13.138,M,-29.744,M,0.0,*53
###2023-12-09 12:52:31.553516$GNGGA,175230.70,4138.0630485,N,07032.3869333,W,1,24,0.6,13.150,M,-29.744,M,0.0,*5F
###2023-12-09 12:52:31.753480$GNGGA,175230.90,4138.0630681,N,07032.3869654,W,1,24,0.6,13.136,M,-29.744,M,0.0,*53
###2023-12-09 12:52:31.955119$GNRMC,175231.10,A,4138.0630969,N,07032.3870134,W,0.86,309.67,091223,,,A*5F
###2023-12-09 12:52:31.957968$GNGGA,175231.10,4138.0630969,N,07032.3870134,W,1,24,0.6,13.116,M,-29.744,M,0.0,*58
###2023-12-09 12:52:31.959874$GPGSA,A,3,03,04,16,26,28,29,31,32,,,,,1.1,0.6,0.9*3B
###2023-12-09 12:52:31.961594$GLGSA,A,3,65,71,72,73,74,75,,,,,,,1.1,0.6,0.9*24
###2023-12-09 12:52:31.963188$GAGSA,A,3,04,19,21,27,,,,,,,,,1.1,0.6,0.9*26
###2023-12-09 12:52:31.964835$GBGSA,A,3,14,24,25,26,33,,,,,,,,1.1,0.6,0.9*2F
###2023-12-09 12:52:31.967171$GPGSV,2,1,08,03,37,267,42,04,29,311,43,16,45,210,46,26,75,209,48*7D
###2023-12-09 12:52:31.969502$GPGSV,2,2,08,28,52,066,44,29,26,065,41,31,71,026,47,32,23,138,43*7B
###2023-12-09 12:52:31.971849$GLGSV,2,1,06,65,19,329,43,71,47,171,47,72,72,288,46,73,40,038,42*68
###2023-12-09 12:52:31.973602$GLGSV,2,2,06,74,71,321,42,75,28,248,45,,,,,,,,*67
###2023-12-09 12:52:31.975939$GAGSV,1,1,04,04,26,312,42,19,85,252,40,21,84,154,46,27,36,048,43*68
###2023-12-09 12:52:31.978270$GBGSV,2,1,05,14,47,194,45,24,77,014,48,25,37,258,44,26,29,060,43*6B
###2023-12-09 12:52:31.979730$GBGSV,2,2,05,33,60,240,48,,,,,,,,,,,,*52
###2023-12-09 12:52:31.981051$GNVTG,309.67,T,,M,0.86,N,1.58,K,A*2A
###2023-12-09 12:52:31.982709$GNGST,175231.10,18.000,,,,0.078,0.069,0.160*5B
###2023-12-09 12:52:31.984004$GNZDA,175231.10,09,12,2023,00,00*73
###2023-12-09 12:52:31.984640$GNEBP,,,,,,M*13
###2023-12-09 12:52:32.153661$GNGGA,175231.30,4138.0631171,N,07032.3870518,W,1,24,0.6,13.108,M,-29.744,M,0.0,*5F
###2023-12-09 12:52:32.353419$GNGGA,175231.50,4138.0631244,N,07032.3870683,W,1,24,0.6,13.126,M,-29.744,M,0.0,*51
###2023-12-09 12:52:32.553417$GNGGA,175231.70,4138.0631344,N,07032.3870869,W,1,24,0.6,13.152,M,-29.744,M,0.0,*5B
###2023-12-09 12:52:32.754094$GNGGA,175231.90,4138.0631509,N,07032.3871170,W,1,24,0.6,13.147,M,-29.744,M,0.0,*5E
###2023-12-09 12:52:32.958239$GNRMC,175232.10,A,4138.0631681,N,07032.3871497,W,0.52,309.67,091223,,,A*50
###2023-12-09 12:52:32.961116$GNGGA,175232.10,4138.0631681,N,07032.3871497,W,1,24,0.6,13.131,M,-29.744,M,0.0,*5B
###2023-12-09 12:52:32.962985$GPGSA,A,3,03,04,16,26,28,29,31,32,,,,,1.1,0.6,0.9*3B
###2023-12-09 12:52:32.964693$GLGSA,A,3,65,71,72,73,74,75,,,,,,,1.1,0.6,0.9*24
###2023-12-09 12:52:32.966269$GAGSA,A,3,04,19,21,27,,,,,,,,,1.1,0.6,0.9*26
###2023-12-09 12:52:32.967920$GBGSA,A,3,14,24,25,26,33,,,,,,,,1.1,0.6,0.9*2F
###2023-12-09 12:52:32.970240$GPGSV,2,1,08,03,37,267,42,04,29,311,43,16,45,210,46,26,75,209,48*7D
###2023-12-09 12:52:32.972571$GPGSV,2,2,08,28,52,066,44,29,26,065,41,31,71,026,47,32,23,138,44*7C
###2023-12-09 12:52:32.974915$GLGSV,2,1,06,65,19,329,43,71,47,171,47,72,72,288,47,73,40,038,42*69
###2023-12-09 12:52:32.976665$GLGSV,2,2,06,74,71,321,42,75,28,248,46,,,,,,,,*64
###2023-12-09 12:52:32.979017$GAGSV,1,1,04,04,26,312,43,19,85,252,40,21,84,154,46,27,36,048,42*68
###2023-12-09 12:52:32.981349$GBGSV,2,1,05,14,47,194,45,24,77,014,48,25,37,258,44,26,29,060,44*6C
###2023-12-09 12:52:32.982815$GBGSV,2,2,05,33,60,240,47,,,,,,,,,,,,*5D
###2023-12-09 12:52:32.984142$GNVTG,309.67,T,,M,0.52,N,0.97,K,A*21
###2023-12-09 12:52:32.985790$GNGST,175232.10,18.000,,,,0.078,0.069,0.160*58
###2023-12-09 12:52:32.987106$GNZDA,175232.10,09,12,2023,00,00*70
###2023-12-09 12:52:32.987754$GNEBP,,,,,,M*13
###2023-12-09 12:52:33.157334$GNGGA,175232.30,4138.0631844,N,07032.3871823,W,1,24,0.6,13.119,M,-29.744,M,0.0,*57
###2023-12-09 12:52:33.352279$GNGGA,175232.50,4138.0631986,N,07032.3872145,W,1,24,0.6,13.126,M,-29.744,M,0.0,*58
###2023-12-09 12:52:33.552426$GNGGA,175232.70,4138.0632116,N,07032.3872407,W,1,24,0.6,13.137,M,-29.744,M,0.0,*5B
###2023-12-09 12:52:33.752970$GNGGA,175232.90,4138.0632218,N,07032.3872617,W,1,24,0.6,13.144,M,-29.744,M,0.0,*5F
###2023-12-09 12:52:33.957171$GNRMC,175233.10,A,4138.0632320,N,07032.3872855,W,0.45,309.67,091223,,,A*5B
###2023-12-09 12:52:33.960059$GNGGA,175233.10,4138.0632320,N,07032.3872855,W,1,24,0.6,13.133,M,-29.744,M,0.0,*54
###2023-12-09 12:52:33.961923$GPGSA,A,3,03,04,16,26,28,29,31,32,,,,,1.1,0.6,0.9*3B
###2023-12-09 12:52:33.963658$GLGSA,A,3,65,71,72,73,74,75,,,,,,,1.1,0.6,0.9*24
###2023-12-09 12:52:33.965250$GAGSA,A,3,04,19,21,27,,,,,,,,,1.1,0.6,0.9*26
###2023-12-09 12:52:33.966915$GBGSA,A,3,14,24,25,26,33,,,,,,,,1.1,0.6,0.9*2F
###2023-12-09 12:52:33.969258$GPGSV,2,1,08,03,37,267,42,04,29,311,43,16,45,210,46,26,75,209,48*7D
###2023-12-09 12:52:33.971609$GPGSV,2,2,08,28,52,066,44,29,26,065,41,31,71,026,47,32,23,138,44*7C
###2023-12-09 12:52:33.973945$GLGSV,2,1,06,65,19,329,43,71,47,171,46,72,72,288,46,73,40,038,43*68
###2023-12-09 12:52:33.975701$GLGSV,2,2,06,74,71,321,43,75,28,248,45,,,,,,,,*66
###2023-12-09 12:52:33.978035$GAGSV,1,1,04,04,26,312,43,19,85,252,40,21,84,154,46,27,36,048,42*68
###2023-12-09 12:52:33.980390$GBGSV,2,1,05,14,47,194,44,24,77,014,47,25,37,258,43,26,29,060,43*62
###2023-12-09 12:52:33.981850$GBGSV,2,2,05,33,60,240,47,,,,,,,,,,,,*5D
###2023-12-09 12:52:33.983188$GNVTG,309.67,T,,M,0.45,N,0.83,K,A*22
###2023-12-09 12:52:33.984841$GNGST,175233.10,18.000,,,,0.078,0.068,0.160*58
###2023-12-09 12:52:33.986137$GNZDA,175233.10,09,12,2023,00,00*71
###2023-12-09 12:52:33.986793$GNEBP,,,,,,M*13
###2023-12-09 12:52:34.152408$GNGGA,175233.30,4138.0632489,N,07032.3873193,W,1,24,0.6,13.122,M,-29.744,M,0.0,*50
###2023-12-09 12:52:34.352685$GNGGA,175233.50,4138.0632683,N,07032.3873585,W,1,24,0.6,13.116,M,-29.744,M,0.0,*5A
###2023-12-09 12:52:34.553396$GNGGA,175233.70,4138.0632823,N,07032.3873873,W,1,24,0.6,13.122,M,-29.744,M,0.0,*5F
###2023-12-09 12:52:34.752356$GNGGA,175233.90,4138.0632906,N,07032.3874058,W,1,24,0.6,13.134,M,-29.744,M,0.0,*56
###2023-12-09 12:52:34.952997$GNRMC,175234.10,A,4138.0632998,N,07032.3874265,W,0.43,309.67,091223,,,A*5C
###2023-12-09 12:52:34.955877$GNGGA,175234.10,4138.0632998,N,07032.3874265,W,1,24,0.6,13.138,M,-29.744,M,0.0,*5E
###2023-12-09 12:52:34.957736$GPGSA,A,3,03,04,16,26,28,29,31,32,,,,,1.1,0.6,0.9*3B
###2023-12-09 12:52:34.959467$GLGSA,A,3,65,71,72,73,74,75,,,,,,,1.1,0.6,0.9*24
###2023-12-09 12:52:34.961050$GAGSA,A,3,04,19,21,27,,,,,,,,,1.1,0.6,0.9*26
###2023-12-09 12:52:34.962701$GBGSA,A,3,14,24,25,26,33,,,,,,,,1.1,0.6,0.9*2F
###2023-12-09 12:52:34.965023$GPGSV,2,1,08,03,37,267,44,04,29,311,44,16,45,210,45,26,75,209,48*7F
###2023-12-09 12:52:34.967365$GPGSV,2,2,08,28,52,066,45,29,26,065,40,31,71,026,47,32,23,138,43*7B
###2023-12-09 12:52:34.969687$GLGSV,2,1,06,65,19,329,43,71,47,171,47,72,72,288,47,73,40,038,41*6A
###2023-12-09 12:52:34.971440$GLGSV,2,2,06,74,71,321,43,75,28,248,45,,,,,,,,*66
###2023-12-09 12:52:34.973757$GAGSV,1,1,04,04,26,312,44,19,85,252,41,21,84,154,46,27,36,048,43*6F
###2023-12-09 12:52:34.976086$GBGSV,2,1,05,14,47,194,45,24,77,014,48,25,37,258,44,26,29,060,43*6B
###2023-12-09 12:52:34.977539$GBGSV,2,2,05,33,60,240,46,,,,,,,,,,,,*5C
###2023-12-09 12:52:34.978869$GNVTG,309.67,T,,M,0.43,N,0.79,K,A*21
###2023-12-09 12:52:34.980514$GNGST,175234.10,18.000,,,,0.078,0.068,0.160*5F
###2023-12-09 12:52:34.981805$GNZDA,175234.10,09,12,2023,00,00*76
###2023-12-09 12:52:34.982449$GNEBP,,,,,,M*13
###2023-12-09 12:52:35.153466$GNGGA,175234.30,4138.0633170,N,07032.3874610,W,1,24,0.6,13.134,M,-29.744,M,0.0,*59
###2023-12-09 12:52:35.353890$GNGGA,175234.50,4138.0633355,N,07032.3874987,W,1,24,0.6,13.127,M,-29.744,M,0.0,*59
###2023-12-09 12:52:35.553994$GNGGA,175234.70,4138.0633499,N,07032.3875315,W,1,24,0.6,13.124,M,-29.744,M,0.0,*5F
###2023-12-09 12:52:35.755237$GNGGA,175234.90,4138.0633578,N,07032.3875496,W,1,24,0.6,13.134,M,-29.744,M,0.0,*52
###2023-12-09 12:52:35.954353$GNRMC,175235.10,A,4138.0633662,N,07032.3875685,W,0.35,309.67,091223,,,A*5C
###2023-12-09 12:52:35.957843$GNGGA,175235.10,4138.0633662,N,07032.3875685,W,1,24,0.6,13.138,M,-29.744,M,0.0,*5F
###2023-12-09 12:52:35.960109$GPGSA,A,3,03,04,16,26,28,29,31,32,,,,,1.1,0.6,0.9*3B
###2023-12-09 12:52:35.962179$GLGSA,A,3,65,71,72,73,74,75,,,,,,,1.1,0.6,0.9*24
###2023-12-09 12:52:35.964103$GAGSA,A,3,04,19,21,27,,,,,,,,,1.1,0.6,0.9*26
