###2023-12-09 12:36:43.336673$GNGGA,173642.50,4138.0470186,N,07032.3677942,W,1,23,0.7,13.089,M,-29.744,M,0.0,*54
###2023-12-09 12:36:43.538009$GNGGA,173642.70,4138.0470748,N,07032.3675560,W,1,23,0.7,13.066,M,-29.744,M,0.0,*5D
###2023-12-09 12:36:43.736736$GNGGA,173642.90,4138.0471178,N,07032.3673222,W,1,23,0.7,13.070,M,-29.744,M,0.0,*57
###2023-12-09 12:36:43.938812$GNRMC,173643.10,A,4138.0471549,N,07032.3670781,W,3.46,81.66,091223,,,A*6A
###2023-12-09 12:36:43.941656$GNGGA,173643.10,4138.0471549,N,07032.3670781,W,1,23,0.7,13.084,M,-29.744,M,0.0,*5C
###2023-12-09 12:36:43.943519$GPGSA,A,3,03,04,16,26,28,29,31,32,,,,,1.2,0.7,1.0*31
###2023-12-09 12:36:43.945172$GLGSA,A,3,71,72,73,74,75,,,,,,,,1.2,0.7,1.0*2D
###2023-12-09 12:36:43.946777$GAGSA,A,3,04,19,21,27,,,,,,,,,1.2,0.7,1.0*2C
###2023-12-09 12:36:43.948444$GBGSA,A,3,14,24,25,26,33,,,,,,,,1.2,0.7,1.0*25
###2023-12-09 12:36:43.950793$GPGSV,2,1,08,03,38,276,45,04,22,311,40,16,37,207,46,26,67,207,48*73
###2023-12-09 12:36:43.953144$GPGSV,2,2,08,28,57,057,44,29,25,073,41,31,73,004,47,32,29,134,42*7D
###2023-12-09 12:36:43.955543$GLGSV,2,1,05,71,56,169,47,72,66,308,46,73,47,034,46,74,71,293,43*6F
###2023-12-09 12:36:43.957005$GLGSV,2,2,05,75,22,241,43,,,,,,,,,,,,*52
###2023-12-09 12:36:43.959349$GAGSV,1,1,04,04,21,311,41,19,82,300,41,21,78,175,46,27,41,049,44*69
###2023-12-09 12:36:43.961678$GBGSV,2,1,05,14,55,197,45,24,80,348,48,25,33,253,45,26,35,057,43*6E
###2023-12-09 12:36:43.963142$GBGSV,2,2,05,33,63,253,47,,,,,,,,,,,,*5C
###2023-12-09 12:36:43.964433$GNVTG,81.66,T,,M,3.46,N,6.41,K,A*18
###2023-12-09 12:36:43.966075$GNGST,173643.10,18.000,,,,0.080,0.070,0.160*53
###2023-12-09 12:36:43.967375$GNZDA,173643.10,09,12,2023,00,00*74
###2023-12-09 12:36:43.968016$GNEBP,,,,,,M*13
###2023-12-09 12:36:44.135636$GNGGA,173643.30,4138.0471849,N,07032.3668346,W,1,23,0.7,13.069,M,-29.744,M,0.0,*56
###2023-12-09 12:36:44.336341$GNGGA,173643.50,4138.0472257,N,07032.3665993,W,1,23,0.7,13.072,M,-29.744,M,0.0,*53
###2023-12-09 12:36:44.536597$GNGGA,173643.70,4138.0472607,N,07032.3663525,W,1,23,0.7,13.072,M,-29.744,M,0.0,*57
###2023-12-09 12:36:44.734668$GNGGA,173643.90,4138.0472797,N,07032.3661074,W,1,23,0.7,13.065,M,-29.744,M,0.0,*54
###2023-12-09 12:36:44.943940$GNRMC,173644.10,A,4138.0473082,N,07032.3658541,W,3.48,81.98,091223,,,A*66
###2023-12-09 12:36:44.946846$GNGGA,173644.10,4138.0473082,N,07032.3658541,W,1,23,0.7,13.067,M,-29.744,M,0.0,*52
###2023-12-09 12:36:44.948731$GPGSA,A,3,03,04,16,26,28,29,31,32,,,,,1.2,0.7,1.0*31
###2023-12-09 12:36:44.950389$GLGSA,A,3,71,72,73,74,75,,,,,,,,1.2,0.7,1.0*2D
###2023-12-09 12:36:44.952000$GAGSA,A,3,04,19,21,27,,,,,,,,,1.2,0.7,1.0*2C
###2023-12-09 12:36:44.953650$GBGSA,A,3,14,24,25,26,33,,,,,,,,1.2,0.7,1.0*25
###2023-12-09 12:36:44.955997$GPGSV,2,1,08,03,38,276,43,04,22,311,40,16,37,207,45,26,67,207,48*76
###2023-12-09 12:36:44.958335$GPGSV,2,2,08,28,57,057,44,29,25,073,41,31,73,004,47,32,29,134,40*7F
###2023-12-09 12:36:44.960686$GLGSV,2,1,05,71,56,169,48,72,66,308,46,73,47,034,46,74,71,293,43*60
###2023-12-09 12:36:44.962144$GLGSV,2,2,05,75,22,241,44,,,,,,,,,,,,*55
###2023-12-09 12:36:44.964493$GAGSV,1,1,04,04,21,311,40,19,82,299,40,21,78,175,47,27,41,049,43*6E
###2023-12-09 12:36:44.966875$GBGSV,2,1,05,14,55,197,46,24,80,348,48,25,33,253,46,26,35,057,43*6E
###2023-12-09 12:36:44.968336$GBGSV,2,2,05,33,63,253,48,,,,,,,,,,,,*53
###2023-12-09 12:36:44.969624$GNVTG,81.98,T,,M,3.48,N,6.44,K,A*12
###2023-12-09 12:36:44.971282$GNGST,173644.10,18.000,,,,0.080,0.070,0.160*54
###2023-12-09 12:36:44.972579$GNZDA,173644.10,09,12,2023,00,00*73
###2023-12-09 12:36:44.973217$GNEBP,,,,,,M*13
###2023-12-09 12:36:45.135641$GNGGA,173644.30,4138.0473435,N,07032.3656083,W,1,23,0.7,13.054,M,-29.744,M,0.0,*5D
###2023-12-09 12:36:45.336313$GNGGA,173644.50,4138.0473907,N,07032.3653693,W,1,23,0.7,13.065,M,-29.744,M,0.0,*57
###2023-12-09 12:36:45.537474$GNGGA,173644.70,4138.0474258,N,07032.3651157,W,1,23,0.7,13.063,M,-29.744,M,0.0,*58
###2023-12-09 12:36:45.735185$GNGGA,173644.90,4138.0474618,N,07032.3648690,W,1,23,0.7,13.052,M,-29.744,M,0.0,*50
###2023-12-09 12:36:45.940635$GNRMC,173645.10,A,4138.0475214,N,07032.3646320,W,3.46,69.60,091223,,,A*6D
###2023-12-09 12:36:45.943520$GNGGA,173645.10,4138.0475214,N,07032.3646320,W,1,23,0.7,13.063,M,-29.744,M,0.0,*52
###2023-12-09 12:36:45.945382$GPGSA,A,3,03,04,16,26,28,29,31,32,,,,,1.2,0.7,1.0*31
###2023-12-09 12:36:45.947064$GLGSA,A,3,71,72,73,74,75,,,,,,,,1.2,0.7,1.0*2D
###2023-12-09 12:36:45.948684$GAGSA,A,3,04,19,21,27,,,,,,,,,1.2,0.7,1.0*2C
###2023-12-09 12:36:45.950335$GBGSA,A,3,14,24,25,26,33,,,,,,,,1.2,0.7,1.0*25
###2023-12-09 12:36:45.952682$GPGSV,2,1,08,03,38,276,45,04,22,311,41,16,37,207,46,26,67,207,48*72
###2023-12-09 12:36:45.955039$GPGSV,2,2,08,28,57,057,44,29,25,073,41,31,73,004,47,32,29,134,43*7C
###2023-12-09 12:36:45.957374$GLGSV,2,1,05,71,56,169,47,72,66,308,47,73,47,034,46,74,71,293,43*6E
###2023-12-09 12:36:45.958844$GLGSV,2,2,05,75,22,241,44,,,,,,,,,,,,*55
###2023-12-09 12:36:45.961163$GAGSV,1,1,04,04,21,311,41,19,82,299,41,21,78,175,46,27,41,049,42*6E
###2023-12-09 12:36:45.963503$GBGSV,2,1,05,14,55,197,46,24,80,348,49,25,33,253,47,26,35,057,45*68
###2023-12-09 12:36:45.964957$GBGSV,2,2,05,33,63,253,48,,,,,,,,,,,,*53
###2023-12-09 12:36:45.966240$GNVTG,69.60,T,,M,3.46,N,6.41,K,A*18
###2023-12-09 12:36:45.967900$GNGST,173645.10,18.000,,,,0.080,0.070,0.160*55
###2023-12-09 12:36:45.969189$GNZDA,173645.10,09,12,2023,00,00*72
###2023-12-09 12:36:45.969823$GNEBP,,,,,,M*13
###2023-12-09 12:36:46.135624$GNGGA,173645.30,4138.0475827,N,07032.3643926,W,1,23,0.7,13.060,M,-29.744,M,0.0,*50
###2023-12-09 12:36:46.336118$GNGGA,173645.50,4138.0476304,N,07032.3641505,W,1,23,0.7,13.057,M,-29.744,M,0.0,*54
###2023-12-09 12:36:46.535255$GNGGA,173645.70,4138.0476756,N,07032.3639044,W,1,23,0.7,13.067,M,-29.744,M,0.0,*59
###2023-12-09 12:36:46.735451$GNGGA,173645.90,4138.0477353,N,07032.3636697,W,1,23,0.7,13.070,M,-29.744,M,0.0,*56
###2023-12-09 12:36:46.936930$GNRMC,173646.10,A,4138.0477933,N,07032.3634245,W,3.46,77.07,091223,,,A*6B
###2023-12-09 12:36:46.939816$GNGGA,173646.10,4138.0477933,N,07032.3634245,W,1,23,0.7,13.074,M,-29.744,M,0.0,*5C
###2023-12-09 12:36:46.941678$GPGSA,A,3,03,04,16,26,28,29,31,32,,,,,1.2,0.7,1.0*31
###2023-12-09 12:36:46.943340$GLGSA,A,3,71,72,73,74,75,,,,,,,,1.2,0.7,1.0*2D
###2023-12-09 12:36:46.944923$GAGSA,A,3,04,19,21,27,,,,,,,,,1.2,0.7,1.0*2C
###2023-12-09 12:36:46.946590$GBGSA,A,3,14,24,25,26,33,,,,,,,,1.2,0.7,1.0*25
###2023-12-09 12:36:46.948966$GPGSV,2,1,08,03,38,276,43,04,22,311,40,16,37,207,45,26,67,207,47*79
###2023-12-09 12:36:46.951338$GPGSV,2,2,08,28,57,057,43,29,25,073,41,31,73,004,47,32,29,134,42*7A
###2023-12-09 12:36:46.953668$GLGSV,2,1,05,71,56,169,48,72,66,308,47,73,47,034,46,74,71,293,43*61
###2023-12-09 12:36:46.955137$GLGSV,2,2,05,75,22,241,44,,,,,,,,,,,,*55
###2023-12-09 12:36:46.957458$GAGSV,1,1,04,04,21,311,40,19,82,299,40,21,78,175,45,27,41,049,43*6C
###2023-12-09 12:36:46.959800$GBGSV,2,1,05,14,55,197,46,24,80,348,49,25,33,253,46,26,35,057,43*6F
###2023-12-09 12:36:46.961249$GBGSV,2,2,05,33,63,253,48,,,,,,,,,,,,*53
###2023-12-09 12:36:46.962532$GNVTG,77.07,T,,M,3.46,N,6.41,K,A*16
###2023-12-09 12:36:46.964197$GNGST,173646.10,18.000,,,,0.080,0.070,0.160*56
###2023-12-09 12:36:46.965496$GNZDA,173646.10,09,12,2023,00,00*71
###2023-12-09 12:36:46.966135$GNEBP,,,,,,M*13
###2023-12-09 12:36:47.138447$GNGGA,173646.30,4138.0478386,N,07032.3631851,W,1,23,0.7,13.064,M,-29.744,M,0.0,*5E
###2023-12-09 12:36:47.335141$GNGGA,173646.50,4138.0478936,N,07032.3629495,W,1,23,0.7,13.093,M,-29.744,M,0.0,*5C
###2023-12-09 12:36:47.536361$GNGGA,173646.70,4138.0479357,N,07032.3626961,W,1,23,0.7,13.080,M,-29.744,M,0.0,*59
###2023-12-09 12:36:47.734261$GNGGA,173646.90,4138.0479591,N,07032.3624603,W,1,23,0.7,13.062,M,-29.744,M,0.0,*5E
###2023-12-09 12:36:47.935897$GNRMC,173647.10,A,4138.0480101,N,07032.3622253,W,3.48,75.98,091223,,,A*61
###2023-12-09 12:36:47.938762$GNGGA,173647.10,4138.0480101,N,07032.3622253,W,1,23,0.7,13.100,M,-29.744,M,0.0,*5E
###2023-12-09 12:36:47.940622$GPGSA,A,3,03,04,16,26,28,29,31,32,,,,,1.2,0.7,1.0*31
###2023-12-09 12:36:47.942507$GLGSA,A,3,71,72,73,74,75,,,,,,,,1.2,0.7,1.0*2D
###2023-12-09 12:36:47.944120$GAGSA,A,3,04,19,21,27,,,,,,,,,1.2,0.7,1.0*2C
###2023-12-09 12:36:47.945769$GBGSA,A,3,14,24,25,26,33,,,,,,,,1.2,0.7,1.0*25
###2023-12-09 12:36:47.948124$GPGSV,2,1,08,03,38,276,44,04,22,311,40,16,37,207,45,26,67,207,47*7E
###2023-12-09 12:36:47.950481$GPGSV,2,2,08,28,57,057,44,29,25,073,41,31,73,004,47,32,29,134,42*7D
###2023-12-09 12:36:47.952840$GLGSV,2,1,05,71,56,169,48,72,66,308,47,73,47,034,47,74,71,293,43*60
###2023-12-09 12:36:47.954306$GLGSV,2,2,05,75,22,241,44,,,,,,,,,,,,*55
###2023-12-09 12:36:47.956645$GAGSV,1,1,04,04,21,311,40,19,82,299,41,21,78,175,46,27,41,049,44*69
###2023-12-09 12:36:47.958989$GBGSV,2,1,05,14,55,197,46,24,80,348,49,25,33,253,46,26,35,057,42*6E
###2023-12-09 12:36:47.960449$GBGSV,2,2,05,33,63,253,49,,,,,,,,,,,,*52
