###2023-12-09 13:43:20.399808$GNGGA,184319.50,4138.0394917,N,07032.4384713,W,1,16,0.8,15.560,M,-29.746,M,0.0,*51
###2023-12-09 13:43:20.599830$GNGGA,184319.70,4138.0394870,N,07032.4384799,W,1,16,0.8,15.592,M,-29.746,M,0.0,*5C
###2023-12-09 13:43:20.799104$GNGGA,184319.90,4138.0394861,N,07032.4384875,W,1,15,0.8,15.629,M,-29.746,M,0.0,*5F
###2023-12-09 13:43:21.002918$GNRMC,184320.10,A,4138.0394863,N,07032.4384990,W,0.12,243.17,091223,,,A*54
###2023-12-09 13:43:21.006343$GNGGA,184320.10,4138.0394863,N,07032.4384990,W,1,17,0.8,15.706,M,-29.746,M,0.0,*5B
###2023-12-09 13:43:21.008431$GPGSA,A,3,04,16,26,28,29,31,,,,,,,1.3,0.8,1.1*3C
###2023-12-09 13:43:21.010420$GLGSA,A,3,65,73,74,75,83,,,,,,,,1.3,0.8,1.1*29
###2023-12-09 13:43:21.012265$GAGSA,A,3,04,21,27,,,,,,,,,,1.3,0.8,1.1*2B
###2023-12-09 13:43:21.014077$GBGSA,A,3,24,25,35,,,,,,,,,,1.3,0.8,1.1*2D
###2023-12-09 13:43:21.016881$GPGSV,2,1,06,04,50,305,46,16,71,227,39,26,80,041,41,28,35,088,42*73
###2023-12-09 13:43:21.018984$GPGSV,2,2,06,29,19,044,41,31,57,071,49,,,,,,,,*72
###2023-12-09 13:43:21.021780$GLGSV,2,1,05,65,42,314,45,73,19,055,44,74,56,021,37,75,46,277,42*6E
###2023-12-09 13:43:21.023535$GLGSV,2,2,05,83,16,043,35,,,,,,,,,,,,*5D
###2023-12-09 13:43:21.026005$GAGSV,1,1,03,04,42,308,44,21,74,044,40,27,20,051,41,,,,*50
###2023-12-09 13:43:21.028485$GBGSV,1,1,03,24,60,050,43,25,53,280,45,35,16,053,38,,,,*5C
###2023-12-09 13:43:21.030074$GNVTG,243.17,T,,M,0.12,N,0.22,K,A*23
###2023-12-09 13:43:21.032023$GNGST,184320.10,7.300,,,,0.230,0.130,0.380*66
###2023-12-09 13:43:21.033569$GNZDA,184320.10,09,12,2023,00,00*7C
###2023-12-09 13:43:21.034336$GNEBP,,,,,,M*13
###2023-12-09 13:43:21.199895$GNGGA,184320.30,4138.0394756,N,07032.4385067,W,1,17,0.8,15.745,M,-29.746,M,0.0,*57
###2023-12-09 13:43:21.398885$GNGGA,184320.50,4138.0394675,N,07032.4385103,W,1,18,0.8,15.800,M,-29.746,M,0.0,*53
###2023-12-09 13:43:21.597845$GNGGA,184320.70,4138.0394527,N,07032.4385127,W,1,18,0.8,15.805,M,-29.746,M,0.0,*56
###2023-12-09 13:43:21.798010$GNGGA,184320.90,4138.0394418,N,07032.4385185,W,1,18,0.8,15.811,M,-29.746,M,0.0,*58
###2023-12-09 13:43:22.002345$GNRMC,184321.10,A,4138.0394274,N,07032.4385217,W,0.10,243.17,091223,,,A*5E
###2023-12-09 13:43:22.005235$GNGGA,184321.10,4138.0394274,N,07032.4385217,W,1,18,0.8,15.802,M,-29.746,M,0.0,*57
###2023-12-09 13:43:22.006977$GPGSA,A,3,04,16,26,28,29,31,,,,,,,1.3,0.8,1.1*3C
###2023-12-09 13:43:22.008630$GLGSA,A,3,65,73,74,75,83,,,,,,,,1.3,0.8,1.1*29
###2023-12-09 13:43:22.010149$GAGSA,A,3,04,21,27,,,,,,,,,,1.3,0.8,1.1*2B
###2023-12-09 13:43:22.011743$GBGSA,A,3,14,24,25,35,,,,,,,,,1.3,0.8,1.1*28
###2023-12-09 13:43:22.014073$GPGSV,2,1,06,04,50,305,46,16,71,227,40,26,80,041,42,28,35,088,44*78
###2023-12-09 13:43:22.015828$GPGSV,2,2,06,29,19,044,41,31,57,071,50,,,,,,,,*7A
###2023-12-09 13:43:22.018160$GLGSV,2,1,05,65,42,314,44,73,19,055,44,74,56,021,37,75,46,277,42*6F
###2023-12-09 13:43:22.019633$GLGSV,2,2,05,83,16,043,35,,,,,,,,,,,,*5D
###2023-12-09 13:43:22.021677$GAGSV,1,1,03,04,42,308,43,21,74,044,39,27,20,051,40,,,,*58
###2023-12-09 13:43:22.024022$GBGSV,1,1,04,14,25,189,35,24,60,050,43,25,53,280,46,35,16,053,38*6C
###2023-12-09 13:43:22.025353$GNVTG,243.17,T,,M,0.10,N,0.18,K,A*28
###2023-12-09 13:43:22.026985$GNGST,184321.10,7.700,,,,0.230,0.130,0.360*6D
###2023-12-09 13:43:22.028283$GNZDA,184321.10,09,12,2023,00,00*7D
###2023-12-09 13:43:22.028924$GNEBP,,,,,,M*13
###2023-12-09 13:43:22.200346$GNGGA,184321.30,4138.0394164,N,07032.4385223,W,1,18,0.8,15.805,M,-29.746,M,0.0,*57
###2023-12-09 13:43:22.400211$GNGGA,184321.50,4138.0393996,N,07032.4385181,W,1,19,0.8,15.790,M,-29.746,M,0.0,*5A
###2023-12-09 13:43:22.598537$GNGGA,184321.70,4138.0393777,N,07032.4385100,W,1,19,0.8,15.782,M,-29.746,M,0.0,*53
###2023-12-09 13:43:22.800466$GNGGA,184321.90,4138.0393661,N,07032.4385092,W,1,19,0.8,15.786,M,-29.746,M,0.0,*55
###2023-12-09 13:43:23.004409$GNRMC,184322.10,A,4138.0393545,N,07032.4385058,W,0.10,243.17,091223,,,A*56
###2023-12-09 13:43:23.007864$GNGGA,184322.10,4138.0393545,N,07032.4385058,W,1,19,0.8,15.786,M,-29.746,M,0.0,*5D
###2023-12-09 13:43:23.009970$GPGSA,A,3,04,16,26,28,29,31,,,,,,,1.3,0.8,1.1*3C
###2023-12-09 13:43:23.011972$GLGSA,A,3,65,73,74,75,83,,,,,,,,1.3,0.8,1.1*29
###2023-12-09 13:43:23.013804$GAGSA,A,3,04,21,27,,,,,,,,,,1.3,0.8,1.1*2B
###2023-12-09 13:43:23.015785$GBGSA,A,3,12,14,24,25,35,,,,,,,,1.3,0.8,1.1*2B
###2023-12-09 13:43:23.018590$GPGSV,2,1,06,04,50,305,46,16,71,227,40,26,80,041,43,28,35,088,43*7E
###2023-12-09 13:43:23.020692$GPGSV,2,2,06,29,19,044,42,31,57,071,50,,,,,,,,*79
###2023-12-09 13:43:23.023502$GLGSV,2,1,05,65,42,314,44,73,19,055,43,74,56,021,36,75,46,277,41*6A
###2023-12-09 13:43:23.025251$GLGSV,2,2,05,83,16,043,35,,,,,,,,,,,,*5D
###2023-12-09 13:43:23.027709$GAGSV,1,1,03,04,42,308,43,21,74,044,39,27,20,051,40,,,,*58
###2023-12-09 13:43:23.030514$GBGSV,2,1,05,12,18,124,39,14,25,189,35,24,60,050,43,25,53,280,46*65
###2023-12-09 13:43:23.032266$GBGSV,2,2,05,35,16,053,38,,,,,,,,,,,,*52
###2023-12-09 13:43:23.033859$GNVTG,243.17,T,,M,0.10,N,0.18,K,A*28
###2023-12-09 13:43:23.035815$GNGST,184322.10,7.500,,,,0.220,0.130,0.350*6E
###2023-12-09 13:43:23.037374$GNZDA,184322.10,09,12,2023,00,00*7E
###2023-12-09 13:43:23.038142$GNEBP,,,,,,M*13
###2023-12-09 13:43:23.201164$GNGGA,184322.30,4138.0393505,N,07032.4385050,W,1,19,0.8,15.772,M,-29.746,M,0.0,*58
###2023-12-09 13:43:23.400039$GNGGA,184322.50,4138.0393458,N,07032.4385033,W,1,19,0.8,15.761,M,-29.746,M,0.0,*50
###2023-12-09 13:43:23.598714$GNGGA,184322.70,4138.0393416,N,07032.4385038,W,1,19,0.8,15.750,M,-29.746,M,0.0,*51
###2023-12-09 13:43:23.799466$GNGGA,184322.90,4138.0393378,N,07032.4385036,W,1,19,0.8,15.741,M,-29.746,M,0.0,*5E
###2023-12-09 13:43:24.000150$GNRMC,184323.10,A,4138.0393344,N,07032.4385031,W,0.04,243.17,091223,,,A*5A
###2023-12-09 13:43:24.003624$GNGGA,184323.10,4138.0393344,N,07032.4385031,W,1,19,0.8,15.735,M,-29.746,M,0.0,*5C
###2023-12-09 13:43:24.005712$GPGSA,A,3,04,16,26,28,29,31,,,,,,,1.3,0.8,1.1*3C
###2023-12-09 13:43:24.007708$GLGSA,A,3,65,73,74,75,83,,,,,,,,1.3,0.8,1.1*29
###2023-12-09 13:43:24.009543$GAGSA,A,3,04,21,27,,,,,,,,,,1.3,0.8,1.1*2B
###2023-12-09 13:43:24.011541$GBGSA,A,3,12,14,24,25,35,,,,,,,,1.3,0.8,1.1*2B
###2023-12-09 13:43:24.014336$GPGSV,2,1,06,04,50,305,46,16,71,227,40,26,80,041,42,28,35,088,43*7F
###2023-12-09 13:43:24.016463$GPGSV,2,2,06,29,19,044,42,31,57,071,50,,,,,,,,*79
###2023-12-09 13:43:24.019324$GLGSV,2,1,05,65,42,314,44,73,19,055,44,74,56,021,36,75,46,277,42*6E
###2023-12-09 13:43:24.021083$GLGSV,2,2,05,83,16,043,35,,,,,,,,,,,,*5D
###2023-12-09 13:43:24.023552$GAGSV,1,1,03,04,42,308,42,21,74,044,39,27,20,051,40,,,,*59
###2023-12-09 13:43:24.026358$GBGSV,2,1,05,12,18,124,38,14,25,189,35,24,60,050,42,25,53,280,46*65
###2023-12-09 13:43:24.028133$GBGSV,2,2,05,35,16,053,38,,,,,,,,,,,,*52
###2023-12-09 13:43:24.029732$GNVTG,243.17,T,,M,0.04,N,0.07,K,A*23
###2023-12-09 13:43:24.031679$GNGST,184323.10,7.800,,,,0.220,0.120,0.340*62
###2023-12-09 13:43:24.033242$GNZDA,184323.10,09,12,2023,00,00*7F
###2023-12-09 13:43:24.034009$GNEBP,,,,,,M*13
###2023-12-09 13:43:24.201070$GNGGA,184323.30,4138.0393296,N,07032.4385018,W,1,18,0.8,15.721,M,-29.746,M,0.0,*5F
###2023-12-09 13:43:24.397535$GNGGA,184323.50,4138.0393269,N,07032.4385009,W,1,18,0.8,15.713,M,-29.746,M,0.0,*58
###2023-12-09 13:43:24.598792$GNGGA,184323.70,4138.0393236,N,07032.4384995,W,1,18,0.8,15.703,M,-29.746,M,0.0,*5C
###2023-12-09 13:43:24.799205$GNGGA,184323.90,4138.0393185,N,07032.4384998,W,1,18,0.8,15.694,M,-29.746,M,0.0,*5B
###2023-12-09 13:43:25.000335$GNRMC,184324.10,A,4138.0393188,N,07032.4385002,W,0.06,243.17,091223,,,A*5D
###2023-12-09 13:43:25.003199$GNGGA,184324.10,4138.0393188,N,07032.4385002,W,1,18,0.8,15.688,M,-29.746,M,0.0,*5F
###2023-12-09 13:43:25.004923$GPGSA,A,3,04,16,26,28,29,31,,,,,,,1.3,0.8,1.1*3C
###2023-12-09 13:43:25.006502$GLGSA,A,3,65,73,74,75,,,,,,,,,1.3,0.8,1.1*22
###2023-12-09 13:43:25.008023$GAGSA,A,3,04,21,27,,,,,,,,,,1.3,0.8,1.1*2B
###2023-12-09 13:43:25.009696$GBGSA,A,3,12,14,24,25,35,,,,,,,,1.3,0.8,1.1*2B
###2023-12-09 13:43:25.012022$GPGSV,2,1,06,04,50,305,46,16,71,227,40,26,80,041,42,28,35,088,43*7F
###2023-12-09 13:43:25.014015$GPGSV,2,2,06,29,19,044,41,31,57,071,50,,,,,,,,*7A
###2023-12-09 13:43:25.016368$GLGSV,1,1,04,65,42,314,44,73,19,055,43,74,56,021,36,75,46,277,42*6B
###2023-12-09 13:43:25.018410$GAGSV,1,1,03,04,42,308,43,21,74,044,39,27,20,051,41,,,,*59
###2023-12-09 13:43:25.020745$GBGSV,2,1,05,12,18,124,39,14,25,189,35,24,60,050,42,25,53,280,46*64
###2023-12-09 13:43:25.022198$GBGSV,2,2,05,35,16,053,38,,,,,,,,,,,,*52
###2023-12-09 13:43:25.023523$GNVTG,243.17,T,,M,0.06,N,0.11,K,A*26
###2023-12-09 13:43:25.025135$GNGST,184324.10,7.300,,,,0.220,0.120,0.340*6E
###2023-12-09 13:43:25.026421$GNZDA,184324.10,09,12,2023,00,00*78
