###2023-12-09 12:50:41.747528$GNGGA,175040.90,4138.0563090,N,07032.3772247,W,1,24,0.6,13.678,M,-29.744,M,0.0,*5B
###2023-12-09 12:50:41.948051$GNRMC,175041.10,A,4138.0562977,N,07032.3771672,W,0.76,110.98,091223,,,A*5F
###2023-12-09 12:50:41.950937$GNGGA,175041.10,4138.0562977,N,07032.3771672,W,1,24,0.6,13.686,M,-29.744,M,0.0,*53
###2023-12-09 12:50:41.952796$GPGSA,A,3,03,04,16,26,28,29,31,32,,,,,1.1,0.6,0.9*3B
###2023-12-09 12:50:41.954514$GLGSA,A,3,65,71,72,73,74,75,,,,,,,1.1,0.6,0.9*24
###2023-12-09 12:50:41.956118$GAGSA,A,3,04,19,21,27,,,,,,,,,1.1,0.6,0.9*26
###2023-12-09 12:50:41.957772$GBGSA,A,3,14,24,25,26,33,,,,,,,,1.1,0.6,0.9*2F
###2023-12-09 12:50:41.960136$GPGSV,2,1,08,03,37,268,45,04,28,311,43,16,44,210,46,26,74,208,48*75
###2023-12-09 12:50:41.962470$GPGSV,2,2,08,28,53,065,45,29,26,066,44,31,71,024,48,32,23,138,40*70
###2023-12-09 12:50:41.964826$GLGSV,2,1,06,65,18,329,45,71,48,171,47,72,71,291,48,73,41,038,46*60
###2023-12-09 12:50:41.966599$GLGSV,2,2,06,74,71,317,44,75,28,247,43,,,,,,,,*6D
###2023-12-09 12:50:41.968941$GAGSV,1,1,04,04,26,312,43,19,85,260,41,21,83,158,46,27,36,048,44*65
###2023-12-09 12:50:41.971292$GBGSV,2,1,05,14,48,194,45,24,77,014,49,25,37,258,46,26,29,060,45*61
###2023-12-09 12:50:41.972751$GBGSV,2,2,05,33,61,241,49,,,,,,,,,,,,*53
###2023-12-09 12:50:41.974079$GNVTG,110.98,T,,M,0.76,N,1.40,K,A*26
###2023-12-09 12:50:41.975744$GNGST,175041.10,18.000,,,,0.074,0.064,0.150*5C
###2023-12-09 12:50:41.977042$GNZDA,175041.10,09,12,2023,00,00*76
###2023-12-09 12:50:41.977682$GNEBP,,,,,,M*13
###2023-12-09 12:50:42.147450$GNGGA,175041.30,4138.0562862,N,07032.3771096,W,1,24,0.6,13.690,M,-29.744,M,0.0,*5F
###2023-12-09 12:50:42.348917$GNGGA,175041.50,4138.0562735,N,07032.3770565,W,1,24,0.6,13.680,M,-29.744,M,0.0,*5D
###2023-12-09 12:50:42.548703$GNGGA,175041.70,4138.0562604,N,07032.3770058,W,1,24,0.6,13.678,M,-29.744,M,0.0,*50
###2023-12-09 12:50:42.754909$GNGGA,175041.90,4138.0562504,N,07032.3769517,W,1,24,0.6,13.684,M,-29.744,M,0.0,*58
###2023-12-09 12:50:42.947142$GNRMC,175042.10,A,4138.0562425,N,07032.3768941,W,0.74,110.98,091223,,,A*53
###2023-12-09 12:50:42.949994$GNGGA,175042.10,4138.0562425,N,07032.3768941,W,1,24,0.6,13.686,M,-29.744,M,0.0,*5D
###2023-12-09 12:50:42.951866$GPGSA,A,3,03,04,16,26,28,29,31,32,,,,,1.1,0.6,0.9*3B
###2023-12-09 12:50:42.953580$GLGSA,A,3,65,71,72,73,74,75,,,,,,,1.1,0.6,0.9*24
###2023-12-09 12:50:42.955178$GAGSA,A,3,04,19,21,27,,,,,,,,,1.1,0.6,0.9*26
###2023-12-09 12:50:42.956824$GBGSA,A,3,14,24,25,26,33,,,,,,,,1.1,0.6,0.9*2F
###2023-12-09 12:50:42.959168$GPGSV,2,1,08,03,37,268,44,04,28,311,43,16,44,210,46,26,74,208,48*74
###2023-12-09 12:50:42.961504$GPGSV,2,2,08,28,53,065,46,29,26,066,43,31,71,024,47,32,23,138,40*7B
###2023-12-09 12:50:42.963871$GLGSV,2,1,06,65,18,329,42,71,48,171,48,72,71,291,48,73,41,038,47*69
###2023-12-09 12:50:42.965633$GLGSV,2,2,06,74,71,317,44,75,28,247,44,,,,,,,,*6A
###2023-12-09 12:50:42.968005$GAGSV,1,1,04,04,26,312,42,19,85,260,40,21,83,158,45,27,36,048,44*66
###2023-12-09 12:50:42.970348$GBGSV,2,1,05,14,48,194,45,24,77,014,49,25,37,258,47,26,29,060,45*60
###2023-12-09 12:50:42.971822$GBGSV,2,2,05,33,61,241,50,,,,,,,,,,,,*5B
###2023-12-09 12:50:42.973152$GNVTG,110.98,T,,M,0.74,N,1.37,K,A*24
###2023-12-09 12:50:42.974822$GNGST,175042.10,18.000,,,,0.074,0.064,0.150*5F
###2023-12-09 12:50:42.976123$GNZDA,175042.10,09,12,2023,00,00*75
###2023-12-09 12:50:42.976763$GNEBP,,,,,,M*13
###2023-12-09 12:50:43.146844$GNGGA,175042.30,4138.0562287,N,07032.3768434,W,1,24,0.6,13.685,M,-29.744,M,0.0,*5D
###2023-12-09 12:50:43.347527$GNGGA,175042.50,4138.0562143,N,07032.3767963,W,1,24,0.6,13.691,M,-29.744,M,0.0,*55
###2023-12-09 12:50:43.547612$GNGGA,175042.70,4138.0562053,N,07032.3767440,W,1,24,0.6,13.697,M,-29.744,M,0.0,*5D
###2023-12-09 12:50:43.751180$GNGGA,175042.90,4138.0561969,N,07032.3766913,W,1,24,0.6,13.696,M,-29.744,M,0.0,*5B
###2023-12-09 12:50:43.947227$GNRMC,175043.10,A,4138.0561858,N,07032.3766406,W,0.70,110.98,091223,,,A*53
###2023-12-09 12:50:43.950098$GNGGA,175043.10,4138.0561858,N,07032.3766406,W,1,24,0.6,13.688,M,-29.744,M,0.0,*57
###2023-12-09 12:50:43.951988$GPGSA,A,3,03,04,16,26,28,29,31,32,,,,,1.1,0.6,0.9*3B
###2023-12-09 12:50:43.953725$GLGSA,A,3,65,71,72,73,74,75,,,,,,,1.1,0.6,0.9*24
###2023-12-09 12:50:43.955346$GAGSA,A,3,04,19,21,27,,,,,,,,,1.1,0.6,0.9*26
###2023-12-09 12:50:43.957003$GBGSA,A,3,14,24,25,26,33,,,,,,,,1.1,0.6,0.9*2F
###2023-12-09 12:50:43.959351$GPGSV,2,1,08,03,37,268,42,04,28,311,42,16,44,210,44,26,74,208,46*7F
###2023-12-09 12:50:43.961687$GPGSV,2,2,08,28,53,065,43,29,26,066,41,31,71,024,45,32,23,138,37*7E
###2023-12-09 12:50:43.964035$GLGSV,2,1,06,65,18,329,41,71,48,171,45,72,71,291,45,73,41,038,44*69
###2023-12-09 12:50:43.965792$GLGSV,2,2,06,74,71,317,42,75,28,247,40,,,,,,,,*68
###2023-12-09 12:50:43.968150$GAGSV,1,1,04,04,26,312,41,19,85,260,40,21,83,158,45,27,36,048,43*62
###2023-12-09 12:50:43.970491$GBGSV,2,1,05,14,48,194,43,24,77,014,47,25,37,258,44,26,29,060,43*6D
###2023-12-09 12:50:43.971963$GBGSV,2,2,05,33,61,241,48,,,,,,,,,,,,*52
###2023-12-09 12:50:43.973293$GNVTG,110.98,T,,M,0.70,N,1.30,K,A*27
###2023-12-09 12:50:43.974962$GNGST,175043.10,18.000,,,,0.074,0.064,0.150*5E
###2023-12-09 12:50:43.976264$GNZDA,175043.10,09,12,2023,00,00*74
###2023-12-09 12:50:43.976906$GNEBP,,,,,,M*13
###2023-12-09 12:50:44.147455$GNGGA,175043.30,4138.0561720,N,07032.3765933,W,1,24,0.6,13.680,M,-29.744,M,0.0,*55
###2023-12-09 12:50:44.348766$GNGGA,175043.50,4138.0561592,N,07032.3765480,W,1,24,0.6,13.689,M,-29.744,M,0.0,*54
###2023-12-09 12:50:44.552797$GNGGA,175043.70,4138.0561461,N,07032.3764982,W,1,24,0.6,13.699,M,-29.744,M,0.0,*54
###2023-12-09 12:50:44.748636$GNGGA,175043.90,4138.0561354,N,07032.3764493,W,1,24,0.6,13.693,M,-29.744,M,0.0,*5C
###2023-12-09 12:50:44.951294$GNRMC,175044.10,A,4138.0561284,N,07032.3764126,W,0.54,110.98,091223,,,A*5C
###2023-12-09 12:50:44.954158$GNGGA,175044.10,4138.0561284,N,07032.3764126,W,1,24,0.6,13.685,M,-29.744,M,0.0,*53
###2023-12-09 12:50:44.956047$GPGSA,A,3,03,04,16,26,28,29,31,32,,,,,1.1,0.6,0.9*3B
###2023-12-09 12:50:44.957766$GLGSA,A,3,65,71,72,73,74,75,,,,,,,1.1,0.6,0.9*24
###2023-12-09 12:50:44.959369$GAGSA,A,3,04,19,21,27,,,,,,,,,1.1,0.6,0.9*26
###2023-12-09 12:50:44.961019$GBGSA,A,3,14,24,25,26,33,,,,,,,,1.1,0.6,0.9*2F
###2023-12-09 12:50:44.963367$GPGSV,2,1,08,03,37,268,44,04,28,311,41,16,44,210,45,26,74,208,48*75
###2023-12-09 12:50:44.965712$GPGSV,2,2,08,28,53,065,44,29,26,066,43,31,71,024,46,32,23,138,40*78
###2023-12-09 12:50:44.968073$GLGSV,2,1,06,65,18,329,42,71,48,171,45,72,71,291,46,73,41,038,46*6B
###2023-12-09 12:50:44.969834$GLGSV,2,2,06,74,71,317,43,75,28,247,43,,,,,,,,*6A
###2023-12-09 12:50:44.972197$GAGSV,1,1,04,04,26,312,41,19,85,260,40,21,83,158,46,27,36,048,44*66
###2023-12-09 12:50:44.974535$GBGSV,2,1,05,14,48,194,44,24,77,014,48,25,37,258,45,26,29,060,44*63
###2023-12-09 12:50:44.976007$GBGSV,2,2,05,33,61,241,48,,,,,,,,,,,,*52
###2023-12-09 12:50:44.977333$GNVTG,110.98,T,,M,0.54,N,1.01,K,A*23
###2023-12-09 12:50:44.979000$GNGST,175044.10,18.000,,,,0.076,0.066,0.150*59
###2023-12-09 12:50:44.980291$GNZDA,175044.10,09,12,2023,00,00*73
###2023-12-09 12:50:44.980932$GNEBP,,,,,,M*13
###2023-12-09 12:50:45.148751$GNGGA,175044.30,4138.0561167,N,07032.3763767,W,1,24,0.6,13.686,M,-29.744,M,0.0,*58
###2023-12-09 12:50:45.347478$GNGGA,175044.50,4138.0561054,N,07032.3763327,W,1,24,0.6,13.694,M,-29.744,M,0.0,*5C
###2023-12-09 12:50:45.547487$GNGGA,175044.70,4138.0560981,N,07032.3762897,W,1,24,0.6,13.700,M,-29.744,M,0.0,*53
###2023-12-09 12:50:45.750693$GNGGA,175044.90,4138.0560889,N,07032.3762576,W,1,24,0.6,13.701,M,-29.744,M,0.0,*57
###2023-12-09 12:50:45.948691$GNRMC,175045.10,A,4138.0560771,N,07032.3762248,W,0.49,110.98,091223,,,A*52
###2023-12-09 12:50:45.951581$GNGGA,175045.10,4138.0560771,N,07032.3762248,W,1,24,0.6,13.705,M,-29.744,M,0.0,*58
###2023-12-09 12:50:45.953439$GPGSA,A,3,03,04,16,26,28,29,31,32,,,,,1.1,0.6,0.9*3B
###2023-12-09 12:50:45.955172$GLGSA,A,3,65,71,72,73,74,75,,,,,,,1.1,0.6,0.9*24
###2023-12-09 12:50:45.956760$GAGSA,A,3,04,19,21,27,,,,,,,,,1.1,0.6,0.9*26
###2023-12-09 12:50:45.958405$GBGSA,A,3,14,24,25,26,33,,,,,,,,1.1,0.6,0.9*2F
###2023-12-09 12:50:45.961051$GPGSV,2,1,08,03,37,268,44,04,28,311,42,16,44,210,45,26,74,208,47*79
###2023-12-09 12:50:45.963442$GPGSV,2,2,08,28,53,065,44,29,26,066,43,31,71,024,47,32,23,138,40*79
###2023-12-09 12:50:45.965792$GLGSV,2,1,06,65,18,329,43,71,48,171,46,72,71,291,47,73,41,038,46*68
###2023-12-09 12:50:45.967565$GLGSV,2,2,06,74,71,317,43,75,28,247,43,,,,,,,,*6A
###2023-12-09 12:50:45.969897$GAGSV,1,1,04,04,26,312,41,19,85,260,40,21,83,158,45,27,36,048,43*62
###2023-12-09 12:50:45.972255$GBGSV,2,1,05,14,48,194,45,24,77,014,49,25,37,258,47,26,29,060,44*61
###2023-12-09 12:50:45.973727$GBGSV,2,2,05,33,60,240,49,,,,,,,,,,,,*53
###2023-12-09 12:50:45.975066$GNVTG,110.98,T,,M,0.49,N,0.90,K,A*26
###2023-12-09 12:50:45.976716$GNGST,175045.10,18.000,,,,0.076,0.066,0.160*5B
