###2023-12-09 12:24:59.942271$GBGSV,1,1,04,14,59,200,46,25,29,249,39,26,38,055,47,33,64,264,40*65
###2023-12-09 12:24:59.943476$GNVTG,,T,,M,0.04,N,0.07,K,A*3E
###2023-12-09 12:24:59.945152$GNGST,172459.10,30.000,,,,0.210,0.200,0.330*58
###2023-12-09 12:24:59.946476$GNZDA,172459.10,09,12,2023,00,00*7C
###2023-12-09 12:24:59.947185$GNEBP,,,,,,M*13
###2023-12-09 12:25:00.119799$GNGGA,172459.30,4138.0390506,N,07032.4365888,W,1,19,0.7,11.046,M,-29.746,M,0.0,*52
###2023-12-09 12:25:00.317605$GNGGA,172459.50,4138.0390481,N,07032.4365878,W,1,19,0.7,11.044,M,-29.746,M,0.0,*57
###2023-12-09 12:25:00.517403$GNGGA,172459.70,4138.0390451,N,07032.4365878,W,1,19,0.7,11.040,M,-29.746,M,0.0,*5C
###2023-12-09 12:25:00.716686$GNGGA,172459.90,4138.0390435,N,07032.4365881,W,1,19,0.7,11.036,M,-29.746,M,0.0,*57
###2023-12-09 12:25:00.920398$GNRMC,172500.10,A,4138.0390408,N,07032.4365861,W,0.02,,091223,,,A*40
###2023-12-09 12:25:00.923291$GNGGA,172500.10,4138.0390408,N,07032.4365861,W,1,19,0.7,11.036,M,-29.746,M,0.0,*52
###2023-12-09 12:25:00.925171$GPGSA,A,3,03,16,25,26,28,29,31,32,,,,,1.2,0.7,1.0*32
###2023-12-09 12:25:00.926791$GLGSA,A,3,71,72,73,75,,,,,,,,,1.2,0.7,1.0*2E
###2023-12-09 12:25:00.928330$GAGSA,A,3,04,21,27,,,,,,,,,,1.2,0.7,1.0*24
###2023-12-09 12:25:00.929936$GBGSA,A,3,14,25,26,33,,,,,,,,,1.2,0.7,1.0*23
###2023-12-09 12:25:00.932327$GPGSV,2,1,08,03,39,283,43,16,32,206,39,25,16,045,41,26,61,205,45*7C
###2023-12-09 12:25:00.934716$GPGSV,2,2,08,28,61,050,43,29,24,079,44,31,73,344,39,32,34,131,46*75
###2023-12-09 12:25:00.937080$GLGSV,1,1,04,71,62,167,45,72,61,317,39,73,53,030,47,75,18,237,39*6A
###2023-12-09 12:25:00.939153$GAGSV,1,1,03,04,18,310,36,21,74,180,46,27,45,051,47,,,,*59
###2023-12-09 12:25:00.941499$GBGSV,1,1,04,14,59,200,46,25,29,249,40,26,38,055,48,33,64,264,40*64
###2023-12-09 12:25:00.942668$GNVTG,,T,,M,0.02,N,0.04,K,A*3B
###2023-12-09 12:25:00.944330$GNGST,172500.10,30.000,,,,0.210,0.200,0.340*52
###2023-12-09 12:25:00.945637$GNZDA,172500.10,09,12,2023,00,00*71
###2023-12-09 12:25:00.946297$GNEBP,,,,,,M*13
###2023-12-09 12:25:01.117545$GNGGA,172500.30,4138.0390373,N,07032.4365848,W,1,19,0.7,11.033,M,-29.746,M,0.0,*55
###2023-12-09 12:25:01.318677$GNGGA,172500.50,4138.0390351,N,07032.4365827,W,1,19,0.7,11.034,M,-29.746,M,0.0,*5D
###2023-12-09 12:25:01.517318$GNGGA,172500.70,4138.0390318,N,07032.4365824,W,1,19,0.7,11.032,M,-29.746,M,0.0,*57
###2023-12-09 12:25:01.716585$GNGGA,172500.90,4138.0390289,N,07032.4365809,W,1,19,0.7,11.026,M,-29.746,M,0.0,*5A
###2023-12-09 12:25:01.920466$GNRMC,172501.10,A,4138.0390264,N,07032.4365796,W,0.02,,091223,,,A*4A
###2023-12-09 12:25:01.923543$GNGGA,172501.10,4138.0390264,N,07032.4365796,W,1,19,0.7,11.017,M,-29.746,M,0.0,*5B
###2023-12-09 12:25:01.925421$GPGSA,A,3,03,16,25,26,28,29,31,32,,,,,1.2,0.7,1.0*32
###2023-12-09 12:25:01.927042$GLGSA,A,3,71,72,73,75,,,,,,,,,1.2,0.7,1.0*2E
###2023-12-09 12:25:01.928568$GAGSA,A,3,04,21,27,,,,,,,,,,1.2,0.7,1.0*24
###2023-12-09 12:25:01.930147$GBGSA,A,3,14,25,26,33,,,,,,,,,1.2,0.7,1.0*23
###2023-12-09 12:25:01.932494$GPGSV,2,1,08,03,39,283,43,16,32,206,38,25,16,045,41,26,61,205,45*7D
###2023-12-09 12:25:01.934859$GPGSV,2,2,08,28,61,050,42,29,24,079,44,31,73,344,38,32,34,131,46*75
###2023-12-09 12:25:01.937203$GLGSV,1,1,04,71,62,167,45,72,61,316,39,73,53,030,47,75,18,237,38*6A
###2023-12-09 12:25:01.939275$GAGSV,1,1,03,04,18,310,36,21,74,180,46,27,45,051,46,,,,*58
###2023-12-09 12:25:01.941610$GBGSV,1,1,04,14,59,200,46,25,29,249,40,26,38,055,48,33,64,264,40*64
###2023-12-09 12:25:01.942781$GNVTG,,T,,M,0.02,N,0.04,K,A*3B
###2023-12-09 12:25:01.944442$GNGST,172501.10,30.000,,,,0.210,0.210,0.340*52
###2023-12-09 12:25:01.945747$GNZDA,172501.10,09,12,2023,00,00*70
###2023-12-09 12:25:01.946422$GNEBP,,,,,,M*13
###2023-12-09 12:25:02.119681$GNGGA,172501.30,4138.0390237,N,07032.4365776,W,1,19,0.7,11.009,M,-29.746,M,0.0,*5E
###2023-12-09 12:25:02.319609$GNGGA,172501.50,4138.0390220,N,07032.4365755,W,1,19,0.7,11.010,M,-29.746,M,0.0,*57
###2023-12-09 12:25:02.519795$GNGGA,172501.70,4138.0390198,N,07032.4365741,W,1,19,0.7,11.008,M,-29.746,M,0.0,*59
###2023-12-09 12:25:02.718637$GNGGA,172501.90,4138.0390180,N,07032.4365734,W,1,19,0.7,11.003,M,-29.746,M,0.0,*57
###2023-12-09 12:25:02.921572$GNRMC,172502.10,A,4138.0390161,N,07032.4365717,W,0.02,,091223,,,A*46
###2023-12-09 12:25:02.924641$GNGGA,172502.10,4138.0390161,N,07032.4365717,W,1,19,0.7,11.001,M,-29.746,M,0.0,*50
###2023-12-09 12:25:02.926522$GPGSA,A,3,03,16,25,26,28,29,31,32,,,,,1.2,0.7,1.0*32
###2023-12-09 12:25:02.928135$GLGSA,A,3,71,72,73,75,,,,,,,,,1.2,0.7,1.0*2E
###2023-12-09 12:25:02.929661$GAGSA,A,3,04,21,27,,,,,,,,,,1.2,0.7,1.0*24
###2023-12-09 12:25:02.931261$GBGSA,A,3,14,25,26,33,,,,,,,,,1.2,0.7,1.0*23
###2023-12-09 12:25:02.933587$GPGSV,2,1,08,03,39,283,43,16,32,206,39,25,16,045,41,26,61,205,45*7C
###2023-12-09 12:25:02.935941$GPGSV,2,2,08,28,61,050,42,29,24,079,44,31,73,344,38,32,34,131,46*75
###2023-12-09 12:25:02.938272$GLGSV,1,1,04,71,62,167,45,72,61,316,39,73,52,030,47,75,18,237,38*6B
###2023-12-09 12:25:02.940330$GAGSV,1,1,03,04,18,310,36,21,74,180,45,27,45,051,46,,,,*5B
###2023-12-09 12:25:02.942673$GBGSV,1,1,04,14,59,200,46,25,29,249,39,26,38,055,48,33,64,264,40*6A
###2023-12-09 12:25:02.943817$GNVTG,,T,,M,0.02,N,0.04,K,A*3B
###2023-12-09 12:25:02.945476$GNGST,172502.10,30.000,,,,0.210,0.210,0.350*50
###2023-12-09 12:25:02.946794$GNZDA,172502.10,09,12,2023,00,00*73
###2023-12-09 12:25:02.947457$GNEBP,,,,,,M*13
###2023-12-09 12:25:03.123516$GNGGA,172502.30,4138.0390129,N,07032.4365699,W,1,19,0.7,10.999,M,-29.746,M,0.0,*50
###2023-12-09 12:25:03.320285$GNGGA,172502.50,4138.0390108,N,07032.4365695,W,1,19,0.7,10.997,M,-29.746,M,0.0,*57
###2023-12-09 12:25:03.525667$GNGGA,172502.70,4138.0390096,N,07032.4365681,W,1,19,0.7,10.990,M,-29.746,M,0.0,*51
###2023-12-09 12:25:03.722617$GNGGA,172502.90,4138.0390074,N,07032.4365659,W,1,19,0.7,10.992,M,-29.746,M,0.0,*54
###2023-12-09 12:25:03.917833$GNRMC,172503.10,A,4138.0390044,N,07032.4365641,W,0.02,,091223,,,A*43
###2023-12-09 12:25:03.920824$GNGGA,172503.10,4138.0390044,N,07032.4365641,W,1,19,0.7,10.990,M,-29.746,M,0.0,*55
###2023-12-09 12:25:03.922746$GPGSA,A,3,03,16,25,26,28,29,31,32,,,,,1.2,0.7,1.0*32
###2023-12-09 12:25:03.924375$GLGSA,A,3,71,72,73,75,,,,,,,,,1.2,0.7,1.0*2E
###2023-12-09 12:25:03.925937$GAGSA,A,3,04,21,27,,,,,,,,,,1.2,0.7,1.0*24
###2023-12-09 12:25:03.927575$GBGSA,A,3,14,25,26,33,,,,,,,,,1.2,0.7,1.0*23
###2023-12-09 12:25:03.929945$GPGSV,2,1,08,03,39,283,44,16,32,206,39,25,16,045,40,26,61,205,45*7A
###2023-12-09 12:25:03.932329$GPGSV,2,2,08,28,61,050,42,29,24,079,43,31,73,344,38,32,34,131,46*72
###2023-12-09 12:25:03.934720$GLGSV,1,1,04,71,62,167,45,72,61,316,39,73,52,030,47,75,18,237,39*6A
###2023-12-09 12:25:03.936817$GAGSV,1,1,03,04,18,310,37,21,74,180,46,27,45,051,46,,,,*59
###2023-12-09 12:25:03.939213$GBGSV,1,1,04,14,59,200,46,25,29,249,38,26,38,055,48,33,64,264,39*65
###2023-12-09 12:25:03.940400$GNVTG,,T,,M,0.02,N,0.04,K,A*3B
###2023-12-09 12:25:03.942080$GNGST,172503.10,30.000,,,,0.210,0.210,0.350*51
###2023-12-09 12:25:03.943430$GNZDA,172503.10,09,12,2023,00,00*72
###2023-12-09 12:25:03.944112$GNEBP,,,,,,M*13
###2023-12-09 12:25:04.118409$GNGGA,172503.30,4138.0390012,N,07032.4365627,W,1,19,0.7,10.985,M,-29.746,M,0.0,*50
###2023-12-09 12:25:04.318416$GNGGA,172503.50,4138.0389987,N,07032.4365614,W,1,19,0.7,10.979,M,-29.746,M,0.0,*58
###2023-12-09 12:25:04.517274$GNGGA,172503.70,4138.0389945,N,07032.4365601,W,1,19,0.7,10.971,M,-29.746,M,0.0,*58
###2023-12-09 12:25:04.720161$GNGGA,172503.90,4138.0389909,N,07032.4365577,W,1,19,0.7,10.967,M,-29.746,M,0.0,*5B
###2023-12-09 12:25:04.926643$GNRMC,172504.10,A,4138.0389886,N,07032.4365560,W,0.02,,091223,,,A*4A
###2023-12-09 12:25:04.929528$GNGGA,172504.10,4138.0389886,N,07032.4365560,W,1,19,0.7,10.963,M,-29.746,M,0.0,*50
###2023-12-09 12:25:04.931425$GPGSA,A,3,03,16,25,26,28,29,31,32,,,,,1.2,0.7,1.0*32
###2023-12-09 12:25:04.933033$GLGSA,A,3,71,72,73,75,,,,,,,,,1.2,0.7,1.0*2E
###2023-12-09 12:25:04.934582$GAGSA,A,3,04,21,27,,,,,,,,,,1.2,0.7,1.0*24
###2023-12-09 12:25:04.936187$GBGSA,A,3,14,25,26,33,,,,,,,,,1.2,0.7,1.0*23
###2023-12-09 12:25:04.938825$GPGSV,2,1,08,03,39,283,44,16,32,206,39,25,16,045,40,26,61,205,45*7A
###2023-12-09 12:25:04.941207$GPGSV,2,2,08,28,61,050,43,29,24,079,44,31,73,344,38,32,34,131,46*74
###2023-12-09 12:25:04.943599$GLGSV,1,1,04,71,62,167,45,72,61,316,40,73,52,030,47,75,18,237,39*64
###2023-12-09 12:25:04.945685$GAGSV,1,1,03,04,18,310,36,21,74,180,45,27,45,051,46,,,,*5B
###2023-12-09 12:25:04.948092$GBGSV,1,1,04,14,59,200,46,25,29,249,38,26,38,055,48,33,64,264,39*65
###2023-12-09 12:25:04.949275$GNVTG,,T,,M,0.02,N,0.04,K,A*3B
###2023-12-09 12:25:04.950964$GNGST,172504.10,30.000,,,,0.210,0.210,0.360*55
###2023-12-09 12:25:04.952279$GNZDA,172504.10,09,12,2023,00,00*75
###2023-12-09 12:25:04.952937$GNEBP,,,,,,M*13
