###2023-12-09 13:16:34.003662$GPGSV,2,2,07,28,44,077,45,29,24,054,42,31,65,052,46,,,,*4B
###2023-12-09 13:16:34.006011$GLGSV,2,1,06,65,30,325,40,71,33,174,47,72,71,243,47,73,30,046,43*60
###2023-12-09 13:16:34.007791$GLGSV,2,2,06,74,66,355,41,75,37,260,47,,,,,,,,*67
###2023-12-09 13:16:34.010112$GAGSV,1,1,04,04,34,312,43,19,79,190,41,21,83,062,46,27,28,049,41*6A
###2023-12-09 13:16:34.012453$GBGSV,2,1,06,14,36,191,43,24,68,036,47,25,45,268,47,26,21,066,42*66
###2023-12-09 13:16:34.014198$GBGSV,2,2,06,33,53,225,47,35,16,064,43,,,,,,,,*69
###2023-12-09 13:16:34.015484$GNVTG,2.73,T,,M,3.63,N,6.73,K,A*21
###2023-12-09 13:16:34.017135$GNGST,181633.10,18.000,,,,0.097,0.069,0.170*56
###2023-12-09 13:16:34.018427$GNZDA,181633.10,09,12,2023,00,00*7E
###2023-12-09 13:16:34.019073$GNEBP,,,,,,M*13
###2023-12-09 13:16:34.181489$GNGGA,181633.30,4138.0850638,N,07032.2745516,W,1,24,0.7,13.094,M,-29.742,M,0.0,*54
###2023-12-09 13:16:34.378223$GNGGA,181633.50,4138.0852531,N,07032.2745645,W,1,24,0.7,13.091,M,-29.742,M,0.0,*5A
###2023-12-09 13:16:34.581725$GNGGA,181633.70,4138.0854396,N,07032.2745738,W,1,24,0.7,13.082,M,-29.742,M,0.0,*5C
###2023-12-09 13:16:34.780999$GNGGA,181633.90,4138.0856197,N,07032.2745969,W,1,24,0.7,13.087,M,-29.742,M,0.0,*5C
###2023-12-09 13:16:34.982654$GNRMC,181634.10,A,4138.0857964,N,07032.2746386,W,3.23,348.72,091223,,,A*5A
###2023-12-09 13:16:34.985525$GNGGA,181634.10,4138.0857964,N,07032.2746386,W,1,24,0.7,13.102,M,-29.742,M,0.0,*52
###2023-12-09 13:16:34.987338$GPGSA,A,3,03,04,16,26,28,29,31,,,,,,1.2,0.7,1.0*30
###2023-12-09 13:16:34.989059$GLGSA,A,3,65,71,72,73,74,75,,,,,,,1.2,0.7,1.0*2E
###2023-12-09 13:16:34.990651$GAGSA,A,3,04,19,21,27,,,,,,,,,1.2,0.7,1.0*2C
###2023-12-09 13:16:34.992369$GBGSA,A,3,14,24,25,26,33,35,,,,,,,1.2,0.7,1.0*23
###2023-12-09 13:16:34.994708$GPGSV,2,1,07,03,32,254,44,04,38,311,44,16,57,216,46,26,87,208,48*7F
###2023-12-09 13:16:34.996753$GPGSV,2,2,07,28,44,077,46,29,24,054,42,31,65,052,47,,,,*49
###2023-12-09 13:16:34.999098$GLGSV,2,1,06,65,30,325,38,71,33,174,46,72,71,243,47,73,30,046,43*6E
###2023-12-09 13:16:35.000856$GLGSV,2,2,06,74,66,355,41,75,37,260,48,,,,,,,,*68
###2023-12-09 13:16:35.003196$GAGSV,1,1,04,04,34,312,42,19,79,190,41,21,83,062,46,27,28,049,39*64
###2023-12-09 13:16:35.005531$GBGSV,2,1,06,14,36,191,43,24,68,036,48,25,45,268,45,26,21,066,44*6D
###2023-12-09 13:16:35.007296$GBGSV,2,2,06,33,53,225,47,35,16,064,43,,,,,,,,*69
###2023-12-09 13:16:35.008620$GNVTG,348.72,T,,M,3.23,N,5.98,K,A*2F
###2023-12-09 13:16:35.010270$GNGST,181634.10,18.000,,,,0.097,0.069,0.170*51
###2023-12-09 13:16:35.011577$GNZDA,181634.10,09,12,2023,00,00*79
###2023-12-09 13:16:35.012219$GNEBP,,,,,,M*13
###2023-12-09 13:16:35.177172$GNGGA,181634.30,4138.0859727,N,07032.2746852,W,1,24,0.7,13.102,M,-29.742,M,0.0,*55
###2023-12-09 13:16:35.377158$GNGGA,181634.50,4138.0861486,N,07032.2747402,W,1,24,0.7,13.098,M,-29.742,M,0.0,*5A
###2023-12-09 13:16:35.580150$GNGGA,181634.70,4138.0863264,N,07032.2748100,W,1,24,0.7,13.104,M,-29.741,M,0.0,*5F
###2023-12-09 13:16:35.779112$GNGGA,181634.90,4138.0865064,N,07032.2748855,W,1,24,0.7,13.107,M,-29.741,M,0.0,*5F
###2023-12-09 13:16:35.981441$GNRMC,181635.10,A,4138.0866869,N,07032.2749654,W,3.42,340.71,091223,,,A*5C
###2023-12-09 13:16:35.984349$GNGGA,181635.10,4138.0866869,N,07032.2749654,W,1,24,0.7,13.104,M,-29.741,M,0.0,*5D
###2023-12-09 13:16:35.986153$GPGSA,A,3,03,04,16,26,28,29,31,,,,,,1.2,0.7,1.0*30
###2023-12-09 13:16:35.987884$GLGSA,A,3,65,71,72,73,74,75,,,,,,,1.2,0.7,1.0*2E
###2023-12-09 13:16:35.989468$GAGSA,A,3,04,19,21,27,,,,,,,,,1.2,0.7,1.0*2C
###2023-12-09 13:16:35.991195$GBGSA,A,3,14,24,25,26,33,35,,,,,,,1.2,0.7,1.0*23
###2023-12-09 13:16:35.993519$GPGSV,2,1,07,03,32,254,45,04,38,311,44,16,57,216,47,26,87,208,48*7F
###2023-12-09 13:16:35.995575$GPGSV,2,2,07,28,44,077,46,29,24,054,43,31,65,052,48,,,,*47
###2023-12-09 13:16:35.997908$GLGSV,2,1,06,65,30,325,40,71,33,174,46,72,71,243,46,73,30,046,43*60
###2023-12-09 13:16:35.999670$GLGSV,2,2,06,74,66,355,41,75,37,260,48,,,,,,,,*68
###2023-12-09 13:16:36.002004$GAGSV,1,1,04,04,34,312,41,19,79,190,40,21,83,062,46,27,28,049,39*66
###2023-12-09 13:16:36.004353$GBGSV,2,1,06,14,36,191,42,24,68,036,49,25,45,268,46,26,21,066,44*6E
###2023-12-09 13:16:36.006103$GBGSV,2,2,06,33,52,224,49,35,16,064,43,,,,,,,,*67
###2023-12-09 13:16:36.007437$GNVTG,340.71,T,,M,3.42,N,6.34,K,A*26
###2023-12-09 13:16:36.009083$GNGST,181635.10,18.000,,,,0.097,0.069,0.170*50
###2023-12-09 13:16:36.010371$GNZDA,181635.10,09,12,2023,00,00*78
###2023-12-09 13:16:36.011018$GNEBP,,,,,,M*13
###2023-12-09 13:16:36.179174$GNGGA,181635.30,4138.0868694,N,07032.2750510,W,1,24,0.7,13.102,M,-29.741,M,0.0,*50
###2023-12-09 13:16:36.378453$GNGGA,181635.50,4138.0870549,N,07032.2751414,W,1,24,0.7,13.106,M,-29.741,M,0.0,*5C
###2023-12-09 13:16:36.578840$GNGGA,181635.70,4138.0872418,N,07032.2752374,W,1,24,0.7,13.108,M,-29.741,M,0.0,*55
###2023-12-09 13:16:36.778172$GNGGA,181635.90,4138.0874336,N,07032.2753396,W,1,24,0.7,13.110,M,-29.741,M,0.0,*52
###2023-12-09 13:16:36.986854$GNRMC,181636.10,A,4138.0876273,N,07032.2754474,W,3.75,337.51,091223,,,A*55
###2023-12-09 13:16:36.989728$GNGGA,181636.10,4138.0876273,N,07032.2754474,W,1,24,0.7,13.113,M,-29.741,M,0.0,*54
###2023-12-09 13:16:36.991533$GPGSA,A,3,03,04,16,26,28,29,31,,,,,,1.2,0.7,1.0*30
###2023-12-09 13:16:36.993243$GLGSA,A,3,65,71,72,73,74,75,,,,,,,1.2,0.7,1.0*2E
###2023-12-09 13:16:36.994829$GAGSA,A,3,04,19,21,27,,,,,,,,,1.2,0.7,1.0*2C
###2023-12-09 13:16:36.996540$GBGSA,A,3,14,24,25,26,33,35,,,,,,,1.2,0.7,1.0*23
###2023-12-09 13:16:36.998876$GPGSV,2,1,07,03,32,254,44,04,38,311,42,16,57,216,46,26,87,208,48*79
###2023-12-09 13:16:37.000914$GPGSV,2,2,07,28,44,077,46,29,24,054,41,31,65,052,46,,,,*4B
###2023-12-09 13:16:37.003253$GLGSV,2,1,06,65,30,325,40,71,33,174,46,72,71,243,46,73,30,046,43*60
###2023-12-09 13:16:37.005014$GLGSV,2,2,06,74,66,355,41,75,37,260,46,,,,,,,,*66
###2023-12-09 13:16:37.007353$GAGSV,1,1,04,04,34,312,40,19,79,190,40,21,83,062,46,27,28,049,40*69
###2023-12-09 13:16:37.009679$GBGSV,2,1,06,14,36,191,42,24,68,036,48,25,45,268,45,26,21,066,41*69
###2023-12-09 13:16:37.011440$GBGSV,2,2,06,33,52,224,47,35,16,063,41,,,,,,,,*6C
###2023-12-09 13:16:37.012762$GNVTG,337.51,T,,M,3.75,N,6.95,K,A*2B
###2023-12-09 13:16:37.014406$GNGST,181636.10,18.000,,,,0.097,0.069,0.170*53
###2023-12-09 13:16:37.015703$GNZDA,181636.10,09,12,2023,00,00*7B
###2023-12-09 13:16:37.016342$GNEBP,,,,,,M*13
###2023-12-09 13:16:37.177204$GNGGA,181636.30,4138.0878225,N,07032.2755602,W,1,24,0.7,13.118,M,-29.741,M,0.0,*52
###2023-12-09 13:16:37.382586$GNGGA,181636.50,4138.0880172,N,07032.2756795,W,1,24,0.7,13.118,M,-29.741,M,0.0,*5E
###2023-12-09 13:16:37.579110$GNGGA,181636.70,4138.0882085,N,07032.2758090,W,1,24,0.7,13.118,M,-29.741,M,0.0,*5B
###2023-12-09 13:16:37.778187$GNGGA,181636.90,4138.0883994,N,07032.2759370,W,1,24,0.7,13.115,M,-29.741,M,0.0,*5C
###2023-12-09 13:16:37.990789$GNRMC,181637.10,A,4138.0885863,N,07032.2760720,W,3.77,330.06,091223,,,A*51
###2023-12-09 13:16:37.993657$GNGGA,181637.10,4138.0885863,N,07032.2760720,W,1,24,0.7,13.108,M,-29.741,M,0.0,*5D
###2023-12-09 13:16:37.995458$GPGSA,A,3,03,04,16,26,28,29,31,,,,,,1.2,0.7,1.0*30
###2023-12-09 13:16:37.997170$GLGSA,A,3,65,71,72,73,74,75,,,,,,,1.2,0.7,1.0*2E
###2023-12-09 13:16:37.998764$GAGSA,A,3,04,19,21,27,,,,,,,,,1.2,0.7,1.0*2C
###2023-12-09 13:16:38.000482$GBGSA,A,3,14,24,25,26,33,35,,,,,,,1.2,0.7,1.0*23
###2023-12-09 13:16:38.002818$GPGSV,2,1,07,03,32,254,43,04,38,311,42,16,57,216,46,26,87,208,48*7E
###2023-12-09 13:16:38.004862$GPGSV,2,2,07,28,44,077,46,29,24,054,42,31,65,052,46,,,,*48
###2023-12-09 13:16:38.007198$GLGSV,2,1,06,65,31,324,41,71,33,174,44,72,71,243,46,73,30,046,43*63
###2023-12-09 13:16:38.008939$GLGSV,2,2,06,74,66,355,41,75,37,260,45,,,,,,,,*65
###2023-12-09 13:16:38.011271$GAGSV,1,1,04,04,34,312,40,19,79,190,41,21,83,062,46,27,28,049,40*68
###2023-12-09 13:16:38.013597$GBGSV,2,1,06,14,36,191,43,24,68,036,48,25,45,268,46,26,21,066,41*6B
###2023-12-09 13:16:38.015367$GBGSV,2,2,06,33,52,224,48,35,16,063,40,,,,,,,,*62
###2023-12-09 13:16:38.016693$GNVTG,330.06,T,,M,3.77,N,6.98,K,A*21
###2023-12-09 13:16:38.018626$GNGST,181637.10,18.000,,,,0.097,0.070,0.170*5A
###2023-12-09 13:16:38.019932$GNZDA,181637.10,09,12,2023,00,00*7A
###2023-12-09 13:16:38.020575$GNEBP,,,,,,M*13
###2023-12-09 13:16:38.179447$GNGGA,181637.30,4138.0887633,N,07032.2762192,W,1,24,0.7,13.109,M,-29.741,M,0.0,*5A
###2023-12-09 13:16:38.378715$GNGGA,181637.50,4138.0889348,N,07032.2763765,W,1,24,0.7,13.108,M,-29.741,M,0.0,*55
###2023-12-09 13:16:38.579079$GNGGA,181637.70,4138.0890960,N,07032.2765420,W,1,24,0.7,13.104,M,-29.741,M,0.0,*57
###2023-12-09 13:16:38.777962$GNGGA,181637.90,4138.0892472,N,07032.2767172,W,1,24,0.7,13.114,M,-29.741,M,0.0,*54
###2023-12-09 13:16:38.982653$GNRMC,181638.10,A,4138.0893912,N,07032.2768990,W,3.52,314.13,091223,,,A*56
###2023-12-09 13:16:38.985519$GNGGA,181638.10,4138.0893912,N,07032.2768990,W,1,24,0.7,13.121,M,-29.741,M,0.0,*54
