###2023-12-09 13:24:35.002723$GPGSV,2,1,07,03,30,251,42,04,42,310,43,16,61,218,46,26,89,050,48*7F
###2023-12-09 13:24:35.004790$GPGSV,2,2,07,28,41,080,44,29,22,051,44,31,63,058,46,,,,*4E
###2023-12-09 13:24:35.007141$GLGSV,2,1,06,65,34,323,44,71,29,175,41,72,68,232,47,73,27,049,44*6A
###2023-12-09 13:24:35.008898$GLGSV,2,2,06,74,63,004,42,75,40,265,46,,,,,,,,*62
###2023-12-09 13:24:35.011238$GAGSV,1,1,04,04,36,311,44,19,76,185,40,21,80,051,46,27,26,049,43*69
###2023-12-09 13:24:35.013563$GBGSV,2,1,06,14,33,190,42,24,66,041,49,25,48,272,46,26,19,068,45*66
###2023-12-09 13:24:35.015324$GBGSV,2,2,06,33,50,221,48,35,16,061,44,,,,,,,,*63
###2023-12-09 13:24:35.016640$GNVTG,132.99,T,,M,3.63,N,6.73,K,A*27
###2023-12-09 13:24:35.018283$GNGST,182434.10,18.000,,,,0.099,0.070,0.160*57
###2023-12-09 13:24:35.019585$GNZDA,182434.10,09,12,2023,00,00*78
###2023-12-09 13:24:35.020222$GNEBP,,,,,,M*13
###2023-12-09 13:24:35.185784$GNGGA,182434.30,4138.0653561,N,07032.3790535,W,1,24,0.6,13.069,M,-29.744,M,0.0,*5D
###2023-12-09 13:24:35.389404$GNGGA,182434.50,4138.0652287,N,07032.3788582,W,1,24,0.6,13.069,M,-29.744,M,0.0,*50
###2023-12-09 13:24:35.585784$GNGGA,182434.70,4138.0650991,N,07032.3786692,W,1,24,0.6,13.066,M,-29.744,M,0.0,*5F
###2023-12-09 13:24:35.785130$GNGGA,182434.90,4138.0649694,N,07032.3784854,W,1,24,0.6,13.076,M,-29.744,M,0.0,*54
###2023-12-09 13:24:35.989223$GNRMC,182435.10,A,4138.0648324,N,07032.3782993,W,3.36,133.21,091223,,,A*5F
###2023-12-09 13:24:35.992121$GNGGA,182435.10,4138.0648324,N,07032.3782993,W,1,24,0.6,13.078,M,-29.744,M,0.0,*50
###2023-12-09 13:24:35.993914$GPGSA,A,3,03,04,16,26,28,29,31,,,,,,1.1,0.6,0.9*3A
###2023-12-09 13:24:35.995637$GLGSA,A,3,65,71,72,73,74,75,,,,,,,1.1,0.6,0.9*24
###2023-12-09 13:24:35.997216$GAGSA,A,3,04,19,21,27,,,,,,,,,1.1,0.6,0.9*26
###2023-12-09 13:24:35.998940$GBGSA,A,3,14,24,25,26,33,35,,,,,,,1.1,0.6,0.9*29
###2023-12-09 13:24:36.001260$GPGSV,2,1,07,03,30,251,44,04,42,310,43,16,61,218,46,26,89,050,48*79
###2023-12-09 13:24:36.003317$GPGSV,2,2,07,28,41,080,44,29,22,051,44,31,63,058,46,,,,*4E
###2023-12-09 13:24:36.005647$GLGSV,2,1,06,65,34,323,43,71,29,175,40,72,68,232,48,73,27,049,45*62
###2023-12-09 13:24:36.007406$GLGSV,2,2,06,74,63,004,43,75,40,265,46,,,,,,,,*63
###2023-12-09 13:24:36.009735$GAGSV,1,1,04,04,36,311,45,19,76,185,40,21,80,051,46,27,26,049,43*68
###2023-12-09 13:24:36.012063$GBGSV,2,1,06,14,33,190,42,24,66,041,50,25,48,272,47,26,19,068,44*6E
###2023-12-09 13:24:36.013809$GBGSV,2,2,06,33,49,220,48,35,16,061,45,,,,,,,,*6B
###2023-12-09 13:24:36.015140$GNVTG,133.21,T,,M,3.36,N,6.23,K,A*20
###2023-12-09 13:24:36.016783$GNGST,182435.10,18.000,,,,0.099,0.070,0.160*56
###2023-12-09 13:24:36.018084$GNZDA,182435.10,09,12,2023,00,00*79
###2023-12-09 13:24:36.018747$GNEBP,,,,,,M*13
###2023-12-09 13:24:36.188224$GNGGA,182435.30,4138.0647037,N,07032.3781130,W,1,24,0.6,13.064,M,-29.744,M,0.0,*53
###2023-12-09 13:24:36.386029$GNGGA,182435.50,4138.0645709,N,07032.3779166,W,1,24,0.6,13.072,M,-29.744,M,0.0,*5E
###2023-12-09 13:24:36.592239$GNGGA,182435.70,4138.0644366,N,07032.3777293,W,1,24,0.6,13.063,M,-29.744,M,0.0,*57
###2023-12-09 13:24:36.786920$GNGGA,182435.90,4138.0643025,N,07032.3775377,W,1,24,0.6,13.075,M,-29.744,M,0.0,*54
###2023-12-09 13:24:36.991655$GNRMC,182436.10,A,4138.0641685,N,07032.3773387,W,3.50,132.17,091223,,,A*5E
###2023-12-09 13:24:36.995173$GNGGA,182436.10,4138.0641685,N,07032.3773387,W,1,24,0.6,13.067,M,-29.744,M,0.0,*5B
###2023-12-09 13:24:36.997330$GPGSA,A,3,03,04,16,26,28,29,31,,,,,,1.1,0.6,0.9*3A
###2023-12-09 13:24:36.999430$GLGSA,A,3,65,71,72,73,74,75,,,,,,,1.1,0.6,0.9*24
###2023-12-09 13:24:37.001334$GAGSA,A,3,04,19,21,27,,,,,,,,,1.1,0.6,0.9*26
###2023-12-09 13:24:37.003398$GBGSA,A,3,14,24,25,26,33,35,,,,,,,1.1,0.6,0.9*29
###2023-12-09 13:24:37.006201$GPGSV,2,1,07,03,30,251,43,04,42,310,43,16,61,218,47,26,89,050,48*7F
###2023-12-09 13:24:37.008674$GPGSV,2,2,07,28,41,080,44,29,22,051,43,31,63,058,46,,,,*49
###2023-12-09 13:24:37.011532$GLGSV,2,1,06,65,34,323,44,71,29,175,42,72,68,232,46,73,27,049,45*69
###2023-12-09 13:24:37.013635$GLGSV,2,2,06,74,63,004,43,75,40,265,47,,,,,,,,*62
###2023-12-09 13:24:37.016443$GAGSV,1,1,04,04,36,311,44,19,76,185,40,21,80,051,46,27,26,049,42*68
###2023-12-09 13:24:37.019260$GBGSV,2,1,06,14,33,190,40,24,66,041,48,25,48,272,46,26,19,068,42*62
###2023-12-09 13:24:37.021361$GBGSV,2,2,06,33,49,220,47,35,16,060,43,,,,,,,,*63
###2023-12-09 13:24:37.022964$GNVTG,132.17,T,,M,3.50,N,6.48,K,A*29
###2023-12-09 13:24:37.024975$GNGST,182436.10,18.000,,,,0.099,0.070,0.160*55
###2023-12-09 13:24:37.026524$GNZDA,182436.10,09,12,2023,00,00*7A
###2023-12-09 13:24:37.027308$GNEBP,,,,,,M*13
###2023-12-09 13:24:37.188936$GNGGA,182436.30,4138.0640378,N,07032.3771470,W,1,24,0.6,13.059,M,-29.744,M,0.0,*5F
###2023-12-09 13:24:37.387131$GNGGA,182436.50,4138.0639099,N,07032.3769472,W,1,24,0.6,13.065,M,-29.744,M,0.0,*5F
###2023-12-09 13:24:37.585603$GNGGA,182436.70,4138.0637694,N,07032.3767609,W,1,24,0.6,13.049,M,-29.744,M,0.0,*56
###2023-12-09 13:24:37.787134$GNGGA,182436.90,4138.0636270,N,07032.3765780,W,1,24,0.6,13.049,M,-29.744,M,0.0,*55
###2023-12-09 13:24:37.990805$GNRMC,182437.10,A,4138.0634845,N,07032.3763996,W,3.56,140.29,091223,,,A*5A
###2023-12-09 13:24:37.994242$GNGGA,182437.10,4138.0634845,N,07032.3763996,W,1,24,0.6,13.054,M,-29.744,M,0.0,*51
###2023-12-09 13:24:37.996421$GPGSA,A,3,03,04,16,26,28,29,31,,,,,,1.1,0.6,0.9*3A
###2023-12-09 13:24:37.998493$GLGSA,A,3,65,71,72,73,74,75,,,,,,,1.1,0.6,0.9*24
###2023-12-09 13:24:38.000417$GAGSA,A,3,04,19,21,27,,,,,,,,,1.1,0.6,0.9*26
###2023-12-09 13:24:38.002477$GBGSA,A,3,14,24,25,26,33,35,,,,,,,1.1,0.6,0.9*29
###2023-12-09 13:24:38.005290$GPGSV,2,1,07,03,30,251,43,04,42,310,44,16,61,218,46,26,89,050,48*79
###2023-12-09 13:24:38.007755$GPGSV,2,2,07,28,41,080,45,29,22,051,43,31,63,058,46,,,,*48
###2023-12-09 13:24:38.010551$GLGSV,2,1,06,65,34,322,46,71,29,175,42,72,68,232,46,73,27,049,45*6A
###2023-12-09 13:24:38.012669$GLGSV,2,2,06,74,63,004,43,75,40,265,47,,,,,,,,*62
###2023-12-09 13:24:38.015467$GAGSV,1,1,04,04,36,311,45,19,76,185,40,21,80,051,46,27,26,049,43*68
###2023-12-09 13:24:38.018295$GBGSV,2,1,06,14,33,190,42,24,66,041,48,25,48,272,46,26,19,068,44*66
###2023-12-09 13:24:38.020404$GBGSV,2,2,06,33,49,220,47,35,16,060,44,,,,,,,,*64
###2023-12-09 13:24:38.021996$GNVTG,140.29,T,,M,3.56,N,6.59,K,A*27
###2023-12-09 13:24:38.023989$GNGST,182437.10,18.000,,,,0.099,0.069,0.160*5C
###2023-12-09 13:24:38.025533$GNZDA,182437.10,09,12,2023,00,00*7B
###2023-12-09 13:24:38.026300$GNEBP,,,,,,M*13
###2023-12-09 13:24:38.191211$GNGGA,182437.30,4138.0633324,N,07032.3762317,W,1,24,0.6,13.049,M,-29.744,M,0.0,*56
###2023-12-09 13:24:38.386351$GNGGA,182437.50,4138.0631772,N,07032.3760707,W,1,24,0.6,13.031,M,-29.744,M,0.0,*5D
###2023-12-09 13:24:38.587480$GNGGA,182437.70,4138.0630231,N,07032.3759240,W,1,24,0.6,13.047,M,-29.744,M,0.0,*51
###2023-12-09 13:24:38.790048$GNGGA,182437.90,4138.0628649,N,07032.3757765,W,1,24,0.6,13.057,M,-29.744,M,0.0,*50
###2023-12-09 13:24:38.991560$GNRMC,182438.10,A,4138.0627111,N,07032.3756231,W,3.30,143.60,091223,,,A*51
###2023-12-09 13:24:38.995032$GNGGA,182438.10,4138.0627111,N,07032.3756231,W,1,24,0.6,13.028,M,-29.744,M,0.0,*5F
###2023-12-09 13:24:38.997196$GPGSA,A,3,03,04,16,26,28,29,31,,,,,,1.1,0.6,0.9*3A
###2023-12-09 13:24:38.999277$GLGSA,A,3,65,71,72,73,74,75,,,,,,,1.1,0.6,0.9*24
###2023-12-09 13:24:39.001195$GAGSA,A,3,04,19,21,27,,,,,,,,,1.1,0.6,0.9*26
###2023-12-09 13:24:39.003275$GBGSA,A,3,14,24,25,26,33,35,,,,,,,1.1,0.6,0.9*29
###2023-12-09 13:24:39.006087$GPGSV,2,1,07,03,30,251,42,04,42,310,44,16,61,218,45,26,89,050,48*7B
###2023-12-09 13:24:39.008596$GPGSV,2,2,07,28,41,080,45,29,22,051,44,31,63,058,47,,,,*4E
###2023-12-09 13:24:39.011428$GLGSV,2,1,06,65,34,322,45,71,29,175,43,72,68,232,46,73,27,049,45*68
###2023-12-09 13:24:39.013553$GLGSV,2,2,06,74,63,004,44,75,40,265,46,,,,,,,,*64
###2023-12-09 13:24:39.016383$GAGSV,1,1,04,04,36,311,44,19,76,185,40,21,80,051,46,27,26,049,43*69
###2023-12-09 13:24:39.019211$GBGSV,2,1,06,14,33,190,43,24,66,041,49,25,48,272,47,26,19,068,45*66
###2023-12-09 13:24:39.021321$GBGSV,2,2,06,33,49,220,48,35,16,060,45,,,,,,,,*6A
###2023-12-09 13:24:39.023252$GNVTG,143.60,T,,M,3.30,N,6.12,K,A*26
###2023-12-09 13:24:39.025260$GNGST,182438.10,18.000,,,,0.099,0.069,0.160*53
###2023-12-09 13:24:39.026885$GNZDA,182438.10,09,12,2023,00,00*74
###2023-12-09 13:24:39.027669$GNEBP,,,,,,M*13
###2023-12-09 13:24:39.191041$GNGGA,182438.30,4138.0625544,N,07032.3754827,W,1,24,0.6,13.047,M,-29.744,M,0.0,*5D
###2023-12-09 13:24:39.386518$GNGGA,182438.50,4138.0623850,N,07032.3753464,W,1,24,0.6,13.064,M,-29.744,M,0.0,*58
###2023-12-09 13:24:39.588812$GNGGA,182438.70,4138.0622289,N,07032.3751920,W,1,24,0.6,13.035,M,-29.744,M,0.0,*5E
###2023-12-09 13:24:39.787608$GNGGA,182438.90,4138.0620742,N,07032.3750338,W,1,24,0.6,13.041,M,-29.744,M,0.0,*51
###2023-12-09 13:24:39.989919$GNRMC,182439.10,A,4138.0619128,N,07032.3748796,W,3.63,144.14,091223,,,A*52
