###2023-12-09 13:13:37.985856$GLGSA,A,3,65,71,72,73,74,75,,,,,,,1.2,0.7,1.0*2E
###2023-12-09 13:13:37.987496$GAGSA,A,3,04,19,21,27,,,,,,,,,1.2,0.7,1.0*2C
###2023-12-09 13:13:37.989219$GBGSA,A,3,14,24,25,26,33,35,,,,,,,1.2,0.7,1.0*23
###2023-12-09 13:13:37.991561$GPGSV,2,1,07,03,32,255,41,04,38,311,43,16,56,215,45,26,86,209,48*7D
###2023-12-09 13:13:37.993602$GPGSV,2,2,07,28,45,076,46,29,24,055,43,31,65,050,47,,,,*4B
###2023-12-09 13:13:37.995944$GLGSV,2,1,06,65,29,325,43,71,34,174,44,72,71,246,45,73,31,045,45*6C
###2023-12-09 13:13:37.997691$GLGSV,2,2,06,74,66,353,43,75,36,259,45,,,,,,,,*6A
###2023-12-09 13:13:38.000043$GAGSV,1,1,04,04,33,312,42,19,81,194,40,21,84,070,46,27,29,048,42*69
###2023-12-09 13:13:38.002365$GBGSV,2,1,06,14,38,192,43,24,70,034,49,25,44,267,45,26,22,065,44*64
###2023-12-09 13:13:38.004121$GBGSV,2,2,06,33,53,226,45,35,15,065,44,,,,,,,,*6D
###2023-12-09 13:13:38.005444$GNVTG,229.75,T,,M,3.52,N,6.52,K,A*2D
###2023-12-09 13:13:38.007108$GNGST,181337.10,18.000,,,,0.097,0.071,0.170*5E
###2023-12-09 13:13:38.008404$GNZDA,181337.10,09,12,2023,00,00*7F
###2023-12-09 13:13:38.009040$GNEBP,,,,,,M*13
###2023-12-09 13:13:38.175318$GNGGA,181337.30,4138.0456691,N,07032.2673533,W,1,24,0.7,12.796,M,-29.743,M,0.0,*5A
###2023-12-09 13:13:38.375752$GNGGA,181337.50,4138.0455388,N,07032.2675493,W,1,24,0.7,12.807,M,-29.743,M,0.0,*58
###2023-12-09 13:13:38.575600$GNGGA,181337.70,4138.0454065,N,07032.2677446,W,1,24,0.7,12.788,M,-29.743,M,0.0,*59
###2023-12-09 13:13:38.774968$GNGGA,181337.90,4138.0453012,N,07032.2679652,W,1,24,0.7,12.795,M,-29.743,M,0.0,*55
###2023-12-09 13:13:38.978920$GNRMC,181338.10,A,4138.0451961,N,07032.2681906,W,3.48,235.93,091223,,,A*5D
###2023-12-09 13:13:38.981791$GNGGA,181338.10,4138.0451961,N,07032.2681906,W,1,24,0.7,12.800,M,-29.743,M,0.0,*57
###2023-12-09 13:13:38.983598$GPGSA,A,3,03,04,16,26,28,29,31,,,,,,1.2,0.7,1.0*30
###2023-12-09 13:13:38.985318$GLGSA,A,3,65,71,72,73,74,75,,,,,,,1.2,0.7,1.0*2E
###2023-12-09 13:13:38.986915$GAGSA,A,3,04,19,21,27,,,,,,,,,1.2,0.7,1.0*2C
###2023-12-09 13:13:38.988632$GBGSA,A,3,14,24,25,26,33,35,,,,,,,1.2,0.7,1.0*23
###2023-12-09 13:13:38.990972$GPGSV,2,1,07,03,32,255,42,04,38,311,43,16,56,215,45,26,86,209,48*7E
###2023-12-09 13:13:38.993019$GPGSV,2,2,07,28,45,076,45,29,24,055,41,31,65,050,48,,,,*45
###2023-12-09 13:13:38.995367$GLGSV,2,1,06,65,29,325,42,71,34,174,44,72,71,246,45,73,31,045,45*6D
###2023-12-09 13:13:38.997124$GLGSV,2,2,06,74,66,353,43,75,36,259,44,,,,,,,,*6B
###2023-12-09 13:13:38.999468$GAGSV,1,1,04,04,33,312,42,19,81,194,40,21,84,070,45,27,29,048,40*68
###2023-12-09 13:13:39.001806$GBGSV,2,1,06,14,38,192,45,24,70,034,49,25,44,267,45,26,22,065,44*62
###2023-12-09 13:13:39.003567$GBGSV,2,2,06,33,53,226,47,35,15,065,45,,,,,,,,*6E
###2023-12-09 13:13:39.004897$GNVTG,235.93,T,,M,3.48,N,6.44,K,A*24
###2023-12-09 13:13:39.006551$GNGST,181338.10,18.000,,,,0.097,0.071,0.170*51
###2023-12-09 13:13:39.007855$GNZDA,181338.10,09,12,2023,00,00*70
###2023-12-09 13:13:39.008494$GNEBP,,,,,,M*13
###2023-12-09 13:13:39.178597$GNGGA,181338.30,4138.0451017,N,07032.2684040,W,1,24,0.7,12.794,M,-29.743,M,0.0,*51
###2023-12-09 13:13:39.376100$GNGGA,181338.50,4138.0450252,N,07032.2686338,W,1,24,0.7,12.816,M,-29.743,M,0.0,*5E
###2023-12-09 13:13:39.576904$GNGGA,181338.70,4138.0449471,N,07032.2688643,W,1,24,0.7,12.799,M,-29.743,M,0.0,*5C
###2023-12-09 13:13:39.776925$GNGGA,181338.90,4138.0448836,N,07032.2690942,W,1,24,0.7,12.789,M,-29.743,M,0.0,*5A
###2023-12-09 13:13:39.977080$GNRMC,181339.10,A,4138.0448487,N,07032.2693412,W,3.48,261.01,091223,,,A*50
###2023-12-09 13:13:39.979959$GNGGA,181339.10,4138.0448487,N,07032.2693412,W,1,24,0.7,12.826,M,-29.743,M,0.0,*54
###2023-12-09 13:13:39.981752$GPGSA,A,3,03,04,16,26,28,29,31,,,,,,1.2,0.7,1.0*30
###2023-12-09 13:13:39.983478$GLGSA,A,3,65,71,72,73,74,75,,,,,,,1.2,0.7,1.0*2E
###2023-12-09 13:13:39.985059$GAGSA,A,3,04,19,21,27,,,,,,,,,1.2,0.7,1.0*2C
###2023-12-09 13:13:39.986778$GBGSA,A,3,14,24,25,26,33,35,,,,,,,1.2,0.7,1.0*23
###2023-12-09 13:13:39.989105$GPGSV,2,1,07,03,32,255,43,04,38,311,42,16,56,215,46,26,86,209,48*7D
###2023-12-09 13:13:39.991156$GPGSV,2,2,07,28,45,076,45,29,24,055,42,31,65,050,48,,,,*46
###2023-12-09 13:13:39.993489$GLGSV,2,1,06,65,29,325,41,71,34,174,45,72,71,246,46,73,31,045,44*6D
###2023-12-09 13:13:39.995251$GLGSV,2,2,06,74,66,353,43,75,36,259,42,,,,,,,,*6D
###2023-12-09 13:13:39.997588$GAGSV,1,1,04,04,33,312,41,19,81,194,40,21,84,070,46,27,29,048,40*68
###2023-12-09 13:13:39.999940$GBGSV,2,1,06,14,38,192,45,24,70,034,50,25,44,267,44,26,22,065,45*6A
###2023-12-09 13:13:40.001695$GBGSV,2,2,06,33,53,226,48,35,15,065,47,,,,,,,,*63
###2023-12-09 13:13:40.003038$GNVTG,261.01,T,,M,3.48,N,6.44,K,A*2E
###2023-12-09 13:13:40.004693$GNGST,181339.10,18.000,,,,0.096,0.071,0.170*51
###2023-12-09 13:13:40.005993$GNZDA,181339.10,09,12,2023,00,00*71
###2023-12-09 13:13:40.006645$GNEBP,,,,,,M*13
###2023-12-09 13:13:40.172660$GNGGA,181339.30,4138.0448115,N,07032.2695898,W,1,24,0.7,12.827,M,-29.743,M,0.0,*51
###2023-12-09 13:13:40.374149$GNGGA,181339.50,4138.0447725,N,07032.2698369,W,1,24,0.7,12.816,M,-29.743,M,0.0,*57
###2023-12-09 13:13:40.572547$GNGGA,181339.70,4138.0447329,N,07032.2700945,W,1,24,0.7,12.812,M,-29.743,M,0.0,*5D
###2023-12-09 13:13:40.773384$GNGGA,181339.90,4138.0446939,N,07032.2703539,W,1,24,0.7,12.811,M,-29.743,M,0.0,*5E
###2023-12-09 13:13:40.977829$GNRMC,181340.10,A,4138.0446685,N,07032.2706204,W,3.62,263.98,091223,,,A*56
###2023-12-09 13:13:40.980718$GNGGA,181340.10,4138.0446685,N,07032.2706204,W,1,24,0.7,12.824,M,-29.743,M,0.0,*5A
###2023-12-09 13:13:40.982520$GPGSA,A,3,03,04,16,26,28,29,31,,,,,,1.2,0.7,1.0*30
###2023-12-09 13:13:40.984246$GLGSA,A,3,65,71,72,73,74,75,,,,,,,1.2,0.7,1.0*2E
###2023-12-09 13:13:40.985828$GAGSA,A,3,04,19,21,27,,,,,,,,,1.2,0.7,1.0*2C
###2023-12-09 13:13:40.987553$GBGSA,A,3,14,24,25,26,33,35,,,,,,,1.2,0.7,1.0*23
###2023-12-09 13:13:40.989873$GPGSV,2,1,07,03,32,255,43,04,38,311,43,16,56,215,45,26,86,209,48*7F
###2023-12-09 13:13:40.991921$GPGSV,2,2,07,28,45,076,45,29,24,055,42,31,65,050,47,,,,*49
###2023-12-09 13:13:40.994243$GLGSV,2,1,06,65,29,325,41,71,34,174,46,72,71,246,45,73,31,045,45*6C
###2023-12-09 13:13:40.995999$GLGSV,2,2,06,74,66,353,43,75,36,259,43,,,,,,,,*6C
###2023-12-09 13:13:40.998323$GAGSV,1,1,04,04,33,312,41,19,81,194,40,21,84,070,46,27,29,048,43*6B
###2023-12-09 13:13:41.000664$GBGSV,2,1,06,14,38,192,44,24,70,034,50,25,44,267,45,26,22,065,43*6C
###2023-12-09 13:13:41.002409$GBGSV,2,2,06,33,53,226,47,35,15,065,45,,,,,,,,*6E
###2023-12-09 13:13:41.003741$GNVTG,263.98,T,,M,3.62,N,6.70,K,A*23
###2023-12-09 13:13:41.005384$GNGST,181340.10,18.000,,,,0.096,0.071,0.170*5F
###2023-12-09 13:13:41.006717$GNZDA,181340.10,09,12,2023,00,00*7F
###2023-12-09 13:13:41.007359$GNEBP,,,,,,M*13
###2023-12-09 13:13:41.173834$GNGGA,181340.30,4138.0446472,N,07032.2708831,W,1,24,0.7,12.838,M,-29.743,M,0.0,*5D
###2023-12-09 13:13:41.373917$GNGGA,181340.50,4138.0446133,N,07032.2711371,W,1,24,0.7,12.824,M,-29.743,M,0.0,*51
###2023-12-09 13:13:41.574691$GNGGA,181340.70,4138.0445740,N,07032.2713835,W,1,24,0.7,12.792,M,-29.743,M,0.0,*59
###2023-12-09 13:13:41.774731$GNGGA,181340.90,4138.0445499,N,07032.2716232,W,1,24,0.7,12.783,M,-29.743,M,0.0,*58
###2023-12-09 13:13:41.978935$GNRMC,181341.10,A,4138.0445376,N,07032.2718575,W,3.07,266.19,091223,,,A*5C
###2023-12-09 13:13:41.981819$GNGGA,181341.10,4138.0445376,N,07032.2718575,W,1,24,0.7,12.795,M,-29.743,M,0.0,*5A
###2023-12-09 13:13:41.983634$GPGSA,A,3,03,04,16,26,28,29,31,,,,,,1.2,0.7,1.0*30
###2023-12-09 13:13:41.985362$GLGSA,A,3,65,71,72,73,74,75,,,,,,,1.2,0.7,1.0*2E
###2023-12-09 13:13:41.986960$GAGSA,A,3,04,19,21,27,,,,,,,,,1.2,0.7,1.0*2C
###2023-12-09 13:13:41.988674$GBGSA,A,3,14,24,25,26,33,35,,,,,,,1.2,0.7,1.0*23
###2023-12-09 13:13:41.991003$GPGSV,2,1,07,03,32,255,42,04,38,311,43,16,56,215,47,26,86,209,48*7C
###2023-12-09 13:13:41.993053$GPGSV,2,2,07,28,45,076,45,29,24,055,40,31,65,050,47,,,,*4B
###2023-12-09 13:13:41.995404$GLGSV,2,1,06,65,29,325,40,71,34,174,46,72,71,246,45,73,31,045,45*6D
###2023-12-09 13:13:41.997156$GLGSV,2,2,06,74,66,353,42,75,36,259,44,,,,,,,,*6A
###2023-12-09 13:13:41.999741$GAGSV,1,1,04,04,33,312,41,19,81,194,40,21,84,070,46,27,29,048,41*69
###2023-12-09 13:13:42.002089$GBGSV,2,1,06,14,38,192,44,24,70,034,50,25,44,267,43,26,22,065,43*6A
###2023-12-09 13:13:42.003862$GBGSV,2,2,06,33,53,226,48,35,15,065,45,,,,,,,,*61
###2023-12-09 13:13:42.005192$GNVTG,266.19,T,,M,3.07,N,5.69,K,A*27
###2023-12-09 13:13:42.006844$GNGST,181341.10,18.000,,,,0.096,0.071,0.170*5E
###2023-12-09 13:13:42.008132$GNZDA,181341.10,09,12,2023,00,00*7E
###2023-12-09 13:13:42.008769$GNEBP,,,,,,M*13
###2023-12-09 13:13:42.175012$GNGGA,181341.30,4138.0445345,N,07032.2720852,W,1,24,0.7,12.817,M,-29.743,M,0.0,*5E
###2023-12-09 13:13:42.376705$GNGGA,181341.50,4138.0445333,N,07032.2723121,W,1,24,0.7,12.830,M,-29.743,M,0.0,*52
