###2023-12-09 12:31:08.931001$GNRMC,173108.10,A,4138.0386349,N,07032.4332533,W,2.18,86.43,091223,,,A*6E
###2023-12-09 12:31:08.934130$GNGGA,173108.10,4138.0386349,N,07032.4332533,W,1,16,1.3,14.368,M,-29.746,M,0.0,*55
###2023-12-09 12:31:08.936089$GPGSA,A,3,16,26,28,29,31,32,,,,,,,2.6,1.3,2.2*35
###2023-12-09 12:31:08.937882$GLGSA,A,3,71,72,73,74,,,,,,,,,2.6,1.3,2.2*2C
###2023-12-09 12:31:08.939652$GAGSA,A,3,19,21,27,,,,,,,,,,2.6,1.3,2.2*2B
###2023-12-09 12:31:08.941367$GBGSA,A,3,14,26,33,,,,,,,,,,2.6,1.3,2.2*27
###2023-12-09 12:31:08.943887$GPGSV,2,1,06,16,35,207,39,26,65,206,49,28,60,053,47,29,25,076,44*78
###2023-12-09 12:31:08.945838$GPGSV,2,2,06,31,73,353,44,32,32,133,46,,,,,,,,*7F
###2023-12-09 12:31:08.948377$GLGSV,1,1,04,71,59,168,49,72,64,313,39,73,50,032,48,74,70,284,37*67
###2023-12-09 12:31:08.950681$GAGSV,1,1,03,19,80,307,39,21,76,178,46,27,43,050,43,,,,*5B
###2023-12-09 12:31:08.952908$GBGSV,1,1,03,14,57,199,44,26,36,056,44,33,63,258,40,,,,*52
###2023-12-09 12:31:08.954391$GNVTG,86.43,T,,M,2.18,N,4.03,K,A*16
###2023-12-09 12:31:08.956240$GNGST,173108.10,22.000,,,,0.130,0.170,0.350*58
###2023-12-09 12:31:08.957728$GNZDA,173108.10,09,12,2023,00,00*7C
###2023-12-09 12:31:08.958542$GNEBP,,,,,,M*13
###2023-12-09 12:31:09.125709$GNGGA,173108.30,4138.0386475,N,07032.4330736,W,1,16,1.0,14.381,M,-29.746,M,0.0,*5E
###2023-12-09 12:31:09.324406$GNGGA,173108.50,4138.0386758,N,07032.4329059,W,1,17,1.0,14.344,M,-29.746,M,0.0,*5A
###2023-12-09 12:31:09.527041$GNGGA,173108.70,4138.0387200,N,07032.4327373,W,1,18,0.9,14.307,M,-29.746,M,0.0,*54
###2023-12-09 12:31:09.723550$GNGGA,173108.90,4138.0387542,N,07032.4325635,W,1,18,0.9,14.308,M,-29.746,M,0.0,*51
###2023-12-09 12:31:09.921152$GNRMC,173109.10,A,4138.0387802,N,07032.4323811,W,2.82,80.14,091223,,,A*60
###2023-12-09 12:31:09.924280$GNGGA,173109.10,4138.0387802,N,07032.4323811,W,1,15,1.3,14.262,M,-29.746,M,0.0,*54
###2023-12-09 12:31:09.926058$GPGSA,A,3,16,26,28,29,31,32,,,,,,,2.6,1.3,2.2*35
###2023-12-09 12:31:09.927635$GLGSA,A,3,71,72,73,,,,,,,,,,2.6,1.3,2.2*2F
###2023-12-09 12:31:09.929194$GAGSA,A,3,19,21,27,,,,,,,,,,2.6,1.3,2.2*2B
###2023-12-09 12:31:09.930762$GBGSA,A,3,14,26,33,,,,,,,,,,2.6,1.3,2.2*27
###2023-12-09 12:31:09.933114$GPGSV,2,1,06,16,35,207,35,26,65,206,48,28,59,054,46,29,25,076,44*79
###2023-12-09 12:31:09.934913$GPGSV,2,2,06,31,73,353,44,32,32,133,45,,,,,,,,*7C
###2023-12-09 12:31:09.936988$GLGSV,1,1,03,71,59,168,49,72,64,313,37,73,50,032,48,,,,*50
###2023-12-09 12:31:09.939077$GAGSV,1,1,03,19,80,307,39,21,76,178,46,27,43,050,44,,,,*5C
###2023-12-09 12:31:09.941142$GBGSV,1,1,03,14,57,199,42,26,36,056,46,33,63,258,36,,,,*57
###2023-12-09 12:31:09.942475$GNVTG,80.14,T,,M,2.82,N,5.22,K,A*13
###2023-12-09 12:31:09.944178$GNGST,173109.10,23.000,,,,0.130,0.170,0.360*5B
###2023-12-09 12:31:09.945505$GNZDA,173109.10,09,12,2023,00,00*7D
###2023-12-09 12:31:09.946219$GNEBP,,,,,,M*13
###2023-12-09 12:31:10.122042$GNGGA,173109.30,4138.0388047,N,07032.4322061,W,1,16,1.3,14.213,M,-29.746,M,0.0,*5B
###2023-12-09 12:31:10.323579$GNGGA,173109.50,4138.0388402,N,07032.4320332,W,1,16,1.3,14.195,M,-29.746,M,0.0,*52
###2023-12-09 12:31:10.523290$GNGGA,173109.70,4138.0388753,N,07032.4318590,W,1,15,1.6,14.190,M,-29.746,M,0.0,*51
###2023-12-09 12:31:10.721469$GNGGA,173109.90,4138.0389058,N,07032.4316981,W,1,16,1.0,14.125,M,-29.746,M,0.0,*5B
###2023-12-09 12:31:10.926749$GNRMC,173110.10,A,4138.0389270,N,07032.4315171,W,2.62,82.64,091223,,,A*68
###2023-12-09 12:31:10.929632$GNGGA,173110.10,4138.0389270,N,07032.4315171,W,1,15,1.6,14.107,M,-29.746,M,0.0,*52
###2023-12-09 12:31:10.931329$GPGSA,A,3,26,28,29,31,32,,,,,,,,3.5,1.6,3.1*37
###2023-12-09 12:31:10.932937$GLGSA,A,3,71,72,73,74,,,,,,,,,3.5,1.6,3.1*29
###2023-12-09 12:31:10.934475$GAGSA,A,3,19,21,27,,,,,,,,,,3.5,1.6,3.1*2E
###2023-12-09 12:31:10.936024$GBGSA,A,3,14,26,33,,,,,,,,,,3.5,1.6,3.1*22
###2023-12-09 12:31:10.938371$GPGSV,2,1,05,26,65,206,49,28,59,054,46,29,25,075,46,31,73,353,45*7A
###2023-12-09 12:31:10.939867$GPGSV,2,2,05,32,32,133,46,,,,,,,,,,,,*4F
###2023-12-09 12:31:10.942218$GLGSV,1,1,04,71,59,168,49,72,64,313,39,73,50,032,47,74,70,284,36*69
###2023-12-09 12:31:10.944287$GAGSV,1,1,03,19,80,307,38,21,76,178,46,27,43,050,43,,,,*5A
###2023-12-09 12:31:10.946359$GBGSV,1,1,03,14,57,199,45,26,36,056,47,33,63,258,38,,,,*5F
###2023-12-09 12:31:10.947709$GNVTG,82.64,T,,M,2.62,N,4.86,K,A*17
###2023-12-09 12:31:10.949387$GNGST,173110.10,22.000,,,,0.130,0.190,0.380*52
###2023-12-09 12:31:10.950710$GNZDA,173110.10,09,12,2023,00,00*75
###2023-12-09 12:31:10.951365$GNEBP,,,,,,M*13
###2023-12-09 12:31:11.122468$GNGGA,173110.30,4138.0389382,N,07032.4313406,W,1,14,1.6,14.046,M,-29.746,M,0.0,*5A
###2023-12-09 12:31:11.322589$GNGGA,173110.50,4138.0389514,N,07032.4311786,W,1,14,1.6,13.996,M,-29.746,M,0.0,*5F
###2023-12-09 12:31:11.522481$GNGGA,173110.70,4138.0389708,N,07032.4310040,W,1,15,1.6,13.954,M,-29.746,M,0.0,*51
###2023-12-09 12:31:11.721909$GNGGA,173110.90,4138.0389969,N,07032.4308548,W,1,16,1.3,13.907,M,-29.746,M,0.0,*52
###2023-12-09 12:31:11.925776$GNRMC,173111.10,A,4138.0390116,N,07032.4307069,W,2.02,84.90,091223,,,A*62
###2023-12-09 12:31:11.928941$GNGGA,173111.10,4138.0390116,N,07032.4307069,W,1,15,1.6,13.887,M,-29.746,M,0.0,*55
###2023-12-09 12:31:11.930881$GPGSA,A,3,26,28,29,31,32,,,,,,,,3.5,1.6,3.1*37
###2023-12-09 12:31:11.932682$GLGSA,A,3,71,72,73,74,,,,,,,,,3.5,1.6,3.1*29
###2023-12-09 12:31:11.934396$GAGSA,A,3,19,21,27,,,,,,,,,,3.5,1.6,3.1*2E
###2023-12-09 12:31:11.936127$GBGSA,A,3,14,26,33,,,,,,,,,,3.5,1.6,3.1*22
###2023-12-09 12:31:11.938515$GPGSV,2,1,05,26,65,206,49,28,59,054,45,29,25,075,42,31,73,353,45*7D
###2023-12-09 12:31:11.940038$GPGSV,2,2,05,32,32,133,42,,,,,,,,,,,,*4B
###2023-12-09 12:31:11.942420$GLGSV,1,1,04,71,59,168,49,72,64,313,39,73,50,032,48,74,70,284,37*67
###2023-12-09 12:31:11.944528$GAGSV,1,1,03,19,80,307,39,21,76,178,46,27,43,050,41,,,,*59
###2023-12-09 12:31:11.946647$GBGSV,1,1,03,14,57,199,44,26,36,056,42,33,63,258,35,,,,*56
###2023-12-09 12:31:11.948005$GNVTG,84.90,T,,M,2.02,N,3.74,K,A*16
###2023-12-09 12:31:11.949700$GNGST,173111.10,22.000,,,,0.210,0.260,0.440*55
###2023-12-09 12:31:11.951049$GNZDA,173111.10,09,12,2023,00,00*74
###2023-12-09 12:31:11.951730$GNEBP,,,,,,M*13
###2023-12-09 12:31:12.123584$GNGGA,173111.30,4138.0390182,N,07032.4305579,W,1,16,1.3,13.829,M,-29.746,M,0.0,*5E
###2023-12-09 12:31:12.323977$GNGGA,173111.50,4138.0390200,N,07032.4304049,W,1,16,1.3,13.817,M,-29.746,M,0.0,*5B
###2023-12-09 12:31:12.521856$GNGGA,173111.70,4138.0390345,N,07032.4302618,W,1,16,1.3,13.833,M,-29.746,M,0.0,*5B
###2023-12-09 12:31:12.723082$GNGGA,173111.90,4138.0390546,N,07032.4301219,W,1,16,1.3,13.789,M,-29.746,M,0.0,*58
###2023-12-09 12:31:12.927830$GNRMC,173112.10,A,4138.0390665,N,07032.4299813,W,1.69,77.27,091223,,,A*6F
###2023-12-09 12:31:12.931366$GNGGA,173112.10,4138.0390665,N,07032.4299813,W,1,16,1.3,13.770,M,-29.746,M,0.0,*57
###2023-12-09 12:31:12.933509$GPGSA,A,3,16,26,28,29,31,32,,,,,,,2.6,1.3,2.2*35
###2023-12-09 12:31:12.935478$GLGSA,A,3,71,72,73,74,,,,,,,,,2.6,1.3,2.2*2C
###2023-12-09 12:31:12.937349$GAGSA,A,3,19,21,27,,,,,,,,,,2.6,1.3,2.2*2B
###2023-12-09 12:31:12.939239$GBGSA,A,3,14,26,33,,,,,,,,,,2.6,1.3,2.2*27
###2023-12-09 12:31:12.942079$GPGSV,2,1,06,16,35,207,36,26,65,206,49,28,59,054,47,29,25,075,45*78
###2023-12-09 12:31:12.944240$GPGSV,2,2,06,31,73,356,44,32,32,133,40,,,,,,,,*7C
###2023-12-09 12:31:12.947177$GLGSV,1,1,04,71,59,168,48,72,64,313,39,73,50,032,49,74,70,284,36*66
###2023-12-09 12:31:12.949713$GAGSV,1,1,03,19,80,307,39,21,76,178,48,27,43,050,44,,,,*52
###2023-12-09 12:31:12.952247$GBGSV,1,1,03,14,57,199,42,26,36,056,44,33,63,258,40,,,,*54
###2023-12-09 12:31:12.953852$GNVTG,77.27,T,,M,1.69,N,3.13,K,A*19
###2023-12-09 12:31:12.955934$GNGST,173112.10,21.000,,,,0.210,0.260,0.460*57
###2023-12-09 12:31:12.957537$GNZDA,173112.10,09,12,2023,00,00*77
###2023-12-09 12:31:12.958355$GNEBP,,,,,,M*13
###2023-12-09 12:31:13.124079$GNGGA,173112.30,4138.0390789,N,07032.4298532,W,1,15,1.6,13.745,M,-29.746,M,0.0,*59
###2023-12-09 12:31:13.322890$GNGGA,173112.50,4138.0390698,N,07032.4297440,W,1,15,1.6,13.638,M,-29.746,M,0.0,*5E
###2023-12-09 12:31:13.520731$GNGGA,173112.70,4138.0390620,N,07032.4296324,W,1,13,1.9,13.578,M,-29.746,M,0.0,*55
###2023-12-09 12:31:13.719875$GNGGA,173112.90,4138.0390598,N,07032.4295541,W,1,13,1.9,13.472,M,-29.746,M,0.0,*56
###2023-12-09 12:31:13.924115$GNRMC,173113.10,A,4138.0390650,N,07032.4294941,W,0.82,93.20,091223,,,A*6A
###2023-12-09 12:31:13.927664$GNGGA,173113.10,4138.0390650,N,07032.4294941,W,1,12,1.9,13.327,M,-29.746,M,0.0,*53
###2023-12-09 12:31:13.929724$GPGSA,A,3,26,28,29,31,32,,,,,,,,4.0,1.9,3.5*3E
###2023-12-09 12:31:13.931559$GLGSA,A,3,71,73,,,,,,,,,,,4.0,1.9,3.5*26
###2023-12-09 12:31:13.933370$GAGSA,A,3,21,27,,,,,,,,,,,4.0,1.9,3.5*2F
