###2023-12-09 12:33:07.333111$GNGGA,173306.50,4138.0454468,N,07032.4309391,W,1,23,0.7,12.948,M,-29.745,M,0.0,*59
###2023-12-09 12:33:07.532464$GNGGA,173306.70,4138.0454511,N,07032.4309532,W,1,23,0.7,12.946,M,-29.745,M,0.0,*55
###2023-12-09 12:33:07.731237$GNGGA,173306.90,4138.0454641,N,07032.4310075,W,1,23,0.7,12.947,M,-29.745,M,0.0,*52
###2023-12-09 12:33:07.932890$GNRMC,173307.10,A,4138.0454711,N,07032.4310310,W,0.17,316.77,091223,,,A*55
###2023-12-09 12:33:07.935991$GNGGA,173307.10,4138.0454711,N,07032.4310310,W,1,23,0.7,12.936,M,-29.745,M,0.0,*59
###2023-12-09 12:33:07.938046$GPGSA,A,3,03,04,16,26,28,29,31,32,,,,,1.2,0.7,1.0*31
###2023-12-09 12:33:07.939901$GLGSA,A,3,71,72,73,74,75,,,,,,,,1.2,0.7,1.0*2D
###2023-12-09 12:33:07.941705$GAGSA,A,3,04,19,21,27,,,,,,,,,1.2,0.7,1.0*2C
###2023-12-09 12:33:07.943538$GBGSA,A,3,14,24,25,26,33,,,,,,,,1.2,0.7,1.0*25
###2023-12-09 12:33:07.946037$GPGSV,2,1,08,03,39,278,43,04,21,310,43,16,36,207,43,26,65,206,47*73
###2023-12-09 12:33:07.948425$GPGSV,2,2,08,28,58,055,44,29,25,075,42,31,73,358,46,32,31,134,43*76
###2023-12-09 12:33:07.950807$GLGSV,2,1,05,71,58,169,45,72,65,311,47,73,49,033,46,74,71,287,43*65
###2023-12-09 12:33:07.952285$GLGSV,2,2,05,75,21,240,39,,,,,,,,,,,,*5D
###2023-12-09 12:33:07.954645$GAGSV,1,1,04,04,20,311,43,19,80,306,41,21,76,177,45,27,42,050,41*6F
###2023-12-09 12:33:07.957026$GBGSV,2,1,05,14,56,198,45,24,81,339,48,25,32,252,46,26,36,057,42*64
###2023-12-09 12:33:07.958519$GBGSV,2,2,05,33,63,257,48,,,,,,,,,,,,*57
###2023-12-09 12:33:07.959890$GNVTG,316.77,T,,M,0.17,N,0.32,K,A*20
###2023-12-09 12:33:07.961547$GNGST,173307.10,17.000,,,,0.110,0.100,0.230*51
###2023-12-09 12:33:07.962868$GNZDA,173307.10,09,12,2023,00,00*71
###2023-12-09 12:33:07.963528$GNEBP,,,,,,M*13
###2023-12-09 12:33:08.133128$GNGGA,173307.30,4138.0454658,N,07032.4310070,W,1,23,0.7,12.939,M,-29.745,M,0.0,*5D
###2023-12-09 12:33:08.332161$GNGGA,173307.50,4138.0454708,N,07032.4310119,W,1,23,0.7,12.947,M,-29.745,M,0.0,*58
###2023-12-09 12:33:08.533160$GNGGA,173307.70,4138.0454823,N,07032.4310542,W,1,23,0.7,12.948,M,-29.745,M,0.0,*59
###2023-12-09 12:33:08.731273$GNGGA,173307.90,4138.0454868,N,07032.4310817,W,1,23,0.7,12.937,M,-29.745,M,0.0,*5D
###2023-12-09 12:33:08.940119$GNRMC,173308.10,A,4138.0454901,N,07032.4310840,W,0.08,316.77,091223,,,A*55
###2023-12-09 12:33:08.943190$GNGGA,173308.10,4138.0454901,N,07032.4310840,W,1,23,0.7,12.944,M,-29.745,M,0.0,*52
###2023-12-09 12:33:08.945219$GPGSA,A,3,03,04,16,26,28,29,31,32,,,,,1.2,0.7,1.0*31
###2023-12-09 12:33:08.947072$GLGSA,A,3,71,72,73,74,75,,,,,,,,1.2,0.7,1.0*2D
###2023-12-09 12:33:08.948908$GAGSA,A,3,04,19,21,27,,,,,,,,,1.2,0.7,1.0*2C
###2023-12-09 12:33:08.950770$GBGSA,A,3,14,24,25,26,33,,,,,,,,1.2,0.7,1.0*25
###2023-12-09 12:33:08.953268$GPGSV,2,1,08,03,39,278,42,04,21,310,42,16,36,207,44,26,65,206,48*7B
###2023-12-09 12:33:08.955777$GPGSV,2,2,08,28,58,055,45,29,25,075,40,31,73,358,47,32,31,134,44*73
###2023-12-09 12:33:08.958282$GLGSV,2,1,05,71,58,169,46,72,65,311,47,73,49,033,46,74,71,287,42*67
###2023-12-09 12:33:08.959913$GLGSV,2,2,05,75,21,240,39,,,,,,,,,,,,*5D
###2023-12-09 12:33:08.962407$GAGSV,1,1,04,04,20,311,41,19,80,306,41,21,76,177,45,27,42,050,43*6F
###2023-12-09 12:33:08.964936$GBGSV,2,1,05,14,56,198,45,24,81,339,49,25,32,252,47,26,36,057,44*62
###2023-12-09 12:33:08.966560$GBGSV,2,2,05,33,63,257,49,,,,,,,,,,,,*56
###2023-12-09 12:33:08.968060$GNVTG,316.77,T,,M,0.08,N,0.14,K,A*2A
###2023-12-09 12:33:08.969861$GNGST,173308.10,18.000,,,,0.110,0.100,0.230*51
###2023-12-09 12:33:08.971337$GNZDA,173308.10,09,12,2023,00,00*7E
###2023-12-09 12:33:08.972146$GNEBP,,,,,,M*13
###2023-12-09 12:33:09.139629$GNGGA,173308.30,4138.0454930,N,07032.4310851,W,1,22,0.7,12.948,M,-29.745,M,0.0,*5F
###2023-12-09 12:33:09.334669$GNGGA,173308.50,4138.0454944,N,07032.4310865,W,1,22,0.7,12.937,M,-29.745,M,0.0,*55
###2023-12-09 12:33:09.532416$GNGGA,173308.70,4138.0454980,N,07032.4310987,W,1,22,0.7,12.934,M,-29.745,M,0.0,*51
###2023-12-09 12:33:09.734075$GNGGA,173308.90,4138.0455026,N,07032.4311409,W,1,22,0.7,12.937,M,-29.745,M,0.0,*52
###2023-12-09 12:33:09.933790$GNRMC,173309.10,A,4138.0455067,N,07032.4311563,W,0.04,316.77,091223,,,A*5D
###2023-12-09 12:33:09.936918$GNGGA,173309.10,4138.0455067,N,07032.4311563,W,1,23,0.7,12.933,M,-29.745,M,0.0,*56
###2023-12-09 12:33:09.938826$GPGSA,A,3,03,04,16,26,28,29,31,32,,,,,1.2,0.7,1.0*31
###2023-12-09 12:33:09.940498$GLGSA,A,3,71,72,73,74,75,,,,,,,,1.2,0.7,1.0*2D
###2023-12-09 12:33:09.942100$GAGSA,A,3,04,19,21,27,,,,,,,,,1.2,0.7,1.0*2C
###2023-12-09 12:33:09.943775$GBGSA,A,3,14,24,25,26,33,,,,,,,,1.2,0.7,1.0*25
###2023-12-09 12:33:09.946103$GPGSV,2,1,08,03,39,278,42,04,21,310,42,16,36,207,43,26,65,206,47*73
###2023-12-09 12:33:09.948497$GPGSV,2,2,08,28,58,055,45,29,25,075,39,31,73,358,48,32,31,134,43*75
###2023-12-09 12:33:09.950880$GLGSV,2,1,05,71,58,169,48,72,65,311,46,73,49,033,44,74,71,287,42*6A
###2023-12-09 12:33:09.952361$GLGSV,2,2,05,75,21,240,39,,,,,,,,,,,,*5D
###2023-12-09 12:33:09.954723$GAGSV,1,1,04,04,20,311,41,19,80,306,40,21,76,177,46,27,42,050,43*6D
###2023-12-09 12:33:09.957074$GBGSV,2,1,05,14,56,198,45,24,81,339,49,25,32,252,45,26,36,057,44*60
###2023-12-09 12:33:09.958532$GBGSV,2,2,05,33,63,257,49,,,,,,,,,,,,*56
###2023-12-09 12:33:09.959887$GNVTG,316.77,T,,M,0.04,N,0.07,K,A*24
###2023-12-09 12:33:09.961546$GNGST,173309.10,18.000,,,,0.110,0.100,0.230*50
###2023-12-09 12:33:09.962864$GNZDA,173309.10,09,12,2023,00,00*7F
###2023-12-09 12:33:09.963518$GNEBP,,,,,,M*13
###2023-12-09 12:33:10.131964$GNGGA,173309.30,4138.0455079,N,07032.4311463,W,1,23,0.7,12.930,M,-29.745,M,0.0,*59
###2023-12-09 12:33:10.333349$GNGGA,173309.50,4138.0455100,N,07032.4311507,W,1,22,0.7,12.923,M,-29.745,M,0.0,*50
###2023-12-09 12:33:10.531419$GNGGA,173309.70,4138.0455092,N,07032.4311626,W,1,22,0.7,12.919,M,-29.745,M,0.0,*51
###2023-12-09 12:33:10.730500$GNGGA,173309.90,4138.0455142,N,07032.4311781,W,1,21,0.7,12.922,M,-29.745,M,0.0,*54
###2023-12-09 12:33:10.934783$GNRMC,173310.10,A,4138.0455144,N,07032.4311981,W,0.19,316.77,091223,,,A*59
###2023-12-09 12:33:10.937648$GNGGA,173310.10,4138.0455144,N,07032.4311981,W,1,22,0.7,12.944,M,-29.745,M,0.0,*5F
###2023-12-09 12:33:10.939542$GPGSA,A,3,03,04,16,26,28,29,31,32,,,,,1.2,0.7,1.0*31
###2023-12-09 12:33:10.941193$GLGSA,A,3,71,72,73,74,75,,,,,,,,1.2,0.7,1.0*2D
###2023-12-09 12:33:10.942803$GAGSA,A,3,04,19,21,27,,,,,,,,,1.2,0.7,1.0*2C
###2023-12-09 12:33:10.944457$GBGSA,A,3,14,24,25,26,33,,,,,,,,1.2,0.7,1.0*25
###2023-12-09 12:33:10.946817$GPGSV,2,1,08,03,39,278,40,04,21,310,41,16,36,207,42,26,65,206,44*70
###2023-12-09 12:33:10.949182$GPGSV,2,2,08,28,58,055,45,29,25,075,41,31,73,358,47,32,31,134,45*73
###2023-12-09 12:33:10.951549$GLGSV,2,1,05,71,58,169,49,72,65,311,47,73,49,033,47,74,71,287,42*69
###2023-12-09 12:33:10.953020$GLGSV,2,2,05,75,21,240,36,,,,,,,,,,,,*52
###2023-12-09 12:33:10.955367$GAGSV,1,1,04,04,20,311,40,19,80,306,40,21,76,177,47,27,42,050,43*6D
###2023-12-09 12:33:10.957707$GBGSV,2,1,05,14,56,198,38,24,81,339,47,25,32,252,43,26,36,057,46*60
###2023-12-09 12:33:10.959202$GBGSV,2,2,05,33,63,257,48,,,,,,,,,,,,*57
###2023-12-09 12:33:10.960536$GNVTG,316.77,T,,M,0.19,N,0.36,K,A*2A
###2023-12-09 12:33:10.962202$GNGST,173310.10,18.000,,,,0.110,0.100,0.230*58
###2023-12-09 12:33:10.963534$GNZDA,173310.10,09,12,2023,00,00*77
###2023-12-09 12:33:10.964193$GNEBP,,,,,,M*13
###2023-12-09 12:33:11.133720$GNGGA,173310.30,4138.0455160,N,07032.4311800,W,1,21,0.7,12.943,M,-29.745,M,0.0,*57
###2023-12-09 12:33:11.332439$GNGGA,173310.50,4138.0455168,N,07032.4311544,W,1,20,0.7,12.926,M,-29.745,M,0.0,*56
###2023-12-09 12:33:11.531515$GNGGA,173310.70,4138.0455186,N,07032.4311488,W,1,20,0.7,12.923,M,-29.745,M,0.0,*50
###2023-12-09 12:33:11.730522$GNGGA,173310.90,4138.0455225,N,07032.4311695,W,1,19,0.8,12.945,M,-29.745,M,0.0,*5F
###2023-12-09 12:33:11.930796$GNRMC,173311.10,A,4138.0455236,N,07032.4311751,W,0.10,316.77,091223,,,A*54
###2023-12-09 12:33:11.933673$GNGGA,173311.10,4138.0455236,N,07032.4311751,W,1,18,0.8,12.969,M,-29.745,M,0.0,*52
###2023-12-09 12:33:11.935515$GPGSA,A,3,04,16,26,28,29,31,32,,,,,,1.4,0.8,1.1*3A
###2023-12-09 12:33:11.937308$GLGSA,A,3,71,73,74,,,,,,,,,,1.4,0.8,1.1*22
###2023-12-09 12:33:11.938933$GAGSA,A,3,04,19,21,27,,,,,,,,,1.4,0.8,1.1*24
###2023-12-09 12:33:11.940538$GBGSA,A,3,14,24,26,33,,,,,,,,,1.4,0.8,1.1*2A
###2023-12-09 12:33:11.942891$GPGSV,2,1,07,04,21,310,38,16,36,207,40,26,65,206,42,28,58,055,47*71
###2023-12-09 12:33:11.944940$GPGSV,2,2,07,29,25,075,41,31,73,358,43,32,31,134,42,,,,*49
###2023-12-09 12:33:11.947013$GLGSV,1,1,03,71,58,169,48,73,49,033,45,74,71,287,35,,,,*59
###2023-12-09 12:33:11.949369$GAGSV,1,1,04,04,20,311,37,19,80,306,36,21,76,177,43,27,42,050,43*68
###2023-12-09 12:33:11.951730$GBGSV,1,1,04,14,56,198,42,24,81,339,46,26,36,057,44,33,63,257,37*69
###2023-12-09 12:33:11.953072$GNVTG,316.77,T,,M,0.10,N,0.18,K,A*2F
###2023-12-09 12:33:11.954745$GNGST,173311.10,20.000,,,,0.120,0.110,0.240*57
