###2023-12-09 12:53:04.153112$GNGGA,175303.30,4138.0573954,N,07032.3841293,W,1,24,0.6,13.315,M,-29.744,M,0.0,*5D
###2023-12-09 12:53:04.354831$GNGGA,175303.50,4138.0574059,N,07032.3841729,W,1,24,0.6,13.301,M,-29.744,M,0.0,*59
###2023-12-09 12:53:04.554931$GNGGA,175303.70,4138.0574276,N,07032.3842197,W,1,24,0.6,13.298,M,-29.744,M,0.0,*55
###2023-12-09 12:53:04.754196$GNGGA,175303.90,4138.0574286,N,07032.3842558,W,1,24,0.6,13.302,M,-29.744,M,0.0,*51
###2023-12-09 12:53:04.956842$GNRMC,175304.10,A,4138.0574163,N,07032.3842853,W,0.43,310.93,091223,,,A*5A
###2023-12-09 12:53:04.959728$GNGGA,175304.10,4138.0574163,N,07032.3842853,W,1,24,0.6,13.316,M,-29.744,M,0.0,*55
###2023-12-09 12:53:04.961583$GPGSA,A,3,03,04,16,26,28,29,31,32,,,,,1.1,0.6,0.9*3B
###2023-12-09 12:53:04.963312$GLGSA,A,3,65,71,72,73,74,75,,,,,,,1.1,0.6,0.9*24
###2023-12-09 12:53:04.964899$GAGSA,A,3,04,19,21,27,,,,,,,,,1.1,0.6,0.9*26
###2023-12-09 12:53:04.966534$GBGSA,A,3,14,24,25,26,33,,,,,,,,1.1,0.6,0.9*2F
###2023-12-09 12:53:04.968887$GPGSV,2,1,08,03,37,267,42,04,29,311,42,16,45,210,46,26,75,209,47*73
###2023-12-09 12:53:04.971236$GPGSV,2,2,08,28,52,066,44,29,26,065,42,31,71,026,48,32,23,138,42*76
###2023-12-09 12:53:04.973566$GLGSV,2,1,06,65,20,328,41,71,45,172,47,72,72,285,46,73,39,039,47*67
###2023-12-09 12:53:04.975326$GLGSV,2,2,06,74,71,324,42,75,29,249,45,,,,,,,,*62
###2023-12-09 12:53:04.977655$GAGSV,1,1,04,04,26,312,41,19,85,252,40,21,84,154,46,27,36,048,44*6C
###2023-12-09 12:53:04.979995$GBGSV,2,1,05,14,47,194,45,24,76,016,48,25,38,259,43,26,29,061,43*60
###2023-12-09 12:53:04.981448$GBGSV,2,2,05,33,60,238,47,,,,,,,,,,,,*52
###2023-12-09 12:53:04.982773$GNVTG,310.93,T,,M,0.43,N,0.79,K,A*22
###2023-12-09 12:53:04.984421$GNGST,175304.10,18.000,,,,0.076,0.067,0.160*5C
###2023-12-09 12:53:04.985719$GNZDA,175304.10,09,12,2023,00,00*74
###2023-12-09 12:53:04.986358$GNEBP,,,,,,M*13
###2023-12-09 12:53:05.154768$GNGGA,175304.30,4138.0574112,N,07032.3843183,W,1,24,0.6,13.313,M,-29.744,M,0.0,*51
###2023-12-09 12:53:05.354393$GNGGA,175304.50,4138.0574232,N,07032.3843600,W,1,24,0.6,13.310,M,-29.744,M,0.0,*59
###2023-12-09 12:53:05.554883$GNGGA,175304.70,4138.0574398,N,07032.3844022,W,1,24,0.6,13.312,M,-29.744,M,0.0,*59
###2023-12-09 12:53:05.754387$GNGGA,175304.90,4138.0574433,N,07032.3844372,W,1,24,0.6,13.305,M,-29.744,M,0.0,*51
###2023-12-09 12:53:05.956250$GNRMC,175305.10,A,4138.0574368,N,07032.3844650,W,0.39,310.93,091223,,,A*54
###2023-12-09 12:53:05.959117$GNGGA,175305.10,4138.0574368,N,07032.3844650,W,1,24,0.6,13.305,M,-29.744,M,0.0,*54
###2023-12-09 12:53:05.960972$GPGSA,A,3,03,04,16,26,28,29,31,32,,,,,1.1,0.6,0.9*3B
###2023-12-09 12:53:05.962694$GLGSA,A,3,65,71,72,73,74,75,,,,,,,1.1,0.6,0.9*24
###2023-12-09 12:53:05.964279$GAGSA,A,3,04,19,21,27,,,,,,,,,1.1,0.6,0.9*26
###2023-12-09 12:53:05.965926$GBGSA,A,3,14,24,25,26,33,,,,,,,,1.1,0.6,0.9*2F
###2023-12-09 12:53:05.968281$GPGSV,2,1,08,03,37,267,42,04,29,311,42,16,45,210,46,26,75,209,48*7C
###2023-12-09 12:53:05.970629$GPGSV,2,2,08,28,52,066,45,29,26,065,42,31,71,026,47,32,23,138,43*79
###2023-12-09 12:53:05.972964$GLGSV,2,1,06,65,20,328,42,71,45,172,47,72,72,285,46,73,39,039,47*64
###2023-12-09 12:53:05.974726$GLGSV,2,2,06,74,71,324,42,75,29,249,45,,,,,,,,*62
###2023-12-09 12:53:05.977052$GAGSV,1,1,04,04,26,312,41,19,85,252,40,21,84,154,46,27,36,048,44*6C
###2023-12-09 12:53:05.979390$GBGSV,2,1,05,14,47,194,45,24,76,016,48,25,38,259,45,26,29,061,43*66
###2023-12-09 12:53:05.980849$GBGSV,2,2,05,33,60,238,47,,,,,,,,,,,,*52
###2023-12-09 12:53:05.982170$GNVTG,310.93,T,,M,0.39,N,0.72,K,A*24
###2023-12-09 12:53:05.983834$GNGST,175305.10,18.000,,,,0.076,0.067,0.160*5D
###2023-12-09 12:53:05.985132$GNZDA,175305.10,09,12,2023,00,00*75
###2023-12-09 12:53:05.985768$GNEBP,,,,,,M*13
###2023-12-09 12:53:06.153865$GNGGA,175305.30,4138.0574365,N,07032.3844967,W,1,24,0.6,13.318,M,-29.744,M,0.0,*5C
###2023-12-09 12:53:06.354792$GNGGA,175305.50,4138.0574517,N,07032.3845370,W,1,24,0.6,13.324,M,-29.744,M,0.0,*5B
###2023-12-09 12:53:06.553726$GNGGA,175305.70,4138.0574668,N,07032.3845799,W,1,24,0.6,13.320,M,-29.744,M,0.0,*55
###2023-12-09 12:53:06.754867$GNGGA,175305.90,4138.0574677,N,07032.3846105,W,1,24,0.6,13.320,M,-29.744,M,0.0,*55
###2023-12-09 12:53:06.955293$GNRMC,175306.10,A,4138.0574578,N,07032.3846365,W,0.41,310.93,091223,,,A*5E
###2023-12-09 12:53:06.958148$GNGGA,175306.10,4138.0574578,N,07032.3846365,W,1,24,0.6,13.318,M,-29.744,M,0.0,*5D
###2023-12-09 12:53:06.960027$GPGSA,A,3,03,04,16,26,28,29,31,32,,,,,1.1,0.6,0.9*3B
###2023-12-09 12:53:06.961747$GLGSA,A,3,65,71,72,73,74,75,,,,,,,1.1,0.6,0.9*24
###2023-12-09 12:53:06.963346$GAGSA,A,3,04,19,21,27,,,,,,,,,1.1,0.6,0.9*26
###2023-12-09 12:53:06.965002$GBGSA,A,3,14,24,25,26,33,,,,,,,,1.1,0.6,0.9*2F
###2023-12-09 12:53:06.967352$GPGSV,2,1,08,03,37,267,42,04,29,311,40,16,45,210,46,26,75,209,47*71
###2023-12-09 12:53:06.969689$GPGSV,2,2,08,28,52,066,45,29,26,065,42,31,71,026,48,32,23,138,43*76
###2023-12-09 12:53:06.972036$GLGSV,2,1,06,65,20,328,42,71,45,172,47,72,72,285,46,73,39,039,46*65
###2023-12-09 12:53:06.973789$GLGSV,2,2,06,74,71,324,43,75,29,249,45,,,,,,,,*63
###2023-12-09 12:53:06.976135$GAGSV,1,1,04,04,26,312,41,19,85,252,40,21,84,154,46,27,36,048,44*6C
###2023-12-09 12:53:06.978471$GBGSV,2,1,05,14,47,194,46,24,76,016,48,25,38,259,44,26,29,061,44*63
###2023-12-09 12:53:06.979941$GBGSV,2,2,05,33,60,238,47,,,,,,,,,,,,*52
###2023-12-09 12:53:06.981265$GNVTG,310.93,T,,M,0.41,N,0.76,K,A*2F
###2023-12-09 12:53:06.982929$GNGST,175306.10,18.000,,,,0.076,0.067,0.160*5E
###2023-12-09 12:53:06.984230$GNZDA,175306.10,09,12,2023,00,00*76
###2023-12-09 12:53:06.984873$GNEBP,,,,,,M*13
###2023-12-09 12:53:07.154014$GNGGA,175306.30,4138.0574640,N,07032.3846714,W,1,24,0.6,13.323,M,-29.744,M,0.0,*5D
###2023-12-09 12:53:07.354841$GNGGA,175306.50,4138.0574859,N,07032.3847142,W,1,24,0.6,13.332,M,-29.744,M,0.0,*59
###2023-12-09 12:53:07.554401$GNGGA,175306.70,4138.0575016,N,07032.3847535,W,1,24,0.6,13.340,M,-29.744,M,0.0,*58
###2023-12-09 12:53:07.759800$GNGGA,175306.90,4138.0574937,N,07032.3847763,W,1,24,0.6,13.329,M,-29.744,M,0.0,*53
###2023-12-09 12:53:07.958711$GNRMC,175307.10,A,4138.0574847,N,07032.3847988,W,0.39,310.93,091223,,,A*59
###2023-12-09 12:53:07.961600$GNGGA,175307.10,4138.0574847,N,07032.3847988,W,1,24,0.6,13.321,M,-29.744,M,0.0,*5F
###2023-12-09 12:53:07.963480$GPGSA,A,3,03,04,16,26,28,29,31,32,,,,,1.1,0.6,0.9*3B
###2023-12-09 12:53:07.965206$GLGSA,A,3,65,71,72,73,74,75,,,,,,,1.1,0.6,0.9*24
###2023-12-09 12:53:07.966818$GAGSA,A,3,04,19,21,27,,,,,,,,,1.1,0.6,0.9*26
###2023-12-09 12:53:07.968476$GBGSA,A,3,14,24,25,26,33,,,,,,,,1.1,0.6,0.9*2F
###2023-12-09 12:53:07.970827$GPGSV,2,1,08,03,37,267,42,04,29,311,41,16,45,210,46,26,75,209,47*70
###2023-12-09 12:53:07.973175$GPGSV,2,2,08,28,52,066,45,29,26,065,42,31,71,026,47,32,23,138,45*7F
###2023-12-09 12:53:07.975529$GLGSV,2,1,06,65,20,328,41,71,45,172,47,72,72,285,46,73,39,039,47*67
###2023-12-09 12:53:07.977285$GLGSV,2,2,06,74,71,324,43,75,29,249,44,,,,,,,,*62
###2023-12-09 12:53:07.979642$GAGSV,1,1,04,04,26,312,40,19,85,252,40,21,84,154,46,27,36,048,44*6D
###2023-12-09 12:53:07.981984$GBGSV,2,1,05,14,47,194,47,24,76,016,50,25,38,259,46,26,29,061,45*68
###2023-12-09 12:53:07.983454$GBGSV,2,2,05,33,60,238,48,,,,,,,,,,,,*5D
###2023-12-09 12:53:07.984785$GNVTG,310.93,T,,M,0.39,N,0.72,K,A*24
###2023-12-09 12:53:07.986441$GNGST,175307.10,18.000,,,,0.076,0.067,0.160*5F
###2023-12-09 12:53:07.987747$GNZDA,175307.10,09,12,2023,00,00*77
###2023-12-09 12:53:07.988390$GNEBP,,,,,,M*13
###2023-12-09 12:53:08.153799$GNGGA,175307.30,4138.0574972,N,07032.3848358,W,1,24,0.6,13.327,M,-29.744,M,0.0,*54
###2023-12-09 12:53:08.354298$GNGGA,175307.50,4138.0575208,N,07032.3848819,W,1,24,0.6,13.335,M,-29.744,M,0.0,*58
###2023-12-09 12:53:08.554670$GNGGA,175307.70,4138.0575307,N,07032.3849162,W,1,24,0.6,13.346,M,-29.744,M,0.0,*54
###2023-12-09 12:53:08.754555$GNGGA,175307.90,4138.0575253,N,07032.3849377,W,1,24,0.6,13.349,M,-29.744,M,0.0,*53
###2023-12-09 12:53:08.964190$GNRMC,175308.10,A,4138.0575168,N,07032.3849555,W,0.33,310.93,091223,,,A*5B
###2023-12-09 12:53:08.967067$GNGGA,175308.10,4138.0575168,N,07032.3849555,W,1,24,0.6,13.328,M,-29.744,M,0.0,*5E
###2023-12-09 12:53:08.969183$GPGSA,A,3,03,04,16,26,28,29,31,32,,,,,1.1,0.6,0.9*3B
###2023-12-09 12:53:08.970926$GLGSA,A,3,65,71,72,73,74,75,,,,,,,1.1,0.6,0.9*24
###2023-12-09 12:53:08.972520$GAGSA,A,3,04,19,21,27,,,,,,,,,1.1,0.6,0.9*26
###2023-12-09 12:53:08.974166$GBGSA,A,3,14,24,25,26,33,,,,,,,,1.1,0.6,0.9*2F
###2023-12-09 12:53:08.976507$GPGSV,2,1,08,03,37,267,43,04,29,311,41,16,45,210,46,26,75,209,47*71
###2023-12-09 12:53:08.978848$GPGSV,2,2,08,28,52,066,45,29,26,065,43,31,71,026,48,32,23,138,46*72
###2023-12-09 12:53:08.981173$GLGSV,2,1,06,65,20,328,41,71,45,172,47,72,72,285,46,73,39,039,46*66
###2023-12-09 12:53:08.982929$GLGSV,2,2,06,74,71,324,43,75,29,249,44,,,,,,,,*62
###2023-12-09 12:53:08.985248$GAGSV,1,1,04,04,26,312,40,19,85,252,40,21,84,154,46,27,36,048,44*6D
###2023-12-09 12:53:08.987580$GBGSV,2,1,05,14,47,194,45,24,76,016,48,25,38,259,44,26,29,061,43*67
