###2023-12-09 12:39:53.955959$GPGSV,2,2,08,28,57,058,46,29,25,072,44,31,73,007,48,32,28,135,46*7C
###2023-12-09 12:39:53.958325$GLGSV,2,1,05,71,54,170,48,72,68,305,46,73,45,035,46,74,71,299,43*60
###2023-12-09 12:39:53.959803$GLGSV,2,2,05,75,24,243,39,,,,,,,,,,,,*5B
###2023-12-09 12:39:53.962118$GAGSV,1,1,04,04,22,311,39,19,82,296,41,21,79,174,46,27,40,049,45*6B
###2023-12-09 12:39:53.964454$GBGSV,2,1,05,14,53,197,45,24,80,355,48,25,34,254,42,26,33,058,45*6C
###2023-12-09 12:39:53.965901$GBGSV,2,2,05,33,62,250,47,,,,,,,,,,,,*5E
###2023-12-09 12:39:53.967235$GNVTG,305.22,T,,M,0.95,N,1.76,K,A*29
###2023-12-09 12:39:53.968876$GNGST,173953.10,19.000,,,,0.079,0.069,0.170*53
###2023-12-09 12:39:53.970159$GNZDA,173953.10,09,12,2023,00,00*7A
###2023-12-09 12:39:53.970809$GNEBP,,,,,,M*13
###2023-12-09 12:39:54.141307$GNGGA,173953.30,4138.0551716,N,07032.3800723,W,1,23,0.7,13.310,M,-29.744,M,0.0,*54
###2023-12-09 12:39:54.341591$GNGGA,173953.50,4138.0551930,N,07032.3801110,W,1,23,0.7,13.310,M,-29.744,M,0.0,*5F
###2023-12-09 12:39:54.541349$GNGGA,173953.70,4138.0551995,N,07032.3801210,W,1,23,0.7,13.316,M,-29.744,M,0.0,*57
###2023-12-09 12:39:54.740918$GNGGA,173953.90,4138.0552046,N,07032.3801275,W,1,23,0.7,13.308,M,-29.744,M,0.0,*51
###2023-12-09 12:39:54.942401$GNRMC,173954.10,A,4138.0552236,N,07032.3801584,W,0.80,305.01,091223,,,A*54
###2023-12-09 12:39:54.945282$GNGGA,173954.10,4138.0552236,N,07032.3801584,W,1,23,0.7,13.307,M,-29.744,M,0.0,*5D
###2023-12-09 12:39:54.947183$GPGSA,A,3,03,04,16,26,28,29,31,32,,,,,1.2,0.7,1.0*31
###2023-12-09 12:39:54.948855$GLGSA,A,3,71,72,73,74,75,,,,,,,,1.2,0.7,1.0*2D
###2023-12-09 12:39:54.950443$GAGSA,A,3,04,19,21,27,,,,,,,,,1.2,0.7,1.0*2C
###2023-12-09 12:39:54.952106$GBGSA,A,3,14,24,25,26,33,,,,,,,,1.2,0.7,1.0*25
###2023-12-09 12:39:54.954435$GPGSV,2,1,08,03,38,274,43,04,24,311,40,16,39,208,42,26,69,207,47*75
###2023-12-09 12:39:54.956789$GPGSV,2,2,08,28,57,058,46,29,25,072,44,31,73,007,48,32,28,135,46*7C
###2023-12-09 12:39:54.959131$GLGSV,2,1,05,71,54,170,48,72,68,305,46,73,45,035,46,74,71,299,43*60
###2023-12-09 12:39:54.960588$GLGSV,2,2,05,75,24,243,40,,,,,,,,,,,,*55
###2023-12-09 12:39:54.962942$GAGSV,1,1,04,04,22,311,39,19,82,296,41,21,79,174,46,27,40,049,44*6A
###2023-12-09 12:39:54.965296$GBGSV,2,1,05,14,53,197,45,24,80,355,49,25,34,254,42,26,33,058,46*6E
###2023-12-09 12:39:54.966778$GBGSV,2,2,05,33,62,250,47,,,,,,,,,,,,*5E
###2023-12-09 12:39:54.968103$GNVTG,305.01,T,,M,0.80,N,1.48,K,A*21
###2023-12-09 12:39:54.969754$GNGST,173954.10,19.000,,,,0.079,0.069,0.160*55
###2023-12-09 12:39:54.971064$GNZDA,173954.10,09,12,2023,00,00*7D
###2023-12-09 12:39:54.971706$GNEBP,,,,,,M*13
###2023-12-09 12:39:55.141393$GNGGA,173954.30,4138.0552506,N,07032.3802106,W,1,23,0.7,13.312,M,-29.744,M,0.0,*52
###2023-12-09 12:39:55.341321$GNGGA,173954.50,4138.0552707,N,07032.3802520,W,1,23,0.7,13.314,M,-29.744,M,0.0,*51
###2023-12-09 12:39:55.540843$GNGGA,173954.70,4138.0552789,N,07032.3802676,W,1,23,0.7,13.325,M,-29.744,M,0.0,*57
###2023-12-09 12:39:55.740947$GNGGA,173954.90,4138.0552861,N,07032.3802789,W,1,23,0.7,13.324,M,-29.744,M,0.0,*50
###2023-12-09 12:39:55.943503$GNRMC,173955.10,A,4138.0553023,N,07032.3803061,W,0.60,305.01,091223,,,A*50
###2023-12-09 12:39:55.946382$GNGGA,173955.10,4138.0553023,N,07032.3803061,W,1,23,0.7,13.315,M,-29.744,M,0.0,*54
###2023-12-09 12:39:55.948296$GPGSA,A,3,03,04,16,26,28,29,31,32,,,,,1.2,0.7,1.0*31
###2023-12-09 12:39:55.949975$GLGSA,A,3,71,72,73,74,75,,,,,,,,1.2,0.7,1.0*2D
###2023-12-09 12:39:55.951582$GAGSA,A,3,04,19,21,27,,,,,,,,,1.2,0.7,1.0*2C
###2023-12-09 12:39:55.953236$GBGSA,A,3,14,24,25,26,33,,,,,,,,1.2,0.7,1.0*25
###2023-12-09 12:39:55.955583$GPGSV,2,1,08,03,38,274,43,04,24,311,41,16,39,208,42,26,69,207,47*74
###2023-12-09 12:39:55.957929$GPGSV,2,2,08,28,57,058,45,29,25,072,43,31,73,007,47,32,28,135,45*74
###2023-12-09 12:39:55.960270$GLGSV,2,1,05,71,54,170,48,72,68,305,46,73,45,035,47,74,71,299,42*60
###2023-12-09 12:39:55.961726$GLGSV,2,2,05,75,24,243,39,,,,,,,,,,,,*5B
###2023-12-09 12:39:55.964062$GAGSV,1,1,04,04,22,311,39,19,82,296,41,21,79,174,46,27,40,049,44*6A
###2023-12-09 12:39:55.966388$GBGSV,2,1,05,14,53,197,45,24,80,355,48,25,34,254,42,26,33,058,46*6F
###2023-12-09 12:39:55.967864$GBGSV,2,2,05,33,62,250,47,,,,,,,,,,,,*5E
###2023-12-09 12:39:55.969187$GNVTG,305.01,T,,M,0.60,N,1.12,K,A*20
###2023-12-09 12:39:55.970846$GNGST,173955.10,19.000,,,,0.078,0.069,0.160*55
###2023-12-09 12:39:55.972138$GNZDA,173955.10,09,12,2023,00,00*7C
###2023-12-09 12:39:55.972778$GNEBP,,,,,,M*13
###2023-12-09 12:39:56.140001$GNGGA,173955.30,4138.0553254,N,07032.3803471,W,1,23,0.7,13.314,M,-29.744,M,0.0,*50
###2023-12-09 12:39:56.340348$GNGGA,173955.50,4138.0553479,N,07032.3803873,W,1,23,0.7,13.315,M,-29.744,M,0.0,*50
###2023-12-09 12:39:56.540549$GNGGA,173955.70,4138.0553607,N,07032.3804126,W,1,23,0.7,13.320,M,-29.744,M,0.0,*51
###2023-12-09 12:39:56.739842$GNGGA,173955.90,4138.0553700,N,07032.3804269,W,1,23,0.7,13.326,M,-29.744,M,0.0,*57
###2023-12-09 12:39:56.947113$GNRMC,173956.10,A,4138.0553860,N,07032.3804500,W,0.54,305.01,091223,,,A*5E
###2023-12-09 12:39:56.949995$GNGGA,173956.10,4138.0553860,N,07032.3804500,W,1,23,0.7,13.321,M,-29.744,M,0.0,*5A
###2023-12-09 12:39:56.951878$GPGSA,A,3,03,04,16,26,28,29,31,32,,,,,1.2,0.7,1.0*31
###2023-12-09 12:39:56.953540$GLGSA,A,3,71,72,73,74,75,,,,,,,,1.2,0.7,1.0*2D
###2023-12-09 12:39:56.955141$GAGSA,A,3,04,19,21,27,,,,,,,,,1.2,0.7,1.0*2C
###2023-12-09 12:39:56.956783$GBGSA,A,3,14,24,25,26,33,,,,,,,,1.2,0.7,1.0*25
###2023-12-09 12:39:56.959131$GPGSV,2,1,08,03,38,274,43,04,24,311,41,16,39,208,43,26,69,207,47*75
###2023-12-09 12:39:56.961477$GPGSV,2,2,08,28,56,059,45,29,25,072,43,31,73,007,47,32,28,135,45*74
###2023-12-09 12:39:56.963837$GLGSV,2,1,05,71,54,170,47,72,68,305,47,73,45,035,46,74,71,299,43*6E
###2023-12-09 12:39:56.965298$GLGSV,2,2,05,75,24,243,39,,,,,,,,,,,,*5B
###2023-12-09 12:39:56.967647$GAGSV,1,1,04,04,22,311,39,19,82,296,41,21,79,174,46,27,40,049,44*6A
###2023-12-09 12:39:56.969990$GBGSV,2,1,05,14,53,197,45,24,80,355,48,25,34,254,43,26,33,058,46*6E
###2023-12-09 12:39:56.971464$GBGSV,2,2,05,33,62,250,47,,,,,,,,,,,,*5E
###2023-12-09 12:39:56.972790$GNVTG,305.01,T,,M,0.54,N,1.01,K,A*25
###2023-12-09 12:39:56.974444$GNGST,173956.10,18.000,,,,0.078,0.069,0.160*57
###2023-12-09 12:39:56.975745$GNZDA,173956.10,09,12,2023,00,00*7F
###2023-12-09 12:39:56.976387$GNEBP,,,,,,M*13
###2023-12-09 12:39:57.141000$GNGGA,173956.30,4138.0554080,N,07032.3804836,W,1,23,0.7,13.317,M,-29.744,M,0.0,*54
###2023-12-09 12:39:57.341519$GNGGA,173956.50,4138.0554273,N,07032.3805168,W,1,23,0.7,13.313,M,-29.744,M,0.0,*5B
###2023-12-09 12:39:57.541526$GNGGA,173956.70,4138.0554418,N,07032.3805443,W,1,23,0.7,13.319,M,-29.744,M,0.0,*54
###2023-12-09 12:39:57.740809$GNGGA,173956.90,4138.0554579,N,07032.3805692,W,1,23,0.7,13.332,M,-29.744,M,0.0,*5B
###2023-12-09 12:39:57.942289$GNRMC,173957.10,A,4138.0554769,N,07032.3805976,W,0.49,305.01,091223,,,A*5E
###2023-12-09 12:39:57.945159$GNGGA,173957.10,4138.0554769,N,07032.3805976,W,1,23,0.7,13.337,M,-29.744,M,0.0,*51
###2023-12-09 12:39:57.947033$GPGSA,A,3,03,04,16,26,28,29,31,32,,,,,1.2,0.7,1.0*31
###2023-12-09 12:39:57.948702$GLGSA,A,3,71,72,73,74,75,,,,,,,,1.2,0.7,1.0*2D
###2023-12-09 12:39:57.950293$GAGSA,A,3,04,19,21,27,,,,,,,,,1.2,0.7,1.0*2C
###2023-12-09 12:39:57.951952$GBGSA,A,3,14,24,25,26,33,,,,,,,,1.2,0.7,1.0*25
###2023-12-09 12:39:57.954276$GPGSV,2,1,08,03,38,274,43,04,24,311,43,16,39,208,42,26,69,207,47*76
###2023-12-09 12:39:57.956632$GPGSV,2,2,08,28,56,059,46,29,25,071,43,31,73,007,48,32,28,135,45*7B
###2023-12-09 12:39:57.958976$GLGSV,2,1,05,71,54,170,47,72,68,305,47,73,45,035,47,74,71,299,43*6F
###2023-12-09 12:39:57.960432$GLGSV,2,2,05,75,24,243,41,,,,,,,,,,,,*54
###2023-12-09 12:39:57.962768$GAGSV,1,1,04,04,22,311,41,19,82,296,41,21,79,174,46,27,40,049,44*65
###2023-12-09 12:39:57.965092$GBGSV,2,1,05,14,53,197,45,24,80,355,48,25,34,254,43,26,33,058,46*6E
###2023-12-09 12:39:57.966547$GBGSV,2,2,05,33,62,250,47,,,,,,,,,,,,*5E
###2023-12-09 12:39:57.967910$GNVTG,305.01,T,,M,0.49,N,0.90,K,A*20
###2023-12-09 12:39:57.969555$GNGST,173957.10,19.000,,,,0.078,0.069,0.160*57
###2023-12-09 12:39:57.971115$GNZDA,173957.10,09,12,2023,00,00*7E
###2023-12-09 12:39:57.971763$GNEBP,,,,,,M*13
###2023-12-09 12:39:58.140946$GNGGA,173957.30,4138.0554912,N,07032.3806183,W,1,23,0.7,13.329,M,-29.744,M,0.0,*5F
###2023-12-09 12:39:58.342773$GNGGA,173957.50,4138.0555032,N,07032.3806343,W,1,23,0.7,13.319,M,-29.744,M,0.0,*5E
###2023-12-09 12:39:58.548784$GNGGA,173957.70,4138.0555218,N,07032.3806648,W,1,23,0.7,13.329,M,-29.744,M,0.0,*5B
###2023-12-09 12:39:58.745356$GNGGA,173957.90,4138.0555457,N,07032.3807060,W,1,23,0.7,13.340,M,-29.744,M,0.0,*5A
###2023-12-09 12:39:58.942825$GNRMC,173958.10,A,4138.0555621,N,07032.3807318,W,0.25,305.01,091223,,,A*57
###2023-12-09 12:39:58.945661$GNGGA,173958.10,4138.0555621,N,07032.3807318,W,1,23,0.7,13.346,M,-29.744,M,0.0,*54
