###2023-12-09 13:14:10.998850$GAGSV,1,1,04,04,33,312,42,19,80,192,40,21,84,066,46,27,29,048,40*6B
###2023-12-09 13:14:11.001194$GBGSV,2,1,06,14,38,192,43,24,70,034,49,25,44,267,43,26,22,065,44*62
###2023-12-09 13:14:11.002966$GBGSV,2,2,06,33,53,226,47,35,15,065,44,,,,,,,,*6F
###2023-12-09 13:14:11.004297$GNVTG,264.62,T,,M,3.77,N,6.98,K,A*23
###2023-12-09 13:14:11.005940$GNGST,181410.10,18.000,,,,0.098,0.074,0.170*56
###2023-12-09 13:14:11.007283$GNZDA,181410.10,09,12,2023,00,00*7D
###2023-12-09 13:14:11.007923$GNEBP,,,,,,M*13
###2023-12-09 13:14:11.172011$GNGGA,181410.30,4138.0457500,N,07032.3111046,W,1,24,0.7,13.128,M,-29.744,M,0.0,*52
###2023-12-09 13:14:11.373995$GNGGA,181410.50,4138.0457556,N,07032.3113891,W,1,24,0.7,13.128,M,-29.744,M,0.0,*57
###2023-12-09 13:14:11.574831$GNGGA,181410.70,4138.0457636,N,07032.3116702,W,1,24,0.7,13.141,M,-29.744,M,0.0,*5F
###2023-12-09 13:14:11.774840$GNGGA,181410.90,4138.0457687,N,07032.3119476,W,1,24,0.7,13.143,M,-29.744,M,0.0,*56
###2023-12-09 13:14:11.977306$GNRMC,181411.10,A,4138.0457784,N,07032.3122200,W,3.71,272.99,091223,,,A*53
###2023-12-09 13:14:11.980187$GNGGA,181411.10,4138.0457784,N,07032.3122200,W,1,24,0.7,13.139,M,-29.744,M,0.0,*5F
###2023-12-09 13:14:11.981980$GPGSA,A,3,03,04,16,26,28,29,31,,,,,,1.2,0.7,1.0*30
###2023-12-09 13:14:11.983705$GLGSA,A,3,65,71,72,73,74,75,,,,,,,1.2,0.7,1.0*2E
###2023-12-09 13:14:11.985288$GAGSA,A,3,04,19,21,27,,,,,,,,,1.2,0.7,1.0*2C
###2023-12-09 13:14:11.987011$GBGSA,A,3,14,24,25,26,33,35,,,,,,,1.2,0.7,1.0*23
###2023-12-09 13:14:11.989334$GPGSV,2,1,07,03,32,255,41,04,38,311,42,16,56,215,46,26,86,209,48*7F
###2023-12-09 13:14:11.991379$GPGSV,2,2,07,28,45,076,45,29,24,055,42,31,65,050,47,,,,*49
###2023-12-09 13:14:11.993704$GLGSV,2,1,06,65,29,325,40,71,34,174,45,72,71,246,45,73,31,045,42*69
###2023-12-09 13:14:11.995461$GLGSV,2,2,06,74,66,353,43,75,36,259,42,,,,,,,,*6D
###2023-12-09 13:14:11.997786$GAGSV,1,1,04,04,33,312,40,19,80,192,40,21,84,066,46,27,29,048,40*69
###2023-12-09 13:14:12.000123$GBGSV,2,1,06,14,38,192,44,24,70,034,48,25,44,267,44,26,22,065,41*66
###2023-12-09 13:14:12.001873$GBGSV,2,2,06,33,53,226,47,35,15,065,42,,,,,,,,*69
###2023-12-09 13:14:12.003212$GNVTG,272.99,T,,M,3.71,N,6.88,K,A*27
###2023-12-09 13:14:12.004860$GNGST,181411.10,18.000,,,,0.098,0.074,0.170*57
###2023-12-09 13:14:12.006149$GNZDA,181411.10,09,12,2023,00,00*7C
###2023-12-09 13:14:12.006798$GNEBP,,,,,,M*13
###2023-12-09 13:14:12.174012$GNGGA,181411.30,4138.0457933,N,07032.3124954,W,1,24,0.7,13.138,M,-29.744,M,0.0,*52
###2023-12-09 13:14:12.374350$GNGGA,181411.50,4138.0458175,N,07032.3127703,W,1,24,0.7,13.151,M,-29.744,M,0.0,*51
###2023-12-09 13:14:12.574974$GNGGA,181411.70,4138.0458462,N,07032.3130452,W,1,24,0.7,13.163,M,-29.744,M,0.0,*50
###2023-12-09 13:14:12.774745$GNGGA,181411.90,4138.0458627,N,07032.3133220,W,1,24,0.7,13.168,M,-29.744,M,0.0,*56
###2023-12-09 13:14:12.977357$GNRMC,181412.10,A,4138.0458665,N,07032.3136001,W,3.75,269.63,091223,,,A*5C
###2023-12-09 13:14:12.980255$GNGGA,181412.10,4138.0458665,N,07032.3136001,W,1,24,0.7,13.168,M,-29.744,M,0.0,*5F
###2023-12-09 13:14:12.982067$GPGSA,A,3,03,04,16,26,28,29,31,,,,,,1.2,0.7,1.0*30
###2023-12-09 13:14:12.983803$GLGSA,A,3,65,71,72,73,74,75,,,,,,,1.2,0.7,1.0*2E
###2023-12-09 13:14:12.985390$GAGSA,A,3,04,19,21,27,,,,,,,,,1.2,0.7,1.0*2C
###2023-12-09 13:14:12.987113$GBGSA,A,3,14,24,25,26,33,35,,,,,,,1.2,0.7,1.0*23
###2023-12-09 13:14:12.989437$GPGSV,2,1,07,03,32,255,41,04,38,311,42,16,56,215,46,26,86,209,48*7F
###2023-12-09 13:14:12.991489$GPGSV,2,2,07,28,45,076,45,29,24,055,42,31,65,050,47,,,,*49
###2023-12-09 13:14:12.993815$GLGSV,2,1,06,65,29,325,40,71,34,174,46,72,71,246,45,73,31,045,43*6B
###2023-12-09 13:14:12.995579$GLGSV,2,2,06,74,66,353,42,75,36,259,43,,,,,,,,*6D
###2023-12-09 13:14:12.997909$GAGSV,1,1,04,04,33,312,41,19,80,192,41,21,84,066,46,27,29,048,40*69
###2023-12-09 13:14:13.000255$GBGSV,2,1,06,14,38,192,43,24,70,034,49,25,44,267,44,26,22,065,43*62
###2023-12-09 13:14:13.002002$GBGSV,2,2,06,33,53,226,47,35,15,065,45,,,,,,,,*6E
###2023-12-09 13:14:13.003337$GNVTG,269.63,T,,M,3.75,N,6.95,K,A*20
###2023-12-09 13:14:13.004984$GNGST,181412.10,18.000,,,,0.098,0.074,0.170*54
###2023-12-09 13:14:13.006275$GNZDA,181412.10,09,12,2023,00,00*7F
###2023-12-09 13:14:13.006927$GNEBP,,,,,,M*13
###2023-12-09 13:14:13.174064$GNGGA,181412.30,4138.0458698,N,07032.3138842,W,1,24,0.7,13.168,M,-29.744,M,0.0,*5E
###2023-12-09 13:14:13.374470$GNGGA,181412.50,4138.0458819,N,07032.3141743,W,1,24,0.7,13.174,M,-29.744,M,0.0,*52
###2023-12-09 13:14:13.575168$GNGGA,181412.70,4138.0458814,N,07032.3144629,W,1,24,0.7,13.173,M,-29.744,M,0.0,*52
###2023-12-09 13:14:13.774992$GNGGA,181412.90,4138.0458621,N,07032.3147491,W,1,24,0.7,13.170,M,-29.744,M,0.0,*55
###2023-12-09 13:14:13.978026$GNRMC,181413.10,A,4138.0458409,N,07032.3150340,W,3.89,266.39,091223,,,A*50
###2023-12-09 13:14:13.980923$GNGGA,181413.10,4138.0458409,N,07032.3150340,W,1,24,0.7,13.172,M,-29.744,M,0.0,*5B
###2023-12-09 13:14:13.982731$GPGSA,A,3,03,04,16,26,28,29,31,,,,,,1.2,0.7,1.0*30
###2023-12-09 13:14:13.984455$GLGSA,A,3,65,71,72,73,74,75,,,,,,,1.2,0.7,1.0*2E
###2023-12-09 13:14:13.986037$GAGSA,A,3,04,19,21,27,,,,,,,,,1.2,0.7,1.0*2C
###2023-12-09 13:14:13.987764$GBGSA,A,3,14,24,25,26,33,35,,,,,,,1.2,0.7,1.0*23
###2023-12-09 13:14:13.990097$GPGSV,2,1,07,03,32,255,42,04,38,311,43,16,56,215,47,26,86,209,48*7C
###2023-12-09 13:14:13.992156$GPGSV,2,2,07,28,45,076,45,29,24,055,41,31,65,050,47,,,,*4A
###2023-12-09 13:14:13.994486$GLGSV,2,1,06,65,29,325,40,71,34,174,46,72,71,246,44,73,31,045,43*6A
###2023-12-09 13:14:13.996241$GLGSV,2,2,06,74,66,353,42,75,36,259,43,,,,,,,,*6D
###2023-12-09 13:14:13.998577$GAGSV,1,1,04,04,33,312,41,19,80,192,40,21,84,066,46,27,29,048,40*68
###2023-12-09 13:14:14.000911$GBGSV,2,1,06,14,38,192,42,24,70,034,49,25,44,267,44,26,22,065,43*63
###2023-12-09 13:14:14.002667$GBGSV,2,2,06,33,53,226,47,35,15,065,45,,,,,,,,*6E
###2023-12-09 13:14:14.003995$GNVTG,266.39,T,,M,3.89,N,7.20,K,A*2C
###2023-12-09 13:14:14.005642$GNGST,181413.10,18.000,,,,0.098,0.074,0.170*55
###2023-12-09 13:14:14.006952$GNZDA,181413.10,09,12,2023,00,00*7E
###2023-12-09 13:14:14.007596$GNEBP,,,,,,M*13
###2023-12-09 13:14:14.173899$GNGGA,181413.30,4138.0458402,N,07032.3153202,W,1,24,0.7,13.183,M,-29.744,M,0.0,*58
###2023-12-09 13:14:14.373065$GNGGA,181413.50,4138.0458472,N,07032.3156053,W,1,24,0.7,13.192,M,-29.744,M,0.0,*5A
###2023-12-09 13:14:14.573822$GNGGA,181413.70,4138.0458481,N,07032.3158832,W,1,24,0.7,13.186,M,-29.744,M,0.0,*50
###2023-12-09 13:14:14.773029$GNGGA,181413.90,4138.0458569,N,07032.3161609,W,1,24,0.7,13.190,M,-29.744,M,0.0,*52
###2023-12-09 13:14:14.977789$GNRMC,181414.10,A,4138.0458757,N,07032.3164363,W,3.77,276.14,091223,,,A*56
###2023-12-09 13:14:14.980670$GNGGA,181414.10,4138.0458757,N,07032.3164363,W,1,24,0.7,13.194,M,-29.744,M,0.0,*5A
###2023-12-09 13:14:14.982460$GPGSA,A,3,03,04,16,26,28,29,31,,,,,,1.2,0.7,1.0*30
###2023-12-09 13:14:14.984195$GLGSA,A,3,65,71,72,73,74,75,,,,,,,1.2,0.7,1.0*2E
###2023-12-09 13:14:14.985773$GAGSA,A,3,04,19,21,27,,,,,,,,,1.2,0.7,1.0*2C
###2023-12-09 13:14:14.987496$GBGSA,A,3,14,24,25,26,33,35,,,,,,,1.2,0.7,1.0*23
###2023-12-09 13:14:14.989821$GPGSV,2,1,07,03,32,255,41,04,38,311,42,16,56,215,46,26,86,209,49*7E
###2023-12-09 13:14:14.991872$GPGSV,2,2,07,28,45,076,45,29,24,055,41,31,65,050,48,,,,*45
###2023-12-09 13:14:14.994205$GLGSV,2,1,06,65,29,325,40,71,34,174,46,72,71,246,44,73,31,045,41*68
###2023-12-09 13:14:14.995958$GLGSV,2,2,06,74,66,353,42,75,36,259,42,,,,,,,,*6C
###2023-12-09 13:14:14.998294$GAGSV,1,1,04,04,33,312,39,19,80,192,40,21,84,066,46,27,29,048,40*67
###2023-12-09 13:14:15.000630$GBGSV,2,1,06,14,38,192,44,24,70,034,49,25,44,267,44,26,22,065,43*65
###2023-12-09 13:14:15.002378$GBGSV,2,2,06,33,53,226,47,35,15,065,44,,,,,,,,*6F
###2023-12-09 13:14:15.003709$GNVTG,276.14,T,,M,3.77,N,6.98,K,A*21
###2023-12-09 13:14:15.005355$GNGST,181414.10,18.000,,,,0.098,0.074,0.170*52
###2023-12-09 13:14:15.006685$GNZDA,181414.10,09,12,2023,00,00*79
###2023-12-09 13:14:15.007327$GNEBP,,,,,,M*13
###2023-12-09 13:14:15.175952$GNGGA,181414.30,4138.0458972,N,07032.3167161,W,1,24,0.7,13.186,M,-29.744,M,0.0,*51
###2023-12-09 13:14:15.374154$GNGGA,181414.50,4138.0459150,N,07032.3169957,W,1,24,0.7,13.192,M,-29.744,M,0.0,*58
###2023-12-09 13:14:15.574904$GNGGA,181414.70,4138.0459464,N,07032.3172772,W,1,24,0.7,13.205,M,-29.744,M,0.0,*56
###2023-12-09 13:14:15.773611$GNGGA,181414.90,4138.0459675,N,07032.3175608,W,1,24,0.7,13.199,M,-29.744,M,0.0,*57
###2023-12-09 13:14:15.983833$GNRMC,181415.10,A,4138.0459543,N,07032.3178360,W,3.67,263.90,091223,,,A*56
###2023-12-09 13:14:15.986699$GNGGA,181415.10,4138.0459543,N,07032.3178360,W,1,24,0.7,13.176,M,-29.744,M,0.0,*5F
###2023-12-09 13:14:15.988493$GPGSA,A,3,03,04,16,26,28,29,31,,,,,,1.2,0.7,1.0*30
###2023-12-09 13:14:15.990212$GLGSA,A,3,65,71,72,73,74,75,,,,,,,1.2,0.7,1.0*2E
###2023-12-09 13:14:15.991798$GAGSA,A,3,04,19,21,27,,,,,,,,,1.2,0.7,1.0*2C
