###2023-12-09 13:06:19.973332$GNGGA,180619.10,4138.0712464,N,07032.3032794,W,1,24,0.6,13.279,M,-29.742,M,0.0,*53
###2023-12-09 13:06:19.975220$GPGSA,A,3,03,04,16,26,28,29,31,32,,,,,1.1,0.6,0.9*3B
###2023-12-09 13:06:19.976937$GLGSA,A,3,65,71,72,73,74,75,,,,,,,1.1,0.6,0.9*24
###2023-12-09 13:06:19.978511$GAGSA,A,3,04,19,21,27,,,,,,,,,1.1,0.6,0.9*26
###2023-12-09 13:06:19.980180$GBGSA,A,3,14,24,25,26,33,,,,,,,,1.1,0.6,0.9*2F
###2023-12-09 13:06:19.982510$GPGSV,2,1,08,03,34,259,43,04,34,311,43,16,52,213,46,26,82,210,48*7B
###2023-12-09 13:06:19.984855$GPGSV,2,2,08,28,48,072,45,29,25,059,43,31,68,042,47,32,17,141,44*7E
###2023-12-09 13:06:19.987202$GLGSV,2,1,06,65,26,327,41,71,39,173,46,72,73,261,45,73,34,043,44*6E
###2023-12-09 13:06:19.988961$GLGSV,2,2,06,74,69,343,43,75,33,255,43,,,,,,,,*6B
###2023-12-09 13:06:19.991309$GAGSV,1,1,04,04,31,312,41,19,83,203,40,21,85,094,46,27,31,048,41*66
###2023-12-09 13:06:19.993631$GBGSV,2,1,05,14,42,192,44,24,72,028,49,25,42,263,44,26,25,063,43*67
###2023-12-09 13:06:19.995101$GBGSV,2,2,05,33,56,230,47,,,,,,,,,,,,*5F
###2023-12-09 13:06:19.996424$GNVTG,264.90,T,,M,3.67,N,6.80,K,A*26
###2023-12-09 13:06:19.998066$GNGST,180619.10,18.000,,,,0.081,0.069,0.160*59
###2023-12-09 13:06:19.999370$GNZDA,180619.10,09,12,2023,00,00*77
###2023-12-09 13:06:20.000011$GNEBP,,,,,,M*13
###2023-12-09 13:06:20.167628$GNGGA,180619.30,4138.0712220,N,07032.3035477,W,1,24,0.6,13.279,M,-29.742,M,0.0,*5E
###2023-12-09 13:06:20.368332$GNGGA,180619.50,4138.0711949,N,07032.3038157,W,1,24,0.6,13.279,M,-29.742,M,0.0,*55
###2023-12-09 13:06:20.568544$GNGGA,180619.70,4138.0711682,N,07032.3040821,W,1,24,0.6,13.270,M,-29.742,M,0.0,*51
###2023-12-09 13:06:20.768595$GNGGA,180619.90,4138.0711444,N,07032.3043464,W,1,24,0.6,13.243,M,-29.742,M,0.0,*59
###2023-12-09 13:06:20.977745$GNRMC,180620.10,A,4138.0711320,N,07032.3046072,W,3.40,268.27,091223,,,A*51
###2023-12-09 13:06:20.980624$GNGGA,180620.10,4138.0711320,N,07032.3046072,W,1,24,0.6,13.242,M,-29.743,M,0.0,*58
###2023-12-09 13:06:20.982480$GPGSA,A,3,03,04,16,26,28,29,31,32,,,,,1.1,0.6,0.9*3B
###2023-12-09 13:06:20.984208$GLGSA,A,3,65,71,72,73,74,75,,,,,,,1.1,0.6,0.9*24
###2023-12-09 13:06:20.985784$GAGSA,A,3,04,19,21,27,,,,,,,,,1.1,0.6,0.9*26
###2023-12-09 13:06:20.987445$GBGSA,A,3,14,24,25,26,33,,,,,,,,1.1,0.6,0.9*2F
###2023-12-09 13:06:20.989760$GPGSV,2,1,08,03,34,259,43,04,34,311,41,16,52,213,46,26,82,210,47*76
###2023-12-09 13:06:20.992109$GPGSV,2,2,08,28,48,072,45,29,25,059,42,31,68,042,47,32,17,141,43*78
###2023-12-09 13:06:20.994434$GLGSV,2,1,06,65,26,327,40,71,39,173,46,72,73,261,45,73,34,043,44*6F
###2023-12-09 13:06:20.996202$GLGSV,2,2,06,74,69,343,42,75,33,255,42,,,,,,,,*6B
###2023-12-09 13:06:20.998528$GAGSV,1,1,04,04,31,312,39,19,83,203,40,21,85,094,46,27,31,048,41*69
###2023-12-09 13:06:21.000867$GBGSV,2,1,05,14,42,192,44,24,72,028,48,25,42,263,44,26,25,063,42*67
###2023-12-09 13:06:21.002317$GBGSV,2,2,05,33,56,230,47,,,,,,,,,,,,*5F
###2023-12-09 13:06:21.003651$GNVTG,268.27,T,,M,3.40,N,6.30,K,A*28
###2023-12-09 13:06:21.005294$GNGST,180620.10,18.000,,,,0.081,0.068,0.160*52
###2023-12-09 13:06:21.006592$GNZDA,180620.10,09,12,2023,00,00*7D
###2023-12-09 13:06:21.007230$GNEBP,,,,,,M*13
###2023-12-09 13:06:21.170881$GNGGA,180620.30,4138.0711266,N,07032.3048614,W,1,24,0.6,13.261,M,-29.743,M,0.0,*50
###2023-12-09 13:06:21.368201$GNGGA,180620.50,4138.0711129,N,07032.3051104,W,1,24,0.6,13.254,M,-29.743,M,0.0,*56
###2023-12-09 13:06:21.568608$GNGGA,180620.70,4138.0711108,N,07032.3053561,W,1,24,0.6,13.235,M,-29.743,M,0.0,*55
###2023-12-09 13:06:21.768902$GNGGA,180620.90,4138.0711377,N,07032.3055989,W,1,24,0.6,13.246,M,-29.743,M,0.0,*59
###2023-12-09 13:06:21.971080$GNRMC,180621.10,A,4138.0711698,N,07032.3058401,W,3.30,279.98,091223,,,A*5A
###2023-12-09 13:06:21.973917$GNGGA,180621.10,4138.0711698,N,07032.3058401,W,1,24,0.6,13.252,M,-29.743,M,0.0,*51
###2023-12-09 13:06:21.975798$GPGSA,A,3,03,04,16,26,28,29,31,32,,,,,1.1,0.6,0.9*3B
###2023-12-09 13:06:21.977516$GLGSA,A,3,65,71,72,73,74,75,,,,,,,1.1,0.6,0.9*24
###2023-12-09 13:06:21.979123$GAGSA,A,3,04,19,21,27,,,,,,,,,1.1,0.6,0.9*26
###2023-12-09 13:06:21.980774$GBGSA,A,3,14,24,25,26,33,,,,,,,,1.1,0.6,0.9*2F
###2023-12-09 13:06:21.983126$GPGSV,2,1,08,03,34,259,40,04,34,311,41,16,52,213,45,26,82,210,47*76
###2023-12-09 13:06:21.985465$GPGSV,2,2,08,28,48,072,45,29,25,059,41,31,68,042,47,32,17,141,43*7B
###2023-12-09 13:06:21.987821$GLGSV,2,1,06,65,26,327,38,71,39,173,46,72,73,261,45,73,34,043,45*61
###2023-12-09 13:06:21.989571$GLGSV,2,2,06,74,69,343,42,75,33,255,42,,,,,,,,*6B
###2023-12-09 13:06:21.991909$GAGSV,1,1,04,04,31,312,39,19,83,203,40,21,85,094,46,27,31,048,41*69
###2023-12-09 13:06:21.994243$GBGSV,2,1,05,14,41,192,46,24,72,028,49,25,42,263,44,26,25,063,43*66
###2023-12-09 13:06:21.995711$GBGSV,2,2,05,33,56,230,48,,,,,,,,,,,,*50
###2023-12-09 13:06:21.997032$GNVTG,279.98,T,,M,3.30,N,6.12,K,A*2B
###2023-12-09 13:06:21.998695$GNGST,180621.10,18.000,,,,0.081,0.069,0.160*52
###2023-12-09 13:06:21.999989$GNZDA,180621.10,09,12,2023,00,00*7C
###2023-12-09 13:06:22.000626$GNEBP,,,,,,M*13
###2023-12-09 13:06:22.170821$GNGGA,180621.30,4138.0711830,N,07032.3060759,W,1,24,0.6,13.224,M,-29.743,M,0.0,*5B
###2023-12-09 13:06:22.369929$GNGGA,180621.50,4138.0711982,N,07032.3063155,W,1,24,0.6,13.209,M,-29.743,M,0.0,*53
###2023-12-09 13:06:22.571031$GNGGA,180621.70,4138.0712344,N,07032.3065538,W,1,24,0.6,13.211,M,-29.743,M,0.0,*52
###2023-12-09 13:06:22.768592$GNGGA,180621.90,4138.0712843,N,07032.3067890,W,1,24,0.6,13.230,M,-29.743,M,0.0,*5E
###2023-12-09 13:06:22.971528$GNRMC,180622.10,A,4138.0713240,N,07032.3070298,W,3.38,277.66,091223,,,A*51
###2023-12-09 13:06:22.974387$GNGGA,180622.10,4138.0713240,N,07032.3070298,W,1,24,0.6,13.224,M,-29.743,M,0.0,*5C
###2023-12-09 13:06:22.976256$GPGSA,A,3,03,04,16,26,28,29,31,32,,,,,1.1,0.6,0.9*3B
###2023-12-09 13:06:22.977966$GLGSA,A,3,65,71,72,73,74,75,,,,,,,1.1,0.6,0.9*24
###2023-12-09 13:06:22.979565$GAGSA,A,3,04,19,21,27,,,,,,,,,1.1,0.6,0.9*26
###2023-12-09 13:06:22.981216$GBGSA,A,3,14,24,25,26,33,,,,,,,,1.1,0.6,0.9*2F
###2023-12-09 13:06:22.983568$GPGSV,2,1,08,03,34,259,40,04,34,311,42,16,52,213,45,26,82,210,47*75
###2023-12-09 13:06:22.985895$GPGSV,2,2,08,28,48,072,45,29,25,059,42,31,68,042,47,32,17,141,43*78
###2023-12-09 13:06:22.988238$GLGSV,2,1,06,65,26,327,40,71,39,173,46,72,73,261,45,73,34,043,45*6E
###2023-12-09 13:06:22.989986$GLGSV,2,2,06,74,69,343,42,75,33,255,42,,,,,,,,*6B
###2023-12-09 13:06:22.992328$GAGSV,1,1,04,04,31,312,40,19,83,203,40,21,85,094,46,27,31,048,41*67
###2023-12-09 13:06:22.994668$GBGSV,2,1,05,14,41,192,45,24,72,028,49,25,42,263,44,26,25,063,43*65
###2023-12-09 13:06:22.996123$GBGSV,2,2,05,33,56,230,48,,,,,,,,,,,,*50
###2023-12-09 13:06:22.997444$GNVTG,277.66,T,,M,3.38,N,6.26,K,A*2B
###2023-12-09 13:06:22.999099$GNGST,180622.10,18.000,,,,0.082,0.069,0.160*52
###2023-12-09 13:06:23.000386$GNZDA,180622.10,09,12,2023,00,00*7F
###2023-12-09 13:06:23.001023$GNEBP,,,,,,M*13
###2023-12-09 13:06:23.173782$GNGGA,180622.30,4138.0713430,N,07032.3072729,W,1,24,0.6,13.200,M,-29.743,M,0.0,*54
###2023-12-09 13:06:23.368827$GNGGA,180622.50,4138.0713698,N,07032.3075188,W,1,24,0.6,13.186,M,-29.743,M,0.0,*55
###2023-12-09 13:06:23.570350$GNGGA,180622.70,4138.0714148,N,07032.3077660,W,1,24,0.6,13.195,M,-29.743,M,0.0,*5B
###2023-12-09 13:06:23.769957$GNGGA,180622.90,4138.0714565,N,07032.3080174,W,1,24,0.6,13.201,M,-29.743,M,0.0,*5A
###2023-12-09 13:06:23.973132$GNRMC,180623.10,A,4138.0714621,N,07032.3082636,W,3.30,268.14,091223,,,A*5A
###2023-12-09 13:06:23.976022$GNGGA,180623.10,4138.0714621,N,07032.3082636,W,1,24,0.6,13.190,M,-29.743,M,0.0,*58
###2023-12-09 13:06:23.977873$GPGSA,A,3,03,04,16,26,28,29,31,32,,,,,1.1,0.6,0.9*3B
###2023-12-09 13:06:23.979594$GLGSA,A,3,65,71,72,73,74,75,,,,,,,1.1,0.6,0.9*24
###2023-12-09 13:06:23.981180$GAGSA,A,3,04,19,21,27,,,,,,,,,1.1,0.6,0.9*26
###2023-12-09 13:06:23.982832$GBGSA,A,3,14,24,25,26,33,,,,,,,,1.1,0.6,0.9*2F
###2023-12-09 13:06:23.985159$GPGSV,2,1,08,03,34,259,42,04,34,311,42,16,52,213,46,26,82,210,48*7B
###2023-12-09 13:06:23.987509$GPGSV,2,2,08,28,48,072,45,29,25,059,43,31,68,042,47,32,17,141,43*79
###2023-12-09 13:06:23.990077$GLGSV,2,1,06,65,26,327,41,71,39,173,46,72,73,261,45,73,34,043,45*6F
###2023-12-09 13:06:23.991863$GLGSV,2,2,06,74,69,343,42,75,33,255,42,,,,,,,,*6B
###2023-12-09 13:06:23.994204$GAGSV,1,1,04,04,31,312,41,19,83,203,40,21,85,092,46,27,31,048,42*63
###2023-12-09 13:06:23.996542$GBGSV,2,1,05,14,41,192,45,24,72,028,49,25,42,263,43,26,25,063,43*62
###2023-12-09 13:06:23.997998$GBGSV,2,2,05,33,56,230,48,,,,,,,,,,,,*50
###2023-12-09 13:06:23.999328$GNVTG,268.14,T,,M,3.30,N,6.12,K,A*2F
###2023-12-09 13:06:24.000978$GNGST,180623.10,18.000,,,,0.082,0.069,0.160*53
###2023-12-09 13:06:24.002266$GNZDA,180623.10,09,12,2023,00,00*7E
###2023-12-09 13:06:24.002914$GNEBP,,,,,,M*13
