###2023-12-09 12:29:43.956124$GNEBP,,,,,,M*13
###2023-12-09 12:29:44.121670$GNGGA,172943.30,4138.0384821,N,07032.4367203,W,1,18,0.7,12.701,M,-29.746,M,0.0,*54
###2023-12-09 12:29:44.321601$GNGGA,172943.50,4138.0384832,N,07032.4367186,W,1,18,0.7,12.713,M,-29.746,M,0.0,*5D
###2023-12-09 12:29:44.521825$GNGGA,172943.70,4138.0384842,N,07032.4367139,W,1,18,0.7,12.728,M,-29.746,M,0.0,*54
###2023-12-09 12:29:44.720906$GNGGA,172943.90,4138.0384849,N,07032.4367084,W,1,18,0.7,12.740,M,-29.746,M,0.0,*58
###2023-12-09 12:29:44.926046$GNRMC,172944.10,A,4138.0384862,N,07032.4367032,W,0.02,,091223,,,A*45
###2023-12-09 12:29:44.929190$GNGGA,172944.10,4138.0384862,N,07032.4367032,W,1,18,0.7,12.751,M,-29.746,M,0.0,*53
###2023-12-09 12:29:44.931121$GPGSA,A,3,03,04,16,26,28,29,31,32,,,,,1.4,0.7,1.2*35
###2023-12-09 12:29:44.932789$GLGSA,A,3,71,72,73,75,,,,,,,,,1.4,0.7,1.2*2A
###2023-12-09 12:29:44.934285$GAGSA,A,3,21,27,,,,,,,,,,,1.4,0.7,1.2*24
###2023-12-09 12:29:44.935920$GBGSA,A,3,14,25,26,33,,,,,,,,,1.4,0.7,1.2*27
###2023-12-09 12:29:44.938284$GPGSV,2,1,08,03,39,280,39,04,20,310,36,16,34,206,44,26,64,206,43*7B
###2023-12-09 12:29:44.940674$GPGSV,2,2,08,28,60,053,45,29,25,076,44,31,73,353,44,32,32,133,48*79
###2023-12-09 12:29:44.943058$GLGSV,1,1,04,71,60,168,48,72,63,314,43,73,50,032,43,75,20,239,37*68
###2023-12-09 12:29:44.944844$GAGSV,1,1,02,21,75,179,39,27,43,050,44,,,,,,,,*69
###2023-12-09 12:29:44.947250$GBGSV,1,1,04,14,57,199,45,25,31,251,38,26,37,056,46,33,64,260,40*63
###2023-12-09 12:29:44.948455$GNVTG,,T,,M,0.02,N,0.04,K,A*3B
###2023-12-09 12:29:44.950150$GNGST,172944.10,31.000,,,,0.110,0.120,0.290*51
###2023-12-09 12:29:44.951511$GNZDA,172944.10,09,12,2023,00,00*7D
###2023-12-09 12:29:44.952199$GNEBP,,,,,,M*13
###2023-12-09 12:29:45.124314$GNGGA,172944.30,4138.0384868,N,07032.4366988,W,1,19,0.7,12.762,M,-29.746,M,0.0,*53
###2023-12-09 12:29:45.321971$GNGGA,172944.50,4138.0384884,N,07032.4366952,W,1,19,0.7,12.774,M,-29.746,M,0.0,*57
###2023-12-09 12:29:45.523027$GNGGA,172944.70,4138.0384885,N,07032.4366910,W,1,19,0.7,12.790,M,-29.746,M,0.0,*58
###2023-12-09 12:29:45.722202$GNGGA,172944.90,4138.0384900,N,07032.4366874,W,1,18,0.7,12.805,M,-29.746,M,0.0,*5B
###2023-12-09 12:29:45.923353$GNRMC,172945.10,A,4138.0384911,N,07032.4366836,W,0.02,,091223,,,A*4C
###2023-12-09 12:29:45.926314$GNGGA,172945.10,4138.0384911,N,07032.4366836,W,1,18,0.7,12.818,M,-29.746,M,0.0,*58
###2023-12-09 12:29:45.928241$GPGSA,A,3,03,04,16,26,28,29,31,32,,,,,1.4,0.7,1.2*35
###2023-12-09 12:29:45.929878$GLGSA,A,3,71,72,73,75,,,,,,,,,1.4,0.7,1.2*2A
###2023-12-09 12:29:45.931392$GAGSA,A,3,21,27,,,,,,,,,,,1.4,0.7,1.2*24
###2023-12-09 12:29:45.933015$GBGSA,A,3,14,25,26,33,,,,,,,,,1.4,0.7,1.2*27
###2023-12-09 12:29:45.935388$GPGSV,2,1,08,03,39,280,39,04,20,310,36,16,34,206,44,26,64,206,43*7B
###2023-12-09 12:29:45.937751$GPGSV,2,2,08,28,60,053,46,29,25,076,44,31,73,353,45,32,32,133,49*7A
###2023-12-09 12:29:45.940133$GLGSV,1,1,04,71,60,168,48,72,63,314,43,73,50,032,43,75,20,239,37*68
###2023-12-09 12:29:45.941923$GAGSV,1,1,02,21,75,179,39,27,43,050,44,,,,,,,,*69
###2023-12-09 12:29:45.944323$GBGSV,1,1,04,14,57,199,45,25,31,251,38,26,37,056,46,33,64,260,39*6D
###2023-12-09 12:29:45.945499$GNVTG,,T,,M,0.02,N,0.04,K,A*3B
###2023-12-09 12:29:45.947220$GNGST,172945.10,31.000,,,,0.110,0.120,0.290*50
###2023-12-09 12:29:45.948589$GNZDA,172945.10,09,12,2023,00,00*7C
###2023-12-09 12:29:45.949277$GNEBP,,,,,,M*13
###2023-12-09 12:29:46.123074$GNGGA,172945.30,4138.0384911,N,07032.4366809,W,1,18,0.7,12.830,M,-29.746,M,0.0,*5C
###2023-12-09 12:29:46.323358$GNGGA,172945.50,4138.0384899,N,07032.4366782,W,1,18,0.7,12.839,M,-29.746,M,0.0,*5E
###2023-12-09 12:29:46.523017$GNGGA,172945.70,4138.0384888,N,07032.4366758,W,1,19,0.7,12.847,M,-29.746,M,0.0,*53
###2023-12-09 12:29:46.722191$GNGGA,172945.90,4138.0384876,N,07032.4366737,W,1,18,0.7,12.852,M,-29.746,M,0.0,*50
###2023-12-09 12:29:46.924736$GNRMC,172946.10,A,4138.0384863,N,07032.4366702,W,0.04,,091223,,,A*45
###2023-12-09 12:29:46.927641$GNGGA,172946.10,4138.0384863,N,07032.4366702,W,1,18,0.7,12.859,M,-29.746,M,0.0,*52
###2023-12-09 12:29:46.929534$GPGSA,A,3,03,04,16,26,28,29,31,32,,,,,1.4,0.7,1.2*35
###2023-12-09 12:29:46.931164$GLGSA,A,3,71,72,73,75,,,,,,,,,1.4,0.7,1.2*2A
###2023-12-09 12:29:46.932643$GAGSA,A,3,21,27,,,,,,,,,,,1.4,0.7,1.2*24
###2023-12-09 12:29:46.934241$GBGSA,A,3,14,25,26,33,,,,,,,,,1.4,0.7,1.2*27
###2023-12-09 12:29:46.936604$GPGSV,2,1,08,03,39,280,39,04,20,310,36,16,34,206,44,26,64,206,43*7B
###2023-12-09 12:29:46.938981$GPGSV,2,2,08,28,60,053,45,29,25,076,44,31,73,353,44,32,32,133,49*78
###2023-12-09 12:29:46.941337$GLGSV,1,1,04,71,60,168,48,72,63,314,44,73,50,032,43,75,20,239,37*6F
###2023-12-09 12:29:46.943113$GAGSV,1,1,02,21,75,179,38,27,43,050,43,,,,,,,,*6F
###2023-12-09 12:29:46.945462$GBGSV,1,1,04,14,57,199,45,25,31,251,38,26,37,056,45,33,64,260,39*6E
###2023-12-09 12:29:46.946653$GNVTG,,T,,M,0.04,N,0.07,K,A*3E
###2023-12-09 12:29:46.948344$GNGST,172946.10,31.000,,,,0.110,0.120,0.290*53
###2023-12-09 12:29:46.949661$GNZDA,172946.10,09,12,2023,00,00*7F
###2023-12-09 12:29:46.950317$GNEBP,,,,,,M*13
###2023-12-09 12:29:47.122856$GNGGA,172946.30,4138.0384855,N,07032.4366675,W,1,18,0.7,12.864,M,-29.746,M,0.0,*5A
###2023-12-09 12:29:47.323168$GNGGA,172946.50,4138.0384839,N,07032.4366664,W,1,18,0.7,12.865,M,-29.746,M,0.0,*57
###2023-12-09 12:29:47.524452$GNGGA,172946.70,4138.0384826,N,07032.4366651,W,1,18,0.7,12.871,M,-29.746,M,0.0,*58
###2023-12-09 12:29:47.721056$GNGGA,172946.90,4138.0384808,N,07032.4366642,W,1,18,0.7,12.876,M,-29.746,M,0.0,*5F
###2023-12-09 12:29:47.923190$GNRMC,172947.10,A,4138.0384787,N,07032.4366617,W,0.04,,091223,,,A*44
###2023-12-09 12:29:47.926052$GNGGA,172947.10,4138.0384787,N,07032.4366617,W,1,18,0.7,12.882,M,-29.746,M,0.0,*55
###2023-12-09 12:29:47.927946$GPGSA,A,3,03,04,16,26,28,29,31,32,,,,,1.4,0.7,1.2*35
###2023-12-09 12:29:47.929548$GLGSA,A,3,71,72,73,75,,,,,,,,,1.4,0.7,1.2*2A
###2023-12-09 12:29:47.931027$GAGSA,A,3,21,27,,,,,,,,,,,1.4,0.7,1.2*24
###2023-12-09 12:29:47.932617$GBGSA,A,3,14,25,26,33,,,,,,,,,1.4,0.7,1.2*27
###2023-12-09 12:29:47.934954$GPGSV,2,1,08,03,39,280,39,04,20,310,36,16,34,206,44,26,64,206,43*7B
###2023-12-09 12:29:47.937281$GPGSV,2,2,08,28,60,053,45,29,25,076,44,31,73,353,45,32,32,133,49*79
###2023-12-09 12:29:47.939619$GLGSV,1,1,04,71,60,168,48,72,63,314,44,73,50,032,43,75,20,239,36*6E
###2023-12-09 12:29:47.941367$GAGSV,1,1,02,21,75,179,39,27,43,050,44,,,,,,,,*69
###2023-12-09 12:29:47.943701$GBGSV,1,1,04,14,57,199,44,25,31,251,38,26,37,056,44,33,64,260,39*6E
###2023-12-09 12:29:47.944844$GNVTG,,T,,M,0.04,N,0.07,K,A*3E
###2023-12-09 12:29:47.946495$GNGST,172947.10,31.000,,,,0.110,0.120,0.290*52
###2023-12-09 12:29:47.947828$GNZDA,172947.10,09,12,2023,00,00*7E
###2023-12-09 12:29:47.948489$GNEBP,,,,,,M*13
###2023-12-09 12:29:48.124107$GNGGA,172947.30,4138.0384776,N,07032.4366608,W,1,18,0.7,12.885,M,-29.746,M,0.0,*50
###2023-12-09 12:29:48.322981$GNGGA,172947.50,4138.0384758,N,07032.4366592,W,1,18,0.7,12.888,M,-29.746,M,0.0,*57
###2023-12-09 12:29:48.523051$GNGGA,172947.70,4138.0384818,N,07032.4366765,W,1,18,0.7,12.846,M,-29.746,M,0.0,*56
###2023-12-09 12:29:48.721956$GNGGA,172947.90,4138.0384876,N,07032.4366936,W,1,18,0.7,12.802,M,-29.746,M,0.0,*58
###2023-12-09 12:29:48.923109$GNRMC,172948.10,A,4138.0384929,N,07032.4367073,W,0.00,,091223,,,A*40
###2023-12-09 12:29:48.926030$GNGGA,172948.10,4138.0384929,N,07032.4367073,W,1,18,0.7,12.769,M,-29.746,M,0.0,*5F
###2023-12-09 12:29:48.927955$GPGSA,A,3,03,04,16,26,28,29,31,32,,,,,1.4,0.7,1.2*35
###2023-12-09 12:29:48.929579$GLGSA,A,3,71,72,73,75,,,,,,,,,1.4,0.7,1.2*2A
###2023-12-09 12:29:48.931082$GAGSA,A,3,21,27,,,,,,,,,,,1.4,0.7,1.2*24
###2023-12-09 12:29:48.932696$GBGSA,A,3,14,25,26,33,,,,,,,,,1.4,0.7,1.2*27
###2023-12-09 12:29:48.935066$GPGSV,2,1,08,03,39,280,40,04,20,310,37,16,34,206,44,26,64,206,43*74
###2023-12-09 12:29:48.937421$GPGSV,2,2,08,28,60,053,45,29,25,076,44,31,73,353,45,32,32,133,49*79
###2023-12-09 12:29:48.939789$GLGSV,1,1,04,71,60,168,48,72,63,314,44,73,50,032,43,75,20,239,36*6E
###2023-12-09 12:29:48.941565$GAGSV,1,1,02,21,75,179,39,27,43,050,44,,,,,,,,*69
###2023-12-09 12:29:48.944213$GBGSV,1,1,04,14,57,199,45,25,31,251,39,26,37,056,45,33,64,260,39*6F
###2023-12-09 12:29:48.945404$GNVTG,,T,,M,0.00,N,0.00,K,A*3D
###2023-12-09 12:29:48.947147$GNGST,172948.10,31.000,,,,0.110,0.120,0.280*5C
###2023-12-09 12:29:48.948546$GNZDA,172948.10,09,12,2023,00,00*71
###2023-12-09 12:29:48.949235$GNEBP,,,,,,M*13
###2023-12-09 12:29:49.122939$GNGGA,172948.30,4138.0384975,N,07032.4367207,W,1,18,0.7,12.735,M,-29.746,M,0.0,*5C
###2023-12-09 12:29:49.323337$GNGGA,172948.50,4138.0385020,N,07032.4367334,W,1,18,0.7,12.703,M,-29.746,M,0.0,*56
###2023-12-09 12:29:49.521965$GNGGA,172948.70,4138.0385071,N,07032.4367459,W,1,18,0.7,12.673,M,-29.746,M,0.0,*5A
###2023-12-09 12:29:49.720987$GNGGA,172948.90,4138.0385119,N,07032.4367590,W,1,18,0.7,12.639,M,-29.746,M,0.0,*51
