###2023-12-09 13:32:17.001617$GAGSA,A,3,04,19,21,27,,,,,,,,,1.1,0.7,0.9*27
###2023-12-09 13:32:17.003319$GBGSA,A,3,24,25,26,33,35,,,,,,,,1.1,0.7,0.9*2D
###2023-12-09 13:32:17.005655$GPGSV,2,1,07,03,27,247,36,04,45,308,45,16,65,221,46,26,85,040,48*76
###2023-12-09 13:32:17.007714$GPGSV,2,2,07,28,39,084,45,29,21,048,42,31,60,064,46,,,,*45
###2023-12-09 13:32:17.010039$GLGSV,2,1,06,65,37,320,43,71,24,175,36,72,64,223,46,73,23,051,43*67
###2023-12-09 13:32:17.011799$GLGSV,2,2,06,74,61,011,42,75,42,269,48,,,,,,,,*64
###2023-12-09 13:32:17.014116$GAGSV,1,1,04,04,39,310,41,19,73,182,40,21,77,047,45,27,23,050,40*62
###2023-12-09 13:32:17.016463$GBGSV,2,1,05,24,64,044,49,25,50,275,47,26,17,070,44,33,47,218,45*69
###2023-12-09 13:32:17.017918$GBGSV,2,2,05,35,16,058,45,,,,,,,,,,,,*53
###2023-12-09 13:32:17.019229$GNVTG,97.99,T,,M,0.25,N,0.47,K,A*19
###2023-12-09 13:32:17.020837$GNGST,183216.10,6.000,,,,0.160,0.096,0.240*61
###2023-12-09 13:32:17.022121$GNZDA,183216.10,09,12,2023,00,00*7F
###2023-12-09 13:32:17.022770$GNEBP,,,,,,M*13
###2023-12-09 13:32:17.190624$GNGGA,183216.30,4138.0372257,N,07032.4155579,W,1,23,0.7,13.887,M,-29.745,M,0.0,*51
###2023-12-09 13:32:17.390695$GNGGA,183216.50,4138.0372120,N,07032.4155663,W,1,23,0.7,13.906,M,-29.745,M,0.0,*54
###2023-12-09 13:32:17.590296$GNGGA,183216.70,4138.0372005,N,07032.4155582,W,1,23,0.7,13.915,M,-29.745,M,0.0,*5E
###2023-12-09 13:32:17.790638$GNGGA,183216.90,4138.0371868,N,07032.4155383,W,1,23,0.7,13.909,M,-29.745,M,0.0,*5A
###2023-12-09 13:32:17.993175$GNRMC,183217.10,A,4138.0371722,N,07032.4155285,W,0.27,97.99,091223,,,A*6D
###2023-12-09 13:32:17.996072$GNGGA,183217.10,4138.0371722,N,07032.4155285,W,1,23,0.7,13.901,M,-29.745,M,0.0,*5D
###2023-12-09 13:32:17.997874$GPGSA,A,3,03,04,16,26,28,29,31,,,,,,1.1,0.7,0.9*3B
###2023-12-09 13:32:17.999604$GLGSA,A,3,65,71,72,73,74,75,,,,,,,1.1,0.7,0.9*25
###2023-12-09 13:32:18.001187$GAGSA,A,3,04,19,21,27,,,,,,,,,1.1,0.7,0.9*27
###2023-12-09 13:32:18.002844$GBGSA,A,3,24,25,26,33,35,,,,,,,,1.1,0.7,0.9*2D
###2023-12-09 13:32:18.005174$GPGSV,2,1,07,03,27,247,36,04,45,308,46,16,65,221,48,26,85,040,50*72
###2023-12-09 13:32:18.007215$GPGSV,2,2,07,28,39,084,47,29,21,048,43,31,60,064,49,,,,*49
###2023-12-09 13:32:18.009543$GLGSV,2,1,06,65,37,320,42,71,24,175,37,72,64,223,45,73,23,051,42*65
###2023-12-09 13:32:18.011301$GLGSV,2,2,06,74,61,011,44,75,42,269,45,,,,,,,,*6F
###2023-12-09 13:32:18.013630$GAGSV,1,1,04,04,39,310,45,19,73,182,41,21,77,047,48,27,23,050,40*6A
###2023-12-09 13:32:18.015969$GBGSV,2,1,05,24,64,044,49,25,50,275,47,26,17,070,44,33,47,218,44*68
###2023-12-09 13:32:18.017427$GBGSV,2,2,05,35,16,058,45,,,,,,,,,,,,*53
###2023-12-09 13:32:18.018730$GNVTG,97.99,T,,M,0.27,N,0.50,K,A*1D
###2023-12-09 13:32:18.020342$GNGST,183217.10,5.700,,,,0.160,0.096,0.240*64
###2023-12-09 13:32:18.021636$GNZDA,183217.10,09,12,2023,00,00*7E
###2023-12-09 13:32:18.022273$GNEBP,,,,,,M*13
###2023-12-09 13:32:18.191909$GNGGA,183217.30,4138.0371591,N,07032.4155325,W,1,23,0.7,13.892,M,-29.745,M,0.0,*55
###2023-12-09 13:32:18.395145$GNGGA,183217.50,4138.0371438,N,07032.4155230,W,1,22,0.8,13.884,M,-29.745,M,0.0,*5D
###2023-12-09 13:32:18.590422$GNGGA,183217.70,4138.0371300,N,07032.4155121,W,1,22,0.8,13.886,M,-29.745,M,0.0,*52
###2023-12-09 13:32:18.790678$GNGGA,183217.90,4138.0371157,N,07032.4155156,W,1,22,0.8,13.893,M,-29.745,M,0.0,*58
###2023-12-09 13:32:18.991403$GNRMC,183218.10,A,4138.0371032,N,07032.4155134,W,0.23,97.99,091223,,,A*69
###2023-12-09 13:32:18.994273$GNGGA,183218.10,4138.0371032,N,07032.4155134,W,1,22,0.8,13.886,M,-29.745,M,0.0,*5D
###2023-12-09 13:32:18.996083$GPGSA,A,3,03,04,16,26,28,29,31,,,,,,1.2,0.8,0.9*37
###2023-12-09 13:32:18.997730$GLGSA,A,3,65,72,73,74,75,,,,,,,,1.2,0.8,0.9*2F
###2023-12-09 13:32:18.999326$GAGSA,A,3,04,19,21,27,,,,,,,,,1.2,0.8,0.9*2B
###2023-12-09 13:32:19.000975$GBGSA,A,3,24,25,26,33,35,,,,,,,,1.2,0.8,0.9*21
###2023-12-09 13:32:19.003307$GPGSV,2,1,07,03,27,247,38,04,45,308,47,16,65,221,47,26,85,040,49*7A
###2023-12-09 13:32:19.005352$GPGSV,2,2,07,28,39,084,46,29,21,048,43,31,60,064,48,,,,*49
###2023-12-09 13:32:19.007693$GLGSV,2,1,05,65,37,320,44,72,64,223,46,73,23,051,42,74,61,011,43*67
###2023-12-09 13:32:19.009157$GLGSV,2,2,05,75,42,269,46,,,,,,,,,,,,*5B
###2023-12-09 13:32:19.011486$GAGSV,1,1,04,04,39,310,45,19,73,182,41,21,77,047,46,27,23,050,40*64
###2023-12-09 13:32:19.013804$GBGSV,2,1,05,24,64,044,49,25,50,275,47,26,17,070,45,33,47,218,46*6B
###2023-12-09 13:32:19.015261$GBGSV,2,2,05,35,16,058,45,,,,,,,,,,,,*53
###2023-12-09 13:32:19.016554$GNVTG,97.99,T,,M,0.23,N,0.43,K,A*1B
###2023-12-09 13:32:19.018168$GNGST,183218.10,5.500,,,,0.160,0.096,0.240*69
###2023-12-09 13:32:19.019474$GNZDA,183218.10,09,12,2023,00,00*71
###2023-12-09 13:32:19.020118$GNEBP,,,,,,M*13
###2023-12-09 13:32:19.190609$GNGGA,183218.30,4138.0370920,N,07032.4155022,W,1,23,0.8,13.867,M,-29.745,M,0.0,*5C
###2023-12-09 13:32:19.389883$GNGGA,183218.50,4138.0370769,N,07032.4154951,W,1,23,0.8,13.861,M,-29.745,M,0.0,*53
###2023-12-09 13:32:19.591498$GNGGA,183218.70,4138.0370657,N,07032.4154952,W,1,23,0.8,13.873,M,-29.745,M,0.0,*5D
###2023-12-09 13:32:19.790607$GNGGA,183218.90,4138.0370578,N,07032.4154964,W,1,23,0.8,13.885,M,-29.745,M,0.0,*51
###2023-12-09 13:32:19.993254$GNRMC,183219.10,A,4138.0370467,N,07032.4154972,W,0.29,97.99,091223,,,A*6C
###2023-12-09 13:32:19.996157$GNGGA,183219.10,4138.0370467,N,07032.4154972,W,1,23,0.8,13.889,M,-29.745,M,0.0,*5C
###2023-12-09 13:32:19.997963$GPGSA,A,3,03,04,16,26,28,29,31,,,,,,1.2,0.8,0.9*37
###2023-12-09 13:32:19.999701$GLGSA,A,3,65,72,73,74,75,83,,,,,,,1.2,0.8,0.9*24
###2023-12-09 13:32:20.001297$GAGSA,A,3,04,19,21,27,,,,,,,,,1.2,0.8,0.9*2B
###2023-12-09 13:32:20.002973$GBGSA,A,3,24,25,26,33,35,,,,,,,,1.2,0.8,0.9*21
###2023-12-09 13:32:20.005305$GPGSV,2,1,07,03,27,247,35,04,45,308,46,16,65,221,47,26,85,040,49*76
###2023-12-09 13:32:20.007360$GPGSV,2,2,07,28,39,084,45,29,21,048,43,31,60,064,48,,,,*4A
###2023-12-09 13:32:20.009695$GLGSV,2,1,06,65,37,320,44,72,64,223,45,73,23,051,43,74,61,011,43*66
###2023-12-09 13:32:20.011470$GLGSV,2,2,06,75,42,269,47,83,15,049,36,,,,,,,,*6E
###2023-12-09 13:32:20.013811$GAGSV,1,1,04,04,39,310,45,19,73,182,41,21,77,047,47,27,23,050,40*65
###2023-12-09 13:32:20.016173$GBGSV,2,1,05,24,64,044,48,25,50,275,46,26,17,070,43,33,47,218,44*6F
###2023-12-09 13:32:20.017640$GBGSV,2,2,05,35,16,058,44,,,,,,,,,,,,*52
###2023-12-09 13:32:20.018949$GNVTG,97.99,T,,M,0.29,N,0.54,K,A*17
###2023-12-09 13:32:20.020572$GNGST,183219.10,6.100,,,,0.160,0.096,0.240*6F
###2023-12-09 13:32:20.021869$GNZDA,183219.10,09,12,2023,00,00*70
###2023-12-09 13:32:20.022509$GNEBP,,,,,,M*13
###2023-12-09 13:32:20.191166$GNGGA,183219.30,4138.0370304,N,07032.4154846,W,1,23,0.8,13.882,M,-29.745,M,0.0,*51
###2023-12-09 13:32:20.390672$GNGGA,183219.50,4138.0370184,N,07032.4154708,W,1,23,0.8,13.865,M,-29.745,M,0.0,*51
###2023-12-09 13:32:20.594621$GNGGA,183219.70,4138.0370100,N,07032.4154756,W,1,23,0.8,13.867,M,-29.745,M,0.0,*56
###2023-12-09 13:32:20.791545$GNGGA,183219.90,4138.0370013,N,07032.4154870,W,1,23,0.8,13.882,M,-29.745,M,0.0,*5B
###2023-12-09 13:32:21.001908$GNRMC,183220.10,A,4138.0369909,N,07032.4154850,W,0.25,97.99,091223,,,A*66
###2023-12-09 13:32:21.004801$GNGGA,183220.10,4138.0369909,N,07032.4154850,W,1,23,0.8,13.893,M,-29.745,M,0.0,*51
###2023-12-09 13:32:21.006606$GPGSA,A,3,03,04,16,26,28,29,31,,,,,,1.2,0.8,0.9*37
###2023-12-09 13:32:21.008325$GLGSA,A,3,65,72,73,74,75,83,,,,,,,1.2,0.8,0.9*24
###2023-12-09 13:32:21.009908$GAGSA,A,3,04,19,21,27,,,,,,,,,1.2,0.8,0.9*2B
###2023-12-09 13:32:21.011569$GBGSA,A,3,24,25,26,33,35,,,,,,,,1.2,0.8,0.9*21
###2023-12-09 13:32:21.013904$GPGSV,2,1,07,03,27,247,36,04,45,308,46,16,65,221,46,26,85,040,47*7A
###2023-12-09 13:32:21.015963$GPGSV,2,2,07,28,39,084,42,29,21,048,40,31,60,064,45,,,,*43
###2023-12-09 13:32:21.018300$GLGSV,2,1,06,65,37,320,45,72,64,223,45,73,23,051,43,74,61,011,43*67
###2023-12-09 13:32:21.020062$GLGSV,2,2,06,75,42,269,47,83,15,049,36,,,,,,,,*6E
###2023-12-09 13:32:21.022403$GAGSV,1,1,04,04,39,310,44,19,73,182,40,21,77,047,44,27,23,050,40*66
###2023-12-09 13:32:21.024755$GBGSV,2,1,05,24,64,044,48,25,50,275,48,26,17,070,44,33,47,218,46*64
###2023-12-09 13:32:21.026470$GBGSV,2,2,05,35,16,058,43,,,,,,,,,,,,*55
###2023-12-09 13:32:21.027786$GNVTG,97.99,T,,M,0.25,N,0.47,K,A*19
###2023-12-09 13:32:21.029413$GNGST,183220.10,6.100,,,,0.160,0.096,0.240*65
###2023-12-09 13:32:21.030721$GNZDA,183220.10,09,12,2023,00,00*7A
###2023-12-09 13:32:21.031363$GNEBP,,,,,,M*13
###2023-12-09 13:32:21.196403$GNGGA,183220.30,4138.0369781,N,07032.4154695,W,1,23,0.8,13.888,M,-29.745,M,0.0,*50
###2023-12-09 13:32:21.390549$GNGGA,183220.50,4138.0369660,N,07032.4154574,W,1,23,0.8,13.869,M,-29.745,M,0.0,*5B
###2023-12-09 13:32:21.590974$GNGGA,183220.70,4138.0369603,N,07032.4154660,W,1,23,0.8,13.878,M,-29.745,M,0.0,*5A
