###2023-12-09 13:02:06.996238$GNGST,180206.10,18.000,,,,0.082,0.070,0.160*58
###2023-12-09 13:02:06.997558$GNZDA,180206.10,09,12,2023,00,00*7D
###2023-12-09 13:02:06.998205$GNEBP,,,,,,M*13
###2023-12-09 13:02:07.164981$GNGGA,180206.30,4138.0465254,N,07032.2971441,W,1,24,0.6,13.460,M,-29.743,M,0.0,*56
###2023-12-09 13:02:07.366181$GNGGA,180206.50,4138.0465230,N,07032.2973890,W,1,24,0.6,13.456,M,-29.743,M,0.0,*55
###2023-12-09 13:02:07.564830$GNGGA,180206.70,4138.0465281,N,07032.2976515,W,1,24,0.6,13.472,M,-29.743,M,0.0,*5E
###2023-12-09 13:02:07.767759$GNGGA,180206.90,4138.0465249,N,07032.2979203,W,1,24,0.6,13.486,M,-29.743,M,0.0,*50
###2023-12-09 13:02:07.967948$GNRMC,180207.10,A,4138.0464926,N,07032.2981789,W,3.54,255.02,091223,,,A*51
###2023-12-09 13:02:07.970830$GNGGA,180207.10,4138.0464926,N,07032.2981789,W,1,24,0.6,13.489,M,-29.743,M,0.0,*55
###2023-12-09 13:02:07.972700$GPGSA,A,3,03,04,16,26,28,29,31,32,,,,,1.1,0.6,0.9*3B
###2023-12-09 13:02:07.974415$GLGSA,A,3,65,71,72,73,74,75,,,,,,,1.1,0.6,0.9*24
###2023-12-09 13:02:07.976016$GAGSA,A,3,04,19,21,27,,,,,,,,,1.1,0.6,0.9*26
###2023-12-09 13:02:07.977664$GBGSA,A,3,14,24,25,26,33,,,,,,,,1.1,0.6,0.9*2F
###2023-12-09 13:02:07.980016$GPGSV,2,1,08,03,35,261,42,04,33,311,43,16,50,212,45,26,80,210,48*75
###2023-12-09 13:02:07.982348$GPGSV,2,2,08,28,49,070,44,29,25,061,42,31,69,038,47,32,19,140,40*71
###2023-12-09 13:02:07.984694$GLGSV,2,1,06,65,24,327,41,71,41,173,46,72,73,269,46,73,36,041,46*6A
###2023-12-09 13:02:07.986433$GLGSV,2,2,06,74,70,337,43,75,32,253,43,,,,,,,,*67
###2023-12-09 13:02:07.988814$GAGSV,1,1,04,04,29,312,41,19,84,213,40,21,86,114,45,27,33,048,43*60
###2023-12-09 13:02:07.991160$GBGSV,2,1,05,14,43,193,45,24,74,024,49,25,41,262,44,26,26,063,43*6D
###2023-12-09 13:02:07.992619$GBGSV,2,2,05,33,57,233,47,,,,,,,,,,,,*5D
###2023-12-09 13:02:07.993944$GNVTG,255.02,T,,M,3.54,N,6.55,K,A*27
###2023-12-09 13:02:07.995603$GNGST,180207.10,18.000,,,,0.082,0.070,0.160*59
###2023-12-09 13:02:07.996897$GNZDA,180207.10,09,12,2023,00,00*7C
###2023-12-09 13:02:07.997536$GNEBP,,,,,,M*13
###2023-12-09 13:02:08.165947$GNGGA,180207.30,4138.0464249,N,07032.2984243,W,1,24,0.6,13.461,M,-29.743,M,0.0,*55
###2023-12-09 13:02:08.365311$GNGGA,180207.50,4138.0463657,N,07032.2986713,W,1,24,0.6,13.451,M,-29.743,M,0.0,*5E
###2023-12-09 13:02:08.567045$GNGGA,180207.70,4138.0463412,N,07032.2989437,W,1,24,0.6,13.475,M,-29.743,M,0.0,*53
###2023-12-09 13:02:08.767579$GNGGA,180207.90,4138.0462974,N,07032.2991977,W,1,24,0.6,13.469,M,-29.743,M,0.0,*5C
###2023-12-09 13:02:08.973840$GNRMC,180208.10,A,4138.0462177,N,07032.2994260,W,3.38,242.18,091223,,,A*55
###2023-12-09 13:02:08.976744$GNGGA,180208.10,4138.0462177,N,07032.2994260,W,1,24,0.6,13.443,M,-29.743,M,0.0,*50
###2023-12-09 13:02:08.978622$GPGSA,A,3,03,04,16,26,28,29,31,32,,,,,1.1,0.6,0.9*3B
###2023-12-09 13:02:08.980345$GLGSA,A,3,65,71,72,73,74,75,,,,,,,1.1,0.6,0.9*24
###2023-12-09 13:02:08.981928$GAGSA,A,3,04,19,21,27,,,,,,,,,1.1,0.6,0.9*26
###2023-12-09 13:02:08.983590$GBGSA,A,3,14,24,25,26,33,,,,,,,,1.1,0.6,0.9*2F
###2023-12-09 13:02:08.985929$GPGSV,2,1,08,03,35,261,41,04,33,311,42,16,50,212,45,26,80,210,47*78
###2023-12-09 13:02:08.988285$GPGSV,2,2,08,28,49,070,45,29,25,061,41,31,69,038,47,32,19,140,43*70
###2023-12-09 13:02:08.990646$GLGSV,2,1,06,65,24,327,42,71,41,173,46,72,73,269,45,73,36,041,46*6A
###2023-12-09 13:02:08.992399$GLGSV,2,2,06,74,70,337,43,75,32,253,43,,,,,,,,*67
###2023-12-09 13:02:08.994742$GAGSV,1,1,04,04,29,312,40,19,84,213,39,21,86,114,45,27,33,048,43*6F
###2023-12-09 13:02:08.997068$GBGSV,2,1,05,14,43,193,45,24,74,024,49,25,41,262,44,26,26,063,43*6D
###2023-12-09 13:02:08.998524$GBGSV,2,2,05,33,57,233,47,,,,,,,,,,,,*5D
###2023-12-09 13:02:08.999861$GNVTG,242.18,T,,M,3.38,N,6.26,K,A*24
###2023-12-09 13:02:09.001517$GNGST,180208.10,18.000,,,,0.081,0.070,0.160*55
###2023-12-09 13:02:09.002826$GNZDA,180208.10,09,12,2023,00,00*73
###2023-12-09 13:02:09.003465$GNEBP,,,,,,M*13
###2023-12-09 13:02:09.168695$GNGGA,180208.30,4138.0461494,N,07032.2996581,W,1,24,0.6,13.426,M,-29.743,M,0.0,*50
###2023-12-09 13:02:09.365302$GNGGA,180208.50,4138.0461340,N,07032.2999033,W,1,24,0.6,13.458,M,-29.743,M,0.0,*52
###2023-12-09 13:02:09.567105$GNGGA,180208.70,4138.0461299,N,07032.3001439,W,1,24,0.6,13.471,M,-29.743,M,0.0,*59
###2023-12-09 13:02:09.766111$GNGGA,180208.90,4138.0460827,N,07032.3003678,W,1,24,0.6,13.433,M,-29.743,M,0.0,*5A
###2023-12-09 13:02:09.967400$GNRMC,180209.10,A,4138.0460509,N,07032.3005981,W,3.17,266.54,091223,,,A*5C
###2023-12-09 13:02:09.970247$GNGGA,180209.10,4138.0460509,N,07032.3005981,W,1,24,0.6,13.412,M,-29.743,M,0.0,*5E
###2023-12-09 13:02:09.972126$GPGSA,A,3,03,04,16,26,28,29,31,32,,,,,1.1,0.6,0.9*3B
###2023-12-09 13:02:09.973831$GLGSA,A,3,65,71,72,73,74,75,,,,,,,1.1,0.6,0.9*24
###2023-12-09 13:02:09.975426$GAGSA,A,3,04,19,21,27,,,,,,,,,1.1,0.6,0.9*26
###2023-12-09 13:02:09.977066$GBGSA,A,3,14,24,25,26,33,,,,,,,,1.1,0.6,0.9*2F
###2023-12-09 13:02:09.979405$GPGSV,2,1,08,03,35,261,43,04,33,311,40,16,50,212,46,26,80,210,48*74
###2023-12-09 13:02:09.981733$GPGSV,2,2,08,28,49,070,45,29,25,061,42,31,69,038,47,32,19,140,43*73
###2023-12-09 13:02:09.984069$GLGSV,2,1,06,65,24,327,40,71,41,173,46,72,73,269,45,73,36,041,43*6D
###2023-12-09 13:02:09.985806$GLGSV,2,2,06,74,70,337,42,75,32,253,41,,,,,,,,*64
###2023-12-09 13:02:09.988128$GAGSV,1,1,04,04,29,312,38,19,84,213,40,21,86,114,46,27,33,048,42*6C
###2023-12-09 13:02:09.990449$GBGSV,2,1,05,14,43,193,44,24,74,024,49,25,41,262,44,26,26,063,42*6D
###2023-12-09 13:02:09.991917$GBGSV,2,2,05,33,57,233,47,,,,,,,,,,,,*5D
###2023-12-09 13:02:09.993236$GNVTG,266.54,T,,M,3.17,N,5.87,K,A*2F
###2023-12-09 13:02:09.994891$GNGST,180209.10,18.000,,,,0.081,0.069,0.160*5C
###2023-12-09 13:02:09.996180$GNZDA,180209.10,09,12,2023,00,00*72
###2023-12-09 13:02:09.996818$GNEBP,,,,,,M*13
###2023-12-09 13:02:10.163307$GNGGA,180209.30,4138.0460518,N,07032.3008304,W,1,24,0.6,13.433,M,-29.743,M,0.0,*55
###2023-12-09 13:02:10.368392$GNGGA,180209.50,4138.0460677,N,07032.3010596,W,1,24,0.6,13.457,M,-29.743,M,0.0,*5F
###2023-12-09 13:02:10.563394$GNGGA,180209.70,4138.0460806,N,07032.3012894,W,1,24,0.6,13.453,M,-29.743,M,0.0,*5C
###2023-12-09 13:02:10.764688$GNGGA,180209.90,4138.0460812,N,07032.3015224,W,1,24,0.6,13.431,M,-29.743,M,0.0,*55
###2023-12-09 13:02:10.971205$GNRMC,180210.10,A,4138.0460998,N,07032.3017575,W,3.19,279.97,091223,,,A*5B
###2023-12-09 13:02:10.974066$GNGGA,180210.10,4138.0460998,N,07032.3017575,W,1,24,0.6,13.424,M,-29.743,M,0.0,*53
###2023-12-09 13:02:10.975941$GPGSA,A,3,03,04,16,26,28,29,31,32,,,,,1.1,0.6,0.9*3B
###2023-12-09 13:02:10.977653$GLGSA,A,3,65,71,72,73,74,75,,,,,,,1.1,0.6,0.9*24
###2023-12-09 13:02:10.979253$GAGSA,A,3,04,19,21,27,,,,,,,,,1.1,0.6,0.9*26
###2023-12-09 13:02:10.980899$GBGSA,A,3,14,24,25,26,33,,,,,,,,1.1,0.6,0.9*2F
###2023-12-09 13:02:10.983239$GPGSV,2,1,08,03,35,261,40,04,33,311,40,16,50,212,46,26,80,210,48*77
###2023-12-09 13:02:10.985566$GPGSV,2,2,08,28,49,070,45,29,25,061,40,31,69,038,47,32,19,140,44*76
###2023-12-09 13:02:10.987906$GLGSV,2,1,06,65,24,327,38,71,41,173,47,72,73,269,45,73,36,041,44*64
###2023-12-09 13:02:10.989648$GLGSV,2,2,06,74,70,337,41,75,32,253,42,,,,,,,,*64
###2023-12-09 13:02:10.991981$GAGSV,1,1,04,04,29,312,38,19,84,213,40,21,86,114,46,27,33,048,41*6F
###2023-12-09 13:02:10.994312$GBGSV,2,1,05,14,43,193,44,24,74,024,47,25,41,262,43,26,26,063,40*66
###2023-12-09 13:02:10.995776$GBGSV,2,2,05,33,57,233,47,,,,,,,,,,,,*5D
###2023-12-09 13:02:10.997099$GNVTG,279.97,T,,M,3.19,N,5.90,K,A*26
###2023-12-09 13:02:10.998788$GNGST,180210.10,18.000,,,,0.081,0.070,0.160*5C
###2023-12-09 13:02:11.000086$GNZDA,180210.10,09,12,2023,00,00*7A
###2023-12-09 13:02:11.000723$GNEBP,,,,,,M*13
###2023-12-09 13:02:11.163443$GNGGA,180210.30,4138.0461425,N,07032.3019914,W,1,24,0.6,13.443,M,-29.743,M,0.0,*5F
###2023-12-09 13:02:11.371851$GNGGA,180210.50,4138.0461945,N,07032.3022300,W,1,24,0.6,13.458,M,-29.743,M,0.0,*5F
###2023-12-09 13:02:11.564496$GNGGA,180210.70,4138.0462329,N,07032.3024770,W,1,24,0.6,13.468,M,-29.743,M,0.0,*58
###2023-12-09 13:02:11.763734$GNGGA,180210.90,4138.0462593,N,07032.3027289,W,1,24,0.6,13.462,M,-29.743,M,0.0,*5B
###2023-12-09 13:02:11.965736$GNRMC,180211.10,A,4138.0462884,N,07032.3029847,W,3.54,280.50,091223,,,A*51
###2023-12-09 13:02:11.968628$GNGGA,180211.10,4138.0462884,N,07032.3029847,W,1,24,0.6,13.457,M,-29.743,M,0.0,*59
###2023-12-09 13:02:11.970483$GPGSA,A,3,03,04,16,26,28,29,31,32,,,,,1.1,0.6,0.9*3B
###2023-12-09 13:02:11.972216$GLGSA,A,3,65,71,72,73,74,75,,,,,,,1.1,0.6,0.9*24
###2023-12-09 13:02:11.973800$GAGSA,A,3,04,19,21,27,,,,,,,,,1.1,0.6,0.9*26
###2023-12-09 13:02:11.975458$GBGSA,A,3,14,24,25,26,33,,,,,,,,1.1,0.6,0.9*2F
###2023-12-09 13:02:11.977781$GPGSV,2,1,08,03,35,261,42,04,33,311,41,16,50,212,47,26,80,210,48*75
###2023-12-09 13:02:11.980128$GPGSV,2,2,08,28,49,070,45,29,25,061,42,31,69,038,47,32,19,140,44*74
###2023-12-09 13:02:11.982463$GLGSV,2,1,06,65,24,327,38,71,41,173,47,72,73,269,45,73,36,041,43*63
