###2023-12-09 12:58:42.561880$GNGGA,175841.70,4138.0326105,N,07032.2867135,W,1,24,0.6,13.016,M,-29.744,M,0.0,*54
###2023-12-09 12:58:42.763704$GNGGA,175841.90,4138.0326126,N,07032.2864640,W,1,24,0.6,13.032,M,-29.744,M,0.0,*5B
###2023-12-09 12:58:42.964860$GNRMC,175842.10,A,4138.0326084,N,07032.2862030,W,3.54,97.49,091223,,,A*6A
###2023-12-09 12:58:42.967720$GNGGA,175842.10,4138.0326084,N,07032.2862030,W,1,24,0.6,13.027,M,-29.744,M,0.0,*5A
###2023-12-09 12:58:42.969564$GPGSA,A,3,03,04,16,26,28,29,31,32,,,,,1.1,0.6,0.9*3B
###2023-12-09 12:58:42.971283$GLGSA,A,3,65,71,72,73,74,75,,,,,,,1.1,0.6,0.9*24
###2023-12-09 12:58:42.972867$GAGSA,A,3,04,19,21,27,,,,,,,,,1.1,0.6,0.9*26
###2023-12-09 12:58:42.974509$GBGSA,A,3,14,24,25,26,33,,,,,,,,1.1,0.6,0.9*2F
###2023-12-09 12:58:42.976839$GPGSV,2,1,08,03,36,264,46,04,31,311,42,16,48,211,48,26,78,209,49*7D
###2023-12-09 12:58:42.979181$GPGSV,2,2,08,28,50,069,45,29,25,063,42,31,69,033,47,32,20,139,41*7C
###2023-12-09 12:58:42.981513$GLGSV,2,1,06,65,23,328,40,71,43,172,47,72,73,277,47,73,37,040,46*6F
###2023-12-09 12:58:42.983267$GLGSV,2,2,06,74,70,331,43,75,30,251,45,,,,,,,,*67
###2023-12-09 12:58:42.985585$GAGSV,1,1,04,04,28,312,41,19,85,226,41,21,85,133,46,27,34,048,43*65
###2023-12-09 12:58:42.987914$GBGSV,2,1,05,14,44,193,45,24,74,022,48,25,40,261,46,26,27,062,43*6D
###2023-12-09 12:58:42.989361$GBGSV,2,2,05,33,58,234,48,,,,,,,,,,,,*5A
###2023-12-09 12:58:42.990657$GNVTG,97.49,T,,M,3.54,N,6.55,K,A*14
###2023-12-09 12:58:42.992296$GNGST,175842.10,18.000,,,,0.078,0.066,0.160*5A
###2023-12-09 12:58:42.993581$GNZDA,175842.10,09,12,2023,00,00*7D
###2023-12-09 12:58:42.994219$GNEBP,,,,,,M*13
###2023-12-09 12:58:43.161032$GNGGA,175842.30,4138.0325791,N,07032.2859518,W,1,24,0.6,13.008,M,-29.744,M,0.0,*52
###2023-12-09 12:58:43.361751$GNGGA,175842.50,4138.0325530,N,07032.2857043,W,1,24,0.6,13.027,M,-29.744,M,0.0,*55
###2023-12-09 12:58:43.561872$GNGGA,175842.70,4138.0325187,N,07032.2854423,W,1,24,0.6,13.023,M,-29.744,M,0.0,*5A
###2023-12-09 12:58:43.762480$GNGGA,175842.90,4138.0325022,N,07032.2851871,W,1,24,0.6,13.020,M,-29.744,M,0.0,*57
###2023-12-09 12:58:43.964024$GNRMC,175843.10,A,4138.0324866,N,07032.2849249,W,3.62,97.07,091223,,,A*67
###2023-12-09 12:58:43.966904$GNGGA,175843.10,4138.0324866,N,07032.2849249,W,1,24,0.6,13.032,M,-29.744,M,0.0,*5C
###2023-12-09 12:58:43.968762$GPGSA,A,3,03,04,16,26,28,29,31,32,,,,,1.1,0.6,0.9*3B
###2023-12-09 12:58:43.970477$GLGSA,A,3,65,71,72,73,74,75,,,,,,,1.1,0.6,0.9*24
###2023-12-09 12:58:43.972063$GAGSA,A,3,04,19,21,27,,,,,,,,,1.1,0.6,0.9*26
###2023-12-09 12:58:43.973703$GBGSA,A,3,14,24,25,26,33,,,,,,,,1.1,0.6,0.9*2F
###2023-12-09 12:58:43.976020$GPGSV,2,1,08,03,36,264,46,04,31,311,43,16,48,211,47,26,78,209,49*73
###2023-12-09 12:58:43.978333$GPGSV,2,2,08,28,50,069,45,29,25,063,41,31,69,033,48,32,20,139,43*72
###2023-12-09 12:58:43.980662$GLGSV,2,1,06,65,23,328,41,71,43,172,46,72,73,277,47,73,37,040,45*6C
###2023-12-09 12:58:43.982391$GLGSV,2,2,06,74,70,331,43,75,30,251,44,,,,,,,,*66
###2023-12-09 12:58:43.984712$GAGSV,1,1,04,04,28,312,41,19,85,226,41,21,85,133,46,27,34,048,43*65
###2023-12-09 12:58:43.987038$GBGSV,2,1,05,14,44,193,45,24,74,022,48,25,40,261,47,26,27,062,42*6D
###2023-12-09 12:58:43.988478$GBGSV,2,2,05,33,58,234,48,,,,,,,,,,,,*5A
###2023-12-09 12:58:43.989758$GNVTG,97.07,T,,M,3.62,N,6.70,K,A*1C
###2023-12-09 12:58:43.991406$GNGST,175843.10,18.000,,,,0.078,0.066,0.160*5B
###2023-12-09 12:58:43.992691$GNZDA,175843.10,09,12,2023,00,00*7C
###2023-12-09 12:58:43.993326$GNEBP,,,,,,M*13
###2023-12-09 12:58:44.161492$GNGGA,175843.30,4138.0324593,N,07032.2846596,W,1,24,0.6,13.028,M,-29.744,M,0.0,*58
###2023-12-09 12:58:44.362159$GNGGA,175843.50,4138.0324323,N,07032.2843973,W,1,24,0.6,13.019,M,-29.744,M,0.0,*53
###2023-12-09 12:58:44.562797$GNGGA,175843.70,4138.0324239,N,07032.2841309,W,1,24,0.6,13.020,M,-29.744,M,0.0,*54
###2023-12-09 12:58:44.765811$GNGGA,175843.90,4138.0324224,N,07032.2838669,W,1,24,0.6,13.017,M,-29.744,M,0.0,*5F
###2023-12-09 12:58:44.971242$GNRMC,175844.10,A,4138.0324298,N,07032.2836118,W,3.44,89.96,091223,,,A*67
###2023-12-09 12:58:44.974097$GNGGA,175844.10,4138.0324298,N,07032.2836118,W,1,24,0.6,13.025,M,-29.744,M,0.0,*59
###2023-12-09 12:58:44.975954$GPGSA,A,3,03,04,16,26,28,29,31,32,,,,,1.1,0.6,0.9*3B
###2023-12-09 12:58:44.977667$GLGSA,A,3,65,71,72,73,74,75,,,,,,,1.1,0.6,0.9*24
###2023-12-09 12:58:44.979294$GAGSA,A,3,04,19,21,27,,,,,,,,,1.1,0.6,0.9*26
###2023-12-09 12:58:44.980941$GBGSA,A,3,14,24,25,26,33,,,,,,,,1.1,0.6,0.9*2F
###2023-12-09 12:58:44.983265$GPGSV,2,1,08,03,36,264,46,04,31,311,43,16,48,211,47,26,78,209,49*73
###2023-12-09 12:58:44.985591$GPGSV,2,2,08,28,50,069,44,29,25,063,42,31,69,033,48,32,20,139,42*71
###2023-12-09 12:58:44.987919$GLGSV,2,1,06,65,23,328,42,71,43,172,46,72,73,277,47,73,37,040,45*6F
###2023-12-09 12:58:44.989653$GLGSV,2,2,06,74,70,331,43,75,30,251,45,,,,,,,,*67
###2023-12-09 12:58:44.991980$GAGSV,1,1,04,04,28,312,40,19,85,226,41,21,85,133,46,27,34,048,43*64
###2023-12-09 12:58:44.994304$GBGSV,2,1,05,14,44,193,45,24,74,022,48,25,40,261,47,26,27,062,42*6D
###2023-12-09 12:58:44.995762$GBGSV,2,2,05,33,58,234,47,,,,,,,,,,,,*55
###2023-12-09 12:58:44.997047$GNVTG,89.96,T,,M,3.44,N,6.37,K,A*1C
###2023-12-09 12:58:44.998698$GNGST,175844.10,18.000,,,,0.078,0.066,0.160*5C
###2023-12-09 12:58:44.999989$GNZDA,175844.10,09,12,2023,00,00*7B
###2023-12-09 12:58:45.000625$GNEBP,,,,,,M*13
###2023-12-09 12:58:45.163136$GNGGA,175844.30,4138.0324206,N,07032.2833503,W,1,24,0.6,13.033,M,-29.744,M,0.0,*50
###2023-12-09 12:58:45.365723$GNGGA,175844.50,4138.0324265,N,07032.2830920,W,1,24,0.6,13.017,M,-29.744,M,0.0,*5B
###2023-12-09 12:58:45.568773$GNGGA,175844.70,4138.0324477,N,07032.2828449,W,1,24,0.6,13.003,M,-29.744,M,0.0,*52
###2023-12-09 12:58:45.761917$GNGGA,175844.90,4138.0324842,N,07032.2826063,W,1,24,0.6,13.027,M,-29.744,M,0.0,*52
###2023-12-09 12:58:45.964789$GNRMC,175845.10,A,4138.0324923,N,07032.2823533,W,3.46,93.55,091223,,,A*62
###2023-12-09 12:58:45.967695$GNGGA,175845.10,4138.0324923,N,07032.2823533,W,1,24,0.6,13.041,M,-29.744,M,0.0,*58
###2023-12-09 12:58:45.969552$GPGSA,A,3,03,04,16,26,28,29,31,32,,,,,1.1,0.6,0.9*3B
###2023-12-09 12:58:45.971280$GLGSA,A,3,65,71,72,73,74,75,,,,,,,1.1,0.6,0.9*24
###2023-12-09 12:58:45.972861$GAGSA,A,3,04,19,21,27,,,,,,,,,1.1,0.6,0.9*26
###2023-12-09 12:58:45.974508$GBGSA,A,3,14,24,25,26,33,,,,,,,,1.1,0.6,0.9*2F
###2023-12-09 12:58:45.976844$GPGSV,2,1,08,03,36,264,46,04,31,311,43,16,48,211,46,26,78,209,49*72
###2023-12-09 12:58:45.979183$GPGSV,2,2,08,28,50,069,45,29,25,063,41,31,69,033,48,32,20,139,41*70
###2023-12-09 12:58:45.981505$GLGSV,2,1,06,65,23,328,42,71,43,172,46,72,73,277,47,73,37,040,45*6F
###2023-12-09 12:58:45.983257$GLGSV,2,2,06,74,70,331,43,75,30,251,45,,,,,,,,*67
###2023-12-09 12:58:45.985577$GAGSV,1,1,04,04,28,312,41,19,85,226,41,21,85,133,46,27,34,048,43*65
###2023-12-09 12:58:45.987913$GBGSV,2,1,05,14,44,193,45,24,74,022,48,25,40,261,46,26,27,062,41*6F
###2023-12-09 12:58:45.989362$GBGSV,2,2,05,33,58,234,47,,,,,,,,,,,,*55
###2023-12-09 12:58:45.990656$GNVTG,93.55,T,,M,3.46,N,6.41,K,A*1B
###2023-12-09 12:58:45.992293$GNGST,175845.10,18.000,,,,0.078,0.066,0.160*5D
###2023-12-09 12:58:45.993577$GNZDA,175845.10,09,12,2023,00,00*7A
###2023-12-09 12:58:45.994212$GNEBP,,,,,,M*13
###2023-12-09 12:58:46.161507$GNGGA,175845.30,4138.0324758,N,07032.2821021,W,1,24,0.6,13.008,M,-29.744,M,0.0,*51
###2023-12-09 12:58:46.362399$GNGGA,175845.50,4138.0324855,N,07032.2818605,W,1,24,0.6,13.014,M,-29.744,M,0.0,*52
###2023-12-09 12:58:46.563189$GNGGA,175845.70,4138.0325178,N,07032.2816194,W,1,24,0.6,13.035,M,-29.744,M,0.0,*55
###2023-12-09 12:58:46.762065$GNGGA,175845.90,4138.0325104,N,07032.2813663,W,1,24,0.6,13.037,M,-29.744,M,0.0,*58
###2023-12-09 12:58:46.965558$GNRMC,175846.10,A,4138.0324569,N,07032.2811168,W,3.38,106.62,091223,,,A*58
###2023-12-09 12:58:46.968441$GNGGA,175846.10,4138.0324569,N,07032.2811168,W,1,24,0.6,13.011,M,-29.744,M,0.0,*57
###2023-12-09 12:58:46.970299$GPGSA,A,3,03,04,16,26,28,29,31,32,,,,,1.1,0.6,0.9*3B
###2023-12-09 12:58:46.972030$GLGSA,A,3,65,71,72,73,74,75,,,,,,,1.1,0.6,0.9*24
###2023-12-09 12:58:46.973941$GAGSA,A,3,04,19,21,27,,,,,,,,,1.1,0.6,0.9*26
###2023-12-09 12:58:46.975627$GBGSA,A,3,14,24,25,26,33,,,,,,,,1.1,0.6,0.9*2F
###2023-12-09 12:58:46.977961$GPGSV,2,1,08,03,36,264,46,04,31,311,41,16,48,211,48,26,78,209,48*7F
###2023-12-09 12:58:46.980314$GPGSV,2,2,08,28,50,069,44,29,25,063,42,31,69,033,47,32,20,139,42*7E
###2023-12-09 12:58:46.982659$GLGSV,2,1,06,65,23,328,39,71,42,172,47,72,73,277,47,73,37,040,45*63
###2023-12-09 12:58:46.984402$GLGSV,2,2,06,74,70,331,43,75,30,251,45,,,,,,,,*67
###2023-12-09 12:58:46.986733$GAGSV,1,1,04,04,28,312,41,19,85,226,41,21,85,133,46,27,34,048,43*65
###2023-12-09 12:58:46.989060$GBGSV,2,1,05,14,44,193,46,24,74,022,48,25,40,261,47,26,27,062,42*6E
###2023-12-09 12:58:46.990510$GBGSV,2,2,05,33,58,234,48,,,,,,,,,,,,*5A
###2023-12-09 12:58:46.991843$GNVTG,106.62,T,,M,3.38,N,6.26,K,A*2A
