###2023-12-09 12:54:20.961910$GNRMC,175420.10,A,4138.0609829,N,07032.3946467,W,0.76,296.41,091223,,,A*5D
###2023-12-09 12:54:20.965407$GNGGA,175420.10,4138.0609829,N,07032.3946467,W,1,24,0.6,13.560,M,-29.744,M,0.0,*53
###2023-12-09 12:54:20.967690$GPGSA,A,3,03,04,16,26,28,29,31,32,,,,,1.1,0.6,0.9*3B
###2023-12-09 12:54:20.969771$GLGSA,A,3,65,71,72,73,74,75,,,,,,,1.1,0.6,0.9*24
###2023-12-09 12:54:20.971682$GAGSA,A,3,04,19,21,27,,,,,,,,,1.1,0.6,0.9*26
###2023-12-09 12:54:20.973663$GBGSA,A,3,14,24,25,26,33,,,,,,,,1.1,0.6,0.9*2F
###2023-12-09 12:54:20.976483$GPGSV,2,1,08,03,36,266,41,04,29,311,39,16,46,211,44,26,76,209,46*7E
###2023-12-09 12:54:20.979345$GPGSV,2,2,08,28,52,067,46,29,25,064,44,31,70,029,47,32,22,138,44*77
###2023-12-09 12:54:20.982152$GLGSV,2,1,06,65,20,328,38,71,45,172,47,72,72,285,44,73,39,039,46*6A
###2023-12-09 12:54:20.984271$GLGSV,2,2,06,74,71,324,43,75,29,249,40,,,,,,,,*66
###2023-12-09 12:54:20.987080$GAGSV,1,1,04,04,27,312,39,19,85,242,40,21,84,148,46,27,35,048,44*6D
###2023-12-09 12:54:20.989890$GBGSV,2,1,05,14,47,194,46,24,76,016,50,25,38,259,45,26,29,061,46*69
###2023-12-09 12:54:20.991697$GBGSV,2,2,05,33,60,238,46,,,,,,,,,,,,*53
###2023-12-09 12:54:20.993291$GNVTG,296.41,T,,M,0.76,N,1.40,K,A*2F
###2023-12-09 12:54:20.995307$GNGST,175420.10,18.000,,,,0.077,0.068,0.160*53
###2023-12-09 12:54:20.996862$GNZDA,175420.10,09,12,2023,00,00*75
###2023-12-09 12:54:20.997637$GNEBP,,,,,,M*13
###2023-12-09 12:54:21.155842$GNGGA,175420.30,4138.0610072,N,07032.3947066,W,1,24,0.6,13.557,M,-29.744,M,0.0,*5F
###2023-12-09 12:54:21.354828$GNGGA,175420.50,4138.0610250,N,07032.3947504,W,1,24,0.6,13.541,M,-29.744,M,0.0,*5D
###2023-12-09 12:54:21.556048$GNGGA,175420.70,4138.0610214,N,07032.3947507,W,1,24,0.6,13.548,M,-29.744,M,0.0,*55
###2023-12-09 12:54:21.756737$GNGGA,175420.90,4138.0610172,N,07032.3947451,W,1,24,0.6,13.548,M,-29.744,M,0.0,*5A
###2023-12-09 12:54:21.957386$GNRMC,175421.10,A,4138.0610305,N,07032.3947769,W,0.76,296.41,091223,,,A*5D
###2023-12-09 12:54:21.960848$GNGGA,175421.10,4138.0610305,N,07032.3947769,W,1,24,0.6,13.544,M,-29.744,M,0.0,*55
###2023-12-09 12:54:21.963116$GPGSA,A,3,03,04,16,26,28,29,31,32,,,,,1.1,0.6,0.9*3B
###2023-12-09 12:54:21.965202$GLGSA,A,3,65,71,72,73,74,75,,,,,,,1.1,0.6,0.9*24
###2023-12-09 12:54:21.967141$GAGSA,A,3,04,19,21,27,,,,,,,,,1.1,0.6,0.9*26
###2023-12-09 12:54:21.969134$GBGSA,A,3,14,24,25,26,33,,,,,,,,1.1,0.6,0.9*2F
###2023-12-09 12:54:21.971969$GPGSV,2,1,08,03,36,266,43,04,29,311,43,16,46,211,44,26,76,209,48*7F
###2023-12-09 12:54:21.974810$GPGSV,2,2,08,28,52,067,46,29,25,064,44,31,70,029,48,32,22,138,45*79
###2023-12-09 12:54:21.977621$GLGSV,2,1,06,65,20,328,39,71,45,172,47,72,72,285,44,73,39,039,46*6B
###2023-12-09 12:54:21.979738$GLGSV,2,2,06,74,71,324,43,75,29,249,42,,,,,,,,*64
###2023-12-09 12:54:21.982592$GAGSV,1,1,04,04,27,312,40,19,85,242,40,21,84,148,46,27,35,048,44*63
###2023-12-09 12:54:21.985417$GBGSV,2,1,05,14,47,194,44,24,76,016,48,25,38,259,43,26,29,061,44*66
###2023-12-09 12:54:21.987184$GBGSV,2,2,05,33,60,238,44,,,,,,,,,,,,*51
###2023-12-09 12:54:21.988783$GNVTG,296.41,T,,M,0.76,N,1.40,K,A*2F
###2023-12-09 12:54:21.990822$GNGST,175421.10,18.000,,,,0.077,0.068,0.160*52
###2023-12-09 12:54:21.992385$GNZDA,175421.10,09,12,2023,00,00*74
###2023-12-09 12:54:21.993155$GNEBP,,,,,,M*13
###2023-12-09 12:54:22.155003$GNGGA,175421.30,4138.0610520,N,07032.3948295,W,1,24,0.6,13.540,M,-29.744,M,0.0,*5B
###2023-12-09 12:54:22.355953$GNGGA,175421.50,4138.0610626,N,07032.3948591,W,1,24,0.6,13.522,M,-29.744,M,0.0,*5F
###2023-12-09 12:54:22.555529$GNGGA,175421.70,4138.0610574,N,07032.3948537,W,1,24,0.6,13.514,M,-29.744,M,0.0,*50
###2023-12-09 12:54:22.755276$GNGGA,175421.90,4138.0610567,N,07032.3948572,W,1,24,0.6,13.520,M,-29.744,M,0.0,*5A
###2023-12-09 12:54:22.956676$GNRMC,175422.10,A,4138.0610763,N,07032.3949041,W,0.99,303.51,091223,,,A*54
###2023-12-09 12:54:22.959579$GNGGA,175422.10,4138.0610763,N,07032.3949041,W,1,24,0.6,13.543,M,-29.744,M,0.0,*56
###2023-12-09 12:54:22.961441$GPGSA,A,3,03,04,16,26,28,29,31,32,,,,,1.1,0.6,0.9*3B
###2023-12-09 12:54:22.963171$GLGSA,A,3,65,71,72,73,74,75,,,,,,,1.1,0.6,0.9*24
###2023-12-09 12:54:22.964761$GAGSA,A,3,04,19,21,27,,,,,,,,,1.1,0.6,0.9*26
###2023-12-09 12:54:22.966415$GBGSA,A,3,14,24,25,26,33,,,,,,,,1.1,0.6,0.9*2F
###2023-12-09 12:54:22.968770$GPGSV,2,1,08,03,36,266,43,04,29,311,43,16,46,211,43,26,76,209,47*77
###2023-12-09 12:54:22.971121$GPGSV,2,2,08,28,52,067,46,29,25,064,44,31,70,029,48,32,22,138,45*79
###2023-12-09 12:54:22.973458$GLGSV,2,1,06,65,20,328,39,71,45,172,47,72,72,285,45,73,39,039,46*6A
###2023-12-09 12:54:22.975225$GLGSV,2,2,06,74,71,324,43,75,29,249,42,,,,,,,,*64
###2023-12-09 12:54:22.977555$GAGSV,1,1,04,04,27,312,42,19,85,242,40,21,84,148,46,27,35,048,44*61
###2023-12-09 12:54:22.979902$GBGSV,2,1,05,14,47,194,44,24,76,016,48,25,38,259,44,26,29,061,44*61
###2023-12-09 12:54:22.981362$GBGSV,2,2,05,33,60,238,46,,,,,,,,,,,,*53
###2023-12-09 12:54:22.982700$GNVTG,303.51,T,,M,0.99,N,1.84,K,A*2A
###2023-12-09 12:54:22.984358$GNGST,175422.10,18.000,,,,0.077,0.068,0.160*51
###2023-12-09 12:54:22.985656$GNZDA,175422.10,09,12,2023,00,00*77
###2023-12-09 12:54:22.986296$GNEBP,,,,,,M*13
###2023-12-09 12:54:23.153333$GNGGA,175422.30,4138.0611003,N,07032.3949567,W,1,24,0.6,13.541,M,-29.744,M,0.0,*57
###2023-12-09 12:54:23.355266$GNGGA,175422.50,4138.0611037,N,07032.3949681,W,1,24,0.6,13.517,M,-29.744,M,0.0,*5E
###2023-12-09 12:54:23.555495$GNGGA,175422.70,4138.0610922,N,07032.3949541,W,1,24,0.6,13.489,M,-29.744,M,0.0,*59
###2023-12-09 12:54:23.756103$GNGGA,175422.90,4138.0610948,N,07032.3949691,W,1,24,0.6,13.489,M,-29.744,M,0.0,*55
###2023-12-09 12:54:23.955775$GNRMC,175423.10,A,4138.0611193,N,07032.3950288,W,1.11,301.27,091223,,,A*50
###2023-12-09 12:54:23.958699$GNGGA,175423.10,4138.0611193,N,07032.3950288,W,1,24,0.6,13.523,M,-29.744,M,0.0,*56
###2023-12-09 12:54:23.960566$GPGSA,A,3,03,04,16,26,28,29,31,32,,,,,1.1,0.6,0.9*3B
###2023-12-09 12:54:23.962289$GLGSA,A,3,65,71,72,73,74,75,,,,,,,1.1,0.6,0.9*24
###2023-12-09 12:54:23.963893$GAGSA,A,3,04,19,21,27,,,,,,,,,1.1,0.6,0.9*26
###2023-12-09 12:54:23.965546$GBGSA,A,3,14,24,25,26,33,,,,,,,,1.1,0.6,0.9*2F
###2023-12-09 12:54:23.967893$GPGSV,2,1,08,03,36,266,43,04,29,311,43,16,46,211,43,26,76,209,48*78
###2023-12-09 12:54:23.970241$GPGSV,2,2,08,28,52,067,45,29,25,064,44,31,70,029,48,32,22,138,44*7B
###2023-12-09 12:54:23.972589$GLGSV,2,1,06,65,20,328,42,71,45,172,47,72,72,285,45,73,39,039,47*67
###2023-12-09 12:54:23.974338$GLGSV,2,2,06,74,71,324,42,75,29,249,43,,,,,,,,*64
###2023-12-09 12:54:23.976681$GAGSV,1,1,04,04,27,312,42,19,85,242,40,21,84,147,47,27,35,048,44*6F
###2023-12-09 12:54:23.979025$GBGSV,2,1,05,14,47,194,45,24,76,016,49,25,38,259,44,26,29,061,44*61
###2023-12-09 12:54:23.980476$GBGSV,2,2,05,33,60,238,47,,,,,,,,,,,,*52
###2023-12-09 12:54:23.981798$GNVTG,301.27,T,,M,1.11,N,2.05,K,A*22
###2023-12-09 12:54:23.983456$GNGST,175423.10,18.000,,,,0.077,0.067,0.160*5F
###2023-12-09 12:54:23.984747$GNZDA,175423.10,09,12,2023,00,00*76
###2023-12-09 12:54:23.985383$GNEBP,,,,,,M*13
###2023-12-09 12:54:24.154316$GNGGA,175423.30,4138.0611422,N,07032.3950781,W,1,24,0.6,13.532,M,-29.744,M,0.0,*57
###2023-12-09 12:54:24.355345$GNGGA,175423.50,4138.0611415,N,07032.3950783,W,1,24,0.6,13.526,M,-29.744,M,0.0,*52
###2023-12-09 12:54:24.555405$GNGGA,175423.70,4138.0611271,N,07032.3950556,W,1,24,0.6,13.476,M,-29.744,M,0.0,*5A
###2023-12-09 12:54:24.755369$GNGGA,175423.90,4138.0611366,N,07032.3950812,W,1,24,0.6,13.463,M,-29.744,M,0.0,*5A
###2023-12-09 12:54:24.954900$GNRMC,175424.10,A,4138.0611690,N,07032.3951551,W,1.21,304.81,091223,,,A*5B
###2023-12-09 12:54:24.957749$GNGGA,175424.10,4138.0611690,N,07032.3951551,W,1,24,0.6,13.500,M,-29.744,M,0.0,*56
###2023-12-09 12:54:24.959667$GPGSA,A,3,03,04,16,26,28,29,31,32,,,,,1.1,0.6,0.9*3B
###2023-12-09 12:54:24.961394$GLGSA,A,3,65,71,72,73,74,75,,,,,,,1.1,0.6,0.9*24
###2023-12-09 12:54:24.962994$GAGSA,A,3,04,19,21,27,,,,,,,,,1.1,0.6,0.9*26
###2023-12-09 12:54:24.964638$GBGSA,A,3,14,24,25,26,33,,,,,,,,1.1,0.6,0.9*2F
###2023-12-09 12:54:24.966986$GPGSV,2,1,08,03,36,266,43,04,29,311,43,16,46,211,44,26,76,209,47*70
###2023-12-09 12:54:24.969549$GPGSV,2,2,08,28,52,067,44,29,25,064,43,31,70,029,47,32,22,138,42*74
###2023-12-09 12:54:24.971898$GLGSV,2,1,06,65,20,328,43,71,45,172,46,72,72,285,45,73,39,039,47*67
###2023-12-09 12:54:24.973655$GLGSV,2,2,06,74,71,324,43,75,29,249,42,,,,,,,,*64
###2023-12-09 12:54:24.976014$GAGSV,1,1,04,04,27,312,42,19,85,242,40,21,84,147,46,27,35,048,44*6E
###2023-12-09 12:54:24.978352$GBGSV,2,1,05,14,47,194,44,24,76,016,49,25,38,259,46,26,29,061,44*62
###2023-12-09 12:54:24.979828$GBGSV,2,2,05,33,60,238,47,,,,,,,,,,,,*52
###2023-12-09 12:54:24.981159$GNVTG,304.81,T,,M,1.21,N,2.23,K,A*2C
###2023-12-09 12:54:24.982825$GNGST,175424.10,18.000,,,,0.077,0.068,0.160*57
###2023-12-09 12:54:24.984122$GNZDA,175424.10,09,12,2023,00,00*71
