###2023-12-09 12:29:01.948071$GNGST,172901.10,32.000,,,,0.120,0.130,0.300*59
###2023-12-09 12:29:01.949405$GNZDA,172901.10,09,12,2023,00,00*7C
###2023-12-09 12:29:01.950070$GNEBP,,,,,,M*13
###2023-12-09 12:29:02.121700$GNGGA,172901.30,4138.0384943,N,07032.4360961,W,1,16,0.9,14.619,M,-29.746,M,0.0,*51
###2023-12-09 12:29:02.322848$GNGGA,172901.50,4138.0384884,N,07032.4360920,W,1,16,0.9,14.630,M,-29.746,M,0.0,*53
###2023-12-09 12:29:02.523375$GNGGA,172901.70,4138.0384830,N,07032.4360874,W,1,16,0.9,14.646,M,-29.746,M,0.0,*5F
###2023-12-09 12:29:02.721620$GNGGA,172901.90,4138.0384770,N,07032.4360810,W,1,16,0.9,14.660,M,-29.746,M,0.0,*5C
###2023-12-09 12:29:02.923918$GNRMC,172902.10,A,4138.0384702,N,07032.4360753,W,0.04,,091223,,,A*4F
###2023-12-09 12:29:02.927481$GNGGA,172902.10,4138.0384702,N,07032.4360753,W,1,16,0.9,14.673,M,-29.746,M,0.0,*58
###2023-12-09 12:29:02.929739$GPGSA,A,3,03,16,26,28,29,31,32,,,,,,1.6,0.9,1.3*3C
###2023-12-09 12:29:02.931748$GLGSA,A,3,71,72,73,75,,,,,,,,,1.6,0.9,1.3*27
###2023-12-09 12:29:02.933564$GAGSA,A,3,21,27,,,,,,,,,,,1.6,0.9,1.3*29
###2023-12-09 12:29:02.935468$GBGSA,A,3,14,26,33,,,,,,,,,,1.6,0.9,1.3*2D
###2023-12-09 12:29:02.938328$GPGSV,2,1,07,03,39,280,35,16,34,206,45,26,63,206,42,28,60,052,45*74
###2023-12-09 12:29:02.940854$GPGSV,2,2,07,29,25,077,42,31,73,351,44,32,33,132,47,,,,*47
###2023-12-09 12:29:02.943726$GLGSV,1,1,04,71,60,168,48,72,63,314,42,73,50,032,45,75,19,238,40*64
###2023-12-09 12:29:02.945884$GAGSV,1,1,02,21,75,179,39,27,43,050,45,,,,,,,,*68
###2023-12-09 12:29:02.948421$GBGSV,1,1,03,14,57,199,45,26,37,056,46,33,64,260,41,,,,*5D
###2023-12-09 12:29:02.949860$GNVTG,,T,,M,0.04,N,0.07,K,A*3E
###2023-12-09 12:29:02.951924$GNGST,172902.10,32.000,,,,0.120,0.130,0.300*5A
###2023-12-09 12:29:02.953530$GNZDA,172902.10,09,12,2023,00,00*7F
###2023-12-09 12:29:02.954353$GNEBP,,,,,,M*13
###2023-12-09 12:29:03.124436$GNGGA,172902.30,4138.0384635,N,07032.4360690,W,1,16,0.9,14.690,M,-29.746,M,0.0,*5C
###2023-12-09 12:29:03.324917$GNGGA,172902.50,4138.0384569,N,07032.4360626,W,1,16,0.9,14.707,M,-29.746,M,0.0,*52
###2023-12-09 12:29:03.530090$GNGGA,172902.70,4138.0384513,N,07032.4360565,W,1,16,0.9,14.719,M,-29.746,M,0.0,*56
###2023-12-09 12:29:03.722596$GNGGA,172902.90,4138.0384455,N,07032.4360508,W,1,16,0.9,14.732,M,-29.746,M,0.0,*59
###2023-12-09 12:29:03.922801$GNRMC,172903.10,A,4138.0384406,N,07032.4360447,W,0.04,,091223,,,A*4F
###2023-12-09 12:29:03.926552$GNGGA,172903.10,4138.0384406,N,07032.4360447,W,1,16,0.9,14.737,M,-29.746,M,0.0,*59
###2023-12-09 12:29:03.928991$GPGSA,A,3,03,16,26,28,29,31,32,,,,,,1.6,0.9,1.3*3C
###2023-12-09 12:29:03.931159$GLGSA,A,3,71,72,73,75,,,,,,,,,1.6,0.9,1.3*27
###2023-12-09 12:29:03.933144$GAGSA,A,3,21,27,,,,,,,,,,,1.6,0.9,1.3*29
###2023-12-09 12:29:03.935266$GBGSA,A,3,14,26,33,,,,,,,,,,1.6,0.9,1.3*2D
###2023-12-09 12:29:03.938327$GPGSV,2,1,07,03,39,280,35,16,34,206,44,26,63,206,42,28,60,052,45*75
###2023-12-09 12:29:03.941042$GPGSV,2,2,07,29,25,077,42,31,73,351,44,32,33,132,46,,,,*46
###2023-12-09 12:29:03.944111$GLGSV,1,1,04,71,60,168,48,72,63,314,42,73,50,032,45,75,19,238,40*64
###2023-12-09 12:29:03.946468$GAGSV,1,1,02,21,75,179,39,27,43,050,45,,,,,,,,*68
###2023-12-09 12:29:03.949222$GBGSV,1,1,03,14,57,199,45,26,37,056,46,33,64,260,41,,,,*5D
###2023-12-09 12:29:03.950840$GNVTG,,T,,M,0.04,N,0.07,K,A*3E
###2023-12-09 12:29:03.953088$GNGST,172903.10,32.000,,,,0.120,0.130,0.300*5B
###2023-12-09 12:29:03.954934$GNZDA,172903.10,09,12,2023,00,00*7E
###2023-12-09 12:29:03.955941$GNEBP,,,,,,M*13
###2023-12-09 12:29:04.122941$GNGGA,172903.30,4138.0384356,N,07032.4360388,W,1,16,0.9,14.751,M,-29.746,M,0.0,*5D
###2023-12-09 12:29:04.325247$GNGGA,172903.50,4138.0384306,N,07032.4360331,W,1,16,0.9,14.768,M,-29.746,M,0.0,*56
###2023-12-09 12:29:04.524353$GNGGA,172903.70,4138.0384260,N,07032.4360269,W,1,16,0.9,14.784,M,-29.746,M,0.0,*5B
###2023-12-09 12:29:04.722736$GNGGA,172903.90,4138.0384213,N,07032.4360208,W,1,16,0.9,14.802,M,-29.746,M,0.0,*57
###2023-12-09 12:29:04.925048$GNRMC,172904.10,A,4138.0384173,N,07032.4360176,W,0.02,,091223,,,A*4E
###2023-12-09 12:29:04.927956$GNGGA,172904.10,4138.0384173,N,07032.4360176,W,1,16,0.9,14.816,M,-29.746,M,0.0,*52
###2023-12-09 12:29:04.929782$GPGSA,A,3,03,16,26,28,29,31,32,,,,,,1.6,0.9,1.3*3C
###2023-12-09 12:29:04.931404$GLGSA,A,3,71,72,73,75,,,,,,,,,1.6,0.9,1.3*27
###2023-12-09 12:29:04.932874$GAGSA,A,3,21,27,,,,,,,,,,,1.6,0.9,1.3*29
###2023-12-09 12:29:04.934402$GBGSA,A,3,14,26,33,,,,,,,,,,1.6,0.9,1.3*2D
###2023-12-09 12:29:04.936770$GPGSV,2,1,07,03,39,280,35,16,34,206,44,26,63,206,42,28,60,052,45*75
###2023-12-09 12:29:04.938856$GPGSV,2,2,07,29,25,077,42,31,73,351,44,32,33,132,47,,,,*47
###2023-12-09 12:29:04.941212$GLGSV,1,1,04,71,60,168,48,72,63,314,42,73,50,032,45,75,20,239,39*61
###2023-12-09 12:29:04.942993$GAGSV,1,1,02,21,75,179,39,27,43,050,45,,,,,,,,*68
###2023-12-09 12:29:04.945049$GBGSV,1,1,03,14,57,199,45,26,37,056,46,33,64,260,41,,,,*5D
###2023-12-09 12:29:04.946199$GNVTG,,T,,M,0.02,N,0.04,K,A*3B
###2023-12-09 12:29:04.947959$GNGST,172904.10,32.000,,,,0.120,0.140,0.300*5B
###2023-12-09 12:29:04.949299$GNZDA,172904.10,09,12,2023,00,00*79
###2023-12-09 12:29:04.949963$GNEBP,,,,,,M*13
###2023-12-09 12:29:05.124175$GNGGA,172904.30,4138.0384128,N,07032.4360110,W,1,16,0.9,14.833,M,-29.746,M,0.0,*59
###2023-12-09 12:29:05.325202$GNGGA,172904.50,4138.0384074,N,07032.4360054,W,1,16,0.9,14.847,M,-29.746,M,0.0,*55
###2023-12-09 12:29:05.525803$GNGGA,172904.70,4138.0384029,N,07032.4359990,W,1,16,0.9,14.866,M,-29.746,M,0.0,*57
###2023-12-09 12:29:05.721603$GNGGA,172904.90,4138.0383981,N,07032.4359935,W,1,16,0.9,14.884,M,-29.746,M,0.0,*56
###2023-12-09 12:29:05.923210$GNRMC,172905.10,A,4138.0383934,N,07032.4359881,W,0.06,,091223,,,A*4C
###2023-12-09 12:29:05.926745$GNGGA,172905.10,4138.0383934,N,07032.4359881,W,1,16,0.9,14.903,M,-29.746,M,0.0,*51
###2023-12-09 12:29:05.928959$GPGSA,A,3,03,16,26,28,29,31,32,,,,,,1.6,0.9,1.3*3C
###2023-12-09 12:29:05.930944$GLGSA,A,3,71,72,73,75,,,,,,,,,1.6,0.9,1.3*27
###2023-12-09 12:29:05.932740$GAGSA,A,3,21,27,,,,,,,,,,,1.6,0.9,1.3*29
###2023-12-09 12:29:05.934623$GBGSA,A,3,14,26,33,,,,,,,,,,1.6,0.9,1.3*2D
###2023-12-09 12:29:05.937506$GPGSV,2,1,07,03,39,280,35,16,34,206,44,26,63,206,42,28,60,052,45*75
###2023-12-09 12:29:05.940030$GPGSV,2,2,07,29,25,077,42,31,73,351,44,32,33,132,47,,,,*47
###2023-12-09 12:29:05.942918$GLGSV,1,1,04,71,60,168,48,72,63,314,42,73,50,032,45,75,20,239,39*61
###2023-12-09 12:29:05.945095$GAGSV,1,1,02,21,75,179,39,27,43,050,45,,,,,,,,*68
###2023-12-09 12:29:05.947652$GBGSV,1,1,03,14,57,199,45,26,37,056,46,33,64,260,41,,,,*5D
###2023-12-09 12:29:05.949100$GNVTG,,T,,M,0.06,N,0.11,K,A*3B
###2023-12-09 12:29:05.951449$GNGST,172905.10,32.000,,,,0.120,0.140,0.310*5B
###2023-12-09 12:29:05.953074$GNZDA,172905.10,09,12,2023,00,00*78
###2023-12-09 12:29:05.953894$GNEBP,,,,,,M*13
###2023-12-09 12:29:06.122172$GNGGA,172905.30,4138.0383883,N,07032.4359826,W,1,16,0.9,14.923,M,-29.746,M,0.0,*51
###2023-12-09 12:29:06.322362$GNGGA,172905.50,4138.0383841,N,07032.4359759,W,1,16,0.9,14.942,M,-29.746,M,0.0,*59
###2023-12-09 12:29:06.522298$GNGGA,172905.70,4138.0383787,N,07032.4359686,W,1,16,0.9,14.966,M,-29.746,M,0.0,*5B
###2023-12-09 12:29:06.720514$GNGGA,172905.90,4138.0383734,N,07032.4359620,W,1,16,0.9,14.991,M,-29.746,M,0.0,*59
###2023-12-09 12:29:06.922338$GNRMC,172906.10,A,4138.0383678,N,07032.4359542,W,0.04,,091223,,,A*48
###2023-12-09 12:29:06.925888$GNGGA,172906.10,4138.0383678,N,07032.4359542,W,1,16,0.9,15.020,M,-29.746,M,0.0,*5E
###2023-12-09 12:29:06.928119$GPGSA,A,3,03,16,26,28,29,31,32,,,,,,1.6,0.9,1.3*3C
###2023-12-09 12:29:06.930089$GLGSA,A,3,71,72,73,75,,,,,,,,,1.6,0.9,1.3*27
###2023-12-09 12:29:06.931912$GAGSA,A,3,21,27,,,,,,,,,,,1.6,0.9,1.3*29
###2023-12-09 12:29:06.933795$GBGSA,A,3,14,26,33,,,,,,,,,,1.6,0.9,1.3*2D
###2023-12-09 12:29:06.936666$GPGSV,2,1,07,03,39,280,36,16,34,206,45,26,63,206,42,28,60,052,45*77
###2023-12-09 12:29:06.939177$GPGSV,2,2,07,29,25,077,41,31,73,351,44,32,33,132,47,,,,*44
###2023-12-09 12:29:06.942035$GLGSV,1,1,04,71,60,168,49,72,63,314,42,73,50,032,45,75,20,239,38*61
###2023-12-09 12:29:06.944537$GAGSV,1,1,02,21,75,179,39,27,43,050,45,,,,,,,,*68
###2023-12-09 12:29:06.947129$GBGSV,1,1,03,14,57,199,45,26,37,056,45,33,64,260,40,,,,*5F
###2023-12-09 12:29:06.948575$GNVTG,,T,,M,0.04,N,0.07,K,A*3E
###2023-12-09 12:29:06.950648$GNGST,172906.10,32.000,,,,0.120,0.140,0.310*58
###2023-12-09 12:29:06.952270$GNZDA,172906.10,09,12,2023,00,00*7B
###2023-12-09 12:29:06.953097$GNEBP,,,,,,M*13
###2023-12-09 12:29:07.122255$GNGGA,172906.30,4138.0383637,N,07032.4359495,W,1,16,0.9,15.033,M,-29.746,M,0.0,*5E
###2023-12-09 12:29:07.321309$GNGGA,172906.50,4138.0383589,N,07032.4359443,W,1,16,0.9,15.055,M,-29.746,M,0.0,*55
