###2023-12-09 12:54:10.975892$GAGSV,1,1,04,04,27,312,41,19,85,242,40,21,84,148,46,27,36,048,44*61
###2023-12-09 12:54:10.978249$GBGSV,2,1,05,14,47,194,46,24,76,016,49,25,38,259,45,26,29,061,45*62
###2023-12-09 12:54:10.979727$GBGSV,2,2,05,33,60,238,46,,,,,,,,,,,,*53
###2023-12-09 12:54:10.981056$GNVTG,293.85,T,,M,0.12,N,0.22,K,A*25
###2023-12-09 12:54:10.982723$GNGST,175410.10,18.000,,,,0.076,0.067,0.160*5E
###2023-12-09 12:54:10.984017$GNZDA,175410.10,09,12,2023,00,00*76
###2023-12-09 12:54:10.984661$GNEBP,,,,,,M*13
###2023-12-09 12:54:11.153479$GNGGA,175410.30,4138.0605688,N,07032.3934334,W,1,24,0.6,13.645,M,-29.744,M,0.0,*5B
###2023-12-09 12:54:11.353372$GNGGA,175410.50,4138.0605952,N,07032.3935019,W,1,24,0.6,13.678,M,-29.744,M,0.0,*56
###2023-12-09 12:54:11.553460$GNGGA,175410.70,4138.0606126,N,07032.3935478,W,1,24,0.6,13.680,M,-29.744,M,0.0,*58
###2023-12-09 12:54:11.755634$GNGGA,175410.90,4138.0606053,N,07032.3935344,W,1,24,0.6,13.665,M,-29.744,M,0.0,*56
###2023-12-09 12:54:11.955284$GNRMC,175411.10,A,4138.0605957,N,07032.3935181,W,0.16,299.34,091223,,,A*59
###2023-12-09 12:54:11.958162$GNGGA,175411.10,4138.0605957,N,07032.3935181,W,1,24,0.6,13.622,M,-29.744,M,0.0,*59
###2023-12-09 12:54:11.960049$GPGSA,A,3,03,04,16,26,28,29,31,32,,,,,1.1,0.6,0.9*3B
###2023-12-09 12:54:11.961764$GLGSA,A,3,65,71,72,73,74,75,,,,,,,1.1,0.6,0.9*24
###2023-12-09 12:54:11.963366$GAGSA,A,3,04,19,21,27,,,,,,,,,1.1,0.6,0.9*26
###2023-12-09 12:54:11.965017$GBGSA,A,3,14,24,25,26,33,,,,,,,,1.1,0.6,0.9*2F
###2023-12-09 12:54:11.967350$GPGSV,2,1,08,03,36,266,41,04,29,311,38,16,46,211,43,26,76,209,47*79
###2023-12-09 12:54:11.969678$GPGSV,2,2,08,28,52,067,46,29,25,064,45,31,70,029,47,32,22,138,46*74
###2023-12-09 12:54:11.972019$GLGSV,2,1,06,65,20,328,37,71,45,172,47,72,72,285,45,73,39,039,47*65
###2023-12-09 12:54:11.973764$GLGSV,2,2,06,74,71,324,43,75,29,249,39,,,,,,,,*68
###2023-12-09 12:54:11.976104$GAGSV,1,1,04,04,27,312,36,19,85,242,40,21,84,148,46,27,35,048,44*62
###2023-12-09 12:54:11.978428$GBGSV,2,1,05,14,47,194,45,24,76,016,49,25,38,259,44,26,29,061,46*63
###2023-12-09 12:54:11.979891$GBGSV,2,2,05,33,60,238,46,,,,,,,,,,,,*53
###2023-12-09 12:54:11.981210$GNVTG,299.34,T,,M,0.16,N,0.29,K,A*2A
###2023-12-09 12:54:11.982864$GNGST,175411.10,18.000,,,,0.076,0.066,0.160*5E
###2023-12-09 12:54:11.984158$GNZDA,175411.10,09,12,2023,00,00*77
###2023-12-09 12:54:11.984796$GNEBP,,,,,,M*13
###2023-12-09 12:54:12.153205$GNGGA,175411.30,4138.0606147,N,07032.3935733,W,1,24,0.6,13.642,M,-29.744,M,0.0,*58
###2023-12-09 12:54:12.354678$GNGGA,175411.50,4138.0606419,N,07032.3936485,W,1,24,0.6,13.662,M,-29.744,M,0.0,*5F
###2023-12-09 12:54:12.553257$GNGGA,175411.70,4138.0606504,N,07032.3936756,W,1,24,0.6,13.677,M,-29.744,M,0.0,*59
###2023-12-09 12:54:12.754528$GNGGA,175411.90,4138.0606438,N,07032.3936606,W,1,24,0.6,13.679,M,-29.744,M,0.0,*53
###2023-12-09 12:54:12.955651$GNRMC,175412.10,A,4138.0606397,N,07032.3936536,W,0.17,297.61,091223,,,A*5B
###2023-12-09 12:54:12.958497$GNGGA,175412.10,4138.0606397,N,07032.3936536,W,1,24,0.6,13.625,M,-29.744,M,0.0,*53
###2023-12-09 12:54:12.960372$GPGSA,A,3,03,04,16,26,28,29,31,32,,,,,1.1,0.6,0.9*3B
###2023-12-09 12:54:12.962086$GLGSA,A,3,65,71,72,73,74,75,,,,,,,1.1,0.6,0.9*24
###2023-12-09 12:54:12.963677$GAGSA,A,3,04,19,21,27,,,,,,,,,1.1,0.6,0.9*26
###2023-12-09 12:54:12.965321$GBGSA,A,3,14,24,25,26,33,,,,,,,,1.1,0.6,0.9*2F
###2023-12-09 12:54:12.967655$GPGSV,2,1,08,03,36,266,41,04,29,311,39,16,46,211,44,26,76,209,47*7F
###2023-12-09 12:54:12.969978$GPGSV,2,2,08,28,52,067,45,29,25,064,45,31,70,029,47,32,22,138,46*77
###2023-12-09 12:54:12.972316$GLGSV,2,1,06,65,20,328,37,71,45,172,47,72,72,285,44,73,39,039,46*65
###2023-12-09 12:54:12.974062$GLGSV,2,2,06,74,71,324,42,75,29,249,40,,,,,,,,*67
###2023-12-09 12:54:12.976405$GAGSV,1,1,04,04,27,312,37,19,85,242,40,21,84,148,46,27,35,048,44*63
###2023-12-09 12:54:12.978735$GBGSV,2,1,05,14,47,194,45,24,76,016,49,25,38,259,44,26,29,061,44*61
###2023-12-09 12:54:12.980182$GBGSV,2,2,05,33,60,238,45,,,,,,,,,,,,*50
###2023-12-09 12:54:12.981500$GNVTG,297.61,T,,M,0.17,N,0.32,K,A*2F
###2023-12-09 12:54:12.983156$GNGST,175412.10,19.000,,,,0.076,0.067,0.160*5D
###2023-12-09 12:54:12.984448$GNZDA,175412.10,09,12,2023,00,00*74
###2023-12-09 12:54:12.985083$GNEBP,,,,,,M*13
###2023-12-09 12:54:13.153200$GNGGA,175412.30,4138.0606561,N,07032.3937020,W,1,24,0.6,13.631,M,-29.744,M,0.0,*58
###2023-12-09 12:54:13.353409$GNGGA,175412.50,4138.0606798,N,07032.3937709,W,1,24,0.6,13.656,M,-29.744,M,0.0,*57
###2023-12-09 12:54:13.554357$GNGGA,175412.70,4138.0606867,N,07032.3937947,W,1,24,0.6,13.671,M,-29.744,M,0.0,*5B
###2023-12-09 12:54:13.754452$GNGGA,175412.90,4138.0606810,N,07032.3937809,W,1,24,0.6,13.684,M,-29.744,M,0.0,*54
###2023-12-09 12:54:13.955728$GNRMC,175413.10,A,4138.0606806,N,07032.3937834,W,0.43,293.62,091223,,,A*51
###2023-12-09 12:54:13.958630$GNGGA,175413.10,4138.0606806,N,07032.3937834,W,1,24,0.6,13.655,M,-29.744,M,0.0,*58
###2023-12-09 12:54:13.960492$GPGSA,A,3,03,04,16,26,28,29,31,32,,,,,1.1,0.6,0.9*3B
###2023-12-09 12:54:13.962200$GLGSA,A,3,65,71,72,73,74,75,,,,,,,1.1,0.6,0.9*24
###2023-12-09 12:54:13.963800$GAGSA,A,3,04,19,21,27,,,,,,,,,1.1,0.6,0.9*26
###2023-12-09 12:54:13.965480$GBGSA,A,3,14,24,25,26,33,,,,,,,,1.1,0.6,0.9*2F
###2023-12-09 12:54:13.967827$GPGSV,2,1,08,03,36,266,43,04,29,311,41,16,46,211,44,26,76,209,49*7C
###2023-12-09 12:54:13.970152$GPGSV,2,2,08,28,52,067,47,29,25,064,45,31,70,029,49,32,22,138,47*7A
###2023-12-09 12:54:13.972512$GLGSV,2,1,06,65,20,328,39,71,45,172,47,72,72,285,45,73,39,039,47*6B
###2023-12-09 12:54:13.974257$GLGSV,2,2,06,74,71,324,43,75,29,249,40,,,,,,,,*66
###2023-12-09 12:54:13.976588$GAGSV,1,1,04,04,27,312,39,19,85,242,41,21,84,148,47,27,35,048,45*6C
###2023-12-09 12:54:13.978930$GBGSV,2,1,05,14,47,194,45,24,76,016,49,25,38,259,44,26,29,061,45*60
###2023-12-09 12:54:13.980390$GBGSV,2,2,05,33,60,238,45,,,,,,,,,,,,*50
###2023-12-09 12:54:13.981708$GNVTG,293.62,T,,M,0.43,N,0.79,K,A*26
###2023-12-09 12:54:13.983366$GNGST,175413.10,18.000,,,,0.076,0.066,0.160*5C
###2023-12-09 12:54:13.984655$GNZDA,175413.10,09,12,2023,00,00*75
###2023-12-09 12:54:13.985293$GNEBP,,,,,,M*13
###2023-12-09 12:54:14.153389$GNGGA,175413.30,4138.0606980,N,07032.3938306,W,1,24,0.6,13.648,M,-29.744,M,0.0,*5C
###2023-12-09 12:54:14.352380$GNGGA,175413.50,4138.0607137,N,07032.3938819,W,1,24,0.6,13.646,M,-29.744,M,0.0,*54
###2023-12-09 12:54:14.553408$GNGGA,175413.70,4138.0607150,N,07032.3939008,W,1,24,0.6,13.657,M,-29.744,M,0.0,*5E
###2023-12-09 12:54:14.753244$GNGGA,175413.90,4138.0607178,N,07032.3939087,W,1,24,0.6,13.684,M,-29.744,M,0.0,*53
###2023-12-09 12:54:14.953979$GNRMC,175414.10,A,4138.0607265,N,07032.3939347,W,0.41,293.62,091223,,,A*5B
###2023-12-09 12:54:14.956886$GNGGA,175414.10,4138.0607265,N,07032.3939347,W,1,24,0.6,13.679,M,-29.744,M,0.0,*5E
###2023-12-09 12:54:14.958774$GPGSA,A,3,03,04,16,26,28,29,31,32,,,,,1.1,0.6,0.9*3B
###2023-12-09 12:54:14.960487$GLGSA,A,3,65,71,72,73,74,75,,,,,,,1.1,0.6,0.9*24
###2023-12-09 12:54:14.962061$GAGSA,A,3,04,19,21,27,,,,,,,,,1.1,0.6,0.9*26
###2023-12-09 12:54:14.963714$GBGSA,A,3,14,24,25,26,33,,,,,,,,1.1,0.6,0.9*2F
###2023-12-09 12:54:14.966026$GPGSV,2,1,08,03,36,266,44,04,29,311,44,16,46,211,44,26,76,209,48*7F
###2023-12-09 12:54:14.968363$GPGSV,2,2,08,28,52,067,46,29,25,064,43,31,70,029,49,32,22,138,46*7C
###2023-12-09 12:54:14.970697$GLGSV,2,1,06,65,20,328,40,71,45,172,46,72,72,285,46,73,39,039,47*67
###2023-12-09 12:54:14.972439$GLGSV,2,2,06,74,71,324,43,75,29,249,44,,,,,,,,*62
###2023-12-09 12:54:14.974769$GAGSV,1,1,04,04,27,312,42,19,85,242,41,21,84,148,47,27,35,048,44*61
###2023-12-09 12:54:14.977091$GBGSV,2,1,05,14,47,194,44,24,76,016,48,25,38,259,46,26,29,061,44*63
###2023-12-09 12:54:14.978538$GBGSV,2,2,05,33,60,238,46,,,,,,,,,,,,*53
###2023-12-09 12:54:14.979863$GNVTG,293.62,T,,M,0.41,N,0.76,K,A*2B
###2023-12-09 12:54:14.981517$GNGST,175414.10,18.000,,,,0.076,0.066,0.150*58
###2023-12-09 12:54:14.982823$GNZDA,175414.10,09,12,2023,00,00*72
###2023-12-09 12:54:14.983466$GNEBP,,,,,,M*13
###2023-12-09 12:54:15.153443$GNGGA,175414.30,4138.0607322,N,07032.3939591,W,1,24,0.6,13.647,M,-29.744,M,0.0,*5E
###2023-12-09 12:54:15.354269$GNGGA,175414.50,4138.0607418,N,07032.3939877,W,1,24,0.6,13.637,M,-29.744,M,0.0,*54
###2023-12-09 12:54:15.553278$GNGGA,175414.70,4138.0607547,N,07032.3940284,W,1,24,0.6,13.653,M,-29.744,M,0.0,*57
###2023-12-09 12:54:15.754387$GNGGA,175414.90,4138.0607627,N,07032.3940551,W,1,24,0.6,13.657,M,-29.744,M,0.0,*57
###2023-12-09 12:54:15.952966$GNRMC,175415.10,A,4138.0607632,N,07032.3940562,W,0.06,293.62,091223,,,A*50
###2023-12-09 12:54:15.955831$GNGGA,175415.10,4138.0607632,N,07032.3940562,W,1,24,0.6,13.652,M,-29.744,M,0.0,*5F
###2023-12-09 12:54:15.957683$GPGSA,A,3,03,04,16,26,28,29,31,32,,,,,1.1,0.6,0.9*3B
###2023-12-09 12:54:15.959408$GLGSA,A,3,65,71,72,73,74,75,,,,,,,1.1,0.6,0.9*24
###2023-12-09 12:54:15.960983$GAGSA,A,3,04,19,21,27,,,,,,,,,1.1,0.6,0.9*26
