###2023-12-09 12:55:26.984861$GNGST,175526.10,18.000,,,,0.078,0.066,0.160*55
###2023-12-09 12:55:26.986189$GNZDA,175526.10,09,12,2023,00,00*72
###2023-12-09 12:55:26.986859$GNEBP,,,,,,M*13
###2023-12-09 12:55:27.157692$GNGGA,175526.30,4138.0470843,N,07032.3865029,W,1,24,0.6,13.076,M,-29.745,M,0.0,*5B
###2023-12-09 12:55:27.358193$GNGGA,175526.50,4138.0471762,N,07032.3865384,W,1,24,0.6,13.067,M,-29.745,M,0.0,*54
###2023-12-09 12:55:27.557607$GNGGA,175526.70,4138.0472699,N,07032.3865706,W,1,24,0.6,13.068,M,-29.745,M,0.0,*51
###2023-12-09 12:55:27.757037$GNGGA,175526.90,4138.0473636,N,07032.3866044,W,1,24,0.6,13.071,M,-29.745,M,0.0,*51
###2023-12-09 12:55:27.956027$GNRMC,175527.10,A,4138.0474540,N,07032.3866489,W,1.71,337.34,091223,,,A*5C
###2023-12-09 12:55:27.958903$GNGGA,175527.10,4138.0474540,N,07032.3866489,W,1,24,0.6,13.067,M,-29.745,M,0.0,*5F
###2023-12-09 12:55:27.960766$GPGSA,A,3,03,04,16,26,28,29,31,32,,,,,1.1,0.6,0.9*3B
###2023-12-09 12:55:27.962479$GLGSA,A,3,65,71,72,73,74,75,,,,,,,1.1,0.6,0.9*24
###2023-12-09 12:55:27.964087$GAGSA,A,3,04,19,21,27,,,,,,,,,1.1,0.6,0.9*26
###2023-12-09 12:55:27.965739$GBGSA,A,3,14,24,25,26,33,,,,,,,,1.1,0.6,0.9*2F
###2023-12-09 12:55:27.968087$GPGSV,2,1,08,03,36,265,44,04,30,311,41,16,47,211,46,26,76,209,48*72
###2023-12-09 12:55:27.970428$GPGSV,2,2,08,28,52,067,46,29,25,064,45,31,70,029,47,32,22,138,44*76
###2023-12-09 12:55:27.972790$GLGSV,2,1,06,65,21,328,37,71,44,172,47,72,72,281,46,73,38,040,44*6E
###2023-12-09 12:55:27.974544$GLGSV,2,2,06,74,71,327,41,75,30,250,45,,,,,,,,*62
###2023-12-09 12:55:27.976899$GAGSV,1,1,04,04,27,312,40,19,85,242,40,21,84,147,46,27,35,048,43*6B
###2023-12-09 12:55:27.979245$GBGSV,2,1,05,14,46,194,46,24,75,018,49,25,39,260,47,26,28,061,45*66
###2023-12-09 12:55:27.980703$GBGSV,2,2,05,33,59,237,48,,,,,,,,,,,,*58
###2023-12-09 12:55:27.982028$GNVTG,337.34,T,,M,1.71,N,3.17,K,A*21
###2023-12-09 12:55:27.983688$GNGST,175527.10,18.000,,,,0.078,0.066,0.160*54
###2023-12-09 12:55:27.984978$GNZDA,175527.10,09,12,2023,00,00*73
###2023-12-09 12:55:27.985618$GNEBP,,,,,,M*13
###2023-12-09 12:55:28.155105$GNGGA,175527.30,4138.0475395,N,07032.3867042,W,1,24,0.6,13.068,M,-29.745,M,0.0,*5F
###2023-12-09 12:55:28.357179$GNGGA,175527.50,4138.0476253,N,07032.3867645,W,1,24,0.6,13.066,M,-29.745,M,0.0,*5E
###2023-12-09 12:55:28.556980$GNGGA,175527.70,4138.0477159,N,07032.3868184,W,1,24,0.6,13.063,M,-29.745,M,0.0,*54
###2023-12-09 12:55:28.755920$GNGGA,175527.90,4138.0478048,N,07032.3868753,W,1,24,0.6,13.054,M,-29.745,M,0.0,*5C
###2023-12-09 12:55:28.957328$GNRMC,175528.10,A,4138.0478836,N,07032.3869414,W,1.69,324.99,091223,,,A*54
###2023-12-09 12:55:28.960216$GNGGA,175528.10,4138.0478836,N,07032.3869414,W,1,24,0.6,13.049,M,-29.745,M,0.0,*57
###2023-12-09 12:55:28.962075$GPGSA,A,3,03,04,16,26,28,29,31,32,,,,,1.1,0.6,0.9*3B
###2023-12-09 12:55:28.963820$GLGSA,A,3,65,71,72,73,74,75,,,,,,,1.1,0.6,0.9*24
###2023-12-09 12:55:28.965409$GAGSA,A,3,04,19,21,27,,,,,,,,,1.1,0.6,0.9*26
###2023-12-09 12:55:28.967064$GBGSA,A,3,14,24,25,26,33,,,,,,,,1.1,0.6,0.9*2F
###2023-12-09 12:55:28.969384$GPGSV,2,1,08,03,36,265,45,04,30,311,42,16,47,211,46,26,76,209,48*70
###2023-12-09 12:55:28.971721$GPGSV,2,2,08,28,52,067,46,29,25,064,42,31,70,029,47,32,22,138,43*76
###2023-12-09 12:55:28.974048$GLGSV,2,1,06,65,21,328,38,71,44,172,47,72,72,281,45,73,38,040,46*60
###2023-12-09 12:55:28.975809$GLGSV,2,2,06,74,71,327,41,75,30,250,43,,,,,,,,*64
###2023-12-09 12:55:28.978138$GAGSV,1,1,04,04,27,312,38,19,85,242,40,21,84,147,45,27,35,048,43*67
###2023-12-09 12:55:28.980478$GBGSV,2,1,05,14,46,194,45,24,75,018,48,25,39,260,46,26,28,061,43*63
###2023-12-09 12:55:28.981938$GBGSV,2,2,05,33,59,237,47,,,,,,,,,,,,*57
###2023-12-09 12:55:28.983274$GNVTG,324.99,T,,M,1.69,N,3.13,K,A*29
###2023-12-09 12:55:28.984927$GNGST,175528.10,18.000,,,,0.078,0.066,0.160*5B
###2023-12-09 12:55:28.986222$GNZDA,175528.10,09,12,2023,00,00*7C
###2023-12-09 12:55:28.986877$GNEBP,,,,,,M*13
###2023-12-09 12:55:29.160761$GNGGA,175528.30,4138.0479561,N,07032.3870125,W,1,24,0.6,13.046,M,-29.745,M,0.0,*5B
###2023-12-09 12:55:29.356544$GNGGA,175528.50,4138.0480268,N,07032.3870894,W,1,24,0.6,13.044,M,-29.745,M,0.0,*54
###2023-12-09 12:55:29.557994$GNGGA,175528.70,4138.0480985,N,07032.3871650,W,1,24,0.6,13.041,M,-29.745,M,0.0,*5C
###2023-12-09 12:55:29.754973$GNGGA,175528.90,4138.0481665,N,07032.3872477,W,1,24,0.6,13.037,M,-29.745,M,0.0,*57
###2023-12-09 12:55:29.958289$GNRMC,175529.10,A,4138.0482322,N,07032.3873381,W,1.81,312.90,091223,,,A*54
###2023-12-09 12:55:29.961181$GNGGA,175529.10,4138.0482322,N,07032.3873381,W,1,24,0.6,13.036,M,-29.745,M,0.0,*55
###2023-12-09 12:55:29.963055$GPGSA,A,3,03,04,16,26,28,29,31,32,,,,,1.1,0.6,0.9*3B
###2023-12-09 12:55:29.964769$GLGSA,A,3,65,71,72,73,74,75,,,,,,,1.1,0.6,0.9*24
###2023-12-09 12:55:29.966345$GAGSA,A,3,04,19,21,27,,,,,,,,,1.1,0.6,0.9*26
###2023-12-09 12:55:29.967998$GBGSA,A,3,14,24,25,26,33,,,,,,,,1.1,0.6,0.9*2F
###2023-12-09 12:55:29.970324$GPGSV,2,1,08,03,36,265,44,04,30,311,43,16,47,211,46,26,76,209,48*70
###2023-12-09 12:55:29.972667$GPGSV,2,2,08,28,52,067,46,29,25,064,42,31,70,029,47,32,22,138,43*76
###2023-12-09 12:55:29.975010$GLGSV,2,1,06,65,21,328,39,71,44,172,47,72,72,281,44,73,38,040,47*61
###2023-12-09 12:55:29.976759$GLGSV,2,2,06,74,71,327,41,75,30,250,43,,,,,,,,*64
###2023-12-09 12:55:29.979100$GAGSV,1,1,04,04,27,312,39,19,85,242,40,21,84,147,46,27,35,048,43*65
###2023-12-09 12:55:29.981428$GBGSV,2,1,05,14,46,194,45,24,75,018,48,25,39,260,46,26,28,061,42*62
###2023-12-09 12:55:29.982894$GBGSV,2,2,05,33,59,237,46,,,,,,,,,,,,*56
###2023-12-09 12:55:29.984218$GNVTG,312.90,T,,M,1.81,N,3.35,K,A*27
###2023-12-09 12:55:29.985861$GNGST,175529.10,18.000,,,,0.078,0.066,0.160*5A
###2023-12-09 12:55:29.987167$GNZDA,175529.10,09,12,2023,00,00*7D
###2023-12-09 12:55:29.987809$GNEBP,,,,,,M*13
###2023-12-09 12:55:30.156411$GNGGA,175529.30,4138.0483010,N,07032.3874353,W,1,24,0.6,13.028,M,-29.745,M,0.0,*53
###2023-12-09 12:55:30.358126$GNGGA,175529.50,4138.0483708,N,07032.3875334,W,1,24,0.6,13.026,M,-29.745,M,0.0,*55
###2023-12-09 12:55:30.557216$GNGGA,175529.70,4138.0484382,N,07032.3876377,W,1,24,0.6,13.019,M,-29.745,M,0.0,*5E
###2023-12-09 12:55:30.756933$GNGGA,175529.90,4138.0484971,N,07032.3877509,W,1,24,0.6,13.020,M,-29.745,M,0.0,*52
###2023-12-09 12:55:30.957156$GNRMC,175530.10,A,4138.0485523,N,07032.3878678,W,1.89,300.77,091223,,,A*56
###2023-12-09 12:55:30.960022$GNGGA,175530.10,4138.0485523,N,07032.3878678,W,1,24,0.6,13.018,M,-29.745,M,0.0,*59
###2023-12-09 12:55:30.961884$GPGSA,A,3,03,04,16,26,28,29,31,32,,,,,1.1,0.6,0.9*3B
###2023-12-09 12:55:30.963633$GLGSA,A,3,65,71,72,73,74,75,,,,,,,1.1,0.6,0.9*24
###2023-12-09 12:55:30.965219$GAGSA,A,3,04,19,21,27,,,,,,,,,1.1,0.6,0.9*26
###2023-12-09 12:55:30.966881$GBGSA,A,3,14,24,25,26,33,,,,,,,,1.1,0.6,0.9*2F
###2023-12-09 12:55:30.969205$GPGSV,2,1,08,03,36,265,42,04,30,311,41,16,47,211,45,26,76,209,48*77
###2023-12-09 12:55:30.971553$GPGSV,2,2,08,28,52,067,45,29,25,064,41,31,70,029,47,32,22,138,43*76
###2023-12-09 12:55:30.973882$GLGSV,2,1,06,65,21,328,38,71,44,172,48,72,72,281,45,73,38,040,47*6E
###2023-12-09 12:55:30.975639$GLGSV,2,2,06,74,71,327,42,75,30,250,44,,,,,,,,*60
###2023-12-09 12:55:30.977960$GAGSV,1,1,04,04,27,312,39,19,85,242,40,21,84,147,46,27,35,048,43*65
###2023-12-09 12:55:30.980298$GBGSV,2,1,05,14,46,194,45,24,75,018,49,25,39,260,46,26,28,061,42*63
###2023-12-09 12:55:30.981752$GBGSV,2,2,05,33,59,237,48,,,,,,,,,,,,*58
###2023-12-09 12:55:30.983082$GNVTG,300.77,T,,M,1.89,N,3.49,K,A*2E
###2023-12-09 12:55:30.984729$GNGST,175530.10,18.000,,,,0.078,0.066,0.160*52
###2023-12-09 12:55:30.986019$GNZDA,175530.10,09,12,2023,00,00*75
###2023-12-09 12:55:30.986668$GNEBP,,,,,,M*13
###2023-12-09 12:55:31.155188$GNGGA,175530.30,4138.0486059,N,07032.3879873,W,1,24,0.6,13.016,M,-29.745,M,0.0,*5A
###2023-12-09 12:55:31.356910$GNGGA,175530.50,4138.0486609,N,07032.3881118,W,1,24,0.6,13.013,M,-29.745,M,0.0,*59
###2023-12-09 12:55:31.555943$GNGGA,175530.70,4138.0487092,N,07032.3882408,W,1,24,0.6,13.012,M,-29.745,M,0.0,*58
###2023-12-09 12:55:31.755961$GNGGA,175530.90,4138.0487544,N,07032.3883761,W,1,24,0.6,13.009,M,-29.745,M,0.0,*5F
###2023-12-09 12:55:31.957104$GNRMC,175531.10,A,4138.0487959,N,07032.3885145,W,2.10,291.55,091223,,,A*55
###2023-12-09 12:55:31.960011$GNGGA,175531.10,4138.0487959,N,07032.3885145,W,1,24,0.6,13.007,M,-29.745,M,0.0,*5E
###2023-12-09 12:55:31.961883$GPGSA,A,3,03,04,16,26,28,29,31,32,,,,,1.1,0.6,0.9*3B
###2023-12-09 12:55:31.963613$GLGSA,A,3,65,71,72,73,74,75,,,,,,,1.1,0.6,0.9*24
###2023-12-09 12:55:31.965198$GAGSA,A,3,04,19,21,27,,,,,,,,,1.1,0.6,0.9*26
###2023-12-09 12:55:31.966857$GBGSA,A,3,14,24,25,26,33,,,,,,,,1.1,0.6,0.9*2F
###2023-12-09 12:55:31.969187$GPGSV,2,1,08,03,36,265,42,04,30,311,39,16,47,211,45,26,76,209,48*78
###2023-12-09 12:55:31.971539$GPGSV,2,2,08,28,52,067,45,29,25,064,42,31,70,029,47,32,22,138,43*75
###2023-12-09 12:55:31.973882$GLGSV,2,1,06,65,21,328,38,71,44,172,47,72,72,281,46,73,38,040,46*63
