###2023-12-09 12:26:23.943418$GNEBP,,,,,,M*13
###2023-12-09 12:26:24.118115$GNGGA,172623.30,4138.0380747,N,07032.4358046,W,1,17,0.8,8.682,M,-29.746,M,0.0,*68
###2023-12-09 12:26:24.316794$GNGGA,172623.50,4138.0380725,N,07032.4358028,W,1,17,0.8,8.674,M,-29.746,M,0.0,*6B
###2023-12-09 12:26:24.519239$GNGGA,172623.70,4138.0380714,N,07032.4358026,W,1,17,0.8,8.667,M,-29.746,M,0.0,*67
###2023-12-09 12:26:24.715870$GNGGA,172623.90,4138.0380696,N,07032.4358018,W,1,17,0.8,8.663,M,-29.746,M,0.0,*6B
###2023-12-09 12:26:24.918457$GNRMC,172624.10,A,4138.0380691,N,07032.4358008,W,0.02,,091223,,,A*4F
###2023-12-09 12:26:24.921403$GNGGA,172624.10,4138.0380691,N,07032.4358008,W,1,17,0.8,8.655,M,-29.746,M,0.0,*67
###2023-12-09 12:26:24.923262$GPGSA,A,3,03,16,26,28,29,31,32,,,,,,1.5,0.8,1.3*3E
###2023-12-09 12:26:24.924900$GLGSA,A,3,71,72,73,75,,,,,,,,,1.5,0.8,1.3*25
###2023-12-09 12:26:24.926395$GAGSA,A,3,21,27,,,,,,,,,,,1.5,0.8,1.3*2B
###2023-12-09 12:26:24.928031$GBGSA,A,3,14,25,26,33,,,,,,,,,1.5,0.8,1.3*28
###2023-12-09 12:26:24.930400$GPGSV,2,1,07,03,39,282,45,16,32,206,43,26,62,205,44,28,61,050,43*70
###2023-12-09 12:26:24.932491$GPGSV,2,2,07,29,24,078,42,31,73,346,39,32,34,132,47,,,,*42
###2023-12-09 12:26:24.934866$GLGSV,1,1,04,71,61,167,47,72,62,315,45,73,52,031,48,75,19,238,43*6D
###2023-12-09 12:26:24.936645$GAGSV,1,1,02,21,74,179,44,27,44,051,45,,,,,,,,*65
###2023-12-09 12:26:24.939008$GBGSV,1,1,04,14,59,200,46,25,30,250,36,26,38,056,48,33,64,263,39*6F
###2023-12-09 12:26:24.940179$GNVTG,,T,,M,0.02,N,0.04,K,A*3B
###2023-12-09 12:26:24.941858$GNGST,172624.10,30.000,,,,0.230,0.220,0.510*54
###2023-12-09 12:26:24.943228$GNZDA,172624.10,09,12,2023,00,00*74
###2023-12-09 12:26:24.943910$GNEBP,,,,,,M*13
###2023-12-09 12:26:25.116728$GNGGA,172624.30,4138.0380682,N,07032.4357983,W,1,17,0.8,8.647,M,-29.746,M,0.0,*61
###2023-12-09 12:26:25.316749$GNGGA,172624.50,4138.0380670,N,07032.4357985,W,1,17,0.8,8.645,M,-29.746,M,0.0,*6E
###2023-12-09 12:26:25.516634$GNGGA,172624.70,4138.0380660,N,07032.4357989,W,1,17,0.8,8.635,M,-29.746,M,0.0,*66
###2023-12-09 12:26:25.715859$GNGGA,172624.90,4138.0380646,N,07032.4357973,W,1,17,0.8,8.625,M,-29.746,M,0.0,*68
###2023-12-09 12:26:25.916427$GNRMC,172625.10,A,4138.0380631,N,07032.4357965,W,0.02,,091223,,,A*49
###2023-12-09 12:26:25.919318$GNGGA,172625.10,4138.0380631,N,07032.4357965,W,1,17,0.8,8.619,M,-29.746,M,0.0,*69
###2023-12-09 12:26:25.921162$GPGSA,A,3,03,16,26,28,29,31,32,,,,,,1.5,0.8,1.3*3E
###2023-12-09 12:26:25.922804$GLGSA,A,3,71,72,73,75,,,,,,,,,1.5,0.8,1.3*25
###2023-12-09 12:26:25.924299$GAGSA,A,3,21,27,,,,,,,,,,,1.5,0.8,1.3*2B
###2023-12-09 12:26:25.925914$GBGSA,A,3,14,25,26,33,,,,,,,,,1.5,0.8,1.3*28
###2023-12-09 12:26:25.928282$GPGSV,2,1,07,03,39,282,44,16,32,206,41,26,62,205,43,28,61,050,43*74
###2023-12-09 12:26:25.930357$GPGSV,2,2,07,29,24,078,41,31,73,346,39,32,34,132,46,,,,*40
###2023-12-09 12:26:25.932724$GLGSV,1,1,04,71,61,167,47,72,62,315,45,73,52,031,48,75,19,238,43*6D
###2023-12-09 12:26:25.934508$GAGSV,1,1,02,21,74,179,44,27,44,051,45,,,,,,,,*65
###2023-12-09 12:26:25.936870$GBGSV,1,1,04,14,59,200,46,25,30,250,37,26,38,056,48,33,64,263,39*6E
###2023-12-09 12:26:25.938038$GNVTG,,T,,M,0.02,N,0.04,K,A*3B
###2023-12-09 12:26:25.939726$GNGST,172625.10,30.000,,,,0.230,0.220,0.510*55
###2023-12-09 12:26:25.941062$GNZDA,172625.10,09,12,2023,00,00*75
###2023-12-09 12:26:25.941781$GNEBP,,,,,,M*13
###2023-12-09 12:26:26.117400$GNGGA,172625.30,4138.0380623,N,07032.4357955,W,1,17,0.8,8.615,M,-29.746,M,0.0,*67
###2023-12-09 12:26:26.316775$GNGGA,172625.50,4138.0380612,N,07032.4357948,W,1,17,0.8,8.606,M,-29.746,M,0.0,*6D
###2023-12-09 12:26:26.515930$GNGGA,172625.70,4138.0380604,N,07032.4357938,W,1,17,0.8,8.600,M,-29.746,M,0.0,*69
###2023-12-09 12:26:26.715469$GNGGA,172625.90,4138.0380589,N,07032.4357919,W,1,17,0.8,8.593,M,-29.746,M,0.0,*6B
###2023-12-09 12:26:26.926019$GNRMC,172626.10,A,4138.0380578,N,07032.4357913,W,0.02,,091223,,,A*45
###2023-12-09 12:26:26.929165$GNGGA,172626.10,4138.0380578,N,07032.4357913,W,1,17,0.8,8.588,M,-29.746,M,0.0,*6E
###2023-12-09 12:26:26.931191$GPGSA,A,3,03,16,26,28,29,31,32,,,,,,1.5,0.8,1.3*3E
###2023-12-09 12:26:26.932980$GLGSA,A,3,71,72,73,75,,,,,,,,,1.5,0.8,1.3*25
###2023-12-09 12:26:26.934709$GAGSA,A,3,21,27,,,,,,,,,,,1.5,0.8,1.3*2B
###2023-12-09 12:26:26.936503$GBGSA,A,3,14,25,26,33,,,,,,,,,1.5,0.8,1.3*28
###2023-12-09 12:26:26.939037$GPGSV,2,1,07,03,39,282,44,16,32,206,42,26,62,205,43,28,61,050,43*77
###2023-12-09 12:26:26.941280$GPGSV,2,2,07,29,24,078,42,31,73,346,39,32,34,132,47,,,,*42
###2023-12-09 12:26:26.943807$GLGSV,1,1,04,71,61,167,48,72,62,315,44,73,52,031,48,75,19,238,43*63
###2023-12-09 12:26:26.945746$GAGSV,1,1,02,21,74,179,44,27,44,051,45,,,,,,,,*65
###2023-12-09 12:26:26.948300$GBGSV,1,1,04,14,59,200,47,25,30,250,36,26,38,056,48,33,64,263,39*6E
###2023-12-09 12:26:26.949672$GNVTG,,T,,M,0.02,N,0.04,K,A*3B
###2023-12-09 12:26:26.951532$GNGST,172626.10,30.000,,,,0.230,0.220,0.510*56
###2023-12-09 12:26:26.953025$GNZDA,172626.10,09,12,2023,00,00*76
###2023-12-09 12:26:26.953847$GNEBP,,,,,,M*13
###2023-12-09 12:26:27.117382$GNGGA,172626.30,4138.0380572,N,07032.4357898,W,1,17,0.8,8.586,M,-29.746,M,0.0,*6A
###2023-12-09 12:26:27.315846$GNGGA,172626.50,4138.0380550,N,07032.4357874,W,1,17,0.8,8.578,M,-29.746,M,0.0,*6F
###2023-12-09 12:26:27.516839$GNGGA,172626.70,4138.0380541,N,07032.4357877,W,1,17,0.8,8.574,M,-29.746,M,0.0,*62
###2023-12-09 12:26:27.715977$GNGGA,172626.90,4138.0380527,N,07032.4357855,W,1,17,0.8,8.566,M,-29.746,M,0.0,*6F
###2023-12-09 12:26:27.922130$GNRMC,172627.10,A,4138.0380508,N,07032.4357846,W,0.02,,091223,,,A*42
###2023-12-09 12:26:27.925196$GNGGA,172627.10,4138.0380508,N,07032.4357846,W,1,17,0.8,8.559,M,-29.746,M,0.0,*65
###2023-12-09 12:26:27.927036$GPGSA,A,3,03,16,26,28,29,31,32,,,,,,1.5,0.8,1.3*3E
###2023-12-09 12:26:27.928645$GLGSA,A,3,71,72,73,75,,,,,,,,,1.5,0.8,1.3*25
###2023-12-09 12:26:27.930125$GAGSA,A,3,21,27,,,,,,,,,,,1.5,0.8,1.3*2B
###2023-12-09 12:26:27.931742$GBGSA,A,3,14,25,26,33,,,,,,,,,1.5,0.8,1.3*28
###2023-12-09 12:26:27.934087$GPGSV,2,1,07,03,39,282,45,16,32,206,43,26,62,205,43,28,61,050,43*77
###2023-12-09 12:26:27.936154$GPGSV,2,2,07,29,24,078,43,31,73,346,40,32,34,132,47,,,,*4D
###2023-12-09 12:26:27.938492$GLGSV,1,1,04,71,61,167,47,72,62,315,44,73,52,031,48,75,19,238,43*6C
###2023-12-09 12:26:27.940269$GAGSV,1,1,02,21,74,179,44,27,44,051,45,,,,,,,,*65
###2023-12-09 12:26:27.942622$GBGSV,1,1,04,14,59,200,46,25,30,250,36,26,38,056,47,33,64,263,37*6E
###2023-12-09 12:26:27.943773$GNVTG,,T,,M,0.02,N,0.04,K,A*3B
###2023-12-09 12:26:27.945438$GNGST,172627.10,30.000,,,,0.230,0.220,0.520*54
###2023-12-09 12:26:27.946786$GNZDA,172627.10,09,12,2023,00,00*77
###2023-12-09 12:26:27.947458$GNEBP,,,,,,M*13
###2023-12-09 12:26:28.116810$GNGGA,172627.30,4138.0380495,N,07032.4357830,W,1,17,0.8,8.554,M,-29.746,M,0.0,*6E
###2023-12-09 12:26:28.320490$GNGGA,172627.50,4138.0380484,N,07032.4357821,W,1,17,0.8,8.555,M,-29.746,M,0.0,*69
###2023-12-09 12:26:28.519928$GNGGA,172627.70,4138.0380477,N,07032.4357820,W,1,17,0.8,8.548,M,-29.746,M,0.0,*6A
###2023-12-09 12:26:28.715846$GNGGA,172627.90,4138.0380468,N,07032.4357805,W,1,17,0.8,8.541,M,-29.746,M,0.0,*64
###2023-12-09 12:26:28.919367$GNRMC,172628.10,A,4138.0380458,N,07032.4357802,W,0.02,,091223,,,A*49
###2023-12-09 12:26:28.922198$GNGGA,172628.10,4138.0380458,N,07032.4357802,W,1,17,0.8,8.531,M,-29.746,M,0.0,*60
###2023-12-09 12:26:28.924027$GPGSA,A,3,03,16,26,28,29,31,32,,,,,,1.5,0.8,1.3*3E
###2023-12-09 12:26:28.925626$GLGSA,A,3,71,72,73,75,,,,,,,,,1.5,0.8,1.3*25
###2023-12-09 12:26:28.927108$GAGSA,A,3,21,27,,,,,,,,,,,1.5,0.8,1.3*2B
###2023-12-09 12:26:28.928698$GBGSA,A,3,14,25,26,33,,,,,,,,,1.5,0.8,1.3*28
###2023-12-09 12:26:28.931041$GPGSV,2,1,07,03,39,282,45,16,32,206,43,26,62,205,43,28,61,050,43*77
###2023-12-09 12:26:28.933090$GPGSV,2,2,07,29,24,078,43,31,73,346,40,32,34,132,46,,,,*4C
###2023-12-09 12:26:28.935437$GLGSV,1,1,04,71,61,167,47,72,62,315,44,73,52,031,49,75,19,238,43*6D
###2023-12-09 12:26:28.937191$GAGSV,1,1,02,21,74,179,44,27,44,051,46,,,,,,,,*66
###2023-12-09 12:26:28.939540$GBGSV,1,1,04,14,59,200,45,25,30,250,36,26,38,056,47,33,64,263,38*62
###2023-12-09 12:26:28.940939$GNVTG,,T,,M,0.02,N,0.04,K,A*3B
###2023-12-09 12:26:28.942641$GNGST,172628.10,30.000,,,,0.230,0.220,0.520*5B
###2023-12-09 12:26:28.943951$GNZDA,172628.10,09,12,2023,00,00*78
###2023-12-09 12:26:28.944608$GNEBP,,,,,,M*13
###2023-12-09 12:26:29.116769$GNGGA,172628.30,4138.0380450,N,07032.4357788,W,1,17,0.8,8.526,M,-29.746,M,0.0,*61
###2023-12-09 12:26:29.317359$GNGGA,172628.50,4138.0380433,N,07032.4357779,W,1,17,0.8,8.519,M,-29.746,M,0.0,*60
###2023-12-09 12:26:29.517220$GNGGA,172628.70,4138.0380424,N,07032.4357754,W,1,17,0.8,8.511,M,-29.746,M,0.0,*63
###2023-12-09 12:26:29.715413$GNGGA,172628.90,4138.0380406,N,07032.4357731,W,1,17,0.8,8.509,M,-29.746,M,0.0,*67
