###2023-12-09 12:37:16.946994$GAGSA,A,3,04,19,21,27,,,,,,,,,1.2,0.7,1.0*2C
###2023-12-09 12:37:16.948687$GBGSA,A,3,14,24,25,26,33,,,,,,,,1.2,0.7,1.0*25
###2023-12-09 12:37:16.951037$GPGSV,2,1,08,03,38,276,42,04,22,311,39,16,37,207,44,26,67,207,46*76
###2023-12-09 12:37:16.953374$GPGSV,2,2,08,28,57,057,44,29,25,073,42,31,73,004,47,32,29,134,43*7F
###2023-12-09 12:37:16.955721$GLGSV,2,1,05,71,56,169,47,72,66,308,46,73,47,034,47,74,71,293,42*6F
###2023-12-09 12:37:16.957178$GLGSV,2,2,05,75,22,241,42,,,,,,,,,,,,*53
###2023-12-09 12:37:16.959520$GAGSV,1,1,04,04,21,311,39,19,82,299,40,21,78,175,46,27,41,049,44*66
###2023-12-09 12:37:16.961839$GBGSV,2,1,05,14,54,197,44,24,80,351,47,25,33,253,43,26,34,058,44*66
###2023-12-09 12:37:16.963305$GBGSV,2,2,05,33,63,252,46,,,,,,,,,,,,*5C
###2023-12-09 12:37:16.964624$GNVTG,268.04,T,,M,3.05,N,5.65,K,A*2B
###2023-12-09 12:37:16.966262$GNGST,173716.10,18.000,,,,0.088,0.075,0.180*51
###2023-12-09 12:37:16.967566$GNZDA,173716.10,09,12,2023,00,00*75
###2023-12-09 12:37:16.968203$GNEBP,,,,,,M*13
###2023-12-09 12:37:17.139352$GNGGA,173716.30,4138.0631560,N,07032.3664707,W,1,23,0.7,13.283,M,-29.744,M,0.0,*5C
###2023-12-09 12:37:17.336985$GNGGA,173716.50,4138.0631493,N,07032.3667004,W,1,23,0.7,13.286,M,-29.744,M,0.0,*55
###2023-12-09 12:37:17.537223$GNGGA,173716.70,4138.0631310,N,07032.3669282,W,1,23,0.7,13.279,M,-29.744,M,0.0,*59
###2023-12-09 12:37:17.736003$GNGGA,173716.90,4138.0631191,N,07032.3671555,W,1,23,0.7,13.272,M,-29.744,M,0.0,*53
###2023-12-09 12:37:17.939139$GNRMC,173717.10,A,4138.0631197,N,07032.3673815,W,2.97,272.62,091223,,,A*5D
###2023-12-09 12:37:17.941992$GNGGA,173717.10,4138.0631197,N,07032.3673815,W,1,23,0.7,13.277,M,-29.744,M,0.0,*52
###2023-12-09 12:37:17.943866$GPGSA,A,3,03,04,16,26,28,29,31,32,,,,,1.2,0.7,1.0*31
###2023-12-09 12:37:17.945521$GLGSA,A,3,71,72,73,74,75,,,,,,,,1.2,0.7,1.0*2D
###2023-12-09 12:37:17.947161$GAGSA,A,3,04,19,21,27,,,,,,,,,1.2,0.7,1.0*2C
###2023-12-09 12:37:17.948843$GBGSA,A,3,14,24,25,26,33,,,,,,,,1.2,0.7,1.0*25
###2023-12-09 12:37:17.951199$GPGSV,2,1,08,03,38,276,42,04,22,311,37,16,37,207,44,26,67,207,46*78
###2023-12-09 12:37:17.953542$GPGSV,2,2,08,28,57,057,44,29,25,073,42,31,73,004,47,32,29,134,43*7F
###2023-12-09 12:37:17.955895$GLGSV,2,1,05,71,55,169,47,72,66,308,45,73,47,034,47,74,71,293,42*6F
###2023-12-09 12:37:17.957358$GLGSV,2,2,05,75,22,241,42,,,,,,,,,,,,*53
###2023-12-09 12:37:17.959703$GAGSV,1,1,04,04,21,311,37,19,82,299,40,21,78,175,46,27,41,049,44*68
###2023-12-09 12:37:17.962031$GBGSV,2,1,05,14,54,197,44,24,80,351,48,25,33,253,42,26,34,058,44*68
###2023-12-09 12:37:17.963498$GBGSV,2,2,05,33,63,252,46,,,,,,,,,,,,*5C
###2023-12-09 12:37:17.964817$GNVTG,272.62,T,,M,2.97,N,5.51,K,A*2D
###2023-12-09 12:37:17.966465$GNGST,173717.10,18.000,,,,0.088,0.075,0.180*50
###2023-12-09 12:37:17.967776$GNZDA,173717.10,09,12,2023,00,00*74
###2023-12-09 12:37:17.968419$GNEBP,,,,,,M*13
###2023-12-09 12:37:18.137474$GNGGA,173717.30,4138.0631233,N,07032.3676061,W,1,23,0.7,13.285,M,-29.744,M,0.0,*5E
###2023-12-09 12:37:18.337474$GNGGA,173717.50,4138.0631152,N,07032.3678284,W,1,23,0.7,13.288,M,-29.744,M,0.0,*56
###2023-12-09 12:37:18.537628$GNGGA,173717.70,4138.0631005,N,07032.3680520,W,1,23,0.7,13.289,M,-29.744,M,0.0,*58
###2023-12-09 12:37:18.736800$GNGGA,173717.90,4138.0630990,N,07032.3682789,W,1,23,0.7,13.293,M,-29.744,M,0.0,*5A
###2023-12-09 12:37:18.936163$GNRMC,173718.10,A,4138.0631026,N,07032.3685128,W,3.13,271.74,091223,,,A*5E
###2023-12-09 12:37:18.939026$GNGGA,173718.10,4138.0631026,N,07032.3685128,W,1,23,0.7,13.292,M,-29.744,M,0.0,*53
###2023-12-09 12:37:18.940887$GPGSA,A,3,03,04,16,26,28,29,31,32,,,,,1.2,0.7,1.0*31
###2023-12-09 12:37:18.942539$GLGSA,A,3,71,72,73,74,75,,,,,,,,1.2,0.7,1.0*2D
###2023-12-09 12:37:18.944144$GAGSA,A,3,04,19,21,27,,,,,,,,,1.2,0.7,1.0*2C
###2023-12-09 12:37:18.945802$GBGSA,A,3,14,24,25,26,33,,,,,,,,1.2,0.7,1.0*25
###2023-12-09 12:37:18.948162$GPGSV,2,1,08,03,38,276,43,04,22,311,38,16,37,207,44,26,67,207,46*76
###2023-12-09 12:37:18.950513$GPGSV,2,2,08,28,57,057,44,29,25,073,42,31,73,004,47,32,29,134,43*7F
###2023-12-09 12:37:18.952882$GLGSV,2,1,05,71,55,169,48,72,67,307,45,73,47,034,47,74,71,293,42*6E
###2023-12-09 12:37:18.954349$GLGSV,2,2,05,75,22,241,41,,,,,,,,,,,,*50
###2023-12-09 12:37:18.956709$GAGSV,1,1,04,04,21,311,39,19,82,299,40,21,78,175,46,27,41,049,44*66
###2023-12-09 12:37:18.959075$GBGSV,2,1,05,14,54,197,44,24,80,351,48,25,33,253,44,26,34,058,44*6E
###2023-12-09 12:37:18.960539$GBGSV,2,2,05,33,63,252,46,,,,,,,,,,,,*5C
###2023-12-09 12:37:18.961867$GNVTG,271.74,T,,M,3.13,N,5.80,K,A*28
###2023-12-09 12:37:18.963536$GNGST,173718.10,19.000,,,,0.089,0.076,0.180*5C
###2023-12-09 12:37:18.964839$GNZDA,173718.10,09,12,2023,00,00*7B
###2023-12-09 12:37:18.965480$GNEBP,,,,,,M*13
###2023-12-09 12:37:19.137195$GNGGA,173718.30,4138.0630950,N,07032.3687416,W,1,23,0.7,13.293,M,-29.744,M,0.0,*53
###2023-12-09 12:37:19.337279$GNGGA,173718.50,4138.0630730,N,07032.3689691,W,1,23,0.7,13.287,M,-29.744,M,0.0,*5B
###2023-12-09 12:37:19.537675$GNGGA,173718.70,4138.0630550,N,07032.3692000,W,1,23,0.7,13.285,M,-29.744,M,0.0,*5B
###2023-12-09 12:37:19.738054$GNGGA,173718.90,4138.0630447,N,07032.3694328,W,1,23,0.7,13.288,M,-29.744,M,0.0,*50
###2023-12-09 12:37:19.937163$GNRMC,173719.10,A,4138.0630283,N,07032.3696674,W,3.29,264.49,091223,,,A*5C
###2023-12-09 12:37:19.940045$GNGGA,173719.10,4138.0630283,N,07032.3696674,W,1,23,0.7,13.298,M,-29.744,M,0.0,*58
###2023-12-09 12:37:19.941901$GPGSA,A,3,03,04,16,26,28,29,31,32,,,,,1.2,0.7,1.0*31
###2023-12-09 12:37:19.943563$GLGSA,A,3,71,72,73,74,75,,,,,,,,1.2,0.7,1.0*2D
###2023-12-09 12:37:19.945148$GAGSA,A,3,04,19,21,27,,,,,,,,,1.2,0.7,1.0*2C
###2023-12-09 12:37:19.946815$GBGSA,A,3,14,24,25,26,33,,,,,,,,1.2,0.7,1.0*25
###2023-12-09 12:37:19.949155$GPGSV,2,1,08,03,38,276,42,04,22,311,40,16,37,207,45,26,67,207,46*79
###2023-12-09 12:37:19.951508$GPGSV,2,2,08,28,57,057,44,29,25,073,43,31,73,004,47,32,29,134,43*7E
###2023-12-09 12:37:19.953848$GLGSV,2,1,05,71,55,169,48,72,67,307,46,73,46,034,46,74,71,293,42*6D
###2023-12-09 12:37:19.955358$GLGSV,2,2,05,75,22,241,41,,,,,,,,,,,,*50
###2023-12-09 12:37:19.957686$GAGSV,1,1,04,04,21,311,40,19,82,299,40,21,78,175,46,27,41,049,44*68
###2023-12-09 12:37:19.960045$GBGSV,2,1,05,14,54,197,44,24,80,351,48,25,33,253,44,26,34,058,44*6E
###2023-12-09 12:37:19.961515$GBGSV,2,2,05,33,63,252,47,,,,,,,,,,,,*5D
###2023-12-09 12:37:19.962852$GNVTG,264.49,T,,M,3.29,N,6.08,K,A*28
###2023-12-09 12:37:19.964503$GNGST,173719.10,18.000,,,,0.089,0.076,0.180*5C
###2023-12-09 12:37:19.965801$GNZDA,173719.10,09,12,2023,00,00*7A
###2023-12-09 12:37:19.966439$GNEBP,,,,,,M*13
###2023-12-09 12:37:20.137530$GNGGA,173719.30,4138.0629998,N,07032.3699067,W,1,23,0.7,13.304,M,-29.744,M,0.0,*5C
###2023-12-09 12:37:20.336694$GNGGA,173719.50,4138.0629607,N,07032.3701467,W,1,23,0.7,13.303,M,-29.744,M,0.0,*50
###2023-12-09 12:37:20.537550$GNGGA,173719.70,4138.0629162,N,07032.3703898,W,1,23,0.7,13.304,M,-29.744,M,0.0,*5F
###2023-12-09 12:37:20.740456$GNGGA,173719.90,4138.0628720,N,07032.3706410,W,1,23,0.7,13.304,M,-29.744,M,0.0,*59
###2023-12-09 12:37:20.944157$GNRMC,173720.10,A,4138.0628212,N,07032.3708947,W,3.56,253.12,091223,,,A*5C
###2023-12-09 12:37:20.947058$GNGGA,173720.10,4138.0628212,N,07032.3708947,W,1,23,0.7,13.300,M,-29.744,M,0.0,*5A
###2023-12-09 12:37:20.948934$GPGSA,A,3,03,04,16,26,28,29,31,32,,,,,1.2,0.7,1.0*31
###2023-12-09 12:37:20.950600$GLGSA,A,3,71,72,73,74,75,,,,,,,,1.2,0.7,1.0*2D
###2023-12-09 12:37:20.952187$GAGSA,A,3,04,19,21,27,,,,,,,,,1.2,0.7,1.0*2C
###2023-12-09 12:37:20.953828$GBGSA,A,3,14,24,25,26,33,,,,,,,,1.2,0.7,1.0*25
###2023-12-09 12:37:20.956171$GPGSV,2,1,08,03,38,276,43,04,22,311,40,16,37,207,44,26,67,207,46*79
###2023-12-09 12:37:20.958502$GPGSV,2,2,08,28,57,057,44,29,25,073,43,31,73,004,47,32,29,134,42*7F
###2023-12-09 12:37:20.960855$GLGSV,2,1,05,71,55,169,46,72,67,307,46,73,46,034,47,74,71,296,42*67
###2023-12-09 12:37:20.962307$GLGSV,2,2,05,75,22,241,41,,,,,,,,,,,,*50
###2023-12-09 12:37:20.964652$GAGSV,1,1,04,04,21,311,40,19,82,299,40,21,78,175,46,27,41,049,44*68
###2023-12-09 12:37:20.966991$GBGSV,2,1,05,14,54,197,45,24,80,351,48,25,33,253,45,26,34,058,45*6F
###2023-12-09 12:37:20.968691$GBGSV,2,2,05,33,63,252,47,,,,,,,,,,,,*5D
###2023-12-09 12:37:20.970017$GNVTG,253.12,T,,M,3.56,N,6.59,K,A*2E
###2023-12-09 12:37:20.971682$GNGST,173720.10,19.000,,,,0.087,0.075,0.180*5A
###2023-12-09 12:37:20.972975$GNZDA,173720.10,09,12,2023,00,00*70
###2023-12-09 12:37:20.973612$GNEBP,,,,,,M*13
###2023-12-09 12:37:21.137871$GNGGA,173720.30,4138.0627554,N,07032.3711426,W,1,23,0.7,13.299,M,-29.744,M,0.0,*51
###2023-12-09 12:37:21.337237$GNGGA,173720.50,4138.0626862,N,07032.3713969,W,1,23,0.7,13.297,M,-29.744,M,0.0,*54
###2023-12-09 12:37:21.539094$GNGGA,173720.70,4138.0626316,N,07032.3716586,W,1,23,0.7,13.303,M,-29.744,M,0.0,*5A
