###2023-12-09 13:03:32.992288$GLGSV,2,1,06,65,25,327,42,71,40,173,46,72,73,265,46,73,35,042,43*60
###2023-12-09 13:03:32.994051$GLGSV,2,2,06,74,69,340,41,75,33,254,45,,,,,,,,*6D
###2023-12-09 13:03:32.996398$GAGSV,1,1,04,04,29,312,42,19,84,213,40,21,86,114,46,27,32,048,39*6C
###2023-12-09 13:03:32.998747$GBGSV,2,1,05,14,43,193,44,24,73,026,47,25,41,263,47,26,26,063,38*69
###2023-12-09 13:03:33.000208$GBGSV,2,2,05,33,57,231,48,,,,,,,,,,,,*50
###2023-12-09 13:03:33.001492$GNVTG,14.18,T,,M,3.09,N,5.72,K,A*15
###2023-12-09 13:03:33.003149$GNGST,180332.10,18.000,,,,0.082,0.067,0.160*58
###2023-12-09 13:03:33.004438$GNZDA,180332.10,09,12,2023,00,00*7B
###2023-12-09 13:03:33.005072$GNEBP,,,,,,M*13
###2023-12-09 13:03:33.167209$GNGGA,180332.30,4138.0572020,N,07032.3916637,W,1,24,0.6,13.303,M,-29.744,M,0.0,*50
###2023-12-09 13:03:33.366616$GNGGA,180332.50,4138.0573611,N,07032.3916100,W,1,24,0.6,13.304,M,-29.744,M,0.0,*57
###2023-12-09 13:03:33.565759$GNGGA,180332.70,4138.0575292,N,07032.3915757,W,1,24,0.6,13.309,M,-29.744,M,0.0,*56
###2023-12-09 13:03:33.769355$GNGGA,180332.90,4138.0576924,N,07032.3915069,W,1,24,0.6,13.295,M,-29.744,M,0.0,*53
###2023-12-09 13:03:33.969787$GNRMC,180333.10,A,4138.0578371,N,07032.3913956,W,2.95,33.86,091223,,,A*67
###2023-12-09 13:03:33.973268$GNGGA,180333.10,4138.0578371,N,07032.3913956,W,1,24,0.6,13.296,M,-29.744,M,0.0,*5E
###2023-12-09 13:03:33.975544$GPGSA,A,3,03,04,16,26,28,29,31,32,,,,,1.1,0.6,0.9*3B
###2023-12-09 13:03:33.977619$GLGSA,A,3,65,71,72,73,74,75,,,,,,,1.1,0.6,0.9*24
###2023-12-09 13:03:33.979544$GAGSA,A,3,04,19,21,27,,,,,,,,,1.1,0.6,0.9*26
###2023-12-09 13:03:33.981543$GBGSA,A,3,14,24,25,26,33,,,,,,,,1.1,0.6,0.9*2F
###2023-12-09 13:03:33.984367$GPGSV,2,1,08,03,34,260,44,04,33,311,44,16,51,213,45,26,81,210,48*75
###2023-12-09 13:03:33.987200$GPGSV,2,2,08,28,48,071,43,29,25,060,40,31,68,040,46,32,18,140,40*7B
###2023-12-09 13:03:33.990014$GLGSV,2,1,06,65,25,327,43,71,40,173,44,72,73,265,46,73,35,042,44*64
###2023-12-09 13:03:33.992130$GLGSV,2,2,06,74,69,340,41,75,33,254,45,,,,,,,,*6D
###2023-12-09 13:03:33.994957$GAGSV,1,1,04,04,29,312,43,19,84,213,40,21,86,114,46,27,32,048,41*62
###2023-12-09 13:03:33.997763$GBGSV,2,1,05,14,43,193,44,24,73,026,48,25,41,263,46,26,26,063,41*69
###2023-12-09 13:03:33.999527$GBGSV,2,2,05,33,57,231,47,,,,,,,,,,,,*5F
###2023-12-09 13:03:34.001084$GNVTG,33.86,T,,M,2.95,N,5.47,K,A*15
###2023-12-09 13:03:34.003084$GNGST,180333.10,18.000,,,,0.082,0.068,0.160*56
###2023-12-09 13:03:34.004646$GNZDA,180333.10,09,12,2023,00,00*7A
###2023-12-09 13:03:34.005415$GNEBP,,,,,,M*13
###2023-12-09 13:03:34.168941$GNGGA,180333.30,4138.0579774,N,07032.3912812,W,1,24,0.6,13.316,M,-29.744,M,0.0,*55
###2023-12-09 13:03:34.364853$GNGGA,180333.50,4138.0581209,N,07032.3911574,W,1,24,0.6,13.327,M,-29.744,M,0.0,*57
###2023-12-09 13:03:34.565453$GNGGA,180333.70,4138.0582516,N,07032.3910170,W,1,24,0.6,13.305,M,-29.744,M,0.0,*5E
###2023-12-09 13:03:34.765976$GNGGA,180333.90,4138.0583665,N,07032.3908721,W,1,24,0.6,13.317,M,-29.744,M,0.0,*5E
###2023-12-09 13:03:34.971139$GNRMC,180334.10,A,4138.0584784,N,07032.3907119,W,3.11,50.15,091223,,,A*69
###2023-12-09 13:03:34.974587$GNGGA,180334.10,4138.0584784,N,07032.3907119,W,1,24,0.6,13.333,M,-29.744,M,0.0,*5C
###2023-12-09 13:03:34.976826$GPGSA,A,3,03,04,16,26,28,29,31,32,,,,,1.1,0.6,0.9*3B
###2023-12-09 13:03:34.978898$GLGSA,A,3,65,71,72,73,74,75,,,,,,,1.1,0.6,0.9*24
###2023-12-09 13:03:34.980810$GAGSA,A,3,04,19,21,27,,,,,,,,,1.1,0.6,0.9*26
###2023-12-09 13:03:34.982810$GBGSA,A,3,14,24,25,26,33,,,,,,,,1.1,0.6,0.9*2F
###2023-12-09 13:03:34.985601$GPGSV,2,1,08,03,34,260,43,04,33,311,45,16,51,213,46,26,81,210,48*70
###2023-12-09 13:03:34.988430$GPGSV,2,2,08,28,48,071,42,29,25,060,40,31,68,040,46,32,18,140,41*7B
###2023-12-09 13:03:34.991252$GLGSV,2,1,06,65,25,327,43,71,40,173,45,72,73,265,45,73,35,042,42*60
###2023-12-09 13:03:34.993355$GLGSV,2,2,06,74,69,340,43,75,33,254,46,,,,,,,,*6C
###2023-12-09 13:03:34.996167$GAGSV,1,1,04,04,29,312,43,19,84,213,40,21,86,114,46,27,32,048,41*62
###2023-12-09 13:03:34.999036$GBGSV,2,1,05,14,43,193,43,24,73,026,47,25,41,263,46,26,26,063,41*61
###2023-12-09 13:03:35.000804$GBGSV,2,2,05,33,57,231,47,,,,,,,,,,,,*5F
###2023-12-09 13:03:35.002362$GNVTG,50.15,T,,M,3.11,N,5.76,K,A*15
###2023-12-09 13:03:35.004359$GNGST,180334.10,18.000,,,,0.082,0.068,0.160*51
###2023-12-09 13:03:35.005923$GNZDA,180334.10,09,12,2023,00,00*7D
###2023-12-09 13:03:35.006718$GNEBP,,,,,,M*13
###2023-12-09 13:03:35.166314$GNGGA,180334.30,4138.0585767,N,07032.3905290,W,1,24,0.6,13.329,M,-29.744,M,0.0,*59
###2023-12-09 13:03:35.368049$GNGGA,180334.50,4138.0586674,N,07032.3903486,W,1,24,0.6,13.328,M,-29.744,M,0.0,*59
###2023-12-09 13:03:35.564900$GNGGA,180334.70,4138.0587826,N,07032.3901815,W,1,24,0.6,13.348,M,-29.744,M,0.0,*51
###2023-12-09 13:03:35.765889$GNGGA,180334.90,4138.0588890,N,07032.3899875,W,1,24,0.6,13.337,M,-29.744,M,0.0,*53
###2023-12-09 13:03:35.967307$GNRMC,180335.10,A,4138.0589654,N,07032.3897819,W,2.95,63.11,091223,,,A*61
###2023-12-09 13:03:35.970194$GNGGA,180335.10,4138.0589654,N,07032.3897819,W,1,24,0.6,13.321,M,-29.744,M,0.0,*5E
###2023-12-09 13:03:35.972081$GPGSA,A,3,03,04,16,26,28,29,31,32,,,,,1.1,0.6,0.9*3B
###2023-12-09 13:03:35.973797$GLGSA,A,3,65,71,72,73,74,75,,,,,,,1.1,0.6,0.9*24
###2023-12-09 13:03:35.975403$GAGSA,A,3,04,19,21,27,,,,,,,,,1.1,0.6,0.9*26
###2023-12-09 13:03:35.977060$GBGSA,A,3,14,24,25,26,33,,,,,,,,1.1,0.6,0.9*2F
###2023-12-09 13:03:35.979406$GPGSV,2,1,08,03,34,260,44,04,33,311,43,16,51,213,46,26,81,210,48*71
###2023-12-09 13:03:35.981757$GPGSV,2,2,08,28,48,071,43,29,25,060,41,31,68,040,46,32,18,140,43*79
###2023-12-09 13:03:35.984136$GLGSV,2,1,06,65,25,327,43,71,40,173,47,72,73,265,46,73,35,042,42*61
###2023-12-09 13:03:35.985906$GLGSV,2,2,06,74,69,340,42,75,33,254,47,,,,,,,,*6C
###2023-12-09 13:03:35.988266$GAGSV,1,1,04,04,29,312,42,19,84,213,40,21,86,114,46,27,32,048,41*63
###2023-12-09 13:03:35.990626$GBGSV,2,1,05,14,43,193,44,24,73,026,47,25,41,263,45,26,26,063,42*66
###2023-12-09 13:03:35.992094$GBGSV,2,2,05,33,57,231,46,,,,,,,,,,,,*5E
###2023-12-09 13:03:35.993393$GNVTG,63.11,T,,M,2.95,N,5.47,K,A*1E
###2023-12-09 13:03:35.995061$GNGST,180335.10,18.000,,,,0.082,0.068,0.160*50
###2023-12-09 13:03:35.996357$GNZDA,180335.10,09,12,2023,00,00*7C
###2023-12-09 13:03:35.996998$GNEBP,,,,,,M*13
###2023-12-09 13:03:36.164131$GNGGA,180335.30,4138.0590567,N,07032.3895900,W,1,24,0.6,13.344,M,-29.744,M,0.0,*5F
###2023-12-09 13:03:36.364914$GNGGA,180335.50,4138.0591614,N,07032.3893988,W,1,24,0.6,13.347,M,-29.744,M,0.0,*5A
###2023-12-09 13:03:36.564781$GNGGA,180335.70,4138.0592574,N,07032.3892029,W,1,24,0.6,13.345,M,-29.744,M,0.0,*5F
###2023-12-09 13:03:36.767020$GNGGA,180335.90,4138.0593438,N,07032.3889971,W,1,24,0.6,13.354,M,-29.744,M,0.0,*57
###2023-12-09 13:03:36.971132$GNRMC,180336.10,A,4138.0594315,N,07032.3887873,W,3.17,58.72,091223,,,A*65
###2023-12-09 13:03:36.974631$GNGGA,180336.10,4138.0594315,N,07032.3887873,W,1,24,0.6,13.347,M,-29.744,M,0.0,*5C
###2023-12-09 13:03:36.976885$GPGSA,A,3,03,04,16,26,28,29,31,32,,,,,1.1,0.6,0.9*3B
###2023-12-09 13:03:36.979001$GLGSA,A,3,65,71,72,73,74,75,,,,,,,1.1,0.6,0.9*24
###2023-12-09 13:03:36.980926$GAGSA,A,3,04,19,21,27,,,,,,,,,1.1,0.6,0.9*26
###2023-12-09 13:03:36.982933$GBGSA,A,3,14,24,25,26,33,,,,,,,,1.1,0.6,0.9*2F
###2023-12-09 13:03:36.985744$GPGSV,2,1,08,03,34,260,43,04,33,311,43,16,51,213,46,26,81,210,48*76
###2023-12-09 13:03:36.988561$GPGSV,2,2,08,28,48,071,43,29,25,060,41,31,68,040,46,32,18,140,43*79
###2023-12-09 13:03:36.991387$GLGSV,2,1,06,65,25,327,43,71,40,173,48,72,73,265,46,73,35,042,42*6E
###2023-12-09 13:03:36.993495$GLGSV,2,2,06,74,69,340,42,75,33,254,47,,,,,,,,*6C
###2023-12-09 13:03:36.996308$GAGSV,1,1,04,04,29,312,41,19,84,213,41,21,86,114,46,27,32,048,42*62
###2023-12-09 13:03:36.999163$GBGSV,2,1,05,14,43,193,45,24,73,026,47,25,41,263,45,26,26,063,42*67
###2023-12-09 13:03:37.000923$GBGSV,2,2,05,33,57,231,47,,,,,,,,,,,,*5F
###2023-12-09 13:03:37.002470$GNVTG,58.72,T,,M,3.17,N,5.87,K,A*14
###2023-12-09 13:03:37.004465$GNGST,180336.10,18.000,,,,0.082,0.068,0.160*53
###2023-12-09 13:03:37.006316$GNZDA,180336.10,09,12,2023,00,00*7F
###2023-12-09 13:03:37.007118$GNEBP,,,,,,M*13
###2023-12-09 13:03:37.163633$GNGGA,180336.30,4138.0595298,N,07032.3885893,W,1,24,0.6,13.349,M,-29.744,M,0.0,*59
###2023-12-09 13:03:37.365236$GNGGA,180336.50,4138.0596352,N,07032.3884011,W,1,24,0.6,13.362,M,-29.744,M,0.0,*51
###2023-12-09 13:03:37.564218$GNGGA,180336.70,4138.0597238,N,07032.3881910,W,1,24,0.6,13.363,M,-29.744,M,0.0,*53
###2023-12-09 13:03:37.764724$GNGGA,180336.90,4138.0597870,N,07032.3879678,W,1,24,0.6,13.344,M,-29.744,M,0.0,*58
###2023-12-09 13:03:37.966666$GNRMC,180337.10,A,4138.0598688,N,07032.3877747,W,3.07,52.27,091223,,,A*65
###2023-12-09 13:03:37.970122$GNGGA,180337.10,4138.0598688,N,07032.3877747,W,1,24,0.6,13.358,M,-29.744,M,0.0,*59
###2023-12-09 13:03:37.972396$GPGSA,A,3,03,04,16,26,28,29,31,32,,,,,1.1,0.6,0.9*3B
