###2023-12-09 12:29:28.722016$GNGGA,172927.90,4138.0385981,N,07032.4370948,W,1,17,0.8,12.266,M,-29.746,M,0.0,*50
###2023-12-09 12:29:28.925823$GNRMC,172928.10,A,4138.0386003,N,07032.4371002,W,0.00,,091223,,,A*44
###2023-12-09 12:29:28.928739$GNGGA,172928.10,4138.0386003,N,07032.4371002,W,1,17,0.8,12.247,M,-29.746,M,0.0,*52
###2023-12-09 12:29:28.930576$GPGSA,A,3,03,16,26,28,29,31,32,,,,,,1.6,0.8,1.3*3D
###2023-12-09 12:29:28.932121$GLGSA,A,3,71,72,73,,,,,,,,,,1.6,0.8,1.3*24
###2023-12-09 12:29:28.933589$GAGSA,A,3,21,27,,,,,,,,,,,1.6,0.8,1.3*28
###2023-12-09 12:29:28.935205$GBGSA,A,3,14,25,26,33,,,,,,,,,1.6,0.8,1.3*2B
###2023-12-09 12:29:28.937553$GPGSV,2,1,07,03,39,280,39,16,34,206,44,26,63,206,43,28,60,052,45*78
###2023-12-09 12:29:28.939625$GPGSV,2,2,07,29,25,077,43,31,73,351,45,32,33,132,47,,,,*47
###2023-12-09 12:29:28.941683$GLGSV,1,1,03,71,60,168,48,72,63,314,44,73,50,032,45,,,,*52
###2023-12-09 12:29:28.943463$GAGSV,1,1,02,21,75,179,38,27,43,050,44,,,,,,,,*68
###2023-12-09 12:29:28.945801$GBGSV,1,1,04,14,57,199,46,25,31,251,38,26,37,056,45,33,64,260,39*6D
###2023-12-09 12:29:28.946974$GNVTG,,T,,M,0.00,N,0.00,K,A*3D
###2023-12-09 12:29:28.948659$GNGST,172928.10,31.000,,,,0.100,0.110,0.280*58
###2023-12-09 12:29:28.949973$GNZDA,172928.10,09,12,2023,00,00*77
###2023-12-09 12:29:28.950652$GNEBP,,,,,,M*13
###2023-12-09 12:29:29.122039$GNGGA,172928.30,4138.0385995,N,07032.4370949,W,1,17,0.8,12.252,M,-29.746,M,0.0,*56
###2023-12-09 12:29:29.322202$GNGGA,172928.50,4138.0385970,N,07032.4370885,W,1,16,0.9,12.261,M,-29.746,M,0.0,*5A
###2023-12-09 12:29:29.525118$GNGGA,172928.70,4138.0385931,N,07032.4370806,W,1,16,0.9,12.275,M,-29.746,M,0.0,*53
###2023-12-09 12:29:29.722269$GNGGA,172928.90,4138.0385905,N,07032.4370727,W,1,16,0.9,12.292,M,-29.746,M,0.0,*5F
###2023-12-09 12:29:29.922558$GNRMC,172929.10,A,4138.0385877,N,07032.4370646,W,0.06,,091223,,,A*4C
###2023-12-09 12:29:29.925656$GNGGA,172929.10,4138.0385877,N,07032.4370646,W,1,17,0.8,12.302,M,-29.746,M,0.0,*5C
###2023-12-09 12:29:29.927650$GPGSA,A,3,03,16,26,28,29,31,32,,,,,,1.6,0.8,1.3*3D
###2023-12-09 12:29:29.929359$GLGSA,A,3,71,72,73,,,,,,,,,,1.6,0.8,1.3*24
###2023-12-09 12:29:29.931020$GAGSA,A,3,21,27,,,,,,,,,,,1.6,0.8,1.3*28
###2023-12-09 12:29:29.932781$GBGSA,A,3,14,25,26,33,,,,,,,,,1.6,0.8,1.3*2B
###2023-12-09 12:29:29.935296$GPGSV,2,1,07,03,39,280,39,16,34,206,44,26,63,206,43,28,60,052,45*78
###2023-12-09 12:29:29.937509$GPGSV,2,2,07,29,25,077,43,31,73,351,45,32,33,132,47,,,,*47
###2023-12-09 12:29:29.939729$GLGSV,1,1,03,71,60,168,48,72,63,314,43,73,50,032,45,,,,*55
###2023-12-09 12:29:29.941661$GAGSV,1,1,02,21,75,179,38,27,43,050,44,,,,,,,,*68
###2023-12-09 12:29:29.944193$GBGSV,1,1,04,14,57,199,46,25,31,251,38,26,37,056,45,33,64,260,39*6D
###2023-12-09 12:29:29.945515$GNVTG,,T,,M,0.06,N,0.11,K,A*3B
###2023-12-09 12:29:29.947366$GNGST,172929.10,31.000,,,,0.110,0.110,0.290*59
###2023-12-09 12:29:29.948716$GNZDA,172929.10,09,12,2023,00,00*76
###2023-12-09 12:29:29.949384$GNEBP,,,,,,M*13
###2023-12-09 12:29:30.123014$GNGGA,172929.30,4138.0385849,N,07032.4370567,W,1,17,0.8,12.312,M,-29.746,M,0.0,*52
###2023-12-09 12:29:30.323516$GNGGA,172929.50,4138.0385815,N,07032.4370487,W,1,16,0.9,12.326,M,-29.746,M,0.0,*55
###2023-12-09 12:29:30.526349$GNGGA,172929.70,4138.0385780,N,07032.4370400,W,1,16,0.9,12.344,M,-29.746,M,0.0,*5F
###2023-12-09 12:29:30.721390$GNGGA,172929.90,4138.0385749,N,07032.4370313,W,1,16,0.9,12.360,M,-29.746,M,0.0,*57
###2023-12-09 12:29:30.923007$GNRMC,172930.10,A,4138.0385704,N,07032.4370238,W,0.04,,091223,,,A*40
###2023-12-09 12:29:30.925881$GNGGA,172930.10,4138.0385704,N,07032.4370238,W,1,16,0.9,12.378,M,-29.746,M,0.0,*5F
###2023-12-09 12:29:30.927707$GPGSA,A,3,03,16,26,28,29,31,32,,,,,,1.7,0.9,1.5*3B
###2023-12-09 12:29:30.929241$GLGSA,A,3,71,72,73,,,,,,,,,,1.7,0.9,1.5*22
###2023-12-09 12:29:30.930719$GAGSA,A,3,21,27,,,,,,,,,,,1.7,0.9,1.5*2E
###2023-12-09 12:29:30.932318$GBGSA,A,3,14,25,26,33,,,,,,,,,1.7,0.9,1.5*2D
###2023-12-09 12:29:30.934674$GPGSV,2,1,07,03,39,280,39,16,34,206,43,26,63,206,43,28,60,052,45*7F
###2023-12-09 12:29:30.936731$GPGSV,2,2,07,29,25,077,42,31,73,351,45,32,33,132,47,,,,*46
###2023-12-09 12:29:30.938787$GLGSV,1,1,03,71,60,168,48,72,63,314,43,73,50,032,45,,,,*55
###2023-12-09 12:29:30.940545$GAGSV,1,1,02,21,75,179,38,27,43,050,45,,,,,,,,*69
###2023-12-09 12:29:30.942901$GBGSV,1,1,04,14,57,199,46,25,31,251,38,26,37,056,45,33,64,260,39*6D
###2023-12-09 12:29:30.944053$GNVTG,,T,,M,0.04,N,0.07,K,A*3E
###2023-12-09 12:29:30.945715$GNGST,172930.10,32.000,,,,0.110,0.120,0.290*51
###2023-12-09 12:29:30.947050$GNZDA,172930.10,09,12,2023,00,00*7E
###2023-12-09 12:29:30.947722$GNEBP,,,,,,M*13
###2023-12-09 12:29:31.123256$GNGGA,172930.30,4138.0385666,N,07032.4370154,W,1,17,0.8,12.392,M,-29.746,M,0.0,*55
###2023-12-09 12:29:31.325423$GNGGA,172930.50,4138.0385615,N,07032.4370066,W,1,17,0.8,12.406,M,-29.746,M,0.0,*5D
###2023-12-09 12:29:31.523927$GNGGA,172930.70,4138.0385567,N,07032.4369994,W,1,17,0.8,12.426,M,-29.746,M,0.0,*57
###2023-12-09 12:29:31.722582$GNGGA,172930.90,4138.0385530,N,07032.4369927,W,1,17,0.8,12.442,M,-29.746,M,0.0,*51
###2023-12-09 12:29:31.924244$GNRMC,172931.10,A,4138.0385475,N,07032.4369797,W,0.06,,091223,,,A*4E
###2023-12-09 12:29:31.927828$GNGGA,172931.10,4138.0385475,N,07032.4369797,W,1,17,0.8,12.469,M,-29.746,M,0.0,*54
###2023-12-09 12:29:31.930053$GPGSA,A,3,03,16,26,28,29,31,32,,,,,,1.6,0.8,1.3*3D
###2023-12-09 12:29:31.931962$GLGSA,A,3,71,72,73,,,,,,,,,,1.6,0.8,1.3*24
###2023-12-09 12:29:31.933777$GAGSA,A,3,21,27,,,,,,,,,,,1.6,0.8,1.3*28
###2023-12-09 12:29:31.935752$GBGSA,A,3,14,25,26,33,,,,,,,,,1.6,0.8,1.3*2B
###2023-12-09 12:29:31.938634$GPGSV,2,1,07,03,39,280,38,16,34,206,43,26,63,206,43,28,60,052,45*7E
###2023-12-09 12:29:31.941157$GPGSV,2,2,07,29,25,077,43,31,73,351,45,32,33,132,47,,,,*47
###2023-12-09 12:29:31.943701$GLGSV,1,1,03,71,60,168,48,72,63,314,44,73,50,032,45,,,,*52
###2023-12-09 12:29:31.945875$GAGSV,1,1,02,21,75,179,37,27,43,050,44,,,,,,,,*67
###2023-12-09 12:29:31.948786$GBGSV,1,1,04,14,57,199,46,25,31,251,38,26,37,056,45,33,64,260,39*6D
###2023-12-09 12:29:31.950228$GNVTG,,T,,M,0.06,N,0.11,K,A*3B
###2023-12-09 12:29:31.952287$GNGST,172931.10,31.000,,,,0.110,0.120,0.290*53
###2023-12-09 12:29:31.953892$GNZDA,172931.10,09,12,2023,00,00*7F
###2023-12-09 12:29:31.954739$GNEBP,,,,,,M*13
###2023-12-09 12:29:32.122467$GNGGA,172931.30,4138.0385419,N,07032.4369687,W,1,17,0.8,12.490,M,-29.746,M,0.0,*5A
###2023-12-09 12:29:32.322185$GNGGA,172931.50,4138.0385371,N,07032.4369586,W,1,17,0.8,12.509,M,-29.746,M,0.0,*56
###2023-12-09 12:29:32.522279$GNGGA,172931.70,4138.0385314,N,07032.4369458,W,1,17,0.8,12.533,M,-29.746,M,0.0,*5C
###2023-12-09 12:29:32.720395$GNGGA,172931.90,4138.0385250,N,07032.4369356,W,1,17,0.8,12.556,M,-29.746,M,0.0,*59
###2023-12-09 12:29:32.929820$GNRMC,172932.10,A,4138.0385199,N,07032.4369249,W,0.02,,091223,,,A*48
###2023-12-09 12:29:32.932976$GNGGA,172932.10,4138.0385199,N,07032.4369249,W,1,17,0.8,12.576,M,-29.746,M,0.0,*59
###2023-12-09 12:29:32.934842$GPGSA,A,3,03,16,26,28,29,31,32,,,,,,1.6,0.8,1.3*3D
###2023-12-09 12:29:32.936412$GLGSA,A,3,71,72,73,,,,,,,,,,1.6,0.8,1.3*24
###2023-12-09 12:29:32.937904$GAGSA,A,3,21,27,,,,,,,,,,,1.6,0.8,1.3*28
###2023-12-09 12:29:32.939537$GBGSA,A,3,14,25,26,33,,,,,,,,,1.6,0.8,1.3*2B
###2023-12-09 12:29:32.941899$GPGSV,2,1,07,03,39,280,38,16,34,206,44,26,63,206,43,28,60,052,45*79
###2023-12-09 12:29:32.943995$GPGSV,2,2,07,29,25,077,43,31,73,351,45,32,33,132,47,,,,*47
###2023-12-09 12:29:32.946076$GLGSV,1,1,03,71,60,168,48,72,63,314,44,73,50,032,44,,,,*53
###2023-12-09 12:29:32.947963$GAGSV,1,1,02,21,75,179,38,27,43,050,44,,,,,,,,*68
###2023-12-09 12:29:32.950357$GBGSV,1,1,04,14,57,199,46,25,31,251,37,26,37,056,45,33,64,260,39*62
###2023-12-09 12:29:32.951559$GNVTG,,T,,M,0.02,N,0.04,K,A*3B
###2023-12-09 12:29:32.953251$GNGST,172932.10,31.000,,,,0.110,0.120,0.300*58
###2023-12-09 12:29:32.954597$GNZDA,172932.10,09,12,2023,00,00*7C
###2023-12-09 12:29:32.955281$GNEBP,,,,,,M*13
###2023-12-09 12:29:33.123019$GNGGA,172932.30,4138.0385148,N,07032.4369159,W,1,17,0.8,12.589,M,-29.746,M,0.0,*55
###2023-12-09 12:29:33.322271$GNGGA,172932.50,4138.0385083,N,07032.4369025,W,1,18,0.8,12.614,M,-29.746,M,0.0,*57
###2023-12-09 12:29:33.524443$GNGGA,172932.70,4138.0385043,N,07032.4368935,W,1,18,0.8,12.629,M,-29.746,M,0.0,*5E
###2023-12-09 12:29:33.721415$GNGGA,172932.90,4138.0384989,N,07032.4368825,W,1,17,0.8,12.647,M,-29.746,M,0.0,*59
###2023-12-09 12:29:33.922655$GNRMC,172933.10,A,4138.0384936,N,07032.4368696,W,0.06,,091223,,,A*46
###2023-12-09 12:29:33.925757$GNGGA,172933.10,4138.0384936,N,07032.4368696,W,1,17,0.8,12.671,M,-29.746,M,0.0,*57
###2023-12-09 12:29:33.927778$GPGSA,A,3,03,16,26,28,29,31,32,,,,,,1.5,0.8,1.3*3E
###2023-12-09 12:29:33.929564$GLGSA,A,3,71,72,73,75,,,,,,,,,1.5,0.8,1.3*25
