###2023-12-09 13:46:32.406853$GNGGA,184631.50,4138.0395156,N,07032.4387187,W,1,18,0.7,15.601,M,-29.746,M,0.0,*5F
###2023-12-09 13:46:32.606153$GNGGA,184631.70,4138.0395167,N,07032.4387164,W,1,18,0.7,15.607,M,-29.746,M,0.0,*54
###2023-12-09 13:46:32.806306$GNGGA,184631.90,4138.0395168,N,07032.4387155,W,1,19,0.7,15.608,M,-29.746,M,0.0,*59
###2023-12-09 13:46:33.013873$GNRMC,184632.10,A,4138.0395177,N,07032.4387138,W,0.04,243.17,091223,,,A*51
###2023-12-09 13:46:33.016754$GNGGA,184632.10,4138.0395177,N,07032.4387138,W,1,19,0.7,15.610,M,-29.746,M,0.0,*5E
###2023-12-09 13:46:33.018489$GPGSA,A,3,04,16,26,28,29,31,,,,,,,1.3,0.7,1.1*33
###2023-12-09 13:46:33.020148$GLGSA,A,3,65,72,73,75,83,,,,,,,,1.3,0.7,1.1*20
###2023-12-09 13:46:33.021661$GAGSA,A,3,04,21,27,,,,,,,,,,1.3,0.7,1.1*24
###2023-12-09 13:46:33.023314$GBGSA,A,3,12,24,25,33,35,,,,,,,,1.3,0.7,1.1*21
###2023-12-09 13:46:33.025628$GPGSV,2,1,06,04,51,304,46,16,72,228,42,26,78,041,39,28,34,089,46*7F
###2023-12-09 13:46:33.027384$GPGSV,2,2,06,29,18,043,42,31,56,073,49,,,,,,,,*74
###2023-12-09 13:46:33.029706$GLGSV,2,1,05,65,42,313,44,72,57,214,39,73,18,056,38,75,47,279,46*67
###2023-12-09 13:46:33.031168$GLGSV,2,2,05,83,16,042,36,,,,,,,,,,,,*5F
###2023-12-09 13:46:33.033195$GAGSV,1,1,03,04,43,308,45,21,72,043,40,27,19,051,43,,,,*59
###2023-12-09 13:46:33.035521$GBGSV,2,1,05,12,19,122,42,24,58,052,48,25,54,282,41,33,41,214,38*63
###2023-12-09 13:46:33.036972$GBGSV,2,2,05,35,16,052,35,,,,,,,,,,,,*5E
###2023-12-09 13:46:33.038289$GNVTG,243.17,T,,M,0.04,N,0.07,K,A*23
###2023-12-09 13:46:33.039914$GNGST,184632.10,7.500,,,,0.190,0.120,0.310*67
###2023-12-09 13:46:33.041204$GNZDA,184632.10,09,12,2023,00,00*7A
###2023-12-09 13:46:33.041842$GNEBP,,,,,,M*13
###2023-12-09 13:46:33.214178$GNGGA,184632.30,4138.0395190,N,07032.4387118,W,1,19,0.7,15.615,M,-29.746,M,0.0,*52
###2023-12-09 13:46:33.406873$GNGGA,184632.50,4138.0395195,N,07032.4387094,W,1,18,0.7,15.620,M,-29.746,M,0.0,*53
###2023-12-09 13:46:33.606237$GNGGA,184632.70,4138.0395193,N,07032.4387075,W,1,18,0.7,15.623,M,-29.746,M,0.0,*5B
###2023-12-09 13:46:33.806854$GNGGA,184632.90,4138.0395192,N,07032.4387062,W,1,18,0.7,15.620,M,-29.746,M,0.0,*51
###2023-12-09 13:46:34.011336$GNRMC,184633.10,A,4138.0395208,N,07032.4387045,W,0.02,243.17,091223,,,A*56
###2023-12-09 13:46:34.014184$GNGGA,184633.10,4138.0395208,N,07032.4387045,W,1,18,0.7,15.624,M,-29.746,M,0.0,*59
###2023-12-09 13:46:34.015915$GPGSA,A,3,04,16,26,28,29,31,,,,,,,1.3,0.7,1.1*33
###2023-12-09 13:46:34.017557$GLGSA,A,3,65,72,73,75,83,,,,,,,,1.3,0.7,1.1*20
###2023-12-09 13:46:34.019083$GAGSA,A,3,04,21,27,,,,,,,,,,1.3,0.7,1.1*24
###2023-12-09 13:46:34.020659$GBGSA,A,3,12,24,25,33,,,,,,,,,1.3,0.7,1.1*27
###2023-12-09 13:46:34.022989$GPGSV,2,1,06,04,51,304,47,16,72,228,42,26,78,041,39,28,34,089,46*7E
###2023-12-09 13:46:34.024728$GPGSV,2,2,06,29,18,043,42,31,56,073,49,,,,,,,,*74
###2023-12-09 13:46:34.027050$GLGSV,2,1,05,65,42,313,44,72,57,214,39,73,18,056,38,75,47,279,46*67
###2023-12-09 13:46:34.028502$GLGSV,2,2,05,83,16,042,36,,,,,,,,,,,,*5F
###2023-12-09 13:46:34.030522$GAGSV,1,1,03,04,43,308,45,21,72,043,41,27,19,051,42,,,,*59
###2023-12-09 13:46:34.032853$GBGSV,1,1,04,12,19,122,42,24,58,052,48,25,54,282,41,33,41,214,37*6E
###2023-12-09 13:46:34.034179$GNVTG,243.17,T,,M,0.02,N,0.04,K,A*26
###2023-12-09 13:46:34.035798$GNGST,184633.10,7.300,,,,0.190,0.120,0.310*60
###2023-12-09 13:46:34.037086$GNZDA,184633.10,09,12,2023,00,00*7B
###2023-12-09 13:46:34.037721$GNEBP,,,,,,M*13
###2023-12-09 13:46:34.207048$GNGGA,184633.30,4138.0395205,N,07032.4387032,W,1,18,0.7,15.622,M,-29.746,M,0.0,*50
###2023-12-09 13:46:34.408265$GNGGA,184633.50,4138.0395214,N,07032.4387023,W,1,18,0.7,15.622,M,-29.746,M,0.0,*56
###2023-12-09 13:46:34.606146$GNGGA,184633.70,4138.0395201,N,07032.4387003,W,1,18,0.7,15.623,M,-29.746,M,0.0,*53
###2023-12-09 13:46:34.806531$GNGGA,184633.90,4138.0395195,N,07032.4386999,W,1,18,0.7,15.622,M,-29.746,M,0.0,*59
###2023-12-09 13:46:35.008902$GNRMC,184634.10,A,4138.0395199,N,07032.4386981,W,0.04,243.17,091223,,,A*5C
###2023-12-09 13:46:35.011776$GNGGA,184634.10,4138.0395199,N,07032.4386981,W,1,18,0.7,15.625,M,-29.746,M,0.0,*54
###2023-12-09 13:46:35.013500$GPGSA,A,3,04,16,26,28,29,31,,,,,,,1.3,0.7,1.1*33
###2023-12-09 13:46:35.015155$GLGSA,A,3,65,72,73,75,83,,,,,,,,1.3,0.7,1.1*20
###2023-12-09 13:46:35.016664$GAGSA,A,3,04,21,27,,,,,,,,,,1.3,0.7,1.1*24
###2023-12-09 13:46:35.018233$GBGSA,A,3,12,24,25,33,,,,,,,,,1.3,0.7,1.1*27
###2023-12-09 13:46:35.020551$GPGSV,2,1,06,04,51,304,47,16,72,228,41,26,78,041,38,28,34,089,46*7C
###2023-12-09 13:46:35.022288$GPGSV,2,2,06,29,18,043,42,31,56,073,49,,,,,,,,*74
###2023-12-09 13:46:35.024619$GLGSV,2,1,05,65,42,313,44,72,57,214,39,73,18,056,37,75,47,279,46*68
###2023-12-09 13:46:35.026064$GLGSV,2,2,05,83,16,042,36,,,,,,,,,,,,*5F
###2023-12-09 13:46:35.028096$GAGSV,1,1,03,04,43,308,45,21,72,043,41,27,19,051,43,,,,*58
###2023-12-09 13:46:35.030407$GBGSV,1,1,04,12,19,122,42,24,58,052,48,25,54,282,41,33,41,214,37*6E
###2023-12-09 13:46:35.031741$GNVTG,243.17,T,,M,0.04,N,0.07,K,A*23
###2023-12-09 13:46:35.033346$GNGST,184634.10,7.500,,,,0.190,0.120,0.310*61
###2023-12-09 13:46:35.034638$GNZDA,184634.10,09,12,2023,00,00*7C
###2023-12-09 13:46:35.035274$GNEBP,,,,,,M*13
###2023-12-09 13:46:35.206248$GNGGA,184634.30,4138.0395196,N,07032.4386968,W,1,18,0.7,15.628,M,-29.746,M,0.0,*53
###2023-12-09 13:46:35.407103$GNGGA,184634.50,4138.0395197,N,07032.4386952,W,1,18,0.7,15.630,M,-29.746,M,0.0,*54
###2023-12-09 13:46:35.606404$GNGGA,184634.70,4138.0395187,N,07032.4386939,W,1,18,0.7,15.630,M,-29.746,M,0.0,*5A
###2023-12-09 13:46:35.806655$GNGGA,184634.90,4138.0395199,N,07032.4386921,W,1,18,0.7,15.634,M,-29.746,M,0.0,*56
###2023-12-09 13:46:36.010052$GNRMC,184635.10,A,4138.0395186,N,07032.4386920,W,0.04,243.17,091223,,,A*58
###2023-12-09 13:46:36.012955$GNGGA,184635.10,4138.0395186,N,07032.4386920,W,1,18,0.7,15.629,M,-29.746,M,0.0,*5C
###2023-12-09 13:46:36.014705$GPGSA,A,3,04,16,26,28,29,31,,,,,,,1.3,0.7,1.1*33
###2023-12-09 13:46:36.016356$GLGSA,A,3,65,72,73,75,83,,,,,,,,1.3,0.7,1.1*20
###2023-12-09 13:46:36.017866$GAGSA,A,3,04,21,27,,,,,,,,,,1.3,0.7,1.1*24
###2023-12-09 13:46:36.019459$GBGSA,A,3,12,24,25,33,,,,,,,,,1.3,0.7,1.1*27
###2023-12-09 13:46:36.021785$GPGSV,2,1,06,04,51,304,47,16,72,228,41,26,78,041,38,28,34,089,46*7C
###2023-12-09 13:46:36.023539$GPGSV,2,2,06,29,18,043,42,31,56,073,49,,,,,,,,*74
###2023-12-09 13:46:36.025863$GLGSV,2,1,05,65,42,313,44,72,57,214,39,73,18,056,37,75,47,279,45*6B
###2023-12-09 13:46:36.027330$GLGSV,2,2,05,83,16,042,36,,,,,,,,,,,,*5F
###2023-12-09 13:46:36.029358$GAGSV,1,1,03,04,43,308,45,21,72,043,41,27,19,051,43,,,,*58
###2023-12-09 13:46:36.031695$GBGSV,1,1,04,12,19,122,42,24,58,052,48,25,54,282,41,33,40,213,37*68
###2023-12-09 13:46:36.033022$GNVTG,243.17,T,,M,0.04,N,0.07,K,A*23
###2023-12-09 13:46:36.034645$GNGST,184635.10,7.600,,,,0.190,0.120,0.320*60
###2023-12-09 13:46:36.035929$GNZDA,184635.10,09,12,2023,00,00*7D
###2023-12-09 13:46:36.036565$GNEBP,,,,,,M*13
###2023-12-09 13:46:36.207277$GNGGA,184635.30,4138.0395194,N,07032.4386903,W,1,18,0.7,15.626,M,-29.746,M,0.0,*53
###2023-12-09 13:46:36.407617$GNGGA,184635.50,4138.0395176,N,07032.4386899,W,1,18,0.7,15.623,M,-29.746,M,0.0,*5E
###2023-12-09 13:46:36.605075$GNGGA,184635.70,4138.0395155,N,07032.4386891,W,1,18,0.7,15.624,M,-29.746,M,0.0,*52
###2023-12-09 13:46:36.807799$GNGGA,184635.90,4138.0395156,N,07032.4386885,W,1,18,0.7,15.619,M,-29.746,M,0.0,*54
###2023-12-09 13:46:37.007606$GNRMC,184636.10,A,4138.0395144,N,07032.4386858,W,0.02,243.17,091223,,,A*5D
###2023-12-09 13:46:37.010458$GNGGA,184636.10,4138.0395144,N,07032.4386858,W,1,18,0.7,15.623,M,-29.746,M,0.0,*55
###2023-12-09 13:46:37.012198$GPGSA,A,3,04,16,26,28,29,31,,,,,,,1.3,0.7,1.1*33
###2023-12-09 13:46:37.013844$GLGSA,A,3,65,72,73,75,83,,,,,,,,1.3,0.7,1.1*20
###2023-12-09 13:46:37.015365$GAGSA,A,3,04,21,27,,,,,,,,,,1.3,0.7,1.1*24
###2023-12-09 13:46:37.016941$GBGSA,A,3,12,24,25,33,,,,,,,,,1.3,0.7,1.1*27
###2023-12-09 13:46:37.019284$GPGSV,2,1,06,04,51,304,47,16,72,228,41,26,78,041,38,28,34,089,46*7C
###2023-12-09 13:46:37.021040$GPGSV,2,2,06,29,18,043,42,31,56,073,49,,,,,,,,*74
###2023-12-09 13:46:37.023664$GLGSV,2,1,05,65,42,313,44,72,57,214,39,73,18,056,37,75,47,279,46*68
###2023-12-09 13:46:37.025126$GLGSV,2,2,05,83,16,042,36,,,,,,,,,,,,*5F
###2023-12-09 13:46:37.027166$GAGSV,1,1,03,04,43,308,44,21,72,043,40,27,19,051,42,,,,*59
###2023-12-09 13:46:37.029493$GBGSV,1,1,04,12,19,122,42,24,58,052,48,25,54,282,41,33,40,213,37*68
###2023-12-09 13:46:37.030843$GNVTG,243.17,T,,M,0.02,N,0.04,K,A*26
###2023-12-09 13:46:37.032459$GNGST,184636.10,7.600,,,,0.190,0.120,0.320*63
###2023-12-09 13:46:37.033746$GNZDA,184636.10,09,12,2023,00,00*7E
###2023-12-09 13:46:37.034386$GNEBP,,,,,,M*13
