###2023-12-09 12:39:15.946927$GBGSA,A,3,14,24,25,26,33,,,,,,,,1.2,0.7,1.0*25
###2023-12-09 12:39:15.949292$GPGSV,2,1,08,03,38,275,47,04,23,311,45,16,38,208,42,26,68,207,46*73
###2023-12-09 12:39:15.951652$GPGSV,2,2,08,28,57,058,43,29,25,072,39,31,73,007,47,32,28,135,42*78
###2023-12-09 12:39:15.953976$GLGSV,2,1,05,71,54,170,44,72,68,305,47,73,45,035,46,74,71,299,43*6D
###2023-12-09 12:39:15.955439$GLGSV,2,2,05,75,24,243,43,,,,,,,,,,,,*56
###2023-12-09 12:39:15.957780$GAGSV,1,1,04,04,22,311,44,19,82,296,41,21,79,174,45,27,40,049,44*63
###2023-12-09 12:39:15.960135$GBGSV,2,1,05,14,53,197,43,24,80,355,47,25,34,254,45,26,33,058,43*64
###2023-12-09 12:39:15.961600$GBGSV,2,2,05,33,62,250,47,,,,,,,,,,,,*5E
###2023-12-09 12:39:15.962952$GNVTG,284.09,T,,M,0.41,N,0.76,K,A*20
###2023-12-09 12:39:15.964612$GNGST,173915.10,18.000,,,,0.082,0.071,0.170*5D
###2023-12-09 12:39:15.965911$GNZDA,173915.10,09,12,2023,00,00*78
###2023-12-09 12:39:15.966552$GNEBP,,,,,,M*13
###2023-12-09 12:39:16.137675$GNGGA,173915.30,4138.0535655,N,07032.3750707,W,1,23,0.7,13.660,M,-29.744,M,0.0,*5C
###2023-12-09 12:39:16.339039$GNGGA,173915.50,4138.0535520,N,07032.3750441,W,1,23,0.7,13.621,M,-29.744,M,0.0,*5F
###2023-12-09 12:39:16.538322$GNGGA,173915.70,4138.0535579,N,07032.3750946,W,1,23,0.7,13.622,M,-29.744,M,0.0,*58
###2023-12-09 12:39:16.737468$GNGGA,173915.90,4138.0535760,N,07032.3751845,W,1,23,0.7,13.644,M,-29.744,M,0.0,*5F
###2023-12-09 12:39:16.939953$GNRMC,173916.10,A,4138.0535805,N,07032.3752279,W,0.12,282.18,091223,,,A*58
###2023-12-09 12:39:16.942838$GNGGA,173916.10,4138.0535805,N,07032.3752279,W,1,23,0.7,13.658,M,-29.744,M,0.0,*53
###2023-12-09 12:39:16.944702$GPGSA,A,3,03,04,16,26,28,29,31,32,,,,,1.2,0.7,1.0*31
###2023-12-09 12:39:16.946351$GLGSA,A,3,71,72,73,74,75,,,,,,,,1.2,0.7,1.0*2D
###2023-12-09 12:39:16.947972$GAGSA,A,3,04,19,21,27,,,,,,,,,1.2,0.7,1.0*2C
###2023-12-09 12:39:16.949628$GBGSA,A,3,14,24,25,26,33,,,,,,,,1.2,0.7,1.0*25
###2023-12-09 12:39:16.951968$GPGSV,2,1,08,03,38,275,46,04,23,311,45,16,38,208,42,26,68,207,46*72
###2023-12-09 12:39:16.954296$GPGSV,2,2,08,28,57,058,43,29,25,072,41,31,73,007,47,32,28,135,42*77
###2023-12-09 12:39:16.956644$GLGSV,2,1,05,71,54,170,45,72,68,305,47,73,45,035,46,74,71,299,43*6C
###2023-12-09 12:39:16.958104$GLGSV,2,2,05,75,24,243,42,,,,,,,,,,,,*57
###2023-12-09 12:39:16.960449$GAGSV,1,1,04,04,22,311,45,19,82,296,40,21,79,174,45,27,40,049,44*63
###2023-12-09 12:39:16.962792$GBGSV,2,1,05,14,53,197,44,24,80,355,48,25,34,254,45,26,33,058,43*6C
###2023-12-09 12:39:16.964252$GBGSV,2,2,05,33,62,250,47,,,,,,,,,,,,*5E
###2023-12-09 12:39:16.965579$GNVTG,282.18,T,,M,0.12,N,0.22,K,A*21
###2023-12-09 12:39:16.967240$GNGST,173916.10,19.000,,,,0.082,0.071,0.170*5F
###2023-12-09 12:39:16.968528$GNZDA,173916.10,09,12,2023,00,00*7B
###2023-12-09 12:39:16.969165$GNEBP,,,,,,M*13
###2023-12-09 12:39:17.140009$GNGGA,173916.30,4138.0535705,N,07032.3752163,W,1,23,0.7,13.678,M,-29.744,M,0.0,*54
###2023-12-09 12:39:17.339057$GNGGA,173916.50,4138.0535620,N,07032.3752111,W,1,23,0.7,13.640,M,-29.744,M,0.0,*5A
###2023-12-09 12:39:17.539445$GNGGA,173916.70,4138.0535693,N,07032.3752624,W,1,23,0.7,13.633,M,-29.744,M,0.0,*55
###2023-12-09 12:39:17.738597$GNGGA,173916.90,4138.0535824,N,07032.3753334,W,1,23,0.7,13.640,M,-29.744,M,0.0,*58
###2023-12-09 12:39:17.939705$GNRMC,173917.10,A,4138.0535865,N,07032.3753687,W,0.19,284.89,091223,,,A*5E
###2023-12-09 12:39:17.942585$GNGGA,173917.10,4138.0535865,N,07032.3753687,W,1,23,0.7,13.658,M,-29.744,M,0.0,*50
###2023-12-09 12:39:17.944455$GPGSA,A,3,03,04,16,26,28,29,31,32,,,,,1.2,0.7,1.0*31
###2023-12-09 12:39:17.946115$GLGSA,A,3,71,72,73,74,75,,,,,,,,1.2,0.7,1.0*2D
###2023-12-09 12:39:17.947733$GAGSA,A,3,04,19,21,27,,,,,,,,,1.2,0.7,1.0*2C
###2023-12-09 12:39:17.949405$GBGSA,A,3,14,24,25,26,33,,,,,,,,1.2,0.7,1.0*25
###2023-12-09 12:39:17.951759$GPGSV,2,1,08,03,38,275,46,04,23,311,44,16,38,208,42,26,68,207,46*73
###2023-12-09 12:39:17.954098$GPGSV,2,2,08,28,57,058,43,29,25,072,41,31,73,007,47,32,28,135,43*76
###2023-12-09 12:39:17.956452$GLGSV,2,1,05,71,54,170,45,72,68,305,48,73,45,035,46,74,71,299,44*64
###2023-12-09 12:39:17.957908$GLGSV,2,2,05,75,24,243,40,,,,,,,,,,,,*55
###2023-12-09 12:39:17.960262$GAGSV,1,1,04,04,22,311,44,19,82,296,41,21,79,174,45,27,40,049,43*64
###2023-12-09 12:39:17.962616$GBGSV,2,1,05,14,53,197,45,24,80,355,48,25,34,254,45,26,33,058,44*6A
###2023-12-09 12:39:17.964079$GBGSV,2,2,05,33,62,250,48,,,,,,,,,,,,*51
###2023-12-09 12:39:17.965404$GNVTG,284.89,T,,M,0.19,N,0.36,K,A*21
###2023-12-09 12:39:17.967074$GNGST,173917.10,19.000,,,,0.082,0.072,0.170*5D
###2023-12-09 12:39:17.968372$GNZDA,173917.10,09,12,2023,00,00*7A
###2023-12-09 12:39:17.969012$GNEBP,,,,,,M*13
###2023-12-09 12:39:18.139038$GNGGA,173917.30,4138.0535784,N,07032.3753695,W,1,23,0.7,13.675,M,-29.744,M,0.0,*5E
###2023-12-09 12:39:18.340036$GNGGA,173917.50,4138.0535732,N,07032.3753719,W,1,23,0.7,13.650,M,-29.744,M,0.0,*57
###2023-12-09 12:39:18.540634$GNGGA,173917.70,4138.0535802,N,07032.3754126,W,1,23,0.7,13.632,M,-29.744,M,0.0,*50
###2023-12-09 12:39:18.739591$GNGGA,173917.90,4138.0535860,N,07032.3754709,W,1,23,0.7,13.637,M,-29.744,M,0.0,*54
###2023-12-09 12:39:18.940941$GNRMC,173918.10,A,4138.0535880,N,07032.3755079,W,0.25,284.89,091223,,,A*54
###2023-12-09 12:39:18.943818$GNGGA,173918.10,4138.0535880,N,07032.3755079,W,1,23,0.7,13.653,M,-29.744,M,0.0,*5E
###2023-12-09 12:39:18.945672$GPGSA,A,3,03,04,16,26,28,29,31,32,,,,,1.2,0.7,1.0*31
###2023-12-09 12:39:18.947369$GLGSA,A,3,71,72,73,74,75,,,,,,,,1.2,0.7,1.0*2D
###2023-12-09 12:39:18.948985$GAGSA,A,3,04,19,21,27,,,,,,,,,1.2,0.7,1.0*2C
###2023-12-09 12:39:18.950655$GBGSA,A,3,14,24,25,26,33,,,,,,,,1.2,0.7,1.0*25
###2023-12-09 12:39:18.952989$GPGSV,2,1,08,03,38,275,45,04,23,311,44,16,38,208,42,26,68,207,47*71
###2023-12-09 12:39:18.955338$GPGSV,2,2,08,28,57,058,43,29,25,072,41,31,73,007,47,32,28,135,44*71
###2023-12-09 12:39:18.957673$GLGSV,2,1,05,71,54,170,47,72,68,305,47,73,45,035,46,74,71,299,43*6E
###2023-12-09 12:39:18.959148$GLGSV,2,2,05,75,24,243,40,,,,,,,,,,,,*55
###2023-12-09 12:39:18.961473$GAGSV,1,1,04,04,22,311,43,19,82,296,41,21,79,174,45,27,40,049,44*64
###2023-12-09 12:39:18.963825$GBGSV,2,1,05,14,53,197,44,24,80,355,48,25,34,254,45,26,33,058,43*6C
###2023-12-09 12:39:18.965285$GBGSV,2,2,05,33,62,250,47,,,,,,,,,,,,*5E
###2023-12-09 12:39:18.966622$GNVTG,284.89,T,,M,0.25,N,0.47,K,A*28
###2023-12-09 12:39:18.968272$GNGST,173918.10,19.000,,,,0.083,0.072,0.170*53
###2023-12-09 12:39:18.969565$GNZDA,173918.10,09,12,2023,00,00*75
###2023-12-09 12:39:18.970202$GNEBP,,,,,,M*13
###2023-12-09 12:39:19.141654$GNGGA,173918.30,4138.0535845,N,07032.3755165,W,1,23,0.7,13.666,M,-29.744,M,0.0,*5F
###2023-12-09 12:39:19.340091$GNGGA,173918.50,4138.0535826,N,07032.3755276,W,1,23,0.7,13.657,M,-29.744,M,0.0,*5F
###2023-12-09 12:39:19.539405$GNGGA,173918.70,4138.0535850,N,07032.3755603,W,1,23,0.7,13.633,M,-29.744,M,0.0,*58
###2023-12-09 12:39:19.739559$GNGGA,173918.90,4138.0535887,N,07032.3756015,W,1,23,0.7,13.624,M,-29.744,M,0.0,*58
###2023-12-09 12:39:19.939963$GNRMC,173919.10,A,4138.0535931,N,07032.3756396,W,0.47,284.89,091223,,,A*5B
###2023-12-09 12:39:19.942830$GNGGA,173919.10,4138.0535931,N,07032.3756396,W,1,23,0.7,13.642,M,-29.744,M,0.0,*55
###2023-12-09 12:39:19.944691$GPGSA,A,3,03,04,16,26,28,29,31,32,,,,,1.2,0.7,1.0*31
###2023-12-09 12:39:19.946345$GLGSA,A,3,71,72,73,74,75,,,,,,,,1.2,0.7,1.0*2D
###2023-12-09 12:39:19.947989$GAGSA,A,3,04,19,21,27,,,,,,,,,1.2,0.7,1.0*2C
###2023-12-09 12:39:19.949671$GBGSA,A,3,14,24,25,26,33,,,,,,,,1.2,0.7,1.0*25
###2023-12-09 12:39:19.952054$GPGSV,2,1,08,03,38,275,44,04,23,311,43,16,38,208,43,26,68,207,46*77
###2023-12-09 12:39:19.954395$GPGSV,2,2,08,28,57,058,45,29,25,072,42,31,73,007,48,32,28,135,45*7A
###2023-12-09 12:39:19.956751$GLGSV,2,1,05,71,54,170,47,72,68,305,47,73,45,035,46,74,71,299,43*6E
###2023-12-09 12:39:19.958218$GLGSV,2,2,05,75,24,243,38,,,,,,,,,,,,*5A
###2023-12-09 12:39:19.960560$GAGSV,1,1,04,04,22,311,42,19,82,296,41,21,79,174,46,27,40,049,44*66
###2023-12-09 12:39:19.962908$GBGSV,2,1,05,14,53,197,45,24,80,355,49,25,34,254,45,26,33,058,44*6B
###2023-12-09 12:39:19.964610$GBGSV,2,2,05,33,62,250,48,,,,,,,,,,,,*51
###2023-12-09 12:39:19.965948$GNVTG,284.89,T,,M,0.47,N,0.86,K,A*21
###2023-12-09 12:39:19.967631$GNGST,173919.10,19.000,,,,0.083,0.072,0.170*52
###2023-12-09 12:39:19.968931$GNZDA,173919.10,09,12,2023,00,00*74
###2023-12-09 12:39:19.969573$GNEBP,,,,,,M*13
###2023-12-09 12:39:20.140115$GNGGA,173919.30,4138.0535966,N,07032.3756798,W,1,23,0.7,13.668,M,-29.744,M,0.0,*57
###2023-12-09 12:39:20.339953$GNGGA,173919.50,4138.0535985,N,07032.3757047,W,1,23,0.7,13.663,M,-29.744,M,0.0,*53
###2023-12-09 12:39:20.541067$GNGGA,173919.70,4138.0535938,N,07032.3757029,W,1,23,0.7,13.614,M,-29.744,M,0.0,*5F
###2023-12-09 12:39:20.740964$GNGGA,173919.90,4138.0535904,N,07032.3757190,W,1,23,0.7,13.600,M,-29.744,M,0.0,*58
