###2023-12-09 13:32:21.791656$GNGGA,183220.90,4138.0369566,N,07032.4154816,W,1,23,0.8,13.901,M,-29.745,M,0.0,*54
###2023-12-09 13:32:21.993168$GNRMC,183221.10,A,4138.0369458,N,07032.4154745,W,0.41,97.99,091223,,,A*67
###2023-12-09 13:32:21.996036$GNGGA,183221.10,4138.0369458,N,07032.4154745,W,1,23,0.8,13.894,M,-29.745,M,0.0,*55
###2023-12-09 13:32:21.997817$GPGSA,A,3,03,04,16,26,28,29,31,,,,,,1.2,0.8,0.9*37
###2023-12-09 13:32:21.999537$GLGSA,A,3,65,72,73,74,75,83,,,,,,,1.2,0.8,0.9*24
###2023-12-09 13:32:22.001110$GAGSA,A,3,04,19,21,27,,,,,,,,,1.2,0.8,0.9*2B
###2023-12-09 13:32:22.002759$GBGSA,A,3,24,25,26,33,35,,,,,,,,1.2,0.8,0.9*21
###2023-12-09 13:32:22.005071$GPGSV,2,1,07,03,27,247,36,04,45,308,46,16,65,221,45,26,85,040,47*79
###2023-12-09 13:32:22.007115$GPGSV,2,2,07,28,39,084,43,29,21,048,41,31,60,064,46,,,,*40
###2023-12-09 13:32:22.009433$GLGSV,2,1,06,65,37,320,46,72,64,223,46,73,23,051,42,74,61,011,43*66
###2023-12-09 13:32:22.011179$GLGSV,2,2,06,75,42,269,47,83,15,049,36,,,,,,,,*6E
###2023-12-09 13:32:22.013492$GAGSV,1,1,04,04,39,310,45,19,73,182,40,21,77,047,46,27,23,050,41*64
###2023-12-09 13:32:22.015814$GBGSV,2,1,05,24,64,044,47,25,50,275,47,26,17,070,42,33,47,218,46*62
###2023-12-09 13:32:22.017261$GBGSV,2,2,05,35,16,058,43,,,,,,,,,,,,*55
###2023-12-09 13:32:22.018537$GNVTG,97.99,T,,M,0.41,N,0.76,K,A*19
###2023-12-09 13:32:22.020149$GNGST,183221.10,6.000,,,,0.170,0.097,0.240*65
###2023-12-09 13:32:22.021428$GNZDA,183221.10,09,12,2023,00,00*7B
###2023-12-09 13:32:22.022061$GNEBP,,,,,,M*13
###2023-12-09 13:32:22.195078$GNGGA,183221.30,4138.0369321,N,07032.4154519,W,1,23,0.8,13.874,M,-29.745,M,0.0,*5B
###2023-12-09 13:32:22.390597$GNGGA,183221.50,4138.0369179,N,07032.4154481,W,1,23,0.8,13.875,M,-29.745,M,0.0,*53
###2023-12-09 13:32:22.591223$GNGGA,183221.70,4138.0369129,N,07032.4154621,W,1,23,0.8,13.886,M,-29.745,M,0.0,*50
###2023-12-09 13:32:22.791491$GNGGA,183221.90,4138.0369029,N,07032.4154643,W,1,22,0.8,13.870,M,-29.745,M,0.0,*53
###2023-12-09 13:32:22.994285$GNRMC,183222.10,A,4138.0368867,N,07032.4154454,W,0.43,97.99,091223,,,A*64
###2023-12-09 13:32:22.997164$GNGGA,183222.10,4138.0368867,N,07032.4154454,W,1,22,0.8,13.866,M,-29.745,M,0.0,*58
###2023-12-09 13:32:22.998900$GPGSA,A,3,04,16,26,28,29,31,,,,,,,1.4,0.8,1.1*3B
###2023-12-09 13:32:23.000606$GLGSA,A,3,65,72,73,74,75,83,,,,,,,1.4,0.8,1.1*2B
###2023-12-09 13:32:23.002179$GAGSA,A,3,04,19,21,27,,,,,,,,,1.4,0.8,1.1*24
###2023-12-09 13:32:23.003828$GBGSA,A,3,24,25,26,33,35,,,,,,,,1.4,0.8,1.1*2E
###2023-12-09 13:32:23.006151$GPGSV,2,1,06,04,45,308,47,16,65,221,44,26,85,040,48,28,39,084,45*78
###2023-12-09 13:32:23.007898$GPGSV,2,2,06,29,21,048,42,31,60,064,46,,,,,,,,*79
###2023-12-09 13:32:23.010209$GLGSV,2,1,06,65,37,320,45,72,64,223,46,73,23,051,45,74,61,011,43*62
###2023-12-09 13:32:23.011950$GLGSV,2,2,06,75,42,269,47,83,15,049,36,,,,,,,,*6E
###2023-12-09 13:32:23.014259$GAGSV,1,1,04,04,39,310,45,19,73,182,41,21,77,047,46,27,23,050,41*65
###2023-12-09 13:32:23.016584$GBGSV,2,1,05,24,64,044,48,25,50,275,47,26,17,070,44,33,47,218,46*6B
###2023-12-09 13:32:23.018029$GBGSV,2,2,05,35,16,058,44,,,,,,,,,,,,*52
###2023-12-09 13:32:23.019323$GNVTG,97.99,T,,M,0.43,N,0.79,K,A*14
###2023-12-09 13:32:23.020930$GNGST,183222.10,6.200,,,,0.160,0.094,0.240*66
###2023-12-09 13:32:23.022215$GNZDA,183222.10,09,12,2023,00,00*78
###2023-12-09 13:32:23.022862$GNEBP,,,,,,M*13
###2023-12-09 13:32:23.191549$GNGGA,183222.30,4138.0368718,N,07032.4154345,W,1,22,0.8,13.871,M,-29.745,M,0.0,*5C
###2023-12-09 13:32:23.390632$GNGGA,183222.50,4138.0368637,N,07032.4154448,W,1,22,0.8,13.871,M,-29.745,M,0.0,*5C
###2023-12-09 13:32:23.591494$GNGGA,183222.70,4138.0368564,N,07032.4154485,W,1,22,0.8,13.853,M,-29.745,M,0.0,*5A
###2023-12-09 13:32:23.791706$GNGGA,183222.90,4138.0368397,N,07032.4154343,W,1,22,0.8,13.838,M,-29.745,M,0.0,*5E
###2023-12-09 13:32:23.993089$GNRMC,183223.10,A,4138.0368265,N,07032.4154307,W,0.17,97.99,091223,,,A*6D
###2023-12-09 13:32:23.995968$GNGGA,183223.10,4138.0368265,N,07032.4154307,W,1,22,0.8,13.860,M,-29.745,M,0.0,*56
###2023-12-09 13:32:23.997696$GPGSA,A,3,04,16,26,28,29,31,,,,,,,1.3,0.8,1.0*3D
###2023-12-09 13:32:23.999418$GLGSA,A,3,65,72,73,74,75,83,,,,,,,1.3,0.8,1.0*2D
###2023-12-09 13:32:24.000999$GAGSA,A,3,04,19,21,27,,,,,,,,,1.3,0.8,1.0*22
###2023-12-09 13:32:24.002653$GBGSA,A,3,24,25,26,33,35,,,,,,,,1.3,0.8,1.0*28
###2023-12-09 13:32:24.004972$GPGSV,2,1,06,04,45,308,46,16,65,221,46,26,85,040,47,28,39,084,43*72
###2023-12-09 13:32:24.006724$GPGSV,2,2,06,29,21,048,42,31,60,064,47,,,,,,,,*78
###2023-12-09 13:32:24.009039$GLGSV,2,1,06,65,37,320,44,72,64,223,46,73,23,051,44,74,61,011,43*62
###2023-12-09 13:32:24.010787$GLGSV,2,2,06,75,42,269,47,83,15,049,36,,,,,,,,*6E
###2023-12-09 13:32:24.013103$GAGSV,1,1,04,04,39,310,46,19,73,182,41,21,77,047,46,27,23,050,42*65
###2023-12-09 13:32:24.015436$GBGSV,2,1,05,24,64,044,49,25,50,275,47,26,17,070,43,33,47,218,44*6F
###2023-12-09 13:32:24.016888$GBGSV,2,2,05,35,16,058,44,,,,,,,,,,,,*52
###2023-12-09 13:32:24.018172$GNVTG,97.99,T,,M,0.17,N,0.32,K,A*1A
###2023-12-09 13:32:24.019791$GNGST,183223.10,6.200,,,,0.160,0.091,0.240*62
###2023-12-09 13:32:24.021076$GNZDA,183223.10,09,12,2023,00,00*79
###2023-12-09 13:32:24.021708$GNEBP,,,,,,M*13
###2023-12-09 13:32:24.191667$GNGGA,183223.30,4138.0368225,N,07032.4154379,W,1,21,0.9,13.871,M,-29.745,M,0.0,*5B
###2023-12-09 13:32:24.394377$GNGGA,183223.50,4138.0368135,N,07032.4154427,W,1,21,0.9,13.849,M,-29.745,M,0.0,*58
###2023-12-09 13:32:24.592544$GNGGA,183223.70,4138.0367998,N,07032.4154363,W,1,22,0.8,13.844,M,-29.745,M,0.0,*52
###2023-12-09 13:32:24.792807$GNGGA,183223.90,4138.0367860,N,07032.4154219,W,1,21,0.9,13.840,M,-29.745,M,0.0,*50
###2023-12-09 13:32:24.995077$GNRMC,183224.10,A,4138.0367776,N,07032.4154241,W,0.23,97.99,091223,,,A*66
###2023-12-09 13:32:24.997940$GNGGA,183224.10,4138.0367776,N,07032.4154241,W,1,21,0.9,13.845,M,-29.745,M,0.0,*5F
###2023-12-09 13:32:24.999684$GPGSA,A,3,04,16,26,28,29,31,,,,,,,1.6,0.9,1.2*3B
###2023-12-09 13:32:25.001399$GLGSA,A,3,65,72,73,74,75,83,,,,,,,1.6,0.9,1.2*2B
###2023-12-09 13:32:25.002991$GAGSA,A,3,04,19,21,27,,,,,,,,,1.6,0.9,1.2*24
###2023-12-09 13:32:25.004632$GBGSA,A,3,24,25,26,33,35,,,,,,,,1.6,0.9,1.2*2E
###2023-12-09 13:32:25.006966$GPGSV,2,1,06,04,45,308,45,16,65,221,45,26,85,040,49,28,39,084,44*7B
###2023-12-09 13:32:25.008713$GPGSV,2,2,06,29,21,048,43,31,60,064,47,,,,,,,,*79
###2023-12-09 13:32:25.011056$GLGSV,2,1,06,65,37,320,44,72,64,223,46,73,23,051,45,74,61,011,43*63
###2023-12-09 13:32:25.012805$GLGSV,2,2,06,75,42,269,47,83,15,049,36,,,,,,,,*6E
###2023-12-09 13:32:25.015138$GAGSV,1,1,04,04,39,310,45,19,73,182,41,21,77,047,47,27,23,050,41*64
###2023-12-09 13:32:25.017477$GBGSV,2,1,05,24,64,044,48,25,50,275,47,26,17,070,45,33,47,218,44*68
###2023-12-09 13:32:25.018936$GBGSV,2,2,05,35,16,058,44,,,,,,,,,,,,*52
###2023-12-09 13:32:25.020224$GNVTG,97.99,T,,M,0.23,N,0.43,K,A*1B
###2023-12-09 13:32:25.021835$GNGST,183224.10,5.900,,,,0.160,0.089,0.240*64
###2023-12-09 13:32:25.023132$GNZDA,183224.10,09,12,2023,00,00*7E
###2023-12-09 13:32:25.023768$GNEBP,,,,,,M*13
###2023-12-09 13:32:25.193588$GNGGA,183224.30,4138.0367755,N,07032.4154439,W,1,21,0.9,13.868,M,-29.745,M,0.0,*5A
###2023-12-09 13:32:25.392951$GNGGA,183224.50,4138.0367674,N,07032.4154490,W,1,22,0.8,13.859,M,-29.745,M,0.0,*5D
###2023-12-09 13:32:25.590555$GNGGA,183224.70,4138.0367487,N,07032.4154262,W,1,21,0.9,13.821,M,-29.745,M,0.0,*57
###2023-12-09 13:32:25.791476$GNGGA,183224.90,4138.0367316,N,07032.4154139,W,1,21,0.9,13.810,M,-29.745,M,0.0,*59
###2023-12-09 13:32:25.994375$GNRMC,183225.10,A,4138.0367280,N,07032.4154346,W,0.51,97.99,091223,,,A*68
###2023-12-09 13:32:25.997255$GNGGA,183225.10,4138.0367280,N,07032.4154346,W,1,21,0.9,13.837,M,-29.745,M,0.0,*51
###2023-12-09 13:32:25.998997$GPGSA,A,3,04,16,26,28,29,31,,,,,,,1.6,0.9,1.2*3B
###2023-12-09 13:32:26.000708$GLGSA,A,3,65,72,73,74,75,83,,,,,,,1.6,0.9,1.2*2B
###2023-12-09 13:32:26.002287$GAGSA,A,3,04,19,21,27,,,,,,,,,1.6,0.9,1.2*24
###2023-12-09 13:32:26.003948$GBGSA,A,3,24,25,26,33,35,,,,,,,,1.6,0.9,1.2*2E
###2023-12-09 13:32:26.006264$GPGSV,2,1,06,04,45,308,46,16,65,221,45,26,85,040,49,28,39,084,44*78
###2023-12-09 13:32:26.008287$GPGSV,2,2,06,29,21,048,43,31,60,064,47,,,,,,,,*79
###2023-12-09 13:32:26.010614$GLGSV,2,1,06,65,37,320,44,72,64,223,44,73,23,051,44,74,61,011,42*61
###2023-12-09 13:32:26.012352$GLGSV,2,2,06,75,42,269,47,83,15,049,36,,,,,,,,*6E
###2023-12-09 13:32:26.014667$GAGSV,1,1,04,04,39,310,45,19,73,182,41,21,77,047,47,27,23,050,41*64
###2023-12-09 13:32:26.016985$GBGSV,2,1,05,24,64,044,48,25,50,275,47,26,17,070,43,33,47,218,44*6E
###2023-12-09 13:32:26.018432$GBGSV,2,2,05,35,16,058,43,,,,,,,,,,,,*55
###2023-12-09 13:32:26.019733$GNVTG,97.99,T,,M,0.51,N,0.94,K,A*14
###2023-12-09 13:32:26.021332$GNGST,183225.10,5.700,,,,0.160,0.087,0.230*62
