###2023-12-09 13:34:16.009393$GBGSA,A,3,12,14,24,25,26,33,35,,,,,,1.0,0.6,0.8*2A
###2023-12-09 13:34:16.011765$GPGSV,2,1,08,03,27,247,41,04,46,308,45,16,66,222,46,26,84,040,47*74
###2023-12-09 13:34:16.014093$GPGSV,2,2,08,27,16,172,41,28,38,084,43,29,21,047,39,31,59,066,45*76
###2023-12-09 13:34:16.016430$GLGSV,2,1,06,65,38,319,42,71,23,175,42,72,63,222,46,73,23,052,39*6F
###2023-12-09 13:34:16.018166$GLGSV,2,2,06,74,60,013,40,75,43,271,48,,,,,,,,*6D
###2023-12-09 13:34:16.020501$GAGSV,1,1,04,04,40,310,44,19,72,181,41,21,77,046,45,27,22,050,38*65
###2023-12-09 13:34:16.022843$GBGSV,2,1,07,12,15,126,36,14,29,190,40,24,63,045,47,25,50,275,47*6A
###2023-12-09 13:34:16.024885$GBGSV,2,2,07,26,16,070,41,33,46,217,46,35,16,057,42,,,,*5C
###2023-12-09 13:34:16.026170$GNVTG,31.43,T,,M,3.09,N,5.72,K,A*1C
###2023-12-09 13:34:16.027797$GNGST,183415.10,5.600,,,,0.091,0.068,0.150*6D
###2023-12-09 13:34:16.029083$GNZDA,183415.10,09,12,2023,00,00*7A
###2023-12-09 13:34:16.029716$GNEBP,,,,,,M*13
###2023-12-09 13:34:16.201906$GNGGA,183415.30,4138.0490858,N,07032.4072287,W,1,26,0.6,13.420,M,-29.745,M,0.0,*5D
###2023-12-09 13:34:16.394237$GNGGA,183415.50,4138.0492356,N,07032.4071232,W,1,26,0.6,13.418,M,-29.745,M,0.0,*5A
###2023-12-09 13:34:16.594408$GNGGA,183415.70,4138.0493902,N,07032.4070217,W,1,26,0.6,13.392,M,-29.745,M,0.0,*51
###2023-12-09 13:34:16.794083$GNGGA,183415.90,4138.0495415,N,07032.4069356,W,1,26,0.6,13.406,M,-29.745,M,0.0,*54
###2023-12-09 13:34:16.999098$GNRMC,183416.10,A,4138.0496962,N,07032.4068452,W,3.15,29.43,091223,,,A*6D
###2023-12-09 13:34:17.001967$GNGGA,183416.10,4138.0496962,N,07032.4068452,W,1,26,0.6,13.416,M,-29.745,M,0.0,*52
###2023-12-09 13:34:17.003842$GPGSA,A,3,03,04,16,26,27,28,29,31,,,,,1.0,0.6,0.8*3F
###2023-12-09 13:34:17.005561$GLGSA,A,3,65,71,72,73,74,75,,,,,,,1.0,0.6,0.8*24
###2023-12-09 13:34:17.007161$GAGSA,A,3,04,19,21,27,,,,,,,,,1.0,0.6,0.8*26
###2023-12-09 13:34:17.008934$GBGSA,A,3,12,14,24,25,26,33,35,,,,,,1.0,0.6,0.8*2A
###2023-12-09 13:34:17.011267$GPGSV,2,1,08,03,27,247,39,04,46,308,45,16,66,222,46,26,84,040,47*7B
###2023-12-09 13:34:17.013603$GPGSV,2,2,08,27,16,172,37,28,38,084,42,29,21,047,39,31,59,066,44*77
###2023-12-09 13:34:17.015946$GLGSV,2,1,06,65,38,319,43,71,23,175,41,72,63,222,45,73,23,052,38*6F
###2023-12-09 13:34:17.017684$GLGSV,2,2,06,74,60,013,41,75,43,271,48,,,,,,,,*6C
###2023-12-09 13:34:17.020026$GAGSV,1,1,04,04,40,310,44,19,72,181,41,21,77,046,44,27,22,050,38*64
###2023-12-09 13:34:17.022358$GBGSV,2,1,07,12,15,126,36,14,29,190,40,24,63,045,46,25,50,275,47*6B
###2023-12-09 13:34:17.024417$GBGSV,2,2,07,26,16,070,41,33,46,217,46,35,16,057,43,,,,*5D
###2023-12-09 13:34:17.025709$GNVTG,29.43,T,,M,3.15,N,5.83,K,A*16
###2023-12-09 13:34:17.027333$GNGST,183416.10,5.800,,,,0.091,0.068,0.160*63
###2023-12-09 13:34:17.028622$GNZDA,183416.10,09,12,2023,00,00*79
###2023-12-09 13:34:17.029258$GNEBP,,,,,,M*13
###2023-12-09 13:34:17.195233$GNGGA,183416.30,4138.0498391,N,07032.4067143,W,1,26,0.6,13.379,M,-29.745,M,0.0,*5C
###2023-12-09 13:34:17.394326$GNGGA,183416.50,4138.0499731,N,07032.4065882,W,1,26,0.6,13.355,M,-29.745,M,0.0,*5D
###2023-12-09 13:34:17.594528$GNGGA,183416.70,4138.0501333,N,07032.4065299,W,1,26,0.6,13.380,M,-29.745,M,0.0,*51
###2023-12-09 13:34:17.795197$GNGGA,183416.90,4138.0502899,N,07032.4064520,W,1,25,0.6,13.395,M,-29.745,M,0.0,*54
###2023-12-09 13:34:17.998036$GNRMC,183417.10,A,4138.0504165,N,07032.4062926,W,3.17,52.94,091223,,,A*69
###2023-12-09 13:34:18.000932$GNGGA,183417.10,4138.0504165,N,07032.4062926,W,1,26,0.6,13.364,M,-29.745,M,0.0,*50
###2023-12-09 13:34:18.002797$GPGSA,A,3,03,04,16,26,27,28,29,31,,,,,1.0,0.6,0.8*3F
###2023-12-09 13:34:18.004511$GLGSA,A,3,65,71,72,73,74,75,,,,,,,1.0,0.6,0.8*24
###2023-12-09 13:34:18.006089$GAGSA,A,3,04,19,21,27,,,,,,,,,1.0,0.6,0.8*26
###2023-12-09 13:34:18.007865$GBGSA,A,3,12,14,24,25,26,33,35,,,,,,1.0,0.6,0.8*2A
###2023-12-09 13:34:18.010170$GPGSV,2,1,08,03,27,247,43,04,46,308,45,16,66,222,46,26,84,040,47*76
###2023-12-09 13:34:18.012497$GPGSV,2,2,08,27,16,172,41,28,38,084,43,29,21,047,39,31,59,066,46*75
###2023-12-09 13:34:18.014835$GLGSV,2,1,06,65,38,319,43,71,23,175,42,72,63,222,45,73,23,052,40*63
###2023-12-09 13:34:18.016582$GLGSV,2,2,06,74,60,013,41,75,43,271,46,,,,,,,,*62
###2023-12-09 13:34:18.018919$GAGSV,1,1,04,04,40,310,44,19,72,181,41,21,77,046,45,27,22,050,38*65
###2023-12-09 13:34:18.021245$GBGSV,2,1,07,12,15,126,42,14,29,190,39,24,63,045,47,25,50,275,47*67
###2023-12-09 13:34:18.023318$GBGSV,2,2,07,26,16,070,41,33,46,217,47,35,16,057,41,,,,*5E
###2023-12-09 13:34:18.024610$GNVTG,52.94,T,,M,3.17,N,5.87,K,A*16
###2023-12-09 13:34:18.026214$GNGST,183417.10,5.200,,,,0.092,0.068,0.160*6B
###2023-12-09 13:34:18.027513$GNZDA,183417.10,09,12,2023,00,00*78
###2023-12-09 13:34:18.028150$GNEBP,,,,,,M*13
###2023-12-09 13:34:18.197413$GNGGA,183417.30,4138.0505278,N,07032.4061347,W,1,26,0.6,13.311,M,-29.745,M,0.0,*50
###2023-12-09 13:34:18.394958$GNGGA,183417.50,4138.0506855,N,07032.4060727,W,1,26,0.6,13.358,M,-29.745,M,0.0,*5E
###2023-12-09 13:34:18.596913$GNGGA,183417.70,4138.0508428,N,07032.4059899,W,1,25,0.6,13.336,M,-29.745,M,0.0,*5F
###2023-12-09 13:34:18.795890$GNGGA,183417.90,4138.0509480,N,07032.4058138,W,1,26,0.6,13.338,M,-29.745,M,0.0,*5C
###2023-12-09 13:34:18.998985$GNRMC,183418.10,A,4138.0510429,N,07032.4056410,W,2.74,44.66,091223,,,A*6F
###2023-12-09 13:34:19.001845$GNGGA,183418.10,4138.0510429,N,07032.4056410,W,1,26,0.6,13.337,M,-29.745,M,0.0,*5E
###2023-12-09 13:34:19.003714$GPGSA,A,3,03,04,16,26,27,28,29,31,,,,,1.0,0.6,0.8*3F
###2023-12-09 13:34:19.005430$GLGSA,A,3,65,71,72,73,74,75,,,,,,,1.0,0.6,0.8*24
###2023-12-09 13:34:19.007041$GAGSA,A,3,04,19,21,27,,,,,,,,,1.0,0.6,0.8*26
###2023-12-09 13:34:19.008828$GBGSA,A,3,12,14,24,25,26,33,35,,,,,,1.0,0.6,0.8*2A
###2023-12-09 13:34:19.011167$GPGSV,2,1,08,03,27,247,41,04,46,308,44,16,66,222,46,26,84,040,47*75
###2023-12-09 13:34:19.013492$GPGSV,2,2,08,27,16,172,41,28,38,084,42,29,21,047,39,31,59,066,45*77
###2023-12-09 13:34:19.015827$GLGSV,2,1,06,65,38,319,43,71,23,175,41,72,63,222,45,73,23,052,41*61
###2023-12-09 13:34:19.017568$GLGSV,2,2,06,74,60,013,41,75,43,271,45,,,,,,,,*61
###2023-12-09 13:34:19.019898$GAGSV,1,1,04,04,40,310,43,19,72,181,41,21,77,046,45,27,22,050,38*62
###2023-12-09 13:34:19.022226$GBGSV,2,1,07,12,15,126,42,14,29,190,42,24,63,045,47,25,50,275,46*6A
###2023-12-09 13:34:19.024265$GBGSV,2,2,07,26,16,070,43,33,46,217,46,35,16,057,42,,,,*5E
###2023-12-09 13:34:19.025556$GNVTG,44.66,T,,M,2.74,N,5.08,K,A*1F
###2023-12-09 13:34:19.027175$GNGST,183418.10,5.500,,,,0.092,0.068,0.160*63
###2023-12-09 13:34:19.028458$GNZDA,183418.10,09,12,2023,00,00*77
###2023-12-09 13:34:19.029096$GNEBP,,,,,,M*13
###2023-12-09 13:34:19.195265$GNGGA,183418.30,4138.0511795,N,07032.4055350,W,1,26,0.6,13.350,M,-29.745,M,0.0,*58
###2023-12-09 13:34:19.394367$GNGGA,183418.50,4138.0513273,N,07032.4054343,W,1,25,0.6,13.320,M,-29.745,M,0.0,*56
###2023-12-09 13:34:19.594352$GNGGA,183418.70,4138.0514341,N,07032.4052723,W,1,26,0.6,13.298,M,-29.745,M,0.0,*56
###2023-12-09 13:34:19.795157$GNGGA,183418.90,4138.0515199,N,07032.4051041,W,1,26,0.6,13.315,M,-29.745,M,0.0,*5A
###2023-12-09 13:34:19.997844$GNRMC,183419.10,A,4138.0516435,N,07032.4049691,W,3.03,37.04,091223,,,A*61
###2023-12-09 13:34:20.000727$GNGGA,183419.10,4138.0516435,N,07032.4049691,W,1,26,0.6,13.330,M,-29.745,M,0.0,*56
###2023-12-09 13:34:20.002605$GPGSA,A,3,03,04,16,26,27,28,29,31,,,,,1.0,0.6,0.8*3F
###2023-12-09 13:34:20.004327$GLGSA,A,3,65,71,72,73,74,75,,,,,,,1.0,0.6,0.8*24
###2023-12-09 13:34:20.005912$GAGSA,A,3,04,19,21,27,,,,,,,,,1.0,0.6,0.8*26
###2023-12-09 13:34:20.007705$GBGSA,A,3,12,14,24,25,26,33,35,,,,,,1.0,0.6,0.8*2A
###2023-12-09 13:34:20.010039$GPGSV,2,1,08,03,27,247,41,04,46,308,44,16,66,222,47,26,84,040,47*74
###2023-12-09 13:34:20.012384$GPGSV,2,2,08,27,16,172,41,28,38,084,42,29,21,047,39,31,59,066,46*74
###2023-12-09 13:34:20.014727$GLGSV,2,1,06,65,38,319,43,71,23,175,39,72,63,222,47,73,23,052,40*6D
###2023-12-09 13:34:20.016471$GLGSV,2,2,06,74,60,013,41,75,43,271,45,,,,,,,,*61
###2023-12-09 13:34:20.018809$GAGSV,1,1,04,04,40,310,44,19,72,181,41,21,77,046,45,27,22,050,38*65
###2023-12-09 13:34:20.021380$GBGSV,2,1,07,12,15,126,42,14,29,190,41,24,63,045,47,25,50,275,47*68
###2023-12-09 13:34:20.023476$GBGSV,2,2,07,26,16,070,43,33,46,217,47,35,16,057,42,,,,*5F
###2023-12-09 13:34:20.024779$GNVTG,37.04,T,,M,3.03,N,5.62,K,A*12
###2023-12-09 13:34:20.026395$GNGST,183419.10,5.400,,,,0.092,0.068,0.160*63
###2023-12-09 13:34:20.027705$GNZDA,183419.10,09,12,2023,00,00*76
###2023-12-09 13:34:20.028346$GNEBP,,,,,,M*13
###2023-12-09 13:34:20.196230$GNGGA,183419.30,4138.0517746,N,07032.4048413,W,1,26,0.6,13.298,M,-29.745,M,0.0,*58
###2023-12-09 13:34:20.394364$GNGGA,183419.50,4138.0518866,N,07032.4047051,W,1,26,0.6,13.285,M,-29.745,M,0.0,*5D
###2023-12-09 13:34:20.594518$GNGGA,183419.70,4138.0519895,N,07032.4045498,W,1,26,0.6,13.295,M,-29.745,M,0.0,*50
###2023-12-09 13:34:20.796353$GNGGA,183419.90,4138.0521046,N,07032.4043984,W,1,26,0.6,13.299,M,-29.745,M,0.0,*59
