###2023-12-09 12:37:35.947254$GBGSA,A,3,14,24,25,26,33,,,,,,,,1.2,0.7,1.0*25
###2023-12-09 12:37:35.949611$GPGSV,2,1,08,03,38,276,43,04,22,311,43,16,37,207,41,26,67,207,46*7F
###2023-12-09 12:37:35.951972$GPGSV,2,2,08,28,57,057,43,29,25,073,40,31,73,004,46,32,29,134,44*7C
###2023-12-09 12:37:35.954304$GLGSV,2,1,05,71,55,169,46,72,67,307,47,73,46,034,47,74,71,296,44*60
###2023-12-09 12:37:35.955769$GLGSV,2,2,05,75,23,242,40,,,,,,,,,,,,*53
###2023-12-09 12:37:35.958086$GAGSV,1,1,04,04,21,311,42,19,82,299,41,21,78,175,45,27,41,049,44*68
###2023-12-09 12:37:35.960418$GBGSV,2,1,05,14,54,197,45,24,80,351,48,25,33,253,43,26,34,058,45*69
###2023-12-09 12:37:35.961873$GBGSV,2,2,05,33,63,252,48,,,,,,,,,,,,*52
###2023-12-09 12:37:35.963216$GNVTG,279.35,T,,M,0.60,N,1.12,K,A*2D
###2023-12-09 12:37:35.964860$GNGST,173735.10,18.000,,,,0.081,0.070,0.170*53
###2023-12-09 12:37:35.966143$GNZDA,173735.10,09,12,2023,00,00*74
###2023-12-09 12:37:35.966793$GNEBP,,,,,,M*13
###2023-12-09 12:37:36.136665$GNGGA,173735.30,4138.0627485,N,07032.3811851,W,1,23,0.7,13.319,M,-29.744,M,0.0,*52
###2023-12-09 12:37:36.336939$GNGGA,173735.50,4138.0627398,N,07032.3812105,W,1,23,0.7,13.332,M,-29.744,M,0.0,*5D
###2023-12-09 12:37:36.537602$GNGGA,173735.70,4138.0627449,N,07032.3812762,W,1,23,0.7,13.355,M,-29.744,M,0.0,*52
###2023-12-09 12:37:36.736458$GNGGA,173735.90,4138.0627491,N,07032.3813387,W,1,23,0.7,13.351,M,-29.744,M,0.0,*53
###2023-12-09 12:37:36.937120$GNRMC,173736.10,A,4138.0627441,N,07032.3813587,W,0.21,280.13,091223,,,A*5D
###2023-12-09 12:37:36.939983$GNGGA,173736.10,4138.0627441,N,07032.3813587,W,1,23,0.7,13.339,M,-29.744,M,0.0,*5D
###2023-12-09 12:37:36.941844$GPGSA,A,3,03,04,16,26,28,29,31,32,,,,,1.2,0.7,1.0*31
###2023-12-09 12:37:36.943511$GLGSA,A,3,71,72,73,74,75,,,,,,,,1.2,0.7,1.0*2D
###2023-12-09 12:37:36.945100$GAGSA,A,3,04,19,21,27,,,,,,,,,1.2,0.7,1.0*2C
###2023-12-09 12:37:36.946797$GBGSA,A,3,14,24,25,26,33,,,,,,,,1.2,0.7,1.0*25
###2023-12-09 12:37:36.949184$GPGSV,2,1,08,03,38,276,44,04,22,311,42,16,37,207,43,26,67,207,45*78
###2023-12-09 12:37:36.951563$GPGSV,2,2,08,28,57,057,43,29,25,073,41,31,73,004,47,32,29,134,44*7C
###2023-12-09 12:37:36.953904$GLGSV,2,1,05,71,55,169,46,72,67,307,47,73,46,034,46,74,71,296,43*66
###2023-12-09 12:37:36.955380$GLGSV,2,2,05,75,23,242,40,,,,,,,,,,,,*53
###2023-12-09 12:37:36.957711$GAGSV,1,1,04,04,21,311,42,19,82,299,41,21,78,175,46,27,41,049,45*6A
###2023-12-09 12:37:36.960060$GBGSV,2,1,05,14,54,197,44,24,80,351,48,25,33,253,44,26,34,058,45*6F
###2023-12-09 12:37:36.961517$GBGSV,2,2,05,33,63,252,47,,,,,,,,,,,,*5D
###2023-12-09 12:37:36.962859$GNVTG,280.13,T,,M,0.21,N,0.40,K,A*2C
###2023-12-09 12:37:36.964512$GNGST,173736.10,19.000,,,,0.081,0.071,0.170*50
###2023-12-09 12:37:36.965806$GNZDA,173736.10,09,12,2023,00,00*77
###2023-12-09 12:37:36.966488$GNEBP,,,,,,M*13
###2023-12-09 12:37:37.136650$GNGGA,173736.30,4138.0627329,N,07032.3813784,W,1,23,0.7,13.354,M,-29.744,M,0.0,*5C
###2023-12-09 12:37:37.337913$GNGGA,173736.50,4138.0627331,N,07032.3814356,W,1,23,0.7,13.382,M,-29.744,M,0.0,*54
###2023-12-09 12:37:37.538334$GNGGA,173736.70,4138.0627396,N,07032.3815019,W,1,23,0.7,13.392,M,-29.744,M,0.0,*53
###2023-12-09 12:37:37.736464$GNGGA,173736.90,4138.0627404,N,07032.3815397,W,1,23,0.7,13.392,M,-29.744,M,0.0,*54
###2023-12-09 12:37:37.938077$GNRMC,173737.10,A,4138.0627314,N,07032.3815540,W,0.25,276.74,091223,,,A*5A
###2023-12-09 12:37:37.940959$GNGGA,173737.10,4138.0627314,N,07032.3815540,W,1,23,0.7,13.387,M,-29.744,M,0.0,*53
###2023-12-09 12:37:37.942826$GPGSA,A,3,03,04,16,26,28,29,31,32,,,,,1.2,0.7,1.0*31
###2023-12-09 12:37:37.944477$GLGSA,A,3,71,72,73,74,75,,,,,,,,1.2,0.7,1.0*2D
###2023-12-09 12:37:37.946054$GAGSA,A,3,04,19,21,27,,,,,,,,,1.2,0.7,1.0*2C
###2023-12-09 12:37:37.947739$GBGSA,A,3,14,24,25,26,33,,,,,,,,1.2,0.7,1.0*25
###2023-12-09 12:37:37.950080$GPGSV,2,1,08,03,38,275,42,04,22,311,42,16,37,207,43,26,67,207,46*7E
###2023-12-09 12:37:37.952419$GPGSV,2,2,08,28,57,057,45,29,25,073,41,31,73,004,47,32,29,134,44*7A
###2023-12-09 12:37:37.954763$GLGSV,2,1,05,71,55,169,47,72,67,307,47,73,46,034,46,74,71,296,43*67
###2023-12-09 12:37:37.956220$GLGSV,2,2,05,75,23,242,40,,,,,,,,,,,,*53
###2023-12-09 12:37:37.958539$GAGSV,1,1,04,04,21,311,40,19,82,299,40,21,78,175,44,27,41,049,44*6A
###2023-12-09 12:37:37.960884$GBGSV,2,1,05,14,54,197,43,24,80,351,48,25,33,253,44,26,34,058,43*6E
###2023-12-09 12:37:37.962335$GBGSV,2,2,05,33,63,252,47,,,,,,,,,,,,*5D
###2023-12-09 12:37:37.963668$GNVTG,276.74,T,,M,0.25,N,0.47,K,A*27
###2023-12-09 12:37:37.965307$GNGST,173737.10,18.000,,,,0.081,0.071,0.170*50
###2023-12-09 12:37:37.966604$GNZDA,173737.10,09,12,2023,00,00*76
###2023-12-09 12:37:37.967242$GNEBP,,,,,,M*13
###2023-12-09 12:37:38.137518$GNGGA,173737.30,4138.0627249,N,07032.3815801,W,1,23,0.7,13.387,M,-29.744,M,0.0,*50
###2023-12-09 12:37:38.336870$GNGGA,173737.50,4138.0627290,N,07032.3816381,W,1,23,0.7,13.398,M,-29.744,M,0.0,*5C
###2023-12-09 12:37:38.537263$GNGGA,173737.70,4138.0627326,N,07032.3817001,W,1,23,0.7,13.417,M,-29.744,M,0.0,*58
###2023-12-09 12:37:38.735472$GNGGA,173737.90,4138.0627306,N,07032.3817380,W,1,23,0.7,13.429,M,-29.744,M,0.0,*53
###2023-12-09 12:37:38.937794$GNRMC,173738.10,A,4138.0627256,N,07032.3817565,W,0.23,276.74,091223,,,A*51
###2023-12-09 12:37:38.940689$GNGGA,173738.10,4138.0627256,N,07032.3817565,W,1,23,0.7,13.437,M,-29.744,M,0.0,*52
###2023-12-09 12:37:38.942548$GPGSA,A,3,03,04,16,26,28,29,31,32,,,,,1.2,0.7,1.0*31
###2023-12-09 12:37:38.944214$GLGSA,A,3,71,72,73,74,75,,,,,,,,1.2,0.7,1.0*2D
###2023-12-09 12:37:38.945797$GAGSA,A,3,04,19,21,27,,,,,,,,,1.2,0.7,1.0*2C
###2023-12-09 12:37:38.947471$GBGSA,A,3,14,24,25,26,33,,,,,,,,1.2,0.7,1.0*25
###2023-12-09 12:37:38.949818$GPGSV,2,1,08,03,38,275,44,04,23,311,41,16,37,207,43,26,67,207,46*7A
###2023-12-09 12:37:38.952160$GPGSV,2,2,08,28,57,057,45,29,25,073,42,31,73,004,47,32,29,134,44*79
###2023-12-09 12:37:38.954490$GLGSV,2,1,05,71,55,169,47,72,67,307,47,73,46,034,46,74,71,296,43*67
###2023-12-09 12:37:38.955960$GLGSV,2,2,05,75,23,242,40,,,,,,,,,,,,*53
###2023-12-09 12:37:38.958285$GAGSV,1,1,04,04,21,311,41,19,82,299,41,21,78,175,45,27,41,049,43*6C
###2023-12-09 12:37:38.960623$GBGSV,2,1,05,14,54,197,44,24,80,351,48,25,33,253,45,26,34,058,43*68
###2023-12-09 12:37:38.962072$GBGSV,2,2,05,33,63,252,47,,,,,,,,,,,,*5D
###2023-12-09 12:37:38.963400$GNVTG,276.74,T,,M,0.23,N,0.43,K,A*25
###2023-12-09 12:37:38.965038$GNGST,173738.10,19.000,,,,0.081,0.071,0.170*5E
###2023-12-09 12:37:38.966329$GNZDA,173738.10,09,12,2023,00,00*79
###2023-12-09 12:37:38.966983$GNEBP,,,,,,M*13
###2023-12-09 12:37:39.137840$GNGGA,173738.30,4138.0627242,N,07032.3817806,W,1,23,0.7,13.423,M,-29.744,M,0.0,*58
###2023-12-09 12:37:39.337862$GNGGA,173738.50,4138.0627253,N,07032.3818271,W,1,23,0.7,13.421,M,-29.744,M,0.0,*59
###2023-12-09 12:37:39.538229$GNGGA,173738.70,4138.0627292,N,07032.3818925,W,1,23,0.7,13.439,M,-29.744,M,0.0,*55
###2023-12-09 12:37:39.737353$GNGGA,173738.90,4138.0627308,N,07032.3819458,W,1,23,0.7,13.449,M,-29.744,M,0.0,*58
###2023-12-09 12:37:39.935775$GNRMC,173739.10,A,4138.0627258,N,07032.3819620,W,0.12,276.74,091223,,,A*50
###2023-12-09 12:37:39.938621$GNGGA,173739.10,4138.0627258,N,07032.3819620,W,1,23,0.7,13.445,M,-29.744,M,0.0,*54
###2023-12-09 12:37:39.940476$GPGSA,A,3,03,04,16,26,28,29,31,32,,,,,1.2,0.7,1.0*31
###2023-12-09 12:37:39.942117$GLGSA,A,3,71,72,73,74,75,,,,,,,,1.2,0.7,1.0*2D
###2023-12-09 12:37:39.943749$GAGSA,A,3,04,19,21,27,,,,,,,,,1.2,0.7,1.0*2C
###2023-12-09 12:37:39.945398$GBGSA,A,3,14,24,25,26,33,,,,,,,,1.2,0.7,1.0*25
###2023-12-09 12:37:39.947741$GPGSV,2,1,08,03,38,275,45,04,23,311,41,16,37,207,43,26,67,207,46*7B
###2023-12-09 12:37:39.950080$GPGSV,2,2,08,28,57,057,44,29,25,073,40,31,73,004,47,32,29,134,42*7C
###2023-12-09 12:37:39.952426$GLGSV,2,1,05,71,55,169,46,72,67,307,47,73,46,034,46,74,71,296,43*66
###2023-12-09 12:37:39.953884$GLGSV,2,2,05,75,23,242,40,,,,,,,,,,,,*53
###2023-12-09 12:37:39.956216$GAGSV,1,1,04,04,21,311,41,19,82,299,41,21,78,175,45,27,41,049,43*6C
###2023-12-09 12:37:39.958542$GBGSV,2,1,05,14,54,197,44,24,80,351,48,25,33,253,44,26,34,058,42*68
###2023-12-09 12:37:39.960288$GBGSV,2,2,05,33,63,252,47,,,,,,,,,,,,*5D
###2023-12-09 12:37:39.961630$GNVTG,276.74,T,,M,0.12,N,0.22,K,A*20
###2023-12-09 12:37:39.963302$GNGST,173739.10,19.000,,,,0.082,0.071,0.170*5C
###2023-12-09 12:37:39.964597$GNZDA,173739.10,09,12,2023,00,00*78
###2023-12-09 12:37:39.965237$GNEBP,,,,,,M*13
###2023-12-09 12:37:40.135923$GNGGA,173739.30,4138.0627209,N,07032.3819633,W,1,23,0.7,13.426,M,-29.744,M,0.0,*55
###2023-12-09 12:37:40.337350$GNGGA,173739.50,4138.0627230,N,07032.3820111,W,1,23,0.7,13.430,M,-29.744,M,0.0,*53
###2023-12-09 12:37:40.535261$GNGGA,173739.70,4138.0627275,N,07032.3820937,W,1,23,0.7,13.446,M,-29.744,M,0.0,*5D
###2023-12-09 12:37:40.736033$GNGGA,173739.90,4138.0627282,N,07032.3821463,W,1,23,0.7,13.444,M,-29.744,M,0.0,*54
