###2023-12-09 13:16:43.375285$GNGGA,181642.50,4138.0905207,N,07032.2817746,W,1,24,0.7,13.174,M,-29.741,M,0.0,*5E
###2023-12-09 13:16:43.577204$GNGGA,181642.70,4138.0905050,N,07032.2820152,W,1,24,0.7,13.184,M,-29.741,M,0.0,*54
###2023-12-09 13:16:43.775053$GNGGA,181642.90,4138.0904661,N,07032.2822409,W,1,24,0.7,13.175,M,-29.741,M,0.0,*58
###2023-12-09 13:16:43.979388$GNRMC,181643.10,A,4138.0904007,N,07032.2824406,W,2.84,244.21,091223,,,A*52
###2023-12-09 13:16:43.982255$GNGGA,181643.10,4138.0904007,N,07032.2824406,W,1,24,0.7,13.171,M,-29.741,M,0.0,*5A
###2023-12-09 13:16:43.984063$GPGSA,A,3,03,04,16,26,28,29,31,,,,,,1.2,0.7,1.0*30
###2023-12-09 13:16:43.985782$GLGSA,A,3,65,71,72,73,74,75,,,,,,,1.2,0.7,1.0*2E
###2023-12-09 13:16:43.987436$GAGSA,A,3,04,19,21,27,,,,,,,,,1.2,0.7,1.0*2C
###2023-12-09 13:16:43.989157$GBGSA,A,3,14,24,25,26,33,35,,,,,,,1.2,0.7,1.0*23
###2023-12-09 13:16:43.991500$GPGSV,2,1,07,03,32,254,43,04,38,311,45,16,57,216,46,26,87,208,49*78
###2023-12-09 13:16:43.993539$GPGSV,2,2,07,28,44,077,46,29,24,054,43,31,65,052,48,,,,*47
###2023-12-09 13:16:43.995883$GLGSV,2,1,06,65,31,324,42,71,32,174,44,72,71,243,45,73,30,046,44*65
###2023-12-09 13:16:43.997637$GLGSV,2,2,06,74,66,355,43,75,37,260,45,,,,,,,,*67
###2023-12-09 13:16:43.999973$GAGSV,1,1,04,04,34,312,42,19,79,190,40,21,83,062,46,27,28,049,42*69
###2023-12-09 13:16:44.002301$GBGSV,2,1,06,14,36,191,43,24,68,036,49,25,45,268,44,26,21,066,43*6A
###2023-12-09 13:16:44.004064$GBGSV,2,2,06,33,52,224,45,35,16,063,45,,,,,,,,*6A
###2023-12-09 13:16:44.005390$GNVTG,244.21,T,,M,2.84,N,5.26,K,A*2D
###2023-12-09 13:16:44.007052$GNGST,181643.10,18.000,,,,0.096,0.071,0.170*59
###2023-12-09 13:16:44.008341$GNZDA,181643.10,09,12,2023,00,00*79
###2023-12-09 13:16:44.008982$GNEBP,,,,,,M*13
###2023-12-09 13:16:44.175073$GNGGA,181643.30,4138.0903338,N,07032.2826362,W,1,24,0.7,13.171,M,-29.741,M,0.0,*57
###2023-12-09 13:16:44.375120$GNGGA,181643.50,4138.0902762,N,07032.2828483,W,1,24,0.7,13.174,M,-29.741,M,0.0,*58
###2023-12-09 13:16:44.576639$GNGGA,181643.70,4138.0902021,N,07032.2830437,W,1,24,0.7,13.160,M,-29.741,M,0.0,*59
###2023-12-09 13:16:44.783935$GNGGA,181643.90,4138.0901170,N,07032.2832237,W,1,24,0.7,13.160,M,-29.741,M,0.0,*55
###2023-12-09 13:16:44.982081$GNRMC,181644.10,A,4138.0900317,N,07032.2834093,W,2.92,238.09,091223,,,A*5C
###2023-12-09 13:16:44.984966$GNGGA,181644.10,4138.0900317,N,07032.2834093,W,1,24,0.7,13.169,M,-29.741,M,0.0,*5B
###2023-12-09 13:16:44.986766$GPGSA,A,3,03,04,16,26,28,29,31,,,,,,1.2,0.7,1.0*30
###2023-12-09 13:16:44.988479$GLGSA,A,3,65,71,72,73,74,75,,,,,,,1.2,0.7,1.0*2E
###2023-12-09 13:16:44.990063$GAGSA,A,3,04,19,21,27,,,,,,,,,1.2,0.7,1.0*2C
###2023-12-09 13:16:44.991778$GBGSA,A,3,14,24,25,26,33,35,,,,,,,1.2,0.7,1.0*23
###2023-12-09 13:16:44.994103$GPGSV,2,1,07,03,32,254,41,04,38,311,45,16,57,216,46,26,87,208,49*7A
###2023-12-09 13:16:44.996164$GPGSV,2,2,07,28,44,077,46,29,24,054,44,31,65,052,47,,,,*4F
###2023-12-09 13:16:44.998491$GLGSV,2,1,06,65,31,324,43,71,32,174,43,72,70,240,45,73,30,046,45*60
###2023-12-09 13:16:45.000258$GLGSV,2,2,06,74,66,355,43,75,37,260,45,,,,,,,,*67
###2023-12-09 13:16:45.002602$GAGSV,1,1,04,04,34,312,42,19,79,190,41,21,83,062,47,27,28,049,42*69
###2023-12-09 13:16:45.004940$GBGSV,2,1,06,14,36,191,44,24,68,036,49,25,45,268,46,26,21,066,44*68
###2023-12-09 13:16:45.006695$GBGSV,2,2,06,33,52,224,46,35,16,063,45,,,,,,,,*69
###2023-12-09 13:16:45.008021$GNVTG,238.09,T,,M,2.92,N,5.40,K,A*2B
###2023-12-09 13:16:45.009663$GNGST,181644.10,18.000,,,,0.096,0.071,0.170*5E
###2023-12-09 13:16:45.010996$GNZDA,181644.10,09,12,2023,00,00*7E
###2023-12-09 13:16:45.011638$GNEBP,,,,,,M*13
###2023-12-09 13:16:45.177856$GNGGA,181644.30,4138.0899465,N,07032.2835878,W,1,24,0.7,13.175,M,-29.741,M,0.0,*5B
###2023-12-09 13:16:45.376047$GNGGA,181644.50,4138.0898533,N,07032.2837538,W,1,24,0.7,13.173,M,-29.741,M,0.0,*53
###2023-12-09 13:16:45.583391$GNGGA,181644.70,4138.0897443,N,07032.2839028,W,1,24,0.7,13.142,M,-29.742,M,0.0,*53
###2023-12-09 13:16:45.777869$GNGGA,181644.90,4138.0896334,N,07032.2840389,W,1,24,0.7,13.123,M,-29.742,M,0.0,*5A
###2023-12-09 13:16:45.980813$GNRMC,181645.10,A,4138.0895357,N,07032.2842082,W,3.09,239.25,091223,,,A*59
###2023-12-09 13:16:45.984337$GNGGA,181645.10,4138.0895357,N,07032.2842082,W,1,24,0.7,13.168,M,-29.742,M,0.0,*50
###2023-12-09 13:16:45.986519$GPGSA,A,3,03,04,16,26,28,29,31,,,,,,1.2,0.7,1.0*30
###2023-12-09 13:16:45.988622$GLGSA,A,3,65,71,72,73,74,75,,,,,,,1.2,0.7,1.0*2E
###2023-12-09 13:16:45.990550$GAGSA,A,3,04,19,21,27,,,,,,,,,1.2,0.7,1.0*2C
###2023-12-09 13:16:45.992635$GBGSA,A,3,14,24,25,26,33,35,,,,,,,1.2,0.7,1.0*23
###2023-12-09 13:16:45.995467$GPGSV,2,1,07,03,32,254,41,04,38,311,46,16,57,216,46,26,87,208,48*78
###2023-12-09 13:16:45.997928$GPGSV,2,2,07,28,44,077,44,29,24,054,44,31,65,052,48,,,,*42
###2023-12-09 13:16:46.000752$GLGSV,2,1,06,65,31,324,44,71,32,174,44,72,70,240,45,73,29,047,46*6A
###2023-12-09 13:16:46.002894$GLGSV,2,2,06,74,66,355,43,75,37,260,45,,,,,,,,*67
###2023-12-09 13:16:46.005702$GAGSV,1,1,04,04,34,312,43,19,79,190,40,21,83,062,46,27,28,049,43*69
###2023-12-09 13:16:46.008526$GBGSV,2,1,06,14,36,191,41,24,68,036,48,25,45,268,45,26,21,066,44*6F
###2023-12-09 13:16:46.010646$GBGSV,2,2,06,33,52,224,46,35,16,063,44,,,,,,,,*68
###2023-12-09 13:16:46.012237$GNVTG,239.25,T,,M,3.09,N,5.72,K,A*26
###2023-12-09 13:16:46.014253$GNGST,181645.10,18.000,,,,0.097,0.071,0.170*5E
###2023-12-09 13:16:46.015829$GNZDA,181645.10,09,12,2023,00,00*7F
###2023-12-09 13:16:46.016598$GNEBP,,,,,,M*13
###2023-12-09 13:16:46.176627$GNGGA,181645.30,4138.0894477,N,07032.2843963,W,1,24,0.7,13.204,M,-29.742,M,0.0,*58
###2023-12-09 13:16:46.377553$GNGGA,181645.50,4138.0893244,N,07032.2845204,W,1,24,0.7,13.181,M,-29.742,M,0.0,*5D
###2023-12-09 13:16:46.577813$GNGGA,181645.70,4138.0891833,N,07032.2845898,W,1,24,0.7,13.103,M,-29.742,M,0.0,*52
###2023-12-09 13:16:46.776353$GNGGA,181645.90,4138.0890694,N,07032.2847482,W,1,24,0.7,13.149,M,-29.742,M,0.0,*55
###2023-12-09 13:16:46.988423$GNRMC,181646.10,A,4138.0889785,N,07032.2849566,W,2.97,231.46,091223,,,A*53
###2023-12-09 13:16:46.991918$GNGGA,181646.10,4138.0889785,N,07032.2849566,W,1,24,0.7,13.190,M,-29.742,M,0.0,*56
###2023-12-09 13:16:46.994102$GPGSA,A,3,03,04,16,26,28,29,31,,,,,,1.2,0.7,1.0*30
###2023-12-09 13:16:46.996203$GLGSA,A,3,65,71,72,73,74,75,,,,,,,1.2,0.7,1.0*2E
###2023-12-09 13:16:46.998128$GAGSA,A,3,04,19,21,27,,,,,,,,,1.2,0.7,1.0*2C
###2023-12-09 13:16:47.000220$GBGSA,A,3,14,24,25,26,33,35,,,,,,,1.2,0.7,1.0*23
###2023-12-09 13:16:47.003061$GPGSV,2,1,07,03,32,254,43,04,38,311,48,16,57,216,45,26,87,208,48*77
###2023-12-09 13:16:47.005533$GPGSV,2,2,07,28,44,077,43,29,24,054,42,31,65,052,46,,,,*4D
###2023-12-09 13:16:47.008402$GLGSV,2,1,06,65,31,324,46,71,32,174,43,72,70,240,45,73,29,047,46*6F
###2023-12-09 13:16:47.010526$GLGSV,2,2,06,74,65,358,43,75,37,260,47,,,,,,,,*6B
###2023-12-09 13:16:47.013345$GAGSV,1,1,04,04,34,312,44,19,79,190,38,21,83,062,45,27,28,049,42*63
###2023-12-09 13:16:47.016188$GBGSV,2,1,06,14,36,191,41,24,68,036,48,25,45,268,47,26,21,066,42*6B
###2023-12-09 13:16:47.018299$GBGSV,2,2,06,33,52,224,46,35,16,063,42,,,,,,,,*6E
###2023-12-09 13:16:47.019926$GNVTG,231.46,T,,M,2.97,N,5.51,K,A*2C
###2023-12-09 13:16:47.021933$GNGST,181646.10,18.000,,,,0.097,0.071,0.170*5D
###2023-12-09 13:16:47.023512$GNZDA,181646.10,09,12,2023,00,00*7C
###2023-12-09 13:16:47.024283$GNEBP,,,,,,M*13
###2023-12-09 13:16:47.181828$GNGGA,181646.30,4138.0888435,N,07032.2850697,W,1,24,0.7,13.183,M,-29.742,M,0.0,*5A
###2023-12-09 13:16:47.378384$GNGGA,181646.50,4138.0886881,N,07032.2851054,W,1,24,0.7,13.128,M,-29.742,M,0.0,*58
###2023-12-09 13:16:47.579868$GNGGA,181646.70,4138.0885644,N,07032.2852307,W,1,24,0.7,13.144,M,-29.742,M,0.0,*52
###2023-12-09 13:16:47.778495$GNGGA,181646.90,4138.0884583,N,07032.2854459,W,1,24,0.7,13.184,M,-29.742,M,0.0,*53
###2023-12-09 13:16:47.985996$GNRMC,181647.10,A,4138.0883300,N,07032.2855649,W,2.59,197.73,091223,,,A*59
###2023-12-09 13:16:47.988898$GNGGA,181647.10,4138.0883300,N,07032.2855649,W,1,24,0.7,13.164,M,-29.742,M,0.0,*5C
###2023-12-09 13:16:47.990718$GPGSA,A,3,03,04,16,26,28,29,31,,,,,,1.2,0.7,1.0*30
###2023-12-09 13:16:47.992667$GLGSA,A,3,65,71,72,73,74,75,,,,,,,1.2,0.7,1.0*2E
###2023-12-09 13:16:47.994257$GAGSA,A,3,04,19,21,27,,,,,,,,,1.2,0.7,1.0*2C
###2023-12-09 13:16:47.995996$GBGSA,A,3,14,24,25,26,33,35,,,,,,,1.2,0.7,1.0*23
###2023-12-09 13:16:47.998336$GPGSV,2,1,07,03,32,254,43,04,38,311,47,16,57,216,46,26,87,208,47*74
###2023-12-09 13:16:48.000398$GPGSV,2,2,07,28,44,077,42,29,24,054,41,31,65,052,44,,,,*4D
###2023-12-09 13:16:48.002741$GLGSV,2,1,06,65,31,324,45,71,32,174,42,72,70,240,45,73,29,047,44*6F
###2023-12-09 13:16:48.004490$GLGSV,2,2,06,74,65,358,43,75,38,261,48,,,,,,,,*6A
###2023-12-09 13:16:48.006823$GAGSV,1,1,04,04,34,312,45,19,79,190,40,21,83,062,44,27,28,049,40*6E
###2023-12-09 13:16:48.009162$GBGSV,2,1,06,14,36,191,41,24,68,036,47,25,45,268,47,26,21,066,41*67
###2023-12-09 13:16:48.010924$GBGSV,2,2,06,33,52,224,46,35,16,063,40,,,,,,,,*6C
