###2023-12-09 12:31:43.956411$GNGST,173143.10,19.000,,,,0.090,0.075,0.180*5F
###2023-12-09 12:31:43.957736$GNZDA,173143.10,09,12,2023,00,00*73
###2023-12-09 12:31:43.958391$GNEBP,,,,,,M*13
###2023-12-09 12:31:44.127652$GNGGA,173143.30,4138.0409221,N,07032.4260629,W,1,22,0.7,13.703,M,-29.745,M,0.0,*56
###2023-12-09 12:31:44.327902$GNGGA,173143.50,4138.0409580,N,07032.4260882,W,1,20,0.7,13.699,M,-29.745,M,0.0,*53
###2023-12-09 12:31:44.528608$GNGGA,173143.70,4138.0409808,N,07032.4260663,W,1,21,0.7,13.701,M,-29.745,M,0.0,*5C
###2023-12-09 12:31:44.727776$GNGGA,173143.90,4138.0409994,N,07032.4260290,W,1,21,0.7,13.686,M,-29.745,M,0.0,*50
###2023-12-09 12:31:44.932646$GNRMC,173144.10,A,4138.0410315,N,07032.4260403,W,0.89,292.24,091223,,,A*5F
###2023-12-09 12:31:44.935529$GNGGA,173144.10,4138.0410315,N,07032.4260403,W,1,21,0.7,13.687,M,-29.745,M,0.0,*59
###2023-12-09 12:31:44.937420$GPGSA,A,3,03,04,16,26,28,29,31,32,,,,,1.2,0.7,1.0*31
###2023-12-09 12:31:44.939110$GLGSA,A,3,71,72,73,74,75,,,,,,,,1.2,0.7,1.0*2D
###2023-12-09 12:31:44.940717$GAGSA,A,3,04,19,21,27,,,,,,,,,1.2,0.7,1.0*2C
###2023-12-09 12:31:44.942253$GBGSA,A,3,14,26,33,,,,,,,,,,1.2,0.7,1.0*24
###2023-12-09 12:31:44.944615$GPGSV,2,1,08,03,39,279,45,04,20,310,42,16,35,207,44,26,65,206,48*7F
###2023-12-09 12:31:44.946999$GPGSV,2,2,08,28,59,054,43,29,25,075,43,31,73,356,46,32,31,133,46*7C
###2023-12-09 12:31:44.949395$GLGSV,2,1,05,71,59,168,49,72,64,313,45,73,50,032,46,74,70,284,43*63
###2023-12-09 12:31:44.950915$GLGSV,2,2,05,75,20,239,37,,,,,,,,,,,,*5C
###2023-12-09 12:31:44.953262$GAGSV,1,1,04,04,20,311,41,19,80,306,40,21,76,177,46,27,42,050,44*6A
###2023-12-09 12:31:44.955369$GBGSV,1,1,03,14,57,199,45,26,36,056,44,33,63,258,48,,,,*5B
###2023-12-09 12:31:44.956715$GNVTG,292.24,T,,M,0.89,N,1.66,K,A*2C
###2023-12-09 12:31:44.958383$GNGST,173144.10,19.000,,,,0.089,0.075,0.180*50
###2023-12-09 12:31:44.959707$GNZDA,173144.10,09,12,2023,00,00*74
###2023-12-09 12:31:44.960356$GNEBP,,,,,,M*13
###2023-12-09 12:31:45.129651$GNGGA,173144.30,4138.0410736,N,07032.4260849,W,1,22,0.7,13.683,M,-29.745,M,0.0,*5B
###2023-12-09 12:31:45.329751$GNGGA,173144.50,4138.0410988,N,07032.4260782,W,1,22,0.7,13.668,M,-29.745,M,0.0,*5B
###2023-12-09 12:31:45.528804$GNGGA,173144.70,4138.0411117,N,07032.4260315,W,1,22,0.7,13.656,M,-29.745,M,0.0,*51
###2023-12-09 12:31:45.728866$GNGGA,173144.90,4138.0411341,N,07032.4260189,W,1,23,0.7,13.654,M,-29.745,M,0.0,*5A
###2023-12-09 12:31:45.930991$GNRMC,173145.10,A,4138.0411749,N,07032.4260636,W,1.01,316.02,091223,,,A*5E
###2023-12-09 12:31:45.933919$GNGGA,173145.10,4138.0411749,N,07032.4260636,W,1,23,0.7,13.666,M,-29.745,M,0.0,*5D
###2023-12-09 12:31:45.935847$GPGSA,A,3,03,04,16,26,28,29,31,32,,,,,1.2,0.7,0.9*39
###2023-12-09 12:31:45.937548$GLGSA,A,3,71,72,73,74,75,,,,,,,,1.2,0.7,0.9*25
###2023-12-09 12:31:45.939188$GAGSA,A,3,04,19,21,27,,,,,,,,,1.2,0.7,0.9*24
###2023-12-09 12:31:45.940844$GBGSA,A,3,14,24,25,26,33,,,,,,,,1.2,0.7,0.9*2D
###2023-12-09 12:31:45.943180$GPGSV,2,1,08,03,39,279,45,04,20,310,42,16,35,207,43,26,65,206,46*76
###2023-12-09 12:31:45.945521$GPGSV,2,2,08,28,59,054,44,29,25,075,41,31,73,356,46,32,31,133,44*7B
###2023-12-09 12:31:45.947906$GLGSV,2,1,05,71,59,168,47,72,64,313,46,73,50,032,46,74,70,284,44*69
###2023-12-09 12:31:45.949446$GLGSV,2,2,05,75,20,239,38,,,,,,,,,,,,*53
###2023-12-09 12:31:45.951817$GAGSV,1,1,04,04,20,311,40,19,80,306,41,21,76,177,46,27,42,050,42*6C
###2023-12-09 12:31:45.954170$GBGSV,2,1,05,14,57,199,45,24,81,338,48,25,31,251,38,26,36,056,44*6B
###2023-12-09 12:31:45.955657$GBGSV,2,2,05,33,63,258,48,,,,,,,,,,,,*58
###2023-12-09 12:31:45.956992$GNVTG,316.02,T,,M,1.01,N,1.87,K,A*2B
###2023-12-09 12:31:45.958667$GNGST,173145.10,18.000,,,,0.088,0.075,0.180*51
###2023-12-09 12:31:45.959978$GNZDA,173145.10,09,12,2023,00,00*75
###2023-12-09 12:31:45.960623$GNEBP,,,,,,M*13
###2023-12-09 12:31:46.128724$GNGGA,173145.30,4138.0412098,N,07032.4260900,W,1,23,0.7,13.643,M,-29.745,M,0.0,*5A
###2023-12-09 12:31:46.329610$GNGGA,173145.50,4138.0412223,N,07032.4260503,W,1,23,0.7,13.634,M,-29.745,M,0.0,*51
###2023-12-09 12:31:46.528675$GNGGA,173145.70,4138.0412318,N,07032.4260128,W,1,23,0.7,13.615,M,-29.745,M,0.0,*54
###2023-12-09 12:31:46.727762$GNGGA,173145.90,4138.0412655,N,07032.4260352,W,1,23,0.7,13.615,M,-29.745,M,0.0,*59
###2023-12-09 12:31:46.934724$GNRMC,173146.10,A,4138.0413064,N,07032.4260804,W,0.58,320.35,091223,,,A*54
###2023-12-09 12:31:46.937678$GNGGA,173146.10,4138.0413064,N,07032.4260804,W,1,23,0.7,13.595,M,-29.745,M,0.0,*54
###2023-12-09 12:31:46.939610$GPGSA,A,3,03,04,16,26,28,29,31,32,,,,,1.2,0.7,0.9*39
###2023-12-09 12:31:46.941317$GLGSA,A,3,71,72,73,74,75,,,,,,,,1.2,0.7,0.9*25
###2023-12-09 12:31:46.942936$GAGSA,A,3,04,19,21,27,,,,,,,,,1.2,0.7,0.9*24
###2023-12-09 12:31:46.944601$GBGSA,A,3,14,24,25,26,33,,,,,,,,1.2,0.7,0.9*2D
###2023-12-09 12:31:46.946969$GPGSV,2,1,08,03,39,279,44,04,20,310,45,16,35,207,43,26,65,206,47*71
###2023-12-09 12:31:46.949339$GPGSV,2,2,08,28,59,054,43,29,25,075,37,31,73,356,46,32,31,133,44*7D
###2023-12-09 12:31:46.951697$GLGSV,2,1,05,71,59,168,48,72,64,313,48,73,50,032,46,74,70,284,43*6F
###2023-12-09 12:31:46.953169$GLGSV,2,2,05,75,20,239,38,,,,,,,,,,,,*53
###2023-12-09 12:31:46.955529$GAGSV,1,1,04,04,20,311,43,19,80,306,41,21,76,177,46,27,42,050,43*6E
###2023-12-09 12:31:46.957870$GBGSV,2,1,05,14,57,199,45,24,81,338,48,25,31,251,35,26,36,056,42*60
###2023-12-09 12:31:46.959349$GBGSV,2,2,05,33,63,258,48,,,,,,,,,,,,*58
###2023-12-09 12:31:46.960680$GNVTG,320.35,T,,M,0.58,N,1.08,K,A*20
###2023-12-09 12:31:46.962332$GNGST,173146.10,19.000,,,,0.087,0.075,0.180*5C
###2023-12-09 12:31:46.963643$GNZDA,173146.10,09,12,2023,00,00*76
###2023-12-09 12:31:46.964293$GNEBP,,,,,,M*13
###2023-12-09 12:31:47.131145$GNGGA,173146.30,4138.0413241,N,07032.4260699,W,1,23,0.7,13.594,M,-29.745,M,0.0,*58
###2023-12-09 12:31:47.329560$GNGGA,173146.50,4138.0413307,N,07032.4260326,W,1,22,0.7,13.599,M,-29.745,M,0.0,*50
###2023-12-09 12:31:47.530771$GNGGA,173146.70,4138.0413522,N,07032.4260242,W,1,22,0.7,13.586,M,-29.745,M,0.0,*5E
###2023-12-09 12:31:47.727753$GNGGA,173146.90,4138.0413873,N,07032.4260528,W,1,22,0.7,13.568,M,-29.745,M,0.0,*52
###2023-12-09 12:31:47.930328$GNRMC,173147.10,A,4138.0414181,N,07032.4260735,W,0.35,320.35,091223,,,A*5E
###2023-12-09 12:31:47.933353$GNGGA,173147.10,4138.0414181,N,07032.4260735,W,1,23,0.7,13.553,M,-29.745,M,0.0,*5F
###2023-12-09 12:31:47.935289$GPGSA,A,3,03,04,16,26,28,29,31,32,,,,,1.2,0.7,0.9*39
###2023-12-09 12:31:47.936961$GLGSA,A,3,71,72,73,74,75,,,,,,,,1.2,0.7,0.9*25
###2023-12-09 12:31:47.938553$GAGSA,A,3,04,19,21,27,,,,,,,,,1.2,0.7,0.9*24
###2023-12-09 12:31:47.940232$GBGSA,A,3,14,24,25,26,33,,,,,,,,1.2,0.7,0.9*2D
###2023-12-09 12:31:47.942592$GPGSV,2,1,08,03,39,279,46,04,20,310,44,16,35,207,43,26,65,206,47*72
###2023-12-09 12:31:47.944941$GPGSV,2,2,08,28,59,054,43,29,25,075,40,31,73,356,46,32,31,133,42*7B
###2023-12-09 12:31:47.947313$GLGSV,2,1,05,71,59,168,48,72,64,313,47,73,50,032,47,74,70,284,43*61
###2023-12-09 12:31:47.948795$GLGSV,2,2,05,75,20,239,38,,,,,,,,,,,,*53
###2023-12-09 12:31:47.951153$GAGSV,1,1,04,04,20,311,44,19,80,306,41,21,76,177,46,27,42,050,42*68
###2023-12-09 12:31:47.953487$GBGSV,2,1,05,14,57,199,44,24,81,338,49,25,31,251,35,26,36,056,45*67
###2023-12-09 12:31:47.954967$GBGSV,2,2,05,33,63,258,48,,,,,,,,,,,,*58
###2023-12-09 12:31:47.956302$GNVTG,320.35,T,,M,0.35,N,0.65,K,A*21
###2023-12-09 12:31:47.957963$GNGST,173147.10,19.000,,,,0.086,0.075,0.180*5C
###2023-12-09 12:31:47.959284$GNZDA,173147.10,09,12,2023,00,00*77
###2023-12-09 12:31:47.959935$GNEBP,,,,,,M*13
###2023-12-09 12:31:48.129655$GNGGA,173147.30,4138.0414311,N,07032.4260527,W,1,22,0.7,13.561,M,-29.745,M,0.0,*57
###2023-12-09 12:31:48.329667$GNGGA,173147.50,4138.0414412,N,07032.4260254,W,1,22,0.7,13.572,M,-29.745,M,0.0,*54
###2023-12-09 12:31:48.530117$GNGGA,173147.70,4138.0414669,N,07032.4260299,W,1,22,0.7,13.562,M,-29.745,M,0.0,*58
###2023-12-09 12:31:48.728785$GNGGA,173147.90,4138.0415005,N,07032.4260552,W,1,22,0.7,13.540,M,-29.745,M,0.0,*5B
###2023-12-09 12:31:48.931670$GNRMC,173148.10,A,4138.0415238,N,07032.4260618,W,0.33,320.35,091223,,,A*59
###2023-12-09 12:31:48.935054$GNGGA,173148.10,4138.0415238,N,07032.4260618,W,1,22,0.7,13.524,M,-29.745,M,0.0,*5F
###2023-12-09 12:31:48.937143$GPGSA,A,3,03,04,16,26,28,29,31,32,,,,,1.2,0.7,1.0*31
###2023-12-09 12:31:48.939016$GLGSA,A,3,71,72,73,74,75,,,,,,,,1.2,0.7,1.0*2D
###2023-12-09 12:31:48.940731$GAGSA,A,3,04,19,21,27,,,,,,,,,1.2,0.7,1.0*2C
###2023-12-09 12:31:48.942429$GBGSA,A,3,14,24,26,33,,,,,,,,,1.2,0.7,1.0*22
###2023-12-09 12:31:48.944881$GPGSV,2,1,08,03,39,279,44,04,20,310,43,16,35,207,44,26,65,206,47*70
###2023-12-09 12:31:48.947360$GPGSV,2,2,08,28,59,054,44,29,25,075,39,31,73,356,48,32,31,133,44*7A
###2023-12-09 12:31:48.949853$GLGSV,2,1,05,71,59,168,47,72,64,313,47,73,50,032,46,74,70,284,43*6F
###2023-12-09 12:31:48.951448$GLGSV,2,2,05,75,20,239,37,,,,,,,,,,,,*5C
