###2023-12-09 12:45:22.546674$GNGGA,174521.70,4138.0502717,N,07032.3928162,W,1,24,0.6,13.399,M,-29.745,M,0.0,*57
###2023-12-09 12:45:22.747216$GNGGA,174521.90,4138.0501886,N,07032.3929862,W,1,24,0.6,13.379,M,-29.745,M,0.0,*5B
###2023-12-09 12:45:22.947563$GNRMC,174522.10,A,4138.0500928,N,07032.3931363,W,2.70,229.60,091223,,,A*55
###2023-12-09 12:45:22.950421$GNGGA,174522.10,4138.0500928,N,07032.3931363,W,1,24,0.6,13.379,M,-29.745,M,0.0,*57
###2023-12-09 12:45:22.952288$GPGSA,A,3,03,04,16,26,28,29,31,32,,,,,1.1,0.6,0.9*3B
###2023-12-09 12:45:22.954007$GLGSA,A,3,65,71,72,73,74,75,,,,,,,1.1,0.6,0.9*24
###2023-12-09 12:45:22.955609$GAGSA,A,3,04,19,21,27,,,,,,,,,1.1,0.6,0.9*26
###2023-12-09 12:45:22.957259$GBGSA,A,3,14,24,25,26,33,,,,,,,,1.1,0.6,0.9*2F
###2023-12-09 12:45:22.959610$GPGSV,2,1,08,03,37,270,43,04,25,311,41,16,41,209,42,26,71,208,47*76
###2023-12-09 12:45:22.961944$GPGSV,2,2,08,28,55,061,45,29,26,069,44,31,72,015,47,32,26,136,46*7E
###2023-12-09 12:45:22.964291$GLGSV,2,1,06,65,17,329,40,71,50,171,47,72,70,297,45,73,43,037,46*64
###2023-12-09 12:45:22.966040$GLGSV,2,2,06,74,71,310,43,75,26,245,40,,,,,,,,*62
###2023-12-09 12:45:22.968388$GAGSV,1,1,04,04,24,312,41,19,84,283,40,21,82,167,45,27,38,049,44*69
###2023-12-09 12:45:22.970735$GBGSV,2,1,05,14,50,195,46,24,78,005,49,25,36,256,43,26,31,059,45*6C
###2023-12-09 12:45:22.972197$GBGSV,2,2,05,33,61,245,47,,,,,,,,,,,,*59
###2023-12-09 12:45:22.973533$GNVTG,229.60,T,,M,2.70,N,5.00,K,A*2C
###2023-12-09 12:45:22.975201$GNGST,174522.10,18.000,,,,0.079,0.070,0.160*56
###2023-12-09 12:45:22.976497$GNZDA,174522.10,09,12,2023,00,00*77
###2023-12-09 12:45:22.977136$GNEBP,,,,,,M*13
###2023-12-09 12:45:23.145028$GNGGA,174522.30,4138.0500060,N,07032.3933038,W,1,24,0.6,13.398,M,-29.745,M,0.0,*50
###2023-12-09 12:45:23.346934$GNGGA,174522.50,4138.0499167,N,07032.3934733,W,1,24,0.6,13.403,M,-29.745,M,0.0,*5F
###2023-12-09 12:45:23.546069$GNGGA,174522.70,4138.0498083,N,07032.3936080,W,1,24,0.6,13.392,M,-29.745,M,0.0,*55
###2023-12-09 12:45:23.747927$GNGGA,174522.90,4138.0496893,N,07032.3937134,W,1,24,0.6,13.380,M,-29.745,M,0.0,*50
###2023-12-09 12:45:23.945823$GNRMC,174523.10,A,4138.0495747,N,07032.3938403,W,2.86,223.13,091223,,,A*51
###2023-12-09 12:45:23.948719$GNGGA,174523.10,4138.0495747,N,07032.3938403,W,1,24,0.6,13.396,M,-29.745,M,0.0,*55
###2023-12-09 12:45:23.950607$GPGSA,A,3,03,04,16,26,28,29,31,32,,,,,1.1,0.6,0.9*3B
###2023-12-09 12:45:23.952339$GLGSA,A,3,65,71,72,73,74,75,,,,,,,1.1,0.6,0.9*24
###2023-12-09 12:45:23.953926$GAGSA,A,3,04,19,21,27,,,,,,,,,1.1,0.6,0.9*26
###2023-12-09 12:45:23.955636$GBGSA,A,3,14,24,25,26,33,,,,,,,,1.1,0.6,0.9*2F
###2023-12-09 12:45:23.957982$GPGSV,2,1,08,03,37,270,44,04,26,311,41,16,41,209,42,26,71,208,47*72
###2023-12-09 12:45:23.960342$GPGSV,2,2,08,28,55,061,46,29,26,069,43,31,72,015,48,32,26,136,46*75
###2023-12-09 12:45:23.962709$GLGSV,2,1,06,65,17,329,40,71,50,171,46,72,70,297,46,73,43,037,46*66
###2023-12-09 12:45:23.964466$GLGSV,2,2,06,74,71,310,42,75,26,245,37,,,,,,,,*63
###2023-12-09 12:45:23.966805$GAGSV,1,1,04,04,24,312,40,19,84,283,40,21,82,167,46,27,38,049,42*6D
###2023-12-09 12:45:23.969130$GBGSV,2,1,05,14,50,195,46,24,78,005,49,25,36,256,44,26,31,059,44*6A
###2023-12-09 12:45:23.970596$GBGSV,2,2,05,33,61,245,47,,,,,,,,,,,,*59
###2023-12-09 12:45:23.971920$GNVTG,223.13,T,,M,2.86,N,5.29,K,A*20
###2023-12-09 12:45:23.973563$GNGST,174523.10,19.000,,,,0.079,0.069,0.160*5E
###2023-12-09 12:45:23.974863$GNZDA,174523.10,09,12,2023,00,00*76
###2023-12-09 12:45:23.975501$GNEBP,,,,,,M*13
###2023-12-09 12:45:24.147012$GNGGA,174523.30,4138.0494636,N,07032.3939971,W,1,24,0.6,13.416,M,-29.745,M,0.0,*57
###2023-12-09 12:45:24.346831$GNGGA,174523.50,4138.0493429,N,07032.3941355,W,1,24,0.6,13.426,M,-29.745,M,0.0,*5A
###2023-12-09 12:45:24.546093$GNGGA,174523.70,4138.0492039,N,07032.3942170,W,1,24,0.6,13.405,M,-29.745,M,0.0,*5B
###2023-12-09 12:45:24.745398$GNGGA,174523.90,4138.0490667,N,07032.3942721,W,1,24,0.6,13.388,M,-29.745,M,0.0,*5A
###2023-12-09 12:45:24.945824$GNRMC,174524.10,A,4138.0489357,N,07032.3943835,W,3.01,218.86,091223,,,A*51
###2023-12-09 12:45:24.948723$GNGGA,174524.10,4138.0489357,N,07032.3943835,W,1,24,0.6,13.423,M,-29.745,M,0.0,*56
###2023-12-09 12:45:24.950614$GPGSA,A,3,03,04,16,26,28,29,31,32,,,,,1.1,0.6,0.9*3B
###2023-12-09 12:45:24.952333$GLGSA,A,3,65,71,72,73,74,75,,,,,,,1.1,0.6,0.9*24
###2023-12-09 12:45:24.953916$GAGSA,A,3,04,19,21,27,,,,,,,,,1.1,0.6,0.9*26
###2023-12-09 12:45:24.955581$GBGSA,A,3,14,24,25,26,33,,,,,,,,1.1,0.6,0.9*2F
###2023-12-09 12:45:24.957908$GPGSV,2,1,08,03,37,270,44,04,26,311,40,16,41,209,43,26,71,208,47*72
###2023-12-09 12:45:24.960243$GPGSV,2,2,08,28,55,061,47,29,26,069,44,31,72,015,48,32,26,136,46*73
###2023-12-09 12:45:24.962588$GLGSV,2,1,06,65,17,329,38,71,50,171,46,72,70,297,46,73,43,037,47*68
###2023-12-09 12:45:24.964332$GLGSV,2,2,06,74,71,310,42,75,26,245,40,,,,,,,,*63
###2023-12-09 12:45:24.966669$GAGSV,1,1,04,04,24,312,38,19,84,283,40,21,82,167,45,27,38,049,43*60
###2023-12-09 12:45:24.968994$GBGSV,2,1,05,14,50,195,43,24,78,005,48,25,36,256,44,26,31,059,45*6F
###2023-12-09 12:45:24.970442$GBGSV,2,2,05,33,61,245,47,,,,,,,,,,,,*59
###2023-12-09 12:45:24.971770$GNVTG,218.86,T,,M,3.01,N,5.58,K,A*2C
###2023-12-09 12:45:24.973414$GNGST,174524.10,19.000,,,,0.079,0.070,0.160*51
###2023-12-09 12:45:24.974714$GNZDA,174524.10,09,12,2023,00,00*71
###2023-12-09 12:45:24.975353$GNEBP,,,,,,M*13
###2023-12-09 12:45:25.145484$GNGGA,174524.30,4138.0487922,N,07032.3945059,W,1,24,0.6,13.426,M,-29.745,M,0.0,*53
###2023-12-09 12:45:25.346089$GNGGA,174524.50,4138.0486451,N,07032.3945399,W,1,24,0.6,13.398,M,-29.745,M,0.0,*50
###2023-12-09 12:45:25.546904$GNGGA,174524.70,4138.0485073,N,07032.3945685,W,1,24,0.6,13.424,M,-29.745,M,0.0,*5D
###2023-12-09 12:45:25.745402$GNGGA,174524.90,4138.0483623,N,07032.3946683,W,1,24,0.6,13.469,M,-29.745,M,0.0,*5A
###2023-12-09 12:45:25.946583$GNRMC,174525.10,A,4138.0482060,N,07032.3947393,W,2.80,184.82,091223,,,A*55
###2023-12-09 12:45:25.949476$GNGGA,174525.10,4138.0482060,N,07032.3947393,W,1,24,0.6,13.432,M,-29.745,M,0.0,*58
###2023-12-09 12:45:25.951355$GPGSA,A,3,03,04,16,26,28,29,31,32,,,,,1.1,0.6,0.9*3B
###2023-12-09 12:45:25.953067$GLGSA,A,3,65,71,72,73,74,75,,,,,,,1.1,0.6,0.9*24
###2023-12-09 12:45:25.954662$GAGSA,A,3,04,19,21,27,,,,,,,,,1.1,0.6,0.9*26
###2023-12-09 12:45:25.956309$GBGSA,A,3,14,24,25,26,33,,,,,,,,1.1,0.6,0.9*2F
###2023-12-09 12:45:25.958653$GPGSV,2,1,08,03,37,270,45,04,26,311,41,16,41,209,45,26,71,208,48*7B
###2023-12-09 12:45:25.960984$GPGSV,2,2,08,28,55,061,45,29,26,069,41,31,72,015,47,32,26,136,43*7E
###2023-12-09 12:45:25.963329$GLGSV,2,1,06,65,17,329,42,71,50,171,46,72,70,297,45,73,43,037,46*67
###2023-12-09 12:45:25.965081$GLGSV,2,2,06,74,71,310,42,75,26,245,43,,,,,,,,*60
###2023-12-09 12:45:25.967422$GAGSV,1,1,04,04,24,312,40,19,84,283,40,21,82,167,45,27,38,049,43*6F
###2023-12-09 12:45:25.969744$GBGSV,2,1,05,14,50,195,45,24,78,005,48,25,36,256,46,26,31,059,43*6D
###2023-12-09 12:45:25.971209$GBGSV,2,2,05,33,61,245,48,,,,,,,,,,,,*56
###2023-12-09 12:45:25.972530$GNVTG,184.82,T,,M,2.80,N,5.18,K,A*22
###2023-12-09 12:45:25.974175$GNGST,174525.10,18.000,,,,0.079,0.069,0.160*59
###2023-12-09 12:45:25.975474$GNZDA,174525.10,09,12,2023,00,00*70
###2023-12-09 12:45:25.976108$GNEBP,,,,,,M*13
###2023-12-09 12:45:26.146649$GNGGA,174525.30,4138.0480612,N,07032.3947326,W,1,24,0.6,13.394,M,-29.745,M,0.0,*5E
###2023-12-09 12:45:26.347180$GNGGA,174525.50,4138.0479160,N,07032.3947544,W,1,24,0.6,13.431,M,-29.745,M,0.0,*56
###2023-12-09 12:45:26.545449$GNGGA,174525.70,4138.0477528,N,07032.3948231,W,1,24,0.6,13.464,M,-29.745,M,0.0,*58
###2023-12-09 12:45:26.745286$GNGGA,174525.90,4138.0475893,N,07032.3948386,W,1,24,0.6,13.432,M,-29.745,M,0.0,*57
###2023-12-09 12:45:26.946508$GNRMC,174526.10,A,4138.0474545,N,07032.3947981,W,2.51,164.77,091223,,,A*5C
###2023-12-09 12:45:26.949439$GNGGA,174526.10,4138.0474545,N,07032.3947981,W,1,24,0.6,13.414,M,-29.745,M,0.0,*5D
###2023-12-09 12:45:26.951340$GPGSA,A,3,03,04,16,26,28,29,31,32,,,,,1.1,0.6,0.9*3B
###2023-12-09 12:45:26.953051$GLGSA,A,3,65,71,72,73,74,75,,,,,,,1.1,0.6,0.9*24
###2023-12-09 12:45:26.954902$GAGSA,A,3,04,19,21,27,,,,,,,,,1.1,0.6,0.9*26
###2023-12-09 12:45:26.956567$GBGSA,A,3,14,24,25,26,33,,,,,,,,1.1,0.6,0.9*2F
###2023-12-09 12:45:26.958926$GPGSV,2,1,08,03,37,270,45,04,26,311,41,16,41,209,44,26,71,208,47*75
###2023-12-09 12:45:26.961271$GPGSV,2,2,08,28,55,061,45,29,26,069,46,31,72,015,48,32,26,136,42*77
###2023-12-09 12:45:26.963622$GLGSV,2,1,06,65,17,329,43,71,50,171,46,72,70,297,46,73,43,037,46*65
###2023-12-09 12:45:26.965364$GLGSV,2,2,06,74,71,310,42,75,26,245,44,,,,,,,,*67
###2023-12-09 12:45:26.967696$GAGSV,1,1,04,04,24,312,41,19,84,283,40,21,82,167,45,27,38,049,44*69
###2023-12-09 12:45:26.970027$GBGSV,2,1,05,14,50,195,44,24,78,005,48,25,36,256,45,26,31,059,45*69
###2023-12-09 12:45:26.971496$GBGSV,2,2,05,33,61,245,48,,,,,,,,,,,,*56
###2023-12-09 12:45:26.972818$GNVTG,164.77,T,,M,2.51,N,4.64,K,A*20
