###2023-12-09 12:48:04.146094$GNGGA,174803.30,4138.0534740,N,07032.4009585,W,1,24,0.6,13.476,M,-29.745,M,0.0,*5F
###2023-12-09 12:48:04.346753$GNGGA,174803.50,4138.0534921,N,07032.4009825,W,1,24,0.6,13.472,M,-29.745,M,0.0,*53
###2023-12-09 12:48:04.549603$GNGGA,174803.70,4138.0535215,N,07032.4010190,W,1,24,0.6,13.495,M,-29.745,M,0.0,*5A
###2023-12-09 12:48:04.749638$GNGGA,174803.90,4138.0535529,N,07032.4010533,W,1,24,0.6,13.506,M,-29.745,M,0.0,*5A
###2023-12-09 12:48:04.946681$GNRMC,174804.10,A,4138.0535653,N,07032.4010606,W,0.10,321.46,091223,,,A*5B
###2023-12-09 12:48:04.949563$GNGGA,174804.10,4138.0535653,N,07032.4010606,W,1,24,0.6,13.507,M,-29.745,M,0.0,*5F
###2023-12-09 12:48:04.951446$GPGSA,A,3,03,04,16,26,28,29,31,32,,,,,1.1,0.6,0.9*3B
###2023-12-09 12:48:04.953177$GLGSA,A,3,65,71,72,73,74,75,,,,,,,1.1,0.6,0.9*24
###2023-12-09 12:48:04.954785$GAGSA,A,3,04,19,21,27,,,,,,,,,1.1,0.6,0.9*26
###2023-12-09 12:48:04.956441$GBGSA,A,3,14,24,25,26,33,,,,,,,,1.1,0.6,0.9*2F
###2023-12-09 12:48:04.958793$GPGSV,2,1,08,03,37,269,44,04,27,311,43,16,43,209,46,26,73,208,48*72
###2023-12-09 12:48:04.961135$GPGSV,2,2,08,28,53,064,43,29,26,067,40,31,71,021,46,32,24,137,43*72
###2023-12-09 12:48:04.963497$GLGSV,2,1,06,65,17,329,44,71,49,171,47,72,70,294,47,73,42,037,44*6A
###2023-12-09 12:48:04.965258$GLGSV,2,2,06,74,71,314,43,75,27,246,46,,,,,,,,*62
###2023-12-09 12:48:04.967611$GAGSV,1,1,04,04,25,312,43,19,84,276,41,21,82,165,46,27,38,049,43*67
###2023-12-09 12:48:04.969950$GBGSV,2,1,05,14,50,195,44,24,78,008,48,25,36,257,45,26,31,060,44*6E
###2023-12-09 12:48:04.971420$GBGSV,2,2,05,33,61,243,48,,,,,,,,,,,,*50
###2023-12-09 12:48:04.972750$GNVTG,321.46,T,,M,0.10,N,0.18,K,A*29
###2023-12-09 12:48:04.974401$GNGST,174804.10,18.000,,,,0.076,0.068,0.160*59
###2023-12-09 12:48:04.975711$GNZDA,174804.10,09,12,2023,00,00*7E
###2023-12-09 12:48:04.976354$GNEBP,,,,,,M*13
###2023-12-09 12:48:05.146207$GNGGA,174804.30,4138.0535671,N,07032.4010606,W,1,24,0.6,13.485,M,-29.745,M,0.0,*56
###2023-12-09 12:48:05.346865$GNGGA,174804.50,4138.0535913,N,07032.4010866,W,1,24,0.6,13.482,M,-29.745,M,0.0,*54
###2023-12-09 12:48:05.547001$GNGGA,174804.70,4138.0536321,N,07032.4011403,W,1,24,0.6,13.488,M,-29.745,M,0.0,*5A
###2023-12-09 12:48:05.746624$GNGGA,174804.90,4138.0536543,N,07032.4011660,W,1,24,0.6,13.495,M,-29.745,M,0.0,*5D
###2023-12-09 12:48:05.951475$GNRMC,174805.10,A,4138.0536570,N,07032.4011592,W,0.14,317.27,091223,,,A*52
###2023-12-09 12:48:05.954360$GNGGA,174805.10,4138.0536570,N,07032.4011592,W,1,24,0.6,13.519,M,-29.745,M,0.0,*5F
###2023-12-09 12:48:05.956250$GPGSA,A,3,03,04,16,26,28,29,31,32,,,,,1.1,0.6,0.9*3B
###2023-12-09 12:48:05.957975$GLGSA,A,3,65,71,72,73,74,75,,,,,,,1.1,0.6,0.9*24
###2023-12-09 12:48:05.959580$GAGSA,A,3,04,19,21,27,,,,,,,,,1.1,0.6,0.9*26
###2023-12-09 12:48:05.961231$GBGSA,A,3,14,24,25,26,33,,,,,,,,1.1,0.6,0.9*2F
###2023-12-09 12:48:05.963581$GPGSV,2,1,08,03,37,269,43,04,27,311,43,16,43,209,45,26,73,208,48*76
###2023-12-09 12:48:05.965926$GPGSV,2,2,08,28,53,064,44,29,26,067,40,31,71,021,46,32,24,137,43*75
###2023-12-09 12:48:05.968270$GLGSV,2,1,06,65,17,329,44,71,49,171,47,72,70,294,47,73,42,037,44*6A
###2023-12-09 12:48:05.970024$GLGSV,2,2,06,74,71,314,43,75,27,246,46,,,,,,,,*62
###2023-12-09 12:48:05.972363$GAGSV,1,1,04,04,25,312,41,19,84,276,40,21,82,165,46,27,38,049,42*65
###2023-12-09 12:48:05.974700$GBGSV,2,1,05,14,50,195,44,24,78,008,48,25,36,257,45,26,31,060,43*69
###2023-12-09 12:48:05.976159$GBGSV,2,2,05,33,61,243,48,,,,,,,,,,,,*50
###2023-12-09 12:48:05.977480$GNVTG,317.27,T,,M,0.14,N,0.25,K,A*21
###2023-12-09 12:48:05.979137$GNGST,174805.10,18.000,,,,0.076,0.069,0.160*59
###2023-12-09 12:48:05.980429$GNZDA,174805.10,09,12,2023,00,00*7F
###2023-12-09 12:48:05.981067$GNEBP,,,,,,M*13
###2023-12-09 12:48:06.146287$GNGGA,174805.30,4138.0536639,N,07032.4011612,W,1,24,0.6,13.503,M,-29.745,M,0.0,*53
###2023-12-09 12:48:06.347131$GNGGA,174805.50,4138.0536918,N,07032.4011947,W,1,24,0.6,13.491,M,-29.745,M,0.0,*5C
###2023-12-09 12:48:06.547099$GNGGA,174805.70,4138.0537296,N,07032.4012434,W,1,24,0.6,13.487,M,-29.745,M,0.0,*5F
###2023-12-09 12:48:06.746925$GNGGA,174805.90,4138.0537467,N,07032.4012648,W,1,24,0.6,13.496,M,-29.745,M,0.0,*50
###2023-12-09 12:48:06.945415$GNRMC,174806.10,A,4138.0537512,N,07032.4012617,W,0.08,315.67,091223,,,A*52
###2023-12-09 12:48:06.948289$GNGGA,174806.10,4138.0537512,N,07032.4012617,W,1,24,0.6,13.524,M,-29.745,M,0.0,*5A
###2023-12-09 12:48:06.950159$GPGSA,A,3,03,04,16,26,28,29,31,32,,,,,1.1,0.6,0.9*3B
###2023-12-09 12:48:06.951893$GLGSA,A,3,65,71,72,73,74,75,,,,,,,1.1,0.6,0.9*24
###2023-12-09 12:48:06.953479$GAGSA,A,3,04,19,21,27,,,,,,,,,1.1,0.6,0.9*26
###2023-12-09 12:48:06.955140$GBGSA,A,3,14,24,25,26,33,,,,,,,,1.1,0.6,0.9*2F
###2023-12-09 12:48:06.957477$GPGSV,2,1,08,03,37,269,45,04,27,311,43,16,43,209,45,26,73,208,48*70
###2023-12-09 12:48:06.959824$GPGSV,2,2,08,28,53,064,44,29,26,067,39,31,71,021,46,32,24,137,42*7A
###2023-12-09 12:48:06.962165$GLGSV,2,1,06,65,17,329,44,71,49,171,48,72,70,294,46,73,42,037,44*64
###2023-12-09 12:48:06.963932$GLGSV,2,2,06,74,71,314,43,75,27,246,47,,,,,,,,*63
###2023-12-09 12:48:06.966265$GAGSV,1,1,04,04,25,312,42,19,84,276,40,21,82,165,46,27,38,049,42*66
###2023-12-09 12:48:06.968609$GBGSV,2,1,05,14,50,195,44,24,78,008,48,25,36,257,45,26,31,060,43*69
###2023-12-09 12:48:06.970062$GBGSV,2,2,05,33,61,243,48,,,,,,,,,,,,*50
###2023-12-09 12:48:06.971399$GNVTG,315.67,T,,M,0.08,N,0.14,K,A*28
###2023-12-09 12:48:06.973045$GNGST,174806.10,18.000,,,,0.077,0.069,0.160*5B
###2023-12-09 12:48:06.974339$GNZDA,174806.10,09,12,2023,00,00*7C
###2023-12-09 12:48:06.974989$GNEBP,,,,,,M*13
###2023-12-09 12:48:07.145921$GNGGA,174806.30,4138.0537633,N,07032.4012733,W,1,24,0.6,13.521,M,-29.745,M,0.0,*5A
###2023-12-09 12:48:07.346794$GNGGA,174806.50,4138.0537888,N,07032.4013048,W,1,24,0.6,13.511,M,-29.745,M,0.0,*5B
###2023-12-09 12:48:07.547917$GNGGA,174806.70,4138.0538187,N,07032.4013427,W,1,24,0.6,13.498,M,-29.745,M,0.0,*5D
###2023-12-09 12:48:07.747605$GNGGA,174806.90,4138.0538386,N,07032.4013678,W,1,24,0.6,13.508,M,-29.745,M,0.0,*50
###2023-12-09 12:48:07.947213$GNRMC,174807.10,A,4138.0538504,N,07032.4013791,W,0.25,315.67,091223,,,A*5A
###2023-12-09 12:48:07.950056$GNGGA,174807.10,4138.0538504,N,07032.4013791,W,1,24,0.6,13.535,M,-29.745,M,0.0,*5D
###2023-12-09 12:48:07.951932$GPGSA,A,3,03,04,16,26,28,29,31,32,,,,,1.1,0.6,0.9*3B
###2023-12-09 12:48:07.953646$GLGSA,A,3,65,71,72,73,74,75,,,,,,,1.1,0.6,0.9*24
###2023-12-09 12:48:07.955243$GAGSA,A,3,04,19,21,27,,,,,,,,,1.1,0.6,0.9*26
###2023-12-09 12:48:07.956886$GBGSA,A,3,14,24,25,26,33,,,,,,,,1.1,0.6,0.9*2F
###2023-12-09 12:48:07.959218$GPGSV,2,1,08,03,37,269,45,04,27,311,43,16,43,209,45,26,73,208,48*70
###2023-12-09 12:48:07.961558$GPGSV,2,2,08,28,53,064,43,29,26,067,39,31,71,021,46,32,24,137,42*7D
###2023-12-09 12:48:07.963913$GLGSV,2,1,06,65,17,329,45,71,49,171,47,72,70,294,47,73,42,037,44*6B
###2023-12-09 12:48:07.965664$GLGSV,2,2,06,74,71,314,43,75,27,246,47,,,,,,,,*63
###2023-12-09 12:48:07.968005$GAGSV,1,1,04,04,25,312,43,19,84,276,40,21,82,165,46,27,38,049,42*67
###2023-12-09 12:48:07.970342$GBGSV,2,1,05,14,50,195,45,24,78,008,49,25,36,257,45,26,31,060,44*6E
###2023-12-09 12:48:07.971816$GBGSV,2,2,05,33,61,243,48,,,,,,,,,,,,*50
###2023-12-09 12:48:07.973146$GNVTG,315.67,T,,M,0.25,N,0.47,K,A*21
###2023-12-09 12:48:07.974808$GNGST,174807.10,18.000,,,,0.076,0.069,0.160*5B
###2023-12-09 12:48:07.976102$GNZDA,174807.10,09,12,2023,00,00*7D
###2023-12-09 12:48:07.976741$GNEBP,,,,,,M*13
###2023-12-09 12:48:08.147230$GNGGA,174807.30,4138.0538678,N,07032.4013933,W,1,24,0.6,13.544,M,-29.745,M,0.0,*57
###2023-12-09 12:48:08.346580$GNGGA,174807.50,4138.0538890,N,07032.4014131,W,1,24,0.6,13.528,M,-29.745,M,0.0,*5E
###2023-12-09 12:48:08.547927$GNGGA,174807.70,4138.0539080,N,07032.4014377,W,1,24,0.6,13.514,M,-29.745,M,0.0,*5B
###2023-12-09 12:48:08.747685$GNGGA,174807.90,4138.0539317,N,07032.4014710,W,1,24,0.6,13.523,M,-29.745,M,0.0,*59
###2023-12-09 12:48:08.954997$GNRMC,174808.10,A,4138.0539578,N,07032.4014996,W,0.47,315.67,091223,,,A*55
###2023-12-09 12:48:08.957876$GNGGA,174808.10,4138.0539578,N,07032.4014996,W,1,24,0.6,13.538,M,-29.745,M,0.0,*5B
###2023-12-09 12:48:08.960015$GPGSA,A,3,03,04,16,26,28,29,31,32,,,,,1.1,0.6,0.9*3B
###2023-12-09 12:48:08.961739$GLGSA,A,3,65,71,72,73,74,75,,,,,,,1.1,0.6,0.9*24
###2023-12-09 12:48:08.963341$GAGSA,A,3,04,19,21,27,,,,,,,,,1.1,0.6,0.9*26
###2023-12-09 12:48:08.964986$GBGSA,A,3,14,24,25,26,33,,,,,,,,1.1,0.6,0.9*2F
###2023-12-09 12:48:08.967312$GPGSV,2,1,08,03,37,269,44,04,27,311,44,16,43,209,45,26,73,208,48*76
###2023-12-09 12:48:08.969647$GPGSV,2,2,08,28,53,064,44,29,26,067,40,31,71,021,47,32,24,137,40*77
###2023-12-09 12:48:08.971982$GLGSV,2,1,06,65,17,329,45,71,49,171,47,72,70,294,47,73,42,037,43*6C
###2023-12-09 12:48:08.973734$GLGSV,2,2,06,74,71,314,43,75,27,246,46,,,,,,,,*62
###2023-12-09 12:48:08.976079$GAGSV,1,1,04,04,25,312,43,19,84,276,41,21,82,165,46,27,38,049,42*66
###2023-12-09 12:48:08.978409$GBGSV,2,1,05,14,50,195,44,24,78,008,48,25,36,257,46,26,31,060,43*6A
