###2023-12-09 13:31:05.021293$GNEBP,,,,,,M*13
###2023-12-09 13:31:05.191477$GNGGA,183104.30,4138.0327638,N,07032.4103993,W,1,20,0.9,13.248,M,-29.745,M,0.0,*53
###2023-12-09 13:31:05.388401$GNGGA,183104.50,4138.0328358,N,07032.4102847,W,1,21,0.9,13.233,M,-29.745,M,0.0,*5D
###2023-12-09 13:31:05.589221$GNGGA,183104.70,4138.0329145,N,07032.4101801,W,1,23,0.6,13.241,M,-29.745,M,0.0,*59
###2023-12-09 13:31:05.788850$GNGGA,183104.90,4138.0330120,N,07032.4100766,W,1,22,0.7,13.257,M,-29.745,M,0.0,*54
###2023-12-09 13:31:05.989922$GNRMC,183105.10,A,4138.0331160,N,07032.4099707,W,2.25,31.67,091223,,,A*6A
###2023-12-09 13:31:05.992828$GNGGA,183105.10,4138.0331160,N,07032.4099707,W,1,22,0.7,13.265,M,-29.745,M,0.0,*5F
###2023-12-09 13:31:05.994638$GPGSA,A,3,03,04,16,26,28,29,31,,,,,,1.2,0.7,1.0*30
###2023-12-09 13:31:05.996355$GLGSA,A,3,65,71,72,73,74,75,,,,,,,1.2,0.7,1.0*2E
###2023-12-09 13:31:05.997943$GAGSA,A,3,04,19,21,27,,,,,,,,,1.2,0.7,1.0*2C
###2023-12-09 13:31:05.999614$GBGSA,A,3,24,25,26,33,35,,,,,,,,1.2,0.7,1.0*26
###2023-12-09 13:31:06.001956$GPGSV,2,1,07,03,27,247,39,04,45,308,44,16,64,220,47,26,86,041,49*7A
###2023-12-09 13:31:06.004017$GPGSV,2,2,07,28,39,083,44,29,21,049,40,31,61,063,45,,,,*45
###2023-12-09 13:31:06.006360$GLGSV,2,1,06,65,37,320,43,71,24,175,36,72,64,223,46,73,23,051,41*65
###2023-12-09 13:31:06.008124$GLGSV,2,2,06,74,61,011,41,75,42,269,47,,,,,,,,*68
###2023-12-09 13:31:06.010462$GAGSV,1,1,04,04,39,310,42,19,73,182,41,21,78,047,45,27,23,050,39*61
###2023-12-09 13:31:06.012814$GBGSV,2,1,05,24,64,044,47,25,50,275,47,26,17,070,43,33,47,218,48*6D
###2023-12-09 13:31:06.014273$GBGSV,2,2,05,35,16,058,43,,,,,,,,,,,,*55
###2023-12-09 13:31:06.015579$GNVTG,31.67,T,,M,2.25,N,4.18,K,A*18
###2023-12-09 13:31:06.017200$GNGST,183105.10,5.400,,,,0.140,0.080,0.220*64
###2023-12-09 13:31:06.018498$GNZDA,183105.10,09,12,2023,00,00*7E
###2023-12-09 13:31:06.019152$GNEBP,,,,,,M*13
###2023-12-09 13:31:06.189364$GNGGA,183105.30,4138.0332237,N,07032.4098924,W,1,22,0.7,13.265,M,-29.745,M,0.0,*51
###2023-12-09 13:31:06.387244$GNGGA,183105.50,4138.0333402,N,07032.4098024,W,1,21,0.7,13.258,M,-29.745,M,0.0,*52
###2023-12-09 13:31:06.588621$GNGGA,183105.70,4138.0334611,N,07032.4097294,W,1,23,0.6,13.255,M,-29.745,M,0.0,*5F
###2023-12-09 13:31:06.789663$GNGGA,183105.90,4138.0335876,N,07032.4096663,W,1,23,0.6,13.267,M,-29.745,M,0.0,*53
###2023-12-09 13:31:06.990860$GNRMC,183106.10,A,4138.0337173,N,07032.4096143,W,2.43,13.01,091223,,,A*64
###2023-12-09 13:31:06.993733$GNGGA,183106.10,4138.0337173,N,07032.4096143,W,1,23,0.7,13.285,M,-29.745,M,0.0,*5E
###2023-12-09 13:31:06.995543$GPGSA,A,3,03,04,16,26,28,29,31,,,,,,1.1,0.7,0.9*3B
###2023-12-09 13:31:06.997264$GLGSA,A,3,65,71,72,73,74,75,,,,,,,1.1,0.7,0.9*25
###2023-12-09 13:31:06.998863$GAGSA,A,3,04,19,21,27,,,,,,,,,1.1,0.7,0.9*27
###2023-12-09 13:31:07.000580$GBGSA,A,3,14,24,25,26,33,35,,,,,,,1.1,0.7,0.9*28
###2023-12-09 13:31:07.002924$GPGSV,2,1,07,03,27,247,41,04,45,308,44,16,64,220,46,26,86,041,47*7A
###2023-12-09 13:31:07.004962$GPGSV,2,2,07,28,39,083,43,29,21,049,38,31,61,063,45,,,,*4D
###2023-12-09 13:31:07.007307$GLGSV,2,1,06,65,37,320,42,71,24,175,37,72,64,223,47,73,23,051,39*6B
###2023-12-09 13:31:07.009058$GLGSV,2,2,06,74,61,011,41,75,42,269,47,,,,,,,,*68
###2023-12-09 13:31:07.011398$GAGSV,1,1,04,04,39,310,43,19,73,182,41,21,78,047,45,27,23,050,38*61
###2023-12-09 13:31:07.013722$GBGSV,2,1,06,14,30,190,39,24,64,044,47,25,50,275,48,26,17,070,42*60
###2023-12-09 13:31:07.015475$GBGSV,2,2,06,33,47,218,47,35,16,058,42,,,,,,,,*6C
###2023-12-09 13:31:07.016764$GNVTG,13.01,T,,M,2.43,N,4.50,K,A*14
###2023-12-09 13:31:07.018410$GNGST,183106.10,10.000,,,,0.140,0.080,0.220*57
###2023-12-09 13:31:07.019710$GNZDA,183106.10,09,12,2023,00,00*7D
###2023-12-09 13:31:07.020351$GNEBP,,,,,,M*13
###2023-12-09 13:31:07.192907$GNGGA,183106.30,4138.0338475,N,07032.4095629,W,1,23,0.7,13.284,M,-29.745,M,0.0,*59
###2023-12-09 13:31:07.389357$GNGGA,183106.50,4138.0339827,N,07032.4095065,W,1,23,0.7,13.253,M,-29.745,M,0.0,*51
###2023-12-09 13:31:07.589749$GNGGA,183106.70,4138.0341104,N,07032.4094933,W,1,23,0.7,13.259,M,-29.745,M,0.0,*55
###2023-12-09 13:31:07.794326$GNGGA,183106.90,4138.0342453,N,07032.4094817,W,1,23,0.7,13.276,M,-29.745,M,0.0,*55
###2023-12-09 13:31:07.991941$GNRMC,183107.10,A,4138.0343809,N,07032.4094630,W,2.41,1.97,091223,,,A*5D
###2023-12-09 13:31:07.994827$GNGGA,183107.10,4138.0343809,N,07032.4094630,W,1,24,0.6,13.269,M,-29.745,M,0.0,*5D
###2023-12-09 13:31:07.996617$GPGSA,A,3,03,04,16,26,28,29,31,,,,,,1.1,0.6,0.9*3A
###2023-12-09 13:31:07.998327$GLGSA,A,3,65,71,72,73,74,75,,,,,,,1.1,0.6,0.9*24
###2023-12-09 13:31:07.999921$GAGSA,A,3,04,19,21,27,,,,,,,,,1.1,0.6,0.9*26
###2023-12-09 13:31:08.001628$GBGSA,A,3,14,24,25,26,33,35,,,,,,,1.1,0.6,0.9*29
###2023-12-09 13:31:08.003969$GPGSV,2,1,07,03,27,247,43,04,45,308,44,16,64,220,46,26,86,041,47*78
###2023-12-09 13:31:08.006000$GPGSV,2,2,07,28,39,083,44,29,21,049,40,31,61,063,46,,,,*46
###2023-12-09 13:31:08.008338$GLGSV,2,1,06,65,37,320,42,71,24,175,40,72,64,223,46,73,23,051,42*66
###2023-12-09 13:31:08.010092$GLGSV,2,2,06,74,61,011,41,75,42,269,47,,,,,,,,*68
###2023-12-09 13:31:08.012435$GAGSV,1,1,04,04,39,310,43,19,73,182,41,21,78,047,45,27,23,050,40*6E
###2023-12-09 13:31:08.014769$GBGSV,2,1,06,14,30,190,39,24,64,044,47,25,50,275,46,26,17,070,41*6D
###2023-12-09 13:31:08.016512$GBGSV,2,2,06,33,47,218,47,35,16,058,41,,,,,,,,*6F
###2023-12-09 13:31:08.017764$GNVTG,1.97,T,,M,2.41,N,4.46,K,A*2D
###2023-12-09 13:31:08.019420$GNGST,183107.10,5.700,,,,0.140,0.080,0.220*65
###2023-12-09 13:31:08.020714$GNZDA,183107.10,09,12,2023,00,00*7C
###2023-12-09 13:31:08.021353$GNEBP,,,,,,M*13
###2023-12-09 13:31:08.189039$GNGGA,183107.30,4138.0345180,N,07032.4094610,W,1,24,0.6,13.255,M,-29.745,M,0.0,*5C
###2023-12-09 13:31:08.389803$GNGGA,183107.50,4138.0346511,N,07032.4094723,W,1,24,0.6,13.264,M,-29.745,M,0.0,*56
###2023-12-09 13:31:08.589368$GNGGA,183107.70,4138.0347795,N,07032.4094807,W,1,24,0.6,13.262,M,-29.745,M,0.0,*54
###2023-12-09 13:31:08.790495$GNGGA,183107.90,4138.0349043,N,07032.4095044,W,1,24,0.6,13.259,M,-29.745,M,0.0,*5E
###2023-12-09 13:31:08.996938$GNRMC,183108.10,A,4138.0350287,N,07032.4095362,W,2.31,349.99,091223,,,A*59
###2023-12-09 13:31:08.999807$GNGGA,183108.10,4138.0350287,N,07032.4095362,W,1,24,0.6,13.259,M,-29.745,M,0.0,*5C
###2023-12-09 13:31:09.001595$GPGSA,A,3,03,04,16,26,28,29,31,,,,,,1.1,0.6,0.9*3A
###2023-12-09 13:31:09.003320$GLGSA,A,3,65,71,72,73,74,75,,,,,,,1.1,0.6,0.9*24
###2023-12-09 13:31:09.004901$GAGSA,A,3,04,19,21,27,,,,,,,,,1.1,0.6,0.9*26
###2023-12-09 13:31:09.006617$GBGSA,A,3,14,24,25,26,33,35,,,,,,,1.1,0.6,0.9*29
###2023-12-09 13:31:09.008942$GPGSV,2,1,07,03,27,247,42,04,45,308,43,16,64,220,46,26,86,041,48*71
###2023-12-09 13:31:09.010982$GPGSV,2,2,07,28,39,083,45,29,21,049,42,31,61,063,47,,,,*44
###2023-12-09 13:31:09.013312$GLGSV,2,1,06,65,37,320,38,71,24,175,41,72,64,223,45,73,23,051,43*68
###2023-12-09 13:31:09.015074$GLGSV,2,2,06,74,61,011,41,75,42,269,47,,,,,,,,*68
###2023-12-09 13:31:09.017399$GAGSV,1,1,04,04,39,310,42,19,73,182,41,21,78,047,46,27,23,050,41*6D
###2023-12-09 13:31:09.019736$GBGSV,2,1,06,14,30,190,37,24,64,044,48,25,50,275,47,26,17,070,42*6E
###2023-12-09 13:31:09.021486$GBGSV,2,2,06,33,47,218,48,35,16,058,43,,,,,,,,*62
###2023-12-09 13:31:09.022821$GNVTG,349.99,T,,M,2.31,N,4.28,K,A*23
###2023-12-09 13:31:09.024433$GNGST,183108.10,6.000,,,,0.140,0.080,0.210*6D
###2023-12-09 13:31:09.025725$GNZDA,183108.10,09,12,2023,00,00*73
###2023-12-09 13:31:09.026363$GNEBP,,,,,,M*13
###2023-12-09 13:31:09.192628$GNGGA,183108.30,4138.0351513,N,07032.4095732,W,1,23,0.7,13.255,M,-29.745,M,0.0,*5E
###2023-12-09 13:31:09.391819$GNGGA,183108.50,4138.0352718,N,07032.4096234,W,1,23,0.7,13.258,M,-29.745,M,0.0,*5F
###2023-12-09 13:31:09.588920$GNGGA,183108.70,4138.0353868,N,07032.4096841,W,1,24,0.6,13.259,M,-29.745,M,0.0,*5B
###2023-12-09 13:31:09.791608$GNGGA,183108.90,4138.0355020,N,07032.4097530,W,1,24,0.6,13.251,M,-29.745,M,0.0,*55
###2023-12-09 13:31:09.991189$GNRMC,183109.10,A,4138.0356202,N,07032.4098261,W,2.33,336.16,091223,,,A*51
###2023-12-09 13:31:09.994286$GNGGA,183109.10,4138.0356202,N,07032.4098261,W,1,24,0.6,13.245,M,-29.745,M,0.0,*54
###2023-12-09 13:31:09.996102$GPGSA,A,3,03,04,16,26,28,29,31,,,,,,1.1,0.6,0.9*3A
###2023-12-09 13:31:09.997818$GLGSA,A,3,65,71,72,73,74,75,,,,,,,1.1,0.6,0.9*24
###2023-12-09 13:31:09.999407$GAGSA,A,3,04,19,21,27,,,,,,,,,1.1,0.6,0.9*26
###2023-12-09 13:31:10.001114$GBGSA,A,3,14,24,25,26,33,35,,,,,,,1.1,0.6,0.9*29
###2023-12-09 13:31:10.003483$GPGSV,2,1,07,03,27,247,41,04,45,308,43,16,64,220,45,26,86,041,47*7E
###2023-12-09 13:31:10.005530$GPGSV,2,2,07,28,39,083,43,29,21,049,42,31,61,063,47,,,,*42
###2023-12-09 13:31:10.007877$GLGSV,2,1,06,65,37,320,39,71,24,175,42,72,64,223,45,73,23,051,44*6D
###2023-12-09 13:31:10.009621$GLGSV,2,2,06,74,61,011,41,75,42,269,47,,,,,,,,*68
###2023-12-09 13:31:10.011959$GAGSV,1,1,04,04,39,310,40,19,73,182,41,21,78,047,46,27,23,050,41*6F
