###2023-12-09 12:49:24.979842$GNEBP,,,,,,M*13
###2023-12-09 12:49:25.147434$GNGGA,174924.30,4138.0629595,N,07032.3904424,W,1,24,0.6,13.507,M,-29.744,M,0.0,*51
###2023-12-09 12:49:25.348170$GNGGA,174924.50,4138.0630027,N,07032.3904588,W,1,24,0.6,13.494,M,-29.744,M,0.0,*5F
###2023-12-09 12:49:25.548155$GNGGA,174924.70,4138.0630332,N,07032.3904695,W,1,24,0.6,13.480,M,-29.744,M,0.0,*50
###2023-12-09 12:49:25.748020$GNGGA,174924.90,4138.0630366,N,07032.3904667,W,1,24,0.6,13.505,M,-29.744,M,0.0,*5E
###2023-12-09 12:49:25.948456$GNRMC,174925.10,A,4138.0630416,N,07032.3904632,W,0.29,343.23,091223,,,A*5D
###2023-12-09 12:49:25.951352$GNGGA,174925.10,4138.0630416,N,07032.3904632,W,1,24,0.6,13.522,M,-29.744,M,0.0,*52
###2023-12-09 12:49:25.953211$GPGSA,A,3,03,04,16,26,28,29,31,32,,,,,1.1,0.6,0.9*3B
###2023-12-09 12:49:25.954944$GLGSA,A,3,65,71,72,73,74,75,,,,,,,1.1,0.6,0.9*24
###2023-12-09 12:49:25.956528$GAGSA,A,3,04,19,21,27,,,,,,,,,1.1,0.6,0.9*26
###2023-12-09 12:49:25.958179$GBGSA,A,3,14,24,25,26,33,,,,,,,,1.1,0.6,0.9*2F
###2023-12-09 12:49:25.960531$GPGSV,2,1,08,03,37,268,45,04,28,311,41,16,43,209,45,26,73,208,48*7C
###2023-12-09 12:49:25.962889$GPGSV,2,2,08,28,53,064,44,29,26,067,40,31,71,021,46,32,24,137,41*77
###2023-12-09 12:49:25.965235$GLGSV,2,1,06,65,18,329,42,71,48,171,48,72,71,291,47,73,41,038,46*67
###2023-12-09 12:49:25.966998$GLGSV,2,2,06,74,71,317,44,75,28,247,45,,,,,,,,*6B
###2023-12-09 12:49:25.969335$GAGSV,1,1,04,04,25,312,41,19,85,269,41,21,83,162,46,27,37,048,42*63
###2023-12-09 12:49:25.971679$GBGSV,2,1,05,14,49,195,47,24,77,011,49,25,37,257,48,26,30,060,45*6F
###2023-12-09 12:49:25.973137$GBGSV,2,2,05,33,61,241,48,,,,,,,,,,,,*52
###2023-12-09 12:49:25.974459$GNVTG,343.23,T,,M,0.29,N,0.54,K,A*2C
###2023-12-09 12:49:25.976119$GNGST,174925.10,18.000,,,,0.076,0.067,0.160*54
###2023-12-09 12:49:25.977417$GNZDA,174925.10,09,12,2023,00,00*7C
###2023-12-09 12:49:25.978060$GNEBP,,,,,,M*13
###2023-12-09 12:49:26.147441$GNGGA,174925.30,4138.0630654,N,07032.3904701,W,1,24,0.6,13.515,M,-29.744,M,0.0,*51
###2023-12-09 12:49:26.348378$GNGGA,174925.50,4138.0630974,N,07032.3904855,W,1,24,0.6,13.504,M,-29.744,M,0.0,*54
###2023-12-09 12:49:26.548771$GNGGA,174925.70,4138.0631247,N,07032.3904959,W,1,24,0.6,13.491,M,-29.744,M,0.0,*5C
###2023-12-09 12:49:26.749045$GNGGA,174925.90,4138.0631373,N,07032.3904976,W,1,24,0.6,13.498,M,-29.744,M,0.0,*50
###2023-12-09 12:49:26.948018$GNRMC,174926.10,A,4138.0631494,N,07032.3904998,W,0.27,343.23,091223,,,A*54
###2023-12-09 12:49:26.950925$GNGGA,174926.10,4138.0631494,N,07032.3904998,W,1,24,0.6,13.511,M,-29.744,M,0.0,*55
###2023-12-09 12:49:26.952797$GPGSA,A,3,03,04,16,26,28,29,31,32,,,,,1.1,0.6,0.9*3B
###2023-12-09 12:49:26.954519$GLGSA,A,3,65,71,72,73,74,75,,,,,,,1.1,0.6,0.9*24
###2023-12-09 12:49:26.956135$GAGSA,A,3,04,19,21,27,,,,,,,,,1.1,0.6,0.9*26
###2023-12-09 12:49:26.957795$GBGSA,A,3,14,24,25,26,33,,,,,,,,1.1,0.6,0.9*2F
###2023-12-09 12:49:26.960153$GPGSV,2,1,08,03,37,268,44,04,28,311,41,16,43,209,45,26,73,208,48*7D
###2023-12-09 12:49:26.962491$GPGSV,2,2,08,28,53,064,44,29,26,067,39,31,71,021,47,32,24,137,41*78
###2023-12-09 12:49:26.964835$GLGSV,2,1,06,65,18,329,43,71,48,171,48,72,71,291,46,73,41,038,45*64
###2023-12-09 12:49:26.966596$GLGSV,2,2,06,74,71,317,43,75,28,247,44,,,,,,,,*6D
###2023-12-09 12:49:26.968922$GAGSV,1,1,04,04,25,312,42,19,85,269,41,21,83,162,47,27,37,048,41*62
###2023-12-09 12:49:26.971261$GBGSV,2,1,05,14,49,195,44,24,77,011,48,25,37,257,46,26,30,060,44*62
###2023-12-09 12:49:26.972721$GBGSV,2,2,05,33,61,241,47,,,,,,,,,,,,*5D
###2023-12-09 12:49:26.974046$GNVTG,343.23,T,,M,0.27,N,0.50,K,A*26
###2023-12-09 12:49:26.975703$GNGST,174926.10,18.000,,,,0.076,0.067,0.160*57
###2023-12-09 12:49:26.976997$GNZDA,174926.10,09,12,2023,00,00*7F
###2023-12-09 12:49:26.977633$GNEBP,,,,,,M*13
###2023-12-09 12:49:27.147347$GNGGA,174926.30,4138.0631714,N,07032.3905067,W,1,24,0.6,13.512,M,-29.744,M,0.0,*57
###2023-12-09 12:49:27.348241$GNGGA,174926.50,4138.0632021,N,07032.3905166,W,1,24,0.6,13.505,M,-29.744,M,0.0,*55
###2023-12-09 12:49:27.548306$GNGGA,174926.70,4138.0632271,N,07032.3905262,W,1,24,0.6,13.489,M,-29.744,M,0.0,*52
###2023-12-09 12:49:27.749214$GNGGA,174926.90,4138.0632391,N,07032.3905270,W,1,24,0.6,13.480,M,-29.744,M,0.0,*59
###2023-12-09 12:49:27.947428$GNRMC,174927.10,A,4138.0632597,N,07032.3905299,W,0.54,343.23,091223,,,A*5B
###2023-12-09 12:49:27.950298$GNGGA,174927.10,4138.0632597,N,07032.3905299,W,1,24,0.6,13.494,M,-29.744,M,0.0,*52
###2023-12-09 12:49:27.952168$GPGSA,A,3,03,04,16,26,28,29,31,32,,,,,1.1,0.6,0.9*3B
###2023-12-09 12:49:27.953883$GLGSA,A,3,65,71,72,73,74,75,,,,,,,1.1,0.6,0.9*24
###2023-12-09 12:49:27.955490$GAGSA,A,3,04,19,21,27,,,,,,,,,1.1,0.6,0.9*26
###2023-12-09 12:49:27.957148$GBGSA,A,3,14,24,25,26,33,,,,,,,,1.1,0.6,0.9*2F
###2023-12-09 12:49:27.959507$GPGSV,2,1,08,03,37,268,45,04,28,311,42,16,43,209,46,26,73,208,48*7C
###2023-12-09 12:49:27.961856$GPGSV,2,2,08,28,53,064,44,29,26,067,40,31,71,021,47,32,24,137,43*74
###2023-12-09 12:49:27.964218$GLGSV,2,1,06,65,18,329,43,71,48,171,48,72,71,291,46,73,41,038,46*67
###2023-12-09 12:49:27.965974$GLGSV,2,2,06,74,71,317,43,75,28,247,44,,,,,,,,*6D
###2023-12-09 12:49:27.968328$GAGSV,1,1,04,04,25,312,41,19,85,269,40,21,83,162,46,27,37,048,41*61
###2023-12-09 12:49:27.970689$GBGSV,2,1,05,14,49,195,45,24,77,011,48,25,37,257,47,26,30,060,43*65
###2023-12-09 12:49:27.972157$GBGSV,2,2,05,33,61,241,47,,,,,,,,,,,,*5D
###2023-12-09 12:49:27.973477$GNVTG,343.23,T,,M,0.54,N,1.01,K,A*27
###2023-12-09 12:49:27.975143$GNGST,174927.10,18.000,,,,0.076,0.067,0.160*56
###2023-12-09 12:49:27.976445$GNZDA,174927.10,09,12,2023,00,00*7E
###2023-12-09 12:49:27.977087$GNEBP,,,,,,M*13
###2023-12-09 12:49:28.150332$GNGGA,174927.30,4138.0632950,N,07032.3905450,W,1,24,0.6,13.500,M,-29.744,M,0.0,*58
###2023-12-09 12:49:28.349064$GNGGA,174927.50,4138.0633249,N,07032.3905570,W,1,24,0.6,13.491,M,-29.744,M,0.0,*56
###2023-12-09 12:49:28.550149$GNGGA,174927.70,4138.0633413,N,07032.3905565,W,1,24,0.6,13.478,M,-29.744,M,0.0,*5E
###2023-12-09 12:49:28.747807$GNGGA,174927.90,4138.0633555,N,07032.3905544,W,1,24,0.6,13.461,M,-29.744,M,0.0,*58
###2023-12-09 12:49:28.947814$GNRMC,174928.10,A,4138.0633801,N,07032.3905648,W,0.64,343.23,091223,,,A*5C
###2023-12-09 12:49:28.950712$GNGGA,174928.10,4138.0633801,N,07032.3905648,W,1,24,0.6,13.456,M,-29.744,M,0.0,*58
###2023-12-09 12:49:28.952580$GPGSA,A,3,03,04,16,26,28,29,31,32,,,,,1.1,0.6,0.9*3B
###2023-12-09 12:49:28.954301$GLGSA,A,3,65,71,72,73,74,75,,,,,,,1.1,0.6,0.9*24
###2023-12-09 12:49:28.955914$GAGSA,A,3,04,19,21,27,,,,,,,,,1.1,0.6,0.9*26
###2023-12-09 12:49:28.957569$GBGSA,A,3,14,24,25,26,33,,,,,,,,1.1,0.6,0.9*2F
###2023-12-09 12:49:28.959929$GPGSV,2,1,08,03,37,268,44,04,28,311,42,16,43,209,47,26,73,208,48*7C
###2023-12-09 12:49:28.962274$GPGSV,2,2,08,28,53,064,44,29,26,067,40,31,71,021,46,32,24,137,43*75
###2023-12-09 12:49:28.964630$GLGSV,2,1,06,65,18,329,42,71,48,171,48,72,71,291,46,73,41,038,45*65
###2023-12-09 12:49:28.966389$GLGSV,2,2,06,74,71,317,43,75,28,247,45,,,,,,,,*6C
###2023-12-09 12:49:28.968738$GAGSV,1,1,04,04,25,312,40,19,85,269,40,21,83,162,46,27,37,048,41*60
###2023-12-09 12:49:28.971088$GBGSV,2,1,05,14,49,195,45,24,77,011,48,25,37,257,46,26,30,060,43*64
###2023-12-09 12:49:28.972552$GBGSV,2,2,05,33,61,241,47,,,,,,,,,,,,*5D
###2023-12-09 12:49:28.973875$GNVTG,343.23,T,,M,0.64,N,1.19,K,A*2D
###2023-12-09 12:49:28.975538$GNGST,174928.10,18.000,,,,0.076,0.067,0.160*59
###2023-12-09 12:49:28.976843$GNZDA,174928.10,09,12,2023,00,00*71
###2023-12-09 12:49:28.977493$GNEBP,,,,,,M*13
###2023-12-09 12:49:29.147598$GNGGA,174928.30,4138.0634171,N,07032.3905858,W,1,24,0.6,13.461,M,-29.744,M,0.0,*58
###2023-12-09 12:49:29.348048$GNGGA,174928.50,4138.0634507,N,07032.3905997,W,1,24,0.6,13.474,M,-29.744,M,0.0,*5D
###2023-12-09 12:49:29.550746$GNGGA,174928.70,4138.0634661,N,07032.3906008,W,1,24,0.6,13.482,M,-29.744,M,0.0,*59
###2023-12-09 12:49:29.748102$GNGGA,174928.90,4138.0634682,N,07032.3905941,W,1,24,0.6,13.448,M,-29.744,M,0.0,*5B
###2023-12-09 12:49:29.947842$GNRMC,174929.10,A,4138.0634894,N,07032.3906006,W,0.72,343.23,091223,,,A*5E
###2023-12-09 12:49:29.950977$GNGGA,174929.10,4138.0634894,N,07032.3906006,W,1,24,0.6,13.430,M,-29.744,M,0.0,*5D
###2023-12-09 12:49:29.952847$GPGSA,A,3,03,04,16,26,28,29,31,32,,,,,1.1,0.6,0.9*3B
###2023-12-09 12:49:29.954585$GLGSA,A,3,65,71,72,73,74,75,,,,,,,1.1,0.6,0.9*24
###2023-12-09 12:49:29.956183$GAGSA,A,3,04,19,21,27,,,,,,,,,1.1,0.6,0.9*26
###2023-12-09 12:49:29.957832$GBGSA,A,3,14,24,25,26,33,,,,,,,,1.1,0.6,0.9*2F
###2023-12-09 12:49:29.960179$GPGSV,2,1,08,03,37,268,44,04,28,311,41,16,44,210,47,26,73,208,48*70
###2023-12-09 12:49:29.962520$GPGSV,2,2,08,28,53,064,44,29,26,067,40,31,71,021,46,32,24,137,46*70
###2023-12-09 12:49:29.964873$GLGSV,2,1,06,65,18,329,41,71,48,171,49,72,71,291,46,73,41,038,45*67
###2023-12-09 12:49:29.966632$GLGSV,2,2,06,74,71,317,42,75,28,247,44,,,,,,,,*6C
###2023-12-09 12:49:29.968969$GAGSV,1,1,04,04,25,312,41,19,85,269,40,21,83,162,46,27,37,048,41*61
