###2023-12-09 12:53:13.968886$GPGSV,2,2,08,28,52,066,46,29,26,065,44,31,71,026,48,32,23,138,46*76
###2023-12-09 12:53:13.971250$GLGSV,2,1,06,65,20,328,41,71,45,172,47,72,72,285,45,73,39,039,47*64
###2023-12-09 12:53:13.973001$GLGSV,2,2,06,74,71,324,43,75,29,249,41,,,,,,,,*67
###2023-12-09 12:53:13.975340$GAGSV,1,1,04,04,26,312,41,19,85,252,40,21,84,154,46,27,36,048,45*6D
###2023-12-09 12:53:13.977659$GBGSV,2,1,05,14,47,194,46,24,76,016,48,25,38,259,44,26,29,061,45*62
###2023-12-09 12:53:13.979124$GBGSV,2,2,05,33,60,238,46,,,,,,,,,,,,*53
###2023-12-09 12:53:13.980440$GNVTG,305.30,T,,M,1.21,N,2.23,K,A*27
###2023-12-09 12:53:13.982073$GNGST,175313.10,18.000,,,,0.075,0.066,0.160*58
###2023-12-09 12:53:13.983383$GNZDA,175313.10,09,12,2023,00,00*72
###2023-12-09 12:53:13.984018$GNEBP,,,,,,M*13
###2023-12-09 12:53:14.152947$GNGGA,175313.30,4138.0577520,N,07032.3857162,W,1,24,0.6,13.337,M,-29.744,M,0.0,*5D
###2023-12-09 12:53:14.352592$GNGGA,175313.50,4138.0577481,N,07032.3857223,W,1,24,0.6,13.331,M,-29.744,M,0.0,*51
###2023-12-09 12:53:14.552861$GNGGA,175313.70,4138.0577338,N,07032.3857094,W,1,24,0.6,13.333,M,-29.744,M,0.0,*5A
###2023-12-09 12:53:14.752526$GNGGA,175313.90,4138.0577449,N,07032.3857373,W,1,24,0.6,13.334,M,-29.744,M,0.0,*58
###2023-12-09 12:53:14.955004$GNRMC,175314.10,A,4138.0577749,N,07032.3857982,W,1.01,303.16,091223,,,A*57
###2023-12-09 12:53:14.957863$GNGGA,175314.10,4138.0577749,N,07032.3857982,W,1,24,0.6,13.346,M,-29.744,M,0.0,*55
###2023-12-09 12:53:14.959725$GPGSA,A,3,03,04,16,26,28,29,31,32,,,,,1.1,0.6,0.9*3B
###2023-12-09 12:53:14.961444$GLGSA,A,3,65,71,72,73,74,75,,,,,,,1.1,0.6,0.9*24
###2023-12-09 12:53:14.963045$GAGSA,A,3,04,19,21,27,,,,,,,,,1.1,0.6,0.9*26
###2023-12-09 12:53:14.964692$GBGSA,A,3,14,24,25,26,33,,,,,,,,1.1,0.6,0.9*2F
###2023-12-09 12:53:14.967033$GPGSV,2,1,08,03,36,266,44,04,29,311,41,16,45,210,45,26,75,209,47*75
###2023-12-09 12:53:14.969367$GPGSV,2,2,08,28,52,066,45,29,26,065,44,31,71,026,48,32,23,138,44*77
###2023-12-09 12:53:14.971722$GLGSV,2,1,06,65,20,328,42,71,45,172,47,72,72,285,45,73,39,039,47*67
###2023-12-09 12:53:14.973475$GLGSV,2,2,06,74,71,324,43,75,29,249,44,,,,,,,,*62
###2023-12-09 12:53:14.975817$GAGSV,1,1,04,04,26,312,41,19,85,252,40,21,84,154,46,27,36,048,44*6C
###2023-12-09 12:53:14.978147$GBGSV,2,1,05,14,47,194,45,24,76,016,48,25,38,259,44,26,29,061,44*60
###2023-12-09 12:53:14.979613$GBGSV,2,2,05,33,60,238,46,,,,,,,,,,,,*53
###2023-12-09 12:53:14.980932$GNVTG,303.16,T,,M,1.01,N,1.87,K,A*2A
###2023-12-09 12:53:14.982616$GNGST,175314.10,18.000,,,,0.075,0.066,0.160*5F
###2023-12-09 12:53:14.983909$GNZDA,175314.10,09,12,2023,00,00*75
###2023-12-09 12:53:14.984548$GNEBP,,,,,,M*13
###2023-12-09 12:53:15.153438$GNGGA,175314.30,4138.0577941,N,07032.3858416,W,1,24,0.6,13.342,M,-29.744,M,0.0,*5A
###2023-12-09 12:53:15.355734$GNGGA,175314.50,4138.0577866,N,07032.3858387,W,1,24,0.6,13.336,M,-29.744,M,0.0,*54
###2023-12-09 12:53:15.554711$GNGGA,175314.70,4138.0577746,N,07032.3858324,W,1,24,0.6,13.322,M,-29.744,M,0.0,*57
###2023-12-09 12:53:15.754588$GNGGA,175314.90,4138.0577924,N,07032.3858743,W,1,24,0.6,13.345,M,-29.744,M,0.0,*57
###2023-12-09 12:53:15.954981$GNRMC,175315.10,A,4138.0578268,N,07032.3859387,W,0.93,306.30,091223,,,A*55
###2023-12-09 12:53:15.957854$GNGGA,175315.10,4138.0578268,N,07032.3859387,W,1,24,0.6,13.362,M,-29.744,M,0.0,*5A
###2023-12-09 12:53:15.959733$GPGSA,A,3,03,04,16,26,28,29,31,32,,,,,1.1,0.6,0.9*3B
###2023-12-09 12:53:15.961449$GLGSA,A,3,65,71,72,73,74,75,,,,,,,1.1,0.6,0.9*24
###2023-12-09 12:53:15.963051$GAGSA,A,3,04,19,21,27,,,,,,,,,1.1,0.6,0.9*26
###2023-12-09 12:53:15.964703$GBGSA,A,3,14,24,25,26,33,,,,,,,,1.1,0.6,0.9*2F
###2023-12-09 12:53:15.967041$GPGSV,2,1,08,03,36,266,44,04,29,311,43,16,45,210,45,26,75,209,47*77
###2023-12-09 12:53:15.969369$GPGSV,2,2,08,28,52,066,44,29,26,065,44,31,71,026,48,32,23,138,43*71
###2023-12-09 12:53:15.971723$GLGSV,2,1,06,65,20,328,43,71,45,172,46,72,72,285,46,73,39,039,47*64
###2023-12-09 12:53:15.973471$GLGSV,2,2,06,74,71,324,43,75,29,249,42,,,,,,,,*64
###2023-12-09 12:53:15.975800$GAGSV,1,1,04,04,26,312,42,19,85,252,40,21,84,154,46,27,36,048,45*6E
###2023-12-09 12:53:15.978122$GBGSV,2,1,05,14,47,194,46,24,76,016,49,25,38,259,47,26,29,061,46*63
###2023-12-09 12:53:15.979585$GBGSV,2,2,05,33,60,238,48,,,,,,,,,,,,*5D
###2023-12-09 12:53:15.980901$GNVTG,306.30,T,,M,0.93,N,1.73,K,A*2A
###2023-12-09 12:53:15.982539$GNGST,175315.10,18.000,,,,0.075,0.066,0.160*5E
###2023-12-09 12:53:15.983844$GNZDA,175315.10,09,12,2023,00,00*74
###2023-12-09 12:53:15.984483$GNEBP,,,,,,M*13
###2023-12-09 12:53:16.152774$GNGGA,175315.30,4138.0578399,N,07032.3859715,W,1,24,0.6,13.358,M,-29.744,M,0.0,*51
###2023-12-09 12:53:16.353616$GNGGA,175315.50,4138.0578243,N,07032.3859578,W,1,24,0.6,13.342,M,-29.744,M,0.0,*53
###2023-12-09 12:53:16.552552$GNGGA,175315.70,4138.0578163,N,07032.3859554,W,1,24,0.6,13.319,M,-29.744,M,0.0,*50
###2023-12-09 12:53:16.754653$GNGGA,175315.90,4138.0578413,N,07032.3860101,W,1,24,0.6,13.346,M,-29.744,M,0.0,*58
###2023-12-09 12:53:16.955821$GNRMC,175316.10,A,4138.0578742,N,07032.3860760,W,0.76,305.84,091223,,,A*5B
###2023-12-09 12:53:16.958721$GNGGA,175316.10,4138.0578742,N,07032.3860760,W,1,24,0.6,13.362,M,-29.744,M,0.0,*53
###2023-12-09 12:53:16.960587$GPGSA,A,3,03,04,16,26,28,29,31,32,,,,,1.1,0.6,0.9*3B
###2023-12-09 12:53:16.962302$GLGSA,A,3,65,71,72,73,74,75,,,,,,,1.1,0.6,0.9*24
###2023-12-09 12:53:16.963893$GAGSA,A,3,04,19,21,27,,,,,,,,,1.1,0.6,0.9*26
###2023-12-09 12:53:16.965535$GBGSA,A,3,14,24,25,26,33,,,,,,,,1.1,0.6,0.9*2F
###2023-12-09 12:53:16.967862$GPGSV,2,1,08,03,36,266,44,04,29,311,44,16,45,210,44,26,75,209,47*71
###2023-12-09 12:53:16.970190$GPGSV,2,2,08,28,52,066,43,29,26,065,43,31,71,026,48,32,23,138,40*72
###2023-12-09 12:53:16.972534$GLGSV,2,1,06,65,20,328,44,71,45,172,46,72,72,285,46,73,39,039,48*6C
###2023-12-09 12:53:16.974281$GLGSV,2,2,06,74,71,324,43,75,29,249,42,,,,,,,,*64
###2023-12-09 12:53:16.976620$GAGSV,1,1,04,04,26,312,42,19,85,252,40,21,84,154,46,27,36,048,44*6F
###2023-12-09 12:53:16.978964$GBGSV,2,1,05,14,47,194,45,24,76,016,49,25,38,259,46,26,29,061,45*62
###2023-12-09 12:53:16.980417$GBGSV,2,2,05,33,60,238,48,,,,,,,,,,,,*5D
###2023-12-09 12:53:16.981743$GNVTG,305.84,T,,M,0.76,N,1.40,K,A*2D
###2023-12-09 12:53:16.983394$GNGST,175316.10,18.000,,,,0.075,0.066,0.160*5D
###2023-12-09 12:53:16.984687$GNZDA,175316.10,09,12,2023,00,00*77
###2023-12-09 12:53:16.985325$GNEBP,,,,,,M*13
###2023-12-09 12:53:17.154558$GNGGA,175316.30,4138.0578791,N,07032.3860957,W,1,24,0.6,13.365,M,-29.744,M,0.0,*52
###2023-12-09 12:53:17.353511$GNGGA,175316.50,4138.0578648,N,07032.3860760,W,1,24,0.6,13.347,M,-29.744,M,0.0,*5B
###2023-12-09 12:53:17.553486$GNGGA,175316.70,4138.0578639,N,07032.3860862,W,1,24,0.6,13.318,M,-29.744,M,0.0,*58
###2023-12-09 12:53:17.753408$GNGGA,175316.90,4138.0578919,N,07032.3861472,W,1,24,0.6,13.337,M,-29.744,M,0.0,*5A
###2023-12-09 12:53:17.955002$GNRMC,175317.10,A,4138.0579197,N,07032.3862065,W,0.56,303.64,091223,,,A*5F
###2023-12-09 12:53:17.957849$GNGGA,175317.10,4138.0579197,N,07032.3862065,W,1,24,0.6,13.340,M,-29.744,M,0.0,*5D
###2023-12-09 12:53:17.959718$GPGSA,A,3,03,04,16,26,28,29,31,32,,,,,1.1,0.6,0.9*3B
###2023-12-09 12:53:17.961427$GLGSA,A,3,65,71,72,73,74,75,,,,,,,1.1,0.6,0.9*24
###2023-12-09 12:53:17.963021$GAGSA,A,3,04,19,21,27,,,,,,,,,1.1,0.6,0.9*26
###2023-12-09 12:53:17.964662$GBGSA,A,3,14,24,25,26,33,,,,,,,,1.1,0.6,0.9*2F
###2023-12-09 12:53:17.967009$GPGSV,2,1,08,03,36,266,45,04,29,311,43,16,45,210,44,26,75,209,47*77
###2023-12-09 12:53:17.969335$GPGSV,2,2,08,28,52,066,44,29,26,065,43,31,71,026,48,32,23,138,41*74
###2023-12-09 12:53:17.971672$GLGSV,2,1,06,65,20,328,44,71,45,172,45,72,72,285,46,73,39,039,47*60
###2023-12-09 12:53:17.973412$GLGSV,2,2,06,74,71,324,43,75,29,249,42,,,,,,,,*64
###2023-12-09 12:53:17.975743$GAGSV,1,1,04,04,26,312,42,19,85,252,40,21,84,154,46,27,36,048,44*6F
###2023-12-09 12:53:17.978068$GBGSV,2,1,05,14,47,194,44,24,76,016,47,25,38,259,44,26,29,061,43*69
###2023-12-09 12:53:17.979532$GBGSV,2,2,05,33,60,238,46,,,,,,,,,,,,*53
###2023-12-09 12:53:17.980849$GNVTG,303.64,T,,M,0.56,N,1.04,K,A*27
###2023-12-09 12:53:17.982758$GNGST,175317.10,18.000,,,,0.075,0.066,0.160*5C
###2023-12-09 12:53:17.984067$GNZDA,175317.10,09,12,2023,00,00*76
###2023-12-09 12:53:17.984706$GNEBP,,,,,,M*13
###2023-12-09 12:53:18.153678$GNGGA,175317.30,4138.0579227,N,07032.3862206,W,1,24,0.6,13.350,M,-29.744,M,0.0,*51
###2023-12-09 12:53:18.353409$GNGGA,175317.50,4138.0579128,N,07032.3862088,W,1,24,0.6,13.331,M,-29.744,M,0.0,*58
###2023-12-09 12:53:18.553398$GNGGA,175317.70,4138.0579164,N,07032.3862232,W,1,24,0.6,13.295,M,-29.744,M,0.0,*5E
###2023-12-09 12:53:18.754492$GNGGA,175317.90,4138.0579415,N,07032.3862808,W,1,24,0.6,13.307,M,-29.744,M,0.0,*5A
###2023-12-09 12:53:18.954999$GNRMC,175318.10,A,4138.0579675,N,07032.3863377,W,0.62,302.00,091223,,,A*5E
###2023-12-09 12:53:18.957864$GNGGA,175318.10,4138.0579675,N,07032.3863377,W,1,24,0.6,13.310,M,-29.744,M,0.0,*5D
