###2023-12-09 13:02:02.564788$GNGGA,180201.70,4138.0455612,N,07032.2916380,W,1,24,0.6,13.510,M,-29.743,M,0.0,*5D
###2023-12-09 13:02:02.765040$GNGGA,180201.90,4138.0455949,N,07032.2918937,W,1,24,0.6,13.510,M,-29.743,M,0.0,*5A
###2023-12-09 13:02:02.966321$GNRMC,180202.10,A,4138.0456200,N,07032.2921487,W,3.54,279.11,091223,,,A*51
###2023-12-09 13:02:02.969219$GNGGA,180202.10,4138.0456200,N,07032.2921487,W,1,24,0.6,13.502,M,-29.743,M,0.0,*5B
###2023-12-09 13:02:02.971099$GPGSA,A,3,03,04,16,26,28,29,31,32,,,,,1.1,0.6,0.9*3B
###2023-12-09 13:02:02.972812$GLGSA,A,3,65,71,72,73,74,75,,,,,,,1.1,0.6,0.9*24
###2023-12-09 13:02:02.974394$GAGSA,A,3,04,19,21,27,,,,,,,,,1.1,0.6,0.9*26
###2023-12-09 13:02:02.976061$GBGSA,A,3,14,24,25,26,33,,,,,,,,1.1,0.6,0.9*2F
###2023-12-09 13:02:02.978384$GPGSV,2,1,08,03,35,261,40,04,33,311,41,16,50,212,46,26,80,210,47*79
###2023-12-09 13:02:02.980728$GPGSV,2,2,08,28,49,070,45,29,25,061,42,31,69,038,47,32,19,140,43*73
###2023-12-09 13:02:02.983070$GLGSV,2,1,06,65,24,327,39,71,41,173,46,72,73,269,45,73,36,041,46*66
###2023-12-09 13:02:02.984818$GLGSV,2,2,06,74,70,337,42,75,32,253,41,,,,,,,,*64
###2023-12-09 13:02:02.987153$GAGSV,1,1,04,04,29,312,40,19,84,213,40,21,86,114,46,27,33,048,42*63
###2023-12-09 13:02:02.989482$GBGSV,2,1,05,14,43,193,45,24,74,024,48,25,41,262,44,26,26,063,42*6D
###2023-12-09 13:02:02.990945$GBGSV,2,2,05,33,57,233,48,,,,,,,,,,,,*52
###2023-12-09 13:02:02.992268$GNVTG,279.11,T,,M,3.54,N,6.55,K,A*2B
###2023-12-09 13:02:02.993912$GNGST,180202.10,18.000,,,,0.082,0.070,0.160*5C
###2023-12-09 13:02:02.995217$GNZDA,180202.10,09,12,2023,00,00*79
###2023-12-09 13:02:02.995857$GNEBP,,,,,,M*13
###2023-12-09 13:02:03.169364$GNGGA,180202.30,4138.0456605,N,07032.2924010,W,1,24,0.6,13.490,M,-29.743,M,0.0,*5D
###2023-12-09 13:02:03.364746$GNGGA,180202.50,4138.0457236,N,07032.2926443,W,1,24,0.6,13.500,M,-29.743,M,0.0,*56
###2023-12-09 13:02:03.564871$GNGGA,180202.70,4138.0457722,N,07032.2928797,W,1,24,0.6,13.499,M,-29.743,M,0.0,*51
###2023-12-09 13:02:03.765286$GNGGA,180202.90,4138.0458042,N,07032.2931149,W,1,24,0.6,13.491,M,-29.743,M,0.0,*54
###2023-12-09 13:02:03.967824$GNRMC,180203.10,A,4138.0458478,N,07032.2933405,W,3.11,286.28,091223,,,A*55
###2023-12-09 13:02:03.970677$GNGGA,180203.10,4138.0458478,N,07032.2933405,W,1,24,0.6,13.492,M,-29.743,M,0.0,*5C
###2023-12-09 13:02:03.972528$GPGSA,A,3,03,04,16,26,28,29,31,32,,,,,1.1,0.6,0.9*3B
###2023-12-09 13:02:03.974235$GLGSA,A,3,65,71,72,73,74,75,,,,,,,1.1,0.6,0.9*24
###2023-12-09 13:02:03.975823$GAGSA,A,3,04,19,21,27,,,,,,,,,1.1,0.6,0.9*26
###2023-12-09 13:02:03.977457$GBGSA,A,3,14,24,25,26,33,,,,,,,,1.1,0.6,0.9*2F
###2023-12-09 13:02:03.979782$GPGSV,2,1,08,03,35,261,40,04,33,311,40,16,50,212,45,26,80,210,48*74
###2023-12-09 13:02:03.982097$GPGSV,2,2,08,28,49,070,44,29,25,061,40,31,69,038,46,32,19,140,44*76
###2023-12-09 13:02:03.984427$GLGSV,2,1,06,65,24,327,38,71,41,173,48,72,73,269,45,73,36,041,45*6A
###2023-12-09 13:02:03.986169$GLGSV,2,2,06,74,70,337,42,75,32,253,44,,,,,,,,*61
###2023-12-09 13:02:03.988501$GAGSV,1,1,04,04,29,312,39,19,84,213,40,21,86,114,46,27,33,048,43*6C
###2023-12-09 13:02:03.990828$GBGSV,2,1,05,14,43,193,46,24,74,024,49,25,41,262,44,26,26,063,42*6F
###2023-12-09 13:02:03.992277$GBGSV,2,2,05,33,57,233,48,,,,,,,,,,,,*52
###2023-12-09 13:02:03.993586$GNVTG,286.28,T,,M,3.11,N,5.76,K,A*22
###2023-12-09 13:02:03.995236$GNGST,180203.10,18.000,,,,0.082,0.071,0.160*5C
###2023-12-09 13:02:03.996518$GNZDA,180203.10,09,12,2023,00,00*78
###2023-12-09 13:02:03.997154$GNEBP,,,,,,M*13
###2023-12-09 13:02:04.163981$GNGGA,180203.30,4138.0459049,N,07032.2935611,W,1,24,0.6,13.486,M,-29.743,M,0.0,*5D
###2023-12-09 13:02:04.364857$GNGGA,180203.50,4138.0459658,N,07032.2937755,W,1,24,0.6,13.488,M,-29.743,M,0.0,*50
###2023-12-09 13:02:04.566115$GNGGA,180203.70,4138.0460272,N,07032.2939947,W,1,24,0.6,13.494,M,-29.743,M,0.0,*5A
###2023-12-09 13:02:04.764871$GNGGA,180203.90,4138.0460925,N,07032.2942184,W,1,24,0.6,13.505,M,-29.743,M,0.0,*5F
###2023-12-09 13:02:04.967434$GNRMC,180204.10,A,4138.0461636,N,07032.2944477,W,3.40,291.90,091223,,,A*54
###2023-12-09 13:02:04.970291$GNGGA,180204.10,4138.0461636,N,07032.2944477,W,1,24,0.6,13.506,M,-29.743,M,0.0,*50
###2023-12-09 13:02:04.972162$GPGSA,A,3,03,04,16,26,28,29,31,32,,,,,1.1,0.6,0.9*3B
###2023-12-09 13:02:04.973875$GLGSA,A,3,65,71,72,73,74,75,,,,,,,1.1,0.6,0.9*24
###2023-12-09 13:02:04.975467$GAGSA,A,3,04,19,21,27,,,,,,,,,1.1,0.6,0.9*26
###2023-12-09 13:02:04.977105$GBGSA,A,3,14,24,25,26,33,,,,,,,,1.1,0.6,0.9*2F
###2023-12-09 13:02:04.979450$GPGSV,2,1,08,03,35,261,41,04,33,311,42,16,50,212,45,26,80,210,48*77
###2023-12-09 13:02:04.981792$GPGSV,2,2,08,28,49,070,45,29,25,061,40,31,69,038,47,32,19,140,44*76
###2023-12-09 13:02:04.984144$GLGSV,2,1,06,65,24,327,38,71,41,173,47,72,73,269,46,73,36,041,45*66
###2023-12-09 13:02:04.985895$GLGSV,2,2,06,74,70,337,42,75,32,253,43,,,,,,,,*66
###2023-12-09 13:02:04.988232$GAGSV,1,1,04,04,29,312,39,19,84,213,40,21,86,114,46,27,33,048,43*6C
###2023-12-09 13:02:04.990574$GBGSV,2,1,05,14,43,193,46,24,74,024,49,25,41,262,45,26,26,063,42*6E
###2023-12-09 13:02:04.992031$GBGSV,2,2,05,33,57,233,48,,,,,,,,,,,,*52
###2023-12-09 13:02:04.993361$GNVTG,291.90,T,,M,3.40,N,6.30,K,A*22
###2023-12-09 13:02:04.995019$GNGST,180204.10,18.000,,,,0.082,0.070,0.160*5A
###2023-12-09 13:02:04.996315$GNZDA,180204.10,09,12,2023,00,00*7F
###2023-12-09 13:02:04.996954$GNEBP,,,,,,M*13
###2023-12-09 13:02:05.163964$GNGGA,180204.30,4138.0462309,N,07032.2946851,W,1,24,0.6,13.503,M,-29.743,M,0.0,*57
###2023-12-09 13:02:05.364923$GNGGA,180204.50,4138.0462899,N,07032.2949347,W,1,24,0.6,13.499,M,-29.743,M,0.0,*52
###2023-12-09 13:02:05.564791$GNGGA,180204.70,4138.0463451,N,07032.2951864,W,1,24,0.6,13.500,M,-29.743,M,0.0,*5B
###2023-12-09 13:02:05.765158$GNGGA,180204.90,4138.0463905,N,07032.2954397,W,1,24,0.6,13.497,M,-29.743,M,0.0,*54
###2023-12-09 13:02:05.968154$GNRMC,180205.10,A,4138.0464270,N,07032.2956906,W,3.38,280.02,091223,,,A*5A
###2023-12-09 13:02:05.971029$GNGGA,180205.10,4138.0464270,N,07032.2956906,W,1,24,0.6,13.490,M,-29.743,M,0.0,*54
###2023-12-09 13:02:05.972888$GPGSA,A,3,03,04,16,26,28,29,31,32,,,,,1.1,0.6,0.9*3B
###2023-12-09 13:02:05.974625$GLGSA,A,3,65,71,72,73,74,75,,,,,,,1.1,0.6,0.9*24
###2023-12-09 13:02:05.976215$GAGSA,A,3,04,19,21,27,,,,,,,,,1.1,0.6,0.9*26
###2023-12-09 13:02:05.977859$GBGSA,A,3,14,24,25,26,33,,,,,,,,1.1,0.6,0.9*2F
###2023-12-09 13:02:05.980200$GPGSV,2,1,08,03,35,261,43,04,33,311,40,16,50,212,46,26,80,210,48*74
###2023-12-09 13:02:05.982534$GPGSV,2,2,08,28,49,070,45,29,25,061,41,31,69,038,47,32,19,140,43*70
###2023-12-09 13:02:05.984873$GLGSV,2,1,06,65,24,327,39,71,41,173,47,72,73,269,46,73,36,041,45*67
###2023-12-09 13:02:05.986628$GLGSV,2,2,06,74,70,337,42,75,32,253,41,,,,,,,,*64
###2023-12-09 13:02:05.988961$GAGSV,1,1,04,04,29,312,39,19,84,213,40,21,86,114,46,27,33,048,42*6D
###2023-12-09 13:02:05.991303$GBGSV,2,1,05,14,43,193,45,24,74,024,49,25,41,262,45,26,26,063,42*6D
###2023-12-09 13:02:05.992761$GBGSV,2,2,05,33,57,233,48,,,,,,,,,,,,*52
###2023-12-09 13:02:05.994082$GNVTG,280.02,T,,M,3.38,N,6.26,K,A*21
###2023-12-09 13:02:05.995736$GNGST,180205.10,18.000,,,,0.082,0.070,0.160*5B
###2023-12-09 13:02:05.997026$GNZDA,180205.10,09,12,2023,00,00*7E
###2023-12-09 13:02:05.997664$GNEBP,,,,,,M*13
###2023-12-09 13:02:06.164941$GNGGA,180205.30,4138.0464562,N,07032.2959401,W,1,24,0.6,13.476,M,-29.743,M,0.0,*5F
###2023-12-09 13:02:06.366107$GNGGA,180205.50,4138.0464787,N,07032.2961842,W,1,24,0.6,13.472,M,-29.743,M,0.0,*54
###2023-12-09 13:02:06.566379$GNGGA,180205.70,4138.0465035,N,07032.2964269,W,1,24,0.6,13.467,M,-29.743,M,0.0,*5B
###2023-12-09 13:02:06.766431$GNGGA,180205.90,4138.0465192,N,07032.2966663,W,1,24,0.6,13.468,M,-29.743,M,0.0,*5A
###2023-12-09 13:02:06.967949$GNRMC,180206.10,A,4138.0465274,N,07032.2969045,W,3.25,271.04,091223,,,A*5A
###2023-12-09 13:02:06.970847$GNGGA,180206.10,4138.0465274,N,07032.2969045,W,1,24,0.6,13.469,M,-29.743,M,0.0,*56
###2023-12-09 13:02:06.972710$GPGSA,A,3,03,04,16,26,28,29,31,32,,,,,1.1,0.6,0.9*3B
###2023-12-09 13:02:06.974422$GLGSA,A,3,65,71,72,73,74,75,,,,,,,1.1,0.6,0.9*24
###2023-12-09 13:02:06.976275$GAGSA,A,3,04,19,21,27,,,,,,,,,1.1,0.6,0.9*26
###2023-12-09 13:02:06.977932$GBGSA,A,3,14,24,25,26,33,,,,,,,,1.1,0.6,0.9*2F
###2023-12-09 13:02:06.980284$GPGSV,2,1,08,03,35,261,42,04,33,311,41,16,50,212,46,26,80,210,48*74
###2023-12-09 13:02:06.982670$GPGSV,2,2,08,28,49,070,45,29,25,061,41,31,69,038,47,32,19,140,44*77
###2023-12-09 13:02:06.985008$GLGSV,2,1,06,65,24,327,39,71,41,173,47,72,73,269,45,73,36,041,44*65
###2023-12-09 13:02:06.986758$GLGSV,2,2,06,74,70,337,42,75,32,253,42,,,,,,,,*67
###2023-12-09 13:02:06.989081$GAGSV,1,1,04,04,29,312,39,19,84,213,40,21,86,114,46,27,33,048,42*6D
###2023-12-09 13:02:06.991406$GBGSV,2,1,05,14,43,193,45,24,74,024,49,25,41,262,45,26,26,063,42*6D
###2023-12-09 13:02:06.992863$GBGSV,2,2,05,33,57,233,47,,,,,,,,,,,,*5D
###2023-12-09 13:02:06.994182$GNVTG,271.04,T,,M,3.25,N,6.01,K,A*20
