###2023-12-09 13:28:14.008216$GPGSV,2,2,07,28,40,082,46,29,22,049,43,31,61,061,47,,,,*48
###2023-12-09 13:28:14.011070$GLGSV,2,1,06,65,35,321,43,71,26,175,35,72,66,227,45,73,25,050,43*67
###2023-12-09 13:28:14.013207$GLGSV,2,2,06,74,62,008,43,75,41,267,48,,,,,,,,*63
###2023-12-09 13:28:14.016053$GAGSV,1,1,04,04,38,311,44,19,74,183,40,21,79,049,46,27,24,049,41*6C
###2023-12-09 13:28:14.018902$GBGSV,2,1,06,14,32,190,37,24,65,042,48,25,49,273,47,26,18,069,44*64
###2023-12-09 13:28:14.021012$GBGSV,2,2,06,33,48,220,45,35,16,059,42,,,,,,,,*6B
###2023-12-09 13:28:14.022625$GNVTG,291.47,T,,M,0.43,N,0.79,K,A*23
###2023-12-09 13:28:14.024621$GNGST,182813.10,19.000,,,,0.150,0.088,0.230*5A
###2023-12-09 13:28:14.026179$GNZDA,182813.10,09,12,2023,00,00*71
###2023-12-09 13:28:14.026972$GNEBP,,,,,,M*13
###2023-12-09 13:28:14.187623$GNGGA,182813.30,4138.0432974,N,07032.4283289,W,1,23,0.7,13.129,M,-29.745,M,0.0,*5B
###2023-12-09 13:28:14.385431$GNGGA,182813.50,4138.0433151,N,07032.4283699,W,1,23,0.7,13.132,M,-29.745,M,0.0,*5C
###2023-12-09 13:28:14.586945$GNGGA,182813.70,4138.0433391,N,07032.4283946,W,1,23,0.7,13.132,M,-29.745,M,0.0,*5D
###2023-12-09 13:28:14.787087$GNGGA,182813.90,4138.0433715,N,07032.4283897,W,1,23,0.7,13.114,M,-29.745,M,0.0,*52
###2023-12-09 13:28:14.991009$GNRMC,182814.10,A,4138.0434007,N,07032.4283928,W,0.51,291.47,091223,,,A*51
###2023-12-09 13:28:14.994474$GNGGA,182814.10,4138.0434007,N,07032.4283928,W,1,22,0.7,13.108,M,-29.745,M,0.0,*57
###2023-12-09 13:28:14.996680$GPGSA,A,3,03,04,16,26,28,29,31,,,,,,1.2,0.7,1.1*31
###2023-12-09 13:28:14.998688$GLGSA,A,3,65,72,73,74,75,,,,,,,,1.2,0.7,1.1*29
###2023-12-09 13:28:15.000606$GAGSA,A,3,04,19,21,27,,,,,,,,,1.2,0.7,1.1*2D
###2023-12-09 13:28:15.002679$GBGSA,A,3,14,24,25,26,33,35,,,,,,,1.2,0.7,1.1*22
###2023-12-09 13:28:15.005491$GPGSV,2,1,07,03,28,249,38,04,43,309,44,16,63,220,47,26,87,041,49*7B
###2023-12-09 13:28:15.007969$GPGSV,2,2,07,28,40,082,45,29,22,049,44,31,61,061,47,,,,*4C
###2023-12-09 13:28:15.010792$GLGSV,2,1,05,65,35,321,42,72,66,227,46,73,25,050,44,74,62,008,43*6E
###2023-12-09 13:28:15.012548$GLGSV,2,2,05,75,41,267,46,,,,,,,,,,,,*56
###2023-12-09 13:28:15.015364$GAGSV,1,1,04,04,38,311,41,19,74,183,40,21,79,049,46,27,24,049,41*69
###2023-12-09 13:28:15.018176$GBGSV,2,1,06,14,32,190,39,24,65,042,49,25,49,273,48,26,18,069,45*65
###2023-12-09 13:28:15.020299$GBGSV,2,2,06,33,48,220,46,35,16,059,44,,,,,,,,*6E
###2023-12-09 13:28:15.021897$GNVTG,291.47,T,,M,0.51,N,0.94,K,A*23
###2023-12-09 13:28:15.023918$GNGST,182814.10,19.000,,,,0.150,0.088,0.230*5D
###2023-12-09 13:28:15.025481$GNZDA,182814.10,09,12,2023,00,00*76
###2023-12-09 13:28:15.026252$GNEBP,,,,,,M*13
###2023-12-09 13:28:15.190420$GNGGA,182814.30,4138.0434182,N,07032.4284382,W,1,23,0.7,13.142,M,-29.745,M,0.0,*5B
###2023-12-09 13:28:15.384313$GNGGA,182814.50,4138.0434318,N,07032.4284785,W,1,23,0.7,13.141,M,-29.745,M,0.0,*5C
###2023-12-09 13:28:15.584328$GNGGA,182814.70,4138.0434638,N,07032.4284828,W,1,22,0.7,13.126,M,-29.745,M,0.0,*51
###2023-12-09 13:28:15.784643$GNGGA,182814.90,4138.0434967,N,07032.4284770,W,1,23,0.7,13.110,M,-29.745,M,0.0,*5C
###2023-12-09 13:28:15.986974$GNRMC,182815.10,A,4138.0435123,N,07032.4285023,W,0.58,291.47,091223,,,A*5B
###2023-12-09 13:28:15.990421$GNGGA,182815.10,4138.0435123,N,07032.4285023,W,1,22,0.7,13.127,M,-29.745,M,0.0,*59
###2023-12-09 13:28:15.992600$GPGSA,A,3,03,04,16,26,28,29,31,,,,,,1.2,0.7,1.0*30
###2023-12-09 13:28:15.994603$GLGSA,A,3,65,72,73,74,75,,,,,,,,1.2,0.7,1.0*28
###2023-12-09 13:28:15.996510$GAGSA,A,3,04,19,21,27,,,,,,,,,1.2,0.7,1.0*2C
###2023-12-09 13:28:15.998576$GBGSA,A,3,14,24,25,26,33,35,,,,,,,1.2,0.7,1.0*23
###2023-12-09 13:28:16.001415$GPGSV,2,1,07,03,28,249,38,04,43,309,45,16,63,220,45,26,87,041,48*79
###2023-12-09 13:28:16.003892$GPGSV,2,2,07,28,40,082,45,29,22,049,43,31,61,061,47,,,,*4B
###2023-12-09 13:28:16.006710$GLGSV,2,1,05,65,35,321,43,72,66,227,46,73,25,050,43,74,62,008,42*69
###2023-12-09 13:28:16.008468$GLGSV,2,2,05,75,41,267,48,,,,,,,,,,,,*58
###2023-12-09 13:28:16.011286$GAGSV,1,1,04,04,38,311,41,19,74,183,40,21,79,049,47,27,24,049,42*6B
###2023-12-09 13:28:16.014095$GBGSV,2,1,06,14,32,190,38,24,65,042,49,25,49,273,47,26,18,069,46*68
###2023-12-09 13:28:16.016216$GBGSV,2,2,06,33,48,220,47,35,16,059,44,,,,,,,,*6F
###2023-12-09 13:28:16.017812$GNVTG,291.47,T,,M,0.58,N,1.08,K,A*2E
###2023-12-09 13:28:16.019793$GNGST,182815.10,5.700,,,,0.150,0.089,0.230*67
###2023-12-09 13:28:16.021354$GNZDA,182815.10,09,12,2023,00,00*77
###2023-12-09 13:28:16.022122$GNEBP,,,,,,M*13
###2023-12-09 13:28:16.184191$GNGGA,182815.30,4138.0435157,N,07032.4285485,W,1,22,0.7,13.136,M,-29.745,M,0.0,*50
###2023-12-09 13:28:16.384708$GNGGA,182815.50,4138.0435266,N,07032.4285688,W,1,23,0.7,13.135,M,-29.745,M,0.0,*5A
###2023-12-09 13:28:16.584398$GNGGA,182815.70,4138.0435482,N,07032.4285587,W,1,23,0.7,13.124,M,-29.745,M,0.0,*58
###2023-12-09 13:28:16.785434$GNGGA,182815.90,4138.0435527,N,07032.4285632,W,1,23,0.7,13.118,M,-29.745,M,0.0,*5A
###2023-12-09 13:28:16.989678$GNRMC,182816.10,A,4138.0435372,N,07032.4286022,W,0.68,291.47,091223,,,A*5F
###2023-12-09 13:28:16.993175$GNGGA,182816.10,4138.0435372,N,07032.4286022,W,1,23,0.7,13.140,M,-29.745,M,0.0,*5E
###2023-12-09 13:28:16.995353$GPGSA,A,3,03,04,16,26,28,29,31,,,,,,1.2,0.7,1.0*30
###2023-12-09 13:28:16.997420$GLGSA,A,3,65,71,72,73,74,75,,,,,,,1.2,0.7,1.0*2E
###2023-12-09 13:28:16.999344$GAGSA,A,3,04,19,21,27,,,,,,,,,1.2,0.7,1.0*2C
###2023-12-09 13:28:17.001413$GBGSA,A,3,14,24,25,26,33,35,,,,,,,1.2,0.7,1.0*23
###2023-12-09 13:28:17.004228$GPGSV,2,1,07,03,28,249,38,04,43,309,45,16,63,220,46,26,87,041,48*7A
###2023-12-09 13:28:17.006688$GPGSV,2,2,07,28,40,082,43,29,22,049,43,31,61,061,47,,,,*4D
###2023-12-09 13:28:17.009488$GLGSV,2,1,06,65,35,321,43,71,26,175,36,72,66,227,45,73,25,050,43*64
###2023-12-09 13:28:17.011595$GLGSV,2,2,06,74,62,008,43,75,41,267,49,,,,,,,,*62
###2023-12-09 13:28:17.014391$GAGSV,1,1,04,04,38,311,43,19,74,183,40,21,79,049,46,27,24,049,41*6B
###2023-12-09 13:28:17.017202$GBGSV,2,1,06,14,32,190,35,24,65,042,47,25,49,273,46,26,18,069,44*68
###2023-12-09 13:28:17.019307$GBGSV,2,2,06,33,48,220,46,35,16,059,43,,,,,,,,*69
###2023-12-09 13:28:17.020905$GNVTG,291.47,T,,M,0.68,N,1.26,K,A*21
###2023-12-09 13:28:17.022861$GNGST,182816.10,6.100,,,,0.150,0.089,0.230*61
###2023-12-09 13:28:17.024444$GNZDA,182816.10,09,12,2023,00,00*74
###2023-12-09 13:28:17.025223$GNEBP,,,,,,M*13
###2023-12-09 13:28:17.185282$GNGGA,182816.30,4138.0435233,N,07032.4286326,W,1,23,0.7,13.142,M,-29.745,M,0.0,*5D
###2023-12-09 13:28:17.386072$GNGGA,182816.50,4138.0435203,N,07032.4286238,W,1,23,0.7,13.144,M,-29.745,M,0.0,*50
###2023-12-09 13:28:17.586998$GNGGA,182816.70,4138.0435047,N,07032.4286177,W,1,23,0.7,13.142,M,-29.745,M,0.0,*5E
###2023-12-09 13:28:17.786301$GNGGA,182816.90,4138.0434663,N,07032.4286357,W,1,23,0.7,13.149,M,-29.745,M,0.0,*5A
###2023-12-09 13:28:17.989350$GNRMC,182817.10,A,4138.0434193,N,07032.4286502,W,0.91,291.47,091223,,,A*53
###2023-12-09 13:28:17.992231$GNGGA,182817.10,4138.0434193,N,07032.4286502,W,1,23,0.7,13.147,M,-29.745,M,0.0,*53
###2023-12-09 13:28:17.994019$GPGSA,A,3,03,04,16,26,28,29,31,,,,,,1.2,0.7,1.0*30
###2023-12-09 13:28:17.995740$GLGSA,A,3,65,71,72,73,74,75,,,,,,,1.2,0.7,1.0*2E
###2023-12-09 13:28:17.997317$GAGSA,A,3,04,19,21,27,,,,,,,,,1.2,0.7,1.0*2C
###2023-12-09 13:28:17.999033$GBGSA,A,3,14,24,25,26,33,35,,,,,,,1.2,0.7,1.0*23
###2023-12-09 13:28:18.001355$GPGSV,2,1,07,03,28,249,36,04,43,309,45,16,63,220,46,26,87,041,49*75
###2023-12-09 13:28:18.003406$GPGSV,2,2,07,28,40,082,44,29,22,049,41,31,61,061,47,,,,*48
###2023-12-09 13:28:18.005728$GLGSV,2,1,06,65,35,321,45,71,26,175,35,72,66,227,45,73,25,050,45*67
###2023-12-09 13:28:18.007482$GLGSV,2,2,06,74,62,008,43,75,41,267,47,,,,,,,,*6C
###2023-12-09 13:28:18.009794$GAGSV,1,1,04,04,38,311,43,19,74,183,40,21,79,049,47,27,24,049,40*6B
###2023-12-09 13:28:18.012113$GBGSV,2,1,06,14,32,190,36,24,65,042,47,25,49,273,48,26,18,069,43*62
###2023-12-09 13:28:18.013858$GBGSV,2,2,06,33,48,220,47,35,16,059,44,,,,,,,,*6F
###2023-12-09 13:28:18.015185$GNVTG,291.47,T,,M,0.91,N,1.69,K,A*2C
###2023-12-09 13:28:18.017112$GNGST,182817.10,18.000,,,,0.150,0.090,0.230*56
###2023-12-09 13:28:18.018415$GNZDA,182817.10,09,12,2023,00,00*75
###2023-12-09 13:28:18.019072$GNEBP,,,,,,M*13
###2023-12-09 13:28:18.187310$GNGGA,182817.30,4138.0433739,N,07032.4286409,W,1,23,0.7,13.155,M,-29.745,M,0.0,*59
###2023-12-09 13:28:18.387151$GNGGA,182817.50,4138.0433213,N,07032.4286106,W,1,23,0.7,13.150,M,-29.745,M,0.0,*5D
###2023-12-09 13:28:18.588172$GNGGA,182817.70,4138.0432572,N,07032.4285793,W,1,22,0.7,13.160,M,-29.745,M,0.0,*55
###2023-12-09 13:28:18.788822$GNGGA,182817.90,4138.0431793,N,07032.4285429,W,1,21,0.8,13.153,M,-29.745,M,0.0,*5B
###2023-12-09 13:28:18.988046$GNRMC,182818.10,A,4138.0430976,N,07032.4284960,W,1.69,151.85,091223,,,A*56
###2023-12-09 13:28:18.990895$GNGGA,182818.10,4138.0430976,N,07032.4284960,W,1,22,0.7,13.162,M,-29.745,M,0.0,*57
