###2023-12-09 13:03:51.988060$GLGSV,2,2,06,74,69,340,43,75,33,254,47,,,,,,,,*6D
###2023-12-09 13:03:51.990405$GAGSV,1,1,04,04,30,312,40,19,84,213,41,21,86,114,46,27,32,048,42*6B
###2023-12-09 13:03:51.992765$GBGSV,2,1,05,14,43,193,45,24,73,026,48,25,41,263,46,26,26,063,42*6B
###2023-12-09 13:03:51.994225$GBGSV,2,2,05,33,57,231,48,,,,,,,,,,,,*50
###2023-12-09 13:03:51.995528$GNVTG,97.36,T,,M,3.50,N,6.48,K,A*14
###2023-12-09 13:03:51.997176$GNGST,180351.10,18.000,,,,0.080,0.066,0.160*5E
###2023-12-09 13:03:51.998466$GNZDA,180351.10,09,12,2023,00,00*7E
###2023-12-09 13:03:51.999116$GNEBP,,,,,,M*13
###2023-12-09 13:03:52.164131$GNGGA,180351.30,4138.0596296,N,07032.3707975,W,1,24,0.6,13.391,M,-29.744,M,0.0,*5C
###2023-12-09 13:03:52.364205$GNGGA,180351.50,4138.0596079,N,07032.3705498,W,1,24,0.6,13.386,M,-29.744,M,0.0,*53
###2023-12-09 13:03:52.564545$GNGGA,180351.70,4138.0595862,N,07032.3702987,W,1,24,0.6,13.386,M,-29.744,M,0.0,*54
###2023-12-09 13:03:52.764922$GNGGA,180351.90,4138.0595568,N,07032.3700533,W,1,24,0.6,13.383,M,-29.744,M,0.0,*59
###2023-12-09 13:03:52.966914$GNRMC,180352.10,A,4138.0595392,N,07032.3698111,W,3.46,96.31,091223,,,A*65
###2023-12-09 13:03:52.969761$GNGGA,180352.10,4138.0595392,N,07032.3698111,W,1,24,0.6,13.394,M,-29.744,M,0.0,*53
###2023-12-09 13:03:52.971627$GPGSA,A,3,03,04,16,26,28,29,31,32,,,,,1.1,0.6,0.9*3B
###2023-12-09 13:03:52.973332$GLGSA,A,3,65,71,72,73,74,75,,,,,,,1.1,0.6,0.9*24
###2023-12-09 13:03:52.974925$GAGSA,A,3,04,19,21,27,,,,,,,,,1.1,0.6,0.9*26
###2023-12-09 13:03:52.976572$GBGSA,A,3,14,24,25,26,33,,,,,,,,1.1,0.6,0.9*2F
###2023-12-09 13:03:52.978908$GPGSV,2,1,08,03,34,260,44,04,33,311,43,16,51,213,48,26,81,210,49*7E
###2023-12-09 13:03:52.981242$GPGSV,2,2,08,28,48,071,45,29,25,060,42,31,68,040,47,32,18,140,43*7D
###2023-12-09 13:03:52.983584$GLGSV,2,1,06,65,25,327,40,71,40,173,46,72,73,265,47,73,35,042,44*64
###2023-12-09 13:03:52.985331$GLGSV,2,2,06,74,69,340,43,75,33,254,47,,,,,,,,*6D
###2023-12-09 13:03:52.987673$GAGSV,1,1,04,04,30,312,40,19,84,213,41,21,86,114,46,27,32,048,42*6B
###2023-12-09 13:03:52.990013$GBGSV,2,1,05,14,43,193,45,24,73,026,47,25,41,263,46,26,26,063,41*67
###2023-12-09 13:03:52.991483$GBGSV,2,2,05,33,57,231,47,,,,,,,,,,,,*5F
###2023-12-09 13:03:52.992775$GNVTG,96.31,T,,M,3.46,N,6.41,K,A*1C
###2023-12-09 13:03:52.994425$GNGST,180352.10,18.000,,,,0.080,0.066,0.160*5D
###2023-12-09 13:03:52.995732$GNZDA,180352.10,09,12,2023,00,00*7D
###2023-12-09 13:03:52.996372$GNEBP,,,,,,M*13
###2023-12-09 13:03:53.163667$GNGGA,180352.30,4138.0595140,N,07032.3695603,W,1,24,0.6,13.387,M,-29.744,M,0.0,*57
###2023-12-09 13:03:53.365576$GNGGA,180352.50,4138.0594954,N,07032.3693198,W,1,24,0.6,13.374,M,-29.744,M,0.0,*52
###2023-12-09 13:03:53.565818$GNGGA,180352.70,4138.0594795,N,07032.3690708,W,1,24,0.6,13.383,M,-29.744,M,0.0,*57
###2023-12-09 13:03:53.769260$GNGGA,180352.90,4138.0594623,N,07032.3688179,W,1,24,0.6,13.366,M,-29.744,M,0.0,*57
###2023-12-09 13:03:53.966552$GNRMC,180353.10,A,4138.0594558,N,07032.3685707,W,3.40,90.80,091223,,,A*62
###2023-12-09 13:03:53.969417$GNGGA,180353.10,4138.0594558,N,07032.3685707,W,1,24,0.6,13.364,M,-29.744,M,0.0,*51
###2023-12-09 13:03:53.971300$GPGSA,A,3,03,04,16,26,28,29,31,32,,,,,1.1,0.6,0.9*3B
###2023-12-09 13:03:53.973020$GLGSA,A,3,65,71,72,73,74,75,,,,,,,1.1,0.6,0.9*24
###2023-12-09 13:03:53.974621$GAGSA,A,3,04,19,21,27,,,,,,,,,1.1,0.6,0.9*26
###2023-12-09 13:03:53.976270$GBGSA,A,3,14,24,25,26,33,,,,,,,,1.1,0.6,0.9*2F
###2023-12-09 13:03:53.978619$GPGSV,2,1,08,03,34,260,46,04,33,311,44,16,51,213,48,26,81,210,49*7B
###2023-12-09 13:03:53.980962$GPGSV,2,2,08,28,48,071,44,29,25,060,41,31,68,040,47,32,18,140,42*7E
###2023-12-09 13:03:53.983315$GLGSV,2,1,06,65,25,327,41,71,40,173,46,72,73,265,46,73,35,042,43*63
###2023-12-09 13:03:53.985069$GLGSV,2,2,06,74,69,340,43,75,33,254,47,,,,,,,,*6D
###2023-12-09 13:03:53.987406$GAGSV,1,1,04,04,30,312,39,19,84,213,41,21,86,114,46,27,32,048,42*65
###2023-12-09 13:03:53.989743$GBGSV,2,1,05,14,43,193,46,24,73,026,47,25,41,263,46,26,26,063,41*64
###2023-12-09 13:03:53.991211$GBGSV,2,2,05,33,57,231,47,,,,,,,,,,,,*5F
###2023-12-09 13:03:53.992508$GNVTG,90.80,T,,M,3.40,N,6.30,K,A*10
###2023-12-09 13:03:53.994164$GNGST,180353.10,18.000,,,,0.080,0.066,0.150*5F
###2023-12-09 13:03:53.995471$GNZDA,180353.10,09,12,2023,00,00*7C
###2023-12-09 13:03:53.996116$GNEBP,,,,,,M*13
###2023-12-09 13:03:54.163567$GNGGA,180353.30,4138.0594491,N,07032.3683127,W,1,24,0.6,13.365,M,-29.744,M,0.0,*54
###2023-12-09 13:03:54.364581$GNGGA,180353.50,4138.0594400,N,07032.3680535,W,1,24,0.6,13.347,M,-29.744,M,0.0,*5E
###2023-12-09 13:03:54.564491$GNGGA,180353.70,4138.0594366,N,07032.3677997,W,1,24,0.6,13.347,M,-29.744,M,0.0,*57
###2023-12-09 13:03:54.764770$GNGGA,180353.90,4138.0594414,N,07032.3675462,W,1,24,0.6,13.356,M,-29.744,M,0.0,*5E
###2023-12-09 13:03:54.968510$GNRMC,180354.10,A,4138.0594356,N,07032.3672861,W,3.50,94.59,091223,,,A*6B
###2023-12-09 13:03:54.971347$GNGGA,180354.10,4138.0594356,N,07032.3672861,W,1,24,0.6,13.341,M,-29.744,M,0.0,*5E
###2023-12-09 13:03:54.973189$GPGSA,A,3,03,04,16,26,28,29,31,32,,,,,1.1,0.6,0.9*3B
###2023-12-09 13:03:54.974904$GLGSA,A,3,65,71,72,73,74,75,,,,,,,1.1,0.6,0.9*24
###2023-12-09 13:03:54.976475$GAGSA,A,3,04,19,21,27,,,,,,,,,1.1,0.6,0.9*26
###2023-12-09 13:03:54.978107$GBGSA,A,3,14,24,25,26,33,,,,,,,,1.1,0.6,0.9*2F
###2023-12-09 13:03:54.980433$GPGSV,2,1,08,03,34,260,47,04,33,311,43,16,51,213,48,26,81,210,49*7D
###2023-12-09 13:03:54.982759$GPGSV,2,2,08,28,48,071,45,29,25,060,42,31,68,040,48,32,18,140,42*73
###2023-12-09 13:03:54.985069$GLGSV,2,1,06,65,25,327,41,71,40,173,46,72,73,265,46,73,35,042,44*64
###2023-12-09 13:03:54.986825$GLGSV,2,2,06,74,69,340,43,75,33,254,46,,,,,,,,*6C
###2023-12-09 13:03:54.989134$GAGSV,1,1,04,04,30,312,40,19,84,213,41,21,86,114,46,27,32,048,43*6A
###2023-12-09 13:03:54.991466$GBGSV,2,1,05,14,43,193,47,24,73,026,49,25,41,263,47,26,26,063,43*68
###2023-12-09 13:03:54.992910$GBGSV,2,2,05,33,57,231,49,,,,,,,,,,,,*51
###2023-12-09 13:03:54.994186$GNVTG,94.59,T,,M,3.50,N,6.48,K,A*1E
###2023-12-09 13:03:54.995834$GNGST,180354.10,18.000,,,,0.080,0.066,0.150*58
###2023-12-09 13:03:54.997116$GNZDA,180354.10,09,12,2023,00,00*7B
###2023-12-09 13:03:54.997749$GNEBP,,,,,,M*13
###2023-12-09 13:03:55.166440$GNGGA,180354.30,4138.0594362,N,07032.3670384,W,1,24,0.6,13.335,M,-29.744,M,0.0,*5A
###2023-12-09 13:03:55.364274$GNGGA,180354.50,4138.0594412,N,07032.3667809,W,1,24,0.6,13.338,M,-29.744,M,0.0,*59
###2023-12-09 13:03:55.564479$GNGGA,180354.70,4138.0594426,N,07032.3665340,W,1,24,0.6,13.322,M,-29.744,M,0.0,*53
###2023-12-09 13:03:55.765942$GNGGA,180354.90,4138.0594488,N,07032.3662844,W,1,24,0.6,13.339,M,-29.744,M,0.0,*5B
###2023-12-09 13:03:55.966444$GNRMC,180355.10,A,4138.0594413,N,07032.3660276,W,3.36,94.66,091223,,,A*6F
###2023-12-09 13:03:55.969313$GNGGA,180355.10,4138.0594413,N,07032.3660276,W,1,24,0.6,13.311,M,-29.744,M,0.0,*53
###2023-12-09 13:03:55.971183$GPGSA,A,3,03,04,16,26,28,29,31,32,,,,,1.1,0.6,0.9*3B
###2023-12-09 13:03:55.972888$GLGSA,A,3,65,71,72,73,74,75,,,,,,,1.1,0.6,0.9*24
###2023-12-09 13:03:55.974465$GAGSA,A,3,04,19,21,27,,,,,,,,,1.1,0.6,0.9*26
###2023-12-09 13:03:55.976118$GBGSA,A,3,14,24,25,26,33,,,,,,,,1.1,0.6,0.9*2F
###2023-12-09 13:03:55.978444$GPGSV,2,1,08,03,34,260,46,04,33,311,43,16,51,213,49,26,81,210,49*7D
###2023-12-09 13:03:55.980778$GPGSV,2,2,08,28,48,071,45,29,25,060,43,31,68,040,48,32,18,140,43*73
###2023-12-09 13:03:55.983121$GLGSV,2,1,06,65,25,327,40,71,40,173,47,72,73,265,46,73,35,042,44*64
###2023-12-09 13:03:55.984879$GLGSV,2,2,06,74,69,340,43,75,33,254,47,,,,,,,,*6D
###2023-12-09 13:03:55.987216$GAGSV,1,1,04,04,30,312,39,19,84,213,40,21,86,114,45,27,32,048,42*67
###2023-12-09 13:03:55.989547$GBGSV,2,1,05,14,43,193,46,24,73,026,48,25,41,263,46,26,26,063,42*68
###2023-12-09 13:03:55.991008$GBGSV,2,2,05,33,57,231,49,,,,,,,,,,,,*51
###2023-12-09 13:03:55.992294$GNVTG,94.66,T,,M,3.36,N,6.23,K,A*1F
###2023-12-09 13:03:55.993932$GNGST,180355.10,18.000,,,,0.079,0.065,0.150*5C
###2023-12-09 13:03:55.995230$GNZDA,180355.10,09,12,2023,00,00*7A
###2023-12-09 13:03:55.995869$GNEBP,,,,,,M*13
###2023-12-09 13:03:56.164628$GNGGA,180355.30,4138.0594390,N,07032.3657867,W,1,24,0.6,13.312,M,-29.744,M,0.0,*50
###2023-12-09 13:03:56.365375$GNGGA,180355.50,4138.0594528,N,07032.3655355,W,1,24,0.6,13.321,M,-29.744,M,0.0,*5B
###2023-12-09 13:03:56.565350$GNGGA,180355.70,4138.0594417,N,07032.3652877,W,1,24,0.6,13.298,M,-29.744,M,0.0,*5B
###2023-12-09 13:03:56.765591$GNGGA,180355.90,4138.0594273,N,07032.3650404,W,1,24,0.6,13.306,M,-29.744,M,0.0,*5D
###2023-12-09 13:03:56.974616$GNRMC,180356.10,A,4138.0594151,N,07032.3647860,W,3.38,94.15,091223,,,A*6D
###2023-12-09 13:03:56.977477$GNGGA,180356.10,4138.0594151,N,07032.3647860,W,1,24,0.6,13.302,M,-29.744,M,0.0,*59
###2023-12-09 13:03:56.979353$GPGSA,A,3,03,04,16,26,28,29,31,32,,,,,1.1,0.6,0.9*3B
###2023-12-09 13:03:56.981064$GLGSA,A,3,65,71,72,73,74,75,,,,,,,1.1,0.6,0.9*24
