###2023-12-09 12:52:54.966941$GPGSV,2,1,08,03,37,267,43,04,29,311,43,16,45,210,43,26,75,209,47*76
###2023-12-09 12:52:54.969286$GPGSV,2,2,08,28,52,066,44,29,26,065,42,31,71,026,47,32,23,138,44*7F
###2023-12-09 12:52:54.971660$GLGSV,2,1,06,65,20,328,42,71,45,172,47,72,72,285,47,73,39,039,47*65
###2023-12-09 12:52:54.973415$GLGSV,2,2,06,74,71,324,44,75,28,248,45,,,,,,,,*64
###2023-12-09 12:52:54.975746$GAGSV,1,1,04,04,26,312,41,19,85,252,40,21,84,154,46,27,36,048,43*6B
###2023-12-09 12:52:54.978070$GBGSV,2,1,05,14,47,194,44,24,76,016,49,25,38,259,45,26,29,061,42*67
###2023-12-09 12:52:54.979533$GBGSV,2,2,05,33,60,238,47,,,,,,,,,,,,*52
###2023-12-09 12:52:54.980853$GNVTG,213.07,T,,M,0.99,N,1.84,K,A*29
###2023-12-09 12:52:54.982492$GNGST,175254.10,18.000,,,,0.077,0.065,0.150*58
###2023-12-09 12:52:54.983794$GNZDA,175254.10,09,12,2023,00,00*70
###2023-12-09 12:52:54.984433$GNEBP,,,,,,M*13
###2023-12-09 12:52:55.154697$GNGGA,175254.30,4138.0583139,N,07032.3823536,W,1,24,0.6,13.312,M,-29.744,M,0.0,*59
###2023-12-09 12:52:55.355215$GNGGA,175254.50,4138.0582602,N,07032.3823673,W,1,24,0.6,13.303,M,-29.744,M,0.0,*53
###2023-12-09 12:52:55.555873$GNGGA,175254.70,4138.0582078,N,07032.3823925,W,1,24,0.6,13.298,M,-29.744,M,0.0,*55
###2023-12-09 12:52:55.754053$GNGGA,175254.90,4138.0581616,N,07032.3824333,W,1,24,0.6,13.305,M,-29.744,M,0.0,*59
###2023-12-09 12:52:55.958490$GNRMC,175255.10,A,4138.0581229,N,07032.3824756,W,0.82,213.21,091223,,,A*54
###2023-12-09 12:52:55.961381$GNGGA,175255.10,4138.0581229,N,07032.3824756,W,1,24,0.6,13.316,M,-29.744,M,0.0,*5D
###2023-12-09 12:52:55.963248$GPGSA,A,3,03,04,16,26,28,29,31,32,,,,,1.1,0.6,0.9*3B
###2023-12-09 12:52:55.964955$GLGSA,A,3,65,71,72,73,74,75,,,,,,,1.1,0.6,0.9*24
###2023-12-09 12:52:55.966530$GAGSA,A,3,04,19,21,27,,,,,,,,,1.1,0.6,0.9*26
###2023-12-09 12:52:55.968179$GBGSA,A,3,14,24,25,26,33,,,,,,,,1.1,0.6,0.9*2F
###2023-12-09 12:52:55.970491$GPGSV,2,1,08,03,37,267,43,04,29,311,43,16,45,210,42,26,75,209,47*77
###2023-12-09 12:52:55.972824$GPGSV,2,2,08,28,52,066,45,29,26,065,42,31,71,026,47,32,23,138,44*7E
###2023-12-09 12:52:55.975162$GLGSV,2,1,06,65,20,328,42,71,45,172,47,72,72,285,47,73,39,039,48*6A
###2023-12-09 12:52:55.976902$GLGSV,2,2,06,74,71,324,44,75,29,249,43,,,,,,,,*62
###2023-12-09 12:52:55.979229$GAGSV,1,1,04,04,26,312,41,19,85,252,40,21,84,154,46,27,36,048,44*6C
###2023-12-09 12:52:55.981549$GBGSV,2,1,05,14,47,194,45,24,76,016,49,25,38,259,45,26,29,061,44*60
###2023-12-09 12:52:55.983007$GBGSV,2,2,05,33,60,238,47,,,,,,,,,,,,*52
###2023-12-09 12:52:55.984321$GNVTG,213.21,T,,M,0.82,N,1.51,K,A*2F
###2023-12-09 12:52:55.985961$GNGST,175255.10,18.000,,,,0.077,0.065,0.150*59
###2023-12-09 12:52:55.987269$GNZDA,175255.10,09,12,2023,00,00*71
###2023-12-09 12:52:55.987910$GNEBP,,,,,,M*13
###2023-12-09 12:52:56.154940$GNGGA,175255.30,4138.0580851,N,07032.3825114,W,1,24,0.6,13.331,M,-29.744,M,0.0,*5F
###2023-12-09 12:52:56.355864$GNGGA,175255.50,4138.0580400,N,07032.3825416,W,1,24,0.6,13.331,M,-29.744,M,0.0,*56
###2023-12-09 12:52:56.554801$GNGGA,175255.70,4138.0579914,N,07032.3825627,W,1,24,0.6,13.298,M,-29.744,M,0.0,*58
###2023-12-09 12:52:56.753500$GNGGA,175255.90,4138.0579521,N,07032.3825995,W,1,24,0.6,13.300,M,-29.744,M,0.0,*5A
###2023-12-09 12:52:56.964444$GNRMC,175256.10,A,4138.0579250,N,07032.3826585,W,0.86,213.21,091223,,,A*54
###2023-12-09 12:52:56.967333$GNGGA,175256.10,4138.0579250,N,07032.3826585,W,1,24,0.6,13.341,M,-29.744,M,0.0,*5B
###2023-12-09 12:52:56.969228$GPGSA,A,3,03,04,16,26,28,29,31,32,,,,,1.1,0.6,0.9*3B
###2023-12-09 12:52:56.970962$GLGSA,A,3,65,71,72,73,74,75,,,,,,,1.1,0.6,0.9*24
###2023-12-09 12:52:56.972546$GAGSA,A,3,04,19,21,27,,,,,,,,,1.1,0.6,0.9*26
###2023-12-09 12:52:56.974195$GBGSA,A,3,14,24,25,26,33,,,,,,,,1.1,0.6,0.9*2F
###2023-12-09 12:52:56.976554$GPGSV,2,1,08,03,37,267,42,04,29,311,42,16,45,210,43,26,75,209,46*77
###2023-12-09 12:52:56.978933$GPGSV,2,2,08,28,52,066,44,29,26,065,43,31,71,026,47,32,23,138,44*7E
###2023-12-09 12:52:56.981270$GLGSV,2,1,06,65,20,328,43,71,45,172,48,72,72,285,47,73,39,039,48*64
###2023-12-09 12:52:56.983029$GLGSV,2,2,06,74,71,324,44,75,29,249,44,,,,,,,,*65
###2023-12-09 12:52:56.985358$GAGSV,1,1,04,04,26,312,40,19,85,252,40,21,84,154,46,27,36,048,44*6D
###2023-12-09 12:52:56.987696$GBGSV,2,1,05,14,47,194,45,24,76,016,49,25,38,259,44,26,29,061,45*60
###2023-12-09 12:52:56.989151$GBGSV,2,2,05,33,60,238,47,,,,,,,,,,,,*52
###2023-12-09 12:52:56.990476$GNVTG,213.21,T,,M,0.86,N,1.58,K,A*22
###2023-12-09 12:52:56.992137$GNGST,175256.10,18.000,,,,0.076,0.065,0.150*5B
###2023-12-09 12:52:56.993432$GNZDA,175256.10,09,12,2023,00,00*72
###2023-12-09 12:52:56.994072$GNEBP,,,,,,M*13
###2023-12-09 12:52:57.159164$GNGGA,175256.30,4138.0579018,N,07032.3827056,W,1,24,0.6,13.359,M,-29.744,M,0.0,*54
###2023-12-09 12:52:57.360929$GNGGA,175256.50,4138.0578585,N,07032.3827279,W,1,24,0.6,13.330,M,-29.744,M,0.0,*52
###2023-12-09 12:52:57.556290$GNGGA,175256.70,4138.0578109,N,07032.3827494,W,1,24,0.6,13.293,M,-29.744,M,0.0,*5D
###2023-12-09 12:52:57.755304$GNGGA,175256.90,4138.0577835,N,07032.3827970,W,1,24,0.6,13.311,M,-29.744,M,0.0,*56
###2023-12-09 12:52:57.955762$GNRMC,175257.10,A,4138.0577730,N,07032.3828621,W,0.86,213.21,091223,,,A*5B
###2023-12-09 12:52:57.958626$GNGGA,175257.10,4138.0577730,N,07032.3828621,W,1,24,0.6,13.340,M,-29.744,M,0.0,*55
###2023-12-09 12:52:57.960496$GPGSA,A,3,03,04,16,26,28,29,31,32,,,,,1.1,0.6,0.9*3B
###2023-12-09 12:52:57.962216$GLGSA,A,3,65,71,72,73,74,75,,,,,,,1.1,0.6,0.9*24
###2023-12-09 12:52:57.963819$GAGSA,A,3,04,19,21,27,,,,,,,,,1.1,0.6,0.9*26
###2023-12-09 12:52:57.965473$GBGSA,A,3,14,24,25,26,33,,,,,,,,1.1,0.6,0.9*2F
###2023-12-09 12:52:57.967816$GPGSV,2,1,08,03,37,267,42,04,29,311,42,16,45,210,45,26,75,209,47*70
###2023-12-09 12:52:57.970153$GPGSV,2,2,08,28,52,066,46,29,26,065,43,31,71,026,48,32,23,138,43*74
###2023-12-09 12:52:57.972497$GLGSV,2,1,06,65,20,328,43,71,45,172,48,72,72,285,47,73,39,039,47*6B
###2023-12-09 12:52:57.974241$GLGSV,2,2,06,74,71,324,44,75,29,249,44,,,,,,,,*65
###2023-12-09 12:52:57.976616$GAGSV,1,1,04,04,26,312,41,19,85,252,41,21,84,154,47,27,36,048,45*6D
###2023-12-09 12:52:57.978961$GBGSV,2,1,05,14,47,194,45,24,76,016,49,25,38,259,44,26,29,061,44*61
###2023-12-09 12:52:57.980424$GBGSV,2,2,05,33,60,238,47,,,,,,,,,,,,*52
###2023-12-09 12:52:57.981743$GNVTG,213.21,T,,M,0.86,N,1.58,K,A*22
###2023-12-09 12:52:57.983401$GNGST,175257.10,18.000,,,,0.076,0.065,0.150*5A
###2023-12-09 12:52:57.984692$GNZDA,175257.10,09,12,2023,00,00*73
###2023-12-09 12:52:57.985329$GNEBP,,,,,,M*13
###2023-12-09 12:52:58.153149$GNGGA,175257.30,4138.0577529,N,07032.3829100,W,1,24,0.6,13.353,M,-29.744,M,0.0,*5A
###2023-12-09 12:52:58.353796$GNGGA,175257.50,4138.0577124,N,07032.3829335,W,1,24,0.6,13.334,M,-29.744,M,0.0,*50
###2023-12-09 12:52:58.553671$GNGGA,175257.70,4138.0576667,N,07032.3829568,W,1,24,0.6,13.293,M,-29.744,M,0.0,*51
###2023-12-09 12:52:58.754103$GNGGA,175257.90,4138.0576473,N,07032.3830080,W,1,24,0.6,13.301,M,-29.744,M,0.0,*59
###2023-12-09 12:52:58.955553$GNRMC,175258.10,A,4138.0576492,N,07032.3830724,W,0.95,213.21,091223,,,A*51
###2023-12-09 12:52:58.958404$GNGGA,175258.10,4138.0576492,N,07032.3830724,W,1,24,0.6,13.338,M,-29.744,M,0.0,*52
###2023-12-09 12:52:58.960277$GPGSA,A,3,03,04,16,26,28,29,31,32,,,,,1.1,0.6,0.9*3B
###2023-12-09 12:52:58.961989$GLGSA,A,3,65,71,72,73,74,75,,,,,,,1.1,0.6,0.9*24
###2023-12-09 12:52:58.963580$GAGSA,A,3,04,19,21,27,,,,,,,,,1.1,0.6,0.9*26
###2023-12-09 12:52:58.965238$GBGSA,A,3,14,24,25,26,33,,,,,,,,1.1,0.6,0.9*2F
###2023-12-09 12:52:58.967592$GPGSV,2,1,08,03,37,267,41,04,29,311,40,16,45,210,44,26,75,209,47*70
###2023-12-09 12:52:58.969974$GPGSV,2,2,08,28,52,066,45,29,26,065,42,31,71,026,47,32,23,138,42*78
###2023-12-09 12:52:58.972333$GLGSV,2,1,06,65,20,328,42,71,45,172,47,72,72,285,46,73,39,039,47*64
###2023-12-09 12:52:58.974094$GLGSV,2,2,06,74,71,324,44,75,29,249,45,,,,,,,,*64
###2023-12-09 12:52:58.976445$GAGSV,1,1,04,04,26,312,39,19,85,252,40,21,84,154,46,27,36,048,44*63
###2023-12-09 12:52:58.978798$GBGSV,2,1,05,14,47,194,44,24,76,016,48,25,38,259,43,26,29,061,43*61
###2023-12-09 12:52:58.980258$GBGSV,2,2,05,33,60,238,47,,,,,,,,,,,,*52
###2023-12-09 12:52:58.981831$GNVTG,213.21,T,,M,0.95,N,1.76,K,A*2C
###2023-12-09 12:52:58.983506$GNGST,175258.10,18.000,,,,0.076,0.065,0.150*55
###2023-12-09 12:52:58.984802$GNZDA,175258.10,09,12,2023,00,00*7C
###2023-12-09 12:52:58.985439$GNEBP,,,,,,M*13
###2023-12-09 12:52:59.154177$GNGGA,175258.30,4138.0576372,N,07032.3831225,W,1,24,0.6,13.339,M,-29.744,M,0.0,*5D
###2023-12-09 12:52:59.354175$GNGGA,175258.50,4138.0575969,N,07032.3831479,W,1,24,0.6,13.317,M,-29.744,M,0.0,*5B
###2023-12-09 12:52:59.554628$GNGGA,175258.70,4138.0575590,N,07032.3831780,W,1,24,0.6,13.282,M,-29.744,M,0.0,*5B
###2023-12-09 12:52:59.754463$GNGGA,175258.90,4138.0575558,N,07032.3832337,W,1,24,0.6,13.300,M,-29.744,M,0.0,*51
###2023-12-09 12:52:59.956745$GNRMC,175259.10,A,4138.0575684,N,07032.3832929,W,0.70,213.21,091223,,,A*5C
