###2023-12-09 12:43:04.143643$GNGGA,174303.30,4138.0435978,N,07032.3944382,W,1,24,0.6,13.288,M,-29.745,M,0.0,*50
###2023-12-09 12:43:04.344702$GNGGA,174303.50,4138.0435872,N,07032.3942723,W,1,24,0.6,13.268,M,-29.745,M,0.0,*5A
###2023-12-09 12:43:04.545015$GNGGA,174303.70,4138.0435698,N,07032.3941156,W,1,24,0.6,13.250,M,-29.745,M,0.0,*5E
###2023-12-09 12:43:04.751051$GNGGA,174303.90,4138.0435509,N,07032.3939559,W,1,24,0.6,13.263,M,-29.745,M,0.0,*5F
###2023-12-09 12:43:04.945087$GNRMC,174304.10,A,4138.0435229,N,07032.3937809,W,2.39,100.72,091223,,,A*5D
###2023-12-09 12:43:04.947977$GNGGA,174304.10,4138.0435229,N,07032.3937809,W,1,24,0.6,13.269,M,-29.745,M,0.0,*59
###2023-12-09 12:43:04.949850$GPGSA,A,3,03,04,16,26,28,29,31,32,,,,,1.1,0.6,0.9*3B
###2023-12-09 12:43:04.951588$GLGSA,A,3,65,71,72,73,74,75,,,,,,,1.1,0.6,0.9*24
###2023-12-09 12:43:04.953176$GAGSA,A,3,04,19,21,27,,,,,,,,,1.1,0.6,0.9*26
###2023-12-09 12:43:04.954842$GBGSA,A,3,14,24,25,26,33,,,,,,,,1.1,0.6,0.9*2F
###2023-12-09 12:43:04.957183$GPGSV,2,1,08,03,38,272,45,04,25,311,42,16,40,208,46,26,70,207,47*74
###2023-12-09 12:43:04.959541$GPGSV,2,2,08,28,55,060,45,29,25,070,39,31,72,013,47,32,27,136,40*7F
###2023-12-09 12:43:04.961890$GLGSV,2,1,06,65,16,329,42,71,52,170,46,72,68,302,46,73,44,035,46*67
###2023-12-09 12:43:04.963653$GLGSV,2,2,06,74,71,303,42,75,25,244,44,,,,,,,,*67
###2023-12-09 12:43:04.965991$GAGSV,1,1,04,04,23,312,41,19,84,288,40,21,81,170,46,27,39,049,44*62
###2023-12-09 12:43:04.968342$GBGSV,2,1,05,14,51,196,45,24,79,002,48,25,35,255,44,26,32,059,44*6F
###2023-12-09 12:43:04.969804$GBGSV,2,2,05,33,62,246,47,,,,,,,,,,,,*59
###2023-12-09 12:43:04.971141$GNVTG,100.72,T,,M,2.39,N,4.43,K,A*2C
###2023-12-09 12:43:04.972792$GNGST,174304.10,18.000,,,,0.080,0.072,0.170*51
###2023-12-09 12:43:04.974091$GNZDA,174304.10,09,12,2023,00,00*75
###2023-12-09 12:43:04.974743$GNEBP,,,,,,M*13
###2023-12-09 12:43:05.144991$GNGGA,174304.30,4138.0435017,N,07032.3936086,W,1,24,0.6,13.256,M,-29.745,M,0.0,*56
###2023-12-09 12:43:05.343933$GNGGA,174304.50,4138.0434854,N,07032.3934379,W,1,24,0.6,13.247,M,-29.745,M,0.0,*5F
###2023-12-09 12:43:05.545094$GNGGA,174304.70,4138.0434573,N,07032.3932612,W,1,24,0.6,13.257,M,-29.745,M,0.0,*5A
###2023-12-09 12:43:05.743812$GNGGA,174304.90,4138.0434220,N,07032.3930765,W,1,24,0.6,13.255,M,-29.745,M,0.0,*54
###2023-12-09 12:43:05.944143$GNRMC,174305.10,A,4138.0434016,N,07032.3928973,W,2.43,94.74,091223,,,A*66
###2023-12-09 12:43:05.947639$GNGGA,174305.10,4138.0434016,N,07032.3928973,W,1,24,0.6,13.253,M,-29.745,M,0.0,*5C
###2023-12-09 12:43:05.949939$GPGSA,A,3,03,04,16,26,28,29,31,32,,,,,1.1,0.6,0.9*3B
###2023-12-09 12:43:05.952053$GLGSA,A,3,65,71,72,73,74,75,,,,,,,1.1,0.6,0.9*24
###2023-12-09 12:43:05.953978$GAGSA,A,3,04,19,21,27,,,,,,,,,1.1,0.6,0.9*26
###2023-12-09 12:43:05.955995$GBGSA,A,3,14,24,25,26,33,,,,,,,,1.1,0.6,0.9*2F
###2023-12-09 12:43:05.958842$GPGSV,2,1,08,03,38,272,46,04,25,311,40,16,40,208,46,26,70,207,47*75
###2023-12-09 12:43:05.961666$GPGSV,2,2,08,28,55,060,45,29,25,070,40,31,72,013,46,32,27,136,40*70
###2023-12-09 12:43:05.964504$GLGSV,2,1,06,65,16,329,40,71,51,170,47,72,68,302,47,73,44,035,47*67
###2023-12-09 12:43:05.966634$GLGSV,2,2,06,74,71,303,42,75,25,244,43,,,,,,,,*60
###2023-12-09 12:43:05.969450$GAGSV,1,1,04,04,23,312,40,19,84,288,40,21,81,170,46,27,39,049,44*63
###2023-12-09 12:43:05.972300$GBGSV,2,1,05,14,51,196,46,24,79,002,48,25,35,255,45,26,32,059,44*6D
###2023-12-09 12:43:05.974069$GBGSV,2,2,05,33,62,246,47,,,,,,,,,,,,*59
###2023-12-09 12:43:05.975646$GNVTG,94.74,T,,M,2.43,N,4.50,K,A*19
###2023-12-09 12:43:05.977640$GNGST,174305.10,18.000,,,,0.080,0.072,0.160*51
###2023-12-09 12:43:05.979218$GNZDA,174305.10,09,12,2023,00,00*74
###2023-12-09 12:43:05.979998$GNEBP,,,,,,M*13
###2023-12-09 12:43:06.143538$GNGGA,174305.30,4138.0433951,N,07032.3927130,W,1,24,0.6,13.254,M,-29.745,M,0.0,*54
###2023-12-09 12:43:06.343230$GNGGA,174305.50,4138.0433798,N,07032.3925236,W,1,24,0.6,13.254,M,-29.745,M,0.0,*5E
###2023-12-09 12:43:06.543599$GNGGA,174305.70,4138.0433599,N,07032.3923318,W,1,24,0.6,13.263,M,-29.745,M,0.0,*50
###2023-12-09 12:43:06.743755$GNGGA,174305.90,4138.0433452,N,07032.3921407,W,1,24,0.6,13.262,M,-29.745,M,0.0,*52
###2023-12-09 12:43:06.943862$GNRMC,174306.10,A,4138.0433533,N,07032.3919506,W,2.60,81.93,091223,,,A*60
###2023-12-09 12:43:06.947376$GNGGA,174306.10,4138.0433533,N,07032.3919506,W,1,24,0.6,13.260,M,-29.745,M,0.0,*56
###2023-12-09 12:43:06.949663$GPGSA,A,3,03,04,16,26,28,29,31,32,,,,,1.1,0.6,0.9*3B
###2023-12-09 12:43:06.951768$GLGSA,A,3,65,71,72,73,74,75,,,,,,,1.1,0.6,0.9*24
###2023-12-09 12:43:06.953687$GAGSA,A,3,04,19,21,27,,,,,,,,,1.1,0.6,0.9*26
###2023-12-09 12:43:06.955696$GBGSA,A,3,14,24,25,26,33,,,,,,,,1.1,0.6,0.9*2F
###2023-12-09 12:43:06.958508$GPGSV,2,1,08,03,38,272,45,04,25,311,40,16,40,208,45,26,70,207,48*7A
###2023-12-09 12:43:06.961352$GPGSV,2,2,08,28,55,060,44,29,25,070,41,31,72,013,47,32,27,136,42*73
###2023-12-09 12:43:06.964184$GLGSV,2,1,06,65,16,329,41,71,51,170,46,72,69,300,46,73,44,035,46*64
###2023-12-09 12:43:06.966301$GLGSV,2,2,06,74,71,303,42,75,25,244,43,,,,,,,,*60
###2023-12-09 12:43:06.969136$GAGSV,1,1,04,04,23,312,40,19,84,288,40,21,81,170,46,27,39,049,44*63
###2023-12-09 12:43:06.971963$GBGSV,2,1,05,14,51,196,46,24,79,002,49,25,35,255,45,26,32,059,42*6A
###2023-12-09 12:43:06.973753$GBGSV,2,2,05,33,62,246,48,,,,,,,,,,,,*56
###2023-12-09 12:43:06.975334$GNVTG,81.93,T,,M,2.60,N,4.82,K,A*1A
###2023-12-09 12:43:06.977334$GNGST,174306.10,18.000,,,,0.079,0.071,0.160*57
###2023-12-09 12:43:06.978902$GNZDA,174306.10,09,12,2023,00,00*77
###2023-12-09 12:43:06.979674$GNEBP,,,,,,M*13
###2023-12-09 12:43:07.142837$GNGGA,174306.30,4138.0433688,N,07032.3917619,W,1,24,0.6,13.257,M,-29.745,M,0.0,*50
###2023-12-09 12:43:07.344307$GNGGA,174306.50,4138.0433701,N,07032.3915732,W,1,24,0.6,13.266,M,-29.745,M,0.0,*5E
###2023-12-09 12:43:07.543484$GNGGA,174306.70,4138.0433759,N,07032.3913736,W,1,24,0.6,13.269,M,-29.745,M,0.0,*5C
###2023-12-09 12:43:07.745301$GNGGA,174306.90,4138.0434029,N,07032.3911835,W,1,24,0.6,13.256,M,-29.745,M,0.0,*57
###2023-12-09 12:43:07.944050$GNRMC,174307.10,A,4138.0434435,N,07032.3910041,W,2.55,71.49,091223,,,A*60
###2023-12-09 12:43:07.947589$GNGGA,174307.10,4138.0434435,N,07032.3910041,W,1,24,0.6,13.262,M,-29.745,M,0.0,*5A
###2023-12-09 12:43:07.949876$GPGSA,A,3,03,04,16,26,28,29,31,32,,,,,1.1,0.6,0.9*3B
###2023-12-09 12:43:07.951987$GLGSA,A,3,65,71,72,73,74,75,,,,,,,1.1,0.6,0.9*24
###2023-12-09 12:43:07.953913$GAGSA,A,3,04,19,21,27,,,,,,,,,1.1,0.6,0.9*26
###2023-12-09 12:43:07.955940$GBGSA,A,3,14,24,25,26,33,,,,,,,,1.1,0.6,0.9*2F
###2023-12-09 12:43:07.958795$GPGSV,2,1,08,03,38,272,43,04,25,311,41,16,40,208,44,26,70,207,47*73
###2023-12-09 12:43:07.961629$GPGSV,2,2,08,28,55,060,43,29,25,070,41,31,72,013,47,32,27,136,42*74
###2023-12-09 12:43:07.964474$GLGSV,2,1,06,65,16,329,42,71,51,170,47,72,69,300,46,73,44,036,46*65
###2023-12-09 12:43:07.966660$GLGSV,2,2,06,74,71,303,42,75,25,244,43,,,,,,,,*60
###2023-12-09 12:43:07.969490$GAGSV,1,1,04,04,23,312,41,19,84,288,40,21,81,170,46,27,39,049,41*67
###2023-12-09 12:43:07.972337$GBGSV,2,1,05,14,51,196,45,24,79,002,48,25,35,255,45,26,32,059,42*68
###2023-12-09 12:43:07.974107$GBGSV,2,2,05,33,62,246,46,,,,,,,,,,,,*58
###2023-12-09 12:43:07.975683$GNVTG,71.49,T,,M,2.55,N,4.72,K,A*1B
###2023-12-09 12:43:07.977692$GNGST,174307.10,18.000,,,,0.079,0.071,0.160*56
###2023-12-09 12:43:07.979276$GNZDA,174307.10,09,12,2023,00,00*76
###2023-12-09 12:43:07.980050$GNEBP,,,,,,M*13
###2023-12-09 12:43:08.144140$GNGGA,174307.30,4138.0434777,N,07032.3908108,W,1,24,0.6,13.268,M,-29.745,M,0.0,*52
###2023-12-09 12:43:08.344401$GNGGA,174307.50,4138.0435173,N,07032.3906237,W,1,24,0.6,13.255,M,-29.745,M,0.0,*58
###2023-12-09 12:43:08.544632$GNGGA,174307.70,4138.0435840,N,07032.3904516,W,1,24,0.6,13.265,M,-29.745,M,0.0,*56
###2023-12-09 12:43:08.743524$GNGGA,174307.90,4138.0436408,N,07032.3902682,W,1,24,0.6,13.250,M,-29.745,M,0.0,*55
###2023-12-09 12:43:08.950937$GNRMC,174308.10,A,4138.0437153,N,07032.3901029,W,2.70,52.47,091223,,,A*6F
###2023-12-09 12:43:08.954401$GNGGA,174308.10,4138.0437153,N,07032.3901029,W,1,24,0.6,13.248,M,-29.745,M,0.0,*55
###2023-12-09 12:43:08.956963$GPGSA,A,3,03,04,16,26,28,29,31,32,,,,,1.1,0.6,0.9*3B
###2023-12-09 12:43:08.959102$GLGSA,A,3,65,71,72,73,74,75,,,,,,,1.1,0.6,0.9*24
###2023-12-09 12:43:08.961029$GAGSA,A,3,04,19,21,27,,,,,,,,,1.1,0.6,0.9*26
###2023-12-09 12:43:08.963039$GBGSA,A,3,14,24,25,26,33,,,,,,,,1.1,0.6,0.9*2F
###2023-12-09 12:43:08.965868$GPGSV,2,1,08,03,38,272,43,04,25,311,42,16,40,208,44,26,70,207,48*7F
###2023-12-09 12:43:08.968719$GPGSV,2,2,08,28,55,060,44,29,25,070,40,31,72,013,47,32,27,136,44*74
###2023-12-09 12:43:08.971583$GLGSV,2,1,06,65,16,329,43,71,51,170,48,72,69,300,46,73,44,036,44*69
###2023-12-09 12:43:08.973695$GLGSV,2,2,06,74,71,307,42,75,25,244,43,,,,,,,,*64
###2023-12-09 12:43:08.976566$GAGSV,1,1,04,04,23,312,42,19,84,288,40,21,81,170,46,27,39,049,41*64
###2023-12-09 12:43:08.979412$GBGSV,2,1,05,14,51,196,44,24,79,002,48,25,35,255,44,26,32,059,44*6E
