###2023-12-09 13:07:11.987862$GLGSV,2,2,06,74,68,345,42,75,34,256,42,,,,,,,,*68
###2023-12-09 13:07:11.990209$GAGSV,1,1,04,04,31,312,39,19,83,203,40,21,85,092,46,27,31,048,41*6F
###2023-12-09 13:07:11.992577$GBGSV,2,1,06,14,41,192,46,24,72,029,49,25,42,264,44,26,24,064,42*64
###2023-12-09 13:07:11.994341$GBGSV,2,2,06,33,56,229,48,35,15,067,44,,,,,,,,*68
###2023-12-09 13:07:11.995680$GNVTG,279.43,T,,M,3.17,N,5.87,K,A*27
###2023-12-09 13:07:11.997335$GNGST,180711.10,18.000,,,,0.081,0.068,0.150*52
###2023-12-09 13:07:11.998676$GNZDA,180711.10,09,12,2023,00,00*7E
###2023-12-09 13:07:11.999324$GNEBP,,,,,,M*13
###2023-12-09 13:07:12.166631$GNGGA,180711.30,4138.0725495,N,07032.3676383,W,1,25,0.6,13.050,M,-29.743,M,0.0,*5F
###2023-12-09 13:07:12.366650$GNGGA,180711.50,4138.0725871,N,07032.3678684,W,1,25,0.6,13.051,M,-29.743,M,0.0,*52
###2023-12-09 13:07:12.568388$GNGGA,180711.70,4138.0726242,N,07032.3680964,W,1,25,0.6,13.062,M,-29.743,M,0.0,*5F
###2023-12-09 13:07:12.767482$GNGGA,180711.90,4138.0726533,N,07032.3683189,W,1,25,0.6,13.068,M,-29.743,M,0.0,*52
###2023-12-09 13:07:12.970303$GNRMC,180712.10,A,4138.0726803,N,07032.3685327,W,2.80,277.30,091223,,,A*50
###2023-12-09 13:07:12.973189$GNGGA,180712.10,4138.0726803,N,07032.3685327,W,1,25,0.6,13.071,M,-29.743,M,0.0,*5F
###2023-12-09 13:07:12.975069$GPGSA,A,3,03,04,16,26,28,29,31,32,,,,,1.1,0.6,0.9*3B
###2023-12-09 13:07:12.976792$GLGSA,A,3,65,71,72,73,74,75,,,,,,,1.1,0.6,0.9*24
###2023-12-09 13:07:12.978381$GAGSA,A,3,04,19,21,27,,,,,,,,,1.1,0.6,0.9*26
###2023-12-09 13:07:12.980144$GBGSA,A,3,14,24,25,26,33,35,,,,,,,1.1,0.6,0.9*29
###2023-12-09 13:07:12.982475$GPGSV,2,1,08,03,34,258,41,04,35,311,42,16,52,213,45,26,82,210,48*7B
###2023-12-09 13:07:12.984830$GPGSV,2,2,08,28,48,072,44,29,25,059,40,31,68,042,47,32,17,141,43*7B
###2023-12-09 13:07:12.987174$GLGSV,2,1,06,65,26,326,38,71,37,173,47,72,72,258,45,73,33,043,44*62
###2023-12-09 13:07:12.988924$GLGSV,2,2,06,74,68,345,42,75,34,256,42,,,,,,,,*68
###2023-12-09 13:07:12.991266$GAGSV,1,1,04,04,31,312,40,19,83,203,40,21,85,092,46,27,31,048,40*60
###2023-12-09 13:07:12.993597$GBGSV,2,1,06,14,41,192,46,24,72,029,49,25,42,264,44,26,24,064,41*67
###2023-12-09 13:07:12.995355$GBGSV,2,2,06,33,56,229,48,35,15,067,44,,,,,,,,*68
###2023-12-09 13:07:12.996679$GNVTG,277.30,T,,M,2.80,N,5.18,K,A*24
###2023-12-09 13:07:12.998328$GNGST,180712.10,18.000,,,,0.081,0.068,0.150*51
###2023-12-09 13:07:12.999634$GNZDA,180712.10,09,12,2023,00,00*7D
###2023-12-09 13:07:13.000278$GNEBP,,,,,,M*13
###2023-12-09 13:07:13.166416$GNGGA,180712.30,4138.0727107,N,07032.3687362,W,1,25,0.6,13.080,M,-29.743,M,0.0,*5C
###2023-12-09 13:07:13.366937$GNGGA,180712.50,4138.0727497,N,07032.3689346,W,1,25,0.6,13.096,M,-29.743,M,0.0,*59
###2023-12-09 13:07:13.567315$GNGGA,180712.70,4138.0727832,N,07032.3691313,W,1,25,0.6,13.109,M,-29.743,M,0.0,*56
###2023-12-09 13:07:13.767393$GNGGA,180712.90,4138.0728073,N,07032.3693263,W,1,25,0.6,13.114,M,-29.743,M,0.0,*52
###2023-12-09 13:07:13.970330$GNRMC,180713.10,A,4138.0728242,N,07032.3695190,W,2.62,275.06,091223,,,A*54
###2023-12-09 13:07:13.973219$GNGGA,180713.10,4138.0728242,N,07032.3695190,W,1,25,0.6,13.121,M,-29.743,M,0.0,*54
###2023-12-09 13:07:13.975096$GPGSA,A,3,03,04,16,26,28,29,31,32,,,,,1.1,0.6,0.9*3B
###2023-12-09 13:07:13.976813$GLGSA,A,3,65,71,72,73,74,75,,,,,,,1.1,0.6,0.9*24
###2023-12-09 13:07:13.978396$GAGSA,A,3,04,19,21,27,,,,,,,,,1.1,0.6,0.9*26
###2023-12-09 13:07:13.980120$GBGSA,A,3,14,24,25,26,33,35,,,,,,,1.1,0.6,0.9*29
###2023-12-09 13:07:13.982450$GPGSV,2,1,08,03,34,258,44,04,35,311,44,16,52,213,48,26,82,210,49*74
###2023-12-09 13:07:13.984798$GPGSV,2,2,08,28,48,072,46,29,25,059,42,31,68,042,49,32,17,141,44*72
###2023-12-09 13:07:13.987142$GLGSV,2,1,06,65,26,326,40,71,37,173,46,72,72,258,45,73,33,043,43*6B
###2023-12-09 13:07:13.988893$GLGSV,2,2,06,74,68,345,42,75,34,256,43,,,,,,,,*69
###2023-12-09 13:07:13.991246$GAGSV,1,1,04,04,31,312,42,19,83,203,41,21,85,092,47,27,31,048,41*63
###2023-12-09 13:07:13.993581$GBGSV,2,1,06,14,41,192,45,24,72,029,48,25,42,264,44,26,24,064,42*66
###2023-12-09 13:07:13.995342$GBGSV,2,2,06,33,56,229,47,35,15,067,45,,,,,,,,*66
###2023-12-09 13:07:13.996669$GNVTG,275.06,T,,M,2.62,N,4.86,K,A*29
###2023-12-09 13:07:13.998320$GNGST,180713.10,18.000,,,,0.081,0.068,0.150*50
###2023-12-09 13:07:13.999625$GNZDA,180713.10,09,12,2023,00,00*7C
###2023-12-09 13:07:14.000267$GNEBP,,,,,,M*13
###2023-12-09 13:07:14.167515$GNGGA,180713.30,4138.0728364,N,07032.3697163,W,1,25,0.6,13.127,M,-29.743,M,0.0,*5B
###2023-12-09 13:07:14.367314$GNGGA,180713.50,4138.0728372,N,07032.3699176,W,1,25,0.6,13.120,M,-29.743,M,0.0,*57
###2023-12-09 13:07:14.568817$GNGGA,180713.70,4138.0728223,N,07032.3701178,W,1,25,0.6,13.120,M,-29.743,M,0.0,*5E
###2023-12-09 13:07:14.767703$GNGGA,180713.90,4138.0728081,N,07032.3703217,W,1,25,0.6,13.120,M,-29.743,M,0.0,*52
###2023-12-09 13:07:14.969159$GNRMC,180714.10,A,4138.0728039,N,07032.3705327,W,2.88,268.94,091223,,,A*58
###2023-12-09 13:07:14.972062$GNGGA,180714.10,4138.0728039,N,07032.3705327,W,1,25,0.6,13.129,M,-29.743,M,0.0,*53
###2023-12-09 13:07:14.973929$GPGSA,A,3,03,04,16,26,28,29,31,32,,,,,1.1,0.6,0.9*3B
###2023-12-09 13:07:14.975665$GLGSA,A,3,65,71,72,73,74,75,,,,,,,1.1,0.6,0.9*24
###2023-12-09 13:07:14.977261$GAGSA,A,3,04,19,21,27,,,,,,,,,1.1,0.6,0.9*26
###2023-12-09 13:07:14.978994$GBGSA,A,3,14,24,25,26,33,35,,,,,,,1.1,0.6,0.9*29
###2023-12-09 13:07:14.981342$GPGSV,2,1,08,03,34,258,43,04,35,311,41,16,52,213,47,26,82,210,48*78
###2023-12-09 13:07:14.983702$GPGSV,2,2,08,28,48,072,45,29,25,059,40,31,68,042,47,32,17,141,44*7D
###2023-12-09 13:07:14.986047$GLGSV,2,1,06,65,26,326,40,71,37,173,46,72,72,258,45,73,33,043,43*6B
###2023-12-09 13:07:14.987817$GLGSV,2,2,06,74,68,345,43,75,34,256,44,,,,,,,,*6F
###2023-12-09 13:07:14.990165$GAGSV,1,1,04,04,31,312,39,19,83,203,40,21,85,092,46,27,31,048,41*6F
###2023-12-09 13:07:14.992531$GBGSV,2,1,06,14,41,192,44,24,72,029,49,25,42,264,44,26,24,064,43*67
###2023-12-09 13:07:14.994293$GBGSV,2,2,06,33,56,229,48,35,15,067,45,,,,,,,,*69
###2023-12-09 13:07:14.995631$GNVTG,268.94,T,,M,2.88,N,5.33,K,A*25
###2023-12-09 13:07:14.997287$GNGST,180714.10,18.000,,,,0.081,0.068,0.150*57
###2023-12-09 13:07:14.998598$GNZDA,180714.10,09,12,2023,00,00*7B
###2023-12-09 13:07:14.999241$GNEBP,,,,,,M*13
###2023-12-09 13:07:15.168573$GNGGA,180714.30,4138.0728024,N,07032.3707488,W,1,25,0.6,13.137,M,-29.743,M,0.0,*52
###2023-12-09 13:07:15.366742$GNGGA,180714.50,4138.0727980,N,07032.3709696,W,1,25,0.6,13.143,M,-29.743,M,0.0,*5C
###2023-12-09 13:07:15.567294$GNGGA,180714.70,4138.0727925,N,07032.3711984,W,1,25,0.6,13.142,M,-29.743,M,0.0,*55
###2023-12-09 13:07:15.767348$GNGGA,180714.90,4138.0727947,N,07032.3714320,W,1,25,0.6,13.141,M,-29.743,M,0.0,*5D
###2023-12-09 13:07:15.970807$GNRMC,180715.10,A,4138.0728032,N,07032.3716661,W,3.23,275.48,091223,,,A*5A
###2023-12-09 13:07:15.973678$GNGGA,180715.10,4138.0728032,N,07032.3716661,W,1,25,0.6,13.148,M,-29.743,M,0.0,*5B
###2023-12-09 13:07:15.975556$GPGSA,A,3,03,04,16,26,28,29,31,32,,,,,1.1,0.6,0.9*3B
###2023-12-09 13:07:15.977276$GLGSA,A,3,65,71,72,73,74,75,,,,,,,1.1,0.6,0.9*24
###2023-12-09 13:07:15.978862$GAGSA,A,3,04,19,21,27,,,,,,,,,1.1,0.6,0.9*26
###2023-12-09 13:07:15.980558$GBGSA,A,3,14,24,25,26,33,35,,,,,,,1.1,0.6,0.9*29
###2023-12-09 13:07:15.982886$GPGSV,2,1,08,03,34,258,41,04,35,311,42,16,52,213,45,26,82,210,48*7B
###2023-12-09 13:07:15.985212$GPGSV,2,2,08,28,48,072,45,29,25,059,41,31,68,042,47,32,17,141,43*7B
###2023-12-09 13:07:15.987555$GLGSV,2,1,06,65,26,326,39,71,37,173,46,72,72,258,45,73,33,043,44*62
###2023-12-09 13:07:15.989315$GLGSV,2,2,06,74,68,345,41,75,34,256,42,,,,,,,,*6B
###2023-12-09 13:07:15.991649$GAGSV,1,1,04,04,31,312,40,19,83,203,40,21,85,092,46,27,31,048,41*61
###2023-12-09 13:07:15.993975$GBGSV,2,1,06,14,41,192,45,24,72,029,48,25,42,264,44,26,24,064,41*65
###2023-12-09 13:07:15.995723$GBGSV,2,2,06,33,56,229,47,35,15,067,43,,,,,,,,*60
###2023-12-09 13:07:15.997041$GNVTG,275.48,T,,M,3.23,N,5.98,K,A*29
###2023-12-09 13:07:15.998702$GNGST,180715.10,18.000,,,,0.081,0.068,0.150*56
###2023-12-09 13:07:15.999997$GNZDA,180715.10,09,12,2023,00,00*7A
###2023-12-09 13:07:16.000889$GNEBP,,,,,,M*13
###2023-12-09 13:07:16.166434$GNGGA,180715.30,4138.0728211,N,07032.3719025,W,1,25,0.6,13.152,M,-29.743,M,0.0,*58
###2023-12-09 13:07:16.367142$GNGGA,180715.50,4138.0728448,N,07032.3721337,W,1,25,0.6,13.157,M,-29.743,M,0.0,*5A
###2023-12-09 13:07:16.571446$GNGGA,180715.70,4138.0728705,N,07032.3723651,W,1,25,0.6,13.159,M,-29.743,M,0.0,*5B
###2023-12-09 13:07:16.768418$GNGGA,180715.90,4138.0729063,N,07032.3725948,W,1,25,0.6,13.153,M,-29.743,M,0.0,*58
###2023-12-09 13:07:17.014954$GNRMC,180716.10,A,4138.0729506,N,07032.3728163,W,3.11,285.13,091223,,,A*52
###2023-12-09 13:07:17.017837$GNGGA,180716.10,4138.0729506,N,07032.3728163,W,1,25,0.6,13.158,M,-29.743,M,0.0,*52
###2023-12-09 13:07:17.019715$GPGSA,A,3,03,04,16,26,28,29,31,32,,,,,1.1,0.6,0.9*3B
###2023-12-09 13:07:17.021433$GLGSA,A,3,65,71,72,73,74,75,,,,,,,1.1,0.6,0.9*24
