###2023-12-09 12:34:44.133308$GNGGA,173443.30,4138.0472713,N,07032.4223747,W,1,23,0.7,13.047,M,-29.745,M,0.0,*53
###2023-12-09 12:34:44.334346$GNGGA,173443.50,4138.0472754,N,07032.4223780,W,1,23,0.7,13.051,M,-29.745,M,0.0,*5A
###2023-12-09 12:34:44.534740$GNGGA,173443.70,4138.0472749,N,07032.4223846,W,1,23,0.7,13.049,M,-29.745,M,0.0,*58
###2023-12-09 12:34:44.733429$GNGGA,173443.90,4138.0472825,N,07032.4223933,W,1,23,0.7,13.046,M,-29.745,M,0.0,*5F
###2023-12-09 12:34:44.941971$GNRMC,173444.10,A,4138.0473010,N,07032.4224039,W,0.43,84.40,091223,,,A*65
###2023-12-09 12:34:44.944832$GNGGA,173444.10,4138.0473010,N,07032.4224039,W,1,23,0.7,13.042,M,-29.745,M,0.0,*5F
###2023-12-09 12:34:44.946718$GPGSA,A,3,03,04,16,26,28,29,31,32,,,,,1.2,0.7,1.0*31
###2023-12-09 12:34:44.948400$GLGSA,A,3,71,72,73,74,75,,,,,,,,1.2,0.7,1.0*2D
###2023-12-09 12:34:44.950000$GAGSA,A,3,04,19,21,27,,,,,,,,,1.2,0.7,1.0*2C
###2023-12-09 12:34:44.951664$GBGSA,A,3,14,24,25,26,33,,,,,,,,1.2,0.7,1.0*25
###2023-12-09 12:34:44.953988$GPGSV,2,1,08,03,39,277,43,04,22,311,41,16,37,207,46,26,66,206,47*7B
###2023-12-09 12:34:44.956322$GPGSV,2,2,08,28,58,056,45,29,25,074,40,31,73,001,48,32,30,134,43*77
###2023-12-09 12:34:44.958663$GLGSV,2,1,05,71,57,169,48,72,65,310,45,73,48,033,47,74,71,290,43*62
###2023-12-09 12:34:44.960123$GLGSV,2,2,05,75,22,241,41,,,,,,,,,,,,*50
###2023-12-09 12:34:44.962437$GAGSV,1,1,04,04,20,311,41,19,81,304,41,21,77,177,46,27,42,050,45*68
###2023-12-09 12:34:44.964784$GBGSV,2,1,05,14,55,198,46,24,81,343,49,25,32,252,44,26,35,057,44*6F
###2023-12-09 12:34:44.966240$GBGSV,2,2,05,33,63,255,48,,,,,,,,,,,,*55
###2023-12-09 12:34:44.967554$GNVTG,84.40,T,,M,0.43,N,0.79,K,A*12
###2023-12-09 12:34:44.969198$GNGST,173444.10,19.000,,,,0.084,0.074,0.180*59
###2023-12-09 12:34:44.970490$GNZDA,173444.10,09,12,2023,00,00*71
###2023-12-09 12:34:44.971145$GNEBP,,,,,,M*13
###2023-12-09 12:34:45.134897$GNGGA,173444.30,4138.0473178,N,07032.4224124,W,1,23,0.7,13.042,M,-29.745,M,0.0,*5F
###2023-12-09 12:34:45.334350$GNGGA,173444.50,4138.0473222,N,07032.4224161,W,1,23,0.7,13.043,M,-29.745,M,0.0,*55
###2023-12-09 12:34:45.534172$GNGGA,173444.70,4138.0473265,N,07032.4224228,W,1,23,0.7,13.045,M,-29.745,M,0.0,*5C
###2023-12-09 12:34:45.732723$GNGGA,173444.90,4138.0473426,N,07032.4224319,W,1,23,0.7,13.041,M,-29.745,M,0.0,*54
###2023-12-09 12:34:45.933682$GNRMC,173445.10,A,4138.0473659,N,07032.4224459,W,0.52,84.40,091223,,,A*6D
###2023-12-09 12:34:45.936559$GNGGA,173445.10,4138.0473659,N,07032.4224459,W,1,23,0.7,13.035,M,-29.745,M,0.0,*57
###2023-12-09 12:34:45.938414$GPGSA,A,3,03,04,16,26,28,29,31,32,,,,,1.2,0.7,1.0*31
###2023-12-09 12:34:45.940088$GLGSA,A,3,71,72,73,74,75,,,,,,,,1.2,0.7,1.0*2D
###2023-12-09 12:34:45.941667$GAGSA,A,3,04,19,21,27,,,,,,,,,1.2,0.7,1.0*2C
###2023-12-09 12:34:45.943318$GBGSA,A,3,14,24,25,26,33,,,,,,,,1.2,0.7,1.0*25
###2023-12-09 12:34:45.945631$GPGSV,2,1,08,03,39,277,43,04,22,311,42,16,37,207,43,26,66,206,48*72
###2023-12-09 12:34:45.947981$GPGSV,2,2,08,28,58,056,45,29,25,074,39,31,73,001,47,32,30,134,43*76
###2023-12-09 12:34:45.950323$GLGSV,2,1,05,71,57,169,48,72,65,310,46,73,48,033,48,74,71,290,43*6E
###2023-12-09 12:34:45.951793$GLGSV,2,2,05,75,22,241,44,,,,,,,,,,,,*55
###2023-12-09 12:34:45.954114$GAGSV,1,1,04,04,20,311,42,19,81,304,41,21,77,177,47,27,42,050,43*6C
###2023-12-09 12:34:45.956455$GBGSV,2,1,05,14,55,198,46,24,81,343,49,25,32,252,45,26,35,057,44*6E
###2023-12-09 12:34:45.957905$GBGSV,2,2,05,33,63,255,48,,,,,,,,,,,,*55
###2023-12-09 12:34:45.959208$GNVTG,84.40,T,,M,0.52,N,0.97,K,A*12
###2023-12-09 12:34:45.960854$GNGST,173445.10,19.000,,,,0.083,0.074,0.170*50
###2023-12-09 12:34:45.962142$GNZDA,173445.10,09,12,2023,00,00*70
###2023-12-09 12:34:45.962798$GNEBP,,,,,,M*13
###2023-12-09 12:34:46.134302$GNGGA,173445.30,4138.0473843,N,07032.4224569,W,1,23,0.7,13.034,M,-29.745,M,0.0,*53
###2023-12-09 12:34:46.333215$GNGGA,173445.50,4138.0473931,N,07032.4224605,W,1,23,0.7,13.037,M,-29.745,M,0.0,*5B
###2023-12-09 12:34:46.533538$GNGGA,173445.70,4138.0474003,N,07032.4224670,W,1,23,0.7,13.032,M,-29.745,M,0.0,*51
###2023-12-09 12:34:46.732458$GNGGA,173445.90,4138.0474222,N,07032.4224816,W,1,23,0.7,13.028,M,-29.745,M,0.0,*5B
###2023-12-09 12:34:46.937644$GNRMC,173446.10,A,4138.0474504,N,07032.4224976,W,0.49,84.40,091223,,,A*68
###2023-12-09 12:34:46.940538$GNGGA,173446.10,4138.0474504,N,07032.4224976,W,1,23,0.7,13.026,M,-29.745,M,0.0,*5A
###2023-12-09 12:34:46.942413$GPGSA,A,3,03,04,16,26,28,29,31,32,,,,,1.2,0.7,1.0*31
###2023-12-09 12:34:46.944083$GLGSA,A,3,71,72,73,74,75,,,,,,,,1.2,0.7,1.0*2D
###2023-12-09 12:34:46.945677$GAGSA,A,3,04,19,21,27,,,,,,,,,1.2,0.7,1.0*2C
###2023-12-09 12:34:46.947361$GBGSA,A,3,14,24,25,26,33,,,,,,,,1.2,0.7,1.0*25
###2023-12-09 12:34:46.949723$GPGSV,2,1,08,03,39,277,44,04,22,311,43,16,37,207,43,26,66,206,47*7B
###2023-12-09 12:34:46.952085$GPGSV,2,2,08,28,58,056,44,29,25,074,39,31,73,001,48,32,30,134,43*78
###2023-12-09 12:34:46.954436$GLGSV,2,1,05,71,57,169,48,72,65,310,46,73,48,033,46,74,71,290,42*61
###2023-12-09 12:34:46.955918$GLGSV,2,2,05,75,22,241,45,,,,,,,,,,,,*54
###2023-12-09 12:34:46.958264$GAGSV,1,1,04,04,20,311,42,19,81,304,42,21,77,177,47,27,42,050,43*6F
###2023-12-09 12:34:46.960628$GBGSV,2,1,05,14,55,198,46,24,81,343,49,25,32,252,46,26,35,057,44*6D
###2023-12-09 12:34:46.962095$GBGSV,2,2,05,33,63,255,47,,,,,,,,,,,,*5A
###2023-12-09 12:34:46.963407$GNVTG,84.40,T,,M,0.49,N,0.90,K,A*1F
###2023-12-09 12:34:46.965075$GNGST,173446.10,19.000,,,,0.083,0.074,0.170*53
###2023-12-09 12:34:46.966376$GNZDA,173446.10,09,12,2023,00,00*73
###2023-12-09 12:34:46.967030$GNEBP,,,,,,M*13
###2023-12-09 12:34:47.135286$GNGGA,173446.30,4138.0474686,N,07032.4225082,W,1,23,0.7,13.030,M,-29.745,M,0.0,*55
###2023-12-09 12:34:47.335240$GNGGA,173446.50,4138.0474761,N,07032.4225109,W,1,23,0.7,13.036,M,-29.745,M,0.0,*5F
###2023-12-09 12:34:47.535488$GNGGA,173446.70,4138.0474884,N,07032.4225171,W,1,23,0.7,13.036,M,-29.745,M,0.0,*56
###2023-12-09 12:34:47.733663$GNGGA,173446.90,4138.0475149,N,07032.4225334,W,1,23,0.7,13.039,M,-29.745,M,0.0,*5D
###2023-12-09 12:34:47.935817$GNRMC,173447.10,A,4138.0475445,N,07032.4225480,W,0.47,84.40,091223,,,A*67
###2023-12-09 12:34:47.938706$GNGGA,173447.10,4138.0475445,N,07032.4225480,W,1,23,0.7,13.037,M,-29.745,M,0.0,*5B
###2023-12-09 12:34:47.940559$GPGSA,A,3,03,04,16,26,28,29,31,32,,,,,1.2,0.7,1.0*31
###2023-12-09 12:34:47.942207$GLGSA,A,3,71,72,73,74,75,,,,,,,,1.2,0.7,1.0*2D
###2023-12-09 12:34:47.943802$GAGSA,A,3,04,19,21,27,,,,,,,,,1.2,0.7,1.0*2C
###2023-12-09 12:34:47.945449$GBGSA,A,3,14,24,25,26,33,,,,,,,,1.2,0.7,1.0*25
###2023-12-09 12:34:47.947799$GPGSV,2,1,08,03,39,277,44,04,22,311,42,16,37,207,44,26,66,206,49*73
###2023-12-09 12:34:47.950147$GPGSV,2,2,08,28,58,056,45,29,25,074,41,31,73,001,48,32,30,134,43*76
###2023-12-09 12:34:47.952485$GLGSV,2,1,05,71,57,169,48,72,65,310,47,73,48,033,46,74,71,290,42*60
###2023-12-09 12:34:47.953944$GLGSV,2,2,05,75,22,241,46,,,,,,,,,,,,*57
###2023-12-09 12:34:47.956282$GAGSV,1,1,04,04,20,311,41,19,81,304,41,21,77,177,47,27,42,050,42*6E
###2023-12-09 12:34:47.958635$GBGSV,2,1,05,14,55,198,45,24,81,343,49,25,32,252,47,26,35,057,45*6E
###2023-12-09 12:34:47.960099$GBGSV,2,2,05,33,63,255,47,,,,,,,,,,,,*5A
###2023-12-09 12:34:47.961388$GNVTG,84.40,T,,M,0.47,N,0.86,K,A*16
###2023-12-09 12:34:47.963053$GNGST,173447.10,19.000,,,,0.082,0.074,0.170*53
###2023-12-09 12:34:47.964351$GNZDA,173447.10,09,12,2023,00,00*72
###2023-12-09 12:34:47.964993$GNEBP,,,,,,M*13
###2023-12-09 12:34:48.135205$GNGGA,173447.30,4138.0475603,N,07032.4225544,W,1,23,0.7,13.039,M,-29.745,M,0.0,*5E
###2023-12-09 12:34:48.335288$GNGGA,173447.50,4138.0475666,N,07032.4225537,W,1,23,0.7,13.042,M,-29.745,M,0.0,*53
###2023-12-09 12:34:48.535206$GNGGA,173447.70,4138.0475817,N,07032.4225609,W,1,23,0.7,13.040,M,-29.745,M,0.0,*55
###2023-12-09 12:34:48.733224$GNGGA,173447.90,4138.0476108,N,07032.4225784,W,1,23,0.7,13.039,M,-29.745,M,0.0,*55
###2023-12-09 12:34:48.935671$GNRMC,173448.10,A,4138.0476376,N,07032.4225923,W,0.33,84.40,091223,,,A*6B
###2023-12-09 12:34:48.938519$GNGGA,173448.10,4138.0476376,N,07032.4225923,W,1,23,0.7,13.039,M,-29.745,M,0.0,*5A
###2023-12-09 12:34:48.940655$GPGSA,A,3,03,04,16,26,28,29,31,32,,,,,1.2,0.7,1.0*31
###2023-12-09 12:34:48.942328$GLGSA,A,3,71,72,73,74,75,,,,,,,,1.2,0.7,1.0*2D
###2023-12-09 12:34:48.943935$GAGSA,A,3,04,19,21,27,,,,,,,,,1.2,0.7,1.0*2C
###2023-12-09 12:34:48.945591$GBGSA,A,3,14,24,25,26,33,,,,,,,,1.2,0.7,1.0*25
###2023-12-09 12:34:48.947948$GPGSV,2,1,08,03,39,277,45,04,22,311,40,16,37,207,43,26,66,206,48*76
###2023-12-09 12:34:48.950313$GPGSV,2,2,08,28,58,056,45,29,25,074,40,31,73,001,47,32,30,134,43*78
###2023-12-09 12:34:48.952695$GLGSV,2,1,05,71,57,169,48,72,65,310,46,73,48,033,46,74,71,290,43*60
###2023-12-09 12:34:48.954169$GLGSV,2,2,05,75,22,241,44,,,,,,,,,,,,*55
###2023-12-09 12:34:48.956515$GAGSV,1,1,04,04,20,311,39,19,81,304,41,21,77,177,46,27,42,050,41*63
###2023-12-09 12:34:48.958857$GBGSV,2,1,05,14,55,198,44,24,81,343,49,25,32,252,47,26,35,057,45*6F
