###2023-12-09 13:05:50.990974$GAGSV,1,1,04,04,31,312,39,19,83,207,40,21,86,104,46,27,32,048,41*65
###2023-12-09 13:05:50.993368$GBGSV,2,1,05,14,42,192,45,24,72,028,49,25,42,263,45,26,25,063,41*65
###2023-12-09 13:05:50.994858$GBGSV,2,2,05,33,56,230,48,,,,,,,,,,,,*50
###2023-12-09 13:05:50.996186$GNVTG,285.89,T,,M,3.09,N,5.72,K,A*27
###2023-12-09 13:05:50.997829$GNGST,180550.10,18.000,,,,0.081,0.068,0.160*56
###2023-12-09 13:05:50.999138$GNZDA,180550.10,09,12,2023,00,00*79
###2023-12-09 13:05:50.999777$GNEBP,,,,,,M*13
###2023-12-09 13:05:51.170424$GNGGA,180550.30,4138.0702999,N,07032.2691821,W,1,24,0.6,13.558,M,-29.742,M,0.0,*5A
###2023-12-09 13:05:51.368903$GNGGA,180550.50,4138.0703542,N,07032.2694065,W,1,24,0.6,13.561,M,-29.742,M,0.0,*50
###2023-12-09 13:05:51.569393$GNGGA,180550.70,4138.0704036,N,07032.2696349,W,1,24,0.6,13.560,M,-29.742,M,0.0,*5D
###2023-12-09 13:05:51.768387$GNGGA,180550.90,4138.0704529,N,07032.2698677,W,1,24,0.6,13.561,M,-29.742,M,0.0,*5F
###2023-12-09 13:05:51.969766$GNRMC,180551.10,A,4138.0705060,N,07032.2700942,W,3.23,288.94,091223,,,A*5B
###2023-12-09 13:05:51.972640$GNGGA,180551.10,4138.0705060,N,07032.2700942,W,1,24,0.6,13.555,M,-29.742,M,0.0,*51
###2023-12-09 13:05:51.974498$GPGSA,A,3,03,04,16,26,28,29,31,32,,,,,1.1,0.6,0.9*3B
###2023-12-09 13:05:51.976222$GLGSA,A,3,65,71,72,73,74,75,,,,,,,1.1,0.6,0.9*24
###2023-12-09 13:05:51.977809$GAGSA,A,3,04,19,21,27,,,,,,,,,1.1,0.6,0.9*26
###2023-12-09 13:05:51.979466$GBGSA,A,3,14,24,25,26,33,,,,,,,,1.1,0.6,0.9*2F
###2023-12-09 13:05:51.981794$GPGSV,2,1,08,03,34,259,41,04,34,311,41,16,52,213,45,26,82,210,48*78
###2023-12-09 13:05:51.984136$GPGSV,2,2,08,28,48,072,45,29,25,059,40,31,68,042,47,32,17,141,44*7D
###2023-12-09 13:05:51.986474$GLGSV,2,1,06,65,26,327,38,71,39,173,47,72,73,261,46,73,34,043,45*63
###2023-12-09 13:05:51.988233$GLGSV,2,2,06,74,69,343,42,75,33,255,44,,,,,,,,*6D
###2023-12-09 13:05:51.990572$GAGSV,1,1,04,04,31,312,39,19,83,207,40,21,86,104,46,27,32,048,42*66
###2023-12-09 13:05:51.992904$GBGSV,2,1,05,14,42,192,45,24,72,028,49,25,42,263,46,26,25,063,43*64
###2023-12-09 13:05:51.994358$GBGSV,2,2,05,33,56,230,48,,,,,,,,,,,,*50
###2023-12-09 13:05:51.995688$GNVTG,288.94,T,,M,3.23,N,5.98,K,A*2A
###2023-12-09 13:05:51.997334$GNGST,180551.10,18.000,,,,0.081,0.068,0.160*57
###2023-12-09 13:05:51.998635$GNZDA,180551.10,09,12,2023,00,00*78
###2023-12-09 13:05:51.999273$GNEBP,,,,,,M*13
###2023-12-09 13:05:52.169125$GNGGA,180551.30,4138.0705653,N,07032.2703165,W,1,24,0.6,13.559,M,-29.742,M,0.0,*57
###2023-12-09 13:05:52.367823$GNGGA,180551.50,4138.0706223,N,07032.2705406,W,1,24,0.6,13.551,M,-29.742,M,0.0,*5F
###2023-12-09 13:05:52.568138$GNGGA,180551.70,4138.0706748,N,07032.2707599,W,1,24,0.6,13.550,M,-29.742,M,0.0,*51
###2023-12-09 13:05:52.768198$GNGGA,180551.90,4138.0707325,N,07032.2709815,W,1,24,0.6,13.558,M,-29.742,M,0.0,*5E
###2023-12-09 13:05:52.970932$GNRMC,180552.10,A,4138.0707961,N,07032.2712060,W,3.23,290.39,091223,,,A*56
###2023-12-09 13:05:52.973788$GNGGA,180552.10,4138.0707961,N,07032.2712060,W,1,24,0.6,13.559,M,-29.742,M,0.0,*5E
###2023-12-09 13:05:52.975647$GPGSA,A,3,03,04,16,26,28,29,31,32,,,,,1.1,0.6,0.9*3B
###2023-12-09 13:05:52.977358$GLGSA,A,3,65,71,72,73,74,75,,,,,,,1.1,0.6,0.9*24
###2023-12-09 13:05:52.978979$GAGSA,A,3,04,19,21,27,,,,,,,,,1.1,0.6,0.9*26
###2023-12-09 13:05:52.980622$GBGSA,A,3,14,24,25,26,33,,,,,,,,1.1,0.6,0.9*2F
###2023-12-09 13:05:52.982951$GPGSV,2,1,08,03,34,259,41,04,34,311,42,16,52,213,45,26,82,210,48*7B
###2023-12-09 13:05:52.985272$GPGSV,2,2,08,28,48,072,45,29,25,059,40,31,68,042,47,32,17,141,43*7A
###2023-12-09 13:05:52.987605$GLGSV,2,1,06,65,26,327,38,71,39,173,47,72,73,261,46,73,34,043,45*63
###2023-12-09 13:05:52.989345$GLGSV,2,2,06,74,69,343,42,75,33,255,43,,,,,,,,*6A
###2023-12-09 13:05:52.991671$GAGSV,1,1,04,04,31,312,39,19,83,207,40,21,86,104,46,27,32,048,42*66
###2023-12-09 13:05:52.993995$GBGSV,2,1,05,14,42,192,46,24,72,028,49,25,42,263,46,26,25,063,42*66
###2023-12-09 13:05:52.995453$GBGSV,2,2,05,33,56,230,48,,,,,,,,,,,,*50
###2023-12-09 13:05:52.996772$GNVTG,290.39,T,,M,3.23,N,5.98,K,A*24
###2023-12-09 13:05:52.998414$GNGST,180552.10,18.000,,,,0.081,0.068,0.160*54
###2023-12-09 13:05:52.999715$GNZDA,180552.10,09,12,2023,00,00*7B
###2023-12-09 13:05:53.000353$GNEBP,,,,,,M*13
###2023-12-09 13:05:53.168218$GNGGA,180552.30,4138.0708505,N,07032.2714285,W,1,24,0.6,13.558,M,-29.742,M,0.0,*53
###2023-12-09 13:05:53.367819$GNGGA,180552.50,4138.0708910,N,07032.2716530,W,1,24,0.6,13.547,M,-29.742,M,0.0,*58
###2023-12-09 13:05:53.570832$GNGGA,180552.70,4138.0709283,N,07032.2718743,W,1,24,0.6,13.539,M,-29.742,M,0.0,*5B
###2023-12-09 13:05:53.769157$GNGGA,180552.90,4138.0709734,N,07032.2720959,W,1,24,0.6,13.536,M,-29.742,M,0.0,*5D
###2023-12-09 13:05:53.969651$GNRMC,180553.10,A,4138.0710218,N,07032.2723175,W,3.15,286.97,091223,,,A*55
###2023-12-09 13:05:53.972531$GNGGA,180553.10,4138.0710218,N,07032.2723175,W,1,24,0.6,13.543,M,-29.742,M,0.0,*50
###2023-12-09 13:05:53.974389$GPGSA,A,3,03,04,16,26,28,29,31,32,,,,,1.1,0.6,0.9*3B
###2023-12-09 13:05:53.976123$GLGSA,A,3,65,71,72,73,74,75,,,,,,,1.1,0.6,0.9*24
###2023-12-09 13:05:53.977708$GAGSA,A,3,04,19,21,27,,,,,,,,,1.1,0.6,0.9*26
###2023-12-09 13:05:53.979366$GBGSA,A,3,14,24,25,26,33,,,,,,,,1.1,0.6,0.9*2F
###2023-12-09 13:05:53.981696$GPGSV,2,1,08,03,34,259,43,04,34,311,43,16,52,213,46,26,82,210,49*7A
###2023-12-09 13:05:53.984029$GPGSV,2,2,08,28,48,072,46,29,25,059,42,31,68,042,48,32,17,141,44*73
###2023-12-09 13:05:53.986357$GLGSV,2,1,06,65,26,327,40,71,39,173,46,72,73,261,46,73,34,043,45*6D
###2023-12-09 13:05:53.988114$GLGSV,2,2,06,74,69,343,42,75,33,255,42,,,,,,,,*6B
###2023-12-09 13:05:53.990440$GAGSV,1,1,04,04,31,312,40,19,83,203,40,21,86,104,46,27,32,048,41*6F
###2023-12-09 13:05:53.992778$GBGSV,2,1,05,14,42,192,45,24,72,028,49,25,42,263,44,26,25,063,41*64
###2023-12-09 13:05:53.994236$GBGSV,2,2,05,33,56,230,48,,,,,,,,,,,,*50
###2023-12-09 13:05:53.995562$GNVTG,286.97,T,,M,3.15,N,5.83,K,A*28
###2023-12-09 13:05:53.997209$GNGST,180553.10,18.000,,,,0.081,0.068,0.160*55
###2023-12-09 13:05:53.998499$GNZDA,180553.10,09,12,2023,00,00*7A
###2023-12-09 13:05:53.999149$GNEBP,,,,,,M*13
###2023-12-09 13:05:54.167288$GNGGA,180553.30,4138.0710603,N,07032.2725401,W,1,24,0.6,13.545,M,-29.742,M,0.0,*5A
###2023-12-09 13:05:54.368054$GNGGA,180553.50,4138.0710802,N,07032.2727713,W,1,24,0.6,13.535,M,-29.742,M,0.0,*56
###2023-12-09 13:05:54.568112$GNGGA,180553.70,4138.0710983,N,07032.2730110,W,1,24,0.6,13.522,M,-29.742,M,0.0,*59
###2023-12-09 13:05:54.768128$GNGGA,180553.90,4138.0711304,N,07032.2732596,W,1,24,0.6,13.538,M,-29.742,M,0.0,*50
###2023-12-09 13:05:54.970393$GNRMC,180554.10,A,4138.0711618,N,07032.2735217,W,3.63,275.23,091223,,,A*55
###2023-12-09 13:05:54.973282$GNGGA,180554.10,4138.0711618,N,07032.2735217,W,1,24,0.6,13.551,M,-29.742,M,0.0,*51
###2023-12-09 13:05:54.975160$GPGSA,A,3,03,04,16,26,28,29,31,32,,,,,1.1,0.6,0.9*3B
###2023-12-09 13:05:54.976877$GLGSA,A,3,65,71,72,73,74,75,,,,,,,1.1,0.6,0.9*24
###2023-12-09 13:05:54.978465$GAGSA,A,3,04,19,21,27,,,,,,,,,1.1,0.6,0.9*26
###2023-12-09 13:05:54.980128$GBGSA,A,3,14,24,25,26,33,,,,,,,,1.1,0.6,0.9*2F
###2023-12-09 13:05:54.982454$GPGSV,2,1,08,03,34,259,44,04,34,311,43,16,52,213,47,26,82,210,48*7D
###2023-12-09 13:05:54.984792$GPGSV,2,2,08,28,48,072,46,29,25,059,44,31,68,042,48,32,17,141,43*72
###2023-12-09 13:05:54.987126$GLGSV,2,1,06,65,26,327,40,71,39,173,46,72,73,261,46,73,34,043,46*6E
###2023-12-09 13:05:54.988875$GLGSV,2,2,06,74,69,343,43,75,33,255,42,,,,,,,,*6A
###2023-12-09 13:05:54.991226$GAGSV,1,1,04,04,31,312,42,19,83,203,41,21,86,104,47,27,32,048,43*6F
###2023-12-09 13:05:54.993563$GBGSV,2,1,05,14,42,192,43,24,72,028,49,25,42,263,44,26,25,063,44*67
###2023-12-09 13:05:54.995029$GBGSV,2,2,05,33,56,230,47,,,,,,,,,,,,*5F
###2023-12-09 13:05:54.996361$GNVTG,275.23,T,,M,3.63,N,6.73,K,A*26
###2023-12-09 13:05:54.998015$GNGST,180554.10,18.000,,,,0.081,0.068,0.160*52
###2023-12-09 13:05:54.999321$GNZDA,180554.10,09,12,2023,00,00*7D
###2023-12-09 13:05:54.999963$GNEBP,,,,,,M*13
###2023-12-09 13:05:55.167263$GNGGA,180554.30,4138.0711524,N,07032.2737781,W,1,24,0.6,13.537,M,-29.742,M,0.0,*57
###2023-12-09 13:05:55.369023$GNGGA,180554.50,4138.0711035,N,07032.2740122,W,1,24,0.6,13.518,M,-29.742,M,0.0,*56
###2023-12-09 13:05:55.569078$GNGGA,180554.70,4138.0710657,N,07032.2742518,W,1,24,0.6,13.510,M,-29.742,M,0.0,*50
###2023-12-09 13:05:55.768107$GNGGA,180554.90,4138.0710603,N,07032.2745099,W,1,24,0.6,13.541,M,-29.742,M,0.0,*50
###2023-12-09 13:05:55.969613$GNRMC,180555.10,A,4138.0710220,N,07032.2747576,W,3.38,249.02,091223,,,A*5D
###2023-12-09 13:05:55.972516$GNGGA,180555.10,4138.0710220,N,07032.2747576,W,1,24,0.6,13.530,M,-29.742,M,0.0,*5C
###2023-12-09 13:05:55.974379$GPGSA,A,3,03,04,16,26,28,29,31,32,,,,,1.1,0.6,0.9*3B
###2023-12-09 13:05:55.976107$GLGSA,A,3,65,71,72,73,74,75,,,,,,,1.1,0.6,0.9*24
###2023-12-09 13:05:55.977688$GAGSA,A,3,04,19,21,27,,,,,,,,,1.1,0.6,0.9*26
