###2023-12-09 13:07:59.976039$GNGGA,180759.10,4138.0786951,N,07032.3313326,W,1,25,0.6,13.403,M,-29.743,M,0.0,*56
###2023-12-09 13:07:59.977925$GPGSA,A,3,03,04,16,26,28,29,31,32,,,,,1.1,0.6,0.9*3B
###2023-12-09 13:07:59.979664$GLGSA,A,3,65,71,72,73,74,75,,,,,,,1.1,0.6,0.9*24
###2023-12-09 13:07:59.981249$GAGSA,A,3,04,19,21,27,,,,,,,,,1.1,0.6,0.9*26
###2023-12-09 13:07:59.982980$GBGSA,A,3,14,24,25,26,33,35,,,,,,,1.1,0.6,0.9*29
###2023-12-09 13:07:59.985301$GPGSV,2,1,08,03,34,258,45,04,35,311,44,16,53,214,46,26,83,210,48*7D
###2023-12-09 13:07:59.987640$GPGSV,2,2,08,28,47,073,43,29,25,058,42,31,67,044,46,32,16,141,39*75
###2023-12-09 13:07:59.989971$GLGSV,2,1,06,65,26,326,41,71,37,173,45,72,72,258,47,73,33,043,44*6C
###2023-12-09 13:07:59.991739$GLGSV,2,2,06,74,68,345,42,75,34,256,48,,,,,,,,*62
###2023-12-09 13:07:59.994062$GAGSV,1,1,04,04,31,312,42,19,82,199,40,21,85,085,46,27,31,048,41*64
###2023-12-09 13:07:59.996397$GBGSV,2,1,06,14,41,192,43,24,72,029,48,25,42,264,45,26,24,064,43*60
###2023-12-09 13:07:59.998145$GBGSV,2,2,06,33,56,229,47,35,15,067,42,,,,,,,,*61
###2023-12-09 13:07:59.999445$GNVTG,83.49,T,,M,3.71,N,6.88,K,A*16
###2023-12-09 13:08:00.001088$GNGST,180759.10,18.000,,,,0.083,0.066,0.150*52
###2023-12-09 13:08:00.002380$GNZDA,180759.10,09,12,2023,00,00*72
###2023-12-09 13:08:00.003029$GNEBP,,,,,,M*13
###2023-12-09 13:08:00.168797$GNGGA,180759.30,4138.0787055,N,07032.3310547,W,1,25,0.6,13.398,M,-29.743,M,0.0,*5F
###2023-12-09 13:08:00.368683$GNGGA,180759.50,4138.0787177,N,07032.3307802,W,1,25,0.6,13.391,M,-29.743,M,0.0,*5B
###2023-12-09 13:08:00.569612$GNGGA,180759.70,4138.0787665,N,07032.3305116,W,1,25,0.6,13.393,M,-29.743,M,0.0,*51
###2023-12-09 13:08:00.770864$GNGGA,180759.90,4138.0788219,N,07032.3302465,W,1,25,0.6,13.383,M,-29.743,M,0.0,*58
###2023-12-09 13:08:00.972713$GNRMC,180800.10,A,4138.0788652,N,07032.3299779,W,3.65,76.98,091223,,,A*6F
###2023-12-09 13:08:00.975571$GNGGA,180800.10,4138.0788652,N,07032.3299779,W,1,25,0.6,13.382,M,-29.743,M,0.0,*54
###2023-12-09 13:08:00.977429$GPGSA,A,3,03,04,16,26,28,29,31,32,,,,,1.1,0.6,0.9*3B
###2023-12-09 13:08:00.979151$GLGSA,A,3,65,71,72,73,74,75,,,,,,,1.1,0.6,0.9*24
###2023-12-09 13:08:00.980728$GAGSA,A,3,04,19,21,27,,,,,,,,,1.1,0.6,0.9*26
###2023-12-09 13:08:00.982438$GBGSA,A,3,14,24,25,26,33,35,,,,,,,1.1,0.6,0.9*29
###2023-12-09 13:08:00.984775$GPGSV,2,1,08,03,34,258,45,04,35,311,44,16,53,214,46,26,83,210,49*7C
###2023-12-09 13:08:00.987109$GPGSV,2,2,08,28,47,073,41,29,25,058,42,31,67,044,47,32,16,141,39*76
###2023-12-09 13:08:00.989430$GLGSV,2,1,06,65,26,326,43,71,37,173,46,72,72,258,46,73,33,043,43*6B
###2023-12-09 13:08:00.991178$GLGSV,2,2,06,74,68,345,42,75,34,256,46,,,,,,,,*6C
###2023-12-09 13:08:00.993489$GAGSV,1,1,04,04,31,312,40,19,82,199,40,21,85,085,46,27,31,048,39*69
###2023-12-09 13:08:00.995819$GBGSV,2,1,06,14,41,192,45,24,72,029,50,25,42,264,48,26,24,064,44*65
###2023-12-09 13:08:00.997560$GBGSV,2,2,06,33,56,229,49,35,15,067,43,,,,,,,,*6E
###2023-12-09 13:08:00.998861$GNVTG,76.98,T,,M,3.65,N,6.77,K,A*15
###2023-12-09 13:08:01.000503$GNGST,180800.10,18.000,,,,0.083,0.066,0.150*51
###2023-12-09 13:08:01.001788$GNZDA,180800.10,09,12,2023,00,00*71
###2023-12-09 13:08:01.002426$GNEBP,,,,,,M*13
###2023-12-09 13:08:01.169432$GNGGA,180800.30,4138.0789060,N,07032.3297015,W,1,25,0.6,13.390,M,-29.743,M,0.0,*50
###2023-12-09 13:08:01.368935$GNGGA,180800.50,4138.0789383,N,07032.3294233,W,1,25,0.6,13.345,M,-29.743,M,0.0,*55
###2023-12-09 13:08:01.569690$GNGGA,180800.70,4138.0790179,N,07032.3291860,W,1,25,0.6,13.364,M,-29.743,M,0.0,*52
###2023-12-09 13:08:01.769798$GNGGA,180800.90,4138.0791054,N,07032.3289334,W,1,25,0.6,13.386,M,-29.743,M,0.0,*5C
###2023-12-09 13:08:01.972232$GNRMC,180801.10,A,4138.0791256,N,07032.3286505,W,3.58,90.40,091223,,,A*62
###2023-12-09 13:08:01.975103$GNGGA,180801.10,4138.0791256,N,07032.3286505,W,1,25,0.6,13.319,M,-29.743,M,0.0,*58
###2023-12-09 13:08:01.976956$GPGSA,A,3,03,04,16,26,28,29,31,32,,,,,1.1,0.6,0.9*3B
###2023-12-09 13:08:01.978681$GLGSA,A,3,65,71,72,73,74,75,,,,,,,1.1,0.6,0.9*24
###2023-12-09 13:08:01.980263$GAGSA,A,3,04,19,21,27,,,,,,,,,1.1,0.6,0.9*26
###2023-12-09 13:08:01.981967$GBGSA,A,3,14,24,25,26,33,35,,,,,,,1.1,0.6,0.9*29
###2023-12-09 13:08:01.984297$GPGSV,2,1,08,03,34,258,44,04,35,311,41,16,53,214,47,26,83,210,48*78
###2023-12-09 13:08:01.986639$GPGSV,2,2,08,28,47,073,43,29,25,058,41,31,67,044,47,32,16,141,42*7B
###2023-12-09 13:08:01.988963$GLGSV,2,1,06,65,26,326,41,71,37,173,46,72,72,258,47,73,33,043,43*68
###2023-12-09 13:08:01.990722$GLGSV,2,2,06,74,68,345,42,75,34,256,47,,,,,,,,*6D
###2023-12-09 13:08:01.993060$GAGSV,1,1,04,04,31,312,39,19,82,199,40,21,85,085,46,27,31,048,41*68
###2023-12-09 13:08:01.995398$GBGSV,2,1,06,14,41,192,45,24,72,029,47,25,42,264,45,26,24,064,42*68
###2023-12-09 13:08:01.997144$GBGSV,2,2,06,33,56,229,47,35,15,067,42,,,,,,,,*61
###2023-12-09 13:08:01.998431$GNVTG,90.40,T,,M,3.58,N,6.62,K,A*12
###2023-12-09 13:08:02.000089$GNGST,180801.10,18.000,,,,0.083,0.066,0.150*50
###2023-12-09 13:08:02.001376$GNZDA,180801.10,09,12,2023,00,00*70
###2023-12-09 13:08:02.002014$GNEBP,,,,,,M*13
###2023-12-09 13:08:02.169561$GNGGA,180801.30,4138.0791569,N,07032.3284070,W,1,25,0.6,13.318,M,-29.743,M,0.0,*55
###2023-12-09 13:08:02.369346$GNGGA,180801.50,4138.0792784,N,07032.3281796,W,1,25,0.6,13.391,M,-29.743,M,0.0,*5A
###2023-12-09 13:08:02.569692$GNGGA,180801.70,4138.0793469,N,07032.3279199,W,1,25,0.6,13.345,M,-29.743,M,0.0,*5E
###2023-12-09 13:08:02.769709$GNGGA,180801.90,4138.0793347,N,07032.3276651,W,1,25,0.6,13.313,M,-29.743,M,0.0,*54
###2023-12-09 13:08:02.974873$GNRMC,180802.10,A,4138.0793484,N,07032.3274127,W,3.52,69.52,091223,,,A*6C
###2023-12-09 13:08:02.977735$GNGGA,180802.10,4138.0793484,N,07032.3274127,W,1,25,0.6,13.351,M,-29.743,M,0.0,*55
###2023-12-09 13:08:02.979603$GPGSA,A,3,03,04,16,26,28,29,31,32,,,,,1.1,0.6,0.9*3B
###2023-12-09 13:08:02.981312$GLGSA,A,3,65,71,72,73,74,75,,,,,,,1.1,0.6,0.9*24
###2023-12-09 13:08:02.982910$GAGSA,A,3,04,19,21,27,,,,,,,,,1.1,0.6,0.9*26
###2023-12-09 13:08:02.984618$GBGSA,A,3,14,24,25,26,33,35,,,,,,,1.1,0.6,0.9*29
###2023-12-09 13:08:02.986953$GPGSV,2,1,08,03,34,258,45,04,35,311,42,16,53,214,49,26,83,210,48*74
###2023-12-09 13:08:02.989279$GPGSV,2,2,08,28,47,073,43,29,25,058,40,31,67,044,45,32,16,141,45*7F
###2023-12-09 13:08:02.991618$GLGSV,2,1,06,65,26,326,40,71,37,173,47,72,72,258,47,73,33,043,43*68
###2023-12-09 13:08:02.993357$GLGSV,2,2,06,74,68,345,42,75,34,256,47,,,,,,,,*6D
###2023-12-09 13:08:02.995688$GAGSV,1,1,04,04,31,312,40,19,82,199,40,21,85,085,45,27,31,048,42*66
###2023-12-09 13:08:02.998014$GBGSV,2,1,06,14,41,192,46,24,72,029,46,25,42,264,46,26,24,064,39*65
###2023-12-09 13:08:02.999772$GBGSV,2,2,06,33,56,229,48,35,15,067,40,,,,,,,,*6C
###2023-12-09 13:08:03.001063$GNVTG,69.52,T,,M,3.52,N,6.52,K,A*1E
###2023-12-09 13:08:03.002750$GNGST,180802.10,18.000,,,,0.083,0.066,0.150*53
###2023-12-09 13:08:03.004051$GNZDA,180802.10,09,12,2023,00,00*73
###2023-12-09 13:08:03.004691$GNEBP,,,,,,M*13
###2023-12-09 13:08:03.171754$GNGGA,180802.30,4138.0794291,N,07032.3271697,W,1,25,0.6,13.377,M,-29.743,M,0.0,*5F
###2023-12-09 13:08:03.370121$GNGGA,180802.50,4138.0794561,N,07032.3269037,W,1,25,0.6,13.344,M,-29.743,M,0.0,*54
###2023-12-09 13:08:03.569666$GNGGA,180802.70,4138.0794322,N,07032.3266396,W,1,25,0.6,13.343,M,-29.743,M,0.0,*57
###2023-12-09 13:08:03.769627$GNGGA,180802.90,4138.0794528,N,07032.3263786,W,1,25,0.6,13.369,M,-29.743,M,0.0,*5D
###2023-12-09 13:08:03.976990$GNRMC,180803.10,A,4138.0795035,N,07032.3261118,W,3.63,79.52,091223,,,A*6E
###2023-12-09 13:08:03.979847$GNGGA,180803.10,4138.0795035,N,07032.3261118,W,1,25,0.6,13.363,M,-29.743,M,0.0,*55
###2023-12-09 13:08:03.981706$GPGSA,A,3,03,04,16,26,28,29,31,32,,,,,1.1,0.6,0.9*3B
###2023-12-09 13:08:03.983435$GLGSA,A,3,65,71,72,73,74,75,,,,,,,1.1,0.6,0.9*24
###2023-12-09 13:08:03.985021$GAGSA,A,3,04,19,21,27,,,,,,,,,1.1,0.6,0.9*26
###2023-12-09 13:08:03.986744$GBGSA,A,3,14,24,25,26,33,35,,,,,,,1.1,0.6,0.9*29
###2023-12-09 13:08:03.989074$GPGSV,2,1,08,03,34,258,45,04,35,311,45,16,53,214,47,26,83,210,49*7C
###2023-12-09 13:08:03.991422$GPGSV,2,2,08,28,47,073,43,29,25,058,41,31,67,044,47,32,16,141,41*78
###2023-12-09 13:08:03.994000$GLGSV,2,1,06,65,26,326,40,71,37,173,45,72,72,258,46,73,33,043,44*6C
###2023-12-09 13:08:03.995776$GLGSV,2,2,06,74,68,345,42,75,34,256,48,,,,,,,,*62
###2023-12-09 13:08:03.998122$GAGSV,1,1,04,04,31,312,42,19,82,199,40,21,85,085,45,27,31,048,41*67
###2023-12-09 13:08:04.000477$GBGSV,2,1,06,14,41,192,46,24,72,029,48,25,42,264,46,26,24,064,43*66
###2023-12-09 13:08:04.002229$GBGSV,2,2,06,33,56,229,48,35,15,067,43,,,,,,,,*6F
###2023-12-09 13:08:04.003533$GNVTG,79.52,T,,M,3.63,N,6.73,K,A*1E
###2023-12-09 13:08:04.005183$GNGST,180803.10,18.000,,,,0.082,0.065,0.150*50
###2023-12-09 13:08:04.006473$GNZDA,180803.10,09,12,2023,00,00*72
###2023-12-09 13:08:04.007123$GNEBP,,,,,,M*13
