###2023-12-09 13:41:29.027478$GBGSV,2,2,05,35,16,054,41,,,,,,,,,,,,*5B
###2023-12-09 13:41:29.028814$GNVTG,300.16,T,,M,3.54,N,6.55,K,A*23
###2023-12-09 13:41:29.030426$GNGST,184128.10,5.600,,,,0.110,0.100,0.220*62
###2023-12-09 13:41:29.031735$GNZDA,184128.10,09,12,2023,00,00*76
###2023-12-09 13:41:29.032373$GNEBP,,,,,,M*13
###2023-12-09 13:41:29.204051$GNGGA,184128.30,4138.0280193,N,07032.3988049,W,1,20,0.7,13.166,M,-29.745,M,0.0,*53
###2023-12-09 13:41:29.396871$GNGGA,184128.50,4138.0281231,N,07032.3990251,W,1,21,0.7,13.160,M,-29.745,M,0.0,*5A
###2023-12-09 13:41:29.598713$GNGGA,184128.70,4138.0282278,N,07032.3992427,W,1,21,0.7,13.159,M,-29.745,M,0.0,*59
###2023-12-09 13:41:29.797943$GNGGA,184128.90,4138.0283319,N,07032.3994594,W,1,21,0.7,13.159,M,-29.745,M,0.0,*5F
###2023-12-09 13:41:30.001793$GNRMC,184129.10,A,4138.0284438,N,07032.3996702,W,3.40,305.45,091223,,,A*56
###2023-12-09 13:41:30.004684$GNGGA,184129.10,4138.0284438,N,07032.3996702,W,1,22,0.7,13.167,M,-29.745,M,0.0,*54
###2023-12-09 13:41:30.006478$GPGSA,A,3,04,16,26,27,28,29,31,,,,,,1.2,0.7,1.0*36
###2023-12-09 13:41:30.008202$GLGSA,A,3,65,71,72,73,74,75,,,,,,,1.2,0.7,1.0*2E
###2023-12-09 13:41:30.009787$GAGSA,A,3,04,19,21,27,,,,,,,,,1.2,0.7,1.0*2C
###2023-12-09 13:41:30.011437$GBGSA,A,3,12,24,25,33,35,,,,,,,,1.2,0.7,1.0*21
###2023-12-09 13:41:30.013752$GPGSV,2,1,07,04,49,306,42,16,70,226,46,26,80,041,49,27,20,171,37*73
###2023-12-09 13:41:30.015795$GPGSV,2,2,07,28,35,088,43,29,19,044,41,31,58,070,48,,,,*47
###2023-12-09 13:41:30.018112$GLGSV,2,1,06,65,41,315,40,71,19,176,35,72,59,216,45,73,20,054,42*61
###2023-12-09 13:41:30.019863$GLGSV,2,2,06,74,57,019,42,75,45,276,46,,,,,,,,*6E
###2023-12-09 13:41:30.022181$GAGSV,1,1,04,04,41,309,42,19,69,180,41,21,74,044,46,27,20,051,40*6F
###2023-12-09 13:41:30.024512$GBGSV,2,1,05,12,17,124,42,24,60,049,48,25,53,279,47,33,43,215,47*64
###2023-12-09 13:41:30.025970$GBGSV,2,2,05,35,16,054,42,,,,,,,,,,,,*58
###2023-12-09 13:41:30.027298$GNVTG,305.45,T,,M,3.40,N,6.30,K,A*26
###2023-12-09 13:41:30.028912$GNGST,184129.10,6.200,,,,0.120,0.100,0.230*66
###2023-12-09 13:41:30.030200$GNZDA,184129.10,09,12,2023,00,00*77
###2023-12-09 13:41:30.030847$GNEBP,,,,,,M*13
###2023-12-09 13:41:30.199701$GNGGA,184129.30,4138.0285559,N,07032.3998770,W,1,21,0.7,13.164,M,-29.745,M,0.0,*5A
###2023-12-09 13:41:30.398610$GNGGA,184129.50,4138.0286718,N,07032.4000773,W,1,22,0.7,13.169,M,-29.745,M,0.0,*5A
###2023-12-09 13:41:30.598438$GNGGA,184129.70,4138.0287882,N,07032.4002802,W,1,21,0.7,13.170,M,-29.745,M,0.0,*55
###2023-12-09 13:41:30.799169$GNGGA,184129.90,4138.0289051,N,07032.4004736,W,1,21,0.7,13.176,M,-29.745,M,0.0,*5B
###2023-12-09 13:41:31.001856$GNRMC,184130.10,A,4138.0290250,N,07032.4006652,W,3.30,310.39,091223,,,A*58
###2023-12-09 13:41:31.004755$GNGGA,184130.10,4138.0290250,N,07032.4006652,W,1,20,0.7,13.178,M,-29.745,M,0.0,*5E
###2023-12-09 13:41:31.006497$GPGSA,A,3,04,16,26,28,29,31,,,,,,,1.3,0.7,1.1*33
###2023-12-09 13:41:31.008159$GLGSA,A,3,65,72,73,74,75,,,,,,,,1.3,0.7,1.1*28
###2023-12-09 13:41:31.009737$GAGSA,A,3,04,19,21,27,,,,,,,,,1.3,0.7,1.1*2C
###2023-12-09 13:41:31.011387$GBGSA,A,3,12,24,25,33,35,,,,,,,,1.3,0.7,1.1*21
###2023-12-09 13:41:31.013704$GPGSV,2,1,06,04,49,306,42,16,70,226,47,26,80,041,48,28,35,088,44*7A
###2023-12-09 13:41:31.015466$GPGSV,2,2,06,29,19,044,41,31,58,070,47,,,,,,,,*72
###2023-12-09 13:41:31.017789$GLGSV,2,1,05,65,41,315,38,72,59,216,45,73,20,054,42,74,57,019,42*6A
###2023-12-09 13:41:31.019260$GLGSV,2,2,05,75,45,276,47,,,,,,,,,,,,*53
###2023-12-09 13:41:31.021579$GAGSV,1,1,04,04,41,309,41,19,69,180,42,21,74,044,46,27,20,051,41*6E
###2023-12-09 13:41:31.023915$GBGSV,2,1,05,12,17,124,42,24,60,049,47,25,53,279,46,33,43,215,47*6A
###2023-12-09 13:41:31.025372$GBGSV,2,2,05,35,16,054,40,,,,,,,,,,,,*5A
###2023-12-09 13:41:31.026705$GNVTG,310.39,T,,M,3.30,N,6.12,K,A*2E
###2023-12-09 13:41:31.028322$GNGST,184130.10,5.800,,,,0.120,0.100,0.230*67
###2023-12-09 13:41:31.029611$GNZDA,184130.10,09,12,2023,00,00*7F
###2023-12-09 13:41:31.030247$GNEBP,,,,,,M*13
###2023-12-09 13:41:31.202502$GNGGA,184130.30,4138.0291459,N,07032.4008450,W,1,20,0.8,13.171,M,-29.745,M,0.0,*5A
###2023-12-09 13:41:31.398930$GNGGA,184130.50,4138.0292664,N,07032.4010261,W,1,20,0.7,13.167,M,-29.745,M,0.0,*56
###2023-12-09 13:41:31.598333$GNGGA,184130.70,4138.0293849,N,07032.4012056,W,1,20,0.8,13.172,M,-29.745,M,0.0,*5B
###2023-12-09 13:41:31.799336$GNGGA,184130.90,4138.0295079,N,07032.4013782,W,1,20,0.8,13.176,M,-29.745,M,0.0,*53
###2023-12-09 13:41:32.004885$GNRMC,184131.10,A,4138.0296319,N,07032.4015472,W,3.25,312.40,091223,,,A*59
###2023-12-09 13:41:32.007770$GNGGA,184131.10,4138.0296319,N,07032.4015472,W,1,21,0.7,13.172,M,-29.745,M,0.0,*5C
###2023-12-09 13:41:32.009565$GPGSA,A,3,04,16,26,27,28,29,31,,,,,,1.3,0.7,1.1*36
###2023-12-09 13:41:32.011232$GLGSA,A,3,65,72,73,74,75,,,,,,,,1.3,0.7,1.1*28
###2023-12-09 13:41:32.012816$GAGSA,A,3,04,19,21,27,,,,,,,,,1.3,0.7,1.1*2C
###2023-12-09 13:41:32.014462$GBGSA,A,3,12,24,25,33,35,,,,,,,,1.3,0.7,1.1*21
###2023-12-09 13:41:32.016799$GPGSV,2,1,07,04,49,306,42,16,70,226,46,26,80,041,47,27,20,171,35*7F
###2023-12-09 13:41:32.018853$GPGSV,2,2,07,28,35,088,42,29,19,044,42,31,57,071,46,,,,*45
###2023-12-09 13:41:32.021187$GLGSV,2,1,05,65,41,315,38,72,59,216,45,73,20,054,43,74,57,019,42*6B
###2023-12-09 13:41:32.022648$GLGSV,2,2,05,75,45,276,46,,,,,,,,,,,,*52
###2023-12-09 13:41:32.024984$GAGSV,1,1,04,04,41,309,40,19,69,180,41,21,74,044,46,27,20,051,41*6C
###2023-12-09 13:41:32.027334$GBGSV,2,1,05,12,17,124,43,24,60,049,49,25,53,279,47,33,43,215,48*6B
###2023-12-09 13:41:32.028789$GBGSV,2,2,05,35,16,054,41,,,,,,,,,,,,*5B
###2023-12-09 13:41:32.030111$GNVTG,312.40,T,,M,3.25,N,6.01,K,A*24
###2023-12-09 13:41:32.031735$GNGST,184131.10,6.100,,,,0.120,0.100,0.230*6C
###2023-12-09 13:41:32.033024$GNZDA,184131.10,09,12,2023,00,00*7E
###2023-12-09 13:41:32.033662$GNEBP,,,,,,M*13
###2023-12-09 13:41:32.199492$GNGGA,184131.30,4138.0297557,N,07032.4017206,W,1,20,0.8,13.174,M,-29.745,M,0.0,*5C
###2023-12-09 13:41:32.398684$GNGGA,184131.50,4138.0298770,N,07032.4018913,W,1,21,0.7,13.176,M,-29.745,M,0.0,*5E
###2023-12-09 13:41:32.598541$GNGGA,184131.70,4138.0300015,N,07032.4020606,W,1,22,0.7,13.181,M,-29.745,M,0.0,*53
###2023-12-09 13:41:32.798037$GNGGA,184131.90,4138.0301311,N,07032.4022229,W,1,21,0.8,13.187,M,-29.745,M,0.0,*5A
###2023-12-09 13:41:33.008643$GNRMC,184132.10,A,4138.0302604,N,07032.4023820,W,3.17,316.56,091223,,,A*53
###2023-12-09 13:41:33.011523$GNGGA,184132.10,4138.0302604,N,07032.4023820,W,1,22,0.7,13.185,M,-29.745,M,0.0,*5F
###2023-12-09 13:41:33.013259$GPGSA,A,3,04,16,26,28,29,31,,,,,,,1.2,0.7,1.0*33
###2023-12-09 13:41:33.014993$GLGSA,A,3,65,72,73,74,75,83,,,,,,,1.2,0.7,1.0*23
###2023-12-09 13:41:33.016587$GAGSA,A,3,04,19,21,27,,,,,,,,,1.2,0.7,1.0*2C
###2023-12-09 13:41:33.018306$GBGSA,A,3,12,14,24,25,33,35,,,,,,,1.2,0.7,1.0*24
###2023-12-09 13:41:33.020655$GPGSV,2,1,06,04,49,306,43,16,70,226,46,26,80,041,49,28,35,088,44*7B
###2023-12-09 13:41:33.022412$GPGSV,2,2,06,29,19,044,43,31,57,071,48,,,,,,,,*71
###2023-12-09 13:41:33.024760$GLGSV,2,1,06,65,41,315,39,72,59,216,46,73,20,054,43,74,57,019,42*6A
###2023-12-09 13:41:33.026517$GLGSV,2,2,06,75,45,276,45,83,16,044,35,,,,,,,,*68
###2023-12-09 13:41:33.028854$GAGSV,1,1,04,04,41,309,40,19,69,180,41,21,74,044,46,27,20,051,41*6C
###2023-12-09 13:41:33.031227$GBGSV,2,1,06,12,17,124,43,14,26,189,35,24,60,049,50,25,53,279,48*65
###2023-12-09 13:41:33.032982$GBGSV,2,2,06,33,43,215,48,35,16,054,42,,,,,,,,*66
###2023-12-09 13:41:33.034313$GNVTG,316.56,T,,M,3.17,N,5.87,K,A*2B
###2023-12-09 13:41:33.035949$GNGST,184132.10,7.200,,,,0.120,0.100,0.230*6D
###2023-12-09 13:41:33.037251$GNZDA,184132.10,09,12,2023,00,00*7D
###2023-12-09 13:41:33.037890$GNEBP,,,,,,M*13
###2023-12-09 13:41:33.204056$GNGGA,184132.30,4138.0303900,N,07032.4025390,W,1,20,0.8,13.186,M,-29.745,M,0.0,*5F
###2023-12-09 13:41:33.397452$GNGGA,184132.50,4138.0305203,N,07032.4026976,W,1,20,0.8,13.190,M,-29.745,M,0.0,*51
###2023-12-09 13:41:33.597174$GNGGA,184132.70,4138.0306512,N,07032.4028503,W,1,20,0.8,13.191,M,-29.745,M,0.0,*56
###2023-12-09 13:41:33.797517$GNGGA,184132.90,4138.0307903,N,07032.4030024,W,1,20,0.7,13.189,M,-29.745,M,0.0,*5A
###2023-12-09 13:41:34.001549$GNRMC,184133.10,A,4138.0309288,N,07032.4031543,W,3.25,320.87,091223,,,A*5A
###2023-12-09 13:41:34.004461$GNGGA,184133.10,4138.0309288,N,07032.4031543,W,1,20,0.8,13.190,M,-29.745,M,0.0,*57
###2023-12-09 13:41:34.006202$GPGSA,A,3,04,16,26,28,29,31,,,,,,,1.4,0.8,1.1*3B
###2023-12-09 13:41:34.007870$GLGSA,A,3,65,72,73,74,75,,,,,,,,1.4,0.8,1.1*20
###2023-12-09 13:41:34.009460$GAGSA,A,3,04,19,21,27,,,,,,,,,1.4,0.8,1.1*24
###2023-12-09 13:41:34.011118$GBGSA,A,3,12,24,25,33,35,,,,,,,,1.4,0.8,1.1*29
###2023-12-09 13:41:34.013446$GPGSV,2,1,06,04,49,306,44,16,70,226,46,26,80,041,49,28,35,088,43*7B
