###2023-12-09 13:30:32.010915$GLGSV,2,2,05,75,42,268,48,,,,,,,,,,,,*54
###2023-12-09 13:30:32.013279$GAGSV,1,1,04,04,38,310,44,19,74,182,40,21,78,047,46,27,24,050,43*69
###2023-12-09 13:30:32.015653$GBGSV,2,1,06,14,30,190,36,24,64,044,48,25,50,275,47,26,17,070,43*6E
###2023-12-09 13:30:32.017415$GBGSV,2,2,06,33,48,219,47,35,16,058,43,,,,,,,,*63
###2023-12-09 13:30:32.018724$GNVTG,98.78,T,,M,0.41,N,0.76,K,A*19
###2023-12-09 13:30:32.020382$GNGST,183031.10,18.000,,,,0.160,0.096,0.250*58
###2023-12-09 13:30:32.021682$GNZDA,183031.10,09,12,2023,00,00*78
###2023-12-09 13:30:32.022326$GNEBP,,,,,,M*13
###2023-12-09 13:30:32.190783$GNGGA,183031.30,4138.0352360,N,07032.4134301,W,1,22,0.8,13.423,M,-29.745,M,0.0,*53
###2023-12-09 13:30:32.389934$GNGGA,183031.50,4138.0352300,N,07032.4133961,W,1,23,0.7,13.430,M,-29.745,M,0.0,*54
###2023-12-09 13:30:32.591781$GNGGA,183031.70,4138.0352272,N,07032.4133608,W,1,23,0.7,13.427,M,-29.745,M,0.0,*54
###2023-12-09 13:30:32.791065$GNGGA,183031.90,4138.0352115,N,07032.4133432,W,1,24,0.6,13.436,M,-29.745,M,0.0,*55
###2023-12-09 13:30:33.002983$GNRMC,183032.10,A,4138.0351939,N,07032.4133280,W,0.39,98.78,091223,,,A*64
###2023-12-09 13:30:33.005844$GNGGA,183032.10,4138.0351939,N,07032.4133280,W,1,24,0.6,13.450,M,-29.745,M,0.0,*54
###2023-12-09 13:30:33.007645$GPGSA,A,3,03,04,16,26,28,29,31,,,,,,1.1,0.6,0.9*3A
###2023-12-09 13:30:33.009356$GLGSA,A,3,65,71,72,73,74,75,,,,,,,1.1,0.6,0.9*24
###2023-12-09 13:30:33.010944$GAGSA,A,3,04,19,21,27,,,,,,,,,1.1,0.6,0.9*26
###2023-12-09 13:30:33.012653$GBGSA,A,3,14,24,25,26,33,35,,,,,,,1.1,0.6,0.9*29
###2023-12-09 13:30:33.014987$GPGSV,2,1,07,03,28,248,37,04,44,309,44,16,64,220,46,26,86,041,48*74
###2023-12-09 13:30:33.017025$GPGSV,2,2,07,28,39,083,44,29,21,049,41,31,61,063,47,,,,*46
###2023-12-09 13:30:33.019358$GLGSV,2,1,06,65,37,320,45,71,25,175,37,72,65,224,47,73,24,051,44*66
###2023-12-09 13:30:33.021111$GLGSV,2,2,06,74,61,011,43,75,42,268,49,,,,,,,,*65
###2023-12-09 13:30:33.023460$GAGSV,1,1,04,04,38,310,44,19,74,182,40,21,78,047,46,27,24,050,41*6B
###2023-12-09 13:30:33.025789$GBGSV,2,1,06,14,30,190,35,24,64,044,48,25,50,275,48,26,17,070,42*63
###2023-12-09 13:30:33.027539$GBGSV,2,2,06,33,48,219,47,35,16,058,45,,,,,,,,*65
###2023-12-09 13:30:33.028829$GNVTG,98.78,T,,M,0.39,N,0.72,K,A*12
###2023-12-09 13:30:33.030440$GNGST,183032.10,6.100,,,,0.160,0.096,0.250*65
###2023-12-09 13:30:33.031741$GNZDA,183032.10,09,12,2023,00,00*7B
###2023-12-09 13:30:33.032380$GNEBP,,,,,,M*13
###2023-12-09 13:30:33.193813$GNGGA,183032.30,4138.0351850,N,07032.4132986,W,1,24,0.6,13.450,M,-29.745,M,0.0,*54
###2023-12-09 13:30:33.389843$GNGGA,183032.50,4138.0351822,N,07032.4132653,W,1,23,0.7,13.437,M,-29.745,M,0.0,*57
###2023-12-09 13:30:33.597660$GNGGA,183032.70,4138.0351665,N,07032.4132469,W,1,23,0.7,13.437,M,-29.745,M,0.0,*53
###2023-12-09 13:30:33.789899$GNGGA,183032.90,4138.0351427,N,07032.4132418,W,1,23,0.7,13.439,M,-29.745,M,0.0,*51
###2023-12-09 13:30:33.992624$GNRMC,183033.10,A,4138.0351323,N,07032.4132282,W,0.25,98.78,091223,,,A*6A
###2023-12-09 13:30:33.995523$GNGGA,183033.10,4138.0351323,N,07032.4132282,W,1,23,0.7,13.430,M,-29.745,M,0.0,*57
###2023-12-09 13:30:33.997314$GPGSA,A,3,03,04,16,26,28,29,31,,,,,,1.2,0.7,1.0*30
###2023-12-09 13:30:33.999042$GLGSA,A,3,65,71,72,73,74,75,,,,,,,1.2,0.7,1.0*2E
###2023-12-09 13:30:34.000620$GAGSA,A,3,04,19,21,27,,,,,,,,,1.2,0.7,1.0*2C
###2023-12-09 13:30:34.002329$GBGSA,A,3,14,24,25,26,33,35,,,,,,,1.2,0.7,1.0*23
###2023-12-09 13:30:34.004659$GPGSV,2,1,07,03,28,248,39,04,44,309,45,16,64,220,45,26,86,041,48*78
###2023-12-09 13:30:34.006710$GPGSV,2,2,07,28,39,083,44,29,21,049,41,31,61,063,47,,,,*46
###2023-12-09 13:30:34.009039$GLGSV,2,1,06,65,37,320,44,71,25,175,38,72,65,224,46,73,24,051,43*6E
###2023-12-09 13:30:34.010802$GLGSV,2,2,06,74,61,011,43,75,42,269,49,,,,,,,,*64
###2023-12-09 13:30:34.013126$GAGSV,1,1,04,04,38,310,43,19,74,182,41,21,78,047,46,27,24,050,40*6C
###2023-12-09 13:30:34.015464$GBGSV,2,1,06,14,30,190,35,24,64,044,49,25,50,275,49,26,17,070,45*64
###2023-12-09 13:30:34.017211$GBGSV,2,2,06,33,48,219,49,35,16,058,43,,,,,,,,*6D
###2023-12-09 13:30:34.018497$GNVTG,98.78,T,,M,0.25,N,0.47,K,A*19
###2023-12-09 13:30:34.020145$GNGST,183033.10,18.000,,,,0.160,0.096,0.250*5A
###2023-12-09 13:30:34.021433$GNZDA,183033.10,09,12,2023,00,00*7A
###2023-12-09 13:30:34.022068$GNEBP,,,,,,M*13
###2023-12-09 13:30:34.191416$GNGGA,183033.30,4138.0351234,N,07032.4132056,W,1,23,0.7,13.420,M,-29.745,M,0.0,*58
###2023-12-09 13:30:34.389956$GNGGA,183033.50,4138.0351030,N,07032.4131803,W,1,23,0.7,13.410,M,-29.745,M,0.0,*50
###2023-12-09 13:30:34.591057$GNGGA,183033.70,4138.0350844,N,07032.4131563,W,1,23,0.7,13.392,M,-29.745,M,0.0,*5E
###2023-12-09 13:30:34.789947$GNGGA,183033.90,4138.0350693,N,07032.4131500,W,1,23,0.7,13.382,M,-29.745,M,0.0,*50
###2023-12-09 13:30:34.993857$GNRMC,183034.10,A,4138.0350438,N,07032.4131570,W,0.29,98.78,091223,,,A*64
###2023-12-09 13:30:34.996749$GNGGA,183034.10,4138.0350438,N,07032.4131570,W,1,23,0.7,13.381,M,-29.745,M,0.0,*58
###2023-12-09 13:30:34.998571$GPGSA,A,3,03,04,16,26,28,29,31,,,,,,1.2,0.7,1.1*31
###2023-12-09 13:30:35.000301$GLGSA,A,3,65,71,72,73,74,75,,,,,,,1.2,0.7,1.1*2F
###2023-12-09 13:30:35.001891$GAGSA,A,3,04,19,21,27,,,,,,,,,1.2,0.7,1.1*2D
###2023-12-09 13:30:35.003621$GBGSA,A,3,14,24,25,26,33,35,,,,,,,1.2,0.7,1.1*22
###2023-12-09 13:30:35.005953$GPGSV,2,1,07,03,28,248,39,04,44,309,46,16,64,220,46,26,86,041,48*78
###2023-12-09 13:30:35.008010$GPGSV,2,2,07,28,39,083,44,29,21,049,41,31,61,063,47,,,,*46
###2023-12-09 13:30:35.010341$GLGSV,2,1,06,65,37,320,45,71,25,175,35,72,65,224,46,73,24,051,43*62
###2023-12-09 13:30:35.012101$GLGSV,2,2,06,74,61,011,43,75,42,269,48,,,,,,,,*65
###2023-12-09 13:30:35.014429$GAGSV,1,1,04,04,38,310,44,19,74,182,40,21,78,047,46,27,24,050,42*68
###2023-12-09 13:30:35.016780$GBGSV,2,1,06,14,30,190,36,24,64,044,48,25,50,275,49,26,17,070,44*67
###2023-12-09 13:30:35.018525$GBGSV,2,2,06,33,48,219,46,35,16,058,44,,,,,,,,*65
###2023-12-09 13:30:35.019830$GNVTG,98.78,T,,M,0.29,N,0.54,K,A*17
###2023-12-09 13:30:35.021481$GNGST,183034.10,21.000,,,,0.160,0.093,0.240*53
###2023-12-09 13:30:35.022786$GNZDA,183034.10,09,12,2023,00,00*7D
###2023-12-09 13:30:35.023424$GNEBP,,,,,,M*13
###2023-12-09 13:30:35.189587$GNGGA,183034.30,4138.0350103,N,07032.4131572,W,1,23,0.7,13.329,M,-29.745,M,0.0,*57
###2023-12-09 13:30:35.391250$GNGGA,183034.50,4138.0349721,N,07032.4131440,W,1,23,0.7,13.195,M,-29.745,M,0.0,*5A
###2023-12-09 13:30:35.589273$GNGGA,183034.70,4138.0349407,N,07032.4131333,W,1,23,0.7,13.056,M,-29.745,M,0.0,*52
###2023-12-09 13:30:35.789701$GNGGA,183034.90,4138.0348986,N,07032.4131623,W,1,22,0.7,12.986,M,-29.745,M,0.0,*59
###2023-12-09 13:30:35.992554$GNRMC,183035.10,A,4138.0348555,N,07032.4132095,W,0.39,98.78,091223,,,A*6A
###2023-12-09 13:30:35.995474$GNGGA,183035.10,4138.0348555,N,07032.4132095,W,1,24,0.6,12.947,M,-29.745,M,0.0,*50
###2023-12-09 13:30:35.997273$GPGSA,A,3,03,04,16,26,28,29,31,,,,,,1.1,0.6,0.9*3A
###2023-12-09 13:30:35.999005$GLGSA,A,3,65,71,72,73,74,75,,,,,,,1.1,0.6,0.9*24
###2023-12-09 13:30:36.000591$GAGSA,A,3,04,19,21,27,,,,,,,,,1.1,0.6,0.9*26
###2023-12-09 13:30:36.002303$GBGSA,A,3,14,24,25,26,33,35,,,,,,,1.1,0.6,0.9*29
###2023-12-09 13:30:36.004646$GPGSV,2,1,07,03,28,248,43,04,44,309,47,16,64,220,48,26,86,041,50*73
###2023-12-09 13:30:36.006700$GPGSV,2,2,07,28,39,083,46,29,21,049,44,31,61,063,47,,,,*41
###2023-12-09 13:30:36.009027$GLGSV,2,1,06,65,37,320,44,71,25,175,35,72,65,224,46,73,24,051,39*6E
###2023-12-09 13:30:36.010789$GLGSV,2,2,06,74,61,011,43,75,42,269,50,,,,,,,,*6C
###2023-12-09 13:30:36.013118$GAGSV,1,1,04,04,38,310,47,19,74,182,41,21,78,047,48,27,24,050,41*67
###2023-12-09 13:30:36.015462$GBGSV,2,1,06,14,30,190,36,24,64,044,46,25,50,275,47,26,17,070,39*6D
###2023-12-09 13:30:36.017213$GBGSV,2,2,06,33,47,218,45,35,16,058,40,,,,,,,,*6C
###2023-12-09 13:30:36.018514$GNVTG,98.78,T,,M,0.39,N,0.72,K,A*12
###2023-12-09 13:30:36.020175$GNGST,183035.10,20.000,,,,0.150,0.089,0.230*5C
###2023-12-09 13:30:36.021472$GNZDA,183035.10,09,12,2023,00,00*7C
###2023-12-09 13:30:36.022114$GNEBP,,,,,,M*13
###2023-12-09 13:30:36.193476$GNGGA,183035.30,4138.0348260,N,07032.4132067,W,1,24,0.6,12.872,M,-29.745,M,0.0,*59
###2023-12-09 13:30:36.389741$GNGGA,183035.50,4138.0348036,N,07032.4131600,W,1,23,0.7,12.730,M,-29.745,M,0.0,*55
###2023-12-09 13:30:36.589175$GNGGA,183035.70,4138.0347889,N,07032.4131515,W,1,24,0.6,12.692,M,-29.745,M,0.0,*5C
###2023-12-09 13:30:36.789315$GNGGA,183035.90,4138.0347553,N,07032.4132121,W,1,24,0.6,12.711,M,-29.745,M,0.0,*52
###2023-12-09 13:30:36.989696$GNRMC,183036.10,A,4138.0347270,N,07032.4132541,W,0.12,254.41,091223,,,A*5B
###2023-12-09 13:30:36.992591$GNGGA,183036.10,4138.0347270,N,07032.4132541,W,1,24,0.6,12.666,M,-29.745,M,0.0,*5C
###2023-12-09 13:30:36.994397$GPGSA,A,3,03,04,16,26,28,29,31,,,,,,1.1,0.6,0.9*3A
###2023-12-09 13:30:36.996129$GLGSA,A,3,65,71,72,73,74,75,,,,,,,1.1,0.6,0.9*24
