###2023-12-09 12:35:12.949639$GLGSV,2,1,05,71,57,169,48,72,65,310,46,73,48,033,45,74,71,290,44*64
###2023-12-09 12:35:12.951138$GLGSV,2,2,05,75,22,241,43,,,,,,,,,,,,*52
###2023-12-09 12:35:12.953457$GAGSV,1,1,04,04,21,311,41,19,81,302,41,21,78,176,46,27,41,049,41*6E
###2023-12-09 12:35:12.955797$GBGSV,2,1,05,14,55,198,45,24,81,343,49,25,32,252,44,26,35,057,45*6D
###2023-12-09 12:35:12.957255$GBGSV,2,2,05,33,63,255,49,,,,,,,,,,,,*54
###2023-12-09 12:35:12.958589$GNVTG,300.95,T,,M,0.21,N,0.40,K,A*2B
###2023-12-09 12:35:12.960234$GNGST,173512.10,18.000,,,,0.079,0.071,0.160*53
###2023-12-09 12:35:12.961522$GNZDA,173512.10,09,12,2023,00,00*73
###2023-12-09 12:35:12.962156$GNEBP,,,,,,M*13
###2023-12-09 12:35:13.131240$GNGGA,173512.30,4138.0488254,N,07032.4238682,W,1,23,0.7,13.109,M,-29.745,M,0.0,*5C
###2023-12-09 12:35:13.331608$GNGGA,173512.50,4138.0488366,N,07032.4238972,W,1,23,0.7,13.103,M,-29.745,M,0.0,*50
###2023-12-09 12:35:13.531613$GNGGA,173512.70,4138.0488416,N,07032.4239141,W,1,23,0.7,13.117,M,-29.745,M,0.0,*5E
###2023-12-09 12:35:13.731206$GNGGA,173512.90,4138.0488463,N,07032.4239186,W,1,23,0.7,13.137,M,-29.745,M,0.0,*5B
###2023-12-09 12:35:13.933286$GNRMC,173513.10,A,4138.0488495,N,07032.4239185,W,0.04,300.95,091223,,,A*55
###2023-12-09 12:35:13.936179$GNGGA,173513.10,4138.0488495,N,07032.4239185,W,1,23,0.7,13.129,M,-29.745,M,0.0,*57
###2023-12-09 12:35:13.938036$GPGSA,A,3,03,04,16,26,28,29,31,32,,,,,1.2,0.7,1.0*31
###2023-12-09 12:35:13.939689$GLGSA,A,3,71,72,73,74,75,,,,,,,,1.2,0.7,1.0*2D
###2023-12-09 12:35:13.941264$GAGSA,A,3,04,19,21,27,,,,,,,,,1.2,0.7,1.0*2C
###2023-12-09 12:35:13.942917$GBGSA,A,3,14,24,25,26,33,,,,,,,,1.2,0.7,1.0*25
###2023-12-09 12:35:13.945233$GPGSV,2,1,08,03,39,277,44,04,22,311,42,16,37,207,46,26,66,206,48*70
###2023-12-09 12:35:13.947579$GPGSV,2,2,08,28,58,056,44,29,25,074,41,31,73,001,46,32,30,134,45*7F
###2023-12-09 12:35:13.949917$GLGSV,2,1,05,71,57,169,48,72,65,310,47,73,48,033,46,74,71,290,43*61
###2023-12-09 12:35:13.951385$GLGSV,2,2,05,75,22,241,44,,,,,,,,,,,,*55
###2023-12-09 12:35:13.953703$GAGSV,1,1,04,04,21,311,41,19,81,302,41,21,78,176,46,27,41,049,42*6D
###2023-12-09 12:35:13.956031$GBGSV,2,1,05,14,55,197,44,24,81,343,48,25,32,252,43,26,35,057,44*64
###2023-12-09 12:35:13.957484$GBGSV,2,2,05,33,63,255,47,,,,,,,,,,,,*5A
###2023-12-09 12:35:13.958817$GNVTG,300.95,T,,M,0.04,N,0.07,K,A*2F
###2023-12-09 12:35:13.960458$GNGST,173513.10,18.000,,,,0.079,0.071,0.160*52
###2023-12-09 12:35:13.961745$GNZDA,173513.10,09,12,2023,00,00*72
###2023-12-09 12:35:13.962379$GNEBP,,,,,,M*13
###2023-12-09 12:35:14.131389$GNGGA,173513.30,4138.0488532,N,07032.4239315,W,1,23,0.7,13.112,M,-29.745,M,0.0,*5A
###2023-12-09 12:35:14.331683$GNGGA,173513.50,4138.0488692,N,07032.4239690,W,1,23,0.7,13.120,M,-29.745,M,0.0,*5C
###2023-12-09 12:35:14.534957$GNGGA,173513.70,4138.0488826,N,07032.4239986,W,1,23,0.7,13.133,M,-29.745,M,0.0,*55
###2023-12-09 12:35:14.729948$GNGGA,173513.90,4138.0488808,N,07032.4239926,W,1,23,0.7,13.144,M,-29.745,M,0.0,*5D
###2023-12-09 12:35:14.934640$GNRMC,173514.10,A,4138.0488750,N,07032.4239815,W,0.02,300.95,091223,,,A*5E
###2023-12-09 12:35:14.937490$GNGGA,173514.10,4138.0488750,N,07032.4239815,W,1,23,0.7,13.135,M,-29.745,M,0.0,*57
###2023-12-09 12:35:14.939387$GPGSA,A,3,03,04,16,26,28,29,31,32,,,,,1.2,0.7,1.0*31
###2023-12-09 12:35:14.941045$GLGSA,A,3,71,72,73,74,75,,,,,,,,1.2,0.7,1.0*2D
###2023-12-09 12:35:14.942645$GAGSA,A,3,04,19,21,27,,,,,,,,,1.2,0.7,1.0*2C
###2023-12-09 12:35:14.944291$GBGSA,A,3,14,24,25,26,33,,,,,,,,1.2,0.7,1.0*25
###2023-12-09 12:35:14.946643$GPGSV,2,1,08,03,39,277,44,04,22,311,41,16,37,207,46,26,66,206,48*73
###2023-12-09 12:35:14.949011$GPGSV,2,2,08,28,58,056,45,29,25,074,41,31,73,001,46,32,30,134,46*7D
###2023-12-09 12:35:14.951388$GLGSV,2,1,05,71,57,169,48,72,65,310,46,73,48,033,46,74,71,290,43*60
###2023-12-09 12:35:14.952846$GLGSV,2,2,05,75,22,241,45,,,,,,,,,,,,*54
###2023-12-09 12:35:14.955177$GAGSV,1,1,04,04,21,311,39,19,81,302,41,21,78,176,46,27,41,049,42*62
###2023-12-09 12:35:14.957509$GBGSV,2,1,05,14,55,197,45,24,81,343,48,25,32,252,43,26,35,057,45*64
###2023-12-09 12:35:14.958979$GBGSV,2,2,05,33,63,255,48,,,,,,,,,,,,*55
###2023-12-09 12:35:14.960302$GNVTG,300.95,T,,M,0.02,N,0.04,K,A*2A
###2023-12-09 12:35:14.961952$GNGST,173514.10,18.000,,,,0.079,0.071,0.160*55
###2023-12-09 12:35:14.963262$GNZDA,173514.10,09,12,2023,00,00*75
###2023-12-09 12:35:14.963901$GNEBP,,,,,,M*13
###2023-12-09 12:35:15.132978$GNGGA,173514.30,4138.0488855,N,07032.4240047,W,1,23,0.7,13.135,M,-29.745,M,0.0,*5E
###2023-12-09 12:35:15.331797$GNGGA,173514.50,4138.0489042,N,07032.4240502,W,1,23,0.7,13.139,M,-29.745,M,0.0,*5F
###2023-12-09 12:35:15.531694$GNGGA,173514.70,4138.0489123,N,07032.4240726,W,1,23,0.7,13.157,M,-29.745,M,0.0,*57
###2023-12-09 12:35:15.732106$GNGGA,173514.90,4138.0489068,N,07032.4240581,W,1,23,0.7,13.175,M,-29.745,M,0.0,*58
###2023-12-09 12:35:15.932711$GNRMC,173515.10,A,4138.0489017,N,07032.4240484,W,0.12,300.95,091223,,,A*51
###2023-12-09 12:35:15.935586$GNGGA,173515.10,4138.0489017,N,07032.4240484,W,1,23,0.7,13.169,M,-29.745,M,0.0,*50
###2023-12-09 12:35:15.937439$GPGSA,A,3,03,04,16,26,28,29,31,32,,,,,1.2,0.7,1.0*31
###2023-12-09 12:35:15.939096$GLGSA,A,3,71,72,73,74,75,,,,,,,,1.2,0.7,1.0*2D
###2023-12-09 12:35:15.940675$GAGSA,A,3,04,19,21,27,,,,,,,,,1.2,0.7,1.0*2C
###2023-12-09 12:35:15.942316$GBGSA,A,3,14,24,25,26,33,,,,,,,,1.2,0.7,1.0*25
###2023-12-09 12:35:15.944647$GPGSV,2,1,08,03,39,277,43,04,22,311,41,16,37,207,46,26,66,206,48*74
###2023-12-09 12:35:15.947016$GPGSV,2,2,08,28,58,056,46,29,25,074,41,31,73,001,46,32,30,134,47*7F
###2023-12-09 12:35:15.949396$GLGSV,2,1,05,71,57,169,49,72,65,310,47,73,48,033,45,74,71,290,43*63
###2023-12-09 12:35:15.950882$GLGSV,2,2,05,75,22,241,45,,,,,,,,,,,,*54
###2023-12-09 12:35:15.953207$GAGSV,1,1,04,04,21,311,40,19,81,302,41,21,78,176,46,27,41,049,43*6D
###2023-12-09 12:35:15.955549$GBGSV,2,1,05,14,55,197,46,24,81,343,48,25,32,252,43,26,35,057,45*67
###2023-12-09 12:35:15.957009$GBGSV,2,2,05,33,63,255,48,,,,,,,,,,,,*55
###2023-12-09 12:35:15.958324$GNVTG,300.95,T,,M,0.12,N,0.22,K,A*2F
###2023-12-09 12:35:15.959982$GNGST,173515.10,18.000,,,,0.079,0.071,0.160*54
###2023-12-09 12:35:15.961267$GNZDA,173515.10,09,12,2023,00,00*74
###2023-12-09 12:35:15.961903$GNEBP,,,,,,M*13
###2023-12-09 12:35:16.132922$GNGGA,173515.30,4138.0489113,N,07032.4240797,W,1,23,0.7,13.171,M,-29.745,M,0.0,*5F
###2023-12-09 12:35:16.332648$GNGGA,173515.50,4138.0489309,N,07032.4241302,W,1,23,0.7,13.171,M,-29.745,M,0.0,*59
###2023-12-09 12:35:16.551840$GNGGA,173515.70,4138.0489347,N,07032.4241441,W,1,23,0.7,13.192,M,-29.745,M,0.0,*5C
###2023-12-09 12:35:16.731915$GNGGA,173515.90,4138.0489273,N,07032.4241246,W,1,23,0.7,13.216,M,-29.745,M,0.0,*5A
###2023-12-09 12:35:16.935598$GNRMC,173516.10,A,4138.0489239,N,07032.4241180,W,0.21,300.95,091223,,,A*5C
###2023-12-09 12:35:16.938442$GNGGA,173516.10,4138.0489239,N,07032.4241180,W,1,23,0.7,13.204,M,-29.745,M,0.0,*55
###2023-12-09 12:35:16.940309$GPGSA,A,3,03,04,16,26,28,29,31,32,,,,,1.2,0.7,1.0*31
###2023-12-09 12:35:16.941960$GLGSA,A,3,71,72,73,74,75,,,,,,,,1.2,0.7,1.0*2D
###2023-12-09 12:35:16.943556$GAGSA,A,3,04,19,21,27,,,,,,,,,1.2,0.7,1.0*2C
###2023-12-09 12:35:16.945207$GBGSA,A,3,14,24,25,26,33,,,,,,,,1.2,0.7,1.0*25
###2023-12-09 12:35:16.947556$GPGSV,2,1,08,03,39,277,43,04,22,311,39,16,37,207,46,26,66,206,48*7B
###2023-12-09 12:35:16.949901$GPGSV,2,2,08,28,58,056,45,29,25,074,42,31,73,001,46,32,30,134,46*7E
###2023-12-09 12:35:16.952251$GLGSV,2,1,05,71,57,169,48,72,65,310,46,73,48,033,46,74,71,290,42*61
###2023-12-09 12:35:16.953709$GLGSV,2,2,05,75,22,241,44,,,,,,,,,,,,*55
###2023-12-09 12:35:16.956046$GAGSV,1,1,04,04,21,311,39,19,81,302,39,21,78,176,46,27,41,049,41*6E
###2023-12-09 12:35:16.958376$GBGSV,2,1,05,14,55,197,44,24,81,343,46,25,32,252,42,26,35,057,43*6C
###2023-12-09 12:35:16.959851$GBGSV,2,2,05,33,63,255,45,,,,,,,,,,,,*58
###2023-12-09 12:35:16.961176$GNVTG,300.95,T,,M,0.21,N,0.40,K,A*2B
###2023-12-09 12:35:16.962836$GNGST,173516.10,18.000,,,,0.079,0.071,0.160*57
###2023-12-09 12:35:16.964128$GNZDA,173516.10,09,12,2023,00,00*77
###2023-12-09 12:35:16.965005$GNEBP,,,,,,M*13
###2023-12-09 12:35:17.139318$GNGGA,173516.30,4138.0489381,N,07032.4241552,W,1,23,0.7,13.203,M,-29.745,M,0.0,*59
###2023-12-09 12:35:17.334833$GNGGA,173516.50,4138.0489570,N,07032.4242057,W,1,23,0.7,13.207,M,-29.745,M,0.0,*50
###2023-12-09 12:35:17.536524$GNGGA,173516.70,4138.0489585,N,07032.4242087,W,1,23,0.7,13.231,M,-29.745,M,0.0,*50
###2023-12-09 12:35:17.743878$GNGGA,173516.90,4138.0489473,N,07032.4241809,W,1,23,0.7,13.243,M,-29.745,M,0.0,*5E
###2023-12-09 12:35:17.936183$GNRMC,173517.10,A,4138.0489452,N,07032.4241853,W,0.49,300.95,091223,,,A*5F
###2023-12-09 12:35:17.939081$GNGGA,173517.10,4138.0489452,N,07032.4241853,W,1,23,0.7,13.241,M,-29.745,M,0.0,*59
###2023-12-09 12:35:17.940943$GPGSA,A,3,03,04,16,26,28,29,31,32,,,,,1.2,0.7,1.0*31
