###2023-12-09 12:44:20.951750$GNRMC,174420.10,A,4138.0408209,N,07032.3928855,W,1.81,18.76,091223,,,A*6B
###2023-12-09 12:44:20.954658$GNGGA,174420.10,4138.0408209,N,07032.3928855,W,1,24,0.6,13.496,M,-29.745,M,0.0,*55
###2023-12-09 12:44:20.956526$GPGSA,A,3,03,04,16,26,28,29,31,32,,,,,1.1,0.6,0.9*3B
###2023-12-09 12:44:20.958244$GLGSA,A,3,65,71,72,73,74,75,,,,,,,1.1,0.6,0.9*24
###2023-12-09 12:44:20.959842$GAGSA,A,3,04,19,21,27,,,,,,,,,1.1,0.6,0.9*26
###2023-12-09 12:44:20.961484$GBGSA,A,3,14,24,25,26,33,,,,,,,,1.1,0.6,0.9*2F
###2023-12-09 12:44:20.963818$GPGSV,2,1,08,03,38,271,44,04,25,311,43,16,41,209,45,26,71,208,48*75
###2023-12-09 12:44:20.966145$GPGSV,2,2,08,28,55,061,43,29,26,069,38,31,72,015,45,32,26,136,42*75
###2023-12-09 12:44:20.968490$GLGSV,2,1,06,65,16,329,43,71,51,170,47,72,69,300,47,73,44,036,42*61
###2023-12-09 12:44:20.970236$GLGSV,2,2,06,74,71,307,42,75,25,245,46,,,,,,,,*60
###2023-12-09 12:44:20.972580$GAGSV,1,1,04,04,24,312,43,19,84,283,40,21,81,168,45,27,39,049,41*63
###2023-12-09 12:44:20.974934$GBGSV,2,1,05,14,51,196,42,24,79,002,48,25,35,255,45,26,32,059,41*6C
###2023-12-09 12:44:20.976397$GBGSV,2,2,05,33,62,246,48,,,,,,,,,,,,*56
###2023-12-09 12:44:20.977689$GNVTG,18.76,T,,M,1.81,N,3.35,K,A*16
###2023-12-09 12:44:20.979385$GNGST,174420.10,18.000,,,,0.080,0.071,0.160*52
###2023-12-09 12:44:20.980682$GNZDA,174420.10,09,12,2023,00,00*74
###2023-12-09 12:44:20.981320$GNEBP,,,,,,M*13
###2023-12-09 12:44:21.147827$GNGGA,174420.30,4138.0409140,N,07032.3928411,W,1,24,0.6,13.502,M,-29.745,M,0.0,*58
###2023-12-09 12:44:21.345075$GNGGA,174420.50,4138.0410075,N,07032.3927954,W,1,24,0.6,13.498,M,-29.745,M,0.0,*50
###2023-12-09 12:44:21.545234$GNGGA,174420.70,4138.0411012,N,07032.3927408,W,1,24,0.6,13.489,M,-29.745,M,0.0,*56
###2023-12-09 12:44:21.744987$GNGGA,174420.90,4138.0411942,N,07032.3926891,W,1,24,0.6,13.492,M,-29.745,M,0.0,*53
###2023-12-09 12:44:21.943958$GNRMC,174421.10,A,4138.0412863,N,07032.3926351,W,1.92,26.13,091223,,,A*6A
###2023-12-09 12:44:21.946831$GNGGA,174421.10,4138.0412863,N,07032.3926351,W,1,24,0.6,13.517,M,-29.745,M,0.0,*50
###2023-12-09 12:44:21.948722$GPGSA,A,3,03,04,16,26,28,29,31,32,,,,,1.1,0.6,0.9*3B
###2023-12-09 12:44:21.950448$GLGSA,A,3,65,71,72,73,74,75,,,,,,,1.1,0.6,0.9*24
###2023-12-09 12:44:21.952050$GAGSA,A,3,04,19,21,27,,,,,,,,,1.1,0.6,0.9*26
###2023-12-09 12:44:21.953702$GBGSA,A,3,14,24,25,26,33,,,,,,,,1.1,0.6,0.9*2F
###2023-12-09 12:44:21.956046$GPGSV,2,1,08,03,38,271,44,04,25,311,43,16,41,209,44,26,71,208,47*7B
###2023-12-09 12:44:21.958377$GPGSV,2,2,08,28,55,061,42,29,26,069,39,31,72,015,46,32,26,136,40*74
###2023-12-09 12:44:21.960725$GLGSV,2,1,06,65,16,329,43,71,51,170,47,72,69,300,47,73,44,036,42*61
###2023-12-09 12:44:21.962469$GLGSV,2,2,06,74,71,307,42,75,25,245,45,,,,,,,,*63
###2023-12-09 12:44:21.964806$GAGSV,1,1,04,04,24,312,42,19,84,283,40,21,81,168,45,27,39,049,42*61
###2023-12-09 12:44:21.967147$GBGSV,2,1,05,14,51,196,44,24,79,002,48,25,35,255,45,26,32,059,42*69
###2023-12-09 12:44:21.968600$GBGSV,2,2,05,33,62,246,48,,,,,,,,,,,,*56
###2023-12-09 12:44:21.969883$GNVTG,26.13,T,,M,1.92,N,3.56,K,A*1F
###2023-12-09 12:44:21.971583$GNGST,174421.10,18.000,,,,0.080,0.071,0.160*53
###2023-12-09 12:44:21.972883$GNZDA,174421.10,09,12,2023,00,00*75
###2023-12-09 12:44:21.973518$GNEBP,,,,,,M*13
###2023-12-09 12:44:22.144744$GNGGA,174421.30,4138.0413775,N,07032.3925578,W,1,24,0.6,13.527,M,-29.745,M,0.0,*56
###2023-12-09 12:44:22.347013$GNGGA,174421.50,4138.0414572,N,07032.3924592,W,1,24,0.6,13.516,M,-29.745,M,0.0,*55
###2023-12-09 12:44:22.545732$GNGGA,174421.70,4138.0415400,N,07032.3923747,W,1,24,0.6,13.501,M,-29.745,M,0.0,*59
###2023-12-09 12:44:22.744245$GNGGA,174421.90,4138.0416424,N,07032.3923190,W,1,24,0.6,13.513,M,-29.745,M,0.0,*5D
###2023-12-09 12:44:22.947198$GNRMC,174422.10,A,4138.0417438,N,07032.3922380,W,2.16,39.91,091223,,,A*6D
###2023-12-09 12:44:22.950692$GNGGA,174422.10,4138.0417438,N,07032.3922380,W,1,24,0.6,13.524,M,-29.745,M,0.0,*5C
###2023-12-09 12:44:22.952943$GPGSA,A,3,03,04,16,26,28,29,31,32,,,,,1.1,0.6,0.9*3B
###2023-12-09 12:44:22.955037$GLGSA,A,3,65,71,72,73,74,75,,,,,,,1.1,0.6,0.9*24
###2023-12-09 12:44:22.956962$GAGSA,A,3,04,19,21,27,,,,,,,,,1.1,0.6,0.9*26
###2023-12-09 12:44:22.958976$GBGSA,A,3,14,24,25,26,33,,,,,,,,1.1,0.6,0.9*2F
###2023-12-09 12:44:22.961807$GPGSV,2,1,08,03,38,271,44,04,25,311,43,16,41,209,44,26,71,208,48*74
###2023-12-09 12:44:22.964658$GPGSV,2,2,08,28,55,061,42,29,26,069,39,31,72,015,46,32,26,136,38*7B
###2023-12-09 12:44:22.967507$GLGSV,2,1,06,65,16,329,44,71,51,170,46,72,69,300,47,73,44,036,44*61
###2023-12-09 12:44:22.969620$GLGSV,2,2,06,74,71,307,42,75,25,245,46,,,,,,,,*60
###2023-12-09 12:44:22.972484$GAGSV,1,1,04,04,24,312,43,19,84,283,40,21,81,168,46,27,39,049,41*60
###2023-12-09 12:44:22.975327$GBGSV,2,1,05,14,51,196,44,24,79,002,48,25,35,255,45,26,32,059,42*69
###2023-12-09 12:44:22.977091$GBGSV,2,2,05,33,62,246,48,,,,,,,,,,,,*56
###2023-12-09 12:44:22.978675$GNVTG,39.91,T,,M,2.16,N,4.00,K,A*10
###2023-12-09 12:44:22.980706$GNGST,174422.10,18.000,,,,0.079,0.072,0.160*55
###2023-12-09 12:44:22.982273$GNZDA,174422.10,09,12,2023,00,00*76
###2023-12-09 12:44:22.983065$GNEBP,,,,,,M*13
###2023-12-09 12:44:23.146899$GNGGA,174422.30,4138.0418195,N,07032.3921192,W,1,24,0.6,13.536,M,-29.745,M,0.0,*52
###2023-12-09 12:44:23.345733$GNGGA,174422.50,4138.0418976,N,07032.3920096,W,1,24,0.6,13.532,M,-29.745,M,0.0,*51
###2023-12-09 12:44:23.545276$GNGGA,174422.70,4138.0420032,N,07032.3919286,W,1,24,0.6,13.530,M,-29.745,M,0.0,*5A
###2023-12-09 12:44:23.744996$GNGGA,174422.90,4138.0421086,N,07032.3918528,W,1,24,0.6,13.520,M,-29.745,M,0.0,*59
###2023-12-09 12:44:23.945950$GNRMC,174423.10,A,4138.0421979,N,07032.3917464,W,2.39,49.98,091223,,,A*69
###2023-12-09 12:44:23.948846$GNGGA,174423.10,4138.0421979,N,07032.3917464,W,1,24,0.6,13.542,M,-29.745,M,0.0,*5B
###2023-12-09 12:44:23.950738$GPGSA,A,3,03,04,16,26,28,29,31,32,,,,,1.1,0.6,0.9*3B
###2023-12-09 12:44:23.952466$GLGSA,A,3,65,71,72,73,74,75,,,,,,,1.1,0.6,0.9*24
###2023-12-09 12:44:23.954047$GAGSA,A,3,04,19,21,27,,,,,,,,,1.1,0.6,0.9*26
###2023-12-09 12:44:23.955716$GBGSA,A,3,14,24,25,26,33,,,,,,,,1.1,0.6,0.9*2F
###2023-12-09 12:44:23.958053$GPGSV,2,1,08,03,38,271,45,04,25,311,44,16,41,209,45,26,71,208,48*73
###2023-12-09 12:44:23.960407$GPGSV,2,2,08,28,55,061,43,29,26,069,39,31,72,015,46,32,26,136,41*74
###2023-12-09 12:44:23.962754$GLGSV,2,1,06,65,16,329,43,71,51,170,46,72,69,300,47,73,44,036,42*60
###2023-12-09 12:44:23.964504$GLGSV,2,2,06,74,71,307,42,75,25,245,46,,,,,,,,*60
###2023-12-09 12:44:23.966854$GAGSV,1,1,04,04,24,312,45,19,84,283,40,21,81,168,46,27,38,049,41*67
###2023-12-09 12:44:23.969192$GBGSV,2,1,05,14,51,196,43,24,79,002,48,25,35,255,42,26,32,059,42*69
###2023-12-09 12:44:23.970660$GBGSV,2,2,05,33,62,246,48,,,,,,,,,,,,*56
###2023-12-09 12:44:23.971958$GNVTG,49.98,T,,M,2.39,N,4.43,K,A*14
###2023-12-09 12:44:23.973616$GNGST,174423.10,18.000,,,,0.079,0.072,0.160*54
###2023-12-09 12:44:23.974921$GNZDA,174423.10,09,12,2023,00,00*77
###2023-12-09 12:44:23.975564$GNEBP,,,,,,M*13
###2023-12-09 12:44:24.145646$GNGGA,174423.30,4138.0422826,N,07032.3916133,W,1,24,0.6,13.561,M,-29.745,M,0.0,*56
###2023-12-09 12:44:24.345117$GNGGA,174423.50,4138.0423848,N,07032.3915114,W,1,24,0.6,13.555,M,-29.745,M,0.0,*58
###2023-12-09 12:44:24.545188$GNGGA,174423.70,4138.0425019,N,07032.3914363,W,1,24,0.6,13.548,M,-29.745,M,0.0,*5F
###2023-12-09 12:44:24.745567$GNGGA,174423.90,4138.0426083,N,07032.3913457,W,1,24,0.6,13.543,M,-29.745,M,0.0,*5D
###2023-12-09 12:44:24.945910$GNRMC,174424.10,A,4138.0427139,N,07032.3912357,W,2.49,40.14,091223,,,A*6C
###2023-12-09 12:44:24.948824$GNGGA,174424.10,4138.0427139,N,07032.3912357,W,1,24,0.6,13.567,M,-29.745,M,0.0,*53
###2023-12-09 12:44:24.950719$GPGSA,A,3,03,04,16,26,28,29,31,32,,,,,1.1,0.6,0.9*3B
###2023-12-09 12:44:24.952444$GLGSA,A,3,65,71,72,73,74,75,,,,,,,1.1,0.6,0.9*24
###2023-12-09 12:44:24.954032$GAGSA,A,3,04,19,21,27,,,,,,,,,1.1,0.6,0.9*26
###2023-12-09 12:44:24.955704$GBGSA,A,3,14,24,25,26,33,,,,,,,,1.1,0.6,0.9*2F
###2023-12-09 12:44:24.958026$GPGSV,2,1,08,03,38,271,43,04,25,311,43,16,41,209,45,26,71,208,48*72
###2023-12-09 12:44:24.960641$GPGSV,2,2,08,28,55,061,43,29,26,069,38,31,72,015,46,32,26,136,42*76
###2023-12-09 12:44:24.963016$GLGSV,2,1,06,65,16,329,43,71,51,170,46,72,69,300,47,73,44,036,42*60
###2023-12-09 12:44:24.964777$GLGSV,2,2,06,74,71,307,42,75,25,245,44,,,,,,,,*62
###2023-12-09 12:44:24.967125$GAGSV,1,1,04,04,24,312,43,19,84,283,40,21,81,168,46,27,38,049,41*61
###2023-12-09 12:44:24.969454$GBGSV,2,1,05,14,51,196,45,24,79,002,48,25,35,255,45,26,32,059,42*68
###2023-12-09 12:44:24.970925$GBGSV,2,2,05,33,62,246,49,,,,,,,,,,,,*57
###2023-12-09 12:44:24.972225$GNVTG,40.14,T,,M,2.49,N,4.61,K,A*1E
###2023-12-09 12:44:24.973878$GNGST,174424.10,18.000,,,,0.079,0.072,0.160*53
###2023-12-09 12:44:24.975186$GNZDA,174424.10,09,12,2023,00,00*70
