###2023-12-09 13:15:46.011886$GNZDA,181545.10,09,12,2023,00,00*7C
###2023-12-09 13:15:46.012548$GNEBP,,,,,,M*13
###2023-12-09 13:15:46.177176$GNGGA,181545.30,4138.0362828,N,07032.2782314,W,1,24,0.7,13.188,M,-29.743,M,0.0,*51
###2023-12-09 13:15:46.378449$GNGGA,181545.50,4138.0364842,N,07032.2781631,W,1,24,0.7,13.186,M,-29.743,M,0.0,*52
###2023-12-09 13:15:46.578065$GNGGA,181545.70,4138.0366866,N,07032.2781047,W,1,24,0.7,13.181,M,-29.743,M,0.0,*54
###2023-12-09 13:15:46.778644$GNGGA,181545.90,4138.0368883,N,07032.2780522,W,1,24,0.7,13.186,M,-29.743,M,0.0,*5F
###2023-12-09 13:15:46.983667$GNRMC,181546.10,A,4138.0370893,N,07032.2779915,W,3.77,14.09,091223,,,A*60
###2023-12-09 13:15:46.987176$GNGGA,181546.10,4138.0370893,N,07032.2779915,W,1,24,0.7,13.190,M,-29.743,M,0.0,*55
###2023-12-09 13:15:46.989349$GPGSA,A,3,03,04,16,26,28,29,31,,,,,,1.2,0.7,1.0*30
###2023-12-09 13:15:46.991437$GLGSA,A,3,65,71,72,73,74,75,,,,,,,1.2,0.7,1.0*2E
###2023-12-09 13:15:46.993359$GAGSA,A,3,04,19,21,27,,,,,,,,,1.2,0.7,1.0*2C
###2023-12-09 13:15:46.995441$GBGSA,A,3,14,24,25,26,33,35,,,,,,,1.2,0.7,1.0*23
###2023-12-09 13:15:46.998262$GPGSV,2,1,07,03,32,254,43,04,38,311,44,16,57,216,46,26,87,208,48*78
###2023-12-09 13:15:47.000749$GPGSV,2,2,07,28,44,077,44,29,24,054,39,31,65,052,45,,,,*45
###2023-12-09 13:15:47.003586$GLGSV,2,1,06,65,30,325,42,71,33,174,45,72,71,243,46,73,30,046,40*62
###2023-12-09 13:15:47.005697$GLGSV,2,2,06,74,66,355,41,75,37,260,47,,,,,,,,*67
###2023-12-09 13:15:47.008524$GAGSV,1,1,04,04,33,312,42,19,80,192,40,21,84,066,46,27,29,048,37*6B
###2023-12-09 13:15:47.011339$GBGSV,2,1,06,14,37,191,44,24,69,035,47,25,45,267,48,26,22,066,42*61
###2023-12-09 13:15:47.013448$GBGSV,2,2,06,33,53,225,48,35,16,064,41,,,,,,,,*64
###2023-12-09 13:15:47.015032$GNVTG,14.09,T,,M,3.77,N,6.98,K,A*1B
###2023-12-09 13:15:47.017022$GNGST,181546.10,18.000,,,,0.097,0.072,0.170*5D
###2023-12-09 13:15:47.018630$GNZDA,181546.10,09,12,2023,00,00*7F
###2023-12-09 13:15:47.019418$GNEBP,,,,,,M*13
###2023-12-09 13:15:47.179217$GNGGA,181546.30,4138.0372896,N,07032.2779313,W,1,24,0.7,13.180,M,-29.743,M,0.0,*5D
###2023-12-09 13:15:47.378191$GNGGA,181546.50,4138.0374876,N,07032.2779029,W,1,24,0.7,13.178,M,-29.743,M,0.0,*5E
###2023-12-09 13:15:47.580139$GNGGA,181546.70,4138.0376914,N,07032.2778883,W,1,24,0.7,13.191,M,-29.743,M,0.0,*55
###2023-12-09 13:15:47.779507$GNGGA,181546.90,4138.0378981,N,07032.2778678,W,1,24,0.7,13.204,M,-29.743,M,0.0,*5C
###2023-12-09 13:15:47.981485$GNRMC,181547.10,A,4138.0381051,N,07032.2778684,W,3.83,357.84,091223,,,A*55
###2023-12-09 13:15:47.984356$GNGGA,181547.10,4138.0381051,N,07032.2778684,W,1,24,0.7,13.220,M,-29.743,M,0.0,*52
###2023-12-09 13:15:47.986146$GPGSA,A,3,03,04,16,26,28,29,31,,,,,,1.2,0.7,1.0*30
###2023-12-09 13:15:47.987868$GLGSA,A,3,65,71,72,73,74,75,,,,,,,1.2,0.7,1.0*2E
###2023-12-09 13:15:47.989450$GAGSA,A,3,04,19,21,27,,,,,,,,,1.2,0.7,1.0*2C
###2023-12-09 13:15:47.991175$GBGSA,A,3,14,24,25,26,33,35,,,,,,,1.2,0.7,1.0*23
###2023-12-09 13:15:47.993503$GPGSV,2,1,07,03,32,254,43,04,38,311,44,16,57,216,46,26,87,208,48*78
###2023-12-09 13:15:47.995548$GPGSV,2,2,07,28,44,077,44,29,24,054,42,31,65,052,46,,,,*4A
###2023-12-09 13:15:47.997882$GLGSV,2,1,06,65,30,325,41,71,33,174,45,72,71,243,46,73,30,046,42*63
###2023-12-09 13:15:47.999646$GLGSV,2,2,06,74,66,355,41,75,37,260,47,,,,,,,,*67
###2023-12-09 13:15:48.001971$GAGSV,1,1,04,04,34,312,43,19,80,192,40,21,84,066,46,27,29,048,39*63
###2023-12-09 13:15:48.004313$GBGSV,2,1,06,14,37,191,44,24,69,035,48,25,45,267,48,26,22,066,43*6F
###2023-12-09 13:15:48.006063$GBGSV,2,2,06,33,53,225,47,35,16,064,43,,,,,,,,*69
###2023-12-09 13:15:48.007402$GNVTG,357.84,T,,M,3.83,N,7.09,K,A*28
###2023-12-09 13:15:48.009054$GNGST,181547.10,18.000,,,,0.097,0.071,0.170*5F
###2023-12-09 13:15:48.010349$GNZDA,181547.10,09,12,2023,00,00*7E
###2023-12-09 13:15:48.011001$GNEBP,,,,,,M*13
###2023-12-09 13:15:48.179754$GNGGA,181547.30,4138.0383169,N,07032.2778758,W,1,24,0.7,13.221,M,-29.743,M,0.0,*59
###2023-12-09 13:15:48.378944$GNGGA,181547.50,4138.0385266,N,07032.2778641,W,1,24,0.7,13.213,M,-29.743,M,0.0,*5D
###2023-12-09 13:15:48.579341$GNGGA,181547.70,4138.0387316,N,07032.2778384,W,1,24,0.7,13.211,M,-29.743,M,0.0,*55
###2023-12-09 13:15:48.780263$GNGGA,181547.90,4138.0389362,N,07032.2778123,W,1,24,0.7,13.203,M,-29.743,M,0.0,*5A
###2023-12-09 13:15:48.983275$GNRMC,181548.10,A,4138.0391394,N,07032.2777720,W,3.65,9.94,091223,,,A*50
###2023-12-09 13:15:48.986116$GNGGA,181548.10,4138.0391394,N,07032.2777720,W,1,24,0.7,13.198,M,-29.743,M,0.0,*56
###2023-12-09 13:15:48.987902$GPGSA,A,3,03,04,16,26,28,29,31,,,,,,1.2,0.7,1.0*30
###2023-12-09 13:15:48.989612$GLGSA,A,3,65,71,72,73,74,75,,,,,,,1.2,0.7,1.0*2E
###2023-12-09 13:15:48.991197$GAGSA,A,3,04,19,21,27,,,,,,,,,1.2,0.7,1.0*2C
###2023-12-09 13:15:48.992897$GBGSA,A,3,14,24,25,26,33,35,,,,,,,1.2,0.7,1.0*23
###2023-12-09 13:15:48.995209$GPGSV,2,1,07,03,32,254,42,04,38,311,44,16,57,216,45,26,87,208,48*7A
###2023-12-09 13:15:48.997235$GPGSV,2,2,07,28,44,077,44,29,24,054,39,31,65,052,46,,,,*46
###2023-12-09 13:15:48.999568$GLGSV,2,1,06,65,30,325,41,71,33,174,45,72,71,243,46,73,30,046,40*61
###2023-12-09 13:15:49.001311$GLGSV,2,2,06,74,66,355,41,75,37,260,47,,,,,,,,*67
###2023-12-09 13:15:49.003645$GAGSV,1,1,04,04,34,312,43,19,80,192,40,21,84,066,46,27,29,048,38*62
###2023-12-09 13:15:49.005976$GBGSV,2,1,06,14,37,191,45,24,69,035,48,25,45,267,48,26,22,066,43*6E
###2023-12-09 13:15:49.007734$GBGSV,2,2,06,33,53,225,48,35,16,064,42,,,,,,,,*67
###2023-12-09 13:15:49.008989$GNVTG,9.94,T,,M,3.65,N,6.77,K,A*21
###2023-12-09 13:15:49.010643$GNGST,181548.10,18.000,,,,0.097,0.071,0.170*50
###2023-12-09 13:15:49.011933$GNZDA,181548.10,09,12,2023,00,00*71
###2023-12-09 13:15:49.012571$GNEBP,,,,,,M*13
###2023-12-09 13:15:49.177983$GNGGA,181548.30,4138.0393424,N,07032.2777163,W,1,24,0.7,13.205,M,-29.743,M,0.0,*5C
###2023-12-09 13:15:49.379316$GNGGA,181548.50,4138.0395504,N,07032.2776478,W,1,24,0.7,13.209,M,-29.743,M,0.0,*5D
###2023-12-09 13:15:49.580154$GNGGA,181548.70,4138.0397637,N,07032.2775860,W,1,24,0.7,13.212,M,-29.743,M,0.0,*52
###2023-12-09 13:15:49.779373$GNGGA,181548.90,4138.0399858,N,07032.2775299,W,1,24,0.7,13.214,M,-29.743,M,0.0,*5F
###2023-12-09 13:15:49.982716$GNRMC,181549.10,A,4138.0402067,N,07032.2774560,W,4.10,16.23,091223,,,A*61
###2023-12-09 13:15:49.985588$GNGGA,181549.10,4138.0402067,N,07032.2774560,W,1,24,0.7,13.206,M,-29.743,M,0.0,*54
###2023-12-09 13:15:49.987392$GPGSA,A,3,03,04,16,26,28,29,31,,,,,,1.2,0.7,1.0*30
###2023-12-09 13:15:49.989104$GLGSA,A,3,65,71,72,73,74,75,,,,,,,1.2,0.7,1.0*2E
###2023-12-09 13:15:49.990705$GAGSA,A,3,04,19,21,27,,,,,,,,,1.2,0.7,1.0*2C
###2023-12-09 13:15:49.992422$GBGSA,A,3,14,24,25,26,33,35,,,,,,,1.2,0.7,1.0*23
###2023-12-09 13:15:49.994792$GPGSV,2,1,07,03,32,254,43,04,38,311,45,16,57,216,46,26,87,208,48*79
###2023-12-09 13:15:49.996836$GPGSV,2,2,07,28,44,077,43,29,24,054,39,31,65,052,46,,,,*41
###2023-12-09 13:15:49.999174$GLGSV,2,1,06,65,30,325,41,71,33,174,44,72,71,243,46,73,30,046,40*60
###2023-12-09 13:15:50.000917$GLGSV,2,2,06,74,66,355,41,75,37,260,47,,,,,,,,*67
###2023-12-09 13:15:50.003249$GAGSV,1,1,04,04,34,312,43,19,80,192,41,21,84,066,46,27,29,048,38*63
###2023-12-09 13:15:50.005572$GBGSV,2,1,06,14,37,191,44,24,69,035,48,25,45,267,47,26,22,066,40*63
###2023-12-09 13:15:50.007327$GBGSV,2,2,06,33,53,225,48,35,16,064,40,,,,,,,,*65
###2023-12-09 13:15:50.008617$GNVTG,16.23,T,,M,4.10,N,7.60,K,A*11
###2023-12-09 13:15:50.010260$GNGST,181549.10,18.000,,,,0.098,0.072,0.180*52
###2023-12-09 13:15:50.011559$GNZDA,181549.10,09,12,2023,00,00*70
###2023-12-09 13:15:50.012196$GNEBP,,,,,,M*13
###2023-12-09 13:15:50.178021$GNGGA,181549.30,4138.0404222,N,07032.2773591,W,1,24,0.7,13.207,M,-29.743,M,0.0,*5B
###2023-12-09 13:15:50.378362$GNGGA,181549.50,4138.0406364,N,07032.2772578,W,1,24,0.7,13.206,M,-29.743,M,0.0,*5B
###2023-12-09 13:15:50.579158$GNGGA,181549.70,4138.0408503,N,07032.2771768,W,1,24,0.7,13.207,M,-29.743,M,0.0,*51
###2023-12-09 13:15:50.778113$GNGGA,181549.90,4138.0410636,N,07032.2771117,W,1,24,0.7,13.215,M,-29.743,M,0.0,*5E
###2023-12-09 13:15:50.982698$GNRMC,181550.10,A,4138.0412698,N,07032.2770185,W,3.97,22.82,091223,,,A*61
###2023-12-09 13:15:50.985793$GNGGA,181550.10,4138.0412698,N,07032.2770185,W,1,24,0.7,13.221,M,-29.743,M,0.0,*55
###2023-12-09 13:15:50.987631$GPGSA,A,3,03,04,16,26,28,29,31,,,,,,1.2,0.7,1.0*30
###2023-12-09 13:15:50.989339$GLGSA,A,3,65,71,72,73,74,75,,,,,,,1.2,0.7,1.0*2E
###2023-12-09 13:15:50.990924$GAGSA,A,3,04,19,21,27,,,,,,,,,1.2,0.7,1.0*2C
###2023-12-09 13:15:50.992622$GBGSA,A,3,14,24,25,26,33,35,,,,,,,1.2,0.7,1.0*23
###2023-12-09 13:15:50.994957$GPGSV,2,1,07,03,32,254,42,04,38,311,44,16,57,216,46,26,87,208,48*79
###2023-12-09 13:15:50.996986$GPGSV,2,2,07,28,44,077,43,29,24,054,39,31,65,052,45,,,,*42
###2023-12-09 13:15:50.999314$GLGSV,2,1,06,65,30,325,41,71,33,174,45,72,71,243,46,73,30,046,40*61
###2023-12-09 13:15:51.001055$GLGSV,2,2,06,74,66,355,41,75,37,260,48,,,,,,,,*68
