###2023-12-09 13:20:08.012591$GNVTG,183.15,T,,M,3.32,N,6.16,K,A*2E
###2023-12-09 13:20:08.014257$GNGST,182007.10,18.000,,,,0.100,0.070,0.170*53
###2023-12-09 13:20:08.015582$GNZDA,182007.10,09,12,2023,00,00*7C
###2023-12-09 13:20:08.016229$GNEBP,,,,,,M*13
###2023-12-09 13:20:08.187856$GNGGA,182007.30,4138.0654998,N,07032.3264948,W,1,24,0.7,12.945,M,-29.743,M,0.0,*5C
###2023-12-09 13:20:08.382136$GNGGA,182007.50,4138.0653039,N,07032.3264728,W,1,24,0.7,12.900,M,-29.743,M,0.0,*56
###2023-12-09 13:20:08.582850$GNGGA,182007.70,4138.0651162,N,07032.3264828,W,1,24,0.7,12.908,M,-29.743,M,0.0,*5E
###2023-12-09 13:20:08.782865$GNGGA,182007.90,4138.0649243,N,07032.3265092,W,1,24,0.7,12.938,M,-29.743,M,0.0,*52
###2023-12-09 13:20:09.004065$GNRMC,182008.10,A,4138.0647353,N,07032.3265241,W,3.34,185.03,091223,,,A*5D
###2023-12-09 13:20:09.006923$GNGGA,182008.10,4138.0647353,N,07032.3265241,W,1,24,0.7,12.905,M,-29.743,M,0.0,*59
###2023-12-09 13:20:09.008709$GPGSA,A,3,03,04,16,26,28,29,31,,,,,,1.1,0.7,0.9*3B
###2023-12-09 13:20:09.010413$GLGSA,A,3,65,71,72,73,74,75,,,,,,,1.1,0.7,0.9*25
###2023-12-09 13:20:09.012006$GAGSA,A,3,04,19,21,27,,,,,,,,,1.1,0.7,0.9*27
###2023-12-09 13:20:09.013714$GBGSA,A,3,14,24,25,26,33,35,,,,,,,1.1,0.7,0.9*28
###2023-12-09 13:20:09.016047$GPGSV,2,1,07,03,31,253,44,04,40,310,46,16,59,217,48,26,89,196,50*75
###2023-12-09 13:20:09.018082$GPGSV,2,2,07,28,43,079,46,29,23,053,44,31,64,055,49,,,,*4E
###2023-12-09 13:20:09.020420$GLGSV,2,1,06,65,32,324,43,71,31,174,42,72,69,237,46,73,28,047,43*64
###2023-12-09 13:20:09.022068$GLGSV,2,2,06,74,65,,43,75,38,262,47,,,,,,,,*58
###2023-12-09 13:20:09.024397$GAGSV,1,1,04,04,35,311,44,19,78,187,41,21,82,056,47,27,27,049,42*63
###2023-12-09 13:20:09.026727$GBGSV,2,1,06,14,35,191,39,24,68,038,48,25,46,269,47,26,20,067,44*6D
###2023-12-09 13:20:09.028474$GBGSV,2,2,06,33,51,223,46,35,16,062,44,,,,,,,,*6D
###2023-12-09 13:20:09.029795$GNVTG,185.03,T,,M,3.34,N,6.19,K,A*26
###2023-12-09 13:20:09.031481$GNGST,182008.10,19.000,,,,0.100,0.070,0.170*5D
###2023-12-09 13:20:09.032769$GNZDA,182008.10,09,12,2023,00,00*73
###2023-12-09 13:20:09.033405$GNEBP,,,,,,M*13
###2023-12-09 13:20:09.188520$GNGGA,182008.30,4138.0645497,N,07032.3265373,W,1,24,0.7,12.902,M,-29.743,M,0.0,*51
###2023-12-09 13:20:09.381826$GNGGA,182008.50,4138.0643670,N,07032.3265528,W,1,24,0.7,12.900,M,-29.743,M,0.0,*50
###2023-12-09 13:20:09.584772$GNGGA,182008.70,4138.0641801,N,07032.3266042,W,1,24,0.7,12.927,M,-29.743,M,0.0,*57
###2023-12-09 13:20:09.785882$GNGGA,182008.90,4138.0639854,N,07032.3266267,W,1,24,0.7,12.904,M,-29.743,M,0.0,*52
###2023-12-09 13:20:09.985186$GNRMC,182009.10,A,4138.0638043,N,07032.3266085,W,3.30,176.68,091223,,,A*5A
###2023-12-09 13:20:09.988082$GNGGA,182009.10,4138.0638043,N,07032.3266085,W,1,24,0.7,12.878,M,-29.743,M,0.0,*50
###2023-12-09 13:20:09.989891$GPGSA,A,3,03,04,16,26,28,29,31,,,,,,1.1,0.7,0.9*3B
###2023-12-09 13:20:09.991629$GLGSA,A,3,65,71,72,73,74,75,,,,,,,1.1,0.7,0.9*25
###2023-12-09 13:20:09.993217$GAGSA,A,3,04,19,21,27,,,,,,,,,1.1,0.7,0.9*27
###2023-12-09 13:20:09.994945$GBGSA,A,3,14,24,25,26,33,35,,,,,,,1.1,0.7,0.9*28
###2023-12-09 13:20:09.997273$GPGSV,2,1,07,03,31,253,42,04,40,310,46,16,59,217,47,26,89,196,49*74
###2023-12-09 13:20:09.999338$GPGSV,2,2,07,28,43,079,46,29,23,053,43,31,64,055,48,,,,*48
###2023-12-09 13:20:10.001684$GLGSV,2,1,06,65,32,324,43,71,31,174,42,72,69,237,46,73,28,047,44*63
###2023-12-09 13:20:10.003351$GLGSV,2,2,06,74,65,,43,75,38,262,46,,,,,,,,*59
###2023-12-09 13:20:10.005678$GAGSV,1,1,04,04,35,311,44,19,78,187,41,21,82,056,47,27,27,049,41*60
###2023-12-09 13:20:10.008028$GBGSV,2,1,06,14,35,191,41,24,68,038,49,25,46,269,47,26,20,067,44*63
###2023-12-09 13:20:10.009781$GBGSV,2,2,06,33,51,223,46,35,16,062,43,,,,,,,,*6A
###2023-12-09 13:20:10.011117$GNVTG,176.68,T,,M,3.30,N,6.12,K,A*28
###2023-12-09 13:20:10.012765$GNGST,182009.10,18.000,,,,0.100,0.070,0.160*5C
###2023-12-09 13:20:10.014056$GNZDA,182009.10,09,12,2023,00,00*72
###2023-12-09 13:20:10.014709$GNEBP,,,,,,M*13
###2023-12-09 13:20:10.181113$GNGGA,182009.30,4138.0636171,N,07032.3266237,W,1,24,0.7,12.918,M,-29.743,M,0.0,*50
###2023-12-09 13:20:10.381945$GNGGA,182009.50,4138.0634198,N,07032.3266557,W,1,24,0.7,12.899,M,-29.743,M,0.0,*5A
###2023-12-09 13:20:10.581558$GNGGA,182009.70,4138.0632398,N,07032.3266417,W,1,24,0.7,12.869,M,-29.743,M,0.0,*56
###2023-12-09 13:20:10.781573$GNGGA,182009.90,4138.0630572,N,07032.3266242,W,1,24,0.7,12.908,M,-29.743,M,0.0,*58
###2023-12-09 13:20:10.990159$GNRMC,182010.10,A,4138.0628652,N,07032.3266092,W,3.34,175.14,091223,,,A*5F
###2023-12-09 13:20:10.993050$GNGGA,182010.10,4138.0628652,N,07032.3266092,W,1,24,0.7,12.893,M,-29.743,M,0.0,*5C
###2023-12-09 13:20:10.994861$GPGSA,A,3,03,04,16,26,28,29,31,,,,,,1.1,0.7,0.9*3B
###2023-12-09 13:20:10.996582$GLGSA,A,3,65,71,72,73,74,75,,,,,,,1.1,0.7,0.9*25
###2023-12-09 13:20:10.998165$GAGSA,A,3,04,19,21,27,,,,,,,,,1.1,0.7,0.9*27
###2023-12-09 13:20:10.999889$GBGSA,A,3,14,24,25,26,33,35,,,,,,,1.1,0.7,0.9*28
###2023-12-09 13:20:11.002221$GPGSV,2,1,07,03,31,253,41,04,40,310,43,16,59,217,45,26,89,196,46*7F
###2023-12-09 13:20:11.004281$GPGSV,2,2,07,28,43,079,44,29,23,053,41,31,64,055,46,,,,*46
###2023-12-09 13:20:11.006630$GLGSV,2,1,06,65,32,324,43,71,31,174,42,72,69,237,46,73,28,047,44*63
###2023-12-09 13:20:11.008291$GLGSV,2,2,06,74,65,,43,75,38,262,47,,,,,,,,*58
###2023-12-09 13:20:11.010630$GAGSV,1,1,04,04,35,311,42,19,78,187,40,21,82,056,45,27,27,049,42*66
###2023-12-09 13:20:11.012967$GBGSV,2,1,06,14,35,191,42,24,68,038,50,25,46,269,49,26,20,067,44*66
###2023-12-09 13:20:11.014726$GBGSV,2,2,06,33,51,223,48,35,16,062,44,,,,,,,,*63
###2023-12-09 13:20:11.016053$GNVTG,175.14,T,,M,3.34,N,6.19,K,A*2F
###2023-12-09 13:20:11.017703$GNGST,182010.10,18.000,,,,0.100,0.069,0.160*5C
###2023-12-09 13:20:11.019009$GNZDA,182010.10,09,12,2023,00,00*7A
###2023-12-09 13:20:11.019645$GNEBP,,,,,,M*13
###2023-12-09 13:20:11.182356$GNGGA,182010.30,4138.0626844,N,07032.3266076,W,1,24,0.7,12.882,M,-29.743,M,0.0,*53
###2023-12-09 13:20:11.382452$GNGGA,182010.50,4138.0624939,N,07032.3265997,W,1,24,0.7,12.898,M,-29.743,M,0.0,*52
###2023-12-09 13:20:11.581495$GNGGA,182010.70,4138.0623079,N,07032.3265808,W,1,24,0.7,12.884,M,-29.743,M,0.0,*50
###2023-12-09 13:20:11.780602$GNGGA,182010.90,4138.0621214,N,07032.3265789,W,1,24,0.7,12.886,M,-29.743,M,0.0,*51
###2023-12-09 13:20:11.984480$GNRMC,182011.10,A,4138.0619299,N,07032.3265748,W,3.54,178.76,091223,,,A*53
###2023-12-09 13:20:11.987369$GNGGA,182011.10,4138.0619299,N,07032.3265748,W,1,24,0.7,12.888,M,-29.743,M,0.0,*55
###2023-12-09 13:20:11.989177$GPGSA,A,3,03,04,16,26,28,29,31,,,,,,1.1,0.7,0.9*3B
###2023-12-09 13:20:11.990907$GLGSA,A,3,65,71,72,73,74,75,,,,,,,1.1,0.7,0.9*25
###2023-12-09 13:20:11.992502$GAGSA,A,3,04,19,21,27,,,,,,,,,1.1,0.7,0.9*27
###2023-12-09 13:20:11.994223$GBGSA,A,3,14,24,25,26,33,35,,,,,,,1.1,0.7,0.9*28
###2023-12-09 13:20:11.996576$GPGSV,2,1,07,03,31,253,40,04,40,310,44,16,59,217,45,26,89,196,47*78
###2023-12-09 13:20:11.998632$GPGSV,2,2,07,28,43,079,44,29,23,053,41,31,64,055,46,,,,*46
###2023-12-09 13:20:12.000976$GLGSV,2,1,06,65,32,324,42,71,31,174,42,72,69,237,46,73,28,047,44*62
###2023-12-09 13:20:12.002673$GLGSV,2,2,06,74,65,,43,75,38,262,47,,,,,,,,*58
###2023-12-09 13:20:12.005006$GAGSV,1,1,04,04,35,311,44,19,78,187,40,21,82,056,46,27,27,049,41*60
###2023-12-09 13:20:12.007355$GBGSV,2,1,06,14,35,191,41,24,68,038,48,25,46,269,47,26,20,067,43*65
###2023-12-09 13:20:12.009103$GBGSV,2,2,06,33,51,223,46,35,16,062,43,,,,,,,,*6A
###2023-12-09 13:20:12.010427$GNVTG,178.76,T,,M,3.54,N,6.55,K,A*28
###2023-12-09 13:20:12.012091$GNGST,182011.10,18.000,,,,0.100,0.070,0.160*55
###2023-12-09 13:20:12.013387$GNZDA,182011.10,09,12,2023,00,00*7B
###2023-12-09 13:20:12.014025$GNEBP,,,,,,M*13
###2023-12-09 13:20:12.180863$GNGGA,182011.30,4138.0617405,N,07032.3265709,W,1,24,0.7,12.871,M,-29.743,M,0.0,*59
###2023-12-09 13:20:12.380721$GNGGA,182011.50,4138.0615503,N,07032.3265737,W,1,24,0.7,12.879,M,-29.743,M,0.0,*5F
###2023-12-09 13:20:12.584960$GNGGA,182011.70,4138.0613587,N,07032.3265943,W,1,24,0.7,12.888,M,-29.743,M,0.0,*54
###2023-12-09 13:20:12.782402$GNGGA,182011.90,4138.0611641,N,07032.3265997,W,1,24,0.7,12.873,M,-29.743,M,0.0,*5C
###2023-12-09 13:20:12.988004$GNRMC,182012.10,A,4138.0609738,N,07032.3266161,W,3.40,188.11,091223,,,A*5A
###2023-12-09 13:20:12.990895$GNGGA,182012.10,4138.0609738,N,07032.3266161,W,1,24,0.7,12.870,M,-29.743,M,0.0,*50
###2023-12-09 13:20:12.992704$GPGSA,A,3,03,04,16,26,28,29,31,,,,,,1.1,0.7,0.9*3B
###2023-12-09 13:20:12.994424$GLGSA,A,3,65,71,72,73,74,75,,,,,,,1.1,0.7,0.9*25
###2023-12-09 13:20:12.996029$GAGSA,A,3,04,19,21,27,,,,,,,,,1.1,0.7,0.9*27
###2023-12-09 13:20:12.997752$GBGSA,A,3,14,24,25,26,33,35,,,,,,,1.1,0.7,0.9*28
###2023-12-09 13:20:13.000105$GPGSV,2,1,07,03,31,253,40,04,40,310,45,16,59,217,45,26,89,196,47*79
###2023-12-09 13:20:13.002152$GPGSV,2,2,07,28,43,079,44,29,23,053,41,31,64,055,46,,,,*46
