###2023-12-09 13:19:59.000532$GPGSA,A,3,03,04,16,26,28,29,31,,,,,,1.1,0.7,0.9*3B
###2023-12-09 13:19:59.002275$GLGSA,A,3,65,71,72,73,74,75,,,,,,,1.1,0.7,0.9*25
###2023-12-09 13:19:59.003878$GAGSA,A,3,04,19,21,27,,,,,,,,,1.1,0.7,0.9*27
###2023-12-09 13:19:59.005599$GBGSA,A,3,14,24,25,26,33,35,,,,,,,1.1,0.7,0.9*28
###2023-12-09 13:19:59.007954$GPGSV,2,1,07,03,31,253,40,04,40,310,43,16,59,217,44,26,89,196,47*7E
###2023-12-09 13:19:59.009986$GPGSV,2,2,07,28,43,079,45,29,23,053,44,31,64,055,47,,,,*43
###2023-12-09 13:19:59.012311$GLGSV,2,1,06,65,32,324,41,71,31,174,41,72,69,237,45,73,28,047,46*63
###2023-12-09 13:19:59.013945$GLGSV,2,2,06,74,65,,43,75,38,262,46,,,,,,,,*59
###2023-12-09 13:19:59.016258$GAGSV,1,1,04,04,35,311,40,19,78,187,39,21,82,058,45,27,27,049,42*64
###2023-12-09 13:19:59.018612$GBGSV,2,1,06,14,35,191,42,24,68,038,49,25,46,269,47,26,20,067,46*62
###2023-12-09 13:19:59.020359$GBGSV,2,2,06,33,51,223,46,35,16,062,46,,,,,,,,*6F
###2023-12-09 13:19:59.021687$GNVTG,179.93,T,,M,3.56,N,6.59,K,A*2C
###2023-12-09 13:19:59.023352$GNGST,181958.10,18.000,,,,0.100,0.071,0.170*52
###2023-12-09 13:19:59.024645$GNZDA,181958.10,09,12,2023,00,00*7C
###2023-12-09 13:19:59.025285$GNEBP,,,,,,M*13
###2023-12-09 13:19:59.187457$GNGGA,181958.30,4138.0740070,N,07032.3269770,W,1,24,0.7,13.025,M,-29.743,M,0.0,*51
###2023-12-09 13:19:59.382996$GNGGA,181958.50,4138.0738175,N,07032.3269609,W,1,24,0.7,12.993,M,-29.743,M,0.0,*56
###2023-12-09 13:19:59.584975$GNGGA,181958.70,4138.0736365,N,07032.3269085,W,1,24,0.7,13.018,M,-29.743,M,0.0,*50
###2023-12-09 13:19:59.784272$GNGGA,181958.90,4138.0734491,N,07032.3268519,W,1,24,0.7,13.017,M,-29.743,M,0.0,*5E
###2023-12-09 13:19:59.995990$GNRMC,181959.10,A,4138.0732599,N,07032.3268124,W,3.50,173.77,091223,,,A*55
###2023-12-09 13:19:59.998844$GNGGA,181959.10,4138.0732599,N,07032.3268124,W,1,24,0.7,12.996,M,-29.743,M,0.0,*53
###2023-12-09 13:20:00.000622$GPGSA,A,3,03,04,16,26,28,29,31,,,,,,1.1,0.7,0.9*3B
###2023-12-09 13:20:00.002327$GLGSA,A,3,65,71,72,73,74,75,,,,,,,1.1,0.7,0.9*25
###2023-12-09 13:20:00.003916$GAGSA,A,3,04,19,21,27,,,,,,,,,1.1,0.7,0.9*27
###2023-12-09 13:20:00.005625$GBGSA,A,3,14,24,25,26,33,35,,,,,,,1.1,0.7,0.9*28
###2023-12-09 13:20:00.007955$GPGSV,2,1,07,03,31,253,42,04,40,310,43,16,59,217,46,26,89,196,48*71
###2023-12-09 13:20:00.009994$GPGSV,2,2,07,28,43,079,45,29,23,053,42,31,64,055,46,,,,*44
###2023-12-09 13:20:00.012325$GLGSV,2,1,06,65,32,324,43,71,31,174,43,72,69,237,45,73,28,047,44*61
###2023-12-09 13:20:00.013974$GLGSV,2,2,06,74,65,,43,75,38,262,46,,,,,,,,*59
###2023-12-09 13:20:00.016310$GAGSV,1,1,04,04,35,311,41,19,78,187,40,21,82,056,45,27,27,049,41*66
###2023-12-09 13:20:00.018653$GBGSV,2,1,06,14,35,191,41,24,68,038,49,25,46,269,48,26,20,067,44*6C
###2023-12-09 13:20:00.020405$GBGSV,2,2,06,33,51,223,47,35,16,062,44,,,,,,,,*6C
###2023-12-09 13:20:00.021723$GNVTG,173.77,T,,M,3.50,N,6.48,K,A*2A
###2023-12-09 13:20:00.023380$GNGST,181959.10,18.000,,,,0.100,0.071,0.170*53
###2023-12-09 13:20:00.024676$GNZDA,181959.10,09,12,2023,00,00*7D
###2023-12-09 13:20:00.025313$GNEBP,,,,,,M*13
###2023-12-09 13:20:00.183884$GNGGA,181959.30,4138.0730720,N,07032.3267793,W,1,24,0.7,12.995,M,-29.743,M,0.0,*55
###2023-12-09 13:20:00.383753$GNGGA,181959.50,4138.0728857,N,07032.3267546,W,1,24,0.7,13.019,M,-29.743,M,0.0,*53
###2023-12-09 13:20:00.584039$GNGGA,181959.70,4138.0726934,N,07032.3267122,W,1,24,0.7,12.999,M,-29.743,M,0.0,*5D
###2023-12-09 13:20:00.784101$GNGGA,181959.90,4138.0725114,N,07032.3266873,W,1,24,0.7,12.977,M,-29.743,M,0.0,*56
###2023-12-09 13:20:00.989788$GNRMC,182000.10,A,4138.0723255,N,07032.3267154,W,3.50,186.14,091223,,,A*53
###2023-12-09 13:20:00.992676$GNGGA,182000.10,4138.0723255,N,07032.3267154,W,1,24,0.7,13.020,M,-29.743,M,0.0,*5F
###2023-12-09 13:20:00.994476$GPGSA,A,3,03,04,16,26,28,29,31,,,,,,1.1,0.7,0.9*3B
###2023-12-09 13:20:00.996206$GLGSA,A,3,65,71,72,73,74,75,,,,,,,1.1,0.7,0.9*25
###2023-12-09 13:20:00.997795$GAGSA,A,3,04,19,21,27,,,,,,,,,1.1,0.7,0.9*27
###2023-12-09 13:20:00.999516$GBGSA,A,3,14,24,25,26,33,35,,,,,,,1.1,0.7,0.9*28
###2023-12-09 13:20:01.001840$GPGSV,2,1,07,03,31,253,42,04,40,310,44,16,59,217,46,26,89,196,48*76
###2023-12-09 13:20:01.003894$GPGSV,2,2,07,28,43,079,44,29,23,053,41,31,64,055,46,,,,*46
###2023-12-09 13:20:01.006215$GLGSV,2,1,06,65,32,324,41,71,31,174,43,72,69,237,45,73,28,047,43*64
###2023-12-09 13:20:01.007878$GLGSV,2,2,06,74,65,,43,75,38,262,46,,,,,,,,*59
###2023-12-09 13:20:01.010200$GAGSV,1,1,04,04,35,311,44,19,78,187,40,21,82,056,46,27,27,049,41*60
###2023-12-09 13:20:01.012542$GBGSV,2,1,06,14,35,191,42,24,68,038,49,25,46,269,47,26,20,067,43*67
###2023-12-09 13:20:01.014290$GBGSV,2,2,06,33,51,223,46,35,16,062,44,,,,,,,,*6D
###2023-12-09 13:20:01.015628$GNVTG,186.14,T,,M,3.50,N,6.48,K,A*25
###2023-12-09 13:20:01.017267$GNGST,182000.10,18.000,,,,0.100,0.071,0.170*55
###2023-12-09 13:20:01.018554$GNZDA,182000.10,09,12,2023,00,00*7B
###2023-12-09 13:20:01.019201$GNEBP,,,,,,M*13
###2023-12-09 13:20:01.186879$GNGGA,182000.30,4138.0721368,N,07032.3267242,W,1,24,0.7,12.997,M,-29.743,M,0.0,*50
###2023-12-09 13:20:01.384050$GNGGA,182000.50,4138.0719567,N,07032.3267270,W,1,24,0.7,12.994,M,-29.743,M,0.0,*56
###2023-12-09 13:20:01.584035$GNGGA,182000.70,4138.0717695,N,07032.3267525,W,1,24,0.7,13.017,M,-29.743,M,0.0,*50
###2023-12-09 13:20:01.784114$GNGGA,182000.90,4138.0715755,N,07032.3267705,W,1,24,0.7,12.985,M,-29.743,M,0.0,*52
###2023-12-09 13:20:01.986817$GNRMC,182001.10,A,4138.0713906,N,07032.3267830,W,3.30,184.52,091223,,,A*51
###2023-12-09 13:20:01.989663$GNGGA,182001.10,4138.0713906,N,07032.3267830,W,1,24,0.7,12.977,M,-29.743,M,0.0,*51
###2023-12-09 13:20:01.991467$GPGSA,A,3,03,04,16,26,28,29,31,,,,,,1.1,0.7,0.9*3B
###2023-12-09 13:20:01.993175$GLGSA,A,3,65,71,72,73,74,75,,,,,,,1.1,0.7,0.9*25
###2023-12-09 13:20:01.994768$GAGSA,A,3,04,19,21,27,,,,,,,,,1.1,0.7,0.9*27
###2023-12-09 13:20:01.996479$GBGSA,A,3,14,24,25,26,33,35,,,,,,,1.1,0.7,0.9*28
###2023-12-09 13:20:01.998825$GPGSV,2,1,07,03,31,253,41,04,40,310,44,16,59,217,46,26,89,196,48*75
###2023-12-09 13:20:02.000871$GPGSV,2,2,07,28,43,079,45,29,23,053,42,31,64,055,47,,,,*45
###2023-12-09 13:20:02.003218$GLGSV,2,1,06,65,32,324,42,71,31,174,42,72,69,237,45,73,28,047,43*66
###2023-12-09 13:20:02.004871$GLGSV,2,2,06,74,65,,43,75,38,262,46,,,,,,,,*59
###2023-12-09 13:20:02.007212$GAGSV,1,1,04,04,35,311,43,19,78,187,40,21,82,056,46,27,27,049,41*67
###2023-12-09 13:20:02.009543$GBGSV,2,1,06,14,35,191,42,24,68,038,48,25,46,269,47,26,20,067,43*66
###2023-12-09 13:20:02.011297$GBGSV,2,2,06,33,51,223,46,35,16,062,43,,,,,,,,*6A
###2023-12-09 13:20:02.012617$GNVTG,184.52,T,,M,3.30,N,6.12,K,A*2C
###2023-12-09 13:20:02.014258$GNGST,182001.10,18.000,,,,0.100,0.071,0.170*54
###2023-12-09 13:20:02.015550$GNZDA,182001.10,09,12,2023,00,00*7A
###2023-12-09 13:20:02.016181$GNEBP,,,,,,M*13
###2023-12-09 13:20:02.183073$GNGGA,182001.30,4138.0712034,N,07032.3268103,W,1,24,0.7,13.015,M,-29.743,M,0.0,*50
###2023-12-09 13:20:02.383002$GNGGA,182001.50,4138.0710085,N,07032.3268257,W,1,24,0.7,12.993,M,-29.743,M,0.0,*5A
###2023-12-09 13:20:02.583989$GNGGA,182001.70,4138.0708279,N,07032.3268107,W,1,24,0.7,12.962,M,-29.743,M,0.0,*58
###2023-12-09 13:20:02.784152$GNGGA,182001.90,4138.0706380,N,07032.3268162,W,1,24,0.7,13.001,M,-29.743,M,0.0,*51
###2023-12-09 13:20:02.988322$GNRMC,182002.10,A,4138.0704444,N,07032.3268217,W,3.34,177.89,091223,,,A*51
###2023-12-09 13:20:02.991197$GNGGA,182002.10,4138.0704444,N,07032.3268217,W,1,24,0.7,12.989,M,-29.743,M,0.0,*5E
###2023-12-09 13:20:02.992975$GPGSA,A,3,03,04,16,26,28,29,31,,,,,,1.1,0.7,0.9*3B
###2023-12-09 13:20:02.994690$GLGSA,A,3,65,71,72,73,74,75,,,,,,,1.1,0.7,0.9*25
###2023-12-09 13:20:02.996269$GAGSA,A,3,04,19,21,27,,,,,,,,,1.1,0.7,0.9*27
###2023-12-09 13:20:02.997972$GBGSA,A,3,14,24,25,26,33,35,,,,,,,1.1,0.7,0.9*28
###2023-12-09 13:20:03.000306$GPGSV,2,1,07,03,31,253,43,04,40,310,43,16,59,217,46,26,89,196,48*70
###2023-12-09 13:20:03.002335$GPGSV,2,2,07,28,43,079,46,29,23,053,41,31,64,055,47,,,,*45
###2023-12-09 13:20:03.004674$GLGSV,2,1,06,65,32,324,45,71,31,174,42,72,69,237,45,73,28,047,42*60
###2023-12-09 13:20:03.006684$GLGSV,2,2,06,74,65,,43,75,38,262,47,,,,,,,,*58
###2023-12-09 13:20:03.009017$GAGSV,1,1,04,04,35,311,42,19,78,187,40,21,82,056,46,27,27,049,40*67
###2023-12-09 13:20:03.011357$GBGSV,2,1,06,14,35,191,41,24,68,038,48,25,46,269,48,26,20,067,43*6A
###2023-12-09 13:20:03.013097$GBGSV,2,2,06,33,51,223,47,35,16,062,42,,,,,,,,*6A
###2023-12-09 13:20:03.014415$GNVTG,177.89,T,,M,3.34,N,6.19,K,A*29
###2023-12-09 13:20:03.016085$GNGST,182002.10,18.000,,,,0.100,0.071,0.170*57
###2023-12-09 13:20:03.017373$GNZDA,182002.10,09,12,2023,00,00*79
###2023-12-09 13:20:03.018008$GNEBP,,,,,,M*13
###2023-12-09 13:20:03.188113$GNGGA,182002.30,4138.0702617,N,07032.3267941,W,1,24,0.7,12.988,M,-29.743,M,0.0,*58
