###2023-12-09 13:41:43.398542$GNGGA,184142.50,4138.0357177,N,07032.4118303,W,1,21,0.7,13.231,M,-29.745,M,0.0,*53
###2023-12-09 13:41:43.595898$GNGGA,184142.70,4138.0358007,N,07032.4120492,W,1,23,0.7,13.234,M,-29.745,M,0.0,*5B
###2023-12-09 13:41:43.796720$GNGGA,184142.90,4138.0358820,N,07032.4122686,W,1,23,0.7,13.227,M,-29.745,M,0.0,*5F
###2023-12-09 13:41:44.002189$GNRMC,184143.10,A,4138.0359685,N,07032.4124912,W,3.34,297.24,091223,,,A*58
###2023-12-09 13:41:44.005072$GNGGA,184143.10,4138.0359685,N,07032.4124912,W,1,22,0.7,13.223,M,-29.745,M,0.0,*57
###2023-12-09 13:41:44.006944$GPGSA,A,3,03,04,09,16,26,28,29,31,,,,,1.2,0.7,0.9*31
###2023-12-09 13:41:44.008589$GLGSA,A,3,65,72,73,74,75,,,,,,,,1.2,0.7,0.9*20
###2023-12-09 13:41:44.010171$GAGSA,A,3,04,19,21,27,,,,,,,,,1.2,0.7,0.9*24
###2023-12-09 13:41:44.011820$GBGSA,A,3,12,24,25,33,35,,,,,,,,1.2,0.7,0.9*29
###2023-12-09 13:41:44.014139$GPGSV,2,1,08,03,24,243,35,04,49,306,42,09,15,317,41,16,70,226,46*77
###2023-12-09 13:41:44.016476$GPGSV,2,2,08,26,80,041,49,28,35,088,44,29,19,044,42,31,57,071,48*76
###2023-12-09 13:41:44.018816$GLGSV,2,1,05,65,41,315,40,72,59,216,45,73,20,054,42,74,57,019,42*65
###2023-12-09 13:41:44.020267$GLGSV,2,2,05,75,45,276,45,,,,,,,,,,,,*51
###2023-12-09 13:41:44.022587$GAGSV,1,1,04,04,41,309,41,19,69,180,41,21,74,044,46,27,20,051,40*6C
###2023-12-09 13:41:44.024919$GBGSV,2,1,05,12,17,124,42,24,60,049,49,25,53,279,47,33,43,215,49*6B
###2023-12-09 13:41:44.026371$GBGSV,2,2,05,35,16,054,42,,,,,,,,,,,,*58
###2023-12-09 13:41:44.027704$GNVTG,297.24,T,,M,3.34,N,6.19,K,A*23
###2023-12-09 13:41:44.029308$GNGST,184143.10,5.500,,,,0.130,0.100,0.230*6F
###2023-12-09 13:41:44.030634$GNZDA,184143.10,09,12,2023,00,00*7B
###2023-12-09 13:41:44.031278$GNEBP,,,,,,M*13
###2023-12-09 13:41:44.198374$GNGGA,184143.30,4138.0360557,N,07032.4127123,W,1,23,0.6,13.234,M,-29.745,M,0.0,*5C
###2023-12-09 13:41:44.395514$GNGGA,184143.50,4138.0361433,N,07032.4129322,W,1,22,0.7,13.239,M,-29.745,M,0.0,*58
###2023-12-09 13:41:44.596536$GNGGA,184143.70,4138.0362280,N,07032.4131497,W,1,23,0.7,13.242,M,-29.745,M,0.0,*5A
###2023-12-09 13:41:44.795802$GNGGA,184143.90,4138.0363125,N,07032.4133676,W,1,23,0.7,13.236,M,-29.745,M,0.0,*55
###2023-12-09 13:41:45.004669$GNRMC,184144.10,A,4138.0363957,N,07032.4135832,W,3.34,300.04,091223,,,A*58
###2023-12-09 13:41:45.007558$GNGGA,184144.10,4138.0363957,N,07032.4135832,W,1,23,0.7,13.238,M,-29.745,M,0.0,*51
###2023-12-09 13:41:45.009419$GPGSA,A,3,03,04,09,16,26,28,29,31,,,,,1.1,0.7,0.9*32
###2023-12-09 13:41:45.011084$GLGSA,A,3,65,72,73,74,75,,,,,,,,1.1,0.7,0.9*23
###2023-12-09 13:41:45.012667$GAGSA,A,3,04,19,21,27,,,,,,,,,1.1,0.7,0.9*27
###2023-12-09 13:41:45.014315$GBGSA,A,3,12,24,25,33,35,,,,,,,,1.1,0.7,0.9*2A
###2023-12-09 13:41:45.016646$GPGSV,2,1,08,03,24,243,37,04,49,306,43,09,15,317,41,16,70,226,46*74
###2023-12-09 13:41:45.018988$GPGSV,2,2,08,26,80,041,49,28,35,088,42,29,19,044,42,31,57,071,47*7F
###2023-12-09 13:41:45.021316$GLGSV,2,1,05,65,41,315,40,72,59,216,46,73,20,054,42,74,57,019,41*65
###2023-12-09 13:41:45.022780$GLGSV,2,2,05,75,45,276,46,,,,,,,,,,,,*52
###2023-12-09 13:41:45.025103$GAGSV,1,1,04,04,41,309,41,19,69,180,41,21,74,044,46,27,20,051,40*6C
###2023-12-09 13:41:45.027442$GBGSV,2,1,05,12,17,124,41,24,60,049,47,25,53,279,45,33,43,215,46*6B
###2023-12-09 13:41:45.028894$GBGSV,2,2,05,35,16,054,40,,,,,,,,,,,,*5A
###2023-12-09 13:41:45.030213$GNVTG,300.04,T,,M,3.34,N,6.19,K,A*2E
###2023-12-09 13:41:45.031835$GNGST,184144.10,5.400,,,,0.130,0.099,0.230*68
###2023-12-09 13:41:45.033127$GNZDA,184144.10,09,12,2023,00,00*7C
###2023-12-09 13:41:45.033766$GNEBP,,,,,,M*13
###2023-12-09 13:41:45.204519$GNGGA,184144.30,4138.0364820,N,07032.4137958,W,1,23,0.7,13.233,M,-29.745,M,0.0,*51
###2023-12-09 13:41:45.395616$GNGGA,184144.50,4138.0365692,N,07032.4140080,W,1,23,0.7,13.229,M,-29.745,M,0.0,*56
###2023-12-09 13:41:45.596209$GNGGA,184144.70,4138.0366525,N,07032.4142223,W,1,23,0.7,13.239,M,-29.745,M,0.0,*50
###2023-12-09 13:41:45.797046$GNGGA,184144.90,4138.0367370,N,07032.4144322,W,1,22,0.7,13.246,M,-29.745,M,0.0,*56
###2023-12-09 13:41:46.001494$GNRMC,184145.10,A,4138.0368233,N,07032.4146447,W,3.25,297.81,091223,,,A*53
###2023-12-09 13:41:46.004423$GNGGA,184145.10,4138.0368233,N,07032.4146447,W,1,22,0.6,13.242,M,-29.745,M,0.0,*55
###2023-12-09 13:41:46.006286$GPGSA,A,3,04,09,16,26,27,28,29,31,,,,,1.1,0.6,0.9*35
###2023-12-09 13:41:46.007949$GLGSA,A,3,65,72,73,74,75,,,,,,,,1.1,0.6,0.9*22
###2023-12-09 13:41:46.009530$GAGSA,A,3,04,19,21,27,,,,,,,,,1.1,0.6,0.9*26
###2023-12-09 13:41:46.011191$GBGSA,A,3,12,24,25,33,35,,,,,,,,1.1,0.6,0.9*2B
###2023-12-09 13:41:46.013516$GPGSV,2,1,08,04,49,306,43,09,15,317,41,16,70,226,46,26,80,041,48*75
###2023-12-09 13:41:46.015860$GPGSV,2,2,08,27,20,171,36,28,35,088,43,29,19,044,41,31,57,071,47*7C
###2023-12-09 13:41:46.018187$GLGSV,2,1,05,65,41,315,41,72,59,216,45,73,20,054,43,74,57,019,41*66
###2023-12-09 13:41:46.019651$GLGSV,2,2,05,75,45,276,46,,,,,,,,,,,,*52
###2023-12-09 13:41:46.021973$GAGSV,1,1,04,04,41,309,41,19,69,180,41,21,74,044,46,27,20,051,39*62
###2023-12-09 13:41:46.024314$GBGSV,2,1,05,12,17,124,42,24,60,049,49,25,53,279,47,33,43,215,45*67
###2023-12-09 13:41:46.025798$GBGSV,2,2,05,35,16,054,42,,,,,,,,,,,,*58
###2023-12-09 13:41:46.027127$GNVTG,297.81,T,,M,3.25,N,6.01,K,A*25
###2023-12-09 13:41:46.028736$GNGST,184145.10,5.400,,,,0.130,0.098,0.230*68
###2023-12-09 13:41:46.030013$GNZDA,184145.10,09,12,2023,00,00*7D
###2023-12-09 13:41:46.030658$GNEBP,,,,,,M*13
###2023-12-09 13:41:46.200305$GNGGA,184145.30,4138.0369056,N,07032.4148554,W,1,22,0.7,13.244,M,-29.745,M,0.0,*5D
###2023-12-09 13:41:46.397708$GNGGA,184145.50,4138.0369840,N,07032.4150659,W,1,22,0.7,13.244,M,-29.745,M,0.0,*53
###2023-12-09 13:41:46.595128$GNGGA,184145.70,4138.0370609,N,07032.4152806,W,1,22,0.7,13.246,M,-29.745,M,0.0,*5E
###2023-12-09 13:41:46.795708$GNGGA,184145.90,4138.0371373,N,07032.4154975,W,1,23,0.7,13.242,M,-29.745,M,0.0,*5F
###2023-12-09 13:41:47.002048$GNRMC,184146.10,A,4138.0372111,N,07032.4157150,W,3.23,294.79,091223,,,A*59
###2023-12-09 13:41:47.005004$GNGGA,184146.10,4138.0372111,N,07032.4157150,W,1,22,0.7,13.248,M,-29.745,M,0.0,*56
###2023-12-09 13:41:47.006812$GPGSA,A,3,04,09,16,26,28,29,31,,,,,,1.1,0.7,0.9*31
###2023-12-09 13:41:47.008454$GLGSA,A,3,65,72,73,74,75,,,,,,,,1.1,0.7,0.9*23
###2023-12-09 13:41:47.010026$GAGSA,A,3,04,19,21,27,,,,,,,,,1.1,0.7,0.9*27
###2023-12-09 13:41:47.011669$GBGSA,A,3,12,24,25,33,35,,,,,,,,1.1,0.7,0.9*2A
###2023-12-09 13:41:47.013975$GPGSV,2,1,07,04,49,306,44,09,15,317,41,16,70,226,46,26,80,041,49*7C
###2023-12-09 13:41:47.016011$GPGSV,2,2,07,28,35,088,44,29,19,044,42,31,57,071,47,,,,*42
###2023-12-09 13:41:47.018323$GLGSV,2,1,05,65,41,315,42,72,59,216,46,73,20,054,42,74,57,019,42*64
###2023-12-09 13:41:47.019778$GLGSV,2,2,05,75,45,276,45,,,,,,,,,,,,*51
###2023-12-09 13:41:47.022090$GAGSV,1,1,04,04,41,309,43,19,69,180,41,21,74,044,46,27,20,051,40*6E
###2023-12-09 13:41:47.024410$GBGSV,2,1,05,12,17,124,42,24,60,049,49,25,53,279,46,33,43,215,47*64
###2023-12-09 13:41:47.025854$GBGSV,2,2,05,35,16,054,44,,,,,,,,,,,,*5E
###2023-12-09 13:41:47.027191$GNVTG,294.79,T,,M,3.23,N,5.98,K,A*24
###2023-12-09 13:41:47.028799$GNGST,184146.10,5.400,,,,0.130,0.098,0.230*6B
###2023-12-09 13:41:47.030085$GNZDA,184146.10,09,12,2023,00,00*7E
###2023-12-09 13:41:47.030730$GNEBP,,,,,,M*13
###2023-12-09 13:41:47.196925$GNGGA,184146.30,4138.0372773,N,07032.4159305,W,1,22,0.7,13.251,M,-29.745,M,0.0,*52
###2023-12-09 13:41:47.402766$GNGGA,184146.50,4138.0373432,N,07032.4161525,W,1,22,0.7,13.246,M,-29.745,M,0.0,*5A
###2023-12-09 13:41:47.598083$GNGGA,184146.70,4138.0374025,N,07032.4163749,W,1,22,0.7,13.238,M,-29.745,M,0.0,*5E
###2023-12-09 13:41:47.797474$GNGGA,184146.90,4138.0374595,N,07032.4166018,W,1,22,0.7,13.237,M,-29.745,M,0.0,*57
###2023-12-09 13:41:48.002359$GNRMC,184147.10,A,4138.0375122,N,07032.4168312,W,3.23,284.15,091223,,,A*5C
###2023-12-09 13:41:48.005230$GNGGA,184147.10,4138.0375122,N,07032.4168312,W,1,22,0.7,13.240,M,-29.745,M,0.0,*50
###2023-12-09 13:41:48.007032$GPGSA,A,3,04,09,16,26,28,29,31,,,,,,1.1,0.7,0.9*31
###2023-12-09 13:41:48.008903$GLGSA,A,3,65,72,73,74,75,,,,,,,,1.1,0.7,0.9*23
###2023-12-09 13:41:48.010494$GAGSA,A,3,04,19,21,27,,,,,,,,,1.1,0.7,0.9*27
###2023-12-09 13:41:48.012157$GBGSA,A,3,12,24,25,33,35,,,,,,,,1.1,0.7,0.9*2A
###2023-12-09 13:41:48.014479$GPGSV,2,1,07,04,49,306,44,09,15,317,41,16,70,226,45,26,80,041,49*7F
###2023-12-09 13:41:48.016529$GPGSV,2,2,07,28,35,088,45,29,19,044,41,31,57,071,46,,,,*41
###2023-12-09 13:41:48.018861$GLGSV,2,1,05,65,41,315,42,72,59,216,46,73,20,054,42,74,57,019,43*65
###2023-12-09 13:41:48.020313$GLGSV,2,2,05,75,45,276,44,,,,,,,,,,,,*50
###2023-12-09 13:41:48.022642$GAGSV,1,1,04,04,42,309,43,19,69,180,41,21,74,044,46,27,20,051,40*6D
###2023-12-09 13:41:48.024965$GBGSV,2,1,05,12,17,124,41,24,60,049,49,25,53,279,45,33,43,215,47*64
###2023-12-09 13:41:48.026410$GBGSV,2,2,05,35,16,054,43,,,,,,,,,,,,*59
