###2023-12-09 12:48:23.347527$GNGGA,174822.50,4138.0552369,N,07032.4030923,W,1,24,0.6,13.538,M,-29.745,M,0.0,*54
###2023-12-09 12:48:23.547540$GNGGA,174822.70,4138.0552635,N,07032.4031328,W,1,24,0.6,13.534,M,-29.745,M,0.0,*56
###2023-12-09 12:48:23.747201$GNGGA,174822.90,4138.0552911,N,07032.4031752,W,1,24,0.6,13.524,M,-29.745,M,0.0,*59
###2023-12-09 12:48:23.947223$GNRMC,174823.10,A,4138.0553016,N,07032.4031876,W,0.02,311.85,091223,,,A*5C
###2023-12-09 12:48:23.950088$GNGGA,174823.10,4138.0553016,N,07032.4031876,W,1,24,0.6,13.534,M,-29.745,M,0.0,*57
###2023-12-09 12:48:23.951988$GPGSA,A,3,03,04,16,26,28,29,31,32,,,,,1.1,0.6,0.9*3B
###2023-12-09 12:48:23.953707$GLGSA,A,3,65,71,72,73,74,75,,,,,,,1.1,0.6,0.9*24
###2023-12-09 12:48:23.955348$GAGSA,A,3,04,19,21,27,,,,,,,,,1.1,0.6,0.9*26
###2023-12-09 12:48:23.956999$GBGSA,A,3,14,24,25,26,33,,,,,,,,1.1,0.6,0.9*2F
###2023-12-09 12:48:23.959343$GPGSV,2,1,08,03,37,269,46,04,27,311,44,16,43,209,45,26,73,208,48*74
###2023-12-09 12:48:23.961679$GPGSV,2,2,08,28,53,064,43,29,26,067,38,31,71,021,46,32,24,137,39*70
###2023-12-09 12:48:23.964028$GLGSV,2,1,06,65,17,329,44,71,49,171,47,72,70,294,46,73,42,037,42*6D
###2023-12-09 12:48:23.965776$GLGSV,2,2,06,74,71,314,43,75,27,246,45,,,,,,,,*61
###2023-12-09 12:48:23.968123$GAGSV,1,1,04,04,25,312,44,19,85,269,41,21,83,162,46,27,37,048,43*67
###2023-12-09 12:48:23.970462$GBGSV,2,1,05,14,50,195,45,24,78,008,47,25,36,257,45,26,31,060,41*65
###2023-12-09 12:48:23.971932$GBGSV,2,2,05,33,61,243,48,,,,,,,,,,,,*50
###2023-12-09 12:48:23.973298$GNVTG,311.85,T,,M,0.02,N,0.04,K,A*2B
###2023-12-09 12:48:23.974971$GNGST,174823.10,18.000,,,,0.077,0.070,0.160*54
###2023-12-09 12:48:23.976263$GNZDA,174823.10,09,12,2023,00,00*7B
###2023-12-09 12:48:23.976901$GNEBP,,,,,,M*13
###2023-12-09 12:48:24.148002$GNGGA,174823.30,4138.0553065,N,07032.4031880,W,1,24,0.6,13.554,M,-29.745,M,0.0,*5E
###2023-12-09 12:48:24.347901$GNGGA,174823.50,4138.0553187,N,07032.4031985,W,1,24,0.6,13.542,M,-29.745,M,0.0,*56
###2023-12-09 12:48:24.553827$GNGGA,174823.70,4138.0553437,N,07032.4032297,W,1,24,0.6,13.530,M,-29.745,M,0.0,*54
###2023-12-09 12:48:24.747825$GNGGA,174823.90,4138.0553782,N,07032.4032617,W,1,24,0.6,13.526,M,-29.745,M,0.0,*5C
###2023-12-09 12:48:24.954133$GNRMC,174824.10,A,4138.0554071,N,07032.4032596,W,0.58,311.85,091223,,,A*52
###2023-12-09 12:48:24.957030$GNGGA,174824.10,4138.0554071,N,07032.4032596,W,1,24,0.6,13.531,M,-29.745,M,0.0,*53
###2023-12-09 12:48:24.958897$GPGSA,A,3,03,04,16,26,28,29,31,32,,,,,1.1,0.6,0.9*3B
###2023-12-09 12:48:24.960604$GLGSA,A,3,65,71,72,73,74,75,,,,,,,1.1,0.6,0.9*24
###2023-12-09 12:48:24.962182$GAGSA,A,3,04,19,21,27,,,,,,,,,1.1,0.6,0.9*26
###2023-12-09 12:48:24.963840$GBGSA,A,3,14,24,25,26,33,,,,,,,,1.1,0.6,0.9*2F
###2023-12-09 12:48:24.966157$GPGSV,2,1,08,03,37,269,45,04,27,311,42,16,43,209,44,26,73,208,48*70
###2023-12-09 12:48:24.968490$GPGSV,2,2,08,28,53,064,42,29,26,067,38,31,71,021,46,32,24,137,38*70
###2023-12-09 12:48:24.970835$GLGSV,2,1,06,65,17,329,45,71,49,171,46,72,70,294,46,73,42,037,42*6D
###2023-12-09 12:48:24.972572$GLGSV,2,2,06,74,71,314,42,75,27,246,47,,,,,,,,*62
###2023-12-09 12:48:24.974902$GAGSV,1,1,04,04,25,312,44,19,85,269,41,21,83,162,46,27,37,048,43*67
###2023-12-09 12:48:24.977217$GBGSV,2,1,05,14,50,195,44,24,78,008,48,25,36,257,46,26,31,060,41*68
###2023-12-09 12:48:24.978682$GBGSV,2,2,05,33,61,243,48,,,,,,,,,,,,*50
###2023-12-09 12:48:24.980010$GNVTG,311.85,T,,M,0.58,N,1.08,K,A*29
###2023-12-09 12:48:24.981654$GNGST,174824.10,18.000,,,,0.077,0.070,0.160*53
###2023-12-09 12:48:24.982953$GNZDA,174824.10,09,12,2023,00,00*7C
###2023-12-09 12:48:24.983592$GNEBP,,,,,,M*13
###2023-12-09 12:48:25.146426$GNGGA,174824.30,4138.0554397,N,07032.4032254,W,1,24,0.6,13.549,M,-29.745,M,0.0,*5C
###2023-12-09 12:48:25.347565$GNGGA,174824.50,4138.0554894,N,07032.4031886,W,1,24,0.6,13.549,M,-29.745,M,0.0,*54
###2023-12-09 12:48:25.549389$GNGGA,174824.70,4138.0555565,N,07032.4031575,W,1,24,0.6,13.536,M,-29.745,M,0.0,*5D
###2023-12-09 12:48:25.747200$GNGGA,174824.90,4138.0556343,N,07032.4031188,W,1,24,0.6,13.528,M,-29.745,M,0.0,*5B
###2023-12-09 12:48:25.947122$GNRMC,174825.10,A,4138.0557170,N,07032.4030601,W,1.87,33.69,091223,,,A*6D
###2023-12-09 12:48:25.949983$GNGGA,174825.10,4138.0557170,N,07032.4030601,W,1,24,0.6,13.541,M,-29.745,M,0.0,*59
###2023-12-09 12:48:25.951855$GPGSA,A,3,03,04,16,26,28,29,31,32,,,,,1.1,0.6,0.9*3B
###2023-12-09 12:48:25.953571$GLGSA,A,3,65,71,72,73,74,75,,,,,,,1.1,0.6,0.9*24
###2023-12-09 12:48:25.955169$GAGSA,A,3,04,19,21,27,,,,,,,,,1.1,0.6,0.9*26
###2023-12-09 12:48:25.956810$GBGSA,A,3,14,24,25,26,33,,,,,,,,1.1,0.6,0.9*2F
###2023-12-09 12:48:25.959144$GPGSV,2,1,08,03,37,269,45,04,27,311,44,16,43,209,44,26,73,208,48*76
###2023-12-09 12:48:25.961474$GPGSV,2,2,08,28,53,064,43,29,26,067,39,31,71,021,46,32,24,137,41*7E
###2023-12-09 12:48:25.963817$GLGSV,2,1,06,65,17,329,43,71,49,171,47,72,70,294,46,73,42,037,42*6A
###2023-12-09 12:48:25.965562$GLGSV,2,2,06,74,71,314,42,75,27,246,46,,,,,,,,*63
###2023-12-09 12:48:25.967889$GAGSV,1,1,04,04,25,312,43,19,85,269,41,21,83,162,46,27,37,048,42*61
###2023-12-09 12:48:25.970214$GBGSV,2,1,05,14,50,195,44,24,78,008,47,25,36,257,44,26,31,060,42*66
###2023-12-09 12:48:25.971676$GBGSV,2,2,05,33,61,243,48,,,,,,,,,,,,*50
###2023-12-09 12:48:25.972962$GNVTG,33.69,T,,M,1.87,N,3.46,K,A*13
###2023-12-09 12:48:25.974613$GNGST,174825.10,18.000,,,,0.077,0.070,0.160*52
###2023-12-09 12:48:25.975906$GNZDA,174825.10,09,12,2023,00,00*7D
###2023-12-09 12:48:25.976545$GNEBP,,,,,,M*13
###2023-12-09 12:48:26.146986$GNGGA,174825.30,4138.0558064,N,07032.4029821,W,1,24,0.6,13.555,M,-29.745,M,0.0,*51
###2023-12-09 12:48:26.347336$GNGGA,174825.50,4138.0558989,N,07032.4028882,W,1,24,0.6,13.553,M,-29.745,M,0.0,*53
###2023-12-09 12:48:26.549519$GNGGA,174825.70,4138.0559947,N,07032.4027818,W,1,24,0.6,13.538,M,-29.745,M,0.0,*53
###2023-12-09 12:48:26.746152$GNGGA,174825.90,4138.0560898,N,07032.4026693,W,1,24,0.6,13.537,M,-29.745,M,0.0,*57
###2023-12-09 12:48:26.947289$GNRMC,174826.10,A,4138.0561990,N,07032.4025537,W,2.62,42.36,091223,,,A*6B
###2023-12-09 12:48:26.950157$GNGGA,174826.10,4138.0561990,N,07032.4025537,W,1,24,0.6,13.544,M,-29.744,M,0.0,*5F
###2023-12-09 12:48:26.952036$GPGSA,A,3,03,04,16,26,28,29,31,32,,,,,1.1,0.6,0.9*3B
###2023-12-09 12:48:26.953750$GLGSA,A,3,65,71,72,73,74,75,,,,,,,1.1,0.6,0.9*24
###2023-12-09 12:48:26.955343$GAGSA,A,3,04,19,21,27,,,,,,,,,1.1,0.6,0.9*26
###2023-12-09 12:48:26.956989$GBGSA,A,3,14,24,25,26,33,,,,,,,,1.1,0.6,0.9*2F
###2023-12-09 12:48:26.959331$GPGSV,2,1,08,03,37,269,44,04,27,311,43,16,43,209,45,26,73,208,48*71
###2023-12-09 12:48:26.961650$GPGSV,2,2,08,28,53,064,43,29,26,067,39,31,71,021,46,32,24,137,42*7D
###2023-12-09 12:48:26.963989$GLGSV,2,1,06,65,17,329,44,71,49,171,47,72,70,294,45,73,42,037,44*68
###2023-12-09 12:48:26.965729$GLGSV,2,2,06,74,71,314,42,75,27,246,45,,,,,,,,*60
###2023-12-09 12:48:26.968065$GAGSV,1,1,04,04,25,312,42,19,85,269,41,21,83,162,47,27,37,048,42*61
###2023-12-09 12:48:26.970385$GBGSV,2,1,05,14,50,195,45,24,78,008,48,25,36,257,45,26,31,060,42*69
###2023-12-09 12:48:26.971852$GBGSV,2,2,05,33,61,243,48,,,,,,,,,,,,*50
###2023-12-09 12:48:26.973138$GNVTG,42.36,T,,M,2.62,N,4.86,K,A*1C
###2023-12-09 12:48:26.974790$GNGST,174826.10,18.000,,,,0.077,0.070,0.160*51
###2023-12-09 12:48:26.976080$GNZDA,174826.10,09,12,2023,00,00*7E
###2023-12-09 12:48:26.976717$GNEBP,,,,,,M*13
###2023-12-09 12:48:27.147040$GNGGA,174826.30,4138.0562965,N,07032.4024054,W,1,24,0.6,13.547,M,-29.744,M,0.0,*56
###2023-12-09 12:48:27.347632$GNGGA,174826.50,4138.0563618,N,07032.4022410,W,1,24,0.6,13.537,M,-29.744,M,0.0,*51
###2023-12-09 12:48:27.547367$GNGGA,174826.70,4138.0564245,N,07032.4020809,W,1,24,0.6,13.545,M,-29.744,M,0.0,*5B
###2023-12-09 12:48:27.747272$GNGGA,174826.90,4138.0565047,N,07032.4019067,W,1,24,0.6,13.546,M,-29.744,M,0.0,*5D
###2023-12-09 12:48:27.947223$GNRMC,174827.10,A,4138.0565710,N,07032.4017366,W,2.53,68.63,091223,,,A*61
###2023-12-09 12:48:27.950078$GNGGA,174827.10,4138.0565710,N,07032.4017366,W,1,24,0.6,13.526,M,-29.744,M,0.0,*5B
###2023-12-09 12:48:27.951953$GPGSA,A,3,03,04,16,26,28,29,31,32,,,,,1.1,0.6,0.9*3B
###2023-12-09 12:48:27.953934$GLGSA,A,3,65,71,72,73,74,75,,,,,,,1.1,0.6,0.9*24
###2023-12-09 12:48:27.955542$GAGSA,A,3,04,19,21,27,,,,,,,,,1.1,0.6,0.9*26
###2023-12-09 12:48:27.957199$GBGSA,A,3,14,24,25,26,33,,,,,,,,1.1,0.6,0.9*2F
###2023-12-09 12:48:27.959554$GPGSV,2,1,08,03,37,269,45,04,27,311,42,16,43,209,45,26,73,208,48*71
###2023-12-09 12:48:27.961890$GPGSV,2,2,08,28,53,064,44,29,26,067,42,31,71,021,47,32,24,137,43*76
###2023-12-09 12:48:27.964237$GLGSV,2,1,06,65,17,329,42,71,49,171,45,72,70,294,46,73,42,037,46*6D
###2023-12-09 12:48:27.965988$GLGSV,2,2,06,74,71,314,42,75,27,246,44,,,,,,,,*61
###2023-12-09 12:48:27.968331$GAGSV,1,1,04,04,25,312,41,19,85,269,40,21,83,162,47,27,37,048,42*63
###2023-12-09 12:48:27.970681$GBGSV,2,1,05,14,50,195,45,24,78,008,48,25,36,257,45,26,31,060,42*69
###2023-12-09 12:48:27.972143$GBGSV,2,2,05,33,61,243,48,,,,,,,,,,,,*50
