###2023-12-09 13:33:14.012171$GPGSV,2,2,08,27,16,173,42,28,39,084,43,29,21,048,39,31,60,064,46*71
###2023-12-09 13:33:14.014527$GLGSV,2,1,06,65,38,319,43,71,23,175,41,72,63,222,46,73,23,052,38*6C
###2023-12-09 13:33:14.016296$GLGSV,2,2,06,74,60,013,40,75,43,271,47,,,,,,,,*62
###2023-12-09 13:33:14.018650$GAGSV,1,1,04,04,39,310,44,19,73,182,41,21,77,047,45,27,23,050,38*69
###2023-12-09 13:33:14.020976$GBGSV,2,1,06,14,29,190,42,24,63,045,48,25,50,275,48,26,16,070,42*6C
###2023-12-09 13:33:14.022740$GBGSV,2,2,06,33,46,217,47,35,16,057,42,,,,,,,,*6D
###2023-12-09 13:33:14.024032$GNVTG,11.66,T,,M,2.80,N,5.18,K,A*15
###2023-12-09 13:33:14.025674$GNGST,183313.10,18.000,,,,0.100,0.070,0.170*54
###2023-12-09 13:33:14.026976$GNZDA,183313.10,09,12,2023,00,00*7B
###2023-12-09 13:33:14.027615$GNEBP,,,,,,M*13
###2023-12-09 13:33:14.194908$GNGGA,183313.30,4138.0492547,N,07032.4105905,W,1,25,0.6,13.373,M,-29.745,M,0.0,*5F
###2023-12-09 13:33:14.393191$GNGGA,183313.50,4138.0494141,N,07032.4105199,W,1,25,0.6,13.382,M,-29.745,M,0.0,*5E
###2023-12-09 13:33:14.594624$GNGGA,183313.70,4138.0495771,N,07032.4104731,W,1,25,0.6,13.367,M,-29.745,M,0.0,*56
###2023-12-09 13:33:14.796733$GNGGA,183313.90,4138.0497346,N,07032.4104552,W,1,25,0.6,13.362,M,-29.745,M,0.0,*58
###2023-12-09 13:33:15.001223$GNRMC,183314.10,A,4138.0498961,N,07032.4104231,W,3.01,14.86,091223,,,A*6F
###2023-12-09 13:33:15.004103$GNGGA,183314.10,4138.0498961,N,07032.4104231,W,1,25,0.6,13.369,M,-29.745,M,0.0,*5E
###2023-12-09 13:33:15.005955$GPGSA,A,3,03,04,16,26,27,28,29,31,,,,,1.0,0.6,0.8*3F
###2023-12-09 13:33:15.007682$GLGSA,A,3,65,71,72,73,74,75,,,,,,,1.0,0.6,0.8*24
###2023-12-09 13:33:15.009269$GAGSA,A,3,04,19,21,27,,,,,,,,,1.0,0.6,0.8*26
###2023-12-09 13:33:15.010994$GBGSA,A,3,14,24,25,26,33,35,,,,,,,1.0,0.6,0.8*29
###2023-12-09 13:33:15.013315$GPGSV,2,1,08,03,27,247,42,04,46,308,45,16,65,221,47,26,85,040,48*78
###2023-12-09 13:33:15.015651$GPGSV,2,2,08,27,16,173,43,28,39,084,44,29,21,048,40,31,60,064,46*79
###2023-12-09 13:33:15.017982$GLGSV,2,1,06,65,38,319,43,71,23,175,42,72,63,222,46,73,23,052,37*60
###2023-12-09 13:33:15.019739$GLGSV,2,2,06,74,60,013,41,75,43,271,48,,,,,,,,*6C
###2023-12-09 13:33:15.022066$GAGSV,1,1,04,04,39,310,43,19,73,182,41,21,77,047,45,27,23,050,38*6E
###2023-12-09 13:33:15.024407$GBGSV,2,1,06,14,29,190,41,24,63,045,47,25,50,275,47,26,16,070,42*6F
###2023-12-09 13:33:15.026154$GBGSV,2,2,06,33,46,217,47,35,16,057,41,,,,,,,,*6E
###2023-12-09 13:33:15.027455$GNVTG,14.86,T,,M,3.01,N,5.58,K,A*12
###2023-12-09 13:33:15.029108$GNGST,183314.10,18.000,,,,0.100,0.070,0.160*52
###2023-12-09 13:33:15.030404$GNZDA,183314.10,09,12,2023,00,00*7C
###2023-12-09 13:33:15.031058$GNEBP,,,,,,M*13
###2023-12-09 13:33:15.200716$GNGGA,183314.30,4138.0500582,N,07032.4103624,W,1,25,0.6,13.386,M,-29.745,M,0.0,*5B
###2023-12-09 13:33:15.398731$GNGGA,183314.50,4138.0502185,N,07032.4103103,W,1,25,0.6,13.409,M,-29.745,M,0.0,*5E
###2023-12-09 13:33:15.597009$GNGGA,183314.70,4138.0503835,N,07032.4102620,W,1,25,0.6,13.409,M,-29.745,M,0.0,*58
###2023-12-09 13:33:15.793424$GNGGA,183314.90,4138.0505437,N,07032.4101878,W,1,25,0.6,13.385,M,-29.745,M,0.0,*5D
###2023-12-09 13:33:15.997115$GNRMC,183315.10,A,4138.0506935,N,07032.4100976,W,2.86,24.64,091223,,,A*64
###2023-12-09 13:33:15.999997$GNGGA,183315.10,4138.0506935,N,07032.4100976,W,1,25,0.6,13.374,M,-29.745,M,0.0,*58
###2023-12-09 13:33:16.001854$GPGSA,A,3,03,04,16,26,27,28,29,31,,,,,1.0,0.6,0.8*3F
###2023-12-09 13:33:16.003581$GLGSA,A,3,65,71,72,73,74,75,,,,,,,1.0,0.6,0.8*24
###2023-12-09 13:33:16.005160$GAGSA,A,3,04,19,21,27,,,,,,,,,1.0,0.6,0.8*26
###2023-12-09 13:33:16.006878$GBGSA,A,3,14,24,25,26,33,35,,,,,,,1.0,0.6,0.8*29
###2023-12-09 13:33:16.009206$GPGSV,2,1,08,03,27,247,43,04,46,308,45,16,65,221,46,26,85,040,48*78
###2023-12-09 13:33:16.011544$GPGSV,2,2,08,27,16,173,41,28,39,084,43,29,21,048,40,31,60,064,45*7F
###2023-12-09 13:33:16.013872$GLGSV,2,1,06,65,38,319,42,71,23,175,43,72,63,222,46,73,23,052,41*61
###2023-12-09 13:33:16.015633$GLGSV,2,2,06,74,60,013,41,75,43,271,47,,,,,,,,*63
###2023-12-09 13:33:16.017963$GAGSV,1,1,04,04,39,310,43,19,73,182,41,21,77,047,46,27,23,050,40*62
###2023-12-09 13:33:16.020298$GBGSV,2,1,06,14,29,190,41,24,63,045,47,25,50,275,47,26,16,070,42*6F
###2023-12-09 13:33:16.022044$GBGSV,2,2,06,33,46,217,48,35,16,057,44,,,,,,,,*64
###2023-12-09 13:33:16.023347$GNVTG,24.64,T,,M,2.86,N,5.29,K,A*15
###2023-12-09 13:33:16.024996$GNGST,183315.10,18.000,,,,0.097,0.070,0.160*5C
###2023-12-09 13:33:16.026288$GNZDA,183315.10,09,12,2023,00,00*7D
###2023-12-09 13:33:16.026936$GNEBP,,,,,,M*13
###2023-12-09 13:33:16.194372$GNGGA,183315.30,4138.0508448,N,07032.4100224,W,1,25,0.6,13.400,M,-29.745,M,0.0,*5B
###2023-12-09 13:33:16.393542$GNGGA,183315.50,4138.0509975,N,07032.4099282,W,1,25,0.6,13.420,M,-29.745,M,0.0,*50
###2023-12-09 13:33:16.594196$GNGGA,183315.70,4138.0511328,N,07032.4097903,W,1,25,0.6,13.407,M,-29.745,M,0.0,*50
###2023-12-09 13:33:16.793375$GNGGA,183315.90,4138.0512639,N,07032.4096714,W,1,25,0.6,13.419,M,-29.745,M,0.0,*5E
###2023-12-09 13:33:16.997231$GNRMC,183316.10,A,4138.0514178,N,07032.4095810,W,3.15,27.88,091223,,,A*63
###2023-12-09 13:33:17.000126$GNGGA,183316.10,4138.0514178,N,07032.4095810,W,1,25,0.6,13.438,M,-29.745,M,0.0,*5A
###2023-12-09 13:33:17.001987$GPGSA,A,3,03,04,16,26,27,28,29,31,,,,,1.0,0.6,0.8*3F
###2023-12-09 13:33:17.003715$GLGSA,A,3,65,71,72,73,74,75,,,,,,,1.0,0.6,0.8*24
###2023-12-09 13:33:17.005306$GAGSA,A,3,04,19,21,27,,,,,,,,,1.0,0.6,0.8*26
###2023-12-09 13:33:17.007033$GBGSA,A,3,14,24,25,26,33,35,,,,,,,1.0,0.6,0.8*29
###2023-12-09 13:33:17.009360$GPGSV,2,1,08,03,27,247,41,04,46,308,46,16,66,222,46,26,85,040,48*79
###2023-12-09 13:33:17.011705$GPGSV,2,2,08,27,16,173,41,28,39,084,43,29,21,048,40,31,60,064,45*7F
###2023-12-09 13:33:17.014041$GLGSV,2,1,06,65,38,319,43,71,23,175,41,72,63,222,46,73,23,052,39*6D
###2023-12-09 13:33:17.015803$GLGSV,2,2,06,74,60,013,41,75,43,271,48,,,,,,,,*6C
###2023-12-09 13:33:17.018136$GAGSV,1,1,04,04,39,310,44,19,73,182,41,21,77,047,45,27,23,050,39*68
###2023-12-09 13:33:17.020479$GBGSV,2,1,06,14,29,190,40,24,63,045,46,25,50,275,46,26,16,070,41*6D
###2023-12-09 13:33:17.022228$GBGSV,2,2,06,33,46,217,46,35,16,057,42,,,,,,,,*6C
###2023-12-09 13:33:17.023535$GNVTG,27.88,T,,M,3.15,N,5.83,K,A*1F
###2023-12-09 13:33:17.025184$GNGST,183316.10,18.000,,,,0.096,0.069,0.160*56
###2023-12-09 13:33:17.026479$GNZDA,183316.10,09,12,2023,00,00*7E
###2023-12-09 13:33:17.027128$GNEBP,,,,,,M*13
###2023-12-09 13:33:17.194292$GNGGA,183316.30,4138.0515571,N,07032.4094410,W,1,25,0.6,13.399,M,-29.745,M,0.0,*55
###2023-12-09 13:33:17.393449$GNGGA,183316.50,4138.0516842,N,07032.4092963,W,1,25,0.6,13.394,M,-29.745,M,0.0,*5F
###2023-12-09 13:33:17.592820$GNGGA,183316.70,4138.0518326,N,07032.4091900,W,1,25,0.6,13.446,M,-29.745,M,0.0,*54
###2023-12-09 13:33:17.793565$GNGGA,183316.90,4138.0519890,N,07032.4090760,W,1,25,0.6,13.447,M,-29.745,M,0.0,*55
###2023-12-09 13:33:17.997201$GNRMC,183317.10,A,4138.0521298,N,07032.4089438,W,3.17,36.74,091223,,,A*63
###2023-12-09 13:33:18.000082$GNGGA,183317.10,4138.0521298,N,07032.4089438,W,1,26,0.6,13.427,M,-29.745,M,0.0,*56
###2023-12-09 13:33:18.001937$GPGSA,A,3,03,04,16,26,27,28,29,31,,,,,1.0,0.6,0.8*3F
###2023-12-09 13:33:18.003666$GLGSA,A,3,65,71,72,73,74,75,,,,,,,1.0,0.6,0.8*24
###2023-12-09 13:33:18.005252$GAGSA,A,3,04,19,21,27,,,,,,,,,1.0,0.6,0.8*26
###2023-12-09 13:33:18.007040$GBGSA,A,3,12,14,24,25,26,33,35,,,,,,1.0,0.6,0.8*2A
###2023-12-09 13:33:18.009366$GPGSV,2,1,08,03,27,247,41,04,46,308,45,16,66,222,46,26,85,040,48*7A
###2023-12-09 13:33:18.011707$GPGSV,2,2,08,27,16,173,38,28,39,084,43,29,21,048,41,31,60,064,46*73
###2023-12-09 13:33:18.014030$GLGSV,2,1,06,65,38,319,42,71,23,175,41,72,63,222,46,73,23,052,40*62
###2023-12-09 13:33:18.015785$GLGSV,2,2,06,74,60,013,41,75,43,271,48,,,,,,,,*6C
###2023-12-09 13:33:18.018107$GAGSV,1,1,04,04,39,310,44,19,73,182,41,21,77,047,45,27,23,050,38*69
###2023-12-09 13:33:18.020443$GBGSV,2,1,07,12,15,126,38,14,29,190,40,24,63,045,47,25,50,275,47*64
###2023-12-09 13:33:18.022482$GBGSV,2,2,07,26,16,070,42,33,46,217,47,35,16,057,42,,,,*5E
###2023-12-09 13:33:18.024042$GNVTG,36.74,T,,M,3.17,N,5.87,K,A*1A
###2023-12-09 13:33:18.025704$GNGST,183317.10,15.000,,,,0.096,0.069,0.160*5A
###2023-12-09 13:33:18.027011$GNZDA,183317.10,09,12,2023,00,00*7F
###2023-12-09 13:33:18.027655$GNEBP,,,,,,M*13
###2023-12-09 13:33:18.195719$GNGGA,183317.30,4138.0522716,N,07032.4087997,W,1,26,0.6,13.415,M,-29.745,M,0.0,*53
###2023-12-09 13:33:18.394533$GNGGA,183317.50,4138.0524231,N,07032.4086780,W,1,26,0.6,13.413,M,-29.745,M,0.0,*5C
###2023-12-09 13:33:18.594612$GNGGA,183317.70,4138.0525851,N,07032.4085954,W,1,26,0.6,13.438,M,-29.745,M,0.0,*5E
###2023-12-09 13:33:18.796192$GNGGA,183317.90,4138.0527440,N,07032.4084897,W,1,26,0.6,13.465,M,-29.745,M,0.0,*59
###2023-12-09 13:33:18.999966$GNRMC,183318.10,A,4138.0528993,N,07032.4083507,W,3.42,33.41,091223,,,A*61
###2023-12-09 13:33:19.002832$GNGGA,183318.10,4138.0528993,N,07032.4083507,W,1,26,0.6,13.453,M,-29.745,M,0.0,*54
