###2023-12-09 13:36:48.030325$GNVTG,126.95,T,,M,0.76,N,1.40,K,A*2E
###2023-12-09 13:36:48.031987$GNGST,183647.10,5.700,,,,0.089,0.065,0.150*6D
###2023-12-09 13:36:48.033280$GNZDA,183647.10,09,12,2023,00,00*7F
###2023-12-09 13:36:48.033917$GNEBP,,,,,,M*13
###2023-12-09 13:36:48.199658$GNGGA,183647.30,4138.0433543,N,07032.4015107,W,1,27,0.6,13.501,M,-29.745,M,0.0,*5F
###2023-12-09 13:36:48.397461$GNGGA,183647.50,4138.0433296,N,07032.4014886,W,1,27,0.6,13.497,M,-29.745,M,0.0,*59
###2023-12-09 13:36:48.598214$GNGGA,183647.70,4138.0433092,N,07032.4014815,W,1,27,0.6,13.476,M,-29.745,M,0.0,*58
###2023-12-09 13:36:48.799147$GNGGA,183647.90,4138.0432965,N,07032.4015278,W,1,26,0.6,13.485,M,-29.745,M,0.0,*5B
###2023-12-09 13:36:49.002870$GNRMC,183648.10,A,4138.0432834,N,07032.4015746,W,0.52,126.95,091223,,,A*51
###2023-12-09 13:36:49.005741$GNGGA,183648.10,4138.0432834,N,07032.4015746,W,1,26,0.6,13.484,M,-29.745,M,0.0,*50
###2023-12-09 13:36:49.007618$GPGSA,A,3,03,04,16,26,27,28,29,31,,,,,1.0,0.6,0.8*3F
###2023-12-09 13:36:49.009405$GLGSA,A,3,65,71,72,73,74,75,83,,,,,,1.0,0.6,0.8*2F
###2023-12-09 13:36:49.011030$GAGSA,A,3,04,19,21,27,,,,,,,,,1.0,0.6,0.8*26
###2023-12-09 13:36:49.012742$GBGSA,A,3,12,14,24,25,33,35,,,,,,,1.0,0.6,0.8*2E
###2023-12-09 13:36:49.015083$GPGSV,2,1,08,03,26,246,40,04,47,307,46,16,67,223,45,26,83,040,47*7C
###2023-12-09 13:36:49.017417$GPGSV,2,2,08,27,17,172,38,28,37,085,43,29,20,046,42,31,59,067,46*79
###2023-12-09 13:36:49.019755$GLGSV,2,1,07,65,39,317,46,71,21,175,42,72,61,219,46,73,21,053,43*63
###2023-12-09 13:36:49.021796$GLGSV,2,2,07,74,59,016,43,75,44,273,48,83,15,047,36,,,,*5C
###2023-12-09 13:36:49.024139$GAGSV,1,1,04,04,40,310,45,19,71,181,40,21,76,045,46,27,22,050,41*69
###2023-12-09 13:36:49.026468$GBGSV,2,1,06,12,16,125,41,14,28,189,41,24,62,047,48,25,52,277,49*61
###2023-12-09 13:36:49.028227$GBGSV,2,2,06,33,44,216,45,35,16,055,45,,,,,,,,*69
###2023-12-09 13:36:49.029554$GNVTG,126.95,T,,M,0.52,N,0.97,K,A*23
###2023-12-09 13:36:49.031176$GNGST,183648.10,5.700,,,,0.089,0.066,0.150*61
###2023-12-09 13:36:49.032467$GNZDA,183648.10,09,12,2023,00,00*70
###2023-12-09 13:36:49.033102$GNEBP,,,,,,M*13
###2023-12-09 13:36:49.198973$GNGGA,183648.30,4138.0432639,N,07032.4015796,W,1,26,0.6,13.485,M,-29.745,M,0.0,*5D
###2023-12-09 13:36:49.398751$GNGGA,183648.50,4138.0432413,N,07032.4015662,W,1,26,0.6,13.487,M,-29.745,M,0.0,*59
###2023-12-09 13:36:49.598997$GNGGA,183648.70,4138.0432241,N,07032.4015827,W,1,26,0.6,13.482,M,-29.745,M,0.0,*50
###2023-12-09 13:36:49.799108$GNGGA,183648.90,4138.0432119,N,07032.4016254,W,1,26,0.6,13.484,M,-29.745,M,0.0,*5B
###2023-12-09 13:36:50.002016$GNRMC,183649.10,A,4138.0431978,N,07032.4016591,W,0.39,126.95,091223,,,A*5C
###2023-12-09 13:36:50.004880$GNGGA,183649.10,4138.0431978,N,07032.4016591,W,1,26,0.6,13.476,M,-29.745,M,0.0,*5D
###2023-12-09 13:36:50.006742$GPGSA,A,3,03,04,16,26,27,28,29,31,,,,,1.0,0.6,0.8*3F
###2023-12-09 13:36:50.008517$GLGSA,A,3,65,71,72,73,74,75,83,,,,,,1.0,0.6,0.8*2F
###2023-12-09 13:36:50.010092$GAGSA,A,3,04,19,21,27,,,,,,,,,1.0,0.6,0.8*26
###2023-12-09 13:36:50.011804$GBGSA,A,3,12,14,24,25,33,35,,,,,,,1.0,0.6,0.8*2E
###2023-12-09 13:36:50.014122$GPGSV,2,1,08,03,26,246,39,04,47,307,45,16,67,223,45,26,83,040,48*7E
###2023-12-09 13:36:50.016441$GPGSV,2,2,08,27,17,172,39,28,37,085,44,29,20,046,42,31,59,067,46*7F
###2023-12-09 13:36:50.018771$GLGSV,2,1,07,65,39,317,45,71,21,175,40,72,61,219,45,73,21,053,45*67
###2023-12-09 13:36:50.020798$GLGSV,2,2,07,74,59,016,43,75,44,273,47,83,15,047,36,,,,*53
###2023-12-09 13:36:50.023122$GAGSV,1,1,04,04,40,310,45,19,71,181,40,21,76,045,46,27,22,050,41*69
###2023-12-09 13:36:50.025426$GBGSV,2,1,06,12,16,125,40,14,28,189,42,24,62,047,48,25,52,277,48*62
###2023-12-09 13:36:50.027166$GBGSV,2,2,06,33,44,216,45,35,16,055,44,,,,,,,,*68
###2023-12-09 13:36:50.028482$GNVTG,126.95,T,,M,0.39,N,0.72,K,A*25
###2023-12-09 13:36:50.030087$GNGST,183649.10,5.500,,,,0.089,0.066,0.150*62
###2023-12-09 13:36:50.031380$GNZDA,183649.10,09,12,2023,00,00*71
###2023-12-09 13:36:50.032019$GNEBP,,,,,,M*13
###2023-12-09 13:36:50.198429$GNGGA,183649.30,4138.0431790,N,07032.4016643,W,1,26,0.6,13.473,M,-29.745,M,0.0,*5E
###2023-12-09 13:36:50.398478$GNGGA,183649.50,4138.0431599,N,07032.4016663,W,1,26,0.6,13.474,M,-29.745,M,0.0,*56
###2023-12-09 13:36:50.598234$GNGGA,183649.70,4138.0431453,N,07032.4016996,W,1,26,0.6,13.482,M,-29.745,M,0.0,*5F
###2023-12-09 13:36:50.798494$GNGGA,183649.90,4138.0431273,N,07032.4017450,W,1,26,0.6,13.482,M,-29.745,M,0.0,*53
###2023-12-09 13:36:51.005111$GNRMC,183650.10,A,4138.0430971,N,07032.4017767,W,0.72,126.95,091223,,,A*59
###2023-12-09 13:36:51.008005$GNGGA,183650.10,4138.0430971,N,07032.4017767,W,1,26,0.6,13.466,M,-29.745,M,0.0,*56
###2023-12-09 13:36:51.009862$GPGSA,A,3,03,04,16,26,27,28,29,31,,,,,1.0,0.6,0.8*3F
###2023-12-09 13:36:51.011659$GLGSA,A,3,65,71,72,73,74,75,83,,,,,,1.0,0.6,0.8*2F
###2023-12-09 13:36:51.013247$GAGSA,A,3,04,19,21,27,,,,,,,,,1.0,0.6,0.8*26
###2023-12-09 13:36:51.014971$GBGSA,A,3,12,14,24,25,33,35,,,,,,,1.0,0.6,0.8*2E
###2023-12-09 13:36:51.017301$GPGSV,2,1,08,03,26,246,38,04,47,307,45,16,67,223,45,26,83,040,48*7F
###2023-12-09 13:36:51.019645$GPGSV,2,2,08,27,17,172,39,28,37,085,44,29,20,046,42,31,59,067,47*7E
###2023-12-09 13:36:51.021979$GLGSV,2,1,07,65,39,317,45,71,21,175,39,72,61,219,45,73,21,053,45*69
###2023-12-09 13:36:51.024032$GLGSV,2,2,07,74,59,016,43,75,44,273,47,83,15,047,37,,,,*52
###2023-12-09 13:36:51.026366$GAGSV,1,1,04,04,40,310,44,19,71,181,40,21,76,045,46,27,22,050,41*68
###2023-12-09 13:36:51.028725$GBGSV,2,1,06,12,16,125,40,14,28,189,41,24,62,047,48,25,52,277,47*6E
###2023-12-09 13:36:51.030488$GBGSV,2,2,06,33,44,216,44,35,16,055,44,,,,,,,,*69
###2023-12-09 13:36:51.031838$GNVTG,126.95,T,,M,0.72,N,1.33,K,A*2E
###2023-12-09 13:36:51.033463$GNGST,183650.10,5.800,,,,0.090,0.067,0.150*6E
###2023-12-09 13:36:51.034776$GNZDA,183650.10,09,12,2023,00,00*79
###2023-12-09 13:36:51.035421$GNEBP,,,,,,M*13
###2023-12-09 13:36:51.209276$GNGGA,183650.30,4138.0430540,N,07032.4017994,W,1,26,0.6,13.456,M,-29.745,M,0.0,*5B
###2023-12-09 13:36:51.403629$GNGGA,183650.50,4138.0430014,N,07032.4018389,W,1,26,0.6,13.459,M,-29.745,M,0.0,*5F
###2023-12-09 13:36:51.598187$GNGGA,183650.70,4138.0429432,N,07032.4019099,W,1,26,0.6,13.471,M,-29.745,M,0.0,*5C
###2023-12-09 13:36:51.808674$GNGGA,183650.90,4138.0428764,N,07032.4019831,W,1,25,0.6,13.471,M,-29.745,M,0.0,*5A
###2023-12-09 13:36:52.001832$GNRMC,183651.10,A,4138.0427960,N,07032.4020339,W,1.67,197.55,091223,,,A*56
###2023-12-09 13:36:52.004714$GNGGA,183651.10,4138.0427960,N,07032.4020339,W,1,25,0.6,13.462,M,-29.745,M,0.0,*5D
###2023-12-09 13:36:52.006588$GPGSA,A,3,03,04,16,26,27,28,29,31,,,,,1.0,0.6,0.8*3F
###2023-12-09 13:36:52.008303$GLGSA,A,3,65,71,72,73,74,75,,,,,,,1.0,0.6,0.8*24
###2023-12-09 13:36:52.009882$GAGSA,A,3,04,19,21,27,,,,,,,,,1.0,0.6,0.8*26
###2023-12-09 13:36:52.011613$GBGSA,A,3,12,14,24,25,33,35,,,,,,,1.0,0.6,0.8*2E
###2023-12-09 13:36:52.013935$GPGSV,2,1,08,03,26,246,41,04,47,307,45,16,67,223,45,26,83,040,48*71
###2023-12-09 13:36:52.016273$GPGSV,2,2,08,27,17,172,37,28,37,085,45,29,20,046,43,31,59,067,46*71
###2023-12-09 13:36:52.018604$GLGSV,2,1,06,65,39,317,43,71,21,175,39,72,61,219,43,73,21,053,40*6D
###2023-12-09 13:36:52.020344$GLGSV,2,2,06,74,59,016,41,75,44,273,46,,,,,,,,*68
###2023-12-09 13:36:52.022677$GAGSV,1,1,04,04,40,310,45,19,71,181,40,21,76,045,46,27,22,050,41*69
###2023-12-09 13:36:52.024999$GBGSV,2,1,06,12,16,125,41,14,28,189,41,24,62,047,48,25,52,277,47*6F
###2023-12-09 13:36:52.026749$GBGSV,2,2,06,33,44,216,45,35,16,055,43,,,,,,,,*6F
###2023-12-09 13:36:52.028071$GNVTG,197.55,T,,M,1.67,N,3.10,K,A*2E
###2023-12-09 13:36:52.029681$GNGST,183651.10,5.600,,,,0.091,0.068,0.150*6F
###2023-12-09 13:36:52.031006$GNZDA,183651.10,09,12,2023,00,00*78
###2023-12-09 13:36:52.031644$GNEBP,,,,,,M*13
###2023-12-09 13:36:52.198188$GNGGA,183651.30,4138.0426995,N,07032.4020656,W,1,25,0.6,13.443,M,-29.745,M,0.0,*5B
###2023-12-09 13:36:52.397255$GNGGA,183651.50,4138.0426036,N,07032.4021070,W,1,25,0.6,13.442,M,-29.745,M,0.0,*5F
###2023-12-09 13:36:52.597239$GNGGA,183651.70,4138.0424993,N,07032.4021761,W,1,25,0.6,13.454,M,-29.745,M,0.0,*59
###2023-12-09 13:36:52.798033$GNGGA,183651.90,4138.0423816,N,07032.4022273,W,1,25,0.6,13.441,M,-29.745,M,0.0,*5D
###2023-12-09 13:36:53.001009$GNRMC,183652.10,A,4138.0422645,N,07032.4022312,W,1.98,178.21,091223,,,A*51
###2023-12-09 13:36:53.003884$GNGGA,183652.10,4138.0422645,N,07032.4022312,W,1,25,0.6,13.421,M,-29.745,M,0.0,*5F
###2023-12-09 13:36:53.005728$GPGSA,A,3,03,04,16,26,27,28,29,31,,,,,1.0,0.6,0.8*3F
###2023-12-09 13:36:53.007450$GLGSA,A,3,65,71,72,73,74,75,,,,,,,1.0,0.6,0.8*24
###2023-12-09 13:36:53.009032$GAGSA,A,3,04,19,21,27,,,,,,,,,1.0,0.6,0.8*26
###2023-12-09 13:36:53.010782$GBGSA,A,3,12,14,24,25,33,35,,,,,,,1.0,0.6,0.8*2E
###2023-12-09 13:36:53.013105$GPGSV,2,1,08,03,26,246,42,04,47,307,44,16,67,223,46,26,83,040,47*7F
###2023-12-09 13:36:53.015446$GPGSV,2,2,08,27,17,172,39,28,37,085,44,29,20,046,41,31,59,067,46*7C
