###2023-12-09 13:44:50.026069$GBGSV,1,1,04,12,19,123,42,24,59,051,47,25,54,281,43,35,16,052,39*69
###2023-12-09 13:44:50.027451$GNVTG,243.17,T,,M,0.00,N,0.00,K,A*20
###2023-12-09 13:44:50.029069$GNGST,184449.10,7.700,,,,0.190,0.110,0.290*61
###2023-12-09 13:44:50.030361$GNZDA,184449.10,09,12,2023,00,00*74
###2023-12-09 13:44:50.031017$GNEBP,,,,,,M*13
###2023-12-09 13:44:50.201435$GNGGA,184449.30,4138.0391596,N,07032.4388949,W,1,18,0.8,13.911,M,-29.746,M,0.0,*5A
###2023-12-09 13:44:50.402318$GNGGA,184449.50,4138.0391596,N,07032.4388959,W,1,18,0.8,13.911,M,-29.746,M,0.0,*5D
###2023-12-09 13:44:50.598214$GNGGA,184449.70,4138.0391603,N,07032.4388961,W,1,18,0.8,13.911,M,-29.746,M,0.0,*5B
###2023-12-09 13:44:50.797438$GNGGA,184449.90,4138.0391612,N,07032.4388959,W,1,18,0.8,13.909,M,-29.746,M,0.0,*57
###2023-12-09 13:44:51.000969$GNRMC,184450.10,A,4138.0391626,N,07032.4388963,W,0.02,243.17,091223,,,A*5F
###2023-12-09 13:44:51.003824$GNGGA,184450.10,4138.0391626,N,07032.4388963,W,1,18,0.8,13.911,M,-29.746,M,0.0,*50
###2023-12-09 13:44:51.005540$GPGSA,A,3,04,16,26,28,29,31,,,,,,,1.3,0.8,1.1*3C
###2023-12-09 13:44:51.007250$GLGSA,A,3,65,72,73,74,75,83,,,,,,,1.3,0.8,1.1*2C
###2023-12-09 13:44:51.008692$GAGSA,A,3,04,27,,,,,,,,,,,1.3,0.8,1.1*28
###2023-12-09 13:44:51.010254$GBGSA,A,3,12,24,25,35,,,,,,,,,1.3,0.8,1.1*2E
###2023-12-09 13:44:51.012583$GPGSV,2,1,06,04,50,305,45,16,71,227,42,26,79,041,39,28,35,088,42*75
###2023-12-09 13:44:51.014323$GPGSV,2,2,06,29,18,043,43,31,56,072,50,,,,,,,,*7C
###2023-12-09 13:44:51.016646$GLGSV,2,1,06,65,42,313,45,72,57,214,35,73,18,056,44,74,56,022,35*6B
###2023-12-09 13:44:51.018384$GLGSV,2,2,06,75,47,279,46,83,16,043,38,,,,,,,,*6C
###2023-12-09 13:44:51.020132$GAGSV,1,1,02,04,43,308,45,27,19,051,39,,,,,,,,*60
###2023-12-09 13:44:51.022441$GBGSV,1,1,04,12,19,123,42,24,59,051,47,25,54,281,43,35,16,052,39*69
###2023-12-09 13:44:51.023772$GNVTG,243.17,T,,M,0.02,N,0.04,K,A*26
###2023-12-09 13:44:51.025378$GNGST,184450.10,7.800,,,,0.190,0.110,0.290*66
###2023-12-09 13:44:51.026671$GNZDA,184450.10,09,12,2023,00,00*7C
###2023-12-09 13:44:51.027307$GNEBP,,,,,,M*13
###2023-12-09 13:44:51.200908$GNGGA,184450.30,4138.0391628,N,07032.4388969,W,1,19,0.8,13.914,M,-29.746,M,0.0,*52
###2023-12-09 13:44:51.398641$GNGGA,184450.50,4138.0391644,N,07032.4388968,W,1,19,0.8,13.915,M,-29.746,M,0.0,*5E
###2023-12-09 13:44:51.597161$GNGGA,184450.70,4138.0391668,N,07032.4388963,W,1,19,0.8,13.916,M,-29.746,M,0.0,*5A
###2023-12-09 13:44:51.799427$GNGGA,184450.90,4138.0391671,N,07032.4388960,W,1,18,0.8,13.917,M,-29.746,M,0.0,*5F
###2023-12-09 13:44:52.002496$GNRMC,184451.10,A,4138.0391687,N,07032.4388963,W,0.04,243.17,091223,,,A*53
###2023-12-09 13:44:52.005364$GNGGA,184451.10,4138.0391687,N,07032.4388963,W,1,18,0.8,13.909,M,-29.746,M,0.0,*53
###2023-12-09 13:44:52.007104$GPGSA,A,3,04,16,26,28,29,31,,,,,,,1.3,0.8,1.1*3C
###2023-12-09 13:44:52.008815$GLGSA,A,3,65,72,73,74,75,83,,,,,,,1.3,0.8,1.1*2C
###2023-12-09 13:44:52.010261$GAGSA,A,3,04,27,,,,,,,,,,,1.3,0.8,1.1*28
###2023-12-09 13:44:52.011846$GBGSA,A,3,12,24,25,35,,,,,,,,,1.3,0.8,1.1*2E
###2023-12-09 13:44:52.014163$GPGSV,2,1,06,04,50,305,45,16,71,227,42,26,79,041,39,28,35,088,42*75
###2023-12-09 13:44:52.015915$GPGSV,2,2,06,29,18,043,42,31,56,072,50,,,,,,,,*7D
###2023-12-09 13:44:52.018229$GLGSV,2,1,06,65,42,313,45,72,57,214,35,73,18,056,44,74,56,022,35*6B
###2023-12-09 13:44:52.019973$GLGSV,2,2,06,75,47,279,46,83,16,043,38,,,,,,,,*6C
###2023-12-09 13:44:52.021709$GAGSV,1,1,02,04,43,308,45,27,19,051,39,,,,,,,,*60
###2023-12-09 13:44:52.024042$GBGSV,1,1,04,12,19,123,42,24,59,051,47,25,54,281,43,35,16,052,39*69
###2023-12-09 13:44:52.025362$GNVTG,243.17,T,,M,0.04,N,0.07,K,A*23
###2023-12-09 13:44:52.026983$GNGST,184451.10,7.100,,,,0.190,0.110,0.290*6E
###2023-12-09 13:44:52.028270$GNZDA,184451.10,09,12,2023,00,00*7D
###2023-12-09 13:44:52.028906$GNEBP,,,,,,M*13
###2023-12-09 13:44:52.199916$GNGGA,184451.30,4138.0391709,N,07032.4388965,W,1,18,0.8,13.915,M,-29.746,M,0.0,*5D
###2023-12-09 13:44:52.399373$GNGGA,184451.50,4138.0391710,N,07032.4388962,W,1,18,0.8,13.913,M,-29.746,M,0.0,*52
###2023-12-09 13:44:52.600860$GNGGA,184451.70,4138.0391746,N,07032.4388955,W,1,18,0.8,13.913,M,-29.746,M,0.0,*57
###2023-12-09 13:44:52.798793$GNGGA,184451.90,4138.0391743,N,07032.4388958,W,1,18,0.8,13.907,M,-29.746,M,0.0,*54
###2023-12-09 13:44:53.001677$GNRMC,184452.10,A,4138.0391753,N,07032.4388966,W,0.02,243.17,091223,,,A*5B
###2023-12-09 13:44:53.004565$GNGGA,184452.10,4138.0391753,N,07032.4388966,W,1,18,0.8,13.906,M,-29.746,M,0.0,*52
###2023-12-09 13:44:53.006296$GPGSA,A,3,04,16,26,28,29,31,,,,,,,1.4,0.8,1.1*3B
###2023-12-09 13:44:53.007958$GLGSA,A,3,65,72,73,75,83,,,,,,,,1.4,0.8,1.1*28
###2023-12-09 13:44:53.009480$GAGSA,A,3,04,21,27,,,,,,,,,,1.4,0.8,1.1*2C
###2023-12-09 13:44:53.011073$GBGSA,A,3,12,24,25,35,,,,,,,,,1.4,0.8,1.1*29
###2023-12-09 13:44:53.013398$GPGSV,2,1,06,04,50,305,45,16,71,227,43,26,79,041,39,28,35,088,42*74
###2023-12-09 13:44:53.015244$GPGSV,2,2,06,29,18,043,43,31,56,072,50,,,,,,,,*7C
###2023-12-09 13:44:53.017581$GLGSV,2,1,05,65,42,313,45,72,57,214,35,73,18,056,44,75,47,279,46*61
###2023-12-09 13:44:53.019052$GLGSV,2,2,05,83,16,043,38,,,,,,,,,,,,*50
###2023-12-09 13:44:53.021091$GAGSV,1,1,03,04,43,308,45,21,73,044,35,27,19,051,39,,,,*50
###2023-12-09 13:44:53.023437$GBGSV,1,1,04,12,19,123,42,24,59,051,47,25,54,281,43,35,16,052,39*69
###2023-12-09 13:44:53.024760$GNVTG,243.17,T,,M,0.02,N,0.04,K,A*26
###2023-12-09 13:44:53.026365$GNGST,184452.10,7.500,,,,0.190,0.110,0.290*69
###2023-12-09 13:44:53.027666$GNZDA,184452.10,09,12,2023,00,00*7E
###2023-12-09 13:44:53.028307$GNEBP,,,,,,M*13
###2023-12-09 13:44:53.200216$GNGGA,184452.30,4138.0391764,N,07032.4388964,W,1,18,0.8,13.904,M,-29.746,M,0.0,*54
###2023-12-09 13:44:53.399036$GNGGA,184452.50,4138.0391787,N,07032.4388963,W,1,18,0.8,13.901,M,-29.746,M,0.0,*5D
###2023-12-09 13:44:53.599133$GNGGA,184452.70,4138.0391801,N,07032.4388959,W,1,18,0.8,13.901,M,-29.746,M,0.0,*57
###2023-12-09 13:44:53.799360$GNGGA,184452.90,4138.0391829,N,07032.4388950,W,1,18,0.8,13.906,M,-29.746,M,0.0,*5D
###2023-12-09 13:44:54.001188$GNRMC,184453.10,A,4138.0391853,N,07032.4388946,W,0.04,243.17,091223,,,A*51
###2023-12-09 13:44:54.004086$GNGGA,184453.10,4138.0391853,N,07032.4388946,W,1,18,0.8,13.906,M,-29.746,M,0.0,*5E
###2023-12-09 13:44:54.005821$GPGSA,A,3,04,16,26,28,29,31,,,,,,,1.4,0.8,1.1*3B
###2023-12-09 13:44:54.007485$GLGSA,A,3,65,72,73,75,83,,,,,,,,1.4,0.8,1.1*28
###2023-12-09 13:44:54.008997$GAGSA,A,3,04,21,27,,,,,,,,,,1.4,0.8,1.1*2C
###2023-12-09 13:44:54.010578$GBGSA,A,3,12,24,25,35,,,,,,,,,1.4,0.8,1.1*29
###2023-12-09 13:44:54.012890$GPGSV,2,1,06,04,50,305,45,16,71,227,43,26,79,041,39,28,35,088,43*75
###2023-12-09 13:44:54.014640$GPGSV,2,2,06,29,18,043,42,31,56,072,50,,,,,,,,*7D
###2023-12-09 13:44:54.016951$GLGSV,2,1,05,65,42,313,45,72,57,214,36,73,18,056,44,75,47,279,46*62
###2023-12-09 13:44:54.018394$GLGSV,2,2,05,83,16,043,38,,,,,,,,,,,,*50
###2023-12-09 13:44:54.020420$GAGSV,1,1,03,04,43,308,45,21,73,044,35,27,19,051,40,,,,*5E
###2023-12-09 13:44:54.022739$GBGSV,1,1,04,12,19,123,42,24,59,051,47,25,54,281,43,35,16,052,39*69
###2023-12-09 13:44:54.024061$GNVTG,243.17,T,,M,0.04,N,0.07,K,A*23
###2023-12-09 13:44:54.025668$GNGST,184453.10,7.200,,,,0.190,0.110,0.300*67
###2023-12-09 13:44:54.026969$GNZDA,184453.10,09,12,2023,00,00*7F
###2023-12-09 13:44:54.027607$GNEBP,,,,,,M*13
###2023-12-09 13:44:54.200331$GNGGA,184453.30,4138.0391865,N,07032.4388941,W,1,18,0.8,13.905,M,-29.746,M,0.0,*5D
###2023-12-09 13:44:54.398941$GNGGA,184453.50,4138.0391887,N,07032.4388939,W,1,18,0.8,13.905,M,-29.746,M,0.0,*58
###2023-12-09 13:44:54.598217$GNGGA,184453.70,4138.0391908,N,07032.4388949,W,1,18,0.8,13.904,M,-29.746,M,0.0,*5A
###2023-12-09 13:44:54.800271$GNGGA,184453.90,4138.0391931,N,07032.4388944,W,1,18,0.8,13.906,M,-29.746,M,0.0,*51
###2023-12-09 13:44:55.002253$GNRMC,184454.10,A,4138.0391948,N,07032.4388945,W,0.02,243.17,091223,,,A*58
###2023-12-09 13:44:55.005123$GNGGA,184454.10,4138.0391948,N,07032.4388945,W,1,18,0.8,13.905,M,-29.746,M,0.0,*52
###2023-12-09 13:44:55.006858$GPGSA,A,3,04,16,26,28,29,31,,,,,,,1.4,0.8,1.1*3B
###2023-12-09 13:44:55.008761$GLGSA,A,3,65,72,73,75,83,,,,,,,,1.4,0.8,1.1*28
###2023-12-09 13:44:55.010281$GAGSA,A,3,04,21,27,,,,,,,,,,1.4,0.8,1.1*2C
###2023-12-09 13:44:55.011872$GBGSA,A,3,12,24,25,35,,,,,,,,,1.4,0.8,1.1*29
###2023-12-09 13:44:55.014187$GPGSV,2,1,06,04,50,305,45,16,71,227,43,26,79,041,38,28,35,088,43*74
###2023-12-09 13:44:55.015940$GPGSV,2,2,06,29,18,043,43,31,56,072,50,,,,,,,,*7C
###2023-12-09 13:44:55.018253$GLGSV,2,1,05,65,42,313,45,72,57,214,36,73,18,056,44,75,47,279,46*62
###2023-12-09 13:44:55.019712$GLGSV,2,2,05,83,16,043,38,,,,,,,,,,,,*50
###2023-12-09 13:44:55.021734$GAGSV,1,1,03,04,43,308,45,21,73,044,35,27,19,051,39,,,,*50
