###2023-12-09 12:48:42.546126$GNGGA,174841.70,4138.0581743,N,07032.3919182,W,1,24,0.6,13.456,M,-29.744,M,0.0,*5F
###2023-12-09 12:48:42.745765$GNGGA,174841.90,4138.0582167,N,07032.3918818,W,1,24,0.6,13.462,M,-29.744,M,0.0,*5E
###2023-12-09 12:48:42.944555$GNRMC,174842.10,A,4138.0582386,N,07032.3918461,W,0.54,58.82,091223,,,A*68
###2023-12-09 12:48:42.947467$GNGGA,174842.10,4138.0582386,N,07032.3918461,W,1,24,0.6,13.471,M,-29.744,M,0.0,*58
###2023-12-09 12:48:42.949346$GPGSA,A,3,03,04,16,26,28,29,31,32,,,,,1.1,0.6,0.9*3B
###2023-12-09 12:48:42.951090$GLGSA,A,3,65,71,72,73,74,75,,,,,,,1.1,0.6,0.9*24
###2023-12-09 12:48:42.952688$GAGSA,A,3,04,19,21,27,,,,,,,,,1.1,0.6,0.9*26
###2023-12-09 12:48:42.954342$GBGSA,A,3,14,24,25,26,33,,,,,,,,1.1,0.6,0.9*2F
###2023-12-09 12:48:42.956694$GPGSV,2,1,08,03,37,269,46,04,27,311,42,16,43,209,45,26,73,208,48*72
###2023-12-09 12:48:42.959049$GPGSV,2,2,08,28,53,064,46,29,26,067,42,31,71,021,47,32,24,137,41*76
###2023-12-09 12:48:42.961387$GLGSV,2,1,06,65,17,329,45,71,49,171,46,72,70,294,47,73,42,037,47*69
###2023-12-09 12:48:42.963154$GLGSV,2,2,06,74,71,314,44,75,27,246,44,,,,,,,,*67
###2023-12-09 12:48:42.965484$GAGSV,1,1,04,04,25,312,39,19,85,269,41,21,83,162,47,27,37,048,44*6B
###2023-12-09 12:48:42.967828$GBGSV,2,1,05,14,49,195,44,24,77,011,48,25,37,257,45,26,31,060,41*65
###2023-12-09 12:48:42.969285$GBGSV,2,2,05,33,61,243,46,,,,,,,,,,,,*5E
###2023-12-09 12:48:42.970589$GNVTG,58.82,T,,M,0.54,N,1.01,K,A*15
###2023-12-09 12:48:42.972245$GNGST,174842.10,18.000,,,,0.075,0.067,0.160*57
###2023-12-09 12:48:42.973539$GNZDA,174842.10,09,12,2023,00,00*7C
###2023-12-09 12:48:42.974177$GNEBP,,,,,,M*13
###2023-12-09 12:48:43.145875$GNGGA,174842.30,4138.0582378,N,07032.3918086,W,1,24,0.6,13.472,M,-29.744,M,0.0,*55
###2023-12-09 12:48:43.355194$GNGGA,174842.50,4138.0582505,N,07032.3917742,W,1,24,0.6,13.460,M,-29.744,M,0.0,*5C
###2023-12-09 12:48:43.547332$GNGGA,174842.70,4138.0582895,N,07032.3917448,W,1,24,0.6,13.462,M,-29.744,M,0.0,*51
###2023-12-09 12:48:43.745664$GNGGA,174842.90,4138.0583357,N,07032.3917134,W,1,24,0.6,13.460,M,-29.744,M,0.0,*57
###2023-12-09 12:48:43.946147$GNRMC,174843.10,A,4138.0583473,N,07032.3916773,W,0.54,25.48,091223,,,A*67
###2023-12-09 12:48:43.949027$GNGGA,174843.10,4138.0583473,N,07032.3916773,W,1,24,0.6,13.467,M,-29.744,M,0.0,*5C
###2023-12-09 12:48:43.950902$GPGSA,A,3,03,04,16,26,28,29,31,32,,,,,1.1,0.6,0.9*3B
###2023-12-09 12:48:43.952613$GLGSA,A,3,65,71,72,73,74,75,,,,,,,1.1,0.6,0.9*24
###2023-12-09 12:48:43.954192$GAGSA,A,3,04,19,21,27,,,,,,,,,1.1,0.6,0.9*26
###2023-12-09 12:48:43.955851$GBGSA,A,3,14,24,25,26,33,,,,,,,,1.1,0.6,0.9*2F
###2023-12-09 12:48:43.958175$GPGSV,2,1,08,03,37,269,45,04,27,311,40,16,43,209,45,26,73,208,48*73
###2023-12-09 12:48:43.960517$GPGSV,2,2,08,28,53,064,45,29,26,067,41,31,71,021,48,32,24,137,42*7A
###2023-12-09 12:48:43.962860$GLGSV,2,1,06,65,17,329,44,71,49,171,46,72,70,294,48,73,42,037,47*67
###2023-12-09 12:48:43.964592$GLGSV,2,2,06,74,71,314,43,75,27,246,44,,,,,,,,*60
###2023-12-09 12:48:43.966919$GAGSV,1,1,04,04,25,312,41,19,85,269,41,21,83,162,47,27,37,048,45*65
###2023-12-09 12:48:43.969236$GBGSV,2,1,05,14,49,195,45,24,77,011,49,25,37,257,46,26,30,060,41*67
###2023-12-09 12:48:43.970692$GBGSV,2,2,05,33,61,243,47,,,,,,,,,,,,*5F
###2023-12-09 12:48:43.971977$GNVTG,25.48,T,,M,0.54,N,1.01,K,A*19
###2023-12-09 12:48:43.973615$GNGST,174843.10,18.000,,,,0.075,0.067,0.160*56
###2023-12-09 12:48:43.974919$GNZDA,174843.10,09,12,2023,00,00*7D
###2023-12-09 12:48:43.975563$GNEBP,,,,,,M*13
###2023-12-09 12:48:44.150552$GNGGA,174843.30,4138.0583417,N,07032.3916416,W,1,24,0.6,13.470,M,-29.744,M,0.0,*5A
###2023-12-09 12:48:44.345844$GNGGA,174843.50,4138.0583598,N,07032.3916088,W,1,24,0.6,13.465,M,-29.744,M,0.0,*5D
###2023-12-09 12:48:44.545880$GNGGA,174843.70,4138.0584055,N,07032.3915814,W,1,24,0.6,13.460,M,-29.744,M,0.0,*57
###2023-12-09 12:48:44.746368$GNGGA,174843.90,4138.0584439,N,07032.3915549,W,1,24,0.6,13.456,M,-29.744,M,0.0,*57
###2023-12-09 12:48:44.954753$GNRMC,174844.10,A,4138.0584500,N,07032.3915200,W,0.56,25.48,091223,,,A*62
###2023-12-09 12:48:44.957617$GNGGA,174844.10,4138.0584500,N,07032.3915200,W,1,24,0.6,13.471,M,-29.744,M,0.0,*5C
###2023-12-09 12:48:44.959501$GPGSA,A,3,03,04,16,26,28,29,31,32,,,,,1.1,0.6,0.9*3B
###2023-12-09 12:48:44.961225$GLGSA,A,3,65,71,72,73,74,75,,,,,,,1.1,0.6,0.9*24
###2023-12-09 12:48:44.962830$GAGSA,A,3,04,19,21,27,,,,,,,,,1.1,0.6,0.9*26
###2023-12-09 12:48:44.964485$GBGSA,A,3,14,24,25,26,33,,,,,,,,1.1,0.6,0.9*2F
###2023-12-09 12:48:44.966836$GPGSV,2,1,08,03,37,269,45,04,27,311,39,16,43,209,45,26,73,208,47*72
###2023-12-09 12:48:44.969172$GPGSV,2,2,08,28,53,064,45,29,26,067,41,31,71,021,46,32,24,137,41*77
###2023-12-09 12:48:44.971522$GLGSV,2,1,06,65,17,329,43,71,49,171,44,72,70,294,46,73,42,037,45*6E
###2023-12-09 12:48:44.973277$GLGSV,2,2,06,74,71,314,42,75,27,246,41,,,,,,,,*64
###2023-12-09 12:48:44.975610$GAGSV,1,1,04,04,25,312,40,19,85,269,40,21,83,162,46,27,37,048,43*62
###2023-12-09 12:48:44.977954$GBGSV,2,1,05,14,49,195,45,24,77,011,49,25,37,257,45,26,30,060,41*64
###2023-12-09 12:48:44.979425$GBGSV,2,2,05,33,61,243,48,,,,,,,,,,,,*50
###2023-12-09 12:48:44.980721$GNVTG,25.48,T,,M,0.56,N,1.04,K,A*1E
###2023-12-09 12:48:44.982375$GNGST,174844.10,18.000,,,,0.076,0.067,0.160*52
###2023-12-09 12:48:44.983683$GNZDA,174844.10,09,12,2023,00,00*7A
###2023-12-09 12:48:44.984325$GNEBP,,,,,,M*13
###2023-12-09 12:48:45.147297$GNGGA,174844.30,4138.0584486,N,07032.3914859,W,1,24,0.6,13.474,M,-29.744,M,0.0,*53
###2023-12-09 12:48:45.347061$GNGGA,174844.50,4138.0584707,N,07032.3914606,W,1,24,0.6,13.470,M,-29.744,M,0.0,*5F
###2023-12-09 12:48:45.546134$GNGGA,174844.70,4138.0585154,N,07032.3914350,W,1,24,0.6,13.465,M,-29.744,M,0.0,*5E
###2023-12-09 12:48:45.746708$GNGGA,174844.90,4138.0585521,N,07032.3914087,W,1,24,0.6,13.466,M,-29.744,M,0.0,*5C
###2023-12-09 12:48:45.946637$GNRMC,174845.10,A,4138.0585561,N,07032.3913773,W,0.52,25.48,091223,,,A*66
###2023-12-09 12:48:45.949505$GNGGA,174845.10,4138.0585561,N,07032.3913773,W,1,24,0.6,13.486,M,-29.744,M,0.0,*54
###2023-12-09 12:48:45.951376$GPGSA,A,3,03,04,16,26,28,29,31,32,,,,,1.1,0.6,0.9*3B
###2023-12-09 12:48:45.953085$GLGSA,A,3,65,71,72,73,74,75,,,,,,,1.1,0.6,0.9*24
###2023-12-09 12:48:45.954675$GAGSA,A,3,04,19,21,27,,,,,,,,,1.1,0.6,0.9*26
###2023-12-09 12:48:45.956317$GBGSA,A,3,14,24,25,26,33,,,,,,,,1.1,0.6,0.9*2F
###2023-12-09 12:48:45.958659$GPGSV,2,1,08,03,37,269,45,04,27,311,40,16,43,209,45,26,73,208,48*73
###2023-12-09 12:48:45.960981$GPGSV,2,2,08,28,53,064,45,29,26,067,41,31,71,021,47,32,24,137,42*75
###2023-12-09 12:48:45.963318$GLGSV,2,1,06,65,17,329,43,71,49,171,44,72,70,294,46,73,42,037,45*6E
###2023-12-09 12:48:45.965062$GLGSV,2,2,06,74,71,314,43,75,27,246,42,,,,,,,,*66
###2023-12-09 12:48:45.967384$GAGSV,1,1,04,04,25,312,40,19,85,269,41,21,83,162,46,27,37,048,44*64
###2023-12-09 12:48:45.969705$GBGSV,2,1,05,14,49,195,46,24,77,011,49,25,37,257,46,26,30,060,42*67
###2023-12-09 12:48:45.971166$GBGSV,2,2,05,33,61,243,48,,,,,,,,,,,,*50
###2023-12-09 12:48:45.972454$GNVTG,25.48,T,,M,0.52,N,0.97,K,A*11
###2023-12-09 12:48:45.974095$GNGST,174845.10,18.000,,,,0.077,0.068,0.160*5D
###2023-12-09 12:48:45.975399$GNZDA,174845.10,09,12,2023,00,00*7B
###2023-12-09 12:48:45.976040$GNEBP,,,,,,M*13
###2023-12-09 12:48:46.148070$GNGGA,174845.30,4138.0585534,N,07032.3913473,W,1,24,0.6,13.485,M,-29.744,M,0.0,*56
###2023-12-09 12:48:46.346979$GNGGA,174845.50,4138.0585756,N,07032.3913244,W,1,24,0.6,13.481,M,-29.744,M,0.0,*50
###2023-12-09 12:48:46.545979$GNGGA,174845.70,4138.0586232,N,07032.3913017,W,1,24,0.6,13.480,M,-29.744,M,0.0,*53
###2023-12-09 12:48:46.745709$GNGGA,174845.90,4138.0586542,N,07032.3912734,W,1,24,0.6,13.483,M,-29.744,M,0.0,*59
###2023-12-09 12:48:46.948659$GNRMC,174846.10,A,4138.0586526,N,07032.3912477,W,0.41,25.48,091223,,,A*61
###2023-12-09 12:48:46.951528$GNGGA,174846.10,4138.0586526,N,07032.3912477,W,1,24,0.6,13.498,M,-29.744,M,0.0,*5E
###2023-12-09 12:48:46.953380$GPGSA,A,3,03,04,16,26,28,29,31,32,,,,,1.1,0.6,0.9*3B
###2023-12-09 12:48:46.955112$GLGSA,A,3,65,71,72,73,74,75,,,,,,,1.1,0.6,0.9*24
###2023-12-09 12:48:46.956941$GAGSA,A,3,04,19,21,27,,,,,,,,,1.1,0.6,0.9*26
###2023-12-09 12:48:46.958621$GBGSA,A,3,14,24,25,26,33,,,,,,,,1.1,0.6,0.9*2F
###2023-12-09 12:48:46.960954$GPGSV,2,1,08,03,37,269,45,04,27,311,41,16,43,209,46,26,73,208,48*71
###2023-12-09 12:48:46.963312$GPGSV,2,2,08,28,53,064,45,29,26,067,41,31,71,021,48,32,24,137,41*79
###2023-12-09 12:48:46.965643$GLGSV,2,1,06,65,17,329,43,71,49,171,46,72,70,294,47,73,42,037,46*6E
###2023-12-09 12:48:46.967403$GLGSV,2,2,06,74,71,314,43,75,27,246,43,,,,,,,,*67
###2023-12-09 12:48:46.969732$GAGSV,1,1,04,04,25,312,40,19,85,269,41,21,83,162,46,27,37,048,45*65
###2023-12-09 12:48:46.972071$GBGSV,2,1,05,14,49,195,46,24,77,011,49,25,37,257,46,26,30,060,42*67
###2023-12-09 12:48:46.973520$GBGSV,2,2,05,33,61,243,47,,,,,,,,,,,,*5F
###2023-12-09 12:48:46.974820$GNVTG,25.48,T,,M,0.41,N,0.76,K,A*1C
