###2023-12-09 13:12:16.985564$GAGSA,A,3,04,19,21,27,,,,,,,,,1.2,0.7,1.0*2C
###2023-12-09 13:12:16.987382$GBGSA,A,3,14,24,25,26,33,35,,,,,,,1.2,0.7,1.0*23
###2023-12-09 13:12:16.989737$GPGSV,2,1,07,03,33,256,43,04,37,311,44,16,55,215,46,26,85,210,48*7E
###2023-12-09 13:12:16.991796$GPGSV,2,2,07,28,46,075,43,29,24,056,41,31,66,048,46,,,,*44
###2023-12-09 13:12:16.994132$GLGSV,2,1,06,65,28,326,41,71,35,174,44,72,72,250,46,73,31,045,42*6D
###2023-12-09 13:12:16.995902$GLGSV,2,2,06,74,67,351,41,75,36,258,45,,,,,,,,*6A
###2023-12-09 13:12:16.998236$GAGSV,1,1,04,04,33,312,43,19,81,194,40,21,84,071,46,27,29,048,40*6B
###2023-12-09 13:12:17.000592$GBGSV,2,1,06,14,39,192,45,24,70,033,47,25,44,266,47,26,23,065,42*6E
###2023-12-09 13:12:17.002335$GBGSV,2,2,06,33,54,227,48,35,15,065,41,,,,,,,,*63
###2023-12-09 13:12:17.003608$GNVTG,7.86,T,,M,2.86,N,5.29,K,A*28
###2023-12-09 13:12:17.005253$GNGST,181216.10,18.000,,,,0.096,0.071,0.170*5D
###2023-12-09 13:12:17.006543$GNZDA,181216.10,09,12,2023,00,00*7D
###2023-12-09 13:12:17.007195$GNEBP,,,,,,M*13
###2023-12-09 13:12:17.172449$GNGGA,181216.30,4138.0468222,N,07032.3186870,W,1,24,0.7,12.848,M,-29.744,M,0.0,*54
###2023-12-09 13:12:17.372049$GNGGA,181216.50,4138.0469748,N,07032.3186339,W,1,24,0.7,12.845,M,-29.744,M,0.0,*51
###2023-12-09 13:12:17.573328$GNGGA,181216.70,4138.0471087,N,07032.3185415,W,1,24,0.7,12.831,M,-29.744,M,0.0,*57
###2023-12-09 13:12:17.772086$GNGGA,181216.90,4138.0472344,N,07032.3184491,W,1,24,0.7,12.817,M,-29.744,M,0.0,*5F
###2023-12-09 13:12:17.980485$GNRMC,181217.10,A,4138.0473685,N,07032.3183800,W,2.70,20.18,091223,,,A*68
###2023-12-09 13:12:17.983357$GNGGA,181217.10,4138.0473685,N,07032.3183800,W,1,24,0.7,12.818,M,-29.744,M,0.0,*53
###2023-12-09 13:12:17.985144$GPGSA,A,3,03,04,16,26,28,29,31,,,,,,1.2,0.7,1.0*30
###2023-12-09 13:12:17.986868$GLGSA,A,3,65,71,72,73,74,75,,,,,,,1.2,0.7,1.0*2E
###2023-12-09 13:12:17.988451$GAGSA,A,3,04,19,21,27,,,,,,,,,1.2,0.7,1.0*2C
###2023-12-09 13:12:17.990162$GBGSA,A,3,14,24,25,26,33,35,,,,,,,1.2,0.7,1.0*23
###2023-12-09 13:12:17.992503$GPGSV,2,1,07,03,33,256,42,04,37,311,44,16,55,215,46,26,85,210,49*7E
###2023-12-09 13:12:17.994547$GPGSV,2,2,07,28,46,075,44,29,24,056,41,31,66,048,46,,,,*43
###2023-12-09 13:12:17.996886$GLGSV,2,1,06,65,28,326,43,71,35,174,44,72,72,250,46,73,31,045,43*6E
###2023-12-09 13:12:17.998659$GLGSV,2,2,06,74,67,351,41,75,36,258,46,,,,,,,,*69
###2023-12-09 13:12:18.000984$GAGSV,1,1,04,04,33,312,43,19,81,194,40,21,84,071,45,27,29,048,40*68
###2023-12-09 13:12:18.003323$GBGSV,2,1,06,14,39,192,43,24,70,033,47,25,44,266,46,26,23,065,40*6B
###2023-12-09 13:12:18.005069$GBGSV,2,2,06,33,54,227,46,35,15,065,42,,,,,,,,*6E
###2023-12-09 13:12:18.006358$GNVTG,20.18,T,,M,2.70,N,5.00,K,A*18
###2023-12-09 13:12:18.008015$GNGST,181217.10,18.000,,,,0.096,0.071,0.170*5C
###2023-12-09 13:12:18.009310$GNZDA,181217.10,09,12,2023,00,00*7C
###2023-12-09 13:12:18.009950$GNEBP,,,,,,M*13
###2023-12-09 13:12:18.172345$GNGGA,181217.30,4138.0475051,N,07032.3182903,W,1,24,0.7,12.804,M,-29.744,M,0.0,*56
###2023-12-09 13:12:18.372980$GNGGA,181217.50,4138.0476163,N,07032.3181728,W,1,24,0.7,12.788,M,-29.744,M,0.0,*5C
###2023-12-09 13:12:18.572286$GNGGA,181217.70,4138.0477249,N,07032.3180584,W,1,24,0.7,12.800,M,-29.744,M,0.0,*5E
###2023-12-09 13:12:18.773372$GNGGA,181217.90,4138.0478398,N,07032.3179316,W,1,24,0.7,12.798,M,-29.744,M,0.0,*57
###2023-12-09 13:12:18.976692$GNRMC,181218.10,A,4138.0479431,N,07032.3177983,W,2.41,47.95,091223,,,A*67
###2023-12-09 13:12:18.979578$GNGGA,181218.10,4138.0479431,N,07032.3177983,W,1,24,0.7,12.780,M,-29.744,M,0.0,*54
###2023-12-09 13:12:18.981373$GPGSA,A,3,03,04,16,26,28,29,31,,,,,,1.2,0.7,1.0*30
###2023-12-09 13:12:18.983110$GLGSA,A,3,65,71,72,73,74,75,,,,,,,1.2,0.7,1.0*2E
###2023-12-09 13:12:18.984702$GAGSA,A,3,04,19,21,27,,,,,,,,,1.2,0.7,1.0*2C
###2023-12-09 13:12:18.986417$GBGSA,A,3,14,24,25,26,33,35,,,,,,,1.2,0.7,1.0*23
###2023-12-09 13:12:18.988792$GPGSV,2,1,07,03,33,256,45,04,37,311,44,16,55,215,47,26,85,210,49*78
###2023-12-09 13:12:18.990847$GPGSV,2,2,07,28,46,075,43,29,24,056,41,31,66,048,46,,,,*44
###2023-12-09 13:12:18.993180$GLGSV,2,1,06,65,28,326,43,71,35,174,45,72,72,250,46,73,31,045,41*6D
###2023-12-09 13:12:18.994939$GLGSV,2,2,06,74,67,351,42,75,36,258,46,,,,,,,,*6A
###2023-12-09 13:12:18.997265$GAGSV,1,1,04,04,33,312,42,19,81,194,40,21,84,071,45,27,29,048,40*69
###2023-12-09 13:12:18.999603$GBGSV,2,1,06,14,39,192,43,24,70,033,47,25,44,266,44,26,23,065,41*68
###2023-12-09 13:12:19.001353$GBGSV,2,2,06,33,54,227,47,35,15,065,42,,,,,,,,*6F
###2023-12-09 13:12:19.002659$GNVTG,47.95,T,,M,2.41,N,4.46,K,A*1D
###2023-12-09 13:12:19.004305$GNGST,181218.10,18.000,,,,0.097,0.072,0.170*51
###2023-12-09 13:12:19.005593$GNZDA,181218.10,09,12,2023,00,00*73
###2023-12-09 13:12:19.006230$GNEBP,,,,,,M*13
###2023-12-09 13:12:19.171353$GNGGA,181218.30,4138.0480278,N,07032.3176619,W,1,24,0.7,12.772,M,-29.744,M,0.0,*5B
###2023-12-09 13:12:19.372471$GNGGA,181218.50,4138.0480947,N,07032.3175026,W,1,24,0.7,12.754,M,-29.744,M,0.0,*57
###2023-12-09 13:12:19.573051$GNGGA,181218.70,4138.0481584,N,07032.3173574,W,1,24,0.7,12.746,M,-29.744,M,0.0,*50
###2023-12-09 13:12:19.774493$GNGGA,181218.90,4138.0482430,N,07032.3172164,W,1,24,0.7,12.757,M,-29.744,M,0.0,*57
###2023-12-09 13:12:19.978008$GNRMC,181219.10,A,4138.0483115,N,07032.3170570,W,2.29,67.61,091223,,,A*60
###2023-12-09 13:12:19.981506$GNGGA,181219.10,4138.0483115,N,07032.3170570,W,1,24,0.7,12.745,M,-29.744,M,0.0,*5D
###2023-12-09 13:12:19.983689$GPGSA,A,3,03,04,16,26,28,29,31,,,,,,1.2,0.7,1.0*30
###2023-12-09 13:12:19.985751$GLGSA,A,3,65,71,72,73,74,75,,,,,,,1.2,0.7,1.0*2E
###2023-12-09 13:12:19.987668$GAGSA,A,3,04,19,21,27,,,,,,,,,1.2,0.7,1.0*2C
###2023-12-09 13:12:19.989726$GBGSA,A,3,14,24,25,26,33,35,,,,,,,1.2,0.7,1.0*23
###2023-12-09 13:12:19.992543$GPGSV,2,1,07,03,33,256,42,04,37,311,43,16,55,215,45,26,85,210,46*75
###2023-12-09 13:12:19.995022$GPGSV,2,2,07,28,46,075,41,29,24,056,39,31,66,048,44,,,,*4B
###2023-12-09 13:12:19.997831$GLGSV,2,1,06,65,28,326,42,71,35,174,44,72,72,250,46,73,31,045,44*68
###2023-12-09 13:12:19.999955$GLGSV,2,2,06,74,67,351,43,75,36,258,46,,,,,,,,*6B
###2023-12-09 13:12:20.002773$GAGSV,1,1,04,04,33,312,41,19,81,194,39,21,84,071,44,27,29,048,39*6B
###2023-12-09 13:12:20.005579$GBGSV,2,1,06,14,39,192,44,24,70,033,48,25,44,266,46,26,23,065,44*67
###2023-12-09 13:12:20.007687$GBGSV,2,2,06,33,54,227,47,35,15,065,42,,,,,,,,*6F
###2023-12-09 13:12:20.009250$GNVTG,67.61,T,,M,2.29,N,4.25,K,A*1F
###2023-12-09 13:12:20.011330$GNGST,181219.10,18.000,,,,0.097,0.072,0.170*50
###2023-12-09 13:12:20.012894$GNZDA,181219.10,09,12,2023,00,00*72
###2023-12-09 13:12:20.013664$GNEBP,,,,,,M*13
###2023-12-09 13:12:20.174023$GNGGA,181219.30,4138.0483424,N,07032.3169024,W,1,24,0.7,12.742,M,-29.744,M,0.0,*53
###2023-12-09 13:12:20.373168$GNGGA,181219.50,4138.0483554,N,07032.3167442,W,1,24,0.7,12.732,M,-29.744,M,0.0,*5E
###2023-12-09 13:12:20.575086$GNGGA,181219.70,4138.0483852,N,07032.3165900,W,1,24,0.7,12.722,M,-29.744,M,0.0,*5F
###2023-12-09 13:12:20.773877$GNGGA,181219.90,4138.0484265,N,07032.3164346,W,1,24,0.7,12.734,M,-29.744,M,0.0,*56
###2023-12-09 13:12:20.985520$GNRMC,181220.10,A,4138.0484441,N,07032.3162655,W,2.22,90.92,091223,,,A*61
###2023-12-09 13:12:20.989003$GNGGA,181220.10,4138.0484441,N,07032.3162655,W,1,24,0.7,12.733,M,-29.744,M,0.0,*52
###2023-12-09 13:12:20.991189$GPGSA,A,3,03,04,16,26,28,29,31,,,,,,1.2,0.7,1.0*30
###2023-12-09 13:12:20.993273$GLGSA,A,3,65,71,72,73,74,75,,,,,,,1.2,0.7,1.0*2E
###2023-12-09 13:12:20.995220$GAGSA,A,3,04,19,21,27,,,,,,,,,1.2,0.7,1.0*2C
###2023-12-09 13:12:20.997288$GBGSA,A,3,14,24,25,26,33,35,,,,,,,1.2,0.7,1.0*23
###2023-12-09 13:12:21.000108$GPGSV,2,1,07,03,33,256,40,04,37,311,42,16,55,215,46,26,85,210,46*75
###2023-12-09 13:12:21.002587$GPGSV,2,2,07,28,46,075,44,29,24,056,43,31,66,048,45,,,,*42
###2023-12-09 13:12:21.005442$GLGSV,2,1,06,65,28,326,42,71,35,174,42,72,72,250,46,73,31,045,45*6F
###2023-12-09 13:12:21.007577$GLGSV,2,2,06,74,67,351,43,75,36,258,44,,,,,,,,*69
###2023-12-09 13:12:21.010401$GAGSV,1,1,04,04,33,312,42,19,81,194,40,21,84,071,46,27,29,048,43*69
###2023-12-09 13:12:21.013518$GBGSV,2,1,06,14,39,192,42,24,70,033,48,25,44,266,44,26,23,065,43*64
###2023-12-09 13:12:21.015672$GBGSV,2,2,06,33,54,227,47,35,15,065,43,,,,,,,,*6E
###2023-12-09 13:12:21.017245$GNVTG,90.92,T,,M,2.22,N,4.10,K,A*16
###2023-12-09 13:12:21.019253$GNGST,181220.10,18.000,,,,0.098,0.072,0.170*55
###2023-12-09 13:12:21.020812$GNZDA,181220.10,09,12,2023,00,00*78
###2023-12-09 13:12:21.021582$GNEBP,,,,,,M*13
###2023-12-09 13:12:21.175994$GNGGA,181220.30,4138.0484242,N,07032.3161160,W,1,24,0.7,12.725,M,-29.744,M,0.0,*50
###2023-12-09 13:12:21.373153$GNGGA,181220.50,4138.0483947,N,07032.3159828,W,1,24,0.7,12.722,M,-29.744,M,0.0,*56
###2023-12-09 13:12:21.574026$GNGGA,181220.70,4138.0483902,N,07032.3158283,W,1,24,0.7,12.738,M,-29.744,M,0.0,*54
