###2023-12-09 12:27:21.947887$GNGST,172721.10,31.000,,,,0.120,0.100,0.280*5C
###2023-12-09 12:27:21.949250$GNZDA,172721.10,09,12,2023,00,00*70
###2023-12-09 12:27:21.949937$GNEBP,,,,,,M*13
###2023-12-09 12:27:22.120761$GNGGA,172721.30,4138.0389670,N,07032.4362809,W,1,18,0.7,6.281,M,-29.746,M,0.0,*64
###2023-12-09 12:27:22.320717$GNGGA,172721.50,4138.0389693,N,07032.4362843,W,1,19,0.7,6.270,M,-29.746,M,0.0,*6E
###2023-12-09 12:27:22.520365$GNGGA,172721.70,4138.0389733,N,07032.4362887,W,1,19,0.7,6.254,M,-29.746,M,0.0,*69
###2023-12-09 12:27:22.718814$GNGGA,172721.90,4138.0389767,N,07032.4362942,W,1,20,0.7,6.241,M,-29.746,M,0.0,*60
###2023-12-09 12:27:22.921291$GNRMC,172722.10,A,4138.0389793,N,07032.4362977,W,0.02,,091223,,,A*4A
###2023-12-09 12:27:22.924431$GNGGA,172722.10,4138.0389793,N,07032.4362977,W,1,20,0.7,6.234,M,-29.746,M,0.0,*64
###2023-12-09 12:27:22.926509$GPGSA,A,3,03,04,16,26,28,29,31,32,,,,,1.2,0.7,1.1*30
###2023-12-09 12:27:22.928312$GLGSA,A,3,71,72,73,75,,,,,,,,,1.2,0.7,1.1*2F
###2023-12-09 12:27:22.930029$GAGSA,A,3,04,21,27,,,,,,,,,,1.2,0.7,1.1*25
###2023-12-09 12:27:22.931811$GBGSA,A,3,14,25,26,33,,,,,,,,,1.2,0.7,1.1*22
###2023-12-09 12:27:22.934331$GPGSV,2,1,08,03,39,281,42,04,19,310,35,16,33,206,46,26,62,205,44*78
###2023-12-09 12:27:22.936908$GPGSV,2,2,08,28,60,051,44,29,24,078,42,31,73,348,44,32,33,132,48*79
###2023-12-09 12:27:22.939461$GLGSV,1,1,04,71,61,167,47,72,62,315,44,73,52,031,48,75,19,238,42*6D
###2023-12-09 12:27:22.941702$GAGSV,1,1,03,04,19,310,35,21,75,179,41,27,44,050,46,,,,*5A
###2023-12-09 12:27:22.944241$GBGSV,1,1,04,14,59,200,46,25,30,250,38,26,38,056,49,33,64,263,38*61
###2023-12-09 12:27:22.945567$GNVTG,,T,,M,0.02,N,0.04,K,A*3B
###2023-12-09 12:27:22.947429$GNGST,172722.10,30.000,,,,0.110,0.100,0.270*52
###2023-12-09 12:27:22.948960$GNZDA,172722.10,09,12,2023,00,00*73
###2023-12-09 12:27:22.949731$GNEBP,,,,,,M*13
###2023-12-09 12:27:23.119876$GNGGA,172722.30,4138.0389834,N,07032.4363022,W,1,20,0.7,6.228,M,-29.746,M,0.0,*61
###2023-12-09 12:27:23.319782$GNGGA,172722.50,4138.0389865,N,07032.4363061,W,1,20,0.7,6.217,M,-29.746,M,0.0,*68
###2023-12-09 12:27:23.526957$GNGGA,172722.70,4138.0389897,N,07032.4363107,W,1,20,0.7,6.205,M,-29.746,M,0.0,*65
###2023-12-09 12:27:23.721733$GNGGA,172722.90,4138.0389930,N,07032.4363149,W,1,20,0.7,6.193,M,-29.746,M,0.0,*61
###2023-12-09 12:27:23.920338$GNRMC,172723.10,A,4138.0389961,N,07032.4363199,W,0.04,,091223,,,A*47
###2023-12-09 12:27:23.923408$GNGGA,172723.10,4138.0389961,N,07032.4363199,W,1,19,0.7,6.183,M,-29.746,M,0.0,*6A
###2023-12-09 12:27:23.925454$GPGSA,A,3,03,04,16,26,28,29,31,32,,,,,1.3,0.7,1.1*31
###2023-12-09 12:27:23.927229$GLGSA,A,3,71,72,73,75,,,,,,,,,1.3,0.7,1.1*2E
###2023-12-09 12:27:23.928922$GAGSA,A,3,04,21,27,,,,,,,,,,1.3,0.7,1.1*24
###2023-12-09 12:27:23.930684$GBGSA,A,3,14,25,26,33,,,,,,,,,1.3,0.7,1.1*23
###2023-12-09 12:27:23.933176$GPGSV,2,1,08,03,39,281,41,04,19,310,35,16,33,206,45,26,62,205,43*7F
###2023-12-09 12:27:23.935698$GPGSV,2,2,08,28,60,051,43,29,24,078,41,31,73,348,43,32,33,132,47*75
###2023-12-09 12:27:23.938200$GLGSV,1,1,04,71,61,167,47,72,62,315,44,73,52,031,48,75,19,238,42*6D
###2023-12-09 12:27:23.940417$GAGSV,1,1,03,04,19,310,35,21,75,179,41,27,44,050,45,,,,*59
###2023-12-09 12:27:23.942911$GBGSV,1,1,04,14,58,200,46,25,30,250,38,26,38,056,49,33,64,263,39*61
###2023-12-09 12:27:23.944221$GNVTG,,T,,M,0.04,N,0.07,K,A*3E
###2023-12-09 12:27:23.946034$GNGST,172723.10,31.000,,,,0.110,0.099,0.270*53
###2023-12-09 12:27:23.947551$GNZDA,172723.10,09,12,2023,00,00*72
###2023-12-09 12:27:23.948349$GNEBP,,,,,,M*13
###2023-12-09 12:27:24.120379$GNGGA,172723.30,4138.0389994,N,07032.4363236,W,1,19,0.7,6.172,M,-29.746,M,0.0,*6A
###2023-12-09 12:27:24.320846$GNGGA,172723.50,4138.0390032,N,07032.4363277,W,1,18,0.7,6.158,M,-29.746,M,0.0,*6D
###2023-12-09 12:27:24.527995$GNGGA,172723.70,4138.0390072,N,07032.4363312,W,1,19,0.7,6.138,M,-29.746,M,0.0,*6E
###2023-12-09 12:27:24.720790$GNGGA,172723.90,4138.0390097,N,07032.4363353,W,1,19,0.7,6.123,M,-29.746,M,0.0,*64
###2023-12-09 12:27:24.921104$GNRMC,172724.10,A,4138.0390128,N,07032.4363398,W,0.04,,091223,,,A*4E
###2023-12-09 12:27:24.924145$GNGGA,172724.10,4138.0390128,N,07032.4363398,W,1,19,0.7,6.110,M,-29.746,M,0.0,*69
###2023-12-09 12:27:24.926024$GPGSA,A,3,03,04,16,26,28,29,31,32,,,,,1.3,0.7,1.1*31
###2023-12-09 12:27:24.927647$GLGSA,A,3,71,72,73,75,,,,,,,,,1.3,0.7,1.1*2E
###2023-12-09 12:27:24.929172$GAGSA,A,3,04,21,27,,,,,,,,,,1.3,0.7,1.1*24
###2023-12-09 12:27:24.930770$GBGSA,A,3,14,25,26,33,,,,,,,,,1.3,0.7,1.1*23
###2023-12-09 12:27:24.933103$GPGSV,2,1,08,03,39,281,41,04,19,310,35,16,33,206,45,26,62,205,43*7F
###2023-12-09 12:27:24.935455$GPGSV,2,2,08,28,60,051,43,29,24,078,41,31,73,348,42,32,33,132,46*75
###2023-12-09 12:27:24.937795$GLGSV,1,1,04,71,61,167,47,72,62,315,44,73,52,031,48,75,19,238,42*6D
###2023-12-09 12:27:24.939862$GAGSV,1,1,03,04,19,310,35,21,75,179,41,27,44,050,46,,,,*5A
###2023-12-09 12:27:24.942194$GBGSV,1,1,04,14,58,200,46,25,30,250,38,26,38,056,48,33,64,263,39*60
###2023-12-09 12:27:24.943351$GNVTG,,T,,M,0.04,N,0.07,K,A*3E
###2023-12-09 12:27:24.945006$GNGST,172724.10,31.000,,,,0.110,0.097,0.260*5B
###2023-12-09 12:27:24.946303$GNZDA,172724.10,09,12,2023,00,00*75
###2023-12-09 12:27:24.947000$GNEBP,,,,,,M*13
###2023-12-09 12:27:25.121511$GNGGA,172724.30,4138.0390164,N,07032.4363457,W,1,19,0.7,6.093,M,-29.746,M,0.0,*6D
###2023-12-09 12:27:25.321765$GNGGA,172724.50,4138.0390187,N,07032.4363495,W,1,19,0.7,6.074,M,-29.746,M,0.0,*61
###2023-12-09 12:27:25.527510$GNGGA,172724.70,4138.0390195,N,07032.4363512,W,1,18,0.7,6.060,M,-29.746,M,0.0,*6A
###2023-12-09 12:27:25.723981$GNGGA,172724.90,4138.0390209,N,07032.4363524,W,1,18,0.7,6.041,M,-29.746,M,0.0,*64
###2023-12-09 12:27:25.921641$GNRMC,172725.10,A,4138.0390224,N,07032.4363544,W,0.04,,091223,,,A*47
###2023-12-09 12:27:25.924614$GNGGA,172725.10,4138.0390224,N,07032.4363544,W,1,18,0.7,6.026,M,-29.746,M,0.0,*65
###2023-12-09 12:27:25.926492$GPGSA,A,3,03,16,26,28,29,31,32,,,,,,1.4,0.7,1.1*32
###2023-12-09 12:27:25.928160$GLGSA,A,3,71,72,73,75,,,,,,,,,1.4,0.7,1.1*29
###2023-12-09 12:27:25.929742$GAGSA,A,3,04,21,27,,,,,,,,,,1.4,0.7,1.1*23
###2023-12-09 12:27:25.931447$GBGSA,A,3,14,25,26,33,,,,,,,,,1.4,0.7,1.1*24
###2023-12-09 12:27:25.933852$GPGSV,2,1,07,03,39,281,41,16,33,206,45,26,62,205,43,28,60,051,42*76
###2023-12-09 12:27:25.935974$GPGSV,2,2,07,29,24,078,42,31,73,348,43,32,33,132,47,,,,*46
###2023-12-09 12:27:25.938380$GLGSV,1,1,04,71,61,167,47,72,62,315,43,73,52,031,48,75,19,238,41*69
###2023-12-09 12:27:25.940609$GAGSV,1,1,03,04,19,310,35,21,75,179,40,27,44,050,45,,,,*58
###2023-12-09 12:27:25.943062$GBGSV,1,1,04,14,58,200,46,25,30,250,38,26,37,056,48,33,64,263,40*61
###2023-12-09 12:27:25.944270$GNVTG,,T,,M,0.04,N,0.07,K,A*3E
###2023-12-09 12:27:25.945992$GNGST,172725.10,31.000,,,,0.110,0.096,0.260*5B
###2023-12-09 12:27:25.947392$GNZDA,172725.10,09,12,2023,00,00*74
###2023-12-09 12:27:25.948104$GNEBP,,,,,,M*13
###2023-12-09 12:27:26.121710$GNGGA,172725.30,4138.0390244,N,07032.4363568,W,1,19,0.7,6.011,M,-29.746,M,0.0,*6A
###2023-12-09 12:27:26.321716$GNGGA,172725.50,4138.0390263,N,07032.4363589,W,1,19,0.7,5.994,M,-29.746,M,0.0,*61
###2023-12-09 12:27:26.521887$GNGGA,172725.70,4138.0390276,N,07032.4363617,W,1,20,0.7,5.978,M,-29.746,M,0.0,*6B
###2023-12-09 12:27:26.719787$GNGGA,172725.90,4138.0390291,N,07032.4363632,W,1,20,0.7,5.969,M,-29.746,M,0.0,*6B
###2023-12-09 12:27:26.923437$GNRMC,172726.10,A,4138.0390322,N,07032.4363651,W,0.06,,091223,,,A*46
###2023-12-09 12:27:26.926352$GNGGA,172726.10,4138.0390322,N,07032.4363651,W,1,19,0.7,5.949,M,-29.746,M,0.0,*64
###2023-12-09 12:27:26.928273$GPGSA,A,3,03,04,16,26,28,29,31,32,,,,,1.3,0.7,1.1*31
###2023-12-09 12:27:26.929904$GLGSA,A,3,71,72,73,75,,,,,,,,,1.3,0.7,1.1*2E
###2023-12-09 12:27:26.931476$GAGSA,A,3,04,21,27,,,,,,,,,,1.3,0.7,1.1*24
###2023-12-09 12:27:26.933095$GBGSA,A,3,14,25,26,33,,,,,,,,,1.3,0.7,1.1*23
###2023-12-09 12:27:26.935474$GPGSV,2,1,08,03,39,281,41,04,19,310,35,16,33,206,45,26,62,205,43*7F
###2023-12-09 12:27:26.937859$GPGSV,2,2,08,28,60,051,43,29,24,078,41,31,73,348,43,32,33,132,47*75
###2023-12-09 12:27:26.940497$GLGSV,1,1,04,71,61,167,47,72,62,315,43,73,52,031,48,75,19,238,41*69
###2023-12-09 12:27:26.942559$GAGSV,1,1,03,04,19,310,35,21,75,179,40,27,44,050,46,,,,*5B
###2023-12-09 12:27:26.944925$GBGSV,1,1,04,14,58,200,46,25,30,250,37,26,37,056,49,33,64,261,40*6D
###2023-12-09 12:27:26.946072$GNVTG,,T,,M,0.06,N,0.11,K,A*3B
###2023-12-09 12:27:26.947762$GNGST,172726.10,31.000,,,,0.110,0.096,0.260*58
###2023-12-09 12:27:26.949090$GNZDA,172726.10,09,12,2023,00,00*77
###2023-12-09 12:27:26.949740$GNEBP,,,,,,M*13
###2023-12-09 12:27:27.122792$GNGGA,172726.30,4138.0390331,N,07032.4363650,W,1,19,0.7,5.942,M,-29.746,M,0.0,*6E
###2023-12-09 12:27:27.325977$GNGGA,172726.50,4138.0390366,N,07032.4363675,W,1,19,0.7,5.932,M,-29.746,M,0.0,*6A
