###2023-12-09 13:42:46.006172$GLGSA,A,3,65,72,73,74,75,83,,,,,,,1.1,0.7,0.9*28
###2023-12-09 13:42:46.007804$GAGSA,A,3,04,19,21,27,,,,,,,,,1.1,0.7,0.9*27
###2023-12-09 13:42:46.009459$GBGSA,A,3,12,24,25,33,35,,,,,,,,1.1,0.7,0.9*2A
###2023-12-09 13:42:46.011806$GPGSV,2,1,07,03,24,243,40,04,49,306,42,16,70,226,47,26,80,041,48*73
###2023-12-09 13:42:46.013852$GPGSV,2,2,07,28,35,088,44,29,19,044,38,31,57,071,48,,,,*40
###2023-12-09 13:42:46.016202$GLGSV,2,1,06,65,42,314,39,72,58,215,48,73,19,055,41,74,57,019,41*6E
###2023-12-09 13:42:46.017955$GLGSV,2,2,06,75,45,276,46,83,16,044,35,,,,,,,,*6B
###2023-12-09 13:42:46.020303$GAGSV,1,1,04,04,42,309,40,19,69,180,42,21,74,044,46,27,20,051,37*6D
###2023-12-09 13:42:46.022641$GBGSV,2,1,05,12,18,124,41,24,60,050,47,25,53,280,46,33,42,214,44*6B
###2023-12-09 13:42:46.024092$GBGSV,2,2,05,35,16,053,43,,,,,,,,,,,,*5E
###2023-12-09 13:42:46.025410$GNVTG,287.37,T,,M,0.25,N,0.47,K,A*2E
###2023-12-09 13:42:46.027032$GNGST,184245.10,6.800,,,,0.150,0.110,0.220*62
###2023-12-09 13:42:46.028317$GNZDA,184245.10,09,12,2023,00,00*7E
###2023-12-09 13:42:46.028953$GNEBP,,,,,,M*13
###2023-12-09 13:42:46.196758$GNGGA,184245.30,4138.0395314,N,07032.4272911,W,1,23,0.7,14.254,M,-29.745,M,0.0,*58
###2023-12-09 13:42:46.397393$GNGGA,184245.50,4138.0395358,N,07032.4272882,W,1,22,0.7,14.226,M,-29.745,M,0.0,*59
###2023-12-09 13:42:46.594819$GNGGA,184245.70,4138.0395464,N,07032.4272843,W,1,20,0.8,14.138,M,-29.745,M,0.0,*5F
###2023-12-09 13:42:46.795198$GNGGA,184245.90,4138.0395516,N,07032.4272654,W,1,20,0.8,13.990,M,-29.745,M,0.0,*50
###2023-12-09 13:42:46.999675$GNRMC,184246.10,A,4138.0395568,N,07032.4272617,W,0.27,287.37,091223,,,A*56
###2023-12-09 13:42:47.002771$GNGGA,184246.10,4138.0395568,N,07032.4272617,W,1,19,0.8,13.817,M,-29.745,M,0.0,*51
###2023-12-09 13:42:47.004621$GPGSA,A,3,04,16,26,28,29,31,,,,,,,1.4,0.8,1.2*38
###2023-12-09 13:42:47.006407$GLGSA,A,3,65,72,73,74,75,,,,,,,,1.4,0.8,1.2*23
###2023-12-09 13:42:47.007936$GAGSA,A,3,19,21,27,,,,,,,,,,1.4,0.8,1.2*23
###2023-12-09 13:42:47.009576$GBGSA,A,3,12,24,25,33,35,,,,,,,,1.4,0.8,1.2*2A
###2023-12-09 13:42:47.011936$GPGSV,2,1,06,04,49,306,36,16,70,226,44,26,80,041,46,28,35,088,44*74
###2023-12-09 13:42:47.013691$GPGSV,2,2,06,29,19,044,38,31,57,071,47,,,,,,,,*72
###2023-12-09 13:42:47.016031$GLGSV,2,1,05,65,42,314,35,72,58,215,47,73,19,055,44,74,56,021,42*62
###2023-12-09 13:42:47.017481$GLGSV,2,2,05,75,45,276,38,,,,,,,,,,,,*5B
###2023-12-09 13:42:47.019524$GAGSV,1,1,03,19,69,180,41,21,74,044,45,27,20,051,41,,,,*57
###2023-12-09 13:42:47.021850$GBGSV,2,1,05,12,18,124,44,24,60,050,49,25,53,280,39,33,42,214,40*6C
###2023-12-09 13:42:47.023316$GBGSV,2,2,05,35,16,053,44,,,,,,,,,,,,*59
###2023-12-09 13:42:47.024635$GNVTG,287.37,T,,M,0.27,N,0.50,K,A*2A
###2023-12-09 13:42:47.026244$GNGST,184246.10,6.100,,,,0.140,0.110,0.220*69
###2023-12-09 13:42:47.027551$GNZDA,184246.10,09,12,2023,00,00*7D
###2023-12-09 13:42:47.028188$GNEBP,,,,,,M*13
###2023-12-09 13:42:47.196930$GNGGA,184246.30,4138.0395680,N,07032.4272727,W,1,16,1.0,13.686,M,-29.745,M,0.0,*54
###2023-12-09 13:42:47.397664$GNGGA,184246.50,4138.0395646,N,07032.4272806,W,1,16,1.0,13.614,M,-29.745,M,0.0,*5F
###2023-12-09 13:42:47.597033$GNGGA,184246.70,4138.0395664,N,07032.4272854,W,1,16,1.0,13.590,M,-29.745,M,0.0,*55
###2023-12-09 13:42:47.796833$GNGGA,184246.90,4138.0395654,N,07032.4272849,W,1,18,0.8,13.590,M,-29.745,M,0.0,*53
###2023-12-09 13:42:47.999283$GNRMC,184247.10,A,4138.0395688,N,07032.4272843,W,0.06,287.37,091223,,,A*56
###2023-12-09 13:42:48.002158$GNGGA,184247.10,4138.0395688,N,07032.4272843,W,1,21,0.7,13.597,M,-29.745,M,0.0,*53
###2023-12-09 13:42:48.003898$GPGSA,A,3,03,16,26,28,29,31,,,,,,,1.2,0.7,1.0*34
###2023-12-09 13:42:48.005550$GLGSA,A,3,65,72,73,74,75,,,,,,,,1.2,0.7,1.0*28
###2023-12-09 13:42:48.007145$GAGSA,A,3,04,19,21,27,,,,,,,,,1.2,0.7,1.0*2C
###2023-12-09 13:42:48.008853$GBGSA,A,3,12,14,24,25,33,35,,,,,,,1.2,0.7,1.0*24
###2023-12-09 13:42:48.011190$GPGSV,2,1,06,03,24,243,37,16,70,226,38,26,80,041,48,28,35,088,46*7E
###2023-12-09 13:42:48.012933$GPGSV,2,2,06,29,19,044,39,31,57,071,47,,,,,,,,*73
###2023-12-09 13:42:48.015266$GLGSV,2,1,05,65,42,314,35,72,58,215,42,73,19,055,38,74,56,021,45*6B
###2023-12-09 13:42:48.016722$GLGSV,2,2,05,75,46,277,39,,,,,,,,,,,,*58
###2023-12-09 13:42:48.019083$GAGSV,1,1,04,04,42,309,35,19,69,180,44,21,74,044,45,27,20,051,40*6A
###2023-12-09 13:42:48.021412$GBGSV,2,1,06,12,18,124,43,14,25,189,35,24,60,050,48,25,53,280,36*67
###2023-12-09 13:42:48.023165$GBGSV,2,2,06,33,42,214,36,35,16,053,45,,,,,,,,*6F
###2023-12-09 13:42:48.024487$GNVTG,287.37,T,,M,0.06,N,0.11,K,A*2C
###2023-12-09 13:42:48.026096$GNGST,184247.10,7.000,,,,0.150,0.120,0.230*6B
###2023-12-09 13:42:48.027398$GNZDA,184247.10,09,12,2023,00,00*7C
###2023-12-09 13:42:48.028035$GNEBP,,,,,,M*13
###2023-12-09 13:42:48.198077$GNGGA,184247.30,4138.0395688,N,07032.4272915,W,1,20,0.7,13.625,M,-29.745,M,0.0,*58
###2023-12-09 13:42:48.397044$GNGGA,184247.50,4138.0395724,N,07032.4272954,W,1,21,0.7,13.629,M,-29.745,M,0.0,*51
###2023-12-09 13:42:48.596895$GNGGA,184247.70,4138.0395760,N,07032.4272927,W,1,21,0.7,13.613,M,-29.745,M,0.0,*5E
###2023-12-09 13:42:48.798640$GNGGA,184247.90,4138.0395802,N,07032.4272897,W,1,21,0.7,13.611,M,-29.745,M,0.0,*53
###2023-12-09 13:42:49.000977$GNRMC,184248.10,A,4138.0395780,N,07032.4272897,W,0.08,287.37,091223,,,A*57
###2023-12-09 13:42:49.003851$GNGGA,184248.10,4138.0395780,N,07032.4272897,W,1,21,0.7,13.626,M,-29.745,M,0.0,*55
###2023-12-09 13:42:49.005583$GPGSA,A,3,03,16,26,28,29,31,,,,,,,1.2,0.7,1.0*34
###2023-12-09 13:42:49.007242$GLGSA,A,3,65,72,73,74,75,,,,,,,,1.2,0.7,1.0*28
###2023-12-09 13:42:49.008824$GAGSA,A,3,04,19,21,27,,,,,,,,,1.2,0.7,1.0*2C
###2023-12-09 13:42:49.010549$GBGSA,A,3,12,14,24,25,33,35,,,,,,,1.2,0.7,1.0*24
###2023-12-09 13:42:49.012937$GPGSV,2,1,06,03,24,243,36,16,70,226,40,26,80,041,48,28,35,088,46*70
###2023-12-09 13:42:49.014698$GPGSV,2,2,06,29,19,044,39,31,57,071,47,,,,,,,,*73
###2023-12-09 13:42:49.017030$GLGSV,2,1,05,65,42,314,37,72,58,215,41,73,19,055,41,74,56,021,43*62
###2023-12-09 13:42:49.018483$GLGSV,2,2,05,75,46,277,41,,,,,,,,,,,,*57
###2023-12-09 13:42:49.020821$GAGSV,1,1,04,04,42,309,39,19,69,180,44,21,74,044,46,27,20,051,40*65
###2023-12-09 13:42:49.023205$GBGSV,2,1,06,12,18,124,42,14,25,189,35,24,60,050,48,25,53,280,38*68
###2023-12-09 13:42:49.024959$GBGSV,2,2,06,33,42,214,38,35,16,053,43,,,,,,,,*67
###2023-12-09 13:42:49.026287$GNVTG,287.37,T,,M,0.08,N,0.14,K,A*27
###2023-12-09 13:42:49.027918$GNGST,184248.10,6.700,,,,0.150,0.130,0.230*63
###2023-12-09 13:42:49.029212$GNZDA,184248.10,09,12,2023,00,00*73
###2023-12-09 13:42:49.029852$GNEBP,,,,,,M*13
###2023-12-09 13:42:49.197779$GNGGA,184248.30,4138.0395785,N,07032.4272903,W,1,21,0.7,13.644,M,-29.745,M,0.0,*5A
###2023-12-09 13:42:49.399001$GNGGA,184248.50,4138.0395787,N,07032.4272882,W,1,22,0.7,13.641,M,-29.745,M,0.0,*50
###2023-12-09 13:42:49.595895$GNGGA,184248.70,4138.0395762,N,07032.4272809,W,1,20,0.7,13.630,M,-29.745,M,0.0,*5E
###2023-12-09 13:42:49.796906$GNGGA,184248.90,4138.0395725,N,07032.4272785,W,1,20,0.7,13.631,M,-29.745,M,0.0,*59
###2023-12-09 13:42:50.000780$GNRMC,184249.10,A,4138.0395693,N,07032.4272725,W,0.04,287.37,091223,,,A*5F
###2023-12-09 13:42:50.003883$GNGGA,184249.10,4138.0395693,N,07032.4272725,W,1,20,0.7,13.650,M,-29.745,M,0.0,*51
###2023-12-09 13:42:50.005736$GPGSA,A,3,03,16,26,28,29,31,,,,,,,1.2,0.7,1.0*34
###2023-12-09 13:42:50.007502$GLGSA,A,3,65,72,73,74,75,,,,,,,,1.2,0.7,1.0*28
###2023-12-09 13:42:50.009093$GAGSA,A,3,04,19,21,27,,,,,,,,,1.2,0.7,1.0*2C
###2023-12-09 13:42:50.010752$GBGSA,A,3,12,24,25,33,35,,,,,,,,1.2,0.7,1.0*21
###2023-12-09 13:42:50.013082$GPGSV,2,1,06,03,24,243,35,16,70,226,38,26,80,041,47,28,35,088,47*72
###2023-12-09 13:42:50.014878$GPGSV,2,2,06,29,19,044,40,31,57,071,48,,,,,,,,*72
###2023-12-09 13:42:50.017216$GLGSV,2,1,05,65,42,314,37,72,58,215,43,73,19,055,44,74,56,021,44*62
###2023-12-09 13:42:50.018680$GLGSV,2,2,05,75,46,277,42,,,,,,,,,,,,*54
###2023-12-09 13:42:50.021010$GAGSV,1,1,04,04,42,309,39,19,69,180,44,21,74,044,45,27,20,051,42*64
###2023-12-09 13:42:50.023353$GBGSV,2,1,05,12,18,124,42,24,60,050,48,25,53,280,38,33,42,214,39*64
###2023-12-09 13:42:50.025052$GBGSV,2,2,05,35,16,053,45,,,,,,,,,,,,*58
###2023-12-09 13:42:50.026387$GNVTG,287.37,T,,M,0.04,N,0.07,K,A*29
###2023-12-09 13:42:50.028016$GNGST,184249.10,6.700,,,,0.150,0.130,0.240*65
###2023-12-09 13:42:50.029312$GNZDA,184249.10,09,12,2023,00,00*72
###2023-12-09 13:42:50.029952$GNEBP,,,,,,M*13
###2023-12-09 13:42:50.197121$GNGGA,184249.30,4138.0395630,N,07032.4272665,W,1,20,0.7,13.651,M,-29.745,M,0.0,*5E
###2023-12-09 13:42:50.398020$GNGGA,184249.50,4138.0395571,N,07032.4272605,W,1,21,0.7,13.648,M,-29.745,M,0.0,*51
