###2023-12-09 13:18:09.016634$GBGSV,2,2,06,33,52,224,47,35,16,063,44,,,,,,,,*69
###2023-12-09 13:18:09.017978$GNVTG,264.73,T,,M,3.07,N,5.69,K,A*29
###2023-12-09 13:18:09.019661$GNGST,181808.10,18.000,,,,0.099,0.070,0.160*57
###2023-12-09 13:18:09.020964$GNZDA,181808.10,09,12,2023,00,00*78
###2023-12-09 13:18:09.021606$GNEBP,,,,,,M*13
###2023-12-09 13:18:09.185163$GNGGA,181808.30,4138.0149188,N,07032.2976267,W,1,24,0.7,12.894,M,-29.745,M,0.0,*5E
###2023-12-09 13:18:09.385227$GNGGA,181808.50,4138.0148948,N,07032.2978466,W,1,24,0.7,12.883,M,-29.745,M,0.0,*52
###2023-12-09 13:18:09.583105$GNGGA,181808.70,4138.0148835,N,07032.2980680,W,1,24,0.7,12.889,M,-29.745,M,0.0,*5C
###2023-12-09 13:18:09.785546$GNGGA,181808.90,4138.0148769,N,07032.2982891,W,1,24,0.7,12.901,M,-29.745,M,0.0,*59
###2023-12-09 13:18:09.984333$GNRMC,181809.10,A,4138.0148957,N,07032.2985072,W,2.99,278.86,091223,,,A*5D
###2023-12-09 13:18:09.987213$GNGGA,181809.10,4138.0148957,N,07032.2985072,W,1,24,0.7,12.912,M,-29.745,M,0.0,*53
###2023-12-09 13:18:09.989004$GPGSA,A,3,03,04,16,26,28,29,31,,,,,,1.2,0.7,0.9*38
###2023-12-09 13:18:09.990724$GLGSA,A,3,65,71,72,73,74,75,,,,,,,1.2,0.7,0.9*26
###2023-12-09 13:18:09.992308$GAGSA,A,3,04,19,21,27,,,,,,,,,1.2,0.7,0.9*24
###2023-12-09 13:18:09.994017$GBGSA,A,3,14,24,25,26,33,35,,,,,,,1.2,0.7,0.9*2B
###2023-12-09 13:18:09.996371$GPGSV,2,1,07,03,31,253,40,04,39,310,43,16,58,216,45,26,88,205,48*76
###2023-12-09 13:18:09.998411$GPGSV,2,2,07,28,43,078,45,29,23,053,41,31,64,053,48,,,,*4E
###2023-12-09 13:18:10.000765$GLGSV,2,1,06,65,31,324,41,71,32,174,45,72,70,240,46,73,29,047,42*69
###2023-12-09 13:18:10.002520$GLGSV,2,2,06,74,65,358,43,75,38,261,44,,,,,,,,*66
###2023-12-09 13:18:10.004869$GAGSV,1,1,04,04,34,311,41,19,78,188,40,21,82,059,45,27,27,049,39*68
###2023-12-09 13:18:10.007223$GBGSV,2,1,06,14,36,191,45,24,68,036,49,25,45,268,46,26,21,066,43*6E
###2023-12-09 13:18:10.008968$GBGSV,2,2,06,33,52,224,48,35,16,063,43,,,,,,,,*61
###2023-12-09 13:18:10.010288$GNVTG,278.86,T,,M,2.99,N,5.54,K,A*26
###2023-12-09 13:18:10.011949$GNGST,181809.10,18.000,,,,0.098,0.070,0.160*57
###2023-12-09 13:18:10.013244$GNZDA,181809.10,09,12,2023,00,00*79
###2023-12-09 13:18:10.013881$GNEBP,,,,,,M*13
###2023-12-09 13:18:10.181561$GNGGA,181809.30,4138.0149192,N,07032.2987258,W,1,24,0.7,12.923,M,-29.745,M,0.0,*5B
###2023-12-09 13:18:10.382059$GNGGA,181809.50,4138.0149369,N,07032.2989433,W,1,24,0.7,12.917,M,-29.745,M,0.0,*59
###2023-12-09 13:18:10.582271$GNGGA,181809.70,4138.0149626,N,07032.2991594,W,1,24,0.7,12.902,M,-29.745,M,0.0,*54
###2023-12-09 13:18:10.780944$GNGGA,181809.90,4138.0150077,N,07032.2993611,W,1,24,0.7,12.912,M,-29.745,M,0.0,*5D
###2023-12-09 13:18:10.984389$GNRMC,181810.10,A,4138.0150716,N,07032.2995432,W,2.66,299.72,091223,,,A*52
###2023-12-09 13:18:10.987256$GNGGA,181810.10,4138.0150716,N,07032.2995432,W,1,24,0.7,12.920,M,-29.745,M,0.0,*59
###2023-12-09 13:18:10.989043$GPGSA,A,3,03,04,16,26,28,29,31,,,,,,1.2,0.7,0.9*38
###2023-12-09 13:18:10.990762$GLGSA,A,3,65,71,72,73,74,75,,,,,,,1.2,0.7,0.9*26
###2023-12-09 13:18:10.992339$GAGSA,A,3,04,19,21,27,,,,,,,,,1.2,0.7,0.9*24
###2023-12-09 13:18:10.994047$GBGSA,A,3,14,24,25,26,33,35,,,,,,,1.2,0.7,0.9*2B
###2023-12-09 13:18:10.996400$GPGSV,2,1,07,03,31,253,43,04,39,310,42,16,58,216,48,26,88,205,48*79
###2023-12-09 13:18:10.998438$GPGSV,2,2,07,28,43,078,44,29,23,053,41,31,64,053,47,,,,*40
###2023-12-09 13:18:11.000770$GLGSV,2,1,06,65,31,324,42,71,32,174,45,72,70,240,46,73,29,047,42*6A
###2023-12-09 13:18:11.002513$GLGSV,2,2,06,74,65,358,42,75,38,261,46,,,,,,,,*65
###2023-12-09 13:18:11.004847$GAGSV,1,1,04,04,34,311,42,19,78,188,41,21,82,059,47,27,27,049,41*67
###2023-12-09 13:18:11.007188$GBGSV,2,1,06,14,36,191,44,24,68,036,48,25,45,268,47,26,21,066,40*6C
###2023-12-09 13:18:11.008933$GBGSV,2,2,06,33,52,224,49,35,16,063,40,,,,,,,,*63
###2023-12-09 13:18:11.010254$GNVTG,299.72,T,,M,2.66,N,4.93,K,A*28
###2023-12-09 13:18:11.011911$GNGST,181810.10,18.000,,,,0.098,0.070,0.160*5F
###2023-12-09 13:18:11.013200$GNZDA,181810.10,09,12,2023,00,00*71
###2023-12-09 13:18:11.013837$GNEBP,,,,,,M*13
###2023-12-09 13:18:11.180422$GNGGA,181810.30,4138.0151478,N,07032.2997096,W,1,24,0.7,12.927,M,-29.745,M,0.0,*5E
###2023-12-09 13:18:11.381805$GNGGA,181810.50,4138.0152269,N,07032.2998721,W,1,24,0.7,12.931,M,-29.745,M,0.0,*5E
###2023-12-09 13:18:11.582907$GNGGA,181810.70,4138.0153026,N,07032.3000366,W,1,24,0.7,12.933,M,-29.745,M,0.0,*58
###2023-12-09 13:18:11.781984$GNGGA,181810.90,4138.0153813,N,07032.3001938,W,1,24,0.7,12.940,M,-29.745,M,0.0,*5C
###2023-12-09 13:18:11.984119$GNRMC,181811.10,A,4138.0154766,N,07032.3003340,W,2.51,315.44,091223,,,A*51
###2023-12-09 13:18:11.987603$GNGGA,181811.10,4138.0154766,N,07032.3003340,W,1,24,0.7,12.937,M,-29.745,M,0.0,*58
###2023-12-09 13:18:11.989800$GPGSA,A,3,03,04,16,26,28,29,31,,,,,,1.2,0.7,0.9*38
###2023-12-09 13:18:11.991893$GLGSA,A,3,65,71,72,73,74,75,,,,,,,1.2,0.7,0.9*26
###2023-12-09 13:18:11.993797$GAGSA,A,3,04,19,21,27,,,,,,,,,1.2,0.7,0.9*24
###2023-12-09 13:18:11.995875$GBGSA,A,3,14,24,25,26,33,35,,,,,,,1.2,0.7,0.9*2B
###2023-12-09 13:18:11.998688$GPGSV,2,1,07,03,31,253,44,04,39,310,42,16,58,216,47,26,88,205,48*71
###2023-12-09 13:18:12.001146$GPGSV,2,2,07,28,43,078,45,29,23,053,41,31,64,053,47,,,,*41
###2023-12-09 13:18:12.004015$GLGSV,2,1,06,65,31,324,42,71,32,174,44,72,70,240,46,73,29,047,43*6A
###2023-12-09 13:18:12.006125$GLGSV,2,2,06,74,65,358,42,75,38,261,45,,,,,,,,*66
###2023-12-09 13:18:12.008958$GAGSV,1,1,04,04,34,311,42,19,78,188,41,21,82,059,46,27,27,049,41*66
###2023-12-09 13:18:12.011778$GBGSV,2,1,06,14,36,191,42,24,68,036,47,25,45,268,46,26,21,066,41*65
###2023-12-09 13:18:12.013881$GBGSV,2,2,06,33,52,224,46,35,16,063,41,,,,,,,,*6D
###2023-12-09 13:18:12.015504$GNVTG,315.44,T,,M,2.51,N,4.64,K,A*24
###2023-12-09 13:18:12.017488$GNGST,181811.10,18.000,,,,0.098,0.070,0.160*5E
###2023-12-09 13:18:12.019059$GNZDA,181811.10,09,12,2023,00,00*70
###2023-12-09 13:18:12.019828$GNEBP,,,,,,M*13
###2023-12-09 13:18:12.182457$GNGGA,181811.30,4138.0155779,N,07032.3004654,W,1,24,0.7,12.944,M,-29.745,M,0.0,*56
###2023-12-09 13:18:12.380629$GNGGA,181811.50,4138.0156720,N,07032.3006012,W,1,24,0.7,12.948,M,-29.745,M,0.0,*55
###2023-12-09 13:18:12.581731$GNGGA,181811.70,4138.0157598,N,07032.3007442,W,1,24,0.7,12.945,M,-29.745,M,0.0,*5A
###2023-12-09 13:18:12.781963$GNGGA,181811.90,4138.0158516,N,07032.3008770,W,1,24,0.7,12.946,M,-29.745,M,0.0,*53
###2023-12-09 13:18:12.989283$GNRMC,181812.10,A,4138.0159524,N,07032.3009958,W,2.41,319.59,091223,,,A*53
###2023-12-09 13:18:12.992168$GNGGA,181812.10,4138.0159524,N,07032.3009958,W,1,24,0.7,12.954,M,-29.745,M,0.0,*5E
###2023-12-09 13:18:12.993957$GPGSA,A,3,03,04,16,26,28,29,31,,,,,,1.2,0.7,0.9*38
###2023-12-09 13:18:12.995677$GLGSA,A,3,65,71,72,73,74,75,,,,,,,1.2,0.7,0.9*26
###2023-12-09 13:18:12.997261$GAGSA,A,3,04,19,21,27,,,,,,,,,1.2,0.7,0.9*24
###2023-12-09 13:18:12.998973$GBGSA,A,3,14,24,25,26,33,35,,,,,,,1.2,0.7,0.9*2B
###2023-12-09 13:18:13.001289$GPGSV,2,1,07,03,31,253,43,04,39,310,42,16,58,216,46,26,88,205,48*77
###2023-12-09 13:18:13.003335$GPGSV,2,2,07,28,43,078,46,29,23,053,42,31,64,053,47,,,,*41
###2023-12-09 13:18:13.005659$GLGSV,2,1,06,65,31,324,42,71,32,174,45,72,70,240,46,73,29,047,43*6B
###2023-12-09 13:18:13.007412$GLGSV,2,2,06,74,65,358,42,75,38,261,45,,,,,,,,*66
###2023-12-09 13:18:13.009733$GAGSV,1,1,04,04,34,311,42,19,78,188,41,21,82,059,46,27,27,049,41*66
###2023-12-09 13:18:13.012070$GBGSV,2,1,06,14,36,191,43,24,68,036,48,25,45,268,46,26,21,066,43*69
###2023-12-09 13:18:13.013810$GBGSV,2,2,06,33,52,224,48,35,16,063,42,,,,,,,,*60
###2023-12-09 13:18:13.015153$GNVTG,319.59,T,,M,2.41,N,4.46,K,A*25
###2023-12-09 13:18:13.016808$GNGST,181812.10,18.000,,,,0.098,0.070,0.160*5D
###2023-12-09 13:18:13.018096$GNZDA,181812.10,09,12,2023,00,00*73
###2023-12-09 13:18:13.018745$GNEBP,,,,,,M*13
###2023-12-09 13:18:13.180343$GNGGA,181812.30,4138.0160550,N,07032.3011130,W,1,24,0.7,12.963,M,-29.745,M,0.0,*5E
###2023-12-09 13:18:13.381408$GNGGA,181812.50,4138.0161492,N,07032.3012375,W,1,24,0.7,12.969,M,-29.745,M,0.0,*5C
###2023-12-09 13:18:13.581165$GNGGA,181812.70,4138.0162416,N,07032.3013653,W,1,24,0.7,12.970,M,-29.745,M,0.0,*59
###2023-12-09 13:18:13.782313$GNGGA,181812.90,4138.0163425,N,07032.3014873,W,1,24,0.7,12.973,M,-29.745,M,0.0,*5E
###2023-12-09 13:18:13.989582$GNRMC,181813.10,A,4138.0164475,N,07032.3016114,W,2.51,317.18,091223,,,A*5D
###2023-12-09 13:18:13.992471$GNGGA,181813.10,4138.0164475,N,07032.3016114,W,1,24,0.7,12.978,M,-29.745,M,0.0,*54
###2023-12-09 13:18:13.994263$GPGSA,A,3,03,04,16,26,28,29,31,,,,,,1.2,0.7,0.9*38
###2023-12-09 13:18:13.995990$GLGSA,A,3,65,71,72,73,74,75,,,,,,,1.2,0.7,0.9*26
###2023-12-09 13:18:13.997574$GAGSA,A,3,04,19,21,27,,,,,,,,,1.2,0.7,0.9*24
###2023-12-09 13:18:13.999285$GBGSA,A,3,14,24,25,26,33,35,,,,,,,1.2,0.7,0.9*2B
###2023-12-09 13:18:14.001617$GPGSV,2,1,07,03,31,253,42,04,39,310,41,16,58,216,46,26,88,205,47*7A
