###2023-12-09 12:51:24.151875$GNGGA,175123.30,4138.0568175,N,07032.3811435,W,1,24,0.6,13.460,M,-29.744,M,0.0,*56
###2023-12-09 12:51:24.352710$GNGGA,175123.50,4138.0568578,N,07032.3811671,W,1,24,0.6,13.462,M,-29.744,M,0.0,*59
###2023-12-09 12:51:24.550988$GNGGA,175123.70,4138.0568964,N,07032.3811779,W,1,24,0.6,13.467,M,-29.744,M,0.0,*56
###2023-12-09 12:51:24.753439$GNGGA,175123.90,4138.0569365,N,07032.3811908,W,1,24,0.6,13.460,M,-29.744,M,0.0,*5D
###2023-12-09 12:51:24.952210$GNRMC,175124.10,A,4138.0569760,N,07032.3812114,W,0.76,334.14,091223,,,A*53
###2023-12-09 12:51:24.955097$GNGGA,175124.10,4138.0569760,N,07032.3812114,W,1,24,0.6,13.453,M,-29.744,M,0.0,*55
###2023-12-09 12:51:24.956961$GPGSA,A,3,03,04,16,26,28,29,31,32,,,,,1.1,0.6,0.9*3B
###2023-12-09 12:51:24.958683$GLGSA,A,3,65,71,72,73,74,75,,,,,,,1.1,0.6,0.9*24
###2023-12-09 12:51:24.960264$GAGSA,A,3,04,19,21,27,,,,,,,,,1.1,0.6,0.9*26
###2023-12-09 12:51:24.961909$GBGSA,A,3,14,24,25,26,33,,,,,,,,1.1,0.6,0.9*2F
###2023-12-09 12:51:24.964246$GPGSV,2,1,08,03,37,267,45,04,29,311,43,16,44,210,45,26,74,208,49*79
###2023-12-09 12:51:24.966620$GPGSV,2,2,08,28,53,065,45,29,26,066,42,31,71,024,47,32,23,138,43*7A
###2023-12-09 12:51:24.968954$GLGSV,2,1,06,65,19,329,40,71,47,171,47,72,72,288,46,73,40,038,45*6C
###2023-12-09 12:51:24.970717$GLGSV,2,2,06,74,71,321,42,75,28,248,43,,,,,,,,*61
###2023-12-09 12:51:24.973046$GAGSV,1,1,04,04,26,312,42,19,85,258,41,21,83,157,46,27,36,048,42*66
###2023-12-09 12:51:24.975402$GBGSV,2,1,05,14,48,194,45,24,77,014,48,25,37,258,46,26,29,060,43*66
###2023-12-09 12:51:24.976854$GBGSV,2,2,05,33,60,240,48,,,,,,,,,,,,*52
###2023-12-09 12:51:24.978177$GNVTG,334.14,T,,M,0.76,N,1.40,K,A*26
###2023-12-09 12:51:24.979825$GNGST,175124.10,18.000,,,,0.077,0.066,0.160*5C
###2023-12-09 12:51:24.981116$GNZDA,175124.10,09,12,2023,00,00*74
###2023-12-09 12:51:24.981754$GNEBP,,,,,,M*13
###2023-12-09 12:51:25.151925$GNGGA,175124.30,4138.0570142,N,07032.3812418,W,1,24,0.6,13.451,M,-29.744,M,0.0,*52
###2023-12-09 12:51:25.354021$GNGGA,175124.50,4138.0570512,N,07032.3812653,W,1,24,0.6,13.459,M,-29.744,M,0.0,*50
###2023-12-09 12:51:25.554634$GNGGA,175124.70,4138.0570879,N,07032.3812651,W,1,24,0.6,13.461,M,-29.744,M,0.0,*5B
###2023-12-09 12:51:25.757356$GNGGA,175124.90,4138.0571208,N,07032.3812619,W,1,24,0.6,13.457,M,-29.744,M,0.0,*51
###2023-12-09 12:51:25.953956$GNRMC,175125.10,A,4138.0571586,N,07032.3812891,W,0.95,334.14,091223,,,A*58
###2023-12-09 12:51:25.956827$GNGGA,175125.10,4138.0571586,N,07032.3812891,W,1,24,0.6,13.465,M,-29.744,M,0.0,*56
###2023-12-09 12:51:25.958703$GPGSA,A,3,03,04,16,26,28,29,31,32,,,,,1.1,0.6,0.9*3B
###2023-12-09 12:51:25.960418$GLGSA,A,3,65,71,72,73,74,75,,,,,,,1.1,0.6,0.9*24
###2023-12-09 12:51:25.962002$GAGSA,A,3,04,19,21,27,,,,,,,,,1.1,0.6,0.9*26
###2023-12-09 12:51:25.963661$GBGSA,A,3,14,24,25,26,33,,,,,,,,1.1,0.6,0.9*2F
###2023-12-09 12:51:25.965984$GPGSV,2,1,08,03,37,267,45,04,29,311,42,16,44,210,46,26,74,208,49*7B
###2023-12-09 12:51:25.968334$GPGSV,2,2,08,28,53,065,45,29,26,066,41,31,71,024,47,32,23,138,43*79
###2023-12-09 12:51:25.970667$GLGSV,2,1,06,65,19,329,42,71,47,171,48,72,72,288,46,73,40,038,44*60
###2023-12-09 12:51:25.972416$GLGSV,2,2,06,74,71,321,42,75,28,248,42,,,,,,,,*60
###2023-12-09 12:51:25.974752$GAGSV,1,1,04,04,26,312,42,19,85,258,41,21,83,157,46,27,36,048,42*66
###2023-12-09 12:51:25.977079$GBGSV,2,1,05,14,48,194,44,24,77,014,48,25,37,258,45,26,29,060,42*65
###2023-12-09 12:51:25.978527$GBGSV,2,2,05,33,60,240,47,,,,,,,,,,,,*5D
###2023-12-09 12:51:25.979855$GNVTG,334.14,T,,M,0.95,N,1.76,K,A*2E
###2023-12-09 12:51:25.981492$GNGST,175125.10,18.000,,,,0.077,0.066,0.160*5D
###2023-12-09 12:51:25.982795$GNZDA,175125.10,09,12,2023,00,00*75
###2023-12-09 12:51:25.983437$GNEBP,,,,,,M*13
###2023-12-09 12:51:26.151869$GNGGA,175125.30,4138.0572006,N,07032.3813309,W,1,24,0.6,13.453,M,-29.744,M,0.0,*54
###2023-12-09 12:51:26.351721$GNGGA,175125.50,4138.0572338,N,07032.3813461,W,1,24,0.6,13.446,M,-29.744,M,0.0,*51
###2023-12-09 12:51:26.551704$GNGGA,175125.70,4138.0572582,N,07032.3813308,W,1,24,0.6,13.446,M,-29.744,M,0.0,*5C
###2023-12-09 12:51:26.752277$GNGGA,175125.90,4138.0572851,N,07032.3813269,W,1,24,0.6,13.434,M,-29.744,M,0.0,*52
###2023-12-09 12:51:26.952388$GNRMC,175126.10,A,4138.0573198,N,07032.3813621,W,0.97,334.14,091223,,,A*54
###2023-12-09 12:51:26.955263$GNGGA,175126.10,4138.0573198,N,07032.3813621,W,1,24,0.6,13.441,M,-29.744,M,0.0,*5E
###2023-12-09 12:51:26.957118$GPGSA,A,3,03,04,16,26,28,29,31,32,,,,,1.1,0.6,0.9*3B
###2023-12-09 12:51:26.958841$GLGSA,A,3,65,71,72,73,74,75,,,,,,,1.1,0.6,0.9*24
###2023-12-09 12:51:26.960426$GAGSA,A,3,04,19,21,27,,,,,,,,,1.1,0.6,0.9*26
###2023-12-09 12:51:26.962073$GBGSA,A,3,14,24,25,26,33,,,,,,,,1.1,0.6,0.9*2F
###2023-12-09 12:51:26.964442$GPGSV,2,1,08,03,37,267,44,04,29,311,43,16,45,210,46,26,74,208,49*7A
###2023-12-09 12:51:26.966777$GPGSV,2,2,08,28,53,065,45,29,26,066,39,31,71,024,47,32,23,138,44*71
###2023-12-09 12:51:26.969108$GLGSV,2,1,06,65,19,329,43,71,47,171,47,72,72,288,47,73,40,038,44*6F
###2023-12-09 12:51:26.970866$GLGSV,2,2,06,74,71,321,42,75,28,248,40,,,,,,,,*62
###2023-12-09 12:51:26.973201$GAGSV,1,1,04,04,26,312,42,19,85,258,41,21,83,157,46,27,36,048,42*66
###2023-12-09 12:51:26.975541$GBGSV,2,1,05,14,48,194,45,24,77,014,48,25,37,258,45,26,29,060,42*64
###2023-12-09 12:51:26.977002$GBGSV,2,2,05,33,60,240,47,,,,,,,,,,,,*5D
###2023-12-09 12:51:26.978329$GNVTG,334.14,T,,M,0.97,N,1.80,K,A*25
###2023-12-09 12:51:26.979987$GNGST,175126.10,18.000,,,,0.077,0.067,0.160*5F
###2023-12-09 12:51:26.981286$GNZDA,175126.10,09,12,2023,00,00*76
###2023-12-09 12:51:26.981927$GNEBP,,,,,,M*13
###2023-12-09 12:51:27.151663$GNGGA,175126.30,4138.0573619,N,07032.3814119,W,1,24,0.6,13.452,M,-29.744,M,0.0,*5B
###2023-12-09 12:51:27.352693$GNGGA,175126.50,4138.0573967,N,07032.3814241,W,1,24,0.6,13.457,M,-29.744,M,0.0,*50
###2023-12-09 12:51:27.551736$GNGGA,175126.70,4138.0574178,N,07032.3814033,W,1,24,0.6,13.445,M,-29.744,M,0.0,*57
###2023-12-09 12:51:27.751724$GNGGA,175126.90,4138.0574351,N,07032.3813955,W,1,24,0.6,13.415,M,-29.744,M,0.0,*5B
###2023-12-09 12:51:27.955677$GNRMC,175127.10,A,4138.0574725,N,07032.3814365,W,1.17,314.76,091223,,,A*5F
###2023-12-09 12:51:27.958538$GNGGA,175127.10,4138.0574725,N,07032.3814365,W,1,24,0.6,13.418,M,-29.744,M,0.0,*56
###2023-12-09 12:51:27.960400$GPGSA,A,3,03,04,16,26,28,29,31,32,,,,,1.1,0.6,0.9*3B
###2023-12-09 12:51:27.962115$GLGSA,A,3,65,71,72,73,74,75,,,,,,,1.1,0.6,0.9*24
###2023-12-09 12:51:27.963703$GAGSA,A,3,04,19,21,27,,,,,,,,,1.1,0.6,0.9*26
###2023-12-09 12:51:27.965351$GBGSA,A,3,14,24,25,26,33,,,,,,,,1.1,0.6,0.9*2F
###2023-12-09 12:51:27.967701$GPGSV,2,1,08,03,37,267,44,04,29,311,43,16,45,210,46,26,74,208,49*7A
###2023-12-09 12:51:27.970028$GPGSV,2,2,08,28,53,065,45,29,26,066,41,31,71,024,47,32,23,138,45*7F
###2023-12-09 12:51:27.972372$GLGSV,2,1,06,65,19,329,43,71,47,171,48,72,72,288,46,73,40,038,42*67
###2023-12-09 12:51:27.974117$GLGSV,2,2,06,74,71,321,42,75,28,248,42,,,,,,,,*60
###2023-12-09 12:51:27.976443$GAGSV,1,1,04,04,26,312,42,19,85,258,41,21,83,157,46,27,36,048,42*66
###2023-12-09 12:51:27.978771$GBGSV,2,1,05,14,48,194,46,24,77,014,48,25,37,258,46,26,29,060,43*65
###2023-12-09 12:51:27.980220$GBGSV,2,2,05,33,60,240,48,,,,,,,,,,,,*52
###2023-12-09 12:51:27.981536$GNVTG,314.76,T,,M,1.17,N,2.16,K,A*26
###2023-12-09 12:51:27.983187$GNGST,175127.10,18.000,,,,0.077,0.067,0.160*5E
###2023-12-09 12:51:27.984476$GNZDA,175127.10,09,12,2023,00,00*77
###2023-12-09 12:51:27.985113$GNEBP,,,,,,M*13
###2023-12-09 12:51:28.150921$GNGGA,175127.30,4138.0575173,N,07032.3814876,W,1,24,0.6,13.416,M,-29.744,M,0.0,*57
###2023-12-09 12:51:28.351783$GNGGA,175127.50,4138.0575417,N,07032.3814848,W,1,24,0.6,13.435,M,-29.744,M,0.0,*5A
###2023-12-09 12:51:28.551834$GNGGA,175127.70,4138.0575483,N,07032.3814555,W,1,24,0.6,13.431,M,-29.744,M,0.0,*50
###2023-12-09 12:51:28.752760$GNGGA,175127.90,4138.0575687,N,07032.3814559,W,1,24,0.6,13.406,M,-29.744,M,0.0,*50
###2023-12-09 12:51:28.952312$GNRMC,175128.10,A,4138.0576148,N,07032.3815056,W,1.26,317.58,091223,,,A*50
###2023-12-09 12:51:28.955203$GNGGA,175128.10,4138.0576148,N,07032.3815056,W,1,24,0.6,13.408,M,-29.744,M,0.0,*55
###2023-12-09 12:51:28.957314$GPGSA,A,3,03,04,16,26,28,29,31,32,,,,,1.1,0.6,0.9*3B
###2023-12-09 12:51:28.959064$GLGSA,A,3,65,71,72,73,74,75,,,,,,,1.1,0.6,0.9*24
###2023-12-09 12:51:28.960664$GAGSA,A,3,04,19,21,27,,,,,,,,,1.1,0.6,0.9*26
###2023-12-09 12:51:28.962313$GBGSA,A,3,14,24,25,26,33,,,,,,,,1.1,0.6,0.9*2F
###2023-12-09 12:51:28.964670$GPGSV,2,1,08,03,37,267,43,04,29,311,43,16,45,210,47,26,74,208,48*7D
###2023-12-09 12:51:28.967020$GPGSV,2,2,08,28,53,065,44,29,26,066,42,31,71,024,47,32,23,138,44*7C
###2023-12-09 12:51:28.969356$GLGSV,2,1,06,65,19,329,44,71,47,171,47,72,72,288,46,73,40,038,41*6C
###2023-12-09 12:51:28.971114$GLGSV,2,2,06,74,71,321,41,75,28,248,45,,,,,,,,*64
###2023-12-09 12:51:28.973446$GAGSV,1,1,04,04,26,312,42,19,85,258,41,21,83,157,46,27,36,048,43*67
###2023-12-09 12:51:28.975788$GBGSV,2,1,05,14,48,194,45,24,77,014,47,25,37,258,44,26,29,060,42*6A
