###2023-12-09 12:46:47.973819$GNVTG,277.48,T,,M,0.35,N,0.65,K,A*28
###2023-12-09 12:46:47.975511$GNGST,174647.10,18.000,,,,0.078,0.069,0.160*5F
###2023-12-09 12:46:47.976806$GNZDA,174647.10,09,12,2023,00,00*77
###2023-12-09 12:46:47.977449$GNEBP,,,,,,M*13
###2023-12-09 12:46:48.149060$GNGGA,174647.30,4138.0477941,N,07032.3935074,W,1,24,0.6,13.347,M,-29.745,M,0.0,*57
###2023-12-09 12:46:48.347520$GNGGA,174647.50,4138.0477977,N,07032.3935762,W,1,24,0.6,13.375,M,-29.745,M,0.0,*55
###2023-12-09 12:46:48.547328$GNGGA,174647.70,4138.0478014,N,07032.3936350,W,1,24,0.6,13.388,M,-29.745,M,0.0,*50
###2023-12-09 12:46:48.746220$GNGGA,174647.90,4138.0477979,N,07032.3936299,W,1,24,0.6,13.403,M,-29.745,M,0.0,*53
###2023-12-09 12:46:48.947007$GNRMC,174648.10,A,4138.0477927,N,07032.3935977,W,0.21,275.82,091223,,,A*5C
###2023-12-09 12:46:48.949883$GNGGA,174648.10,4138.0477927,N,07032.3935977,W,1,24,0.6,13.385,M,-29.745,M,0.0,*5E
###2023-12-09 12:46:48.951770$GPGSA,A,3,03,04,16,26,28,29,31,32,,,,,1.1,0.6,0.9*3B
###2023-12-09 12:46:48.953497$GLGSA,A,3,65,71,72,73,74,75,,,,,,,1.1,0.6,0.9*24
###2023-12-09 12:46:48.955099$GAGSA,A,3,04,19,21,27,,,,,,,,,1.1,0.6,0.9*26
###2023-12-09 12:46:48.956758$GBGSA,A,3,14,24,25,26,33,,,,,,,,1.1,0.6,0.9*2F
###2023-12-09 12:46:48.959144$GPGSV,2,1,08,03,37,270,44,04,26,311,40,16,42,209,44,26,72,208,47*75
###2023-12-09 12:46:48.961480$GPGSV,2,2,08,28,54,062,46,29,26,068,42,31,72,018,48,32,25,137,45*7B
###2023-12-09 12:46:48.963840$GLGSV,2,1,06,65,17,329,40,71,50,171,45,72,70,297,46,73,43,037,47*64
###2023-12-09 12:46:48.965597$GLGSV,2,2,06,74,71,310,43,75,26,245,41,,,,,,,,*63
###2023-12-09 12:46:48.967950$GAGSV,1,1,04,04,24,312,39,19,84,276,41,21,82,165,46,27,38,049,44*6C
###2023-12-09 12:46:48.970293$GBGSV,2,1,05,14,50,195,43,24,78,008,49,25,36,257,43,26,31,060,42*68
###2023-12-09 12:46:48.971767$GBGSV,2,2,05,33,61,245,47,,,,,,,,,,,,*59
###2023-12-09 12:46:48.973097$GNVTG,275.82,T,,M,0.21,N,0.40,K,A*2E
###2023-12-09 12:46:48.974757$GNGST,174648.10,18.000,,,,0.078,0.069,0.160*50
###2023-12-09 12:46:48.976050$GNZDA,174648.10,09,12,2023,00,00*78
###2023-12-09 12:46:48.976693$GNEBP,,,,,,M*13
###2023-12-09 12:46:49.145766$GNGGA,174648.30,4138.0477923,N,07032.3936189,W,1,24,0.6,13.380,M,-29.745,M,0.0,*57
###2023-12-09 12:46:49.349207$GNGGA,174648.50,4138.0477984,N,07032.3936910,W,1,24,0.6,13.406,M,-29.745,M,0.0,*5D
###2023-12-09 12:46:49.546239$GNGGA,174648.70,4138.0478008,N,07032.3937395,W,1,24,0.6,13.415,M,-29.745,M,0.0,*59
###2023-12-09 12:46:49.757153$GNGGA,174648.90,4138.0477944,N,07032.3937230,W,1,24,0.6,13.426,M,-29.745,M,0.0,*57
###2023-12-09 12:46:49.949623$GNRMC,174649.10,A,4138.0477906,N,07032.3936987,W,0.06,274.71,091223,,,A*5A
###2023-12-09 12:46:49.952532$GNGGA,174649.10,4138.0477906,N,07032.3936987,W,1,24,0.6,13.413,M,-29.745,M,0.0,*58
###2023-12-09 12:46:49.954388$GPGSA,A,3,03,04,16,26,28,29,31,32,,,,,1.1,0.6,0.9*3B
###2023-12-09 12:46:49.956129$GLGSA,A,3,65,71,72,73,74,75,,,,,,,1.1,0.6,0.9*24
###2023-12-09 12:46:49.957704$GAGSA,A,3,04,19,21,27,,,,,,,,,1.1,0.6,0.9*26
###2023-12-09 12:46:49.959370$GBGSA,A,3,14,24,25,26,33,,,,,,,,1.1,0.6,0.9*2F
###2023-12-09 12:46:49.961705$GPGSV,2,1,08,03,37,270,43,04,26,311,40,16,42,209,43,26,72,208,47*75
###2023-12-09 12:46:49.964062$GPGSV,2,2,08,28,54,062,46,29,26,068,44,31,72,018,48,32,25,137,45*7D
###2023-12-09 12:46:49.966402$GLGSV,2,1,06,65,17,329,39,71,50,171,47,72,70,297,46,73,43,037,47*68
###2023-12-09 12:46:49.968169$GLGSV,2,2,06,74,71,310,43,75,26,245,41,,,,,,,,*63
###2023-12-09 12:46:49.970498$GAGSV,1,1,04,04,24,312,39,19,84,276,41,21,82,165,46,27,38,049,44*6C
###2023-12-09 12:46:49.972847$GBGSV,2,1,05,14,50,195,44,24,78,008,48,25,36,257,44,26,31,060,43*68
###2023-12-09 12:46:49.974294$GBGSV,2,2,05,33,61,245,47,,,,,,,,,,,,*59
###2023-12-09 12:46:49.975622$GNVTG,274.71,T,,M,0.06,N,0.11,K,A*22
###2023-12-09 12:46:49.977259$GNGST,174649.10,18.000,,,,0.078,0.069,0.160*51
###2023-12-09 12:46:49.978543$GNZDA,174649.10,09,12,2023,00,00*79
###2023-12-09 12:46:49.979188$GNEBP,,,,,,M*13
###2023-12-09 12:46:50.146544$GNGGA,174649.30,4138.0477917,N,07032.3937359,W,1,24,0.6,13.417,M,-29.745,M,0.0,*56
###2023-12-09 12:46:50.346219$GNGGA,174649.50,4138.0477973,N,07032.3938068,W,1,24,0.6,13.433,M,-29.745,M,0.0,*5A
###2023-12-09 12:46:50.546212$GNGGA,174649.70,4138.0477991,N,07032.3938422,W,1,24,0.6,13.446,M,-29.745,M,0.0,*5C
###2023-12-09 12:46:50.746023$GNGGA,174649.90,4138.0477933,N,07032.3938277,W,1,24,0.6,13.454,M,-29.745,M,0.0,*5F
###2023-12-09 12:46:50.945959$GNRMC,174650.10,A,4138.0477906,N,07032.3938133,W,0.10,277.17,091223,,,A*5F
###2023-12-09 12:46:50.948860$GNGGA,174650.10,4138.0477906,N,07032.3938133,W,1,24,0.6,13.439,M,-29.745,M,0.0,*51
###2023-12-09 12:46:50.950752$GPGSA,A,3,03,04,16,26,28,29,31,32,,,,,1.1,0.6,0.9*3B
###2023-12-09 12:46:50.952459$GLGSA,A,3,65,71,72,73,74,75,,,,,,,1.1,0.6,0.9*24
###2023-12-09 12:46:50.954036$GAGSA,A,3,04,19,21,27,,,,,,,,,1.1,0.6,0.9*26
###2023-12-09 12:46:50.955699$GBGSA,A,3,14,24,25,26,33,,,,,,,,1.1,0.6,0.9*2F
###2023-12-09 12:46:50.958015$GPGSV,2,1,08,03,37,270,43,04,26,311,40,16,42,209,43,26,72,208,48*7A
###2023-12-09 12:46:50.960364$GPGSV,2,2,08,28,54,062,46,29,26,068,43,31,72,018,48,32,25,137,45*7A
###2023-12-09 12:46:50.962701$GLGSV,2,1,06,65,17,329,39,71,50,171,46,72,70,297,47,73,43,037,47*68
###2023-12-09 12:46:50.964437$GLGSV,2,2,06,74,71,310,43,75,26,245,41,,,,,,,,*63
###2023-12-09 12:46:50.966762$GAGSV,1,1,04,04,24,312,39,19,84,276,40,21,82,165,45,27,38,049,44*6E
###2023-12-09 12:46:50.969089$GBGSV,2,1,05,14,50,195,43,24,78,008,49,25,36,257,44,26,31,060,43*6E
###2023-12-09 12:46:50.970531$GBGSV,2,2,05,33,61,245,48,,,,,,,,,,,,*56
###2023-12-09 12:46:50.971873$GNVTG,277.17,T,,M,0.10,N,0.18,K,A*2F
###2023-12-09 12:46:50.973517$GNGST,174650.10,18.000,,,,0.078,0.069,0.160*59
###2023-12-09 12:46:50.974852$GNZDA,174650.10,09,12,2023,00,00*71
###2023-12-09 12:46:50.975495$GNEBP,,,,,,M*13
###2023-12-09 12:46:51.145483$GNGGA,174650.30,4138.0477916,N,07032.3938463,W,1,24,0.6,13.430,M,-29.745,M,0.0,*5B
###2023-12-09 12:46:51.346196$GNGGA,174650.50,4138.0477957,N,07032.3939093,W,1,24,0.6,13.450,M,-29.745,M,0.0,*54
###2023-12-09 12:46:51.546267$GNGGA,174650.70,4138.0478016,N,07032.3939495,W,1,24,0.6,13.466,M,-29.745,M,0.0,*52
###2023-12-09 12:46:51.745960$GNGGA,174650.90,4138.0477986,N,07032.3939412,W,1,24,0.6,13.472,M,-29.745,M,0.0,*59
###2023-12-09 12:46:51.947114$GNRMC,174651.10,A,4138.0477932,N,07032.3939201,W,0.14,277.17,091223,,,A*5E
###2023-12-09 12:46:51.949984$GNGGA,174651.10,4138.0477932,N,07032.3939201,W,1,24,0.6,13.437,M,-29.745,M,0.0,*5A
###2023-12-09 12:46:51.951873$GPGSA,A,3,03,04,16,26,28,29,31,32,,,,,1.1,0.6,0.9*3B
###2023-12-09 12:46:51.953600$GLGSA,A,3,65,71,72,73,74,75,,,,,,,1.1,0.6,0.9*24
###2023-12-09 12:46:51.955238$GAGSA,A,3,04,19,21,27,,,,,,,,,1.1,0.6,0.9*26
###2023-12-09 12:46:51.956895$GBGSA,A,3,14,24,25,26,33,,,,,,,,1.1,0.6,0.9*2F
###2023-12-09 12:46:51.959234$GPGSV,2,1,08,03,37,270,44,04,26,311,40,16,42,209,43,26,72,208,47*72
###2023-12-09 12:46:51.961578$GPGSV,2,2,08,28,54,062,46,29,26,068,43,31,72,018,48,32,25,137,46*79
###2023-12-09 12:46:51.963914$GLGSV,2,1,06,65,17,329,39,71,50,171,46,72,70,297,47,73,43,037,47*68
###2023-12-09 12:46:51.965661$GLGSV,2,2,06,74,71,310,42,75,26,245,41,,,,,,,,*62
###2023-12-09 12:46:51.967989$GAGSV,1,1,04,04,24,312,39,19,84,276,40,21,82,165,45,27,38,049,43*69
###2023-12-09 12:46:51.970312$GBGSV,2,1,05,14,50,195,44,24,78,008,49,25,36,257,43,26,31,060,44*69
###2023-12-09 12:46:51.971782$GBGSV,2,2,05,33,61,243,47,,,,,,,,,,,,*5F
###2023-12-09 12:46:51.973107$GNVTG,277.17,T,,M,0.14,N,0.25,K,A*25
###2023-12-09 12:46:51.974764$GNGST,174651.10,18.000,,,,0.078,0.069,0.160*58
###2023-12-09 12:46:51.976055$GNZDA,174651.10,09,12,2023,00,00*70
###2023-12-09 12:46:51.976693$GNEBP,,,,,,M*13
###2023-12-09 12:46:52.145778$GNGGA,174651.30,4138.0477933,N,07032.3939507,W,1,24,0.6,13.432,M,-29.745,M,0.0,*5D
###2023-12-09 12:46:52.346161$GNGGA,174651.50,4138.0478022,N,07032.3940256,W,1,24,0.6,13.455,M,-29.745,M,0.0,*51
###2023-12-09 12:46:52.546202$GNGGA,174651.70,4138.0478073,N,07032.3940695,W,1,24,0.6,13.456,M,-29.745,M,0.0,*5F
###2023-12-09 12:46:52.750796$GNGGA,174651.90,4138.0478005,N,07032.3940512,W,1,24,0.6,13.462,M,-29.745,M,0.0,*5B
###2023-12-09 12:46:52.946114$GNRMC,174652.10,A,4138.0477945,N,07032.3940260,W,0.10,277.85,091223,,,A*5B
###2023-12-09 12:46:52.949023$GNGGA,174652.10,4138.0477945,N,07032.3940260,W,1,24,0.6,13.419,M,-29.745,M,0.0,*5C
###2023-12-09 12:46:52.950920$GPGSA,A,3,03,04,16,26,28,29,31,32,,,,,1.1,0.6,0.9*3B
###2023-12-09 12:46:52.952639$GLGSA,A,3,65,71,72,73,74,75,,,,,,,1.1,0.6,0.9*24
###2023-12-09 12:46:52.954215$GAGSA,A,3,04,19,21,27,,,,,,,,,1.1,0.6,0.9*26
###2023-12-09 12:46:52.955873$GBGSA,A,3,14,24,25,26,33,,,,,,,,1.1,0.6,0.9*2F
###2023-12-09 12:46:52.958199$GPGSV,2,1,08,03,37,270,42,04,26,311,39,16,42,209,43,26,72,208,47*7A
###2023-12-09 12:46:52.960549$GPGSV,2,2,08,28,54,062,46,29,26,068,44,31,72,018,48,32,25,137,46*7E
