###2023-12-09 12:34:34.946414$GBGSA,A,3,14,24,25,26,33,,,,,,,,1.2,0.7,1.0*25
###2023-12-09 12:34:34.948811$GPGSV,2,1,08,03,39,277,44,04,22,311,39,16,37,207,45,26,66,206,48*7F
###2023-12-09 12:34:34.951177$GPGSV,2,2,08,28,58,056,44,29,25,074,39,31,73,001,47,32,30,134,43*77
###2023-12-09 12:34:34.953510$GLGSV,1,1,04,71,57,169,48,72,65,310,47,73,48,033,47,74,71,290,43*62
###2023-12-09 12:34:34.955842$GAGSV,1,1,04,04,20,311,40,19,81,304,41,21,77,177,46,27,42,050,45*69
###2023-12-09 12:34:34.958165$GBGSV,2,1,05,14,55,198,45,24,81,343,49,25,32,252,45,26,35,057,44*6D
###2023-12-09 12:34:34.959634$GBGSV,2,2,05,33,63,255,48,,,,,,,,,,,,*55
###2023-12-09 12:34:34.960920$GNVTG,84.40,T,,M,0.21,N,0.40,K,A*1C
###2023-12-09 12:34:34.962579$GNGST,173434.10,19.000,,,,0.099,0.089,0.210*5A
###2023-12-09 12:34:34.963873$GNZDA,173434.10,09,12,2023,00,00*76
###2023-12-09 12:34:34.964509$GNEBP,,,,,,M*13
###2023-12-09 12:34:35.134707$GNGGA,173434.30,4138.0470322,N,07032.4222755,W,1,21,0.7,12.929,M,-29.745,M,0.0,*57
###2023-12-09 12:34:35.334518$GNGGA,173434.50,4138.0470615,N,07032.4222812,W,1,22,0.7,12.935,M,-29.745,M,0.0,*52
###2023-12-09 12:34:35.534480$GNGGA,173434.70,4138.0470816,N,07032.4222854,W,1,23,0.7,12.941,M,-29.745,M,0.0,*5D
###2023-12-09 12:34:35.733590$GNGGA,173434.90,4138.0470747,N,07032.4222748,W,1,23,0.7,12.965,M,-29.745,M,0.0,*5C
###2023-12-09 12:34:35.935700$GNRMC,173435.10,A,4138.0470648,N,07032.4222631,W,0.10,84.40,091223,,,A*65
###2023-12-09 12:34:35.938594$GNGGA,173435.10,4138.0470648,N,07032.4222631,W,1,23,0.7,12.970,M,-29.745,M,0.0,*50
###2023-12-09 12:34:35.940462$GPGSA,A,3,03,04,16,26,28,29,31,32,,,,,1.2,0.7,1.0*31
###2023-12-09 12:34:35.942118$GLGSA,A,3,71,72,73,74,75,,,,,,,,1.2,0.7,1.0*2D
###2023-12-09 12:34:35.943727$GAGSA,A,3,04,19,21,27,,,,,,,,,1.2,0.7,1.0*2C
###2023-12-09 12:34:35.945379$GBGSA,A,3,14,24,25,26,33,,,,,,,,1.2,0.7,1.0*25
###2023-12-09 12:34:35.947740$GPGSV,2,1,08,03,39,277,43,04,22,311,41,16,37,207,45,26,66,206,48*77
###2023-12-09 12:34:35.950099$GPGSV,2,2,08,28,58,056,44,29,25,074,41,31,73,001,47,32,30,134,43*78
###2023-12-09 12:34:35.952462$GLGSV,2,1,05,71,57,169,48,72,65,310,47,73,48,033,47,74,71,290,43*60
###2023-12-09 12:34:35.953923$GLGSV,2,2,05,75,22,241,35,,,,,,,,,,,,*53
###2023-12-09 12:34:35.956268$GAGSV,1,1,04,04,20,311,40,19,81,304,41,21,77,177,46,27,42,050,44*68
###2023-12-09 12:34:35.958625$GBGSV,2,1,05,14,55,198,46,24,81,343,49,25,32,252,46,26,35,057,45*6C
###2023-12-09 12:34:35.960089$GBGSV,2,2,05,33,63,255,47,,,,,,,,,,,,*5A
###2023-12-09 12:34:35.961419$GNVTG,84.40,T,,M,0.10,N,0.18,K,A*13
###2023-12-09 12:34:35.963094$GNGST,173435.10,19.000,,,,0.096,0.086,0.200*5A
###2023-12-09 12:34:35.964388$GNZDA,173435.10,09,12,2023,00,00*77
###2023-12-09 12:34:35.965027$GNEBP,,,,,,M*13
###2023-12-09 12:34:36.134790$GNGGA,173435.30,4138.0470781,N,07032.4222671,W,1,23,0.7,12.971,M,-29.745,M,0.0,*53
###2023-12-09 12:34:36.334368$GNGGA,173435.50,4138.0471065,N,07032.4222785,W,1,23,0.7,12.970,M,-29.745,M,0.0,*52
###2023-12-09 12:34:36.538371$GNGGA,173435.70,4138.0471167,N,07032.4222776,W,1,23,0.7,12.977,M,-29.745,M,0.0,*58
###2023-12-09 12:34:36.733708$GNGGA,173435.90,4138.0471077,N,07032.4222670,W,1,23,0.7,12.996,M,-29.745,M,0.0,*5E
###2023-12-09 12:34:36.935327$GNRMC,173436.10,A,4138.0471024,N,07032.4222625,W,0.12,84.40,091223,,,A*6C
###2023-12-09 12:34:36.938179$GNGGA,173436.10,4138.0471024,N,07032.4222625,W,1,23,0.7,13.001,M,-29.745,M,0.0,*55
###2023-12-09 12:34:36.940050$GPGSA,A,3,03,04,16,26,28,29,31,32,,,,,1.2,0.7,1.0*31
###2023-12-09 12:34:36.941707$GLGSA,A,3,71,72,73,74,75,,,,,,,,1.2,0.7,1.0*2D
###2023-12-09 12:34:36.943309$GAGSA,A,3,04,19,21,27,,,,,,,,,1.2,0.7,1.0*2C
###2023-12-09 12:34:36.944962$GBGSA,A,3,14,24,25,26,33,,,,,,,,1.2,0.7,1.0*25
###2023-12-09 12:34:36.947364$GPGSV,2,1,08,03,39,277,43,04,22,311,40,16,37,207,45,26,66,206,47*79
###2023-12-09 12:34:36.949723$GPGSV,2,2,08,28,58,056,43,29,25,074,41,31,73,001,46,32,30,134,42*7F
###2023-12-09 12:34:36.952058$GLGSV,2,1,05,71,57,169,48,72,65,310,46,73,48,033,46,74,71,290,43*60
###2023-12-09 12:34:36.953512$GLGSV,2,2,05,75,22,241,37,,,,,,,,,,,,*51
###2023-12-09 12:34:36.955850$GAGSV,1,1,04,04,20,311,40,19,81,304,41,21,77,177,47,27,42,050,44*69
###2023-12-09 12:34:36.958173$GBGSV,2,1,05,14,55,198,46,24,81,343,50,25,32,252,46,26,35,057,45*64
###2023-12-09 12:34:36.959636$GBGSV,2,2,05,33,63,255,47,,,,,,,,,,,,*5A
###2023-12-09 12:34:36.960931$GNVTG,84.40,T,,M,0.12,N,0.22,K,A*18
###2023-12-09 12:34:36.962589$GNGST,173436.10,19.000,,,,0.093,0.083,0.200*59
###2023-12-09 12:34:36.963888$GNZDA,173436.10,09,12,2023,00,00*74
###2023-12-09 12:34:36.964524$GNEBP,,,,,,M*13
###2023-12-09 12:34:37.134156$GNGGA,173436.30,4138.0471212,N,07032.4222681,W,1,23,0.7,13.002,M,-29.745,M,0.0,*5D
###2023-12-09 12:34:37.334393$GNGGA,173436.50,4138.0471465,N,07032.4222739,W,1,23,0.7,13.003,M,-29.745,M,0.0,*5E
###2023-12-09 12:34:37.535019$GNGGA,173436.70,4138.0471492,N,07032.4222704,W,1,23,0.7,13.009,M,-29.745,M,0.0,*50
###2023-12-09 12:34:37.734224$GNGGA,173436.90,4138.0471352,N,07032.4222616,W,1,23,0.7,13.028,M,-29.745,M,0.0,*54
###2023-12-09 12:34:37.934333$GNRMC,173437.10,A,4138.0471350,N,07032.4222584,W,0.23,84.40,091223,,,A*67
###2023-12-09 12:34:37.937213$GNGGA,173437.10,4138.0471350,N,07032.4222584,W,1,23,0.7,13.027,M,-29.745,M,0.0,*58
###2023-12-09 12:34:37.939092$GPGSA,A,3,03,04,16,26,28,29,31,32,,,,,1.2,0.7,1.0*31
###2023-12-09 12:34:37.940736$GLGSA,A,3,71,72,73,74,75,,,,,,,,1.2,0.7,1.0*2D
###2023-12-09 12:34:37.942311$GAGSA,A,3,04,19,21,27,,,,,,,,,1.2,0.7,1.0*2C
###2023-12-09 12:34:37.943964$GBGSA,A,3,14,24,25,26,33,,,,,,,,1.2,0.7,1.0*25
###2023-12-09 12:34:37.946275$GPGSV,2,1,08,03,39,277,43,04,22,311,41,16,37,207,44,26,66,206,47*79
###2023-12-09 12:34:37.948643$GPGSV,2,2,08,28,58,056,45,29,25,074,39,31,73,001,47,32,30,134,44*71
###2023-12-09 12:34:37.951011$GLGSV,2,1,05,71,57,169,48,72,65,310,46,73,48,033,44,74,71,290,44*65
###2023-12-09 12:34:37.952465$GLGSV,2,2,05,75,22,241,39,,,,,,,,,,,,*5F
###2023-12-09 12:34:37.954786$GAGSV,1,1,04,04,20,311,42,19,81,304,41,21,77,177,47,27,42,050,44*6B
###2023-12-09 12:34:37.957095$GBGSV,2,1,05,14,55,198,47,24,81,343,49,25,32,252,46,26,35,057,44*6C
###2023-12-09 12:34:37.958535$GBGSV,2,2,05,33,63,255,47,,,,,,,,,,,,*5A
###2023-12-09 12:34:37.959828$GNVTG,84.40,T,,M,0.23,N,0.43,K,A*1D
###2023-12-09 12:34:37.961471$GNGST,173437.10,19.000,,,,0.091,0.082,0.190*51
###2023-12-09 12:34:37.962774$GNZDA,173437.10,09,12,2023,00,00*75
###2023-12-09 12:34:37.963416$GNEBP,,,,,,M*13
###2023-12-09 12:34:38.133976$GNGGA,173437.30,4138.0471582,N,07032.4222662,W,1,23,0.7,13.033,M,-29.745,M,0.0,*5D
###2023-12-09 12:34:38.334646$GNGGA,173437.50,4138.0471753,N,07032.4222711,W,1,23,0.7,13.031,M,-29.745,M,0.0,*52
###2023-12-09 12:34:38.540720$GNGGA,173437.70,4138.0471663,N,07032.4222671,W,1,23,0.7,13.043,M,-29.745,M,0.0,*50
###2023-12-09 12:34:38.732700$GNGGA,173437.90,4138.0471551,N,07032.4222593,W,1,23,0.7,13.049,M,-29.745,M,0.0,*59
###2023-12-09 12:34:38.936242$GNRMC,173438.10,A,4138.0471642,N,07032.4222606,W,0.37,84.40,091223,,,A*62
###2023-12-09 12:34:38.939120$GNGGA,173438.10,4138.0471642,N,07032.4222606,W,1,23,0.7,13.052,M,-29.745,M,0.0,*5A
###2023-12-09 12:34:38.940989$GPGSA,A,3,03,04,16,26,28,29,31,32,,,,,1.2,0.7,1.0*31
###2023-12-09 12:34:38.942672$GLGSA,A,3,71,72,73,74,75,,,,,,,,1.2,0.7,1.0*2D
###2023-12-09 12:34:38.944269$GAGSA,A,3,04,19,21,27,,,,,,,,,1.2,0.7,1.0*2C
###2023-12-09 12:34:38.945922$GBGSA,A,3,14,24,25,26,33,,,,,,,,1.2,0.7,1.0*25
###2023-12-09 12:34:38.948293$GPGSV,2,1,08,03,39,277,43,04,22,311,41,16,37,207,44,26,66,206,47*79
###2023-12-09 12:34:38.950665$GPGSV,2,2,08,28,58,056,45,29,25,074,39,31,73,001,47,32,30,134,43*76
###2023-12-09 12:34:38.953017$GLGSV,2,1,05,71,57,169,48,72,65,310,47,73,48,033,46,74,71,290,44*66
###2023-12-09 12:34:38.954479$GLGSV,2,2,05,75,22,241,38,,,,,,,,,,,,*5E
###2023-12-09 12:34:38.956838$GAGSV,1,1,04,04,20,311,41,19,81,304,41,21,77,177,47,27,42,050,44*68
###2023-12-09 12:34:38.959199$GBGSV,2,1,05,14,55,198,46,24,81,343,47,25,32,252,45,26,35,057,43*67
###2023-12-09 12:34:38.960669$GBGSV,2,2,05,33,63,255,46,,,,,,,,,,,,*5B
###2023-12-09 12:34:38.962207$GNVTG,84.40,T,,M,0.37,N,0.68,K,A*11
###2023-12-09 12:34:38.963884$GNGST,173438.10,19.000,,,,0.090,0.080,0.190*5D
###2023-12-09 12:34:38.965187$GNZDA,173438.10,09,12,2023,00,00*7A
###2023-12-09 12:34:38.965834$GNEBP,,,,,,M*13
###2023-12-09 12:34:39.136474$GNGGA,173438.30,4138.0471849,N,07032.4222711,W,1,23,0.7,13.052,M,-29.745,M,0.0,*5A
###2023-12-09 12:34:39.334487$GNGGA,173438.50,4138.0471899,N,07032.4222745,W,1,23,0.7,13.052,M,-29.745,M,0.0,*50
###2023-12-09 12:34:39.534304$GNGGA,173438.70,4138.0471788,N,07032.4222701,W,1,23,0.7,13.059,M,-29.745,M,0.0,*56
###2023-12-09 12:34:39.733464$GNGGA,173438.90,4138.0471763,N,07032.4222677,W,1,23,0.7,13.069,M,-29.745,M,0.0,*5E
###2023-12-09 12:34:39.933128$GNRMC,173439.10,A,4138.0471902,N,07032.4222730,W,0.37,84.40,091223,,,A*6C
