###2023-12-09 13:25:37.005981$GAGSA,A,3,04,19,21,27,,,,,,,,,1.1,0.6,0.9*26
###2023-12-09 13:25:37.007741$GBGSA,A,3,14,24,25,26,33,35,,,,,,,1.1,0.6,0.9*29
###2023-12-09 13:25:37.010091$GPGSV,2,1,07,03,29,250,44,04,43,309,41,16,62,219,45,26,88,044,48*7E
###2023-12-09 13:25:37.012155$GPGSV,2,2,07,28,41,081,45,29,22,050,42,31,62,060,47,,,,*42
###2023-12-09 13:25:37.014492$GLGSV,2,1,06,65,34,322,41,71,27,175,44,72,67,229,46,73,26,049,43*67
###2023-12-09 13:25:37.016275$GLGSV,2,2,06,74,63,006,42,75,40,266,47,,,,,,,,*62
###2023-12-09 13:25:37.018616$GAGSV,1,1,04,04,37,311,41,19,76,185,41,21,80,051,46,27,26,049,41*6E
###2023-12-09 13:25:37.020940$GBGSV,2,1,06,14,33,190,42,24,66,041,49,25,48,272,48,26,19,068,44*69
###2023-12-09 13:25:37.022690$GBGSV,2,2,06,33,49,220,47,35,16,060,43,,,,,,,,*63
###2023-12-09 13:25:37.024010$GNVTG,320.23,T,,M,3.03,N,5.62,K,A*22
###2023-12-09 13:25:37.025651$GNGST,182536.10,18.000,,,,0.100,0.070,0.160*55
###2023-12-09 13:25:37.026952$GNZDA,182536.10,09,12,2023,00,00*7B
###2023-12-09 13:25:37.027592$GNEBP,,,,,,M*13
###2023-12-09 13:25:37.189276$GNGGA,182536.30,4138.0316143,N,07032.3396529,W,1,24,0.6,13.220,M,-29.744,M,0.0,*5E
###2023-12-09 13:25:37.389224$GNGGA,182536.50,4138.0317511,N,07032.3397860,W,1,24,0.6,13.221,M,-29.744,M,0.0,*5A
###2023-12-09 13:25:37.591264$GNGGA,182536.70,4138.0318914,N,07032.3399110,W,1,24,0.6,13.215,M,-29.744,M,0.0,*59
###2023-12-09 13:25:37.790242$GNGGA,182536.90,4138.0320331,N,07032.3400223,W,1,24,0.6,13.218,M,-29.744,M,0.0,*58
###2023-12-09 13:25:37.993319$GNRMC,182537.10,A,4138.0321793,N,07032.3401292,W,3.11,331.48,091223,,,A*56
###2023-12-09 13:25:37.996216$GNGGA,182537.10,4138.0321793,N,07032.3401292,W,1,24,0.6,13.220,M,-29.744,M,0.0,*5C
###2023-12-09 13:25:37.998014$GPGSA,A,3,03,04,16,26,28,29,31,,,,,,1.1,0.6,0.9*3A
###2023-12-09 13:25:37.999748$GLGSA,A,3,65,71,72,73,74,75,,,,,,,1.1,0.6,0.9*24
###2023-12-09 13:25:38.001341$GAGSA,A,3,04,19,21,27,,,,,,,,,1.1,0.6,0.9*26
###2023-12-09 13:25:38.003068$GBGSA,A,3,14,24,25,26,33,35,,,,,,,1.1,0.6,0.9*29
###2023-12-09 13:25:38.005403$GPGSV,2,1,07,03,29,250,43,04,43,309,42,16,62,219,46,26,88,044,48*79
###2023-12-09 13:25:38.007473$GPGSV,2,2,07,28,41,081,45,29,22,050,42,31,62,060,47,,,,*42
###2023-12-09 13:25:38.009805$GLGSV,2,1,06,65,34,322,41,71,27,175,45,72,67,229,46,73,26,049,43*66
###2023-12-09 13:25:38.011570$GLGSV,2,2,06,74,63,006,42,75,40,266,47,,,,,,,,*62
###2023-12-09 13:25:38.013895$GAGSV,1,1,04,04,37,311,41,19,76,185,41,21,80,051,46,27,26,049,40*6F
###2023-12-09 13:25:38.016242$GBGSV,2,1,06,14,33,190,39,24,66,041,47,25,48,272,46,26,19,068,42*63
###2023-12-09 13:25:38.017993$GBGSV,2,2,06,33,49,220,46,35,16,060,42,,,,,,,,*63
###2023-12-09 13:25:38.019338$GNVTG,331.48,T,,M,3.11,N,5.76,K,A*29
###2023-12-09 13:25:38.020986$GNGST,182537.10,18.000,,,,0.100,0.070,0.160*54
###2023-12-09 13:25:38.022276$GNZDA,182537.10,09,12,2023,00,00*7A
###2023-12-09 13:25:38.022928$GNEBP,,,,,,M*13
###2023-12-09 13:25:38.190315$GNGGA,182537.30,4138.0323255,N,07032.3402437,W,1,24,0.6,13.210,M,-29.744,M,0.0,*5A
###2023-12-09 13:25:38.389171$GNGGA,182537.50,4138.0324689,N,07032.3403619,W,1,24,0.6,13.213,M,-29.744,M,0.0,*52
###2023-12-09 13:25:38.591190$GNGGA,182537.70,4138.0326171,N,07032.3404820,W,1,24,0.6,13.217,M,-29.744,M,0.0,*55
###2023-12-09 13:25:38.789352$GNGGA,182537.90,4138.0327676,N,07032.3406058,W,1,24,0.6,13.210,M,-29.744,M,0.0,*58
###2023-12-09 13:25:38.995303$GNRMC,182538.10,A,4138.0329165,N,07032.3407362,W,3.30,325.83,091223,,,A*57
###2023-12-09 13:25:38.998169$GNGGA,182538.10,4138.0329165,N,07032.3407362,W,1,24,0.6,13.212,M,-29.744,M,0.0,*5D
###2023-12-09 13:25:38.999973$GPGSA,A,3,03,04,16,26,28,29,31,,,,,,1.1,0.6,0.9*3A
###2023-12-09 13:25:39.001682$GLGSA,A,3,65,71,72,73,74,75,,,,,,,1.1,0.6,0.9*24
###2023-12-09 13:25:39.003274$GAGSA,A,3,04,19,21,27,,,,,,,,,1.1,0.6,0.9*26
###2023-12-09 13:25:39.004988$GBGSA,A,3,14,24,25,26,33,35,,,,,,,1.1,0.6,0.9*29
###2023-12-09 13:25:39.007329$GPGSV,2,1,07,03,29,250,42,04,43,309,41,16,62,219,45,26,88,044,48*78
###2023-12-09 13:25:39.009368$GPGSV,2,2,07,28,41,081,45,29,22,050,43,31,62,060,47,,,,*43
###2023-12-09 13:25:39.011702$GLGSV,2,1,06,65,34,322,40,71,27,175,44,72,67,229,46,73,26,049,44*61
###2023-12-09 13:25:39.013441$GLGSV,2,2,06,74,63,006,42,75,40,266,47,,,,,,,,*62
###2023-12-09 13:25:39.015765$GAGSV,1,1,04,04,37,311,41,19,76,185,40,21,80,051,46,27,26,049,41*6F
###2023-12-09 13:25:39.018085$GBGSV,2,1,06,14,33,190,40,24,66,041,49,25,48,272,46,26,19,068,44*65
###2023-12-09 13:25:39.019841$GBGSV,2,2,06,33,49,220,46,35,16,060,42,,,,,,,,*63
###2023-12-09 13:25:39.021161$GNVTG,325.83,T,,M,3.30,N,6.12,K,A*29
###2023-12-09 13:25:39.022811$GNGST,182538.10,18.000,,,,0.100,0.070,0.160*5B
###2023-12-09 13:25:39.024098$GNZDA,182538.10,09,12,2023,00,00*75
###2023-12-09 13:25:39.024735$GNEBP,,,,,,M*13
###2023-12-09 13:25:39.193794$GNGGA,182538.30,4138.0330666,N,07032.3408814,W,1,24,0.6,13.208,M,-29.744,M,0.0,*5D
###2023-12-09 13:25:39.389256$GNGGA,182538.50,4138.0332163,N,07032.3410311,W,1,24,0.6,13.219,M,-29.744,M,0.0,*5C
###2023-12-09 13:25:39.589586$GNGGA,182538.70,4138.0333803,N,07032.3411812,W,1,24,0.6,13.221,M,-29.744,M,0.0,*52
###2023-12-09 13:25:39.790954$GNGGA,182538.90,4138.0335405,N,07032.3413355,W,1,24,0.6,13.217,M,-29.744,M,0.0,*5F
###2023-12-09 13:25:39.991606$GNRMC,182539.10,A,4138.0337029,N,07032.3415046,W,3.83,321.45,091223,,,A*50
###2023-12-09 13:25:39.994479$GNGGA,182539.10,4138.0337029,N,07032.3415046,W,1,24,0.6,13.223,M,-29.744,M,0.0,*5E
###2023-12-09 13:25:39.996294$GPGSA,A,3,03,04,16,26,28,29,31,,,,,,1.1,0.6,0.9*3A
###2023-12-09 13:25:39.998008$GLGSA,A,3,65,71,72,73,74,75,,,,,,,1.1,0.6,0.9*24
###2023-12-09 13:25:39.999600$GAGSA,A,3,04,19,21,27,,,,,,,,,1.1,0.6,0.9*26
###2023-12-09 13:25:40.001318$GBGSA,A,3,14,24,25,26,33,35,,,,,,,1.1,0.6,0.9*29
###2023-12-09 13:25:40.003660$GPGSV,2,1,07,03,29,250,43,04,43,309,41,16,62,219,46,26,88,044,48*7A
###2023-12-09 13:25:40.005701$GPGSV,2,2,07,28,41,081,44,29,22,050,42,31,62,060,46,,,,*42
###2023-12-09 13:25:40.008061$GLGSV,2,1,06,65,34,322,40,71,27,175,45,72,67,229,46,73,26,049,45*61
###2023-12-09 13:25:40.009826$GLGSV,2,2,06,74,63,006,42,75,40,266,46,,,,,,,,*63
###2023-12-09 13:25:40.012176$GAGSV,1,1,04,04,37,311,40,19,76,185,41,21,80,051,46,27,26,049,41*6F
###2023-12-09 13:25:40.014513$GBGSV,2,1,06,14,33,190,43,24,66,041,49,25,48,272,48,26,19,068,43*6F
###2023-12-09 13:25:40.016275$GBGSV,2,2,06,33,49,220,48,35,16,060,42,,,,,,,,*6D
###2023-12-09 13:25:40.017604$GNVTG,321.45,T,,M,3.83,N,7.09,K,A*24
###2023-12-09 13:25:40.019266$GNGST,182539.10,18.000,,,,0.100,0.070,0.160*5A
###2023-12-09 13:25:40.020563$GNZDA,182539.10,09,12,2023,00,00*74
###2023-12-09 13:25:40.021205$GNEBP,,,,,,M*13
###2023-12-09 13:25:40.187472$GNGGA,182539.30,4138.0338661,N,07032.3416790,W,1,24,0.6,13.214,M,-29.744,M,0.0,*52
###2023-12-09 13:25:40.388303$GNGGA,182539.50,4138.0340315,N,07032.3418433,W,1,24,0.6,13.224,M,-29.744,M,0.0,*5A
###2023-12-09 13:25:40.586458$GNGGA,182539.70,4138.0342025,N,07032.3420120,W,1,24,0.6,13.224,M,-29.744,M,0.0,*56
###2023-12-09 13:25:40.788047$GNGGA,182539.90,4138.0343629,N,07032.3421907,W,1,24,0.6,13.211,M,-29.744,M,0.0,*59
###2023-12-09 13:25:40.993663$GNRMC,182540.10,A,4138.0345190,N,07032.3423701,W,3.77,321.53,091223,,,A*55
###2023-12-09 13:25:40.996556$GNGGA,182540.10,4138.0345190,N,07032.3423701,W,1,24,0.6,13.212,M,-29.744,M,0.0,*55
###2023-12-09 13:25:40.998362$GPGSA,A,3,03,04,16,26,28,29,31,,,,,,1.1,0.6,0.9*3A
###2023-12-09 13:25:41.000101$GLGSA,A,3,65,71,72,73,74,75,,,,,,,1.1,0.6,0.9*24
###2023-12-09 13:25:41.001695$GAGSA,A,3,04,19,21,27,,,,,,,,,1.1,0.6,0.9*26
###2023-12-09 13:25:41.003424$GBGSA,A,3,14,24,25,26,33,35,,,,,,,1.1,0.6,0.9*29
###2023-12-09 13:25:41.005759$GPGSV,2,1,07,03,29,250,42,04,43,309,41,16,62,219,46,26,88,044,48*7B
###2023-12-09 13:25:41.007811$GPGSV,2,2,07,28,41,081,45,29,22,050,42,31,62,060,46,,,,*43
###2023-12-09 13:25:41.010141$GLGSV,2,1,06,65,34,322,42,71,27,175,43,72,67,229,46,73,26,049,44*64
###2023-12-09 13:25:41.011908$GLGSV,2,2,06,74,63,006,42,75,40,266,46,,,,,,,,*63
###2023-12-09 13:25:41.014237$GAGSV,1,1,04,04,37,311,41,19,76,185,41,21,80,051,46,27,26,049,41*6E
###2023-12-09 13:25:41.016871$GBGSV,2,1,06,14,33,190,42,24,66,041,49,25,48,272,48,26,19,068,42*6F
###2023-12-09 13:25:41.018661$GBGSV,2,2,06,33,49,220,49,35,16,060,42,,,,,,,,*6C
###2023-12-09 13:25:41.020002$GNVTG,321.53,T,,M,3.77,N,6.98,K,A*21
###2023-12-09 13:25:41.021660$GNGST,182540.10,18.000,,,,0.100,0.070,0.160*54
###2023-12-09 13:25:41.022977$GNZDA,182540.10,09,12,2023,00,00*7A
###2023-12-09 13:25:41.023622$GNEBP,,,,,,M*13
###2023-12-09 13:25:41.188861$GNGGA,182540.30,4138.0346805,N,07032.3425393,W,1,24,0.6,13.212,M,-29.744,M,0.0,*58
###2023-12-09 13:25:41.387925$GNGGA,182540.50,4138.0348269,N,07032.3427139,W,1,24,0.6,13.218,M,-29.744,M,0.0,*5A
###2023-12-09 13:25:41.590871$GNGGA,182540.70,4138.0349695,N,07032.3428938,W,1,24,0.6,13.223,M,-29.744,M,0.0,*50
