###2023-12-09 12:47:54.960803$GPGSV,2,1,08,03,37,269,43,04,27,311,43,16,43,209,45,26,73,208,48*76
###2023-12-09 12:47:54.963223$GPGSV,2,2,08,28,53,064,44,29,26,067,40,31,71,021,47,32,24,137,44*73
###2023-12-09 12:47:54.965574$GLGSV,2,1,06,65,17,329,44,71,49,171,48,72,70,294,47,73,42,037,43*62
###2023-12-09 12:47:54.967344$GLGSV,2,2,06,74,71,314,43,75,27,246,45,,,,,,,,*61
###2023-12-09 12:47:54.969682$GAGSV,1,1,04,04,24,312,42,19,84,276,41,21,82,165,46,27,38,049,43*67
###2023-12-09 12:47:54.972031$GBGSV,2,1,05,14,50,195,45,24,78,008,48,25,36,257,44,26,31,060,42*68
###2023-12-09 12:47:54.973493$GBGSV,2,2,05,33,61,243,48,,,,,,,,,,,,*50
###2023-12-09 12:47:54.974828$GNVTG,336.59,T,,M,0.89,N,1.66,K,A*29
###2023-12-09 12:47:54.976471$GNGST,174754.10,18.000,,,,0.075,0.068,0.160*50
###2023-12-09 12:47:54.977760$GNZDA,174754.10,09,12,2023,00,00*74
###2023-12-09 12:47:54.978400$GNEBP,,,,,,M*13
###2023-12-09 12:47:55.146857$GNGGA,174754.30,4138.0525827,N,07032.4000356,W,1,24,0.6,13.375,M,-29.745,M,0.0,*59
###2023-12-09 12:47:55.346792$GNGGA,174754.50,4138.0525948,N,07032.4000404,W,1,24,0.6,13.399,M,-29.745,M,0.0,*55
###2023-12-09 12:47:55.547364$GNGGA,174754.70,4138.0525985,N,07032.4000382,W,1,24,0.6,13.385,M,-29.745,M,0.0,*52
###2023-12-09 12:47:55.746697$GNGGA,174754.90,4138.0526176,N,07032.4000576,W,1,24,0.6,13.374,M,-29.745,M,0.0,*58
###2023-12-09 12:47:55.947893$GNRMC,174755.10,A,4138.0526599,N,07032.4001027,W,0.93,320.53,091223,,,A*5C
###2023-12-09 12:47:55.950768$GNGGA,174755.10,4138.0526599,N,07032.4001027,W,1,24,0.6,13.367,M,-29.745,M,0.0,*56
###2023-12-09 12:47:55.952628$GPGSA,A,3,03,04,16,26,28,29,31,32,,,,,1.1,0.6,0.9*3B
###2023-12-09 12:47:55.954335$GLGSA,A,3,65,71,72,73,74,75,,,,,,,1.1,0.6,0.9*24
###2023-12-09 12:47:55.955944$GAGSA,A,3,04,19,21,27,,,,,,,,,1.1,0.6,0.9*26
###2023-12-09 12:47:55.957596$GBGSA,A,3,14,24,25,26,33,,,,,,,,1.1,0.6,0.9*2F
###2023-12-09 12:47:55.959936$GPGSV,2,1,08,03,37,269,44,04,27,311,44,16,43,209,46,26,73,208,48*75
###2023-12-09 12:47:55.962266$GPGSV,2,2,08,28,53,064,44,29,26,067,42,31,71,021,47,32,24,137,45*70
###2023-12-09 12:47:55.964624$GLGSV,2,1,06,65,17,329,44,71,49,171,49,72,70,294,47,73,42,037,43*63
###2023-12-09 12:47:55.966375$GLGSV,2,2,06,74,71,314,42,75,27,246,44,,,,,,,,*61
###2023-12-09 12:47:55.968716$GAGSV,1,1,04,04,24,312,42,19,84,276,41,21,82,165,46,27,38,049,42*66
###2023-12-09 12:47:55.971051$GBGSV,2,1,05,14,50,195,45,24,78,008,48,25,36,257,45,26,31,060,44*6F
###2023-12-09 12:47:55.972503$GBGSV,2,2,05,33,61,243,47,,,,,,,,,,,,*5F
###2023-12-09 12:47:55.973824$GNVTG,320.53,T,,M,0.93,N,1.73,K,A*2B
###2023-12-09 12:47:55.975512$GNGST,174755.10,18.000,,,,0.075,0.068,0.160*51
###2023-12-09 12:47:55.976810$GNZDA,174755.10,09,12,2023,00,00*75
###2023-12-09 12:47:55.977448$GNEBP,,,,,,M*13
###2023-12-09 12:47:56.146812$GNGGA,174755.30,4138.0526891,N,07032.4001310,W,1,24,0.6,13.371,M,-29.745,M,0.0,*51
###2023-12-09 12:47:56.346695$GNGGA,174755.50,4138.0526911,N,07032.4001255,W,1,24,0.6,13.401,M,-29.745,M,0.0,*5E
###2023-12-09 12:47:56.546988$GNGGA,174755.70,4138.0526931,N,07032.4001233,W,1,24,0.6,13.408,M,-29.745,M,0.0,*57
###2023-12-09 12:47:56.747824$GNGGA,174755.90,4138.0527213,N,07032.4001502,W,1,24,0.6,13.403,M,-29.745,M,0.0,*5D
###2023-12-09 12:47:56.954489$GNRMC,174756.10,A,4138.0527654,N,07032.4001957,W,0.93,323.02,091223,,,A*55
###2023-12-09 12:47:56.957377$GNGGA,174756.10,4138.0527654,N,07032.4001957,W,1,24,0.6,13.392,M,-29.745,M,0.0,*52
###2023-12-09 12:47:56.959240$GPGSA,A,3,03,04,16,26,28,29,31,32,,,,,1.1,0.6,0.9*3B
###2023-12-09 12:47:56.960950$GLGSA,A,3,65,71,72,73,74,75,,,,,,,1.1,0.6,0.9*24
###2023-12-09 12:47:56.962528$GAGSA,A,3,04,19,21,27,,,,,,,,,1.1,0.6,0.9*26
###2023-12-09 12:47:56.964190$GBGSA,A,3,14,24,25,26,33,,,,,,,,1.1,0.6,0.9*2F
###2023-12-09 12:47:56.966514$GPGSV,2,1,08,03,37,269,43,04,27,311,44,16,43,209,45,26,73,208,48*71
###2023-12-09 12:47:56.968845$GPGSV,2,2,08,28,53,064,44,29,26,067,42,31,71,021,47,32,24,137,44*71
###2023-12-09 12:47:56.971178$GLGSV,2,1,06,65,17,329,44,71,49,171,49,72,70,294,46,73,42,037,44*65
###2023-12-09 12:47:56.972922$GLGSV,2,2,06,74,71,314,42,75,27,246,46,,,,,,,,*63
###2023-12-09 12:47:56.975257$GAGSV,1,1,04,04,24,312,41,19,84,276,41,21,82,165,46,27,38,049,42*65
###2023-12-09 12:47:56.977586$GBGSV,2,1,05,14,50,195,45,24,78,008,49,25,36,257,45,26,31,060,44*6E
###2023-12-09 12:47:56.979050$GBGSV,2,2,05,33,61,243,47,,,,,,,,,,,,*5F
###2023-12-09 12:47:56.980376$GNVTG,323.02,T,,M,0.93,N,1.73,K,A*2C
###2023-12-09 12:47:56.982017$GNGST,174756.10,18.000,,,,0.075,0.068,0.160*52
###2023-12-09 12:47:56.983312$GNZDA,174756.10,09,12,2023,00,00*76
###2023-12-09 12:47:56.983948$GNEBP,,,,,,M*13
###2023-12-09 12:47:57.147801$GNGGA,174756.30,4138.0527893,N,07032.4002210,W,1,24,0.6,13.388,M,-29.745,M,0.0,*55
###2023-12-09 12:47:57.347956$GNGGA,174756.50,4138.0527919,N,07032.4002199,W,1,24,0.6,13.410,M,-29.745,M,0.0,*54
###2023-12-09 12:47:57.548092$GNGGA,174756.70,4138.0527993,N,07032.4002214,W,1,24,0.6,13.412,M,-29.745,M,0.0,*50
###2023-12-09 12:47:57.746738$GNGGA,174756.90,4138.0528265,N,07032.4002497,W,1,24,0.6,13.410,M,-29.745,M,0.0,*5C
###2023-12-09 12:47:57.946971$GNRMC,174757.10,A,4138.0528660,N,07032.4002962,W,0.86,318.43,091223,,,A*50
###2023-12-09 12:47:57.949794$GNGGA,174757.10,4138.0528660,N,07032.4002962,W,1,24,0.6,13.406,M,-29.745,M,0.0,*54
###2023-12-09 12:47:57.951664$GPGSA,A,3,03,04,16,26,28,29,31,32,,,,,1.1,0.6,0.9*3B
###2023-12-09 12:47:57.953371$GLGSA,A,3,65,71,72,73,74,75,,,,,,,1.1,0.6,0.9*24
###2023-12-09 12:47:57.954957$GAGSA,A,3,04,19,21,27,,,,,,,,,1.1,0.6,0.9*26
###2023-12-09 12:47:57.956601$GBGSA,A,3,14,24,25,26,33,,,,,,,,1.1,0.6,0.9*2F
###2023-12-09 12:47:57.958928$GPGSV,2,1,08,03,37,269,44,04,27,311,44,16,43,209,45,26,73,208,48*76
###2023-12-09 12:47:57.961235$GPGSV,2,2,08,28,53,064,44,29,26,067,40,31,71,021,47,32,24,137,43*74
###2023-12-09 12:47:57.963563$GLGSV,2,1,06,65,17,329,44,71,49,171,49,72,70,294,46,73,42,037,43*62
###2023-12-09 12:47:57.965288$GLGSV,2,2,06,74,71,314,43,75,27,246,46,,,,,,,,*62
###2023-12-09 12:47:57.967614$GAGSV,1,1,04,04,24,312,43,19,84,276,41,21,82,165,46,27,38,049,42*67
###2023-12-09 12:47:57.969926$GBGSV,2,1,05,14,50,195,46,24,78,008,49,25,36,257,45,26,31,060,44*6D
###2023-12-09 12:47:57.971470$GBGSV,2,2,05,33,61,243,48,,,,,,,,,,,,*50
###2023-12-09 12:47:57.972801$GNVTG,318.43,T,,M,0.86,N,1.58,K,A*2C
###2023-12-09 12:47:57.974452$GNGST,174757.10,18.000,,,,0.075,0.068,0.160*53
###2023-12-09 12:47:57.975752$GNZDA,174757.10,09,12,2023,00,00*77
###2023-12-09 12:47:57.976392$GNEBP,,,,,,M*13
###2023-12-09 12:47:58.146095$GNGGA,174757.30,4138.0528914,N,07032.4003225,W,1,24,0.6,13.400,M,-29.745,M,0.0,*55
###2023-12-09 12:47:58.347141$GNGGA,174757.50,4138.0528983,N,07032.4003253,W,1,24,0.6,13.416,M,-29.745,M,0.0,*5B
###2023-12-09 12:47:58.547915$GNGGA,174757.70,4138.0529033,N,07032.4003260,W,1,24,0.6,13.407,M,-29.745,M,0.0,*5A
###2023-12-09 12:47:58.746767$GNGGA,174757.90,4138.0529283,N,07032.4003509,W,1,24,0.6,13.403,M,-29.745,M,0.0,*51
###2023-12-09 12:47:58.946717$GNRMC,174758.10,A,4138.0529681,N,07032.4003950,W,0.91,321.46,091223,,,A*58
###2023-12-09 12:47:58.949563$GNGGA,174758.10,4138.0529681,N,07032.4003950,W,1,24,0.6,13.407,M,-29.745,M,0.0,*54
###2023-12-09 12:47:58.951423$GPGSA,A,3,03,04,16,26,28,29,31,32,,,,,1.1,0.6,0.9*3B
###2023-12-09 12:47:58.953128$GLGSA,A,3,65,71,72,73,74,75,,,,,,,1.1,0.6,0.9*24
###2023-12-09 12:47:58.954719$GAGSA,A,3,04,19,21,27,,,,,,,,,1.1,0.6,0.9*26
###2023-12-09 12:47:58.956362$GBGSA,A,3,14,24,25,26,33,,,,,,,,1.1,0.6,0.9*2F
###2023-12-09 12:47:58.958695$GPGSV,2,1,08,03,37,269,45,04,27,311,44,16,43,209,45,26,73,208,48*77
###2023-12-09 12:47:58.961017$GPGSV,2,2,08,28,53,064,44,29,26,067,40,31,71,021,47,32,24,137,44*73
###2023-12-09 12:47:58.963379$GLGSV,2,1,06,65,17,329,44,71,49,171,48,72,70,294,46,73,42,037,44*64
###2023-12-09 12:47:58.965118$GLGSV,2,2,06,74,71,314,43,75,27,246,45,,,,,,,,*61
###2023-12-09 12:47:58.967449$GAGSV,1,1,04,04,24,312,44,19,84,276,41,21,82,165,47,27,38,049,42*61
###2023-12-09 12:47:58.969758$GBGSV,2,1,05,14,50,195,45,24,78,008,49,25,36,257,46,26,31,060,43*6A
###2023-12-09 12:47:58.971209$GBGSV,2,2,05,33,61,243,47,,,,,,,,,,,,*5F
###2023-12-09 12:47:58.972785$GNVTG,321.46,T,,M,0.91,N,1.69,K,A*27
###2023-12-09 12:47:58.974433$GNGST,174758.10,18.000,,,,0.075,0.068,0.160*5C
###2023-12-09 12:47:58.975745$GNZDA,174758.10,09,12,2023,00,00*78
###2023-12-09 12:47:58.976389$GNEBP,,,,,,M*13
###2023-12-09 12:47:59.146375$GNGGA,174758.30,4138.0529925,N,07032.4004263,W,1,24,0.6,13.421,M,-29.745,M,0.0,*5F
###2023-12-09 12:47:59.346989$GNGGA,174758.50,4138.0529979,N,07032.4004271,W,1,24,0.6,13.443,M,-29.745,M,0.0,*57
###2023-12-09 12:47:59.547823$GNGGA,174758.70,4138.0530051,N,07032.4004335,W,1,24,0.6,13.431,M,-29.745,M,0.0,*5A
###2023-12-09 12:47:59.746275$GNGGA,174758.90,4138.0530309,N,07032.4004610,W,1,24,0.6,13.419,M,-29.745,M,0.0,*52
###2023-12-09 12:47:59.950420$GNRMC,174759.10,A,4138.0530677,N,07032.4005008,W,0.84,321.46,091223,,,A*5E
