###2023-12-09 12:52:16.965263$GAGSA,A,3,04,19,21,27,,,,,,,,,1.1,0.6,0.9*26
###2023-12-09 12:52:16.967330$GBGSA,A,3,14,24,25,26,33,,,,,,,,1.1,0.6,0.9*2F
###2023-12-09 12:52:16.970159$GPGSV,2,1,08,03,37,267,40,04,29,311,42,16,45,210,44,26,75,209,47*73
###2023-12-09 12:52:16.973009$GPGSV,2,2,08,28,52,066,43,29,26,065,40,31,71,026,44,32,23,138,43*7E
###2023-12-09 12:52:16.975865$GLGSV,2,1,06,65,19,329,42,71,47,171,48,72,72,288,46,73,40,038,42*66
###2023-12-09 12:52:16.977990$GLGSV,2,2,06,74,71,321,43,75,28,248,45,,,,,,,,*66
###2023-12-09 12:52:16.980820$GAGSV,1,1,04,04,26,312,40,19,85,252,39,21,84,154,45,27,36,048,42*66
###2023-12-09 12:52:16.983662$GBGSV,2,1,05,14,48,194,45,24,77,014,48,25,37,258,46,26,29,060,43*66
###2023-12-09 12:52:16.985420$GBGSV,2,2,05,33,60,240,48,,,,,,,,,,,,*52
###2023-12-09 12:52:16.987029$GNVTG,318.50,T,,M,0.54,N,1.01,K,A*2D
###2023-12-09 12:52:16.989017$GNGST,175216.10,18.000,,,,0.075,0.067,0.160*5D
###2023-12-09 12:52:16.990610$GNZDA,175216.10,09,12,2023,00,00*76
###2023-12-09 12:52:16.991396$GNEBP,,,,,,M*13
###2023-12-09 12:52:17.153438$GNGGA,175216.30,4138.0620086,N,07032.3852983,W,1,24,0.6,13.204,M,-29.744,M,0.0,*52
###2023-12-09 12:52:17.354413$GNGGA,175216.50,4138.0620293,N,07032.3853278,W,1,24,0.6,13.206,M,-29.744,M,0.0,*5E
###2023-12-09 12:52:17.553975$GNGGA,175216.70,4138.0620348,N,07032.3853345,W,1,24,0.6,13.211,M,-29.744,M,0.0,*52
###2023-12-09 12:52:17.754304$GNGGA,175216.90,4138.0620333,N,07032.3853343,W,1,24,0.6,13.204,M,-29.744,M,0.0,*52
###2023-12-09 12:52:17.956621$GNRMC,175217.10,A,4138.0620507,N,07032.3853608,W,0.84,318.50,091223,,,A*51
###2023-12-09 12:52:17.960173$GNGGA,175217.10,4138.0620507,N,07032.3853608,W,1,24,0.6,13.207,M,-29.744,M,0.0,*53
###2023-12-09 12:52:17.962431$GPGSA,A,3,03,04,16,26,28,29,31,32,,,,,1.1,0.6,0.9*3B
###2023-12-09 12:52:17.964536$GLGSA,A,3,65,71,72,73,74,75,,,,,,,1.1,0.6,0.9*24
###2023-12-09 12:52:17.966459$GAGSA,A,3,04,19,21,27,,,,,,,,,1.1,0.6,0.9*26
###2023-12-09 12:52:17.968479$GBGSA,A,3,14,24,25,26,33,,,,,,,,1.1,0.6,0.9*2F
###2023-12-09 12:52:17.971320$GPGSV,2,1,08,03,37,267,42,04,29,311,42,16,45,210,45,26,75,209,47*70
###2023-12-09 12:52:17.974141$GPGSV,2,2,08,28,52,066,44,29,26,065,39,31,71,026,46,32,23,138,44*72
###2023-12-09 12:52:17.976987$GLGSV,2,1,06,65,19,329,42,71,47,171,48,72,72,288,46,73,40,038,41*65
###2023-12-09 12:52:17.979117$GLGSV,2,2,06,74,71,321,43,75,28,248,46,,,,,,,,*65
###2023-12-09 12:52:17.981934$GAGSV,1,1,04,04,26,312,40,19,85,252,40,21,84,154,46,27,36,048,42*6B
###2023-12-09 12:52:17.984776$GBGSV,2,1,05,14,48,194,45,24,77,014,47,25,37,258,43,26,29,060,42*6D
###2023-12-09 12:52:17.986542$GBGSV,2,2,05,33,60,240,46,,,,,,,,,,,,*5C
###2023-12-09 12:52:17.988153$GNVTG,318.50,T,,M,0.84,N,1.55,K,A*21
###2023-12-09 12:52:17.990166$GNGST,175217.10,18.000,,,,0.076,0.067,0.160*5F
###2023-12-09 12:52:17.991749$GNZDA,175217.10,09,12,2023,00,00*77
###2023-12-09 12:52:17.992529$GNEBP,,,,,,M*13
###2023-12-09 12:52:18.156960$GNGGA,175217.30,4138.0620851,N,07032.3854126,W,1,24,0.6,13.211,M,-29.744,M,0.0,*54
###2023-12-09 12:52:18.356151$GNGGA,175217.50,4138.0621045,N,07032.3854381,W,1,24,0.6,13.207,M,-29.744,M,0.0,*56
###2023-12-09 12:52:18.554330$GNGGA,175217.70,4138.0621013,N,07032.3854330,W,1,24,0.6,13.207,M,-29.744,M,0.0,*5D
###2023-12-09 12:52:18.756541$GNGGA,175217.90,4138.0620975,N,07032.3854328,W,1,24,0.6,13.185,M,-29.744,M,0.0,*5B
###2023-12-09 12:52:18.954937$GNRMC,175218.10,A,4138.0621234,N,07032.3854695,W,1.07,313.91,091223,,,A*57
###2023-12-09 12:52:18.957820$GNGGA,175218.10,4138.0621234,N,07032.3854695,W,1,24,0.6,13.189,M,-29.744,M,0.0,*5C
###2023-12-09 12:52:18.959706$GPGSA,A,3,03,04,16,26,28,29,31,32,,,,,1.1,0.6,0.9*3B
###2023-12-09 12:52:18.961426$GLGSA,A,3,65,71,72,73,74,75,,,,,,,1.1,0.6,0.9*24
###2023-12-09 12:52:18.963071$GAGSA,A,3,04,19,21,27,,,,,,,,,1.1,0.6,0.9*26
###2023-12-09 12:52:18.964730$GBGSA,A,3,14,24,25,26,33,,,,,,,,1.1,0.6,0.9*2F
###2023-12-09 12:52:18.967081$GPGSV,2,1,08,03,37,267,41,04,29,311,41,16,45,210,46,26,75,209,47*73
###2023-12-09 12:52:18.969420$GPGSV,2,2,08,28,52,066,44,29,26,065,40,31,71,026,46,32,23,138,44*7C
###2023-12-09 12:52:18.971774$GLGSV,2,1,06,65,19,329,41,71,47,171,49,72,72,288,46,73,40,038,41*67
###2023-12-09 12:52:18.973539$GLGSV,2,2,06,74,71,321,42,75,28,248,46,,,,,,,,*64
###2023-12-09 12:52:18.975911$GAGSV,1,1,04,04,26,312,40,19,85,252,40,21,84,154,46,27,36,048,42*6B
###2023-12-09 12:52:18.978249$GBGSV,2,1,05,14,48,194,45,24,77,014,47,25,37,258,44,26,29,060,42*6A
###2023-12-09 12:52:18.979714$GBGSV,2,2,05,33,60,240,47,,,,,,,,,,,,*5D
###2023-12-09 12:52:18.981042$GNVTG,313.91,T,,M,1.07,N,1.98,K,A*2C
###2023-12-09 12:52:18.982698$GNGST,175218.10,18.000,,,,0.076,0.068,0.160*5F
###2023-12-09 12:52:18.983996$GNZDA,175218.10,09,12,2023,00,00*78
###2023-12-09 12:52:18.984632$GNEBP,,,,,,M*13
###2023-12-09 12:52:19.153645$GNGGA,175218.30,4138.0621622,N,07032.3855305,W,1,24,0.6,13.193,M,-29.744,M,0.0,*5B
###2023-12-09 12:52:19.355583$GNGGA,175218.50,4138.0621757,N,07032.3855501,W,1,24,0.6,13.201,M,-29.744,M,0.0,*54
###2023-12-09 12:52:19.554436$GNGGA,175218.70,4138.0621623,N,07032.3855316,W,1,24,0.6,13.193,M,-29.744,M,0.0,*5C
###2023-12-09 12:52:19.753337$GNGGA,175218.90,4138.0621564,N,07032.3855318,W,1,24,0.6,13.150,M,-29.744,M,0.0,*53
###2023-12-09 12:52:19.955365$GNRMC,175219.10,A,4138.0621965,N,07032.3855892,W,1.40,310.98,091223,,,A*58
###2023-12-09 12:52:19.958256$GNGGA,175219.10,4138.0621965,N,07032.3855892,W,1,24,0.6,13.161,M,-29.744,M,0.0,*5C
###2023-12-09 12:52:19.960142$GPGSA,A,3,03,04,16,26,28,29,31,32,,,,,1.1,0.6,0.9*3B
###2023-12-09 12:52:19.961862$GLGSA,A,3,65,71,72,73,74,75,,,,,,,1.1,0.6,0.9*24
###2023-12-09 12:52:19.963462$GAGSA,A,3,04,19,21,27,,,,,,,,,1.1,0.6,0.9*26
###2023-12-09 12:52:19.965112$GBGSA,A,3,14,24,25,26,33,,,,,,,,1.1,0.6,0.9*2F
###2023-12-09 12:52:19.967455$GPGSV,2,1,08,03,37,267,42,04,29,311,42,16,45,210,47,26,75,209,49*7C
###2023-12-09 12:52:19.969792$GPGSV,2,2,08,28,52,066,45,29,26,065,42,31,71,026,47,32,23,138,45*7F
###2023-12-09 12:52:19.972143$GLGSV,2,1,06,65,19,329,43,71,47,171,48,72,72,288,46,73,40,038,41*64
###2023-12-09 12:52:19.973933$GLGSV,2,2,06,74,71,321,42,75,28,248,45,,,,,,,,*67
###2023-12-09 12:52:19.976280$GAGSV,1,1,04,04,26,312,42,19,85,252,40,21,84,154,46,27,36,048,42*69
###2023-12-09 12:52:19.978629$GBGSV,2,1,05,14,48,194,46,24,77,014,48,25,37,258,46,26,29,060,44*62
###2023-12-09 12:52:19.980086$GBGSV,2,2,05,33,60,240,47,,,,,,,,,,,,*5D
###2023-12-09 12:52:19.981411$GNVTG,310.98,T,,M,1.40,N,2.59,K,A*2B
###2023-12-09 12:52:19.983102$GNGST,175219.10,18.000,,,,0.077,0.068,0.160*5F
###2023-12-09 12:52:19.984398$GNZDA,175219.10,09,12,2023,00,00*79
###2023-12-09 12:52:19.985036$GNEBP,,,,,,M*13
###2023-12-09 12:52:20.154348$GNGGA,175219.30,4138.0622370,N,07032.3856540,W,1,23,0.7,13.151,M,-29.744,M,0.0,*57
###2023-12-09 12:52:20.353567$GNGGA,175219.50,4138.0622358,N,07032.3856527,W,1,24,0.6,13.173,M,-29.744,M,0.0,*5C
###2023-12-09 12:52:20.553657$GNGGA,175219.70,4138.0622206,N,07032.3856274,W,1,24,0.6,13.164,M,-29.744,M,0.0,*53
###2023-12-09 12:52:20.753285$GNGGA,175219.90,4138.0622303,N,07032.3856431,W,1,24,0.6,13.129,M,-29.744,M,0.0,*57
###2023-12-09 12:52:20.958407$GNRMC,175220.10,A,4138.0622722,N,07032.3857072,W,1.30,308.87,091223,,,A*58
###2023-12-09 12:52:20.961301$GNGGA,175220.10,4138.0622722,N,07032.3857072,W,1,24,0.6,13.125,M,-29.744,M,0.0,*5C
###2023-12-09 12:52:20.963186$GPGSA,A,3,03,04,16,26,28,29,31,32,,,,,1.1,0.6,0.9*3B
###2023-12-09 12:52:20.964908$GLGSA,A,3,65,71,72,73,74,75,,,,,,,1.1,0.6,0.9*24
###2023-12-09 12:52:20.966499$GAGSA,A,3,04,19,21,27,,,,,,,,,1.1,0.6,0.9*26
###2023-12-09 12:52:20.968163$GBGSA,A,3,14,24,25,26,33,,,,,,,,1.1,0.6,0.9*2F
###2023-12-09 12:52:20.970494$GPGSV,2,1,08,03,37,267,42,04,29,311,43,16,45,210,46,26,75,209,49*7C
###2023-12-09 12:52:20.972863$GPGSV,2,2,08,28,52,066,44,29,26,065,41,31,71,026,47,32,23,138,44*7C
###2023-12-09 12:52:20.975218$GLGSV,2,1,06,65,19,329,44,71,47,171,48,72,72,288,47,73,40,038,42*61
###2023-12-09 12:52:20.976973$GLGSV,2,2,06,74,71,321,43,75,28,248,46,,,,,,,,*65
###2023-12-09 12:52:20.979357$GAGSV,1,1,04,04,26,312,43,19,85,252,40,21,84,154,46,27,36,048,42*68
###2023-12-09 12:52:20.981939$GBGSV,2,1,05,14,48,194,45,24,77,014,47,25,37,258,44,26,29,060,43*6B
###2023-12-09 12:52:20.983430$GBGSV,2,2,05,33,60,240,47,,,,,,,,,,,,*5D
###2023-12-09 12:52:20.984768$GNVTG,308.87,T,,M,1.30,N,2.41,K,A*22
###2023-12-09 12:52:20.986423$GNGST,175220.10,18.000,,,,0.078,0.068,0.160*5A
###2023-12-09 12:52:20.987733$GNZDA,175220.10,09,12,2023,00,00*73
###2023-12-09 12:52:20.988375$GNEBP,,,,,,M*13
###2023-12-09 12:52:21.155465$GNGGA,175220.30,4138.0622973,N,07032.3857548,W,1,24,0.6,13.105,M,-29.744,M,0.0,*5A
###2023-12-09 12:52:21.355408$GNGGA,175220.50,4138.0622895,N,07032.3857428,W,1,24,0.6,13.146,M,-29.744,M,0.0,*55
###2023-12-09 12:52:21.554959$GNGGA,175220.70,4138.0622845,N,07032.3857283,W,1,24,0.6,13.148,M,-29.744,M,0.0,*53
