###2023-12-09 13:30:03.389992$GNGGA,183002.50,4138.0374328,N,07032.4289573,W,1,21,1.0,13.088,M,-29.746,M,0.0,*57
###2023-12-09 13:30:03.596299$GNGGA,183002.70,4138.0373462,N,07032.4288831,W,1,21,1.0,13.080,M,-29.746,M,0.0,*59
###2023-12-09 13:30:03.794664$GNGGA,183002.90,4138.0372666,N,07032.4288119,W,1,21,1.0,13.090,M,-29.746,M,0.0,*52
###2023-12-09 13:30:03.994053$GNRMC,183003.10,A,4138.0371517,N,07032.4287792,W,2.16,171.14,091223,,,A*5D
###2023-12-09 13:30:03.997549$GNGGA,183003.10,4138.0371517,N,07032.4287792,W,1,21,1.0,13.097,M,-29.746,M,0.0,*50
###2023-12-09 13:30:03.999755$GPGSA,A,3,03,04,16,26,28,29,31,,,,,,1.6,1.0,1.3*31
###2023-12-09 13:30:04.001770$GLGSA,A,3,65,72,73,74,75,,,,,,,,1.6,1.0,1.3*29
###2023-12-09 13:30:04.003719$GAGSA,A,3,04,19,21,27,,,,,,,,,1.6,1.0,1.3*2D
###2023-12-09 13:30:04.005722$GBGSA,A,3,24,25,26,33,35,,,,,,,,1.6,1.0,1.3*27
###2023-12-09 13:30:04.008560$GPGSV,2,1,07,03,28,248,43,04,44,309,44,16,64,220,47,26,86,041,48*76
###2023-12-09 13:30:04.011038$GPGSV,2,2,07,28,39,083,45,29,21,049,43,31,61,063,47,,,,*45
###2023-12-09 13:30:04.013859$GLGSV,2,1,05,65,36,321,43,72,65,225,46,73,24,050,45,74,61,010,43*67
###2023-12-09 13:30:04.015642$GLGSV,2,2,05,75,42,268,42,,,,,,,,,,,,*5E
###2023-12-09 13:30:04.018442$GAGSV,1,1,04,04,38,310,43,19,74,182,40,21,78,048,47,27,24,050,43*60
###2023-12-09 13:30:04.021278$GBGSV,2,1,05,24,64,043,48,25,49,274,47,26,17,069,44,33,48,219,45*60
###2023-12-09 13:30:04.023053$GBGSV,2,2,05,35,16,058,45,,,,,,,,,,,,*53
###2023-12-09 13:30:04.024686$GNVTG,171.14,T,,M,2.16,N,4.00,K,A*20
###2023-12-09 13:30:04.026654$GNGST,183003.10,5.200,,,,0.140,0.085,0.210*63
###2023-12-09 13:30:04.028222$GNZDA,183003.10,09,12,2023,00,00*79
###2023-12-09 13:30:04.028996$GNEBP,,,,,,M*13
###2023-12-09 13:30:04.189105$GNGGA,183003.30,4138.0370446,N,07032.4287404,W,1,21,0.9,13.083,M,-29.746,M,0.0,*57
###2023-12-09 13:30:04.389163$GNGGA,183003.50,4138.0369659,N,07032.4286669,W,1,21,0.9,13.093,M,-29.746,M,0.0,*5C
###2023-12-09 13:30:04.588116$GNGGA,183003.70,4138.0368862,N,07032.4285778,W,1,21,0.9,13.088,M,-29.746,M,0.0,*51
###2023-12-09 13:30:04.787156$GNGGA,183003.90,4138.0367997,N,07032.4285068,W,1,21,0.9,13.091,M,-29.746,M,0.0,*55
###2023-12-09 13:30:04.991303$GNRMC,183004.10,A,4138.0367053,N,07032.4284497,W,2.00,157.40,091223,,,A*5F
###2023-12-09 13:30:04.994788$GNGGA,183004.10,4138.0367053,N,07032.4284497,W,1,21,0.9,13.094,M,-29.746,M,0.0,*5B
###2023-12-09 13:30:04.996954$GPGSA,A,3,03,04,16,26,28,29,31,,,,,,1.4,0.9,1.1*39
###2023-12-09 13:30:04.998966$GLGSA,A,3,65,72,73,74,75,,,,,,,,1.4,0.9,1.1*21
###2023-12-09 13:30:05.000872$GAGSA,A,3,04,19,21,27,,,,,,,,,1.4,0.9,1.1*25
###2023-12-09 13:30:05.002879$GBGSA,A,3,24,25,26,33,35,,,,,,,,1.4,0.9,1.1*2F
###2023-12-09 13:30:05.005691$GPGSV,2,1,07,03,28,248,43,04,44,309,44,16,64,220,47,26,86,041,48*76
###2023-12-09 13:30:05.008178$GPGSV,2,2,07,28,39,083,45,29,21,049,45,31,61,063,47,,,,*43
###2023-12-09 13:30:05.011009$GLGSV,2,1,05,65,36,321,44,72,65,225,46,73,24,050,45,74,61,010,42*61
###2023-12-09 13:30:05.012774$GLGSV,2,2,05,75,42,268,47,,,,,,,,,,,,*5B
###2023-12-09 13:30:05.015625$GAGSV,1,1,04,04,38,310,43,19,74,182,41,21,78,048,46,27,24,050,43*60
###2023-12-09 13:30:05.018437$GBGSV,2,1,05,24,64,043,48,25,49,274,46,26,17,069,44,33,48,219,45*61
###2023-12-09 13:30:05.020208$GBGSV,2,2,05,35,16,058,44,,,,,,,,,,,,*52
###2023-12-09 13:30:05.021807$GNVTG,157.40,T,,M,2.00,N,3.71,K,A*23
###2023-12-09 13:30:05.023764$GNGST,183004.10,5.700,,,,0.140,0.086,0.210*62
###2023-12-09 13:30:05.025324$GNZDA,183004.10,09,12,2023,00,00*7E
###2023-12-09 13:30:05.026093$GNEBP,,,,,,M*13
###2023-12-09 13:30:05.187059$GNGGA,183004.30,4138.0366184,N,07032.4283809,W,1,21,0.9,13.095,M,-29.746,M,0.0,*5E
###2023-12-09 13:30:05.386311$GNGGA,183004.50,4138.0365523,N,07032.4282944,W,1,22,0.8,13.098,M,-29.746,M,0.0,*54
###2023-12-09 13:30:05.587986$GNGGA,183004.70,4138.0364932,N,07032.4282141,W,1,22,0.8,13.106,M,-29.746,M,0.0,*50
###2023-12-09 13:30:05.787308$GNGGA,183004.90,4138.0364193,N,07032.4281345,W,1,22,0.8,13.103,M,-29.746,M,0.0,*5D
###2023-12-09 13:30:05.990017$GNRMC,183005.10,A,4138.0363449,N,07032.4280605,W,1.61,146.40,091223,,,A*5C
###2023-12-09 13:30:05.992924$GNGGA,183005.10,4138.0363449,N,07032.4280605,W,1,21,0.9,13.096,M,-29.746,M,0.0,*5E
###2023-12-09 13:30:05.994731$GPGSA,A,3,03,04,16,26,28,29,31,,,,,,1.4,0.9,1.1*39
###2023-12-09 13:30:05.996376$GLGSA,A,3,65,72,73,74,75,,,,,,,,1.4,0.9,1.1*21
###2023-12-09 13:30:05.997956$GAGSA,A,3,04,19,21,27,,,,,,,,,1.4,0.9,1.1*25
###2023-12-09 13:30:05.999618$GBGSA,A,3,24,25,26,33,35,,,,,,,,1.4,0.9,1.1*2F
###2023-12-09 13:30:06.001949$GPGSV,2,1,07,03,28,248,40,04,44,309,44,16,64,220,46,26,86,041,48*74
###2023-12-09 13:30:06.004041$GPGSV,2,2,07,28,39,083,45,29,21,049,43,31,61,063,46,,,,*44
###2023-12-09 13:30:06.006375$GLGSV,2,1,05,65,36,321,45,72,65,225,48,73,24,050,44,74,61,010,43*6E
###2023-12-09 13:30:06.007846$GLGSV,2,2,05,75,42,268,45,,,,,,,,,,,,*59
###2023-12-09 13:30:06.010175$GAGSV,1,1,04,04,38,310,44,19,74,182,41,21,78,048,46,27,24,050,43*67
###2023-12-09 13:30:06.012521$GBGSV,2,1,05,24,64,043,48,25,49,274,46,26,17,069,43,33,48,219,43*60
###2023-12-09 13:30:06.013975$GBGSV,2,2,05,35,16,058,44,,,,,,,,,,,,*52
###2023-12-09 13:30:06.015307$GNVTG,146.40,T,,M,1.61,N,2.99,K,A*20
###2023-12-09 13:30:06.016917$GNGST,183005.10,4.700,,,,0.140,0.087,0.210*63
###2023-12-09 13:30:06.018206$GNZDA,183005.10,09,12,2023,00,00*7F
###2023-12-09 13:30:06.018855$GNEBP,,,,,,M*13
###2023-12-09 13:30:06.190420$GNGGA,183005.30,4138.0362751,N,07032.4279912,W,1,21,0.9,13.109,M,-29.746,M,0.0,*5F
###2023-12-09 13:30:06.387345$GNGGA,183005.50,4138.0362153,N,07032.4279114,W,1,21,0.9,13.108,M,-29.746,M,0.0,*52
###2023-12-09 13:30:06.588092$GNGGA,183005.70,4138.0361661,N,07032.4278250,W,1,21,0.9,13.106,M,-29.746,M,0.0,*59
###2023-12-09 13:30:06.788912$GNGGA,183005.90,4138.0361118,N,07032.4277587,W,1,20,0.9,13.114,M,-29.746,M,0.0,*5E
###2023-12-09 13:30:06.991436$GNRMC,183006.10,A,4138.0360395,N,07032.4276874,W,1.87,140.65,091223,,,A*52
###2023-12-09 13:30:06.994888$GNGGA,183006.10,4138.0360395,N,07032.4276874,W,1,21,0.9,13.120,M,-29.746,M,0.0,*55
###2023-12-09 13:30:06.997054$GPGSA,A,3,03,04,16,26,28,29,31,,,,,,1.4,0.9,1.1*39
###2023-12-09 13:30:06.999058$GLGSA,A,3,65,72,73,74,75,,,,,,,,1.4,0.9,1.1*21
###2023-12-09 13:30:07.001001$GAGSA,A,3,04,19,21,27,,,,,,,,,1.4,0.9,1.1*25
###2023-12-09 13:30:07.003008$GBGSA,A,3,24,25,26,33,35,,,,,,,,1.4,0.9,1.1*2F
###2023-12-09 13:30:07.005827$GPGSV,2,1,07,03,28,248,41,04,44,309,44,16,64,220,47,26,86,041,48*74
###2023-12-09 13:30:07.008320$GPGSV,2,2,07,28,39,083,44,29,21,049,46,31,61,063,46,,,,*40
###2023-12-09 13:30:07.011153$GLGSV,2,1,05,65,36,321,44,72,65,225,47,73,24,050,45,74,61,010,41*63
###2023-12-09 13:30:07.012912$GLGSV,2,2,05,75,42,268,47,,,,,,,,,,,,*5B
###2023-12-09 13:30:07.015731$GAGSV,1,1,04,04,38,310,44,19,74,182,41,21,78,048,47,27,24,050,43*66
###2023-12-09 13:30:07.018539$GBGSV,2,1,05,24,64,043,48,25,49,274,46,26,17,069,44,33,48,219,43*67
###2023-12-09 13:30:07.020308$GBGSV,2,2,05,35,16,058,45,,,,,,,,,,,,*53
###2023-12-09 13:30:07.021900$GNVTG,140.65,T,,M,1.87,N,3.46,K,A*2A
###2023-12-09 13:30:07.023878$GNGST,183006.10,4.600,,,,0.150,0.088,0.220*6C
###2023-12-09 13:30:07.025431$GNZDA,183006.10,09,12,2023,00,00*7C
###2023-12-09 13:30:07.026205$GNEBP,,,,,,M*13
###2023-12-09 13:30:07.189081$GNGGA,183006.30,4138.0359804,N,07032.4275972,W,1,21,0.9,13.116,M,-29.746,M,0.0,*5F
###2023-12-09 13:30:07.388570$GNGGA,183006.50,4138.0359375,N,07032.4274995,W,1,21,0.9,13.118,M,-29.746,M,0.0,*52
###2023-12-09 13:30:07.589031$GNGGA,183006.70,4138.0358736,N,07032.4274008,W,1,22,0.7,13.122,M,-29.746,M,0.0,*5B
###2023-12-09 13:30:07.789175$GNGGA,183006.90,4138.0358034,N,07032.4273042,W,1,20,0.9,13.117,M,-29.746,M,0.0,*53
###2023-12-09 13:30:07.991191$GNRMC,183007.10,A,4138.0357435,N,07032.4272072,W,1.56,127.62,091223,,,A*5A
###2023-12-09 13:30:07.994069$GNGGA,183007.10,4138.0357435,N,07032.4272072,W,1,21,0.9,13.126,M,-29.746,M,0.0,*51
###2023-12-09 13:30:07.995872$GPGSA,A,3,03,04,16,26,28,29,31,,,,,,1.4,0.9,1.1*39
###2023-12-09 13:30:07.997513$GLGSA,A,3,65,72,73,74,75,,,,,,,,1.4,0.9,1.1*21
###2023-12-09 13:30:07.999344$GAGSA,A,3,04,19,21,27,,,,,,,,,1.4,0.9,1.1*25
###2023-12-09 13:30:08.000996$GBGSA,A,3,24,25,26,33,35,,,,,,,,1.4,0.9,1.1*2F
###2023-12-09 13:30:08.003336$GPGSV,2,1,07,03,28,248,38,04,44,309,43,16,64,220,46,26,86,041,48*7C
###2023-12-09 13:30:08.005368$GPGSV,2,2,07,28,39,083,45,29,21,049,44,31,61,063,46,,,,*43
###2023-12-09 13:30:08.007699$GLGSV,2,1,05,65,36,321,44,72,65,225,46,73,24,050,44,74,61,010,42*60
###2023-12-09 13:30:08.009141$GLGSV,2,2,05,75,42,268,48,,,,,,,,,,,,*54
###2023-12-09 13:30:08.011456$GAGSV,1,1,04,04,38,310,44,19,74,182,41,21,78,048,46,27,24,050,41*65
###2023-12-09 13:30:08.013780$GBGSV,2,1,05,24,64,043,48,25,49,274,46,26,17,069,45,33,48,219,40*65
###2023-12-09 13:30:08.015240$GBGSV,2,2,05,35,16,058,45,,,,,,,,,,,,*53
