###2023-12-09 12:48:32.972208$GLGSV,2,1,06,65,17,329,41,71,49,171,48,72,70,294,47,73,42,037,45*61
###2023-12-09 12:48:32.973975$GLGSV,2,2,06,74,71,314,43,75,27,246,43,,,,,,,,*67
###2023-12-09 12:48:32.976323$GAGSV,1,1,04,04,25,312,40,19,85,269,41,21,83,162,46,27,37,048,43*63
###2023-12-09 12:48:32.978670$GBGSV,2,1,05,14,50,195,47,24,78,008,49,25,36,257,47,26,31,060,43*69
###2023-12-09 12:48:32.980127$GBGSV,2,2,05,33,61,243,48,,,,,,,,,,,,*50
###2023-12-09 12:48:32.981416$GNVTG,75.69,T,,M,2.45,N,4.54,K,A*18
###2023-12-09 12:48:32.983073$GNGST,174832.10,18.000,,,,0.078,0.069,0.160*53
###2023-12-09 12:48:32.984365$GNZDA,174832.10,09,12,2023,00,00*7B
###2023-12-09 12:48:32.985003$GNEBP,,,,,,M*13
###2023-12-09 12:48:33.148365$GNGGA,174832.30,4138.0570488,N,07032.3961085,W,1,24,0.6,13.485,M,-29.744,M,0.0,*52
###2023-12-09 12:48:33.347103$GNGGA,174832.50,4138.0570779,N,07032.3959294,W,1,24,0.6,13.491,M,-29.744,M,0.0,*55
###2023-12-09 12:48:33.547204$GNGGA,174832.70,4138.0570980,N,07032.3957557,W,1,24,0.6,13.477,M,-29.744,M,0.0,*51
###2023-12-09 12:48:33.747966$GNGGA,174832.90,4138.0571191,N,07032.3956044,W,1,24,0.6,13.482,M,-29.744,M,0.0,*5A
###2023-12-09 12:48:33.953314$GNRMC,174833.10,A,4138.0571521,N,07032.3954448,W,2.39,75.91,091223,,,A*6E
###2023-12-09 12:48:33.956213$GNGGA,174833.10,4138.0571521,N,07032.3954448,W,1,24,0.6,13.498,M,-29.744,M,0.0,*5D
###2023-12-09 12:48:33.958068$GPGSA,A,3,03,04,16,26,28,29,31,32,,,,,1.1,0.6,0.9*3B
###2023-12-09 12:48:33.959791$GLGSA,A,3,65,71,72,73,74,75,,,,,,,1.1,0.6,0.9*24
###2023-12-09 12:48:33.961371$GAGSA,A,3,04,19,21,27,,,,,,,,,1.1,0.6,0.9*26
###2023-12-09 12:48:33.963020$GBGSA,A,3,14,24,25,26,33,,,,,,,,1.1,0.6,0.9*2F
###2023-12-09 12:48:33.965342$GPGSV,2,1,08,03,37,269,46,04,27,311,41,16,43,209,46,26,73,208,48*72
###2023-12-09 12:48:33.967688$GPGSV,2,2,08,28,53,064,44,29,26,067,41,31,71,021,47,32,24,137,42*74
###2023-12-09 12:48:33.970019$GLGSV,2,1,06,65,17,329,40,71,49,171,48,72,70,294,47,73,42,037,46*63
###2023-12-09 12:48:33.971773$GLGSV,2,2,06,74,71,314,43,75,27,246,45,,,,,,,,*61
###2023-12-09 12:48:33.974095$GAGSV,1,1,04,04,25,312,41,19,85,269,41,21,83,162,46,27,37,048,42*63
###2023-12-09 12:48:33.976435$GBGSV,2,1,05,14,50,195,47,24,78,008,49,25,36,257,47,26,31,060,42*68
###2023-12-09 12:48:33.977886$GBGSV,2,2,05,33,61,243,48,,,,,,,,,,,,*50
###2023-12-09 12:48:33.979195$GNVTG,75.91,T,,M,2.39,N,4.43,K,A*12
###2023-12-09 12:48:33.980839$GNGST,174833.10,18.000,,,,0.077,0.069,0.160*5D
###2023-12-09 12:48:33.982131$GNZDA,174833.10,09,12,2023,00,00*7A
###2023-12-09 12:48:33.982778$GNEBP,,,,,,M*13
###2023-12-09 12:48:34.146553$GNGGA,174833.30,4138.0571768,N,07032.3952843,W,1,24,0.6,13.480,M,-29.744,M,0.0,*58
###2023-12-09 12:48:34.347080$GNGGA,174833.50,4138.0571979,N,07032.3951486,W,1,24,0.6,13.474,M,-29.744,M,0.0,*5D
###2023-12-09 12:48:34.547775$GNGGA,174833.70,4138.0572320,N,07032.3950101,W,1,24,0.6,13.490,M,-29.744,M,0.0,*5B
###2023-12-09 12:48:34.751548$GNGGA,174833.90,4138.0572589,N,07032.3948647,W,1,24,0.6,13.481,M,-29.744,M,0.0,*5C
###2023-12-09 12:48:34.947450$GNRMC,174834.10,A,4138.0572789,N,07032.3947366,W,1.69,75.41,091223,,,A*68
###2023-12-09 12:48:34.950303$GNGGA,174834.10,4138.0572789,N,07032.3947366,W,1,24,0.6,13.466,M,-29.744,M,0.0,*51
###2023-12-09 12:48:34.952175$GPGSA,A,3,03,04,16,26,28,29,31,32,,,,,1.1,0.6,0.9*3B
###2023-12-09 12:48:34.953898$GLGSA,A,3,65,71,72,73,74,75,,,,,,,1.1,0.6,0.9*24
###2023-12-09 12:48:34.955509$GAGSA,A,3,04,19,21,27,,,,,,,,,1.1,0.6,0.9*26
###2023-12-09 12:48:34.957162$GBGSA,A,3,14,24,25,26,33,,,,,,,,1.1,0.6,0.9*2F
###2023-12-09 12:48:34.959508$GPGSV,2,1,08,03,37,269,45,04,27,311,40,16,43,209,46,26,73,208,47*7F
###2023-12-09 12:48:34.961840$GPGSV,2,2,08,28,53,064,44,29,26,067,39,31,71,021,46,32,24,137,42*7A
###2023-12-09 12:48:34.964178$GLGSV,2,1,06,65,17,329,41,71,49,171,48,72,70,294,47,73,42,037,46*62
###2023-12-09 12:48:34.965921$GLGSV,2,2,06,74,71,314,43,75,27,246,44,,,,,,,,*60
###2023-12-09 12:48:34.968267$GAGSV,1,1,04,04,25,312,39,19,85,269,40,21,83,162,46,27,37,048,42*6D
###2023-12-09 12:48:34.970607$GBGSV,2,1,05,14,49,195,47,24,78,008,49,25,36,257,47,26,31,060,44*66
###2023-12-09 12:48:34.972064$GBGSV,2,2,05,33,61,243,48,,,,,,,,,,,,*50
###2023-12-09 12:48:34.973349$GNVTG,75.41,T,,M,1.69,N,3.13,K,A*1B
###2023-12-09 12:48:34.975010$GNGST,174834.10,18.000,,,,0.077,0.068,0.160*5B
###2023-12-09 12:48:34.976303$GNZDA,174834.10,09,12,2023,00,00*7D
###2023-12-09 12:48:34.976941$GNEBP,,,,,,M*13
###2023-12-09 12:48:35.146251$GNGGA,174834.30,4138.0573096,N,07032.3946153,W,1,24,0.6,13.480,M,-29.744,M,0.0,*56
###2023-12-09 12:48:35.348392$GNGGA,174834.50,4138.0573417,N,07032.3944919,W,1,24,0.6,13.482,M,-29.744,M,0.0,*5B
###2023-12-09 12:48:35.549678$GNGGA,174834.70,4138.0573606,N,07032.3943652,W,1,24,0.6,13.471,M,-29.744,M,0.0,*50
###2023-12-09 12:48:35.746956$GNGGA,174834.90,4138.0573783,N,07032.3942510,W,1,24,0.6,13.469,M,-29.744,M,0.0,*5F
###2023-12-09 12:48:35.946692$GNRMC,174835.10,A,4138.0574064,N,07032.3941456,W,1.63,66.25,091223,,,A*63
###2023-12-09 12:48:35.949569$GNGGA,174835.10,4138.0574064,N,07032.3941456,W,1,24,0.6,13.476,M,-29.744,M,0.0,*51
###2023-12-09 12:48:35.951444$GPGSA,A,3,03,04,16,26,28,29,31,32,,,,,1.1,0.6,0.9*3B
###2023-12-09 12:48:35.953157$GLGSA,A,3,65,71,72,73,74,75,,,,,,,1.1,0.6,0.9*24
###2023-12-09 12:48:35.954754$GAGSA,A,3,04,19,21,27,,,,,,,,,1.1,0.6,0.9*26
###2023-12-09 12:48:35.956396$GBGSA,A,3,14,24,25,26,33,,,,,,,,1.1,0.6,0.9*2F
###2023-12-09 12:48:35.958732$GPGSV,2,1,08,03,37,269,46,04,27,311,42,16,43,209,47,26,73,208,48*70
###2023-12-09 12:48:35.961063$GPGSV,2,2,08,28,53,064,45,29,26,067,40,31,71,021,47,32,24,137,43*75
###2023-12-09 12:48:35.963400$GLGSV,2,1,06,65,17,329,41,71,49,171,47,72,70,294,47,73,42,037,46*6D
###2023-12-09 12:48:35.965144$GLGSV,2,2,06,74,71,314,44,75,27,246,44,,,,,,,,*67
###2023-12-09 12:48:35.967486$GAGSV,1,1,04,04,25,312,40,19,85,269,41,21,83,162,46,27,37,048,44*64
###2023-12-09 12:48:35.969822$GBGSV,2,1,05,14,49,195,47,24,78,008,48,25,36,257,48,26,31,060,43*6F
###2023-12-09 12:48:35.971288$GBGSV,2,2,05,33,61,243,48,,,,,,,,,,,,*50
###2023-12-09 12:48:35.972576$GNVTG,66.25,T,,M,1.63,N,3.02,K,A*11
###2023-12-09 12:48:35.974215$GNGST,174835.10,18.000,,,,0.077,0.068,0.160*5A
###2023-12-09 12:48:35.975512$GNZDA,174835.10,09,12,2023,00,00*7C
###2023-12-09 12:48:35.976150$GNEBP,,,,,,M*13
###2023-12-09 12:48:36.146365$GNGGA,174835.30,4138.0574395,N,07032.3940280,W,1,24,0.6,13.483,M,-29.744,M,0.0,*58
###2023-12-09 12:48:36.348251$GNGGA,174835.50,4138.0574601,N,07032.3939186,W,1,24,0.6,13.465,M,-29.744,M,0.0,*55
###2023-12-09 12:48:36.547139$GNGGA,174835.70,4138.0574757,N,07032.3938249,W,1,24,0.6,13.468,M,-29.744,M,0.0,*59
###2023-12-09 12:48:36.746896$GNGGA,174835.90,4138.0575058,N,07032.3937241,W,1,24,0.6,13.481,M,-29.744,M,0.0,*5E
###2023-12-09 12:48:36.946963$GNRMC,174836.10,A,4138.0575401,N,07032.3936219,W,1.42,70.18,091223,,,A*61
###2023-12-09 12:48:36.949820$GNGGA,174836.10,4138.0575401,N,07032.3936219,W,1,24,0.6,13.472,M,-29.744,M,0.0,*5D
###2023-12-09 12:48:36.951688$GPGSA,A,3,03,04,16,26,28,29,31,32,,,,,1.1,0.6,0.9*3B
###2023-12-09 12:48:36.953398$GLGSA,A,3,65,71,72,73,74,75,,,,,,,1.1,0.6,0.9*24
###2023-12-09 12:48:36.954984$GAGSA,A,3,04,19,21,27,,,,,,,,,1.1,0.6,0.9*26
###2023-12-09 12:48:36.956621$GBGSA,A,3,14,24,25,26,33,,,,,,,,1.1,0.6,0.9*2F
###2023-12-09 12:48:36.958955$GPGSV,2,1,08,03,37,269,45,04,27,311,40,16,43,209,46,26,73,208,48*70
###2023-12-09 12:48:36.961286$GPGSV,2,2,08,28,53,064,45,29,26,067,40,31,71,021,47,32,24,137,42*74
###2023-12-09 12:48:36.963630$GLGSV,2,1,06,65,17,329,44,71,49,171,49,72,70,294,49,73,42,037,48*66
###2023-12-09 12:48:36.965375$GLGSV,2,2,06,74,71,314,44,75,27,246,45,,,,,,,,*66
###2023-12-09 12:48:36.967720$GAGSV,1,1,04,04,25,312,40,19,85,269,40,21,83,162,46,27,37,048,42*63
###2023-12-09 12:48:36.970053$GBGSV,2,1,05,14,49,195,47,24,78,008,49,25,36,257,47,26,31,060,43*61
###2023-12-09 12:48:36.971524$GBGSV,2,2,05,33,61,243,48,,,,,,,,,,,,*50
###2023-12-09 12:48:36.972812$GNVTG,70.18,T,,M,1.42,N,2.63,K,A*1D
###2023-12-09 12:48:36.974459$GNGST,174836.10,18.000,,,,0.077,0.068,0.160*59
###2023-12-09 12:48:36.976015$GNZDA,174836.10,09,12,2023,00,00*7F
###2023-12-09 12:48:36.976669$GNEBP,,,,,,M*13
###2023-12-09 12:48:37.146389$GNGGA,174836.30,4138.0575613,N,07032.3935375,W,1,24,0.6,13.465,M,-29.744,M,0.0,*50
###2023-12-09 12:48:37.347125$GNGGA,174836.50,4138.0575732,N,07032.3934494,W,1,24,0.6,13.455,M,-29.744,M,0.0,*5E
###2023-12-09 12:48:37.547803$GNGGA,174836.70,4138.0576002,N,07032.3933596,W,1,24,0.6,13.467,M,-29.744,M,0.0,*5E
###2023-12-09 12:48:37.750102$GNGGA,174836.90,4138.0576357,N,07032.3932764,W,1,24,0.6,13.465,M,-29.744,M,0.0,*5F
###2023-12-09 12:48:37.947879$GNRMC,174837.10,A,4138.0576584,N,07032.3931950,W,1.21,83.78,091223,,,A*61
###2023-12-09 12:48:37.950747$GNGGA,174837.10,4138.0576584,N,07032.3931950,W,1,24,0.6,13.460,M,-29.744,M,0.0,*51
###2023-12-09 12:48:37.952601$GPGSA,A,3,03,04,16,26,28,29,31,32,,,,,1.1,0.6,0.9*3B
