###2023-12-09 12:49:48.973619$GBGSV,2,2,05,33,61,241,48,,,,,,,,,,,,*52
###2023-12-09 12:49:48.974992$GNVTG,336.43,T,,M,0.37,N,0.68,K,A*28
###2023-12-09 12:49:48.976644$GNGST,174948.10,18.000,,,,0.077,0.067,0.160*5E
###2023-12-09 12:49:48.977936$GNZDA,174948.10,09,12,2023,00,00*77
###2023-12-09 12:49:48.978592$GNEBP,,,,,,M*13
###2023-12-09 12:49:49.147766$GNGGA,174948.30,4138.0654437,N,07032.3915693,W,1,24,0.6,13.343,M,-29.744,M,0.0,*50
###2023-12-09 12:49:49.348876$GNGGA,174948.50,4138.0654752,N,07032.3915905,W,1,24,0.6,13.343,M,-29.744,M,0.0,*56
###2023-12-09 12:49:49.547787$GNGGA,174948.70,4138.0654854,N,07032.3915962,W,1,24,0.6,13.333,M,-29.744,M,0.0,*5B
###2023-12-09 12:49:49.748806$GNGGA,174948.90,4138.0654869,N,07032.3915956,W,1,24,0.6,13.325,M,-29.744,M,0.0,*5B
###2023-12-09 12:49:49.948574$GNRMC,174949.10,A,4138.0655084,N,07032.3916085,W,0.72,336.43,091223,,,A*58
###2023-12-09 12:49:49.951457$GNGGA,174949.10,4138.0655084,N,07032.3916085,W,1,24,0.6,13.334,M,-29.744,M,0.0,*5C
###2023-12-09 12:49:49.953316$GPGSA,A,3,03,04,16,26,28,29,31,32,,,,,1.1,0.6,0.9*3B
###2023-12-09 12:49:49.955053$GLGSA,A,3,65,71,72,73,74,75,,,,,,,1.1,0.6,0.9*24
###2023-12-09 12:49:49.956640$GAGSA,A,3,04,19,21,27,,,,,,,,,1.1,0.6,0.9*26
###2023-12-09 12:49:49.958288$GBGSA,A,3,14,24,25,26,33,,,,,,,,1.1,0.6,0.9*2F
###2023-12-09 12:49:49.960640$GPGSV,2,1,08,03,37,268,44,04,28,311,42,16,44,210,46,26,74,208,47*7A
###2023-12-09 12:49:49.963002$GPGSV,2,2,08,28,53,065,44,29,26,066,40,31,71,024,46,32,23,138,44*7F
###2023-12-09 12:49:49.965347$GLGSV,2,1,06,65,18,329,43,71,48,171,49,72,71,291,47,73,41,038,45*64
###2023-12-09 12:49:49.967117$GLGSV,2,2,06,74,71,317,43,75,28,247,45,,,,,,,,*6C
###2023-12-09 12:49:49.969452$GAGSV,1,1,04,04,25,312,41,19,85,269,40,21,83,162,46,27,37,048,41*61
###2023-12-09 12:49:49.971803$GBGSV,2,1,05,14,49,195,45,24,77,011,48,25,37,257,46,26,30,060,43*64
###2023-12-09 12:49:49.973266$GBGSV,2,2,05,33,61,241,47,,,,,,,,,,,,*5D
###2023-12-09 12:49:49.974606$GNVTG,336.43,T,,M,0.72,N,1.33,K,A*26
###2023-12-09 12:49:49.976268$GNGST,174949.10,18.000,,,,0.076,0.067,0.160*5E
###2023-12-09 12:49:49.977563$GNZDA,174949.10,09,12,2023,00,00*76
###2023-12-09 12:49:49.978201$GNEBP,,,,,,M*13
###2023-12-09 12:49:50.147784$GNGGA,174949.30,4138.0655480,N,07032.3916361,W,1,24,0.6,13.343,M,-29.744,M,0.0,*57
###2023-12-09 12:49:50.348638$GNGGA,174949.50,4138.0655658,N,07032.3916529,W,1,24,0.6,13.354,M,-29.744,M,0.0,*5A
###2023-12-09 12:49:50.550028$GNGGA,174949.70,4138.0655626,N,07032.3916463,W,1,24,0.6,13.352,M,-29.744,M,0.0,*58
###2023-12-09 12:49:50.748559$GNGGA,174949.90,4138.0655711,N,07032.3916487,W,1,24,0.6,13.344,M,-29.744,M,0.0,*5E
###2023-12-09 12:49:50.948313$GNRMC,174950.10,A,4138.0656049,N,07032.3916745,W,0.87,336.43,091223,,,A*53
###2023-12-09 12:49:50.951210$GNGGA,174950.10,4138.0656049,N,07032.3916745,W,1,24,0.6,13.346,M,-29.744,M,0.0,*58
###2023-12-09 12:49:50.953070$GPGSA,A,3,03,04,16,26,28,29,31,32,,,,,1.1,0.6,0.9*3B
###2023-12-09 12:49:50.954806$GLGSA,A,3,65,71,72,73,74,75,,,,,,,1.1,0.6,0.9*24
###2023-12-09 12:49:50.956384$GAGSA,A,3,04,19,21,27,,,,,,,,,1.1,0.6,0.9*26
###2023-12-09 12:49:50.958025$GBGSA,A,3,14,24,25,26,33,,,,,,,,1.1,0.6,0.9*2F
###2023-12-09 12:49:50.960361$GPGSV,2,1,08,03,37,268,44,04,28,311,42,16,44,210,46,26,74,208,48*75
###2023-12-09 12:49:50.962702$GPGSV,2,2,08,28,53,065,44,29,26,066,41,31,71,024,46,32,23,138,44*7E
###2023-12-09 12:49:50.965021$GLGSV,2,1,06,65,18,329,43,71,48,171,48,72,71,291,46,73,41,038,45*64
###2023-12-09 12:49:50.966772$GLGSV,2,2,06,74,71,317,43,75,28,247,45,,,,,,,,*6C
###2023-12-09 12:49:50.969081$GAGSV,1,1,04,04,25,312,40,19,85,269,40,21,83,162,46,27,37,048,41*60
###2023-12-09 12:49:50.971447$GBGSV,2,1,05,14,49,195,45,24,77,011,47,25,37,257,46,26,30,060,43*6B
###2023-12-09 12:49:50.972898$GBGSV,2,2,05,33,61,241,46,,,,,,,,,,,,*5C
###2023-12-09 12:49:50.974215$GNVTG,336.43,T,,M,0.87,N,1.62,K,A*28
###2023-12-09 12:49:50.975863$GNGST,174950.10,18.000,,,,0.076,0.067,0.160*56
###2023-12-09 12:49:50.977150$GNZDA,174950.10,09,12,2023,00,00*7E
###2023-12-09 12:49:50.977785$GNEBP,,,,,,M*13
###2023-12-09 12:49:51.148667$GNGGA,174950.30,4138.0656392,N,07032.3917011,W,1,24,0.6,13.343,M,-29.744,M,0.0,*5D
###2023-12-09 12:49:51.350905$GNGGA,174950.50,4138.0656469,N,07032.3917054,W,1,24,0.6,13.362,M,-29.744,M,0.0,*5A
###2023-12-09 12:49:51.551828$GNGGA,174950.70,4138.0656417,N,07032.3917005,W,1,24,0.6,13.373,M,-29.744,M,0.0,*55
###2023-12-09 12:49:51.750826$GNGGA,174950.90,4138.0656583,N,07032.3917136,W,1,24,0.6,13.368,M,-29.744,M,0.0,*5C
###2023-12-09 12:49:51.951090$GNRMC,174951.10,A,4138.0657035,N,07032.3917507,W,0.97,327.41,091223,,,A*5E
###2023-12-09 12:49:51.953936$GNGGA,174951.10,4138.0657035,N,07032.3917507,W,1,24,0.6,13.366,M,-29.744,M,0.0,*54
###2023-12-09 12:49:51.955810$GPGSA,A,3,03,04,16,26,28,29,31,32,,,,,1.1,0.6,0.9*3B
###2023-12-09 12:49:51.957515$GLGSA,A,3,65,71,72,73,74,75,,,,,,,1.1,0.6,0.9*24
###2023-12-09 12:49:51.959148$GAGSA,A,3,04,19,21,27,,,,,,,,,1.1,0.6,0.9*26
###2023-12-09 12:49:51.960791$GBGSA,A,3,14,24,25,26,33,,,,,,,,1.1,0.6,0.9*2F
###2023-12-09 12:49:51.963118$GPGSV,2,1,08,03,37,268,42,04,28,311,42,16,44,210,44,26,74,208,47*7E
###2023-12-09 12:49:51.965451$GPGSV,2,2,08,28,53,065,43,29,26,066,39,31,71,024,46,32,23,138,42*70
###2023-12-09 12:49:51.967782$GLGSV,2,1,06,65,18,329,43,71,48,171,48,72,71,291,46,73,41,038,44*65
###2023-12-09 12:49:51.969522$GLGSV,2,2,06,74,71,317,43,75,28,247,46,,,,,,,,*6F
###2023-12-09 12:49:51.971843$GAGSV,1,1,04,04,25,312,40,19,85,269,39,21,83,162,45,27,37,048,39*62
###2023-12-09 12:49:51.974153$GBGSV,2,1,05,14,49,195,45,24,77,011,48,25,37,257,47,26,30,060,44*62
###2023-12-09 12:49:51.975610$GBGSV,2,2,05,33,61,241,47,,,,,,,,,,,,*5D
###2023-12-09 12:49:51.976924$GNVTG,327.41,T,,M,0.97,N,1.80,K,A*27
###2023-12-09 12:49:51.978559$GNGST,174951.10,18.000,,,,0.076,0.068,0.160*58
###2023-12-09 12:49:51.979854$GNZDA,174951.10,09,12,2023,00,00*7F
###2023-12-09 12:49:51.980491$GNEBP,,,,,,M*13
###2023-12-09 12:49:52.148825$GNGGA,174951.30,4138.0657339,N,07032.3917712,W,1,24,0.6,13.356,M,-29.744,M,0.0,*5C
###2023-12-09 12:49:52.349564$GNGGA,174951.50,4138.0657265,N,07032.3917627,W,1,24,0.6,13.369,M,-29.744,M,0.0,*59
###2023-12-09 12:49:52.549581$GNGGA,174951.70,4138.0657260,N,07032.3917649,W,1,24,0.6,13.373,M,-29.744,M,0.0,*5D
###2023-12-09 12:49:52.748511$GNGGA,174951.90,4138.0657634,N,07032.3917959,W,1,24,0.6,13.381,M,-29.744,M,0.0,*55
###2023-12-09 12:49:52.950061$GNRMC,174952.10,A,4138.0658051,N,07032.3918320,W,0.54,327.65,091223,,,A*55
###2023-12-09 12:49:52.952953$GNGGA,174952.10,4138.0658051,N,07032.3918320,W,1,24,0.6,13.370,M,-29.744,M,0.0,*51
###2023-12-09 12:49:52.954834$GPGSA,A,3,03,04,16,26,28,29,31,32,,,,,1.1,0.6,0.9*3B
###2023-12-09 12:49:52.956554$GLGSA,A,3,65,71,72,73,74,75,,,,,,,1.1,0.6,0.9*24
###2023-12-09 12:49:52.958134$GAGSA,A,3,04,19,21,27,,,,,,,,,1.1,0.6,0.9*26
###2023-12-09 12:49:52.959788$GBGSA,A,3,14,24,25,26,33,,,,,,,,1.1,0.6,0.9*2F
###2023-12-09 12:49:52.962115$GPGSV,2,1,08,03,37,268,44,04,28,311,44,16,44,210,44,26,74,208,47*7E
###2023-12-09 12:49:52.964507$GPGSV,2,2,08,28,53,065,43,29,26,066,38,31,71,024,46,32,23,138,40*73
###2023-12-09 12:49:52.966856$GLGSV,2,1,06,65,18,329,45,71,48,171,47,72,71,291,46,73,41,038,44*6C
###2023-12-09 12:49:52.968602$GLGSV,2,2,06,74,71,317,43,75,28,247,46,,,,,,,,*6F
###2023-12-09 12:49:52.970961$GAGSV,1,1,04,04,25,312,43,19,85,269,40,21,83,162,46,27,37,048,40*62
###2023-12-09 12:49:52.973298$GBGSV,2,1,05,14,49,195,45,24,77,011,49,25,37,257,45,26,30,060,43*66
###2023-12-09 12:49:52.974768$GBGSV,2,2,05,33,61,241,47,,,,,,,,,,,,*5D
###2023-12-09 12:49:52.976089$GNVTG,327.65,T,,M,0.54,N,1.01,K,A*27
###2023-12-09 12:49:52.977735$GNGST,174952.10,18.000,,,,0.076,0.068,0.160*5B
###2023-12-09 12:49:52.979031$GNZDA,174952.10,09,12,2023,00,00*7C
###2023-12-09 12:49:52.979672$GNEBP,,,,,,M*13
###2023-12-09 12:49:53.148347$GNGGA,174952.30,4138.0658109,N,07032.3918351,W,1,24,0.6,13.376,M,-29.744,M,0.0,*5F
###2023-12-09 12:49:53.349551$GNGGA,174952.50,4138.0657981,N,07032.3918249,W,1,24,0.6,13.377,M,-29.744,M,0.0,*57
###2023-12-09 12:49:53.549562$GNGGA,174952.70,4138.0658166,N,07032.3918433,W,1,24,0.6,13.386,M,-29.744,M,0.0,*5E
###2023-12-09 12:49:53.749551$GNGGA,174952.90,4138.0658671,N,07032.3918882,W,1,24,0.6,13.394,M,-29.744,M,0.0,*54
###2023-12-09 12:49:53.948196$GNRMC,174953.10,A,4138.0658922,N,07032.3919131,W,0.02,326.92,091223,,,A*50
###2023-12-09 12:49:53.951071$GNGGA,174953.10,4138.0658922,N,07032.3919131,W,1,24,0.6,13.395,M,-29.744,M,0.0,*55
###2023-12-09 12:49:53.952928$GPGSA,A,3,03,04,16,26,28,29,31,32,,,,,1.1,0.6,0.9*3B
###2023-12-09 12:49:53.954660$GLGSA,A,3,65,71,72,73,74,75,,,,,,,1.1,0.6,0.9*24
###2023-12-09 12:49:53.956248$GAGSA,A,3,04,19,21,27,,,,,,,,,1.1,0.6,0.9*26
###2023-12-09 12:49:53.957897$GBGSA,A,3,14,24,25,26,33,,,,,,,,1.1,0.6,0.9*2F
###2023-12-09 12:49:53.960241$GPGSV,2,1,08,03,37,268,45,04,28,311,45,16,44,210,43,26,74,208,47*79
