###2023-12-09 13:03:18.972683$GPGSA,A,3,03,04,16,26,28,29,31,32,,,,,1.1,0.6,0.9*3B
###2023-12-09 13:03:18.974418$GLGSA,A,3,65,71,72,73,74,75,,,,,,,1.1,0.6,0.9*24
###2023-12-09 13:03:18.976039$GAGSA,A,3,04,19,21,27,,,,,,,,,1.1,0.6,0.9*26
###2023-12-09 13:03:18.977690$GBGSA,A,3,14,24,25,26,33,,,,,,,,1.1,0.6,0.9*2F
###2023-12-09 13:03:18.980033$GPGSV,2,1,08,03,34,260,43,04,33,311,43,16,51,213,47,26,80,210,48*76
###2023-12-09 13:03:18.982363$GPGSV,2,2,08,28,49,070,45,29,25,061,42,31,69,038,47,32,19,140,44*74
###2023-12-09 13:03:18.984700$GLGSV,2,1,06,65,25,327,37,71,40,173,45,72,73,265,46,73,35,042,46*64
###2023-12-09 13:03:18.986444$GLGSV,2,2,06,74,69,340,41,75,33,254,46,,,,,,,,*6E
###2023-12-09 13:03:18.988775$GAGSV,1,1,04,04,29,312,41,19,84,213,40,21,86,114,46,27,32,048,43*62
###2023-12-09 13:03:18.991112$GBGSV,2,1,05,14,43,193,44,24,73,026,48,25,41,263,46,26,26,063,41*69
###2023-12-09 13:03:18.992563$GBGSV,2,2,05,33,57,231,46,,,,,,,,,,,,*5E
###2023-12-09 13:03:18.993879$GNVTG,297.00,T,,M,3.27,N,6.05,K,A*2A
###2023-12-09 13:03:18.995543$GNGST,180318.10,18.000,,,,0.082,0.069,0.160*5E
###2023-12-09 13:03:18.996832$GNZDA,180318.10,09,12,2023,00,00*73
###2023-12-09 13:03:18.997471$GNEBP,,,,,,M*13
###2023-12-09 13:03:19.164578$GNGGA,180318.30,4138.0477570,N,07032.3877854,W,1,24,0.6,13.391,M,-29.745,M,0.0,*5B
###2023-12-09 13:03:19.365473$GNGGA,180318.50,4138.0478412,N,07032.3880010,W,1,24,0.6,13.386,M,-29.745,M,0.0,*51
###2023-12-09 13:03:19.565446$GNGGA,180318.70,4138.0479237,N,07032.3882250,W,1,24,0.6,13.378,M,-29.745,M,0.0,*56
###2023-12-09 13:03:19.765752$GNGGA,180318.90,4138.0480000,N,07032.3884526,W,1,24,0.6,13.371,M,-29.745,M,0.0,*51
###2023-12-09 13:03:19.971370$GNRMC,180319.10,A,4138.0480732,N,07032.3886806,W,3.29,293.07,091223,,,A*54
###2023-12-09 13:03:19.974233$GNGGA,180319.10,4138.0480732,N,07032.3886806,W,1,24,0.6,13.365,M,-29.745,M,0.0,*56
###2023-12-09 13:03:19.976110$GPGSA,A,3,03,04,16,26,28,29,31,32,,,,,1.1,0.6,0.9*3B
###2023-12-09 13:03:19.977823$GLGSA,A,3,65,71,72,73,74,75,,,,,,,1.1,0.6,0.9*24
###2023-12-09 13:03:19.979416$GAGSA,A,3,04,19,21,27,,,,,,,,,1.1,0.6,0.9*26
###2023-12-09 13:03:19.981056$GBGSA,A,3,14,24,25,26,33,,,,,,,,1.1,0.6,0.9*2F
###2023-12-09 13:03:19.983379$GPGSV,2,1,08,03,34,260,42,04,33,311,42,16,51,213,46,26,80,210,48*77
###2023-12-09 13:03:19.985707$GPGSV,2,2,08,28,49,070,45,29,25,061,42,31,69,038,47,32,19,140,44*74
###2023-12-09 13:03:19.988044$GLGSV,2,1,06,65,25,327,37,71,40,173,45,72,73,265,45,73,35,042,46*67
###2023-12-09 13:03:19.989786$GLGSV,2,2,06,74,69,340,41,75,33,254,45,,,,,,,,*6D
###2023-12-09 13:03:19.992106$GAGSV,1,1,04,04,29,312,40,19,84,213,40,21,86,114,45,27,32,048,42*61
###2023-12-09 13:03:19.994420$GBGSV,2,1,05,14,43,193,45,24,73,026,49,25,41,263,45,26,26,063,42*69
###2023-12-09 13:03:19.995874$GBGSV,2,2,05,33,57,231,45,,,,,,,,,,,,*5D
###2023-12-09 13:03:19.997195$GNVTG,293.07,T,,M,3.29,N,6.08,K,A*2A
###2023-12-09 13:03:19.998881$GNGST,180319.10,18.000,,,,0.082,0.069,0.160*5F
###2023-12-09 13:03:20.000175$GNZDA,180319.10,09,12,2023,00,00*72
###2023-12-09 13:03:20.000812$GNEBP,,,,,,M*13
###2023-12-09 13:03:20.165538$GNGGA,180319.30,4138.0481425,N,07032.3889064,W,1,24,0.6,13.361,M,-29.745,M,0.0,*57
###2023-12-09 13:03:20.365524$GNGGA,180319.50,4138.0482082,N,07032.3891322,W,1,24,0.6,13.352,M,-29.745,M,0.0,*53
###2023-12-09 13:03:20.566495$GNGGA,180319.70,4138.0482805,N,07032.3893536,W,1,24,0.6,13.349,M,-29.745,M,0.0,*5D
###2023-12-09 13:03:20.767378$GNGGA,180319.90,4138.0483576,N,07032.3895653,W,1,24,0.6,13.349,M,-29.745,M,0.0,*5D
###2023-12-09 13:03:20.975225$GNRMC,180320.10,A,4138.0484365,N,07032.3897735,W,3.13,296.18,091223,,,A*51
###2023-12-09 13:03:20.978748$GNGGA,180320.10,4138.0484365,N,07032.3897735,W,1,24,0.6,13.344,M,-29.745,M,0.0,*52
###2023-12-09 13:03:20.980998$GPGSA,A,3,03,04,16,26,28,29,31,32,,,,,1.1,0.6,0.9*3B
###2023-12-09 13:03:20.983078$GLGSA,A,3,65,71,72,73,74,75,,,,,,,1.1,0.6,0.9*24
###2023-12-09 13:03:20.984997$GAGSA,A,3,04,19,21,27,,,,,,,,,1.1,0.6,0.9*26
###2023-12-09 13:03:20.987009$GBGSA,A,3,14,24,25,26,33,,,,,,,,1.1,0.6,0.9*2F
###2023-12-09 13:03:20.989832$GPGSV,2,1,08,03,34,260,44,04,33,311,42,16,51,213,47,26,80,210,48*70
###2023-12-09 13:03:20.992676$GPGSV,2,2,08,28,49,070,46,29,25,061,43,31,69,038,47,32,19,140,43*71
###2023-12-09 13:03:20.995525$GLGSV,2,1,06,65,25,327,38,71,40,173,45,72,73,265,46,73,35,042,47*6A
###2023-12-09 13:03:20.997679$GLGSV,2,2,06,74,69,340,41,75,33,254,45,,,,,,,,*6D
###2023-12-09 13:03:21.000524$GAGSV,1,1,04,04,29,312,40,19,84,213,40,21,86,114,46,27,32,048,43*63
###2023-12-09 13:03:21.003353$GBGSV,2,1,05,14,43,193,45,24,73,026,49,25,41,263,47,26,26,063,44*6D
###2023-12-09 13:03:21.005114$GBGSV,2,2,05,33,57,231,47,,,,,,,,,,,,*5F
###2023-12-09 13:03:21.006761$GNVTG,296.18,T,,M,3.13,N,5.80,K,A*2B
###2023-12-09 13:03:21.008754$GNGST,180320.10,18.000,,,,0.082,0.068,0.160*54
###2023-12-09 13:03:21.010315$GNZDA,180320.10,09,12,2023,00,00*78
###2023-12-09 13:03:21.011093$GNEBP,,,,,,M*13
###2023-12-09 13:03:21.169880$GNGGA,180320.30,4138.0485169,N,07032.3899769,W,1,24,0.6,13.342,M,-29.745,M,0.0,*5E
###2023-12-09 13:03:21.365376$GNGGA,180320.50,4138.0486048,N,07032.3901754,W,1,24,0.6,13.334,M,-29.745,M,0.0,*56
###2023-12-09 13:03:21.568169$GNGGA,180320.70,4138.0486995,N,07032.3903633,W,1,24,0.6,13.338,M,-29.745,M,0.0,*53
###2023-12-09 13:03:21.766491$GNGGA,180320.90,4138.0487974,N,07032.3905471,W,1,24,0.6,13.334,M,-29.745,M,0.0,*5D
###2023-12-09 13:03:21.970233$GNRMC,180321.10,A,4138.0489002,N,07032.3907273,W,3.05,308.64,091223,,,A*5A
###2023-12-09 13:03:21.973739$GNGGA,180321.10,4138.0489002,N,07032.3907273,W,1,24,0.6,13.330,M,-29.745,M,0.0,*50
###2023-12-09 13:03:21.976018$GPGSA,A,3,03,04,16,26,28,29,31,32,,,,,1.1,0.6,0.9*3B
###2023-12-09 13:03:21.978093$GLGSA,A,3,65,71,72,73,74,75,,,,,,,1.1,0.6,0.9*24
###2023-12-09 13:03:21.980026$GAGSA,A,3,04,19,21,27,,,,,,,,,1.1,0.6,0.9*26
###2023-12-09 13:03:21.982014$GBGSA,A,3,14,24,25,26,33,,,,,,,,1.1,0.6,0.9*2F
###2023-12-09 13:03:21.984874$GPGSV,2,1,08,03,34,260,43,04,33,311,43,16,51,213,46,26,80,210,49*76
###2023-12-09 13:03:21.987715$GPGSV,2,2,08,28,49,070,46,29,25,061,43,31,69,038,47,32,19,140,45*77
###2023-12-09 13:03:21.990577$GLGSV,2,1,06,65,25,327,41,71,40,173,45,72,73,265,46,73,35,042,46*65
###2023-12-09 13:03:21.992691$GLGSV,2,2,06,74,69,340,41,75,33,254,44,,,,,,,,*6C
###2023-12-09 13:03:21.995521$GAGSV,1,1,04,04,29,312,41,19,84,213,40,21,86,114,46,27,32,048,43*62
###2023-12-09 13:03:21.998331$GBGSV,2,1,05,14,43,193,44,24,73,026,48,25,41,263,46,26,26,063,44*6C
###2023-12-09 13:03:22.000086$GBGSV,2,2,05,33,57,231,48,,,,,,,,,,,,*50
###2023-12-09 13:03:22.001683$GNVTG,308.64,T,,M,3.05,N,5.65,K,A*2A
###2023-12-09 13:03:22.003709$GNGST,180321.10,18.000,,,,0.082,0.068,0.160*55
###2023-12-09 13:03:22.005265$GNZDA,180321.10,09,12,2023,00,00*79
###2023-12-09 13:03:22.006042$GNEBP,,,,,,M*13
###2023-12-09 13:03:22.165430$GNGGA,180321.30,4138.0490082,N,07032.3909004,W,1,24,0.6,13.328,M,-29.745,M,0.0,*57
###2023-12-09 13:03:22.367637$GNGGA,180321.50,4138.0491215,N,07032.3910640,W,1,24,0.6,13.324,M,-29.745,M,0.0,*5E
###2023-12-09 13:03:22.566125$GNGGA,180321.70,4138.0492408,N,07032.3912179,W,1,24,0.6,13.320,M,-29.745,M,0.0,*5E
###2023-12-09 13:03:22.768559$GNGGA,180321.90,4138.0493613,N,07032.3913681,W,1,24,0.6,13.316,M,-29.745,M,0.0,*5D
###2023-12-09 13:03:22.968713$GNRMC,180322.10,A,4138.0494877,N,07032.3915115,W,2.99,321.49,091223,,,A*5F
###2023-12-09 13:03:22.971594$GNGGA,180322.10,4138.0494877,N,07032.3915115,W,1,24,0.6,13.315,M,-29.745,M,0.0,*52
###2023-12-09 13:03:22.973458$GPGSA,A,3,03,04,16,26,28,29,31,32,,,,,1.1,0.6,0.9*3B
###2023-12-09 13:03:22.975191$GLGSA,A,3,65,71,72,73,74,75,,,,,,,1.1,0.6,0.9*24
###2023-12-09 13:03:22.976786$GAGSA,A,3,04,19,21,27,,,,,,,,,1.1,0.6,0.9*26
###2023-12-09 13:03:22.978435$GBGSA,A,3,14,24,25,26,33,,,,,,,,1.1,0.6,0.9*2F
###2023-12-09 13:03:22.980777$GPGSV,2,1,08,03,34,260,43,04,33,311,41,16,51,213,46,26,80,210,48*75
###2023-12-09 13:03:22.983146$GPGSV,2,2,08,28,49,070,46,29,25,061,43,31,69,038,46,32,19,140,45*76
###2023-12-09 13:03:22.985488$GLGSV,2,1,06,65,25,327,39,71,40,173,45,72,73,265,46,73,35,042,45*69
###2023-12-09 13:03:22.987504$GLGSV,2,2,06,74,69,340,41,75,33,254,45,,,,,,,,*6D
###2023-12-09 13:03:22.989854$GAGSV,1,1,04,04,29,312,40,19,84,213,41,21,86,114,46,27,32,048,42*63
###2023-12-09 13:03:22.992216$GBGSV,2,1,05,14,43,193,43,24,73,026,47,25,41,263,44,26,26,063,42*60
###2023-12-09 13:03:22.993689$GBGSV,2,2,05,33,57,231,46,,,,,,,,,,,,*5E
###2023-12-09 13:03:22.995033$GNVTG,321.49,T,,M,2.99,N,5.54,K,A*28
###2023-12-09 13:03:22.996698$GNGST,180322.10,18.000,,,,0.081,0.067,0.160*5A
###2023-12-09 13:03:22.997997$GNZDA,180322.10,09,12,2023,00,00*7A
###2023-12-09 13:03:22.998651$GNEBP,,,,,,M*13
###2023-12-09 13:03:23.165096$GNGGA,180322.30,4138.0496182,N,07032.3916410,W,1,24,0.6,13.311,M,-29.745,M,0.0,*56
