###2023-12-09 13:35:08.025199$GNVTG,128.41,T,,M,2.97,N,5.51,K,A*20
###2023-12-09 13:35:08.026858$GNGST,183507.10,6.900,,,,0.100,0.070,0.160*60
###2023-12-09 13:35:08.028155$GNZDA,183507.10,09,12,2023,00,00*78
###2023-12-09 13:35:08.028797$GNEBP,,,,,,M*13
###2023-12-09 13:35:08.195109$GNGGA,183507.30,4138.0375980,N,07032.4103711,W,1,26,0.6,13.347,M,-29.745,M,0.0,*5C
###2023-12-09 13:35:08.393212$GNGGA,183507.50,4138.0375111,N,07032.4101874,W,1,26,0.6,13.342,M,-29.745,M,0.0,*51
###2023-12-09 13:35:08.593470$GNGGA,183507.70,4138.0374292,N,07032.4099998,W,1,25,0.6,13.343,M,-29.745,M,0.0,*5B
###2023-12-09 13:35:08.797799$GNGGA,183507.90,4138.0373510,N,07032.4098050,W,1,26,0.6,13.348,M,-29.745,M,0.0,*5B
###2023-12-09 13:35:09.003651$GNRMC,183508.10,A,4138.0372813,N,07032.4096040,W,2.95,112.44,091223,,,A*58
###2023-12-09 13:35:09.006503$GNGGA,183508.10,4138.0372813,N,07032.4096040,W,1,26,0.6,13.348,M,-29.745,M,0.0,*5C
###2023-12-09 13:35:09.008304$GPGSA,A,3,03,04,16,26,28,29,31,,,,,,1.0,0.6,0.9*3B
###2023-12-09 13:35:09.010075$GLGSA,A,3,65,71,72,73,74,75,83,,,,,,1.0,0.6,0.9*2E
###2023-12-09 13:35:09.011664$GAGSA,A,3,04,19,21,27,,,,,,,,,1.0,0.6,0.9*27
###2023-12-09 13:35:09.013439$GBGSA,A,3,12,14,24,25,26,33,35,,,,,,1.0,0.6,0.9*2B
###2023-12-09 13:35:09.015770$GPGSV,2,1,07,03,26,246,36,04,47,307,45,16,66,222,47,26,84,040,48*7B
###2023-12-09 13:35:09.017800$GPGSV,2,2,07,28,38,084,42,29,21,047,44,31,59,066,47,,,,*43
###2023-12-09 13:35:09.020134$GLGSV,2,1,07,65,39,318,43,71,22,175,39,72,62,220,46,73,22,052,44*6A
###2023-12-09 13:35:09.022176$GLGSV,2,2,07,74,59,015,42,75,44,272,47,83,15,047,35,,,,*53
###2023-12-09 13:35:09.024518$GAGSV,1,1,04,04,40,310,43,19,72,181,41,21,77,046,46,27,22,050,42*6C
###2023-12-09 13:35:09.026854$GBGSV,2,1,07,12,15,126,39,14,29,190,41,24,62,046,47,25,51,276,47*64
###2023-12-09 13:35:09.028894$GBGSV,2,2,07,26,16,071,43,33,45,217,48,35,16,056,44,,,,*55
###2023-12-09 13:35:09.030219$GNVTG,112.44,T,,M,2.95,N,5.47,K,A*29
###2023-12-09 13:35:09.031840$GNGST,183508.10,6.100,,,,0.100,0.071,0.160*66
###2023-12-09 13:35:09.033130$GNZDA,183508.10,09,12,2023,00,00*77
###2023-12-09 13:35:09.033768$GNEBP,,,,,,M*13
###2023-12-09 13:35:09.207341$GNGGA,183508.30,4138.0372185,N,07032.4093997,W,1,26,0.6,13.343,M,-29.745,M,0.0,*55
###2023-12-09 13:35:09.394169$GNGGA,183508.50,4138.0371664,N,07032.4091915,W,1,26,0.6,13.352,M,-29.745,M,0.0,*50
###2023-12-09 13:35:09.595273$GNGGA,183508.70,4138.0371184,N,07032.4089735,W,1,25,0.6,13.360,M,-29.745,M,0.0,*5C
###2023-12-09 13:35:09.796349$GNGGA,183508.90,4138.0370790,N,07032.4087559,W,1,25,0.6,13.347,M,-29.745,M,0.0,*53
###2023-12-09 13:35:09.997747$GNRMC,183509.10,A,4138.0370557,N,07032.4085441,W,3.05,97.23,091223,,,A*64
###2023-12-09 13:35:10.000616$GNGGA,183509.10,4138.0370557,N,07032.4085441,W,1,24,0.6,13.354,M,-29.745,M,0.0,*5A
###2023-12-09 13:35:10.002404$GPGSA,A,3,03,04,16,26,28,29,31,,,,,,1.1,0.6,0.9*3A
###2023-12-09 13:35:10.004136$GLGSA,A,3,65,71,72,73,74,75,,,,,,,1.1,0.6,0.9*24
###2023-12-09 13:35:10.005720$GAGSA,A,3,04,19,21,27,,,,,,,,,1.1,0.6,0.9*26
###2023-12-09 13:35:10.007505$GBGSA,A,3,12,14,24,25,26,33,35,,,,,,1.1,0.6,0.9*2A
###2023-12-09 13:35:10.009828$GPGSV,2,1,07,03,26,246,40,04,47,307,44,16,66,222,47,26,84,040,48*7B
###2023-12-09 13:35:10.011883$GPGSV,2,2,07,28,38,084,43,29,21,047,43,31,59,066,46,,,,*44
###2023-12-09 13:35:10.014205$GLGSV,2,1,06,65,39,318,42,71,22,175,42,72,62,220,46,73,22,052,41*63
###2023-12-09 13:35:10.015957$GLGSV,2,2,06,74,59,015,42,75,44,272,47,,,,,,,,*68
###2023-12-09 13:35:10.018273$GAGSV,1,1,04,04,40,310,43,19,72,181,42,21,77,046,46,27,22,050,40*6D
###2023-12-09 13:35:10.020599$GBGSV,2,1,07,12,15,126,39,14,29,190,39,24,62,046,47,25,51,276,47*6B
###2023-12-09 13:35:10.022669$GBGSV,2,2,07,26,16,071,41,33,45,217,46,35,16,056,42,,,,*5F
###2023-12-09 13:35:10.023960$GNVTG,97.23,T,,M,3.05,N,5.65,K,A*1C
###2023-12-09 13:35:10.025563$GNGST,183509.10,5.800,,,,0.100,0.071,0.160*6D
###2023-12-09 13:35:10.026862$GNZDA,183509.10,09,12,2023,00,00*76
###2023-12-09 13:35:10.027497$GNEBP,,,,,,M*13
###2023-12-09 13:35:10.193819$GNGGA,183509.30,4138.0370326,N,07032.4083166,W,1,25,0.6,13.342,M,-29.745,M,0.0,*58
###2023-12-09 13:35:10.392294$GNGGA,183509.50,4138.0370224,N,07032.4080951,W,1,25,0.6,13.332,M,-29.745,M,0.0,*55
###2023-12-09 13:35:10.592206$GNGGA,183509.70,4138.0370239,N,07032.4078760,W,1,25,0.6,13.337,M,-29.745,M,0.0,*55
###2023-12-09 13:35:10.793937$GNGGA,183509.90,4138.0370248,N,07032.4076417,W,1,25,0.6,13.324,M,-29.745,M,0.0,*52
###2023-12-09 13:35:10.996922$GNRMC,183510.10,A,4138.0370466,N,07032.4074242,W,2.94,80.01,091223,,,A*6B
###2023-12-09 13:35:10.999789$GNGGA,183510.10,4138.0370466,N,07032.4074242,W,1,25,0.6,13.317,M,-29.745,M,0.0,*5C
###2023-12-09 13:35:11.001574$GPGSA,A,3,03,04,16,26,28,29,31,,,,,,1.0,0.6,0.9*3B
###2023-12-09 13:35:11.003295$GLGSA,A,3,65,71,72,73,74,75,,,,,,,1.0,0.6,0.9*25
###2023-12-09 13:35:11.004883$GAGSA,A,3,04,19,21,27,,,,,,,,,1.0,0.6,0.9*27
###2023-12-09 13:35:11.006670$GBGSA,A,3,12,14,24,25,26,33,35,,,,,,1.0,0.6,0.9*2B
###2023-12-09 13:35:11.008995$GPGSV,2,1,07,03,26,246,41,04,47,307,45,16,66,222,46,26,84,040,48*7A
###2023-12-09 13:35:11.011037$GPGSV,2,2,07,28,38,084,42,29,21,047,41,31,59,066,45,,,,*44
###2023-12-09 13:35:11.013357$GLGSV,2,1,06,65,39,318,44,71,22,175,38,72,62,220,46,73,22,052,41*68
###2023-12-09 13:35:11.015113$GLGSV,2,2,06,74,59,015,42,75,44,272,47,,,,,,,,*68
###2023-12-09 13:35:11.017439$GAGSV,1,1,04,04,40,310,43,19,72,181,41,21,77,046,46,27,22,050,39*60
###2023-12-09 13:35:11.019764$GBGSV,2,1,07,12,15,126,39,14,29,190,39,24,62,046,47,25,51,276,47*6B
###2023-12-09 13:35:11.021796$GBGSV,2,2,07,26,16,071,40,33,45,217,47,35,16,056,41,,,,*5C
###2023-12-09 13:35:11.023093$GNVTG,80.01,T,,M,2.94,N,5.44,K,A*10
###2023-12-09 13:35:11.024712$GNGST,183510.10,6.000,,,,0.100,0.072,0.160*6D
###2023-12-09 13:35:11.026000$GNZDA,183510.10,09,12,2023,00,00*7E
###2023-12-09 13:35:11.026647$GNEBP,,,,,,M*13
###2023-12-09 13:35:11.195123$GNGGA,183510.30,4138.0370785,N,07032.4072023,W,1,25,0.6,13.320,M,-29.745,M,0.0,*57
###2023-12-09 13:35:11.393259$GNGGA,183510.50,4138.0371123,N,07032.4069839,W,1,25,0.6,13.314,M,-29.745,M,0.0,*54
###2023-12-09 13:35:11.593343$GNGGA,183510.70,4138.0371606,N,07032.4067671,W,1,25,0.6,13.317,M,-29.745,M,0.0,*59
###2023-12-09 13:35:11.792750$GNGGA,183510.90,4138.0372167,N,07032.4065573,W,1,25,0.6,13.314,M,-29.745,M,0.0,*54
###2023-12-09 13:35:11.996227$GNRMC,183511.10,A,4138.0372833,N,07032.4063568,W,3.01,66.43,091223,,,A*6E
###2023-12-09 13:35:11.999754$GNGGA,183511.10,4138.0372833,N,07032.4063568,W,1,25,0.6,13.312,M,-29.745,M,0.0,*5F
###2023-12-09 13:35:12.001927$GPGSA,A,3,03,04,16,26,28,29,31,,,,,,1.0,0.6,0.9*3B
###2023-12-09 13:35:12.004028$GLGSA,A,3,65,71,72,73,74,75,,,,,,,1.0,0.6,0.9*25
###2023-12-09 13:35:12.005950$GAGSA,A,3,04,19,21,27,,,,,,,,,1.0,0.6,0.9*27
###2023-12-09 13:35:12.008116$GBGSA,A,3,12,14,24,25,26,33,35,,,,,,1.0,0.6,0.9*2B
###2023-12-09 13:35:12.010953$GPGSV,2,1,07,03,26,246,42,04,47,307,45,16,66,222,46,26,84,040,48*79
###2023-12-09 13:35:12.013423$GPGSV,2,2,07,28,38,084,42,29,21,047,40,31,59,066,46,,,,*46
###2023-12-09 13:35:12.016284$GLGSV,2,1,06,65,39,318,44,71,22,175,43,72,62,220,46,73,22,052,41*64
###2023-12-09 13:35:12.018391$GLGSV,2,2,06,74,59,015,42,75,44,272,47,,,,,,,,*68
###2023-12-09 13:35:12.021199$GAGSV,1,1,04,04,40,310,44,19,72,181,41,21,77,046,46,27,22,050,39*67
###2023-12-09 13:35:12.024023$GBGSV,2,1,07,12,15,126,40,14,29,190,40,24,62,046,47,25,51,276,47*6B
###2023-12-09 13:35:12.026483$GBGSV,2,2,07,26,16,071,41,33,45,217,48,35,16,056,41,,,,*52
###2023-12-09 13:35:12.028071$GNVTG,66.43,T,,M,3.01,N,5.58,K,A*1E
###2023-12-09 13:35:12.030048$GNGST,183511.10,5.500,,,,0.100,0.072,0.160*6A
###2023-12-09 13:35:12.031625$GNZDA,183511.10,09,12,2023,00,00*7F
###2023-12-09 13:35:12.032404$GNEBP,,,,,,M*13
###2023-12-09 13:35:12.193863$GNGGA,183511.30,4138.0373501,N,07032.4061562,W,1,26,0.6,13.306,M,-29.745,M,0.0,*5E
###2023-12-09 13:35:12.393793$GNGGA,183511.50,4138.0374255,N,07032.4059627,W,1,26,0.6,13.308,M,-29.745,M,0.0,*5E
###2023-12-09 13:35:12.593940$GNGGA,183511.70,4138.0375057,N,07032.4057744,W,1,26,0.6,13.312,M,-29.745,M,0.0,*5C
###2023-12-09 13:35:12.794846$GNGGA,183511.90,4138.0375779,N,07032.4055742,W,1,26,0.6,13.301,M,-29.745,M,0.0,*5F
###2023-12-09 13:35:12.995639$GNRMC,183512.10,A,4138.0376577,N,07032.4053888,W,2.95,58.29,091223,,,A*69
###2023-12-09 13:35:12.999111$GNGGA,183512.10,4138.0376577,N,07032.4053888,W,1,26,0.6,13.301,M,-29.745,M,0.0,*54
###2023-12-09 13:35:13.001363$GPGSA,A,3,03,04,16,26,27,28,29,31,,,,,1.0,0.6,0.9*3E
###2023-12-09 13:35:13.003468$GLGSA,A,3,65,71,72,73,74,75,,,,,,,1.0,0.6,0.9*25
###2023-12-09 13:35:13.005395$GAGSA,A,3,04,19,21,27,,,,,,,,,1.0,0.6,0.9*27
###2023-12-09 13:35:13.007584$GBGSA,A,3,12,14,24,25,26,33,35,,,,,,1.0,0.6,0.9*2B
###2023-12-09 13:35:13.010382$GPGSV,2,1,08,03,26,246,40,04,47,307,45,16,66,222,46,26,84,040,48*74
###2023-12-09 13:35:13.013223$GPGSV,2,2,08,27,16,172,38,28,38,084,42,29,21,047,40,31,59,066,45*77
