###2023-12-09 13:14:39.981062$GNGGA,181439.10,4138.0362338,N,07032.3085156,W,1,24,0.7,13.105,M,-29.744,M,0.0,*54
###2023-12-09 13:14:39.982891$GPGSA,A,3,03,04,16,26,28,29,31,,,,,,1.2,0.7,1.0*30
###2023-12-09 13:14:39.984604$GLGSA,A,3,65,71,72,73,74,75,,,,,,,1.2,0.7,1.0*2E
###2023-12-09 13:14:39.986180$GAGSA,A,3,04,19,21,27,,,,,,,,,1.2,0.7,1.0*2C
###2023-12-09 13:14:39.987903$GBGSA,A,3,14,24,25,26,33,35,,,,,,,1.2,0.7,1.0*23
###2023-12-09 13:14:39.990214$GPGSV,2,1,07,03,32,255,43,04,38,311,45,16,56,215,48,26,86,209,49*75
###2023-12-09 13:14:39.992261$GPGSV,2,2,07,28,45,076,46,29,24,055,45,31,65,050,47,,,,*4D
###2023-12-09 13:14:39.994593$GLGSV,2,1,06,65,30,325,42,71,34,174,43,72,71,246,46,73,31,045,44*60
###2023-12-09 13:14:39.996338$GLGSV,2,2,06,74,66,353,42,75,36,259,46,,,,,,,,*68
###2023-12-09 13:14:39.998676$GAGSV,1,1,04,04,33,312,45,19,80,192,41,21,84,066,46,27,29,048,42*6F
###2023-12-09 13:14:40.000996$GBGSV,2,1,06,14,37,191,43,24,69,035,49,25,45,267,47,26,22,066,44*61
###2023-12-09 13:14:40.002746$GBGSV,2,2,06,33,53,225,48,35,16,064,44,,,,,,,,*61
###2023-12-09 13:14:40.004067$GNVTG,103.52,T,,M,3.36,N,6.23,K,A*27
###2023-12-09 13:14:40.005708$GNGST,181439.10,18.000,,,,0.096,0.070,0.170*57
###2023-12-09 13:14:40.007012$GNZDA,181439.10,09,12,2023,00,00*76
###2023-12-09 13:14:40.007653$GNEBP,,,,,,M*13
###2023-12-09 13:14:40.173323$GNGGA,181439.30,4138.0361734,N,07032.3082820,W,1,24,0.7,13.106,M,-29.744,M,0.0,*51
###2023-12-09 13:14:40.375385$GNGGA,181439.50,4138.0360833,N,07032.3080674,W,1,24,0.7,13.119,M,-29.744,M,0.0,*5D
###2023-12-09 13:14:40.575170$GNGGA,181439.70,4138.0359862,N,07032.3078528,W,1,24,0.7,13.107,M,-29.744,M,0.0,*53
###2023-12-09 13:14:40.774065$GNGGA,181439.90,4138.0359080,N,07032.3076343,W,1,24,0.7,13.093,M,-29.744,M,0.0,*50
###2023-12-09 13:14:40.978628$GNRMC,181440.10,A,4138.0358173,N,07032.3074085,W,3.54,122.20,091223,,,A*5F
###2023-12-09 13:14:40.981480$GNGGA,181440.10,4138.0358173,N,07032.3074085,W,1,24,0.7,13.105,M,-29.744,M,0.0,*5F
###2023-12-09 13:14:40.983284$GPGSA,A,3,03,04,16,26,28,29,31,,,,,,1.2,0.7,1.0*30
###2023-12-09 13:14:40.985005$GLGSA,A,3,65,71,72,73,74,75,,,,,,,1.2,0.7,1.0*2E
###2023-12-09 13:14:40.986596$GAGSA,A,3,04,19,21,27,,,,,,,,,1.2,0.7,1.0*2C
###2023-12-09 13:14:40.988304$GBGSA,A,3,14,24,25,26,33,35,,,,,,,1.2,0.7,1.0*23
###2023-12-09 13:14:40.990631$GPGSV,2,1,07,03,32,255,43,04,38,311,44,16,56,215,47,26,86,209,49*7B
###2023-12-09 13:14:40.992665$GPGSV,2,2,07,28,45,076,46,29,24,055,45,31,65,050,47,,,,*4D
###2023-12-09 13:14:40.995002$GLGSV,2,1,06,65,30,325,43,71,34,174,44,72,71,246,46,73,31,045,45*67
###2023-12-09 13:14:40.996742$GLGSV,2,2,06,74,66,353,43,75,36,259,45,,,,,,,,*6A
###2023-12-09 13:14:40.999059$GAGSV,1,1,04,04,33,312,44,19,80,192,41,21,84,066,46,27,29,048,42*6E
###2023-12-09 13:14:41.001393$GBGSV,2,1,06,14,37,191,43,24,69,035,48,25,45,267,47,26,22,066,43*67
###2023-12-09 13:14:41.003146$GBGSV,2,2,06,33,53,225,47,35,16,064,44,,,,,,,,*6E
###2023-12-09 13:14:41.004468$GNVTG,122.20,T,,M,3.54,N,6.55,K,A*24
###2023-12-09 13:14:41.006108$GNGST,181440.10,18.000,,,,0.096,0.070,0.170*59
###2023-12-09 13:14:41.007399$GNZDA,181440.10,09,12,2023,00,00*78
###2023-12-09 13:14:41.008034$GNEBP,,,,,,M*13
###2023-12-09 13:14:41.175409$GNGGA,181440.30,4138.0357138,N,07032.3071959,W,1,24,0.7,13.087,M,-29.744,M,0.0,*5B
###2023-12-09 13:14:41.378045$GNGGA,181440.50,4138.0356223,N,07032.3069807,W,1,24,0.7,13.102,M,-29.744,M,0.0,*5A
###2023-12-09 13:14:41.575371$GNGGA,181440.70,4138.0355202,N,07032.3067553,W,1,24,0.7,13.103,M,-29.744,M,0.0,*5B
###2023-12-09 13:14:41.774319$GNGGA,181440.90,4138.0354336,N,07032.3065262,W,1,24,0.7,13.068,M,-29.744,M,0.0,*59
###2023-12-09 13:14:41.983294$GNRMC,181441.10,A,4138.0353506,N,07032.3062988,W,3.54,118.68,091223,,,A*55
###2023-12-09 13:14:41.986163$GNGGA,181441.10,4138.0353506,N,07032.3062988,W,1,24,0.7,13.076,M,-29.744,M,0.0,*55
###2023-12-09 13:14:41.987969$GPGSA,A,3,03,04,16,26,28,29,31,,,,,,1.2,0.7,1.0*30
###2023-12-09 13:14:41.989679$GLGSA,A,3,65,71,72,73,74,75,,,,,,,1.2,0.7,1.0*2E
###2023-12-09 13:14:41.991272$GAGSA,A,3,04,19,21,27,,,,,,,,,1.2,0.7,1.0*2C
###2023-12-09 13:14:41.992981$GBGSA,A,3,14,24,25,26,33,35,,,,,,,1.2,0.7,1.0*23
###2023-12-09 13:14:41.995323$GPGSV,2,1,07,03,32,255,43,04,38,311,44,16,56,215,47,26,86,209,48*7A
###2023-12-09 13:14:41.997362$GPGSV,2,2,07,28,45,076,45,29,24,055,44,31,65,050,47,,,,*4F
###2023-12-09 13:14:41.999692$GLGSV,2,1,06,65,30,325,41,71,34,174,43,72,71,246,46,73,31,045,45*62
###2023-12-09 13:14:42.001437$GLGSV,2,2,06,74,66,353,43,75,36,259,46,,,,,,,,*69
###2023-12-09 13:14:42.003765$GAGSV,1,1,04,04,33,312,43,19,80,192,40,21,84,066,46,27,29,048,43*69
###2023-12-09 13:14:42.006085$GBGSV,2,1,06,14,37,191,43,24,69,035,48,25,45,267,46,26,22,066,43*66
###2023-12-09 13:14:42.007839$GBGSV,2,2,06,33,53,225,48,35,16,064,43,,,,,,,,*66
###2023-12-09 13:14:42.009159$GNVTG,118.68,T,,M,3.54,N,6.55,K,A*21
###2023-12-09 13:14:42.010808$GNGST,181441.10,18.000,,,,0.096,0.070,0.170*58
###2023-12-09 13:14:42.012099$GNZDA,181441.10,09,12,2023,00,00*79
###2023-12-09 13:14:42.012735$GNEBP,,,,,,M*13
###2023-12-09 13:14:42.174288$GNGGA,181441.30,4138.0352542,N,07032.3060656,W,1,24,0.7,13.081,M,-29.744,M,0.0,*50
###2023-12-09 13:14:42.377250$GNGGA,181441.50,4138.0351689,N,07032.3058334,W,1,24,0.7,13.054,M,-29.744,M,0.0,*53
###2023-12-09 13:14:42.576325$GNGGA,181441.70,4138.0350986,N,07032.3056006,W,1,24,0.7,13.062,M,-29.744,M,0.0,*59
###2023-12-09 13:14:42.775073$GNGGA,181441.90,4138.0350154,N,07032.3053606,W,1,24,0.7,13.074,M,-29.744,M,0.0,*54
###2023-12-09 13:14:42.979816$GNRMC,181442.10,A,4138.0349216,N,07032.3051356,W,3.36,120.64,091223,,,A*51
###2023-12-09 13:14:42.982680$GNGGA,181442.10,4138.0349216,N,07032.3051356,W,1,24,0.7,13.035,M,-29.744,M,0.0,*55
###2023-12-09 13:14:42.984473$GPGSA,A,3,03,04,16,26,28,29,31,,,,,,1.2,0.7,1.0*30
###2023-12-09 13:14:42.986185$GLGSA,A,3,65,71,72,73,74,75,,,,,,,1.2,0.7,1.0*2E
###2023-12-09 13:14:42.987788$GAGSA,A,3,04,19,21,27,,,,,,,,,1.2,0.7,1.0*2C
###2023-12-09 13:14:42.989498$GBGSA,A,3,14,24,25,26,33,35,,,,,,,1.2,0.7,1.0*23
###2023-12-09 13:14:42.991823$GPGSV,2,1,07,03,32,255,43,04,38,311,45,16,56,215,48,26,86,209,48*74
###2023-12-09 13:14:42.993857$GPGSV,2,2,07,28,45,076,46,29,24,055,44,31,65,050,47,,,,*4C
###2023-12-09 13:14:42.996197$GLGSV,2,1,06,65,30,325,43,71,34,174,43,72,71,246,46,73,31,045,45*60
###2023-12-09 13:14:42.997938$GLGSV,2,2,06,74,66,353,43,75,36,259,46,,,,,,,,*69
###2023-12-09 13:14:43.000271$GAGSV,1,1,04,04,33,312,43,19,80,192,40,21,84,066,46,27,29,048,42*68
###2023-12-09 13:14:43.002608$GBGSV,2,1,06,14,37,191,43,24,69,035,48,25,45,267,46,26,22,066,43*66
###2023-12-09 13:14:43.004349$GBGSV,2,2,06,33,53,225,49,35,16,064,43,,,,,,,,*67
###2023-12-09 13:14:43.005670$GNVTG,120.64,T,,M,3.36,N,6.23,K,A*23
###2023-12-09 13:14:43.007326$GNGST,181442.10,18.000,,,,0.096,0.070,0.170*5B
###2023-12-09 13:14:43.008611$GNZDA,181442.10,09,12,2023,00,00*7A
###2023-12-09 13:14:43.009246$GNEBP,,,,,,M*13
###2023-12-09 13:14:43.175249$GNGGA,181442.30,4138.0348311,N,07032.3049147,W,1,24,0.7,13.040,M,-29.744,M,0.0,*59
###2023-12-09 13:14:43.374820$GNGGA,181442.50,4138.0347385,N,07032.3046868,W,1,24,0.7,13.055,M,-29.744,M,0.0,*52
###2023-12-09 13:14:43.575795$GNGGA,181442.70,4138.0346320,N,07032.3044805,W,1,24,0.7,13.018,M,-29.744,M,0.0,*5E
###2023-12-09 13:14:43.775534$GNGGA,181442.90,4138.0345167,N,07032.3042827,W,1,24,0.7,13.021,M,-29.744,M,0.0,*5E
###2023-12-09 13:14:43.977796$GNRMC,181443.10,A,4138.0343961,N,07032.3040916,W,3.29,133.39,091223,,,A*5B
###2023-12-09 13:14:43.980686$GNGGA,181443.10,4138.0343961,N,07032.3040916,W,1,24,0.7,13.018,M,-29.744,M,0.0,*54
###2023-12-09 13:14:43.982477$GPGSA,A,3,03,04,16,26,28,29,31,,,,,,1.2,0.7,1.0*30
###2023-12-09 13:14:43.984202$GLGSA,A,3,65,71,72,73,74,75,,,,,,,1.2,0.7,1.0*2E
###2023-12-09 13:14:43.985788$GAGSA,A,3,04,19,21,27,,,,,,,,,1.2,0.7,1.0*2C
###2023-12-09 13:14:43.987517$GBGSA,A,3,14,24,25,26,33,35,,,,,,,1.2,0.7,1.0*23
###2023-12-09 13:14:43.989852$GPGSV,2,1,07,03,32,255,44,04,38,311,44,16,56,215,46,26,86,209,48*7C
###2023-12-09 13:14:43.991905$GPGSV,2,2,07,28,45,076,45,29,24,055,44,31,65,050,46,,,,*4E
###2023-12-09 13:14:43.994485$GLGSV,2,1,06,65,30,325,44,71,33,174,43,72,71,246,47,73,31,045,46*62
###2023-12-09 13:14:43.996266$GLGSV,2,2,06,74,66,353,43,75,36,259,47,,,,,,,,*68
###2023-12-09 13:14:43.998611$GAGSV,1,1,04,04,33,312,44,19,80,192,40,21,84,066,46,27,29,048,43*6E
###2023-12-09 13:14:44.000948$GBGSV,2,1,06,14,37,191,41,24,69,035,47,25,45,267,46,26,22,066,43*6B
###2023-12-09 13:14:44.002708$GBGSV,2,2,06,33,53,225,47,35,16,064,44,,,,,,,,*6E
###2023-12-09 13:14:44.004033$GNVTG,133.39,T,,M,3.29,N,6.08,K,A*2E
###2023-12-09 13:14:44.005683$GNGST,181443.10,18.000,,,,0.096,0.070,0.170*5A
###2023-12-09 13:14:44.007019$GNZDA,181443.10,09,12,2023,00,00*7B
###2023-12-09 13:14:44.007664$GNEBP,,,,,,M*13
