###2023-12-09 13:19:11.006690$GAGSV,1,1,04,04,35,311,42,19,78,188,41,21,82,058,45,27,27,049,39*6A
###2023-12-09 13:19:11.009027$GBGSV,2,1,06,14,35,191,45,24,68,038,49,25,46,269,48,26,20,067,43*6F
###2023-12-09 13:19:11.010786$GBGSV,2,2,06,33,51,223,48,35,16,062,43,,,,,,,,*64
###2023-12-09 13:19:11.012045$GNVTG,0.84,T,,M,3.44,N,6.37,K,A*2E
###2023-12-09 13:19:11.013689$GNGST,181910.10,18.000,,,,0.099,0.070,0.170*5E
###2023-12-09 13:19:11.014989$GNZDA,181910.10,09,12,2023,00,00*70
###2023-12-09 13:19:11.015627$GNEBP,,,,,,M*13
###2023-12-09 13:19:11.181130$GNGGA,181910.30,4138.0671882,N,07032.3103969,W,1,24,0.7,13.223,M,-29.743,M,0.0,*56
###2023-12-09 13:19:11.381055$GNGGA,181910.50,4138.0673793,N,07032.3103665,W,1,24,0.7,13.217,M,-29.743,M,0.0,*59
###2023-12-09 13:19:11.581932$GNGGA,181910.70,4138.0675680,N,07032.3103544,W,1,24,0.7,13.228,M,-29.743,M,0.0,*52
###2023-12-09 13:19:11.779846$GNGGA,181910.90,4138.0677607,N,07032.3103616,W,1,24,0.7,13.240,M,-29.743,M,0.0,*5B
###2023-12-09 13:19:11.985529$GNRMC,181911.10,A,4138.0679567,N,07032.3103583,W,3.46,1.78,091223,,,A*5D
###2023-12-09 13:19:11.988394$GNGGA,181911.10,4138.0679567,N,07032.3103583,W,1,24,0.7,13.238,M,-29.743,M,0.0,*59
###2023-12-09 13:19:11.990182$GPGSA,A,3,03,04,16,26,28,29,31,,,,,,1.1,0.7,0.9*3B
###2023-12-09 13:19:11.991898$GLGSA,A,3,65,71,72,73,74,75,,,,,,,1.1,0.7,0.9*25
###2023-12-09 13:19:11.993475$GAGSA,A,3,04,19,21,27,,,,,,,,,1.1,0.7,0.9*27
###2023-12-09 13:19:11.995191$GBGSA,A,3,14,24,25,26,33,35,,,,,,,1.1,0.7,0.9*28
###2023-12-09 13:19:11.997495$GPGSV,2,1,07,03,31,253,43,04,40,310,44,16,58,216,46,26,88,205,48*7F
###2023-12-09 13:19:11.999538$GPGSV,2,2,07,28,43,078,44,29,23,053,40,31,64,053,46,,,,*40
###2023-12-09 13:19:12.001849$GLGSV,2,1,06,65,32,324,41,71,31,174,45,72,69,237,47,73,28,047,42*61
###2023-12-09 13:19:12.003500$GLGSV,2,2,06,74,65,,41,75,38,262,47,,,,,,,,*5A
###2023-12-09 13:19:12.005823$GAGSV,1,1,04,04,35,311,42,19,78,188,40,21,82,058,45,27,27,049,39*6B
###2023-12-09 13:19:12.008147$GBGSV,2,1,06,14,35,191,45,24,68,038,48,25,46,269,48,26,20,067,42*6F
###2023-12-09 13:19:12.009886$GBGSV,2,2,06,33,51,223,48,35,16,062,43,,,,,,,,*64
###2023-12-09 13:19:12.011152$GNVTG,1.78,T,,M,3.46,N,6.41,K,A*2F
###2023-12-09 13:19:12.012794$GNGST,181911.10,18.000,,,,0.098,0.070,0.170*5E
###2023-12-09 13:19:12.014076$GNZDA,181911.10,09,12,2023,00,00*71
###2023-12-09 13:19:12.014724$GNEBP,,,,,,M*13
###2023-12-09 13:19:12.181035$GNGGA,181911.30,4138.0681528,N,07032.3103586,W,1,24,0.7,13.245,M,-29.743,M,0.0,*58
###2023-12-09 13:19:12.381038$GNGGA,181911.50,4138.0683545,N,07032.3103658,W,1,24,0.7,13.249,M,-29.743,M,0.0,*5B
###2023-12-09 13:19:12.581758$GNGGA,181911.70,4138.0685565,N,07032.3103782,W,1,24,0.7,13.249,M,-29.743,M,0.0,*5B
###2023-12-09 13:19:12.781787$GNGGA,181911.90,4138.0687593,N,07032.3103929,W,1,24,0.7,13.248,M,-29.743,M,0.0,*50
###2023-12-09 13:19:12.984393$GNRMC,181912.10,A,4138.0689635,N,07032.3103847,W,3.65,4.62,091223,,,A*5F
###2023-12-09 13:19:12.987276$GNGGA,181912.10,4138.0689635,N,07032.3103847,W,1,24,0.7,13.247,M,-29.743,M,0.0,*5C
###2023-12-09 13:19:12.989070$GPGSA,A,3,03,04,16,26,28,29,31,,,,,,1.1,0.7,0.9*3B
###2023-12-09 13:19:12.990798$GLGSA,A,3,65,71,72,73,74,75,,,,,,,1.1,0.7,0.9*25
###2023-12-09 13:19:12.992381$GAGSA,A,3,04,19,21,27,,,,,,,,,1.1,0.7,0.9*27
###2023-12-09 13:19:12.994091$GBGSA,A,3,14,24,25,26,33,35,,,,,,,1.1,0.7,0.9*28
###2023-12-09 13:19:12.996427$GPGSV,2,1,07,03,31,253,43,04,40,310,44,16,58,216,46,26,88,205,48*7F
###2023-12-09 13:19:12.998469$GPGSV,2,2,07,28,43,078,44,29,23,053,39,31,64,053,46,,,,*4E
###2023-12-09 13:19:13.000840$GLGSV,2,1,06,65,32,324,42,71,31,174,46,72,69,237,47,73,28,047,40*63
###2023-12-09 13:19:13.002488$GLGSV,2,2,06,74,65,,41,75,38,262,47,,,,,,,,*5A
###2023-12-09 13:19:13.004828$GAGSV,1,1,04,04,35,311,42,19,78,188,41,21,82,058,46,27,27,049,38*68
###2023-12-09 13:19:13.007163$GBGSV,2,1,06,14,35,191,45,24,68,038,48,25,46,269,48,26,20,067,43*6E
###2023-12-09 13:19:13.008902$GBGSV,2,2,06,33,51,223,48,35,16,062,43,,,,,,,,*64
###2023-12-09 13:19:13.010155$GNVTG,4.62,T,,M,3.65,N,6.77,K,A*25
###2023-12-09 13:19:13.011807$GNGST,181912.10,18.000,,,,0.098,0.070,0.170*5D
###2023-12-09 13:19:13.013089$GNZDA,181912.10,09,12,2023,00,00*72
###2023-12-09 13:19:13.013722$GNEBP,,,,,,M*13
###2023-12-09 13:19:13.181233$GNGGA,181912.30,4138.0691646,N,07032.3103665,W,1,24,0.7,13.246,M,-29.743,M,0.0,*5C
###2023-12-09 13:19:13.381650$GNGGA,181912.50,4138.0693630,N,07032.3103638,W,1,24,0.7,13.249,M,-29.743,M,0.0,*5E
###2023-12-09 13:19:13.580853$GNGGA,181912.70,4138.0695570,N,07032.3103725,W,1,24,0.7,13.253,M,-29.743,M,0.0,*5B
###2023-12-09 13:19:13.781813$GNGGA,181912.90,4138.0697505,N,07032.3103671,W,1,24,0.7,13.254,M,-29.743,M,0.0,*52
###2023-12-09 13:19:13.986006$GNRMC,181913.10,A,4138.0699434,N,07032.3103443,W,3.50,6.85,091223,,,A*59
###2023-12-09 13:19:13.988892$GNGGA,181913.10,4138.0699434,N,07032.3103443,W,1,24,0.7,13.254,M,-29.743,M,0.0,*55
###2023-12-09 13:19:13.990691$GPGSA,A,3,03,04,16,26,28,29,31,,,,,,1.1,0.7,0.9*3B
###2023-12-09 13:19:13.992406$GLGSA,A,3,65,71,72,73,74,75,,,,,,,1.1,0.7,0.9*25
###2023-12-09 13:19:13.994014$GAGSA,A,3,04,19,21,27,,,,,,,,,1.1,0.7,0.9*27
###2023-12-09 13:19:13.995733$GBGSA,A,3,14,24,25,26,33,35,,,,,,,1.1,0.7,0.9*28
###2023-12-09 13:19:13.998042$GPGSV,2,1,07,03,31,253,43,04,40,310,44,16,58,216,46,26,88,205,48*7F
###2023-12-09 13:19:14.000081$GPGSV,2,2,07,28,43,078,44,29,23,053,39,31,64,053,46,,,,*4E
###2023-12-09 13:19:14.002395$GLGSV,2,1,06,65,32,324,42,71,31,174,45,72,69,237,47,73,28,047,40*60
###2023-12-09 13:19:14.004061$GLGSV,2,2,06,74,65,,41,75,38,262,46,,,,,,,,*5B
###2023-12-09 13:19:14.006379$GAGSV,1,1,04,04,35,311,42,19,78,188,41,21,82,058,45,27,27,049,39*6A
###2023-12-09 13:19:14.008707$GBGSV,2,1,06,14,35,191,43,24,68,038,46,25,46,269,46,26,20,067,42*69
###2023-12-09 13:19:14.010452$GBGSV,2,2,06,33,51,223,46,35,16,062,41,,,,,,,,*68
###2023-12-09 13:19:14.011713$GNVTG,6.85,T,,M,3.50,N,6.48,K,A*24
###2023-12-09 13:19:14.013351$GNGST,181913.10,18.000,,,,0.099,0.070,0.170*5D
###2023-12-09 13:19:14.014651$GNZDA,181913.10,09,12,2023,00,00*73
###2023-12-09 13:19:14.015288$GNEBP,,,,,,M*13
###2023-12-09 13:19:14.181681$GNGGA,181913.30,4138.0701381,N,07032.3103183,W,1,24,0.7,13.248,M,-29.743,M,0.0,*5A
###2023-12-09 13:19:14.381720$GNGGA,181913.50,4138.0703311,N,07032.3103064,W,1,24,0.7,13.251,M,-29.743,M,0.0,*57
###2023-12-09 13:19:14.582389$GNGGA,181913.70,4138.0705245,N,07032.3103026,W,1,24,0.7,13.261,M,-29.743,M,0.0,*56
###2023-12-09 13:19:14.782366$GNGGA,181913.90,4138.0707229,N,07032.3102721,W,1,24,0.7,13.266,M,-29.743,M,0.0,*56
###2023-12-09 13:19:14.986099$GNRMC,181914.10,A,4138.0709182,N,07032.3102319,W,3.42,5.95,091223,,,A*56
###2023-12-09 13:19:14.989590$GNGGA,181914.10,4138.0709182,N,07032.3102319,W,1,24,0.7,13.262,M,-29.743,M,0.0,*5E
###2023-12-09 13:19:14.991768$GPGSA,A,3,03,04,16,26,28,29,31,,,,,,1.1,0.7,0.9*3B
###2023-12-09 13:19:14.993833$GLGSA,A,3,65,71,72,73,74,75,,,,,,,1.1,0.7,0.9*25
###2023-12-09 13:19:14.995749$GAGSA,A,3,04,19,21,27,,,,,,,,,1.1,0.7,0.9*27
###2023-12-09 13:19:14.997810$GBGSA,A,3,14,24,25,26,33,35,,,,,,,1.1,0.7,0.9*28
###2023-12-09 13:19:15.000629$GPGSV,2,1,07,03,31,253,42,04,40,310,44,16,58,216,45,26,88,205,48*7D
###2023-12-09 13:19:15.003092$GPGSV,2,2,07,28,43,078,44,29,23,053,41,31,64,053,46,,,,*41
###2023-12-09 13:19:15.005897$GLGSV,2,1,06,65,32,324,41,71,31,174,45,72,69,237,47,73,28,047,41*62
###2023-12-09 13:19:15.007888$GLGSV,2,2,06,74,65,,41,75,38,262,47,,,,,,,,*5A
###2023-12-09 13:19:15.010698$GAGSV,1,1,04,04,35,311,42,19,78,188,41,21,82,058,45,27,27,049,40*64
###2023-12-09 13:19:15.013500$GBGSV,2,1,06,14,35,191,45,24,68,038,47,25,46,269,47,26,20,067,43*6E
###2023-12-09 13:19:15.015596$GBGSV,2,2,06,33,51,223,47,35,16,062,43,,,,,,,,*6B
###2023-12-09 13:19:15.017144$GNVTG,5.95,T,,M,3.42,N,6.34,K,A*2E
###2023-12-09 13:19:15.019132$GNGST,181914.10,18.000,,,,0.099,0.071,0.170*5B
###2023-12-09 13:19:15.020688$GNZDA,181914.10,09,12,2023,00,00*74
###2023-12-09 13:19:15.021454$GNEBP,,,,,,M*13
###2023-12-09 13:19:15.184823$GNGGA,181914.30,4138.0711091,N,07032.3102324,W,1,24,0.7,13.272,M,-29.743,M,0.0,*59
###2023-12-09 13:19:15.381741$GNGGA,181914.50,4138.0713056,N,07032.3102331,W,1,24,0.7,13.273,M,-29.743,M,0.0,*53
###2023-12-09 13:19:15.584658$GNGGA,181914.70,4138.0715004,N,07032.3101942,W,1,24,0.7,13.255,M,-29.743,M,0.0,*59
###2023-12-09 13:19:15.783356$GNGGA,181914.90,4138.0716944,N,07032.3101665,W,1,24,0.7,13.256,M,-29.743,M,0.0,*50
###2023-12-09 13:19:15.987063$GNRMC,181915.10,A,4138.0718892,N,07032.3101586,W,3.56,0.19,091223,,,A*58
###2023-12-09 13:19:15.990520$GNGGA,181915.10,4138.0718892,N,07032.3101586,W,1,24,0.7,13.258,M,-29.743,M,0.0,*5D
###2023-12-09 13:19:15.992724$GPGSA,A,3,03,04,16,26,28,29,31,,,,,,1.1,0.7,0.9*3B
###2023-12-09 13:19:15.994868$GLGSA,A,3,65,71,72,73,74,75,,,,,,,1.1,0.7,0.9*25
###2023-12-09 13:19:15.996781$GAGSA,A,3,04,19,21,27,,,,,,,,,1.1,0.7,0.9*27
