###2023-12-09 12:45:50.968997$GAGSV,1,1,04,04,24,312,42,19,84,283,40,21,82,167,46,27,38,049,45*68
###2023-12-09 12:45:50.971385$GBGSV,2,1,05,14,50,195,46,24,78,005,49,25,36,256,45,26,31,059,46*69
###2023-12-09 12:45:50.972867$GBGSV,2,2,05,33,61,245,48,,,,,,,,,,,,*56
###2023-12-09 12:45:50.974206$GNVTG,252.26,T,,M,1.09,N,2.02,K,A*2A
###2023-12-09 12:45:50.975882$GNGST,174550.10,18.000,,,,0.077,0.069,0.160*55
###2023-12-09 12:45:50.977190$GNZDA,174550.10,09,12,2023,00,00*72
###2023-12-09 12:45:50.977832$GNEBP,,,,,,M*13
###2023-12-09 12:45:51.145653$GNGGA,174550.30,4138.0496118,N,07032.3852795,W,1,24,0.6,13.373,M,-29.744,M,0.0,*57
###2023-12-09 12:45:51.346592$GNGGA,174550.50,4138.0495898,N,07032.3853468,W,1,24,0.6,13.390,M,-29.744,M,0.0,*5E
###2023-12-09 12:45:51.546446$GNGGA,174550.70,4138.0495746,N,07032.3854263,W,1,24,0.6,13.404,M,-29.744,M,0.0,*50
###2023-12-09 12:45:51.747413$GNGGA,174550.90,4138.0495523,N,07032.3854951,W,1,24,0.6,13.384,M,-29.744,M,0.0,*5A
###2023-12-09 12:45:51.952477$GNRMC,174551.10,A,4138.0495219,N,07032.3855383,W,0.76,245.23,091223,,,A*51
###2023-12-09 12:45:51.955360$GNGGA,174551.10,4138.0495219,N,07032.3855383,W,1,24,0.6,13.348,M,-29.744,M,0.0,*59
###2023-12-09 12:45:51.957217$GPGSA,A,3,03,04,16,26,28,29,31,32,,,,,1.1,0.6,0.9*3B
###2023-12-09 12:45:51.958954$GLGSA,A,3,65,71,72,73,74,75,,,,,,,1.1,0.6,0.9*24
###2023-12-09 12:45:51.960541$GAGSA,A,3,04,19,21,27,,,,,,,,,1.1,0.6,0.9*26
###2023-12-09 12:45:51.962190$GBGSA,A,3,14,24,25,26,33,,,,,,,,1.1,0.6,0.9*2F
###2023-12-09 12:45:51.964549$GPGSV,2,1,08,03,37,270,43,04,26,311,41,16,42,209,42,26,72,208,47*75
###2023-12-09 12:45:51.966906$GPGSV,2,2,08,28,54,062,45,29,26,068,43,31,72,018,48,32,25,137,46*7A
###2023-12-09 12:45:51.969259$GLGSV,2,1,06,65,17,329,39,71,50,171,47,72,70,297,45,73,43,037,47*6B
###2023-12-09 12:45:51.971026$GLGSV,2,2,06,74,71,310,43,75,26,245,39,,,,,,,,*6C
###2023-12-09 12:45:51.973364$GAGSV,1,1,04,04,24,312,40,19,84,283,40,21,82,167,46,27,38,049,45*6A
###2023-12-09 12:45:51.975709$GBGSV,2,1,05,14,50,195,45,24,78,005,49,25,36,256,43,26,31,059,46*6C
###2023-12-09 12:45:51.977172$GBGSV,2,2,05,33,61,245,47,,,,,,,,,,,,*59
###2023-12-09 12:45:51.978534$GNVTG,245.23,T,,M,0.76,N,1.40,K,A*25
###2023-12-09 12:45:51.980208$GNGST,174551.10,18.000,,,,0.077,0.069,0.160*54
###2023-12-09 12:45:51.981507$GNZDA,174551.10,09,12,2023,00,00*73
###2023-12-09 12:45:51.982147$GNEBP,,,,,,M*13
###2023-12-09 12:45:52.146146$GNGGA,174551.30,4138.0494963,N,07032.3855929,W,1,24,0.6,13.347,M,-29.744,M,0.0,*59
###2023-12-09 12:45:52.346410$GNGGA,174551.50,4138.0494856,N,07032.3856775,W,1,24,0.6,13.371,M,-29.745,M,0.0,*58
###2023-12-09 12:45:52.547084$GNGGA,174551.70,4138.0494729,N,07032.3857496,W,1,24,0.6,13.386,M,-29.745,M,0.0,*5A
###2023-12-09 12:45:52.756341$GNGGA,174551.90,4138.0494441,N,07032.3857879,W,1,24,0.6,13.388,M,-29.745,M,0.0,*5A
###2023-12-09 12:45:52.946326$GNRMC,174552.10,A,4138.0494107,N,07032.3858119,W,0.66,257.23,091223,,,A*51
###2023-12-09 12:45:52.949220$GNGGA,174552.10,4138.0494107,N,07032.3858119,W,1,24,0.6,13.357,M,-29.745,M,0.0,*54
###2023-12-09 12:45:52.951100$GPGSA,A,3,03,04,16,26,28,29,31,32,,,,,1.1,0.6,0.9*3B
###2023-12-09 12:45:52.952814$GLGSA,A,3,65,71,72,73,74,75,,,,,,,1.1,0.6,0.9*24
###2023-12-09 12:45:52.954391$GAGSA,A,3,04,19,21,27,,,,,,,,,1.1,0.6,0.9*26
###2023-12-09 12:45:52.956053$GBGSA,A,3,14,24,25,26,33,,,,,,,,1.1,0.6,0.9*2F
###2023-12-09 12:45:52.958381$GPGSV,2,1,08,03,37,270,42,04,26,311,40,16,42,209,42,26,72,208,46*74
###2023-12-09 12:45:52.960732$GPGSV,2,2,08,28,54,062,45,29,26,068,42,31,72,018,47,32,25,137,45*77
###2023-12-09 12:45:52.963077$GLGSV,2,1,06,65,17,329,39,71,50,171,47,72,70,297,46,73,43,037,47*68
###2023-12-09 12:45:52.964823$GLGSV,2,2,06,74,71,310,43,75,26,245,40,,,,,,,,*62
###2023-12-09 12:45:52.967155$GAGSV,1,1,04,04,24,312,39,19,84,283,41,21,82,167,46,27,38,049,44*64
###2023-12-09 12:45:52.969485$GBGSV,2,1,05,14,50,195,45,24,78,005,49,25,36,256,44,26,31,059,45*68
###2023-12-09 12:45:52.970946$GBGSV,2,2,05,33,61,245,48,,,,,,,,,,,,*56
###2023-12-09 12:45:52.972274$GNVTG,257.23,T,,M,0.66,N,1.22,K,A*23
###2023-12-09 12:45:52.973923$GNGST,174552.10,18.000,,,,0.077,0.068,0.160*56
###2023-12-09 12:45:52.975234$GNZDA,174552.10,09,12,2023,00,00*70
###2023-12-09 12:45:52.975872$GNEBP,,,,,,M*13
###2023-12-09 12:45:53.145682$GNGGA,174552.30,4138.0493888,N,07032.3858643,W,1,24,0.6,13.342,M,-29.745,M,0.0,*53
###2023-12-09 12:45:53.346333$GNGGA,174552.50,4138.0493763,N,07032.3859439,W,1,24,0.6,13.364,M,-29.745,M,0.0,*55
###2023-12-09 12:45:53.547119$GNGGA,174552.70,4138.0493607,N,07032.3860104,W,1,24,0.6,13.376,M,-29.745,M,0.0,*56
###2023-12-09 12:45:53.748769$GNGGA,174552.90,4138.0493357,N,07032.3860414,W,1,24,0.6,13.391,M,-29.745,M,0.0,*55
###2023-12-09 12:45:53.946510$GNRMC,174553.10,A,4138.0493080,N,07032.3860513,W,0.56,260.13,091223,,,A*58
###2023-12-09 12:45:53.949426$GNGGA,174553.10,4138.0493080,N,07032.3860513,W,1,24,0.6,13.367,M,-29.745,M,0.0,*5A
###2023-12-09 12:45:53.951293$GPGSA,A,3,03,04,16,26,28,29,31,32,,,,,1.1,0.6,0.9*3B
###2023-12-09 12:45:53.953007$GLGSA,A,3,65,71,72,73,74,75,,,,,,,1.1,0.6,0.9*24
###2023-12-09 12:45:53.954601$GAGSA,A,3,04,19,21,27,,,,,,,,,1.1,0.6,0.9*26
###2023-12-09 12:45:53.956237$GBGSA,A,3,14,24,25,26,33,,,,,,,,1.1,0.6,0.9*2F
###2023-12-09 12:45:53.958548$GPGSV,2,1,08,03,37,270,42,04,26,311,41,16,42,209,42,26,72,208,47*74
###2023-12-09 12:45:53.960899$GPGSV,2,2,08,28,54,062,46,29,26,068,41,31,72,018,48,32,25,137,45*78
###2023-12-09 12:45:53.963253$GLGSV,2,1,06,65,17,329,40,71,50,171,46,72,70,297,46,73,43,037,46*66
###2023-12-09 12:45:53.964994$GLGSV,2,2,06,74,71,310,43,75,26,245,39,,,,,,,,*6C
###2023-12-09 12:45:53.967336$GAGSV,1,1,04,04,24,312,41,19,84,283,41,21,82,167,46,27,38,049,44*6B
###2023-12-09 12:45:53.969673$GBGSV,2,1,05,14,50,195,44,24,78,005,48,25,36,256,44,26,31,059,44*69
###2023-12-09 12:45:53.971132$GBGSV,2,2,05,33,61,245,47,,,,,,,,,,,,*59
###2023-12-09 12:45:53.972451$GNVTG,260.13,T,,M,0.56,N,1.04,K,A*23
###2023-12-09 12:45:53.974096$GNGST,174553.10,18.000,,,,0.077,0.069,0.160*56
###2023-12-09 12:45:53.975402$GNZDA,174553.10,09,12,2023,00,00*71
###2023-12-09 12:45:53.976043$GNEBP,,,,,,M*13
###2023-12-09 12:45:54.145669$GNGGA,174553.30,4138.0492847,N,07032.3860930,W,1,24,0.6,13.347,M,-29.745,M,0.0,*55
###2023-12-09 12:45:54.346288$GNGGA,174553.50,4138.0492743,N,07032.3861751,W,1,24,0.6,13.370,M,-29.745,M,0.0,*54
###2023-12-09 12:45:54.545561$GNGGA,174553.70,4138.0492633,N,07032.3862479,W,1,24,0.6,13.382,M,-29.745,M,0.0,*57
###2023-12-09 12:45:54.746254$GNGGA,174553.90,4138.0492380,N,07032.3862671,W,1,24,0.6,13.398,M,-29.745,M,0.0,*55
###2023-12-09 12:45:54.947210$GNRMC,174554.10,A,4138.0492096,N,07032.3862638,W,0.43,261.54,091223,,,A*57
###2023-12-09 12:45:54.950053$GNGGA,174554.10,4138.0492096,N,07032.3862638,W,1,24,0.6,13.374,M,-29.745,M,0.0,*51
###2023-12-09 12:45:54.951921$GPGSA,A,3,03,04,16,26,28,29,31,32,,,,,1.1,0.6,0.9*3B
###2023-12-09 12:45:54.953628$GLGSA,A,3,65,71,72,73,74,75,,,,,,,1.1,0.6,0.9*24
###2023-12-09 12:45:54.955220$GAGSA,A,3,04,19,21,27,,,,,,,,,1.1,0.6,0.9*26
###2023-12-09 12:45:54.956859$GBGSA,A,3,14,24,25,26,33,,,,,,,,1.1,0.6,0.9*2F
###2023-12-09 12:45:54.959189$GPGSV,2,1,08,03,37,270,43,04,26,311,41,16,42,209,43,26,72,208,47*74
###2023-12-09 12:45:54.961529$GPGSV,2,2,08,28,54,062,45,29,26,068,43,31,72,018,48,32,25,137,46*7A
###2023-12-09 12:45:54.963908$GLGSV,2,1,06,65,17,329,40,71,50,171,46,72,70,297,47,73,43,037,46*67
###2023-12-09 12:45:54.965665$GLGSV,2,2,06,74,71,310,43,75,26,245,39,,,,,,,,*6C
###2023-12-09 12:45:54.968001$GAGSV,1,1,04,04,24,312,40,19,84,283,41,21,82,167,46,27,38,049,44*6A
###2023-12-09 12:45:54.970341$GBGSV,2,1,05,14,50,195,44,24,78,005,48,25,36,256,45,26,31,059,43*6F
###2023-12-09 12:45:54.971816$GBGSV,2,2,05,33,61,245,47,,,,,,,,,,,,*59
###2023-12-09 12:45:54.973142$GNVTG,261.54,T,,M,0.43,N,0.79,K,A*2E
###2023-12-09 12:45:54.974804$GNGST,174554.10,18.000,,,,0.077,0.069,0.160*51
###2023-12-09 12:45:54.976097$GNZDA,174554.10,09,12,2023,00,00*76
###2023-12-09 12:45:54.976735$GNEBP,,,,,,M*13
###2023-12-09 12:45:55.145471$GNGGA,174554.30,4138.0491936,N,07032.3863087,W,1,24,0.6,13.363,M,-29.745,M,0.0,*56
###2023-12-09 12:45:55.347485$GNGGA,174554.50,4138.0491850,N,07032.3863955,W,1,24,0.6,13.372,M,-29.745,M,0.0,*57
###2023-12-09 12:45:55.546542$GNGGA,174554.70,4138.0491685,N,07032.3864556,W,1,24,0.6,13.369,M,-29.745,M,0.0,*51
###2023-12-09 12:45:55.746371$GNGGA,174554.90,4138.0491418,N,07032.3864548,W,1,24,0.6,13.379,M,-29.745,M,0.0,*57
###2023-12-09 12:45:55.951060$GNRMC,174555.10,A,4138.0491211,N,07032.3864638,W,0.52,258.81,091223,,,A*5C
###2023-12-09 12:45:55.954548$GNGGA,174555.10,4138.0491211,N,07032.3864638,W,1,24,0.6,13.375,M,-29.745,M,0.0,*59
###2023-12-09 12:45:55.956939$GPGSA,A,3,03,04,16,26,28,29,31,32,,,,,1.1,0.6,0.9*3B
###2023-12-09 12:45:55.959079$GLGSA,A,3,65,71,72,73,74,75,,,,,,,1.1,0.6,0.9*24
###2023-12-09 12:45:55.961000$GAGSA,A,3,04,19,21,27,,,,,,,,,1.1,0.6,0.9*26
