###2023-12-09 12:34:15.731566$GNGGA,173414.90,4138.0461585,N,07032.4233355,W,1,22,0.7,12.745,M,-29.745,M,0.0,*57
###2023-12-09 12:34:15.932255$GNRMC,173415.10,A,4138.0461597,N,07032.4233071,W,0.35,84.40,091223,,,A*63
###2023-12-09 12:34:15.935718$GNGGA,173415.10,4138.0461597,N,07032.4233071,W,1,22,0.7,12.752,M,-29.745,M,0.0,*5E
###2023-12-09 12:34:15.937962$GPGSA,A,3,03,04,16,26,28,29,31,32,,,,,1.2,0.7,1.0*31
###2023-12-09 12:34:15.939968$GLGSA,A,3,71,72,73,74,75,,,,,,,,1.2,0.7,1.0*2D
###2023-12-09 12:34:15.941878$GAGSA,A,3,04,19,21,27,,,,,,,,,1.2,0.7,1.0*2C
###2023-12-09 12:34:15.943902$GBGSA,A,3,14,24,25,26,33,,,,,,,,1.2,0.7,1.0*25
###2023-12-09 12:34:15.946738$GPGSV,2,1,08,03,39,277,42,04,22,311,42,16,36,207,43,26,65,206,48*71
###2023-12-09 12:34:15.949572$GPGSV,2,2,08,28,58,055,45,29,25,075,40,31,73,358,48,32,31,134,43*7B
###2023-12-09 12:34:15.952406$GLGSV,2,1,05,71,57,169,48,72,65,310,46,73,48,033,46,74,71,290,44*67
###2023-12-09 12:34:15.954157$GLGSV,2,2,05,75,22,241,40,,,,,,,,,,,,*51
###2023-12-09 12:34:15.956984$GAGSV,1,1,04,04,20,311,43,19,81,304,40,21,77,177,46,27,42,050,42*6C
###2023-12-09 12:34:15.959820$GBGSV,2,1,05,14,55,198,48,24,81,343,50,25,32,252,47,26,35,057,44*6A
###2023-12-09 12:34:15.961581$GBGSV,2,2,05,33,63,255,49,,,,,,,,,,,,*54
###2023-12-09 12:34:15.963153$GNVTG,84.40,T,,M,0.35,N,0.65,K,A*1E
###2023-12-09 12:34:15.965142$GNGST,173415.10,19.000,,,,0.083,0.076,0.180*58
###2023-12-09 12:34:15.966745$GNZDA,173415.10,09,12,2023,00,00*75
###2023-12-09 12:34:15.967516$GNEBP,,,,,,M*13
###2023-12-09 12:34:16.132024$GNGGA,173415.30,4138.0461649,N,07032.4232817,W,1,22,0.7,12.757,M,-29.745,M,0.0,*50
###2023-12-09 12:34:16.333335$GNGGA,173415.50,4138.0461778,N,07032.4232661,W,1,22,0.7,12.752,M,-29.745,M,0.0,*5F
###2023-12-09 12:34:16.532535$GNGGA,173415.70,4138.0461880,N,07032.4232499,W,1,22,0.7,12.748,M,-29.745,M,0.0,*5B
###2023-12-09 12:34:16.731738$GNGGA,173415.90,4138.0461953,N,07032.4232290,W,1,22,0.7,12.751,M,-29.745,M,0.0,*5D
###2023-12-09 12:34:16.934871$GNRMC,173416.10,A,4138.0462021,N,07032.4232053,W,0.31,84.40,091223,,,A*6E
###2023-12-09 12:34:16.938349$GNGGA,173416.10,4138.0462021,N,07032.4232053,W,1,22,0.7,12.765,M,-29.745,M,0.0,*53
###2023-12-09 12:34:16.940601$GPGSA,A,3,03,04,16,26,28,29,31,32,,,,,1.2,0.7,1.0*31
###2023-12-09 12:34:16.942601$GLGSA,A,3,71,72,73,74,75,,,,,,,,1.2,0.7,1.0*2D
###2023-12-09 12:34:16.944519$GAGSA,A,3,04,19,21,27,,,,,,,,,1.2,0.7,1.0*2C
###2023-12-09 12:34:16.946540$GBGSA,A,3,14,24,25,26,33,,,,,,,,1.2,0.7,1.0*25
###2023-12-09 12:34:16.949422$GPGSV,2,1,08,03,39,277,45,04,22,311,43,16,36,207,44,26,65,206,49*71
###2023-12-09 12:34:16.952270$GPGSV,2,2,08,28,58,055,44,29,25,075,40,31,73,358,47,32,31,134,42*74
###2023-12-09 12:34:16.955111$GLGSV,2,1,05,71,57,169,48,72,65,310,47,73,48,033,46,74,71,290,43*61
###2023-12-09 12:34:16.956875$GLGSV,2,2,05,75,22,241,40,,,,,,,,,,,,*51
###2023-12-09 12:34:16.960021$GAGSV,1,1,04,04,20,311,42,19,81,304,40,21,77,177,46,27,42,050,42*6D
###2023-12-09 12:34:16.962886$GBGSV,2,1,05,14,55,198,46,24,81,343,48,25,32,252,46,26,35,057,45*6D
###2023-12-09 12:34:16.964653$GBGSV,2,2,05,33,63,255,47,,,,,,,,,,,,*5A
###2023-12-09 12:34:16.966211$GNVTG,84.40,T,,M,0.31,N,0.58,K,A*14
###2023-12-09 12:34:16.968252$GNGST,173416.10,19.000,,,,0.084,0.076,0.180*5C
###2023-12-09 12:34:16.969818$GNZDA,173416.10,09,12,2023,00,00*76
###2023-12-09 12:34:16.970603$GNEBP,,,,,,M*13
###2023-12-09 12:34:17.131441$GNGGA,173416.30,4138.0462068,N,07032.4231844,W,1,22,0.7,12.767,M,-29.745,M,0.0,*53
###2023-12-09 12:34:17.332856$GNGGA,173416.50,4138.0462142,N,07032.4231657,W,1,22,0.7,12.763,M,-29.745,M,0.0,*54
###2023-12-09 12:34:17.532849$GNGGA,173416.70,4138.0462272,N,07032.4231529,W,1,22,0.7,12.765,M,-29.745,M,0.0,*5A
###2023-12-09 12:34:17.732036$GNGGA,173416.90,4138.0462401,N,07032.4231331,W,1,22,0.7,12.768,M,-29.745,M,0.0,*54
###2023-12-09 12:34:17.932807$GNRMC,173417.10,A,4138.0462450,N,07032.4231106,W,0.25,84.40,091223,,,A*6A
###2023-12-09 12:34:17.935682$GNGGA,173417.10,4138.0462450,N,07032.4231106,W,1,22,0.7,12.777,M,-29.745,M,0.0,*51
###2023-12-09 12:34:17.937532$GPGSA,A,3,03,04,16,26,28,29,31,32,,,,,1.2,0.7,1.0*31
###2023-12-09 12:34:17.939189$GLGSA,A,3,71,72,73,74,75,,,,,,,,1.2,0.7,1.0*2D
###2023-12-09 12:34:17.940777$GAGSA,A,3,04,19,21,27,,,,,,,,,1.2,0.7,1.0*2C
###2023-12-09 12:34:17.942420$GBGSA,A,3,14,24,25,26,33,,,,,,,,1.2,0.7,1.0*25
###2023-12-09 12:34:17.944768$GPGSV,2,1,08,03,39,277,45,04,22,311,42,16,36,207,45,26,65,206,48*70
###2023-12-09 12:34:17.947142$GPGSV,2,2,08,28,58,055,44,29,25,075,40,31,73,358,47,32,31,134,43*75
###2023-12-09 12:34:17.949478$GLGSV,2,1,05,71,57,169,48,72,65,310,47,73,48,033,47,74,71,290,43*60
###2023-12-09 12:34:17.950950$GLGSV,2,2,05,75,22,241,40,,,,,,,,,,,,*51
###2023-12-09 12:34:17.953271$GAGSV,1,1,04,04,20,311,41,19,81,304,41,21,77,177,46,27,42,050,43*6E
###2023-12-09 12:34:17.955617$GBGSV,2,1,05,14,55,198,46,24,81,343,49,25,32,252,47,26,35,057,45*6D
###2023-12-09 12:34:17.957067$GBGSV,2,2,05,33,63,255,47,,,,,,,,,,,,*5A
###2023-12-09 12:34:17.958356$GNVTG,84.40,T,,M,0.25,N,0.47,K,A*1F
###2023-12-09 12:34:17.960025$GNGST,173417.10,19.000,,,,0.085,0.077,0.180*5D
###2023-12-09 12:34:17.961318$GNZDA,173417.10,09,12,2023,00,00*77
###2023-12-09 12:34:17.961958$GNEBP,,,,,,M*13
###2023-12-09 12:34:18.133390$GNGGA,173417.30,4138.0462437,N,07032.4230927,W,1,22,0.7,12.777,M,-29.745,M,0.0,*58
###2023-12-09 12:34:18.339493$GNGGA,173417.50,4138.0462545,N,07032.4230776,W,1,22,0.7,12.772,M,-29.745,M,0.0,*55
###2023-12-09 12:34:18.531959$GNGGA,173417.70,4138.0462740,N,07032.4230624,W,1,22,0.7,12.776,M,-29.745,M,0.0,*52
###2023-12-09 12:34:18.730885$GNGGA,173417.90,4138.0462837,N,07032.4230458,W,1,22,0.7,12.777,M,-29.745,M,0.0,*5B
###2023-12-09 12:34:18.934672$GNRMC,173418.10,A,4138.0462810,N,07032.4230266,W,0.29,84.40,091223,,,A*65
###2023-12-09 12:34:18.937527$GNGGA,173418.10,4138.0462810,N,07032.4230266,W,1,22,0.7,12.781,M,-29.745,M,0.0,*5B
###2023-12-09 12:34:18.939393$GPGSA,A,3,03,04,16,26,28,29,31,32,,,,,1.2,0.7,1.0*31
###2023-12-09 12:34:18.941046$GLGSA,A,3,71,72,73,74,75,,,,,,,,1.2,0.7,1.0*2D
###2023-12-09 12:34:18.942643$GAGSA,A,3,04,19,21,27,,,,,,,,,1.2,0.7,1.0*2C
###2023-12-09 12:34:18.944296$GBGSA,A,3,14,24,25,26,33,,,,,,,,1.2,0.7,1.0*25
###2023-12-09 12:34:18.946649$GPGSV,2,1,08,03,39,277,43,04,22,311,41,16,37,207,46,26,65,206,48*77
###2023-12-09 12:34:18.948998$GPGSV,2,2,08,28,58,055,45,29,25,075,39,31,73,358,48,32,31,134,42*74
###2023-12-09 12:34:18.951348$GLGSV,2,1,05,71,57,169,48,72,65,310,46,73,48,033,47,74,71,290,43*61
###2023-12-09 12:34:18.952802$GLGSV,2,2,05,75,22,241,39,,,,,,,,,,,,*5F
###2023-12-09 12:34:18.955143$GAGSV,1,1,04,04,20,311,41,19,81,304,41,21,77,177,47,27,42,050,44*68
###2023-12-09 12:34:18.957484$GBGSV,2,1,05,14,55,198,46,24,81,343,49,25,32,252,45,26,35,057,45*6F
###2023-12-09 12:34:18.958963$GBGSV,2,2,05,33,63,255,48,,,,,,,,,,,,*55
###2023-12-09 12:34:18.960257$GNVTG,84.40,T,,M,0.29,N,0.54,K,A*11
###2023-12-09 12:34:18.961909$GNGST,173418.10,19.000,,,,0.085,0.078,0.180*5D
###2023-12-09 12:34:18.963216$GNZDA,173418.10,09,12,2023,00,00*78
###2023-12-09 12:34:18.963856$GNEBP,,,,,,M*13
###2023-12-09 12:34:19.133848$GNGGA,173418.30,4138.0462860,N,07032.4230074,W,1,22,0.7,12.780,M,-29.745,M,0.0,*5E
###2023-12-09 12:34:19.335121$GNGGA,173418.50,4138.0463055,N,07032.4229959,W,1,22,0.7,12.786,M,-29.745,M,0.0,*5F
###2023-12-09 12:34:19.533724$GNGGA,173418.70,4138.0463230,N,07032.4229847,W,1,22,0.7,12.785,M,-29.745,M,0.0,*51
###2023-12-09 12:34:19.732744$GNGGA,173418.90,4138.0463265,N,07032.4229663,W,1,22,0.7,12.791,M,-29.745,M,0.0,*52
###2023-12-09 12:34:19.935915$GNRMC,173419.10,A,4138.0463259,N,07032.4229438,W,0.29,84.40,091223,,,A*67
###2023-12-09 12:34:19.938787$GNGGA,173419.10,4138.0463259,N,07032.4229438,W,1,22,0.7,12.791,M,-29.745,M,0.0,*58
###2023-12-09 12:34:19.940639$GPGSA,A,3,03,04,16,26,28,29,31,32,,,,,1.2,0.7,1.0*31
###2023-12-09 12:34:19.942297$GLGSA,A,3,71,72,73,74,75,,,,,,,,1.2,0.7,1.0*2D
###2023-12-09 12:34:19.943889$GAGSA,A,3,04,19,21,27,,,,,,,,,1.2,0.7,1.0*2C
###2023-12-09 12:34:19.945538$GBGSA,A,3,14,24,25,26,33,,,,,,,,1.2,0.7,1.0*25
###2023-12-09 12:34:19.948152$GPGSV,2,1,08,03,39,277,44,04,22,311,41,16,37,207,45,26,65,206,48*73
###2023-12-09 12:34:19.950531$GPGSV,2,2,08,28,58,055,44,29,25,075,41,31,73,358,47,32,31,134,44*73
###2023-12-09 12:34:19.952907$GLGSV,2,1,05,71,57,169,48,72,65,310,46,73,48,033,47,74,71,290,43*61
###2023-12-09 12:34:19.954372$GLGSV,2,2,05,75,22,241,38,,,,,,,,,,,,*5E
###2023-12-09 12:34:19.956727$GAGSV,1,1,04,04,20,311,41,19,81,304,41,21,77,177,46,27,42,050,43*6E
###2023-12-09 12:34:19.959077$GBGSV,2,1,05,14,55,198,47,24,81,343,50,25,32,252,47,26,35,057,46*67
###2023-12-09 12:34:19.960534$GBGSV,2,2,05,33,63,255,49,,,,,,,,,,,,*54
###2023-12-09 12:34:19.961824$GNVTG,84.40,T,,M,0.29,N,0.54,K,A*11
###2023-12-09 12:34:19.963491$GNGST,173419.10,19.000,,,,0.086,0.079,0.180*5E
