###2023-12-09 12:44:44.144566$GNGGA,174443.30,4138.0445047,N,07032.3899334,W,1,24,0.6,13.400,M,-29.745,M,0.0,*5B
###2023-12-09 12:44:44.344837$GNGGA,174443.50,4138.0446502,N,07032.3900219,W,1,24,0.6,13.391,M,-29.745,M,0.0,*5A
###2023-12-09 12:44:44.544814$GNGGA,174443.70,4138.0447955,N,07032.3901094,W,1,24,0.6,13.385,M,-29.745,M,0.0,*54
###2023-12-09 12:44:44.744099$GNGGA,174443.90,4138.0449401,N,07032.3902001,W,1,24,0.6,13.381,M,-29.745,M,0.0,*53
###2023-12-09 12:44:44.953115$GNRMC,174444.10,A,4138.0450820,N,07032.3902973,W,2.90,331.23,091223,,,A*53
###2023-12-09 12:44:44.955986$GNGGA,174444.10,4138.0450820,N,07032.3902973,W,1,24,0.6,13.385,M,-29.745,M,0.0,*53
###2023-12-09 12:44:44.957840$GPGSA,A,3,03,04,16,26,28,29,31,32,,,,,1.1,0.6,0.9*3B
###2023-12-09 12:44:44.959572$GLGSA,A,3,65,71,72,73,74,75,,,,,,,1.1,0.6,0.9*24
###2023-12-09 12:44:44.961145$GAGSA,A,3,04,19,21,27,,,,,,,,,1.1,0.6,0.9*26
###2023-12-09 12:44:44.962792$GBGSA,A,3,14,24,25,26,33,,,,,,,,1.1,0.6,0.9*2F
###2023-12-09 12:44:44.965113$GPGSV,2,1,08,03,38,271,44,04,25,311,39,16,41,209,45,26,71,208,48*78
###2023-12-09 12:44:44.967448$GPGSV,2,2,08,28,55,061,45,29,26,069,44,31,72,015,46,32,26,136,42*7B
###2023-12-09 12:44:44.969763$GLGSV,2,1,06,65,16,329,38,71,51,170,48,72,69,300,46,73,44,036,46*67
###2023-12-09 12:44:44.971507$GLGSV,2,2,06,74,71,307,42,75,25,245,46,,,,,,,,*60
###2023-12-09 12:44:44.973814$GAGSV,1,1,04,04,24,312,39,19,84,283,41,21,81,168,46,27,38,049,43*6F
###2023-12-09 12:44:44.976140$GBGSV,2,1,05,14,50,195,45,24,79,002,48,25,35,255,44,26,32,059,44*6D
###2023-12-09 12:44:44.977587$GBGSV,2,2,05,33,62,246,48,,,,,,,,,,,,*56
###2023-12-09 12:44:44.978914$GNVTG,331.23,T,,M,2.90,N,5.36,K,A*28
###2023-12-09 12:44:44.980550$GNGST,174444.10,18.000,,,,0.082,0.071,0.170*53
###2023-12-09 12:44:44.981832$GNZDA,174444.10,09,12,2023,00,00*76
###2023-12-09 12:44:44.982467$GNEBP,,,,,,M*13
###2023-12-09 12:44:45.143875$GNGGA,174444.30,4138.0452190,N,07032.3904012,W,1,24,0.6,13.379,M,-29.745,M,0.0,*5A
###2023-12-09 12:44:45.344317$GNGGA,174444.50,4138.0453535,N,07032.3905114,W,1,24,0.6,13.377,M,-29.745,M,0.0,*5E
###2023-12-09 12:44:45.543724$GNGGA,174444.70,4138.0454863,N,07032.3906242,W,1,24,0.6,13.367,M,-29.745,M,0.0,*57
###2023-12-09 12:44:45.744500$GNGGA,174444.90,4138.0456152,N,07032.3907412,W,1,24,0.6,13.365,M,-29.745,M,0.0,*50
###2023-12-09 12:44:45.944438$GNRMC,174445.10,A,4138.0457364,N,07032.3908667,W,2.86,320.65,091223,,,A*5B
###2023-12-09 12:44:45.947290$GNGGA,174445.10,4138.0457364,N,07032.3908667,W,1,24,0.6,13.363,M,-29.745,M,0.0,*56
###2023-12-09 12:44:45.949146$GPGSA,A,3,03,04,16,26,28,29,31,32,,,,,1.1,0.6,0.9*3B
###2023-12-09 12:44:45.950864$GLGSA,A,3,65,71,72,73,74,75,,,,,,,1.1,0.6,0.9*24
###2023-12-09 12:44:45.952443$GAGSA,A,3,04,19,21,27,,,,,,,,,1.1,0.6,0.9*26
###2023-12-09 12:44:45.954078$GBGSA,A,3,14,24,25,26,33,,,,,,,,1.1,0.6,0.9*2F
###2023-12-09 12:44:45.956409$GPGSV,2,1,08,03,38,271,44,04,25,311,40,16,41,209,46,26,71,208,47*7A
###2023-12-09 12:44:45.958790$GPGSV,2,2,08,28,55,061,46,29,26,069,41,31,72,015,47,32,26,136,43*7D
###2023-12-09 12:44:45.961107$GLGSV,2,1,06,65,16,329,40,71,51,170,48,72,69,300,46,73,44,036,46*68
###2023-12-09 12:44:45.962857$GLGSV,2,2,06,74,71,307,42,75,25,245,45,,,,,,,,*63
###2023-12-09 12:44:45.965176$GAGSV,1,1,04,04,24,312,39,19,84,283,41,21,81,168,46,27,38,049,44*68
###2023-12-09 12:44:45.967495$GBGSV,2,1,05,14,50,195,46,24,79,002,48,25,35,255,45,26,32,059,44*6F
###2023-12-09 12:44:45.968945$GBGSV,2,2,05,33,62,246,47,,,,,,,,,,,,*59
###2023-12-09 12:44:45.970261$GNVTG,320.65,T,,M,2.86,N,5.29,K,A*23
###2023-12-09 12:44:45.971908$GNGST,174445.10,18.000,,,,0.081,0.070,0.170*50
###2023-12-09 12:44:45.973193$GNZDA,174445.10,09,12,2023,00,00*77
###2023-12-09 12:44:45.973827$GNEBP,,,,,,M*13
###2023-12-09 12:44:46.144886$GNGGA,174445.30,4138.0458529,N,07032.3910023,W,1,24,0.6,13.362,M,-29.745,M,0.0,*5A
###2023-12-09 12:44:46.345106$GNGGA,174445.50,4138.0459624,N,07032.3911442,W,1,24,0.6,13.357,M,-29.745,M,0.0,*57
###2023-12-09 12:44:46.544787$GNGGA,174445.70,4138.0460677,N,07032.3912956,W,1,24,0.6,13.352,M,-29.745,M,0.0,*57
###2023-12-09 12:44:46.744751$GNGGA,174445.90,4138.0461654,N,07032.3914526,W,1,24,0.6,13.347,M,-29.745,M,0.0,*50
###2023-12-09 12:44:46.946506$GNRMC,174446.10,A,4138.0462575,N,07032.3916184,W,2.74,306.27,091223,,,A*52
###2023-12-09 12:44:46.949382$GNGGA,174446.10,4138.0462575,N,07032.3916184,W,1,24,0.6,13.345,M,-29.745,M,0.0,*54
###2023-12-09 12:44:46.951249$GPGSA,A,3,03,04,16,26,28,29,31,32,,,,,1.1,0.6,0.9*3B
###2023-12-09 12:44:46.952958$GLGSA,A,3,65,71,72,73,74,75,,,,,,,1.1,0.6,0.9*24
###2023-12-09 12:44:46.954531$GAGSA,A,3,04,19,21,27,,,,,,,,,1.1,0.6,0.9*26
###2023-12-09 12:44:46.956186$GBGSA,A,3,14,24,25,26,33,,,,,,,,1.1,0.6,0.9*2F
###2023-12-09 12:44:46.958502$GPGSV,2,1,08,03,38,271,42,04,25,311,38,16,41,209,46,26,71,208,47*73
###2023-12-09 12:44:46.960840$GPGSV,2,2,08,28,55,061,46,29,26,069,41,31,72,015,48,32,26,136,44*75
###2023-12-09 12:44:46.963176$GLGSV,2,1,06,65,16,329,37,71,51,170,48,72,69,300,45,73,44,036,47*6A
###2023-12-09 12:44:46.964912$GLGSV,2,2,06,74,71,307,42,75,25,245,45,,,,,,,,*63
###2023-12-09 12:44:46.967240$GAGSV,1,1,04,04,24,312,38,19,84,283,40,21,81,168,46,27,38,049,44*68
###2023-12-09 12:44:46.969565$GBGSV,2,1,05,14,50,195,44,24,79,002,49,25,35,255,45,26,32,059,43*6B
###2023-12-09 12:44:46.971022$GBGSV,2,2,05,33,62,246,46,,,,,,,,,,,,*58
###2023-12-09 12:44:46.972339$GNVTG,306.27,T,,M,2.74,N,5.08,K,A*2F
###2023-12-09 12:44:46.973975$GNGST,174446.10,18.000,,,,0.081,0.070,0.170*53
###2023-12-09 12:44:46.975270$GNZDA,174446.10,09,12,2023,00,00*74
###2023-12-09 12:44:46.975905$GNEBP,,,,,,M*13
###2023-12-09 12:44:47.144222$GNGGA,174446.30,4138.0463440,N,07032.3917894,W,1,24,0.6,13.343,M,-29.745,M,0.0,*5F
###2023-12-09 12:44:47.346203$GNGGA,174446.50,4138.0464223,N,07032.3919639,W,1,24,0.6,13.337,M,-29.745,M,0.0,*59
###2023-12-09 12:44:47.545705$GNGGA,174446.70,4138.0464947,N,07032.3921440,W,1,24,0.6,13.333,M,-29.745,M,0.0,*51
###2023-12-09 12:44:47.745218$GNGGA,174446.90,4138.0465567,N,07032.3923234,W,1,24,0.6,13.338,M,-29.745,M,0.0,*5C
###2023-12-09 12:44:47.945614$GNRMC,174447.10,A,4138.0466094,N,07032.3925081,W,2.55,289.15,091223,,,A*5D
###2023-12-09 12:44:47.948518$GNGGA,174447.10,4138.0466094,N,07032.3925081,W,1,24,0.6,13.329,M,-29.745,M,0.0,*55
###2023-12-09 12:44:47.950387$GPGSA,A,3,03,04,16,26,28,29,31,32,,,,,1.1,0.6,0.9*3B
###2023-12-09 12:44:47.952121$GLGSA,A,3,65,71,72,73,74,75,,,,,,,1.1,0.6,0.9*24
###2023-12-09 12:44:47.953706$GAGSA,A,3,04,19,21,27,,,,,,,,,1.1,0.6,0.9*26
###2023-12-09 12:44:47.955369$GBGSA,A,3,14,24,25,26,33,,,,,,,,1.1,0.6,0.9*2F
###2023-12-09 12:44:47.957687$GPGSV,2,1,08,03,38,271,41,04,25,311,37,16,41,209,44,26,71,208,47*7D
###2023-12-09 12:44:47.960033$GPGSV,2,2,08,28,55,061,45,29,26,069,42,31,72,015,47,32,26,136,43*7D
###2023-12-09 12:44:47.962360$GLGSV,2,1,06,65,16,329,40,71,51,170,46,72,69,300,45,73,44,036,47*64
###2023-12-09 12:44:47.964107$GLGSV,2,2,06,74,71,307,41,75,25,245,41,,,,,,,,*64
###2023-12-09 12:44:47.966422$GAGSV,1,1,04,04,24,312,38,19,84,283,40,21,81,168,46,27,38,049,43*6F
###2023-12-09 12:44:47.968762$GBGSV,2,1,05,14,50,195,45,24,78,005,49,25,35,255,43,26,32,059,43*6A
###2023-12-09 12:44:47.970212$GBGSV,2,2,05,33,62,246,47,,,,,,,,,,,,*59
###2023-12-09 12:44:47.971539$GNVTG,289.15,T,,M,2.55,N,4.72,K,A*27
###2023-12-09 12:44:47.973180$GNGST,174447.10,18.000,,,,0.082,0.071,0.170*50
###2023-12-09 12:44:47.974462$GNZDA,174447.10,09,12,2023,00,00*75
###2023-12-09 12:44:47.975108$GNEBP,,,,,,M*13
###2023-12-09 12:44:48.145227$GNGGA,174447.30,4138.0466548,N,07032.3926896,W,1,24,0.6,13.330,M,-29.745,M,0.0,*56
###2023-12-09 12:44:48.345620$GNGGA,174447.50,4138.0466941,N,07032.3928705,W,1,24,0.6,13.322,M,-29.745,M,0.0,*5D
###2023-12-09 12:44:48.545649$GNGGA,174447.70,4138.0467238,N,07032.3930492,W,1,24,0.6,13.315,M,-29.745,M,0.0,*5B
###2023-12-09 12:44:48.746094$GNGGA,174447.90,4138.0467453,N,07032.3932273,W,1,24,0.6,13.313,M,-29.745,M,0.0,*53
###2023-12-09 12:44:48.947310$GNRMC,174448.10,A,4138.0467640,N,07032.3934031,W,2.39,278.96,091223,,,A*58
###2023-12-09 12:44:48.950168$GNGGA,174448.10,4138.0467640,N,07032.3934031,W,1,24,0.6,13.310,M,-29.745,M,0.0,*55
###2023-12-09 12:44:48.952302$GPGSA,A,3,03,04,16,26,28,29,31,32,,,,,1.1,0.6,0.9*3B
###2023-12-09 12:44:48.954022$GLGSA,A,3,65,71,72,73,74,75,,,,,,,1.1,0.6,0.9*24
###2023-12-09 12:44:48.955622$GAGSA,A,3,04,19,21,27,,,,,,,,,1.1,0.6,0.9*26
###2023-12-09 12:44:48.957264$GBGSA,A,3,14,24,25,26,33,,,,,,,,1.1,0.6,0.9*2F
###2023-12-09 12:44:48.959600$GPGSV,2,1,08,03,38,271,42,04,25,311,37,16,41,209,45,26,71,208,47*7F
###2023-12-09 12:44:48.961926$GPGSV,2,2,08,28,55,061,44,29,26,069,40,31,72,015,47,32,26,136,42*7F
###2023-12-09 12:44:48.964274$GLGSV,2,1,06,65,16,329,40,71,51,170,47,72,69,300,45,73,44,036,46*64
###2023-12-09 12:44:48.966008$GLGSV,2,2,06,74,71,307,41,75,25,245,40,,,,,,,,*65
###2023-12-09 12:44:48.968346$GAGSV,1,1,04,04,24,312,37,19,84,283,40,21,81,168,46,27,38,049,42*61
###2023-12-09 12:44:48.970692$GBGSV,2,1,05,14,50,195,44,24,78,005,49,25,36,256,43,26,32,059,43*6B
