###2023-12-09 12:39:10.961727$GAGSV,1,1,04,04,22,311,40,19,82,296,41,21,79,174,46,27,40,049,44*64
###2023-12-09 12:39:10.964110$GBGSV,2,1,05,14,53,197,45,24,80,355,49,25,34,254,44,26,33,058,45*6B
###2023-12-09 12:39:10.965581$GBGSV,2,2,05,33,62,250,47,,,,,,,,,,,,*5E
###2023-12-09 12:39:10.966919$GNVTG,283.61,T,,M,0.54,N,1.01,K,A*2C
###2023-12-09 12:39:10.968566$GNGST,173910.10,19.000,,,,0.081,0.071,0.170*5A
###2023-12-09 12:39:10.969854$GNZDA,173910.10,09,12,2023,00,00*7D
###2023-12-09 12:39:10.970487$GNEBP,,,,,,M*13
###2023-12-09 12:39:11.139883$GNGGA,173910.30,4138.0535180,N,07032.3741333,W,1,23,0.7,13.571,M,-29.744,M,0.0,*56
###2023-12-09 12:39:11.337997$GNGGA,173910.50,4138.0535247,N,07032.3741875,W,1,23,0.7,13.562,M,-29.744,M,0.0,*53
###2023-12-09 12:39:11.538465$GNGGA,173910.70,4138.0535250,N,07032.3742239,W,1,23,0.7,13.560,M,-29.744,M,0.0,*54
###2023-12-09 12:39:11.737644$GNGGA,173910.90,4138.0535227,N,07032.3742517,W,1,23,0.7,13.579,M,-29.744,M,0.0,*59
###2023-12-09 12:39:11.938018$GNRMC,173911.10,A,4138.0535257,N,07032.3742919,W,0.70,283.61,091223,,,A*55
###2023-12-09 12:39:11.940930$GNGGA,173911.10,4138.0535257,N,07032.3742919,W,1,23,0.7,13.597,M,-29.744,M,0.0,*55
###2023-12-09 12:39:11.942812$GPGSA,A,3,03,04,16,26,28,29,31,32,,,,,1.2,0.7,1.0*31
###2023-12-09 12:39:11.944468$GLGSA,A,3,71,72,73,74,75,,,,,,,,1.2,0.7,1.0*2D
###2023-12-09 12:39:11.946049$GAGSA,A,3,04,19,21,27,,,,,,,,,1.2,0.7,1.0*2C
###2023-12-09 12:39:11.947724$GBGSA,A,3,14,24,25,26,33,,,,,,,,1.2,0.7,1.0*25
###2023-12-09 12:39:11.950065$GPGSV,2,1,08,03,38,275,44,04,23,311,41,16,38,208,42,26,68,207,47*75
###2023-12-09 12:39:11.952420$GPGSV,2,2,08,28,57,058,44,29,25,072,42,31,73,007,47,32,28,135,44*75
###2023-12-09 12:39:11.954756$GLGSV,2,1,05,71,54,170,47,72,67,307,46,73,46,034,46,74,71,296,43*6F
###2023-12-09 12:39:11.956214$GLGSV,2,2,05,75,23,242,40,,,,,,,,,,,,*53
###2023-12-09 12:39:11.958534$GAGSV,1,1,04,04,22,311,41,19,82,296,41,21,79,174,45,27,40,049,44*66
###2023-12-09 12:39:11.960874$GBGSV,2,1,05,14,53,197,45,24,80,355,48,25,34,254,43,26,33,058,44*6C
###2023-12-09 12:39:11.962324$GBGSV,2,2,05,33,62,250,47,,,,,,,,,,,,*5E
###2023-12-09 12:39:11.963661$GNVTG,283.61,T,,M,0.70,N,1.30,K,A*28
###2023-12-09 12:39:11.965304$GNGST,173911.10,18.000,,,,0.081,0.071,0.170*5A
###2023-12-09 12:39:11.966609$GNZDA,173911.10,09,12,2023,00,00*7C
###2023-12-09 12:39:11.967249$GNEBP,,,,,,M*13
###2023-12-09 12:39:12.137753$GNGGA,173911.30,4138.0535322,N,07032.3743397,W,1,23,0.7,13.590,M,-29.744,M,0.0,*5E
###2023-12-09 12:39:12.337988$GNGGA,173911.50,4138.0535332,N,07032.3743748,W,1,23,0.7,13.572,M,-29.744,M,0.0,*53
###2023-12-09 12:39:12.538360$GNGGA,173911.70,4138.0535293,N,07032.3744016,W,1,23,0.7,13.560,M,-29.744,M,0.0,*53
###2023-12-09 12:39:12.737567$GNGGA,173911.90,4138.0535295,N,07032.3744425,W,1,23,0.7,13.574,M,-29.744,M,0.0,*5A
###2023-12-09 12:39:12.940664$GNRMC,173912.10,A,4138.0535362,N,07032.3744944,W,0.72,283.61,091223,,,A*5D
###2023-12-09 12:39:12.943531$GNGGA,173912.10,4138.0535362,N,07032.3744944,W,1,23,0.7,13.588,M,-29.744,M,0.0,*51
###2023-12-09 12:39:12.945388$GPGSA,A,3,03,04,16,26,28,29,31,32,,,,,1.2,0.7,1.0*31
###2023-12-09 12:39:12.947069$GLGSA,A,3,71,72,73,74,75,,,,,,,,1.2,0.7,1.0*2D
###2023-12-09 12:39:12.948691$GAGSA,A,3,04,19,21,27,,,,,,,,,1.2,0.7,1.0*2C
###2023-12-09 12:39:12.950333$GBGSA,A,3,14,24,25,26,33,,,,,,,,1.2,0.7,1.0*25
###2023-12-09 12:39:12.952672$GPGSV,2,1,08,03,38,275,43,04,23,311,42,16,38,208,42,26,68,207,46*70
###2023-12-09 12:39:12.955018$GPGSV,2,2,08,28,57,058,44,29,25,072,42,31,73,007,48,32,28,135,44*7A
###2023-12-09 12:39:12.957333$GLGSV,2,1,05,71,54,170,47,72,68,305,46,73,46,034,46,74,71,296,43*62
###2023-12-09 12:39:12.958789$GLGSV,2,2,05,75,23,242,42,,,,,,,,,,,,*51
###2023-12-09 12:39:12.961100$GAGSV,1,1,04,04,22,311,41,19,82,296,41,21,79,174,46,27,40,049,44*65
###2023-12-09 12:39:12.963437$GBGSV,2,1,05,14,53,197,44,24,80,355,47,25,34,254,43,26,33,058,43*65
###2023-12-09 12:39:12.964893$GBGSV,2,2,05,33,62,250,46,,,,,,,,,,,,*5F
###2023-12-09 12:39:12.966215$GNVTG,283.61,T,,M,0.72,N,1.33,K,A*29
###2023-12-09 12:39:12.967875$GNGST,173912.10,19.000,,,,0.081,0.071,0.170*58
###2023-12-09 12:39:12.969165$GNZDA,173912.10,09,12,2023,00,00*7F
###2023-12-09 12:39:12.969801$GNEBP,,,,,,M*13
###2023-12-09 12:39:13.138036$GNGGA,173912.30,4138.0535409,N,07032.3745371,W,1,23,0.7,13.594,M,-29.744,M,0.0,*59
###2023-12-09 12:39:13.338990$GNGGA,173912.50,4138.0535367,N,07032.3745541,W,1,23,0.7,13.585,M,-29.744,M,0.0,*55
###2023-12-09 12:39:13.538268$GNGGA,173912.70,4138.0535285,N,07032.3745697,W,1,23,0.7,13.574,M,-29.744,M,0.0,*5C
###2023-12-09 12:39:13.741812$GNGGA,173912.90,4138.0535328,N,07032.3746204,W,1,23,0.7,13.590,M,-29.744,M,0.0,*53
###2023-12-09 12:39:13.938950$GNRMC,173913.10,A,4138.0535479,N,07032.3746931,W,0.91,284.42,091223,,,A*5A
###2023-12-09 12:39:13.941824$GNGGA,173913.10,4138.0535479,N,07032.3746931,W,1,23,0.7,13.611,M,-29.744,M,0.0,*5E
###2023-12-09 12:39:13.943692$GPGSA,A,3,03,04,16,26,28,29,31,32,,,,,1.2,0.7,1.0*31
###2023-12-09 12:39:13.945341$GLGSA,A,3,71,72,73,74,75,,,,,,,,1.2,0.7,1.0*2D
###2023-12-09 12:39:13.946959$GAGSA,A,3,04,19,21,27,,,,,,,,,1.2,0.7,1.0*2C
###2023-12-09 12:39:13.948652$GBGSA,A,3,14,24,25,26,33,,,,,,,,1.2,0.7,1.0*25
###2023-12-09 12:39:13.951018$GPGSV,2,1,08,03,38,275,44,04,23,311,43,16,38,208,42,26,68,207,46*76
###2023-12-09 12:39:13.953359$GPGSV,2,2,08,28,57,058,44,29,25,072,40,31,73,007,47,32,28,135,44*77
###2023-12-09 12:39:13.955713$GLGSV,2,1,05,71,54,170,47,72,68,305,46,73,45,035,47,74,71,296,43*61
###2023-12-09 12:39:13.957165$GLGSV,2,2,05,75,23,242,40,,,,,,,,,,,,*53
###2023-12-09 12:39:13.959499$GAGSV,1,1,04,04,22,311,42,19,82,296,41,21,79,174,46,27,40,049,44*66
###2023-12-09 12:39:13.961828$GBGSV,2,1,05,14,53,197,45,24,80,355,49,25,34,254,45,26,33,058,45*6A
###2023-12-09 12:39:13.963300$GBGSV,2,2,05,33,62,250,49,,,,,,,,,,,,*50
###2023-12-09 12:39:13.964627$GNVTG,284.42,T,,M,0.91,N,1.69,K,A*2D
###2023-12-09 12:39:13.966281$GNGST,173913.10,18.000,,,,0.081,0.071,0.170*58
###2023-12-09 12:39:13.967601$GNZDA,173913.10,09,12,2023,00,00*7E
###2023-12-09 12:39:13.968243$GNEBP,,,,,,M*13
###2023-12-09 12:39:14.137275$GNGGA,173913.30,4138.0535529,N,07032.3747330,W,1,23,0.7,13.612,M,-29.744,M,0.0,*51
###2023-12-09 12:39:14.338978$GNGGA,173913.50,4138.0535388,N,07032.3747261,W,1,23,0.7,13.601,M,-29.744,M,0.0,*5D
###2023-12-09 12:39:14.546459$GNGGA,173913.70,4138.0535285,N,07032.3747343,W,1,23,0.7,13.586,M,-29.744,M,0.0,*5E
###2023-12-09 12:39:14.741667$GNGGA,173913.90,4138.0535453,N,07032.3748104,W,1,23,0.7,13.619,M,-29.744,M,0.0,*56
###2023-12-09 12:39:14.939904$GNRMC,173914.10,A,4138.0535643,N,07032.3748942,W,0.82,287.53,091223,,,A*5D
###2023-12-09 12:39:14.942768$GNGGA,173914.10,4138.0535643,N,07032.3748942,W,1,23,0.7,13.633,M,-29.744,M,0.0,*58
###2023-12-09 12:39:14.944631$GPGSA,A,3,03,04,16,26,28,29,31,32,,,,,1.2,0.7,1.0*31
###2023-12-09 12:39:14.946294$GLGSA,A,3,71,72,73,74,75,,,,,,,,1.2,0.7,1.0*2D
###2023-12-09 12:39:14.947915$GAGSA,A,3,04,19,21,27,,,,,,,,,1.2,0.7,1.0*2C
###2023-12-09 12:39:14.949580$GBGSA,A,3,14,24,25,26,33,,,,,,,,1.2,0.7,1.0*25
###2023-12-09 12:39:14.951936$GPGSV,2,1,08,03,38,275,45,04,23,311,45,16,38,208,43,26,68,207,46*70
###2023-12-09 12:39:14.954273$GPGSV,2,2,08,28,57,058,43,29,25,072,41,31,73,007,47,32,28,135,43*76
###2023-12-09 12:39:14.956623$GLGSV,2,1,05,71,54,170,47,72,68,305,46,73,45,035,46,74,71,299,43*6F
###2023-12-09 12:39:14.958088$GLGSV,2,2,05,75,23,242,42,,,,,,,,,,,,*51
###2023-12-09 12:39:14.960446$GAGSV,1,1,04,04,22,311,43,19,82,296,41,21,79,174,45,27,40,049,44*64
###2023-12-09 12:39:14.962797$GBGSV,2,1,05,14,53,197,44,24,80,355,48,25,34,254,44,26,33,058,44*6A
###2023-12-09 12:39:14.964255$GBGSV,2,2,05,33,62,250,47,,,,,,,,,,,,*5E
###2023-12-09 12:39:14.965578$GNVTG,287.53,T,,M,0.82,N,1.51,K,A*27
###2023-12-09 12:39:14.967238$GNGST,173914.10,19.000,,,,0.082,0.071,0.170*5D
###2023-12-09 12:39:14.968530$GNZDA,173914.10,09,12,2023,00,00*79
###2023-12-09 12:39:14.969169$GNEBP,,,,,,M*13
###2023-12-09 12:39:15.138679$GNGGA,173914.30,4138.0535590,N,07032.3749147,W,1,23,0.7,13.637,M,-29.744,M,0.0,*5F
###2023-12-09 12:39:15.339007$GNGGA,173914.50,4138.0535416,N,07032.3748863,W,1,23,0.7,13.605,M,-29.744,M,0.0,*59
###2023-12-09 12:39:15.538244$GNGGA,173914.70,4138.0535397,N,07032.3749111,W,1,23,0.7,13.594,M,-29.744,M,0.0,*53
###2023-12-09 12:39:15.752558$GNGGA,173914.90,4138.0535620,N,07032.3750048,W,1,23,0.7,13.640,M,-29.744,M,0.0,*5B
###2023-12-09 12:39:15.936890$GNRMC,173915.10,A,4138.0535757,N,07032.3750779,W,0.41,284.09,091223,,,A*54
###2023-12-09 12:39:15.939763$GNGGA,173915.10,4138.0535757,N,07032.3750779,W,1,23,0.7,13.644,M,-29.744,M,0.0,*52
###2023-12-09 12:39:15.941622$GPGSA,A,3,03,04,16,26,28,29,31,32,,,,,1.2,0.7,1.0*31
###2023-12-09 12:39:15.943280$GLGSA,A,3,71,72,73,74,75,,,,,,,,1.2,0.7,1.0*2D
###2023-12-09 12:39:15.944870$GAGSA,A,3,04,19,21,27,,,,,,,,,1.2,0.7,1.0*2C
