###2023-12-09 12:28:14.935413$GBGSA,A,3,14,25,26,33,,,,,,,,,1.5,0.8,1.2*29
###2023-12-09 12:28:14.937780$GPGSV,2,1,07,03,39,281,39,16,34,206,43,26,63,206,41,28,60,052,42*7B
###2023-12-09 12:28:14.939864$GPGSV,2,2,07,29,25,077,43,31,73,351,44,32,33,132,45,,,,*44
###2023-12-09 12:28:14.942219$GLGSV,1,1,04,71,60,168,47,72,63,315,42,73,51,031,47,75,19,238,42*68
###2023-12-09 12:28:14.944013$GAGSV,1,1,02,21,75,179,40,27,44,050,45,,,,,,,,*61
###2023-12-09 12:28:14.946381$GBGSV,1,1,04,14,58,200,44,25,30,250,35,26,37,056,47,33,64,261,41*62
###2023-12-09 12:28:14.947570$GNVTG,,T,,M,0.02,N,0.04,K,A*3B
###2023-12-09 12:28:14.949232$GNGST,172814.10,31.000,,,,0.120,0.120,0.280*57
###2023-12-09 12:28:14.950526$GNZDA,172814.10,09,12,2023,00,00*79
###2023-12-09 12:28:14.951191$GNEBP,,,,,,M*13
###2023-12-09 12:28:15.122236$GNGGA,172814.30,4138.0394848,N,07032.4358376,W,1,18,0.8,8.289,M,-29.746,M,0.0,*67
###2023-12-09 12:28:15.321019$GNGGA,172814.50,4138.0394847,N,07032.4358367,W,1,18,0.8,8.271,M,-29.746,M,0.0,*69
###2023-12-09 12:28:15.520635$GNGGA,172814.70,4138.0394851,N,07032.4358366,W,1,18,0.8,8.262,M,-29.746,M,0.0,*6F
###2023-12-09 12:28:15.719800$GNGGA,172814.90,4138.0394854,N,07032.4358343,W,1,18,0.8,8.254,M,-29.746,M,0.0,*66
###2023-12-09 12:28:15.918883$GNRMC,172815.10,A,4138.0394860,N,07032.4358338,W,0.06,,091223,,,A*42
###2023-12-09 12:28:15.921735$GNGGA,172815.10,4138.0394860,N,07032.4358338,W,1,17,0.8,8.243,M,-29.746,M,0.0,*6D
###2023-12-09 12:28:15.923575$GPGSA,A,3,03,16,26,28,29,31,32,,,,,,1.5,0.8,1.3*3E
###2023-12-09 12:28:15.925181$GLGSA,A,3,71,72,73,75,,,,,,,,,1.5,0.8,1.3*25
###2023-12-09 12:28:15.926663$GAGSA,A,3,21,27,,,,,,,,,,,1.5,0.8,1.3*2B
###2023-12-09 12:28:15.928259$GBGSA,A,3,14,25,26,33,,,,,,,,,1.5,0.8,1.3*28
###2023-12-09 12:28:15.930610$GPGSV,2,1,07,03,39,281,38,16,34,206,43,26,63,206,41,28,60,052,43*7B
###2023-12-09 12:28:15.932684$GPGSV,2,2,07,29,25,077,43,31,73,351,43,32,33,132,44,,,,*42
###2023-12-09 12:28:15.935055$GLGSV,1,1,04,71,60,168,47,72,63,315,42,73,51,031,47,75,19,238,42*68
###2023-12-09 12:28:15.936822$GAGSV,1,1,02,21,75,179,40,27,44,050,45,,,,,,,,*61
###2023-12-09 12:28:15.939177$GBGSV,1,1,04,14,58,200,45,25,30,250,35,26,37,056,48,33,64,261,41*6C
###2023-12-09 12:28:15.940327$GNVTG,,T,,M,0.06,N,0.11,K,A*3B
###2023-12-09 12:28:15.941985$GNGST,172815.10,31.000,,,,0.120,0.120,0.280*56
###2023-12-09 12:28:15.943309$GNZDA,172815.10,09,12,2023,00,00*78
###2023-12-09 12:28:15.943967$GNEBP,,,,,,M*13
###2023-12-09 12:28:16.118671$GNGGA,172815.30,4138.0394881,N,07032.4358341,W,1,18,0.8,8.235,M,-29.746,M,0.0,*60
###2023-12-09 12:28:16.318632$GNGGA,172815.50,4138.0394904,N,07032.4358338,W,1,18,0.8,8.218,M,-29.746,M,0.0,*6B
###2023-12-09 12:28:16.518549$GNGGA,172815.70,4138.0394936,N,07032.4358347,W,1,17,0.8,8.206,M,-29.746,M,0.0,*60
###2023-12-09 12:28:16.717753$GNGGA,172815.90,4138.0394959,N,07032.4358336,W,1,17,0.8,8.200,M,-29.746,M,0.0,*67
###2023-12-09 12:28:16.920613$GNRMC,172816.10,A,4138.0394980,N,07032.4358326,W,0.04,,091223,,,A*43
###2023-12-09 12:28:16.923702$GNGGA,172816.10,4138.0394980,N,07032.4358326,W,1,17,0.8,8.189,M,-29.746,M,0.0,*6B
###2023-12-09 12:28:16.925693$GPGSA,A,3,03,16,26,28,29,31,32,,,,,,1.5,0.8,1.3*3E
###2023-12-09 12:28:16.927475$GLGSA,A,3,71,72,73,75,,,,,,,,,1.5,0.8,1.3*25
###2023-12-09 12:28:16.929110$GAGSA,A,3,21,27,,,,,,,,,,,1.5,0.8,1.3*2B
###2023-12-09 12:28:16.930876$GBGSA,A,3,14,25,26,33,,,,,,,,,1.5,0.8,1.3*28
###2023-12-09 12:28:16.933365$GPGSV,2,1,07,03,39,281,38,16,34,206,43,26,63,206,42,28,60,052,43*78
###2023-12-09 12:28:16.935604$GPGSV,2,2,07,29,25,077,42,31,73,351,42,32,33,132,45,,,,*43
###2023-12-09 12:28:16.938109$GLGSV,1,1,04,71,60,168,47,72,63,315,42,73,51,031,47,75,19,238,42*68
###2023-12-09 12:28:16.940044$GAGSV,1,1,02,21,75,179,40,27,44,050,45,,,,,,,,*61
###2023-12-09 12:28:16.942546$GBGSV,1,1,04,14,58,200,45,25,30,250,35,26,37,056,48,33,64,261,41*6C
###2023-12-09 12:28:16.943872$GNVTG,,T,,M,0.04,N,0.07,K,A*3E
###2023-12-09 12:28:16.945683$GNGST,172816.10,31.000,,,,0.120,0.120,0.280*55
###2023-12-09 12:28:16.947154$GNZDA,172816.10,09,12,2023,00,00*7B
###2023-12-09 12:28:16.948003$GNEBP,,,,,,M*13
###2023-12-09 12:28:17.118201$GNGGA,172816.30,4138.0395006,N,07032.4358329,W,1,17,0.8,8.187,M,-29.746,M,0.0,*6E
###2023-12-09 12:28:17.320039$GNGGA,172816.50,4138.0395033,N,07032.4358330,W,1,17,0.8,8.180,M,-29.746,M,0.0,*61
###2023-12-09 12:28:17.519824$GNGGA,172816.70,4138.0395060,N,07032.4358325,W,1,17,0.8,8.179,M,-29.746,M,0.0,*67
###2023-12-09 12:28:17.717684$GNGGA,172816.90,4138.0395095,N,07032.4358342,W,1,17,0.8,8.167,M,-29.746,M,0.0,*6D
###2023-12-09 12:28:17.918760$GNRMC,172817.10,A,4138.0395104,N,07032.4358318,W,0.04,,091223,,,A*4A
###2023-12-09 12:28:17.921788$GNGGA,172817.10,4138.0395104,N,07032.4358318,W,1,17,0.8,8.165,M,-29.746,M,0.0,*60
###2023-12-09 12:28:17.923776$GPGSA,A,3,03,16,26,28,29,31,32,,,,,,1.5,0.8,1.3*3E
###2023-12-09 12:28:17.925538$GLGSA,A,3,71,72,73,75,,,,,,,,,1.5,0.8,1.3*25
###2023-12-09 12:28:17.927182$GAGSA,A,3,21,27,,,,,,,,,,,1.5,0.8,1.3*2B
###2023-12-09 12:28:17.928933$GBGSA,A,3,14,25,26,33,,,,,,,,,1.5,0.8,1.3*28
###2023-12-09 12:28:17.931443$GPGSV,2,1,07,03,39,281,39,16,34,206,43,26,63,206,42,28,60,052,43*79
###2023-12-09 12:28:17.933652$GPGSV,2,2,07,29,25,077,42,31,73,351,42,32,33,132,45,,,,*43
###2023-12-09 12:28:17.936163$GLGSV,1,1,04,71,60,168,46,72,63,315,42,73,51,031,47,75,19,238,42*69
###2023-12-09 12:28:17.938088$GAGSV,1,1,02,21,75,179,40,27,44,050,45,,,,,,,,*61
###2023-12-09 12:28:17.940590$GBGSV,1,1,04,14,58,200,45,25,30,250,35,26,37,056,48,33,64,261,41*6C
###2023-12-09 12:28:17.941888$GNVTG,,T,,M,0.04,N,0.07,K,A*3E
###2023-12-09 12:28:17.943714$GNGST,172817.10,31.000,,,,0.120,0.120,0.280*54
###2023-12-09 12:28:17.945167$GNZDA,172817.10,09,12,2023,00,00*7A
###2023-12-09 12:28:17.945956$GNEBP,,,,,,M*13
###2023-12-09 12:28:18.118557$GNGGA,172817.30,4138.0395136,N,07032.4358306,W,1,17,0.8,8.162,M,-29.746,M,0.0,*6B
###2023-12-09 12:28:18.321082$GNGGA,172817.50,4138.0395156,N,07032.4358292,W,1,17,0.8,8.158,M,-29.746,M,0.0,*6E
###2023-12-09 12:28:18.518996$GNGGA,172817.70,4138.0395169,N,07032.4358282,W,1,16,0.9,8.151,M,-29.746,M,0.0,*68
###2023-12-09 12:28:18.717671$GNGGA,172817.90,4138.0395180,N,07032.4358263,W,1,16,0.9,8.147,M,-29.746,M,0.0,*69
###2023-12-09 12:28:18.922089$GNRMC,172818.10,A,4138.0395143,N,07032.4358274,W,0.02,,091223,,,A*4B
###2023-12-09 12:28:18.925208$GNGGA,172818.10,4138.0395143,N,07032.4358274,W,1,16,0.9,8.187,M,-29.746,M,0.0,*6B
###2023-12-09 12:28:18.927237$GPGSA,A,3,03,16,26,28,29,31,32,,,,,,1.6,0.9,1.3*3C
###2023-12-09 12:28:18.929035$GLGSA,A,3,71,72,73,75,,,,,,,,,1.6,0.9,1.3*27
###2023-12-09 12:28:18.930712$GAGSA,A,3,21,27,,,,,,,,,,,1.6,0.9,1.3*29
###2023-12-09 12:28:18.932431$GBGSA,A,3,14,26,33,,,,,,,,,,1.6,0.9,1.3*2D
###2023-12-09 12:28:18.934966$GPGSV,2,1,07,03,39,281,39,16,34,206,43,26,63,206,42,28,60,052,43*79
###2023-12-09 12:28:18.937213$GPGSV,2,2,07,29,25,077,41,31,73,351,42,32,33,132,45,,,,*40
###2023-12-09 12:28:18.939748$GLGSV,1,1,04,71,60,168,46,72,63,315,43,73,51,031,47,75,19,238,41*6B
###2023-12-09 12:28:18.941699$GAGSV,1,1,02,21,75,179,40,27,44,050,45,,,,,,,,*61
###2023-12-09 12:28:18.943992$GBGSV,1,1,03,14,58,200,45,26,37,056,48,33,64,261,40,,,,*5F
###2023-12-09 12:28:18.945328$GNVTG,,T,,M,0.02,N,0.04,K,A*3B
###2023-12-09 12:28:18.947201$GNGST,172818.10,32.000,,,,0.120,0.120,0.280*58
###2023-12-09 12:28:18.948736$GNZDA,172818.10,09,12,2023,00,00*75
###2023-12-09 12:28:18.949576$GNEBP,,,,,,M*13
###2023-12-09 12:28:19.119565$GNGGA,172818.30,4138.0395071,N,07032.4358354,W,1,16,0.9,8.268,M,-29.746,M,0.0,*68
###2023-12-09 12:28:19.320638$GNGGA,172818.50,4138.0395004,N,07032.4358424,W,1,16,0.9,8.346,M,-29.746,M,0.0,*61
###2023-12-09 12:28:19.519601$GNGGA,172818.70,4138.0394938,N,07032.4358502,W,1,16,0.9,8.421,M,-29.746,M,0.0,*67
###2023-12-09 12:28:19.718698$GNGGA,172818.90,4138.0394871,N,07032.4358577,W,1,16,0.9,8.500,M,-29.746,M,0.0,*65
###2023-12-09 12:28:19.922023$GNRMC,172819.10,A,4138.0394827,N,07032.4358669,W,0.06,,091223,,,A*4C
###2023-12-09 12:28:19.925158$GNGGA,172819.10,4138.0394827,N,07032.4358669,W,1,16,0.9,8.566,M,-29.746,M,0.0,*63
###2023-12-09 12:28:19.927463$GPGSA,A,3,03,16,26,28,29,31,32,,,,,,1.6,0.9,1.3*3C
###2023-12-09 12:28:19.929280$GLGSA,A,3,71,72,73,75,,,,,,,,,1.6,0.9,1.3*27
###2023-12-09 12:28:19.930946$GAGSA,A,3,21,27,,,,,,,,,,,1.6,0.9,1.3*29
###2023-12-09 12:28:19.932662$GBGSA,A,3,14,26,33,,,,,,,,,,1.6,0.9,1.3*2D
###2023-12-09 12:28:19.935234$GPGSV,2,1,07,03,39,281,39,16,34,206,43,26,63,206,42,28,60,052,43*79
###2023-12-09 12:28:19.937483$GPGSV,2,2,07,29,25,077,42,31,73,351,42,32,33,132,45,,,,*43
###2023-12-09 12:28:19.940030$GLGSV,1,1,04,71,60,168,46,72,63,315,42,73,51,031,47,75,19,238,41*6A
###2023-12-09 12:28:19.941981$GAGSV,1,1,02,21,75,179,39,27,44,050,45,,,,,,,,*6F
