###2023-12-09 13:03:46.995506$GNGST,180346.10,18.000,,,,0.081,0.067,0.160*58
###2023-12-09 13:03:46.996818$GNZDA,180346.10,09,12,2023,00,00*78
###2023-12-09 13:03:46.997462$GNEBP,,,,,,M*13
###2023-12-09 13:03:47.163860$GNGGA,180346.30,4138.0601266,N,07032.3770867,W,1,24,0.6,13.334,M,-29.744,M,0.0,*55
###2023-12-09 13:03:47.363847$GNGGA,180346.50,4138.0601176,N,07032.3768423,W,1,24,0.6,13.331,M,-29.744,M,0.0,*51
###2023-12-09 13:03:47.564587$GNGGA,180346.70,4138.0601209,N,07032.3765898,W,1,24,0.6,13.355,M,-29.744,M,0.0,*5B
###2023-12-09 13:03:47.767209$GNGGA,180346.90,4138.0601061,N,07032.3763320,W,1,24,0.6,13.342,M,-29.744,M,0.0,*51
###2023-12-09 13:03:47.966841$GNRMC,180347.10,A,4138.0600894,N,07032.3760821,W,3.36,92.45,091223,,,A*6F
###2023-12-09 13:03:47.969701$GNGGA,180347.10,4138.0600894,N,07032.3760821,W,1,24,0.6,13.337,M,-29.744,M,0.0,*50
###2023-12-09 13:03:47.971577$GPGSA,A,3,03,04,16,26,28,29,31,32,,,,,1.1,0.6,0.9*3B
###2023-12-09 13:03:47.973293$GLGSA,A,3,65,71,72,73,74,75,,,,,,,1.1,0.6,0.9*24
###2023-12-09 13:03:47.974887$GAGSA,A,3,04,19,21,27,,,,,,,,,1.1,0.6,0.9*26
###2023-12-09 13:03:47.976537$GBGSA,A,3,14,24,25,26,33,,,,,,,,1.1,0.6,0.9*2F
###2023-12-09 13:03:47.978873$GPGSV,2,1,08,03,34,260,46,04,33,311,41,16,51,213,48,26,81,210,48*7F
###2023-12-09 13:03:47.981208$GPGSV,2,2,08,28,48,071,44,29,25,060,41,31,68,040,47,32,18,140,43*7F
###2023-12-09 13:03:47.983552$GLGSV,2,1,06,65,25,327,40,71,40,173,47,72,73,265,46,73,35,042,44*64
###2023-12-09 13:03:47.985303$GLGSV,2,2,06,74,69,340,42,75,33,254,47,,,,,,,,*6C
###2023-12-09 13:03:47.987647$GAGSV,1,1,04,04,29,312,40,19,84,213,41,21,86,114,46,27,32,048,42*63
###2023-12-09 13:03:47.989979$GBGSV,2,1,05,14,43,193,45,24,73,026,48,25,41,263,47,26,26,063,41*69
###2023-12-09 13:03:47.991448$GBGSV,2,2,05,33,57,231,48,,,,,,,,,,,,*50
###2023-12-09 13:03:47.992744$GNVTG,92.45,T,,M,3.36,N,6.23,K,A*18
###2023-12-09 13:03:47.994392$GNGST,180347.10,18.000,,,,0.081,0.067,0.160*59
###2023-12-09 13:03:47.995695$GNZDA,180347.10,09,12,2023,00,00*79
###2023-12-09 13:03:47.996333$GNEBP,,,,,,M*13
###2023-12-09 13:03:48.163993$GNGGA,180347.30,4138.0600798,N,07032.3758268,W,1,24,0.6,13.357,M,-29.744,M,0.0,*5B
###2023-12-09 13:03:48.363064$GNGGA,180347.50,4138.0600552,N,07032.3755667,W,1,24,0.6,13.347,M,-29.744,M,0.0,*5E
###2023-12-09 13:03:48.563992$GNGGA,180347.70,4138.0600245,N,07032.3753179,W,1,24,0.6,13.346,M,-29.744,M,0.0,*52
###2023-12-09 13:03:48.765093$GNGGA,180347.90,4138.0599957,N,07032.3750678,W,1,24,0.6,13.359,M,-29.744,M,0.0,*5C
###2023-12-09 13:03:48.970533$GNRMC,180348.10,A,4138.0599612,N,07032.3748143,W,3.42,101.22,091223,,,A*5D
###2023-12-09 13:03:48.974002$GNGGA,180348.10,4138.0599612,N,07032.3748143,W,1,24,0.6,13.351,M,-29.744,M,0.0,*5B
###2023-12-09 13:03:48.976267$GPGSA,A,3,03,04,16,26,28,29,31,32,,,,,1.1,0.6,0.9*3B
###2023-12-09 13:03:48.978329$GLGSA,A,3,65,71,72,73,74,75,,,,,,,1.1,0.6,0.9*24
###2023-12-09 13:03:48.980250$GAGSA,A,3,04,19,21,27,,,,,,,,,1.1,0.6,0.9*26
###2023-12-09 13:03:48.982228$GBGSA,A,3,14,24,25,26,33,,,,,,,,1.1,0.6,0.9*2F
###2023-12-09 13:03:48.985079$GPGSV,2,1,08,03,34,260,45,04,33,311,42,16,51,213,47,26,81,210,48*70
###2023-12-09 13:03:48.987908$GPGSV,2,2,08,28,48,071,44,29,25,060,43,31,68,040,47,32,18,140,42*7C
###2023-12-09 13:03:48.990761$GLGSV,2,1,06,65,25,327,40,71,40,173,46,72,73,265,46,73,35,042,44*65
###2023-12-09 13:03:48.992864$GLGSV,2,2,06,74,69,340,43,75,33,254,47,,,,,,,,*6D
###2023-12-09 13:03:48.995680$GAGSV,1,1,04,04,30,312,40,19,84,213,40,21,86,114,46,27,32,048,42*6A
###2023-12-09 13:03:48.998485$GBGSV,2,1,05,14,43,193,47,24,73,026,49,25,41,263,47,26,26,063,43*68
###2023-12-09 13:03:49.000246$GBGSV,2,2,05,33,57,231,49,,,,,,,,,,,,*51
###2023-12-09 13:03:49.001832$GNVTG,101.22,T,,M,3.42,N,6.34,K,A*27
###2023-12-09 13:03:49.003826$GNGST,180348.10,18.000,,,,0.081,0.067,0.160*56
###2023-12-09 13:03:49.005381$GNZDA,180348.10,09,12,2023,00,00*76
###2023-12-09 13:03:49.006146$GNEBP,,,,,,M*13
###2023-12-09 13:03:49.164421$GNGGA,180348.30,4138.0599327,N,07032.3745731,W,1,24,0.6,13.345,M,-29.744,M,0.0,*51
###2023-12-09 13:03:49.364559$GNGGA,180348.50,4138.0599053,N,07032.3743245,W,1,24,0.6,13.364,M,-29.744,M,0.0,*54
###2023-12-09 13:03:49.565236$GNGGA,180348.70,4138.0598686,N,07032.3740777,W,1,24,0.6,13.355,M,-29.744,M,0.0,*5C
###2023-12-09 13:03:49.765468$GNGGA,180348.90,4138.0598468,N,07032.3738368,W,1,24,0.6,13.364,M,-29.744,M,0.0,*57
###2023-12-09 13:03:49.967031$GNRMC,180349.10,A,4138.0598255,N,07032.3735832,W,3.52,100.15,091223,,,A*5B
###2023-12-09 13:03:49.969880$GNGGA,180349.10,4138.0598255,N,07032.3735832,W,1,24,0.6,13.373,M,-29.744,M,0.0,*59
###2023-12-09 13:03:49.971742$GPGSA,A,3,03,04,16,26,28,29,31,32,,,,,1.1,0.6,0.9*3B
###2023-12-09 13:03:49.973439$GLGSA,A,3,65,71,72,73,74,75,,,,,,,1.1,0.6,0.9*24
###2023-12-09 13:03:49.975017$GAGSA,A,3,04,19,21,27,,,,,,,,,1.1,0.6,0.9*26
###2023-12-09 13:03:49.976656$GBGSA,A,3,14,24,25,26,33,,,,,,,,1.1,0.6,0.9*2F
###2023-12-09 13:03:49.978994$GPGSV,2,1,08,03,34,260,47,04,33,311,44,16,51,213,49,26,81,210,50*73
###2023-12-09 13:03:49.981337$GPGSV,2,2,08,28,48,071,45,29,25,060,43,31,68,040,48,32,18,140,44*74
###2023-12-09 13:03:49.983691$GLGSV,2,1,06,65,25,327,39,71,40,173,46,72,73,265,46,73,35,042,44*6B
###2023-12-09 13:03:49.985432$GLGSV,2,2,06,74,69,340,43,75,33,254,47,,,,,,,,*6D
###2023-12-09 13:03:49.987775$GAGSV,1,1,04,04,30,312,41,19,84,213,42,21,86,114,46,27,32,048,43*68
###2023-12-09 13:03:49.990114$GBGSV,2,1,05,14,43,193,45,24,73,026,47,25,41,263,45,26,26,063,42*67
###2023-12-09 13:03:49.991579$GBGSV,2,2,05,33,57,231,48,,,,,,,,,,,,*50
###2023-12-09 13:03:49.992902$GNVTG,100.15,T,,M,3.52,N,6.52,K,A*23
###2023-12-09 13:03:49.994549$GNGST,180349.10,18.000,,,,0.080,0.066,0.160*57
###2023-12-09 13:03:49.995846$GNZDA,180349.10,09,12,2023,00,00*77
###2023-12-09 13:03:49.996483$GNEBP,,,,,,M*13
###2023-12-09 13:03:50.162972$GNGGA,180349.30,4138.0598022,N,07032.3733351,W,1,24,0.6,13.360,M,-29.744,M,0.0,*53
###2023-12-09 13:03:50.363615$GNGGA,180349.50,4138.0597932,N,07032.3730857,W,1,24,0.6,13.377,M,-29.744,M,0.0,*5A
###2023-12-09 13:03:50.564586$GNGGA,180349.70,4138.0597731,N,07032.3728260,W,1,24,0.6,13.380,M,-29.744,M,0.0,*5A
###2023-12-09 13:03:50.764327$GNGGA,180349.90,4138.0597532,N,07032.3725749,W,1,24,0.6,13.370,M,-29.744,M,0.0,*59
###2023-12-09 13:03:50.965977$GNRMC,180350.10,A,4138.0597414,N,07032.3723206,W,3.52,93.16,091223,,,A*6D
###2023-12-09 13:03:50.968880$GNGGA,180350.10,4138.0597414,N,07032.3723206,W,1,24,0.6,13.387,M,-29.744,M,0.0,*5C
###2023-12-09 13:03:50.970765$GPGSA,A,3,03,04,16,26,28,29,31,32,,,,,1.1,0.6,0.9*3B
###2023-12-09 13:03:50.972484$GLGSA,A,3,65,71,72,73,74,75,,,,,,,1.1,0.6,0.9*24
###2023-12-09 13:03:50.974070$GAGSA,A,3,04,19,21,27,,,,,,,,,1.1,0.6,0.9*26
###2023-12-09 13:03:50.975724$GBGSA,A,3,14,24,25,26,33,,,,,,,,1.1,0.6,0.9*2F
###2023-12-09 13:03:50.978055$GPGSV,2,1,08,03,34,260,46,04,33,311,43,16,51,213,49,26,81,210,49*7D
###2023-12-09 13:03:50.980397$GPGSV,2,2,08,28,48,071,45,29,25,060,42,31,68,040,47,32,18,140,42*7C
###2023-12-09 13:03:50.982740$GLGSV,2,1,06,65,25,327,39,71,40,173,46,72,73,265,46,73,35,042,44*6B
###2023-12-09 13:03:50.984483$GLGSV,2,2,06,74,69,340,43,75,33,254,47,,,,,,,,*6D
###2023-12-09 13:03:50.986815$GAGSV,1,1,04,04,30,312,40,19,84,213,41,21,86,114,46,27,32,048,42*6B
###2023-12-09 13:03:50.989144$GBGSV,2,1,05,14,43,193,46,24,73,026,47,25,41,263,46,26,26,063,42*67
###2023-12-09 13:03:50.990608$GBGSV,2,2,05,33,57,231,49,,,,,,,,,,,,*51
###2023-12-09 13:03:50.991897$GNVTG,93.16,T,,M,3.52,N,6.52,K,A*1B
###2023-12-09 13:03:50.993541$GNGST,180350.10,18.000,,,,0.080,0.066,0.160*5F
###2023-12-09 13:03:50.994840$GNZDA,180350.10,09,12,2023,00,00*7F
###2023-12-09 13:03:50.995480$GNEBP,,,,,,M*13
###2023-12-09 13:03:51.165809$GNGGA,180350.30,4138.0597246,N,07032.3720604,W,1,24,0.6,13.380,M,-29.744,M,0.0,*5D
###2023-12-09 13:03:51.364156$GNGGA,180350.50,4138.0597086,N,07032.3718150,W,1,24,0.6,13.378,M,-29.744,M,0.0,*5F
###2023-12-09 13:03:51.565169$GNGGA,180350.70,4138.0596930,N,07032.3715573,W,1,24,0.6,13.393,M,-29.744,M,0.0,*55
###2023-12-09 13:03:51.764776$GNGGA,180350.90,4138.0596729,N,07032.3713008,W,1,24,0.6,13.384,M,-29.744,M,0.0,*54
###2023-12-09 13:03:51.969180$GNRMC,180351.10,A,4138.0596556,N,07032.3710520,W,3.50,97.36,091223,,,A*6D
###2023-12-09 13:03:51.972076$GNGGA,180351.10,4138.0596556,N,07032.3710520,W,1,24,0.6,13.389,M,-29.744,M,0.0,*56
###2023-12-09 13:03:51.973943$GPGSA,A,3,03,04,16,26,28,29,31,32,,,,,1.1,0.6,0.9*3B
###2023-12-09 13:03:51.975675$GLGSA,A,3,65,71,72,73,74,75,,,,,,,1.1,0.6,0.9*24
###2023-12-09 13:03:51.977262$GAGSA,A,3,04,19,21,27,,,,,,,,,1.1,0.6,0.9*26
###2023-12-09 13:03:51.978924$GBGSA,A,3,14,24,25,26,33,,,,,,,,1.1,0.6,0.9*2F
###2023-12-09 13:03:51.981241$GPGSV,2,1,08,03,34,260,46,04,33,311,43,16,51,213,49,26,81,210,50*75
###2023-12-09 13:03:51.983573$GPGSV,2,2,08,28,48,071,45,29,25,060,42,31,68,040,48,32,18,140,42*73
###2023-12-09 13:03:51.985916$GLGSV,2,1,06,65,25,327,40,71,40,173,46,72,73,265,46,73,35,042,44*65
