###2023-12-09 12:59:15.975358$GBGSA,A,3,14,24,25,26,33,,,,,,,,1.1,0.6,0.9*2F
###2023-12-09 12:59:15.977704$GPGSV,2,1,08,03,35,262,43,04,32,311,43,16,48,211,44,26,78,209,48*72
###2023-12-09 12:59:15.980056$GPGSV,2,2,08,28,50,069,45,29,25,063,43,31,69,033,48,32,20,139,45*76
###2023-12-09 12:59:15.982375$GLGSV,2,1,06,65,23,328,40,71,42,172,45,72,73,273,46,73,37,041,44*6A
###2023-12-09 12:59:15.984137$GLGSV,2,2,06,74,70,334,43,75,31,252,44,,,,,,,,*61
###2023-12-09 12:59:15.986465$GAGSV,1,1,04,04,28,312,42,19,85,226,40,21,85,133,46,27,34,048,41*65
###2023-12-09 12:59:15.988810$GBGSV,2,1,05,14,44,193,43,24,74,022,48,25,40,261,44,26,27,062,44*6E
###2023-12-09 12:59:15.990270$GBGSV,2,2,05,33,58,234,46,,,,,,,,,,,,*54
###2023-12-09 12:59:15.991619$GNVTG,199.44,T,,M,2.78,N,5.15,K,A*2E
###2023-12-09 12:59:15.993270$GNGST,175915.10,18.000,,,,0.083,0.068,0.160*53
###2023-12-09 12:59:15.994572$GNZDA,175915.10,09,12,2023,00,00*7E
###2023-12-09 12:59:15.995213$GNEBP,,,,,,M*13
###2023-12-09 12:59:16.160893$GNGGA,175915.30,4138.0251933,N,07032.2552928,W,1,24,0.6,13.109,M,-29.744,M,0.0,*5C
###2023-12-09 12:59:16.364653$GNGGA,175915.50,4138.0250394,N,07032.2553469,W,1,24,0.6,13.079,M,-29.744,M,0.0,*53
###2023-12-09 12:59:16.561427$GNGGA,175915.70,4138.0248943,N,07032.2554184,W,1,24,0.6,13.090,M,-29.744,M,0.0,*5E
###2023-12-09 12:59:16.762540$GNGGA,175915.90,4138.0247385,N,07032.2555222,W,1,24,0.6,13.098,M,-29.744,M,0.0,*59
###2023-12-09 12:59:16.965270$GNRMC,175916.10,A,4138.0245895,N,07032.2556096,W,2.94,202.11,091223,,,A*5E
###2023-12-09 12:59:16.968165$GNGGA,175916.10,4138.0245895,N,07032.2556096,W,1,24,0.6,13.078,M,-29.744,M,0.0,*5A
###2023-12-09 12:59:16.970035$GPGSA,A,3,03,04,16,26,28,29,31,32,,,,,1.1,0.6,0.9*3B
###2023-12-09 12:59:16.971766$GLGSA,A,3,65,71,72,73,74,75,,,,,,,1.1,0.6,0.9*24
###2023-12-09 12:59:16.973355$GAGSA,A,3,04,19,21,27,,,,,,,,,1.1,0.6,0.9*26
###2023-12-09 12:59:16.975017$GBGSA,A,3,14,24,25,26,33,,,,,,,,1.1,0.6,0.9*2F
###2023-12-09 12:59:16.977352$GPGSV,2,1,08,03,35,262,44,04,32,311,43,16,48,211,45,26,78,209,48*74
###2023-12-09 12:59:16.979704$GPGSV,2,2,08,28,50,069,45,29,25,063,41,31,69,033,47,32,20,139,44*7A
###2023-12-09 12:59:16.982048$GLGSV,2,1,06,65,23,328,39,71,42,172,45,72,73,273,45,73,37,041,46*65
###2023-12-09 12:59:16.983817$GLGSV,2,2,06,74,70,334,42,75,31,252,45,,,,,,,,*61
###2023-12-09 12:59:16.986146$GAGSV,1,1,04,04,28,312,41,19,85,226,40,21,85,133,46,27,34,048,43*64
###2023-12-09 12:59:16.988494$GBGSV,2,1,05,14,44,193,43,24,74,022,49,25,40,261,46,26,27,062,44*6D
###2023-12-09 12:59:16.989958$GBGSV,2,2,05,33,58,234,49,,,,,,,,,,,,*5B
###2023-12-09 12:59:16.991311$GNVTG,202.11,T,,M,2.94,N,5.44,K,A*29
###2023-12-09 12:59:16.992963$GNGST,175916.10,18.000,,,,0.083,0.068,0.160*50
###2023-12-09 12:59:16.994254$GNZDA,175916.10,09,12,2023,00,00*7D
###2023-12-09 12:59:16.994904$GNEBP,,,,,,M*13
###2023-12-09 12:59:17.163322$GNGGA,175916.30,4138.0244369,N,07032.2556873,W,1,24,0.6,13.079,M,-29.744,M,0.0,*53
###2023-12-09 12:59:17.363288$GNGGA,175916.50,4138.0242738,N,07032.2557698,W,1,24,0.6,13.068,M,-29.744,M,0.0,*59
###2023-12-09 12:59:17.563590$GNGGA,175916.70,4138.0241169,N,07032.2558615,W,1,24,0.6,13.063,M,-29.744,M,0.0,*5B
###2023-12-09 12:59:17.763825$GNGGA,175916.90,4138.0239591,N,07032.2559627,W,1,24,0.6,13.071,M,-29.744,M,0.0,*5A
###2023-12-09 12:59:17.965279$GNRMC,175917.10,A,4138.0237912,N,07032.2560428,W,3.29,195.67,091223,,,A*5B
###2023-12-09 12:59:17.968178$GNGGA,175917.10,4138.0237912,N,07032.2560428,W,1,24,0.6,13.066,M,-29.744,M,0.0,*5B
###2023-12-09 12:59:17.970048$GPGSA,A,3,03,04,16,26,28,29,31,32,,,,,1.1,0.6,0.9*3B
###2023-12-09 12:59:17.971785$GLGSA,A,3,65,71,72,73,74,75,,,,,,,1.1,0.6,0.9*24
###2023-12-09 12:59:17.973376$GAGSA,A,3,04,19,21,27,,,,,,,,,1.1,0.6,0.9*26
###2023-12-09 12:59:17.975041$GBGSA,A,3,14,24,25,26,33,,,,,,,,1.1,0.6,0.9*2F
###2023-12-09 12:59:17.977377$GPGSV,2,1,08,03,35,262,44,04,32,311,43,16,48,211,44,26,78,209,48*75
###2023-12-09 12:59:17.979732$GPGSV,2,2,08,28,50,069,45,29,25,063,40,31,69,033,47,32,20,139,44*7B
###2023-12-09 12:59:17.982078$GLGSV,2,1,06,65,23,328,40,71,42,172,45,72,73,273,46,73,37,041,46*68
###2023-12-09 12:59:17.983845$GLGSV,2,2,06,74,70,334,42,75,31,252,44,,,,,,,,*60
###2023-12-09 12:59:17.986180$GAGSV,1,1,04,04,28,312,43,19,85,226,40,21,85,133,46,27,34,048,42*67
###2023-12-09 12:59:17.988528$GBGSV,2,1,05,14,44,193,43,24,74,022,49,25,40,261,47,26,27,062,43*6B
###2023-12-09 12:59:17.989991$GBGSV,2,2,05,33,58,234,48,,,,,,,,,,,,*5A
###2023-12-09 12:59:17.991332$GNVTG,195.67,T,,M,3.29,N,6.08,K,A*29
###2023-12-09 12:59:17.992989$GNGST,175917.10,18.000,,,,0.082,0.068,0.160*50
###2023-12-09 12:59:17.994286$GNZDA,175917.10,09,12,2023,00,00*7C
###2023-12-09 12:59:17.994938$GNEBP,,,,,,M*13
###2023-12-09 12:59:18.163435$GNGGA,175917.30,4138.0236187,N,07032.2560991,W,1,24,0.6,13.044,M,-29.744,M,0.0,*53
###2023-12-09 12:59:18.363329$GNGGA,175917.50,4138.0234537,N,07032.2561693,W,1,24,0.6,13.051,M,-29.744,M,0.0,*50
###2023-12-09 12:59:18.563320$GNGGA,175917.70,4138.0232760,N,07032.2562537,W,1,24,0.6,13.044,M,-29.744,M,0.0,*5E
###2023-12-09 12:59:18.763564$GNGGA,175917.90,4138.0231099,N,07032.2563077,W,1,24,0.6,13.028,M,-29.744,M,0.0,*58
###2023-12-09 12:59:18.966048$GNRMC,175918.10,A,4138.0229382,N,07032.2563290,W,3.32,184.67,091223,,,A*54
###2023-12-09 12:59:18.968932$GNGGA,175918.10,4138.0229382,N,07032.2563290,W,1,24,0.6,13.041,M,-29.744,M,0.0,*5B
###2023-12-09 12:59:18.970808$GPGSA,A,3,03,04,16,26,28,29,31,32,,,,,1.1,0.6,0.9*3B
###2023-12-09 12:59:18.972526$GLGSA,A,3,65,71,72,73,74,75,,,,,,,1.1,0.6,0.9*24
###2023-12-09 12:59:18.974103$GAGSA,A,3,04,19,21,27,,,,,,,,,1.1,0.6,0.9*26
###2023-12-09 12:59:18.975757$GBGSA,A,3,14,24,25,26,33,,,,,,,,1.1,0.6,0.9*2F
###2023-12-09 12:59:18.978079$GPGSV,2,1,08,03,35,262,43,04,32,311,43,16,48,211,44,26,78,209,48*72
###2023-12-09 12:59:18.980433$GPGSV,2,2,08,28,50,069,45,29,25,063,44,31,69,033,47,32,20,139,44*7F
###2023-12-09 12:59:18.982776$GLGSV,2,1,06,65,23,328,41,71,42,172,43,72,73,273,46,73,37,041,45*6C
###2023-12-09 12:59:18.984528$GLGSV,2,2,06,74,70,334,43,75,31,252,44,,,,,,,,*61
###2023-12-09 12:59:18.986875$GAGSV,1,1,04,04,28,312,41,19,85,226,40,21,85,133,46,27,34,048,42*65
###2023-12-09 12:59:18.989208$GBGSV,2,1,05,14,44,193,44,24,74,022,49,25,40,261,46,26,27,062,46*68
###2023-12-09 12:59:18.990675$GBGSV,2,2,05,33,58,234,49,,,,,,,,,,,,*5B
###2023-12-09 12:59:18.992001$GNVTG,184.67,T,,M,3.32,N,6.16,K,A*2C
###2023-12-09 12:59:18.993653$GNGST,175918.10,18.000,,,,0.082,0.067,0.160*50
###2023-12-09 12:59:18.994959$GNZDA,175918.10,09,12,2023,00,00*73
###2023-12-09 12:59:18.995600$GNEBP,,,,,,M*13
###2023-12-09 12:59:19.162354$GNGGA,175918.30,4138.0227598,N,07032.2563551,W,1,24,0.6,13.021,M,-29.744,M,0.0,*56
###2023-12-09 12:59:19.364564$GNGGA,175918.50,4138.0225977,N,07032.2563956,W,1,24,0.6,13.023,M,-29.744,M,0.0,*56
###2023-12-09 12:59:19.564287$GNGGA,175918.70,4138.0224235,N,07032.2564282,W,1,24,0.6,13.037,M,-29.744,M,0.0,*58
###2023-12-09 12:59:19.765075$GNGGA,175918.90,4138.0222527,N,07032.2564254,W,1,24,0.6,13.009,M,-29.744,M,0.0,*52
###2023-12-09 12:59:19.966311$GNRMC,175919.10,A,4138.0220898,N,07032.2564200,W,3.03,180.58,091223,,,A*58
###2023-12-09 12:59:19.969205$GNGGA,175919.10,4138.0220898,N,07032.2564200,W,1,24,0.6,13.020,M,-29.744,M,0.0,*5A
###2023-12-09 12:59:19.971086$GPGSA,A,3,03,04,16,26,28,29,31,32,,,,,1.1,0.6,0.9*3B
###2023-12-09 12:59:19.972809$GLGSA,A,3,65,71,72,73,74,75,,,,,,,1.1,0.6,0.9*24
###2023-12-09 12:59:19.974395$GAGSA,A,3,04,19,21,27,,,,,,,,,1.1,0.6,0.9*26
###2023-12-09 12:59:19.976060$GBGSA,A,3,14,24,25,26,33,,,,,,,,1.1,0.6,0.9*2F
###2023-12-09 12:59:19.978387$GPGSV,2,1,08,03,35,262,45,04,32,311,44,16,49,212,45,26,78,209,49*71
###2023-12-09 12:59:19.980733$GPGSV,2,2,08,28,50,069,46,29,25,063,44,31,69,033,48,32,20,139,42*75
###2023-12-09 12:59:19.983078$GLGSV,2,1,06,65,23,328,41,71,42,172,44,72,73,273,47,73,37,041,45*6A
###2023-12-09 12:59:19.984823$GLGSV,2,2,06,74,70,334,43,75,31,252,45,,,,,,,,*60
###2023-12-09 12:59:19.987176$GAGSV,1,1,04,04,28,312,41,19,85,226,41,21,85,133,46,27,34,048,43*65
###2023-12-09 12:59:19.989529$GBGSV,2,1,05,14,44,193,43,24,74,022,49,25,40,261,46,26,27,062,44*6D
###2023-12-09 12:59:19.991262$GBGSV,2,2,05,33,58,234,49,,,,,,,,,,,,*5B
###2023-12-09 12:59:19.992604$GNVTG,180.58,T,,M,3.03,N,5.62,K,A*26
###2023-12-09 12:59:19.994272$GNGST,175919.10,18.000,,,,0.082,0.067,0.160*51
###2023-12-09 12:59:19.995585$GNZDA,175919.10,09,12,2023,00,00*72
###2023-12-09 12:59:19.996229$GNEBP,,,,,,M*13
###2023-12-09 12:59:20.162298$GNGGA,175919.30,4138.0219149,N,07032.2564216,W,1,24,0.6,13.027,M,-29.744,M,0.0,*57
###2023-12-09 12:59:20.363399$GNGGA,175919.50,4138.0217400,N,07032.2564288,W,1,24,0.6,13.015,M,-29.744,M,0.0,*51
###2023-12-09 12:59:20.564244$GNGGA,175919.70,4138.0215666,N,07032.2564367,W,1,24,0.6,13.023,M,-29.744,M,0.0,*56
###2023-12-09 12:59:20.763926$GNGGA,175919.90,4138.0213846,N,07032.2564318,W,1,24,0.6,13.017,M,-29.744,M,0.0,*5D
