###2023-12-09 13:44:40.023086$GBGSV,1,1,04,12,19,123,42,24,59,051,47,25,54,281,43,35,16,052,39*69
###2023-12-09 13:44:40.024444$GNVTG,243.17,T,,M,0.02,N,0.04,K,A*26
###2023-12-09 13:44:40.026061$GNGST,184439.10,7.700,,,,0.200,0.110,0.300*64
###2023-12-09 13:44:40.027372$GNZDA,184439.10,09,12,2023,00,00*73
###2023-12-09 13:44:40.028016$GNEBP,,,,,,M*13
###2023-12-09 13:44:40.198448$GNGGA,184439.30,4138.0390812,N,07032.4389017,W,1,18,0.8,13.807,M,-29.746,M,0.0,*58
###2023-12-09 13:44:40.401361$GNGGA,184439.50,4138.0390836,N,07032.4389011,W,1,18,0.8,13.809,M,-29.746,M,0.0,*50
###2023-12-09 13:44:40.597565$GNGGA,184439.70,4138.0390863,N,07032.4389005,W,1,18,0.8,13.810,M,-29.746,M,0.0,*5F
###2023-12-09 13:44:40.797166$GNGGA,184439.90,4138.0390881,N,07032.4389000,W,1,18,0.8,13.813,M,-29.746,M,0.0,*5B
###2023-12-09 13:44:41.002123$GNRMC,184440.10,A,4138.0390910,N,07032.4388999,W,0.04,243.17,091223,,,A*56
###2023-12-09 13:44:41.005210$GNGGA,184440.10,4138.0390910,N,07032.4388999,W,1,18,0.8,13.817,M,-29.746,M,0.0,*58
###2023-12-09 13:44:41.007069$GPGSA,A,3,04,16,26,28,29,31,,,,,,,1.3,0.8,1.1*3C
###2023-12-09 13:44:41.008895$GLGSA,A,3,65,72,73,74,75,83,,,,,,,1.3,0.8,1.1*2C
###2023-12-09 13:44:41.010436$GAGSA,A,3,04,27,,,,,,,,,,,1.3,0.8,1.1*28
###2023-12-09 13:44:41.012028$GBGSA,A,3,12,24,25,35,,,,,,,,,1.3,0.8,1.1*2E
###2023-12-09 13:44:41.014346$GPGSV,2,1,06,04,50,305,45,16,71,227,42,26,79,041,40,28,35,088,42*7B
###2023-12-09 13:44:41.016101$GPGSV,2,2,06,29,18,043,42,31,56,072,50,,,,,,,,*7D
###2023-12-09 13:44:41.018423$GLGSV,2,1,06,65,42,313,44,72,58,215,36,73,19,055,44,74,56,021,36*65
###2023-12-09 13:44:41.020181$GLGSV,2,2,06,75,46,277,46,83,16,043,37,,,,,,,,*6C
###2023-12-09 13:44:41.021918$GAGSV,1,1,02,04,43,308,45,27,19,051,40,,,,,,,,*6E
###2023-12-09 13:44:41.024243$GBGSV,1,1,04,12,19,123,42,24,59,051,47,25,54,281,43,35,16,052,39*69
###2023-12-09 13:44:41.025562$GNVTG,243.17,T,,M,0.04,N,0.07,K,A*23
###2023-12-09 13:44:41.027178$GNGST,184440.10,7.200,,,,0.200,0.110,0.300*6F
###2023-12-09 13:44:41.028460$GNZDA,184440.10,09,12,2023,00,00*7D
###2023-12-09 13:44:41.029094$GNEBP,,,,,,M*13
###2023-12-09 13:44:41.198281$GNGGA,184440.30,4138.0390913,N,07032.4389008,W,1,18,0.8,13.815,M,-29.746,M,0.0,*5B
###2023-12-09 13:44:41.398818$GNGGA,184440.50,4138.0390942,N,07032.4388989,W,1,18,0.8,13.821,M,-29.746,M,0.0,*5F
###2023-12-09 13:44:41.598280$GNGGA,184440.70,4138.0390962,N,07032.4388994,W,1,18,0.8,13.820,M,-29.746,M,0.0,*52
###2023-12-09 13:44:41.797843$GNGGA,184440.90,4138.0390986,N,07032.4388982,W,1,18,0.8,13.825,M,-29.746,M,0.0,*54
###2023-12-09 13:44:41.999705$GNRMC,184441.10,A,4138.0390985,N,07032.4388985,W,0.06,243.17,091223,,,A*54
###2023-12-09 13:44:42.002554$GNGGA,184441.10,4138.0390985,N,07032.4388985,W,1,18,0.8,13.827,M,-29.746,M,0.0,*5B
###2023-12-09 13:44:42.004286$GPGSA,A,3,04,16,26,28,29,31,,,,,,,1.3,0.8,1.1*3C
###2023-12-09 13:44:42.005995$GLGSA,A,3,65,72,73,74,75,83,,,,,,,1.3,0.8,1.1*2C
###2023-12-09 13:44:42.007457$GAGSA,A,3,04,27,,,,,,,,,,,1.3,0.8,1.1*28
###2023-12-09 13:44:42.009039$GBGSA,A,3,12,24,25,35,,,,,,,,,1.3,0.8,1.1*2E
###2023-12-09 13:44:42.011371$GPGSV,2,1,06,04,50,305,45,16,71,227,42,26,79,041,40,28,35,088,42*7B
###2023-12-09 13:44:42.013113$GPGSV,2,2,06,29,18,043,42,31,56,072,50,,,,,,,,*7D
###2023-12-09 13:44:42.015443$GLGSV,2,1,06,65,42,313,44,72,58,215,36,73,19,055,44,74,56,021,36*65
###2023-12-09 13:44:42.017183$GLGSV,2,2,06,75,46,277,45,83,16,043,37,,,,,,,,*6F
###2023-12-09 13:44:42.018961$GAGSV,1,1,02,04,43,308,45,27,19,051,41,,,,,,,,*6F
###2023-12-09 13:44:42.021284$GBGSV,1,1,04,12,19,123,41,24,59,051,46,25,54,281,43,35,16,052,39*6B
###2023-12-09 13:44:42.022622$GNVTG,243.17,T,,M,0.06,N,0.11,K,A*26
###2023-12-09 13:44:42.024236$GNGST,184441.10,7.300,,,,0.200,0.110,0.300*6F
###2023-12-09 13:44:42.025527$GNZDA,184441.10,09,12,2023,00,00*7C
###2023-12-09 13:44:42.026165$GNEBP,,,,,,M*13
###2023-12-09 13:44:42.198778$GNGGA,184441.30,4138.0390987,N,07032.4388982,W,1,18,0.8,13.831,M,-29.746,M,0.0,*5B
###2023-12-09 13:44:42.397808$GNGGA,184441.50,4138.0390993,N,07032.4388987,W,1,18,0.8,13.834,M,-29.746,M,0.0,*58
###2023-12-09 13:44:42.597278$GNGGA,184441.70,4138.0390995,N,07032.4388991,W,1,18,0.8,13.831,M,-29.746,M,0.0,*5E
###2023-12-09 13:44:42.798940$GNGGA,184441.90,4138.0391016,N,07032.4388988,W,1,18,0.8,13.839,M,-29.746,M,0.0,*53
###2023-12-09 13:44:43.001958$GNRMC,184442.10,A,4138.0391041,N,07032.4388975,W,0.06,243.17,091223,,,A*58
###2023-12-09 13:44:43.004840$GNGGA,184442.10,4138.0391041,N,07032.4388975,W,1,18,0.8,13.844,M,-29.746,M,0.0,*52
###2023-12-09 13:44:43.006573$GPGSA,A,3,04,16,26,28,29,31,,,,,,,1.3,0.8,1.1*3C
###2023-12-09 13:44:43.008284$GLGSA,A,3,65,72,73,74,75,83,,,,,,,1.3,0.8,1.1*2C
###2023-12-09 13:44:43.009732$GAGSA,A,3,04,27,,,,,,,,,,,1.3,0.8,1.1*28
###2023-12-09 13:44:43.011319$GBGSA,A,3,12,24,25,35,,,,,,,,,1.3,0.8,1.1*2E
###2023-12-09 13:44:43.013652$GPGSV,2,1,06,04,50,305,45,16,71,227,42,26,79,041,40,28,35,088,43*7A
###2023-12-09 13:44:43.015406$GPGSV,2,2,06,29,18,043,42,31,56,072,50,,,,,,,,*7D
###2023-12-09 13:44:43.017736$GLGSV,2,1,06,65,42,313,44,72,58,215,36,73,19,055,44,74,56,021,36*65
###2023-12-09 13:44:43.019488$GLGSV,2,2,06,75,46,277,46,83,16,043,37,,,,,,,,*6C
###2023-12-09 13:44:43.021224$GAGSV,1,1,02,04,43,308,45,27,19,051,40,,,,,,,,*6E
###2023-12-09 13:44:43.023554$GBGSV,1,1,04,12,19,123,42,24,59,051,47,25,54,281,43,35,16,052,40*67
###2023-12-09 13:44:43.024879$GNVTG,243.17,T,,M,0.06,N,0.11,K,A*26
###2023-12-09 13:44:43.026492$GNGST,184442.10,6.500,,,,0.200,0.110,0.290*63
###2023-12-09 13:44:43.027792$GNZDA,184442.10,09,12,2023,00,00*7F
###2023-12-09 13:44:43.028430$GNEBP,,,,,,M*13
###2023-12-09 13:44:43.197327$GNGGA,184442.30,4138.0391075,N,07032.4388978,W,1,18,0.8,13.842,M,-29.746,M,0.0,*5C
###2023-12-09 13:44:43.401430$GNGGA,184442.50,4138.0391131,N,07032.4388967,W,1,18,0.8,13.845,M,-29.746,M,0.0,*52
###2023-12-09 13:44:43.596710$GNGGA,184442.70,4138.0391152,N,07032.4388974,W,1,18,0.8,13.847,M,-29.746,M,0.0,*55
###2023-12-09 13:44:43.796531$GNGGA,184442.90,4138.0391181,N,07032.4388982,W,1,18,0.8,13.845,M,-29.746,M,0.0,*5E
###2023-12-09 13:44:44.000908$GNRMC,184443.10,A,4138.0391205,N,07032.4388979,W,0.04,243.17,091223,,,A*55
###2023-12-09 13:44:44.003989$GNGGA,184443.10,4138.0391205,N,07032.4388979,W,1,18,0.8,13.848,M,-29.746,M,0.0,*51
###2023-12-09 13:44:44.005849$GPGSA,A,3,04,16,26,28,29,31,,,,,,,1.3,0.8,1.1*3C
###2023-12-09 13:44:44.007739$GLGSA,A,3,65,72,73,74,75,83,,,,,,,1.3,0.8,1.1*2C
###2023-12-09 13:44:44.009296$GAGSA,A,3,04,27,,,,,,,,,,,1.3,0.8,1.1*28
###2023-12-09 13:44:44.010992$GBGSA,A,3,12,24,25,35,,,,,,,,,1.3,0.8,1.1*2E
###2023-12-09 13:44:44.013320$GPGSV,2,1,06,04,50,305,45,16,71,227,42,26,79,041,40,28,35,088,43*7A
###2023-12-09 13:44:44.015082$GPGSV,2,2,06,29,18,043,42,31,56,072,50,,,,,,,,*7D
###2023-12-09 13:44:44.017410$GLGSV,2,1,06,65,42,313,44,72,58,215,36,73,19,055,44,74,56,021,35*66
###2023-12-09 13:44:44.019166$GLGSV,2,2,06,75,46,277,45,83,16,043,37,,,,,,,,*6F
###2023-12-09 13:44:44.020910$GAGSV,1,1,02,04,43,308,45,27,19,051,40,,,,,,,,*6E
###2023-12-09 13:44:44.023249$GBGSV,1,1,04,12,19,123,42,24,59,051,47,25,54,281,43,35,16,052,40*67
###2023-12-09 13:44:44.024579$GNVTG,243.17,T,,M,0.04,N,0.07,K,A*23
###2023-12-09 13:44:44.026193$GNGST,184443.10,6.900,,,,0.200,0.110,0.290*6E
###2023-12-09 13:44:44.027497$GNZDA,184443.10,09,12,2023,00,00*7E
###2023-12-09 13:44:44.028138$GNEBP,,,,,,M*13
###2023-12-09 13:44:44.198260$GNGGA,184443.30,4138.0391224,N,07032.4388994,W,1,18,0.8,13.847,M,-29.746,M,0.0,*5C
###2023-12-09 13:44:44.397728$GNGGA,184443.50,4138.0391234,N,07032.4388993,W,1,18,0.8,13.851,M,-29.746,M,0.0,*5B
###2023-12-09 13:44:44.598819$GNGGA,184443.70,4138.0391248,N,07032.4389002,W,1,17,0.8,13.850,M,-29.746,M,0.0,*5C
###2023-12-09 13:44:44.798782$GNGGA,184443.90,4138.0391276,N,07032.4389000,W,1,18,0.8,13.852,M,-29.746,M,0.0,*50
###2023-12-09 13:44:45.005801$GNRMC,184444.10,A,4138.0391297,N,07032.4388999,W,0.02,243.17,091223,,,A*51
###2023-12-09 13:44:45.008701$GNGGA,184444.10,4138.0391297,N,07032.4388999,W,1,18,0.8,13.855,M,-29.746,M,0.0,*5F
###2023-12-09 13:44:45.010432$GPGSA,A,3,04,16,26,28,29,31,,,,,,,1.3,0.8,1.1*3C
###2023-12-09 13:44:45.012418$GLGSA,A,3,65,72,73,74,75,83,,,,,,,1.3,0.8,1.1*2C
###2023-12-09 13:44:45.013881$GAGSA,A,3,04,27,,,,,,,,,,,1.3,0.8,1.1*28
###2023-12-09 13:44:45.015533$GBGSA,A,3,12,24,25,35,,,,,,,,,1.3,0.8,1.1*2E
###2023-12-09 13:44:45.017869$GPGSV,2,1,06,04,50,305,45,16,71,227,42,26,79,041,40,28,35,088,43*7A
###2023-12-09 13:44:45.019627$GPGSV,2,2,06,29,18,043,42,31,56,072,50,,,,,,,,*7D
###2023-12-09 13:44:45.021952$GLGSV,2,1,06,65,42,313,45,72,57,214,36,73,19,055,44,74,56,021,35*69
###2023-12-09 13:44:45.023707$GLGSV,2,2,06,75,46,277,45,83,16,043,38,,,,,,,,*60
###2023-12-09 13:44:45.025450$GAGSV,1,1,02,04,43,308,45,27,19,051,40,,,,,,,,*6E
