###2023-12-09 12:55:45.989199$GNZDA,175545.10,09,12,2023,00,00*77
###2023-12-09 12:55:45.989998$GNEBP,,,,,,M*13
###2023-12-09 12:55:46.154207$GNGGA,175545.30,4138.0437907,N,07032.3893759,W,1,24,0.6,13.082,M,-29.745,M,0.0,*5E
###2023-12-09 12:55:46.353617$GNGGA,175545.50,4138.0437838,N,07032.3891732,W,1,24,0.6,13.091,M,-29.745,M,0.0,*58
###2023-12-09 12:55:46.553555$GNGGA,175545.70,4138.0437702,N,07032.3889743,W,1,24,0.6,13.079,M,-29.745,M,0.0,*55
###2023-12-09 12:55:46.754101$GNGGA,175545.90,4138.0437535,N,07032.3887772,W,1,24,0.6,13.093,M,-29.745,M,0.0,*55
###2023-12-09 12:55:46.956335$GNRMC,175546.10,A,4138.0437282,N,07032.3885713,W,2.84,101.03,091223,,,A*52
###2023-12-09 12:55:46.959821$GNGGA,175546.10,4138.0437282,N,07032.3885713,W,1,24,0.6,13.085,M,-29.745,M,0.0,*57
###2023-12-09 12:55:46.962072$GPGSA,A,3,03,04,16,26,28,29,31,32,,,,,1.1,0.6,0.9*3B
###2023-12-09 12:55:46.964188$GLGSA,A,3,65,71,72,73,74,75,,,,,,,1.1,0.6,0.9*24
###2023-12-09 12:55:46.966115$GAGSA,A,3,04,19,21,27,,,,,,,,,1.1,0.6,0.9*26
###2023-12-09 12:55:46.968129$GBGSA,A,3,14,24,25,26,33,,,,,,,,1.1,0.6,0.9*2F
###2023-12-09 12:55:46.970949$GPGSV,2,1,08,03,36,265,43,04,30,311,44,16,47,211,47,26,77,209,48*70
###2023-12-09 12:55:46.973774$GPGSV,2,2,08,28,51,068,45,29,25,064,42,31,70,031,47,32,21,139,40*71
###2023-12-09 12:55:46.976632$GLGSV,2,1,06,65,21,328,40,71,44,172,46,72,72,281,46,73,38,040,45*6E
###2023-12-09 12:55:46.978766$GLGSV,2,2,06,74,71,327,42,75,30,250,44,,,,,,,,*60
###2023-12-09 12:55:46.981618$GAGSV,1,1,04,04,27,312,42,19,85,242,40,21,84,147,46,27,35,048,43*69
###2023-12-09 12:55:46.984459$GBGSV,2,1,05,14,46,194,45,24,75,018,48,25,39,260,45,26,28,061,44*67
###2023-12-09 12:55:46.986222$GBGSV,2,2,05,33,59,237,48,,,,,,,,,,,,*58
###2023-12-09 12:55:46.987836$GNVTG,101.03,T,,M,2.84,N,5.26,K,A*2F
###2023-12-09 12:55:46.989829$GNGST,175546.10,18.000,,,,0.079,0.067,0.160*53
###2023-12-09 12:55:46.991415$GNZDA,175546.10,09,12,2023,00,00*74
###2023-12-09 12:55:46.992185$GNEBP,,,,,,M*13
###2023-12-09 12:55:47.155172$GNGGA,175546.30,4138.0436996,N,07032.3883719,W,1,24,0.6,13.087,M,-29.745,M,0.0,*54
###2023-12-09 12:55:47.355128$GNGGA,175546.50,4138.0436618,N,07032.3881726,W,1,24,0.6,13.095,M,-29.745,M,0.0,*56
###2023-12-09 12:55:47.554861$GNGGA,175546.70,4138.0436135,N,07032.3879747,W,1,24,0.6,13.085,M,-29.745,M,0.0,*5D
###2023-12-09 12:55:47.757410$GNGGA,175546.90,4138.0435540,N,07032.3877887,W,1,24,0.6,13.089,M,-29.745,M,0.0,*57
###2023-12-09 12:55:47.955260$GNRMC,175547.10,A,4138.0434840,N,07032.3876033,W,2.86,119.41,091223,,,A*50
###2023-12-09 12:55:47.958123$GNGGA,175547.10,4138.0434840,N,07032.3876033,W,1,24,0.6,13.094,M,-29.745,M,0.0,*58
###2023-12-09 12:55:47.959996$GPGSA,A,3,03,04,16,26,28,29,31,32,,,,,1.1,0.6,0.9*3B
###2023-12-09 12:55:47.961706$GLGSA,A,3,65,71,72,73,74,75,,,,,,,1.1,0.6,0.9*24
###2023-12-09 12:55:47.963297$GAGSA,A,3,04,19,21,27,,,,,,,,,1.1,0.6,0.9*26
###2023-12-09 12:55:47.964936$GBGSA,A,3,14,24,25,26,33,,,,,,,,1.1,0.6,0.9*2F
###2023-12-09 12:55:47.967257$GPGSV,2,1,08,03,36,265,44,04,30,311,43,16,47,211,46,26,77,209,48*71
###2023-12-09 12:55:47.969582$GPGSV,2,2,08,28,51,068,44,29,25,064,44,31,70,031,47,32,21,139,41*77
###2023-12-09 12:55:47.971912$GLGSV,2,1,06,65,21,328,43,71,44,172,45,72,72,281,46,73,38,040,46*6D
###2023-12-09 12:55:47.973654$GLGSV,2,2,06,74,71,327,42,75,30,250,44,,,,,,,,*60
###2023-12-09 12:55:47.975986$GAGSV,1,1,04,04,27,312,40,19,85,242,40,21,84,147,46,27,35,048,43*6B
###2023-12-09 12:55:47.978302$GBGSV,2,1,05,14,46,194,44,24,75,018,49,25,39,260,45,26,28,061,45*66
###2023-12-09 12:55:47.979757$GBGSV,2,2,05,33,59,237,49,,,,,,,,,,,,*59
###2023-12-09 12:55:47.981082$GNVTG,119.41,T,,M,2.86,N,5.29,K,A*2D
###2023-12-09 12:55:47.982738$GNGST,175547.10,18.000,,,,0.079,0.067,0.160*52
###2023-12-09 12:55:47.984029$GNZDA,175547.10,09,12,2023,00,00*75
###2023-12-09 12:55:47.984664$GNEBP,,,,,,M*13
###2023-12-09 12:55:48.154627$GNGGA,175547.30,4138.0434082,N,07032.3874254,W,1,24,0.6,13.094,M,-29.745,M,0.0,*5D
###2023-12-09 12:55:48.355513$GNGGA,175547.50,4138.0433206,N,07032.3872523,W,1,24,0.6,13.098,M,-29.745,M,0.0,*5F
###2023-12-09 12:55:48.554706$GNGGA,175547.70,4138.0432244,N,07032.3870894,W,1,24,0.6,13.095,M,-29.745,M,0.0,*54
###2023-12-09 12:55:48.758335$GNGGA,175547.90,4138.0431153,N,07032.3869399,W,1,24,0.6,13.100,M,-29.745,M,0.0,*5F
###2023-12-09 12:55:48.955628$GNRMC,175548.10,A,4138.0430024,N,07032.3868009,W,2.86,137.65,091223,,,A*5D
###2023-12-09 12:55:48.958509$GNGGA,175548.10,4138.0430024,N,07032.3868009,W,1,24,0.6,13.102,M,-29.745,M,0.0,*51
###2023-12-09 12:55:48.960375$GPGSA,A,3,03,04,16,26,28,29,31,32,,,,,1.1,0.6,0.9*3B
###2023-12-09 12:55:48.962086$GLGSA,A,3,65,71,72,73,74,75,,,,,,,1.1,0.6,0.9*24
###2023-12-09 12:55:48.963686$GAGSA,A,3,04,19,21,27,,,,,,,,,1.1,0.6,0.9*26
###2023-12-09 12:55:48.965336$GBGSA,A,3,14,24,25,26,33,,,,,,,,1.1,0.6,0.9*2F
###2023-12-09 12:55:48.967684$GPGSV,2,1,08,03,36,265,44,04,30,311,42,16,47,211,45,26,77,209,47*7C
###2023-12-09 12:55:48.970027$GPGSV,2,2,08,28,51,068,46,29,25,064,45,31,70,031,46,32,21,139,41*75
###2023-12-09 12:55:48.972370$GLGSV,2,1,06,65,21,328,42,71,44,172,45,72,72,281,45,73,38,040,46*6F
###2023-12-09 12:55:48.974118$GLGSV,2,2,06,74,71,327,43,75,30,250,46,,,,,,,,*63
###2023-12-09 12:55:48.976459$GAGSV,1,1,04,04,27,312,41,19,85,242,40,21,84,147,46,27,35,048,43*6A
###2023-12-09 12:55:48.978810$GBGSV,2,1,05,14,46,194,44,24,75,018,48,25,39,260,47,26,28,061,46*66
###2023-12-09 12:55:48.980273$GBGSV,2,2,05,33,59,237,48,,,,,,,,,,,,*58
###2023-12-09 12:55:48.981596$GNVTG,137.65,T,,M,2.86,N,5.29,K,A*27
###2023-12-09 12:55:48.983295$GNGST,175548.10,18.000,,,,0.079,0.067,0.160*5D
###2023-12-09 12:55:48.984595$GNZDA,175548.10,09,12,2023,00,00*7A
###2023-12-09 12:55:48.985234$GNEBP,,,,,,M*13
###2023-12-09 12:55:49.154753$GNGGA,175548.30,4138.0428809,N,07032.3866734,W,1,24,0.6,13.100,M,-29.745,M,0.0,*58
###2023-12-09 12:55:49.355514$GNGGA,175548.50,4138.0427535,N,07032.3865554,W,1,24,0.6,13.100,M,-29.745,M,0.0,*54
###2023-12-09 12:55:49.555203$GNGGA,175548.70,4138.0426213,N,07032.3864535,W,1,24,0.6,13.097,M,-29.745,M,0.0,*5D
###2023-12-09 12:55:49.756074$GNGGA,175548.90,4138.0424856,N,07032.3863710,W,1,24,0.6,13.100,M,-29.745,M,0.0,*57
###2023-12-09 12:55:49.955770$GNRMC,175549.10,A,4138.0423459,N,07032.3862968,W,2.70,162.15,091223,,,A*5A
###2023-12-09 12:55:49.959298$GNGGA,175549.10,4138.0423459,N,07032.3862968,W,1,24,0.6,13.097,M,-29.745,M,0.0,*55
###2023-12-09 12:55:49.961550$GPGSA,A,3,03,04,16,26,28,29,31,32,,,,,1.1,0.6,0.9*3B
###2023-12-09 12:55:49.963637$GLGSA,A,3,65,71,72,73,74,75,,,,,,,1.1,0.6,0.9*24
###2023-12-09 12:55:49.965557$GAGSA,A,3,04,19,21,27,,,,,,,,,1.1,0.6,0.9*26
###2023-12-09 12:55:49.967563$GBGSA,A,3,14,24,25,26,33,,,,,,,,1.1,0.6,0.9*2F
###2023-12-09 12:55:49.970384$GPGSV,2,1,08,03,36,265,44,04,30,311,41,16,47,211,44,26,77,209,48*71
###2023-12-09 12:55:49.973258$GPGSV,2,2,08,28,51,068,45,29,25,064,43,31,70,031,47,32,21,139,41*71
###2023-12-09 12:55:49.976087$GLGSV,2,1,06,65,21,328,42,71,44,172,43,72,72,281,46,73,38,040,46*6A
###2023-12-09 12:55:49.978197$GLGSV,2,2,06,74,71,327,43,75,30,250,44,,,,,,,,*61
###2023-12-09 12:55:49.981017$GAGSV,1,1,04,04,27,312,39,19,85,242,40,21,84,147,46,27,35,048,42*64
###2023-12-09 12:55:49.983831$GBGSV,2,1,05,14,46,194,42,24,75,018,49,25,39,260,45,26,28,061,45*60
###2023-12-09 12:55:49.985587$GBGSV,2,2,05,33,59,237,47,,,,,,,,,,,,*57
###2023-12-09 12:55:49.987194$GNVTG,162.15,T,,M,2.70,N,5.00,K,A*22
###2023-12-09 12:55:49.989172$GNGST,175549.10,18.000,,,,0.079,0.067,0.160*5C
###2023-12-09 12:55:49.990740$GNZDA,175549.10,09,12,2023,00,00*7B
###2023-12-09 12:55:49.991508$GNEBP,,,,,,M*13
###2023-12-09 12:55:50.160017$GNGGA,175549.30,4138.0422047,N,07032.3862428,W,1,24,0.6,13.094,M,-29.745,M,0.0,*57
###2023-12-09 12:55:50.355905$GNGGA,175549.50,4138.0420672,N,07032.3862013,W,1,24,0.6,13.098,M,-29.745,M,0.0,*53
###2023-12-09 12:55:50.556417$GNGGA,175549.70,4138.0419277,N,07032.3861700,W,1,24,0.6,13.102,M,-29.745,M,0.0,*5E
###2023-12-09 12:55:50.756424$GNGGA,175549.90,4138.0417939,N,07032.3861660,W,1,24,0.6,13.108,M,-29.745,M,0.0,*52
###2023-12-09 12:55:50.956459$GNRMC,175550.10,A,4138.0416591,N,07032.3861645,W,2.41,177.10,091223,,,A*51
###2023-12-09 12:55:50.959600$GNGGA,175550.10,4138.0416591,N,07032.3861645,W,1,24,0.6,13.105,M,-29.745,M,0.0,*57
###2023-12-09 12:55:50.961475$GPGSA,A,3,03,04,16,26,28,29,31,32,,,,,1.1,0.6,0.9*3B
###2023-12-09 12:55:50.963211$GLGSA,A,3,65,71,72,73,74,75,,,,,,,1.1,0.6,0.9*24
###2023-12-09 12:55:50.964798$GAGSA,A,3,04,19,21,27,,,,,,,,,1.1,0.6,0.9*26
###2023-12-09 12:55:50.966443$GBGSA,A,3,14,24,25,26,33,,,,,,,,1.1,0.6,0.9*2F
###2023-12-09 12:55:50.968773$GPGSV,2,1,08,03,36,265,42,04,30,311,41,16,47,211,43,26,77,209,47*7F
###2023-12-09 12:55:50.971121$GPGSV,2,2,08,28,51,068,45,29,25,064,41,31,70,031,47,32,21,139,44*76
###2023-12-09 12:55:50.973453$GLGSV,2,1,06,65,21,328,38,71,44,172,46,72,72,281,45,73,38,040,45*62
###2023-12-09 12:55:50.975210$GLGSV,2,2,06,74,71,327,42,75,30,250,42,,,,,,,,*66
