###2023-12-09 12:45:12.961898$GLGSV,2,1,06,65,17,329,40,71,50,171,47,72,70,297,46,73,43,037,45*64
###2023-12-09 12:45:12.963691$GLGSV,2,2,06,74,71,310,42,75,26,245,43,,,,,,,,*60
###2023-12-09 12:45:12.966026$GAGSV,1,1,04,04,24,312,42,19,84,283,41,21,81,168,46,27,38,049,42*62
###2023-12-09 12:45:12.968377$GBGSV,2,1,05,14,50,195,46,24,78,005,49,25,36,256,47,26,31,059,43*6E
###2023-12-09 12:45:12.969839$GBGSV,2,2,05,33,61,245,48,,,,,,,,,,,,*56
###2023-12-09 12:45:12.971112$GNVTG,9.81,T,,M,3.34,N,6.19,K,A*29
###2023-12-09 12:45:12.972754$GNGST,174512.10,18.000,,,,0.077,0.069,0.160*53
###2023-12-09 12:45:12.974039$GNZDA,174512.10,09,12,2023,00,00*74
###2023-12-09 12:45:12.974691$GNEBP,,,,,,M*13
###2023-12-09 12:45:13.143288$GNGGA,174512.30,4138.0459273,N,07032.3867431,W,1,24,0.6,13.413,M,-29.745,M,0.0,*57
###2023-12-09 12:45:13.344184$GNGGA,174512.50,4138.0461132,N,07032.3867069,W,1,24,0.6,13.396,M,-29.745,M,0.0,*5F
###2023-12-09 12:45:13.544155$GNGGA,174512.70,4138.0462965,N,07032.3866914,W,1,24,0.6,13.377,M,-29.745,M,0.0,*59
###2023-12-09 12:45:13.745382$GNGGA,174512.90,4138.0464792,N,07032.3866766,W,1,24,0.6,13.373,M,-29.745,M,0.0,*58
###2023-12-09 12:45:13.944044$GNRMC,174513.10,A,4138.0466598,N,07032.3866474,W,3.34,8.74,091223,,,A*56
###2023-12-09 12:45:13.946926$GNGGA,174513.10,4138.0466598,N,07032.3866474,W,1,24,0.6,13.377,M,-29.745,M,0.0,*5F
###2023-12-09 12:45:13.948806$GPGSA,A,3,03,04,16,26,28,29,31,32,,,,,1.1,0.6,0.9*3B
###2023-12-09 12:45:13.950524$GLGSA,A,3,65,71,72,73,74,75,,,,,,,1.1,0.6,0.9*24
###2023-12-09 12:45:13.952130$GAGSA,A,3,04,19,21,27,,,,,,,,,1.1,0.6,0.9*26
###2023-12-09 12:45:13.953780$GBGSA,A,3,14,24,25,26,33,,,,,,,,1.1,0.6,0.9*2F
###2023-12-09 12:45:13.956126$GPGSV,2,1,08,03,38,271,44,04,25,311,42,16,41,209,46,26,71,208,48*77
###2023-12-09 12:45:13.958461$GPGSV,2,2,08,28,55,061,44,29,26,069,42,31,72,015,46,32,26,136,41*7F
###2023-12-09 12:45:13.960807$GLGSV,2,1,06,65,17,329,40,71,50,171,47,72,70,297,46,73,43,037,45*64
###2023-12-09 12:45:13.962558$GLGSV,2,2,06,74,71,310,42,75,26,245,46,,,,,,,,*65
###2023-12-09 12:45:13.964905$GAGSV,1,1,04,04,24,312,41,19,84,283,40,21,81,168,46,27,38,049,42*60
###2023-12-09 12:45:13.967253$GBGSV,2,1,05,14,50,195,46,24,78,005,48,25,36,256,45,26,31,059,43*6D
###2023-12-09 12:45:13.968708$GBGSV,2,2,05,33,61,245,48,,,,,,,,,,,,*56
###2023-12-09 12:45:13.969962$GNVTG,8.74,T,,M,3.34,N,6.19,K,A*22
###2023-12-09 12:45:13.971619$GNGST,174513.10,18.000,,,,0.077,0.069,0.160*52
###2023-12-09 12:45:13.972908$GNZDA,174513.10,09,12,2023,00,00*75
###2023-12-09 12:45:13.973541$GNEBP,,,,,,M*13
###2023-12-09 12:45:14.142667$GNGGA,174513.30,4138.0468390,N,07032.3866229,W,1,24,0.6,13.376,M,-29.745,M,0.0,*52
###2023-12-09 12:45:14.344643$GNGGA,174513.50,4138.0470104,N,07032.3866405,W,1,24,0.6,13.380,M,-29.745,M,0.0,*53
###2023-12-09 12:45:14.543153$GNGGA,174513.70,4138.0471810,N,07032.3866790,W,1,24,0.6,13.385,M,-29.745,M,0.0,*56
###2023-12-09 12:45:14.742630$GNGGA,174513.90,4138.0473574,N,07032.3867012,W,1,24,0.6,13.393,M,-29.745,M,0.0,*5E
###2023-12-09 12:45:14.944936$GNRMC,174514.10,A,4138.0475398,N,07032.3867273,W,3.25,352.17,091223,,,A*5C
###2023-12-09 12:45:14.947824$GNGGA,174514.10,4138.0475398,N,07032.3867273,W,1,24,0.6,13.398,M,-29.745,M,0.0,*5D
###2023-12-09 12:45:14.949708$GPGSA,A,3,03,04,16,26,28,29,31,32,,,,,1.1,0.6,0.9*3B
###2023-12-09 12:45:14.951458$GLGSA,A,3,65,71,72,73,74,75,,,,,,,1.1,0.6,0.9*24
###2023-12-09 12:45:14.953065$GAGSA,A,3,04,19,21,27,,,,,,,,,1.1,0.6,0.9*26
###2023-12-09 12:45:14.954737$GBGSA,A,3,14,24,25,26,33,,,,,,,,1.1,0.6,0.9*2F
###2023-12-09 12:45:14.957092$GPGSV,2,1,08,03,38,271,44,04,25,311,40,16,41,209,45,26,71,208,48*76
###2023-12-09 12:45:14.959462$GPGSV,2,2,08,28,55,061,45,29,26,069,43,31,72,015,46,32,26,136,43*7D
###2023-12-09 12:45:14.961817$GLGSV,2,1,06,65,17,329,36,71,50,171,47,72,70,297,46,73,43,037,46*66
###2023-12-09 12:45:14.963590$GLGSV,2,2,06,74,71,310,42,75,26,245,45,,,,,,,,*66
###2023-12-09 12:45:14.965937$GAGSV,1,1,04,04,24,312,39,19,84,283,40,21,81,168,45,27,38,049,42*6C
###2023-12-09 12:45:14.968298$GBGSV,2,1,05,14,50,195,46,24,78,005,48,25,36,256,45,26,31,059,44*6A
###2023-12-09 12:45:14.969767$GBGSV,2,2,05,33,61,245,47,,,,,,,,,,,,*59
###2023-12-09 12:45:14.971108$GNVTG,352.17,T,,M,3.25,N,6.01,K,A*22
###2023-12-09 12:45:14.972762$GNGST,174514.10,18.000,,,,0.078,0.069,0.160*5A
###2023-12-09 12:45:14.974058$GNZDA,174514.10,09,12,2023,00,00*72
###2023-12-09 12:45:14.974710$GNEBP,,,,,,M*13
###2023-12-09 12:45:15.143354$GNGGA,174514.30,4138.0477168,N,07032.3867680,W,1,24,0.6,13.394,M,-29.745,M,0.0,*54
###2023-12-09 12:45:15.344193$GNGGA,174514.50,4138.0478859,N,07032.3868340,W,1,24,0.6,13.396,M,-29.745,M,0.0,*52
###2023-12-09 12:45:15.544159$GNGGA,174514.70,4138.0480509,N,07032.3869067,W,1,24,0.6,13.398,M,-29.745,M,0.0,*56
###2023-12-09 12:45:15.744029$GNGGA,174514.90,4138.0482159,N,07032.3869758,W,1,24,0.6,13.393,M,-29.745,M,0.0,*5B
###2023-12-09 12:45:15.943080$GNRMC,174515.10,A,4138.0483799,N,07032.3870516,W,3.09,338.80,091223,,,A*5F
###2023-12-09 12:45:15.945939$GNGGA,174515.10,4138.0483799,N,07032.3870516,W,1,24,0.6,13.397,M,-29.745,M,0.0,*5D
###2023-12-09 12:45:15.947823$GPGSA,A,3,03,04,16,26,28,29,31,32,,,,,1.1,0.6,0.9*3B
###2023-12-09 12:45:15.949552$GLGSA,A,3,65,71,72,73,74,75,,,,,,,1.1,0.6,0.9*24
###2023-12-09 12:45:15.951154$GAGSA,A,3,04,19,21,27,,,,,,,,,1.1,0.6,0.9*26
###2023-12-09 12:45:15.952799$GBGSA,A,3,14,24,25,26,33,,,,,,,,1.1,0.6,0.9*2F
###2023-12-09 12:45:15.955135$GPGSV,2,1,08,03,38,271,44,04,25,311,40,16,41,209,45,26,71,208,48*76
###2023-12-09 12:45:15.957466$GPGSV,2,2,08,28,55,061,46,29,26,069,44,31,72,015,47,32,26,136,43*78
###2023-12-09 12:45:15.959811$GLGSV,2,1,06,65,17,329,37,71,50,171,47,72,70,297,45,73,43,037,46*64
###2023-12-09 12:45:15.961556$GLGSV,2,2,06,74,71,310,42,75,26,245,45,,,,,,,,*66
###2023-12-09 12:45:15.963891$GAGSV,1,1,04,04,24,312,39,19,84,283,40,21,81,168,46,27,38,049,43*6E
###2023-12-09 12:45:15.966227$GBGSV,2,1,05,14,50,195,45,24,78,005,48,25,36,256,45,26,31,059,43*6E
###2023-12-09 12:45:15.967731$GBGSV,2,2,05,33,61,245,48,,,,,,,,,,,,*56
###2023-12-09 12:45:15.969057$GNVTG,338.80,T,,M,3.09,N,5.72,K,A*29
###2023-12-09 12:45:15.970714$GNGST,174515.10,18.000,,,,0.078,0.069,0.160*5B
###2023-12-09 12:45:15.972012$GNZDA,174515.10,09,12,2023,00,00*73
###2023-12-09 12:45:15.972655$GNEBP,,,,,,M*13
###2023-12-09 12:45:16.143897$GNGGA,174515.30,4138.0485341,N,07032.3871467,W,1,24,0.6,13.396,M,-29.745,M,0.0,*5F
###2023-12-09 12:45:16.344173$GNGGA,174515.50,4138.0486844,N,07032.3872517,W,1,24,0.6,13.393,M,-29.745,M,0.0,*54
###2023-12-09 12:45:16.544199$GNGGA,174515.70,4138.0488338,N,07032.3873555,W,1,24,0.6,13.393,M,-29.745,M,0.0,*5F
###2023-12-09 12:45:16.743613$GNGGA,174515.90,4138.0489835,N,07032.3874637,W,1,24,0.6,13.397,M,-29.745,M,0.0,*52
###2023-12-09 12:45:16.946188$GNRMC,174516.10,A,4138.0491250,N,07032.3875851,W,3.07,324.57,091223,,,A*5D
###2023-12-09 12:45:16.949095$GNGGA,174516.10,4138.0491250,N,07032.3875851,W,1,24,0.6,13.399,M,-29.745,M,0.0,*58
###2023-12-09 12:45:16.950984$GPGSA,A,3,03,04,16,26,28,29,31,32,,,,,1.1,0.6,0.9*3B
###2023-12-09 12:45:16.952707$GLGSA,A,3,65,71,72,73,74,75,,,,,,,1.1,0.6,0.9*24
###2023-12-09 12:45:16.954292$GAGSA,A,3,04,19,21,27,,,,,,,,,1.1,0.6,0.9*26
###2023-12-09 12:45:16.955954$GBGSA,A,3,14,24,25,26,33,,,,,,,,1.1,0.6,0.9*2F
###2023-12-09 12:45:16.958288$GPGSV,2,1,08,03,38,271,45,04,25,311,40,16,41,209,46,26,71,208,48*74
###2023-12-09 12:45:16.960645$GPGSV,2,2,08,28,55,061,46,29,26,069,43,31,72,015,47,32,26,136,43*7F
###2023-12-09 12:45:16.963003$GLGSV,2,1,06,65,17,329,40,71,50,171,47,72,70,297,45,73,43,037,46*64
###2023-12-09 12:45:16.964753$GLGSV,2,2,06,74,71,310,42,75,26,245,45,,,,,,,,*66
###2023-12-09 12:45:16.967102$GAGSV,1,1,04,04,24,312,39,19,84,283,40,21,81,168,46,27,38,049,43*6E
###2023-12-09 12:45:16.969450$GBGSV,2,1,05,14,50,195,45,24,78,005,48,25,36,256,45,26,31,059,45*68
###2023-12-09 12:45:16.970925$GBGSV,2,2,05,33,61,245,48,,,,,,,,,,,,*56
###2023-12-09 12:45:16.972254$GNVTG,324.57,T,,M,3.07,N,5.69,K,A*2A
###2023-12-09 12:45:16.973908$GNGST,174516.10,18.000,,,,0.079,0.069,0.160*59
###2023-12-09 12:45:16.975479$GNZDA,174516.10,09,12,2023,00,00*70
###2023-12-09 12:45:16.976135$GNEBP,,,,,,M*13
###2023-12-09 12:45:17.144635$GNGGA,174516.30,4138.0492595,N,07032.3877208,W,1,24,0.6,13.404,M,-29.745,M,0.0,*50
###2023-12-09 12:45:17.345432$GNGGA,174516.50,4138.0493916,N,07032.3878651,W,1,24,0.6,13.399,M,-29.745,M,0.0,*54
###2023-12-09 12:45:17.545332$GNGGA,174516.70,4138.0495211,N,07032.3880115,W,1,24,0.6,13.395,M,-29.745,M,0.0,*50
###2023-12-09 12:45:17.744497$GNGGA,174516.90,4138.0496464,N,07032.3881670,W,1,24,0.6,13.400,M,-29.745,M,0.0,*57
###2023-12-09 12:45:17.945938$GNRMC,174517.10,A,4138.0497612,N,07032.3883338,W,3.11,310.66,091223,,,A*57
###2023-12-09 12:45:17.948839$GNGGA,174517.10,4138.0497612,N,07032.3883338,W,1,24,0.6,13.402,M,-29.745,M,0.0,*55
###2023-12-09 12:45:17.950733$GPGSA,A,3,03,04,16,26,28,29,31,32,,,,,1.1,0.6,0.9*3B
