###2023-12-09 12:48:51.968090$GLGSV,2,2,06,74,71,314,43,75,27,246,45,,,,,,,,*61
###2023-12-09 12:48:51.970453$GAGSV,1,1,04,04,25,312,39,19,85,269,41,21,83,162,46,27,37,048,44*6A
###2023-12-09 12:48:51.972811$GBGSV,2,1,05,14,49,195,47,24,77,011,49,25,37,257,46,26,30,060,45*61
###2023-12-09 12:48:51.974269$GBGSV,2,2,05,33,61,241,49,,,,,,,,,,,,*53
###2023-12-09 12:48:51.975570$GNVTG,25.48,T,,M,0.54,N,1.01,K,A*19
###2023-12-09 12:48:51.977211$GNGST,174851.10,18.000,,,,0.077,0.068,0.160*58
###2023-12-09 12:48:51.978496$GNZDA,174851.10,09,12,2023,00,00*7E
###2023-12-09 12:48:51.979151$GNEBP,,,,,,M*13
###2023-12-09 12:48:52.148070$GNGGA,174851.30,4138.0591546,N,07032.3907473,W,1,24,0.6,13.494,M,-29.744,M,0.0,*56
###2023-12-09 12:48:52.348802$GNGGA,174851.50,4138.0591780,N,07032.3907338,W,1,24,0.6,13.490,M,-29.744,M,0.0,*54
###2023-12-09 12:48:52.548848$GNGGA,174851.70,4138.0591906,N,07032.3907180,W,1,24,0.6,13.499,M,-29.744,M,0.0,*5E
###2023-12-09 12:48:52.748742$GNGGA,174851.90,4138.0592039,N,07032.3907051,W,1,24,0.6,13.495,M,-29.744,M,0.0,*57
###2023-12-09 12:48:52.949184$GNRMC,174852.10,A,4138.0592251,N,07032.3906957,W,0.43,25.48,091223,,,A*6E
###2023-12-09 12:48:52.952078$GNGGA,174852.10,4138.0592251,N,07032.3906957,W,1,24,0.6,13.486,M,-29.744,M,0.0,*5C
###2023-12-09 12:48:52.953939$GPGSA,A,3,03,04,16,26,28,29,31,32,,,,,1.1,0.6,0.9*3B
###2023-12-09 12:48:52.955682$GLGSA,A,3,65,71,72,73,74,75,,,,,,,1.1,0.6,0.9*24
###2023-12-09 12:48:52.957270$GAGSA,A,3,04,19,21,27,,,,,,,,,1.1,0.6,0.9*26
###2023-12-09 12:48:52.958926$GBGSA,A,3,14,24,25,26,33,,,,,,,,1.1,0.6,0.9*2F
###2023-12-09 12:48:52.961248$GPGSV,2,1,08,03,37,269,45,04,27,311,42,16,43,209,47,26,73,208,48*73
###2023-12-09 12:48:52.963597$GPGSV,2,2,08,28,53,064,45,29,26,067,41,31,71,021,48,32,24,137,40*78
###2023-12-09 12:48:52.965935$GLGSV,2,1,06,65,18,329,41,71,49,171,47,72,70,294,47,73,42,037,46*62
###2023-12-09 12:48:52.967716$GLGSV,2,2,06,74,71,314,43,75,27,246,44,,,,,,,,*60
###2023-12-09 12:48:52.970049$GAGSV,1,1,04,04,25,312,41,19,85,269,41,21,83,162,46,27,37,048,44*65
###2023-12-09 12:48:52.972397$GBGSV,2,1,05,14,49,195,47,24,77,011,49,25,37,257,47,26,30,060,46*63
###2023-12-09 12:48:52.973855$GBGSV,2,2,05,33,61,241,49,,,,,,,,,,,,*53
###2023-12-09 12:48:52.975159$GNVTG,25.48,T,,M,0.43,N,0.79,K,A*11
###2023-12-09 12:48:52.976807$GNGST,174852.10,18.000,,,,0.077,0.067,0.160*54
###2023-12-09 12:48:52.978099$GNZDA,174852.10,09,12,2023,00,00*7D
###2023-12-09 12:48:52.978753$GNEBP,,,,,,M*13
###2023-12-09 12:48:53.148270$GNGGA,174852.30,4138.0592502,N,07032.3906850,W,1,24,0.6,13.481,M,-29.744,M,0.0,*5E
###2023-12-09 12:48:53.348960$GNGGA,174852.50,4138.0592699,N,07032.3906724,W,1,24,0.6,13.479,M,-29.744,M,0.0,*52
###2023-12-09 12:48:53.548783$GNGGA,174852.70,4138.0592846,N,07032.3906632,W,1,24,0.6,13.485,M,-29.744,M,0.0,*59
###2023-12-09 12:48:53.747991$GNGGA,174852.90,4138.0592968,N,07032.3906524,W,1,24,0.6,13.484,M,-29.744,M,0.0,*5F
###2023-12-09 12:48:53.948660$GNRMC,174853.10,A,4138.0593150,N,07032.3906410,W,0.43,25.48,091223,,,A*62
###2023-12-09 12:48:53.951538$GNGGA,174853.10,4138.0593150,N,07032.3906410,W,1,24,0.6,13.471,M,-29.744,M,0.0,*58
###2023-12-09 12:48:53.953403$GPGSA,A,3,03,04,16,26,28,29,31,32,,,,,1.1,0.6,0.9*3B
###2023-12-09 12:48:53.955145$GLGSA,A,3,65,71,72,73,74,75,,,,,,,1.1,0.6,0.9*24
###2023-12-09 12:48:53.956734$GAGSA,A,3,04,19,21,27,,,,,,,,,1.1,0.6,0.9*26
###2023-12-09 12:48:53.958380$GBGSA,A,3,14,24,25,26,33,,,,,,,,1.1,0.6,0.9*2F
###2023-12-09 12:48:53.960735$GPGSV,2,1,08,03,37,269,45,04,27,311,42,16,43,209,47,26,73,208,48*73
###2023-12-09 12:48:53.963102$GPGSV,2,2,08,28,53,064,45,29,26,067,41,31,71,021,48,32,24,137,39*76
###2023-12-09 12:48:53.965447$GLGSV,2,1,06,65,18,329,41,71,49,171,47,72,70,294,48,73,42,037,46*6D
###2023-12-09 12:48:53.967216$GLGSV,2,2,06,74,71,314,43,75,27,246,43,,,,,,,,*67
###2023-12-09 12:48:53.969552$GAGSV,1,1,04,04,25,312,41,19,85,269,41,21,83,162,47,27,37,048,44*64
###2023-12-09 12:48:53.971909$GBGSV,2,1,05,14,49,195,46,24,77,011,48,25,37,257,46,26,30,060,45*61
###2023-12-09 12:48:53.973371$GBGSV,2,2,05,33,61,241,48,,,,,,,,,,,,*52
###2023-12-09 12:48:53.974679$GNVTG,25.48,T,,M,0.43,N,0.79,K,A*11
###2023-12-09 12:48:53.976334$GNGST,174853.10,18.000,,,,0.077,0.067,0.160*55
###2023-12-09 12:48:53.977626$GNZDA,174853.10,09,12,2023,00,00*7C
###2023-12-09 12:48:53.978266$GNEBP,,,,,,M*13
###2023-12-09 12:48:54.149179$GNGGA,174853.30,4138.0593361,N,07032.3906311,W,1,24,0.6,13.460,M,-29.744,M,0.0,*5C
###2023-12-09 12:48:54.349805$GNGGA,174853.50,4138.0593535,N,07032.3906206,W,1,24,0.6,13.460,M,-29.744,M,0.0,*5A
###2023-12-09 12:48:54.548853$GNGGA,174853.70,4138.0593699,N,07032.3906113,W,1,24,0.6,13.463,M,-29.744,M,0.0,*59
###2023-12-09 12:48:54.748784$GNGGA,174853.90,4138.0593860,N,07032.3906030,W,1,24,0.6,13.469,M,-29.744,M,0.0,*55
###2023-12-09 12:48:54.948394$GNRMC,174854.10,A,4138.0594020,N,07032.3905955,W,0.29,25.48,091223,,,A*67
###2023-12-09 12:48:54.951301$GNGGA,174854.10,4138.0594020,N,07032.3905955,W,1,24,0.6,13.459,M,-29.744,M,0.0,*5B
###2023-12-09 12:48:54.953163$GPGSA,A,3,03,04,16,26,28,29,31,32,,,,,1.1,0.6,0.9*3B
###2023-12-09 12:48:54.954907$GLGSA,A,3,65,71,72,73,74,75,,,,,,,1.1,0.6,0.9*24
###2023-12-09 12:48:54.956506$GAGSA,A,3,04,19,21,27,,,,,,,,,1.1,0.6,0.9*26
###2023-12-09 12:48:54.958159$GBGSA,A,3,14,24,25,26,33,,,,,,,,1.1,0.6,0.9*2F
###2023-12-09 12:48:54.960511$GPGSV,2,1,08,03,37,269,45,04,27,311,42,16,43,209,47,26,73,208,47*7C
###2023-12-09 12:48:54.962903$GPGSV,2,2,08,28,53,064,45,29,26,067,41,31,71,021,48,32,24,137,40*78
###2023-12-09 12:48:54.965246$GLGSV,2,1,06,65,18,329,41,71,49,171,46,72,70,294,47,73,42,037,46*63
###2023-12-09 12:48:54.967020$GLGSV,2,2,06,74,71,314,43,75,27,246,43,,,,,,,,*67
###2023-12-09 12:48:54.969353$GAGSV,1,1,04,04,25,312,41,19,85,269,40,21,83,162,46,27,37,048,43*63
###2023-12-09 12:48:54.971706$GBGSV,2,1,05,14,49,195,46,24,77,011,49,25,37,257,45,26,30,060,45*63
###2023-12-09 12:48:54.973166$GBGSV,2,2,05,33,61,241,48,,,,,,,,,,,,*52
###2023-12-09 12:48:54.974454$GNVTG,25.48,T,,M,0.29,N,0.54,K,A*12
###2023-12-09 12:48:54.976112$GNGST,174854.10,18.000,,,,0.077,0.067,0.160*52
###2023-12-09 12:48:54.977412$GNZDA,174854.10,09,12,2023,00,00*7B
###2023-12-09 12:48:54.978053$GNEBP,,,,,,M*13
###2023-12-09 12:48:55.148007$GNGGA,174854.30,4138.0594216,N,07032.3905920,W,1,24,0.6,13.453,M,-29.744,M,0.0,*56
###2023-12-09 12:48:55.348786$GNGGA,174854.50,4138.0594415,N,07032.3905816,W,1,24,0.6,13.454,M,-29.744,M,0.0,*56
###2023-12-09 12:48:55.548745$GNGGA,174854.70,4138.0594610,N,07032.3905732,W,1,24,0.6,13.461,M,-29.744,M,0.0,*5C
###2023-12-09 12:48:55.748946$GNGGA,174854.90,4138.0594780,N,07032.3905676,W,1,24,0.6,13.464,M,-29.744,M,0.0,*5E
###2023-12-09 12:48:55.950847$GNRMC,174855.10,A,4138.0594947,N,07032.3905629,W,0.37,25.48,091223,,,A*65
###2023-12-09 12:48:55.953714$GNGGA,174855.10,4138.0594947,N,07032.3905629,W,1,24,0.6,13.460,M,-29.744,M,0.0,*5C
###2023-12-09 12:48:55.955588$GPGSA,A,3,03,04,16,26,28,29,31,32,,,,,1.1,0.6,0.9*3B
###2023-12-09 12:48:55.957319$GLGSA,A,3,65,71,72,73,74,75,,,,,,,1.1,0.6,0.9*24
###2023-12-09 12:48:55.958918$GAGSA,A,3,04,19,21,27,,,,,,,,,1.1,0.6,0.9*26
###2023-12-09 12:48:55.960559$GBGSA,A,3,14,24,25,26,33,,,,,,,,1.1,0.6,0.9*2F
###2023-12-09 12:48:55.962897$GPGSV,2,1,08,03,37,269,45,04,27,311,43,16,43,209,47,26,73,208,48*72
###2023-12-09 12:48:55.965230$GPGSV,2,2,08,28,53,064,45,29,26,067,42,31,71,021,47,32,24,137,41*75
###2023-12-09 12:48:55.967564$GLGSV,2,1,06,65,18,329,40,71,49,171,47,72,70,294,47,73,42,037,46*63
###2023-12-09 12:48:55.969304$GLGSV,2,2,06,74,71,314,43,75,27,246,43,,,,,,,,*67
###2023-12-09 12:48:55.971646$GAGSV,1,1,04,04,25,312,42,19,85,269,40,21,83,162,46,27,37,048,44*67
###2023-12-09 12:48:55.973971$GBGSV,2,1,05,14,49,195,45,24,77,011,49,25,37,257,46,26,30,060,45*63
###2023-12-09 12:48:55.975474$GBGSV,2,2,05,33,61,241,49,,,,,,,,,,,,*53
###2023-12-09 12:48:55.976767$GNVTG,25.48,T,,M,0.37,N,0.68,K,A*12
###2023-12-09 12:48:55.978408$GNGST,174855.10,18.000,,,,0.077,0.067,0.160*53
###2023-12-09 12:48:55.979707$GNZDA,174855.10,09,12,2023,00,00*7A
###2023-12-09 12:48:55.980348$GNEBP,,,,,,M*13
###2023-12-09 12:48:56.149585$GNGGA,174855.30,4138.0595148,N,07032.3905566,W,1,24,0.6,13.461,M,-29.744,M,0.0,*51
###2023-12-09 12:48:56.350012$GNGGA,174855.50,4138.0595376,N,07032.3905443,W,1,24,0.6,13.465,M,-29.744,M,0.0,*5A
###2023-12-09 12:48:56.549718$GNGGA,174855.70,4138.0595581,N,07032.3905360,W,1,24,0.6,13.463,M,-29.744,M,0.0,*56
###2023-12-09 12:48:56.748512$GNGGA,174855.90,4138.0595761,N,07032.3905309,W,1,24,0.6,13.464,M,-29.744,M,0.0,*5C
###2023-12-09 12:48:56.955157$GNRMC,174856.10,A,4138.0595946,N,07032.3905258,W,0.41,25.48,091223,,,A*65
###2023-12-09 12:48:56.958012$GNGGA,174856.10,4138.0595946,N,07032.3905258,W,1,24,0.6,13.464,M,-29.744,M,0.0,*59
###2023-12-09 12:48:56.959899$GPGSA,A,3,03,04,16,26,28,29,31,32,,,,,1.1,0.6,0.9*3B
###2023-12-09 12:48:56.961616$GLGSA,A,3,65,71,72,73,74,75,,,,,,,1.1,0.6,0.9*24
