###2023-12-09 13:15:03.377199$GNGGA,181502.50,4138.0203697,N,07032.2877941,W,1,24,0.7,12.905,M,-29.744,M,0.0,*5C
###2023-12-09 13:15:03.578280$GNGGA,181502.70,4138.0202275,N,07032.2876112,W,1,24,0.7,12.914,M,-29.744,M,0.0,*58
###2023-12-09 13:15:03.780183$GNGGA,181502.90,4138.0200816,N,07032.2874327,W,1,24,0.7,12.905,M,-29.744,M,0.0,*5D
###2023-12-09 13:15:03.982398$GNRMC,181503.10,A,4138.0199371,N,07032.2872548,W,3.54,135.09,091223,,,A*50
###2023-12-09 13:15:03.985279$GNGGA,181503.10,4138.0199371,N,07032.2872548,W,1,24,0.7,12.899,M,-29.744,M,0.0,*50
###2023-12-09 13:15:03.987083$GPGSA,A,3,03,04,16,26,28,29,31,,,,,,1.2,0.7,1.0*30
###2023-12-09 13:15:03.988800$GLGSA,A,3,65,71,72,73,74,75,,,,,,,1.2,0.7,1.0*2E
###2023-12-09 13:15:03.990381$GAGSA,A,3,04,19,21,27,,,,,,,,,1.2,0.7,1.0*2C
###2023-12-09 13:15:03.992104$GBGSA,A,3,14,24,25,26,33,35,,,,,,,1.2,0.7,1.0*23
###2023-12-09 13:15:03.994440$GPGSV,2,1,07,03,32,254,43,04,38,311,46,16,56,215,47,26,86,209,47*76
###2023-12-09 13:15:03.996490$GPGSV,2,2,07,28,45,076,45,29,24,055,44,31,65,050,46,,,,*4E
###2023-12-09 13:15:03.998832$GLGSV,2,1,06,65,30,325,44,71,33,174,44,72,71,243,45,73,30,046,46*60
###2023-12-09 13:15:04.000583$GLGSV,2,2,06,74,66,355,43,75,37,260,47,,,,,,,,*65
###2023-12-09 13:15:04.002917$GAGSV,1,1,04,04,33,312,45,19,80,192,40,21,84,066,45,27,29,048,43*6C
###2023-12-09 13:15:04.005246$GBGSV,2,1,06,14,37,191,43,24,69,035,49,25,45,267,47,26,22,066,44*61
###2023-12-09 13:15:04.007008$GBGSV,2,2,06,33,53,225,49,35,16,064,44,,,,,,,,*60
###2023-12-09 13:15:04.008340$GNVTG,135.09,T,,M,3.54,N,6.55,K,A*29
###2023-12-09 13:15:04.009992$GNGST,181503.10,18.000,,,,0.097,0.068,0.160*56
###2023-12-09 13:15:04.011294$GNZDA,181503.10,09,12,2023,00,00*7E
###2023-12-09 13:15:04.011935$GNEBP,,,,,,M*13
###2023-12-09 13:15:04.177903$GNGGA,181503.30,4138.0197981,N,07032.2870704,W,1,24,0.7,12.909,M,-29.744,M,0.0,*59
###2023-12-09 13:15:04.378195$GNGGA,181503.50,4138.0196586,N,07032.2868841,W,1,24,0.7,12.897,M,-29.744,M,0.0,*54
###2023-12-09 13:15:04.580225$GNGGA,181503.70,4138.0195111,N,07032.2867067,W,1,24,0.7,12.890,M,-29.744,M,0.0,*5B
###2023-12-09 13:15:04.778995$GNGGA,181503.90,4138.0193649,N,07032.2865351,W,1,24,0.7,12.893,M,-29.744,M,0.0,*5E
###2023-12-09 13:15:04.982306$GNRMC,181504.10,A,4138.0192150,N,07032.2863589,W,3.62,139.41,091223,,,A*55
###2023-12-09 13:15:04.985224$GNGGA,181504.10,4138.0192150,N,07032.2863589,W,1,24,0.7,12.891,M,-29.744,M,0.0,*58
###2023-12-09 13:15:04.987032$GPGSA,A,3,03,04,16,26,28,29,31,,,,,,1.2,0.7,1.0*30
###2023-12-09 13:15:04.988738$GLGSA,A,3,65,71,72,73,74,75,,,,,,,1.2,0.7,1.0*2E
###2023-12-09 13:15:04.990310$GAGSA,A,3,04,19,21,27,,,,,,,,,1.2,0.7,1.0*2C
###2023-12-09 13:15:04.992024$GBGSA,A,3,14,24,25,26,33,35,,,,,,,1.2,0.7,1.0*23
###2023-12-09 13:15:04.994338$GPGSV,2,1,07,03,32,254,43,04,38,311,45,16,56,215,46,26,86,209,47*74
###2023-12-09 13:15:04.996373$GPGSV,2,2,07,28,45,076,45,29,24,055,44,31,65,050,47,,,,*4F
###2023-12-09 13:15:04.998702$GLGSV,2,1,06,65,30,325,44,71,33,174,44,72,71,243,46,73,30,046,46*63
###2023-12-09 13:15:05.000440$GLGSV,2,2,06,74,66,355,43,75,37,260,47,,,,,,,,*65
###2023-12-09 13:15:05.002763$GAGSV,1,1,04,04,33,312,44,19,80,192,40,21,84,066,45,27,29,048,43*6D
###2023-12-09 13:15:05.005079$GBGSV,2,1,06,14,37,191,42,24,69,035,49,25,45,267,47,26,22,066,45*61
###2023-12-09 13:15:05.006863$GBGSV,2,2,06,33,53,225,48,35,16,064,44,,,,,,,,*61
###2023-12-09 13:15:05.008189$GNVTG,139.41,T,,M,3.62,N,6.70,K,A*2B
###2023-12-09 13:15:05.009827$GNGST,181504.10,18.000,,,,0.097,0.068,0.160*51
###2023-12-09 13:15:05.011157$GNZDA,181504.10,09,12,2023,00,00*79
###2023-12-09 13:15:05.011794$GNEBP,,,,,,M*13
###2023-12-09 13:15:05.177044$GNGGA,181504.30,4138.0190665,N,07032.2861912,W,1,24,0.7,12.884,M,-29.744,M,0.0,*51
###2023-12-09 13:15:05.377209$GNGGA,181504.50,4138.0189234,N,07032.2860194,W,1,24,0.7,12.883,M,-29.744,M,0.0,*5F
###2023-12-09 13:15:05.578850$GNGGA,181504.70,4138.0187727,N,07032.2858502,W,1,24,0.7,12.872,M,-29.744,M,0.0,*5A
###2023-12-09 13:15:05.778882$GNGGA,181504.90,4138.0186269,N,07032.2856830,W,1,24,0.7,12.863,M,-29.744,M,0.0,*58
###2023-12-09 13:15:05.980255$GNRMC,181505.10,A,4138.0184868,N,07032.2855129,W,3.44,137.81,091223,,,A*5C
###2023-12-09 13:15:05.983128$GNGGA,181505.10,4138.0184868,N,07032.2855129,W,1,24,0.7,12.872,M,-29.744,M,0.0,*5A
###2023-12-09 13:15:05.984930$GPGSA,A,3,03,04,16,26,28,29,31,,,,,,1.2,0.7,1.0*30
###2023-12-09 13:15:05.986662$GLGSA,A,3,65,71,72,73,74,75,,,,,,,1.2,0.7,1.0*2E
###2023-12-09 13:15:05.988243$GAGSA,A,3,04,19,21,27,,,,,,,,,1.2,0.7,1.0*2C
###2023-12-09 13:15:05.989952$GBGSA,A,3,14,24,25,26,33,35,,,,,,,1.2,0.7,1.0*23
###2023-12-09 13:15:05.992286$GPGSV,2,1,07,03,32,254,43,04,38,311,45,16,56,215,46,26,86,209,48*7B
###2023-12-09 13:15:05.994320$GPGSV,2,2,07,28,45,076,46,29,24,055,44,31,65,050,47,,,,*4C
###2023-12-09 13:15:05.996658$GLGSV,2,1,06,65,30,325,44,71,33,174,44,72,71,243,46,73,30,046,45*60
###2023-12-09 13:15:05.998409$GLGSV,2,2,06,74,66,355,43,75,37,260,47,,,,,,,,*65
###2023-12-09 13:15:06.000738$GAGSV,1,1,04,04,33,312,44,19,80,192,40,21,84,066,46,27,29,048,43*6E
###2023-12-09 13:15:06.003074$GBGSV,2,1,06,14,37,191,42,24,69,035,49,25,45,267,46,26,22,066,45*60
###2023-12-09 13:15:06.004818$GBGSV,2,2,06,33,53,225,49,35,16,064,44,,,,,,,,*60
###2023-12-09 13:15:06.006140$GNVTG,137.81,T,,M,3.44,N,6.37,K,A*2E
###2023-12-09 13:15:06.007796$GNGST,181505.10,18.000,,,,0.097,0.068,0.160*50
###2023-12-09 13:15:06.009085$GNZDA,181505.10,09,12,2023,00,00*78
###2023-12-09 13:15:06.009722$GNEBP,,,,,,M*13
###2023-12-09 13:15:06.177977$GNGGA,181505.30,4138.0183431,N,07032.2853387,W,1,24,0.7,12.858,M,-29.744,M,0.0,*57
###2023-12-09 13:15:06.378063$GNGGA,181505.50,4138.0182072,N,07032.2851608,W,1,24,0.7,12.845,M,-29.744,M,0.0,*5F
###2023-12-09 13:15:06.577852$GNGGA,181505.70,4138.0180669,N,07032.2849822,W,1,24,0.7,12.855,M,-29.744,M,0.0,*5D
###2023-12-09 13:15:06.778923$GNGGA,181505.90,4138.0179268,N,07032.2848007,W,1,24,0.7,12.848,M,-29.744,M,0.0,*52
###2023-12-09 13:15:06.982256$GNRMC,181506.10,A,4138.0177893,N,07032.2846121,W,3.62,133.09,091223,,,A*5D
###2023-12-09 13:15:06.985148$GNGGA,181506.10,4138.0177893,N,07032.2846121,W,1,24,0.7,12.833,M,-29.744,M,0.0,*5E
###2023-12-09 13:15:06.986949$GPGSA,A,3,03,04,16,26,28,29,31,,,,,,1.2,0.7,1.0*30
###2023-12-09 13:15:06.988665$GLGSA,A,3,65,71,72,73,74,75,,,,,,,1.2,0.7,1.0*2E
###2023-12-09 13:15:06.990247$GAGSA,A,3,04,19,21,27,,,,,,,,,1.2,0.7,1.0*2C
###2023-12-09 13:15:06.991970$GBGSA,A,3,14,24,25,26,33,35,,,,,,,1.2,0.7,1.0*23
###2023-12-09 13:15:06.994297$GPGSV,2,1,07,03,32,254,44,04,38,311,45,16,56,215,47,26,86,209,48*7D
###2023-12-09 13:15:06.996386$GPGSV,2,2,07,28,45,076,45,29,24,055,44,31,65,050,46,,,,*4E
###2023-12-09 13:15:06.998728$GLGSV,2,1,06,65,30,325,44,71,33,174,43,72,71,243,46,73,30,046,46*64
###2023-12-09 13:15:07.000481$GLGSV,2,2,06,74,66,355,43,75,37,260,47,,,,,,,,*65
###2023-12-09 13:15:07.002810$GAGSV,1,1,04,04,33,312,44,19,80,192,40,21,84,066,46,27,29,048,43*6E
###2023-12-09 13:15:07.005144$GBGSV,2,1,06,14,37,191,41,24,69,035,49,25,45,267,47,26,22,066,43*64
###2023-12-09 13:15:07.006907$GBGSV,2,2,06,33,53,225,48,35,16,064,44,,,,,,,,*61
###2023-12-09 13:15:07.008235$GNVTG,133.09,T,,M,3.62,N,6.70,K,A*2D
###2023-12-09 13:15:07.009883$GNGST,181506.10,18.000,,,,0.097,0.068,0.160*53
###2023-12-09 13:15:07.011179$GNZDA,181506.10,09,12,2023,00,00*7B
###2023-12-09 13:15:07.011818$GNEBP,,,,,,M*13
###2023-12-09 13:15:07.177973$GNGGA,181506.30,4138.0176544,N,07032.2844215,W,1,24,0.7,12.825,M,-29.744,M,0.0,*5B
###2023-12-09 13:15:07.378356$GNGGA,181506.50,4138.0175143,N,07032.2842371,W,1,24,0.7,12.830,M,-29.744,M,0.0,*5C
###2023-12-09 13:15:07.578939$GNGGA,181506.70,4138.0173702,N,07032.2840466,W,1,24,0.7,12.825,M,-29.744,M,0.0,*5C
###2023-12-09 13:15:07.778878$GNGGA,181506.90,4138.0172305,N,07032.2838602,W,1,24,0.7,12.810,M,-29.744,M,0.0,*59
###2023-12-09 13:15:07.982348$GNRMC,181507.10,A,4138.0170919,N,07032.2836696,W,3.73,134.05,091223,,,A*5F
###2023-12-09 13:15:07.985230$GNGGA,181507.10,4138.0170919,N,07032.2836696,W,1,24,0.7,12.820,M,-29.744,M,0.0,*55
###2023-12-09 13:15:07.987041$GPGSA,A,3,03,04,16,26,28,29,31,,,,,,1.2,0.7,1.0*30
###2023-12-09 13:15:07.989005$GLGSA,A,3,65,71,72,73,74,75,,,,,,,1.2,0.7,1.0*2E
###2023-12-09 13:15:07.990602$GAGSA,A,3,04,19,21,27,,,,,,,,,1.2,0.7,1.0*2C
###2023-12-09 13:15:07.992322$GBGSA,A,3,14,24,25,26,33,35,,,,,,,1.2,0.7,1.0*23
###2023-12-09 13:15:07.994661$GPGSV,2,1,07,03,32,254,42,04,38,311,45,16,56,215,47,26,86,209,48*7B
###2023-12-09 13:15:07.996705$GPGSV,2,2,07,28,45,076,45,29,24,055,44,31,65,050,47,,,,*4F
###2023-12-09 13:15:07.999044$GLGSV,2,1,06,65,30,325,44,71,33,174,44,72,71,243,46,73,30,046,46*63
###2023-12-09 13:15:08.000789$GLGSV,2,2,06,74,66,355,43,75,37,260,47,,,,,,,,*65
###2023-12-09 13:15:08.003131$GAGSV,1,1,04,04,33,312,44,19,80,192,40,21,84,066,45,27,29,048,43*6D
###2023-12-09 13:15:08.005477$GBGSV,2,1,06,14,37,191,41,24,69,035,49,25,45,267,47,26,22,066,44*63
###2023-12-09 13:15:08.007245$GBGSV,2,2,06,33,53,225,49,35,16,064,44,,,,,,,,*60
