###2023-12-09 13:05:45.999733$GNZDA,180545.10,09,12,2023,00,00*7D
###2023-12-09 13:05:46.000397$GNEBP,,,,,,M*13
###2023-12-09 13:05:46.166983$GNGGA,180545.30,4138.0707048,N,07032.2632911,W,1,24,0.6,13.520,M,-29.742,M,0.0,*5A
###2023-12-09 13:05:46.367836$GNGGA,180545.50,4138.0707166,N,07032.2635361,W,1,24,0.6,13.508,M,-29.742,M,0.0,*51
###2023-12-09 13:05:46.568362$GNGGA,180545.70,4138.0707382,N,07032.2637795,W,1,24,0.6,13.537,M,-29.742,M,0.0,*5A
###2023-12-09 13:05:46.768449$GNGGA,180545.90,4138.0707603,N,07032.2640320,W,1,24,0.6,13.552,M,-29.742,M,0.0,*51
###2023-12-09 13:05:46.970408$GNRMC,180546.10,A,4138.0707332,N,07032.2642662,W,3.03,252.54,091223,,,A*58
###2023-12-09 13:05:46.973276$GNGGA,180546.10,4138.0707332,N,07032.2642662,W,1,24,0.6,13.522,M,-29.742,M,0.0,*5B
###2023-12-09 13:05:46.975154$GPGSA,A,3,03,04,16,26,28,29,31,32,,,,,1.1,0.6,0.9*3B
###2023-12-09 13:05:46.976879$GLGSA,A,3,65,71,72,73,74,75,,,,,,,1.1,0.6,0.9*24
###2023-12-09 13:05:46.978471$GAGSA,A,3,04,19,21,27,,,,,,,,,1.1,0.6,0.9*26
###2023-12-09 13:05:46.980145$GBGSA,A,3,14,24,25,26,33,,,,,,,,1.1,0.6,0.9*2F
###2023-12-09 13:05:46.982480$GPGSV,2,1,08,03,34,259,40,04,34,311,41,16,52,213,45,26,82,210,47*76
###2023-12-09 13:05:46.984835$GPGSV,2,2,08,28,48,072,45,29,25,059,42,31,68,042,47,32,17,141,41*7A
###2023-12-09 13:05:46.987194$GLGSV,2,1,06,65,26,327,41,71,39,173,46,72,73,261,46,73,34,043,45*6C
###2023-12-09 13:05:46.988947$GLGSV,2,2,06,74,69,343,43,75,33,255,42,,,,,,,,*6A
###2023-12-09 13:05:46.991303$GAGSV,1,1,04,04,30,312,40,19,83,207,40,21,86,104,46,27,32,048,41*6A
###2023-12-09 13:05:46.993648$GBGSV,2,1,05,14,42,192,44,24,72,028,48,25,42,263,44,26,25,063,44*61
###2023-12-09 13:05:46.995161$GBGSV,2,2,05,33,56,230,48,,,,,,,,,,,,*50
###2023-12-09 13:05:46.996493$GNVTG,252.54,T,,M,3.03,N,5.62,K,A*26
###2023-12-09 13:05:46.998144$GNGST,180546.10,18.000,,,,0.081,0.068,0.160*51
###2023-12-09 13:05:46.999458$GNZDA,180546.10,09,12,2023,00,00*7E
###2023-12-09 13:05:47.000099$GNEBP,,,,,,M*13
###2023-12-09 13:05:47.167310$GNGGA,180546.30,4138.0706812,N,07032.2644791,W,1,24,0.6,13.497,M,-29.742,M,0.0,*55
###2023-12-09 13:05:47.367987$GNGGA,180546.50,4138.0706580,N,07032.2647191,W,1,24,0.6,13.526,M,-29.742,M,0.0,*5B
###2023-12-09 13:05:47.568230$GNGGA,180546.70,4138.0706368,N,07032.2649740,W,1,24,0.6,13.532,M,-29.742,M,0.0,*58
###2023-12-09 13:05:47.768323$GNGGA,180546.90,4138.0705795,N,07032.2651996,W,1,24,0.6,13.538,M,-29.742,M,0.0,*55
###2023-12-09 13:05:47.969652$GNRMC,180547.10,A,4138.0705110,N,07032.2654220,W,3.29,249.23,091223,,,A*5E
###2023-12-09 13:05:47.972529$GNGGA,180547.10,4138.0705110,N,07032.2654220,W,1,24,0.6,13.544,M,-29.742,M,0.0,*5F
###2023-12-09 13:05:47.974388$GPGSA,A,3,03,04,16,26,28,29,31,32,,,,,1.1,0.6,0.9*3B
###2023-12-09 13:05:47.976124$GLGSA,A,3,65,71,72,73,74,75,,,,,,,1.1,0.6,0.9*24
###2023-12-09 13:05:47.977701$GAGSA,A,3,04,19,21,27,,,,,,,,,1.1,0.6,0.9*26
###2023-12-09 13:05:47.979354$GBGSA,A,3,14,24,25,26,33,,,,,,,,1.1,0.6,0.9*2F
###2023-12-09 13:05:47.981668$GPGSV,2,1,08,03,34,259,42,04,34,311,43,16,52,213,46,26,82,210,48*7A
###2023-12-09 13:05:47.984002$GPGSV,2,2,08,28,48,072,44,29,25,059,42,31,68,042,47,32,17,141,42*78
###2023-12-09 13:05:47.986338$GLGSV,2,1,06,65,26,327,40,71,39,173,45,72,73,261,45,73,34,043,46*6E
###2023-12-09 13:05:47.988083$GLGSV,2,2,06,74,69,343,43,75,33,255,44,,,,,,,,*6C
###2023-12-09 13:05:47.990403$GAGSV,1,1,04,04,31,312,40,19,83,207,40,21,86,104,46,27,32,048,42*68
###2023-12-09 13:05:47.992730$GBGSV,2,1,05,14,42,192,45,24,72,028,49,25,42,263,44,26,25,063,42*67
###2023-12-09 13:05:47.994178$GBGSV,2,2,05,33,56,230,47,,,,,,,,,,,,*5F
###2023-12-09 13:05:47.995504$GNVTG,249.23,T,,M,3.29,N,6.08,K,A*2B
###2023-12-09 13:05:47.997139$GNGST,180547.10,18.000,,,,0.081,0.068,0.160*50
###2023-12-09 13:05:47.998431$GNZDA,180547.10,09,12,2023,00,00*7F
###2023-12-09 13:05:47.999079$GNEBP,,,,,,M*13
###2023-12-09 13:05:48.167504$GNGGA,180547.30,4138.0704541,N,07032.2656587,W,1,24,0.6,13.533,M,-29.742,M,0.0,*54
###2023-12-09 13:05:48.367830$GNGGA,180547.50,4138.0704130,N,07032.2659053,W,1,24,0.6,13.535,M,-29.742,M,0.0,*55
###2023-12-09 13:05:48.568313$GNGGA,180547.70,4138.0703613,N,07032.2661422,W,1,24,0.6,13.530,M,-29.742,M,0.0,*5A
###2023-12-09 13:05:48.768312$GNGGA,180547.90,4138.0702936,N,07032.2663670,W,1,24,0.6,13.535,M,-29.742,M,0.0,*5F
###2023-12-09 13:05:48.969765$GNRMC,180548.10,A,4138.0702339,N,07032.2666017,W,3.42,257.99,091223,,,A*5B
###2023-12-09 13:05:48.972653$GNGGA,180548.10,4138.0702339,N,07032.2666017,W,1,24,0.6,13.543,M,-29.742,M,0.0,*5E
###2023-12-09 13:05:48.974520$GPGSA,A,3,03,04,16,26,28,29,31,32,,,,,1.1,0.6,0.9*3B
###2023-12-09 13:05:48.976290$GLGSA,A,3,65,71,72,73,74,75,,,,,,,1.1,0.6,0.9*24
###2023-12-09 13:05:48.977881$GAGSA,A,3,04,19,21,27,,,,,,,,,1.1,0.6,0.9*26
###2023-12-09 13:05:48.979543$GBGSA,A,3,14,24,25,26,33,,,,,,,,1.1,0.6,0.9*2F
###2023-12-09 13:05:48.981872$GPGSV,2,1,08,03,34,259,43,04,34,311,42,16,52,213,46,26,82,210,47*75
###2023-12-09 13:05:48.984222$GPGSV,2,2,08,28,48,072,44,29,25,059,42,31,68,042,47,32,17,141,43*79
###2023-12-09 13:05:48.986569$GLGSV,2,1,06,65,26,327,42,71,39,173,46,72,73,261,45,73,34,043,46*6F
###2023-12-09 13:05:48.988320$GLGSV,2,2,06,74,69,343,43,75,33,255,43,,,,,,,,*6B
###2023-12-09 13:05:48.990654$GAGSV,1,1,04,04,31,312,41,19,83,207,40,21,86,104,46,27,32,048,42*69
###2023-12-09 13:05:48.992993$GBGSV,2,1,05,14,42,192,43,24,72,028,48,25,42,263,43,26,25,063,41*64
###2023-12-09 13:05:48.994446$GBGSV,2,2,05,33,56,230,46,,,,,,,,,,,,*5E
###2023-12-09 13:05:48.995781$GNVTG,257.99,T,,M,3.42,N,6.34,K,A*27
###2023-12-09 13:05:48.997429$GNGST,180548.10,18.000,,,,0.081,0.068,0.160*5F
###2023-12-09 13:05:48.998734$GNZDA,180548.10,09,12,2023,00,00*70
###2023-12-09 13:05:48.999373$GNEBP,,,,,,M*13
###2023-12-09 13:05:49.168056$GNGGA,180548.30,4138.0702037,N,07032.2668452,W,1,24,0.6,13.557,M,-29.742,M,0.0,*5F
###2023-12-09 13:05:49.368869$GNGGA,180548.50,4138.0701787,N,07032.2670897,W,1,24,0.6,13.566,M,-29.742,M,0.0,*58
###2023-12-09 13:05:49.568356$GNGGA,180548.70,4138.0701507,N,07032.2673354,W,1,24,0.6,13.550,M,-29.742,M,0.0,*52
###2023-12-09 13:05:49.768192$GNGGA,180548.90,4138.0701253,N,07032.2675778,W,1,24,0.6,13.546,M,-29.742,M,0.0,*51
###2023-12-09 13:05:49.969697$GNRMC,180549.10,A,4138.0701132,N,07032.2678210,W,3.25,267.85,091223,,,A*55
###2023-12-09 13:05:49.972591$GNGGA,180549.10,4138.0701132,N,07032.2678210,W,1,24,0.6,13.552,M,-29.742,M,0.0,*5F
###2023-12-09 13:05:49.974451$GPGSA,A,3,03,04,16,26,28,29,31,32,,,,,1.1,0.6,0.9*3B
###2023-12-09 13:05:49.976175$GLGSA,A,3,65,71,72,73,74,75,,,,,,,1.1,0.6,0.9*24
###2023-12-09 13:05:49.977752$GAGSA,A,3,04,19,21,27,,,,,,,,,1.1,0.6,0.9*26
###2023-12-09 13:05:49.979403$GBGSA,A,3,14,24,25,26,33,,,,,,,,1.1,0.6,0.9*2F
###2023-12-09 13:05:49.981722$GPGSV,2,1,08,03,34,259,41,04,34,311,41,16,52,213,46,26,82,210,47*74
###2023-12-09 13:05:49.984061$GPGSV,2,2,08,28,48,072,45,29,25,059,41,31,68,042,47,32,17,141,43*7B
###2023-12-09 13:05:49.986380$GLGSV,2,1,06,65,26,327,39,71,39,173,46,72,73,261,45,73,34,043,45*60
###2023-12-09 13:05:49.988138$GLGSV,2,2,06,74,69,343,42,75,33,255,42,,,,,,,,*6B
###2023-12-09 13:05:49.990468$GAGSV,1,1,04,04,31,312,39,19,83,207,40,21,86,104,46,27,32,048,42*66
###2023-12-09 13:05:49.992804$GBGSV,2,1,05,14,42,192,44,24,72,028,48,25,42,263,44,26,25,063,40*65
###2023-12-09 13:05:49.994258$GBGSV,2,2,05,33,56,230,47,,,,,,,,,,,,*5F
###2023-12-09 13:05:49.995585$GNVTG,267.85,T,,M,3.25,N,6.01,K,A*2E
###2023-12-09 13:05:49.997233$GNGST,180549.10,18.000,,,,0.081,0.068,0.160*5E
###2023-12-09 13:05:49.998522$GNZDA,180549.10,09,12,2023,00,00*71
###2023-12-09 13:05:49.999173$GNEBP,,,,,,M*13
###2023-12-09 13:05:50.168985$GNGGA,180549.30,4138.0701139,N,07032.2680595,W,1,24,0.6,13.543,M,-29.742,M,0.0,*5B
###2023-12-09 13:05:50.367681$GNGGA,180549.50,4138.0701394,N,07032.2682873,W,1,24,0.6,13.547,M,-29.742,M,0.0,*5B
###2023-12-09 13:05:50.568164$GNGGA,180549.70,4138.0701720,N,07032.2685128,W,1,24,0.6,13.554,M,-29.742,M,0.0,*50
###2023-12-09 13:05:50.767717$GNGGA,180549.90,4138.0702063,N,07032.2687350,W,1,24,0.6,13.548,M,-29.742,M,0.0,*5F
###2023-12-09 13:05:50.969516$GNRMC,180550.10,A,4138.0702480,N,07032.2689568,W,3.09,285.89,091223,,,A*5A
###2023-12-09 13:05:50.972671$GNGGA,180550.10,4138.0702480,N,07032.2689568,W,1,24,0.6,13.554,M,-29.742,M,0.0,*58
###2023-12-09 13:05:50.974542$GPGSA,A,3,03,04,16,26,28,29,31,32,,,,,1.1,0.6,0.9*3B
###2023-12-09 13:05:50.976269$GLGSA,A,3,65,71,72,73,74,75,,,,,,,1.1,0.6,0.9*24
###2023-12-09 13:05:50.977852$GAGSA,A,3,04,19,21,27,,,,,,,,,1.1,0.6,0.9*26
###2023-12-09 13:05:50.979510$GBGSA,A,3,14,24,25,26,33,,,,,,,,1.1,0.6,0.9*2F
###2023-12-09 13:05:50.981836$GPGSV,2,1,08,03,34,259,41,04,34,311,42,16,52,213,46,26,82,210,48*78
###2023-12-09 13:05:50.984171$GPGSV,2,2,08,28,48,072,45,29,25,059,40,31,68,042,46,32,17,141,43*7B
###2023-12-09 13:05:50.986501$GLGSV,2,1,06,65,26,327,38,71,39,173,47,72,73,261,45,73,34,043,46*63
###2023-12-09 13:05:50.988253$GLGSV,2,2,06,74,69,343,42,75,33,255,44,,,,,,,,*6D
