###2023-12-09 12:46:33.962055$GPGSV,2,2,08,28,54,062,44,29,26,068,42,31,72,018,48,32,25,137,43*7F
###2023-12-09 12:46:33.964435$GLGSV,2,1,06,65,17,329,39,71,50,171,47,72,70,297,47,73,43,037,46*68
###2023-12-09 12:46:33.966229$GLGSV,2,2,06,74,71,310,43,75,26,245,43,,,,,,,,*61
###2023-12-09 12:46:33.968574$GAGSV,1,1,04,04,24,312,41,19,84,276,41,21,82,165,46,27,38,049,43*64
###2023-12-09 12:46:33.970912$GBGSV,2,1,05,14,50,195,44,24,78,005,48,25,36,256,45,26,31,059,43*6F
###2023-12-09 12:46:33.972375$GBGSV,2,2,05,33,61,245,48,,,,,,,,,,,,*56
###2023-12-09 12:46:33.973690$GNVTG,275.39,T,,M,0.60,N,1.12,K,A*2D
###2023-12-09 12:46:33.975341$GNGST,174633.10,18.000,,,,0.079,0.070,0.160*55
###2023-12-09 12:46:33.976627$GNZDA,174633.10,09,12,2023,00,00*74
###2023-12-09 12:46:33.977260$GNEBP,,,,,,M*13
###2023-12-09 12:46:34.147129$GNGGA,174633.30,4138.0479649,N,07032.3919740,W,1,24,0.6,13.189,M,-29.745,M,0.0,*53
###2023-12-09 12:46:34.345728$GNGGA,174633.50,4138.0479600,N,07032.3919779,W,1,24,0.6,13.163,M,-29.745,M,0.0,*56
###2023-12-09 12:46:34.546655$GNGGA,174633.70,4138.0479537,N,07032.3919846,W,1,24,0.6,13.152,M,-29.745,M,0.0,*52
###2023-12-09 12:46:34.753509$GNGGA,174633.90,4138.0479570,N,07032.3920425,W,1,24,0.6,13.190,M,-29.745,M,0.0,*52
###2023-12-09 12:46:34.949835$GNRMC,174634.10,A,4138.0479606,N,07032.3921045,W,0.47,276.07,091223,,,A*56
###2023-12-09 12:46:34.952723$GNGGA,174634.10,4138.0479606,N,07032.3921045,W,1,24,0.6,13.211,M,-29.745,M,0.0,*56
###2023-12-09 12:46:34.954600$GPGSA,A,3,03,04,16,26,28,29,31,32,,,,,1.1,0.6,0.9*3B
###2023-12-09 12:46:34.956313$GLGSA,A,3,65,71,72,73,74,75,,,,,,,1.1,0.6,0.9*24
###2023-12-09 12:46:34.957896$GAGSA,A,3,04,19,21,27,,,,,,,,,1.1,0.6,0.9*26
###2023-12-09 12:46:34.959574$GBGSA,A,3,14,24,25,26,33,,,,,,,,1.1,0.6,0.9*2F
###2023-12-09 12:46:34.961906$GPGSV,2,1,08,03,37,270,46,04,26,311,45,16,42,209,43,26,72,208,48*7A
###2023-12-09 12:46:34.964296$GPGSV,2,2,08,28,54,062,44,29,26,068,41,31,72,018,49,32,25,137,43*7D
###2023-12-09 12:46:34.966657$GLGSV,2,1,06,65,17,329,40,71,50,171,46,72,70,297,47,73,43,037,46*67
###2023-12-09 12:46:34.968416$GLGSV,2,2,06,74,71,310,43,75,26,245,42,,,,,,,,*60
###2023-12-09 12:46:34.970762$GAGSV,1,1,04,04,24,312,43,19,84,276,41,21,82,165,45,27,38,049,42*64
###2023-12-09 12:46:34.973108$GBGSV,2,1,05,14,50,195,43,24,78,005,47,25,36,256,45,26,31,059,41*65
###2023-12-09 12:46:34.974573$GBGSV,2,2,05,33,61,245,47,,,,,,,,,,,,*59
###2023-12-09 12:46:34.975898$GNVTG,276.07,T,,M,0.47,N,0.86,K,A*2A
###2023-12-09 12:46:34.977546$GNGST,174634.10,18.000,,,,0.079,0.069,0.160*5A
###2023-12-09 12:46:34.978850$GNZDA,174634.10,09,12,2023,00,00*73
###2023-12-09 12:46:34.979492$GNEBP,,,,,,M*13
###2023-12-09 12:46:35.144891$GNGGA,174634.30,4138.0479562,N,07032.3921038,W,1,24,0.6,13.213,M,-29.745,M,0.0,*5D
###2023-12-09 12:46:35.347028$GNGGA,174634.50,4138.0479449,N,07032.3920752,W,1,24,0.6,13.189,M,-29.745,M,0.0,*59
###2023-12-09 12:46:35.546492$GNGGA,174634.70,4138.0479437,N,07032.3921110,W,1,24,0.6,13.211,M,-29.745,M,0.0,*51
###2023-12-09 12:46:35.746491$GNGGA,174634.90,4138.0479503,N,07032.3921933,W,1,24,0.6,13.244,M,-29.745,M,0.0,*50
###2023-12-09 12:46:35.948271$GNRMC,174635.10,A,4138.0479477,N,07032.3922296,W,0.19,276.01,091223,,,A*51
###2023-12-09 12:46:35.951158$GNGGA,174635.10,4138.0479477,N,07032.3922296,W,1,24,0.6,13.241,M,-29.745,M,0.0,*59
###2023-12-09 12:46:35.953022$GPGSA,A,3,03,04,16,26,28,29,31,32,,,,,1.1,0.6,0.9*3B
###2023-12-09 12:46:35.954758$GLGSA,A,3,65,71,72,73,74,75,,,,,,,1.1,0.6,0.9*24
###2023-12-09 12:46:35.956344$GAGSA,A,3,04,19,21,27,,,,,,,,,1.1,0.6,0.9*26
###2023-12-09 12:46:35.957987$GBGSA,A,3,14,24,25,26,33,,,,,,,,1.1,0.6,0.9*2F
###2023-12-09 12:46:35.960367$GPGSV,2,1,08,03,37,270,45,04,26,311,45,16,42,209,44,26,72,208,47*71
###2023-12-09 12:46:35.962723$GPGSV,2,2,08,28,54,062,44,29,26,068,41,31,72,018,48,32,25,137,43*7C
###2023-12-09 12:46:35.965064$GLGSV,2,1,06,65,17,329,41,71,50,171,46,72,70,297,48,73,43,037,45*6A
###2023-12-09 12:46:35.966838$GLGSV,2,2,06,74,71,310,43,75,26,245,43,,,,,,,,*61
###2023-12-09 12:46:35.969169$GAGSV,1,1,04,04,24,312,43,19,84,276,41,21,82,165,45,27,38,049,43*65
###2023-12-09 12:46:35.971514$GBGSV,2,1,05,14,50,195,46,24,78,005,49,25,36,256,47,26,31,059,43*6E
###2023-12-09 12:46:35.972972$GBGSV,2,2,05,33,61,245,49,,,,,,,,,,,,*57
###2023-12-09 12:46:35.974296$GNVTG,276.01,T,,M,0.19,N,0.36,K,A*2C
###2023-12-09 12:46:35.975953$GNGST,174635.10,18.000,,,,0.078,0.069,0.160*5A
###2023-12-09 12:46:35.977248$GNZDA,174635.10,09,12,2023,00,00*72
###2023-12-09 12:46:35.977889$GNEBP,,,,,,M*13
###2023-12-09 12:46:36.145844$GNGGA,174635.30,4138.0479371,N,07032.3922021,W,1,24,0.6,13.240,M,-29.745,M,0.0,*55
###2023-12-09 12:46:36.347138$GNGGA,174635.50,4138.0479292,N,07032.3921950,W,1,24,0.6,13.228,M,-29.745,M,0.0,*5D
###2023-12-09 12:46:36.547312$GNGGA,174635.70,4138.0479307,N,07032.3922482,W,1,24,0.6,13.246,M,-29.745,M,0.0,*5B
###2023-12-09 12:46:36.745565$GNGGA,174635.90,4138.0479324,N,07032.3923106,W,1,24,0.6,13.256,M,-29.745,M,0.0,*5D
###2023-12-09 12:46:36.946521$GNRMC,174636.10,A,4138.0479308,N,07032.3923323,W,0.08,276.01,091223,,,A*53
###2023-12-09 12:46:36.949473$GNGGA,174636.10,4138.0479308,N,07032.3923323,W,1,24,0.6,13.272,M,-29.745,M,0.0,*5B
###2023-12-09 12:46:36.951380$GPGSA,A,3,03,04,16,26,28,29,31,32,,,,,1.1,0.6,0.9*3B
###2023-12-09 12:46:36.953099$GLGSA,A,3,65,71,72,73,74,75,,,,,,,1.1,0.6,0.9*24
###2023-12-09 12:46:36.954698$GAGSA,A,3,04,19,21,27,,,,,,,,,1.1,0.6,0.9*26
###2023-12-09 12:46:36.956350$GBGSA,A,3,14,24,25,26,33,,,,,,,,1.1,0.6,0.9*2F
###2023-12-09 12:46:36.958694$GPGSV,2,1,08,03,37,270,45,04,26,311,43,16,42,209,43,26,72,208,47*70
###2023-12-09 12:46:36.961029$GPGSV,2,2,08,28,54,062,44,29,26,068,42,31,72,018,48,32,25,137,43*7F
###2023-12-09 12:46:36.963369$GLGSV,2,1,06,65,17,329,40,71,50,171,46,72,70,297,47,73,43,037,46*67
###2023-12-09 12:46:36.965113$GLGSV,2,2,06,74,71,310,43,75,26,245,42,,,,,,,,*60
###2023-12-09 12:46:36.967448$GAGSV,1,1,04,04,24,312,43,19,84,276,41,21,82,165,45,27,38,049,42*64
###2023-12-09 12:46:36.969781$GBGSV,2,1,05,14,50,195,44,24,78,005,48,25,36,256,46,26,31,059,42*6D
###2023-12-09 12:46:36.971264$GBGSV,2,2,05,33,61,245,47,,,,,,,,,,,,*59
###2023-12-09 12:46:36.972588$GNVTG,276.01,T,,M,0.08,N,0.14,K,A*2C
###2023-12-09 12:46:36.974234$GNGST,174636.10,18.000,,,,0.078,0.069,0.160*59
###2023-12-09 12:46:36.975543$GNZDA,174636.10,09,12,2023,00,00*71
###2023-12-09 12:46:36.976186$GNEBP,,,,,,M*13
###2023-12-09 12:46:37.145653$GNGGA,174636.30,4138.0479258,N,07032.3923258,W,1,24,0.6,13.270,M,-29.745,M,0.0,*52
###2023-12-09 12:46:37.346601$GNGGA,174636.50,4138.0479192,N,07032.3923297,W,1,24,0.6,13.245,M,-29.745,M,0.0,*54
###2023-12-09 12:46:37.546511$GNGGA,174636.70,4138.0479161,N,07032.3923606,W,1,24,0.6,13.243,M,-29.745,M,0.0,*50
###2023-12-09 12:46:37.745561$GNGGA,174636.90,4138.0479193,N,07032.3924214,W,1,24,0.6,13.271,M,-29.745,M,0.0,*52
###2023-12-09 12:46:37.946196$GNRMC,174637.10,A,4138.0479234,N,07032.3924738,W,0.45,276.01,091223,,,A*5C
###2023-12-09 12:46:37.949115$GNGGA,174637.10,4138.0479234,N,07032.3924738,W,1,24,0.6,13.294,M,-29.745,M,0.0,*55
###2023-12-09 12:46:37.951024$GPGSA,A,3,03,04,16,26,28,29,31,32,,,,,1.1,0.6,0.9*3B
###2023-12-09 12:46:37.952751$GLGSA,A,3,65,71,72,73,74,75,,,,,,,1.1,0.6,0.9*24
###2023-12-09 12:46:37.954342$GAGSA,A,3,04,19,21,27,,,,,,,,,1.1,0.6,0.9*26
###2023-12-09 12:46:37.956015$GBGSA,A,3,14,24,25,26,33,,,,,,,,1.1,0.6,0.9*2F
###2023-12-09 12:46:37.958358$GPGSV,2,1,08,03,37,270,45,04,26,311,44,16,42,209,42,26,72,208,47*76
###2023-12-09 12:46:37.960726$GPGSV,2,2,08,28,54,062,44,29,26,068,41,31,72,018,48,32,25,137,43*7C
###2023-12-09 12:46:37.963086$GLGSV,2,1,06,65,17,329,40,71,50,171,45,72,70,297,47,73,43,037,45*67
###2023-12-09 12:46:37.964845$GLGSV,2,2,06,74,71,310,43,75,26,245,43,,,,,,,,*61
###2023-12-09 12:46:37.967200$GAGSV,1,1,04,04,24,312,43,19,84,276,41,21,82,165,46,27,38,049,42*67
###2023-12-09 12:46:37.969548$GBGSV,2,1,05,14,50,195,44,24,78,005,48,25,36,256,46,26,31,059,41*6E
###2023-12-09 12:46:37.971033$GBGSV,2,2,05,33,61,245,47,,,,,,,,,,,,*59
###2023-12-09 12:46:37.972371$GNVTG,276.01,T,,M,0.45,N,0.83,K,A*2B
###2023-12-09 12:46:37.974281$GNGST,174637.10,18.000,,,,0.078,0.069,0.160*58
###2023-12-09 12:46:37.975609$GNZDA,174637.10,09,12,2023,00,00*70
###2023-12-09 12:46:37.976255$GNEBP,,,,,,M*13
###2023-12-09 12:46:38.145710$GNGGA,174637.30,4138.0479154,N,07032.3924704,W,1,24,0.6,13.292,M,-29.745,M,0.0,*5B
###2023-12-09 12:46:38.346511$GNGGA,174637.50,4138.0479069,N,07032.3924404,W,1,24,0.6,13.243,M,-29.745,M,0.0,*5D
###2023-12-09 12:46:38.546832$GNGGA,174637.70,4138.0479087,N,07032.3924805,W,1,24,0.6,13.251,M,-29.745,M,0.0,*51
###2023-12-09 12:46:38.745853$GNGGA,174637.90,4138.0479163,N,07032.3925802,W,1,24,0.6,13.288,M,-29.745,M,0.0,*56
###2023-12-09 12:46:38.948078$GNRMC,174638.10,A,4138.0479162,N,07032.3926171,W,0.21,274.71,091223,,,A*5D
###2023-12-09 12:46:38.951607$GNGGA,174638.10,4138.0479162,N,07032.3926171,W,1,24,0.6,13.303,M,-29.745,M,0.0,*5C
