###2023-12-09 12:31:18.944563$GLGSV,1,1,04,71,59,168,48,72,64,313,47,73,50,032,48,74,70,284,42*6D
###2023-12-09 12:31:18.946704$GAGSV,1,1,03,19,80,306,40,21,76,178,47,27,43,050,45,,,,*53
###2023-12-09 12:31:18.948845$GBGSV,1,1,03,14,57,199,45,26,36,056,45,33,63,258,47,,,,*55
###2023-12-09 12:31:18.950209$GNVTG,95.64,T,,M,0.87,N,1.62,K,A*17
###2023-12-09 12:31:18.951926$GNGST,173118.10,22.000,,,,0.250,0.310,0.540*5F
###2023-12-09 12:31:18.953266$GNZDA,173118.10,09,12,2023,00,00*7D
###2023-12-09 12:31:18.953948$GNEBP,,,,,,M*13
###2023-12-09 12:31:19.126360$GNGGA,173118.30,4138.0392501,N,07032.4281965,W,1,17,0.9,13.885,M,-29.746,M,0.0,*5A
###2023-12-09 12:31:19.326898$GNGGA,173118.50,4138.0392514,N,07032.4281480,W,1,18,0.9,13.868,M,-29.746,M,0.0,*52
###2023-12-09 12:31:19.526950$GNGGA,173118.70,4138.0392507,N,07032.4280999,W,1,18,0.9,13.862,M,-29.746,M,0.0,*5C
###2023-12-09 12:31:19.727206$GNGGA,173118.90,4138.0392467,N,07032.4280311,W,1,18,0.9,13.913,M,-29.746,M,0.0,*58
###2023-12-09 12:31:19.927396$GNRMC,173119.10,A,4138.0392411,N,07032.4279571,W,0.76,95.64,091223,,,A*64
###2023-12-09 12:31:19.930417$GNGGA,173119.10,4138.0392411,N,07032.4279571,W,1,18,0.9,13.941,M,-29.746,M,0.0,*51
###2023-12-09 12:31:19.932281$GPGSA,A,3,03,26,28,29,31,32,,,,,,,1.5,0.9,1.2*39
###2023-12-09 12:31:19.934039$GLGSA,A,3,71,72,73,74,75,,,,,,,,1.5,0.9,1.2*26
###2023-12-09 12:31:19.935674$GAGSA,A,3,19,21,27,,,,,,,,,,1.5,0.9,1.2*23
###2023-12-09 12:31:19.937287$GBGSA,A,3,14,26,33,,,,,,,,,,1.5,0.9,1.2*2F
###2023-12-09 12:31:19.939711$GPGSV,2,1,06,03,39,279,42,26,65,206,48,28,59,054,45,29,25,075,42*7E
###2023-12-09 12:31:19.941583$GPGSV,2,2,06,31,73,356,48,32,31,133,43,,,,,,,,*70
###2023-12-09 12:31:19.944011$GLGSV,2,1,05,71,59,168,49,72,64,313,47,73,50,032,47,74,70,284,42*61
###2023-12-09 12:31:19.945479$GLGSV,2,2,05,75,20,239,35,,,,,,,,,,,,*5E
###2023-12-09 12:31:19.947615$GAGSV,1,1,03,19,80,306,41,21,76,178,47,27,43,050,44,,,,*53
###2023-12-09 12:31:19.949684$GBGSV,1,1,03,14,57,199,47,26,36,056,44,33,63,258,48,,,,*59
###2023-12-09 12:31:19.951006$GNVTG,95.64,T,,M,0.76,N,1.40,K,A*19
###2023-12-09 12:31:19.952654$GNGST,173119.10,22.000,,,,0.230,0.290,0.520*57
###2023-12-09 12:31:19.953947$GNZDA,173119.10,09,12,2023,00,00*7C
###2023-12-09 12:31:19.954612$GNEBP,,,,,,M*13
###2023-12-09 12:31:20.127931$GNGGA,173119.30,4138.0392424,N,07032.4278941,W,1,19,0.9,13.969,M,-29.746,M,0.0,*50
###2023-12-09 12:31:20.326901$GNGGA,173119.50,4138.0392427,N,07032.4278357,W,1,19,0.9,13.972,M,-29.746,M,0.0,*52
###2023-12-09 12:31:20.527315$GNGGA,173119.70,4138.0392327,N,07032.4277715,W,1,20,0.8,13.998,M,-29.746,M,0.0,*55
###2023-12-09 12:31:20.726119$GNGGA,173119.90,4138.0392288,N,07032.4277129,W,1,20,0.8,14.010,M,-29.746,M,0.0,*58
###2023-12-09 12:31:20.933135$GNRMC,173120.10,A,4138.0392300,N,07032.4276499,W,0.70,95.64,091223,,,A*67
###2023-12-09 12:31:20.936047$GNGGA,173120.10,4138.0392300,N,07032.4276499,W,1,20,0.8,14.036,M,-29.745,M,0.0,*53
###2023-12-09 12:31:20.937931$GPGSA,A,3,03,04,16,26,28,29,31,32,,,,,1.3,0.8,1.1*3E
###2023-12-09 12:31:20.939619$GLGSA,A,3,71,72,73,74,75,,,,,,,,1.3,0.8,1.1*22
###2023-12-09 12:31:20.941158$GAGSA,A,3,19,21,27,,,,,,,,,,1.3,0.8,1.1*27
###2023-12-09 12:31:20.942709$GBGSA,A,3,14,26,33,,,,,,,,,,1.3,0.8,1.1*2B
###2023-12-09 12:31:20.945048$GPGSV,2,1,08,03,39,279,39,04,20,310,36,16,35,207,38,26,65,206,48*7C
###2023-12-09 12:31:20.947427$GPGSV,2,2,08,28,59,054,45,29,25,075,39,31,73,356,48,32,31,133,44*7B
###2023-12-09 12:31:20.949791$GLGSV,2,1,05,71,59,168,48,72,64,313,45,73,50,032,47,74,70,284,42*62
###2023-12-09 12:31:20.951281$GLGSV,2,2,05,75,20,239,36,,,,,,,,,,,,*5D
###2023-12-09 12:31:20.953329$GAGSV,1,1,03,19,80,306,41,21,76,178,47,27,43,050,44,,,,*53
###2023-12-09 12:31:20.955395$GBGSV,1,1,03,14,57,199,44,26,36,056,42,33,63,258,47,,,,*53
###2023-12-09 12:31:20.956701$GNVTG,95.64,T,,M,0.70,N,1.30,K,A*18
###2023-12-09 12:31:20.958350$GNGST,173120.10,21.000,,,,0.210,0.260,0.490*59
###2023-12-09 12:31:20.959660$GNZDA,173120.10,09,12,2023,00,00*76
###2023-12-09 12:31:20.960306$GNEBP,,,,,,M*13
###2023-12-09 12:31:21.127861$GNGGA,173120.30,4138.0392304,N,07032.4275854,W,1,20,0.8,14.074,M,-29.745,M,0.0,*5D
###2023-12-09 12:31:21.327757$GNGGA,173120.50,4138.0392297,N,07032.4275381,W,1,19,0.9,14.068,M,-29.745,M,0.0,*55
###2023-12-09 12:31:21.526454$GNGGA,173120.70,4138.0392297,N,07032.4275112,W,1,20,0.9,14.001,M,-29.745,M,0.0,*5A
###2023-12-09 12:31:21.725215$GNGGA,173120.90,4138.0392338,N,07032.4274778,W,1,20,0.9,13.977,M,-29.745,M,0.0,*54
###2023-12-09 12:31:21.927609$GNRMC,173121.10,A,4138.0392415,N,07032.4274444,W,0.72,95.64,091223,,,A*65
###2023-12-09 12:31:21.930663$GNGGA,173121.10,4138.0392415,N,07032.4274444,W,1,19,0.9,13.965,M,-29.745,M,0.0,*50
###2023-12-09 12:31:21.932655$GPGSA,A,3,03,16,26,28,29,31,32,,,,,,1.6,0.9,1.3*3C
###2023-12-09 12:31:21.934415$GLGSA,A,3,71,72,73,74,,,,,,,,,1.6,0.9,1.3*26
###2023-12-09 12:31:21.936118$GAGSA,A,3,19,21,27,,,,,,,,,,1.6,0.9,1.3*21
###2023-12-09 12:31:21.937865$GBGSA,A,3,14,25,26,33,,,,,,,,,1.6,0.9,1.3*2A
###2023-12-09 12:31:21.940361$GPGSV,2,1,07,03,39,279,42,16,35,207,38,26,65,206,47,28,59,054,44*76
###2023-12-09 12:31:21.942580$GPGSV,2,2,07,29,25,075,39,31,73,356,46,32,31,133,42,,,,*4A
###2023-12-09 12:31:21.945086$GLGSV,1,1,04,71,59,168,48,72,64,313,45,73,50,032,46,74,70,284,43*60
###2023-12-09 12:31:21.947360$GAGSV,1,1,03,19,80,306,41,21,76,178,46,27,43,050,43,,,,*55
###2023-12-09 12:31:21.949977$GBGSV,1,1,04,14,57,199,45,25,31,251,41,26,36,056,43,33,63,258,47*62
###2023-12-09 12:31:21.951483$GNVTG,95.64,T,,M,0.72,N,1.33,K,A*19
###2023-12-09 12:31:21.953296$GNGST,173121.10,21.000,,,,0.200,0.220,0.450*51
###2023-12-09 12:31:21.954766$GNZDA,173121.10,09,12,2023,00,00*77
###2023-12-09 12:31:21.955573$GNEBP,,,,,,M*13
###2023-12-09 12:31:22.126383$GNGGA,173121.30,4138.0392457,N,07032.4274035,W,1,20,0.8,13.950,M,-29.745,M,0.0,*5B
###2023-12-09 12:31:22.327266$GNGGA,173121.50,4138.0392455,N,07032.4273626,W,1,20,0.8,13.933,M,-29.745,M,0.0,*59
###2023-12-09 12:31:22.526968$GNGGA,173121.70,4138.0392477,N,07032.4273190,W,1,20,0.8,13.938,M,-29.745,M,0.0,*5A
###2023-12-09 12:31:22.725330$GNGGA,173121.90,4138.0392588,N,07032.4272753,W,1,19,0.8,13.940,M,-29.745,M,0.0,*58
###2023-12-09 12:31:22.928817$GNRMC,173122.10,A,4138.0392680,N,07032.4272345,W,0.51,95.64,091223,,,A*69
###2023-12-09 12:31:22.931955$GNGGA,173122.10,4138.0392680,N,07032.4272345,W,1,19,0.8,13.940,M,-29.745,M,0.0,*5B
###2023-12-09 12:31:22.933806$GPGSA,A,3,03,04,26,28,29,31,32,,,,,,1.4,0.8,1.1*3E
###2023-12-09 12:31:22.935454$GLGSA,A,3,71,72,73,74,,,,,,,,,1.4,0.8,1.1*27
###2023-12-09 12:31:22.937019$GAGSA,A,3,19,21,27,,,,,,,,,,1.4,0.8,1.1*20
###2023-12-09 12:31:22.938643$GBGSA,A,3,14,25,26,33,,,,,,,,,1.4,0.8,1.1*2B
###2023-12-09 12:31:22.940998$GPGSV,2,1,07,03,39,279,44,04,20,310,37,26,65,206,48,28,59,054,44*70
###2023-12-09 12:31:22.943067$GPGSV,2,2,07,29,25,075,40,31,73,356,48,32,31,133,44,,,,*4C
###2023-12-09 12:31:22.945414$GLGSV,1,1,04,71,59,168,49,72,64,313,47,73,50,032,47,74,70,284,43*62
###2023-12-09 12:31:22.947499$GAGSV,1,1,03,19,80,306,41,21,76,178,46,27,43,050,43,,,,*55
###2023-12-09 12:31:22.949859$GBGSV,1,1,04,14,57,199,45,25,31,251,41,26,36,056,45,33,63,258,48*6B
###2023-12-09 12:31:22.951187$GNVTG,95.64,T,,M,0.51,N,0.94,K,A*14
###2023-12-09 12:31:22.952852$GNGST,173122.10,23.000,,,,0.180,0.200,0.420*5E
###2023-12-09 12:31:22.954152$GNZDA,173122.10,09,12,2023,00,00*74
###2023-12-09 12:31:22.954817$GNEBP,,,,,,M*13
###2023-12-09 12:31:23.128835$GNGGA,173122.30,4138.0392731,N,07032.4271930,W,1,20,0.7,13.954,M,-29.745,M,0.0,*59
###2023-12-09 12:31:23.326881$GNGGA,173122.50,4138.0392769,N,07032.4271432,W,1,20,0.7,13.961,M,-29.745,M,0.0,*5B
###2023-12-09 12:31:23.527961$GNGGA,173122.70,4138.0392832,N,07032.4271031,W,1,20,0.7,13.948,M,-29.745,M,0.0,*54
###2023-12-09 12:31:23.727170$GNGGA,173122.90,4138.0392909,N,07032.4270695,W,1,19,0.7,13.945,M,-29.745,M,0.0,*5D
###2023-12-09 12:31:23.928312$GNRMC,173123.10,A,4138.0393008,N,07032.4270391,W,0.60,95.64,091223,,,A*66
###2023-12-09 12:31:23.931200$GNGGA,173123.10,4138.0393008,N,07032.4270391,W,1,19,0.7,13.948,M,-29.745,M,0.0,*51
###2023-12-09 12:31:23.933257$GPGSA,A,3,03,04,26,28,29,31,32,,,,,,1.3,0.7,1.0*37
###2023-12-09 12:31:23.934883$GLGSA,A,3,71,72,73,74,,,,,,,,,1.3,0.7,1.0*2E
###2023-12-09 12:31:23.936414$GAGSA,A,3,19,21,27,,,,,,,,,,1.3,0.7,1.0*29
###2023-12-09 12:31:23.938005$GBGSA,A,3,14,25,26,33,,,,,,,,,1.3,0.7,1.0*22
###2023-12-09 12:31:23.940356$GPGSV,2,1,07,03,39,279,44,04,20,310,37,26,65,206,48,28,59,054,44*70
###2023-12-09 12:31:23.942404$GPGSV,2,2,07,29,25,075,41,31,73,356,46,32,31,133,44,,,,*43
###2023-12-09 12:31:23.944759$GLGSV,1,1,04,71,59,168,47,72,64,313,46,73,50,032,46,74,70,284,43*6C
###2023-12-09 12:31:23.946837$GAGSV,1,1,03,19,80,306,41,21,76,178,46,27,43,050,43,,,,*55
###2023-12-09 12:31:23.949182$GBGSV,1,1,04,14,57,199,46,25,31,251,43,26,36,056,44,33,63,258,48*6B
