###2023-12-09 12:56:33.972361$GPGSV,2,2,08,28,51,068,44,29,25,064,40,31,70,031,47,32,21,139,45*77
###2023-12-09 12:56:33.974738$GLGSV,2,1,06,65,21,328,43,71,44,172,48,72,72,281,47,73,38,040,43*64
###2023-12-09 12:56:33.976500$GLGSV,2,2,06,74,71,327,43,75,30,250,46,,,,,,,,*63
###2023-12-09 12:56:33.978850$GAGSV,1,1,04,04,27,312,41,19,85,234,41,21,85,141,47,27,34,048,42*6C
###2023-12-09 12:56:33.981184$GBGSV,2,1,05,14,45,193,46,24,75,020,48,25,39,260,46,26,28,061,43*6F
###2023-12-09 12:56:33.982651$GBGSV,2,2,05,33,59,237,48,,,,,,,,,,,,*58
###2023-12-09 12:56:33.983971$GNVTG,345.30,T,,M,0.54,N,1.01,K,A*23
###2023-12-09 12:56:33.985621$GNGST,175633.10,18.000,,,,0.075,0.065,0.150*5F
###2023-12-09 12:56:33.986930$GNZDA,175633.10,09,12,2023,00,00*75
###2023-12-09 12:56:33.987568$GNEBP,,,,,,M*13
###2023-12-09 12:56:34.157644$GNGGA,175633.30,4138.0451148,N,07032.3893965,W,1,24,0.6,13.497,M,-29.745,M,0.0,*5E
###2023-12-09 12:56:34.358139$GNGGA,175633.50,4138.0451322,N,07032.3894012,W,1,24,0.6,13.507,M,-29.745,M,0.0,*50
###2023-12-09 12:56:34.557317$GNGGA,175633.70,4138.0451417,N,07032.3893934,W,1,24,0.6,13.511,M,-29.745,M,0.0,*5E
###2023-12-09 12:56:34.758186$GNGGA,175633.90,4138.0451539,N,07032.3893924,W,1,24,0.6,13.495,M,-29.745,M,0.0,*51
###2023-12-09 12:56:34.959366$GNRMC,175634.10,A,4138.0451780,N,07032.3894048,W,0.62,345.30,091223,,,A*52
###2023-12-09 12:56:34.962242$GNGGA,175634.10,4138.0451780,N,07032.3894048,W,1,24,0.6,13.486,M,-29.745,M,0.0,*58
###2023-12-09 12:56:34.964128$GPGSA,A,3,03,04,16,26,28,29,31,32,,,,,1.1,0.6,0.9*3B
###2023-12-09 12:56:34.965845$GLGSA,A,3,65,71,72,73,74,75,,,,,,,1.1,0.6,0.9*24
###2023-12-09 12:56:34.967444$GAGSA,A,3,04,19,21,27,,,,,,,,,1.1,0.6,0.9*26
###2023-12-09 12:56:34.969099$GBGSA,A,3,14,24,25,26,33,,,,,,,,1.1,0.6,0.9*2F
###2023-12-09 12:56:34.971452$GPGSV,2,1,08,03,36,265,43,04,30,311,43,16,47,211,47,26,77,209,48*77
###2023-12-09 12:56:34.973788$GPGSV,2,2,08,28,51,068,44,29,25,064,40,31,70,031,47,32,21,139,45*77
###2023-12-09 12:56:34.976143$GLGSV,2,1,06,65,21,328,43,71,44,172,49,72,72,281,47,73,38,040,43*65
###2023-12-09 12:56:34.977897$GLGSV,2,2,06,74,71,327,43,75,30,250,46,,,,,,,,*63
###2023-12-09 12:56:34.980244$GAGSV,1,1,04,04,27,312,42,19,85,234,41,21,85,141,47,27,34,048,43*6E
###2023-12-09 12:56:34.982590$GBGSV,2,1,05,14,45,193,47,24,75,020,49,25,39,260,46,26,27,062,42*62
###2023-12-09 12:56:34.984054$GBGSV,2,2,05,33,59,237,48,,,,,,,,,,,,*58
###2023-12-09 12:56:34.985376$GNVTG,345.30,T,,M,0.62,N,1.15,K,A*23
###2023-12-09 12:56:34.987046$GNGST,175634.10,18.000,,,,0.075,0.065,0.150*58
###2023-12-09 12:56:34.988343$GNZDA,175634.10,09,12,2023,00,00*72
###2023-12-09 12:56:34.988985$GNEBP,,,,,,M*13
###2023-12-09 12:56:35.157986$GNGGA,175634.30,4138.0452124,N,07032.3894256,W,1,24,0.6,13.489,M,-29.745,M,0.0,*53
###2023-12-09 12:56:35.358177$GNGGA,175634.50,4138.0452325,N,07032.3894312,W,1,24,0.6,13.496,M,-29.745,M,0.0,*59
###2023-12-09 12:56:35.558325$GNGGA,175634.70,4138.0452334,N,07032.3894182,W,1,24,0.6,13.497,M,-29.745,M,0.0,*51
###2023-12-09 12:56:35.758350$GNGGA,175634.90,4138.0452387,N,07032.3894182,W,1,24,0.6,13.486,M,-29.745,M,0.0,*57
###2023-12-09 12:56:35.959031$GNRMC,175635.10,A,4138.0452697,N,07032.3894362,W,0.78,345.30,091223,,,A*57
###2023-12-09 12:56:35.961908$GNGGA,175635.10,4138.0452697,N,07032.3894362,W,1,24,0.6,13.480,M,-29.745,M,0.0,*50
###2023-12-09 12:56:35.963791$GPGSA,A,3,03,04,16,26,28,29,31,32,,,,,1.1,0.6,0.9*3B
###2023-12-09 12:56:35.965513$GLGSA,A,3,65,71,72,73,74,75,,,,,,,1.1,0.6,0.9*24
###2023-12-09 12:56:35.967112$GAGSA,A,3,04,19,21,27,,,,,,,,,1.1,0.6,0.9*26
###2023-12-09 12:56:35.968765$GBGSA,A,3,14,24,25,26,33,,,,,,,,1.1,0.6,0.9*2F
###2023-12-09 12:56:35.971109$GPGSV,2,1,08,03,36,265,44,04,30,311,44,16,47,211,47,26,77,209,48*77
###2023-12-09 12:56:35.973459$GPGSV,2,2,08,28,51,068,43,29,25,064,40,31,70,031,47,32,21,139,45*70
###2023-12-09 12:56:35.975816$GLGSV,2,1,06,65,21,328,42,71,44,172,49,72,72,281,47,73,38,040,43*64
###2023-12-09 12:56:35.977580$GLGSV,2,2,06,74,71,327,43,75,30,250,45,,,,,,,,*60
###2023-12-09 12:56:35.979937$GAGSV,1,1,04,04,27,312,42,19,85,234,41,21,85,141,46,27,34,048,41*6D
###2023-12-09 12:56:35.982284$GBGSV,2,1,05,14,45,193,46,24,75,020,49,25,39,260,46,26,27,062,42*63
###2023-12-09 12:56:35.983763$GBGSV,2,2,05,33,59,237,47,,,,,,,,,,,,*57
###2023-12-09 12:56:35.985085$GNVTG,345.30,T,,M,0.78,N,1.44,K,A*2C
###2023-12-09 12:56:35.986794$GNGST,175635.10,18.000,,,,0.075,0.065,0.150*59
###2023-12-09 12:56:35.988096$GNZDA,175635.10,09,12,2023,00,00*73
###2023-12-09 12:56:35.988733$GNEBP,,,,,,M*13
###2023-12-09 12:56:36.157480$GNGGA,175635.30,4138.0453055,N,07032.3894582,W,1,24,0.6,13.476,M,-29.745,M,0.0,*5A
###2023-12-09 12:56:36.357209$GNGGA,175635.50,4138.0453194,N,07032.3894605,W,1,24,0.6,13.485,M,-29.745,M,0.0,*50
###2023-12-09 12:56:36.558540$GNGGA,175635.70,4138.0453156,N,07032.3894485,W,1,24,0.6,13.492,M,-29.745,M,0.0,*50
###2023-12-09 12:56:36.758259$GNGGA,175635.90,4138.0453242,N,07032.3894475,W,1,24,0.6,13.474,M,-29.745,M,0.0,*5F
###2023-12-09 12:56:36.958645$GNRMC,175636.10,A,4138.0453551,N,07032.3894671,W,0.80,345.30,091223,,,A*5C
###2023-12-09 12:56:36.961521$GNGGA,175636.10,4138.0453551,N,07032.3894671,W,1,24,0.6,13.469,M,-29.745,M,0.0,*5B
###2023-12-09 12:56:36.963399$GPGSA,A,3,03,04,16,26,28,29,31,32,,,,,1.1,0.6,0.9*3B
###2023-12-09 12:56:36.965113$GLGSA,A,3,65,71,72,73,74,75,,,,,,,1.1,0.6,0.9*24
###2023-12-09 12:56:36.966708$GAGSA,A,3,04,19,21,27,,,,,,,,,1.1,0.6,0.9*26
###2023-12-09 12:56:36.968354$GBGSA,A,3,14,24,25,26,33,,,,,,,,1.1,0.6,0.9*2F
###2023-12-09 12:56:36.970698$GPGSV,2,1,08,03,36,265,43,04,30,311,43,16,47,211,46,26,77,209,47*79
###2023-12-09 12:56:36.973031$GPGSV,2,2,08,28,51,068,44,29,25,064,40,31,70,031,47,32,21,139,45*77
###2023-12-09 12:56:36.975371$GLGSV,2,1,06,65,21,328,42,71,44,172,49,72,72,281,46,73,38,040,43*65
###2023-12-09 12:56:36.977124$GLGSV,2,2,06,74,71,327,43,75,30,250,45,,,,,,,,*60
###2023-12-09 12:56:36.979473$GAGSV,1,1,04,04,27,312,41,19,85,234,41,21,85,141,47,27,34,048,42*6C
###2023-12-09 12:56:36.981819$GBGSV,2,1,05,14,45,193,46,24,75,020,48,25,39,260,46,26,27,062,42*62
###2023-12-09 12:56:36.983295$GBGSV,2,2,05,33,59,237,47,,,,,,,,,,,,*57
###2023-12-09 12:56:36.984622$GNVTG,345.30,T,,M,0.80,N,1.48,K,A*27
###2023-12-09 12:56:36.986275$GNGST,175636.10,18.000,,,,0.075,0.065,0.150*5A
###2023-12-09 12:56:36.987587$GNZDA,175636.10,09,12,2023,00,00*70
###2023-12-09 12:56:36.988232$GNEBP,,,,,,M*13
###2023-12-09 12:56:37.157459$GNGGA,175636.30,4138.0453911,N,07032.3894923,W,1,24,0.6,13.468,M,-29.745,M,0.0,*58
###2023-12-09 12:56:37.358151$GNGGA,175636.50,4138.0454024,N,07032.3894930,W,1,24,0.6,13.481,M,-29.745,M,0.0,*53
###2023-12-09 12:56:37.559083$GNGGA,175636.70,4138.0453958,N,07032.3894792,W,1,24,0.6,13.487,M,-29.745,M,0.0,*54
###2023-12-09 12:56:37.757475$GNGGA,175636.90,4138.0454013,N,07032.3894814,W,1,24,0.6,13.473,M,-29.745,M,0.0,*51
###2023-12-09 12:56:37.958031$GNRMC,175637.10,A,4138.0454388,N,07032.3895054,W,0.97,345.30,091223,,,A*5E
###2023-12-09 12:56:37.960901$GNGGA,175637.10,4138.0454388,N,07032.3895054,W,1,24,0.6,13.473,M,-29.745,M,0.0,*54
###2023-12-09 12:56:37.962769$GPGSA,A,3,03,04,16,26,28,29,31,32,,,,,1.1,0.6,0.9*3B
###2023-12-09 12:56:37.964477$GLGSA,A,3,65,71,72,73,74,75,,,,,,,1.1,0.6,0.9*24
###2023-12-09 12:56:37.966053$GAGSA,A,3,04,19,21,27,,,,,,,,,1.1,0.6,0.9*26
###2023-12-09 12:56:37.967705$GBGSA,A,3,14,24,25,26,33,,,,,,,,1.1,0.6,0.9*2F
###2023-12-09 12:56:37.970020$GPGSV,2,1,08,03,36,265,45,04,30,311,42,16,47,211,46,26,77,209,48*71
###2023-12-09 12:56:37.972354$GPGSV,2,2,08,28,51,068,43,29,25,064,40,31,70,031,47,32,21,139,44*71
###2023-12-09 12:56:37.974686$GLGSV,2,1,06,65,21,328,42,71,44,172,49,72,72,281,47,73,38,040,44*63
###2023-12-09 12:56:37.976429$GLGSV,2,2,06,74,71,327,43,75,30,250,45,,,,,,,,*60
###2023-12-09 12:56:37.978769$GAGSV,1,1,04,04,27,312,40,19,85,234,41,21,85,141,47,27,34,048,42*6D
###2023-12-09 12:56:37.981106$GBGSV,2,1,05,14,45,193,46,24,75,020,48,25,39,260,46,26,27,062,42*62
###2023-12-09 12:56:37.982560$GBGSV,2,2,05,33,59,237,47,,,,,,,,,,,,*57
###2023-12-09 12:56:37.983897$GNVTG,345.30,T,,M,0.97,N,1.80,K,A*25
###2023-12-09 12:56:37.985777$GNGST,175637.10,18.000,,,,0.075,0.065,0.150*5B
###2023-12-09 12:56:37.987105$GNZDA,175637.10,09,12,2023,00,00*71
###2023-12-09 12:56:37.987751$GNEBP,,,,,,M*13
###2023-12-09 12:56:38.156612$GNGGA,175637.30,4138.0454769,N,07032.3895300,W,1,24,0.6,13.467,M,-29.745,M,0.0,*5A
###2023-12-09 12:56:38.357563$GNGGA,175637.50,4138.0454773,N,07032.3895224,W,1,24,0.6,13.481,M,-29.745,M,0.0,*58
###2023-12-09 12:56:38.558361$GNGGA,175637.70,4138.0454657,N,07032.3895089,W,1,24,0.6,13.480,M,-29.745,M,0.0,*59
###2023-12-09 12:56:38.761010$GNGGA,175637.90,4138.0454803,N,07032.3895152,W,1,24,0.6,13.472,M,-29.745,M,0.0,*52
###2023-12-09 12:56:38.958058$GNRMC,175638.10,A,4138.0455246,N,07032.3895439,W,0.99,335.49,091223,,,A*5B
###2023-12-09 12:56:38.960950$GNGGA,175638.10,4138.0455246,N,07032.3895439,W,1,24,0.6,13.473,M,-29.745,M,0.0,*56
