###2023-12-09 13:22:07.024732$GNGST,182206.10,18.000,,,,0.100,0.071,0.170*51
###2023-12-09 13:22:07.026050$GNZDA,182206.10,09,12,2023,00,00*7F
###2023-12-09 13:22:07.026722$GNEBP,,,,,,M*13
###2023-12-09 13:22:07.188823$GNGGA,182206.30,4138.0774246,N,07032.3439353,W,1,24,0.7,12.985,M,-29.743,M,0.0,*56
###2023-12-09 13:22:07.385444$GNGGA,182206.50,4138.0775679,N,07032.3441063,W,1,24,0.7,12.988,M,-29.743,M,0.0,*5B
###2023-12-09 13:22:07.584966$GNGGA,182206.70,4138.0777093,N,07032.3442732,W,1,24,0.7,12.988,M,-29.743,M,0.0,*59
###2023-12-09 13:22:07.784474$GNGGA,182206.90,4138.0778440,N,07032.3444481,W,1,24,0.7,12.989,M,-29.743,M,0.0,*5E
###2023-12-09 13:22:07.988364$GNRMC,182207.10,A,4138.0779705,N,07032.3446280,W,3.32,312.33,091223,,,A*58
###2023-12-09 13:22:07.991271$GNGGA,182207.10,4138.0779705,N,07032.3446280,W,1,24,0.7,12.992,M,-29.743,M,0.0,*5B
###2023-12-09 13:22:07.993069$GPGSA,A,3,03,04,16,26,28,29,31,,,,,,1.1,0.7,0.9*3B
###2023-12-09 13:22:07.994790$GLGSA,A,3,65,71,72,73,74,75,,,,,,,1.1,0.7,0.9*25
###2023-12-09 13:22:07.996388$GAGSA,A,3,04,19,21,27,,,,,,,,,1.1,0.7,0.9*27
###2023-12-09 13:22:07.998111$GBGSA,A,3,14,24,25,26,33,35,,,,,,,1.1,0.7,0.9*28
###2023-12-09 13:22:08.000453$GPGSV,2,1,07,03,30,252,42,04,41,310,42,16,60,218,46,26,90,099,48*72
###2023-12-09 13:22:08.002504$GPGSV,2,2,07,28,42,080,45,29,23,052,42,31,63,057,47,,,,*46
###2023-12-09 13:22:08.004848$GLGSV,2,1,06,65,33,323,40,71,30,174,43,72,69,234,46,73,27,048,44*65
###2023-12-09 13:22:08.006645$GLGSV,2,2,06,74,64,002,41,75,39,263,46,,,,,,,,*68
###2023-12-09 13:22:08.008988$GAGSV,1,1,04,04,36,311,42,19,77,186,40,21,81,054,46,27,26,049,41*6B
###2023-12-09 13:22:08.011347$GBGSV,2,1,06,14,35,191,42,24,67,039,48,25,47,270,47,26,20,067,42*60
###2023-12-09 13:22:08.013102$GBGSV,2,2,06,33,51,222,48,35,16,062,42,,,,,,,,*64
###2023-12-09 13:22:08.014429$GNVTG,312.33,T,,M,3.32,N,6.16,K,A*20
###2023-12-09 13:22:08.016094$GNGST,182207.10,18.000,,,,0.100,0.071,0.170*50
###2023-12-09 13:22:08.017384$GNZDA,182207.10,09,12,2023,00,00*7E
###2023-12-09 13:22:08.018023$GNEBP,,,,,,M*13
###2023-12-09 13:22:08.183797$GNGGA,182207.30,4138.0780930,N,07032.3448066,W,1,24,0.7,12.992,M,-29.743,M,0.0,*53
###2023-12-09 13:22:08.383553$GNGGA,182207.50,4138.0782131,N,07032.3449832,W,1,24,0.7,12.990,M,-29.743,M,0.0,*54
###2023-12-09 13:22:08.586303$GNGGA,182207.70,4138.0783254,N,07032.3451617,W,1,24,0.7,12.994,M,-29.743,M,0.0,*53
###2023-12-09 13:22:08.786419$GNGGA,182207.90,4138.0784304,N,07032.3453431,W,1,24,0.7,12.996,M,-29.743,M,0.0,*58
###2023-12-09 13:22:08.995237$GNRMC,182208.10,A,4138.0785268,N,07032.3455273,W,3.17,304.17,091223,,,A*52
###2023-12-09 13:22:08.998704$GNGGA,182208.10,4138.0785268,N,07032.3455273,W,1,24,0.7,12.995,M,-29.743,M,0.0,*50
###2023-12-09 13:22:09.000887$GPGSA,A,3,03,04,16,26,28,29,31,,,,,,1.1,0.7,0.9*3B
###2023-12-09 13:22:09.002982$GLGSA,A,3,65,71,72,73,74,75,,,,,,,1.1,0.7,0.9*25
###2023-12-09 13:22:09.004903$GAGSA,A,3,04,19,21,27,,,,,,,,,1.1,0.7,0.9*27
###2023-12-09 13:22:09.006993$GBGSA,A,3,14,24,25,26,33,35,,,,,,,1.1,0.7,0.9*28
###2023-12-09 13:22:09.009811$GPGSV,2,1,07,03,30,252,42,04,41,310,41,16,60,218,45,26,90,099,47*7D
###2023-12-09 13:22:09.012298$GPGSV,2,2,07,28,42,080,44,29,23,052,40,31,63,057,46,,,,*44
###2023-12-09 13:22:09.015162$GLGSV,2,1,06,65,33,323,40,71,30,174,44,72,69,234,46,73,27,048,43*65
###2023-12-09 13:22:09.017280$GLGSV,2,2,06,74,64,002,42,75,39,263,46,,,,,,,,*6B
###2023-12-09 13:22:09.020102$GAGSV,1,1,04,04,36,311,42,19,77,186,40,21,81,054,46,27,26,049,41*6B
###2023-12-09 13:22:09.022974$GBGSV,2,1,06,14,35,191,45,24,67,039,49,25,47,270,46,26,20,067,43*66
###2023-12-09 13:22:09.025089$GBGSV,2,2,06,33,51,222,48,35,16,062,43,,,,,,,,*65
###2023-12-09 13:22:09.026714$GNVTG,304.17,T,,M,3.17,N,5.87,K,A*2D
###2023-12-09 13:22:09.028713$GNGST,182208.10,18.000,,,,0.100,0.071,0.170*5F
###2023-12-09 13:22:09.030269$GNZDA,182208.10,09,12,2023,00,00*71
###2023-12-09 13:22:09.031060$GNEBP,,,,,,M*13
###2023-12-09 13:22:09.189188$GNGGA,182208.30,4138.0786185,N,07032.3457131,W,1,24,0.7,13.000,M,-29.743,M,0.0,*52
###2023-12-09 13:22:09.386077$GNGGA,182208.50,4138.0787070,N,07032.3459010,W,1,24,0.7,12.999,M,-29.743,M,0.0,*5A
###2023-12-09 13:22:09.585971$GNGGA,182208.70,4138.0787884,N,07032.3460932,W,1,24,0.7,12.998,M,-29.743,M,0.0,*59
###2023-12-09 13:22:09.786150$GNGGA,182208.90,4138.0788622,N,07032.3462898,W,1,24,0.7,13.002,M,-29.743,M,0.0,*52
###2023-12-09 13:22:09.985821$GNRMC,182209.10,A,4138.0789340,N,07032.3464954,W,3.11,294.07,091223,,,A*57
###2023-12-09 13:22:09.988716$GNGGA,182209.10,4138.0789340,N,07032.3464954,W,1,24,0.7,13.002,M,-29.743,M,0.0,*5C
###2023-12-09 13:22:09.990515$GPGSA,A,3,03,04,16,26,28,29,31,,,,,,1.1,0.7,0.9*3B
###2023-12-09 13:22:09.992249$GLGSA,A,3,65,71,72,73,74,75,,,,,,,1.1,0.7,0.9*25
###2023-12-09 13:22:09.993836$GAGSA,A,3,04,19,21,27,,,,,,,,,1.1,0.7,0.9*27
###2023-12-09 13:22:09.995557$GBGSA,A,3,14,24,25,26,33,35,,,,,,,1.1,0.7,0.9*28
###2023-12-09 13:22:09.997886$GPGSV,2,1,07,03,30,252,40,04,41,310,43,16,60,218,45,26,90,099,48*72
###2023-12-09 13:22:09.999945$GPGSV,2,2,07,28,42,080,44,29,23,052,40,31,63,057,47,,,,*45
###2023-12-09 13:22:10.002288$GLGSV,2,1,06,65,33,323,40,71,30,174,45,72,69,234,45,73,27,048,43*67
###2023-12-09 13:22:10.004058$GLGSV,2,2,06,74,64,002,42,75,39,263,44,,,,,,,,*69
###2023-12-09 13:22:10.006392$GAGSV,1,1,04,04,36,311,40,19,77,186,41,21,81,054,46,27,26,049,39*67
###2023-12-09 13:22:10.008742$GBGSV,2,1,06,14,35,191,43,24,67,039,48,25,47,270,44,26,20,067,41*61
###2023-12-09 13:22:10.010490$GBGSV,2,2,06,33,51,222,46,35,16,062,42,,,,,,,,*6A
###2023-12-09 13:22:10.011820$GNVTG,294.07,T,,M,3.11,N,5.76,K,A*2C
###2023-12-09 13:22:10.013473$GNGST,182209.10,18.000,,,,0.100,0.072,0.170*5D
###2023-12-09 13:22:10.014808$GNZDA,182209.10,09,12,2023,00,00*70
###2023-12-09 13:22:10.015449$GNEBP,,,,,,M*13
###2023-12-09 13:22:10.184458$GNGGA,182209.30,4138.0789967,N,07032.3467061,W,1,24,0.7,12.998,M,-29.743,M,0.0,*56
###2023-12-09 13:22:10.382356$GNGGA,182209.50,4138.0790517,N,07032.3469262,W,1,24,0.7,12.998,M,-29.743,M,0.0,*5C
###2023-12-09 13:22:10.581935$GNGGA,182209.70,4138.0791024,N,07032.3471551,W,1,24,0.7,12.999,M,-29.743,M,0.0,*55
###2023-12-09 13:22:10.782287$GNGGA,182209.90,4138.0791484,N,07032.3473843,W,1,24,0.7,13.010,M,-29.743,M,0.0,*50
###2023-12-09 13:22:10.986785$GNRMC,182210.10,A,4138.0791941,N,07032.3476212,W,3.30,282.33,091223,,,A*54
###2023-12-09 13:22:10.989654$GNGGA,182210.10,4138.0791941,N,07032.3476212,W,1,24,0.7,13.016,M,-29.743,M,0.0,*59
###2023-12-09 13:22:10.991475$GPGSA,A,3,03,04,16,26,28,29,31,,,,,,1.1,0.7,0.9*3B
###2023-12-09 13:22:10.993210$GLGSA,A,3,65,71,72,73,74,75,,,,,,,1.1,0.7,0.9*25
###2023-12-09 13:22:10.994813$GAGSA,A,3,04,19,21,27,,,,,,,,,1.1,0.7,0.9*27
###2023-12-09 13:22:10.996538$GBGSA,A,3,14,24,25,26,33,35,,,,,,,1.1,0.7,0.9*28
###2023-12-09 13:22:10.998893$GPGSV,2,1,07,03,30,252,40,04,41,310,43,16,60,218,46,26,90,099,48*71
###2023-12-09 13:22:11.000949$GPGSV,2,2,07,28,42,080,44,29,23,052,40,31,63,057,47,,,,*45
###2023-12-09 13:22:11.003306$GLGSV,2,1,06,65,33,323,42,71,30,174,44,72,69,234,45,73,27,048,41*66
###2023-12-09 13:22:11.005065$GLGSV,2,2,06,74,64,002,42,75,39,263,43,,,,,,,,*6E
###2023-12-09 13:22:11.007415$GAGSV,1,1,04,04,36,311,42,19,77,186,41,21,81,054,46,27,26,049,39*65
###2023-12-09 13:22:11.009761$GBGSV,2,1,06,14,35,191,43,24,67,039,48,25,47,270,45,26,20,067,42*63
###2023-12-09 13:22:11.011527$GBGSV,2,2,06,33,51,222,47,35,16,062,42,,,,,,,,*6B
###2023-12-09 13:22:11.012860$GNVTG,282.33,T,,M,3.30,N,6.12,K,A*2E
###2023-12-09 13:22:11.014518$GNGST,182210.10,18.000,,,,0.100,0.072,0.170*55
###2023-12-09 13:22:11.015828$GNZDA,182210.10,09,12,2023,00,00*78
###2023-12-09 13:22:11.016471$GNEBP,,,,,,M*13
###2023-12-09 13:22:11.182604$GNGGA,182210.30,4138.0792218,N,07032.3478590,W,1,24,0.7,13.007,M,-29.743,M,0.0,*5C
###2023-12-09 13:22:11.381442$GNGGA,182210.50,4138.0792390,N,07032.3480919,W,1,24,0.7,13.007,M,-29.743,M,0.0,*51
###2023-12-09 13:22:11.584132$GNGGA,182210.70,4138.0792659,N,07032.3483277,W,1,24,0.7,13.006,M,-29.743,M,0.0,*52
###2023-12-09 13:22:11.782876$GNGGA,182210.90,4138.0792960,N,07032.3485573,W,1,24,0.7,13.004,M,-29.743,M,0.0,*5E
###2023-12-09 13:22:11.988266$GNRMC,182211.10,A,4138.0793132,N,07032.3487794,W,2.99,273.46,091223,,,A*50
###2023-12-09 13:22:11.991770$GNGGA,182211.10,4138.0793132,N,07032.3487794,W,1,24,0.7,12.999,M,-29.743,M,0.0,*5C
###2023-12-09 13:22:11.993938$GPGSA,A,3,03,04,16,26,28,29,31,,,,,,1.1,0.7,0.9*3B
###2023-12-09 13:22:11.996025$GLGSA,A,3,65,71,72,73,74,75,,,,,,,1.1,0.7,0.9*25
###2023-12-09 13:22:11.997936$GAGSA,A,3,04,19,21,27,,,,,,,,,1.1,0.7,0.9*27
###2023-12-09 13:22:12.000012$GBGSA,A,3,14,24,25,26,33,35,,,,,,,1.1,0.7,0.9*28
###2023-12-09 13:22:12.002860$GPGSV,2,1,07,03,30,252,41,04,41,310,43,16,60,218,45,26,90,099,48*73
###2023-12-09 13:22:12.005321$GPGSV,2,2,07,28,42,080,44,29,23,052,39,31,63,057,47,,,,*4B
###2023-12-09 13:22:12.008144$GLGSV,2,1,06,65,33,323,40,71,30,174,44,72,69,234,45,73,27,048,41*64
