###2023-12-09 12:35:26.964352$GNGST,173526.10,18.000,,,,0.080,0.072,0.160*51
###2023-12-09 12:35:26.965670$GNZDA,173526.10,09,12,2023,00,00*74
###2023-12-09 12:35:26.966314$GNEBP,,,,,,M*13
###2023-12-09 12:35:27.135215$GNGGA,173526.30,4138.0491223,N,07032.4247672,W,1,23,0.7,13.405,M,-29.745,M,0.0,*5D
###2023-12-09 12:35:27.333501$GNGGA,173526.50,4138.0491260,N,07032.4247807,W,1,23,0.7,13.398,M,-29.745,M,0.0,*53
###2023-12-09 12:35:27.535095$GNGGA,173526.70,4138.0491195,N,07032.4247700,W,1,23,0.7,13.403,M,-29.745,M,0.0,*55
###2023-12-09 12:35:27.734865$GNGGA,173526.90,4138.0491166,N,07032.4247685,W,1,23,0.7,13.408,M,-29.745,M,0.0,*50
###2023-12-09 12:35:27.939370$GNRMC,173527.10,A,4138.0491258,N,07032.4247945,W,0.52,299.82,091223,,,A*54
###2023-12-09 12:35:27.942210$GNGGA,173527.10,4138.0491258,N,07032.4247945,W,1,23,0.7,13.405,M,-29.745,M,0.0,*59
###2023-12-09 12:35:27.944076$GPGSA,A,3,03,04,16,26,28,29,31,32,,,,,1.2,0.7,1.0*31
###2023-12-09 12:35:27.945726$GLGSA,A,3,71,72,73,74,75,,,,,,,,1.2,0.7,1.0*2D
###2023-12-09 12:35:27.947334$GAGSA,A,3,04,19,21,27,,,,,,,,,1.2,0.7,1.0*2C
###2023-12-09 12:35:27.948999$GBGSA,A,3,14,24,25,26,33,,,,,,,,1.2,0.7,1.0*25
###2023-12-09 12:35:27.951344$GPGSV,2,1,08,03,39,277,45,04,22,311,40,16,37,207,45,26,66,206,48*70
###2023-12-09 12:35:27.953677$GPGSV,2,2,08,28,58,056,44,29,25,074,40,31,73,001,46,32,30,134,45*7E
###2023-12-09 12:35:27.956020$GLGSV,2,1,05,71,57,169,48,72,65,310,47,73,48,033,45,74,71,290,43*62
###2023-12-09 12:35:27.957476$GLGSV,2,2,05,75,22,241,44,,,,,,,,,,,,*55
###2023-12-09 12:35:27.959810$GAGSV,1,1,04,04,21,311,43,19,81,302,41,21,78,176,46,27,41,049,43*6E
###2023-12-09 12:35:27.962135$GBGSV,2,1,05,14,55,197,44,24,80,347,48,25,33,253,43,26,35,057,44*61
###2023-12-09 12:35:27.963601$GBGSV,2,2,05,33,63,253,48,,,,,,,,,,,,*53
###2023-12-09 12:35:27.964925$GNVTG,299.82,T,,M,0.52,N,0.97,K,A*22
###2023-12-09 12:35:27.966583$GNGST,173527.10,18.000,,,,0.080,0.071,0.160*53
###2023-12-09 12:35:27.967873$GNZDA,173527.10,09,12,2023,00,00*75
###2023-12-09 12:35:27.968509$GNEBP,,,,,,M*13
###2023-12-09 12:35:28.135334$GNGGA,173527.30,4138.0491344,N,07032.4248229,W,1,23,0.7,13.408,M,-29.745,M,0.0,*54
###2023-12-09 12:35:28.336512$GNGGA,173527.50,4138.0491320,N,07032.4248257,W,1,23,0.7,13.409,M,-29.745,M,0.0,*58
###2023-12-09 12:35:28.534543$GNGGA,173527.70,4138.0491248,N,07032.4248131,W,1,23,0.7,13.408,M,-29.745,M,0.0,*57
###2023-12-09 12:35:28.733698$GNGGA,173527.90,4138.0491280,N,07032.4248205,W,1,23,0.7,13.408,M,-29.745,M,0.0,*59
###2023-12-09 12:35:28.937392$GNRMC,173528.10,A,4138.0491431,N,07032.4248497,W,0.54,299.82,091223,,,A*59
###2023-12-09 12:35:28.940286$GNGGA,173528.10,4138.0491431,N,07032.4248497,W,1,23,0.7,13.411,M,-29.745,M,0.0,*57
###2023-12-09 12:35:28.942152$GPGSA,A,3,03,04,16,26,28,29,31,32,,,,,1.2,0.7,1.0*31
###2023-12-09 12:35:28.943819$GLGSA,A,3,71,72,73,74,75,,,,,,,,1.2,0.7,1.0*2D
###2023-12-09 12:35:28.945409$GAGSA,A,3,04,19,21,27,,,,,,,,,1.2,0.7,1.0*2C
###2023-12-09 12:35:28.947092$GBGSA,A,3,14,24,25,26,33,,,,,,,,1.2,0.7,1.0*25
###2023-12-09 12:35:28.949442$GPGSV,2,1,08,03,39,277,45,04,22,311,40,16,37,207,45,26,66,206,48*70
###2023-12-09 12:35:28.951801$GPGSV,2,2,08,28,58,056,44,29,25,074,39,31,73,001,46,32,30,134,44*71
###2023-12-09 12:35:28.954144$GLGSV,2,1,05,71,57,169,48,72,65,310,47,73,48,033,44,74,71,290,43*63
###2023-12-09 12:35:28.955620$GLGSV,2,2,05,75,22,241,44,,,,,,,,,,,,*55
###2023-12-09 12:35:28.957957$GAGSV,1,1,04,04,21,311,43,19,81,302,41,21,78,176,46,27,41,049,41*6C
###2023-12-09 12:35:28.960312$GBGSV,2,1,05,14,55,197,45,24,80,347,48,25,33,253,41,26,35,057,44*62
###2023-12-09 12:35:28.961772$GBGSV,2,2,05,33,63,253,47,,,,,,,,,,,,*5C
###2023-12-09 12:35:28.963117$GNVTG,299.82,T,,M,0.54,N,1.01,K,A*2A
###2023-12-09 12:35:28.964771$GNGST,173528.10,18.000,,,,0.080,0.072,0.160*5F
###2023-12-09 12:35:28.966067$GNZDA,173528.10,09,12,2023,00,00*7A
###2023-12-09 12:35:28.966725$GNEBP,,,,,,M*13
###2023-12-09 12:35:29.134539$GNGGA,173528.30,4138.0491532,N,07032.4248638,W,1,23,0.7,13.408,M,-29.745,M,0.0,*58
###2023-12-09 12:35:29.335407$GNGGA,173528.50,4138.0491558,N,07032.4248479,W,1,23,0.7,13.413,M,-29.745,M,0.0,*5F
###2023-12-09 12:35:29.535828$GNGGA,173528.70,4138.0491615,N,07032.4248320,W,1,23,0.7,13.409,M,-29.745,M,0.0,*57
###2023-12-09 12:35:29.733767$GNGGA,173528.90,4138.0491788,N,07032.4248371,W,1,23,0.7,13.407,M,-29.745,M,0.0,*56
###2023-12-09 12:35:29.935278$GNRMC,173529.10,A,4138.0492048,N,07032.4248525,W,0.51,299.82,091223,,,A*5C
###2023-12-09 12:35:29.938165$GNGGA,173529.10,4138.0492048,N,07032.4248525,W,1,23,0.7,13.401,M,-29.745,M,0.0,*56
###2023-12-09 12:35:29.940056$GPGSA,A,3,03,04,16,26,28,29,31,32,,,,,1.2,0.7,1.0*31
###2023-12-09 12:35:29.941719$GLGSA,A,3,71,72,73,74,75,,,,,,,,1.2,0.7,1.0*2D
###2023-12-09 12:35:29.943336$GAGSA,A,3,04,19,21,27,,,,,,,,,1.2,0.7,1.0*2C
###2023-12-09 12:35:29.944995$GBGSA,A,3,14,24,25,26,33,,,,,,,,1.2,0.7,1.0*25
###2023-12-09 12:35:29.947376$GPGSV,2,1,08,03,39,277,44,04,22,311,40,16,37,207,46,26,66,206,48*72
###2023-12-09 12:35:29.949764$GPGSV,2,2,08,28,58,056,45,29,25,074,40,31,73,001,47,32,30,134,44*7F
###2023-12-09 12:35:29.952141$GLGSV,2,1,05,71,57,169,47,72,65,310,48,73,48,033,45,74,71,290,43*62
###2023-12-09 12:35:29.953617$GLGSV,2,2,05,75,22,241,43,,,,,,,,,,,,*52
###2023-12-09 12:35:29.955983$GAGSV,1,1,04,04,21,311,45,19,81,302,41,21,78,176,46,27,41,049,41*6A
###2023-12-09 12:35:29.958337$GBGSV,2,1,05,14,55,197,44,24,80,347,48,25,33,253,43,26,35,057,44*61
###2023-12-09 12:35:29.959824$GBGSV,2,2,05,33,63,253,49,,,,,,,,,,,,*52
###2023-12-09 12:35:29.961163$GNVTG,299.82,T,,M,0.51,N,0.94,K,A*22
###2023-12-09 12:35:29.962851$GNGST,173529.10,18.000,,,,0.080,0.072,0.160*5E
###2023-12-09 12:35:29.964162$GNZDA,173529.10,09,12,2023,00,00*7B
###2023-12-09 12:35:29.964815$GNEBP,,,,,,M*13
###2023-12-09 12:35:30.138199$GNGGA,173529.30,4138.0492278,N,07032.4248496,W,1,23,0.7,13.405,M,-29.745,M,0.0,*58
###2023-12-09 12:35:30.335411$GNGGA,173529.50,4138.0492435,N,07032.4248135,W,1,23,0.7,13.402,M,-29.745,M,0.0,*5A
###2023-12-09 12:35:30.535969$GNGGA,173529.70,4138.0492622,N,07032.4247838,W,1,23,0.7,13.388,M,-29.745,M,0.0,*52
###2023-12-09 12:35:30.734790$GNGGA,173529.90,4138.0493007,N,07032.4247865,W,1,23,0.7,13.389,M,-29.745,M,0.0,*55
###2023-12-09 12:35:30.936162$GNRMC,173530.10,A,4138.0493448,N,07032.4247946,W,0.74,299.82,091223,,,A*50
###2023-12-09 12:35:30.939167$GNGGA,173530.10,4138.0493448,N,07032.4247946,W,1,23,0.7,13.395,M,-29.745,M,0.0,*57
###2023-12-09 12:35:30.941146$GPGSA,A,3,03,04,16,26,28,29,31,32,,,,,1.2,0.7,1.0*31
###2023-12-09 12:35:30.942930$GLGSA,A,3,71,72,73,74,75,,,,,,,,1.2,0.7,1.0*2D
###2023-12-09 12:35:30.944635$GAGSA,A,3,04,19,21,27,,,,,,,,,1.2,0.7,1.0*2C
###2023-12-09 12:35:30.946411$GBGSA,A,3,14,24,25,26,33,,,,,,,,1.2,0.7,1.0*25
###2023-12-09 12:35:30.948971$GPGSV,2,1,08,03,39,277,44,04,22,311,41,16,37,207,45,26,66,206,48*70
###2023-12-09 12:35:30.951513$GPGSV,2,2,08,28,58,056,45,29,25,074,38,31,73,001,47,32,30,134,42*76
###2023-12-09 12:35:30.953997$GLGSV,2,1,05,71,56,169,48,72,65,310,47,73,48,033,45,74,71,290,43*63
###2023-12-09 12:35:30.955592$GLGSV,2,2,05,75,22,241,43,,,,,,,,,,,,*52
###2023-12-09 12:35:30.958049$GAGSV,1,1,04,04,21,311,44,19,81,302,41,21,78,176,46,27,41,049,43*69
###2023-12-09 12:35:30.960559$GBGSV,2,1,05,14,55,197,44,24,80,347,49,25,33,253,43,26,35,057,43*67
###2023-12-09 12:35:30.962133$GBGSV,2,2,05,33,63,253,48,,,,,,,,,,,,*53
###2023-12-09 12:35:30.963587$GNVTG,299.82,T,,M,0.74,N,1.37,K,A*2D
###2023-12-09 12:35:30.965349$GNGST,173530.10,18.000,,,,0.080,0.072,0.160*56
###2023-12-09 12:35:30.966767$GNZDA,173530.10,09,12,2023,00,00*73
###2023-12-09 12:35:30.967524$GNEBP,,,,,,M*13
###2023-12-09 12:35:31.136184$GNGGA,173530.30,4138.0493784,N,07032.4247619,W,1,23,0.7,13.399,M,-29.745,M,0.0,*5F
###2023-12-09 12:35:31.335352$GNGGA,173530.50,4138.0494058,N,07032.4247072,W,1,23,0.7,13.395,M,-29.745,M,0.0,*5F
###2023-12-09 12:35:31.537711$GNGGA,173530.70,4138.0494433,N,07032.4246759,W,1,23,0.7,13.390,M,-29.745,M,0.0,*5E
###2023-12-09 12:35:31.733547$GNGGA,173530.90,4138.0495011,N,07032.4246751,W,1,23,0.7,13.399,M,-29.745,M,0.0,*54
###2023-12-09 12:35:31.936822$GNRMC,173531.10,A,4138.0495589,N,07032.4246596,W,1.07,35.53,091223,,,A*66
###2023-12-09 12:35:31.939910$GNGGA,173531.10,4138.0495589,N,07032.4246596,W,1,23,0.7,13.397,M,-29.745,M,0.0,*5E
###2023-12-09 12:35:31.941798$GPGSA,A,3,03,04,16,26,28,29,31,32,,,,,1.2,0.7,1.0*31
###2023-12-09 12:35:31.943482$GLGSA,A,3,71,72,73,74,75,,,,,,,,1.2,0.7,1.0*2D
###2023-12-09 12:35:31.945085$GAGSA,A,3,04,19,21,27,,,,,,,,,1.2,0.7,1.0*2C
###2023-12-09 12:35:31.946770$GBGSA,A,3,14,24,25,26,33,,,,,,,,1.2,0.7,1.0*25
###2023-12-09 12:35:31.949116$GPGSV,2,1,08,03,39,277,47,04,22,311,42,16,37,207,44,26,66,206,48*71
###2023-12-09 12:35:31.951487$GPGSV,2,2,08,28,58,056,44,29,25,074,38,31,73,001,47,32,30,134,41*74
###2023-12-09 12:35:31.953846$GLGSV,2,1,05,71,56,169,47,72,66,308,47,73,48,033,45,74,71,290,44*61
