###2023-12-09 12:39:20.947778$GNRMC,173920.10,A,4138.0536054,N,07032.3757934,W,1.26,284.74,091223,,,A*5F
###2023-12-09 12:39:20.951277$GNGGA,173920.10,4138.0536054,N,07032.3757934,W,1,23,0.7,13.639,M,-29.744,M,0.0,*59
###2023-12-09 12:39:20.953530$GPGSA,A,3,03,04,16,26,28,29,31,32,,,,,1.2,0.7,1.0*31
###2023-12-09 12:39:20.955541$GLGSA,A,3,71,72,73,74,75,,,,,,,,1.2,0.7,1.0*2D
###2023-12-09 12:39:20.957486$GAGSA,A,3,04,19,21,27,,,,,,,,,1.2,0.7,1.0*2C
###2023-12-09 12:39:20.959508$GBGSA,A,3,14,24,25,26,33,,,,,,,,1.2,0.7,1.0*25
###2023-12-09 12:39:20.962321$GPGSV,2,1,08,03,38,275,44,04,23,311,44,16,38,208,43,26,68,207,47*71
###2023-12-09 12:39:20.965155$GPGSV,2,2,08,28,57,058,45,29,25,072,42,31,73,007,48,32,28,135,44*7B
###2023-12-09 12:39:20.967995$GLGSV,2,1,05,71,54,170,47,72,68,305,47,73,45,035,47,74,71,299,43*6F
###2023-12-09 12:39:20.969758$GLGSV,2,2,05,75,24,243,39,,,,,,,,,,,,*5B
###2023-12-09 12:39:20.972572$GAGSV,1,1,04,04,22,311,42,19,82,296,41,21,79,174,46,27,40,049,44*66
###2023-12-09 12:39:20.975395$GBGSV,2,1,05,14,53,197,45,24,80,355,48,25,34,254,44,26,33,058,44*6B
###2023-12-09 12:39:20.977150$GBGSV,2,2,05,33,62,250,48,,,,,,,,,,,,*51
###2023-12-09 12:39:20.978756$GNVTG,284.74,T,,M,1.26,N,2.34,K,A*2E
###2023-12-09 12:39:20.980741$GNGST,173920.10,19.000,,,,0.082,0.071,0.170*5A
###2023-12-09 12:39:20.982298$GNZDA,173920.10,09,12,2023,00,00*7E
###2023-12-09 12:39:20.983085$GNEBP,,,,,,M*13
###2023-12-09 12:39:21.140144$GNGGA,173920.30,4138.0536185,N,07032.3758595,W,1,23,0.7,13.656,M,-29.744,M,0.0,*57
###2023-12-09 12:39:21.340531$GNGGA,173920.50,4138.0536121,N,07032.3758558,W,1,23,0.7,13.653,M,-29.744,M,0.0,*5B
###2023-12-09 12:39:21.540903$GNGGA,173920.70,4138.0536007,N,07032.3758207,W,1,23,0.7,13.593,M,-29.744,M,0.0,*5E
###2023-12-09 12:39:21.740083$GNGGA,173920.90,4138.0536043,N,07032.3758634,W,1,23,0.7,13.598,M,-29.744,M,0.0,*5F
###2023-12-09 12:39:21.940955$GNRMC,173921.10,A,4138.0536239,N,07032.3759591,W,1.24,284.86,091223,,,A*55
###2023-12-09 12:39:21.944403$GNGGA,173921.10,4138.0536239,N,07032.3759591,W,1,23,0.7,13.634,M,-29.744,M,0.0,*51
###2023-12-09 12:39:21.946666$GPGSA,A,3,03,04,16,26,28,29,31,32,,,,,1.2,0.7,1.0*31
###2023-12-09 12:39:21.948674$GLGSA,A,3,71,72,73,74,75,,,,,,,,1.2,0.7,1.0*2D
###2023-12-09 12:39:21.950634$GAGSA,A,3,04,19,21,27,,,,,,,,,1.2,0.7,1.0*2C
###2023-12-09 12:39:21.952636$GBGSA,A,3,14,24,25,26,33,,,,,,,,1.2,0.7,1.0*25
###2023-12-09 12:39:21.955472$GPGSV,2,1,08,03,38,275,45,04,23,311,44,16,38,208,41,26,68,207,46*73
###2023-12-09 12:39:21.958285$GPGSV,2,2,08,28,57,058,44,29,25,072,42,31,73,007,47,32,28,135,43*72
###2023-12-09 12:39:21.961132$GLGSV,2,1,05,71,54,170,46,72,68,305,47,73,45,035,46,74,71,299,43*6F
###2023-12-09 12:39:21.962905$GLGSV,2,2,05,75,24,243,39,,,,,,,,,,,,*5B
###2023-12-09 12:39:21.965723$GAGSV,1,1,04,04,22,311,43,19,82,296,40,21,79,174,45,27,40,049,42*63
###2023-12-09 12:39:21.968551$GBGSV,2,1,05,14,53,197,44,24,80,355,48,25,34,254,45,26,33,058,43*6C
###2023-12-09 12:39:21.970312$GBGSV,2,2,05,33,62,250,47,,,,,,,,,,,,*5E
###2023-12-09 12:39:21.972045$GNVTG,284.86,T,,M,1.24,N,2.30,K,A*25
###2023-12-09 12:39:21.974053$GNGST,173921.10,19.000,,,,0.082,0.072,0.170*58
###2023-12-09 12:39:21.975635$GNZDA,173921.10,09,12,2023,00,00*7F
###2023-12-09 12:39:21.976401$GNEBP,,,,,,M*13
###2023-12-09 12:39:22.140522$GNGGA,173921.30,4138.0536292,N,07032.3759970,W,1,23,0.7,13.642,M,-29.744,M,0.0,*50
###2023-12-09 12:39:22.340007$GNGGA,173921.50,4138.0536153,N,07032.3759584,W,1,23,0.7,13.643,M,-29.744,M,0.0,*5E
###2023-12-09 12:39:22.540511$GNGGA,173921.70,4138.0536068,N,07032.3759392,W,1,21,0.8,13.586,M,-29.744,M,0.0,*53
###2023-12-09 12:39:22.739502$GNGGA,173921.90,4138.0536222,N,07032.3760154,W,1,23,0.7,13.621,M,-29.744,M,0.0,*50
###2023-12-09 12:39:22.940917$GNRMC,173922.10,A,4138.0536399,N,07032.3761042,W,0.68,283.73,091223,,,A*59
###2023-12-09 12:39:22.943794$GNGGA,173922.10,4138.0536399,N,07032.3761042,W,1,23,0.7,13.627,M,-29.744,M,0.0,*5B
###2023-12-09 12:39:22.945653$GPGSA,A,3,03,04,16,26,28,29,31,32,,,,,1.2,0.7,1.0*31
###2023-12-09 12:39:22.947344$GLGSA,A,3,71,72,73,74,75,,,,,,,,1.2,0.7,1.0*2D
###2023-12-09 12:39:22.948947$GAGSA,A,3,04,19,21,27,,,,,,,,,1.2,0.7,1.0*2C
###2023-12-09 12:39:22.950607$GBGSA,A,3,14,24,25,26,33,,,,,,,,1.2,0.7,1.0*25
###2023-12-09 12:39:22.952942$GPGSV,2,1,08,03,38,275,46,04,23,311,46,16,38,208,42,26,68,207,46*71
###2023-12-09 12:39:22.955298$GPGSV,2,2,08,28,57,058,43,29,25,072,41,31,73,007,46,32,28,135,42*76
###2023-12-09 12:39:22.957641$GLGSV,2,1,05,71,54,170,46,72,68,305,47,73,45,035,46,74,71,299,43*6F
###2023-12-09 12:39:22.959121$GLGSV,2,2,05,75,24,243,42,,,,,,,,,,,,*57
###2023-12-09 12:39:22.961450$GAGSV,1,1,04,04,22,311,45,19,82,296,41,21,79,174,45,27,40,049,43*65
###2023-12-09 12:39:22.963829$GBGSV,2,1,05,14,53,197,45,24,80,355,48,25,34,254,46,26,33,058,43*6E
###2023-12-09 12:39:22.965296$GBGSV,2,2,05,33,62,250,48,,,,,,,,,,,,*51
###2023-12-09 12:39:22.966644$GNVTG,283.73,T,,M,0.68,N,1.26,K,A*25
###2023-12-09 12:39:22.968302$GNGST,173922.10,18.000,,,,0.083,0.072,0.170*5B
###2023-12-09 12:39:22.969594$GNZDA,173922.10,09,12,2023,00,00*7C
###2023-12-09 12:39:22.970232$GNEBP,,,,,,M*13
###2023-12-09 12:39:23.139180$GNGGA,173922.30,4138.0536342,N,07032.3761023,W,1,23,0.7,13.642,M,-29.744,M,0.0,*5B
###2023-12-09 12:39:23.341202$GNGGA,173922.50,4138.0536222,N,07032.3760496,W,1,23,0.7,13.608,M,-29.744,M,0.0,*5F
###2023-12-09 12:39:23.540269$GNGGA,173922.70,4138.0536238,N,07032.3760699,W,1,23,0.7,13.584,M,-29.744,M,0.0,*5C
###2023-12-09 12:39:23.739233$GNGGA,173922.90,4138.0536420,N,07032.3761602,W,1,23,0.7,13.616,M,-29.744,M,0.0,*56
###2023-12-09 12:39:23.940502$GNRMC,173923.10,A,4138.0536523,N,07032.3762142,W,0.02,283.91,091223,,,A*5D
###2023-12-09 12:39:23.943973$GNGGA,173923.10,4138.0536523,N,07032.3762142,W,1,23,0.7,13.613,M,-29.744,M,0.0,*58
###2023-12-09 12:39:23.946216$GPGSA,A,3,03,04,16,26,28,29,31,32,,,,,1.2,0.7,1.0*31
###2023-12-09 12:39:23.948263$GLGSA,A,3,71,72,73,74,75,,,,,,,,1.2,0.7,1.0*2D
###2023-12-09 12:39:23.950184$GAGSA,A,3,04,19,21,27,,,,,,,,,1.2,0.7,1.0*2C
###2023-12-09 12:39:23.952190$GBGSA,A,3,14,24,25,26,33,,,,,,,,1.2,0.7,1.0*25
###2023-12-09 12:39:23.955017$GPGSV,2,1,08,03,38,275,48,04,23,311,47,16,38,208,44,26,68,207,47*79
###2023-12-09 12:39:23.957836$GPGSV,2,2,08,28,57,058,44,29,25,072,42,31,73,007,48,32,28,135,43*7D
###2023-12-09 12:39:23.960649$GLGSV,2,1,05,71,54,170,44,72,68,305,46,73,45,035,46,74,71,299,43*6C
###2023-12-09 12:39:23.962402$GLGSV,2,2,05,75,24,243,42,,,,,,,,,,,,*57
###2023-12-09 12:39:23.965220$GAGSV,1,1,04,04,22,311,45,19,82,296,40,21,79,174,44,27,40,049,44*62
###2023-12-09 12:39:23.968088$GBGSV,2,1,05,14,53,197,44,24,80,355,47,25,34,254,45,26,33,058,43*63
###2023-12-09 12:39:23.969837$GBGSV,2,2,05,33,62,250,48,,,,,,,,,,,,*51
###2023-12-09 12:39:23.971444$GNVTG,283.91,T,,M,0.02,N,0.04,K,A*24
###2023-12-09 12:39:23.973415$GNGST,173923.10,18.000,,,,0.083,0.072,0.170*5A
###2023-12-09 12:39:23.975020$GNZDA,173923.10,09,12,2023,00,00*7D
###2023-12-09 12:39:23.975800$GNEBP,,,,,,M*13
###2023-12-09 12:39:24.141530$GNGGA,173923.30,4138.0536422,N,07032.3761842,W,1,23,0.7,13.618,M,-29.744,M,0.0,*5B
###2023-12-09 12:39:24.340608$GNGGA,173923.50,4138.0536315,N,07032.3761471,W,1,23,0.7,13.577,M,-29.744,M,0.0,*58
###2023-12-09 12:39:24.541907$GNGGA,173923.70,4138.0536422,N,07032.3761962,W,1,23,0.7,13.587,M,-29.744,M,0.0,*59
###2023-12-09 12:39:24.741767$GNGGA,173923.90,4138.0536613,N,07032.3762841,W,1,23,0.7,13.609,M,-29.744,M,0.0,*51
###2023-12-09 12:39:24.939839$GNRMC,173924.10,A,4138.0536624,N,07032.3763043,W,0.43,286.09,091223,,,A*5E
###2023-12-09 12:39:24.942680$GNGGA,173924.10,4138.0536624,N,07032.3763043,W,1,23,0.7,13.611,M,-29.744,M,0.0,*58
###2023-12-09 12:39:24.944534$GPGSA,A,3,03,04,16,26,28,29,31,32,,,,,1.2,0.7,1.0*31
###2023-12-09 12:39:24.946171$GLGSA,A,3,71,72,73,74,75,,,,,,,,1.2,0.7,1.0*2D
###2023-12-09 12:39:24.947779$GAGSA,A,3,04,19,21,27,,,,,,,,,1.2,0.7,1.0*2C
###2023-12-09 12:39:24.949442$GBGSA,A,3,14,24,25,26,33,,,,,,,,1.2,0.7,1.0*25
###2023-12-09 12:39:24.951778$GPGSV,2,1,08,03,38,275,46,04,23,311,46,16,38,208,43,26,68,207,47*71
###2023-12-09 12:39:24.954354$GPGSV,2,2,08,28,57,058,44,29,25,072,41,31,73,007,48,32,28,135,42*7F
###2023-12-09 12:39:24.956712$GLGSV,2,1,05,71,54,170,45,72,68,305,48,73,45,035,45,74,71,299,43*60
###2023-12-09 12:39:24.958208$GLGSV,2,2,05,75,24,243,42,,,,,,,,,,,,*57
###2023-12-09 12:39:24.960533$GAGSV,1,1,04,04,22,311,44,19,82,296,40,21,79,174,45,27,40,049,43*65
###2023-12-09 12:39:24.962873$GBGSV,2,1,05,14,53,197,45,24,80,355,48,25,34,254,45,26,33,058,44*6A
###2023-12-09 12:39:24.964327$GBGSV,2,2,05,33,62,250,48,,,,,,,,,,,,*51
###2023-12-09 12:39:24.965649$GNVTG,286.09,T,,M,0.43,N,0.79,K,A*2F
###2023-12-09 12:39:24.967305$GNGST,173924.10,19.000,,,,0.083,0.072,0.170*5C
###2023-12-09 12:39:24.968594$GNZDA,173924.10,09,12,2023,00,00*7A
