###2023-12-09 12:51:04.981602$GNEBP,,,,,,M*13
###2023-12-09 12:51:05.150416$GNGGA,175104.30,4138.0557411,N,07032.3754966,W,1,24,0.6,13.660,M,-29.744,M,0.0,*5F
###2023-12-09 12:51:05.351637$GNGGA,175104.50,4138.0557410,N,07032.3755177,W,1,24,0.6,13.675,M,-29.744,M,0.0,*55
###2023-12-09 12:51:05.550078$GNGGA,175104.70,4138.0557433,N,07032.3754974,W,1,24,0.6,13.653,M,-29.744,M,0.0,*58
###2023-12-09 12:51:05.750132$GNGGA,175104.90,4138.0557448,N,07032.3754865,W,1,24,0.6,13.635,M,-29.744,M,0.0,*5B
###2023-12-09 12:51:05.954876$GNRMC,175105.10,A,4138.0557479,N,07032.3755313,W,0.89,110.98,091223,,,A*5F
###2023-12-09 12:51:05.957750$GNGGA,175105.10,4138.0557479,N,07032.3755313,W,1,24,0.6,13.649,M,-29.744,M,0.0,*50
###2023-12-09 12:51:05.959621$GPGSA,A,3,03,04,16,26,28,29,31,32,,,,,1.1,0.6,0.9*3B
###2023-12-09 12:51:05.961336$GLGSA,A,3,65,71,72,73,74,75,,,,,,,1.1,0.6,0.9*24
###2023-12-09 12:51:05.962932$GAGSA,A,3,04,19,21,27,,,,,,,,,1.1,0.6,0.9*26
###2023-12-09 12:51:05.964577$GBGSA,A,3,14,24,25,26,33,,,,,,,,1.1,0.6,0.9*2F
###2023-12-09 12:51:05.966940$GPGSV,2,1,08,03,37,268,43,04,28,311,40,16,44,210,44,26,74,208,47*7D
###2023-12-09 12:51:05.969320$GPGSV,2,2,08,28,53,065,46,29,26,066,43,31,71,024,48,32,23,138,45*71
###2023-12-09 12:51:05.971669$GLGSV,2,1,06,65,19,329,39,71,47,171,46,72,72,288,47,73,40,038,46*61
###2023-12-09 12:51:05.973410$GLGSV,2,2,06,74,71,321,43,75,28,248,41,,,,,,,,*62
###2023-12-09 12:51:05.975743$GAGSV,1,1,04,04,26,312,40,19,85,258,41,21,83,157,46,27,36,048,43*65
###2023-12-09 12:51:05.978064$GBGSV,2,1,05,14,48,194,42,24,77,014,48,25,37,258,44,26,29,060,43*63
###2023-12-09 12:51:05.979528$GBGSV,2,2,05,33,60,240,47,,,,,,,,,,,,*5D
###2023-12-09 12:51:05.980848$GNVTG,110.98,T,,M,0.89,N,1.66,K,A*22
###2023-12-09 12:51:05.982494$GNGST,175105.10,18.000,,,,0.079,0.067,0.160*50
###2023-12-09 12:51:05.983803$GNZDA,175105.10,09,12,2023,00,00*77
###2023-12-09 12:51:05.984445$GNEBP,,,,,,M*13
###2023-12-09 12:51:06.149390$GNGGA,175105.30,4138.0557522,N,07032.3755802,W,1,24,0.6,13.658,M,-29.744,M,0.0,*56
###2023-12-09 12:51:06.351512$GNGGA,175105.50,4138.0557519,N,07032.3755720,W,1,24,0.6,13.658,M,-29.744,M,0.0,*57
###2023-12-09 12:51:06.550234$GNGGA,175105.70,4138.0557504,N,07032.3755448,W,1,24,0.6,13.651,M,-29.744,M,0.0,*5D
###2023-12-09 12:51:06.750190$GNGGA,175105.90,4138.0557564,N,07032.3755691,W,1,24,0.6,13.653,M,-29.744,M,0.0,*51
###2023-12-09 12:51:06.950094$GNRMC,175106.10,A,4138.0557621,N,07032.3756207,W,0.51,110.98,091223,,,A*51
###2023-12-09 12:51:06.952973$GNGGA,175106.10,4138.0557621,N,07032.3756207,W,1,24,0.6,13.651,M,-29.744,M,0.0,*52
###2023-12-09 12:51:06.954853$GPGSA,A,3,03,04,16,26,28,29,31,32,,,,,1.1,0.6,0.9*3B
###2023-12-09 12:51:06.956573$GLGSA,A,3,65,71,72,73,74,75,,,,,,,1.1,0.6,0.9*24
###2023-12-09 12:51:06.958156$GAGSA,A,3,04,19,21,27,,,,,,,,,1.1,0.6,0.9*26
###2023-12-09 12:51:06.959811$GBGSA,A,3,14,24,25,26,33,,,,,,,,1.1,0.6,0.9*2F
###2023-12-09 12:51:06.962139$GPGSV,2,1,08,03,37,268,43,04,28,311,41,16,44,210,44,26,74,208,47*7C
###2023-12-09 12:51:06.964493$GPGSV,2,2,08,28,53,065,45,29,26,066,40,31,71,024,48,32,23,138,44*70
###2023-12-09 12:51:06.966844$GLGSV,2,1,06,65,19,329,39,71,47,171,46,72,72,288,47,73,40,038,46*61
###2023-12-09 12:51:06.968594$GLGSV,2,2,06,74,71,321,43,75,28,248,41,,,,,,,,*62
###2023-12-09 12:51:06.970933$GAGSV,1,1,04,04,26,312,41,19,85,258,41,21,83,157,46,27,36,048,43*64
###2023-12-09 12:51:06.973265$GBGSV,2,1,05,14,48,194,43,24,77,014,49,25,37,258,45,26,29,060,42*63
###2023-12-09 12:51:06.974727$GBGSV,2,2,05,33,60,240,47,,,,,,,,,,,,*5D
###2023-12-09 12:51:06.976047$GNVTG,110.98,T,,M,0.51,N,0.94,K,A*2B
###2023-12-09 12:51:06.977690$GNGST,175106.10,18.000,,,,0.079,0.067,0.160*53
###2023-12-09 12:51:06.978994$GNZDA,175106.10,09,12,2023,00,00*74
###2023-12-09 12:51:06.979633$GNEBP,,,,,,M*13
###2023-12-09 12:51:07.149325$GNGGA,175106.30,4138.0557612,N,07032.3756306,W,1,24,0.6,13.634,M,-29.744,M,0.0,*53
###2023-12-09 12:51:07.350227$GNGGA,175106.50,4138.0557601,N,07032.3756166,W,1,24,0.6,13.643,M,-29.744,M,0.0,*53
###2023-12-09 12:51:07.550332$GNGGA,175106.70,4138.0557663,N,07032.3756420,W,1,24,0.6,13.675,M,-29.744,M,0.0,*57
###2023-12-09 12:51:07.752811$GNGGA,175106.90,4138.0557742,N,07032.3756770,W,1,24,0.6,13.668,M,-29.744,M,0.0,*51
###2023-12-09 12:51:07.950502$GNRMC,175107.10,A,4138.0557774,N,07032.3756844,W,0.06,110.98,091223,,,A*5E
###2023-12-09 12:51:07.953389$GNGGA,175107.10,4138.0557774,N,07032.3756844,W,1,24,0.6,13.634,M,-29.744,M,0.0,*5C
###2023-12-09 12:51:07.955269$GPGSA,A,3,03,04,16,26,28,29,31,32,,,,,1.1,0.6,0.9*3B
###2023-12-09 12:51:07.956989$GLGSA,A,3,65,71,72,73,74,75,,,,,,,1.1,0.6,0.9*24
###2023-12-09 12:51:07.958585$GAGSA,A,3,04,19,21,27,,,,,,,,,1.1,0.6,0.9*26
###2023-12-09 12:51:07.960240$GBGSA,A,3,14,24,25,26,33,,,,,,,,1.1,0.6,0.9*2F
###2023-12-09 12:51:07.962584$GPGSV,2,1,08,03,37,268,44,04,28,311,42,16,44,210,43,26,74,208,48*70
###2023-12-09 12:51:07.964921$GPGSV,2,2,08,28,53,065,45,29,26,066,41,31,71,024,48,32,23,138,43*76
###2023-12-09 12:51:07.967272$GLGSV,2,1,06,65,19,329,41,71,47,171,46,72,72,288,47,73,40,038,46*6E
###2023-12-09 12:51:07.969016$GLGSV,2,2,06,74,71,321,43,75,28,248,41,,,,,,,,*62
###2023-12-09 12:51:07.971347$GAGSV,1,1,04,04,26,312,42,19,85,258,41,21,83,157,46,27,36,048,43*67
###2023-12-09 12:51:07.973670$GBGSV,2,1,05,14,48,194,45,24,77,014,49,25,37,258,45,26,29,060,43*64
###2023-12-09 12:51:07.975132$GBGSV,2,2,05,33,60,240,48,,,,,,,,,,,,*52
###2023-12-09 12:51:07.976452$GNVTG,110.98,T,,M,0.06,N,0.11,K,A*24
###2023-12-09 12:51:07.978091$GNGST,175107.10,18.000,,,,0.079,0.067,0.160*52
###2023-12-09 12:51:07.979392$GNZDA,175107.10,09,12,2023,00,00*75
###2023-12-09 12:51:07.980029$GNEBP,,,,,,M*13
###2023-12-09 12:51:08.151203$GNGGA,175107.30,4138.0557766,N,07032.3756854,W,1,24,0.6,13.621,M,-29.744,M,0.0,*58
###2023-12-09 12:51:08.350150$GNGGA,175107.50,4138.0557772,N,07032.3757075,W,1,24,0.6,13.632,M,-29.744,M,0.0,*53
###2023-12-09 12:51:08.551628$GNGGA,175107.70,4138.0557843,N,07032.3757376,W,1,24,0.6,13.648,M,-29.744,M,0.0,*51
###2023-12-09 12:51:08.752826$GNGGA,175107.90,4138.0557907,N,07032.3757616,W,1,24,0.6,13.654,M,-29.744,M,0.0,*50
###2023-12-09 12:51:08.958295$GNRMC,175108.10,A,4138.0557922,N,07032.3757701,W,0.04,110.98,091223,,,A*51
###2023-12-09 12:51:08.961195$GNGGA,175108.10,4138.0557922,N,07032.3757701,W,1,24,0.6,13.643,M,-29.744,M,0.0,*51
###2023-12-09 12:51:08.963074$GPGSA,A,3,03,04,16,26,28,29,31,32,,,,,1.1,0.6,0.9*3B
###2023-12-09 12:51:08.964796$GLGSA,A,3,65,71,72,73,74,75,,,,,,,1.1,0.6,0.9*24
###2023-12-09 12:51:08.966380$GAGSA,A,3,04,19,21,27,,,,,,,,,1.1,0.6,0.9*26
###2023-12-09 12:51:08.968045$GBGSA,A,3,14,24,25,26,33,,,,,,,,1.1,0.6,0.9*2F
###2023-12-09 12:51:08.970377$GPGSV,2,1,08,03,37,268,43,04,28,311,43,16,44,210,43,26,74,208,47*79
###2023-12-09 12:51:08.972743$GPGSV,2,2,08,28,53,065,45,29,26,066,41,31,71,024,48,32,23,138,44*71
###2023-12-09 12:51:08.975108$GLGSV,2,1,06,65,19,329,40,71,47,171,46,72,72,288,47,73,40,038,47*6E
###2023-12-09 12:51:08.976874$GLGSV,2,2,06,74,71,321,43,75,28,248,42,,,,,,,,*61
###2023-12-09 12:51:08.979259$GAGSV,1,1,04,04,26,312,43,19,85,258,41,21,83,157,46,27,36,048,43*66
###2023-12-09 12:51:08.981613$GBGSV,2,1,05,14,48,194,44,24,77,014,48,25,37,258,45,26,29,060,44*63
###2023-12-09 12:51:08.983088$GBGSV,2,2,05,33,60,240,47,,,,,,,,,,,,*5D
###2023-12-09 12:51:08.984419$GNVTG,110.98,T,,M,0.04,N,0.07,K,A*21
###2023-12-09 12:51:08.986071$GNGST,175108.10,18.000,,,,0.078,0.067,0.160*5C
###2023-12-09 12:51:08.987381$GNZDA,175108.10,09,12,2023,00,00*7A
###2023-12-09 12:51:08.988026$GNEBP,,,,,,M*13
###2023-12-09 12:51:09.151836$GNGGA,175108.30,4138.0557904,N,07032.3757651,W,1,24,0.6,13.618,M,-29.744,M,0.0,*5D
###2023-12-09 12:51:09.351361$GNGGA,175108.50,4138.0557937,N,07032.3757865,W,1,24,0.6,13.613,M,-29.744,M,0.0,*59
###2023-12-09 12:51:09.550293$GNGGA,175108.70,4138.0558051,N,07032.3758378,W,1,24,0.6,13.636,M,-29.744,M,0.0,*52
###2023-12-09 12:51:09.750370$GNGGA,175108.90,4138.0558124,N,07032.3758678,W,1,24,0.6,13.642,M,-29.744,M,0.0,*59
###2023-12-09 12:51:09.947554$GNRMC,175109.10,A,4138.0558074,N,07032.3758601,W,0.27,110.98,091223,,,A*5A
###2023-12-09 12:51:09.950663$GNGGA,175109.10,4138.0558074,N,07032.3758601,W,1,24,0.6,13.638,M,-29.744,M,0.0,*57
###2023-12-09 12:51:09.952537$GPGSA,A,3,03,04,16,26,28,29,31,32,,,,,1.1,0.6,0.9*3B
###2023-12-09 12:51:09.954246$GLGSA,A,3,65,71,72,73,74,75,,,,,,,1.1,0.6,0.9*24
###2023-12-09 12:51:09.955850$GAGSA,A,3,04,19,21,27,,,,,,,,,1.1,0.6,0.9*26
###2023-12-09 12:51:09.957500$GBGSA,A,3,14,24,25,26,33,,,,,,,,1.1,0.6,0.9*2F
###2023-12-09 12:51:09.959838$GPGSV,2,1,08,03,37,268,44,04,28,311,42,16,44,210,43,26,74,208,47*7F
###2023-12-09 12:51:09.962166$GPGSV,2,2,08,28,53,065,45,29,26,066,42,31,71,024,48,32,23,138,44*72
###2023-12-09 12:51:09.964507$GLGSV,2,1,06,65,19,329,42,71,47,171,45,72,72,288,46,73,40,038,47*6E
###2023-12-09 12:51:09.966259$GLGSV,2,2,06,74,71,321,43,75,28,248,43,,,,,,,,*60
###2023-12-09 12:51:09.968603$GAGSV,1,1,04,04,26,312,42,19,85,258,40,21,83,157,46,27,36,048,43*66
