###2023-12-09 12:32:57.945714$GPGSV,2,1,08,03,39,278,40,04,21,310,41,16,36,207,45,26,65,206,48*7B
###2023-12-09 12:32:57.948339$GPGSV,2,2,08,28,58,055,45,29,25,075,40,31,73,358,47,32,31,134,45*72
###2023-12-09 12:32:57.950974$GLGSV,2,1,05,71,58,169,48,72,65,311,46,73,49,033,46,74,71,287,43*69
###2023-12-09 12:32:57.952656$GLGSV,2,2,05,75,21,240,38,,,,,,,,,,,,*5C
###2023-12-09 12:32:57.955215$GAGSV,1,1,04,04,20,311,38,19,80,306,41,21,76,177,46,27,42,050,41*60
###2023-12-09 12:32:57.957758$GBGSV,2,1,05,14,56,198,44,24,81,339,48,25,32,252,43,26,36,057,45*67
###2023-12-09 12:32:57.959454$GBGSV,2,2,05,33,63,257,48,,,,,,,,,,,,*57
###2023-12-09 12:32:57.960990$GNVTG,316.77,T,,M,0.31,N,0.58,K,A*28
###2023-12-09 12:32:57.962868$GNGST,173257.10,17.000,,,,0.120,0.110,0.240*50
###2023-12-09 12:32:57.964361$GNZDA,173257.10,09,12,2023,00,00*75
###2023-12-09 12:32:57.965182$GNEBP,,,,,,M*13
###2023-12-09 12:32:58.131770$GNGGA,173257.30,4138.0452788,N,07032.4301561,W,1,22,0.7,13.009,M,-29.745,M,0.0,*5C
###2023-12-09 12:32:58.332518$GNGGA,173257.50,4138.0452883,N,07032.4301882,W,1,22,0.7,13.001,M,-29.745,M,0.0,*56
###2023-12-09 12:32:58.532487$GNGGA,173257.70,4138.0452955,N,07032.4302105,W,1,22,0.7,13.017,M,-29.745,M,0.0,*5C
###2023-12-09 12:32:58.729400$GNGGA,173257.90,4138.0452947,N,07032.4302129,W,1,22,0.7,13.024,M,-29.745,M,0.0,*5F
###2023-12-09 12:32:58.933611$GNRMC,173258.10,A,4138.0452897,N,07032.4302143,W,0.12,316.77,091223,,,A*5B
###2023-12-09 12:32:58.936777$GNGGA,173258.10,4138.0452897,N,07032.4302143,W,1,22,0.7,13.015,M,-29.745,M,0.0,*5A
###2023-12-09 12:32:58.938858$GPGSA,A,3,03,04,16,26,28,29,31,32,,,,,1.2,0.7,1.0*31
###2023-12-09 12:32:58.940728$GLGSA,A,3,71,72,73,74,75,,,,,,,,1.2,0.7,1.0*2D
###2023-12-09 12:32:58.942512$GAGSA,A,3,04,19,21,27,,,,,,,,,1.2,0.7,1.0*2C
###2023-12-09 12:32:58.944368$GBGSA,A,3,14,24,25,26,33,,,,,,,,1.2,0.7,1.0*25
###2023-12-09 12:32:58.946911$GPGSV,2,1,08,03,39,278,41,04,21,310,39,16,36,207,44,26,65,206,47*7B
###2023-12-09 12:32:58.949475$GPGSV,2,2,08,28,58,055,45,29,25,075,40,31,73,358,46,32,31,134,45*73
###2023-12-09 12:32:58.952024$GLGSV,2,1,05,71,58,169,48,72,65,311,47,73,49,033,45,74,71,287,43*6B
###2023-12-09 12:32:58.953680$GLGSV,2,2,05,75,21,240,36,,,,,,,,,,,,*52
###2023-12-09 12:32:58.956204$GAGSV,1,1,04,04,20,311,36,19,80,306,39,21,76,177,46,27,42,050,41*61
###2023-12-09 12:32:58.958790$GBGSV,2,1,05,14,56,198,44,24,81,339,49,25,32,252,43,26,36,057,46*65
###2023-12-09 12:32:58.960436$GBGSV,2,2,05,33,63,257,47,,,,,,,,,,,,*58
###2023-12-09 12:32:58.961988$GNVTG,316.77,T,,M,0.12,N,0.22,K,A*24
###2023-12-09 12:32:58.963887$GNGST,173258.10,17.000,,,,0.120,0.110,0.240*5F
###2023-12-09 12:32:58.965390$GNZDA,173258.10,09,12,2023,00,00*7A
###2023-12-09 12:32:58.966224$GNEBP,,,,,,M*13
###2023-12-09 12:32:59.132409$GNGGA,173258.30,4138.0452990,N,07032.4302431,W,1,22,0.7,13.003,M,-29.745,M,0.0,*59
###2023-12-09 12:32:59.331502$GNGGA,173258.50,4138.0453155,N,07032.4302888,W,1,22,0.7,13.006,M,-29.745,M,0.0,*54
###2023-12-09 12:32:59.532329$GNGGA,173258.70,4138.0453193,N,07032.4303086,W,1,22,0.7,13.009,M,-29.745,M,0.0,*54
###2023-12-09 12:32:59.729304$GNGGA,173258.90,4138.0453116,N,07032.4302974,W,1,22,0.7,13.014,M,-29.745,M,0.0,*5E
###2023-12-09 12:32:59.931416$GNRMC,173259.10,A,4138.0453098,N,07032.4303012,W,0.37,316.77,091223,,,A*5F
###2023-12-09 12:32:59.934356$GNGGA,173259.10,4138.0453098,N,07032.4303012,W,1,21,0.7,13.016,M,-29.745,M,0.0,*59
###2023-12-09 12:32:59.936287$GPGSA,A,3,03,04,16,26,28,29,31,32,,,,,1.3,0.7,1.1*31
###2023-12-09 12:32:59.937920$GLGSA,A,3,71,72,73,74,,,,,,,,,1.3,0.7,1.1*2F
###2023-12-09 12:32:59.939569$GAGSA,A,3,04,19,21,27,,,,,,,,,1.3,0.7,1.1*2C
###2023-12-09 12:32:59.941262$GBGSA,A,3,14,24,25,26,33,,,,,,,,1.3,0.7,1.1*25
###2023-12-09 12:32:59.943650$GPGSV,2,1,08,03,39,278,43,04,21,310,39,16,36,207,45,26,65,206,47*78
###2023-12-09 12:32:59.946015$GPGSV,2,2,08,28,58,055,45,29,25,075,43,31,73,358,46,32,31,134,46*73
###2023-12-09 12:32:59.948417$GLGSV,1,1,04,71,58,169,48,72,65,311,46,73,49,033,45,74,71,287,43*68
###2023-12-09 12:32:59.950862$GAGSV,1,1,04,04,20,311,37,19,80,306,41,21,76,177,46,27,42,050,42*6C
###2023-12-09 12:32:59.953239$GBGSV,2,1,05,14,56,198,46,24,81,339,48,25,32,252,43,26,36,057,45*65
###2023-12-09 12:32:59.954807$GBGSV,2,2,05,33,63,257,48,,,,,,,,,,,,*57
###2023-12-09 12:32:59.956183$GNVTG,316.77,T,,M,0.37,N,0.68,K,A*2D
###2023-12-09 12:32:59.957870$GNGST,173259.10,17.000,,,,0.120,0.110,0.240*5E
###2023-12-09 12:32:59.959223$GNZDA,173259.10,09,12,2023,00,00*7B
###2023-12-09 12:32:59.959903$GNEBP,,,,,,M*13
###2023-12-09 12:33:00.131199$GNGGA,173259.30,4138.0453245,N,07032.4303428,W,1,21,0.7,13.024,M,-29.745,M,0.0,*55
###2023-12-09 12:33:00.331500$GNGGA,173259.50,4138.0453378,N,07032.4303871,W,1,22,0.7,13.007,M,-29.745,M,0.0,*5E
###2023-12-09 12:33:00.532452$GNGGA,173259.70,4138.0453344,N,07032.4303904,W,1,22,0.7,13.006,M,-29.745,M,0.0,*51
###2023-12-09 12:33:00.730520$GNGGA,173259.90,4138.0453264,N,07032.4303800,W,1,22,0.7,13.006,M,-29.745,M,0.0,*59
###2023-12-09 12:33:00.935754$GNRMC,173300.10,A,4138.0453331,N,07032.4304055,W,0.70,316.77,091223,,,A*55
###2023-12-09 12:33:00.938678$GNGGA,173300.10,4138.0453331,N,07032.4304055,W,1,22,0.7,13.011,M,-29.745,M,0.0,*54
###2023-12-09 12:33:00.940566$GPGSA,A,3,03,04,16,26,28,29,31,32,,,,,1.2,0.7,1.0*31
###2023-12-09 12:33:00.942247$GLGSA,A,3,71,72,73,74,75,,,,,,,,1.2,0.7,1.0*2D
###2023-12-09 12:33:00.943870$GAGSA,A,3,04,19,21,27,,,,,,,,,1.2,0.7,1.0*2C
###2023-12-09 12:33:00.945535$GBGSA,A,3,14,24,25,26,33,,,,,,,,1.2,0.7,1.0*25
###2023-12-09 12:33:00.948011$GPGSV,2,1,08,03,39,278,43,04,21,310,41,16,36,207,44,26,65,206,47*76
###2023-12-09 12:33:00.950392$GPGSV,2,2,08,28,58,055,45,29,25,075,40,31,73,358,46,32,31,134,47*71
###2023-12-09 12:33:00.952774$GLGSV,2,1,05,71,58,169,48,72,65,311,47,73,49,033,45,74,71,287,43*6B
###2023-12-09 12:33:00.954254$GLGSV,2,2,05,75,21,240,36,,,,,,,,,,,,*52
###2023-12-09 12:33:00.956631$GAGSV,1,1,04,04,20,311,38,19,80,306,41,21,76,177,47,27,42,050,42*62
###2023-12-09 12:33:00.959010$GBGSV,2,1,05,14,56,198,45,24,81,339,48,25,32,252,43,26,36,057,44*67
###2023-12-09 12:33:00.960488$GBGSV,2,2,05,33,63,257,48,,,,,,,,,,,,*57
###2023-12-09 12:33:00.961833$GNVTG,316.77,T,,M,0.70,N,1.30,K,A*22
###2023-12-09 12:33:00.963523$GNGST,173300.10,17.000,,,,0.120,0.110,0.240*53
###2023-12-09 12:33:00.964841$GNZDA,173300.10,09,12,2023,00,00*76
###2023-12-09 12:33:00.965500$GNEBP,,,,,,M*13
###2023-12-09 12:33:01.132620$GNGGA,173300.30,4138.0453467,N,07032.4304572,W,1,22,0.7,13.001,M,-29.745,M,0.0,*53
###2023-12-09 12:33:01.333359$GNGGA,173300.50,4138.0453510,N,07032.4304766,W,1,22,0.7,12.985,M,-29.745,M,0.0,*57
###2023-12-09 12:33:01.532480$GNGGA,173300.70,4138.0453419,N,07032.4304648,W,1,22,0.7,12.978,M,-29.745,M,0.0,*52
###2023-12-09 12:33:01.732656$GNGGA,173300.90,4138.0453420,N,07032.4304748,W,1,22,0.7,12.977,M,-29.745,M,0.0,*58
###2023-12-09 12:33:01.935430$GNRMC,173301.10,A,4138.0453561,N,07032.4305250,W,0.87,316.77,091223,,,A*59
###2023-12-09 12:33:01.938389$GNGGA,173301.10,4138.0453561,N,07032.4305250,W,1,23,0.7,12.985,M,-29.745,M,0.0,*54
###2023-12-09 12:33:01.940317$GPGSA,A,3,03,04,16,26,28,29,31,32,,,,,1.2,0.7,1.0*31
###2023-12-09 12:33:01.942011$GLGSA,A,3,71,72,73,74,75,,,,,,,,1.2,0.7,1.0*2D
###2023-12-09 12:33:01.943655$GAGSA,A,3,04,19,21,27,,,,,,,,,1.2,0.7,1.0*2C
###2023-12-09 12:33:01.945349$GBGSA,A,3,14,24,25,26,33,,,,,,,,1.2,0.7,1.0*25
###2023-12-09 12:33:01.947764$GPGSV,2,1,08,03,39,278,42,04,21,310,42,16,36,207,45,26,65,206,47*75
###2023-12-09 12:33:01.950160$GPGSV,2,2,08,28,58,055,44,29,25,075,43,31,73,358,47,32,31,134,45*70
###2023-12-09 12:33:01.952547$GLGSV,2,1,05,71,58,169,47,72,65,311,47,73,49,033,46,74,71,287,43*67
###2023-12-09 12:33:01.954052$GLGSV,2,2,05,75,21,240,41,,,,,,,,,,,,*52
###2023-12-09 12:33:01.956439$GAGSV,1,1,04,04,20,311,40,19,80,306,40,21,76,177,47,27,42,050,42*6C
###2023-12-09 12:33:01.958834$GBGSV,2,1,05,14,56,198,44,24,81,339,48,25,32,252,43,26,36,057,44*66
###2023-12-09 12:33:01.960335$GBGSV,2,2,05,33,63,257,49,,,,,,,,,,,,*56
###2023-12-09 12:33:01.961698$GNVTG,316.77,T,,M,0.87,N,1.62,K,A*2D
###2023-12-09 12:33:01.963668$GNGST,173301.10,17.000,,,,0.120,0.100,0.240*53
###2023-12-09 12:33:01.965023$GNZDA,173301.10,09,12,2023,00,00*77
###2023-12-09 12:33:01.965710$GNEBP,,,,,,M*13
###2023-12-09 12:33:02.132563$GNGGA,173301.30,4138.0453671,N,07032.4305624,W,1,23,0.7,12.978,M,-29.745,M,0.0,*51
###2023-12-09 12:33:02.333274$GNGGA,173301.50,4138.0453610,N,07032.4305531,W,1,23,0.7,12.967,M,-29.745,M,0.0,*59
###2023-12-09 12:33:02.533914$GNGGA,173301.70,4138.0453536,N,07032.4305435,W,1,23,0.7,12.956,M,-29.745,M,0.0,*5B
###2023-12-09 12:33:02.733170$GNGGA,173301.90,4138.0453641,N,07032.4305783,W,1,23,0.7,12.959,M,-29.745,M,0.0,*57
###2023-12-09 12:33:02.934818$GNRMC,173302.10,A,4138.0453791,N,07032.4306335,W,0.58,316.77,091223,,,A*54
###2023-12-09 12:33:02.938375$GNGGA,173302.10,4138.0453791,N,07032.4306335,W,1,22,0.7,12.958,M,-29.745,M,0.0,*5A
