###2023-12-09 12:41:52.960020$GLGSV,2,1,06,65,15,329,44,71,52,170,47,72,68,302,47,73,44,035,44*60
###2023-12-09 12:41:52.961793$GLGSV,2,2,06,74,71,303,43,75,25,244,46,,,,,,,,*64
###2023-12-09 12:41:52.964140$GAGSV,1,1,04,04,23,311,43,19,83,292,40,21,80,172,46,27,39,049,42*6A
###2023-12-09 12:41:52.966478$GBGSV,2,1,05,14,52,196,44,24,79,359,48,25,34,255,45,26,33,058,44*60
###2023-12-09 12:41:52.967956$GBGSV,2,2,05,33,62,248,48,,,,,,,,,,,,*58
###2023-12-09 12:41:52.969286$GNVTG,311.24,T,,M,0.29,N,0.54,K,A*2C
###2023-12-09 12:41:52.970951$GNGST,174152.10,18.000,,,,0.076,0.069,0.160*52
###2023-12-09 12:41:52.972242$GNZDA,174152.10,09,12,2023,00,00*74
###2023-12-09 12:41:52.972879$GNEBP,,,,,,M*13
###2023-12-09 12:41:53.143074$GNGGA,174152.30,4138.0651043,N,07032.3752405,W,1,24,0.6,13.471,M,-29.744,M,0.0,*57
###2023-12-09 12:41:53.342094$GNGGA,174152.50,4138.0651211,N,07032.3752676,W,1,24,0.6,13.455,M,-29.744,M,0.0,*54
###2023-12-09 12:41:53.545704$GNGGA,174152.70,4138.0651590,N,07032.3753238,W,1,24,0.6,13.447,M,-29.744,M,0.0,*54
###2023-12-09 12:41:53.742558$GNGGA,174152.90,4138.0651864,N,07032.3753623,W,1,24,0.6,13.439,M,-29.744,M,0.0,*5B
###2023-12-09 12:41:53.943979$GNRMC,174153.10,A,4138.0651847,N,07032.3753601,W,0.17,313.42,091223,,,A*58
###2023-12-09 12:41:53.946873$GNGGA,174153.10,4138.0651847,N,07032.3753601,W,1,24,0.6,13.468,M,-29.744,M,0.0,*57
###2023-12-09 12:41:53.948751$GPGSA,A,3,03,04,16,26,28,29,31,32,,,,,1.1,0.6,0.9*3B
###2023-12-09 12:41:53.950469$GLGSA,A,3,65,71,72,73,74,75,,,,,,,1.1,0.6,0.9*24
###2023-12-09 12:41:53.952070$GAGSA,A,3,04,19,21,27,,,,,,,,,1.1,0.6,0.9*26
###2023-12-09 12:41:53.953714$GBGSA,A,3,14,24,25,26,33,,,,,,,,1.1,0.6,0.9*2F
###2023-12-09 12:41:53.956055$GPGSV,2,1,08,03,38,272,45,04,25,311,44,16,40,208,45,26,70,207,49*7F
###2023-12-09 12:41:53.958396$GPGSV,2,2,08,28,55,060,44,29,25,071,39,31,73,010,47,32,28,135,42*73
###2023-12-09 12:41:53.960750$GLGSV,2,1,06,65,15,329,44,71,52,170,47,72,68,302,47,73,44,035,44*60
###2023-12-09 12:41:53.962498$GLGSV,2,2,06,74,71,303,44,75,25,244,46,,,,,,,,*63
###2023-12-09 12:41:53.964836$GAGSV,1,1,04,04,23,311,43,19,83,289,40,21,80,172,46,27,39,049,42*60
###2023-12-09 12:41:53.967175$GBGSV,2,1,05,14,52,196,44,24,79,359,48,25,34,255,44,26,33,058,44*61
###2023-12-09 12:41:53.968633$GBGSV,2,2,05,33,62,248,48,,,,,,,,,,,,*58
###2023-12-09 12:41:53.969953$GNVTG,313.42,T,,M,0.17,N,0.32,K,A*23
###2023-12-09 12:41:53.971623$GNGST,174153.10,18.000,,,,0.076,0.069,0.160*53
###2023-12-09 12:41:53.972913$GNZDA,174153.10,09,12,2023,00,00*75
###2023-12-09 12:41:53.973551$GNEBP,,,,,,M*13
###2023-12-09 12:41:54.142780$GNGGA,174153.30,4138.0651863,N,07032.3753606,W,1,24,0.6,13.479,M,-29.744,M,0.0,*54
###2023-12-09 12:41:54.344244$GNGGA,174153.50,4138.0652109,N,07032.3753968,W,1,24,0.6,13.477,M,-29.744,M,0.0,*5D
###2023-12-09 12:41:54.543562$GNGGA,174153.70,4138.0652469,N,07032.3754485,W,1,24,0.6,13.459,M,-29.744,M,0.0,*59
###2023-12-09 12:41:54.742810$GNGGA,174153.90,4138.0652641,N,07032.3754744,W,1,24,0.6,13.450,M,-29.744,M,0.0,*58
###2023-12-09 12:41:54.943964$GNRMC,174154.10,A,4138.0652643,N,07032.3754740,W,0.06,312.82,091223,,,A*58
###2023-12-09 12:41:54.946849$GNGGA,174154.10,4138.0652643,N,07032.3754740,W,1,24,0.6,13.464,M,-29.744,M,0.0,*56
###2023-12-09 12:41:54.948723$GPGSA,A,3,03,04,16,26,28,29,31,32,,,,,1.1,0.6,0.9*3B
###2023-12-09 12:41:54.950451$GLGSA,A,3,65,71,72,73,74,75,,,,,,,1.1,0.6,0.9*24
###2023-12-09 12:41:54.952071$GAGSA,A,3,04,19,21,27,,,,,,,,,1.1,0.6,0.9*26
###2023-12-09 12:41:54.953720$GBGSA,A,3,14,24,25,26,33,,,,,,,,1.1,0.6,0.9*2F
###2023-12-09 12:41:54.956068$GPGSV,2,1,08,03,38,272,45,04,25,311,44,16,40,208,45,26,70,207,49*7F
###2023-12-09 12:41:54.958400$GPGSV,2,2,08,28,55,060,44,29,25,070,39,31,73,010,47,32,28,135,44*74
###2023-12-09 12:41:54.960747$GLGSV,2,1,06,65,15,329,43,71,52,170,48,72,68,302,47,73,44,035,45*69
###2023-12-09 12:41:54.962499$GLGSV,2,2,06,74,71,303,43,75,25,244,44,,,,,,,,*66
###2023-12-09 12:41:54.964841$GAGSV,1,1,04,04,23,311,43,19,83,289,40,21,80,172,46,27,39,049,42*60
###2023-12-09 12:41:54.967190$GBGSV,2,1,05,14,52,196,45,24,79,359,48,25,34,255,45,26,33,058,45*60
###2023-12-09 12:41:54.968645$GBGSV,2,2,05,33,62,248,48,,,,,,,,,,,,*58
###2023-12-09 12:41:54.969963$GNVTG,312.82,T,,M,0.06,N,0.11,K,A*2F
###2023-12-09 12:41:54.971617$GNGST,174154.10,18.000,,,,0.076,0.069,0.160*54
###2023-12-09 12:41:54.972906$GNZDA,174154.10,09,12,2023,00,00*72
###2023-12-09 12:41:54.973545$GNEBP,,,,,,M*13
###2023-12-09 12:41:55.142748$GNGGA,174154.30,4138.0652751,N,07032.3754863,W,1,24,0.6,13.475,M,-29.744,M,0.0,*58
###2023-12-09 12:41:55.343224$GNGGA,174154.50,4138.0653035,N,07032.3755285,W,1,24,0.6,13.475,M,-29.744,M,0.0,*59
###2023-12-09 12:41:55.547544$GNGGA,174154.70,4138.0653313,N,07032.3755703,W,1,24,0.6,13.461,M,-29.744,M,0.0,*52
###2023-12-09 12:41:55.741545$GNGGA,174154.90,4138.0653409,N,07032.3755808,W,1,24,0.6,13.456,M,-29.744,M,0.0,*50
###2023-12-09 12:41:55.942977$GNRMC,174155.10,A,4138.0653438,N,07032.3755847,W,0.29,312.82,091223,,,A*52
###2023-12-09 12:41:55.945835$GNGGA,174155.10,4138.0653438,N,07032.3755847,W,1,24,0.6,13.455,M,-29.744,M,0.0,*53
###2023-12-09 12:41:55.947721$GPGSA,A,3,03,04,16,26,28,29,31,32,,,,,1.1,0.6,0.9*3B
###2023-12-09 12:41:55.949448$GLGSA,A,3,65,71,72,73,74,75,,,,,,,1.1,0.6,0.9*24
###2023-12-09 12:41:55.951050$GAGSA,A,3,04,19,21,27,,,,,,,,,1.1,0.6,0.9*26
###2023-12-09 12:41:55.952700$GBGSA,A,3,14,24,25,26,33,,,,,,,,1.1,0.6,0.9*2F
###2023-12-09 12:41:55.955041$GPGSV,2,1,08,03,38,272,45,04,25,311,43,16,40,208,46,26,70,207,49*7B
###2023-12-09 12:41:55.957368$GPGSV,2,2,08,28,55,060,44,29,25,070,40,31,73,010,47,32,28,135,44*7A
###2023-12-09 12:41:55.959708$GLGSV,2,1,06,65,15,329,42,71,52,170,48,72,68,302,46,73,44,035,45*69
###2023-12-09 12:41:55.961457$GLGSV,2,2,06,74,71,303,43,75,25,244,45,,,,,,,,*67
###2023-12-09 12:41:55.963790$GAGSV,1,1,04,04,23,311,42,19,83,289,41,21,80,172,46,27,39,049,42*60
###2023-12-09 12:41:55.966106$GBGSV,2,1,05,14,52,196,45,24,79,359,48,25,34,255,44,26,33,058,45*61
###2023-12-09 12:41:55.967568$GBGSV,2,2,05,33,62,248,48,,,,,,,,,,,,*58
###2023-12-09 12:41:55.968888$GNVTG,312.82,T,,M,0.29,N,0.54,K,A*23
###2023-12-09 12:41:55.970531$GNGST,174155.10,18.000,,,,0.076,0.069,0.160*55
###2023-12-09 12:41:55.971835$GNZDA,174155.10,09,12,2023,00,00*73
###2023-12-09 12:41:55.972471$GNEBP,,,,,,M*13
###2023-12-09 12:41:56.141931$GNGGA,174155.30,4138.0653627,N,07032.3756134,W,1,24,0.6,13.460,M,-29.744,M,0.0,*55
###2023-12-09 12:41:56.342239$GNGGA,174155.50,4138.0653935,N,07032.3756591,W,1,24,0.6,13.453,M,-29.744,M,0.0,*54
###2023-12-09 12:41:56.544932$GNGGA,174155.70,4138.0654094,N,07032.3756837,W,1,24,0.6,13.450,M,-29.744,M,0.0,*51
###2023-12-09 12:41:56.742546$GNGGA,174155.90,4138.0654131,N,07032.3756887,W,1,24,0.6,13.457,M,-29.744,M,0.0,*5D
###2023-12-09 12:41:56.952864$GNRMC,174156.10,A,4138.0654272,N,07032.3757088,W,0.62,312.82,091223,,,A*58
###2023-12-09 12:41:56.955759$GNGGA,174156.10,4138.0654272,N,07032.3757088,W,1,24,0.6,13.459,M,-29.744,M,0.0,*5A
###2023-12-09 12:41:56.957620$GPGSA,A,3,03,04,16,26,28,29,31,32,,,,,1.1,0.6,0.9*3B
###2023-12-09 12:41:56.959354$GLGSA,A,3,65,71,72,73,74,75,,,,,,,1.1,0.6,0.9*24
###2023-12-09 12:41:56.960934$GAGSA,A,3,04,19,21,27,,,,,,,,,1.1,0.6,0.9*26
###2023-12-09 12:41:56.962603$GBGSA,A,3,14,24,25,26,33,,,,,,,,1.1,0.6,0.9*2F
###2023-12-09 12:41:56.964935$GPGSV,2,1,08,03,38,272,43,04,25,311,42,16,40,208,46,26,70,207,48*7D
###2023-12-09 12:41:56.967277$GPGSV,2,2,08,28,55,060,44,29,25,070,39,31,72,013,47,32,28,135,44*76
###2023-12-09 12:41:56.969610$GLGSV,2,1,06,65,15,329,41,71,52,170,48,72,68,302,47,73,44,035,44*6A
###2023-12-09 12:41:56.971366$GLGSV,2,2,06,74,71,303,43,75,25,244,45,,,,,,,,*67
###2023-12-09 12:41:56.973690$GAGSV,1,1,04,04,23,311,41,19,83,289,40,21,80,172,45,27,39,049,41*62
###2023-12-09 12:41:56.976033$GBGSV,2,1,05,14,52,196,45,24,79,359,48,25,34,255,44,26,33,058,45*61
###2023-12-09 12:41:56.977486$GBGSV,2,2,05,33,62,248,47,,,,,,,,,,,,*57
###2023-12-09 12:41:56.978822$GNVTG,312.82,T,,M,0.62,N,1.15,K,A*28
###2023-12-09 12:41:56.980475$GNGST,174156.10,18.000,,,,0.076,0.069,0.160*56
###2023-12-09 12:41:56.982013$GNZDA,174156.10,09,12,2023,00,00*70
###2023-12-09 12:41:56.982681$GNEBP,,,,,,M*13
###2023-12-09 12:41:57.142197$GNGGA,174156.30,4138.0654545,N,07032.3757495,W,1,24,0.6,13.453,M,-29.744,M,0.0,*59
###2023-12-09 12:41:57.342937$GNGGA,174156.50,4138.0654783,N,07032.3757849,W,1,24,0.6,13.442,M,-29.744,M,0.0,*5A
###2023-12-09 12:41:57.543391$GNGGA,174156.70,4138.0654882,N,07032.3757973,W,1,24,0.6,13.441,M,-29.744,M,0.0,*5D
###2023-12-09 12:41:57.741489$GNGGA,174156.90,4138.0654959,N,07032.3758093,W,1,24,0.6,13.443,M,-29.744,M,0.0,*5E
###2023-12-09 12:41:57.942935$GNRMC,174157.10,A,4138.0655172,N,07032.3758420,W,0.80,312.82,091223,,,A*5E
###2023-12-09 12:41:57.945781$GNGGA,174157.10,4138.0655172,N,07032.3758420,W,1,24,0.6,13.446,M,-29.744,M,0.0,*5E
###2023-12-09 12:41:57.947682$GPGSA,A,3,03,04,16,26,28,29,31,32,,,,,1.1,0.6,0.9*3B
