###2023-12-09 12:48:46.976835$GNGST,174846.10,18.000,,,,0.077,0.068,0.160*5E
###2023-12-09 12:48:46.978147$GNZDA,174846.10,09,12,2023,00,00*78
###2023-12-09 12:48:46.978820$GNEBP,,,,,,M*13
###2023-12-09 12:48:47.148663$GNGGA,174846.30,4138.0586521,N,07032.3912245,W,1,24,0.6,13.498,M,-29.744,M,0.0,*5C
###2023-12-09 12:48:47.350067$GNGGA,174846.50,4138.0586815,N,07032.3912018,W,1,24,0.6,13.499,M,-29.744,M,0.0,*5B
###2023-12-09 12:48:47.547887$GNGGA,174846.70,4138.0587282,N,07032.3911808,W,1,24,0.6,13.491,M,-29.744,M,0.0,*5E
###2023-12-09 12:48:47.748567$GNGGA,174846.90,4138.0587494,N,07032.3911546,W,1,24,0.6,13.497,M,-29.744,M,0.0,*50
###2023-12-09 12:48:47.947752$GNRMC,174847.10,A,4138.0587442,N,07032.3911286,W,0.33,25.48,091223,,,A*6C
###2023-12-09 12:48:47.950628$GNGGA,174847.10,4138.0587442,N,07032.3911286,W,1,24,0.6,13.510,M,-29.744,M,0.0,*57
###2023-12-09 12:48:47.952489$GPGSA,A,3,03,04,16,26,28,29,31,32,,,,,1.1,0.6,0.9*3B
###2023-12-09 12:48:47.954204$GLGSA,A,3,65,71,72,73,74,75,,,,,,,1.1,0.6,0.9*24
###2023-12-09 12:48:47.955806$GAGSA,A,3,04,19,21,27,,,,,,,,,1.1,0.6,0.9*26
###2023-12-09 12:48:47.957455$GBGSA,A,3,14,24,25,26,33,,,,,,,,1.1,0.6,0.9*2F
###2023-12-09 12:48:47.959800$GPGSV,2,1,08,03,37,269,45,04,27,311,40,16,43,209,46,26,73,208,48*70
###2023-12-09 12:48:47.962136$GPGSV,2,2,08,28,53,064,45,29,26,067,41,31,71,021,47,32,24,137,41*76
###2023-12-09 12:48:47.964477$GLGSV,2,1,06,65,17,329,42,71,49,171,46,72,70,294,47,73,42,037,46*6F
###2023-12-09 12:48:47.966225$GLGSV,2,2,06,74,71,314,43,75,27,246,43,,,,,,,,*67
###2023-12-09 12:48:47.968565$GAGSV,1,1,04,04,25,312,39,19,85,269,40,21,83,162,46,27,37,048,44*6B
###2023-12-09 12:48:47.970909$GBGSV,2,1,05,14,49,195,47,24,77,011,49,25,37,257,47,26,30,060,43*66
###2023-12-09 12:48:47.972368$GBGSV,2,2,05,33,61,243,48,,,,,,,,,,,,*50
###2023-12-09 12:48:47.973661$GNVTG,25.48,T,,M,0.33,N,0.61,K,A*1F
###2023-12-09 12:48:47.975327$GNGST,174847.10,18.000,,,,0.077,0.068,0.160*5F
###2023-12-09 12:48:47.976618$GNZDA,174847.10,09,12,2023,00,00*79
###2023-12-09 12:48:47.977255$GNEBP,,,,,,M*13
###2023-12-09 12:48:48.148395$GNGGA,174847.30,4138.0587502,N,07032.3911095,W,1,24,0.6,13.508,M,-29.744,M,0.0,*59
###2023-12-09 12:48:48.349932$GNGGA,174847.50,4138.0587870,N,07032.3910908,W,1,24,0.6,13.507,M,-29.744,M,0.0,*54
###2023-12-09 12:48:48.547756$GNGGA,174847.70,4138.0588281,N,07032.3910655,W,1,24,0.6,13.499,M,-29.744,M,0.0,*5C
###2023-12-09 12:48:48.748809$GNGGA,174847.90,4138.0588396,N,07032.3910425,W,1,24,0.6,13.509,M,-29.744,M,0.0,*58
###2023-12-09 12:48:48.947625$GNRMC,174848.10,A,4138.0588335,N,07032.3910263,W,0.23,25.48,091223,,,A*60
###2023-12-09 12:48:48.950506$GNGGA,174848.10,4138.0588335,N,07032.3910263,W,1,24,0.6,13.520,M,-29.744,M,0.0,*59
###2023-12-09 12:48:48.952388$GPGSA,A,3,03,04,16,26,28,29,31,32,,,,,1.1,0.6,0.9*3B
###2023-12-09 12:48:48.954108$GLGSA,A,3,65,71,72,73,74,75,,,,,,,1.1,0.6,0.9*24
###2023-12-09 12:48:48.955717$GAGSA,A,3,04,19,21,27,,,,,,,,,1.1,0.6,0.9*26
###2023-12-09 12:48:48.957367$GBGSA,A,3,14,24,25,26,33,,,,,,,,1.1,0.6,0.9*2F
###2023-12-09 12:48:48.959707$GPGSV,2,1,08,03,37,269,45,04,27,311,40,16,43,209,46,26,73,208,48*70
###2023-12-09 12:48:48.962045$GPGSV,2,2,08,28,53,064,45,29,26,067,41,31,71,021,47,32,24,137,42*75
###2023-12-09 12:48:48.964399$GLGSV,2,1,06,65,17,329,41,71,49,171,46,72,70,294,47,73,42,037,46*6C
###2023-12-09 12:48:48.966140$GLGSV,2,2,06,74,71,314,43,75,27,246,43,,,,,,,,*67
###2023-12-09 12:48:48.968486$GAGSV,1,1,04,04,25,312,41,19,85,269,40,21,83,162,46,27,37,048,44*64
###2023-12-09 12:48:48.970823$GBGSV,2,1,05,14,49,195,46,24,77,011,49,25,37,257,45,26,30,060,43*65
###2023-12-09 12:48:48.972280$GBGSV,2,2,05,33,61,241,48,,,,,,,,,,,,*52
###2023-12-09 12:48:48.973572$GNVTG,25.48,T,,M,0.23,N,0.43,K,A*1E
###2023-12-09 12:48:48.975262$GNGST,174848.10,18.000,,,,0.077,0.068,0.160*50
###2023-12-09 12:48:48.976557$GNZDA,174848.10,09,12,2023,00,00*76
###2023-12-09 12:48:48.977196$GNEBP,,,,,,M*13
###2023-12-09 12:48:49.148099$GNGGA,174848.30,4138.0588521,N,07032.3910075,W,1,24,0.6,13.524,M,-29.744,M,0.0,*59
###2023-12-09 12:48:49.348833$GNGGA,174848.50,4138.0588920,N,07032.3909855,W,1,24,0.6,13.512,M,-29.744,M,0.0,*55
###2023-12-09 12:48:49.548843$GNGGA,174848.70,4138.0589208,N,07032.3909696,W,1,24,0.6,13.504,M,-29.744,M,0.0,*51
###2023-12-09 12:48:49.747730$GNGGA,174848.90,4138.0589229,N,07032.3909532,W,1,24,0.6,13.511,M,-29.744,M,0.0,*55
###2023-12-09 12:48:49.948520$GNRMC,174849.10,A,4138.0589287,N,07032.3909338,W,0.41,25.48,091223,,,A*6B
###2023-12-09 12:48:49.951389$GNGGA,174849.10,4138.0589287,N,07032.3909338,W,1,24,0.6,13.522,M,-29.744,M,0.0,*54
###2023-12-09 12:48:49.953239$GPGSA,A,3,03,04,16,26,28,29,31,32,,,,,1.1,0.6,0.9*3B
###2023-12-09 12:48:49.954961$GLGSA,A,3,65,71,72,73,74,75,,,,,,,1.1,0.6,0.9*24
###2023-12-09 12:48:49.956538$GAGSA,A,3,04,19,21,27,,,,,,,,,1.1,0.6,0.9*26
###2023-12-09 12:48:49.958173$GBGSA,A,3,14,24,25,26,33,,,,,,,,1.1,0.6,0.9*2F
###2023-12-09 12:48:49.960496$GPGSV,2,1,08,03,37,269,46,04,27,311,39,16,43,209,48,26,73,208,48*73
###2023-12-09 12:48:49.962825$GPGSV,2,2,08,28,53,064,45,29,26,067,41,31,71,021,47,32,24,137,41*76
###2023-12-09 12:48:49.965144$GLGSV,2,1,06,65,17,329,41,71,49,171,48,72,70,294,47,73,42,037,46*62
###2023-12-09 12:48:49.966900$GLGSV,2,2,06,74,71,314,43,75,27,246,44,,,,,,,,*60
###2023-12-09 12:48:49.969214$GAGSV,1,1,04,04,25,312,40,19,85,269,41,21,83,162,46,27,37,048,45*65
###2023-12-09 12:48:49.971546$GBGSV,2,1,05,14,49,195,46,24,77,011,48,25,37,257,46,26,30,060,43*67
###2023-12-09 12:48:49.972995$GBGSV,2,2,05,33,61,241,48,,,,,,,,,,,,*52
###2023-12-09 12:48:49.974276$GNVTG,25.48,T,,M,0.41,N,0.76,K,A*1C
###2023-12-09 12:48:49.975925$GNGST,174849.10,18.000,,,,0.077,0.068,0.160*51
###2023-12-09 12:48:49.977213$GNZDA,174849.10,09,12,2023,00,00*77
###2023-12-09 12:48:49.977850$GNEBP,,,,,,M*13
###2023-12-09 12:48:50.147405$GNGGA,174849.30,4138.0589580,N,07032.3909152,W,1,24,0.6,13.523,M,-29.744,M,0.0,*59
###2023-12-09 12:48:50.347783$GNGGA,174849.50,4138.0589918,N,07032.3908983,W,1,24,0.6,13.514,M,-29.744,M,0.0,*53
###2023-12-09 12:48:50.549101$GNGGA,174849.70,4138.0590072,N,07032.3908816,W,1,24,0.6,13.512,M,-29.744,M,0.0,*57
###2023-12-09 12:48:50.748694$GNGGA,174849.90,4138.0590126,N,07032.3908631,W,1,24,0.6,13.517,M,-29.744,M,0.0,*57
###2023-12-09 12:48:50.948626$GNRMC,174850.10,A,4138.0590250,N,07032.3908430,W,0.47,25.48,091223,,,A*69
###2023-12-09 12:48:50.951508$GNGGA,174850.10,4138.0590250,N,07032.3908430,W,1,24,0.6,13.519,M,-29.744,M,0.0,*58
###2023-12-09 12:48:50.953364$GPGSA,A,3,03,04,16,26,28,29,31,32,,,,,1.1,0.6,0.9*3B
###2023-12-09 12:48:50.955101$GLGSA,A,3,65,71,72,73,74,75,,,,,,,1.1,0.6,0.9*24
###2023-12-09 12:48:50.956689$GAGSA,A,3,04,19,21,27,,,,,,,,,1.1,0.6,0.9*26
###2023-12-09 12:48:50.958333$GBGSA,A,3,14,24,25,26,33,,,,,,,,1.1,0.6,0.9*2F
###2023-12-09 12:48:50.960683$GPGSV,2,1,08,03,37,269,46,04,27,311,40,16,43,209,47,26,73,208,47*7D
###2023-12-09 12:48:50.963033$GPGSV,2,2,08,28,53,064,44,29,26,067,39,31,71,021,47,32,24,137,42*7B
###2023-12-09 12:48:50.965373$GLGSV,2,1,06,65,18,329,42,71,49,171,48,72,70,294,48,73,42,037,45*62
###2023-12-09 12:48:50.967136$GLGSV,2,2,06,74,71,314,43,75,27,246,46,,,,,,,,*62
###2023-12-09 12:48:50.969469$GAGSV,1,1,04,04,25,312,40,19,85,269,41,21,83,162,46,27,37,048,44*64
###2023-12-09 12:48:50.971805$GBGSV,2,1,05,14,49,195,49,24,77,011,50,25,37,257,47,26,30,060,45*66
###2023-12-09 12:48:50.973265$GBGSV,2,2,05,33,61,241,50,,,,,,,,,,,,*5B
###2023-12-09 12:48:50.974554$GNVTG,25.48,T,,M,0.47,N,0.86,K,A*15
###2023-12-09 12:48:50.976213$GNGST,174850.10,18.000,,,,0.077,0.068,0.160*59
###2023-12-09 12:48:50.977503$GNZDA,174850.10,09,12,2023,00,00*7F
###2023-12-09 12:48:50.978141$GNEBP,,,,,,M*13
###2023-12-09 12:48:51.148266$GNGGA,174850.30,4138.0590531,N,07032.3908257,W,1,24,0.6,13.514,M,-29.744,M,0.0,*50
###2023-12-09 12:48:51.348837$GNGGA,174850.50,4138.0590856,N,07032.3908133,W,1,24,0.6,13.511,M,-29.744,M,0.0,*5E
###2023-12-09 12:48:51.548822$GNGGA,174850.70,4138.0590977,N,07032.3907964,W,1,24,0.6,13.510,M,-29.744,M,0.0,*5A
###2023-12-09 12:48:51.749550$GNGGA,174850.90,4138.0591032,N,07032.3907755,W,1,24,0.6,13.508,M,-29.744,M,0.0,*58
###2023-12-09 12:48:51.949176$GNRMC,174851.10,A,4138.0591231,N,07032.3907589,W,0.54,25.48,091223,,,A*60
###2023-12-09 12:48:51.952071$GNGGA,174851.10,4138.0591231,N,07032.3907589,W,1,24,0.6,13.502,M,-29.744,M,0.0,*59
###2023-12-09 12:48:51.953942$GPGSA,A,3,03,04,16,26,28,29,31,32,,,,,1.1,0.6,0.9*3B
###2023-12-09 12:48:51.955682$GLGSA,A,3,65,71,72,73,74,75,,,,,,,1.1,0.6,0.9*24
###2023-12-09 12:48:51.957271$GAGSA,A,3,04,19,21,27,,,,,,,,,1.1,0.6,0.9*26
###2023-12-09 12:48:51.958936$GBGSA,A,3,14,24,25,26,33,,,,,,,,1.1,0.6,0.9*2F
###2023-12-09 12:48:51.961269$GPGSV,2,1,08,03,37,269,45,04,27,311,41,16,43,209,46,26,73,208,48*71
###2023-12-09 12:48:51.963623$GPGSV,2,2,08,28,53,064,45,29,26,067,41,31,71,021,48,32,24,137,42*7A
###2023-12-09 12:48:51.965961$GLGSV,2,1,06,65,18,329,40,71,49,171,48,72,70,294,47,73,42,037,45*6F
