###2023-12-09 13:39:11.025467$GAGSV,1,1,04,04,41,309,43,19,70,181,41,21,75,045,45,27,21,050,42*66
###2023-12-09 13:39:11.027853$GBGSV,2,1,06,12,17,125,38,14,27,189,40,24,61,048,47,25,52,278,47*62
###2023-12-09 13:39:11.029623$GBGSV,2,2,06,33,44,215,48,35,16,055,45,,,,,,,,*67
###2023-12-09 13:39:11.030939$GNVTG,95.02,T,,M,2.10,N,3.89,K,A*1C
###2023-12-09 13:39:11.032566$GNGST,183910.10,6.000,,,,0.088,0.068,0.150*68
###2023-12-09 13:39:11.033861$GNZDA,183910.10,09,12,2023,00,00*72
###2023-12-09 13:39:11.034503$GNEBP,,,,,,M*13
###2023-12-09 13:39:11.203030$GNGGA,183910.30,4138.0710663,N,07032.3832471,W,1,26,0.6,13.322,M,-29.744,M,0.0,*58
###2023-12-09 13:39:11.403077$GNGGA,183910.50,4138.0710135,N,07032.3830990,W,1,26,0.6,13.316,M,-29.744,M,0.0,*5D
###2023-12-09 13:39:11.601566$GNGGA,183910.70,4138.0709562,N,07032.3829650,W,1,26,0.6,13.331,M,-29.744,M,0.0,*5F
###2023-12-09 13:39:11.799780$GNGGA,183910.90,4138.0709122,N,07032.3828125,W,1,26,0.6,13.337,M,-29.744,M,0.0,*53
###2023-12-09 13:39:12.002938$GNRMC,183911.10,A,4138.0708428,N,07032.3826668,W,2.25,126.91,091223,,,A*5D
###2023-12-09 13:39:12.005813$GNGGA,183911.10,4138.0708428,N,07032.3826668,W,1,26,0.6,13.325,M,-29.744,M,0.0,*57
###2023-12-09 13:39:12.007689$GPGSA,A,3,03,04,16,26,27,28,29,31,,,,,1.0,0.6,0.8*3F
###2023-12-09 13:39:12.009469$GLGSA,A,3,65,71,72,73,74,75,83,,,,,,1.0,0.6,0.8*2F
###2023-12-09 13:39:12.011063$GAGSA,A,3,04,19,21,27,,,,,,,,,1.0,0.6,0.8*26
###2023-12-09 13:39:12.012783$GBGSA,A,3,12,14,24,25,33,35,,,,,,,1.0,0.6,0.8*2E
###2023-12-09 13:39:12.015127$GPGSV,2,1,08,03,25,244,42,04,48,306,42,16,68,224,45,26,82,040,47*7C
###2023-12-09 13:39:12.017477$GPGSV,2,2,08,27,18,172,37,28,37,086,44,29,20,046,43,31,58,068,46*72
###2023-12-09 13:39:12.019823$GLGSV,2,1,07,65,40,316,44,71,20,176,39,72,60,217,45,73,20,054,45*6C
###2023-12-09 13:39:12.021872$GLGSV,2,2,07,74,58,018,43,75,45,275,46,83,16,045,35,,,,*58
###2023-12-09 13:39:12.024229$GAGSV,1,1,04,04,41,309,44,19,70,181,40,21,75,045,45,27,21,050,42*60
###2023-12-09 13:39:12.026571$GBGSV,2,1,06,12,17,125,40,14,27,189,41,24,61,048,48,25,52,278,48*6C
###2023-12-09 13:39:12.028316$GBGSV,2,2,06,33,44,215,46,35,16,055,44,,,,,,,,*68
###2023-12-09 13:39:12.029637$GNVTG,126.91,T,,M,2.25,N,4.18,K,A*26
###2023-12-09 13:39:12.031257$GNGST,183911.10,6.000,,,,0.089,0.068,0.150*68
###2023-12-09 13:39:12.032550$GNZDA,183911.10,09,12,2023,00,00*73
###2023-12-09 13:39:12.033186$GNEBP,,,,,,M*13
###2023-12-09 13:39:12.202010$GNGGA,183911.30,4138.0707739,N,07032.3825380,W,1,26,0.6,13.329,M,-29.744,M,0.0,*55
###2023-12-09 13:39:12.399525$GNGGA,183911.50,4138.0706905,N,07032.3824205,W,1,26,0.6,13.345,M,-29.744,M,0.0,*54
###2023-12-09 13:39:12.599200$GNGGA,183911.70,4138.0705914,N,07032.3823044,W,1,26,0.6,13.334,M,-29.744,M,0.0,*53
###2023-12-09 13:39:12.801759$GNGGA,183911.90,4138.0705024,N,07032.3822029,W,1,26,0.6,13.331,M,-29.744,M,0.0,*58
###2023-12-09 13:39:13.004619$GNRMC,183912.10,A,4138.0704006,N,07032.3821086,W,2.43,148.58,091223,,,A*56
###2023-12-09 13:39:13.007515$GNGGA,183912.10,4138.0704006,N,07032.3821086,W,1,26,0.6,13.347,M,-29.744,M,0.0,*55
###2023-12-09 13:39:13.009368$GPGSA,A,3,03,04,16,26,27,28,29,31,,,,,1.0,0.6,0.8*3F
###2023-12-09 13:39:13.011154$GLGSA,A,3,65,71,72,73,74,75,83,,,,,,1.0,0.6,0.8*2F
###2023-12-09 13:39:13.012730$GAGSA,A,3,04,19,21,27,,,,,,,,,1.0,0.6,0.8*26
###2023-12-09 13:39:13.014431$GBGSA,A,3,12,14,24,25,33,35,,,,,,,1.0,0.6,0.8*2E
###2023-12-09 13:39:13.016765$GPGSV,2,1,08,03,25,244,42,04,48,306,44,16,68,224,45,26,82,040,47*7A
###2023-12-09 13:39:13.019098$GPGSV,2,2,08,27,18,172,37,28,37,086,42,29,20,046,43,31,58,068,46*74
###2023-12-09 13:39:13.021406$GLGSV,2,1,07,65,40,316,44,71,20,176,39,72,60,217,44,73,20,054,44*6C
###2023-12-09 13:39:13.023452$GLGSV,2,2,07,74,58,018,44,75,45,275,48,83,16,045,35,,,,*51
###2023-12-09 13:39:13.025771$GAGSV,1,1,04,04,41,309,43,19,70,181,38,21,75,045,46,27,21,050,42*6B
###2023-12-09 13:39:13.028109$GBGSV,2,1,06,12,17,125,40,14,27,189,38,24,61,048,47,25,52,278,49*6C
###2023-12-09 13:39:13.029852$GBGSV,2,2,06,33,44,215,45,35,16,055,44,,,,,,,,*6B
###2023-12-09 13:39:13.031185$GNVTG,148.58,T,,M,2.43,N,4.50,K,A*27
###2023-12-09 13:39:13.032798$GNGST,183912.10,6.300,,,,0.089,0.068,0.150*68
###2023-12-09 13:39:13.034087$GNZDA,183912.10,09,12,2023,00,00*70
###2023-12-09 13:39:13.034736$GNEBP,,,,,,M*13
###2023-12-09 13:39:13.201618$GNGGA,183912.30,4138.0702834,N,07032.3820222,W,1,26,0.6,13.329,M,-29.744,M,0.0,*5D
###2023-12-09 13:39:13.399888$GNGGA,183912.50,4138.0701757,N,07032.3819695,W,1,26,0.6,13.328,M,-29.744,M,0.0,*51
###2023-12-09 13:39:13.599170$GNGGA,183912.70,4138.0700572,N,07032.3819375,W,1,25,0.6,13.359,M,-29.744,M,0.0,*59
###2023-12-09 13:39:13.800369$GNGGA,183912.90,4138.0699312,N,07032.3819020,W,1,25,0.6,13.356,M,-29.744,M,0.0,*5A
###2023-12-09 13:39:14.002897$GNRMC,183913.10,A,4138.0698078,N,07032.3818694,W,2.18,170.20,091223,,,A*5F
###2023-12-09 13:39:14.005834$GNGGA,183913.10,4138.0698078,N,07032.3818694,W,1,25,0.6,13.324,M,-29.744,M,0.0,*50
###2023-12-09 13:39:14.007714$GPGSA,A,3,03,04,16,26,27,28,29,31,,,,,1.0,0.6,0.8*3F
###2023-12-09 13:39:14.009432$GLGSA,A,3,65,71,72,73,74,75,,,,,,,1.0,0.6,0.8*24
###2023-12-09 13:39:14.011028$GAGSA,A,3,04,19,21,27,,,,,,,,,1.0,0.6,0.8*26
###2023-12-09 13:39:14.012739$GBGSA,A,3,12,14,24,25,33,35,,,,,,,1.0,0.6,0.8*2E
###2023-12-09 13:39:14.015079$GPGSV,2,1,08,03,25,244,39,04,48,306,45,16,68,224,44,26,82,040,47*76
###2023-12-09 13:39:14.017407$GPGSV,2,2,08,27,18,172,39,28,37,086,43,29,20,046,43,31,58,068,46*7B
###2023-12-09 13:39:14.019749$GLGSV,2,1,06,65,40,316,43,71,20,176,40,72,60,217,45,73,20,054,42*63
###2023-12-09 13:39:14.021500$GLGSV,2,2,06,74,58,018,42,75,45,275,47,,,,,,,,*62
###2023-12-09 13:39:14.023834$GAGSV,1,1,04,04,41,309,44,19,70,181,40,21,75,045,46,27,21,050,40*61
###2023-12-09 13:39:14.026155$GBGSV,2,1,06,12,17,125,43,14,27,189,40,24,61,048,49,25,52,278,47*60
###2023-12-09 13:39:14.027903$GBGSV,2,2,06,33,44,215,45,35,16,055,44,,,,,,,,*6B
###2023-12-09 13:39:14.029224$GNVTG,170.20,T,,M,2.18,N,4.03,K,A*2B
###2023-12-09 13:39:14.030849$GNGST,183913.10,5.800,,,,0.090,0.068,0.150*69
###2023-12-09 13:39:14.032138$GNZDA,183913.10,09,12,2023,00,00*71
###2023-12-09 13:39:14.032777$GNEBP,,,,,,M*13
###2023-12-09 13:39:14.199445$GNGGA,183913.30,4138.0696885,N,07032.3818621,W,1,26,0.6,13.343,M,-29.744,M,0.0,*5A
###2023-12-09 13:39:14.399456$GNGGA,183913.50,4138.0695660,N,07032.3818969,W,1,26,0.6,13.364,M,-29.744,M,0.0,*5C
###2023-12-09 13:39:14.599573$GNGGA,183913.70,4138.0694334,N,07032.3819170,W,1,26,0.6,13.325,M,-29.744,M,0.0,*5F
###2023-12-09 13:39:14.800555$GNGGA,183913.90,4138.0693239,N,07032.3819574,W,1,26,0.6,13.332,M,-29.744,M,0.0,*5C
###2023-12-09 13:39:15.006492$GNRMC,183914.10,A,4138.0692243,N,07032.3820468,W,2.27,214.08,091223,,,A*55
###2023-12-09 13:39:15.009387$GNGGA,183914.10,4138.0692243,N,07032.3820468,W,1,26,0.6,13.398,M,-29.744,M,0.0,*59
###2023-12-09 13:39:15.011262$GPGSA,A,3,03,04,16,26,27,28,29,31,,,,,1.0,0.6,0.8*3F
###2023-12-09 13:39:15.013038$GLGSA,A,3,65,71,72,73,74,75,83,,,,,,1.0,0.6,0.8*2F
###2023-12-09 13:39:15.014638$GAGSA,A,3,04,19,21,27,,,,,,,,,1.0,0.6,0.8*26
###2023-12-09 13:39:15.016353$GBGSA,A,3,12,14,24,25,33,35,,,,,,,1.0,0.6,0.8*2E
###2023-12-09 13:39:15.018696$GPGSV,2,1,08,03,25,244,39,04,48,306,45,16,68,224,44,26,82,040,47*76
###2023-12-09 13:39:15.021032$GPGSV,2,2,08,27,18,172,38,28,37,086,43,29,20,046,42,31,58,068,46*7B
###2023-12-09 13:39:15.023379$GLGSV,2,1,07,65,40,316,44,71,20,176,39,72,60,217,44,73,20,054,44*6C
###2023-12-09 13:39:15.025426$GLGSV,2,2,07,74,58,018,42,75,45,275,46,83,16,045,36,,,,*5A
###2023-12-09 13:39:15.027767$GAGSV,1,1,04,04,41,309,45,19,70,181,40,21,75,045,46,27,21,050,41*61
###2023-12-09 13:39:15.030098$GBGSV,2,1,06,12,17,125,42,14,27,189,40,24,61,048,48,25,52,278,47*60
###2023-12-09 13:39:15.031855$GBGSV,2,2,06,33,44,215,44,35,16,055,44,,,,,,,,*6A
###2023-12-09 13:39:15.033177$GNVTG,214.08,T,,M,2.27,N,4.21,K,A*2C
###2023-12-09 13:39:15.034829$GNGST,183914.10,5.900,,,,0.091,0.069,0.160*6C
###2023-12-09 13:39:15.036123$GNZDA,183914.10,09,12,2023,00,00*76
###2023-12-09 13:39:15.036760$GNEBP,,,,,,M*13
###2023-12-09 13:39:15.205716$GNGGA,183914.30,4138.0691109,N,07032.3821207,W,1,26,0.6,13.378,M,-29.744,M,0.0,*55
###2023-12-09 13:39:15.401044$GNGGA,183914.50,4138.0689986,N,07032.3821868,W,1,26,0.6,13.299,M,-29.744,M,0.0,*58
###2023-12-09 13:39:15.600805$GNGGA,183914.70,4138.0689011,N,07032.3822836,W,1,26,0.6,13.331,M,-29.744,M,0.0,*56
###2023-12-09 13:39:15.802389$GNGGA,183914.90,4138.0688149,N,07032.3824216,W,1,26,0.6,13.399,M,-29.744,M,0.0,*59
###2023-12-09 13:39:16.003457$GNRMC,183915.10,A,4138.0687221,N,07032.3825410,W,2.22,215.47,091223,,,A*51
###2023-12-09 13:39:16.006936$GNGGA,183915.10,4138.0687221,N,07032.3825410,W,1,26,0.6,13.403,M,-29.744,M,0.0,*57
###2023-12-09 13:39:16.009174$GPGSA,A,3,03,04,16,26,27,28,29,31,,,,,1.0,0.6,0.8*3F
###2023-12-09 13:39:16.011332$GLGSA,A,3,65,71,72,73,74,75,83,,,,,,1.0,0.6,0.8*2F
###2023-12-09 13:39:16.013232$GAGSA,A,3,04,19,21,27,,,,,,,,,1.0,0.6,0.8*26
