###2023-12-09 12:25:05.117303$GNGGA,172504.30,4138.0389864,N,07032.4365549,W,1,19,0.7,10.958,M,-29.746,M,0.0,*5D
###2023-12-09 12:25:05.317472$GNGGA,172504.50,4138.0389829,N,07032.4365530,W,1,19,0.7,10.954,M,-29.746,M,0.0,*50
###2023-12-09 12:25:05.517218$GNGGA,172504.70,4138.0389819,N,07032.4365515,W,1,19,0.7,10.947,M,-29.746,M,0.0,*54
###2023-12-09 12:25:05.719965$GNGGA,172504.90,4138.0389793,N,07032.4365490,W,1,19,0.7,10.948,M,-29.746,M,0.0,*54
###2023-12-09 12:25:05.921783$GNRMC,172505.10,A,4138.0389759,N,07032.4365477,W,0.06,,091223,,,A*45
###2023-12-09 12:25:05.924918$GNGGA,172505.10,4138.0389759,N,07032.4365477,W,1,19,0.7,10.940,M,-29.746,M,0.0,*5A
###2023-12-09 12:25:05.926984$GPGSA,A,3,03,16,25,26,28,29,31,32,,,,,1.2,0.7,1.0*32
###2023-12-09 12:25:05.928756$GLGSA,A,3,71,72,73,75,,,,,,,,,1.2,0.7,1.0*2E
###2023-12-09 12:25:05.930452$GAGSA,A,3,04,21,27,,,,,,,,,,1.2,0.7,1.0*24
###2023-12-09 12:25:05.932234$GBGSA,A,3,14,25,26,33,,,,,,,,,1.2,0.7,1.0*23
###2023-12-09 12:25:05.934755$GPGSV,2,1,08,03,39,283,44,16,32,206,39,25,16,045,41,26,61,205,45*7B
###2023-12-09 12:25:05.937277$GPGSV,2,2,08,28,61,050,43,29,24,079,43,31,73,344,38,32,34,131,46*73
###2023-12-09 12:25:05.939813$GLGSV,1,1,04,71,62,167,45,72,61,316,40,73,52,030,47,75,18,237,39*64
###2023-12-09 12:25:05.942061$GAGSV,1,1,03,04,18,310,37,21,74,180,46,27,45,051,46,,,,*59
###2023-12-09 12:25:05.944598$GBGSV,1,1,04,14,59,200,45,25,29,249,37,26,38,055,47,33,64,264,39*66
###2023-12-09 12:25:05.945916$GNVTG,,T,,M,0.06,N,0.11,K,A*3B
###2023-12-09 12:25:05.947769$GNGST,172505.10,30.000,,,,0.210,0.210,0.370*55
###2023-12-09 12:25:05.949312$GNZDA,172505.10,09,12,2023,00,00*74
###2023-12-09 12:25:05.950141$GNEBP,,,,,,M*13
###2023-12-09 12:25:06.117310$GNGGA,172505.30,4138.0389735,N,07032.4365467,W,1,19,0.7,10.936,M,-29.746,M,0.0,*52
###2023-12-09 12:25:06.316401$GNGGA,172505.50,4138.0389703,N,07032.4365452,W,1,19,0.7,10.935,M,-29.746,M,0.0,*54
###2023-12-09 12:25:06.516338$GNGGA,172505.70,4138.0389669,N,07032.4365434,W,1,19,0.7,10.932,M,-29.746,M,0.0,*5C
###2023-12-09 12:25:06.715546$GNGGA,172505.90,4138.0389646,N,07032.4365404,W,1,19,0.7,10.933,M,-29.746,M,0.0,*5D
###2023-12-09 12:25:06.918007$GNRMC,172506.10,A,4138.0389622,N,07032.4365393,W,0.02,,091223,,,A*42
###2023-12-09 12:25:06.921106$GNGGA,172506.10,4138.0389622,N,07032.4365393,W,1,19,0.7,10.929,M,-29.746,M,0.0,*56
###2023-12-09 12:25:06.923163$GPGSA,A,3,03,16,25,26,28,29,31,32,,,,,1.2,0.7,1.0*32
###2023-12-09 12:25:06.924929$GLGSA,A,3,71,72,73,75,,,,,,,,,1.2,0.7,1.0*2E
###2023-12-09 12:25:06.926636$GAGSA,A,3,04,21,27,,,,,,,,,,1.2,0.7,1.0*24
###2023-12-09 12:25:06.928385$GBGSA,A,3,14,25,26,33,,,,,,,,,1.2,0.7,1.0*23
###2023-12-09 12:25:06.930900$GPGSV,2,1,08,03,39,283,44,16,32,206,39,25,16,045,41,26,61,205,45*7B
###2023-12-09 12:25:06.933460$GPGSV,2,2,08,28,61,050,43,29,24,079,43,31,73,344,38,32,34,131,46*73
###2023-12-09 12:25:06.935854$GLGSV,1,1,04,71,62,167,45,72,61,316,40,73,52,030,47,75,18,237,38*65
###2023-12-09 12:25:06.937917$GAGSV,1,1,03,04,18,310,37,21,74,180,45,27,45,051,46,,,,*5A
###2023-12-09 12:25:06.940281$GBGSV,1,1,04,14,59,200,45,25,29,249,37,26,38,055,47,33,64,264,39*66
###2023-12-09 12:25:06.941432$GNVTG,,T,,M,0.02,N,0.04,K,A*3B
###2023-12-09 12:25:06.943105$GNGST,172506.10,30.000,,,,0.210,0.210,0.370*56
###2023-12-09 12:25:06.944419$GNZDA,172506.10,09,12,2023,00,00*77
###2023-12-09 12:25:06.945088$GNEBP,,,,,,M*13
###2023-12-09 12:25:07.116608$GNGGA,172506.30,4138.0389619,N,07032.4365376,W,1,19,0.7,10.927,M,-29.746,M,0.0,*59
###2023-12-09 12:25:07.316373$GNGGA,172506.50,4138.0389583,N,07032.4365339,W,1,19,0.7,10.928,M,-29.746,M,0.0,*5B
###2023-12-09 12:25:07.516224$GNGGA,172506.70,4138.0389560,N,07032.4365323,W,1,19,0.7,10.923,M,-29.746,M,0.0,*54
###2023-12-09 12:25:07.714737$GNGGA,172506.90,4138.0389538,N,07032.4365309,W,1,19,0.7,10.915,M,-29.746,M,0.0,*5A
###2023-12-09 12:25:07.918492$GNRMC,172507.10,A,4138.0389515,N,07032.4365279,W,0.06,,091223,,,A*45
###2023-12-09 12:25:07.921602$GNGGA,172507.10,4138.0389515,N,07032.4365279,W,1,19,0.7,10.913,M,-29.746,M,0.0,*5C
###2023-12-09 12:25:07.923703$GPGSA,A,3,03,16,25,26,28,29,31,32,,,,,1.2,0.7,1.0*32
###2023-12-09 12:25:07.925480$GLGSA,A,3,71,72,73,75,,,,,,,,,1.2,0.7,1.0*2E
###2023-12-09 12:25:07.927209$GAGSA,A,3,04,21,27,,,,,,,,,,1.2,0.7,1.0*24
###2023-12-09 12:25:07.928967$GBGSA,A,3,14,25,26,33,,,,,,,,,1.2,0.7,1.0*23
###2023-12-09 12:25:07.931474$GPGSV,2,1,08,03,39,283,44,16,32,206,39,25,16,045,41,26,61,205,45*7B
###2023-12-09 12:25:07.934005$GPGSV,2,2,08,28,61,050,43,29,24,079,44,31,73,344,38,32,34,131,46*74
###2023-12-09 12:25:07.936529$GLGSV,1,1,04,71,62,167,44,72,61,316,40,73,52,030,47,75,18,237,39*65
###2023-12-09 12:25:07.938749$GAGSV,1,1,03,04,18,310,36,21,74,180,45,27,45,051,46,,,,*5B
###2023-12-09 12:25:07.941246$GBGSV,1,1,04,14,59,200,45,25,29,249,36,26,38,055,48,33,64,264,39*68
###2023-12-09 12:25:07.942559$GNVTG,,T,,M,0.06,N,0.11,K,A*3B
###2023-12-09 12:25:07.944392$GNGST,172507.10,30.000,,,,0.210,0.210,0.380*58
###2023-12-09 12:25:07.945852$GNZDA,172507.10,09,12,2023,00,00*76
###2023-12-09 12:25:07.946525$GNEBP,,,,,,M*13
###2023-12-09 12:25:08.116956$GNGGA,172507.30,4138.0389494,N,07032.4365269,W,1,19,0.7,10.912,M,-29.746,M,0.0,*56
###2023-12-09 12:25:08.320093$GNGGA,172507.50,4138.0389472,N,07032.4365261,W,1,19,0.7,10.908,M,-29.746,M,0.0,*5B
###2023-12-09 12:25:08.522329$GNGGA,172507.70,4138.0389445,N,07032.4365246,W,1,19,0.7,10.902,M,-29.746,M,0.0,*52
###2023-12-09 12:25:08.715386$GNGGA,172507.90,4138.0389433,N,07032.4365237,W,1,19,0.7,10.902,M,-29.746,M,0.0,*5B
###2023-12-09 12:25:08.924353$GNRMC,172508.10,A,4138.0389405,N,07032.4365225,W,0.02,,091223,,,A*47
###2023-12-09 12:25:08.927432$GNGGA,172508.10,4138.0389405,N,07032.4365225,W,1,19,0.7,10.896,M,-29.746,M,0.0,*56
###2023-12-09 12:25:08.929478$GPGSA,A,3,03,16,25,26,28,29,31,32,,,,,1.2,0.7,1.0*32
###2023-12-09 12:25:08.931265$GLGSA,A,3,71,72,73,75,,,,,,,,,1.2,0.7,1.0*2E
###2023-12-09 12:25:08.932965$GAGSA,A,3,04,21,27,,,,,,,,,,1.2,0.7,1.0*24
###2023-12-09 12:25:08.934733$GBGSA,A,3,14,25,26,33,,,,,,,,,1.2,0.7,1.0*23
###2023-12-09 12:25:08.937243$GPGSV,2,1,08,03,39,283,44,16,32,206,39,25,16,045,41,26,61,205,45*7B
###2023-12-09 12:25:08.939768$GPGSV,2,2,08,28,61,050,43,29,24,079,44,31,73,344,38,32,34,131,46*74
###2023-12-09 12:25:08.942277$GLGSV,1,1,04,71,62,167,45,72,61,316,40,73,52,030,47,75,18,237,39*64
###2023-12-09 12:25:08.944505$GAGSV,1,1,03,04,18,310,36,21,74,180,46,27,45,051,46,,,,*58
###2023-12-09 12:25:08.947081$GBGSV,1,1,04,14,59,200,45,25,29,249,37,26,38,055,48,33,64,264,39*69
###2023-12-09 12:25:08.948443$GNVTG,,T,,M,0.02,N,0.04,K,A*3B
###2023-12-09 12:25:08.950269$GNGST,172508.10,30.000,,,,0.210,0.210,0.380*57
###2023-12-09 12:25:08.951798$GNZDA,172508.10,09,12,2023,00,00*79
###2023-12-09 12:25:08.952623$GNEBP,,,,,,M*13
###2023-12-09 12:25:09.118309$GNGGA,172508.30,4138.0389385,N,07032.4365220,W,1,19,0.7,10.891,M,-29.746,M,0.0,*59
###2023-12-09 12:25:09.318426$GNGGA,172508.50,4138.0389353,N,07032.4365187,W,1,19,0.7,10.889,M,-29.746,M,0.0,*53
###2023-12-09 12:25:09.516097$GNGGA,172508.70,4138.0389325,N,07032.4365168,W,1,19,0.7,10.882,M,-29.746,M,0.0,*5A
###2023-12-09 12:25:09.716444$GNGGA,172508.90,4138.0389307,N,07032.4365156,W,1,19,0.7,10.880,M,-29.746,M,0.0,*5B
###2023-12-09 12:25:09.916566$GNRMC,172509.10,A,4138.0389288,N,07032.4365146,W,0.04,,091223,,,A*45
###2023-12-09 12:25:09.919644$GNGGA,172509.10,4138.0389288,N,07032.4365146,W,1,19,0.7,10.877,M,-29.746,M,0.0,*5D
###2023-12-09 12:25:09.921535$GPGSA,A,3,03,16,25,26,28,29,31,32,,,,,1.2,0.7,1.0*32
###2023-12-09 12:25:09.923157$GLGSA,A,3,71,72,73,75,,,,,,,,,1.2,0.7,1.0*2E
###2023-12-09 12:25:09.924694$GAGSA,A,3,04,21,27,,,,,,,,,,1.2,0.7,1.0*24
###2023-12-09 12:25:09.926292$GBGSA,A,3,14,25,26,33,,,,,,,,,1.2,0.7,1.0*23
###2023-12-09 12:25:09.928657$GPGSV,2,1,08,03,39,283,44,16,32,206,38,25,16,045,41,26,61,205,45*7A
###2023-12-09 12:25:09.931018$GPGSV,2,2,08,28,61,050,43,29,24,079,43,31,73,344,38,32,34,131,46*73
###2023-12-09 12:25:09.933368$GLGSV,1,1,04,71,62,167,45,72,61,316,40,73,52,030,47,75,18,237,39*64
###2023-12-09 12:25:09.935433$GAGSV,1,1,03,04,18,310,37,21,74,180,46,27,45,051,46,,,,*59
###2023-12-09 12:25:09.938041$GBGSV,1,1,04,14,59,200,45,25,29,249,37,26,38,055,48,33,64,264,39*69
###2023-12-09 12:25:09.939229$GNVTG,,T,,M,0.04,N,0.07,K,A*3E
###2023-12-09 12:25:09.940900$GNGST,172509.10,30.000,,,,0.220,0.210,0.390*54
###2023-12-09 12:25:09.942216$GNZDA,172509.10,09,12,2023,00,00*78
###2023-12-09 12:25:09.942885$GNEBP,,,,,,M*13
###2023-12-09 12:25:10.116386$GNGGA,172509.30,4138.0389268,N,07032.4365128,W,1,19,0.7,10.875,M,-29.746,M,0.0,*5B
###2023-12-09 12:25:10.315549$GNGGA,172509.50,4138.0389248,N,07032.4365113,W,1,19,0.7,10.871,M,-29.746,M,0.0,*53
###2023-12-09 12:25:10.516355$GNGGA,172509.70,4138.0389219,N,07032.4365091,W,1,19,0.7,10.867,M,-29.746,M,0.0,*59
###2023-12-09 12:25:10.713996$GNGGA,172509.90,4138.0389200,N,07032.4365073,W,1,19,0.7,10.863,M,-29.746,M,0.0,*57
###2023-12-09 12:25:10.918705$GNRMC,172510.10,A,4138.0389168,N,07032.4365050,W,0.02,,091223,,,A*40
