###2023-12-09 13:17:02.578644$GNGGA,181701.70,4138.0774792,N,07032.2931944,W,1,24,0.7,13.209,M,-29.742,M,0.0,*58
###2023-12-09 13:17:02.778746$GNGGA,181701.90,4138.0772848,N,07032.2932052,W,1,24,0.7,13.210,M,-29.742,M,0.0,*5D
###2023-12-09 13:17:02.986647$GNRMC,181702.10,A,4138.0771003,N,07032.2931712,W,3.30,167.05,091223,,,A*57
###2023-12-09 13:17:02.989524$GNGGA,181702.10,4138.0771003,N,07032.2931712,W,1,24,0.7,13.188,M,-29.742,M,0.0,*50
###2023-12-09 13:17:02.991335$GPGSA,A,3,03,04,16,26,28,29,31,,,,,,1.2,0.7,1.0*30
###2023-12-09 13:17:02.993056$GLGSA,A,3,65,71,72,73,74,75,,,,,,,1.2,0.7,1.0*2E
###2023-12-09 13:17:02.994652$GAGSA,A,3,04,19,21,27,,,,,,,,,1.2,0.7,1.0*2C
###2023-12-09 13:17:02.996370$GBGSA,A,3,14,24,25,26,33,35,,,,,,,1.2,0.7,1.0*23
###2023-12-09 13:17:02.998712$GPGSV,2,1,07,03,32,254,43,04,38,311,45,16,57,216,47,26,87,208,49*79
###2023-12-09 13:17:03.000753$GPGSV,2,2,07,28,44,077,46,29,24,054,43,31,65,052,48,,,,*47
###2023-12-09 13:17:03.003105$GLGSV,2,1,06,65,31,324,43,71,32,174,42,72,70,240,46,73,29,047,43*6D
###2023-12-09 13:17:03.004859$GLGSV,2,2,06,74,65,358,43,75,38,261,47,,,,,,,,*65
###2023-12-09 13:17:03.007203$GAGSV,1,1,04,04,34,312,43,19,79,190,40,21,83,062,47,27,28,049,41*6A
###2023-12-09 13:17:03.009535$GBGSV,2,1,06,14,36,191,41,24,68,036,48,25,45,268,48,26,21,066,42*64
###2023-12-09 13:17:03.011304$GBGSV,2,2,06,33,52,224,47,35,16,063,42,,,,,,,,*6F
###2023-12-09 13:17:03.012627$GNVTG,167.05,T,,M,3.30,N,6.12,K,A*23
###2023-12-09 13:17:03.014275$GNGST,181702.10,18.000,,,,0.100,0.071,0.170*53
###2023-12-09 13:17:03.015578$GNZDA,181702.10,09,12,2023,00,00*7D
###2023-12-09 13:17:03.016219$GNEBP,,,,,,M*13
###2023-12-09 13:17:03.180669$GNGGA,181702.30,4138.0769176,N,07032.2931276,W,1,24,0.7,13.193,M,-29.742,M,0.0,*55
###2023-12-09 13:17:03.377711$GNGGA,181702.50,4138.0767222,N,07032.2931198,W,1,24,0.7,13.200,M,-29.742,M,0.0,*55
###2023-12-09 13:17:03.577440$GNGGA,181702.70,4138.0765315,N,07032.2931053,W,1,24,0.7,13.191,M,-29.742,M,0.0,*5D
###2023-12-09 13:17:03.778752$GNGGA,181702.90,4138.0763425,N,07032.2930675,W,1,24,0.7,13.195,M,-29.742,M,0.0,*56
###2023-12-09 13:17:03.981666$GNRMC,181703.10,A,4138.0761500,N,07032.2930216,W,3.44,171.49,091223,,,A*5D
###2023-12-09 13:17:03.984543$GNGGA,181703.10,4138.0761500,N,07032.2930216,W,1,24,0.7,13.177,M,-29.742,M,0.0,*56
###2023-12-09 13:17:03.986335$GPGSA,A,3,03,04,16,26,28,29,31,,,,,,1.2,0.7,1.0*30
###2023-12-09 13:17:03.988070$GLGSA,A,3,65,71,72,73,74,75,,,,,,,1.2,0.7,1.0*2E
###2023-12-09 13:17:03.989650$GAGSA,A,3,04,19,21,27,,,,,,,,,1.2,0.7,1.0*2C
###2023-12-09 13:17:03.991375$GBGSA,A,3,14,24,25,26,33,35,,,,,,,1.2,0.7,1.0*23
###2023-12-09 13:17:03.993701$GPGSV,2,1,07,03,31,253,42,04,38,311,45,16,57,216,47,26,87,208,48*7D
###2023-12-09 13:17:03.995748$GPGSV,2,2,07,28,44,077,46,29,24,054,43,31,65,052,48,,,,*47
###2023-12-09 13:17:03.998075$GLGSV,2,1,06,65,31,324,43,71,32,174,43,72,70,240,45,73,29,047,43*6F
###2023-12-09 13:17:03.999835$GLGSV,2,2,06,74,65,358,43,75,38,261,46,,,,,,,,*64
###2023-12-09 13:17:04.002154$GAGSV,1,1,04,04,34,312,43,19,79,190,40,21,83,062,47,27,28,049,41*6A
###2023-12-09 13:17:04.004494$GBGSV,2,1,06,14,36,191,42,24,68,036,48,25,45,268,47,26,21,066,44*6E
###2023-12-09 13:17:04.006236$GBGSV,2,2,06,33,52,224,46,35,16,063,43,,,,,,,,*6F
###2023-12-09 13:17:04.007573$GNVTG,171.49,T,,M,3.44,N,6.37,K,A*28
###2023-12-09 13:17:04.009216$GNGST,181703.10,18.000,,,,0.100,0.070,0.170*53
###2023-12-09 13:17:04.010503$GNZDA,181703.10,09,12,2023,00,00*7C
###2023-12-09 13:17:04.011153$GNEBP,,,,,,M*13
###2023-12-09 13:17:04.177518$GNGGA,181703.30,4138.0759593,N,07032.2930090,W,1,24,0.7,13.181,M,-29.742,M,0.0,*50
###2023-12-09 13:17:04.378732$GNGGA,181703.50,4138.0757619,N,07032.2930030,W,1,24,0.7,13.185,M,-29.742,M,0.0,*57
###2023-12-09 13:17:04.579449$GNGGA,181703.70,4138.0755703,N,07032.2929807,W,1,24,0.7,13.177,M,-29.742,M,0.0,*54
###2023-12-09 13:17:04.781230$GNGGA,181703.90,4138.0753737,N,07032.2929594,W,1,24,0.7,13.178,M,-29.742,M,0.0,*53
###2023-12-09 13:17:04.982896$GNRMC,181704.10,A,4138.0751759,N,07032.2929476,W,3.52,180.32,091223,,,A*5A
###2023-12-09 13:17:04.985771$GNGGA,181704.10,4138.0751759,N,07032.2929476,W,1,24,0.7,13.168,M,-29.742,M,0.0,*5A
###2023-12-09 13:17:04.987584$GPGSA,A,3,03,04,16,26,28,29,31,,,,,,1.2,0.7,1.0*30
###2023-12-09 13:17:04.989299$GLGSA,A,3,65,71,72,73,74,75,,,,,,,1.2,0.7,1.0*2E
###2023-12-09 13:17:04.990897$GAGSA,A,3,04,19,21,27,,,,,,,,,1.2,0.7,1.0*2C
###2023-12-09 13:17:04.992619$GBGSA,A,3,14,24,25,26,33,35,,,,,,,1.2,0.7,1.0*23
###2023-12-09 13:17:04.994971$GPGSV,2,1,07,03,31,253,43,04,39,310,44,16,57,216,46,26,87,208,48*7C
###2023-12-09 13:17:04.997015$GPGSV,2,2,07,28,44,077,46,29,24,054,43,31,65,052,47,,,,*48
###2023-12-09 13:17:04.999366$GLGSV,2,1,06,65,31,324,42,71,32,174,42,72,70,240,45,73,29,047,44*68
###2023-12-09 13:17:05.001125$GLGSV,2,2,06,74,65,358,43,75,38,261,46,,,,,,,,*64
###2023-12-09 13:17:05.003471$GAGSV,1,1,04,04,34,312,41,19,79,190,39,21,83,062,46,27,28,049,40*66
###2023-12-09 13:17:05.005803$GBGSV,2,1,06,14,36,191,42,24,68,036,49,25,45,268,47,26,21,066,43*68
###2023-12-09 13:17:05.007563$GBGSV,2,2,06,33,52,224,46,35,16,063,44,,,,,,,,*68
###2023-12-09 13:17:05.008886$GNVTG,180.32,T,,M,3.52,N,6.52,K,A*2E
###2023-12-09 13:17:05.010540$GNGST,181704.10,18.000,,,,0.100,0.070,0.170*54
###2023-12-09 13:17:05.011846$GNZDA,181704.10,09,12,2023,00,00*7B
###2023-12-09 13:17:05.012487$GNEBP,,,,,,M*13
###2023-12-09 13:17:05.178541$GNGGA,181704.30,4138.0749813,N,07032.2929556,W,1,24,0.7,13.177,M,-29.742,M,0.0,*5D
###2023-12-09 13:17:05.377666$GNGGA,181704.50,4138.0747852,N,07032.2929521,W,1,24,0.7,13.175,M,-29.742,M,0.0,*52
###2023-12-09 13:17:05.580193$GNGGA,181704.70,4138.0745950,N,07032.2929432,W,1,24,0.7,13.157,M,-29.742,M,0.0,*52
###2023-12-09 13:17:05.779766$GNGGA,181704.90,4138.0744029,N,07032.2929427,W,1,24,0.7,13.170,M,-29.742,M,0.0,*5B
###2023-12-09 13:17:05.981870$GNRMC,181705.10,A,4138.0742081,N,07032.2929496,W,3.52,179.72,091223,,,A*57
###2023-12-09 13:17:05.984775$GNGGA,181705.10,4138.0742081,N,07032.2929496,W,1,24,0.7,13.164,M,-29.742,M,0.0,*59
###2023-12-09 13:17:05.986582$GPGSA,A,3,03,04,16,26,28,29,31,,,,,,1.2,0.7,1.0*30
###2023-12-09 13:17:05.988286$GLGSA,A,3,65,71,72,73,74,75,,,,,,,1.2,0.7,1.0*2E
###2023-12-09 13:17:05.989870$GAGSA,A,3,04,19,21,27,,,,,,,,,1.2,0.7,1.0*2C
###2023-12-09 13:17:05.991594$GBGSA,A,3,14,24,25,26,33,35,,,,,,,1.2,0.7,1.0*23
###2023-12-09 13:17:05.993922$GPGSV,2,1,07,03,31,253,44,04,39,310,45,16,57,216,46,26,87,208,49*7B
###2023-12-09 13:17:05.995978$GPGSV,2,2,07,28,44,077,46,29,24,054,42,31,65,052,47,,,,*49
###2023-12-09 13:17:05.998317$GLGSV,2,1,06,65,31,324,43,71,32,174,42,72,70,240,46,73,29,047,44*6A
###2023-12-09 13:17:06.000109$GLGSV,2,2,06,74,65,358,43,75,38,261,47,,,,,,,,*65
###2023-12-09 13:17:06.002435$GAGSV,1,1,04,04,34,312,43,19,79,190,40,21,83,062,46,27,28,049,40*6A
###2023-12-09 13:17:06.004771$GBGSV,2,1,06,14,36,191,42,24,68,036,49,25,45,268,47,26,21,066,43*68
###2023-12-09 13:17:06.006513$GBGSV,2,2,06,33,52,224,47,35,16,063,43,,,,,,,,*6E
###2023-12-09 13:17:06.007841$GNVTG,179.72,T,,M,3.52,N,6.52,K,A*2C
###2023-12-09 13:17:06.009487$GNGST,181705.10,18.000,,,,0.100,0.070,0.170*55
###2023-12-09 13:17:06.010814$GNZDA,181705.10,09,12,2023,00,00*7A
###2023-12-09 13:17:06.011455$GNEBP,,,,,,M*13
###2023-12-09 13:17:06.178833$GNGGA,181705.30,4138.0740139,N,07032.2929311,W,1,24,0.7,13.140,M,-29.742,M,0.0,*55
###2023-12-09 13:17:06.380887$GNGGA,181705.50,4138.0738235,N,07032.2929049,W,1,24,0.7,13.148,M,-29.742,M,0.0,*55
###2023-12-09 13:17:06.578616$GNGGA,181705.70,4138.0736271,N,07032.2928979,W,1,24,0.7,13.157,M,-29.742,M,0.0,*5C
###2023-12-09 13:17:06.778606$GNGGA,181705.90,4138.0734309,N,07032.2928731,W,1,24,0.7,13.128,M,-29.742,M,0.0,*54
###2023-12-09 13:17:06.982605$GNRMC,181706.10,A,4138.0732407,N,07032.2928467,W,3.60,174.29,091223,,,A*54
###2023-12-09 13:17:06.985488$GNGGA,181706.10,4138.0732407,N,07032.2928467,W,1,24,0.7,13.124,M,-29.742,M,0.0,*5C
###2023-12-09 13:17:06.987298$GPGSA,A,3,03,04,16,26,28,29,31,,,,,,1.2,0.7,1.0*30
###2023-12-09 13:17:06.989017$GLGSA,A,3,65,71,72,73,74,75,,,,,,,1.2,0.7,1.0*2E
###2023-12-09 13:17:06.990864$GAGSA,A,3,04,19,21,27,,,,,,,,,1.2,0.7,1.0*2C
###2023-12-09 13:17:06.992630$GBGSA,A,3,14,24,25,26,33,35,,,,,,,1.2,0.7,1.0*23
###2023-12-09 13:17:06.995000$GPGSV,2,1,07,03,31,253,42,04,39,310,45,16,57,216,46,26,87,208,48*7C
###2023-12-09 13:17:06.997046$GPGSV,2,2,07,28,44,077,45,29,24,054,43,31,65,052,46,,,,*4A
###2023-12-09 13:17:06.999383$GLGSV,2,1,06,65,31,324,43,71,32,174,43,72,70,240,46,73,29,047,43*6C
###2023-12-09 13:17:07.001127$GLGSV,2,2,06,74,65,358,44,75,38,261,46,,,,,,,,*63
###2023-12-09 13:17:07.003450$GAGSV,1,1,04,04,34,312,43,19,79,190,40,21,83,062,46,27,28,049,40*6A
###2023-12-09 13:17:07.005763$GBGSV,2,1,06,14,36,191,41,24,68,036,48,25,45,268,48,26,21,066,43*65
###2023-12-09 13:17:07.007519$GBGSV,2,2,06,33,52,224,48,35,16,063,43,,,,,,,,*61
###2023-12-09 13:17:07.008841$GNVTG,174.29,T,,M,3.60,N,6.66,K,A*29
