###2023-12-09 12:42:16.950927$GAGSA,A,3,04,19,21,27,,,,,,,,,1.1,0.6,0.9*26
###2023-12-09 12:42:16.952604$GBGSA,A,3,14,24,25,26,33,,,,,,,,1.1,0.6,0.9*2F
###2023-12-09 12:42:16.954960$GPGSV,2,1,08,03,38,272,44,04,25,311,40,16,40,208,43,26,70,207,47*72
###2023-12-09 12:42:16.957311$GPGSV,2,2,08,28,55,060,46,29,25,070,45,31,72,013,48,32,27,136,40*78
###2023-12-09 12:42:16.959661$GLGSV,2,1,06,65,15,329,43,71,52,170,46,72,68,302,46,73,44,035,47*64
###2023-12-09 12:42:16.961411$GLGSV,2,2,06,74,71,303,43,75,25,244,44,,,,,,,,*66
###2023-12-09 12:42:16.963752$GAGSV,1,1,04,04,23,311,37,19,83,289,40,21,80,172,46,27,39,049,44*65
###2023-12-09 12:42:16.966083$GBGSV,2,1,05,14,52,196,44,24,79,359,49,25,34,255,45,26,33,058,45*60
###2023-12-09 12:42:16.967555$GBGSV,2,2,05,33,62,248,48,,,,,,,,,,,,*58
###2023-12-09 12:42:16.968880$GNVTG,153.04,T,,M,2.62,N,4.86,K,A*2C
###2023-12-09 12:42:16.970525$GNGST,174216.10,18.000,,,,0.078,0.069,0.160*5F
###2023-12-09 12:42:16.971834$GNZDA,174216.10,09,12,2023,00,00*77
###2023-12-09 12:42:16.972474$GNEBP,,,,,,M*13
###2023-12-09 12:42:17.142255$GNGGA,174216.30,4138.0665075,N,07032.3727149,W,1,24,0.6,13.364,M,-29.744,M,0.0,*5A
###2023-12-09 12:42:17.341486$GNGGA,174216.50,4138.0663834,N,07032.3726568,W,1,24,0.6,13.380,M,-29.744,M,0.0,*5B
###2023-12-09 12:42:17.542732$GNGGA,174216.70,4138.0662503,N,07032.3726111,W,1,24,0.6,13.373,M,-29.744,M,0.0,*57
###2023-12-09 12:42:17.741780$GNGGA,174216.90,4138.0661253,N,07032.3725805,W,1,24,0.6,13.366,M,-29.744,M,0.0,*53
###2023-12-09 12:42:17.943037$GNRMC,174217.10,A,4138.0659960,N,07032.3725795,W,2.43,178.59,091223,,,A*5C
###2023-12-09 12:42:17.946546$GNGGA,174217.10,4138.0659960,N,07032.3725795,W,1,24,0.6,13.383,M,-29.744,M,0.0,*57
###2023-12-09 12:42:17.948851$GPGSA,A,3,03,04,16,26,28,29,31,32,,,,,1.1,0.6,0.9*3B
###2023-12-09 12:42:17.950947$GLGSA,A,3,65,71,72,73,74,75,,,,,,,1.1,0.6,0.9*24
###2023-12-09 12:42:17.952876$GAGSA,A,3,04,19,21,27,,,,,,,,,1.1,0.6,0.9*26
###2023-12-09 12:42:17.954897$GBGSA,A,3,14,24,25,26,33,,,,,,,,1.1,0.6,0.9*2F
###2023-12-09 12:42:17.957717$GPGSV,2,1,08,03,38,272,43,04,25,311,41,16,40,208,42,26,70,207,46*74
###2023-12-09 12:42:17.960565$GPGSV,2,2,08,28,55,060,46,29,25,070,43,31,72,013,47,32,27,136,44*75
###2023-12-09 12:42:17.963421$GLGSV,2,1,06,65,15,329,41,71,52,170,45,72,68,302,46,73,44,035,47*65
###2023-12-09 12:42:17.965546$GLGSV,2,2,06,74,71,303,43,75,25,244,43,,,,,,,,*61
###2023-12-09 12:42:17.968382$GAGSV,1,1,04,04,23,311,40,19,83,289,40,21,80,172,45,27,39,049,43*61
###2023-12-09 12:42:17.971220$GBGSV,2,1,05,14,52,196,43,24,79,359,49,25,34,255,44,26,33,058,44*67
###2023-12-09 12:42:17.972995$GBGSV,2,2,05,33,62,248,48,,,,,,,,,,,,*58
###2023-12-09 12:42:17.974624$GNVTG,178.59,T,,M,2.43,N,4.50,K,A*25
###2023-12-09 12:42:17.976627$GNGST,174217.10,18.000,,,,0.079,0.069,0.160*5F
###2023-12-09 12:42:17.978220$GNZDA,174217.10,09,12,2023,00,00*76
###2023-12-09 12:42:17.979014$GNEBP,,,,,,M*13
###2023-12-09 12:42:18.145622$GNGGA,174217.30,4138.0658606,N,07032.3725614,W,1,24,0.6,13.366,M,-29.744,M,0.0,*58
###2023-12-09 12:42:18.342538$GNGGA,174217.50,4138.0657298,N,07032.3725701,W,1,24,0.6,13.355,M,-29.744,M,0.0,*57
###2023-12-09 12:42:18.543027$GNGGA,174217.70,4138.0656012,N,07032.3725984,W,1,24,0.6,13.379,M,-29.744,M,0.0,*59
###2023-12-09 12:42:18.741175$GNGGA,174217.90,4138.0654738,N,07032.3726321,W,1,24,0.6,13.384,M,-29.744,M,0.0,*5E
###2023-12-09 12:42:18.943443$GNRMC,174218.10,A,4138.0653542,N,07032.3726947,W,2.33,200.98,091223,,,A*51
###2023-12-09 12:42:18.946340$GNGGA,174218.10,4138.0653542,N,07032.3726947,W,1,24,0.6,13.375,M,-29.744,M,0.0,*55
###2023-12-09 12:42:18.948253$GPGSA,A,3,03,04,16,26,28,29,31,32,,,,,1.1,0.6,0.9*3B
###2023-12-09 12:42:18.949982$GLGSA,A,3,65,71,72,73,74,75,,,,,,,1.1,0.6,0.9*24
###2023-12-09 12:42:18.951591$GAGSA,A,3,04,19,21,27,,,,,,,,,1.1,0.6,0.9*26
###2023-12-09 12:42:18.953249$GBGSA,A,3,14,24,25,26,33,,,,,,,,1.1,0.6,0.9*2F
###2023-12-09 12:42:18.955598$GPGSV,2,1,08,03,38,272,44,04,25,311,41,16,40,208,42,26,70,207,47*72
###2023-12-09 12:42:18.957936$GPGSV,2,2,08,28,55,060,45,29,25,070,42,31,72,013,47,32,27,136,45*76
###2023-12-09 12:42:18.960300$GLGSV,2,1,06,65,15,329,39,71,52,170,46,72,68,302,47,73,44,035,46*69
###2023-12-09 12:42:18.962068$GLGSV,2,2,06,74,71,303,43,75,25,244,42,,,,,,,,*60
###2023-12-09 12:42:18.964421$GAGSV,1,1,04,04,23,311,40,19,83,289,40,21,80,172,45,27,39,049,43*61
###2023-12-09 12:42:18.966779$GBGSV,2,1,05,14,52,196,44,24,79,359,49,25,34,255,44,26,33,058,44*60
###2023-12-09 12:42:18.968240$GBGSV,2,2,05,33,62,248,48,,,,,,,,,,,,*58
###2023-12-09 12:42:18.969562$GNVTG,200.98,T,,M,2.33,N,4.32,K,A*27
###2023-12-09 12:42:18.971226$GNGST,174218.10,18.000,,,,0.079,0.069,0.160*50
###2023-12-09 12:42:18.972534$GNZDA,174218.10,09,12,2023,00,00*79
###2023-12-09 12:42:18.973175$GNEBP,,,,,,M*13
###2023-12-09 12:42:19.140930$GNGGA,174218.30,4138.0652272,N,07032.3727481,W,1,24,0.6,13.354,M,-29.744,M,0.0,*57
###2023-12-09 12:42:19.341518$GNGGA,174218.50,4138.0651113,N,07032.3728070,W,1,24,0.6,13.369,M,-29.744,M,0.0,*5D
###2023-12-09 12:42:19.542047$GNGGA,174218.70,4138.0650087,N,07032.3729026,W,1,24,0.6,13.395,M,-29.744,M,0.0,*53
###2023-12-09 12:42:19.742836$GNGGA,174218.90,4138.0649023,N,07032.3729963,W,1,24,0.6,13.371,M,-29.744,M,0.0,*59
###2023-12-09 12:42:19.941528$GNRMC,174219.10,A,4138.0648068,N,07032.3731016,W,2.22,223.87,091223,,,A*53
###2023-12-09 12:42:19.944437$GNGGA,174219.10,4138.0648068,N,07032.3731016,W,1,24,0.6,13.360,M,-29.744,M,0.0,*5C
###2023-12-09 12:42:19.946312$GPGSA,A,3,03,04,16,26,28,29,31,32,,,,,1.1,0.6,0.9*3B
###2023-12-09 12:42:19.948088$GLGSA,A,3,65,71,72,73,74,75,,,,,,,1.1,0.6,0.9*24
###2023-12-09 12:42:19.949705$GAGSA,A,3,04,19,21,27,,,,,,,,,1.1,0.6,0.9*26
###2023-12-09 12:42:19.951383$GBGSA,A,3,14,24,25,26,33,,,,,,,,1.1,0.6,0.9*2F
###2023-12-09 12:42:19.953727$GPGSV,2,1,08,03,38,272,43,04,25,311,41,16,40,208,43,26,70,207,47*74
###2023-12-09 12:42:19.956083$GPGSV,2,2,08,28,55,060,45,29,25,070,43,31,72,013,47,32,27,136,45*77
###2023-12-09 12:42:19.958426$GLGSV,2,1,06,65,15,329,41,71,52,170,47,72,68,302,45,73,44,035,47*64
###2023-12-09 12:42:19.960192$GLGSV,2,2,06,74,71,303,42,75,25,244,41,,,,,,,,*62
###2023-12-09 12:42:19.962532$GAGSV,1,1,04,04,23,311,40,19,83,289,40,21,80,172,45,27,39,049,44*66
###2023-12-09 12:42:19.964887$GBGSV,2,1,05,14,52,196,44,24,79,359,47,25,34,255,43,26,33,058,45*68
###2023-12-09 12:42:19.966351$GBGSV,2,2,05,33,62,248,46,,,,,,,,,,,,*56
###2023-12-09 12:42:19.967699$GNVTG,223.87,T,,M,2.22,N,4.10,K,A*28
###2023-12-09 12:42:19.969358$GNGST,174219.10,18.000,,,,0.079,0.069,0.160*51
###2023-12-09 12:42:19.970669$GNZDA,174219.10,09,12,2023,00,00*78
###2023-12-09 12:42:19.971310$GNEBP,,,,,,M*13
###2023-12-09 12:42:20.141938$GNGGA,174219.30,4138.0647154,N,07032.3732152,W,1,24,0.6,13.392,M,-29.744,M,0.0,*50
###2023-12-09 12:42:20.341622$GNGGA,174219.50,4138.0646193,N,07032.3733325,W,1,24,0.6,13.393,M,-29.744,M,0.0,*5E
###2023-12-09 12:42:20.541984$GNGGA,174219.70,4138.0645447,N,07032.3734588,W,1,24,0.6,13.381,M,-29.744,M,0.0,*56
###2023-12-09 12:42:20.741972$GNGGA,174219.90,4138.0644888,N,07032.3736034,W,1,24,0.6,13.401,M,-29.744,M,0.0,*59
###2023-12-09 12:42:20.949381$GNRMC,174220.10,A,4138.0644195,N,07032.3737413,W,2.27,238.54,091223,,,A*50
###2023-12-09 12:42:20.952294$GNGGA,174220.10,4138.0644195,N,07032.3737413,W,1,24,0.6,13.407,M,-29.744,M,0.0,*58
###2023-12-09 12:42:20.954157$GPGSA,A,3,03,04,16,26,28,29,31,32,,,,,1.1,0.6,0.9*3B
###2023-12-09 12:42:20.955883$GLGSA,A,3,65,71,72,73,74,75,,,,,,,1.1,0.6,0.9*24
###2023-12-09 12:42:20.957474$GAGSA,A,3,04,19,21,27,,,,,,,,,1.1,0.6,0.9*26
###2023-12-09 12:42:20.959140$GBGSA,A,3,14,24,25,26,33,,,,,,,,1.1,0.6,0.9*2F
###2023-12-09 12:42:20.961466$GPGSV,2,1,08,03,38,272,42,04,25,311,41,16,40,208,45,26,70,207,47*73
###2023-12-09 12:42:20.963805$GPGSV,2,2,08,28,55,060,45,29,25,070,42,31,72,013,47,32,27,136,43*70
###2023-12-09 12:42:20.966137$GLGSV,2,1,06,65,15,329,42,71,52,170,47,72,68,302,45,73,44,035,47*67
###2023-12-09 12:42:20.967903$GLGSV,2,2,06,74,71,303,42,75,25,244,41,,,,,,,,*62
###2023-12-09 12:42:20.970225$GAGSV,1,1,04,04,23,311,40,19,83,289,40,21,80,172,46,27,39,049,44*65
###2023-12-09 12:42:20.972807$GBGSV,2,1,05,14,52,196,45,24,79,359,48,25,34,255,45,26,33,058,45*60
###2023-12-09 12:42:20.974282$GBGSV,2,2,05,33,62,248,47,,,,,,,,,,,,*57
###2023-12-09 12:42:20.975628$GNVTG,238.54,T,,M,2.27,N,4.21,K,A*2B
###2023-12-09 12:42:20.977281$GNGST,174220.10,18.000,,,,0.078,0.069,0.160*5A
###2023-12-09 12:42:20.978581$GNZDA,174220.10,09,12,2023,00,00*72
###2023-12-09 12:42:20.979220$GNEBP,,,,,,M*13
###2023-12-09 12:42:21.142023$GNGGA,174220.30,4138.0643635,N,07032.3738870,W,1,24,0.6,13.397,M,-29.744,M,0.0,*58
###2023-12-09 12:42:21.341698$GNGGA,174220.50,4138.0643267,N,07032.3740465,W,1,24,0.6,13.412,M,-29.744,M,0.0,*50
###2023-12-09 12:42:21.561466$GNGGA,174220.70,4138.0642911,N,07032.3742113,W,1,24,0.6,13.415,M,-29.744,M,0.0,*58
