###2023-12-09 13:15:22.579907$GNGGA,181521.70,4138.0162068,N,07032.2696949,W,1,24,0.7,12.763,M,-29.744,M,0.0,*5A
###2023-12-09 13:15:22.780999$GNGGA,181521.90,4138.0163769,N,07032.2696519,W,1,24,0.7,12.772,M,-29.744,M,0.0,*5A
###2023-12-09 13:15:22.984483$GNRMC,181522.10,A,4138.0165489,N,07032.2696197,W,3.09,5.66,091223,,,A*51
###2023-12-09 13:15:22.987366$GNGGA,181522.10,4138.0165489,N,07032.2696197,W,1,24,0.7,12.768,M,-29.744,M,0.0,*53
###2023-12-09 13:15:22.989164$GPGSA,A,3,03,04,16,26,28,29,31,,,,,,1.2,0.7,1.0*30
###2023-12-09 13:15:22.990892$GLGSA,A,3,65,71,72,73,74,75,,,,,,,1.2,0.7,1.0*2E
###2023-12-09 13:15:22.992475$GAGSA,A,3,04,19,21,27,,,,,,,,,1.2,0.7,1.0*2C
###2023-12-09 13:15:22.994183$GBGSA,A,3,14,24,25,26,33,35,,,,,,,1.2,0.7,1.0*23
###2023-12-09 13:15:22.996517$GPGSV,2,1,07,03,32,254,42,04,38,311,44,16,57,216,45,26,86,209,47*75
###2023-12-09 13:15:22.998552$GPGSV,2,2,07,28,45,076,44,29,24,055,39,31,65,050,46,,,,*45
###2023-12-09 13:15:23.000896$GLGSV,2,1,06,65,30,325,41,71,33,174,46,72,71,243,47,73,30,046,43*60
###2023-12-09 13:15:23.002684$GLGSV,2,2,06,74,66,355,41,75,37,260,46,,,,,,,,*66
###2023-12-09 13:15:23.005004$GAGSV,1,1,04,04,33,312,44,19,80,192,41,21,84,066,46,27,29,048,40*6C
###2023-12-09 13:15:23.007335$GBGSV,2,1,06,14,37,191,44,24,69,035,48,25,45,267,46,26,22,066,42*60
###2023-12-09 13:15:23.009075$GBGSV,2,2,06,33,53,225,46,35,16,064,42,,,,,,,,*69
###2023-12-09 13:15:23.010324$GNVTG,5.66,T,,M,3.09,N,5.72,K,A*2C
###2023-12-09 13:15:23.011968$GNGST,181522.10,18.000,,,,0.097,0.071,0.170*5C
###2023-12-09 13:15:23.013251$GNZDA,181522.10,09,12,2023,00,00*7D
###2023-12-09 13:15:23.013889$GNEBP,,,,,,M*13
###2023-12-09 13:15:23.178254$GNGGA,181522.30,4138.0167227,N,07032.2695956,W,1,24,0.7,12.764,M,-29.744,M,0.0,*5B
###2023-12-09 13:15:23.378778$GNGGA,181522.50,4138.0168998,N,07032.2695652,W,1,24,0.7,12.769,M,-29.744,M,0.0,*5B
###2023-12-09 13:15:23.581664$GNGGA,181522.70,4138.0170779,N,07032.2695347,W,1,24,0.7,12.774,M,-29.744,M,0.0,*5C
###2023-12-09 13:15:23.779915$GNGGA,181522.90,4138.0172534,N,07032.2695233,W,1,24,0.7,12.784,M,-29.744,M,0.0,*56
###2023-12-09 13:15:23.980937$GNRMC,181523.10,A,4138.0174280,N,07032.2695235,W,3.09,0.63,091223,,,A*57
###2023-12-09 13:15:23.983812$GNGGA,181523.10,4138.0174280,N,07032.2695235,W,1,24,0.7,12.789,M,-29.744,M,0.0,*5A
###2023-12-09 13:15:23.985601$GPGSA,A,3,03,04,16,26,28,29,31,,,,,,1.2,0.7,1.0*30
###2023-12-09 13:15:23.987317$GLGSA,A,3,65,71,72,73,74,75,,,,,,,1.2,0.7,1.0*2E
###2023-12-09 13:15:23.988890$GAGSA,A,3,04,19,21,27,,,,,,,,,1.2,0.7,1.0*2C
###2023-12-09 13:15:23.990605$GBGSA,A,3,14,24,25,26,33,35,,,,,,,1.2,0.7,1.0*23
###2023-12-09 13:15:23.992924$GPGSV,2,1,07,03,32,254,44,04,38,311,44,16,57,216,46,26,86,209,48*7F
###2023-12-09 13:15:23.994966$GPGSV,2,2,07,28,45,076,44,29,24,055,41,31,65,050,46,,,,*4A
###2023-12-09 13:15:23.997283$GLGSV,2,1,06,65,30,325,40,71,33,174,46,72,71,243,46,73,30,046,42*61
###2023-12-09 13:15:23.999033$GLGSV,2,2,06,74,66,355,41,75,37,260,47,,,,,,,,*67
###2023-12-09 13:15:24.001353$GAGSV,1,1,04,04,33,312,42,19,80,192,40,21,84,066,45,27,29,048,39*66
###2023-12-09 13:15:24.003678$GBGSV,2,1,06,14,37,191,44,24,69,035,49,25,45,267,49,26,22,066,42*6E
###2023-12-09 13:15:24.005418$GBGSV,2,2,06,33,53,225,49,35,16,064,42,,,,,,,,*66
###2023-12-09 13:15:24.006682$GNVTG,0.63,T,,M,3.09,N,5.72,K,A*2C
###2023-12-09 13:15:24.008324$GNGST,181523.10,18.000,,,,0.097,0.071,0.170*5D
###2023-12-09 13:15:24.009610$GNZDA,181523.10,09,12,2023,00,00*7C
###2023-12-09 13:15:24.010245$GNEBP,,,,,,M*13
###2023-12-09 13:15:24.180417$GNGGA,181523.30,4138.0176001,N,07032.2695258,W,1,24,0.7,12.785,M,-29.744,M,0.0,*56
###2023-12-09 13:15:24.379543$GNGGA,181523.50,4138.0177716,N,07032.2695351,W,1,24,0.7,12.786,M,-29.744,M,0.0,*5B
###2023-12-09 13:15:24.579570$GNGGA,181523.70,4138.0179412,N,07032.2695585,W,1,24,0.7,12.799,M,-29.744,M,0.0,*51
###2023-12-09 13:15:24.779932$GNGGA,181523.90,4138.0181111,N,07032.2695899,W,1,24,0.7,12.813,M,-29.744,M,0.0,*53
###2023-12-09 13:15:24.983059$GNRMC,181524.10,A,4138.0182762,N,07032.2696396,W,3.03,345.87,091223,,,A*59
###2023-12-09 13:15:24.985907$GNGGA,181524.10,4138.0182762,N,07032.2696396,W,1,24,0.7,12.817,M,-29.744,M,0.0,*5E
###2023-12-09 13:15:24.987704$GPGSA,A,3,03,04,16,26,28,29,31,,,,,,1.2,0.7,1.0*30
###2023-12-09 13:15:24.989411$GLGSA,A,3,65,71,72,73,74,75,,,,,,,1.2,0.7,1.0*2E
###2023-12-09 13:15:24.990997$GAGSA,A,3,04,19,21,27,,,,,,,,,1.2,0.7,1.0*2C
###2023-12-09 13:15:24.992706$GBGSA,A,3,14,24,25,26,33,35,,,,,,,1.2,0.7,1.0*23
###2023-12-09 13:15:24.995032$GPGSV,2,1,07,03,32,254,45,04,38,311,43,16,57,216,47,26,86,209,48*78
###2023-12-09 13:15:24.997061$GPGSV,2,2,07,28,45,076,45,29,24,055,42,31,65,050,47,,,,*49
###2023-12-09 13:15:24.999388$GLGSV,2,1,06,65,30,325,40,71,33,174,46,72,71,243,46,73,30,046,43*60
###2023-12-09 13:15:25.001125$GLGSV,2,2,06,74,66,355,42,75,37,260,46,,,,,,,,*65
###2023-12-09 13:15:25.003445$GAGSV,1,1,04,04,33,312,41,19,80,192,40,21,84,066,46,27,29,048,40*68
###2023-12-09 13:15:25.005758$GBGSV,2,1,06,14,37,191,42,24,69,035,48,25,45,267,45,26,22,066,43*64
###2023-12-09 13:15:25.007507$GBGSV,2,2,06,33,53,225,47,35,16,064,42,,,,,,,,*68
###2023-12-09 13:15:25.008819$GNVTG,345.87,T,,M,3.03,N,5.62,K,A*2F
###2023-12-09 13:15:25.010459$GNGST,181524.10,18.000,,,,0.097,0.071,0.170*5A
###2023-12-09 13:15:25.011752$GNZDA,181524.10,09,12,2023,00,00*7B
###2023-12-09 13:15:25.012388$GNEBP,,,,,,M*13
###2023-12-09 13:15:25.177599$GNGGA,181524.30,4138.0184377,N,07032.2697033,W,1,24,0.7,12.826,M,-29.744,M,0.0,*55
###2023-12-09 13:15:25.378925$GNGGA,181524.50,4138.0185982,N,07032.2697764,W,1,24,0.7,12.830,M,-29.744,M,0.0,*50
###2023-12-09 13:15:25.580542$GNGGA,181524.70,4138.0187526,N,07032.2698610,W,1,24,0.7,12.830,M,-29.744,M,0.0,*5F
###2023-12-09 13:15:25.778499$GNGGA,181524.90,4138.0189014,N,07032.2699556,W,1,24,0.7,12.835,M,-29.744,M,0.0,*5E
###2023-12-09 13:15:25.981974$GNRMC,181525.10,A,4138.0190444,N,07032.2700607,W,2.88,329.49,091223,,,A*55
###2023-12-09 13:15:25.984844$GNGGA,181525.10,4138.0190444,N,07032.2700607,W,1,24,0.7,12.844,M,-29.744,M,0.0,*5E
###2023-12-09 13:15:25.986643$GPGSA,A,3,03,04,16,26,28,29,31,,,,,,1.2,0.7,1.0*30
###2023-12-09 13:15:25.988349$GLGSA,A,3,65,71,72,73,74,75,,,,,,,1.2,0.7,1.0*2E
###2023-12-09 13:15:25.989928$GAGSA,A,3,04,19,21,27,,,,,,,,,1.2,0.7,1.0*2C
###2023-12-09 13:15:25.991646$GBGSA,A,3,14,24,25,26,33,35,,,,,,,1.2,0.7,1.0*23
###2023-12-09 13:15:25.993971$GPGSV,2,1,07,03,32,254,44,04,38,311,42,16,57,216,46,26,86,209,48*79
###2023-12-09 13:15:25.996021$GPGSV,2,2,07,28,45,076,45,29,24,055,42,31,65,050,47,,,,*49
###2023-12-09 13:15:25.998342$GLGSV,2,1,06,65,30,325,42,71,33,174,44,72,71,243,46,73,30,046,43*60
###2023-12-09 13:15:26.000093$GLGSV,2,2,06,74,66,355,42,75,37,260,46,,,,,,,,*65
###2023-12-09 13:15:26.002404$GAGSV,1,1,04,04,33,312,42,19,80,192,41,21,84,066,46,27,29,048,41*6B
###2023-12-09 13:15:26.004736$GBGSV,2,1,06,14,37,191,44,24,69,035,49,25,45,267,47,26,22,066,43*61
###2023-12-09 13:15:26.006483$GBGSV,2,2,06,33,53,225,49,35,16,064,43,,,,,,,,*67
###2023-12-09 13:15:26.007815$GNVTG,329.49,T,,M,2.88,N,5.33,K,A*21
###2023-12-09 13:15:26.009460$GNGST,181525.10,18.000,,,,0.097,0.071,0.170*5B
###2023-12-09 13:15:26.010764$GNZDA,181525.10,09,12,2023,00,00*7A
###2023-12-09 13:15:26.011399$GNEBP,,,,,,M*13
###2023-12-09 13:15:26.179396$GNGGA,181525.30,4138.0191787,N,07032.2701797,W,1,24,0.7,12.861,M,-29.744,M,0.0,*5F
###2023-12-09 13:15:26.378337$GNGGA,181525.50,4138.0193022,N,07032.2703164,W,1,24,0.7,12.870,M,-29.744,M,0.0,*5B
###2023-12-09 13:15:26.580293$GNGGA,181525.70,4138.0194183,N,07032.2704632,W,1,24,0.7,12.875,M,-29.744,M,0.0,*52
###2023-12-09 13:15:26.779828$GNGGA,181525.90,4138.0195328,N,07032.2706183,W,1,24,0.7,12.881,M,-29.744,M,0.0,*5A
###2023-12-09 13:15:26.983835$GNRMC,181526.10,A,4138.0196486,N,07032.2707779,W,2.99,313.15,091223,,,A*51
###2023-12-09 13:15:26.986691$GNGGA,181526.10,4138.0196486,N,07032.2707779,W,1,24,0.7,12.886,M,-29.744,M,0.0,*54
###2023-12-09 13:15:26.988473$GPGSA,A,3,03,04,16,26,28,29,31,,,,,,1.2,0.7,1.0*30
###2023-12-09 13:15:26.990171$GLGSA,A,3,65,71,72,73,74,75,,,,,,,1.2,0.7,1.0*2E
###2023-12-09 13:15:26.992000$GAGSA,A,3,04,19,21,27,,,,,,,,,1.2,0.7,1.0*2C
###2023-12-09 13:15:26.993719$GBGSA,A,3,14,24,25,26,33,35,,,,,,,1.2,0.7,1.0*23
###2023-12-09 13:15:26.996053$GPGSV,2,1,07,03,32,254,43,04,38,311,42,16,57,216,47,26,87,208,48*7F
###2023-12-09 13:15:26.998087$GPGSV,2,2,07,28,45,076,45,29,24,055,42,31,65,050,47,,,,*49
###2023-12-09 13:15:27.000415$GLGSV,2,1,06,65,30,325,41,71,33,174,43,72,71,243,46,73,30,046,45*62
###2023-12-09 13:15:27.002153$GLGSV,2,2,06,74,66,355,42,75,37,260,45,,,,,,,,*66
###2023-12-09 13:15:27.004477$GAGSV,1,1,04,04,33,312,42,19,80,192,41,21,84,066,46,27,29,048,42*68
###2023-12-09 13:15:27.006811$GBGSV,2,1,06,14,37,191,44,24,69,035,49,25,45,267,47,26,22,066,42*60
###2023-12-09 13:15:27.008548$GBGSV,2,2,06,33,53,225,47,35,16,064,43,,,,,,,,*69
###2023-12-09 13:15:27.009864$GNVTG,313.15,T,,M,2.99,N,5.54,K,A*20
