###2023-12-09 13:06:24.168677$GNGGA,180623.30,4138.0714647,N,07032.3085109,W,1,24,0.6,13.182,M,-29.743,M,0.0,*55
###2023-12-09 13:06:24.369278$GNGGA,180623.50,4138.0714846,N,07032.3087706,W,1,24,0.6,13.180,M,-29.743,M,0.0,*55
###2023-12-09 13:06:24.569962$GNGGA,180623.70,4138.0714911,N,07032.3090300,W,1,24,0.6,13.164,M,-29.743,M,0.0,*5A
###2023-12-09 13:06:24.768524$GNGGA,180623.90,4138.0714657,N,07032.3092765,W,1,24,0.6,13.161,M,-29.743,M,0.0,*59
###2023-12-09 13:06:24.971010$GNRMC,180624.10,A,4138.0714289,N,07032.3095206,W,3.44,259.68,091223,,,A*50
###2023-12-09 13:06:24.973869$GNGGA,180624.10,4138.0714289,N,07032.3095206,W,1,24,0.6,13.169,M,-29.743,M,0.0,*5E
###2023-12-09 13:06:24.975739$GPGSA,A,3,03,04,16,26,28,29,31,32,,,,,1.1,0.6,0.9*3B
###2023-12-09 13:06:24.977457$GLGSA,A,3,65,71,72,73,74,75,,,,,,,1.1,0.6,0.9*24
###2023-12-09 13:06:24.979053$GAGSA,A,3,04,19,21,27,,,,,,,,,1.1,0.6,0.9*26
###2023-12-09 13:06:24.980697$GBGSA,A,3,14,24,25,26,33,,,,,,,,1.1,0.6,0.9*2F
###2023-12-09 13:06:24.983033$GPGSV,2,1,08,03,34,259,43,04,34,311,43,16,52,213,46,26,82,210,48*7B
###2023-12-09 13:06:24.985361$GPGSV,2,2,08,28,48,072,45,29,25,059,42,31,68,042,47,32,17,141,43*78
###2023-12-09 13:06:24.987707$GLGSV,2,1,06,65,26,327,41,71,39,173,46,72,73,261,45,73,34,043,45*6F
###2023-12-09 13:06:24.989460$GLGSV,2,2,06,74,69,343,43,75,33,255,43,,,,,,,,*6B
###2023-12-09 13:06:24.991790$GAGSV,1,1,04,04,31,312,40,19,83,203,40,21,85,092,46,27,31,048,42*62
###2023-12-09 13:06:24.994110$GBGSV,2,1,05,14,41,192,44,24,72,028,49,25,42,263,44,26,25,063,41*66
###2023-12-09 13:06:24.995578$GBGSV,2,2,05,33,56,230,47,,,,,,,,,,,,*5F
###2023-12-09 13:06:24.996894$GNVTG,259.68,T,,M,3.44,N,6.37,K,A*22
###2023-12-09 13:06:24.998534$GNGST,180624.10,18.000,,,,0.082,0.069,0.160*54
###2023-12-09 13:06:24.999843$GNZDA,180624.10,09,12,2023,00,00*79
###2023-12-09 13:06:25.000480$GNEBP,,,,,,M*13
###2023-12-09 13:06:25.167742$GNGGA,180624.30,4138.0713950,N,07032.3097731,W,1,24,0.6,13.168,M,-29.743,M,0.0,*56
###2023-12-09 13:06:25.369587$GNGGA,180624.50,4138.0713603,N,07032.3100182,W,1,24,0.6,13.159,M,-29.743,M,0.0,*5A
###2023-12-09 13:06:25.569434$GNGGA,180624.70,4138.0713231,N,07032.3102593,W,1,24,0.6,13.166,M,-29.743,M,0.0,*57
###2023-12-09 13:06:25.769737$GNGGA,180624.90,4138.0712764,N,07032.3105088,W,1,24,0.6,13.151,M,-29.743,M,0.0,*51
###2023-12-09 13:06:25.969990$GNRMC,180625.10,A,4138.0712361,N,07032.3107551,W,3.36,262.16,091223,,,A*5B
###2023-12-09 13:06:25.972876$GNGGA,180625.10,4138.0712361,N,07032.3107551,W,1,24,0.6,13.121,M,-29.743,M,0.0,*5D
###2023-12-09 13:06:25.974748$GPGSA,A,3,03,04,16,26,28,29,31,32,,,,,1.1,0.6,0.9*3B
###2023-12-09 13:06:25.976460$GLGSA,A,3,65,71,72,73,74,75,,,,,,,1.1,0.6,0.9*24
###2023-12-09 13:06:25.978040$GAGSA,A,3,04,19,21,27,,,,,,,,,1.1,0.6,0.9*26
###2023-12-09 13:06:25.979707$GBGSA,A,3,14,24,25,26,33,,,,,,,,1.1,0.6,0.9*2F
###2023-12-09 13:06:25.982035$GPGSV,2,1,08,03,34,259,42,04,34,311,41,16,52,213,46,26,82,210,47*77
###2023-12-09 13:06:25.984387$GPGSV,2,2,08,28,48,072,44,29,25,059,41,31,68,042,47,32,17,141,43*7A
###2023-12-09 13:06:25.986733$GLGSV,2,1,06,65,26,327,42,71,39,173,46,72,73,261,46,73,34,043,45*6F
###2023-12-09 13:06:25.988483$GLGSV,2,2,06,74,69,343,43,75,33,255,43,,,,,,,,*6B
###2023-12-09 13:06:25.990830$GAGSV,1,1,04,04,31,312,39,19,83,203,40,21,85,092,45,27,31,048,40*6D
###2023-12-09 13:06:25.993173$GBGSV,2,1,05,14,41,192,44,24,72,028,49,25,42,263,45,26,25,063,43*65
###2023-12-09 13:06:25.994645$GBGSV,2,2,05,33,56,230,48,,,,,,,,,,,,*50
###2023-12-09 13:06:25.995965$GNVTG,262.16,T,,M,3.36,N,6.23,K,A*23
###2023-12-09 13:06:25.997610$GNGST,180625.10,18.000,,,,0.081,0.069,0.160*56
###2023-12-09 13:06:25.998919$GNZDA,180625.10,09,12,2023,00,00*78
###2023-12-09 13:06:25.999559$GNEBP,,,,,,M*13
###2023-12-09 13:06:26.169110$GNGGA,180625.30,4138.0712220,N,07032.3110058,W,1,24,0.6,13.141,M,-29.743,M,0.0,*57
###2023-12-09 13:06:26.369037$GNGGA,180625.50,4138.0712032,N,07032.3112644,W,1,24,0.6,13.153,M,-29.743,M,0.0,*5A
###2023-12-09 13:06:26.569591$GNGGA,180625.70,4138.0711794,N,07032.3115208,W,1,24,0.6,13.137,M,-29.743,M,0.0,*59
###2023-12-09 13:06:26.768585$GNGGA,180625.90,4138.0711698,N,07032.3117794,W,1,24,0.6,13.125,M,-29.743,M,0.0,*5B
###2023-12-09 13:06:26.969905$GNRMC,180626.10,A,4138.0711698,N,07032.3120429,W,3.58,272.20,091223,,,A*5F
###2023-12-09 13:06:26.972792$GNGGA,180626.10,4138.0711698,N,07032.3120429,W,1,24,0.6,13.123,M,-29.743,M,0.0,*57
###2023-12-09 13:06:26.974666$GPGSA,A,3,03,04,16,26,28,29,31,32,,,,,1.1,0.6,0.9*3B
###2023-12-09 13:06:26.976393$GLGSA,A,3,65,71,72,73,74,75,,,,,,,1.1,0.6,0.9*24
###2023-12-09 13:06:26.977984$GAGSA,A,3,04,19,21,27,,,,,,,,,1.1,0.6,0.9*26
###2023-12-09 13:06:26.979647$GBGSA,A,3,14,24,25,26,33,,,,,,,,1.1,0.6,0.9*2F
###2023-12-09 13:06:26.981989$GPGSV,2,1,08,03,34,259,41,04,34,311,42,16,52,213,46,26,82,210,47*77
###2023-12-09 13:06:26.984345$GPGSV,2,2,08,28,48,072,45,29,25,059,41,31,68,042,47,32,17,141,42*7A
###2023-12-09 13:06:26.986700$GLGSV,2,1,06,65,26,327,40,71,39,173,45,72,73,261,46,73,34,043,45*6E
###2023-12-09 13:06:26.988450$GLGSV,2,2,06,74,69,343,42,75,33,255,41,,,,,,,,*68
###2023-12-09 13:06:26.990798$GAGSV,1,1,04,04,31,312,40,19,83,203,40,21,85,092,46,27,31,048,42*62
###2023-12-09 13:06:26.993132$GBGSV,2,1,05,14,41,192,44,24,72,028,49,25,42,263,44,26,25,063,42*65
###2023-12-09 13:06:26.994606$GBGSV,2,2,05,33,56,230,48,,,,,,,,,,,,*50
###2023-12-09 13:06:26.995946$GNVTG,272.20,T,,M,3.58,N,6.62,K,A*2A
###2023-12-09 13:06:26.997597$GNGST,180626.10,18.000,,,,0.081,0.069,0.160*55
###2023-12-09 13:06:26.998903$GNZDA,180626.10,09,12,2023,00,00*7B
###2023-12-09 13:06:26.999545$GNEBP,,,,,,M*13
###2023-12-09 13:06:27.170704$GNGGA,180626.30,4138.0711859,N,07032.3123065,W,1,24,0.6,13.122,M,-29.743,M,0.0,*58
###2023-12-09 13:06:27.375134$GNGGA,180626.50,4138.0712029,N,07032.3125657,W,1,24,0.6,13.118,M,-29.743,M,0.0,*5A
###2023-12-09 13:06:27.569760$GNGGA,180626.70,4138.0712220,N,07032.3128274,W,1,24,0.6,13.100,M,-29.743,M,0.0,*52
###2023-12-09 13:06:27.770785$GNGGA,180626.90,4138.0712533,N,07032.3130901,W,1,24,0.6,13.093,M,-29.743,M,0.0,*52
###2023-12-09 13:06:27.972438$GNRMC,180627.10,A,4138.0712937,N,07032.3133499,W,3.58,282.43,091223,,,A*54
###2023-12-09 13:06:27.975298$GNGGA,180627.10,4138.0712937,N,07032.3133499,W,1,24,0.6,13.099,M,-29.743,M,0.0,*56
###2023-12-09 13:06:27.977146$GPGSA,A,3,03,04,16,26,28,29,31,32,,,,,1.1,0.6,0.9*3B
###2023-12-09 13:06:27.978873$GLGSA,A,3,65,71,72,73,74,75,,,,,,,1.1,0.6,0.9*24
###2023-12-09 13:06:27.980449$GAGSA,A,3,04,19,21,27,,,,,,,,,1.1,0.6,0.9*26
###2023-12-09 13:06:27.982084$GBGSA,A,3,14,24,25,26,33,,,,,,,,1.1,0.6,0.9*2F
###2023-12-09 13:06:27.984418$GPGSV,2,1,08,03,34,259,40,04,34,311,41,16,52,213,46,26,82,210,47*75
###2023-12-09 13:06:27.986832$GPGSV,2,2,08,28,48,072,45,29,25,059,41,31,68,042,47,32,17,141,42*7A
###2023-12-09 13:06:27.989165$GLGSV,2,1,06,65,26,327,39,71,39,173,45,72,73,261,45,73,34,043,45*63
###2023-12-09 13:06:27.990924$GLGSV,2,2,06,74,69,343,42,75,33,255,42,,,,,,,,*6B
###2023-12-09 13:06:27.993251$GAGSV,1,1,04,04,31,312,38,19,83,203,40,21,85,092,45,27,31,048,41*6D
###2023-12-09 13:06:27.995591$GBGSV,2,1,05,14,41,192,44,24,72,028,48,25,42,263,44,26,25,063,43*65
###2023-12-09 13:06:27.997060$GBGSV,2,2,05,33,56,230,48,,,,,,,,,,,,*50
###2023-12-09 13:06:27.998384$GNVTG,282.43,T,,M,3.58,N,6.62,K,A*20
###2023-12-09 13:06:28.000047$GNGST,180627.10,18.000,,,,0.081,0.069,0.160*54
###2023-12-09 13:06:28.001336$GNZDA,180627.10,09,12,2023,00,00*7A
###2023-12-09 13:06:28.001975$GNEBP,,,,,,M*13
###2023-12-09 13:06:28.167656$GNGGA,180627.30,4138.0713339,N,07032.3136091,W,1,24,0.6,13.102,M,-29.743,M,0.0,*5B
###2023-12-09 13:06:28.368134$GNGGA,180627.50,4138.0713656,N,07032.3138665,W,1,24,0.6,13.090,M,-29.743,M,0.0,*58
###2023-12-09 13:06:28.568437$GNGGA,180627.70,4138.0713940,N,07032.3141183,W,1,25,0.6,13.071,M,-29.743,M,0.0,*5D
###2023-12-09 13:06:28.768430$GNGGA,180627.90,4138.0714308,N,07032.3143633,W,1,25,0.6,13.058,M,-29.743,M,0.0,*57
###2023-12-09 13:06:28.971264$GNRMC,180628.10,A,4138.0714732,N,07032.3146001,W,3.21,283.32,091223,,,A*58
###2023-12-09 13:06:28.974129$GNGGA,180628.10,4138.0714732,N,07032.3146001,W,1,25,0.6,13.051,M,-29.743,M,0.0,*56
###2023-12-09 13:06:28.976271$GPGSA,A,3,03,04,16,26,28,29,31,32,,,,,1.1,0.6,0.9*3B
###2023-12-09 13:06:28.977996$GLGSA,A,3,65,71,72,73,74,75,,,,,,,1.1,0.6,0.9*24
###2023-12-09 13:06:28.979598$GAGSA,A,3,04,19,21,27,,,,,,,,,1.1,0.6,0.9*26
###2023-12-09 13:06:28.981315$GBGSA,A,3,14,24,25,26,33,35,,,,,,,1.1,0.6,0.9*29
###2023-12-09 13:06:28.983653$GPGSV,2,1,08,03,34,259,40,04,34,311,41,16,52,213,45,26,82,210,47*76
###2023-12-09 13:06:28.985987$GPGSV,2,2,08,28,48,072,45,29,25,059,40,31,68,042,47,32,17,141,43*7A
###2023-12-09 13:06:28.988335$GLGSV,2,1,06,65,26,327,39,71,39,173,46,72,73,261,45,73,34,043,45*60
###2023-12-09 13:06:28.990090$GLGSV,2,2,06,74,69,343,42,75,33,255,42,,,,,,,,*6B
###2023-12-09 13:06:28.992425$GAGSV,1,1,04,04,31,312,39,19,83,203,40,21,85,092,46,27,31,048,42*6C
###2023-12-09 13:06:28.994765$GBGSV,2,1,06,14,41,192,45,24,72,029,49,25,42,263,44,26,25,063,42*66
