###2023-12-09 13:28:28.026242$GNVTG,71.13,T,,M,1.83,N,3.38,K,A*15
###2023-12-09 13:28:28.028291$GNGST,182827.10,17.000,,,,0.140,0.095,0.230*5E
###2023-12-09 13:28:28.029867$GNZDA,182827.10,09,12,2023,00,00*76
###2023-12-09 13:28:28.030656$GNEBP,,,,,,M*13
###2023-12-09 13:28:28.190197$GNGGA,182827.30,4138.0432785,N,07032.4206637,W,1,24,0.6,13.341,M,-29.745,M,0.0,*5A
###2023-12-09 13:28:28.388818$GNGGA,182827.50,4138.0433239,N,07032.4205418,W,1,24,0.6,13.345,M,-29.745,M,0.0,*57
###2023-12-09 13:28:28.587978$GNGGA,182827.70,4138.0433691,N,07032.4204265,W,1,24,0.6,13.356,M,-29.745,M,0.0,*5C
###2023-12-09 13:28:28.789409$GNGGA,182827.90,4138.0434052,N,07032.4203132,W,1,24,0.6,13.355,M,-29.745,M,0.0,*59
###2023-12-09 13:28:28.990677$GNRMC,182828.10,A,4138.0434378,N,07032.4202018,W,1.59,68.95,091223,,,A*64
###2023-12-09 13:28:28.994143$GNGGA,182828.10,4138.0434378,N,07032.4202018,W,1,24,0.6,13.368,M,-29.745,M,0.0,*53
###2023-12-09 13:28:28.996321$GPGSA,A,3,03,04,16,26,28,29,31,,,,,,1.1,0.6,0.9*3A
###2023-12-09 13:28:28.998391$GLGSA,A,3,65,71,72,73,74,75,,,,,,,1.1,0.6,0.9*24
###2023-12-09 13:28:29.000327$GAGSA,A,3,04,19,21,27,,,,,,,,,1.1,0.6,0.9*26
###2023-12-09 13:28:29.002395$GBGSA,A,3,14,24,25,26,33,35,,,,,,,1.1,0.6,0.9*29
###2023-12-09 13:28:29.005212$GPGSV,2,1,07,03,28,249,40,04,43,309,45,16,63,220,46,26,87,041,48*75
###2023-12-09 13:28:29.007689$GPGSV,2,2,07,28,40,082,42,29,22,049,39,31,61,061,46,,,,*40
###2023-12-09 13:28:29.010537$GLGSV,2,1,06,65,35,321,44,71,26,175,40,72,66,227,47,73,25,050,41*62
###2023-12-09 13:28:29.012664$GLGSV,2,2,06,74,62,008,42,75,41,267,48,,,,,,,,*62
###2023-12-09 13:28:29.015494$GAGSV,1,1,04,04,38,311,44,19,74,183,42,21,79,049,46,27,24,049,38*60
###2023-12-09 13:28:29.018308$GBGSV,2,1,06,14,31,190,41,24,64,043,47,25,49,273,46,26,18,069,40*6C
###2023-12-09 13:28:29.020437$GBGSV,2,2,06,33,48,220,46,35,16,059,40,,,,,,,,*6A
###2023-12-09 13:28:29.022002$GNVTG,68.95,T,,M,1.59,N,2.95,K,A*12
###2023-12-09 13:28:29.023997$GNGST,182828.10,18.000,,,,0.140,0.095,0.230*5E
###2023-12-09 13:28:29.025557$GNZDA,182828.10,09,12,2023,00,00*79
###2023-12-09 13:28:29.026328$GNEBP,,,,,,M*13
###2023-12-09 13:28:29.187569$GNGGA,182828.30,4138.0434799,N,07032.4200942,W,1,24,0.6,13.382,M,-29.745,M,0.0,*5A
###2023-12-09 13:28:29.386904$GNGGA,182828.50,4138.0435149,N,07032.4199850,W,1,24,0.6,13.390,M,-29.745,M,0.0,*54
###2023-12-09 13:28:29.587756$GNGGA,182828.70,4138.0435499,N,07032.4198805,W,1,24,0.6,13.394,M,-29.745,M,0.0,*5B
###2023-12-09 13:28:29.788093$GNGGA,182828.90,4138.0435841,N,07032.4197774,W,1,24,0.6,13.402,M,-29.745,M,0.0,*52
###2023-12-09 13:28:30.006697$GNRMC,182829.10,A,4138.0436191,N,07032.4196756,W,1.52,68.65,091223,,,A*65
###2023-12-09 13:28:30.010148$GNGGA,182829.10,4138.0436191,N,07032.4196756,W,1,24,0.6,13.406,M,-29.745,M,0.0,*59
###2023-12-09 13:28:30.012323$GPGSA,A,3,03,04,16,26,28,29,31,,,,,,1.1,0.6,0.9*3A
###2023-12-09 13:28:30.014391$GLGSA,A,3,65,71,72,73,74,75,,,,,,,1.1,0.6,0.9*24
###2023-12-09 13:28:30.016320$GAGSA,A,3,04,19,21,27,,,,,,,,,1.1,0.6,0.9*26
###2023-12-09 13:28:30.018383$GBGSA,A,3,14,24,25,26,33,35,,,,,,,1.1,0.6,0.9*29
###2023-12-09 13:28:30.021210$GPGSV,2,1,07,03,28,249,41,04,43,309,45,16,63,220,47,26,87,041,48*75
###2023-12-09 13:28:30.023679$GPGSV,2,2,07,28,40,082,41,29,22,049,41,31,61,061,46,,,,*4C
###2023-12-09 13:28:30.026483$GLGSV,2,1,06,65,35,321,44,71,26,175,41,72,66,227,46,73,25,050,41*62
###2023-12-09 13:28:30.028608$GLGSV,2,2,06,74,62,008,42,75,41,267,47,,,,,,,,*6D
###2023-12-09 13:28:30.031423$GAGSV,1,1,04,04,38,311,44,19,74,183,42,21,79,049,46,27,24,049,40*6F
###2023-12-09 13:28:30.034267$GBGSV,2,1,06,14,31,190,42,24,64,043,46,25,49,274,46,26,18,069,40*69
###2023-12-09 13:28:30.036390$GBGSV,2,2,06,33,48,220,47,35,16,059,42,,,,,,,,*69
###2023-12-09 13:28:30.037950$GNVTG,68.65,T,,M,1.52,N,2.81,K,A*13
###2023-12-09 13:28:30.039950$GNGST,182829.10,17.000,,,,0.140,0.095,0.230*50
###2023-12-09 13:28:30.041503$GNZDA,182829.10,09,12,2023,00,00*78
###2023-12-09 13:28:30.042280$GNEBP,,,,,,M*13
###2023-12-09 13:28:30.188204$GNGGA,182829.30,4138.0436512,N,07032.4195714,W,1,24,0.6,13.421,M,-29.745,M,0.0,*54
###2023-12-09 13:28:30.387938$GNGGA,182829.50,4138.0436832,N,07032.4194695,W,1,24,0.6,13.412,M,-29.745,M,0.0,*54
###2023-12-09 13:28:30.589424$GNGGA,182829.70,4138.0437138,N,07032.4193792,W,1,24,0.6,13.425,M,-29.745,M,0.0,*51
###2023-12-09 13:28:30.788863$GNGGA,182829.90,4138.0437488,N,07032.4192925,W,1,24,0.6,13.443,M,-29.745,M,0.0,*52
###2023-12-09 13:28:30.989933$GNRMC,182830.10,A,4138.0437773,N,07032.4191900,W,1.42,76.63,091223,,,A*64
###2023-12-09 13:28:30.992844$GNGGA,182830.10,4138.0437773,N,07032.4191900,W,1,24,0.6,13.452,M,-29.745,M,0.0,*51
###2023-12-09 13:28:30.994670$GPGSA,A,3,03,04,16,26,28,29,31,,,,,,1.1,0.6,0.9*3A
###2023-12-09 13:28:30.996378$GLGSA,A,3,65,71,72,73,74,75,,,,,,,1.1,0.6,0.9*24
###2023-12-09 13:28:30.997959$GAGSA,A,3,04,19,21,27,,,,,,,,,1.1,0.6,0.9*26
###2023-12-09 13:28:30.999670$GBGSA,A,3,14,24,25,26,33,35,,,,,,,1.1,0.6,0.9*29
###2023-12-09 13:28:31.001986$GPGSV,2,1,07,03,28,249,44,04,43,309,47,16,63,220,48,26,87,041,50*74
###2023-12-09 13:28:31.004023$GPGSV,2,2,07,28,40,082,44,29,22,049,42,31,61,061,48,,,,*44
###2023-12-09 13:28:31.006345$GLGSV,2,1,06,65,35,321,44,71,26,175,43,72,66,227,47,73,25,050,40*60
###2023-12-09 13:28:31.008104$GLGSV,2,2,06,74,62,008,42,75,41,267,48,,,,,,,,*62
###2023-12-09 13:28:31.010434$GAGSV,1,1,04,04,38,311,45,19,74,183,42,21,79,049,46,27,24,049,41*6F
###2023-12-09 13:28:31.012776$GBGSV,2,1,06,14,31,190,41,24,64,043,48,25,49,274,47,26,17,069,42*68
###2023-12-09 13:28:31.014522$GBGSV,2,2,06,33,48,220,48,35,16,059,43,,,,,,,,*67
###2023-12-09 13:28:31.015821$GNVTG,76.63,T,,M,1.42,N,2.63,K,A*17
###2023-12-09 13:28:31.017460$GNGST,182830.10,17.000,,,,0.130,0.095,0.230*5F
###2023-12-09 13:28:31.018756$GNZDA,182830.10,09,12,2023,00,00*70
###2023-12-09 13:28:31.019393$GNEBP,,,,,,M*13
###2023-12-09 13:28:31.192499$GNGGA,182830.30,4138.0438003,N,07032.4191023,W,1,24,0.6,13.441,M,-29.745,M,0.0,*56
###2023-12-09 13:28:31.388464$GNGGA,182830.50,4138.0438356,N,07032.4190367,W,1,24,0.6,13.455,M,-29.745,M,0.0,*54
###2023-12-09 13:28:31.586044$GNGGA,182830.70,4138.0438759,N,07032.4189580,W,1,24,0.6,13.470,M,-29.745,M,0.0,*5D
###2023-12-09 13:28:31.788567$GNGGA,182830.90,4138.0439061,N,07032.4188722,W,1,24,0.6,13.482,M,-29.745,M,0.0,*58
###2023-12-09 13:28:31.991474$GNRMC,182831.10,A,4138.0439188,N,07032.4187958,W,0.91,87.36,091223,,,A*62
###2023-12-09 13:28:31.994314$GNGGA,182831.10,4138.0439188,N,07032.4187958,W,1,24,0.6,13.475,M,-29.745,M,0.0,*53
###2023-12-09 13:28:31.996112$GPGSA,A,3,03,04,16,26,28,29,31,,,,,,1.1,0.6,0.9*3A
###2023-12-09 13:28:31.997819$GLGSA,A,3,65,71,72,73,74,75,,,,,,,1.1,0.6,0.9*24
###2023-12-09 13:28:31.999408$GAGSA,A,3,04,19,21,27,,,,,,,,,1.1,0.6,0.9*26
###2023-12-09 13:28:32.001155$GBGSA,A,3,14,24,25,26,33,35,,,,,,,1.1,0.6,0.9*29
###2023-12-09 13:28:32.003495$GPGSV,2,1,07,03,28,249,45,04,43,309,47,16,63,220,48,26,87,041,50*75
###2023-12-09 13:28:32.005535$GPGSV,2,2,07,28,40,082,44,29,22,049,42,31,61,061,47,,,,*4B
###2023-12-09 13:28:32.007863$GLGSV,2,1,06,65,35,321,42,71,26,175,44,72,66,227,47,73,25,050,42*63
###2023-12-09 13:28:32.009602$GLGSV,2,2,06,74,62,008,42,75,41,267,46,,,,,,,,*6C
###2023-12-09 13:28:32.011929$GAGSV,1,1,04,04,38,311,44,19,74,183,42,21,79,049,46,27,24,049,40*6F
###2023-12-09 13:28:32.014252$GBGSV,2,1,06,14,31,190,42,24,64,043,48,25,49,274,45,26,17,069,41*6A
###2023-12-09 13:28:32.016004$GBGSV,2,2,06,33,48,220,46,35,16,059,42,,,,,,,,*68
###2023-12-09 13:28:32.017292$GNVTG,87.36,T,,M,0.91,N,1.69,K,A*1F
###2023-12-09 13:28:32.018959$GNGST,182831.10,17.000,,,,0.130,0.094,0.220*5E
###2023-12-09 13:28:32.020253$GNZDA,182831.10,09,12,2023,00,00*71
###2023-12-09 13:28:32.020890$GNEBP,,,,,,M*13
###2023-12-09 13:28:32.191877$GNGGA,182831.30,4138.0439487,N,07032.4187301,W,1,24,0.6,13.484,M,-29.745,M,0.0,*53
###2023-12-09 13:28:32.387425$GNGGA,182831.50,4138.0439924,N,07032.4186656,W,1,24,0.6,13.500,M,-29.745,M,0.0,*5A
###2023-12-09 13:28:32.593130$GNGGA,182831.70,4138.0440220,N,07032.4185944,W,1,24,0.6,13.511,M,-29.745,M,0.0,*56
###2023-12-09 13:28:32.788333$GNGGA,182831.90,4138.0440343,N,07032.4185215,W,1,24,0.6,13.513,M,-29.745,M,0.0,*51
###2023-12-09 13:28:32.996334$GNRMC,182832.10,A,4138.0440513,N,07032.4184517,W,1.03,58.24,091223,,,A*66
###2023-12-09 13:28:32.999207$GNGGA,182832.10,4138.0440513,N,07032.4184517,W,1,24,0.6,13.520,M,-29.745,M,0.0,*5D
###2023-12-09 13:28:33.001000$GPGSA,A,3,03,04,16,26,28,29,31,,,,,,1.1,0.6,0.9*3A
###2023-12-09 13:28:33.002721$GLGSA,A,3,65,71,72,73,74,75,,,,,,,1.1,0.6,0.9*24
###2023-12-09 13:28:33.004301$GAGSA,A,3,04,19,21,27,,,,,,,,,1.1,0.6,0.9*26
###2023-12-09 13:28:33.006004$GBGSA,A,3,14,24,25,26,33,35,,,,,,,1.1,0.6,0.9*29
###2023-12-09 13:28:33.008324$GPGSV,2,1,07,03,28,249,42,04,43,309,46,16,63,220,48,26,87,041,48*7A
###2023-12-09 13:28:33.010356$GPGSV,2,2,07,28,40,082,43,29,22,049,41,31,61,061,47,,,,*4F
