###2023-12-09 13:30:36.999006$GAGSA,A,3,04,19,21,27,,,,,,,,,1.1,0.6,0.9*26
###2023-12-09 13:30:37.000770$GBGSA,A,3,14,24,25,26,33,35,,,,,,,1.1,0.6,0.9*29
###2023-12-09 13:30:37.003119$GPGSV,2,1,07,03,28,248,42,04,44,309,48,16,64,220,47,26,86,041,48*7B
###2023-12-09 13:30:37.005161$GPGSV,2,2,07,28,39,083,45,29,21,049,41,31,61,063,46,,,,*46
###2023-12-09 13:30:37.007496$GLGSV,2,1,06,65,37,320,46,71,25,175,36,72,65,224,47,73,24,051,41*61
###2023-12-09 13:30:37.009240$GLGSV,2,2,06,74,61,011,43,75,42,269,51,,,,,,,,*6D
###2023-12-09 13:30:37.011574$GAGSV,1,1,04,04,38,310,45,19,74,182,39,21,78,047,45,27,24,050,40*66
###2023-12-09 13:30:37.013891$GBGSV,2,1,06,14,30,190,36,24,64,044,47,25,50,275,50,26,17,070,40*64
###2023-12-09 13:30:37.015654$GBGSV,2,2,06,33,47,218,47,35,16,058,43,,,,,,,,*6D
###2023-12-09 13:30:37.016972$GNVTG,254.41,T,,M,0.12,N,0.22,K,A*26
###2023-12-09 13:30:37.018657$GNGST,183036.10,19.000,,,,0.150,0.085,0.220*58
###2023-12-09 13:30:37.019945$GNZDA,183036.10,09,12,2023,00,00*7F
###2023-12-09 13:30:37.020581$GNEBP,,,,,,M*13
###2023-12-09 13:30:37.189212$GNGGA,183036.30,4138.0347098,N,07032.4132074,W,1,24,0.6,12.597,M,-29.745,M,0.0,*54
###2023-12-09 13:30:37.389038$GNGGA,183036.50,4138.0346997,N,07032.4131400,W,1,23,0.7,12.510,M,-29.745,M,0.0,*58
###2023-12-09 13:30:37.588750$GNGGA,183036.70,4138.0346837,N,07032.4131770,W,1,23,0.7,12.548,M,-29.745,M,0.0,*58
###2023-12-09 13:30:37.788713$GNGGA,183036.90,4138.0346661,N,07032.4132600,W,1,22,0.7,12.547,M,-29.745,M,0.0,*50
###2023-12-09 13:30:37.992825$GNRMC,183037.10,A,4138.0346495,N,07032.4132412,W,0.86,267.47,091223,,,A*5A
###2023-12-09 13:30:37.995704$GNGGA,183037.10,4138.0346495,N,07032.4132412,W,1,22,0.7,12.520,M,-29.745,M,0.0,*50
###2023-12-09 13:30:37.997492$GPGSA,A,3,03,04,16,26,28,29,31,,,,,,1.2,0.7,1.0*30
###2023-12-09 13:30:37.999155$GLGSA,A,3,65,72,73,74,75,,,,,,,,1.2,0.7,1.0*28
###2023-12-09 13:30:38.000734$GAGSA,A,3,04,19,21,27,,,,,,,,,1.2,0.7,1.0*2C
###2023-12-09 13:30:38.002442$GBGSA,A,3,14,24,25,26,33,35,,,,,,,1.2,0.7,1.0*23
###2023-12-09 13:30:38.004783$GPGSV,2,1,07,03,28,248,39,04,44,309,48,16,64,220,46,26,86,041,47*79
###2023-12-09 13:30:38.006837$GPGSV,2,2,07,28,39,083,43,29,21,049,42,31,61,063,45,,,,*40
###2023-12-09 13:30:38.009170$GLGSV,2,1,05,65,37,320,46,72,65,224,45,73,24,051,38,74,61,011,43*6A
###2023-12-09 13:30:38.010666$GLGSV,2,2,05,75,42,269,50,,,,,,,,,,,,*5C
###2023-12-09 13:30:38.012987$GAGSV,1,1,04,04,38,310,45,19,74,182,40,21,78,047,44,27,24,050,39*67
###2023-12-09 13:30:38.015325$GBGSV,2,1,06,14,30,190,36,24,64,044,46,25,50,275,49,26,17,070,39*63
###2023-12-09 13:30:38.017064$GBGSV,2,2,06,33,47,218,46,35,16,058,42,,,,,,,,*6D
###2023-12-09 13:30:38.018387$GNVTG,267.47,T,,M,0.86,N,1.58,K,A*21
###2023-12-09 13:30:38.020036$GNGST,183037.10,19.000,,,,0.140,0.084,0.220*59
###2023-12-09 13:30:38.021326$GNZDA,183037.10,09,12,2023,00,00*7E
###2023-12-09 13:30:38.021964$GNEBP,,,,,,M*13
###2023-12-09 13:30:38.192073$GNGGA,183037.30,4138.0346412,N,07032.4131680,W,1,23,0.7,12.500,M,-29.745,M,0.0,*54
###2023-12-09 13:30:38.389432$GNGGA,183037.50,4138.0346307,N,07032.4131647,W,1,23,0.7,12.475,M,-29.745,M,0.0,*59
###2023-12-09 13:30:38.591890$GNGGA,183037.70,4138.0346245,N,07032.4132143,W,1,23,0.7,12.492,M,-29.745,M,0.0,*55
###2023-12-09 13:30:38.790311$GNGGA,183037.90,4138.0346186,N,07032.4132451,W,1,22,0.7,12.506,M,-29.745,M,0.0,*5C
###2023-12-09 13:30:38.994044$GNRMC,183038.10,A,4138.0346092,N,07032.4132187,W,0.66,94.14,091223,,,A*69
###2023-12-09 13:30:38.997567$GNGGA,183038.10,4138.0346092,N,07032.4132187,W,1,22,0.7,12.539,M,-29.745,M,0.0,*5D
###2023-12-09 13:30:38.999758$GPGSA,A,3,03,04,16,26,28,29,31,,,,,,1.2,0.7,1.0*30
###2023-12-09 13:30:39.001759$GLGSA,A,3,65,72,73,74,75,,,,,,,,1.2,0.7,1.0*28
###2023-12-09 13:30:39.003715$GAGSA,A,3,04,19,21,27,,,,,,,,,1.2,0.7,1.0*2C
###2023-12-09 13:30:39.005796$GBGSA,A,3,14,24,25,26,33,35,,,,,,,1.2,0.7,1.0*23
###2023-12-09 13:30:39.008614$GPGSV,2,1,07,03,28,248,37,04,44,309,44,16,64,220,44,26,86,041,45*7B
###2023-12-09 13:30:39.011094$GPGSV,2,2,07,28,39,083,43,29,21,049,38,31,61,063,43,,,,*4B
###2023-12-09 13:30:39.013915$GLGSV,2,1,05,65,37,320,43,72,65,224,44,73,24,051,36,74,61,011,42*61
###2023-12-09 13:30:39.015684$GLGSV,2,2,05,75,42,269,47,,,,,,,,,,,,*5A
###2023-12-09 13:30:39.018489$GAGSV,1,1,04,04,38,310,44,19,74,182,37,21,78,047,44,27,24,050,37*68
###2023-12-09 13:30:39.021311$GBGSV,2,1,06,14,30,190,36,24,64,044,46,25,50,275,46,26,17,070,41*63
###2023-12-09 13:30:39.023432$GBGSV,2,2,06,33,47,218,43,35,16,058,42,,,,,,,,*68
###2023-12-09 13:30:39.024996$GNVTG,94.14,T,,M,0.66,N,1.22,K,A*1A
###2023-12-09 13:30:39.027001$GNGST,183038.10,19.000,,,,0.140,0.083,0.220*51
###2023-12-09 13:30:39.028567$GNZDA,183038.10,09,12,2023,00,00*71
###2023-12-09 13:30:39.029340$GNEBP,,,,,,M*13
###2023-12-09 13:30:39.198011$GNGGA,183038.30,4138.0345980,N,07032.4131678,W,1,22,0.7,12.524,M,-29.745,M,0.0,*5E
###2023-12-09 13:30:39.390342$GNGGA,183038.50,4138.0345922,N,07032.4131680,W,1,22,0.7,12.489,M,-29.745,M,0.0,*51
###2023-12-09 13:30:39.591026$GNGGA,183038.70,4138.0345875,N,07032.4132160,W,1,23,0.7,12.530,M,-29.745,M,0.0,*58
###2023-12-09 13:30:39.792730$GNGGA,183038.90,4138.0345792,N,07032.4132428,W,1,23,0.7,12.556,M,-29.745,M,0.0,*59
###2023-12-09 13:30:39.991610$GNRMC,183039.10,A,4138.0345711,N,07032.4132077,W,0.70,94.14,091223,,,A*6E
###2023-12-09 13:30:39.995102$GNGGA,183039.10,4138.0345711,N,07032.4132077,W,1,23,0.7,12.569,M,-29.745,M,0.0,*59
###2023-12-09 13:30:39.997264$GPGSA,A,3,03,04,16,26,28,29,31,,,,,,1.2,0.7,0.9*38
###2023-12-09 13:30:39.999268$GLGSA,A,3,65,72,73,74,75,,,,,,,,1.2,0.7,0.9*20
###2023-12-09 13:30:40.001175$GAGSA,A,3,04,19,21,27,,,,,,,,,1.2,0.7,0.9*24
###2023-12-09 13:30:40.003248$GBGSA,A,3,14,24,25,26,33,35,,,,,,,1.2,0.7,0.9*2B
###2023-12-09 13:30:40.006044$GPGSV,2,1,07,03,28,248,38,04,44,309,46,16,64,220,45,26,86,041,47*75
###2023-12-09 13:30:40.008510$GPGSV,2,2,07,28,39,083,44,29,21,049,41,31,61,063,47,,,,*46
###2023-12-09 13:30:40.011325$GLGSV,2,1,05,65,37,320,44,72,65,224,45,73,24,051,41,74,61,011,42*67
###2023-12-09 13:30:40.013067$GLGSV,2,2,05,75,42,269,46,,,,,,,,,,,,*5B
###2023-12-09 13:30:40.015867$GAGSV,1,1,04,04,38,310,46,19,74,182,40,21,78,047,46,27,24,050,39*66
###2023-12-09 13:30:40.018691$GBGSV,2,1,06,14,30,190,36,24,64,044,48,25,50,275,47,26,17,070,42*6F
###2023-12-09 13:30:40.020792$GBGSV,2,2,06,33,47,218,43,35,16,058,43,,,,,,,,*69
###2023-12-09 13:30:40.022338$GNVTG,94.14,T,,M,0.70,N,1.30,K,A*1E
###2023-12-09 13:30:40.024333$GNGST,183039.10,19.000,,,,0.140,0.082,0.220*51
###2023-12-09 13:30:40.025880$GNZDA,183039.10,09,12,2023,00,00*70
###2023-12-09 13:30:40.026687$GNEBP,,,,,,M*13
###2023-12-09 13:30:40.189959$GNGGA,183039.30,4138.0345606,N,07032.4131674,W,1,22,0.7,12.544,M,-29.745,M,0.0,*54
###2023-12-09 13:30:40.393267$GNGGA,183039.50,4138.0345532,N,07032.4131996,W,1,22,0.7,12.566,M,-29.745,M,0.0,*55
###2023-12-09 13:30:40.588934$GNGGA,183039.70,4138.0345540,N,07032.4132475,W,1,23,0.7,12.572,M,-29.745,M,0.0,*55
###2023-12-09 13:30:40.788894$GNGGA,183039.90,4138.0345462,N,07032.4132413,W,1,23,0.7,12.565,M,-29.745,M,0.0,*5C
###2023-12-09 13:30:40.991593$GNRMC,183040.10,A,4138.0345380,N,07032.4132106,W,0.31,94.14,091223,,,A*6E
###2023-12-09 13:30:40.994467$GNGGA,183040.10,4138.0345380,N,07032.4132106,W,1,22,0.7,12.586,M,-29.745,M,0.0,*5C
###2023-12-09 13:30:40.996274$GPGSA,A,3,03,04,16,26,28,29,31,,,,,,1.2,0.7,0.9*38
###2023-12-09 13:30:40.997929$GLGSA,A,3,65,72,73,74,75,,,,,,,,1.2,0.7,0.9*20
###2023-12-09 13:30:40.999517$GAGSA,A,3,04,19,21,27,,,,,,,,,1.2,0.7,0.9*24
###2023-12-09 13:30:41.001160$GBGSA,A,3,24,25,26,33,35,,,,,,,,1.2,0.7,0.9*2E
###2023-12-09 13:30:41.003488$GPGSV,2,1,07,03,28,248,36,04,44,309,46,16,64,220,44,26,86,041,48*75
###2023-12-09 13:30:41.005533$GPGSV,2,2,07,28,39,083,45,29,21,049,43,31,61,063,48,,,,*4A
###2023-12-09 13:30:41.007867$GLGSV,2,1,05,65,37,320,43,72,65,224,45,73,24,051,42,74,61,011,42*63
###2023-12-09 13:30:41.009322$GLGSV,2,2,05,75,42,269,46,,,,,,,,,,,,*5B
###2023-12-09 13:30:41.011652$GAGSV,1,1,04,04,38,310,44,19,74,182,40,21,78,047,46,27,24,050,41*6B
###2023-12-09 13:30:41.013984$GBGSV,2,1,05,24,64,044,49,25,50,275,47,26,17,070,44,33,47,218,45*69
###2023-12-09 13:30:41.015719$GBGSV,2,2,05,35,16,058,44,,,,,,,,,,,,*52
###2023-12-09 13:30:41.017020$GNVTG,94.14,T,,M,0.31,N,0.58,K,A*14
###2023-12-09 13:30:41.018684$GNGST,183040.10,19.000,,,,0.140,0.081,0.220*5C
###2023-12-09 13:30:41.019980$GNZDA,183040.10,09,12,2023,00,00*7E
###2023-12-09 13:30:41.020620$GNEBP,,,,,,M*13
###2023-12-09 13:30:41.190174$GNGGA,183040.30,4138.0345312,N,07032.4132203,W,1,21,0.7,12.605,M,-29.745,M,0.0,*58
###2023-12-09 13:30:41.387622$GNGGA,183040.50,4138.0345303,N,07032.4132505,W,1,22,0.7,12.596,M,-29.745,M,0.0,*55
###2023-12-09 13:30:41.588347$GNGGA,183040.70,4138.0345221,N,07032.4132587,W,1,22,0.7,12.580,M,-29.745,M,0.0,*5B
