###2023-12-09 12:44:24.976188$GNEBP,,,,,,M*13
###2023-12-09 12:44:25.144339$GNGGA,174424.30,4138.0428243,N,07032.3911252,W,1,24,0.6,13.595,M,-29.745,M,0.0,*5A
###2023-12-09 12:44:25.345153$GNGGA,174424.50,4138.0429450,N,07032.3910255,W,1,24,0.6,13.583,M,-29.745,M,0.0,*58
###2023-12-09 12:44:25.544846$GNGGA,174424.70,4138.0430670,N,07032.3909411,W,1,24,0.6,13.560,M,-29.745,M,0.0,*51
###2023-12-09 12:44:25.743558$GNGGA,174424.90,4138.0431944,N,07032.3908729,W,1,24,0.6,13.570,M,-29.745,M,0.0,*5E
###2023-12-09 12:44:25.944892$GNRMC,174425.10,A,4138.0433265,N,07032.3907821,W,2.76,29.30,091223,,,A*69
###2023-12-09 12:44:25.947782$GNGGA,174425.10,4138.0433265,N,07032.3907821,W,1,24,0.6,13.590,M,-29.745,M,0.0,*5B
###2023-12-09 12:44:25.949654$GPGSA,A,3,03,04,16,26,28,29,31,32,,,,,1.1,0.6,0.9*3B
###2023-12-09 12:44:25.951394$GLGSA,A,3,65,71,72,73,74,75,,,,,,,1.1,0.6,0.9*24
###2023-12-09 12:44:25.952991$GAGSA,A,3,04,19,21,27,,,,,,,,,1.1,0.6,0.9*26
###2023-12-09 12:44:25.954654$GBGSA,A,3,14,24,25,26,33,,,,,,,,1.1,0.6,0.9*2F
###2023-12-09 12:44:25.956984$GPGSV,2,1,08,03,38,271,45,04,25,311,42,16,41,209,46,26,71,208,48*76
###2023-12-09 12:44:25.959339$GPGSV,2,2,08,28,55,061,44,29,26,069,39,31,72,015,45,32,26,136,42*73
###2023-12-09 12:44:25.961672$GLGSV,2,1,06,65,16,329,44,71,51,170,46,72,69,300,47,73,44,036,44*61
###2023-12-09 12:44:25.963429$GLGSV,2,2,06,74,71,307,43,75,25,245,42,,,,,,,,*65
###2023-12-09 12:44:25.965748$GAGSV,1,1,04,04,24,312,42,19,84,283,40,21,81,168,45,27,38,049,41*63
###2023-12-09 12:44:25.968091$GBGSV,2,1,05,14,51,196,45,24,79,002,48,25,35,255,46,26,32,059,42*6B
###2023-12-09 12:44:25.969542$GBGSV,2,2,05,33,62,246,48,,,,,,,,,,,,*56
###2023-12-09 12:44:25.970838$GNVTG,29.30,T,,M,2.76,N,5.11,K,A*1D
###2023-12-09 12:44:25.972487$GNGST,174425.10,18.000,,,,0.079,0.072,0.160*52
###2023-12-09 12:44:25.973786$GNZDA,174425.10,09,12,2023,00,00*71
###2023-12-09 12:44:25.974423$GNEBP,,,,,,M*13
###2023-12-09 12:44:26.144735$GNGGA,174425.30,4138.0434558,N,07032.3906913,W,1,24,0.6,13.583,M,-29.745,M,0.0,*54
###2023-12-09 12:44:26.345094$GNGGA,174425.50,4138.0435965,N,07032.3906271,W,1,24,0.6,13.588,M,-29.745,M,0.0,*55
###2023-12-09 12:44:26.545129$GNGGA,174425.70,4138.0437512,N,07032.3905780,W,1,24,0.6,13.592,M,-29.745,M,0.0,*5A
###2023-12-09 12:44:26.745581$GNGGA,174425.90,4138.0438961,N,07032.3904980,W,1,24,0.6,13.577,M,-29.745,M,0.0,*57
###2023-12-09 12:44:26.946906$GNRMC,174426.10,A,4138.0440203,N,07032.3903803,W,2.66,35.85,091223,,,A*68
###2023-12-09 12:44:26.949794$GNGGA,174426.10,4138.0440203,N,07032.3903803,W,1,24,0.6,13.573,M,-29.745,M,0.0,*55
###2023-12-09 12:44:26.951681$GPGSA,A,3,03,04,16,26,28,29,31,32,,,,,1.1,0.6,0.9*3B
###2023-12-09 12:44:26.953412$GLGSA,A,3,65,71,72,73,74,75,,,,,,,1.1,0.6,0.9*24
###2023-12-09 12:44:26.955019$GAGSA,A,3,04,19,21,27,,,,,,,,,1.1,0.6,0.9*26
###2023-12-09 12:44:26.956677$GBGSA,A,3,14,24,25,26,33,,,,,,,,1.1,0.6,0.9*2F
###2023-12-09 12:44:26.959034$GPGSV,2,1,08,03,38,271,43,04,25,311,42,16,41,209,46,26,71,208,47*7F
###2023-12-09 12:44:26.961387$GPGSV,2,2,08,28,55,061,43,29,26,069,37,31,72,015,46,32,26,136,44*7F
###2023-12-09 12:44:26.963782$GLGSV,2,1,06,65,16,329,42,71,51,170,46,72,69,300,46,73,44,036,43*61
###2023-12-09 12:44:26.965547$GLGSV,2,2,06,74,71,307,42,75,25,245,44,,,,,,,,*62
###2023-12-09 12:44:26.967905$GAGSV,1,1,04,04,24,312,42,19,84,283,40,21,81,168,46,27,38,049,43*62
###2023-12-09 12:44:26.970246$GBGSV,2,1,05,14,51,196,45,24,79,002,48,25,35,255,44,26,32,059,42*69
###2023-12-09 12:44:26.971722$GBGSV,2,2,05,33,62,246,47,,,,,,,,,,,,*59
###2023-12-09 12:44:26.973023$GNVTG,35.85,T,,M,2.66,N,4.93,K,A*14
###2023-12-09 12:44:26.974691$GNGST,174426.10,18.000,,,,0.079,0.072,0.160*51
###2023-12-09 12:44:26.975995$GNZDA,174426.10,09,12,2023,00,00*72
###2023-12-09 12:44:26.976639$GNEBP,,,,,,M*13
###2023-12-09 12:44:27.145473$GNGGA,174426.30,4138.0441462,N,07032.3902753,W,1,24,0.6,13.578,M,-29.745,M,0.0,*57
###2023-12-09 12:44:27.345238$GNGGA,174426.50,4138.0442866,N,07032.3901896,W,1,24,0.6,13.584,M,-29.745,M,0.0,*5C
###2023-12-09 12:44:27.546253$GNGGA,174426.70,4138.0444234,N,07032.3900948,W,1,24,0.6,13.571,M,-29.745,M,0.0,*5C
###2023-12-09 12:44:27.745622$GNGGA,174426.90,4138.0445506,N,07032.3899841,W,1,24,0.6,13.600,M,-29.745,M,0.0,*59
###2023-12-09 12:44:27.945886$GNRMC,174427.10,A,4138.0446766,N,07032.3898600,W,2.92,39.82,091223,,,A*67
###2023-12-09 12:44:27.948753$GNGGA,174427.10,4138.0446766,N,07032.3898600,W,1,24,0.6,13.626,M,-29.745,M,0.0,*59
###2023-12-09 12:44:27.950638$GPGSA,A,3,03,04,16,26,28,29,31,32,,,,,1.1,0.6,0.9*3B
###2023-12-09 12:44:27.952351$GLGSA,A,3,65,71,72,73,74,75,,,,,,,1.1,0.6,0.9*24
###2023-12-09 12:44:27.953926$GAGSA,A,3,04,19,21,27,,,,,,,,,1.1,0.6,0.9*26
###2023-12-09 12:44:27.955587$GBGSA,A,3,14,24,25,26,33,,,,,,,,1.1,0.6,0.9*2F
###2023-12-09 12:44:27.957913$GPGSV,2,1,08,03,38,271,45,04,25,311,42,16,41,209,45,26,71,208,48*75
###2023-12-09 12:44:27.960253$GPGSV,2,2,08,28,55,061,43,29,26,069,39,31,72,015,46,32,26,136,42*77
###2023-12-09 12:44:27.962589$GLGSV,2,1,06,65,16,329,44,71,51,170,47,72,69,300,47,73,44,036,44*60
###2023-12-09 12:44:27.964333$GLGSV,2,2,06,74,71,307,42,75,25,245,45,,,,,,,,*63
###2023-12-09 12:44:27.966661$GAGSV,1,1,04,04,24,312,42,19,84,283,40,21,81,168,45,27,38,049,42*60
###2023-12-09 12:44:27.968977$GBGSV,2,1,05,14,51,196,46,24,79,002,49,25,35,255,44,26,32,059,44*6D
###2023-12-09 12:44:27.970425$GBGSV,2,2,05,33,62,246,48,,,,,,,,,,,,*56
###2023-12-09 12:44:27.971722$GNVTG,39.82,T,,M,2.92,N,5.40,K,A*1B
###2023-12-09 12:44:27.973369$GNGST,174427.10,18.000,,,,0.079,0.072,0.160*50
###2023-12-09 12:44:27.974671$GNZDA,174427.10,09,12,2023,00,00*73
###2023-12-09 12:44:27.975310$GNEBP,,,,,,M*13
###2023-12-09 12:44:28.151642$GNGGA,174427.30,4138.0447819,N,07032.3897008,W,1,24,0.6,13.586,M,-29.745,M,0.0,*55
###2023-12-09 12:44:28.346595$GNGGA,174427.50,4138.0448727,N,07032.3895490,W,1,24,0.6,13.555,M,-29.745,M,0.0,*57
###2023-12-09 12:44:28.547059$GNGGA,174427.70,4138.0450068,N,07032.3894380,W,1,24,0.6,13.596,M,-29.745,M,0.0,*58
###2023-12-09 12:44:28.744652$GNGGA,174427.90,4138.0451316,N,07032.3892847,W,1,24,0.6,13.588,M,-29.745,M,0.0,*54
###2023-12-09 12:44:28.945918$GNRMC,174428.10,A,4138.0451961,N,07032.3890940,W,2.72,75.26,091223,,,A*6C
###2023-12-09 12:44:28.948841$GNGGA,174428.10,4138.0451961,N,07032.3890940,W,1,24,0.6,13.580,M,-29.745,M,0.0,*55
###2023-12-09 12:44:28.950739$GPGSA,A,3,03,04,16,26,28,29,31,32,,,,,1.1,0.6,0.9*3B
###2023-12-09 12:44:28.952454$GLGSA,A,3,65,71,72,73,74,75,,,,,,,1.1,0.6,0.9*24
###2023-12-09 12:44:28.954041$GAGSA,A,3,04,19,21,27,,,,,,,,,1.1,0.6,0.9*26
###2023-12-09 12:44:28.955703$GBGSA,A,3,14,24,25,26,33,,,,,,,,1.1,0.6,0.9*2F
###2023-12-09 12:44:28.958023$GPGSV,2,1,08,03,38,271,43,04,25,311,43,16,41,209,42,26,71,208,47*7A
###2023-12-09 12:44:28.960370$GPGSV,2,2,08,28,55,061,43,29,26,069,40,31,72,015,46,32,26,136,40*7B
###2023-12-09 12:44:28.962711$GLGSV,2,1,06,65,16,329,42,71,51,170,47,72,69,300,46,73,44,036,46*65
###2023-12-09 12:44:28.964457$GLGSV,2,2,06,74,71,307,42,75,25,245,45,,,,,,,,*63
###2023-12-09 12:44:28.966790$GAGSV,1,1,04,04,24,312,42,19,84,283,40,21,81,168,45,27,38,049,40*62
###2023-12-09 12:44:28.969109$GBGSV,2,1,05,14,51,196,45,24,79,002,48,25,35,255,46,26,32,059,43*6A
###2023-12-09 12:44:28.970555$GBGSV,2,2,05,33,62,246,48,,,,,,,,,,,,*56
###2023-12-09 12:44:28.971869$GNVTG,75.26,T,,M,2.72,N,5.04,K,A*13
###2023-12-09 12:44:28.973510$GNGST,174428.10,18.000,,,,0.079,0.073,0.160*5E
###2023-12-09 12:44:28.974814$GNZDA,174428.10,09,12,2023,00,00*7C
###2023-12-09 12:44:28.975454$GNEBP,,,,,,M*13
###2023-12-09 12:44:29.144655$GNGGA,174428.30,4138.0452390,N,07032.3889071,W,1,24,0.6,13.583,M,-29.745,M,0.0,*50
###2023-12-09 12:44:29.348322$GNGGA,174428.50,4138.0453203,N,07032.3887270,W,1,24,0.6,13.600,M,-29.745,M,0.0,*59
###2023-12-09 12:44:29.546248$GNGGA,174428.70,4138.0454127,N,07032.3885432,W,1,24,0.6,13.591,M,-29.745,M,0.0,*50
###2023-12-09 12:44:29.744570$GNGGA,174428.90,4138.0454667,N,07032.3883350,W,1,24,0.6,13.567,M,-29.745,M,0.0,*51
###2023-12-09 12:44:29.945847$GNRMC,174429.10,A,4138.0454817,N,07032.3881333,W,2.62,83.39,091223,,,A*60
###2023-12-09 12:44:29.948985$GNGGA,174429.10,4138.0454817,N,07032.3881333,W,1,24,0.6,13.575,M,-29.745,M,0.0,*55
###2023-12-09 12:44:29.950879$GPGSA,A,3,03,04,16,26,28,29,31,32,,,,,1.1,0.6,0.9*3B
###2023-12-09 12:44:29.952601$GLGSA,A,3,65,71,72,73,74,75,,,,,,,1.1,0.6,0.9*24
###2023-12-09 12:44:29.954191$GAGSA,A,3,04,19,21,27,,,,,,,,,1.1,0.6,0.9*26
###2023-12-09 12:44:29.955854$GBGSA,A,3,14,24,25,26,33,,,,,,,,1.1,0.6,0.9*2F
###2023-12-09 12:44:29.958192$GPGSV,2,1,08,03,38,271,45,04,25,311,41,16,41,209,45,26,71,208,47*79
###2023-12-09 12:44:29.960547$GPGSV,2,2,08,28,55,061,44,29,26,069,41,31,72,015,47,32,26,136,40*7C
###2023-12-09 12:44:29.962898$GLGSV,2,1,06,65,16,329,42,71,51,170,46,72,69,300,47,73,44,036,46*65
###2023-12-09 12:44:29.964647$GLGSV,2,2,06,74,71,307,42,75,25,245,44,,,,,,,,*62
###2023-12-09 12:44:29.966992$GAGSV,1,1,04,04,24,312,42,19,84,283,40,21,81,168,46,27,38,049,43*62
