###2023-12-09 12:38:32.963937$GLGSV,2,1,05,71,55,169,47,72,67,307,47,73,46,034,47,74,71,296,43*66
###2023-12-09 12:38:32.965428$GLGSV,2,2,05,75,23,242,41,,,,,,,,,,,,*52
###2023-12-09 12:38:32.967781$GAGSV,1,1,04,04,22,311,43,19,82,296,41,21,79,174,47,27,41,049,45*66
###2023-12-09 12:38:32.970128$GBGSV,2,1,05,14,54,197,46,24,80,351,49,25,33,253,44,26,34,058,46*6F
###2023-12-09 12:38:32.971604$GBGSV,2,2,05,33,63,252,49,,,,,,,,,,,,*53
###2023-12-09 12:38:32.972932$GNVTG,110.02,T,,M,1.75,N,3.24,K,A*27
###2023-12-09 12:38:32.974597$GNGST,173832.10,19.000,,,,0.079,0.068,0.160*55
###2023-12-09 12:38:32.975891$GNZDA,173832.10,09,12,2023,00,00*7C
###2023-12-09 12:38:32.976530$GNEBP,,,,,,M*13
###2023-12-09 12:38:33.139645$GNGGA,173832.30,4138.0548467,N,07032.3700224,W,1,23,0.7,13.558,M,-29.744,M,0.0,*58
###2023-12-09 12:38:33.339956$GNGGA,173832.50,4138.0548128,N,07032.3699055,W,1,23,0.7,13.558,M,-29.744,M,0.0,*55
###2023-12-09 12:38:33.548185$GNGGA,173832.70,4138.0547783,N,07032.3697918,W,1,23,0.7,13.562,M,-29.744,M,0.0,*58
###2023-12-09 12:38:33.745588$GNGGA,173832.90,4138.0547503,N,07032.3696843,W,1,23,0.7,13.560,M,-29.744,M,0.0,*50
###2023-12-09 12:38:33.941788$GNRMC,173833.10,A,4138.0547205,N,07032.3695730,W,1.56,110.64,091223,,,A*51
###2023-12-09 12:38:33.944639$GNGGA,173833.10,4138.0547205,N,07032.3695730,W,1,23,0.7,13.560,M,-29.744,M,0.0,*50
###2023-12-09 12:38:33.946502$GPGSA,A,3,03,04,16,26,28,29,31,32,,,,,1.2,0.7,1.0*31
###2023-12-09 12:38:33.948191$GLGSA,A,3,71,72,73,74,75,,,,,,,,1.2,0.7,1.0*2D
###2023-12-09 12:38:33.949776$GAGSA,A,3,04,19,21,27,,,,,,,,,1.2,0.7,1.0*2C
###2023-12-09 12:38:33.951439$GBGSA,A,3,14,24,25,26,33,,,,,,,,1.2,0.7,1.0*25
###2023-12-09 12:38:33.953763$GPGSV,2,1,08,03,38,275,42,04,23,311,40,16,38,208,43,26,68,207,46*72
###2023-12-09 12:38:33.956113$GPGSV,2,2,08,28,57,058,43,29,25,072,42,31,73,007,46,32,28,135,41*76
###2023-12-09 12:38:33.958454$GLGSV,2,1,05,71,55,169,47,72,67,307,47,73,46,034,47,74,71,296,43*66
###2023-12-09 12:38:33.959924$GLGSV,2,2,05,75,23,242,42,,,,,,,,,,,,*51
###2023-12-09 12:38:33.962256$GAGSV,1,1,04,04,22,311,41,19,82,296,40,21,79,174,45,27,41,049,43*61
###2023-12-09 12:38:33.964600$GBGSV,2,1,05,14,54,197,46,24,80,351,49,25,33,253,45,26,34,058,46*6E
###2023-12-09 12:38:33.966049$GBGSV,2,2,05,33,63,252,49,,,,,,,,,,,,*53
###2023-12-09 12:38:33.967382$GNVTG,110.64,T,,M,1.56,N,2.88,K,A*21
###2023-12-09 12:38:33.969037$GNGST,173833.10,19.000,,,,0.079,0.068,0.160*54
###2023-12-09 12:38:33.970328$GNZDA,173833.10,09,12,2023,00,00*7D
###2023-12-09 12:38:33.970980$GNEBP,,,,,,M*13
###2023-12-09 12:38:34.140128$GNGGA,173833.30,4138.0546885,N,07032.3694715,W,1,23,0.7,13.562,M,-29.744,M,0.0,*55
###2023-12-09 12:38:34.340566$GNGGA,173833.50,4138.0546553,N,07032.3693668,W,1,23,0.7,13.564,M,-29.744,M,0.0,*5F
###2023-12-09 12:38:34.540055$GNGGA,173833.70,4138.0546272,N,07032.3692690,W,1,23,0.7,13.559,M,-29.744,M,0.0,*51
###2023-12-09 12:38:34.738960$GNGGA,173833.90,4138.0546020,N,07032.3691812,W,1,23,0.7,13.554,M,-29.744,M,0.0,*50
###2023-12-09 12:38:34.940377$GNRMC,173834.10,A,4138.0545707,N,07032.3690873,W,1.46,119.30,091223,,,A*57
###2023-12-09 12:38:34.943857$GNGGA,173834.10,4138.0545707,N,07032.3690873,W,1,23,0.7,13.570,M,-29.744,M,0.0,*5E
###2023-12-09 12:38:34.946089$GPGSA,A,3,03,04,16,26,28,29,31,32,,,,,1.2,0.7,1.0*31
###2023-12-09 12:38:34.948138$GLGSA,A,3,71,72,73,74,75,,,,,,,,1.2,0.7,1.0*2D
###2023-12-09 12:38:34.950084$GAGSA,A,3,04,19,21,27,,,,,,,,,1.2,0.7,1.0*2C
###2023-12-09 12:38:34.952093$GBGSA,A,3,14,24,25,26,33,,,,,,,,1.2,0.7,1.0*25
###2023-12-09 12:38:34.954914$GPGSV,2,1,08,03,38,275,44,04,23,311,40,16,38,208,44,26,68,207,47*72
###2023-12-09 12:38:34.957731$GPGSV,2,2,08,28,57,058,44,29,25,072,42,31,73,007,46,32,28,135,42*72
###2023-12-09 12:38:34.960561$GLGSV,2,1,05,71,55,169,47,72,67,307,47,73,46,034,47,74,71,296,43*66
###2023-12-09 12:38:34.962314$GLGSV,2,2,05,75,23,242,44,,,,,,,,,,,,*57
###2023-12-09 12:38:34.965136$GAGSV,1,1,04,04,22,311,40,19,82,296,40,21,79,174,46,27,41,049,42*62
###2023-12-09 12:38:34.967966$GBGSV,2,1,05,14,54,197,46,24,80,351,49,25,33,253,45,26,34,058,46*6E
###2023-12-09 12:38:34.969735$GBGSV,2,2,05,33,63,252,49,,,,,,,,,,,,*53
###2023-12-09 12:38:34.971405$GNVTG,119.30,T,,M,1.46,N,2.70,K,A*2F
###2023-12-09 12:38:34.973396$GNGST,173834.10,19.000,,,,0.080,0.069,0.160*54
###2023-12-09 12:38:34.974981$GNZDA,173834.10,09,12,2023,00,00*7A
###2023-12-09 12:38:34.975754$GNEBP,,,,,,M*13
###2023-12-09 12:38:35.140086$GNGGA,173834.30,4138.0545391,N,07032.3690008,W,1,23,0.7,13.569,M,-29.744,M,0.0,*5B
###2023-12-09 12:38:35.339535$GNGGA,173834.50,4138.0545213,N,07032.3689300,W,1,23,0.7,13.565,M,-29.744,M,0.0,*59
###2023-12-09 12:38:35.547979$GNGGA,173834.70,4138.0544943,N,07032.3688579,W,1,23,0.7,13.576,M,-29.744,M,0.0,*5F
###2023-12-09 12:38:35.739387$GNGGA,173834.90,4138.0544576,N,07032.3687809,W,1,23,0.7,13.590,M,-29.744,M,0.0,*56
###2023-12-09 12:38:35.939729$GNRMC,173835.10,A,4138.0544398,N,07032.3687135,W,0.84,118.05,091223,,,A*50
###2023-12-09 12:38:35.942618$GNGGA,173835.10,4138.0544398,N,07032.3687135,W,1,23,0.7,13.578,M,-29.744,M,0.0,*59
###2023-12-09 12:38:35.944479$GPGSA,A,3,03,04,16,26,28,29,31,32,,,,,1.2,0.7,1.0*31
###2023-12-09 12:38:35.946132$GLGSA,A,3,71,72,73,74,75,,,,,,,,1.2,0.7,1.0*2D
###2023-12-09 12:38:35.947768$GAGSA,A,3,04,19,21,27,,,,,,,,,1.2,0.7,1.0*2C
###2023-12-09 12:38:35.949450$GBGSA,A,3,14,24,25,26,33,,,,,,,,1.2,0.7,1.0*25
###2023-12-09 12:38:35.951843$GPGSV,2,1,08,03,38,275,44,04,23,311,40,16,38,208,44,26,68,207,47*72
###2023-12-09 12:38:35.954188$GPGSV,2,2,08,28,57,058,44,29,25,072,42,31,73,007,46,32,28,135,42*72
###2023-12-09 12:38:35.956545$GLGSV,2,1,05,71,55,169,47,72,67,307,47,73,46,034,47,74,71,296,43*66
###2023-12-09 12:38:35.958007$GLGSV,2,2,05,75,23,242,44,,,,,,,,,,,,*57
###2023-12-09 12:38:35.960354$GAGSV,1,1,04,04,22,311,40,19,82,296,40,21,79,174,46,27,41,049,44*64
###2023-12-09 12:38:35.962695$GBGSV,2,1,05,14,54,197,46,24,80,351,48,25,33,253,45,26,34,058,46*6F
###2023-12-09 12:38:35.964149$GBGSV,2,2,05,33,63,252,48,,,,,,,,,,,,*52
###2023-12-09 12:38:35.965472$GNVTG,118.05,T,,M,0.84,N,1.55,K,A*23
###2023-12-09 12:38:35.967141$GNGST,173835.10,18.000,,,,0.080,0.069,0.160*54
###2023-12-09 12:38:35.968437$GNZDA,173835.10,09,12,2023,00,00*7B
###2023-12-09 12:38:35.969075$GNEBP,,,,,,M*13
###2023-12-09 12:38:36.139109$GNGGA,173835.30,4138.0544268,N,07032.3686552,W,1,23,0.7,13.576,M,-29.744,M,0.0,*5F
###2023-12-09 12:38:36.338900$GNGGA,173835.50,4138.0543950,N,07032.3685947,W,1,23,0.7,13.586,M,-29.744,M,0.0,*5A
###2023-12-09 12:38:36.547242$GNGGA,173835.70,4138.0543666,N,07032.3685390,W,1,23,0.7,13.593,M,-29.744,M,0.0,*56
###2023-12-09 12:38:36.743524$GNGGA,173835.90,4138.0543564,N,07032.3684887,W,1,23,0.7,13.586,M,-29.744,M,0.0,*51
###2023-12-09 12:38:36.940710$GNRMC,173836.10,A,4138.0543445,N,07032.3684426,W,0.72,124.15,091223,,,A*50
###2023-12-09 12:38:36.943554$GNGGA,173836.10,4138.0543445,N,07032.3684426,W,1,23,0.7,13.587,M,-29.744,M,0.0,*5E
###2023-12-09 12:38:36.945399$GPGSA,A,3,03,04,16,26,28,29,31,32,,,,,1.2,0.7,1.0*31
###2023-12-09 12:38:36.947103$GLGSA,A,3,71,72,73,74,75,,,,,,,,1.2,0.7,1.0*2D
###2023-12-09 12:38:36.948745$GAGSA,A,3,04,19,21,27,,,,,,,,,1.2,0.7,1.0*2C
###2023-12-09 12:38:36.950394$GBGSA,A,3,14,24,25,26,33,,,,,,,,1.2,0.7,1.0*25
###2023-12-09 12:38:36.952734$GPGSV,2,1,08,03,38,275,45,04,23,311,42,16,38,208,44,26,68,207,47*71
###2023-12-09 12:38:36.955114$GPGSV,2,2,08,28,57,058,43,29,25,072,43,31,73,007,47,32,28,135,42*75
###2023-12-09 12:38:36.957434$GLGSV,2,1,05,71,55,169,46,72,67,307,48,73,46,034,48,74,71,296,43*67
###2023-12-09 12:38:36.958903$GLGSV,2,2,05,75,23,242,44,,,,,,,,,,,,*57
###2023-12-09 12:38:36.961219$GAGSV,1,1,04,04,22,311,40,19,82,296,40,21,79,174,46,27,40,049,44*65
###2023-12-09 12:38:36.963554$GBGSV,2,1,05,14,54,197,45,24,80,351,49,25,33,253,46,26,34,058,45*6D
###2023-12-09 12:38:36.964999$GBGSV,2,2,05,33,63,252,49,,,,,,,,,,,,*53
###2023-12-09 12:38:36.966313$GNVTG,124.15,T,,M,0.72,N,1.33,K,A*24
###2023-12-09 12:38:36.967967$GNGST,173836.10,19.000,,,,0.079,0.069,0.160*50
###2023-12-09 12:38:36.969253$GNZDA,173836.10,09,12,2023,00,00*78
###2023-12-09 12:38:36.970128$GNEBP,,,,,,M*13
###2023-12-09 12:38:37.139599$GNGGA,173836.30,4138.0543193,N,07032.3683939,W,1,23,0.7,13.603,M,-29.744,M,0.0,*59
###2023-12-09 12:38:37.339935$GNGGA,173836.50,4138.0542985,N,07032.3683490,W,1,23,0.7,13.605,M,-29.744,M,0.0,*59
###2023-12-09 12:38:37.547637$GNGGA,173836.70,4138.0542885,N,07032.3683099,W,1,23,0.7,13.602,M,-29.744,M,0.0,*50
###2023-12-09 12:38:37.747135$GNGGA,173836.90,4138.0542755,N,07032.3682704,W,1,23,0.7,13.593,M,-29.744,M,0.0,*55
###2023-12-09 12:38:37.940734$GNRMC,173837.10,A,4138.0542522,N,07032.3682306,W,0.66,124.15,091223,,,A*56
###2023-12-09 12:38:37.943603$GNGGA,173837.10,4138.0542522,N,07032.3682306,W,1,23,0.7,13.603,M,-29.744,M,0.0,*52
###2023-12-09 12:38:37.945463$GPGSA,A,3,03,04,16,26,28,29,31,32,,,,,1.2,0.7,1.0*31
