###2023-12-09 12:28:19.944640$GBGSV,1,1,03,14,58,200,46,26,37,056,49,33,64,261,41,,,,*5C
###2023-12-09 12:28:19.946018$GNVTG,,T,,M,0.06,N,0.11,K,A*3B
###2023-12-09 12:28:19.947924$GNGST,172819.10,32.000,,,,0.120,0.120,0.280*59
###2023-12-09 12:28:19.949296$GNZDA,172819.10,09,12,2023,00,00*74
###2023-12-09 12:28:19.949988$GNEBP,,,,,,M*13
###2023-12-09 12:28:20.120568$GNGGA,172819.30,4138.0394773,N,07032.4358742,W,1,17,0.8,8.644,M,-29.746,M,0.0,*64
###2023-12-09 12:28:20.321336$GNGGA,172819.50,4138.0394717,N,07032.4358808,W,1,17,0.8,8.715,M,-29.746,M,0.0,*64
###2023-12-09 12:28:20.519766$GNGGA,172819.70,4138.0394653,N,07032.4358882,W,1,17,0.8,8.784,M,-29.746,M,0.0,*6D
###2023-12-09 12:28:20.718633$GNGGA,172819.90,4138.0394590,N,07032.4358949,W,1,17,0.8,8.857,M,-29.746,M,0.0,*68
###2023-12-09 12:28:20.922213$GNRMC,172820.10,A,4138.0394527,N,07032.4359026,W,0.08,,091223,,,A*49
###2023-12-09 12:28:20.925119$GNGGA,172820.10,4138.0394527,N,07032.4359026,W,1,17,0.8,8.925,M,-29.746,M,0.0,*63
###2023-12-09 12:28:20.927018$GPGSA,A,3,03,16,26,28,29,31,32,,,,,,1.5,0.8,1.3*3E
###2023-12-09 12:28:20.928660$GLGSA,A,3,71,72,73,75,,,,,,,,,1.5,0.8,1.3*25
###2023-12-09 12:28:20.930163$GAGSA,A,3,21,27,,,,,,,,,,,1.5,0.8,1.3*2B
###2023-12-09 12:28:20.931807$GBGSA,A,3,14,25,26,33,,,,,,,,,1.5,0.8,1.3*28
###2023-12-09 12:28:20.934176$GPGSV,2,1,07,03,39,281,39,16,34,206,43,26,63,206,42,28,60,052,43*79
###2023-12-09 12:28:20.936278$GPGSV,2,2,07,29,25,077,42,31,73,351,41,32,33,132,45,,,,*40
###2023-12-09 12:28:20.938666$GLGSV,1,1,04,71,60,168,46,72,63,315,42,73,51,031,47,75,19,238,41*6A
###2023-12-09 12:28:20.940457$GAGSV,1,1,02,21,75,179,40,27,44,050,46,,,,,,,,*62
###2023-12-09 12:28:20.942845$GBGSV,1,1,04,14,58,200,46,25,30,250,35,26,37,056,49,33,64,261,41*6E
###2023-12-09 12:28:20.944022$GNVTG,,T,,M,0.08,N,0.14,K,A*30
###2023-12-09 12:28:20.945708$GNGST,172820.10,31.000,,,,0.120,0.120,0.280*50
###2023-12-09 12:28:20.947074$GNZDA,172820.10,09,12,2023,00,00*7E
###2023-12-09 12:28:20.947774$GNEBP,,,,,,M*13
###2023-12-09 12:28:21.124139$GNGGA,172820.30,4138.0394469,N,07032.4359088,W,1,17,0.8,9.001,M,-29.746,M,0.0,*60
###2023-12-09 12:28:21.320673$GNGGA,172820.50,4138.0394418,N,07032.4359180,W,1,16,0.9,9.063,M,-29.746,M,0.0,*6D
###2023-12-09 12:28:21.521034$GNGGA,172820.70,4138.0394369,N,07032.4359256,W,1,16,0.9,9.123,M,-29.746,M,0.0,*63
###2023-12-09 12:28:21.719869$GNGGA,172820.90,4138.0394339,N,07032.4359343,W,1,16,0.9,9.189,M,-29.746,M,0.0,*6D
###2023-12-09 12:28:21.919864$GNRMC,172821.10,A,4138.0394299,N,07032.4359428,W,0.04,,091223,,,A*4C
###2023-12-09 12:28:21.922717$GNGGA,172821.10,4138.0394299,N,07032.4359428,W,1,16,0.9,9.254,M,-29.746,M,0.0,*66
###2023-12-09 12:28:21.924530$GPGSA,A,3,03,16,26,28,29,31,32,,,,,,1.6,0.9,1.3*3C
###2023-12-09 12:28:21.926129$GLGSA,A,3,71,72,73,75,,,,,,,,,1.6,0.9,1.3*27
###2023-12-09 12:28:21.927614$GAGSA,A,3,21,27,,,,,,,,,,,1.6,0.9,1.3*29
###2023-12-09 12:28:21.929146$GBGSA,A,3,14,26,33,,,,,,,,,,1.6,0.9,1.3*2D
###2023-12-09 12:28:21.931503$GPGSV,2,1,07,03,39,281,38,16,34,206,42,26,63,206,40,28,60,052,42*7A
###2023-12-09 12:28:21.933555$GPGSV,2,2,07,29,25,077,41,31,73,351,41,32,33,132,44,,,,*42
###2023-12-09 12:28:21.935913$GLGSV,1,1,04,71,60,168,46,72,63,315,41,73,51,031,47,75,19,238,41*69
###2023-12-09 12:28:21.937673$GAGSV,1,1,02,21,75,179,40,27,44,050,45,,,,,,,,*61
###2023-12-09 12:28:21.939732$GBGSV,1,1,03,14,58,200,46,26,37,056,49,33,64,261,41,,,,*5C
###2023-12-09 12:28:21.940879$GNVTG,,T,,M,0.04,N,0.07,K,A*3E
###2023-12-09 12:28:21.942532$GNGST,172821.10,32.000,,,,0.120,0.120,0.290*53
###2023-12-09 12:28:21.943844$GNZDA,172821.10,09,12,2023,00,00*7F
###2023-12-09 12:28:21.944493$GNEBP,,,,,,M*13
###2023-12-09 12:28:22.119540$GNGGA,172821.30,4138.0394255,N,07032.4359511,W,1,16,0.9,9.317,M,-29.746,M,0.0,*69
###2023-12-09 12:28:22.320173$GNGGA,172821.50,4138.0394193,N,07032.4359579,W,1,16,0.9,9.377,M,-29.746,M,0.0,*6E
###2023-12-09 12:28:22.518642$GNGGA,172821.70,4138.0394144,N,07032.4359657,W,1,16,0.9,9.441,M,-29.746,M,0.0,*6B
###2023-12-09 12:28:22.719002$GNGGA,172821.90,4138.0394103,N,07032.4359762,W,1,16,0.9,9.494,M,-29.746,M,0.0,*69
###2023-12-09 12:28:22.924228$GNRMC,172822.10,A,4138.0394057,N,07032.4359842,W,0.02,,091223,,,A*49
###2023-12-09 12:28:22.927086$GNGGA,172822.10,4138.0394057,N,07032.4359842,W,1,16,0.9,9.549,M,-29.746,M,0.0,*6E
###2023-12-09 12:28:22.928899$GPGSA,A,3,03,16,26,28,29,31,32,,,,,,1.6,0.9,1.3*3C
###2023-12-09 12:28:22.930495$GLGSA,A,3,71,72,73,75,,,,,,,,,1.6,0.9,1.3*27
###2023-12-09 12:28:22.931971$GAGSA,A,3,21,27,,,,,,,,,,,1.6,0.9,1.3*29
###2023-12-09 12:28:22.933515$GBGSA,A,3,14,26,33,,,,,,,,,,1.6,0.9,1.3*2D
###2023-12-09 12:28:22.935889$GPGSV,2,1,07,03,39,281,39,16,34,206,44,26,63,206,41,28,60,052,43*7D
###2023-12-09 12:28:22.937943$GPGSV,2,2,07,29,25,077,42,31,73,351,42,32,33,132,45,,,,*43
###2023-12-09 12:28:22.940298$GLGSV,1,1,04,71,60,168,47,72,63,315,41,73,51,031,47,75,19,238,41*68
###2023-12-09 12:28:22.942055$GAGSV,1,1,02,21,75,179,41,27,44,050,46,,,,,,,,*63
###2023-12-09 12:28:22.944120$GBGSV,1,1,03,14,58,200,46,26,37,056,48,33,64,261,40,,,,*5C
###2023-12-09 12:28:22.945268$GNVTG,,T,,M,0.02,N,0.04,K,A*3B
###2023-12-09 12:28:22.946999$GNGST,172822.10,32.000,,,,0.120,0.120,0.290*50
###2023-12-09 12:28:22.948339$GNZDA,172822.10,09,12,2023,00,00*7C
###2023-12-09 12:28:22.948999$GNEBP,,,,,,M*13
###2023-12-09 12:28:23.119578$GNGGA,172822.30,4138.0394010,N,07032.4359919,W,1,16,0.9,9.607,M,-29.746,M,0.0,*69
###2023-12-09 12:28:23.320188$GNGGA,172822.50,4138.0393974,N,07032.4359999,W,1,16,0.9,9.660,M,-29.746,M,0.0,*6A
###2023-12-09 12:28:23.521791$GNGGA,172822.70,4138.0393934,N,07032.4360079,W,1,16,0.9,9.709,M,-29.746,M,0.0,*6F
###2023-12-09 12:28:23.718761$GNGGA,172822.90,4138.0393900,N,07032.4360159,W,1,16,0.9,9.760,M,-29.746,M,0.0,*6A
###2023-12-09 12:28:23.919183$GNRMC,172823.10,A,4138.0393846,N,07032.4360227,W,0.02,,091223,,,A*44
###2023-12-09 12:28:23.922024$GNGGA,172823.10,4138.0393846,N,07032.4360227,W,1,16,0.9,9.813,M,-29.746,M,0.0,*61
###2023-12-09 12:28:23.923861$GPGSA,A,3,03,16,26,28,29,31,32,,,,,,1.6,0.9,1.3*3C
###2023-12-09 12:28:23.925457$GLGSA,A,3,71,72,73,75,,,,,,,,,1.6,0.9,1.3*27
###2023-12-09 12:28:23.926946$GAGSA,A,3,21,27,,,,,,,,,,,1.6,0.9,1.3*29
###2023-12-09 12:28:23.928477$GBGSA,A,3,14,26,33,,,,,,,,,,1.6,0.9,1.3*2D
###2023-12-09 12:28:23.930821$GPGSV,2,1,07,03,39,281,39,16,34,206,44,26,63,206,41,28,60,052,43*7D
###2023-12-09 12:28:23.932871$GPGSV,2,2,07,29,25,077,42,31,73,351,42,32,33,132,45,,,,*43
###2023-12-09 12:28:23.935228$GLGSV,1,1,04,71,60,168,46,72,63,315,42,73,51,031,47,75,19,238,41*6A
###2023-12-09 12:28:23.936994$GAGSV,1,1,02,21,75,179,41,27,44,050,46,,,,,,,,*63
###2023-12-09 12:28:23.939056$GBGSV,1,1,03,14,58,200,45,26,37,056,48,33,64,261,40,,,,*5F
###2023-12-09 12:28:23.940200$GNVTG,,T,,M,0.02,N,0.04,K,A*3B
###2023-12-09 12:28:23.941861$GNGST,172823.10,32.000,,,,0.120,0.120,0.290*51
###2023-12-09 12:28:23.943181$GNZDA,172823.10,09,12,2023,00,00*7D
###2023-12-09 12:28:23.943835$GNEBP,,,,,,M*13
###2023-12-09 12:28:24.119416$GNGGA,172823.30,4138.0393804,N,07032.4360314,W,1,16,0.9,9.868,M,-29.746,M,0.0,*68
###2023-12-09 12:28:24.319679$GNGGA,172823.50,4138.0393774,N,07032.4360400,W,1,16,0.9,9.911,M,-29.746,M,0.0,*6B
###2023-12-09 12:28:24.521044$GNGGA,172823.70,4138.0393734,N,07032.4360467,W,1,16,0.9,9.956,M,-29.746,M,0.0,*6F
###2023-12-09 12:28:24.718611$GNGGA,172823.90,4138.0393703,N,07032.4360564,W,1,16,0.9,9.998,M,-29.746,M,0.0,*65
###2023-12-09 12:28:24.921258$GNRMC,172824.10,A,4138.0393668,N,07032.4360652,W,0.04,,091223,,,A*41
###2023-12-09 12:28:24.924169$GNGGA,172824.10,4138.0393668,N,07032.4360652,W,1,16,0.9,10.044,M,-29.746,M,0.0,*50
###2023-12-09 12:28:24.925996$GPGSA,A,3,03,16,26,28,29,31,32,,,,,,1.6,0.9,1.3*3C
###2023-12-09 12:28:24.927620$GLGSA,A,3,71,72,73,75,,,,,,,,,1.6,0.9,1.3*27
###2023-12-09 12:28:24.929093$GAGSA,A,3,21,27,,,,,,,,,,,1.6,0.9,1.3*29
###2023-12-09 12:28:24.930651$GBGSA,A,3,14,26,33,,,,,,,,,,1.6,0.9,1.3*2D
###2023-12-09 12:28:24.933013$GPGSV,2,1,07,03,39,281,38,16,34,206,43,26,63,206,40,28,60,052,42*7B
###2023-12-09 12:28:24.935098$GPGSV,2,2,07,29,25,077,41,31,73,351,42,32,33,132,44,,,,*41
###2023-12-09 12:28:24.937757$GLGSV,1,1,04,71,60,168,46,72,63,315,41,73,51,031,47,75,19,238,41*69
###2023-12-09 12:28:24.939593$GAGSV,1,1,02,21,75,179,40,27,44,050,46,,,,,,,,*62
###2023-12-09 12:28:24.941682$GBGSV,1,1,03,14,58,200,45,26,37,056,47,33,64,261,39,,,,*5E
###2023-12-09 12:28:24.942856$GNVTG,,T,,M,0.04,N,0.07,K,A*3E
###2023-12-09 12:28:24.944526$GNGST,172824.10,32.000,,,,0.120,0.130,0.290*57
###2023-12-09 12:28:24.945841$GNZDA,172824.10,09,12,2023,00,00*7A
###2023-12-09 12:28:24.946512$GNEBP,,,,,,M*13
