###2023-12-09 13:31:15.004241$GPGSV,2,1,07,03,27,247,36,04,45,308,44,16,64,220,45,26,86,041,48*76
###2023-12-09 13:31:15.006303$GPGSV,2,2,07,28,39,083,46,29,21,049,40,31,61,063,46,,,,*44
###2023-12-09 13:31:15.008657$GLGSV,2,1,06,65,37,320,42,71,24,175,41,72,64,223,45,73,23,051,42*64
###2023-12-09 13:31:15.010398$GLGSV,2,2,06,74,61,011,42,75,42,269,43,,,,,,,,*6F
###2023-12-09 13:31:15.012728$GAGSV,1,1,04,04,39,310,42,19,73,182,41,21,78,047,46,27,23,050,39*62
###2023-12-09 13:31:15.015061$GBGSV,2,1,06,14,30,190,40,24,64,044,48,25,50,275,45,26,17,070,44*6A
###2023-12-09 13:31:15.016796$GBGSV,2,2,06,33,47,218,46,35,16,058,43,,,,,,,,*6C
###2023-12-09 13:31:15.018113$GNVTG,272.83,T,,M,2.27,N,4.21,K,A*2F
###2023-12-09 13:31:15.019776$GNGST,183114.10,19.000,,,,0.120,0.079,0.200*5F
###2023-12-09 13:31:15.021064$GNZDA,183114.10,09,12,2023,00,00*7E
###2023-12-09 13:31:15.021701$GNEBP,,,,,,M*13
###2023-12-09 13:31:15.191884$GNGGA,183114.30,4138.0371721,N,07032.4134772,W,1,23,0.7,13.217,M,-29.745,M,0.0,*5A
###2023-12-09 13:31:15.386765$GNGGA,183114.50,4138.0371757,N,07032.4136470,W,1,23,0.7,13.224,M,-29.745,M,0.0,*5E
###2023-12-09 13:31:15.588009$GNGGA,183114.70,4138.0371714,N,07032.4138231,W,1,24,0.6,13.229,M,-29.745,M,0.0,*5D
###2023-12-09 13:31:15.788820$GNGGA,183114.90,4138.0371661,N,07032.4140042,W,1,24,0.7,13.224,M,-29.745,M,0.0,*55
###2023-12-09 13:31:15.992807$GNRMC,183115.10,A,4138.0371498,N,07032.4141818,W,2.45,258.71,091223,,,A*54
###2023-12-09 13:31:15.995690$GNGGA,183115.10,4138.0371498,N,07032.4141818,W,1,24,0.7,13.231,M,-29.745,M,0.0,*5A
###2023-12-09 13:31:15.997485$GPGSA,A,3,03,04,16,26,28,29,31,,,,,,1.1,0.7,0.9*3B
###2023-12-09 13:31:15.999276$GLGSA,A,3,65,71,72,73,74,75,83,,,,,,1.1,0.7,0.9*2E
###2023-12-09 13:31:16.000864$GAGSA,A,3,04,19,21,27,,,,,,,,,1.1,0.7,0.9*27
###2023-12-09 13:31:16.002582$GBGSA,A,3,14,24,25,26,33,35,,,,,,,1.1,0.7,0.9*28
###2023-12-09 13:31:16.004909$GPGSV,2,1,07,03,27,247,38,04,45,308,44,16,64,220,46,26,86,041,48*7B
###2023-12-09 13:31:16.006957$GPGSV,2,2,07,28,39,083,45,29,21,049,42,31,61,063,46,,,,*45
###2023-12-09 13:31:16.009287$GLGSV,2,1,07,65,37,320,43,71,24,175,39,72,64,223,45,73,23,051,42*6B
###2023-12-09 13:31:16.011331$GLGSV,2,2,07,74,61,011,43,75,42,269,43,83,15,049,36,,,,*58
###2023-12-09 13:31:16.013654$GAGSV,1,1,04,04,39,310,43,19,73,182,41,21,78,047,46,27,23,050,39*63
###2023-12-09 13:31:16.015996$GBGSV,2,1,06,14,30,190,40,24,64,044,48,25,50,275,46,26,17,070,44*69
###2023-12-09 13:31:16.017738$GBGSV,2,2,06,33,47,218,47,35,16,058,44,,,,,,,,*6A
###2023-12-09 13:31:16.019104$GNVTG,258.71,T,,M,2.45,N,4.54,K,A*2C
###2023-12-09 13:31:16.020750$GNGST,183115.10,18.000,,,,0.120,0.079,0.200*5F
###2023-12-09 13:31:16.022039$GNZDA,183115.10,09,12,2023,00,00*7F
###2023-12-09 13:31:16.022697$GNEBP,,,,,,M*13
###2023-12-09 13:31:16.190885$GNGGA,183115.30,4138.0371223,N,07032.4143611,W,1,24,0.7,13.235,M,-29.745,M,0.0,*5F
###2023-12-09 13:31:16.388890$GNGGA,183115.50,4138.0370937,N,07032.4145413,W,1,23,0.7,13.244,M,-29.745,M,0.0,*51
###2023-12-09 13:31:16.588023$GNGGA,183115.70,4138.0370547,N,07032.4147216,W,1,22,0.9,13.240,M,-29.745,M,0.0,*52
###2023-12-09 13:31:16.788615$GNGGA,183115.90,4138.0370044,N,07032.4148891,W,1,23,0.7,13.249,M,-29.745,M,0.0,*56
###2023-12-09 13:31:16.992445$GNRMC,183116.10,A,4138.0369470,N,07032.4150477,W,2.33,242.22,091223,,,A*51
###2023-12-09 13:31:16.995312$GNGGA,183116.10,4138.0369470,N,07032.4150477,W,1,23,0.7,13.243,M,-29.745,M,0.0,*51
###2023-12-09 13:31:16.997101$GPGSA,A,3,03,04,16,26,28,29,31,,,,,,1.1,0.7,0.9*3B
###2023-12-09 13:31:16.998833$GLGSA,A,3,65,72,73,74,75,83,,,,,,,1.1,0.7,0.9*28
###2023-12-09 13:31:17.000413$GAGSA,A,3,04,19,21,27,,,,,,,,,1.1,0.7,0.9*27
###2023-12-09 13:31:17.002058$GBGSA,A,3,24,25,26,33,35,,,,,,,,1.1,0.7,0.9*2D
###2023-12-09 13:31:17.004390$GPGSV,2,1,07,03,27,247,38,04,45,308,44,16,65,221,45,26,86,041,47*77
###2023-12-09 13:31:17.006420$GPGSV,2,2,07,28,39,083,44,29,21,049,42,31,61,063,46,,,,*44
###2023-12-09 13:31:17.008759$GLGSV,2,1,06,65,37,320,43,72,64,223,45,73,23,051,42,74,61,011,43*60
###2023-12-09 13:31:17.010503$GLGSV,2,2,06,75,42,269,45,83,15,049,37,,,,,,,,*6D
###2023-12-09 13:31:17.012841$GAGSV,1,1,04,04,39,310,44,19,73,182,40,21,78,047,46,27,23,050,40*6B
###2023-12-09 13:31:17.015179$GBGSV,2,1,05,24,64,044,49,25,50,275,46,26,17,070,44,33,47,218,42*6F
###2023-12-09 13:31:17.016629$GBGSV,2,2,05,35,16,058,45,,,,,,,,,,,,*53
###2023-12-09 13:31:17.017942$GNVTG,242.22,T,,M,2.33,N,4.32,K,A*20
###2023-12-09 13:31:17.019559$GNGST,183116.10,6.000,,,,0.120,0.079,0.200*63
###2023-12-09 13:31:17.020846$GNZDA,183116.10,09,12,2023,00,00*7C
###2023-12-09 13:31:17.021483$GNEBP,,,,,,M*13
###2023-12-09 13:31:17.187719$GNGGA,183116.30,4138.0368844,N,07032.4151979,W,1,23,0.7,13.246,M,-29.745,M,0.0,*5E
###2023-12-09 13:31:17.386818$GNGGA,183116.50,4138.0368227,N,07032.4153436,W,1,24,0.7,13.251,M,-29.745,M,0.0,*52
###2023-12-09 13:31:17.592729$GNGGA,183116.70,4138.0367586,N,07032.4154909,W,1,24,0.7,13.261,M,-29.745,M,0.0,*56
###2023-12-09 13:31:17.787620$GNGGA,183116.90,4138.0366891,N,07032.4156433,W,1,22,0.9,13.266,M,-29.745,M,0.0,*5B
###2023-12-09 13:31:17.990393$GNRMC,183117.10,A,4138.0366184,N,07032.4158020,W,2.53,240.08,091223,,,A*53
###2023-12-09 13:31:17.993275$GNGGA,183117.10,4138.0366184,N,07032.4158020,W,1,23,0.8,13.278,M,-29.745,M,0.0,*58
###2023-12-09 13:31:17.995074$GPGSA,A,3,03,04,16,26,28,29,31,,,,,,1.2,0.8,0.9*37
###2023-12-09 13:31:17.996786$GLGSA,A,3,65,72,73,74,75,83,,,,,,,1.2,0.8,0.9*24
###2023-12-09 13:31:17.998364$GAGSA,A,3,04,19,21,27,,,,,,,,,1.2,0.8,0.9*2B
###2023-12-09 13:31:18.000019$GBGSA,A,3,24,25,26,33,35,,,,,,,,1.2,0.8,0.9*21
###2023-12-09 13:31:18.002339$GPGSV,2,1,07,03,27,247,36,04,45,308,45,16,65,221,46,26,86,041,48*74
###2023-12-09 13:31:18.004388$GPGSV,2,2,07,28,39,083,43,29,21,049,43,31,61,063,47,,,,*43
###2023-12-09 13:31:18.006734$GLGSV,2,1,06,65,37,320,43,72,64,223,45,73,23,051,43,74,61,011,43*61
###2023-12-09 13:31:18.008480$GLGSV,2,2,06,75,42,269,46,83,15,049,37,,,,,,,,*6E
###2023-12-09 13:31:18.010805$GAGSV,1,1,04,04,39,310,44,19,73,182,40,21,78,047,46,27,23,050,41*6A
###2023-12-09 13:31:18.013127$GBGSV,2,1,05,24,64,044,48,25,50,275,46,26,17,070,44,33,47,218,46*6A
###2023-12-09 13:31:18.014615$GBGSV,2,2,05,35,16,058,45,,,,,,,,,,,,*53
###2023-12-09 13:31:18.015943$GNVTG,240.08,T,,M,2.53,N,4.68,K,A*23
###2023-12-09 13:31:18.017552$GNGST,183117.10,5.800,,,,0.120,0.079,0.200*69
###2023-12-09 13:31:18.018849$GNZDA,183117.10,09,12,2023,00,00*7D
###2023-12-09 13:31:18.019488$GNEBP,,,,,,M*13
###2023-12-09 13:31:18.190086$GNGGA,183117.30,4138.0365431,N,07032.4159703,W,1,22,0.8,13.285,M,-29.745,M,0.0,*56
###2023-12-09 13:31:18.388969$GNGGA,183117.50,4138.0364660,N,07032.4161494,W,1,22,0.9,13.287,M,-29.745,M,0.0,*52
###2023-12-09 13:31:18.590506$GNGGA,183117.70,4138.0363837,N,07032.4163364,W,1,22,0.7,13.290,M,-29.745,M,0.0,*59
###2023-12-09 13:31:18.787950$GNGGA,183117.90,4138.0363038,N,07032.4165268,W,1,23,0.7,13.290,M,-29.745,M,0.0,*5A
###2023-12-09 13:31:18.989207$GNRMC,183118.10,A,4138.0362241,N,07032.4167195,W,2.95,240.90,091223,,,A*5A
###2023-12-09 13:31:18.992097$GNGGA,183118.10,4138.0362241,N,07032.4167195,W,1,22,0.8,13.295,M,-29.745,M,0.0,*58
###2023-12-09 13:31:18.993823$GPGSA,A,3,04,16,26,28,29,31,,,,,,,1.3,0.8,1.0*3D
###2023-12-09 13:31:18.995543$GLGSA,A,3,65,72,73,74,75,83,,,,,,,1.3,0.8,1.0*2D
###2023-12-09 13:31:18.997123$GAGSA,A,3,04,19,21,27,,,,,,,,,1.3,0.8,1.0*22
###2023-12-09 13:31:18.998786$GBGSA,A,3,24,25,26,33,35,,,,,,,,1.3,0.8,1.0*28
###2023-12-09 13:31:19.001116$GPGSV,2,1,06,04,45,308,45,16,65,221,46,26,86,041,47,28,39,083,43*74
###2023-12-09 13:31:19.002878$GPGSV,2,2,06,29,21,049,41,31,61,063,46,,,,,,,,*7D
###2023-12-09 13:31:19.005208$GLGSV,2,1,06,65,37,320,42,72,64,223,45,73,23,051,42,74,61,011,43*61
###2023-12-09 13:31:19.006966$GLGSV,2,2,06,75,42,269,46,83,15,049,37,,,,,,,,*6E
###2023-12-09 13:31:19.009286$GAGSV,1,1,04,04,39,310,44,19,73,182,41,21,78,047,46,27,23,050,40*6A
###2023-12-09 13:31:19.011621$GBGSV,2,1,05,24,64,044,48,25,50,275,45,26,17,070,43,33,47,218,47*6F
###2023-12-09 13:31:19.013079$GBGSV,2,2,05,35,16,058,45,,,,,,,,,,,,*53
###2023-12-09 13:31:19.014658$GNVTG,240.90,T,,M,2.95,N,5.47,K,A*24
###2023-12-09 13:31:19.016282$GNGST,183118.10,5.800,,,,0.130,0.079,0.200*67
###2023-12-09 13:31:19.017574$GNZDA,183118.10,09,12,2023,00,00*72
###2023-12-09 13:31:19.018215$GNEBP,,,,,,M*13
###2023-12-09 13:31:19.190786$GNGGA,183118.30,4138.0361463,N,07032.4169108,W,1,22,0.8,13.302,M,-29.745,M,0.0,*5A
###2023-12-09 13:31:19.387784$GNGGA,183118.50,4138.0360714,N,07032.4171016,W,1,22,0.8,13.304,M,-29.745,M,0.0,*5F
###2023-12-09 13:31:19.587316$GNGGA,183118.70,4138.0359982,N,07032.4172868,W,1,21,0.9,13.304,M,-29.745,M,0.0,*56
###2023-12-09 13:31:19.788085$GNGGA,183118.90,4138.0359348,N,07032.4174736,W,1,22,0.9,13.313,M,-29.745,M,0.0,*53
###2023-12-09 13:31:19.990251$GNRMC,183119.10,A,4138.0358766,N,07032.4176570,W,2.66,248.95,091223,,,A*5C
