###2023-12-09 12:33:36.942942$GLGSA,A,3,71,72,73,74,75,,,,,,,,1.2,0.7,1.0*2D
###2023-12-09 12:33:36.944550$GAGSA,A,3,04,19,21,27,,,,,,,,,1.2,0.7,1.0*2C
###2023-12-09 12:33:36.946199$GBGSA,A,3,14,24,25,26,33,,,,,,,,1.2,0.7,1.0*25
###2023-12-09 12:33:36.948612$GPGSV,2,1,08,03,39,278,44,04,21,310,42,16,36,207,48,26,65,206,50*78
###2023-12-09 12:33:36.950993$GPGSV,2,2,08,28,58,055,45,29,25,075,41,31,73,358,44,32,31,134,45*70
###2023-12-09 12:33:36.953318$GLGSV,2,1,05,71,58,169,48,72,65,311,36,73,49,033,44,74,71,287,38*60
###2023-12-09 12:33:36.954787$GLGSV,2,2,05,75,21,240,36,,,,,,,,,,,,*52
###2023-12-09 12:33:36.957107$GAGSV,1,1,04,04,20,311,41,19,81,304,40,21,77,177,46,27,42,050,41*6D
###2023-12-09 12:33:36.959460$GBGSV,2,1,05,14,55,198,44,24,81,343,46,25,32,252,43,26,35,057,40*61
###2023-12-09 12:33:36.960913$GBGSV,2,2,05,33,63,257,50,,,,,,,,,,,,*5E
###2023-12-09 12:33:36.962232$GNVTG,100.99,T,,M,0.21,N,0.40,K,A*25
###2023-12-09 12:33:36.963889$GNGST,173336.10,20.000,,,,0.097,0.087,0.210*55
###2023-12-09 12:33:36.965179$GNZDA,173336.10,09,12,2023,00,00*73
###2023-12-09 12:33:36.965819$GNEBP,,,,,,M*13
###2023-12-09 12:33:37.131524$GNGGA,173336.30,4138.0453989,N,07032.4283515,W,1,22,0.7,12.760,M,-29.745,M,0.0,*55
###2023-12-09 12:33:37.333516$GNGGA,173336.50,4138.0454175,N,07032.4283640,W,1,22,0.7,12.783,M,-29.745,M,0.0,*51
###2023-12-09 12:33:37.531659$GNGGA,173336.70,4138.0454266,N,07032.4283727,W,1,21,0.7,12.785,M,-29.745,M,0.0,*57
###2023-12-09 12:33:37.730675$GNGGA,173336.90,4138.0454369,N,07032.4283705,W,1,21,0.7,12.787,M,-29.745,M,0.0,*55
###2023-12-09 12:33:37.933577$GNRMC,173337.10,A,4138.0454487,N,07032.4283673,W,0.16,100.99,091223,,,A*55
###2023-12-09 12:33:37.937092$GNGGA,173337.10,4138.0454487,N,07032.4283673,W,1,21,0.7,12.794,M,-29.745,M,0.0,*59
###2023-12-09 12:33:37.939366$GPGSA,A,3,03,04,16,26,28,29,31,32,,,,,1.3,0.7,1.1*31
###2023-12-09 12:33:37.941293$GLGSA,A,3,71,72,73,74,,,,,,,,,1.3,0.7,1.1*2F
###2023-12-09 12:33:37.943237$GAGSA,A,3,04,19,21,27,,,,,,,,,1.3,0.7,1.1*2C
###2023-12-09 12:33:37.945227$GBGSA,A,3,14,24,25,26,33,,,,,,,,1.3,0.7,1.1*25
###2023-12-09 12:33:37.948085$GPGSV,2,1,08,03,39,278,43,04,21,310,37,16,36,207,43,26,65,206,47*70
###2023-12-09 12:33:37.950964$GPGSV,2,2,08,28,58,055,48,29,25,075,41,31,73,358,47,32,31,134,43*78
###2023-12-09 12:33:37.953780$GLGSV,1,1,04,71,58,169,50,72,65,311,45,73,49,033,48,74,71,287,44*68
###2023-12-09 12:33:37.956618$GAGSV,1,1,04,04,20,311,37,19,81,304,40,21,77,177,47,27,42,050,42*6E
###2023-12-09 12:33:37.959491$GBGSV,2,1,05,14,55,198,46,24,81,343,48,25,32,252,44,26,35,057,43*69
###2023-12-09 12:33:37.961256$GBGSV,2,2,05,33,63,255,51,,,,,,,,,,,,*5D
###2023-12-09 12:33:37.962873$GNVTG,100.99,T,,M,0.16,N,0.29,K,A*2E
###2023-12-09 12:33:37.964861$GNGST,173337.10,20.000,,,,0.097,0.087,0.210*54
###2023-12-09 12:33:37.966418$GNZDA,173337.10,09,12,2023,00,00*72
###2023-12-09 12:33:37.967211$GNEBP,,,,,,M*13
###2023-12-09 12:33:38.132576$GNGGA,173337.30,4138.0454508,N,07032.4283657,W,1,22,0.7,12.779,M,-29.745,M,0.0,*5B
###2023-12-09 12:33:38.332658$GNGGA,173337.50,4138.0454482,N,07032.4283636,W,1,22,0.7,12.754,M,-29.745,M,0.0,*56
###2023-12-09 12:33:38.532595$GNGGA,173337.70,4138.0454491,N,07032.4283557,W,1,22,0.7,12.742,M,-29.745,M,0.0,*55
###2023-12-09 12:33:38.730642$GNGGA,173337.90,4138.0454463,N,07032.4283469,W,1,22,0.7,12.735,M,-29.745,M,0.0,*5A
###2023-12-09 12:33:38.934964$GNRMC,173338.10,A,4138.0454473,N,07032.4283408,W,0.10,100.99,091223,,,A*59
###2023-12-09 12:33:38.937833$GNGGA,173338.10,4138.0454473,N,07032.4283408,W,1,21,0.7,12.710,M,-29.745,M,0.0,*5F
###2023-12-09 12:33:38.939704$GPGSA,A,3,03,04,16,26,28,29,31,32,,,,,1.2,0.7,1.0*31
###2023-12-09 12:33:38.941359$GLGSA,A,3,71,72,73,74,75,,,,,,,,1.2,0.7,1.0*2D
###2023-12-09 12:33:38.942956$GAGSA,A,3,04,19,21,27,,,,,,,,,1.2,0.7,1.0*2C
###2023-12-09 12:33:38.944548$GBGSA,A,3,14,24,25,33,,,,,,,,,1.2,0.7,1.0*21
###2023-12-09 12:33:38.946919$GPGSV,2,1,08,03,39,278,44,04,21,310,40,16,36,207,45,26,65,206,49*7F
###2023-12-09 12:33:38.949275$GPGSV,2,2,08,28,58,055,45,29,25,075,43,31,73,358,44,32,31,134,43*74
###2023-12-09 12:33:38.951631$GLGSV,2,1,05,71,58,169,51,72,65,311,41,73,49,033,44,74,71,287,38*68
###2023-12-09 12:33:38.953091$GLGSV,2,2,05,75,21,240,38,,,,,,,,,,,,*5C
###2023-12-09 12:33:38.955440$GAGSV,1,1,04,04,20,311,39,19,81,304,38,21,77,177,45,27,42,050,40*6F
###2023-12-09 12:33:38.957779$GBGSV,1,1,04,14,55,198,46,24,81,343,48,25,32,252,45,33,63,255,50*6F
###2023-12-09 12:33:38.959132$GNVTG,100.99,T,,M,0.10,N,0.18,K,A*2A
###2023-12-09 12:33:38.960782$GNGST,173338.10,20.000,,,,0.096,0.087,0.210*5A
###2023-12-09 12:33:38.962074$GNZDA,173338.10,09,12,2023,00,00*7D
###2023-12-09 12:33:38.962736$GNEBP,,,,,,M*13
###2023-12-09 12:33:39.135871$GNGGA,173338.30,4138.0454377,N,07032.4283375,W,1,21,0.7,12.686,M,-29.745,M,0.0,*5D
###2023-12-09 12:33:39.332831$GNGGA,173338.50,4138.0454312,N,07032.4283346,W,1,21,0.7,12.685,M,-29.745,M,0.0,*5B
###2023-12-09 12:33:39.534664$GNGGA,173338.70,4138.0454241,N,07032.4283279,W,1,22,0.7,12.689,M,-29.745,M,0.0,*5C
###2023-12-09 12:33:39.732958$GNGGA,173338.90,4138.0454250,N,07032.4283308,W,1,22,0.7,12.679,M,-29.745,M,0.0,*5A
###2023-12-09 12:33:39.933027$GNRMC,173339.10,A,4138.0454264,N,07032.4283365,W,0.08,100.99,091223,,,A*5D
###2023-12-09 12:33:39.936512$GNGGA,173339.10,4138.0454264,N,07032.4283365,W,1,22,0.7,12.665,M,-29.745,M,0.0,*52
###2023-12-09 12:33:39.938786$GPGSA,A,3,03,04,16,26,28,29,31,32,,,,,1.2,0.7,1.0*31
###2023-12-09 12:33:39.940787$GLGSA,A,3,71,72,73,74,75,,,,,,,,1.2,0.7,1.0*2D
###2023-12-09 12:33:39.942754$GAGSA,A,3,04,19,21,27,,,,,,,,,1.2,0.7,1.0*2C
###2023-12-09 12:33:39.944756$GBGSA,A,3,14,24,25,26,33,,,,,,,,1.2,0.7,1.0*25
###2023-12-09 12:33:39.947617$GPGSV,2,1,08,03,39,278,43,04,21,310,40,16,36,207,43,26,65,206,48*7F
###2023-12-09 12:33:39.950470$GPGSV,2,2,08,28,58,055,40,29,25,075,38,31,73,358,40,32,31,134,45*7F
###2023-12-09 12:33:39.953315$GLGSV,2,1,05,71,58,169,49,72,65,311,35,73,49,033,44,74,71,287,35*6F
###2023-12-09 12:33:39.955110$GLGSV,2,2,05,75,21,240,40,,,,,,,,,,,,*53
###2023-12-09 12:33:39.957917$GAGSV,1,1,04,04,20,311,40,19,81,304,36,21,77,177,45,27,42,050,40*6F
###2023-12-09 12:33:39.960740$GBGSV,2,1,05,14,55,198,49,24,81,343,44,25,32,252,41,26,35,057,40*6C
###2023-12-09 12:33:39.962500$GBGSV,2,2,05,33,63,255,46,,,,,,,,,,,,*5B
###2023-12-09 12:33:39.964112$GNVTG,100.99,T,,M,0.08,N,0.14,K,A*2F
###2023-12-09 12:33:39.966112$GNGST,173339.10,20.000,,,,0.095,0.085,0.210*5A
###2023-12-09 12:33:39.967692$GNZDA,173339.10,09,12,2023,00,00*7C
###2023-12-09 12:33:39.968467$GNEBP,,,,,,M*13
###2023-12-09 12:33:40.131482$GNGGA,173339.30,4138.0454262,N,07032.4283333,W,1,22,0.7,12.657,M,-29.745,M,0.0,*54
###2023-12-09 12:33:40.332172$GNGGA,173339.50,4138.0454161,N,07032.4283261,W,1,22,0.7,12.652,M,-29.745,M,0.0,*51
###2023-12-09 12:33:40.532235$GNGGA,173339.70,4138.0454071,N,07032.4283279,W,1,21,0.7,12.656,M,-29.745,M,0.0,*5D
###2023-12-09 12:33:40.730288$GNGGA,173339.90,4138.0454099,N,07032.4283478,W,1,21,0.7,12.659,M,-29.745,M,0.0,*5D
###2023-12-09 12:33:40.933998$GNRMC,173340.10,A,4138.0454138,N,07032.4283630,W,0.10,100.99,091223,,,A*55
###2023-12-09 12:33:40.937659$GNGGA,173340.10,4138.0454138,N,07032.4283630,W,1,22,0.7,12.709,M,-29.745,M,0.0,*58
###2023-12-09 12:33:40.939926$GPGSA,A,3,03,04,16,26,28,29,31,32,,,,,1.2,0.7,1.0*31
###2023-12-09 12:33:40.941936$GLGSA,A,3,71,72,73,74,75,,,,,,,,1.2,0.7,1.0*2D
###2023-12-09 12:33:40.943870$GAGSA,A,3,04,19,21,27,,,,,,,,,1.2,0.7,1.0*2C
###2023-12-09 12:33:40.945872$GBGSA,A,3,14,24,25,26,33,,,,,,,,1.2,0.7,1.0*25
###2023-12-09 12:33:40.948721$GPGSV,2,1,08,03,39,278,44,04,21,310,43,16,36,207,45,26,65,206,49*7C
###2023-12-09 12:33:40.951592$GPGSV,2,2,08,28,58,055,46,29,25,075,43,31,73,358,44,32,31,134,47*73
###2023-12-09 12:33:40.954416$GLGSV,2,1,05,71,58,169,50,72,65,311,35,73,49,033,41,74,71,287,35*62
###2023-12-09 12:33:40.956199$GLGSV,2,2,05,75,21,240,35,,,,,,,,,,,,*51
###2023-12-09 12:33:40.959035$GAGSV,1,1,04,04,20,311,43,19,81,304,38,21,77,177,46,27,42,050,43*62
###2023-12-09 12:33:40.961845$GBGSV,2,1,05,14,55,198,46,24,81,343,48,25,32,252,44,26,35,057,40*6A
###2023-12-09 12:33:40.963934$GBGSV,2,2,05,33,63,255,49,,,,,,,,,,,,*54
###2023-12-09 12:33:40.965591$GNVTG,100.99,T,,M,0.10,N,0.18,K,A*2A
###2023-12-09 12:33:40.967617$GNGST,173340.10,20.000,,,,0.094,0.084,0.200*55
###2023-12-09 12:33:40.969186$GNZDA,173340.10,09,12,2023,00,00*72
###2023-12-09 12:33:40.969965$GNEBP,,,,,,M*13
###2023-12-09 12:33:41.131054$GNGGA,173340.30,4138.0454065,N,07032.4283570,W,1,22,0.7,12.749,M,-29.745,M,0.0,*50
###2023-12-09 12:33:41.332132$GNGGA,173340.50,4138.0454066,N,07032.4283503,W,1,21,0.7,12.750,M,-29.745,M,0.0,*5A
###2023-12-09 12:33:41.532093$GNGGA,173340.70,4138.0454124,N,07032.4283556,W,1,21,0.7,12.723,M,-29.745,M,0.0,*5B
###2023-12-09 12:33:41.729176$GNGGA,173340.90,4138.0454193,N,07032.4283583,W,1,21,0.7,12.722,M,-29.745,M,0.0,*50
