###2023-12-09 12:41:28.968973$GBGSV,2,2,05,33,62,248,48,,,,,,,,,,,,*58
###2023-12-09 12:41:28.970340$GNVTG,331.68,T,,M,0.17,N,0.32,K,A*2B
###2023-12-09 12:41:28.972035$GNGST,174128.10,18.000,,,,0.078,0.069,0.160*51
###2023-12-09 12:41:28.973347$GNZDA,174128.10,09,12,2023,00,00*79
###2023-12-09 12:41:28.973991$GNEBP,,,,,,M*13
###2023-12-09 12:41:29.140086$GNGGA,174128.30,4138.0626210,N,07032.3728538,W,1,23,0.7,13.548,M,-29.744,M,0.0,*51
###2023-12-09 12:41:29.342305$GNGGA,174128.50,4138.0626480,N,07032.3728672,W,1,23,0.7,13.537,M,-29.744,M,0.0,*5D
###2023-12-09 12:41:29.542041$GNGGA,174128.70,4138.0626855,N,07032.3728938,W,1,23,0.7,13.526,M,-29.744,M,0.0,*5A
###2023-12-09 12:41:29.742696$GNGGA,174128.90,4138.0627147,N,07032.3729145,W,1,23,0.7,13.529,M,-29.744,M,0.0,*53
###2023-12-09 12:41:29.941977$GNRMC,174129.10,A,4138.0627273,N,07032.3729195,W,0.19,331.68,091223,,,A*58
###2023-12-09 12:41:29.944879$GNGGA,174129.10,4138.0627273,N,07032.3729195,W,1,23,0.7,13.544,M,-29.744,M,0.0,*58
###2023-12-09 12:41:29.946780$GPGSA,A,3,03,04,16,26,28,29,31,32,,,,,1.2,0.7,1.0*31
###2023-12-09 12:41:29.948453$GLGSA,A,3,71,72,73,74,75,,,,,,,,1.2,0.7,1.0*2D
###2023-12-09 12:41:29.950048$GAGSA,A,3,04,19,21,27,,,,,,,,,1.2,0.7,1.0*2C
###2023-12-09 12:41:29.951719$GBGSA,A,3,14,24,25,26,33,,,,,,,,1.2,0.7,1.0*25
###2023-12-09 12:41:29.954068$GPGSV,2,1,08,03,38,272,45,04,25,311,44,16,39,208,45,26,69,207,48*78
###2023-12-09 12:41:29.956434$GPGSV,2,2,08,28,56,059,44,29,25,071,40,31,73,010,46,32,28,135,44*73
###2023-12-09 12:41:29.958792$GLGSV,2,1,05,71,52,170,47,72,68,302,46,73,44,035,46,74,71,303,43*6D
###2023-12-09 12:41:29.960254$GLGSV,2,2,05,75,25,244,45,,,,,,,,,,,,*56
###2023-12-09 12:41:29.962606$GAGSV,1,1,04,04,23,311,42,19,83,292,41,21,80,172,46,27,39,049,42*6A
###2023-12-09 12:41:29.964944$GBGSV,2,1,05,14,52,196,45,24,79,359,49,25,34,255,47,26,33,058,44*62
###2023-12-09 12:41:29.966400$GBGSV,2,2,05,33,62,248,48,,,,,,,,,,,,*58
###2023-12-09 12:41:29.967738$GNVTG,331.68,T,,M,0.19,N,0.36,K,A*21
###2023-12-09 12:41:29.969395$GNGST,174129.10,18.000,,,,0.078,0.069,0.160*50
###2023-12-09 12:41:29.970712$GNZDA,174129.10,09,12,2023,00,00*78
###2023-12-09 12:41:29.971355$GNEBP,,,,,,M*13
###2023-12-09 12:41:30.142461$GNGGA,174129.30,4138.0627402,N,07032.3729197,W,1,23,0.7,13.545,M,-29.744,M,0.0,*59
###2023-12-09 12:41:30.341547$GNGGA,174129.50,4138.0627623,N,07032.3729321,W,1,23,0.7,13.532,M,-29.744,M,0.0,*51
###2023-12-09 12:41:30.543667$GNGGA,174129.70,4138.0627985,N,07032.3729588,W,1,24,0.6,13.520,M,-29.744,M,0.0,*50
###2023-12-09 12:41:30.744482$GNGGA,174129.90,4138.0628319,N,07032.3729840,W,1,24,0.6,13.520,M,-29.744,M,0.0,*57
###2023-12-09 12:41:30.943097$GNRMC,174130.10,A,4138.0628485,N,07032.3729927,W,0.25,331.68,091223,,,A*5E
###2023-12-09 12:41:30.945962$GNGGA,174130.10,4138.0628485,N,07032.3729927,W,1,24,0.6,13.532,M,-29.744,M,0.0,*56
###2023-12-09 12:41:30.947847$GPGSA,A,3,03,04,16,26,28,29,31,32,,,,,1.1,0.6,0.9*3B
###2023-12-09 12:41:30.949574$GLGSA,A,3,65,71,72,73,74,75,,,,,,,1.1,0.6,0.9*24
###2023-12-09 12:41:30.951174$GAGSA,A,3,04,19,21,27,,,,,,,,,1.1,0.6,0.9*26
###2023-12-09 12:41:30.952826$GBGSA,A,3,14,24,25,26,33,,,,,,,,1.1,0.6,0.9*2F
###2023-12-09 12:41:30.955173$GPGSV,2,1,08,03,38,272,45,04,25,311,43,16,39,208,44,26,69,207,48*7E
###2023-12-09 12:41:30.957512$GPGSV,2,2,08,28,56,059,43,29,25,071,39,31,73,010,46,32,28,135,43*7D
###2023-12-09 12:41:30.959865$GLGSV,2,1,06,65,15,329,45,71,52,170,47,72,68,302,47,73,44,035,46*63
###2023-12-09 12:41:30.961615$GLGSV,2,2,06,74,71,303,43,75,25,244,45,,,,,,,,*67
###2023-12-09 12:41:30.963960$GAGSV,1,1,04,04,23,311,41,19,83,292,40,21,80,172,45,27,39,049,42*6B
###2023-12-09 12:41:30.966292$GBGSV,2,1,05,14,52,196,44,24,79,359,48,25,34,255,46,26,33,058,45*62
###2023-12-09 12:41:30.967792$GBGSV,2,2,05,33,62,248,47,,,,,,,,,,,,*57
###2023-12-09 12:41:30.969118$GNVTG,331.68,T,,M,0.25,N,0.47,K,A*28
###2023-12-09 12:41:30.970780$GNGST,174130.10,18.000,,,,0.078,0.069,0.160*58
###2023-12-09 12:41:30.972073$GNZDA,174130.10,09,12,2023,00,00*70
###2023-12-09 12:41:30.972712$GNEBP,,,,,,M*13
###2023-12-09 12:41:31.141745$GNGGA,174130.30,4138.0628604,N,07032.3729950,W,1,24,0.6,13.542,M,-29.744,M,0.0,*58
###2023-12-09 12:41:31.342877$GNGGA,174130.50,4138.0628833,N,07032.3730097,W,1,24,0.6,13.535,M,-29.744,M,0.0,*5E
###2023-12-09 12:41:31.543175$GNGGA,174130.70,4138.0629196,N,07032.3730394,W,1,24,0.6,13.518,M,-29.744,M,0.0,*54
###2023-12-09 12:41:31.741099$GNGGA,174130.90,4138.0629520,N,07032.3730618,W,1,24,0.6,13.502,M,-29.744,M,0.0,*59
###2023-12-09 12:41:31.942355$GNRMC,174131.10,A,4138.0629655,N,07032.3730655,W,0.17,331.68,091223,,,A*52
###2023-12-09 12:41:31.945246$GNGGA,174131.10,4138.0629655,N,07032.3730655,W,1,24,0.6,13.506,M,-29.744,M,0.0,*5C
###2023-12-09 12:41:31.947130$GPGSA,A,3,03,04,16,26,28,29,31,32,,,,,1.1,0.6,0.9*3B
###2023-12-09 12:41:31.948855$GLGSA,A,3,65,71,72,73,74,75,,,,,,,1.1,0.6,0.9*24
###2023-12-09 12:41:31.950438$GAGSA,A,3,04,19,21,27,,,,,,,,,1.1,0.6,0.9*26
###2023-12-09 12:41:31.952110$GBGSA,A,3,14,24,25,26,33,,,,,,,,1.1,0.6,0.9*2F
###2023-12-09 12:41:31.954442$GPGSV,2,1,08,03,38,272,43,04,25,311,42,16,39,208,43,26,69,207,48*7E
###2023-12-09 12:41:31.956801$GPGSV,2,2,08,28,56,059,43,29,25,071,39,31,73,010,46,32,28,135,43*7D
###2023-12-09 12:41:31.959153$GLGSV,2,1,06,65,15,329,44,71,52,170,48,72,68,302,46,73,44,035,46*6C
###2023-12-09 12:41:31.960908$GLGSV,2,2,06,74,71,303,43,75,25,244,45,,,,,,,,*67
###2023-12-09 12:41:31.963243$GAGSV,1,1,04,04,23,311,41,19,83,292,40,21,80,172,45,27,39,049,40*69
###2023-12-09 12:41:31.965565$GBGSV,2,1,05,14,52,196,44,24,79,359,48,25,34,255,44,26,33,058,44*61
###2023-12-09 12:41:31.967037$GBGSV,2,2,05,33,62,248,47,,,,,,,,,,,,*57
###2023-12-09 12:41:31.968358$GNVTG,331.68,T,,M,0.17,N,0.32,K,A*2B
###2023-12-09 12:41:31.970001$GNGST,174131.10,18.000,,,,0.078,0.069,0.160*59
###2023-12-09 12:41:31.971309$GNZDA,174131.10,09,12,2023,00,00*71
###2023-12-09 12:41:31.971949$GNEBP,,,,,,M*13
###2023-12-09 12:41:32.142414$GNGGA,174131.30,4138.0629801,N,07032.3730727,W,1,24,0.6,13.520,M,-29.744,M,0.0,*51
###2023-12-09 12:41:32.341440$GNGGA,174131.50,4138.0630134,N,07032.3730986,W,1,24,0.6,13.526,M,-29.744,M,0.0,*53
###2023-12-09 12:41:32.542811$GNGGA,174131.70,4138.0630548,N,07032.3731304,W,1,24,0.6,13.514,M,-29.744,M,0.0,*5E
###2023-12-09 12:41:32.741125$GNGGA,174131.90,4138.0630800,N,07032.3731454,W,1,24,0.6,13.501,M,-29.744,M,0.0,*57
###2023-12-09 12:41:32.950983$GNRMC,174132.10,A,4138.0630873,N,07032.3731426,W,0.12,331.68,091223,,,A*51
###2023-12-09 12:41:32.953857$GNGGA,174132.10,4138.0630873,N,07032.3731426,W,1,24,0.6,13.483,M,-29.744,M,0.0,*56
###2023-12-09 12:41:32.955742$GPGSA,A,3,03,04,16,26,28,29,31,32,,,,,1.1,0.6,0.9*3B
###2023-12-09 12:41:32.957472$GLGSA,A,3,65,71,72,73,74,75,,,,,,,1.1,0.6,0.9*24
###2023-12-09 12:41:32.959078$GAGSA,A,3,04,19,21,27,,,,,,,,,1.1,0.6,0.9*26
###2023-12-09 12:41:32.960732$GBGSA,A,3,14,24,25,26,33,,,,,,,,1.1,0.6,0.9*2F
###2023-12-09 12:41:32.963084$GPGSV,2,1,08,03,38,272,43,04,25,311,43,16,39,208,45,26,69,207,49*78
###2023-12-09 12:41:32.965429$GPGSV,2,2,08,28,56,059,45,29,25,071,41,31,73,010,47,32,28,135,45*73
###2023-12-09 12:41:32.967808$GLGSV,2,1,06,65,15,329,43,71,52,170,48,72,68,302,46,73,44,035,46*6B
###2023-12-09 12:41:32.969562$GLGSV,2,2,06,74,71,303,43,75,25,244,45,,,,,,,,*67
###2023-12-09 12:41:32.971909$GAGSV,1,1,04,04,23,311,42,19,83,292,41,21,80,172,46,27,39,049,41*69
###2023-12-09 12:41:32.974243$GBGSV,2,1,05,14,52,196,45,24,79,359,50,25,34,255,46,26,33,058,46*69
###2023-12-09 12:41:32.975715$GBGSV,2,2,05,33,62,248,48,,,,,,,,,,,,*58
###2023-12-09 12:41:32.977038$GNVTG,331.68,T,,M,0.12,N,0.22,K,A*2F
###2023-12-09 12:41:32.978703$GNGST,174132.10,18.000,,,,0.077,0.069,0.160*55
###2023-12-09 12:41:32.980003$GNZDA,174132.10,09,12,2023,00,00*72
###2023-12-09 12:41:32.980644$GNEBP,,,,,,M*13
###2023-12-09 12:41:33.140797$GNGGA,174132.30,4138.0631039,N,07032.3731516,W,1,24,0.6,13.478,M,-29.744,M,0.0,*55
###2023-12-09 12:41:33.341519$GNGGA,174132.50,4138.0631490,N,07032.3731925,W,1,24,0.6,13.494,M,-29.744,M,0.0,*5A
###2023-12-09 12:41:33.542501$GNGGA,174132.70,4138.0631990,N,07032.3732340,W,1,24,0.6,13.502,M,-29.744,M,0.0,*51
###2023-12-09 12:41:33.741063$GNGGA,174132.90,4138.0632134,N,07032.3732375,W,1,24,0.6,13.509,M,-29.744,M,0.0,*57
###2023-12-09 12:41:33.941387$GNRMC,174133.10,A,4138.0632077,N,07032.3732282,W,0.06,328.92,091223,,,A*5D
###2023-12-09 12:41:33.944272$GNGGA,174133.10,4138.0632077,N,07032.3732282,W,1,24,0.6,13.472,M,-29.744,M,0.0,*5C
###2023-12-09 12:41:33.946133$GPGSA,A,3,03,04,16,26,28,29,31,32,,,,,1.1,0.6,0.9*3B
###2023-12-09 12:41:33.947889$GLGSA,A,3,65,71,72,73,74,75,,,,,,,1.1,0.6,0.9*24
###2023-12-09 12:41:33.949499$GAGSA,A,3,04,19,21,27,,,,,,,,,1.1,0.6,0.9*26
###2023-12-09 12:41:33.951166$GBGSA,A,3,14,24,25,26,33,,,,,,,,1.1,0.6,0.9*2F
###2023-12-09 12:41:33.953496$GPGSV,2,1,08,03,38,272,41,04,25,311,39,16,39,208,45,26,69,207,48*76
