###2023-12-09 13:34:35.014110$GPGSV,2,1,08,03,27,247,40,04,46,308,45,16,66,222,45,26,84,040,49*78
###2023-12-09 13:34:35.016488$GPGSV,2,2,08,27,16,172,41,28,38,084,44,29,21,047,43,31,59,066,48*71
###2023-12-09 13:34:35.018835$GLGSV,2,1,07,65,38,319,44,71,23,175,40,72,63,222,45,73,23,052,46*61
###2023-12-09 13:34:35.020866$GLGSV,2,2,07,74,60,013,42,75,43,271,45,83,15,048,36,,,,*55
###2023-12-09 13:34:35.023193$GAGSV,1,1,04,04,40,310,44,19,72,181,41,21,77,046,47,27,22,050,42*6A
###2023-12-09 13:34:35.025508$GBGSV,2,1,07,12,15,126,42,14,29,190,41,24,62,046,48,25,51,276,46*66
###2023-12-09 13:34:35.027549$GBGSV,2,2,07,26,16,071,43,33,46,217,45,35,16,057,45,,,,*5B
###2023-12-09 13:34:35.028861$GNVTG,228.22,T,,M,1.98,N,3.67,K,A*29
###2023-12-09 13:34:35.030458$GNGST,183434.10,5.900,,,,0.089,0.068,0.150*68
###2023-12-09 13:34:35.031764$GNZDA,183434.10,09,12,2023,00,00*79
###2023-12-09 13:34:35.032400$GNEBP,,,,,,M*13
###2023-12-09 13:34:35.194746$GNGGA,183434.30,4138.0514074,N,07032.3975006,W,1,27,0.6,13.214,M,-29.745,M,0.0,*57
###2023-12-09 13:34:35.393843$GNGGA,183434.50,4138.0513198,N,07032.3975714,W,1,27,0.6,13.193,M,-29.745,M,0.0,*5D
###2023-12-09 13:34:35.594304$GNGGA,183434.70,4138.0512237,N,07032.3976119,W,1,27,0.6,13.181,M,-29.745,M,0.0,*53
###2023-12-09 13:34:35.794928$GNGGA,183434.90,4138.0511372,N,07032.3976870,W,1,27,0.6,13.200,M,-29.745,M,0.0,*52
###2023-12-09 13:34:35.998740$GNRMC,183435.10,A,4138.0510618,N,07032.3978004,W,2.02,228.40,091223,,,A*5E
###2023-12-09 13:34:36.001617$GNGGA,183435.10,4138.0510618,N,07032.3978004,W,1,27,0.6,13.221,M,-29.745,M,0.0,*55
###2023-12-09 13:34:36.003490$GPGSA,A,3,03,04,16,26,27,28,29,31,,,,,1.0,0.6,0.8*3F
###2023-12-09 13:34:36.005273$GLGSA,A,3,65,71,72,73,74,75,83,,,,,,1.0,0.6,0.8*2F
###2023-12-09 13:34:36.006873$GAGSA,A,3,04,19,21,27,,,,,,,,,1.0,0.6,0.8*26
###2023-12-09 13:34:36.008651$GBGSA,A,3,12,14,24,25,26,33,35,,,,,,1.0,0.6,0.8*2A
###2023-12-09 13:34:36.010994$GPGSV,2,1,08,03,27,247,40,04,46,308,46,16,66,222,45,26,84,040,48*7A
###2023-12-09 13:34:36.013324$GPGSV,2,2,08,27,16,172,39,28,38,084,44,29,21,047,42,31,59,066,47*70
###2023-12-09 13:34:36.015665$GLGSV,2,1,07,65,38,319,44,71,23,175,41,72,63,222,45,73,23,052,44*62
###2023-12-09 13:34:36.017701$GLGSV,2,2,07,74,60,013,42,75,43,271,46,83,15,048,36,,,,*56
###2023-12-09 13:34:36.020046$GAGSV,1,1,04,04,40,310,45,19,72,181,41,21,77,046,47,27,22,050,42*6B
###2023-12-09 13:34:36.022376$GBGSV,2,1,07,12,15,126,41,14,29,190,41,24,62,046,47,25,51,276,46*6A
###2023-12-09 13:34:36.024425$GBGSV,2,2,07,26,16,071,44,33,45,217,44,35,16,057,43,,,,*58
###2023-12-09 13:34:36.025745$GNVTG,228.40,T,,M,2.02,N,3.74,K,A*2F
###2023-12-09 13:34:36.027366$GNGST,183435.10,5.800,,,,0.089,0.068,0.150*68
###2023-12-09 13:34:36.028656$GNZDA,183435.10,09,12,2023,00,00*78
###2023-12-09 13:34:36.029293$GNEBP,,,,,,M*13
###2023-12-09 13:34:36.196742$GNGGA,183435.30,4138.0509819,N,07032.3978886,W,1,27,0.6,13.215,M,-29.745,M,0.0,*55
###2023-12-09 13:34:36.396164$GNGGA,183435.50,4138.0508853,N,07032.3979233,W,1,27,0.6,13.185,M,-29.745,M,0.0,*53
###2023-12-09 13:34:36.596559$GNGGA,183435.70,4138.0507876,N,07032.3979725,W,1,27,0.6,13.168,M,-29.745,M,0.0,*58
###2023-12-09 13:34:36.797011$GNGGA,183435.90,4138.0507067,N,07032.3980777,W,1,27,0.6,13.209,M,-29.745,M,0.0,*5B
###2023-12-09 13:34:37.000623$GNRMC,183436.10,A,4138.0506304,N,07032.3981996,W,2.08,222.21,091223,,,A*51
###2023-12-09 13:34:37.003498$GNGGA,183436.10,4138.0506304,N,07032.3981996,W,1,27,0.6,13.240,M,-29.745,M,0.0,*5A
###2023-12-09 13:34:37.005356$GPGSA,A,3,03,04,16,26,27,28,29,31,,,,,1.0,0.6,0.8*3F
###2023-12-09 13:34:37.007143$GLGSA,A,3,65,71,72,73,74,75,83,,,,,,1.0,0.6,0.8*2F
###2023-12-09 13:34:37.008725$GAGSA,A,3,04,19,21,27,,,,,,,,,1.0,0.6,0.8*26
###2023-12-09 13:34:37.010493$GBGSA,A,3,12,14,24,25,26,33,35,,,,,,1.0,0.6,0.8*2A
###2023-12-09 13:34:37.012819$GPGSV,2,1,08,03,27,247,42,04,46,308,48,16,66,222,44,26,84,040,48*77
###2023-12-09 13:34:37.015152$GPGSV,2,2,08,27,16,172,38,28,38,084,44,29,21,047,42,31,59,066,46*70
###2023-12-09 13:34:37.017475$GLGSV,2,1,07,65,38,319,46,71,23,175,39,72,63,222,45,73,23,052,43*68
###2023-12-09 13:34:37.019514$GLGSV,2,2,07,74,60,013,42,75,43,271,48,83,15,048,36,,,,*58
###2023-12-09 13:34:37.021835$GAGSV,1,1,04,04,40,310,46,19,72,181,40,21,77,046,46,27,22,050,39*64
###2023-12-09 13:34:37.024168$GBGSV,2,1,07,12,15,126,38,14,29,190,41,24,62,046,47,25,51,276,49*6B
###2023-12-09 13:34:37.026197$GBGSV,2,2,07,26,16,071,44,33,45,217,44,35,16,056,42,,,,*58
###2023-12-09 13:34:37.027537$GNVTG,222.21,T,,M,2.08,N,3.85,K,A*26
###2023-12-09 13:34:37.029145$GNGST,183436.10,6.100,,,,0.089,0.068,0.150*61
###2023-12-09 13:34:37.030432$GNZDA,183436.10,09,12,2023,00,00*7B
###2023-12-09 13:34:37.031081$GNEBP,,,,,,M*13
###2023-12-09 13:34:37.196965$GNGGA,183436.30,4138.0505306,N,07032.3982686,W,1,27,0.6,13.224,M,-29.745,M,0.0,*56
###2023-12-09 13:34:37.396130$GNGGA,183436.50,4138.0504165,N,07032.3983084,W,1,27,0.6,13.177,M,-29.745,M,0.0,*56
###2023-12-09 13:34:37.593976$GNGGA,183436.70,4138.0503198,N,07032.3984041,W,1,27,0.6,13.190,M,-29.745,M,0.0,*56
###2023-12-09 13:34:37.795127$GNGGA,183436.90,4138.0502409,N,07032.3985306,W,1,27,0.6,13.226,M,-29.745,M,0.0,*5B
###2023-12-09 13:34:37.999800$GNRMC,183437.10,A,4138.0501503,N,07032.3986303,W,2.18,209.46,091223,,,A*5E
###2023-12-09 13:34:38.002679$GNGGA,183437.10,4138.0501503,N,07032.3986303,W,1,27,0.6,13.233,M,-29.745,M,0.0,*58
###2023-12-09 13:34:38.004542$GPGSA,A,3,03,04,16,26,27,28,29,31,,,,,1.0,0.6,0.8*3F
###2023-12-09 13:34:38.006308$GLGSA,A,3,65,71,72,73,74,75,83,,,,,,1.0,0.6,0.8*2F
###2023-12-09 13:34:38.007901$GAGSA,A,3,04,19,21,27,,,,,,,,,1.0,0.6,0.8*26
###2023-12-09 13:34:38.009676$GBGSA,A,3,12,14,24,25,26,33,35,,,,,,1.0,0.6,0.8*2A
###2023-12-09 13:34:38.012017$GPGSV,2,1,08,03,27,247,41,04,46,308,47,16,66,222,45,26,84,040,48*7A
###2023-12-09 13:34:38.014343$GPGSV,2,2,08,27,16,172,41,28,38,084,43,29,21,047,43,31,59,066,45*7B
###2023-12-09 13:34:38.016683$GLGSV,2,1,07,65,39,318,46,71,23,175,42,72,63,222,44,73,23,052,43*65
###2023-12-09 13:34:38.018762$GLGSV,2,2,07,74,60,013,43,75,43,271,47,83,15,048,36,,,,*56
###2023-12-09 13:34:38.021091$GAGSV,1,1,04,04,40,310,46,19,72,181,40,21,77,046,46,27,22,050,40*6A
###2023-12-09 13:34:38.023429$GBGSV,2,1,07,12,15,126,38,14,29,190,40,24,62,046,46,25,51,276,46*64
###2023-12-09 13:34:38.025463$GBGSV,2,2,07,26,16,071,41,33,45,217,45,35,16,056,43,,,,*5D
###2023-12-09 13:34:38.026792$GNVTG,209.46,T,,M,2.18,N,4.03,K,A*26
###2023-12-09 13:34:38.028393$GNGST,183437.10,6.100,,,,0.089,0.069,0.150*61
###2023-12-09 13:34:38.029673$GNZDA,183437.10,09,12,2023,00,00*7A
###2023-12-09 13:34:38.030309$GNEBP,,,,,,M*13
###2023-12-09 13:34:38.196785$GNGGA,183437.30,4138.0500424,N,07032.3987083,W,1,27,0.6,13.222,M,-29.745,M,0.0,*55
###2023-12-09 13:34:38.396495$GNGGA,183437.50,4138.0499328,N,07032.3988006,W,1,27,0.6,13.208,M,-29.745,M,0.0,*53
###2023-12-09 13:34:38.596996$GNGGA,183437.70,4138.0498492,N,07032.3989332,W,1,27,0.6,13.221,M,-29.745,M,0.0,*58
###2023-12-09 13:34:38.797518$GNGGA,183437.90,4138.0497760,N,07032.3990834,W,1,27,0.6,13.235,M,-29.745,M,0.0,*57
###2023-12-09 13:34:39.001545$GNRMC,183438.10,A,4138.0496842,N,07032.3992193,W,2.53,222.45,091223,,,A*5D
###2023-12-09 13:34:39.005052$GNGGA,183438.10,4138.0496842,N,07032.3992193,W,1,27,0.6,13.235,M,-29.745,M,0.0,*58
###2023-12-09 13:34:39.007306$GPGSA,A,3,03,04,16,26,27,28,29,31,,,,,1.0,0.6,0.8*3F
###2023-12-09 13:34:39.009452$GLGSA,A,3,65,71,72,73,74,75,83,,,,,,1.0,0.6,0.8*2F
###2023-12-09 13:34:39.011379$GAGSA,A,3,04,19,21,27,,,,,,,,,1.0,0.6,0.8*26
###2023-12-09 13:34:39.013526$GBGSA,A,3,12,14,24,25,26,33,35,,,,,,1.0,0.6,0.8*2A
###2023-12-09 13:34:39.016342$GPGSV,2,1,08,03,27,247,41,04,46,308,46,16,66,222,45,26,84,040,48*7B
###2023-12-09 13:34:39.019158$GPGSV,2,2,08,27,16,172,43,28,38,084,43,29,21,047,43,31,59,066,46*7A
###2023-12-09 13:34:39.021965$GLGSV,2,1,07,65,39,318,44,71,23,175,43,72,63,222,44,73,23,052,42*67
###2023-12-09 13:34:39.024430$GLGSV,2,2,07,74,60,013,43,75,43,271,47,83,15,048,37,,,,*57
###2023-12-09 13:34:39.027248$GAGSV,1,1,04,04,40,310,43,19,72,181,40,21,77,046,46,27,22,050,40*6F
###2023-12-09 13:34:39.030336$GBGSV,2,1,07,12,15,126,39,14,29,190,43,24,62,046,48,25,51,276,47*69
###2023-12-09 13:34:39.032821$GBGSV,2,2,07,26,16,071,44,33,45,217,46,35,16,056,45,,,,*5D
###2023-12-09 13:34:39.034431$GNVTG,222.45,T,,M,2.53,N,4.68,K,A*2E
###2023-12-09 13:34:39.036423$GNGST,183438.10,5.500,,,,0.088,0.069,0.150*68
###2023-12-09 13:34:39.037979$GNZDA,183438.10,09,12,2023,00,00*75
###2023-12-09 13:34:39.038758$GNEBP,,,,,,M*13
###2023-12-09 13:34:39.200341$GNGGA,183438.30,4138.0495813,N,07032.3993522,W,1,27,0.6,13.229,M,-29.745,M,0.0,*5F
###2023-12-09 13:34:39.397114$GNGGA,183438.50,4138.0494959,N,07032.3995054,W,1,27,0.6,13.237,M,-29.745,M,0.0,*5A
###2023-12-09 13:34:39.597450$GNGGA,183438.70,4138.0494333,N,07032.3996791,W,1,27,0.6,13.243,M,-29.745,M,0.0,*50
###2023-12-09 13:34:39.800095$GNGGA,183438.90,4138.0493788,N,07032.3998553,W,1,27,0.6,13.224,M,-29.745,M,0.0,*5E
###2023-12-09 13:34:39.999022$GNRMC,183439.10,A,4138.0493095,N,07032.4000207,W,2.60,236.86,091223,,,A*5A
