###2023-12-09 13:24:49.017526$GBGSV,2,2,06,33,49,220,47,35,16,060,46,,,,,,,,*66
###2023-12-09 13:24:49.018899$GNVTG,152.66,T,,M,3.48,N,6.44,K,A*2C
###2023-12-09 13:24:49.020553$GNGST,182448.10,18.000,,,,0.098,0.068,0.160*54
###2023-12-09 13:24:49.021851$GNZDA,182448.10,09,12,2023,00,00*73
###2023-12-09 13:24:49.022492$GNEBP,,,,,,M*13
###2023-12-09 13:24:49.188886$GNGGA,182448.30,4138.0540220,N,07032.3687360,W,1,24,0.6,13.069,M,-29.744,M,0.0,*54
###2023-12-09 13:24:49.388707$GNGGA,182448.50,4138.0538485,N,07032.3686166,W,1,24,0.6,13.066,M,-29.744,M,0.0,*5E
###2023-12-09 13:24:49.588199$GNGGA,182448.70,4138.0536822,N,07032.3684831,W,1,24,0.6,13.055,M,-29.744,M,0.0,*5A
###2023-12-09 13:24:49.788653$GNGGA,182448.90,4138.0535144,N,07032.3683494,W,1,24,0.6,13.060,M,-29.744,M,0.0,*5C
###2023-12-09 13:24:49.992254$GNRMC,182449.10,A,4138.0533417,N,07032.3682152,W,3.48,148.21,091223,,,A*5D
###2023-12-09 13:24:49.995714$GNGGA,182449.10,4138.0533417,N,07032.3682152,W,1,24,0.6,13.055,M,-29.744,M,0.0,*58
###2023-12-09 13:24:49.997873$GPGSA,A,3,03,04,16,26,28,29,31,,,,,,1.1,0.6,0.9*3A
###2023-12-09 13:24:49.999963$GLGSA,A,3,65,71,72,73,74,75,,,,,,,1.1,0.6,0.9*24
###2023-12-09 13:24:50.001908$GAGSA,A,3,04,19,21,27,,,,,,,,,1.1,0.6,0.9*26
###2023-12-09 13:24:50.003990$GBGSA,A,3,14,24,25,26,33,35,,,,,,,1.1,0.6,0.9*29
###2023-12-09 13:24:50.006809$GPGSV,2,1,07,03,30,251,42,04,42,310,44,16,61,218,46,26,89,050,49*79
###2023-12-09 13:24:50.009262$GPGSV,2,2,07,28,41,080,45,29,22,051,44,31,63,058,47,,,,*4E
###2023-12-09 13:24:50.012096$GLGSV,2,1,06,65,34,322,45,71,27,175,42,72,67,229,46,73,26,049,44*62
###2023-12-09 13:24:50.014197$GLGSV,2,2,06,74,63,006,43,75,40,266,47,,,,,,,,*63
###2023-12-09 13:24:50.017013$GAGSV,1,1,04,04,36,311,44,19,76,185,40,21,80,051,46,27,26,049,42*68
###2023-12-09 13:24:50.019838$GBGSV,2,1,06,14,33,190,42,24,66,041,49,25,48,272,47,26,19,068,45*67
###2023-12-09 13:24:50.021933$GBGSV,2,2,06,33,49,220,48,35,16,060,45,,,,,,,,*6A
###2023-12-09 13:24:50.023536$GNVTG,148.21,T,,M,3.48,N,6.44,K,A*24
###2023-12-09 13:24:50.025515$GNGST,182449.10,18.000,,,,0.098,0.067,0.160*5A
###2023-12-09 13:24:50.027087$GNZDA,182449.10,09,12,2023,00,00*72
###2023-12-09 13:24:50.027860$GNEBP,,,,,,M*13
###2023-12-09 13:24:50.187210$GNGGA,182449.30,4138.0531735,N,07032.3680826,W,1,24,0.6,13.053,M,-29.744,M,0.0,*55
###2023-12-09 13:24:50.387812$GNGGA,182449.50,4138.0530082,N,07032.3679434,W,1,24,0.6,13.061,M,-29.744,M,0.0,*51
###2023-12-09 13:24:50.589302$GNGGA,182449.70,4138.0528379,N,07032.3678090,W,1,24,0.6,13.060,M,-29.744,M,0.0,*57
###2023-12-09 13:24:50.789634$GNGGA,182449.90,4138.0526650,N,07032.3676774,W,1,24,0.6,13.054,M,-29.744,M,0.0,*5D
###2023-12-09 13:24:50.992882$GNRMC,182450.10,A,4138.0524958,N,07032.3675546,W,3.46,152.43,091223,,,A*5D
###2023-12-09 13:24:50.996370$GNGGA,182450.10,4138.0524958,N,07032.3675546,W,1,24,0.6,13.058,M,-29.744,M,0.0,*54
###2023-12-09 13:24:50.998531$GPGSA,A,3,03,04,16,26,28,29,31,,,,,,1.1,0.6,0.9*3A
###2023-12-09 13:24:51.000608$GLGSA,A,3,65,71,72,73,74,75,,,,,,,1.1,0.6,0.9*24
###2023-12-09 13:24:51.002516$GAGSA,A,3,04,19,21,27,,,,,,,,,1.1,0.6,0.9*26
###2023-12-09 13:24:51.004584$GBGSA,A,3,14,24,25,26,33,35,,,,,,,1.1,0.6,0.9*29
###2023-12-09 13:24:51.007392$GPGSV,2,1,07,03,30,251,44,04,42,310,44,16,61,218,46,26,89,050,48*7E
###2023-12-09 13:24:51.009841$GPGSV,2,2,07,28,41,080,44,29,22,051,44,31,63,058,47,,,,*4F
###2023-12-09 13:24:51.012669$GLGSV,2,1,06,65,34,322,45,71,27,175,42,72,67,229,45,73,26,049,44*61
###2023-12-09 13:24:51.014776$GLGSV,2,2,06,74,63,006,43,75,40,266,48,,,,,,,,*6C
###2023-12-09 13:24:51.017571$GAGSV,1,1,04,04,36,311,44,19,76,185,40,21,80,051,46,27,26,049,42*68
###2023-12-09 13:24:51.020377$GBGSV,2,1,06,14,33,190,42,24,66,041,48,25,48,272,48,26,19,068,44*68
###2023-12-09 13:24:51.022471$GBGSV,2,2,06,33,49,220,47,35,16,060,44,,,,,,,,*64
###2023-12-09 13:24:51.024073$GNVTG,152.43,T,,M,3.46,N,6.41,K,A*20
###2023-12-09 13:24:51.026082$GNGST,182450.10,18.000,,,,0.098,0.068,0.160*5D
###2023-12-09 13:24:51.027693$GNZDA,182450.10,09,12,2023,00,00*7A
###2023-12-09 13:24:51.028464$GNEBP,,,,,,M*13
###2023-12-09 13:24:51.191793$GNGGA,182450.30,4138.0523157,N,07032.3674294,W,1,24,0.6,13.061,M,-29.744,M,0.0,*55
###2023-12-09 13:24:51.389236$GNGGA,182450.50,4138.0521463,N,07032.3673031,W,1,24,0.6,13.046,M,-29.744,M,0.0,*5C
###2023-12-09 13:24:51.588755$GNGGA,182450.70,4138.0519722,N,07032.3671881,W,1,24,0.6,13.066,M,-29.744,M,0.0,*50
###2023-12-09 13:24:51.791163$GNGGA,182450.90,4138.0517928,N,07032.3670677,W,1,24,0.6,13.066,M,-29.744,M,0.0,*52
###2023-12-09 13:24:51.989854$GNRMC,182451.10,A,4138.0516219,N,07032.3669404,W,3.40,151.24,091223,,,A*5D
###2023-12-09 13:24:51.992739$GNGGA,182451.10,4138.0516219,N,07032.3669404,W,1,24,0.6,13.051,M,-29.744,M,0.0,*59
###2023-12-09 13:24:51.994545$GPGSA,A,3,03,04,16,26,28,29,31,,,,,,1.1,0.6,0.9*3A
###2023-12-09 13:24:51.996277$GLGSA,A,3,65,71,72,73,74,75,,,,,,,1.1,0.6,0.9*24
###2023-12-09 13:24:51.997859$GAGSA,A,3,04,19,21,27,,,,,,,,,1.1,0.6,0.9*26
###2023-12-09 13:24:51.999578$GBGSA,A,3,14,24,25,26,33,35,,,,,,,1.1,0.6,0.9*29
###2023-12-09 13:24:52.001908$GPGSV,2,1,07,03,30,251,42,04,42,310,44,16,61,218,46,26,89,050,48*78
###2023-12-09 13:24:52.003963$GPGSV,2,2,07,28,41,080,43,29,22,051,43,31,63,058,47,,,,*4F
###2023-12-09 13:24:52.006297$GLGSV,2,1,06,65,34,322,45,71,27,175,42,72,67,229,46,73,26,049,44*62
###2023-12-09 13:24:52.008059$GLGSV,2,2,06,74,63,006,43,75,40,266,47,,,,,,,,*63
###2023-12-09 13:24:52.010373$GAGSV,1,1,04,04,36,311,44,19,76,185,41,21,80,051,47,27,26,049,42*68
###2023-12-09 13:24:52.012711$GBGSV,2,1,06,14,33,190,40,24,66,041,48,25,48,272,47,26,19,068,44*65
###2023-12-09 13:24:52.014459$GBGSV,2,2,06,33,49,220,47,35,16,060,45,,,,,,,,*65
###2023-12-09 13:24:52.015791$GNVTG,151.24,T,,M,3.40,N,6.30,K,A*22
###2023-12-09 13:24:52.017442$GNGST,182451.10,18.000,,,,0.098,0.068,0.160*5C
###2023-12-09 13:24:52.018744$GNZDA,182451.10,09,12,2023,00,00*7B
###2023-12-09 13:24:52.019388$GNEBP,,,,,,M*13
###2023-12-09 13:24:52.188608$GNGGA,182451.30,4138.0514494,N,07032.3668244,W,1,24,0.6,13.079,M,-29.744,M,0.0,*53
###2023-12-09 13:24:52.388872$GNGGA,182451.50,4138.0512711,N,07032.3667011,W,1,24,0.6,13.077,M,-29.744,M,0.0,*5E
###2023-12-09 13:24:52.588110$GNGGA,182451.70,4138.0511065,N,07032.3665703,W,1,24,0.6,13.050,M,-29.744,M,0.0,*58
###2023-12-09 13:24:52.789848$GNGGA,182451.90,4138.0509350,N,07032.3664529,W,1,24,0.6,13.079,M,-29.744,M,0.0,*5A
###2023-12-09 13:24:52.991635$GNRMC,182452.10,A,4138.0507582,N,07032.3663282,W,3.50,150.00,091223,,,A*5F
###2023-12-09 13:24:52.994519$GNGGA,182452.10,4138.0507582,N,07032.3663282,W,1,24,0.6,13.071,M,-29.744,M,0.0,*5F
###2023-12-09 13:24:52.996335$GPGSA,A,3,03,04,16,26,28,29,31,,,,,,1.1,0.6,0.9*3A
###2023-12-09 13:24:52.998049$GLGSA,A,3,65,71,72,73,74,75,,,,,,,1.1,0.6,0.9*24
###2023-12-09 13:24:52.999644$GAGSA,A,3,04,19,21,27,,,,,,,,,1.1,0.6,0.9*26
###2023-12-09 13:24:53.001356$GBGSA,A,3,14,24,25,26,33,35,,,,,,,1.1,0.6,0.9*29
###2023-12-09 13:24:53.003690$GPGSV,2,1,07,03,30,251,44,04,42,310,45,16,61,218,47,26,89,050,49*7F
###2023-12-09 13:24:53.005717$GPGSV,2,2,07,28,41,080,44,29,22,051,43,31,63,058,48,,,,*47
###2023-12-09 13:24:53.008054$GLGSV,2,1,06,65,34,322,44,71,27,175,41,72,67,229,46,73,26,049,44*60
###2023-12-09 13:24:53.009801$GLGSV,2,2,06,74,63,006,42,75,40,266,47,,,,,,,,*62
###2023-12-09 13:24:53.012136$GAGSV,1,1,04,04,36,311,44,19,76,185,40,21,80,051,46,27,26,049,41*6B
###2023-12-09 13:24:53.014462$GBGSV,2,1,06,14,33,190,42,24,66,041,48,25,48,272,47,26,19,068,44*67
###2023-12-09 13:24:53.016214$GBGSV,2,2,06,33,49,220,47,35,16,060,44,,,,,,,,*64
###2023-12-09 13:24:53.017547$GNVTG,150.00,T,,M,3.50,N,6.48,K,A*2B
###2023-12-09 13:24:53.019219$GNGST,182452.10,18.000,,,,0.099,0.068,0.160*5E
###2023-12-09 13:24:53.020512$GNZDA,182452.10,09,12,2023,00,00*78
###2023-12-09 13:24:53.021151$GNEBP,,,,,,M*13
###2023-12-09 13:24:53.194990$GNGGA,182452.30,4138.0505981,N,07032.3662016,W,1,24,0.6,13.057,M,-29.744,M,0.0,*5A
###2023-12-09 13:24:53.386862$GNGGA,182452.50,4138.0504302,N,07032.3660692,W,1,24,0.6,13.088,M,-29.744,M,0.0,*56
###2023-12-09 13:24:53.590500$GNGGA,182452.70,4138.0502617,N,07032.3659334,W,1,24,0.6,13.062,M,-29.744,M,0.0,*54
###2023-12-09 13:24:53.786794$GNGGA,182452.90,4138.0501009,N,07032.3658089,W,1,24,0.6,13.063,M,-29.744,M,0.0,*55
###2023-12-09 13:24:53.990646$GNRMC,182453.10,A,4138.0499277,N,07032.3656853,W,3.60,149.43,091223,,,A*59
###2023-12-09 13:24:53.993495$GNGGA,182453.10,4138.0499277,N,07032.3656853,W,1,24,0.6,13.100,M,-29.744,M,0.0,*52
###2023-12-09 13:24:53.995295$GPGSA,A,3,03,04,16,26,28,29,31,,,,,,1.1,0.6,0.9*3A
###2023-12-09 13:24:53.997005$GLGSA,A,3,65,71,72,73,74,75,,,,,,,1.1,0.6,0.9*24
###2023-12-09 13:24:53.998587$GAGSA,A,3,04,19,21,27,,,,,,,,,1.1,0.6,0.9*26
###2023-12-09 13:24:54.000301$GBGSA,A,3,14,24,25,26,33,35,,,,,,,1.1,0.6,0.9*29
###2023-12-09 13:24:54.002642$GPGSV,2,1,07,03,30,251,45,04,42,310,44,16,61,218,46,26,89,050,48*7F
