###2023-12-09 12:41:04.973812$GNEBP,,,,,,M*13
###2023-12-09 12:41:05.142046$GNGGA,174104.30,4138.0605490,N,07032.3730481,W,1,23,0.7,13.457,M,-29.744,M,0.0,*55
###2023-12-09 12:41:05.342009$GNGGA,174104.50,4138.0605575,N,07032.3730155,W,1,23,0.7,13.456,M,-29.744,M,0.0,*54
###2023-12-09 12:41:05.543945$GNGGA,174104.70,4138.0605842,N,07032.3729872,W,1,23,0.7,13.447,M,-29.744,M,0.0,*5B
###2023-12-09 12:41:05.741227$GNGGA,174104.90,4138.0606153,N,07032.3729581,W,1,23,0.7,13.429,M,-29.744,M,0.0,*56
###2023-12-09 12:41:05.942032$GNRMC,174105.10,A,4138.0606326,N,07032.3729278,W,0.45,25.05,091223,,,A*60
###2023-12-09 12:41:05.944901$GNGGA,174105.10,4138.0606326,N,07032.3729278,W,1,23,0.7,13.416,M,-29.744,M,0.0,*52
###2023-12-09 12:41:05.946807$GPGSA,A,3,03,04,16,26,28,29,31,32,,,,,1.2,0.7,1.0*31
###2023-12-09 12:41:05.948474$GLGSA,A,3,71,72,73,74,75,,,,,,,,1.2,0.7,1.0*2D
###2023-12-09 12:41:05.950054$GAGSA,A,3,04,19,21,27,,,,,,,,,1.2,0.7,1.0*2C
###2023-12-09 12:41:05.951711$GBGSA,A,3,14,24,25,26,33,,,,,,,,1.2,0.7,1.0*25
###2023-12-09 12:41:05.954032$GPGSV,2,1,08,03,38,274,45,04,24,311,42,16,39,208,46,26,69,207,48*7A
###2023-12-09 12:41:05.956375$GPGSV,2,2,08,28,56,059,45,29,25,071,41,31,73,010,48,32,28,135,40*79
###2023-12-09 12:41:05.958755$GLGSV,2,1,05,71,54,170,46,72,68,305,48,73,45,035,48,74,71,299,43*6E
###2023-12-09 12:41:05.960207$GLGSV,2,2,05,75,24,243,43,,,,,,,,,,,,*56
###2023-12-09 12:41:05.962520$GAGSV,1,1,04,04,23,311,42,19,83,292,41,21,80,172,46,27,39,049,44*6C
###2023-12-09 12:41:05.964861$GBGSV,2,1,05,14,52,196,46,24,79,359,49,25,34,255,45,26,33,058,45*62
###2023-12-09 12:41:05.966313$GBGSV,2,2,05,33,62,248,48,,,,,,,,,,,,*58
###2023-12-09 12:41:05.967606$GNVTG,25.05,T,,M,0.45,N,0.83,K,A*1B
###2023-12-09 12:41:05.969257$GNGST,174105.10,18.000,,,,0.079,0.069,0.160*5F
###2023-12-09 12:41:05.970556$GNZDA,174105.10,09,12,2023,00,00*76
###2023-12-09 12:41:05.971210$GNEBP,,,,,,M*13
###2023-12-09 12:41:06.145318$GNGGA,174105.30,4138.0606433,N,07032.3728988,W,1,23,0.7,13.418,M,-29.744,M,0.0,*58
###2023-12-09 12:41:06.342118$GNGGA,174105.50,4138.0606629,N,07032.3728720,W,1,23,0.7,13.420,M,-29.744,M,0.0,*50
###2023-12-09 12:41:06.542453$GNGGA,174105.70,4138.0606854,N,07032.3728432,W,1,23,0.7,13.419,M,-29.744,M,0.0,*5C
###2023-12-09 12:41:06.741589$GNGGA,174105.90,4138.0607037,N,07032.3728154,W,1,23,0.7,13.403,M,-29.744,M,0.0,*50
###2023-12-09 12:41:06.942716$GNRMC,174106.10,A,4138.0607157,N,07032.3727913,W,0.41,25.05,091223,,,A*6A
###2023-12-09 12:41:06.945558$GNGGA,174106.10,4138.0607157,N,07032.3727913,W,1,23,0.7,13.394,M,-29.744,M,0.0,*51
###2023-12-09 12:41:06.947448$GPGSA,A,3,03,04,16,26,28,29,31,32,,,,,1.2,0.7,1.0*31
###2023-12-09 12:41:06.949118$GLGSA,A,3,71,72,73,74,75,,,,,,,,1.2,0.7,1.0*2D
###2023-12-09 12:41:06.950721$GAGSA,A,3,04,19,21,27,,,,,,,,,1.2,0.7,1.0*2C
###2023-12-09 12:41:06.952362$GBGSA,A,3,14,24,25,26,33,,,,,,,,1.2,0.7,1.0*25
###2023-12-09 12:41:06.954697$GPGSV,2,1,08,03,38,274,44,04,24,311,40,16,39,208,45,26,69,207,46*74
###2023-12-09 12:41:06.957023$GPGSV,2,2,08,28,56,059,43,29,25,071,38,31,73,010,46,32,28,135,39*71
###2023-12-09 12:41:06.959368$GLGSV,2,1,05,71,54,170,47,72,68,305,47,73,45,035,47,74,71,299,43*6F
###2023-12-09 12:41:06.960824$GLGSV,2,2,05,75,24,243,42,,,,,,,,,,,,*57
###2023-12-09 12:41:06.963159$GAGSV,1,1,04,04,23,311,41,19,83,292,39,21,80,172,45,27,39,049,42*65
###2023-12-09 12:41:06.965495$GBGSV,2,1,05,14,52,196,46,24,79,359,48,25,34,255,45,26,33,058,45*63
###2023-12-09 12:41:06.966969$GBGSV,2,2,05,33,62,248,48,,,,,,,,,,,,*58
###2023-12-09 12:41:06.968261$GNVTG,25.05,T,,M,0.41,N,0.76,K,A*15
###2023-12-09 12:41:06.969914$GNGST,174106.10,18.000,,,,0.079,0.069,0.160*5C
###2023-12-09 12:41:06.971217$GNZDA,174106.10,09,12,2023,00,00*75
###2023-12-09 12:41:06.971856$GNEBP,,,,,,M*13
###2023-12-09 12:41:07.141797$GNGGA,174106.30,4138.0607333,N,07032.3727661,W,1,23,0.7,13.392,M,-29.744,M,0.0,*5F
###2023-12-09 12:41:07.341942$GNGGA,174106.50,4138.0607547,N,07032.3727419,W,1,23,0.7,13.394,M,-29.744,M,0.0,*57
###2023-12-09 12:41:07.541347$GNGGA,174106.70,4138.0607725,N,07032.3727190,W,1,23,0.7,13.393,M,-29.744,M,0.0,*50
###2023-12-09 12:41:07.741487$GNGGA,174106.90,4138.0607847,N,07032.3726917,W,1,23,0.7,13.382,M,-29.744,M,0.0,*53
###2023-12-09 12:41:07.942579$GNRMC,174107.10,A,4138.0607983,N,07032.3726693,W,0.37,25.05,091223,,,A*6D
###2023-12-09 12:41:07.945440$GNGGA,174107.10,4138.0607983,N,07032.3726693,W,1,23,0.7,13.371,M,-29.744,M,0.0,*5C
###2023-12-09 12:41:07.947337$GPGSA,A,3,03,04,16,26,28,29,31,32,,,,,1.2,0.7,1.0*31
###2023-12-09 12:41:07.949018$GLGSA,A,3,71,72,73,74,75,,,,,,,,1.2,0.7,1.0*2D
###2023-12-09 12:41:07.950632$GAGSA,A,3,04,19,21,27,,,,,,,,,1.2,0.7,1.0*2C
###2023-12-09 12:41:07.952286$GBGSA,A,3,14,24,25,26,33,,,,,,,,1.2,0.7,1.0*25
###2023-12-09 12:41:07.954634$GPGSV,2,1,08,03,38,274,44,04,24,311,41,16,39,208,45,26,69,207,46*75
###2023-12-09 12:41:07.957009$GPGSV,2,2,08,28,56,059,44,29,25,071,39,31,73,010,46,32,28,135,39*77
###2023-12-09 12:41:07.959388$GLGSV,2,1,05,71,54,170,47,72,68,305,47,73,45,035,46,74,71,299,43*6E
###2023-12-09 12:41:07.960861$GLGSV,2,2,05,75,24,243,42,,,,,,,,,,,,*57
###2023-12-09 12:41:07.963199$GAGSV,1,1,04,04,23,311,42,19,83,292,40,21,80,172,46,27,39,049,44*6D
###2023-12-09 12:41:07.965533$GBGSV,2,1,05,14,52,196,46,24,79,359,48,25,34,255,44,26,33,058,46*61
###2023-12-09 12:41:07.967011$GBGSV,2,2,05,33,62,248,48,,,,,,,,,,,,*58
###2023-12-09 12:41:07.968305$GNVTG,25.05,T,,M,0.37,N,0.68,K,A*1B
###2023-12-09 12:41:07.969956$GNGST,174107.10,18.000,,,,0.080,0.071,0.170*53
###2023-12-09 12:41:07.971264$GNZDA,174107.10,09,12,2023,00,00*74
###2023-12-09 12:41:07.971905$GNEBP,,,,,,M*13
###2023-12-09 12:41:08.142614$GNGGA,174107.30,4138.0608142,N,07032.3726519,W,1,23,0.7,13.358,M,-29.744,M,0.0,*5E
###2023-12-09 12:41:08.345386$GNGGA,174107.50,4138.0608345,N,07032.3726322,W,1,23,0.7,13.360,M,-29.744,M,0.0,*58
###2023-12-09 12:41:08.543297$GNGGA,174107.70,4138.0608543,N,07032.3726071,W,1,23,0.7,13.365,M,-29.744,M,0.0,*5A
###2023-12-09 12:41:08.741498$GNGGA,174107.90,4138.0608657,N,07032.3725852,W,1,23,0.7,13.354,M,-29.744,M,0.0,*5A
###2023-12-09 12:41:08.948724$GNRMC,174108.10,A,4138.0608741,N,07032.3725712,W,0.21,25.05,091223,,,A*61
###2023-12-09 12:41:08.951614$GNGGA,174108.10,4138.0608741,N,07032.3725712,W,1,23,0.7,13.342,M,-29.744,M,0.0,*57
###2023-12-09 12:41:08.953482$GPGSA,A,3,03,04,16,26,28,29,31,32,,,,,1.2,0.7,1.0*31
###2023-12-09 12:41:08.955149$GLGSA,A,3,71,72,73,74,75,,,,,,,,1.2,0.7,1.0*2D
###2023-12-09 12:41:08.956738$GAGSA,A,3,04,19,21,27,,,,,,,,,1.2,0.7,1.0*2C
###2023-12-09 12:41:08.958385$GBGSA,A,3,14,24,25,26,33,,,,,,,,1.2,0.7,1.0*25
###2023-12-09 12:41:08.960737$GPGSV,2,1,08,03,38,274,45,04,24,311,41,16,39,208,46,26,69,207,47*76
###2023-12-09 12:41:08.963091$GPGSV,2,2,08,28,56,059,45,29,25,071,40,31,73,010,46,32,28,135,40*76
###2023-12-09 12:41:08.965425$GLGSV,2,1,05,71,52,170,47,72,68,305,47,73,45,035,45,74,71,299,43*6B
###2023-12-09 12:41:08.966895$GLGSV,2,2,05,75,24,243,42,,,,,,,,,,,,*57
###2023-12-09 12:41:08.969219$GAGSV,1,1,04,04,23,311,42,19,83,292,41,21,80,172,46,27,39,049,44*6C
###2023-12-09 12:41:08.971564$GBGSV,2,1,05,14,52,196,46,24,79,359,48,25,34,255,44,26,33,058,46*61
###2023-12-09 12:41:08.973020$GBGSV,2,2,05,33,62,248,49,,,,,,,,,,,,*59
###2023-12-09 12:41:08.974313$GNVTG,25.05,T,,M,0.21,N,0.40,K,A*16
###2023-12-09 12:41:08.975972$GNGST,174108.10,18.000,,,,0.080,0.071,0.170*5C
###2023-12-09 12:41:08.977264$GNZDA,174108.10,09,12,2023,00,00*7B
###2023-12-09 12:41:08.977903$GNEBP,,,,,,M*13
###2023-12-09 12:41:09.143981$GNGGA,174108.30,4138.0608920,N,07032.3725592,W,1,23,0.7,13.330,M,-29.744,M,0.0,*53
###2023-12-09 12:41:09.343502$GNGGA,174108.50,4138.0609147,N,07032.3725412,W,1,23,0.7,13.331,M,-29.744,M,0.0,*55
###2023-12-09 12:41:09.544889$GNGGA,174108.70,4138.0609293,N,07032.3725197,W,1,23,0.7,13.334,M,-29.744,M,0.0,*50
###2023-12-09 12:41:09.743390$GNGGA,174108.90,4138.0609413,N,07032.3725067,W,1,23,0.7,13.333,M,-29.744,M,0.0,*59
###2023-12-09 12:41:09.940497$GNRMC,174109.10,A,4138.0609523,N,07032.3725001,W,0.23,25.05,091223,,,A*60
###2023-12-09 12:41:09.943354$GNGGA,174109.10,4138.0609523,N,07032.3725001,W,1,23,0.7,13.321,M,-29.744,M,0.0,*51
###2023-12-09 12:41:09.945559$GPGSA,A,3,03,04,16,26,28,29,31,32,,,,,1.2,0.7,1.0*31
###2023-12-09 12:41:09.947258$GLGSA,A,3,71,72,73,74,75,,,,,,,,1.2,0.7,1.0*2D
###2023-12-09 12:41:09.948876$GAGSA,A,3,04,19,21,27,,,,,,,,,1.2,0.7,1.0*2C
###2023-12-09 12:41:09.950528$GBGSA,A,3,14,24,25,26,33,,,,,,,,1.2,0.7,1.0*25
###2023-12-09 12:41:09.952877$GPGSV,2,1,08,03,38,274,44,04,24,311,41,16,39,208,45,26,69,207,48*7B
###2023-12-09 12:41:09.955229$GPGSV,2,2,08,28,56,059,45,29,25,071,40,31,73,010,47,32,28,135,40*77
###2023-12-09 12:41:09.957556$GLGSV,2,1,05,71,52,170,47,72,68,302,47,73,45,035,46,74,71,299,43*6F
###2023-12-09 12:41:09.959032$GLGSV,2,2,05,75,24,243,42,,,,,,,,,,,,*57
###2023-12-09 12:41:09.961354$GAGSV,1,1,04,04,23,311,41,19,83,292,40,21,80,172,46,27,39,049,44*6E
