###2023-12-09 13:05:26.998019$GNGST,180526.10,18.000,,,,0.082,0.068,0.160*54
###2023-12-09 13:05:26.999365$GNZDA,180526.10,09,12,2023,00,00*78
###2023-12-09 13:05:27.000012$GNEBP,,,,,,M*13
###2023-12-09 13:05:27.173144$GNGGA,180526.30,4138.0601120,N,07032.2521009,W,1,24,0.6,13.557,M,-29.742,M,0.0,*56
###2023-12-09 13:05:27.371141$GNGGA,180526.50,4138.0602570,N,07032.2519983,W,1,24,0.6,13.550,M,-29.742,M,0.0,*55
###2023-12-09 13:05:27.567638$GNGGA,180526.70,4138.0604001,N,07032.2518981,W,1,24,0.6,13.547,M,-29.742,M,0.0,*57
###2023-12-09 13:05:27.767761$GNGGA,180526.90,4138.0605498,N,07032.2518196,W,1,24,0.6,13.556,M,-29.742,M,0.0,*52
###2023-12-09 13:05:27.969049$GNRMC,180527.10,A,4138.0606972,N,07032.2517522,W,2.84,19.51,091223,,,A*63
###2023-12-09 13:05:27.971914$GNGGA,180527.10,4138.0606972,N,07032.2517522,W,1,24,0.6,13.559,M,-29.742,M,0.0,*5A
###2023-12-09 13:05:27.973766$GPGSA,A,3,03,04,16,26,28,29,31,32,,,,,1.1,0.6,0.9*3B
###2023-12-09 13:05:27.975491$GLGSA,A,3,65,71,72,73,74,75,,,,,,,1.1,0.6,0.9*24
###2023-12-09 13:05:27.977079$GAGSA,A,3,04,19,21,27,,,,,,,,,1.1,0.6,0.9*26
###2023-12-09 13:05:27.978732$GBGSA,A,3,14,24,25,26,33,,,,,,,,1.1,0.6,0.9*2F
###2023-12-09 13:05:27.981052$GPGSV,2,1,08,03,34,259,44,04,34,311,44,16,52,213,46,26,82,210,48*7B
###2023-12-09 13:05:27.983382$GPGSV,2,2,08,28,48,071,44,29,25,060,39,31,68,040,46,32,18,140,41*73
###2023-12-09 13:05:27.985704$GLGSV,2,1,06,65,26,327,42,71,39,173,46,72,73,261,46,73,34,043,43*69
###2023-12-09 13:05:27.987455$GLGSV,2,2,06,74,69,343,42,75,33,255,45,,,,,,,,*6C
###2023-12-09 13:05:27.989773$GAGSV,1,1,04,04,30,312,42,19,83,207,41,21,86,104,46,27,32,048,41*69
###2023-12-09 13:05:27.992111$GBGSV,2,1,05,14,42,192,45,24,72,028,48,25,42,263,47,26,25,063,42*65
###2023-12-09 13:05:27.993563$GBGSV,2,2,05,33,56,230,48,,,,,,,,,,,,*50
###2023-12-09 13:05:27.994859$GNVTG,19.51,T,,M,2.84,N,5.26,K,A*10
###2023-12-09 13:05:27.996494$GNGST,180527.10,18.000,,,,0.082,0.068,0.160*55
###2023-12-09 13:05:27.997782$GNZDA,180527.10,09,12,2023,00,00*79
###2023-12-09 13:05:27.998418$GNEBP,,,,,,M*13
###2023-12-09 13:05:28.166926$GNGGA,180527.30,4138.0608424,N,07032.2516864,W,1,24,0.6,13.548,M,-29.742,M,0.0,*56
###2023-12-09 13:05:28.368238$GNGGA,180527.50,4138.0609908,N,07032.2516399,W,1,24,0.6,13.551,M,-29.742,M,0.0,*53
###2023-12-09 13:05:28.568777$GNGGA,180527.70,4138.0611417,N,07032.2516007,W,1,24,0.6,13.559,M,-29.742,M,0.0,*57
###2023-12-09 13:05:28.767788$GNGGA,180527.90,4138.0612939,N,07032.2515709,W,1,24,0.6,13.571,M,-29.742,M,0.0,*5B
###2023-12-09 13:05:28.973947$GNRMC,180528.10,A,4138.0614507,N,07032.2515478,W,2.90,5.40,091223,,,A*55
###2023-12-09 13:05:28.976831$GNGGA,180528.10,4138.0614507,N,07032.2515478,W,1,24,0.6,13.563,M,-29.742,M,0.0,*5D
###2023-12-09 13:05:28.978694$GPGSA,A,3,03,04,16,26,28,29,31,32,,,,,1.1,0.6,0.9*3B
###2023-12-09 13:05:28.980413$GLGSA,A,3,65,71,72,73,74,75,,,,,,,1.1,0.6,0.9*24
###2023-12-09 13:05:28.981989$GAGSA,A,3,04,19,21,27,,,,,,,,,1.1,0.6,0.9*26
###2023-12-09 13:05:28.983644$GBGSA,A,3,14,24,25,26,33,,,,,,,,1.1,0.6,0.9*2F
###2023-12-09 13:05:28.985968$GPGSV,2,1,08,03,34,259,44,04,34,311,43,16,52,213,45,26,82,210,47*70
###2023-12-09 13:05:28.988306$GPGSV,2,2,08,28,48,072,45,29,25,060,42,31,68,040,46,32,18,140,40*7C
###2023-12-09 13:05:28.990645$GLGSV,2,1,06,65,26,327,39,71,39,173,46,72,73,261,46,73,34,043,44*62
###2023-12-09 13:05:28.992388$GLGSV,2,2,06,74,69,343,42,75,33,255,46,,,,,,,,*6F
###2023-12-09 13:05:28.994724$GAGSV,1,1,04,04,30,312,42,19,83,207,40,21,86,104,46,27,32,048,40*69
###2023-12-09 13:05:28.997053$GBGSV,2,1,05,14,42,192,44,24,72,028,48,25,42,263,46,26,25,063,43*64
###2023-12-09 13:05:28.998504$GBGSV,2,2,05,33,56,230,48,,,,,,,,,,,,*50
###2023-12-09 13:05:28.999773$GNVTG,5.40,T,,M,2.90,N,5.36,K,A*29
###2023-12-09 13:05:29.001419$GNGST,180528.10,18.000,,,,0.082,0.068,0.160*5A
###2023-12-09 13:05:29.002718$GNZDA,180528.10,09,12,2023,00,00*76
###2023-12-09 13:05:29.003355$GNEBP,,,,,,M*13
###2023-12-09 13:05:29.166788$GNGGA,180528.30,4138.0616094,N,07032.2515319,W,1,24,0.6,13.554,M,-29.742,M,0.0,*56
###2023-12-09 13:05:29.367584$GNGGA,180528.50,4138.0617670,N,07032.2515302,W,1,24,0.6,13.558,M,-29.742,M,0.0,*5B
###2023-12-09 13:05:29.568214$GNGGA,180528.70,4138.0619241,N,07032.2515191,W,1,24,0.6,13.558,M,-29.742,M,0.0,*59
###2023-12-09 13:05:29.769309$GNGGA,180528.90,4138.0620793,N,07032.2515138,W,1,24,0.6,13.544,M,-29.742,M,0.0,*59
###2023-12-09 13:05:29.969553$GNRMC,180529.10,A,4138.0622285,N,07032.2515335,W,2.68,351.90,091223,,,A*5A
###2023-12-09 13:05:29.973038$GNGGA,180529.10,4138.0622285,N,07032.2515335,W,1,24,0.6,13.542,M,-29.742,M,0.0,*59
###2023-12-09 13:05:29.975299$GPGSA,A,3,03,04,16,26,28,29,31,32,,,,,1.1,0.6,0.9*3B
###2023-12-09 13:05:29.977384$GLGSA,A,3,65,71,72,73,74,75,,,,,,,1.1,0.6,0.9*24
###2023-12-09 13:05:29.979315$GAGSA,A,3,04,19,21,27,,,,,,,,,1.1,0.6,0.9*26
###2023-12-09 13:05:29.981314$GBGSA,A,3,14,24,25,26,33,,,,,,,,1.1,0.6,0.9*2F
###2023-12-09 13:05:29.984174$GPGSV,2,1,08,03,34,259,44,04,34,311,42,16,52,213,47,26,82,210,48*7C
###2023-12-09 13:05:29.987007$GPGSV,2,2,08,28,48,072,45,29,25,059,44,31,68,040,47,32,18,140,44*75
###2023-12-09 13:05:29.989821$GLGSV,2,1,06,65,26,327,40,71,39,173,46,72,73,261,46,73,34,043,43*6B
###2023-12-09 13:05:29.991945$GLGSV,2,2,06,74,69,343,42,75,33,255,45,,,,,,,,*6C
###2023-12-09 13:05:29.994767$GAGSV,1,1,04,04,30,312,40,19,83,207,41,21,86,104,46,27,32,048,41*6B
###2023-12-09 13:05:29.997589$GBGSV,2,1,05,14,42,192,43,24,72,028,47,25,42,263,45,26,25,063,43*6F
###2023-12-09 13:05:29.999355$GBGSV,2,2,05,33,56,230,47,,,,,,,,,,,,*5F
###2023-12-09 13:05:30.000958$GNVTG,351.90,T,,M,2.68,N,4.97,K,A*2B
###2023-12-09 13:05:30.002992$GNGST,180529.10,18.000,,,,0.082,0.068,0.160*5B
###2023-12-09 13:05:30.004553$GNZDA,180529.10,09,12,2023,00,00*77
###2023-12-09 13:05:30.005323$GNEBP,,,,,,M*13
###2023-12-09 13:05:30.167730$GNGGA,180529.30,4138.0623715,N,07032.2515566,W,1,24,0.6,13.545,M,-29.742,M,0.0,*51
###2023-12-09 13:05:30.369199$GNGGA,180529.50,4138.0625077,N,07032.2515849,W,1,24,0.6,13.544,M,-29.742,M,0.0,*53
###2023-12-09 13:05:30.567618$GNGGA,180529.70,4138.0626408,N,07032.2516201,W,1,24,0.6,13.542,M,-29.742,M,0.0,*5D
###2023-12-09 13:05:30.767636$GNGGA,180529.90,4138.0627692,N,07032.2516604,W,1,24,0.6,13.541,M,-29.742,M,0.0,*51
###2023-12-09 13:05:30.969014$GNRMC,180530.10,A,4138.0628912,N,07032.2517108,W,2.31,339.90,091223,,,A*51
###2023-12-09 13:05:30.971878$GNGGA,180530.10,4138.0628912,N,07032.2517108,W,1,24,0.6,13.541,M,-29.742,M,0.0,*53
###2023-12-09 13:05:30.973731$GPGSA,A,3,03,04,16,26,28,29,31,32,,,,,1.1,0.6,0.9*3B
###2023-12-09 13:05:30.975453$GLGSA,A,3,65,71,72,73,74,75,,,,,,,1.1,0.6,0.9*24
###2023-12-09 13:05:30.977034$GAGSA,A,3,04,19,21,27,,,,,,,,,1.1,0.6,0.9*26
###2023-12-09 13:05:30.978685$GBGSA,A,3,14,24,25,26,33,,,,,,,,1.1,0.6,0.9*2F
###2023-12-09 13:05:30.981007$GPGSV,2,1,08,03,34,259,43,04,34,311,41,16,52,213,46,26,82,210,48*79
###2023-12-09 13:05:30.983347$GPGSV,2,2,08,28,48,072,46,29,25,059,43,31,68,040,47,32,18,140,45*70
###2023-12-09 13:05:30.985666$GLGSV,2,1,06,65,26,327,40,71,39,173,46,72,73,261,46,73,34,043,44*6C
###2023-12-09 13:05:30.987416$GLGSV,2,2,06,74,69,343,42,75,33,255,44,,,,,,,,*6D
###2023-12-09 13:05:30.989729$GAGSV,1,1,04,04,30,312,41,19,83,207,41,21,86,104,46,27,32,048,41*6A
###2023-12-09 13:05:30.992059$GBGSV,2,1,05,14,42,192,44,24,72,028,49,25,42,263,47,26,25,063,43*64
###2023-12-09 13:05:30.993507$GBGSV,2,2,05,33,56,230,47,,,,,,,,,,,,*5F
###2023-12-09 13:05:30.994851$GNVTG,339.90,T,,M,2.31,N,4.28,K,A*2D
###2023-12-09 13:05:30.996531$GNGST,180530.10,18.000,,,,0.082,0.067,0.160*5C
###2023-12-09 13:05:30.997859$GNZDA,180530.10,09,12,2023,00,00*7F
###2023-12-09 13:05:30.998520$GNEBP,,,,,,M*13
###2023-12-09 13:05:31.166817$GNGGA,180530.30,4138.0630064,N,07032.2517734,W,1,24,0.6,13.540,M,-29.742,M,0.0,*58
###2023-12-09 13:05:31.367143$GNGGA,180530.50,4138.0631214,N,07032.2518443,W,1,24,0.6,13.545,M,-29.742,M,0.0,*53
###2023-12-09 13:05:31.568595$GNGGA,180530.70,4138.0632366,N,07032.2519176,W,1,24,0.6,13.543,M,-29.742,M,0.0,*52
###2023-12-09 13:05:31.767682$GNGGA,180530.90,4138.0633500,N,07032.2519960,W,1,24,0.6,13.545,M,-29.742,M,0.0,*52
###2023-12-09 13:05:31.970441$GNRMC,180531.10,A,4138.0634611,N,07032.2520810,W,2.29,330.07,091223,,,A*5B
###2023-12-09 13:05:31.973345$GNGGA,180531.10,4138.0634611,N,07032.2520810,W,1,24,0.6,13.545,M,-29.742,M,0.0,*53
###2023-12-09 13:05:31.975226$GPGSA,A,3,03,04,16,26,28,29,31,32,,,,,1.1,0.6,0.9*3B
###2023-12-09 13:05:31.976944$GLGSA,A,3,65,71,72,73,74,75,,,,,,,1.1,0.6,0.9*24
###2023-12-09 13:05:31.978520$GAGSA,A,3,04,19,21,27,,,,,,,,,1.1,0.6,0.9*26
###2023-12-09 13:05:31.980181$GBGSA,A,3,14,24,25,26,33,,,,,,,,1.1,0.6,0.9*2F
###2023-12-09 13:05:31.982510$GPGSV,2,1,08,03,34,259,44,04,34,311,41,16,52,213,46,26,82,210,48*7E
###2023-12-09 13:05:31.984859$GPGSV,2,2,08,28,48,072,46,29,25,059,43,31,68,042,47,32,18,140,45*72
###2023-12-09 13:05:31.987203$GLGSV,2,1,06,65,26,327,40,71,39,173,45,72,73,261,46,73,34,043,44*6F
