###2023-12-09 12:25:47.518683$GNGGA,172546.70,4138.0384130,N,07032.4361402,W,1,18,0.8,10.080,M,-29.746,M,0.0,*52
###2023-12-09 12:25:47.715568$GNGGA,172546.90,4138.0384100,N,07032.4361374,W,1,18,0.8,10.074,M,-29.746,M,0.0,*52
###2023-12-09 12:25:47.917793$GNRMC,172547.10,A,4138.0384074,N,07032.4361355,W,0.04,,091223,,,A*47
###2023-12-09 12:25:47.920890$GNGGA,172547.10,4138.0384074,N,07032.4361355,W,1,18,0.8,10.074,M,-29.746,M,0.0,*5A
###2023-12-09 12:25:47.922788$GPGSA,A,3,03,16,25,26,28,29,31,32,,,,,1.4,0.8,1.1*3A
###2023-12-09 12:25:47.924394$GLGSA,A,3,71,72,73,75,,,,,,,,,1.4,0.8,1.1*26
###2023-12-09 12:25:47.925864$GAGSA,A,3,21,27,,,,,,,,,,,1.4,0.8,1.1*28
###2023-12-09 12:25:47.927472$GBGSA,A,3,14,25,26,33,,,,,,,,,1.4,0.8,1.1*2B
###2023-12-09 12:25:47.929828$GPGSV,2,1,08,03,39,282,45,16,32,206,40,25,15,045,39,26,62,205,45*7A
###2023-12-09 12:25:47.932205$GPGSV,2,2,08,28,61,050,43,29,24,078,43,31,73,346,38,32,34,132,47*72
###2023-12-09 12:25:47.934550$GLGSV,1,1,04,71,62,167,46,72,61,316,43,73,52,030,49,75,18,237,43*67
###2023-12-09 12:25:47.936329$GAGSV,1,1,02,21,74,180,45,27,45,051,45,,,,,,,,*63
###2023-12-09 12:25:47.938690$GBGSV,1,1,04,14,59,200,45,25,29,249,40,26,38,055,48,33,64,264,40*67
###2023-12-09 12:25:47.939858$GNVTG,,T,,M,0.04,N,0.07,K,A*3E
###2023-12-09 12:25:47.941522$GNGST,172547.10,29.000,,,,0.230,0.220,0.480*52
###2023-12-09 12:25:47.942845$GNZDA,172547.10,09,12,2023,00,00*72
###2023-12-09 12:25:47.943506$GNEBP,,,,,,M*13
###2023-12-09 12:25:48.117669$GNGGA,172547.30,4138.0384055,N,07032.4361334,W,1,18,0.8,10.073,M,-29.746,M,0.0,*5B
###2023-12-09 12:25:48.317533$GNGGA,172547.50,4138.0384033,N,07032.4361324,W,1,18,0.8,10.070,M,-29.746,M,0.0,*5F
###2023-12-09 12:25:48.517436$GNGGA,172547.70,4138.0384011,N,07032.4361309,W,1,18,0.8,10.063,M,-29.746,M,0.0,*50
###2023-12-09 12:25:48.716590$GNGGA,172547.90,4138.0383982,N,07032.4361271,W,1,18,0.8,10.054,M,-29.746,M,0.0,*50
###2023-12-09 12:25:48.918301$GNRMC,172548.10,A,4138.0383955,N,07032.4361253,W,0.02,,091223,,,A*44
###2023-12-09 12:25:48.921378$GNGGA,172548.10,4138.0383955,N,07032.4361253,W,1,18,0.8,10.053,M,-29.746,M,0.0,*5A
###2023-12-09 12:25:48.923460$GPGSA,A,3,03,16,25,26,28,29,31,32,,,,,1.4,0.8,1.1*3A
###2023-12-09 12:25:48.925232$GLGSA,A,3,71,72,73,75,,,,,,,,,1.4,0.8,1.1*26
###2023-12-09 12:25:48.926874$GAGSA,A,3,21,27,,,,,,,,,,,1.4,0.8,1.1*28
###2023-12-09 12:25:48.928626$GBGSA,A,3,14,25,26,33,,,,,,,,,1.4,0.8,1.1*2B
###2023-12-09 12:25:48.931137$GPGSV,2,1,08,03,39,282,45,16,32,206,40,25,15,045,39,26,62,205,45*7A
###2023-12-09 12:25:48.933642$GPGSV,2,2,08,28,61,050,43,29,24,078,43,31,73,346,38,32,34,132,46*73
###2023-12-09 12:25:48.936167$GLGSV,1,1,04,71,62,167,46,72,61,316,43,73,52,030,48,75,18,237,43*66
###2023-12-09 12:25:48.938099$GAGSV,1,1,02,21,74,180,45,27,45,051,45,,,,,,,,*63
###2023-12-09 12:25:48.940622$GBGSV,1,1,04,14,59,200,45,25,29,249,40,26,38,055,48,33,64,264,40*67
###2023-12-09 12:25:48.941926$GNVTG,,T,,M,0.02,N,0.04,K,A*3B
###2023-12-09 12:25:48.943752$GNGST,172548.10,29.000,,,,0.230,0.220,0.480*5D
###2023-12-09 12:25:48.945203$GNZDA,172548.10,09,12,2023,00,00*7D
###2023-12-09 12:25:48.945992$GNEBP,,,,,,M*13
###2023-12-09 12:25:49.118063$GNGGA,172548.30,4138.0383938,N,07032.4361236,W,1,18,0.8,10.050,M,-29.746,M,0.0,*53
###2023-12-09 12:25:49.318951$GNGGA,172548.50,4138.0383918,N,07032.4361222,W,1,18,0.8,10.044,M,-29.746,M,0.0,*57
###2023-12-09 12:25:49.517447$GNGGA,172548.70,4138.0383893,N,07032.4361202,W,1,18,0.8,10.037,M,-29.746,M,0.0,*51
###2023-12-09 12:25:49.716676$GNGGA,172548.90,4138.0383868,N,07032.4361181,W,1,18,0.8,10.031,M,-29.746,M,0.0,*55
###2023-12-09 12:25:49.917251$GNRMC,172549.10,A,4138.0383834,N,07032.4361150,W,0.06,,091223,,,A*47
###2023-12-09 12:25:49.920324$GNGGA,172549.10,4138.0383834,N,07032.4361150,W,1,18,0.8,10.027,M,-29.746,M,0.0,*5E
###2023-12-09 12:25:49.922210$GPGSA,A,3,03,16,25,26,28,29,31,32,,,,,1.4,0.8,1.1*3A
###2023-12-09 12:25:49.923825$GLGSA,A,3,71,72,73,75,,,,,,,,,1.4,0.8,1.1*26
###2023-12-09 12:25:49.925298$GAGSA,A,3,21,27,,,,,,,,,,,1.4,0.8,1.1*28
###2023-12-09 12:25:49.926914$GBGSA,A,3,14,25,26,33,,,,,,,,,1.4,0.8,1.1*2B
###2023-12-09 12:25:49.929257$GPGSV,2,1,08,03,39,282,44,16,32,206,40,25,15,045,38,26,62,205,44*7B
###2023-12-09 12:25:49.931623$GPGSV,2,2,08,28,61,050,43,29,24,078,42,31,73,346,38,32,34,132,46*72
###2023-12-09 12:25:49.933987$GLGSV,1,1,04,71,62,167,46,72,61,316,43,73,52,030,49,75,18,237,43*67
###2023-12-09 12:25:49.935772$GAGSV,1,1,02,21,74,180,45,27,45,051,45,,,,,,,,*63
###2023-12-09 12:25:49.938103$GBGSV,1,1,04,14,59,200,45,25,29,249,40,26,38,055,48,33,64,264,40*67
###2023-12-09 12:25:49.939262$GNVTG,,T,,M,0.06,N,0.11,K,A*3B
###2023-12-09 12:25:49.940919$GNGST,172549.10,29.000,,,,0.230,0.220,0.480*5C
###2023-12-09 12:25:49.942214$GNZDA,172549.10,09,12,2023,00,00*7C
###2023-12-09 12:25:49.942873$GNEBP,,,,,,M*13
###2023-12-09 12:25:50.117329$GNGGA,172549.30,4138.0383807,N,07032.4361127,W,1,18,0.8,10.018,M,-29.746,M,0.0,*50
###2023-12-09 12:25:50.316698$GNGGA,172549.50,4138.0383794,N,07032.4361108,W,1,18,0.8,10.011,M,-29.746,M,0.0,*57
###2023-12-09 12:25:50.516768$GNGGA,172549.70,4138.0383779,N,07032.4361080,W,1,18,0.8,10.005,M,-29.746,M,0.0,*52
###2023-12-09 12:25:50.715650$GNGGA,172549.90,4138.0383754,N,07032.4361054,W,1,18,0.8,9.996,M,-29.746,M,0.0,*61
###2023-12-09 12:25:50.918910$GNRMC,172550.10,A,4138.0383739,N,07032.4361026,W,0.00,,091223,,,A*4B
###2023-12-09 12:25:50.921746$GNGGA,172550.10,4138.0383739,N,07032.4361026,W,1,18,0.8,9.988,M,-29.746,M,0.0,*60
###2023-12-09 12:25:50.923646$GPGSA,A,3,03,16,25,26,28,29,31,32,,,,,1.4,0.8,1.1*3A
###2023-12-09 12:25:50.925247$GLGSA,A,3,71,72,73,75,,,,,,,,,1.4,0.8,1.1*26
###2023-12-09 12:25:50.926727$GAGSA,A,3,21,27,,,,,,,,,,,1.4,0.8,1.1*28
###2023-12-09 12:25:50.928322$GBGSA,A,3,14,25,26,33,,,,,,,,,1.4,0.8,1.1*2B
###2023-12-09 12:25:50.930677$GPGSV,2,1,08,03,39,282,44,16,32,206,40,25,15,045,39,26,62,205,44*7A
###2023-12-09 12:25:50.933025$GPGSV,2,2,08,28,61,050,43,29,24,078,42,31,73,346,39,32,34,132,46*73
###2023-12-09 12:25:50.935393$GLGSV,1,1,04,71,62,167,46,72,61,316,43,73,52,030,49,75,18,237,43*67
###2023-12-09 12:25:50.937152$GAGSV,1,1,02,21,74,180,45,27,45,051,45,,,,,,,,*63
###2023-12-09 12:25:50.939508$GBGSV,1,1,04,14,59,200,45,25,29,249,40,26,38,055,48,33,64,264,40*67
###2023-12-09 12:25:50.940653$GNVTG,,T,,M,0.00,N,0.00,K,A*3D
###2023-12-09 12:25:50.942314$GNGST,172550.10,29.000,,,,0.230,0.220,0.490*55
###2023-12-09 12:25:50.943639$GNZDA,172550.10,09,12,2023,00,00*74
###2023-12-09 12:25:50.944295$GNEBP,,,,,,M*13
###2023-12-09 12:25:51.118717$GNGGA,172550.30,4138.0383711,N,07032.4360992,W,1,18,0.8,9.987,M,-29.746,M,0.0,*60
###2023-12-09 12:25:51.316952$GNGGA,172550.50,4138.0383692,N,07032.4360967,W,1,18,0.8,9.981,M,-29.746,M,0.0,*60
###2023-12-09 12:25:51.516983$GNGGA,172550.70,4138.0383665,N,07032.4360938,W,1,18,0.8,9.970,M,-29.746,M,0.0,*6E
###2023-12-09 12:25:51.716133$GNGGA,172550.90,4138.0383645,N,07032.4360920,W,1,18,0.8,9.962,M,-29.746,M,0.0,*68
###2023-12-09 12:25:51.917176$GNRMC,172551.10,A,4138.0383628,N,07032.4360896,W,0.02,,091223,,,A*4B
###2023-12-09 12:25:51.920038$GNGGA,172551.10,4138.0383628,N,07032.4360896,W,1,18,0.8,9.962,M,-29.746,M,0.0,*66
###2023-12-09 12:25:51.921927$GPGSA,A,3,03,16,25,26,28,29,31,32,,,,,1.4,0.8,1.1*3A
###2023-12-09 12:25:51.923554$GLGSA,A,3,71,72,73,75,,,,,,,,,1.4,0.8,1.1*26
###2023-12-09 12:25:51.925038$GAGSA,A,3,21,27,,,,,,,,,,,1.4,0.8,1.1*28
###2023-12-09 12:25:51.926669$GBGSA,A,3,14,25,26,33,,,,,,,,,1.4,0.8,1.1*2B
###2023-12-09 12:25:51.929032$GPGSV,2,1,08,03,39,282,44,16,32,206,40,25,15,045,39,26,62,205,44*7A
###2023-12-09 12:25:51.931415$GPGSV,2,2,08,28,61,050,43,29,24,078,42,31,73,346,39,32,34,132,45*70
###2023-12-09 12:25:51.933776$GLGSV,1,1,04,71,62,167,47,72,61,316,43,73,52,030,49,75,18,237,43*66
###2023-12-09 12:25:51.935563$GAGSV,1,1,02,21,74,180,44,27,45,051,45,,,,,,,,*62
###2023-12-09 12:25:51.937912$GBGSV,1,1,04,14,59,200,45,25,29,249,40,26,38,055,48,33,64,264,40*67
###2023-12-09 12:25:51.939073$GNVTG,,T,,M,0.02,N,0.04,K,A*3B
###2023-12-09 12:25:51.940743$GNGST,172551.10,29.000,,,,0.230,0.220,0.490*54
###2023-12-09 12:25:51.942309$GNZDA,172551.10,09,12,2023,00,00*75
###2023-12-09 12:25:51.942996$GNEBP,,,,,,M*13
###2023-12-09 12:25:52.118010$GNGGA,172551.30,4138.0383606,N,07032.4360871,W,1,18,0.8,9.953,M,-29.746,M,0.0,*63
###2023-12-09 12:25:52.324198$GNGGA,172551.50,4138.0383586,N,07032.4360847,W,1,18,0.8,9.948,M,-29.746,M,0.0,*61
###2023-12-09 12:25:52.524613$GNGGA,172551.70,4138.0383571,N,07032.4360832,W,1,18,0.8,9.933,M,-29.746,M,0.0,*65
###2023-12-09 12:25:52.719527$GNGGA,172551.90,4138.0383558,N,07032.4360810,W,1,18,0.8,9.927,M,-29.746,M,0.0,*65
###2023-12-09 12:25:52.920949$GNRMC,172552.10,A,4138.0383534,N,07032.4360781,W,0.02,,091223,,,A*4F
###2023-12-09 12:25:52.924446$GNGGA,172552.10,4138.0383534,N,07032.4360781,W,1,18,0.8,9.923,M,-29.746,M,0.0,*67
###2023-12-09 12:25:52.926767$GPGSA,A,3,03,16,25,26,28,29,31,32,,,,,1.4,0.8,1.1*3A
