###2023-12-09 12:46:24.146047$GNGGA,174623.30,4138.0481072,N,07032.3905140,W,1,24,0.6,13.265,M,-29.745,M,0.0,*51
###2023-12-09 12:46:24.347689$GNGGA,174623.50,4138.0480995,N,07032.3905090,W,1,24,0.6,13.259,M,-29.745,M,0.0,*55
###2023-12-09 12:46:24.547710$GNGGA,174623.70,4138.0480906,N,07032.3905184,W,1,24,0.6,13.255,M,-29.745,M,0.0,*55
###2023-12-09 12:46:24.746555$GNGGA,174623.90,4138.0480888,N,07032.3905742,W,1,24,0.6,13.267,M,-29.745,M,0.0,*51
###2023-12-09 12:46:24.948153$GNRMC,174624.10,A,4138.0480903,N,07032.3906350,W,0.64,266.23,091223,,,A*5F
###2023-12-09 12:46:24.951034$GNGGA,174624.10,4138.0480903,N,07032.3906350,W,1,24,0.6,13.268,M,-29.745,M,0.0,*57
###2023-12-09 12:46:24.952908$GPGSA,A,3,03,04,16,26,28,29,31,32,,,,,1.1,0.6,0.9*3B
###2023-12-09 12:46:24.954653$GLGSA,A,3,65,71,72,73,74,75,,,,,,,1.1,0.6,0.9*24
###2023-12-09 12:46:24.956250$GAGSA,A,3,04,19,21,27,,,,,,,,,1.1,0.6,0.9*26
###2023-12-09 12:46:24.957906$GBGSA,A,3,14,24,25,26,33,,,,,,,,1.1,0.6,0.9*2F
###2023-12-09 12:46:24.960266$GPGSV,2,1,08,03,37,270,44,04,26,311,41,16,42,209,43,26,72,208,47*73
###2023-12-09 12:46:24.962622$GPGSV,2,2,08,28,54,062,44,29,26,068,40,31,72,018,47,32,25,137,42*73
###2023-12-09 12:46:24.964969$GLGSV,2,1,06,65,17,329,40,71,50,171,46,72,70,297,46,73,43,037,45*65
###2023-12-09 12:46:24.966741$GLGSV,2,2,06,74,71,310,42,75,26,245,42,,,,,,,,*61
###2023-12-09 12:46:24.969087$GAGSV,1,1,04,04,24,312,40,19,84,276,40,21,82,165,45,27,38,049,42*66
###2023-12-09 12:46:24.971442$GBGSV,2,1,05,14,50,195,44,24,78,005,49,25,36,256,45,26,31,059,42*6F
###2023-12-09 12:46:24.972908$GBGSV,2,2,05,33,61,245,48,,,,,,,,,,,,*56
###2023-12-09 12:46:24.974245$GNVTG,266.23,T,,M,0.64,N,1.19,K,A*2B
###2023-12-09 12:46:24.975917$GNGST,174624.10,18.000,,,,0.078,0.069,0.160*5A
###2023-12-09 12:46:24.977223$GNZDA,174624.10,09,12,2023,00,00*72
###2023-12-09 12:46:24.977867$GNEBP,,,,,,M*13
###2023-12-09 12:46:25.147295$GNGGA,174624.30,4138.0480842,N,07032.3906521,W,1,24,0.6,13.259,M,-29.745,M,0.0,*53
###2023-12-09 12:46:25.348105$GNGGA,174624.50,4138.0480723,N,07032.3906435,W,1,24,0.6,13.254,M,-29.745,M,0.0,*54
###2023-12-09 12:46:25.548894$GNGGA,174624.70,4138.0480663,N,07032.3906710,W,1,24,0.6,13.250,M,-29.745,M,0.0,*53
###2023-12-09 12:46:25.745522$GNGGA,174624.90,4138.0480684,N,07032.3907386,W,1,24,0.6,13.264,M,-29.745,M,0.0,*59
###2023-12-09 12:46:25.946938$GNRMC,174625.10,A,4138.0480686,N,07032.3907931,W,0.39,272.45,091223,,,A*5D
###2023-12-09 12:46:25.949819$GNGGA,174625.10,4138.0480686,N,07032.3907931,W,1,24,0.6,13.260,M,-29.745,M,0.0,*50
###2023-12-09 12:46:25.951710$GPGSA,A,3,03,04,16,26,28,29,31,32,,,,,1.1,0.6,0.9*3B
###2023-12-09 12:46:25.953434$GLGSA,A,3,65,71,72,73,74,75,,,,,,,1.1,0.6,0.9*24
###2023-12-09 12:46:25.955039$GAGSA,A,3,04,19,21,27,,,,,,,,,1.1,0.6,0.9*26
###2023-12-09 12:46:25.956695$GBGSA,A,3,14,24,25,26,33,,,,,,,,1.1,0.6,0.9*2F
###2023-12-09 12:46:25.959045$GPGSV,2,1,08,03,37,270,44,04,26,311,43,16,42,209,42,26,72,208,47*70
###2023-12-09 12:46:25.961392$GPGSV,2,2,08,28,54,062,44,29,26,068,41,31,72,018,47,32,25,137,42*72
###2023-12-09 12:46:25.963740$GLGSV,2,1,06,65,17,329,41,71,50,171,45,72,70,297,47,73,43,037,45*66
###2023-12-09 12:46:25.965502$GLGSV,2,2,06,74,71,310,42,75,26,245,43,,,,,,,,*60
###2023-12-09 12:46:25.967866$GAGSV,1,1,04,04,24,312,42,19,84,276,41,21,82,165,46,27,38,049,43*67
###2023-12-09 12:46:25.970205$GBGSV,2,1,05,14,50,195,44,24,78,005,49,25,36,256,45,26,31,059,42*6F
###2023-12-09 12:46:25.971682$GBGSV,2,2,05,33,61,245,48,,,,,,,,,,,,*56
###2023-12-09 12:46:25.973013$GNVTG,272.45,T,,M,0.39,N,0.72,K,A*2A
###2023-12-09 12:46:25.974680$GNGST,174625.10,18.000,,,,0.078,0.069,0.160*5B
###2023-12-09 12:46:25.975976$GNZDA,174625.10,09,12,2023,00,00*73
###2023-12-09 12:46:25.976613$GNEBP,,,,,,M*13
###2023-12-09 12:46:26.144975$GNGGA,174625.30,4138.0480599,N,07032.3907976,W,1,24,0.6,13.251,M,-29.745,M,0.0,*5E
###2023-12-09 12:46:26.346791$GNGGA,174625.50,4138.0480493,N,07032.3907898,W,1,24,0.6,13.233,M,-29.745,M,0.0,*56
###2023-12-09 12:46:26.546470$GNGGA,174625.70,4138.0480463,N,07032.3908237,W,1,24,0.6,13.234,M,-29.745,M,0.0,*5C
###2023-12-09 12:46:26.745855$GNGGA,174625.90,4138.0480489,N,07032.3908997,W,1,24,0.6,13.253,M,-29.745,M,0.0,*56
###2023-12-09 12:46:26.947645$GNRMC,174626.10,A,4138.0480511,N,07032.3909564,W,0.39,274.90,091223,,,A*5F
###2023-12-09 12:46:26.950522$GNGGA,174626.10,4138.0480511,N,07032.3909564,W,1,24,0.6,13.258,M,-29.745,M,0.0,*57
###2023-12-09 12:46:26.952395$GPGSA,A,3,03,04,16,26,28,29,31,32,,,,,1.1,0.6,0.9*3B
###2023-12-09 12:46:26.954110$GLGSA,A,3,65,71,72,73,74,75,,,,,,,1.1,0.6,0.9*24
###2023-12-09 12:46:26.955706$GAGSA,A,3,04,19,21,27,,,,,,,,,1.1,0.6,0.9*26
###2023-12-09 12:46:26.957351$GBGSA,A,3,14,24,25,26,33,,,,,,,,1.1,0.6,0.9*2F
###2023-12-09 12:46:26.959696$GPGSV,2,1,08,03,37,270,44,04,26,311,43,16,42,209,42,26,72,208,46*71
###2023-12-09 12:46:26.962030$GPGSV,2,2,08,28,54,062,43,29,26,068,40,31,72,018,47,32,25,137,43*75
###2023-12-09 12:46:26.964375$GLGSV,2,1,06,65,17,329,41,71,50,171,46,72,70,297,46,73,43,037,45*64
###2023-12-09 12:46:26.966120$GLGSV,2,2,06,74,71,310,42,75,26,245,42,,,,,,,,*61
###2023-12-09 12:46:26.968454$GAGSV,1,1,04,04,24,312,43,19,84,276,41,21,82,165,45,27,38,049,42*64
###2023-12-09 12:46:26.970801$GBGSV,2,1,05,14,50,195,44,24,78,005,48,25,36,256,45,26,31,059,43*6F
###2023-12-09 12:46:26.972258$GBGSV,2,2,05,33,61,245,47,,,,,,,,,,,,*59
###2023-12-09 12:46:26.973588$GNVTG,274.90,T,,M,0.39,N,0.72,K,A*24
###2023-12-09 12:46:26.975248$GNGST,174626.10,18.000,,,,0.079,0.069,0.160*59
###2023-12-09 12:46:26.976541$GNZDA,174626.10,09,12,2023,00,00*70
###2023-12-09 12:46:26.977180$GNEBP,,,,,,M*13
###2023-12-09 12:46:27.145872$GNGGA,174626.30,4138.0480429,N,07032.3909552,W,1,24,0.6,13.243,M,-29.745,M,0.0,*50
###2023-12-09 12:46:27.346698$GNGGA,174626.50,4138.0480358,N,07032.3909398,W,1,24,0.6,13.202,M,-29.745,M,0.0,*52
###2023-12-09 12:46:27.547357$GNGGA,174626.70,4138.0480329,N,07032.3909821,W,1,24,0.6,13.204,M,-29.745,M,0.0,*59
###2023-12-09 12:46:27.746110$GNGGA,174626.90,4138.0480394,N,07032.3910636,W,1,24,0.6,13.228,M,-29.745,M,0.0,*5F
###2023-12-09 12:46:27.949058$GNRMC,174627.10,A,4138.0480423,N,07032.3911185,W,0.39,276.05,091223,,,A*52
###2023-12-09 12:46:27.951929$GNGGA,174627.10,4138.0480423,N,07032.3911185,W,1,24,0.6,13.241,M,-29.745,M,0.0,*5C
###2023-12-09 12:46:27.953783$GPGSA,A,3,03,04,16,26,28,29,31,32,,,,,1.1,0.6,0.9*3B
###2023-12-09 12:46:27.955519$GLGSA,A,3,65,71,72,73,74,75,,,,,,,1.1,0.6,0.9*24
###2023-12-09 12:46:27.957106$GAGSA,A,3,04,19,21,27,,,,,,,,,1.1,0.6,0.9*26
###2023-12-09 12:46:27.958761$GBGSA,A,3,14,24,25,26,33,,,,,,,,1.1,0.6,0.9*2F
###2023-12-09 12:46:27.961097$GPGSV,2,1,08,03,37,270,45,04,26,311,44,16,42,209,42,26,72,208,46*77
###2023-12-09 12:46:27.963448$GPGSV,2,2,08,28,54,062,43,29,26,068,41,31,72,018,47,32,25,137,42*75
###2023-12-09 12:46:27.965787$GLGSV,2,1,06,65,17,329,42,71,50,171,45,72,70,297,47,73,43,037,44*64
###2023-12-09 12:46:27.967557$GLGSV,2,2,06,74,71,310,42,75,26,245,43,,,,,,,,*60
###2023-12-09 12:46:27.969886$GAGSV,1,1,04,04,24,312,44,19,84,276,41,21,82,165,45,27,38,049,41*60
###2023-12-09 12:46:27.972234$GBGSV,2,1,05,14,50,195,44,24,78,005,48,25,36,256,46,26,31,059,43*6C
###2023-12-09 12:46:27.973694$GBGSV,2,2,05,33,61,245,47,,,,,,,,,,,,*59
###2023-12-09 12:46:27.975027$GNVTG,276.05,T,,M,0.39,N,0.72,K,A*2A
###2023-12-09 12:46:27.976679$GNGST,174627.10,18.000,,,,0.079,0.070,0.160*50
###2023-12-09 12:46:27.977972$GNZDA,174627.10,09,12,2023,00,00*71
###2023-12-09 12:46:27.978623$GNEBP,,,,,,M*13
###2023-12-09 12:46:28.149255$GNGGA,174627.30,4138.0480351,N,07032.3911158,W,1,24,0.6,13.239,M,-29.745,M,0.0,*53
###2023-12-09 12:46:28.347765$GNGGA,174627.50,4138.0480272,N,07032.3910905,W,1,24,0.6,13.179,M,-29.745,M,0.0,*53
###2023-12-09 12:46:28.546634$GNGGA,174627.70,4138.0480249,N,07032.3911329,W,1,24,0.6,13.173,M,-29.745,M,0.0,*56
###2023-12-09 12:46:28.746745$GNGGA,174627.90,4138.0480321,N,07032.3912314,W,1,24,0.6,13.201,M,-29.745,M,0.0,*5C
###2023-12-09 12:46:28.946488$GNRMC,174628.10,A,4138.0480344,N,07032.3912820,W,0.12,274.45,091223,,,A*51
###2023-12-09 12:46:28.949375$GNGGA,174628.10,4138.0480344,N,07032.3912820,W,1,24,0.6,13.203,M,-29.745,M,0.0,*56
###2023-12-09 12:46:28.951517$GPGSA,A,3,03,04,16,26,28,29,31,32,,,,,1.1,0.6,0.9*3B
###2023-12-09 12:46:28.953248$GLGSA,A,3,65,71,72,73,74,75,,,,,,,1.1,0.6,0.9*24
###2023-12-09 12:46:28.954854$GAGSA,A,3,04,19,21,27,,,,,,,,,1.1,0.6,0.9*26
###2023-12-09 12:46:28.956502$GBGSA,A,3,14,24,25,26,33,,,,,,,,1.1,0.6,0.9*2F
###2023-12-09 12:46:28.958852$GPGSV,2,1,08,03,37,270,46,04,26,311,45,16,42,209,43,26,72,208,47*75
###2023-12-09 12:46:28.961191$GPGSV,2,2,08,28,54,062,43,29,26,068,40,31,72,018,46,32,25,137,40*77
###2023-12-09 12:46:28.963544$GLGSV,2,1,06,65,17,329,42,71,50,171,45,72,70,297,47,73,43,037,45*65
###2023-12-09 12:46:28.965294$GLGSV,2,2,06,74,71,310,42,75,26,245,44,,,,,,,,*67
###2023-12-09 12:46:28.967641$GAGSV,1,1,04,04,24,312,44,19,84,276,41,21,82,165,45,27,38,049,43*62
###2023-12-09 12:46:28.969981$GBGSV,2,1,05,14,50,195,44,24,78,005,48,25,36,256,46,26,31,059,42*6D
