###2023-12-09 13:43:05.028734$GNVTG,251.94,T,,M,1.73,N,3.20,K,A*2C
###2023-12-09 13:43:05.030733$GNGST,184304.10,5.600,,,,0.170,0.130,0.300*68
###2023-12-09 13:43:05.032304$GNZDA,184304.10,09,12,2023,00,00*7A
###2023-12-09 13:43:05.033086$GNEBP,,,,,,M*13
###2023-12-09 13:43:05.198035$GNGGA,184304.30,4138.0393799,N,07032.4302375,W,1,17,0.9,14.362,M,-29.746,M,0.0,*5B
###2023-12-09 13:43:05.399262$GNGGA,184304.50,4138.0393612,N,07032.4303715,W,1,18,0.8,14.403,M,-29.746,M,0.0,*52
###2023-12-09 13:43:05.598454$GNGGA,184304.70,4138.0393485,N,07032.4305026,W,1,19,0.8,14.424,M,-29.746,M,0.0,*59
###2023-12-09 13:43:05.798969$GNGGA,184304.90,4138.0393242,N,07032.4306442,W,1,20,0.9,14.455,M,-29.746,M,0.0,*52
###2023-12-09 13:43:06.001447$GNRMC,184305.10,A,4138.0392934,N,07032.4307938,W,2.02,258.31,091223,,,A*52
###2023-12-09 13:43:06.004334$GNGGA,184305.10,4138.0392934,N,07032.4307938,W,1,19,0.9,14.514,M,-29.746,M,0.0,*5F
###2023-12-09 13:43:06.006068$GPGSA,A,3,03,04,16,26,29,31,,,,,,,1.5,0.9,1.1*32
###2023-12-09 13:43:06.007740$GLGSA,A,3,65,72,73,74,75,,,,,,,,1.5,0.9,1.1*20
###2023-12-09 13:43:06.009321$GAGSA,A,3,04,19,21,27,,,,,,,,,1.5,0.9,1.1*24
###2023-12-09 13:43:06.010844$GBGSA,A,3,24,25,33,,,,,,,,,,1.5,0.9,1.1*2C
###2023-12-09 13:43:06.013165$GPGSV,2,1,06,03,23,243,44,04,50,305,46,16,70,226,49,26,80,041,45*7D
###2023-12-09 13:43:06.014919$GPGSV,2,2,06,29,19,044,39,31,57,071,42,,,,,,,,*76
###2023-12-09 13:43:06.017238$GLGSV,2,1,05,65,42,314,44,72,58,215,46,73,19,055,39,74,56,021,40*6D
###2023-12-09 13:43:06.018703$GLGSV,2,2,05,75,46,277,43,,,,,,,,,,,,*55
###2023-12-09 13:43:06.021020$GAGSV,1,1,04,04,42,308,47,19,69,180,36,21,74,044,45,27,20,051,37*6B
###2023-12-09 13:43:06.023064$GBGSV,1,1,03,24,60,050,45,25,53,280,47,33,42,214,47,,,,*56
###2023-12-09 13:43:06.024388$GNVTG,258.31,T,,M,2.02,N,3.74,K,A*2E
###2023-12-09 13:43:06.025996$GNGST,184305.10,6.300,,,,0.170,0.140,0.310*69
###2023-12-09 13:43:06.027297$GNZDA,184305.10,09,12,2023,00,00*7B
###2023-12-09 13:43:06.027939$GNEBP,,,,,,M*13
###2023-12-09 13:43:06.199164$GNGGA,184305.30,4138.0392718,N,07032.4309296,W,1,19,0.9,14.549,M,-29.746,M,0.0,*54
###2023-12-09 13:43:06.396805$GNGGA,184305.50,4138.0392507,N,07032.4310787,W,1,20,0.9,14.605,M,-29.746,M,0.0,*52
###2023-12-09 13:43:06.595536$GNGGA,184305.70,4138.0392316,N,07032.4312170,W,1,19,0.9,14.612,M,-29.746,M,0.0,*56
###2023-12-09 13:43:06.797021$GNGGA,184305.90,4138.0392135,N,07032.4313518,W,1,19,0.9,14.659,M,-29.746,M,0.0,*5F
###2023-12-09 13:43:06.997934$GNRMC,184306.10,A,4138.0391929,N,07032.4314930,W,1.89,257.14,091223,,,A*5C
###2023-12-09 13:43:07.000815$GNGGA,184306.10,4138.0391929,N,07032.4314930,W,1,18,0.9,14.690,M,-29.746,M,0.0,*57
###2023-12-09 13:43:07.002551$GPGSA,A,3,03,04,16,26,29,31,,,,,,,1.5,0.9,1.2*31
###2023-12-09 13:43:07.004147$GLGSA,A,3,65,72,74,75,,,,,,,,,1.5,0.9,1.2*27
###2023-12-09 13:43:07.005661$GAGSA,A,3,04,19,21,,,,,,,,,,1.5,0.9,1.2*22
###2023-12-09 13:43:07.007267$GBGSA,A,3,24,25,33,35,,,,,,,,,1.5,0.9,1.2*29
###2023-12-09 13:43:07.009595$GPGSV,2,1,06,03,23,243,40,04,50,305,47,16,70,226,48,26,80,041,45*79
###2023-12-09 13:43:07.011348$GPGSV,2,2,06,29,19,044,39,31,57,071,38,,,,,,,,*7B
###2023-12-09 13:43:07.013670$GLGSV,1,1,04,65,42,314,42,72,58,215,45,74,56,021,38,75,46,277,43*66
###2023-12-09 13:43:07.015722$GAGSV,1,1,03,04,42,308,46,19,69,180,36,21,74,044,41,,,,*5E
###2023-12-09 13:43:07.018057$GBGSV,1,1,04,24,60,050,43,25,53,280,49,33,42,214,49,35,16,053,37*64
###2023-12-09 13:43:07.019399$GNVTG,257.14,T,,M,1.89,N,3.49,K,A*28
###2023-12-09 13:43:07.021010$GNGST,184306.10,5.200,,,,0.170,0.140,0.310*68
###2023-12-09 13:43:07.022293$GNZDA,184306.10,09,12,2023,00,00*78
###2023-12-09 13:43:07.022944$GNEBP,,,,,,M*13
###2023-12-09 13:43:07.197109$GNGGA,184306.30,4138.0391638,N,07032.4316277,W,1,18,0.9,14.702,M,-29.746,M,0.0,*5A
###2023-12-09 13:43:07.398617$GNGGA,184306.50,4138.0391375,N,07032.4317644,W,1,19,0.8,14.726,M,-29.746,M,0.0,*53
###2023-12-09 13:43:07.595866$GNGGA,184306.70,4138.0391234,N,07032.4319046,W,1,20,0.8,14.704,M,-29.746,M,0.0,*55
###2023-12-09 13:43:07.797528$GNGGA,184306.90,4138.0391033,N,07032.4320498,W,1,22,0.8,14.761,M,-29.746,M,0.0,*52
###2023-12-09 13:43:08.001641$GNRMC,184307.10,A,4138.0390809,N,07032.4321940,W,1.44,256.81,091223,,,A*52
###2023-12-09 13:43:08.005405$GNGGA,184307.10,4138.0390809,N,07032.4321940,W,1,20,0.9,14.822,M,-29.746,M,0.0,*59
###2023-12-09 13:43:08.007709$GPGSA,A,3,03,04,09,16,26,28,31,,,,,,1.4,0.9,1.1*3B
###2023-12-09 13:43:08.009703$GLGSA,A,3,65,72,73,74,75,,,,,,,,1.4,0.9,1.1*21
###2023-12-09 13:43:08.011557$GAGSA,A,3,04,21,27,,,,,,,,,,1.4,0.9,1.1*2D
###2023-12-09 13:43:08.013483$GBGSA,A,3,24,25,33,35,,,,,,,,,1.4,0.9,1.1*2B
###2023-12-09 13:43:08.016339$GPGSV,2,1,07,03,23,243,36,04,50,305,48,09,15,317,36,16,70,226,45*7E
###2023-12-09 13:43:08.018826$GPGSV,2,2,07,26,80,041,45,28,35,088,36,31,57,071,40,,,,*4D
###2023-12-09 13:43:08.021657$GLGSV,2,1,05,65,42,314,45,72,58,215,47,73,19,055,35,74,56,021,38*6E
###2023-12-09 13:43:08.023434$GLGSV,2,2,05,75,46,277,39,,,,,,,,,,,,*58
###2023-12-09 13:43:08.025892$GAGSV,1,1,03,04,42,308,46,21,74,044,39,27,20,051,37,,,,*5D
###2023-12-09 13:43:08.028737$GBGSV,1,1,04,24,60,050,43,25,53,280,45,33,42,214,47,35,16,053,37*66
###2023-12-09 13:43:08.030347$GNVTG,256.81,T,,M,1.44,N,2.66,K,A*28
###2023-12-09 13:43:08.032315$GNGST,184307.10,6.800,,,,0.170,0.140,0.310*60
###2023-12-09 13:43:08.033881$GNZDA,184307.10,09,12,2023,00,00*79
###2023-12-09 13:43:08.034668$GNEBP,,,,,,M*13
###2023-12-09 13:43:08.198670$GNGGA,184307.30,4138.0390550,N,07032.4323341,W,1,19,0.8,14.851,M,-29.746,M,0.0,*5C
###2023-12-09 13:43:08.399801$GNGGA,184307.50,4138.0390249,N,07032.4324797,W,1,20,0.9,14.926,M,-29.746,M,0.0,*57
###2023-12-09 13:43:08.599101$GNGGA,184307.70,4138.0390019,N,07032.4326382,W,1,20,0.8,14.967,M,-29.746,M,0.0,*54
###2023-12-09 13:43:08.798076$GNGGA,184307.90,4138.0389883,N,07032.4327933,W,1,19,0.9,14.979,M,-29.746,M,0.0,*5C
###2023-12-09 13:43:09.004073$GNRMC,184308.10,A,4138.0389751,N,07032.4329524,W,2.08,264.73,091223,,,A*56
###2023-12-09 13:43:09.007544$GNGGA,184308.10,4138.0389751,N,07032.4329524,W,1,18,1.0,15.027,M,-29.746,M,0.0,*55
###2023-12-09 13:43:09.009656$GPGSA,A,3,03,04,16,26,29,31,,,,,,,1.5,1.0,1.2*39
###2023-12-09 13:43:09.011677$GLGSA,A,3,65,72,73,74,75,,,,,,,,1.5,1.0,1.2*2B
###2023-12-09 13:43:09.013528$GAGSA,A,3,04,21,27,,,,,,,,,,1.5,1.0,1.2*27
###2023-12-09 13:43:09.015378$GBGSA,A,3,24,25,33,,,,,,,,,,1.5,1.0,1.2*27
###2023-12-09 13:43:09.018189$GPGSV,2,1,06,03,23,243,39,04,50,305,49,16,70,226,47,26,80,041,39*7D
###2023-12-09 13:43:09.020321$GPGSV,2,2,06,29,19,044,41,31,57,071,38,,,,,,,,*74
###2023-12-09 13:43:09.023142$GLGSV,2,1,05,65,42,314,41,72,58,215,44,73,19,055,39,74,56,021,41*6B
###2023-12-09 13:43:09.024903$GLGSV,2,2,05,75,46,277,45,,,,,,,,,,,,*53
###2023-12-09 13:43:09.027384$GAGSV,1,1,03,04,42,308,46,21,74,044,40,27,20,051,38,,,,*5C
###2023-12-09 13:43:09.029836$GBGSV,1,1,03,24,60,050,42,25,53,280,45,33,42,214,47,,,,*53
###2023-12-09 13:43:09.031487$GNVTG,264.73,T,,M,2.08,N,3.85,K,A*23
###2023-12-09 13:43:09.033430$GNGST,184308.10,4.600,,,,0.170,0.140,0.320*60
###2023-12-09 13:43:09.034998$GNZDA,184308.10,09,12,2023,00,00*76
###2023-12-09 13:43:09.035773$GNEBP,,,,,,M*13
###2023-12-09 13:43:09.199773$GNGGA,184308.30,4138.0389653,N,07032.4331025,W,1,19,0.9,15.097,M,-29.746,M,0.0,*5B
###2023-12-09 13:43:09.399927$GNGGA,184308.50,4138.0389542,N,07032.4332461,W,1,20,0.8,15.127,M,-29.746,M,0.0,*58
###2023-12-09 13:43:09.597698$GNGGA,184308.70,4138.0389428,N,07032.4333838,W,1,19,0.9,15.161,M,-29.746,M,0.0,*5F
###2023-12-09 13:43:09.800268$GNGGA,184308.90,4138.0389481,N,07032.4335194,W,1,19,0.9,15.202,M,-29.746,M,0.0,*5D
###2023-12-09 13:43:09.998820$GNRMC,184309.10,A,4138.0389617,N,07032.4336439,W,1.69,277.96,091223,,,A*5A
###2023-12-09 13:43:10.002306$GNGGA,184309.10,4138.0389617,N,07032.4336439,W,1,19,0.9,15.213,M,-29.746,M,0.0,*58
###2023-12-09 13:43:10.004408$GPGSA,A,3,03,04,16,26,29,31,,,,,,,1.3,0.9,1.0*35
###2023-12-09 13:43:10.006406$GLGSA,A,3,65,72,73,74,75,,,,,,,,1.3,0.9,1.0*27
###2023-12-09 13:43:10.008338$GAGSA,A,3,04,19,21,27,,,,,,,,,1.3,0.9,1.0*23
###2023-12-09 13:43:10.010471$GBGSA,A,3,24,25,33,,,,,,,,,,1.3,0.9,1.0*2B
###2023-12-09 13:43:10.013341$GPGSV,2,1,06,03,23,243,43,04,50,305,49,16,70,226,48,26,80,041,46*77
###2023-12-09 13:43:10.015472$GPGSV,2,2,06,29,19,044,36,31,57,071,40,,,,,,,,*7B
###2023-12-09 13:43:10.018297$GLGSV,2,1,05,65,42,314,43,72,58,215,45,73,19,055,38,74,56,021,42*6A
###2023-12-09 13:43:10.020079$GLGSV,2,2,05,75,46,277,43,,,,,,,,,,,,*55
###2023-12-09 13:43:10.022913$GAGSV,1,1,04,04,42,308,49,19,69,180,38,21,74,044,43,27,20,051,35*6F
###2023-12-09 13:43:10.025379$GBGSV,1,1,03,24,60,050,44,25,53,280,42,33,42,214,48,,,,*5D
###2023-12-09 13:43:10.027004$GNVTG,277.96,T,,M,1.69,N,3.13,K,A*21
