###2023-12-09 13:17:07.010875$GNGST,181706.10,18.000,,,,0.100,0.070,0.170*56
###2023-12-09 13:17:07.012188$GNZDA,181706.10,09,12,2023,00,00*79
###2023-12-09 13:17:07.012828$GNEBP,,,,,,M*13
###2023-12-09 13:17:07.178077$GNGGA,181706.30,4138.0730403,N,07032.2928180,W,1,24,0.7,13.122,M,-29.742,M,0.0,*52
###2023-12-09 13:17:07.381139$GNGGA,181706.50,4138.0728466,N,07032.2927965,W,1,24,0.7,13.108,M,-29.742,M,0.0,*5A
###2023-12-09 13:17:07.579280$GNGGA,181706.70,4138.0726514,N,07032.2927826,W,1,24,0.7,13.119,M,-29.742,M,0.0,*54
###2023-12-09 13:17:07.778463$GNGGA,181706.90,4138.0724524,N,07032.2927522,W,1,24,0.7,13.095,M,-29.742,M,0.0,*57
###2023-12-09 13:17:07.985285$GNRMC,181707.10,A,4138.0722598,N,07032.2927378,W,3.58,179.40,091223,,,A*5C
###2023-12-09 13:17:07.988797$GNGGA,181707.10,4138.0722598,N,07032.2927378,W,1,24,0.7,13.089,M,-29.742,M,0.0,*5B
###2023-12-09 13:17:07.990997$GPGSA,A,3,03,04,16,26,28,29,31,,,,,,1.2,0.7,1.0*30
###2023-12-09 13:17:07.993082$GLGSA,A,3,65,71,72,73,74,75,,,,,,,1.2,0.7,1.0*2E
###2023-12-09 13:17:07.995010$GAGSA,A,3,04,19,21,27,,,,,,,,,1.2,0.7,1.0*2C
###2023-12-09 13:17:07.997097$GBGSA,A,3,14,24,25,26,33,35,,,,,,,1.2,0.7,1.0*23
###2023-12-09 13:17:07.999937$GPGSV,2,1,07,03,31,253,42,04,39,310,45,16,57,216,46,26,87,208,48*7C
###2023-12-09 13:17:08.002406$GPGSV,2,2,07,28,44,077,45,29,24,054,42,31,65,052,47,,,,*4A
###2023-12-09 13:17:08.005239$GLGSV,2,1,06,65,31,324,42,71,32,174,43,72,70,240,46,73,29,047,44*6A
###2023-12-09 13:17:08.007369$GLGSV,2,2,06,74,65,358,43,75,38,261,46,,,,,,,,*64
###2023-12-09 13:17:08.010173$GAGSV,1,1,04,04,34,312,43,19,79,190,40,21,83,062,46,27,28,049,42*68
###2023-12-09 13:17:08.012991$GBGSV,2,1,06,14,36,191,41,24,68,036,48,25,45,268,47,26,21,066,43*6A
###2023-12-09 13:17:08.015121$GBGSV,2,2,06,33,52,224,46,35,16,063,43,,,,,,,,*6F
###2023-12-09 13:17:08.016746$GNVTG,179.40,T,,M,3.58,N,6.62,K,A*24
###2023-12-09 13:17:08.018750$GNGST,181707.10,18.000,,,,0.099,0.070,0.170*56
###2023-12-09 13:17:08.020314$GNZDA,181707.10,09,12,2023,00,00*78
###2023-12-09 13:17:08.021087$GNEBP,,,,,,M*13
###2023-12-09 13:17:08.180447$GNGGA,181707.30,4138.0720590,N,07032.2927361,W,1,24,0.7,13.100,M,-29.742,M,0.0,*5B
###2023-12-09 13:17:08.378180$GNGGA,181707.50,4138.0718616,N,07032.2927259,W,1,24,0.7,13.079,M,-29.742,M,0.0,*5E
###2023-12-09 13:17:08.582975$GNGGA,181707.70,4138.0716660,N,07032.2927153,W,1,24,0.7,13.081,M,-29.742,M,0.0,*5D
###2023-12-09 13:17:08.779935$GNGGA,181707.90,4138.0714681,N,07032.2927108,W,1,24,0.7,13.083,M,-29.742,M,0.0,*52
###2023-12-09 13:17:08.990597$GNRMC,181708.10,A,4138.0712676,N,07032.2927012,W,3.54,176.88,091223,,,A*5B
###2023-12-09 13:17:08.994062$GNGGA,181708.10,4138.0712676,N,07032.2927012,W,1,24,0.7,13.061,M,-29.742,M,0.0,*5D
###2023-12-09 13:17:08.996238$GPGSA,A,3,03,04,16,26,28,29,31,,,,,,1.2,0.7,1.0*30
###2023-12-09 13:17:08.998302$GLGSA,A,3,65,71,72,73,74,75,,,,,,,1.2,0.7,1.0*2E
###2023-12-09 13:17:09.000225$GAGSA,A,3,04,19,21,27,,,,,,,,,1.2,0.7,1.0*2C
###2023-12-09 13:17:09.002285$GBGSA,A,3,14,24,25,26,33,35,,,,,,,1.2,0.7,1.0*23
###2023-12-09 13:17:09.005113$GPGSV,2,1,07,03,31,253,41,04,39,310,44,16,57,216,46,26,87,208,48*7E
###2023-12-09 13:17:09.007583$GPGSV,2,2,07,28,44,077,45,29,24,054,41,31,65,052,47,,,,*49
###2023-12-09 13:17:09.010424$GLGSV,2,1,06,65,31,324,43,71,32,174,44,72,70,240,46,73,29,047,44*6C
###2023-12-09 13:17:09.012561$GLGSV,2,2,06,74,65,358,43,75,38,261,47,,,,,,,,*65
###2023-12-09 13:17:09.015396$GAGSV,1,1,04,04,34,312,43,19,79,190,40,21,83,062,46,27,28,049,40*6A
###2023-12-09 13:17:09.018207$GBGSV,2,1,06,14,36,191,42,24,68,036,49,25,45,268,47,26,21,066,43*68
###2023-12-09 13:17:09.020328$GBGSV,2,2,06,33,52,224,47,35,16,063,43,,,,,,,,*6E
###2023-12-09 13:17:09.021914$GNVTG,176.88,T,,M,3.54,N,6.55,K,A*27
###2023-12-09 13:17:09.023912$GNGST,181708.10,18.000,,,,0.099,0.070,0.170*59
###2023-12-09 13:17:09.025469$GNZDA,181708.10,09,12,2023,00,00*77
###2023-12-09 13:17:09.026237$GNEBP,,,,,,M*13
###2023-12-09 13:17:09.183997$GNGGA,181708.30,4138.0710709,N,07032.2926910,W,1,24,0.7,13.061,M,-29.742,M,0.0,*5E
###2023-12-09 13:17:09.382453$GNGGA,181708.50,4138.0708719,N,07032.2926806,W,1,24,0.7,13.068,M,-29.742,M,0.0,*5F
###2023-12-09 13:17:09.579259$GNGGA,181708.70,4138.0706728,N,07032.2926667,W,1,24,0.7,13.068,M,-29.742,M,0.0,*58
###2023-12-09 13:17:09.780439$GNGGA,181708.90,4138.0704735,N,07032.2926479,W,1,24,0.7,13.056,M,-29.742,M,0.0,*58
###2023-12-09 13:17:09.981536$GNRMC,181709.10,A,4138.0702760,N,07032.2926270,W,3.52,177.10,091223,,,A*5C
###2023-12-09 13:17:09.984417$GNGGA,181709.10,4138.0702760,N,07032.2926270,W,1,24,0.7,13.052,M,-29.742,M,0.0,*5C
###2023-12-09 13:17:09.986202$GPGSA,A,3,03,04,16,26,28,29,31,,,,,,1.2,0.7,1.0*30
###2023-12-09 13:17:09.987930$GLGSA,A,3,65,71,72,73,74,75,,,,,,,1.2,0.7,1.0*2E
###2023-12-09 13:17:09.989513$GAGSA,A,3,04,19,21,27,,,,,,,,,1.2,0.7,1.0*2C
###2023-12-09 13:17:09.991225$GBGSA,A,3,14,24,25,26,33,35,,,,,,,1.2,0.7,1.0*23
###2023-12-09 13:17:09.993551$GPGSV,2,1,07,03,31,253,41,04,39,310,45,16,57,216,46,26,87,208,48*7F
###2023-12-09 13:17:09.995587$GPGSV,2,2,07,28,44,077,45,29,24,054,41,31,65,052,47,,,,*49
###2023-12-09 13:17:09.997904$GLGSV,2,1,06,65,31,324,43,71,32,174,42,72,70,240,46,73,29,047,43*6D
###2023-12-09 13:17:09.999658$GLGSV,2,2,06,74,65,358,43,75,38,261,46,,,,,,,,*64
###2023-12-09 13:17:10.001981$GAGSV,1,1,04,04,34,312,43,19,79,190,40,21,83,062,46,27,28,049,40*6A
###2023-12-09 13:17:10.004323$GBGSV,2,1,06,14,36,191,42,24,68,036,49,25,45,268,48,26,21,066,43*67
###2023-12-09 13:17:10.006067$GBGSV,2,2,06,33,52,224,47,35,16,063,43,,,,,,,,*6E
###2023-12-09 13:17:10.007400$GNVTG,177.10,T,,M,3.52,N,6.52,K,A*26
###2023-12-09 13:17:10.009042$GNGST,181709.10,18.000,,,,0.099,0.070,0.170*58
###2023-12-09 13:17:10.010329$GNZDA,181709.10,09,12,2023,00,00*76
###2023-12-09 13:17:10.010977$GNEBP,,,,,,M*13
###2023-12-09 13:17:10.175839$GNGGA,181709.30,4138.0700803,N,07032.2926240,W,1,24,0.7,13.062,M,-29.742,M,0.0,*56
###2023-12-09 13:17:10.376470$GNGGA,181709.50,4138.0698771,N,07032.2926163,W,1,24,0.7,13.058,M,-29.742,M,0.0,*51
###2023-12-09 13:17:10.577110$GNGGA,181709.70,4138.0696852,N,07032.2926019,W,1,24,0.7,13.041,M,-29.742,M,0.0,*57
###2023-12-09 13:17:10.779580$GNGGA,181709.90,4138.0694836,N,07032.2926011,W,1,24,0.7,13.055,M,-29.742,M,0.0,*54
###2023-12-09 13:17:10.981582$GNRMC,181710.10,A,4138.0692855,N,07032.2926154,W,3.42,186.16,091223,,,A*59
###2023-12-09 13:17:10.984492$GNGGA,181710.10,4138.0692855,N,07032.2926154,W,1,24,0.7,13.056,M,-29.742,M,0.0,*54
###2023-12-09 13:17:10.986311$GPGSA,A,3,03,04,16,26,28,29,31,,,,,,1.2,0.7,1.0*30
###2023-12-09 13:17:10.988071$GLGSA,A,3,65,71,72,73,74,75,,,,,,,1.2,0.7,1.0*2E
###2023-12-09 13:17:10.989674$GAGSA,A,3,04,19,21,27,,,,,,,,,1.2,0.7,1.0*2C
###2023-12-09 13:17:10.991421$GBGSA,A,3,14,24,25,26,33,35,,,,,,,1.2,0.7,1.0*23
###2023-12-09 13:17:10.993782$GPGSV,2,1,07,03,31,253,42,04,39,310,45,16,57,216,46,26,87,208,48*7C
###2023-12-09 13:17:10.995861$GPGSV,2,2,07,28,44,077,45,29,24,054,42,31,65,052,47,,,,*4A
###2023-12-09 13:17:10.998212$GLGSV,2,1,06,65,31,324,42,71,32,174,41,72,70,240,46,73,29,047,44*68
###2023-12-09 13:17:10.999998$GLGSV,2,2,06,74,65,358,43,75,38,261,46,,,,,,,,*64
###2023-12-09 13:17:11.002347$GAGSV,1,1,04,04,34,312,43,19,79,190,40,21,83,062,46,27,28,049,41*6B
###2023-12-09 13:17:11.004718$GBGSV,2,1,06,14,36,191,42,24,68,036,49,25,45,268,47,26,21,066,44*6F
###2023-12-09 13:17:11.006483$GBGSV,2,2,06,33,52,224,47,35,16,063,44,,,,,,,,*69
###2023-12-09 13:17:11.007837$GNVTG,186.16,T,,M,3.42,N,6.34,K,A*2F
###2023-12-09 13:17:11.009500$GNGST,181710.10,18.000,,,,0.099,0.070,0.170*50
###2023-12-09 13:17:11.010851$GNZDA,181710.10,09,12,2023,00,00*7E
###2023-12-09 13:17:11.011502$GNEBP,,,,,,M*13
###2023-12-09 13:17:11.175643$GNGGA,181710.30,4138.0690905,N,07032.2926292,W,1,24,0.7,13.056,M,-29.742,M,0.0,*59
###2023-12-09 13:17:11.377521$GNGGA,181710.50,4138.0688895,N,07032.2926172,W,1,24,0.7,13.021,M,-29.742,M,0.0,*53
###2023-12-09 13:17:11.584186$GNGGA,181710.70,4138.0687018,N,07032.2926233,W,1,24,0.7,13.034,M,-29.742,M,0.0,*51
###2023-12-09 13:17:11.777674$GNGGA,181710.90,4138.0685037,N,07032.2926575,W,1,24,0.7,13.073,M,-29.742,M,0.0,*56
###2023-12-09 13:17:11.986551$GNRMC,181711.10,A,4138.0683118,N,07032.2926580,W,3.23,172.06,091223,,,A*58
###2023-12-09 13:17:11.989419$GNGGA,181711.10,4138.0683118,N,07032.2926580,W,1,24,0.7,13.034,M,-29.742,M,0.0,*5C
###2023-12-09 13:17:11.991218$GPGSA,A,3,03,04,16,26,28,29,31,,,,,,1.2,0.7,1.0*30
###2023-12-09 13:17:11.992929$GLGSA,A,3,65,71,72,73,74,75,,,,,,,1.2,0.7,1.0*2E
###2023-12-09 13:17:11.994501$GAGSA,A,3,04,19,21,27,,,,,,,,,1.2,0.7,1.0*2C
###2023-12-09 13:17:11.996211$GBGSA,A,3,14,24,25,26,33,35,,,,,,,1.2,0.7,1.0*23
###2023-12-09 13:17:11.998526$GPGSV,2,1,07,03,31,253,45,04,39,310,45,16,57,216,48,26,87,208,48*75
###2023-12-09 13:17:12.000565$GPGSV,2,2,07,28,44,077,46,29,24,054,43,31,65,052,48,,,,*47
###2023-12-09 13:17:12.002894$GLGSV,2,1,06,65,31,324,43,71,32,174,46,72,70,240,46,73,29,047,44*6E
