###2023-12-09 12:58:13.975065$GPGSV,2,2,08,28,50,069,44,29,25,063,39,31,69,033,47,32,20,139,41*71
###2023-12-09 12:58:13.977423$GLGSV,2,1,06,65,22,328,40,71,43,172,46,72,73,277,47,73,37,040,45*6C
###2023-12-09 12:58:13.979228$GLGSV,2,2,06,74,70,331,43,75,30,251,46,,,,,,,,*64
###2023-12-09 12:58:13.981561$GAGSV,1,1,04,04,28,312,40,19,85,226,40,21,85,133,45,27,34,048,43*66
###2023-12-09 12:58:13.983910$GBGSV,2,1,05,14,45,193,46,24,75,020,49,25,39,260,47,26,27,062,42*62
###2023-12-09 12:58:13.985366$GBGSV,2,2,05,33,59,235,48,,,,,,,,,,,,*5A
###2023-12-09 12:58:13.986676$GNVTG,90.44,T,,M,3.29,N,6.08,K,A*1C
###2023-12-09 12:58:13.988321$GNGST,175813.10,18.000,,,,0.078,0.067,0.160*5F
###2023-12-09 12:58:13.989611$GNZDA,175813.10,09,12,2023,00,00*79
###2023-12-09 12:58:13.990248$GNEBP,,,,,,M*13
###2023-12-09 12:58:14.158710$GNGGA,175813.30,4138.0334103,N,07032.3228324,W,1,24,0.6,13.354,M,-29.744,M,0.0,*55
###2023-12-09 12:58:14.358626$GNGGA,175813.50,4138.0333845,N,07032.3225732,W,1,24,0.6,13.339,M,-29.744,M,0.0,*5A
###2023-12-09 12:58:14.559640$GNGGA,175813.70,4138.0333691,N,07032.3223310,W,1,24,0.6,13.355,M,-29.744,M,0.0,*57
###2023-12-09 12:58:14.759420$GNGGA,175813.90,4138.0333590,N,07032.3220706,W,1,24,0.6,13.356,M,-29.744,M,0.0,*58
###2023-12-09 12:58:14.960357$GNRMC,175814.10,A,4138.0333482,N,07032.3218131,W,3.27,88.30,091223,,,A*6D
###2023-12-09 12:58:14.963289$GNGGA,175814.10,4138.0333482,N,07032.3218131,W,1,24,0.6,13.319,M,-29.744,M,0.0,*57
###2023-12-09 12:58:14.965156$GPGSA,A,3,03,04,16,26,28,29,31,32,,,,,1.1,0.6,0.9*3B
###2023-12-09 12:58:14.966879$GLGSA,A,3,65,71,72,73,74,75,,,,,,,1.1,0.6,0.9*24
###2023-12-09 12:58:14.968456$GAGSA,A,3,04,19,21,27,,,,,,,,,1.1,0.6,0.9*26
###2023-12-09 12:58:14.970094$GBGSA,A,3,14,24,25,26,33,,,,,,,,1.1,0.6,0.9*2F
###2023-12-09 12:58:14.972434$GPGSV,2,1,08,03,36,264,46,04,31,311,41,16,48,211,47,26,78,209,48*70
###2023-12-09 12:58:14.974802$GPGSV,2,2,08,28,50,069,43,29,25,063,41,31,69,033,46,32,20,139,44*7D
###2023-12-09 12:58:14.977136$GLGSV,2,1,06,65,22,328,41,71,43,172,47,72,73,277,47,73,37,040,45*6C
###2023-12-09 12:58:14.978884$GLGSV,2,2,06,74,70,331,43,75,30,251,47,,,,,,,,*65
###2023-12-09 12:58:14.981202$GAGSV,1,1,04,04,28,312,40,19,85,226,40,21,85,133,46,27,34,048,43*65
###2023-12-09 12:58:14.983533$GBGSV,2,1,05,14,45,193,47,24,75,020,48,25,39,260,47,26,27,062,42*62
###2023-12-09 12:58:14.984982$GBGSV,2,2,05,33,59,235,47,,,,,,,,,,,,*55
###2023-12-09 12:58:14.986264$GNVTG,88.30,T,,M,3.27,N,6.05,K,A*15
###2023-12-09 12:58:14.987919$GNGST,175814.10,18.000,,,,0.078,0.067,0.160*58
###2023-12-09 12:58:14.989206$GNZDA,175814.10,09,12,2023,00,00*7E
###2023-12-09 12:58:14.989845$GNEBP,,,,,,M*13
###2023-12-09 12:58:15.161369$GNGGA,175814.30,4138.0333701,N,07032.3215747,W,1,24,0.6,13.342,M,-29.744,M,0.0,*59
###2023-12-09 12:58:15.358578$GNGGA,175814.50,4138.0333752,N,07032.3213150,W,1,24,0.6,13.361,M,-29.744,M,0.0,*5E
###2023-12-09 12:58:15.559470$GNGGA,175814.70,4138.0333612,N,07032.3210677,W,1,24,0.6,13.311,M,-29.744,M,0.0,*5F
###2023-12-09 12:58:15.759894$GNGGA,175814.90,4138.0333752,N,07032.3208278,W,1,24,0.6,13.327,M,-29.744,M,0.0,*53
###2023-12-09 12:58:15.961317$GNRMC,175815.10,A,4138.0333998,N,07032.3205713,W,3.58,86.40,091223,,,A*61
###2023-12-09 12:58:15.964209$GNGGA,175815.10,4138.0333998,N,07032.3205713,W,1,24,0.6,13.337,M,-29.744,M,0.0,*56
###2023-12-09 12:58:15.966073$GPGSA,A,3,03,04,16,26,28,29,31,32,,,,,1.1,0.6,0.9*3B
###2023-12-09 12:58:15.967804$GLGSA,A,3,65,71,72,73,74,75,,,,,,,1.1,0.6,0.9*24
###2023-12-09 12:58:15.969387$GAGSA,A,3,04,19,21,27,,,,,,,,,1.1,0.6,0.9*26
###2023-12-09 12:58:15.971036$GBGSA,A,3,14,24,25,26,33,,,,,,,,1.1,0.6,0.9*2F
###2023-12-09 12:58:15.973366$GPGSV,2,1,08,03,36,264,45,04,31,311,42,16,48,211,47,26,78,209,48*70
###2023-12-09 12:58:15.975711$GPGSV,2,2,08,28,50,069,43,29,25,063,41,31,69,033,47,32,20,139,41*79
###2023-12-09 12:58:15.978047$GLGSV,2,1,06,65,22,328,42,71,43,172,46,72,73,277,47,73,37,040,46*6D
###2023-12-09 12:58:15.979795$GLGSV,2,2,06,74,70,331,43,75,30,251,46,,,,,,,,*64
###2023-12-09 12:58:15.982120$GAGSV,1,1,04,04,28,312,40,19,85,226,40,21,85,133,45,27,34,048,43*66
###2023-12-09 12:58:15.984458$GBGSV,2,1,05,14,45,193,44,24,75,020,48,25,39,260,46,26,27,062,42*60
###2023-12-09 12:58:15.985914$GBGSV,2,2,05,33,59,235,48,,,,,,,,,,,,*5A
###2023-12-09 12:58:15.987215$GNVTG,86.40,T,,M,3.58,N,6.62,K,A*15
###2023-12-09 12:58:15.988865$GNGST,175815.10,18.000,,,,0.078,0.067,0.160*59
###2023-12-09 12:58:15.990148$GNZDA,175815.10,09,12,2023,00,00*7F
###2023-12-09 12:58:15.990798$GNEBP,,,,,,M*13
###2023-12-09 12:58:16.157709$GNGGA,175815.30,4138.0333917,N,07032.3203178,W,1,24,0.6,13.312,M,-29.744,M,0.0,*59
###2023-12-09 12:58:16.359673$GNGGA,175815.50,4138.0333586,N,07032.3200705,W,1,24,0.6,13.322,M,-29.744,M,0.0,*57
###2023-12-09 12:58:16.558526$GNGGA,175815.70,4138.0333303,N,07032.3198198,W,1,24,0.6,13.332,M,-29.744,M,0.0,*5F
###2023-12-09 12:58:16.760568$GNGGA,175815.90,4138.0333102,N,07032.3195629,W,1,24,0.6,13.314,M,-29.744,M,0.0,*56
###2023-12-09 12:58:16.963348$GNRMC,175816.10,A,4138.0332819,N,07032.3193127,W,3.48,99.80,091223,,,A*65
###2023-12-09 12:58:16.966206$GNGGA,175816.10,4138.0332819,N,07032.3193127,W,1,24,0.6,13.315,M,-29.744,M,0.0,*51
###2023-12-09 12:58:16.968079$GPGSA,A,3,03,04,16,26,28,29,31,32,,,,,1.1,0.6,0.9*3B
###2023-12-09 12:58:16.969794$GLGSA,A,3,65,71,72,73,74,75,,,,,,,1.1,0.6,0.9*24
###2023-12-09 12:58:16.971385$GAGSA,A,3,04,19,21,27,,,,,,,,,1.1,0.6,0.9*26
###2023-12-09 12:58:16.973021$GBGSA,A,3,14,24,25,26,33,,,,,,,,1.1,0.6,0.9*2F
###2023-12-09 12:58:16.975341$GPGSV,2,1,08,03,36,264,44,04,31,311,42,16,48,211,47,26,78,209,48*71
###2023-12-09 12:58:16.977671$GPGSV,2,2,08,28,50,069,44,29,25,063,42,31,69,033,47,32,20,139,41*7D
###2023-12-09 12:58:16.980003$GLGSV,2,1,06,65,22,328,41,71,43,172,46,72,73,277,47,73,37,040,45*6D
###2023-12-09 12:58:16.981739$GLGSV,2,2,06,74,70,331,43,75,30,251,45,,,,,,,,*67
###2023-12-09 12:58:16.984066$GAGSV,1,1,04,04,28,312,41,19,85,226,40,21,85,133,46,27,34,048,42*65
###2023-12-09 12:58:16.986387$GBGSV,2,1,05,14,45,193,44,24,75,020,49,25,39,260,46,26,27,062,43*60
###2023-12-09 12:58:16.987851$GBGSV,2,2,05,33,59,235,47,,,,,,,,,,,,*55
###2023-12-09 12:58:16.989136$GNVTG,99.80,T,,M,3.48,N,6.44,K,A*12
###2023-12-09 12:58:16.990788$GNGST,175816.10,18.000,,,,0.078,0.067,0.160*5A
###2023-12-09 12:58:16.992084$GNZDA,175816.10,09,12,2023,00,00*7C
###2023-12-09 12:58:16.992720$GNEBP,,,,,,M*13
###2023-12-09 12:58:17.159348$GNGGA,175816.30,4138.0332425,N,07032.3190548,W,1,24,0.6,13.325,M,-29.744,M,0.0,*5D
###2023-12-09 12:58:17.360440$GNGGA,175816.50,4138.0331941,N,07032.3187983,W,1,24,0.6,13.305,M,-29.744,M,0.0,*58
###2023-12-09 12:58:17.560341$GNGGA,175816.70,4138.0331706,N,07032.3185415,W,1,24,0.6,13.312,M,-29.744,M,0.0,*51
###2023-12-09 12:58:17.804435$GNGGA,175816.90,4138.0331493,N,07032.3182707,W,1,24,0.6,13.307,M,-29.744,M,0.0,*53
###2023-12-09 12:58:17.963999$GNRMC,175817.10,A,4138.0331284,N,07032.3180039,W,3.69,97.40,091223,,,A*64
###2023-12-09 12:58:17.966886$GNGGA,175817.10,4138.0331284,N,07032.3180039,W,1,24,0.6,13.296,M,-29.744,M,0.0,*5B
###2023-12-09 12:58:17.968757$GPGSA,A,3,03,04,16,26,28,29,31,32,,,,,1.1,0.6,0.9*3B
###2023-12-09 12:58:17.970478$GLGSA,A,3,65,71,72,73,74,75,,,,,,,1.1,0.6,0.9*24
###2023-12-09 12:58:17.972080$GAGSA,A,3,04,19,21,27,,,,,,,,,1.1,0.6,0.9*26
###2023-12-09 12:58:17.973727$GBGSA,A,3,14,24,25,26,33,,,,,,,,1.1,0.6,0.9*2F
###2023-12-09 12:58:17.976065$GPGSV,2,1,08,03,36,264,44,04,31,311,42,16,48,211,46,26,78,209,49*71
###2023-12-09 12:58:17.978406$GPGSV,2,2,08,28,50,069,44,29,25,063,41,31,69,033,47,32,20,139,40*7F
###2023-12-09 12:58:17.980737$GLGSV,2,1,06,65,22,328,42,71,43,172,46,72,73,277,47,73,37,040,44*6F
###2023-12-09 12:58:17.982489$GLGSV,2,2,06,74,70,331,43,75,30,251,44,,,,,,,,*66
###2023-12-09 12:58:17.984827$GAGSV,1,1,04,04,28,312,40,19,85,226,40,21,85,133,46,27,34,048,43*65
###2023-12-09 12:58:17.987174$GBGSV,2,1,05,14,45,193,45,24,75,020,48,25,39,260,45,26,27,062,41*61
###2023-12-09 12:58:17.988638$GBGSV,2,2,05,33,59,235,47,,,,,,,,,,,,*55
###2023-12-09 12:58:17.989934$GNVTG,97.40,T,,M,3.69,N,6.84,K,A*1F
###2023-12-09 12:58:17.991822$GNGST,175817.10,18.000,,,,0.078,0.067,0.160*5B
###2023-12-09 12:58:17.993132$GNZDA,175817.10,09,12,2023,00,00*7D
###2023-12-09 12:58:17.993776$GNEBP,,,,,,M*13
###2023-12-09 12:58:18.159408$GNGGA,175817.30,4138.0330924,N,07032.3177335,W,1,24,0.6,13.298,M,-29.744,M,0.0,*50
###2023-12-09 12:58:18.360482$GNGGA,175817.50,4138.0330650,N,07032.3174594,W,1,24,0.6,13.302,M,-29.744,M,0.0,*56
###2023-12-09 12:58:18.561837$GNGGA,175817.70,4138.0330696,N,07032.3171896,W,1,24,0.6,13.293,M,-29.744,M,0.0,*5D
###2023-12-09 12:58:18.760675$GNGGA,175817.90,4138.0330854,N,07032.3169302,W,1,24,0.6,13.293,M,-29.744,M,0.0,*5C
###2023-12-09 12:58:18.961408$GNRMC,175818.10,A,4138.0330765,N,07032.3166607,W,3.65,97.18,091223,,,A*62
###2023-12-09 12:58:18.964293$GNGGA,175818.10,4138.0330765,N,07032.3166607,W,1,24,0.6,13.296,M,-29.744,M,0.0,*5C
