###2023-12-09 13:31:53.010040$GLGSV,2,1,05,65,37,320,43,72,64,223,47,73,23,051,42,74,61,011,42*60
###2023-12-09 13:31:53.011898$GLGSV,2,2,05,75,42,269,48,,,,,,,,,,,,*55
###2023-12-09 13:31:53.014723$GAGSV,1,1,04,04,39,310,43,19,73,182,41,21,78,047,46,27,23,050,41*6C
###2023-12-09 13:31:53.017546$GBGSV,2,1,06,14,30,190,35,24,64,044,48,25,50,275,48,26,17,070,45*64
###2023-12-09 13:31:53.019660$GBGSV,2,2,06,33,47,218,43,35,16,058,44,,,,,,,,*6E
###2023-12-09 13:31:53.021218$GNVTG,99.64,T,,M,0.47,N,0.86,K,A*1C
###2023-12-09 13:31:53.023181$GNGST,183152.10,5.800,,,,0.190,0.100,0.260*6A
###2023-12-09 13:31:53.024738$GNZDA,183152.10,09,12,2023,00,00*7C
###2023-12-09 13:31:53.025504$GNEBP,,,,,,M*13
###2023-12-09 13:31:53.187067$GNGGA,183152.30,4138.0344997,N,07032.4258254,W,1,21,0.8,13.534,M,-29.746,M,0.0,*5D
###2023-12-09 13:31:53.388334$GNGGA,183152.50,4138.0344837,N,07032.4258202,W,1,20,0.9,13.532,M,-29.746,M,0.0,*55
###2023-12-09 13:31:53.587846$GNGGA,183152.70,4138.0344721,N,07032.4258057,W,1,20,0.9,13.549,M,-29.746,M,0.0,*51
###2023-12-09 13:31:53.787261$GNGGA,183152.90,4138.0344597,N,07032.4258021,W,1,20,0.9,13.558,M,-29.746,M,0.0,*51
###2023-12-09 13:31:53.989143$GNRMC,183153.10,A,4138.0344528,N,07032.4258191,W,0.33,99.64,091223,,,A*61
###2023-12-09 13:31:53.992030$GNGGA,183153.10,4138.0344528,N,07032.4258191,W,1,20,0.9,13.545,M,-29.746,M,0.0,*5A
###2023-12-09 13:31:53.993753$GPGSA,A,3,04,16,26,28,29,31,,,,,,,1.6,0.9,1.2*3B
###2023-12-09 13:31:53.995417$GLGSA,A,3,65,72,73,74,75,,,,,,,,1.6,0.9,1.2*20
###2023-12-09 13:31:53.996998$GAGSA,A,3,04,19,21,27,,,,,,,,,1.6,0.9,1.2*24
###2023-12-09 13:31:53.998654$GBGSA,A,3,24,25,26,33,35,,,,,,,,1.6,0.9,1.2*2E
###2023-12-09 13:31:54.000988$GPGSV,2,1,06,04,45,308,44,16,65,221,47,26,85,040,48,28,39,084,44*79
###2023-12-09 13:31:54.002744$GPGSV,2,2,06,29,21,048,42,31,60,064,48,,,,,,,,*77
###2023-12-09 13:31:54.005066$GLGSV,2,1,05,65,37,320,43,72,64,223,46,73,23,051,42,74,61,011,42*61
###2023-12-09 13:31:54.006518$GLGSV,2,2,05,75,42,269,45,,,,,,,,,,,,*58
###2023-12-09 13:31:54.008839$GAGSV,1,1,04,04,39,310,40,19,73,182,41,21,78,047,45,27,23,050,39*63
###2023-12-09 13:31:54.011171$GBGSV,2,1,05,24,64,044,46,25,50,275,47,26,17,070,43,33,47,218,41*65
###2023-12-09 13:31:54.012623$GBGSV,2,2,05,35,16,058,42,,,,,,,,,,,,*54
###2023-12-09 13:31:54.013911$GNVTG,99.64,T,,M,0.33,N,0.61,K,A*16
###2023-12-09 13:31:54.015537$GNGST,183153.10,6.100,,,,0.190,0.100,0.260*61
###2023-12-09 13:31:54.016829$GNZDA,183153.10,09,12,2023,00,00*7D
###2023-12-09 13:31:54.017468$GNEBP,,,,,,M*13
###2023-12-09 13:31:54.189624$GNGGA,183153.30,4138.0344595,N,07032.4258413,W,1,20,0.9,13.537,M,-29.746,M,0.0,*54
###2023-12-09 13:31:54.387338$GNGGA,183153.50,4138.0344797,N,07032.4258439,W,1,20,0.9,13.544,M,-29.746,M,0.0,*5E
###2023-12-09 13:31:54.588173$GNGGA,183153.70,4138.0345111,N,07032.4258463,W,1,20,0.9,13.556,M,-29.746,M,0.0,*59
###2023-12-09 13:31:54.789062$GNGGA,183153.90,4138.0345491,N,07032.4258644,W,1,20,0.9,13.566,M,-29.746,M,0.0,*5E
###2023-12-09 13:31:54.992499$GNRMC,183154.10,A,4138.0346005,N,07032.4258824,W,1.09,355.38,091223,,,A*5B
###2023-12-09 13:31:54.996009$GNGGA,183154.10,4138.0346005,N,07032.4258824,W,1,20,0.9,13.575,M,-29.746,M,0.0,*51
###2023-12-09 13:31:54.998114$GPGSA,A,3,04,16,26,28,29,31,,,,,,,1.6,0.9,1.2*3B
###2023-12-09 13:31:55.000139$GLGSA,A,3,65,72,73,74,75,,,,,,,,1.6,0.9,1.2*20
###2023-12-09 13:31:55.002056$GAGSA,A,3,04,19,21,27,,,,,,,,,1.6,0.9,1.2*24
###2023-12-09 13:31:55.004062$GBGSA,A,3,24,25,26,33,35,,,,,,,,1.6,0.9,1.2*2E
###2023-12-09 13:31:55.006882$GPGSV,2,1,06,04,45,308,46,16,65,221,47,26,85,040,48,28,39,084,44*7B
###2023-12-09 13:31:55.009002$GPGSV,2,2,06,29,21,048,42,31,60,064,47,,,,,,,,*78
###2023-12-09 13:31:55.011825$GLGSV,2,1,05,65,37,320,42,72,64,223,46,73,23,051,37,74,61,011,41*61
###2023-12-09 13:31:55.013580$GLGSV,2,2,05,75,42,269,47,,,,,,,,,,,,*5A
###2023-12-09 13:31:55.016399$GAGSV,1,1,04,04,39,310,43,19,73,182,41,21,78,047,45,27,23,050,36*6F
###2023-12-09 13:31:55.019220$GBGSV,2,1,05,24,64,044,48,25,50,275,48,26,17,070,44,33,47,218,42*60
###2023-12-09 13:31:55.020976$GBGSV,2,2,05,35,16,058,42,,,,,,,,,,,,*54
###2023-12-09 13:31:55.022578$GNVTG,355.38,T,,M,1.09,N,2.02,K,A*23
###2023-12-09 13:31:55.024560$GNGST,183154.10,5.800,,,,0.180,0.100,0.260*6D
###2023-12-09 13:31:55.026119$GNZDA,183154.10,09,12,2023,00,00*7A
###2023-12-09 13:31:55.026915$GNEBP,,,,,,M*13
###2023-12-09 13:31:55.188886$GNGGA,183154.30,4138.0346536,N,07032.4258798,W,1,20,0.9,13.560,M,-29.746,M,0.0,*5A
###2023-12-09 13:31:55.388282$GNGGA,183154.50,4138.0347182,N,07032.4258781,W,1,20,0.9,13.577,M,-29.746,M,0.0,*58
###2023-12-09 13:31:55.589720$GNGGA,183154.70,4138.0347892,N,07032.4258768,W,1,20,0.9,13.582,M,-29.746,M,0.0,*5F
###2023-12-09 13:31:55.789493$GNGGA,183154.90,4138.0348692,N,07032.4258758,W,1,20,0.9,13.593,M,-29.746,M,0.0,*53
###2023-12-09 13:31:55.990751$GNRMC,183155.10,A,4138.0349508,N,07032.4258461,W,1.48,21.54,091223,,,A*6F
###2023-12-09 13:31:55.994300$GNGGA,183155.10,4138.0349508,N,07032.4258461,W,1,20,0.9,13.604,M,-29.746,M,0.0,*5F
###2023-12-09 13:31:55.996419$GPGSA,A,3,04,16,26,28,29,31,,,,,,,1.6,0.9,1.2*3B
###2023-12-09 13:31:55.998412$GLGSA,A,3,65,72,73,74,75,,,,,,,,1.6,0.9,1.2*20
###2023-12-09 13:31:56.000327$GAGSA,A,3,04,19,21,27,,,,,,,,,1.6,0.9,1.2*24
###2023-12-09 13:31:56.002313$GBGSA,A,3,24,25,26,33,35,,,,,,,,1.6,0.9,1.2*2E
###2023-12-09 13:31:56.005133$GPGSV,2,1,06,04,45,308,45,16,65,221,45,26,85,040,47,28,39,084,44*75
###2023-12-09 13:31:56.007248$GPGSV,2,2,06,29,21,048,38,31,60,064,45,,,,,,,,*77
###2023-12-09 13:31:56.010033$GLGSV,2,1,05,65,37,320,44,72,64,223,46,73,23,051,39,74,61,011,41*69
###2023-12-09 13:31:56.011797$GLGSV,2,2,05,75,42,269,46,,,,,,,,,,,,*5B
###2023-12-09 13:31:56.014598$GAGSV,1,1,04,04,39,310,43,19,73,182,41,21,78,047,45,27,23,050,38*61
###2023-12-09 13:31:56.017428$GBGSV,2,1,05,24,64,044,46,25,50,275,47,26,17,070,42,33,47,218,37*65
###2023-12-09 13:31:56.019190$GBGSV,2,2,05,35,16,058,43,,,,,,,,,,,,*55
###2023-12-09 13:31:56.020730$GNVTG,21.54,T,,M,1.48,N,2.74,K,A*1D
###2023-12-09 13:31:56.022677$GNGST,183155.10,5.200,,,,0.180,0.099,0.270*66
###2023-12-09 13:31:56.024228$GNZDA,183155.10,09,12,2023,00,00*7B
###2023-12-09 13:31:56.025000$GNEBP,,,,,,M*13
###2023-12-09 13:31:56.189189$GNGGA,183155.30,4138.0350249,N,07032.4258002,W,1,20,0.9,13.593,M,-29.746,M,0.0,*5B
###2023-12-09 13:31:56.387887$GNGGA,183155.50,4138.0351071,N,07032.4257606,W,1,20,0.9,13.592,M,-29.746,M,0.0,*59
###2023-12-09 13:31:56.588748$GNGGA,183155.70,4138.0352042,N,07032.4257240,W,1,20,0.9,13.606,M,-29.746,M,0.0,*50
###2023-12-09 13:31:56.787803$GNGGA,183155.90,4138.0352919,N,07032.4256582,W,1,20,0.9,13.606,M,-29.746,M,0.0,*51
###2023-12-09 13:31:56.990366$GNRMC,183156.10,A,4138.0353655,N,07032.4255626,W,1.83,46.53,091223,,,A*61
###2023-12-09 13:31:56.993862$GNGGA,183156.10,4138.0353655,N,07032.4255626,W,1,20,0.9,13.611,M,-29.746,M,0.0,*54
###2023-12-09 13:31:56.995957$GPGSA,A,3,04,16,26,28,29,31,,,,,,,1.6,0.9,1.2*3B
###2023-12-09 13:31:56.997934$GLGSA,A,3,65,72,73,74,75,,,,,,,,1.6,0.9,1.2*20
###2023-12-09 13:31:56.999858$GAGSA,A,3,04,19,21,27,,,,,,,,,1.6,0.9,1.2*24
###2023-12-09 13:31:57.001837$GBGSA,A,3,24,25,26,33,35,,,,,,,,1.6,0.9,1.2*2E
###2023-12-09 13:31:57.004650$GPGSV,2,1,06,04,45,308,46,16,65,221,47,26,85,040,48,28,39,084,43*7C
###2023-12-09 13:31:57.006771$GPGSV,2,2,06,29,21,048,39,31,60,064,46,,,,,,,,*75
###2023-12-09 13:31:57.009565$GLGSV,2,1,05,65,37,320,43,72,64,223,45,73,23,051,40,74,61,011,41*63
###2023-12-09 13:31:57.011366$GLGSV,2,2,05,75,42,269,47,,,,,,,,,,,,*5A
###2023-12-09 13:31:57.014165$GAGSV,1,1,04,04,39,310,45,19,73,182,41,21,78,047,46,27,23,050,37*6B
###2023-12-09 13:31:57.016993$GBGSV,2,1,05,24,64,044,47,25,50,275,47,26,17,070,43,33,47,218,44*61
###2023-12-09 13:31:57.018760$GBGSV,2,2,05,35,16,058,43,,,,,,,,,,,,*55
###2023-12-09 13:31:57.020312$GNVTG,46.53,T,,M,1.83,N,3.38,K,A*15
###2023-12-09 13:31:57.022255$GNGST,183156.10,5.500,,,,0.190,0.100,0.270*62
###2023-12-09 13:31:57.023855$GNZDA,183156.10,09,12,2023,00,00*78
###2023-12-09 13:31:57.024625$GNEBP,,,,,,M*13
###2023-12-09 13:31:57.191504$GNGGA,183156.30,4138.0354465,N,07032.4254599,W,1,20,0.9,13.627,M,-29.746,M,0.0,*53
###2023-12-09 13:31:57.387966$GNGGA,183156.50,4138.0355422,N,07032.4253581,W,1,20,0.9,13.628,M,-29.746,M,0.0,*56
###2023-12-09 13:31:57.587630$GNGGA,183156.70,4138.0356339,N,07032.4252589,W,1,20,0.8,13.622,M,-29.746,M,0.0,*58
###2023-12-09 13:31:57.787566$GNGGA,183156.90,4138.0357215,N,07032.4251309,W,1,20,0.8,13.628,M,-29.746,M,0.0,*5F
###2023-12-09 13:31:57.991953$GNRMC,183157.10,A,4138.0357988,N,07032.4249804,W,2.43,52.56,091223,,,A*67
###2023-12-09 13:31:57.994837$GNGGA,183157.10,4138.0357988,N,07032.4249804,W,1,20,0.8,13.620,M,-29.746,M,0.0,*5E
###2023-12-09 13:31:57.996575$GPGSA,A,3,04,16,26,28,29,31,,,,,,,1.4,0.8,1.1*3B
