###2023-12-09 13:21:15.001385$GPGSV,2,1,07,03,30,252,40,04,41,310,44,16,59,217,45,26,89,196,48*76
###2023-12-09 13:21:15.003478$GPGSV,2,2,07,28,43,079,44,29,23,053,39,31,64,055,46,,,,*49
###2023-12-09 13:21:15.005811$GLGSV,2,1,06,65,33,323,42,71,30,174,44,72,69,234,46,73,27,048,41*65
###2023-12-09 13:21:15.007569$GLGSV,2,2,06,74,64,002,41,75,39,263,46,,,,,,,,*68
###2023-12-09 13:21:15.009930$GAGSV,1,1,04,04,35,311,43,19,77,186,41,21,81,055,46,27,27,049,39*67
###2023-12-09 13:21:15.012266$GBGSV,2,1,06,14,35,191,43,24,67,039,48,25,47,270,47,26,20,067,42*61
###2023-12-09 13:21:15.014003$GBGSV,2,2,06,33,51,222,48,35,16,062,43,,,,,,,,*65
###2023-12-09 13:21:15.015301$GNVTG,25.55,T,,M,2.95,N,5.47,K,A*1C
###2023-12-09 13:21:15.016945$GNGST,182114.10,18.000,,,,0.100,0.072,0.170*52
###2023-12-09 13:21:15.018232$GNZDA,182114.10,09,12,2023,00,00*7F
###2023-12-09 13:21:15.018887$GNEBP,,,,,,M*13
###2023-12-09 13:21:15.184773$GNGGA,182114.30,4138.0297731,N,07032.3459486,W,1,24,0.7,13.171,M,-29.745,M,0.0,*56
###2023-12-09 13:21:15.383448$GNGGA,182114.50,4138.0299277,N,07032.3458703,W,1,24,0.7,13.191,M,-29.745,M,0.0,*58
###2023-12-09 13:21:15.584361$GNGGA,182114.70,4138.0300714,N,07032.3457528,W,1,24,0.7,13.188,M,-29.745,M,0.0,*57
###2023-12-09 13:21:15.784251$GNGGA,182114.90,4138.0302049,N,07032.3456129,W,1,24,0.7,13.166,M,-29.745,M,0.0,*50
###2023-12-09 13:21:15.986034$GNRMC,182115.10,A,4138.0303538,N,07032.3455313,W,3.03,12.97,091223,,,A*6B
###2023-12-09 13:21:15.988944$GNGGA,182115.10,4138.0303538,N,07032.3455313,W,1,24,0.7,13.188,M,-29.745,M,0.0,*53
###2023-12-09 13:21:15.990760$GPGSA,A,3,03,04,16,26,28,29,31,,,,,,1.1,0.7,0.9*3B
###2023-12-09 13:21:15.992481$GLGSA,A,3,65,71,72,73,74,75,,,,,,,1.1,0.7,0.9*25
###2023-12-09 13:21:15.994063$GAGSA,A,3,04,19,21,27,,,,,,,,,1.1,0.7,0.9*27
###2023-12-09 13:21:15.995782$GBGSA,A,3,14,24,25,26,33,35,,,,,,,1.1,0.7,0.9*28
###2023-12-09 13:21:15.998106$GPGSV,2,1,07,03,30,252,39,04,41,310,44,16,59,217,45,26,89,196,48*78
###2023-12-09 13:21:16.000152$GPGSV,2,2,07,28,43,079,44,29,23,053,41,31,64,055,46,,,,*46
###2023-12-09 13:21:16.002483$GLGSV,2,1,06,65,33,323,41,71,30,174,45,72,69,234,46,73,27,048,41*67
###2023-12-09 13:21:16.004250$GLGSV,2,2,06,74,64,002,41,75,39,263,46,,,,,,,,*68
###2023-12-09 13:21:16.006584$GAGSV,1,1,04,04,35,311,42,19,77,186,41,21,81,055,46,27,27,049,40*68
###2023-12-09 13:21:16.008915$GBGSV,2,1,06,14,35,191,43,24,67,039,47,25,47,270,46,26,20,067,42*6F
###2023-12-09 13:21:16.010675$GBGSV,2,2,06,33,51,222,46,35,16,062,42,,,,,,,,*6A
###2023-12-09 13:21:16.011967$GNVTG,12.97,T,,M,3.03,N,5.62,K,A*1F
###2023-12-09 13:21:16.013607$GNGST,182115.10,18.000,,,,0.100,0.072,0.170*53
###2023-12-09 13:21:16.014907$GNZDA,182115.10,09,12,2023,00,00*7E
###2023-12-09 13:21:16.015547$GNEBP,,,,,,M*13
###2023-12-09 13:21:16.182784$GNGGA,182115.30,4138.0305150,N,07032.3454637,W,1,24,0.7,13.201,M,-29.745,M,0.0,*5D
###2023-12-09 13:21:16.382518$GNGGA,182115.50,4138.0306569,N,07032.3453298,W,1,24,0.7,13.187,M,-29.745,M,0.0,*5D
###2023-12-09 13:21:16.583088$GNGGA,182115.70,4138.0307943,N,07032.3451886,W,1,24,0.7,13.191,M,-29.745,M,0.0,*5A
###2023-12-09 13:21:16.782298$GNGGA,182115.90,4138.0309505,N,07032.3451096,W,1,24,0.7,13.227,M,-29.745,M,0.0,*53
###2023-12-09 13:21:16.988401$GNRMC,182116.10,A,4138.0311169,N,07032.3450341,W,3.13,25.31,091223,,,A*60
###2023-12-09 13:21:16.991310$GNGGA,182116.10,4138.0311169,N,07032.3450341,W,1,24,0.7,13.213,M,-29.745,M,0.0,*50
###2023-12-09 13:21:16.993108$GPGSA,A,3,03,04,16,26,28,29,31,,,,,,1.1,0.7,0.9*3B
###2023-12-09 13:21:16.994871$GLGSA,A,3,65,71,72,73,74,75,,,,,,,1.1,0.7,0.9*25
###2023-12-09 13:21:16.996456$GAGSA,A,3,04,19,21,27,,,,,,,,,1.1,0.7,0.9*27
###2023-12-09 13:21:16.998163$GBGSA,A,3,14,24,25,26,33,35,,,,,,,1.1,0.7,0.9*28
###2023-12-09 13:21:17.000503$GPGSV,2,1,07,03,30,252,42,04,41,310,44,16,60,218,46,26,89,196,48*72
###2023-12-09 13:21:17.002539$GPGSV,2,2,07,28,43,079,43,29,23,053,36,31,64,055,46,,,,*41
###2023-12-09 13:21:17.004887$GLGSV,2,1,06,65,33,323,43,71,30,174,44,72,69,234,46,73,27,048,40*65
###2023-12-09 13:21:17.006649$GLGSV,2,2,06,74,64,002,41,75,39,263,47,,,,,,,,*69
###2023-12-09 13:21:17.008971$GAGSV,1,1,04,04,35,311,43,19,77,186,41,21,81,055,46,27,27,049,39*67
###2023-12-09 13:21:17.011311$GBGSV,2,1,06,14,35,191,43,24,67,039,47,25,47,270,48,26,20,067,41*62
###2023-12-09 13:21:17.013050$GBGSV,2,2,06,33,51,222,47,35,16,062,42,,,,,,,,*6B
###2023-12-09 13:21:17.014337$GNVTG,25.31,T,,M,3.13,N,5.80,K,A*1A
###2023-12-09 13:21:17.015996$GNGST,182116.10,18.000,,,,0.100,0.072,0.170*50
###2023-12-09 13:21:17.017276$GNZDA,182116.10,09,12,2023,00,00*7D
###2023-12-09 13:21:17.017912$GNEBP,,,,,,M*13
###2023-12-09 13:21:17.184816$GNGGA,182116.30,4138.0312686,N,07032.3449132,W,1,24,0.7,13.188,M,-29.745,M,0.0,*58
###2023-12-09 13:21:17.383482$GNGGA,182116.50,4138.0314205,N,07032.3448006,W,1,24,0.7,13.188,M,-29.745,M,0.0,*50
###2023-12-09 13:21:17.589487$GNGGA,182116.70,4138.0315866,N,07032.3447251,W,1,24,0.7,13.219,M,-29.745,M,0.0,*58
###2023-12-09 13:21:17.783392$GNGGA,182116.90,4138.0317582,N,07032.3446560,W,1,24,0.7,13.212,M,-29.745,M,0.0,*5C
###2023-12-09 13:21:17.986947$GNRMC,182117.10,A,4138.0319215,N,07032.3445691,W,3.23,22.39,091223,,,A*61
###2023-12-09 13:21:17.989826$GNGGA,182117.10,4138.0319215,N,07032.3445691,W,1,24,0.7,13.190,M,-29.745,M,0.0,*55
###2023-12-09 13:21:17.991641$GPGSA,A,3,03,04,16,26,28,29,31,,,,,,1.1,0.7,0.9*3B
###2023-12-09 13:21:17.993357$GLGSA,A,3,65,71,72,73,74,75,,,,,,,1.1,0.7,0.9*25
###2023-12-09 13:21:17.994949$GAGSA,A,3,04,19,21,27,,,,,,,,,1.1,0.7,0.9*27
###2023-12-09 13:21:17.996657$GBGSA,A,3,14,24,25,26,33,35,,,,,,,1.1,0.7,0.9*28
###2023-12-09 13:21:17.998988$GPGSV,2,1,07,03,30,252,44,04,41,310,45,16,60,218,46,26,89,196,48*75
###2023-12-09 13:21:18.001031$GPGSV,2,2,07,28,43,079,44,29,23,053,39,31,64,055,46,,,,*49
###2023-12-09 13:21:18.003375$GLGSV,2,1,06,65,33,323,42,71,30,174,44,72,69,234,46,73,27,048,38*6B
###2023-12-09 13:21:18.005126$GLGSV,2,2,06,74,64,002,41,75,39,263,47,,,,,,,,*69
###2023-12-09 13:21:18.007464$GAGSV,1,1,04,04,35,311,44,19,77,186,41,21,81,055,46,27,27,049,37*6E
###2023-12-09 13:21:18.009787$GBGSV,2,1,06,14,35,191,44,24,67,039,47,25,47,270,48,26,20,067,41*65
###2023-12-09 13:21:18.011541$GBGSV,2,2,06,33,51,222,48,35,16,062,41,,,,,,,,*67
###2023-12-09 13:21:18.012829$GNVTG,22.39,T,,M,3.23,N,5.98,K,A*1F
###2023-12-09 13:21:18.014474$GNGST,182117.10,18.000,,,,0.100,0.072,0.170*51
###2023-12-09 13:21:18.015774$GNZDA,182117.10,09,12,2023,00,00*7C
###2023-12-09 13:21:18.016413$GNEBP,,,,,,M*13
###2023-12-09 13:21:18.183791$GNGGA,182117.30,4138.0320879,N,07032.3444830,W,1,24,0.7,13.187,M,-29.745,M,0.0,*5F
###2023-12-09 13:21:18.383520$GNGGA,182117.50,4138.0322598,N,07032.3444185,W,1,24,0.7,13.181,M,-29.745,M,0.0,*58
###2023-12-09 13:21:18.583030$GNGGA,182117.70,4138.0324269,N,07032.3443854,W,1,24,0.7,13.180,M,-29.745,M,0.0,*56
###2023-12-09 13:21:18.784265$GNGGA,182117.90,4138.0325995,N,07032.3443535,W,1,24,0.7,13.195,M,-29.745,M,0.0,*5F
###2023-12-09 13:21:18.990505$GNRMC,182118.10,A,4138.0327789,N,07032.3443227,W,3.23,3.89,091223,,,A*54
###2023-12-09 13:21:18.993366$GNGGA,182118.10,4138.0327789,N,07032.3443227,W,1,24,0.7,13.197,M,-29.745,M,0.0,*5F
###2023-12-09 13:21:18.995169$GPGSA,A,3,03,04,16,26,28,29,31,,,,,,1.1,0.7,0.9*3B
###2023-12-09 13:21:18.996886$GLGSA,A,3,65,71,72,73,74,75,,,,,,,1.1,0.7,0.9*25
###2023-12-09 13:21:18.998464$GAGSA,A,3,04,19,21,27,,,,,,,,,1.1,0.7,0.9*27
###2023-12-09 13:21:19.000184$GBGSA,A,3,14,24,25,26,33,35,,,,,,,1.1,0.7,0.9*28
###2023-12-09 13:21:19.002505$GPGSV,2,1,07,03,30,252,43,04,41,310,44,16,60,218,46,26,89,196,48*73
###2023-12-09 13:21:19.004544$GPGSV,2,2,07,28,43,079,44,29,23,053,41,31,64,055,46,,,,*46
###2023-12-09 13:21:19.006870$GLGSV,2,1,06,65,33,323,42,71,30,174,44,72,69,234,46,73,27,048,42*66
###2023-12-09 13:21:19.008606$GLGSV,2,2,06,74,64,002,41,75,39,263,47,,,,,,,,*69
###2023-12-09 13:21:19.010933$GAGSV,1,1,04,04,35,311,44,19,77,186,41,21,81,055,46,27,27,049,40*6E
###2023-12-09 13:21:19.013247$GBGSV,2,1,06,14,35,191,42,24,67,039,48,25,47,270,47,26,20,067,43*61
###2023-12-09 13:21:19.014998$GBGSV,2,2,06,33,51,222,47,35,16,062,43,,,,,,,,*6A
###2023-12-09 13:21:19.016502$GNVTG,3.89,T,,M,3.23,N,5.98,K,A*27
###2023-12-09 13:21:19.018158$GNGST,182118.10,18.000,,,,0.100,0.072,0.170*5E
###2023-12-09 13:21:19.019468$GNZDA,182118.10,09,12,2023,00,00*73
###2023-12-09 13:21:19.020112$GNEBP,,,,,,M*13
###2023-12-09 13:21:19.183784$GNGGA,182118.30,4138.0329590,N,07032.3443232,W,1,24,0.7,13.199,M,-29.745,M,0.0,*53
###2023-12-09 13:21:19.383461$GNGGA,182118.50,4138.0331475,N,07032.3443268,W,1,24,0.7,13.197,M,-29.745,M,0.0,*57
###2023-12-09 13:21:19.591311$GNGGA,182118.70,4138.0333333,N,07032.3443300,W,1,24,0.7,13.180,M,-29.745,M,0.0,*5B
###2023-12-09 13:21:19.784400$GNGGA,182118.90,4138.0335196,N,07032.3443353,W,1,24,0.7,13.184,M,-29.744,M,0.0,*5D
###2023-12-09 13:21:19.988346$GNRMC,182119.10,A,4138.0337046,N,07032.3443468,W,3.30,354.35,091223,,,A*59
