###2023-12-09 12:53:56.967720$GAGSA,A,3,04,19,21,27,,,,,,,,,1.1,0.6,0.9*26
###2023-12-09 12:53:56.969380$GBGSA,A,3,14,24,25,26,33,,,,,,,,1.1,0.6,0.9*2F
###2023-12-09 12:53:56.971723$GPGSV,2,1,08,03,36,266,42,04,29,311,42,16,46,211,45,26,76,209,47*71
###2023-12-09 12:53:56.974063$GPGSV,2,2,08,28,52,067,45,29,25,064,43,31,70,029,47,32,22,138,46*71
###2023-12-09 12:53:56.976412$GLGSV,2,1,06,65,20,328,41,71,45,172,47,72,72,285,46,73,39,039,47*67
###2023-12-09 12:53:56.978155$GLGSV,2,2,06,74,71,324,43,75,29,249,41,,,,,,,,*67
###2023-12-09 12:53:56.980503$GAGSV,1,1,04,04,27,312,41,19,85,243,40,21,84,154,46,27,36,048,44*6D
###2023-12-09 12:53:56.982846$GBGSV,2,1,05,14,47,194,45,24,76,016,48,25,38,259,44,26,29,061,44*60
###2023-12-09 12:53:56.984293$GBGSV,2,2,05,33,60,238,46,,,,,,,,,,,,*53
###2023-12-09 12:53:56.985611$GNVTG,299.02,T,,M,0.97,N,1.80,K,A*24
###2023-12-09 12:53:56.987261$GNGST,175356.10,18.000,,,,0.076,0.067,0.160*5B
###2023-12-09 12:53:56.988554$GNZDA,175356.10,09,12,2023,00,00*73
###2023-12-09 12:53:56.989190$GNEBP,,,,,,M*13
###2023-12-09 12:53:57.152956$GNGGA,175356.30,4138.0600285,N,07032.3915443,W,1,24,0.6,13.524,M,-29.744,M,0.0,*52
###2023-12-09 12:53:57.354668$GNGGA,175356.50,4138.0600384,N,07032.3915751,W,1,24,0.6,13.531,M,-29.744,M,0.0,*50
###2023-12-09 12:53:57.553701$GNGGA,175356.70,4138.0600360,N,07032.3915810,W,1,24,0.6,13.521,M,-29.744,M,0.0,*53
###2023-12-09 12:53:57.753569$GNGGA,175356.90,4138.0600319,N,07032.3915947,W,1,24,0.6,13.491,M,-29.744,M,0.0,*5A
###2023-12-09 12:53:57.954248$GNRMC,175357.10,A,4138.0600488,N,07032.3916377,W,0.95,299.07,091223,,,A*57
###2023-12-09 12:53:57.957141$GNGGA,175357.10,4138.0600488,N,07032.3916377,W,1,24,0.6,13.503,M,-29.744,M,0.0,*5C
###2023-12-09 12:53:57.959015$GPGSA,A,3,03,04,16,26,28,29,31,32,,,,,1.1,0.6,0.9*3B
###2023-12-09 12:53:57.960726$GLGSA,A,3,65,71,72,73,74,75,,,,,,,1.1,0.6,0.9*24
###2023-12-09 12:53:57.962305$GAGSA,A,3,04,19,21,27,,,,,,,,,1.1,0.6,0.9*26
###2023-12-09 12:53:57.963961$GBGSA,A,3,14,24,25,26,33,,,,,,,,1.1,0.6,0.9*2F
###2023-12-09 12:53:57.966282$GPGSV,2,1,08,03,36,266,40,04,29,311,42,16,46,211,45,26,76,209,47*73
###2023-12-09 12:53:57.968625$GPGSV,2,2,08,28,52,067,46,29,25,064,44,31,70,029,47,32,22,138,46*75
###2023-12-09 12:53:57.970962$GLGSV,2,1,06,65,20,328,41,71,45,172,47,72,72,285,45,73,39,039,46*65
###2023-12-09 12:53:57.972704$GLGSV,2,2,06,74,71,324,43,75,29,249,43,,,,,,,,*65
###2023-12-09 12:53:57.975033$GAGSV,1,1,04,04,27,312,42,19,85,243,40,21,84,154,46,27,36,048,45*6F
###2023-12-09 12:53:57.977355$GBGSV,2,1,05,14,47,194,46,24,76,016,48,25,38,259,44,26,29,061,44*63
###2023-12-09 12:53:57.978819$GBGSV,2,2,05,33,60,238,46,,,,,,,,,,,,*53
###2023-12-09 12:53:57.980137$GNVTG,299.07,T,,M,0.95,N,1.76,K,A*2A
###2023-12-09 12:53:57.981778$GNGST,175357.10,18.000,,,,0.076,0.067,0.160*5A
###2023-12-09 12:53:57.983078$GNZDA,175357.10,09,12,2023,00,00*72
###2023-12-09 12:53:57.983717$GNEBP,,,,,,M*13
###2023-12-09 12:53:58.153054$GNGGA,175357.30,4138.0600786,N,07032.3917037,W,1,24,0.6,13.523,M,-29.744,M,0.0,*57
###2023-12-09 12:53:58.353662$GNGGA,175357.50,4138.0600897,N,07032.3917429,W,1,24,0.6,13.528,M,-29.744,M,0.0,*5E
###2023-12-09 12:53:58.554645$GNGGA,175357.70,4138.0600804,N,07032.3917421,W,1,24,0.6,13.518,M,-29.744,M,0.0,*5D
###2023-12-09 12:53:58.754826$GNGGA,175357.90,4138.0600738,N,07032.3917507,W,1,24,0.6,13.483,M,-29.744,M,0.0,*55
###2023-12-09 12:53:58.956050$GNRMC,175358.10,A,4138.0600973,N,07032.3918099,W,1.15,301.45,091223,,,A*53
###2023-12-09 12:53:58.958943$GNGGA,175358.10,4138.0600973,N,07032.3918099,W,1,24,0.6,13.499,M,-29.744,M,0.0,*55
###2023-12-09 12:53:58.960812$GPGSA,A,3,03,04,16,26,28,29,31,32,,,,,1.1,0.6,0.9*3B
###2023-12-09 12:53:58.962536$GLGSA,A,3,65,71,72,73,74,75,,,,,,,1.1,0.6,0.9*24
###2023-12-09 12:53:58.964140$GAGSA,A,3,04,19,21,27,,,,,,,,,1.1,0.6,0.9*26
###2023-12-09 12:53:58.965795$GBGSA,A,3,14,24,25,26,33,,,,,,,,1.1,0.6,0.9*2F
###2023-12-09 12:53:58.968144$GPGSV,2,1,08,03,36,266,41,04,29,311,42,16,46,211,45,26,76,209,47*72
###2023-12-09 12:53:58.970481$GPGSV,2,2,08,28,52,067,46,29,25,064,44,31,70,029,47,32,22,138,46*75
###2023-12-09 12:53:58.972825$GLGSV,2,1,06,65,20,328,40,71,45,172,48,72,72,285,46,73,39,039,47*69
###2023-12-09 12:53:58.974584$GLGSV,2,2,06,74,71,324,43,75,29,249,42,,,,,,,,*64
###2023-12-09 12:53:58.976911$GAGSV,1,1,04,04,27,312,41,19,85,243,40,21,84,154,46,27,36,048,45*6C
###2023-12-09 12:53:58.979248$GBGSV,2,1,05,14,47,194,46,24,76,016,48,25,38,259,44,26,29,061,45*62
###2023-12-09 12:53:58.980701$GBGSV,2,2,05,33,60,238,46,,,,,,,,,,,,*53
###2023-12-09 12:53:58.982025$GNVTG,301.45,T,,M,1.15,N,2.12,K,A*24
###2023-12-09 12:53:58.983683$GNGST,175358.10,18.000,,,,0.076,0.067,0.160*55
###2023-12-09 12:53:58.984978$GNZDA,175358.10,09,12,2023,00,00*7D
###2023-12-09 12:53:58.985618$GNEBP,,,,,,M*13
###2023-12-09 12:53:59.154711$GNGGA,175358.30,4138.0601281,N,07032.3918746,W,1,24,0.6,13.511,M,-29.744,M,0.0,*54
###2023-12-09 12:53:59.354904$GNGGA,175358.50,4138.0601311,N,07032.3918982,W,1,24,0.6,13.513,M,-29.744,M,0.0,*5E
###2023-12-09 12:53:59.553579$GNGGA,175358.70,4138.0601160,N,07032.3918935,W,1,24,0.6,13.514,M,-29.744,M,0.0,*53
###2023-12-09 12:53:59.753496$GNGGA,175358.90,4138.0601194,N,07032.3919154,W,1,24,0.6,13.502,M,-29.744,M,0.0,*5F
###2023-12-09 12:53:59.954154$GNRMC,175359.10,A,4138.0601454,N,07032.3919734,W,1.07,302.42,091223,,,A*5D
###2023-12-09 12:53:59.957053$GNGGA,175359.10,4138.0601454,N,07032.3919734,W,1,24,0.6,13.515,M,-29.744,M,0.0,*59
###2023-12-09 12:53:59.958924$GPGSA,A,3,03,04,16,26,28,29,31,32,,,,,1.1,0.6,0.9*3B
###2023-12-09 12:53:59.960636$GLGSA,A,3,65,71,72,73,74,75,,,,,,,1.1,0.6,0.9*24
###2023-12-09 12:53:59.962214$GAGSA,A,3,04,19,21,27,,,,,,,,,1.1,0.6,0.9*26
###2023-12-09 12:53:59.963882$GBGSA,A,3,14,24,25,26,33,,,,,,,,1.1,0.6,0.9*2F
###2023-12-09 12:53:59.966211$GPGSV,2,1,08,03,36,266,43,04,29,311,42,16,46,211,44,26,76,209,47*71
###2023-12-09 12:53:59.968563$GPGSV,2,2,08,28,52,067,46,29,25,064,44,31,70,029,48,32,22,138,45*79
###2023-12-09 12:53:59.970903$GLGSV,2,1,06,65,20,328,41,71,45,172,47,72,72,285,45,73,39,039,47*64
###2023-12-09 12:53:59.972650$GLGSV,2,2,06,74,71,324,43,75,29,249,42,,,,,,,,*64
###2023-12-09 12:53:59.974981$GAGSV,1,1,04,04,27,312,41,19,85,243,40,21,84,154,46,27,36,048,44*6D
###2023-12-09 12:53:59.977308$GBGSV,2,1,05,14,47,194,45,24,76,016,48,25,38,259,44,26,29,061,44*60
###2023-12-09 12:53:59.978765$GBGSV,2,2,05,33,60,238,47,,,,,,,,,,,,*52
###2023-12-09 12:53:59.980084$GNVTG,302.42,T,,M,1.07,N,1.98,K,A*22
###2023-12-09 12:53:59.981724$GNGST,175359.10,18.000,,,,0.075,0.067,0.160*57
###2023-12-09 12:53:59.983024$GNZDA,175359.10,09,12,2023,00,00*7C
###2023-12-09 12:53:59.983662$GNEBP,,,,,,M*13
###2023-12-09 12:54:00.152876$GNGGA,175359.30,4138.0601662,N,07032.3920264,W,1,24,0.6,13.511,M,-29.744,M,0.0,*52
###2023-12-09 12:54:00.354627$GNGGA,175359.50,4138.0601607,N,07032.3920372,W,1,24,0.6,13.511,M,-29.744,M,0.0,*51
###2023-12-09 12:54:00.553553$GNGGA,175359.70,4138.0601485,N,07032.3920331,W,1,24,0.6,13.507,M,-29.744,M,0.0,*5B
###2023-12-09 12:54:00.753598$GNGGA,175359.90,4138.0601629,N,07032.3920733,W,1,24,0.6,13.525,M,-29.744,M,0.0,*57
###2023-12-09 12:54:00.954253$GNRMC,175400.10,A,4138.0601953,N,07032.3921438,W,0.93,303.07,091223,,,A*54
###2023-12-09 12:54:00.957168$GNGGA,175400.10,4138.0601953,N,07032.3921438,W,1,24,0.6,13.537,M,-29.744,M,0.0,*5C
###2023-12-09 12:54:00.959052$GPGSA,A,3,03,04,16,26,28,29,31,32,,,,,1.1,0.6,0.9*3B
###2023-12-09 12:54:00.960775$GLGSA,A,3,65,71,72,73,74,75,,,,,,,1.1,0.6,0.9*24
###2023-12-09 12:54:00.962363$GAGSA,A,3,04,19,21,27,,,,,,,,,1.1,0.6,0.9*26
###2023-12-09 12:54:00.964027$GBGSA,A,3,14,24,25,26,33,,,,,,,,1.1,0.6,0.9*2F
###2023-12-09 12:54:00.966349$GPGSV,2,1,08,03,36,266,44,04,29,311,42,16,46,211,44,26,76,209,47*76
###2023-12-09 12:54:00.968695$GPGSV,2,2,08,28,52,067,45,29,25,064,44,31,70,029,48,32,22,138,45*7A
###2023-12-09 12:54:00.971038$GLGSV,2,1,06,65,20,328,42,71,45,172,47,72,72,285,46,73,39,039,47*64
###2023-12-09 12:54:00.972782$GLGSV,2,2,06,74,71,324,43,75,29,249,43,,,,,,,,*65
###2023-12-09 12:54:00.975128$GAGSV,1,1,04,04,27,312,41,19,85,243,40,21,84,154,46,27,36,048,44*6D
###2023-12-09 12:54:00.977711$GBGSV,2,1,05,14,47,194,45,24,76,016,49,25,38,259,46,26,29,061,44*63
###2023-12-09 12:54:00.979195$GBGSV,2,2,05,33,60,238,47,,,,,,,,,,,,*52
###2023-12-09 12:54:00.980518$GNVTG,303.07,T,,M,0.93,N,1.73,K,A*2B
###2023-12-09 12:54:00.982169$GNGST,175400.10,18.000,,,,0.075,0.067,0.160*5C
###2023-12-09 12:54:00.983473$GNZDA,175400.10,09,12,2023,00,00*77
###2023-12-09 12:54:00.984114$GNEBP,,,,,,M*13
###2023-12-09 12:54:01.152872$GNGGA,175400.30,4138.0602085,N,07032.3921778,W,1,24,0.6,13.524,M,-29.744,M,0.0,*5A
###2023-12-09 12:54:01.353564$GNGGA,175400.50,4138.0601911,N,07032.3921657,W,1,24,0.6,13.498,M,-29.744,M,0.0,*51
###2023-12-09 12:54:01.553636$GNGGA,175400.70,4138.0601847,N,07032.3921726,W,1,24,0.6,13.501,M,-29.744,M,0.0,*57
