###2023-12-09 12:50:12.964086$GLGSV,2,1,06,65,18,329,41,71,48,171,49,72,71,291,45,73,41,038,42*63
###2023-12-09 12:50:12.965861$GLGSV,2,2,06,74,71,317,43,75,28,247,45,,,,,,,,*6C
###2023-12-09 12:50:12.968254$GAGSV,1,1,04,04,26,312,41,19,85,260,40,21,83,158,46,27,37,048,42*61
###2023-12-09 12:50:12.970609$GBGSV,2,1,05,14,49,195,45,24,77,011,47,25,37,257,44,26,30,060,43*69
###2023-12-09 12:50:12.972064$GBGSV,2,2,05,33,61,241,47,,,,,,,,,,,,*5D
###2023-12-09 12:50:12.973357$GNVTG,45.44,T,,M,1.21,N,2.23,K,A*13
###2023-12-09 12:50:12.975020$GNGST,175012.10,18.000,,,,0.075,0.068,0.160*54
###2023-12-09 12:50:12.976314$GNZDA,175012.10,09,12,2023,00,00*70
###2023-12-09 12:50:12.976955$GNEBP,,,,,,M*13
###2023-12-09 12:50:13.146403$GNGGA,175012.30,4138.0674355,N,07032.3932810,W,1,24,0.6,13.618,M,-29.744,M,0.0,*5D
###2023-12-09 12:50:13.348805$GNGGA,175012.50,4138.0675260,N,07032.3932226,W,1,24,0.6,13.623,M,-29.744,M,0.0,*5A
###2023-12-09 12:50:13.547699$GNGGA,175012.70,4138.0675962,N,07032.3931254,W,1,24,0.6,13.623,M,-29.744,M,0.0,*57
###2023-12-09 12:50:13.747882$GNGGA,175012.90,4138.0676393,N,07032.3929980,W,1,24,0.6,13.636,M,-29.744,M,0.0,*51
###2023-12-09 12:50:13.947732$GNRMC,175013.10,A,4138.0676894,N,07032.3928648,W,2.10,58.96,091223,,,A*68
###2023-12-09 12:50:13.950645$GNGGA,175013.10,4138.0676894,N,07032.3928648,W,1,24,0.6,13.647,M,-29.744,M,0.0,*58
###2023-12-09 12:50:13.952502$GPGSA,A,3,03,04,16,26,28,29,31,32,,,,,1.1,0.6,0.9*3B
###2023-12-09 12:50:13.954216$GLGSA,A,3,65,71,72,73,74,75,,,,,,,1.1,0.6,0.9*24
###2023-12-09 12:50:13.955809$GAGSA,A,3,04,19,21,27,,,,,,,,,1.1,0.6,0.9*26
###2023-12-09 12:50:13.957449$GBGSA,A,3,14,24,25,26,33,,,,,,,,1.1,0.6,0.9*2F
###2023-12-09 12:50:13.959785$GPGSV,2,1,08,03,37,268,45,04,28,311,40,16,44,210,46,26,74,208,48*76
###2023-12-09 12:50:13.962109$GPGSV,2,2,08,28,53,065,42,29,26,066,39,31,71,024,46,32,23,138,43*70
###2023-12-09 12:50:13.964440$GLGSV,2,1,06,65,18,329,39,71,48,171,48,72,71,291,46,73,41,038,45*69
###2023-12-09 12:50:13.966173$GLGSV,2,2,06,74,71,317,43,75,28,247,44,,,,,,,,*6D
###2023-12-09 12:50:13.968502$GAGSV,1,1,04,04,26,312,41,19,85,260,40,21,83,158,46,27,37,048,41*62
###2023-12-09 12:50:13.970830$GBGSV,2,1,05,14,49,195,47,24,77,011,48,25,37,257,47,26,30,060,43*67
###2023-12-09 12:50:13.972277$GBGSV,2,2,05,33,61,241,47,,,,,,,,,,,,*5D
###2023-12-09 12:50:13.973557$GNVTG,58.96,T,,M,2.10,N,3.89,K,A*10
###2023-12-09 12:50:13.975204$GNGST,175013.10,18.000,,,,0.076,0.068,0.160*56
###2023-12-09 12:50:13.976487$GNZDA,175013.10,09,12,2023,00,00*71
###2023-12-09 12:50:13.977119$GNEBP,,,,,,M*13
###2023-12-09 12:50:14.147304$GNGGA,175013.30,4138.0677645,N,07032.3927328,W,1,24,0.6,13.660,M,-29.744,M,0.0,*50
###2023-12-09 12:50:14.347041$GNGGA,175013.50,4138.0678378,N,07032.3925820,W,1,24,0.6,13.649,M,-29.744,M,0.0,*58
###2023-12-09 12:50:14.547059$GNGGA,175013.70,4138.0678722,N,07032.3924090,W,1,24,0.6,13.646,M,-29.744,M,0.0,*5C
###2023-12-09 12:50:14.751460$GNGGA,175013.90,4138.0678843,N,07032.3922268,W,1,24,0.6,13.641,M,-29.744,M,0.0,*5E
###2023-12-09 12:50:14.947593$GNRMC,175014.10,A,4138.0679022,N,07032.3920467,W,2.55,80.50,091223,,,A*6C
###2023-12-09 12:50:14.950477$GNGGA,175014.10,4138.0679022,N,07032.3920467,W,1,24,0.6,13.641,M,-29.744,M,0.0,*54
###2023-12-09 12:50:14.952361$GPGSA,A,3,03,04,16,26,28,29,31,32,,,,,1.1,0.6,0.9*3B
###2023-12-09 12:50:14.954082$GLGSA,A,3,65,71,72,73,74,75,,,,,,,1.1,0.6,0.9*24
###2023-12-09 12:50:14.955692$GAGSA,A,3,04,19,21,27,,,,,,,,,1.1,0.6,0.9*26
###2023-12-09 12:50:14.957348$GBGSA,A,3,14,24,25,26,33,,,,,,,,1.1,0.6,0.9*2F
###2023-12-09 12:50:14.959699$GPGSV,2,1,08,03,37,268,44,04,28,311,38,16,44,210,45,26,74,208,46*75
###2023-12-09 12:50:14.962049$GPGSV,2,2,08,28,53,065,42,29,26,066,38,31,71,024,45,32,23,138,39*7F
###2023-12-09 12:50:14.964391$GLGSV,2,1,06,65,18,329,42,71,48,171,46,72,71,291,46,73,41,038,45*6B
###2023-12-09 12:50:14.966136$GLGSV,2,2,06,74,71,317,42,75,28,247,44,,,,,,,,*6C
###2023-12-09 12:50:14.968487$GAGSV,1,1,04,04,26,312,40,19,85,260,39,21,83,158,45,27,37,048,42*6D
###2023-12-09 12:50:14.970856$GBGSV,2,1,05,14,49,195,46,24,77,011,48,25,37,257,46,26,30,060,42*66
###2023-12-09 12:50:14.972327$GBGSV,2,2,05,33,61,241,49,,,,,,,,,,,,*53
###2023-12-09 12:50:14.973626$GNVTG,80.50,T,,M,2.55,N,4.72,K,A*1D
###2023-12-09 12:50:14.975293$GNGST,175014.10,18.000,,,,0.077,0.069,0.160*51
###2023-12-09 12:50:14.976592$GNZDA,175014.10,09,12,2023,00,00*76
###2023-12-09 12:50:14.977233$GNEBP,,,,,,M*13
###2023-12-09 12:50:15.147015$GNGGA,175014.30,4138.0679290,N,07032.3918565,W,1,24,0.6,13.636,M,-29.744,M,0.0,*55
###2023-12-09 12:50:15.346841$GNGGA,175014.50,4138.0679364,N,07032.3916561,W,1,24,0.6,13.609,M,-29.744,M,0.0,*5F
###2023-12-09 12:50:15.547013$GNGGA,175014.70,4138.0679155,N,07032.3914684,W,1,24,0.6,13.602,M,-29.744,M,0.0,*5C
###2023-12-09 12:50:15.745865$GNGGA,175014.90,4138.0678797,N,07032.3912819,W,1,24,0.6,13.606,M,-29.744,M,0.0,*53
###2023-12-09 12:50:15.945917$GNRMC,175015.10,A,4138.0678432,N,07032.3910877,W,2.60,102.25,091223,,,A*58
###2023-12-09 12:50:15.948841$GNGGA,175015.10,4138.0678432,N,07032.3910877,W,1,24,0.6,13.597,M,-29.744,M,0.0,*57
###2023-12-09 12:50:15.950732$GPGSA,A,3,03,04,16,26,28,29,31,32,,,,,1.1,0.6,0.9*3B
###2023-12-09 12:50:15.952453$GLGSA,A,3,65,71,72,73,74,75,,,,,,,1.1,0.6,0.9*24
###2023-12-09 12:50:15.954029$GAGSA,A,3,04,19,21,27,,,,,,,,,1.1,0.6,0.9*26
###2023-12-09 12:50:15.955682$GBGSA,A,3,14,24,25,26,33,,,,,,,,1.1,0.6,0.9*2F
###2023-12-09 12:50:15.958002$GPGSV,2,1,08,03,37,268,43,04,28,311,42,16,44,210,46,26,74,208,47*7D
###2023-12-09 12:50:15.960342$GPGSV,2,2,08,28,53,065,44,29,26,066,42,31,71,024,46,32,23,138,39*77
###2023-12-09 12:50:15.962679$GLGSV,2,1,06,65,18,329,43,71,48,171,47,72,71,291,46,73,41,038,46*68
###2023-12-09 12:50:15.964421$GLGSV,2,2,06,74,71,317,43,75,28,247,41,,,,,,,,*68
###2023-12-09 12:50:15.966750$GAGSV,1,1,04,04,26,312,41,19,85,260,40,21,83,158,45,27,36,048,43*62
###2023-12-09 12:50:15.969079$GBGSV,2,1,05,14,49,195,44,24,77,011,48,25,37,257,45,26,30,060,44*61
###2023-12-09 12:50:15.970535$GBGSV,2,2,05,33,61,241,48,,,,,,,,,,,,*52
###2023-12-09 12:50:15.971868$GNVTG,102.25,T,,M,2.60,N,4.82,K,A*2D
###2023-12-09 12:50:15.973520$GNGST,175015.10,18.000,,,,0.078,0.070,0.160*57
###2023-12-09 12:50:15.974824$GNZDA,175015.10,09,12,2023,00,00*77
###2023-12-09 12:50:15.975464$GNEBP,,,,,,M*13
###2023-12-09 12:50:16.146840$GNGGA,175015.30,4138.0678151,N,07032.3909028,W,1,24,0.6,13.588,M,-29.744,M,0.0,*51
###2023-12-09 12:50:16.347964$GNGGA,175015.50,4138.0677585,N,07032.3907228,W,1,24,0.6,13.585,M,-29.744,M,0.0,*54
###2023-12-09 12:50:16.546976$GNGGA,175015.70,4138.0676835,N,07032.3905493,W,1,24,0.6,13.579,M,-29.744,M,0.0,*56
###2023-12-09 12:50:16.747106$GNGGA,175015.90,4138.0676041,N,07032.3903925,W,1,24,0.6,13.562,M,-29.744,M,0.0,*5F
###2023-12-09 12:50:16.948997$GNRMC,175016.10,A,4138.0675132,N,07032.3902408,W,2.66,131.57,091223,,,A*57
###2023-12-09 12:50:16.951887$GNGGA,175016.10,4138.0675132,N,07032.3902408,W,1,24,0.6,13.561,M,-29.744,M,0.0,*52
###2023-12-09 12:50:16.953758$GPGSA,A,3,03,04,16,26,28,29,31,32,,,,,1.1,0.6,0.9*3B
###2023-12-09 12:50:16.955500$GLGSA,A,3,65,71,72,73,74,75,,,,,,,1.1,0.6,0.9*24
###2023-12-09 12:50:16.957095$GAGSA,A,3,04,19,21,27,,,,,,,,,1.1,0.6,0.9*26
###2023-12-09 12:50:16.958766$GBGSA,A,3,14,24,25,26,33,,,,,,,,1.1,0.6,0.9*2F
###2023-12-09 12:50:16.961097$GPGSV,2,1,08,03,37,268,43,04,28,311,41,16,44,210,45,26,74,208,48*72
###2023-12-09 12:50:16.963452$GPGSV,2,2,08,28,53,065,44,29,26,066,43,31,71,024,46,32,23,138,39*76
###2023-12-09 12:50:16.965803$GLGSV,2,1,06,65,18,329,42,71,48,171,46,72,71,291,45,73,41,038,47*6A
###2023-12-09 12:50:16.967573$GLGSV,2,2,06,74,71,317,43,75,28,247,44,,,,,,,,*6D
###2023-12-09 12:50:16.969914$GAGSV,1,1,04,04,26,312,42,19,85,260,40,21,83,158,45,27,36,048,43*61
###2023-12-09 12:50:16.972269$GBGSV,2,1,05,14,49,195,43,24,77,011,48,25,37,257,46,26,30,060,45*64
###2023-12-09 12:50:16.973733$GBGSV,2,2,05,33,61,241,48,,,,,,,,,,,,*52
###2023-12-09 12:50:16.975072$GNVTG,131.57,T,,M,2.66,N,4.93,K,A*2E
###2023-12-09 12:50:16.976730$GNGST,175016.10,18.000,,,,0.079,0.070,0.160*55
###2023-12-09 12:50:16.978278$GNZDA,175016.10,09,12,2023,00,00*74
###2023-12-09 12:50:16.978945$GNEBP,,,,,,M*13
###2023-12-09 12:50:17.150301$GNGGA,175016.30,4138.0674205,N,07032.3900893,W,1,24,0.6,13.557,M,-29.744,M,0.0,*5F
###2023-12-09 12:50:17.349084$GNGGA,175016.50,4138.0673257,N,07032.3899585,W,1,24,0.6,13.544,M,-29.744,M,0.0,*50
###2023-12-09 12:50:17.549004$GNGGA,175016.70,4138.0672118,N,07032.3898495,W,1,24,0.6,13.553,M,-29.744,M,0.0,*5C
###2023-12-09 12:50:17.749436$GNGGA,175016.90,4138.0670934,N,07032.3897543,W,1,24,0.6,13.547,M,-29.744,M,0.0,*56
###2023-12-09 12:50:17.948665$GNRMC,175017.10,A,4138.0669765,N,07032.3896673,W,2.51,152.77,091223,,,A*5E
###2023-12-09 12:50:17.951555$GNGGA,175017.10,4138.0669765,N,07032.3896673,W,1,24,0.6,13.549,M,-29.744,M,0.0,*52
###2023-12-09 12:50:17.953419$GPGSA,A,3,03,04,16,26,28,29,31,32,,,,,1.1,0.6,0.9*3B
