###2023-12-09 13:07:49.999243$GBGSV,2,1,06,14,41,192,45,24,72,029,49,25,42,264,46,26,24,064,41*66
###2023-12-09 13:07:50.001002$GBGSV,2,2,06,33,56,229,48,35,15,067,41,,,,,,,,*6D
###2023-12-09 13:07:50.002293$GNVTG,89.52,T,,M,3.48,N,6.44,K,A*1C
###2023-12-09 13:07:50.003988$GNGST,180749.10,18.000,,,,0.082,0.066,0.150*52
###2023-12-09 13:07:50.005323$GNZDA,180749.10,09,12,2023,00,00*73
###2023-12-09 13:07:50.005970$GNEBP,,,,,,M*13
###2023-12-09 13:07:50.168880$GNGGA,180749.30,4138.0765586,N,07032.3440909,W,1,25,0.6,13.488,M,-29.743,M,0.0,*5B
###2023-12-09 13:07:50.369456$GNGGA,180749.50,4138.0766499,N,07032.3438575,W,1,25,0.6,13.556,M,-29.743,M,0.0,*5B
###2023-12-09 13:07:50.570457$GNGGA,180749.70,4138.0766983,N,07032.3435969,W,1,25,0.6,13.508,M,-29.743,M,0.0,*58
###2023-12-09 13:07:50.770505$GNGGA,180749.90,4138.0767178,N,07032.3433575,W,1,25,0.6,13.512,M,-29.743,M,0.0,*57
###2023-12-09 13:07:50.972206$GNRMC,180750.10,A,4138.0767685,N,07032.3431118,W,3.65,72.85,091223,,,A*63
###2023-12-09 13:07:50.975713$GNGGA,180750.10,4138.0767685,N,07032.3431118,W,1,25,0.6,13.566,M,-29.743,M,0.0,*5C
###2023-12-09 13:07:50.977966$GPGSA,A,3,03,04,16,26,28,29,31,32,,,,,1.1,0.6,0.9*3B
###2023-12-09 13:07:50.980060$GLGSA,A,3,65,71,72,73,74,75,,,,,,,1.1,0.6,0.9*24
###2023-12-09 13:07:50.981980$GAGSA,A,3,04,19,21,27,,,,,,,,,1.1,0.6,0.9*26
###2023-12-09 13:07:50.984091$GBGSA,A,3,14,24,25,26,33,35,,,,,,,1.1,0.6,0.9*29
###2023-12-09 13:07:50.986925$GPGSV,2,1,08,03,34,258,45,04,35,311,43,16,53,214,46,26,83,210,48*7A
###2023-12-09 13:07:50.989741$GPGSV,2,2,08,28,47,073,41,29,25,058,41,31,67,044,46,32,16,141,42*78
###2023-12-09 13:07:50.992594$GLGSV,2,1,06,65,26,326,41,71,37,173,47,72,72,258,47,73,33,043,44*6E
###2023-12-09 13:07:50.994788$GLGSV,2,2,06,74,68,345,42,75,34,256,47,,,,,,,,*6D
###2023-12-09 13:07:50.997607$GAGSV,1,1,04,04,31,312,40,19,83,203,40,21,85,092,45,27,31,048,41*62
###2023-12-09 13:07:51.000451$GBGSV,2,1,06,14,41,192,46,24,72,029,48,25,42,264,45,26,24,064,41*67
###2023-12-09 13:07:51.002580$GBGSV,2,2,06,33,56,229,48,35,15,067,39,,,,,,,,*62
###2023-12-09 13:07:51.004149$GNVTG,72.85,T,,M,3.65,N,6.77,K,A*1D
###2023-12-09 13:07:51.006143$GNGST,180750.10,18.000,,,,0.082,0.066,0.150*5A
###2023-12-09 13:07:51.007720$GNZDA,180750.10,09,12,2023,00,00*7B
###2023-12-09 13:07:51.008487$GNEBP,,,,,,M*13
###2023-12-09 13:07:51.171581$GNGGA,180750.30,4138.0768197,N,07032.3428574,W,1,25,0.6,13.542,M,-29.743,M,0.0,*55
###2023-12-09 13:07:51.370038$GNGGA,180750.50,4138.0768637,N,07032.3426145,W,1,25,0.6,13.530,M,-29.743,M,0.0,*53
###2023-12-09 13:07:51.570412$GNGGA,180750.70,4138.0768971,N,07032.3423573,W,1,25,0.6,13.566,M,-29.743,M,0.0,*5B
###2023-12-09 13:07:51.770465$GNGGA,180750.90,4138.0769268,N,07032.3420987,W,1,25,0.6,13.558,M,-29.743,M,0.0,*5E
###2023-12-09 13:07:51.973009$GNRMC,180751.10,A,4138.0769641,N,07032.3418454,W,3.54,77.34,091223,,,A*6F
###2023-12-09 13:07:51.976509$GNGGA,180751.10,4138.0769641,N,07032.3418454,W,1,25,0.6,13.560,M,-29.743,M,0.0,*5B
###2023-12-09 13:07:51.978770$GPGSA,A,3,03,04,16,26,28,29,31,32,,,,,1.1,0.6,0.9*3B
###2023-12-09 13:07:51.980851$GLGSA,A,3,65,71,72,73,74,75,,,,,,,1.1,0.6,0.9*24
###2023-12-09 13:07:51.982771$GAGSA,A,3,04,19,21,27,,,,,,,,,1.1,0.6,0.9*26
###2023-12-09 13:07:51.984832$GBGSA,A,3,14,24,25,26,33,35,,,,,,,1.1,0.6,0.9*29
###2023-12-09 13:07:51.987666$GPGSV,2,1,08,03,34,258,45,04,35,311,43,16,53,214,46,26,83,210,48*7A
###2023-12-09 13:07:51.990478$GPGSV,2,2,08,28,47,073,43,29,25,058,39,31,67,044,46,32,16,141,43*74
###2023-12-09 13:07:51.993322$GLGSV,2,1,06,65,26,326,41,71,37,173,46,72,72,258,46,73,33,043,44*6E
###2023-12-09 13:07:51.995434$GLGSV,2,2,06,74,68,345,42,75,34,256,48,,,,,,,,*62
###2023-12-09 13:07:51.998245$GAGSV,1,1,04,04,31,312,42,19,83,203,40,21,85,092,46,27,31,048,41*63
###2023-12-09 13:07:52.001081$GBGSV,2,1,06,14,41,192,46,24,72,029,48,25,42,264,45,26,24,064,40*66
###2023-12-09 13:07:52.003204$GBGSV,2,2,06,33,56,229,46,35,15,067,40,,,,,,,,*62
###2023-12-09 13:07:52.004754$GNVTG,77.34,T,,M,3.54,N,6.55,K,A*10
###2023-12-09 13:07:52.006788$GNGST,180751.10,18.000,,,,0.082,0.066,0.150*5B
###2023-12-09 13:07:52.008385$GNZDA,180751.10,09,12,2023,00,00*7A
###2023-12-09 13:07:52.009164$GNEBP,,,,,,M*13
###2023-12-09 13:07:52.168903$GNGGA,180751.30,4138.0770066,N,07032.3415907,W,1,25,0.6,13.568,M,-29.743,M,0.0,*5C
###2023-12-09 13:07:52.369565$GNGGA,180751.50,4138.0770357,N,07032.3413335,W,1,25,0.6,13.580,M,-29.743,M,0.0,*50
###2023-12-09 13:07:52.570066$GNGGA,180751.70,4138.0770511,N,07032.3410648,W,1,25,0.6,13.577,M,-29.743,M,0.0,*52
###2023-12-09 13:07:52.768945$GNGGA,180751.90,4138.0770805,N,07032.3408016,W,1,25,0.6,13.560,M,-29.743,M,0.0,*56
###2023-12-09 13:07:52.972410$GNRMC,180752.10,A,4138.0771355,N,07032.3405500,W,3.50,71.90,091223,,,A*65
###2023-12-09 13:07:52.975285$GNGGA,180752.10,4138.0771355,N,07032.3405500,W,1,25,0.6,13.569,M,-29.743,M,0.0,*54
###2023-12-09 13:07:52.977134$GPGSA,A,3,03,04,16,26,28,29,31,32,,,,,1.1,0.6,0.9*3B
###2023-12-09 13:07:52.978862$GLGSA,A,3,65,71,72,73,74,75,,,,,,,1.1,0.6,0.9*24
###2023-12-09 13:07:52.980452$GAGSA,A,3,04,19,21,27,,,,,,,,,1.1,0.6,0.9*26
###2023-12-09 13:07:52.982160$GBGSA,A,3,14,24,25,26,33,35,,,,,,,1.1,0.6,0.9*29
###2023-12-09 13:07:52.984502$GPGSV,2,1,08,03,34,258,47,04,35,311,45,16,53,214,47,26,83,210,49*7E
###2023-12-09 13:07:52.986839$GPGSV,2,2,08,28,47,073,43,29,25,058,41,31,67,044,48,32,16,141,42*74
###2023-12-09 13:07:52.989165$GLGSV,2,1,06,65,26,326,42,71,37,173,46,72,72,258,46,73,33,043,45*6C
###2023-12-09 13:07:52.990916$GLGSV,2,2,06,74,68,345,42,75,34,256,47,,,,,,,,*6D
###2023-12-09 13:07:52.993234$GAGSV,1,1,04,04,31,312,42,19,83,203,41,21,85,092,47,27,31,048,42*60
###2023-12-09 13:07:52.995567$GBGSV,2,1,06,14,41,192,45,24,72,029,48,25,42,264,46,26,24,064,42*64
###2023-12-09 13:07:52.997307$GBGSV,2,2,06,33,56,229,47,35,15,067,42,,,,,,,,*61
###2023-12-09 13:07:52.998604$GNVTG,71.90,T,,M,3.50,N,6.48,K,A*10
###2023-12-09 13:07:53.000243$GNGST,180752.10,18.000,,,,0.081,0.065,0.150*58
###2023-12-09 13:07:53.001536$GNZDA,180752.10,09,12,2023,00,00*79
###2023-12-09 13:07:53.002171$GNEBP,,,,,,M*13
###2023-12-09 13:07:53.168865$GNGGA,180752.30,4138.0771809,N,07032.3402898,W,1,25,0.6,13.593,M,-29.743,M,0.0,*5A
###2023-12-09 13:07:53.374838$GNGGA,180752.50,4138.0772004,N,07032.3400055,W,1,25,0.6,13.584,M,-29.743,M,0.0,*57
###2023-12-09 13:07:53.569896$GNGGA,180752.70,4138.0772233,N,07032.3397361,W,1,25,0.6,13.550,M,-29.743,M,0.0,*57
###2023-12-09 13:07:53.770775$GNGGA,180752.90,4138.0772931,N,07032.3394866,W,1,25,0.6,13.587,M,-29.743,M,0.0,*55
###2023-12-09 13:07:53.971004$GNRMC,180753.10,A,4138.0773590,N,07032.3392250,W,3.67,76.25,091223,,,A*6F
###2023-12-09 13:07:53.973873$GNGGA,180753.10,4138.0773590,N,07032.3392250,W,1,25,0.6,13.600,M,-29.743,M,0.0,*5F
###2023-12-09 13:07:53.975749$GPGSA,A,3,03,04,16,26,28,29,31,32,,,,,1.1,0.6,0.9*3B
###2023-12-09 13:07:53.977467$GLGSA,A,3,65,71,72,73,74,75,,,,,,,1.1,0.6,0.9*24
###2023-12-09 13:07:53.979061$GAGSA,A,3,04,19,21,27,,,,,,,,,1.1,0.6,0.9*26
###2023-12-09 13:07:53.980771$GBGSA,A,3,14,24,25,26,33,35,,,,,,,1.1,0.6,0.9*29
###2023-12-09 13:07:53.983108$GPGSV,2,1,08,03,34,258,46,04,35,311,45,16,53,214,47,26,83,210,49*7F
###2023-12-09 13:07:53.985436$GPGSV,2,2,08,28,47,073,43,29,25,058,42,31,67,044,47,32,16,141,40*7A
###2023-12-09 13:07:53.987772$GLGSV,2,1,06,65,26,326,43,71,37,173,46,72,72,258,46,73,33,043,44*6C
###2023-12-09 13:07:53.989518$GLGSV,2,2,06,74,68,345,43,75,34,256,47,,,,,,,,*6C
###2023-12-09 13:07:53.991851$GAGSV,1,1,04,04,31,312,42,19,83,203,41,21,85,092,46,27,31,048,41*62
###2023-12-09 13:07:53.994175$GBGSV,2,1,06,14,41,192,44,24,72,029,48,25,42,264,45,26,24,064,43*67
###2023-12-09 13:07:53.995933$GBGSV,2,2,06,33,56,229,48,35,15,067,41,,,,,,,,*6D
###2023-12-09 13:07:53.997222$GNVTG,76.25,T,,M,3.67,N,6.80,K,A*19
###2023-12-09 13:07:53.998885$GNGST,180753.10,18.000,,,,0.081,0.065,0.150*59
###2023-12-09 13:07:54.000183$GNZDA,180753.10,09,12,2023,00,00*78
###2023-12-09 13:07:54.000822$GNEBP,,,,,,M*13
###2023-12-09 13:07:54.168827$GNGGA,180753.30,4138.0773891,N,07032.3389512,W,1,25,0.6,13.573,M,-29.743,M,0.0,*5D
###2023-12-09 13:07:54.372574$GNGGA,180753.50,4138.0774139,N,07032.3386793,W,1,25,0.6,13.553,M,-29.743,M,0.0,*51
###2023-12-09 13:07:54.569777$GNGGA,180753.70,4138.0774834,N,07032.3384315,W,1,25,0.6,13.572,M,-29.743,M,0.0,*5C
###2023-12-09 13:07:54.770170$GNGGA,180753.90,4138.0775592,N,07032.3381740,W,1,25,0.6,13.576,M,-29.743,M,0.0,*57
###2023-12-09 13:07:54.972112$GNRMC,180754.10,A,4138.0775976,N,07032.3379112,W,3.56,80.18,091223,,,A*6F
###2023-12-09 13:07:54.974971$GNGGA,180754.10,4138.0775976,N,07032.3379112,W,1,25,0.6,13.573,M,-29.743,M,0.0,*5D
###2023-12-09 13:07:54.976822$GPGSA,A,3,03,04,16,26,28,29,31,32,,,,,1.1,0.6,0.9*3B
###2023-12-09 13:07:54.978534$GLGSA,A,3,65,71,72,73,74,75,,,,,,,1.1,0.6,0.9*24
###2023-12-09 13:07:54.980136$GAGSA,A,3,04,19,21,27,,,,,,,,,1.1,0.6,0.9*26
###2023-12-09 13:07:54.981847$GBGSA,A,3,14,24,25,26,33,35,,,,,,,1.1,0.6,0.9*29
