###2023-12-09 13:23:52.008831$GLGSV,2,2,06,74,63,004,41,75,40,265,48,,,,,,,,*6F
###2023-12-09 13:23:52.011216$GAGSV,1,1,04,04,36,311,43,19,77,186,40,21,81,054,45,27,26,049,39*66
###2023-12-09 13:23:52.013566$GBGSV,2,1,06,14,34,191,43,24,66,040,48,25,47,271,48,26,19,068,42*64
###2023-12-09 13:23:52.015341$GBGSV,2,2,06,33,50,221,47,35,16,061,42,,,,,,,,*6A
###2023-12-09 13:23:52.016669$GNVTG,348.35,T,,M,3.40,N,6.30,K,A*28
###2023-12-09 13:23:52.018313$GNGST,182351.10,18.000,,,,0.100,0.071,0.170*52
###2023-12-09 13:23:52.019626$GNZDA,182351.10,09,12,2023,00,00*7C
###2023-12-09 13:23:52.020270$GNEBP,,,,,,M*13
###2023-12-09 13:23:52.186643$GNGGA,182351.30,4138.0531141,N,07032.3774755,W,1,24,0.7,12.717,M,-29.744,M,0.0,*58
###2023-12-09 13:23:52.387312$GNGGA,182351.50,4138.0533064,N,07032.3774902,W,1,24,0.7,12.717,M,-29.744,M,0.0,*56
###2023-12-09 13:23:52.585894$GNGGA,182351.70,4138.0535022,N,07032.3775053,W,1,24,0.7,12.713,M,-29.744,M,0.0,*58
###2023-12-09 13:23:52.787345$GNGGA,182351.90,4138.0537004,N,07032.3775141,W,1,24,0.7,12.707,M,-29.744,M,0.0,*57
###2023-12-09 13:23:52.990822$GNRMC,182352.10,A,4138.0539014,N,07032.3775210,W,3.62,359.78,091223,,,A*57
###2023-12-09 13:23:52.993686$GNGGA,182352.10,4138.0539014,N,07032.3775210,W,1,24,0.7,12.711,M,-29.744,M,0.0,*53
###2023-12-09 13:23:52.995483$GPGSA,A,3,03,04,16,26,28,29,31,,,,,,1.1,0.7,0.9*3B
###2023-12-09 13:23:52.997198$GLGSA,A,3,65,71,72,73,74,75,,,,,,,1.1,0.7,0.9*25
###2023-12-09 13:23:52.998792$GAGSA,A,3,04,19,21,27,,,,,,,,,1.1,0.7,0.9*27
###2023-12-09 13:23:53.000499$GBGSA,A,3,14,24,25,26,33,35,,,,,,,1.1,0.7,0.9*28
###2023-12-09 13:23:53.002832$GPGSV,2,1,07,03,30,251,41,04,42,310,46,16,61,218,46,26,89,050,48*79
###2023-12-09 13:23:53.004869$GPGSV,2,2,07,28,41,080,43,29,22,051,39,31,63,058,46,,,,*43
###2023-12-09 13:23:53.007203$GLGSV,2,1,06,65,34,323,43,71,29,175,43,72,68,232,46,73,27,049,39*64
###2023-12-09 13:23:53.008944$GLGSV,2,2,06,74,63,004,41,75,40,265,48,,,,,,,,*6F
###2023-12-09 13:23:53.011279$GAGSV,1,1,04,04,36,311,43,19,77,186,40,21,81,054,45,27,26,049,38*67
###2023-12-09 13:23:53.013608$GBGSV,2,1,06,14,34,191,43,24,66,040,47,25,47,271,47,26,19,068,41*67
###2023-12-09 13:23:53.015363$GBGSV,2,2,06,33,50,221,46,35,16,061,40,,,,,,,,*69
###2023-12-09 13:23:53.016689$GNVTG,359.78,T,,M,3.62,N,6.70,K,A*25
###2023-12-09 13:23:53.018337$GNGST,182352.10,18.000,,,,0.100,0.070,0.170*50
###2023-12-09 13:23:53.019633$GNZDA,182352.10,09,12,2023,00,00*7F
###2023-12-09 13:23:53.020270$GNEBP,,,,,,M*13
###2023-12-09 13:23:53.187006$GNGGA,182352.30,4138.0541062,N,07032.3775004,W,1,24,0.7,12.712,M,-29.744,M,0.0,*5B
###2023-12-09 13:23:53.386163$GNGGA,182352.50,4138.0543087,N,07032.3774415,W,1,24,0.7,12.691,M,-29.744,M,0.0,*5B
###2023-12-09 13:23:53.586756$GNGGA,182352.70,4138.0545095,N,07032.3773744,W,1,24,0.7,12.672,M,-29.744,M,0.0,*51
###2023-12-09 13:23:53.787224$GNGGA,182352.90,4138.0547178,N,07032.3773324,W,1,24,0.7,12.678,M,-29.744,M,0.0,*57
###2023-12-09 13:23:53.990071$GNRMC,182353.10,A,4138.0549317,N,07032.3772958,W,3.97,9.15,091223,,,A*56
###2023-12-09 13:23:53.992957$GNGGA,182353.10,4138.0549317,N,07032.3772958,W,1,24,0.7,12.693,M,-29.744,M,0.0,*5E
###2023-12-09 13:23:53.994759$GPGSA,A,3,03,04,16,26,28,29,31,,,,,,1.1,0.7,0.9*3B
###2023-12-09 13:23:53.996470$GLGSA,A,3,65,71,72,73,74,75,,,,,,,1.1,0.7,0.9*25
###2023-12-09 13:23:53.998043$GAGSA,A,3,04,19,21,27,,,,,,,,,1.1,0.7,0.9*27
###2023-12-09 13:23:53.999761$GBGSA,A,3,14,24,25,26,33,35,,,,,,,1.1,0.7,0.9*28
###2023-12-09 13:23:54.002080$GPGSV,2,1,07,03,30,251,42,04,42,310,45,16,61,218,46,26,89,050,47*76
###2023-12-09 13:23:54.004126$GPGSV,2,2,07,28,41,080,42,29,22,051,41,31,63,058,45,,,,*4E
###2023-12-09 13:23:54.006450$GLGSV,2,1,06,65,34,323,43,71,29,175,39,72,68,232,47,73,27,049,41*67
###2023-12-09 13:23:54.008202$GLGSV,2,2,06,74,63,004,41,75,40,265,49,,,,,,,,*6E
###2023-12-09 13:23:54.010516$GAGSV,1,1,04,04,36,311,43,19,77,186,40,21,81,054,45,27,26,049,40*68
###2023-12-09 13:23:54.012850$GBGSV,2,1,06,14,34,191,40,24,66,040,47,25,47,271,47,26,19,068,40*65
###2023-12-09 13:23:54.014602$GBGSV,2,2,06,33,50,221,47,35,16,061,40,,,,,,,,*68
###2023-12-09 13:23:54.015855$GNVTG,9.15,T,,M,3.97,N,7.34,K,A*23
###2023-12-09 13:23:54.017496$GNGST,182353.10,18.000,,,,0.100,0.070,0.170*51
###2023-12-09 13:23:54.018793$GNZDA,182353.10,09,12,2023,00,00*7E
###2023-12-09 13:23:54.019429$GNEBP,,,,,,M*13
###2023-12-09 13:23:54.189101$GNGGA,182353.30,4138.0551420,N,07032.3772280,W,1,24,0.7,12.713,M,-29.744,M,0.0,*51
###2023-12-09 13:23:54.385133$GNGGA,182353.50,4138.0553478,N,07032.3771270,W,1,24,0.7,12.711,M,-29.744,M,0.0,*56
###2023-12-09 13:23:54.585720$GNGGA,182353.70,4138.0555476,N,07032.3770360,W,1,24,0.7,12.700,M,-29.744,M,0.0,*5D
###2023-12-09 13:23:54.787032$GNGGA,182353.90,4138.0557514,N,07032.3769835,W,1,24,0.7,12.687,M,-29.744,M,0.0,*59
###2023-12-09 13:23:54.991258$GNRMC,182354.10,A,4138.0559486,N,07032.3769160,W,3.65,16.36,091223,,,A*64
###2023-12-09 13:23:54.994105$GNGGA,182354.10,4138.0559486,N,07032.3769160,W,1,24,0.7,12.668,M,-29.744,M,0.0,*5A
###2023-12-09 13:23:54.995907$GPGSA,A,3,03,04,16,26,28,29,31,,,,,,1.1,0.7,0.9*3B
###2023-12-09 13:23:54.997619$GLGSA,A,3,65,71,72,73,74,75,,,,,,,1.1,0.7,0.9*25
###2023-12-09 13:23:54.999212$GAGSA,A,3,04,19,21,27,,,,,,,,,1.1,0.7,0.9*27
###2023-12-09 13:23:55.000923$GBGSA,A,3,14,24,25,26,33,35,,,,,,,1.1,0.7,0.9*28
###2023-12-09 13:23:55.003266$GPGSV,2,1,07,03,30,251,43,04,42,310,43,16,61,218,47,26,89,050,48*7F
###2023-12-09 13:23:55.005308$GPGSV,2,2,07,28,41,080,44,29,22,051,39,31,63,058,46,,,,*44
###2023-12-09 13:23:55.007653$GLGSV,2,1,06,65,34,323,42,71,29,175,42,72,68,232,47,73,27,049,40*6B
###2023-12-09 13:23:55.009400$GLGSV,2,2,06,74,63,004,41,75,40,265,47,,,,,,,,*60
###2023-12-09 13:23:55.011735$GAGSV,1,1,04,04,36,311,42,19,76,185,41,21,81,054,45,27,26,049,38*65
###2023-12-09 13:23:55.014060$GBGSV,2,1,06,14,34,191,46,24,66,040,48,25,47,271,48,26,19,068,43*60
###2023-12-09 13:23:55.015815$GBGSV,2,2,06,33,50,221,48,35,16,061,41,,,,,,,,*66
###2023-12-09 13:23:55.017104$GNVTG,16.36,T,,M,3.65,N,6.77,K,A*17
###2023-12-09 13:23:55.018763$GNGST,182354.10,18.000,,,,0.100,0.071,0.170*57
###2023-12-09 13:23:55.020056$GNZDA,182354.10,09,12,2023,00,00*79
###2023-12-09 13:23:55.020694$GNEBP,,,,,,M*13
###2023-12-09 13:23:55.189280$GNGGA,182354.30,4138.0561372,N,07032.3768254,W,1,24,0.7,12.676,M,-29.744,M,0.0,*55
###2023-12-09 13:23:55.388056$GNGGA,182354.50,4138.0563234,N,07032.3767385,W,1,24,0.7,12.707,M,-29.744,M,0.0,*57
###2023-12-09 13:23:55.587706$GNGGA,182354.70,4138.0565164,N,07032.3766910,W,1,24,0.7,12.720,M,-29.744,M,0.0,*57
###2023-12-09 13:23:55.788182$GNGGA,182354.90,4138.0567121,N,07032.3766553,W,1,24,0.7,12.710,M,-29.744,M,0.0,*52
###2023-12-09 13:23:55.992529$GNRMC,182355.10,A,4138.0569049,N,07032.3766118,W,3.56,8.88,091223,,,A*5B
###2023-12-09 13:23:55.995401$GNGGA,182355.10,4138.0569049,N,07032.3766118,W,1,24,0.7,12.698,M,-29.744,M,0.0,*50
###2023-12-09 13:23:55.997198$GPGSA,A,3,03,04,16,26,28,29,31,,,,,,1.1,0.7,0.9*3B
###2023-12-09 13:23:55.998924$GLGSA,A,3,65,71,72,73,74,75,,,,,,,1.1,0.7,0.9*25
###2023-12-09 13:23:56.000507$GAGSA,A,3,04,19,21,27,,,,,,,,,1.1,0.7,0.9*27
###2023-12-09 13:23:56.002219$GBGSA,A,3,14,24,25,26,33,35,,,,,,,1.1,0.7,0.9*28
###2023-12-09 13:23:56.004555$GPGSV,2,1,07,03,30,251,42,04,42,310,45,16,61,218,46,26,89,050,47*76
###2023-12-09 13:23:56.006596$GPGSV,2,2,07,28,41,080,43,29,22,051,39,31,63,058,46,,,,*43
###2023-12-09 13:23:56.008918$GLGSV,2,1,06,65,34,323,42,71,29,175,43,72,68,232,46,73,27,049,39*65
###2023-12-09 13:23:56.010677$GLGSV,2,2,06,74,63,004,41,75,40,265,46,,,,,,,,*61
###2023-12-09 13:23:56.012997$GAGSV,1,1,04,04,36,311,43,19,76,185,41,21,81,054,45,27,26,049,38*64
###2023-12-09 13:23:56.015333$GBGSV,2,1,06,14,34,191,44,24,66,040,48,25,47,271,48,26,19,068,42*63
###2023-12-09 13:23:56.017078$GBGSV,2,2,06,33,50,221,47,35,16,061,42,,,,,,,,*6A
###2023-12-09 13:23:56.018331$GNVTG,8.88,T,,M,3.56,N,6.59,K,A*21
###2023-12-09 13:23:56.019982$GNGST,182355.10,18.000,,,,0.100,0.071,0.170*56
###2023-12-09 13:23:56.021266$GNZDA,182355.10,09,12,2023,00,00*78
###2023-12-09 13:23:56.021909$GNEBP,,,,,,M*13
###2023-12-09 13:23:56.186413$GNGGA,182355.30,4138.0570989,N,07032.3765612,W,1,24,0.7,12.708,M,-29.744,M,0.0,*59
###2023-12-09 13:23:56.386233$GNGGA,182355.50,4138.0572948,N,07032.3765109,W,1,24,0.7,12.712,M,-29.744,M,0.0,*56
###2023-12-09 13:23:56.588725$GNGGA,182355.70,4138.0574914,N,07032.3764706,W,1,24,0.7,12.718,M,-29.744,M,0.0,*59
###2023-12-09 13:23:56.787563$GNGGA,182355.90,4138.0576873,N,07032.3764506,W,1,24,0.7,12.730,M,-29.744,M,0.0,*5D
###2023-12-09 13:23:56.997923$GNRMC,182356.10,A,4138.0578893,N,07032.3764285,W,3.69,5.66,091223,,,A*53
###2023-12-09 13:23:57.000791$GNGGA,182356.10,4138.0578893,N,07032.3764285,W,1,24,0.7,12.743,M,-29.744,M,0.0,*5E
###2023-12-09 13:23:57.002593$GPGSA,A,3,03,04,16,26,28,29,31,,,,,,1.1,0.7,0.9*3B
###2023-12-09 13:23:57.004307$GLGSA,A,3,65,71,72,73,74,75,,,,,,,1.1,0.7,0.9*25
