###2023-12-09 13:47:02.028223$GLGSV,2,2,06,75,47,280,46,83,16,041,36,,,,,,,,*66
###2023-12-09 13:47:02.030288$GAGSV,1,1,03,04,43,308,46,21,72,043,41,27,19,051,43,,,,*5B
###2023-12-09 13:47:02.032654$GBGSV,1,1,04,12,19,122,41,24,58,052,46,25,54,282,42,35,16,051,39*69
###2023-12-09 13:47:02.033988$GNVTG,243.17,T,,M,0.04,N,0.07,K,A*23
###2023-12-09 13:47:02.035621$GNGST,184701.10,7.900,,,,0.200,0.120,0.320*63
###2023-12-09 13:47:02.036919$GNZDA,184701.10,09,12,2023,00,00*7B
###2023-12-09 13:47:02.037558$GNEBP,,,,,,M*13
###2023-12-09 13:47:02.205424$GNGGA,184701.30,4138.0395777,N,07032.4385087,W,1,19,0.8,15.519,M,-29.746,M,0.0,*59
###2023-12-09 13:47:02.405284$GNGGA,184701.50,4138.0395793,N,07032.4385075,W,1,19,0.8,15.521,M,-29.746,M,0.0,*53
###2023-12-09 13:47:02.604730$GNGGA,184701.70,4138.0395807,N,07032.4385060,W,1,19,0.8,15.519,M,-29.746,M,0.0,*5C
###2023-12-09 13:47:02.804975$GNGGA,184701.90,4138.0395825,N,07032.4385043,W,1,19,0.8,15.519,M,-29.746,M,0.0,*53
###2023-12-09 13:47:03.008068$GNRMC,184702.10,A,4138.0395838,N,07032.4385040,W,0.06,243.17,091223,,,A*5F
###2023-12-09 13:47:03.010934$GNGGA,184702.10,4138.0395838,N,07032.4385040,W,1,19,0.8,15.518,M,-29.746,M,0.0,*56
###2023-12-09 13:47:03.012661$GPGSA,A,3,04,16,26,28,29,31,,,,,,,1.3,0.8,1.1*3C
###2023-12-09 13:47:03.014376$GLGSA,A,3,65,72,73,74,75,83,,,,,,,1.3,0.8,1.1*2C
###2023-12-09 13:47:03.015900$GAGSA,A,3,04,21,27,,,,,,,,,,1.3,0.8,1.1*2B
###2023-12-09 13:47:03.017485$GBGSA,A,3,12,24,25,35,,,,,,,,,1.3,0.8,1.1*2E
###2023-12-09 13:47:03.019820$GPGSV,2,1,06,04,51,304,47,16,72,228,41,26,78,041,41,28,34,089,45*71
###2023-12-09 13:47:03.021577$GPGSV,2,2,06,29,18,043,42,31,56,073,50,,,,,,,,*7C
###2023-12-09 13:47:03.023923$GLGSV,2,1,06,65,43,312,44,72,56,213,39,73,17,056,40,74,55,024,36*6D
###2023-12-09 13:47:03.025675$GLGSV,2,2,06,75,47,280,46,83,16,041,36,,,,,,,,*66
###2023-12-09 13:47:03.027714$GAGSV,1,1,03,04,43,308,46,21,72,043,40,27,19,051,43,,,,*5A
###2023-12-09 13:47:03.030044$GBGSV,1,1,04,12,19,122,42,24,58,052,47,25,54,282,43,35,16,051,39*6A
###2023-12-09 13:47:03.031380$GNVTG,243.17,T,,M,0.06,N,0.11,K,A*26
###2023-12-09 13:47:03.032993$GNGST,184702.10,7.800,,,,0.200,0.120,0.320*61
###2023-12-09 13:47:03.034280$GNZDA,184702.10,09,12,2023,00,00*78
###2023-12-09 13:47:03.034940$GNEBP,,,,,,M*13
###2023-12-09 13:47:03.212490$GNGGA,184702.30,4138.0395850,N,07032.4385032,W,1,19,0.8,15.519,M,-29.746,M,0.0,*5E
###2023-12-09 13:47:03.406149$GNGGA,184702.50,4138.0395861,N,07032.4385027,W,1,19,0.8,15.522,M,-29.746,M,0.0,*56
###2023-12-09 13:47:03.604471$GNGGA,184702.70,4138.0395862,N,07032.4385011,W,1,19,0.8,15.519,M,-29.746,M,0.0,*5A
###2023-12-09 13:47:03.807353$GNGGA,184702.90,4138.0395871,N,07032.4385004,W,1,19,0.8,15.520,M,-29.746,M,0.0,*58
###2023-12-09 13:47:04.008882$GNRMC,184703.10,A,4138.0395884,N,07032.4384999,W,0.02,243.17,091223,,,A*51
###2023-12-09 13:47:04.011768$GNGGA,184703.10,4138.0395884,N,07032.4384999,W,1,19,0.8,15.516,M,-29.746,M,0.0,*52
###2023-12-09 13:47:04.013494$GPGSA,A,3,04,16,26,28,29,31,,,,,,,1.3,0.8,1.1*3C
###2023-12-09 13:47:04.015220$GLGSA,A,3,65,72,73,74,75,83,,,,,,,1.3,0.8,1.1*2C
###2023-12-09 13:47:04.016745$GAGSA,A,3,04,21,27,,,,,,,,,,1.3,0.8,1.1*2B
###2023-12-09 13:47:04.018328$GBGSA,A,3,12,24,25,35,,,,,,,,,1.3,0.8,1.1*2E
###2023-12-09 13:47:04.020662$GPGSV,2,1,06,04,51,304,47,16,72,228,41,26,78,041,41,28,34,089,46*72
###2023-12-09 13:47:04.022415$GPGSV,2,2,06,29,18,043,42,31,56,073,50,,,,,,,,*7C
###2023-12-09 13:47:04.024747$GLGSV,2,1,06,65,43,312,44,72,56,213,39,73,17,056,39,74,55,024,36*63
###2023-12-09 13:47:04.026491$GLGSV,2,2,06,75,47,280,46,83,16,041,36,,,,,,,,*66
###2023-12-09 13:47:04.028551$GAGSV,1,1,03,04,43,308,46,21,72,043,41,27,19,051,43,,,,*5B
###2023-12-09 13:47:04.030892$GBGSV,1,1,04,12,19,122,42,24,58,052,47,25,54,282,43,35,16,051,39*6A
###2023-12-09 13:47:04.032211$GNVTG,243.17,T,,M,0.02,N,0.04,K,A*26
###2023-12-09 13:47:04.033822$GNGST,184703.10,7.700,,,,0.200,0.120,0.320*6F
###2023-12-09 13:47:04.035124$GNZDA,184703.10,09,12,2023,00,00*79
###2023-12-09 13:47:04.035767$GNEBP,,,,,,M*13
###2023-12-09 13:47:04.206505$GNGGA,184703.30,4138.0395915,N,07032.4384989,W,1,19,0.8,15.517,M,-29.746,M,0.0,*59
###2023-12-09 13:47:04.406514$GNGGA,184703.50,4138.0395930,N,07032.4384984,W,1,19,0.8,15.519,M,-29.746,M,0.0,*5B
###2023-12-09 13:47:04.605405$GNGGA,184703.70,4138.0395952,N,07032.4384988,W,1,19,0.8,15.520,M,-29.746,M,0.0,*5B
###2023-12-09 13:47:04.805645$GNGGA,184703.90,4138.0395961,N,07032.4384993,W,1,19,0.8,15.521,M,-29.746,M,0.0,*5E
###2023-12-09 13:47:05.008061$GNRMC,184704.10,A,4138.0395954,N,07032.4384983,W,0.04,243.17,091223,,,A*57
###2023-12-09 13:47:05.010944$GNGGA,184704.10,4138.0395954,N,07032.4384983,W,1,19,0.8,15.520,M,-29.746,M,0.0,*57
###2023-12-09 13:47:05.012673$GPGSA,A,3,04,16,26,28,29,31,,,,,,,1.3,0.8,1.1*3C
###2023-12-09 13:47:05.014378$GLGSA,A,3,65,72,73,74,75,83,,,,,,,1.3,0.8,1.1*2C
###2023-12-09 13:47:05.015906$GAGSA,A,3,04,21,27,,,,,,,,,,1.3,0.8,1.1*2B
###2023-12-09 13:47:05.017482$GBGSA,A,3,12,24,25,35,,,,,,,,,1.3,0.8,1.1*2E
###2023-12-09 13:47:05.019810$GPGSV,2,1,06,04,51,304,47,16,72,228,41,26,78,041,41,28,34,089,45*71
###2023-12-09 13:47:05.021551$GPGSV,2,2,06,29,18,043,42,31,56,073,50,,,,,,,,*7C
###2023-12-09 13:47:05.023881$GLGSV,2,1,06,65,43,312,44,72,56,213,39,73,17,056,40,74,55,024,36*6D
###2023-12-09 13:47:05.025619$GLGSV,2,2,06,75,47,280,46,83,16,041,36,,,,,,,,*66
###2023-12-09 13:47:05.027658$GAGSV,1,1,03,04,43,308,46,21,72,043,40,27,19,051,43,,,,*5A
###2023-12-09 13:47:05.029975$GBGSV,1,1,04,12,19,122,42,24,58,052,47,25,54,282,43,35,16,051,38*6B
###2023-12-09 13:47:05.031312$GNVTG,243.17,T,,M,0.04,N,0.07,K,A*23
###2023-12-09 13:47:05.032926$GNGST,184704.10,8.100,,,,0.200,0.120,0.320*61
###2023-12-09 13:47:05.034215$GNZDA,184704.10,09,12,2023,00,00*7E
###2023-12-09 13:47:05.034861$GNEBP,,,,,,M*13
###2023-12-09 13:47:05.207827$GNGGA,184704.30,4138.0395960,N,07032.4384967,W,1,19,0.8,15.524,M,-29.746,M,0.0,*5C
###2023-12-09 13:47:05.407515$GNGGA,184704.50,4138.0395976,N,07032.4384962,W,1,19,0.8,15.524,M,-29.746,M,0.0,*58
###2023-12-09 13:47:05.606116$GNGGA,184704.70,4138.0395975,N,07032.4384953,W,1,19,0.8,15.523,M,-29.746,M,0.0,*5C
###2023-12-09 13:47:05.805773$GNGGA,184704.90,4138.0395997,N,07032.4384952,W,1,19,0.8,15.524,M,-29.746,M,0.0,*58
###2023-12-09 13:47:06.011361$GNRMC,184705.10,A,4138.0396008,N,07032.4384947,W,0.04,243.17,091223,,,A*5D
###2023-12-09 13:47:06.014228$GNGGA,184705.10,4138.0396008,N,07032.4384947,W,1,19,0.8,15.527,M,-29.746,M,0.0,*5A
###2023-12-09 13:47:06.015962$GPGSA,A,3,04,16,26,28,29,31,,,,,,,1.3,0.8,1.1*3C
###2023-12-09 13:47:06.017675$GLGSA,A,3,65,72,73,74,75,83,,,,,,,1.3,0.8,1.1*2C
###2023-12-09 13:47:06.019206$GAGSA,A,3,04,21,27,,,,,,,,,,1.3,0.8,1.1*2B
###2023-12-09 13:47:06.020785$GBGSA,A,3,12,24,25,35,,,,,,,,,1.3,0.8,1.1*2E
###2023-12-09 13:47:06.023121$GPGSV,2,1,06,04,51,304,48,16,72,228,41,26,78,041,41,28,34,089,45*7E
###2023-12-09 13:47:06.024870$GPGSV,2,2,06,29,18,043,42,31,56,073,50,,,,,,,,*7C
###2023-12-09 13:47:06.027189$GLGSV,2,1,06,65,43,312,44,72,56,213,39,73,17,056,40,74,55,024,36*6D
###2023-12-09 13:47:06.028936$GLGSV,2,2,06,75,47,280,46,83,16,041,36,,,,,,,,*66
###2023-12-09 13:47:06.030970$GAGSV,1,1,03,04,43,308,46,21,72,043,41,27,19,051,43,,,,*5B
###2023-12-09 13:47:06.033289$GBGSV,1,1,04,12,19,122,42,24,58,052,47,25,54,282,43,35,16,051,38*6B
###2023-12-09 13:47:06.034626$GNVTG,243.17,T,,M,0.04,N,0.07,K,A*23
###2023-12-09 13:47:06.036242$GNGST,184705.10,8.000,,,,0.200,0.120,0.320*61
###2023-12-09 13:47:06.037533$GNZDA,184705.10,09,12,2023,00,00*7F
###2023-12-09 13:47:06.038171$GNEBP,,,,,,M*13
###2023-12-09 13:47:06.206596$GNGGA,184705.30,4138.0396017,N,07032.4384941,W,1,19,0.8,15.530,M,-29.746,M,0.0,*56
###2023-12-09 13:47:06.406168$GNGGA,184705.50,4138.0396021,N,07032.4384934,W,1,19,0.8,15.531,M,-29.746,M,0.0,*56
###2023-12-09 13:47:06.604894$GNGGA,184705.70,4138.0396032,N,07032.4384928,W,1,20,0.7,15.532,M,-29.746,M,0.0,*5D
###2023-12-09 13:47:06.808112$GNGGA,184705.90,4138.0396043,N,07032.4384914,W,1,20,0.7,15.538,M,-29.746,M,0.0,*50
###2023-12-09 13:47:07.007958$GNRMC,184706.10,A,4138.0396047,N,07032.4384904,W,0.06,243.17,091223,,,A*50
###2023-12-09 13:47:07.011133$GNGGA,184706.10,4138.0396047,N,07032.4384904,W,1,20,0.7,15.542,M,-29.746,M,0.0,*53
###2023-12-09 13:47:07.012877$GPGSA,A,3,04,16,26,28,29,31,,,,,,,1.3,0.7,1.1*33
###2023-12-09 13:47:07.014615$GLGSA,A,3,65,72,73,74,75,83,,,,,,,1.3,0.7,1.1*23
###2023-12-09 13:47:07.016137$GAGSA,A,3,04,21,27,,,,,,,,,,1.3,0.7,1.1*24
###2023-12-09 13:47:07.017789$GBGSA,A,3,12,24,25,33,35,,,,,,,,1.3,0.7,1.1*21
###2023-12-09 13:47:07.020139$GPGSV,2,1,06,04,51,304,48,16,72,228,41,26,78,041,41,28,34,089,45*7E
###2023-12-09 13:47:07.021900$GPGSV,2,2,06,29,18,043,42,31,56,073,50,,,,,,,,*7C
###2023-12-09 13:47:07.024250$GLGSV,2,1,06,65,43,312,44,72,56,213,39,73,17,056,40,74,55,024,36*6D
