###2023-12-09 13:17:40.983325$GNRMC,181740.10,A,4138.0405850,N,07032.2943039,W,3.25,177.72,091223,,,A*51
###2023-12-09 13:17:40.986197$GNGGA,181740.10,4138.0405850,N,07032.2943039,W,1,24,0.7,12.972,M,-29.743,M,0.0,*5E
###2023-12-09 13:17:40.988002$GPGSA,A,3,03,04,16,26,28,29,31,,,,,,1.2,0.7,1.0*30
###2023-12-09 13:17:40.989723$GLGSA,A,3,65,71,72,73,74,75,,,,,,,1.2,0.7,1.0*2E
###2023-12-09 13:17:40.991316$GAGSA,A,3,04,19,21,27,,,,,,,,,1.2,0.7,1.0*2C
###2023-12-09 13:17:40.993028$GBGSA,A,3,14,24,25,26,33,35,,,,,,,1.2,0.7,1.0*23
###2023-12-09 13:17:40.995373$GPGSV,2,1,07,03,31,253,43,04,39,310,45,16,58,216,46,26,88,205,47*7F
###2023-12-09 13:17:40.997438$GPGSV,2,2,07,28,43,078,44,29,23,053,43,31,64,053,47,,,,*42
###2023-12-09 13:17:40.999796$GLGSV,2,1,06,65,31,324,42,71,32,174,42,72,70,240,46,73,29,047,43*6C
###2023-12-09 13:17:41.001543$GLGSV,2,2,06,74,65,358,43,75,38,261,47,,,,,,,,*65
###2023-12-09 13:17:41.003884$GAGSV,1,1,04,04,34,312,43,19,79,190,40,21,83,062,46,27,28,049,39*64
###2023-12-09 13:17:41.006224$GBGSV,2,1,06,14,36,191,42,24,68,036,49,25,45,268,48,26,21,066,43*67
###2023-12-09 13:17:41.008024$GBGSV,2,2,06,33,52,224,47,35,16,063,43,,,,,,,,*6E
###2023-12-09 13:17:41.009354$GNVTG,177.72,T,,M,3.25,N,6.01,K,A*24
###2023-12-09 13:17:41.011016$GNGST,181740.10,18.000,,,,0.100,0.070,0.170*54
###2023-12-09 13:17:41.012312$GNZDA,181740.10,09,12,2023,00,00*7B
###2023-12-09 13:17:41.012952$GNEBP,,,,,,M*13
###2023-12-09 13:17:41.179108$GNGGA,181740.30,4138.0403977,N,07032.2943032,W,1,24,0.7,12.998,M,-29.744,M,0.0,*56
###2023-12-09 13:17:41.377956$GNGGA,181740.50,4138.0401999,N,07032.2943165,W,1,24,0.7,12.987,M,-29.744,M,0.0,*5F
###2023-12-09 13:17:41.578741$GNGGA,181740.70,4138.0400158,N,07032.2943234,W,1,24,0.7,12.961,M,-29.744,M,0.0,*56
###2023-12-09 13:17:41.777759$GNGGA,181740.90,4138.0398298,N,07032.2943387,W,1,24,0.7,12.995,M,-29.744,M,0.0,*53
###2023-12-09 13:17:41.984096$GNRMC,181741.10,A,4138.0396371,N,07032.2943428,W,3.17,177.78,091223,,,A*5A
###2023-12-09 13:17:41.986986$GNGGA,181741.10,4138.0396371,N,07032.2943428,W,1,24,0.7,12.968,M,-29.744,M,0.0,*52
###2023-12-09 13:17:41.988788$GPGSA,A,3,03,04,16,26,28,29,31,,,,,,1.2,0.7,1.0*30
###2023-12-09 13:17:41.990510$GLGSA,A,3,65,71,72,73,74,75,,,,,,,1.2,0.7,1.0*2E
###2023-12-09 13:17:41.992109$GAGSA,A,3,04,19,21,27,,,,,,,,,1.2,0.7,1.0*2C
###2023-12-09 13:17:41.993821$GBGSA,A,3,14,24,25,26,33,35,,,,,,,1.2,0.7,1.0*23
###2023-12-09 13:17:41.996168$GPGSV,2,1,07,03,31,253,43,04,39,310,44,16,58,216,46,26,88,205,48*71
###2023-12-09 13:17:41.998211$GPGSV,2,2,07,28,43,078,45,29,23,053,43,31,64,053,48,,,,*4C
###2023-12-09 13:17:42.000577$GLGSV,2,1,06,65,31,324,45,71,32,174,43,72,70,240,46,73,29,047,44*6D
###2023-12-09 13:17:42.002388$GLGSV,2,2,06,74,65,358,43,75,38,261,47,,,,,,,,*65
###2023-12-09 13:17:42.004752$GAGSV,1,1,04,04,34,312,44,19,79,190,40,21,83,062,46,27,28,049,42*6F
###2023-12-09 13:17:42.007107$GBGSV,2,1,06,14,36,191,41,24,68,036,50,25,45,268,48,26,21,066,44*6B
###2023-12-09 13:17:42.008857$GBGSV,2,2,06,33,52,224,48,35,16,063,44,,,,,,,,*66
###2023-12-09 13:17:42.010177$GNVTG,177.78,T,,M,3.17,N,5.87,K,A*22
###2023-12-09 13:17:42.011835$GNGST,181741.10,18.000,,,,0.100,0.070,0.170*55
###2023-12-09 13:17:42.013125$GNZDA,181741.10,09,12,2023,00,00*7A
###2023-12-09 13:17:42.013763$GNEBP,,,,,,M*13
###2023-12-09 13:17:42.177874$GNGGA,181741.30,4138.0394588,N,07032.2943336,W,1,24,0.7,12.959,M,-29.744,M,0.0,*58
###2023-12-09 13:17:42.377960$GNGGA,181741.50,4138.0392693,N,07032.2943523,W,1,24,0.7,12.987,M,-29.744,M,0.0,*50
###2023-12-09 13:17:42.578694$GNGGA,181741.70,4138.0390794,N,07032.2943446,W,1,24,0.7,12.961,M,-29.744,M,0.0,*5C
###2023-12-09 13:17:42.779691$GNGGA,181741.90,4138.0388995,N,07032.2943077,W,1,24,0.7,12.962,M,-29.744,M,0.0,*51
###2023-12-09 13:17:42.983891$GNRMC,181742.10,A,4138.0387134,N,07032.2942789,W,3.34,174.79,091223,,,A*50
###2023-12-09 13:17:42.986773$GNGGA,181742.10,4138.0387134,N,07032.2942789,W,1,24,0.7,12.976,M,-29.744,M,0.0,*54
###2023-12-09 13:17:42.988574$GPGSA,A,3,03,04,16,26,28,29,31,,,,,,1.2,0.7,1.0*30
###2023-12-09 13:17:42.990298$GLGSA,A,3,65,71,72,73,74,75,,,,,,,1.2,0.7,1.0*2E
###2023-12-09 13:17:42.991904$GAGSA,A,3,04,19,21,27,,,,,,,,,1.2,0.7,1.0*2C
###2023-12-09 13:17:42.993624$GBGSA,A,3,14,24,25,26,33,35,,,,,,,1.2,0.7,1.0*23
###2023-12-09 13:17:42.995971$GPGSV,2,1,07,03,31,253,43,04,39,310,45,16,58,216,46,26,88,205,48*70
###2023-12-09 13:17:42.998017$GPGSV,2,2,07,28,43,078,46,29,23,053,42,31,64,053,47,,,,*41
###2023-12-09 13:17:43.000361$GLGSV,2,1,06,65,31,324,45,71,32,174,43,72,70,240,45,73,29,047,43*69
###2023-12-09 13:17:43.002112$GLGSV,2,2,06,74,65,358,43,75,38,261,47,,,,,,,,*65
###2023-12-09 13:17:43.004465$GAGSV,1,1,04,04,34,312,43,19,79,190,40,21,83,062,46,27,28,049,41*6B
###2023-12-09 13:17:43.006821$GBGSV,2,1,06,14,36,191,41,24,68,036,49,25,45,268,49,26,21,066,44*62
###2023-12-09 13:17:43.008565$GBGSV,2,2,06,33,52,224,48,35,16,063,43,,,,,,,,*61
###2023-12-09 13:17:43.009890$GNVTG,174.79,T,,M,3.34,N,6.19,K,A*25
###2023-12-09 13:17:43.011548$GNGST,181742.10,18.000,,,,0.100,0.069,0.170*5E
###2023-12-09 13:17:43.012841$GNZDA,181742.10,09,12,2023,00,00*79
###2023-12-09 13:17:43.013478$GNEBP,,,,,,M*13
###2023-12-09 13:17:43.179118$GNGGA,181742.30,4138.0385253,N,07032.2942505,W,1,24,0.7,12.965,M,-29.744,M,0.0,*52
###2023-12-09 13:17:43.378953$GNGGA,181742.50,4138.0383380,N,07032.2942093,W,1,24,0.7,12.955,M,-29.744,M,0.0,*54
###2023-12-09 13:17:43.579454$GNGGA,181742.70,4138.0381519,N,07032.2941713,W,1,24,0.7,12.961,M,-29.744,M,0.0,*59
###2023-12-09 13:17:43.779007$GNGGA,181742.90,4138.0379603,N,07032.2941407,W,1,24,0.7,12.956,M,-29.744,M,0.0,*5A
###2023-12-09 13:17:43.989542$GNRMC,181743.10,A,4138.0377693,N,07032.2941152,W,3.36,176.51,091223,,,A*5D
###2023-12-09 13:17:43.992404$GNGGA,181743.10,4138.0377693,N,07032.2941152,W,1,24,0.7,12.937,M,-29.744,M,0.0,*56
###2023-12-09 13:17:43.994190$GPGSA,A,3,03,04,16,26,28,29,31,,,,,,1.2,0.7,1.0*30
###2023-12-09 13:17:43.995915$GLGSA,A,3,65,71,72,73,74,75,,,,,,,1.2,0.7,1.0*2E
###2023-12-09 13:17:43.997496$GAGSA,A,3,04,19,21,27,,,,,,,,,1.2,0.7,1.0*2C
###2023-12-09 13:17:43.999216$GBGSA,A,3,14,24,25,26,33,35,,,,,,,1.2,0.7,1.0*23
###2023-12-09 13:17:44.001535$GPGSV,2,1,07,03,31,253,41,04,39,310,45,16,58,216,46,26,88,205,48*72
###2023-12-09 13:17:44.003582$GPGSV,2,2,07,28,43,078,45,29,23,053,43,31,64,053,47,,,,*43
###2023-12-09 13:17:44.005912$GLGSV,2,1,06,65,31,324,43,71,32,174,43,72,70,240,45,73,29,047,43*6F
###2023-12-09 13:17:44.007675$GLGSV,2,2,06,74,65,358,43,75,38,261,47,,,,,,,,*65
###2023-12-09 13:17:44.009994$GAGSV,1,1,04,04,34,312,43,19,79,190,40,21,83,062,46,27,28,049,41*6B
###2023-12-09 13:17:44.012332$GBGSV,2,1,06,14,36,191,41,24,68,036,49,25,45,268,48,26,21,066,44*63
###2023-12-09 13:17:44.014071$GBGSV,2,2,06,33,52,224,48,35,16,063,43,,,,,,,,*61
###2023-12-09 13:17:44.015400$GNVTG,176.51,T,,M,3.36,N,6.23,K,A*26
###2023-12-09 13:17:44.017041$GNGST,181743.10,18.000,,,,0.100,0.069,0.170*5F
###2023-12-09 13:17:44.018327$GNZDA,181743.10,09,12,2023,00,00*78
###2023-12-09 13:17:44.018990$GNEBP,,,,,,M*13
###2023-12-09 13:17:44.179555$GNGGA,181743.30,4138.0375804,N,07032.2941070,W,1,24,0.7,12.952,M,-29.744,M,0.0,*54
###2023-12-09 13:17:44.380345$GNGGA,181743.50,4138.0373862,N,07032.2941090,W,1,24,0.7,12.949,M,-29.744,M,0.0,*50
###2023-12-09 13:17:44.579650$GNGGA,181743.70,4138.0371882,N,07032.2940989,W,1,24,0.7,12.920,M,-29.744,M,0.0,*51
###2023-12-09 13:17:44.780196$GNGGA,181743.90,4138.0369994,N,07032.2941132,W,1,24,0.7,12.926,M,-29.744,M,0.0,*5F
###2023-12-09 13:17:44.989969$GNRMC,181744.10,A,4138.0368054,N,07032.2941458,W,3.58,185.87,091223,,,A*59
###2023-12-09 13:17:44.992847$GNGGA,181744.10,4138.0368054,N,07032.2941458,W,1,24,0.7,12.947,M,-29.744,M,0.0,*5A
###2023-12-09 13:17:44.994653$GPGSA,A,3,03,04,16,26,28,29,31,,,,,,1.2,0.7,0.9*38
###2023-12-09 13:17:44.996368$GLGSA,A,3,65,71,72,73,74,75,,,,,,,1.2,0.7,0.9*26
###2023-12-09 13:17:44.997945$GAGSA,A,3,04,19,21,27,,,,,,,,,1.2,0.7,0.9*24
###2023-12-09 13:17:44.999666$GBGSA,A,3,14,24,25,26,33,35,,,,,,,1.2,0.7,0.9*2B
###2023-12-09 13:17:45.001981$GPGSV,2,1,07,03,31,253,42,04,39,310,45,16,58,216,46,26,88,205,48*71
###2023-12-09 13:17:45.004271$GPGSV,2,2,07,28,43,078,45,29,23,053,42,31,64,053,47,,,,*42
###2023-12-09 13:17:45.006630$GLGSV,2,1,06,65,31,324,42,71,32,174,42,72,70,240,46,73,29,047,43*6C
###2023-12-09 13:17:45.008385$GLGSV,2,2,06,74,65,358,43,75,38,261,47,,,,,,,,*65
###2023-12-09 13:17:45.010768$GAGSV,1,1,04,04,34,312,44,19,79,190,40,21,83,062,46,27,28,049,40*6D
###2023-12-09 13:17:45.013105$GBGSV,2,1,06,14,36,191,42,24,68,036,49,25,45,268,48,26,21,066,43*67
###2023-12-09 13:17:45.014864$GBGSV,2,2,06,33,52,224,47,35,16,063,44,,,,,,,,*69
###2023-12-09 13:17:45.016187$GNVTG,185.87,T,,M,3.58,N,6.62,K,A*2C
###2023-12-09 13:17:45.017834$GNGST,181744.10,18.000,,,,0.100,0.069,0.170*58
###2023-12-09 13:17:45.019139$GNZDA,181744.10,09,12,2023,00,00*7F
