###2023-12-09 12:31:53.948084$GLGSV,2,2,05,75,20,239,37,,,,,,,,,,,,*5C
###2023-12-09 12:31:53.950447$GAGSV,1,1,04,04,20,311,43,19,80,306,41,21,76,177,46,27,42,050,41*6C
###2023-12-09 12:31:53.952820$GBGSV,1,1,04,14,56,198,45,24,81,338,49,26,36,056,46,33,63,258,48*64
###2023-12-09 12:31:53.954167$GNVTG,320.35,T,,M,0.23,N,0.43,K,A*22
###2023-12-09 12:31:53.955840$GNGST,173153.10,19.000,,,,0.083,0.074,0.170*52
###2023-12-09 12:31:53.957145$GNZDA,173153.10,09,12,2023,00,00*72
###2023-12-09 12:31:53.957797$GNEBP,,,,,,M*13
###2023-12-09 12:31:54.129856$GNGGA,173153.30,4138.0420663,N,07032.4261224,W,1,20,0.7,13.371,M,-29.745,M,0.0,*55
###2023-12-09 12:31:54.330078$GNGGA,173153.50,4138.0420847,N,07032.4261236,W,1,20,0.7,13.380,M,-29.745,M,0.0,*56
###2023-12-09 12:31:54.530085$GNGGA,173153.70,4138.0421026,N,07032.4261251,W,1,20,0.7,13.366,M,-29.745,M,0.0,*53
###2023-12-09 12:31:54.729190$GNGGA,173153.90,4138.0421199,N,07032.4261274,W,1,20,0.7,13.354,M,-29.745,M,0.0,*5E
###2023-12-09 12:31:54.932159$GNRMC,173154.10,A,4138.0421397,N,07032.4261340,W,0.35,320.35,091223,,,A*58
###2023-12-09 12:31:54.935659$GNGGA,173154.10,4138.0421397,N,07032.4261340,W,1,20,0.7,13.345,M,-29.745,M,0.0,*5B
###2023-12-09 12:31:54.937919$GPGSA,A,3,03,04,16,26,28,29,31,32,,,,,1.3,0.7,1.1*31
###2023-12-09 12:31:54.939870$GLGSA,A,3,71,72,73,74,,,,,,,,,1.3,0.7,1.1*2F
###2023-12-09 12:31:54.941786$GAGSA,A,3,04,19,21,27,,,,,,,,,1.3,0.7,1.1*2C
###2023-12-09 12:31:54.943724$GBGSA,A,3,14,24,26,33,,,,,,,,,1.3,0.7,1.1*22
###2023-12-09 12:31:54.946553$GPGSV,2,1,08,03,39,279,42,04,20,310,43,16,35,207,42,26,65,206,48*7F
###2023-12-09 12:31:54.949416$GPGSV,2,2,08,28,59,054,45,29,25,075,41,31,73,356,48,32,31,133,46*76
###2023-12-09 12:31:54.952277$GLGSV,1,1,04,71,59,168,48,72,64,313,47,73,50,032,46,74,70,284,43*62
###2023-12-09 12:31:54.955133$GAGSV,1,1,04,04,20,311,42,19,80,306,41,21,76,177,47,27,42,050,41*6C
###2023-12-09 12:31:54.957994$GBGSV,1,1,04,14,56,198,47,24,81,339,50,26,36,056,46,33,63,258,48*6F
###2023-12-09 12:31:54.959632$GNVTG,320.35,T,,M,0.35,N,0.65,K,A*21
###2023-12-09 12:31:54.961634$GNGST,173154.10,20.000,,,,0.083,0.074,0.170*5F
###2023-12-09 12:31:54.963218$GNZDA,173154.10,09,12,2023,00,00*75
###2023-12-09 12:31:54.964003$GNEBP,,,,,,M*13
###2023-12-09 12:31:55.128829$GNGGA,173154.30,4138.0421611,N,07032.4261412,W,1,20,0.7,13.348,M,-29.745,M,0.0,*5F
###2023-12-09 12:31:55.328803$GNGGA,173154.50,4138.0421771,N,07032.4261389,W,1,20,0.7,13.350,M,-29.745,M,0.0,*52
###2023-12-09 12:31:55.528926$GNGGA,173154.70,4138.0421900,N,07032.4261323,W,1,20,0.7,13.343,M,-29.745,M,0.0,*5A
###2023-12-09 12:31:55.728647$GNGGA,173154.90,4138.0422067,N,07032.4261375,W,1,20,0.7,13.337,M,-29.745,M,0.0,*5F
###2023-12-09 12:31:55.930087$GNRMC,173155.10,A,4138.0422318,N,07032.4261467,W,0.37,320.35,091223,,,A*5D
###2023-12-09 12:31:55.933745$GNGGA,173155.10,4138.0422318,N,07032.4261467,W,1,21,0.7,13.325,M,-29.745,M,0.0,*5B
###2023-12-09 12:31:55.936022$GPGSA,A,3,03,04,16,26,28,29,31,32,,,,,1.3,0.7,1.1*31
###2023-12-09 12:31:55.937950$GLGSA,A,3,71,72,73,74,,,,,,,,,1.3,0.7,1.1*2F
###2023-12-09 12:31:55.939888$GAGSA,A,3,04,19,21,27,,,,,,,,,1.3,0.7,1.1*2C
###2023-12-09 12:31:55.941883$GBGSA,A,3,14,24,25,26,33,,,,,,,,1.3,0.7,1.1*25
###2023-12-09 12:31:55.944721$GPGSV,2,1,08,03,39,279,45,04,20,310,42,16,35,207,44,26,65,206,48*7F
###2023-12-09 12:31:55.947581$GPGSV,2,2,08,28,59,054,45,29,25,075,41,31,73,356,47,32,31,133,46*79
###2023-12-09 12:31:55.950470$GLGSV,1,1,04,71,59,168,48,72,64,313,47,73,50,032,46,74,70,284,44*65
###2023-12-09 12:31:55.953321$GAGSV,1,1,04,04,20,311,42,19,80,306,41,21,76,177,46,27,42,050,42*6E
###2023-12-09 12:31:55.956163$GBGSV,2,1,05,14,56,198,44,24,81,339,49,25,32,252,35,26,36,056,45*66
###2023-12-09 12:31:55.957932$GBGSV,2,2,05,33,63,258,48,,,,,,,,,,,,*58
###2023-12-09 12:31:55.959573$GNVTG,320.35,T,,M,0.37,N,0.68,K,A*2E
###2023-12-09 12:31:55.961562$GNGST,173155.10,19.000,,,,0.082,0.074,0.170*55
###2023-12-09 12:31:55.963146$GNZDA,173155.10,09,12,2023,00,00*74
###2023-12-09 12:31:55.963922$GNEBP,,,,,,M*13
###2023-12-09 12:31:56.130031$GNGGA,173155.30,4138.0422489,N,07032.4261490,W,1,21,0.7,13.318,M,-29.745,M,0.0,*50
###2023-12-09 12:31:56.329060$GNGGA,173155.50,4138.0422621,N,07032.4261454,W,1,21,0.7,13.326,M,-29.745,M,0.0,*53
###2023-12-09 12:31:56.530035$GNGGA,173155.70,4138.0422774,N,07032.4261436,W,1,21,0.7,13.329,M,-29.745,M,0.0,*5B
###2023-12-09 12:31:56.726476$GNGGA,173155.90,4138.0422987,N,07032.4261487,W,1,21,0.7,13.327,M,-29.745,M,0.0,*53
###2023-12-09 12:31:56.932956$GNRMC,173156.10,A,4138.0423177,N,07032.4261541,W,0.31,320.35,091223,,,A*57
###2023-12-09 12:31:56.935847$GNGGA,173156.10,4138.0423177,N,07032.4261541,W,1,21,0.7,13.321,M,-29.745,M,0.0,*53
###2023-12-09 12:31:56.937715$GPGSA,A,3,03,04,16,26,28,29,31,32,,,,,1.3,0.7,1.1*31
###2023-12-09 12:31:56.939322$GLGSA,A,3,71,72,73,74,,,,,,,,,1.3,0.7,1.1*2F
###2023-12-09 12:31:56.940910$GAGSA,A,3,04,19,21,27,,,,,,,,,1.3,0.7,1.1*2C
###2023-12-09 12:31:56.942602$GBGSA,A,3,14,24,25,26,33,,,,,,,,1.3,0.7,1.1*25
###2023-12-09 12:31:56.944934$GPGSV,2,1,08,03,39,279,46,04,20,310,43,16,35,207,43,26,65,206,48*7A
###2023-12-09 12:31:56.947290$GPGSV,2,2,08,28,59,054,45,29,25,075,41,31,73,356,47,32,31,133,45*7A
###2023-12-09 12:31:56.949642$GLGSV,1,1,04,71,59,168,48,72,64,313,46,73,50,032,47,74,70,284,42*63
###2023-12-09 12:31:56.952000$GAGSV,1,1,04,04,20,311,42,19,80,306,40,21,76,177,46,27,42,050,41*6C
###2023-12-09 12:31:56.954337$GBGSV,2,1,05,14,56,198,44,24,81,339,48,25,32,252,35,26,36,057,45*66
###2023-12-09 12:31:56.955813$GBGSV,2,2,05,33,63,258,48,,,,,,,,,,,,*58
###2023-12-09 12:31:56.957143$GNVTG,320.35,T,,M,0.31,N,0.58,K,A*2B
###2023-12-09 12:31:56.958816$GNGST,173156.10,20.000,,,,0.082,0.074,0.170*5C
###2023-12-09 12:31:56.960116$GNZDA,173156.10,09,12,2023,00,00*77
###2023-12-09 12:31:56.960761$GNEBP,,,,,,M*13
###2023-12-09 12:31:57.129396$GNGGA,173156.30,4138.0423342,N,07032.4261548,W,1,21,0.7,13.314,M,-29.745,M,0.0,*5A
###2023-12-09 12:31:57.327271$GNGGA,173156.50,4138.0423484,N,07032.4261526,W,1,21,0.7,13.311,M,-29.745,M,0.0,*5C
###2023-12-09 12:31:57.527237$GNGGA,173156.70,4138.0423635,N,07032.4261531,W,1,21,0.7,13.307,M,-29.745,M,0.0,*57
###2023-12-09 12:31:57.727287$GNGGA,173156.90,4138.0423808,N,07032.4261582,W,1,21,0.7,13.303,M,-29.745,M,0.0,*55
###2023-12-09 12:31:57.929000$GNRMC,173157.10,A,4138.0423986,N,07032.4261629,W,0.31,320.35,091223,,,A*5D
###2023-12-09 12:31:57.932053$GNGGA,173157.10,4138.0423986,N,07032.4261629,W,1,21,0.7,13.296,M,-29.745,M,0.0,*54
###2023-12-09 12:31:57.934087$GPGSA,A,3,03,04,16,26,28,29,31,32,,,,,1.3,0.7,1.1*31
###2023-12-09 12:31:57.935839$GLGSA,A,3,71,72,73,74,,,,,,,,,1.3,0.7,1.1*2F
###2023-12-09 12:31:57.937542$GAGSA,A,3,04,19,21,27,,,,,,,,,1.3,0.7,1.1*2C
###2023-12-09 12:31:57.939207$GBGSA,A,3,14,24,25,26,33,,,,,,,,1.3,0.7,1.1*25
###2023-12-09 12:31:57.941530$GPGSV,2,1,08,03,39,279,47,04,20,310,43,16,35,207,43,26,65,206,48*7B
###2023-12-09 12:31:57.943873$GPGSV,2,2,08,28,59,054,45,29,25,075,40,31,73,356,48,32,31,133,45*74
###2023-12-09 12:31:57.946199$GLGSV,1,1,04,71,59,168,48,72,64,313,47,73,50,032,47,74,70,284,43*63
###2023-12-09 12:31:57.948573$GAGSV,1,1,04,04,20,311,41,19,80,306,41,21,76,177,46,27,42,050,42*6D
###2023-12-09 12:31:57.950944$GBGSV,2,1,05,14,56,198,45,24,81,339,49,25,32,252,35,26,36,057,45*66
###2023-12-09 12:31:57.952400$GBGSV,2,2,05,33,63,257,47,,,,,,,,,,,,*58
###2023-12-09 12:31:57.953723$GNVTG,320.35,T,,M,0.31,N,0.58,K,A*2B
###2023-12-09 12:31:57.955388$GNGST,173157.10,19.000,,,,0.082,0.074,0.170*57
###2023-12-09 12:31:57.956684$GNZDA,173157.10,09,12,2023,00,00*76
###2023-12-09 12:31:57.957329$GNEBP,,,,,,M*13
###2023-12-09 12:31:58.127269$GNGGA,173157.30,4138.0424127,N,07032.4261631,W,1,21,0.7,13.292,M,-29.745,M,0.0,*5F
###2023-12-09 12:31:58.329380$GNGGA,173157.50,4138.0424251,N,07032.4261604,W,1,21,0.7,13.288,M,-29.745,M,0.0,*56
###2023-12-09 12:31:58.528425$GNGGA,173157.70,4138.0424381,N,07032.4261611,W,1,21,0.7,13.283,M,-29.745,M,0.0,*57
###2023-12-09 12:31:58.728827$GNGGA,173157.90,4138.0424580,N,07032.4261678,W,1,21,0.7,13.280,M,-29.745,M,0.0,*52
###2023-12-09 12:31:58.931627$GNRMC,173158.10,A,4138.0424767,N,07032.4261716,W,0.19,320.35,091223,,,A*53
###2023-12-09 12:31:58.934935$GNGGA,173158.10,4138.0424767,N,07032.4261716,W,1,20,0.7,13.279,M,-29.745,M,0.0,*50
###2023-12-09 12:31:58.936921$GPGSA,A,3,03,04,16,26,28,29,31,32,,,,,1.3,0.7,1.1*31
###2023-12-09 12:31:58.938641$GLGSA,A,3,71,72,73,74,,,,,,,,,1.3,0.7,1.1*2F
###2023-12-09 12:31:58.940342$GAGSA,A,3,04,19,21,27,,,,,,,,,1.3,0.7,1.1*2C
###2023-12-09 12:31:58.942075$GBGSA,A,3,14,24,26,33,,,,,,,,,1.3,0.7,1.1*22
###2023-12-09 12:31:58.944833$GPGSV,2,1,08,03,39,279,44,04,20,310,43,16,35,207,42,26,65,206,47*76
###2023-12-09 12:31:58.947233$GPGSV,2,2,08,28,59,054,44,29,25,075,40,31,73,356,47,32,31,133,45*7A
###2023-12-09 12:31:58.949597$GLGSV,1,1,04,71,59,168,48,72,64,313,47,73,50,032,46,74,70,284,42*63
###2023-12-09 12:31:58.951962$GAGSV,1,1,04,04,20,311,43,19,80,306,41,21,76,177,46,27,42,050,42*6F
