###2023-12-09 13:27:12.011286$GLGSV,2,2,06,74,62,008,43,75,41,267,45,,,,,,,,*6E
###2023-12-09 13:27:12.013644$GAGSV,1,1,04,04,37,311,42,19,75,184,40,21,80,050,46,27,25,049,41*6C
###2023-12-09 13:27:12.015999$GBGSV,2,1,06,14,32,190,41,24,65,042,48,25,49,273,44,26,18,069,44*66
###2023-12-09 13:27:12.017763$GBGSV,2,2,06,33,48,220,43,35,16,059,44,,,,,,,,*6B
###2023-12-09 13:27:12.019110$GNVTG,212.71,T,,M,3.48,N,6.44,K,A*2D
###2023-12-09 13:27:12.020772$GNGST,182711.10,18.000,,,,0.100,0.072,0.170*51
###2023-12-09 13:27:12.022073$GNZDA,182711.10,09,12,2023,00,00*7C
###2023-12-09 13:27:12.022727$GNEBP,,,,,,M*13
###2023-12-09 13:27:12.191340$GNGGA,182711.30,4138.0624023,N,07032.3923801,W,1,24,0.6,13.257,M,-29.744,M,0.0,*59
###2023-12-09 13:27:12.389232$GNGGA,182711.50,4138.0622597,N,07032.3925691,W,1,24,0.6,13.271,M,-29.744,M,0.0,*56
###2023-12-09 13:27:12.586100$GNGGA,182711.70,4138.0621302,N,07032.3927800,W,1,24,0.6,13.301,M,-29.744,M,0.0,*5F
###2023-12-09 13:27:12.786662$GNGGA,182711.90,4138.0619871,N,07032.3929794,W,1,24,0.6,13.297,M,-29.744,M,0.0,*57
###2023-12-09 13:27:12.991732$GNRMC,182712.10,A,4138.0618246,N,07032.3931509,W,3.67,218.68,091223,,,A*53
###2023-12-09 13:27:12.994582$GNGGA,182712.10,4138.0618246,N,07032.3931509,W,1,24,0.6,13.255,M,-29.744,M,0.0,*52
###2023-12-09 13:27:12.996372$GPGSA,A,3,03,04,16,26,28,29,31,,,,,,1.1,0.6,0.9*3A
###2023-12-09 13:27:12.998080$GLGSA,A,3,65,71,72,73,74,75,,,,,,,1.1,0.6,0.9*24
###2023-12-09 13:27:12.999672$GAGSA,A,3,04,19,21,27,,,,,,,,,1.1,0.6,0.9*26
###2023-12-09 13:27:13.001387$GBGSA,A,3,14,24,25,26,33,35,,,,,,,1.1,0.6,0.9*29
###2023-12-09 13:27:13.003727$GPGSV,2,1,07,03,28,249,40,04,43,309,44,16,62,219,45,26,88,044,48*76
###2023-12-09 13:27:13.005771$GPGSV,2,2,07,28,41,081,45,29,22,050,42,31,62,060,47,,,,*42
###2023-12-09 13:27:13.008114$GLGSV,2,1,06,65,35,321,43,71,26,175,44,72,66,227,45,73,25,050,44*66
###2023-12-09 13:27:13.009867$GLGSV,2,2,06,74,62,008,43,75,41,267,45,,,,,,,,*6E
###2023-12-09 13:27:13.012202$GAGSV,1,1,04,04,37,311,43,19,75,184,40,21,80,050,46,27,25,049,41*6D
###2023-12-09 13:27:13.014537$GBGSV,2,1,06,14,32,190,40,24,65,042,48,25,49,273,44,26,18,069,45*66
###2023-12-09 13:27:13.016293$GBGSV,2,2,06,33,48,220,44,35,16,059,45,,,,,,,,*6D
###2023-12-09 13:27:13.017615$GNVTG,218.68,T,,M,3.67,N,6.80,K,A*2A
###2023-12-09 13:27:13.019266$GNGST,182712.10,18.000,,,,0.100,0.072,0.170*52
###2023-12-09 13:27:13.020561$GNZDA,182712.10,09,12,2023,00,00*7F
###2023-12-09 13:27:13.021200$GNEBP,,,,,,M*13
###2023-12-09 13:27:13.186682$GNGGA,182712.30,4138.0616764,N,07032.3933490,W,1,24,0.6,13.250,M,-29.744,M,0.0,*5D
###2023-12-09 13:27:13.386959$GNGGA,182712.50,4138.0615462,N,07032.3935715,W,1,24,0.6,13.267,M,-29.744,M,0.0,*51
###2023-12-09 13:27:13.586553$GNGGA,182712.70,4138.0614073,N,07032.3937685,W,1,24,0.6,13.249,M,-29.744,M,0.0,*50
###2023-12-09 13:27:13.786957$GNGGA,182712.90,4138.0612438,N,07032.3939188,W,1,24,0.6,13.215,M,-29.744,M,0.0,*5E
###2023-12-09 13:27:13.996402$GNRMC,182713.10,A,4138.0611003,N,07032.3941005,W,3.63,231.19,091223,,,A*5F
###2023-12-09 13:27:13.999273$GNGGA,182713.10,4138.0611003,N,07032.3941005,W,1,24,0.6,13.221,M,-29.744,M,0.0,*54
###2023-12-09 13:27:14.001073$GPGSA,A,3,03,04,16,26,28,29,31,,,,,,1.1,0.6,0.9*3A
###2023-12-09 13:27:14.002795$GLGSA,A,3,65,71,72,73,74,75,,,,,,,1.1,0.6,0.9*24
###2023-12-09 13:27:14.004373$GAGSA,A,3,04,19,21,27,,,,,,,,,1.1,0.6,0.9*26
###2023-12-09 13:27:14.006082$GBGSA,A,3,14,24,25,26,33,35,,,,,,,1.1,0.6,0.9*29
###2023-12-09 13:27:14.008416$GPGSV,2,1,07,03,28,249,40,04,43,309,44,16,62,219,45,26,88,044,48*76
###2023-12-09 13:27:14.010443$GPGSV,2,2,07,28,41,081,44,29,22,050,43,31,62,060,47,,,,*42
###2023-12-09 13:27:14.012810$GLGSV,2,1,06,65,35,321,42,71,26,175,45,72,66,227,44,73,25,050,45*66
###2023-12-09 13:27:14.014556$GLGSV,2,2,06,74,62,008,43,75,41,267,44,,,,,,,,*6F
###2023-12-09 13:27:14.016890$GAGSV,1,1,04,04,37,311,41,19,75,184,40,21,80,050,46,27,25,049,42*6C
###2023-12-09 13:27:14.019233$GBGSV,2,1,06,14,32,190,43,24,65,042,50,25,49,273,45,26,18,069,45*6D
###2023-12-09 13:27:14.020982$GBGSV,2,2,06,33,48,220,46,35,16,059,44,,,,,,,,*6E
###2023-12-09 13:27:14.022310$GNVTG,231.19,T,,M,3.63,N,6.73,K,A*2F
###2023-12-09 13:27:14.023968$GNGST,182713.10,18.000,,,,0.100,0.072,0.160*52
###2023-12-09 13:27:14.025257$GNZDA,182713.10,09,12,2023,00,00*7E
###2023-12-09 13:27:14.025899$GNEBP,,,,,,M*13
###2023-12-09 13:27:14.187689$GNGGA,182713.30,4138.0609818,N,07032.3943251,W,1,24,0.6,13.252,M,-29.744,M,0.0,*58
###2023-12-09 13:27:14.387032$GNGGA,182713.50,4138.0608517,N,07032.3945350,W,1,24,0.6,13.249,M,-29.744,M,0.0,*51
###2023-12-09 13:27:14.587530$GNGGA,182713.70,4138.0606967,N,07032.3947099,W,1,24,0.6,13.226,M,-29.744,M,0.0,*5B
###2023-12-09 13:27:14.787926$GNGGA,182713.90,4138.0605449,N,07032.3948902,W,1,24,0.6,13.215,M,-29.744,M,0.0,*53
###2023-12-09 13:27:14.993291$GNRMC,182714.10,A,4138.0604139,N,07032.3951128,W,3.81,232.68,091223,,,A*52
###2023-12-09 13:27:14.996186$GNGGA,182714.10,4138.0604139,N,07032.3951128,W,1,24,0.6,13.230,M,-29.744,M,0.0,*50
###2023-12-09 13:27:14.997990$GPGSA,A,3,03,04,16,26,28,29,31,,,,,,1.1,0.6,0.9*3A
###2023-12-09 13:27:14.999723$GLGSA,A,3,65,71,72,73,74,75,,,,,,,1.1,0.6,0.9*24
###2023-12-09 13:27:15.001315$GAGSA,A,3,04,19,21,27,,,,,,,,,1.1,0.6,0.9*26
###2023-12-09 13:27:15.003044$GBGSA,A,3,14,24,25,26,33,35,,,,,,,1.1,0.6,0.9*29
###2023-12-09 13:27:15.005371$GPGSV,2,1,07,03,28,249,40,04,43,309,44,16,62,219,45,26,88,044,47*79
###2023-12-09 13:27:15.007424$GPGSV,2,2,07,28,41,081,45,29,22,050,42,31,62,060,47,,,,*42
###2023-12-09 13:27:15.009752$GLGSV,2,1,06,65,35,321,43,71,26,175,44,72,66,227,44,73,25,050,44*67
###2023-12-09 13:27:15.011512$GLGSV,2,2,06,74,62,008,43,75,41,267,45,,,,,,,,*6E
###2023-12-09 13:27:15.013832$GAGSV,1,1,04,04,37,311,43,19,75,184,40,21,80,050,46,27,25,049,41*6D
###2023-12-09 13:27:15.016171$GBGSV,2,1,06,14,32,190,43,24,65,042,48,25,49,273,45,26,18,069,44*65
###2023-12-09 13:27:15.017910$GBGSV,2,2,06,33,48,220,44,35,16,059,44,,,,,,,,*6C
###2023-12-09 13:27:15.019242$GNVTG,232.68,T,,M,3.81,N,7.06,K,A*25
###2023-12-09 13:27:15.020892$GNGST,182714.10,18.000,,,,0.100,0.072,0.160*55
###2023-12-09 13:27:15.022179$GNZDA,182714.10,09,12,2023,00,00*79
###2023-12-09 13:27:15.022827$GNEBP,,,,,,M*13
###2023-12-09 13:27:15.190818$GNGGA,182714.30,4138.0602747,N,07032.3953201,W,1,24,0.6,13.206,M,-29.744,M,0.0,*54
###2023-12-09 13:27:15.386922$GNGGA,182714.50,4138.0601164,N,07032.3954944,W,1,24,0.6,13.194,M,-29.744,M,0.0,*53
###2023-12-09 13:27:15.587542$GNGGA,182714.70,4138.0599614,N,07032.3956827,W,1,24,0.6,13.203,M,-29.744,M,0.0,*58
###2023-12-09 13:27:15.789142$GNGGA,182714.90,4138.0598188,N,07032.3958948,W,1,24,0.6,13.218,M,-29.744,M,0.0,*59
###2023-12-09 13:27:15.991376$GNRMC,182715.10,A,4138.0596871,N,07032.3961203,W,3.89,231.35,091223,,,A*54
###2023-12-09 13:27:15.994235$GNGGA,182715.10,4138.0596871,N,07032.3961203,W,1,24,0.6,13.225,M,-29.744,M,0.0,*51
###2023-12-09 13:27:15.996043$GPGSA,A,3,03,04,16,26,28,29,31,,,,,,1.1,0.6,0.9*3A
###2023-12-09 13:27:15.997764$GLGSA,A,3,65,71,72,73,74,75,,,,,,,1.1,0.6,0.9*24
###2023-12-09 13:27:15.999355$GAGSA,A,3,04,19,21,27,,,,,,,,,1.1,0.6,0.9*26
###2023-12-09 13:27:16.001064$GBGSA,A,3,14,24,25,26,33,35,,,,,,,1.1,0.6,0.9*29
###2023-12-09 13:27:16.003402$GPGSV,2,1,07,03,28,249,41,04,43,309,46,16,62,219,45,26,88,044,47*7A
###2023-12-09 13:27:16.005430$GPGSV,2,2,07,28,41,081,43,29,22,050,42,31,62,060,47,,,,*44
###2023-12-09 13:27:16.007771$GLGSV,2,1,06,65,35,321,44,71,26,175,43,72,66,227,44,73,25,050,43*60
###2023-12-09 13:27:16.009521$GLGSV,2,2,06,74,62,008,43,75,41,267,47,,,,,,,,*6C
###2023-12-09 13:27:16.011847$GAGSV,1,1,04,04,37,311,44,19,75,184,40,21,80,050,45,27,25,049,40*68
###2023-12-09 13:27:16.014170$GBGSV,2,1,06,14,32,190,41,24,65,042,48,25,49,273,46,26,18,069,43*63
###2023-12-09 13:27:16.015920$GBGSV,2,2,06,33,48,220,44,35,16,059,44,,,,,,,,*6C
###2023-12-09 13:27:16.017243$GNVTG,231.35,T,,M,3.89,N,7.20,K,A*22
###2023-12-09 13:27:16.018890$GNGST,182715.10,18.000,,,,0.100,0.072,0.160*54
###2023-12-09 13:27:16.020179$GNZDA,182715.10,09,12,2023,00,00*78
###2023-12-09 13:27:16.020819$GNEBP,,,,,,M*13
###2023-12-09 13:27:16.193444$GNGGA,182715.30,4138.0595464,N,07032.3963321,W,1,24,0.6,13.222,M,-29.744,M,0.0,*5C
###2023-12-09 13:27:16.398654$GNGGA,182715.50,4138.0594062,N,07032.3965385,W,1,24,0.6,13.192,M,-29.744,M,0.0,*59
###2023-12-09 13:27:16.593267$GNGGA,182715.70,4138.0592760,N,07032.3967512,W,1,24,0.6,13.169,M,-29.744,M,0.0,*56
###2023-12-09 13:27:16.787521$GNGGA,182715.90,4138.0591566,N,07032.3969671,W,1,24,0.6,13.167,M,-29.744,M,0.0,*59
###2023-12-09 13:27:16.993599$GNRMC,182716.10,A,4138.0590310,N,07032.3971734,W,3.56,228.82,091223,,,A*5B
###2023-12-09 13:27:16.996499$GNGGA,182716.10,4138.0590310,N,07032.3971734,W,1,24,0.6,13.166,M,-29.744,M,0.0,*5C
###2023-12-09 13:27:16.998303$GPGSA,A,3,03,04,16,26,28,29,31,,,,,,1.1,0.6,0.9*3A
###2023-12-09 13:27:17.000043$GLGSA,A,3,65,71,72,73,74,75,,,,,,,1.1,0.6,0.9*24
