###2023-12-09 12:24:28.920051$GNRMC,172428.10,A,4138.0392579,N,07032.4364759,W,0.02,,091223,,,A*4B
###2023-12-09 12:24:28.922942$GNGGA,172428.10,4138.0392579,N,07032.4364759,W,1,18,0.8,12.447,M,-29.746,M,0.0,*56
###2023-12-09 12:24:28.924821$GPGSA,A,3,03,16,25,26,28,29,31,32,,,,,1.3,0.8,1.1*3D
###2023-12-09 12:24:28.926360$GLGSA,A,3,71,73,75,,,,,,,,,,1.3,0.8,1.1*24
###2023-12-09 12:24:28.927906$GAGSA,A,3,04,21,27,,,,,,,,,,1.3,0.8,1.1*2B
###2023-12-09 12:24:28.929501$GBGSA,A,3,14,25,26,33,,,,,,,,,1.3,0.8,1.1*2C
###2023-12-09 12:24:28.931864$GPGSV,2,1,08,03,39,283,41,16,32,206,43,25,16,045,42,26,61,205,45*70
###2023-12-09 12:24:28.934217$GPGSV,2,2,08,28,61,050,42,29,24,079,45,31,73,344,37,32,34,131,46*7B
###2023-12-09 12:24:28.936287$GLGSV,1,1,03,71,63,167,48,73,53,030,47,75,18,237,43,,,,*51
###2023-12-09 12:24:28.938335$GAGSV,1,1,03,04,17,310,36,21,73,180,46,27,45,051,46,,,,*50
###2023-12-09 12:24:28.940684$GBGSV,1,1,04,14,60,201,45,25,29,249,40,26,39,055,47,33,64,265,40*63
###2023-12-09 12:24:28.941829$GNVTG,,T,,M,0.02,N,0.04,K,A*3B
###2023-12-09 12:24:28.943506$GNGST,172428.10,32.000,,,,0.100,0.100,0.220*5D
###2023-12-09 12:24:28.944813$GNZDA,172428.10,09,12,2023,00,00*7A
###2023-12-09 12:24:28.945468$GNEBP,,,,,,M*13
###2023-12-09 12:24:29.117027$GNGGA,172428.30,4138.0392583,N,07032.4364799,W,1,18,0.8,12.432,M,-29.746,M,0.0,*5F
###2023-12-09 12:24:29.316466$GNGGA,172428.50,4138.0392593,N,07032.4364854,W,1,18,0.8,12.410,M,-29.746,M,0.0,*56
###2023-12-09 12:24:29.515934$GNGGA,172428.70,4138.0392607,N,07032.4364910,W,1,18,0.8,12.398,M,-29.746,M,0.0,*5C
###2023-12-09 12:24:29.715099$GNGGA,172428.90,4138.0392607,N,07032.4364938,W,1,18,0.8,12.383,M,-29.746,M,0.0,*52
###2023-12-09 12:24:29.917076$GNRMC,172429.10,A,4138.0392616,N,07032.4364988,W,0.02,,091223,,,A*42
###2023-12-09 12:24:29.919990$GNGGA,172429.10,4138.0392616,N,07032.4364988,W,1,18,0.8,12.368,M,-29.746,M,0.0,*55
###2023-12-09 12:24:29.921868$GPGSA,A,3,03,16,25,26,28,29,31,32,,,,,1.3,0.8,1.1*3D
###2023-12-09 12:24:29.923419$GLGSA,A,3,71,73,75,,,,,,,,,,1.3,0.8,1.1*24
###2023-12-09 12:24:29.924953$GAGSA,A,3,04,21,27,,,,,,,,,,1.3,0.8,1.1*2B
###2023-12-09 12:24:29.926553$GBGSA,A,3,14,25,26,33,,,,,,,,,1.3,0.8,1.1*2C
###2023-12-09 12:24:29.928916$GPGSV,2,1,08,03,39,283,41,16,32,206,43,25,16,045,42,26,61,205,44*71
###2023-12-09 12:24:29.931286$GPGSV,2,2,08,28,61,050,42,29,24,079,45,31,73,344,37,32,34,131,47*7A
###2023-12-09 12:24:29.933342$GLGSV,1,1,03,71,63,167,48,73,53,030,47,75,18,237,43,,,,*51
###2023-12-09 12:24:29.935415$GAGSV,1,1,03,04,17,310,36,21,73,180,46,27,45,051,46,,,,*50
###2023-12-09 12:24:29.937753$GBGSV,1,1,04,14,60,201,45,25,29,249,40,26,39,055,47,33,64,265,41*62
###2023-12-09 12:24:29.938910$GNVTG,,T,,M,0.02,N,0.04,K,A*3B
###2023-12-09 12:24:29.940572$GNGST,172429.10,32.000,,,,0.100,0.100,0.220*5C
###2023-12-09 12:24:29.941881$GNZDA,172429.10,09,12,2023,00,00*7B
###2023-12-09 12:24:29.942533$GNEBP,,,,,,M*13
###2023-12-09 12:24:30.117021$GNGGA,172429.30,4138.0392631,N,07032.4365032,W,1,18,0.8,12.354,M,-29.746,M,0.0,*54
###2023-12-09 12:24:30.316342$GNGGA,172429.50,4138.0392636,N,07032.4365071,W,1,18,0.8,12.339,M,-29.746,M,0.0,*59
###2023-12-09 12:24:30.516592$GNGGA,172429.70,4138.0392645,N,07032.4365098,W,1,18,0.8,12.325,M,-29.746,M,0.0,*55
###2023-12-09 12:24:30.716219$GNGGA,172429.90,4138.0392634,N,07032.4365115,W,1,18,0.8,12.311,M,-29.746,M,0.0,*5E
###2023-12-09 12:24:30.920535$GNRMC,172430.10,A,4138.0392632,N,07032.4365137,W,0.04,,091223,,,A*47
###2023-12-09 12:24:30.924073$GNGGA,172430.10,4138.0392632,N,07032.4365137,W,1,18,0.8,12.292,M,-29.746,M,0.0,*52
###2023-12-09 12:24:30.926399$GPGSA,A,3,03,16,25,26,28,29,31,32,,,,,1.3,0.8,1.1*3D
###2023-12-09 12:24:30.928309$GLGSA,A,3,71,73,75,,,,,,,,,,1.3,0.8,1.1*24
###2023-12-09 12:24:30.930178$GAGSA,A,3,04,21,27,,,,,,,,,,1.3,0.8,1.1*2B
###2023-12-09 12:24:30.932145$GBGSA,A,3,14,25,26,33,,,,,,,,,1.3,0.8,1.1*2C
###2023-12-09 12:24:30.935228$GPGSV,2,1,08,03,39,283,41,16,32,206,43,25,16,045,42,26,61,205,44*71
###2023-12-09 12:24:30.938306$GPGSV,2,2,08,28,61,050,43,29,24,079,45,31,73,344,37,32,34,131,47*7B
###2023-12-09 12:24:30.940809$GLGSV,1,1,03,71,63,167,48,73,53,030,47,75,18,237,43,,,,*51
###2023-12-09 12:24:30.943315$GAGSV,1,1,03,04,17,310,36,21,73,180,46,27,45,051,46,,,,*50
###2023-12-09 12:24:30.946163$GBGSV,1,1,04,14,60,201,45,25,29,249,40,26,39,055,47,33,64,265,40*63
###2023-12-09 12:24:30.947933$GNVTG,,T,,M,0.04,N,0.07,K,A*3E
###2023-12-09 12:24:30.949996$GNGST,172430.10,32.000,,,,0.100,0.100,0.220*54
###2023-12-09 12:24:30.951624$GNZDA,172430.10,09,12,2023,00,00*73
###2023-12-09 12:24:30.952451$GNEBP,,,,,,M*13
###2023-12-09 12:24:31.117923$GNGGA,172430.30,4138.0392644,N,07032.4365164,W,1,18,0.8,12.282,M,-29.746,M,0.0,*56
###2023-12-09 12:24:31.317736$GNGGA,172430.50,4138.0392645,N,07032.4365203,W,1,18,0.8,12.263,M,-29.746,M,0.0,*5C
###2023-12-09 12:24:31.517704$GNGGA,172430.70,4138.0392644,N,07032.4365235,W,1,18,0.8,12.249,M,-29.746,M,0.0,*52
###2023-12-09 12:24:31.716387$GNGGA,172430.90,4138.0392652,N,07032.4365281,W,1,18,0.8,12.233,M,-29.746,M,0.0,*59
###2023-12-09 12:24:31.918176$GNRMC,172431.10,A,4138.0392653,N,07032.4365318,W,0.02,,091223,,,A*48
###2023-12-09 12:24:31.921261$GNGGA,172431.10,4138.0392653,N,07032.4365318,W,1,18,0.8,12.217,M,-29.746,M,0.0,*56
###2023-12-09 12:24:31.923327$GPGSA,A,3,03,16,25,26,28,29,31,32,,,,,1.3,0.8,1.1*3D
###2023-12-09 12:24:31.925050$GLGSA,A,3,71,73,75,,,,,,,,,,1.3,0.8,1.1*24
###2023-12-09 12:24:31.926738$GAGSA,A,3,04,21,27,,,,,,,,,,1.3,0.8,1.1*2B
###2023-12-09 12:24:31.928479$GBGSA,A,3,14,25,26,33,,,,,,,,,1.3,0.8,1.1*2C
###2023-12-09 12:24:31.930999$GPGSV,2,1,08,03,39,283,41,16,32,206,43,25,16,045,42,26,61,205,44*71
###2023-12-09 12:24:31.933526$GPGSV,2,2,08,28,61,050,43,29,24,079,45,31,73,344,37,32,34,131,46*7A
###2023-12-09 12:24:31.935758$GLGSV,1,1,03,71,63,167,47,73,53,030,47,75,18,237,43,,,,*5E
###2023-12-09 12:24:31.937973$GAGSV,1,1,03,04,17,310,36,21,73,180,46,27,45,051,46,,,,*50
###2023-12-09 12:24:31.940460$GBGSV,1,1,04,14,60,201,45,25,29,249,40,26,39,055,48,33,64,265,41*6D
###2023-12-09 12:24:31.941770$GNVTG,,T,,M,0.02,N,0.04,K,A*3B
###2023-12-09 12:24:31.943609$GNGST,172431.10,32.000,,,,0.100,0.100,0.220*55
###2023-12-09 12:24:31.945068$GNZDA,172431.10,09,12,2023,00,00*72
###2023-12-09 12:24:31.945880$GNEBP,,,,,,M*13
###2023-12-09 12:24:32.117002$GNGGA,172431.30,4138.0392655,N,07032.4365342,W,1,18,0.8,12.201,M,-29.746,M,0.0,*5A
###2023-12-09 12:24:32.317214$GNGGA,172431.50,4138.0392662,N,07032.4365388,W,1,18,0.8,12.183,M,-29.746,M,0.0,*57
###2023-12-09 12:24:32.517183$GNGGA,172431.70,4138.0392675,N,07032.4365434,W,1,18,0.8,12.165,M,-29.746,M,0.0,*5B
###2023-12-09 12:24:32.716275$GNGGA,172431.90,4138.0392675,N,07032.4365455,W,1,18,0.8,12.145,M,-29.746,M,0.0,*50
###2023-12-09 12:24:32.925302$GNRMC,172432.10,A,4138.0392675,N,07032.4365480,W,0.02,,091223,,,A*49
###2023-12-09 12:24:32.928377$GNGGA,172432.10,4138.0392675,N,07032.4365480,W,1,18,0.8,12.130,M,-29.746,M,0.0,*51
###2023-12-09 12:24:32.930413$GPGSA,A,3,03,16,25,26,28,29,31,32,,,,,1.3,0.8,1.1*3D
###2023-12-09 12:24:32.932127$GLGSA,A,3,71,73,75,,,,,,,,,,1.3,0.8,1.1*24
###2023-12-09 12:24:32.933810$GAGSA,A,3,04,21,27,,,,,,,,,,1.3,0.8,1.1*2B
###2023-12-09 12:24:32.935578$GBGSA,A,3,14,25,26,33,,,,,,,,,1.3,0.8,1.1*2C
###2023-12-09 12:24:32.938068$GPGSV,2,1,08,03,39,283,41,16,32,206,43,25,16,045,42,26,61,205,44*71
###2023-12-09 12:24:32.940573$GPGSV,2,2,08,28,61,050,43,29,24,079,45,31,73,344,36,32,34,131,47*7A
###2023-12-09 12:24:32.942789$GLGSV,1,1,03,71,63,167,47,73,53,030,47,75,18,237,43,,,,*5E
###2023-12-09 12:24:32.945018$GAGSV,1,1,03,04,17,310,36,21,73,180,46,27,45,051,47,,,,*51
###2023-12-09 12:24:32.947607$GBGSV,1,1,04,14,60,201,44,25,29,249,40,26,39,055,48,33,64,265,41*6C
###2023-12-09 12:24:32.948986$GNVTG,,T,,M,0.02,N,0.04,K,A*3B
###2023-12-09 12:24:32.950831$GNGST,172432.10,33.000,,,,0.100,0.100,0.220*57
###2023-12-09 12:24:32.952302$GNZDA,172432.10,09,12,2023,00,00*71
###2023-12-09 12:24:32.953116$GNEBP,,,,,,M*13
###2023-12-09 12:24:33.118160$GNGGA,172432.30,4138.0392678,N,07032.4365529,W,1,19,0.8,12.115,M,-29.746,M,0.0,*5A
###2023-12-09 12:24:33.317141$GNGGA,172432.50,4138.0392677,N,07032.4365539,W,1,19,0.8,12.105,M,-29.746,M,0.0,*53
###2023-12-09 12:24:33.517923$GNGGA,172432.70,4138.0392684,N,07032.4365576,W,1,19,0.8,12.087,M,-29.746,M,0.0,*5D
###2023-12-09 12:24:33.717214$GNGGA,172432.90,4138.0392687,N,07032.4365608,W,1,19,0.8,12.073,M,-29.746,M,0.0,*51
###2023-12-09 12:24:33.918084$GNRMC,172433.10,A,4138.0392696,N,07032.4365644,W,0.00,,091223,,,A*4D
###2023-12-09 12:24:33.921111$GNGGA,172433.10,4138.0392696,N,07032.4365644,W,1,19,0.8,12.055,M,-29.746,M,0.0,*54
###2023-12-09 12:24:33.923107$GPGSA,A,3,03,16,25,26,28,29,31,32,,,,,1.3,0.8,1.0*3C
###2023-12-09 12:24:33.924804$GLGSA,A,3,71,72,73,75,,,,,,,,,1.3,0.8,1.0*20
###2023-12-09 12:24:33.926434$GAGSA,A,3,04,21,27,,,,,,,,,,1.3,0.8,1.0*2A
