###2023-12-09 12:40:36.950807$GAGSA,A,3,04,19,21,27,,,,,,,,,1.2,0.7,1.0*2C
###2023-12-09 12:40:36.952483$GBGSA,A,3,14,24,25,26,33,,,,,,,,1.2,0.7,1.0*25
###2023-12-09 12:40:36.954841$GPGSV,2,1,08,03,38,274,44,04,24,311,42,16,39,208,42,26,69,207,46*71
###2023-12-09 12:40:36.957181$GPGSV,2,2,08,28,56,059,45,29,25,071,42,31,73,010,48,32,28,135,44*7E
###2023-12-09 12:40:36.959527$GLGSV,2,1,05,71,54,170,46,72,68,305,45,73,45,035,47,74,71,299,43*6C
###2023-12-09 12:40:36.960991$GLGSV,2,2,05,75,24,243,41,,,,,,,,,,,,*54
###2023-12-09 12:40:36.963332$GAGSV,1,1,04,04,23,311,41,19,83,293,41,21,80,172,46,27,40,049,44*60
###2023-12-09 12:40:36.965668$GBGSV,2,1,05,14,53,197,45,24,80,355,48,25,34,254,44,26,33,058,43*6C
###2023-12-09 12:40:36.967185$GBGSV,2,2,05,33,62,250,48,,,,,,,,,,,,*51
###2023-12-09 12:40:36.968511$GNVTG,198.23,T,,M,2.29,N,4.25,K,A*28
###2023-12-09 12:40:36.970154$GNGST,174036.10,19.000,,,,0.080,0.071,0.170*51
###2023-12-09 12:40:36.971456$GNZDA,174036.10,09,12,2023,00,00*77
###2023-12-09 12:40:36.972097$GNEBP,,,,,,M*13
###2023-12-09 12:40:37.141420$GNGGA,174036.30,4138.0574052,N,07032.3861566,W,1,23,0.7,13.559,M,-29.744,M,0.0,*56
###2023-12-09 12:40:37.341576$GNGGA,174036.50,4138.0572765,N,07032.3862518,W,1,23,0.7,13.580,M,-29.744,M,0.0,*5B
###2023-12-09 12:40:37.542137$GNGGA,174036.70,4138.0571365,N,07032.3863477,W,1,23,0.7,13.575,M,-29.744,M,0.0,*5D
###2023-12-09 12:40:37.741661$GNGGA,174036.90,4138.0569949,N,07032.3863961,W,1,23,0.7,13.550,M,-29.744,M,0.0,*53
###2023-12-09 12:40:37.942147$GNRMC,174037.10,A,4138.0568581,N,07032.3864119,W,2.49,185.94,091223,,,A*5F
###2023-12-09 12:40:37.945637$GNGGA,174037.10,4138.0568581,N,07032.3864119,W,1,23,0.7,13.542,M,-29.744,M,0.0,*50
###2023-12-09 12:40:37.947931$GPGSA,A,3,03,04,16,26,28,29,31,32,,,,,1.2,0.7,1.0*31
###2023-12-09 12:40:37.949959$GLGSA,A,3,71,72,73,74,75,,,,,,,,1.2,0.7,1.0*2D
###2023-12-09 12:40:37.951891$GAGSA,A,3,04,19,21,27,,,,,,,,,1.2,0.7,1.0*2C
###2023-12-09 12:40:37.953875$GBGSA,A,3,14,24,25,26,33,,,,,,,,1.2,0.7,1.0*25
###2023-12-09 12:40:37.956707$GPGSV,2,1,08,03,38,274,44,04,24,311,39,16,39,208,42,26,69,207,46*7D
###2023-12-09 12:40:37.959544$GPGSV,2,2,08,28,56,059,45,29,25,071,44,31,73,010,47,32,28,135,44*77
###2023-12-09 12:40:37.962355$GLGSV,2,1,05,71,54,170,46,72,68,305,45,73,45,035,48,74,71,299,42*62
###2023-12-09 12:40:37.964141$GLGSV,2,2,05,75,24,243,42,,,,,,,,,,,,*57
###2023-12-09 12:40:37.966953$GAGSV,1,1,04,04,23,311,38,19,83,293,40,21,80,172,46,27,40,049,43*68
###2023-12-09 12:40:37.969760$GBGSV,2,1,05,14,53,197,44,24,80,355,47,25,34,254,43,26,33,058,45*63
###2023-12-09 12:40:37.971607$GBGSV,2,2,05,33,62,250,47,,,,,,,,,,,,*5E
###2023-12-09 12:40:37.973214$GNVTG,185.94,T,,M,2.49,N,4.61,K,A*2E
###2023-12-09 12:40:37.975227$GNGST,174037.10,19.000,,,,0.080,0.071,0.170*50
###2023-12-09 12:40:37.976791$GNZDA,174037.10,09,12,2023,00,00*76
###2023-12-09 12:40:37.977560$GNEBP,,,,,,M*13
###2023-12-09 12:40:38.145752$GNGGA,174037.30,4138.0567090,N,07032.3864597,W,1,23,0.7,13.549,M,-29.744,M,0.0,*51
###2023-12-09 12:40:38.342131$GNGGA,174037.50,4138.0565492,N,07032.3865161,W,1,23,0.7,13.526,M,-29.744,M,0.0,*56
###2023-12-09 12:40:38.543564$GNGGA,174037.70,4138.0564034,N,07032.3865263,W,1,23,0.7,13.510,M,-29.744,M,0.0,*59
###2023-12-09 12:40:38.740640$GNGGA,174037.90,4138.0562560,N,07032.3865192,W,1,23,0.7,13.528,M,-29.744,M,0.0,*53
###2023-12-09 12:40:38.942391$GNRMC,174038.10,A,4138.0560937,N,07032.3865248,W,2.92,178.36,091223,,,A*53
###2023-12-09 12:40:38.945263$GNGGA,174038.10,4138.0560937,N,07032.3865248,W,1,23,0.7,13.523,M,-29.744,M,0.0,*57
###2023-12-09 12:40:38.947148$GPGSA,A,3,03,04,16,26,28,29,31,32,,,,,1.2,0.7,1.0*31
###2023-12-09 12:40:38.948811$GLGSA,A,3,71,72,73,74,75,,,,,,,,1.2,0.7,1.0*2D
###2023-12-09 12:40:38.950397$GAGSA,A,3,04,19,21,27,,,,,,,,,1.2,0.7,1.0*2C
###2023-12-09 12:40:38.952057$GBGSA,A,3,14,24,25,26,33,,,,,,,,1.2,0.7,1.0*25
###2023-12-09 12:40:38.954382$GPGSV,2,1,08,03,38,274,45,04,24,311,40,16,39,208,43,26,69,207,47*72
###2023-12-09 12:40:38.956734$GPGSV,2,2,08,28,56,059,45,29,25,071,43,31,73,010,47,32,28,135,41*75
###2023-12-09 12:40:38.959084$GLGSV,2,1,05,71,54,170,46,72,68,305,46,73,45,035,46,74,71,299,43*6E
###2023-12-09 12:40:38.960543$GLGSV,2,2,05,75,24,243,44,,,,,,,,,,,,*51
###2023-12-09 12:40:38.962931$GAGSV,1,1,04,04,23,311,40,19,83,293,40,21,80,172,46,27,40,049,44*60
###2023-12-09 12:40:38.965300$GBGSV,2,1,05,14,53,197,44,24,80,355,49,25,34,254,44,26,33,058,46*69
###2023-12-09 12:40:38.966772$GBGSV,2,2,05,33,62,250,48,,,,,,,,,,,,*51
###2023-12-09 12:40:38.968093$GNVTG,178.36,T,,M,2.92,N,5.40,K,A*20
###2023-12-09 12:40:38.969743$GNGST,174038.10,19.000,,,,0.081,0.071,0.170*5E
###2023-12-09 12:40:38.971046$GNZDA,174038.10,09,12,2023,00,00*79
###2023-12-09 12:40:38.971688$GNEBP,,,,,,M*13
###2023-12-09 12:40:39.141815$GNGGA,174038.30,4138.0559454,N,07032.3865033,W,1,23,0.7,13.493,M,-29.744,M,0.0,*53
###2023-12-09 12:40:39.341673$GNGGA,174038.50,4138.0557917,N,07032.3864760,W,1,23,0.7,13.509,M,-29.744,M,0.0,*53
###2023-12-09 12:40:39.542065$GNGGA,174038.70,4138.0556266,N,07032.3864517,W,1,23,0.7,13.520,M,-29.744,M,0.0,*54
###2023-12-09 12:40:39.742189$GNGGA,174038.90,4138.0554773,N,07032.3863906,W,1,23,0.7,13.510,M,-29.744,M,0.0,*51
###2023-12-09 12:40:39.939468$GNRMC,174039.10,A,4138.0553370,N,07032.3863052,W,2.82,156.58,091223,,,A*51
###2023-12-09 12:40:39.942324$GNGGA,174039.10,4138.0553370,N,07032.3863052,W,1,23,0.7,13.511,M,-29.744,M,0.0,*51
###2023-12-09 12:40:39.944189$GPGSA,A,3,03,04,16,26,28,29,31,32,,,,,1.2,0.7,1.0*31
###2023-12-09 12:40:39.945841$GLGSA,A,3,71,72,73,74,75,,,,,,,,1.2,0.7,1.0*2D
###2023-12-09 12:40:39.947487$GAGSA,A,3,04,19,21,27,,,,,,,,,1.2,0.7,1.0*2C
###2023-12-09 12:40:39.949148$GBGSA,A,3,14,24,25,26,33,,,,,,,,1.2,0.7,1.0*25
###2023-12-09 12:40:39.951488$GPGSV,2,1,08,03,38,274,45,04,24,311,41,16,39,208,43,26,69,207,48*7C
###2023-12-09 12:40:39.953817$GPGSV,2,2,08,28,56,059,46,29,25,071,44,31,73,010,47,32,28,135,42*72
###2023-12-09 12:40:39.956160$GLGSV,2,1,05,71,54,170,46,72,68,305,46,73,45,035,46,74,71,299,43*6E
###2023-12-09 12:40:39.957617$GLGSV,2,2,05,75,24,243,44,,,,,,,,,,,,*51
###2023-12-09 12:40:39.959958$GAGSV,1,1,04,04,23,311,41,19,83,293,40,21,80,172,46,27,40,049,44*61
###2023-12-09 12:40:39.962289$GBGSV,2,1,05,14,53,197,44,24,80,355,49,25,34,254,44,26,33,058,45*6A
###2023-12-09 12:40:39.963763$GBGSV,2,2,05,33,62,250,49,,,,,,,,,,,,*50
###2023-12-09 12:40:39.965085$GNVTG,156.58,T,,M,2.82,N,5.22,K,A*21
###2023-12-09 12:40:39.966743$GNGST,174039.10,19.000,,,,0.081,0.071,0.170*5F
###2023-12-09 12:40:39.968035$GNZDA,174039.10,09,12,2023,00,00*78
###2023-12-09 12:40:39.968673$GNEBP,,,,,,M*13
###2023-12-09 12:40:40.139230$GNGGA,174039.30,4138.0551888,N,07032.3862262,W,1,23,0.7,13.511,M,-29.744,M,0.0,*5D
###2023-12-09 12:40:40.340527$GNGGA,174039.50,4138.0550335,N,07032.3861404,W,1,23,0.7,13.516,M,-29.744,M,0.0,*55
###2023-12-09 12:40:40.538716$GNGGA,174039.70,4138.0548912,N,07032.3860425,W,1,23,0.7,13.511,M,-29.744,M,0.0,*54
###2023-12-09 12:40:40.738866$GNGGA,174039.90,4138.0547588,N,07032.3859253,W,1,23,0.7,13.524,M,-29.744,M,0.0,*51
###2023-12-09 12:40:40.941616$GNRMC,174040.10,A,4138.0546330,N,07032.3857931,W,2.82,138.62,091223,,,A*55
###2023-12-09 12:40:40.944482$GNGGA,174040.10,4138.0546330,N,07032.3857931,W,1,23,0.7,13.515,M,-29.744,M,0.0,*50
###2023-12-09 12:40:40.946347$GPGSA,A,3,03,04,16,26,28,29,31,32,,,,,1.2,0.7,1.0*31
###2023-12-09 12:40:40.948090$GLGSA,A,3,71,72,73,74,75,,,,,,,,1.2,0.7,1.0*2D
###2023-12-09 12:40:40.949704$GAGSA,A,3,04,19,21,27,,,,,,,,,1.2,0.7,1.0*2C
###2023-12-09 12:40:40.951374$GBGSA,A,3,14,24,25,26,33,,,,,,,,1.2,0.7,1.0*25
###2023-12-09 12:40:40.953707$GPGSV,2,1,08,03,38,274,44,04,24,311,40,16,39,208,44,26,69,207,48*7B
###2023-12-09 12:40:40.956050$GPGSV,2,2,08,28,56,059,44,29,25,071,44,31,73,010,47,32,28,135,42*70
###2023-12-09 12:40:40.958376$GLGSV,2,1,05,71,54,170,47,72,68,305,46,73,45,035,46,74,71,299,43*6F
###2023-12-09 12:40:40.959856$GLGSV,2,2,05,75,24,243,43,,,,,,,,,,,,*56
###2023-12-09 12:40:40.962177$GAGSV,1,1,04,04,23,311,41,19,83,293,40,21,80,172,46,27,40,049,43*66
###2023-12-09 12:40:40.964512$GBGSV,2,1,05,14,53,197,44,24,80,355,48,25,34,254,44,26,33,058,45*6B
###2023-12-09 12:40:40.966223$GBGSV,2,2,05,33,62,250,48,,,,,,,,,,,,*51
###2023-12-09 12:40:40.967571$GNVTG,138.62,T,,M,2.82,N,5.22,K,A*20
###2023-12-09 12:40:40.969222$GNGST,174040.10,19.000,,,,0.081,0.070,0.170*50
###2023-12-09 12:40:40.970520$GNZDA,174040.10,09,12,2023,00,00*76
###2023-12-09 12:40:40.971175$GNEBP,,,,,,M*13
###2023-12-09 12:40:41.138778$GNGGA,174040.30,4138.0545110,N,07032.3856570,W,1,23,0.7,13.510,M,-29.744,M,0.0,*5C
###2023-12-09 12:40:41.339851$GNGGA,174040.50,4138.0543858,N,07032.3855212,W,1,23,0.7,13.521,M,-29.744,M,0.0,*5B
###2023-12-09 12:40:41.540683$GNGGA,174040.70,4138.0542685,N,07032.3853706,W,1,23,0.7,13.536,M,-29.744,M,0.0,*56
