###2023-12-09 12:54:15.963017$GBGSA,A,3,14,24,25,26,33,,,,,,,,1.1,0.6,0.9*2F
###2023-12-09 12:54:15.965374$GPGSV,2,1,08,03,36,266,44,04,29,311,43,16,46,211,44,26,76,209,47*77
###2023-12-09 12:54:15.967720$GPGSV,2,2,08,28,52,067,45,29,25,064,43,31,70,029,48,32,22,138,45*7D
###2023-12-09 12:54:15.970044$GLGSV,2,1,06,65,20,328,42,71,45,172,46,72,72,285,46,73,39,039,46*64
###2023-12-09 12:54:15.971810$GLGSV,2,2,06,74,71,324,43,75,29,249,44,,,,,,,,*62
###2023-12-09 12:54:15.974131$GAGSV,1,1,04,04,27,312,41,19,85,242,40,21,84,148,46,27,35,048,44*62
###2023-12-09 12:54:15.976463$GBGSV,2,1,05,14,47,194,45,24,76,016,49,25,38,259,45,26,29,061,44*60
###2023-12-09 12:54:15.977920$GBGSV,2,2,05,33,60,238,47,,,,,,,,,,,,*52
###2023-12-09 12:54:15.979249$GNVTG,293.62,T,,M,0.06,N,0.11,K,A*29
###2023-12-09 12:54:15.980891$GNGST,175415.10,18.000,,,,0.075,0.066,0.150*5A
###2023-12-09 12:54:15.982175$GNZDA,175415.10,09,12,2023,00,00*73
###2023-12-09 12:54:15.982825$GNEBP,,,,,,M*13
###2023-12-09 12:54:16.152523$GNGGA,175415.30,4138.0607663,N,07032.3940719,W,1,24,0.6,13.646,M,-29.744,M,0.0,*52
###2023-12-09 12:54:16.354196$GNGGA,175415.50,4138.0607808,N,07032.3941193,W,1,24,0.6,13.647,M,-29.744,M,0.0,*53
###2023-12-09 12:54:16.554270$GNGGA,175415.70,4138.0607965,N,07032.3941610,W,1,24,0.6,13.645,M,-29.744,M,0.0,*55
###2023-12-09 12:54:16.753549$GNGGA,175415.90,4138.0607986,N,07032.3941729,W,1,24,0.6,13.633,M,-29.744,M,0.0,*5C
###2023-12-09 12:54:16.958678$GNRMC,175416.10,A,4138.0607934,N,07032.3941708,W,0.08,293.62,091223,,,A*5B
###2023-12-09 12:54:16.961523$GNGGA,175416.10,4138.0607934,N,07032.3941708,W,1,24,0.6,13.628,M,-29.744,M,0.0,*57
###2023-12-09 12:54:16.963380$GPGSA,A,3,03,04,16,26,28,29,31,32,,,,,1.1,0.6,0.9*3B
###2023-12-09 12:54:16.965085$GLGSA,A,3,65,71,72,73,74,75,,,,,,,1.1,0.6,0.9*24
###2023-12-09 12:54:16.966674$GAGSA,A,3,04,19,21,27,,,,,,,,,1.1,0.6,0.9*26
###2023-12-09 12:54:16.968312$GBGSA,A,3,14,24,25,26,33,,,,,,,,1.1,0.6,0.9*2F
###2023-12-09 12:54:16.970638$GPGSV,2,1,08,03,36,266,44,04,29,311,42,16,46,211,44,26,76,209,48*79
###2023-12-09 12:54:16.972962$GPGSV,2,2,08,28,52,067,45,29,25,064,43,31,70,029,48,32,22,138,46*7E
###2023-12-09 12:54:16.975294$GLGSV,2,1,06,65,20,328,40,71,45,172,47,72,72,285,45,73,39,039,47*65
###2023-12-09 12:54:16.977032$GLGSV,2,2,06,74,71,324,43,75,29,249,42,,,,,,,,*64
###2023-12-09 12:54:16.979361$GAGSV,1,1,04,04,27,312,42,19,85,242,41,21,84,148,47,27,35,048,45*60
###2023-12-09 12:54:16.981684$GBGSV,2,1,05,14,47,194,45,24,76,016,49,25,38,259,45,26,29,061,44*60
###2023-12-09 12:54:16.983143$GBGSV,2,2,05,33,60,238,47,,,,,,,,,,,,*52
###2023-12-09 12:54:16.984465$GNVTG,293.62,T,,M,0.08,N,0.14,K,A*22
###2023-12-09 12:54:16.986106$GNGST,175416.10,18.000,,,,0.075,0.066,0.150*59
###2023-12-09 12:54:16.987399$GNZDA,175416.10,09,12,2023,00,00*70
###2023-12-09 12:54:16.988036$GNEBP,,,,,,M*13
###2023-12-09 12:54:17.154504$GNGGA,175416.30,4138.0607960,N,07032.3941867,W,1,24,0.6,13.632,M,-29.744,M,0.0,*59
###2023-12-09 12:54:17.354217$GNGGA,175416.50,4138.0608180,N,07032.3942387,W,1,24,0.6,13.650,M,-29.744,M,0.0,*54
###2023-12-09 12:54:17.555366$GNGGA,175416.70,4138.0608406,N,07032.3942926,W,1,24,0.6,13.652,M,-29.744,M,0.0,*5E
###2023-12-09 12:54:17.754213$GNGGA,175416.90,4138.0608394,N,07032.3942942,W,1,24,0.6,13.635,M,-29.744,M,0.0,*5F
###2023-12-09 12:54:17.959787$GNRMC,175417.10,A,4138.0608276,N,07032.3942734,W,0.16,293.62,091223,,,A*5B
###2023-12-09 12:54:17.963267$GNGGA,175417.10,4138.0608276,N,07032.3942734,W,1,24,0.6,13.596,M,-29.744,M,0.0,*5E
###2023-12-09 12:54:17.965510$GPGSA,A,3,03,04,16,26,28,29,31,32,,,,,1.1,0.6,0.9*3B
###2023-12-09 12:54:17.967647$GLGSA,A,3,65,71,72,73,74,75,,,,,,,1.1,0.6,0.9*24
###2023-12-09 12:54:17.969567$GAGSA,A,3,04,19,21,27,,,,,,,,,1.1,0.6,0.9*26
###2023-12-09 12:54:17.971555$GBGSA,A,3,14,24,25,26,33,,,,,,,,1.1,0.6,0.9*2F
###2023-12-09 12:54:17.974365$GPGSV,2,1,08,03,36,266,42,04,29,311,40,16,46,211,43,26,76,209,48*7A
###2023-12-09 12:54:17.977198$GPGSV,2,2,08,28,52,067,46,29,25,064,44,31,70,029,47,32,22,138,46*75
###2023-12-09 12:54:17.980022$GLGSV,2,1,06,65,20,328,36,71,45,172,47,72,72,285,45,73,39,039,47*64
###2023-12-09 12:54:17.982136$GLGSV,2,2,06,74,71,324,43,75,29,249,40,,,,,,,,*66
###2023-12-09 12:54:17.984951$GAGSV,1,1,04,04,27,312,40,19,85,242,40,21,84,148,46,27,35,048,44*63
###2023-12-09 12:54:17.987778$GBGSV,2,1,05,14,47,194,45,24,76,016,49,25,38,259,43,26,29,061,44*66
###2023-12-09 12:54:17.989534$GBGSV,2,2,05,33,60,238,46,,,,,,,,,,,,*53
###2023-12-09 12:54:17.991147$GNVTG,293.62,T,,M,0.16,N,0.29,K,A*23
###2023-12-09 12:54:17.993139$GNGST,175417.10,19.000,,,,0.075,0.066,0.150*59
###2023-12-09 12:54:17.994703$GNZDA,175417.10,09,12,2023,00,00*71
###2023-12-09 12:54:17.995471$GNEBP,,,,,,M*13
###2023-12-09 12:54:18.155173$GNGGA,175417.30,4138.0608420,N,07032.3943108,W,1,24,0.6,13.608,M,-29.744,M,0.0,*55
###2023-12-09 12:54:18.356006$GNGGA,175417.50,4138.0608740,N,07032.3943902,W,1,24,0.6,13.636,M,-29.744,M,0.0,*59
###2023-12-09 12:54:18.556006$GNGGA,175417.70,4138.0608901,N,07032.3944250,W,1,24,0.6,13.640,M,-29.744,M,0.0,*5A
###2023-12-09 12:54:18.756111$GNGGA,175417.90,4138.0608794,N,07032.3944005,W,1,24,0.6,13.627,M,-29.744,M,0.0,*55
###2023-12-09 12:54:18.956371$GNRMC,175418.10,A,4138.0608773,N,07032.3943910,W,0.45,300.07,091223,,,A*53
###2023-12-09 12:54:18.959906$GNGGA,175418.10,4138.0608773,N,07032.3943910,W,1,24,0.6,13.585,M,-29.744,M,0.0,*5A
###2023-12-09 12:54:18.962150$GPGSA,A,3,03,04,16,26,28,29,31,32,,,,,1.1,0.6,0.9*3B
###2023-12-09 12:54:18.964235$GLGSA,A,3,65,71,72,73,74,75,,,,,,,1.1,0.6,0.9*24
###2023-12-09 12:54:18.966141$GAGSA,A,3,04,19,21,27,,,,,,,,,1.1,0.6,0.9*26
###2023-12-09 12:54:18.968146$GBGSA,A,3,14,24,25,26,33,,,,,,,,1.1,0.6,0.9*2F
###2023-12-09 12:54:18.970970$GPGSV,2,1,08,03,36,266,39,04,29,311,35,16,46,211,42,26,76,209,46*7B
###2023-12-09 12:54:18.973780$GPGSV,2,2,08,28,52,067,44,29,25,064,42,31,70,029,46,32,22,138,44*72
###2023-12-09 12:54:18.976662$GLGSV,2,1,06,65,20,328,35,71,45,172,47,72,72,285,44,73,39,039,47*66
###2023-12-09 12:54:18.978777$GLGSV,2,2,06,74,71,324,43,75,29,249,40,,,,,,,,*66
###2023-12-09 12:54:18.981564$GAGSV,1,1,04,04,27,312,35,19,85,242,39,21,84,148,45,27,35,048,43*6B
###2023-12-09 12:54:18.984376$GBGSV,2,1,05,14,47,194,44,24,76,016,48,25,38,259,44,26,29,061,45*60
###2023-12-09 12:54:18.986121$GBGSV,2,2,05,33,60,238,45,,,,,,,,,,,,*50
###2023-12-09 12:54:18.987713$GNVTG,300.07,T,,M,0.45,N,0.83,K,A*2D
###2023-12-09 12:54:18.989685$GNGST,175418.10,19.000,,,,0.076,0.067,0.160*57
###2023-12-09 12:54:18.991286$GNZDA,175418.10,09,12,2023,00,00*7E
###2023-12-09 12:54:18.992064$GNEBP,,,,,,M*13
###2023-12-09 12:54:19.155872$GNGGA,175418.30,4138.0609018,N,07032.3944541,W,1,24,0.6,13.598,M,-29.744,M,0.0,*50
###2023-12-09 12:54:19.356078$GNGGA,175418.50,4138.0609273,N,07032.3945205,W,1,24,0.6,13.605,M,-29.744,M,0.0,*58
###2023-12-09 12:54:19.555040$GNGGA,175418.70,4138.0609331,N,07032.3945348,W,1,24,0.6,13.615,M,-29.744,M,0.0,*54
###2023-12-09 12:54:19.756164$GNGGA,175418.90,4138.0609269,N,07032.3945141,W,1,24,0.6,13.611,M,-29.744,M,0.0,*59
###2023-12-09 12:54:19.957253$GNRMC,175419.10,A,4138.0609309,N,07032.3945156,W,0.45,295.35,091223,,,A*5A
###2023-12-09 12:54:19.960720$GNGGA,175419.10,4138.0609309,N,07032.3945156,W,1,24,0.6,13.573,M,-29.744,M,0.0,*56
###2023-12-09 12:54:19.962979$GPGSA,A,3,03,04,16,26,28,29,31,32,,,,,1.1,0.6,0.9*3B
###2023-12-09 12:54:19.965041$GLGSA,A,3,65,71,72,73,74,75,,,,,,,1.1,0.6,0.9*24
###2023-12-09 12:54:19.967007$GAGSA,A,3,04,19,21,27,,,,,,,,,1.1,0.6,0.9*26
###2023-12-09 12:54:19.969004$GBGSA,A,3,14,24,25,26,33,,,,,,,,1.1,0.6,0.9*2F
###2023-12-09 12:54:19.971820$GPGSV,2,1,08,03,36,266,40,04,29,311,37,16,46,211,42,26,76,209,46*77
###2023-12-09 12:54:19.974657$GPGSV,2,2,08,28,52,067,45,29,25,064,43,31,70,029,46,32,22,138,45*73
###2023-12-09 12:54:19.977468$GLGSV,2,1,06,65,20,328,36,71,45,172,47,72,72,285,45,73,39,039,46*65
###2023-12-09 12:54:19.979612$GLGSV,2,2,06,74,71,324,42,75,29,249,39,,,,,,,,*69
###2023-12-09 12:54:19.982407$GAGSV,1,1,04,04,27,312,37,19,85,242,40,21,84,148,46,27,35,048,44*63
###2023-12-09 12:54:19.985219$GBGSV,2,1,05,14,47,194,44,24,76,016,48,25,38,259,44,26,29,061,44*61
###2023-12-09 12:54:19.987297$GBGSV,2,2,05,33,60,238,45,,,,,,,,,,,,*50
###2023-12-09 12:54:19.988912$GNVTG,295.35,T,,M,0.45,N,0.83,K,A*21
###2023-12-09 12:54:19.990918$GNGST,175419.10,18.000,,,,0.077,0.068,0.160*59
###2023-12-09 12:54:19.992485$GNZDA,175419.10,09,12,2023,00,00*7F
###2023-12-09 12:54:19.993260$GNEBP,,,,,,M*13
###2023-12-09 12:54:20.155899$GNGGA,175419.30,4138.0609554,N,07032.3945762,W,1,24,0.6,13.581,M,-29.744,M,0.0,*56
###2023-12-09 12:54:20.357112$GNGGA,175419.50,4138.0609787,N,07032.3946403,W,1,24,0.6,13.588,M,-29.744,M,0.0,*52
###2023-12-09 12:54:20.556804$GNGGA,175419.70,4138.0609815,N,07032.3946483,W,1,24,0.6,13.593,M,-29.744,M,0.0,*56
###2023-12-09 12:54:20.758132$GNGGA,175419.90,4138.0609738,N,07032.3946256,W,1,24,0.6,13.576,M,-29.744,M,0.0,*5D
