###2023-12-09 13:18:18.991965$GPGSA,A,3,03,04,16,26,28,29,31,,,,,,1.2,0.7,0.9*38
###2023-12-09 13:18:18.993700$GLGSA,A,3,65,71,72,73,74,75,,,,,,,1.2,0.7,0.9*26
###2023-12-09 13:18:18.995301$GAGSA,A,3,04,19,21,27,,,,,,,,,1.2,0.7,0.9*24
###2023-12-09 13:18:18.997014$GBGSA,A,3,14,24,25,26,33,35,,,,,,,1.2,0.7,0.9*2B
###2023-12-09 13:18:18.999350$GPGSV,2,1,07,03,31,253,41,04,39,310,42,16,58,216,45,26,88,205,48*76
###2023-12-09 13:18:19.001377$GPGSV,2,2,07,28,43,078,46,29,23,053,43,31,64,053,47,,,,*40
###2023-12-09 13:18:19.003711$GLGSV,2,1,06,65,31,324,41,71,32,174,44,72,70,240,45,73,29,047,45*6C
###2023-12-09 13:18:19.005449$GLGSV,2,2,06,74,65,358,42,75,38,261,45,,,,,,,,*66
###2023-12-09 13:18:19.007792$GAGSV,1,1,04,04,34,311,41,19,78,188,40,21,82,059,46,27,27,049,42*67
###2023-12-09 13:18:19.010112$GBGSV,2,1,06,14,36,191,44,24,68,036,49,25,45,268,45,26,21,066,42*6D
###2023-12-09 13:18:19.011868$GBGSV,2,2,06,33,52,224,47,35,16,063,43,,,,,,,,*6E
###2023-12-09 13:18:19.013185$GNVTG,283.71,T,,M,3.29,N,6.08,K,A*2A
###2023-12-09 13:18:19.014833$GNGST,181818.10,18.000,,,,0.098,0.072,0.170*54
###2023-12-09 13:18:19.016121$GNZDA,181818.10,09,12,2023,00,00*79
###2023-12-09 13:18:19.016755$GNEBP,,,,,,M*13
###2023-12-09 13:18:19.182737$GNGGA,181818.30,4138.0178674,N,07032.3068636,W,1,24,0.7,13.005,M,-29.745,M,0.0,*5F
###2023-12-09 13:18:19.383132$GNGGA,181818.50,4138.0179301,N,07032.3070855,W,1,24,0.7,12.999,M,-29.745,M,0.0,*50
###2023-12-09 13:18:19.581952$GNGGA,181818.70,4138.0180147,N,07032.3072876,W,1,24,0.7,13.009,M,-29.745,M,0.0,*56
###2023-12-09 13:18:19.782292$GNGGA,181818.90,4138.0181143,N,07032.3074799,W,1,24,0.7,13.013,M,-29.745,M,0.0,*5E
###2023-12-09 13:18:19.987348$GNRMC,181819.10,A,4138.0182198,N,07032.3076706,W,3.27,307.05,091223,,,A*57
###2023-12-09 13:18:19.990187$GNGGA,181819.10,4138.0182198,N,07032.3076706,W,1,24,0.7,13.015,M,-29.745,M,0.0,*50
###2023-12-09 13:18:19.991986$GPGSA,A,3,03,04,16,26,28,29,31,,,,,,1.2,0.7,0.9*38
###2023-12-09 13:18:19.993700$GLGSA,A,3,65,71,72,73,74,75,,,,,,,1.2,0.7,0.9*26
###2023-12-09 13:18:19.995294$GAGSA,A,3,04,19,21,27,,,,,,,,,1.2,0.7,0.9*24
###2023-12-09 13:18:19.997002$GBGSA,A,3,14,24,25,26,33,35,,,,,,,1.2,0.7,0.9*2B
###2023-12-09 13:18:19.999331$GPGSV,2,1,07,03,31,253,43,04,39,310,42,16,58,216,46,26,88,205,48*77
###2023-12-09 13:18:20.001374$GPGSV,2,2,07,28,43,078,45,29,23,053,42,31,64,053,47,,,,*42
###2023-12-09 13:18:20.003707$GLGSV,2,1,06,65,31,324,40,71,32,174,44,72,70,240,46,73,29,047,45*6E
###2023-12-09 13:18:20.005447$GLGSV,2,2,06,74,65,358,42,75,38,261,46,,,,,,,,*65
###2023-12-09 13:18:20.007774$GAGSV,1,1,04,04,34,311,42,19,78,188,41,21,82,059,46,27,27,049,42*65
###2023-12-09 13:18:20.010098$GBGSV,2,1,06,14,36,191,43,24,68,036,49,25,45,268,47,26,21,066,42*68
###2023-12-09 13:18:20.011846$GBGSV,2,2,06,33,52,224,49,35,16,063,42,,,,,,,,*61
###2023-12-09 13:18:20.013165$GNVTG,307.05,T,,M,3.27,N,6.05,K,A*27
###2023-12-09 13:18:20.014816$GNGST,181819.10,18.000,,,,0.098,0.072,0.170*55
###2023-12-09 13:18:20.016102$GNZDA,181819.10,09,12,2023,00,00*78
###2023-12-09 13:18:20.016739$GNEBP,,,,,,M*13
###2023-12-09 13:18:20.182390$GNGGA,181819.30,4138.0183278,N,07032.3078676,W,1,24,0.7,13.020,M,-29.745,M,0.0,*50
###2023-12-09 13:18:20.384107$GNGGA,181819.50,4138.0184394,N,07032.3080634,W,1,24,0.7,13.025,M,-29.745,M,0.0,*56
###2023-12-09 13:18:20.583038$GNGGA,181819.70,4138.0185522,N,07032.3082587,W,1,24,0.7,13.025,M,-29.745,M,0.0,*57
###2023-12-09 13:18:20.782940$GNGGA,181819.90,4138.0186714,N,07032.3084520,W,1,24,0.7,13.027,M,-29.745,M,0.0,*54
###2023-12-09 13:18:20.991369$GNRMC,181820.10,A,4138.0187977,N,07032.3086409,W,3.40,314.09,091223,,,A*5D
###2023-12-09 13:18:20.994214$GNGGA,181820.10,4138.0187977,N,07032.3086409,W,1,24,0.7,13.028,M,-29.745,M,0.0,*5B
###2023-12-09 13:18:20.996010$GPGSA,A,3,03,04,16,26,28,29,31,,,,,,1.2,0.7,0.9*38
###2023-12-09 13:18:20.997717$GLGSA,A,3,65,71,72,73,74,75,,,,,,,1.2,0.7,0.9*26
###2023-12-09 13:18:20.999299$GAGSA,A,3,04,19,21,27,,,,,,,,,1.2,0.7,0.9*24
###2023-12-09 13:18:21.000996$GBGSA,A,3,14,24,25,26,33,35,,,,,,,1.2,0.7,0.9*2B
###2023-12-09 13:18:21.003323$GPGSV,2,1,07,03,31,253,43,04,39,310,40,16,58,216,46,26,88,205,48*75
###2023-12-09 13:18:21.005349$GPGSV,2,2,07,28,43,078,45,29,23,053,42,31,64,053,47,,,,*42
###2023-12-09 13:18:21.007668$GLGSV,2,1,06,65,31,324,41,71,32,174,44,72,70,240,46,73,29,047,45*6F
###2023-12-09 13:18:21.009404$GLGSV,2,2,06,74,65,358,41,75,38,261,47,,,,,,,,*67
###2023-12-09 13:18:21.011726$GAGSV,1,1,04,04,34,311,42,19,78,188,40,21,82,059,46,27,27,049,42*64
###2023-12-09 13:18:21.014040$GBGSV,2,1,06,14,36,191,42,24,68,036,49,25,45,268,47,26,21,066,43*68
###2023-12-09 13:18:21.015783$GBGSV,2,2,06,33,52,224,48,35,16,063,43,,,,,,,,*61
###2023-12-09 13:18:21.017095$GNVTG,314.09,T,,M,3.40,N,6.30,K,A*2E
###2023-12-09 13:18:21.018738$GNGST,181820.10,18.000,,,,0.098,0.072,0.170*5F
###2023-12-09 13:18:21.020018$GNZDA,181820.10,09,12,2023,00,00*72
###2023-12-09 13:18:21.020650$GNEBP,,,,,,M*13
###2023-12-09 13:18:21.183964$GNGGA,181820.30,4138.0189330,N,07032.3088179,W,1,24,0.7,13.027,M,-29.745,M,0.0,*5D
###2023-12-09 13:18:21.381575$GNGGA,181820.50,4138.0190745,N,07032.3089894,W,1,24,0.7,13.037,M,-29.745,M,0.0,*5F
###2023-12-09 13:18:21.581640$GNGGA,181820.70,4138.0192212,N,07032.3091534,W,1,24,0.7,13.037,M,-29.745,M,0.0,*56
###2023-12-09 13:18:21.784357$GNGGA,181820.90,4138.0193747,N,07032.3093076,W,1,24,0.7,13.037,M,-29.745,M,0.0,*5D
###2023-12-09 13:18:21.985623$GNRMC,181821.10,A,4138.0195282,N,07032.3094598,W,3.52,323.29,091223,,,A*51
###2023-12-09 13:18:21.988484$GNGGA,181821.10,4138.0195282,N,07032.3094598,W,1,24,0.7,13.037,M,-29.745,M,0.0,*5C
###2023-12-09 13:18:21.990301$GPGSA,A,3,03,04,16,26,28,29,31,,,,,,1.2,0.7,0.9*38
###2023-12-09 13:18:21.992023$GLGSA,A,3,65,71,72,73,74,75,,,,,,,1.2,0.7,0.9*26
###2023-12-09 13:18:21.993600$GAGSA,A,3,04,19,21,27,,,,,,,,,1.2,0.7,0.9*24
###2023-12-09 13:18:21.995312$GBGSA,A,3,14,24,25,26,33,35,,,,,,,1.2,0.7,0.9*2B
###2023-12-09 13:18:21.997628$GPGSV,2,1,07,03,31,253,42,04,39,310,41,16,58,216,46,26,88,205,48*75
###2023-12-09 13:18:21.999667$GPGSV,2,2,07,28,43,078,46,29,23,053,44,31,64,053,47,,,,*47
###2023-12-09 13:18:22.001988$GLGSV,2,1,06,65,31,324,41,71,32,174,45,72,70,240,47,73,29,047,43*69
###2023-12-09 13:18:22.003742$GLGSV,2,2,06,74,65,358,41,75,38,261,47,,,,,,,,*67
###2023-12-09 13:18:22.006062$GAGSV,1,1,04,04,34,311,41,19,78,188,41,21,82,059,46,27,27,049,42*66
###2023-12-09 13:18:22.008392$GBGSV,2,1,06,14,35,191,43,24,68,036,49,25,45,268,48,26,21,066,43*65
###2023-12-09 13:18:22.010134$GBGSV,2,2,06,33,52,224,47,35,16,063,43,,,,,,,,*6E
###2023-12-09 13:18:22.011460$GNVTG,323.29,T,,M,3.52,N,6.52,K,A*2F
###2023-12-09 13:18:22.013098$GNGST,181821.10,18.000,,,,0.098,0.071,0.170*5D
###2023-12-09 13:18:22.014385$GNZDA,181821.10,09,12,2023,00,00*73
###2023-12-09 13:18:22.015030$GNEBP,,,,,,M*13
###2023-12-09 13:18:22.181398$GNGGA,181821.30,4138.0196848,N,07032.3096087,W,1,24,0.7,13.043,M,-29.745,M,0.0,*5B
###2023-12-09 13:18:22.382095$GNGGA,181821.50,4138.0198468,N,07032.3097523,W,1,24,0.7,13.043,M,-29.745,M,0.0,*57
###2023-12-09 13:18:22.581859$GNGGA,181821.70,4138.0200151,N,07032.3098861,W,1,24,0.7,13.043,M,-29.744,M,0.0,*5D
###2023-12-09 13:18:22.781738$GNGGA,181821.90,4138.0201855,N,07032.3100195,W,1,24,0.7,13.049,M,-29.744,M,0.0,*57
###2023-12-09 13:18:22.986639$GNRMC,181822.10,A,4138.0203593,N,07032.3101562,W,3.62,329.53,091223,,,A*55
###2023-12-09 13:18:22.989495$GNGGA,181822.10,4138.0203593,N,07032.3101562,W,1,24,0.7,13.053,M,-29.744,M,0.0,*5F
###2023-12-09 13:18:22.991294$GPGSA,A,3,03,04,16,26,28,29,31,,,,,,1.2,0.7,0.9*38
###2023-12-09 13:18:22.993000$GLGSA,A,3,65,71,72,73,74,75,,,,,,,1.2,0.7,0.9*26
###2023-12-09 13:18:22.994583$GAGSA,A,3,04,19,21,27,,,,,,,,,1.2,0.7,0.9*24
###2023-12-09 13:18:22.996289$GBGSA,A,3,14,24,25,26,33,35,,,,,,,1.2,0.7,0.9*2B
###2023-12-09 13:18:22.998614$GPGSV,2,1,07,03,31,253,43,04,39,310,42,16,58,216,47,26,88,205,48*76
###2023-12-09 13:18:23.000639$GPGSV,2,2,07,28,43,078,46,29,23,053,42,31,64,053,47,,,,*41
###2023-12-09 13:18:23.002961$GLGSV,2,1,06,65,31,324,41,71,32,174,46,72,70,240,46,73,29,047,43*6B
###2023-12-09 13:18:23.004929$GLGSV,2,2,06,74,65,358,42,75,38,261,45,,,,,,,,*66
###2023-12-09 13:18:23.007267$GAGSV,1,1,04,04,34,311,40,19,78,188,41,21,82,059,46,27,27,049,40*65
###2023-12-09 13:18:23.009589$GBGSV,2,1,06,14,35,191,42,24,68,036,49,25,45,268,47,26,21,066,43*6B
###2023-12-09 13:18:23.011347$GBGSV,2,2,06,33,52,224,47,35,16,063,42,,,,,,,,*6F
###2023-12-09 13:18:23.012668$GNVTG,329.53,T,,M,3.62,N,6.70,K,A*2B
###2023-12-09 13:18:23.014311$GNGST,181822.10,18.000,,,,0.098,0.071,0.170*5E
###2023-12-09 13:18:23.015606$GNZDA,181822.10,09,12,2023,00,00*70
###2023-12-09 13:18:23.016244$GNEBP,,,,,,M*13
###2023-12-09 13:18:23.181123$GNGGA,181822.30,4138.0205383,N,07032.3102847,W,1,24,0.7,13.055,M,-29.744,M,0.0,*53
