###2023-12-09 13:00:12.985839$GLGSV,2,1,06,65,24,327,37,71,41,173,47,72,73,271,45,73,36,041,46*60
###2023-12-09 13:00:12.988032$GLGSV,2,2,06,74,70,336,42,75,32,252,45,,,,,,,,*60
###2023-12-09 13:00:12.990872$GAGSV,1,1,04,04,29,312,40,19,84,219,40,21,86,124,46,27,33,048,42*6A
###2023-12-09 13:00:12.993705$GBGSV,2,1,05,14,44,193,45,24,74,022,48,25,40,261,46,26,27,062,42*6C
###2023-12-09 13:00:12.995482$GBGSV,2,2,05,33,58,234,46,,,,,,,,,,,,*54
###2023-12-09 13:00:12.997084$GNVTG,296.55,T,,M,3.34,N,6.19,K,A*24
###2023-12-09 13:00:12.999160$GNGST,180012.10,18.000,,,,0.081,0.070,0.160*5C
###2023-12-09 13:00:13.000733$GNZDA,180012.10,09,12,2023,00,00*7A
###2023-12-09 13:00:13.001500$GNEBP,,,,,,M*13
###2023-12-09 13:00:13.161854$GNGGA,180012.30,4138.0213874,N,07032.3182174,W,1,24,0.6,13.070,M,-29.745,M,0.0,*5B
###2023-12-09 13:00:13.362337$GNGGA,180012.50,4138.0214802,N,07032.3184293,W,1,24,0.6,13.066,M,-29.745,M,0.0,*50
###2023-12-09 13:00:13.561796$GNGGA,180012.70,4138.0215756,N,07032.3186408,W,1,24,0.6,13.070,M,-29.745,M,0.0,*5C
###2023-12-09 13:00:13.761240$GNGGA,180012.90,4138.0216780,N,07032.3188462,W,1,24,0.6,13.073,M,-29.745,M,0.0,*5B
###2023-12-09 13:00:13.962487$GNRMC,180013.10,A,4138.0217892,N,07032.3190413,W,3.27,310.02,091223,,,A*57
###2023-12-09 13:00:13.965957$GNGGA,180013.10,4138.0217892,N,07032.3190413,W,1,24,0.6,13.074,M,-29.745,M,0.0,*57
###2023-12-09 13:00:13.968219$GPGSA,A,3,03,04,16,26,28,29,31,32,,,,,1.1,0.6,0.9*3B
###2023-12-09 13:00:13.970286$GLGSA,A,3,65,71,72,73,74,75,,,,,,,1.1,0.6,0.9*24
###2023-12-09 13:00:13.972211$GAGSA,A,3,04,19,21,27,,,,,,,,,1.1,0.6,0.9*26
###2023-12-09 13:00:13.974204$GBGSA,A,3,14,24,25,26,33,,,,,,,,1.1,0.6,0.9*2F
###2023-12-09 13:00:13.977026$GPGSV,2,1,08,03,35,262,44,04,32,311,43,16,49,212,46,26,79,210,47*73
###2023-12-09 13:00:13.979854$GPGSV,2,2,08,28,49,070,46,29,25,061,42,31,69,036,48,32,19,140,44*76
###2023-12-09 13:00:13.982688$GLGSV,2,1,06,65,24,327,39,71,41,173,46,72,73,271,46,73,36,041,46*6C
###2023-12-09 13:00:13.984783$GLGSV,2,2,06,74,70,336,42,75,32,252,45,,,,,,,,*60
###2023-12-09 13:00:13.987596$GAGSV,1,1,04,04,29,312,40,19,84,219,40,21,86,124,46,27,33,048,43*6B
###2023-12-09 13:00:13.990400$GBGSV,2,1,05,14,44,193,45,24,74,022,49,25,40,261,45,26,27,062,42*6E
###2023-12-09 13:00:13.992199$GBGSV,2,2,05,33,58,234,48,,,,,,,,,,,,*5A
###2023-12-09 13:00:13.993792$GNVTG,310.02,T,,M,3.27,N,6.05,K,A*26
###2023-12-09 13:00:13.995795$GNGST,180013.10,18.000,,,,0.081,0.069,0.160*55
###2023-12-09 13:00:13.997357$GNZDA,180013.10,09,12,2023,00,00*7B
###2023-12-09 13:00:13.998123$GNEBP,,,,,,M*13
###2023-12-09 13:00:14.159878$GNGGA,180013.30,4138.0219125,N,07032.3192189,W,1,24,0.6,13.075,M,-29.745,M,0.0,*5B
###2023-12-09 13:00:14.362887$GNGGA,180013.50,4138.0220382,N,07032.3193902,W,1,24,0.6,13.077,M,-29.745,M,0.0,*50
###2023-12-09 13:00:14.561832$GNGGA,180013.70,4138.0221617,N,07032.3195581,W,1,24,0.6,13.077,M,-29.745,M,0.0,*5B
###2023-12-09 13:00:14.761661$GNGGA,180013.90,4138.0222914,N,07032.3197135,W,1,24,0.6,13.078,M,-29.745,M,0.0,*5C
###2023-12-09 13:00:14.962678$GNRMC,180014.10,A,4138.0224315,N,07032.3198486,W,3.05,326.93,091223,,,A*5D
###2023-12-09 13:00:14.966154$GNGGA,180014.10,4138.0224315,N,07032.3198486,W,1,24,0.6,13.081,M,-29.745,M,0.0,*5A
###2023-12-09 13:00:14.968437$GPGSA,A,3,03,04,16,26,28,29,31,32,,,,,1.1,0.6,0.9*3B
###2023-12-09 13:00:14.970500$GLGSA,A,3,65,71,72,73,74,75,,,,,,,1.1,0.6,0.9*24
###2023-12-09 13:00:14.972423$GAGSA,A,3,04,19,21,27,,,,,,,,,1.1,0.6,0.9*26
###2023-12-09 13:00:14.974402$GBGSA,A,3,14,24,25,26,33,,,,,,,,1.1,0.6,0.9*2F
###2023-12-09 13:00:14.977236$GPGSV,2,1,08,03,35,262,43,04,32,311,40,16,49,212,46,26,79,210,48*78
###2023-12-09 13:00:14.980067$GPGSV,2,2,08,28,49,070,46,29,25,061,43,31,69,036,47,32,19,140,45*79
###2023-12-09 13:00:14.982944$GLGSV,2,1,06,65,24,327,39,71,41,173,45,72,73,271,45,73,36,041,45*6F
###2023-12-09 13:00:14.985086$GLGSV,2,2,06,74,70,336,41,75,32,252,46,,,,,,,,*60
###2023-12-09 13:00:14.987901$GAGSV,1,1,04,04,29,312,40,19,84,219,40,21,86,124,46,27,33,048,43*6B
###2023-12-09 13:00:14.990717$GBGSV,2,1,05,14,44,193,45,24,74,022,48,25,40,261,46,26,27,062,44*6A
###2023-12-09 13:00:14.992476$GBGSV,2,2,05,33,58,234,48,,,,,,,,,,,,*5A
###2023-12-09 13:00:14.994069$GNVTG,326.93,T,,M,3.05,N,5.65,K,A*2E
###2023-12-09 13:00:14.996057$GNGST,180014.10,18.000,,,,0.081,0.068,0.160*53
###2023-12-09 13:00:14.997612$GNZDA,180014.10,09,12,2023,00,00*7C
###2023-12-09 13:00:14.998380$GNEBP,,,,,,M*13
###2023-12-09 13:00:15.162251$GNGGA,180014.30,4138.0225771,N,07032.3199665,W,1,24,0.6,13.082,M,-29.745,M,0.0,*52
###2023-12-09 13:00:15.360714$GNGGA,180014.50,4138.0227229,N,07032.3200763,W,1,24,0.6,13.087,M,-29.745,M,0.0,*5F
###2023-12-09 13:00:15.560104$GNGGA,180014.70,4138.0228705,N,07032.3201779,W,1,24,0.6,13.096,M,-29.745,M,0.0,*53
###2023-12-09 13:00:15.761627$GNGGA,180014.90,4138.0230219,N,07032.3202628,W,1,24,0.6,13.101,M,-29.745,M,0.0,*55
###2023-12-09 13:00:15.964100$GNRMC,180015.10,A,4138.0231737,N,07032.3203274,W,2.84,344.70,091223,,,A*57
###2023-12-09 13:00:15.966997$GNGGA,180015.10,4138.0231737,N,07032.3203274,W,1,24,0.6,13.106,M,-29.745,M,0.0,*5F
###2023-12-09 13:00:15.968862$GPGSA,A,3,03,04,16,26,28,29,31,32,,,,,1.1,0.6,0.9*3B
###2023-12-09 13:00:15.970594$GLGSA,A,3,65,71,72,73,74,75,,,,,,,1.1,0.6,0.9*24
###2023-12-09 13:00:15.972188$GAGSA,A,3,04,19,21,27,,,,,,,,,1.1,0.6,0.9*26
###2023-12-09 13:00:15.973832$GBGSA,A,3,14,24,25,26,33,,,,,,,,1.1,0.6,0.9*2F
###2023-12-09 13:00:15.976180$GPGSV,2,1,08,03,35,262,44,04,32,311,43,16,49,212,46,26,79,210,48*7C
###2023-12-09 13:00:15.978529$GPGSV,2,2,08,28,49,070,44,29,25,061,41,31,69,036,46,32,19,140,41*7C
###2023-12-09 13:00:15.980886$GLGSV,2,1,06,65,24,327,39,71,41,173,47,72,73,271,46,73,36,041,44*6F
###2023-12-09 13:00:15.982685$GLGSV,2,2,06,74,70,336,41,75,32,252,45,,,,,,,,*63
###2023-12-09 13:00:15.985027$GAGSV,1,1,04,04,29,312,42,19,84,219,40,21,86,124,46,27,33,048,41*6B
###2023-12-09 13:00:15.987381$GBGSV,2,1,05,14,43,193,43,24,74,024,47,25,40,262,45,26,26,063,41*67
###2023-12-09 13:00:15.988844$GBGSV,2,2,05,33,57,233,48,,,,,,,,,,,,*52
###2023-12-09 13:00:15.990173$GNVTG,344.70,T,,M,2.84,N,5.26,K,A*28
###2023-12-09 13:00:15.991842$GNGST,180015.10,18.000,,,,0.081,0.068,0.160*52
###2023-12-09 13:00:15.993140$GNZDA,180015.10,09,12,2023,00,00*7D
###2023-12-09 13:00:15.993781$GNEBP,,,,,,M*13
###2023-12-09 13:00:16.160347$GNGGA,180015.30,4138.0233238,N,07032.3203775,W,1,24,0.6,13.110,M,-29.745,M,0.0,*56
###2023-12-09 13:00:16.361179$GNGGA,180015.50,4138.0234716,N,07032.3204110,W,1,24,0.6,13.115,M,-29.745,M,0.0,*59
###2023-12-09 13:00:16.561178$GNGGA,180015.70,4138.0236136,N,07032.3204352,W,1,24,0.6,13.115,M,-29.745,M,0.0,*59
###2023-12-09 13:00:16.761932$GNGGA,180015.90,4138.0237497,N,07032.3204546,W,1,24,0.6,13.118,M,-29.745,M,0.0,*56
###2023-12-09 13:00:16.965078$GNRMC,180016.10,A,4138.0238809,N,07032.3204613,W,2.43,359.52,091223,,,A*5A
###2023-12-09 13:00:16.967953$GNGGA,180016.10,4138.0238809,N,07032.3204613,W,1,24,0.6,13.118,M,-29.745,M,0.0,*5A
###2023-12-09 13:00:16.969816$GPGSA,A,3,03,04,16,26,28,29,31,32,,,,,1.1,0.6,0.9*3B
###2023-12-09 13:00:16.971543$GLGSA,A,3,65,71,72,73,74,75,,,,,,,1.1,0.6,0.9*24
###2023-12-09 13:00:16.973131$GAGSA,A,3,04,19,21,27,,,,,,,,,1.1,0.6,0.9*26
###2023-12-09 13:00:16.974793$GBGSA,A,3,14,24,25,26,33,,,,,,,,1.1,0.6,0.9*2F
###2023-12-09 13:00:16.977118$GPGSV,2,1,08,03,35,262,43,04,32,311,43,16,49,212,46,26,79,210,48*7B
###2023-12-09 13:00:16.979470$GPGSV,2,2,08,28,49,070,43,29,25,061,41,31,69,036,45,32,19,140,43*7A
###2023-12-09 13:00:16.981808$GLGSV,2,1,06,65,24,327,42,71,41,173,47,72,73,271,47,73,36,041,44*62
###2023-12-09 13:00:16.983573$GLGSV,2,2,06,74,70,336,42,75,32,252,44,,,,,,,,*61
###2023-12-09 13:00:16.985906$GAGSV,1,1,04,04,29,312,42,19,84,219,40,21,86,124,46,27,33,048,40*6A
###2023-12-09 13:00:16.988253$GBGSV,2,1,05,14,43,193,44,24,74,024,47,25,40,262,46,26,26,063,42*60
###2023-12-09 13:00:16.989707$GBGSV,2,2,05,33,57,233,48,,,,,,,,,,,,*52
###2023-12-09 13:00:16.991042$GNVTG,359.52,T,,M,2.43,N,4.50,K,A*2F
###2023-12-09 13:00:16.992692$GNGST,180016.10,18.000,,,,0.081,0.068,0.160*51
###2023-12-09 13:00:16.994218$GNZDA,180016.10,09,12,2023,00,00*7E
###2023-12-09 13:00:16.994882$GNEBP,,,,,,M*13
###2023-12-09 13:00:17.162922$GNGGA,180016.30,4138.0240076,N,07032.3204561,W,1,24,0.6,13.122,M,-29.745,M,0.0,*58
###2023-12-09 13:00:17.362606$GNGGA,180016.50,4138.0241260,N,07032.3204336,W,1,24,0.6,13.125,M,-29.744,M,0.0,*58
###2023-12-09 13:00:17.564366$GNGGA,180016.70,4138.0242414,N,07032.3204073,W,1,24,0.6,13.132,M,-29.744,M,0.0,*58
###2023-12-09 13:00:17.763651$GNGGA,180016.90,4138.0243521,N,07032.3203786,W,1,24,0.6,13.136,M,-29.744,M,0.0,*5E
###2023-12-09 13:00:17.965948$GNRMC,180017.10,A,4138.0244516,N,07032.3203311,W,1.94,22.46,091223,,,A*60
###2023-12-09 13:00:17.968830$GNGGA,180017.10,4138.0244516,N,07032.3203311,W,1,24,0.6,13.140,M,-29.744,M,0.0,*5F
###2023-12-09 13:00:17.970698$GPGSA,A,3,03,04,16,26,28,29,31,32,,,,,1.1,0.6,0.9*3B
