###2023-12-09 13:35:51.029289$GAGSV,1,1,04,04,40,310,41,19,72,181,41,21,77,046,46,27,22,050,41*6D
###2023-12-09 13:35:51.032166$GBGSV,2,1,07,12,15,126,42,14,29,190,39,24,62,046,49,25,51,276,46*68
###2023-12-09 13:35:51.034672$GBGSV,2,2,07,26,16,071,41,33,45,217,47,35,16,056,42,,,,*5E
###2023-12-09 13:35:51.036282$GNVTG,314.87,T,,M,2.55,N,4.72,K,A*29
###2023-12-09 13:35:51.038233$GNGST,183550.10,6.100,,,,0.095,0.069,0.150*6C
###2023-12-09 13:35:51.039813$GNZDA,183550.10,09,12,2023,00,00*7A
###2023-12-09 13:35:51.040585$GNEBP,,,,,,M*13
###2023-12-09 13:35:51.205026$GNGGA,183550.30,4138.0400926,N,07032.4070178,W,1,27,0.6,13.244,M,-29.745,M,0.0,*58
###2023-12-09 13:35:51.398226$GNGGA,183550.50,4138.0402074,N,07032.4071443,W,1,27,0.6,13.243,M,-29.745,M,0.0,*59
###2023-12-09 13:35:51.599744$GNGGA,183550.70,4138.0403232,N,07032.4072638,W,1,27,0.6,13.240,M,-29.745,M,0.0,*54
###2023-12-09 13:35:51.800830$GNGGA,183550.90,4138.0404424,N,07032.4073839,W,1,27,0.6,13.235,M,-29.745,M,0.0,*50
###2023-12-09 13:35:52.004346$GNRMC,183551.10,A,4138.0405666,N,07032.4074981,W,2.74,327.61,091223,,,A*5B
###2023-12-09 13:35:52.007805$GNGGA,183551.10,4138.0405666,N,07032.4074981,W,1,26,0.6,13.236,M,-29.745,M,0.0,*5B
###2023-12-09 13:35:52.010037$GPGSA,A,3,03,04,16,26,27,28,29,31,,,,,1.0,0.6,0.9*3E
###2023-12-09 13:35:52.012107$GLGSA,A,3,65,71,72,73,74,75,,,,,,,1.0,0.6,0.9*25
###2023-12-09 13:35:52.014014$GAGSA,A,3,04,19,21,27,,,,,,,,,1.0,0.6,0.9*27
###2023-12-09 13:35:52.016160$GBGSA,A,3,12,14,24,25,26,33,35,,,,,,1.0,0.6,0.9*2B
###2023-12-09 13:35:52.019003$GPGSV,2,1,08,03,26,246,44,04,47,307,44,16,67,223,46,26,83,040,48*76
###2023-12-09 13:35:52.021814$GPGSV,2,2,08,27,17,172,38,28,37,085,45,29,20,046,42,31,59,067,47*7E
###2023-12-09 13:35:52.024629$GLGSV,2,1,06,65,39,318,41,71,22,175,43,72,62,220,46,73,22,052,44*64
###2023-12-09 13:35:52.026747$GLGSV,2,2,06,74,59,015,41,75,44,272,48,,,,,,,,*64
###2023-12-09 13:35:52.029552$GAGSV,1,1,04,04,40,310,43,19,72,181,41,21,77,046,46,27,22,050,40*6E
###2023-12-09 13:35:52.032371$GBGSV,2,1,07,12,15,126,39,14,29,190,42,24,62,046,46,25,51,276,46*67
###2023-12-09 13:35:52.034838$GBGSV,2,2,07,26,16,071,40,33,45,217,46,35,16,056,40,,,,*5C
###2023-12-09 13:35:52.036440$GNVTG,327.61,T,,M,2.74,N,5.08,K,A*2E
###2023-12-09 13:35:52.038387$GNGST,183551.10,5.400,,,,0.095,0.069,0.150*6B
###2023-12-09 13:35:52.039957$GNZDA,183551.10,09,12,2023,00,00*7B
###2023-12-09 13:35:52.040726$GNEBP,,,,,,M*13
###2023-12-09 13:35:52.198873$GNGGA,183551.30,4138.0407031,N,07032.4075979,W,1,26,0.6,13.235,M,-29.745,M,0.0,*5A
###2023-12-09 13:35:52.398130$GNGGA,183551.50,4138.0408485,N,07032.4076756,W,1,26,0.6,13.241,M,-29.745,M,0.0,*5B
###2023-12-09 13:35:52.599495$GNGGA,183551.70,4138.0410000,N,07032.4077467,W,1,26,0.6,13.237,M,-29.745,M,0.0,*58
###2023-12-09 13:35:52.798305$GNGGA,183551.90,4138.0411574,N,07032.4078178,W,1,26,0.6,13.240,M,-29.745,M,0.0,*55
###2023-12-09 13:35:53.002215$GNRMC,183552.10,A,4138.0413241,N,07032.4078792,W,3.11,348.04,091223,,,A*56
###2023-12-09 13:35:53.005101$GNGGA,183552.10,4138.0413241,N,07032.4078792,W,1,26,0.6,13.234,M,-29.745,M,0.0,*5C
###2023-12-09 13:35:53.006971$GPGSA,A,3,03,04,16,26,27,28,29,31,,,,,1.0,0.6,0.9*3E
###2023-12-09 13:35:53.008690$GLGSA,A,3,65,71,72,73,74,75,,,,,,,1.0,0.6,0.9*25
###2023-12-09 13:35:53.010275$GAGSA,A,3,04,19,21,27,,,,,,,,,1.0,0.6,0.9*27
###2023-12-09 13:35:53.012059$GBGSA,A,3,12,14,24,25,26,33,35,,,,,,1.0,0.6,0.9*2B
###2023-12-09 13:35:53.014370$GPGSV,2,1,08,03,26,246,43,04,47,307,45,16,67,223,46,26,83,040,48*70
###2023-12-09 13:35:53.016700$GPGSV,2,2,08,27,17,172,37,28,37,085,44,29,20,046,40,31,59,067,46*73
###2023-12-09 13:35:53.019033$GLGSV,2,1,06,65,39,318,42,71,22,175,43,72,62,220,47,73,22,052,41*63
###2023-12-09 13:35:53.020767$GLGSV,2,2,06,74,59,015,41,75,44,272,46,,,,,,,,*6A
###2023-12-09 13:35:53.023093$GAGSV,1,1,04,04,40,310,44,19,72,181,41,21,77,046,46,27,22,050,39*67
###2023-12-09 13:35:53.025409$GBGSV,2,1,07,12,15,126,39,14,29,190,42,24,62,046,48,25,51,276,47*68
###2023-12-09 13:35:53.027448$GBGSV,2,2,07,26,16,071,41,33,45,217,47,35,16,056,41,,,,*5D
###2023-12-09 13:35:53.028770$GNVTG,348.04,T,,M,3.11,N,5.76,K,A*2F
###2023-12-09 13:35:53.030381$GNGST,183552.10,5.700,,,,0.095,0.069,0.150*6B
###2023-12-09 13:35:53.031680$GNZDA,183552.10,09,12,2023,00,00*78
###2023-12-09 13:35:53.032318$GNEBP,,,,,,M*13
###2023-12-09 13:35:53.198260$GNGGA,183552.30,4138.0414942,N,07032.4079262,W,1,26,0.6,13.230,M,-29.745,M,0.0,*5E
###2023-12-09 13:35:53.397947$GNGGA,183552.50,4138.0416673,N,07032.4079715,W,1,26,0.6,13.234,M,-29.745,M,0.0,*56
###2023-12-09 13:35:53.598471$GNGGA,183552.70,4138.0418401,N,07032.4080250,W,1,26,0.6,13.231,M,-29.745,M,0.0,*5A
###2023-12-09 13:35:53.798958$GNGGA,183552.90,4138.0420114,N,07032.4080876,W,1,26,0.6,13.229,M,-29.745,M,0.0,*59
###2023-12-09 13:35:54.001597$GNRMC,183553.10,A,4138.0421818,N,07032.4081493,W,3.13,344.71,091223,,,A*58
###2023-12-09 13:35:54.005081$GNGGA,183553.10,4138.0421818,N,07032.4081493,W,1,26,0.6,13.225,M,-29.745,M,0.0,*5E
###2023-12-09 13:35:54.007345$GPGSA,A,3,03,04,16,26,27,28,29,31,,,,,1.0,0.6,0.9*3E
###2023-12-09 13:35:54.009421$GLGSA,A,3,65,71,72,73,74,75,,,,,,,1.0,0.6,0.9*25
###2023-12-09 13:35:54.011340$GAGSA,A,3,04,19,21,27,,,,,,,,,1.0,0.6,0.9*27
###2023-12-09 13:35:54.013478$GBGSA,A,3,12,14,24,25,26,33,35,,,,,,1.0,0.6,0.9*2B
###2023-12-09 13:35:54.016289$GPGSV,2,1,08,03,26,246,44,04,47,307,45,16,67,223,46,26,83,040,48*77
###2023-12-09 13:35:54.019143$GPGSV,2,2,08,27,17,172,39,28,37,085,45,29,20,046,41,31,59,067,47*7C
###2023-12-09 13:35:54.021955$GLGSV,2,1,06,65,39,318,41,71,22,175,44,72,62,220,47,73,22,052,43*65
###2023-12-09 13:35:54.024073$GLGSV,2,2,06,74,59,015,41,75,44,272,46,,,,,,,,*6A
###2023-12-09 13:35:54.026923$GAGSV,1,1,04,04,40,310,42,19,72,181,42,21,77,046,46,27,22,050,39*62
###2023-12-09 13:35:54.029733$GBGSV,2,1,07,12,15,126,39,14,29,190,41,24,62,046,47,25,51,276,46*65
###2023-12-09 13:35:54.032199$GBGSV,2,2,07,26,16,071,41,33,45,217,46,35,16,056,40,,,,*5D
###2023-12-09 13:35:54.033801$GNVTG,344.71,T,,M,3.13,N,5.80,K,A*2A
###2023-12-09 13:35:54.035763$GNGST,183553.10,5.700,,,,0.095,0.069,0.150*6A
###2023-12-09 13:35:54.037325$GNZDA,183553.10,09,12,2023,00,00*79
###2023-12-09 13:35:54.038095$GNEBP,,,,,,M*13
###2023-12-09 13:35:54.198914$GNGGA,183553.30,4138.0423515,N,07032.4082107,W,1,26,0.6,13.216,M,-29.745,M,0.0,*55
###2023-12-09 13:35:54.398071$GNGGA,183553.50,4138.0425165,N,07032.4082797,W,1,26,0.6,13.208,M,-29.745,M,0.0,*56
###2023-12-09 13:35:54.598248$GNGGA,183553.70,4138.0426767,N,07032.4083556,W,1,26,0.6,13.205,M,-29.745,M,0.0,*50
###2023-12-09 13:35:54.798824$GNGGA,183553.90,4138.0428319,N,07032.4084387,W,1,26,0.6,13.204,M,-29.745,M,0.0,*51
###2023-12-09 13:35:55.002210$GNRMC,183554.10,A,4138.0429878,N,07032.4085309,W,3.09,335.90,091223,,,A*53
###2023-12-09 13:35:55.005675$GNGGA,183554.10,4138.0429878,N,07032.4085309,W,1,26,0.6,13.209,M,-29.745,M,0.0,*59
###2023-12-09 13:35:55.007923$GPGSA,A,3,03,04,16,26,27,28,29,31,,,,,1.0,0.6,0.8*3F
###2023-12-09 13:35:55.010010$GLGSA,A,3,65,71,72,73,74,75,,,,,,,1.0,0.6,0.8*24
###2023-12-09 13:35:55.011934$GAGSA,A,3,04,19,21,27,,,,,,,,,1.0,0.6,0.8*26
###2023-12-09 13:35:55.014065$GBGSA,A,3,12,14,24,25,26,33,35,,,,,,1.0,0.6,0.8*2A
###2023-12-09 13:35:55.016875$GPGSV,2,1,08,03,26,246,43,04,47,307,44,16,67,223,45,26,83,040,48*72
###2023-12-09 13:35:55.019702$GPGSV,2,2,08,27,17,172,40,28,37,085,44,29,20,046,42,31,59,067,47*70
###2023-12-09 13:35:55.022502$GLGSV,2,1,06,65,39,318,39,71,22,175,44,72,62,220,46,73,22,052,44*6C
###2023-12-09 13:35:55.024619$GLGSV,2,2,06,74,59,015,41,75,44,272,48,,,,,,,,*64
###2023-12-09 13:35:55.027431$GAGSV,1,1,04,04,40,310,42,19,71,181,41,21,77,046,46,27,22,050,41*6D
###2023-12-09 13:35:55.030238$GBGSV,2,1,07,12,15,126,41,14,29,190,41,24,62,046,48,25,51,276,47*64
###2023-12-09 13:35:55.032716$GBGSV,2,2,07,26,16,071,41,33,45,217,47,35,16,056,42,,,,*5E
###2023-12-09 13:35:55.034311$GNVTG,335.90,T,,M,3.09,N,5.72,K,A*25
###2023-12-09 13:35:55.036272$GNGST,183554.10,6.000,,,,0.094,0.068,0.150*69
###2023-12-09 13:35:55.037828$GNZDA,183554.10,09,12,2023,00,00*7E
###2023-12-09 13:35:55.038917$GNEBP,,,,,,M*13
###2023-12-09 13:35:55.199111$GNGGA,183554.30,4138.0431433,N,07032.4086257,W,1,26,0.6,13.204,M,-29.745,M,0.0,*55
###2023-12-09 13:35:55.398263$GNGGA,183554.50,4138.0432987,N,07032.4087314,W,1,26,0.6,13.202,M,-29.745,M,0.0,*53
###2023-12-09 13:35:55.599133$GNGGA,183554.70,4138.0434532,N,07032.4088457,W,1,26,0.6,13.207,M,-29.745,M,0.0,*5F
###2023-12-09 13:35:55.798738$GNGGA,183554.90,4138.0436091,N,07032.4089633,W,1,27,0.6,13.209,M,-29.745,M,0.0,*51
###2023-12-09 13:35:56.002386$GNRMC,183555.10,A,4138.0437638,N,07032.4090905,W,3.25,327.03,091223,,,A*52
###2023-12-09 13:35:56.005840$GNGGA,183555.10,4138.0437638,N,07032.4090905,W,1,26,0.6,13.211,M,-29.745,M,0.0,*56
###2023-12-09 13:35:56.008086$GPGSA,A,3,03,04,16,26,27,28,29,31,,,,,1.0,0.6,0.8*3F
###2023-12-09 13:35:56.010146$GLGSA,A,3,65,71,72,73,74,75,,,,,,,1.0,0.6,0.8*24
###2023-12-09 13:35:56.012068$GAGSA,A,3,04,19,21,27,,,,,,,,,1.0,0.6,0.8*26
