###2023-12-09 12:54:24.985119$GNEBP,,,,,,M*13
###2023-12-09 12:54:25.153482$GNGGA,175424.30,4138.0611886,N,07032.3951968,W,1,24,0.6,13.505,M,-29.744,M,0.0,*5E
###2023-12-09 12:54:25.355652$GNGGA,175424.50,4138.0611769,N,07032.3951743,W,1,24,0.6,13.503,M,-29.744,M,0.0,*57
###2023-12-09 12:54:25.554137$GNGGA,175424.70,4138.0611666,N,07032.3951568,W,1,23,0.6,13.448,M,-29.744,M,0.0,*59
###2023-12-09 12:54:25.754329$GNGGA,175424.90,4138.0611907,N,07032.3952146,W,1,24,0.6,13.460,M,-29.744,M,0.0,*59
###2023-12-09 12:54:25.955670$GNRMC,175425.10,A,4138.0612215,N,07032.3952836,W,0.76,303.43,091223,,,A*55
###2023-12-09 12:54:25.958526$GNGGA,175425.10,4138.0612215,N,07032.3952836,W,1,24,0.6,13.465,M,-29.744,M,0.0,*50
###2023-12-09 12:54:25.960397$GPGSA,A,3,03,04,16,26,28,29,31,32,,,,,1.1,0.6,0.9*3B
###2023-12-09 12:54:25.962106$GLGSA,A,3,65,71,72,73,74,75,,,,,,,1.1,0.6,0.9*24
###2023-12-09 12:54:25.963698$GAGSA,A,3,04,19,21,27,,,,,,,,,1.1,0.6,0.9*26
###2023-12-09 12:54:25.965340$GBGSA,A,3,14,24,25,26,33,,,,,,,,1.1,0.6,0.9*2F
###2023-12-09 12:54:25.967671$GPGSV,2,1,08,03,36,266,43,04,29,311,45,16,46,211,45,26,76,209,48*78
###2023-12-09 12:54:25.970000$GPGSV,2,2,08,28,52,067,44,29,25,064,41,31,70,029,48,32,22,138,42*79
###2023-12-09 12:54:25.972344$GLGSV,2,1,06,65,20,328,43,71,45,172,45,72,72,285,46,73,39,039,48*68
###2023-12-09 12:54:25.974097$GLGSV,2,2,06,74,71,324,43,75,29,249,43,,,,,,,,*65
###2023-12-09 12:54:25.976438$GAGSV,1,1,04,04,27,312,43,19,85,242,40,21,84,147,46,27,35,048,44*6F
###2023-12-09 12:54:25.978794$GBGSV,2,1,05,14,47,194,44,24,76,016,49,25,38,259,46,26,29,061,44*62
###2023-12-09 12:54:25.980247$GBGSV,2,2,05,33,60,238,48,,,,,,,,,,,,*5D
###2023-12-09 12:54:25.981562$GNVTG,303.43,T,,M,0.76,N,1.40,K,A*20
###2023-12-09 12:54:25.983269$GNGST,175425.10,18.000,,,,0.077,0.068,0.160*56
###2023-12-09 12:54:25.984577$GNZDA,175425.10,09,12,2023,00,00*70
###2023-12-09 12:54:25.985218$GNEBP,,,,,,M*13
###2023-12-09 12:54:26.155262$GNGGA,175425.30,4138.0612220,N,07032.3952924,W,1,24,0.6,13.458,M,-29.744,M,0.0,*58
###2023-12-09 12:54:26.355263$GNGGA,175425.50,4138.0612046,N,07032.3952625,W,1,24,0.6,13.455,M,-29.744,M,0.0,*5F
###2023-12-09 12:54:26.555243$GNGGA,175425.70,4138.0612105,N,07032.3952782,W,1,24,0.6,13.445,M,-29.744,M,0.0,*56
###2023-12-09 12:54:26.754143$GNGGA,175425.90,4138.0612393,N,07032.3953393,W,1,24,0.6,13.447,M,-29.744,M,0.0,*52
###2023-12-09 12:54:26.956712$GNRMC,175426.10,A,4138.0612557,N,07032.3953808,W,0.19,304.99,091223,,,A*52
###2023-12-09 12:54:26.959586$GNGGA,175426.10,4138.0612557,N,07032.3953808,W,1,24,0.6,13.426,M,-29.744,M,0.0,*59
###2023-12-09 12:54:26.961439$GPGSA,A,3,03,04,16,26,28,29,31,32,,,,,1.1,0.6,0.9*3B
###2023-12-09 12:54:26.963163$GLGSA,A,3,65,71,72,73,74,75,,,,,,,1.1,0.6,0.9*24
###2023-12-09 12:54:26.964746$GAGSA,A,3,04,19,21,27,,,,,,,,,1.1,0.6,0.9*26
###2023-12-09 12:54:26.966390$GBGSA,A,3,14,24,25,26,33,,,,,,,,1.1,0.6,0.9*2F
###2023-12-09 12:54:26.968733$GPGSV,2,1,08,03,36,266,43,04,29,311,44,16,46,211,44,26,76,209,47*77
###2023-12-09 12:54:26.971083$GPGSV,2,2,08,28,52,067,44,29,25,064,43,31,70,029,48,32,22,138,42*7B
###2023-12-09 12:54:26.973415$GLGSV,2,1,06,65,20,328,43,71,45,172,46,72,72,285,46,73,39,039,47*64
###2023-12-09 12:54:26.975177$GLGSV,2,2,06,74,71,324,43,75,29,249,42,,,,,,,,*64
###2023-12-09 12:54:26.977499$GAGSV,1,1,04,04,27,312,43,19,85,242,40,21,84,147,46,27,35,048,44*6F
###2023-12-09 12:54:26.979845$GBGSV,2,1,05,14,47,194,44,24,76,016,48,25,38,259,45,26,29,061,43*67
###2023-12-09 12:54:26.981306$GBGSV,2,2,05,33,60,238,46,,,,,,,,,,,,*53
###2023-12-09 12:54:26.982638$GNVTG,304.99,T,,M,0.19,N,0.36,K,A*29
###2023-12-09 12:54:26.984286$GNGST,175426.10,18.000,,,,0.077,0.068,0.160*55
###2023-12-09 12:54:26.985580$GNZDA,175426.10,09,12,2023,00,00*73
###2023-12-09 12:54:26.986218$GNEBP,,,,,,M*13
###2023-12-09 12:54:27.155377$GNGGA,175426.30,4138.0612473,N,07032.3953753,W,1,24,0.6,13.422,M,-29.744,M,0.0,*59
###2023-12-09 12:54:27.355334$GNGGA,175426.50,4138.0612407,N,07032.3953685,W,1,24,0.6,13.415,M,-29.744,M,0.0,*52
###2023-12-09 12:54:27.555403$GNGGA,175426.70,4138.0612548,N,07032.3954011,W,1,24,0.6,13.415,M,-29.744,M,0.0,*56
###2023-12-09 12:54:27.755897$GNGGA,175426.90,4138.0612755,N,07032.3954438,W,1,24,0.6,13.408,M,-29.744,M,0.0,*55
###2023-12-09 12:54:27.956633$GNRMC,175427.10,A,4138.0612838,N,07032.3954657,W,0.14,304.99,091223,,,A*59
###2023-12-09 12:54:27.959531$GNGGA,175427.10,4138.0612838,N,07032.3954657,W,1,24,0.6,13.392,M,-29.744,M,0.0,*57
###2023-12-09 12:54:27.961401$GPGSA,A,3,03,04,16,26,28,29,31,32,,,,,1.1,0.6,0.9*3B
###2023-12-09 12:54:27.963138$GLGSA,A,3,65,71,72,73,74,75,,,,,,,1.1,0.6,0.9*24
###2023-12-09 12:54:27.964728$GAGSA,A,3,04,19,21,27,,,,,,,,,1.1,0.6,0.9*26
###2023-12-09 12:54:27.966373$GBGSA,A,3,14,24,25,26,33,,,,,,,,1.1,0.6,0.9*2F
###2023-12-09 12:54:27.968714$GPGSV,2,1,08,03,36,266,44,04,29,311,44,16,46,211,44,26,76,209,47*70
###2023-12-09 12:54:27.971064$GPGSV,2,2,08,28,52,067,44,29,25,064,43,31,70,029,48,32,22,138,43*7A
###2023-12-09 12:54:27.973403$GLGSV,2,1,06,65,20,328,41,71,45,172,47,72,72,285,46,73,39,039,47*67
###2023-12-09 12:54:27.975166$GLGSV,2,2,06,74,71,324,43,75,29,249,42,,,,,,,,*64
###2023-12-09 12:54:27.977493$GAGSV,1,1,04,04,27,312,42,19,85,242,40,21,84,147,45,27,35,048,45*6C
###2023-12-09 12:54:27.979829$GBGSV,2,1,05,14,46,194,45,24,76,016,49,25,38,259,45,26,29,061,45*60
###2023-12-09 12:54:27.981287$GBGSV,2,2,05,33,60,238,47,,,,,,,,,,,,*52
###2023-12-09 12:54:27.982666$GNVTG,304.99,T,,M,0.14,N,0.25,K,A*26
###2023-12-09 12:54:27.984319$GNGST,175427.10,18.000,,,,0.077,0.068,0.160*54
###2023-12-09 12:54:27.985609$GNZDA,175427.10,09,12,2023,00,00*72
###2023-12-09 12:54:27.986249$GNEBP,,,,,,M*13
###2023-12-09 12:54:28.154360$GNGGA,175427.30,4138.0612831,N,07032.3954726,W,1,24,0.6,13.390,M,-29.744,M,0.0,*59
###2023-12-09 12:54:28.355866$GNGGA,175427.50,4138.0612854,N,07032.3954850,W,1,24,0.6,13.376,M,-29.744,M,0.0,*5A
###2023-12-09 12:54:28.554007$GNGGA,175427.70,4138.0612950,N,07032.3955088,W,1,24,0.6,13.358,M,-29.744,M,0.0,*5D
###2023-12-09 12:54:28.756435$GNGGA,175427.90,4138.0613095,N,07032.3955376,W,1,24,0.6,13.353,M,-29.744,M,0.0,*5B
###2023-12-09 12:54:28.957210$GNRMC,175428.10,A,4138.0613220,N,07032.3955661,W,0.37,304.99,091223,,,A*51
###2023-12-09 12:54:28.960110$GNGGA,175428.10,4138.0613220,N,07032.3955661,W,1,24,0.6,13.358,M,-29.744,M,0.0,*58
###2023-12-09 12:54:28.961974$GPGSA,A,3,03,04,16,26,28,29,31,32,,,,,1.1,0.6,0.9*3B
###2023-12-09 12:54:28.963722$GLGSA,A,3,65,71,72,73,74,75,,,,,,,1.1,0.6,0.9*24
###2023-12-09 12:54:28.965303$GAGSA,A,3,04,19,21,27,,,,,,,,,1.1,0.6,0.9*26
###2023-12-09 12:54:28.966964$GBGSA,A,3,14,24,25,26,33,,,,,,,,1.1,0.6,0.9*2F
###2023-12-09 12:54:28.969289$GPGSV,2,1,08,03,36,266,44,04,29,311,42,16,46,211,44,26,76,209,48*79
###2023-12-09 12:54:28.971625$GPGSV,2,2,08,28,52,067,45,29,25,064,43,31,70,029,48,32,22,138,43*7B
###2023-12-09 12:54:28.973949$GLGSV,2,1,06,65,20,328,41,71,45,172,47,72,72,285,46,73,39,039,47*67
###2023-12-09 12:54:28.975721$GLGSV,2,2,06,74,71,324,43,75,29,249,42,,,,,,,,*64
###2023-12-09 12:54:28.978041$GAGSV,1,1,04,04,27,312,42,19,85,242,40,21,84,147,46,27,35,048,45*6F
###2023-12-09 12:54:28.980372$GBGSV,2,1,05,14,46,194,45,24,76,016,48,25,38,259,45,26,29,061,44*60
###2023-12-09 12:54:28.981816$GBGSV,2,2,05,33,60,238,47,,,,,,,,,,,,*52
###2023-12-09 12:54:28.983145$GNVTG,304.99,T,,M,0.37,N,0.68,K,A*2E
###2023-12-09 12:54:28.984793$GNGST,175428.10,18.000,,,,0.077,0.068,0.160*5B
###2023-12-09 12:54:28.986070$GNZDA,175428.10,09,12,2023,00,00*7D
###2023-12-09 12:54:28.986718$GNEBP,,,,,,M*13
###2023-12-09 12:54:29.155171$GNGGA,175428.30,4138.0613294,N,07032.3955853,W,1,24,0.6,13.364,M,-29.744,M,0.0,*55
###2023-12-09 12:54:29.355950$GNGGA,175428.50,4138.0613337,N,07032.3955968,W,1,24,0.6,13.347,M,-29.744,M,0.0,*53
###2023-12-09 12:54:29.555740$GNGGA,175428.70,4138.0613389,N,07032.3956110,W,1,24,0.6,13.325,M,-29.744,M,0.0,*54
###2023-12-09 12:54:29.755773$GNGGA,175428.90,4138.0613500,N,07032.3956364,W,1,24,0.6,13.322,M,-29.744,M,0.0,*5B
###2023-12-09 12:54:29.958064$GNRMC,175429.10,A,4138.0613677,N,07032.3956735,W,0.62,304.99,091223,,,A*55
###2023-12-09 12:54:29.961196$GNGGA,175429.10,4138.0613677,N,07032.3956735,W,1,24,0.6,13.337,M,-29.744,M,0.0,*55
###2023-12-09 12:54:29.963087$GPGSA,A,3,03,04,16,26,28,29,31,32,,,,,1.1,0.6,0.9*3B
###2023-12-09 12:54:29.964798$GLGSA,A,3,65,71,72,73,74,75,,,,,,,1.1,0.6,0.9*24
###2023-12-09 12:54:29.966370$GAGSA,A,3,04,19,21,27,,,,,,,,,1.1,0.6,0.9*26
###2023-12-09 12:54:29.968027$GBGSA,A,3,14,24,25,26,33,,,,,,,,1.1,0.6,0.9*2F
###2023-12-09 12:54:29.970354$GPGSV,2,1,08,03,36,266,43,04,29,311,43,16,46,211,44,26,76,209,47*70
###2023-12-09 12:54:29.972689$GPGSV,2,2,08,28,52,067,45,29,25,064,44,31,70,029,48,32,22,138,44*7B
###2023-12-09 12:54:29.975030$GLGSV,2,1,06,65,20,328,41,71,45,172,47,72,72,285,46,73,39,039,47*67
###2023-12-09 12:54:29.976771$GLGSV,2,2,06,74,71,324,43,75,29,249,43,,,,,,,,*65
###2023-12-09 12:54:29.979099$GAGSV,1,1,04,04,27,312,42,19,85,242,40,21,84,147,46,27,35,048,45*6F
