###2023-12-09 13:04:20.978205$GNRMC,180420.10,A,4138.0589923,N,07032.3342595,W,3.30,96.24,091223,,,A*65
###2023-12-09 13:04:20.981101$GNGGA,180420.10,4138.0589923,N,07032.3342595,W,1,24,0.6,13.175,M,-29.743,M,0.0,*5C
###2023-12-09 13:04:20.982989$GPGSA,A,3,03,04,16,26,28,29,31,32,,,,,1.1,0.6,0.9*3B
###2023-12-09 13:04:20.984706$GLGSA,A,3,65,71,72,73,74,75,,,,,,,1.1,0.6,0.9*24
###2023-12-09 13:04:20.986287$GAGSA,A,3,04,19,21,27,,,,,,,,,1.1,0.6,0.9*26
###2023-12-09 13:04:20.987946$GBGSA,A,3,14,24,25,26,33,,,,,,,,1.1,0.6,0.9*2F
###2023-12-09 13:04:20.990270$GPGSV,2,1,08,03,34,260,44,04,33,311,42,16,51,213,46,26,81,210,48*70
###2023-12-09 13:04:20.992621$GPGSV,2,2,08,28,48,071,43,29,25,060,42,31,68,040,46,32,18,140,40*79
###2023-12-09 13:04:20.994964$GLGSV,2,1,06,65,25,327,40,71,40,173,45,72,73,265,46,73,35,042,44*66
###2023-12-09 13:04:20.996703$GLGSV,2,2,06,74,69,340,43,75,33,254,46,,,,,,,,*6C
###2023-12-09 13:04:20.999038$GAGSV,1,1,04,04,30,312,40,19,83,207,40,21,86,104,45,27,32,048,42*6A
###2023-12-09 13:04:21.001360$GBGSV,2,1,05,14,43,193,44,24,73,026,49,25,41,263,46,26,26,063,42*6B
###2023-12-09 13:04:21.002828$GBGSV,2,2,05,33,57,231,48,,,,,,,,,,,,*50
###2023-12-09 13:04:21.004119$GNVTG,96.24,T,,M,3.30,N,6.12,K,A*1F
###2023-12-09 13:04:21.005763$GNGST,180420.10,18.000,,,,0.080,0.066,0.160*5F
###2023-12-09 13:04:21.007060$GNZDA,180420.10,09,12,2023,00,00*7F
###2023-12-09 13:04:21.007698$GNEBP,,,,,,M*13
###2023-12-09 13:04:21.168336$GNGGA,180420.30,4138.0589791,N,07032.3340046,W,1,24,0.6,13.208,M,-29.743,M,0.0,*59
###2023-12-09 13:04:21.367002$GNGGA,180420.50,4138.0589484,N,07032.3337354,W,1,24,0.6,13.193,M,-29.743,M,0.0,*59
###2023-12-09 13:04:21.566257$GNGGA,180420.70,4138.0589389,N,07032.3334788,W,1,24,0.6,13.181,M,-29.743,M,0.0,*54
###2023-12-09 13:04:21.767497$GNGGA,180420.90,4138.0589518,N,07032.3332204,W,1,24,0.6,13.199,M,-29.743,M,0.0,*5A
###2023-12-09 13:04:21.969438$GNRMC,180421.10,A,4138.0589377,N,07032.3329598,W,3.34,92.73,091223,,,A*6D
###2023-12-09 13:04:21.972307$GNGGA,180421.10,4138.0589377,N,07032.3329598,W,1,24,0.6,13.188,M,-29.743,M,0.0,*54
###2023-12-09 13:04:21.974170$GPGSA,A,3,03,04,16,26,28,29,31,32,,,,,1.1,0.6,0.9*3B
###2023-12-09 13:04:21.975899$GLGSA,A,3,65,71,72,73,74,75,,,,,,,1.1,0.6,0.9*24
###2023-12-09 13:04:21.977489$GAGSA,A,3,04,19,21,27,,,,,,,,,1.1,0.6,0.9*26
###2023-12-09 13:04:21.979153$GBGSA,A,3,14,24,25,26,33,,,,,,,,1.1,0.6,0.9*2F
###2023-12-09 13:04:21.981487$GPGSV,2,1,08,03,34,260,44,04,33,311,43,16,51,213,46,26,81,210,47*7E
###2023-12-09 13:04:21.983836$GPGSV,2,2,08,28,48,071,43,29,25,060,41,31,68,040,47,32,18,140,40*7B
###2023-12-09 13:04:21.986173$GLGSV,2,1,06,65,25,327,41,71,40,173,45,72,73,265,46,73,35,042,45*66
###2023-12-09 13:04:21.987924$GLGSV,2,2,06,74,69,340,43,75,33,254,47,,,,,,,,*6D
###2023-12-09 13:04:21.990245$GAGSV,1,1,04,04,30,312,40,19,83,207,40,21,86,104,45,27,32,048,42*6A
###2023-12-09 13:04:21.992579$GBGSV,2,1,05,14,42,192,45,24,73,026,49,25,41,263,47,26,26,063,42*6B
###2023-12-09 13:04:21.994038$GBGSV,2,2,05,33,57,231,48,,,,,,,,,,,,*50
###2023-12-09 13:04:21.995343$GNVTG,92.73,T,,M,3.34,N,6.19,K,A*16
###2023-12-09 13:04:21.996991$GNGST,180421.10,18.000,,,,0.080,0.066,0.160*5E
###2023-12-09 13:04:21.998279$GNZDA,180421.10,09,12,2023,00,00*7E
###2023-12-09 13:04:21.998934$GNEBP,,,,,,M*13
###2023-12-09 13:04:22.166172$GNGGA,180421.30,4138.0589379,N,07032.3327076,W,1,24,0.6,13.196,M,-29.743,M,0.0,*5C
###2023-12-09 13:04:22.366873$GNGGA,180421.50,4138.0589373,N,07032.3324456,W,1,24,0.6,13.202,M,-29.743,M,0.0,*5B
###2023-12-09 13:04:22.566120$GNGGA,180421.70,4138.0589531,N,07032.3321944,W,1,24,0.6,13.201,M,-29.743,M,0.0,*51
###2023-12-09 13:04:22.767352$GNGGA,180421.90,4138.0589764,N,07032.3319376,W,1,24,0.6,13.204,M,-29.743,M,0.0,*58
###2023-12-09 13:04:22.968891$GNRMC,180422.10,A,4138.0589932,N,07032.3316883,W,3.36,84.71,091223,,,A*69
###2023-12-09 13:04:22.971735$GNGGA,180422.10,4138.0589932,N,07032.3316883,W,1,24,0.6,13.204,M,-29.743,M,0.0,*50
###2023-12-09 13:04:22.973575$GPGSA,A,3,03,04,16,26,28,29,31,32,,,,,1.1,0.6,0.9*3B
###2023-12-09 13:04:22.975293$GLGSA,A,3,65,71,72,73,74,75,,,,,,,1.1,0.6,0.9*24
###2023-12-09 13:04:22.976859$GAGSA,A,3,04,19,21,27,,,,,,,,,1.1,0.6,0.9*26
###2023-12-09 13:04:22.978488$GBGSA,A,3,14,24,25,26,33,,,,,,,,1.1,0.6,0.9*2F
###2023-12-09 13:04:22.980802$GPGSV,2,1,08,03,34,260,45,04,33,311,43,16,51,213,46,26,81,210,48*70
###2023-12-09 13:04:22.983124$GPGSV,2,2,08,28,48,071,43,29,25,060,40,31,68,040,46,32,18,140,42*79
###2023-12-09 13:04:22.985430$GLGSV,2,1,06,65,25,327,41,71,40,173,46,72,73,265,46,73,35,042,45*65
###2023-12-09 13:04:22.987168$GLGSV,2,2,06,74,69,340,43,75,33,254,47,,,,,,,,*6D
###2023-12-09 13:04:22.989473$GAGSV,1,1,04,04,30,312,41,19,83,207,40,21,86,104,46,27,32,048,43*69
###2023-12-09 13:04:22.991792$GBGSV,2,1,05,14,42,192,46,24,73,026,49,25,41,263,47,26,26,063,42*68
###2023-12-09 13:04:22.993235$GBGSV,2,2,05,33,57,231,48,,,,,,,,,,,,*50
###2023-12-09 13:04:22.994511$GNVTG,84.71,T,,M,3.36,N,6.23,K,A*18
###2023-12-09 13:04:22.996162$GNGST,180422.10,18.000,,,,0.080,0.066,0.160*5D
###2023-12-09 13:04:22.997456$GNZDA,180422.10,09,12,2023,00,00*7D
###2023-12-09 13:04:22.998091$GNEBP,,,,,,M*13
###2023-12-09 13:04:23.166006$GNGGA,180422.30,4138.0590088,N,07032.3314331,W,1,24,0.6,13.216,M,-29.743,M,0.0,*51
###2023-12-09 13:04:23.366526$GNGGA,180422.50,4138.0590113,N,07032.3311723,W,1,24,0.6,13.200,M,-29.743,M,0.0,*51
###2023-12-09 13:04:23.567225$GNGGA,180422.70,4138.0590234,N,07032.3309200,W,1,24,0.6,13.200,M,-29.743,M,0.0,*58
###2023-12-09 13:04:23.767222$GNGGA,180422.90,4138.0590385,N,07032.3306641,W,1,24,0.6,13.209,M,-29.743,M,0.0,*5A
###2023-12-09 13:04:23.972260$GNRMC,180423.10,A,4138.0590312,N,07032.3304113,W,3.44,97.40,091223,,,A*6E
###2023-12-09 13:04:23.975105$GNGGA,180423.10,4138.0590312,N,07032.3304113,W,1,24,0.6,13.208,M,-29.743,M,0.0,*5E
###2023-12-09 13:04:23.976953$GPGSA,A,3,03,04,16,26,28,29,31,32,,,,,1.1,0.6,0.9*3B
###2023-12-09 13:04:23.978669$GLGSA,A,3,65,71,72,73,74,75,,,,,,,1.1,0.6,0.9*24
###2023-12-09 13:04:23.980248$GAGSA,A,3,04,19,21,27,,,,,,,,,1.1,0.6,0.9*26
###2023-12-09 13:04:23.981885$GBGSA,A,3,14,24,25,26,33,,,,,,,,1.1,0.6,0.9*2F
###2023-12-09 13:04:23.984210$GPGSV,2,1,08,03,34,260,45,04,33,311,42,16,51,213,47,26,81,210,48*70
###2023-12-09 13:04:23.986522$GPGSV,2,2,08,28,48,071,45,29,25,060,43,31,68,040,47,32,18,140,40*7F
###2023-12-09 13:04:23.988841$GLGSV,2,1,06,65,25,327,41,71,40,173,46,72,73,265,46,73,35,042,44*64
###2023-12-09 13:04:23.990617$GLGSV,2,2,06,74,69,340,43,75,33,254,47,,,,,,,,*6D
###2023-12-09 13:04:23.992929$GAGSV,1,1,04,04,30,312,41,19,83,207,41,21,86,104,46,27,32,048,43*68
###2023-12-09 13:04:23.995251$GBGSV,2,1,05,14,42,192,45,24,73,026,49,25,41,263,46,26,26,063,43*6B
###2023-12-09 13:04:23.996695$GBGSV,2,2,05,33,57,231,48,,,,,,,,,,,,*50
###2023-12-09 13:04:23.997979$GNVTG,97.40,T,,M,3.44,N,6.37,K,A*18
###2023-12-09 13:04:23.999631$GNGST,180423.10,18.000,,,,0.080,0.066,0.160*5C
###2023-12-09 13:04:24.000917$GNZDA,180423.10,09,12,2023,00,00*7C
###2023-12-09 13:04:24.001551$GNEBP,,,,,,M*13
###2023-12-09 13:04:24.166803$GNGGA,180423.30,4138.0590042,N,07032.3301578,W,1,24,0.6,13.217,M,-29.743,M,0.0,*58
###2023-12-09 13:04:24.366510$GNGGA,180423.50,4138.0589856,N,07032.3299068,W,1,24,0.6,13.214,M,-29.743,M,0.0,*5C
###2023-12-09 13:04:24.566859$GNGGA,180423.70,4138.0589738,N,07032.3296591,W,1,24,0.6,13.219,M,-29.743,M,0.0,*58
###2023-12-09 13:04:24.767270$GNGGA,180423.90,4138.0589507,N,07032.3294051,W,1,24,0.6,13.222,M,-29.743,M,0.0,*5B
###2023-12-09 13:04:24.969031$GNRMC,180424.10,A,4138.0589140,N,07032.3291516,W,3.38,101.40,091223,,,A*5D
###2023-12-09 13:04:24.971909$GNGGA,180424.10,4138.0589140,N,07032.3291516,W,1,24,0.6,13.218,M,-29.743,M,0.0,*59
###2023-12-09 13:04:24.973774$GPGSA,A,3,03,04,16,26,28,29,31,32,,,,,1.1,0.6,0.9*3B
###2023-12-09 13:04:24.975501$GLGSA,A,3,65,71,72,73,74,75,,,,,,,1.1,0.6,0.9*24
###2023-12-09 13:04:24.977087$GAGSA,A,3,04,19,21,27,,,,,,,,,1.1,0.6,0.9*26
###2023-12-09 13:04:24.978748$GBGSA,A,3,14,24,25,26,33,,,,,,,,1.1,0.6,0.9*2F
###2023-12-09 13:04:24.981074$GPGSV,2,1,08,03,34,260,45,04,33,311,42,16,51,213,47,26,81,210,48*70
###2023-12-09 13:04:24.983675$GPGSV,2,2,08,28,48,071,44,29,25,060,42,31,68,040,46,32,18,140,40*7E
###2023-12-09 13:04:24.986033$GLGSV,2,1,06,65,25,327,40,71,40,173,46,72,73,265,46,73,35,042,44*65
###2023-12-09 13:04:24.987802$GLGSV,2,2,06,74,69,340,43,75,33,254,47,,,,,,,,*6D
###2023-12-09 13:04:24.990137$GAGSV,1,1,04,04,30,312,41,19,83,207,41,21,86,104,46,27,32,048,43*68
###2023-12-09 13:04:24.992488$GBGSV,2,1,05,14,42,192,45,24,73,026,49,25,41,263,46,26,26,063,43*6B
###2023-12-09 13:04:24.993951$GBGSV,2,2,05,33,57,231,48,,,,,,,,,,,,*50
###2023-12-09 13:04:24.995291$GNVTG,101.40,T,,M,3.38,N,6.26,K,A*2D
###2023-12-09 13:04:24.996949$GNGST,180424.10,18.000,,,,0.080,0.066,0.160*5B
###2023-12-09 13:04:24.998244$GNZDA,180424.10,09,12,2023,00,00*7B
