###2023-12-09 13:46:47.032243$GBGSV,2,2,05,35,16,051,38,,,,,,,,,,,,*50
###2023-12-09 13:46:47.033585$GNVTG,243.17,T,,M,0.02,N,0.04,K,A*26
###2023-12-09 13:46:47.035222$GNGST,184646.10,6.800,,,,0.190,0.120,0.330*6A
###2023-12-09 13:46:47.036518$GNZDA,184646.10,09,12,2023,00,00*79
###2023-12-09 13:46:47.037156$GNEBP,,,,,,M*13
###2023-12-09 13:46:47.205684$GNGGA,184646.30,4138.0395217,N,07032.4386227,W,1,18,0.7,15.491,M,-29.746,M,0.0,*5C
###2023-12-09 13:46:47.411491$GNGGA,184646.50,4138.0395217,N,07032.4386207,W,1,18,0.7,15.483,M,-29.746,M,0.0,*5B
###2023-12-09 13:46:47.605826$GNGGA,184646.70,4138.0395226,N,07032.4386181,W,1,18,0.7,15.482,M,-29.746,M,0.0,*57
###2023-12-09 13:46:47.806333$GNGGA,184646.90,4138.0395241,N,07032.4386156,W,1,18,0.7,15.482,M,-29.746,M,0.0,*52
###2023-12-09 13:46:48.011918$GNRMC,184647.10,A,4138.0395251,N,07032.4386144,W,0.04,243.17,091223,,,A*5E
###2023-12-09 13:46:48.014788$GNGGA,184647.10,4138.0395251,N,07032.4386144,W,1,18,0.7,15.474,M,-29.746,M,0.0,*50
###2023-12-09 13:46:48.016513$GPGSA,A,3,04,16,26,28,29,31,,,,,,,1.3,0.7,1.1*33
###2023-12-09 13:46:48.018093$GLGSA,A,3,65,72,73,75,,,,,,,,,1.3,0.7,1.1*2B
###2023-12-09 13:46:48.019623$GAGSA,A,3,04,21,27,,,,,,,,,,1.3,0.7,1.1*24
###2023-12-09 13:46:48.021261$GBGSA,A,3,12,24,25,33,35,,,,,,,,1.3,0.7,1.1*21
###2023-12-09 13:46:48.023624$GPGSV,2,1,06,04,51,304,47,16,72,228,41,26,78,041,40,28,34,089,46*73
###2023-12-09 13:46:48.025360$GPGSV,2,2,06,29,18,043,42,31,56,073,48,,,,,,,,*75
###2023-12-09 13:46:48.027678$GLGSV,1,1,04,65,43,312,45,72,56,213,40,73,17,056,37,75,47,280,46*6A
###2023-12-09 13:46:48.029699$GAGSV,1,1,03,04,43,308,45,21,72,043,40,27,19,051,43,,,,*59
###2023-12-09 13:46:48.032017$GBGSV,2,1,05,12,19,122,42,24,58,052,48,25,54,282,42,33,40,213,35*6B
###2023-12-09 13:46:48.033459$GBGSV,2,2,05,35,16,051,39,,,,,,,,,,,,*51
###2023-12-09 13:46:48.034790$GNVTG,243.17,T,,M,0.04,N,0.07,K,A*23
###2023-12-09 13:46:48.036398$GNGST,184647.10,6.800,,,,0.190,0.120,0.330*6B
###2023-12-09 13:46:48.037682$GNZDA,184647.10,09,12,2023,00,00*78
###2023-12-09 13:46:48.038315$GNEBP,,,,,,M*13
###2023-12-09 13:46:48.205827$GNGGA,184647.30,4138.0395267,N,07032.4386120,W,1,18,0.7,15.476,M,-29.746,M,0.0,*57
###2023-12-09 13:46:48.407539$GNGGA,184647.50,4138.0395294,N,07032.4386087,W,1,18,0.7,15.476,M,-29.746,M,0.0,*51
###2023-12-09 13:46:48.605927$GNGGA,184647.70,4138.0395307,N,07032.4386059,W,1,18,0.7,15.477,M,-29.746,M,0.0,*5A
###2023-12-09 13:46:48.806158$GNGGA,184647.90,4138.0395317,N,07032.4386029,W,1,18,0.7,15.475,M,-29.746,M,0.0,*50
###2023-12-09 13:46:49.009292$GNRMC,184648.10,A,4138.0395331,N,07032.4386012,W,0.04,243.17,091223,,,A*54
###2023-12-09 13:46:49.012174$GNGGA,184648.10,4138.0395331,N,07032.4386012,W,1,18,0.7,15.470,M,-29.746,M,0.0,*5E
###2023-12-09 13:46:49.013892$GPGSA,A,3,04,16,26,28,29,31,,,,,,,1.3,0.7,1.1*33
###2023-12-09 13:46:49.015480$GLGSA,A,3,65,72,73,75,,,,,,,,,1.3,0.7,1.1*2B
###2023-12-09 13:46:49.016989$GAGSA,A,3,04,21,27,,,,,,,,,,1.3,0.7,1.1*24
###2023-12-09 13:46:49.018636$GBGSA,A,3,12,24,25,33,35,,,,,,,,1.3,0.7,1.1*21
###2023-12-09 13:46:49.020957$GPGSV,2,1,06,04,51,304,48,16,72,228,41,26,78,041,40,28,34,089,47*7D
###2023-12-09 13:46:49.022707$GPGSV,2,2,06,29,18,043,42,31,56,073,49,,,,,,,,*74
###2023-12-09 13:46:49.025024$GLGSV,1,1,04,65,43,312,45,72,56,213,39,73,17,056,37,75,47,280,46*64
###2023-12-09 13:46:49.027066$GAGSV,1,1,03,04,43,308,46,21,72,043,41,27,19,051,43,,,,*5B
###2023-12-09 13:46:49.029395$GBGSV,2,1,05,12,19,122,42,24,58,052,48,25,54,282,42,33,40,213,35*6B
###2023-12-09 13:46:49.030862$GBGSV,2,2,05,35,16,051,39,,,,,,,,,,,,*51
###2023-12-09 13:46:49.032183$GNVTG,243.17,T,,M,0.04,N,0.07,K,A*23
###2023-12-09 13:46:49.033794$GNGST,184648.10,7.200,,,,0.190,0.120,0.330*6F
###2023-12-09 13:46:49.035093$GNZDA,184648.10,09,12,2023,00,00*77
###2023-12-09 13:46:49.035731$GNEBP,,,,,,M*13
###2023-12-09 13:46:49.212331$GNGGA,184648.30,4138.0395345,N,07032.4385999,W,1,18,0.7,15.473,M,-29.746,M,0.0,*55
###2023-12-09 13:46:49.406599$GNGGA,184648.50,4138.0395350,N,07032.4385978,W,1,18,0.7,15.473,M,-29.746,M,0.0,*58
###2023-12-09 13:46:49.603683$GNGGA,184648.70,4138.0395361,N,07032.4385955,W,1,18,0.7,15.476,M,-29.746,M,0.0,*52
###2023-12-09 13:46:49.805306$GNGGA,184648.90,4138.0395361,N,07032.4385944,W,1,18,0.7,15.472,M,-29.746,M,0.0,*58
###2023-12-09 13:46:50.009216$GNRMC,184649.10,A,4138.0395378,N,07032.4385912,W,0.04,243.17,091223,,,A*52
###2023-12-09 13:46:50.012087$GNGGA,184649.10,4138.0395378,N,07032.4385912,W,1,18,0.7,15.477,M,-29.746,M,0.0,*5F
###2023-12-09 13:46:50.013821$GPGSA,A,3,04,16,26,28,29,31,,,,,,,1.3,0.7,1.1*33
###2023-12-09 13:46:50.015421$GLGSA,A,3,65,72,73,75,,,,,,,,,1.3,0.7,1.1*2B
###2023-12-09 13:46:50.016939$GAGSA,A,3,04,21,27,,,,,,,,,,1.3,0.7,1.1*24
###2023-12-09 13:46:50.018591$GBGSA,A,3,12,24,25,33,35,,,,,,,,1.3,0.7,1.1*21
###2023-12-09 13:46:50.020927$GPGSV,2,1,06,04,51,304,47,16,72,228,41,26,78,041,40,28,34,089,46*73
###2023-12-09 13:46:50.022690$GPGSV,2,2,06,29,18,043,42,31,56,073,49,,,,,,,,*74
###2023-12-09 13:46:50.025024$GLGSV,1,1,04,65,43,312,45,72,56,213,39,73,17,056,37,75,47,280,46*64
###2023-12-09 13:46:50.027082$GAGSV,1,1,03,04,43,308,46,21,72,043,41,27,19,051,43,,,,*5B
###2023-12-09 13:46:50.029424$GBGSV,2,1,05,12,19,122,42,24,58,052,47,25,54,282,42,33,40,213,35*64
###2023-12-09 13:46:50.030895$GBGSV,2,2,05,35,16,051,39,,,,,,,,,,,,*51
###2023-12-09 13:46:50.032214$GNVTG,243.17,T,,M,0.04,N,0.07,K,A*23
###2023-12-09 13:46:50.033833$GNGST,184649.10,7.100,,,,0.190,0.120,0.330*6D
###2023-12-09 13:46:50.035137$GNZDA,184649.10,09,12,2023,00,00*76
###2023-12-09 13:46:50.035775$GNEBP,,,,,,M*13
###2023-12-09 13:46:50.205649$GNGGA,184649.30,4138.0395378,N,07032.4385894,W,1,18,0.7,15.478,M,-29.746,M,0.0,*5D
###2023-12-09 13:46:50.405391$GNGGA,184649.50,4138.0395399,N,07032.4385882,W,1,18,0.7,15.475,M,-29.746,M,0.0,*5E
###2023-12-09 13:46:50.605980$GNGGA,184649.70,4138.0395419,N,07032.4385868,W,1,18,0.7,15.476,M,-29.746,M,0.0,*54
###2023-12-09 13:46:50.806306$GNGGA,184649.90,4138.0395445,N,07032.4385843,W,1,18,0.7,15.475,M,-29.746,M,0.0,*59
###2023-12-09 13:46:51.008126$GNRMC,184650.10,A,4138.0395462,N,07032.4385834,W,0.02,243.17,091223,,,A*55
###2023-12-09 13:46:51.010995$GNGGA,184650.10,4138.0395462,N,07032.4385834,W,1,18,0.7,15.471,M,-29.746,M,0.0,*58
###2023-12-09 13:46:51.012715$GPGSA,A,3,04,16,26,28,29,31,,,,,,,1.3,0.7,1.1*33
###2023-12-09 13:46:51.014287$GLGSA,A,3,65,72,73,75,,,,,,,,,1.3,0.7,1.1*2B
###2023-12-09 13:46:51.015808$GAGSA,A,3,04,21,27,,,,,,,,,,1.3,0.7,1.1*24
###2023-12-09 13:46:51.017446$GBGSA,A,3,12,24,25,33,35,,,,,,,,1.3,0.7,1.1*21
###2023-12-09 13:46:51.019773$GPGSV,2,1,06,04,51,304,47,16,72,228,42,26,78,041,40,28,34,089,46*70
###2023-12-09 13:46:51.021515$GPGSV,2,2,06,29,18,043,42,31,56,073,49,,,,,,,,*74
###2023-12-09 13:46:51.023845$GLGSV,1,1,04,65,43,312,45,72,56,213,39,73,17,056,37,75,47,280,46*64
###2023-12-09 13:46:51.025879$GAGSV,1,1,03,04,43,308,46,21,72,043,40,27,19,051,43,,,,*5A
###2023-12-09 13:46:51.028204$GBGSV,2,1,05,12,19,122,42,24,58,052,47,25,54,282,42,33,40,213,35*64
###2023-12-09 13:46:51.029652$GBGSV,2,2,05,35,16,051,39,,,,,,,,,,,,*51
###2023-12-09 13:46:51.030980$GNVTG,243.17,T,,M,0.02,N,0.04,K,A*26
###2023-12-09 13:46:51.032584$GNGST,184650.10,7.300,,,,0.190,0.120,0.330*67
###2023-12-09 13:46:51.033867$GNZDA,184650.10,09,12,2023,00,00*7E
###2023-12-09 13:46:51.034499$GNEBP,,,,,,M*13
###2023-12-09 13:46:51.211805$GNGGA,184650.30,4138.0395481,N,07032.4385808,W,1,18,0.7,15.472,M,-29.746,M,0.0,*5B
###2023-12-09 13:46:51.405389$GNGGA,184650.50,4138.0395515,N,07032.4385786,W,1,18,0.7,15.476,M,-29.746,M,0.0,*5C
###2023-12-09 13:46:51.607872$GNGGA,184650.70,4138.0395536,N,07032.4385759,W,1,18,0.7,15.471,M,-29.746,M,0.0,*5A
###2023-12-09 13:46:51.806089$GNGGA,184650.90,4138.0395558,N,07032.4385742,W,1,18,0.7,15.470,M,-29.746,M,0.0,*57
###2023-12-09 13:46:52.010098$GNRMC,184651.10,A,4138.0395574,N,07032.4385712,W,0.04,243.17,091223,,,A*5F
###2023-12-09 13:46:52.012989$GNGGA,184651.10,4138.0395574,N,07032.4385712,W,1,18,0.7,15.465,M,-29.746,M,0.0,*51
###2023-12-09 13:46:52.014727$GPGSA,A,3,04,16,26,28,29,31,,,,,,,1.3,0.7,1.1*33
###2023-12-09 13:46:52.016563$GLGSA,A,3,65,72,73,75,,,,,,,,,1.3,0.7,1.1*2B
###2023-12-09 13:46:52.018090$GAGSA,A,3,04,21,27,,,,,,,,,,1.3,0.7,1.1*24
###2023-12-09 13:46:52.019759$GBGSA,A,3,12,24,25,33,35,,,,,,,,1.3,0.7,1.1*21
###2023-12-09 13:46:52.022098$GPGSV,2,1,06,04,51,304,47,16,72,228,42,26,78,041,40,28,34,089,46*70
###2023-12-09 13:46:52.023867$GPGSV,2,2,06,29,18,043,42,31,56,073,49,,,,,,,,*74
###2023-12-09 13:46:52.026208$GLGSV,1,1,04,65,43,312,44,72,56,213,39,73,17,056,37,75,47,280,46*65
###2023-12-09 13:46:52.028250$GAGSV,1,1,03,04,43,308,46,21,72,043,40,27,19,051,43,,,,*5A
###2023-12-09 13:46:52.030595$GBGSV,2,1,05,12,19,122,42,24,58,052,47,25,54,282,42,33,40,213,35*64
