###2023-12-09 12:43:27.970853$GNVTG,161.49,T,,M,2.60,N,4.82,K,A*22
###2023-12-09 12:43:27.972538$GNGST,174327.10,18.000,,,,0.079,0.070,0.160*55
###2023-12-09 12:43:27.973841$GNZDA,174327.10,09,12,2023,00,00*74
###2023-12-09 12:43:27.974486$GNEBP,,,,,,M*13
###2023-12-09 12:43:28.143584$GNGGA,174327.30,4138.0453041,N,07032.3948378,W,1,24,0.6,13.266,M,-29.745,M,0.0,*5C
###2023-12-09 12:43:28.345197$GNGGA,174327.50,4138.0451713,N,07032.3947545,W,1,24,0.6,13.272,M,-29.745,M,0.0,*5A
###2023-12-09 12:43:28.544272$GNGGA,174327.70,4138.0450390,N,07032.3946692,W,1,24,0.6,13.268,M,-29.745,M,0.0,*55
###2023-12-09 12:43:28.745537$GNGGA,174327.90,4138.0449072,N,07032.3945818,W,1,24,0.6,13.279,M,-29.745,M,0.0,*53
###2023-12-09 12:43:28.945030$GNRMC,174328.10,A,4138.0447766,N,07032.3944757,W,2.74,145.27,091223,,,A*50
###2023-12-09 12:43:28.947933$GNGGA,174328.10,4138.0447766,N,07032.3944757,W,1,24,0.6,13.278,M,-29.745,M,0.0,*5C
###2023-12-09 12:43:28.949817$GPGSA,A,3,03,04,16,26,28,29,31,32,,,,,1.1,0.6,0.9*3B
###2023-12-09 12:43:28.951561$GLGSA,A,3,65,71,72,73,74,75,,,,,,,1.1,0.6,0.9*24
###2023-12-09 12:43:28.953143$GAGSA,A,3,04,19,21,27,,,,,,,,,1.1,0.6,0.9*26
###2023-12-09 12:43:28.954803$GBGSA,A,3,14,24,25,26,33,,,,,,,,1.1,0.6,0.9*2F
###2023-12-09 12:43:28.957126$GPGSV,2,1,08,03,38,271,43,04,25,311,42,16,40,208,45,26,70,207,48*7D
###2023-12-09 12:43:28.959466$GPGSV,2,2,08,28,55,060,44,29,25,070,43,31,72,013,47,32,27,136,42*71
###2023-12-09 12:43:28.961804$GLGSV,2,1,06,65,16,329,43,71,51,170,46,72,69,300,46,73,44,036,46*65
###2023-12-09 12:43:28.963559$GLGSV,2,2,06,74,71,307,42,75,25,245,45,,,,,,,,*63
###2023-12-09 12:43:28.965880$GAGSV,1,1,04,04,23,312,41,19,84,288,40,21,81,170,46,27,39,049,44*62
###2023-12-09 12:43:28.968253$GBGSV,2,1,05,14,51,196,44,24,79,002,48,25,35,255,44,26,32,059,45*6F
###2023-12-09 12:43:28.969719$GBGSV,2,2,05,33,62,246,49,,,,,,,,,,,,*57
###2023-12-09 12:43:28.971054$GNVTG,145.27,T,,M,2.74,N,5.08,K,A*2A
###2023-12-09 12:43:28.972699$GNGST,174328.10,18.000,,,,0.079,0.069,0.160*52
###2023-12-09 12:43:28.973986$GNZDA,174328.10,09,12,2023,00,00*7B
###2023-12-09 12:43:28.974636$GNEBP,,,,,,M*13
###2023-12-09 12:43:29.144906$GNGGA,174328.30,4138.0446604,N,07032.3943588,W,1,24,0.6,13.284,M,-29.745,M,0.0,*5E
###2023-12-09 12:43:29.344389$GNGGA,174328.50,4138.0445490,N,07032.3942302,W,1,24,0.6,13.291,M,-29.745,M,0.0,*55
###2023-12-09 12:43:29.545423$GNGGA,174328.70,4138.0444356,N,07032.3940929,W,1,24,0.6,13.294,M,-29.745,M,0.0,*5F
###2023-12-09 12:43:29.743648$GNGGA,174328.90,4138.0443282,N,07032.3939499,W,1,24,0.6,13.290,M,-29.745,M,0.0,*52
###2023-12-09 12:43:29.944285$GNRMC,174329.10,A,4138.0442321,N,07032.3937925,W,2.70,126.19,091223,,,A*50
###2023-12-09 12:43:29.947175$GNGGA,174329.10,4138.0442321,N,07032.3937925,W,1,24,0.6,13.289,M,-29.745,M,0.0,*5E
###2023-12-09 12:43:29.949054$GPGSA,A,3,03,04,16,26,28,29,31,32,,,,,1.1,0.6,0.9*3B
###2023-12-09 12:43:29.950793$GLGSA,A,3,65,71,72,73,74,75,,,,,,,1.1,0.6,0.9*24
###2023-12-09 12:43:29.952391$GAGSA,A,3,04,19,21,27,,,,,,,,,1.1,0.6,0.9*26
###2023-12-09 12:43:29.954040$GBGSA,A,3,14,24,25,26,33,,,,,,,,1.1,0.6,0.9*2F
###2023-12-09 12:43:29.956380$GPGSV,2,1,08,03,38,271,43,04,25,311,41,16,40,208,46,26,70,207,48*7D
###2023-12-09 12:43:29.958728$GPGSV,2,2,08,28,55,060,45,29,25,070,43,31,72,013,47,32,27,136,41*73
###2023-12-09 12:43:29.961074$GLGSV,2,1,06,65,16,329,42,71,51,170,46,72,69,300,46,73,44,036,46*64
###2023-12-09 12:43:29.962847$GLGSV,2,2,06,74,71,307,43,75,25,245,44,,,,,,,,*63
###2023-12-09 12:43:29.965185$GAGSV,1,1,04,04,23,312,41,19,84,288,40,21,81,170,46,27,39,049,43*65
###2023-12-09 12:43:29.967544$GBGSV,2,1,05,14,51,196,45,24,79,002,48,25,35,255,45,26,32,059,44*6E
###2023-12-09 12:43:29.969012$GBGSV,2,2,05,33,62,246,49,,,,,,,,,,,,*57
###2023-12-09 12:43:29.970342$GNVTG,126.19,T,,M,2.70,N,5.00,K,A*2E
###2023-12-09 12:43:29.972011$GNGST,174329.10,18.000,,,,0.079,0.069,0.160*53
###2023-12-09 12:43:29.973310$GNZDA,174329.10,09,12,2023,00,00*7A
###2023-12-09 12:43:29.973949$GNEBP,,,,,,M*13
###2023-12-09 12:43:30.143737$GNGGA,174329.30,4138.0441440,N,07032.3936291,W,1,24,0.6,13.293,M,-29.745,M,0.0,*51
###2023-12-09 12:43:30.344236$GNGGA,174329.50,4138.0440583,N,07032.3934579,W,1,24,0.6,13.296,M,-29.745,M,0.0,*5E
###2023-12-09 12:43:30.543057$GNGGA,174329.70,4138.0439812,N,07032.3932824,W,1,24,0.6,13.287,M,-29.745,M,0.0,*54
###2023-12-09 12:43:30.743648$GNGGA,174329.90,4138.0439172,N,07032.3930993,W,1,24,0.6,13.303,M,-29.745,M,0.0,*57
###2023-12-09 12:43:30.944120$GNRMC,174330.10,A,4138.0438609,N,07032.3929062,W,2.72,110.65,091223,,,A*53
###2023-12-09 12:43:30.947004$GNGGA,174330.10,4138.0438609,N,07032.3929062,W,1,24,0.6,13.293,M,-29.745,M,0.0,*5A
###2023-12-09 12:43:30.948884$GPGSA,A,3,03,04,16,26,28,29,31,32,,,,,1.1,0.6,0.9*3B
###2023-12-09 12:43:30.950620$GLGSA,A,3,65,71,72,73,74,75,,,,,,,1.1,0.6,0.9*24
###2023-12-09 12:43:30.952212$GAGSA,A,3,04,19,21,27,,,,,,,,,1.1,0.6,0.9*26
###2023-12-09 12:43:30.953863$GBGSA,A,3,14,24,25,26,33,,,,,,,,1.1,0.6,0.9*2F
###2023-12-09 12:43:30.956213$GPGSV,2,1,08,03,38,271,44,04,25,311,42,16,40,208,46,26,70,207,48*79
###2023-12-09 12:43:30.958554$GPGSV,2,2,08,28,55,060,45,29,25,070,39,31,72,013,47,32,27,136,39*71
###2023-12-09 12:43:30.960903$GLGSV,2,1,06,65,16,329,41,71,51,170,46,72,69,300,47,73,44,036,46*66
###2023-12-09 12:43:30.962669$GLGSV,2,2,06,74,71,307,43,75,25,245,44,,,,,,,,*63
###2023-12-09 12:43:30.964999$GAGSV,1,1,04,04,23,312,41,19,84,288,40,21,81,170,47,27,39,049,43*64
###2023-12-09 12:43:30.967343$GBGSV,2,1,05,14,51,196,46,24,79,002,48,25,35,255,44,26,32,059,44*6C
###2023-12-09 12:43:30.968799$GBGSV,2,2,05,33,62,246,48,,,,,,,,,,,,*56
###2023-12-09 12:43:30.970123$GNVTG,110.65,T,,M,2.72,N,5.04,K,A*26
###2023-12-09 12:43:30.971787$GNGST,174330.10,18.000,,,,0.079,0.069,0.160*5B
###2023-12-09 12:43:30.973082$GNZDA,174330.10,09,12,2023,00,00*72
###2023-12-09 12:43:30.973722$GNEBP,,,,,,M*13
###2023-12-09 12:43:31.142954$GNGGA,174330.30,4138.0438115,N,07032.3927149,W,1,24,0.6,13.298,M,-29.745,M,0.0,*5F
###2023-12-09 12:43:31.345073$GNGGA,174330.50,4138.0437696,N,07032.3925131,W,1,24,0.6,13.303,M,-29.745,M,0.0,*54
###2023-12-09 12:43:31.543149$GNGGA,174330.70,4138.0437403,N,07032.3923133,W,1,24,0.6,13.304,M,-29.745,M,0.0,*5B
###2023-12-09 12:43:31.742619$GNGGA,174330.90,4138.0437276,N,07032.3921147,W,1,24,0.6,13.312,M,-29.745,M,0.0,*57
###2023-12-09 12:43:31.944227$GNRMC,174331.10,A,4138.0437216,N,07032.3919122,W,2.76,90.16,091223,,,A*68
###2023-12-09 12:43:31.947113$GNGGA,174331.10,4138.0437216,N,07032.3919122,W,1,24,0.6,13.313,M,-29.745,M,0.0,*51
###2023-12-09 12:43:31.949000$GPGSA,A,3,03,04,16,26,28,29,31,32,,,,,1.1,0.6,0.9*3B
###2023-12-09 12:43:31.950746$GLGSA,A,3,65,71,72,73,74,75,,,,,,,1.1,0.6,0.9*24
###2023-12-09 12:43:31.952341$GAGSA,A,3,04,19,21,27,,,,,,,,,1.1,0.6,0.9*26
###2023-12-09 12:43:31.953994$GBGSA,A,3,14,24,25,26,33,,,,,,,,1.1,0.6,0.9*2F
###2023-12-09 12:43:31.956347$GPGSV,2,1,08,03,38,271,45,04,25,311,39,16,40,208,46,26,70,207,48*74
###2023-12-09 12:43:31.958711$GPGSV,2,2,08,28,55,060,45,29,25,070,42,31,72,013,47,32,27,136,41*72
###2023-12-09 12:43:31.961058$GLGSV,2,1,06,65,16,329,41,71,51,170,47,72,69,300,46,73,44,036,47*67
###2023-12-09 12:43:31.962825$GLGSV,2,2,06,74,71,307,42,75,25,245,43,,,,,,,,*65
###2023-12-09 12:43:31.965163$GAGSV,1,1,04,04,23,312,40,19,84,288,40,21,81,170,46,27,39,049,44*63
###2023-12-09 12:43:31.967516$GBGSV,2,1,05,14,51,196,46,24,79,002,48,25,35,255,45,26,32,059,42*6B
###2023-12-09 12:43:31.968975$GBGSV,2,2,05,33,62,246,47,,,,,,,,,,,,*59
###2023-12-09 12:43:31.970267$GNVTG,90.16,T,,M,2.76,N,5.11,K,A*1B
###2023-12-09 12:43:31.971930$GNGST,174331.10,18.000,,,,0.079,0.069,0.160*5A
###2023-12-09 12:43:31.973225$GNZDA,174331.10,09,12,2023,00,00*73
###2023-12-09 12:43:31.973863$GNEBP,,,,,,M*13
###2023-12-09 12:43:32.145219$GNGGA,174331.30,4138.0437126,N,07032.3917082,W,1,24,0.6,13.305,M,-29.745,M,0.0,*51
###2023-12-09 12:43:32.347734$GNGGA,174331.50,4138.0437112,N,07032.3915084,W,1,24,0.6,13.313,M,-29.745,M,0.0,*53
###2023-12-09 12:43:32.546183$GNGGA,174331.70,4138.0437112,N,07032.3912956,W,1,24,0.6,13.311,M,-29.745,M,0.0,*52
###2023-12-09 12:43:32.742672$GNGGA,174331.90,4138.0437109,N,07032.3910935,W,1,24,0.6,13.303,M,-29.745,M,0.0,*52
###2023-12-09 12:43:32.951122$GNRMC,174332.10,A,4138.0437145,N,07032.3908919,W,2.80,91.47,091223,,,A*62
###2023-12-09 12:43:32.954001$GNGGA,174332.10,4138.0437145,N,07032.3908919,W,1,24,0.6,13.318,M,-29.745,M,0.0,*5C
###2023-12-09 12:43:32.955882$GPGSA,A,3,03,04,16,26,28,29,31,32,,,,,1.1,0.6,0.9*3B
###2023-12-09 12:43:32.957600$GLGSA,A,3,65,71,72,73,74,75,,,,,,,1.1,0.6,0.9*24
###2023-12-09 12:43:32.959208$GAGSA,A,3,04,19,21,27,,,,,,,,,1.1,0.6,0.9*26
###2023-12-09 12:43:32.960869$GBGSA,A,3,14,24,25,26,33,,,,,,,,1.1,0.6,0.9*2F
###2023-12-09 12:43:32.963216$GPGSV,2,1,08,03,38,271,44,04,25,311,41,16,40,208,46,26,70,207,48*7A
###2023-12-09 12:43:32.965568$GPGSV,2,2,08,28,55,060,44,29,25,070,40,31,72,013,47,32,27,136,40*70
