###2023-12-09 13:04:29.992845$GBGSV,2,1,05,14,42,192,44,24,72,028,48,25,42,263,47,26,26,063,43*66
###2023-12-09 13:04:29.994316$GBGSV,2,2,05,33,57,231,47,,,,,,,,,,,,*5F
###2023-12-09 13:04:29.995623$GNVTG,93.43,T,,M,3.54,N,6.55,K,A*1A
###2023-12-09 13:04:29.997267$GNGST,180429.10,18.000,,,,0.082,0.067,0.160*55
###2023-12-09 13:04:29.998554$GNZDA,180429.10,09,12,2023,00,00*76
###2023-12-09 13:04:29.999217$GNEBP,,,,,,M*13
###2023-12-09 13:04:30.165989$GNGGA,180429.30,4138.0587130,N,07032.3224747,W,1,24,0.6,13.304,M,-29.743,M,0.0,*5B
###2023-12-09 13:04:30.366588$GNGGA,180429.50,4138.0586998,N,07032.3222144,W,1,24,0.6,13.258,M,-29.743,M,0.0,*5D
###2023-12-09 13:04:30.566865$GNGGA,180429.70,4138.0587539,N,07032.3219770,W,1,24,0.6,13.301,M,-29.743,M,0.0,*5D
###2023-12-09 13:04:30.767049$GNGGA,180429.90,4138.0587946,N,07032.3217167,W,1,24,0.6,13.321,M,-29.743,M,0.0,*5B
###2023-12-09 13:04:30.968956$GNRMC,180430.10,A,4138.0587701,N,07032.3214560,W,3.48,102.75,091223,,,A*5B
###2023-12-09 13:04:30.971823$GNGGA,180430.10,4138.0587701,N,07032.3214560,W,1,24,0.6,13.281,M,-29.743,M,0.0,*5D
###2023-12-09 13:04:30.973683$GPGSA,A,3,03,04,16,26,28,29,31,32,,,,,1.1,0.6,0.9*3B
###2023-12-09 13:04:30.975411$GLGSA,A,3,65,71,72,73,74,75,,,,,,,1.1,0.6,0.9*24
###2023-12-09 13:04:30.976999$GAGSA,A,3,04,19,21,27,,,,,,,,,1.1,0.6,0.9*26
###2023-12-09 13:04:30.978660$GBGSA,A,3,14,24,25,26,33,,,,,,,,1.1,0.6,0.9*2F
###2023-12-09 13:04:30.980980$GPGSV,2,1,08,03,34,260,44,04,33,311,41,16,51,213,47,26,81,210,48*72
###2023-12-09 13:04:30.983321$GPGSV,2,2,08,28,48,071,44,29,25,060,41,31,68,040,46,32,18,140,43*7E
###2023-12-09 13:04:30.985667$GLGSV,2,1,06,65,25,327,41,71,40,173,47,72,73,265,46,73,35,042,44*65
###2023-12-09 13:04:30.987429$GLGSV,2,2,06,74,69,340,43,75,33,254,46,,,,,,,,*6C
###2023-12-09 13:04:30.989760$GAGSV,1,1,04,04,30,312,40,19,83,207,40,21,86,104,45,27,32,048,42*6A
###2023-12-09 13:04:30.992117$GBGSV,2,1,05,14,42,192,46,24,72,028,48,25,42,263,46,26,25,063,43*66
###2023-12-09 13:04:30.993577$GBGSV,2,2,05,33,57,231,47,,,,,,,,,,,,*5F
###2023-12-09 13:04:30.994917$GNVTG,102.75,T,,M,3.48,N,6.44,K,A*2B
###2023-12-09 13:04:30.996576$GNGST,180430.10,18.000,,,,0.082,0.068,0.160*52
###2023-12-09 13:04:30.997872$GNZDA,180430.10,09,12,2023,00,00*7E
###2023-12-09 13:04:30.998513$GNEBP,,,,,,M*13
###2023-12-09 13:04:31.166008$GNGGA,180430.30,4138.0587535,N,07032.3212122,W,1,24,0.6,13.273,M,-29.743,M,0.0,*53
###2023-12-09 13:04:31.369516$GNGGA,180430.50,4138.0588024,N,07032.3209635,W,1,24,0.6,13.311,M,-29.743,M,0.0,*51
###2023-12-09 13:04:31.568324$GNGGA,180430.70,4138.0588259,N,07032.3207026,W,1,24,0.6,13.282,M,-29.743,M,0.0,*5A
###2023-12-09 13:04:31.768331$GNGGA,180430.90,4138.0587889,N,07032.3204473,W,1,24,0.6,13.271,M,-29.743,M,0.0,*57
###2023-12-09 13:04:31.970410$GNRMC,180431.10,A,4138.0587441,N,07032.3202006,W,3.30,96.92,091223,,,A*65
###2023-12-09 13:04:31.973277$GNGGA,180431.10,4138.0587441,N,07032.3202006,W,1,24,0.6,13.276,M,-29.743,M,0.0,*51
###2023-12-09 13:04:31.975142$GPGSA,A,3,03,04,16,26,28,29,31,32,,,,,1.1,0.6,0.9*3B
###2023-12-09 13:04:31.976860$GLGSA,A,3,65,71,72,73,74,75,,,,,,,1.1,0.6,0.9*24
###2023-12-09 13:04:31.978443$GAGSA,A,3,04,19,21,27,,,,,,,,,1.1,0.6,0.9*26
###2023-12-09 13:04:31.980105$GBGSA,A,3,14,24,25,26,33,,,,,,,,1.1,0.6,0.9*2F
###2023-12-09 13:04:31.982431$GPGSV,2,1,08,03,34,260,45,04,33,311,42,16,51,213,47,26,81,210,47*7F
###2023-12-09 13:04:31.984772$GPGSV,2,2,08,28,48,071,43,29,25,060,41,31,68,040,45,32,18,140,41*78
###2023-12-09 13:04:31.987118$GLGSV,2,1,06,65,25,327,39,71,40,173,47,72,73,265,46,73,35,042,44*6A
###2023-12-09 13:04:31.988868$GLGSV,2,2,06,74,69,340,43,75,33,254,46,,,,,,,,*6C
###2023-12-09 13:04:31.991204$GAGSV,1,1,04,04,30,312,40,19,83,207,40,21,86,104,45,27,32,048,42*6A
###2023-12-09 13:04:31.993535$GBGSV,2,1,05,14,42,192,45,24,72,028,47,25,42,263,46,26,25,063,41*68
###2023-12-09 13:04:31.995002$GBGSV,2,2,05,33,57,231,48,,,,,,,,,,,,*50
###2023-12-09 13:04:31.996289$GNVTG,96.92,T,,M,3.30,N,6.12,K,A*12
###2023-12-09 13:04:31.997935$GNGST,180431.10,18.000,,,,0.083,0.068,0.160*52
###2023-12-09 13:04:31.999237$GNZDA,180431.10,09,12,2023,00,00*7F
###2023-12-09 13:04:31.999882$GNEBP,,,,,,M*13
###2023-12-09 13:04:32.166734$GNGGA,180431.30,4138.0587516,N,07032.3199465,W,1,24,0.6,13.308,M,-29.743,M,0.0,*58
###2023-12-09 13:04:32.366529$GNGGA,180431.50,4138.0587568,N,07032.3196811,W,1,24,0.6,13.278,M,-29.743,M,0.0,*51
###2023-12-09 13:04:32.566953$GNGGA,180431.70,4138.0587081,N,07032.3194299,W,1,24,0.6,13.267,M,-29.743,M,0.0,*57
###2023-12-09 13:04:32.769704$GNGGA,180431.90,4138.0586793,N,07032.3191821,W,1,24,0.6,13.306,M,-29.743,M,0.0,*56
###2023-12-09 13:04:32.977011$GNRMC,180432.10,A,4138.0586713,N,07032.3189191,W,3.71,94.08,091223,,,A*68
###2023-12-09 13:04:32.979869$GNGGA,180432.10,4138.0586713,N,07032.3189191,W,1,24,0.6,13.314,M,-29.743,M,0.0,*5D
###2023-12-09 13:04:32.981720$GPGSA,A,3,03,04,16,26,28,29,31,32,,,,,1.1,0.6,0.9*3B
###2023-12-09 13:04:32.983441$GLGSA,A,3,65,71,72,73,74,75,,,,,,,1.1,0.6,0.9*24
###2023-12-09 13:04:32.985023$GAGSA,A,3,04,19,21,27,,,,,,,,,1.1,0.6,0.9*26
###2023-12-09 13:04:32.986680$GBGSA,A,3,14,24,25,26,33,,,,,,,,1.1,0.6,0.9*2F
###2023-12-09 13:04:32.989000$GPGSV,2,1,08,03,34,260,45,04,33,311,42,16,51,213,47,26,81,210,48*70
###2023-12-09 13:04:32.991336$GPGSV,2,2,08,28,48,071,43,29,25,060,42,31,68,040,46,32,18,140,40*79
###2023-12-09 13:04:32.993662$GLGSV,2,1,06,65,25,327,40,71,40,173,47,72,73,265,46,73,35,042,44*64
###2023-12-09 13:04:32.995411$GLGSV,2,2,06,74,69,340,43,75,33,254,47,,,,,,,,*6D
###2023-12-09 13:04:32.997734$GAGSV,1,1,04,04,30,312,41,19,83,207,40,21,86,104,45,27,32,048,41*68
###2023-12-09 13:04:33.000066$GBGSV,2,1,05,14,42,192,45,24,72,028,47,25,42,263,46,26,25,063,42*6B
###2023-12-09 13:04:33.001521$GBGSV,2,2,05,33,57,231,48,,,,,,,,,,,,*50
###2023-12-09 13:04:33.002817$GNVTG,94.08,T,,M,3.71,N,6.88,K,A*15
###2023-12-09 13:04:33.004455$GNGST,180432.10,18.000,,,,0.083,0.068,0.160*51
###2023-12-09 13:04:33.005740$GNZDA,180432.10,09,12,2023,00,00*7C
###2023-12-09 13:04:33.006376$GNEBP,,,,,,M*13
###2023-12-09 13:04:33.168838$GNGGA,180432.30,4138.0586584,N,07032.3186551,W,1,24,0.6,13.259,M,-29.743,M,0.0,*5C
###2023-12-09 13:04:33.366306$GNGGA,180432.50,4138.0586663,N,07032.3184142,W,1,24,0.6,13.279,M,-29.743,M,0.0,*56
###2023-12-09 13:04:33.566764$GNGGA,180432.70,4138.0586680,N,07032.3181580,W,1,24,0.6,13.332,M,-29.743,M,0.0,*58
###2023-12-09 13:04:33.767050$GNGGA,180432.90,4138.0586428,N,07032.3178874,W,1,24,0.6,13.271,M,-29.743,M,0.0,*50
###2023-12-09 13:04:33.967888$GNRMC,180433.10,A,4138.0586710,N,07032.3176529,W,3.21,68.10,091223,,,A*62
###2023-12-09 13:04:33.970743$GNGGA,180433.10,4138.0586710,N,07032.3176529,W,1,24,0.6,13.257,M,-29.743,M,0.0,*5E
###2023-12-09 13:04:33.972593$GPGSA,A,3,03,04,16,26,28,29,31,32,,,,,1.1,0.6,0.9*3B
###2023-12-09 13:04:33.974304$GLGSA,A,3,65,71,72,73,74,75,,,,,,,1.1,0.6,0.9*24
###2023-12-09 13:04:33.975901$GAGSA,A,3,04,19,21,27,,,,,,,,,1.1,0.6,0.9*26
###2023-12-09 13:04:33.977546$GBGSA,A,3,14,24,25,26,33,,,,,,,,1.1,0.6,0.9*2F
###2023-12-09 13:04:33.979880$GPGSV,2,1,08,03,34,260,44,04,33,311,40,16,51,213,48,26,81,210,47*73
###2023-12-09 13:04:33.982201$GPGSV,2,2,08,28,48,071,43,29,25,060,40,31,68,040,45,32,18,140,43*7B
###2023-12-09 13:04:33.984528$GLGSV,2,1,06,65,25,327,42,71,40,173,47,72,73,265,47,73,35,042,44*67
###2023-12-09 13:04:33.986263$GLGSV,2,2,06,74,69,340,42,75,33,254,47,,,,,,,,*6C
###2023-12-09 13:04:33.988594$GAGSV,1,1,04,04,30,312,40,19,83,207,40,21,86,104,45,27,32,048,42*6A
###2023-12-09 13:04:33.990929$GBGSV,2,1,05,14,42,192,45,24,72,028,47,25,42,263,47,26,25,063,41*69
###2023-12-09 13:04:33.992378$GBGSV,2,2,05,33,57,231,48,,,,,,,,,,,,*50
###2023-12-09 13:04:33.993661$GNVTG,68.10,T,,M,3.21,N,5.94,K,A*14
###2023-12-09 13:04:33.995310$GNGST,180433.10,18.000,,,,0.082,0.068,0.160*51
###2023-12-09 13:04:33.996592$GNZDA,180433.10,09,12,2023,00,00*7D
###2023-12-09 13:04:33.997227$GNEBP,,,,,,M*13
###2023-12-09 13:04:34.166089$GNGGA,180433.30,4138.0587313,N,07032.3174170,W,1,24,0.6,13.308,M,-29.743,M,0.0,*5B
###2023-12-09 13:04:34.366324$GNGGA,180433.50,4138.0587406,N,07032.3171552,W,1,24,0.6,13.291,M,-29.743,M,0.0,*5E
###2023-12-09 13:04:34.567733$GNGGA,180433.70,4138.0587090,N,07032.3169176,W,1,24,0.6,13.258,M,-29.743,M,0.0,*59
###2023-12-09 13:04:34.767022$GNGGA,180433.90,4138.0587167,N,07032.3166757,W,1,24,0.6,13.292,M,-29.743,M,0.0,*52
###2023-12-09 13:04:34.968823$GNRMC,180434.10,A,4138.0587570,N,07032.3164165,W,3.58,84.47,091223,,,A*61
###2023-12-09 13:04:34.971713$GNGGA,180434.10,4138.0587570,N,07032.3164165,W,1,24,0.6,13.287,M,-29.743,M,0.0,*5E
###2023-12-09 13:04:34.973576$GPGSA,A,3,03,04,16,26,28,29,31,32,,,,,1.1,0.6,0.9*3B
###2023-12-09 13:04:34.975307$GLGSA,A,3,65,71,72,73,74,75,,,,,,,1.1,0.6,0.9*24
###2023-12-09 13:04:34.976887$GAGSA,A,3,04,19,21,27,,,,,,,,,1.1,0.6,0.9*26
###2023-12-09 13:04:34.978526$GBGSA,A,3,14,24,25,26,33,,,,,,,,1.1,0.6,0.9*2F
