###2023-12-09 13:39:35.018766$GPGSV,2,1,08,03,25,244,42,04,48,306,45,16,69,225,45,26,81,040,48*77
###2023-12-09 13:39:35.021105$GPGSV,2,2,08,27,19,172,40,28,36,087,45,29,19,045,43,31,58,070,47*73
###2023-12-09 13:39:35.023452$GLGSV,2,1,06,65,40,316,44,71,20,176,41,72,60,217,45,73,20,054,42*65
###2023-12-09 13:39:35.025187$GLGSV,2,2,06,74,58,018,43,75,45,275,49,,,,,,,,*6D
###2023-12-09 13:39:35.027555$GAGSV,1,1,04,04,41,309,44,19,70,181,40,21,75,045,46,27,21,050,41*60
###2023-12-09 13:39:35.029877$GBGSV,2,1,06,12,17,125,41,14,27,189,40,24,61,048,48,25,52,278,49*6D
###2023-12-09 13:39:35.031632$GBGSV,2,2,06,33,44,215,45,35,16,055,44,,,,,,,,*6B
###2023-12-09 13:39:35.032945$GNVTG,180.43,T,,M,3.44,N,6.37,K,A*2C
###2023-12-09 13:39:35.034552$GNGST,183934.10,5.300,,,,0.090,0.066,0.150*69
###2023-12-09 13:39:35.035893$GNZDA,183934.10,09,12,2023,00,00*74
###2023-12-09 13:39:35.036531$GNEBP,,,,,,M*13
###2023-12-09 13:39:35.205230$GNGGA,183934.30,4138.0547949,N,07032.3859540,W,1,25,0.6,13.377,M,-29.744,M,0.0,*54
###2023-12-09 13:39:35.404710$GNGGA,183934.50,4138.0546239,N,07032.3859171,W,1,25,0.6,13.367,M,-29.744,M,0.0,*58
###2023-12-09 13:39:35.605193$GNGGA,183934.70,4138.0544418,N,07032.3858914,W,1,25,0.6,13.382,M,-29.744,M,0.0,*5C
###2023-12-09 13:39:35.803897$GNGGA,183934.90,4138.0542625,N,07032.3858834,W,1,25,0.6,13.390,M,-29.744,M,0.0,*58
###2023-12-09 13:39:36.007151$GNRMC,183935.10,A,4138.0540815,N,07032.3858758,W,3.30,176.12,091223,,,A*57
###2023-12-09 13:39:36.010008$GNGGA,183935.10,4138.0540815,N,07032.3858758,W,1,25,0.6,13.402,M,-29.744,M,0.0,*57
###2023-12-09 13:39:36.011869$GPGSA,A,3,03,04,16,26,27,28,29,31,,,,,1.0,0.6,0.8*3F
###2023-12-09 13:39:36.013580$GLGSA,A,3,65,71,72,73,74,75,,,,,,,1.0,0.6,0.8*24
###2023-12-09 13:39:36.015177$GAGSA,A,3,04,19,21,27,,,,,,,,,1.0,0.6,0.8*26
###2023-12-09 13:39:36.016901$GBGSA,A,3,12,14,24,25,33,35,,,,,,,1.0,0.6,0.8*2E
###2023-12-09 13:39:36.019227$GPGSV,2,1,08,03,25,244,41,04,48,306,46,16,69,225,45,26,81,040,48*77
###2023-12-09 13:39:36.021546$GPGSV,2,2,08,27,19,172,39,28,36,087,45,29,19,045,41,31,58,070,46*7E
###2023-12-09 13:39:36.023878$GLGSV,2,1,06,65,40,316,44,71,20,176,41,72,60,217,45,73,20,054,43*64
###2023-12-09 13:39:36.025616$GLGSV,2,2,06,74,58,018,43,75,45,275,49,,,,,,,,*6D
###2023-12-09 13:39:36.027942$GAGSV,1,1,04,04,41,309,44,19,70,181,40,21,75,045,46,27,21,050,41*60
###2023-12-09 13:39:36.030265$GBGSV,2,1,06,12,17,125,41,14,27,189,41,24,61,048,48,25,52,278,48*6D
###2023-12-09 13:39:36.032015$GBGSV,2,2,06,33,44,215,45,35,16,055,44,,,,,,,,*6B
###2023-12-09 13:39:36.033375$GNVTG,176.12,T,,M,3.30,N,6.12,K,A*25
###2023-12-09 13:39:36.035002$GNGST,183935.10,5.300,,,,0.090,0.066,0.150*68
###2023-12-09 13:39:36.036289$GNZDA,183935.10,09,12,2023,00,00*75
###2023-12-09 13:39:36.036926$GNEBP,,,,,,M*13
###2023-12-09 13:39:36.204471$GNGGA,183935.30,4138.0539025,N,07032.3858521,W,1,25,0.6,13.396,M,-29.744,M,0.0,*56
###2023-12-09 13:39:36.405466$GNGGA,183935.50,4138.0537265,N,07032.3858283,W,1,25,0.6,13.392,M,-29.744,M,0.0,*53
###2023-12-09 13:39:36.601945$GNGGA,183935.70,4138.0535481,N,07032.3858235,W,1,25,0.6,13.410,M,-29.744,M,0.0,*5F
###2023-12-09 13:39:36.804568$GNGGA,183935.90,4138.0533690,N,07032.3858239,W,1,25,0.6,13.425,M,-29.744,M,0.0,*5F
###2023-12-09 13:39:37.008162$GNRMC,183936.10,A,4138.0531920,N,07032.3858104,W,3.17,174.68,091223,,,A*50
###2023-12-09 13:39:37.011091$GNGGA,183936.10,4138.0531920,N,07032.3858104,W,1,25,0.6,13.424,M,-29.744,M,0.0,*5E
###2023-12-09 13:39:37.012952$GPGSA,A,3,03,04,16,26,27,28,29,31,,,,,1.0,0.6,0.8*3F
###2023-12-09 13:39:37.014678$GLGSA,A,3,65,71,72,73,74,75,,,,,,,1.0,0.6,0.8*24
###2023-12-09 13:39:37.016255$GAGSA,A,3,04,19,21,27,,,,,,,,,1.0,0.6,0.8*26
###2023-12-09 13:39:37.017958$GBGSA,A,3,12,14,24,25,33,35,,,,,,,1.0,0.6,0.8*2E
###2023-12-09 13:39:37.020286$GPGSV,2,1,08,03,25,244,42,04,48,306,45,16,69,225,45,26,81,040,48*77
###2023-12-09 13:39:37.022613$GPGSV,2,2,08,27,19,172,39,28,36,087,45,29,19,045,41,31,58,070,46*7E
###2023-12-09 13:39:37.024960$GLGSV,2,1,06,65,40,316,44,71,20,176,41,72,60,217,45,73,20,054,43*64
###2023-12-09 13:39:37.026710$GLGSV,2,2,06,74,58,018,43,75,45,275,49,,,,,,,,*6D
###2023-12-09 13:39:37.029031$GAGSV,1,1,04,04,41,309,44,19,70,181,40,21,75,045,46,27,21,050,39*6F
###2023-12-09 13:39:37.031365$GBGSV,2,1,06,12,17,125,42,14,27,189,41,24,61,048,48,25,52,278,48*6E
###2023-12-09 13:39:37.033101$GBGSV,2,2,06,33,44,215,45,35,16,055,44,,,,,,,,*6B
###2023-12-09 13:39:37.034418$GNVTG,174.68,T,,M,3.17,N,5.87,K,A*20
###2023-12-09 13:39:37.036037$GNGST,183936.10,5.400,,,,0.090,0.066,0.150*6C
###2023-12-09 13:39:37.037324$GNZDA,183936.10,09,12,2023,00,00*76
###2023-12-09 13:39:37.037961$GNEBP,,,,,,M*13
###2023-12-09 13:39:37.203058$GNGGA,183936.30,4138.0530202,N,07032.3858026,W,1,25,0.6,13.425,M,-29.744,M,0.0,*56
###2023-12-09 13:39:37.403064$GNGGA,183936.50,4138.0528410,N,07032.3858093,W,1,25,0.6,13.434,M,-29.744,M,0.0,*52
###2023-12-09 13:39:37.601818$GNGGA,183936.70,4138.0526677,N,07032.3858078,W,1,25,0.6,13.414,M,-29.744,M,0.0,*5A
###2023-12-09 13:39:37.802645$GNGGA,183936.90,4138.0524988,N,07032.3858308,W,1,25,0.6,13.449,M,-29.744,M,0.0,*55
###2023-12-09 13:39:38.005260$GNRMC,183937.10,A,4138.0523221,N,07032.3858512,W,3.19,180.68,091223,,,A*5E
###2023-12-09 13:39:38.008160$GNGGA,183937.10,4138.0523221,N,07032.3858512,W,1,25,0.6,13.466,M,-29.744,M,0.0,*53
###2023-12-09 13:39:38.010010$GPGSA,A,3,03,04,16,26,27,28,29,31,,,,,1.0,0.6,0.8*3F
###2023-12-09 13:39:38.011733$GLGSA,A,3,65,71,72,73,74,75,,,,,,,1.0,0.6,0.8*24
###2023-12-09 13:39:38.013311$GAGSA,A,3,04,19,21,27,,,,,,,,,1.0,0.6,0.8*26
###2023-12-09 13:39:38.015025$GBGSA,A,3,12,14,24,25,33,35,,,,,,,1.0,0.6,0.8*2E
###2023-12-09 13:39:38.017376$GPGSV,2,1,08,03,25,244,42,04,48,306,45,16,69,225,46,26,81,040,48*74
###2023-12-09 13:39:38.019704$GPGSV,2,2,08,27,19,172,39,28,36,087,44,29,19,045,41,31,58,070,46*7F
###2023-12-09 13:39:38.022025$GLGSV,2,1,06,65,40,316,44,71,20,176,40,72,60,217,46,73,20,054,41*64
###2023-12-09 13:39:38.023772$GLGSV,2,2,06,74,58,018,42,75,45,275,48,,,,,,,,*6D
###2023-12-09 13:39:38.026089$GAGSV,1,1,04,04,41,309,45,19,70,181,40,21,75,045,46,27,21,050,38*6F
###2023-12-09 13:39:38.028421$GBGSV,2,1,06,12,17,125,41,14,27,189,40,24,61,048,48,25,52,278,47*63
###2023-12-09 13:39:38.030162$GBGSV,2,2,06,33,44,215,45,35,16,055,43,,,,,,,,*6C
###2023-12-09 13:39:38.031493$GNVTG,180.68,T,,M,3.19,N,5.90,K,A*23
###2023-12-09 13:39:38.033103$GNGST,183937.10,5.500,,,,0.090,0.066,0.150*6C
###2023-12-09 13:39:38.034388$GNZDA,183937.10,09,12,2023,00,00*77
###2023-12-09 13:39:38.035037$GNEBP,,,,,,M*13
###2023-12-09 13:39:38.204008$GNGGA,183937.30,4138.0521544,N,07032.3858437,W,1,25,0.6,13.433,M,-29.744,M,0.0,*51
###2023-12-09 13:39:38.402056$GNGGA,183937.50,4138.0519830,N,07032.3858431,W,1,25,0.6,13.441,M,-29.744,M,0.0,*51
###2023-12-09 13:39:38.603799$GNGGA,183937.70,4138.0518031,N,07032.3858683,W,1,25,0.6,13.460,M,-29.744,M,0.0,*53
###2023-12-09 13:39:38.802611$GNGGA,183937.90,4138.0516315,N,07032.3858741,W,1,25,0.6,13.459,M,-29.744,M,0.0,*53
###2023-12-09 13:39:39.005842$GNRMC,183938.10,A,4138.0514591,N,07032.3858453,W,3.25,171.13,091223,,,A*50
###2023-12-09 13:39:39.008766$GNGGA,183938.10,4138.0514591,N,07032.3858453,W,1,25,0.6,13.466,M,-29.744,M,0.0,*50
###2023-12-09 13:39:39.010646$GPGSA,A,3,03,04,16,26,27,28,29,31,,,,,1.0,0.6,0.8*3F
###2023-12-09 13:39:39.012360$GLGSA,A,3,65,71,72,73,74,75,,,,,,,1.0,0.6,0.8*24
###2023-12-09 13:39:39.013942$GAGSA,A,3,04,19,21,27,,,,,,,,,1.0,0.6,0.8*26
###2023-12-09 13:39:39.015663$GBGSA,A,3,12,14,24,25,33,35,,,,,,,1.0,0.6,0.8*2E
###2023-12-09 13:39:39.017995$GPGSV,2,1,08,03,25,244,42,04,48,306,46,16,69,225,46,26,81,040,48*77
###2023-12-09 13:39:39.020340$GPGSV,2,2,08,27,19,172,39,28,36,087,45,29,19,045,41,31,58,070,46*7E
###2023-12-09 13:39:39.022695$GLGSV,2,1,06,65,40,316,44,71,20,176,41,72,60,217,45,73,20,054,42*65
###2023-12-09 13:39:39.024440$GLGSV,2,2,06,74,58,018,42,75,45,275,49,,,,,,,,*6C
###2023-12-09 13:39:39.026841$GAGSV,1,1,04,04,41,309,45,19,70,181,40,21,75,045,46,27,21,050,40*60
###2023-12-09 13:39:39.029177$GBGSV,2,1,06,12,17,125,41,14,27,189,41,24,61,048,48,25,52,278,48*6D
###2023-12-09 13:39:39.031182$GBGSV,2,2,06,33,44,215,45,35,16,055,45,,,,,,,,*6A
###2023-12-09 13:39:39.032528$GNVTG,171.13,T,,M,3.25,N,6.01,K,A*25
###2023-12-09 13:39:39.034147$GNGST,183938.10,5.300,,,,0.090,0.066,0.150*65
###2023-12-09 13:39:39.035456$GNZDA,183938.10,09,12,2023,00,00*78
###2023-12-09 13:39:39.036096$GNEBP,,,,,,M*13
###2023-12-09 13:39:39.205501$GNGGA,183938.30,4138.0512865,N,07032.3858178,W,1,25,0.6,13.449,M,-29.744,M,0.0,*53
###2023-12-09 13:39:39.401982$GNGGA,183938.50,4138.0511161,N,07032.3858163,W,1,25,0.6,13.455,M,-29.744,M,0.0,*5C
###2023-12-09 13:39:39.600869$GNGGA,183938.70,4138.0509334,N,07032.3858209,W,1,25,0.6,13.476,M,-29.744,M,0.0,*5B
###2023-12-09 13:39:39.803244$GNGGA,183938.90,4138.0507609,N,07032.3858027,W,1,25,0.6,13.465,M,-29.744,M,0.0,*5C
###2023-12-09 13:39:40.005402$GNRMC,183939.10,A,4138.0505939,N,07032.3857679,W,3.15,171.81,091223,,,A*52
