###2023-12-09 13:45:54.034429$GNZDA,184553.10,09,12,2023,00,00*7E
###2023-12-09 13:45:54.035115$GNEBP,,,,,,M*13
###2023-12-09 13:45:54.203035$GNGGA,184553.30,4138.0393588,N,07032.4389029,W,1,20,0.7,14.627,M,-29.746,M,0.0,*5A
###2023-12-09 13:45:54.402668$GNGGA,184553.50,4138.0393590,N,07032.4389021,W,1,20,0.7,14.633,M,-29.746,M,0.0,*58
###2023-12-09 13:45:54.600905$GNGGA,184553.70,4138.0393591,N,07032.4389015,W,1,20,0.7,14.645,M,-29.746,M,0.0,*5D
###2023-12-09 13:45:54.802516$GNGGA,184553.90,4138.0393594,N,07032.4389005,W,1,20,0.7,14.650,M,-29.746,M,0.0,*53
###2023-12-09 13:45:55.004547$GNRMC,184554.10,A,4138.0393591,N,07032.4389002,W,0.02,243.17,091223,,,A*58
###2023-12-09 13:45:55.007422$GNGGA,184554.10,4138.0393591,N,07032.4389002,W,1,20,0.7,14.650,M,-29.746,M,0.0,*5E
###2023-12-09 13:45:55.009151$GPGSA,A,3,04,16,26,28,29,31,,,,,,,1.3,0.7,1.1*33
###2023-12-09 13:45:55.010872$GLGSA,A,3,65,72,73,74,75,83,,,,,,,1.3,0.7,1.1*23
###2023-12-09 13:45:55.012391$GAGSA,A,3,04,21,27,,,,,,,,,,1.3,0.7,1.1*24
###2023-12-09 13:45:55.014036$GBGSA,A,3,12,24,25,33,35,,,,,,,,1.3,0.7,1.1*21
###2023-12-09 13:45:55.016373$GPGSV,2,1,06,04,51,304,46,16,72,228,43,26,78,041,40,28,34,089,46*70
###2023-12-09 13:45:55.018116$GPGSV,2,2,06,29,18,043,42,31,56,073,49,,,,,,,,*74
###2023-12-09 13:45:55.020454$GLGSV,2,1,06,65,42,313,46,72,57,214,35,73,18,056,42,74,56,022,37*6C
###2023-12-09 13:45:55.022194$GLGSV,2,2,06,75,47,279,47,83,16,042,37,,,,,,,,*63
###2023-12-09 13:45:55.024234$GAGSV,1,1,03,04,43,308,44,21,73,044,38,27,19,051,42,,,,*50
###2023-12-09 13:45:55.026559$GBGSV,2,1,05,12,19,123,42,24,59,051,47,25,54,281,38,33,41,214,38*62
###2023-12-09 13:45:55.028034$GBGSV,2,2,05,35,16,052,37,,,,,,,,,,,,*5C
###2023-12-09 13:45:55.029353$GNVTG,243.17,T,,M,0.02,N,0.04,K,A*26
###2023-12-09 13:45:55.030972$GNGST,184554.10,7.000,,,,0.200,0.120,0.320*68
###2023-12-09 13:45:55.032261$GNZDA,184554.10,09,12,2023,00,00*79
###2023-12-09 13:45:55.032900$GNEBP,,,,,,M*13
###2023-12-09 13:45:55.203188$GNGGA,184554.30,4138.0393590,N,07032.4388992,W,1,20,0.7,14.656,M,-29.746,M,0.0,*5A
###2023-12-09 13:45:55.402724$GNGGA,184554.50,4138.0393593,N,07032.4388983,W,1,20,0.7,14.663,M,-29.746,M,0.0,*59
###2023-12-09 13:45:55.600897$GNGGA,184554.70,4138.0393584,N,07032.4388973,W,1,20,0.7,14.670,M,-29.746,M,0.0,*50
###2023-12-09 13:45:55.801393$GNGGA,184554.90,4138.0393587,N,07032.4388967,W,1,20,0.7,14.679,M,-29.746,M,0.0,*51
###2023-12-09 13:45:56.006290$GNRMC,184555.10,A,4138.0393599,N,07032.4388952,W,0.06,243.17,091223,,,A*58
###2023-12-09 13:45:56.009161$GNGGA,184555.10,4138.0393599,N,07032.4388952,W,1,20,0.7,14.688,M,-29.746,M,0.0,*5F
###2023-12-09 13:45:56.010894$GPGSA,A,3,04,16,26,28,29,31,,,,,,,1.3,0.7,1.1*33
###2023-12-09 13:45:56.012607$GLGSA,A,3,65,72,73,74,75,83,,,,,,,1.3,0.7,1.1*23
###2023-12-09 13:45:56.014114$GAGSA,A,3,04,21,27,,,,,,,,,,1.3,0.7,1.1*24
###2023-12-09 13:45:56.015764$GBGSA,A,3,12,24,25,33,35,,,,,,,,1.3,0.7,1.1*21
###2023-12-09 13:45:56.018085$GPGSV,2,1,06,04,51,304,46,16,72,228,43,26,78,041,40,28,34,089,46*70
###2023-12-09 13:45:56.019834$GPGSV,2,2,06,29,18,043,42,31,56,073,49,,,,,,,,*74
###2023-12-09 13:45:56.022144$GLGSV,2,1,06,65,42,313,45,72,57,214,36,73,18,056,42,74,56,022,37*6C
###2023-12-09 13:45:56.023895$GLGSV,2,2,06,75,47,279,46,83,16,042,37,,,,,,,,*62
###2023-12-09 13:45:56.025917$GAGSV,1,1,03,04,43,308,45,21,73,044,38,27,19,051,42,,,,*51
###2023-12-09 13:45:56.028242$GBGSV,2,1,05,12,19,123,42,24,59,051,47,25,54,281,38,33,41,214,38*62
###2023-12-09 13:45:56.029693$GBGSV,2,2,05,35,16,052,37,,,,,,,,,,,,*5C
###2023-12-09 13:45:56.031021$GNVTG,243.17,T,,M,0.06,N,0.11,K,A*26
###2023-12-09 13:45:56.032627$GNGST,184555.10,6.900,,,,0.200,0.120,0.320*61
###2023-12-09 13:45:56.033906$GNZDA,184555.10,09,12,2023,00,00*78
###2023-12-09 13:45:56.034539$GNEBP,,,,,,M*13
###2023-12-09 13:45:56.202918$GNGGA,184555.30,4138.0393602,N,07032.4388942,W,1,20,0.7,14.698,M,-29.746,M,0.0,*5C
###2023-12-09 13:45:56.402270$GNGGA,184555.50,4138.0393605,N,07032.4388934,W,1,20,0.7,14.704,M,-29.746,M,0.0,*58
###2023-12-09 13:45:56.601824$GNGGA,184555.70,4138.0393605,N,07032.4388934,W,1,20,0.7,14.710,M,-29.746,M,0.0,*5F
###2023-12-09 13:45:56.801282$GNGGA,184555.90,4138.0393607,N,07032.4388928,W,1,20,0.7,14.716,M,-29.746,M,0.0,*58
###2023-12-09 13:45:57.007344$GNRMC,184556.10,A,4138.0393615,N,07032.4388916,W,0.02,243.17,091223,,,A*58
###2023-12-09 13:45:57.010223$GNGGA,184556.10,4138.0393615,N,07032.4388916,W,1,20,0.7,14.724,M,-29.746,M,0.0,*5C
###2023-12-09 13:45:57.011973$GPGSA,A,3,04,16,26,28,29,31,,,,,,,1.3,0.7,1.1*33
###2023-12-09 13:45:57.013696$GLGSA,A,3,65,72,73,74,75,83,,,,,,,1.3,0.7,1.1*23
###2023-12-09 13:45:57.015230$GAGSA,A,3,04,21,27,,,,,,,,,,1.3,0.7,1.1*24
###2023-12-09 13:45:57.016884$GBGSA,A,3,12,24,25,33,35,,,,,,,,1.3,0.7,1.1*21
###2023-12-09 13:45:57.019224$GPGSV,2,1,06,04,51,304,46,16,72,228,43,26,78,041,40,28,34,089,46*70
###2023-12-09 13:45:57.020978$GPGSV,2,2,06,29,18,043,42,31,56,073,49,,,,,,,,*74
###2023-12-09 13:45:57.023339$GLGSV,2,1,06,65,42,313,45,72,57,214,36,73,18,056,41,74,56,022,37*6F
###2023-12-09 13:45:57.025083$GLGSV,2,2,06,75,47,279,46,83,16,042,37,,,,,,,,*62
###2023-12-09 13:45:57.027134$GAGSV,1,1,03,04,43,308,45,21,73,044,38,27,19,051,42,,,,*51
###2023-12-09 13:45:57.029467$GBGSV,2,1,05,12,19,123,42,24,59,051,47,25,54,281,38,33,41,214,38*62
###2023-12-09 13:45:57.030940$GBGSV,2,2,05,35,16,052,37,,,,,,,,,,,,*5C
###2023-12-09 13:45:57.032273$GNVTG,243.17,T,,M,0.02,N,0.04,K,A*26
###2023-12-09 13:45:57.033896$GNGST,184556.10,6.900,,,,0.200,0.120,0.320*62
###2023-12-09 13:45:57.035204$GNZDA,184556.10,09,12,2023,00,00*7B
###2023-12-09 13:45:57.035846$GNEBP,,,,,,M*13
###2023-12-09 13:45:57.207442$GNGGA,184556.30,4138.0393602,N,07032.4388914,W,1,20,0.7,14.729,M,-29.746,M,0.0,*57
###2023-12-09 13:45:57.402257$GNGGA,184556.50,4138.0393601,N,07032.4388916,W,1,20,0.7,14.730,M,-29.746,M,0.0,*58
###2023-12-09 13:45:57.600709$GNGGA,184556.70,4138.0393602,N,07032.4388914,W,1,20,0.7,14.740,M,-29.746,M,0.0,*5C
###2023-12-09 13:45:57.802516$GNGGA,184556.90,4138.0393605,N,07032.4388916,W,1,20,0.7,14.742,M,-29.746,M,0.0,*55
###2023-12-09 13:45:58.007045$GNRMC,184557.10,A,4138.0393627,N,07032.4388923,W,0.02,243.17,091223,,,A*5E
###2023-12-09 13:45:58.009905$GNGGA,184557.10,4138.0393627,N,07032.4388923,W,1,20,0.7,14.748,M,-29.746,M,0.0,*50
###2023-12-09 13:45:58.011637$GPGSA,A,3,04,16,26,28,29,31,,,,,,,1.3,0.7,1.1*33
###2023-12-09 13:45:58.013352$GLGSA,A,3,65,72,73,74,75,83,,,,,,,1.3,0.7,1.1*23
###2023-12-09 13:45:58.014890$GAGSA,A,3,04,21,27,,,,,,,,,,1.3,0.7,1.1*24
###2023-12-09 13:45:58.016536$GBGSA,A,3,12,24,25,33,35,,,,,,,,1.3,0.7,1.1*21
###2023-12-09 13:45:58.018873$GPGSV,2,1,06,04,51,304,46,16,72,228,43,26,78,041,39,28,34,089,46*7E
###2023-12-09 13:45:58.020626$GPGSV,2,2,06,29,18,043,42,31,56,073,49,,,,,,,,*74
###2023-12-09 13:45:58.022967$GLGSV,2,1,06,65,42,313,45,72,57,214,37,73,18,056,41,74,56,022,38*61
###2023-12-09 13:45:58.024720$GLGSV,2,2,06,75,47,279,46,83,16,042,37,,,,,,,,*62
###2023-12-09 13:45:58.026782$GAGSV,1,1,03,04,43,308,44,21,73,044,39,27,19,051,42,,,,*51
###2023-12-09 13:45:58.029114$GBGSV,2,1,05,12,19,123,42,24,59,051,47,25,54,281,39,33,41,214,38*63
###2023-12-09 13:45:58.030579$GBGSV,2,2,05,35,16,052,36,,,,,,,,,,,,*5D
###2023-12-09 13:45:58.031910$GNVTG,243.17,T,,M,0.02,N,0.04,K,A*26
###2023-12-09 13:45:58.033531$GNGST,184557.10,6.900,,,,0.200,0.120,0.320*63
###2023-12-09 13:45:58.034838$GNZDA,184557.10,09,12,2023,00,00*7A
###2023-12-09 13:45:58.035479$GNEBP,,,,,,M*13
###2023-12-09 13:45:58.202975$GNGGA,184557.30,4138.0393625,N,07032.4388923,W,1,20,0.7,14.756,M,-29.746,M,0.0,*5F
###2023-12-09 13:45:58.402792$GNGGA,184557.50,4138.0393626,N,07032.4388933,W,1,20,0.7,14.759,M,-29.746,M,0.0,*54
###2023-12-09 13:45:58.600845$GNGGA,184557.70,4138.0393625,N,07032.4388925,W,1,20,0.7,14.767,M,-29.746,M,0.0,*5F
###2023-12-09 13:45:58.808868$GNGGA,184557.90,4138.0393624,N,07032.4388932,W,1,20,0.7,14.770,M,-29.746,M,0.0,*50
###2023-12-09 13:45:59.004167$GNRMC,184558.10,A,4138.0393630,N,07032.4388934,W,0.02,243.17,091223,,,A*51
###2023-12-09 13:45:59.007252$GNGGA,184558.10,4138.0393630,N,07032.4388934,W,1,20,0.7,14.776,M,-29.746,M,0.0,*52
###2023-12-09 13:45:59.009260$GPGSA,A,3,04,16,26,28,29,31,,,,,,,1.3,0.7,1.1*33
###2023-12-09 13:45:59.011013$GLGSA,A,3,65,72,73,74,75,83,,,,,,,1.3,0.7,1.1*23
###2023-12-09 13:45:59.012545$GAGSA,A,3,04,21,27,,,,,,,,,,1.3,0.7,1.1*24
###2023-12-09 13:45:59.014194$GBGSA,A,3,12,24,25,33,35,,,,,,,,1.3,0.7,1.1*21
###2023-12-09 13:45:59.016552$GPGSV,2,1,06,04,51,304,47,16,72,228,43,26,78,041,40,28,34,089,46*71
###2023-12-09 13:45:59.018315$GPGSV,2,2,06,29,18,043,42,31,56,073,49,,,,,,,,*74
###2023-12-09 13:45:59.020673$GLGSV,2,1,06,65,42,313,45,72,57,214,37,73,18,056,41,74,56,022,38*61
###2023-12-09 13:45:59.022434$GLGSV,2,2,06,75,47,279,46,83,16,042,37,,,,,,,,*62
