###2023-12-09 12:39:39.943467$GNGGA,173939.10,4138.0541534,N,07032.3779166,W,1,23,0.7,13.463,M,-29.744,M,0.0,*5C
###2023-12-09 12:39:39.945344$GPGSA,A,3,03,04,16,26,28,29,31,32,,,,,1.2,0.7,1.0*31
###2023-12-09 12:39:39.947041$GLGSA,A,3,71,72,73,74,75,,,,,,,,1.2,0.7,1.0*2D
###2023-12-09 12:39:39.948662$GAGSA,A,3,04,19,21,27,,,,,,,,,1.2,0.7,1.0*2C
###2023-12-09 12:39:39.950306$GBGSA,A,3,14,24,25,26,33,,,,,,,,1.2,0.7,1.0*25
###2023-12-09 12:39:39.952654$GPGSV,2,1,08,03,38,274,42,04,24,311,38,16,38,208,43,26,68,207,46*7B
###2023-12-09 12:39:39.955048$GPGSV,2,2,08,28,57,058,45,29,25,072,44,31,73,007,47,32,28,135,46*70
###2023-12-09 12:39:39.957392$GLGSV,2,1,05,71,54,170,48,72,68,305,44,73,45,035,46,74,71,299,42*63
###2023-12-09 12:39:39.958863$GLGSV,2,2,05,75,24,243,40,,,,,,,,,,,,*55
###2023-12-09 12:39:39.961192$GAGSV,1,1,04,04,22,311,38,19,82,296,41,21,79,174,46,27,40,049,44*6B
###2023-12-09 12:39:39.963536$GBGSV,2,1,05,14,53,197,46,24,80,355,48,25,34,254,42,26,33,058,46*6C
###2023-12-09 12:39:39.964989$GBGSV,2,2,05,33,62,250,46,,,,,,,,,,,,*5F
###2023-12-09 12:39:39.966315$GNVTG,305.24,T,,M,0.39,N,0.72,K,A*2C
###2023-12-09 12:39:39.967980$GNGST,173939.10,19.000,,,,0.080,0.070,0.170*51
###2023-12-09 12:39:39.969273$GNZDA,173939.10,09,12,2023,00,00*76
###2023-12-09 12:39:39.969910$GNEBP,,,,,,M*13
###2023-12-09 12:39:40.138185$GNGGA,173939.30,4138.0541781,N,07032.3779678,W,1,23,0.7,13.469,M,-29.744,M,0.0,*50
###2023-12-09 12:39:40.339598$GNGGA,173939.50,4138.0542118,N,07032.3780309,W,1,23,0.7,13.472,M,-29.744,M,0.0,*5C
###2023-12-09 12:39:40.538812$GNGGA,173939.70,4138.0542208,N,07032.3780596,W,1,23,0.7,13.469,M,-29.744,M,0.0,*56
###2023-12-09 12:39:40.737993$GNGGA,173939.90,4138.0542102,N,07032.3780578,W,1,23,0.7,13.478,M,-29.744,M,0.0,*51
###2023-12-09 12:39:40.939595$GNRMC,173940.10,A,4138.0542177,N,07032.3780804,W,0.72,305.54,091223,,,A*58
###2023-12-09 12:39:40.942460$GNGGA,173940.10,4138.0542177,N,07032.3780804,W,1,23,0.7,13.472,M,-29.744,M,0.0,*59
###2023-12-09 12:39:40.944320$GPGSA,A,3,03,04,16,26,28,29,31,32,,,,,1.2,0.7,1.0*31
###2023-12-09 12:39:40.945971$GLGSA,A,3,71,72,73,74,75,,,,,,,,1.2,0.7,1.0*2D
###2023-12-09 12:39:40.947587$GAGSA,A,3,04,19,21,27,,,,,,,,,1.2,0.7,1.0*2C
###2023-12-09 12:39:40.949254$GBGSA,A,3,14,24,25,26,33,,,,,,,,1.2,0.7,1.0*25
###2023-12-09 12:39:40.951586$GPGSV,2,1,08,03,38,274,43,04,24,311,40,16,38,208,42,26,68,207,47*75
###2023-12-09 12:39:40.953904$GPGSV,2,2,08,28,57,058,45,29,25,072,44,31,73,007,47,32,28,135,45*73
###2023-12-09 12:39:40.956244$GLGSV,2,1,05,71,54,170,47,72,68,305,45,73,45,035,46,74,71,299,42*6D
###2023-12-09 12:39:40.957693$GLGSV,2,2,05,75,24,243,39,,,,,,,,,,,,*5B
###2023-12-09 12:39:40.960013$GAGSV,1,1,04,04,22,311,40,19,82,296,41,21,79,174,46,27,40,049,44*64
###2023-12-09 12:39:40.962326$GBGSV,2,1,05,14,53,197,45,24,80,355,49,25,34,254,42,26,33,058,46*6E
###2023-12-09 12:39:40.963789$GBGSV,2,2,05,33,62,250,47,,,,,,,,,,,,*5E
###2023-12-09 12:39:40.965108$GNVTG,305.54,T,,M,0.72,N,1.33,K,A*20
###2023-12-09 12:39:40.966766$GNGST,173940.10,19.000,,,,0.080,0.070,0.170*5F
###2023-12-09 12:39:40.968050$GNZDA,173940.10,09,12,2023,00,00*78
###2023-12-09 12:39:40.968688$GNEBP,,,,,,M*13
###2023-12-09 12:39:41.137175$GNGGA,173940.30,4138.0542429,N,07032.3781320,W,1,23,0.7,13.464,M,-29.744,M,0.0,*5E
###2023-12-09 12:39:41.338938$GNGGA,173940.50,4138.0542633,N,07032.3781752,W,1,23,0.7,13.449,M,-29.744,M,0.0,*5F
###2023-12-09 12:39:41.539965$GNGGA,173940.70,4138.0542702,N,07032.3781982,W,1,23,0.7,13.452,M,-29.744,M,0.0,*57
###2023-12-09 12:39:41.737986$GNGGA,173940.90,4138.0542772,N,07032.3782208,W,1,23,0.7,13.464,M,-29.744,M,0.0,*51
###2023-12-09 12:39:41.938478$GNRMC,173941.10,A,4138.0542937,N,07032.3782544,W,0.54,305.54,091223,,,A*5A
###2023-12-09 12:39:41.941354$GNGGA,173941.10,4138.0542937,N,07032.3782544,W,1,23,0.7,13.458,M,-29.744,M,0.0,*57
###2023-12-09 12:39:41.943206$GPGSA,A,3,03,04,16,26,28,29,31,32,,,,,1.2,0.7,1.0*31
###2023-12-09 12:39:41.944845$GLGSA,A,3,71,72,73,74,75,,,,,,,,1.2,0.7,1.0*2D
###2023-12-09 12:39:41.946424$GAGSA,A,3,04,19,21,27,,,,,,,,,1.2,0.7,1.0*2C
###2023-12-09 12:39:41.948094$GBGSA,A,3,14,24,25,26,33,,,,,,,,1.2,0.7,1.0*25
###2023-12-09 12:39:41.950422$GPGSV,2,1,08,03,38,274,44,04,24,311,42,16,38,208,42,26,68,207,47*70
###2023-12-09 12:39:41.952763$GPGSV,2,2,08,28,57,058,45,29,25,072,43,31,73,007,47,32,28,135,45*74
###2023-12-09 12:39:41.955103$GLGSV,2,1,05,71,54,170,47,72,68,305,47,73,45,035,46,74,71,299,43*6E
###2023-12-09 12:39:41.956555$GLGSV,2,2,05,75,24,243,40,,,,,,,,,,,,*55
###2023-12-09 12:39:41.958884$GAGSV,1,1,04,04,22,311,41,19,82,296,40,21,79,174,45,27,40,049,44*67
###2023-12-09 12:39:41.961211$GBGSV,2,1,05,14,53,197,45,24,80,355,49,25,34,254,43,26,33,058,46*6F
###2023-12-09 12:39:41.962675$GBGSV,2,2,05,33,62,250,47,,,,,,,,,,,,*5E
###2023-12-09 12:39:41.963991$GNVTG,305.54,T,,M,0.54,N,1.01,K,A*25
###2023-12-09 12:39:41.965635$GNGST,173941.10,18.000,,,,0.079,0.070,0.170*59
###2023-12-09 12:39:41.966969$GNZDA,173941.10,09,12,2023,00,00*79
###2023-12-09 12:39:41.967612$GNEBP,,,,,,M*13
###2023-12-09 12:39:42.139199$GNGGA,173941.30,4138.0543074,N,07032.3782864,W,1,23,0.7,13.441,M,-29.744,M,0.0,*5D
###2023-12-09 12:39:42.339564$GNGGA,173941.50,4138.0543153,N,07032.3783092,W,1,23,0.7,13.423,M,-29.744,M,0.0,*5B
###2023-12-09 12:39:42.539814$GNGGA,173941.70,4138.0543305,N,07032.3783440,W,1,23,0.7,13.426,M,-29.744,M,0.0,*56
###2023-12-09 12:39:42.739086$GNGGA,173941.90,4138.0543501,N,07032.3783869,W,1,23,0.7,13.434,M,-29.744,M,0.0,*5E
###2023-12-09 12:39:42.939636$GNRMC,173942.10,A,4138.0543624,N,07032.3784166,W,0.35,305.54,091223,,,A*50
###2023-12-09 12:39:42.942477$GNGGA,173942.10,4138.0543624,N,07032.3784166,W,1,23,0.7,13.429,M,-29.744,M,0.0,*5C
###2023-12-09 12:39:42.944331$GPGSA,A,3,03,04,16,26,28,29,31,32,,,,,1.2,0.7,1.0*31
###2023-12-09 12:39:42.945983$GLGSA,A,3,71,72,73,74,75,,,,,,,,1.2,0.7,1.0*2D
###2023-12-09 12:39:42.947591$GAGSA,A,3,04,19,21,27,,,,,,,,,1.2,0.7,1.0*2C
###2023-12-09 12:39:42.949257$GBGSA,A,3,14,24,25,26,33,,,,,,,,1.2,0.7,1.0*25
###2023-12-09 12:39:42.951596$GPGSV,2,1,08,03,38,274,44,04,24,311,42,16,38,208,42,26,68,207,46*71
###2023-12-09 12:39:42.953933$GPGSV,2,2,08,28,57,058,44,29,25,072,42,31,73,007,47,32,28,135,45*74
###2023-12-09 12:39:42.956276$GLGSV,2,1,05,71,54,170,47,72,68,305,47,73,45,035,47,74,71,299,43*6F
###2023-12-09 12:39:42.957729$GLGSV,2,2,05,75,24,243,41,,,,,,,,,,,,*54
###2023-12-09 12:39:42.960063$GAGSV,1,1,04,04,22,311,42,19,82,296,41,21,79,174,45,27,40,049,45*64
###2023-12-09 12:39:42.962382$GBGSV,2,1,05,14,53,197,45,24,80,355,49,25,34,254,44,26,33,058,45*6B
###2023-12-09 12:39:42.963838$GBGSV,2,2,05,33,62,250,47,,,,,,,,,,,,*5E
###2023-12-09 12:39:42.965155$GNVTG,305.54,T,,M,0.35,N,0.65,K,A*21
###2023-12-09 12:39:42.966810$GNGST,173942.10,18.000,,,,0.079,0.070,0.170*5A
###2023-12-09 12:39:42.968100$GNZDA,173942.10,09,12,2023,00,00*7A
###2023-12-09 12:39:42.968732$GNEBP,,,,,,M*13
###2023-12-09 12:39:43.139802$GNGGA,173942.30,4138.0543693,N,07032.3784346,W,1,23,0.7,13.417,M,-29.744,M,0.0,*5F
###2023-12-09 12:39:43.339588$GNGGA,173942.50,4138.0543753,N,07032.3784556,W,1,23,0.7,13.399,M,-29.744,M,0.0,*52
###2023-12-09 12:39:43.538842$GNGGA,173942.70,4138.0543900,N,07032.3784901,W,1,23,0.7,13.396,M,-29.744,M,0.0,*59
###2023-12-09 12:39:43.738003$GNGGA,173942.90,4138.0544119,N,07032.3785345,W,1,23,0.7,13.403,M,-29.744,M,0.0,*50
###2023-12-09 12:39:43.940094$GNRMC,173943.10,A,4138.0544305,N,07032.3785742,W,0.51,305.54,091223,,,A*53
###2023-12-09 12:39:43.942963$GNGGA,173943.10,4138.0544305,N,07032.3785742,W,1,23,0.7,13.408,M,-29.744,M,0.0,*5E
###2023-12-09 12:39:43.944825$GPGSA,A,3,03,04,16,26,28,29,31,32,,,,,1.2,0.7,1.0*31
###2023-12-09 12:39:43.946484$GLGSA,A,3,71,72,73,74,75,,,,,,,,1.2,0.7,1.0*2D
###2023-12-09 12:39:43.948109$GAGSA,A,3,04,19,21,27,,,,,,,,,1.2,0.7,1.0*2C
###2023-12-09 12:39:43.949762$GBGSA,A,3,14,24,25,26,33,,,,,,,,1.2,0.7,1.0*25
###2023-12-09 12:39:43.952103$GPGSV,2,1,08,03,38,274,43,04,24,311,42,16,38,208,41,26,68,207,47*74
###2023-12-09 12:39:43.954441$GPGSV,2,2,08,28,57,058,44,29,25,072,42,31,73,007,47,32,28,135,44*75
###2023-12-09 12:39:43.957033$GLGSV,2,1,05,71,54,170,47,72,68,305,47,73,45,035,46,74,71,299,43*6E
###2023-12-09 12:39:43.958509$GLGSV,2,2,05,75,24,243,41,,,,,,,,,,,,*54
###2023-12-09 12:39:43.960847$GAGSV,1,1,04,04,22,311,42,19,82,296,41,21,79,174,46,27,40,049,45*67
###2023-12-09 12:39:43.963188$GBGSV,2,1,05,14,53,197,45,24,80,355,49,25,34,254,45,26,33,058,46*69
###2023-12-09 12:39:43.964645$GBGSV,2,2,05,33,62,250,47,,,,,,,,,,,,*5E
###2023-12-09 12:39:43.965971$GNVTG,305.54,T,,M,0.51,N,0.94,K,A*2D
###2023-12-09 12:39:43.967631$GNGST,173943.10,18.000,,,,0.079,0.069,0.170*53
###2023-12-09 12:39:43.968930$GNZDA,173943.10,09,12,2023,00,00*7B
###2023-12-09 12:39:43.969568$GNEBP,,,,,,M*13
