###2023-12-09 13:35:27.032143$GNGST,183526.10,6.100,,,,0.091,0.067,0.150*67
###2023-12-09 13:35:27.033481$GNZDA,183526.10,09,12,2023,00,00*7B
###2023-12-09 13:35:27.034136$GNEBP,,,,,,M*13
###2023-12-09 13:35:27.203933$GNGGA,183526.30,4138.0393867,N,07032.3955599,W,1,27,0.6,13.153,M,-29.745,M,0.0,*57
###2023-12-09 13:35:27.394768$GNGGA,183526.50,4138.0393215,N,07032.3955973,W,1,27,0.6,13.171,M,-29.745,M,0.0,*56
###2023-12-09 13:35:27.596002$GNGGA,183526.70,4138.0392631,N,07032.3956362,W,1,27,0.6,13.160,M,-29.745,M,0.0,*5E
###2023-12-09 13:35:27.796458$GNGGA,183526.90,4138.0391958,N,07032.3956582,W,1,27,0.6,13.129,M,-29.745,M,0.0,*56
###2023-12-09 13:35:27.999399$GNRMC,183527.10,A,4138.0391313,N,07032.3956900,W,1.24,206.26,091223,,,A*57
###2023-12-09 13:35:28.002281$GNGGA,183527.10,4138.0391313,N,07032.3956900,W,1,27,0.6,13.130,M,-29.745,M,0.0,*54
###2023-12-09 13:35:28.004157$GPGSA,A,3,03,04,16,26,27,28,29,31,,,,,1.0,0.6,0.8*3F
###2023-12-09 13:35:28.005933$GLGSA,A,3,65,71,72,73,74,75,83,,,,,,1.0,0.6,0.8*2F
###2023-12-09 13:35:28.007527$GAGSA,A,3,04,19,21,27,,,,,,,,,1.0,0.6,0.8*26
###2023-12-09 13:35:28.009297$GBGSA,A,3,12,14,24,25,26,33,35,,,,,,1.0,0.6,0.8*2A
###2023-12-09 13:35:28.011631$GPGSV,2,1,08,03,26,246,40,04,47,307,45,16,67,223,45,26,83,040,48*70
###2023-12-09 13:35:28.013958$GPGSV,2,2,08,27,17,172,41,28,38,084,43,29,21,047,41,31,59,066,47*7A
###2023-12-09 13:35:28.016299$GLGSV,2,1,07,65,39,318,44,71,22,175,43,72,62,220,45,73,22,052,44*63
###2023-12-09 13:35:28.018335$GLGSV,2,2,07,74,59,015,42,75,44,272,46,83,15,047,36,,,,*51
###2023-12-09 13:35:28.020666$GAGSV,1,1,04,04,40,310,44,19,72,181,41,21,77,046,46,27,22,050,40*69
###2023-12-09 13:35:28.023003$GBGSV,2,1,07,12,15,126,43,14,29,190,39,24,62,046,48,25,51,276,47*69
###2023-12-09 13:35:28.025043$GBGSV,2,2,07,26,16,071,44,33,45,217,44,35,16,056,44,,,,*5E
###2023-12-09 13:35:28.026366$GNVTG,206.26,T,,M,1.24,N,2.30,K,A*25
###2023-12-09 13:35:28.027989$GNGST,183527.10,5.600,,,,0.091,0.068,0.150*6D
###2023-12-09 13:35:28.029276$GNZDA,183527.10,09,12,2023,00,00*7A
###2023-12-09 13:35:28.029912$GNEBP,,,,,,M*13
###2023-12-09 13:35:28.196765$GNGGA,183527.30,4138.0390762,N,07032.3957429,W,1,27,0.6,13.161,M,-29.745,M,0.0,*56
###2023-12-09 13:35:28.395782$GNGGA,183527.50,4138.0390245,N,07032.3957927,W,1,27,0.6,13.152,M,-29.745,M,0.0,*53
###2023-12-09 13:35:28.596095$GNGGA,183527.70,4138.0389694,N,07032.3958374,W,1,27,0.6,13.124,M,-29.745,M,0.0,*53
###2023-12-09 13:35:28.796787$GNGGA,183527.90,4138.0389085,N,07032.3958790,W,1,27,0.6,13.120,M,-29.745,M,0.0,*51
###2023-12-09 13:35:29.001039$GNRMC,183528.10,A,4138.0388564,N,07032.3959315,W,1.21,231.03,091223,,,A*51
###2023-12-09 13:35:29.004513$GNGGA,183528.10,4138.0388564,N,07032.3959315,W,1,27,0.6,13.134,M,-29.745,M,0.0,*50
###2023-12-09 13:35:29.006805$GPGSA,A,3,03,04,16,26,27,28,29,31,,,,,1.0,0.6,0.8*3F
###2023-12-09 13:35:29.008963$GLGSA,A,3,65,71,72,73,74,75,83,,,,,,1.0,0.6,0.8*2F
###2023-12-09 13:35:29.010885$GAGSA,A,3,04,19,21,27,,,,,,,,,1.0,0.6,0.8*26
###2023-12-09 13:35:29.013026$GBGSA,A,3,12,14,24,25,26,33,35,,,,,,1.0,0.6,0.8*2A
###2023-12-09 13:35:29.015853$GPGSV,2,1,08,03,26,246,40,04,47,307,43,16,67,223,45,26,83,040,48*76
###2023-12-09 13:35:29.018667$GPGSV,2,2,08,27,17,172,43,28,37,085,42,29,21,047,41,31,59,066,46*76
###2023-12-09 13:35:29.021467$GLGSV,2,1,07,65,39,318,43,71,22,175,46,72,62,220,45,73,22,052,42*67
###2023-12-09 13:35:29.023936$GLGSV,2,2,07,74,59,015,42,75,44,272,44,83,15,047,36,,,,*53
###2023-12-09 13:35:29.026746$GAGSV,1,1,04,04,40,310,42,19,72,181,40,21,77,046,46,27,22,050,40*6E
###2023-12-09 13:35:29.029549$GBGSV,2,1,07,12,15,126,41,14,29,190,41,24,62,046,47,25,51,276,44*68
###2023-12-09 13:35:29.032004$GBGSV,2,2,07,26,16,071,43,33,45,217,45,35,16,056,44,,,,*58
###2023-12-09 13:35:29.033604$GNVTG,231.03,T,,M,1.21,N,2.23,K,A*21
###2023-12-09 13:35:29.035555$GNGST,183528.10,5.800,,,,0.090,0.068,0.150*6D
###2023-12-09 13:35:29.037106$GNZDA,183528.10,09,12,2023,00,00*75
###2023-12-09 13:35:29.037873$GNEBP,,,,,,M*13
###2023-12-09 13:35:29.196379$GNGGA,183528.30,4138.0388222,N,07032.3960081,W,1,27,0.6,13.149,M,-29.745,M,0.0,*59
###2023-12-09 13:35:29.395741$GNGGA,183528.50,4138.0387819,N,07032.3960771,W,1,27,0.6,13.147,M,-29.745,M,0.0,*54
###2023-12-09 13:35:29.597909$GNGGA,183528.70,4138.0387263,N,07032.3961298,W,1,27,0.6,13.123,M,-29.745,M,0.0,*50
###2023-12-09 13:35:29.796689$GNGGA,183528.90,4138.0386696,N,07032.3961839,W,1,27,0.6,13.111,M,-29.745,M,0.0,*51
###2023-12-09 13:35:29.999392$GNRMC,183529.10,A,4138.0386337,N,07032.3962614,W,1.32,247.97,091223,,,A*5C
###2023-12-09 13:35:30.002254$GNGGA,183529.10,4138.0386337,N,07032.3962614,W,1,27,0.6,13.129,M,-29.745,M,0.0,*5F
###2023-12-09 13:35:30.004133$GPGSA,A,3,03,04,16,26,27,28,29,31,,,,,1.0,0.6,0.8*3F
###2023-12-09 13:35:30.005918$GLGSA,A,3,65,71,72,73,74,75,83,,,,,,1.0,0.6,0.8*2F
###2023-12-09 13:35:30.007516$GAGSA,A,3,04,19,21,27,,,,,,,,,1.0,0.6,0.8*26
###2023-12-09 13:35:30.009287$GBGSA,A,3,12,14,24,25,26,33,35,,,,,,1.0,0.6,0.8*2A
###2023-12-09 13:35:30.011626$GPGSV,2,1,08,03,26,246,39,04,47,307,43,16,67,223,45,26,83,040,48*78
###2023-12-09 13:35:30.013967$GPGSV,2,2,08,27,17,172,42,28,37,085,43,29,20,046,42,31,59,066,47*74
###2023-12-09 13:35:30.016317$GLGSV,2,1,07,65,39,318,43,71,22,175,45,72,62,220,44,73,22,052,43*64
###2023-12-09 13:35:30.018354$GLGSV,2,2,07,74,59,015,42,75,44,272,44,83,15,047,36,,,,*53
###2023-12-09 13:35:30.020692$GAGSV,1,1,04,04,40,310,41,19,72,181,40,21,77,046,46,27,22,050,40*6D
###2023-12-09 13:35:30.023036$GBGSV,2,1,07,12,15,126,42,14,29,190,42,24,62,046,47,25,51,276,45*69
###2023-12-09 13:35:30.025084$GBGSV,2,2,07,26,16,071,43,33,45,217,47,35,16,056,44,,,,*5A
###2023-12-09 13:35:30.026405$GNVTG,247.97,T,,M,1.32,N,2.45,K,A*2F
###2023-12-09 13:35:30.028031$GNGST,183529.10,5.700,,,,0.089,0.068,0.150*6B
###2023-12-09 13:35:30.029313$GNZDA,183529.10,09,12,2023,00,00*74
###2023-12-09 13:35:30.029954$GNEBP,,,,,,M*13
###2023-12-09 13:35:30.196881$GNGGA,183529.30,4138.0386103,N,07032.3963606,W,1,27,0.6,13.136,M,-29.745,M,0.0,*54
###2023-12-09 13:35:30.395743$GNGGA,183529.50,4138.0385706,N,07032.3964460,W,1,27,0.6,13.134,M,-29.745,M,0.0,*55
###2023-12-09 13:35:30.596053$GNGGA,183529.70,4138.0385093,N,07032.3965169,W,1,27,0.6,13.130,M,-29.745,M,0.0,*55
###2023-12-09 13:35:30.795941$GNGGA,183529.90,4138.0384554,N,07032.3966003,W,1,27,0.6,13.118,M,-29.745,M,0.0,*50
###2023-12-09 13:35:30.999453$GNRMC,183530.10,A,4138.0384218,N,07032.3967079,W,1.63,249.77,091223,,,A*56
###2023-12-09 13:35:31.002306$GNGGA,183530.10,4138.0384218,N,07032.3967079,W,1,27,0.6,13.120,M,-29.745,M,0.0,*58
###2023-12-09 13:35:31.004172$GPGSA,A,3,03,04,16,26,27,28,29,31,,,,,1.0,0.6,0.8*3F
###2023-12-09 13:35:31.005947$GLGSA,A,3,65,71,72,73,74,75,83,,,,,,1.0,0.6,0.8*2F
###2023-12-09 13:35:31.007540$GAGSA,A,3,04,19,21,27,,,,,,,,,1.0,0.6,0.8*26
###2023-12-09 13:35:31.009314$GBGSA,A,3,12,14,24,25,26,33,35,,,,,,1.0,0.6,0.8*2A
###2023-12-09 13:35:31.011645$GPGSV,2,1,08,03,26,246,39,04,47,307,44,16,67,223,45,26,83,040,48*7F
###2023-12-09 13:35:31.013975$GPGSV,2,2,08,27,17,172,43,28,37,085,44,29,20,046,42,31,59,066,47*72
###2023-12-09 13:35:31.016320$GLGSV,2,1,07,65,39,318,42,71,22,175,44,72,62,220,44,73,22,052,42*65
###2023-12-09 13:35:31.018361$GLGSV,2,2,07,74,59,015,42,75,44,272,45,83,15,047,36,,,,*52
###2023-12-09 13:35:31.020710$GAGSV,1,1,04,04,40,310,42,19,72,181,40,21,77,046,46,27,22,050,40*6E
###2023-12-09 13:35:31.023065$GBGSV,2,1,07,12,15,126,41,14,29,190,42,24,62,046,47,25,51,276,44*6B
###2023-12-09 13:35:31.025109$GBGSV,2,2,07,26,16,071,43,33,45,217,44,35,16,056,44,,,,*59
###2023-12-09 13:35:31.026433$GNVTG,249.77,T,,M,1.63,N,3.02,K,A*29
###2023-12-09 13:35:31.028063$GNGST,183530.10,5.800,,,,0.089,0.069,0.150*6D
###2023-12-09 13:35:31.029359$GNZDA,183530.10,09,12,2023,00,00*7C
###2023-12-09 13:35:31.029995$GNEBP,,,,,,M*13
###2023-12-09 13:35:31.196685$GNGGA,183530.30,4138.0383848,N,07032.3968159,W,1,27,0.6,13.125,M,-29.745,M,0.0,*5B
###2023-12-09 13:35:31.397483$GNGGA,183530.50,4138.0383301,N,07032.3969159,W,1,27,0.6,13.128,M,-29.745,M,0.0,*57
###2023-12-09 13:35:31.600302$GNGGA,183530.70,4138.0382699,N,07032.3970110,W,1,27,0.6,13.121,M,-29.745,M,0.0,*5C
###2023-12-09 13:35:31.796599$GNGGA,183530.90,4138.0382127,N,07032.3971214,W,1,27,0.6,13.123,M,-29.745,M,0.0,*54
###2023-12-09 13:35:32.000597$GNRMC,183531.10,A,4138.0381607,N,07032.3972536,W,2.12,240.30,091223,,,A*5D
###2023-12-09 13:35:32.003478$GNGGA,183531.10,4138.0381607,N,07032.3972536,W,1,27,0.6,13.123,M,-29.745,M,0.0,*5F
###2023-12-09 13:35:32.005337$GPGSA,A,3,03,04,16,26,27,28,29,31,,,,,1.0,0.6,0.8*3F
###2023-12-09 13:35:32.007126$GLGSA,A,3,65,71,72,73,74,75,83,,,,,,1.0,0.6,0.8*2F
###2023-12-09 13:35:32.008707$GAGSA,A,3,04,19,21,27,,,,,,,,,1.0,0.6,0.8*26
###2023-12-09 13:35:32.010478$GBGSA,A,3,12,14,24,25,26,33,35,,,,,,1.0,0.6,0.8*2A
###2023-12-09 13:35:32.012819$GPGSV,2,1,08,03,26,246,40,04,47,307,44,16,67,223,45,26,83,040,49*70
###2023-12-09 13:35:32.015164$GPGSV,2,2,08,27,17,172,43,28,37,085,44,29,20,046,43,31,59,067,46*73
###2023-12-09 13:35:32.017492$GLGSV,2,1,07,65,39,318,44,71,22,175,45,72,62,220,45,73,22,052,43*62
