###2023-12-09 13:42:41.012191$GPGSV,2,2,06,29,19,044,39,31,57,071,47,,,,,,,,*73
###2023-12-09 13:42:41.014534$GLGSV,2,1,05,65,42,314,40,72,59,216,42,73,20,054,44,74,57,019,44*60
###2023-12-09 13:42:41.016009$GLGSV,2,2,05,75,45,276,39,,,,,,,,,,,,*5A
###2023-12-09 13:42:41.018329$GAGSV,1,1,04,04,42,309,43,19,69,180,43,21,74,044,47,27,20,051,39*60
###2023-12-09 13:42:41.020670$GBGSV,2,1,05,12,18,124,41,24,60,050,46,25,53,280,39,33,42,214,42*64
###2023-12-09 13:42:41.022126$GBGSV,2,2,05,35,16,053,43,,,,,,,,,,,,*5E
###2023-12-09 13:42:41.023462$GNVTG,287.37,T,,M,0.17,N,0.32,K,A*2D
###2023-12-09 13:42:41.025070$GNGST,184240.10,7.700,,,,0.140,0.110,0.200*6A
###2023-12-09 13:42:41.026352$GNZDA,184240.10,09,12,2023,00,00*7B
###2023-12-09 13:42:41.027014$GNEBP,,,,,,M*13
###2023-12-09 13:42:41.194673$GNGGA,184240.30,4138.0396643,N,07032.4271623,W,1,20,0.8,13.704,M,-29.745,M,0.0,*5F
###2023-12-09 13:42:41.397118$GNGGA,184240.50,4138.0396548,N,07032.4271498,W,1,20,0.8,13.703,M,-29.745,M,0.0,*54
###2023-12-09 13:42:41.595653$GNGGA,184240.70,4138.0396513,N,07032.4271519,W,1,20,0.8,13.711,M,-29.745,M,0.0,*53
###2023-12-09 13:42:41.794257$GNGGA,184240.90,4138.0396486,N,07032.4271627,W,1,21,0.7,13.702,M,-29.745,M,0.0,*52
###2023-12-09 13:42:41.997427$GNRMC,184241.10,A,4138.0396416,N,07032.4271567,W,0.31,287.37,091223,,,A*5A
###2023-12-09 13:42:42.000340$GNGGA,184241.10,4138.0396416,N,07032.4271567,W,1,21,0.7,13.674,M,-29.745,M,0.0,*55
###2023-12-09 13:42:42.002146$GPGSA,A,3,04,09,16,26,28,29,31,,,,,,1.2,0.7,1.0*3A
###2023-12-09 13:42:42.004629$GLGSA,A,3,65,72,73,74,75,,,,,,,,1.2,0.7,1.0*28
###2023-12-09 13:42:42.006240$GAGSA,A,3,04,19,21,27,,,,,,,,,1.2,0.7,1.0*2C
###2023-12-09 13:42:42.007907$GBGSA,A,3,12,24,25,33,35,,,,,,,,1.2,0.7,1.0*21
###2023-12-09 13:42:42.010223$GPGSV,2,1,07,04,49,306,41,09,15,317,36,16,70,226,47,26,80,041,48*79
###2023-12-09 13:42:42.012265$GPGSV,2,2,07,28,35,088,42,29,19,044,41,31,57,071,47,,,,*47
###2023-12-09 13:42:42.014601$GLGSV,2,1,05,65,42,314,38,72,59,216,46,73,20,054,38,74,57,019,43*67
###2023-12-09 13:42:42.016057$GLGSV,2,2,05,75,45,276,38,,,,,,,,,,,,*5B
###2023-12-09 13:42:42.018374$GAGSV,1,1,04,04,42,309,42,19,69,180,41,21,74,044,45,27,20,051,39*61
###2023-12-09 13:42:42.020696$GBGSV,2,1,05,12,18,124,39,24,60,050,48,25,53,280,38,33,42,214,42*64
###2023-12-09 13:42:42.022142$GBGSV,2,2,05,35,16,053,43,,,,,,,,,,,,*5E
###2023-12-09 13:42:42.023467$GNVTG,287.37,T,,M,0.31,N,0.58,K,A*25
###2023-12-09 13:42:42.025073$GNGST,184241.10,6.500,,,,0.140,0.110,0.200*68
###2023-12-09 13:42:42.026356$GNZDA,184241.10,09,12,2023,00,00*7A
###2023-12-09 13:42:42.027000$GNEBP,,,,,,M*13
###2023-12-09 13:42:42.196195$GNGGA,184241.30,4138.0396299,N,07032.4271520,W,1,21,0.7,13.679,M,-29.745,M,0.0,*58
###2023-12-09 13:42:42.395605$GNGGA,184241.50,4138.0396182,N,07032.4271601,W,1,21,0.7,13.700,M,-29.745,M,0.0,*58
###2023-12-09 13:42:42.594881$GNGGA,184241.70,4138.0396079,N,07032.4271652,W,1,21,0.7,13.709,M,-29.745,M,0.0,*50
###2023-12-09 13:42:42.799617$GNGGA,184241.90,4138.0395966,N,07032.4271652,W,1,23,0.6,13.682,M,-29.745,M,0.0,*5B
###2023-12-09 13:42:43.002838$GNRMC,184242.10,A,4138.0395865,N,07032.4271726,W,0.16,287.37,091223,,,A*50
###2023-12-09 13:42:43.005687$GNGGA,184242.10,4138.0395865,N,07032.4271726,W,1,23,0.6,13.671,M,-29.745,M,0.0,*5C
###2023-12-09 13:42:43.007551$GPGSA,A,3,03,04,09,16,26,28,29,31,,,,,1.1,0.6,0.8*32
###2023-12-09 13:42:43.009190$GLGSA,A,3,65,72,73,74,75,,,,,,,,1.1,0.6,0.8*23
###2023-12-09 13:42:43.010774$GAGSA,A,3,04,19,21,27,,,,,,,,,1.1,0.6,0.8*27
###2023-12-09 13:42:43.012413$GBGSA,A,3,12,24,25,33,35,,,,,,,,1.1,0.6,0.8*2A
###2023-12-09 13:42:43.014730$GPGSV,2,1,08,03,24,243,37,04,49,306,36,09,15,317,36,16,70,226,46*76
###2023-12-09 13:42:43.017044$GPGSV,2,2,08,26,80,041,48,28,35,088,44,29,19,044,39,31,57,071,47*74
###2023-12-09 13:42:43.019376$GLGSV,2,1,05,65,42,314,39,72,59,216,48,73,20,054,41,74,57,019,39*6B
###2023-12-09 13:42:43.020821$GLGSV,2,2,05,75,45,276,39,,,,,,,,,,,,*5A
###2023-12-09 13:42:43.023143$GAGSV,1,1,04,04,42,309,41,19,69,180,43,21,74,044,47,27,20,051,39*62
###2023-12-09 13:42:43.025460$GBGSV,2,1,05,12,18,124,37,24,60,050,47,25,53,280,41,33,42,214,42*6B
###2023-12-09 13:42:43.026919$GBGSV,2,2,05,35,16,053,42,,,,,,,,,,,,*5F
###2023-12-09 13:42:43.028236$GNVTG,287.37,T,,M,0.16,N,0.29,K,A*26
###2023-12-09 13:42:43.029879$GNGST,184242.10,20.000,,,,0.140,0.110,0.210*5B
###2023-12-09 13:42:43.031178$GNZDA,184242.10,09,12,2023,00,00*79
###2023-12-09 13:42:43.031814$GNEBP,,,,,,M*13
###2023-12-09 13:42:43.196858$GNGGA,184242.30,4138.0395784,N,07032.4271786,W,1,23,0.6,13.689,M,-29.745,M,0.0,*53
###2023-12-09 13:42:43.396554$GNGGA,184242.50,4138.0395697,N,07032.4271895,W,1,22,0.7,13.689,M,-29.745,M,0.0,*5B
###2023-12-09 13:42:43.595886$GNGGA,184242.70,4138.0395613,N,07032.4271985,W,1,22,0.7,13.677,M,-29.745,M,0.0,*54
###2023-12-09 13:42:43.800534$GNGGA,184242.90,4138.0395533,N,07032.4272172,W,1,22,0.7,13.688,M,-29.745,M,0.0,*58
###2023-12-09 13:42:44.000450$GNRMC,184243.10,A,4138.0395393,N,07032.4272299,W,0.19,287.37,091223,,,A*5E
###2023-12-09 13:42:44.003399$GNGGA,184243.10,4138.0395393,N,07032.4272299,W,1,21,0.7,13.689,M,-29.745,M,0.0,*59
###2023-12-09 13:42:44.005182$GPGSA,A,3,03,09,16,26,28,29,31,,,,,,1.1,0.7,0.9*36
###2023-12-09 13:42:44.006825$GLGSA,A,3,65,72,73,74,75,,,,,,,,1.1,0.7,0.9*23
###2023-12-09 13:42:44.008332$GAGSA,A,3,19,21,27,,,,,,,,,,1.1,0.7,0.9*23
###2023-12-09 13:42:44.009960$GBGSA,A,3,12,24,25,33,35,,,,,,,,1.1,0.7,0.9*2A
###2023-12-09 13:42:44.012285$GPGSV,2,1,07,03,24,243,36,09,15,317,35,16,70,226,45,26,80,041,47*7B
###2023-12-09 13:42:44.014311$GPGSV,2,2,07,28,35,088,43,29,19,044,40,31,57,071,48,,,,*48
###2023-12-09 13:42:44.016646$GLGSV,2,1,05,65,42,314,35,72,59,216,48,73,20,054,40,74,57,019,43*6B
###2023-12-09 13:42:44.018089$GLGSV,2,2,05,75,45,276,36,,,,,,,,,,,,*55
###2023-12-09 13:42:44.020130$GAGSV,1,1,03,19,69,180,44,21,74,044,45,27,20,051,39,,,,*5D
###2023-12-09 13:42:44.022436$GBGSV,2,1,05,12,18,124,41,24,60,050,48,25,53,280,39,33,42,214,40*68
###2023-12-09 13:42:44.023895$GBGSV,2,2,05,35,16,053,42,,,,,,,,,,,,*5F
###2023-12-09 13:42:44.025212$GNVTG,287.37,T,,M,0.19,N,0.36,K,A*27
###2023-12-09 13:42:44.026826$GNGST,184243.10,7.700,,,,0.140,0.110,0.210*68
###2023-12-09 13:42:44.028111$GNZDA,184243.10,09,12,2023,00,00*78
###2023-12-09 13:42:44.028747$GNEBP,,,,,,M*13
###2023-12-09 13:42:44.196874$GNGGA,184243.30,4138.0395285,N,07032.4272326,W,1,20,0.8,13.701,M,-29.745,M,0.0,*57
###2023-12-09 13:42:44.403083$GNGGA,184243.50,4138.0395208,N,07032.4272432,W,1,18,0.8,13.747,M,-29.745,M,0.0,*5F
###2023-12-09 13:42:44.598920$GNGGA,184243.70,4138.0395157,N,07032.4272551,W,1,18,0.8,13.815,M,-29.745,M,0.0,*58
###2023-12-09 13:42:44.795309$GNGGA,184243.90,4138.0395041,N,07032.4272449,W,1,17,0.9,13.948,M,-29.745,M,0.0,*5F
###2023-12-09 13:42:44.998304$GNRMC,184244.10,A,4138.0394967,N,07032.4272489,W,0.33,287.37,091223,,,A*56
###2023-12-09 13:42:45.001206$GNGGA,184244.10,4138.0394967,N,07032.4272489,W,1,19,0.8,14.098,M,-29.745,M,0.0,*5C
###2023-12-09 13:42:45.002958$GPGSA,A,3,04,16,26,28,29,31,,,,,,,1.3,0.8,1.1*3C
###2023-12-09 13:42:45.004545$GLGSA,A,3,72,73,74,75,,,,,,,,,1.3,0.8,1.1*24
###2023-12-09 13:42:45.006067$GAGSA,A,3,19,21,27,,,,,,,,,,1.3,0.8,1.1*27
###2023-12-09 13:42:45.007790$GBGSA,A,3,12,14,24,25,33,35,,,,,,,1.3,0.8,1.1*2B
###2023-12-09 13:42:45.010108$GPGSV,2,1,06,04,49,306,38,16,70,226,47,26,80,041,48,28,35,088,45*76
###2023-12-09 13:42:45.011882$GPGSV,2,2,06,29,19,044,37,31,57,071,47,,,,,,,,*7D
###2023-12-09 13:42:45.014216$GLGSV,1,1,04,72,58,215,48,73,20,054,43,74,57,019,43,75,45,276,37*69
###2023-12-09 13:42:45.016269$GAGSV,1,1,03,19,69,180,43,21,74,044,47,27,20,051,40,,,,*56
###2023-12-09 13:42:45.018612$GBGSV,2,1,06,12,18,124,43,14,25,189,35,24,60,050,48,25,53,280,43*65
###2023-12-09 13:42:45.020365$GBGSV,2,2,06,33,42,214,44,35,16,053,44,,,,,,,,*6B
###2023-12-09 13:42:45.021691$GNVTG,287.37,T,,M,0.33,N,0.61,K,A*2D
###2023-12-09 13:42:45.023317$GNGST,184244.10,6.400,,,,0.150,0.120,0.220*6C
###2023-12-09 13:42:45.024613$GNZDA,184244.10,09,12,2023,00,00*7F
###2023-12-09 13:42:45.025253$GNEBP,,,,,,M*13
###2023-12-09 13:42:45.202136$GNGGA,184244.30,4138.0394908,N,07032.4272553,W,1,20,0.8,14.242,M,-29.745,M,0.0,*5E
###2023-12-09 13:42:45.395254$GNGGA,184244.50,4138.0394965,N,07032.4272655,W,1,22,0.7,14.336,M,-29.745,M,0.0,*59
###2023-12-09 13:42:45.594888$GNGGA,184244.70,4138.0395050,N,07032.4272748,W,1,23,0.7,14.366,M,-29.745,M,0.0,*5C
###2023-12-09 13:42:45.796546$GNGGA,184244.90,4138.0395155,N,07032.4272818,W,1,23,0.7,14.337,M,-29.745,M,0.0,*58
###2023-12-09 13:42:45.999407$GNRMC,184245.10,A,4138.0395245,N,07032.4272872,W,0.25,287.37,091223,,,A*52
###2023-12-09 13:42:46.002270$GNGGA,184245.10,4138.0395245,N,07032.4272872,W,1,23,0.7,14.289,M,-29.745,M,0.0,*5B
###2023-12-09 13:42:46.004069$GPGSA,A,3,03,04,16,26,28,29,31,,,,,,1.1,0.7,0.9*3B
