###2023-12-09 13:28:42.588098$GNGGA,182841.70,4138.0449564,N,07032.4163942,W,1,24,0.6,13.599,M,-29.745,M,0.0,*51
###2023-12-09 13:28:42.787315$GNGGA,182841.90,4138.0449498,N,07032.4163670,W,1,24,0.6,13.596,M,-29.745,M,0.0,*5C
###2023-12-09 13:28:42.990643$GNRMC,182842.10,A,4138.0449540,N,07032.4163418,W,0.47,25.74,091223,,,A*67
###2023-12-09 13:28:42.993514$GNGGA,182842.10,4138.0449540,N,07032.4163418,W,1,24,0.6,13.598,M,-29.745,M,0.0,*51
###2023-12-09 13:28:42.995321$GPGSA,A,3,03,04,16,26,28,29,31,,,,,,1.1,0.6,0.9*3A
###2023-12-09 13:28:42.997044$GLGSA,A,3,65,71,72,73,74,75,,,,,,,1.1,0.6,0.9*24
###2023-12-09 13:28:42.998644$GAGSA,A,3,04,19,21,27,,,,,,,,,1.1,0.6,0.9*26
###2023-12-09 13:28:43.000361$GBGSA,A,3,14,24,25,26,33,35,,,,,,,1.1,0.6,0.9*29
###2023-12-09 13:28:43.002700$GPGSV,2,1,07,03,28,249,43,04,43,309,45,16,63,220,48,26,87,041,48*78
###2023-12-09 13:28:43.004752$GPGSV,2,2,07,28,40,082,43,29,22,049,39,31,61,061,45,,,,*42
###2023-12-09 13:28:43.007092$GLGSV,2,1,06,65,36,321,42,71,26,175,46,72,66,227,47,73,25,050,40*60
###2023-12-09 13:28:43.008845$GLGSV,2,2,06,74,62,008,41,75,41,267,47,,,,,,,,*6E
###2023-12-09 13:28:43.011176$GAGSV,1,1,04,04,38,311,43,19,74,183,41,21,79,049,45,27,24,049,39*66
###2023-12-09 13:28:43.013504$GBGSV,2,1,06,14,31,190,43,24,64,043,49,25,49,274,47,26,17,069,40*69
###2023-12-09 13:28:43.015267$GBGSV,2,2,06,33,48,219,50,35,16,058,41,,,,,,,,*67
###2023-12-09 13:28:43.016561$GNVTG,25.74,T,,M,0.47,N,0.86,K,A*1A
###2023-12-09 13:28:43.018209$GNGST,182842.10,18.000,,,,0.110,0.075,0.180*51
###2023-12-09 13:28:43.019513$GNZDA,182842.10,09,12,2023,00,00*75
###2023-12-09 13:28:43.020156$GNEBP,,,,,,M*13
###2023-12-09 13:28:43.187685$GNGGA,182842.30,4138.0449834,N,07032.4163157,W,1,24,0.6,13.604,M,-29.745,M,0.0,*55
###2023-12-09 13:28:43.389383$GNGGA,182842.50,4138.0450101,N,07032.4162946,W,1,24,0.6,13.594,M,-29.745,M,0.0,*57
###2023-12-09 13:28:43.587989$GNGGA,182842.70,4138.0450114,N,07032.4162757,W,1,24,0.6,13.593,M,-29.745,M,0.0,*58
###2023-12-09 13:28:43.788015$GNGGA,182842.90,4138.0450099,N,07032.4162518,W,1,24,0.6,13.590,M,-29.745,M,0.0,*58
###2023-12-09 13:28:43.993041$GNRMC,182843.10,A,4138.0450279,N,07032.4162283,W,0.54,25.74,091223,,,A*64
###2023-12-09 13:28:43.995915$GNGGA,182843.10,4138.0450279,N,07032.4162283,W,1,24,0.6,13.594,M,-29.745,M,0.0,*5C
###2023-12-09 13:28:43.997706$GPGSA,A,3,03,04,16,26,28,29,31,,,,,,1.1,0.6,0.9*3A
###2023-12-09 13:28:43.999430$GLGSA,A,3,65,71,72,73,74,75,,,,,,,1.1,0.6,0.9*24
###2023-12-09 13:28:44.001010$GAGSA,A,3,04,19,21,27,,,,,,,,,1.1,0.6,0.9*26
###2023-12-09 13:28:44.002727$GBGSA,A,3,14,24,25,26,33,35,,,,,,,1.1,0.6,0.9*29
###2023-12-09 13:28:44.005037$GPGSV,2,1,07,03,28,249,42,04,43,309,44,16,63,220,47,26,87,041,48*77
###2023-12-09 13:28:44.007079$GPGSV,2,2,07,28,40,082,43,29,22,049,41,31,61,061,45,,,,*4D
###2023-12-09 13:28:44.009398$GLGSV,2,1,06,65,36,321,44,71,25,175,47,72,66,227,47,73,25,050,41*65
###2023-12-09 13:28:44.011147$GLGSV,2,2,06,74,62,008,42,75,41,267,47,,,,,,,,*6D
###2023-12-09 13:28:44.013463$GAGSV,1,1,04,04,38,311,43,19,74,183,42,21,79,049,46,27,24,049,39*66
###2023-12-09 13:28:44.015788$GBGSV,2,1,06,14,31,190,41,24,64,043,47,25,49,274,45,26,17,069,38*68
###2023-12-09 13:28:44.017529$GBGSV,2,2,06,33,48,219,47,35,16,058,40,,,,,,,,*60
###2023-12-09 13:28:44.018822$GNVTG,25.74,T,,M,0.54,N,1.01,K,A*16
###2023-12-09 13:28:44.020469$GNGST,182843.10,18.000,,,,0.110,0.075,0.180*50
###2023-12-09 13:28:44.021756$GNZDA,182843.10,09,12,2023,00,00*74
###2023-12-09 13:28:44.022390$GNEBP,,,,,,M*13
###2023-12-09 13:28:44.187260$GNGGA,182843.30,4138.0450569,N,07032.4162114,W,1,24,0.6,13.594,M,-29.745,M,0.0,*55
###2023-12-09 13:28:44.386072$GNGGA,182843.50,4138.0450696,N,07032.4161938,W,1,24,0.6,13.584,M,-29.745,M,0.0,*54
###2023-12-09 13:28:44.587798$GNGGA,182843.70,4138.0450683,N,07032.4161739,W,1,24,0.6,13.583,M,-29.745,M,0.0,*5A
###2023-12-09 13:28:44.787485$GNGGA,182843.90,4138.0450782,N,07032.4161524,W,1,24,0.6,13.584,M,-29.745,M,0.0,*5D
###2023-12-09 13:28:44.995933$GNRMC,182844.10,A,4138.0451047,N,07032.4161373,W,0.51,25.74,091223,,,A*65
###2023-12-09 13:28:44.998811$GNGGA,182844.10,4138.0451047,N,07032.4161373,W,1,24,0.6,13.584,M,-29.745,M,0.0,*59
###2023-12-09 13:28:45.000611$GPGSA,A,3,03,04,16,26,28,29,31,,,,,,1.1,0.6,0.9*3A
###2023-12-09 13:28:45.002322$GLGSA,A,3,65,71,72,73,74,75,,,,,,,1.1,0.6,0.9*24
###2023-12-09 13:28:45.003914$GAGSA,A,3,04,19,21,27,,,,,,,,,1.1,0.6,0.9*26
###2023-12-09 13:28:45.005621$GBGSA,A,3,14,24,25,26,33,35,,,,,,,1.1,0.6,0.9*29
###2023-12-09 13:28:45.007957$GPGSV,2,1,07,03,28,249,43,04,43,309,45,16,63,220,47,26,87,041,48*77
###2023-12-09 13:28:45.009985$GPGSV,2,2,07,28,40,082,42,29,22,049,40,31,61,061,45,,,,*4D
###2023-12-09 13:28:45.012321$GLGSV,2,1,06,65,36,321,42,71,25,175,45,72,65,225,47,73,25,050,40*61
###2023-12-09 13:28:45.014058$GLGSV,2,2,06,74,62,008,41,75,41,267,46,,,,,,,,*6F
###2023-12-09 13:28:45.016386$GAGSV,1,1,04,04,38,311,43,19,74,183,41,21,79,049,45,27,24,049,41*69
###2023-12-09 13:28:45.018723$GBGSV,2,1,06,14,31,190,42,24,64,043,47,25,49,274,47,26,17,069,40*66
###2023-12-09 13:28:45.020463$GBGSV,2,2,06,33,48,219,47,35,16,058,42,,,,,,,,*62
###2023-12-09 13:28:45.021746$GNVTG,25.74,T,,M,0.51,N,0.94,K,A*1E
###2023-12-09 13:28:45.023401$GNGST,182844.10,18.000,,,,0.110,0.074,0.170*59
###2023-12-09 13:28:45.024690$GNZDA,182844.10,09,12,2023,00,00*73
###2023-12-09 13:28:45.025326$GNEBP,,,,,,M*13
###2023-12-09 13:28:45.195863$GNGGA,182844.30,4138.0451263,N,07032.4161228,W,1,24,0.6,13.576,M,-29.745,M,0.0,*5D
###2023-12-09 13:28:45.387409$GNGGA,182844.50,4138.0451300,N,07032.4161036,W,1,24,0.6,13.575,M,-29.745,M,0.0,*51
###2023-12-09 13:28:45.587134$GNGGA,182844.70,4138.0451352,N,07032.4160819,W,1,24,0.6,13.570,M,-29.745,M,0.0,*55
###2023-12-09 13:28:45.789193$GNGGA,182844.90,4138.0451544,N,07032.4160650,W,1,24,0.6,13.570,M,-29.745,M,0.0,*59
###2023-12-09 13:28:45.991691$GNRMC,182845.10,A,4138.0451744,N,07032.4160499,W,0.37,25.74,091223,,,A*62
###2023-12-09 13:28:45.994552$GNGGA,182845.10,4138.0451744,N,07032.4160499,W,1,24,0.6,13.565,M,-29.745,M,0.0,*51
###2023-12-09 13:28:45.996362$GPGSA,A,3,03,04,16,26,28,29,31,,,,,,1.1,0.6,0.9*3A
###2023-12-09 13:28:45.998077$GLGSA,A,3,65,71,72,73,74,75,,,,,,,1.1,0.6,0.9*24
###2023-12-09 13:28:45.999676$GAGSA,A,3,04,19,21,27,,,,,,,,,1.1,0.6,0.9*26
###2023-12-09 13:28:46.001387$GBGSA,A,3,14,24,25,26,33,35,,,,,,,1.1,0.6,0.9*29
###2023-12-09 13:28:46.003718$GPGSV,2,1,07,03,28,249,43,04,43,309,44,16,63,220,47,26,87,041,49*77
###2023-12-09 13:28:46.005758$GPGSV,2,2,07,28,40,082,43,29,22,049,41,31,61,061,46,,,,*4E
###2023-12-09 13:28:46.008102$GLGSV,2,1,06,65,36,321,43,71,25,175,45,72,65,225,46,73,24,050,41*61
###2023-12-09 13:28:46.009852$GLGSV,2,2,06,74,62,008,42,75,41,267,48,,,,,,,,*62
###2023-12-09 13:28:46.012187$GAGSV,1,1,04,04,38,311,44,19,74,183,41,21,79,049,46,27,24,049,40*6C
###2023-12-09 13:28:46.014506$GBGSV,2,1,06,14,31,190,42,24,64,043,48,25,49,274,47,26,17,069,40*69
###2023-12-09 13:28:46.016257$GBGSV,2,2,06,33,48,219,47,35,16,058,41,,,,,,,,*61
###2023-12-09 13:28:46.017544$GNVTG,25.74,T,,M,0.37,N,0.68,K,A*1D
###2023-12-09 13:28:46.019233$GNGST,182845.10,18.000,,,,0.100,0.074,0.170*59
###2023-12-09 13:28:46.020526$GNZDA,182845.10,09,12,2023,00,00*72
###2023-12-09 13:28:46.021163$GNEBP,,,,,,M*13
###2023-12-09 13:28:46.187851$GNGGA,182845.30,4138.0451841,N,07032.4160318,W,1,24,0.6,13.559,M,-29.745,M,0.0,*58
###2023-12-09 13:28:46.387223$GNGGA,182845.50,4138.0451902,N,07032.4160119,W,1,24,0.6,13.556,M,-29.745,M,0.0,*54
###2023-12-09 13:28:46.587562$GNGGA,182845.70,4138.0451987,N,07032.4159963,W,1,24,0.6,13.552,M,-29.745,M,0.0,*50
###2023-12-09 13:28:46.788291$GNGGA,182845.90,4138.0452170,N,07032.4159826,W,1,24,0.6,13.548,M,-29.745,M,0.0,*56
###2023-12-09 13:28:46.995452$GNRMC,182846.10,A,4138.0452344,N,07032.4159665,W,0.35,25.74,091223,,,A*6F
###2023-12-09 13:28:46.998307$GNGGA,182846.10,4138.0452344,N,07032.4159665,W,1,24,0.6,13.542,M,-29.745,M,0.0,*5B
###2023-12-09 13:28:47.000108$GPGSA,A,3,03,04,16,26,28,29,31,,,,,,1.1,0.6,0.9*3A
###2023-12-09 13:28:47.001818$GLGSA,A,3,65,71,72,73,74,75,,,,,,,1.1,0.6,0.9*24
###2023-12-09 13:28:47.003640$GAGSA,A,3,04,19,21,27,,,,,,,,,1.1,0.6,0.9*26
###2023-12-09 13:28:47.005365$GBGSA,A,3,14,24,25,26,33,35,,,,,,,1.1,0.6,0.9*29
###2023-12-09 13:28:47.007698$GPGSV,2,1,07,03,28,249,42,04,43,309,45,16,63,220,47,26,87,041,48*76
###2023-12-09 13:28:47.009738$GPGSV,2,2,07,28,40,082,42,29,22,049,42,31,61,061,46,,,,*4C
###2023-12-09 13:28:47.012075$GLGSV,2,1,06,65,36,321,43,71,25,175,46,72,65,225,47,73,24,050,42*60
###2023-12-09 13:28:47.013826$GLGSV,2,2,06,74,61,010,43,75,41,267,47,,,,,,,,*66
###2023-12-09 13:28:47.016152$GAGSV,1,1,04,04,38,311,44,19,74,183,42,21,79,049,46,27,24,049,40*6F
###2023-12-09 13:28:47.018466$GBGSV,2,1,06,14,31,190,41,24,64,043,47,25,49,274,47,26,17,069,40*65
###2023-12-09 13:28:47.020219$GBGSV,2,2,06,33,48,219,46,35,16,058,41,,,,,,,,*60
###2023-12-09 13:28:47.021507$GNVTG,25.74,T,,M,0.35,N,0.65,K,A*12
