###2023-12-09 13:09:25.003341$GNEBP,,,,,,M*13
###2023-12-09 13:09:25.174965$GNGGA,180924.30,4138.0853690,N,07032.2610967,W,1,25,0.6,13.126,M,-29.741,M,0.0,*5D
###2023-12-09 13:09:25.371034$GNGGA,180924.50,4138.0852473,N,07032.2609436,W,1,25,0.6,13.139,M,-29.741,M,0.0,*5A
###2023-12-09 13:09:25.571613$GNGGA,180924.70,4138.0851194,N,07032.2607762,W,1,25,0.6,13.154,M,-29.741,M,0.0,*50
###2023-12-09 13:09:25.770886$GNGGA,180924.90,4138.0849879,N,07032.2606291,W,1,25,0.6,13.134,M,-29.741,M,0.0,*53
###2023-12-09 13:09:25.973717$GNRMC,180925.10,A,4138.0848550,N,07032.2604893,W,3.07,142.41,091223,,,A*57
###2023-12-09 13:09:25.976630$GNGGA,180925.10,4138.0848550,N,07032.2604893,W,1,25,0.6,13.151,M,-29.741,M,0.0,*54
###2023-12-09 13:09:25.978494$GPGSA,A,3,03,04,16,26,28,29,31,32,,,,,1.1,0.6,0.9*3B
###2023-12-09 13:09:25.980224$GLGSA,A,3,65,71,72,73,74,75,,,,,,,1.1,0.6,0.9*24
###2023-12-09 13:09:25.981806$GAGSA,A,3,04,19,21,27,,,,,,,,,1.1,0.6,0.9*26
###2023-12-09 13:09:25.983528$GBGSA,A,3,14,24,25,26,33,35,,,,,,,1.1,0.6,0.9*29
###2023-12-09 13:09:25.985852$GPGSV,2,1,08,03,33,257,45,04,36,311,45,16,54,214,46,26,83,210,47*7F
###2023-12-09 13:09:25.988180$GPGSV,2,2,08,28,47,073,44,29,25,058,43,31,67,044,46,32,16,141,40*7D
###2023-12-09 13:09:25.990505$GLGSV,2,1,06,65,27,326,42,71,36,173,44,72,72,254,46,73,32,044,45*64
###2023-12-09 13:09:25.992258$GLGSV,2,2,06,74,68,348,43,75,35,257,48,,,,,,,,*6E
###2023-12-09 13:09:25.994578$GAGSV,1,1,04,04,31,312,43,19,82,199,40,21,85,085,46,27,31,048,42*66
###2023-12-09 13:09:25.996895$GBGSV,2,1,06,14,40,192,44,24,71,031,49,25,43,265,48,26,24,064,44*67
###2023-12-09 13:09:25.998640$GBGSV,2,2,06,33,55,228,49,35,15,066,44,,,,,,,,*6A
###2023-12-09 13:09:25.999958$GNVTG,142.41,T,,M,3.07,N,5.69,K,A*2F
###2023-12-09 13:09:26.001597$GNGST,180925.10,18.000,,,,0.083,0.065,0.150*54
###2023-12-09 13:09:26.002891$GNZDA,180925.10,09,12,2023,00,00*77
###2023-12-09 13:09:26.003528$GNEBP,,,,,,M*13
###2023-12-09 13:09:26.170896$GNGGA,180925.30,4138.0847154,N,07032.2603493,W,1,25,0.6,13.153,M,-29.741,M,0.0,*50
###2023-12-09 13:09:26.370228$GNGGA,180925.50,4138.0845756,N,07032.2602143,W,1,25,0.6,13.141,M,-29.741,M,0.0,*5A
###2023-12-09 13:09:26.571966$GNGGA,180925.70,4138.0844367,N,07032.2600936,W,1,25,0.6,13.158,M,-29.741,M,0.0,*5F
###2023-12-09 13:09:26.769835$GNGGA,180925.90,4138.0842788,N,07032.2599842,W,1,25,0.6,13.167,M,-29.741,M,0.0,*5F
###2023-12-09 13:09:26.979185$GNRMC,180926.10,A,4138.0841236,N,07032.2598872,W,2.90,155.65,091223,,,A*5C
###2023-12-09 13:09:26.982059$GNGGA,180926.10,4138.0841236,N,07032.2598872,W,1,25,0.6,13.149,M,-29.741,M,0.0,*59
###2023-12-09 13:09:26.983942$GPGSA,A,3,03,04,16,26,28,29,31,32,,,,,1.1,0.6,0.9*3B
###2023-12-09 13:09:26.985664$GLGSA,A,3,65,71,72,73,74,75,,,,,,,1.1,0.6,0.9*24
###2023-12-09 13:09:26.987266$GAGSA,A,3,04,19,21,27,,,,,,,,,1.1,0.6,0.9*26
###2023-12-09 13:09:26.988981$GBGSA,A,3,14,24,25,26,33,35,,,,,,,1.1,0.6,0.9*29
###2023-12-09 13:09:26.991325$GPGSV,2,1,08,03,33,257,45,04,36,311,45,16,54,214,48,26,84,210,49*78
###2023-12-09 13:09:26.993662$GPGSV,2,2,08,28,47,073,47,29,25,058,43,31,67,044,48,32,16,141,42*72
###2023-12-09 13:09:26.995998$GLGSV,2,1,06,65,27,326,41,71,36,173,44,72,72,254,46,73,32,044,44*66
###2023-12-09 13:09:26.997752$GLGSV,2,2,06,74,68,348,43,75,35,257,47,,,,,,,,*61
###2023-12-09 13:09:27.000092$GAGSV,1,1,04,04,31,312,43,19,82,199,40,21,85,085,47,27,31,048,41*64
###2023-12-09 13:09:27.002418$GBGSV,2,1,06,14,40,192,41,24,71,031,49,25,43,265,48,26,24,064,44*62
###2023-12-09 13:09:27.004178$GBGSV,2,2,06,33,55,228,48,35,15,066,44,,,,,,,,*6B
###2023-12-09 13:09:27.005502$GNVTG,155.65,T,,M,2.90,N,5.36,K,A*2A
###2023-12-09 13:09:27.007189$GNGST,180926.10,18.000,,,,0.082,0.064,0.150*57
###2023-12-09 13:09:27.008489$GNZDA,180926.10,09,12,2023,00,00*74
###2023-12-09 13:09:27.009129$GNEBP,,,,,,M*13
###2023-12-09 13:09:27.172863$GNGGA,180926.30,4138.0839703,N,07032.2597960,W,1,25,0.6,13.167,M,-29.741,M,0.0,*56
###2023-12-09 13:09:27.373481$GNGGA,180926.50,4138.0838019,N,07032.2597193,W,1,25,0.6,13.182,M,-29.741,M,0.0,*52
###2023-12-09 13:09:27.570848$GNGGA,180926.70,4138.0836367,N,07032.2596676,W,1,25,0.6,13.163,M,-29.741,M,0.0,*56
###2023-12-09 13:09:27.773029$GNGGA,180926.90,4138.0834694,N,07032.2596281,W,1,25,0.6,13.180,M,-29.741,M,0.0,*52
###2023-12-09 13:09:27.974350$GNRMC,180927.10,A,4138.0832892,N,07032.2595860,W,3.25,168.06,091223,,,A*57
###2023-12-09 13:09:27.977220$GNGGA,180927.10,4138.0832892,N,07032.2595860,W,1,25,0.6,13.181,M,-29.741,M,0.0,*52
###2023-12-09 13:09:27.979083$GPGSA,A,3,03,04,16,26,28,29,31,32,,,,,1.1,0.6,0.9*3B
###2023-12-09 13:09:27.980804$GLGSA,A,3,65,71,72,73,74,75,,,,,,,1.1,0.6,0.9*24
###2023-12-09 13:09:27.982387$GAGSA,A,3,04,19,21,27,,,,,,,,,1.1,0.6,0.9*26
###2023-12-09 13:09:27.984122$GBGSA,A,3,14,24,25,26,33,35,,,,,,,1.1,0.6,0.9*29
###2023-12-09 13:09:27.986462$GPGSV,2,1,08,03,33,257,45,04,36,311,45,16,54,214,47,26,84,210,49*77
###2023-12-09 13:09:27.988818$GPGSV,2,2,08,28,47,073,46,29,25,058,43,31,67,044,48,32,16,141,42*73
###2023-12-09 13:09:27.991161$GLGSV,2,1,06,65,27,326,42,71,36,173,42,72,72,254,47,73,32,044,44*62
###2023-12-09 13:09:27.992908$GLGSV,2,2,06,74,68,348,43,75,35,257,47,,,,,,,,*61
###2023-12-09 13:09:27.995245$GAGSV,1,1,04,04,31,312,43,19,82,199,41,21,85,085,47,27,31,048,41*65
###2023-12-09 13:09:27.997581$GBGSV,2,1,06,14,40,192,42,24,71,031,49,25,43,265,48,26,24,064,43*66
###2023-12-09 13:09:27.999339$GBGSV,2,2,06,33,55,228,48,35,15,066,43,,,,,,,,*6C
###2023-12-09 13:09:28.000662$GNVTG,168.06,T,,M,3.25,N,6.01,K,A*29
###2023-12-09 13:09:28.002305$GNGST,180927.10,18.000,,,,0.082,0.064,0.150*56
###2023-12-09 13:09:28.003605$GNZDA,180927.10,09,12,2023,00,00*75
###2023-12-09 13:09:28.004242$GNEBP,,,,,,M*13
###2023-12-09 13:09:28.169899$GNGGA,180927.30,4138.0831179,N,07032.2595331,W,1,25,0.6,13.166,M,-29.741,M,0.0,*59
###2023-12-09 13:09:28.370026$GNGGA,180927.50,4138.0829380,N,07032.2594981,W,1,25,0.6,13.183,M,-29.741,M,0.0,*59
###2023-12-09 13:09:28.570822$GNGGA,180927.70,4138.0827505,N,07032.2594747,W,1,25,0.6,13.193,M,-29.741,M,0.0,*5B
###2023-12-09 13:09:28.770778$GNGGA,180927.90,4138.0825654,N,07032.2594304,W,1,25,0.6,13.192,M,-29.741,M,0.0,*52
###2023-12-09 13:09:28.973817$GNRMC,180928.10,A,4138.0823824,N,07032.2593745,W,3.48,168.37,091223,,,A*52
###2023-12-09 13:09:28.976693$GNGGA,180928.10,4138.0823824,N,07032.2593745,W,1,25,0.6,13.192,M,-29.741,M,0.0,*5C
###2023-12-09 13:09:28.978548$GPGSA,A,3,03,04,16,26,28,29,31,32,,,,,1.1,0.6,0.9*3B
###2023-12-09 13:09:28.980269$GLGSA,A,3,65,71,72,73,74,75,,,,,,,1.1,0.6,0.9*24
###2023-12-09 13:09:28.981850$GAGSA,A,3,04,19,21,27,,,,,,,,,1.1,0.6,0.9*26
###2023-12-09 13:09:28.983574$GBGSA,A,3,14,24,25,26,33,35,,,,,,,1.1,0.6,0.9*29
###2023-12-09 13:09:28.985911$GPGSV,2,1,08,03,33,257,44,04,36,311,44,16,54,214,46,26,84,210,48*77
###2023-12-09 13:09:28.988257$GPGSV,2,2,08,28,46,074,47,29,25,058,43,31,67,044,47,32,16,141,42*7B
###2023-12-09 13:09:28.990602$GLGSV,2,1,06,65,27,326,42,71,36,173,43,72,72,254,46,73,32,044,44*62
###2023-12-09 13:09:28.992354$GLGSV,2,2,06,74,68,348,43,75,35,257,46,,,,,,,,*60
###2023-12-09 13:09:28.994697$GAGSV,1,1,04,04,31,312,43,19,82,199,40,21,85,085,46,27,31,048,41*65
###2023-12-09 13:09:28.997032$GBGSV,2,1,06,14,40,192,42,24,71,031,50,25,43,265,48,26,24,064,45*68
###2023-12-09 13:09:28.998792$GBGSV,2,2,06,33,55,228,48,35,15,066,45,,,,,,,,*6A
###2023-12-09 13:09:29.000120$GNVTG,168.37,T,,M,3.48,N,6.44,K,A*21
###2023-12-09 13:09:29.001770$GNGST,180928.10,18.000,,,,0.083,0.064,0.150*58
###2023-12-09 13:09:29.003080$GNZDA,180928.10,09,12,2023,00,00*7A
###2023-12-09 13:09:29.003732$GNEBP,,,,,,M*13
###2023-12-09 13:09:29.171437$GNGGA,180928.30,4138.0821945,N,07032.2593240,W,1,25,0.6,13.197,M,-29.741,M,0.0,*5F
###2023-12-09 13:09:29.370085$GNGGA,180928.50,4138.0820055,N,07032.2592800,W,1,25,0.6,13.205,M,-29.741,M,0.0,*57
###2023-12-09 13:09:29.571913$GNGGA,180928.70,4138.0818176,N,07032.2592209,W,1,25,0.6,13.200,M,-29.741,M,0.0,*58
###2023-12-09 13:09:29.770838$GNGGA,180928.90,4138.0816417,N,07032.2591426,W,1,25,0.6,13.201,M,-29.741,M,0.0,*53
###2023-12-09 13:09:29.972400$GNRMC,180929.10,A,4138.0814587,N,07032.2590645,W,3.50,167.53,091223,,,A*55
###2023-12-09 13:09:29.975542$GNGGA,180929.10,4138.0814587,N,07032.2590645,W,1,25,0.6,13.204,M,-29.741,M,0.0,*53
###2023-12-09 13:09:29.977425$GPGSA,A,3,03,04,16,26,28,29,31,32,,,,,1.1,0.6,0.9*3B
###2023-12-09 13:09:29.979163$GLGSA,A,3,65,71,72,73,74,75,,,,,,,1.1,0.6,0.9*24
###2023-12-09 13:09:29.980758$GAGSA,A,3,04,19,21,27,,,,,,,,,1.1,0.6,0.9*26
###2023-12-09 13:09:29.982480$GBGSA,A,3,14,24,25,26,33,35,,,,,,,1.1,0.6,0.9*29
###2023-12-09 13:09:29.984828$GPGSV,2,1,08,03,33,257,44,04,36,311,44,16,54,214,46,26,84,210,48*77
###2023-12-09 13:09:29.987184$GPGSV,2,2,08,28,46,074,46,29,24,057,44,31,67,044,47,32,16,141,41*70
###2023-12-09 13:09:29.989530$GLGSV,2,1,06,65,27,326,42,71,36,173,43,72,72,254,46,73,32,044,45*63
###2023-12-09 13:09:29.991296$GLGSV,2,2,06,74,68,348,43,75,35,257,46,,,,,,,,*60
###2023-12-09 13:09:29.993637$GAGSV,1,1,04,04,31,312,43,19,82,199,40,21,85,085,46,27,31,048,44*60
