###2023-12-09 12:33:26.950370$GLGSV,1,1,04,71,58,169,48,72,65,311,37,73,49,033,49,74,71,287,38*6E
###2023-12-09 12:33:26.952460$GAGSV,1,1,03,19,81,304,39,21,77,177,47,27,42,050,44,,,,*50
###2023-12-09 12:33:26.954818$GBGSV,2,1,05,14,56,198,45,24,81,339,47,25,32,252,44,26,36,057,44*6F
###2023-12-09 12:33:26.956287$GBGSV,2,2,05,33,63,257,48,,,,,,,,,,,,*57
###2023-12-09 12:33:26.957610$GNVTG,116.75,T,,M,0.87,N,1.62,K,A*2D
###2023-12-09 12:33:26.959277$GNGST,173326.10,21.000,,,,0.120,0.130,0.280*5C
###2023-12-09 12:33:26.960576$GNZDA,173326.10,09,12,2023,00,00*72
###2023-12-09 12:33:26.961219$GNEBP,,,,,,M*13
###2023-12-09 12:33:27.132117$GNGGA,173326.30,4138.0455187,N,07032.4293055,W,1,19,0.9,13.123,M,-29.745,M,0.0,*52
###2023-12-09 12:33:27.331922$GNGGA,173326.50,4138.0455030,N,07032.4292405,W,1,20,0.8,13.108,M,-29.745,M,0.0,*5B
###2023-12-09 12:33:27.531872$GNGGA,173326.70,4138.0454883,N,07032.4292117,W,1,21,0.7,13.035,M,-29.745,M,0.0,*5F
###2023-12-09 12:33:27.732708$GNGGA,173326.90,4138.0454921,N,07032.4291925,W,1,22,0.7,12.950,M,-29.745,M,0.0,*5A
###2023-12-09 12:33:27.933357$GNRMC,173327.10,A,4138.0454992,N,07032.4291610,W,0.62,100.99,091223,,,A*58
###2023-12-09 12:33:27.936844$GNGGA,173327.10,4138.0454992,N,07032.4291610,W,1,22,0.7,12.895,M,-29.745,M,0.0,*5A
###2023-12-09 12:33:27.939112$GPGSA,A,3,03,04,16,26,28,29,31,32,,,,,1.2,0.7,1.0*31
###2023-12-09 12:33:27.941074$GLGSA,A,3,71,72,73,74,,,,,,,,,1.2,0.7,1.0*2F
###2023-12-09 12:33:27.943020$GAGSA,A,3,04,19,21,27,,,,,,,,,1.2,0.7,1.0*2C
###2023-12-09 12:33:27.945024$GBGSA,A,3,14,24,25,26,33,,,,,,,,1.2,0.7,1.0*25
###2023-12-09 12:33:27.947883$GPGSV,2,1,08,03,39,278,43,04,21,310,43,16,36,207,43,26,65,206,47*73
###2023-12-09 12:33:27.950732$GPGSV,2,2,08,28,58,055,46,29,25,075,39,31,73,358,47,32,31,134,41*7B
###2023-12-09 12:33:27.953549$GLGSV,1,1,04,71,58,169,47,72,65,311,49,73,49,033,43,74,71,287,45*68
###2023-12-09 12:33:27.956418$GAGSV,1,1,04,04,20,311,42,19,81,304,41,21,77,177,46,27,42,050,45*6B
###2023-12-09 12:33:27.959258$GBGSV,2,1,05,14,56,198,46,24,81,339,50,25,32,252,44,26,36,057,41*6F
###2023-12-09 12:33:27.961029$GBGSV,2,2,05,33,63,257,49,,,,,,,,,,,,*56
###2023-12-09 12:33:27.962643$GNVTG,100.99,T,,M,0.62,N,1.15,K,A*23
###2023-12-09 12:33:27.964641$GNGST,173327.10,21.000,,,,0.120,0.120,0.270*53
###2023-12-09 12:33:27.966206$GNZDA,173327.10,09,12,2023,00,00*73
###2023-12-09 12:33:27.967001$GNEBP,,,,,,M*13
###2023-12-09 12:33:28.133348$GNGGA,173327.30,4138.0455041,N,07032.4291349,W,1,22,0.7,12.826,M,-29.745,M,0.0,*5F
###2023-12-09 12:33:28.333317$GNGGA,173327.50,4138.0455064,N,07032.4291115,W,1,21,0.7,12.742,M,-29.745,M,0.0,*5B
###2023-12-09 12:33:28.531518$GNGGA,173327.70,4138.0455054,N,07032.4290777,W,1,21,0.7,12.687,M,-29.745,M,0.0,*51
###2023-12-09 12:33:28.728998$GNGGA,173327.90,4138.0455003,N,07032.4290314,W,1,21,0.7,12.666,M,-29.745,M,0.0,*53
###2023-12-09 12:33:28.932020$GNRMC,173328.10,A,4138.0454951,N,07032.4289804,W,0.64,100.99,091223,,,A*5C
###2023-12-09 12:33:28.934914$GNGGA,173328.10,4138.0454951,N,07032.4289804,W,1,22,0.7,12.658,M,-29.745,M,0.0,*57
###2023-12-09 12:33:28.936773$GPGSA,A,3,03,04,16,26,28,29,31,32,,,,,1.2,0.7,1.0*31
###2023-12-09 12:33:28.938422$GLGSA,A,3,71,72,73,74,75,,,,,,,,1.2,0.7,1.0*2D
###2023-12-09 12:33:28.940021$GAGSA,A,3,04,19,21,27,,,,,,,,,1.2,0.7,1.0*2C
###2023-12-09 12:33:28.941676$GBGSA,A,3,14,24,25,26,33,,,,,,,,1.2,0.7,1.0*25
###2023-12-09 12:33:28.944025$GPGSV,2,1,08,03,39,278,44,04,21,310,38,16,36,207,43,26,65,206,47*78
###2023-12-09 12:33:28.946375$GPGSV,2,2,08,28,58,055,46,29,25,075,36,31,73,358,47,32,31,134,42*77
###2023-12-09 12:33:28.948757$GLGSV,2,1,05,71,58,169,49,72,65,311,46,73,49,033,39,74,71,287,44*67
###2023-12-09 12:33:28.950229$GLGSV,2,2,05,75,21,240,37,,,,,,,,,,,,*53
###2023-12-09 12:33:28.952581$GAGSV,1,1,04,04,20,311,37,19,81,304,41,21,77,177,49,27,42,050,44*67
###2023-12-09 12:33:28.954938$GBGSV,2,1,05,14,56,198,47,24,81,339,48,25,32,252,44,26,36,057,45*63
###2023-12-09 12:33:28.956399$GBGSV,2,2,05,33,63,257,51,,,,,,,,,,,,*5F
###2023-12-09 12:33:28.957732$GNVTG,100.99,T,,M,0.64,N,1.19,K,A*29
###2023-12-09 12:33:28.959405$GNGST,173328.10,20.000,,,,0.110,0.110,0.250*5F
###2023-12-09 12:33:28.960705$GNZDA,173328.10,09,12,2023,00,00*7C
###2023-12-09 12:33:28.961351$GNEBP,,,,,,M*13
###2023-12-09 12:33:29.131421$GNGGA,173328.30,4138.0454884,N,07032.4289369,W,1,22,0.7,12.659,M,-29.745,M,0.0,*5D
###2023-12-09 12:33:29.329904$GNGGA,173328.50,4138.0454803,N,07032.4288763,W,1,22,0.7,12.697,M,-29.745,M,0.0,*59
###2023-12-09 12:33:29.531410$GNGGA,173328.70,4138.0454721,N,07032.4288264,W,1,22,0.7,12.742,M,-29.745,M,0.0,*5F
###2023-12-09 12:33:29.730556$GNGGA,173328.90,4138.0454655,N,07032.4287849,W,1,22,0.7,12.763,M,-29.745,M,0.0,*5A
###2023-12-09 12:33:29.944288$GNRMC,173329.10,A,4138.0454535,N,07032.4287267,W,0.66,100.99,091223,,,A*50
###2023-12-09 12:33:29.947820$GNGGA,173329.10,4138.0454535,N,07032.4287267,W,1,22,0.7,12.804,M,-29.745,M,0.0,*5E
###2023-12-09 12:33:29.950099$GPGSA,A,3,03,04,16,26,28,29,31,32,,,,,1.2,0.7,1.0*31
###2023-12-09 12:33:29.952122$GLGSA,A,3,71,72,73,74,75,,,,,,,,1.2,0.7,1.0*2D
###2023-12-09 12:33:29.954043$GAGSA,A,3,04,19,21,27,,,,,,,,,1.2,0.7,1.0*2C
###2023-12-09 12:33:29.956060$GBGSA,A,3,14,24,25,26,33,,,,,,,,1.2,0.7,1.0*25
###2023-12-09 12:33:29.958888$GPGSV,2,1,08,03,39,278,44,04,21,310,43,16,36,207,46,26,65,206,47*71
###2023-12-09 12:33:29.961699$GPGSV,2,2,08,28,58,055,46,29,25,075,43,31,73,358,47,32,31,134,44*73
###2023-12-09 12:33:29.964521$GLGSV,2,1,05,71,58,169,49,72,65,311,47,73,49,033,39,74,71,287,46*64
###2023-12-09 12:33:29.966280$GLGSV,2,2,05,75,21,240,36,,,,,,,,,,,,*52
###2023-12-09 12:33:29.969100$GAGSV,1,1,04,04,20,311,40,19,81,304,42,21,77,177,46,27,42,050,44*6B
###2023-12-09 12:33:29.972099$GBGSV,2,1,05,14,56,198,47,24,81,339,49,25,32,252,44,26,36,057,43*64
###2023-12-09 12:33:29.973921$GBGSV,2,2,05,33,63,257,50,,,,,,,,,,,,*5E
###2023-12-09 12:33:29.975562$GNVTG,100.99,T,,M,0.66,N,1.22,K,A*23
###2023-12-09 12:33:29.977574$GNGST,173329.10,21.000,,,,0.110,0.100,0.240*5F
###2023-12-09 12:33:29.979154$GNZDA,173329.10,09,12,2023,00,00*7D
###2023-12-09 12:33:29.979940$GNEBP,,,,,,M*13
###2023-12-09 12:33:30.131194$GNGGA,173329.30,4138.0454486,N,07032.4286717,W,1,22,0.7,12.811,M,-29.745,M,0.0,*52
###2023-12-09 12:33:30.328992$GNGGA,173329.50,4138.0454416,N,07032.4286312,W,1,22,0.7,12.806,M,-29.745,M,0.0,*5A
###2023-12-09 12:33:30.529999$GNGGA,173329.70,4138.0454323,N,07032.4285967,W,1,22,0.7,12.791,M,-29.745,M,0.0,*53
###2023-12-09 12:33:30.728938$GNGGA,173329.90,4138.0454296,N,07032.4285696,W,1,21,0.7,12.797,M,-29.745,M,0.0,*56
###2023-12-09 12:33:30.931535$GNRMC,173330.10,A,4138.0454284,N,07032.4285482,W,0.31,100.99,091223,,,A*58
###2023-12-09 12:33:30.934427$GNGGA,173330.10,4138.0454284,N,07032.4285482,W,1,20,0.8,12.783,M,-29.745,M,0.0,*59
###2023-12-09 12:33:30.936235$GPGSA,A,3,03,16,26,28,29,31,32,,,,,,1.4,0.8,1.2*3E
###2023-12-09 12:33:30.937894$GLGSA,A,3,71,72,73,74,75,,,,,,,,1.4,0.8,1.2*26
###2023-12-09 12:33:30.939432$GAGSA,A,3,19,21,27,,,,,,,,,,1.4,0.8,1.2*23
###2023-12-09 12:33:30.941084$GBGSA,A,3,14,24,25,26,33,,,,,,,,1.4,0.8,1.2*2E
###2023-12-09 12:33:30.943434$GPGSV,2,1,07,03,39,278,44,16,36,207,44,26,65,206,45,28,58,055,46*79
###2023-12-09 12:33:30.945491$GPGSV,2,2,07,29,25,075,38,31,73,358,47,32,31,134,44,,,,*45
###2023-12-09 12:33:30.947951$GLGSV,2,1,05,71,58,169,49,72,65,311,43,73,49,033,44,74,71,287,43*6F
###2023-12-09 12:33:30.949452$GLGSV,2,2,05,75,21,240,36,,,,,,,,,,,,*52
###2023-12-09 12:33:30.951521$GAGSV,1,1,03,19,81,304,39,21,77,177,47,27,42,050,41,,,,*55
###2023-12-09 12:33:30.953867$GBGSV,2,1,05,14,56,198,46,24,81,339,47,25,32,252,45,26,36,057,42*6B
###2023-12-09 12:33:30.955347$GBGSV,2,2,05,33,63,257,50,,,,,,,,,,,,*5E
###2023-12-09 12:33:30.956676$GNVTG,100.99,T,,M,0.31,N,0.58,K,A*2D
###2023-12-09 12:33:30.958335$GNGST,173330.10,21.000,,,,0.110,0.098,0.230*50
###2023-12-09 12:33:30.959654$GNZDA,173330.10,09,12,2023,00,00*75
###2023-12-09 12:33:30.960305$GNEBP,,,,,,M*13
###2023-12-09 12:33:31.128812$GNGGA,173330.30,4138.0454390,N,07032.4285364,W,1,20,0.8,12.758,M,-29.745,M,0.0,*56
###2023-12-09 12:33:31.330022$GNGGA,173330.50,4138.0454467,N,07032.4285220,W,1,21,0.7,12.753,M,-29.745,M,0.0,*5B
###2023-12-09 12:33:31.528912$GNGGA,173330.70,4138.0454538,N,07032.4285080,W,1,22,0.7,12.753,M,-29.745,M,0.0,*59
###2023-12-09 12:33:31.729754$GNGGA,173330.90,4138.0454662,N,07032.4284951,W,1,21,0.7,12.746,M,-29.745,M,0.0,*58
###2023-12-09 12:33:31.933117$GNRMC,173331.10,A,4138.0454739,N,07032.4284703,W,0.35,100.99,091223,,,A*55
###2023-12-09 12:33:31.936123$GNGGA,173331.10,4138.0454739,N,07032.4284703,W,1,21,0.7,12.751,M,-29.745,M,0.0,*51
###2023-12-09 12:33:31.937986$GPGSA,A,3,03,04,16,26,28,29,31,32,,,,,1.2,0.7,1.0*31
###2023-12-09 12:33:31.939657$GLGSA,A,3,71,72,73,74,75,,,,,,,,1.2,0.7,1.0*2D
###2023-12-09 12:33:31.941240$GAGSA,A,3,04,19,21,27,,,,,,,,,1.2,0.7,1.0*2C
