###2023-12-09 13:28:09.018728$GBGSV,2,2,06,33,48,220,48,35,16,059,44,,,,,,,,*60
###2023-12-09 13:28:09.020082$GNVTG,307.05,T,,M,0.93,N,1.73,K,A*2D
###2023-12-09 13:28:09.021731$GNGST,182808.10,20.000,,,,0.150,0.089,0.230*5B
###2023-12-09 13:28:09.023041$GNZDA,182808.10,09,12,2023,00,00*7B
###2023-12-09 13:28:09.023685$GNEBP,,,,,,M*13
###2023-12-09 13:28:09.187657$GNGGA,182808.30,4138.0425549,N,07032.4282184,W,1,23,0.7,13.179,M,-29.745,M,0.0,*5F
###2023-12-09 13:28:09.383923$GNGGA,182808.50,4138.0425859,N,07032.4281388,W,1,23,0.7,13.116,M,-29.745,M,0.0,*51
###2023-12-09 13:28:09.583525$GNGGA,182808.70,4138.0426203,N,07032.4281097,W,1,23,0.7,13.088,M,-29.745,M,0.0,*5E
###2023-12-09 13:28:09.786839$GNGGA,182808.90,4138.0426494,N,07032.4281721,W,1,23,0.7,13.146,M,-29.745,M,0.0,*51
###2023-12-09 13:28:09.984782$GNRMC,182809.10,A,4138.0426860,N,07032.4282247,W,0.56,312.23,091223,,,A*5B
###2023-12-09 13:28:09.987664$GNGGA,182809.10,4138.0426860,N,07032.4282247,W,1,23,0.7,13.160,M,-29.745,M,0.0,*5D
###2023-12-09 13:28:09.989462$GPGSA,A,3,03,04,16,26,28,29,31,,,,,,1.2,0.7,1.1*31
###2023-12-09 13:28:09.991188$GLGSA,A,3,65,71,72,73,74,75,,,,,,,1.2,0.7,1.1*2F
###2023-12-09 13:28:09.992775$GAGSA,A,3,04,19,21,27,,,,,,,,,1.2,0.7,1.1*2D
###2023-12-09 13:28:09.994490$GBGSA,A,3,14,24,25,26,33,35,,,,,,,1.2,0.7,1.1*22
###2023-12-09 13:28:09.996841$GPGSV,2,1,07,03,28,249,41,04,43,309,47,16,63,220,45,26,87,041,47*7A
###2023-12-09 13:28:09.998896$GPGSV,2,2,07,28,40,082,43,29,22,049,41,31,61,061,45,,,,*4D
###2023-12-09 13:28:10.001236$GLGSV,2,1,06,65,35,321,45,71,26,175,40,72,66,227,46,73,25,050,39*6D
###2023-12-09 13:28:10.003003$GLGSV,2,2,06,74,62,008,42,75,41,267,49,,,,,,,,*63
###2023-12-09 13:28:10.005336$GAGSV,1,1,04,04,38,311,46,19,74,183,40,21,79,049,46,27,24,049,41*6E
###2023-12-09 13:28:10.007678$GBGSV,2,1,06,14,32,190,41,24,65,042,46,25,49,273,50,26,18,069,40*69
###2023-12-09 13:28:10.009422$GBGSV,2,2,06,33,48,220,47,35,16,059,43,,,,,,,,*68
###2023-12-09 13:28:10.010755$GNVTG,312.23,T,,M,0.56,N,1.04,K,A*24
###2023-12-09 13:28:10.012408$GNGST,182809.10,19.000,,,,0.150,0.088,0.230*51
###2023-12-09 13:28:10.013699$GNZDA,182809.10,09,12,2023,00,00*7A
###2023-12-09 13:28:10.014339$GNEBP,,,,,,M*13
###2023-12-09 13:28:10.184064$GNGGA,182809.30,4138.0427179,N,07032.4281741,W,1,23,0.7,13.168,M,-29.745,M,0.0,*57
###2023-12-09 13:28:10.383605$GNGGA,182809.50,4138.0427505,N,07032.4280973,W,1,23,0.7,13.085,M,-29.745,M,0.0,*52
###2023-12-09 13:28:10.584193$GNGGA,182809.70,4138.0427832,N,07032.4281267,W,1,23,0.7,13.105,M,-29.745,M,0.0,*5F
###2023-12-09 13:28:10.783766$GNGGA,182809.90,4138.0428052,N,07032.4282069,W,1,23,0.7,13.138,M,-29.745,M,0.0,*51
###2023-12-09 13:28:10.986795$GNRMC,182810.10,A,4138.0428331,N,07032.4282141,W,0.84,286.57,091223,,,A*57
###2023-12-09 13:28:10.989739$GNGGA,182810.10,4138.0428331,N,07032.4282141,W,1,23,0.7,13.137,M,-29.745,M,0.0,*53
###2023-12-09 13:28:10.991556$GPGSA,A,3,03,04,16,26,28,29,31,,,,,,1.2,0.7,1.1*31
###2023-12-09 13:28:10.993278$GLGSA,A,3,65,71,72,73,74,75,,,,,,,1.2,0.7,1.1*2F
###2023-12-09 13:28:10.994875$GAGSA,A,3,04,19,21,27,,,,,,,,,1.2,0.7,1.1*2D
###2023-12-09 13:28:10.996586$GBGSA,A,3,14,24,25,26,33,35,,,,,,,1.2,0.7,1.1*22
###2023-12-09 13:28:10.998925$GPGSV,2,1,07,03,28,249,41,04,43,309,46,16,63,220,47,26,87,041,47*79
###2023-12-09 13:28:11.000968$GPGSV,2,2,07,28,40,082,43,29,22,049,43,31,61,061,42,,,,*48
###2023-12-09 13:28:11.003308$GLGSV,2,1,06,65,35,321,46,71,26,175,35,72,66,227,47,73,25,050,40*63
###2023-12-09 13:28:11.005055$GLGSV,2,2,06,74,62,008,41,75,41,267,50,,,,,,,,*68
###2023-12-09 13:28:11.007395$GAGSV,1,1,04,04,38,311,43,19,74,183,39,21,79,049,44,27,24,049,41*67
###2023-12-09 13:28:11.009726$GBGSV,2,1,06,14,32,190,42,24,65,042,47,25,49,273,51,26,18,069,41*6B
###2023-12-09 13:28:11.011474$GBGSV,2,2,06,33,48,220,49,35,16,059,40,,,,,,,,*65
###2023-12-09 13:28:11.012793$GNVTG,286.57,T,,M,0.84,N,1.55,K,A*20
###2023-12-09 13:28:11.014446$GNGST,182810.10,21.000,,,,0.140,0.088,0.230*53
###2023-12-09 13:28:11.015751$GNZDA,182810.10,09,12,2023,00,00*72
###2023-12-09 13:28:11.016391$GNEBP,,,,,,M*13
###2023-12-09 13:28:11.184887$GNGGA,182810.30,4138.0428714,N,07032.4281500,W,1,23,0.7,13.138,M,-29.745,M,0.0,*5F
###2023-12-09 13:28:11.382792$GNGGA,182810.50,4138.0429089,N,07032.4281205,W,1,23,0.7,13.093,M,-29.745,M,0.0,*59
###2023-12-09 13:28:11.584758$GNGGA,182810.70,4138.0429327,N,07032.4281728,W,1,23,0.7,13.112,M,-29.745,M,0.0,*5E
###2023-12-09 13:28:11.782903$GNGGA,182810.90,4138.0429550,N,07032.4282385,W,1,23,0.7,13.121,M,-29.745,M,0.0,*56
###2023-12-09 13:28:11.985407$GNRMC,182811.10,A,4138.0429855,N,07032.4282157,W,1.13,47.99,091223,,,A*6B
###2023-12-09 13:28:11.988339$GNGGA,182811.10,4138.0429855,N,07032.4282157,W,1,22,0.7,13.123,M,-29.745,M,0.0,*59
###2023-12-09 13:28:11.990134$GPGSA,A,3,03,04,16,26,28,29,31,,,,,,1.2,0.7,1.1*31
###2023-12-09 13:28:11.991813$GLGSA,A,3,65,72,73,74,75,,,,,,,,1.2,0.7,1.1*29
###2023-12-09 13:28:11.993397$GAGSA,A,3,04,19,21,27,,,,,,,,,1.2,0.7,1.1*2D
###2023-12-09 13:28:11.995123$GBGSA,A,3,14,24,25,26,33,35,,,,,,,1.2,0.7,1.1*22
###2023-12-09 13:28:11.997457$GPGSV,2,1,07,03,28,249,41,04,43,309,46,16,63,220,47,26,87,041,48*76
###2023-12-09 13:28:11.999516$GPGSV,2,2,07,28,40,082,44,29,22,049,42,31,61,061,45,,,,*49
###2023-12-09 13:28:12.001845$GLGSV,2,1,05,65,35,321,44,72,66,227,47,73,25,050,41,74,62,008,42*6D
###2023-12-09 13:28:12.003317$GLGSV,2,2,05,75,41,267,50,,,,,,,,,,,,*51
###2023-12-09 13:28:12.005646$GAGSV,1,1,04,04,38,311,44,19,74,183,39,21,79,049,45,27,24,049,40*60
###2023-12-09 13:28:12.007999$GBGSV,2,1,06,14,32,190,39,24,65,042,47,25,49,273,47,26,18,069,40*61
###2023-12-09 13:28:12.009743$GBGSV,2,2,06,33,48,220,46,35,16,059,39,,,,,,,,*64
###2023-12-09 13:28:12.011047$GNVTG,47.99,T,,M,1.13,N,2.09,K,A*18
###2023-12-09 13:28:12.012691$GNGST,182811.10,20.000,,,,0.140,0.088,0.230*53
###2023-12-09 13:28:12.013977$GNZDA,182811.10,09,12,2023,00,00*73
###2023-12-09 13:28:12.014624$GNEBP,,,,,,M*13
###2023-12-09 13:28:12.184821$GNGGA,182811.30,4138.0430247,N,07032.4281564,W,1,23,0.7,13.128,M,-29.745,M,0.0,*57
###2023-12-09 13:28:12.382786$GNGGA,182811.50,4138.0430542,N,07032.4281797,W,1,23,0.7,13.127,M,-29.745,M,0.0,*52
###2023-12-09 13:28:12.584837$GNGGA,182811.70,4138.0430734,N,07032.4282476,W,1,23,0.7,13.131,M,-29.745,M,0.0,*5B
###2023-12-09 13:28:12.785109$GNGGA,182811.90,4138.0430958,N,07032.4282688,W,1,23,0.7,13.108,M,-29.745,M,0.0,*58
###2023-12-09 13:28:12.991494$GNRMC,182812.10,A,4138.0431307,N,07032.4282393,W,0.78,291.47,091223,,,A*51
###2023-12-09 13:28:12.994351$GNGGA,182812.10,4138.0431307,N,07032.4282393,W,1,23,0.7,13.113,M,-29.745,M,0.0,*57
###2023-12-09 13:28:12.996160$GPGSA,A,3,03,04,16,26,28,29,31,,,,,,1.2,0.7,1.1*31
###2023-12-09 13:28:12.997878$GLGSA,A,3,65,71,72,73,74,75,,,,,,,1.2,0.7,1.1*2F
###2023-12-09 13:28:12.999472$GAGSA,A,3,04,19,21,27,,,,,,,,,1.2,0.7,1.1*2D
###2023-12-09 13:28:13.001186$GBGSA,A,3,14,24,25,26,33,35,,,,,,,1.2,0.7,1.1*22
###2023-12-09 13:28:13.003531$GPGSV,2,1,07,03,28,249,42,04,43,309,45,16,63,220,47,26,87,041,48*76
###2023-12-09 13:28:13.005576$GPGSV,2,2,07,28,40,082,45,29,22,049,43,31,61,061,46,,,,*4A
###2023-12-09 13:28:13.007930$GLGSV,2,1,06,65,35,321,44,71,26,175,35,72,66,227,47,73,25,050,43*62
###2023-12-09 13:28:13.009692$GLGSV,2,2,06,74,62,008,42,75,41,267,47,,,,,,,,*6D
###2023-12-09 13:28:13.012040$GAGSV,1,1,04,04,38,311,44,19,74,183,40,21,79,049,46,27,24,049,41*6C
###2023-12-09 13:28:13.014382$GBGSV,2,1,06,14,32,190,39,24,65,042,46,25,49,273,48,26,18,069,42*6D
###2023-12-09 13:28:13.016148$GBGSV,2,2,06,33,48,220,46,35,16,059,41,,,,,,,,*6B
###2023-12-09 13:28:13.017479$GNVTG,291.47,T,,M,0.78,N,1.44,K,A*24
###2023-12-09 13:28:13.019148$GNGST,182812.10,19.000,,,,0.140,0.088,0.230*5A
###2023-12-09 13:28:13.020445$GNZDA,182812.10,09,12,2023,00,00*70
###2023-12-09 13:28:13.021085$GNEBP,,,,,,M*13
###2023-12-09 13:28:13.184686$GNGGA,182812.30,4138.0431646,N,07032.4282315,W,1,23,0.7,13.118,M,-29.745,M,0.0,*50
###2023-12-09 13:28:13.385019$GNGGA,182812.50,4138.0431867,N,07032.4282726,W,1,22,0.7,13.129,M,-29.745,M,0.0,*5C
###2023-12-09 13:28:13.585292$GNGGA,182812.70,4138.0432066,N,07032.4283147,W,1,23,0.7,13.120,M,-29.745,M,0.0,*5C
###2023-12-09 13:28:13.787637$GNGGA,182812.90,4138.0432392,N,07032.4283160,W,1,23,0.7,13.113,M,-29.745,M,0.0,*5F
###2023-12-09 13:28:13.990587$GNRMC,182813.10,A,4138.0432720,N,07032.4283085,W,0.43,291.47,091223,,,A*5F
###2023-12-09 13:28:13.994065$GNGGA,182813.10,4138.0432720,N,07032.4283085,W,1,23,0.7,13.115,M,-29.745,M,0.0,*57
###2023-12-09 13:28:13.996257$GPGSA,A,3,03,04,16,26,28,29,31,,,,,,1.2,0.7,1.1*31
###2023-12-09 13:28:13.998325$GLGSA,A,3,65,71,72,73,74,75,,,,,,,1.2,0.7,1.1*2F
###2023-12-09 13:28:14.000304$GAGSA,A,3,04,19,21,27,,,,,,,,,1.2,0.7,1.1*2D
###2023-12-09 13:28:14.002383$GBGSA,A,3,14,24,25,26,33,35,,,,,,,1.2,0.7,1.1*22
###2023-12-09 13:28:14.005234$GPGSV,2,1,07,03,28,249,38,04,43,309,45,16,63,220,47,26,87,041,48*7B
