###2023-12-09 12:30:36.945473$GPGSV,2,2,08,28,60,053,44,29,25,076,44,31,73,353,42,32,32,133,48*7E
###2023-12-09 12:30:36.948732$GLGSV,1,1,04,71,59,168,48,72,64,313,40,73,50,032,44,75,20,239,39*68
###2023-12-09 12:30:36.950949$GAGSV,1,1,02,21,76,178,39,27,43,050,45,,,,,,,,*6A
###2023-12-09 12:30:36.953807$GBGSV,1,1,04,14,57,199,44,25,31,251,36,26,36,056,44,33,63,258,36*62
###2023-12-09 12:30:36.955212$GNVTG,,T,,M,0.00,N,0.00,K,A*3D
###2023-12-09 12:30:36.957216$GNGST,173036.10,31.000,,,,0.100,0.100,0.270*51
###2023-12-09 12:30:36.958798$GNZDA,173036.10,09,12,2023,00,00*70
###2023-12-09 12:30:36.959588$GNEBP,,,,,,M*13
###2023-12-09 12:30:37.125837$GNGGA,173036.30,4138.0381645,N,07032.4367123,W,1,18,0.7,14.060,M,-29.746,M,0.0,*50
###2023-12-09 12:30:37.327307$GNGGA,173036.50,4138.0381632,N,07032.4367106,W,1,18,0.7,14.072,M,-29.746,M,0.0,*52
###2023-12-09 12:30:37.526423$GNGGA,173036.70,4138.0381604,N,07032.4367083,W,1,18,0.7,14.084,M,-29.746,M,0.0,*50
###2023-12-09 12:30:37.727914$GNGGA,173036.90,4138.0381578,N,07032.4367057,W,1,18,0.7,14.096,M,-29.746,M,0.0,*5C
###2023-12-09 12:30:37.927585$GNRMC,173037.10,A,4138.0381552,N,07032.4367054,W,0.08,,091223,,,A*48
###2023-12-09 12:30:37.931135$GNGGA,173037.10,4138.0381552,N,07032.4367054,W,1,18,0.7,14.106,M,-29.746,M,0.0,*56
###2023-12-09 12:30:37.933422$GPGSA,A,3,03,04,16,26,28,29,31,32,,,,,1.4,0.7,1.2*35
###2023-12-09 12:30:37.935394$GLGSA,A,3,71,72,73,75,,,,,,,,,1.4,0.7,1.2*2A
###2023-12-09 12:30:37.937194$GAGSA,A,3,21,27,,,,,,,,,,,1.4,0.7,1.2*24
###2023-12-09 12:30:37.939145$GBGSA,A,3,14,25,26,33,,,,,,,,,1.4,0.7,1.2*27
###2023-12-09 12:30:37.941990$GPGSV,2,1,08,03,39,280,40,04,20,310,36,16,34,206,39,26,64,206,44*78
###2023-12-09 12:30:37.944892$GPGSV,2,2,08,28,60,053,44,29,25,076,44,31,73,353,43,32,32,133,48*7F
###2023-12-09 12:30:37.947788$GLGSV,1,1,04,71,59,168,48,72,64,313,39,73,50,032,44,75,20,239,40*68
###2023-12-09 12:30:37.950189$GAGSV,1,1,02,21,76,178,39,27,43,050,45,,,,,,,,*6A
###2023-12-09 12:30:37.953089$GBGSV,1,1,04,14,57,199,44,25,31,251,35,26,36,056,44,33,63,258,37*60
###2023-12-09 12:30:37.954512$GNVTG,,T,,M,0.08,N,0.14,K,A*30
###2023-12-09 12:30:37.956558$GNGST,173037.10,31.000,,,,0.100,0.100,0.270*50
###2023-12-09 12:30:37.958164$GNZDA,173037.10,09,12,2023,00,00*71
###2023-12-09 12:30:37.958990$GNEBP,,,,,,M*13
###2023-12-09 12:30:38.127334$GNGGA,173037.30,4138.0381533,N,07032.4367051,W,1,18,0.7,14.116,M,-29.746,M,0.0,*57
###2023-12-09 12:30:38.333993$GNGGA,173037.50,4138.0381519,N,07032.4367049,W,1,18,0.7,14.125,M,-29.746,M,0.0,*50
###2023-12-09 12:30:38.526786$GNGGA,173037.70,4138.0381511,N,07032.4367048,W,1,18,0.7,14.138,M,-29.746,M,0.0,*57
###2023-12-09 12:30:38.725815$GNGGA,173037.90,4138.0381489,N,07032.4367054,W,1,18,0.7,14.148,M,-29.746,M,0.0,*53
###2023-12-09 12:30:38.929397$GNRMC,173038.10,A,4138.0381483,N,07032.4367065,W,0.10,,091223,,,A*41
###2023-12-09 12:30:38.932949$GNGGA,173038.10,4138.0381483,N,07032.4367065,W,1,18,0.7,14.161,M,-29.746,M,0.0,*57
###2023-12-09 12:30:38.935273$GPGSA,A,3,03,04,16,26,28,29,31,32,,,,,1.4,0.7,1.2*35
###2023-12-09 12:30:38.937285$GLGSA,A,3,71,72,73,75,,,,,,,,,1.4,0.7,1.2*2A
###2023-12-09 12:30:38.939113$GAGSA,A,3,21,27,,,,,,,,,,,1.4,0.7,1.2*24
###2023-12-09 12:30:38.941054$GBGSA,A,3,14,25,26,33,,,,,,,,,1.4,0.7,1.2*27
###2023-12-09 12:30:38.943926$GPGSV,2,1,08,03,39,280,40,04,20,310,36,16,34,206,39,26,64,206,44*78
###2023-12-09 12:30:38.946821$GPGSV,2,2,08,28,60,053,44,29,25,076,43,31,73,353,43,32,32,133,48*78
###2023-12-09 12:30:38.949717$GLGSV,1,1,04,71,59,168,48,72,64,313,39,73,50,032,44,75,20,239,40*68
###2023-12-09 12:30:38.951900$GAGSV,1,1,02,21,76,178,39,27,43,050,45,,,,,,,,*6A
###2023-12-09 12:30:38.955008$GBGSV,1,1,04,14,57,199,44,25,31,251,35,26,36,056,44,33,63,258,37*60
###2023-12-09 12:30:38.956439$GNVTG,,T,,M,0.10,N,0.18,K,A*35
###2023-12-09 12:30:38.958478$GNGST,173038.10,31.000,,,,0.100,0.100,0.260*5E
###2023-12-09 12:30:38.960096$GNZDA,173038.10,09,12,2023,00,00*7E
###2023-12-09 12:30:38.960919$GNEBP,,,,,,M*13
###2023-12-09 12:30:39.128094$GNGGA,173038.30,4138.0381459,N,07032.4367044,W,1,17,0.8,14.176,M,-29.746,M,0.0,*57
###2023-12-09 12:30:39.326201$GNGGA,173038.50,4138.0381432,N,07032.4367014,W,1,17,0.8,14.192,M,-29.746,M,0.0,*53
###2023-12-09 12:30:39.526850$GNGGA,173038.70,4138.0381416,N,07032.4366991,W,1,17,0.8,14.209,M,-29.746,M,0.0,*53
###2023-12-09 12:30:39.726056$GNGGA,173038.90,4138.0381390,N,07032.4366995,W,1,17,0.8,14.222,M,-29.746,M,0.0,*59
###2023-12-09 12:30:39.924288$GNRMC,173039.10,A,4138.0381369,N,07032.4366979,W,0.00,,091223,,,A*47
###2023-12-09 12:30:39.927174$GNGGA,173039.10,4138.0381369,N,07032.4366979,W,1,17,0.8,14.233,M,-29.746,M,0.0,*54
###2023-12-09 12:30:39.929054$GPGSA,A,3,03,04,16,26,28,29,31,32,,,,,1.4,0.8,1.2*3A
###2023-12-09 12:30:39.930682$GLGSA,A,3,71,72,73,75,,,,,,,,,1.4,0.8,1.2*25
###2023-12-09 12:30:39.932150$GAGSA,A,3,21,27,,,,,,,,,,,1.4,0.8,1.2*2B
###2023-12-09 12:30:39.933681$GBGSA,A,3,14,26,33,,,,,,,,,,1.4,0.8,1.2*2F
###2023-12-09 12:30:39.936028$GPGSV,2,1,08,03,39,280,40,04,20,310,36,16,34,206,39,26,64,206,45*79
###2023-12-09 12:30:39.938375$GPGSV,2,2,08,28,60,053,44,29,25,076,43,31,73,353,43,32,32,133,48*78
###2023-12-09 12:30:39.940742$GLGSV,1,1,04,71,59,168,48,72,64,313,39,73,50,032,44,75,20,239,40*68
###2023-12-09 12:30:39.942506$GAGSV,1,1,02,21,76,178,39,27,43,050,45,,,,,,,,*6A
###2023-12-09 12:30:39.944569$GBGSV,1,1,03,14,57,199,44,26,36,056,44,33,63,258,37,,,,*52
###2023-12-09 12:30:39.945714$GNVTG,,T,,M,0.00,N,0.00,K,A*3D
###2023-12-09 12:30:39.947405$GNGST,173039.10,31.000,,,,0.100,0.100,0.260*5F
###2023-12-09 12:30:39.948721$GNZDA,173039.10,09,12,2023,00,00*7F
###2023-12-09 12:30:39.949370$GNEBP,,,,,,M*13
###2023-12-09 12:30:40.125049$GNGGA,173039.30,4138.0381348,N,07032.4366943,W,1,18,0.7,14.255,M,-29.746,M,0.0,*5C
###2023-12-09 12:30:40.326731$GNGGA,173039.50,4138.0381348,N,07032.4366912,W,1,17,0.8,14.278,M,-29.746,M,0.0,*51
###2023-12-09 12:30:40.526926$GNGGA,173039.70,4138.0381348,N,07032.4366875,W,1,17,0.8,14.306,M,-29.746,M,0.0,*5B
###2023-12-09 12:30:40.725431$GNGGA,173039.90,4138.0381342,N,07032.4366856,W,1,17,0.8,14.326,M,-29.746,M,0.0,*5C
###2023-12-09 12:30:40.928949$GNRMC,173040.10,A,4138.0381332,N,07032.4366818,W,0.06,,091223,,,A*47
###2023-12-09 12:30:40.931854$GNGGA,173040.10,4138.0381332,N,07032.4366818,W,1,18,0.7,14.352,M,-29.746,M,0.0,*54
###2023-12-09 12:30:40.933729$GPGSA,A,3,03,04,16,26,28,29,31,32,,,,,1.4,0.7,1.2*35
###2023-12-09 12:30:40.935340$GLGSA,A,3,71,72,73,75,,,,,,,,,1.4,0.7,1.2*2A
###2023-12-09 12:30:40.936802$GAGSA,A,3,21,27,,,,,,,,,,,1.4,0.7,1.2*24
###2023-12-09 12:30:40.938395$GBGSA,A,3,14,25,26,33,,,,,,,,,1.4,0.7,1.2*27
###2023-12-09 12:30:40.940753$GPGSV,2,1,08,03,39,280,40,04,20,310,36,16,34,206,39,26,64,206,45*79
###2023-12-09 12:30:40.943123$GPGSV,2,2,08,28,60,053,44,29,25,076,44,31,73,353,43,32,32,133,48*7F
###2023-12-09 12:30:40.945473$GLGSV,1,1,04,71,59,168,48,72,64,313,40,73,50,032,44,75,20,239,40*66
###2023-12-09 12:30:40.947264$GAGSV,1,1,02,21,76,178,39,27,43,050,45,,,,,,,,*6A
###2023-12-09 12:30:40.949622$GBGSV,1,1,04,14,57,199,44,25,31,251,35,26,36,056,44,33,63,258,37*60
###2023-12-09 12:30:40.950790$GNVTG,,T,,M,0.06,N,0.11,K,A*3B
###2023-12-09 12:30:40.952452$GNGST,173040.10,31.000,,,,0.100,0.100,0.260*51
###2023-12-09 12:30:40.953756$GNZDA,173040.10,09,12,2023,00,00*71
###2023-12-09 12:30:40.954409$GNEBP,,,,,,M*13
###2023-12-09 12:30:41.124220$GNGGA,173040.30,4138.0381335,N,07032.4366793,W,1,17,0.8,14.376,M,-29.746,M,0.0,*5B
###2023-12-09 12:30:41.324105$GNGGA,173040.50,4138.0381332,N,07032.4366764,W,1,17,0.8,14.396,M,-29.746,M,0.0,*5C
###2023-12-09 12:30:41.524387$GNGGA,173040.70,4138.0381323,N,07032.4366739,W,1,17,0.8,14.414,M,-29.746,M,0.0,*5B
###2023-12-09 12:30:41.723068$GNGGA,173040.90,4138.0381320,N,07032.4366694,W,1,17,0.8,14.435,M,-29.746,M,0.0,*53
###2023-12-09 12:30:41.925199$GNRMC,173041.10,A,4138.0381309,N,07032.4366653,W,0.06,,091223,,,A*4F
###2023-12-09 12:30:41.928182$GNGGA,173041.10,4138.0381309,N,07032.4366653,W,1,17,0.8,14.453,M,-29.746,M,0.0,*5A
###2023-12-09 12:30:41.930096$GPGSA,A,3,03,04,16,26,28,29,31,32,,,,,1.4,0.8,1.2*3A
###2023-12-09 12:30:41.932008$GLGSA,A,3,71,72,73,75,,,,,,,,,1.4,0.8,1.2*25
###2023-12-09 12:30:41.933515$GAGSA,A,3,21,27,,,,,,,,,,,1.4,0.8,1.2*2B
###2023-12-09 12:30:41.935093$GBGSA,A,3,14,26,33,,,,,,,,,,1.4,0.8,1.2*2F
###2023-12-09 12:30:41.937462$GPGSV,2,1,08,03,39,280,40,04,20,310,36,16,34,206,39,26,64,206,45*79
###2023-12-09 12:30:41.939844$GPGSV,2,2,08,28,60,053,44,29,25,076,43,31,73,353,43,32,32,133,48*78
###2023-12-09 12:30:41.942213$GLGSV,1,1,04,71,59,168,48,72,64,313,40,73,50,032,44,75,20,239,41*67
###2023-12-09 12:30:41.944012$GAGSV,1,1,02,21,76,178,39,27,43,050,45,,,,,,,,*6A
###2023-12-09 12:30:41.946129$GBGSV,1,1,03,14,57,199,44,26,36,056,44,33,63,258,37,,,,*52
###2023-12-09 12:30:41.947342$GNVTG,,T,,M,0.06,N,0.11,K,A*3B
