###2023-12-09 12:36:47.962138$GNVTG,75.98,T,,M,3.48,N,6.44,K,A*19
###2023-12-09 12:36:47.963831$GNGST,173647.10,18.000,,,,0.080,0.070,0.160*57
###2023-12-09 12:36:47.965138$GNZDA,173647.10,09,12,2023,00,00*70
###2023-12-09 12:36:47.965783$GNEBP,,,,,,M*13
###2023-12-09 12:36:48.135658$GNGGA,173647.30,4138.0480441,N,07032.3619763,W,1,23,0.7,13.100,M,-29.744,M,0.0,*53
###2023-12-09 12:36:48.335748$GNGGA,173647.50,4138.0480593,N,07032.3617364,W,1,23,0.7,13.090,M,-29.744,M,0.0,*5E
###2023-12-09 12:36:48.549713$GNGGA,173647.70,4138.0480753,N,07032.3614931,W,1,23,0.7,13.111,M,-29.744,M,0.0,*53
###2023-12-09 12:36:48.735854$GNGGA,173647.90,4138.0481027,N,07032.3612434,W,1,23,0.7,13.116,M,-29.744,M,0.0,*51
###2023-12-09 12:36:48.937326$GNRMC,173648.10,A,4138.0481328,N,07032.3609970,W,3.32,82.95,091223,,,A*6D
###2023-12-09 12:36:48.940783$GNGGA,173648.10,4138.0481328,N,07032.3609970,W,1,23,0.7,13.112,M,-29.744,M,0.0,*59
###2023-12-09 12:36:48.943048$GPGSA,A,3,03,04,16,26,28,29,31,32,,,,,1.2,0.7,1.0*31
###2023-12-09 12:36:48.945036$GLGSA,A,3,71,72,73,74,75,,,,,,,,1.2,0.7,1.0*2D
###2023-12-09 12:36:48.946989$GAGSA,A,3,04,19,21,27,,,,,,,,,1.2,0.7,1.0*2C
###2023-12-09 12:36:48.948995$GBGSA,A,3,14,24,25,26,33,,,,,,,,1.2,0.7,1.0*25
###2023-12-09 12:36:48.951827$GPGSV,2,1,08,03,38,276,44,04,22,311,40,16,37,207,44,26,67,207,47*7F
###2023-12-09 12:36:48.954666$GPGSV,2,2,08,28,57,057,43,29,25,073,40,31,73,004,47,32,29,134,42*7B
###2023-12-09 12:36:48.957486$GLGSV,2,1,05,71,56,169,47,72,66,308,47,73,47,034,46,74,71,293,43*6E
###2023-12-09 12:36:48.959268$GLGSV,2,2,05,75,22,241,42,,,,,,,,,,,,*53
###2023-12-09 12:36:48.962079$GAGSV,1,1,04,04,21,311,40,19,82,299,41,21,78,175,46,27,41,049,44*69
###2023-12-09 12:36:48.964948$GBGSV,2,1,05,14,55,197,46,24,80,348,48,25,33,253,45,26,35,057,43*6D
###2023-12-09 12:36:48.966723$GBGSV,2,2,05,33,63,253,48,,,,,,,,,,,,*53
###2023-12-09 12:36:48.968280$GNVTG,82.95,T,,M,3.32,N,6.16,K,A*16
###2023-12-09 12:36:48.970264$GNGST,173648.10,18.000,,,,0.080,0.070,0.160*58
###2023-12-09 12:36:48.971841$GNZDA,173648.10,09,12,2023,00,00*7F
###2023-12-09 12:36:48.972612$GNEBP,,,,,,M*13
###2023-12-09 12:36:49.137304$GNGGA,173648.30,4138.0481506,N,07032.3607492,W,1,23,0.7,13.127,M,-29.744,M,0.0,*58
###2023-12-09 12:36:49.339066$GNGGA,173648.50,4138.0481605,N,07032.3604905,W,1,23,0.7,13.128,M,-29.744,M,0.0,*51
###2023-12-09 12:36:49.538277$GNGGA,173648.70,4138.0481996,N,07032.3602504,W,1,23,0.7,13.119,M,-29.744,M,0.0,*5F
###2023-12-09 12:36:49.737809$GNGGA,173648.90,4138.0482530,N,07032.3600108,W,1,23,0.7,13.141,M,-29.744,M,0.0,*55
###2023-12-09 12:36:49.938103$GNRMC,173649.10,A,4138.0482862,N,07032.3597576,W,3.36,83.03,091223,,,A*6E
###2023-12-09 12:36:49.941582$GNGGA,173649.10,4138.0482862,N,07032.3597576,W,1,23,0.7,13.136,M,-29.744,M,0.0,*56
###2023-12-09 12:36:49.943834$GPGSA,A,3,03,04,16,26,28,29,31,32,,,,,1.2,0.7,1.0*31
###2023-12-09 12:36:49.945822$GLGSA,A,3,71,72,73,74,75,,,,,,,,1.2,0.7,1.0*2D
###2023-12-09 12:36:49.947789$GAGSA,A,3,04,19,21,27,,,,,,,,,1.2,0.7,1.0*2C
###2023-12-09 12:36:49.949798$GBGSA,A,3,14,24,25,26,33,,,,,,,,1.2,0.7,1.0*25
###2023-12-09 12:36:49.952627$GPGSV,2,1,08,03,38,276,44,04,22,311,41,16,37,207,45,26,67,207,48*70
###2023-12-09 12:36:49.955498$GPGSV,2,2,08,28,57,057,44,29,25,073,41,31,73,004,48,32,29,134,43*73
###2023-12-09 12:36:49.958323$GLGSV,2,1,05,71,56,169,47,72,66,308,47,73,47,034,46,74,71,293,43*6E
###2023-12-09 12:36:49.960096$GLGSV,2,2,05,75,22,241,43,,,,,,,,,,,,*52
###2023-12-09 12:36:49.962913$GAGSV,1,1,04,04,21,311,40,19,82,299,41,21,78,175,46,27,41,049,43*6E
###2023-12-09 12:36:49.965720$GBGSV,2,1,05,14,55,197,45,24,80,348,48,25,33,253,45,26,35,057,43*6E
###2023-12-09 12:36:49.967485$GBGSV,2,2,05,33,63,253,48,,,,,,,,,,,,*53
###2023-12-09 12:36:49.969034$GNVTG,83.03,T,,M,3.36,N,6.23,K,A*1A
###2023-12-09 12:36:49.971031$GNGST,173649.10,18.000,,,,0.080,0.071,0.160*58
###2023-12-09 12:36:49.972592$GNZDA,173649.10,09,12,2023,00,00*7E
###2023-12-09 12:36:49.973359$GNEBP,,,,,,M*13
###2023-12-09 12:36:50.135947$GNGGA,173649.30,4138.0483180,N,07032.3595136,W,1,23,0.7,13.140,M,-29.744,M,0.0,*53
###2023-12-09 12:36:50.337750$GNGGA,173649.50,4138.0483702,N,07032.3592676,W,1,23,0.7,13.162,M,-29.744,M,0.0,*5D
###2023-12-09 12:36:50.538337$GNGGA,173649.70,4138.0484233,N,07032.3590280,W,1,23,0.7,13.151,M,-29.744,M,0.0,*50
###2023-12-09 12:36:50.736879$GNGGA,173649.90,4138.0484645,N,07032.3587843,W,1,23,0.7,13.155,M,-29.744,M,0.0,*5C
###2023-12-09 12:36:50.938636$GNRMC,173650.10,A,4138.0484917,N,07032.3585293,W,3.48,81.66,091223,,,A*64
###2023-12-09 12:36:50.942078$GNGGA,173650.10,4138.0484917,N,07032.3585293,W,1,23,0.7,13.172,M,-29.744,M,0.0,*54
###2023-12-09 12:36:50.944372$GPGSA,A,3,03,04,16,26,28,29,31,32,,,,,1.2,0.7,1.0*31
###2023-12-09 12:36:50.946364$GLGSA,A,3,71,72,73,74,75,,,,,,,,1.2,0.7,1.0*2D
###2023-12-09 12:36:50.948349$GAGSA,A,3,04,19,21,27,,,,,,,,,1.2,0.7,1.0*2C
###2023-12-09 12:36:50.950335$GBGSA,A,3,14,24,25,26,33,,,,,,,,1.2,0.7,1.0*25
###2023-12-09 12:36:50.953146$GPGSV,2,1,08,03,38,276,44,04,22,311,41,16,37,207,46,26,67,207,48*73
###2023-12-09 12:36:50.955963$GPGSV,2,2,08,28,57,057,45,29,25,073,41,31,73,004,47,32,29,134,42*7C
###2023-12-09 12:36:50.958800$GLGSV,2,1,05,71,56,169,48,72,66,308,47,73,47,034,46,74,71,293,43*61
###2023-12-09 12:36:50.960557$GLGSV,2,2,05,75,22,241,43,,,,,,,,,,,,*52
###2023-12-09 12:36:50.963373$GAGSV,1,1,04,04,21,311,41,19,82,299,41,21,78,175,46,27,41,049,43*6F
###2023-12-09 12:36:50.966180$GBGSV,2,1,05,14,55,197,46,24,80,348,48,25,33,253,46,26,35,057,43*6E
###2023-12-09 12:36:50.967960$GBGSV,2,2,05,33,63,253,48,,,,,,,,,,,,*53
###2023-12-09 12:36:50.969521$GNVTG,81.66,T,,M,3.48,N,6.44,K,A*13
###2023-12-09 12:36:50.971526$GNGST,173650.10,18.000,,,,0.080,0.070,0.160*51
###2023-12-09 12:36:50.973085$GNZDA,173650.10,09,12,2023,00,00*76
###2023-12-09 12:36:50.973854$GNEBP,,,,,,M*13
###2023-12-09 12:36:51.137408$GNGGA,173650.30,4138.0485333,N,07032.3582807,W,1,23,0.7,13.174,M,-29.744,M,0.0,*5D
###2023-12-09 12:36:51.336724$GNGGA,173650.50,4138.0485874,N,07032.3580377,W,1,23,0.7,13.182,M,-29.744,M,0.0,*54
###2023-12-09 12:36:51.537395$GNGGA,173650.70,4138.0486424,N,07032.3577923,W,1,23,0.7,13.184,M,-29.744,M,0.0,*59
###2023-12-09 12:36:51.736479$GNGGA,173650.90,4138.0486938,N,07032.3575449,W,1,23,0.7,13.191,M,-29.744,M,0.0,*50
###2023-12-09 12:36:51.935953$GNRMC,173651.10,A,4138.0487526,N,07032.3572993,W,3.46,72.96,091223,,,A*66
###2023-12-09 12:36:51.938811$GNGGA,173651.10,4138.0487526,N,07032.3572993,W,1,23,0.7,13.201,M,-29.744,M,0.0,*5C
###2023-12-09 12:36:51.940675$GPGSA,A,3,03,04,16,26,28,29,31,32,,,,,1.2,0.7,1.0*31
###2023-12-09 12:36:51.942331$GLGSA,A,3,71,72,73,74,75,,,,,,,,1.2,0.7,1.0*2D
###2023-12-09 12:36:51.943928$GAGSA,A,3,04,19,21,27,,,,,,,,,1.2,0.7,1.0*2C
###2023-12-09 12:36:51.945572$GBGSA,A,3,14,24,25,26,33,,,,,,,,1.2,0.7,1.0*25
###2023-12-09 12:36:51.947934$GPGSV,2,1,08,03,38,276,44,04,22,311,42,16,37,207,45,26,67,207,48*73
###2023-12-09 12:36:51.950281$GPGSV,2,2,08,28,57,057,44,29,25,073,41,31,73,004,47,32,29,134,42*7D
###2023-12-09 12:36:51.952620$GLGSV,2,1,05,71,56,169,47,72,66,308,47,73,47,034,45,74,71,293,43*6D
###2023-12-09 12:36:51.954071$GLGSV,2,2,05,75,22,241,43,,,,,,,,,,,,*52
###2023-12-09 12:36:51.956428$GAGSV,1,1,04,04,21,311,41,19,82,299,40,21,78,175,46,27,41,049,42*6F
###2023-12-09 12:36:51.958792$GBGSV,2,1,05,14,55,197,45,24,80,348,48,25,33,253,45,26,35,057,44*69
###2023-12-09 12:36:51.960249$GBGSV,2,2,05,33,63,253,47,,,,,,,,,,,,*5C
###2023-12-09 12:36:51.961534$GNVTG,72.96,T,,M,3.46,N,6.41,K,A*1B
###2023-12-09 12:36:51.963193$GNGST,173651.10,18.000,,,,0.080,0.070,0.160*50
###2023-12-09 12:36:51.964484$GNZDA,173651.10,09,12,2023,00,00*77
###2023-12-09 12:36:51.965124$GNEBP,,,,,,M*13
###2023-12-09 12:36:52.135421$GNGGA,173651.30,4138.0488144,N,07032.3570555,W,1,23,0.7,13.197,M,-29.744,M,0.0,*59
###2023-12-09 12:36:52.336848$GNGGA,173651.50,4138.0488936,N,07032.3568225,W,1,23,0.7,13.194,M,-29.744,M,0.0,*58
###2023-12-09 12:36:52.538305$GNGGA,173651.70,4138.0489759,N,07032.3565965,W,1,23,0.7,13.197,M,-29.744,M,0.0,*5D
###2023-12-09 12:36:52.735083$GNGGA,173651.90,4138.0490572,N,07032.3563705,W,1,23,0.7,13.207,M,-29.744,M,0.0,*54
###2023-12-09 12:36:52.937597$GNRMC,173652.10,A,4138.0491343,N,07032.3561367,W,3.40,64.67,091223,,,A*6B
###2023-12-09 12:36:52.940535$GNGGA,173652.10,4138.0491343,N,07032.3561367,W,1,23,0.7,13.205,M,-29.744,M,0.0,*5A
###2023-12-09 12:36:52.942403$GPGSA,A,3,03,04,16,26,28,29,31,32,,,,,1.2,0.7,1.0*31
###2023-12-09 12:36:52.944069$GLGSA,A,3,71,72,73,74,75,,,,,,,,1.2,0.7,1.0*2D
###2023-12-09 12:36:52.945652$GAGSA,A,3,04,19,21,27,,,,,,,,,1.2,0.7,1.0*2C
###2023-12-09 12:36:52.947334$GBGSA,A,3,14,24,25,26,33,,,,,,,,1.2,0.7,1.0*25
###2023-12-09 12:36:52.949683$GPGSV,2,1,08,03,38,276,44,04,22,311,42,16,37,207,45,26,67,207,48*73
###2023-12-09 12:36:52.952034$GPGSV,2,2,08,28,57,057,45,29,25,073,40,31,73,004,46,32,29,134,44*7A
