###2023-12-09 13:01:43.363405$GNGGA,180142.50,4138.0457668,N,07032.2689623,W,1,24,0.6,13.301,M,-29.743,M,0.0,*57
###2023-12-09 13:01:43.570011$GNGGA,180142.70,4138.0456879,N,07032.2691720,W,1,24,0.6,13.314,M,-29.743,M,0.0,*55
###2023-12-09 13:01:43.763828$GNGGA,180142.90,4138.0456215,N,07032.2693900,W,1,24,0.6,13.319,M,-29.743,M,0.0,*58
###2023-12-09 13:01:43.965885$GNRMC,180143.10,A,4138.0455670,N,07032.2696164,W,3.15,254.35,091223,,,A*50
###2023-12-09 13:01:43.969376$GNGGA,180143.10,4138.0455670,N,07032.2696164,W,1,24,0.6,13.301,M,-29.743,M,0.0,*53
###2023-12-09 13:01:43.971645$GPGSA,A,3,03,04,16,26,28,29,31,32,,,,,1.1,0.6,0.9*3B
###2023-12-09 13:01:43.973710$GLGSA,A,3,65,71,72,73,74,75,,,,,,,1.1,0.6,0.9*24
###2023-12-09 13:01:43.975638$GAGSA,A,3,04,19,21,27,,,,,,,,,1.1,0.6,0.9*26
###2023-12-09 13:01:43.977615$GBGSA,A,3,14,24,25,26,33,,,,,,,,1.1,0.6,0.9*2F
###2023-12-09 13:01:43.980456$GPGSV,2,1,08,03,35,261,43,04,33,311,42,16,50,212,45,26,80,210,48*75
###2023-12-09 13:01:43.983289$GPGSV,2,2,08,28,49,070,45,29,25,061,42,31,69,038,47,32,19,140,42*72
###2023-12-09 13:01:43.986099$GLGSV,2,1,06,65,24,327,41,71,41,173,46,72,73,269,45,73,36,041,46*69
###2023-12-09 13:01:43.988213$GLGSV,2,2,06,74,70,337,43,75,32,253,43,,,,,,,,*67
###2023-12-09 13:01:43.991018$GAGSV,1,1,04,04,29,312,40,19,84,216,40,21,86,120,46,27,33,048,43*60
###2023-12-09 13:01:43.993824$GBGSV,2,1,05,14,43,193,46,24,74,024,49,25,41,262,44,26,26,063,43*6E
###2023-12-09 13:01:43.995587$GBGSV,2,2,05,33,57,233,47,,,,,,,,,,,,*5D
###2023-12-09 13:01:43.997187$GNVTG,254.35,T,,M,3.15,N,5.83,K,A*2F
###2023-12-09 13:01:43.999212$GNGST,180143.10,18.000,,,,0.079,0.068,0.160*57
###2023-12-09 13:01:44.000775$GNZDA,180143.10,09,12,2023,00,00*7F
###2023-12-09 13:01:44.001545$GNEBP,,,,,,M*13
###2023-12-09 13:01:44.163070$GNGGA,180143.30,4138.0455219,N,07032.2698418,W,1,24,0.6,13.288,M,-29.743,M,0.0,*5A
###2023-12-09 13:01:44.363317$GNGGA,180143.50,4138.0454782,N,07032.2700658,W,1,24,0.6,13.291,M,-29.743,M,0.0,*54
###2023-12-09 13:01:44.563606$GNGGA,180143.70,4138.0454264,N,07032.2702883,W,1,24,0.6,13.269,M,-29.743,M,0.0,*56
###2023-12-09 13:01:44.763850$GNGGA,180143.90,4138.0453816,N,07032.2705067,W,1,24,0.6,13.256,M,-29.743,M,0.0,*59
###2023-12-09 13:01:44.973860$GNRMC,180144.10,A,4138.0453627,N,07032.2707301,W,3.05,268.20,091223,,,A*51
###2023-12-09 13:01:44.977348$GNGGA,180144.10,4138.0453627,N,07032.2707301,W,1,24,0.6,13.272,M,-29.743,M,0.0,*5D
###2023-12-09 13:01:44.979599$GPGSA,A,3,03,04,16,26,28,29,31,32,,,,,1.1,0.6,0.9*3B
###2023-12-09 13:01:44.981659$GLGSA,A,3,65,71,72,73,74,75,,,,,,,1.1,0.6,0.9*24
###2023-12-09 13:01:44.983586$GAGSA,A,3,04,19,21,27,,,,,,,,,1.1,0.6,0.9*26
###2023-12-09 13:01:44.985576$GBGSA,A,3,14,24,25,26,33,,,,,,,,1.1,0.6,0.9*2F
###2023-12-09 13:01:44.988398$GPGSV,2,1,08,03,35,261,44,04,33,311,42,16,50,212,48,26,80,210,49*7E
###2023-12-09 13:01:44.991267$GPGSV,2,2,08,28,49,070,46,29,25,061,43,31,69,038,48,32,19,140,45*78
###2023-12-09 13:01:44.994084$GLGSV,2,1,06,65,24,327,40,71,41,173,47,72,73,269,46,73,36,041,45*69
###2023-12-09 13:01:44.996209$GLGSV,2,2,06,74,70,337,43,75,32,253,42,,,,,,,,*66
###2023-12-09 13:01:44.999037$GAGSV,1,1,04,04,29,312,40,19,84,216,40,21,86,120,47,27,33,048,43*61
###2023-12-09 13:01:45.001858$GBGSV,2,1,05,14,43,193,44,24,74,024,49,25,41,262,45,26,26,063,43*6D
###2023-12-09 13:01:45.003636$GBGSV,2,2,05,33,57,233,47,,,,,,,,,,,,*5D
###2023-12-09 13:01:45.005229$GNVTG,268.20,T,,M,3.05,N,5.65,K,A*2D
###2023-12-09 13:01:45.007228$GNGST,180144.10,18.000,,,,0.079,0.067,0.160*5F
###2023-12-09 13:01:45.008788$GNZDA,180144.10,09,12,2023,00,00*78
###2023-12-09 13:01:45.009556$GNEBP,,,,,,M*13
###2023-12-09 13:01:45.166019$GNGGA,180144.30,4138.0453510,N,07032.2709522,W,1,24,0.6,13.287,M,-29.743,M,0.0,*5B
###2023-12-09 13:01:45.364106$GNGGA,180144.50,4138.0453246,N,07032.2711640,W,1,24,0.6,13.261,M,-29.743,M,0.0,*5F
###2023-12-09 13:01:45.564816$GNGGA,180144.70,4138.0452882,N,07032.2713785,W,1,24,0.6,13.226,M,-29.743,M,0.0,*57
###2023-12-09 13:01:45.765391$GNGGA,180144.90,4138.0452763,N,07032.2715995,W,1,24,0.6,13.228,M,-29.743,M,0.0,*5E
###2023-12-09 13:01:45.971152$GNRMC,180145.10,A,4138.0453072,N,07032.2718245,W,3.23,283.48,091223,,,A*56
###2023-12-09 13:01:45.974628$GNGGA,180145.10,4138.0453072,N,07032.2718245,W,1,24,0.6,13.270,M,-29.743,M,0.0,*57
###2023-12-09 13:01:45.976868$GPGSA,A,3,03,04,16,26,28,29,31,32,,,,,1.1,0.6,0.9*3B
###2023-12-09 13:01:45.978945$GLGSA,A,3,65,71,72,73,74,75,,,,,,,1.1,0.6,0.9*24
###2023-12-09 13:01:45.980853$GAGSA,A,3,04,19,21,27,,,,,,,,,1.1,0.6,0.9*26
###2023-12-09 13:01:45.982875$GBGSA,A,3,14,24,25,26,33,,,,,,,,1.1,0.6,0.9*2F
###2023-12-09 13:01:45.985688$GPGSV,2,1,08,03,35,261,44,04,33,311,43,16,50,212,47,26,80,210,49*70
###2023-12-09 13:01:45.988519$GPGSV,2,2,08,28,49,070,45,29,25,061,41,31,69,038,48,32,19,140,44*78
###2023-12-09 13:01:45.991329$GLGSV,2,1,06,65,24,327,40,71,41,173,47,72,73,269,46,73,36,041,46*6A
###2023-12-09 13:01:45.993426$GLGSV,2,2,06,74,70,337,42,75,32,253,42,,,,,,,,*67
###2023-12-09 13:01:45.996230$GAGSV,1,1,04,04,29,312,40,19,84,216,40,21,86,120,46,27,33,048,42*61
###2023-12-09 13:01:45.999079$GBGSV,2,1,05,14,43,193,45,24,74,024,49,25,41,262,43,26,26,063,41*68
###2023-12-09 13:01:46.000830$GBGSV,2,2,05,33,57,233,48,,,,,,,,,,,,*52
###2023-12-09 13:01:46.002420$GNVTG,283.48,T,,M,3.23,N,5.98,K,A*20
###2023-12-09 13:01:46.004421$GNGST,180145.10,18.000,,,,0.079,0.067,0.160*5E
###2023-12-09 13:01:46.005973$GNZDA,180145.10,09,12,2023,00,00*79
###2023-12-09 13:01:46.006757$GNEBP,,,,,,M*13
###2023-12-09 13:01:46.163532$GNGGA,180145.30,4138.0453219,N,07032.2720546,W,1,24,0.6,13.276,M,-29.743,M,0.0,*53
###2023-12-09 13:01:46.363543$GNGGA,180145.50,4138.0452911,N,07032.2722718,W,1,24,0.6,13.245,M,-29.743,M,0.0,*5C
###2023-12-09 13:01:46.564216$GNGGA,180145.70,4138.0452670,N,07032.2724908,W,1,24,0.6,13.225,M,-29.743,M,0.0,*59
###2023-12-09 13:01:46.771595$GNGGA,180145.90,4138.0452796,N,07032.2727213,W,1,24,0.6,13.242,M,-29.743,M,0.0,*5D
###2023-12-09 13:01:46.966493$GNRMC,180146.10,A,4138.0452834,N,07032.2729494,W,2.97,264.95,091223,,,A*51
###2023-12-09 13:01:46.969366$GNGGA,180146.10,4138.0452834,N,07032.2729494,W,1,24,0.6,13.244,M,-29.743,M,0.0,*50
###2023-12-09 13:01:46.971232$GPGSA,A,3,03,04,16,26,28,29,31,32,,,,,1.1,0.6,0.9*3B
###2023-12-09 13:01:46.972944$GLGSA,A,3,65,71,72,73,74,75,,,,,,,1.1,0.6,0.9*24
###2023-12-09 13:01:46.974522$GAGSA,A,3,04,19,21,27,,,,,,,,,1.1,0.6,0.9*26
###2023-12-09 13:01:46.976174$GBGSA,A,3,14,24,25,26,33,,,,,,,,1.1,0.6,0.9*2F
###2023-12-09 13:01:46.978487$GPGSV,2,1,08,03,35,261,43,04,33,311,42,16,50,212,47,26,80,210,48*77
###2023-12-09 13:01:46.980817$GPGSV,2,2,08,28,49,070,46,29,25,061,43,31,69,038,48,32,19,140,44*79
###2023-12-09 13:01:46.983148$GLGSV,2,1,06,65,24,327,43,71,41,173,47,72,73,269,46,73,36,041,46*69
###2023-12-09 13:01:46.984890$GLGSV,2,2,06,74,70,337,43,75,32,253,43,,,,,,,,*67
###2023-12-09 13:01:46.987216$GAGSV,1,1,04,04,29,312,41,19,84,216,40,21,86,120,46,27,33,048,42*60
###2023-12-09 13:01:46.989534$GBGSV,2,1,05,14,43,193,43,24,74,024,47,25,41,262,42,26,26,063,40*60
###2023-12-09 13:01:46.990999$GBGSV,2,2,05,33,57,233,46,,,,,,,,,,,,*5C
###2023-12-09 13:01:46.992318$GNVTG,264.95,T,,M,2.97,N,5.51,K,A*22
###2023-12-09 13:01:46.993955$GNGST,180146.10,18.000,,,,0.079,0.067,0.160*5D
###2023-12-09 13:01:46.995254$GNZDA,180146.10,09,12,2023,00,00*7A
###2023-12-09 13:01:46.995888$GNEBP,,,,,,M*13
###2023-12-09 13:01:47.164188$GNGGA,180146.30,4138.0452549,N,07032.2731596,W,1,24,0.6,13.253,M,-29.743,M,0.0,*59
###2023-12-09 13:01:47.363860$GNGGA,180146.50,4138.0452261,N,07032.2733686,W,1,24,0.6,13.266,M,-29.743,M,0.0,*54
###2023-12-09 13:01:47.565226$GNGGA,180146.70,4138.0452112,N,07032.2735898,W,1,24,0.6,13.263,M,-29.743,M,0.0,*53
###2023-12-09 13:01:47.764349$GNGGA,180146.90,4138.0451917,N,07032.2738093,W,1,24,0.6,13.258,M,-29.743,M,0.0,*55
###2023-12-09 13:01:47.967906$GNRMC,180147.10,A,4138.0451583,N,07032.2740256,W,2.95,253.40,091223,,,A*5B
###2023-12-09 13:01:47.970772$GNGGA,180147.10,4138.0451583,N,07032.2740256,W,1,24,0.6,13.252,M,-29.743,M,0.0,*53
###2023-12-09 13:01:47.972618$GPGSA,A,3,03,04,16,26,28,29,31,32,,,,,1.1,0.6,0.9*3B
###2023-12-09 13:01:47.974574$GLGSA,A,3,65,71,72,73,74,75,,,,,,,1.1,0.6,0.9*24
###2023-12-09 13:01:47.976167$GAGSA,A,3,04,19,21,27,,,,,,,,,1.1,0.6,0.9*26
###2023-12-09 13:01:47.977812$GBGSA,A,3,14,24,25,26,33,,,,,,,,1.1,0.6,0.9*2F
###2023-12-09 13:01:47.980153$GPGSV,2,1,08,03,35,261,42,04,33,311,42,16,50,212,46,26,80,210,48*77
###2023-12-09 13:01:47.982475$GPGSV,2,2,08,28,49,070,46,29,25,061,42,31,69,038,48,32,19,140,43*7F
###2023-12-09 13:01:47.984801$GLGSV,2,1,06,65,24,327,42,71,41,173,45,72,73,269,45,73,36,041,46*69
###2023-12-09 13:01:47.986541$GLGSV,2,2,06,74,70,337,43,75,32,253,44,,,,,,,,*60
###2023-12-09 13:01:47.988861$GAGSV,1,1,04,04,29,312,40,19,84,216,40,21,86,120,46,27,33,048,43*60
###2023-12-09 13:01:47.991193$GBGSV,2,1,05,14,43,193,45,24,74,024,49,25,41,262,44,26,26,063,42*6C
###2023-12-09 13:01:47.992648$GBGSV,2,2,05,33,57,233,47,,,,,,,,,,,,*5D
