###2023-12-09 13:25:08.020433$GNVTG,147.10,T,,M,3.54,N,6.55,K,A*24
###2023-12-09 13:25:08.022099$GNGST,182507.10,18.000,,,,0.099,0.068,0.160*5F
###2023-12-09 13:25:08.023426$GNZDA,182507.10,09,12,2023,00,00*79
###2023-12-09 13:25:08.024072$GNEBP,,,,,,M*13
###2023-12-09 13:25:08.189591$GNGGA,182507.30,4138.0381107,N,07032.3561115,W,1,24,0.6,13.259,M,-29.744,M,0.0,*59
###2023-12-09 13:25:08.389651$GNGGA,182507.50,4138.0379458,N,07032.3559569,W,1,24,0.6,13.261,M,-29.744,M,0.0,*58
###2023-12-09 13:25:08.589151$GNGGA,182507.70,4138.0377798,N,07032.3558158,W,1,24,0.6,13.260,M,-29.745,M,0.0,*5C
###2023-12-09 13:25:08.789031$GNGGA,182507.90,4138.0376068,N,07032.3556855,W,1,24,0.6,13.265,M,-29.745,M,0.0,*54
###2023-12-09 13:25:09.004653$GNRMC,182508.10,A,4138.0374416,N,07032.3555412,W,3.42,146.79,091223,,,A*5C
###2023-12-09 13:25:09.007544$GNGGA,182508.10,4138.0374416,N,07032.3555412,W,1,24,0.6,13.253,M,-29.745,M,0.0,*55
###2023-12-09 13:25:09.009335$GPGSA,A,3,03,04,16,26,28,29,31,,,,,,1.1,0.6,0.9*3A
###2023-12-09 13:25:09.011062$GLGSA,A,3,65,71,72,73,74,75,,,,,,,1.1,0.6,0.9*24
###2023-12-09 13:25:09.012643$GAGSA,A,3,04,19,21,27,,,,,,,,,1.1,0.6,0.9*26
###2023-12-09 13:25:09.014349$GBGSA,A,3,14,24,25,26,33,35,,,,,,,1.1,0.6,0.9*29
###2023-12-09 13:25:09.016683$GPGSV,2,1,07,03,29,250,43,04,43,309,45,16,61,218,47,26,89,050,49*78
###2023-12-09 13:25:09.018732$GPGSV,2,2,07,28,41,080,45,29,22,051,45,31,63,058,48,,,,*40
###2023-12-09 13:25:09.021058$GLGSV,2,1,06,65,34,322,45,71,27,175,42,72,67,229,47,73,26,049,44*63
###2023-12-09 13:25:09.022807$GLGSV,2,2,06,74,63,006,43,75,40,266,47,,,,,,,,*63
###2023-12-09 13:25:09.025121$GAGSV,1,1,04,04,37,311,45,19,76,185,41,21,80,051,47,27,26,049,44*6E
###2023-12-09 13:25:09.027456$GBGSV,2,1,06,14,33,190,42,24,66,041,49,25,48,272,47,26,19,068,44*66
###2023-12-09 13:25:09.029203$GBGSV,2,2,06,33,49,220,47,35,16,060,45,,,,,,,,*65
###2023-12-09 13:25:09.030521$GNVTG,146.79,T,,M,3.42,N,6.34,K,A*2A
###2023-12-09 13:25:09.032177$GNGST,182508.10,18.000,,,,0.099,0.068,0.160*50
###2023-12-09 13:25:09.033469$GNZDA,182508.10,09,12,2023,00,00*76
###2023-12-09 13:25:09.034107$GNEBP,,,,,,M*13
###2023-12-09 13:25:09.196638$GNGGA,182508.30,4138.0372759,N,07032.3554106,W,1,24,0.6,13.262,M,-29.745,M,0.0,*5A
###2023-12-09 13:25:09.390358$GNGGA,182508.50,4138.0370983,N,07032.3552869,W,1,24,0.6,13.271,M,-29.745,M,0.0,*53
###2023-12-09 13:25:09.591674$GNGGA,182508.70,4138.0369332,N,07032.3551610,W,1,24,0.6,13.258,M,-29.745,M,0.0,*51
###2023-12-09 13:25:09.790483$GNGGA,182508.90,4138.0367654,N,07032.3550314,W,1,24,0.6,13.266,M,-29.745,M,0.0,*59
###2023-12-09 13:25:09.990197$GNRMC,182509.10,A,4138.0365963,N,07032.3549030,W,3.48,150.13,091223,,,A*5A
###2023-12-09 13:25:09.993092$GNGGA,182509.10,4138.0365963,N,07032.3549030,W,1,24,0.6,13.255,M,-29.745,M,0.0,*54
###2023-12-09 13:25:09.994899$GPGSA,A,3,03,04,16,26,28,29,31,,,,,,1.1,0.6,0.9*3A
###2023-12-09 13:25:09.996613$GLGSA,A,3,65,71,72,73,74,75,,,,,,,1.1,0.6,0.9*24
###2023-12-09 13:25:09.998197$GAGSA,A,3,04,19,21,27,,,,,,,,,1.1,0.6,0.9*26
###2023-12-09 13:25:09.999924$GBGSA,A,3,14,24,25,26,33,35,,,,,,,1.1,0.6,0.9*29
###2023-12-09 13:25:10.002259$GPGSV,2,1,07,03,29,250,43,04,43,309,46,16,61,218,47,26,89,050,49*7B
###2023-12-09 13:25:10.004322$GPGSV,2,2,07,28,41,080,46,29,22,051,45,31,63,058,48,,,,*43
###2023-12-09 13:25:10.006679$GLGSV,2,1,06,65,34,322,44,71,27,175,42,72,67,229,46,73,26,049,44*63
###2023-12-09 13:25:10.008426$GLGSV,2,2,06,74,63,006,43,75,40,266,47,,,,,,,,*63
###2023-12-09 13:25:10.010763$GAGSV,1,1,04,04,37,311,44,19,76,185,41,21,80,051,47,27,26,049,43*68
###2023-12-09 13:25:10.013093$GBGSV,2,1,06,14,33,190,42,24,66,041,48,25,48,272,46,26,19,068,45*67
###2023-12-09 13:25:10.014857$GBGSV,2,2,06,33,49,220,47,35,16,060,45,,,,,,,,*65
###2023-12-09 13:25:10.016185$GNVTG,150.13,T,,M,3.48,N,6.44,K,A*2C
###2023-12-09 13:25:10.017831$GNGST,182509.10,18.000,,,,0.099,0.067,0.160*5E
###2023-12-09 13:25:10.019166$GNZDA,182509.10,09,12,2023,00,00*77
###2023-12-09 13:25:10.019811$GNEBP,,,,,,M*13
###2023-12-09 13:25:10.191162$GNGGA,182509.30,4138.0364297,N,07032.3547763,W,1,24,0.6,13.261,M,-29.745,M,0.0,*5F
###2023-12-09 13:25:10.387667$GNGGA,182509.50,4138.0362602,N,07032.3546485,W,1,24,0.6,13.266,M,-29.745,M,0.0,*5A
###2023-12-09 13:25:10.587089$GNGGA,182509.70,4138.0360967,N,07032.3545129,W,1,24,0.6,13.260,M,-29.745,M,0.0,*50
###2023-12-09 13:25:10.789051$GNGGA,182509.90,4138.0359345,N,07032.3543690,W,1,24,0.6,13.263,M,-29.745,M,0.0,*5E
###2023-12-09 13:25:10.993985$GNRMC,182510.10,A,4138.0357686,N,07032.3542248,W,3.62,147.51,091223,,,A*59
###2023-12-09 13:25:10.996864$GNGGA,182510.10,4138.0357686,N,07032.3542248,W,1,24,0.6,13.255,M,-29.745,M,0.0,*5F
###2023-12-09 13:25:10.998673$GPGSA,A,3,03,04,16,26,28,29,31,,,,,,1.1,0.6,0.9*3A
###2023-12-09 13:25:11.000388$GLGSA,A,3,65,71,72,73,74,75,,,,,,,1.1,0.6,0.9*24
###2023-12-09 13:25:11.001963$GAGSA,A,3,04,19,21,27,,,,,,,,,1.1,0.6,0.9*26
###2023-12-09 13:25:11.003686$GBGSA,A,3,14,24,25,26,33,35,,,,,,,1.1,0.6,0.9*29
###2023-12-09 13:25:11.006006$GPGSV,2,1,07,03,29,250,43,04,43,309,46,16,61,218,46,26,89,050,49*7A
###2023-12-09 13:25:11.008049$GPGSV,2,2,07,28,41,080,46,29,22,051,45,31,63,058,48,,,,*43
###2023-12-09 13:25:11.010404$GLGSV,2,1,06,65,34,322,45,71,27,175,42,72,67,229,46,73,26,049,45*63
###2023-12-09 13:25:11.012168$GLGSV,2,2,06,74,63,006,43,75,40,266,46,,,,,,,,*62
###2023-12-09 13:25:11.014488$GAGSV,1,1,04,04,37,311,45,19,76,185,41,21,80,051,47,27,26,049,42*68
###2023-12-09 13:25:11.016828$GBGSV,2,1,06,14,33,190,41,24,66,041,48,25,48,272,46,26,19,068,44*65
###2023-12-09 13:25:11.018608$GBGSV,2,2,06,33,49,220,47,35,16,060,44,,,,,,,,*64
###2023-12-09 13:25:11.019930$GNVTG,147.51,T,,M,3.62,N,6.70,K,A*23
###2023-12-09 13:25:11.021570$GNGST,182510.10,18.000,,,,0.099,0.067,0.160*56
###2023-12-09 13:25:11.022866$GNZDA,182510.10,09,12,2023,00,00*7F
###2023-12-09 13:25:11.023502$GNEBP,,,,,,M*13
###2023-12-09 13:25:11.188042$GNGGA,182510.30,4138.0356020,N,07032.3540906,W,1,24,0.6,13.260,M,-29.745,M,0.0,*53
###2023-12-09 13:25:11.387337$GNGGA,182510.50,4138.0354352,N,07032.3539468,W,1,24,0.6,13.270,M,-29.745,M,0.0,*5B
###2023-12-09 13:25:11.591361$GNGGA,182510.70,4138.0352766,N,07032.3537911,W,1,24,0.6,13.243,M,-29.745,M,0.0,*51
###2023-12-09 13:25:11.788381$GNGGA,182510.90,4138.0351137,N,07032.3536519,W,1,24,0.6,13.257,M,-29.745,M,0.0,*5E
###2023-12-09 13:25:11.992360$GNRMC,182511.10,A,4138.0349422,N,07032.3535095,W,3.71,146.95,091223,,,A*52
###2023-12-09 13:25:11.995259$GNGGA,182511.10,4138.0349422,N,07032.3535095,W,1,24,0.6,13.268,M,-29.745,M,0.0,*51
###2023-12-09 13:25:11.997059$GPGSA,A,3,03,04,16,26,28,29,31,,,,,,1.1,0.6,0.9*3A
###2023-12-09 13:25:11.998797$GLGSA,A,3,65,71,72,73,74,75,,,,,,,1.1,0.6,0.9*24
###2023-12-09 13:25:12.000387$GAGSA,A,3,04,19,21,27,,,,,,,,,1.1,0.6,0.9*26
###2023-12-09 13:25:12.002102$GBGSA,A,3,14,24,25,26,33,35,,,,,,,1.1,0.6,0.9*29
###2023-12-09 13:25:12.004449$GPGSV,2,1,07,03,29,250,44,04,43,309,44,16,61,218,46,26,89,050,48*7E
###2023-12-09 13:25:12.006505$GPGSV,2,2,07,28,41,080,45,29,22,051,44,31,63,058,47,,,,*4E
###2023-12-09 13:25:12.008857$GLGSV,2,1,06,65,34,322,45,71,27,175,41,72,67,229,46,73,26,049,45*60
###2023-12-09 13:25:12.010621$GLGSV,2,2,06,74,63,006,43,75,40,266,46,,,,,,,,*62
###2023-12-09 13:25:12.012946$GAGSV,1,1,04,04,37,311,44,19,76,185,40,21,80,051,47,27,26,049,43*69
###2023-12-09 13:25:12.015281$GBGSV,2,1,06,14,33,190,42,24,66,041,49,25,48,272,46,26,19,068,43*60
###2023-12-09 13:25:12.017021$GBGSV,2,2,06,33,49,220,47,35,16,060,43,,,,,,,,*63
###2023-12-09 13:25:12.018345$GNVTG,146.95,T,,M,3.71,N,6.88,K,A*2F
###2023-12-09 13:25:12.020070$GNGST,182511.10,18.000,,,,0.098,0.067,0.160*56
###2023-12-09 13:25:12.021373$GNZDA,182511.10,09,12,2023,00,00*7E
###2023-12-09 13:25:12.022011$GNEBP,,,,,,M*13
###2023-12-09 13:25:12.189099$GNGGA,182511.30,4138.0347757,N,07032.3533596,W,1,24,0.6,13.248,M,-29.745,M,0.0,*5E
###2023-12-09 13:25:12.387391$GNGGA,182511.50,4138.0346190,N,07032.3532033,W,1,24,0.6,13.248,M,-29.745,M,0.0,*5F
###2023-12-09 13:25:12.588125$GNGGA,182511.70,4138.0344512,N,07032.3530576,W,1,24,0.6,13.272,M,-29.745,M,0.0,*5E
###2023-12-09 13:25:12.788898$GNGGA,182511.90,4138.0342801,N,07032.3529154,W,1,24,0.6,13.260,M,-29.745,M,0.0,*56
###2023-12-09 13:25:12.995484$GNRMC,182512.10,A,4138.0341200,N,07032.3527658,W,3.54,143.92,091223,,,A*5E
###2023-12-09 13:25:12.998349$GNGGA,182512.10,4138.0341200,N,07032.3527658,W,1,24,0.6,13.252,M,-29.745,M,0.0,*51
###2023-12-09 13:25:13.000155$GPGSA,A,3,03,04,16,26,28,29,31,,,,,,1.1,0.6,0.9*3A
###2023-12-09 13:25:13.001871$GLGSA,A,3,65,71,72,73,74,75,,,,,,,1.1,0.6,0.9*24
###2023-12-09 13:25:13.003466$GAGSA,A,3,04,19,21,27,,,,,,,,,1.1,0.6,0.9*26
###2023-12-09 13:25:13.005181$GBGSA,A,3,14,24,25,26,33,35,,,,,,,1.1,0.6,0.9*29
###2023-12-09 13:25:13.007510$GPGSV,2,1,07,03,29,250,42,04,43,309,44,16,61,218,45,26,89,050,48*7B
###2023-12-09 13:25:13.009548$GPGSV,2,2,07,28,41,080,44,29,22,051,44,31,63,058,47,,,,*4F
