###2023-12-09 13:01:04.998463$GNEBP,,,,,,M*13
###2023-12-09 13:01:05.165135$GNGGA,180104.30,4138.0389420,N,07032.2719368,W,1,24,0.6,13.398,M,-29.743,M,0.0,*5B
###2023-12-09 13:01:05.366928$GNGGA,180104.50,4138.0390239,N,07032.2717042,W,1,24,0.6,13.369,M,-29.743,M,0.0,*50
###2023-12-09 13:01:05.567011$GNGGA,180104.70,4138.0391341,N,07032.2714963,W,1,24,0.6,13.382,M,-29.743,M,0.0,*51
###2023-12-09 13:01:05.767662$GNGGA,180104.90,4138.0392465,N,07032.2712867,W,1,24,0.6,13.379,M,-29.743,M,0.0,*5A
###2023-12-09 13:01:05.969010$GNRMC,180105.10,A,4138.0393327,N,07032.2710624,W,3.40,64.96,091223,,,A*6C
###2023-12-09 13:01:05.972494$GNGGA,180105.10,4138.0393327,N,07032.2710624,W,1,24,0.6,13.374,M,-29.743,M,0.0,*55
###2023-12-09 13:01:05.974759$GPGSA,A,3,03,04,16,26,28,29,31,32,,,,,1.1,0.6,0.9*3B
###2023-12-09 13:01:05.976837$GLGSA,A,3,65,71,72,73,74,75,,,,,,,1.1,0.6,0.9*24
###2023-12-09 13:01:05.978771$GAGSA,A,3,04,19,21,27,,,,,,,,,1.1,0.6,0.9*26
###2023-12-09 13:01:05.980771$GBGSA,A,3,14,24,25,26,33,,,,,,,,1.1,0.6,0.9*2F
###2023-12-09 13:01:05.983594$GPGSV,2,1,08,03,35,261,45,04,32,311,43,16,49,212,46,26,79,210,49*7F
###2023-12-09 13:01:05.986409$GPGSV,2,2,08,28,49,070,42,29,25,061,41,31,69,036,47,32,19,140,41*7B
###2023-12-09 13:01:05.989233$GLGSV,2,1,06,65,24,327,43,71,41,173,47,72,73,269,46,73,36,041,42*6D
###2023-12-09 13:01:05.991355$GLGSV,2,2,06,74,70,337,42,75,32,253,46,,,,,,,,*63
###2023-12-09 13:01:05.994162$GAGSV,1,1,04,04,29,312,43,19,84,216,41,21,86,120,46,27,33,048,41*60
###2023-12-09 13:01:05.997022$GBGSV,2,1,05,14,43,193,45,24,74,024,49,25,41,262,46,26,26,063,43*6F
###2023-12-09 13:01:05.998802$GBGSV,2,2,05,33,57,233,48,,,,,,,,,,,,*52
###2023-12-09 13:01:06.000348$GNVTG,64.96,T,,M,3.40,N,6.30,K,A*1C
###2023-12-09 13:01:06.002339$GNGST,180105.10,18.000,,,,0.078,0.066,0.160*5A
###2023-12-09 13:01:06.003916$GNZDA,180105.10,09,12,2023,00,00*7D
###2023-12-09 13:01:06.004701$GNEBP,,,,,,M*13
###2023-12-09 13:01:06.165711$GNGGA,180105.30,4138.0394177,N,07032.2708345,W,1,24,0.6,13.386,M,-29.743,M,0.0,*51
###2023-12-09 13:01:06.367128$GNGGA,180105.50,4138.0395076,N,07032.2706116,W,1,24,0.6,13.380,M,-29.743,M,0.0,*5A
###2023-12-09 13:01:06.566860$GNGGA,180105.70,4138.0395936,N,07032.2703873,W,1,24,0.6,13.376,M,-29.743,M,0.0,*53
###2023-12-09 13:01:06.765379$GNGGA,180105.90,4138.0396645,N,07032.2701473,W,1,24,0.6,13.371,M,-29.743,M,0.0,*5C
###2023-12-09 13:01:06.970299$GNRMC,180106.10,A,4138.0397371,N,07032.2699168,W,3.40,65.12,091223,,,A*6A
###2023-12-09 13:01:06.973165$GNGGA,180106.10,4138.0397371,N,07032.2699168,W,1,24,0.6,13.377,M,-29.743,M,0.0,*5D
###2023-12-09 13:01:06.975031$GPGSA,A,3,03,04,16,26,28,29,31,32,,,,,1.1,0.6,0.9*3B
###2023-12-09 13:01:06.976737$GLGSA,A,3,65,71,72,73,74,75,,,,,,,1.1,0.6,0.9*24
###2023-12-09 13:01:06.978314$GAGSA,A,3,04,19,21,27,,,,,,,,,1.1,0.6,0.9*26
###2023-12-09 13:01:06.979972$GBGSA,A,3,14,24,25,26,33,,,,,,,,1.1,0.6,0.9*2F
###2023-12-09 13:01:06.982294$GPGSV,2,1,08,03,35,261,45,04,33,311,41,16,49,212,46,26,79,210,48*7D
###2023-12-09 13:01:06.984636$GPGSV,2,2,08,28,49,070,42,29,25,061,41,31,69,036,46,32,19,140,41*7A
###2023-12-09 13:01:06.986967$GLGSV,2,1,06,65,24,327,43,71,41,173,47,72,73,269,47,73,36,041,43*6D
###2023-12-09 13:01:06.988709$GLGSV,2,2,06,74,70,337,43,75,32,253,47,,,,,,,,*63
###2023-12-09 13:01:06.991042$GAGSV,1,1,04,04,29,312,41,19,84,216,40,21,86,120,45,27,33,048,39*6F
###2023-12-09 13:01:06.993360$GBGSV,2,1,05,14,43,193,45,24,74,024,48,25,41,262,46,26,26,063,42*6F
###2023-12-09 13:01:06.994828$GBGSV,2,2,05,33,57,233,47,,,,,,,,,,,,*5D
###2023-12-09 13:01:06.996114$GNVTG,65.12,T,,M,3.40,N,6.30,K,A*11
###2023-12-09 13:01:06.997754$GNGST,180106.10,18.000,,,,0.078,0.066,0.160*59
###2023-12-09 13:01:06.999050$GNZDA,180106.10,09,12,2023,00,00*7E
###2023-12-09 13:01:06.999685$GNEBP,,,,,,M*13
###2023-12-09 13:01:07.165025$GNGGA,180106.30,4138.0398098,N,07032.2696754,W,1,24,0.6,13.381,M,-29.743,M,0.0,*5B
###2023-12-09 13:01:07.364673$GNGGA,180106.50,4138.0398689,N,07032.2694233,W,1,24,0.6,13.354,M,-29.743,M,0.0,*55
###2023-12-09 13:01:07.564991$GNGGA,180106.70,4138.0399476,N,07032.2691928,W,1,24,0.6,13.353,M,-29.743,M,0.0,*57
###2023-12-09 13:01:07.766956$GNGGA,180106.90,4138.0400404,N,07032.2689639,W,1,24,0.6,13.374,M,-29.743,M,0.0,*58
###2023-12-09 13:01:07.968150$GNRMC,180107.10,A,4138.0401162,N,07032.2687262,W,3.44,66.80,091223,,,A*69
###2023-12-09 13:01:07.971010$GNGGA,180107.10,4138.0401162,N,07032.2687262,W,1,24,0.6,13.363,M,-29.743,M,0.0,*57
###2023-12-09 13:01:07.972861$GPGSA,A,3,03,04,16,26,28,29,31,32,,,,,1.1,0.6,0.9*3B
###2023-12-09 13:01:07.974582$GLGSA,A,3,65,71,72,73,74,75,,,,,,,1.1,0.6,0.9*24
###2023-12-09 13:01:07.976165$GAGSA,A,3,04,19,21,27,,,,,,,,,1.1,0.6,0.9*26
###2023-12-09 13:01:07.977802$GBGSA,A,3,14,24,25,26,33,,,,,,,,1.1,0.6,0.9*2F
###2023-12-09 13:01:07.980128$GPGSV,2,1,08,03,35,261,44,04,33,311,44,16,49,212,46,26,79,210,49*78
###2023-12-09 13:01:07.982457$GPGSV,2,2,08,28,49,070,42,29,25,061,41,31,69,036,47,32,19,140,42*78
###2023-12-09 13:01:07.984796$GLGSV,2,1,06,65,24,327,43,71,41,173,47,72,73,269,46,73,36,041,41*6E
###2023-12-09 13:01:07.986534$GLGSV,2,2,06,74,70,337,43,75,32,253,46,,,,,,,,*62
###2023-12-09 13:01:07.988873$GAGSV,1,1,04,04,29,312,43,19,84,216,41,21,86,120,46,27,33,048,41*60
###2023-12-09 13:01:07.991214$GBGSV,2,1,05,14,43,193,46,24,74,024,48,25,41,262,46,26,26,063,43*6D
###2023-12-09 13:01:07.992671$GBGSV,2,2,05,33,57,233,48,,,,,,,,,,,,*52
###2023-12-09 13:01:07.993958$GNVTG,66.80,T,,M,3.44,N,6.37,K,A*1A
###2023-12-09 13:01:07.995612$GNGST,180107.10,18.000,,,,0.079,0.067,0.160*58
###2023-12-09 13:01:07.996902$GNZDA,180107.10,09,12,2023,00,00*7F
###2023-12-09 13:01:07.997537$GNEBP,,,,,,M*13
###2023-12-09 13:01:08.164919$GNGGA,180107.30,4138.0401943,N,07032.2684936,W,1,24,0.6,13.352,M,-29.743,M,0.0,*55
###2023-12-09 13:01:08.364638$GNGGA,180107.50,4138.0402819,N,07032.2682667,W,1,24,0.6,13.338,M,-29.743,M,0.0,*5F
###2023-12-09 13:01:08.565900$GNGGA,180107.70,4138.0403917,N,07032.2680648,W,1,24,0.6,13.337,M,-29.743,M,0.0,*53
###2023-12-09 13:01:08.765278$GNGGA,180107.90,4138.0405101,N,07032.2678637,W,1,24,0.6,13.361,M,-29.743,M,0.0,*58
###2023-12-09 13:01:08.973090$GNRMC,180108.10,A,4138.0406056,N,07032.2676411,W,3.44,63.30,091223,,,A*65
###2023-12-09 13:01:08.975976$GNGGA,180108.10,4138.0406056,N,07032.2676411,W,1,24,0.6,13.370,M,-29.743,M,0.0,*57
###2023-12-09 13:01:08.977838$GPGSA,A,3,03,04,16,26,28,29,31,32,,,,,1.1,0.6,0.9*3B
###2023-12-09 13:01:08.979574$GLGSA,A,3,65,71,72,73,74,75,,,,,,,1.1,0.6,0.9*24
###2023-12-09 13:01:08.981167$GAGSA,A,3,04,19,21,27,,,,,,,,,1.1,0.6,0.9*26
###2023-12-09 13:01:08.982830$GBGSA,A,3,14,24,25,26,33,,,,,,,,1.1,0.6,0.9*2F
###2023-12-09 13:01:08.985172$GPGSV,2,1,08,03,35,261,44,04,33,311,45,16,49,212,45,26,79,210,49*7A
###2023-12-09 13:01:08.987516$GPGSV,2,2,08,28,49,070,43,29,25,061,41,31,69,036,46,32,19,140,43*79
###2023-12-09 13:01:08.989847$GLGSV,2,1,06,65,24,327,43,71,41,173,47,72,73,269,46,73,36,041,42*6D
###2023-12-09 13:01:08.991598$GLGSV,2,2,06,74,70,337,42,75,32,253,47,,,,,,,,*62
###2023-12-09 13:01:08.993915$GAGSV,1,1,04,04,29,312,43,19,84,216,41,21,86,120,46,27,33,048,42*63
###2023-12-09 13:01:08.996247$GBGSV,2,1,05,14,43,193,44,24,74,024,48,25,41,262,45,26,26,063,42*6D
###2023-12-09 13:01:08.997706$GBGSV,2,2,05,33,57,233,48,,,,,,,,,,,,*52
###2023-12-09 13:01:08.999006$GNVTG,63.30,T,,M,3.44,N,6.37,K,A*14
###2023-12-09 13:01:09.000650$GNGST,180108.10,18.000,,,,0.078,0.067,0.160*56
###2023-12-09 13:01:09.001935$GNZDA,180108.10,09,12,2023,00,00*70
###2023-12-09 13:01:09.002584$GNEBP,,,,,,M*13
###2023-12-09 13:01:09.166050$GNGGA,180108.30,4138.0406902,N,07032.2674182,W,1,24,0.6,13.351,M,-29.743,M,0.0,*53
###2023-12-09 13:01:09.366283$GNGGA,180108.50,4138.0407834,N,07032.2672048,W,1,24,0.6,13.319,M,-29.743,M,0.0,*5D
###2023-12-09 13:01:09.564975$GNGGA,180108.70,4138.0408867,N,07032.2670051,W,1,24,0.6,13.300,M,-29.743,M,0.0,*54
###2023-12-09 13:01:09.768073$GNGGA,180108.90,4138.0409992,N,07032.2668072,W,1,24,0.6,13.316,M,-29.743,M,0.0,*5F
###2023-12-09 13:01:09.965921$GNRMC,180109.10,A,4138.0410929,N,07032.2665824,W,3.54,66.13,091223,,,A*6F
###2023-12-09 13:01:09.969053$GNGGA,180109.10,4138.0410929,N,07032.2665824,W,1,24,0.6,13.350,M,-29.743,M,0.0,*5A
###2023-12-09 13:01:09.970950$GPGSA,A,3,03,04,16,26,28,29,31,32,,,,,1.1,0.6,0.9*3B
###2023-12-09 13:01:09.972676$GLGSA,A,3,65,71,72,73,74,75,,,,,,,1.1,0.6,0.9*24
###2023-12-09 13:01:09.974264$GAGSA,A,3,04,19,21,27,,,,,,,,,1.1,0.6,0.9*26
###2023-12-09 13:01:09.975921$GBGSA,A,3,14,24,25,26,33,,,,,,,,1.1,0.6,0.9*2F
###2023-12-09 13:01:09.978251$GPGSV,2,1,08,03,35,261,45,04,33,311,45,16,49,212,45,26,79,210,49*7B
###2023-12-09 13:01:09.980604$GPGSV,2,2,08,28,49,070,43,29,25,061,43,31,69,036,47,32,19,140,38*76
###2023-12-09 13:01:09.982955$GLGSV,2,1,06,65,24,327,44,71,41,173,45,72,73,269,47,73,36,041,45*6E
###2023-12-09 13:01:09.984709$GLGSV,2,2,06,74,70,337,43,75,32,253,47,,,,,,,,*63
###2023-12-09 13:01:09.987055$GAGSV,1,1,04,04,29,312,41,19,84,216,40,21,86,120,46,27,33,048,40*62
