###2023-12-09 13:29:35.009102$GPGSV,2,1,07,03,28,248,41,04,44,309,39,16,64,220,46,26,86,041,48*7F
###2023-12-09 13:29:35.011176$GPGSV,2,2,07,28,39,083,44,29,21,049,43,31,61,063,47,,,,*44
###2023-12-09 13:29:35.013508$GLGSV,2,1,06,65,36,321,41,71,25,175,41,72,65,225,45,73,24,050,45*60
###2023-12-09 13:29:35.015270$GLGSV,2,2,06,74,61,010,42,75,42,268,47,,,,,,,,*6B
###2023-12-09 13:29:35.017610$GAGSV,1,1,04,04,38,311,42,19,74,183,40,21,79,049,46,27,24,049,42*69
###2023-12-09 13:29:35.019966$GBGSV,2,1,06,14,31,190,42,24,64,043,48,25,49,274,46,26,17,069,42*6A
###2023-12-09 13:29:35.021717$GBGSV,2,2,06,33,48,219,47,35,16,058,42,,,,,,,,*62
###2023-12-09 13:29:35.023060$GNVTG,321.43,T,,M,2.41,N,4.46,K,A*25
###2023-12-09 13:29:35.024717$GNGST,182934.10,18.000,,,,0.100,0.072,0.170*58
###2023-12-09 13:29:35.026019$GNZDA,182934.10,09,12,2023,00,00*75
###2023-12-09 13:29:35.026685$GNEBP,,,,,,M*13
###2023-12-09 13:29:35.192182$GNGGA,182934.30,4138.0505811,N,07032.4182669,W,1,24,0.6,12.791,M,-29.745,M,0.0,*52
###2023-12-09 13:29:35.391086$GNGGA,182934.50,4138.0506633,N,07032.4184006,W,1,24,0.6,12.794,M,-29.745,M,0.0,*55
###2023-12-09 13:29:35.593865$GNGGA,182934.70,4138.0507453,N,07032.4185356,W,1,24,0.6,12.793,M,-29.745,M,0.0,*52
###2023-12-09 13:29:35.792072$GNGGA,182934.90,4138.0508341,N,07032.4186697,W,1,24,0.6,12.795,M,-29.745,M,0.0,*5A
###2023-12-09 13:29:35.994779$GNRMC,182935.10,A,4138.0509215,N,07032.4188078,W,2.49,308.12,091223,,,A*53
###2023-12-09 13:29:35.997638$GNGGA,182935.10,4138.0509215,N,07032.4188078,W,1,24,0.6,12.793,M,-29.745,M,0.0,*5D
###2023-12-09 13:29:35.999439$GPGSA,A,3,03,04,16,26,28,29,31,,,,,,1.1,0.6,0.9*3A
###2023-12-09 13:29:36.001147$GLGSA,A,3,65,71,72,73,74,75,,,,,,,1.1,0.6,0.9*24
###2023-12-09 13:29:36.002741$GAGSA,A,3,04,19,21,27,,,,,,,,,1.1,0.6,0.9*26
###2023-12-09 13:29:36.004451$GBGSA,A,3,14,24,25,26,33,35,,,,,,,1.1,0.6,0.9*29
###2023-12-09 13:29:36.006783$GPGSV,2,1,07,03,28,248,42,04,44,309,42,16,64,220,46,26,86,041,48*70
###2023-12-09 13:29:36.008811$GPGSV,2,2,07,28,39,083,44,29,21,049,42,31,61,063,48,,,,*4A
###2023-12-09 13:29:36.011137$GLGSV,2,1,06,65,36,321,41,71,25,175,42,72,65,225,45,73,24,050,44*62
###2023-12-09 13:29:36.012873$GLGSV,2,2,06,74,61,010,42,75,42,268,46,,,,,,,,*6A
###2023-12-09 13:29:36.015211$GAGSV,1,1,04,04,38,311,41,19,74,183,40,21,79,049,46,27,24,049,41*69
###2023-12-09 13:29:36.017534$GBGSV,2,1,06,14,31,190,42,24,64,043,49,25,49,274,47,26,17,069,43*6B
###2023-12-09 13:29:36.019282$GBGSV,2,2,06,33,48,219,46,35,16,058,42,,,,,,,,*63
###2023-12-09 13:29:36.020598$GNVTG,308.12,T,,M,2.49,N,4.61,K,A*27
###2023-12-09 13:29:36.022281$GNGST,182935.10,18.000,,,,0.100,0.072,0.170*59
###2023-12-09 13:29:36.023587$GNZDA,182935.10,09,12,2023,00,00*74
###2023-12-09 13:29:36.024228$GNEBP,,,,,,M*13
###2023-12-09 13:29:36.197035$GNGGA,182935.30,4138.0509982,N,07032.4189554,W,1,24,0.6,12.792,M,-29.745,M,0.0,*51
###2023-12-09 13:29:36.391013$GNGGA,182935.50,4138.0510623,N,07032.4191069,W,1,24,0.6,12.791,M,-29.745,M,0.0,*5A
###2023-12-09 13:29:36.591598$GNGGA,182935.70,4138.0511257,N,07032.4192581,W,1,24,0.6,12.792,M,-29.745,M,0.0,*5D
###2023-12-09 13:29:36.792319$GNGGA,182935.90,4138.0511908,N,07032.4194068,W,1,24,0.6,12.788,M,-29.745,M,0.0,*5D
###2023-12-09 13:29:36.997684$GNRMC,182936.10,A,4138.0512481,N,07032.4195538,W,2.25,295.09,091223,,,A*59
###2023-12-09 13:29:37.000576$GNGGA,182936.10,4138.0512481,N,07032.4195538,W,1,24,0.6,12.785,M,-29.745,M,0.0,*55
###2023-12-09 13:29:37.002376$GPGSA,A,3,03,04,16,26,28,29,31,,,,,,1.1,0.6,0.9*3A
###2023-12-09 13:29:37.004104$GLGSA,A,3,65,71,72,73,74,75,,,,,,,1.1,0.6,0.9*24
###2023-12-09 13:29:37.005690$GAGSA,A,3,04,19,21,27,,,,,,,,,1.1,0.6,0.9*26
###2023-12-09 13:29:37.007412$GBGSA,A,3,14,24,25,26,33,35,,,,,,,1.1,0.6,0.9*29
###2023-12-09 13:29:37.009736$GPGSV,2,1,07,03,28,248,41,04,44,309,43,16,64,220,46,26,86,041,48*72
###2023-12-09 13:29:37.011797$GPGSV,2,2,07,28,39,083,45,29,21,049,41,31,61,063,47,,,,*47
###2023-12-09 13:29:37.014171$GLGSV,2,1,06,65,36,321,41,71,25,175,44,72,65,225,45,73,24,050,41*61
###2023-12-09 13:29:37.015944$GLGSV,2,2,06,74,61,010,42,75,42,268,44,,,,,,,,*68
###2023-12-09 13:29:37.018285$GAGSV,1,1,04,04,38,311,42,19,74,183,41,21,79,049,46,27,24,049,39*64
###2023-12-09 13:29:37.020652$GBGSV,2,1,06,14,31,190,43,24,64,043,48,25,49,274,45,26,17,069,42*68
###2023-12-09 13:29:37.022412$GBGSV,2,2,06,33,48,219,46,35,16,058,42,,,,,,,,*63
###2023-12-09 13:29:37.023757$GNVTG,295.09,T,,M,2.25,N,4.18,K,A*2C
###2023-12-09 13:29:37.025412$GNGST,182936.10,18.000,,,,0.100,0.072,0.170*5A
###2023-12-09 13:29:37.026720$GNZDA,182936.10,09,12,2023,00,00*77
###2023-12-09 13:29:37.027362$GNEBP,,,,,,M*13
###2023-12-09 13:29:37.191927$GNGGA,182936.30,4138.0512942,N,07032.4197021,W,1,24,0.6,12.790,M,-29.745,M,0.0,*5E
###2023-12-09 13:29:37.392185$GNGGA,182936.50,4138.0513288,N,07032.4198449,W,1,24,0.6,12.791,M,-29.745,M,0.0,*50
###2023-12-09 13:29:37.591378$GNGGA,182936.70,4138.0513623,N,07032.4199867,W,1,24,0.6,12.790,M,-29.745,M,0.0,*57
###2023-12-09 13:29:37.792332$GNGGA,182936.90,4138.0513953,N,07032.4201263,W,1,24,0.6,12.791,M,-29.745,M,0.0,*5C
###2023-12-09 13:29:37.996339$GNRMC,182937.10,A,4138.0514235,N,07032.4202654,W,2.00,285.47,091223,,,A*5F
###2023-12-09 13:29:37.999220$GNGGA,182937.10,4138.0514235,N,07032.4202654,W,1,24,0.6,12.792,M,-29.745,M,0.0,*59
###2023-12-09 13:29:38.001026$GPGSA,A,3,03,04,16,26,28,29,31,,,,,,1.1,0.6,0.9*3A
###2023-12-09 13:29:38.002755$GLGSA,A,3,65,71,72,73,74,75,,,,,,,1.1,0.6,0.9*24
###2023-12-09 13:29:38.004346$GAGSA,A,3,04,19,21,27,,,,,,,,,1.1,0.6,0.9*26
###2023-12-09 13:29:38.006062$GBGSA,A,3,14,24,25,26,33,35,,,,,,,1.1,0.6,0.9*29
###2023-12-09 13:29:38.008387$GPGSV,2,1,07,03,28,248,41,04,44,309,44,16,64,220,46,26,86,041,48*75
###2023-12-09 13:29:38.010430$GPGSV,2,2,07,28,39,083,46,29,21,049,41,31,61,063,47,,,,*44
###2023-12-09 13:29:38.012773$GLGSV,2,1,06,65,36,321,42,71,25,175,44,72,65,225,45,73,24,050,40*63
###2023-12-09 13:29:38.014520$GLGSV,2,2,06,74,61,010,43,75,42,268,42,,,,,,,,*6F
###2023-12-09 13:29:38.016859$GAGSV,1,1,04,04,38,311,41,19,74,183,41,21,79,049,46,27,24,049,38*66
###2023-12-09 13:29:38.019205$GBGSV,2,1,06,14,31,190,42,24,64,043,48,25,49,274,44,26,17,069,42*68
###2023-12-09 13:29:38.020955$GBGSV,2,2,06,33,48,219,46,35,16,058,42,,,,,,,,*63
###2023-12-09 13:29:38.022319$GNVTG,285.47,T,,M,2.00,N,3.71,K,A*28
###2023-12-09 13:29:38.023982$GNGST,182937.10,18.000,,,,0.100,0.072,0.170*5B
###2023-12-09 13:29:38.025271$GNZDA,182937.10,09,12,2023,00,00*76
###2023-12-09 13:29:38.025911$GNEBP,,,,,,M*13
###2023-12-09 13:29:38.192888$GNGGA,182937.30,4138.0514403,N,07032.4204081,W,1,24,0.6,12.792,M,-29.745,M,0.0,*50
###2023-12-09 13:29:38.391723$GNGGA,182937.50,4138.0514497,N,07032.4205504,W,1,24,0.6,12.791,M,-29.745,M,0.0,*51
###2023-12-09 13:29:38.593272$GNGGA,182937.70,4138.0514577,N,07032.4206975,W,1,24,0.6,12.797,M,-29.745,M,0.0,*53
###2023-12-09 13:29:38.793990$GNGGA,182937.90,4138.0514659,N,07032.4208480,W,1,24,0.6,12.799,M,-29.745,M,0.0,*55
###2023-12-09 13:29:38.998871$GNRMC,182938.10,A,4138.0514707,N,07032.4210005,W,2.08,271.27,091223,,,A*50
###2023-12-09 13:29:39.001742$GNGGA,182938.10,4138.0514707,N,07032.4210005,W,1,24,0.6,12.801,M,-29.745,M,0.0,*56
###2023-12-09 13:29:39.003552$GPGSA,A,3,03,04,16,26,28,29,31,,,,,,1.1,0.6,0.9*3A
###2023-12-09 13:29:39.005268$GLGSA,A,3,65,71,72,73,74,75,,,,,,,1.1,0.6,0.9*24
###2023-12-09 13:29:39.006868$GAGSA,A,3,04,19,21,27,,,,,,,,,1.1,0.6,0.9*26
###2023-12-09 13:29:39.008577$GBGSA,A,3,14,24,25,26,33,35,,,,,,,1.1,0.6,0.9*29
###2023-12-09 13:29:39.010922$GPGSV,2,1,07,03,28,248,43,04,44,309,44,16,64,220,46,26,86,041,48*77
###2023-12-09 13:29:39.012961$GPGSV,2,2,07,28,39,083,45,29,21,049,42,31,61,063,46,,,,*45
###2023-12-09 13:29:39.015299$GLGSV,2,1,06,65,36,321,42,71,25,175,45,72,65,225,46,73,24,050,43*62
###2023-12-09 13:29:39.017043$GLGSV,2,2,06,74,61,010,42,75,42,268,44,,,,,,,,*68
###2023-12-09 13:29:39.019371$GAGSV,1,1,04,04,38,311,42,19,74,183,41,21,79,049,46,27,24,049,40*6A
###2023-12-09 13:29:39.021699$GBGSV,2,1,06,14,31,190,43,24,64,043,48,25,49,274,45,26,17,069,45*6F
###2023-12-09 13:29:39.023452$GBGSV,2,2,06,33,48,219,47,35,16,058,44,,,,,,,,*64
###2023-12-09 13:29:39.025038$GNVTG,271.27,T,,M,2.08,N,3.85,K,A*26
###2023-12-09 13:29:39.026735$GNGST,182938.10,18.000,,,,0.100,0.072,0.170*54
###2023-12-09 13:29:39.028030$GNZDA,182938.10,09,12,2023,00,00*79
###2023-12-09 13:29:39.028672$GNEBP,,,,,,M*13
###2023-12-09 13:29:39.195570$GNGGA,182938.30,4138.0514672,N,07032.4211541,W,1,24,0.6,12.806,M,-29.745,M,0.0,*54
###2023-12-09 13:29:39.391030$GNGGA,182938.50,4138.0514580,N,07032.4213040,W,1,24,0.6,12.820,M,-29.745,M,0.0,*5E
###2023-12-09 13:29:39.593114$GNGGA,182938.70,4138.0514467,N,07032.4214515,W,1,24,0.6,12.822,M,-29.745,M,0.0,*54
###2023-12-09 13:29:39.793176$GNGGA,182938.90,4138.0514333,N,07032.4215957,W,1,24,0.6,12.824,M,-29.745,M,0.0,*51
###2023-12-09 13:29:39.991770$GNRMC,182939.10,A,4138.0514162,N,07032.4217324,W,1.75,258.08,091223,,,A*5C
