###2023-12-09 12:27:42.946151$GNZDA,172742.10,09,12,2023,00,00*75
###2023-12-09 12:27:42.946887$GNEBP,,,,,,M*13
###2023-12-09 12:27:43.118368$GNGGA,172742.30,4138.0391973,N,07032.4361093,W,1,17,0.8,6.122,M,-29.746,M,0.0,*66
###2023-12-09 12:27:43.318267$GNGGA,172742.50,4138.0391982,N,07032.4361008,W,1,17,0.8,6.146,M,-29.746,M,0.0,*6E
###2023-12-09 12:27:43.518194$GNGGA,172742.70,4138.0391993,N,07032.4360922,W,1,17,0.8,6.166,M,-29.746,M,0.0,*6E
###2023-12-09 12:27:43.717112$GNGGA,172742.90,4138.0391998,N,07032.4360820,W,1,17,0.8,6.183,M,-29.746,M,0.0,*63
###2023-12-09 12:27:43.919274$GNRMC,172743.10,A,4138.0392004,N,07032.4360719,W,0.02,,091223,,,A*4A
###2023-12-09 12:27:43.922104$GNGGA,172743.10,4138.0392004,N,07032.4360719,W,1,17,0.8,6.208,M,-29.746,M,0.0,*60
###2023-12-09 12:27:43.923940$GPGSA,A,3,03,16,26,28,29,31,32,,,,,,1.5,0.8,1.3*3E
###2023-12-09 12:27:43.925550$GLGSA,A,3,71,72,73,75,,,,,,,,,1.5,0.8,1.3*25
###2023-12-09 12:27:43.927040$GAGSA,A,3,21,27,,,,,,,,,,,1.5,0.8,1.3*2B
###2023-12-09 12:27:43.928640$GBGSA,A,3,14,25,26,33,,,,,,,,,1.5,0.8,1.3*28
###2023-12-09 12:27:43.930988$GPGSV,2,1,07,03,39,281,41,16,33,206,43,26,62,205,41,28,60,051,42*72
###2023-12-09 12:27:43.933035$GPGSV,2,2,07,29,24,078,43,31,73,348,43,32,33,132,45,,,,*45
###2023-12-09 12:27:43.935385$GLGSV,1,1,04,71,60,168,46,72,63,315,43,73,51,031,48,75,19,238,41*64
###2023-12-09 12:27:43.937145$GAGSV,1,1,02,21,75,179,42,27,44,050,45,,,,,,,,*63
###2023-12-09 12:27:43.939479$GBGSV,1,1,04,14,58,200,46,25,30,250,35,26,37,056,48,33,64,261,41*6F
###2023-12-09 12:27:43.940622$GNVTG,,T,,M,0.02,N,0.04,K,A*3B
###2023-12-09 12:27:43.942270$GNGST,172743.10,32.000,,,,0.100,0.095,0.260*5A
###2023-12-09 12:27:43.943589$GNZDA,172743.10,09,12,2023,00,00*74
###2023-12-09 12:27:43.944242$GNEBP,,,,,,M*13
###2023-12-09 12:27:44.118764$GNGGA,172743.30,4138.0392010,N,07032.4360603,W,1,17,0.8,6.232,M,-29.746,M,0.0,*64
###2023-12-09 12:27:44.319502$GNGGA,172743.50,4138.0392019,N,07032.4360520,W,1,17,0.8,6.252,M,-29.746,M,0.0,*6F
###2023-12-09 12:27:44.519305$GNGGA,172743.70,4138.0392022,N,07032.4360413,W,1,17,0.8,6.273,M,-29.746,M,0.0,*67
###2023-12-09 12:27:44.717079$GNGGA,172743.90,4138.0392020,N,07032.4360303,W,1,17,0.8,6.298,M,-29.746,M,0.0,*68
###2023-12-09 12:27:44.923780$GNRMC,172744.10,A,4138.0392014,N,07032.4360192,W,0.00,,091223,,,A*4B
###2023-12-09 12:27:44.926646$GNGGA,172744.10,4138.0392014,N,07032.4360192,W,1,17,0.8,6.319,M,-29.746,M,0.0,*62
###2023-12-09 12:27:44.928460$GPGSA,A,3,03,16,26,28,29,31,32,,,,,,1.5,0.8,1.3*3E
###2023-12-09 12:27:44.930059$GLGSA,A,3,71,72,73,75,,,,,,,,,1.5,0.8,1.3*25
###2023-12-09 12:27:44.931542$GAGSA,A,3,21,27,,,,,,,,,,,1.5,0.8,1.3*2B
###2023-12-09 12:27:44.933143$GBGSA,A,3,14,25,26,33,,,,,,,,,1.5,0.8,1.3*28
###2023-12-09 12:27:44.935498$GPGSV,2,1,07,03,39,281,41,16,33,206,43,26,62,205,40,28,60,051,42*73
###2023-12-09 12:27:44.937554$GPGSV,2,2,07,29,24,078,42,31,73,348,43,32,33,132,46,,,,*47
###2023-12-09 12:27:44.939906$GLGSV,1,1,04,71,60,168,46,72,63,315,43,73,51,031,48,75,19,238,41*64
###2023-12-09 12:27:44.941671$GAGSV,1,1,02,21,75,179,41,27,44,050,46,,,,,,,,*63
###2023-12-09 12:27:44.944025$GBGSV,1,1,04,14,58,200,45,25,30,250,35,26,37,056,48,33,64,261,41*6C
###2023-12-09 12:27:44.945170$GNVTG,,T,,M,0.00,N,0.00,K,A*3D
###2023-12-09 12:27:44.946867$GNGST,172744.10,32.000,,,,0.100,0.095,0.260*5D
###2023-12-09 12:27:44.948216$GNZDA,172744.10,09,12,2023,00,00*73
###2023-12-09 12:27:44.948889$GNEBP,,,,,,M*13
###2023-12-09 12:27:45.119277$GNGGA,172744.30,4138.0392013,N,07032.4360104,W,1,17,0.8,6.339,M,-29.746,M,0.0,*6A
###2023-12-09 12:27:45.318248$GNGGA,172744.50,4138.0392031,N,07032.4360022,W,1,17,0.8,6.359,M,-29.746,M,0.0,*6F
###2023-12-09 12:27:45.518159$GNGGA,172744.70,4138.0392051,N,07032.4359944,W,1,17,0.8,6.372,M,-29.746,M,0.0,*61
###2023-12-09 12:27:45.717399$GNGGA,172744.90,4138.0392057,N,07032.4359847,W,1,17,0.8,6.391,M,-29.746,M,0.0,*66
###2023-12-09 12:27:45.919411$GNRMC,172745.10,A,4138.0392075,N,07032.4359762,W,0.00,,091223,,,A*4E
###2023-12-09 12:27:45.922312$GNGGA,172745.10,4138.0392075,N,07032.4359762,W,1,17,0.8,6.412,M,-29.746,M,0.0,*6B
###2023-12-09 12:27:45.924164$GPGSA,A,3,03,16,26,28,29,31,32,,,,,,1.5,0.8,1.3*3E
###2023-12-09 12:27:45.925805$GLGSA,A,3,71,72,73,75,,,,,,,,,1.5,0.8,1.3*25
###2023-12-09 12:27:45.927318$GAGSA,A,3,21,27,,,,,,,,,,,1.5,0.8,1.3*2B
###2023-12-09 12:27:45.928937$GBGSA,A,3,14,25,26,33,,,,,,,,,1.5,0.8,1.3*28
###2023-12-09 12:27:45.931317$GPGSV,2,1,07,03,39,281,41,16,33,206,43,26,62,205,39,28,60,051,42*7D
###2023-12-09 12:27:45.933403$GPGSV,2,2,07,29,24,078,42,31,73,348,43,32,33,132,45,,,,*44
###2023-12-09 12:27:45.935795$GLGSV,1,1,04,71,60,168,47,72,63,315,44,73,51,031,48,75,19,238,41*62
###2023-12-09 12:27:45.937589$GAGSV,1,1,02,21,75,179,41,27,44,050,46,,,,,,,,*63
###2023-12-09 12:27:45.940186$GBGSV,1,1,04,14,58,200,46,25,30,250,35,26,37,056,48,33,64,261,41*6F
###2023-12-09 12:27:45.941374$GNVTG,,T,,M,0.00,N,0.00,K,A*3D
###2023-12-09 12:27:45.943085$GNGST,172745.10,32.000,,,,0.100,0.095,0.260*5C
###2023-12-09 12:27:45.944418$GNZDA,172745.10,09,12,2023,00,00*72
###2023-12-09 12:27:45.945097$GNEBP,,,,,,M*13
###2023-12-09 12:27:46.118384$GNGGA,172745.30,4138.0392075,N,07032.4359673,W,1,17,0.8,6.432,M,-29.746,M,0.0,*6A
###2023-12-09 12:27:46.318169$GNGGA,172745.50,4138.0392075,N,07032.4359580,W,1,17,0.8,6.444,M,-29.746,M,0.0,*62
###2023-12-09 12:27:46.517433$GNGGA,172745.70,4138.0392091,N,07032.4359499,W,1,17,0.8,6.454,M,-29.746,M,0.0,*62
###2023-12-09 12:27:46.717435$GNGGA,172745.90,4138.0392093,N,07032.4359412,W,1,17,0.8,6.468,M,-29.746,M,0.0,*62
###2023-12-09 12:27:46.921905$GNRMC,172746.10,A,4138.0392103,N,07032.4359336,W,0.06,,091223,,,A*4E
###2023-12-09 12:27:46.924975$GNGGA,172746.10,4138.0392103,N,07032.4359336,W,1,17,0.8,6.475,M,-29.746,M,0.0,*6C
###2023-12-09 12:27:46.926972$GPGSA,A,3,03,16,26,28,29,31,32,,,,,,1.5,0.8,1.3*3E
###2023-12-09 12:27:46.928750$GLGSA,A,3,71,72,73,75,,,,,,,,,1.5,0.8,1.3*25
###2023-12-09 12:27:46.930386$GAGSA,A,3,21,27,,,,,,,,,,,1.5,0.8,1.3*2B
###2023-12-09 12:27:46.932160$GBGSA,A,3,14,25,26,33,,,,,,,,,1.5,0.8,1.3*28
###2023-12-09 12:27:46.934675$GPGSV,2,1,07,03,39,281,40,16,33,206,42,26,62,205,39,28,60,051,42*7D
###2023-12-09 12:27:46.936881$GPGSV,2,2,07,29,24,078,41,31,73,348,42,32,33,132,44,,,,*47
###2023-12-09 12:27:46.939391$GLGSV,1,1,04,71,60,168,47,72,63,315,44,73,51,031,48,75,19,238,41*62
###2023-12-09 12:27:46.941325$GAGSV,1,1,02,21,75,179,41,27,44,050,45,,,,,,,,*60
###2023-12-09 12:27:46.943850$GBGSV,1,1,04,14,58,200,46,25,30,250,36,26,37,056,48,33,64,261,40*6D
###2023-12-09 12:27:46.945161$GNVTG,,T,,M,0.06,N,0.11,K,A*3B
###2023-12-09 12:27:46.947005$GNGST,172746.10,32.000,,,,0.100,0.095,0.260*5F
###2023-12-09 12:27:46.948538$GNZDA,172746.10,09,12,2023,00,00*71
###2023-12-09 12:27:46.949360$GNEBP,,,,,,M*13
###2023-12-09 12:27:47.120228$GNGGA,172746.30,4138.0392109,N,07032.4359272,W,1,17,0.8,6.484,M,-29.746,M,0.0,*6B
###2023-12-09 12:27:47.319418$GNGGA,172746.50,4138.0392113,N,07032.4359200,W,1,17,0.8,6.492,M,-29.746,M,0.0,*64
###2023-12-09 12:27:47.519096$GNGGA,172746.70,4138.0392112,N,07032.4359115,W,1,17,0.8,6.509,M,-29.746,M,0.0,*63
###2023-12-09 12:27:47.718315$GNGGA,172746.90,4138.0392127,N,07032.4359050,W,1,17,0.8,6.512,M,-29.746,M,0.0,*61
###2023-12-09 12:27:47.923324$GNRMC,172747.10,A,4138.0392126,N,07032.4358975,W,0.02,,091223,,,A*40
###2023-12-09 12:27:47.926382$GNGGA,172747.10,4138.0392126,N,07032.4358975,W,1,17,0.8,6.518,M,-29.746,M,0.0,*6C
###2023-12-09 12:27:47.928381$GPGSA,A,3,03,16,26,28,29,31,32,,,,,,1.5,0.8,1.3*3E
###2023-12-09 12:27:47.930142$GLGSA,A,3,71,72,73,75,,,,,,,,,1.5,0.8,1.3*25
###2023-12-09 12:27:47.931790$GAGSA,A,3,21,27,,,,,,,,,,,1.5,0.8,1.3*2B
###2023-12-09 12:27:47.933549$GBGSA,A,3,14,25,26,33,,,,,,,,,1.5,0.8,1.3*28
###2023-12-09 12:27:47.936057$GPGSV,2,1,07,03,39,281,40,16,33,206,42,26,62,205,39,28,60,051,42*7D
###2023-12-09 12:27:47.938253$GPGSV,2,2,07,29,24,078,41,31,73,348,42,32,33,132,45,,,,*46
###2023-12-09 12:27:47.940777$GLGSV,1,1,04,71,60,168,47,72,63,315,44,73,51,031,48,75,19,238,41*62
###2023-12-09 12:27:47.942715$GAGSV,1,1,02,21,75,179,41,27,44,050,46,,,,,,,,*63
###2023-12-09 12:27:47.945480$GBGSV,1,1,04,14,58,200,46,25,30,250,36,26,37,056,48,33,64,261,40*6D
###2023-12-09 12:27:47.946843$GNVTG,,T,,M,0.02,N,0.04,K,A*3B
###2023-12-09 12:27:47.948713$GNGST,172747.10,32.000,,,,0.100,0.096,0.260*5D
###2023-12-09 12:27:47.950147$GNZDA,172747.10,09,12,2023,00,00*70
###2023-12-09 12:27:47.950920$GNEBP,,,,,,M*13
###2023-12-09 12:27:48.119424$GNGGA,172747.30,4138.0392135,N,07032.4358909,W,1,17,0.8,6.523,M,-29.746,M,0.0,*6F
###2023-12-09 12:27:48.319457$GNGGA,172747.50,4138.0392142,N,07032.4358830,W,1,17,0.8,6.533,M,-29.746,M,0.0,*63
###2023-12-09 12:27:48.519546$GNGGA,172747.70,4138.0392146,N,07032.4358761,W,1,17,0.8,6.534,M,-29.746,M,0.0,*69
