###2023-12-09 13:31:43.387629$GNGGA,183142.50,4138.0352887,N,07032.4265937,W,1,22,0.8,13.392,M,-29.746,M,0.0,*54
###2023-12-09 13:31:43.587287$GNGGA,183142.70,4138.0352672,N,07032.4265556,W,1,22,0.8,13.394,M,-29.746,M,0.0,*5F
###2023-12-09 13:31:43.788766$GNGGA,183142.90,4138.0352518,N,07032.4265195,W,1,22,0.8,13.389,M,-29.746,M,0.0,*59
###2023-12-09 13:31:43.991279$GNRMC,183143.10,A,4138.0352425,N,07032.4264767,W,0.54,99.64,091223,,,A*6A
###2023-12-09 13:31:43.994136$GNGGA,183143.10,4138.0352425,N,07032.4264767,W,1,22,0.8,13.398,M,-29.746,M,0.0,*55
###2023-12-09 13:31:43.995945$GPGSA,A,3,03,04,16,26,28,29,31,,,,,,1.4,0.8,1.1*38
###2023-12-09 13:31:43.997654$GLGSA,A,3,65,72,73,74,75,83,,,,,,,1.4,0.8,1.1*2B
###2023-12-09 13:31:43.999249$GAGSA,A,3,04,19,21,27,,,,,,,,,1.4,0.8,1.1*24
###2023-12-09 13:31:44.000896$GBGSA,A,3,24,25,26,33,35,,,,,,,,1.4,0.8,1.1*2E
###2023-12-09 13:31:44.003235$GPGSV,2,1,07,03,27,247,36,04,45,308,43,16,65,221,46,26,85,040,48*70
###2023-12-09 13:31:44.005266$GPGSV,2,2,07,28,39,084,45,29,21,048,43,31,60,064,48,,,,*4A
###2023-12-09 13:31:44.007598$GLGSV,2,1,06,65,37,320,41,72,64,223,46,73,23,051,45,74,61,011,42*67
###2023-12-09 13:31:44.009331$GLGSV,2,2,06,75,42,269,48,83,15,049,35,,,,,,,,*62
###2023-12-09 13:31:44.011662$GAGSV,1,1,04,04,39,310,43,19,73,182,42,21,78,047,46,27,23,050,42*6C
###2023-12-09 13:31:44.013979$GBGSV,2,1,05,24,64,044,49,25,50,275,47,26,17,070,44,33,47,218,41*6D
###2023-12-09 13:31:44.015437$GBGSV,2,2,05,35,16,058,43,,,,,,,,,,,,*55
###2023-12-09 13:31:44.016719$GNVTG,99.64,T,,M,0.54,N,1.01,K,A*10
###2023-12-09 13:31:44.018322$GNGST,183143.10,6.500,,,,0.170,0.098,0.250*69
###2023-12-09 13:31:44.019613$GNZDA,183143.10,09,12,2023,00,00*7C
###2023-12-09 13:31:44.020253$GNEBP,,,,,,M*13
###2023-12-09 13:31:44.187302$GNGGA,183143.30,4138.0352287,N,07032.4264420,W,1,21,0.9,13.408,M,-29.746,M,0.0,*55
###2023-12-09 13:31:44.388116$GNGGA,183143.50,4138.0352073,N,07032.4264121,W,1,22,0.8,13.405,M,-29.746,M,0.0,*51
###2023-12-09 13:31:44.588984$GNGGA,183143.70,4138.0351883,N,07032.4263780,W,1,23,0.7,13.405,M,-29.746,M,0.0,*53
###2023-12-09 13:31:44.787998$GNGGA,183143.90,4138.0351785,N,07032.4263453,W,1,23,0.7,13.408,M,-29.746,M,0.0,*54
###2023-12-09 13:31:44.994863$GNRMC,183144.10,A,4138.0351645,N,07032.4263128,W,0.56,99.64,091223,,,A*62
###2023-12-09 13:31:44.997725$GNGGA,183144.10,4138.0351645,N,07032.4263128,W,1,22,0.8,13.423,M,-29.746,M,0.0,*58
###2023-12-09 13:31:44.999529$GPGSA,A,3,03,04,16,26,28,29,31,,,,,,1.4,0.8,1.1*38
###2023-12-09 13:31:45.001246$GLGSA,A,3,65,72,73,74,75,83,,,,,,,1.4,0.8,1.1*2B
###2023-12-09 13:31:45.002841$GAGSA,A,3,04,19,21,27,,,,,,,,,1.4,0.8,1.1*24
###2023-12-09 13:31:45.004491$GBGSA,A,3,24,25,26,33,35,,,,,,,,1.4,0.8,1.1*2E
###2023-12-09 13:31:45.006830$GPGSV,2,1,07,03,27,247,36,04,45,308,43,16,65,221,46,26,85,040,48*70
###2023-12-09 13:31:45.008876$GPGSV,2,2,07,28,39,084,45,29,21,048,43,31,60,064,47,,,,*45
###2023-12-09 13:31:45.011219$GLGSV,2,1,06,65,37,320,39,72,64,223,47,73,23,051,44,74,61,011,42*68
###2023-12-09 13:31:45.012967$GLGSV,2,2,06,75,42,269,46,83,15,049,35,,,,,,,,*6C
###2023-12-09 13:31:45.015309$GAGSV,1,1,04,04,39,310,38,19,73,182,41,21,78,047,46,27,23,050,41*60
###2023-12-09 13:31:45.017638$GBGSV,2,1,05,24,64,044,50,25,50,275,48,26,17,070,44,33,47,218,44*6F
###2023-12-09 13:31:45.019103$GBGSV,2,2,05,35,16,058,43,,,,,,,,,,,,*55
###2023-12-09 13:31:45.020394$GNVTG,99.64,T,,M,0.56,N,1.04,K,A*17
###2023-12-09 13:31:45.022010$GNGST,183144.10,9.300,,,,0.170,0.098,0.250*67
###2023-12-09 13:31:45.023313$GNZDA,183144.10,09,12,2023,00,00*7B
###2023-12-09 13:31:45.023953$GNEBP,,,,,,M*13
###2023-12-09 13:31:45.194407$GNGGA,183144.30,4138.0351458,N,07032.4262842,W,1,23,0.7,13.427,M,-29.746,M,0.0,*5A
###2023-12-09 13:31:45.387007$GNGGA,183144.50,4138.0351314,N,07032.4262587,W,1,23,0.7,13.430,M,-29.746,M,0.0,*51
###2023-12-09 13:31:45.587311$GNGGA,183144.70,4138.0351163,N,07032.4262341,W,1,23,0.7,13.429,M,-29.746,M,0.0,*55
###2023-12-09 13:31:45.787379$GNGGA,183144.90,4138.0350991,N,07032.4262078,W,1,21,0.9,13.426,M,-29.746,M,0.0,*55
###2023-12-09 13:31:45.988739$GNRMC,183145.10,A,4138.0350823,N,07032.4261824,W,0.45,99.64,091223,,,A*69
###2023-12-09 13:31:45.991623$GNGGA,183145.10,4138.0350823,N,07032.4261824,W,1,21,0.9,13.436,M,-29.746,M,0.0,*57
###2023-12-09 13:31:45.993354$GPGSA,A,3,04,16,26,28,29,31,,,,,,,1.6,0.9,1.2*3B
###2023-12-09 13:31:45.995089$GLGSA,A,3,65,72,73,74,75,83,,,,,,,1.6,0.9,1.2*2B
###2023-12-09 13:31:45.996678$GAGSA,A,3,04,19,21,27,,,,,,,,,1.6,0.9,1.2*24
###2023-12-09 13:31:45.998333$GBGSA,A,3,24,25,26,33,35,,,,,,,,1.6,0.9,1.2*2E
###2023-12-09 13:31:46.000688$GPGSV,2,1,06,04,45,308,43,16,65,221,46,26,85,040,49,28,39,084,45*7F
###2023-12-09 13:31:46.002441$GPGSV,2,2,06,29,21,048,44,31,60,064,48,,,,,,,,*71
###2023-12-09 13:31:46.004794$GLGSV,2,1,06,65,37,320,37,72,64,223,46,73,23,051,44,74,61,011,40*65
###2023-12-09 13:31:46.006573$GLGSV,2,2,06,75,42,269,46,83,15,049,36,,,,,,,,*6F
###2023-12-09 13:31:46.008926$GAGSV,1,1,04,04,39,310,40,19,73,182,41,21,78,047,47,27,23,050,43*6C
###2023-12-09 13:31:46.011280$GBGSV,2,1,05,24,64,044,48,25,50,275,47,26,17,070,39,33,47,218,40*67
###2023-12-09 13:31:46.012745$GBGSV,2,2,05,35,16,058,43,,,,,,,,,,,,*55
###2023-12-09 13:31:46.014040$GNVTG,99.64,T,,M,0.45,N,0.83,K,A*1B
###2023-12-09 13:31:46.015673$GNGST,183145.10,7.800,,,,0.180,0.099,0.250*6D
###2023-12-09 13:31:46.016972$GNZDA,183145.10,09,12,2023,00,00*7A
###2023-12-09 13:31:46.017613$GNEBP,,,,,,M*13
###2023-12-09 13:31:46.186194$GNGGA,183145.30,4138.0350663,N,07032.4261665,W,1,21,0.9,13.446,M,-29.746,M,0.0,*53
###2023-12-09 13:31:46.385812$GNGGA,183145.50,4138.0350511,N,07032.4261410,W,1,21,0.9,13.449,M,-29.746,M,0.0,*5C
###2023-12-09 13:31:46.583656$GNGGA,183145.70,4138.0350370,N,07032.4261119,W,1,21,0.9,13.450,M,-29.746,M,0.0,*5B
###2023-12-09 13:31:46.784539$GNGGA,183145.90,4138.0350215,N,07032.4260927,W,1,21,0.9,13.465,M,-29.746,M,0.0,*55
###2023-12-09 13:31:46.986367$GNRMC,183146.10,A,4138.0350001,N,07032.4260803,W,0.51,99.64,091223,,,A*63
###2023-12-09 13:31:46.989377$GNGGA,183146.10,4138.0350001,N,07032.4260803,W,1,21,0.9,13.473,M,-29.746,M,0.0,*59
###2023-12-09 13:31:46.991122$GPGSA,A,3,04,16,26,28,29,31,,,,,,,1.6,0.9,1.2*3B
###2023-12-09 13:31:46.992841$GLGSA,A,3,65,72,73,74,75,83,,,,,,,1.6,0.9,1.2*2B
###2023-12-09 13:31:46.994419$GAGSA,A,3,04,19,21,27,,,,,,,,,1.6,0.9,1.2*24
###2023-12-09 13:31:46.996113$GBGSA,A,3,24,25,26,33,35,,,,,,,,1.6,0.9,1.2*2E
###2023-12-09 13:31:46.998432$GPGSV,2,1,06,04,45,308,44,16,65,221,47,26,85,040,48,28,39,084,46*7B
###2023-12-09 13:31:47.000187$GPGSV,2,2,06,29,21,048,44,31,60,064,47,,,,,,,,*7E
###2023-12-09 13:31:47.002502$GLGSV,2,1,06,65,37,320,40,72,64,223,46,73,23,051,45,74,61,011,41*65
###2023-12-09 13:31:47.004270$GLGSV,2,2,06,75,42,269,47,83,15,049,36,,,,,,,,*6E
###2023-12-09 13:31:47.006599$GAGSV,1,1,04,04,39,310,40,19,73,182,43,21,78,047,46,27,23,050,42*6E
###2023-12-09 13:31:47.008966$GBGSV,2,1,05,24,64,044,48,25,50,275,46,26,17,070,42,33,47,218,40*6A
###2023-12-09 13:31:47.010413$GBGSV,2,2,05,35,16,058,42,,,,,,,,,,,,*54
###2023-12-09 13:31:47.011724$GNVTG,99.64,T,,M,0.51,N,0.94,K,A*18
###2023-12-09 13:31:47.013343$GNGST,183146.10,6.400,,,,0.180,0.100,0.250*62
###2023-12-09 13:31:47.014638$GNZDA,183146.10,09,12,2023,00,00*79
###2023-12-09 13:31:47.015279$GNEBP,,,,,,M*13
###2023-12-09 13:31:47.185631$GNGGA,183146.30,4138.0349835,N,07032.4260619,W,1,21,0.9,13.475,M,-29.746,M,0.0,*5F
###2023-12-09 13:31:47.384945$GNGGA,183146.50,4138.0349697,N,07032.4260305,W,1,21,0.9,13.470,M,-29.746,M,0.0,*52
###2023-12-09 13:31:47.586623$GNGGA,183146.70,4138.0349557,N,07032.4260107,W,1,21,0.9,13.485,M,-29.746,M,0.0,*55
###2023-12-09 13:31:47.785658$GNGGA,183146.90,4138.0349371,N,07032.4260054,W,1,21,0.9,13.501,M,-29.746,M,0.0,*53
###2023-12-09 13:31:47.988178$GNRMC,183147.10,A,4138.0349165,N,07032.4259961,W,0.39,99.64,091223,,,A*68
###2023-12-09 13:31:47.991058$GNGGA,183147.10,4138.0349165,N,07032.4259961,W,1,21,0.9,13.500,M,-29.746,M,0.0,*59
###2023-12-09 13:31:47.992787$GPGSA,A,3,04,16,26,28,29,31,,,,,,,1.6,0.9,1.2*3B
###2023-12-09 13:31:47.994509$GLGSA,A,3,65,72,73,74,75,83,,,,,,,1.6,0.9,1.2*2B
###2023-12-09 13:31:47.996359$GAGSA,A,3,04,19,21,27,,,,,,,,,1.6,0.9,1.2*24
###2023-12-09 13:31:47.998017$GBGSA,A,3,24,25,26,33,35,,,,,,,,1.6,0.9,1.2*2E
###2023-12-09 13:31:48.000405$GPGSV,2,1,06,04,45,308,43,16,65,221,46,26,85,040,48,28,39,084,45*7E
###2023-12-09 13:31:48.002156$GPGSV,2,2,06,29,21,048,41,31,60,064,47,,,,,,,,*7B
###2023-12-09 13:31:48.004492$GLGSV,2,1,06,65,37,320,41,72,64,223,45,73,23,051,43,74,61,011,41*61
###2023-12-09 13:31:48.006232$GLGSV,2,2,06,75,42,269,48,83,15,049,35,,,,,,,,*62
###2023-12-09 13:31:48.008555$GAGSV,1,1,04,04,39,310,41,19,73,182,41,21,78,047,45,27,23,050,41*6D
###2023-12-09 13:31:48.010883$GBGSV,2,1,05,24,64,044,49,25,50,275,47,26,17,070,40,33,47,218,39*66
###2023-12-09 13:31:48.012337$GBGSV,2,2,05,35,16,058,41,,,,,,,,,,,,*57
