###2023-12-09 13:14:30.008221$GBGSV,2,1,06,14,37,191,43,24,69,035,48,25,45,267,46,26,22,065,42*64
###2023-12-09 13:14:30.009989$GBGSV,2,2,06,33,53,226,48,35,15,065,43,,,,,,,,*67
###2023-12-09 13:14:30.011331$GNVTG,107.77,T,,M,3.23,N,5.98,K,A*23
###2023-12-09 13:14:30.012978$GNGST,181429.10,18.000,,,,0.099,0.071,0.170*58
###2023-12-09 13:14:30.014272$GNZDA,181429.10,09,12,2023,00,00*77
###2023-12-09 13:14:30.014930$GNEBP,,,,,,M*13
###2023-12-09 13:14:30.175657$GNGGA,181429.30,4138.0369031,N,07032.3208371,W,1,24,0.7,13.069,M,-29.744,M,0.0,*5D
###2023-12-09 13:14:30.375976$GNGGA,181429.50,4138.0368669,N,07032.3205965,W,1,24,0.7,13.082,M,-29.744,M,0.0,*56
###2023-12-09 13:14:30.576869$GNGGA,181429.70,4138.0368399,N,07032.3203567,W,1,24,0.7,13.078,M,-29.744,M,0.0,*53
###2023-12-09 13:14:30.776597$GNGGA,181429.90,4138.0368274,N,07032.3201199,W,1,24,0.7,13.083,M,-29.744,M,0.0,*5C
###2023-12-09 13:14:30.978908$GNRMC,181430.10,A,4138.0368096,N,07032.3198752,W,3.38,96.79,091223,,,A*67
###2023-12-09 13:14:30.981760$GNGGA,181430.10,4138.0368096,N,07032.3198752,W,1,24,0.7,13.079,M,-29.744,M,0.0,*55
###2023-12-09 13:14:30.983561$GPGSA,A,3,03,04,16,26,28,29,31,,,,,,1.2,0.7,1.0*30
###2023-12-09 13:14:30.985276$GLGSA,A,3,65,71,72,73,74,75,,,,,,,1.2,0.7,1.0*2E
###2023-12-09 13:14:30.986875$GAGSA,A,3,04,19,21,27,,,,,,,,,1.2,0.7,1.0*2C
###2023-12-09 13:14:30.988592$GBGSA,A,3,14,24,25,26,33,35,,,,,,,1.2,0.7,1.0*23
###2023-12-09 13:14:30.990933$GPGSV,2,1,07,03,32,255,44,04,38,311,43,16,56,215,48,26,86,209,48*75
###2023-12-09 13:14:30.992972$GPGSV,2,2,07,28,45,076,43,29,24,055,42,31,65,050,47,,,,*4F
###2023-12-09 13:14:30.995312$GLGSV,2,1,06,65,29,325,40,71,34,174,45,72,71,246,47,73,31,045,43*6A
###2023-12-09 13:14:30.997061$GLGSV,2,2,06,74,66,353,42,75,36,259,48,,,,,,,,*66
###2023-12-09 13:14:30.999395$GAGSV,1,1,04,04,33,312,42,19,80,192,41,21,84,066,46,27,29,048,42*68
###2023-12-09 13:14:31.001734$GBGSV,2,1,06,14,37,191,44,24,69,035,47,25,45,267,46,26,22,066,41*6C
###2023-12-09 13:14:31.003494$GBGSV,2,2,06,33,53,226,47,35,15,065,42,,,,,,,,*69
###2023-12-09 13:14:31.004790$GNVTG,96.79,T,,M,3.38,N,6.26,K,A*18
###2023-12-09 13:14:31.006439$GNGST,181430.10,18.000,,,,0.099,0.071,0.170*50
###2023-12-09 13:14:31.007741$GNZDA,181430.10,09,12,2023,00,00*7F
###2023-12-09 13:14:31.008380$GNEBP,,,,,,M*13
###2023-12-09 13:14:31.175797$GNGGA,181430.30,4138.0367811,N,07032.3196313,W,1,24,0.7,13.068,M,-29.744,M,0.0,*50
###2023-12-09 13:14:31.375773$GNGGA,181430.50,4138.0367610,N,07032.3193957,W,1,24,0.7,13.071,M,-29.744,M,0.0,*5E
###2023-12-09 13:14:31.576404$GNGGA,181430.70,4138.0367461,N,07032.3191468,W,1,24,0.7,13.080,M,-29.744,M,0.0,*55
###2023-12-09 13:14:31.777335$GNGGA,181430.90,4138.0367077,N,07032.3189066,W,1,24,0.7,13.059,M,-29.744,M,0.0,*5F
###2023-12-09 13:14:31.979857$GNRMC,181431.10,A,4138.0366708,N,07032.3186744,W,3.25,100.12,091223,,,A*5F
###2023-12-09 13:14:31.982736$GNGGA,181431.10,4138.0366708,N,07032.3186744,W,1,24,0.7,13.072,M,-29.744,M,0.0,*59
###2023-12-09 13:14:31.984536$GPGSA,A,3,03,04,16,26,28,29,31,,,,,,1.2,0.7,1.0*30
###2023-12-09 13:14:31.986244$GLGSA,A,3,65,71,72,73,74,75,,,,,,,1.2,0.7,1.0*2E
###2023-12-09 13:14:31.987837$GAGSA,A,3,04,19,21,27,,,,,,,,,1.2,0.7,1.0*2C
###2023-12-09 13:14:31.989552$GBGSA,A,3,14,24,25,26,33,35,,,,,,,1.2,0.7,1.0*23
###2023-12-09 13:14:31.991882$GPGSV,2,1,07,03,32,255,43,04,38,311,43,16,56,215,47,26,86,209,48*7D
###2023-12-09 13:14:31.993924$GPGSV,2,2,07,28,45,076,44,29,24,055,43,31,65,050,47,,,,*49
###2023-12-09 13:14:31.996270$GLGSV,2,1,06,65,29,325,40,71,34,174,44,72,71,246,46,73,31,045,43*6A
###2023-12-09 13:14:31.998021$GLGSV,2,2,06,74,66,353,42,75,36,259,47,,,,,,,,*69
###2023-12-09 13:14:32.000360$GAGSV,1,1,04,04,33,312,41,19,80,192,41,21,84,066,46,27,29,048,42*6B
###2023-12-09 13:14:32.002702$GBGSV,2,1,06,14,37,191,43,24,69,035,48,25,45,267,46,26,22,066,42*67
###2023-12-09 13:14:32.004455$GBGSV,2,2,06,33,53,226,49,35,15,065,42,,,,,,,,*67
###2023-12-09 13:14:32.005774$GNVTG,100.12,T,,M,3.25,N,6.01,K,A*22
###2023-12-09 13:14:32.007434$GNGST,181431.10,18.000,,,,0.099,0.071,0.170*51
###2023-12-09 13:14:32.008727$GNZDA,181431.10,09,12,2023,00,00*7E
###2023-12-09 13:14:32.009365$GNEBP,,,,,,M*13
###2023-12-09 13:14:32.179207$GNGGA,181431.30,4138.0366372,N,07032.3184312,W,1,24,0.7,13.077,M,-29.744,M,0.0,*52
###2023-12-09 13:14:32.375884$GNGGA,181431.50,4138.0366026,N,07032.3181982,W,1,24,0.7,13.072,M,-29.744,M,0.0,*55
###2023-12-09 13:14:32.577678$GNGGA,181431.70,4138.0365630,N,07032.3179623,W,1,24,0.7,13.080,M,-29.744,M,0.0,*5B
###2023-12-09 13:14:32.776505$GNGGA,181431.90,4138.0365238,N,07032.3177235,W,1,24,0.7,13.071,M,-29.744,M,0.0,*5A
###2023-12-09 13:14:32.985658$GNRMC,181432.10,A,4138.0364943,N,07032.3174863,W,3.25,99.89,091223,,,A*6B
###2023-12-09 13:14:32.988554$GNGGA,181432.10,4138.0364943,N,07032.3174863,W,1,24,0.7,13.070,M,-29.744,M,0.0,*5C
###2023-12-09 13:14:32.990356$GPGSA,A,3,03,04,16,26,28,29,31,,,,,,1.2,0.7,1.0*30
###2023-12-09 13:14:32.992096$GLGSA,A,3,65,71,72,73,74,75,,,,,,,1.2,0.7,1.0*2E
###2023-12-09 13:14:32.993693$GAGSA,A,3,04,19,21,27,,,,,,,,,1.2,0.7,1.0*2C
###2023-12-09 13:14:32.995424$GBGSA,A,3,14,24,25,26,33,35,,,,,,,1.2,0.7,1.0*23
###2023-12-09 13:14:32.997763$GPGSV,2,1,07,03,32,255,43,04,38,311,43,16,56,215,47,26,86,209,48*7D
###2023-12-09 13:14:32.999827$GPGSV,2,2,07,28,45,076,44,29,24,055,42,31,65,050,46,,,,*49
###2023-12-09 13:14:33.002165$GLGSV,2,1,06,65,29,325,41,71,34,174,44,72,71,246,46,73,31,045,43*6B
###2023-12-09 13:14:33.003928$GLGSV,2,2,06,74,66,353,43,75,36,259,47,,,,,,,,*68
###2023-12-09 13:14:33.006261$GAGSV,1,1,04,04,33,312,41,19,80,192,41,21,84,066,46,27,29,048,42*6B
###2023-12-09 13:14:33.008595$GBGSV,2,1,06,14,37,191,44,24,69,035,49,25,45,267,48,26,22,066,44*69
###2023-12-09 13:14:33.010344$GBGSV,2,2,06,33,53,226,49,35,15,065,43,,,,,,,,*66
###2023-12-09 13:14:33.011649$GNVTG,99.89,T,,M,3.25,N,6.01,K,A*11
###2023-12-09 13:14:33.013297$GNGST,181432.10,18.000,,,,0.099,0.071,0.170*52
###2023-12-09 13:14:33.014606$GNZDA,181432.10,09,12,2023,00,00*7D
###2023-12-09 13:14:33.015249$GNEBP,,,,,,M*13
###2023-12-09 13:14:33.179270$GNGGA,181432.30,4138.0364628,N,07032.3172413,W,1,24,0.7,13.071,M,-29.744,M,0.0,*50
###2023-12-09 13:14:33.376589$GNGGA,181432.50,4138.0364447,N,07032.3169938,W,1,24,0.7,13.070,M,-29.744,M,0.0,*52
###2023-12-09 13:14:33.580656$GNGGA,181432.70,4138.0364149,N,07032.3167397,W,1,24,0.7,13.060,M,-29.744,M,0.0,*5B
###2023-12-09 13:14:33.781688$GNGGA,181432.90,4138.0364092,N,07032.3164904,W,1,24,0.7,13.062,M,-29.744,M,0.0,*53
###2023-12-09 13:14:33.981242$GNRMC,181433.10,A,4138.0364104,N,07032.3162335,W,3.50,93.38,091223,,,A*6C
###2023-12-09 13:14:33.984132$GNGGA,181433.10,4138.0364104,N,07032.3162335,W,1,24,0.7,13.078,M,-29.744,M,0.0,*51
###2023-12-09 13:14:33.985935$GPGSA,A,3,03,04,16,26,28,29,31,,,,,,1.2,0.7,1.0*30
###2023-12-09 13:14:33.987678$GLGSA,A,3,65,71,72,73,74,75,,,,,,,1.2,0.7,1.0*2E
###2023-12-09 13:14:33.989270$GAGSA,A,3,04,19,21,27,,,,,,,,,1.2,0.7,1.0*2C
###2023-12-09 13:14:33.991005$GBGSA,A,3,14,24,25,26,33,35,,,,,,,1.2,0.7,1.0*23
###2023-12-09 13:14:33.993340$GPGSV,2,1,07,03,32,255,43,04,38,311,44,16,56,215,47,26,86,209,48*7A
###2023-12-09 13:14:33.995397$GPGSV,2,2,07,28,45,076,43,29,24,055,42,31,65,050,47,,,,*4F
###2023-12-09 13:14:33.997743$GLGSV,2,1,06,65,29,325,41,71,34,174,45,72,71,246,46,73,31,045,43*6A
###2023-12-09 13:14:33.999512$GLGSV,2,2,06,74,66,353,43,75,36,259,48,,,,,,,,*67
###2023-12-09 13:14:34.001851$GAGSV,1,1,04,04,33,312,43,19,80,192,41,21,84,066,46,27,29,048,42*69
###2023-12-09 13:14:34.004200$GBGSV,2,1,06,14,37,191,45,24,69,035,49,25,45,267,46,26,22,066,44*66
###2023-12-09 13:14:34.005961$GBGSV,2,2,06,33,53,226,48,35,15,065,44,,,,,,,,*60
###2023-12-09 13:14:34.007271$GNVTG,93.38,T,,M,3.50,N,6.48,K,A*1E
###2023-12-09 13:14:34.008926$GNGST,181433.10,18.000,,,,0.098,0.071,0.170*52
###2023-12-09 13:14:34.010223$GNZDA,181433.10,09,12,2023,00,00*7C
###2023-12-09 13:14:34.010877$GNEBP,,,,,,M*13
###2023-12-09 13:14:34.175581$GNGGA,181433.30,4138.0363882,N,07032.3159728,W,1,24,0.7,13.055,M,-29.744,M,0.0,*5C
###2023-12-09 13:14:34.375735$GNGGA,181433.50,4138.0363856,N,07032.3157152,W,1,24,0.7,13.055,M,-29.744,M,0.0,*56
###2023-12-09 13:14:34.576530$GNGGA,181433.70,4138.0364067,N,07032.3154575,W,1,24,0.7,13.075,M,-29.744,M,0.0,*59
###2023-12-09 13:14:34.776516$GNGGA,181433.90,4138.0363891,N,07032.3151894,W,1,24,0.7,13.063,M,-29.744,M,0.0,*51
###2023-12-09 13:14:34.979787$GNRMC,181434.10,A,4138.0363788,N,07032.3149346,W,3.40,84.57,091223,,,A*6D
###2023-12-09 13:14:34.982643$GNGGA,181434.10,4138.0363788,N,07032.3149346,W,1,24,0.7,13.059,M,-29.744,M,0.0,*5D
###2023-12-09 13:14:34.984426$GPGSA,A,3,03,04,16,26,28,29,31,,,,,,1.2,0.7,1.0*30
###2023-12-09 13:14:34.986133$GLGSA,A,3,65,71,72,73,74,75,,,,,,,1.2,0.7,1.0*2E
###2023-12-09 13:14:34.987726$GAGSA,A,3,04,19,21,27,,,,,,,,,1.2,0.7,1.0*2C
###2023-12-09 13:14:34.989434$GBGSA,A,3,14,24,25,26,33,35,,,,,,,1.2,0.7,1.0*23
