###2023-12-09 12:39:01.738869$GNGGA,173900.90,4138.0534604,N,07032.3717559,W,1,23,0.7,13.563,M,-29.744,M,0.0,*5D
###2023-12-09 12:39:01.939237$GNRMC,173901.10,A,4138.0534689,N,07032.3718284,W,1.03,289.69,091223,,,A*55
###2023-12-09 12:39:01.942104$GNGGA,173901.10,4138.0534689,N,07032.3718284,W,1,23,0.7,13.566,M,-29.744,M,0.0,*5C
###2023-12-09 12:39:01.943979$GPGSA,A,3,03,04,16,26,28,29,31,32,,,,,1.2,0.7,1.0*31
###2023-12-09 12:39:01.945628$GLGSA,A,3,71,72,73,74,75,,,,,,,,1.2,0.7,1.0*2D
###2023-12-09 12:39:01.947253$GAGSA,A,3,04,19,21,27,,,,,,,,,1.2,0.7,1.0*2C
###2023-12-09 12:39:01.948930$GBGSA,A,3,14,24,25,26,33,,,,,,,,1.2,0.7,1.0*25
###2023-12-09 12:39:01.951280$GPGSV,2,1,08,03,38,275,42,04,23,311,39,16,38,208,45,26,68,207,47*7B
###2023-12-09 12:39:01.953622$GPGSV,2,2,08,28,57,058,45,29,25,072,42,31,73,007,46,32,28,135,45*74
###2023-12-09 12:39:01.955975$GLGSV,2,1,05,71,55,169,48,72,67,307,46,73,46,034,46,74,71,296,42*68
###2023-12-09 12:39:01.957432$GLGSV,2,2,05,75,23,242,42,,,,,,,,,,,,*51
###2023-12-09 12:39:01.959773$GAGSV,1,1,04,04,22,311,39,19,82,296,40,21,79,174,46,27,40,049,43*6C
###2023-12-09 12:39:01.962101$GBGSV,2,1,05,14,53,197,46,24,80,355,48,25,34,254,45,26,33,058,44*69
###2023-12-09 12:39:01.963569$GBGSV,2,2,05,33,63,252,47,,,,,,,,,,,,*5D
###2023-12-09 12:39:01.964890$GNVTG,289.69,T,,M,1.03,N,1.91,K,A*24
###2023-12-09 12:39:01.966537$GNGST,173901.10,19.000,,,,0.081,0.071,0.170*5A
###2023-12-09 12:39:01.967857$GNZDA,173901.10,09,12,2023,00,00*7D
###2023-12-09 12:39:01.968495$GNEBP,,,,,,M*13
###2023-12-09 12:39:02.138971$GNGGA,173901.30,4138.0534896,N,07032.3719062,W,1,23,0.7,13.592,M,-29.744,M,0.0,*5E
###2023-12-09 12:39:02.339193$GNGGA,173901.50,4138.0535015,N,07032.3719820,W,1,23,0.7,13.617,M,-29.744,M,0.0,*5A
###2023-12-09 12:39:02.541019$GNGGA,173901.70,4138.0534933,N,07032.3720428,W,1,23,0.7,13.630,M,-29.744,M,0.0,*5F
###2023-12-09 12:39:02.738661$GNGGA,173901.90,4138.0534690,N,07032.3720908,W,1,23,0.7,13.608,M,-29.744,M,0.0,*53
###2023-12-09 12:39:02.941982$GNRMC,173902.10,A,4138.0534629,N,07032.3721514,W,0.99,284.31,091223,,,A*5A
###2023-12-09 12:39:02.944856$GNGGA,173902.10,4138.0534629,N,07032.3721514,W,1,23,0.7,13.585,M,-29.744,M,0.0,*5C
###2023-12-09 12:39:02.946746$GPGSA,A,3,03,04,16,26,28,29,31,32,,,,,1.2,0.7,1.0*31
###2023-12-09 12:39:02.948423$GLGSA,A,3,71,72,73,74,75,,,,,,,,1.2,0.7,1.0*2D
###2023-12-09 12:39:02.950012$GAGSA,A,3,04,19,21,27,,,,,,,,,1.2,0.7,1.0*2C
###2023-12-09 12:39:02.951678$GBGSA,A,3,14,24,25,26,33,,,,,,,,1.2,0.7,1.0*25
###2023-12-09 12:39:02.954016$GPGSV,2,1,08,03,38,275,41,04,23,311,37,16,38,208,44,26,68,207,47*77
###2023-12-09 12:39:02.956383$GPGSV,2,2,08,28,57,058,44,29,25,072,43,31,73,007,46,32,28,135,47*76
###2023-12-09 12:39:02.958742$GLGSV,2,1,05,71,55,169,48,72,67,307,45,73,46,034,45,74,71,296,42*68
###2023-12-09 12:39:02.960200$GLGSV,2,2,05,75,23,242,40,,,,,,,,,,,,*53
###2023-12-09 12:39:02.962522$GAGSV,1,1,04,04,22,311,36,19,82,296,40,21,79,174,46,27,40,049,43*63
###2023-12-09 12:39:02.964877$GBGSV,2,1,05,14,53,197,45,24,80,355,48,25,34,254,43,26,33,058,45*6D
###2023-12-09 12:39:02.966340$GBGSV,2,2,05,33,63,252,46,,,,,,,,,,,,*5C
###2023-12-09 12:39:02.967681$GNVTG,284.31,T,,M,0.99,N,1.84,K,A*22
###2023-12-09 12:39:02.969332$GNGST,173902.10,18.000,,,,0.082,0.071,0.170*5B
###2023-12-09 12:39:02.970632$GNZDA,173902.10,09,12,2023,00,00*7E
###2023-12-09 12:39:02.971274$GNEBP,,,,,,M*13
###2023-12-09 12:39:03.140187$GNGGA,173902.30,4138.0534929,N,07032.3722370,W,1,23,0.7,13.610,M,-29.744,M,0.0,*59
###2023-12-09 12:39:03.339327$GNGGA,173902.50,4138.0535104,N,07032.3723135,W,1,23,0.7,13.625,M,-29.744,M,0.0,*5D
###2023-12-09 12:39:03.540633$GNGGA,173902.70,4138.0534884,N,07032.3723536,W,1,23,0.7,13.637,M,-29.744,M,0.0,*5B
###2023-12-09 12:39:03.738806$GNGGA,173902.90,4138.0534615,N,07032.3723829,W,1,23,0.7,13.622,M,-29.744,M,0.0,*54
###2023-12-09 12:39:03.940838$GNRMC,173903.10,A,4138.0534680,N,07032.3724491,W,1.19,290.53,091223,,,A*59
###2023-12-09 12:39:03.943697$GNGGA,173903.10,4138.0534680,N,07032.3724491,W,1,23,0.7,13.619,M,-29.744,M,0.0,*51
###2023-12-09 12:39:03.945560$GPGSA,A,3,03,04,16,26,28,29,31,32,,,,,1.2,0.7,1.0*31
###2023-12-09 12:39:03.947240$GLGSA,A,3,71,72,73,74,75,,,,,,,,1.2,0.7,1.0*2D
###2023-12-09 12:39:03.948839$GAGSA,A,3,04,19,21,27,,,,,,,,,1.2,0.7,1.0*2C
###2023-12-09 12:39:03.950488$GBGSA,A,3,14,24,25,26,33,,,,,,,,1.2,0.7,1.0*25
###2023-12-09 12:39:03.952831$GPGSV,2,1,08,03,38,275,42,04,23,311,39,16,38,208,45,26,68,207,46*7A
###2023-12-09 12:39:03.955186$GPGSV,2,2,08,28,57,058,45,29,25,072,43,31,73,007,46,32,28,135,46*76
###2023-12-09 12:39:03.957533$GLGSV,2,1,05,71,55,169,49,72,67,307,45,73,46,034,45,74,71,296,41*6A
###2023-12-09 12:39:03.959022$GLGSV,2,2,05,75,23,242,40,,,,,,,,,,,,*53
###2023-12-09 12:39:03.961358$GAGSV,1,1,04,04,22,311,38,19,82,296,40,21,79,174,46,27,40,049,44*6A
###2023-12-09 12:39:03.963710$GBGSV,2,1,05,14,53,197,45,24,80,355,48,25,34,254,43,26,33,058,45*6D
###2023-12-09 12:39:03.965175$GBGSV,2,2,05,33,62,250,46,,,,,,,,,,,,*5F
###2023-12-09 12:39:03.966498$GNVTG,290.53,T,,M,1.19,N,2.20,K,A*27
###2023-12-09 12:39:03.968158$GNGST,173903.10,18.000,,,,0.082,0.072,0.170*59
###2023-12-09 12:39:03.969457$GNZDA,173903.10,09,12,2023,00,00*7F
###2023-12-09 12:39:03.970096$GNEBP,,,,,,M*13
###2023-12-09 12:39:04.140312$GNGGA,173903.30,4138.0534915,N,07032.3725352,W,1,23,0.7,13.628,M,-29.744,M,0.0,*5B
###2023-12-09 12:39:04.340319$GNGGA,173903.50,4138.0534974,N,07032.3725979,W,1,23,0.7,13.630,M,-29.744,M,0.0,*50
###2023-12-09 12:39:04.539544$GNGGA,173903.70,4138.0534774,N,07032.3726276,W,1,23,0.7,13.637,M,-29.744,M,0.0,*5C
###2023-12-09 12:39:04.738913$GNGGA,173903.90,4138.0534571,N,07032.3726567,W,1,23,0.7,13.622,M,-29.744,M,0.0,*56
###2023-12-09 12:39:04.940169$GNRMC,173904.10,A,4138.0534620,N,07032.3727167,W,1.13,291.28,091223,,,A*5C
###2023-12-09 12:39:04.943039$GNGGA,173904.10,4138.0534620,N,07032.3727167,W,1,23,0.7,13.628,M,-29.744,M,0.0,*51
###2023-12-09 12:39:04.944895$GPGSA,A,3,03,04,16,26,28,29,31,32,,,,,1.2,0.7,1.0*31
###2023-12-09 12:39:04.946553$GLGSA,A,3,71,72,73,74,75,,,,,,,,1.2,0.7,1.0*2D
###2023-12-09 12:39:04.948189$GAGSA,A,3,04,19,21,27,,,,,,,,,1.2,0.7,1.0*2C
###2023-12-09 12:39:04.949858$GBGSA,A,3,14,24,25,26,33,,,,,,,,1.2,0.7,1.0*25
###2023-12-09 12:39:04.952208$GPGSV,2,1,08,03,38,275,41,04,23,311,41,16,38,208,43,26,68,207,47*71
###2023-12-09 12:39:04.954548$GPGSV,2,2,08,28,57,058,45,29,25,072,44,31,73,007,47,32,28,135,45*73
###2023-12-09 12:39:04.956896$GLGSV,2,1,05,71,55,169,48,72,67,307,45,73,46,034,46,74,71,296,42*6B
###2023-12-09 12:39:04.958357$GLGSV,2,2,05,75,23,242,39,,,,,,,,,,,,*5D
###2023-12-09 12:39:04.960699$GAGSV,1,1,04,04,22,311,38,19,82,296,40,21,79,174,46,27,40,049,44*6A
###2023-12-09 12:39:04.963038$GBGSV,2,1,05,14,53,197,45,24,80,355,48,25,34,254,43,26,33,058,46*6E
###2023-12-09 12:39:04.964484$GBGSV,2,2,05,33,62,250,46,,,,,,,,,,,,*5F
###2023-12-09 12:39:04.965803$GNVTG,291.28,T,,M,1.13,N,2.09,K,A*2B
###2023-12-09 12:39:04.967462$GNGST,173904.10,18.000,,,,0.081,0.071,0.170*5E
###2023-12-09 12:39:04.968754$GNZDA,173904.10,09,12,2023,00,00*78
###2023-12-09 12:39:04.969388$GNEBP,,,,,,M*13
###2023-12-09 12:39:05.138866$GNGGA,173904.30,4138.0534857,N,07032.3727993,W,1,23,0.7,13.641,M,-29.744,M,0.0,*51
###2023-12-09 12:39:05.341432$GNGGA,173904.50,4138.0534922,N,07032.3728616,W,1,23,0.7,13.650,M,-29.744,M,0.0,*59
###2023-12-09 12:39:05.539649$GNGGA,173904.70,4138.0534780,N,07032.3728946,W,1,23,0.7,13.649,M,-29.744,M,0.0,*5F
###2023-12-09 12:39:05.738943$GNGGA,173904.90,4138.0534605,N,07032.3729206,W,1,23,0.7,13.624,M,-29.744,M,0.0,*58
###2023-12-09 12:39:05.940730$GNRMC,173905.10,A,4138.0534628,N,07032.3729759,W,0.95,288.22,091223,,,A*5D
###2023-12-09 12:39:05.943592$GNGGA,173905.10,4138.0534628,N,07032.3729759,W,1,23,0.7,13.623,M,-29.744,M,0.0,*56
###2023-12-09 12:39:05.945445$GPGSA,A,3,03,04,16,26,28,29,31,32,,,,,1.2,0.7,1.0*31
###2023-12-09 12:39:05.947120$GLGSA,A,3,71,72,73,74,75,,,,,,,,1.2,0.7,1.0*2D
###2023-12-09 12:39:05.948736$GAGSA,A,3,04,19,21,27,,,,,,,,,1.2,0.7,1.0*2C
###2023-12-09 12:39:05.950379$GBGSA,A,3,14,24,25,26,33,,,,,,,,1.2,0.7,1.0*25
###2023-12-09 12:39:05.952967$GPGSV,2,1,08,03,38,275,42,04,23,311,40,16,38,208,42,26,68,207,46*73
###2023-12-09 12:39:05.955326$GPGSV,2,2,08,28,57,058,45,29,25,072,44,31,73,007,47,32,28,135,45*73
###2023-12-09 12:39:05.957659$GLGSV,2,1,05,71,55,169,49,72,67,307,45,73,46,034,46,74,71,296,42*6A
###2023-12-09 12:39:05.959130$GLGSV,2,2,05,75,23,242,39,,,,,,,,,,,,*5D
###2023-12-09 12:39:05.961452$GAGSV,1,1,04,04,22,311,40,19,82,296,40,21,79,174,46,27,40,049,44*65
###2023-12-09 12:39:05.963792$GBGSV,2,1,05,14,53,197,45,24,80,355,48,25,34,254,43,26,33,058,45*6D
###2023-12-09 12:39:05.965242$GBGSV,2,2,05,33,62,250,46,,,,,,,,,,,,*5F
###2023-12-09 12:39:05.966559$GNVTG,288.22,T,,M,0.95,N,1.76,K,A*2D
###2023-12-09 12:39:05.968222$GNGST,173905.10,18.000,,,,0.081,0.071,0.170*5F
