###2023-12-09 12:30:26.325354$GNGGA,173025.50,4138.0382799,N,07032.4369254,W,1,17,0.7,13.306,M,-29.746,M,0.0,*51
###2023-12-09 12:30:26.525328$GNGGA,173025.70,4138.0382787,N,07032.4369207,W,1,17,0.7,13.316,M,-29.746,M,0.0,*5B
###2023-12-09 12:30:26.723423$GNGGA,173025.90,4138.0382773,N,07032.4369174,W,1,17,0.7,13.323,M,-29.746,M,0.0,*5F
###2023-12-09 12:30:26.927202$GNRMC,173026.10,A,4138.0382757,N,07032.4369141,W,0.02,,091223,,,A*4D
###2023-12-09 12:30:26.930075$GNGGA,173026.10,4138.0382757,N,07032.4369141,W,1,17,0.7,13.328,M,-29.746,M,0.0,*5F
###2023-12-09 12:30:26.931975$GPGSA,A,3,03,04,16,26,28,29,31,32,,,,,1.4,0.7,1.2*35
###2023-12-09 12:30:26.933578$GLGSA,A,3,71,72,73,75,,,,,,,,,1.4,0.7,1.2*2A
###2023-12-09 12:30:26.935058$GAGSA,A,3,21,27,,,,,,,,,,,1.4,0.7,1.2*24
###2023-12-09 12:30:26.936596$GBGSA,A,3,14,25,26,,,,,,,,,,1.4,0.7,1.2*27
###2023-12-09 12:30:26.938952$GPGSV,2,1,08,03,39,280,39,04,20,310,36,16,34,206,39,26,64,206,44*76
###2023-12-09 12:30:26.941305$GPGSV,2,2,08,28,60,053,44,29,25,076,43,31,73,353,42,32,32,133,48*79
###2023-12-09 12:30:26.943667$GLGSV,1,1,04,71,59,168,48,72,64,313,41,73,50,032,44,75,20,239,39*69
###2023-12-09 12:30:26.945427$GAGSV,1,1,02,21,76,178,38,27,43,050,44,,,,,,,,*6A
###2023-12-09 12:30:26.947500$GBGSV,1,1,03,14,57,199,44,25,31,251,39,26,36,056,44,,,,*55
###2023-12-09 12:30:26.948659$GNVTG,,T,,M,0.02,N,0.04,K,A*3B
###2023-12-09 12:30:26.950319$GNGST,173026.10,31.000,,,,0.110,0.120,0.290*5D
###2023-12-09 12:30:26.951646$GNZDA,173026.10,09,12,2023,00,00*71
###2023-12-09 12:30:26.952303$GNEBP,,,,,,M*13
###2023-12-09 12:30:27.126924$GNGGA,173026.30,4138.0382736,N,07032.4369075,W,1,17,0.7,13.334,M,-29.746,M,0.0,*51
###2023-12-09 12:30:27.325158$GNGGA,173026.50,4138.0382741,N,07032.4369040,W,1,17,0.7,13.339,M,-29.746,M,0.0,*5C
###2023-12-09 12:30:27.524345$GNGGA,173026.70,4138.0382716,N,07032.4368988,W,1,18,0.7,13.345,M,-29.746,M,0.0,*54
###2023-12-09 12:30:27.723397$GNGGA,173026.90,4138.0382698,N,07032.4368962,W,1,18,0.7,13.344,M,-29.746,M,0.0,*58
###2023-12-09 12:30:27.925276$GNRMC,173027.10,A,4138.0382685,N,07032.4368927,W,0.04,,091223,,,A*4D
###2023-12-09 12:30:27.928202$GNGGA,173027.10,4138.0382685,N,07032.4368927,W,1,18,0.7,13.346,M,-29.746,M,0.0,*5E
###2023-12-09 12:30:27.930089$GPGSA,A,3,03,04,16,26,28,29,31,32,,,,,1.4,0.7,1.2*35
###2023-12-09 12:30:27.931715$GLGSA,A,3,71,72,73,75,,,,,,,,,1.4,0.7,1.2*2A
###2023-12-09 12:30:27.933191$GAGSA,A,3,21,27,,,,,,,,,,,1.4,0.7,1.2*24
###2023-12-09 12:30:27.934797$GBGSA,A,3,14,25,26,33,,,,,,,,,1.4,0.7,1.2*27
###2023-12-09 12:30:27.937144$GPGSV,2,1,08,03,39,280,39,04,20,310,36,16,34,206,39,26,64,206,44*76
###2023-12-09 12:30:27.939497$GPGSV,2,2,08,28,60,053,44,29,25,076,43,31,73,353,42,32,32,133,47*76
###2023-12-09 12:30:27.941841$GLGSV,1,1,04,71,59,168,48,72,64,313,41,73,50,032,45,75,20,239,39*68
###2023-12-09 12:30:27.943615$GAGSV,1,1,02,21,76,178,39,27,43,050,44,,,,,,,,*6B
###2023-12-09 12:30:27.945956$GBGSV,1,1,04,14,57,199,44,25,31,251,39,26,36,056,44,33,63,258,35*6E
###2023-12-09 12:30:27.947130$GNVTG,,T,,M,0.04,N,0.07,K,A*3E
###2023-12-09 12:30:27.948809$GNGST,173027.10,31.000,,,,0.110,0.120,0.290*5C
###2023-12-09 12:30:27.950120$GNZDA,173027.10,09,12,2023,00,00*70
###2023-12-09 12:30:27.950795$GNEBP,,,,,,M*13
###2023-12-09 12:30:28.125157$GNGGA,173027.30,4138.0382661,N,07032.4368882,W,1,18,0.7,13.347,M,-29.746,M,0.0,*59
###2023-12-09 12:30:28.324464$GNGGA,173027.50,4138.0382648,N,07032.4368843,W,1,18,0.7,13.358,M,-29.746,M,0.0,*57
###2023-12-09 12:30:28.523542$GNGGA,173027.70,4138.0382629,N,07032.4368815,W,1,18,0.7,13.363,M,-29.746,M,0.0,*59
###2023-12-09 12:30:28.723940$GNGGA,173027.90,4138.0382630,N,07032.4368756,W,1,18,0.7,13.372,M,-29.746,M,0.0,*57
###2023-12-09 12:30:28.927228$GNRMC,173028.10,A,4138.0382608,N,07032.4368692,W,0.02,,091223,,,A*40
###2023-12-09 12:30:28.931038$GNGGA,173028.10,4138.0382608,N,07032.4368692,W,1,18,0.7,13.387,M,-29.746,M,0.0,*58
###2023-12-09 12:30:28.933345$GPGSA,A,3,03,04,16,26,28,29,31,32,,,,,1.4,0.7,1.2*35
###2023-12-09 12:30:28.935376$GLGSA,A,3,71,72,73,75,,,,,,,,,1.4,0.7,1.2*2A
###2023-12-09 12:30:28.937187$GAGSA,A,3,21,27,,,,,,,,,,,1.4,0.7,1.2*24
###2023-12-09 12:30:28.939165$GBGSA,A,3,14,25,26,33,,,,,,,,,1.4,0.7,1.2*27
###2023-12-09 12:30:28.942016$GPGSV,2,1,08,03,39,280,40,04,20,310,36,16,34,206,39,26,64,206,44*78
###2023-12-09 12:30:28.944887$GPGSV,2,2,08,28,60,053,45,29,25,076,43,31,73,353,42,32,32,133,48*78
###2023-12-09 12:30:28.947786$GLGSV,1,1,04,71,59,168,48,72,64,313,41,73,50,032,45,75,20,239,39*68
###2023-12-09 12:30:28.949990$GAGSV,1,1,02,21,76,178,38,27,43,050,44,,,,,,,,*6A
###2023-12-09 12:30:28.952882$GBGSV,1,1,04,14,57,199,45,25,31,251,39,26,36,056,45,33,63,258,35*6E
###2023-12-09 12:30:28.954308$GNVTG,,T,,M,0.02,N,0.04,K,A*3B
###2023-12-09 12:30:28.956354$GNGST,173028.10,31.000,,,,0.110,0.120,0.290*53
###2023-12-09 12:30:28.957961$GNZDA,173028.10,09,12,2023,00,00*7F
###2023-12-09 12:30:28.958803$GNEBP,,,,,,M*13
###2023-12-09 12:30:29.125579$GNGGA,173028.30,4138.0382583,N,07032.4368620,W,1,18,0.7,13.408,M,-29.746,M,0.0,*53
###2023-12-09 12:30:29.327245$GNGGA,173028.50,4138.0382562,N,07032.4368552,W,1,18,0.7,13.428,M,-29.746,M,0.0,*5E
###2023-12-09 12:30:29.525837$GNGGA,173028.70,4138.0382544,N,07032.4368494,W,1,18,0.7,13.437,M,-29.746,M,0.0,*5D
###2023-12-09 12:30:29.724671$GNGGA,173028.90,4138.0382514,N,07032.4368408,W,1,18,0.7,13.463,M,-29.746,M,0.0,*52
###2023-12-09 12:30:29.926741$GNRMC,173029.10,A,4138.0382480,N,07032.4368329,W,0.04,,091223,,,A*40
###2023-12-09 12:30:29.930543$GNGGA,173029.10,4138.0382480,N,07032.4368329,W,1,18,0.7,13.486,M,-29.746,M,0.0,*58
###2023-12-09 12:30:29.933077$GPGSA,A,3,03,04,16,26,28,29,31,32,,,,,1.4,0.7,1.2*35
###2023-12-09 12:30:29.935074$GLGSA,A,3,71,72,73,75,,,,,,,,,1.4,0.7,1.2*2A
###2023-12-09 12:30:29.936879$GAGSA,A,3,21,27,,,,,,,,,,,1.4,0.7,1.2*24
###2023-12-09 12:30:29.938854$GBGSA,A,3,14,25,26,33,,,,,,,,,1.4,0.7,1.2*27
###2023-12-09 12:30:29.941701$GPGSV,2,1,08,03,39,280,40,04,20,310,36,16,34,206,39,26,64,206,44*78
###2023-12-09 12:30:29.944568$GPGSV,2,2,08,28,60,053,44,29,25,076,44,31,73,353,42,32,32,133,48*7E
###2023-12-09 12:30:29.947699$GLGSV,1,1,04,71,59,168,49,72,64,313,40,73,50,032,45,75,20,239,39*68
###2023-12-09 12:30:29.950547$GAGSV,1,1,02,21,76,178,38,27,43,050,44,,,,,,,,*6A
###2023-12-09 12:30:29.953504$GBGSV,1,1,04,14,57,199,44,25,31,251,39,26,36,056,45,33,63,258,35*6F
###2023-12-09 12:30:29.954981$GNVTG,,T,,M,0.04,N,0.07,K,A*3E
###2023-12-09 12:30:29.957016$GNGST,173029.10,31.000,,,,0.110,0.120,0.280*53
###2023-12-09 12:30:29.958646$GNZDA,173029.10,09,12,2023,00,00*7E
###2023-12-09 12:30:29.959504$GNEBP,,,,,,M*13
###2023-12-09 12:30:30.132916$GNGGA,173029.30,4138.0382458,N,07032.4368280,W,1,18,0.7,13.502,M,-29.746,M,0.0,*50
###2023-12-09 12:30:30.330005$GNGGA,173029.50,4138.0382418,N,07032.4368215,W,1,18,0.7,13.521,M,-29.746,M,0.0,*5F
###2023-12-09 12:30:30.525244$GNGGA,173029.70,4138.0382382,N,07032.4368173,W,1,18,0.7,13.537,M,-29.746,M,0.0,*5D
###2023-12-09 12:30:30.724586$GNGGA,173029.90,4138.0382342,N,07032.4368132,W,1,18,0.7,13.557,M,-29.746,M,0.0,*5C
###2023-12-09 12:30:30.929107$GNRMC,173030.10,A,4138.0382314,N,07032.4368086,W,0.04,,091223,,,A*44
###2023-12-09 12:30:30.932302$GNGGA,173030.10,4138.0382314,N,07032.4368086,W,1,18,0.7,13.571,M,-29.746,M,0.0,*55
###2023-12-09 12:30:30.934223$GPGSA,A,3,03,04,16,26,28,29,31,32,,,,,1.4,0.7,1.2*35
###2023-12-09 12:30:30.935874$GLGSA,A,3,71,72,73,75,,,,,,,,,1.4,0.7,1.2*2A
###2023-12-09 12:30:30.937377$GAGSA,A,3,21,27,,,,,,,,,,,1.4,0.7,1.2*24
###2023-12-09 12:30:30.939015$GBGSA,A,3,14,25,26,33,,,,,,,,,1.4,0.7,1.2*27
###2023-12-09 12:30:30.941394$GPGSV,2,1,08,03,39,280,40,04,20,310,36,16,34,206,39,26,64,206,44*78
###2023-12-09 12:30:30.943789$GPGSV,2,2,08,28,60,053,44,29,25,076,44,31,73,353,42,32,32,133,48*7E
###2023-12-09 12:30:30.946169$GLGSV,1,1,04,71,59,168,49,72,64,313,40,73,50,032,45,75,20,239,39*68
###2023-12-09 12:30:30.947991$GAGSV,1,1,02,21,76,178,39,27,43,050,45,,,,,,,,*6A
###2023-12-09 12:30:30.950381$GBGSV,1,1,04,14,57,199,44,25,31,251,38,26,36,056,45,33,63,258,35*6E
###2023-12-09 12:30:30.951623$GNVTG,,T,,M,0.04,N,0.07,K,A*3E
###2023-12-09 12:30:30.953581$GNGST,173030.10,31.000,,,,0.100,0.110,0.280*59
###2023-12-09 12:30:30.954955$GNZDA,173030.10,09,12,2023,00,00*76
###2023-12-09 12:30:30.955647$GNEBP,,,,,,M*13
###2023-12-09 12:30:31.125568$GNGGA,173030.30,4138.0382288,N,07032.4368046,W,1,18,0.7,13.586,M,-29.746,M,0.0,*57
###2023-12-09 12:30:31.324435$GNGGA,173030.50,4138.0382239,N,07032.4367987,W,1,18,0.7,13.610,M,-29.746,M,0.0,*5C
###2023-12-09 12:30:31.524377$GNGGA,173030.70,4138.0382200,N,07032.4367936,W,1,18,0.7,13.625,M,-29.746,M,0.0,*58
###2023-12-09 12:30:31.723487$GNGGA,173030.90,4138.0382167,N,07032.4367889,W,1,18,0.7,13.645,M,-29.746,M,0.0,*57
###2023-12-09 12:30:31.925247$GNRMC,173031.10,A,4138.0382131,N,07032.4367852,W,0.02,,091223,,,A*48
###2023-12-09 12:30:31.928195$GNGGA,173031.10,4138.0382131,N,07032.4367852,W,1,18,0.7,13.669,M,-29.746,M,0.0,*55
