###2023-12-09 13:40:51.022020$GAGSV,1,1,04,04,41,309,44,19,69,180,40,21,74,044,45,27,20,051,41*6A
###2023-12-09 13:40:51.024401$GBGSV,2,1,06,12,17,124,40,14,26,189,41,24,60,049,47,25,53,279,48*63
###2023-12-09 13:40:51.026154$GBGSV,2,2,06,33,43,215,47,35,16,054,43,,,,,,,,*68
###2023-12-09 13:40:51.027492$GNVTG,243.13,T,,M,0.10,N,0.18,K,A*2C
###2023-12-09 13:40:51.029094$GNGST,184050.10,5.500,,,,0.090,0.076,0.170*60
###2023-12-09 13:40:51.030382$GNZDA,184050.10,09,12,2023,00,00*78
###2023-12-09 13:40:51.031039$GNEBP,,,,,,M*13
###2023-12-09 13:40:51.203450$GNGGA,184050.30,4138.0266190,N,07032.3886719,W,1,23,0.6,13.403,M,-29.745,M,0.0,*5F
###2023-12-09 13:40:51.397491$GNGGA,184050.50,4138.0266223,N,07032.3886481,W,1,24,0.6,13.362,M,-29.745,M,0.0,*57
###2023-12-09 13:40:51.598304$GNGGA,184050.70,4138.0266177,N,07032.3886722,W,1,24,0.6,13.364,M,-29.745,M,0.0,*5B
###2023-12-09 13:40:51.800229$GNGGA,184050.90,4138.0266112,N,07032.3887184,W,1,24,0.6,13.383,M,-29.745,M,0.0,*54
###2023-12-09 13:40:52.003732$GNRMC,184051.10,A,4138.0266097,N,07032.3887363,W,0.08,243.13,091223,,,A*58
###2023-12-09 13:40:52.006602$GNGGA,184051.10,4138.0266097,N,07032.3887363,W,1,23,0.6,13.408,M,-29.745,M,0.0,*59
###2023-12-09 13:40:52.008394$GPGSA,A,3,04,16,26,27,28,29,31,,,,,,1.2,0.6,1.0*37
###2023-12-09 13:40:52.010103$GLGSA,A,3,65,71,72,73,74,75,,,,,,,1.2,0.6,1.0*2F
###2023-12-09 13:40:52.011701$GAGSA,A,3,04,19,21,27,,,,,,,,,1.2,0.6,1.0*2D
###2023-12-09 13:40:52.013420$GBGSA,A,3,12,14,24,25,33,35,,,,,,,1.2,0.6,1.0*25
###2023-12-09 13:40:52.015763$GPGSV,2,1,07,04,48,306,46,16,69,225,46,26,81,040,48,27,19,172,38*7A
###2023-12-09 13:40:52.017810$GPGSV,2,2,07,28,36,087,44,29,19,045,42,31,58,070,45,,,,*43
###2023-12-09 13:40:52.020159$GLGSV,2,1,06,65,41,315,45,71,19,176,39,72,59,216,45,73,20,054,41*6B
###2023-12-09 13:40:52.021911$GLGSV,2,2,06,74,57,019,42,75,45,276,49,,,,,,,,*61
###2023-12-09 13:40:52.024259$GAGSV,1,1,04,04,41,309,45,19,69,180,40,21,74,044,45,27,20,051,41*6B
###2023-12-09 13:40:52.026610$GBGSV,2,1,06,12,17,124,40,14,26,189,39,24,60,049,47,25,53,279,49*6D
###2023-12-09 13:40:52.028360$GBGSV,2,2,06,33,43,215,46,35,16,054,43,,,,,,,,*69
###2023-12-09 13:40:52.029683$GNVTG,243.13,T,,M,0.08,N,0.14,K,A*29
###2023-12-09 13:40:52.031309$GNGST,184051.10,6.000,,,,0.090,0.076,0.170*67
###2023-12-09 13:40:52.032603$GNZDA,184051.10,09,12,2023,00,00*79
###2023-12-09 13:40:52.033243$GNEBP,,,,,,M*13
###2023-12-09 13:40:52.199361$GNGGA,184051.30,4138.0266116,N,07032.3887120,W,1,23,0.6,13.427,M,-29.745,M,0.0,*5B
###2023-12-09 13:40:52.399673$GNGGA,184051.50,4138.0266117,N,07032.3886936,W,1,24,0.6,13.404,M,-29.745,M,0.0,*54
###2023-12-09 13:40:52.598374$GNGGA,184051.70,4138.0266112,N,07032.3887191,W,1,24,0.6,13.387,M,-29.745,M,0.0,*5B
###2023-12-09 13:40:52.798827$GNGGA,184051.90,4138.0266072,N,07032.3887482,W,1,24,0.6,13.390,M,-29.745,M,0.0,*53
###2023-12-09 13:40:53.003794$GNRMC,184052.10,A,4138.0266042,N,07032.3887609,W,0.14,243.13,091223,,,A*57
###2023-12-09 13:40:53.006676$GNGGA,184052.10,4138.0266042,N,07032.3887609,W,1,24,0.6,13.411,M,-29.745,M,0.0,*54
###2023-12-09 13:40:53.008475$GPGSA,A,3,04,16,26,27,28,29,31,,,,,,1.2,0.6,1.0*37
###2023-12-09 13:40:53.010255$GLGSA,A,3,65,71,72,73,74,75,83,,,,,,1.2,0.6,1.0*24
###2023-12-09 13:40:53.011858$GAGSA,A,3,04,19,21,27,,,,,,,,,1.2,0.6,1.0*2D
###2023-12-09 13:40:53.013588$GBGSA,A,3,12,14,24,25,33,35,,,,,,,1.2,0.6,1.0*25
###2023-12-09 13:40:53.015943$GPGSV,2,1,07,04,48,306,47,16,69,225,46,26,81,040,47,27,19,172,40*7B
###2023-12-09 13:40:53.017992$GPGSV,2,2,07,28,36,087,44,29,19,045,43,31,58,070,46,,,,*41
###2023-12-09 13:40:53.020342$GLGSV,2,1,07,65,41,315,45,71,19,176,39,72,59,216,46,73,20,054,42*6A
###2023-12-09 13:40:53.022389$GLGSV,2,2,07,74,57,019,42,75,45,276,49,83,16,045,36,,,,*58
###2023-12-09 13:40:53.024742$GAGSV,1,1,04,04,41,309,45,19,69,180,40,21,74,044,45,27,20,051,41*6B
###2023-12-09 13:40:53.027096$GBGSV,2,1,06,12,17,124,41,14,26,189,39,24,60,049,48,25,53,279,49*63
###2023-12-09 13:40:53.028848$GBGSV,2,2,06,33,43,215,46,35,16,054,44,,,,,,,,*6E
###2023-12-09 13:40:53.030174$GNVTG,243.13,T,,M,0.14,N,0.25,K,A*26
###2023-12-09 13:40:53.031812$GNGST,184052.10,6.200,,,,0.089,0.077,0.170*6F
###2023-12-09 13:40:53.033109$GNZDA,184052.10,09,12,2023,00,00*7A
###2023-12-09 13:40:53.033750$GNEBP,,,,,,M*13
###2023-12-09 13:40:53.198245$GNGGA,184052.30,4138.0266039,N,07032.3887643,W,1,24,0.6,13.449,M,-29.745,M,0.0,*59
###2023-12-09 13:40:53.399402$GNGGA,184052.50,4138.0266046,N,07032.3887510,W,1,24,0.6,13.425,M,-29.745,M,0.0,*58
###2023-12-09 13:40:53.599383$GNGGA,184052.70,4138.0266048,N,07032.3887490,W,1,24,0.6,13.390,M,-29.745,M,0.0,*54
###2023-12-09 13:40:53.799612$GNGGA,184052.90,4138.0266012,N,07032.3887877,W,1,24,0.6,13.406,M,-29.745,M,0.0,*58
###2023-12-09 13:40:54.002637$GNRMC,184053.10,A,4138.0265979,N,07032.3888258,W,0.23,243.13,091223,,,A*5F
###2023-12-09 13:40:54.005498$GNGGA,184053.10,4138.0265979,N,07032.3888258,W,1,24,0.6,13.417,M,-29.745,M,0.0,*5E
###2023-12-09 13:40:54.007313$GPGSA,A,3,04,16,26,27,28,29,31,,,,,,1.1,0.6,0.9*3C
###2023-12-09 13:40:54.009090$GLGSA,A,3,65,71,72,73,74,75,83,,,,,,1.1,0.6,0.9*2F
###2023-12-09 13:40:54.010681$GAGSA,A,3,04,19,21,27,,,,,,,,,1.1,0.6,0.9*26
###2023-12-09 13:40:54.012387$GBGSA,A,3,12,14,24,25,33,35,,,,,,,1.1,0.6,0.9*2E
###2023-12-09 13:40:54.014719$GPGSV,2,1,07,04,48,306,47,16,69,225,46,26,81,040,48,27,19,172,39*7A
###2023-12-09 13:40:54.016752$GPGSV,2,2,07,28,36,087,44,29,19,045,42,31,58,070,46,,,,*40
###2023-12-09 13:40:54.019090$GLGSV,2,1,07,65,41,315,45,71,19,176,41,72,59,216,46,73,20,054,41*66
###2023-12-09 13:40:54.021130$GLGSV,2,2,07,74,57,019,43,75,45,276,49,83,16,045,35,,,,*5A
###2023-12-09 13:40:54.023463$GAGSV,1,1,04,04,41,309,46,19,69,180,40,21,74,044,46,27,20,051,41*6B
###2023-12-09 13:40:54.025783$GBGSV,2,1,06,12,17,124,41,14,26,189,39,24,60,049,48,25,53,279,49*63
###2023-12-09 13:40:54.027536$GBGSV,2,2,06,33,43,215,46,35,16,054,44,,,,,,,,*6E
###2023-12-09 13:40:54.028856$GNVTG,243.13,T,,M,0.23,N,0.43,K,A*22
###2023-12-09 13:40:54.030465$GNGST,184053.10,6.700,,,,0.091,0.078,0.180*62
###2023-12-09 13:40:54.031764$GNZDA,184053.10,09,12,2023,00,00*7B
###2023-12-09 13:40:54.032401$GNEBP,,,,,,M*13
###2023-12-09 13:40:54.200252$GNGGA,184053.30,4138.0265957,N,07032.3888139,W,1,24,0.6,13.417,M,-29.745,M,0.0,*54
###2023-12-09 13:40:54.398445$GNGGA,184053.50,4138.0265944,N,07032.3887877,W,1,24,0.6,13.408,M,-29.745,M,0.0,*52
###2023-12-09 13:40:54.598267$GNGGA,184053.70,4138.0265933,N,07032.3888067,W,1,24,0.6,13.412,M,-29.745,M,0.0,*5D
###2023-12-09 13:40:54.798950$GNGGA,184053.90,4138.0265909,N,07032.3888501,W,1,24,0.6,13.410,M,-29.745,M,0.0,*5D
###2023-12-09 13:40:55.003877$GNRMC,184054.10,A,4138.0265874,N,07032.3888647,W,0.10,243.13,091223,,,A*5E
###2023-12-09 13:40:55.006759$GNGGA,184054.10,4138.0265874,N,07032.3888647,W,1,24,0.6,13.402,M,-29.745,M,0.0,*5B
###2023-12-09 13:40:55.008556$GPGSA,A,3,04,16,26,27,28,29,31,,,,,,1.1,0.6,0.9*3C
###2023-12-09 13:40:55.010333$GLGSA,A,3,65,71,72,73,74,75,83,,,,,,1.1,0.6,0.9*2F
###2023-12-09 13:40:55.011930$GAGSA,A,3,04,19,21,27,,,,,,,,,1.1,0.6,0.9*26
###2023-12-09 13:40:55.013643$GBGSA,A,3,12,14,24,25,33,35,,,,,,,1.1,0.6,0.9*2E
###2023-12-09 13:40:55.015984$GPGSV,2,1,07,04,48,306,47,16,69,225,46,26,81,040,47,27,19,172,38*74
###2023-12-09 13:40:55.018025$GPGSV,2,2,07,28,36,087,45,29,19,045,43,31,58,070,46,,,,*40
###2023-12-09 13:40:55.020371$GLGSV,2,1,07,65,41,315,45,71,19,176,41,72,59,216,45,73,20,054,42*66
###2023-12-09 13:40:55.022407$GLGSV,2,2,07,74,57,019,43,75,45,276,48,83,16,045,35,,,,*5B
###2023-12-09 13:40:55.024740$GAGSV,1,1,04,04,41,309,46,19,69,180,40,21,74,044,46,27,20,051,41*6B
###2023-12-09 13:40:55.027081$GBGSV,2,1,06,12,17,124,42,14,26,189,39,24,60,049,48,25,53,279,49*60
###2023-12-09 13:40:55.028833$GBGSV,2,2,06,33,43,215,46,35,16,054,44,,,,,,,,*6E
###2023-12-09 13:40:55.030156$GNVTG,243.13,T,,M,0.10,N,0.18,K,A*2C
###2023-12-09 13:40:55.031819$GNGST,184054.10,6.600,,,,0.092,0.079,0.180*66
###2023-12-09 13:40:55.033119$GNZDA,184054.10,09,12,2023,00,00*7C
###2023-12-09 13:40:55.033759$GNEBP,,,,,,M*13
###2023-12-09 13:40:55.199980$GNGGA,184054.30,4138.0265848,N,07032.3888483,W,1,24,0.6,13.410,M,-29.745,M,0.0,*5F
###2023-12-09 13:40:55.399614$GNGGA,184054.50,4138.0265831,N,07032.3888423,W,1,24,0.6,13.413,M,-29.745,M,0.0,*5E
###2023-12-09 13:40:55.599110$GNGGA,184054.70,4138.0265806,N,07032.3888691,W,1,24,0.6,13.408,M,-29.745,M,0.0,*59
###2023-12-09 13:40:55.799967$GNGGA,184054.90,4138.0265789,N,07032.3888879,W,1,24,0.6,13.397,M,-29.745,M,0.0,*56
###2023-12-09 13:40:56.003842$GNRMC,184055.10,A,4138.0265763,N,07032.3888889,W,0.02,243.13,091223,,,A*59
###2023-12-09 13:40:56.006721$GNGGA,184055.10,4138.0265763,N,07032.3888889,W,1,24,0.6,13.397,M,-29.745,M,0.0,*54
###2023-12-09 13:40:56.008519$GPGSA,A,3,04,16,26,27,28,29,31,,,,,,1.2,0.6,1.0*37
###2023-12-09 13:40:56.010293$GLGSA,A,3,65,71,72,73,74,75,83,,,,,,1.2,0.6,1.0*24
###2023-12-09 13:40:56.011890$GAGSA,A,3,04,19,21,27,,,,,,,,,1.2,0.6,1.0*2D
