###2023-12-09 13:46:52.032404$GBGSV,2,2,05,35,16,051,39,,,,,,,,,,,,*51
###2023-12-09 13:46:52.033753$GNVTG,243.17,T,,M,0.04,N,0.07,K,A*23
###2023-12-09 13:46:52.035406$GNGST,184651.10,7.100,,,,0.190,0.120,0.330*64
###2023-12-09 13:46:52.036706$GNZDA,184651.10,09,12,2023,00,00*7F
###2023-12-09 13:46:52.037345$GNEBP,,,,,,M*13
###2023-12-09 13:46:52.205619$GNGGA,184651.30,4138.0395585,N,07032.4385703,W,1,18,0.7,15.463,M,-29.746,M,0.0,*5B
###2023-12-09 13:46:52.404597$GNGGA,184651.50,4138.0395592,N,07032.4385688,W,1,18,0.7,15.465,M,-29.746,M,0.0,*5F
###2023-12-09 13:46:52.604768$GNGGA,184651.70,4138.0395609,N,07032.4385670,W,1,19,0.7,15.466,M,-29.746,M,0.0,*59
###2023-12-09 13:46:52.804139$GNGGA,184651.90,4138.0395619,N,07032.4385655,W,1,18,0.7,15.464,M,-29.746,M,0.0,*52
###2023-12-09 13:46:53.006341$GNRMC,184652.10,A,4138.0395640,N,07032.4385636,W,0.02,243.17,091223,,,A*59
###2023-12-09 13:46:53.009404$GNGGA,184652.10,4138.0395640,N,07032.4385636,W,1,19,0.7,15.465,M,-29.746,M,0.0,*50
###2023-12-09 13:46:53.011243$GPGSA,A,3,04,16,26,28,29,31,,,,,,,1.3,0.7,1.1*33
###2023-12-09 13:46:53.012889$GLGSA,A,3,65,72,73,74,75,,,,,,,,1.3,0.7,1.1*28
###2023-12-09 13:46:53.014403$GAGSA,A,3,04,21,27,,,,,,,,,,1.3,0.7,1.1*24
###2023-12-09 13:46:53.016054$GBGSA,A,3,12,24,25,33,35,,,,,,,,1.3,0.7,1.1*21
###2023-12-09 13:46:53.018370$GPGSV,2,1,06,04,51,304,47,16,72,228,42,26,78,041,40,28,34,089,46*70
###2023-12-09 13:46:53.020130$GPGSV,2,2,06,29,18,043,42,31,56,073,49,,,,,,,,*74
###2023-12-09 13:46:53.022451$GLGSV,2,1,05,65,43,312,44,72,56,213,39,73,17,056,36,74,55,024,35*6C
###2023-12-09 13:46:53.023917$GLGSV,2,2,05,75,47,280,46,,,,,,,,,,,,*59
###2023-12-09 13:46:53.025945$GAGSV,1,1,03,04,43,308,46,21,72,043,40,27,19,051,43,,,,*5A
###2023-12-09 13:46:53.028278$GBGSV,2,1,05,12,19,122,41,24,58,052,47,25,54,282,42,33,40,213,35*67
###2023-12-09 13:46:53.029736$GBGSV,2,2,05,35,16,051,39,,,,,,,,,,,,*51
###2023-12-09 13:46:53.031097$GNVTG,243.17,T,,M,0.02,N,0.04,K,A*26
###2023-12-09 13:46:53.032722$GNGST,184652.10,7.500,,,,0.190,0.120,0.330*63
###2023-12-09 13:46:53.034014$GNZDA,184652.10,09,12,2023,00,00*7C
###2023-12-09 13:46:53.034664$GNEBP,,,,,,M*13
###2023-12-09 13:46:53.207150$GNGGA,184652.30,4138.0395652,N,07032.4385609,W,1,18,0.7,15.467,M,-29.746,M,0.0,*5E
###2023-12-09 13:46:53.406689$GNGGA,184652.50,4138.0395673,N,07032.4385600,W,1,18,0.7,15.465,M,-29.746,M,0.0,*50
###2023-12-09 13:46:53.604705$GNGGA,184652.70,4138.0395687,N,07032.4385577,W,1,18,0.7,15.465,M,-29.746,M,0.0,*5A
###2023-12-09 13:46:53.808525$GNGGA,184652.90,4138.0395713,N,07032.4385549,W,1,18,0.7,15.466,M,-29.746,M,0.0,*56
###2023-12-09 13:46:54.010280$GNRMC,184653.10,A,4138.0395724,N,07032.4385535,W,0.06,243.17,091223,,,A*5F
###2023-12-09 13:46:54.013158$GNGGA,184653.10,4138.0395724,N,07032.4385535,W,1,19,0.7,15.468,M,-29.746,M,0.0,*5F
###2023-12-09 13:46:54.014892$GPGSA,A,3,04,16,26,28,29,31,,,,,,,1.3,0.7,1.1*33
###2023-12-09 13:46:54.016541$GLGSA,A,3,65,72,73,75,83,,,,,,,,1.3,0.7,1.1*20
###2023-12-09 13:46:54.018063$GAGSA,A,3,04,21,27,,,,,,,,,,1.3,0.7,1.1*24
###2023-12-09 13:46:54.019721$GBGSA,A,3,12,24,25,33,35,,,,,,,,1.3,0.7,1.1*21
###2023-12-09 13:46:54.022048$GPGSV,2,1,06,04,51,304,47,16,72,228,42,26,78,041,40,28,34,089,46*70
###2023-12-09 13:46:54.023806$GPGSV,2,2,06,29,18,043,42,31,56,073,49,,,,,,,,*74
###2023-12-09 13:46:54.026121$GLGSV,2,1,05,65,43,312,44,72,56,213,39,73,17,056,37,75,47,280,47*66
###2023-12-09 13:46:54.027583$GLGSV,2,2,05,83,16,042,35,,,,,,,,,,,,*5C
###2023-12-09 13:46:54.029612$GAGSV,1,1,03,04,43,308,46,21,72,043,40,27,19,051,43,,,,*5A
###2023-12-09 13:46:54.031949$GBGSV,2,1,05,12,19,122,42,24,58,052,47,25,54,282,42,33,40,213,35*64
###2023-12-09 13:46:54.033405$GBGSV,2,2,05,35,16,051,39,,,,,,,,,,,,*51
###2023-12-09 13:46:54.034772$GNVTG,243.17,T,,M,0.06,N,0.11,K,A*26
###2023-12-09 13:46:54.036377$GNGST,184653.10,7.300,,,,0.190,0.120,0.330*64
###2023-12-09 13:46:54.037659$GNZDA,184653.10,09,12,2023,00,00*7D
###2023-12-09 13:46:54.038294$GNEBP,,,,,,M*13
###2023-12-09 13:46:54.206726$GNGGA,184653.30,4138.0395739,N,07032.4385516,W,1,19,0.7,15.468,M,-29.746,M,0.0,*50
###2023-12-09 13:46:54.406878$GNGGA,184653.50,4138.0395748,N,07032.4385494,W,1,19,0.7,15.469,M,-29.746,M,0.0,*5A
###2023-12-09 13:46:54.608982$GNGGA,184653.70,4138.0395748,N,07032.4385477,W,1,19,0.7,15.468,M,-29.746,M,0.0,*54
###2023-12-09 13:46:54.805914$GNGGA,184653.90,4138.0395745,N,07032.4385469,W,1,18,0.8,15.471,M,-29.746,M,0.0,*5E
###2023-12-09 13:46:55.010141$GNRMC,184654.10,A,4138.0395748,N,07032.4385456,W,0.04,243.17,091223,,,A*54
###2023-12-09 13:46:55.013000$GNGGA,184654.10,4138.0395748,N,07032.4385456,W,1,18,0.8,15.472,M,-29.746,M,0.0,*53
###2023-12-09 13:46:55.014733$GPGSA,A,3,04,16,26,28,29,31,,,,,,,1.4,0.8,1.1*3B
###2023-12-09 13:46:55.016377$GLGSA,A,3,65,72,73,75,83,,,,,,,,1.4,0.8,1.1*28
###2023-12-09 13:46:55.017897$GAGSA,A,3,04,21,27,,,,,,,,,,1.4,0.8,1.1*2C
###2023-12-09 13:46:55.019494$GBGSA,A,3,12,24,25,35,,,,,,,,,1.4,0.8,1.1*29
###2023-12-09 13:46:55.021824$GPGSV,2,1,06,04,51,304,47,16,72,228,42,26,78,041,40,28,34,089,46*70
###2023-12-09 13:46:55.023589$GPGSV,2,2,06,29,18,043,42,31,56,073,49,,,,,,,,*74
###2023-12-09 13:46:55.025927$GLGSV,2,1,05,65,43,312,44,72,56,213,38,73,17,056,37,75,47,280,47*67
###2023-12-09 13:46:55.027397$GLGSV,2,2,05,83,16,042,35,,,,,,,,,,,,*5C
###2023-12-09 13:46:55.029423$GAGSV,1,1,03,04,43,308,46,21,72,043,40,27,19,051,43,,,,*5A
###2023-12-09 13:46:55.031751$GBGSV,1,1,04,12,19,122,42,24,58,052,47,25,54,282,42,35,16,051,39*6B
###2023-12-09 13:46:55.033076$GNVTG,243.17,T,,M,0.04,N,0.07,K,A*23
###2023-12-09 13:46:55.034733$GNGST,184654.10,7.200,,,,0.190,0.120,0.330*62
###2023-12-09 13:46:55.036031$GNZDA,184654.10,09,12,2023,00,00*7A
###2023-12-09 13:46:55.036670$GNEBP,,,,,,M*13
###2023-12-09 13:46:55.206538$GNGGA,184654.30,4138.0395756,N,07032.4385441,W,1,19,0.8,15.475,M,-29.746,M,0.0,*5E
###2023-12-09 13:46:55.406611$GNGGA,184654.50,4138.0395744,N,07032.4385430,W,1,19,0.8,15.471,M,-29.746,M,0.0,*59
###2023-12-09 13:46:55.605743$GNGGA,184654.70,4138.0395735,N,07032.4385409,W,1,18,0.8,15.474,M,-29.746,M,0.0,*53
###2023-12-09 13:46:55.805368$GNGGA,184654.90,4138.0395736,N,07032.4385397,W,1,18,0.8,15.472,M,-29.746,M,0.0,*58
###2023-12-09 13:46:56.010683$GNRMC,184655.10,A,4138.0395738,N,07032.4385390,W,0.04,243.17,091223,,,A*5F
###2023-12-09 13:46:56.013549$GNGGA,184655.10,4138.0395738,N,07032.4385390,W,1,18,0.8,15.475,M,-29.746,M,0.0,*5F
###2023-12-09 13:46:56.015288$GPGSA,A,3,04,16,26,28,29,31,,,,,,,1.4,0.8,1.1*3B
###2023-12-09 13:46:56.016933$GLGSA,A,3,65,72,73,75,83,,,,,,,,1.4,0.8,1.1*28
###2023-12-09 13:46:56.018449$GAGSA,A,3,04,21,27,,,,,,,,,,1.4,0.8,1.1*2C
###2023-12-09 13:46:56.020034$GBGSA,A,3,12,24,25,35,,,,,,,,,1.4,0.8,1.1*29
###2023-12-09 13:46:56.022352$GPGSV,2,1,06,04,51,304,47,16,72,228,42,26,78,041,40,28,34,089,46*70
###2023-12-09 13:46:56.024114$GPGSV,2,2,06,29,18,043,42,31,56,073,49,,,,,,,,*74
###2023-12-09 13:46:56.026440$GLGSV,2,1,05,65,43,312,44,72,56,213,38,73,17,056,37,75,47,280,47*67
###2023-12-09 13:46:56.027902$GLGSV,2,2,05,83,16,041,35,,,,,,,,,,,,*5F
###2023-12-09 13:46:56.029935$GAGSV,1,1,03,04,43,308,46,21,72,043,40,27,19,051,43,,,,*5A
###2023-12-09 13:46:56.032268$GBGSV,1,1,04,12,19,122,42,24,58,052,47,25,54,282,43,35,16,051,40*64
###2023-12-09 13:46:56.033588$GNVTG,243.17,T,,M,0.04,N,0.07,K,A*23
###2023-12-09 13:46:56.035216$GNGST,184655.10,7.300,,,,0.200,0.120,0.320*69
###2023-12-09 13:46:56.036509$GNZDA,184655.10,09,12,2023,00,00*7B
###2023-12-09 13:46:56.037146$GNEBP,,,,,,M*13
###2023-12-09 13:46:56.206554$GNGGA,184655.30,4138.0395736,N,07032.4385382,W,1,17,0.8,15.474,M,-29.746,M,0.0,*5E
###2023-12-09 13:46:56.409148$GNGGA,184655.50,4138.0395726,N,07032.4385369,W,1,18,0.8,15.473,M,-29.746,M,0.0,*54
###2023-12-09 13:46:56.605798$GNGGA,184655.70,4138.0395726,N,07032.4385368,W,1,18,0.8,15.474,M,-29.746,M,0.0,*50
###2023-12-09 13:46:56.805180$GNGGA,184655.90,4138.0395720,N,07032.4385354,W,1,18,0.8,15.478,M,-29.746,M,0.0,*5B
###2023-12-09 13:46:57.010327$GNRMC,184656.10,A,4138.0395712,N,07032.4385344,W,0.00,243.17,091223,,,A*59
###2023-12-09 13:46:57.013238$GNGGA,184656.10,4138.0395712,N,07032.4385344,W,1,18,0.8,15.474,M,-29.746,M,0.0,*5C
###2023-12-09 13:46:57.015249$GPGSA,A,3,04,16,26,28,29,31,,,,,,,1.4,0.8,1.1*3B
###2023-12-09 13:46:57.016910$GLGSA,A,3,65,72,73,75,83,,,,,,,,1.4,0.8,1.1*28
###2023-12-09 13:46:57.018424$GAGSA,A,3,04,21,27,,,,,,,,,,1.4,0.8,1.1*2C
###2023-12-09 13:46:57.020015$GBGSA,A,3,12,24,25,35,,,,,,,,,1.4,0.8,1.1*29
###2023-12-09 13:46:57.022338$GPGSV,2,1,06,04,51,304,47,16,72,228,42,26,78,041,41,28,34,089,46*71
###2023-12-09 13:46:57.024095$GPGSV,2,2,06,29,18,043,42,31,56,073,50,,,,,,,,*7C
###2023-12-09 13:46:57.026432$GLGSV,2,1,05,65,43,312,44,72,56,213,38,73,17,056,38,75,47,280,47*68
