###2023-12-09 13:12:12.000360$GLGSV,2,2,06,74,67,351,42,75,36,258,45,,,,,,,,*69
###2023-12-09 13:12:12.003220$GAGSV,1,1,04,04,33,312,42,19,81,194,41,21,84,071,46,27,29,048,42*69
###2023-12-09 13:12:12.006045$GBGSV,2,1,06,14,39,192,45,24,70,033,48,25,44,266,46,26,23,065,41*63
###2023-12-09 13:12:12.008194$GBGSV,2,2,06,33,54,227,46,35,15,065,42,,,,,,,,*6E
###2023-12-09 13:12:12.009804$GNVTG,302.55,T,,M,1.61,N,2.99,K,A*26
###2023-12-09 13:12:12.011837$GNGST,181211.10,18.000,,,,0.095,0.072,0.170*5A
###2023-12-09 13:12:12.013413$GNZDA,181211.10,09,12,2023,00,00*7A
###2023-12-09 13:12:12.014185$GNEBP,,,,,,M*13
###2023-12-09 13:12:12.172423$GNGGA,181211.30,4138.0442166,N,07032.3168359,W,1,24,0.7,12.886,M,-29.744,M,0.0,*5A
###2023-12-09 13:12:12.371131$GNGGA,181211.50,4138.0442674,N,07032.3169302,W,1,24,0.7,12.898,M,-29.744,M,0.0,*58
###2023-12-09 13:12:12.572363$GNGGA,181211.70,4138.0443181,N,07032.3170229,W,1,24,0.7,12.900,M,-29.744,M,0.0,*56
###2023-12-09 13:12:12.773243$GNGGA,181211.90,4138.0443696,N,07032.3171153,W,1,24,0.7,12.902,M,-29.744,M,0.0,*54
###2023-12-09 13:12:12.974218$GNRMC,181212.10,A,4138.0444201,N,07032.3172074,W,1.56,306.41,091223,,,A*58
###2023-12-09 13:12:12.977099$GNGGA,181212.10,4138.0444201,N,07032.3172074,W,1,24,0.7,12.898,M,-29.744,M,0.0,*57
###2023-12-09 13:12:12.978902$GPGSA,A,3,03,04,16,26,28,29,31,,,,,,1.2,0.7,1.0*30
###2023-12-09 13:12:12.980608$GLGSA,A,3,65,71,72,73,74,75,,,,,,,1.2,0.7,1.0*2E
###2023-12-09 13:12:12.982184$GAGSA,A,3,04,19,21,27,,,,,,,,,1.2,0.7,1.0*2C
###2023-12-09 13:12:12.983897$GBGSA,A,3,14,24,25,26,33,35,,,,,,,1.2,0.7,1.0*23
###2023-12-09 13:12:12.986201$GPGSV,2,1,07,03,33,256,44,04,37,311,43,16,55,215,47,26,85,210,49*7E
###2023-12-09 13:12:12.988243$GPGSV,2,2,07,28,46,075,46,29,24,056,43,31,66,048,48,,,,*4D
###2023-12-09 13:12:12.990552$GLGSV,2,1,06,65,28,326,41,71,35,174,45,72,72,250,46,73,31,045,46*68
###2023-12-09 13:12:12.992301$GLGSV,2,2,06,74,67,351,42,75,36,258,46,,,,,,,,*6A
###2023-12-09 13:12:12.994621$GAGSV,1,1,04,04,33,312,43,19,81,194,41,21,84,071,46,27,29,048,42*68
###2023-12-09 13:12:12.996939$GBGSV,2,1,06,14,39,192,44,24,70,033,49,25,44,266,46,26,23,065,41*63
###2023-12-09 13:12:12.998694$GBGSV,2,2,06,33,54,227,48,35,15,065,42,,,,,,,,*60
###2023-12-09 13:12:13.000016$GNVTG,306.41,T,,M,1.56,N,2.88,K,A*23
###2023-12-09 13:12:13.001661$GNGST,181212.10,18.000,,,,0.095,0.071,0.170*5A
###2023-12-09 13:12:13.002956$GNZDA,181212.10,09,12,2023,00,00*79
###2023-12-09 13:12:13.003596$GNEBP,,,,,,M*13
###2023-12-09 13:12:13.170361$GNGGA,181212.30,4138.0444711,N,07032.3172960,W,1,24,0.7,12.898,M,-29.744,M,0.0,*5D
###2023-12-09 13:12:13.373076$GNGGA,181212.50,4138.0445233,N,07032.3173814,W,1,24,0.7,12.897,M,-29.744,M,0.0,*53
###2023-12-09 13:12:13.573554$GNGGA,181212.70,4138.0445752,N,07032.3174717,W,1,24,0.7,12.900,M,-29.744,M,0.0,*57
###2023-12-09 13:12:13.772295$GNGGA,181212.90,4138.0446280,N,07032.3175734,W,1,24,0.7,12.903,M,-29.744,M,0.0,*53
###2023-12-09 13:12:13.974881$GNRMC,181213.10,A,4138.0446914,N,07032.3176846,W,2.02,309.58,091223,,,A*5C
###2023-12-09 13:12:13.977745$GNGGA,181213.10,4138.0446914,N,07032.3176846,W,1,24,0.7,12.896,M,-29.744,M,0.0,*58
###2023-12-09 13:12:13.979552$GPGSA,A,3,03,04,16,26,28,29,31,,,,,,1.2,0.7,1.0*30
###2023-12-09 13:12:13.981267$GLGSA,A,3,65,71,72,73,74,75,,,,,,,1.2,0.7,1.0*2E
###2023-12-09 13:12:13.982863$GAGSA,A,3,04,19,21,27,,,,,,,,,1.2,0.7,1.0*2C
###2023-12-09 13:12:13.984572$GBGSA,A,3,14,24,25,26,33,35,,,,,,,1.2,0.7,1.0*23
###2023-12-09 13:12:13.986916$GPGSV,2,1,07,03,33,256,43,04,37,311,42,16,55,215,46,26,85,210,48*78
###2023-12-09 13:12:13.988949$GPGSV,2,2,07,28,46,075,46,29,24,056,43,31,66,048,47,,,,*42
###2023-12-09 13:12:13.991283$GLGSV,2,1,06,65,28,326,41,71,35,174,45,72,72,250,45,73,31,045,45*68
###2023-12-09 13:12:13.993036$GLGSV,2,2,06,74,67,351,42,75,36,258,45,,,,,,,,*69
###2023-12-09 13:12:13.995367$GAGSV,1,1,04,04,33,312,41,19,81,194,40,21,84,071,46,27,29,048,42*6B
###2023-12-09 13:12:13.997691$GBGSV,2,1,06,14,39,192,44,24,70,033,48,25,44,266,47,26,23,065,43*61
###2023-12-09 13:12:13.999448$GBGSV,2,2,06,33,54,227,48,35,15,065,42,,,,,,,,*60
###2023-12-09 13:12:14.000777$GNVTG,309.58,T,,M,2.02,N,3.74,K,A*24
###2023-12-09 13:12:14.002433$GNGST,181213.10,18.000,,,,0.095,0.071,0.170*5B
###2023-12-09 13:12:14.003739$GNZDA,181213.10,09,12,2023,00,00*78
###2023-12-09 13:12:14.004383$GNEBP,,,,,,M*13
###2023-12-09 13:12:14.170483$GNGGA,181213.30,4138.0447695,N,07032.3177971,W,1,24,0.7,12.893,M,-29.744,M,0.0,*5C
###2023-12-09 13:12:14.372816$GNGGA,181213.50,4138.0448603,N,07032.3179093,W,1,24,0.7,12.895,M,-29.744,M,0.0,*57
###2023-12-09 13:12:14.572117$GNGGA,181213.70,4138.0449588,N,07032.3180225,W,1,24,0.7,12.897,M,-29.744,M,0.0,*5F
###2023-12-09 13:12:14.772193$GNGGA,181213.90,4138.0450619,N,07032.3181401,W,1,24,0.7,12.893,M,-29.744,M,0.0,*57
###2023-12-09 13:12:14.975413$GNRMC,181214.10,A,4138.0451749,N,07032.3182545,W,2.66,325.09,091223,,,A*56
###2023-12-09 13:12:14.978265$GNGGA,181214.10,4138.0451749,N,07032.3182545,W,1,24,0.7,12.893,M,-29.744,M,0.0,*5F
###2023-12-09 13:12:14.980059$GPGSA,A,3,03,04,16,26,28,29,31,,,,,,1.2,0.7,1.0*30
###2023-12-09 13:12:14.981766$GLGSA,A,3,65,71,72,73,74,75,,,,,,,1.2,0.7,1.0*2E
###2023-12-09 13:12:14.983355$GAGSA,A,3,04,19,21,27,,,,,,,,,1.2,0.7,1.0*2C
###2023-12-09 13:12:14.985059$GBGSA,A,3,14,24,25,26,33,35,,,,,,,1.2,0.7,1.0*23
###2023-12-09 13:12:14.987384$GPGSV,2,1,07,03,33,256,44,04,37,311,41,16,55,215,47,26,85,210,48*7D
###2023-12-09 13:12:14.989412$GPGSV,2,2,07,28,46,075,47,29,24,056,44,31,66,048,47,,,,*44
###2023-12-09 13:12:14.991735$GLGSV,2,1,06,65,28,326,41,71,35,174,46,72,72,250,46,73,31,045,44*69
###2023-12-09 13:12:14.993473$GLGSV,2,2,06,74,67,351,41,75,36,258,45,,,,,,,,*6A
###2023-12-09 13:12:14.995793$GAGSV,1,1,04,04,33,312,38,19,81,194,40,21,84,071,46,27,29,048,42*65
###2023-12-09 13:12:14.998102$GBGSV,2,1,06,14,39,192,43,24,70,033,48,25,44,266,46,26,23,065,44*60
###2023-12-09 13:12:14.999844$GBGSV,2,2,06,33,54,227,48,35,15,065,42,,,,,,,,*60
###2023-12-09 13:12:15.001156$GNVTG,325.09,T,,M,2.66,N,4.93,K,A*22
###2023-12-09 13:12:15.002798$GNGST,181214.10,18.000,,,,0.095,0.071,0.170*5C
###2023-12-09 13:12:15.004082$GNZDA,181214.10,09,12,2023,00,00*7F
###2023-12-09 13:12:15.004718$GNEBP,,,,,,M*13
###2023-12-09 13:12:15.174461$GNGGA,181214.30,4138.0452978,N,07032.3183604,W,1,24,0.7,12.889,M,-29.744,M,0.0,*5E
###2023-12-09 13:12:15.373556$GNGGA,181214.50,4138.0454295,N,07032.3184593,W,1,24,0.7,12.882,M,-29.744,M,0.0,*57
###2023-12-09 13:12:15.571154$GNGGA,181214.70,4138.0455694,N,07032.3185499,W,1,24,0.7,12.883,M,-29.744,M,0.0,*5A
###2023-12-09 13:12:15.772057$GNGGA,181214.90,4138.0457163,N,07032.3186317,W,1,24,0.7,12.881,M,-29.744,M,0.0,*59
###2023-12-09 13:12:15.975473$GNRMC,181215.10,A,4138.0458688,N,07032.3186966,W,2.90,344.82,091223,,,A*56
###2023-12-09 13:12:15.978351$GNGGA,181215.10,4138.0458688,N,07032.3186966,W,1,24,0.7,12.874,M,-29.744,M,0.0,*5B
###2023-12-09 13:12:15.980164$GPGSA,A,3,03,04,16,26,28,29,31,,,,,,1.2,0.7,1.0*30
###2023-12-09 13:12:15.981884$GLGSA,A,3,65,71,72,73,74,75,,,,,,,1.2,0.7,1.0*2E
###2023-12-09 13:12:15.983486$GAGSA,A,3,04,19,21,27,,,,,,,,,1.2,0.7,1.0*2C
###2023-12-09 13:12:15.985204$GBGSA,A,3,14,24,25,26,33,35,,,,,,,1.2,0.7,1.0*23
###2023-12-09 13:12:15.987550$GPGSV,2,1,07,03,33,256,45,04,37,311,44,16,55,215,46,26,85,210,48*78
###2023-12-09 13:12:15.989595$GPGSV,2,2,07,28,46,075,44,29,24,056,41,31,66,048,46,,,,*43
###2023-12-09 13:12:15.991941$GLGSV,2,1,06,65,28,326,39,71,35,174,47,72,72,250,46,73,31,045,42*61
###2023-12-09 13:12:15.993699$GLGSV,2,2,06,74,67,351,41,75,36,258,47,,,,,,,,*68
###2023-12-09 13:12:15.996046$GAGSV,1,1,04,04,33,312,43,19,81,194,40,21,84,071,46,27,29,048,40*6B
###2023-12-09 13:12:15.998384$GBGSV,2,1,06,14,39,192,45,24,70,033,48,25,44,266,47,26,23,065,42*61
###2023-12-09 13:12:16.000149$GBGSV,2,2,06,33,54,227,48,35,15,065,41,,,,,,,,*63
###2023-12-09 13:12:16.001478$GNVTG,344.82,T,,M,2.90,N,5.36,K,A*21
###2023-12-09 13:12:16.003175$GNGST,181215.10,18.000,,,,0.096,0.071,0.170*5E
###2023-12-09 13:12:16.004472$GNZDA,181215.10,09,12,2023,00,00*7E
###2023-12-09 13:12:16.005115$GNEBP,,,,,,M*13
###2023-12-09 13:12:16.170916$GNGGA,181215.30,4138.0460283,N,07032.3187455,W,1,24,0.7,12.878,M,-29.744,M,0.0,*5D
###2023-12-09 13:12:16.372226$GNGGA,181215.50,4138.0461894,N,07032.3187719,W,1,24,0.7,12.874,M,-29.744,M,0.0,*51
###2023-12-09 13:12:16.572073$GNGGA,181215.70,4138.0463496,N,07032.3187699,W,1,24,0.7,12.869,M,-29.744,M,0.0,*5A
###2023-12-09 13:12:16.771069$GNGGA,181215.90,4138.0465078,N,07032.3187468,W,1,24,0.7,12.857,M,-29.744,M,0.0,*57
###2023-12-09 13:12:16.977192$GNRMC,181216.10,A,4138.0466657,N,07032.3187175,W,2.86,7.86,091223,,,A*56
###2023-12-09 13:12:16.980073$GNGGA,181216.10,4138.0466657,N,07032.3187175,W,1,24,0.7,12.846,M,-29.744,M,0.0,*5D
###2023-12-09 13:12:16.981867$GPGSA,A,3,03,04,16,26,28,29,31,,,,,,1.2,0.7,1.0*30
###2023-12-09 13:12:16.983591$GLGSA,A,3,65,71,72,73,74,75,,,,,,,1.2,0.7,1.0*2E
