###2023-12-09 13:04:24.999247$GNEBP,,,,,,M*13
###2023-12-09 13:04:25.170019$GNGGA,180424.30,4138.0588893,N,07032.3289037,W,1,24,0.6,13.232,M,-29.743,M,0.0,*5A
###2023-12-09 13:04:25.371758$GNGGA,180424.50,4138.0588765,N,07032.3286400,W,1,24,0.6,13.239,M,-29.743,M,0.0,*5E
###2023-12-09 13:04:25.566965$GNGGA,180424.70,4138.0588592,N,07032.3283800,W,1,24,0.6,13.231,M,-29.743,M,0.0,*57
###2023-12-09 13:04:25.774185$GNGGA,180424.90,4138.0588470,N,07032.3281228,W,1,24,0.6,13.236,M,-29.743,M,0.0,*51
###2023-12-09 13:04:25.969148$GNRMC,180425.10,A,4138.0588284,N,07032.3278570,W,3.44,92.78,091223,,,A*6A
###2023-12-09 13:04:25.972039$GNGGA,180425.10,4138.0588284,N,07032.3278570,W,1,24,0.6,13.232,M,-29.743,M,0.0,*5D
###2023-12-09 13:04:25.973909$GPGSA,A,3,03,04,16,26,28,29,31,32,,,,,1.1,0.6,0.9*3B
###2023-12-09 13:04:25.975638$GLGSA,A,3,65,71,72,73,74,75,,,,,,,1.1,0.6,0.9*24
###2023-12-09 13:04:25.977227$GAGSA,A,3,04,19,21,27,,,,,,,,,1.1,0.6,0.9*26
###2023-12-09 13:04:25.978885$GBGSA,A,3,14,24,25,26,33,,,,,,,,1.1,0.6,0.9*2F
###2023-12-09 13:04:25.981208$GPGSV,2,1,08,03,34,260,45,04,33,311,43,16,51,213,46,26,81,210,48*70
###2023-12-09 13:04:25.983554$GPGSV,2,2,08,28,48,071,43,29,25,060,40,31,68,040,46,32,18,140,42*79
###2023-12-09 13:04:25.985893$GLGSV,2,1,06,65,25,327,41,71,40,173,46,72,73,265,47,73,35,042,44*65
###2023-12-09 13:04:25.987654$GLGSV,2,2,06,74,69,340,43,75,33,254,47,,,,,,,,*6D
###2023-12-09 13:04:25.989972$GAGSV,1,1,04,04,30,312,40,19,83,207,41,21,86,104,46,27,32,048,43*69
###2023-12-09 13:04:25.992317$GBGSV,2,1,05,14,42,192,46,24,73,026,48,25,41,263,47,26,26,063,42*69
###2023-12-09 13:04:25.993774$GBGSV,2,2,05,33,57,231,48,,,,,,,,,,,,*50
###2023-12-09 13:04:25.995075$GNVTG,92.78,T,,M,3.44,N,6.37,K,A*16
###2023-12-09 13:04:25.996733$GNGST,180425.10,18.000,,,,0.080,0.066,0.160*5A
###2023-12-09 13:04:25.998043$GNZDA,180425.10,09,12,2023,00,00*7A
###2023-12-09 13:04:25.998695$GNEBP,,,,,,M*13
###2023-12-09 13:04:26.165163$GNGGA,180425.30,4138.0588314,N,07032.3276023,W,1,24,0.6,13.233,M,-29.743,M,0.0,*5B
###2023-12-09 13:04:26.366648$GNGGA,180425.50,4138.0588473,N,07032.3273455,W,1,24,0.6,13.244,M,-29.743,M,0.0,*5B
###2023-12-09 13:04:26.566887$GNGGA,180425.70,4138.0588529,N,07032.3270885,W,1,24,0.6,13.243,M,-29.743,M,0.0,*52
###2023-12-09 13:04:26.767255$GNGGA,180425.90,4138.0588511,N,07032.3268313,W,1,24,0.6,13.228,M,-29.743,M,0.0,*57
###2023-12-09 13:04:26.968220$GNRMC,180426.10,A,4138.0588737,N,07032.3265793,W,3.48,79.02,091223,,,A*63
###2023-12-09 13:04:26.971108$GNGGA,180426.10,4138.0588737,N,07032.3265793,W,1,24,0.6,13.235,M,-29.743,M,0.0,*57
###2023-12-09 13:04:26.972974$GPGSA,A,3,03,04,16,26,28,29,31,32,,,,,1.1,0.6,0.9*3B
###2023-12-09 13:04:26.974704$GLGSA,A,3,65,71,72,73,74,75,,,,,,,1.1,0.6,0.9*24
###2023-12-09 13:04:26.976292$GAGSA,A,3,04,19,21,27,,,,,,,,,1.1,0.6,0.9*26
###2023-12-09 13:04:26.977942$GBGSA,A,3,14,24,25,26,33,,,,,,,,1.1,0.6,0.9*2F
###2023-12-09 13:04:26.980286$GPGSV,2,1,08,03,34,260,45,04,33,311,41,16,51,213,48,26,81,210,48*7C
###2023-12-09 13:04:26.982638$GPGSV,2,2,08,28,48,071,42,29,25,060,40,31,68,040,46,32,18,140,43*79
###2023-12-09 13:04:26.984977$GLGSV,2,1,06,65,25,327,40,71,40,173,46,72,73,265,47,73,35,042,44*64
###2023-12-09 13:04:26.986735$GLGSV,2,2,06,74,69,340,43,75,33,254,47,,,,,,,,*6D
###2023-12-09 13:04:26.989090$GAGSV,1,1,04,04,30,312,39,19,83,207,41,21,86,104,46,27,32,048,43*67
###2023-12-09 13:04:26.991447$GBGSV,2,1,05,14,42,192,46,24,73,026,48,25,41,263,47,26,26,063,42*69
###2023-12-09 13:04:26.992906$GBGSV,2,2,05,33,57,231,48,,,,,,,,,,,,*50
###2023-12-09 13:04:26.994196$GNVTG,79.02,T,,M,3.48,N,6.44,K,A*16
###2023-12-09 13:04:26.995854$GNGST,180426.10,18.000,,,,0.080,0.066,0.160*59
###2023-12-09 13:04:26.997141$GNZDA,180426.10,09,12,2023,00,00*79
###2023-12-09 13:04:26.997779$GNEBP,,,,,,M*13
###2023-12-09 13:04:27.167976$GNGGA,180426.30,4138.0589110,N,07032.3263299,W,1,24,0.6,13.250,M,-29.743,M,0.0,*5D
###2023-12-09 13:04:27.367595$GNGGA,180426.50,4138.0589214,N,07032.3260743,W,1,24,0.6,13.258,M,-29.743,M,0.0,*55
###2023-12-09 13:04:27.575746$GNGGA,180426.70,4138.0588960,N,07032.3258203,W,1,24,0.6,13.244,M,-29.743,M,0.0,*59
###2023-12-09 13:04:27.768289$GNGGA,180426.90,4138.0588923,N,07032.3255702,W,1,24,0.6,13.251,M,-29.743,M,0.0,*5D
###2023-12-09 13:04:27.970855$GNRMC,180427.10,A,4138.0589207,N,07032.3253159,W,3.40,85.21,091223,,,A*6A
###2023-12-09 13:04:27.973727$GNGGA,180427.10,4138.0589207,N,07032.3253159,W,1,24,0.6,13.268,M,-29.743,M,0.0,*5C
###2023-12-09 13:04:27.975607$GPGSA,A,3,03,04,16,26,28,29,31,32,,,,,1.1,0.6,0.9*3B
###2023-12-09 13:04:27.977334$GLGSA,A,3,65,71,72,73,74,75,,,,,,,1.1,0.6,0.9*24
###2023-12-09 13:04:27.978937$GAGSA,A,3,04,19,21,27,,,,,,,,,1.1,0.6,0.9*26
###2023-12-09 13:04:27.980586$GBGSA,A,3,14,24,25,26,33,,,,,,,,1.1,0.6,0.9*2F
###2023-12-09 13:04:27.982935$GPGSV,2,1,08,03,34,260,44,04,33,311,42,16,51,213,46,26,81,210,47*7F
###2023-12-09 13:04:27.985277$GPGSV,2,2,08,28,48,071,43,29,25,060,40,31,68,040,47,32,18,140,40*7A
###2023-12-09 13:04:27.987619$GLGSV,2,1,06,65,25,327,41,71,40,173,44,72,73,265,46,73,35,042,45*67
###2023-12-09 13:04:27.989369$GLGSV,2,2,06,74,69,340,43,75,33,254,46,,,,,,,,*6C
###2023-12-09 13:04:27.991716$GAGSV,1,1,04,04,30,312,41,19,83,207,41,21,86,104,46,27,32,048,42*69
###2023-12-09 13:04:27.994055$GBGSV,2,1,05,14,42,192,45,24,73,026,48,25,41,263,46,26,26,063,40*69
###2023-12-09 13:04:27.995522$GBGSV,2,2,05,33,57,231,47,,,,,,,,,,,,*5F
###2023-12-09 13:04:27.996810$GNVTG,85.21,T,,M,3.40,N,6.30,K,A*1F
###2023-12-09 13:04:27.998460$GNGST,180427.10,18.000,,,,0.080,0.066,0.160*58
###2023-12-09 13:04:27.999767$GNZDA,180427.10,09,12,2023,00,00*78
###2023-12-09 13:04:28.000408$GNEBP,,,,,,M*13
###2023-12-09 13:04:28.165970$GNGGA,180427.30,4138.0589068,N,07032.3250603,W,1,24,0.6,13.267,M,-29.743,M,0.0,*51
###2023-12-09 13:04:28.366643$GNGGA,180427.50,4138.0588551,N,07032.3248085,W,1,24,0.6,13.273,M,-29.743,M,0.0,*5D
###2023-12-09 13:04:28.566862$GNGGA,180427.70,4138.0588225,N,07032.3245643,W,1,24,0.6,13.281,M,-29.743,M,0.0,*57
###2023-12-09 13:04:28.766677$GNGGA,180427.90,4138.0588207,N,07032.3242987,W,1,24,0.6,13.293,M,-29.743,M,0.0,*5A
###2023-12-09 13:04:28.969215$GNRMC,180428.10,A,4138.0587961,N,07032.3240404,W,3.29,99.08,091223,,,A*66
###2023-12-09 13:04:28.972089$GNGGA,180428.10,4138.0587961,N,07032.3240404,W,1,24,0.6,13.263,M,-29.743,M,0.0,*52
###2023-12-09 13:04:28.973947$GPGSA,A,3,03,04,16,26,28,29,31,32,,,,,1.1,0.6,0.9*3B
###2023-12-09 13:04:28.975673$GLGSA,A,3,65,71,72,73,74,75,,,,,,,1.1,0.6,0.9*24
###2023-12-09 13:04:28.977260$GAGSA,A,3,04,19,21,27,,,,,,,,,1.1,0.6,0.9*26
###2023-12-09 13:04:28.978919$GBGSA,A,3,14,24,25,26,33,,,,,,,,1.1,0.6,0.9*2F
###2023-12-09 13:04:28.981241$GPGSV,2,1,08,03,34,260,43,04,33,311,40,16,51,213,45,26,81,210,46*78
###2023-12-09 13:04:28.983580$GPGSV,2,2,08,28,48,071,42,29,25,060,40,31,68,040,45,32,18,140,40*79
###2023-12-09 13:04:28.985912$GLGSV,2,1,06,65,25,327,41,71,40,173,44,72,73,265,46,73,35,042,45*67
###2023-12-09 13:04:28.987669$GLGSV,2,2,06,74,69,340,43,75,33,254,45,,,,,,,,*6F
###2023-12-09 13:04:28.989999$GAGSV,1,1,04,04,30,312,40,19,83,207,38,21,86,104,44,27,32,048,42*64
###2023-12-09 13:04:28.992337$GBGSV,2,1,05,14,42,192,43,24,72,028,49,25,41,263,46,26,26,063,43*62
###2023-12-09 13:04:28.993788$GBGSV,2,2,05,33,57,231,47,,,,,,,,,,,,*5F
###2023-12-09 13:04:28.995085$GNVTG,99.08,T,,M,3.29,N,6.08,K,A*1D
###2023-12-09 13:04:28.996735$GNGST,180428.10,18.000,,,,0.081,0.067,0.160*57
###2023-12-09 13:04:28.998023$GNZDA,180428.10,09,12,2023,00,00*77
###2023-12-09 13:04:28.998673$GNEBP,,,,,,M*13
###2023-12-09 13:04:29.166033$GNGGA,180428.30,4138.0587714,N,07032.3237890,W,1,24,0.6,13.290,M,-29.743,M,0.0,*51
###2023-12-09 13:04:29.366864$GNGGA,180428.50,4138.0587340,N,07032.3235185,W,1,24,0.6,13.301,M,-29.743,M,0.0,*54
###2023-12-09 13:04:29.566898$GNGGA,180428.70,4138.0587099,N,07032.3232604,W,1,24,0.6,13.266,M,-29.743,M,0.0,*58
###2023-12-09 13:04:29.766270$GNGGA,180428.90,4138.0587321,N,07032.3230042,W,1,24,0.6,13.278,M,-29.743,M,0.0,*5F
###2023-12-09 13:04:29.969014$GNRMC,180429.10,A,4138.0587408,N,07032.3227466,W,3.54,93.43,091223,,,A*6F
###2023-12-09 13:04:29.972142$GNGGA,180429.10,4138.0587408,N,07032.3227466,W,1,24,0.6,13.308,M,-29.743,M,0.0,*58
###2023-12-09 13:04:29.974023$GPGSA,A,3,03,04,16,26,28,29,31,32,,,,,1.1,0.6,0.9*3B
###2023-12-09 13:04:29.975762$GLGSA,A,3,65,71,72,73,74,75,,,,,,,1.1,0.6,0.9*24
###2023-12-09 13:04:29.977352$GAGSA,A,3,04,19,21,27,,,,,,,,,1.1,0.6,0.9*26
###2023-12-09 13:04:29.979019$GBGSA,A,3,14,24,25,26,33,,,,,,,,1.1,0.6,0.9*2F
###2023-12-09 13:04:29.981354$GPGSV,2,1,08,03,34,260,43,04,33,311,44,16,51,213,44,26,81,210,47*7C
###2023-12-09 13:04:29.983706$GPGSV,2,2,08,28,48,071,42,29,25,060,39,31,68,040,46,32,18,140,38*7B
###2023-12-09 13:04:29.986037$GLGSV,2,1,06,65,25,327,42,71,40,173,43,72,73,265,46,73,35,042,45*63
###2023-12-09 13:04:29.987795$GLGSV,2,2,06,74,69,340,43,75,33,254,46,,,,,,,,*6C
###2023-12-09 13:04:29.990120$GAGSV,1,1,04,04,30,312,40,19,83,207,40,21,86,104,45,27,32,048,41*69
