###2023-12-09 13:07:07.010607$GNGST,180706.10,18.000,,,,0.081,0.068,0.150*54
###2023-12-09 13:07:07.011913$GNZDA,180706.10,09,12,2023,00,00*78
###2023-12-09 13:07:07.012555$GNEBP,,,,,,M*13
###2023-12-09 13:07:07.173505$GNGGA,180706.30,4138.0723717,N,07032.3615369,W,1,25,0.6,12.982,M,-29.743,M,0.0,*50
###2023-12-09 13:07:07.370418$GNGGA,180706.50,4138.0723974,N,07032.3617836,W,1,25,0.6,12.991,M,-29.743,M,0.0,*5C
###2023-12-09 13:07:07.577829$GNGGA,180706.70,4138.0724191,N,07032.3620306,W,1,25,0.6,12.995,M,-29.743,M,0.0,*52
###2023-12-09 13:07:07.769840$GNGGA,180706.90,4138.0724167,N,07032.3622731,W,1,25,0.6,12.992,M,-29.743,M,0.0,*50
###2023-12-09 13:07:07.983893$GNRMC,180707.10,A,4138.0724097,N,07032.3625193,W,3.38,269.27,091223,,,A*5F
###2023-12-09 13:07:07.986775$GNGGA,180707.10,4138.0724097,N,07032.3625193,W,1,25,0.6,12.996,M,-29.743,M,0.0,*5A
###2023-12-09 13:07:07.988640$GPGSA,A,3,03,04,16,26,28,29,31,32,,,,,1.1,0.6,0.9*3B
###2023-12-09 13:07:07.990357$GLGSA,A,3,65,71,72,73,74,75,,,,,,,1.1,0.6,0.9*24
###2023-12-09 13:07:07.991953$GAGSA,A,3,04,19,21,27,,,,,,,,,1.1,0.6,0.9*26
###2023-12-09 13:07:07.993664$GBGSA,A,3,14,24,25,26,33,35,,,,,,,1.1,0.6,0.9*29
###2023-12-09 13:07:07.996005$GPGSV,2,1,08,03,34,258,43,04,35,311,43,16,52,213,46,26,82,210,48*7B
###2023-12-09 13:07:07.998337$GPGSV,2,2,08,28,48,072,45,29,25,059,41,31,68,042,47,32,17,141,44*7C
###2023-12-09 13:07:08.000675$GLGSV,2,1,06,65,26,326,41,71,37,173,46,72,72,258,45,73,33,043,43*6A
###2023-12-09 13:07:08.002421$GLGSV,2,2,06,74,68,345,43,75,34,256,44,,,,,,,,*6F
###2023-12-09 13:07:08.004757$GAGSV,1,1,04,04,31,312,41,19,83,203,40,21,85,092,46,27,31,048,40*61
###2023-12-09 13:07:08.007103$GBGSV,2,1,06,14,41,192,43,24,72,029,48,25,42,264,43,26,24,064,42*67
###2023-12-09 13:07:08.008846$GBGSV,2,2,06,33,56,229,47,35,15,067,45,,,,,,,,*66
###2023-12-09 13:07:08.010163$GNVTG,269.27,T,,M,3.38,N,6.26,K,A*21
###2023-12-09 13:07:08.011822$GNGST,180707.10,18.000,,,,0.081,0.068,0.150*55
###2023-12-09 13:07:08.013117$GNZDA,180707.10,09,12,2023,00,00*79
###2023-12-09 13:07:08.013756$GNEBP,,,,,,M*13
###2023-12-09 13:07:08.168620$GNGGA,180707.30,4138.0724101,N,07032.3627704,W,1,25,0.6,13.001,M,-29.743,M,0.0,*5A
###2023-12-09 13:07:08.368881$GNGGA,180707.50,4138.0724057,N,07032.3630201,W,1,25,0.6,13.007,M,-29.743,M,0.0,*5E
###2023-12-09 13:07:08.569847$GNGGA,180707.70,4138.0723854,N,07032.3632714,W,1,25,0.6,13.016,M,-29.743,M,0.0,*53
###2023-12-09 13:07:08.771026$GNGGA,180707.90,4138.0723715,N,07032.3635289,W,1,25,0.6,13.028,M,-29.743,M,0.0,*5C
###2023-12-09 13:07:08.980336$GNRMC,180708.10,A,4138.0723605,N,07032.3637899,W,3.54,264.66,091223,,,A*58
###2023-12-09 13:07:08.983196$GNGGA,180708.10,4138.0723605,N,07032.3637899,W,1,25,0.6,13.027,M,-29.743,M,0.0,*5D
###2023-12-09 13:07:08.985048$GPGSA,A,3,03,04,16,26,28,29,31,32,,,,,1.1,0.6,0.9*3B
###2023-12-09 13:07:08.986760$GLGSA,A,3,65,71,72,73,74,75,,,,,,,1.1,0.6,0.9*24
###2023-12-09 13:07:08.988334$GAGSA,A,3,04,19,21,27,,,,,,,,,1.1,0.6,0.9*26
###2023-12-09 13:07:08.990023$GBGSA,A,3,14,24,25,26,33,35,,,,,,,1.1,0.6,0.9*29
###2023-12-09 13:07:08.992337$GPGSV,2,1,08,03,34,258,43,04,35,311,44,16,52,213,46,26,82,210,48*7C
###2023-12-09 13:07:08.994664$GPGSV,2,2,08,28,48,072,45,29,25,059,43,31,68,042,47,32,17,141,43*79
###2023-12-09 13:07:08.996979$GLGSV,2,1,06,65,26,326,41,71,37,173,45,72,72,258,45,73,33,043,45*6F
###2023-12-09 13:07:08.998716$GLGSV,2,2,06,74,68,345,43,75,34,256,43,,,,,,,,*68
###2023-12-09 13:07:09.001015$GAGSV,1,1,04,04,31,312,42,19,83,203,40,21,85,092,46,27,31,048,41*63
###2023-12-09 13:07:09.003343$GBGSV,2,1,06,14,41,192,43,24,72,029,48,25,42,264,43,26,24,064,43*66
###2023-12-09 13:07:09.005081$GBGSV,2,2,06,33,56,229,46,35,15,067,44,,,,,,,,*66
###2023-12-09 13:07:09.006396$GNVTG,264.66,T,,M,3.54,N,6.55,K,A*27
###2023-12-09 13:07:09.008039$GNGST,180708.10,18.000,,,,0.081,0.067,0.150*55
###2023-12-09 13:07:09.009316$GNZDA,180708.10,09,12,2023,00,00*76
###2023-12-09 13:07:09.009949$GNEBP,,,,,,M*13
###2023-12-09 13:07:09.171493$GNGGA,180708.30,4138.0723344,N,07032.3640424,W,1,25,0.6,13.011,M,-29.743,M,0.0,*50
###2023-12-09 13:07:09.370784$GNGGA,180708.50,4138.0723021,N,07032.3642942,W,1,25,0.6,12.998,M,-29.743,M,0.0,*50
###2023-12-09 13:07:09.570930$GNGGA,180708.70,4138.0722747,N,07032.3645431,W,1,25,0.6,12.990,M,-29.743,M,0.0,*52
###2023-12-09 13:07:09.770994$GNGGA,180708.90,4138.0722640,N,07032.3647903,W,1,25,0.6,13.005,M,-29.743,M,0.0,*50
###2023-12-09 13:07:09.970222$GNRMC,180709.10,A,4138.0722583,N,07032.3650342,W,3.32,268.73,091223,,,A*51
###2023-12-09 13:07:09.973095$GNGGA,180709.10,4138.0722583,N,07032.3650342,W,1,25,0.6,13.016,M,-29.743,M,0.0,*5E
###2023-12-09 13:07:09.974964$GPGSA,A,3,03,04,16,26,28,29,31,32,,,,,1.1,0.6,0.9*3B
###2023-12-09 13:07:09.976676$GLGSA,A,3,65,71,72,73,74,75,,,,,,,1.1,0.6,0.9*24
###2023-12-09 13:07:09.978253$GAGSA,A,3,04,19,21,27,,,,,,,,,1.1,0.6,0.9*26
###2023-12-09 13:07:09.979973$GBGSA,A,3,14,24,25,26,33,35,,,,,,,1.1,0.6,0.9*29
###2023-12-09 13:07:09.982297$GPGSV,2,1,08,03,34,258,41,04,35,311,42,16,52,213,46,26,82,210,48*78
###2023-12-09 13:07:09.984643$GPGSV,2,2,08,28,48,072,45,29,25,059,41,31,68,042,47,32,17,141,43*7B
###2023-12-09 13:07:09.986990$GLGSV,2,1,06,65,26,326,39,71,37,173,46,72,72,258,45,73,33,043,44*62
###2023-12-09 13:07:09.988735$GLGSV,2,2,06,74,68,345,43,75,34,256,42,,,,,,,,*69
###2023-12-09 13:07:09.991062$GAGSV,1,1,04,04,31,312,40,19,83,203,40,21,85,092,46,27,31,048,41*61
###2023-12-09 13:07:09.993385$GBGSV,2,1,06,14,41,192,44,24,72,029,49,25,42,264,44,26,24,064,42*66
###2023-12-09 13:07:09.995135$GBGSV,2,2,06,33,56,229,48,35,15,067,45,,,,,,,,*69
###2023-12-09 13:07:09.996451$GNVTG,268.73,T,,M,3.32,N,6.16,K,A*28
###2023-12-09 13:07:09.998091$GNGST,180709.10,18.000,,,,0.081,0.068,0.150*5B
###2023-12-09 13:07:09.999395$GNZDA,180709.10,09,12,2023,00,00*77
###2023-12-09 13:07:10.000033$GNEBP,,,,,,M*13
###2023-12-09 13:07:10.167076$GNGGA,180709.30,4138.0722606,N,07032.3652809,W,1,25,0.6,13.020,M,-29.743,M,0.0,*51
###2023-12-09 13:07:10.367944$GNGGA,180709.50,4138.0722706,N,07032.3655280,W,1,25,0.6,13.020,M,-29.743,M,0.0,*5A
###2023-12-09 13:07:10.568378$GNGGA,180709.70,4138.0722942,N,07032.3657704,W,1,25,0.6,13.026,M,-29.743,M,0.0,*5B
###2023-12-09 13:07:10.768570$GNGGA,180709.90,4138.0723254,N,07032.3660126,W,1,25,0.6,13.031,M,-29.743,M,0.0,*5C
###2023-12-09 13:07:10.970808$GNRMC,180710.10,A,4138.0723551,N,07032.3662514,W,3.21,278.20,091223,,,A*56
###2023-12-09 13:07:10.973669$GNGGA,180710.10,4138.0723551,N,07032.3662514,W,1,25,0.6,13.029,M,-29.743,M,0.0,*50
###2023-12-09 13:07:10.975537$GPGSA,A,3,03,04,16,26,28,29,31,32,,,,,1.1,0.6,0.9*3B
###2023-12-09 13:07:10.977248$GLGSA,A,3,65,71,72,73,74,75,,,,,,,1.1,0.6,0.9*24
###2023-12-09 13:07:10.978841$GAGSA,A,3,04,19,21,27,,,,,,,,,1.1,0.6,0.9*26
###2023-12-09 13:07:10.980552$GBGSA,A,3,14,24,25,26,33,35,,,,,,,1.1,0.6,0.9*29
###2023-12-09 13:07:10.982888$GPGSV,2,1,08,03,34,258,41,04,35,311,41,16,52,213,46,26,82,210,48*7B
###2023-12-09 13:07:10.985218$GPGSV,2,2,08,28,48,072,45,29,25,059,41,31,68,042,47,32,17,141,43*7B
###2023-12-09 13:07:10.987554$GLGSV,2,1,06,65,26,326,39,71,37,173,46,72,72,258,45,73,33,043,45*63
###2023-12-09 13:07:10.989300$GLGSV,2,2,06,74,68,345,42,75,34,256,42,,,,,,,,*68
###2023-12-09 13:07:10.991633$GAGSV,1,1,04,04,31,312,39,19,83,203,40,21,85,092,46,27,31,048,41*6F
###2023-12-09 13:07:10.993955$GBGSV,2,1,06,14,41,192,45,24,72,029,49,25,42,264,44,26,24,064,43*66
###2023-12-09 13:07:10.995706$GBGSV,2,2,06,33,56,229,48,35,15,067,43,,,,,,,,*6F
###2023-12-09 13:07:10.997031$GNVTG,278.20,T,,M,3.21,N,5.94,K,A*24
###2023-12-09 13:07:10.998688$GNGST,180710.10,18.000,,,,0.081,0.068,0.150*53
###2023-12-09 13:07:10.999973$GNZDA,180710.10,09,12,2023,00,00*7F
###2023-12-09 13:07:11.000611$GNEBP,,,,,,M*13
###2023-12-09 13:07:11.167106$GNGGA,180710.30,4138.0723800,N,07032.3664855,W,1,25,0.6,13.025,M,-29.743,M,0.0,*59
###2023-12-09 13:07:11.367750$GNGGA,180710.50,4138.0724084,N,07032.3667190,W,1,25,0.6,13.032,M,-29.743,M,0.0,*59
###2023-12-09 13:07:11.568441$GNGGA,180710.70,4138.0724479,N,07032.3669483,W,1,25,0.6,13.040,M,-29.743,M,0.0,*51
###2023-12-09 13:07:11.766874$GNGGA,180710.90,4138.0724880,N,07032.3671785,W,1,25,0.6,13.051,M,-29.743,M,0.0,*59
###2023-12-09 13:07:11.968985$GNRMC,180711.10,A,4138.0725194,N,07032.3674082,W,3.17,279.43,091223,,,A*50
###2023-12-09 13:07:11.971855$GNGGA,180711.10,4138.0725194,N,07032.3674082,W,1,25,0.6,13.049,M,-29.743,M,0.0,*51
###2023-12-09 13:07:11.973710$GPGSA,A,3,03,04,16,26,28,29,31,32,,,,,1.1,0.6,0.9*3B
###2023-12-09 13:07:11.975431$GLGSA,A,3,65,71,72,73,74,75,,,,,,,1.1,0.6,0.9*24
###2023-12-09 13:07:11.977012$GAGSA,A,3,04,19,21,27,,,,,,,,,1.1,0.6,0.9*26
###2023-12-09 13:07:11.978724$GBGSA,A,3,14,24,25,26,33,35,,,,,,,1.1,0.6,0.9*29
###2023-12-09 13:07:11.981046$GPGSV,2,1,08,03,34,258,41,04,35,311,41,16,52,213,45,26,82,210,48*78
###2023-12-09 13:07:11.983380$GPGSV,2,2,08,28,48,072,45,29,25,059,41,31,68,042,47,32,17,141,43*7B
###2023-12-09 13:07:11.985712$GLGSV,2,1,06,65,26,326,38,71,37,173,47,72,72,258,45,73,33,043,46*60
