###2023-12-09 13:43:50.012323$GAGSA,A,3,04,21,27,,,,,,,,,,1.3,0.8,1.1*2B
###2023-12-09 13:43:50.013989$GBGSA,A,3,12,14,24,25,35,,,,,,,,1.3,0.8,1.1*2B
###2023-12-09 13:43:50.016342$GPGSV,2,1,06,04,50,305,44,16,71,227,38,26,79,041,41,28,35,088,43*77
###2023-12-09 13:43:50.018093$GPGSV,2,2,06,29,18,043,41,31,56,072,50,,,,,,,,*7E
###2023-12-09 13:43:50.020475$GLGSV,2,1,05,65,42,314,43,73,19,055,43,74,56,021,36,75,46,277,43*6F
###2023-12-09 13:43:50.021935$GLGSV,2,2,05,83,16,043,35,,,,,,,,,,,,*5D
###2023-12-09 13:43:50.023976$GAGSV,1,1,03,04,43,308,42,21,74,044,38,27,20,051,40,,,,*59
###2023-12-09 13:43:50.026288$GBGSV,2,1,05,12,18,124,40,14,25,189,35,24,60,050,44,25,53,280,46*6C
###2023-12-09 13:43:50.027755$GBGSV,2,2,05,35,16,053,36,,,,,,,,,,,,*5C
###2023-12-09 13:43:50.029070$GNVTG,243.17,T,,M,0.02,N,0.04,K,A*26
###2023-12-09 13:43:50.030704$GNGST,184349.10,8.200,,,,0.220,0.120,0.310*6E
###2023-12-09 13:43:50.031993$GNZDA,184349.10,09,12,2023,00,00*73
###2023-12-09 13:43:50.032628$GNEBP,,,,,,M*13
###2023-12-09 13:43:50.199451$GNGGA,184349.30,4138.0390926,N,07032.4386305,W,1,19,0.8,14.770,M,-29.746,M,0.0,*58
###2023-12-09 13:43:50.399555$GNGGA,184349.50,4138.0390908,N,07032.4386333,W,1,19,0.8,14.763,M,-29.746,M,0.0,*55
###2023-12-09 13:43:50.599330$GNGGA,184349.70,4138.0390890,N,07032.4386345,W,1,19,0.8,14.753,M,-29.746,M,0.0,*55
###2023-12-09 13:43:50.799713$GNGGA,184349.90,4138.0390879,N,07032.4386371,W,1,19,0.8,14.745,M,-29.746,M,0.0,*5C
###2023-12-09 13:43:51.001867$GNRMC,184350.10,A,4138.0390858,N,07032.4386383,W,0.04,243.17,091223,,,A*52
###2023-12-09 13:43:51.004781$GNGGA,184350.10,4138.0390858,N,07032.4386383,W,1,19,0.8,14.743,M,-29.746,M,0.0,*54
###2023-12-09 13:43:51.006527$GPGSA,A,3,04,16,26,28,29,31,,,,,,,1.3,0.8,1.1*3C
###2023-12-09 13:43:51.008186$GLGSA,A,3,65,73,74,75,83,,,,,,,,1.3,0.8,1.1*29
###2023-12-09 13:43:51.009713$GAGSA,A,3,04,21,27,,,,,,,,,,1.3,0.8,1.1*2B
###2023-12-09 13:43:51.011415$GBGSA,A,3,12,14,24,25,35,,,,,,,,1.3,0.8,1.1*2B
###2023-12-09 13:43:51.013749$GPGSV,2,1,06,04,50,305,44,16,71,227,38,26,79,041,41,28,35,088,43*77
###2023-12-09 13:43:51.015512$GPGSV,2,2,06,29,18,043,41,31,56,072,50,,,,,,,,*7E
###2023-12-09 13:43:51.017836$GLGSV,2,1,05,65,42,314,43,73,19,055,43,74,56,021,35,75,46,277,43*6C
###2023-12-09 13:43:51.019298$GLGSV,2,2,05,83,16,043,35,,,,,,,,,,,,*5D
###2023-12-09 13:43:51.021331$GAGSV,1,1,03,04,43,308,43,21,74,044,38,27,20,051,40,,,,*58
###2023-12-09 13:43:51.023673$GBGSV,2,1,05,12,18,124,40,14,25,189,35,24,60,050,44,25,53,280,46*6C
###2023-12-09 13:43:51.025132$GBGSV,2,2,05,35,16,053,36,,,,,,,,,,,,*5C
###2023-12-09 13:43:51.026449$GNVTG,243.17,T,,M,0.04,N,0.07,K,A*23
###2023-12-09 13:43:51.028078$GNGST,184350.10,7.900,,,,0.220,0.120,0.310*62
###2023-12-09 13:43:51.029372$GNZDA,184350.10,09,12,2023,00,00*7B
###2023-12-09 13:43:51.030010$GNEBP,,,,,,M*13
###2023-12-09 13:43:51.203723$GNGGA,184350.30,4138.0390832,N,07032.4386399,W,1,19,0.8,14.734,M,-29.746,M,0.0,*51
###2023-12-09 13:43:51.398857$GNGGA,184350.50,4138.0390827,N,07032.4386415,W,1,19,0.8,14.723,M,-29.746,M,0.0,*56
###2023-12-09 13:43:51.598328$GNGGA,184350.70,4138.0390826,N,07032.4386431,W,1,19,0.8,14.717,M,-29.746,M,0.0,*54
###2023-12-09 13:43:51.801435$GNGGA,184350.90,4138.0390836,N,07032.4386446,W,1,19,0.8,14.711,M,-29.746,M,0.0,*5D
###2023-12-09 13:43:52.005173$GNRMC,184351.10,A,4138.0390845,N,07032.4386457,W,0.06,243.17,091223,,,A*53
###2023-12-09 13:43:52.008063$GNGGA,184351.10,4138.0390845,N,07032.4386457,W,1,19,0.8,14.705,M,-29.746,M,0.0,*55
###2023-12-09 13:43:52.009789$GPGSA,A,3,04,16,26,28,29,31,,,,,,,1.3,0.8,1.1*3C
###2023-12-09 13:43:52.011454$GLGSA,A,3,65,73,74,75,83,,,,,,,,1.3,0.8,1.1*29
###2023-12-09 13:43:52.012968$GAGSA,A,3,04,21,27,,,,,,,,,,1.3,0.8,1.1*2B
###2023-12-09 13:43:52.014619$GBGSA,A,3,12,14,24,25,35,,,,,,,,1.3,0.8,1.1*2B
###2023-12-09 13:43:52.016927$GPGSV,2,1,06,04,50,305,44,16,71,227,38,26,79,041,41,28,35,088,44*70
###2023-12-09 13:43:52.018672$GPGSV,2,2,06,29,18,043,41,31,56,072,50,,,,,,,,*7E
###2023-12-09 13:43:52.020976$GLGSV,2,1,05,65,42,314,43,73,19,055,43,74,56,021,36,75,46,277,43*6F
###2023-12-09 13:43:52.022419$GLGSV,2,2,05,83,16,043,35,,,,,,,,,,,,*5D
###2023-12-09 13:43:52.024441$GAGSV,1,1,03,04,43,308,43,21,74,044,38,27,20,051,40,,,,*58
###2023-12-09 13:43:52.026767$GBGSV,2,1,05,12,18,124,40,14,25,189,35,24,60,050,43,25,53,280,46*6B
###2023-12-09 13:43:52.028208$GBGSV,2,2,05,35,16,053,36,,,,,,,,,,,,*5C
###2023-12-09 13:43:52.029518$GNVTG,243.17,T,,M,0.06,N,0.11,K,A*26
###2023-12-09 13:43:52.031136$GNGST,184351.10,8.000,,,,0.220,0.120,0.310*65
###2023-12-09 13:43:52.032420$GNZDA,184351.10,09,12,2023,00,00*7A
###2023-12-09 13:43:52.033053$GNEBP,,,,,,M*13
###2023-12-09 13:43:52.201377$GNGGA,184351.30,4138.0390822,N,07032.4386465,W,1,19,0.8,14.699,M,-29.746,M,0.0,*53
###2023-12-09 13:43:52.401010$GNGGA,184351.50,4138.0390824,N,07032.4386489,W,1,19,0.8,14.690,M,-29.746,M,0.0,*58
###2023-12-09 13:43:52.600375$GNGGA,184351.70,4138.0390812,N,07032.4386487,W,1,19,0.8,14.685,M,-29.746,M,0.0,*55
###2023-12-09 13:43:52.799888$GNGGA,184351.90,4138.0390813,N,07032.4386494,W,1,19,0.8,14.680,M,-29.746,M,0.0,*5D
###2023-12-09 13:43:53.005206$GNRMC,184352.10,A,4138.0390792,N,07032.4386506,W,0.02,243.17,091223,,,A*54
###2023-12-09 13:43:53.008186$GNGGA,184352.10,4138.0390792,N,07032.4386506,W,1,19,0.8,14.676,M,-29.746,M,0.0,*53
###2023-12-09 13:43:53.009921$GPGSA,A,3,04,16,26,28,29,31,,,,,,,1.3,0.8,1.1*3C
###2023-12-09 13:43:53.011587$GLGSA,A,3,65,73,74,75,83,,,,,,,,1.3,0.8,1.1*29
###2023-12-09 13:43:53.013104$GAGSA,A,3,04,21,27,,,,,,,,,,1.3,0.8,1.1*2B
###2023-12-09 13:43:53.014759$GBGSA,A,3,12,14,24,25,35,,,,,,,,1.3,0.8,1.1*2B
###2023-12-09 13:43:53.017088$GPGSV,2,1,06,04,50,305,44,16,71,227,39,26,79,041,41,28,35,088,44*71
###2023-12-09 13:43:53.018842$GPGSV,2,2,06,29,18,043,42,31,56,072,50,,,,,,,,*7D
###2023-12-09 13:43:53.021172$GLGSV,2,1,05,65,42,314,43,73,19,055,43,74,56,021,36,75,46,277,43*6F
###2023-12-09 13:43:53.022629$GLGSV,2,2,05,83,16,043,35,,,,,,,,,,,,*5D
###2023-12-09 13:43:53.024661$GAGSV,1,1,03,04,43,308,43,21,74,044,39,27,20,051,40,,,,*59
###2023-12-09 13:43:53.027001$GBGSV,2,1,05,12,18,124,40,14,25,189,35,24,60,050,43,25,53,280,46*6B
###2023-12-09 13:43:53.028461$GBGSV,2,2,05,35,16,053,36,,,,,,,,,,,,*5C
###2023-12-09 13:43:53.029782$GNVTG,243.17,T,,M,0.02,N,0.04,K,A*26
###2023-12-09 13:43:53.031403$GNGST,184352.10,8.000,,,,0.220,0.120,0.310*66
###2023-12-09 13:43:53.032689$GNZDA,184352.10,09,12,2023,00,00*79
###2023-12-09 13:43:53.033325$GNEBP,,,,,,M*13
###2023-12-09 13:43:53.201605$GNGGA,184352.30,4138.0390783,N,07032.4386518,W,1,19,0.8,14.672,M,-29.746,M,0.0,*5A
###2023-12-09 13:43:53.400619$GNGGA,184352.50,4138.0390784,N,07032.4386542,W,1,19,0.8,14.666,M,-29.746,M,0.0,*51
###2023-12-09 13:43:53.599527$GNGGA,184352.70,4138.0390773,N,07032.4386558,W,1,18,0.8,14.662,M,-29.746,M,0.0,*55
###2023-12-09 13:43:53.799975$GNGGA,184352.90,4138.0390752,N,07032.4386573,W,1,18,0.8,14.653,M,-29.746,M,0.0,*53
###2023-12-09 13:43:54.004900$GNRMC,184353.10,A,4138.0390750,N,07032.4386584,W,0.00,243.17,091223,,,A*53
###2023-12-09 13:43:54.007779$GNGGA,184353.10,4138.0390750,N,07032.4386584,W,1,18,0.8,14.650,M,-29.746,M,0.0,*53
###2023-12-09 13:43:54.009505$GPGSA,A,3,04,16,26,28,29,31,,,,,,,1.3,0.8,1.1*3C
###2023-12-09 13:43:54.011169$GLGSA,A,3,65,73,74,75,83,,,,,,,,1.3,0.8,1.1*29
###2023-12-09 13:43:54.012690$GAGSA,A,3,04,21,27,,,,,,,,,,1.3,0.8,1.1*2B
###2023-12-09 13:43:54.014270$GBGSA,A,3,12,24,25,35,,,,,,,,,1.3,0.8,1.1*2E
###2023-12-09 13:43:54.016623$GPGSV,2,1,06,04,50,305,44,16,71,227,39,26,79,041,41,28,35,088,44*71
###2023-12-09 13:43:54.018376$GPGSV,2,2,06,29,18,043,42,31,56,072,50,,,,,,,,*7D
###2023-12-09 13:43:54.020759$GLGSV,2,1,05,65,42,314,43,73,19,055,43,74,56,021,36,75,46,277,43*6F
###2023-12-09 13:43:54.022226$GLGSV,2,2,05,83,16,043,35,,,,,,,,,,,,*5D
###2023-12-09 13:43:54.024268$GAGSV,1,1,03,04,43,308,43,21,74,044,39,27,20,051,40,,,,*59
###2023-12-09 13:43:54.026607$GBGSV,1,1,04,12,18,124,40,24,60,050,42,25,53,280,45,35,16,053,35*6E
###2023-12-09 13:43:54.027936$GNVTG,243.17,T,,M,0.00,N,0.00,K,A*20
###2023-12-09 13:43:54.029553$GNGST,184353.10,7.700,,,,0.220,0.120,0.310*6F
###2023-12-09 13:43:54.031097$GNZDA,184353.10,09,12,2023,00,00*78
###2023-12-09 13:43:54.031743$GNEBP,,,,,,M*13
###2023-12-09 13:43:54.201498$GNGGA,184353.30,4138.0390755,N,07032.4386594,W,1,18,0.8,14.644,M,-29.746,M,0.0,*50
###2023-12-09 13:43:54.401106$GNGGA,184353.50,4138.0390753,N,07032.4386612,W,1,18,0.8,14.639,M,-29.746,M,0.0,*57
###2023-12-09 13:43:54.601156$GNGGA,184353.70,4138.0390755,N,07032.4386623,W,1,18,0.8,14.639,M,-29.746,M,0.0,*51
###2023-12-09 13:43:54.801428$GNGGA,184353.90,4138.0390751,N,07032.4386638,W,1,18,0.8,14.632,M,-29.746,M,0.0,*5A
