###2023-12-09 12:54:58.960594$GPGSA,A,3,03,04,16,26,28,29,31,32,,,,,1.1,0.6,0.9*3B
###2023-12-09 12:54:58.962325$GLGSA,A,3,65,71,72,73,74,75,,,,,,,1.1,0.6,0.9*24
###2023-12-09 12:54:58.963923$GAGSA,A,3,04,19,21,27,,,,,,,,,1.1,0.6,0.9*26
###2023-12-09 12:54:58.965572$GBGSA,A,3,14,24,25,26,33,,,,,,,,1.1,0.6,0.9*2F
###2023-12-09 12:54:58.967904$GPGSV,2,1,08,03,36,266,46,04,29,311,43,16,46,211,46,26,76,209,47*77
###2023-12-09 12:54:58.970227$GPGSV,2,2,08,28,52,067,46,29,25,064,45,31,70,029,47,32,22,138,40*72
###2023-12-09 12:54:58.972566$GLGSV,2,1,06,65,21,328,42,71,44,172,45,72,72,281,46,73,38,040,46*6C
###2023-12-09 12:54:58.974301$GLGSV,2,2,06,74,71,327,43,75,30,250,45,,,,,,,,*60
###2023-12-09 12:54:58.976614$GAGSV,1,1,04,04,27,312,41,19,85,242,40,21,84,147,46,27,35,048,43*6A
###2023-12-09 12:54:58.978943$GBGSV,2,1,05,14,46,194,44,24,75,018,49,25,39,260,47,26,28,061,46*67
###2023-12-09 12:54:58.980399$GBGSV,2,2,05,33,59,237,48,,,,,,,,,,,,*58
###2023-12-09 12:54:58.981715$GNVTG,159.19,T,,M,3.38,N,6.26,K,A*2C
###2023-12-09 12:54:58.983371$GNGST,175458.10,18.000,,,,0.080,0.066,0.160*5A
###2023-12-09 12:54:58.984660$GNZDA,175458.10,09,12,2023,00,00*7A
###2023-12-09 12:54:58.985298$GNEBP,,,,,,M*13
###2023-12-09 12:54:59.152634$GNGGA,175458.30,4138.0464644,N,07032.3906526,W,1,24,0.6,13.222,M,-29.745,M,0.0,*52
###2023-12-09 12:54:59.354631$GNGGA,175458.50,4138.0462945,N,07032.3905523,W,1,24,0.6,13.197,M,-29.745,M,0.0,*57
###2023-12-09 12:54:59.555879$GNGGA,175458.70,4138.0461300,N,07032.3904571,W,1,24,0.6,13.211,M,-29.745,M,0.0,*56
###2023-12-09 12:54:59.754538$GNGGA,175458.90,4138.0459485,N,07032.3903702,W,1,24,0.6,13.232,M,-29.745,M,0.0,*59
###2023-12-09 12:54:59.954268$GNRMC,175459.10,A,4138.0457807,N,07032.3902561,W,3.32,150.51,091223,,,A*5A
###2023-12-09 12:54:59.957180$GNGGA,175459.10,4138.0457807,N,07032.3902561,W,1,24,0.6,13.202,M,-29.745,M,0.0,*5D
###2023-12-09 12:54:59.959075$GPGSA,A,3,03,04,16,26,28,29,31,32,,,,,1.1,0.6,0.9*3B
###2023-12-09 12:54:59.960803$GLGSA,A,3,65,71,72,73,74,75,,,,,,,1.1,0.6,0.9*24
###2023-12-09 12:54:59.962389$GAGSA,A,3,04,19,21,27,,,,,,,,,1.1,0.6,0.9*26
###2023-12-09 12:54:59.964059$GBGSA,A,3,14,24,25,26,33,,,,,,,,1.1,0.6,0.9*2F
###2023-12-09 12:54:59.966400$GPGSV,2,1,08,03,36,266,46,04,29,311,42,16,46,211,46,26,76,209,47*76
###2023-12-09 12:54:59.968764$GPGSV,2,2,08,28,52,067,46,29,25,064,45,31,70,029,47,32,22,138,41*73
###2023-12-09 12:54:59.971114$GLGSV,2,1,06,65,21,328,42,71,44,172,45,72,72,281,46,73,38,040,45*6F
###2023-12-09 12:54:59.972873$GLGSV,2,2,06,74,71,327,43,75,30,250,46,,,,,,,,*63
###2023-12-09 12:54:59.975215$GAGSV,1,1,04,04,27,312,41,19,85,242,40,21,84,147,46,27,35,048,43*6A
###2023-12-09 12:54:59.977547$GBGSV,2,1,05,14,46,194,44,24,75,018,49,25,39,260,47,26,28,061,46*67
###2023-12-09 12:54:59.979012$GBGSV,2,2,05,33,59,237,48,,,,,,,,,,,,*58
###2023-12-09 12:54:59.980337$GNVTG,150.51,T,,M,3.32,N,6.16,K,A*20
###2023-12-09 12:54:59.981981$GNGST,175459.10,18.000,,,,0.080,0.065,0.160*58
###2023-12-09 12:54:59.983286$GNZDA,175459.10,09,12,2023,00,00*7B
###2023-12-09 12:54:59.983926$GNEBP,,,,,,M*13
###2023-12-09 12:55:00.154489$GNGGA,175459.30,4138.0456149,N,07032.3901593,W,1,24,0.6,13.208,M,-29.745,M,0.0,*59
###2023-12-09 12:55:00.353386$GNGGA,175459.50,4138.0454360,N,07032.3900792,W,1,24,0.6,13.234,M,-29.745,M,0.0,*59
###2023-12-09 12:55:00.553477$GNGGA,175459.70,4138.0452574,N,07032.3899989,W,1,24,0.6,13.226,M,-29.745,M,0.0,*58
###2023-12-09 12:55:00.753356$GNGGA,175459.90,4138.0450863,N,07032.3899223,W,1,24,0.6,13.227,M,-29.745,M,0.0,*55
###2023-12-09 12:55:00.953028$GNRMC,175500.10,A,4138.0449089,N,07032.3898533,W,3.42,165.39,091223,,,A*5C
###2023-12-09 12:55:00.955908$GNGGA,175500.10,4138.0449089,N,07032.3898533,W,1,24,0.6,13.235,M,-29.745,M,0.0,*50
###2023-12-09 12:55:00.957783$GPGSA,A,3,03,04,16,26,28,29,31,32,,,,,1.1,0.6,0.9*3B
###2023-12-09 12:55:00.959522$GLGSA,A,3,65,71,72,73,74,75,,,,,,,1.1,0.6,0.9*24
###2023-12-09 12:55:00.961112$GAGSA,A,3,04,19,21,27,,,,,,,,,1.1,0.6,0.9*26
###2023-12-09 12:55:00.962778$GBGSA,A,3,14,24,25,26,33,,,,,,,,1.1,0.6,0.9*2F
###2023-12-09 12:55:00.965118$GPGSV,2,1,08,03,36,266,46,04,29,311,43,16,46,211,46,26,76,209,49*79
###2023-12-09 12:55:00.967459$GPGSV,2,2,08,28,52,067,46,29,25,064,45,31,70,029,49,32,22,138,42*7E
###2023-12-09 12:55:00.969800$GLGSV,2,1,06,65,21,328,41,71,44,172,44,72,72,281,46,73,38,040,46*6E
###2023-12-09 12:55:00.971566$GLGSV,2,2,06,74,71,327,43,75,30,250,44,,,,,,,,*61
###2023-12-09 12:55:00.973890$GAGSV,1,1,04,04,27,312,42,19,85,242,42,21,84,147,46,27,35,048,44*6C
###2023-12-09 12:55:00.976239$GBGSV,2,1,05,14,46,194,44,24,75,018,49,25,39,260,46,26,28,061,44*64
###2023-12-09 12:55:00.977700$GBGSV,2,2,05,33,59,237,48,,,,,,,,,,,,*58
###2023-12-09 12:55:00.979042$GNVTG,165.39,T,,M,3.42,N,6.34,K,A*2F
###2023-12-09 12:55:00.980700$GNGST,175500.10,18.000,,,,0.080,0.065,0.160*55
###2023-12-09 12:55:00.981991$GNZDA,175500.10,09,12,2023,00,00*76
###2023-12-09 12:55:00.982642$GNEBP,,,,,,M*13
###2023-12-09 12:55:01.152585$GNGGA,175500.30,4138.0447278,N,07032.3897965,W,1,24,0.6,13.226,M,-29.745,M,0.0,*52
###2023-12-09 12:55:01.353611$GNGGA,175500.50,4138.0445504,N,07032.3897699,W,1,24,0.6,13.246,M,-29.745,M,0.0,*50
###2023-12-09 12:55:01.554517$GNGGA,175500.70,4138.0443693,N,07032.3897494,W,1,24,0.6,13.263,M,-29.745,M,0.0,*51
###2023-12-09 12:55:01.753687$GNGGA,175500.90,4138.0441884,N,07032.3897162,W,1,24,0.6,13.236,M,-29.745,M,0.0,*59
###2023-12-09 12:55:01.954316$GNRMC,175501.10,A,4138.0440115,N,07032.3897064,W,3.23,182.30,091223,,,A*5F
###2023-12-09 12:55:01.957223$GNGGA,175501.10,4138.0440115,N,07032.3897064,W,1,24,0.6,13.232,M,-29.745,M,0.0,*53
###2023-12-09 12:55:01.959096$GPGSA,A,3,03,04,16,26,28,29,31,32,,,,,1.1,0.6,0.9*3B
###2023-12-09 12:55:01.960823$GLGSA,A,3,65,71,72,73,74,75,,,,,,,1.1,0.6,0.9*24
###2023-12-09 12:55:01.962416$GAGSA,A,3,04,19,21,27,,,,,,,,,1.1,0.6,0.9*26
###2023-12-09 12:55:01.964083$GBGSA,A,3,14,24,25,26,33,,,,,,,,1.1,0.6,0.9*2F
###2023-12-09 12:55:01.966433$GPGSV,2,1,08,03,36,266,44,04,29,311,42,16,46,211,45,26,76,209,49*79
###2023-12-09 12:55:01.968802$GPGSV,2,2,08,28,52,067,46,29,25,064,45,31,70,029,48,32,22,138,44*79
###2023-12-09 12:55:01.971180$GLGSV,2,1,06,65,21,328,41,71,44,172,44,72,72,281,46,73,38,040,46*6E
###2023-12-09 12:55:01.972942$GLGSV,2,2,06,74,71,327,43,75,30,250,42,,,,,,,,*67
###2023-12-09 12:55:01.975294$GAGSV,1,1,04,04,27,312,41,19,85,242,41,21,84,147,46,27,35,048,44*6C
###2023-12-09 12:55:01.977640$GBGSV,2,1,05,14,46,194,42,24,75,018,48,25,39,260,45,26,28,061,44*60
###2023-12-09 12:55:01.979116$GBGSV,2,2,05,33,59,237,48,,,,,,,,,,,,*58
###2023-12-09 12:55:01.980448$GNVTG,182.30,T,,M,3.23,N,5.98,K,A*2D
###2023-12-09 12:55:01.982104$GNGST,175501.10,18.000,,,,0.080,0.065,0.150*57
###2023-12-09 12:55:01.983414$GNZDA,175501.10,09,12,2023,00,00*77
###2023-12-09 12:55:01.984059$GNEBP,,,,,,M*13
###2023-12-09 12:55:02.153569$GNGGA,175501.30,4138.0438318,N,07032.3897131,W,1,24,0.6,13.254,M,-29.745,M,0.0,*50
###2023-12-09 12:55:02.354122$GNGGA,175501.50,4138.0436581,N,07032.3897156,W,1,24,0.6,13.251,M,-29.745,M,0.0,*5A
###2023-12-09 12:55:02.554469$GNGGA,175501.70,4138.0434808,N,07032.3897276,W,1,24,0.6,13.240,M,-29.745,M,0.0,*57
###2023-12-09 12:55:02.757766$GNGGA,175501.90,4138.0433049,N,07032.3897525,W,1,24,0.6,13.228,M,-29.745,M,0.0,*5C
###2023-12-09 12:55:02.954237$GNRMC,175502.10,A,4138.0431346,N,07032.3898050,W,3.07,193.83,091223,,,A*58
###2023-12-09 12:55:02.957168$GNGGA,175502.10,4138.0431346,N,07032.3898050,W,1,24,0.6,13.240,M,-29.745,M,0.0,*5F
###2023-12-09 12:55:02.959078$GPGSA,A,3,03,04,16,26,28,29,31,32,,,,,1.1,0.6,0.9*3B
###2023-12-09 12:55:02.960810$GLGSA,A,3,65,71,72,73,74,75,,,,,,,1.1,0.6,0.9*24
###2023-12-09 12:55:02.962404$GAGSA,A,3,04,19,21,27,,,,,,,,,1.1,0.6,0.9*26
###2023-12-09 12:55:02.964093$GBGSA,A,3,14,24,25,26,33,,,,,,,,1.1,0.6,0.9*2F
###2023-12-09 12:55:02.966441$GPGSV,2,1,08,03,36,266,43,04,29,311,42,16,46,211,43,26,76,209,47*76
###2023-12-09 12:55:02.968798$GPGSV,2,2,08,28,52,067,45,29,25,064,40,31,70,029,47,32,22,138,43*77
###2023-12-09 12:55:02.971156$GLGSV,2,1,06,65,21,328,38,71,44,172,46,72,72,281,46,73,38,040,45*61
###2023-12-09 12:55:02.973152$GLGSV,2,2,06,74,71,327,43,75,30,250,43,,,,,,,,*66
###2023-12-09 12:55:02.975511$GAGSV,1,1,04,04,27,312,41,19,85,242,40,21,84,147,46,27,35,048,41*68
###2023-12-09 12:55:02.977860$GBGSV,2,1,05,14,46,194,42,24,75,018,49,25,39,260,45,26,28,061,42*67
###2023-12-09 12:55:02.979337$GBGSV,2,2,05,33,59,237,48,,,,,,,,,,,,*58
###2023-12-09 12:55:02.980667$GNVTG,193.83,T,,M,3.07,N,5.69,K,A*2D
###2023-12-09 12:55:02.982317$GNGST,175502.10,18.000,,,,0.080,0.065,0.150*54
###2023-12-09 12:55:02.983623$GNZDA,175502.10,09,12,2023,00,00*74
###2023-12-09 12:55:02.984267$GNEBP,,,,,,M*13
###2023-12-09 12:55:03.154593$GNGGA,175502.30,4138.0429674,N,07032.3898601,W,1,24,0.6,13.247,M,-29.745,M,0.0,*55
