###2023-12-09 12:23:57.117815$GNGGA,172356.30,4138.0392148,N,07032.4358601,W,1,19,0.8,15.657,M,-29.746,M,0.0,*5A
###2023-12-09 12:23:57.316942$GNGGA,172356.50,4138.0392156,N,07032.4358660,W,1,19,0.8,15.624,M,-29.746,M,0.0,*50
###2023-12-09 12:23:57.516676$GNGGA,172356.70,4138.0392186,N,07032.4358721,W,1,19,0.8,15.592,M,-29.746,M,0.0,*55
###2023-12-09 12:23:57.715594$GNGGA,172356.90,4138.0392196,N,07032.4358780,W,1,19,0.8,15.562,M,-29.746,M,0.0,*5E
###2023-12-09 12:23:57.916544$GNRMC,172357.10,A,4138.0392220,N,07032.4358829,W,0.06,,091223,,,A*4C
###2023-12-09 12:23:57.920316$GNGGA,172357.10,4138.0392220,N,07032.4358829,W,1,19,0.8,15.531,M,-29.746,M,0.0,*53
###2023-12-09 12:23:57.922740$GPGSA,A,3,03,16,25,26,28,29,32,,,,,,1.3,0.8,1.1*3F
###2023-12-09 12:23:57.924990$GLGSA,A,3,71,72,73,74,75,,,,,,,,1.3,0.8,1.1*22
###2023-12-09 12:23:57.927066$GAGSA,A,3,04,21,27,,,,,,,,,,1.3,0.8,1.1*2B
###2023-12-09 12:23:57.929194$GBGSA,A,3,14,25,26,33,,,,,,,,,1.3,0.8,1.1*2C
###2023-12-09 12:23:57.932259$GPGSV,2,1,07,03,39,283,41,16,31,206,43,25,16,045,42,26,61,205,45*7C
###2023-12-09 12:23:57.934989$GPGSV,2,2,07,28,62,049,40,29,24,079,44,32,35,131,47,,,,*4D
###2023-12-09 12:23:57.938033$GLGSV,2,1,05,71,63,167,45,72,61,317,37,73,53,030,48,74,69,274,36*67
###2023-12-09 12:23:57.940031$GLGSV,2,2,05,75,18,237,42,,,,,,,,,,,,*5B
###2023-12-09 12:23:57.942765$GAGSV,1,1,03,04,17,310,37,21,73,180,46,27,45,051,46,,,,*51
###2023-12-09 12:23:57.945715$GBGSV,1,1,04,14,60,201,45,25,29,249,42,26,39,055,47,33,64,265,39*6F
###2023-12-09 12:23:57.947355$GNVTG,,T,,M,0.06,N,0.11,K,A*3B
###2023-12-09 12:23:57.950216$GNGST,172357.10,32.000,,,,0.100,0.100,0.230*53
###2023-12-09 12:23:57.952422$GNZDA,172357.10,09,12,2023,00,00*75
###2023-12-09 12:23:57.953966$GNEBP,,,,,,M*13
###2023-12-09 12:23:58.115629$GNGGA,172357.30,4138.0392229,N,07032.4358873,W,1,19,0.8,15.500,M,-29.746,M,0.0,*55
###2023-12-09 12:23:58.316681$GNGGA,172357.50,4138.0392247,N,07032.4358924,W,1,19,0.8,15.475,M,-29.746,M,0.0,*5B
###2023-12-09 12:23:58.516551$GNGGA,172357.70,4138.0392265,N,07032.4358981,W,1,19,0.8,15.438,M,-29.746,M,0.0,*5F
###2023-12-09 12:23:58.719573$GNGGA,172357.90,4138.0392295,N,07032.4359026,W,1,19,0.8,15.412,M,-29.746,M,0.0,*53
###2023-12-09 12:23:58.919635$GNRMC,172358.10,A,4138.0392318,N,07032.4359083,W,0.04,,091223,,,A*42
###2023-12-09 12:23:58.922521$GNGGA,172358.10,4138.0392318,N,07032.4359083,W,1,19,0.8,15.377,M,-29.746,M,0.0,*5B
###2023-12-09 12:23:58.924350$GPGSA,A,3,03,16,25,26,28,29,32,,,,,,1.3,0.8,1.1*3F
###2023-12-09 12:23:58.926027$GLGSA,A,3,71,72,73,74,75,,,,,,,,1.3,0.8,1.1*22
###2023-12-09 12:23:58.927585$GAGSA,A,3,04,21,27,,,,,,,,,,1.3,0.8,1.1*2B
###2023-12-09 12:23:58.929185$GBGSA,A,3,14,25,26,33,,,,,,,,,1.3,0.8,1.1*2C
###2023-12-09 12:23:58.931544$GPGSV,2,1,07,03,39,283,41,16,31,206,43,25,16,045,41,26,61,205,45*7F
###2023-12-09 12:23:58.933607$GPGSV,2,2,07,28,62,049,41,29,24,079,44,32,35,131,47,,,,*4C
###2023-12-09 12:23:58.935969$GLGSV,2,1,05,71,63,167,45,72,61,317,37,73,53,030,48,74,69,274,36*67
###2023-12-09 12:23:58.937438$GLGSV,2,2,05,75,18,237,42,,,,,,,,,,,,*5B
###2023-12-09 12:23:58.939494$GAGSV,1,1,03,04,17,310,36,21,73,180,46,27,45,051,46,,,,*50
###2023-12-09 12:23:58.941835$GBGSV,1,1,04,14,60,201,45,25,29,249,42,26,39,055,47,33,64,265,39*6F
###2023-12-09 12:23:58.942999$GNVTG,,T,,M,0.04,N,0.07,K,A*3E
###2023-12-09 12:23:58.944657$GNGST,172358.10,32.000,,,,0.100,0.100,0.230*5C
###2023-12-09 12:23:58.945964$GNZDA,172358.10,09,12,2023,00,00*7A
###2023-12-09 12:23:58.946972$GNEBP,,,,,,M*13
###2023-12-09 12:23:59.116546$GNGGA,172358.30,4138.0392345,N,07032.4359132,W,1,19,0.8,15.349,M,-29.746,M,0.0,*57
###2023-12-09 12:23:59.316633$GNGGA,172358.50,4138.0392372,N,07032.4359173,W,1,19,0.8,15.312,M,-29.746,M,0.0,*5E
###2023-12-09 12:23:59.516511$GNGGA,172358.70,4138.0392393,N,07032.4359211,W,1,19,0.8,15.282,M,-29.746,M,0.0,*5C
###2023-12-09 12:23:59.714805$GNGGA,172358.90,4138.0392428,N,07032.4359258,W,1,19,0.8,15.248,M,-29.746,M,0.0,*5E
###2023-12-09 12:23:59.917166$GNRMC,172359.10,A,4138.0392456,N,07032.4359309,W,0.02,,091223,,,A*49
###2023-12-09 12:23:59.920234$GNGGA,172359.10,4138.0392456,N,07032.4359309,W,1,19,0.8,15.217,M,-29.746,M,0.0,*51
###2023-12-09 12:23:59.922046$GPGSA,A,3,03,16,25,26,28,29,32,,,,,,1.3,0.8,1.1*3F
###2023-12-09 12:23:59.923727$GLGSA,A,3,71,72,73,74,75,,,,,,,,1.3,0.8,1.1*22
###2023-12-09 12:23:59.925260$GAGSA,A,3,04,21,27,,,,,,,,,,1.3,0.8,1.1*2B
###2023-12-09 12:23:59.926869$GBGSA,A,3,14,25,26,33,,,,,,,,,1.3,0.8,1.1*2C
###2023-12-09 12:23:59.929213$GPGSV,2,1,07,03,39,283,41,16,31,206,44,25,16,045,41,26,61,205,45*78
###2023-12-09 12:23:59.931282$GPGSV,2,2,07,28,62,049,41,29,24,079,44,32,35,131,47,,,,*4C
###2023-12-09 12:23:59.933622$GLGSV,2,1,05,71,63,167,44,72,61,317,37,73,53,030,48,74,69,274,37*67
###2023-12-09 12:23:59.935108$GLGSV,2,2,05,75,18,237,42,,,,,,,,,,,,*5B
###2023-12-09 12:23:59.937160$GAGSV,1,1,03,04,17,310,36,21,73,180,46,27,45,051,46,,,,*50
###2023-12-09 12:23:59.939503$GBGSV,1,1,04,14,60,201,45,25,29,249,42,26,39,055,47,33,64,265,39*6F
###2023-12-09 12:23:59.940647$GNVTG,,T,,M,0.02,N,0.04,K,A*3B
###2023-12-09 12:23:59.942305$GNGST,172359.10,32.000,,,,0.100,0.100,0.230*5D
###2023-12-09 12:23:59.943616$GNZDA,172359.10,09,12,2023,00,00*7B
###2023-12-09 12:23:59.944266$GNEBP,,,,,,M*13
###2023-12-09 12:24:00.116591$GNGGA,172359.30,4138.0392481,N,07032.4359366,W,1,19,0.8,15.184,M,-29.746,M,0.0,*59
###2023-12-09 12:24:00.316833$GNGGA,172359.50,4138.0392522,N,07032.4359417,W,1,19,0.8,15.157,M,-29.746,M,0.0,*58
###2023-12-09 12:24:00.515180$GNGGA,172359.70,4138.0392534,N,07032.4359455,W,1,19,0.8,15.119,M,-29.746,M,0.0,*51
###2023-12-09 12:24:00.715782$GNGGA,172359.90,4138.0392555,N,07032.4359480,W,1,19,0.8,15.088,M,-29.746,M,0.0,*59
###2023-12-09 12:24:00.919215$GNRMC,172400.10,A,4138.0392579,N,07032.4359517,W,0.02,,091223,,,A*47
###2023-12-09 12:24:00.922097$GNGGA,172400.10,4138.0392579,N,07032.4359517,W,1,19,0.8,15.059,M,-29.746,M,0.0,*57
###2023-12-09 12:24:00.923943$GPGSA,A,3,03,16,25,26,28,29,32,,,,,,1.3,0.8,1.1*3F
###2023-12-09 12:24:00.925614$GLGSA,A,3,71,72,73,74,75,,,,,,,,1.3,0.8,1.1*22
###2023-12-09 12:24:00.927164$GAGSA,A,3,04,21,27,,,,,,,,,,1.3,0.8,1.1*2B
###2023-12-09 12:24:00.928762$GBGSA,A,3,14,25,26,33,,,,,,,,,1.3,0.8,1.1*2C
###2023-12-09 12:24:00.931155$GPGSV,2,1,07,03,39,283,41,16,31,206,44,25,16,045,41,26,61,205,45*78
###2023-12-09 12:24:00.933207$GPGSV,2,2,07,28,62,049,41,29,24,079,44,32,35,131,47,,,,*4C
###2023-12-09 12:24:00.935554$GLGSV,2,1,05,71,63,167,44,72,61,317,37,73,53,030,48,74,69,274,37*67
###2023-12-09 12:24:00.937018$GLGSV,2,2,05,75,18,237,41,,,,,,,,,,,,*58
###2023-12-09 12:24:00.939067$GAGSV,1,1,03,04,17,310,37,21,73,180,46,27,45,051,46,,,,*51
###2023-12-09 12:24:00.941405$GBGSV,1,1,04,14,60,201,45,25,29,249,42,26,39,055,47,33,64,265,39*6F
###2023-12-09 12:24:00.942551$GNVTG,,T,,M,0.02,N,0.04,K,A*3B
###2023-12-09 12:24:00.944219$GNGST,172400.10,32.000,,,,0.100,0.100,0.230*56
###2023-12-09 12:24:00.945518$GNZDA,172400.10,09,12,2023,00,00*70
###2023-12-09 12:24:00.946163$GNEBP,,,,,,M*13
###2023-12-09 12:24:01.116628$GNGGA,172400.30,4138.0392602,N,07032.4359561,W,1,19,0.8,15.025,M,-29.746,M,0.0,*50
###2023-12-09 12:24:01.316649$GNGGA,172400.50,4138.0392630,N,07032.4359589,W,1,19,0.8,14.989,M,-29.746,M,0.0,*5F
###2023-12-09 12:24:01.516092$GNGGA,172400.70,4138.0392639,N,07032.4359621,W,1,19,0.8,14.957,M,-29.746,M,0.0,*56
###2023-12-09 12:24:01.715856$GNGGA,172400.90,4138.0392663,N,07032.4359645,W,1,19,0.8,14.923,M,-29.746,M,0.0,*56
###2023-12-09 12:24:01.918009$GNRMC,172401.10,A,4138.0392680,N,07032.4359674,W,0.02,,091223,,,A*45
###2023-12-09 12:24:01.921108$GNGGA,172401.10,4138.0392680,N,07032.4359674,W,1,19,0.8,14.891,M,-29.746,M,0.0,*58
###2023-12-09 12:24:01.922939$GPGSA,A,3,03,16,25,26,28,29,32,,,,,,1.3,0.8,1.1*3F
###2023-12-09 12:24:01.924609$GLGSA,A,3,71,72,73,74,75,,,,,,,,1.3,0.8,1.1*22
###2023-12-09 12:24:01.926137$GAGSA,A,3,04,21,27,,,,,,,,,,1.3,0.8,1.1*2B
###2023-12-09 12:24:01.927743$GBGSA,A,3,14,25,26,33,,,,,,,,,1.3,0.8,1.1*2C
###2023-12-09 12:24:01.930072$GPGSV,2,1,07,03,39,283,41,16,31,206,43,25,16,045,41,26,61,205,45*7F
###2023-12-09 12:24:01.932396$GPGSV,2,2,07,28,62,049,41,29,24,079,43,32,35,131,47,,,,*4B
###2023-12-09 12:24:01.934767$GLGSV,2,1,05,71,63,167,44,72,61,317,37,73,53,030,48,74,69,274,36*66
###2023-12-09 12:24:01.936245$GLGSV,2,2,05,75,18,237,41,,,,,,,,,,,,*58
###2023-12-09 12:24:01.938275$GAGSV,1,1,03,04,17,310,36,21,73,180,46,27,45,051,46,,,,*50
###2023-12-09 12:24:01.940610$GBGSV,1,1,04,14,60,201,44,25,29,249,42,26,39,055,47,33,64,265,38*6F
###2023-12-09 12:24:01.941745$GNVTG,,T,,M,0.02,N,0.04,K,A*3B
###2023-12-09 12:24:01.943395$GNGST,172401.10,32.000,,,,0.100,0.100,0.230*57
###2023-12-09 12:24:01.944688$GNZDA,172401.10,09,12,2023,00,00*71
###2023-12-09 12:24:01.945329$GNEBP,,,,,,M*13
