###2023-12-09 13:47:12.018805$GBGSA,A,3,12,24,25,33,35,,,,,,,,1.3,0.7,1.1*21
###2023-12-09 13:47:12.021163$GPGSV,2,1,06,04,51,304,48,16,72,228,40,26,78,041,42,28,34,089,46*7F
###2023-12-09 13:47:12.022942$GPGSV,2,2,06,29,18,043,42,31,56,073,50,,,,,,,,*7C
###2023-12-09 13:47:12.025275$GLGSV,2,1,06,65,43,312,44,72,56,213,38,73,17,056,39,74,55,024,37*63
###2023-12-09 13:47:12.027039$GLGSV,2,2,06,75,47,280,46,83,16,041,36,,,,,,,,*66
###2023-12-09 13:47:12.029075$GAGSV,1,1,03,04,43,308,46,21,72,043,41,27,19,051,42,,,,*5A
###2023-12-09 13:47:12.031410$GBGSV,2,1,05,12,19,122,42,24,58,052,47,25,54,282,43,33,40,213,36*66
###2023-12-09 13:47:12.032868$GBGSV,2,2,05,35,16,051,37,,,,,,,,,,,,*5F
###2023-12-09 13:47:12.034187$GNVTG,243.17,T,,M,0.02,N,0.04,K,A*26
###2023-12-09 13:47:12.035822$GNGST,184711.10,8.000,,,,0.200,0.120,0.320*64
###2023-12-09 13:47:12.037112$GNZDA,184711.10,09,12,2023,00,00*7A
###2023-12-09 13:47:12.037749$GNEBP,,,,,,M*13
###2023-12-09 13:47:12.204009$GNGGA,184711.30,4138.0395852,N,07032.4384860,W,1,20,0.7,15.624,M,-29.746,M,0.0,*58
###2023-12-09 13:47:12.402796$GNGGA,184711.50,4138.0395844,N,07032.4384856,W,1,20,0.7,15.620,M,-29.746,M,0.0,*58
###2023-12-09 13:47:12.601220$GNGGA,184711.70,4138.0395836,N,07032.4384851,W,1,20,0.7,15.626,M,-29.746,M,0.0,*5E
###2023-12-09 13:47:12.802329$GNGGA,184711.90,4138.0395806,N,07032.4384854,W,1,20,0.7,15.627,M,-29.746,M,0.0,*57
###2023-12-09 13:47:13.003461$GNRMC,184712.10,A,4138.0395777,N,07032.4384854,W,0.06,243.17,091223,,,A*56
###2023-12-09 13:47:13.006309$GNGGA,184712.10,4138.0395777,N,07032.4384854,W,1,20,0.7,15.631,M,-29.746,M,0.0,*52
###2023-12-09 13:47:13.008042$GPGSA,A,3,04,16,26,28,29,31,,,,,,,1.3,0.7,1.1*33
###2023-12-09 13:47:13.009757$GLGSA,A,3,65,72,73,74,75,83,,,,,,,1.3,0.7,1.1*23
###2023-12-09 13:47:13.011283$GAGSA,A,3,04,21,27,,,,,,,,,,1.3,0.7,1.1*24
###2023-12-09 13:47:13.012933$GBGSA,A,3,12,24,25,33,35,,,,,,,,1.3,0.7,1.1*21
###2023-12-09 13:47:13.015270$GPGSV,2,1,06,04,51,304,48,16,72,228,40,26,78,041,42,28,34,089,46*7F
###2023-12-09 13:47:13.017014$GPGSV,2,2,06,29,18,043,42,31,56,073,50,,,,,,,,*7C
###2023-12-09 13:47:13.019352$GLGSV,2,1,06,65,43,312,44,72,56,213,38,73,17,056,39,74,55,024,37*63
###2023-12-09 13:47:13.021105$GLGSV,2,2,06,75,47,280,46,83,16,041,35,,,,,,,,*65
###2023-12-09 13:47:13.023199$GAGSV,1,1,03,04,43,308,46,21,72,043,41,27,19,051,42,,,,*5A
###2023-12-09 13:47:13.025524$GBGSV,2,1,05,12,19,122,42,24,58,052,47,25,54,282,43,33,40,213,35*65
###2023-12-09 13:47:13.026992$GBGSV,2,2,05,35,16,051,36,,,,,,,,,,,,*5E
###2023-12-09 13:47:13.028312$GNVTG,243.17,T,,M,0.06,N,0.11,K,A*26
###2023-12-09 13:47:13.029923$GNGST,184712.10,8.400,,,,0.200,0.120,0.320*63
###2023-12-09 13:47:13.031229$GNZDA,184712.10,09,12,2023,00,00*79
###2023-12-09 13:47:13.031867$GNEBP,,,,,,M*13
###2023-12-09 13:47:13.202332$GNGGA,184712.30,4138.0395765,N,07032.4384866,W,1,20,0.7,15.632,M,-29.746,M,0.0,*51
###2023-12-09 13:47:13.402791$GNGGA,184712.50,4138.0395758,N,07032.4384871,W,1,20,0.7,15.629,M,-29.746,M,0.0,*55
###2023-12-09 13:47:13.601323$GNGGA,184712.70,4138.0395745,N,07032.4384878,W,1,20,0.7,15.629,M,-29.746,M,0.0,*52
###2023-12-09 13:47:13.804134$GNGGA,184712.90,4138.0395732,N,07032.4384877,W,1,20,0.7,15.628,M,-29.746,M,0.0,*52
###2023-12-09 13:47:14.004519$GNRMC,184713.10,A,4138.0395732,N,07032.4384872,W,0.02,243.17,091223,,,A*56
###2023-12-09 13:47:14.007486$GNGGA,184713.10,4138.0395732,N,07032.4384872,W,1,20,0.7,15.632,M,-29.746,M,0.0,*55
###2023-12-09 13:47:14.009215$GPGSA,A,3,04,16,26,28,29,31,,,,,,,1.3,0.7,1.1*33
###2023-12-09 13:47:14.010936$GLGSA,A,3,65,72,73,74,75,83,,,,,,,1.3,0.7,1.1*23
###2023-12-09 13:47:14.012450$GAGSA,A,3,04,21,27,,,,,,,,,,1.3,0.7,1.1*24
###2023-12-09 13:47:14.014085$GBGSA,A,3,12,24,25,33,35,,,,,,,,1.3,0.7,1.1*21
###2023-12-09 13:47:14.016412$GPGSV,2,1,06,04,51,304,48,16,72,228,40,26,78,041,42,28,34,089,46*7F
###2023-12-09 13:47:14.018157$GPGSV,2,2,06,29,18,043,43,31,56,073,50,,,,,,,,*7D
###2023-12-09 13:47:14.020494$GLGSV,2,1,06,65,43,312,44,72,56,213,38,73,17,056,39,74,55,024,37*63
###2023-12-09 13:47:14.022237$GLGSV,2,2,06,75,47,280,46,83,16,041,35,,,,,,,,*65
###2023-12-09 13:47:14.024291$GAGSV,1,1,03,04,43,308,46,21,72,043,41,27,19,051,42,,,,*5A
###2023-12-09 13:47:14.026631$GBGSV,2,1,05,12,19,122,42,24,58,052,46,25,54,282,43,33,40,213,36*67
###2023-12-09 13:47:14.028084$GBGSV,2,2,05,35,16,051,36,,,,,,,,,,,,*5E
###2023-12-09 13:47:14.029405$GNVTG,243.17,T,,M,0.02,N,0.04,K,A*26
###2023-12-09 13:47:14.031031$GNGST,184713.10,8.000,,,,0.200,0.120,0.320*66
###2023-12-09 13:47:14.032311$GNZDA,184713.10,09,12,2023,00,00*78
###2023-12-09 13:47:14.032951$GNEBP,,,,,,M*13
###2023-12-09 13:47:14.202880$GNGGA,184713.30,4138.0395711,N,07032.4384869,W,1,20,0.7,15.632,M,-29.746,M,0.0,*5C
###2023-12-09 13:47:14.402640$GNGGA,184713.50,4138.0395708,N,07032.4384865,W,1,20,0.7,15.633,M,-29.746,M,0.0,*5F
###2023-12-09 13:47:14.601950$GNGGA,184713.70,4138.0395702,N,07032.4384866,W,1,20,0.7,15.632,M,-29.746,M,0.0,*55
###2023-12-09 13:47:14.801542$GNGGA,184713.90,4138.0395685,N,07032.4384864,W,1,20,0.7,15.630,M,-29.746,M,0.0,*55
###2023-12-09 13:47:15.003696$GNRMC,184714.10,A,4138.0395681,N,07032.4384865,W,0.08,243.17,091223,,,A*54
###2023-12-09 13:47:15.006552$GNGGA,184714.10,4138.0395681,N,07032.4384865,W,1,20,0.7,15.628,M,-29.746,M,0.0,*56
###2023-12-09 13:47:15.008285$GPGSA,A,3,04,16,26,28,29,31,,,,,,,1.3,0.7,1.1*33
###2023-12-09 13:47:15.009996$GLGSA,A,3,65,72,73,74,75,83,,,,,,,1.3,0.7,1.1*23
###2023-12-09 13:47:15.011524$GAGSA,A,3,04,21,27,,,,,,,,,,1.3,0.7,1.1*24
###2023-12-09 13:47:15.013164$GBGSA,A,3,12,24,25,33,35,,,,,,,,1.3,0.7,1.1*21
###2023-12-09 13:47:15.015496$GPGSV,2,1,06,04,51,304,48,16,72,228,40,26,78,041,42,28,34,089,46*7F
###2023-12-09 13:47:15.017243$GPGSV,2,2,06,29,18,043,42,31,56,073,49,,,,,,,,*74
###2023-12-09 13:47:15.019578$GLGSV,2,1,06,65,43,312,44,72,56,213,38,73,17,056,39,74,55,024,38*6C
###2023-12-09 13:47:15.021324$GLGSV,2,2,06,75,47,280,46,83,16,041,35,,,,,,,,*65
###2023-12-09 13:47:15.023398$GAGSV,1,1,03,04,43,308,46,21,72,043,41,27,19,051,42,,,,*5A
###2023-12-09 13:47:15.025733$GBGSV,2,1,05,12,19,122,42,24,58,052,47,25,54,282,44,33,40,213,36*61
###2023-12-09 13:47:15.027206$GBGSV,2,2,05,35,16,051,37,,,,,,,,,,,,*5F
###2023-12-09 13:47:15.028530$GNVTG,243.17,T,,M,0.08,N,0.14,K,A*2D
###2023-12-09 13:47:15.030145$GNGST,184714.10,7.500,,,,0.200,0.120,0.320*6B
###2023-12-09 13:47:15.031449$GNZDA,184714.10,09,12,2023,00,00*7F
###2023-12-09 13:47:15.032091$GNEBP,,,,,,M*13
###2023-12-09 13:47:15.208314$GNGGA,184714.30,4138.0395678,N,07032.4384863,W,1,20,0.7,15.628,M,-29.746,M,0.0,*54
###2023-12-09 13:47:15.402606$GNGGA,184714.50,4138.0395682,N,07032.4384866,W,1,20,0.7,15.628,M,-29.746,M,0.0,*52
###2023-12-09 13:47:15.601165$GNGGA,184714.70,4138.0395669,N,07032.4384855,W,1,20,0.7,15.628,M,-29.746,M,0.0,*55
###2023-12-09 13:47:15.801881$GNGGA,184714.90,4138.0395654,N,07032.4384860,W,1,20,0.7,15.627,M,-29.746,M,0.0,*5C
###2023-12-09 13:47:16.005253$GNRMC,184715.10,A,4138.0395656,N,07032.4384851,W,0.02,243.17,091223,,,A*52
###2023-12-09 13:47:16.008129$GNGGA,184715.10,4138.0395656,N,07032.4384851,W,1,20,0.7,15.630,M,-29.746,M,0.0,*53
###2023-12-09 13:47:16.009850$GPGSA,A,3,04,16,26,28,29,31,,,,,,,1.3,0.7,1.1*33
###2023-12-09 13:47:16.011564$GLGSA,A,3,65,72,73,74,75,83,,,,,,,1.3,0.7,1.1*23
###2023-12-09 13:47:16.013073$GAGSA,A,3,04,21,27,,,,,,,,,,1.3,0.7,1.1*24
###2023-12-09 13:47:16.014725$GBGSA,A,3,12,24,25,33,35,,,,,,,,1.3,0.7,1.1*21
###2023-12-09 13:47:16.017046$GPGSV,2,1,06,04,51,304,48,16,72,228,40,26,78,041,42,28,34,089,45*7C
###2023-12-09 13:47:16.018794$GPGSV,2,2,06,29,18,043,42,31,56,073,50,,,,,,,,*7C
###2023-12-09 13:47:16.021105$GLGSV,2,1,06,65,43,312,44,72,56,213,38,73,17,056,39,74,55,024,38*6C
###2023-12-09 13:47:16.022849$GLGSV,2,2,06,75,47,280,46,83,16,041,35,,,,,,,,*65
###2023-12-09 13:47:16.024868$GAGSV,1,1,03,04,43,308,46,21,72,043,40,27,19,051,42,,,,*5B
###2023-12-09 13:47:16.027194$GBGSV,2,1,05,12,19,122,42,24,58,052,47,25,54,282,44,33,40,213,36*61
###2023-12-09 13:47:16.028638$GBGSV,2,2,05,35,16,051,37,,,,,,,,,,,,*5F
###2023-12-09 13:47:16.029961$GNVTG,243.17,T,,M,0.02,N,0.04,K,A*26
###2023-12-09 13:47:16.031892$GNGST,184715.10,7.700,,,,0.200,0.120,0.320*68
###2023-12-09 13:47:16.033221$GNZDA,184715.10,09,12,2023,00,00*7E
###2023-12-09 13:47:16.033877$GNEBP,,,,,,M*13
###2023-12-09 13:47:16.202427$GNGGA,184715.30,4138.0395659,N,07032.4384851,W,1,20,0.7,15.630,M,-29.746,M,0.0,*5E
###2023-12-09 13:47:16.403679$GNGGA,184715.50,4138.0395651,N,07032.4384848,W,1,19,0.7,15.633,M,-29.746,M,0.0,*51
###2023-12-09 13:47:16.600863$GNGGA,184715.70,4138.0395657,N,07032.4384844,W,1,19,0.7,15.630,M,-29.746,M,0.0,*5A
###2023-12-09 13:47:16.805279$GNGGA,184715.90,4138.0395661,N,07032.4384838,W,1,19,0.7,15.634,M,-29.746,M,0.0,*5E
