###2023-12-09 13:24:01.787028$GNGGA,182400.90,4138.0627878,N,07032.3767387,W,1,24,0.6,12.777,M,-29.744,M,0.0,*58
###2023-12-09 13:24:01.991263$GNRMC,182401.10,A,4138.0629879,N,07032.3767738,W,3.62,350.68,091223,,,A*53
###2023-12-09 13:24:01.994130$GNGGA,182401.10,4138.0629879,N,07032.3767738,W,1,24,0.6,12.775,M,-29.744,M,0.0,*5C
###2023-12-09 13:24:01.995934$GPGSA,A,3,03,04,16,26,28,29,31,,,,,,1.1,0.6,0.9*3A
###2023-12-09 13:24:01.997652$GLGSA,A,3,65,71,72,73,74,75,,,,,,,1.1,0.6,0.9*24
###2023-12-09 13:24:01.999250$GAGSA,A,3,04,19,21,27,,,,,,,,,1.1,0.6,0.9*26
###2023-12-09 13:24:02.000960$GBGSA,A,3,14,24,25,26,33,35,,,,,,,1.1,0.6,0.9*29
###2023-12-09 13:24:02.003292$GPGSV,2,1,07,03,30,251,44,04,42,310,44,16,61,218,47,26,89,050,48*7F
###2023-12-09 13:24:02.005330$GPGSV,2,2,07,28,41,080,46,29,22,051,42,31,63,058,47,,,,*4B
###2023-12-09 13:24:02.007673$GLGSV,2,1,06,65,34,323,40,71,29,175,45,72,68,232,47,73,27,049,42*6C
###2023-12-09 13:24:02.009418$GLGSV,2,2,06,74,63,004,41,75,40,265,47,,,,,,,,*60
###2023-12-09 13:24:02.011751$GAGSV,1,1,04,04,36,311,43,19,76,185,41,21,80,052,45,27,26,049,41*6D
###2023-12-09 13:24:02.014084$GBGSV,2,1,06,14,34,191,42,24,66,040,48,25,47,271,46,26,19,068,44*6D
###2023-12-09 13:24:02.015840$GBGSV,2,2,06,33,50,221,48,35,16,061,43,,,,,,,,*64
###2023-12-09 13:24:02.017163$GNVTG,350.68,T,,M,3.62,N,6.70,K,A*2D
###2023-12-09 13:24:02.018821$GNGST,182401.10,18.000,,,,0.099,0.069,0.170*58
###2023-12-09 13:24:02.020116$GNZDA,182401.10,09,12,2023,00,00*7E
###2023-12-09 13:24:02.020752$GNEBP,,,,,,M*13
###2023-12-09 13:24:02.186362$GNGGA,182401.30,4138.0631802,N,07032.3768220,W,1,24,0.6,12.777,M,-29.744,M,0.0,*5A
###2023-12-09 13:24:02.386128$GNGGA,182401.50,4138.0633693,N,07032.3768743,W,1,24,0.6,12.776,M,-29.744,M,0.0,*59
###2023-12-09 13:24:02.588667$GNGGA,182401.70,4138.0635573,N,07032.3769255,W,1,24,0.6,12.786,M,-29.744,M,0.0,*5C
###2023-12-09 13:24:02.786756$GNGGA,182401.90,4138.0637428,N,07032.3769913,W,1,24,0.6,12.796,M,-29.744,M,0.0,*57
###2023-12-09 13:24:02.990106$GNRMC,182402.10,A,4138.0639272,N,07032.3770501,W,3.38,350.03,091223,,,A*5C
###2023-12-09 13:24:02.992993$GNGGA,182402.10,4138.0639272,N,07032.3770501,W,1,24,0.6,12.793,M,-29.744,M,0.0,*59
###2023-12-09 13:24:02.994803$GPGSA,A,3,03,04,16,26,28,29,31,,,,,,1.1,0.6,0.9*3A
###2023-12-09 13:24:02.996525$GLGSA,A,3,65,71,72,73,74,75,,,,,,,1.1,0.6,0.9*24
###2023-12-09 13:24:02.998112$GAGSA,A,3,04,19,21,27,,,,,,,,,1.1,0.6,0.9*26
###2023-12-09 13:24:02.999833$GBGSA,A,3,14,24,25,26,33,35,,,,,,,1.1,0.6,0.9*29
###2023-12-09 13:24:03.002162$GPGSV,2,1,07,03,30,251,42,04,42,310,45,16,61,218,47,26,89,050,48*78
###2023-12-09 13:24:03.004212$GPGSV,2,2,07,28,41,080,45,29,22,051,41,31,63,058,47,,,,*4B
###2023-12-09 13:24:03.006540$GLGSV,2,1,06,65,34,323,40,71,29,175,46,72,68,232,46,73,27,049,42*6E
###2023-12-09 13:24:03.008298$GLGSV,2,2,06,74,63,004,41,75,40,265,47,,,,,,,,*60
###2023-12-09 13:24:03.010630$GAGSV,1,1,04,04,36,311,44,19,76,185,41,21,80,052,46,27,26,049,40*68
###2023-12-09 13:24:03.012952$GBGSV,2,1,06,14,34,191,42,24,66,040,47,25,47,271,46,26,19,068,43*65
###2023-12-09 13:24:03.014705$GBGSV,2,2,06,33,50,221,47,35,16,061,43,,,,,,,,*6B
###2023-12-09 13:24:03.016031$GNVTG,350.03,T,,M,3.38,N,6.26,K,A*2C
###2023-12-09 13:24:03.017685$GNGST,182402.10,18.000,,,,0.099,0.069,0.170*5B
###2023-12-09 13:24:03.018989$GNZDA,182402.10,09,12,2023,00,00*7D
###2023-12-09 13:24:03.019626$GNEBP,,,,,,M*13
###2023-12-09 13:24:03.189244$GNGGA,182402.30,4138.0641133,N,07032.3770909,W,1,24,0.6,12.793,M,-29.744,M,0.0,*56
###2023-12-09 13:24:03.385138$GNGGA,182402.50,4138.0643016,N,07032.3771342,W,1,24,0.6,12.795,M,-29.744,M,0.0,*56
###2023-12-09 13:24:03.587047$GNGGA,182402.70,4138.0644861,N,07032.3771784,W,1,24,0.6,12.800,M,-29.744,M,0.0,*56
###2023-12-09 13:24:03.787207$GNGGA,182402.90,4138.0646736,N,07032.3772117,W,1,24,0.6,12.804,M,-29.744,M,0.0,*5C
###2023-12-09 13:24:03.990858$GNRMC,182403.10,A,4138.0648609,N,07032.3772324,W,3.42,357.18,091223,,,A*50
###2023-12-09 13:24:03.993713$GNGGA,182403.10,4138.0648609,N,07032.3772324,W,1,24,0.6,12.810,M,-29.744,M,0.0,*51
###2023-12-09 13:24:03.995523$GPGSA,A,3,03,04,16,26,28,29,31,,,,,,1.1,0.6,0.9*3A
###2023-12-09 13:24:03.997238$GLGSA,A,3,65,71,72,73,74,75,,,,,,,1.1,0.6,0.9*24
###2023-12-09 13:24:03.998826$GAGSA,A,3,04,19,21,27,,,,,,,,,1.1,0.6,0.9*26
###2023-12-09 13:24:04.000538$GBGSA,A,3,14,24,25,26,33,35,,,,,,,1.1,0.6,0.9*29
###2023-12-09 13:24:04.002884$GPGSV,2,1,07,03,30,251,42,04,42,310,42,16,61,218,46,26,89,050,46*70
###2023-12-09 13:24:04.004918$GPGSV,2,2,07,28,41,080,43,29,22,051,39,31,63,058,45,,,,*40
###2023-12-09 13:24:04.007255$GLGSV,2,1,06,65,34,323,42,71,29,175,44,72,68,232,46,73,27,049,42*6E
###2023-12-09 13:24:04.009001$GLGSV,2,2,06,74,63,004,41,75,40,265,47,,,,,,,,*60
###2023-12-09 13:24:04.011335$GAGSV,1,1,04,04,36,311,42,19,76,185,40,21,80,052,44,27,26,049,39*63
###2023-12-09 13:24:04.013656$GBGSV,2,1,06,14,34,191,44,24,66,040,48,25,47,271,47,26,19,068,42*6C
###2023-12-09 13:24:04.015404$GBGSV,2,2,06,33,50,221,47,35,16,061,43,,,,,,,,*6B
###2023-12-09 13:24:04.016729$GNVTG,357.18,T,,M,3.42,N,6.34,K,A*2F
###2023-12-09 13:24:04.018372$GNGST,182403.10,18.000,,,,0.099,0.069,0.170*5A
###2023-12-09 13:24:04.019672$GNZDA,182403.10,09,12,2023,00,00*7C
###2023-12-09 13:24:04.020308$GNEBP,,,,,,M*13
###2023-12-09 13:24:04.186444$GNGGA,182403.30,4138.0650501,N,07032.3772456,W,1,24,0.6,12.806,M,-29.744,M,0.0,*54
###2023-12-09 13:24:04.387693$GNGGA,182403.50,4138.0652409,N,07032.3772481,W,1,24,0.6,12.802,M,-29.744,M,0.0,*57
###2023-12-09 13:24:04.587203$GNGGA,182403.70,4138.0654318,N,07032.3772374,W,1,24,0.6,12.800,M,-29.744,M,0.0,*5B
###2023-12-09 13:24:04.789115$GNGGA,182403.90,4138.0656281,N,07032.3772271,W,1,24,0.6,12.816,M,-29.744,M,0.0,*55
###2023-12-09 13:24:04.991301$GNRMC,182404.10,A,4138.0658311,N,07032.3772194,W,3.65,2.41,091223,,,A*59
###2023-12-09 13:24:04.994150$GNGGA,182404.10,4138.0658311,N,07032.3772194,W,1,24,0.6,12.826,M,-29.744,M,0.0,*57
###2023-12-09 13:24:04.995959$GPGSA,A,3,03,04,16,26,28,29,31,,,,,,1.1,0.6,0.9*3A
###2023-12-09 13:24:04.997679$GLGSA,A,3,65,71,72,73,74,75,,,,,,,1.1,0.6,0.9*24
###2023-12-09 13:24:04.999278$GAGSA,A,3,04,19,21,27,,,,,,,,,1.1,0.6,0.9*26
###2023-12-09 13:24:05.000992$GBGSA,A,3,14,24,25,26,33,35,,,,,,,1.1,0.6,0.9*29
###2023-12-09 13:24:05.003342$GPGSV,2,1,07,03,30,251,41,04,42,310,44,16,61,218,46,26,89,050,47*74
###2023-12-09 13:24:05.005389$GPGSV,2,2,07,28,41,080,43,29,22,051,39,31,63,058,44,,,,*41
###2023-12-09 13:24:05.007721$GLGSV,2,1,06,65,34,323,42,71,29,175,43,72,68,232,46,73,27,049,40*6B
###2023-12-09 13:24:05.009458$GLGSV,2,2,06,74,63,004,41,75,40,265,47,,,,,,,,*60
###2023-12-09 13:24:05.011791$GAGSV,1,1,04,04,36,311,43,19,76,185,40,21,80,052,45,27,26,049,38*62
###2023-12-09 13:24:05.014118$GBGSV,2,1,06,14,34,191,44,24,66,040,47,25,47,271,48,26,19,068,41*6F
###2023-12-09 13:24:05.015874$GBGSV,2,2,06,33,50,221,47,35,16,061,40,,,,,,,,*68
###2023-12-09 13:24:05.017131$GNVTG,2.41,T,,M,3.65,N,6.77,K,A*22
###2023-12-09 13:24:05.018782$GNGST,182404.10,18.000,,,,0.100,0.070,0.170*54
###2023-12-09 13:24:05.020070$GNZDA,182404.10,09,12,2023,00,00*7B
###2023-12-09 13:24:05.020705$GNEBP,,,,,,M*13
###2023-12-09 13:24:05.186368$GNGGA,182404.30,4138.0660379,N,07032.3772031,W,1,24,0.6,12.832,M,-29.744,M,0.0,*5B
###2023-12-09 13:24:05.387208$GNGGA,182404.50,4138.0662483,N,07032.3771836,W,1,24,0.6,12.831,M,-29.744,M,0.0,*52
###2023-12-09 13:24:05.589047$GNGGA,182404.70,4138.0664624,N,07032.3771834,W,1,24,0.6,12.829,M,-29.744,M,0.0,*52
###2023-12-09 13:24:05.787142$GNGGA,182404.90,4138.0666738,N,07032.3771904,W,1,24,0.6,12.841,M,-29.744,M,0.0,*5E
###2023-12-09 13:24:05.991548$GNRMC,182405.10,A,4138.0668852,N,07032.3771821,W,3.75,2.08,091223,,,A*5F
###2023-12-09 13:24:05.994418$GNGGA,182405.10,4138.0668852,N,07032.3771821,W,1,24,0.6,12.839,M,-29.744,M,0.0,*53
###2023-12-09 13:24:05.996226$GPGSA,A,3,03,04,16,26,28,29,31,,,,,,1.1,0.6,0.9*3A
###2023-12-09 13:24:05.997943$GLGSA,A,3,65,71,72,73,74,75,,,,,,,1.1,0.6,0.9*24
###2023-12-09 13:24:05.999539$GAGSA,A,3,04,19,21,27,,,,,,,,,1.1,0.6,0.9*26
###2023-12-09 13:24:06.001251$GBGSA,A,3,14,24,25,26,33,35,,,,,,,1.1,0.6,0.9*29
###2023-12-09 13:24:06.003854$GPGSV,2,1,07,03,30,251,44,04,42,310,44,16,61,218,46,26,89,050,48*7E
###2023-12-09 13:24:06.005908$GPGSV,2,2,07,28,41,080,43,29,22,051,40,31,63,058,45,,,,*4E
###2023-12-09 13:24:06.008260$GLGSV,2,1,06,65,34,323,41,71,29,175,44,72,68,232,46,73,27,049,40*6F
###2023-12-09 13:24:06.010005$GLGSV,2,2,06,74,63,004,41,75,40,265,47,,,,,,,,*60
###2023-12-09 13:24:06.012343$GAGSV,1,1,04,04,36,311,43,19,76,185,41,21,80,052,45,27,26,049,39*62
###2023-12-09 13:24:06.014678$GBGSV,2,1,06,14,34,191,43,24,66,040,47,25,47,271,47,26,19,068,41*67
###2023-12-09 13:24:06.016426$GBGSV,2,2,06,33,50,221,48,35,16,061,42,,,,,,,,*65
###2023-12-09 13:24:06.017685$GNVTG,2.08,T,,M,3.75,N,6.95,K,A*22
###2023-12-09 13:24:06.019343$GNGST,182405.10,18.000,,,,0.100,0.070,0.170*55
