###2023-12-09 13:26:57.999281$GLGSA,A,3,65,71,72,73,74,75,,,,,,,1.1,0.6,0.9*24
###2023-12-09 13:26:58.000887$GAGSA,A,3,04,19,21,27,,,,,,,,,1.1,0.6,0.9*26
###2023-12-09 13:26:58.002625$GBGSA,A,3,14,24,25,26,33,35,,,,,,,1.1,0.6,0.9*29
###2023-12-09 13:26:58.004969$GPGSV,2,1,07,03,29,250,42,04,43,309,43,16,62,219,46,26,88,044,48*79
###2023-12-09 13:26:58.007031$GPGSV,2,2,07,28,41,081,45,29,22,050,40,31,62,060,47,,,,*40
###2023-12-09 13:26:58.009354$GLGSV,2,1,06,65,35,321,42,71,26,175,45,72,66,227,46,73,25,050,42*63
###2023-12-09 13:26:58.011113$GLGSV,2,2,06,74,62,008,42,75,41,267,43,,,,,,,,*69
###2023-12-09 13:26:58.013437$GAGSV,1,1,04,04,37,311,42,19,75,184,41,21,80,050,46,27,25,049,39*62
###2023-12-09 13:26:58.015791$GBGSV,2,1,06,14,32,190,42,24,65,042,49,25,49,273,44,26,18,069,44*64
###2023-12-09 13:26:58.017536$GBGSV,2,2,06,33,48,220,47,35,16,059,44,,,,,,,,*6F
###2023-12-09 13:26:58.018876$GNVTG,269.35,T,,M,3.91,N,7.24,K,A*22
###2023-12-09 13:26:58.020527$GNGST,182657.10,18.000,,,,0.098,0.073,0.160*52
###2023-12-09 13:26:58.021815$GNZDA,182657.10,09,12,2023,00,00*7F
###2023-12-09 13:26:58.022451$GNEBP,,,,,,M*13
###2023-12-09 13:26:58.189250$GNGGA,182657.30,4138.0725538,N,07032.3811062,W,1,24,0.6,13.315,M,-29.744,M,0.0,*5F
###2023-12-09 13:26:58.388307$GNGGA,182657.50,4138.0725340,N,07032.3814041,W,1,24,0.6,13.322,M,-29.744,M,0.0,*50
###2023-12-09 13:26:58.588576$GNGGA,182657.70,4138.0725055,N,07032.3817056,W,1,24,0.6,13.332,M,-29.744,M,0.0,*51
###2023-12-09 13:26:58.788520$GNGGA,182657.90,4138.0724622,N,07032.3820044,W,1,24,0.6,13.338,M,-29.744,M,0.0,*55
###2023-12-09 13:26:58.993135$GNRMC,182658.10,A,4138.0724074,N,07032.3823020,W,4.06,254.35,091223,,,A*5D
###2023-12-09 13:26:58.996034$GNGGA,182658.10,4138.0724074,N,07032.3823020,W,1,24,0.6,13.343,M,-29.744,M,0.0,*5A
###2023-12-09 13:26:58.997844$GPGSA,A,3,03,04,16,26,28,29,31,,,,,,1.1,0.6,0.9*3A
###2023-12-09 13:26:58.999580$GLGSA,A,3,65,71,72,73,74,75,,,,,,,1.1,0.6,0.9*24
###2023-12-09 13:26:59.001170$GAGSA,A,3,04,19,21,27,,,,,,,,,1.1,0.6,0.9*26
###2023-12-09 13:26:59.002904$GBGSA,A,3,14,24,25,26,33,35,,,,,,,1.1,0.6,0.9*29
###2023-12-09 13:26:59.005243$GPGSV,2,1,07,03,29,250,40,04,43,309,44,16,62,219,45,26,88,044,48*7F
###2023-12-09 13:26:59.007301$GPGSV,2,2,07,28,41,081,44,29,22,050,43,31,62,060,46,,,,*43
###2023-12-09 13:26:59.009642$GLGSV,2,1,06,65,35,321,42,71,26,175,44,72,66,227,45,73,25,050,43*60
###2023-12-09 13:26:59.011409$GLGSV,2,2,06,74,62,008,43,75,41,267,44,,,,,,,,*6F
###2023-12-09 13:26:59.013751$GAGSV,1,1,04,04,37,311,42,19,75,184,41,21,80,050,46,27,25,049,41*6D
###2023-12-09 13:26:59.016102$GBGSV,2,1,06,14,32,190,43,24,65,042,49,25,49,273,46,26,18,069,45*66
###2023-12-09 13:26:59.017855$GBGSV,2,2,06,33,48,220,47,35,16,059,46,,,,,,,,*6D
###2023-12-09 13:26:59.019192$GNVTG,254.35,T,,M,4.06,N,7.52,K,A*24
###2023-12-09 13:26:59.020843$GNGST,182658.10,18.000,,,,0.098,0.073,0.160*5D
###2023-12-09 13:26:59.022138$GNZDA,182658.10,09,12,2023,00,00*70
###2023-12-09 13:26:59.022790$GNEBP,,,,,,M*13
###2023-12-09 13:26:59.188084$GNGGA,182658.30,4138.0723432,N,07032.3825903,W,1,24,0.6,13.346,M,-29.744,M,0.0,*52
###2023-12-09 13:26:59.387276$GNGGA,182658.50,4138.0722586,N,07032.3828609,W,1,24,0.6,13.328,M,-29.744,M,0.0,*5B
###2023-12-09 13:26:59.588724$GNGGA,182658.70,4138.0721530,N,07032.3831108,W,1,24,0.6,13.302,M,-29.744,M,0.0,*51
###2023-12-09 13:26:59.787172$GNGGA,182658.90,4138.0720592,N,07032.3833693,W,1,24,0.6,13.317,M,-29.744,M,0.0,*55
###2023-12-09 13:26:59.991963$GNRMC,182659.10,A,4138.0719796,N,07032.3836445,W,3.97,247.50,091223,,,A*54
###2023-12-09 13:26:59.994875$GNGGA,182659.10,4138.0719796,N,07032.3836445,W,1,24,0.6,13.344,M,-29.744,M,0.0,*5A
###2023-12-09 13:26:59.996670$GPGSA,A,3,03,04,16,26,28,29,31,,,,,,1.1,0.6,0.9*3A
###2023-12-09 13:26:59.998390$GLGSA,A,3,65,71,72,73,74,75,,,,,,,1.1,0.6,0.9*24
###2023-12-09 13:26:59.999991$GAGSA,A,3,04,19,21,27,,,,,,,,,1.1,0.6,0.9*26
###2023-12-09 13:27:00.001707$GBGSA,A,3,14,24,25,26,33,35,,,,,,,1.1,0.6,0.9*29
###2023-12-09 13:27:00.004049$GPGSV,2,1,07,03,29,250,40,04,43,309,45,16,62,219,45,26,88,044,47*71
###2023-12-09 13:27:00.006090$GPGSV,2,2,07,28,41,081,44,29,22,050,43,31,62,060,46,,,,*43
###2023-12-09 13:27:00.008441$GLGSV,2,1,06,65,35,321,44,71,26,175,43,72,66,227,45,73,25,050,43*61
###2023-12-09 13:27:00.010196$GLGSV,2,2,06,74,62,008,43,75,41,267,45,,,,,,,,*6E
###2023-12-09 13:27:00.012534$GAGSV,1,1,04,04,37,311,43,19,75,184,40,21,80,050,46,27,25,049,41*6D
###2023-12-09 13:27:00.014875$GBGSV,2,1,06,14,32,190,42,24,65,042,48,25,49,273,45,26,18,069,43*63
###2023-12-09 13:27:00.016629$GBGSV,2,2,06,33,48,220,45,35,16,059,44,,,,,,,,*6D
###2023-12-09 13:27:00.017954$GNVTG,247.50,T,,M,3.97,N,7.34,K,A*2A
###2023-12-09 13:27:00.019614$GNGST,182659.10,18.000,,,,0.098,0.073,0.160*5C
###2023-12-09 13:27:00.020906$GNZDA,182659.10,09,12,2023,00,00*71
###2023-12-09 13:27:00.021543$GNEBP,,,,,,M*13
###2023-12-09 13:27:00.189079$GNGGA,182659.30,4138.0718776,N,07032.3838990,W,1,24,0.6,13.356,M,-29.744,M,0.0,*5F
###2023-12-09 13:27:00.387257$GNGGA,182659.50,4138.0717375,N,07032.3841025,W,1,24,0.6,13.333,M,-29.744,M,0.0,*5B
###2023-12-09 13:27:00.588344$GNGGA,182659.70,4138.0715917,N,07032.3842931,W,1,24,0.6,13.301,M,-29.744,M,0.0,*5B
###2023-12-09 13:27:00.788238$GNGGA,182659.90,4138.0714807,N,07032.3845342,W,1,24,0.6,13.340,M,-29.744,M,0.0,*58
###2023-12-09 13:27:00.992998$GNRMC,182700.10,A,4138.0713736,N,07032.3847883,W,3.73,230.37,091223,,,A*52
###2023-12-09 13:27:00.995861$GNGGA,182700.10,4138.0713736,N,07032.3847883,W,1,24,0.6,13.346,M,-29.744,M,0.0,*55
###2023-12-09 13:27:00.997652$GPGSA,A,3,03,04,16,26,28,29,31,,,,,,1.1,0.6,0.9*3A
###2023-12-09 13:27:00.999377$GLGSA,A,3,65,71,72,73,74,75,,,,,,,1.1,0.6,0.9*24
###2023-12-09 13:27:01.000960$GAGSA,A,3,04,19,21,27,,,,,,,,,1.1,0.6,0.9*26
###2023-12-09 13:27:01.002678$GBGSA,A,3,14,24,25,26,33,35,,,,,,,1.1,0.6,0.9*29
###2023-12-09 13:27:01.005003$GPGSV,2,1,07,03,29,250,40,04,43,309,45,16,62,219,44,26,88,044,47*70
###2023-12-09 13:27:01.007062$GPGSV,2,2,07,28,41,081,42,29,22,050,42,31,62,060,45,,,,*47
###2023-12-09 13:27:01.009399$GLGSV,2,1,06,65,35,321,44,71,26,175,43,72,66,227,45,73,25,050,44*66
###2023-12-09 13:27:01.011167$GLGSV,2,2,06,74,62,008,43,75,41,267,45,,,,,,,,*6E
###2023-12-09 13:27:01.013496$GAGSV,1,1,04,04,37,311,45,19,75,184,40,21,80,050,46,27,25,049,41*6B
###2023-12-09 13:27:01.015841$GBGSV,2,1,06,14,32,190,41,24,65,042,47,25,49,273,46,26,18,069,43*6C
###2023-12-09 13:27:01.017590$GBGSV,2,2,06,33,48,220,45,35,16,059,42,,,,,,,,*6B
###2023-12-09 13:27:01.018929$GNVTG,230.37,T,,M,3.73,N,6.91,K,A*2F
###2023-12-09 13:27:01.020584$GNGST,182700.10,18.000,,,,0.098,0.073,0.160*51
###2023-12-09 13:27:01.021883$GNZDA,182700.10,09,12,2023,00,00*7C
###2023-12-09 13:27:01.022526$GNEBP,,,,,,M*13
###2023-12-09 13:27:01.189645$GNGGA,182700.30,4138.0712155,N,07032.3849471,W,1,24,0.6,13.320,M,-29.744,M,0.0,*5A
###2023-12-09 13:27:01.388217$GNGGA,182700.50,4138.0710469,N,07032.3850705,W,1,24,0.6,13.293,M,-29.744,M,0.0,*55
###2023-12-09 13:27:01.590441$GNGGA,182700.70,4138.0709103,N,07032.3852750,W,1,24,0.6,13.339,M,-29.744,M,0.0,*55
###2023-12-09 13:27:01.789141$GNGGA,182700.90,4138.0707795,N,07032.3855004,W,1,24,0.6,13.349,M,-29.744,M,0.0,*5A
###2023-12-09 13:27:01.992900$GNRMC,182701.10,A,4138.0706175,N,07032.3856500,W,3.48,204.03,091223,,,A*58
###2023-12-09 13:27:01.995780$GNGGA,182701.10,4138.0706175,N,07032.3856500,W,1,24,0.6,13.346,M,-29.744,M,0.0,*57
###2023-12-09 13:27:01.997565$GPGSA,A,3,03,04,16,26,28,29,31,,,,,,1.1,0.6,0.9*3A
###2023-12-09 13:27:01.999293$GLGSA,A,3,65,71,72,73,74,75,,,,,,,1.1,0.6,0.9*24
###2023-12-09 13:27:02.000873$GAGSA,A,3,04,19,21,27,,,,,,,,,1.1,0.6,0.9*26
###2023-12-09 13:27:02.002596$GBGSA,A,3,14,24,25,26,33,35,,,,,,,1.1,0.6,0.9*29
###2023-12-09 13:27:02.004913$GPGSV,2,1,07,03,29,250,41,04,43,309,47,16,62,219,45,26,88,044,47*72
###2023-12-09 13:27:02.006957$GPGSV,2,2,07,28,41,081,42,29,22,050,42,31,62,060,45,,,,*47
###2023-12-09 13:27:02.009289$GLGSV,2,1,06,65,35,321,45,71,26,175,41,72,66,227,45,73,25,050,44*65
###2023-12-09 13:27:02.011047$GLGSV,2,2,06,74,62,008,43,75,41,267,47,,,,,,,,*6C
###2023-12-09 13:27:02.013642$GAGSV,1,1,04,04,37,311,45,19,75,184,39,21,80,050,45,27,25,049,41*66
###2023-12-09 13:27:02.016002$GBGSV,2,1,06,14,32,190,42,24,65,042,48,25,49,273,48,26,18,069,44*69
###2023-12-09 13:27:02.017759$GBGSV,2,2,06,33,48,220,47,35,16,059,43,,,,,,,,*68
###2023-12-09 13:27:02.019103$GNVTG,204.03,T,,M,3.48,N,6.44,K,A*2F
###2023-12-09 13:27:02.020759$GNGST,182701.10,18.000,,,,0.099,0.073,0.160*51
###2023-12-09 13:27:02.022052$GNZDA,182701.10,09,12,2023,00,00*7D
###2023-12-09 13:27:02.022704$GNEBP,,,,,,M*13
###2023-12-09 13:27:02.189253$GNGGA,182701.30,4138.0704384,N,07032.3857450,W,1,24,0.6,13.333,M,-29.744,M,0.0,*5C
###2023-12-09 13:27:02.388342$GNGGA,182701.50,4138.0702775,N,07032.3858867,W,1,24,0.6,13.333,M,-29.744,M,0.0,*51
