###2023-12-09 12:44:34.961367$GPGSV,2,1,08,03,38,271,43,04,25,311,40,16,41,209,42,26,71,208,47*79
###2023-12-09 12:44:34.964285$GPGSV,2,2,08,28,55,061,45,29,26,069,41,31,72,015,47,32,26,136,43*7E
###2023-12-09 12:44:34.967159$GLGSV,2,1,06,65,16,329,40,71,51,170,45,72,69,300,46,73,44,036,46*65
###2023-12-09 12:44:34.969278$GLGSV,2,2,06,74,71,307,42,75,25,245,41,,,,,,,,*67
###2023-12-09 12:44:34.972121$GAGSV,1,1,04,04,24,312,40,19,84,283,40,21,81,168,46,27,38,049,44*67
###2023-12-09 12:44:34.974954$GBGSV,2,1,05,14,51,196,44,24,79,002,48,25,35,255,44,26,32,059,42*68
###2023-12-09 12:44:34.976716$GBGSV,2,2,05,33,62,246,47,,,,,,,,,,,,*59
###2023-12-09 12:44:34.978309$GNVTG,184.14,T,,M,2.22,N,4.10,K,A*2C
###2023-12-09 12:44:34.980320$GNGST,174434.10,18.000,,,,0.079,0.070,0.160*50
###2023-12-09 12:44:34.981885$GNZDA,174434.10,09,12,2023,00,00*71
###2023-12-09 12:44:34.982681$GNEBP,,,,,,M*13
###2023-12-09 12:44:35.143710$GNGGA,174434.30,4138.0433983,N,07032.3849661,W,1,24,0.6,13.519,M,-29.745,M,0.0,*5A
###2023-12-09 12:44:35.344424$GNGGA,174434.50,4138.0432821,N,07032.3850019,W,1,24,0.6,13.521,M,-29.745,M,0.0,*5E
###2023-12-09 12:44:35.545156$GNGGA,174434.70,4138.0431658,N,07032.3850473,W,1,24,0.6,13.536,M,-29.745,M,0.0,*51
###2023-12-09 12:44:35.743644$GNGGA,174434.90,4138.0430552,N,07032.3851018,W,1,24,0.6,13.526,M,-29.745,M,0.0,*5E
###2023-12-09 12:44:35.944377$GNRMC,174435.10,A,4138.0429495,N,07032.3851751,W,2.12,209.32,091223,,,A*50
###2023-12-09 12:44:35.947294$GNGGA,174435.10,4138.0429495,N,07032.3851751,W,1,24,0.6,13.516,M,-29.745,M,0.0,*5C
###2023-12-09 12:44:35.949188$GPGSA,A,3,03,04,16,26,28,29,31,32,,,,,1.1,0.6,0.9*3B
###2023-12-09 12:44:35.950923$GLGSA,A,3,65,71,72,73,74,75,,,,,,,1.1,0.6,0.9*24
###2023-12-09 12:44:35.952504$GAGSA,A,3,04,19,21,27,,,,,,,,,1.1,0.6,0.9*26
###2023-12-09 12:44:35.954144$GBGSA,A,3,14,24,25,26,33,,,,,,,,1.1,0.6,0.9*2F
###2023-12-09 12:44:35.956480$GPGSV,2,1,08,03,38,271,43,04,25,311,42,16,41,209,42,26,71,208,47*7B
###2023-12-09 12:44:35.958830$GPGSV,2,2,08,28,55,061,45,29,26,069,44,31,72,015,47,32,26,136,45*7D
###2023-12-09 12:44:35.961153$GLGSV,2,1,06,65,16,329,41,71,51,170,47,72,69,300,46,73,44,036,46*66
###2023-12-09 12:44:35.962906$GLGSV,2,2,06,74,71,307,43,75,25,245,41,,,,,,,,*66
###2023-12-09 12:44:35.965228$GAGSV,1,1,04,04,24,312,41,19,84,283,40,21,81,168,46,27,38,049,44*66
###2023-12-09 12:44:35.967568$GBGSV,2,1,05,14,51,196,44,24,79,002,47,25,35,255,44,26,32,059,45*60
###2023-12-09 12:44:35.969026$GBGSV,2,2,05,33,62,246,46,,,,,,,,,,,,*58
###2023-12-09 12:44:35.970345$GNVTG,209.32,T,,M,2.12,N,3.92,K,A*20
###2023-12-09 12:44:35.972002$GNGST,174435.10,18.000,,,,0.079,0.070,0.160*51
###2023-12-09 12:44:35.973295$GNZDA,174435.10,09,12,2023,00,00*70
###2023-12-09 12:44:35.973934$GNEBP,,,,,,M*13
###2023-12-09 12:44:36.147115$GNGGA,174435.30,4138.0428475,N,07032.3852527,W,1,24,0.6,13.519,M,-29.745,M,0.0,*5E
###2023-12-09 12:44:36.345202$GNGGA,174435.50,4138.0427451,N,07032.3853303,W,1,24,0.6,13.507,M,-29.745,M,0.0,*5F
###2023-12-09 12:44:36.545081$GNGGA,174435.70,4138.0426498,N,07032.3854206,W,1,24,0.6,13.484,M,-29.745,M,0.0,*50
###2023-12-09 12:44:36.744477$GNGGA,174435.90,4138.0425670,N,07032.3855242,W,1,24,0.6,13.487,M,-29.745,M,0.0,*5B
###2023-12-09 12:44:36.945755$GNRMC,174436.10,A,4138.0424956,N,07032.3856382,W,1.98,230.71,091223,,,A*5D
###2023-12-09 12:44:36.948896$GNGGA,174436.10,4138.0424956,N,07032.3856382,W,1,24,0.6,13.506,M,-29.745,M,0.0,*5C
###2023-12-09 12:44:36.950823$GPGSA,A,3,03,04,16,26,28,29,31,32,,,,,1.1,0.6,0.9*3B
###2023-12-09 12:44:36.952547$GLGSA,A,3,65,71,72,73,74,75,,,,,,,1.1,0.6,0.9*24
###2023-12-09 12:44:36.954132$GAGSA,A,3,04,19,21,27,,,,,,,,,1.1,0.6,0.9*26
###2023-12-09 12:44:36.955801$GBGSA,A,3,14,24,25,26,33,,,,,,,,1.1,0.6,0.9*2F
###2023-12-09 12:44:36.958132$GPGSV,2,1,08,03,38,271,42,04,25,311,40,16,41,209,45,26,71,208,47*7F
###2023-12-09 12:44:36.960484$GPGSV,2,2,08,28,55,061,45,29,26,069,43,31,72,015,48,32,26,136,44*74
###2023-12-09 12:44:36.962830$GLGSV,2,1,06,65,16,329,41,71,51,170,47,72,69,300,46,73,44,036,46*66
###2023-12-09 12:44:36.964582$GLGSV,2,2,06,74,71,307,42,75,25,245,42,,,,,,,,*64
###2023-12-09 12:44:36.966937$GAGSV,1,1,04,04,24,312,39,19,84,283,40,21,81,168,46,27,38,049,45*68
###2023-12-09 12:44:36.969270$GBGSV,2,1,05,14,51,196,46,24,79,002,48,25,35,255,44,26,32,059,44*6C
###2023-12-09 12:44:36.970743$GBGSV,2,2,05,33,62,246,47,,,,,,,,,,,,*59
###2023-12-09 12:44:36.972071$GNVTG,230.71,T,,M,1.98,N,3.67,K,A*26
###2023-12-09 12:44:36.973719$GNGST,174436.10,18.000,,,,0.079,0.070,0.160*52
###2023-12-09 12:44:36.975028$GNZDA,174436.10,09,12,2023,00,00*73
###2023-12-09 12:44:36.975672$GNEBP,,,,,,M*13
###2023-12-09 12:44:37.144245$GNGGA,174436.30,4138.0424287,N,07032.3857572,W,1,24,0.6,13.504,M,-29.745,M,0.0,*53
###2023-12-09 12:44:37.344951$GNGGA,174436.50,4138.0423680,N,07032.3858849,W,1,24,0.6,13.488,M,-29.745,M,0.0,*5E
###2023-12-09 12:44:37.545335$GNGGA,174436.70,4138.0423068,N,07032.3860165,W,1,24,0.6,13.481,M,-29.745,M,0.0,*59
###2023-12-09 12:44:37.745117$GNGGA,174436.90,4138.0422423,N,07032.3861478,W,1,24,0.6,13.479,M,-29.745,M,0.0,*52
###2023-12-09 12:44:37.946444$GNRMC,174437.10,A,4138.0421972,N,07032.3862872,W,2.02,255.52,091223,,,A*5E
###2023-12-09 12:44:37.949952$GNGGA,174437.10,4138.0421972,N,07032.3862872,W,1,24,0.6,13.471,M,-29.745,M,0.0,*5C
###2023-12-09 12:44:37.952224$GPGSA,A,3,03,04,16,26,28,29,31,32,,,,,1.1,0.6,0.9*3B
###2023-12-09 12:44:37.954289$GLGSA,A,3,65,71,72,73,74,75,,,,,,,1.1,0.6,0.9*24
###2023-12-09 12:44:37.956220$GAGSA,A,3,04,19,21,27,,,,,,,,,1.1,0.6,0.9*26
###2023-12-09 12:44:37.958212$GBGSA,A,3,14,24,25,26,33,,,,,,,,1.1,0.6,0.9*2F
###2023-12-09 12:44:37.961037$GPGSV,2,1,08,03,38,271,42,04,25,311,38,16,41,209,45,26,71,208,47*70
###2023-12-09 12:44:37.963879$GPGSV,2,2,08,28,55,061,45,29,26,069,41,31,72,015,46,32,26,136,43*7F
###2023-12-09 12:44:37.966724$GLGSV,2,1,06,65,16,329,40,71,51,170,48,72,69,300,46,73,44,036,46*68
###2023-12-09 12:44:37.968840$GLGSV,2,2,06,74,71,307,42,75,25,245,42,,,,,,,,*64
###2023-12-09 12:44:37.971665$GAGSV,1,1,04,04,24,312,37,19,84,283,40,21,81,168,46,27,38,049,43*60
###2023-12-09 12:44:37.974522$GBGSV,2,1,05,14,51,196,45,24,79,002,48,25,35,255,43,26,32,059,43*6F
###2023-12-09 12:44:37.976299$GBGSV,2,2,05,33,62,246,47,,,,,,,,,,,,*59
###2023-12-09 12:44:37.977902$GNVTG,255.52,T,,M,2.02,N,3.74,K,A*26
###2023-12-09 12:44:37.979912$GNGST,174437.10,18.000,,,,0.078,0.070,0.160*52
###2023-12-09 12:44:37.981476$GNZDA,174437.10,09,12,2023,00,00*72
###2023-12-09 12:44:37.982256$GNEBP,,,,,,M*13
###2023-12-09 12:44:38.144746$GNGGA,174437.30,4138.0421778,N,07032.3864329,W,1,24,0.6,13.484,M,-29.745,M,0.0,*53
###2023-12-09 12:44:38.345423$GNGGA,174437.50,4138.0421689,N,07032.3865806,W,1,24,0.6,13.488,M,-29.745,M,0.0,*51
###2023-12-09 12:44:38.545652$GNGGA,174437.70,4138.0421576,N,07032.3867333,W,1,24,0.6,13.490,M,-29.745,M,0.0,*56
###2023-12-09 12:44:38.744983$GNGGA,174437.90,4138.0421511,N,07032.3868910,W,1,24,0.6,13.482,M,-29.745,M,0.0,*5E
###2023-12-09 12:44:38.947236$GNRMC,174438.10,A,4138.0421515,N,07032.3870494,W,2.10,272.04,091223,,,A*5E
###2023-12-09 12:44:38.950717$GNGGA,174438.10,4138.0421515,N,07032.3870494,W,1,24,0.6,13.474,M,-29.745,M,0.0,*5C
###2023-12-09 12:44:38.952966$GPGSA,A,3,03,04,16,26,28,29,31,32,,,,,1.1,0.6,0.9*3B
###2023-12-09 12:44:38.955058$GLGSA,A,3,65,71,72,73,74,75,,,,,,,1.1,0.6,0.9*24
###2023-12-09 12:44:38.956973$GAGSA,A,3,04,19,21,27,,,,,,,,,1.1,0.6,0.9*26
###2023-12-09 12:44:38.958979$GBGSA,A,3,14,24,25,26,33,,,,,,,,1.1,0.6,0.9*2F
###2023-12-09 12:44:38.961795$GPGSV,2,1,08,03,38,271,41,04,25,311,38,16,41,209,44,26,71,208,47*72
###2023-12-09 12:44:38.964670$GPGSV,2,2,08,28,55,061,45,29,26,069,41,31,72,015,48,32,26,136,43*71
###2023-12-09 12:44:38.967516$GLGSV,2,1,06,65,16,329,39,71,51,170,47,72,69,300,46,73,44,036,47*68
###2023-12-09 12:44:38.969632$GLGSV,2,2,06,74,71,307,42,75,25,245,40,,,,,,,,*66
###2023-12-09 12:44:38.972454$GAGSV,1,1,04,04,24,312,37,19,84,283,40,21,81,168,46,27,38,049,44*67
###2023-12-09 12:44:38.975286$GBGSV,2,1,05,14,51,196,46,24,79,002,49,25,35,255,42,26,32,059,41*6E
###2023-12-09 12:44:38.977039$GBGSV,2,2,05,33,62,246,47,,,,,,,,,,,,*59
###2023-12-09 12:44:38.978950$GNVTG,272.04,T,,M,2.10,N,3.89,K,A*21
###2023-12-09 12:44:38.980954$GNGST,174438.10,18.000,,,,0.079,0.071,0.160*5D
###2023-12-09 12:44:38.982520$GNZDA,174438.10,09,12,2023,00,00*7D
###2023-12-09 12:44:38.983314$GNEBP,,,,,,M*13
###2023-12-09 12:44:39.146257$GNGGA,174438.30,4138.0421551,N,07032.3872106,W,1,24,0.6,13.469,M,-29.745,M,0.0,*5E
###2023-12-09 12:44:39.346487$GNGGA,174438.50,4138.0421643,N,07032.3873695,W,1,24,0.6,13.462,M,-29.745,M,0.0,*5F
###2023-12-09 12:44:39.546378$GNGGA,174438.70,4138.0421782,N,07032.3875276,W,1,24,0.6,13.454,M,-29.745,M,0.0,*5B
###2023-12-09 12:44:39.744256$GNGGA,174438.90,4138.0421980,N,07032.3876819,W,1,24,0.6,13.444,M,-29.745,M,0.0,*58
###2023-12-09 12:44:39.955168$GNRMC,174439.10,A,4138.0422270,N,07032.3878399,W,2.14,287.23,091223,,,A*51
