###2023-12-09 12:24:02.116548$GNGGA,172401.30,4138.0392701,N,07032.4359720,W,1,19,0.8,14.855,M,-29.746,M,0.0,*5A
###2023-12-09 12:24:02.315671$GNGGA,172401.50,4138.0392724,N,07032.4359768,W,1,19,0.8,14.826,M,-29.746,M,0.0,*53
###2023-12-09 12:24:02.515525$GNGGA,172401.70,4138.0392738,N,07032.4359803,W,1,19,0.8,14.792,M,-29.746,M,0.0,*5E
###2023-12-09 12:24:02.714650$GNGGA,172401.90,4138.0392749,N,07032.4359827,W,1,19,0.8,14.764,M,-29.746,M,0.0,*59
###2023-12-09 12:24:02.918149$GNRMC,172402.10,A,4138.0392771,N,07032.4359864,W,0.02,,091223,,,A*46
###2023-12-09 12:24:02.921247$GNGGA,172402.10,4138.0392771,N,07032.4359864,W,1,19,0.8,14.738,M,-29.746,M,0.0,*57
###2023-12-09 12:24:02.923088$GPGSA,A,3,03,16,25,26,28,29,32,,,,,,1.3,0.8,1.1*3F
###2023-12-09 12:24:02.924757$GLGSA,A,3,71,72,73,74,75,,,,,,,,1.3,0.8,1.1*22
###2023-12-09 12:24:02.926279$GAGSA,A,3,04,21,27,,,,,,,,,,1.3,0.8,1.1*2B
###2023-12-09 12:24:02.927886$GBGSA,A,3,14,25,26,33,,,,,,,,,1.3,0.8,1.1*2C
###2023-12-09 12:24:02.930222$GPGSV,2,1,07,03,39,283,41,16,31,206,43,25,16,045,41,26,61,205,45*7F
###2023-12-09 12:24:02.932288$GPGSV,2,2,07,28,62,049,40,29,24,079,43,32,35,131,46,,,,*4B
###2023-12-09 12:24:02.934635$GLGSV,2,1,05,71,63,167,44,72,61,317,37,73,53,030,48,74,69,274,36*66
###2023-12-09 12:24:02.936100$GLGSV,2,2,05,75,18,237,42,,,,,,,,,,,,*5B
###2023-12-09 12:24:02.938136$GAGSV,1,1,03,04,17,310,37,21,73,180,46,27,45,051,46,,,,*51
###2023-12-09 12:24:02.940482$GBGSV,1,1,04,14,60,201,45,25,29,249,42,26,39,055,47,33,64,265,38*6E
###2023-12-09 12:24:02.941616$GNVTG,,T,,M,0.02,N,0.04,K,A*3B
###2023-12-09 12:24:02.943282$GNGST,172402.10,32.000,,,,0.100,0.100,0.230*54
###2023-12-09 12:24:02.944581$GNZDA,172402.10,09,12,2023,00,00*72
###2023-12-09 12:24:02.945226$GNEBP,,,,,,M*13
###2023-12-09 12:24:03.116555$GNGGA,172402.30,4138.0392799,N,07032.4359891,W,1,19,0.8,14.708,M,-29.746,M,0.0,*5A
###2023-12-09 12:24:03.315727$GNGGA,172402.50,4138.0392817,N,07032.4359918,W,1,19,0.8,14.680,M,-29.746,M,0.0,*54
###2023-12-09 12:24:03.515480$GNGGA,172402.70,4138.0392844,N,07032.4359947,W,1,19,0.8,14.656,M,-29.746,M,0.0,*51
###2023-12-09 12:24:03.714671$GNGGA,172402.90,4138.0392871,N,07032.4359971,W,1,19,0.8,14.625,M,-29.746,M,0.0,*58
###2023-12-09 12:24:03.918999$GNRMC,172403.10,A,4138.0392898,N,07032.4360005,W,0.04,,091223,,,A*4C
###2023-12-09 12:24:03.921877$GNGGA,172403.10,4138.0392898,N,07032.4360005,W,1,19,0.8,14.595,M,-29.746,M,0.0,*5E
###2023-12-09 12:24:03.923708$GPGSA,A,3,03,16,25,26,28,29,32,,,,,,1.3,0.8,1.1*3F
###2023-12-09 12:24:03.925375$GLGSA,A,3,71,72,73,74,75,,,,,,,,1.3,0.8,1.1*22
###2023-12-09 12:24:03.926925$GAGSA,A,3,04,21,27,,,,,,,,,,1.3,0.8,1.1*2B
###2023-12-09 12:24:03.928522$GBGSA,A,3,14,25,26,33,,,,,,,,,1.3,0.8,1.1*2C
###2023-12-09 12:24:03.930883$GPGSV,2,1,07,03,39,283,41,16,31,206,43,25,16,045,41,26,61,205,45*7F
###2023-12-09 12:24:03.932944$GPGSV,2,2,07,28,62,049,41,29,24,079,43,32,35,131,46,,,,*4A
###2023-12-09 12:24:03.935309$GLGSV,2,1,05,71,63,167,44,72,61,317,38,73,53,030,48,74,69,274,35*6A
###2023-12-09 12:24:03.936781$GLGSV,2,2,05,75,18,237,42,,,,,,,,,,,,*5B
###2023-12-09 12:24:03.938874$GAGSV,1,1,03,04,17,310,36,21,73,180,46,27,45,051,46,,,,*50
###2023-12-09 12:24:03.941220$GBGSV,1,1,04,14,60,201,45,25,29,249,41,26,39,055,47,33,64,265,39*6C
###2023-12-09 12:24:03.942367$GNVTG,,T,,M,0.04,N,0.07,K,A*3E
###2023-12-09 12:24:03.944043$GNGST,172403.10,32.000,,,,0.100,0.100,0.230*55
###2023-12-09 12:24:03.945346$GNZDA,172403.10,09,12,2023,00,00*73
###2023-12-09 12:24:03.945993$GNEBP,,,,,,M*13
###2023-12-09 12:24:04.115622$GNGGA,172403.30,4138.0392927,N,07032.4360033,W,1,19,0.8,14.566,M,-29.746,M,0.0,*50
###2023-12-09 12:24:04.316833$GNGGA,172403.50,4138.0392952,N,07032.4360066,W,1,19,0.8,14.537,M,-29.746,M,0.0,*50
###2023-12-09 12:24:04.515511$GNGGA,172403.70,4138.0392968,N,07032.4360095,W,1,18,0.8,14.514,M,-29.746,M,0.0,*57
###2023-12-09 12:24:04.714794$GNGGA,172403.90,4138.0392998,N,07032.4360119,W,1,18,0.8,14.489,M,-29.746,M,0.0,*56
###2023-12-09 12:24:04.923233$GNRMC,172404.10,A,4138.0393008,N,07032.4360140,W,0.04,,091223,,,A*4B
###2023-12-09 12:24:04.926312$GNGGA,172404.10,4138.0393008,N,07032.4360140,W,1,18,0.8,14.466,M,-29.746,M,0.0,*55
###2023-12-09 12:24:04.928311$GPGSA,A,3,03,16,25,26,28,29,32,,,,,,1.3,0.8,1.1*3F
###2023-12-09 12:24:04.930077$GLGSA,A,3,71,72,73,75,,,,,,,,,1.3,0.8,1.1*21
###2023-12-09 12:24:04.931785$GAGSA,A,3,04,21,27,,,,,,,,,,1.3,0.8,1.1*2B
###2023-12-09 12:24:04.933536$GBGSA,A,3,14,25,26,33,,,,,,,,,1.3,0.8,1.1*2C
###2023-12-09 12:24:04.936050$GPGSV,2,1,07,03,39,283,41,16,31,206,44,25,16,045,41,26,61,205,45*78
###2023-12-09 12:24:04.938273$GPGSV,2,2,07,28,62,049,41,29,24,079,43,32,35,131,47,,,,*4B
###2023-12-09 12:24:04.940787$GLGSV,1,1,04,71,63,167,44,72,61,317,37,73,53,030,48,75,18,237,42*67
###2023-12-09 12:24:04.943040$GAGSV,1,1,03,04,17,310,37,21,73,180,47,27,45,051,46,,,,*50
###2023-12-09 12:24:04.945542$GBGSV,1,1,04,14,60,201,45,25,29,249,41,26,39,055,47,33,64,265,38*6D
###2023-12-09 12:24:04.946876$GNVTG,,T,,M,0.04,N,0.07,K,A*3E
###2023-12-09 12:24:04.948732$GNGST,172404.10,32.000,,,,0.100,0.100,0.230*52
###2023-12-09 12:24:04.950194$GNZDA,172404.10,09,12,2023,00,00*74
###2023-12-09 12:24:04.950884$GNEBP,,,,,,M*13
###2023-12-09 12:24:05.115975$GNGGA,172404.30,4138.0393031,N,07032.4360149,W,1,18,0.8,14.442,M,-29.746,M,0.0,*52
###2023-12-09 12:24:05.315650$GNGGA,172404.50,4138.0393050,N,07032.4360170,W,1,18,0.8,14.425,M,-29.746,M,0.0,*58
###2023-12-09 12:24:05.515134$GNGGA,172404.70,4138.0393065,N,07032.4360188,W,1,18,0.8,14.405,M,-29.746,M,0.0,*59
###2023-12-09 12:24:05.714699$GNGGA,172404.90,4138.0393077,N,07032.4360208,W,1,18,0.8,14.380,M,-29.746,M,0.0,*55
###2023-12-09 12:24:05.915745$GNRMC,172405.10,A,4138.0393085,N,07032.4360234,W,0.02,,091223,,,A*49
###2023-12-09 12:24:05.918902$GNGGA,172405.10,4138.0393085,N,07032.4360234,W,1,18,0.8,14.359,M,-29.746,M,0.0,*5A
###2023-12-09 12:24:05.920920$GPGSA,A,3,03,16,25,26,28,29,32,,,,,,1.3,0.8,1.1*3F
###2023-12-09 12:24:05.922734$GLGSA,A,3,71,72,73,75,,,,,,,,,1.3,0.8,1.1*21
###2023-12-09 12:24:05.924452$GAGSA,A,3,04,21,27,,,,,,,,,,1.3,0.8,1.1*2B
###2023-12-09 12:24:05.926227$GBGSA,A,3,14,25,26,33,,,,,,,,,1.3,0.8,1.1*2C
###2023-12-09 12:24:05.928766$GPGSV,2,1,07,03,39,283,41,16,31,206,43,25,16,045,41,26,61,205,45*7F
###2023-12-09 12:24:05.931018$GPGSV,2,2,07,28,62,049,41,29,24,079,44,32,35,131,46,,,,*4D
###2023-12-09 12:24:05.933561$GLGSV,1,1,04,71,63,167,44,72,61,317,37,73,53,030,48,75,18,237,42*67
###2023-12-09 12:24:05.935846$GAGSV,1,1,03,04,17,310,36,21,73,180,46,27,45,051,46,,,,*50
###2023-12-09 12:24:05.938376$GBGSV,1,1,04,14,60,201,44,25,29,249,41,26,39,055,46,33,64,265,38*6D
###2023-12-09 12:24:05.939725$GNVTG,,T,,M,0.02,N,0.04,K,A*3B
###2023-12-09 12:24:05.941570$GNGST,172405.10,33.000,,,,0.100,0.100,0.230*52
###2023-12-09 12:24:05.943005$GNZDA,172405.10,09,12,2023,00,00*75
###2023-12-09 12:24:05.943760$GNEBP,,,,,,M*13
###2023-12-09 12:24:06.116483$GNGGA,172405.30,4138.0393087,N,07032.4360248,W,1,18,0.8,14.340,M,-29.746,M,0.0,*59
###2023-12-09 12:24:06.316900$GNGGA,172405.50,4138.0393098,N,07032.4360280,W,1,18,0.8,14.320,M,-29.746,M,0.0,*53
###2023-12-09 12:24:06.516141$GNGGA,172405.70,4138.0393096,N,07032.4360302,W,1,18,0.8,14.301,M,-29.746,M,0.0,*57
###2023-12-09 12:24:06.718530$GNGGA,172405.90,4138.0393105,N,07032.4360338,W,1,18,0.8,14.281,M,-29.746,M,0.0,*52
###2023-12-09 12:24:06.918290$GNRMC,172406.10,A,4138.0393118,N,07032.4360367,W,0.02,,091223,,,A*48
###2023-12-09 12:24:06.921434$GNGGA,172406.10,4138.0393118,N,07032.4360367,W,1,18,0.8,14.263,M,-29.746,M,0.0,*53
###2023-12-09 12:24:06.923300$GPGSA,A,3,03,16,25,26,28,29,32,,,,,,1.3,0.8,1.1*3F
###2023-12-09 12:24:06.924923$GLGSA,A,3,71,72,73,75,,,,,,,,,1.3,0.8,1.1*21
###2023-12-09 12:24:06.926473$GAGSA,A,3,04,21,27,,,,,,,,,,1.3,0.8,1.1*2B
###2023-12-09 12:24:06.928106$GBGSA,A,3,14,25,26,33,,,,,,,,,1.3,0.8,1.1*2C
###2023-12-09 12:24:06.930470$GPGSV,2,1,07,03,39,283,41,16,31,206,44,25,16,045,41,26,61,205,45*78
###2023-12-09 12:24:06.932585$GPGSV,2,2,07,28,62,049,41,29,24,079,44,32,35,131,46,,,,*4D
###2023-12-09 12:24:06.934974$GLGSV,1,1,04,71,63,167,45,72,61,317,37,73,53,030,48,75,18,237,42*66
###2023-12-09 12:24:06.937332$GAGSV,1,1,03,04,17,310,37,21,73,180,46,27,45,051,46,,,,*51
###2023-12-09 12:24:06.939773$GBGSV,1,1,04,14,60,201,44,25,29,249,41,26,39,055,46,33,64,265,38*6D
###2023-12-09 12:24:06.940962$GNVTG,,T,,M,0.02,N,0.04,K,A*3B
###2023-12-09 12:24:06.942661$GNGST,172406.10,32.000,,,,0.100,0.100,0.230*50
###2023-12-09 12:24:06.943971$GNZDA,172406.10,09,12,2023,00,00*76
###2023-12-09 12:24:06.944620$GNEBP,,,,,,M*13
###2023-12-09 12:24:07.116811$GNGGA,172406.30,4138.0393114,N,07032.4360390,W,1,18,0.8,14.242,M,-29.746,M,0.0,*56
###2023-12-09 12:24:07.317689$GNGGA,172406.50,4138.0393124,N,07032.4360430,W,1,18,0.8,14.221,M,-29.746,M,0.0,*5B
###2023-12-09 12:24:07.516978$GNGGA,172406.70,4138.0393126,N,07032.4360461,W,1,18,0.8,14.201,M,-29.746,M,0.0,*5D
