###2023-12-09 13:06:00.970511$GNRMC,180600.10,A,4138.0708498,N,07032.2804703,W,3.27,292.11,091223,,,A*50
###2023-12-09 13:06:00.973390$GNGGA,180600.10,4138.0708498,N,07032.2804703,W,1,24,0.6,13.481,M,-29.742,M,0.0,*50
###2023-12-09 13:06:00.975271$GPGSA,A,3,03,04,16,26,28,29,31,32,,,,,1.1,0.6,0.9*3B
###2023-12-09 13:06:00.976990$GLGSA,A,3,65,71,72,73,74,75,,,,,,,1.1,0.6,0.9*24
###2023-12-09 13:06:00.978582$GAGSA,A,3,04,19,21,27,,,,,,,,,1.1,0.6,0.9*26
###2023-12-09 13:06:00.980235$GBGSA,A,3,14,24,25,26,33,,,,,,,,1.1,0.6,0.9*2F
###2023-12-09 13:06:00.982560$GPGSV,2,1,08,03,34,259,41,04,34,311,42,16,52,213,45,26,82,210,48*7B
###2023-12-09 13:06:00.984902$GPGSV,2,2,08,28,48,072,45,29,25,059,40,31,68,042,47,32,17,141,43*7A
###2023-12-09 13:06:00.987243$GLGSV,2,1,06,65,26,327,38,71,39,173,46,72,73,261,46,73,34,043,45*62
###2023-12-09 13:06:00.988986$GLGSV,2,2,06,74,69,343,42,75,33,255,44,,,,,,,,*6D
###2023-12-09 13:06:00.991318$GAGSV,1,1,04,04,31,312,39,19,83,203,40,21,85,094,46,27,32,048,41*6A
###2023-12-09 13:06:00.993642$GBGSV,2,1,05,14,42,192,45,24,72,028,49,25,42,263,46,26,25,063,42*65
###2023-12-09 13:06:00.995111$GBGSV,2,2,05,33,56,230,48,,,,,,,,,,,,*50
###2023-12-09 13:06:00.996435$GNVTG,292.11,T,,M,3.27,N,6.05,K,A*2F
###2023-12-09 13:06:00.998080$GNGST,180600.10,18.000,,,,0.080,0.068,0.160*51
###2023-12-09 13:06:00.999383$GNZDA,180600.10,09,12,2023,00,00*7F
###2023-12-09 13:06:01.000022$GNEBP,,,,,,M*13
###2023-12-09 13:06:01.167230$GNGGA,180600.30,4138.0709187,N,07032.2807028,W,1,24,0.6,13.490,M,-29.742,M,0.0,*55
###2023-12-09 13:06:01.367614$GNGGA,180600.50,4138.0709698,N,07032.2809440,W,1,24,0.6,13.479,M,-29.742,M,0.0,*59
###2023-12-09 13:06:01.568031$GNGGA,180600.70,4138.0710053,N,07032.2811849,W,1,24,0.6,13.464,M,-29.742,M,0.0,*52
###2023-12-09 13:06:01.768069$GNGGA,180600.90,4138.0710601,N,07032.2814191,W,1,24,0.6,13.475,M,-29.742,M,0.0,*54
###2023-12-09 13:06:01.971017$GNRMC,180601.10,A,4138.0711185,N,07032.2816544,W,3.30,283.24,091223,,,A*52
###2023-12-09 13:06:01.973900$GNGGA,180601.10,4138.0711185,N,07032.2816544,W,1,24,0.6,13.470,M,-29.742,M,0.0,*5C
###2023-12-09 13:06:01.975774$GPGSA,A,3,03,04,16,26,28,29,31,32,,,,,1.1,0.6,0.9*3B
###2023-12-09 13:06:01.977492$GLGSA,A,3,65,71,72,73,74,75,,,,,,,1.1,0.6,0.9*24
###2023-12-09 13:06:01.979087$GAGSA,A,3,04,19,21,27,,,,,,,,,1.1,0.6,0.9*26
###2023-12-09 13:06:01.980731$GBGSA,A,3,14,24,25,26,33,,,,,,,,1.1,0.6,0.9*2F
###2023-12-09 13:06:01.983067$GPGSV,2,1,08,03,34,259,41,04,34,311,40,16,52,213,45,26,82,210,48*79
###2023-12-09 13:06:01.985407$GPGSV,2,2,08,28,48,072,45,29,25,059,40,31,68,042,47,32,17,141,43*7A
###2023-12-09 13:06:01.987775$GLGSV,2,1,06,65,26,327,38,71,39,173,45,72,73,261,45,73,34,043,45*62
###2023-12-09 13:06:01.989532$GLGSV,2,2,06,74,69,343,42,75,33,255,42,,,,,,,,*6B
###2023-12-09 13:06:01.991885$GAGSV,1,1,04,04,31,312,38,19,83,203,40,21,85,094,46,27,32,048,41*6B
###2023-12-09 13:06:01.994219$GBGSV,2,1,05,14,42,192,45,24,72,028,48,25,42,263,43,26,25,063,41*62
###2023-12-09 13:06:01.995689$GBGSV,2,2,05,33,56,230,48,,,,,,,,,,,,*50
###2023-12-09 13:06:01.997018$GNVTG,283.24,T,,M,3.30,N,6.12,K,A*29
###2023-12-09 13:06:01.998681$GNGST,180601.10,18.000,,,,0.081,0.068,0.160*51
###2023-12-09 13:06:01.999981$GNZDA,180601.10,09,12,2023,00,00*7E
###2023-12-09 13:06:02.000621$GNEBP,,,,,,M*13
###2023-12-09 13:06:02.168143$GNGGA,180601.30,4138.0711470,N,07032.2818885,W,1,24,0.6,13.446,M,-29.742,M,0.0,*5A
###2023-12-09 13:06:02.368008$GNGGA,180601.50,4138.0711841,N,07032.2821161,W,1,24,0.6,13.460,M,-29.742,M,0.0,*5F
###2023-12-09 13:06:02.568002$GNGGA,180601.70,4138.0712326,N,07032.2823482,W,1,24,0.6,13.470,M,-29.742,M,0.0,*5F
###2023-12-09 13:06:02.769003$GNGGA,180601.90,4138.0712547,N,07032.2825809,W,1,24,0.6,13.453,M,-29.742,M,0.0,*58
###2023-12-09 13:06:02.970360$GNRMC,180602.10,A,4138.0712698,N,07032.2828111,W,3.21,275.86,091223,,,A*51
###2023-12-09 13:06:02.973242$GNGGA,180602.10,4138.0712698,N,07032.2828111,W,1,24,0.6,13.460,M,-29.742,M,0.0,*5F
###2023-12-09 13:06:02.975115$GPGSA,A,3,03,04,16,26,28,29,31,32,,,,,1.1,0.6,0.9*3B
###2023-12-09 13:06:02.976828$GLGSA,A,3,65,71,72,73,74,75,,,,,,,1.1,0.6,0.9*24
###2023-12-09 13:06:02.978407$GAGSA,A,3,04,19,21,27,,,,,,,,,1.1,0.6,0.9*26
###2023-12-09 13:06:02.980060$GBGSA,A,3,14,24,25,26,33,,,,,,,,1.1,0.6,0.9*2F
###2023-12-09 13:06:02.982379$GPGSV,2,1,08,03,34,259,43,04,34,311,42,16,52,213,46,26,82,210,48*7A
###2023-12-09 13:06:02.984720$GPGSV,2,2,08,28,48,072,45,29,25,059,41,31,68,042,47,32,17,141,43*7B
###2023-12-09 13:06:02.987065$GLGSV,2,1,06,65,26,327,40,71,39,173,47,72,73,261,46,73,34,043,44*6D
###2023-12-09 13:06:02.988807$GLGSV,2,2,06,74,69,343,42,75,33,255,43,,,,,,,,*6A
###2023-12-09 13:06:02.991143$GAGSV,1,1,04,04,31,312,40,19,83,203,40,21,85,094,46,27,32,048,40*65
###2023-12-09 13:06:02.993475$GBGSV,2,1,05,14,42,192,45,24,72,028,49,25,42,263,44,26,25,063,43*66
###2023-12-09 13:06:02.994948$GBGSV,2,2,05,33,56,230,48,,,,,,,,,,,,*50
###2023-12-09 13:06:02.996277$GNVTG,275.86,T,,M,3.21,N,5.94,K,A*25
###2023-12-09 13:06:02.997934$GNGST,180602.10,18.000,,,,0.081,0.068,0.160*52
###2023-12-09 13:06:02.999239$GNZDA,180602.10,09,12,2023,00,00*7D
###2023-12-09 13:06:02.999878$GNEBP,,,,,,M*13
###2023-12-09 13:06:03.170067$GNGGA,180602.30,4138.0712902,N,07032.2830553,W,1,24,0.6,13.460,M,-29.742,M,0.0,*5A
###2023-12-09 13:06:03.367556$GNGGA,180602.50,4138.0713022,N,07032.2832972,W,1,24,0.6,13.455,M,-29.742,M,0.0,*5D
###2023-12-09 13:06:03.568002$GNGGA,180602.70,4138.0713004,N,07032.2835395,W,1,24,0.6,13.461,M,-29.742,M,0.0,*58
###2023-12-09 13:06:03.768026$GNGGA,180602.90,4138.0712818,N,07032.2837828,W,1,24,0.6,13.459,M,-29.742,M,0.0,*56
###2023-12-09 13:06:03.971663$GNRMC,180603.10,A,4138.0712448,N,07032.2840185,W,3.23,255.68,091223,,,A*5C
###2023-12-09 13:06:03.974518$GNGGA,180603.10,4138.0712448,N,07032.2840185,W,1,24,0.6,13.439,M,-29.742,M,0.0,*5E
###2023-12-09 13:06:03.976398$GPGSA,A,3,03,04,16,26,28,29,31,32,,,,,1.1,0.6,0.9*3B
###2023-12-09 13:06:03.978112$GLGSA,A,3,65,71,72,73,74,75,,,,,,,1.1,0.6,0.9*24
###2023-12-09 13:06:03.979709$GAGSA,A,3,04,19,21,27,,,,,,,,,1.1,0.6,0.9*26
###2023-12-09 13:06:03.981352$GBGSA,A,3,14,24,25,26,33,,,,,,,,1.1,0.6,0.9*2F
###2023-12-09 13:06:03.983691$GPGSV,2,1,08,03,34,259,43,04,34,311,42,16,52,213,46,26,82,210,48*7A
###2023-12-09 13:06:03.986029$GPGSV,2,2,08,28,48,072,45,29,25,059,43,31,68,042,47,32,17,141,44*7E
###2023-12-09 13:06:03.988379$GLGSV,2,1,06,65,26,327,42,71,39,173,46,72,73,261,45,73,34,043,45*6C
###2023-12-09 13:06:03.990126$GLGSV,2,2,06,74,69,343,42,75,33,255,44,,,,,,,,*6D
###2023-12-09 13:06:03.992457$GAGSV,1,1,04,04,31,312,40,19,83,203,40,21,85,094,46,27,31,048,41*67
###2023-12-09 13:06:03.994796$GBGSV,2,1,05,14,42,192,46,24,72,028,49,25,42,263,44,26,25,063,43*65
###2023-12-09 13:06:03.996253$GBGSV,2,2,05,33,56,230,47,,,,,,,,,,,,*5F
###2023-12-09 13:06:03.997579$GNVTG,255.68,T,,M,3.23,N,5.98,K,A*29
###2023-12-09 13:06:03.999241$GNGST,180603.10,18.000,,,,0.081,0.068,0.160*53
###2023-12-09 13:06:04.000537$GNZDA,180603.10,09,12,2023,00,00*7C
###2023-12-09 13:06:04.001177$GNEBP,,,,,,M*13
###2023-12-09 13:06:04.170355$GNGGA,180603.30,4138.0712021,N,07032.2842520,W,1,24,0.6,13.424,M,-29.742,M,0.0,*52
###2023-12-09 13:06:04.367568$GNGGA,180603.50,4138.0711581,N,07032.2844862,W,1,24,0.6,13.438,M,-29.742,M,0.0,*58
###2023-12-09 13:06:04.568934$GNGGA,180603.70,4138.0711016,N,07032.2847157,W,1,24,0.6,13.444,M,-29.742,M,0.0,*56
###2023-12-09 13:06:04.772220$GNGGA,180603.90,4138.0710322,N,07032.2849367,W,1,24,0.6,13.444,M,-29.742,M,0.0,*52
###2023-12-09 13:06:04.972741$GNRMC,180604.10,A,4138.0709739,N,07032.2851650,W,3.36,254.73,091223,,,A*54
###2023-12-09 13:06:04.975652$GNGGA,180604.10,4138.0709739,N,07032.2851650,W,1,24,0.6,13.435,M,-29.742,M,0.0,*55
###2023-12-09 13:06:04.977540$GPGSA,A,3,03,04,16,26,28,29,31,32,,,,,1.1,0.6,0.9*3B
###2023-12-09 13:06:04.979293$GLGSA,A,3,65,71,72,73,74,75,,,,,,,1.1,0.6,0.9*24
###2023-12-09 13:06:04.980894$GAGSA,A,3,04,19,21,27,,,,,,,,,1.1,0.6,0.9*26
###2023-12-09 13:06:04.982555$GBGSA,A,3,14,24,25,26,33,,,,,,,,1.1,0.6,0.9*2F
###2023-12-09 13:06:04.984919$GPGSV,2,1,08,03,34,259,42,04,34,311,42,16,52,213,46,26,82,210,47*74
###2023-12-09 13:06:04.987528$GPGSV,2,2,08,28,48,072,44,29,25,059,42,31,68,042,47,32,17,141,43*79
###2023-12-09 13:06:04.989899$GLGSV,2,1,06,65,26,327,42,71,39,173,46,72,73,261,45,73,34,043,45*6C
###2023-12-09 13:06:04.991686$GLGSV,2,2,06,74,69,343,43,75,33,255,44,,,,,,,,*6C
###2023-12-09 13:06:04.994031$GAGSV,1,1,04,04,31,312,40,19,83,203,40,21,85,094,46,27,31,048,41*67
###2023-12-09 13:06:04.996405$GBGSV,2,1,05,14,42,192,45,24,72,028,49,25,42,263,44,26,25,063,43*66
###2023-12-09 13:06:04.997878$GBGSV,2,2,05,33,56,230,48,,,,,,,,,,,,*50
###2023-12-09 13:06:04.999230$GNVTG,254.73,T,,M,3.36,N,6.23,K,A*25
###2023-12-09 13:06:05.000895$GNGST,180604.10,18.000,,,,0.081,0.068,0.160*54
###2023-12-09 13:06:05.002200$GNZDA,180604.10,09,12,2023,00,00*7B
