###2023-12-09 13:19:01.781960$GNGGA,181900.90,4138.0581060,N,07032.3088193,W,1,24,0.7,13.243,M,-29.743,M,0.0,*5C
###2023-12-09 13:19:01.984903$GNRMC,181901.10,A,4138.0583034,N,07032.3089016,W,3.71,341.77,091223,,,A*5F
###2023-12-09 13:19:01.988404$GNGGA,181901.10,4138.0583034,N,07032.3089016,W,1,24,0.7,13.243,M,-29.743,M,0.0,*5B
###2023-12-09 13:19:01.990636$GPGSA,A,3,03,04,16,26,28,29,31,,,,,,1.1,0.7,0.9*3B
###2023-12-09 13:19:01.992723$GLGSA,A,3,65,71,72,73,74,75,,,,,,,1.1,0.7,0.9*25
###2023-12-09 13:19:01.994650$GAGSA,A,3,04,19,21,27,,,,,,,,,1.1,0.7,0.9*27
###2023-12-09 13:19:01.996709$GBGSA,A,3,14,24,25,26,33,35,,,,,,,1.1,0.7,0.9*28
###2023-12-09 13:19:01.999524$GPGSV,2,1,07,03,31,253,44,04,39,310,43,16,58,216,47,26,88,205,48*70
###2023-12-09 13:19:02.001975$GPGSV,2,2,07,28,43,078,46,29,23,053,41,31,64,053,46,,,,*43
###2023-12-09 13:19:02.004790$GLGSV,2,1,06,65,32,324,39,71,31,174,45,72,69,237,47,73,28,047,43*6F
###2023-12-09 13:19:02.006796$GLGSV,2,2,06,74,65,,41,75,38,262,46,,,,,,,,*5B
###2023-12-09 13:19:02.009639$GAGSV,1,1,04,04,35,311,41,19,78,188,40,21,82,058,46,27,27,049,40*65
###2023-12-09 13:19:02.012457$GBGSV,2,1,06,14,35,191,42,24,68,038,48,25,46,269,45,26,20,067,43*64
###2023-12-09 13:19:02.014573$GBGSV,2,2,06,33,51,223,47,35,16,062,41,,,,,,,,*69
###2023-12-09 13:19:02.016158$GNVTG,341.77,T,,M,3.71,N,6.88,K,A*26
###2023-12-09 13:19:02.018138$GNGST,181901.10,18.000,,,,0.100,0.071,0.170*5E
###2023-12-09 13:19:02.019705$GNZDA,181901.10,09,12,2023,00,00*70
###2023-12-09 13:19:02.020470$GNEBP,,,,,,M*13
###2023-12-09 13:19:02.183045$GNGGA,181901.30,4138.0584976,N,07032.3089915,W,1,24,0.7,13.241,M,-29.743,M,0.0,*59
###2023-12-09 13:19:02.381938$GNGGA,181901.50,4138.0586910,N,07032.3090887,W,1,24,0.7,13.239,M,-29.743,M,0.0,*50
###2023-12-09 13:19:02.583687$GNGGA,181901.70,4138.0588801,N,07032.3091913,W,1,24,0.7,13.243,M,-29.743,M,0.0,*5D
###2023-12-09 13:19:02.782701$GNGGA,181901.90,4138.0590638,N,07032.3093017,W,1,24,0.7,13.254,M,-29.743,M,0.0,*57
###2023-12-09 13:19:02.988097$GNRMC,181902.10,A,4138.0592444,N,07032.3094138,W,3.56,334.75,091223,,,A*5B
###2023-12-09 13:19:02.991585$GNGGA,181902.10,4138.0592444,N,07032.3094138,W,1,24,0.7,13.249,M,-29.743,M,0.0,*50
###2023-12-09 13:19:02.993753$GPGSA,A,3,03,04,16,26,28,29,31,,,,,,1.1,0.7,0.9*3B
###2023-12-09 13:19:02.995839$GLGSA,A,3,65,71,72,73,74,75,,,,,,,1.1,0.7,0.9*25
###2023-12-09 13:19:02.997753$GAGSA,A,3,04,19,21,27,,,,,,,,,1.1,0.7,0.9*27
###2023-12-09 13:19:02.999831$GBGSA,A,3,14,24,25,26,33,35,,,,,,,1.1,0.7,0.9*28
###2023-12-09 13:19:03.002674$GPGSV,2,1,07,03,31,253,44,04,39,310,43,16,58,216,46,26,88,205,48*71
###2023-12-09 13:19:03.005135$GPGSV,2,2,07,28,43,078,46,29,23,053,43,31,64,053,47,,,,*40
###2023-12-09 13:19:03.008003$GLGSV,2,1,06,65,32,324,39,71,31,174,45,72,69,237,46,73,28,047,44*69
###2023-12-09 13:19:03.009996$GLGSV,2,2,06,74,65,,41,75,38,262,45,,,,,,,,*58
###2023-12-09 13:19:03.012828$GAGSV,1,1,04,04,35,311,41,19,78,188,41,21,82,058,46,27,27,049,42*66
###2023-12-09 13:19:03.015646$GBGSV,2,1,06,14,35,191,42,24,68,038,50,25,46,269,46,26,20,067,45*68
###2023-12-09 13:19:03.017748$GBGSV,2,2,06,33,51,223,48,35,16,062,44,,,,,,,,*63
###2023-12-09 13:19:03.019373$GNVTG,334.75,T,,M,3.56,N,6.59,K,A*2F
###2023-12-09 13:19:03.021379$GNGST,181902.10,18.000,,,,0.100,0.071,0.170*5D
###2023-12-09 13:19:03.022948$GNZDA,181902.10,09,12,2023,00,00*73
###2023-12-09 13:19:03.023719$GNEBP,,,,,,M*13
###2023-12-09 13:19:03.186016$GNGGA,181902.30,4138.0594234,N,07032.3095211,W,1,24,0.7,13.244,M,-29.743,M,0.0,*51
###2023-12-09 13:19:03.382976$GNGGA,181902.50,4138.0595991,N,07032.3096176,W,1,24,0.7,13.242,M,-29.743,M,0.0,*55
###2023-12-09 13:19:03.583347$GNGGA,181902.70,4138.0597742,N,07032.3097086,W,1,24,0.7,13.244,M,-29.743,M,0.0,*5C
###2023-12-09 13:19:03.784942$GNGGA,181902.90,4138.0599493,N,07032.3097906,W,1,24,0.7,13.246,M,-29.743,M,0.0,*50
###2023-12-09 13:19:03.987234$GNRMC,181903.10,A,4138.0601272,N,07032.3098655,W,3.36,344.29,091223,,,A*58
###2023-12-09 13:19:03.990706$GNGGA,181903.10,4138.0601272,N,07032.3098655,W,1,24,0.7,13.250,M,-29.743,M,0.0,*53
###2023-12-09 13:19:03.992901$GPGSA,A,3,03,04,16,26,28,29,31,,,,,,1.1,0.7,0.9*3B
###2023-12-09 13:19:03.994995$GLGSA,A,3,65,71,72,73,74,75,,,,,,,1.1,0.7,0.9*25
###2023-12-09 13:19:03.996911$GAGSA,A,3,04,19,21,27,,,,,,,,,1.1,0.7,0.9*27
###2023-12-09 13:19:03.998997$GBGSA,A,3,14,24,25,26,33,35,,,,,,,1.1,0.7,0.9*28
###2023-12-09 13:19:04.001817$GPGSV,2,1,07,03,31,253,44,04,39,310,45,16,58,216,46,26,88,205,48*77
###2023-12-09 13:19:04.004306$GPGSV,2,2,07,28,43,078,45,29,23,053,42,31,64,053,47,,,,*42
###2023-12-09 13:19:04.007150$GLGSV,2,1,06,65,32,324,39,71,31,174,44,72,69,237,46,73,28,047,43*6F
###2023-12-09 13:19:04.009147$GLGSV,2,2,06,74,65,,41,75,38,262,47,,,,,,,,*5A
###2023-12-09 13:19:04.011990$GAGSV,1,1,04,04,35,311,42,19,78,188,40,21,82,058,46,27,27,049,40*66
###2023-12-09 13:19:04.014832$GBGSV,2,1,06,14,35,191,43,24,68,038,48,25,46,269,48,26,20,067,43*68
###2023-12-09 13:19:04.016959$GBGSV,2,2,06,33,51,223,48,35,16,062,43,,,,,,,,*64
###2023-12-09 13:19:04.018572$GNVTG,344.29,T,,M,3.36,N,6.23,K,A*2A
###2023-12-09 13:19:04.020578$GNGST,181903.10,18.000,,,,0.100,0.071,0.170*5C
###2023-12-09 13:19:04.022147$GNZDA,181903.10,09,12,2023,00,00*72
###2023-12-09 13:19:04.022938$GNEBP,,,,,,M*13
###2023-12-09 13:19:04.182842$GNGGA,181903.30,4138.0603069,N,07032.3099289,W,1,24,0.7,13.254,M,-29.743,M,0.0,*5B
###2023-12-09 13:19:04.382887$GNGGA,181903.50,4138.0604902,N,07032.3099778,W,1,24,0.7,13.254,M,-29.743,M,0.0,*55
###2023-12-09 13:19:04.583776$GNGGA,181903.70,4138.0606774,N,07032.3100189,W,1,24,0.7,13.255,M,-29.743,M,0.0,*52
###2023-12-09 13:19:04.783675$GNGGA,181903.90,4138.0608657,N,07032.3100645,W,1,24,0.7,13.256,M,-29.743,M,0.0,*56
###2023-12-09 13:19:04.990774$GNRMC,181904.10,A,4138.0610577,N,07032.3100982,W,3.54,354.61,091223,,,A*51
###2023-12-09 13:19:04.994222$GNGGA,181904.10,4138.0610577,N,07032.3100982,W,1,24,0.7,13.254,M,-29.743,M,0.0,*57
###2023-12-09 13:19:04.996396$GPGSA,A,3,03,04,16,26,28,29,31,,,,,,1.1,0.7,0.9*3B
###2023-12-09 13:19:04.998470$GLGSA,A,3,65,71,72,73,74,75,,,,,,,1.1,0.7,0.9*25
###2023-12-09 13:19:05.000394$GAGSA,A,3,04,19,21,27,,,,,,,,,1.1,0.7,0.9*27
###2023-12-09 13:19:05.002454$GBGSA,A,3,14,24,25,26,33,35,,,,,,,1.1,0.7,0.9*28
###2023-12-09 13:19:05.005276$GPGSV,2,1,07,03,31,253,43,04,40,310,44,16,58,216,45,26,88,205,48*7C
###2023-12-09 13:19:05.007746$GPGSV,2,2,07,28,43,078,44,29,23,053,39,31,64,053,46,,,,*4E
###2023-12-09 13:19:05.010550$GLGSV,2,1,06,65,32,324,41,71,31,174,44,72,69,237,46,73,28,047,41*62
###2023-12-09 13:19:05.012562$GLGSV,2,2,06,74,65,,41,75,38,262,47,,,,,,,,*5A
###2023-12-09 13:19:05.015382$GAGSV,1,1,04,04,35,311,43,19,78,188,40,21,82,058,46,27,27,049,38*68
###2023-12-09 13:19:05.018234$GBGSV,2,1,06,14,35,191,43,24,68,038,47,25,46,269,47,26,20,067,42*69
###2023-12-09 13:19:05.020358$GBGSV,2,2,06,33,51,223,47,35,16,062,42,,,,,,,,*6A
###2023-12-09 13:19:05.021947$GNVTG,354.61,T,,M,3.54,N,6.55,K,A*22
###2023-12-09 13:19:05.023947$GNGST,181904.10,18.000,,,,0.100,0.071,0.170*5B
###2023-12-09 13:19:05.025507$GNZDA,181904.10,09,12,2023,00,00*75
###2023-12-09 13:19:05.026275$GNEBP,,,,,,M*13
###2023-12-09 13:19:05.184411$GNGGA,181904.30,4138.0612554,N,07032.3101106,W,1,24,0.7,13.251,M,-29.743,M,0.0,*56
###2023-12-09 13:19:05.383715$GNGGA,181904.50,4138.0614538,N,07032.3101139,W,1,24,0.7,13.250,M,-29.743,M,0.0,*51
###2023-12-09 13:19:05.584265$GNGGA,181904.70,4138.0616544,N,07032.3101253,W,1,24,0.7,13.244,M,-29.743,M,0.0,*50
###2023-12-09 13:19:05.784058$GNGGA,181904.90,4138.0618564,N,07032.3101264,W,1,24,0.7,13.243,M,-29.743,M,0.0,*51
###2023-12-09 13:19:05.985549$GNRMC,181905.10,A,4138.0620577,N,07032.3101118,W,3.65,3.52,091223,,,A*5A
###2023-12-09 13:19:05.988440$GNGGA,181905.10,4138.0620577,N,07032.3101118,W,1,24,0.7,13.245,M,-29.743,M,0.0,*5F
###2023-12-09 13:19:05.990234$GPGSA,A,3,03,04,16,26,28,29,31,,,,,,1.1,0.7,0.9*3B
###2023-12-09 13:19:05.991959$GLGSA,A,3,65,71,72,73,74,75,,,,,,,1.1,0.7,0.9*25
###2023-12-09 13:19:05.993546$GAGSA,A,3,04,19,21,27,,,,,,,,,1.1,0.7,0.9*27
###2023-12-09 13:19:05.995276$GBGSA,A,3,14,24,25,26,33,35,,,,,,,1.1,0.7,0.9*28
###2023-12-09 13:19:05.997982$GPGSV,2,1,07,03,31,253,43,04,40,310,44,16,58,216,46,26,88,205,48*7F
###2023-12-09 13:19:06.000062$GPGSV,2,2,07,28,43,078,44,29,23,053,40,31,64,053,46,,,,*40
###2023-12-09 13:19:06.002399$GLGSV,2,1,06,65,32,324,41,71,31,174,45,72,69,237,46,73,28,047,41*63
###2023-12-09 13:19:06.004111$GLGSV,2,2,06,74,65,,41,75,38,262,46,,,,,,,,*5B
###2023-12-09 13:19:06.006452$GAGSV,1,1,04,04,35,311,43,19,78,188,40,21,82,058,46,27,27,049,39*69
###2023-12-09 13:19:06.008814$GBGSV,2,1,06,14,35,191,45,24,68,038,49,25,46,269,48,26,20,067,44*68
###2023-12-09 13:19:06.010585$GBGSV,2,2,06,33,51,223,48,35,16,062,43,,,,,,,,*64
###2023-12-09 13:19:06.011851$GNVTG,3.52,T,,M,3.65,N,6.77,K,A*21
###2023-12-09 13:19:06.013501$GNGST,181905.10,18.000,,,,0.100,0.071,0.170*5A
