###2023-12-09 13:21:53.007318$GLGSV,2,1,06,65,33,323,42,71,30,174,44,72,69,234,47,73,27,048,39*6B
###2023-12-09 13:21:53.009089$GLGSV,2,2,06,74,64,002,41,75,39,263,47,,,,,,,,*69
###2023-12-09 13:21:53.011435$GAGSV,1,1,04,04,36,311,45,19,77,186,41,21,81,055,46,27,27,049,39*62
###2023-12-09 13:21:53.013813$GBGSV,2,1,06,14,35,191,45,24,67,039,48,25,47,270,48,26,20,067,43*69
###2023-12-09 13:21:53.015580$GBGSV,2,2,06,33,51,222,49,35,16,062,42,,,,,,,,*65
###2023-12-09 13:21:53.016876$GNVTG,14.80,T,,M,3.56,N,6.59,K,A*14
###2023-12-09 13:21:53.018519$GNGST,182152.10,18.000,,,,0.100,0.071,0.170*53
###2023-12-09 13:21:53.019815$GNZDA,182152.10,09,12,2023,00,00*7D
###2023-12-09 13:21:53.020455$GNEBP,,,,,,M*13
###2023-12-09 13:21:53.186002$GNGGA,182152.30,4138.0645059,N,07032.3425065,W,1,24,0.7,13.066,M,-29.743,M,0.0,*55
###2023-12-09 13:21:53.385708$GNGGA,182152.50,4138.0647010,N,07032.3424407,W,1,24,0.7,13.057,M,-29.743,M,0.0,*5F
###2023-12-09 13:21:53.586785$GNGGA,182152.70,4138.0648911,N,07032.3423983,W,1,24,0.7,13.033,M,-29.743,M,0.0,*5E
###2023-12-09 13:21:53.784484$GNGGA,182152.90,4138.0650778,N,07032.3423806,W,1,24,0.7,13.024,M,-29.743,M,0.0,*52
###2023-12-09 13:21:53.989095$GNRMC,182153.10,A,4138.0652646,N,07032.3423572,W,3.38,6.98,091223,,,A*50
###2023-12-09 13:21:53.991971$GNGGA,182153.10,4138.0652646,N,07032.3423572,W,1,24,0.7,13.019,M,-29.743,M,0.0,*55
###2023-12-09 13:21:53.993757$GPGSA,A,3,03,04,16,26,28,29,31,,,,,,1.1,0.7,0.9*3B
###2023-12-09 13:21:53.995475$GLGSA,A,3,65,71,72,73,74,75,,,,,,,1.1,0.7,0.9*25
###2023-12-09 13:21:53.997050$GAGSA,A,3,04,19,21,27,,,,,,,,,1.1,0.7,0.9*27
###2023-12-09 13:21:53.998761$GBGSA,A,3,14,24,25,26,33,35,,,,,,,1.1,0.7,0.9*28
###2023-12-09 13:21:54.001075$GPGSV,2,1,07,03,30,252,44,04,41,310,44,16,60,218,47,26,90,099,48*73
###2023-12-09 13:21:54.003117$GPGSV,2,2,07,28,42,080,43,29,23,052,39,31,63,057,45,,,,*4E
###2023-12-09 13:21:54.005436$GLGSV,2,1,06,65,33,323,42,71,30,174,45,72,69,234,46,73,27,048,40*65
###2023-12-09 13:21:54.007191$GLGSV,2,2,06,74,64,002,41,75,39,263,47,,,,,,,,*69
###2023-12-09 13:21:54.009508$GAGSV,1,1,04,04,36,311,44,19,77,186,41,21,81,055,46,27,27,049,39*63
###2023-12-09 13:21:54.011829$GBGSV,2,1,06,14,35,191,44,24,67,039,48,25,47,270,48,26,20,067,41*6A
###2023-12-09 13:21:54.013567$GBGSV,2,2,06,33,51,222,48,35,16,062,41,,,,,,,,*67
###2023-12-09 13:21:54.014825$GNVTG,6.98,T,,M,3.38,N,6.26,K,A*2E
###2023-12-09 13:21:54.016470$GNGST,182153.10,18.000,,,,0.100,0.071,0.170*52
###2023-12-09 13:21:54.017755$GNZDA,182153.10,09,12,2023,00,00*7C
###2023-12-09 13:21:54.018391$GNEBP,,,,,,M*13
###2023-12-09 13:21:54.185147$GNGGA,182153.30,4138.0654503,N,07032.3423260,W,1,24,0.7,13.012,M,-29.743,M,0.0,*5C
###2023-12-09 13:21:54.384697$GNGGA,182153.50,4138.0656351,N,07032.3423252,W,1,24,0.7,13.010,M,-29.743,M,0.0,*5A
###2023-12-09 13:21:54.584954$GNGGA,182153.70,4138.0658182,N,07032.3423551,W,1,24,0.7,13.015,M,-29.743,M,0.0,*5B
###2023-12-09 13:21:54.784639$GNGGA,182153.90,4138.0660042,N,07032.3423929,W,1,24,0.7,13.013,M,-29.743,M,0.0,*56
###2023-12-09 13:21:54.989125$GNRMC,182154.10,A,4138.0661917,N,07032.3424346,W,3.48,350.29,091223,,,A*57
###2023-12-09 13:21:54.991983$GNGGA,182154.10,4138.0661917,N,07032.3424346,W,1,24,0.7,13.013,M,-29.743,M,0.0,*55
###2023-12-09 13:21:54.993775$GPGSA,A,3,03,04,16,26,28,29,31,,,,,,1.1,0.7,0.9*3B
###2023-12-09 13:21:54.995514$GLGSA,A,3,65,71,72,73,74,75,,,,,,,1.1,0.7,0.9*25
###2023-12-09 13:21:54.997107$GAGSA,A,3,04,19,21,27,,,,,,,,,1.1,0.7,0.9*27
###2023-12-09 13:21:54.998834$GBGSA,A,3,14,24,25,26,33,35,,,,,,,1.1,0.7,0.9*28
###2023-12-09 13:21:55.001164$GPGSV,2,1,07,03,30,252,44,04,41,310,43,16,60,218,47,26,90,099,48*74
###2023-12-09 13:21:55.003217$GPGSV,2,2,07,28,42,080,44,29,23,052,41,31,63,057,46,,,,*45
###2023-12-09 13:21:55.005549$GLGSV,2,1,06,65,33,323,39,71,30,174,45,72,69,234,47,73,27,048,42*6A
###2023-12-09 13:21:55.007310$GLGSV,2,2,06,74,64,002,41,75,39,263,46,,,,,,,,*68
###2023-12-09 13:21:55.009639$GAGSV,1,1,04,04,36,311,42,19,77,186,41,21,81,055,46,27,27,049,39*65
###2023-12-09 13:21:55.011980$GBGSV,2,1,06,14,35,191,41,24,67,039,47,25,47,270,46,26,20,067,41*6E
###2023-12-09 13:21:55.013730$GBGSV,2,2,06,33,51,222,48,35,16,062,40,,,,,,,,*66
###2023-12-09 13:21:55.015064$GNVTG,350.29,T,,M,3.48,N,6.44,K,A*27
###2023-12-09 13:21:55.016719$GNGST,182154.10,18.000,,,,0.100,0.071,0.170*55
###2023-12-09 13:21:55.018011$GNZDA,182154.10,09,12,2023,00,00*7B
###2023-12-09 13:21:55.018659$GNEBP,,,,,,M*13
###2023-12-09 13:21:55.184083$GNGGA,182154.30,4138.0663812,N,07032.3424877,W,1,24,0.7,13.013,M,-29.743,M,0.0,*58
###2023-12-09 13:21:55.384722$GNGGA,182154.50,4138.0665654,N,07032.3425687,W,1,24,0.7,13.019,M,-29.743,M,0.0,*5E
###2023-12-09 13:21:55.583319$GNGGA,182154.70,4138.0667467,N,07032.3426633,W,1,24,0.7,13.024,M,-29.743,M,0.0,*5E
###2023-12-09 13:21:55.786808$GNGGA,182154.90,4138.0669263,N,07032.3427685,W,1,24,0.7,13.020,M,-29.743,M,0.0,*54
###2023-12-09 13:21:55.990715$GNRMC,182155.10,A,4138.0671057,N,07032.3428805,W,3.60,334.15,091223,,,A*5D
###2023-12-09 13:21:55.993573$GNGGA,182155.10,4138.0671057,N,07032.3428805,W,1,24,0.7,13.017,M,-29.743,M,0.0,*5C
###2023-12-09 13:21:55.995383$GPGSA,A,3,03,04,16,26,28,29,31,,,,,,1.1,0.7,0.9*3B
###2023-12-09 13:21:55.997107$GLGSA,A,3,65,71,72,73,74,75,,,,,,,1.1,0.7,0.9*25
###2023-12-09 13:21:55.998701$GAGSA,A,3,04,19,21,27,,,,,,,,,1.1,0.7,0.9*27
###2023-12-09 13:21:56.000412$GBGSA,A,3,14,24,25,26,33,35,,,,,,,1.1,0.7,0.9*28
###2023-12-09 13:21:56.002745$GPGSV,2,1,07,03,30,252,43,04,41,310,43,16,60,218,45,26,90,099,47*7E
###2023-12-09 13:21:56.004784$GPGSV,2,2,07,28,42,080,45,29,23,052,43,31,63,057,46,,,,*46
###2023-12-09 13:21:56.007120$GLGSV,2,1,06,65,33,323,39,71,30,174,46,72,69,234,46,73,27,048,44*6E
###2023-12-09 13:21:56.008873$GLGSV,2,2,06,74,64,002,41,75,39,263,45,,,,,,,,*6B
###2023-12-09 13:21:56.011214$GAGSV,1,1,04,04,36,311,40,19,77,186,40,21,81,055,46,27,27,049,42*6A
###2023-12-09 13:21:56.013554$GBGSV,2,1,06,14,35,191,41,24,67,039,49,25,47,270,47,26,20,067,43*63
###2023-12-09 13:21:56.015317$GBGSV,2,2,06,33,51,222,47,35,16,062,44,,,,,,,,*6D
###2023-12-09 13:21:56.016644$GNVTG,334.15,T,,M,3.60,N,6.66,K,A*20
###2023-12-09 13:21:56.018290$GNGST,182155.10,18.000,,,,0.100,0.071,0.170*54
###2023-12-09 13:21:56.019592$GNZDA,182155.10,09,12,2023,00,00*7A
###2023-12-09 13:21:56.020233$GNEBP,,,,,,M*13
###2023-12-09 13:21:56.185837$GNGGA,182155.30,4138.0672859,N,07032.3429951,W,1,24,0.7,13.025,M,-29.743,M,0.0,*5B
###2023-12-09 13:21:56.385335$GNGGA,182155.50,4138.0674669,N,07032.3431121,W,1,24,0.7,13.029,M,-29.743,M,0.0,*5C
###2023-12-09 13:21:56.588200$GNGGA,182155.70,4138.0676520,N,07032.3432308,W,1,24,0.7,13.026,M,-29.743,M,0.0,*57
###2023-12-09 13:21:56.786284$GNGGA,182155.90,4138.0678404,N,07032.3433397,W,1,24,0.7,13.028,M,-29.743,M,0.0,*59
###2023-12-09 13:21:56.999310$GNRMC,182156.10,A,4138.0680348,N,07032.3434483,W,3.79,337.97,091223,,,A*53
###2023-12-09 13:21:57.002788$GNGGA,182156.10,4138.0680348,N,07032.3434483,W,1,24,0.7,13.026,M,-29.743,M,0.0,*51
###2023-12-09 13:21:57.004950$GPGSA,A,3,03,04,16,26,28,29,31,,,,,,1.1,0.7,0.9*3B
###2023-12-09 13:21:57.007023$GLGSA,A,3,65,71,72,73,74,75,,,,,,,1.1,0.7,0.9*25
###2023-12-09 13:21:57.008934$GAGSA,A,3,04,19,21,27,,,,,,,,,1.1,0.7,0.9*27
###2023-12-09 13:21:57.011001$GBGSA,A,3,14,24,25,26,33,35,,,,,,,1.1,0.7,0.9*28
###2023-12-09 13:21:57.013836$GPGSV,2,1,07,03,30,252,43,04,41,310,44,16,60,218,47,26,90,099,48*74
###2023-12-09 13:21:57.016302$GPGSV,2,2,07,28,42,080,44,29,23,052,42,31,63,057,47,,,,*47
###2023-12-09 13:21:57.019118$GLGSV,2,1,06,65,33,323,39,71,30,174,46,72,69,234,46,73,27,048,42*68
###2023-12-09 13:21:57.021224$GLGSV,2,2,06,74,64,002,41,75,39,263,47,,,,,,,,*69
###2023-12-09 13:21:57.024028$GAGSV,1,1,04,04,36,311,42,19,77,186,40,21,81,055,46,27,27,049,40*6A
###2023-12-09 13:21:57.026865$GBGSV,2,1,06,14,35,191,43,24,67,039,48,25,47,270,47,26,20,067,43*60
###2023-12-09 13:21:57.028971$GBGSV,2,2,06,33,51,222,48,35,16,062,41,,,,,,,,*67
###2023-12-09 13:21:57.030558$GNVTG,337.97,T,,M,3.79,N,7.02,K,A*22
###2023-12-09 13:21:57.032550$GNGST,182156.10,18.000,,,,0.100,0.071,0.170*57
###2023-12-09 13:21:57.034396$GNZDA,182156.10,09,12,2023,00,00*79
###2023-12-09 13:21:57.035201$GNEBP,,,,,,M*13
###2023-12-09 13:21:57.187732$GNGGA,182156.30,4138.0682327,N,07032.3435436,W,1,24,0.7,13.031,M,-29.743,M,0.0,*51
###2023-12-09 13:21:57.382888$GNGGA,182156.50,4138.0684342,N,07032.3436008,W,1,24,0.7,13.025,M,-29.743,M,0.0,*5D
###2023-12-09 13:21:57.583426$GNGGA,182156.70,4138.0686328,N,07032.3436298,W,1,24,0.7,13.023,M,-29.743,M,0.0,*5C
###2023-12-09 13:21:57.785043$GNGGA,182156.90,4138.0688289,N,07032.3436563,W,1,24,0.7,13.036,M,-29.743,M,0.0,*51
###2023-12-09 13:21:57.988972$GNRMC,182157.10,A,4138.0690264,N,07032.3436791,W,3.54,357.68,091223,,,A*57
###2023-12-09 13:21:57.992437$GNGGA,182157.10,4138.0690264,N,07032.3436791,W,1,24,0.7,13.033,M,-29.743,M,0.0,*58
###2023-12-09 13:21:57.994606$GPGSA,A,3,03,04,16,26,28,29,31,,,,,,1.1,0.7,0.9*3B
