###2023-12-09 13:45:15.018522$GLGSV,2,1,05,65,42,313,45,73,18,056,42,74,56,022,37,75,47,279,46*65
###2023-12-09 13:45:15.020040$GLGSV,2,2,05,83,16,042,37,,,,,,,,,,,,*5E
###2023-12-09 13:45:15.021790$GAGSV,1,1,02,04,43,308,43,27,19,051,39,,,,,,,,*66
###2023-12-09 13:45:15.024140$GBGSV,2,1,05,12,19,123,42,14,24,189,35,24,59,051,48,25,54,281,42*6C
###2023-12-09 13:45:15.025599$GBGSV,2,2,05,35,16,052,36,,,,,,,,,,,,*5D
###2023-12-09 13:45:15.026938$GNVTG,243.17,T,,M,0.04,N,0.07,K,A*23
###2023-12-09 13:45:15.028557$GNGST,184514.10,7.400,,,,0.190,0.110,0.300*63
###2023-12-09 13:45:15.029849$GNZDA,184514.10,09,12,2023,00,00*7D
###2023-12-09 13:45:15.030487$GNEBP,,,,,,M*13
###2023-12-09 13:45:15.206782$GNGGA,184514.30,4138.0392945,N,07032.4388716,W,1,17,0.8,14.200,M,-29.746,M,0.0,*55
###2023-12-09 13:45:15.400501$GNGGA,184514.50,4138.0392961,N,07032.4388716,W,1,18,0.8,14.196,M,-29.746,M,0.0,*56
###2023-12-09 13:45:15.598874$GNGGA,184514.70,4138.0392963,N,07032.4388706,W,1,17,0.8,14.196,M,-29.746,M,0.0,*58
###2023-12-09 13:45:15.800386$GNGGA,184514.90,4138.0392970,N,07032.4388699,W,1,17,0.8,14.199,M,-29.746,M,0.0,*5C
###2023-12-09 13:45:15.999889$GNRMC,184515.10,A,4138.0392983,N,07032.4388685,W,0.04,243.17,091223,,,A*5D
###2023-12-09 13:45:16.002750$GNGGA,184515.10,4138.0392983,N,07032.4388685,W,1,18,0.8,14.203,M,-29.746,M,0.0,*5B
###2023-12-09 13:45:16.004474$GPGSA,A,3,04,16,26,28,29,31,,,,,,,1.3,0.8,1.1*3C
###2023-12-09 13:45:16.006114$GLGSA,A,3,65,73,74,75,83,,,,,,,,1.3,0.8,1.1*29
###2023-12-09 13:45:16.007572$GAGSA,A,3,04,27,,,,,,,,,,,1.3,0.8,1.1*28
###2023-12-09 13:45:16.009213$GBGSA,A,3,12,14,24,25,35,,,,,,,,1.3,0.8,1.1*2B
###2023-12-09 13:45:16.011545$GPGSV,2,1,06,04,51,304,47,16,71,227,43,26,79,041,40,28,34,089,44*7E
###2023-12-09 13:45:16.013289$GPGSV,2,2,06,29,18,043,44,31,56,072,49,,,,,,,,*73
###2023-12-09 13:45:16.015625$GLGSV,2,1,05,65,42,313,45,73,18,056,43,74,56,022,36,75,47,279,46*65
###2023-12-09 13:45:16.017076$GLGSV,2,2,05,83,16,042,38,,,,,,,,,,,,*51
###2023-12-09 13:45:16.018850$GAGSV,1,1,02,04,43,308,44,27,19,051,40,,,,,,,,*6F
###2023-12-09 13:45:16.021178$GBGSV,2,1,05,12,19,123,42,14,24,189,35,24,59,051,47,25,54,281,41*60
###2023-12-09 13:45:16.022651$GBGSV,2,2,05,35,16,052,36,,,,,,,,,,,,*5D
###2023-12-09 13:45:16.023978$GNVTG,243.17,T,,M,0.04,N,0.07,K,A*23
###2023-12-09 13:45:16.025587$GNGST,184515.10,7.600,,,,0.190,0.110,0.300*60
###2023-12-09 13:45:16.026892$GNZDA,184515.10,09,12,2023,00,00*7C
###2023-12-09 13:45:16.027535$GNEBP,,,,,,M*13
###2023-12-09 13:45:16.200510$GNGGA,184515.30,4138.0392996,N,07032.4388681,W,1,17,0.8,14.205,M,-29.746,M,0.0,*50
###2023-12-09 13:45:16.400520$GNGGA,184515.50,4138.0393016,N,07032.4388673,W,1,18,0.8,14.206,M,-29.746,M,0.0,*57
###2023-12-09 13:45:16.598808$GNGGA,184515.70,4138.0393036,N,07032.4388670,W,1,18,0.8,14.205,M,-29.746,M,0.0,*57
###2023-12-09 13:45:16.799284$GNGGA,184515.90,4138.0393048,N,07032.4388669,W,1,18,0.8,14.206,M,-29.746,M,0.0,*5B
###2023-12-09 13:45:17.003282$GNRMC,184516.10,A,4138.0393074,N,07032.4388656,W,0.06,243.17,091223,,,A*52
###2023-12-09 13:45:17.006237$GNGGA,184516.10,4138.0393074,N,07032.4388656,W,1,18,0.8,14.211,M,-29.746,M,0.0,*55
###2023-12-09 13:45:17.007975$GPGSA,A,3,04,16,26,28,29,31,,,,,,,1.3,0.8,1.1*3C
###2023-12-09 13:45:17.009625$GLGSA,A,3,65,73,74,75,83,,,,,,,,1.3,0.8,1.1*29
###2023-12-09 13:45:17.011158$GAGSA,A,3,04,21,27,,,,,,,,,,1.3,0.8,1.1*2B
###2023-12-09 13:45:17.012744$GBGSA,A,3,12,24,25,35,,,,,,,,,1.3,0.8,1.1*2E
###2023-12-09 13:45:17.015083$GPGSV,2,1,06,04,51,304,46,16,72,228,43,26,79,041,42,28,34,089,45*70
###2023-12-09 13:45:17.016835$GPGSV,2,2,06,29,18,043,43,31,56,072,49,,,,,,,,*74
###2023-12-09 13:45:17.019170$GLGSV,2,1,05,65,42,313,46,73,18,056,43,74,56,022,37,75,47,279,46*67
###2023-12-09 13:45:17.020624$GLGSV,2,2,05,83,16,042,38,,,,,,,,,,,,*51
###2023-12-09 13:45:17.022666$GAGSV,1,1,03,04,43,308,44,21,73,044,35,27,19,051,40,,,,*5F
###2023-12-09 13:45:17.025000$GBGSV,1,1,04,12,19,123,42,24,59,051,47,25,54,281,41,35,16,052,37*65
###2023-12-09 13:45:17.026332$GNVTG,243.17,T,,M,0.06,N,0.11,K,A*26
###2023-12-09 13:45:17.027968$GNGST,184516.10,7.500,,,,0.190,0.110,0.300*60
###2023-12-09 13:45:17.029278$GNZDA,184516.10,09,12,2023,00,00*7F
###2023-12-09 13:45:17.029921$GNEBP,,,,,,M*13
###2023-12-09 13:45:17.201441$GNGGA,184516.30,4138.0393091,N,07032.4388646,W,1,18,0.8,14.212,M,-29.746,M,0.0,*5E
###2023-12-09 13:45:17.403570$GNGGA,184516.50,4138.0393093,N,07032.4388646,W,1,18,0.8,14.213,M,-29.746,M,0.0,*5B
###2023-12-09 13:45:17.600688$GNGGA,184516.70,4138.0393107,N,07032.4388638,W,1,18,0.8,14.216,M,-29.746,M,0.0,*59
###2023-12-09 13:45:17.800109$GNGGA,184516.90,4138.0393110,N,07032.4388630,W,1,18,0.8,14.216,M,-29.746,M,0.0,*59
###2023-12-09 13:45:18.003960$GNRMC,184517.10,A,4138.0393122,N,07032.4388630,W,0.04,243.17,091223,,,A*53
###2023-12-09 13:45:18.006837$GNGGA,184517.10,4138.0393122,N,07032.4388630,W,1,18,0.8,14.218,M,-29.746,M,0.0,*5F
###2023-12-09 13:45:18.008561$GPGSA,A,3,04,16,26,28,29,31,,,,,,,1.3,0.8,1.1*3C
###2023-12-09 13:45:18.010207$GLGSA,A,3,65,73,74,75,83,,,,,,,,1.3,0.8,1.1*29
###2023-12-09 13:45:18.011738$GAGSA,A,3,04,21,27,,,,,,,,,,1.3,0.8,1.1*2B
###2023-12-09 13:45:18.013321$GBGSA,A,3,12,24,25,35,,,,,,,,,1.3,0.8,1.1*2E
###2023-12-09 13:45:18.015653$GPGSV,2,1,06,04,51,304,46,16,72,228,44,26,79,041,41,28,34,089,44*75
###2023-12-09 13:45:18.017397$GPGSV,2,2,06,29,18,043,44,31,56,072,49,,,,,,,,*73
###2023-12-09 13:45:18.019737$GLGSV,2,1,05,65,42,313,46,73,18,056,43,74,56,022,37,75,47,279,46*67
###2023-12-09 13:45:18.021186$GLGSV,2,2,05,83,16,042,38,,,,,,,,,,,,*51
###2023-12-09 13:45:18.023230$GAGSV,1,1,03,04,43,308,44,21,73,044,35,27,19,051,41,,,,*5E
###2023-12-09 13:45:18.025556$GBGSV,1,1,04,12,19,123,42,24,59,051,47,25,54,281,41,35,16,052,36*64
###2023-12-09 13:45:18.026896$GNVTG,243.17,T,,M,0.04,N,0.07,K,A*23
###2023-12-09 13:45:18.028511$GNGST,184517.10,7.300,,,,0.190,0.110,0.300*67
###2023-12-09 13:45:18.029803$GNZDA,184517.10,09,12,2023,00,00*7E
###2023-12-09 13:45:18.030451$GNEBP,,,,,,M*13
###2023-12-09 13:45:18.201485$GNGGA,184517.30,4138.0393126,N,07032.4388630,W,1,18,0.8,14.216,M,-29.746,M,0.0,*57
###2023-12-09 13:45:18.400974$GNGGA,184517.50,4138.0393148,N,07032.4388628,W,1,18,0.8,14.220,M,-29.746,M,0.0,*55
###2023-12-09 13:45:18.601529$GNGGA,184517.70,4138.0393170,N,07032.4388625,W,1,18,0.8,14.218,M,-29.746,M,0.0,*5A
###2023-12-09 13:45:18.801928$GNGGA,184517.90,4138.0393185,N,07032.4388622,W,1,18,0.8,14.218,M,-29.746,M,0.0,*59
###2023-12-09 13:45:19.004641$GNRMC,184518.10,A,4138.0393180,N,07032.4388615,W,0.04,243.17,091223,,,A*53
###2023-12-09 13:45:19.007527$GNGGA,184518.10,4138.0393180,N,07032.4388615,W,1,18,0.8,14.221,M,-29.746,M,0.0,*55
###2023-12-09 13:45:19.009260$GPGSA,A,3,04,16,26,28,29,31,,,,,,,1.3,0.8,1.1*3C
###2023-12-09 13:45:19.010929$GLGSA,A,3,65,73,74,75,83,,,,,,,,1.3,0.8,1.1*29
###2023-12-09 13:45:19.012456$GAGSA,A,3,04,21,27,,,,,,,,,,1.3,0.8,1.1*2B
###2023-12-09 13:45:19.014043$GBGSA,A,3,12,24,25,35,,,,,,,,,1.3,0.8,1.1*2E
###2023-12-09 13:45:19.016394$GPGSV,2,1,06,04,51,304,46,16,72,228,44,26,79,041,41,28,34,089,45*74
###2023-12-09 13:45:19.018149$GPGSV,2,2,06,29,18,043,43,31,56,072,49,,,,,,,,*74
###2023-12-09 13:45:19.020497$GLGSV,2,1,05,65,42,313,46,73,18,056,43,74,56,022,36,75,47,279,46*66
###2023-12-09 13:45:19.021956$GLGSV,2,2,05,83,16,042,38,,,,,,,,,,,,*51
###2023-12-09 13:45:19.024035$GAGSV,1,1,03,04,43,308,44,21,73,044,35,27,19,051,41,,,,*5E
###2023-12-09 13:45:19.026376$GBGSV,1,1,04,12,19,123,42,24,59,051,47,25,54,281,41,35,16,052,37*65
###2023-12-09 13:45:19.027723$GNVTG,243.17,T,,M,0.04,N,0.07,K,A*23
###2023-12-09 13:45:19.029345$GNGST,184518.10,7.400,,,,0.190,0.110,0.300*6F
###2023-12-09 13:45:19.030650$GNZDA,184518.10,09,12,2023,00,00*71
###2023-12-09 13:45:19.031298$GNEBP,,,,,,M*13
###2023-12-09 13:45:19.201383$GNGGA,184518.30,4138.0393180,N,07032.4388601,W,1,18,0.8,14.224,M,-29.746,M,0.0,*57
###2023-12-09 13:45:19.401331$GNGGA,184518.50,4138.0393182,N,07032.4388595,W,1,18,0.8,14.227,M,-29.746,M,0.0,*5E
###2023-12-09 13:45:19.599572$GNGGA,184518.70,4138.0393189,N,07032.4388595,W,1,18,0.8,14.233,M,-29.746,M,0.0,*52
###2023-12-09 13:45:19.799950$GNGGA,184518.90,4138.0393194,N,07032.4388592,W,1,18,0.8,14.238,M,-29.746,M,0.0,*5C
###2023-12-09 13:45:20.006286$GNRMC,184519.10,A,4138.0393183,N,07032.4388583,W,0.06,243.17,091223,,,A*5F
###2023-12-09 13:45:20.009271$GNGGA,184519.10,4138.0393183,N,07032.4388583,W,1,18,0.8,14.242,M,-29.746,M,0.0,*5E
###2023-12-09 13:45:20.011008$GPGSA,A,3,04,16,26,28,29,31,,,,,,,1.3,0.8,1.1*3C
###2023-12-09 13:45:20.012657$GLGSA,A,3,65,73,74,75,83,,,,,,,,1.3,0.8,1.1*29
###2023-12-09 13:45:20.014175$GAGSA,A,3,04,21,27,,,,,,,,,,1.3,0.8,1.1*2B
###2023-12-09 13:45:20.015762$GBGSA,A,3,12,24,25,35,,,,,,,,,1.3,0.8,1.1*2E
