###2023-12-09 12:51:57.962499$GLGSA,A,3,65,71,72,73,74,75,,,,,,,1.1,0.6,0.9*24
###2023-12-09 12:51:57.964134$GAGSA,A,3,04,19,21,27,,,,,,,,,1.1,0.6,0.9*26
###2023-12-09 12:51:57.965798$GBGSA,A,3,14,24,25,26,33,,,,,,,,1.1,0.6,0.9*2F
###2023-12-09 12:51:57.968152$GPGSV,2,1,08,03,37,267,44,04,29,311,45,16,45,210,45,26,75,209,48*7E
###2023-12-09 12:51:57.970498$GPGSV,2,2,08,28,52,066,44,29,26,065,39,31,71,026,47,32,23,138,45*72
###2023-12-09 12:51:57.972920$GLGSV,2,1,06,65,19,329,44,71,47,171,48,72,72,288,46,73,40,038,43*61
###2023-12-09 12:51:57.974702$GLGSV,2,2,06,74,71,321,43,75,28,248,47,,,,,,,,*64
###2023-12-09 12:51:57.977045$GAGSV,1,1,04,04,26,312,42,19,85,258,40,21,83,157,46,27,36,048,42*67
###2023-12-09 12:51:57.979410$GBGSV,2,1,05,14,48,194,44,24,77,014,48,25,37,258,46,26,29,060,43*67
###2023-12-09 12:51:57.980871$GBGSV,2,2,05,33,60,240,47,,,,,,,,,,,,*5D
###2023-12-09 12:51:57.982201$GNVTG,331.21,T,,M,0.08,N,0.14,K,A*2C
###2023-12-09 12:51:57.983869$GNGST,175157.10,18.000,,,,0.076,0.067,0.160*58
###2023-12-09 12:51:57.985173$GNZDA,175157.10,09,12,2023,00,00*70
###2023-12-09 12:51:57.985817$GNEBP,,,,,,M*13
###2023-12-09 12:51:58.153371$GNGGA,175157.30,4138.0605154,N,07032.3834782,W,1,24,0.6,13.204,M,-29.744,M,0.0,*52
###2023-12-09 12:51:58.354847$GNGGA,175157.50,4138.0605428,N,07032.3835031,W,1,24,0.6,13.205,M,-29.744,M,0.0,*55
###2023-12-09 12:51:58.554912$GNGGA,175157.70,4138.0605871,N,07032.3835477,W,1,24,0.6,13.204,M,-29.744,M,0.0,*50
###2023-12-09 12:51:58.753857$GNGGA,175157.90,4138.0606066,N,07032.3835676,W,1,24,0.6,13.211,M,-29.744,M,0.0,*54
###2023-12-09 12:51:58.955702$GNRMC,175158.10,A,4138.0606047,N,07032.3835649,W,0.08,323.23,091223,,,A*51
###2023-12-09 12:51:58.958578$GNGGA,175158.10,4138.0606047,N,07032.3835649,W,1,24,0.6,13.223,M,-29.744,M,0.0,*5D
###2023-12-09 12:51:58.960446$GPGSA,A,3,03,04,16,26,28,29,31,32,,,,,1.1,0.6,0.9*3B
###2023-12-09 12:51:58.962166$GLGSA,A,3,65,71,72,73,74,75,,,,,,,1.1,0.6,0.9*24
###2023-12-09 12:51:58.963769$GAGSA,A,3,04,19,21,27,,,,,,,,,1.1,0.6,0.9*26
###2023-12-09 12:51:58.965417$GBGSA,A,3,14,24,25,26,33,,,,,,,,1.1,0.6,0.9*2F
###2023-12-09 12:51:58.967770$GPGSV,2,1,08,03,37,267,44,04,29,311,43,16,45,210,46,26,75,209,48*7B
###2023-12-09 12:51:58.970114$GPGSV,2,2,08,28,52,066,44,29,26,065,41,31,71,026,47,32,23,138,44*7C
###2023-12-09 12:51:58.972468$GLGSV,2,1,06,65,19,329,44,71,47,171,49,72,72,288,46,73,40,038,44*67
###2023-12-09 12:51:58.974225$GLGSV,2,2,06,74,71,321,43,75,28,248,46,,,,,,,,*65
###2023-12-09 12:51:58.976569$GAGSV,1,1,04,04,26,312,40,19,85,258,40,21,83,157,46,27,36,048,42*65
###2023-12-09 12:51:58.978913$GBGSV,2,1,05,14,48,194,45,24,77,014,47,25,37,258,45,26,29,060,43*6A
###2023-12-09 12:51:58.980373$GBGSV,2,2,05,33,60,240,47,,,,,,,,,,,,*5D
###2023-12-09 12:51:58.981700$GNVTG,323.23,T,,M,0.08,N,0.14,K,A*2D
###2023-12-09 12:51:58.983361$GNGST,175158.10,18.000,,,,0.076,0.067,0.160*57
###2023-12-09 12:51:58.984658$GNZDA,175158.10,09,12,2023,00,00*7F
###2023-12-09 12:51:58.985299$GNEBP,,,,,,M*13
###2023-12-09 12:51:59.152279$GNGGA,175158.30,4138.0606117,N,07032.3835720,W,1,24,0.6,13.217,M,-29.744,M,0.0,*52
###2023-12-09 12:51:59.353059$GNGGA,175158.50,4138.0606440,N,07032.3836038,W,1,24,0.6,13.209,M,-29.744,M,0.0,*51
###2023-12-09 12:51:59.554333$GNGGA,175158.70,4138.0606792,N,07032.3836397,W,1,24,0.6,13.200,M,-29.744,M,0.0,*50
###2023-12-09 12:51:59.755005$GNGGA,175158.90,4138.0606939,N,07032.3836620,W,1,24,0.6,13.221,M,-29.744,M,0.0,*5B
###2023-12-09 12:51:59.954708$GNRMC,175159.10,A,4138.0607016,N,07032.3836690,W,0.19,323.23,091223,,,A*52
###2023-12-09 12:51:59.957607$GNGGA,175159.10,4138.0607016,N,07032.3836690,W,1,24,0.6,13.247,M,-29.744,M,0.0,*5C
###2023-12-09 12:51:59.959493$GPGSA,A,3,03,04,16,26,28,29,31,32,,,,,1.1,0.6,0.9*3B
###2023-12-09 12:51:59.961217$GLGSA,A,3,65,71,72,73,74,75,,,,,,,1.1,0.6,0.9*24
###2023-12-09 12:51:59.962818$GAGSA,A,3,04,19,21,27,,,,,,,,,1.1,0.6,0.9*26
###2023-12-09 12:51:59.964477$GBGSA,A,3,14,24,25,26,33,,,,,,,,1.1,0.6,0.9*2F
###2023-12-09 12:51:59.966830$GPGSV,2,1,08,03,37,267,44,04,29,311,43,16,45,210,46,26,75,209,48*7B
###2023-12-09 12:51:59.969182$GPGSV,2,2,08,28,52,066,44,29,26,065,39,31,71,026,47,32,23,138,44*73
###2023-12-09 12:51:59.971542$GLGSV,2,1,06,65,19,329,44,71,47,171,48,72,72,288,46,73,40,038,43*61
###2023-12-09 12:51:59.973303$GLGSV,2,2,06,74,71,321,43,75,28,248,46,,,,,,,,*65
###2023-12-09 12:51:59.975652$GAGSV,1,1,04,04,26,312,42,19,85,258,40,21,83,157,46,27,36,048,42*67
###2023-12-09 12:51:59.977990$GBGSV,2,1,05,14,48,194,44,24,77,014,48,25,37,258,45,26,29,060,42*65
###2023-12-09 12:51:59.979463$GBGSV,2,2,05,33,60,240,47,,,,,,,,,,,,*5D
###2023-12-09 12:51:59.980796$GNVTG,323.23,T,,M,0.19,N,0.36,K,A*2D
###2023-12-09 12:51:59.982456$GNGST,175159.10,18.000,,,,0.076,0.067,0.160*56
###2023-12-09 12:51:59.983767$GNZDA,175159.10,09,12,2023,00,00*7E
###2023-12-09 12:51:59.984409$GNEBP,,,,,,M*13
###2023-12-09 12:52:00.153122$GNGGA,175159.30,4138.0607157,N,07032.3836764,W,1,24,0.6,13.243,M,-29.744,M,0.0,*54
###2023-12-09 12:52:00.355296$GNGGA,175159.50,4138.0607350,N,07032.3836966,W,1,24,0.6,13.224,M,-29.744,M,0.0,*5A
###2023-12-09 12:52:00.554856$GNGGA,175159.70,4138.0607619,N,07032.3837293,W,1,24,0.6,13.216,M,-29.744,M,0.0,*51
###2023-12-09 12:52:00.753850$GNGGA,175159.90,4138.0607870,N,07032.3837606,W,1,24,0.6,13.232,M,-29.744,M,0.0,*50
###2023-12-09 12:52:00.953763$GNRMC,175200.10,A,4138.0608018,N,07032.3837728,W,0.14,323.23,091223,,,A*52
###2023-12-09 12:52:00.956644$GNGGA,175200.10,4138.0608018,N,07032.3837728,W,1,24,0.6,13.260,M,-29.744,M,0.0,*54
###2023-12-09 12:52:00.958506$GPGSA,A,3,03,04,16,26,28,29,31,32,,,,,1.1,0.6,0.9*3B
###2023-12-09 12:52:00.960241$GLGSA,A,3,65,71,72,73,74,75,,,,,,,1.1,0.6,0.9*24
###2023-12-09 12:52:00.961840$GAGSA,A,3,04,19,21,27,,,,,,,,,1.1,0.6,0.9*26
###2023-12-09 12:52:00.963518$GBGSA,A,3,14,24,25,26,33,,,,,,,,1.1,0.6,0.9*2F
###2023-12-09 12:52:00.965900$GPGSV,2,1,08,03,37,267,46,04,29,311,45,16,45,210,44,26,75,209,48*7D
###2023-12-09 12:52:00.968266$GPGSV,2,2,08,28,52,066,43,29,26,065,39,31,71,026,47,32,23,138,42*72
###2023-12-09 12:52:00.970624$GLGSV,2,1,06,65,19,329,45,71,47,171,47,72,72,288,46,73,40,038,43*6F
###2023-12-09 12:52:00.972381$GLGSV,2,2,06,74,71,321,43,75,28,248,46,,,,,,,,*65
###2023-12-09 12:52:00.974731$GAGSV,1,1,04,04,26,312,42,19,85,258,40,21,83,157,46,27,36,048,42*67
###2023-12-09 12:52:00.977075$GBGSV,2,1,05,14,48,194,45,24,77,014,48,25,37,258,45,26,29,060,41*67
###2023-12-09 12:52:00.978535$GBGSV,2,2,05,33,60,240,48,,,,,,,,,,,,*52
###2023-12-09 12:52:00.979868$GNVTG,323.23,T,,M,0.14,N,0.25,K,A*22
###2023-12-09 12:52:00.981524$GNGST,175200.10,18.000,,,,0.076,0.067,0.160*59
###2023-12-09 12:52:00.982829$GNZDA,175200.10,09,12,2023,00,00*71
###2023-12-09 12:52:00.983468$GNEBP,,,,,,M*13
###2023-12-09 12:52:01.156653$GNGGA,175200.30,4138.0608055,N,07032.3837754,W,1,24,0.6,13.264,M,-29.744,M,0.0,*50
###2023-12-09 12:52:01.353698$GNGGA,175200.50,4138.0608118,N,07032.3837843,W,1,24,0.6,13.237,M,-29.744,M,0.0,*51
###2023-12-09 12:52:01.554210$GNGGA,175200.70,4138.0608415,N,07032.3838169,W,1,24,0.6,13.229,M,-29.744,M,0.0,*5A
###2023-12-09 12:52:01.753127$GNGGA,175200.90,4138.0608769,N,07032.3838555,W,1,24,0.6,13.234,M,-29.744,M,0.0,*5B
###2023-12-09 12:52:01.954466$GNRMC,175201.10,A,4138.0608894,N,07032.3838704,W,0.04,323.23,091223,,,A*5F
###2023-12-09 12:52:01.957357$GNGGA,175201.10,4138.0608894,N,07032.3838704,W,1,24,0.6,13.263,M,-29.744,M,0.0,*5B
###2023-12-09 12:52:01.959242$GPGSA,A,3,03,04,16,26,28,29,31,32,,,,,1.1,0.6,0.9*3B
###2023-12-09 12:52:01.960957$GLGSA,A,3,65,71,72,73,74,75,,,,,,,1.1,0.6,0.9*24
###2023-12-09 12:52:01.962542$GAGSA,A,3,04,19,21,27,,,,,,,,,1.1,0.6,0.9*26
###2023-12-09 12:52:01.964207$GBGSA,A,3,14,24,25,26,33,,,,,,,,1.1,0.6,0.9*2F
###2023-12-09 12:52:01.966551$GPGSV,2,1,08,03,37,267,45,04,29,311,44,16,45,210,44,26,75,209,48*7F
###2023-12-09 12:52:01.968914$GPGSV,2,2,08,28,52,066,43,29,26,065,39,31,71,026,46,32,23,138,41*70
###2023-12-09 12:52:01.971274$GLGSV,2,1,06,65,19,329,45,71,47,171,46,72,72,288,46,73,40,038,42*6F
###2023-12-09 12:52:01.973034$GLGSV,2,2,06,74,71,321,43,75,28,248,45,,,,,,,,*66
###2023-12-09 12:52:01.975645$GAGSV,1,1,04,04,26,312,44,19,85,258,40,21,83,157,46,27,36,048,42*61
###2023-12-09 12:52:01.978003$GBGSV,2,1,05,14,48,194,44,24,77,014,48,25,37,258,46,26,29,060,41*65
###2023-12-09 12:52:01.979477$GBGSV,2,2,05,33,60,240,47,,,,,,,,,,,,*5D
###2023-12-09 12:52:01.980816$GNVTG,323.23,T,,M,0.04,N,0.07,K,A*23
###2023-12-09 12:52:01.982476$GNGST,175201.10,18.000,,,,0.076,0.067,0.160*58
###2023-12-09 12:52:01.983790$GNZDA,175201.10,09,12,2023,00,00*70
###2023-12-09 12:52:01.984436$GNEBP,,,,,,M*13
###2023-12-09 12:52:02.154673$GNGGA,175201.30,4138.0608829,N,07032.3838626,W,1,24,0.6,13.276,M,-29.744,M,0.0,*5A
###2023-12-09 12:52:02.355498$GNGGA,175201.50,4138.0608845,N,07032.3838665,W,1,24,0.6,13.249,M,-29.744,M,0.0,*5D
