###2023-12-09 13:09:06.002107$GNZDA,180905.10,09,12,2023,00,00*75
###2023-12-09 13:09:06.002795$GNEBP,,,,,,M*13
###2023-12-09 13:09:06.170387$GNGGA,180905.30,4138.0882924,N,07032.2498819,W,1,25,0.6,13.174,M,-29.741,M,0.0,*5F
###2023-12-09 13:09:06.371023$GNGGA,180905.50,4138.0884198,N,07032.2499843,W,1,25,0.6,13.176,M,-29.741,M,0.0,*5C
###2023-12-09 13:09:06.570235$GNGGA,180905.70,4138.0885384,N,07032.2500965,W,1,25,0.6,13.180,M,-29.741,M,0.0,*5D
###2023-12-09 13:09:06.772667$GNGGA,180905.90,4138.0886475,N,07032.2502220,W,1,25,0.6,13.177,M,-29.741,M,0.0,*59
###2023-12-09 13:09:06.973186$GNRMC,180906.10,A,4138.0887498,N,07032.2503549,W,2.60,315.07,091223,,,A*5C
###2023-12-09 13:09:06.976064$GNGGA,180906.10,4138.0887498,N,07032.2503549,W,1,25,0.6,13.174,M,-29.741,M,0.0,*5A
###2023-12-09 13:09:06.977930$GPGSA,A,3,03,04,16,26,28,29,31,32,,,,,1.1,0.6,0.9*3B
###2023-12-09 13:09:06.979660$GLGSA,A,3,65,71,72,73,74,75,,,,,,,1.1,0.6,0.9*24
###2023-12-09 13:09:06.981249$GAGSA,A,3,04,19,21,27,,,,,,,,,1.1,0.6,0.9*26
###2023-12-09 13:09:06.982974$GBGSA,A,3,14,24,25,26,33,35,,,,,,,1.1,0.6,0.9*29
###2023-12-09 13:09:06.985312$GPGSV,2,1,08,03,33,257,43,04,36,311,42,16,53,214,46,26,83,210,48*76
###2023-12-09 13:09:06.987662$GPGSV,2,2,08,28,47,073,44,29,25,058,41,31,67,044,46,32,16,141,43*7C
###2023-12-09 13:09:06.990006$GLGSV,2,1,06,65,27,326,40,71,36,173,46,72,72,254,46,73,32,044,45*64
###2023-12-09 13:09:06.991770$GLGSV,2,2,06,74,68,348,41,75,35,257,45,,,,,,,,*61
###2023-12-09 13:09:06.994104$GAGSV,1,1,04,04,31,312,42,19,82,199,41,21,85,085,46,27,31,048,42*66
###2023-12-09 13:09:06.996455$GBGSV,2,1,06,14,40,192,46,24,71,031,50,25,43,265,48,26,24,064,43*6A
###2023-12-09 13:09:06.998205$GBGSV,2,2,06,33,55,228,49,35,15,066,42,,,,,,,,*6C
###2023-12-09 13:09:06.999546$GNVTG,315.07,T,,M,2.60,N,4.82,K,A*29
###2023-12-09 13:09:07.001198$GNGST,180906.10,18.000,,,,0.083,0.066,0.150*56
###2023-12-09 13:09:07.002493$GNZDA,180906.10,09,12,2023,00,00*76
###2023-12-09 13:09:07.003145$GNEBP,,,,,,M*13
###2023-12-09 13:09:07.171497$GNGGA,180906.30,4138.0888531,N,07032.2504888,W,1,25,0.6,13.174,M,-29.741,M,0.0,*52
###2023-12-09 13:09:07.374268$GNGGA,180906.50,4138.0889542,N,07032.2506263,W,1,25,0.6,13.179,M,-29.741,M,0.0,*51
###2023-12-09 13:09:07.571121$GNGGA,180906.70,4138.0890500,N,07032.2507699,W,1,25,0.6,13.180,M,-29.741,M,0.0,*5B
###2023-12-09 13:09:07.771989$GNGGA,180906.90,4138.0891352,N,07032.2509233,W,1,25,0.6,13.181,M,-29.741,M,0.0,*5E
###2023-12-09 13:09:07.974150$GNRMC,180907.10,A,4138.0892134,N,07032.2510832,W,2.53,300.64,091223,,,A*58
###2023-12-09 13:09:07.977038$GNGGA,180907.10,4138.0892134,N,07032.2510832,W,1,25,0.6,13.176,M,-29.741,M,0.0,*5D
###2023-12-09 13:09:07.978904$GPGSA,A,3,03,04,16,26,28,29,31,32,,,,,1.1,0.6,0.9*3B
###2023-12-09 13:09:07.980613$GLGSA,A,3,65,71,72,73,74,75,,,,,,,1.1,0.6,0.9*24
###2023-12-09 13:09:07.982191$GAGSA,A,3,04,19,21,27,,,,,,,,,1.1,0.6,0.9*26
###2023-12-09 13:09:07.983912$GBGSA,A,3,14,24,25,26,33,35,,,,,,,1.1,0.6,0.9*29
###2023-12-09 13:09:07.986228$GPGSV,2,1,08,03,33,257,42,04,36,311,41,16,53,214,45,26,83,210,47*78
###2023-12-09 13:09:07.988561$GPGSV,2,2,08,28,47,073,45,29,25,058,41,31,67,044,47,32,16,141,42*7D
###2023-12-09 13:09:07.990897$GLGSV,2,1,06,65,27,326,38,71,36,173,45,72,72,254,45,73,32,044,45*6B
###2023-12-09 13:09:07.992645$GLGSV,2,2,06,74,68,348,42,75,35,257,45,,,,,,,,*62
###2023-12-09 13:09:07.994974$GAGSV,1,1,04,04,31,312,42,19,82,199,40,21,85,085,46,27,31,048,42*67
###2023-12-09 13:09:07.997294$GBGSV,2,1,06,14,40,192,45,24,71,031,49,25,43,265,46,26,24,064,42*6E
###2023-12-09 13:09:07.999048$GBGSV,2,2,06,33,55,228,47,35,15,066,43,,,,,,,,*63
###2023-12-09 13:09:08.000366$GNVTG,300.64,T,,M,2.53,N,4.68,K,A*2C
###2023-12-09 13:09:08.002002$GNGST,180907.10,18.000,,,,0.083,0.066,0.150*57
###2023-12-09 13:09:08.003296$GNZDA,180907.10,09,12,2023,00,00*77
###2023-12-09 13:09:08.003937$GNEBP,,,,,,M*13
###2023-12-09 13:09:08.170201$GNGGA,180907.30,4138.0892873,N,07032.2512462,W,1,25,0.6,13.171,M,-29.741,M,0.0,*59
###2023-12-09 13:09:08.369872$GNGGA,180907.50,4138.0893663,N,07032.2514097,W,1,25,0.6,13.170,M,-29.741,M,0.0,*58
###2023-12-09 13:09:08.572725$GNGGA,180907.70,4138.0894453,N,07032.2515709,W,1,25,0.6,13.172,M,-29.741,M,0.0,*5F
###2023-12-09 13:09:08.770705$GNGGA,180907.90,4138.0895083,N,07032.2517374,W,1,25,0.6,13.162,M,-29.741,M,0.0,*54
###2023-12-09 13:09:08.978146$GNRMC,180908.10,A,4138.0895598,N,07032.2519105,W,2.59,294.19,091223,,,A*5A
###2023-12-09 13:09:08.981062$GNGGA,180908.10,4138.0895598,N,07032.2519105,W,1,25,0.6,13.143,M,-29.741,M,0.0,*55
###2023-12-09 13:09:08.982934$GPGSA,A,3,03,04,16,26,28,29,31,32,,,,,1.1,0.6,0.9*3B
###2023-12-09 13:09:08.984649$GLGSA,A,3,65,71,72,73,74,75,,,,,,,1.1,0.6,0.9*24
###2023-12-09 13:09:08.986229$GAGSA,A,3,04,19,21,27,,,,,,,,,1.1,0.6,0.9*26
###2023-12-09 13:09:08.987957$GBGSA,A,3,14,24,25,26,33,35,,,,,,,1.1,0.6,0.9*29
###2023-12-09 13:09:08.990288$GPGSV,2,1,08,03,33,257,42,04,36,311,41,16,53,214,46,26,83,210,47*7B
###2023-12-09 13:09:08.992639$GPGSV,2,2,08,28,47,073,45,29,25,058,41,31,67,044,46,32,16,141,43*7D
###2023-12-09 13:09:08.994979$GLGSV,2,1,06,65,27,326,39,71,36,173,45,72,72,254,45,73,32,044,44*6B
###2023-12-09 13:09:08.996727$GLGSV,2,2,06,74,68,348,42,75,35,257,45,,,,,,,,*62
###2023-12-09 13:09:08.999065$GAGSV,1,1,04,04,31,312,41,19,82,199,40,21,85,085,46,27,31,048,42*64
###2023-12-09 13:09:09.001394$GBGSV,2,1,06,14,40,192,45,24,71,031,49,25,43,265,46,26,24,064,42*6E
###2023-12-09 13:09:09.003155$GBGSV,2,2,06,33,55,228,47,35,15,066,42,,,,,,,,*62
###2023-12-09 13:09:09.004477$GNVTG,294.19,T,,M,2.59,N,4.79,K,A*20
###2023-12-09 13:09:09.006124$GNGST,180908.10,18.000,,,,0.083,0.066,0.150*58
###2023-12-09 13:09:09.007426$GNZDA,180908.10,09,12,2023,00,00*78
###2023-12-09 13:09:09.008064$GNEBP,,,,,,M*13
###2023-12-09 13:09:09.177336$GNGGA,180908.30,4138.0896271,N,07032.2520776,W,1,25,0.6,13.144,M,-29.741,M,0.0,*5B
###2023-12-09 13:09:09.371054$GNGGA,180908.50,4138.0897036,N,07032.2522399,W,1,25,0.6,13.149,M,-29.741,M,0.0,*57
###2023-12-09 13:09:09.570262$GNGGA,180908.70,4138.0897774,N,07032.2524055,W,1,25,0.6,13.150,M,-29.741,M,0.0,*59
###2023-12-09 13:09:09.771324$GNGGA,180908.90,4138.0898408,N,07032.2525825,W,1,25,0.6,13.136,M,-29.741,M,0.0,*5E
###2023-12-09 13:09:09.971766$GNRMC,180909.10,A,4138.0899141,N,07032.2527546,W,2.70,303.05,091223,,,A*50
###2023-12-09 13:09:09.974649$GNGGA,180909.10,4138.0899141,N,07032.2527546,W,1,25,0.6,13.126,M,-29.741,M,0.0,*55
###2023-12-09 13:09:09.976512$GPGSA,A,3,03,04,16,26,28,29,31,32,,,,,1.1,0.6,0.9*3B
###2023-12-09 13:09:09.978228$GLGSA,A,3,65,71,72,73,74,75,,,,,,,1.1,0.6,0.9*24
###2023-12-09 13:09:09.979821$GAGSA,A,3,04,19,21,27,,,,,,,,,1.1,0.6,0.9*26
###2023-12-09 13:09:09.981529$GBGSA,A,3,14,24,25,26,33,35,,,,,,,1.1,0.6,0.9*29
###2023-12-09 13:09:09.983871$GPGSV,2,1,08,03,33,257,43,04,36,311,43,16,53,214,46,26,83,210,48*77
###2023-12-09 13:09:09.986210$GPGSV,2,2,08,28,47,073,45,29,25,058,42,31,67,044,47,32,16,141,43*7F
###2023-12-09 13:09:09.988561$GLGSV,2,1,06,65,27,326,39,71,36,173,46,72,72,254,45,73,32,044,45*69
###2023-12-09 13:09:09.990317$GLGSV,2,2,06,74,68,348,42,75,35,257,46,,,,,,,,*61
###2023-12-09 13:09:09.992658$GAGSV,1,1,04,04,31,312,42,19,82,199,40,21,85,085,46,27,31,048,43*66
###2023-12-09 13:09:09.995001$GBGSV,2,1,06,14,40,192,44,24,71,031,47,25,43,265,47,26,24,064,42*60
###2023-12-09 13:09:09.996756$GBGSV,2,2,06,33,55,228,47,35,15,066,41,,,,,,,,*61
###2023-12-09 13:09:09.998081$GNVTG,303.05,T,,M,2.70,N,5.00,K,A*26
###2023-12-09 13:09:09.999739$GNGST,180909.10,18.000,,,,0.083,0.066,0.150*59
###2023-12-09 13:09:10.001034$GNZDA,180909.10,09,12,2023,00,00*79
###2023-12-09 13:09:10.001675$GNEBP,,,,,,M*13
###2023-12-09 13:09:10.169826$GNGGA,180909.30,4138.0900034,N,07032.2529128,W,1,25,0.6,13.127,M,-29.741,M,0.0,*56
###2023-12-09 13:09:10.368659$GNGGA,180909.50,4138.0901011,N,07032.2530628,W,1,25,0.6,13.123,M,-29.741,M,0.0,*5D
###2023-12-09 13:09:10.568255$GNGGA,180909.70,4138.0902031,N,07032.2532074,W,1,25,0.6,13.118,M,-29.741,M,0.0,*5B
###2023-12-09 13:09:10.768497$GNGGA,180909.90,4138.0903029,N,07032.2533547,W,1,25,0.6,13.116,M,-29.741,M,0.0,*57
###2023-12-09 13:09:10.970499$GNRMC,180910.10,A,4138.0904078,N,07032.2534997,W,2.74,316.05,091223,,,A*54
###2023-12-09 13:09:10.973391$GNGGA,180910.10,4138.0904078,N,07032.2534997,W,1,25,0.6,13.117,M,-29.741,M,0.0,*53
###2023-12-09 13:09:10.975281$GPGSA,A,3,03,04,16,26,28,29,31,32,,,,,1.1,0.6,0.9*3B
###2023-12-09 13:09:10.976996$GLGSA,A,3,65,71,72,73,74,75,,,,,,,1.1,0.6,0.9*24
###2023-12-09 13:09:10.978585$GAGSA,A,3,04,19,21,27,,,,,,,,,1.1,0.6,0.9*26
###2023-12-09 13:09:10.980292$GBGSA,A,3,14,24,25,26,33,35,,,,,,,1.1,0.6,0.9*29
###2023-12-09 13:09:10.982614$GPGSV,2,1,08,03,33,257,42,04,36,311,43,16,53,214,45,26,83,210,48*75
###2023-12-09 13:09:10.984945$GPGSV,2,2,08,28,47,073,45,29,25,058,42,31,67,044,46,32,16,141,44*79
###2023-12-09 13:09:10.987285$GLGSV,2,1,06,65,27,326,40,71,36,173,45,72,72,254,45,73,32,044,45*64
###2023-12-09 13:09:10.989030$GLGSV,2,2,06,74,68,348,41,75,35,257,45,,,,,,,,*61
