###2023-12-09 13:01:00.964195$GNRMC,180100.10,A,4138.0370643,N,07032.2767133,W,3.63,67.09,091223,,,A*66
###2023-12-09 13:01:00.967091$GNGGA,180100.10,4138.0370643,N,07032.2767133,W,1,24,0.6,13.384,M,-29.743,M,0.0,*54
###2023-12-09 13:01:00.968966$GPGSA,A,3,03,04,16,26,28,29,31,32,,,,,1.1,0.6,0.9*3B
###2023-12-09 13:01:00.970735$GLGSA,A,3,65,71,72,73,74,75,,,,,,,1.1,0.6,0.9*24
###2023-12-09 13:01:00.972327$GAGSA,A,3,04,19,21,27,,,,,,,,,1.1,0.6,0.9*26
###2023-12-09 13:01:00.973975$GBGSA,A,3,14,24,25,26,33,,,,,,,,1.1,0.6,0.9*2F
###2023-12-09 13:01:00.976318$GPGSV,2,1,08,03,35,262,44,04,32,311,42,16,49,212,47,26,79,210,49*7D
###2023-12-09 13:01:00.978686$GPGSV,2,2,08,28,49,070,43,29,25,061,41,31,69,036,46,32,19,140,45*7F
###2023-12-09 13:01:00.981032$GLGSV,2,1,06,65,24,327,42,71,41,173,49,72,73,269,46,73,36,041,41*61
###2023-12-09 13:01:00.982806$GLGSV,2,2,06,74,70,337,42,75,32,253,47,,,,,,,,*62
###2023-12-09 13:01:00.985141$GAGSV,1,1,04,04,29,312,41,19,84,216,42,21,86,120,46,27,33,048,42*62
###2023-12-09 13:01:00.987489$GBGSV,2,1,05,14,43,193,46,24,74,024,48,25,41,262,45,26,26,063,42*6F
###2023-12-09 13:01:00.988955$GBGSV,2,2,05,33,57,233,47,,,,,,,,,,,,*5D
###2023-12-09 13:01:00.990250$GNVTG,67.09,T,,M,3.63,N,6.73,K,A*1F
###2023-12-09 13:01:00.991923$GNGST,180100.10,18.000,,,,0.079,0.066,0.160*5E
###2023-12-09 13:01:00.993220$GNZDA,180100.10,09,12,2023,00,00*78
###2023-12-09 13:01:00.993861$GNEBP,,,,,,M*13
###2023-12-09 13:01:01.163369$GNGGA,180100.30,4138.0371658,N,07032.2764858,W,1,24,0.6,13.370,M,-29.743,M,0.0,*51
###2023-12-09 13:01:01.363861$GNGGA,180100.50,4138.0372909,N,07032.2762906,W,1,24,0.6,13.394,M,-29.743,M,0.0,*59
###2023-12-09 13:01:01.564372$GNGGA,180100.70,4138.0373972,N,07032.2760679,W,1,24,0.6,13.430,M,-29.743,M,0.0,*5A
###2023-12-09 13:01:01.764576$GNGGA,180100.90,4138.0374713,N,07032.2758175,W,1,24,0.6,13.418,M,-29.743,M,0.0,*50
###2023-12-09 13:01:01.967490$GNRMC,180101.10,A,4138.0375488,N,07032.2755886,W,3.36,57.87,091223,,,A*64
###2023-12-09 13:01:01.970375$GNGGA,180101.10,4138.0375488,N,07032.2755886,W,1,24,0.6,13.362,M,-29.743,M,0.0,*5B
###2023-12-09 13:01:01.972258$GPGSA,A,3,03,04,16,26,28,29,31,32,,,,,1.1,0.6,0.9*3B
###2023-12-09 13:01:01.973982$GLGSA,A,3,65,71,72,73,74,75,,,,,,,1.1,0.6,0.9*24
###2023-12-09 13:01:01.975583$GAGSA,A,3,04,19,21,27,,,,,,,,,1.1,0.6,0.9*26
###2023-12-09 13:01:01.977238$GBGSA,A,3,14,24,25,26,33,,,,,,,,1.1,0.6,0.9*2F
###2023-12-09 13:01:01.979587$GPGSV,2,1,08,03,35,262,45,04,32,311,41,16,49,212,48,26,79,210,48*71
###2023-12-09 13:01:01.981931$GPGSV,2,2,08,28,49,070,44,29,25,061,41,31,69,036,47,32,19,140,48*74
###2023-12-09 13:01:01.984282$GLGSV,2,1,06,65,24,327,37,71,41,173,49,72,73,269,45,73,36,041,42*63
###2023-12-09 13:01:01.986036$GLGSV,2,2,06,74,70,337,41,75,32,253,45,,,,,,,,*63
###2023-12-09 13:01:01.988379$GAGSV,1,1,04,04,29,312,40,19,84,216,40,21,86,120,46,27,33,048,42*61
###2023-12-09 13:01:01.990726$GBGSV,2,1,05,14,43,193,46,24,74,024,46,25,41,262,44,26,26,063,40*62
###2023-12-09 13:01:01.992176$GBGSV,2,2,05,33,57,233,46,,,,,,,,,,,,*5C
###2023-12-09 13:01:01.993467$GNVTG,57.87,T,,M,3.36,N,6.23,K,A*1F
###2023-12-09 13:01:01.995129$GNGST,180101.10,19.000,,,,0.079,0.066,0.160*5E
###2023-12-09 13:01:01.996421$GNZDA,180101.10,09,12,2023,00,00*79
###2023-12-09 13:01:01.997060$GNEBP,,,,,,M*13
###2023-12-09 13:01:02.163345$GNGGA,180101.30,4138.0376764,N,07032.2753971,W,1,24,0.6,13.385,M,-29.743,M,0.0,*5D
###2023-12-09 13:01:02.364996$GNGGA,180101.50,4138.0377906,N,07032.2751908,W,1,24,0.6,13.370,M,-29.743,M,0.0,*56
###2023-12-09 13:01:02.564066$GNGGA,180101.70,4138.0378455,N,07032.2749413,W,1,24,0.6,13.392,M,-29.743,M,0.0,*52
###2023-12-09 13:01:02.763385$GNGGA,180101.90,4138.0378872,N,07032.2746879,W,1,24,0.6,13.402,M,-29.743,M,0.0,*54
###2023-12-09 13:01:02.965239$GNRMC,180102.10,A,4138.0379812,N,07032.2744615,W,3.58,51.46,091223,,,A*63
###2023-12-09 13:01:02.968137$GNGGA,180102.10,4138.0379812,N,07032.2744615,W,1,24,0.6,13.413,M,-29.743,M,0.0,*5E
###2023-12-09 13:01:02.970003$GPGSA,A,3,03,04,16,26,28,29,31,32,,,,,1.1,0.6,0.9*3B
###2023-12-09 13:01:02.971738$GLGSA,A,3,65,71,72,73,74,75,,,,,,,1.1,0.6,0.9*24
###2023-12-09 13:01:02.973327$GAGSA,A,3,04,19,21,27,,,,,,,,,1.1,0.6,0.9*26
###2023-12-09 13:01:02.974991$GBGSA,A,3,14,24,25,26,33,,,,,,,,1.1,0.6,0.9*2F
###2023-12-09 13:01:02.977330$GPGSV,2,1,08,03,35,262,46,04,32,311,44,16,49,212,47,26,79,210,49*79
###2023-12-09 13:01:02.979684$GPGSV,2,2,08,28,49,070,44,29,25,061,42,31,69,036,47,32,19,140,44*7B
###2023-12-09 13:01:02.982025$GLGSV,2,1,06,65,24,327,40,71,41,173,48,72,73,269,46,73,36,041,43*60
###2023-12-09 13:01:02.983787$GLGSV,2,2,06,74,70,337,42,75,32,253,46,,,,,,,,*63
###2023-12-09 13:01:02.986134$GAGSV,1,1,04,04,29,312,42,19,84,216,40,21,86,120,46,27,33,048,40*61
###2023-12-09 13:01:02.988503$GBGSV,2,1,05,14,43,193,45,24,74,024,47,25,41,262,45,26,26,063,41*60
###2023-12-09 13:01:02.989976$GBGSV,2,2,05,33,57,233,46,,,,,,,,,,,,*5C
###2023-12-09 13:01:02.991289$GNVTG,51.46,T,,M,3.58,N,6.62,K,A*19
###2023-12-09 13:01:02.992943$GNGST,180102.10,18.000,,,,0.079,0.067,0.160*5D
###2023-12-09 13:01:02.994241$GNZDA,180102.10,09,12,2023,00,00*7A
###2023-12-09 13:01:02.994906$GNEBP,,,,,,M*13
###2023-12-09 13:01:03.166288$GNGGA,180102.30,4138.0380990,N,07032.2742433,W,1,24,0.6,13.411,M,-29.743,M,0.0,*53
###2023-12-09 13:01:03.365168$GNGGA,180102.50,4138.0381639,N,07032.2739923,W,1,24,0.6,13.378,M,-29.743,M,0.0,*50
###2023-12-09 13:01:03.564031$GNGGA,180102.70,4138.0382202,N,07032.2737515,W,1,24,0.6,13.387,M,-29.743,M,0.0,*5A
###2023-12-09 13:01:03.765584$GNGGA,180102.90,4138.0383132,N,07032.2735249,W,1,24,0.6,13.415,M,-29.743,M,0.0,*55
###2023-12-09 13:01:03.968611$GNRMC,180103.10,A,4138.0384058,N,07032.2732959,W,3.40,65.12,091223,,,A*6F
###2023-12-09 13:01:03.971481$GNGGA,180103.10,4138.0384058,N,07032.2732959,W,1,24,0.6,13.401,M,-29.743,M,0.0,*5E
###2023-12-09 13:01:03.973342$GPGSA,A,3,03,04,16,26,28,29,31,32,,,,,1.1,0.6,0.9*3B
###2023-12-09 13:01:03.975069$GLGSA,A,3,65,71,72,73,74,75,,,,,,,1.1,0.6,0.9*24
###2023-12-09 13:01:03.976647$GAGSA,A,3,04,19,21,27,,,,,,,,,1.1,0.6,0.9*26
###2023-12-09 13:01:03.978287$GBGSA,A,3,14,24,25,26,33,,,,,,,,1.1,0.6,0.9*2F
###2023-12-09 13:01:03.980618$GPGSV,2,1,08,03,35,262,45,04,32,311,44,16,49,212,45,26,79,210,49*78
###2023-12-09 13:01:03.982956$GPGSV,2,2,08,28,49,070,43,29,25,061,42,31,69,036,47,32,19,140,43*7B
###2023-12-09 13:01:03.985284$GLGSV,2,1,06,65,24,327,43,71,41,173,48,72,73,269,46,73,36,041,42*62
###2023-12-09 13:01:03.987046$GLGSV,2,2,06,74,70,337,42,75,32,253,47,,,,,,,,*62
###2023-12-09 13:01:03.989368$GAGSV,1,1,04,04,29,312,42,19,84,216,40,21,86,120,46,27,33,048,40*61
###2023-12-09 13:01:03.991736$GBGSV,2,1,05,14,43,193,44,24,74,024,48,25,41,262,44,26,26,063,42*6C
###2023-12-09 13:01:03.993191$GBGSV,2,2,05,33,57,233,47,,,,,,,,,,,,*5D
###2023-12-09 13:01:03.994482$GNVTG,65.12,T,,M,3.40,N,6.30,K,A*11
###2023-12-09 13:01:03.996134$GNGST,180103.10,18.000,,,,0.079,0.067,0.160*5C
###2023-12-09 13:01:03.997423$GNZDA,180103.10,09,12,2023,00,00*7B
###2023-12-09 13:01:03.998059$GNEBP,,,,,,M*13
###2023-12-09 13:01:04.163336$GNGGA,180103.30,4138.0384808,N,07032.2730645,W,1,24,0.6,13.391,M,-29.743,M,0.0,*5F
###2023-12-09 13:01:04.364283$GNGGA,180103.50,4138.0385584,N,07032.2728313,W,1,24,0.6,13.406,M,-29.743,M,0.0,*57
###2023-12-09 13:01:04.563029$GNGGA,180103.70,4138.0386466,N,07032.2725993,W,1,24,0.6,13.395,M,-29.743,M,0.0,*59
###2023-12-09 13:01:04.763371$GNGGA,180103.90,4138.0387425,N,07032.2723804,W,1,24,0.6,13.378,M,-29.743,M,0.0,*5B
###2023-12-09 13:01:04.968238$GNRMC,180104.10,A,4138.0388488,N,07032.2721699,W,3.50,55.63,091223,,,A*68
###2023-12-09 13:01:04.971115$GNGGA,180104.10,4138.0388488,N,07032.2721699,W,1,24,0.6,13.396,M,-29.743,M,0.0,*54
###2023-12-09 13:01:04.972977$GPGSA,A,3,03,04,16,26,28,29,31,32,,,,,1.1,0.6,0.9*3B
###2023-12-09 13:01:04.974704$GLGSA,A,3,65,71,72,73,74,75,,,,,,,1.1,0.6,0.9*24
###2023-12-09 13:01:04.976285$GAGSA,A,3,04,19,21,27,,,,,,,,,1.1,0.6,0.9*26
###2023-12-09 13:01:04.977932$GBGSA,A,3,14,24,25,26,33,,,,,,,,1.1,0.6,0.9*2F
###2023-12-09 13:01:04.980263$GPGSV,2,1,08,03,35,262,43,04,32,311,44,16,49,212,46,26,79,210,48*7C
###2023-12-09 13:01:04.982950$GPGSV,2,2,08,28,49,070,42,29,25,061,42,31,69,036,46,32,19,140,41*79
###2023-12-09 13:01:04.985313$GLGSV,2,1,06,65,24,327,44,71,41,173,47,72,73,269,46,73,36,041,42*6A
###2023-12-09 13:01:04.987082$GLGSV,2,2,06,74,70,337,43,75,32,253,47,,,,,,,,*63
###2023-12-09 13:01:04.989412$GAGSV,1,1,04,04,29,312,42,19,84,216,41,21,86,120,46,27,33,048,41*61
###2023-12-09 13:01:04.991759$GBGSV,2,1,05,14,43,193,46,24,74,024,49,25,41,262,46,26,26,063,43*6C
###2023-12-09 13:01:04.993215$GBGSV,2,2,05,33,57,233,48,,,,,,,,,,,,*52
###2023-12-09 13:01:04.994508$GNVTG,55.63,T,,M,3.50,N,6.48,K,A*1A
###2023-12-09 13:01:04.996174$GNGST,180104.10,18.000,,,,0.079,0.067,0.160*5B
###2023-12-09 13:01:04.997467$GNZDA,180104.10,09,12,2023,00,00*7C
