###2023-12-09 12:27:16.937042$GPGSV,2,2,07,29,24,078,40,31,73,348,41,32,33,132,46,,,,*47
###2023-12-09 12:27:16.939430$GLGSV,1,1,04,71,61,167,47,72,62,315,44,73,52,031,48,75,19,238,42*6D
###2023-12-09 12:27:16.941197$GAGSV,1,1,02,21,75,179,40,27,44,051,46,,,,,,,,*63
###2023-12-09 12:27:16.943556$GBGSV,1,1,04,14,59,200,46,25,30,250,37,26,38,056,49,33,64,263,36*60
###2023-12-09 12:27:16.944702$GNVTG,,T,,M,0.04,N,0.07,K,A*3E
###2023-12-09 12:27:16.946352$GNGST,172716.10,32.000,,,,0.120,0.100,0.290*5A
###2023-12-09 12:27:16.947750$GNZDA,172716.10,09,12,2023,00,00*74
###2023-12-09 12:27:16.948421$GNEBP,,,,,,M*13
###2023-12-09 12:27:17.120975$GNGGA,172716.30,4138.0389192,N,07032.4363121,W,1,17,0.8,6.046,M,-29.746,M,0.0,*60
###2023-12-09 12:27:17.319863$GNGGA,172716.50,4138.0389222,N,07032.4363103,W,1,17,0.8,6.056,M,-29.746,M,0.0,*6F
###2023-12-09 12:27:17.520453$GNGGA,172716.70,4138.0389229,N,07032.4363058,W,1,17,0.8,6.065,M,-29.746,M,0.0,*69
###2023-12-09 12:27:17.719510$GNGGA,172716.90,4138.0389252,N,07032.4363035,W,1,17,0.8,6.081,M,-29.746,M,0.0,*6A
###2023-12-09 12:27:17.921775$GNRMC,172717.10,A,4138.0389271,N,07032.4363014,W,0.04,,091223,,,A*4E
###2023-12-09 12:27:17.925532$GNGGA,172717.10,4138.0389271,N,07032.4363014,W,1,17,0.8,6.094,M,-29.746,M,0.0,*65
###2023-12-09 12:27:17.927800$GPGSA,A,3,03,16,26,28,29,31,32,,,,,,1.5,0.8,1.3*3E
###2023-12-09 12:27:17.929770$GLGSA,A,3,71,72,73,75,,,,,,,,,1.5,0.8,1.3*25
###2023-12-09 12:27:17.931590$GAGSA,A,3,21,27,,,,,,,,,,,1.5,0.8,1.3*2B
###2023-12-09 12:27:17.933546$GBGSA,A,3,14,25,26,33,,,,,,,,,1.5,0.8,1.3*28
###2023-12-09 12:27:17.936405$GPGSV,2,1,07,03,39,281,39,16,33,206,44,26,62,205,40,28,60,051,42*7B
###2023-12-09 12:27:17.938933$GPGSV,2,2,07,29,24,078,41,31,73,348,41,32,33,132,46,,,,*46
###2023-12-09 12:27:17.941788$GLGSV,1,1,04,71,61,167,47,72,62,315,44,73,52,031,48,75,19,238,42*6D
###2023-12-09 12:27:17.943959$GAGSV,1,1,02,21,75,179,40,27,44,051,46,,,,,,,,*63
###2023-12-09 12:27:17.946891$GBGSV,1,1,04,14,59,200,46,25,30,250,37,26,38,056,49,33,64,263,37*61
###2023-12-09 12:27:17.948339$GNVTG,,T,,M,0.04,N,0.07,K,A*3E
###2023-12-09 12:27:17.950386$GNGST,172717.10,32.000,,,,0.120,0.100,0.280*5A
###2023-12-09 12:27:17.952022$GNZDA,172717.10,09,12,2023,00,00*75
###2023-12-09 12:27:17.952807$GNEBP,,,,,,M*13
###2023-12-09 12:27:18.121539$GNGGA,172717.30,4138.0389296,N,07032.4362984,W,1,17,0.8,6.111,M,-29.746,M,0.0,*63
###2023-12-09 12:27:18.321424$GNGGA,172717.50,4138.0389310,N,07032.4362948,W,1,18,0.7,6.123,M,-29.746,M,0.0,*6B
###2023-12-09 12:27:18.520548$GNGGA,172717.70,4138.0389336,N,07032.4362942,W,1,18,0.7,6.136,M,-29.746,M,0.0,*63
###2023-12-09 12:27:18.720524$GNGGA,172717.90,4138.0389355,N,07032.4362926,W,1,18,0.7,6.145,M,-29.746,M,0.0,*6E
###2023-12-09 12:27:18.921523$GNRMC,172718.10,A,4138.0389367,N,07032.4362895,W,0.02,,091223,,,A*41
###2023-12-09 12:27:18.925264$GNGGA,172718.10,4138.0389367,N,07032.4362895,W,1,18,0.7,6.158,M,-29.746,M,0.0,*6D
###2023-12-09 12:27:18.927511$GPGSA,A,3,03,16,26,28,29,31,32,,,,,,1.4,0.7,1.1*32
###2023-12-09 12:27:18.929471$GLGSA,A,3,71,72,73,75,,,,,,,,,1.4,0.7,1.1*29
###2023-12-09 12:27:18.931377$GAGSA,A,3,04,21,27,,,,,,,,,,1.4,0.7,1.1*23
###2023-12-09 12:27:18.933327$GBGSA,A,3,14,25,26,33,,,,,,,,,1.4,0.7,1.1*24
###2023-12-09 12:27:18.936187$GPGSV,2,1,07,03,39,281,39,16,33,206,44,26,62,205,40,28,60,051,42*7B
###2023-12-09 12:27:18.938733$GPGSV,2,2,07,29,24,078,41,31,73,348,41,32,33,132,46,,,,*46
###2023-12-09 12:27:18.941601$GLGSV,1,1,04,71,61,167,47,72,62,315,43,73,52,031,48,75,19,238,42*6A
###2023-12-09 12:27:18.944111$GAGSV,1,1,03,04,19,310,35,21,75,179,40,27,44,051,46,,,,*5A
###2023-12-09 12:27:18.946993$GBGSV,1,1,04,14,59,200,46,25,30,250,37,26,38,056,49,33,64,263,37*61
###2023-12-09 12:27:18.948433$GNVTG,,T,,M,0.02,N,0.04,K,A*3B
###2023-12-09 12:27:18.950470$GNGST,172718.10,31.000,,,,0.120,0.110,0.280*57
###2023-12-09 12:27:18.952097$GNZDA,172718.10,09,12,2023,00,00*7A
###2023-12-09 12:27:18.952923$GNEBP,,,,,,M*13
###2023-12-09 12:27:19.122546$GNGGA,172718.30,4138.0389376,N,07032.4362872,W,1,18,0.7,6.167,M,-29.746,M,0.0,*6A
###2023-12-09 12:27:19.321391$GNGGA,172718.50,4138.0389384,N,07032.4362836,W,1,18,0.7,6.187,M,-29.746,M,0.0,*6F
###2023-12-09 12:27:19.521656$GNGGA,172718.70,4138.0389399,N,07032.4362816,W,1,18,0.7,6.200,M,-29.746,M,0.0,*6F
###2023-12-09 12:27:19.720045$GNGGA,172718.90,4138.0389402,N,07032.4362780,W,1,18,0.7,6.221,M,-29.746,M,0.0,*67
###2023-12-09 12:27:19.923069$GNRMC,172719.10,A,4138.0389411,N,07032.4362759,W,0.04,,091223,,,A*4F
###2023-12-09 12:27:19.926810$GNGGA,172719.10,4138.0389411,N,07032.4362759,W,1,18,0.7,6.235,M,-29.746,M,0.0,*6D
###2023-12-09 12:27:19.929223$GPGSA,A,3,03,16,26,28,29,31,32,,,,,,1.4,0.7,1.1*32
###2023-12-09 12:27:19.931455$GLGSA,A,3,71,72,73,75,,,,,,,,,1.4,0.7,1.1*29
###2023-12-09 12:27:19.933527$GAGSA,A,3,04,21,27,,,,,,,,,,1.4,0.7,1.1*23
###2023-12-09 12:27:19.935687$GBGSA,A,3,14,25,26,33,,,,,,,,,1.4,0.7,1.1*24
###2023-12-09 12:27:19.938740$GPGSV,2,1,07,03,39,281,39,16,33,206,44,26,62,205,41,28,60,051,42*7A
###2023-12-09 12:27:19.941425$GPGSV,2,2,07,29,24,078,41,31,73,348,41,32,33,132,46,,,,*46
###2023-12-09 12:27:19.944453$GLGSV,1,1,04,71,61,167,47,72,62,315,43,73,52,031,48,75,19,238,42*6A
###2023-12-09 12:27:19.947652$GAGSV,1,1,03,04,19,310,35,21,75,179,40,27,44,050,46,,,,*5B
###2023-12-09 12:27:19.950819$GBGSV,1,1,04,14,59,200,46,25,30,250,38,26,38,056,49,33,64,263,37*6E
###2023-12-09 12:27:19.952439$GNVTG,,T,,M,0.04,N,0.07,K,A*3E
###2023-12-09 12:27:19.954729$GNGST,172719.10,31.000,,,,0.120,0.110,0.280*56
###2023-12-09 12:27:19.956533$GNZDA,172719.10,09,12,2023,00,00*7B
###2023-12-09 12:27:19.957535$GNEBP,,,,,,M*13
###2023-12-09 12:27:20.121406$GNGGA,172719.30,4138.0389415,N,07032.4362734,W,1,18,0.7,6.250,M,-29.746,M,0.0,*63
###2023-12-09 12:27:20.320356$GNGGA,172719.50,4138.0389423,N,07032.4362708,W,1,18,0.7,6.266,M,-29.746,M,0.0,*6A
###2023-12-09 12:27:20.521675$GNGGA,172719.70,4138.0389435,N,07032.4362696,W,1,18,0.7,6.279,M,-29.746,M,0.0,*67
###2023-12-09 12:27:20.720024$GNGGA,172719.90,4138.0389436,N,07032.4362657,W,1,18,0.7,6.293,M,-29.746,M,0.0,*63
###2023-12-09 12:27:20.930258$GNRMC,172720.10,A,4138.0389441,N,07032.4362637,W,0.02,,091223,,,A*4F
###2023-12-09 12:27:20.934013$GNGGA,172720.10,4138.0389441,N,07032.4362637,W,1,18,0.7,6.302,M,-29.746,M,0.0,*6E
###2023-12-09 12:27:20.936445$GPGSA,A,3,03,16,26,28,29,31,32,,,,,,1.4,0.7,1.1*32
###2023-12-09 12:27:20.938654$GLGSA,A,3,71,72,73,75,,,,,,,,,1.4,0.7,1.1*29
###2023-12-09 12:27:20.940736$GAGSA,A,3,04,21,27,,,,,,,,,,1.4,0.7,1.1*23
###2023-12-09 12:27:20.942891$GBGSA,A,3,14,25,26,33,,,,,,,,,1.4,0.7,1.1*24
###2023-12-09 12:27:20.945913$GPGSV,2,1,07,03,39,281,39,16,33,206,44,26,62,205,41,28,60,051,42*7A
###2023-12-09 12:27:20.948674$GPGSV,2,2,07,29,24,078,40,31,73,348,41,32,33,132,46,,,,*47
###2023-12-09 12:27:20.952046$GLGSV,1,1,04,71,61,167,47,72,62,315,43,73,52,031,48,75,19,238,42*6A
###2023-12-09 12:27:20.954791$GAGSV,1,1,03,04,19,310,35,21,75,179,40,27,44,050,46,,,,*5B
###2023-12-09 12:27:20.957860$GBGSV,1,1,04,14,59,200,46,25,30,250,38,26,38,056,49,33,64,263,37*6E
###2023-12-09 12:27:20.959482$GNVTG,,T,,M,0.02,N,0.04,K,A*3B
###2023-12-09 12:27:20.961702$GNGST,172720.10,31.000,,,,0.120,0.110,0.280*5C
###2023-12-09 12:27:20.963526$GNZDA,172720.10,09,12,2023,00,00*71
###2023-12-09 12:27:20.964531$GNEBP,,,,,,M*13
###2023-12-09 12:27:21.122227$GNGGA,172720.30,4138.0389479,N,07032.4362663,W,1,18,0.7,6.302,M,-29.746,M,0.0,*66
###2023-12-09 12:27:21.321327$GNGGA,172720.50,4138.0389511,N,07032.4362685,W,1,18,0.7,6.302,M,-29.746,M,0.0,*67
###2023-12-09 12:27:21.521228$GNGGA,172720.70,4138.0389559,N,07032.4362719,W,1,18,0.7,6.292,M,-29.746,M,0.0,*65
###2023-12-09 12:27:21.720393$GNGGA,172720.90,4138.0389598,N,07032.4362738,W,1,18,0.7,6.292,M,-29.746,M,0.0,*65
###2023-12-09 12:27:21.923440$GNRMC,172721.10,A,4138.0389634,N,07032.4362775,W,0.02,,091223,,,A*49
###2023-12-09 12:27:21.926313$GNGGA,172721.10,4138.0389634,N,07032.4362775,W,1,18,0.7,6.292,M,-29.746,M,0.0,*60
###2023-12-09 12:27:21.928156$GPGSA,A,3,03,16,26,28,29,31,32,,,,,,1.4,0.7,1.1*32
###2023-12-09 12:27:21.929810$GLGSA,A,3,71,72,73,75,,,,,,,,,1.4,0.7,1.1*29
###2023-12-09 12:27:21.931647$GAGSA,A,3,04,21,27,,,,,,,,,,1.4,0.7,1.1*23
###2023-12-09 12:27:21.933278$GBGSA,A,3,14,25,26,33,,,,,,,,,1.4,0.7,1.1*24
###2023-12-09 12:27:21.935660$GPGSV,2,1,07,03,39,281,40,16,33,206,44,26,62,205,41,28,60,051,42*74
###2023-12-09 12:27:21.937740$GPGSV,2,2,07,29,24,078,41,31,73,348,41,32,33,132,46,,,,*46
###2023-12-09 12:27:21.940126$GLGSV,1,1,04,71,61,167,47,72,62,315,44,73,52,031,48,75,19,238,42*6D
###2023-12-09 12:27:21.942205$GAGSV,1,1,03,04,19,310,35,21,75,179,41,27,44,050,46,,,,*5A
###2023-12-09 12:27:21.944587$GBGSV,1,1,04,14,59,200,46,25,30,250,38,26,38,056,49,33,64,263,38*61
###2023-12-09 12:27:21.945762$GNVTG,,T,,M,0.02,N,0.04,K,A*3B
