###2023-12-09 12:41:33.956206$GPGSV,2,2,08,28,56,059,43,29,25,071,40,31,73,010,45,32,28,135,45*76
###2023-12-09 12:41:33.958581$GLGSV,2,1,06,65,15,329,40,71,52,170,49,72,68,302,44,73,44,035,46*6B
###2023-12-09 12:41:33.960344$GLGSV,2,2,06,74,71,303,42,75,25,244,44,,,,,,,,*67
###2023-12-09 12:41:33.962695$GAGSV,1,1,04,04,23,311,38,19,83,292,40,21,80,172,46,27,39,049,41*65
###2023-12-09 12:41:33.965026$GBGSV,2,1,05,14,52,196,47,24,79,359,49,25,34,255,45,26,33,058,46*60
###2023-12-09 12:41:33.966480$GBGSV,2,2,05,33,62,248,47,,,,,,,,,,,,*57
###2023-12-09 12:41:33.967824$GNVTG,328.92,T,,M,0.06,N,0.11,K,A*27
###2023-12-09 12:41:33.969464$GNGST,174133.10,18.000,,,,0.077,0.069,0.160*54
###2023-12-09 12:41:33.970782$GNZDA,174133.10,09,12,2023,00,00*73
###2023-12-09 12:41:33.971425$GNEBP,,,,,,M*13
###2023-12-09 12:41:34.141191$GNGGA,174133.30,4138.0632373,N,07032.3732541,W,1,24,0.6,13.468,M,-29.744,M,0.0,*5A
###2023-12-09 12:41:34.341549$GNGGA,174133.50,4138.0633006,N,07032.3733146,W,1,24,0.6,13.473,M,-29.744,M,0.0,*54
###2023-12-09 12:41:34.543820$GNGGA,174133.70,4138.0633335,N,07032.3733420,W,1,24,0.6,13.477,M,-29.744,M,0.0,*54
###2023-12-09 12:41:34.739881$GNGGA,174133.90,4138.0633252,N,07032.3733296,W,1,24,0.6,13.499,M,-29.744,M,0.0,*51
###2023-12-09 12:41:34.944262$GNRMC,174134.10,A,4138.0633222,N,07032.3733263,W,0.41,325.15,091223,,,A*56
###2023-12-09 12:41:34.947125$GNGGA,174134.10,4138.0633222,N,07032.3733263,W,1,24,0.6,13.455,M,-29.744,M,0.0,*53
###2023-12-09 12:41:34.948981$GPGSA,A,3,03,04,16,26,28,29,31,32,,,,,1.1,0.6,0.9*3B
###2023-12-09 12:41:34.950704$GLGSA,A,3,65,71,72,73,74,75,,,,,,,1.1,0.6,0.9*24
###2023-12-09 12:41:34.952285$GAGSA,A,3,04,19,21,27,,,,,,,,,1.1,0.6,0.9*26
###2023-12-09 12:41:34.953922$GBGSA,A,3,14,24,25,26,33,,,,,,,,1.1,0.6,0.9*2F
###2023-12-09 12:41:34.956256$GPGSV,2,1,08,03,38,272,42,04,25,311,39,16,39,208,47,26,69,207,48*77
###2023-12-09 12:41:34.958592$GPGSV,2,2,08,28,56,059,45,29,25,071,41,31,73,010,45,32,28,135,46*72
###2023-12-09 12:41:34.960908$GLGSV,2,1,06,65,15,329,39,71,52,170,48,72,68,302,44,73,44,035,45*67
###2023-12-09 12:41:34.962650$GLGSV,2,2,06,74,71,303,42,75,25,244,44,,,,,,,,*67
###2023-12-09 12:41:34.964957$GAGSV,1,1,04,04,23,311,39,19,83,292,40,21,80,172,46,27,39,049,41*64
###2023-12-09 12:41:34.967280$GBGSV,2,1,05,14,52,196,46,24,79,359,48,25,34,255,45,26,33,058,45*63
###2023-12-09 12:41:34.968723$GBGSV,2,2,05,33,62,248,47,,,,,,,,,,,,*57
###2023-12-09 12:41:34.970033$GNVTG,325.15,T,,M,0.41,N,0.76,K,A*27
###2023-12-09 12:41:34.971679$GNGST,174134.10,18.000,,,,0.077,0.070,0.160*5B
###2023-12-09 12:41:34.972960$GNZDA,174134.10,09,12,2023,00,00*74
###2023-12-09 12:41:34.973595$GNEBP,,,,,,M*13
###2023-12-09 12:41:35.141220$GNGGA,174134.30,4138.0633704,N,07032.3733716,W,1,24,0.6,13.459,M,-29.744,M,0.0,*5B
###2023-12-09 12:41:35.341532$GNGGA,174134.50,4138.0634283,N,07032.3734280,W,1,24,0.6,13.440,M,-29.744,M,0.0,*55
###2023-12-09 12:41:35.542163$GNGGA,174134.70,4138.0634371,N,07032.3734360,W,1,24,0.6,13.463,M,-29.744,M,0.0,*55
###2023-12-09 12:41:35.739844$GNGGA,174134.90,4138.0634274,N,07032.3734217,W,1,24,0.6,13.486,M,-29.744,M,0.0,*55
###2023-12-09 12:41:35.940443$GNRMC,174135.10,A,4138.0634433,N,07032.3734325,W,0.78,325.06,091223,,,A*5A
###2023-12-09 12:41:35.943360$GNGGA,174135.10,4138.0634433,N,07032.3734325,W,1,24,0.6,13.460,M,-29.744,M,0.0,*51
###2023-12-09 12:41:35.945218$GPGSA,A,3,03,04,16,26,28,29,31,32,,,,,1.1,0.6,0.9*3B
###2023-12-09 12:41:35.946968$GLGSA,A,3,65,71,72,73,74,75,,,,,,,1.1,0.6,0.9*24
###2023-12-09 12:41:35.948569$GAGSA,A,3,04,19,21,27,,,,,,,,,1.1,0.6,0.9*26
###2023-12-09 12:41:35.950209$GBGSA,A,3,14,24,25,26,33,,,,,,,,1.1,0.6,0.9*2F
###2023-12-09 12:41:35.952548$GPGSV,2,1,08,03,38,272,42,04,25,311,38,16,39,208,45,26,69,207,47*7B
###2023-12-09 12:41:35.954891$GPGSV,2,2,08,28,56,059,44,29,25,071,41,31,73,010,44,32,28,135,45*71
###2023-12-09 12:41:35.957217$GLGSV,2,1,06,65,15,329,40,71,52,170,49,72,68,302,45,73,44,035,45*69
###2023-12-09 12:41:35.958972$GLGSV,2,2,06,74,71,303,42,75,25,244,45,,,,,,,,*66
###2023-12-09 12:41:35.961293$GAGSV,1,1,04,04,23,311,39,19,83,292,40,21,80,172,45,27,39,049,41*67
###2023-12-09 12:41:35.963626$GBGSV,2,1,05,14,52,196,45,24,79,359,46,25,34,255,44,26,33,058,44*6E
###2023-12-09 12:41:35.965074$GBGSV,2,2,05,33,62,248,45,,,,,,,,,,,,*55
###2023-12-09 12:41:35.966388$GNVTG,325.06,T,,M,0.78,N,1.44,K,A*2F
###2023-12-09 12:41:35.968044$GNGST,174135.10,18.000,,,,0.078,0.070,0.160*55
###2023-12-09 12:41:35.969328$GNZDA,174135.10,09,12,2023,00,00*75
###2023-12-09 12:41:35.969959$GNEBP,,,,,,M*13
###2023-12-09 12:41:36.146453$GNGGA,174135.30,4138.0634926,N,07032.3734788,W,1,24,0.6,13.447,M,-29.744,M,0.0,*5C
###2023-12-09 12:41:36.343522$GNGGA,174135.50,4138.0635344,N,07032.3735197,W,1,24,0.6,13.425,M,-29.744,M,0.0,*58
###2023-12-09 12:41:36.542280$GNGGA,174135.70,4138.0635389,N,07032.3735219,W,1,24,0.6,13.447,M,-29.744,M,0.0,*5A
###2023-12-09 12:41:36.740533$GNGGA,174135.90,4138.0635392,N,07032.3735160,W,1,24,0.6,13.462,M,-29.744,M,0.0,*54
###2023-12-09 12:41:36.944767$GNRMC,174136.10,A,4138.0635621,N,07032.3735365,W,0.78,322.78,091223,,,A*52
###2023-12-09 12:41:36.948245$GNGGA,174136.10,4138.0635621,N,07032.3735365,W,1,24,0.6,13.457,M,-29.744,M,0.0,*53
###2023-12-09 12:41:36.950514$GPGSA,A,3,03,04,16,26,28,29,31,32,,,,,1.1,0.6,0.9*3B
###2023-12-09 12:41:36.952600$GLGSA,A,3,65,71,72,73,74,75,,,,,,,1.1,0.6,0.9*24
###2023-12-09 12:41:36.954507$GAGSA,A,3,04,19,21,27,,,,,,,,,1.1,0.6,0.9*26
###2023-12-09 12:41:36.956512$GBGSA,A,3,14,24,25,26,33,,,,,,,,1.1,0.6,0.9*2F
###2023-12-09 12:41:36.959347$GPGSV,2,1,08,03,38,272,42,04,25,311,40,16,39,208,46,26,69,207,49*79
###2023-12-09 12:41:36.962160$GPGSV,2,2,08,28,56,059,44,29,25,071,41,31,73,010,46,32,28,135,45*73
###2023-12-09 12:41:36.964983$GLGSV,2,1,06,65,15,329,41,71,52,170,48,72,68,302,46,73,44,035,46*69
###2023-12-09 12:41:36.967142$GLGSV,2,2,06,74,71,303,42,75,25,244,44,,,,,,,,*67
###2023-12-09 12:41:36.970008$GAGSV,1,1,04,04,23,311,39,19,83,292,40,21,80,172,46,27,39,049,41*64
###2023-12-09 12:41:36.972841$GBGSV,2,1,05,14,52,196,46,24,79,359,47,25,34,255,45,26,33,058,45*6C
###2023-12-09 12:41:36.974609$GBGSV,2,2,05,33,62,248,47,,,,,,,,,,,,*57
###2023-12-09 12:41:36.976211$GNVTG,322.78,T,,M,0.78,N,1.44,K,A*21
###2023-12-09 12:41:36.978199$GNGST,174136.10,18.000,,,,0.078,0.071,0.160*57
###2023-12-09 12:41:36.979772$GNZDA,174136.10,09,12,2023,00,00*76
###2023-12-09 12:41:36.980548$GNEBP,,,,,,M*13
###2023-12-09 12:41:37.141638$GNGGA,174136.30,4138.0636071,N,07032.3735796,W,1,24,0.6,13.440,M,-29.744,M,0.0,*5F
###2023-12-09 12:41:37.341926$GNGGA,174136.50,4138.0636394,N,07032.3736124,W,1,24,0.6,13.418,M,-29.744,M,0.0,*50
###2023-12-09 12:41:37.543262$GNGGA,174136.70,4138.0636444,N,07032.3736163,W,1,24,0.6,13.429,M,-29.744,M,0.0,*59
###2023-12-09 12:41:37.741735$GNGGA,174136.90,4138.0636491,N,07032.3736149,W,1,24,0.6,13.437,M,-29.744,M,0.0,*58
###2023-12-09 12:41:37.942626$GNRMC,174137.10,A,4138.0636751,N,07032.3736389,W,0.82,322.79,091223,,,A*53
###2023-12-09 12:41:37.946059$GNGGA,174137.10,4138.0636751,N,07032.3736389,W,1,24,0.6,13.438,M,-29.744,M,0.0,*5F
###2023-12-09 12:41:37.948328$GPGSA,A,3,03,04,16,26,28,29,31,32,,,,,1.1,0.6,0.9*3B
###2023-12-09 12:41:37.950396$GLGSA,A,3,65,71,72,73,74,75,,,,,,,1.1,0.6,0.9*24
###2023-12-09 12:41:37.952319$GAGSA,A,3,04,19,21,27,,,,,,,,,1.1,0.6,0.9*26
###2023-12-09 12:41:37.954302$GBGSA,A,3,14,24,25,26,33,,,,,,,,1.1,0.6,0.9*2F
###2023-12-09 12:41:37.957114$GPGSV,2,1,08,03,38,272,42,04,25,311,42,16,39,208,46,26,69,207,49*7B
###2023-12-09 12:41:37.959977$GPGSV,2,2,08,28,56,059,44,29,25,071,41,31,73,010,46,32,28,135,44*72
###2023-12-09 12:41:37.962795$GLGSV,2,1,06,65,15,329,41,71,52,170,49,72,68,302,46,73,44,035,46*68
###2023-12-09 12:41:37.964897$GLGSV,2,2,06,74,71,303,43,75,25,244,44,,,,,,,,*66
###2023-12-09 12:41:37.967701$GAGSV,1,1,04,04,23,311,41,19,83,292,41,21,80,172,46,27,39,049,41*6A
###2023-12-09 12:41:37.970500$GBGSV,2,1,05,14,52,196,45,24,79,359,48,25,34,255,45,26,33,058,45*60
###2023-12-09 12:41:37.972259$GBGSV,2,2,05,33,62,248,47,,,,,,,,,,,,*57
###2023-12-09 12:41:37.973849$GNVTG,322.79,T,,M,0.82,N,1.51,K,A*21
###2023-12-09 12:41:37.976138$GNGST,174137.10,18.000,,,,0.077,0.070,0.160*58
###2023-12-09 12:41:37.977718$GNZDA,174137.10,09,12,2023,00,00*77
###2023-12-09 12:41:37.978489$GNEBP,,,,,,M*13
###2023-12-09 12:41:38.140981$GNGGA,174137.30,4138.0637154,N,07032.3736805,W,1,24,0.6,13.426,M,-29.744,M,0.0,*5F
###2023-12-09 12:41:38.341761$GNGGA,174137.50,4138.0637397,N,07032.3737048,W,1,24,0.6,13.416,M,-29.744,M,0.0,*57
###2023-12-09 12:41:38.543247$GNGGA,174137.70,4138.0637458,N,07032.3737078,W,1,24,0.6,13.426,M,-29.744,M,0.0,*51
###2023-12-09 12:41:38.740872$GNGGA,174137.90,4138.0637550,N,07032.3737124,W,1,24,0.6,13.419,M,-29.744,M,0.0,*52
###2023-12-09 12:41:38.943356$GNRMC,174138.10,A,4138.0637847,N,07032.3737415,W,0.82,322.79,091223,,,A*56
###2023-12-09 12:41:38.946210$GNGGA,174138.10,4138.0637847,N,07032.3737415,W,1,24,0.6,13.417,M,-29.744,M,0.0,*57
