###2023-12-09 12:36:24.136391$GNGGA,173623.30,4138.0441744,N,07032.3903077,W,1,23,0.7,13.264,M,-29.745,M,0.0,*5C
###2023-12-09 12:36:24.335233$GNGGA,173623.50,4138.0440928,N,07032.3900888,W,1,23,0.7,13.265,M,-29.745,M,0.0,*55
###2023-12-09 12:36:24.535374$GNGGA,173623.70,4138.0440168,N,07032.3898740,W,1,23,0.7,13.258,M,-29.745,M,0.0,*5E
###2023-12-09 12:36:24.735592$GNGGA,173623.90,4138.0439468,N,07032.3896520,W,1,23,0.7,13.263,M,-29.745,M,0.0,*59
###2023-12-09 12:36:24.935267$GNRMC,173624.10,A,4138.0438775,N,07032.3894292,W,3.23,108.66,091223,,,A*5B
###2023-12-09 12:36:24.938151$GNGGA,173624.10,4138.0438775,N,07032.3894292,W,1,23,0.7,13.264,M,-29.745,M,0.0,*53
###2023-12-09 12:36:24.940036$GPGSA,A,3,03,04,16,26,28,29,31,32,,,,,1.2,0.7,1.0*31
###2023-12-09 12:36:24.941703$GLGSA,A,3,71,72,73,74,75,,,,,,,,1.2,0.7,1.0*2D
###2023-12-09 12:36:24.943307$GAGSA,A,3,04,19,21,27,,,,,,,,,1.2,0.7,1.0*2C
###2023-12-09 12:36:24.944959$GBGSA,A,3,14,24,25,26,33,,,,,,,,1.2,0.7,1.0*25
###2023-12-09 12:36:24.947363$GPGSV,2,1,08,03,38,276,46,04,22,311,43,16,37,207,45,26,67,207,47*7F
###2023-12-09 12:36:24.949730$GPGSV,2,2,08,28,57,057,44,29,25,073,40,31,73,004,46,32,29,134,41*7E
###2023-12-09 12:36:24.952089$GLGSV,2,1,05,71,56,169,47,72,66,308,47,73,47,034,46,74,71,293,43*6E
###2023-12-09 12:36:24.953549$GLGSV,2,2,05,75,22,241,42,,,,,,,,,,,,*53
###2023-12-09 12:36:24.955902$GAGSV,1,1,04,04,21,311,42,19,82,300,40,21,78,175,45,27,41,049,44*68
###2023-12-09 12:36:24.958245$GBGSV,2,1,05,14,55,197,46,24,80,348,48,25,33,253,45,26,35,057,46*68
###2023-12-09 12:36:24.959719$GBGSV,2,2,05,33,63,253,48,,,,,,,,,,,,*53
###2023-12-09 12:36:24.961048$GNVTG,108.66,T,,M,3.23,N,5.98,K,A*2C
###2023-12-09 12:36:24.962711$GNGST,173624.10,18.000,,,,0.079,0.069,0.160*5C
###2023-12-09 12:36:24.964008$GNZDA,173624.10,09,12,2023,00,00*75
###2023-12-09 12:36:24.964648$GNEBP,,,,,,M*13
###2023-12-09 12:36:25.136469$GNGGA,173624.30,4138.0438283,N,07032.3892028,W,1,23,0.7,13.266,M,-29.745,M,0.0,*5A
###2023-12-09 12:36:25.336412$GNGGA,173624.50,4138.0437783,N,07032.3889703,W,1,23,0.7,13.267,M,-29.745,M,0.0,*53
###2023-12-09 12:36:25.539149$GNGGA,173624.70,4138.0437388,N,07032.3887413,W,1,23,0.7,13.268,M,-29.745,M,0.0,*5D
###2023-12-09 12:36:25.734663$GNGGA,173624.90,4138.0437061,N,07032.3885044,W,1,23,0.7,13.274,M,-29.745,M,0.0,*5E
###2023-12-09 12:36:25.940521$GNRMC,173625.10,A,4138.0436750,N,07032.3882651,W,3.09,97.29,091223,,,A*6B
###2023-12-09 12:36:25.943404$GNGGA,173625.10,4138.0436750,N,07032.3882651,W,1,23,0.7,13.270,M,-29.745,M,0.0,*52
###2023-12-09 12:36:25.945259$GPGSA,A,3,03,04,16,26,28,29,31,32,,,,,1.2,0.7,1.0*31
###2023-12-09 12:36:25.946955$GLGSA,A,3,71,72,73,74,75,,,,,,,,1.2,0.7,1.0*2D
###2023-12-09 12:36:25.948592$GAGSA,A,3,04,19,21,27,,,,,,,,,1.2,0.7,1.0*2C
###2023-12-09 12:36:25.950255$GBGSA,A,3,14,24,25,26,33,,,,,,,,1.2,0.7,1.0*25
###2023-12-09 12:36:25.952614$GPGSV,2,1,08,03,38,276,45,04,22,311,40,16,37,207,45,26,67,207,48*70
###2023-12-09 12:36:25.954970$GPGSV,2,2,08,28,57,057,44,29,25,073,40,31,73,004,47,32,29,134,41*7F
###2023-12-09 12:36:25.957299$GLGSV,2,1,05,71,56,169,47,72,66,308,47,73,47,034,47,74,71,293,43*6F
###2023-12-09 12:36:25.958774$GLGSV,2,2,05,75,22,241,43,,,,,,,,,,,,*52
###2023-12-09 12:36:25.961093$GAGSV,1,1,04,04,21,311,40,19,82,300,40,21,78,175,46,27,41,049,44*69
###2023-12-09 12:36:25.963431$GBGSV,2,1,05,14,55,197,46,24,80,348,48,25,33,253,45,26,35,057,44*6A
###2023-12-09 12:36:25.964886$GBGSV,2,2,05,33,63,253,48,,,,,,,,,,,,*53
###2023-12-09 12:36:25.966176$GNVTG,97.29,T,,M,3.09,N,5.72,K,A*1C
###2023-12-09 12:36:25.967837$GNGST,173625.10,18.000,,,,0.080,0.069,0.160*5B
###2023-12-09 12:36:25.969132$GNZDA,173625.10,09,12,2023,00,00*74
###2023-12-09 12:36:25.969772$GNEBP,,,,,,M*13
###2023-12-09 12:36:26.136564$GNGGA,173625.30,4138.0436656,N,07032.3880392,W,1,23,0.7,13.268,M,-29.745,M,0.0,*56
###2023-12-09 12:36:26.336532$GNGGA,173625.50,4138.0436652,N,07032.3878006,W,1,23,0.7,13.281,M,-29.745,M,0.0,*5A
###2023-12-09 12:36:26.536881$GNGGA,173625.70,4138.0436550,N,07032.3875689,W,1,23,0.7,13.263,M,-29.745,M,0.0,*59
###2023-12-09 12:36:26.734859$GNGGA,173625.90,4138.0436752,N,07032.3873510,W,1,23,0.7,13.288,M,-29.745,M,0.0,*57
###2023-12-09 12:36:26.936276$GNRMC,173626.10,A,4138.0436979,N,07032.3871185,W,3.15,82.25,091223,,,A*6A
###2023-12-09 12:36:26.939149$GNGGA,173626.10,4138.0436979,N,07032.3871185,W,1,23,0.7,13.293,M,-29.745,M,0.0,*5B
###2023-12-09 12:36:26.941006$GPGSA,A,3,03,04,16,26,28,29,31,32,,,,,1.2,0.7,1.0*31
###2023-12-09 12:36:26.942670$GLGSA,A,3,71,72,73,74,75,,,,,,,,1.2,0.7,1.0*2D
###2023-12-09 12:36:26.944257$GAGSA,A,3,04,19,21,27,,,,,,,,,1.2,0.7,1.0*2C
###2023-12-09 12:36:26.945912$GBGSA,A,3,14,24,25,26,33,,,,,,,,1.2,0.7,1.0*25
###2023-12-09 12:36:26.948294$GPGSV,2,1,08,03,38,276,44,04,22,311,40,16,37,207,45,26,67,207,47*7E
###2023-12-09 12:36:26.950721$GPGSV,2,2,08,28,57,057,43,29,25,073,41,31,73,004,47,32,29,134,43*7B
###2023-12-09 12:36:26.953060$GLGSV,2,1,05,71,56,169,48,72,66,308,47,73,47,034,46,74,71,293,43*61
###2023-12-09 12:36:26.954507$GLGSV,2,2,05,75,22,241,43,,,,,,,,,,,,*52
###2023-12-09 12:36:26.956849$GAGSV,1,1,04,04,21,311,40,19,82,300,41,21,78,175,46,27,41,049,43*6F
###2023-12-09 12:36:26.959192$GBGSV,2,1,05,14,55,197,46,24,80,348,49,25,33,253,46,26,35,057,44*68
###2023-12-09 12:36:26.960644$GBGSV,2,2,05,33,63,253,47,,,,,,,,,,,,*5C
###2023-12-09 12:36:26.961974$GNVTG,82.25,T,,M,3.15,N,5.83,K,A*17
###2023-12-09 12:36:26.963650$GNGST,173626.10,18.000,,,,0.080,0.070,0.160*50
###2023-12-09 12:36:26.964944$GNZDA,173626.10,09,12,2023,00,00*77
###2023-12-09 12:36:26.965583$GNEBP,,,,,,M*13
###2023-12-09 12:36:27.137385$GNGGA,173626.30,4138.0437289,N,07032.3869057,W,1,23,0.7,13.274,M,-29.745,M,0.0,*52
###2023-12-09 12:36:27.336555$GNGGA,173626.50,4138.0437661,N,07032.3866861,W,1,23,0.7,13.284,M,-29.745,M,0.0,*5B
###2023-12-09 12:36:27.536827$GNGGA,173626.70,4138.0438004,N,07032.3864600,W,1,23,0.7,13.288,M,-29.745,M,0.0,*54
###2023-12-09 12:36:27.735763$GNGGA,173626.90,4138.0438302,N,07032.3862359,W,1,23,0.7,13.279,M,-29.745,M,0.0,*5E
###2023-12-09 12:36:27.936198$GNRMC,173627.10,A,4138.0438574,N,07032.3860086,W,3.07,80.49,091223,,,A*6D
###2023-12-09 12:36:27.939054$GNGGA,173627.10,4138.0438574,N,07032.3860086,W,1,23,0.7,13.281,M,-29.745,M,0.0,*54
###2023-12-09 12:36:27.940906$GPGSA,A,3,03,04,16,26,28,29,31,32,,,,,1.2,0.7,1.0*31
###2023-12-09 12:36:27.942553$GLGSA,A,3,71,72,73,74,75,,,,,,,,1.2,0.7,1.0*2D
###2023-12-09 12:36:27.944141$GAGSA,A,3,04,19,21,27,,,,,,,,,1.2,0.7,1.0*2C
###2023-12-09 12:36:27.945789$GBGSA,A,3,14,24,25,26,33,,,,,,,,1.2,0.7,1.0*25
###2023-12-09 12:36:27.948131$GPGSV,2,1,08,03,38,276,44,04,22,311,39,16,37,207,45,26,67,207,48*7F
###2023-12-09 12:36:27.950475$GPGSV,2,2,08,28,57,057,44,29,25,073,41,31,73,004,47,32,29,134,43*7C
###2023-12-09 12:36:27.952819$GLGSV,2,1,05,71,56,169,48,72,66,308,47,73,47,034,46,74,71,293,42*60
###2023-12-09 12:36:27.954310$GLGSV,2,2,05,75,22,241,43,,,,,,,,,,,,*52
###2023-12-09 12:36:27.956655$GAGSV,1,1,04,04,21,311,40,19,82,300,41,21,78,175,46,27,41,049,44*68
###2023-12-09 12:36:27.959000$GBGSV,2,1,05,14,55,197,46,24,80,348,48,25,33,253,44,26,35,057,44*6B
###2023-12-09 12:36:27.960444$GBGSV,2,2,05,33,63,253,48,,,,,,,,,,,,*53
###2023-12-09 12:36:27.961727$GNVTG,80.49,T,,M,3.07,N,5.69,K,A*18
###2023-12-09 12:36:27.963381$GNGST,173627.10,19.000,,,,0.080,0.070,0.160*50
###2023-12-09 12:36:27.964671$GNZDA,173627.10,09,12,2023,00,00*76
###2023-12-09 12:36:27.965306$GNEBP,,,,,,M*13
###2023-12-09 12:36:28.136520$GNGGA,173627.30,4138.0438881,N,07032.3857783,W,1,23,0.7,13.283,M,-29.745,M,0.0,*55
###2023-12-09 12:36:28.336280$GNGGA,173627.50,4138.0439131,N,07032.3855435,W,1,23,0.7,13.274,M,-29.745,M,0.0,*54
###2023-12-09 12:36:28.534662$GNGGA,173627.70,4138.0439250,N,07032.3853127,W,1,23,0.7,13.262,M,-29.745,M,0.0,*55
###2023-12-09 12:36:28.734806$GNGGA,173627.90,4138.0439320,N,07032.3850785,W,1,23,0.7,13.268,M,-29.745,M,0.0,*5A
###2023-12-09 12:36:28.937131$GNRMC,173628.10,A,4138.0439310,N,07032.3848429,W,3.11,91.21,091223,,,A*65
###2023-12-09 12:36:28.940035$GNGGA,173628.10,4138.0439310,N,07032.3848429,W,1,23,0.7,13.257,M,-29.745,M,0.0,*5E
###2023-12-09 12:36:28.942150$GPGSA,A,3,03,04,16,26,28,29,31,32,,,,,1.2,0.7,1.0*31
###2023-12-09 12:36:28.943839$GLGSA,A,3,71,72,73,74,75,,,,,,,,1.2,0.7,1.0*2D
###2023-12-09 12:36:28.945438$GAGSA,A,3,04,19,21,27,,,,,,,,,1.2,0.7,1.0*2C
###2023-12-09 12:36:28.947120$GBGSA,A,3,14,24,25,26,33,,,,,,,,1.2,0.7,1.0*25
###2023-12-09 12:36:28.949467$GPGSV,2,1,08,03,38,276,45,04,22,311,42,16,37,207,46,26,67,207,48*71
###2023-12-09 12:36:28.951852$GPGSV,2,2,08,28,57,057,45,29,25,073,40,31,73,004,47,32,29,134,42*7D
###2023-12-09 12:36:28.954196$GLGSV,2,1,05,71,56,169,47,72,66,308,47,73,47,034,47,74,71,293,43*6F
###2023-12-09 12:36:28.955674$GLGSV,2,2,05,75,22,241,42,,,,,,,,,,,,*53
###2023-12-09 12:36:28.958008$GAGSV,1,1,04,04,21,311,40,19,82,300,41,21,78,175,46,27,41,049,44*68
###2023-12-09 12:36:28.960357$GBGSV,2,1,05,14,55,197,44,24,80,348,47,25,33,253,43,26,35,057,45*60
