###2023-12-09 13:14:25.009055$GNEBP,,,,,,M*13
###2023-12-09 13:14:25.175016$GNGGA,181424.30,4138.0399492,N,07032.3248948,W,1,24,0.7,13.059,M,-29.744,M,0.0,*55
###2023-12-09 13:14:25.374860$GNGGA,181424.50,4138.0397703,N,07032.3248309,W,1,24,0.7,13.052,M,-29.744,M,0.0,*52
###2023-12-09 13:14:25.575747$GNGGA,181424.70,4138.0396045,N,07032.3247487,W,1,24,0.7,13.046,M,-29.744,M,0.0,*5F
###2023-12-09 13:14:25.775655$GNGGA,181424.90,4138.0394317,N,07032.3246728,W,1,24,0.7,13.054,M,-29.744,M,0.0,*53
###2023-12-09 13:14:25.978159$GNRMC,181425.10,A,4138.0392497,N,07032.3246003,W,3.34,160.86,091223,,,A*54
###2023-12-09 13:14:25.981054$GNGGA,181425.10,4138.0392497,N,07032.3246003,W,1,24,0.7,13.049,M,-29.744,M,0.0,*51
###2023-12-09 13:14:25.982858$GPGSA,A,3,03,04,16,26,28,29,31,,,,,,1.2,0.7,1.0*30
###2023-12-09 13:14:25.984562$GLGSA,A,3,65,71,72,73,74,75,,,,,,,1.2,0.7,1.0*2E
###2023-12-09 13:14:25.986138$GAGSA,A,3,04,19,21,27,,,,,,,,,1.2,0.7,1.0*2C
###2023-12-09 13:14:25.987860$GBGSA,A,3,14,24,25,26,33,35,,,,,,,1.2,0.7,1.0*23
###2023-12-09 13:14:25.990185$GPGSV,2,1,07,03,32,255,43,04,38,311,44,16,56,215,45,26,86,209,48*78
###2023-12-09 13:14:25.992232$GPGSV,2,2,07,28,45,076,44,29,24,055,44,31,65,050,47,,,,*4E
###2023-12-09 13:14:25.994557$GLGSV,2,1,06,65,29,325,42,71,34,174,43,72,71,246,47,73,31,045,45*68
###2023-12-09 13:14:25.996317$GLGSV,2,2,06,74,66,353,43,75,36,259,47,,,,,,,,*68
###2023-12-09 13:14:25.998652$GAGSV,1,1,04,04,33,312,42,19,80,192,40,21,84,066,46,27,29,048,43*68
###2023-12-09 13:14:26.000979$GBGSV,2,1,06,14,37,191,42,24,70,034,48,25,44,267,48,26,22,065,44*65
###2023-12-09 13:14:26.002737$GBGSV,2,2,06,33,53,226,48,35,15,065,44,,,,,,,,*60
###2023-12-09 13:14:26.004060$GNVTG,160.86,T,,M,3.34,N,6.19,K,A*20
###2023-12-09 13:14:26.005695$GNGST,181425.10,18.000,,,,0.100,0.072,0.170*56
###2023-12-09 13:14:26.007023$GNZDA,181425.10,09,12,2023,00,00*7B
###2023-12-09 13:14:26.007664$GNEBP,,,,,,M*13
###2023-12-09 13:14:26.174686$GNGGA,181425.30,4138.0390849,N,07032.3245054,W,1,24,0.7,13.048,M,-29.744,M,0.0,*5E
###2023-12-09 13:14:26.375245$GNGGA,181425.50,4138.0389249,N,07032.3243908,W,1,24,0.7,13.056,M,-29.744,M,0.0,*53
###2023-12-09 13:14:26.575557$GNGGA,181425.70,4138.0387648,N,07032.3242709,W,1,24,0.7,13.050,M,-29.744,M,0.0,*52
###2023-12-09 13:14:26.775605$GNGGA,181425.90,4138.0386081,N,07032.3241464,W,1,24,0.7,13.048,M,-29.744,M,0.0,*5C
###2023-12-09 13:14:26.978962$GNRMC,181426.10,A,4138.0384460,N,07032.3240213,W,3.34,148.89,091223,,,A*58
###2023-12-09 13:14:26.981836$GNGGA,181426.10,4138.0384460,N,07032.3240213,W,1,24,0.7,13.057,M,-29.744,M,0.0,*57
###2023-12-09 13:14:26.983633$GPGSA,A,3,03,04,16,26,28,29,31,,,,,,1.2,0.7,1.0*30
###2023-12-09 13:14:26.985336$GLGSA,A,3,65,71,72,73,74,75,,,,,,,1.2,0.7,1.0*2E
###2023-12-09 13:14:26.986922$GAGSA,A,3,04,19,21,27,,,,,,,,,1.2,0.7,1.0*2C
###2023-12-09 13:14:26.988628$GBGSA,A,3,14,24,25,26,33,35,,,,,,,1.2,0.7,1.0*23
###2023-12-09 13:14:26.990951$GPGSV,2,1,07,03,32,255,44,04,38,311,45,16,56,215,47,26,86,209,48*7C
###2023-12-09 13:14:26.992979$GPGSV,2,2,07,28,45,076,45,29,24,055,43,31,65,050,47,,,,*48
###2023-12-09 13:14:26.995311$GLGSV,2,1,06,65,29,325,44,71,34,174,42,72,71,246,47,73,31,045,45*6F
###2023-12-09 13:14:26.997053$GLGSV,2,2,06,74,66,353,43,75,36,259,46,,,,,,,,*69
###2023-12-09 13:14:26.999381$GAGSV,1,1,04,04,33,312,43,19,80,192,40,21,84,066,45,27,29,048,42*6B
###2023-12-09 13:14:27.001698$GBGSV,2,1,06,14,37,191,43,24,70,034,49,25,44,267,48,26,22,065,45*64
###2023-12-09 13:14:27.003452$GBGSV,2,2,06,33,53,226,48,35,15,065,45,,,,,,,,*61
###2023-12-09 13:14:27.004775$GNVTG,148.89,T,,M,3.34,N,6.19,K,A*25
###2023-12-09 13:14:27.006413$GNGST,181426.10,18.000,,,,0.100,0.072,0.170*55
###2023-12-09 13:14:27.007707$GNZDA,181426.10,09,12,2023,00,00*78
###2023-12-09 13:14:27.008347$GNEBP,,,,,,M*13
###2023-12-09 13:14:27.177621$GNGGA,181426.30,4138.0382997,N,07032.3238764,W,1,24,0.7,13.057,M,-29.744,M,0.0,*5C
###2023-12-09 13:14:27.375287$GNGGA,181426.50,4138.0381671,N,07032.3237152,W,1,24,0.7,13.061,M,-29.744,M,0.0,*57
###2023-12-09 13:14:27.575642$GNGGA,181426.70,4138.0380358,N,07032.3235521,W,1,24,0.7,13.065,M,-29.744,M,0.0,*5C
###2023-12-09 13:14:27.775827$GNGGA,181426.90,4138.0379021,N,07032.3233829,W,1,24,0.7,13.065,M,-29.744,M,0.0,*5A
###2023-12-09 13:14:27.979022$GNRMC,181427.10,A,4138.0377817,N,07032.3232092,W,3.19,127.27,091223,,,A*55
###2023-12-09 13:14:27.981869$GNGGA,181427.10,4138.0377817,N,07032.3232092,W,1,24,0.7,13.068,M,-29.744,M,0.0,*54
###2023-12-09 13:14:27.983666$GPGSA,A,3,03,04,16,26,28,29,31,,,,,,1.2,0.7,1.0*30
###2023-12-09 13:14:27.985381$GLGSA,A,3,65,71,72,73,74,75,,,,,,,1.2,0.7,1.0*2E
###2023-12-09 13:14:27.986975$GAGSA,A,3,04,19,21,27,,,,,,,,,1.2,0.7,1.0*2C
###2023-12-09 13:14:27.988693$GBGSA,A,3,14,24,25,26,33,35,,,,,,,1.2,0.7,1.0*23
###2023-12-09 13:14:27.991027$GPGSV,2,1,07,03,32,255,43,04,38,311,45,16,56,215,47,26,86,209,48*7B
###2023-12-09 13:14:27.993048$GPGSV,2,2,07,28,45,076,45,29,24,055,43,31,65,050,46,,,,*49
###2023-12-09 13:14:27.995383$GLGSV,2,1,06,65,29,325,43,71,34,174,42,72,71,246,47,73,31,045,45*68
###2023-12-09 13:14:27.997126$GLGSV,2,2,06,74,66,353,43,75,36,259,46,,,,,,,,*69
###2023-12-09 13:14:27.999460$GAGSV,1,1,04,04,33,312,44,19,80,192,40,21,84,066,45,27,29,048,42*6C
###2023-12-09 13:14:28.001778$GBGSV,2,1,06,14,37,191,43,24,70,034,48,25,44,267,47,26,22,065,44*6B
###2023-12-09 13:14:28.003531$GBGSV,2,2,06,33,53,226,48,35,15,065,45,,,,,,,,*61
###2023-12-09 13:14:28.004856$GNVTG,127.27,T,,M,3.19,N,5.90,K,A*25
###2023-12-09 13:14:28.006508$GNGST,181427.10,18.000,,,,0.100,0.071,0.170*57
###2023-12-09 13:14:28.007814$GNZDA,181427.10,09,12,2023,00,00*79
###2023-12-09 13:14:28.008451$GNEBP,,,,,,M*13
###2023-12-09 13:14:28.174753$GNGGA,181427.30,4138.0376727,N,07032.3230150,W,1,24,0.7,13.082,M,-29.744,M,0.0,*52
###2023-12-09 13:14:28.374978$GNGGA,181427.50,4138.0375605,N,07032.3228221,W,1,24,0.7,13.070,M,-29.744,M,0.0,*57
###2023-12-09 13:14:28.575597$GNGGA,181427.70,4138.0374580,N,07032.3226241,W,1,24,0.7,13.070,M,-29.744,M,0.0,*52
###2023-12-09 13:14:28.775669$GNGGA,181427.90,4138.0373599,N,07032.3224179,W,1,24,0.7,13.078,M,-29.744,M,0.0,*51
###2023-12-09 13:14:28.978963$GNRMC,181428.10,A,4138.0372693,N,07032.3222036,W,3.23,117.62,091223,,,A*59
###2023-12-09 13:14:28.981812$GNGGA,181428.10,4138.0372693,N,07032.3222036,W,1,24,0.7,13.069,M,-29.744,M,0.0,*52
###2023-12-09 13:14:28.983608$GPGSA,A,3,03,04,16,26,28,29,31,,,,,,1.2,0.7,1.0*30
###2023-12-09 13:14:28.985309$GLGSA,A,3,65,71,72,73,74,75,,,,,,,1.2,0.7,1.0*2E
###2023-12-09 13:14:28.986898$GAGSA,A,3,04,19,21,27,,,,,,,,,1.2,0.7,1.0*2C
###2023-12-09 13:14:28.988607$GBGSA,A,3,14,24,25,26,33,35,,,,,,,1.2,0.7,1.0*23
###2023-12-09 13:14:28.990942$GPGSV,2,1,07,03,32,255,42,04,38,311,43,16,56,215,47,26,86,209,48*7C
###2023-12-09 13:14:28.992973$GPGSV,2,2,07,28,45,076,45,29,24,055,43,31,65,050,47,,,,*48
###2023-12-09 13:14:28.995307$GLGSV,2,1,06,65,29,325,41,71,34,174,43,72,71,246,47,73,31,045,43*6D
###2023-12-09 13:14:28.997055$GLGSV,2,2,06,74,66,353,42,75,36,259,47,,,,,,,,*69
###2023-12-09 13:14:28.999397$GAGSV,1,1,04,04,33,312,42,19,80,192,40,21,84,066,45,27,29,048,42*6A
###2023-12-09 13:14:29.001727$GBGSV,2,1,06,14,37,191,43,24,69,035,49,25,44,267,47,26,22,065,43*64
###2023-12-09 13:14:29.003478$GBGSV,2,2,06,33,53,226,48,35,15,065,44,,,,,,,,*60
###2023-12-09 13:14:29.004802$GNVTG,117.62,T,,M,3.23,N,5.98,K,A*26
###2023-12-09 13:14:29.006445$GNGST,181428.10,18.000,,,,0.100,0.071,0.170*58
###2023-12-09 13:14:29.007742$GNZDA,181428.10,09,12,2023,00,00*76
###2023-12-09 13:14:29.008382$GNEBP,,,,,,M*13
###2023-12-09 13:14:29.174745$GNGGA,181428.30,4138.0371924,N,07032.3219895,W,1,24,0.7,13.070,M,-29.744,M,0.0,*51
###2023-12-09 13:14:29.374878$GNGGA,181428.50,4138.0371192,N,07032.3217638,W,1,24,0.7,13.074,M,-29.744,M,0.0,*51
###2023-12-09 13:14:29.576304$GNGGA,181428.70,4138.0370440,N,07032.3215379,W,1,24,0.7,13.065,M,-29.744,M,0.0,*5A
###2023-12-09 13:14:29.776660$GNGGA,181428.90,4138.0369954,N,07032.3213050,W,1,24,0.7,13.068,M,-29.744,M,0.0,*57
###2023-12-09 13:14:29.984790$GNRMC,181429.10,A,4138.0369425,N,07032.3210678,W,3.23,107.77,091223,,,A*55
###2023-12-09 13:14:29.987908$GNGGA,181429.10,4138.0369425,N,07032.3210678,W,1,24,0.7,13.072,M,-29.744,M,0.0,*51
###2023-12-09 13:14:29.989719$GPGSA,A,3,03,04,16,26,28,29,31,,,,,,1.2,0.7,1.0*30
###2023-12-09 13:14:29.991453$GLGSA,A,3,65,71,72,73,74,75,,,,,,,1.2,0.7,1.0*2E
###2023-12-09 13:14:29.993031$GAGSA,A,3,04,19,21,27,,,,,,,,,1.2,0.7,1.0*2C
###2023-12-09 13:14:29.994747$GBGSA,A,3,14,24,25,26,33,35,,,,,,,1.2,0.7,1.0*23
###2023-12-09 13:14:29.997067$GPGSV,2,1,07,03,32,255,44,04,38,311,44,16,56,215,47,26,86,209,49*7C
###2023-12-09 13:14:29.999124$GPGSV,2,2,07,28,45,076,44,29,24,055,43,31,65,050,47,,,,*49
###2023-12-09 13:14:30.001444$GLGSV,2,1,06,65,29,325,42,71,34,174,44,72,71,246,47,73,31,045,43*69
###2023-12-09 13:14:30.003193$GLGSV,2,2,06,74,66,353,43,75,36,259,47,,,,,,,,*68
###2023-12-09 13:14:30.005508$GAGSV,1,1,04,04,33,312,41,19,80,192,40,21,84,066,45,27,29,048,42*69
