###2023-12-09 13:34:49.025823$GBGSV,2,2,07,26,16,071,44,33,45,217,48,35,16,056,44,,,,*52
###2023-12-09 13:34:49.027207$GNVTG,257.17,T,,M,3.15,N,5.83,K,A*2C
###2023-12-09 13:34:49.028838$GNGST,183448.10,5.600,,,,0.083,0.068,0.150*66
###2023-12-09 13:34:49.030145$GNZDA,183448.10,09,12,2023,00,00*72
###2023-12-09 13:34:49.030811$GNEBP,,,,,,M*13
###2023-12-09 13:34:49.194445$GNGGA,183448.30,4138.0464292,N,07032.4096897,W,1,27,0.6,13.306,M,-29.745,M,0.0,*51
###2023-12-09 13:34:49.393619$GNGGA,183448.50,4138.0463883,N,07032.4099201,W,1,27,0.6,13.309,M,-29.745,M,0.0,*5F
###2023-12-09 13:34:49.592848$GNGGA,183448.70,4138.0463440,N,07032.4101513,W,1,27,0.6,13.316,M,-29.745,M,0.0,*54
###2023-12-09 13:34:49.796394$GNGGA,183448.90,4138.0462960,N,07032.4103818,W,1,27,0.6,13.320,M,-29.745,M,0.0,*55
###2023-12-09 13:34:49.998424$GNRMC,183449.10,A,4138.0462440,N,07032.4106117,W,3.25,252.11,091223,,,A*56
###2023-12-09 13:34:50.001412$GNGGA,183449.10,4138.0462440,N,07032.4106117,W,1,27,0.6,13.326,M,-29.745,M,0.0,*56
###2023-12-09 13:34:50.003287$GPGSA,A,3,03,04,16,26,27,28,29,31,,,,,1.0,0.6,0.8*3F
###2023-12-09 13:34:50.005071$GLGSA,A,3,65,71,72,73,74,75,83,,,,,,1.0,0.6,0.8*2F
###2023-12-09 13:34:50.006675$GAGSA,A,3,04,19,21,27,,,,,,,,,1.0,0.6,0.8*26
###2023-12-09 13:34:50.008464$GBGSA,A,3,12,14,24,25,26,33,35,,,,,,1.0,0.6,0.8*2A
###2023-12-09 13:34:50.010808$GPGSV,2,1,08,03,27,247,39,04,46,308,44,16,66,222,45,26,84,040,48*76
###2023-12-09 13:34:50.013143$GPGSV,2,2,08,27,16,172,40,28,38,084,45,29,21,047,43,31,59,066,46*7F
###2023-12-09 13:34:50.015496$GLGSV,2,1,07,65,39,318,42,71,22,175,46,72,62,220,45,73,22,052,44*60
###2023-12-09 13:34:50.017553$GLGSV,2,2,07,74,59,015,43,75,44,272,45,83,15,048,36,,,,*5C
###2023-12-09 13:34:50.019893$GAGSV,1,1,04,04,40,310,42,19,72,181,41,21,77,046,46,27,22,050,41*6E
###2023-12-09 13:34:50.022232$GBGSV,2,1,07,12,15,126,41,14,29,190,41,24,62,046,47,25,51,276,44*68
###2023-12-09 13:34:50.024281$GBGSV,2,2,07,26,16,071,44,33,45,217,47,35,16,056,44,,,,*5D
###2023-12-09 13:34:50.025608$GNVTG,252.11,T,,M,3.25,N,6.01,K,A*25
###2023-12-09 13:34:50.027231$GNGST,183449.10,5.800,,,,0.083,0.069,0.150*68
###2023-12-09 13:34:50.028523$GNZDA,183449.10,09,12,2023,00,00*73
###2023-12-09 13:34:50.029163$GNEBP,,,,,,M*13
###2023-12-09 13:34:50.194488$GNGGA,183449.30,4138.0461866,N,07032.4108417,W,1,27,0.6,13.333,M,-29.745,M,0.0,*50
###2023-12-09 13:34:50.396400$GNGGA,183449.50,4138.0461283,N,07032.4110706,W,1,27,0.6,13.334,M,-29.745,M,0.0,*5A
###2023-12-09 13:34:50.596564$GNGGA,183449.70,4138.0460662,N,07032.4112980,W,1,27,0.6,13.343,M,-29.745,M,0.0,*50
###2023-12-09 13:34:50.797323$GNGGA,183449.90,4138.0460007,N,07032.4115233,W,1,27,0.6,13.343,M,-29.745,M,0.0,*5F
###2023-12-09 13:34:51.000654$GNRMC,183450.10,A,4138.0459302,N,07032.4117434,W,3.25,247.50,091223,,,A*52
###2023-12-09 13:34:51.004171$GNGGA,183450.10,4138.0459302,N,07032.4117434,W,1,27,0.6,13.347,M,-29.745,M,0.0,*54
###2023-12-09 13:34:51.006426$GPGSA,A,3,03,04,16,26,27,28,29,31,,,,,1.0,0.6,0.8*3F
###2023-12-09 13:34:51.008596$GLGSA,A,3,65,71,72,73,74,75,83,,,,,,1.0,0.6,0.8*2F
###2023-12-09 13:34:51.010497$GAGSA,A,3,04,19,21,27,,,,,,,,,1.0,0.6,0.8*26
###2023-12-09 13:34:51.012661$GBGSA,A,3,12,14,24,25,26,33,35,,,,,,1.0,0.6,0.8*2A
###2023-12-09 13:34:51.015497$GPGSV,2,1,08,03,27,247,41,04,46,308,44,16,66,222,45,26,84,040,48*79
###2023-12-09 13:34:51.018311$GPGSV,2,2,08,27,16,172,41,28,38,084,44,29,21,047,43,31,59,066,46*7F
###2023-12-09 13:34:51.021143$GLGSV,2,1,07,65,39,318,42,71,22,175,46,72,62,220,44,73,22,052,44*61
###2023-12-09 13:34:51.023623$GLGSV,2,2,07,74,59,015,43,75,44,272,45,83,15,048,37,,,,*5D
###2023-12-09 13:34:51.026433$GAGSV,1,1,04,04,40,310,42,19,72,181,41,21,77,046,46,27,22,050,41*6E
###2023-12-09 13:34:51.029262$GBGSV,2,1,07,12,15,126,42,14,29,190,42,24,62,046,48,25,51,276,45*66
###2023-12-09 13:34:51.031745$GBGSV,2,2,07,26,16,071,44,33,45,217,46,35,16,056,45,,,,*5D
###2023-12-09 13:34:51.033349$GNVTG,247.50,T,,M,3.25,N,6.01,K,A*24
###2023-12-09 13:34:51.035323$GNGST,183450.10,5.100,,,,0.083,0.069,0.150*69
###2023-12-09 13:34:51.036921$GNZDA,183450.10,09,12,2023,00,00*7B
###2023-12-09 13:34:51.037696$GNEBP,,,,,,M*13
###2023-12-09 13:34:51.199838$GNGGA,183450.30,4138.0458601,N,07032.4119616,W,1,27,0.6,13.355,M,-29.745,M,0.0,*5E
###2023-12-09 13:34:51.395254$GNGGA,183450.50,4138.0457869,N,07032.4121801,W,1,27,0.6,13.363,M,-29.745,M,0.0,*51
###2023-12-09 13:34:51.595941$GNGGA,183450.70,4138.0457127,N,07032.4123971,W,1,27,0.6,13.370,M,-29.745,M,0.0,*56
###2023-12-09 13:34:51.796721$GNGGA,183450.90,4138.0456339,N,07032.4126113,W,1,27,0.6,13.376,M,-29.745,M,0.0,*5B
###2023-12-09 13:34:51.999382$GNRMC,183451.10,A,4138.0455525,N,07032.4128239,W,3.23,241.64,091223,,,A*5C
###2023-12-09 13:34:52.002254$GNGGA,183451.10,4138.0455525,N,07032.4128239,W,1,27,0.6,13.375,M,-29.745,M,0.0,*5C
###2023-12-09 13:34:52.004132$GPGSA,A,3,03,04,16,26,27,28,29,31,,,,,1.0,0.6,0.8*3F
###2023-12-09 13:34:52.005918$GLGSA,A,3,65,71,72,73,74,75,83,,,,,,1.0,0.6,0.8*2F
###2023-12-09 13:34:52.007515$GAGSA,A,3,04,19,21,27,,,,,,,,,1.0,0.6,0.8*26
###2023-12-09 13:34:52.009294$GBGSA,A,3,12,14,24,25,26,33,35,,,,,,1.0,0.6,0.8*2A
###2023-12-09 13:34:52.011641$GPGSV,2,1,08,03,27,247,40,04,46,308,43,16,66,222,44,26,84,040,48*7E
###2023-12-09 13:34:52.013982$GPGSV,2,2,08,27,16,172,39,28,38,084,43,29,21,047,43,31,59,066,45*74
###2023-12-09 13:34:52.016335$GLGSV,2,1,07,65,39,318,42,71,22,175,43,72,62,220,44,73,22,052,44*64
###2023-12-09 13:34:52.018377$GLGSV,2,2,07,74,59,015,43,75,44,272,46,83,15,048,37,,,,*5E
###2023-12-09 13:34:52.020723$GAGSV,1,1,04,04,40,310,43,19,72,181,41,21,77,046,46,27,22,050,41*6F
###2023-12-09 13:34:52.023078$GBGSV,2,1,07,12,15,126,42,14,29,190,44,24,62,046,48,25,51,276,46*63
###2023-12-09 13:34:52.025133$GBGSV,2,2,07,26,16,071,45,33,45,217,47,35,16,056,46,,,,*5E
###2023-12-09 13:34:52.026462$GNVTG,241.64,T,,M,3.23,N,5.98,K,A*20
###2023-12-09 13:34:52.028104$GNGST,183451.10,5.300,,,,0.083,0.069,0.150*6A
###2023-12-09 13:34:52.029408$GNZDA,183451.10,09,12,2023,00,00*7A
###2023-12-09 13:34:52.030050$GNEBP,,,,,,M*13
###2023-12-09 13:34:52.197798$GNGGA,183451.30,4138.0454694,N,07032.4130341,W,1,27,0.6,13.378,M,-29.745,M,0.0,*5C
###2023-12-09 13:34:52.395781$GNGGA,183451.50,4138.0453854,N,07032.4132422,W,1,27,0.6,13.381,M,-29.745,M,0.0,*59
###2023-12-09 13:34:52.594684$GNGGA,183451.70,4138.0452978,N,07032.4134453,W,1,27,0.6,13.380,M,-29.745,M,0.0,*54
###2023-12-09 13:34:52.797549$GNGGA,183451.90,4138.0452055,N,07032.4136417,W,1,27,0.6,13.383,M,-29.745,M,0.0,*5D
###2023-12-09 13:34:53.000293$GNRMC,183452.10,A,4138.0451120,N,07032.4138359,W,3.11,238.72,091223,,,A*54
###2023-12-09 13:34:53.003773$GNGGA,183452.10,4138.0451120,N,07032.4138359,W,1,27,0.6,13.389,M,-29.745,M,0.0,*5F
###2023-12-09 13:34:53.006016$GPGSA,A,3,03,04,16,26,27,28,29,31,,,,,1.0,0.6,0.8*3F
###2023-12-09 13:34:53.008179$GLGSA,A,3,65,71,72,73,74,75,83,,,,,,1.0,0.6,0.8*2F
###2023-12-09 13:34:53.010085$GAGSA,A,3,04,19,21,27,,,,,,,,,1.0,0.6,0.8*26
###2023-12-09 13:34:53.012236$GBGSA,A,3,12,14,24,25,26,33,35,,,,,,1.0,0.6,0.8*2A
###2023-12-09 13:34:53.015047$GPGSV,2,1,08,03,27,247,39,04,46,308,44,16,66,222,45,26,84,040,47*79
###2023-12-09 13:34:53.017847$GPGSV,2,2,08,27,16,172,38,28,38,084,43,29,21,047,43,31,59,066,47*77
###2023-12-09 13:34:53.020696$GLGSV,2,1,07,65,39,318,42,71,22,175,45,72,62,220,45,73,22,052,43*64
###2023-12-09 13:34:53.023173$GLGSV,2,2,07,74,59,015,43,75,44,272,46,83,15,048,37,,,,*5E
###2023-12-09 13:34:53.025971$GAGSV,1,1,04,04,40,310,42,19,72,181,40,21,77,046,45,27,22,050,41*6C
###2023-12-09 13:34:53.028769$GBGSV,2,1,07,12,15,126,41,14,29,190,42,24,62,046,47,25,51,276,45*6A
###2023-12-09 13:34:53.031236$GBGSV,2,2,07,26,16,071,44,33,45,217,45,35,16,056,45,,,,*5E
###2023-12-09 13:34:53.032839$GNVTG,238.72,T,,M,3.11,N,5.76,K,A*28
###2023-12-09 13:34:53.034788$GNGST,183452.10,5.400,,,,0.084,0.069,0.150*69
###2023-12-09 13:34:53.036353$GNZDA,183452.10,09,12,2023,00,00*79
###2023-12-09 13:34:53.037121$GNEBP,,,,,,M*13
###2023-12-09 13:34:53.196226$GNGGA,183452.30,4138.0450159,N,07032.4140271,W,1,27,0.6,13.397,M,-29.745,M,0.0,*59
###2023-12-09 13:34:53.394063$GNGGA,183452.50,4138.0449117,N,07032.4142071,W,1,27,0.6,13.387,M,-29.745,M,0.0,*5C
###2023-12-09 13:34:53.595634$GNGGA,183452.70,4138.0448025,N,07032.4143784,W,1,27,0.6,13.384,M,-29.745,M,0.0,*50
###2023-12-09 13:34:53.796321$GNGGA,183452.90,4138.0446918,N,07032.4145473,W,1,27,0.6,13.383,M,-29.745,M,0.0,*5D
###2023-12-09 13:34:53.998480$GNRMC,183453.10,A,4138.0445759,N,07032.4147100,W,2.99,225.03,091223,,,A*55
###2023-12-09 13:34:54.001355$GNGGA,183453.10,4138.0445759,N,07032.4147100,W,1,27,0.6,13.381,M,-29.745,M,0.0,*5D
###2023-12-09 13:34:54.003215$GPGSA,A,3,03,04,16,26,27,28,29,31,,,,,1.0,0.6,0.8*3F
###2023-12-09 13:34:54.004987$GLGSA,A,3,65,71,72,73,74,75,83,,,,,,1.0,0.6,0.8*2F
###2023-12-09 13:34:54.006560$GAGSA,A,3,04,19,21,27,,,,,,,,,1.0,0.6,0.8*26
###2023-12-09 13:34:54.008336$GBGSA,A,3,12,14,24,25,26,33,35,,,,,,1.0,0.6,0.8*2A
###2023-12-09 13:34:54.010659$GPGSV,2,1,08,03,27,247,39,04,46,308,45,16,66,222,45,26,84,040,47*78
