###2023-12-09 12:30:05.123783$GNGGA,173004.30,4138.0384327,N,07032.4369892,W,1,18,0.7,12.667,M,-29.746,M,0.0,*5F
###2023-12-09 12:30:05.324848$GNGGA,173004.50,4138.0384299,N,07032.4369886,W,1,18,0.7,12.681,M,-29.746,M,0.0,*50
###2023-12-09 12:30:05.524778$GNGGA,173004.70,4138.0384268,N,07032.4369891,W,1,18,0.7,12.693,M,-29.746,M,0.0,*59
###2023-12-09 12:30:05.722757$GNGGA,173004.90,4138.0384233,N,07032.4369878,W,1,18,0.7,12.709,M,-29.746,M,0.0,*5C
###2023-12-09 12:30:05.925737$GNRMC,173005.10,A,4138.0384204,N,07032.4369867,W,0.06,,091223,,,A*40
###2023-12-09 12:30:05.928848$GNGGA,173005.10,4138.0384204,N,07032.4369867,W,1,18,0.7,12.727,M,-29.746,M,0.0,*53
###2023-12-09 12:30:05.930901$GPGSA,A,3,03,04,16,26,28,29,31,32,,,,,1.4,0.7,1.2*35
###2023-12-09 12:30:05.932667$GLGSA,A,3,71,72,73,75,,,,,,,,,1.4,0.7,1.2*2A
###2023-12-09 12:30:05.934290$GAGSA,A,3,21,27,,,,,,,,,,,1.4,0.7,1.2*24
###2023-12-09 12:30:05.936048$GBGSA,A,3,14,25,26,33,,,,,,,,,1.4,0.7,1.2*27
###2023-12-09 12:30:05.938532$GPGSV,2,1,08,03,39,280,41,04,20,310,36,16,34,206,42,26,64,206,46*77
###2023-12-09 12:30:05.941042$GPGSV,2,2,08,28,60,053,45,29,25,076,44,31,73,353,44,32,32,133,49*78
###2023-12-09 12:30:05.943546$GLGSV,1,1,04,71,60,168,48,72,63,314,44,73,50,032,42,75,20,239,38*61
###2023-12-09 12:30:05.945476$GAGSV,1,1,02,21,75,179,39,27,43,050,44,,,,,,,,*69
###2023-12-09 12:30:05.948015$GBGSV,1,1,04,14,57,199,44,25,31,251,39,26,37,056,45,33,64,260,36*61
###2023-12-09 12:30:05.949393$GNVTG,,T,,M,0.06,N,0.11,K,A*3B
###2023-12-09 12:30:05.951236$GNGST,173005.10,31.000,,,,0.100,0.097,0.260*5F
###2023-12-09 12:30:05.952712$GNZDA,173005.10,09,12,2023,00,00*70
###2023-12-09 12:30:05.953519$GNEBP,,,,,,M*13
###2023-12-09 12:30:06.124745$GNGGA,173005.30,4138.0384180,N,07032.4369883,W,1,18,0.7,12.737,M,-29.746,M,0.0,*55
###2023-12-09 12:30:06.325518$GNGGA,173005.50,4138.0384157,N,07032.4369880,W,1,18,0.7,12.748,M,-29.746,M,0.0,*52
###2023-12-09 12:30:06.527476$GNGGA,173005.70,4138.0384132,N,07032.4369861,W,1,18,0.7,12.760,M,-29.746,M,0.0,*56
###2023-12-09 12:30:06.725236$GNGGA,173005.90,4138.0384107,N,07032.4369848,W,1,18,0.7,12.773,M,-29.746,M,0.0,*57
###2023-12-09 12:30:06.926039$GNRMC,173006.10,A,4138.0384075,N,07032.4369845,W,0.00,,091223,,,A*41
###2023-12-09 12:30:06.929607$GNGGA,173006.10,4138.0384075,N,07032.4369845,W,1,18,0.7,12.786,M,-29.746,M,0.0,*5F
###2023-12-09 12:30:06.931930$GPGSA,A,3,03,04,16,26,28,29,31,32,,,,,1.4,0.7,1.2*35
###2023-12-09 12:30:06.933928$GLGSA,A,3,71,72,73,75,,,,,,,,,1.4,0.7,1.2*2A
###2023-12-09 12:30:06.935762$GAGSA,A,3,21,27,,,,,,,,,,,1.4,0.7,1.2*24
###2023-12-09 12:30:06.937722$GBGSA,A,3,14,25,26,33,,,,,,,,,1.4,0.7,1.2*27
###2023-12-09 12:30:06.940604$GPGSV,2,1,08,03,39,280,41,04,20,310,36,16,34,206,42,26,64,206,45*74
###2023-12-09 12:30:06.943498$GPGSV,2,2,08,28,60,053,45,29,25,076,44,31,73,353,44,32,32,133,49*78
###2023-12-09 12:30:06.946375$GLGSV,1,1,04,71,60,168,48,72,63,314,44,73,50,032,42,75,20,239,37*6E
###2023-12-09 12:30:06.948616$GAGSV,1,1,02,21,76,178,39,27,43,050,44,,,,,,,,*6B
###2023-12-09 12:30:06.951534$GBGSV,1,1,04,14,57,199,44,25,31,251,39,26,37,056,45,33,64,260,36*61
###2023-12-09 12:30:06.952963$GNVTG,,T,,M,0.00,N,0.00,K,A*3D
###2023-12-09 12:30:06.955031$GNGST,173006.10,31.000,,,,0.100,0.096,0.260*5D
###2023-12-09 12:30:06.956647$GNZDA,173006.10,09,12,2023,00,00*73
###2023-12-09 12:30:06.957474$GNEBP,,,,,,M*13
###2023-12-09 12:30:07.124819$GNGGA,173006.30,4138.0384049,N,07032.4369821,W,1,18,0.7,12.803,M,-29.746,M,0.0,*52
###2023-12-09 12:30:07.325160$GNGGA,173006.50,4138.0384017,N,07032.4369799,W,1,18,0.7,12.822,M,-29.746,M,0.0,*50
###2023-12-09 12:30:07.529402$GNGGA,173006.70,4138.0383991,N,07032.4369796,W,1,18,0.7,12.833,M,-29.746,M,0.0,*5D
###2023-12-09 12:30:07.723388$GNGGA,173006.90,4138.0383969,N,07032.4369785,W,1,18,0.7,12.850,M,-29.746,M,0.0,*53
###2023-12-09 12:30:07.926090$GNRMC,173007.10,A,4138.0383949,N,07032.4369781,W,0.02,,091223,,,A*44
###2023-12-09 12:30:07.929192$GNGGA,173007.10,4138.0383949,N,07032.4369781,W,1,18,0.7,12.869,M,-29.746,M,0.0,*56
###2023-12-09 12:30:07.931265$GPGSA,A,3,03,04,16,26,28,29,31,32,,,,,1.4,0.7,1.2*35
###2023-12-09 12:30:07.933039$GLGSA,A,3,71,72,73,75,,,,,,,,,1.4,0.7,1.2*2A
###2023-12-09 12:30:07.934680$GAGSA,A,3,21,27,,,,,,,,,,,1.4,0.7,1.2*24
###2023-12-09 12:30:07.936438$GBGSA,A,3,14,25,26,33,,,,,,,,,1.4,0.7,1.2*27
###2023-12-09 12:30:07.938940$GPGSV,2,1,08,03,39,280,40,04,20,310,36,16,34,206,42,26,64,206,45*75
###2023-12-09 12:30:07.941436$GPGSV,2,2,08,28,60,053,45,29,25,076,44,31,73,353,44,32,32,133,49*78
###2023-12-09 12:30:07.943931$GLGSV,1,1,04,71,60,168,48,72,63,314,44,73,50,032,42,75,20,239,37*6E
###2023-12-09 12:30:07.945848$GAGSV,1,1,02,21,76,178,38,27,43,050,44,,,,,,,,*6A
###2023-12-09 12:30:07.948369$GBGSV,1,1,04,14,57,199,44,25,31,251,39,26,37,056,45,33,64,260,36*61
###2023-12-09 12:30:07.949709$GNVTG,,T,,M,0.02,N,0.04,K,A*3B
###2023-12-09 12:30:07.951536$GNGST,173007.10,31.000,,,,0.100,0.096,0.260*5C
###2023-12-09 12:30:07.952985$GNZDA,173007.10,09,12,2023,00,00*72
###2023-12-09 12:30:07.953647$GNEBP,,,,,,M*13
###2023-12-09 12:30:08.125872$GNGGA,173007.30,4138.0383922,N,07032.4369758,W,1,18,0.7,12.889,M,-29.746,M,0.0,*53
###2023-12-09 12:30:08.324979$GNGGA,173007.50,4138.0383900,N,07032.4369745,W,1,18,0.7,12.904,M,-29.746,M,0.0,*5D
###2023-12-09 12:30:08.525020$GNGGA,173007.70,4138.0383876,N,07032.4369727,W,1,18,0.7,12.927,M,-29.746,M,0.0,*5A
###2023-12-09 12:30:08.722840$GNGGA,173007.90,4138.0383855,N,07032.4369694,W,1,18,0.7,12.944,M,-29.746,M,0.0,*59
###2023-12-09 12:30:08.932595$GNRMC,173008.10,A,4138.0383829,N,07032.4369682,W,0.04,,091223,,,A*48
###2023-12-09 12:30:08.935468$GNGGA,173008.10,4138.0383829,N,07032.4369682,W,1,18,0.7,12.957,M,-29.746,M,0.0,*50
###2023-12-09 12:30:08.937337$GPGSA,A,3,03,04,16,26,28,29,31,32,,,,,1.4,0.7,1.2*35
###2023-12-09 12:30:08.938953$GLGSA,A,3,71,72,73,75,,,,,,,,,1.4,0.7,1.2*2A
###2023-12-09 12:30:08.940421$GAGSA,A,3,21,27,,,,,,,,,,,1.4,0.7,1.2*24
###2023-12-09 12:30:08.942015$GBGSA,A,3,14,25,26,33,,,,,,,,,1.4,0.7,1.2*27
###2023-12-09 12:30:08.944371$GPGSV,2,1,08,03,39,280,40,04,20,310,35,16,34,206,41,26,64,206,45*75
###2023-12-09 12:30:08.946743$GPGSV,2,2,08,28,60,053,45,29,25,076,44,31,73,353,43,32,32,133,48*7E
###2023-12-09 12:30:08.949110$GLGSV,1,1,04,71,60,168,48,72,63,314,43,73,50,032,42,75,20,239,37*69
###2023-12-09 12:30:08.950901$GAGSV,1,1,02,21,76,178,38,27,43,050,43,,,,,,,,*6D
###2023-12-09 12:30:08.953256$GBGSV,1,1,04,14,57,199,44,25,31,251,39,26,37,056,45,33,64,260,35*62
###2023-12-09 12:30:08.954406$GNVTG,,T,,M,0.04,N,0.07,K,A*3E
###2023-12-09 12:30:08.956085$GNGST,173008.10,31.000,,,,0.100,0.096,0.260*53
###2023-12-09 12:30:08.957401$GNZDA,173008.10,09,12,2023,00,00*7D
###2023-12-09 12:30:08.958056$GNEBP,,,,,,M*13
###2023-12-09 12:30:09.130008$GNGGA,173008.30,4138.0383830,N,07032.4369666,W,1,18,0.7,12.973,M,-29.746,M,0.0,*56
###2023-12-09 12:30:09.325328$GNGGA,173008.50,4138.0383820,N,07032.4369653,W,1,18,0.7,12.992,M,-29.746,M,0.0,*58
###2023-12-09 12:30:09.525802$GNGGA,173008.70,4138.0383802,N,07032.4369619,W,1,18,0.7,13.009,M,-29.746,M,0.0,*5E
###2023-12-09 12:30:09.724734$GNGGA,173008.90,4138.0383798,N,07032.4369609,W,1,18,0.7,13.024,M,-29.746,M,0.0,*52
###2023-12-09 12:30:09.922277$GNRMC,173009.10,A,4138.0383784,N,07032.4369594,W,0.02,,091223,,,A*43
###2023-12-09 12:30:09.925343$GNGGA,173009.10,4138.0383784,N,07032.4369594,W,1,18,0.7,13.034,M,-29.746,M,0.0,*50
###2023-12-09 12:30:09.927387$GPGSA,A,3,03,04,16,26,28,29,31,32,,,,,1.4,0.7,1.2*35
###2023-12-09 12:30:09.929147$GLGSA,A,3,71,72,73,75,,,,,,,,,1.4,0.7,1.2*2A
###2023-12-09 12:30:09.930786$GAGSA,A,3,21,27,,,,,,,,,,,1.4,0.7,1.2*24
###2023-12-09 12:30:09.932534$GBGSA,A,3,14,25,26,33,,,,,,,,,1.4,0.7,1.2*27
###2023-12-09 12:30:09.935032$GPGSV,2,1,08,03,39,280,39,04,20,310,35,16,34,206,41,26,64,206,44*7A
###2023-12-09 12:30:09.937518$GPGSV,2,2,08,28,60,053,45,29,25,076,44,31,73,353,43,32,32,133,48*7E
###2023-12-09 12:30:09.940096$GLGSV,1,1,04,71,59,168,48,72,64,313,42,73,50,032,43,75,20,239,37*63
###2023-12-09 12:30:09.942029$GAGSV,1,1,02,21,76,178,38,27,43,050,43,,,,,,,,*6D
###2023-12-09 12:30:09.944801$GBGSV,1,1,04,14,57,199,44,25,31,251,39,26,37,056,45,33,64,260,35*62
###2023-12-09 12:30:09.946133$GNVTG,,T,,M,0.02,N,0.04,K,A*3B
###2023-12-09 12:30:09.947837$GNGST,173009.10,31.000,,,,0.100,0.098,0.260*5C
###2023-12-09 12:30:09.949177$GNZDA,173009.10,09,12,2023,00,00*7C
###2023-12-09 12:30:09.949841$GNEBP,,,,,,M*13
###2023-12-09 12:30:10.123283$GNGGA,173009.30,4138.0383767,N,07032.4369575,W,1,18,0.7,13.041,M,-29.746,M,0.0,*52
###2023-12-09 12:30:10.323862$GNGGA,173009.50,4138.0383749,N,07032.4369584,W,1,18,0.7,13.038,M,-29.746,M,0.0,*58
###2023-12-09 12:30:10.523844$GNGGA,173009.70,4138.0383712,N,07032.4369539,W,1,18,0.7,13.049,M,-29.746,M,0.0,*54
###2023-12-09 12:30:10.723302$GNGGA,173009.90,4138.0383699,N,07032.4369527,W,1,18,0.7,13.053,M,-29.746,M,0.0,*5C
###2023-12-09 12:30:10.926435$GNRMC,173010.10,A,4138.0383668,N,07032.4369500,W,0.02,,091223,,,A*45
