###2023-12-09 13:06:47.997924$GNVTG,264.14,T,,M,3.11,N,5.76,K,A*21
###2023-12-09 13:06:47.999619$GNGST,180647.10,18.000,,,,0.081,0.067,0.150*5F
###2023-12-09 13:06:48.000920$GNZDA,180647.10,09,12,2023,00,00*7C
###2023-12-09 13:06:48.001564$GNEBP,,,,,,M*13
###2023-12-09 13:06:48.168146$GNGGA,180647.30,4138.0715384,N,07032.3380073,W,1,25,0.6,12.947,M,-29.743,M,0.0,*57
###2023-12-09 13:06:48.371389$GNGGA,180647.50,4138.0715184,N,07032.3382536,W,1,25,0.6,12.945,M,-29.743,M,0.0,*57
###2023-12-09 13:06:48.569086$GNGGA,180647.70,4138.0714971,N,07032.3385049,W,1,25,0.6,12.936,M,-29.743,M,0.0,*58
###2023-12-09 13:06:48.769159$GNGGA,180647.90,4138.0714916,N,07032.3387632,W,1,25,0.6,12.939,M,-29.743,M,0.0,*50
###2023-12-09 13:06:48.971906$GNRMC,180648.10,A,4138.0714901,N,07032.3390251,W,3.50,268.91,091223,,,A*54
###2023-12-09 13:06:48.974772$GNGGA,180648.10,4138.0714901,N,07032.3390251,W,1,25,0.6,12.951,M,-29.743,M,0.0,*58
###2023-12-09 13:06:48.976626$GPGSA,A,3,03,04,16,26,28,29,31,32,,,,,1.1,0.6,0.9*3B
###2023-12-09 13:06:48.978337$GLGSA,A,3,65,71,72,73,74,75,,,,,,,1.1,0.6,0.9*24
###2023-12-09 13:06:48.979933$GAGSA,A,3,04,19,21,27,,,,,,,,,1.1,0.6,0.9*26
###2023-12-09 13:06:48.981640$GBGSA,A,3,14,24,25,26,33,35,,,,,,,1.1,0.6,0.9*29
###2023-12-09 13:06:48.983976$GPGSV,2,1,08,03,34,259,41,04,34,311,43,16,52,213,47,26,82,210,48*78
###2023-12-09 13:06:48.986303$GPGSV,2,2,08,28,48,072,45,29,25,059,42,31,68,042,48,32,17,141,43*77
###2023-12-09 13:06:48.988647$GLGSV,2,1,06,65,26,326,41,71,37,173,46,72,72,258,46,73,33,043,45*6F
###2023-12-09 13:06:48.990394$GLGSV,2,2,06,74,68,345,43,75,34,256,42,,,,,,,,*69
###2023-12-09 13:06:48.992744$GAGSV,1,1,04,04,31,312,41,19,83,203,40,21,85,092,45,27,31,048,41*63
###2023-12-09 13:06:48.995094$GBGSV,2,1,06,14,41,192,43,24,72,029,49,25,42,264,43,26,24,064,43*67
###2023-12-09 13:06:48.996837$GBGSV,2,2,06,33,56,229,47,35,15,067,43,,,,,,,,*60
###2023-12-09 13:06:48.998161$GNVTG,268.91,T,,M,3.50,N,6.48,K,A*2B
###2023-12-09 13:06:48.999824$GNGST,180648.10,18.000,,,,0.080,0.067,0.150*51
###2023-12-09 13:06:49.001115$GNZDA,180648.10,09,12,2023,00,00*73
###2023-12-09 13:06:49.001752$GNEBP,,,,,,M*13
###2023-12-09 13:06:49.168113$GNGGA,180648.30,4138.0714771,N,07032.3392841,W,1,25,0.6,12.949,M,-29.743,M,0.0,*53
###2023-12-09 13:06:49.368159$GNGGA,180648.50,4138.0714647,N,07032.3395411,W,1,25,0.6,12.938,M,-29.743,M,0.0,*59
###2023-12-09 13:06:49.570088$GNGGA,180648.70,4138.0714651,N,07032.3397993,W,1,25,0.6,12.937,M,-29.743,M,0.0,*56
###2023-12-09 13:06:49.769049$GNGGA,180648.90,4138.0714758,N,07032.3400559,W,1,25,0.6,12.939,M,-29.743,M,0.0,*5D
###2023-12-09 13:06:49.971631$GNRMC,180649.10,A,4138.0714878,N,07032.3403062,W,3.36,272.51,091223,,,A*52
###2023-12-09 13:06:49.974492$GNGGA,180649.10,4138.0714878,N,07032.3403062,W,1,25,0.6,12.943,M,-29.743,M,0.0,*5A
###2023-12-09 13:06:49.976366$GPGSA,A,3,03,04,16,26,28,29,31,32,,,,,1.1,0.6,0.9*3B
###2023-12-09 13:06:49.978085$GLGSA,A,3,65,71,72,73,74,75,,,,,,,1.1,0.6,0.9*24
###2023-12-09 13:06:49.979684$GAGSA,A,3,04,19,21,27,,,,,,,,,1.1,0.6,0.9*26
###2023-12-09 13:06:49.981402$GBGSA,A,3,14,24,25,26,33,35,,,,,,,1.1,0.6,0.9*29
###2023-12-09 13:06:49.983741$GPGSV,2,1,08,03,34,259,42,04,34,311,41,16,52,213,46,26,82,210,48*78
###2023-12-09 13:06:49.986065$GPGSV,2,2,08,28,48,072,45,29,25,059,42,31,68,042,48,32,17,141,43*77
###2023-12-09 13:06:49.988405$GLGSV,2,1,06,65,26,326,40,71,37,173,46,72,72,258,46,73,33,043,45*6E
###2023-12-09 13:06:49.990153$GLGSV,2,2,06,74,68,345,42,75,34,256,41,,,,,,,,*6B
###2023-12-09 13:06:49.992487$GAGSV,1,1,04,04,31,312,39,19,83,203,40,21,85,092,46,27,31,048,42*6C
###2023-12-09 13:06:49.994822$GBGSV,2,1,06,14,41,192,45,24,72,029,48,25,42,264,43,26,24,064,42*61
###2023-12-09 13:06:49.996565$GBGSV,2,2,06,33,56,229,48,35,15,067,44,,,,,,,,*68
###2023-12-09 13:06:49.997889$GNVTG,272.51,T,,M,3.36,N,6.23,K,A*21
###2023-12-09 13:06:49.999546$GNGST,180649.10,18.000,,,,0.081,0.067,0.150*51
###2023-12-09 13:06:50.000837$GNZDA,180649.10,09,12,2023,00,00*72
###2023-12-09 13:06:50.001477$GNEBP,,,,,,M*13
###2023-12-09 13:06:50.168048$GNGGA,180649.30,4138.0715020,N,07032.3405523,W,1,25,0.6,12.945,M,-29.743,M,0.0,*5C
###2023-12-09 13:06:50.368685$GNGGA,180649.50,4138.0715286,N,07032.3407957,W,1,25,0.6,12.945,M,-29.743,M,0.0,*59
###2023-12-09 13:06:50.569170$GNGGA,180649.70,4138.0715674,N,07032.3410350,W,1,25,0.6,12.947,M,-29.743,M,0.0,*5B
###2023-12-09 13:06:50.770143$GNGGA,180649.90,4138.0716121,N,07032.3412683,W,1,25,0.6,12.952,M,-29.743,M,0.0,*5C
###2023-12-09 13:06:50.970719$GNRMC,180650.10,A,4138.0716585,N,07032.3415022,W,3.23,284.44,091223,,,A*5D
###2023-12-09 13:06:50.973600$GNGGA,180650.10,4138.0716585,N,07032.3415022,W,1,25,0.6,12.959,M,-29.743,M,0.0,*57
###2023-12-09 13:06:50.975476$GPGSA,A,3,03,04,16,26,28,29,31,32,,,,,1.1,0.6,0.9*3B
###2023-12-09 13:06:50.977195$GLGSA,A,3,65,71,72,73,74,75,,,,,,,1.1,0.6,0.9*24
###2023-12-09 13:06:50.978793$GAGSA,A,3,04,19,21,27,,,,,,,,,1.1,0.6,0.9*26
###2023-12-09 13:06:50.980510$GBGSA,A,3,14,24,25,26,33,35,,,,,,,1.1,0.6,0.9*29
###2023-12-09 13:06:50.982858$GPGSV,2,1,08,03,34,259,42,04,34,311,41,16,52,213,45,26,82,210,48*7B
###2023-12-09 13:06:50.985203$GPGSV,2,2,08,28,48,072,45,29,25,059,41,31,68,042,47,32,17,141,43*7B
###2023-12-09 13:06:50.987561$GLGSV,2,1,06,65,26,326,40,71,37,173,47,72,72,258,46,73,33,043,45*6F
###2023-12-09 13:06:50.989320$GLGSV,2,2,06,74,68,345,42,75,34,256,43,,,,,,,,*69
###2023-12-09 13:06:50.991663$GAGSV,1,1,04,04,31,312,40,19,83,203,40,21,85,092,46,27,31,048,42*62
###2023-12-09 13:06:50.993993$GBGSV,2,1,06,14,41,192,45,24,72,029,48,25,42,264,45,26,24,064,42*67
###2023-12-09 13:06:50.995750$GBGSV,2,2,06,33,56,229,48,35,15,067,42,,,,,,,,*6E
###2023-12-09 13:06:50.997074$GNVTG,284.44,T,,M,3.23,N,5.98,K,A*2B
###2023-12-09 13:06:50.998730$GNGST,180650.10,18.000,,,,0.081,0.067,0.150*59
###2023-12-09 13:06:51.000021$GNZDA,180650.10,09,12,2023,00,00*7A
###2023-12-09 13:06:51.000659$GNEBP,,,,,,M*13
###2023-12-09 13:06:51.171227$GNGGA,180650.30,4138.0717034,N,07032.3417342,W,1,25,0.6,12.957,M,-29.743,M,0.0,*52
###2023-12-09 13:06:51.369621$GNGGA,180650.50,4138.0717475,N,07032.3419656,W,1,25,0.6,12.954,M,-29.743,M,0.0,*58
###2023-12-09 13:06:51.569013$GNGGA,180650.70,4138.0717887,N,07032.3421942,W,1,25,0.6,12.952,M,-29.743,M,0.0,*5C
###2023-12-09 13:06:51.769070$GNGGA,180650.90,4138.0718312,N,07032.3424202,W,1,25,0.6,12.954,M,-29.743,M,0.0,*56
###2023-12-09 13:06:51.970762$GNRMC,180651.10,A,4138.0718757,N,07032.3426453,W,3.11,284.23,091223,,,A*5D
###2023-12-09 13:06:51.973600$GNGGA,180651.10,4138.0718757,N,07032.3426453,W,1,25,0.6,12.957,M,-29.743,M,0.0,*59
###2023-12-09 13:06:51.975464$GPGSA,A,3,03,04,16,26,28,29,31,32,,,,,1.1,0.6,0.9*3B
###2023-12-09 13:06:51.977188$GLGSA,A,3,65,71,72,73,74,75,,,,,,,1.1,0.6,0.9*24
###2023-12-09 13:06:51.978779$GAGSA,A,3,04,19,21,27,,,,,,,,,1.1,0.6,0.9*26
###2023-12-09 13:06:51.980490$GBGSA,A,3,14,24,25,26,33,35,,,,,,,1.1,0.6,0.9*29
###2023-12-09 13:06:51.982825$GPGSV,2,1,08,03,34,259,42,04,34,311,41,16,52,213,45,26,82,210,48*7B
###2023-12-09 13:06:51.985160$GPGSV,2,2,08,28,48,072,45,29,25,059,42,31,68,042,47,32,17,141,43*78
###2023-12-09 13:06:51.987500$GLGSV,2,1,06,65,26,326,40,71,37,173,46,72,72,258,46,73,33,043,45*6E
###2023-12-09 13:06:51.989252$GLGSV,2,2,06,74,68,345,42,75,34,256,43,,,,,,,,*69
###2023-12-09 13:06:51.991590$GAGSV,1,1,04,04,31,312,40,19,83,203,40,21,85,092,46,27,31,048,42*62
###2023-12-09 13:06:51.993926$GBGSV,2,1,06,14,41,192,44,24,72,029,48,25,42,264,44,26,24,064,41*64
###2023-12-09 13:06:51.995682$GBGSV,2,2,06,33,56,229,48,35,15,067,41,,,,,,,,*6D
###2023-12-09 13:06:51.997006$GNVTG,284.23,T,,M,3.11,N,5.76,K,A*2B
###2023-12-09 13:06:51.998663$GNGST,180651.10,18.000,,,,0.081,0.067,0.150*58
###2023-12-09 13:06:51.999952$GNZDA,180651.10,09,12,2023,00,00*7B
###2023-12-09 13:06:52.000592$GNEBP,,,,,,M*13
###2023-12-09 13:06:52.167993$GNGGA,180651.30,4138.0719123,N,07032.3428701,W,1,25,0.6,12.959,M,-29.743,M,0.0,*5B
###2023-12-09 13:06:52.368897$GNGGA,180651.50,4138.0719484,N,07032.3430958,W,1,25,0.6,12.958,M,-29.743,M,0.0,*5F
###2023-12-09 13:06:52.571273$GNGGA,180651.70,4138.0719895,N,07032.3433247,W,1,25,0.6,12.966,M,-29.743,M,0.0,*5A
###2023-12-09 13:06:52.770427$GNGGA,180651.90,4138.0720288,N,07032.3435568,W,1,25,0.6,12.971,M,-29.743,M,0.0,*52
###2023-12-09 13:06:52.973623$GNRMC,180652.10,A,4138.0720608,N,07032.3437946,W,3.30,278.32,091223,,,A*57
###2023-12-09 13:06:52.976533$GNGGA,180652.10,4138.0720608,N,07032.3437946,W,1,25,0.6,12.976,M,-29.743,M,0.0,*50
###2023-12-09 13:06:52.978406$GPGSA,A,3,03,04,16,26,28,29,31,32,,,,,1.1,0.6,0.9*3B
###2023-12-09 13:06:52.980147$GLGSA,A,3,65,71,72,73,74,75,,,,,,,1.1,0.6,0.9*24
###2023-12-09 13:06:52.981743$GAGSA,A,3,04,19,21,27,,,,,,,,,1.1,0.6,0.9*26
###2023-12-09 13:06:52.983475$GBGSA,A,3,14,24,25,26,33,35,,,,,,,1.1,0.6,0.9*29
###2023-12-09 13:06:52.985807$GPGSV,2,1,08,03,34,259,42,04,34,311,43,16,52,213,46,26,82,210,48*7A
###2023-12-09 13:06:52.988166$GPGSV,2,2,08,28,48,072,45,29,25,059,42,31,68,042,48,32,17,141,43*77
