###2023-12-09 13:41:48.028103$GNVTG,284.15,T,,M,3.23,N,5.98,K,A*2F
###2023-12-09 13:41:48.029748$GNGST,184147.10,5.300,,,,0.130,0.097,0.230*62
###2023-12-09 13:41:48.031068$GNZDA,184147.10,09,12,2023,00,00*7F
###2023-12-09 13:41:48.031713$GNEBP,,,,,,M*13
###2023-12-09 13:41:48.199044$GNGGA,184147.30,4138.0375561,N,07032.4170546,W,1,21,0.7,13.243,M,-29.745,M,0.0,*5F
###2023-12-09 13:41:48.398267$GNGGA,184147.50,4138.0376035,N,07032.4172682,W,1,22,0.7,13.246,M,-29.745,M,0.0,*51
###2023-12-09 13:41:48.600664$GNGGA,184147.70,4138.0376487,N,07032.4174722,W,1,22,0.7,13.252,M,-29.745,M,0.0,*56
###2023-12-09 13:41:48.800646$GNGGA,184147.90,4138.0376898,N,07032.4176690,W,1,23,0.7,13.252,M,-29.745,M,0.0,*51
###2023-12-09 13:41:48.998709$GNRMC,184148.10,A,4138.0377251,N,07032.4178595,W,2.55,283.48,091223,,,A*51
###2023-12-09 13:41:49.001571$GNGGA,184148.10,4138.0377251,N,07032.4178595,W,1,23,0.7,13.265,M,-29.745,M,0.0,*54
###2023-12-09 13:41:49.003447$GPGSA,A,3,03,04,09,16,26,28,29,31,,,,,1.1,0.7,0.9*32
###2023-12-09 13:41:49.005107$GLGSA,A,3,65,72,73,74,75,,,,,,,,1.1,0.7,0.9*23
###2023-12-09 13:41:49.006704$GAGSA,A,3,04,19,21,27,,,,,,,,,1.1,0.7,0.9*27
###2023-12-09 13:41:49.008355$GBGSA,A,3,12,24,25,33,35,,,,,,,,1.1,0.7,0.9*2A
###2023-12-09 13:41:49.010695$GPGSV,2,1,08,03,24,243,39,04,49,306,43,09,15,317,42,16,70,226,47*78
###2023-12-09 13:41:49.013035$GPGSV,2,2,08,26,80,041,49,28,35,088,45,29,19,044,40,31,57,071,47*7A
###2023-12-09 13:41:49.015376$GLGSV,2,1,05,65,41,315,43,72,59,216,46,73,20,054,43,74,57,019,43*65
###2023-12-09 13:41:49.016837$GLGSV,2,2,05,75,45,276,45,,,,,,,,,,,,*51
###2023-12-09 13:41:49.019180$GAGSV,1,1,04,04,42,309,42,19,69,180,41,21,74,044,47,27,20,051,40*6D
###2023-12-09 13:41:49.021519$GBGSV,2,1,05,12,17,124,41,24,60,049,49,25,53,279,47,33,43,215,46*67
###2023-12-09 13:41:49.022986$GBGSV,2,2,05,35,16,054,43,,,,,,,,,,,,*59
###2023-12-09 13:41:49.024313$GNVTG,283.48,T,,M,2.55,N,4.72,K,A*25
###2023-12-09 13:41:49.025931$GNGST,184148.10,6.500,,,,0.130,0.097,0.220*69
###2023-12-09 13:41:49.027234$GNZDA,184148.10,09,12,2023,00,00*70
###2023-12-09 13:41:49.027880$GNEBP,,,,,,M*13
###2023-12-09 13:41:49.198502$GNGGA,184148.30,4138.0377585,N,07032.4180452,W,1,23,0.7,13.263,M,-29.745,M,0.0,*53
###2023-12-09 13:41:49.398277$GNGGA,184148.50,4138.0377992,N,07032.4182258,W,1,23,0.7,13.264,M,-29.745,M,0.0,*56
###2023-12-09 13:41:49.596929$GNGGA,184148.70,4138.0378360,N,07032.4184025,W,1,22,0.7,13.272,M,-29.745,M,0.0,*54
###2023-12-09 13:41:49.797517$GNGGA,184148.90,4138.0378673,N,07032.4185756,W,1,22,0.7,13.272,M,-29.745,M,0.0,*5F
###2023-12-09 13:41:50.001724$GNRMC,184149.10,A,4138.0378992,N,07032.4187471,W,2.31,284.64,091223,,,A*5B
###2023-12-09 13:41:50.004614$GNGGA,184149.10,4138.0378992,N,07032.4187471,W,1,22,0.7,13.272,M,-29.745,M,0.0,*52
###2023-12-09 13:41:50.006478$GPGSA,A,3,03,04,09,16,26,28,29,31,,,,,1.2,0.7,0.9*31
###2023-12-09 13:41:50.008137$GLGSA,A,3,65,72,73,74,75,,,,,,,,1.2,0.7,0.9*20
###2023-12-09 13:41:50.009718$GAGSA,A,3,04,19,21,27,,,,,,,,,1.2,0.7,0.9*24
###2023-12-09 13:41:50.011381$GBGSA,A,3,12,24,25,33,35,,,,,,,,1.2,0.7,0.9*29
###2023-12-09 13:41:50.013705$GPGSV,2,1,08,03,24,243,36,04,49,306,44,09,15,317,42,16,70,226,46*71
###2023-12-09 13:41:50.016051$GPGSV,2,2,08,26,80,041,49,28,35,088,45,29,19,044,42,31,57,071,46*79
###2023-12-09 13:41:50.018386$GLGSV,2,1,05,65,41,315,41,72,59,216,46,73,20,054,42,74,57,019,43*66
###2023-12-09 13:41:50.019857$GLGSV,2,2,05,75,45,276,45,,,,,,,,,,,,*51
###2023-12-09 13:41:50.022167$GAGSV,1,1,04,04,42,309,44,19,69,180,41,21,74,044,47,27,20,051,40*6B
###2023-12-09 13:41:50.024514$GBGSV,2,1,05,12,17,124,40,24,60,049,49,25,53,279,46,33,43,215,46*67
###2023-12-09 13:41:50.025966$GBGSV,2,2,05,35,16,054,43,,,,,,,,,,,,*59
###2023-12-09 13:41:50.027298$GNVTG,284.64,T,,M,2.31,N,4.28,K,A*21
###2023-12-09 13:41:50.028901$GNGST,184149.10,5.900,,,,0.130,0.097,0.220*67
###2023-12-09 13:41:50.030181$GNZDA,184149.10,09,12,2023,00,00*71
###2023-12-09 13:41:50.030831$GNEBP,,,,,,M*13
###2023-12-09 13:41:50.198680$GNGGA,184149.30,4138.0379324,N,07032.4189104,W,1,22,0.7,13.276,M,-29.745,M,0.0,*5B
###2023-12-09 13:41:50.397299$GNGGA,184149.50,4138.0379677,N,07032.4190686,W,1,22,0.7,13.280,M,-29.745,M,0.0,*52
###2023-12-09 13:41:50.597115$GNGGA,184149.70,4138.0379977,N,07032.4192232,W,1,21,0.7,13.278,M,-29.745,M,0.0,*52
###2023-12-09 13:41:50.796232$GNGGA,184149.90,4138.0380263,N,07032.4193704,W,1,22,0.7,13.278,M,-29.745,M,0.0,*56
###2023-12-09 13:41:50.999336$GNRMC,184150.10,A,4138.0380537,N,07032.4195094,W,1.90,283.65,091223,,,A*55
###2023-12-09 13:41:51.002213$GNGGA,184150.10,4138.0380537,N,07032.4195094,W,1,22,0.6,13.280,M,-29.745,M,0.0,*5E
###2023-12-09 13:41:51.004097$GPGSA,A,3,03,04,09,16,26,28,29,31,,,,,1.1,0.6,0.9*33
###2023-12-09 13:41:51.005754$GLGSA,A,3,65,72,73,74,75,,,,,,,,1.1,0.6,0.9*22
###2023-12-09 13:41:51.007356$GAGSA,A,3,04,19,21,27,,,,,,,,,1.1,0.6,0.9*26
###2023-12-09 13:41:51.009012$GBGSA,A,3,12,24,25,33,35,,,,,,,,1.1,0.6,0.9*2B
###2023-12-09 13:41:51.011352$GPGSV,2,1,08,03,24,243,37,04,49,306,45,09,15,317,41,16,70,226,46*72
###2023-12-09 13:41:51.013696$GPGSV,2,2,08,26,80,041,49,28,35,088,45,29,19,044,40,31,57,071,47*7A
###2023-12-09 13:41:51.016046$GLGSV,2,1,05,65,41,315,42,72,59,216,46,73,20,054,42,74,57,019,42*64
###2023-12-09 13:41:51.017505$GLGSV,2,2,05,75,45,276,45,,,,,,,,,,,,*51
###2023-12-09 13:41:51.019848$GAGSV,1,1,04,04,42,309,43,19,69,180,41,21,74,044,47,27,20,051,42*6E
###2023-12-09 13:41:51.022190$GBGSV,2,1,05,12,17,124,42,24,60,049,50,25,53,279,47,33,43,215,46*6C
###2023-12-09 13:41:51.023668$GBGSV,2,2,05,35,16,054,44,,,,,,,,,,,,*5E
###2023-12-09 13:41:51.024993$GNVTG,283.65,T,,M,1.90,N,3.53,K,A*24
###2023-12-09 13:41:51.026625$GNGST,184150.10,6.800,,,,0.130,0.096,0.220*6C
###2023-12-09 13:41:51.027916$GNZDA,184150.10,09,12,2023,00,00*79
###2023-12-09 13:41:51.028555$GNEBP,,,,,,M*13
###2023-12-09 13:41:51.200157$GNGGA,184150.30,4138.0380843,N,07032.4196447,W,1,22,0.6,13.281,M,-29.745,M,0.0,*5A
###2023-12-09 13:41:51.399101$GNGGA,184150.50,4138.0381122,N,07032.4197762,W,1,22,0.7,13.286,M,-29.745,M,0.0,*50
###2023-12-09 13:41:51.597700$GNGGA,184150.70,4138.0381368,N,07032.4199048,W,1,22,0.7,13.285,M,-29.745,M,0.0,*5C
###2023-12-09 13:41:51.799083$GNGGA,184150.90,4138.0381560,N,07032.4200355,W,1,22,0.7,13.282,M,-29.745,M,0.0,*57
###2023-12-09 13:41:52.000750$GNRMC,184151.10,A,4138.0381832,N,07032.4201632,W,1.75,281.70,091223,,,A*54
###2023-12-09 13:41:52.004237$GNGGA,184151.10,4138.0381832,N,07032.4201632,W,1,22,0.7,13.289,M,-29.745,M,0.0,*5A
###2023-12-09 13:41:52.006411$GPGSA,A,3,04,09,16,26,28,29,31,,,,,,1.1,0.7,0.9*31
###2023-12-09 13:41:52.008420$GLGSA,A,3,65,72,73,74,75,,,,,,,,1.1,0.7,0.9*23
###2023-12-09 13:41:52.010371$GAGSA,A,3,04,19,21,27,,,,,,,,,1.1,0.7,0.9*27
###2023-12-09 13:41:52.012380$GBGSA,A,3,12,24,25,33,35,,,,,,,,1.1,0.7,0.9*2A
###2023-12-09 13:41:52.015226$GPGSV,2,1,07,04,49,306,44,09,15,317,39,16,70,226,46,26,80,041,48*72
###2023-12-09 13:41:52.017695$GPGSV,2,2,07,28,35,088,44,29,19,044,43,31,57,071,47,,,,*43
###2023-12-09 13:41:52.020529$GLGSV,2,1,05,65,41,315,42,72,59,216,46,73,20,054,41,74,57,019,42*67
###2023-12-09 13:41:52.022280$GLGSV,2,2,05,75,45,276,44,,,,,,,,,,,,*50
###2023-12-09 13:41:52.025096$GAGSV,1,1,04,04,42,309,43,19,69,180,42,21,74,044,47,27,20,051,41*6E
###2023-12-09 13:41:52.027926$GBGSV,2,1,05,12,17,124,42,24,60,049,49,25,53,279,46,33,43,215,47*64
###2023-12-09 13:41:52.029685$GBGSV,2,2,05,35,16,054,42,,,,,,,,,,,,*58
###2023-12-09 13:41:52.031297$GNVTG,281.70,T,,M,1.75,N,3.24,K,A*29
###2023-12-09 13:41:52.033237$GNGST,184151.10,5.900,,,,0.130,0.096,0.220*6F
###2023-12-09 13:41:52.034804$GNZDA,184151.10,09,12,2023,00,00*78
###2023-12-09 13:41:52.035578$GNEBP,,,,,,M*13
###2023-12-09 13:41:52.199453$GNGGA,184151.30,4138.0382060,N,07032.4202904,W,1,21,0.7,13.298,M,-29.745,M,0.0,*5E
###2023-12-09 13:41:52.398937$GNGGA,184151.50,4138.0382263,N,07032.4204217,W,1,22,0.7,13.295,M,-29.745,M,0.0,*58
###2023-12-09 13:41:52.595645$GNGGA,184151.70,4138.0382464,N,07032.4205509,W,1,23,0.7,13.302,M,-29.745,M,0.0,*5C
###2023-12-09 13:41:52.798053$GNGGA,184151.90,4138.0382679,N,07032.4206752,W,1,23,0.7,13.300,M,-29.745,M,0.0,*51
###2023-12-09 13:41:53.001275$GNRMC,184152.10,A,4138.0382895,N,07032.4207956,W,1.63,281.72,091223,,,A*57
###2023-12-09 13:41:53.004785$GNGGA,184152.10,4138.0382895,N,07032.4207956,W,1,23,0.7,13.301,M,-29.745,M,0.0,*5C
###2023-12-09 13:41:53.007055$GPGSA,A,3,03,04,09,16,26,28,29,31,,,,,1.1,0.7,0.9*32
###2023-12-09 13:41:53.009040$GLGSA,A,3,65,72,73,74,75,,,,,,,,1.1,0.7,0.9*23
###2023-12-09 13:41:53.010967$GAGSA,A,3,04,19,21,27,,,,,,,,,1.1,0.7,0.9*27
###2023-12-09 13:41:53.012958$GBGSA,A,3,12,24,25,33,35,,,,,,,,1.1,0.7,0.9*2A
###2023-12-09 13:41:53.015770$GPGSV,2,1,08,03,24,243,40,04,49,306,45,09,15,317,40,16,70,226,47*72
###2023-12-09 13:41:53.018590$GPGSV,2,2,08,26,80,041,50,28,35,088,47,29,19,044,44,31,57,071,48*7B
