###2023-12-09 12:34:48.960695$GBGSV,2,2,05,33,63,255,48,,,,,,,,,,,,*55
###2023-12-09 12:34:48.962005$GNVTG,84.40,T,,M,0.33,N,0.61,K,A*1C
###2023-12-09 12:34:48.963686$GNGST,173448.10,19.000,,,,0.082,0.073,0.170*5B
###2023-12-09 12:34:48.964997$GNZDA,173448.10,09,12,2023,00,00*7D
###2023-12-09 12:34:48.965640$GNEBP,,,,,,M*13
###2023-12-09 12:34:49.134262$GNGGA,173448.30,4138.0476498,N,07032.4225973,W,1,23,0.7,13.049,M,-29.745,M,0.0,*5D
###2023-12-09 12:34:49.334170$GNGGA,173448.50,4138.0476543,N,07032.4225989,W,1,23,0.7,13.059,M,-29.745,M,0.0,*58
###2023-12-09 12:34:49.533160$GNGGA,173448.70,4138.0476712,N,07032.4226084,W,1,23,0.7,13.051,M,-29.745,M,0.0,*53
###2023-12-09 12:34:49.732687$GNGGA,173448.90,4138.0477009,N,07032.4226259,W,1,23,0.7,13.053,M,-29.745,M,0.0,*51
###2023-12-09 12:34:49.933988$GNRMC,173449.10,A,4138.0477254,N,07032.4226433,W,0.25,84.40,091223,,,A*62
###2023-12-09 12:34:49.936870$GNGGA,173449.10,4138.0477254,N,07032.4226433,W,1,23,0.7,13.054,M,-29.745,M,0.0,*5F
###2023-12-09 12:34:49.938752$GPGSA,A,3,03,04,16,26,28,29,31,32,,,,,1.2,0.7,1.0*31
###2023-12-09 12:34:49.940404$GLGSA,A,3,71,72,73,74,75,,,,,,,,1.2,0.7,1.0*2D
###2023-12-09 12:34:49.941991$GAGSA,A,3,04,19,21,27,,,,,,,,,1.2,0.7,1.0*2C
###2023-12-09 12:34:49.943652$GBGSA,A,3,14,24,25,26,33,,,,,,,,1.2,0.7,1.0*25
###2023-12-09 12:34:49.945981$GPGSV,2,1,08,03,39,277,45,04,22,311,42,16,37,207,44,26,66,206,48*73
###2023-12-09 12:34:49.948338$GPGSV,2,2,08,28,58,056,44,29,25,074,40,31,73,001,49,32,30,134,44*70
###2023-12-09 12:34:49.950708$GLGSV,2,1,05,71,57,169,48,72,65,310,47,73,48,033,46,74,71,290,43*61
###2023-12-09 12:34:49.952179$GLGSV,2,2,05,75,22,241,44,,,,,,,,,,,,*55
###2023-12-09 12:34:49.954511$GAGSV,1,1,04,04,21,311,41,19,81,304,41,21,77,177,46,27,42,050,42*6E
###2023-12-09 12:34:49.956854$GBGSV,2,1,05,14,55,198,45,24,81,343,50,25,32,252,44,26,35,057,46*66
###2023-12-09 12:34:49.958320$GBGSV,2,2,05,33,63,255,48,,,,,,,,,,,,*55
###2023-12-09 12:34:49.959622$GNVTG,84.40,T,,M,0.25,N,0.47,K,A*1F
###2023-12-09 12:34:49.961274$GNGST,173449.10,18.000,,,,0.082,0.073,0.170*5B
###2023-12-09 12:34:49.962585$GNZDA,173449.10,09,12,2023,00,00*7C
###2023-12-09 12:34:49.963231$GNEBP,,,,,,M*13
###2023-12-09 12:34:50.133345$GNGGA,173449.30,4138.0477327,N,07032.4226477,W,1,23,0.7,13.062,M,-29.745,M,0.0,*5D
###2023-12-09 12:34:50.338722$GNGGA,173449.50,4138.0477387,N,07032.4226466,W,1,23,0.7,13.060,M,-29.745,M,0.0,*53
###2023-12-09 12:34:50.536643$GNGGA,173449.70,4138.0477579,N,07032.4226576,W,1,23,0.7,13.052,M,-29.745,M,0.0,*57
###2023-12-09 12:34:50.733260$GNGGA,173449.90,4138.0477851,N,07032.4226801,W,1,23,0.7,13.048,M,-29.745,M,0.0,*58
###2023-12-09 12:34:50.935190$GNRMC,173450.10,A,4138.0478029,N,07032.4226969,W,0.23,84.40,091223,,,A*69
###2023-12-09 12:34:50.938053$GNGGA,173450.10,4138.0478029,N,07032.4226969,W,1,23,0.7,13.042,M,-29.745,M,0.0,*55
###2023-12-09 12:34:50.939937$GPGSA,A,3,03,04,16,26,28,29,31,32,,,,,1.2,0.7,1.0*31
###2023-12-09 12:34:50.941591$GLGSA,A,3,71,72,73,74,75,,,,,,,,1.2,0.7,1.0*2D
###2023-12-09 12:34:50.943186$GAGSA,A,3,04,19,21,27,,,,,,,,,1.2,0.7,1.0*2C
###2023-12-09 12:34:50.944839$GBGSA,A,3,14,24,25,26,33,,,,,,,,1.2,0.7,1.0*25
###2023-12-09 12:34:50.947201$GPGSV,2,1,08,03,39,277,43,04,22,311,43,16,37,207,45,26,66,206,48*75
###2023-12-09 12:34:50.949567$GPGSV,2,2,08,28,58,056,45,29,25,074,40,31,73,001,47,32,30,134,44*7F
###2023-12-09 12:34:50.951928$GLGSV,2,1,05,71,57,169,48,72,65,310,46,73,48,033,46,74,71,290,43*60
###2023-12-09 12:34:50.953395$GLGSV,2,2,05,75,22,241,44,,,,,,,,,,,,*55
###2023-12-09 12:34:50.955749$GAGSV,1,1,04,04,21,311,42,19,81,304,41,21,77,177,47,27,42,050,42*6C
###2023-12-09 12:34:50.958094$GBGSV,2,1,05,14,55,198,44,24,81,343,48,25,32,252,43,26,35,057,45*6A
###2023-12-09 12:34:50.959567$GBGSV,2,2,05,33,63,255,47,,,,,,,,,,,,*5A
###2023-12-09 12:34:50.960864$GNVTG,84.40,T,,M,0.23,N,0.43,K,A*1D
###2023-12-09 12:34:50.962522$GNGST,173450.10,19.000,,,,0.082,0.072,0.170*53
###2023-12-09 12:34:50.963835$GNZDA,173450.10,09,12,2023,00,00*74
###2023-12-09 12:34:50.964477$GNEBP,,,,,,M*13
###2023-12-09 12:34:51.133758$GNGGA,173450.30,4138.0478110,N,07032.4227008,W,1,23,0.7,13.051,M,-29.745,M,0.0,*51
###2023-12-09 12:34:51.333531$GNGGA,173450.50,4138.0478192,N,07032.4227035,W,1,23,0.7,13.053,M,-29.745,M,0.0,*51
###2023-12-09 12:34:51.534092$GNGGA,173450.70,4138.0478342,N,07032.4227173,W,1,23,0.7,13.047,M,-29.745,M,0.0,*5A
###2023-12-09 12:34:51.733412$GNGGA,173450.90,4138.0478582,N,07032.4227395,W,1,23,0.7,13.040,M,-29.745,M,0.0,*53
###2023-12-09 12:34:51.934765$GNRMC,173451.10,A,4138.0478766,N,07032.4227540,W,0.27,84.40,091223,,,A*66
###2023-12-09 12:34:51.937602$GNGGA,173451.10,4138.0478766,N,07032.4227540,W,1,23,0.7,13.039,M,-29.745,M,0.0,*52
###2023-12-09 12:34:51.939467$GPGSA,A,3,03,04,16,26,28,29,31,32,,,,,1.2,0.7,1.0*31
###2023-12-09 12:34:51.941117$GLGSA,A,3,71,72,73,74,75,,,,,,,,1.2,0.7,1.0*2D
###2023-12-09 12:34:51.942709$GAGSA,A,3,04,19,21,27,,,,,,,,,1.2,0.7,1.0*2C
###2023-12-09 12:34:51.944358$GBGSA,A,3,14,24,25,26,33,,,,,,,,1.2,0.7,1.0*25
###2023-12-09 12:34:51.946716$GPGSV,2,1,08,03,39,277,42,04,22,311,43,16,37,207,44,26,66,206,48*75
###2023-12-09 12:34:51.949093$GPGSV,2,2,08,28,58,056,45,29,25,074,39,31,73,001,47,32,30,134,45*70
###2023-12-09 12:34:51.951468$GLGSV,2,1,05,71,57,169,48,72,65,310,46,73,48,033,46,74,71,290,43*60
###2023-12-09 12:34:51.952932$GLGSV,2,2,05,75,22,241,43,,,,,,,,,,,,*52
###2023-12-09 12:34:51.955271$GAGSV,1,1,04,04,21,311,42,19,81,304,41,21,77,177,46,27,42,050,42*6D
###2023-12-09 12:34:51.957597$GBGSV,2,1,05,14,55,198,46,24,81,343,50,25,32,252,46,26,35,057,46*67
###2023-12-09 12:34:51.959067$GBGSV,2,2,05,33,63,255,50,,,,,,,,,,,,*5C
###2023-12-09 12:34:51.960356$GNVTG,84.40,T,,M,0.27,N,0.50,K,A*1B
###2023-12-09 12:34:51.962004$GNGST,173451.10,19.000,,,,0.082,0.072,0.170*52
###2023-12-09 12:34:51.963310$GNZDA,173451.10,09,12,2023,00,00*75
###2023-12-09 12:34:51.963950$GNEBP,,,,,,M*13
###2023-12-09 12:34:52.134244$GNGGA,173451.30,4138.0478846,N,07032.4227578,W,1,23,0.7,13.048,M,-29.745,M,0.0,*50
###2023-12-09 12:34:52.334416$GNGGA,173451.50,4138.0478896,N,07032.4227597,W,1,23,0.7,13.054,M,-29.745,M,0.0,*57
###2023-12-09 12:34:52.533490$GNGGA,173451.70,4138.0479010,N,07032.4227680,W,1,23,0.7,13.045,M,-29.745,M,0.0,*57
###2023-12-09 12:34:52.732388$GNGGA,173451.90,4138.0479206,N,07032.4227843,W,1,23,0.7,13.037,M,-29.745,M,0.0,*58
###2023-12-09 12:34:52.936286$GNRMC,173452.10,A,4138.0479360,N,07032.4228001,W,0.29,84.40,091223,,,A*67
###2023-12-09 12:34:52.939171$GNGGA,173452.10,4138.0479360,N,07032.4228001,W,1,23,0.7,13.036,M,-29.745,M,0.0,*52
###2023-12-09 12:34:52.941041$GPGSA,A,3,03,04,16,26,28,29,31,32,,,,,1.2,0.7,1.0*31
###2023-12-09 12:34:52.942710$GLGSA,A,3,71,72,73,74,75,,,,,,,,1.2,0.7,1.0*2D
###2023-12-09 12:34:52.944295$GAGSA,A,3,04,19,21,27,,,,,,,,,1.2,0.7,1.0*2C
###2023-12-09 12:34:52.945942$GBGSA,A,3,14,24,25,26,33,,,,,,,,1.2,0.7,1.0*25
###2023-12-09 12:34:52.948311$GPGSV,2,1,08,03,39,277,44,04,22,311,43,16,37,207,44,26,66,206,48*73
###2023-12-09 12:34:52.950686$GPGSV,2,2,08,28,58,056,44,29,25,074,39,31,73,001,47,32,30,134,44*70
###2023-12-09 12:34:52.953023$GLGSV,2,1,05,71,57,169,48,72,65,310,46,73,48,033,46,74,71,290,43*60
###2023-12-09 12:34:52.954479$GLGSV,2,2,05,75,22,241,43,,,,,,,,,,,,*52
###2023-12-09 12:34:52.956837$GAGSV,1,1,04,04,21,311,42,19,81,304,41,21,77,177,47,27,42,050,42*6C
###2023-12-09 12:34:52.959188$GBGSV,2,1,05,14,55,198,46,24,81,343,49,25,32,252,47,26,35,057,46*6E
###2023-12-09 12:34:52.960646$GBGSV,2,2,05,33,63,255,48,,,,,,,,,,,,*55
###2023-12-09 12:34:52.961938$GNVTG,84.40,T,,M,0.29,N,0.54,K,A*11
###2023-12-09 12:34:52.963604$GNGST,173452.10,18.000,,,,0.082,0.072,0.170*50
###2023-12-09 12:34:52.964900$GNZDA,173452.10,09,12,2023,00,00*76
###2023-12-09 12:34:52.965540$GNEBP,,,,,,M*13
###2023-12-09 12:34:53.132178$GNGGA,173452.30,4138.0479430,N,07032.4228054,W,1,23,0.7,13.044,M,-29.745,M,0.0,*57
###2023-12-09 12:34:53.333433$GNGGA,173452.50,4138.0479479,N,07032.4228040,W,1,23,0.7,13.049,M,-29.745,M,0.0,*54
###2023-12-09 12:34:53.534378$GNGGA,173452.70,4138.0479537,N,07032.4228091,W,1,23,0.7,13.041,M,-29.745,M,0.0,*59
###2023-12-09 12:34:53.733232$GNGGA,173452.90,4138.0479698,N,07032.4228257,W,1,23,0.7,13.034,M,-29.745,M,0.0,*5B
###2023-12-09 12:34:53.935533$GNRMC,173453.10,A,4138.0479877,N,07032.4228434,W,0.37,84.40,091223,,,A*66
###2023-12-09 12:34:53.938382$GNGGA,173453.10,4138.0479877,N,07032.4228434,W,1,23,0.7,13.034,M,-29.745,M,0.0,*5E
###2023-12-09 12:34:53.940240$GPGSA,A,3,03,04,16,26,28,29,31,32,,,,,1.2,0.7,1.0*31
###2023-12-09 12:34:53.941891$GLGSA,A,3,71,72,73,74,75,,,,,,,,1.2,0.7,1.0*2D
###2023-12-09 12:34:53.943482$GAGSA,A,3,04,19,21,27,,,,,,,,,1.2,0.7,1.0*2C
###2023-12-09 12:34:53.945123$GBGSA,A,3,14,24,25,26,33,,,,,,,,1.2,0.7,1.0*25
###2023-12-09 12:34:53.947463$GPGSV,2,1,08,03,39,277,44,04,22,311,43,16,37,207,44,26,66,206,47*7C
