###2023-12-09 13:08:27.999487$GNVTG,81.26,T,,M,3.52,N,6.52,K,A*1B
###2023-12-09 13:08:28.001164$GNGST,180827.10,18.000,,,,0.082,0.065,0.150*56
###2023-12-09 13:08:28.002454$GNZDA,180827.10,09,12,2023,00,00*74
###2023-12-09 13:08:28.003112$GNEBP,,,,,,M*13
###2023-12-09 13:08:28.169112$GNGGA,180827.30,4138.0836323,N,07032.2940390,W,1,25,0.6,13.158,M,-29.742,M,0.0,*53
###2023-12-09 13:08:28.370632$GNGGA,180827.50,4138.0836330,N,07032.2937632,W,1,25,0.6,13.151,M,-29.742,M,0.0,*53
###2023-12-09 13:08:28.571078$GNGGA,180827.70,4138.0836241,N,07032.2934917,W,1,25,0.6,13.118,M,-29.742,M,0.0,*50
###2023-12-09 13:08:28.770159$GNGGA,180827.90,4138.0836532,N,07032.2932329,W,1,25,0.6,13.139,M,-29.742,M,0.0,*5F
###2023-12-09 13:08:28.972812$GNRMC,180828.10,A,4138.0836856,N,07032.2929652,W,3.79,87.94,091223,,,A*63
###2023-12-09 13:08:28.975697$GNGGA,180828.10,4138.0836856,N,07032.2929652,W,1,25,0.6,13.158,M,-29.742,M,0.0,*53
###2023-12-09 13:08:28.977566$GPGSA,A,3,03,04,16,26,28,29,31,32,,,,,1.1,0.6,0.9*3B
###2023-12-09 13:08:28.979311$GLGSA,A,3,65,71,72,73,74,75,,,,,,,1.1,0.6,0.9*24
###2023-12-09 13:08:28.980896$GAGSA,A,3,04,19,21,27,,,,,,,,,1.1,0.6,0.9*26
###2023-12-09 13:08:28.982618$GBGSA,A,3,14,24,25,26,33,35,,,,,,,1.1,0.6,0.9*29
###2023-12-09 13:08:28.984954$GPGSV,2,1,08,03,34,258,44,04,35,311,46,16,53,214,46,26,83,210,48*7E
###2023-12-09 13:08:28.987302$GPGSV,2,2,08,28,47,073,44,29,25,058,40,31,67,044,47,32,16,141,39*71
###2023-12-09 13:08:28.989641$GLGSV,2,1,06,65,26,326,41,71,37,173,45,72,72,258,46,73,33,043,44*6D
###2023-12-09 13:08:28.991402$GLGSV,2,2,06,74,68,345,42,75,34,256,48,,,,,,,,*62
###2023-12-09 13:08:28.993733$GAGSV,1,1,04,04,31,312,42,19,82,199,41,21,85,085,46,27,31,048,42*66
###2023-12-09 13:08:28.996080$GBGSV,2,1,06,14,40,192,44,24,71,031,48,25,42,264,46,26,24,064,43*6F
###2023-12-09 13:08:28.997832$GBGSV,2,2,06,33,56,229,47,35,15,067,43,,,,,,,,*60
###2023-12-09 13:08:28.999138$GNVTG,87.94,T,,M,3.79,N,7.02,K,A*19
###2023-12-09 13:08:29.000792$GNGST,180828.10,18.000,,,,0.082,0.065,0.150*59
###2023-12-09 13:08:29.002084$GNZDA,180828.10,09,12,2023,00,00*7B
###2023-12-09 13:08:29.002733$GNEBP,,,,,,M*13
###2023-12-09 13:08:29.169101$GNGGA,180828.30,4138.0836784,N,07032.2926875,W,1,25,0.6,13.139,M,-29.742,M,0.0,*52
###2023-12-09 13:08:29.369574$GNGGA,180828.50,4138.0836810,N,07032.2924237,W,1,25,0.6,13.154,M,-29.742,M,0.0,*53
###2023-12-09 13:08:29.569972$GNGGA,180828.70,4138.0837063,N,07032.2921522,W,1,25,0.6,13.173,M,-29.742,M,0.0,*5F
###2023-12-09 13:08:29.771055$GNGGA,180828.90,4138.0837027,N,07032.2918763,W,1,25,0.6,13.129,M,-29.742,M,0.0,*53
###2023-12-09 13:08:29.971804$GNRMC,180829.10,A,4138.0836863,N,07032.2916110,W,3.46,89.48,091223,,,A*6A
###2023-12-09 13:08:29.974701$GNGGA,180829.10,4138.0836863,N,07032.2916110,W,1,25,0.6,13.121,M,-29.742,M,0.0,*57
###2023-12-09 13:08:29.976553$GPGSA,A,3,03,04,16,26,28,29,31,32,,,,,1.1,0.6,0.9*3B
###2023-12-09 13:08:29.978268$GLGSA,A,3,65,71,72,73,74,75,,,,,,,1.1,0.6,0.9*24
###2023-12-09 13:08:29.979864$GAGSA,A,3,04,19,21,27,,,,,,,,,1.1,0.6,0.9*26
###2023-12-09 13:08:29.981574$GBGSA,A,3,14,24,25,26,33,35,,,,,,,1.1,0.6,0.9*29
###2023-12-09 13:08:29.983916$GPGSV,2,1,08,03,34,258,43,04,35,311,42,16,53,214,48,26,83,210,48*73
###2023-12-09 13:08:29.986242$GPGSV,2,2,08,28,47,073,43,29,25,058,41,31,67,044,46,32,16,141,42*7A
###2023-12-09 13:08:29.988579$GLGSV,2,1,06,65,26,326,41,71,37,173,46,72,72,258,46,73,33,043,44*6E
###2023-12-09 13:08:29.990326$GLGSV,2,2,06,74,68,345,42,75,34,256,46,,,,,,,,*6C
###2023-12-09 13:08:29.992655$GAGSV,1,1,04,04,31,312,39,19,82,199,41,21,85,085,45,27,31,048,42*69
###2023-12-09 13:08:29.994988$GBGSV,2,1,06,14,40,192,44,24,71,031,47,25,43,265,46,26,24,064,42*61
###2023-12-09 13:08:29.996724$GBGSV,2,2,06,33,56,229,48,35,15,067,41,,,,,,,,*6D
###2023-12-09 13:08:29.998004$GNVTG,89.48,T,,M,3.46,N,6.41,K,A*1C
###2023-12-09 13:08:29.999659$GNGST,180829.10,18.000,,,,0.082,0.065,0.150*58
###2023-12-09 13:08:30.000950$GNZDA,180829.10,09,12,2023,00,00*7A
###2023-12-09 13:08:30.001587$GNEBP,,,,,,M*13
###2023-12-09 13:08:30.169217$GNGGA,180829.30,4138.0837110,N,07032.2913477,W,1,25,0.6,13.162,M,-29.742,M,0.0,*5F
###2023-12-09 13:08:30.370620$GNGGA,180829.50,4138.0837091,N,07032.2910724,W,1,25,0.6,13.158,M,-29.742,M,0.0,*5E
###2023-12-09 13:08:30.570065$GNGGA,180829.70,4138.0836742,N,07032.2908112,W,1,25,0.6,13.135,M,-29.742,M,0.0,*55
###2023-12-09 13:08:30.771557$GNGGA,180829.90,4138.0836671,N,07032.2905494,W,1,25,0.6,13.143,M,-29.742,M,0.0,*5D
###2023-12-09 13:08:30.972865$GNRMC,180830.10,A,4138.0836702,N,07032.2902809,W,3.56,90.97,091223,,,A*65
###2023-12-09 13:08:30.975740$GNGGA,180830.10,4138.0836702,N,07032.2902809,W,1,25,0.6,13.141,M,-29.742,M,0.0,*55
###2023-12-09 13:08:30.977606$GPGSA,A,3,03,04,16,26,28,29,31,32,,,,,1.1,0.6,0.9*3B
###2023-12-09 13:08:30.979331$GLGSA,A,3,65,71,72,73,74,75,,,,,,,1.1,0.6,0.9*24
###2023-12-09 13:08:30.980915$GAGSA,A,3,04,19,21,27,,,,,,,,,1.1,0.6,0.9*26
###2023-12-09 13:08:30.982637$GBGSA,A,3,14,24,25,26,33,35,,,,,,,1.1,0.6,0.9*29
###2023-12-09 13:08:30.984974$GPGSV,2,1,08,03,34,258,44,04,35,311,44,16,53,214,47,26,83,210,49*7C
###2023-12-09 13:08:30.987326$GPGSV,2,2,08,28,47,073,44,29,25,058,41,31,67,044,47,32,16,141,41*7F
###2023-12-09 13:08:30.989666$GLGSV,2,1,06,65,26,326,41,71,37,173,45,72,72,258,46,73,33,043,44*6D
###2023-12-09 13:08:30.991434$GLGSV,2,2,06,74,68,345,42,75,34,256,46,,,,,,,,*6C
###2023-12-09 13:08:30.993780$GAGSV,1,1,04,04,31,312,41,19,82,199,41,21,85,085,45,27,31,048,42*66
###2023-12-09 13:08:30.996143$GBGSV,2,1,06,14,40,192,45,24,71,031,48,25,43,265,47,26,24,064,43*6F
###2023-12-09 13:08:30.997902$GBGSV,2,2,06,33,56,229,48,35,15,067,43,,,,,,,,*6F
###2023-12-09 13:08:30.999215$GNVTG,90.97,T,,M,3.56,N,6.59,K,A*1E
###2023-12-09 13:08:31.000873$GNGST,180830.10,18.000,,,,0.082,0.065,0.150*50
###2023-12-09 13:08:31.002171$GNZDA,180830.10,09,12,2023,00,00*72
###2023-12-09 13:08:31.002824$GNEBP,,,,,,M*13
###2023-12-09 13:08:31.169102$GNGGA,180830.30,4138.0836591,N,07032.2900203,W,1,25,0.6,13.136,M,-29.742,M,0.0,*5D
###2023-12-09 13:08:31.369551$GNGGA,180830.50,4138.0836385,N,07032.2897563,W,1,25,0.6,13.161,M,-29.742,M,0.0,*54
###2023-12-09 13:08:31.572361$GNGGA,180830.70,4138.0836126,N,07032.2894829,W,1,25,0.6,13.150,M,-29.742,M,0.0,*5F
###2023-12-09 13:08:31.770159$GNGGA,180830.90,4138.0835982,N,07032.2892200,W,1,25,0.6,13.133,M,-29.742,M,0.0,*56
###2023-12-09 13:08:31.973507$GNRMC,180831.10,A,4138.0836259,N,07032.2889555,W,3.65,81.99,091223,,,A*67
###2023-12-09 13:08:31.976389$GNGGA,180831.10,4138.0836259,N,07032.2889555,W,1,25,0.6,13.154,M,-29.742,M,0.0,*5D
###2023-12-09 13:08:31.978247$GPGSA,A,3,03,04,16,26,28,29,31,32,,,,,1.1,0.6,0.9*3B
###2023-12-09 13:08:31.979980$GLGSA,A,3,65,71,72,73,74,75,,,,,,,1.1,0.6,0.9*24
###2023-12-09 13:08:31.981563$GAGSA,A,3,04,19,21,27,,,,,,,,,1.1,0.6,0.9*26
###2023-12-09 13:08:31.983283$GBGSA,A,3,14,24,25,26,33,35,,,,,,,1.1,0.6,0.9*29
###2023-12-09 13:08:31.985605$GPGSV,2,1,08,03,34,258,43,04,35,311,44,16,53,214,46,26,83,210,48*7B
###2023-12-09 13:08:31.987940$GPGSV,2,2,08,28,47,073,42,29,25,058,41,31,67,044,46,32,16,141,39*77
###2023-12-09 13:08:31.990270$GLGSV,2,1,06,65,26,326,42,71,37,173,46,72,72,258,46,73,33,043,44*6D
###2023-12-09 13:08:31.992021$GLGSV,2,2,06,74,68,345,42,75,34,256,46,,,,,,,,*6C
###2023-12-09 13:08:31.994351$GAGSV,1,1,04,04,31,312,41,19,82,199,41,21,85,085,46,27,31,048,42*65
###2023-12-09 13:08:31.996698$GBGSV,2,1,06,14,40,192,45,24,71,031,49,25,43,265,47,26,24,064,42*6F
###2023-12-09 13:08:31.998444$GBGSV,2,2,06,33,56,229,48,35,15,067,42,,,,,,,,*6E
###2023-12-09 13:08:31.999742$GNVTG,81.99,T,,M,3.65,N,6.77,K,A*1C
###2023-12-09 13:08:32.001392$GNGST,180831.10,18.000,,,,0.082,0.065,0.150*51
###2023-12-09 13:08:32.002696$GNZDA,180831.10,09,12,2023,00,00*73
###2023-12-09 13:08:32.003336$GNEBP,,,,,,M*13
###2023-12-09 13:08:32.170035$GNGGA,180831.30,4138.0836093,N,07032.2886788,W,1,25,0.6,13.134,M,-29.742,M,0.0,*50
###2023-12-09 13:08:32.369578$GNGGA,180831.50,4138.0835779,N,07032.2884232,W,1,25,0.6,13.135,M,-29.742,M,0.0,*51
###2023-12-09 13:08:32.569931$GNGGA,180831.70,4138.0836013,N,07032.2881560,W,1,25,0.6,13.175,M,-29.742,M,0.0,*5A
###2023-12-09 13:08:32.770511$GNGGA,180831.90,4138.0836010,N,07032.2878827,W,1,25,0.6,13.137,M,-29.742,M,0.0,*59
###2023-12-09 13:08:32.981108$GNRMC,180832.10,A,4138.0835850,N,07032.2876264,W,3.60,93.25,091223,,,A*60
###2023-12-09 13:08:32.983976$GNGGA,180832.10,4138.0835850,N,07032.2876264,W,1,25,0.6,13.137,M,-29.742,M,0.0,*5E
###2023-12-09 13:08:32.985831$GPGSA,A,3,03,04,16,26,28,29,31,32,,,,,1.1,0.6,0.9*3B
###2023-12-09 13:08:32.987554$GLGSA,A,3,65,71,72,73,74,75,,,,,,,1.1,0.6,0.9*24
###2023-12-09 13:08:32.989137$GAGSA,A,3,04,19,21,27,,,,,,,,,1.1,0.6,0.9*26
###2023-12-09 13:08:32.990860$GBGSA,A,3,14,24,25,26,33,35,,,,,,,1.1,0.6,0.9*29
###2023-12-09 13:08:32.993192$GPGSV,2,1,08,03,34,258,44,04,35,311,43,16,53,214,47,26,83,210,49*7B
###2023-12-09 13:08:32.995539$GPGSV,2,2,08,28,47,073,44,29,25,058,41,31,67,044,46,32,16,141,43*7C
