###2023-12-09 13:27:59.994104$GNGGA,182759.10,4138.0406290,N,07032.4302547,W,1,22,0.7,13.167,M,-29.745,M,0.0,*58
###2023-12-09 13:27:59.995886$GPGSA,A,3,04,16,26,28,29,31,,,,,,,1.2,0.7,1.0*33
###2023-12-09 13:27:59.997614$GLGSA,A,3,65,71,72,73,74,75,,,,,,,1.2,0.7,1.0*2E
###2023-12-09 13:27:59.999217$GAGSA,A,3,04,19,21,27,,,,,,,,,1.2,0.7,1.0*2C
###2023-12-09 13:28:00.000923$GBGSA,A,3,14,24,25,26,33,35,,,,,,,1.2,0.7,1.0*23
###2023-12-09 13:28:00.003264$GPGSV,2,1,06,04,43,309,44,16,63,220,45,26,87,041,49,28,40,082,45*70
###2023-12-09 13:28:00.005016$GPGSV,2,2,06,29,22,049,43,31,61,061,47,,,,,,,,*7F
###2023-12-09 13:28:00.007365$GLGSV,2,1,06,65,35,321,43,71,26,175,37,72,66,227,44,73,25,050,43*64
###2023-12-09 13:28:00.009107$GLGSV,2,2,06,74,62,008,43,75,41,267,40,,,,,,,,*6B
###2023-12-09 13:28:00.011438$GAGSV,1,1,04,04,38,311,44,19,74,183,40,21,79,049,46,27,25,049,40*6C
###2023-12-09 13:28:00.013771$GBGSV,2,1,06,14,32,190,38,24,65,042,47,25,49,273,39,26,18,069,44*6D
###2023-12-09 13:28:00.015537$GBGSV,2,2,06,33,48,220,43,35,16,059,43,,,,,,,,*6C
###2023-12-09 13:28:00.016862$GNVTG,265.76,T,,M,0.78,N,1.44,K,A*2D
###2023-12-09 13:28:00.018472$GNGST,182759.10,5.500,,,,0.140,0.084,0.210*6C
###2023-12-09 13:28:00.019773$GNZDA,182759.10,09,12,2023,00,00*70
###2023-12-09 13:28:00.020415$GNEBP,,,,,,M*13
###2023-12-09 13:28:00.187522$GNGGA,182759.30,4138.0406538,N,07032.4302128,W,1,22,0.7,13.174,M,-29.745,M,0.0,*50
###2023-12-09 13:28:00.384809$GNGGA,182759.50,4138.0406796,N,07032.4301587,W,1,22,0.7,13.167,M,-29.745,M,0.0,*50
###2023-12-09 13:28:00.585763$GNGGA,182759.70,4138.0407117,N,07032.4300893,W,1,22,0.7,13.164,M,-29.745,M,0.0,*56
###2023-12-09 13:28:00.786742$GNGGA,182759.90,4138.0407499,N,07032.4300041,W,1,21,0.7,13.164,M,-29.745,M,0.0,*5F
###2023-12-09 13:28:00.989790$GNRMC,182800.10,A,4138.0407908,N,07032.4299011,W,1.73,64.82,091223,,,A*6A
###2023-12-09 13:28:00.992663$GNGGA,182800.10,4138.0407908,N,07032.4299011,W,1,21,0.7,13.164,M,-29.745,M,0.0,*55
###2023-12-09 13:28:00.994382$GPGSA,A,3,04,16,26,28,29,31,,,,,,,1.3,0.7,1.1*33
###2023-12-09 13:28:00.996105$GLGSA,A,3,65,71,72,73,74,75,,,,,,,1.3,0.7,1.1*2E
###2023-12-09 13:28:00.997677$GAGSA,A,3,04,19,21,27,,,,,,,,,1.3,0.7,1.1*2C
###2023-12-09 13:28:00.999320$GBGSA,A,3,24,25,26,33,35,,,,,,,,1.3,0.7,1.1*26
###2023-12-09 13:28:01.001635$GPGSV,2,1,06,04,43,309,44,16,63,220,46,26,87,041,48,28,40,082,45*72
###2023-12-09 13:28:01.003386$GPGSV,2,2,06,29,22,049,42,31,61,061,47,,,,,,,,*7E
###2023-12-09 13:28:01.005709$GLGSV,2,1,06,65,35,321,42,71,26,175,37,72,66,227,47,73,25,050,43*66
###2023-12-09 13:28:01.007469$GLGSV,2,2,06,74,62,008,43,75,41,267,43,,,,,,,,*68
###2023-12-09 13:28:01.009794$GAGSV,1,1,04,04,38,311,43,19,74,183,41,21,79,049,47,27,25,049,41*6A
###2023-12-09 13:28:01.012129$GBGSV,2,1,05,24,65,042,47,25,49,273,45,26,18,069,44,33,48,220,45*6F
###2023-12-09 13:28:01.013586$GBGSV,2,2,05,35,16,059,45,,,,,,,,,,,,*52
###2023-12-09 13:28:01.014882$GNVTG,64.82,T,,M,1.73,N,3.20,K,A*1F
###2023-12-09 13:28:01.016488$GNGST,182800.10,5.300,,,,0.140,0.086,0.210*6B
###2023-12-09 13:28:01.017771$GNZDA,182800.10,09,12,2023,00,00*73
###2023-12-09 13:28:01.018411$GNEBP,,,,,,M*13
###2023-12-09 13:28:01.186778$GNGGA,182800.30,4138.0408413,N,07032.4297883,W,1,20,0.9,13.167,M,-29.745,M,0.0,*5E
###2023-12-09 13:28:01.384149$GNGGA,182800.50,4138.0408995,N,07032.4296846,W,1,20,0.9,13.178,M,-29.745,M,0.0,*5D
###2023-12-09 13:28:01.582924$GNGGA,182800.70,4138.0409481,N,07032.4295973,W,1,20,0.9,13.167,M,-29.745,M,0.0,*5C
###2023-12-09 13:28:01.788533$GNGGA,182800.90,4138.0410036,N,07032.4295114,W,1,20,0.9,13.171,M,-29.745,M,0.0,*5C
###2023-12-09 13:28:01.988479$GNRMC,182801.10,A,4138.0410472,N,07032.4294222,W,1.28,55.49,091223,,,A*69
###2023-12-09 13:28:01.991638$GNGGA,182801.10,4138.0410472,N,07032.4294222,W,1,20,0.9,13.164,M,-29.745,M,0.0,*52
###2023-12-09 13:28:01.993467$GPGSA,A,3,04,16,26,28,29,31,,,,,,,1.6,0.9,1.3*3A
###2023-12-09 13:28:01.995137$GLGSA,A,3,65,72,73,74,75,,,,,,,,1.6,0.9,1.3*21
###2023-12-09 13:28:01.996735$GAGSA,A,3,04,19,21,27,,,,,,,,,1.6,0.9,1.3*25
###2023-12-09 13:28:01.998386$GBGSA,A,3,24,25,26,33,35,,,,,,,,1.6,0.9,1.3*2F
###2023-12-09 13:28:02.000740$GPGSV,2,1,06,04,43,309,45,16,63,220,46,26,87,041,49,28,40,082,44*73
###2023-12-09 13:28:02.002498$GPGSV,2,2,06,29,22,049,44,31,61,061,47,,,,,,,,*78
###2023-12-09 13:28:02.004853$GLGSV,2,1,05,65,35,321,45,72,66,227,45,73,25,050,43,74,62,008,42*6C
###2023-12-09 13:28:02.006317$GLGSV,2,2,05,75,41,267,45,,,,,,,,,,,,*55
###2023-12-09 13:28:02.008656$GAGSV,1,1,04,04,38,311,44,19,74,183,41,21,79,049,46,27,25,049,42*6F
###2023-12-09 13:28:02.011006$GBGSV,2,1,05,24,65,042,48,25,49,273,46,26,18,069,44,33,48,220,47*61
###2023-12-09 13:28:02.012470$GBGSV,2,2,05,35,16,059,45,,,,,,,,,,,,*52
###2023-12-09 13:28:02.013769$GNVTG,55.49,T,,M,1.28,N,2.38,K,A*1C
###2023-12-09 13:28:02.015400$GNGST,182801.10,4.800,,,,0.140,0.087,0.220*62
###2023-12-09 13:28:02.016699$GNZDA,182801.10,09,12,2023,00,00*72
###2023-12-09 13:28:02.017338$GNEBP,,,,,,M*13
###2023-12-09 13:28:02.182884$GNGGA,182801.30,4138.0410963,N,07032.4293570,W,1,20,0.7,13.164,M,-29.745,M,0.0,*54
###2023-12-09 13:28:02.380972$GNGGA,182801.50,4138.0411464,N,07032.4292909,W,1,20,0.7,13.168,M,-29.745,M,0.0,*56
###2023-12-09 13:28:02.582486$GNGGA,182801.70,4138.0411920,N,07032.4292214,W,1,20,0.9,13.150,M,-29.745,M,0.0,*5B
###2023-12-09 13:28:02.782046$GNGGA,182801.90,4138.0412403,N,07032.4291580,W,1,21,0.7,13.153,M,-29.745,M,0.0,*5F
###2023-12-09 13:28:02.984660$GNRMC,182802.10,A,4138.0412855,N,07032.4291029,W,1.13,41.99,091223,,,A*6D
###2023-12-09 13:28:02.987528$GNGGA,182802.10,4138.0412855,N,07032.4291029,W,1,21,0.7,13.171,M,-29.745,M,0.0,*5D
###2023-12-09 13:28:02.989260$GPGSA,A,3,04,16,26,28,29,31,,,,,,,1.3,0.7,1.1*33
###2023-12-09 13:28:02.990987$GLGSA,A,3,65,71,72,73,74,75,,,,,,,1.3,0.7,1.1*2E
###2023-12-09 13:28:02.992572$GAGSA,A,3,04,19,21,27,,,,,,,,,1.3,0.7,1.1*2C
###2023-12-09 13:28:02.994219$GBGSA,A,3,24,25,26,33,35,,,,,,,,1.3,0.7,1.1*26
###2023-12-09 13:28:02.996563$GPGSV,2,1,06,04,43,309,45,16,63,220,46,26,87,041,48,28,40,082,45*73
###2023-12-09 13:28:02.998311$GPGSV,2,2,06,29,22,049,42,31,61,061,46,,,,,,,,*7F
###2023-12-09 13:28:03.000659$GLGSV,2,1,06,65,35,321,45,71,26,175,39,72,66,227,47,73,25,050,44*68
###2023-12-09 13:28:03.002411$GLGSV,2,2,06,74,62,008,42,75,41,267,45,,,,,,,,*6F
###2023-12-09 13:28:03.004755$GAGSV,1,1,04,04,38,311,44,19,74,183,41,21,79,049,46,27,25,049,41*6C
###2023-12-09 13:28:03.007101$GBGSV,2,1,05,24,65,042,47,25,49,273,44,26,18,069,45,33,48,220,45*6F
###2023-12-09 13:28:03.008562$GBGSV,2,2,05,35,16,059,44,,,,,,,,,,,,*53
###2023-12-09 13:28:03.009855$GNVTG,41.99,T,,M,1.13,N,2.09,K,A*1E
###2023-12-09 13:28:03.011485$GNGST,182802.10,5.100,,,,0.150,0.088,0.220*67
###2023-12-09 13:28:03.012784$GNZDA,182802.10,09,12,2023,00,00*71
###2023-12-09 13:28:03.013421$GNEBP,,,,,,M*13
###2023-12-09 13:28:03.184297$GNGGA,182802.30,4138.0413317,N,07032.4290503,W,1,21,0.7,13.156,M,-29.745,M,0.0,*5A
###2023-12-09 13:28:03.381098$GNGGA,182802.50,4138.0413751,N,07032.4289868,W,1,21,0.7,13.139,M,-29.745,M,0.0,*5B
###2023-12-09 13:28:03.581609$GNGGA,182802.70,4138.0414167,N,07032.4289336,W,1,21,0.7,13.150,M,-29.745,M,0.0,*52
###2023-12-09 13:28:03.784846$GNGGA,182802.90,4138.0414691,N,07032.4288984,W,1,21,0.7,13.175,M,-29.745,M,0.0,*57
###2023-12-09 13:28:03.986210$GNRMC,182803.10,A,4138.0415164,N,07032.4288468,W,1.17,50.17,091223,,,A*6B
###2023-12-09 13:28:03.989084$GNGGA,182803.10,4138.0415164,N,07032.4288468,W,1,21,0.7,13.159,M,-29.745,M,0.0,*53
###2023-12-09 13:28:03.990819$GPGSA,A,3,04,16,26,28,29,31,,,,,,,1.2,0.7,1.0*33
###2023-12-09 13:28:03.992534$GLGSA,A,3,65,71,72,73,74,75,,,,,,,1.2,0.7,1.0*2E
###2023-12-09 13:28:03.994115$GAGSA,A,3,04,19,21,27,,,,,,,,,1.2,0.7,1.0*2C
###2023-12-09 13:28:03.995771$GBGSA,A,3,24,25,26,33,35,,,,,,,,1.2,0.7,1.0*26
###2023-12-09 13:28:03.998089$GPGSV,2,1,06,04,43,309,46,16,63,220,45,26,87,041,49,28,40,082,45*72
###2023-12-09 13:28:03.999842$GPGSV,2,2,06,29,22,049,44,31,61,061,47,,,,,,,,*78
###2023-12-09 13:28:04.002162$GLGSV,2,1,06,65,35,321,43,71,26,175,36,72,66,227,45,73,25,050,44*63
###2023-12-09 13:28:04.004172$GLGSV,2,2,06,74,62,008,43,75,41,267,47,,,,,,,,*6C
###2023-12-09 13:28:04.006528$GAGSV,1,1,04,04,38,311,45,19,74,183,41,21,79,049,46,27,24,049,41*6C
###2023-12-09 13:28:04.008891$GBGSV,2,1,05,24,65,042,48,25,49,273,46,26,18,069,44,33,48,220,46*60
###2023-12-09 13:28:04.010357$GBGSV,2,2,05,35,16,059,44,,,,,,,,,,,,*53
###2023-12-09 13:28:04.011662$GNVTG,50.17,T,,M,1.17,N,2.16,K,A*12
###2023-12-09 13:28:04.013314$GNGST,182803.10,18.000,,,,0.150,0.089,0.220*5A
###2023-12-09 13:28:04.014619$GNZDA,182803.10,09,12,2023,00,00*70
###2023-12-09 13:28:04.015261$GNEBP,,,,,,M*13
