###2023-12-09 13:41:10.027605$GBGSV,2,1,06,12,17,124,38,14,26,189,39,24,60,049,47,25,53,279,48*63
###2023-12-09 13:41:10.029370$GBGSV,2,2,06,33,43,215,43,35,16,054,42,,,,,,,,*6D
###2023-12-09 13:41:10.030717$GNVTG,289.33,T,,M,1.17,N,2.16,K,A*22
###2023-12-09 13:41:10.032334$GNGST,184109.10,6.300,,,,0.100,0.090,0.200*6C
###2023-12-09 13:41:10.033626$GNZDA,184109.10,09,12,2023,00,00*75
###2023-12-09 13:41:10.034264$GNEBP,,,,,,M*13
###2023-12-09 13:41:10.199753$GNGGA,184109.30,4138.0266586,N,07032.3901127,W,1,24,0.6,13.346,M,-29.745,M,0.0,*55
###2023-12-09 13:41:10.399285$GNGGA,184109.50,4138.0266432,N,07032.3900733,W,1,24,0.6,13.308,M,-29.745,M,0.0,*55
###2023-12-09 13:41:10.598890$GNGGA,184109.70,4138.0266348,N,07032.3900609,W,1,24,0.6,13.276,M,-29.745,M,0.0,*5D
###2023-12-09 13:41:10.805051$GNGGA,184109.90,4138.0266553,N,07032.3901352,W,1,24,0.6,13.330,M,-29.745,M,0.0,*56
###2023-12-09 13:41:11.004854$GNRMC,184110.10,A,4138.0266775,N,07032.3902159,W,0.56,290.29,091223,,,A*5C
###2023-12-09 13:41:11.007836$GNGGA,184110.10,4138.0266775,N,07032.3902159,W,1,24,0.6,13.337,M,-29.745,M,0.0,*5D
###2023-12-09 13:41:11.009635$GPGSA,A,3,04,16,26,27,28,29,31,,,,,,1.1,0.6,0.9*3C
###2023-12-09 13:41:11.011429$GLGSA,A,3,65,71,72,73,74,75,83,,,,,,1.1,0.6,0.9*2F
###2023-12-09 13:41:11.013015$GAGSA,A,3,04,19,21,27,,,,,,,,,1.1,0.6,0.9*26
###2023-12-09 13:41:11.014735$GBGSA,A,3,12,14,24,25,33,35,,,,,,,1.1,0.6,0.9*2E
###2023-12-09 13:41:11.017069$GPGSV,2,1,07,04,49,306,47,16,69,225,44,26,81,040,47,27,19,172,37*78
###2023-12-09 13:41:11.019126$GPGSV,2,2,07,28,36,087,41,29,19,045,42,31,58,070,44,,,,*47
###2023-12-09 13:41:11.021458$GLGSV,2,1,07,65,41,315,46,71,19,176,39,72,59,216,46,73,20,054,42*69
###2023-12-09 13:41:11.023520$GLGSV,2,2,07,74,57,019,43,75,45,276,48,83,16,044,36,,,,*59
###2023-12-09 13:41:11.025853$GAGSV,1,1,04,04,41,309,46,19,69,180,41,21,74,044,45,27,20,051,39*66
###2023-12-09 13:41:11.028203$GBGSV,2,1,06,12,17,124,36,14,26,189,40,24,60,049,47,25,53,279,49*62
###2023-12-09 13:41:11.029958$GBGSV,2,2,06,33,43,215,44,35,16,054,42,,,,,,,,*6A
###2023-12-09 13:41:11.031300$GNVTG,290.29,T,,M,0.56,N,1.04,K,A*25
###2023-12-09 13:41:11.032924$GNGST,184110.10,6.900,,,,0.100,0.090,0.200*6E
###2023-12-09 13:41:11.034217$GNZDA,184110.10,09,12,2023,00,00*7D
###2023-12-09 13:41:11.034867$GNEBP,,,,,,M*13
###2023-12-09 13:41:11.199907$GNGGA,184110.30,4138.0266728,N,07032.3902049,W,1,24,0.6,13.337,M,-29.745,M,0.0,*57
###2023-12-09 13:41:11.398202$GNGGA,184110.50,4138.0266557,N,07032.3901609,W,1,24,0.6,13.286,M,-29.745,M,0.0,*51
###2023-12-09 13:41:11.599567$GNGGA,184110.70,4138.0266587,N,07032.3901847,W,1,24,0.6,13.278,M,-29.745,M,0.0,*5B
###2023-12-09 13:41:11.798156$GNGGA,184110.90,4138.0266801,N,07032.3902646,W,1,24,0.6,13.309,M,-29.745,M,0.0,*5D
###2023-12-09 13:41:12.003419$GNRMC,184111.10,A,4138.0266919,N,07032.3903074,W,0.10,289.49,091223,,,A*5A
###2023-12-09 13:41:12.006282$GNGGA,184111.10,4138.0266919,N,07032.3903074,W,1,24,0.6,13.310,M,-29.745,M,0.0,*52
###2023-12-09 13:41:12.008100$GPGSA,A,3,04,16,26,27,28,29,31,,,,,,1.2,0.6,1.0*37
###2023-12-09 13:41:12.009886$GLGSA,A,3,65,71,72,73,74,75,83,,,,,,1.2,0.6,1.0*24
###2023-12-09 13:41:12.011487$GAGSA,A,3,04,19,21,27,,,,,,,,,1.2,0.6,1.0*2D
###2023-12-09 13:41:12.013194$GBGSA,A,3,12,14,24,25,33,35,,,,,,,1.2,0.6,1.0*25
###2023-12-09 13:41:12.015532$GPGSV,2,1,07,04,49,306,47,16,69,225,45,26,81,040,46,27,19,172,37*78
###2023-12-09 13:41:12.017567$GPGSV,2,2,07,28,36,087,41,29,19,045,41,31,58,070,45,,,,*45
###2023-12-09 13:41:12.019903$GLGSV,2,1,07,65,41,315,46,71,19,176,37,72,59,216,45,73,20,054,41*67
###2023-12-09 13:41:12.021937$GLGSV,2,2,07,74,57,019,42,75,45,276,49,83,16,044,36,,,,*59
###2023-12-09 13:41:12.024286$GAGSV,1,1,04,04,41,309,47,19,69,180,41,21,74,044,45,27,20,051,39*67
###2023-12-09 13:41:12.026636$GBGSV,2,1,06,12,17,124,35,14,26,189,39,24,60,049,46,25,53,279,49*6E
###2023-12-09 13:41:12.028379$GBGSV,2,2,06,33,43,215,43,35,16,054,42,,,,,,,,*6D
###2023-12-09 13:41:12.029702$GNVTG,289.49,T,,M,0.10,N,0.18,K,A*25
###2023-12-09 13:41:12.031331$GNGST,184111.10,7.100,,,,0.100,0.091,0.200*67
###2023-12-09 13:41:12.032620$GNZDA,184111.10,09,12,2023,00,00*7C
###2023-12-09 13:41:12.033257$GNEBP,,,,,,M*13
###2023-12-09 13:41:12.201583$GNGGA,184111.30,4138.0266799,N,07032.3902724,W,1,24,0.6,13.320,M,-29.745,M,0.0,*56
###2023-12-09 13:41:12.398975$GNGGA,184111.50,4138.0266664,N,07032.3902415,W,1,24,0.6,13.278,M,-29.745,M,0.0,*5E
###2023-12-09 13:41:12.598532$GNGGA,184111.70,4138.0266765,N,07032.3902862,W,1,24,0.6,13.300,M,-29.745,M,0.0,*5E
###2023-12-09 13:41:12.799738$GNGGA,184111.90,4138.0266959,N,07032.3903653,W,1,24,0.6,13.310,M,-29.745,M,0.0,*5D
###2023-12-09 13:41:13.004151$GNRMC,184112.10,A,4138.0266990,N,07032.3903779,W,0.54,286.70,091223,,,A*57
###2023-12-09 13:41:13.007019$GNGGA,184112.10,4138.0266990,N,07032.3903779,W,1,24,0.6,13.306,M,-29.745,M,0.0,*5D
###2023-12-09 13:41:13.008803$GPGSA,A,3,04,16,26,27,28,29,31,,,,,,1.2,0.6,1.0*37
###2023-12-09 13:41:13.010596$GLGSA,A,3,65,71,72,73,74,75,83,,,,,,1.2,0.6,1.0*24
###2023-12-09 13:41:13.012189$GAGSA,A,3,04,19,21,27,,,,,,,,,1.2,0.6,1.0*2D
###2023-12-09 13:41:13.013902$GBGSA,A,3,12,14,24,25,33,35,,,,,,,1.2,0.6,1.0*25
###2023-12-09 13:41:13.016249$GPGSV,2,1,07,04,49,306,47,16,69,225,45,26,81,040,47,27,19,172,37*79
###2023-12-09 13:41:13.018290$GPGSV,2,2,07,28,36,087,42,29,19,045,40,31,58,070,45,,,,*47
###2023-12-09 13:41:13.020638$GLGSV,2,1,07,65,41,315,46,71,19,176,39,72,59,216,46,73,20,054,42*69
###2023-12-09 13:41:13.022700$GLGSV,2,2,07,74,57,019,43,75,45,276,49,83,16,044,36,,,,*58
###2023-12-09 13:41:13.025031$GAGSV,1,1,04,04,41,309,46,19,69,180,39,21,74,044,45,27,20,051,39*69
###2023-12-09 13:41:13.027367$GBGSV,2,1,06,12,17,124,35,14,26,189,40,24,60,049,46,25,53,279,49*60
###2023-12-09 13:41:13.029117$GBGSV,2,2,06,33,43,215,44,35,16,054,42,,,,,,,,*6A
###2023-12-09 13:41:13.030441$GNVTG,286.70,T,,M,0.54,N,1.01,K,A*29
###2023-12-09 13:41:13.032072$GNGST,184112.10,6.900,,,,0.100,0.092,0.210*6F
###2023-12-09 13:41:13.033367$GNZDA,184112.10,09,12,2023,00,00*7F
###2023-12-09 13:41:13.034004$GNEBP,,,,,,M*13
###2023-12-09 13:41:13.199946$GNGGA,184112.30,4138.0266807,N,07032.3903297,W,1,24,0.6,13.293,M,-29.745,M,0.0,*58
###2023-12-09 13:41:13.398119$GNGGA,184112.50,4138.0266749,N,07032.3903215,W,1,24,0.6,13.270,M,-29.745,M,0.0,*5C
###2023-12-09 13:41:13.596625$GNGGA,184112.70,4138.0266900,N,07032.3903867,W,1,24,0.6,13.306,M,-29.745,M,0.0,*52
###2023-12-09 13:41:13.796981$GNGGA,184112.90,4138.0267034,N,07032.3904485,W,1,24,0.6,13.304,M,-29.745,M,0.0,*56
###2023-12-09 13:41:14.001137$GNRMC,184113.10,A,4138.0266970,N,07032.3904344,W,0.82,287.43,091223,,,A*5F
###2023-12-09 13:41:14.004108$GNGGA,184113.10,4138.0266970,N,07032.3904344,W,1,24,0.6,13.302,M,-29.745,M,0.0,*5B
###2023-12-09 13:41:14.005906$GPGSA,A,3,04,16,26,27,28,29,31,,,,,,1.2,0.6,1.0*37
###2023-12-09 13:41:14.007692$GLGSA,A,3,65,71,72,73,74,75,83,,,,,,1.2,0.6,1.0*24
###2023-12-09 13:41:14.009275$GAGSA,A,3,04,19,21,27,,,,,,,,,1.2,0.6,1.0*2D
###2023-12-09 13:41:14.010993$GBGSA,A,3,12,14,24,25,33,35,,,,,,,1.2,0.6,1.0*25
###2023-12-09 13:41:14.013309$GPGSV,2,1,07,04,49,306,47,16,69,225,45,26,81,040,47,27,19,172,39*77
###2023-12-09 13:41:14.015362$GPGSV,2,2,07,28,36,087,43,29,19,045,42,31,58,070,45,,,,*44
###2023-12-09 13:41:14.017697$GLGSV,2,1,07,65,41,315,46,71,19,176,39,72,59,216,45,73,20,054,42*6A
###2023-12-09 13:41:14.019745$GLGSV,2,2,07,74,57,019,42,75,45,276,49,83,16,044,35,,,,*5A
###2023-12-09 13:41:14.022067$GAGSV,1,1,04,04,41,309,46,19,69,180,41,21,74,044,46,27,20,051,39*65
###2023-12-09 13:41:14.024412$GBGSV,2,1,06,12,17,124,38,14,26,189,40,24,60,049,47,25,53,279,49*6C
###2023-12-09 13:41:14.026161$GBGSV,2,2,06,33,43,215,45,35,16,054,42,,,,,,,,*6B
###2023-12-09 13:41:14.027497$GNVTG,287.43,T,,M,0.82,N,1.51,K,A*26
###2023-12-09 13:41:14.029111$GNGST,184113.10,6.500,,,,0.110,0.093,0.210*62
###2023-12-09 13:41:14.030399$GNZDA,184113.10,09,12,2023,00,00*7E
###2023-12-09 13:41:14.031051$GNEBP,,,,,,M*13
###2023-12-09 13:41:14.197583$GNGGA,184113.30,4138.0266823,N,07032.3903872,W,1,24,0.6,13.265,M,-29.745,M,0.0,*57
###2023-12-09 13:41:14.396831$GNGGA,184113.50,4138.0266824,N,07032.3903995,W,1,24,0.6,13.260,M,-29.745,M,0.0,*5B
###2023-12-09 13:41:14.597919$GNGGA,184113.70,4138.0266959,N,07032.3904694,W,1,24,0.6,13.293,M,-29.745,M,0.0,*57
###2023-12-09 13:41:14.796318$GNGGA,184113.90,4138.0267031,N,07032.3905172,W,1,24,0.6,13.308,M,-29.745,M,0.0,*52
###2023-12-09 13:41:15.000350$GNRMC,184114.10,A,4138.0266973,N,07032.3904975,W,0.64,284.17,091223,,,A*59
###2023-12-09 13:41:15.003248$GNGGA,184114.10,4138.0266973,N,07032.3904975,W,1,23,0.6,13.308,M,-29.745,M,0.0,*5A
###2023-12-09 13:41:15.005053$GPGSA,A,3,04,16,26,27,28,29,31,,,,,,1.2,0.6,1.0*37
###2023-12-09 13:41:15.006784$GLGSA,A,3,65,71,72,73,74,75,,,,,,,1.2,0.6,1.0*2F
###2023-12-09 13:41:15.008379$GAGSA,A,3,04,19,21,27,,,,,,,,,1.2,0.6,1.0*2D
###2023-12-09 13:41:15.010099$GBGSA,A,3,12,14,24,25,33,35,,,,,,,1.2,0.6,1.0*25
