###2023-12-09 13:11:09.999500$GBGSV,2,1,06,14,39,192,44,24,70,032,48,25,44,266,46,26,23,065,43*61
###2023-12-09 13:11:10.001267$GBGSV,2,2,06,33,54,227,47,35,15,065,43,,,,,,,,*6E
###2023-12-09 13:11:10.002532$GNVTG,2.97,T,,M,3.83,N,7.09,K,A*29
###2023-12-09 13:11:10.004197$GNGST,181109.10,18.000,,,,0.096,0.071,0.170*50
###2023-12-09 13:11:10.005485$GNZDA,181109.10,09,12,2023,00,00*70
###2023-12-09 13:11:10.006121$GNEBP,,,,,,M*13
###2023-12-09 13:11:10.170404$GNGGA,181109.30,4138.0238883,N,07032.2775170,W,1,24,0.7,13.004,M,-29.744,M,0.0,*58
###2023-12-09 13:11:10.376351$GNGGA,181109.50,4138.0240926,N,07032.2775081,W,1,24,0.7,13.001,M,-29.744,M,0.0,*55
###2023-12-09 13:11:10.572860$GNGGA,181109.70,4138.0242975,N,07032.2774740,W,1,24,0.7,13.011,M,-29.744,M,0.0,*59
###2023-12-09 13:11:10.772210$GNGGA,181109.90,4138.0245028,N,07032.2774408,W,1,24,0.7,13.005,M,-29.744,M,0.0,*5B
###2023-12-09 13:11:10.975564$GNRMC,181110.10,A,4138.0247029,N,07032.2774396,W,3.62,356.37,091223,,,A*5B
###2023-12-09 13:11:10.978426$GNGGA,181110.10,4138.0247029,N,07032.2774396,W,1,24,0.7,13.002,M,-29.744,M,0.0,*5F
###2023-12-09 13:11:10.980239$GPGSA,A,3,03,04,16,26,28,29,31,,,,,,1.2,0.7,1.0*30
###2023-12-09 13:11:10.981958$GLGSA,A,3,65,71,72,73,74,75,,,,,,,1.2,0.7,1.0*2E
###2023-12-09 13:11:10.983556$GAGSA,A,3,04,19,21,27,,,,,,,,,1.2,0.7,1.0*2C
###2023-12-09 13:11:10.985274$GBGSA,A,3,14,24,25,26,33,35,,,,,,,1.2,0.7,1.0*23
###2023-12-09 13:11:10.987630$GPGSV,2,1,07,03,33,256,43,04,37,311,44,16,54,214,45,26,84,210,48*7C
###2023-12-09 13:11:10.989684$GPGSV,2,2,07,28,46,074,46,29,24,057,42,31,67,046,47,,,,*4C
###2023-12-09 13:11:10.992037$GLGSV,2,1,06,65,28,326,40,71,35,174,47,72,72,250,45,73,31,045,44*6A
###2023-12-09 13:11:10.993797$GLGSV,2,2,06,74,67,351,41,75,36,258,45,,,,,,,,*6A
###2023-12-09 13:11:10.996139$GAGSV,1,1,04,04,32,312,42,19,81,195,40,21,84,075,45,27,30,048,41*64
###2023-12-09 13:11:10.998482$GBGSV,2,1,06,14,39,192,44,24,70,032,47,25,44,266,46,26,23,065,43*6E
###2023-12-09 13:11:11.000246$GBGSV,2,2,06,33,54,227,47,35,15,065,44,,,,,,,,*69
###2023-12-09 13:11:11.001580$GNVTG,356.37,T,,M,3.62,N,6.70,K,A*21
###2023-12-09 13:11:11.003243$GNGST,181110.10,18.000,,,,0.096,0.071,0.170*58
###2023-12-09 13:11:11.004538$GNZDA,181110.10,09,12,2023,00,00*78
###2023-12-09 13:11:11.005178$GNEBP,,,,,,M*13
###2023-12-09 13:11:11.170709$GNGGA,181110.30,4138.0249059,N,07032.2774513,W,1,24,0.7,13.005,M,-29.744,M,0.0,*58
###2023-12-09 13:11:11.370880$GNGGA,181110.50,4138.0251102,N,07032.2774308,W,1,24,0.7,13.002,M,-29.744,M,0.0,*53
###2023-12-09 13:11:11.571486$GNGGA,181110.70,4138.0253122,N,07032.2773731,W,1,24,0.7,13.009,M,-29.744,M,0.0,*53
###2023-12-09 13:11:11.772433$GNGGA,181110.90,4138.0255170,N,07032.2773197,W,1,24,0.7,13.011,M,-29.744,M,0.0,*5F
###2023-12-09 13:11:11.972974$GNRMC,181111.10,A,4138.0257243,N,07032.2772857,W,3.77,6.16,091223,,,A*54
###2023-12-09 13:11:11.975847$GNGGA,181111.10,4138.0257243,N,07032.2772857,W,1,24,0.7,13.014,M,-29.744,M,0.0,*56
###2023-12-09 13:11:11.977643$GPGSA,A,3,03,04,16,26,28,29,31,,,,,,1.2,0.7,1.0*30
###2023-12-09 13:11:11.979366$GLGSA,A,3,65,71,72,73,74,75,,,,,,,1.2,0.7,1.0*2E
###2023-12-09 13:11:11.980947$GAGSA,A,3,04,19,21,27,,,,,,,,,1.2,0.7,1.0*2C
###2023-12-09 13:11:11.982657$GBGSA,A,3,14,24,25,26,33,35,,,,,,,1.2,0.7,1.0*23
###2023-12-09 13:11:11.984974$GPGSV,2,1,07,03,33,256,43,04,37,311,44,16,54,214,46,26,84,210,48*7F
###2023-12-09 13:11:11.987049$GPGSV,2,2,07,28,46,074,44,29,24,057,40,31,67,046,46,,,,*4D
###2023-12-09 13:11:11.989379$GLGSV,2,1,06,65,28,326,41,71,35,174,46,72,72,250,46,73,31,045,41*6C
###2023-12-09 13:11:11.991134$GLGSV,2,2,06,74,67,351,41,75,36,258,47,,,,,,,,*68
###2023-12-09 13:11:11.993459$GAGSV,1,1,04,04,32,312,42,19,81,195,40,21,84,075,45,27,30,048,38*6A
###2023-12-09 13:11:11.995787$GBGSV,2,1,06,14,39,192,45,24,70,032,47,25,44,266,48,26,23,065,41*63
###2023-12-09 13:11:11.997528$GBGSV,2,2,06,33,54,227,47,35,15,065,41,,,,,,,,*6C
###2023-12-09 13:11:11.998794$GNVTG,6.16,T,,M,3.77,N,6.98,K,A*26
###2023-12-09 13:11:12.000437$GNGST,181111.10,18.000,,,,0.096,0.071,0.170*59
###2023-12-09 13:11:12.001726$GNZDA,181111.10,09,12,2023,00,00*79
###2023-12-09 13:11:12.002364$GNEBP,,,,,,M*13
###2023-12-09 13:11:12.173055$GNGGA,181111.30,4138.0259353,N,07032.2772338,W,1,24,0.7,13.008,M,-29.744,M,0.0,*55
###2023-12-09 13:11:12.371897$GNGGA,181111.50,4138.0261425,N,07032.2771490,W,1,24,0.7,13.001,M,-29.744,M,0.0,*51
###2023-12-09 13:11:12.571342$GNGGA,181111.70,4138.0263468,N,07032.2770704,W,1,24,0.7,13.007,M,-29.744,M,0.0,*51
###2023-12-09 13:11:12.771326$GNGGA,181111.90,4138.0265596,N,07032.2770105,W,1,24,0.7,12.999,M,-29.744,M,0.0,*51
###2023-12-09 13:11:12.973810$GNRMC,181112.10,A,4138.0267717,N,07032.2769708,W,3.83,5.08,091223,,,A*58
###2023-12-09 13:11:12.976676$GNGGA,181112.10,4138.0267717,N,07032.2769708,W,1,24,0.7,12.985,M,-29.744,M,0.0,*5D
###2023-12-09 13:11:12.978461$GPGSA,A,3,03,04,16,26,28,29,31,,,,,,1.2,0.7,1.0*30
###2023-12-09 13:11:12.980193$GLGSA,A,3,65,71,72,73,74,75,,,,,,,1.2,0.7,1.0*2E
###2023-12-09 13:11:12.981774$GAGSA,A,3,04,19,21,27,,,,,,,,,1.2,0.7,1.0*2C
###2023-12-09 13:11:12.983501$GBGSA,A,3,14,24,25,26,33,35,,,,,,,1.2,0.7,1.0*23
###2023-12-09 13:11:12.985835$GPGSV,2,1,07,03,33,256,43,04,37,311,44,16,54,214,46,26,84,210,48*7F
###2023-12-09 13:11:12.987891$GPGSV,2,2,07,28,46,074,44,29,24,057,40,31,67,046,46,,,,*4D
###2023-12-09 13:11:12.990229$GLGSV,2,1,06,65,28,326,42,71,35,174,45,72,72,250,46,73,31,045,42*6F
###2023-12-09 13:11:12.991995$GLGSV,2,2,06,74,67,351,41,75,36,258,46,,,,,,,,*69
###2023-12-09 13:11:12.994327$GAGSV,1,1,04,04,32,312,42,19,81,195,41,21,84,075,46,27,30,048,39*69
###2023-12-09 13:11:12.996679$GBGSV,2,1,06,14,39,192,43,24,70,032,47,25,44,266,46,26,23,065,42*68
###2023-12-09 13:11:12.998432$GBGSV,2,2,06,33,54,227,47,35,15,065,40,,,,,,,,*6D
###2023-12-09 13:11:12.999708$GNVTG,5.08,T,,M,3.83,N,7.09,K,A*28
###2023-12-09 13:11:13.001364$GNGST,181112.10,18.000,,,,0.096,0.071,0.170*5A
###2023-12-09 13:11:13.002669$GNZDA,181112.10,09,12,2023,00,00*7A
###2023-12-09 13:11:13.003310$GNEBP,,,,,,M*13
###2023-12-09 13:11:13.170580$GNGGA,181112.30,4138.0269858,N,07032.2769312,W,1,24,0.7,13.001,M,-29.744,M,0.0,*5E
###2023-12-09 13:11:13.373101$GNGGA,181112.50,4138.0272077,N,07032.2768621,W,1,24,0.7,13.012,M,-29.744,M,0.0,*51
###2023-12-09 13:11:13.572420$GNGGA,181112.70,4138.0274269,N,07032.2768120,W,1,24,0.7,12.992,M,-29.744,M,0.0,*5E
###2023-12-09 13:11:13.771754$GNGGA,181112.90,4138.0276483,N,07032.2767928,W,1,24,0.7,12.991,M,-29.744,M,0.0,*5C
###2023-12-09 13:11:13.973975$GNRMC,181113.10,A,4138.0278702,N,07032.2767571,W,4.02,9.53,091223,,,A*5D
###2023-12-09 13:11:13.976865$GNGGA,181113.10,4138.0278702,N,07032.2767571,W,1,24,0.7,12.988,M,-29.744,M,0.0,*59
###2023-12-09 13:11:13.978680$GPGSA,A,3,03,04,16,26,28,29,31,,,,,,1.2,0.7,1.0*30
###2023-12-09 13:11:13.980398$GLGSA,A,3,65,71,72,73,74,75,,,,,,,1.2,0.7,1.0*2E
###2023-12-09 13:11:13.981977$GAGSA,A,3,04,19,21,27,,,,,,,,,1.2,0.7,1.0*2C
###2023-12-09 13:11:13.983703$GBGSA,A,3,14,24,25,26,33,35,,,,,,,1.2,0.7,1.0*23
###2023-12-09 13:11:13.986023$GPGSV,2,1,07,03,33,256,43,04,37,311,44,16,54,214,46,26,84,210,48*7F
###2023-12-09 13:11:13.988072$GPGSV,2,2,07,28,46,074,43,29,24,057,40,31,67,046,45,,,,*49
###2023-12-09 13:11:13.990401$GLGSV,2,1,06,65,28,326,41,71,35,174,46,72,72,250,46,73,31,045,41*6C
###2023-12-09 13:11:13.992161$GLGSV,2,2,06,74,67,351,41,75,36,258,47,,,,,,,,*68
###2023-12-09 13:11:13.994483$GAGSV,1,1,04,04,32,312,43,19,81,195,41,21,84,075,46,27,30,048,39*68
###2023-12-09 13:11:13.996815$GBGSV,2,1,06,14,39,192,45,24,70,032,48,25,44,266,47,26,23,065,41*63
###2023-12-09 13:11:13.998558$GBGSV,2,2,06,33,54,227,47,35,15,065,40,,,,,,,,*6D
###2023-12-09 13:11:13.999856$GNVTG,9.53,T,,M,4.02,N,7.45,K,A*2C
###2023-12-09 13:11:14.001501$GNGST,181113.10,18.000,,,,0.096,0.071,0.170*5B
###2023-12-09 13:11:14.002800$GNZDA,181113.10,09,12,2023,00,00*7B
###2023-12-09 13:11:14.003438$GNEBP,,,,,,M*13
###2023-12-09 13:11:14.174641$GNGGA,181113.30,4138.0280871,N,07032.2767014,W,1,24,0.7,12.990,M,-29.744,M,0.0,*58
###2023-12-09 13:11:14.370773$GNGGA,181113.50,4138.0283055,N,07032.2766539,W,1,24,0.7,13.008,M,-29.744,M,0.0,*51
###2023-12-09 13:11:14.571367$GNGGA,181113.70,4138.0285237,N,07032.2766153,W,1,24,0.7,12.994,M,-29.744,M,0.0,*56
###2023-12-09 13:11:14.771268$GNGGA,181113.90,4138.0287380,N,07032.2765846,W,1,24,0.7,12.976,M,-29.744,M,0.0,*55
###2023-12-09 13:11:14.975674$GNRMC,181114.10,A,4138.0289496,N,07032.2765598,W,3.79,4.82,091223,,,A*55
###2023-12-09 13:11:14.978546$GNGGA,181114.10,4138.0289496,N,07032.2765598,W,1,24,0.7,12.978,M,-29.744,M,0.0,*54
###2023-12-09 13:11:14.980354$GPGSA,A,3,03,04,16,26,28,29,31,,,,,,1.2,0.7,1.0*30
###2023-12-09 13:11:14.982064$GLGSA,A,3,65,71,72,73,74,75,,,,,,,1.2,0.7,1.0*2E
###2023-12-09 13:11:14.983692$GAGSA,A,3,04,19,21,27,,,,,,,,,1.2,0.7,1.0*2C
###2023-12-09 13:11:14.985405$GBGSA,A,3,14,24,25,26,33,35,,,,,,,1.2,0.7,1.0*23
