###2023-12-09 12:57:49.984405$GBGSV,2,1,05,14,45,193,47,24,75,020,49,25,39,260,47,26,27,062,43*62
###2023-12-09 12:57:49.985888$GBGSV,2,2,05,33,59,235,48,,,,,,,,,,,,*5A
###2023-12-09 12:57:49.987198$GNVTG,90.72,T,,M,3.62,N,6.70,K,A*19
###2023-12-09 12:57:49.988849$GNGST,175749.10,18.000,,,,0.078,0.066,0.160*5E
###2023-12-09 12:57:49.990142$GNZDA,175749.10,09,12,2023,00,00*79
###2023-12-09 12:57:49.990796$GNEBP,,,,,,M*13
###2023-12-09 12:57:50.158004$GNGGA,175749.30,4138.0342686,N,07032.3538048,W,1,24,0.6,13.297,M,-29.745,M,0.0,*5E
###2023-12-09 12:57:50.358857$GNGGA,175749.50,4138.0342653,N,07032.3535598,W,1,24,0.6,13.315,M,-29.745,M,0.0,*5E
###2023-12-09 12:57:50.559809$GNGGA,175749.70,4138.0342645,N,07032.3532955,W,1,24,0.6,13.324,M,-29.745,M,0.0,*53
###2023-12-09 12:57:50.760158$GNGGA,175749.90,4138.0342406,N,07032.3530423,W,1,24,0.6,13.306,M,-29.745,M,0.0,*56
###2023-12-09 12:57:50.962069$GNRMC,175750.10,A,4138.0342029,N,07032.3527892,W,3.50,102.52,091223,,,A*5D
###2023-12-09 12:57:50.964977$GNGGA,175750.10,4138.0342029,N,07032.3527892,W,1,24,0.6,13.321,M,-29.745,M,0.0,*5A
###2023-12-09 12:57:50.966853$GPGSA,A,3,03,04,16,26,28,29,31,32,,,,,1.1,0.6,0.9*3B
###2023-12-09 12:57:50.968568$GLGSA,A,3,65,71,72,73,74,75,,,,,,,1.1,0.6,0.9*24
###2023-12-09 12:57:50.970152$GAGSA,A,3,04,19,21,27,,,,,,,,,1.1,0.6,0.9*26
###2023-12-09 12:57:50.971805$GBGSA,A,3,14,24,25,26,33,,,,,,,,1.1,0.6,0.9*2F
###2023-12-09 12:57:50.974123$GPGSV,2,1,08,03,36,264,45,04,31,311,42,16,48,211,47,26,78,209,48*70
###2023-12-09 12:57:50.976464$GPGSV,2,2,08,28,50,069,44,29,25,063,42,31,69,033,47,32,20,139,42*7E
###2023-12-09 12:57:50.978801$GLGSV,2,1,06,65,22,328,40,71,43,172,47,72,73,277,46,73,37,040,46*6F
###2023-12-09 12:57:50.980549$GLGSV,2,2,06,74,70,331,43,75,30,251,45,,,,,,,,*67
###2023-12-09 12:57:50.982884$GAGSV,1,1,04,04,27,312,42,19,85,234,40,21,85,141,46,27,34,048,42*6F
###2023-12-09 12:57:50.985208$GBGSV,2,1,05,14,45,193,45,24,75,020,48,25,39,260,45,26,27,062,43*63
###2023-12-09 12:57:50.986663$GBGSV,2,2,05,33,59,235,47,,,,,,,,,,,,*55
###2023-12-09 12:57:50.987983$GNVTG,102.52,T,,M,3.50,N,6.48,K,A*2B
###2023-12-09 12:57:50.989622$GNGST,175750.10,18.000,,,,0.078,0.066,0.160*56
###2023-12-09 12:57:50.990920$GNZDA,175750.10,09,12,2023,00,00*71
###2023-12-09 12:57:50.991557$GNEBP,,,,,,M*13
###2023-12-09 12:57:51.161455$GNGGA,175750.30,4138.0341628,N,07032.3525335,W,1,24,0.6,13.331,M,-29.745,M,0.0,*59
###2023-12-09 12:57:51.358868$GNGGA,175750.50,4138.0341236,N,07032.3522696,W,1,24,0.6,13.322,M,-29.745,M,0.0,*5D
###2023-12-09 12:57:51.558661$GNGGA,175750.70,4138.0340935,N,07032.3520103,W,1,24,0.6,13.328,M,-29.745,M,0.0,*55
###2023-12-09 12:57:51.761644$GNGGA,175750.90,4138.0340517,N,07032.3517402,W,1,24,0.6,13.334,M,-29.745,M,0.0,*5A
###2023-12-09 12:57:51.960014$GNRMC,175751.10,A,4138.0340028,N,07032.3514706,W,3.62,100.61,091223,,,A*5E
###2023-12-09 12:57:51.962904$GNGGA,175751.10,4138.0340028,N,07032.3514706,W,1,24,0.6,13.320,M,-29.745,M,0.0,*5B
###2023-12-09 12:57:51.964763$GPGSA,A,3,03,04,16,26,28,29,31,32,,,,,1.1,0.6,0.9*3B
###2023-12-09 12:57:51.966475$GLGSA,A,3,65,71,72,73,74,75,,,,,,,1.1,0.6,0.9*24
###2023-12-09 12:57:51.968070$GAGSA,A,3,04,19,21,27,,,,,,,,,1.1,0.6,0.9*26
###2023-12-09 12:57:51.969715$GBGSA,A,3,14,24,25,26,33,,,,,,,,1.1,0.6,0.9*2F
###2023-12-09 12:57:51.972049$GPGSV,2,1,08,03,36,264,45,04,31,311,42,16,48,211,47,26,78,209,48*70
###2023-12-09 12:57:51.974375$GPGSV,2,2,08,28,50,069,43,29,25,063,40,31,69,033,47,32,20,139,42*7B
###2023-12-09 12:57:51.976715$GLGSV,2,1,06,65,22,328,40,71,43,172,47,72,73,277,47,73,37,040,46*6E
###2023-12-09 12:57:51.978452$GLGSV,2,2,06,74,70,331,43,75,30,251,47,,,,,,,,*65
###2023-12-09 12:57:51.980775$GAGSV,1,1,04,04,28,312,40,19,85,234,40,21,85,141,45,27,34,048,43*60
###2023-12-09 12:57:51.983114$GBGSV,2,1,05,14,45,193,46,24,75,020,49,25,39,260,48,26,27,062,42*6D
###2023-12-09 12:57:51.984564$GBGSV,2,2,05,33,59,235,49,,,,,,,,,,,,*5B
###2023-12-09 12:57:51.985877$GNVTG,100.61,T,,M,3.62,N,6.70,K,A*23
###2023-12-09 12:57:51.987530$GNGST,175751.10,18.000,,,,0.078,0.066,0.160*57
###2023-12-09 12:57:51.988818$GNZDA,175751.10,09,12,2023,00,00*70
###2023-12-09 12:57:51.989457$GNEBP,,,,,,M*13
###2023-12-09 12:57:52.157985$GNGGA,175751.30,4138.0339818,N,07032.3512023,W,1,24,0.6,13.337,M,-29.745,M,0.0,*5C
###2023-12-09 12:57:52.359625$GNGGA,175751.50,4138.0339597,N,07032.3509192,W,1,24,0.6,13.331,M,-29.745,M,0.0,*57
###2023-12-09 12:57:52.559945$GNGGA,175751.70,4138.0339375,N,07032.3506473,W,1,24,0.6,13.313,M,-29.745,M,0.0,*5A
###2023-12-09 12:57:52.759970$GNGGA,175751.90,4138.0339429,N,07032.3503762,W,1,24,0.6,13.338,M,-29.745,M,0.0,*55
###2023-12-09 12:57:52.962501$GNRMC,175752.10,A,4138.0339311,N,07032.3500954,W,3.81,94.54,091223,,,A*61
###2023-12-09 12:57:52.965405$GNGGA,175752.10,4138.0339311,N,07032.3500954,W,1,24,0.6,13.336,M,-29.745,M,0.0,*54
###2023-12-09 12:57:52.967274$GPGSA,A,3,03,04,16,26,28,29,31,32,,,,,1.1,0.6,0.9*3B
###2023-12-09 12:57:52.968989$GLGSA,A,3,65,71,72,73,74,75,,,,,,,1.1,0.6,0.9*24
###2023-12-09 12:57:52.970578$GAGSA,A,3,04,19,21,27,,,,,,,,,1.1,0.6,0.9*26
###2023-12-09 12:57:52.972226$GBGSA,A,3,14,24,25,26,33,,,,,,,,1.1,0.6,0.9*2F
###2023-12-09 12:57:52.974545$GPGSV,2,1,08,03,36,264,46,04,31,311,42,16,48,211,46,26,78,209,47*7D
###2023-12-09 12:57:52.976881$GPGSV,2,2,08,28,50,069,44,29,25,063,39,31,69,033,46,32,20,139,43*72
###2023-12-09 12:57:52.979216$GLGSV,2,1,06,65,22,328,42,71,43,172,47,72,73,277,47,73,37,040,45*6F
###2023-12-09 12:57:52.980953$GLGSV,2,2,06,74,70,331,43,75,30,251,47,,,,,,,,*65
###2023-12-09 12:57:52.983286$GAGSV,1,1,04,04,28,312,40,19,85,234,40,21,85,141,46,27,34,048,43*63
###2023-12-09 12:57:52.985613$GBGSV,2,1,05,14,45,193,46,24,75,020,47,25,39,260,46,26,27,062,40*6F
###2023-12-09 12:57:52.987072$GBGSV,2,2,05,33,59,235,48,,,,,,,,,,,,*5A
###2023-12-09 12:57:52.988359$GNVTG,94.54,T,,M,3.81,N,7.06,K,A*14
###2023-12-09 12:57:52.989999$GNGST,175752.10,18.000,,,,0.078,0.066,0.160*54
###2023-12-09 12:57:52.991300$GNZDA,175752.10,09,12,2023,00,00*73
###2023-12-09 12:57:52.991936$GNEBP,,,,,,M*13
###2023-12-09 12:57:53.158966$GNGGA,175752.30,4138.0339290,N,07032.3498238,W,1,24,0.6,13.324,M,-29.745,M,0.0,*5C
###2023-12-09 12:57:53.359347$GNGGA,175752.50,4138.0339594,N,07032.3495570,W,1,24,0.6,13.343,M,-29.745,M,0.0,*5E
###2023-12-09 12:57:53.559738$GNGGA,175752.70,4138.0339757,N,07032.3492859,W,1,24,0.6,13.338,M,-29.745,M,0.0,*5C
###2023-12-09 12:57:53.759120$GNGGA,175752.90,4138.0339725,N,07032.3490175,W,1,24,0.6,13.331,M,-29.745,M,0.0,*5B
###2023-12-09 12:57:53.962769$GNRMC,175753.10,A,4138.0339897,N,07032.3487508,W,3.63,82.98,091223,,,A*65
###2023-12-09 12:57:53.965641$GNGGA,175753.10,4138.0339897,N,07032.3487508,W,1,24,0.6,13.336,M,-29.745,M,0.0,*5B
###2023-12-09 12:57:53.967537$GPGSA,A,3,03,04,16,26,28,29,31,32,,,,,1.1,0.6,0.9*3B
###2023-12-09 12:57:53.969262$GLGSA,A,3,65,71,72,73,74,75,,,,,,,1.1,0.6,0.9*24
###2023-12-09 12:57:53.970862$GAGSA,A,3,04,19,21,27,,,,,,,,,1.1,0.6,0.9*26
###2023-12-09 12:57:53.972517$GBGSA,A,3,14,24,25,26,33,,,,,,,,1.1,0.6,0.9*2F
###2023-12-09 12:57:53.974861$GPGSV,2,1,08,03,36,264,46,04,31,311,41,16,48,211,47,26,78,209,48*70
###2023-12-09 12:57:53.977198$GPGSV,2,2,08,28,50,069,44,29,25,063,39,31,69,033,46,32,20,139,43*72
###2023-12-09 12:57:53.979548$GLGSV,2,1,06,65,22,328,39,71,43,172,48,72,73,277,47,73,37,040,45*6C
###2023-12-09 12:57:53.981300$GLGSV,2,2,06,74,70,331,43,75,30,251,46,,,,,,,,*64
###2023-12-09 12:57:53.983646$GAGSV,1,1,04,04,28,312,38,19,85,234,40,21,85,141,46,27,34,048,43*6C
###2023-12-09 12:57:53.985984$GBGSV,2,1,05,14,45,193,47,24,75,020,48,25,39,260,48,26,27,062,42*6D
###2023-12-09 12:57:53.987454$GBGSV,2,2,05,33,59,235,49,,,,,,,,,,,,*5B
###2023-12-09 12:57:53.988747$GNVTG,82.98,T,,M,3.63,N,6.73,K,A*1C
###2023-12-09 12:57:53.990397$GNGST,175753.10,18.000,,,,0.078,0.067,0.160*54
###2023-12-09 12:57:53.991709$GNZDA,175753.10,09,12,2023,00,00*72
###2023-12-09 12:57:53.992350$GNEBP,,,,,,M*13
###2023-12-09 12:57:54.158899$GNGGA,175753.30,4138.0340133,N,07032.3484909,W,1,24,0.6,13.333,M,-29.745,M,0.0,*5B
###2023-12-09 12:57:54.359654$GNGGA,175753.50,4138.0340137,N,07032.3482235,W,1,24,0.6,13.329,M,-29.745,M,0.0,*50
###2023-12-09 12:57:54.559587$GNGGA,175753.70,4138.0339997,N,07032.3479687,W,1,24,0.6,13.332,M,-29.745,M,0.0,*5D
###2023-12-09 12:57:54.759908$GNGGA,175753.90,4138.0340052,N,07032.3477098,W,1,24,0.6,13.354,M,-29.745,M,0.0,*5B
###2023-12-09 12:57:54.962719$GNRMC,175754.10,A,4138.0339906,N,07032.3474417,W,3.38,96.10,091223,,,A*63
###2023-12-09 12:57:54.965581$GNGGA,175754.10,4138.0339906,N,07032.3474417,W,1,24,0.6,13.328,M,-29.745,M,0.0,*59
###2023-12-09 12:57:54.967454$GPGSA,A,3,03,04,16,26,28,29,31,32,,,,,1.1,0.6,0.9*3B
###2023-12-09 12:57:54.969174$GLGSA,A,3,65,71,72,73,74,75,,,,,,,1.1,0.6,0.9*24
###2023-12-09 12:57:54.970775$GAGSA,A,3,04,19,21,27,,,,,,,,,1.1,0.6,0.9*26
###2023-12-09 12:57:54.972420$GBGSA,A,3,14,24,25,26,33,,,,,,,,1.1,0.6,0.9*2F
