###2023-12-09 13:42:36.025247$GBGSV,2,2,05,35,16,054,43,,,,,,,,,,,,*59
###2023-12-09 13:42:36.026618$GNVTG,287.37,T,,M,0.19,N,0.36,K,A*27
###2023-12-09 13:42:36.028242$GNGST,184235.10,5.800,,,,0.130,0.100,0.200*63
###2023-12-09 13:42:36.029535$GNZDA,184235.10,09,12,2023,00,00*79
###2023-12-09 13:42:36.030173$GNEBP,,,,,,M*13
###2023-12-09 13:42:36.200892$GNGGA,184235.30,4138.0395883,N,07032.4272143,W,1,23,0.6,14.435,M,-29.745,M,0.0,*55
###2023-12-09 13:42:36.397359$GNGGA,184235.50,4138.0396024,N,07032.4272021,W,1,23,0.6,14.414,M,-29.745,M,0.0,*53
###2023-12-09 13:42:36.605221$GNGGA,184235.70,4138.0396118,N,07032.4271985,W,1,23,0.6,14.355,M,-29.745,M,0.0,*59
###2023-12-09 13:42:36.799276$GNGGA,184235.90,4138.0396201,N,07032.4271917,W,1,21,0.7,14.259,M,-29.745,M,0.0,*59
###2023-12-09 13:42:37.002513$GNRMC,184236.10,A,4138.0396291,N,07032.4271902,W,0.45,287.37,091223,,,A*5F
###2023-12-09 13:42:37.005400$GNGGA,184236.10,4138.0396291,N,07032.4271902,W,1,21,0.7,14.128,M,-29.745,M,0.0,*5A
###2023-12-09 13:42:37.007139$GPGSA,A,3,04,16,26,28,29,31,,,,,,,1.2,0.7,1.0*33
###2023-12-09 13:42:37.008785$GLGSA,A,3,65,72,73,74,75,,,,,,,,1.2,0.7,1.0*28
###2023-12-09 13:42:37.010360$GAGSA,A,3,04,19,21,27,,,,,,,,,1.2,0.7,1.0*2C
###2023-12-09 13:42:37.012017$GBGSA,A,3,12,24,25,33,35,,,,,,,,1.2,0.7,1.0*21
###2023-12-09 13:42:37.014330$GPGSV,2,1,06,04,49,306,41,16,70,226,45,26,80,041,50,28,35,088,48*7E
###2023-12-09 13:42:37.016086$GPGSV,2,2,06,29,19,044,42,31,57,071,49,,,,,,,,*71
###2023-12-09 13:42:37.018402$GLGSV,2,1,05,65,41,315,38,72,59,216,47,73,20,054,42,74,57,019,42*68
###2023-12-09 13:42:37.019860$GLGSV,2,2,05,75,45,276,42,,,,,,,,,,,,*56
###2023-12-09 13:42:37.022181$GAGSV,1,1,04,04,42,309,39,19,69,180,43,21,74,044,47,27,20,051,39*6D
###2023-12-09 13:42:37.024512$GBGSV,2,1,05,12,18,124,41,24,60,050,48,25,53,280,44,33,42,214,47*65
###2023-12-09 13:42:37.025961$GBGSV,2,2,05,35,16,053,44,,,,,,,,,,,,*59
###2023-12-09 13:42:37.027321$GNVTG,287.37,T,,M,0.45,N,0.83,K,A*20
###2023-12-09 13:42:37.028929$GNGST,184236.10,6.300,,,,0.130,0.096,0.190*6C
###2023-12-09 13:42:37.030213$GNZDA,184236.10,09,12,2023,00,00*7A
###2023-12-09 13:42:37.030861$GNEBP,,,,,,M*13
###2023-12-09 13:42:37.205738$GNGGA,184236.30,4138.0396278,N,07032.4271894,W,1,21,0.7,13.982,M,-29.745,M,0.0,*5E
###2023-12-09 13:42:37.399817$GNGGA,184236.50,4138.0396309,N,07032.4271916,W,1,21,0.7,13.859,M,-29.745,M,0.0,*53
###2023-12-09 13:42:37.598020$GNGGA,184236.70,4138.0396385,N,07032.4272177,W,1,20,0.7,13.760,M,-29.745,M,0.0,*5D
###2023-12-09 13:42:37.799375$GNGGA,184236.90,4138.0396453,N,07032.4272245,W,1,21,0.7,13.733,M,-29.745,M,0.0,*5A
###2023-12-09 13:42:38.003625$GNRMC,184237.10,A,4138.0396499,N,07032.4272301,W,0.12,287.37,091223,,,A*58
###2023-12-09 13:42:38.006482$GNGGA,184237.10,4138.0396499,N,07032.4272301,W,1,21,0.7,13.730,M,-29.745,M,0.0,*57
###2023-12-09 13:42:38.008281$GPGSA,A,3,04,09,16,26,28,29,31,,,,,,1.2,0.7,1.0*3A
###2023-12-09 13:42:38.009933$GLGSA,A,3,65,72,73,74,75,,,,,,,,1.2,0.7,1.0*28
###2023-12-09 13:42:38.011527$GAGSA,A,3,04,19,21,27,,,,,,,,,1.2,0.7,1.0*2C
###2023-12-09 13:42:38.013178$GBGSA,A,3,12,24,25,33,35,,,,,,,,1.2,0.7,1.0*21
###2023-12-09 13:42:38.015519$GPGSV,2,1,07,04,49,306,35,09,15,317,35,16,70,226,41,26,80,041,47*70
###2023-12-09 13:42:38.017557$GPGSV,2,2,07,28,35,088,48,29,19,044,40,31,57,071,49,,,,*42
###2023-12-09 13:42:38.019897$GLGSV,2,1,05,65,42,314,35,72,59,216,44,73,20,054,42,74,57,019,44*62
###2023-12-09 13:42:38.021348$GLGSV,2,2,05,75,45,276,36,,,,,,,,,,,,*55
###2023-12-09 13:42:38.023711$GAGSV,1,1,04,04,42,309,35,19,69,180,42,21,74,044,46,27,20,051,39*61
###2023-12-09 13:42:38.026032$GBGSV,2,1,05,12,18,124,42,24,60,050,50,25,53,280,37,33,42,214,38*63
###2023-12-09 13:42:38.027497$GBGSV,2,2,05,35,16,053,44,,,,,,,,,,,,*59
###2023-12-09 13:42:38.028816$GNVTG,287.37,T,,M,0.12,N,0.22,K,A*29
###2023-12-09 13:42:38.030428$GNGST,184237.10,8.300,,,,0.130,0.100,0.190*6D
###2023-12-09 13:42:38.031733$GNZDA,184237.10,09,12,2023,00,00*7B
###2023-12-09 13:42:38.032371$GNEBP,,,,,,M*13
###2023-12-09 13:42:38.198629$GNGGA,184237.30,4138.0396590,N,07032.4272397,W,1,22,0.6,13.735,M,-29.745,M,0.0,*55
###2023-12-09 13:42:38.397910$GNGGA,184237.50,4138.0396699,N,07032.4272431,W,1,22,0.6,13.736,M,-29.745,M,0.0,*51
###2023-12-09 13:42:38.598040$GNGGA,184237.70,4138.0396800,N,07032.4272480,W,1,23,0.6,13.732,M,-29.745,M,0.0,*52
###2023-12-09 13:42:38.796959$GNGGA,184237.90,4138.0396944,N,07032.4272549,W,1,23,0.6,13.729,M,-29.745,M,0.0,*53
###2023-12-09 13:42:39.001205$GNRMC,184238.10,A,4138.0397112,N,07032.4272572,W,0.29,287.37,091223,,,A*5A
###2023-12-09 13:42:39.004082$GNGGA,184238.10,4138.0397112,N,07032.4272572,W,1,21,0.7,13.730,M,-29.745,M,0.0,*5D
###2023-12-09 13:42:39.005876$GPGSA,A,3,04,09,16,26,28,29,31,,,,,,1.3,0.7,1.0*3B
###2023-12-09 13:42:39.007541$GLGSA,A,3,65,72,73,74,75,,,,,,,,1.3,0.7,1.0*29
###2023-12-09 13:42:39.009122$GAGSA,A,3,04,19,21,27,,,,,,,,,1.3,0.7,1.0*2D
###2023-12-09 13:42:39.010786$GBGSA,A,3,12,24,25,33,35,,,,,,,,1.3,0.7,1.0*20
###2023-12-09 13:42:39.013112$GPGSV,2,1,07,04,49,306,40,09,15,317,37,16,70,226,44,26,80,041,51*72
###2023-12-09 13:42:39.015155$GPGSV,2,2,07,28,35,088,43,29,19,044,41,31,57,071,49,,,,*48
###2023-12-09 13:42:39.017486$GLGSV,2,1,05,65,42,314,36,72,59,216,43,73,20,054,38,74,57,019,43*6C
###2023-12-09 13:42:39.018954$GLGSV,2,2,05,75,45,276,41,,,,,,,,,,,,*55
###2023-12-09 13:42:39.021279$GAGSV,1,1,04,04,42,309,40,19,69,180,43,21,74,044,49,27,20,051,40*63
###2023-12-09 13:42:39.023617$GBGSV,2,1,05,12,18,124,42,24,60,050,47,25,53,280,38,33,42,214,42*67
###2023-12-09 13:42:39.025076$GBGSV,2,2,05,35,16,053,38,,,,,,,,,,,,*52
###2023-12-09 13:42:39.026392$GNVTG,287.37,T,,M,0.29,N,0.54,K,A*20
###2023-12-09 13:42:39.028017$GNGST,184238.10,7.200,,,,0.140,0.110,0.200*60
###2023-12-09 13:42:39.029302$GNZDA,184238.10,09,12,2023,00,00*74
###2023-12-09 13:42:39.029937$GNEBP,,,,,,M*13
###2023-12-09 13:42:39.202200$GNGGA,184238.30,4138.0397198,N,07032.4272588,W,1,21,0.7,13.724,M,-29.745,M,0.0,*5D
###2023-12-09 13:42:39.399272$GNGGA,184238.50,4138.0397263,N,07032.4272603,W,1,21,0.7,13.717,M,-29.745,M,0.0,*5C
###2023-12-09 13:42:39.596107$GNGGA,184238.70,4138.0397262,N,07032.4272508,W,1,21,0.7,13.705,M,-29.745,M,0.0,*54
###2023-12-09 13:42:39.797761$GNGGA,184238.90,4138.0397191,N,07032.4272357,W,1,21,0.7,13.699,M,-29.745,M,0.0,*5D
###2023-12-09 13:42:39.998509$GNRMC,184239.10,A,4138.0397122,N,07032.4272353,W,0.10,287.37,091223,,,A*57
###2023-12-09 13:42:40.001400$GNGGA,184239.10,4138.0397122,N,07032.4272353,W,1,21,0.7,13.715,M,-29.745,M,0.0,*5D
###2023-12-09 13:42:40.003210$GPGSA,A,3,04,09,16,26,28,29,31,,,,,,1.2,0.7,1.0*3A
###2023-12-09 13:42:40.004858$GLGSA,A,3,65,72,73,74,75,,,,,,,,1.2,0.7,1.0*28
###2023-12-09 13:42:40.006428$GAGSA,A,3,04,19,21,27,,,,,,,,,1.2,0.7,1.0*2C
###2023-12-09 13:42:40.008078$GBGSA,A,3,12,24,25,33,35,,,,,,,,1.2,0.7,1.0*21
###2023-12-09 13:42:40.010406$GPGSV,2,1,07,04,49,306,40,09,15,317,36,16,70,226,44,26,80,041,51*73
###2023-12-09 13:42:40.012454$GPGSV,2,2,07,28,35,088,45,29,19,044,43,31,57,071,46,,,,*43
###2023-12-09 13:42:40.014796$GLGSV,2,1,05,65,42,314,40,72,59,216,41,73,20,054,39,74,57,019,44*69
###2023-12-09 13:42:40.016257$GLGSV,2,2,05,75,45,276,38,,,,,,,,,,,,*5B
###2023-12-09 13:42:40.018588$GAGSV,1,1,04,04,42,309,42,19,69,180,42,21,74,044,49,27,20,051,39*6E
###2023-12-09 13:42:40.020915$GBGSV,2,1,05,12,18,124,42,24,60,050,46,25,53,280,39,33,42,214,39*6B
###2023-12-09 13:42:40.022367$GBGSV,2,2,05,35,16,053,41,,,,,,,,,,,,*5C
###2023-12-09 13:42:40.023701$GNVTG,287.37,T,,M,0.10,N,0.18,K,A*22
###2023-12-09 13:42:40.025311$GNGST,184239.10,7.300,,,,0.140,0.110,0.200*60
###2023-12-09 13:42:40.026605$GNZDA,184239.10,09,12,2023,00,00*75
###2023-12-09 13:42:40.027244$GNEBP,,,,,,M*13
###2023-12-09 13:42:40.194913$GNGGA,184239.30,4138.0397106,N,07032.4272312,W,1,21,0.7,13.724,M,-29.745,M,0.0,*5E
###2023-12-09 13:42:40.394463$GNGGA,184239.50,4138.0397011,N,07032.4272068,W,1,21,0.7,13.709,M,-29.745,M,0.0,*5E
###2023-12-09 13:42:40.592836$GNGGA,184239.70,4138.0396938,N,07032.4271970,W,1,21,0.7,13.701,M,-29.745,M,0.0,*54
###2023-12-09 13:42:40.793642$GNGGA,184239.90,4138.0396849,N,07032.4271864,W,1,21,0.7,13.716,M,-29.745,M,0.0,*5F
###2023-12-09 13:42:40.997409$GNRMC,184240.10,A,4138.0396756,N,07032.4271692,W,0.17,287.37,091223,,,A*51
###2023-12-09 13:42:41.000489$GNGGA,184240.10,4138.0396756,N,07032.4271692,W,1,20,0.8,13.720,M,-29.745,M,0.0,*54
###2023-12-09 13:42:41.002337$GPGSA,A,3,04,16,26,28,29,31,,,,,,,1.4,0.8,1.1*3B
###2023-12-09 13:42:41.004115$GLGSA,A,3,65,72,73,74,75,,,,,,,,1.4,0.8,1.1*20
###2023-12-09 13:42:41.005804$GAGSA,A,3,04,19,21,27,,,,,,,,,1.4,0.8,1.1*24
###2023-12-09 13:42:41.007560$GBGSA,A,3,12,24,25,33,35,,,,,,,,1.4,0.8,1.1*29
###2023-12-09 13:42:41.009894$GPGSV,2,1,06,04,49,306,41,16,70,226,45,26,80,041,51,28,35,088,41*76
