###2023-12-09 13:10:50.995106$GAGSV,1,1,04,04,32,312,42,19,81,195,40,21,84,075,46,27,30,048,42*64
###2023-12-09 13:10:50.997462$GBGSV,2,1,06,14,39,192,45,24,70,032,49,25,44,266,47,26,23,065,42*61
###2023-12-09 13:10:50.999237$GBGSV,2,2,06,33,54,227,48,35,15,065,41,,,,,,,,*63
###2023-12-09 13:10:51.000567$GNVTG,312.22,T,,M,2.59,N,4.79,K,A*27
###2023-12-09 13:10:51.002213$GNGST,181050.10,18.000,,,,0.097,0.072,0.170*5F
###2023-12-09 13:10:51.003527$GNZDA,181050.10,09,12,2023,00,00*7D
###2023-12-09 13:10:51.004171$GNEBP,,,,,,M*13
###2023-12-09 13:10:51.174186$GNGGA,181050.30,4138.0101134,N,07032.2688945,W,1,24,0.7,12.978,M,-29.744,M,0.0,*57
###2023-12-09 13:10:51.371683$GNGGA,181050.50,4138.0102146,N,07032.2690418,W,1,24,0.7,12.979,M,-29.744,M,0.0,*5A
###2023-12-09 13:10:51.572097$GNGGA,181050.70,4138.0103162,N,07032.2691937,W,1,24,0.7,12.988,M,-29.744,M,0.0,*50
###2023-12-09 13:10:51.772628$GNGGA,181050.90,4138.0104133,N,07032.2693584,W,1,24,0.7,12.990,M,-29.744,M,0.0,*52
###2023-12-09 13:10:51.975567$GNRMC,181051.10,A,4138.0105020,N,07032.2695361,W,2.90,302.25,091223,,,A*5B
###2023-12-09 13:10:51.979052$GNGGA,181051.10,4138.0105020,N,07032.2695361,W,1,24,0.7,12.987,M,-29.744,M,0.0,*54
###2023-12-09 13:10:51.981217$GPGSA,A,3,03,04,16,26,28,29,31,,,,,,1.2,0.7,1.0*30
###2023-12-09 13:10:51.983300$GLGSA,A,3,65,71,72,73,74,75,,,,,,,1.2,0.7,1.0*2E
###2023-12-09 13:10:51.985207$GAGSA,A,3,04,19,21,27,,,,,,,,,1.2,0.7,1.0*2C
###2023-12-09 13:10:51.987302$GBGSA,A,3,14,24,25,26,33,35,,,,,,,1.2,0.7,1.0*23
###2023-12-09 13:10:51.990148$GPGSV,2,1,07,03,33,257,43,04,36,311,43,16,54,214,45,26,84,210,48*7B
###2023-12-09 13:10:51.992642$GPGSV,2,2,07,28,46,074,45,29,24,057,42,31,67,046,47,,,,*4F
###2023-12-09 13:10:51.995477$GLGSV,2,1,06,65,28,326,40,71,35,174,46,72,72,250,46,73,31,045,45*69
###2023-12-09 13:10:51.997596$GLGSV,2,2,06,74,67,351,41,75,36,258,45,,,,,,,,*6A
###2023-12-09 13:10:52.000420$GAGSV,1,1,04,04,32,312,42,19,81,195,40,21,84,075,46,27,30,048,42*64
###2023-12-09 13:10:52.003258$GBGSV,2,1,06,14,39,192,44,24,70,032,48,25,44,266,45,26,23,065,42*63
###2023-12-09 13:10:52.005364$GBGSV,2,2,06,33,54,227,48,35,15,065,43,,,,,,,,*61
###2023-12-09 13:10:52.007013$GNVTG,302.25,T,,M,2.90,N,5.36,K,A*2E
###2023-12-09 13:10:52.009001$GNGST,181051.10,18.000,,,,0.097,0.072,0.170*5E
###2023-12-09 13:10:52.010571$GNZDA,181051.10,09,12,2023,00,00*7C
###2023-12-09 13:10:52.011339$GNEBP,,,,,,M*13
###2023-12-09 13:10:52.171712$GNGGA,181051.30,4138.0105885,N,07032.2697225,W,1,24,0.7,12.991,M,-29.744,M,0.0,*55
###2023-12-09 13:10:52.372311$GNGGA,181051.50,4138.0106767,N,07032.2699186,W,1,24,0.7,12.992,M,-29.744,M,0.0,*54
###2023-12-09 13:10:52.572332$GNGGA,181051.70,4138.0107530,N,07032.2701199,W,1,24,0.7,12.993,M,-29.744,M,0.0,*58
###2023-12-09 13:10:52.771361$GNGGA,181051.90,4138.0108071,N,07032.2703270,W,1,24,0.7,12.997,M,-29.744,M,0.0,*5B
###2023-12-09 13:10:52.975231$GNRMC,181052.10,A,4138.0108464,N,07032.2705327,W,2.82,283.33,091223,,,A*57
###2023-12-09 13:10:52.978703$GNGGA,181052.10,4138.0108464,N,07032.2705327,W,1,24,0.7,12.990,M,-29.744,M,0.0,*52
###2023-12-09 13:10:52.980871$GPGSA,A,3,03,04,16,26,28,29,31,,,,,,1.2,0.7,1.0*30
###2023-12-09 13:10:52.982978$GLGSA,A,3,65,71,72,73,74,75,,,,,,,1.2,0.7,1.0*2E
###2023-12-09 13:10:52.984890$GAGSA,A,3,04,19,21,27,,,,,,,,,1.2,0.7,1.0*2C
###2023-12-09 13:10:52.986978$GBGSA,A,3,14,24,25,26,33,35,,,,,,,1.2,0.7,1.0*23
###2023-12-09 13:10:52.989797$GPGSV,2,1,07,03,33,257,41,04,36,311,42,16,54,214,46,26,84,210,48*7B
###2023-12-09 13:10:52.992284$GPGSV,2,2,07,28,46,074,45,29,24,057,42,31,67,046,47,,,,*4F
###2023-12-09 13:10:52.995122$GLGSV,2,1,06,65,28,326,40,71,35,174,46,72,72,250,45,73,31,045,44*6B
###2023-12-09 13:10:52.997235$GLGSV,2,2,06,74,67,351,42,75,36,258,43,,,,,,,,*6F
###2023-12-09 13:10:53.000076$GAGSV,1,1,04,04,32,312,40,19,81,195,40,21,84,075,46,27,30,048,40*64
###2023-12-09 13:10:53.002919$GBGSV,2,1,06,14,39,192,46,24,70,032,48,25,44,266,43,26,23,065,41*64
###2023-12-09 13:10:53.005049$GBGSV,2,2,06,33,54,227,48,35,15,065,42,,,,,,,,*60
###2023-12-09 13:10:53.006698$GNVTG,283.33,T,,M,2.82,N,5.22,K,A*27
###2023-12-09 13:10:53.008697$GNGST,181052.10,18.000,,,,0.097,0.072,0.170*5D
###2023-12-09 13:10:53.010260$GNZDA,181052.10,09,12,2023,00,00*7F
###2023-12-09 13:10:53.011045$GNEBP,,,,,,M*13
###2023-12-09 13:10:53.171685$GNGGA,181052.30,4138.0108867,N,07032.2707387,W,1,24,0.7,12.981,M,-29.744,M,0.0,*57
###2023-12-09 13:10:53.371809$GNGGA,181052.50,4138.0109400,N,07032.2709390,W,1,24,0.7,12.986,M,-29.744,M,0.0,*52
###2023-12-09 13:10:53.572752$GNGGA,181052.70,4138.0109842,N,07032.2711421,W,1,24,0.7,12.992,M,-29.744,M,0.0,*5B
###2023-12-09 13:10:53.773977$GNGGA,181052.90,4138.0110107,N,07032.2713511,W,1,24,0.7,12.987,M,-29.744,M,0.0,*51
###2023-12-09 13:10:53.974971$GNRMC,181053.10,A,4138.0110585,N,07032.2715614,W,3.07,291.46,091223,,,A*58
###2023-12-09 13:10:53.977847$GNGGA,181053.10,4138.0110585,N,07032.2715614,W,1,24,0.7,12.989,M,-29.744,M,0.0,*58
###2023-12-09 13:10:53.979656$GPGSA,A,3,03,04,16,26,28,29,31,,,,,,1.2,0.7,1.0*30
###2023-12-09 13:10:53.981375$GLGSA,A,3,65,71,72,73,74,75,,,,,,,1.2,0.7,1.0*2E
###2023-12-09 13:10:53.982963$GAGSA,A,3,04,19,21,27,,,,,,,,,1.2,0.7,1.0*2C
###2023-12-09 13:10:53.984668$GBGSA,A,3,14,24,25,26,33,35,,,,,,,1.2,0.7,1.0*23
###2023-12-09 13:10:53.986998$GPGSV,2,1,07,03,33,257,41,04,36,311,43,16,54,214,47,26,84,210,48*7B
###2023-12-09 13:10:53.989038$GPGSV,2,2,07,28,46,074,44,29,24,057,40,31,67,046,47,,,,*4C
###2023-12-09 13:10:53.991376$GLGSV,2,1,06,65,28,326,40,71,35,174,47,72,72,250,46,73,31,045,44*69
###2023-12-09 13:10:53.993119$GLGSV,2,2,06,74,67,351,42,75,36,258,45,,,,,,,,*69
###2023-12-09 13:10:53.995447$GAGSV,1,1,04,04,32,312,40,19,81,195,40,21,84,075,46,27,30,048,40*64
###2023-12-09 13:10:53.997776$GBGSV,2,1,06,14,39,192,44,24,70,032,49,25,44,266,46,26,23,065,41*62
###2023-12-09 13:10:53.999534$GBGSV,2,2,06,33,54,227,47,35,15,065,41,,,,,,,,*6C
###2023-12-09 13:10:54.000853$GNVTG,291.46,T,,M,3.07,N,5.69,K,A*25
###2023-12-09 13:10:54.002492$GNGST,181053.10,18.000,,,,0.097,0.073,0.170*5D
###2023-12-09 13:10:54.003788$GNZDA,181053.10,09,12,2023,00,00*7E
###2023-12-09 13:10:54.004427$GNEBP,,,,,,M*13
###2023-12-09 13:10:54.171703$GNGGA,181053.30,4138.0111264,N,07032.2717795,W,1,24,0.7,13.000,M,-29.744,M,0.0,*50
###2023-12-09 13:10:54.372673$GNGGA,181053.50,4138.0111845,N,07032.2720086,W,1,24,0.7,12.998,M,-29.744,M,0.0,*57
###2023-12-09 13:10:54.571812$GNGGA,181053.70,4138.0112247,N,07032.2722479,W,1,24,0.7,12.995,M,-29.744,M,0.0,*55
###2023-12-09 13:10:54.771821$GNGGA,181053.90,4138.0112805,N,07032.2724929,W,1,24,0.7,12.993,M,-29.744,M,0.0,*5F
###2023-12-09 13:10:54.973519$GNRMC,181054.10,A,4138.0113439,N,07032.2727446,W,3.60,287.03,091223,,,A*59
###2023-12-09 13:10:54.977001$GNGGA,181054.10,4138.0113439,N,07032.2727446,W,1,24,0.7,12.988,M,-29.744,M,0.0,*5F
###2023-12-09 13:10:54.979187$GPGSA,A,3,03,04,16,26,28,29,31,,,,,,1.2,0.7,1.0*30
###2023-12-09 13:10:54.981263$GLGSA,A,3,65,71,72,73,74,75,,,,,,,1.2,0.7,1.0*2E
###2023-12-09 13:10:54.983188$GAGSA,A,3,04,19,21,27,,,,,,,,,1.2,0.7,1.0*2C
###2023-12-09 13:10:54.985251$GBGSA,A,3,14,24,25,26,33,35,,,,,,,1.2,0.7,1.0*23
###2023-12-09 13:10:54.988080$GPGSV,2,1,07,03,33,257,41,04,36,311,43,16,54,214,46,26,84,210,48*7A
###2023-12-09 13:10:54.990540$GPGSV,2,2,07,28,46,074,45,29,24,057,42,31,67,046,47,,,,*4F
###2023-12-09 13:10:54.993369$GLGSV,2,1,06,65,28,326,40,71,35,174,45,72,72,250,45,73,31,045,45*69
###2023-12-09 13:10:54.995506$GLGSV,2,2,06,74,67,351,42,75,36,258,43,,,,,,,,*6F
###2023-12-09 13:10:54.998347$GAGSV,1,1,04,04,32,312,40,19,81,195,40,21,84,075,45,27,30,048,40*67
###2023-12-09 13:10:55.001182$GBGSV,2,1,06,14,39,192,44,24,70,032,48,25,44,266,44,26,23,065,42*62
###2023-12-09 13:10:55.003307$GBGSV,2,2,06,33,54,227,47,35,15,065,42,,,,,,,,*6F
###2023-12-09 13:10:55.004909$GNVTG,287.03,T,,M,3.60,N,6.66,K,A*2E
###2023-12-09 13:10:55.006943$GNGST,181054.10,18.000,,,,0.097,0.073,0.170*5A
###2023-12-09 13:10:55.008509$GNZDA,181054.10,09,12,2023,00,00*79
###2023-12-09 13:10:55.009286$GNEBP,,,,,,M*13
###2023-12-09 13:10:55.171707$GNGGA,181054.30,4138.0113938,N,07032.2729998,W,1,24,0.7,12.980,M,-29.744,M,0.0,*59
###2023-12-09 13:10:55.372474$GNGGA,181054.50,4138.0114416,N,07032.2732538,W,1,24,0.7,12.983,M,-29.744,M,0.0,*56
###2023-12-09 13:10:55.572552$GNGGA,181054.70,4138.0114920,N,07032.2735112,W,1,24,0.7,12.977,M,-29.744,M,0.0,*5C
###2023-12-09 13:10:55.772518$GNGGA,181054.90,4138.0115472,N,07032.2737659,W,1,24,0.7,12.962,M,-29.744,M,0.0,*57
###2023-12-09 13:10:55.975887$GNRMC,181055.10,A,4138.0116072,N,07032.2740164,W,3.52,287.74,091223,,,A*53
###2023-12-09 13:10:55.979367$GNGGA,181055.10,4138.0116072,N,07032.2740164,W,1,24,0.7,12.962,M,-29.744,M,0.0,*50
###2023-12-09 13:10:55.981556$GPGSA,A,3,03,04,16,26,28,29,31,,,,,,1.2,0.7,1.0*30
###2023-12-09 13:10:55.983664$GLGSA,A,3,65,71,72,73,74,75,,,,,,,1.2,0.7,1.0*2E
###2023-12-09 13:10:55.985577$GAGSA,A,3,04,19,21,27,,,,,,,,,1.2,0.7,1.0*2C
