###2023-12-09 12:48:56.963609$GAGSA,A,3,04,19,21,27,,,,,,,,,1.1,0.6,0.9*26
###2023-12-09 12:48:56.965277$GBGSA,A,3,14,24,25,26,33,,,,,,,,1.1,0.6,0.9*2F
###2023-12-09 12:48:56.967619$GPGSV,2,1,08,03,37,269,45,04,27,311,41,16,43,209,47,26,73,208,48*70
###2023-12-09 12:48:56.969960$GPGSV,2,2,08,28,53,064,45,29,26,067,40,31,71,021,48,32,24,137,40*79
###2023-12-09 12:48:56.972316$GLGSV,2,1,06,65,18,329,40,71,48,171,47,72,70,294,47,73,42,037,46*62
###2023-12-09 12:48:56.974066$GLGSV,2,2,06,74,71,314,43,75,27,246,45,,,,,,,,*61
###2023-12-09 12:48:56.976415$GAGSV,1,1,04,04,25,312,41,19,85,269,40,21,83,162,46,27,37,048,43*63
###2023-12-09 12:48:56.978767$GBGSV,2,1,05,14,49,195,46,24,77,011,49,25,37,257,47,26,30,060,45*61
###2023-12-09 12:48:56.980223$GBGSV,2,2,05,33,61,241,48,,,,,,,,,,,,*52
###2023-12-09 12:48:56.981508$GNVTG,25.48,T,,M,0.41,N,0.76,K,A*1C
###2023-12-09 12:48:56.983163$GNGST,174856.10,18.000,,,,0.077,0.067,0.160*50
###2023-12-09 12:48:56.984453$GNZDA,174856.10,09,12,2023,00,00*79
###2023-12-09 12:48:56.985091$GNEBP,,,,,,M*13
###2023-12-09 12:48:57.148979$GNGGA,174856.30,4138.0596156,N,07032.3905172,W,1,24,0.6,13.466,M,-29.744,M,0.0,*58
###2023-12-09 12:48:57.349061$GNGGA,174856.50,4138.0596411,N,07032.3905079,W,1,24,0.6,13.467,M,-29.744,M,0.0,*53
###2023-12-09 12:48:57.548818$GNGGA,174856.70,4138.0596665,N,07032.3905032,W,1,24,0.6,13.467,M,-29.744,M,0.0,*5F
###2023-12-09 12:48:57.756336$GNGGA,174856.90,4138.0596835,N,07032.3904952,W,1,24,0.6,13.471,M,-29.744,M,0.0,*53
###2023-12-09 12:48:57.948443$GNRMC,174857.10,A,4138.0596987,N,07032.3904852,W,0.35,25.48,091223,,,A*68
###2023-12-09 12:48:57.951322$GNGGA,174857.10,4138.0596987,N,07032.3904852,W,1,24,0.6,13.472,M,-29.744,M,0.0,*50
###2023-12-09 12:48:57.953189$GPGSA,A,3,03,04,16,26,28,29,31,32,,,,,1.1,0.6,0.9*3B
###2023-12-09 12:48:57.954919$GLGSA,A,3,65,71,72,73,74,75,,,,,,,1.1,0.6,0.9*24
###2023-12-09 12:48:57.956502$GAGSA,A,3,04,19,21,27,,,,,,,,,1.1,0.6,0.9*26
###2023-12-09 12:48:57.958151$GBGSA,A,3,14,24,25,26,33,,,,,,,,1.1,0.6,0.9*2F
###2023-12-09 12:48:57.960515$GPGSV,2,1,08,03,37,269,46,04,27,311,41,16,43,209,46,26,73,208,48*72
###2023-12-09 12:48:57.962881$GPGSV,2,2,08,28,53,064,45,29,26,067,41,31,71,021,47,32,24,137,40*77
###2023-12-09 12:48:57.965213$GLGSV,2,1,06,65,18,329,40,71,48,171,47,72,71,291,47,73,42,037,46*66
###2023-12-09 12:48:57.966970$GLGSV,2,2,06,74,71,314,43,75,27,246,44,,,,,,,,*60
###2023-12-09 12:48:57.969292$GAGSV,1,1,04,04,25,312,41,19,85,269,40,21,83,162,46,27,37,048,44*64
###2023-12-09 12:48:57.971631$GBGSV,2,1,05,14,49,195,46,24,77,011,48,25,37,257,47,26,30,060,45*60
###2023-12-09 12:48:57.973081$GBGSV,2,2,05,33,61,241,48,,,,,,,,,,,,*52
###2023-12-09 12:48:57.974373$GNVTG,25.48,T,,M,0.35,N,0.65,K,A*1D
###2023-12-09 12:48:57.976032$GNGST,174857.10,18.000,,,,0.077,0.067,0.160*51
###2023-12-09 12:48:57.977322$GNZDA,174857.10,09,12,2023,00,00*78
###2023-12-09 12:48:57.977956$GNEBP,,,,,,M*13
###2023-12-09 12:48:58.148038$GNGGA,174857.30,4138.0597215,N,07032.3904770,W,1,24,0.6,13.473,M,-29.744,M,0.0,*5D
###2023-12-09 12:48:58.349394$GNGGA,174857.50,4138.0597506,N,07032.3904697,W,1,24,0.6,13.474,M,-29.744,M,0.0,*51
###2023-12-09 12:48:58.548854$GNGGA,174857.70,4138.0597739,N,07032.3904620,W,1,24,0.6,13.477,M,-29.744,M,0.0,*52
###2023-12-09 12:48:58.748516$GNGGA,174857.90,4138.0597897,N,07032.3904525,W,1,24,0.6,13.484,M,-29.744,M,0.0,*5D
###2023-12-09 12:48:58.948451$GNRMC,174858.10,A,4138.0598053,N,07032.3904439,W,0.39,25.48,091223,,,A*64
###2023-12-09 12:48:58.951369$GNGGA,174858.10,4138.0598053,N,07032.3904439,W,1,24,0.6,13.482,M,-29.744,M,0.0,*5F
###2023-12-09 12:48:58.953225$GPGSA,A,3,03,04,16,26,28,29,31,32,,,,,1.1,0.6,0.9*3B
###2023-12-09 12:48:58.954952$GLGSA,A,3,65,71,72,73,74,75,,,,,,,1.1,0.6,0.9*24
###2023-12-09 12:48:58.956546$GAGSA,A,3,04,19,21,27,,,,,,,,,1.1,0.6,0.9*26
###2023-12-09 12:48:58.958200$GBGSA,A,3,14,24,25,26,33,,,,,,,,1.1,0.6,0.9*2F
###2023-12-09 12:48:58.960560$GPGSV,2,1,08,03,37,269,45,04,27,311,41,16,43,209,46,26,73,208,47*7E
###2023-12-09 12:48:58.962962$GPGSV,2,2,08,28,53,064,45,29,26,067,41,31,71,021,47,32,24,137,40*77
###2023-12-09 12:48:58.965319$GLGSV,2,1,06,65,18,329,41,71,48,171,47,72,71,291,47,73,41,038,46*6B
###2023-12-09 12:48:58.967106$GLGSV,2,2,06,74,71,314,43,75,27,246,45,,,,,,,,*61
###2023-12-09 12:48:58.969447$GAGSV,1,1,04,04,25,312,39,19,85,269,41,21,83,162,46,27,37,048,44*6A
###2023-12-09 12:48:58.971799$GBGSV,2,1,05,14,49,195,46,24,77,011,48,25,37,257,45,26,30,060,43*64
###2023-12-09 12:48:58.973262$GBGSV,2,2,05,33,61,241,47,,,,,,,,,,,,*5D
###2023-12-09 12:48:58.974556$GNVTG,25.48,T,,M,0.39,N,0.72,K,A*17
###2023-12-09 12:48:58.976221$GNGST,174858.10,18.000,,,,0.077,0.067,0.160*5E
###2023-12-09 12:48:58.977517$GNZDA,174858.10,09,12,2023,00,00*77
###2023-12-09 12:48:58.978158$GNEBP,,,,,,M*13
###2023-12-09 12:48:59.147886$GNGGA,174858.30,4138.0598319,N,07032.3904368,W,1,24,0.6,13.478,M,-29.744,M,0.0,*56
###2023-12-09 12:48:59.348929$GNGGA,174858.50,4138.0598644,N,07032.3904267,W,1,24,0.6,13.478,M,-29.744,M,0.0,*53
###2023-12-09 12:48:59.549614$GNGGA,174858.70,4138.0598873,N,07032.3904175,W,1,24,0.6,13.483,M,-29.744,M,0.0,*5F
###2023-12-09 12:48:59.750706$GNGGA,174858.90,4138.0598997,N,07032.3904090,W,1,24,0.6,13.488,M,-29.744,M,0.0,*5B
###2023-12-09 12:48:59.949004$GNRMC,174859.10,A,4138.0599151,N,07032.3903971,W,0.45,25.48,091223,,,A*6A
###2023-12-09 12:48:59.951891$GNGGA,174859.10,4138.0599151,N,07032.3903971,W,1,24,0.6,13.486,M,-29.744,M,0.0,*5E
###2023-12-09 12:48:59.953749$GPGSA,A,3,03,04,16,26,28,29,31,32,,,,,1.1,0.6,0.9*3B
###2023-12-09 12:48:59.955476$GLGSA,A,3,65,71,72,73,74,75,,,,,,,1.1,0.6,0.9*24
###2023-12-09 12:48:59.957063$GAGSA,A,3,04,19,21,27,,,,,,,,,1.1,0.6,0.9*26
###2023-12-09 12:48:59.958729$GBGSA,A,3,14,24,25,26,33,,,,,,,,1.1,0.6,0.9*2F
###2023-12-09 12:48:59.961060$GPGSV,2,1,08,03,37,269,46,04,27,311,41,16,43,209,47,26,73,208,48*73
###2023-12-09 12:48:59.963425$GPGSV,2,2,08,28,53,064,44,29,26,067,41,31,71,021,48,32,24,137,41*78
###2023-12-09 12:48:59.965786$GLGSV,2,1,06,65,18,329,40,71,48,171,47,72,71,291,47,73,41,038,46*6A
###2023-12-09 12:48:59.967560$GLGSV,2,2,06,74,71,317,43,75,27,246,44,,,,,,,,*63
###2023-12-09 12:48:59.969905$GAGSV,1,1,04,04,25,312,38,19,85,269,40,21,83,162,46,27,37,048,43*6D
###2023-12-09 12:48:59.972253$GBGSV,2,1,05,14,49,195,46,24,77,011,49,25,37,257,46,26,30,060,44*61
###2023-12-09 12:48:59.973717$GBGSV,2,2,05,33,61,241,48,,,,,,,,,,,,*52
###2023-12-09 12:48:59.975023$GNVTG,25.48,T,,M,0.45,N,0.83,K,A*12
###2023-12-09 12:48:59.976680$GNGST,174859.10,18.000,,,,0.077,0.068,0.160*50
###2023-12-09 12:48:59.977975$GNZDA,174859.10,09,12,2023,00,00*76
###2023-12-09 12:48:59.978627$GNEBP,,,,,,M*13
###2023-12-09 12:49:00.150188$GNGGA,174859.30,4138.0599439,N,07032.3903891,W,1,24,0.6,13.487,M,-29.744,M,0.0,*59
###2023-12-09 12:49:00.350879$GNGGA,174859.50,4138.0599763,N,07032.3903824,W,1,24,0.6,13.480,M,-29.744,M,0.0,*5A
###2023-12-09 12:49:00.548634$GNGGA,174859.70,4138.0599969,N,07032.3903750,W,1,24,0.6,13.482,M,-29.744,M,0.0,*52
###2023-12-09 12:49:00.749793$GNGGA,174859.90,4138.0600085,N,07032.3903663,W,1,24,0.6,13.482,M,-29.744,M,0.0,*55
###2023-12-09 12:49:00.947004$GNRMC,174900.10,A,4138.0600267,N,07032.3903560,W,0.45,25.48,091223,,,A*6E
###2023-12-09 12:49:00.949933$GNGGA,174900.10,4138.0600267,N,07032.3903560,W,1,24,0.6,13.480,M,-29.744,M,0.0,*5C
###2023-12-09 12:49:00.951818$GPGSA,A,3,03,04,16,26,28,29,31,32,,,,,1.1,0.6,0.9*3B
###2023-12-09 12:49:00.953539$GLGSA,A,3,65,71,72,73,74,75,,,,,,,1.1,0.6,0.9*24
###2023-12-09 12:49:00.955142$GAGSA,A,3,04,19,21,27,,,,,,,,,1.1,0.6,0.9*26
###2023-12-09 12:49:00.956797$GBGSA,A,3,14,24,25,26,33,,,,,,,,1.1,0.6,0.9*2F
###2023-12-09 12:49:00.959137$GPGSV,2,1,08,03,37,269,46,04,27,311,39,16,43,209,47,26,73,208,48*7C
###2023-12-09 12:49:00.961477$GPGSV,2,2,08,28,53,064,45,29,26,067,41,31,71,021,47,32,24,137,41*76
###2023-12-09 12:49:00.963813$GLGSV,2,1,06,65,18,329,41,71,48,171,46,72,71,291,47,73,41,038,46*6A
###2023-12-09 12:49:00.965566$GLGSV,2,2,06,74,71,317,43,75,28,247,45,,,,,,,,*6C
###2023-12-09 12:49:00.967952$GAGSV,1,1,04,04,25,312,40,19,85,269,41,21,83,162,46,27,37,048,44*64
###2023-12-09 12:49:00.970520$GBGSV,2,1,05,14,49,195,46,24,77,011,48,25,37,257,46,26,30,060,43*67
###2023-12-09 12:49:00.972012$GBGSV,2,2,05,33,61,241,48,,,,,,,,,,,,*52
###2023-12-09 12:49:00.973304$GNVTG,25.48,T,,M,0.45,N,0.83,K,A*12
###2023-12-09 12:49:00.974963$GNGST,174900.10,18.000,,,,0.077,0.068,0.160*5D
###2023-12-09 12:49:00.976258$GNZDA,174900.10,09,12,2023,00,00*7B
###2023-12-09 12:49:00.976896$GNEBP,,,,,,M*13
###2023-12-09 12:49:01.147598$GNGGA,174900.30,4138.0600575,N,07032.3903476,W,1,24,0.6,13.477,M,-29.744,M,0.0,*54
###2023-12-09 12:49:01.349788$GNGGA,174900.50,4138.0600902,N,07032.3903432,W,1,24,0.6,13.476,M,-29.744,M,0.0,*5F
###2023-12-09 12:49:01.549772$GNGGA,174900.70,4138.0601086,N,07032.3903336,W,1,24,0.6,13.482,M,-29.744,M,0.0,*51
