###2023-12-09 13:11:00.974907$GNRMC,181100.10,A,4138.0148677,N,07032.2777078,W,3.36,356.18,091223,,,A*57
###2023-12-09 13:11:00.977766$GNGGA,181100.10,4138.0148677,N,07032.2777078,W,1,24,0.7,13.008,M,-29.744,M,0.0,*55
###2023-12-09 13:11:00.979568$GPGSA,A,3,03,04,16,26,28,29,31,,,,,,1.2,0.7,1.0*30
###2023-12-09 13:11:00.981289$GLGSA,A,3,65,71,72,73,74,75,,,,,,,1.2,0.7,1.0*2E
###2023-12-09 13:11:00.982880$GAGSA,A,3,04,19,21,27,,,,,,,,,1.2,0.7,1.0*2C
###2023-12-09 13:11:00.984585$GBGSA,A,3,14,24,25,26,33,35,,,,,,,1.2,0.7,1.0*23
###2023-12-09 13:11:00.986912$GPGSV,2,1,07,03,33,257,44,04,36,311,44,16,54,214,47,26,84,210,48*79
###2023-12-09 13:11:00.988944$GPGSV,2,2,07,28,46,074,44,29,24,057,41,31,67,046,46,,,,*4C
###2023-12-09 13:11:00.991279$GLGSV,2,1,06,65,28,326,38,71,35,174,47,72,72,250,46,73,31,045,43*61
###2023-12-09 13:11:00.993017$GLGSV,2,2,06,74,67,351,41,75,36,258,46,,,,,,,,*69
###2023-12-09 13:11:00.995339$GAGSV,1,1,04,04,32,312,42,19,81,195,40,21,84,075,46,27,30,048,41*67
###2023-12-09 13:11:00.997661$GBGSV,2,1,06,14,39,192,44,24,70,032,48,25,44,266,48,26,23,065,42*6E
###2023-12-09 13:11:00.999415$GBGSV,2,2,06,33,54,227,49,35,15,065,42,,,,,,,,*61
###2023-12-09 13:11:01.000734$GNVTG,356.18,T,,M,3.36,N,6.23,K,A*2B
###2023-12-09 13:11:01.002372$GNGST,181100.10,18.000,,,,0.097,0.072,0.170*5B
###2023-12-09 13:11:01.003672$GNZDA,181100.10,09,12,2023,00,00*79
###2023-12-09 13:11:01.004313$GNEBP,,,,,,M*13
###2023-12-09 13:11:01.170947$GNGGA,181100.30,4138.0150545,N,07032.2777209,W,1,24,0.7,13.017,M,-29.744,M,0.0,*56
###2023-12-09 13:11:01.372132$GNGGA,181100.50,4138.0152452,N,07032.2777304,W,1,24,0.7,13.018,M,-29.744,M,0.0,*56
###2023-12-09 13:11:01.572724$GNGGA,181100.70,4138.0154349,N,07032.2777395,W,1,24,0.7,13.014,M,-29.744,M,0.0,*5B
###2023-12-09 13:11:01.771856$GNGGA,181100.90,4138.0156254,N,07032.2777562,W,1,24,0.7,13.013,M,-29.744,M,0.0,*53
###2023-12-09 13:11:01.975921$GNRMC,181101.10,A,4138.0158183,N,07032.2777820,W,3.52,353.81,091223,,,A*59
###2023-12-09 13:11:01.978800$GNGGA,181101.10,4138.0158183,N,07032.2777820,W,1,24,0.7,13.012,M,-29.744,M,0.0,*57
###2023-12-09 13:11:01.980595$GPGSA,A,3,03,04,16,26,28,29,31,,,,,,1.2,0.7,1.0*30
###2023-12-09 13:11:01.982301$GLGSA,A,3,65,71,72,73,74,75,,,,,,,1.2,0.7,1.0*2E
###2023-12-09 13:11:01.983901$GAGSA,A,3,04,19,21,27,,,,,,,,,1.2,0.7,1.0*2C
###2023-12-09 13:11:01.985607$GBGSA,A,3,14,24,25,26,33,35,,,,,,,1.2,0.7,1.0*23
###2023-12-09 13:11:01.987948$GPGSV,2,1,07,03,33,257,43,04,36,311,44,16,54,214,47,26,84,210,48*7E
###2023-12-09 13:11:01.989986$GPGSV,2,2,07,28,46,074,45,29,24,057,41,31,67,046,46,,,,*4D
###2023-12-09 13:11:01.992350$GLGSV,2,1,06,65,28,326,38,71,35,174,47,72,72,250,46,73,31,045,43*61
###2023-12-09 13:11:01.994111$GLGSV,2,2,06,74,67,351,41,75,36,258,46,,,,,,,,*69
###2023-12-09 13:11:01.996445$GAGSV,1,1,04,04,32,312,42,19,81,195,40,21,84,075,46,27,30,048,41*67
###2023-12-09 13:11:01.998779$GBGSV,2,1,06,14,39,192,43,24,70,032,48,25,44,266,47,26,23,065,43*67
###2023-12-09 13:11:02.000524$GBGSV,2,2,06,33,54,227,48,35,15,065,40,,,,,,,,*62
###2023-12-09 13:11:02.001842$GNVTG,353.81,T,,M,3.52,N,6.52,K,A*2A
###2023-12-09 13:11:02.003500$GNGST,181101.10,18.000,,,,0.097,0.072,0.170*5A
###2023-12-09 13:11:02.004788$GNZDA,181101.10,09,12,2023,00,00*78
###2023-12-09 13:11:02.005427$GNEBP,,,,,,M*13
###2023-12-09 13:11:02.172496$GNGGA,181101.30,4138.0160100,N,07032.2778086,W,1,24,0.7,13.015,M,-29.744,M,0.0,*59
###2023-12-09 13:11:02.371996$GNGGA,181101.50,4138.0162047,N,07032.2778342,W,1,24,0.7,13.023,M,-29.744,M,0.0,*51
###2023-12-09 13:11:02.572755$GNGGA,181101.70,4138.0164029,N,07032.2778675,W,1,24,0.7,13.021,M,-29.744,M,0.0,*5E
###2023-12-09 13:11:02.772776$GNGGA,181101.90,4138.0165968,N,07032.2779144,W,1,24,0.7,13.015,M,-29.744,M,0.0,*5E
###2023-12-09 13:11:02.974840$GNRMC,181102.10,A,4138.0167913,N,07032.2779626,W,3.54,350.81,091223,,,A*54
###2023-12-09 13:11:02.977710$GNGGA,181102.10,4138.0167913,N,07032.2779626,W,1,24,0.7,13.015,M,-29.744,M,0.0,*58
###2023-12-09 13:11:02.979521$GPGSA,A,3,03,04,16,26,28,29,31,,,,,,1.2,0.7,1.0*30
###2023-12-09 13:11:02.981235$GLGSA,A,3,65,71,72,73,74,75,,,,,,,1.2,0.7,1.0*2E
###2023-12-09 13:11:02.982831$GAGSA,A,3,04,19,21,27,,,,,,,,,1.2,0.7,1.0*2C
###2023-12-09 13:11:02.984549$GBGSA,A,3,14,24,25,26,33,35,,,,,,,1.2,0.7,1.0*23
###2023-12-09 13:11:02.986894$GPGSV,2,1,07,03,33,257,44,04,36,311,44,16,54,214,47,26,84,210,48*79
###2023-12-09 13:11:02.988945$GPGSV,2,2,07,28,46,074,45,29,24,057,41,31,67,046,46,,,,*4D
###2023-12-09 13:11:02.991292$GLGSV,2,1,06,65,28,326,38,71,35,174,47,72,72,250,46,73,31,045,44*66
###2023-12-09 13:11:02.993047$GLGSV,2,2,06,74,67,351,41,75,36,258,46,,,,,,,,*69
###2023-12-09 13:11:02.995393$GAGSV,1,1,04,04,32,312,42,19,81,195,40,21,84,075,46,27,30,048,41*67
###2023-12-09 13:11:02.997730$GBGSV,2,1,06,14,39,192,43,24,70,032,48,25,44,266,47,26,23,065,43*67
###2023-12-09 13:11:02.999493$GBGSV,2,2,06,33,54,227,48,35,15,065,42,,,,,,,,*60
###2023-12-09 13:11:03.000818$GNVTG,350.81,T,,M,3.54,N,6.55,K,A*28
###2023-12-09 13:11:03.002469$GNGST,181102.10,18.000,,,,0.097,0.072,0.170*59
###2023-12-09 13:11:03.003775$GNZDA,181102.10,09,12,2023,00,00*7B
###2023-12-09 13:11:03.004418$GNEBP,,,,,,M*13
###2023-12-09 13:11:03.174955$GNGGA,181102.30,4138.0169871,N,07032.2780021,W,1,24,0.7,13.020,M,-29.744,M,0.0,*50
###2023-12-09 13:11:03.372421$GNGGA,181102.50,4138.0171775,N,07032.2780516,W,1,24,0.7,13.021,M,-29.744,M,0.0,*54
###2023-12-09 13:11:03.571979$GNGGA,181102.70,4138.0173651,N,07032.2781153,W,1,24,0.7,13.023,M,-29.744,M,0.0,*55
###2023-12-09 13:11:03.772810$GNGGA,181102.90,4138.0175540,N,07032.2781752,W,1,24,0.7,13.018,M,-29.744,M,0.0,*51
###2023-12-09 13:11:03.974176$GNRMC,181103.10,A,4138.0177474,N,07032.2782174,W,3.54,353.26,091223,,,A*52
###2023-12-09 13:11:03.977092$GNGGA,181103.10,4138.0177474,N,07032.2782174,W,1,24,0.7,13.017,M,-29.744,M,0.0,*52
###2023-12-09 13:11:03.978917$GPGSA,A,3,03,04,16,26,28,29,31,,,,,,1.2,0.7,1.0*30
###2023-12-09 13:11:03.980644$GLGSA,A,3,65,71,72,73,74,75,,,,,,,1.2,0.7,1.0*2E
###2023-12-09 13:11:03.982238$GAGSA,A,3,04,19,21,27,,,,,,,,,1.2,0.7,1.0*2C
###2023-12-09 13:11:03.983980$GBGSA,A,3,14,24,25,26,33,35,,,,,,,1.2,0.7,1.0*23
###2023-12-09 13:11:03.986318$GPGSV,2,1,07,03,33,256,44,04,36,311,44,16,54,214,47,26,84,210,48*78
###2023-12-09 13:11:03.988386$GPGSV,2,2,07,28,46,074,45,29,24,057,42,31,67,046,46,,,,*4E
###2023-12-09 13:11:03.990747$GLGSV,2,1,06,65,28,326,38,71,35,174,46,72,72,250,46,73,31,045,43*60
###2023-12-09 13:11:03.992497$GLGSV,2,2,06,74,67,351,41,75,36,258,46,,,,,,,,*69
###2023-12-09 13:11:03.994844$GAGSV,1,1,04,04,32,312,42,19,81,195,40,21,84,075,46,27,30,048,41*67
###2023-12-09 13:11:03.997182$GBGSV,2,1,06,14,39,192,42,24,70,032,48,25,44,266,47,26,23,065,43*66
###2023-12-09 13:11:03.998957$GBGSV,2,2,06,33,54,227,48,35,15,065,42,,,,,,,,*60
###2023-12-09 13:11:04.000286$GNVTG,353.26,T,,M,3.54,N,6.55,K,A*26
###2023-12-09 13:11:04.001937$GNGST,181103.10,18.000,,,,0.097,0.071,0.170*5B
###2023-12-09 13:11:04.003250$GNZDA,181103.10,09,12,2023,00,00*7A
###2023-12-09 13:11:04.003890$GNEBP,,,,,,M*13
###2023-12-09 13:11:04.171640$GNGGA,181103.30,4138.0179425,N,07032.2782526,W,1,24,0.7,13.019,M,-29.744,M,0.0,*57
###2023-12-09 13:11:04.372958$GNGGA,181103.50,4138.0181384,N,07032.2782925,W,1,24,0.7,13.022,M,-29.744,M,0.0,*5D
###2023-12-09 13:11:04.575222$GNGGA,181103.70,4138.0183356,N,07032.2783193,W,1,24,0.7,13.017,M,-29.744,M,0.0,*50
###2023-12-09 13:11:04.773181$GNGGA,181103.90,4138.0185321,N,07032.2783228,W,1,24,0.7,13.022,M,-29.744,M,0.0,*5D
###2023-12-09 13:11:04.975614$GNRMC,181104.10,A,4138.0187276,N,07032.2783130,W,3.48,4.52,091223,,,A*50
###2023-12-09 13:11:04.978485$GNGGA,181104.10,4138.0187276,N,07032.2783130,W,1,24,0.7,13.026,M,-29.744,M,0.0,*5D
###2023-12-09 13:11:04.980301$GPGSA,A,3,03,04,16,26,28,29,31,,,,,,1.2,0.7,1.0*30
###2023-12-09 13:11:04.982023$GLGSA,A,3,65,71,72,73,74,75,,,,,,,1.2,0.7,1.0*2E
###2023-12-09 13:11:04.983624$GAGSA,A,3,04,19,21,27,,,,,,,,,1.2,0.7,1.0*2C
###2023-12-09 13:11:04.985347$GBGSA,A,3,14,24,25,26,33,35,,,,,,,1.2,0.7,1.0*23
###2023-12-09 13:11:04.987678$GPGSV,2,1,07,03,33,256,44,04,37,311,44,16,54,214,45,26,84,210,48*7B
###2023-12-09 13:11:04.989954$GPGSV,2,2,07,28,46,074,45,29,24,057,40,31,67,046,46,,,,*4C
###2023-12-09 13:11:04.992312$GLGSV,2,1,06,65,28,326,41,71,35,174,47,72,72,250,47,73,31,045,43*6E
###2023-12-09 13:11:04.994076$GLGSV,2,2,06,74,67,351,41,75,36,258,47,,,,,,,,*68
###2023-12-09 13:11:04.996420$GAGSV,1,1,04,04,32,312,42,19,81,195,41,21,84,075,46,27,30,048,39*69
###2023-12-09 13:11:04.998765$GBGSV,2,1,06,14,39,192,45,24,70,032,47,25,44,266,47,26,23,065,42*6F
###2023-12-09 13:11:05.000518$GBGSV,2,2,06,33,54,227,47,35,15,065,42,,,,,,,,*6F
###2023-12-09 13:11:05.001778$GNVTG,4.52,T,,M,3.48,N,6.44,K,A*29
###2023-12-09 13:11:05.003433$GNGST,181104.10,18.000,,,,0.097,0.071,0.170*5C
###2023-12-09 13:11:05.004726$GNZDA,181104.10,09,12,2023,00,00*7D
