###2023-12-09 13:40:27.035702$GNGST,184026.10,5.500,,,,0.091,0.072,0.160*65
###2023-12-09 13:40:27.037008$GNZDA,184026.10,09,12,2023,00,00*79
###2023-12-09 13:40:27.037650$GNEBP,,,,,,M*13
###2023-12-09 13:40:27.205112$GNGGA,184026.30,4138.0269688,N,07032.3876509,W,1,24,0.6,13.404,M,-29.745,M,0.0,*53
###2023-12-09 13:40:27.401987$GNGGA,184026.50,4138.0269818,N,07032.3876011,W,1,25,0.6,13.383,M,-29.745,M,0.0,*57
###2023-12-09 13:40:27.600791$GNGGA,184026.70,4138.0269838,N,07032.3875877,W,1,24,0.6,13.350,M,-29.745,M,0.0,*53
###2023-12-09 13:40:27.802725$GNGGA,184026.90,4138.0269594,N,07032.3876514,W,1,25,0.6,13.391,M,-29.745,M,0.0,*51
###2023-12-09 13:40:28.005487$GNRMC,184027.10,A,4138.0269394,N,07032.3877062,W,0.25,241.05,091223,,,A*51
###2023-12-09 13:40:28.008359$GNGGA,184027.10,4138.0269394,N,07032.3877062,W,1,25,0.6,13.398,M,-29.745,M,0.0,*52
###2023-12-09 13:40:28.010200$GPGSA,A,3,03,04,16,26,27,28,29,31,,,,,1.0,0.6,0.8*3F
###2023-12-09 13:40:28.011915$GLGSA,A,3,65,71,72,73,74,75,,,,,,,1.0,0.6,0.8*24
###2023-12-09 13:40:28.013480$GAGSA,A,3,04,19,21,27,,,,,,,,,1.0,0.6,0.8*26
###2023-12-09 13:40:28.015184$GBGSA,A,3,12,14,24,25,33,35,,,,,,,1.0,0.6,0.8*2E
###2023-12-09 13:40:28.017494$GPGSV,2,1,08,03,25,244,38,04,48,306,46,16,69,225,47,26,81,040,47*74
###2023-12-09 13:40:28.019814$GPGSV,2,2,08,27,19,172,40,28,36,087,43,29,19,045,41,31,58,070,46*76
###2023-12-09 13:40:28.022120$GLGSV,2,1,06,65,40,316,45,71,20,176,42,72,60,217,47,73,20,054,40*67
###2023-12-09 13:40:28.023866$GLGSV,2,2,06,74,58,018,42,75,45,275,50,,,,,,,,*64
###2023-12-09 13:40:28.026163$GAGSV,1,1,04,04,41,309,46,19,69,180,40,21,74,044,46,27,21,050,39*64
###2023-12-09 13:40:28.028483$GBGSV,2,1,06,12,17,124,37,14,26,189,42,24,61,048,46,25,52,278,48*61
###2023-12-09 13:40:28.030213$GBGSV,2,2,06,33,44,215,47,35,16,055,41,,,,,,,,*6C
###2023-12-09 13:40:28.031537$GNVTG,241.05,T,,M,0.25,N,0.47,K,A*25
###2023-12-09 13:40:28.033137$GNGST,184027.10,6.300,,,,0.090,0.073,0.160*61
###2023-12-09 13:40:28.034411$GNZDA,184027.10,09,12,2023,00,00*78
###2023-12-09 13:40:28.035056$GNEBP,,,,,,M*13
###2023-12-09 13:40:28.201841$GNGGA,184027.30,4138.0269459,N,07032.3876788,W,1,25,0.6,13.411,M,-29.745,M,0.0,*52
###2023-12-09 13:40:28.402423$GNGGA,184027.50,4138.0269603,N,07032.3876312,W,1,25,0.6,13.374,M,-29.745,M,0.0,*5A
###2023-12-09 13:40:28.600719$GNGGA,184027.70,4138.0269499,N,07032.3876564,W,1,24,0.6,13.365,M,-29.745,M,0.0,*5F
###2023-12-09 13:40:28.801443$GNGGA,184027.90,4138.0269265,N,07032.3877208,W,1,24,0.6,13.385,M,-29.745,M,0.0,*56
###2023-12-09 13:40:29.005258$GNRMC,184028.10,A,4138.0269202,N,07032.3877404,W,0.21,243.13,091223,,,A*55
###2023-12-09 13:40:29.008150$GNGGA,184028.10,4138.0269202,N,07032.3877404,W,1,25,0.6,13.389,M,-29.745,M,0.0,*57
###2023-12-09 13:40:29.010009$GPGSA,A,3,03,04,16,26,27,28,29,31,,,,,1.1,0.6,0.9*3F
###2023-12-09 13:40:29.011734$GLGSA,A,3,65,71,72,73,74,75,,,,,,,1.1,0.6,0.9*24
###2023-12-09 13:40:29.013318$GAGSA,A,3,04,19,21,27,,,,,,,,,1.1,0.6,0.9*26
###2023-12-09 13:40:29.015041$GBGSA,A,3,12,14,24,25,33,35,,,,,,,1.1,0.6,0.9*2E
###2023-12-09 13:40:29.017364$GPGSV,2,1,08,03,25,244,38,04,48,306,46,16,69,225,47,26,81,040,47*74
###2023-12-09 13:40:29.019700$GPGSV,2,2,08,27,19,172,41,28,36,087,43,29,19,045,41,31,58,070,46*77
###2023-12-09 13:40:29.022025$GLGSV,2,1,06,65,40,316,46,71,20,176,41,72,60,217,46,73,20,054,38*69
###2023-12-09 13:40:29.023784$GLGSV,2,2,06,74,58,018,43,75,45,275,50,,,,,,,,*65
###2023-12-09 13:40:29.026106$GAGSV,1,1,04,04,41,309,46,19,69,180,40,21,74,044,45,27,21,050,39*67
###2023-12-09 13:40:29.028446$GBGSV,2,1,06,12,17,124,37,14,26,189,42,24,60,049,46,25,52,278,49*60
###2023-12-09 13:40:29.030193$GBGSV,2,2,06,33,44,215,47,35,16,055,40,,,,,,,,*6D
###2023-12-09 13:40:29.031526$GNVTG,243.13,T,,M,0.21,N,0.40,K,A*23
###2023-12-09 13:40:29.033140$GNGST,184028.10,5.900,,,,0.089,0.073,0.160*6F
###2023-12-09 13:40:29.034422$GNZDA,184028.10,09,12,2023,00,00*77
###2023-12-09 13:40:29.035068$GNEBP,,,,,,M*13
###2023-12-09 13:40:29.203571$GNGGA,184028.30,4138.0269300,N,07032.3876977,W,1,25,0.6,13.400,M,-29.745,M,0.0,*58
###2023-12-09 13:40:29.401830$GNGGA,184028.50,4138.0269354,N,07032.3876754,W,1,24,0.6,13.377,M,-29.745,M,0.0,*56
###2023-12-09 13:40:29.602549$GNGGA,184028.70,4138.0269227,N,07032.3877131,W,1,24,0.6,13.379,M,-29.745,M,0.0,*5B
###2023-12-09 13:40:29.801665$GNGGA,184028.90,4138.0269057,N,07032.3877601,W,1,25,0.6,13.377,M,-29.745,M,0.0,*5B
###2023-12-09 13:40:30.006645$GNRMC,184029.10,A,4138.0269029,N,07032.3877628,W,0.27,243.13,091223,,,A*55
###2023-12-09 13:40:30.009487$GNGGA,184029.10,4138.0269029,N,07032.3877628,W,1,25,0.6,13.389,M,-29.745,M,0.0,*51
###2023-12-09 13:40:30.011361$GPGSA,A,3,03,04,16,26,27,28,29,31,,,,,1.0,0.6,0.8*3F
###2023-12-09 13:40:30.013064$GLGSA,A,3,65,71,72,73,74,75,,,,,,,1.0,0.6,0.8*24
###2023-12-09 13:40:30.014651$GAGSA,A,3,04,19,21,27,,,,,,,,,1.0,0.6,0.8*26
###2023-12-09 13:40:30.016353$GBGSA,A,3,12,14,24,25,33,35,,,,,,,1.0,0.6,0.8*2E
###2023-12-09 13:40:30.018670$GPGSV,2,1,08,03,25,244,39,04,48,306,46,16,69,225,46,26,81,040,47*74
###2023-12-09 13:40:30.020984$GPGSV,2,2,08,27,19,172,41,28,36,087,44,29,19,045,42,31,58,070,46*73
###2023-12-09 13:40:30.023306$GLGSV,2,1,06,65,40,316,45,71,20,176,42,72,60,217,46,73,20,054,41*67
###2023-12-09 13:40:30.025052$GLGSV,2,2,06,74,58,018,43,75,45,275,49,,,,,,,,*6D
###2023-12-09 13:40:30.027364$GAGSV,1,1,04,04,41,309,45,19,69,180,40,21,74,044,46,27,21,050,39*67
###2023-12-09 13:40:30.029664$GBGSV,2,1,06,12,17,124,38,14,26,189,42,24,60,049,48,25,53,279,50*69
###2023-12-09 13:40:30.031406$GBGSV,2,2,06,33,44,215,47,35,16,055,42,,,,,,,,*6F
###2023-12-09 13:40:30.032718$GNVTG,243.13,T,,M,0.27,N,0.50,K,A*24
###2023-12-09 13:40:30.034319$GNGST,184029.10,6.200,,,,0.088,0.073,0.160*67
###2023-12-09 13:40:30.035617$GNZDA,184029.10,09,12,2023,00,00*76
###2023-12-09 13:40:30.036250$GNEBP,,,,,,M*13
###2023-12-09 13:40:30.203225$GNGGA,184029.30,4138.0269088,N,07032.3877340,W,1,25,0.6,13.404,M,-29.745,M,0.0,*51
###2023-12-09 13:40:30.401034$GNGGA,184029.50,4138.0269096,N,07032.3877241,W,1,25,0.6,13.377,M,-29.745,M,0.0,*5B
###2023-12-09 13:40:30.601449$GNGGA,184029.70,4138.0269025,N,07032.3877486,W,1,25,0.6,13.356,M,-29.745,M,0.0,*5F
###2023-12-09 13:40:30.802175$GNGGA,184029.90,4138.0268899,N,07032.3877824,W,1,25,0.6,13.360,M,-29.745,M,0.0,*5E
###2023-12-09 13:40:31.005188$GNRMC,184030.10,A,4138.0268835,N,07032.3877887,W,0.17,243.13,091223,,,A*51
###2023-12-09 13:40:31.008068$GNGGA,184030.10,4138.0268835,N,07032.3877887,W,1,25,0.6,13.379,M,-29.745,M,0.0,*59
###2023-12-09 13:40:31.009922$GPGSA,A,3,03,04,16,26,27,28,29,31,,,,,1.1,0.6,0.9*3F
###2023-12-09 13:40:31.011709$GLGSA,A,3,65,71,72,73,74,75,83,,,,,,1.1,0.6,0.9*2F
###2023-12-09 13:40:31.013290$GAGSA,A,3,04,19,21,27,,,,,,,,,1.1,0.6,0.9*26
###2023-12-09 13:40:31.015015$GBGSA,A,3,12,14,24,25,33,35,,,,,,,1.1,0.6,0.9*2E
###2023-12-09 13:40:31.017328$GPGSV,2,1,08,03,25,244,38,04,48,306,46,16,69,225,45,26,81,040,48*79
###2023-12-09 13:40:31.019662$GPGSV,2,2,08,27,19,172,41,28,36,087,44,29,19,045,42,31,58,070,47*72
###2023-12-09 13:40:31.021987$GLGSV,2,1,07,65,40,316,45,71,20,176,41,72,60,217,46,73,20,054,41*65
###2023-12-09 13:40:31.024036$GLGSV,2,2,07,74,58,018,44,75,45,275,49,83,16,045,35,,,,*50
###2023-12-09 13:40:31.026359$GAGSV,1,1,04,04,41,309,46,19,69,180,41,21,74,044,46,27,21,050,40*6B
###2023-12-09 13:40:31.028693$GBGSV,2,1,06,12,17,124,41,14,26,189,43,24,60,049,48,25,53,279,51*67
###2023-12-09 13:40:31.030430$GBGSV,2,2,06,33,44,215,48,35,16,055,43,,,,,,,,*61
###2023-12-09 13:40:31.031765$GNVTG,243.13,T,,M,0.17,N,0.32,K,A*23
###2023-12-09 13:40:31.033378$GNGST,184030.10,6.900,,,,0.088,0.073,0.160*64
###2023-12-09 13:40:31.034676$GNZDA,184030.10,09,12,2023,00,00*7E
###2023-12-09 13:40:31.035312$GNEBP,,,,,,M*13
###2023-12-09 13:40:31.201957$GNGGA,184030.30,4138.0268872,N,07032.3877669,W,1,25,0.6,13.388,M,-29.745,M,0.0,*58
###2023-12-09 13:40:31.402097$GNGGA,184030.50,4138.0268913,N,07032.3877564,W,1,25,0.6,13.366,M,-29.745,M,0.0,*56
###2023-12-09 13:40:31.599959$GNGGA,184030.70,4138.0268847,N,07032.3877746,W,1,25,0.6,13.351,M,-29.745,M,0.0,*52
###2023-12-09 13:40:31.805266$GNGGA,184030.90,4138.0268711,N,07032.3878048,W,1,25,0.6,13.354,M,-29.745,M,0.0,*53
###2023-12-09 13:40:32.006823$GNRMC,184031.10,A,4138.0268664,N,07032.3878086,W,0.17,243.13,091223,,,A*5C
###2023-12-09 13:40:32.009759$GNGGA,184031.10,4138.0268664,N,07032.3878086,W,1,24,0.6,13.367,M,-29.745,M,0.0,*5A
###2023-12-09 13:40:32.011631$GPGSA,A,3,03,04,16,26,27,28,29,31,,,,,1.1,0.6,0.9*3F
###2023-12-09 13:40:32.013348$GLGSA,A,3,65,71,72,73,74,75,,,,,,,1.1,0.6,0.9*24
###2023-12-09 13:40:32.014938$GAGSA,A,3,04,19,21,27,,,,,,,,,1.1,0.6,0.9*26
###2023-12-09 13:40:32.016646$GBGSA,A,3,12,14,24,25,33,35,,,,,,,1.1,0.6,0.9*2E
###2023-12-09 13:40:32.018979$GPGSV,2,1,08,03,25,244,38,04,48,306,46,16,69,225,46,26,81,040,49*7B
###2023-12-09 13:40:32.021300$GPGSV,2,2,08,27,19,172,41,28,36,087,44,29,19,045,42,31,58,070,47*72
###2023-12-09 13:40:32.023634$GLGSV,2,1,06,65,40,316,45,71,20,176,41,72,60,217,46,73,20,054,40*65
