###2023-12-09 12:32:08.956420$GLGSV,1,1,04,71,58,169,48,72,65,311,47,73,49,033,46,74,71,287,44*6D
###2023-12-09 12:32:08.959438$GAGSV,1,1,04,04,20,311,42,19,80,306,41,21,76,177,46,27,42,050,41*6D
###2023-12-09 12:32:08.962389$GBGSV,2,1,05,14,56,198,45,24,81,339,47,25,32,252,41,26,36,057,46*68
###2023-12-09 12:32:08.964334$GBGSV,2,2,05,33,63,257,48,,,,,,,,,,,,*57
###2023-12-09 12:32:08.966070$GNVTG,320.35,T,,M,0.95,N,1.76,K,A*28
###2023-12-09 12:32:08.968222$GNGST,173208.10,19.000,,,,0.083,0.074,0.170*5F
###2023-12-09 12:32:08.969918$GNZDA,173208.10,09,12,2023,00,00*7F
###2023-12-09 12:32:08.970843$GNEBP,,,,,,M*13
###2023-12-09 12:32:09.130027$GNGGA,173208.30,4138.0431104,N,07032.4265239,W,1,22,0.7,13.013,M,-29.745,M,0.0,*53
###2023-12-09 12:32:09.329299$GNGGA,173208.50,4138.0431168,N,07032.4265217,W,1,22,0.7,13.025,M,-29.745,M,0.0,*56
###2023-12-09 12:32:09.529134$GNGGA,173208.70,4138.0431203,N,07032.4265110,W,1,22,0.7,13.018,M,-29.745,M,0.0,*50
###2023-12-09 12:32:09.729385$GNGGA,173208.90,4138.0431390,N,07032.4265317,W,1,21,0.7,13.011,M,-29.745,M,0.0,*5A
###2023-12-09 12:32:09.928868$GNRMC,173209.10,A,4138.0431725,N,07032.4265772,W,0.78,320.35,091223,,,A*57
###2023-12-09 12:32:09.931991$GNGGA,173209.10,4138.0431725,N,07032.4265772,W,1,21,0.7,13.012,M,-29.745,M,0.0,*5D
###2023-12-09 12:32:09.934062$GPGSA,A,3,03,04,16,26,28,29,31,32,,,,,1.3,0.7,1.1*31
###2023-12-09 12:32:09.935890$GLGSA,A,3,71,72,73,74,,,,,,,,,1.3,0.7,1.1*2F
###2023-12-09 12:32:09.937679$GAGSA,A,3,04,19,21,27,,,,,,,,,1.3,0.7,1.1*2C
###2023-12-09 12:32:09.939530$GBGSA,A,3,14,24,25,26,33,,,,,,,,1.3,0.7,1.1*25
###2023-12-09 12:32:09.942055$GPGSV,2,1,08,03,39,279,44,04,20,310,43,16,35,207,46,26,65,206,47*72
###2023-12-09 12:32:09.944590$GPGSV,2,2,08,28,59,054,44,29,25,075,38,31,73,356,46,32,31,133,44*75
###2023-12-09 12:32:09.947075$GLGSV,1,1,04,71,58,169,48,72,65,311,47,73,49,033,46,74,71,287,44*6D
###2023-12-09 12:32:09.949546$GAGSV,1,1,04,04,20,311,43,19,80,306,41,21,76,177,46,27,42,050,41*6C
###2023-12-09 12:32:09.952016$GBGSV,2,1,05,14,56,198,44,24,81,339,48,25,32,252,39,26,36,057,45*6A
###2023-12-09 12:32:09.953595$GBGSV,2,2,05,33,63,257,48,,,,,,,,,,,,*57
###2023-12-09 12:32:09.955063$GNVTG,320.35,T,,M,0.78,N,1.44,K,A*2A
###2023-12-09 12:32:09.956826$GNGST,173209.10,19.000,,,,0.083,0.075,0.170*5F
###2023-12-09 12:32:09.958225$GNZDA,173209.10,09,12,2023,00,00*7E
###2023-12-09 12:32:09.958982$GNEBP,,,,,,M*13
###2023-12-09 12:32:10.129006$GNGGA,173209.30,4138.0431937,N,07032.4266011,W,1,21,0.7,13.007,M,-29.745,M,0.0,*57
###2023-12-09 12:32:10.327439$GNGGA,173209.50,4138.0431965,N,07032.4265906,W,1,21,0.7,13.020,M,-29.745,M,0.0,*5F
###2023-12-09 12:32:10.528027$GNGGA,173209.70,4138.0432042,N,07032.4265927,W,1,21,0.7,13.019,M,-29.745,M,0.0,*5B
###2023-12-09 12:32:10.726412$GNGGA,173209.90,4138.0432306,N,07032.4266241,W,1,21,0.7,13.021,M,-29.745,M,0.0,*55
###2023-12-09 12:32:10.930247$GNRMC,173210.10,A,4138.0432601,N,07032.4266622,W,0.60,320.35,091223,,,A*55
###2023-12-09 12:32:10.933398$GNGGA,173210.10,4138.0432601,N,07032.4266622,W,1,21,0.7,13.011,M,-29.745,M,0.0,*55
###2023-12-09 12:32:10.935332$GPGSA,A,3,03,04,16,26,28,29,31,32,,,,,1.3,0.7,1.1*31
###2023-12-09 12:32:10.936957$GLGSA,A,3,71,72,73,74,,,,,,,,,1.3,0.7,1.1*2F
###2023-12-09 12:32:10.938589$GAGSA,A,3,04,19,21,27,,,,,,,,,1.3,0.7,1.1*2C
###2023-12-09 12:32:10.940276$GBGSA,A,3,14,24,25,26,33,,,,,,,,1.3,0.7,1.1*25
###2023-12-09 12:32:10.942652$GPGSV,2,1,08,03,39,279,45,04,20,310,44,16,35,207,46,26,65,206,47*74
###2023-12-09 12:32:10.945007$GPGSV,2,2,08,28,59,054,44,29,25,075,40,31,73,356,46,32,31,133,44*7A
###2023-12-09 12:32:10.947383$GLGSV,1,1,04,71,58,169,47,72,65,311,47,73,49,033,46,74,71,287,44*62
###2023-12-09 12:32:10.949732$GAGSV,1,1,04,04,20,311,44,19,80,306,41,21,76,177,46,27,42,050,42*68
###2023-12-09 12:32:10.952099$GBGSV,2,1,05,14,56,198,44,24,81,339,48,25,32,252,41,26,36,057,44*64
###2023-12-09 12:32:10.953566$GBGSV,2,2,05,33,63,257,48,,,,,,,,,,,,*57
###2023-12-09 12:32:10.954910$GNVTG,320.35,T,,M,0.60,N,1.12,K,A*20
###2023-12-09 12:32:10.956564$GNGST,173210.10,19.000,,,,0.083,0.075,0.170*57
###2023-12-09 12:32:10.957858$GNZDA,173210.10,09,12,2023,00,00*76
###2023-12-09 12:32:10.958544$GNEBP,,,,,,M*13
###2023-12-09 12:32:11.129024$GNGGA,173210.30,4138.0432729,N,07032.4266717,W,1,21,0.7,13.021,M,-29.745,M,0.0,*58
###2023-12-09 12:32:11.328085$GNGGA,173210.50,4138.0432782,N,07032.4266630,W,1,21,0.7,13.038,M,-29.745,M,0.0,*53
###2023-12-09 12:32:11.527403$GNGGA,173210.70,4138.0432919,N,07032.4266741,W,1,21,0.7,13.041,M,-29.745,M,0.0,*54
###2023-12-09 12:32:11.726419$GNGGA,173210.90,4138.0433168,N,07032.4267092,W,1,21,0.7,13.035,M,-29.745,M,0.0,*5E
###2023-12-09 12:32:11.928029$GNRMC,173211.10,A,4138.0433410,N,07032.4267385,W,0.45,320.35,091223,,,A*59
###2023-12-09 12:32:11.931185$GNGGA,173211.10,4138.0433410,N,07032.4267385,W,1,21,0.7,13.041,M,-29.745,M,0.0,*5B
###2023-12-09 12:32:11.933446$GPGSA,A,3,03,04,16,26,28,29,31,32,,,,,1.3,0.7,1.1*31
###2023-12-09 12:32:11.935269$GLGSA,A,3,71,72,73,74,,,,,,,,,1.3,0.7,1.1*2F
###2023-12-09 12:32:11.937045$GAGSA,A,3,04,19,21,27,,,,,,,,,1.3,0.7,1.1*2C
###2023-12-09 12:32:11.938900$GBGSA,A,3,14,24,25,26,33,,,,,,,,1.3,0.7,1.1*25
###2023-12-09 12:32:11.941430$GPGSV,2,1,08,03,39,279,46,04,20,310,45,16,35,207,46,26,65,206,47*76
###2023-12-09 12:32:11.943973$GPGSV,2,2,08,28,59,054,44,29,25,075,38,31,73,356,47,32,31,133,44*74
###2023-12-09 12:32:11.946513$GLGSV,1,1,04,71,58,169,49,72,65,311,46,73,49,033,47,74,71,287,43*6B
###2023-12-09 12:32:11.949113$GAGSV,1,1,04,04,20,311,44,19,80,306,41,21,76,177,46,27,42,050,42*68
###2023-12-09 12:32:11.951711$GBGSV,2,1,05,14,56,198,43,24,81,339,48,25,32,252,40,26,36,057,44*62
###2023-12-09 12:32:11.953317$GBGSV,2,2,05,33,63,257,48,,,,,,,,,,,,*57
###2023-12-09 12:32:11.954772$GNVTG,320.35,T,,M,0.45,N,0.83,K,A*2E
###2023-12-09 12:32:11.956527$GNGST,173211.10,19.000,,,,0.082,0.075,0.170*57
###2023-12-09 12:32:11.957925$GNZDA,173211.10,09,12,2023,00,00*77
###2023-12-09 12:32:11.958685$GNEBP,,,,,,M*13
###2023-12-09 12:32:12.128470$GNGGA,173211.30,4138.0433527,N,07032.4267420,W,1,21,0.7,13.050,M,-29.745,M,0.0,*54
###2023-12-09 12:32:12.328301$GNGGA,173211.50,4138.0433613,N,07032.4267438,W,1,21,0.7,13.061,M,-29.745,M,0.0,*5D
###2023-12-09 12:32:12.527433$GNGGA,173211.70,4138.0433817,N,07032.4267644,W,1,22,0.7,13.059,M,-29.745,M,0.0,*54
###2023-12-09 12:32:12.727147$GNGGA,173211.90,4138.0434067,N,07032.4267953,W,1,22,0.7,13.056,M,-29.745,M,0.0,*54
###2023-12-09 12:32:12.930074$GNRMC,173212.10,A,4138.0434232,N,07032.4268166,W,0.33,320.35,091223,,,A*5A
###2023-12-09 12:32:12.933216$GNGGA,173212.10,4138.0434232,N,07032.4268166,W,1,21,0.7,13.058,M,-29.745,M,0.0,*51
###2023-12-09 12:32:12.935298$GPGSA,A,3,03,04,16,26,28,29,31,32,,,,,1.3,0.7,1.1*31
###2023-12-09 12:32:12.937084$GLGSA,A,3,71,72,73,74,,,,,,,,,1.3,0.7,1.1*2F
###2023-12-09 12:32:12.938871$GAGSA,A,3,04,19,21,27,,,,,,,,,1.3,0.7,1.1*2C
###2023-12-09 12:32:12.940715$GBGSA,A,3,14,24,25,26,33,,,,,,,,1.3,0.7,1.1*25
###2023-12-09 12:32:12.943280$GPGSV,2,1,08,03,39,279,45,04,20,310,44,16,35,207,45,26,65,206,47*77
###2023-12-09 12:32:12.945812$GPGSV,2,2,08,28,59,054,43,29,25,075,38,31,73,356,47,32,31,133,43*74
###2023-12-09 12:32:12.948363$GLGSV,1,1,04,71,58,169,49,72,65,311,47,73,49,033,46,74,71,287,43*6B
###2023-12-09 12:32:12.950974$GAGSV,1,1,04,04,20,311,44,19,80,306,41,21,76,177,45,27,42,050,42*6B
###2023-12-09 12:32:12.953510$GBGSV,2,1,05,14,56,198,44,24,81,339,49,25,32,252,42,26,36,057,43*61
###2023-12-09 12:32:12.955122$GBGSV,2,2,05,33,63,257,48,,,,,,,,,,,,*57
###2023-12-09 12:32:12.956557$GNVTG,320.35,T,,M,0.33,N,0.61,K,A*23
###2023-12-09 12:32:12.958311$GNGST,173212.10,20.000,,,,0.082,0.075,0.170*5E
###2023-12-09 12:32:12.959728$GNZDA,173212.10,09,12,2023,00,00*74
###2023-12-09 12:32:12.960479$GNEBP,,,,,,M*13
###2023-12-09 12:32:13.128040$GNGGA,173212.30,4138.0434359,N,07032.4268216,W,1,21,0.7,13.060,M,-29.745,M,0.0,*50
###2023-12-09 12:32:13.328295$GNGGA,173212.50,4138.0434501,N,07032.4268321,W,1,21,0.7,13.066,M,-29.745,M,0.0,*5E
###2023-12-09 12:32:13.528197$GNGGA,173212.70,4138.0434717,N,07032.4268610,W,1,21,0.7,13.073,M,-29.745,M,0.0,*5A
###2023-12-09 12:32:13.727841$GNGGA,173212.90,4138.0434958,N,07032.4268897,W,1,21,0.7,13.066,M,-29.745,M,0.0,*54
###2023-12-09 12:32:13.928561$GNRMC,173213.10,A,4138.0435099,N,07032.4269020,W,0.23,320.35,091223,,,A*5A
###2023-12-09 12:32:13.931697$GNGGA,173213.10,4138.0435099,N,07032.4269020,W,1,21,0.7,13.060,M,-29.745,M,0.0,*5B
###2023-12-09 12:32:13.933583$GPGSA,A,3,03,04,16,26,28,29,31,32,,,,,1.3,0.7,1.1*31
###2023-12-09 12:32:13.935201$GLGSA,A,3,71,72,73,74,,,,,,,,,1.3,0.7,1.1*2F
###2023-12-09 12:32:13.936809$GAGSA,A,3,04,19,21,27,,,,,,,,,1.3,0.7,1.1*2C
###2023-12-09 12:32:13.938475$GBGSA,A,3,14,24,25,26,33,,,,,,,,1.3,0.7,1.1*25
###2023-12-09 12:32:13.940874$GPGSV,2,1,08,03,39,279,43,04,20,310,44,16,35,207,45,26,65,206,48*7E
###2023-12-09 12:32:13.943280$GPGSV,2,2,08,28,59,054,44,29,25,075,41,31,73,356,47,32,31,133,43*7D
