###2023-12-09 12:37:59.941655$GNGGA,173759.10,4138.0629312,N,07032.3857148,W,1,23,0.7,13.558,M,-29.744,M,0.0,*5D
###2023-12-09 12:37:59.943563$GPGSA,A,3,03,04,16,26,28,29,31,32,,,,,1.2,0.7,1.0*31
###2023-12-09 12:37:59.945228$GLGSA,A,3,71,72,73,74,75,,,,,,,,1.2,0.7,1.0*2D
###2023-12-09 12:37:59.946837$GAGSA,A,3,04,19,21,27,,,,,,,,,1.2,0.7,1.0*2C
###2023-12-09 12:37:59.948503$GBGSA,A,3,14,24,25,26,33,,,,,,,,1.2,0.7,1.0*25
###2023-12-09 12:37:59.950850$GPGSV,2,1,08,03,38,275,44,04,23,311,42,16,38,208,43,26,67,207,45*7A
###2023-12-09 12:37:59.953175$GPGSV,2,2,08,28,57,057,43,29,25,073,40,31,73,004,46,32,29,134,42*7A
###2023-12-09 12:37:59.955535$GLGSV,2,1,05,71,55,169,46,72,67,307,47,73,46,034,46,74,71,296,43*66
###2023-12-09 12:37:59.956995$GLGSV,2,2,05,75,23,242,40,,,,,,,,,,,,*53
###2023-12-09 12:37:59.959330$GAGSV,1,1,04,04,21,311,43,19,82,299,40,21,78,175,44,27,41,049,43*6E
###2023-12-09 12:37:59.961665$GBGSV,2,1,05,14,54,197,44,24,80,351,48,25,33,253,45,26,34,058,44*6F
###2023-12-09 12:37:59.963133$GBGSV,2,2,05,33,63,252,47,,,,,,,,,,,,*5D
###2023-12-09 12:37:59.964456$GNVTG,287.22,T,,M,0.95,N,1.76,K,A*22
###2023-12-09 12:37:59.966104$GNGST,173759.10,19.000,,,,0.081,0.070,0.170*58
###2023-12-09 12:37:59.967409$GNZDA,173759.10,09,12,2023,00,00*7E
###2023-12-09 12:37:59.968049$GNEBP,,,,,,M*13
###2023-12-09 12:38:00.139382$GNGGA,173759.30,4138.0629387,N,07032.3857548,W,1,23,0.7,13.574,M,-29.744,M,0.0,*59
###2023-12-09 12:38:00.342307$GNGGA,173759.50,4138.0629307,N,07032.3857512,W,1,23,0.7,13.561,M,-29.744,M,0.0,*5C
###2023-12-09 12:38:00.538720$GNGGA,173759.70,4138.0629254,N,07032.3857579,W,1,23,0.7,13.526,M,-29.744,M,0.0,*57
###2023-12-09 12:38:00.739021$GNGGA,173759.90,4138.0629415,N,07032.3858295,W,1,23,0.7,13.546,M,-29.744,M,0.0,*56
###2023-12-09 12:38:00.939455$GNRMC,173800.10,A,4138.0629616,N,07032.3859197,W,0.95,288.20,091223,,,A*55
###2023-12-09 12:38:00.942326$GNGGA,173800.10,4138.0629616,N,07032.3859197,W,1,23,0.7,13.557,M,-29.744,M,0.0,*5C
###2023-12-09 12:38:00.944203$GPGSA,A,3,03,04,16,26,28,29,31,32,,,,,1.2,0.7,1.0*31
###2023-12-09 12:38:00.945856$GLGSA,A,3,71,72,73,74,75,,,,,,,,1.2,0.7,1.0*2D
###2023-12-09 12:38:00.947478$GAGSA,A,3,04,19,21,27,,,,,,,,,1.2,0.7,1.0*2C
###2023-12-09 12:38:00.949149$GBGSA,A,3,14,24,25,26,33,,,,,,,,1.2,0.7,1.0*25
###2023-12-09 12:38:00.951503$GPGSV,2,1,08,03,38,275,44,04,23,311,45,16,38,208,42,26,68,207,46*70
###2023-12-09 12:38:00.953851$GPGSV,2,2,08,28,57,057,43,29,25,073,40,31,73,004,47,32,29,134,42*7B
###2023-12-09 12:38:00.956209$GLGSV,2,1,05,71,55,169,46,72,67,307,47,73,46,034,46,74,71,296,43*66
###2023-12-09 12:38:00.957668$GLGSV,2,2,05,75,23,242,41,,,,,,,,,,,,*52
###2023-12-09 12:38:00.960022$GAGSV,1,1,04,04,21,311,42,19,82,299,41,21,78,175,44,27,41,049,43*6E
###2023-12-09 12:38:00.962354$GBGSV,2,1,05,14,54,197,44,24,80,351,47,25,33,253,44,26,34,058,43*66
###2023-12-09 12:38:00.963827$GBGSV,2,2,05,33,63,252,47,,,,,,,,,,,,*5D
###2023-12-09 12:38:00.965155$GNVTG,288.20,T,,M,0.95,N,1.76,K,A*2F
###2023-12-09 12:38:00.966818$GNGST,173800.10,19.000,,,,0.081,0.071,0.170*5A
###2023-12-09 12:38:00.968115$GNZDA,173800.10,09,12,2023,00,00*7D
###2023-12-09 12:38:00.968754$GNEBP,,,,,,M*13
###2023-12-09 12:38:01.139348$GNGGA,173800.30,4138.0629656,N,07032.3859552,W,1,23,0.7,13.569,M,-29.744,M,0.0,*5A
###2023-12-09 12:38:01.337495$GNGGA,173800.50,4138.0629567,N,07032.3859433,W,1,23,0.7,13.567,M,-29.744,M,0.0,*55
###2023-12-09 12:38:01.538021$GNGGA,173800.70,4138.0629514,N,07032.3859526,W,1,23,0.7,13.532,M,-29.744,M,0.0,*56
###2023-12-09 12:38:01.736841$GNGGA,173800.90,4138.0629667,N,07032.3860264,W,1,23,0.7,13.548,M,-29.744,M,0.0,*59
###2023-12-09 12:38:01.937702$GNRMC,173801.10,A,4138.0629841,N,07032.3861059,W,0.80,287.46,091223,,,A*5B
###2023-12-09 12:38:01.940587$GNGGA,173801.10,4138.0629841,N,07032.3861059,W,1,23,0.7,13.554,M,-29.744,M,0.0,*5A
###2023-12-09 12:38:01.942444$GPGSA,A,3,03,04,16,26,28,29,31,32,,,,,1.2,0.7,1.0*31
###2023-12-09 12:38:01.944147$GLGSA,A,3,71,72,73,74,75,,,,,,,,1.2,0.7,1.0*2D
###2023-12-09 12:38:01.945739$GAGSA,A,3,04,19,21,27,,,,,,,,,1.2,0.7,1.0*2C
###2023-12-09 12:38:01.947444$GBGSA,A,3,14,24,25,26,33,,,,,,,,1.2,0.7,1.0*25
###2023-12-09 12:38:01.949815$GPGSV,2,1,08,03,38,275,43,04,23,311,45,16,38,208,41,26,68,207,46*74
###2023-12-09 12:38:01.952183$GPGSV,2,2,08,28,57,057,42,29,25,073,40,31,73,004,47,32,29,134,43*7B
###2023-12-09 12:38:01.954528$GLGSV,2,1,05,71,55,169,47,72,67,307,46,73,46,034,47,74,71,296,43*67
###2023-12-09 12:38:01.956003$GLGSV,2,2,05,75,23,242,39,,,,,,,,,,,,*5D
###2023-12-09 12:38:01.958339$GAGSV,1,1,04,04,21,311,44,19,82,299,40,21,78,175,45,27,41,049,44*6F
###2023-12-09 12:38:01.960685$GBGSV,2,1,05,14,54,197,45,24,80,351,48,25,33,253,44,26,34,058,43*68
###2023-12-09 12:38:01.962145$GBGSV,2,2,05,33,63,252,47,,,,,,,,,,,,*5D
###2023-12-09 12:38:01.963485$GNVTG,287.46,T,,M,0.80,N,1.48,K,A*29
###2023-12-09 12:38:01.965138$GNGST,173801.10,19.000,,,,0.082,0.072,0.170*5B
###2023-12-09 12:38:01.966435$GNZDA,173801.10,09,12,2023,00,00*7C
###2023-12-09 12:38:01.967086$GNEBP,,,,,,M*13
###2023-12-09 12:38:02.138392$GNGGA,173801.30,4138.0629842,N,07032.3861379,W,1,23,0.7,13.578,M,-29.744,M,0.0,*54
###2023-12-09 12:38:02.339373$GNGGA,173801.50,4138.0629789,N,07032.3861361,W,1,23,0.7,13.573,M,-29.744,M,0.0,*58
###2023-12-09 12:38:02.545848$GNGGA,173801.70,4138.0629778,N,07032.3861501,W,1,23,0.7,13.539,M,-29.744,M,0.0,*5A
###2023-12-09 12:38:02.736928$GNGGA,173801.90,4138.0629882,N,07032.3862133,W,1,23,0.7,13.540,M,-29.744,M,0.0,*56
###2023-12-09 12:38:02.938457$GNRMC,173802.10,A,4138.0630011,N,07032.3862891,W,0.78,283.90,091223,,,A*5A
###2023-12-09 12:38:02.941334$GNGGA,173802.10,4138.0630011,N,07032.3862891,W,1,23,0.7,13.552,M,-29.744,M,0.0,*55
###2023-12-09 12:38:02.943205$GPGSA,A,3,03,04,16,26,28,29,31,32,,,,,1.2,0.7,1.0*31
###2023-12-09 12:38:02.944859$GLGSA,A,3,71,72,73,74,75,,,,,,,,1.2,0.7,1.0*2D
###2023-12-09 12:38:02.946460$GAGSA,A,3,04,19,21,27,,,,,,,,,1.2,0.7,1.0*2C
###2023-12-09 12:38:02.948153$GBGSA,A,3,14,24,25,26,33,,,,,,,,1.2,0.7,1.0*25
###2023-12-09 12:38:02.950495$GPGSV,2,1,08,03,38,275,45,04,23,311,44,16,38,208,43,26,68,207,46*71
###2023-12-09 12:38:02.952849$GPGSV,2,2,08,28,57,058,44,29,25,073,41,31,73,004,48,32,29,134,45*7A
###2023-12-09 12:38:02.955207$GLGSV,2,1,05,71,55,169,46,72,67,307,47,73,46,034,47,74,71,296,43*67
###2023-12-09 12:38:02.956664$GLGSV,2,2,05,75,23,242,41,,,,,,,,,,,,*52
###2023-12-09 12:38:02.959014$GAGSV,1,1,04,04,21,311,44,19,82,299,40,21,78,175,45,27,41,049,43*68
###2023-12-09 12:38:02.961355$GBGSV,2,1,05,14,54,197,44,24,80,351,48,25,33,253,44,26,34,058,44*6E
###2023-12-09 12:38:02.962828$GBGSV,2,2,05,33,63,252,48,,,,,,,,,,,,*52
###2023-12-09 12:38:02.964153$GNVTG,283.90,T,,M,0.78,N,1.44,K,A*2D
###2023-12-09 12:38:02.965802$GNGST,173802.10,19.000,,,,0.082,0.072,0.170*58
###2023-12-09 12:38:02.967107$GNZDA,173802.10,09,12,2023,00,00*7F
###2023-12-09 12:38:02.967746$GNEBP,,,,,,M*13
###2023-12-09 12:38:03.138415$GNGGA,173802.30,4138.0630027,N,07032.3863237,W,1,23,0.7,13.564,M,-29.744,M,0.0,*50
###2023-12-09 12:38:03.337530$GNGGA,173802.50,4138.0630017,N,07032.3863309,W,1,23,0.7,13.571,M,-29.744,M,0.0,*5D
###2023-12-09 12:38:03.538990$GNGGA,173802.70,4138.0630000,N,07032.3863473,W,1,23,0.7,13.550,M,-29.744,M,0.0,*50
###2023-12-09 12:38:03.737918$GNGGA,173802.90,4138.0630092,N,07032.3863999,W,1,23,0.7,13.536,M,-29.744,M,0.0,*5C
###2023-12-09 12:38:03.936323$GNRMC,173803.10,A,4138.0630217,N,07032.3864734,W,0.87,282.21,091223,,,A*52
###2023-12-09 12:38:03.939175$GNGGA,173803.10,4138.0630217,N,07032.3864734,W,1,23,0.7,13.543,M,-29.744,M,0.0,*56
###2023-12-09 12:38:03.941024$GPGSA,A,3,03,04,16,26,28,29,31,32,,,,,1.2,0.7,1.0*31
###2023-12-09 12:38:03.942679$GLGSA,A,3,71,72,73,74,75,,,,,,,,1.2,0.7,1.0*2D
###2023-12-09 12:38:03.944256$GAGSA,A,3,04,19,21,27,,,,,,,,,1.2,0.7,1.0*2C
###2023-12-09 12:38:03.945893$GBGSA,A,3,14,24,25,26,33,,,,,,,,1.2,0.7,1.0*25
###2023-12-09 12:38:03.948247$GPGSV,2,1,08,03,38,275,43,04,23,311,42,16,38,208,43,26,68,207,46*71
###2023-12-09 12:38:03.950606$GPGSV,2,2,08,28,57,058,44,29,25,072,40,31,73,004,48,32,29,134,44*7B
###2023-12-09 12:38:03.953179$GLGSV,2,1,05,71,55,169,47,72,67,307,46,73,46,034,47,74,71,296,43*67
###2023-12-09 12:38:03.954701$GLGSV,2,2,05,75,23,242,42,,,,,,,,,,,,*51
###2023-12-09 12:38:03.957022$GAGSV,1,1,04,04,21,311,42,19,82,299,40,21,78,175,45,27,41,049,43*6E
###2023-12-09 12:38:03.959376$GBGSV,2,1,05,14,54,197,45,24,80,351,48,25,33,253,45,26,34,058,44*6E
###2023-12-09 12:38:03.960834$GBGSV,2,2,05,33,63,252,48,,,,,,,,,,,,*52
###2023-12-09 12:38:03.962157$GNVTG,282.21,T,,M,0.87,N,1.62,K,A*22
###2023-12-09 12:38:03.963825$GNGST,173803.10,19.000,,,,0.082,0.072,0.170*59
###2023-12-09 12:38:03.965124$GNZDA,173803.10,09,12,2023,00,00*7E
###2023-12-09 12:38:03.965763$GNEBP,,,,,,M*13
