###2023-12-09 12:59:20.971299$GNRMC,175920.10,A,4138.0212053,N,07032.2564472,W,3.15,189.63,091223,,,A*59
###2023-12-09 12:59:20.974154$GNGGA,175920.10,4138.0212053,N,07032.2564472,W,1,24,0.6,13.005,M,-29.744,M,0.0,*5A
###2023-12-09 12:59:20.976024$GPGSA,A,3,03,04,16,26,28,29,31,32,,,,,1.1,0.6,0.9*3B
###2023-12-09 12:59:20.977738$GLGSA,A,3,65,71,72,73,74,75,,,,,,,1.1,0.6,0.9*24
###2023-12-09 12:59:20.979335$GAGSA,A,3,04,19,21,27,,,,,,,,,1.1,0.6,0.9*26
###2023-12-09 12:59:20.980995$GBGSA,A,3,14,24,25,26,33,,,,,,,,1.1,0.6,0.9*2F
###2023-12-09 12:59:20.983336$GPGSV,2,1,08,03,35,262,44,04,32,311,44,16,49,212,44,26,78,209,48*70
###2023-12-09 12:59:20.985674$GPGSV,2,2,08,28,50,069,45,29,25,063,43,31,69,033,48,32,20,139,45*76
###2023-12-09 12:59:20.988027$GLGSV,2,1,06,65,23,328,41,71,42,172,45,72,73,273,46,73,37,041,45*6A
###2023-12-09 12:59:20.989774$GLGSV,2,2,06,74,70,334,43,75,31,252,44,,,,,,,,*61
###2023-12-09 12:59:20.992115$GAGSV,1,1,04,04,28,312,41,19,85,226,40,21,85,133,46,27,34,048,43*64
###2023-12-09 12:59:20.994445$GBGSV,2,1,05,14,44,193,43,24,74,022,49,25,40,261,46,26,27,062,43*6A
###2023-12-09 12:59:20.995909$GBGSV,2,2,05,33,58,234,48,,,,,,,,,,,,*5A
###2023-12-09 12:59:20.997232$GNVTG,189.63,T,,M,3.15,N,5.83,K,A*2F
###2023-12-09 12:59:20.998887$GNGST,175920.10,18.000,,,,0.082,0.067,0.160*5B
###2023-12-09 12:59:21.000181$GNZDA,175920.10,09,12,2023,00,00*78
###2023-12-09 12:59:21.000820$GNEBP,,,,,,M*13
###2023-12-09 12:59:21.167377$GNGGA,175920.30,4138.0210263,N,07032.2564879,W,1,24,0.6,13.023,M,-29.744,M,0.0,*58
###2023-12-09 12:59:21.364258$GNGGA,175920.50,4138.0208421,N,07032.2565209,W,1,24,0.6,13.012,M,-29.744,M,0.0,*59
###2023-12-09 12:59:21.564245$GNGGA,175920.70,4138.0206664,N,07032.2565711,W,1,24,0.6,13.000,M,-29.744,M,0.0,*59
###2023-12-09 12:59:21.764481$GNGGA,175920.90,4138.0204863,N,07032.2566315,W,1,24,0.6,13.006,M,-29.744,M,0.0,*59
###2023-12-09 12:59:21.965544$GNRMC,175921.10,A,4138.0203195,N,07032.2567042,W,3.07,204.08,091223,,,A*5F
###2023-12-09 12:59:21.968429$GNGGA,175921.10,4138.0203195,N,07032.2567042,W,1,24,0.6,13.006,M,-29.744,M,0.0,*57
###2023-12-09 12:59:21.970282$GPGSA,A,3,03,04,16,26,28,29,31,32,,,,,1.1,0.6,0.9*3B
###2023-12-09 12:59:21.972006$GLGSA,A,3,65,71,72,73,74,75,,,,,,,1.1,0.6,0.9*24
###2023-12-09 12:59:21.973592$GAGSA,A,3,04,19,21,27,,,,,,,,,1.1,0.6,0.9*26
###2023-12-09 12:59:21.975249$GBGSA,A,3,14,24,25,26,33,,,,,,,,1.1,0.6,0.9*2F
###2023-12-09 12:59:21.977573$GPGSV,2,1,08,03,35,262,42,04,32,311,43,16,49,212,45,26,78,209,47*7F
###2023-12-09 12:59:21.979912$GPGSV,2,2,08,28,50,069,45,29,25,063,42,31,69,033,47,32,20,139,44*79
###2023-12-09 12:59:21.982244$GLGSV,2,1,06,65,23,328,41,71,42,172,45,72,73,273,45,73,37,041,46*6A
###2023-12-09 12:59:21.984002$GLGSV,2,2,06,74,70,334,43,75,31,252,42,,,,,,,,*67
###2023-12-09 12:59:21.986331$GAGSV,1,1,04,04,28,312,42,19,85,226,40,21,85,133,46,27,34,048,42*66
###2023-12-09 12:59:21.988667$GBGSV,2,1,05,14,44,193,43,24,74,022,49,25,40,261,45,26,27,062,42*68
###2023-12-09 12:59:21.990120$GBGSV,2,2,05,33,58,234,47,,,,,,,,,,,,*55
###2023-12-09 12:59:21.991453$GNVTG,204.08,T,,M,3.07,N,5.69,K,A*23
###2023-12-09 12:59:21.993104$GNGST,175921.10,18.000,,,,0.082,0.067,0.160*5A
###2023-12-09 12:59:21.994394$GNZDA,175921.10,09,12,2023,00,00*79
###2023-12-09 12:59:21.995042$GNEBP,,,,,,M*13
###2023-12-09 12:59:22.163353$GNGGA,175921.30,4138.0201611,N,07032.2568154,W,1,24,0.6,13.022,M,-29.744,M,0.0,*53
###2023-12-09 12:59:22.364095$GNGGA,175921.50,4138.0199929,N,07032.2569077,W,1,24,0.6,12.983,M,-29.744,M,0.0,*51
###2023-12-09 12:59:22.564502$GNGGA,175921.70,4138.0198456,N,07032.2570289,W,1,24,0.6,12.975,M,-29.744,M,0.0,*55
###2023-12-09 12:59:22.765907$GNGGA,175921.90,4138.0197039,N,07032.2571716,W,1,24,0.6,13.010,M,-29.744,M,0.0,*50
###2023-12-09 12:59:22.965982$GNRMC,175922.10,A,4138.0195612,N,07032.2573097,W,3.13,217.94,091223,,,A*57
###2023-12-09 12:59:22.968858$GNGGA,175922.10,4138.0195612,N,07032.2573097,W,1,24,0.6,12.992,M,-29.744,M,0.0,*58
###2023-12-09 12:59:22.970719$GPGSA,A,3,03,04,16,26,28,29,31,32,,,,,1.1,0.6,0.9*3B
###2023-12-09 12:59:22.972431$GLGSA,A,3,65,71,72,73,74,75,,,,,,,1.1,0.6,0.9*24
###2023-12-09 12:59:22.974009$GAGSA,A,3,04,19,21,27,,,,,,,,,1.1,0.6,0.9*26
###2023-12-09 12:59:22.975667$GBGSA,A,3,14,24,25,26,33,,,,,,,,1.1,0.6,0.9*2F
###2023-12-09 12:59:22.977997$GPGSV,2,1,08,03,35,262,41,04,32,311,43,16,49,212,44,26,78,209,47*7D
###2023-12-09 12:59:22.980343$GPGSV,2,2,08,28,50,069,44,29,25,063,43,31,69,033,47,32,20,139,44*79
###2023-12-09 12:59:22.982688$GLGSV,2,1,06,65,23,328,42,71,42,172,46,72,73,273,45,73,37,041,48*64
###2023-12-09 12:59:22.984435$GLGSV,2,2,06,74,70,334,43,75,31,252,43,,,,,,,,*66
###2023-12-09 12:59:22.986771$GAGSV,1,1,04,04,28,312,41,19,85,226,40,21,85,133,45,27,34,048,44*60
###2023-12-09 12:59:22.989098$GBGSV,2,1,05,14,44,193,44,24,74,022,49,25,40,261,44,26,27,062,45*69
###2023-12-09 12:59:22.990548$GBGSV,2,2,05,33,58,234,47,,,,,,,,,,,,*55
###2023-12-09 12:59:22.991882$GNVTG,217.94,T,,M,3.13,N,5.80,K,A*26
###2023-12-09 12:59:22.993542$GNGST,175922.10,18.000,,,,0.081,0.067,0.160*5A
###2023-12-09 12:59:22.994845$GNZDA,175922.10,09,12,2023,00,00*7A
###2023-12-09 12:59:22.995485$GNEBP,,,,,,M*13
###2023-12-09 12:59:23.163315$GNGGA,175922.30,4138.0194293,N,07032.2574699,W,1,24,0.6,12.978,M,-29.744,M,0.0,*5D
###2023-12-09 12:59:23.363439$GNGGA,175922.50,4138.0192966,N,07032.2576435,W,1,24,0.6,12.979,M,-29.744,M,0.0,*5B
###2023-12-09 12:59:23.564223$GNGGA,175922.70,4138.0191844,N,07032.2578295,W,1,24,0.6,13.001,M,-29.744,M,0.0,*5E
###2023-12-09 12:59:23.764908$GNGGA,175922.90,4138.0190830,N,07032.2580315,W,1,24,0.6,13.007,M,-29.744,M,0.0,*5A
###2023-12-09 12:59:23.965897$GNRMC,175923.10,A,4138.0189789,N,07032.2582311,W,3.21,240.76,091223,,,A*54
###2023-12-09 12:59:23.968781$GNGGA,175923.10,4138.0189789,N,07032.2582311,W,1,24,0.6,12.959,M,-29.744,M,0.0,*53
###2023-12-09 12:59:23.970642$GPGSA,A,3,03,04,16,26,28,29,31,32,,,,,1.1,0.6,0.9*3B
###2023-12-09 12:59:23.972356$GLGSA,A,3,65,71,72,73,74,75,,,,,,,1.1,0.6,0.9*24
###2023-12-09 12:59:23.973939$GAGSA,A,3,04,19,21,27,,,,,,,,,1.1,0.6,0.9*26
###2023-12-09 12:59:23.975596$GBGSA,A,3,14,24,25,26,33,,,,,,,,1.1,0.6,0.9*2F
###2023-12-09 12:59:23.977921$GPGSV,2,1,08,03,35,262,42,04,32,311,42,16,49,212,44,26,78,209,48*70
###2023-12-09 12:59:23.980262$GPGSV,2,2,08,28,50,069,45,29,25,063,42,31,69,033,48,32,20,139,43*71
###2023-12-09 12:59:23.982608$GLGSV,2,1,06,65,23,328,41,71,42,172,45,72,73,273,45,73,37,041,47*6B
###2023-12-09 12:59:23.984359$GLGSV,2,2,06,74,70,334,43,75,31,252,44,,,,,,,,*61
###2023-12-09 12:59:23.986693$GAGSV,1,1,04,04,28,312,39,19,85,226,40,21,85,133,46,27,34,048,43*6B
###2023-12-09 12:59:23.989022$GBGSV,2,1,05,14,44,193,45,24,74,022,48,25,40,261,44,26,27,062,42*6E
###2023-12-09 12:59:23.990474$GBGSV,2,2,05,33,58,234,47,,,,,,,,,,,,*55
###2023-12-09 12:59:23.991808$GNVTG,240.76,T,,M,3.21,N,5.94,K,A*2C
###2023-12-09 12:59:23.993454$GNGST,175923.10,18.000,,,,0.081,0.067,0.160*5B
###2023-12-09 12:59:23.994752$GNZDA,175923.10,09,12,2023,00,00*7B
###2023-12-09 12:59:23.995390$GNEBP,,,,,,M*13
###2023-12-09 12:59:24.163981$GNGGA,175923.30,4138.0189059,N,07032.2584416,W,1,24,0.6,12.961,M,-29.744,M,0.0,*56
###2023-12-09 12:59:24.364208$GNGGA,175923.50,4138.0188240,N,07032.2586454,W,1,24,0.6,12.986,M,-29.744,M,0.0,*56
###2023-12-09 12:59:24.564248$GNGGA,175923.70,4138.0187519,N,07032.2588498,W,1,24,0.6,12.968,M,-29.744,M,0.0,*5E
###2023-12-09 12:59:24.771259$GNGGA,175923.90,4138.0187260,N,07032.2590701,W,1,24,0.6,12.968,M,-29.744,M,0.0,*53
###2023-12-09 12:59:24.972578$GNRMC,175924.10,A,4138.0186944,N,07032.2592961,W,3.11,255.01,091223,,,A*58
###2023-12-09 12:59:24.975444$GNGGA,175924.10,4138.0186944,N,07032.2592961,W,1,24,0.6,12.969,M,-29.744,M,0.0,*5B
###2023-12-09 12:59:24.977301$GPGSA,A,3,03,04,16,26,28,29,31,32,,,,,1.1,0.6,0.9*3B
###2023-12-09 12:59:24.979017$GLGSA,A,3,65,71,72,73,74,75,,,,,,,1.1,0.6,0.9*24
###2023-12-09 12:59:24.980600$GAGSA,A,3,04,19,21,27,,,,,,,,,1.1,0.6,0.9*26
###2023-12-09 12:59:24.982240$GBGSA,A,3,14,24,25,26,33,,,,,,,,1.1,0.6,0.9*2F
###2023-12-09 12:59:24.984583$GPGSV,2,1,08,03,35,262,42,04,32,311,43,16,49,212,46,26,78,209,47*7C
###2023-12-09 12:59:24.987184$GPGSV,2,2,08,28,50,069,45,29,25,063,42,31,69,033,47,32,20,139,43*7E
###2023-12-09 12:59:24.989523$GLGSV,2,1,06,65,23,328,42,71,42,172,47,72,73,273,45,73,37,041,46*6B
###2023-12-09 12:59:24.991279$GLGSV,2,2,06,74,70,334,41,75,31,252,42,,,,,,,,*65
###2023-12-09 12:59:24.993592$GAGSV,1,1,04,04,28,312,42,19,85,226,40,21,85,133,46,27,34,048,43*67
###2023-12-09 12:59:24.995919$GBGSV,2,1,05,14,44,193,44,24,74,022,49,25,40,261,44,26,27,062,43*6F
###2023-12-09 12:59:24.997369$GBGSV,2,2,05,33,58,234,47,,,,,,,,,,,,*55
###2023-12-09 12:59:24.998698$GNVTG,255.01,T,,M,3.11,N,5.76,K,A*27
###2023-12-09 12:59:25.000345$GNGST,175924.10,18.000,,,,0.080,0.067,0.160*5D
###2023-12-09 12:59:25.001632$GNZDA,175924.10,09,12,2023,00,00*7C
