###2023-12-09 12:31:13.935894$GBGSA,A,3,14,26,33,,,,,,,,,,4.0,1.9,3.5*2B
###2023-12-09 12:31:13.938827$GPGSV,2,1,05,26,65,206,44,28,59,054,46,29,25,075,40,31,73,356,41*70
###2023-12-09 12:31:13.940655$GPGSV,2,2,05,32,31,133,45,,,,,,,,,,,,*4F
###2023-12-09 12:31:13.942833$GLGSV,1,1,02,71,59,168,49,73,50,032,46,,,,,,,,*6D
###2023-12-09 12:31:13.945010$GAGSV,1,1,02,21,76,178,43,27,43,050,48,,,,,,,,*6A
###2023-12-09 12:31:13.947604$GBGSV,1,1,03,14,57,199,40,26,36,056,43,33,63,258,40,,,,*51
###2023-12-09 12:31:13.949244$GNVTG,93.20,T,,M,0.82,N,1.51,K,A*14
###2023-12-09 12:31:13.951314$GNGST,173113.10,23.000,,,,0.200,0.270,0.480*5A
###2023-12-09 12:31:13.952922$GNZDA,173113.10,09,12,2023,00,00*76
###2023-12-09 12:31:13.953737$GNEBP,,,,,,M*13
###2023-12-09 12:31:14.123094$GNGGA,173113.30,4138.0390689,N,07032.4294383,W,1,12,1.9,13.252,M,-29.746,M,0.0,*52
###2023-12-09 12:31:14.322494$GNGGA,173113.50,4138.0390747,N,07032.4294122,W,1,15,1.0,13.226,M,-29.746,M,0.0,*53
###2023-12-09 12:31:14.522367$GNGGA,173113.70,4138.0390860,N,07032.4293803,W,1,15,1.0,13.253,M,-29.746,M,0.0,*54
###2023-12-09 12:31:14.722464$GNGGA,173113.90,4138.0390931,N,07032.4293513,W,1,14,1.1,13.264,M,-29.746,M,0.0,*57
###2023-12-09 12:31:14.925703$GNRMC,173114.10,A,4138.0390993,N,07032.4293304,W,0.43,93.20,091223,,,A*6C
###2023-12-09 12:31:14.928718$GNGGA,173114.10,4138.0390993,N,07032.4293304,W,1,14,1.1,13.272,M,-29.746,M,0.0,*57
###2023-12-09 12:31:14.930459$GPGSA,A,3,16,26,28,29,31,32,,,,,,,1.9,1.1,1.6*3C
###2023-12-09 12:31:14.931935$GLGSA,A,3,71,73,,,,,,,,,,,1.9,1.1,1.6*23
###2023-12-09 12:31:14.933398$GAGSA,A,3,21,27,,,,,,,,,,,1.9,1.1,1.6*2A
###2023-12-09 12:31:14.934933$GBGSA,A,3,14,26,33,,,,,,,,,,1.9,1.1,1.6*2E
###2023-12-09 12:31:14.937271$GPGSV,2,1,06,16,35,207,35,26,65,206,46,28,59,054,45,29,25,075,39*7D
###2023-12-09 12:31:14.939038$GPGSV,2,2,06,31,73,356,38,32,31,133,46,,,,,,,,*72
###2023-12-09 12:31:14.940786$GLGSV,1,1,02,71,59,168,51,73,50,032,44,,,,,,,,*66
###2023-12-09 12:31:14.942533$GAGSV,1,1,02,21,76,178,44,27,43,050,41,,,,,,,,*64
###2023-12-09 12:31:14.944578$GBGSV,1,1,03,14,57,199,46,26,36,056,44,33,63,258,42,,,,*52
###2023-12-09 12:31:14.945879$GNVTG,93.20,T,,M,0.43,N,0.79,K,A*12
###2023-12-09 12:31:14.947565$GNGST,173114.10,25.000,,,,0.250,0.310,0.520*52
###2023-12-09 12:31:14.948884$GNZDA,173114.10,09,12,2023,00,00*71
###2023-12-09 12:31:14.949535$GNEBP,,,,,,M*13
###2023-12-09 12:31:15.123952$GNGGA,173114.30,4138.0391049,N,07032.4293141,W,1,14,1.1,13.281,M,-29.746,M,0.0,*55
###2023-12-09 12:31:15.322298$GNGGA,173114.50,4138.0391177,N,07032.4293107,W,1,16,1.0,13.267,M,-29.746,M,0.0,*56
###2023-12-09 12:31:15.522377$GNGGA,173114.70,4138.0391148,N,07032.4292821,W,1,16,1.0,13.261,M,-29.746,M,0.0,*52
###2023-12-09 12:31:15.720321$GNGGA,173114.90,4138.0391156,N,07032.4292543,W,1,17,1.0,13.266,M,-29.746,M,0.0,*5C
###2023-12-09 12:31:15.923707$GNRMC,173115.10,A,4138.0391148,N,07032.4292297,W,0.37,93.20,091223,,,A*6B
###2023-12-09 12:31:15.926585$GNGGA,173115.10,4138.0391148,N,07032.4292297,W,1,18,1.0,13.290,M,-29.746,M,0.0,*52
###2023-12-09 12:31:15.928326$GPGSA,A,3,16,26,28,29,31,32,,,,,,,1.6,1.0,1.2*36
###2023-12-09 12:31:15.929987$GLGSA,A,3,71,72,73,74,75,,,,,,,,1.6,1.0,1.2*2D
###2023-12-09 12:31:15.931528$GAGSA,A,3,19,21,27,,,,,,,,,,1.6,1.0,1.2*28
###2023-12-09 12:31:15.933058$GBGSA,A,3,14,26,33,,,,,,,,,,1.6,1.0,1.2*24
###2023-12-09 12:31:15.935406$GPGSV,2,1,06,16,35,207,38,26,65,206,48,28,59,054,44,29,25,075,41*70
###2023-12-09 12:31:15.937165$GPGSV,2,2,06,31,73,356,46,32,31,133,46,,,,,,,,*7B
###2023-12-09 12:31:15.939522$GLGSV,2,1,05,71,59,168,50,72,64,313,37,73,50,032,47,74,70,284,36*6D
###2023-12-09 12:31:15.940987$GLGSV,2,2,05,75,20,239,37,,,,,,,,,,,,*5C
###2023-12-09 12:31:15.943047$GAGSV,1,1,03,19,80,306,37,21,76,178,46,27,43,050,43,,,,*54
###2023-12-09 12:31:15.945101$GBGSV,1,1,03,14,57,199,44,26,36,056,45,33,63,258,37,,,,*53
###2023-12-09 12:31:15.946409$GNVTG,93.20,T,,M,0.37,N,0.68,K,A*11
###2023-12-09 12:31:15.948111$GNGST,173115.10,23.000,,,,0.240,0.300,0.510*56
###2023-12-09 12:31:15.949427$GNZDA,173115.10,09,12,2023,00,00*70
###2023-12-09 12:31:15.950077$GNEBP,,,,,,M*13
###2023-12-09 12:31:16.122420$GNGGA,173115.30,4138.0391389,N,07032.4291943,W,1,18,1.0,13.325,M,-29.746,M,0.0,*51
###2023-12-09 12:31:16.322531$GNGGA,173115.50,4138.0391701,N,07032.4291659,W,1,17,1.0,13.395,M,-29.746,M,0.0,*53
###2023-12-09 12:31:16.522281$GNGGA,173115.70,4138.0391976,N,07032.4291256,W,1,17,1.0,13.445,M,-29.746,M,0.0,*5E
###2023-12-09 12:31:16.721331$GNGGA,173115.90,4138.0391956,N,07032.4290726,W,1,18,0.9,13.364,M,-29.746,M,0.0,*52
###2023-12-09 12:31:16.926447$GNRMC,173116.10,A,4138.0392024,N,07032.4289848,W,0.66,93.20,091223,,,A*66
###2023-12-09 12:31:16.929367$GNGGA,173116.10,4138.0392024,N,07032.4289848,W,1,19,0.9,13.432,M,-29.746,M,0.0,*5C
###2023-12-09 12:31:16.931149$GPGSA,A,3,16,26,28,29,31,32,,,,,,,1.5,0.9,1.2*3D
###2023-12-09 12:31:16.932829$GLGSA,A,3,71,72,73,74,75,,,,,,,,1.5,0.9,1.2*26
###2023-12-09 12:31:16.934370$GAGSA,A,3,19,21,27,,,,,,,,,,1.5,0.9,1.2*23
###2023-12-09 12:31:16.935984$GBGSA,A,3,14,25,26,33,,,,,,,,,1.5,0.9,1.2*28
###2023-12-09 12:31:16.938341$GPGSV,2,1,06,16,35,207,35,26,65,206,51,28,59,054,46,29,25,075,38*79
###2023-12-09 12:31:16.940120$GPGSV,2,2,06,31,73,356,47,32,31,133,45,,,,,,,,*79
###2023-12-09 12:31:16.942463$GLGSV,2,1,05,71,59,168,48,72,64,313,41,73,50,032,46,74,70,284,38*6A
###2023-12-09 12:31:16.943949$GLGSV,2,2,05,75,20,239,35,,,,,,,,,,,,*5E
###2023-12-09 12:31:16.945996$GAGSV,1,1,03,19,80,306,38,21,76,178,46,27,43,050,44,,,,*5C
###2023-12-09 12:31:16.948369$GBGSV,1,1,04,14,57,199,47,25,31,251,36,26,36,056,48,33,63,258,42*6E
###2023-12-09 12:31:16.949710$GNVTG,93.20,T,,M,0.66,N,1.22,K,A*1A
###2023-12-09 12:31:16.951409$GNGST,173116.10,22.000,,,,0.370,0.410,0.590*58
###2023-12-09 12:31:16.952724$GNZDA,173116.10,09,12,2023,00,00*73
###2023-12-09 12:31:16.953381$GNEBP,,,,,,M*13
###2023-12-09 12:31:17.122467$GNGGA,173116.30,4138.0392241,N,07032.4288910,W,1,18,1.0,13.520,M,-29.746,M,0.0,*59
###2023-12-09 12:31:17.323891$GNGGA,173116.50,4138.0392310,N,07032.4287945,W,1,19,0.9,13.601,M,-29.746,M,0.0,*5C
###2023-12-09 12:31:17.523916$GNGGA,173116.70,4138.0392378,N,07032.4287323,W,1,19,0.9,13.645,M,-29.746,M,0.0,*5A
###2023-12-09 12:31:17.723050$GNGGA,173116.90,4138.0392388,N,07032.4286630,W,1,19,0.9,13.687,M,-29.746,M,0.0,*53
###2023-12-09 12:31:17.930866$GNRMC,173117.10,A,4138.0392394,N,07032.4285956,W,0.74,93.20,091223,,,A*6E
###2023-12-09 12:31:17.934400$GNGGA,173117.10,4138.0392394,N,07032.4285956,W,1,19,0.9,13.742,M,-29.746,M,0.0,*53
###2023-12-09 12:31:17.936660$GPGSA,A,3,03,16,26,28,29,31,32,,,,,,1.6,0.9,1.3*3C
###2023-12-09 12:31:17.938645$GLGSA,A,3,71,72,73,74,,,,,,,,,1.6,0.9,1.3*26
###2023-12-09 12:31:17.940537$GAGSA,A,3,19,21,27,,,,,,,,,,1.6,0.9,1.3*21
###2023-12-09 12:31:17.942493$GBGSA,A,3,14,25,26,33,,,,,,,,,1.6,0.9,1.3*2A
###2023-12-09 12:31:17.945362$GPGSV,2,1,07,03,39,279,39,16,35,207,41,26,65,206,47,28,59,054,45*75
###2023-12-09 12:31:17.947929$GPGSV,2,2,07,29,25,075,43,31,73,356,47,32,31,133,45,,,,*41
###2023-12-09 12:31:17.950844$GLGSV,1,1,04,71,59,168,48,72,64,313,47,73,50,032,47,74,70,284,43*63
###2023-12-09 12:31:17.953372$GAGSV,1,1,03,19,80,306,41,21,76,178,47,27,43,050,44,,,,*53
###2023-12-09 12:31:17.956262$GBGSV,1,1,04,14,57,199,47,25,31,251,35,26,36,056,45,33,63,258,47*65
###2023-12-09 12:31:17.957887$GNVTG,93.20,T,,M,0.74,N,1.37,K,A*1D
###2023-12-09 12:31:17.960172$GNGST,173117.10,22.000,,,,0.290,0.350,0.550*59
###2023-12-09 12:31:17.961804$GNZDA,173117.10,09,12,2023,00,00*72
###2023-12-09 12:31:17.962689$GNEBP,,,,,,M*13
###2023-12-09 12:31:18.127188$GNGGA,173117.30,4138.0392425,N,07032.4285194,W,1,18,0.9,13.783,M,-29.746,M,0.0,*56
###2023-12-09 12:31:18.327087$GNGGA,173117.50,4138.0392470,N,07032.4284481,W,1,18,0.9,13.812,M,-29.746,M,0.0,*57
###2023-12-09 12:31:18.525229$GNGGA,173117.70,4138.0392452,N,07032.4283770,W,1,18,1.0,13.847,M,-29.746,M,0.0,*57
###2023-12-09 12:31:18.724410$GNGGA,173117.90,4138.0392435,N,07032.4283112,W,1,17,0.9,13.859,M,-29.746,M,0.0,*52
###2023-12-09 12:31:18.928171$GNRMC,173118.10,A,4138.0392470,N,07032.4282517,W,0.87,95.64,091223,,,A*68
###2023-12-09 12:31:18.931411$GNGGA,173118.10,4138.0392470,N,07032.4282517,W,1,16,1.0,13.875,M,-29.746,M,0.0,*53
###2023-12-09 12:31:18.933134$GPGSA,A,3,26,28,29,31,32,,,,,,,,1.8,1.0,1.5*38
###2023-12-09 12:31:18.934783$GLGSA,A,3,71,72,73,74,,,,,,,,,1.8,1.0,1.5*26
###2023-12-09 12:31:18.936341$GAGSA,A,3,19,21,27,,,,,,,,,,1.8,1.0,1.5*21
###2023-12-09 12:31:18.937897$GBGSA,A,3,14,26,33,,,,,,,,,,1.8,1.0,1.5*2D
###2023-12-09 12:31:18.940289$GPGSV,2,1,05,26,65,206,49,28,59,054,44,29,25,075,40,31,73,356,48*76
###2023-12-09 12:31:18.941787$GPGSV,2,2,05,32,31,133,43,,,,,,,,,,,,*49
