###2023-12-09 12:43:13.957529$GPGSV,2,2,08,28,55,060,45,29,25,070,43,31,72,013,46,32,27,136,42*71
###2023-12-09 12:43:13.959916$GLGSV,2,1,06,65,16,329,35,71,51,170,48,72,69,300,45,73,44,036,46*69
###2023-12-09 12:43:13.961674$GLGSV,2,2,06,74,71,307,42,75,25,245,45,,,,,,,,*63
###2023-12-09 12:43:13.964020$GAGSV,1,1,04,04,23,312,39,19,84,288,40,21,81,170,46,27,39,049,42*6B
###2023-12-09 12:43:13.966350$GBGSV,2,1,05,14,51,196,45,24,79,002,48,25,35,255,45,26,32,059,44*6E
###2023-12-09 12:43:13.967834$GBGSV,2,2,05,33,62,246,48,,,,,,,,,,,,*56
###2023-12-09 12:43:13.969158$GNVTG,352.49,T,,M,2.12,N,3.92,K,A*23
###2023-12-09 12:43:13.970821$GNGST,174313.10,18.000,,,,0.079,0.071,0.160*53
###2023-12-09 12:43:13.972115$GNZDA,174313.10,09,12,2023,00,00*73
###2023-12-09 12:43:13.972752$GNEBP,,,,,,M*13
###2023-12-09 12:43:14.142084$GNGGA,174313.30,4138.0467701,N,07032.3882909,W,1,24,0.6,13.300,M,-29.745,M,0.0,*55
###2023-12-09 12:43:14.342500$GNGGA,174313.50,4138.0468857,N,07032.3883220,W,1,24,0.6,13.298,M,-29.745,M,0.0,*51
###2023-12-09 12:43:14.543086$GNGGA,174313.70,4138.0469999,N,07032.3883511,W,1,24,0.6,13.302,M,-29.745,M,0.0,*56
###2023-12-09 12:43:14.741987$GNGGA,174313.90,4138.0471075,N,07032.3883788,W,1,24,0.6,13.302,M,-29.745,M,0.0,*58
###2023-12-09 12:43:14.943524$GNRMC,174314.10,A,4138.0472126,N,07032.3884140,W,1.87,347.03,091223,,,A*5F
###2023-12-09 12:43:14.946401$GNGGA,174314.10,4138.0472126,N,07032.3884140,W,1,24,0.6,13.303,M,-29.745,M,0.0,*57
###2023-12-09 12:43:14.948307$GPGSA,A,3,03,04,16,26,28,29,31,32,,,,,1.1,0.6,0.9*3B
###2023-12-09 12:43:14.950054$GLGSA,A,3,65,71,72,73,74,75,,,,,,,1.1,0.6,0.9*24
###2023-12-09 12:43:14.951665$GAGSA,A,3,04,19,21,27,,,,,,,,,1.1,0.6,0.9*26
###2023-12-09 12:43:14.953312$GBGSA,A,3,14,24,25,26,33,,,,,,,,1.1,0.6,0.9*2F
###2023-12-09 12:43:14.955655$GPGSV,2,1,08,03,38,272,44,04,25,311,39,16,40,208,45,26,70,207,47*7A
###2023-12-09 12:43:14.957992$GPGSV,2,2,08,28,55,060,46,29,25,070,43,31,72,013,46,32,27,136,42*72
###2023-12-09 12:43:14.960381$GLGSV,2,1,06,65,16,329,38,71,51,170,48,72,69,300,45,73,44,036,46*64
###2023-12-09 12:43:14.962139$GLGSV,2,2,06,74,71,307,42,75,25,245,45,,,,,,,,*63
###2023-12-09 12:43:14.964488$GAGSV,1,1,04,04,23,312,39,19,84,288,40,21,81,170,46,27,39,049,43*6A
###2023-12-09 12:43:14.966833$GBGSV,2,1,05,14,51,196,46,24,79,002,49,25,35,255,46,26,32,059,45*6E
###2023-12-09 12:43:14.968287$GBGSV,2,2,05,33,62,246,49,,,,,,,,,,,,*57
###2023-12-09 12:43:14.969609$GNVTG,347.03,T,,M,1.87,N,3.46,K,A*2F
###2023-12-09 12:43:14.971274$GNGST,174314.10,18.000,,,,0.080,0.071,0.160*52
###2023-12-09 12:43:14.972570$GNZDA,174314.10,09,12,2023,00,00*74
###2023-12-09 12:43:14.973207$GNEBP,,,,,,M*13
###2023-12-09 12:43:15.143076$GNGGA,174314.30,4138.0473160,N,07032.3884545,W,1,24,0.6,13.296,M,-29.745,M,0.0,*5A
###2023-12-09 12:43:15.342395$GNGGA,174314.50,4138.0474167,N,07032.3885008,W,1,24,0.6,13.295,M,-29.745,M,0.0,*52
###2023-12-09 12:43:15.542639$GNGGA,174314.70,4138.0475219,N,07032.3885515,W,1,24,0.6,13.298,M,-29.745,M,0.0,*5F
###2023-12-09 12:43:15.742993$GNGGA,174314.90,4138.0476291,N,07032.3886056,W,1,24,0.6,13.293,M,-29.745,M,0.0,*58
###2023-12-09 12:43:15.942326$GNRMC,174315.10,A,4138.0477304,N,07032.3886745,W,2.06,329.86,091223,,,A*57
###2023-12-09 12:43:15.945200$GNGGA,174315.10,4138.0477304,N,07032.3886745,W,1,24,0.6,13.289,M,-29.745,M,0.0,*53
###2023-12-09 12:43:15.947077$GPGSA,A,3,03,04,16,26,28,29,31,32,,,,,1.1,0.6,0.9*3B
###2023-12-09 12:43:15.948800$GLGSA,A,3,65,71,72,73,74,75,,,,,,,1.1,0.6,0.9*24
###2023-12-09 12:43:15.950408$GAGSA,A,3,04,19,21,27,,,,,,,,,1.1,0.6,0.9*26
###2023-12-09 12:43:15.952074$GBGSA,A,3,14,24,25,26,33,,,,,,,,1.1,0.6,0.9*2F
###2023-12-09 12:43:15.954386$GPGSV,2,1,08,03,38,272,45,04,25,311,40,16,40,208,45,26,70,207,47*75
###2023-12-09 12:43:15.956917$GPGSV,2,2,08,28,55,060,46,29,25,070,42,31,72,013,47,32,27,136,42*72
###2023-12-09 12:43:15.959436$GLGSV,2,1,06,65,16,329,39,71,51,170,47,72,69,300,45,73,44,036,46*6A
###2023-12-09 12:43:15.961309$GLGSV,2,2,06,74,71,307,42,75,25,245,45,,,,,,,,*63
###2023-12-09 12:43:15.963749$GAGSV,1,1,04,04,23,312,39,19,84,288,40,21,81,170,46,27,39,049,43*6A
###2023-12-09 12:43:15.966101$GBGSV,2,1,05,14,51,196,45,24,79,002,49,25,35,255,45,26,32,059,45*6E
###2023-12-09 12:43:15.967569$GBGSV,2,2,05,33,62,246,48,,,,,,,,,,,,*56
###2023-12-09 12:43:15.968894$GNVTG,329.86,T,,M,2.06,N,3.82,K,A*28
###2023-12-09 12:43:15.970532$GNGST,174315.10,18.000,,,,0.081,0.071,0.160*52
###2023-12-09 12:43:15.971835$GNZDA,174315.10,09,12,2023,00,00*75
###2023-12-09 12:43:15.972472$GNEBP,,,,,,M*13
###2023-12-09 12:43:16.141972$GNGGA,174315.30,4138.0478293,N,07032.3887513,W,1,24,0.6,13.292,M,-29.745,M,0.0,*5B
###2023-12-09 12:43:16.343362$GNGGA,174315.50,4138.0479256,N,07032.3888301,W,1,24,0.6,13.287,M,-29.745,M,0.0,*5B
###2023-12-09 12:43:16.542881$GNGGA,174315.70,4138.0480194,N,07032.3889139,W,1,24,0.6,13.283,M,-29.745,M,0.0,*5E
###2023-12-09 12:43:16.741361$GNGGA,174315.90,4138.0481085,N,07032.3890036,W,1,24,0.6,13.277,M,-29.745,M,0.0,*5D
###2023-12-09 12:43:16.947482$GNRMC,174316.10,A,4138.0481899,N,07032.3890937,W,1.94,318.72,091223,,,A*5F
###2023-12-09 12:43:16.950365$GNGGA,174316.10,4138.0481899,N,07032.3890937,W,1,24,0.6,13.274,M,-29.745,M,0.0,*58
###2023-12-09 12:43:16.952252$GPGSA,A,3,03,04,16,26,28,29,31,32,,,,,1.1,0.6,0.9*3B
###2023-12-09 12:43:16.953978$GLGSA,A,3,65,71,72,73,74,75,,,,,,,1.1,0.6,0.9*24
###2023-12-09 12:43:16.955589$GAGSA,A,3,04,19,21,27,,,,,,,,,1.1,0.6,0.9*26
###2023-12-09 12:43:16.957248$GBGSA,A,3,14,24,25,26,33,,,,,,,,1.1,0.6,0.9*2F
###2023-12-09 12:43:16.959612$GPGSV,2,1,08,03,38,272,44,04,25,311,41,16,40,208,46,26,70,207,48*79
###2023-12-09 12:43:16.961968$GPGSV,2,2,08,28,55,060,46,29,25,070,41,31,72,013,47,32,27,136,43*70
###2023-12-09 12:43:16.964336$GLGSV,2,1,06,65,16,329,40,71,51,170,47,72,69,300,44,73,44,036,47*64
###2023-12-09 12:43:16.966097$GLGSV,2,2,06,74,71,307,41,75,25,245,44,,,,,,,,*61
###2023-12-09 12:43:16.968466$GAGSV,1,1,04,04,23,312,38,19,84,288,40,21,81,170,46,27,39,049,45*6D
###2023-12-09 12:43:16.970837$GBGSV,2,1,05,14,51,196,45,24,79,002,48,25,35,255,45,26,32,059,44*6E
###2023-12-09 12:43:16.972307$GBGSV,2,2,05,33,62,246,46,,,,,,,,,,,,*58
###2023-12-09 12:43:16.973643$GNVTG,318.72,T,,M,1.94,N,3.60,K,A*25
###2023-12-09 12:43:16.975318$GNGST,174316.10,18.000,,,,0.081,0.071,0.160*51
###2023-12-09 12:43:16.976626$GNZDA,174316.10,09,12,2023,00,00*76
###2023-12-09 12:43:16.977270$GNEBP,,,,,,M*13
###2023-12-09 12:43:17.144741$GNGGA,174316.30,4138.0482648,N,07032.3891885,W,1,24,0.6,13.267,M,-29.745,M,0.0,*50
###2023-12-09 12:43:17.343646$GNGGA,174316.50,4138.0483361,N,07032.3892862,W,1,24,0.6,13.261,M,-29.745,M,0.0,*55
###2023-12-09 12:43:17.544775$GNGGA,174316.70,4138.0484093,N,07032.3893850,W,1,24,0.6,13.258,M,-29.745,M,0.0,*54
###2023-12-09 12:43:17.743103$GNGGA,174316.90,4138.0484815,N,07032.3894895,W,1,24,0.6,13.249,M,-29.745,M,0.0,*52
###2023-12-09 12:43:17.943952$GNRMC,174317.10,A,4138.0485463,N,07032.3896029,W,1.96,305.99,091223,,,A*58
###2023-12-09 12:43:17.947465$GNGGA,174317.10,4138.0485463,N,07032.3896029,W,1,24,0.6,13.245,M,-29.745,M,0.0,*56
###2023-12-09 12:43:17.949724$GPGSA,A,3,03,04,16,26,28,29,31,32,,,,,1.1,0.6,0.9*3B
###2023-12-09 12:43:17.951856$GLGSA,A,3,65,71,72,73,74,75,,,,,,,1.1,0.6,0.9*24
###2023-12-09 12:43:17.953776$GAGSA,A,3,04,19,21,27,,,,,,,,,1.1,0.6,0.9*26
###2023-12-09 12:43:17.955773$GBGSA,A,3,14,24,25,26,33,,,,,,,,1.1,0.6,0.9*2F
###2023-12-09 12:43:17.958605$GPGSV,2,1,08,03,38,272,40,04,25,311,39,16,40,208,46,26,70,207,47*7D
###2023-12-09 12:43:17.961431$GPGSV,2,2,08,28,55,060,46,29,25,070,40,31,72,013,47,32,27,136,44*76
###2023-12-09 12:43:17.964263$GLGSV,2,1,06,65,16,329,40,71,51,170,48,72,69,300,45,73,44,036,47*6A
###2023-12-09 12:43:17.966377$GLGSV,2,2,06,74,71,307,41,75,25,245,42,,,,,,,,*67
###2023-12-09 12:43:17.969193$GAGSV,1,1,04,04,23,312,38,19,84,288,40,21,81,170,46,27,39,049,44*6C
###2023-12-09 12:43:17.972034$GBGSV,2,1,05,14,51,196,45,24,79,002,48,25,35,255,45,26,32,059,43*69
###2023-12-09 12:43:17.973789$GBGSV,2,2,05,33,62,246,47,,,,,,,,,,,,*59
###2023-12-09 12:43:17.975410$GNVTG,305.99,T,,M,1.96,N,3.64,K,A*2A
###2023-12-09 12:43:17.977706$GNGST,174317.10,18.000,,,,0.081,0.071,0.160*50
###2023-12-09 12:43:17.979312$GNZDA,174317.10,09,12,2023,00,00*77
###2023-12-09 12:43:17.980092$GNEBP,,,,,,M*13
###2023-12-09 12:43:18.144052$GNGGA,174317.30,4138.0486135,N,07032.3897220,W,1,24,0.6,13.244,M,-29.745,M,0.0,*5A
###2023-12-09 12:43:18.349629$GNGGA,174317.50,4138.0486754,N,07032.3898496,W,1,24,0.6,13.238,M,-29.745,M,0.0,*52
###2023-12-09 12:43:18.545006$GNGGA,174317.70,4138.0487310,N,07032.3899840,W,1,24,0.6,13.238,M,-29.745,M,0.0,*53
###2023-12-09 12:43:18.745644$GNGGA,174317.90,4138.0487858,N,07032.3901227,W,1,24,0.6,13.236,M,-29.745,M,0.0,*5F
###2023-12-09 12:43:18.946960$GNRMC,174318.10,A,4138.0488342,N,07032.3902667,W,2.12,291.12,091223,,,A*5E
###2023-12-09 12:43:18.949813$GNGGA,174318.10,4138.0488342,N,07032.3902667,W,1,24,0.6,13.229,M,-29.745,M,0.0,*5A
