###2023-12-09 13:34:21.007097$GNRMC,183420.10,A,4138.0522220,N,07032.4042581,W,2.72,40.36,091223,,,A*61
###2023-12-09 13:34:21.009969$GNGGA,183420.10,4138.0522220,N,07032.4042581,W,1,26,0.6,13.283,M,-29.745,M,0.0,*59
###2023-12-09 13:34:21.011843$GPGSA,A,3,03,04,16,26,27,28,29,31,,,,,1.0,0.6,0.8*3F
###2023-12-09 13:34:21.013560$GLGSA,A,3,65,71,72,73,74,75,,,,,,,1.0,0.6,0.8*24
###2023-12-09 13:34:21.015152$GAGSA,A,3,04,19,21,27,,,,,,,,,1.0,0.6,0.8*26
###2023-12-09 13:34:21.016923$GBGSA,A,3,12,14,24,25,26,33,35,,,,,,1.0,0.6,0.8*2A
###2023-12-09 13:34:21.019256$GPGSV,2,1,08,03,27,247,43,04,46,308,45,16,66,222,47,26,84,040,48*78
###2023-12-09 13:34:21.021579$GPGSV,2,2,08,27,16,172,41,28,38,084,43,29,21,047,41,31,59,066,46*7A
###2023-12-09 13:34:21.023909$GLGSV,2,1,06,65,38,319,43,71,23,175,42,72,63,222,46,73,23,052,41*61
###2023-12-09 13:34:21.025650$GLGSV,2,2,06,74,60,013,41,75,43,271,46,,,,,,,,*62
###2023-12-09 13:34:21.027979$GAGSV,1,1,04,04,40,310,45,19,72,181,42,21,77,046,46,27,22,050,40*6B
###2023-12-09 13:34:21.030305$GBGSV,2,1,07,12,15,126,41,14,29,190,41,24,63,045,47,25,50,275,47*6B
###2023-12-09 13:34:21.032340$GBGSV,2,2,07,26,16,070,42,33,46,217,44,35,16,057,42,,,,*5D
###2023-12-09 13:34:21.033638$GNVTG,40.36,T,,M,2.72,N,5.04,K,A*14
###2023-12-09 13:34:21.035271$GNGST,183420.10,5.500,,,,0.091,0.068,0.160*6B
###2023-12-09 13:34:21.036561$GNZDA,183420.10,09,12,2023,00,00*7C
###2023-12-09 13:34:21.037194$GNEBP,,,,,,M*13
###2023-12-09 13:34:21.203231$GNGGA,183420.30,4138.0523407,N,07032.4041328,W,1,26,0.6,13.294,M,-29.745,M,0.0,*59
###2023-12-09 13:34:21.395325$GNGGA,183420.50,4138.0524658,N,07032.4039979,W,1,26,0.6,13.311,M,-29.745,M,0.0,*5D
###2023-12-09 13:34:21.594517$GNGGA,183420.70,4138.0525750,N,07032.4038374,W,1,26,0.6,13.288,M,-29.745,M,0.0,*50
###2023-12-09 13:34:21.795457$GNGGA,183420.90,4138.0526747,N,07032.4036806,W,1,26,0.6,13.273,M,-29.745,M,0.0,*5F
###2023-12-09 13:34:21.999768$GNRMC,183421.10,A,4138.0528069,N,07032.4035540,W,3.13,33.29,091223,,,A*64
###2023-12-09 13:34:22.002635$GNGGA,183421.10,4138.0528069,N,07032.4035540,W,1,26,0.6,13.286,M,-29.745,M,0.0,*55
###2023-12-09 13:34:22.004489$GPGSA,A,3,03,04,16,26,27,28,29,31,,,,,1.0,0.6,0.8*3F
###2023-12-09 13:34:22.006203$GLGSA,A,3,65,71,72,73,74,75,,,,,,,1.0,0.6,0.8*24
###2023-12-09 13:34:22.007801$GAGSA,A,3,04,19,21,27,,,,,,,,,1.0,0.6,0.8*26
###2023-12-09 13:34:22.009575$GBGSA,A,3,12,14,24,25,26,33,35,,,,,,1.0,0.6,0.8*2A
###2023-12-09 13:34:22.011909$GPGSV,2,1,08,03,27,247,42,04,46,308,44,16,66,222,47,26,84,040,48*78
###2023-12-09 13:34:22.014230$GPGSV,2,2,08,27,16,172,41,28,38,084,42,29,21,047,39,31,59,066,45*77
###2023-12-09 13:34:22.016569$GLGSV,2,1,06,65,38,319,43,71,23,175,42,72,63,222,46,73,23,052,41*61
###2023-12-09 13:34:22.018309$GLGSV,2,2,06,74,60,013,41,75,43,271,46,,,,,,,,*62
###2023-12-09 13:34:22.020637$GAGSV,1,1,04,04,40,310,45,19,72,181,41,21,77,046,46,27,22,050,40*68
###2023-12-09 13:34:22.022974$GBGSV,2,1,07,12,15,126,39,14,29,190,40,24,63,045,47,25,50,275,48*6A
###2023-12-09 13:34:22.025007$GBGSV,2,2,07,26,16,070,42,33,46,217,46,35,16,057,41,,,,*5C
###2023-12-09 13:34:22.026297$GNVTG,33.29,T,,M,3.13,N,5.80,K,A*14
###2023-12-09 13:34:22.027919$GNGST,183421.10,5.500,,,,0.091,0.068,0.160*6A
###2023-12-09 13:34:22.029207$GNZDA,183421.10,09,12,2023,00,00*7D
###2023-12-09 13:34:22.029844$GNEBP,,,,,,M*13
###2023-12-09 13:34:22.196379$GNGGA,183421.30,4138.0529365,N,07032.4034174,W,1,26,0.6,13.284,M,-29.745,M,0.0,*59
###2023-12-09 13:34:22.394513$GNGGA,183421.50,4138.0530334,N,07032.4032555,W,1,26,0.6,13.294,M,-29.745,M,0.0,*53
###2023-12-09 13:34:22.593306$GNGGA,183421.70,4138.0531233,N,07032.4030692,W,1,26,0.6,13.283,M,-29.745,M,0.0,*5A
###2023-12-09 13:34:22.795180$GNGGA,183421.90,4138.0532297,N,07032.4029072,W,1,26,0.6,13.251,M,-29.745,M,0.0,*56
###2023-12-09 13:34:22.999967$GNRMC,183422.10,A,4138.0533534,N,07032.4027868,W,2.82,36.20,091223,,,A*61
###2023-12-09 13:34:23.002847$GNGGA,183422.10,4138.0533534,N,07032.4027868,W,1,26,0.6,13.274,M,-29.745,M,0.0,*58
###2023-12-09 13:34:23.004705$GPGSA,A,3,03,04,16,26,27,28,29,31,,,,,1.0,0.6,0.8*3F
###2023-12-09 13:34:23.006425$GLGSA,A,3,65,71,72,73,74,75,,,,,,,1.0,0.6,0.8*24
###2023-12-09 13:34:23.008031$GAGSA,A,3,04,19,21,27,,,,,,,,,1.0,0.6,0.8*26
###2023-12-09 13:34:23.009817$GBGSA,A,3,12,14,24,25,26,33,35,,,,,,1.0,0.6,0.8*2A
###2023-12-09 13:34:23.012156$GPGSV,2,1,08,03,27,247,43,04,46,308,45,16,66,222,47,26,84,040,48*78
###2023-12-09 13:34:23.014504$GPGSV,2,2,08,27,16,172,40,28,38,084,42,29,21,047,39,31,59,066,45*76
###2023-12-09 13:34:23.016858$GLGSV,2,1,06,65,38,319,45,71,23,175,43,72,63,222,46,73,23,052,41*66
###2023-12-09 13:34:23.018625$GLGSV,2,2,06,74,60,013,41,75,43,271,47,,,,,,,,*63
###2023-12-09 13:34:23.020974$GAGSV,1,1,04,04,40,310,44,19,72,181,41,21,77,046,45,27,22,050,40*6A
###2023-12-09 13:34:23.023328$GBGSV,2,1,07,12,15,126,37,14,29,190,41,24,63,045,47,25,50,275,47*6A
###2023-12-09 13:34:23.025380$GBGSV,2,2,07,26,16,070,42,33,46,217,47,35,16,057,41,,,,*5D
###2023-12-09 13:34:23.026688$GNVTG,36.20,T,,M,2.82,N,5.22,K,A*19
###2023-12-09 13:34:23.028317$GNGST,183422.10,5.600,,,,0.091,0.068,0.160*6A
###2023-12-09 13:34:23.029616$GNZDA,183422.10,09,12,2023,00,00*7E
###2023-12-09 13:34:23.030258$GNEBP,,,,,,M*13
###2023-12-09 13:34:23.196331$GNGGA,183422.30,4138.0534614,N,07032.4026246,W,1,26,0.6,13.288,M,-29.745,M,0.0,*58
###2023-12-09 13:34:23.396190$GNGGA,183422.50,4138.0535346,N,07032.4024255,W,1,26,0.6,13.263,M,-29.745,M,0.0,*58
###2023-12-09 13:34:23.595622$GNGGA,183422.70,4138.0536104,N,07032.4022524,W,1,26,0.6,13.248,M,-29.745,M,0.0,*53
###2023-12-09 13:34:23.797218$GNGGA,183422.90,4138.0537318,N,07032.4021163,W,1,26,0.6,13.277,M,-29.745,M,0.0,*5B
###2023-12-09 13:34:23.999732$GNRMC,183423.10,A,4138.0538409,N,07032.4019529,W,2.99,63.22,091223,,,A*69
###2023-12-09 13:34:24.002608$GNGGA,183423.10,4138.0538409,N,07032.4019529,W,1,26,0.6,13.269,M,-29.745,M,0.0,*54
###2023-12-09 13:34:24.004475$GPGSA,A,3,03,04,16,26,27,28,29,31,,,,,1.0,0.6,0.8*3F
###2023-12-09 13:34:24.006202$GLGSA,A,3,65,71,72,73,74,75,,,,,,,1.0,0.6,0.8*24
###2023-12-09 13:34:24.007805$GAGSA,A,3,04,19,21,27,,,,,,,,,1.0,0.6,0.8*26
###2023-12-09 13:34:24.009596$GBGSA,A,3,12,14,24,25,26,33,35,,,,,,1.0,0.6,0.8*2A
###2023-12-09 13:34:24.011950$GPGSV,2,1,08,03,27,247,42,04,46,308,47,16,66,222,46,26,84,040,48*7A
###2023-12-09 13:34:24.014296$GPGSV,2,2,08,27,16,172,36,28,38,084,42,29,21,047,42,31,59,066,44*7A
###2023-12-09 13:34:24.016656$GLGSV,2,1,06,65,38,319,43,71,23,175,40,72,63,222,45,73,23,052,42*63
###2023-12-09 13:34:24.018413$GLGSV,2,2,06,74,60,013,42,75,43,271,48,,,,,,,,*6F
###2023-12-09 13:34:24.020759$GAGSV,1,1,04,04,40,310,45,19,72,181,41,21,77,046,46,27,22,050,40*68
###2023-12-09 13:34:24.023109$GBGSV,2,1,07,12,15,126,35,14,29,190,39,24,63,045,47,25,50,275,46*66
###2023-12-09 13:34:24.025157$GBGSV,2,2,07,26,16,070,41,33,46,217,45,35,16,057,41,,,,*5C
###2023-12-09 13:34:24.026451$GNVTG,63.22,T,,M,2.99,N,5.54,K,A*10
###2023-12-09 13:34:24.028080$GNGST,183423.10,6.300,,,,0.091,0.068,0.160*6D
###2023-12-09 13:34:24.029380$GNZDA,183423.10,09,12,2023,00,00*7F
###2023-12-09 13:34:24.030021$GNEBP,,,,,,M*13
###2023-12-09 13:34:24.196433$GNGGA,183423.30,4138.0539014,N,07032.4017434,W,1,26,0.6,13.258,M,-29.745,M,0.0,*5E
###2023-12-09 13:34:24.394386$GNGGA,183423.50,4138.0539583,N,07032.4015529,W,1,26,0.6,13.252,M,-29.745,M,0.0,*56
###2023-12-09 13:34:24.594261$GNGGA,183423.70,4138.0540813,N,07032.4014074,W,1,26,0.6,13.289,M,-29.745,M,0.0,*54
###2023-12-09 13:34:24.795234$GNGGA,183423.90,4138.0541983,N,07032.4012423,W,1,26,0.6,13.247,M,-29.745,M,0.0,*51
###2023-12-09 13:34:24.998805$GNRMC,183424.10,A,4138.0542552,N,07032.4010510,W,2.68,70.34,091223,,,A*64
###2023-12-09 13:34:25.001665$GNGGA,183424.10,4138.0542552,N,07032.4010510,W,1,26,0.6,13.237,M,-29.745,M,0.0,*59
###2023-12-09 13:34:25.003545$GPGSA,A,3,03,04,16,26,27,28,29,31,,,,,1.0,0.6,0.8*3F
###2023-12-09 13:34:25.005267$GLGSA,A,3,65,71,72,73,74,75,,,,,,,1.0,0.6,0.8*24
###2023-12-09 13:34:25.006869$GAGSA,A,3,04,19,21,27,,,,,,,,,1.0,0.6,0.8*26
###2023-12-09 13:34:25.008651$GBGSA,A,3,12,14,24,25,26,33,35,,,,,,1.0,0.6,0.8*2A
###2023-12-09 13:34:25.011264$GPGSV,2,1,08,03,27,247,41,04,46,308,46,16,66,222,46,26,84,040,47*77
###2023-12-09 13:34:25.013612$GPGSV,2,2,08,27,16,172,40,28,38,084,42,29,21,047,42,31,59,066,46*79
###2023-12-09 13:34:25.015965$GLGSV,2,1,06,65,38,319,44,71,23,175,43,72,63,222,46,73,23,052,42*64
###2023-12-09 13:34:25.017708$GLGSV,2,2,06,74,60,013,42,75,43,271,47,,,,,,,,*60
###2023-12-09 13:34:25.020055$GAGSV,1,1,04,04,40,310,44,19,72,181,41,21,77,046,46,27,22,050,41*68
###2023-12-09 13:34:25.022388$GBGSV,2,1,07,12,15,126,39,14,29,190,39,24,63,045,47,25,50,275,47*6B
###2023-12-09 13:34:25.024444$GBGSV,2,2,07,26,16,070,41,33,46,217,48,35,16,057,42,,,,*52
###2023-12-09 13:34:25.025734$GNVTG,70.34,T,,M,2.68,N,4.97,K,A*15
###2023-12-09 13:34:25.027361$GNGST,183424.10,5.900,,,,0.091,0.068,0.160*63
###2023-12-09 13:34:25.028658$GNZDA,183424.10,09,12,2023,00,00*78
