###2023-12-09 13:00:31.985760$GLGSV,2,2,06,74,70,336,42,75,32,252,47,,,,,,,,*62
###2023-12-09 13:00:31.988126$GAGSV,1,1,04,04,29,312,40,19,84,219,41,21,86,122,46,27,33,048,41*6E
###2023-12-09 13:00:31.990456$GBGSV,2,1,05,14,43,193,46,24,74,024,47,25,41,262,47,26,26,063,41*61
###2023-12-09 13:00:31.991933$GBGSV,2,2,05,33,57,233,48,,,,,,,,,,,,*52
###2023-12-09 13:00:31.993226$GNVTG,78.23,T,,M,3.29,N,6.08,K,A*1B
###2023-12-09 13:00:31.994889$GNGST,180031.10,18.000,,,,0.079,0.067,0.160*5C
###2023-12-09 13:00:31.996181$GNZDA,180031.10,09,12,2023,00,00*7B
###2023-12-09 13:00:31.996819$GNEBP,,,,,,M*13
###2023-12-09 13:00:32.162832$GNGGA,180031.30,4138.0245511,N,07032.3086335,W,1,24,0.6,13.219,M,-29.744,M,0.0,*59
###2023-12-09 13:00:32.364684$GNGGA,180031.50,4138.0246043,N,07032.3084132,W,1,24,0.6,13.228,M,-29.744,M,0.0,*5B
###2023-12-09 13:00:32.563638$GNGGA,180031.70,4138.0246330,N,07032.3081695,W,1,24,0.6,13.251,M,-29.744,M,0.0,*5F
###2023-12-09 13:00:32.771598$GNGGA,180031.90,4138.0246223,N,07032.3079239,W,1,24,0.6,13.223,M,-29.744,M,0.0,*52
###2023-12-09 13:00:32.975649$GNRMC,180032.10,A,4138.0246429,N,07032.3076893,W,3.30,73.44,091223,,,A*63
###2023-12-09 13:00:32.978515$GNGGA,180032.10,4138.0246429,N,07032.3076893,W,1,24,0.6,13.223,M,-29.744,M,0.0,*50
###2023-12-09 13:00:32.980388$GPGSA,A,3,03,04,16,26,28,29,31,32,,,,,1.1,0.6,0.9*3B
###2023-12-09 13:00:32.982108$GLGSA,A,3,65,71,72,73,74,75,,,,,,,1.1,0.6,0.9*24
###2023-12-09 13:00:32.983700$GAGSA,A,3,04,19,21,27,,,,,,,,,1.1,0.6,0.9*26
###2023-12-09 13:00:32.985340$GBGSA,A,3,14,24,25,26,33,,,,,,,,1.1,0.6,0.9*2F
###2023-12-09 13:00:32.987669$GPGSV,2,1,08,03,35,262,45,04,32,311,40,16,49,212,47,26,79,210,48*7F
###2023-12-09 13:00:32.989996$GPGSV,2,2,08,28,49,070,42,29,25,061,39,31,69,036,46,32,19,140,44*70
###2023-12-09 13:00:32.992337$GLGSV,2,1,06,65,24,327,40,71,41,173,48,72,73,271,47,73,36,041,44*6F
###2023-12-09 13:00:32.994087$GLGSV,2,2,06,74,70,336,43,75,32,252,46,,,,,,,,*62
###2023-12-09 13:00:32.996428$GAGSV,1,1,04,04,29,312,38,19,84,219,40,21,86,122,45,27,33,048,42*60
###2023-12-09 13:00:32.998774$GBGSV,2,1,05,14,43,193,47,24,74,024,49,25,41,262,48,26,26,063,42*62
###2023-12-09 13:00:33.000234$GBGSV,2,2,05,33,57,233,49,,,,,,,,,,,,*53
###2023-12-09 13:00:33.001560$GNVTG,73.44,T,,M,3.30,N,6.12,K,A*12
###2023-12-09 13:00:33.003218$GNGST,180032.10,18.000,,,,0.079,0.067,0.160*5F
###2023-12-09 13:00:33.004514$GNZDA,180032.10,09,12,2023,00,00*78
###2023-12-09 13:00:33.005152$GNEBP,,,,,,M*13
###2023-12-09 13:00:33.169014$GNGGA,180032.30,4138.0246969,N,07032.3074496,W,1,24,0.6,13.233,M,-29.744,M,0.0,*51
###2023-12-09 13:00:33.365372$GNGGA,180032.50,4138.0247085,N,07032.3071985,W,1,24,0.6,13.231,M,-29.744,M,0.0,*55
###2023-12-09 13:00:33.565101$GNGGA,180032.70,4138.0247039,N,07032.3069432,W,1,24,0.6,13.242,M,-29.744,M,0.0,*5C
###2023-12-09 13:00:33.766093$GNGGA,180032.90,4138.0247190,N,07032.3066894,W,1,24,0.6,13.244,M,-29.744,M,0.0,*59
###2023-12-09 13:00:33.966753$GNRMC,180033.10,A,4138.0247511,N,07032.3064352,W,3.36,76.33,091223,,,A*6F
###2023-12-09 13:00:33.969613$GNGGA,180033.10,4138.0247511,N,07032.3064352,W,1,24,0.6,13.221,M,-29.744,M,0.0,*5D
###2023-12-09 13:00:33.971501$GPGSA,A,3,03,04,16,26,28,29,31,32,,,,,1.1,0.6,0.9*3B
###2023-12-09 13:00:33.973216$GLGSA,A,3,65,71,72,73,74,75,,,,,,,1.1,0.6,0.9*24
###2023-12-09 13:00:33.974807$GAGSA,A,3,04,19,21,27,,,,,,,,,1.1,0.6,0.9*26
###2023-12-09 13:00:33.976446$GBGSA,A,3,14,24,25,26,33,,,,,,,,1.1,0.6,0.9*2F
###2023-12-09 13:00:33.978800$GPGSV,2,1,08,03,35,262,45,04,32,311,42,16,49,212,46,26,79,210,48*7C
###2023-12-09 13:00:33.981121$GPGSV,2,2,08,28,49,070,43,29,25,061,41,31,69,036,47,32,19,140,42*79
###2023-12-09 13:00:33.983445$GLGSV,2,1,06,65,24,327,42,71,41,173,48,72,73,271,47,73,36,041,45*6C
###2023-12-09 13:00:33.985176$GLGSV,2,2,06,74,70,336,43,75,32,252,47,,,,,,,,*63
###2023-12-09 13:00:33.987487$GAGSV,1,1,04,04,29,312,39,19,84,219,41,21,86,122,46,27,33,048,41*60
###2023-12-09 13:00:33.989795$GBGSV,2,1,05,14,43,193,46,24,74,024,48,25,41,262,47,26,26,063,42*6D
###2023-12-09 13:00:33.991250$GBGSV,2,2,05,33,57,233,48,,,,,,,,,,,,*52
###2023-12-09 13:00:33.992529$GNVTG,76.33,T,,M,3.36,N,6.23,K,A*13
###2023-12-09 13:00:33.994205$GNGST,180033.10,18.000,,,,0.079,0.067,0.160*5E
###2023-12-09 13:00:33.995506$GNZDA,180033.10,09,12,2023,00,00*79
###2023-12-09 13:00:33.996143$GNEBP,,,,,,M*13
###2023-12-09 13:00:34.164933$GNGGA,180033.30,4138.0248031,N,07032.3061916,W,1,24,0.6,13.232,M,-29.744,M,0.0,*5A
###2023-12-09 13:00:34.365717$GNGGA,180033.50,4138.0248304,N,07032.3059371,W,1,24,0.6,13.264,M,-29.744,M,0.0,*5A
###2023-12-09 13:00:34.564889$GNGGA,180033.70,4138.0248372,N,07032.3056722,W,1,24,0.6,13.261,M,-29.744,M,0.0,*51
###2023-12-09 13:00:34.765016$GNGGA,180033.90,4138.0248795,N,07032.3054248,W,1,24,0.6,13.245,M,-29.744,M,0.0,*5F
###2023-12-09 13:00:34.967849$GNRMC,180034.10,A,4138.0249580,N,07032.3052006,W,3.29,65.14,091223,,,A*60
###2023-12-09 13:00:34.970718$GNGGA,180034.10,4138.0249580,N,07032.3052006,W,1,24,0.6,13.258,M,-29.744,M,0.0,*55
###2023-12-09 13:00:34.972574$GPGSA,A,3,03,04,16,26,28,29,31,32,,,,,1.1,0.6,0.9*3B
###2023-12-09 13:00:34.974281$GLGSA,A,3,65,71,72,73,74,75,,,,,,,1.1,0.6,0.9*24
###2023-12-09 13:00:34.975865$GAGSA,A,3,04,19,21,27,,,,,,,,,1.1,0.6,0.9*26
###2023-12-09 13:00:34.977504$GBGSA,A,3,14,24,25,26,33,,,,,,,,1.1,0.6,0.9*2F
###2023-12-09 13:00:34.979823$GPGSV,2,1,08,03,35,262,47,04,32,311,44,16,49,212,48,26,79,210,50*7F
###2023-12-09 13:00:34.982146$GPGSV,2,2,08,28,49,070,43,29,25,061,44,31,69,036,48,32,19,140,44*75
###2023-12-09 13:00:34.984485$GLGSV,2,1,06,65,24,327,43,71,41,173,47,72,73,271,47,73,36,041,44*63
###2023-12-09 13:00:34.986263$GLGSV,2,2,06,74,70,336,43,75,32,252,47,,,,,,,,*63
###2023-12-09 13:00:34.988607$GAGSV,1,1,04,04,29,312,44,19,84,219,43,21,86,122,48,27,33,048,42*65
###2023-12-09 13:00:34.990943$GBGSV,2,1,05,14,43,193,44,24,74,024,47,25,41,262,45,26,26,063,41*61
###2023-12-09 13:00:34.992403$GBGSV,2,2,05,33,57,233,46,,,,,,,,,,,,*5C
###2023-12-09 13:00:34.993690$GNVTG,65.14,T,,M,3.29,N,6.08,K,A*13
###2023-12-09 13:00:34.995346$GNGST,180034.10,18.000,,,,0.079,0.067,0.160*59
###2023-12-09 13:00:34.996634$GNZDA,180034.10,09,12,2023,00,00*7E
###2023-12-09 13:00:34.997271$GNEBP,,,,,,M*13
###2023-12-09 13:00:35.164859$GNGGA,180034.30,4138.0250192,N,07032.3049682,W,1,24,0.6,13.280,M,-29.744,M,0.0,*5D
###2023-12-09 13:00:35.365563$GNGGA,180034.50,4138.0250410,N,07032.3047060,W,1,24,0.6,13.268,M,-29.744,M,0.0,*56
###2023-12-09 13:00:35.566922$GNGGA,180034.70,4138.0250928,N,07032.3044822,W,1,24,0.6,13.270,M,-29.744,M,0.0,*56
###2023-12-09 13:00:35.769013$GNGGA,180034.90,4138.0252035,N,07032.3042925,W,1,24,0.6,13.320,M,-29.744,M,0.0,*5B
###2023-12-09 13:00:35.967092$GNRMC,180035.10,A,4138.0252803,N,07032.3040695,W,3.34,74.39,091223,,,A*61
###2023-12-09 13:00:35.969961$GNGGA,180035.10,4138.0252803,N,07032.3040695,W,1,24,0.6,13.305,M,-29.744,M,0.0,*5E
###2023-12-09 13:00:35.971844$GPGSA,A,3,03,04,16,26,28,29,31,32,,,,,1.1,0.6,0.9*3B
###2023-12-09 13:00:35.973559$GLGSA,A,3,65,71,72,73,74,75,,,,,,,1.1,0.6,0.9*24
###2023-12-09 13:00:35.975157$GAGSA,A,3,04,19,21,27,,,,,,,,,1.1,0.6,0.9*26
###2023-12-09 13:00:35.976800$GBGSA,A,3,14,24,25,26,33,,,,,,,,1.1,0.6,0.9*2F
###2023-12-09 13:00:35.979134$GPGSV,2,1,08,03,35,262,45,04,32,311,45,16,49,212,46,26,79,210,49*7A
###2023-12-09 13:00:35.981445$GPGSV,2,2,08,28,49,070,44,29,25,061,43,31,69,036,48,32,19,140,43*72
###2023-12-09 13:00:35.983781$GLGSV,2,1,06,65,24,327,42,71,41,173,47,72,73,271,46,73,36,041,44*63
###2023-12-09 13:00:35.985533$GLGSV,2,2,06,74,70,336,43,75,32,252,46,,,,,,,,*62
###2023-12-09 13:00:35.987875$GAGSV,1,1,04,04,29,312,43,19,84,219,41,21,86,122,46,27,33,048,41*6D
###2023-12-09 13:00:35.990200$GBGSV,2,1,05,14,43,193,44,24,74,024,48,25,41,262,46,26,26,063,43*6F
###2023-12-09 13:00:35.991663$GBGSV,2,2,05,33,57,233,48,,,,,,,,,,,,*52
###2023-12-09 13:00:35.992953$GNVTG,74.39,T,,M,3.34,N,6.19,K,A*10
###2023-12-09 13:00:35.994610$GNGST,180035.10,18.000,,,,0.079,0.066,0.160*59
###2023-12-09 13:00:35.995903$GNZDA,180035.10,09,12,2023,00,00*7F
###2023-12-09 13:00:35.996545$GNEBP,,,,,,M*13
###2023-12-09 13:00:36.165049$GNGGA,180035.30,4138.0253295,N,07032.3038463,W,1,24,0.6,13.270,M,-29.744,M,0.0,*5F
###2023-12-09 13:00:36.365989$GNGGA,180035.50,4138.0254142,N,07032.3036492,W,1,24,0.6,13.304,M,-29.744,M,0.0,*55
###2023-12-09 13:00:36.564892$GNGGA,180035.70,4138.0255254,N,07032.3034622,W,1,24,0.6,13.345,M,-29.744,M,0.0,*5C
###2023-12-09 13:00:36.764203$GNGGA,180035.90,4138.0256199,N,07032.3032645,W,1,24,0.6,13.351,M,-29.744,M,0.0,*51
###2023-12-09 13:00:36.966814$GNRMC,180036.10,A,4138.0256922,N,07032.3030503,W,3.15,64.51,091223,,,A*63
###2023-12-09 13:00:36.969692$GNGGA,180036.10,4138.0256922,N,07032.3030503,W,1,24,0.6,13.345,M,-29.744,M,0.0,*54
###2023-12-09 13:00:36.971573$GPGSA,A,3,03,04,16,26,28,29,31,32,,,,,1.1,0.6,0.9*3B
###2023-12-09 13:00:36.973291$GLGSA,A,3,65,71,72,73,74,75,,,,,,,1.1,0.6,0.9*24
