###2023-12-09 13:46:09.011048$GNRMC,184608.10,A,4138.0394463,N,07032.4388630,W,0.02,243.17,091223,,,A*5F
###2023-12-09 13:46:09.013907$GNGGA,184608.10,4138.0394463,N,07032.4388630,W,1,20,0.7,15.145,M,-29.746,M,0.0,*5B
###2023-12-09 13:46:09.015643$GPGSA,A,3,04,16,26,28,29,31,,,,,,,1.3,0.7,1.1*33
###2023-12-09 13:46:09.017348$GLGSA,A,3,65,72,73,74,75,83,,,,,,,1.3,0.7,1.1*23
###2023-12-09 13:46:09.018867$GAGSA,A,3,04,21,27,,,,,,,,,,1.3,0.7,1.1*24
###2023-12-09 13:46:09.020503$GBGSA,A,3,12,24,25,33,35,,,,,,,,1.3,0.7,1.1*21
###2023-12-09 13:46:09.022827$GPGSV,2,1,06,04,51,304,47,16,72,228,42,26,78,041,39,28,34,089,46*7E
###2023-12-09 13:46:09.024566$GPGSV,2,2,06,29,18,043,44,31,56,073,49,,,,,,,,*72
###2023-12-09 13:46:09.026897$GLGSV,2,1,06,65,42,313,45,72,57,214,37,73,18,056,40,74,56,022,37*6F
###2023-12-09 13:46:09.028635$GLGSV,2,2,06,75,47,279,46,83,16,042,37,,,,,,,,*62
###2023-12-09 13:46:09.030663$GAGSV,1,1,03,04,43,308,45,21,72,043,40,27,19,051,42,,,,*58
###2023-12-09 13:46:09.032974$GBGSV,2,1,05,12,19,123,43,24,59,051,47,25,54,281,39,33,41,214,39*63
###2023-12-09 13:46:09.034418$GBGSV,2,2,05,35,16,052,40,,,,,,,,,,,,*5C
###2023-12-09 13:46:09.035747$GNVTG,243.17,T,,M,0.02,N,0.04,K,A*26
###2023-12-09 13:46:09.037358$GNGST,184608.10,6.800,,,,0.190,0.120,0.320*61
###2023-12-09 13:46:09.038657$GNZDA,184608.10,09,12,2023,00,00*73
###2023-12-09 13:46:09.039293$GNEBP,,,,,,M*13
###2023-12-09 13:46:09.206845$GNGGA,184608.30,4138.0394470,N,07032.4388618,W,1,20,0.7,15.152,M,-29.746,M,0.0,*57
###2023-12-09 13:46:09.403444$GNGGA,184608.50,4138.0394479,N,07032.4388613,W,1,20,0.7,15.157,M,-29.746,M,0.0,*56
###2023-12-09 13:46:09.601464$GNGGA,184608.70,4138.0394494,N,07032.4388600,W,1,20,0.7,15.163,M,-29.746,M,0.0,*52
###2023-12-09 13:46:09.802457$GNGGA,184608.90,4138.0394511,N,07032.4388585,W,1,20,0.7,15.174,M,-29.746,M,0.0,*58
###2023-12-09 13:46:10.000946$GNRMC,184609.10,A,4138.0394523,N,07032.4388583,W,0.02,243.17,091223,,,A*50
###2023-12-09 13:46:10.003825$GNGGA,184609.10,4138.0394523,N,07032.4388583,W,1,20,0.7,15.177,M,-29.746,M,0.0,*55
###2023-12-09 13:46:10.005551$GPGSA,A,3,04,16,26,28,29,31,,,,,,,1.3,0.7,1.1*33
###2023-12-09 13:46:10.007274$GLGSA,A,3,65,72,73,74,75,83,,,,,,,1.3,0.7,1.1*23
###2023-12-09 13:46:10.008785$GAGSA,A,3,04,21,27,,,,,,,,,,1.3,0.7,1.1*24
###2023-12-09 13:46:10.010422$GBGSA,A,3,12,24,25,33,35,,,,,,,,1.3,0.7,1.1*21
###2023-12-09 13:46:10.012751$GPGSV,2,1,06,04,51,304,47,16,72,228,42,26,78,041,40,28,34,089,46*70
###2023-12-09 13:46:10.014493$GPGSV,2,2,06,29,18,043,44,31,56,073,49,,,,,,,,*72
###2023-12-09 13:46:10.016820$GLGSV,2,1,06,65,42,313,45,72,57,214,37,73,18,056,41,74,56,022,36*6F
###2023-12-09 13:46:10.018558$GLGSV,2,2,06,75,47,279,46,83,16,042,36,,,,,,,,*63
###2023-12-09 13:46:10.020592$GAGSV,1,1,03,04,43,308,45,21,72,043,39,27,19,051,43,,,,*57
###2023-12-09 13:46:10.022915$GBGSV,2,1,05,12,19,123,43,24,59,051,47,25,54,281,39,33,41,214,39*63
###2023-12-09 13:46:10.024362$GBGSV,2,2,05,35,16,052,40,,,,,,,,,,,,*5C
###2023-12-09 13:46:10.025675$GNVTG,243.17,T,,M,0.02,N,0.04,K,A*26
###2023-12-09 13:46:10.027290$GNGST,184609.10,6.900,,,,0.190,0.120,0.310*62
###2023-12-09 13:46:10.028576$GNZDA,184609.10,09,12,2023,00,00*72
###2023-12-09 13:46:10.029212$GNEBP,,,,,,M*13
###2023-12-09 13:46:10.200641$GNGGA,184609.30,4138.0394542,N,07032.4388565,W,1,20,0.7,15.187,M,-29.746,M,0.0,*57
###2023-12-09 13:46:10.401050$GNGGA,184609.50,4138.0394554,N,07032.4388555,W,1,20,0.7,15.197,M,-29.746,M,0.0,*54
###2023-12-09 13:46:10.598459$GNGGA,184609.70,4138.0394557,N,07032.4388544,W,1,20,0.7,15.203,M,-29.746,M,0.0,*5B
###2023-12-09 13:46:10.799412$GNGGA,184609.90,4138.0394541,N,07032.4388544,W,1,20,0.7,15.206,M,-29.746,M,0.0,*57
###2023-12-09 13:46:11.004112$GNRMC,184610.10,A,4138.0394531,N,07032.4388546,W,0.04,243.17,091223,,,A*54
###2023-12-09 13:46:11.007233$GNGGA,184610.10,4138.0394531,N,07032.4388546,W,1,20,0.7,15.208,M,-29.746,M,0.0,*5C
###2023-12-09 13:46:11.009071$GPGSA,A,3,04,16,26,28,29,31,,,,,,,1.3,0.7,1.1*33
###2023-12-09 13:46:11.010803$GLGSA,A,3,65,72,73,74,75,83,,,,,,,1.3,0.7,1.1*23
###2023-12-09 13:46:11.012321$GAGSA,A,3,04,21,27,,,,,,,,,,1.3,0.7,1.1*24
###2023-12-09 13:46:11.013958$GBGSA,A,3,12,24,25,33,35,,,,,,,,1.3,0.7,1.1*21
###2023-12-09 13:46:11.016297$GPGSV,2,1,06,04,51,304,47,16,72,228,41,26,78,041,40,28,34,089,45*70
###2023-12-09 13:46:11.018051$GPGSV,2,2,06,29,18,043,43,31,56,073,49,,,,,,,,*75
###2023-12-09 13:46:11.020400$GLGSV,2,1,06,65,42,313,45,72,57,214,36,73,18,056,41,74,56,022,36*6E
###2023-12-09 13:46:11.022147$GLGSV,2,2,06,75,47,279,46,83,16,042,36,,,,,,,,*63
###2023-12-09 13:46:11.024189$GAGSV,1,1,03,04,43,308,45,21,72,043,40,27,19,051,43,,,,*59
###2023-12-09 13:46:11.026520$GBGSV,2,1,05,12,19,123,43,24,59,051,47,25,54,281,39,33,41,214,38*62
###2023-12-09 13:46:11.027982$GBGSV,2,2,05,35,16,052,40,,,,,,,,,,,,*5C
###2023-12-09 13:46:11.029303$GNVTG,243.17,T,,M,0.04,N,0.07,K,A*23
###2023-12-09 13:46:11.030931$GNGST,184610.10,7.300,,,,0.190,0.120,0.310*61
###2023-12-09 13:46:11.032227$GNZDA,184610.10,09,12,2023,00,00*7A
###2023-12-09 13:46:11.032869$GNEBP,,,,,,M*13
###2023-12-09 13:46:11.201935$GNGGA,184610.30,4138.0394530,N,07032.4388547,W,1,20,0.7,15.215,M,-29.746,M,0.0,*52
###2023-12-09 13:46:11.401430$GNGGA,184610.50,4138.0394533,N,07032.4388538,W,1,20,0.7,15.226,M,-29.746,M,0.0,*5F
###2023-12-09 13:46:11.599484$GNGGA,184610.70,4138.0394544,N,07032.4388535,W,1,20,0.7,15.229,M,-29.746,M,0.0,*5F
###2023-12-09 13:46:11.799200$GNGGA,184610.90,4138.0394560,N,07032.4388528,W,1,20,0.7,15.239,M,-29.746,M,0.0,*5A
###2023-12-09 13:46:12.002857$GNRMC,184611.10,A,4138.0394577,N,07032.4388520,W,0.08,243.17,091223,,,A*5B
###2023-12-09 13:46:12.005717$GNGGA,184611.10,4138.0394577,N,07032.4388520,W,1,20,0.7,15.245,M,-29.746,M,0.0,*56
###2023-12-09 13:46:12.007460$GPGSA,A,3,04,16,26,28,29,31,,,,,,,1.3,0.7,1.1*33
###2023-12-09 13:46:12.009173$GLGSA,A,3,65,72,73,74,75,83,,,,,,,1.3,0.7,1.1*23
###2023-12-09 13:46:12.010708$GAGSA,A,3,04,21,27,,,,,,,,,,1.3,0.7,1.1*24
###2023-12-09 13:46:12.012359$GBGSA,A,3,12,24,25,33,35,,,,,,,,1.3,0.7,1.1*21
###2023-12-09 13:46:12.014693$GPGSV,2,1,06,04,51,304,47,16,72,228,42,26,78,041,40,28,34,089,46*70
###2023-12-09 13:46:12.016439$GPGSV,2,2,06,29,18,043,44,31,56,073,49,,,,,,,,*72
###2023-12-09 13:46:12.018778$GLGSV,2,1,06,65,42,313,45,72,57,214,36,73,18,056,41,74,56,022,36*6E
###2023-12-09 13:46:12.020534$GLGSV,2,2,06,75,47,279,46,83,16,042,36,,,,,,,,*63
###2023-12-09 13:46:12.022577$GAGSV,1,1,03,04,43,308,45,21,72,043,40,27,19,051,43,,,,*59
###2023-12-09 13:46:12.024912$GBGSV,2,1,05,12,19,123,43,24,59,051,47,25,54,281,39,33,41,214,39*63
###2023-12-09 13:46:12.026365$GBGSV,2,2,05,35,16,052,40,,,,,,,,,,,,*5C
###2023-12-09 13:46:12.027701$GNVTG,243.17,T,,M,0.08,N,0.14,K,A*2D
###2023-12-09 13:46:12.029324$GNGST,184611.10,7.100,,,,0.190,0.120,0.310*62
###2023-12-09 13:46:12.030633$GNZDA,184611.10,09,12,2023,00,00*7B
###2023-12-09 13:46:12.031271$GNEBP,,,,,,M*13
###2023-12-09 13:46:12.200800$GNGGA,184611.30,4138.0394601,N,07032.4388511,W,1,20,0.7,15.252,M,-29.746,M,0.0,*52
###2023-12-09 13:46:12.399426$GNGGA,184611.50,4138.0394623,N,07032.4388509,W,1,20,0.7,15.255,M,-29.746,M,0.0,*5A
###2023-12-09 13:46:12.599290$GNGGA,184611.70,4138.0394626,N,07032.4388497,W,1,20,0.7,15.263,M,-29.746,M,0.0,*5E
###2023-12-09 13:46:12.801877$GNGGA,184611.90,4138.0394623,N,07032.4388504,W,1,20,0.7,15.267,M,-29.746,M,0.0,*5A
###2023-12-09 13:46:13.003017$GNRMC,184612.10,A,4138.0394613,N,07032.4388489,W,0.02,243.17,091223,,,A*51
###2023-12-09 13:46:13.005877$GNGGA,184612.10,4138.0394613,N,07032.4388489,W,1,20,0.7,15.278,M,-29.746,M,0.0,*58
###2023-12-09 13:46:13.007623$GPGSA,A,3,04,16,26,28,29,31,,,,,,,1.3,0.7,1.1*33
###2023-12-09 13:46:13.009338$GLGSA,A,3,65,72,73,74,75,83,,,,,,,1.3,0.7,1.1*23
###2023-12-09 13:46:13.010864$GAGSA,A,3,04,21,27,,,,,,,,,,1.3,0.7,1.1*24
###2023-12-09 13:46:13.012507$GBGSA,A,3,12,24,25,33,35,,,,,,,,1.3,0.7,1.1*21
###2023-12-09 13:46:13.014842$GPGSV,2,1,06,04,51,304,46,16,72,228,42,26,78,041,40,28,34,089,46*71
###2023-12-09 13:46:13.016591$GPGSV,2,2,06,29,18,043,44,31,56,073,49,,,,,,,,*72
###2023-12-09 13:46:13.018928$GLGSV,2,1,06,65,42,313,45,72,57,214,37,73,18,056,41,74,56,022,36*6F
###2023-12-09 13:46:13.020929$GLGSV,2,2,06,75,47,279,46,83,16,042,36,,,,,,,,*63
###2023-12-09 13:46:13.022993$GAGSV,1,1,03,04,43,308,45,21,72,043,40,27,19,051,42,,,,*58
###2023-12-09 13:46:13.025324$GBGSV,2,1,05,12,19,123,43,24,59,051,47,25,54,281,39,33,41,214,38*62
###2023-12-09 13:46:13.026788$GBGSV,2,2,05,35,16,052,40,,,,,,,,,,,,*5C
###2023-12-09 13:46:13.028110$GNVTG,243.17,T,,M,0.02,N,0.04,K,A*26
###2023-12-09 13:46:13.029719$GNGST,184612.10,7.000,,,,0.190,0.120,0.310*60
###2023-12-09 13:46:13.031017$GNZDA,184612.10,09,12,2023,00,00*78
