###2023-12-09 13:35:37.007306$GAGSA,A,3,04,19,21,27,,,,,,,,,1.1,0.6,0.9*26
###2023-12-09 13:35:37.009096$GBGSA,A,3,12,14,24,25,26,33,35,,,,,,1.1,0.6,0.9*2A
###2023-12-09 13:35:37.011440$GPGSV,2,1,08,03,26,246,41,04,47,307,44,16,67,223,46,26,83,040,48*73
###2023-12-09 13:35:37.013762$GPGSV,2,2,08,27,17,172,39,28,37,085,44,29,20,046,43,31,59,067,47*7F
###2023-12-09 13:35:37.016094$GLGSV,2,1,07,65,39,318,43,71,22,175,44,72,62,220,45,73,22,052,43*64
###2023-12-09 13:35:37.018122$GLGSV,2,2,07,74,59,015,41,75,44,272,46,83,15,047,36,,,,*52
###2023-12-09 13:35:37.020444$GAGSV,1,1,04,04,40,310,43,19,72,181,40,21,77,046,46,27,22,050,40*6F
###2023-12-09 13:35:37.022776$GBGSV,2,1,07,12,15,126,41,14,29,190,41,24,62,046,47,25,51,276,46*6A
###2023-12-09 13:35:37.024802$GBGSV,2,2,07,26,16,071,43,33,45,217,43,35,16,056,45,,,,*5F
###2023-12-09 13:35:37.026118$GNVTG,221.88,T,,M,2.88,N,5.33,K,A*25
###2023-12-09 13:35:37.027734$GNGST,183536.10,5.400,,,,0.088,0.070,0.150*6E
###2023-12-09 13:35:37.029021$GNZDA,183536.10,09,12,2023,00,00*7A
###2023-12-09 13:35:37.029659$GNEBP,,,,,,M*13
###2023-12-09 13:35:37.195535$GNGGA,183536.30,4138.0349949,N,07032.3998876,W,1,26,0.6,13.197,M,-29.745,M,0.0,*58
###2023-12-09 13:35:37.394866$GNGGA,183536.50,4138.0348891,N,07032.4000469,W,1,26,0.6,13.204,M,-29.745,M,0.0,*5F
###2023-12-09 13:35:37.593652$GNGGA,183536.70,4138.0348033,N,07032.4002185,W,1,26,0.6,13.222,M,-29.745,M,0.0,*5C
###2023-12-09 13:35:37.794731$GNGGA,183536.90,4138.0347333,N,07032.4004031,W,1,26,0.6,13.238,M,-29.745,M,0.0,*5D
###2023-12-09 13:35:37.998530$GNRMC,183537.10,A,4138.0346651,N,07032.4005968,W,2.94,244.18,091223,,,A*5A
###2023-12-09 13:35:38.001494$GNGGA,183537.10,4138.0346651,N,07032.4005968,W,1,25,0.6,13.242,M,-29.745,M,0.0,*5E
###2023-12-09 13:35:38.003377$GPGSA,A,3,03,04,16,26,28,29,31,,,,,,1.1,0.6,0.9*3A
###2023-12-09 13:35:38.005170$GLGSA,A,3,65,71,72,73,74,75,83,,,,,,1.1,0.6,0.9*2F
###2023-12-09 13:35:38.006769$GAGSA,A,3,04,19,21,27,,,,,,,,,1.1,0.6,0.9*26
###2023-12-09 13:35:38.008544$GBGSA,A,3,12,14,24,25,26,33,35,,,,,,1.1,0.6,0.9*2A
###2023-12-09 13:35:38.010889$GPGSV,2,1,07,03,26,246,40,04,47,307,43,16,67,223,44,26,83,040,47*77
###2023-12-09 13:35:38.012930$GPGSV,2,2,07,28,37,085,44,29,20,046,41,31,59,067,46,,,,*4E
###2023-12-09 13:35:38.015276$GLGSV,2,1,07,65,39,318,43,71,22,175,44,72,62,220,46,73,22,052,44*60
###2023-12-09 13:35:38.017322$GLGSV,2,2,07,74,59,015,43,75,44,272,46,83,15,047,37,,,,*51
###2023-12-09 13:35:38.019672$GAGSV,1,1,04,04,40,310,42,19,72,181,40,21,77,046,46,27,22,050,41*6F
###2023-12-09 13:35:38.022009$GBGSV,2,1,07,12,15,126,41,14,29,190,41,24,62,046,48,25,51,276,46*65
###2023-12-09 13:35:38.024066$GBGSV,2,2,07,26,16,071,45,33,45,217,47,35,16,056,45,,,,*5D
###2023-12-09 13:35:38.025395$GNVTG,244.18,T,,M,2.94,N,5.44,K,A*22
###2023-12-09 13:35:38.027023$GNGST,183537.10,5.900,,,,0.089,0.070,0.150*63
###2023-12-09 13:35:38.028319$GNZDA,183537.10,09,12,2023,00,00*7B
###2023-12-09 13:35:38.028958$GNEBP,,,,,,M*13
###2023-12-09 13:35:38.193762$GNGGA,183537.30,4138.0345935,N,07032.4007968,W,1,25,0.6,13.241,M,-29.745,M,0.0,*53
###2023-12-09 13:35:38.393803$GNGGA,183537.50,4138.0345198,N,07032.4009998,W,1,26,0.6,13.248,M,-29.745,M,0.0,*51
###2023-12-09 13:35:38.593922$GNGGA,183537.70,4138.0344630,N,07032.4012148,W,1,26,0.6,13.246,M,-29.745,M,0.0,*56
###2023-12-09 13:35:38.794768$GNGGA,183537.90,4138.0344255,N,07032.4014386,W,1,25,0.6,13.253,M,-29.745,M,0.0,*5E
###2023-12-09 13:35:38.999364$GNRMC,183538.10,A,4138.0343906,N,07032.4016644,W,3.11,254.07,091223,,,A*5D
###2023-12-09 13:35:39.002210$GNGGA,183538.10,4138.0343906,N,07032.4016644,W,1,24,0.6,13.260,M,-29.745,M,0.0,*5B
###2023-12-09 13:35:39.004024$GPGSA,A,3,03,04,16,26,28,29,31,,,,,,1.1,0.6,0.9*3A
###2023-12-09 13:35:39.005741$GLGSA,A,3,65,71,72,73,74,75,,,,,,,1.1,0.6,0.9*24
###2023-12-09 13:35:39.007337$GAGSA,A,3,04,19,21,27,,,,,,,,,1.1,0.6,0.9*26
###2023-12-09 13:35:39.009125$GBGSA,A,3,12,14,24,25,26,33,35,,,,,,1.1,0.6,0.9*2A
###2023-12-09 13:35:39.011474$GPGSV,2,1,07,03,26,246,39,04,47,307,42,16,67,223,45,26,83,040,47*79
###2023-12-09 13:35:39.013521$GPGSV,2,2,07,28,37,085,45,29,20,046,40,31,59,067,45,,,,*4D
###2023-12-09 13:35:39.015870$GLGSV,2,1,06,65,39,318,43,71,22,175,43,72,62,220,45,73,22,052,42*63
###2023-12-09 13:35:39.017625$GLGSV,2,2,06,74,59,015,43,75,44,272,44,,,,,,,,*6A
###2023-12-09 13:35:39.019959$GAGSV,1,1,04,04,40,310,42,19,72,181,41,21,77,046,46,27,22,050,39*61
###2023-12-09 13:35:39.022297$GBGSV,2,1,07,12,15,126,41,14,29,190,40,24,62,046,49,25,51,276,45*66
###2023-12-09 13:35:39.024359$GBGSV,2,2,07,26,16,071,45,33,45,217,48,35,16,056,43,,,,*54
###2023-12-09 13:35:39.025688$GNVTG,254.07,T,,M,3.11,N,5.76,K,A*20
###2023-12-09 13:35:39.027390$GNGST,183538.10,5.500,,,,0.089,0.071,0.150*61
###2023-12-09 13:35:39.028687$GNZDA,183538.10,09,12,2023,00,00*74
###2023-12-09 13:35:39.029326$GNEBP,,,,,,M*13
###2023-12-09 13:35:39.204038$GNGGA,183538.30,4138.0343527,N,07032.4018884,W,1,24,0.6,13.260,M,-29.745,M,0.0,*5A
###2023-12-09 13:35:39.395965$GNGGA,183538.50,4138.0343371,N,07032.4021145,W,1,25,0.6,13.261,M,-29.745,M,0.0,*57
###2023-12-09 13:35:39.595676$GNGGA,183538.70,4138.0343412,N,07032.4023358,W,1,24,0.6,13.269,M,-29.745,M,0.0,*52
###2023-12-09 13:35:39.795752$GNGGA,183538.90,4138.0343478,N,07032.4025534,W,1,24,0.6,13.275,M,-29.745,M,0.0,*57
###2023-12-09 13:35:39.996467$GNRMC,183539.10,A,4138.0343629,N,07032.4027696,W,2.78,274.48,091223,,,A*54
###2023-12-09 13:35:39.999347$GNGGA,183539.10,4138.0343629,N,07032.4027696,W,1,24,0.6,13.277,M,-29.745,M,0.0,*53
###2023-12-09 13:35:40.001144$GPGSA,A,3,03,04,16,26,28,29,31,,,,,,1.1,0.6,0.9*3A
###2023-12-09 13:35:40.002865$GLGSA,A,3,65,71,72,73,74,75,,,,,,,1.1,0.6,0.9*24
###2023-12-09 13:35:40.004437$GAGSA,A,3,04,19,21,27,,,,,,,,,1.1,0.6,0.9*26
###2023-12-09 13:35:40.006205$GBGSA,A,3,12,14,24,25,26,33,35,,,,,,1.1,0.6,0.9*2A
###2023-12-09 13:35:40.008534$GPGSV,2,1,07,03,26,246,41,04,47,307,42,16,67,223,45,26,83,040,48*79
###2023-12-09 13:35:40.010569$GPGSV,2,2,07,28,37,085,44,29,20,046,41,31,59,067,47,,,,*4F
###2023-12-09 13:35:40.012899$GLGSV,2,1,06,65,39,318,42,71,22,175,41,72,62,220,45,73,22,052,42*60
###2023-12-09 13:35:40.014655$GLGSV,2,2,06,74,59,015,42,75,44,272,46,,,,,,,,*69
###2023-12-09 13:35:40.016977$GAGSV,1,1,04,04,40,310,42,19,72,181,41,21,77,046,46,27,22,050,40*6F
###2023-12-09 13:35:40.019315$GBGSV,2,1,07,12,15,126,41,14,29,190,42,24,62,046,48,25,51,276,46*66
###2023-12-09 13:35:40.021350$GBGSV,2,2,07,26,16,071,41,33,45,217,45,35,16,056,43,,,,*5D
###2023-12-09 13:35:40.022679$GNVTG,274.48,T,,M,2.78,N,5.15,K,A*22
###2023-12-09 13:35:40.024291$GNGST,183539.10,5.200,,,,0.091,0.072,0.160*6E
###2023-12-09 13:35:40.025579$GNZDA,183539.10,09,12,2023,00,00*75
###2023-12-09 13:35:40.026215$GNEBP,,,,,,M*13
###2023-12-09 13:35:40.195667$GNGGA,183539.30,4138.0343876,N,07032.4029778,W,1,25,0.6,13.273,M,-29.745,M,0.0,*5F
###2023-12-09 13:35:40.392528$GNGGA,183539.50,4138.0344279,N,07032.4031783,W,1,25,0.6,13.275,M,-29.745,M,0.0,*50
###2023-12-09 13:35:40.593642$GNGGA,183539.70,4138.0344822,N,07032.4033706,W,1,24,0.6,13.273,M,-29.745,M,0.0,*5E
###2023-12-09 13:35:40.795182$GNGGA,183539.90,4138.0345441,N,07032.4035502,W,1,24,0.6,13.270,M,-29.745,M,0.0,*5B
###2023-12-09 13:35:41.000831$GNRMC,183540.10,A,4138.0346136,N,07032.4037217,W,2.51,299.60,091223,,,A*58
###2023-12-09 13:35:41.004311$GNGGA,183540.10,4138.0346136,N,07032.4037217,W,1,24,0.6,13.274,M,-29.745,M,0.0,*5E
###2023-12-09 13:35:41.006485$GPGSA,A,3,03,04,16,26,28,29,31,,,,,,1.1,0.6,0.9*3A
###2023-12-09 13:35:41.008574$GLGSA,A,3,65,71,72,73,74,75,,,,,,,1.1,0.6,0.9*24
###2023-12-09 13:35:41.010490$GAGSA,A,3,04,19,21,27,,,,,,,,,1.1,0.6,0.9*26
###2023-12-09 13:35:41.012643$GBGSA,A,3,12,14,24,25,26,33,35,,,,,,1.1,0.6,0.9*2A
###2023-12-09 13:35:41.015465$GPGSV,2,1,07,03,26,246,43,04,47,307,42,16,67,223,46,26,83,040,47*77
###2023-12-09 13:35:41.017915$GPGSV,2,2,07,28,37,085,43,29,20,046,42,31,59,067,47,,,,*4B
###2023-12-09 13:35:41.020725$GLGSV,2,1,06,65,39,318,40,71,22,175,40,72,62,220,45,73,22,052,44*65
###2023-12-09 13:35:41.022836$GLGSV,2,2,06,74,59,015,41,75,44,272,45,,,,,,,,*69
###2023-12-09 13:35:41.026038$GAGSV,1,1,04,04,40,310,40,19,72,181,40,21,77,046,46,27,22,050,40*6C
###2023-12-09 13:35:41.028889$GBGSV,2,1,07,12,15,126,43,14,29,190,43,24,62,046,49,25,51,276,48*6A
###2023-12-09 13:35:41.031374$GBGSV,2,2,07,26,16,071,42,33,45,217,47,35,16,056,41,,,,*5E
###2023-12-09 13:35:41.032982$GNVTG,299.60,T,,M,2.51,N,4.64,K,A*27
###2023-12-09 13:35:41.034946$GNGST,183540.10,5.800,,,,0.091,0.071,0.160*69
###2023-12-09 13:35:41.036499$GNZDA,183540.10,09,12,2023,00,00*7B
###2023-12-09 13:35:41.037276$GNEBP,,,,,,M*13
###2023-12-09 13:35:41.198264$GNGGA,183540.30,4138.0346901,N,07032.4038789,W,1,24,0.6,13.275,M,-29.745,M,0.0,*5C
###2023-12-09 13:35:41.394534$GNGGA,183540.50,4138.0347762,N,07032.4040187,W,1,24,0.6,13.273,M,-29.745,M,0.0,*51
###2023-12-09 13:35:41.594551$GNGGA,183540.70,4138.0348670,N,07032.4041351,W,1,24,0.6,13.281,M,-29.745,M,0.0,*5B
