###2023-12-09 12:41:14.953195$GPGSV,2,1,08,03,38,274,46,04,24,311,42,16,39,208,47,26,69,207,48*78
###2023-12-09 12:41:14.955572$GPGSV,2,2,08,28,56,059,45,29,25,071,41,31,73,010,47,32,28,135,41*77
###2023-12-09 12:41:14.957919$GLGSV,2,1,05,71,52,170,48,72,68,302,47,73,44,035,47,74,71,303,43*62
###2023-12-09 12:41:14.959400$GLGSV,2,2,05,75,25,244,44,,,,,,,,,,,,*57
###2023-12-09 12:41:14.961737$GAGSV,1,1,04,04,23,311,40,19,83,292,41,21,80,172,46,27,39,049,45*6F
###2023-12-09 12:41:14.964117$GBGSV,2,1,05,14,52,196,46,24,79,359,48,25,34,255,44,26,33,058,45*62
###2023-12-09 12:41:14.965579$GBGSV,2,2,05,33,62,248,48,,,,,,,,,,,,*58
###2023-12-09 12:41:14.966884$GNVTG,25.05,T,,M,0.25,N,0.47,K,A*15
###2023-12-09 12:41:14.968535$GNGST,174114.10,18.000,,,,0.079,0.070,0.170*56
###2023-12-09 12:41:14.969829$GNZDA,174114.10,09,12,2023,00,00*76
###2023-12-09 12:41:14.970466$GNEBP,,,,,,M*13
###2023-12-09 12:41:15.142038$GNGGA,174114.30,4138.0613850,N,07032.3724043,W,1,23,0.7,13.319,M,-29.744,M,0.0,*51
###2023-12-09 12:41:15.339968$GNGGA,174114.50,4138.0614178,N,07032.3724075,W,1,23,0.7,13.320,M,-29.744,M,0.0,*5C
###2023-12-09 12:41:15.540170$GNGGA,174114.70,4138.0614288,N,07032.3724082,W,1,23,0.7,13.340,M,-29.744,M,0.0,*5C
###2023-12-09 12:41:15.739208$GNGGA,174114.90,4138.0614250,N,07032.3724099,W,1,23,0.7,13.345,M,-29.744,M,0.0,*58
###2023-12-09 12:41:15.940512$GNRMC,174115.10,A,4138.0614327,N,07032.3724146,W,0.41,25.05,091223,,,A*64
###2023-12-09 12:41:15.943398$GNGGA,174115.10,4138.0614327,N,07032.3724146,W,1,23,0.7,13.342,M,-29.744,M,0.0,*54
###2023-12-09 12:41:15.945261$GPGSA,A,3,03,04,16,26,28,29,31,32,,,,,1.2,0.7,1.0*31
###2023-12-09 12:41:15.946937$GLGSA,A,3,71,72,73,74,75,,,,,,,,1.2,0.7,1.0*2D
###2023-12-09 12:41:15.948543$GAGSA,A,3,04,19,21,27,,,,,,,,,1.2,0.7,1.0*2C
###2023-12-09 12:41:15.950188$GBGSA,A,3,14,24,25,26,33,,,,,,,,1.2,0.7,1.0*25
###2023-12-09 12:41:15.952527$GPGSV,2,1,08,03,38,274,47,04,24,311,41,16,39,208,49,26,69,207,49*75
###2023-12-09 12:41:15.954879$GPGSV,2,2,08,28,56,059,46,29,25,071,42,31,73,010,49,32,28,135,43*7B
###2023-12-09 12:41:15.957215$GLGSV,2,1,05,71,52,170,48,72,68,302,47,73,44,035,47,74,71,303,43*62
###2023-12-09 12:41:15.958686$GLGSV,2,2,05,75,25,244,45,,,,,,,,,,,,*56
###2023-12-09 12:41:15.961016$GAGSV,1,1,04,04,23,311,40,19,83,292,41,21,80,172,47,27,39,049,45*6E
###2023-12-09 12:41:15.963361$GBGSV,2,1,05,14,52,196,47,24,79,359,49,25,34,255,46,26,33,058,46*63
###2023-12-09 12:41:15.964818$GBGSV,2,2,05,33,62,248,48,,,,,,,,,,,,*58
###2023-12-09 12:41:15.966112$GNVTG,25.05,T,,M,0.41,N,0.76,K,A*15
###2023-12-09 12:41:15.967775$GNGST,174115.10,19.000,,,,0.078,0.069,0.160*5E
###2023-12-09 12:41:15.969076$GNZDA,174115.10,09,12,2023,00,00*77
###2023-12-09 12:41:15.969718$GNEBP,,,,,,M*13
###2023-12-09 12:41:16.139839$GNGGA,174115.30,4138.0614658,N,07032.3724195,W,1,23,0.7,13.333,M,-29.744,M,0.0,*53
###2023-12-09 12:41:16.341078$GNGGA,174115.50,4138.0614970,N,07032.3724256,W,1,23,0.7,13.321,M,-29.744,M,0.0,*5F
###2023-12-09 12:41:16.544125$GNGGA,174115.70,4138.0615016,N,07032.3724269,W,1,23,0.7,13.335,M,-29.744,M,0.0,*5C
###2023-12-09 12:41:16.740216$GNGGA,174115.90,4138.0614967,N,07032.3724254,W,1,23,0.7,13.353,M,-29.744,M,0.0,*52
###2023-12-09 12:41:16.943446$GNRMC,174116.10,A,4138.0615133,N,07032.3724315,W,0.56,25.05,091223,,,A*63
###2023-12-09 12:41:16.946301$GNGGA,174116.10,4138.0615133,N,07032.3724315,W,1,23,0.7,13.353,M,-29.744,M,0.0,*55
###2023-12-09 12:41:16.948249$GPGSA,A,3,03,04,16,26,28,29,31,32,,,,,1.2,0.7,1.0*31
###2023-12-09 12:41:16.949920$GLGSA,A,3,71,72,73,74,75,,,,,,,,1.2,0.7,1.0*2D
###2023-12-09 12:41:16.951522$GAGSA,A,3,04,19,21,27,,,,,,,,,1.2,0.7,1.0*2C
###2023-12-09 12:41:16.953171$GBGSA,A,3,14,24,25,26,33,,,,,,,,1.2,0.7,1.0*25
###2023-12-09 12:41:16.955512$GPGSV,2,1,08,03,38,274,46,04,24,311,41,16,39,208,48,26,69,207,49*75
###2023-12-09 12:41:16.957842$GPGSV,2,2,08,28,56,059,45,29,25,071,42,31,73,010,48,32,28,135,42*78
###2023-12-09 12:41:16.960178$GLGSV,2,1,05,71,52,170,48,72,68,302,47,73,44,035,47,74,71,303,43*62
###2023-12-09 12:41:16.961632$GLGSV,2,2,05,75,25,244,45,,,,,,,,,,,,*56
###2023-12-09 12:41:16.963965$GAGSV,1,1,04,04,23,311,41,19,83,292,41,21,80,172,46,27,39,049,45*6E
###2023-12-09 12:41:16.966294$GBGSV,2,1,05,14,52,196,47,24,79,359,49,25,34,255,45,26,33,058,45*63
###2023-12-09 12:41:16.967767$GBGSV,2,2,05,33,62,248,48,,,,,,,,,,,,*58
###2023-12-09 12:41:16.969052$GNVTG,25.05,T,,M,0.56,N,1.04,K,A*17
###2023-12-09 12:41:16.970704$GNGST,174116.10,19.000,,,,0.078,0.069,0.160*5D
###2023-12-09 12:41:16.971995$GNZDA,174116.10,09,12,2023,00,00*74
###2023-12-09 12:41:16.972633$GNEBP,,,,,,M*13
###2023-12-09 12:41:17.141602$GNGGA,174116.30,4138.0615450,N,07032.3724386,W,1,23,0.7,13.338,M,-29.744,M,0.0,*50
###2023-12-09 12:41:17.341770$GNGGA,174116.50,4138.0615664,N,07032.3724448,W,1,23,0.7,13.323,M,-29.744,M,0.0,*5C
###2023-12-09 12:41:17.541261$GNGGA,174116.70,4138.0615700,N,07032.3724448,W,1,23,0.7,13.337,M,-29.744,M,0.0,*58
###2023-12-09 12:41:17.740243$GNGGA,174116.90,4138.0615735,N,07032.3724440,W,1,23,0.7,13.352,M,-29.744,M,0.0,*5B
###2023-12-09 12:41:17.940521$GNRMC,174117.10,A,4138.0615892,N,07032.3724493,W,0.37,25.05,091223,,,A*6E
###2023-12-09 12:41:17.943390$GNGGA,174117.10,4138.0615892,N,07032.3724493,W,1,23,0.7,13.347,M,-29.744,M,0.0,*5A
###2023-12-09 12:41:17.945244$GPGSA,A,3,03,04,16,26,28,29,31,32,,,,,1.2,0.7,1.0*31
###2023-12-09 12:41:17.946926$GLGSA,A,3,71,72,73,74,75,,,,,,,,1.2,0.7,1.0*2D
###2023-12-09 12:41:17.948552$GAGSA,A,3,04,19,21,27,,,,,,,,,1.2,0.7,1.0*2C
###2023-12-09 12:41:17.950205$GBGSA,A,3,14,24,25,26,33,,,,,,,,1.2,0.7,1.0*25
###2023-12-09 12:41:17.952558$GPGSV,2,1,08,03,38,274,46,04,24,311,39,16,39,208,47,26,69,207,48*74
###2023-12-09 12:41:17.954911$GPGSV,2,2,08,28,56,059,44,29,25,071,40,31,73,010,47,32,28,135,42*74
###2023-12-09 12:41:17.957245$GLGSV,2,1,05,71,52,170,47,72,68,302,47,73,44,035,47,74,71,303,43*6D
###2023-12-09 12:41:17.958714$GLGSV,2,2,05,75,25,244,43,,,,,,,,,,,,*50
###2023-12-09 12:41:17.961045$GAGSV,1,1,04,04,23,311,40,19,83,292,40,21,80,172,46,27,39,049,44*6F
###2023-12-09 12:41:17.963400$GBGSV,2,1,05,14,52,196,46,24,79,359,49,25,34,255,46,26,33,058,43*67
###2023-12-09 12:41:17.964851$GBGSV,2,2,05,33,62,248,48,,,,,,,,,,,,*58
###2023-12-09 12:41:17.966132$GNVTG,25.05,T,,M,0.37,N,0.68,K,A*1B
###2023-12-09 12:41:17.967805$GNGST,174117.10,19.000,,,,0.078,0.069,0.160*5C
###2023-12-09 12:41:17.969096$GNZDA,174117.10,09,12,2023,00,00*75
###2023-12-09 12:41:17.969734$GNEBP,,,,,,M*13
###2023-12-09 12:41:18.143227$GNGGA,174117.30,4138.0616143,N,07032.3724552,W,1,23,0.7,13.336,M,-29.744,M,0.0,*54
###2023-12-09 12:41:18.339682$GNGGA,174117.50,4138.0616368,N,07032.3724596,W,1,23,0.7,13.338,M,-29.744,M,0.0,*5F
###2023-12-09 12:41:18.541107$GNGGA,174117.70,4138.0616445,N,07032.3724618,W,1,23,0.7,13.349,M,-29.744,M,0.0,*56
###2023-12-09 12:41:18.740187$GNGGA,174117.90,4138.0616472,N,07032.3724634,W,1,23,0.7,13.360,M,-29.744,M,0.0,*59
###2023-12-09 12:41:18.942399$GNRMC,174118.10,A,4138.0616620,N,07032.3724656,W,0.37,25.05,091223,,,A*6E
###2023-12-09 12:41:18.945265$GNGGA,174118.10,4138.0616620,N,07032.3724656,W,1,23,0.7,13.366,M,-29.744,M,0.0,*59
###2023-12-09 12:41:18.947169$GPGSA,A,3,03,04,16,26,28,29,31,32,,,,,1.2,0.7,1.0*31
###2023-12-09 12:41:18.948853$GLGSA,A,3,71,72,73,74,75,,,,,,,,1.2,0.7,1.0*2D
###2023-12-09 12:41:18.950444$GAGSA,A,3,04,19,21,27,,,,,,,,,1.2,0.7,1.0*2C
###2023-12-09 12:41:18.952116$GBGSA,A,3,14,24,25,26,33,,,,,,,,1.2,0.7,1.0*25
###2023-12-09 12:41:18.954445$GPGSV,2,1,08,03,38,274,46,04,24,311,40,16,39,208,46,26,69,207,48*7B
###2023-12-09 12:41:18.956790$GPGSV,2,2,08,28,56,059,45,29,25,071,42,31,73,010,48,32,28,135,43*79
###2023-12-09 12:41:18.959135$GLGSV,2,1,05,71,52,170,48,72,68,302,47,73,44,035,46,74,71,303,43*63
###2023-12-09 12:41:18.960591$GLGSV,2,2,05,75,25,244,44,,,,,,,,,,,,*57
###2023-12-09 12:41:18.962947$GAGSV,1,1,04,04,23,311,40,19,83,292,40,21,80,172,46,27,39,049,44*6F
###2023-12-09 12:41:18.965287$GBGSV,2,1,05,14,52,196,47,24,79,359,49,25,34,255,46,26,33,058,43*66
###2023-12-09 12:41:18.966765$GBGSV,2,2,05,33,62,248,48,,,,,,,,,,,,*58
###2023-12-09 12:41:18.968320$GNVTG,25.05,T,,M,0.37,N,0.68,K,A*1B
###2023-12-09 12:41:18.969988$GNGST,174118.10,18.000,,,,0.078,0.069,0.160*52
###2023-12-09 12:41:18.971300$GNZDA,174118.10,09,12,2023,00,00*7A
###2023-12-09 12:41:18.971947$GNEBP,,,,,,M*13
###2023-12-09 12:41:19.139905$GNGGA,174118.30,4138.0616850,N,07032.3724718,W,1,23,0.7,13.366,M,-29.744,M,0.0,*59
###2023-12-09 12:41:19.341480$GNGGA,174118.50,4138.0617032,N,07032.3724807,W,1,23,0.7,13.363,M,-29.744,M,0.0,*56
###2023-12-09 12:41:19.546049$GNGGA,174118.70,4138.0617156,N,07032.3724855,W,1,23,0.7,13.371,M,-29.744,M,0.0,*53
###2023-12-09 12:41:19.744685$GNGGA,174118.90,4138.0617232,N,07032.3724844,W,1,23,0.7,13.384,M,-29.744,M,0.0,*56
###2023-12-09 12:41:19.940552$GNRMC,174119.10,A,4138.0617297,N,07032.3724859,W,0.17,25.05,091223,,,A*65
