###2023-12-09 13:24:39.993225$GNGGA,182439.10,4138.0619128,N,07032.3748796,W,1,24,0.6,13.050,M,-29.744,M,0.0,*51
###2023-12-09 13:24:39.995060$GPGSA,A,3,03,04,16,26,28,29,31,,,,,,1.1,0.6,0.9*3A
###2023-12-09 13:24:39.996783$GLGSA,A,3,65,71,72,73,74,75,,,,,,,1.1,0.6,0.9*24
###2023-12-09 13:24:39.998373$GAGSA,A,3,04,19,21,27,,,,,,,,,1.1,0.6,0.9*26
###2023-12-09 13:24:40.000100$GBGSA,A,3,14,24,25,26,33,35,,,,,,,1.1,0.6,0.9*29
###2023-12-09 13:24:40.002468$GPGSV,2,1,07,03,30,251,43,04,42,310,44,16,61,218,46,26,89,050,48*79
###2023-12-09 13:24:40.004525$GPGSV,2,2,07,28,41,080,45,29,22,051,44,31,63,058,47,,,,*4E
###2023-12-09 13:24:40.006855$GLGSV,2,1,06,65,34,322,44,71,29,175,42,72,68,232,46,73,27,049,46*6B
###2023-12-09 13:24:40.008600$GLGSV,2,2,06,74,63,004,43,75,40,265,47,,,,,,,,*62
###2023-12-09 13:24:40.010939$GAGSV,1,1,04,04,36,311,44,19,76,185,40,21,80,051,46,27,26,049,43*69
###2023-12-09 13:24:40.013266$GBGSV,2,1,06,14,33,190,43,24,66,041,48,25,48,272,46,26,19,068,44*67
###2023-12-09 13:24:40.015015$GBGSV,2,2,06,33,49,220,48,35,16,060,44,,,,,,,,*6B
###2023-12-09 13:24:40.016332$GNVTG,144.14,T,,M,3.63,N,6.73,K,A*23
###2023-12-09 13:24:40.017973$GNGST,182439.10,18.000,,,,0.099,0.069,0.160*52
###2023-12-09 13:24:40.019274$GNZDA,182439.10,09,12,2023,00,00*75
###2023-12-09 13:24:40.019913$GNEBP,,,,,,M*13
###2023-12-09 13:24:40.183558$GNGGA,182439.30,4138.0617510,N,07032.3747243,W,1,24,0.6,13.045,M,-29.744,M,0.0,*54
###2023-12-09 13:24:40.384340$GNGGA,182439.50,4138.0615987,N,07032.3745582,W,1,24,0.6,13.043,M,-29.744,M,0.0,*5C
###2023-12-09 13:24:40.586730$GNGGA,182439.70,4138.0614456,N,07032.3743890,W,1,24,0.6,13.044,M,-29.744,M,0.0,*51
###2023-12-09 13:24:40.783734$GNGGA,182439.90,4138.0612865,N,07032.3742409,W,1,24,0.6,13.055,M,-29.744,M,0.0,*58
###2023-12-09 13:24:40.989126$GNRMC,182440.10,A,4138.0611198,N,07032.3740847,W,3.58,142.97,091223,,,A*51
###2023-12-09 13:24:40.992011$GNGGA,182440.10,4138.0611198,N,07032.3740847,W,1,24,0.6,13.057,M,-29.744,M,0.0,*50
###2023-12-09 13:24:40.993855$GPGSA,A,3,03,04,16,26,28,29,31,,,,,,1.1,0.6,0.9*3A
###2023-12-09 13:24:40.995601$GLGSA,A,3,65,71,72,73,74,75,,,,,,,1.1,0.6,0.9*24
###2023-12-09 13:24:40.997186$GAGSA,A,3,04,19,21,27,,,,,,,,,1.1,0.6,0.9*26
###2023-12-09 13:24:40.998909$GBGSA,A,3,14,24,25,26,33,35,,,,,,,1.1,0.6,0.9*29
###2023-12-09 13:24:41.001254$GPGSV,2,1,07,03,30,251,43,04,42,310,44,16,61,218,46,26,89,050,48*79
###2023-12-09 13:24:41.003315$GPGSV,2,2,07,28,41,080,44,29,22,051,44,31,63,058,47,,,,*4F
###2023-12-09 13:24:41.005658$GLGSV,2,1,06,65,34,322,46,71,29,175,42,72,68,232,46,73,27,049,44*6B
###2023-12-09 13:24:41.007417$GLGSV,2,2,06,74,63,004,43,75,40,265,48,,,,,,,,*6D
###2023-12-09 13:24:41.009742$GAGSV,1,1,04,04,36,311,45,19,76,185,40,21,80,051,46,27,26,049,42*69
###2023-12-09 13:24:41.012116$GBGSV,2,1,06,14,33,190,42,24,66,041,48,25,48,272,47,26,19,068,44*67
###2023-12-09 13:24:41.013863$GBGSV,2,2,06,33,49,220,48,35,16,060,44,,,,,,,,*6B
###2023-12-09 13:24:41.015201$GNVTG,142.97,T,,M,3.58,N,6.62,K,A*26
###2023-12-09 13:24:41.016854$GNGST,182440.10,18.000,,,,0.099,0.069,0.160*5C
###2023-12-09 13:24:41.018144$GNZDA,182440.10,09,12,2023,00,00*7B
###2023-12-09 13:24:41.018794$GNEBP,,,,,,M*13
###2023-12-09 13:24:41.183722$GNGGA,182440.30,4138.0609618,N,07032.3739314,W,1,24,0.6,13.048,M,-29.744,M,0.0,*59
###2023-12-09 13:24:41.383019$GNGGA,182440.50,4138.0607917,N,07032.3737958,W,1,24,0.6,13.069,M,-29.744,M,0.0,*5E
###2023-12-09 13:24:41.584149$GNGGA,182440.70,4138.0606225,N,07032.3736607,W,1,24,0.6,13.071,M,-29.744,M,0.0,*5A
###2023-12-09 13:24:41.785923$GNGGA,182440.90,4138.0604520,N,07032.3735228,W,1,24,0.6,13.059,M,-29.744,M,0.0,*54
###2023-12-09 13:24:41.988451$GNRMC,182441.10,A,4138.0602873,N,07032.3733820,W,3.38,149.86,091223,,,A*56
###2023-12-09 13:24:41.991317$GNGGA,182441.10,4138.0602873,N,07032.3733820,W,1,24,0.6,13.051,M,-29.744,M,0.0,*5C
###2023-12-09 13:24:41.993104$GPGSA,A,3,03,04,16,26,28,29,31,,,,,,1.1,0.6,0.9*3A
###2023-12-09 13:24:41.994825$GLGSA,A,3,65,71,72,73,74,75,,,,,,,1.1,0.6,0.9*24
###2023-12-09 13:24:41.996413$GAGSA,A,3,04,19,21,27,,,,,,,,,1.1,0.6,0.9*26
###2023-12-09 13:24:41.998123$GBGSA,A,3,14,24,25,26,33,35,,,,,,,1.1,0.6,0.9*29
###2023-12-09 13:24:42.000462$GPGSV,2,1,07,03,30,251,43,04,42,310,44,16,61,218,45,26,89,050,48*7A
###2023-12-09 13:24:42.002500$GPGSV,2,2,07,28,41,080,44,29,22,051,44,31,63,058,47,,,,*4F
###2023-12-09 13:24:42.004849$GLGSV,2,1,06,65,34,322,45,71,29,175,42,72,68,232,46,73,27,049,45*69
###2023-12-09 13:24:42.006642$GLGSV,2,2,06,74,63,004,43,75,40,265,48,,,,,,,,*6D
###2023-12-09 13:24:42.008974$GAGSV,1,1,04,04,36,311,43,19,76,185,40,21,80,051,46,27,26,049,42*6F
###2023-12-09 13:24:42.011319$GBGSV,2,1,06,14,33,190,42,24,66,041,48,25,48,272,46,26,19,068,45*67
###2023-12-09 13:24:42.013066$GBGSV,2,2,06,33,49,220,47,35,16,060,45,,,,,,,,*65
###2023-12-09 13:24:42.014386$GNVTG,149.86,T,,M,3.38,N,6.26,K,A*2B
###2023-12-09 13:24:42.016041$GNGST,182441.10,18.000,,,,0.099,0.069,0.160*5D
###2023-12-09 13:24:42.017338$GNZDA,182441.10,09,12,2023,00,00*7A
###2023-12-09 13:24:42.017979$GNEBP,,,,,,M*13
###2023-12-09 13:24:42.185509$GNGGA,182441.30,4138.0601156,N,07032.3732645,W,1,24,0.6,13.075,M,-29.744,M,0.0,*59
###2023-12-09 13:24:42.385965$GNGGA,182441.50,4138.0599348,N,07032.3731346,W,1,24,0.6,13.079,M,-29.744,M,0.0,*59
###2023-12-09 13:24:42.584722$GNGGA,182441.70,4138.0597705,N,07032.3729938,W,1,24,0.6,13.042,M,-29.744,M,0.0,*5A
###2023-12-09 13:24:42.785263$GNGGA,182441.90,4138.0596052,N,07032.3728553,W,1,24,0.6,13.064,M,-29.744,M,0.0,*54
###2023-12-09 13:24:42.989040$GNRMC,182442.10,A,4138.0594262,N,07032.3727265,W,3.62,151.38,091223,,,A*5E
###2023-12-09 13:24:42.991901$GNGGA,182442.10,4138.0594262,N,07032.3727265,W,1,24,0.6,13.083,M,-29.744,M,0.0,*58
###2023-12-09 13:24:42.993694$GPGSA,A,3,03,04,16,26,28,29,31,,,,,,1.1,0.6,0.9*3A
###2023-12-09 13:24:42.995437$GLGSA,A,3,65,71,72,73,74,75,,,,,,,1.1,0.6,0.9*24
###2023-12-09 13:24:42.997018$GAGSA,A,3,04,19,21,27,,,,,,,,,1.1,0.6,0.9*26
###2023-12-09 13:24:42.998741$GBGSA,A,3,14,24,25,26,33,35,,,,,,,1.1,0.6,0.9*29
###2023-12-09 13:24:43.001074$GPGSV,2,1,07,03,30,251,42,04,42,310,43,16,61,218,45,26,89,050,48*7C
###2023-12-09 13:24:43.003132$GPGSV,2,2,07,28,41,080,44,29,22,051,44,31,63,058,47,,,,*4F
###2023-12-09 13:24:43.005469$GLGSV,2,1,06,65,34,322,45,71,29,175,42,72,68,232,47,73,27,049,44*69
###2023-12-09 13:24:43.007232$GLGSV,2,2,06,74,63,004,43,75,40,265,48,,,,,,,,*6D
###2023-12-09 13:24:43.009568$GAGSV,1,1,04,04,36,311,43,19,76,185,40,21,80,051,46,27,26,049,41*6C
###2023-12-09 13:24:43.011918$GBGSV,2,1,06,14,33,190,42,24,66,041,49,25,48,272,47,26,19,068,45*67
###2023-12-09 13:24:43.013667$GBGSV,2,2,06,33,49,220,47,35,16,060,45,,,,,,,,*65
###2023-12-09 13:24:43.015004$GNVTG,151.38,T,,M,3.62,N,6.70,K,A*2B
###2023-12-09 13:24:43.016651$GNGST,182442.10,18.000,,,,0.099,0.068,0.160*5F
###2023-12-09 13:24:43.017942$GNZDA,182442.10,09,12,2023,00,00*79
###2023-12-09 13:24:43.018594$GNEBP,,,,,,M*13
###2023-12-09 13:24:43.184551$GNGGA,182442.30,4138.0592544,N,07032.3725862,W,1,24,0.6,13.058,M,-29.744,M,0.0,*56
###2023-12-09 13:24:43.384451$GNGGA,182442.50,4138.0590907,N,07032.3724413,W,1,24,0.6,13.063,M,-29.744,M,0.0,*5A
###2023-12-09 13:24:43.585639$GNGGA,182442.70,4138.0589212,N,07032.3722935,W,1,24,0.6,13.086,M,-29.744,M,0.0,*5B
###2023-12-09 13:24:43.785872$GNGGA,182442.90,4138.0587452,N,07032.3721518,W,1,24,0.6,13.071,M,-29.744,M,0.0,*51
###2023-12-09 13:24:43.989883$GNRMC,182443.10,A,4138.0585775,N,07032.3720143,W,3.50,147.57,091223,,,A*53
###2023-12-09 13:24:43.992797$GNGGA,182443.10,4138.0585775,N,07032.3720143,W,1,24,0.6,13.070,M,-29.744,M,0.0,*56
###2023-12-09 13:24:43.994610$GPGSA,A,3,03,04,16,26,28,29,31,,,,,,1.1,0.6,0.9*3A
###2023-12-09 13:24:43.996323$GLGSA,A,3,65,71,72,73,74,75,,,,,,,1.1,0.6,0.9*24
###2023-12-09 13:24:43.997897$GAGSA,A,3,04,19,21,27,,,,,,,,,1.1,0.6,0.9*26
###2023-12-09 13:24:43.999614$GBGSA,A,3,14,24,25,26,33,35,,,,,,,1.1,0.6,0.9*29
###2023-12-09 13:24:44.001939$GPGSV,2,1,07,03,30,251,42,04,42,310,44,16,61,218,46,26,89,050,48*78
###2023-12-09 13:24:44.003992$GPGSV,2,2,07,28,41,080,44,29,22,051,43,31,63,058,47,,,,*48
###2023-12-09 13:24:44.006592$GLGSV,2,1,06,65,34,322,45,71,27,175,42,72,68,232,46,73,27,049,44*66
###2023-12-09 13:24:44.008363$GLGSV,2,2,06,74,63,004,43,75,40,265,48,,,,,,,,*6D
###2023-12-09 13:24:44.010713$GAGSV,1,1,04,04,36,311,45,19,76,185,40,21,80,051,46,27,26,049,42*69
###2023-12-09 13:24:44.013053$GBGSV,2,1,06,14,33,190,42,24,66,041,48,25,48,272,47,26,19,068,44*67
###2023-12-09 13:24:44.014813$GBGSV,2,2,06,33,49,220,47,35,16,060,44,,,,,,,,*64
###2023-12-09 13:24:44.016140$GNVTG,147.57,T,,M,3.50,N,6.48,K,A*2F
###2023-12-09 13:24:44.017795$GNGST,182443.10,18.000,,,,0.099,0.068,0.160*5E
###2023-12-09 13:24:44.019103$GNZDA,182443.10,09,12,2023,00,00*78
###2023-12-09 13:24:44.019746$GNEBP,,,,,,M*13
