###2023-12-09 12:27:58.941861$GAGSV,1,1,02,21,75,179,40,27,44,050,44,,,,,,,,*60
###2023-12-09 12:27:58.944244$GBGSV,1,1,04,14,58,200,46,25,30,250,37,26,37,056,50,33,64,261,42*67
###2023-12-09 12:27:58.945399$GNVTG,,T,,M,0.06,N,0.11,K,A*3B
###2023-12-09 12:27:58.947086$GNGST,172758.10,32.000,,,,0.110,0.110,0.270*5C
###2023-12-09 12:27:58.948405$GNZDA,172758.10,09,12,2023,00,00*7E
###2023-12-09 12:27:58.949295$GNEBP,,,,,,M*13
###2023-12-09 12:27:59.121615$GNGGA,172758.30,4138.0391507,N,07032.4356209,W,1,17,0.8,7.397,M,-29.746,M,0.0,*6A
###2023-12-09 12:27:59.322030$GNGGA,172758.50,4138.0391506,N,07032.4356197,W,1,17,0.8,7.400,M,-29.746,M,0.0,*60
###2023-12-09 12:27:59.522202$GNGGA,172758.70,4138.0391502,N,07032.4356176,W,1,17,0.8,7.410,M,-29.746,M,0.0,*68
###2023-12-09 12:27:59.722120$GNGGA,172758.90,4138.0391495,N,07032.4356169,W,1,17,0.8,7.408,M,-29.746,M,0.0,*6E
###2023-12-09 12:27:59.924635$GNRMC,172759.10,A,4138.0391490,N,07032.4356145,W,0.02,,091223,,,A*41
###2023-12-09 12:27:59.927490$GNGGA,172759.10,4138.0391490,N,07032.4356145,W,1,17,0.8,7.419,M,-29.746,M,0.0,*6C
###2023-12-09 12:27:59.929308$GPGSA,A,3,03,16,26,28,29,31,32,,,,,,1.5,0.8,1.3*3E
###2023-12-09 12:27:59.930927$GLGSA,A,3,71,72,73,75,,,,,,,,,1.5,0.8,1.3*25
###2023-12-09 12:27:59.932397$GAGSA,A,3,21,27,,,,,,,,,,,1.5,0.8,1.3*2B
###2023-12-09 12:27:59.933997$GBGSA,A,3,14,25,26,33,,,,,,,,,1.5,0.8,1.3*28
###2023-12-09 12:27:59.936362$GPGSV,2,1,07,03,39,281,36,16,34,206,42,26,62,205,39,28,60,051,43*7A
###2023-12-09 12:27:59.938415$GPGSV,2,2,07,29,24,078,42,31,73,348,42,32,33,132,46,,,,*46
###2023-12-09 12:27:59.940777$GLGSV,1,1,04,71,60,168,47,72,63,315,42,73,51,031,48,75,19,238,39*6B
###2023-12-09 12:27:59.942543$GAGSV,1,1,02,21,75,179,41,27,44,050,46,,,,,,,,*63
###2023-12-09 12:27:59.944900$GBGSV,1,1,04,14,58,200,45,25,30,250,36,26,37,056,48,33,64,261,41*6F
###2023-12-09 12:27:59.946045$GNVTG,,T,,M,0.02,N,0.04,K,A*3B
###2023-12-09 12:27:59.947738$GNGST,172759.10,32.000,,,,0.110,0.110,0.280*52
###2023-12-09 12:27:59.949059$GNZDA,172759.10,09,12,2023,00,00*7F
###2023-12-09 12:27:59.949716$GNEBP,,,,,,M*13
###2023-12-09 12:28:00.123304$GNGGA,172759.30,4138.0391460,N,07032.4356124,W,1,17,0.8,7.430,M,-29.746,M,0.0,*6D
###2023-12-09 12:28:00.322644$GNGGA,172759.50,4138.0391454,N,07032.4356140,W,1,17,0.8,7.435,M,-29.746,M,0.0,*6B
###2023-12-09 12:28:00.521218$GNGGA,172759.70,4138.0391432,N,07032.4356128,W,1,17,0.8,7.446,M,-29.746,M,0.0,*63
###2023-12-09 12:28:00.720900$GNGGA,172759.90,4138.0391424,N,07032.4356121,W,1,17,0.8,7.452,M,-29.746,M,0.0,*66
###2023-12-09 12:28:00.923025$GNRMC,172800.10,A,4138.0391401,N,07032.4356110,W,0.06,,091223,,,A*4E
###2023-12-09 12:28:00.925872$GNGGA,172800.10,4138.0391401,N,07032.4356110,W,1,18,0.8,7.459,M,-29.746,M,0.0,*6C
###2023-12-09 12:28:00.927702$GPGSA,A,3,03,16,26,28,29,31,32,,,,,,1.4,0.8,1.2*3E
###2023-12-09 12:28:00.929302$GLGSA,A,3,71,72,73,75,,,,,,,,,1.4,0.8,1.2*25
###2023-12-09 12:28:00.930789$GAGSA,A,3,21,27,,,,,,,,,,,1.4,0.8,1.2*2B
###2023-12-09 12:28:00.932396$GBGSA,A,3,14,25,26,33,,,,,,,,,1.4,0.8,1.2*28
###2023-12-09 12:28:00.934758$GPGSV,2,1,07,03,39,281,38,16,34,206,42,26,62,205,41,28,60,051,44*7C
###2023-12-09 12:28:00.936811$GPGSV,2,2,07,29,24,078,42,31,73,348,43,32,33,132,46,,,,*47
###2023-12-09 12:28:00.939171$GLGSV,1,1,04,71,60,168,47,72,63,315,42,73,51,031,48,75,19,238,39*6B
###2023-12-09 12:28:00.940940$GAGSV,1,1,02,21,75,179,41,27,44,050,45,,,,,,,,*60
###2023-12-09 12:28:00.943299$GBGSV,1,1,04,14,58,200,45,25,30,250,37,26,37,056,48,33,64,261,41*6E
###2023-12-09 12:28:00.944452$GNVTG,,T,,M,0.06,N,0.11,K,A*3B
###2023-12-09 12:28:00.946118$GNGST,172800.10,31.000,,,,0.110,0.120,0.290*50
###2023-12-09 12:28:00.947454$GNZDA,172800.10,09,12,2023,00,00*7C
###2023-12-09 12:28:00.948121$GNEBP,,,,,,M*13
###2023-12-09 12:28:01.122055$GNGGA,172800.30,4138.0391386,N,07032.4356102,W,1,18,0.8,7.470,M,-29.746,M,0.0,*6E
###2023-12-09 12:28:01.322044$GNGGA,172800.50,4138.0391373,N,07032.4356083,W,1,18,0.8,7.481,M,-29.746,M,0.0,*64
###2023-12-09 12:28:01.523297$GNGGA,172800.70,4138.0391354,N,07032.4356080,W,1,18,0.8,7.495,M,-29.746,M,0.0,*65
###2023-12-09 12:28:01.724102$GNGGA,172800.90,4138.0391331,N,07032.4356069,W,1,18,0.8,7.510,M,-29.746,M,0.0,*63
###2023-12-09 12:28:01.921565$GNRMC,172801.10,A,4138.0391325,N,07032.4356068,W,0.02,,091223,,,A*44
###2023-12-09 12:28:01.924451$GNGGA,172801.10,4138.0391325,N,07032.4356068,W,1,18,0.8,7.515,M,-29.746,M,0.0,*6B
###2023-12-09 12:28:01.926272$GPGSA,A,3,03,16,26,28,29,31,32,,,,,,1.4,0.8,1.2*3E
###2023-12-09 12:28:01.927898$GLGSA,A,3,71,72,73,75,,,,,,,,,1.4,0.8,1.2*25
###2023-12-09 12:28:01.929367$GAGSA,A,3,21,27,,,,,,,,,,,1.4,0.8,1.2*2B
###2023-12-09 12:28:01.930977$GBGSA,A,3,14,25,26,33,,,,,,,,,1.4,0.8,1.2*28
###2023-12-09 12:28:01.933322$GPGSV,2,1,07,03,39,281,37,16,34,206,42,26,62,205,41,28,60,051,44*73
###2023-12-09 12:28:01.935389$GPGSV,2,2,07,29,24,078,42,31,73,348,43,32,33,132,46,,,,*47
###2023-12-09 12:28:01.937738$GLGSV,1,1,04,71,60,168,47,72,63,315,43,73,51,031,48,75,19,238,41*65
###2023-12-09 12:28:01.939590$GAGSV,1,1,02,21,75,179,41,27,44,050,45,,,,,,,,*60
###2023-12-09 12:28:01.941948$GBGSV,1,1,04,14,58,200,45,25,30,250,37,26,37,056,48,33,64,261,41*6E
###2023-12-09 12:28:01.943123$GNVTG,,T,,M,0.02,N,0.04,K,A*3B
###2023-12-09 12:28:01.944791$GNGST,172801.10,31.000,,,,0.110,0.120,0.290*51
###2023-12-09 12:28:01.946093$GNZDA,172801.10,09,12,2023,00,00*7D
###2023-12-09 12:28:01.946774$GNEBP,,,,,,M*13
###2023-12-09 12:28:02.122040$GNGGA,172801.30,4138.0391332,N,07032.4356074,W,1,18,0.8,7.522,M,-29.746,M,0.0,*66
###2023-12-09 12:28:02.321212$GNGGA,172801.50,4138.0391338,N,07032.4356091,W,1,18,0.8,7.522,M,-29.746,M,0.0,*61
###2023-12-09 12:28:02.522068$GNGGA,172801.70,4138.0391334,N,07032.4356102,W,1,18,0.8,7.523,M,-29.746,M,0.0,*65
###2023-12-09 12:28:02.720145$GNGGA,172801.90,4138.0391313,N,07032.4356081,W,1,19,0.7,7.536,M,-29.746,M,0.0,*6E
###2023-12-09 12:28:02.924682$GNRMC,172802.10,A,4138.0391307,N,07032.4356071,W,0.00,,091223,,,A*4D
###2023-12-09 12:28:02.927553$GNGGA,172802.10,4138.0391307,N,07032.4356071,W,1,19,0.7,7.541,M,-29.746,M,0.0,*6F
###2023-12-09 12:28:02.929364$GPGSA,A,3,03,16,26,28,29,31,32,,,,,,1.3,0.7,1.1*35
###2023-12-09 12:28:02.930988$GLGSA,A,3,71,72,73,75,,,,,,,,,1.3,0.7,1.1*2E
###2023-12-09 12:28:02.932527$GAGSA,A,3,04,21,27,,,,,,,,,,1.3,0.7,1.1*24
###2023-12-09 12:28:02.934126$GBGSA,A,3,14,25,26,33,,,,,,,,,1.3,0.7,1.1*23
###2023-12-09 12:28:02.936489$GPGSV,2,1,07,03,39,281,37,16,34,206,42,26,62,205,41,28,60,051,44*73
###2023-12-09 12:28:02.938544$GPGSV,2,2,07,29,24,078,42,31,73,348,43,32,33,132,46,,,,*47
###2023-12-09 12:28:02.940902$GLGSV,1,1,04,71,60,168,47,72,63,315,43,73,51,031,48,75,19,238,42*66
###2023-12-09 12:28:02.942977$GAGSV,1,1,03,04,19,310,35,21,75,179,41,27,44,050,46,,,,*5A
###2023-12-09 12:28:02.945322$GBGSV,1,1,04,14,58,200,45,25,30,250,36,26,37,056,48,33,64,261,41*6F
###2023-12-09 12:28:02.946488$GNVTG,,T,,M,0.00,N,0.00,K,A*3D
###2023-12-09 12:28:02.948218$GNGST,172802.10,31.000,,,,0.110,0.120,0.290*52
###2023-12-09 12:28:02.949551$GNZDA,172802.10,09,12,2023,00,00*7E
###2023-12-09 12:28:02.950205$GNEBP,,,,,,M*13
###2023-12-09 12:28:03.123062$GNGGA,172802.30,4138.0391312,N,07032.4356056,W,1,19,0.7,7.541,M,-29.746,M,0.0,*6C
###2023-12-09 12:28:03.322805$GNGGA,172802.50,4138.0391314,N,07032.4356045,W,1,18,0.7,7.546,M,-29.746,M,0.0,*68
###2023-12-09 12:28:03.522101$GNGGA,172802.70,4138.0391327,N,07032.4356051,W,1,18,0.7,7.543,M,-29.746,M,0.0,*6A
###2023-12-09 12:28:03.720061$GNGGA,172802.90,4138.0391341,N,07032.4356060,W,1,18,0.7,7.545,M,-29.746,M,0.0,*60
###2023-12-09 12:28:03.922195$GNRMC,172803.10,A,4138.0391436,N,07032.4356235,W,0.02,,091223,,,A*49
###2023-12-09 12:28:03.925243$GNGGA,172803.10,4138.0391436,N,07032.4356235,W,1,18,0.7,7.565,M,-29.746,M,0.0,*6E
###2023-12-09 12:28:03.927227$GPGSA,A,3,03,16,26,28,29,31,32,,,,,,1.4,0.7,1.1*32
###2023-12-09 12:28:03.928986$GLGSA,A,3,71,72,73,75,,,,,,,,,1.4,0.7,1.1*29
###2023-12-09 12:28:03.930688$GAGSA,A,3,04,21,27,,,,,,,,,,1.4,0.7,1.1*23
###2023-12-09 12:28:03.932432$GBGSA,A,3,14,25,26,33,,,,,,,,,1.4,0.7,1.1*24
###2023-12-09 12:28:03.934951$GPGSV,2,1,07,03,39,281,37,16,34,206,42,26,62,205,41,28,60,051,43*74
###2023-12-09 12:28:03.937440$GPGSV,2,2,07,29,24,078,42,31,73,348,43,32,33,132,46,,,,*47
###2023-12-09 12:28:03.939970$GLGSV,1,1,04,71,60,168,47,72,63,315,43,73,51,031,48,75,19,238,42*66
###2023-12-09 12:28:03.942192$GAGSV,1,1,03,04,19,310,35,21,75,179,41,27,44,050,46,,,,*5A
###2023-12-09 12:28:03.944705$GBGSV,1,1,04,14,58,200,45,25,30,250,36,26,37,056,48,33,64,261,41*6F
###2023-12-09 12:28:03.946007$GNVTG,,T,,M,0.02,N,0.04,K,A*3B
###2023-12-09 12:28:03.947887$GNGST,172803.10,31.000,,,,0.110,0.120,0.290*53
###2023-12-09 12:28:03.949363$GNZDA,172803.10,09,12,2023,00,00*7F
