###2023-12-09 12:48:27.973846$GNVTG,68.63,T,,M,2.53,N,4.68,K,A*16
###2023-12-09 12:48:27.975543$GNGST,174827.10,18.000,,,,0.077,0.070,0.160*50
###2023-12-09 12:48:27.976848$GNZDA,174827.10,09,12,2023,00,00*7F
###2023-12-09 12:48:27.977489$GNEBP,,,,,,M*13
###2023-12-09 12:48:28.146916$GNGGA,174827.30,4138.0566153,N,07032.4015514,W,1,24,0.6,13.541,M,-29.744,M,0.0,*5B
###2023-12-09 12:48:28.347283$GNGGA,174827.50,4138.0566466,N,07032.4013522,W,1,24,0.6,13.542,M,-29.744,M,0.0,*5E
###2023-12-09 12:48:28.548100$GNGGA,174827.70,4138.0566715,N,07032.4011532,W,1,24,0.6,13.534,M,-29.744,M,0.0,*59
###2023-12-09 12:48:28.746301$GNGGA,174827.90,4138.0567000,N,07032.4009476,W,1,24,0.6,13.526,M,-29.744,M,0.0,*5E
###2023-12-09 12:48:28.946826$GNRMC,174828.10,A,4138.0567180,N,07032.4007438,W,2.76,83.36,091223,,,A*6C
###2023-12-09 12:48:28.949700$GNGGA,174828.10,4138.0567180,N,07032.4007438,W,1,24,0.6,13.519,M,-29.744,M,0.0,*58
###2023-12-09 12:48:28.951588$GPGSA,A,3,03,04,16,26,28,29,31,32,,,,,1.1,0.6,0.9*3B
###2023-12-09 12:48:28.953321$GLGSA,A,3,65,71,72,73,74,75,,,,,,,1.1,0.6,0.9*24
###2023-12-09 12:48:28.954929$GAGSA,A,3,04,19,21,27,,,,,,,,,1.1,0.6,0.9*26
###2023-12-09 12:48:28.956588$GBGSA,A,3,14,24,25,26,33,,,,,,,,1.1,0.6,0.9*2F
###2023-12-09 12:48:28.958940$GPGSV,2,1,08,03,37,269,44,04,27,311,40,16,43,209,45,26,73,208,47*7D
###2023-12-09 12:48:28.961291$GPGSV,2,2,08,28,53,064,44,29,26,067,41,31,71,021,47,32,24,137,40*76
###2023-12-09 12:48:28.963645$GLGSV,2,1,06,65,17,329,43,71,49,171,45,72,70,294,46,73,42,037,46*6C
###2023-12-09 12:48:28.965394$GLGSV,2,2,06,74,71,314,42,75,27,246,42,,,,,,,,*67
###2023-12-09 12:48:28.967743$GAGSV,1,1,04,04,25,312,40,19,85,269,40,21,83,162,46,27,37,048,44*65
###2023-12-09 12:48:28.970081$GBGSV,2,1,05,14,50,195,45,24,78,008,48,25,36,257,45,26,31,060,42*69
###2023-12-09 12:48:28.971557$GBGSV,2,2,05,33,61,243,47,,,,,,,,,,,,*5F
###2023-12-09 12:48:28.972845$GNVTG,83.36,T,,M,2.76,N,5.11,K,A*1B
###2023-12-09 12:48:28.974486$GNGST,174828.10,18.000,,,,0.077,0.070,0.160*5F
###2023-12-09 12:48:28.975803$GNZDA,174828.10,09,12,2023,00,00*70
###2023-12-09 12:48:28.976446$GNEBP,,,,,,M*13
###2023-12-09 12:48:29.147269$GNGGA,174828.30,4138.0567203,N,07032.4005263,W,1,24,0.6,13.523,M,-29.744,M,0.0,*51
###2023-12-09 12:48:29.347949$GNGGA,174828.50,4138.0567102,N,07032.4003116,W,1,24,0.6,13.517,M,-29.744,M,0.0,*55
###2023-12-09 12:48:29.547997$GNGGA,174828.70,4138.0567157,N,07032.4001061,W,1,24,0.6,13.523,M,-29.744,M,0.0,*53
###2023-12-09 12:48:29.747025$GNGGA,174828.90,4138.0567273,N,07032.3998792,W,1,24,0.6,13.526,M,-29.744,M,0.0,*58
###2023-12-09 12:48:29.947152$GNRMC,174829.10,A,4138.0567215,N,07032.3996572,W,2.95,93.86,091223,,,A*6C
###2023-12-09 12:48:29.950015$GNGGA,174829.10,4138.0567215,N,07032.3996572,W,1,24,0.6,13.502,M,-29.744,M,0.0,*55
###2023-12-09 12:48:29.951895$GPGSA,A,3,03,04,16,26,28,29,31,32,,,,,1.1,0.6,0.9*3B
###2023-12-09 12:48:29.953613$GLGSA,A,3,65,71,72,73,74,75,,,,,,,1.1,0.6,0.9*24
###2023-12-09 12:48:29.955215$GAGSA,A,3,04,19,21,27,,,,,,,,,1.1,0.6,0.9*26
###2023-12-09 12:48:29.956866$GBGSA,A,3,14,24,25,26,33,,,,,,,,1.1,0.6,0.9*2F
###2023-12-09 12:48:29.959213$GPGSV,2,1,08,03,37,269,45,04,27,311,41,16,43,209,46,26,73,208,48*71
###2023-12-09 12:48:29.961548$GPGSV,2,2,08,28,53,064,45,29,26,067,41,31,71,021,47,32,24,137,41*76
###2023-12-09 12:48:29.963905$GLGSV,2,1,06,65,17,329,43,71,49,171,46,72,70,294,46,73,42,037,45*6C
###2023-12-09 12:48:29.965661$GLGSV,2,2,06,74,71,314,42,75,27,246,43,,,,,,,,*66
###2023-12-09 12:48:29.968012$GAGSV,1,1,04,04,25,312,40,19,85,269,40,21,83,162,46,27,37,048,44*65
###2023-12-09 12:48:29.970363$GBGSV,2,1,05,14,50,195,46,24,78,008,48,25,36,257,46,26,31,060,42*69
###2023-12-09 12:48:29.971835$GBGSV,2,2,05,33,61,243,46,,,,,,,,,,,,*5E
###2023-12-09 12:48:29.973137$GNVTG,93.86,T,,M,2.95,N,5.47,K,A*1F
###2023-12-09 12:48:29.974811$GNGST,174829.10,18.000,,,,0.078,0.070,0.160*51
###2023-12-09 12:48:29.976110$GNZDA,174829.10,09,12,2023,00,00*71
###2023-12-09 12:48:29.976750$GNEBP,,,,,,M*13
###2023-12-09 12:48:30.147816$GNGGA,174829.30,4138.0567162,N,07032.3994386,W,1,24,0.6,13.513,M,-29.744,M,0.0,*5B
###2023-12-09 12:48:30.347470$GNGGA,174829.50,4138.0567156,N,07032.3992054,W,1,24,0.6,13.522,M,-29.744,M,0.0,*52
###2023-12-09 12:48:30.546226$GNGGA,174829.70,4138.0567261,N,07032.3989719,W,1,24,0.6,13.497,M,-29.744,M,0.0,*5C
###2023-12-09 12:48:30.747296$GNGGA,174829.90,4138.0567313,N,07032.3987472,W,1,24,0.6,13.486,M,-29.744,M,0.0,*56
###2023-12-09 12:48:30.947030$GNRMC,174830.10,A,4138.0567498,N,07032.3985117,W,3.38,84.97,091223,,,A*62
###2023-12-09 12:48:30.949892$GNGGA,174830.10,4138.0567498,N,07032.3985117,W,1,24,0.6,13.519,M,-29.744,M,0.0,*51
###2023-12-09 12:48:30.951769$GPGSA,A,3,03,04,16,26,28,29,31,32,,,,,1.1,0.6,0.9*3B
###2023-12-09 12:48:30.953485$GLGSA,A,3,65,71,72,73,74,75,,,,,,,1.1,0.6,0.9*24
###2023-12-09 12:48:30.955084$GAGSA,A,3,04,19,21,27,,,,,,,,,1.1,0.6,0.9*26
###2023-12-09 12:48:30.956737$GBGSA,A,3,14,24,25,26,33,,,,,,,,1.1,0.6,0.9*2F
###2023-12-09 12:48:30.959076$GPGSV,2,1,08,03,37,269,44,04,27,311,40,16,43,209,46,26,73,208,48*71
###2023-12-09 12:48:30.961403$GPGSV,2,2,08,28,53,064,44,29,26,067,42,31,71,021,47,32,24,137,41*74
###2023-12-09 12:48:30.963747$GLGSV,2,1,06,65,17,329,42,71,49,171,46,72,70,294,47,73,42,037,46*6F
###2023-12-09 12:48:30.965495$GLGSV,2,2,06,74,71,314,42,75,27,246,43,,,,,,,,*66
###2023-12-09 12:48:30.967864$GAGSV,1,1,04,04,25,312,39,19,85,269,41,21,83,162,46,27,37,048,42*6C
###2023-12-09 12:48:30.970190$GBGSV,2,1,05,14,50,195,47,24,78,008,49,25,36,257,46,26,31,060,42*69
###2023-12-09 12:48:30.971657$GBGSV,2,2,05,33,61,243,48,,,,,,,,,,,,*50
###2023-12-09 12:48:30.972949$GNVTG,84.97,T,,M,3.38,N,6.26,K,A*1B
###2023-12-09 12:48:30.974600$GNGST,174830.10,18.000,,,,0.078,0.070,0.160*59
###2023-12-09 12:48:30.975893$GNZDA,174830.10,09,12,2023,00,00*79
###2023-12-09 12:48:30.976531$GNEBP,,,,,,M*13
###2023-12-09 12:48:31.146394$GNGGA,174830.30,4138.0567602,N,07032.3982665,W,1,24,0.6,13.492,M,-29.744,M,0.0,*55
###2023-12-09 12:48:31.347263$GNGGA,174830.50,4138.0567778,N,07032.3980395,W,1,24,0.6,13.480,M,-29.744,M,0.0,*54
###2023-12-09 12:48:31.547360$GNGGA,174830.70,4138.0568116,N,07032.3977979,W,1,24,0.6,13.489,M,-29.744,M,0.0,*5E
###2023-12-09 12:48:31.746015$GNGGA,174830.90,4138.0568340,N,07032.3975657,W,1,24,0.6,13.473,M,-29.744,M,0.0,*55
###2023-12-09 12:48:31.946906$GNRMC,174831.10,A,4138.0568641,N,07032.3973417,W,3.29,78.27,091223,,,A*6E
###2023-12-09 12:48:31.949755$GNGGA,174831.10,4138.0568641,N,07032.3973417,W,1,24,0.6,13.488,M,-29.744,M,0.0,*5C
###2023-12-09 12:48:31.951624$GPGSA,A,3,03,04,16,26,28,29,31,32,,,,,1.1,0.6,0.9*3B
###2023-12-09 12:48:31.953338$GLGSA,A,3,65,71,72,73,74,75,,,,,,,1.1,0.6,0.9*24
###2023-12-09 12:48:31.954935$GAGSA,A,3,04,19,21,27,,,,,,,,,1.1,0.6,0.9*26
###2023-12-09 12:48:31.956577$GBGSA,A,3,14,24,25,26,33,,,,,,,,1.1,0.6,0.9*2F
###2023-12-09 12:48:31.958918$GPGSV,2,1,08,03,37,269,45,04,27,311,41,16,43,209,46,26,73,208,49*70
###2023-12-09 12:48:31.961258$GPGSV,2,2,08,28,53,064,44,29,26,067,42,31,71,021,47,32,24,137,42*77
###2023-12-09 12:48:31.963594$GLGSV,2,1,06,65,17,329,41,71,49,171,48,72,70,294,47,73,42,037,46*62
###2023-12-09 12:48:31.965344$GLGSV,2,2,06,74,71,314,42,75,27,246,42,,,,,,,,*67
###2023-12-09 12:48:31.967676$GAGSV,1,1,04,04,25,312,41,19,85,269,41,21,83,162,46,27,37,048,42*63
###2023-12-09 12:48:31.970009$GBGSV,2,1,05,14,50,195,47,24,78,008,49,25,36,257,47,26,31,060,43*69
###2023-12-09 12:48:31.971470$GBGSV,2,2,05,33,61,243,49,,,,,,,,,,,,*51
###2023-12-09 12:48:31.972762$GNVTG,78.27,T,,M,3.29,N,6.08,K,A*1F
###2023-12-09 12:48:31.974406$GNGST,174831.10,18.000,,,,0.078,0.070,0.160*58
###2023-12-09 12:48:31.975710$GNZDA,174831.10,09,12,2023,00,00*78
###2023-12-09 12:48:31.976352$GNEBP,,,,,,M*13
###2023-12-09 12:48:32.147246$GNGGA,174831.30,4138.0568932,N,07032.3971024,W,1,24,0.6,13.480,M,-29.744,M,0.0,*5B
###2023-12-09 12:48:32.346153$GNGGA,174831.50,4138.0569275,N,07032.3968914,W,1,24,0.6,13.466,M,-29.744,M,0.0,*5E
###2023-12-09 12:48:32.547966$GNGGA,174831.70,4138.0569664,N,07032.3966806,W,1,24,0.6,13.488,M,-29.744,M,0.0,*54
###2023-12-09 12:48:32.747080$GNGGA,174831.90,4138.0569914,N,07032.3964709,W,1,24,0.6,13.479,M,-29.744,M,0.0,*5E
###2023-12-09 12:48:32.955058$GNRMC,174832.10,A,4138.0570184,N,07032.3962884,W,2.45,75.69,091223,,,A*60
###2023-12-09 12:48:32.957921$GNGGA,174832.10,4138.0570184,N,07032.3962884,W,1,24,0.6,13.468,M,-29.744,M,0.0,*50
###2023-12-09 12:48:32.959800$GPGSA,A,3,03,04,16,26,28,29,31,32,,,,,1.1,0.6,0.9*3B
###2023-12-09 12:48:32.961517$GLGSA,A,3,65,71,72,73,74,75,,,,,,,1.1,0.6,0.9*24
###2023-12-09 12:48:32.963118$GAGSA,A,3,04,19,21,27,,,,,,,,,1.1,0.6,0.9*26
###2023-12-09 12:48:32.964767$GBGSA,A,3,14,24,25,26,33,,,,,,,,1.1,0.6,0.9*2F
###2023-12-09 12:48:32.967147$GPGSV,2,1,08,03,37,269,46,04,27,311,41,16,43,209,47,26,73,208,49*72
###2023-12-09 12:48:32.969479$GPGSV,2,2,08,28,53,064,44,29,26,067,41,31,71,021,47,32,24,137,42*74
