###2023-12-09 13:20:27.025082$GNGST,182026.10,18.000,,,,0.100,0.070,0.160*51
###2023-12-09 13:20:27.026390$GNZDA,182026.10,09,12,2023,00,00*7F
###2023-12-09 13:20:27.027058$GNEBP,,,,,,M*13
###2023-12-09 13:20:27.189704$GNGGA,182026.30,4138.0475548,N,07032.3275052,W,1,24,0.7,12.837,M,-29.744,M,0.0,*5E
###2023-12-09 13:20:27.383549$GNGGA,182026.50,4138.0473660,N,07032.3275111,W,1,24,0.7,12.847,M,-29.744,M,0.0,*56
###2023-12-09 13:20:27.584023$GNGGA,182026.70,4138.0471782,N,07032.3275328,W,1,24,0.7,12.862,M,-29.744,M,0.0,*54
###2023-12-09 13:20:27.785503$GNGGA,182026.90,4138.0469883,N,07032.3275198,W,1,24,0.7,12.845,M,-29.744,M,0.0,*51
###2023-12-09 13:20:27.986893$GNRMC,182027.10,A,4138.0468071,N,07032.3274887,W,3.21,176.17,091223,,,A*51
###2023-12-09 13:20:27.989757$GNGGA,182027.10,4138.0468071,N,07032.3274887,W,1,24,0.7,12.822,M,-29.744,M,0.0,*5B
###2023-12-09 13:20:27.991568$GPGSA,A,3,03,04,16,26,28,29,31,,,,,,1.1,0.7,0.9*3B
###2023-12-09 13:20:27.993292$GLGSA,A,3,65,71,72,73,74,75,,,,,,,1.1,0.7,0.9*25
###2023-12-09 13:20:27.994894$GAGSA,A,3,04,19,21,27,,,,,,,,,1.1,0.7,0.9*27
###2023-12-09 13:20:27.996612$GBGSA,A,3,14,24,25,26,33,35,,,,,,,1.1,0.7,0.9*28
###2023-12-09 13:20:27.998964$GPGSV,2,1,07,03,31,253,42,04,40,310,45,16,59,217,46,26,89,196,49*76
###2023-12-09 13:20:28.001014$GPGSV,2,2,07,28,43,079,45,29,23,053,44,31,64,055,47,,,,*43
###2023-12-09 13:20:28.003360$GLGSV,2,1,06,65,32,324,43,71,31,174,42,72,69,237,45,73,28,047,44*60
###2023-12-09 13:20:28.005016$GLGSV,2,2,06,74,65,,43,75,38,262,47,,,,,,,,*58
###2023-12-09 13:20:28.007363$GAGSV,1,1,04,04,35,311,42,19,78,187,40,21,82,056,47,27,27,049,42*64
###2023-12-09 13:20:28.009707$GBGSV,2,1,06,14,35,191,42,24,68,038,49,25,46,269,47,26,20,067,44*60
###2023-12-09 13:20:28.011473$GBGSV,2,2,06,33,51,223,45,35,16,062,44,,,,,,,,*6E
###2023-12-09 13:20:28.012805$GNVTG,176.17,T,,M,3.21,N,5.94,K,A*2D
###2023-12-09 13:20:28.014458$GNGST,182027.10,18.000,,,,0.100,0.070,0.160*50
###2023-12-09 13:20:28.015772$GNZDA,182027.10,09,12,2023,00,00*7E
###2023-12-09 13:20:28.016416$GNEBP,,,,,,M*13
###2023-12-09 13:20:28.184924$GNGGA,182027.30,4138.0466159,N,07032.3274998,W,1,24,0.7,12.854,M,-29.744,M,0.0,*52
###2023-12-09 13:20:28.383621$GNGGA,182027.50,4138.0464230,N,07032.3275081,W,1,24,0.7,12.849,M,-29.744,M,0.0,*56
###2023-12-09 13:20:28.585379$GNGGA,182027.70,4138.0462407,N,07032.3274922,W,1,24,0.7,12.836,M,-29.744,M,0.0,*59
###2023-12-09 13:20:28.784454$GNGGA,182027.90,4138.0460509,N,07032.3274719,W,1,24,0.7,12.843,M,-29.744,M,0.0,*5E
###2023-12-09 13:20:28.989808$GNRMC,182028.10,A,4138.0458612,N,07032.3274720,W,3.23,185.43,091223,,,A*53
###2023-12-09 13:20:28.992697$GNGGA,182028.10,4138.0458612,N,07032.3274720,W,1,24,0.7,12.813,M,-29.744,M,0.0,*54
###2023-12-09 13:20:28.994493$GPGSA,A,3,03,04,16,26,28,29,31,,,,,,1.1,0.7,0.9*3B
###2023-12-09 13:20:28.996217$GLGSA,A,3,65,71,72,73,74,75,,,,,,,1.1,0.7,0.9*25
###2023-12-09 13:20:28.997799$GAGSA,A,3,04,19,21,27,,,,,,,,,1.1,0.7,0.9*27
###2023-12-09 13:20:28.999527$GBGSA,A,3,14,24,25,26,33,35,,,,,,,1.1,0.7,0.9*28
###2023-12-09 13:20:29.001853$GPGSV,2,1,07,03,31,253,40,04,40,310,45,16,59,217,46,26,89,196,48*75
###2023-12-09 13:20:29.003907$GPGSV,2,2,07,28,43,079,45,29,23,053,44,31,64,055,48,,,,*4C
###2023-12-09 13:20:29.006243$GLGSV,2,1,06,65,32,324,43,71,31,174,41,72,69,237,44,73,28,047,42*64
###2023-12-09 13:20:29.007906$GLGSV,2,2,06,74,65,,42,75,38,262,45,,,,,,,,*5B
###2023-12-09 13:20:29.010228$GAGSV,1,1,04,04,35,311,43,19,78,187,40,21,82,056,47,27,27,049,42*65
###2023-12-09 13:20:29.012575$GBGSV,2,1,06,14,35,191,42,24,67,039,49,25,46,269,47,26,20,067,44*6E
###2023-12-09 13:20:29.014320$GBGSV,2,2,06,33,51,223,47,35,16,062,45,,,,,,,,*6D
###2023-12-09 13:20:29.015657$GNVTG,185.43,T,,M,3.23,N,5.98,K,A*2E
###2023-12-09 13:20:29.017307$GNGST,182028.10,18.000,,,,0.100,0.069,0.160*57
###2023-12-09 13:20:29.018605$GNZDA,182028.10,09,12,2023,00,00*71
###2023-12-09 13:20:29.019246$GNEBP,,,,,,M*13
###2023-12-09 13:20:29.183930$GNGGA,182028.30,4138.0456804,N,07032.3275120,W,1,24,0.7,12.858,M,-29.744,M,0.0,*59
###2023-12-09 13:20:29.384561$GNGGA,182028.50,4138.0454874,N,07032.3275163,W,1,24,0.7,12.842,M,-29.744,M,0.0,*56
###2023-12-09 13:20:29.585399$GNGGA,182028.70,4138.0453061,N,07032.3275033,W,1,24,0.7,12.813,M,-29.744,M,0.0,*5F
###2023-12-09 13:20:29.784339$GNGGA,182028.90,4138.0451194,N,07032.3275423,W,1,24,0.7,12.861,M,-29.744,M,0.0,*58
###2023-12-09 13:20:29.988530$GNRMC,182029.10,A,4138.0449264,N,07032.3275752,W,3.42,180.64,091223,,,A*54
###2023-12-09 13:20:29.991390$GNGGA,182029.10,4138.0449264,N,07032.3275752,W,1,24,0.7,12.838,M,-29.744,M,0.0,*5D
###2023-12-09 13:20:29.993172$GPGSA,A,3,03,04,16,26,28,29,31,,,,,,1.1,0.7,0.9*3B
###2023-12-09 13:20:29.994890$GLGSA,A,3,65,71,72,73,74,75,,,,,,,1.1,0.7,0.9*25
###2023-12-09 13:20:29.996468$GAGSA,A,3,04,19,21,27,,,,,,,,,1.1,0.7,0.9*27
###2023-12-09 13:20:29.998174$GBGSA,A,3,14,24,25,26,33,35,,,,,,,1.1,0.7,0.9*28
###2023-12-09 13:20:30.000510$GPGSV,2,1,07,03,31,253,43,04,40,310,46,16,59,217,47,26,89,196,48*74
###2023-12-09 13:20:30.002546$GPGSV,2,2,07,28,43,079,45,29,23,053,40,31,64,055,47,,,,*47
###2023-12-09 13:20:30.004880$GLGSV,2,1,06,65,32,324,44,71,31,174,43,72,69,237,46,73,28,047,43*62
###2023-12-09 13:20:30.006523$GLGSV,2,2,06,74,65,,43,75,38,262,48,,,,,,,,*57
###2023-12-09 13:20:30.008854$GAGSV,1,1,04,04,35,311,43,19,78,187,40,21,82,056,46,27,27,049,40*66
###2023-12-09 13:20:30.011221$GBGSV,2,1,06,14,35,191,41,24,67,039,49,25,47,270,49,26,20,067,42*6C
###2023-12-09 13:20:30.012966$GBGSV,2,2,06,33,51,223,48,35,16,062,43,,,,,,,,*64
###2023-12-09 13:20:30.014285$GNVTG,180.64,T,,M,3.42,N,6.34,K,A*2C
###2023-12-09 13:20:30.015936$GNGST,182029.10,18.000,,,,0.100,0.069,0.160*56
###2023-12-09 13:20:30.017225$GNZDA,182029.10,09,12,2023,00,00*70
###2023-12-09 13:20:30.017864$GNEBP,,,,,,M*13
###2023-12-09 13:20:30.186848$GNGGA,182029.30,4138.0447386,N,07032.3275627,W,1,24,0.7,12.818,M,-29.744,M,0.0,*5D
###2023-12-09 13:20:30.386015$GNGGA,182029.50,4138.0445497,N,07032.3275653,W,1,24,0.7,12.842,M,-29.744,M,0.0,*52
###2023-12-09 13:20:30.585939$GNGGA,182029.70,4138.0443561,N,07032.3275834,W,1,24,0.7,12.858,M,-29.744,M,0.0,*5A
###2023-12-09 13:20:30.785014$GNGGA,182029.90,4138.0441623,N,07032.3275790,W,1,24,0.7,12.830,M,-29.744,M,0.0,*5C
###2023-12-09 13:20:30.990796$GNRMC,182030.10,A,4138.0439757,N,07032.3275564,W,3.27,178.19,091223,,,A*57
###2023-12-09 13:20:30.994232$GNGGA,182030.10,4138.0439757,N,07032.3275564,W,1,24,0.7,12.819,M,-29.744,M,0.0,*53
###2023-12-09 13:20:30.996417$GPGSA,A,3,03,04,16,26,28,29,31,,,,,,1.1,0.7,0.9*3B
###2023-12-09 13:20:30.998486$GLGSA,A,3,65,71,72,73,74,75,,,,,,,1.1,0.7,0.9*25
###2023-12-09 13:20:31.000415$GAGSA,A,3,04,19,21,27,,,,,,,,,1.1,0.7,0.9*27
###2023-12-09 13:20:31.002477$GBGSA,A,3,14,24,25,26,33,35,,,,,,,1.1,0.7,0.9*28
###2023-12-09 13:20:31.005289$GPGSV,2,1,07,03,31,253,42,04,40,310,46,16,59,217,46,26,89,196,48*74
###2023-12-09 13:20:31.007741$GPGSV,2,2,07,28,43,079,45,29,23,053,44,31,64,055,47,,,,*43
###2023-12-09 13:20:31.010528$GLGSV,2,1,06,65,32,324,43,71,31,174,43,72,69,237,46,73,28,047,44*62
###2023-12-09 13:20:31.012525$GLGSV,2,2,06,74,65,,43,75,38,262,46,,,,,,,,*59
###2023-12-09 13:20:31.015321$GAGSV,1,1,04,04,35,311,43,19,78,187,40,21,82,056,47,27,27,049,42*65
###2023-12-09 13:20:31.018120$GBGSV,2,1,06,14,35,191,43,24,67,039,49,25,47,270,48,26,20,067,44*69
###2023-12-09 13:20:31.020234$GBGSV,2,2,06,33,51,223,47,35,16,062,43,,,,,,,,*6B
###2023-12-09 13:20:31.021821$GNVTG,178.19,T,,M,3.27,N,6.05,K,A*20
###2023-12-09 13:20:31.023856$GNGST,182030.10,18.000,,,,0.100,0.069,0.160*5E
###2023-12-09 13:20:31.025415$GNZDA,182030.10,09,12,2023,00,00*78
###2023-12-09 13:20:31.026181$GNEBP,,,,,,M*13
###2023-12-09 13:20:31.185347$GNGGA,182030.30,4138.0437839,N,07032.3275614,W,1,24,0.7,12.853,M,-29.744,M,0.0,*52
###2023-12-09 13:20:31.384487$GNGGA,182030.50,4138.0435867,N,07032.3275668,W,1,24,0.7,12.839,M,-29.744,M,0.0,*5A
###2023-12-09 13:20:31.584533$GNGGA,182030.70,4138.0433993,N,07032.3275585,W,1,24,0.7,12.822,M,-29.744,M,0.0,*5E
###2023-12-09 13:20:31.784366$GNGGA,182030.90,4138.0432031,N,07032.3275523,W,1,24,0.7,12.839,M,-29.744,M,0.0,*56
###2023-12-09 13:20:31.988397$GNRMC,182031.10,A,4138.0430090,N,07032.3275601,W,3.48,184.16,091223,,,A*56
###2023-12-09 13:20:31.991302$GNGGA,182031.10,4138.0430090,N,07032.3275601,W,1,24,0.7,12.833,M,-29.744,M,0.0,*5F
###2023-12-09 13:20:31.993098$GPGSA,A,3,03,04,16,26,28,29,31,,,,,,1.1,0.7,0.9*3B
###2023-12-09 13:20:31.994823$GLGSA,A,3,65,71,72,73,74,75,,,,,,,1.1,0.7,0.9*25
###2023-12-09 13:20:31.996413$GAGSA,A,3,04,19,21,27,,,,,,,,,1.1,0.7,0.9*27
###2023-12-09 13:20:31.998123$GBGSA,A,3,14,24,25,26,33,35,,,,,,,1.1,0.7,0.9*28
###2023-12-09 13:20:32.000480$GPGSV,2,1,07,03,31,253,41,04,40,310,44,16,59,217,45,26,89,196,48*76
###2023-12-09 13:20:32.002529$GPGSV,2,2,07,28,43,079,45,29,23,053,41,31,64,055,47,,,,*46
###2023-12-09 13:20:32.004887$GLGSV,2,1,06,65,32,324,43,71,31,174,42,72,69,237,46,73,28,047,44*63
