###2023-12-09 12:59:10.984683$GAGSV,1,1,04,04,28,312,42,19,85,226,40,21,85,133,46,27,34,048,42*66
###2023-12-09 12:59:10.987057$GBGSV,2,1,05,14,44,193,43,24,74,022,49,25,40,261,46,26,27,062,44*6D
###2023-12-09 12:59:10.988532$GBGSV,2,2,05,33,58,234,48,,,,,,,,,,,,*5A
###2023-12-09 12:59:10.989853$GNVTG,185.48,T,,M,2.70,N,5.00,K,A*23
###2023-12-09 12:59:10.991514$GNGST,175910.10,18.000,,,,0.080,0.066,0.160*5B
###2023-12-09 12:59:10.992806$GNZDA,175910.10,09,12,2023,00,00*7B
###2023-12-09 12:59:10.993444$GNEBP,,,,,,M*13
###2023-12-09 12:59:11.164580$GNGGA,175910.30,4138.0287929,N,07032.2550555,W,1,24,0.6,13.140,M,-29.743,M,0.0,*57
###2023-12-09 12:59:11.366494$GNGGA,175910.50,4138.0286431,N,07032.2551132,W,1,24,0.6,13.149,M,-29.743,M,0.0,*59
###2023-12-09 12:59:11.563589$GNGGA,175910.70,4138.0284907,N,07032.2551435,W,1,24,0.6,13.125,M,-29.743,M,0.0,*59
###2023-12-09 12:59:11.764309$GNGGA,175910.90,4138.0283437,N,07032.2551560,W,1,24,0.6,13.108,M,-29.743,M,0.0,*50
###2023-12-09 12:59:11.964562$GNRMC,175911.10,A,4138.0282048,N,07032.2552152,W,2.76,201.82,091223,,,A*52
###2023-12-09 12:59:11.967455$GNGGA,175911.10,4138.0282048,N,07032.2552152,W,1,24,0.6,13.146,M,-29.743,M,0.0,*58
###2023-12-09 12:59:11.969305$GPGSA,A,3,03,04,16,26,28,29,31,32,,,,,1.1,0.6,0.9*3B
###2023-12-09 12:59:11.971031$GLGSA,A,3,65,71,72,73,74,75,,,,,,,1.1,0.6,0.9*24
###2023-12-09 12:59:11.972606$GAGSA,A,3,04,19,21,27,,,,,,,,,1.1,0.6,0.9*26
###2023-12-09 12:59:11.974246$GBGSA,A,3,14,24,25,26,33,,,,,,,,1.1,0.6,0.9*2F
###2023-12-09 12:59:11.976576$GPGSV,2,1,08,03,35,262,44,04,32,311,43,16,48,211,44,26,78,209,48*75
###2023-12-09 12:59:11.978914$GPGSV,2,2,08,28,50,069,46,29,25,063,44,31,69,033,48,32,20,139,43*74
###2023-12-09 12:59:11.981247$GLGSV,2,1,06,65,23,328,40,71,42,172,43,72,73,273,46,73,37,041,45*6D
###2023-12-09 12:59:11.983002$GLGSV,2,2,06,74,70,334,43,75,31,252,44,,,,,,,,*61
###2023-12-09 12:59:11.985321$GAGSV,1,1,04,04,28,312,40,19,85,226,40,21,85,133,46,27,34,048,42*64
###2023-12-09 12:59:11.987689$GBGSV,2,1,05,14,44,193,42,24,74,022,49,25,40,261,46,26,27,062,45*6D
###2023-12-09 12:59:11.989140$GBGSV,2,2,05,33,58,234,48,,,,,,,,,,,,*5A
###2023-12-09 12:59:11.990455$GNVTG,201.82,T,,M,2.76,N,5.11,K,A*2C
###2023-12-09 12:59:11.992103$GNGST,175911.10,18.000,,,,0.080,0.066,0.160*5A
###2023-12-09 12:59:11.993388$GNZDA,175911.10,09,12,2023,00,00*7A
###2023-12-09 12:59:11.994023$GNEBP,,,,,,M*13
###2023-12-09 12:59:12.164550$GNGGA,175911.30,4138.0280538,N,07032.2552708,W,1,24,0.6,13.137,M,-29.743,M,0.0,*55
###2023-12-09 12:59:12.361634$GNGGA,175911.50,4138.0279153,N,07032.2552756,W,1,24,0.6,13.101,M,-29.743,M,0.0,*52
###2023-12-09 12:59:12.561340$GNGGA,175911.70,4138.0277822,N,07032.2552843,W,1,24,0.6,13.108,M,-29.743,M,0.0,*53
###2023-12-09 12:59:12.764458$GNGGA,175911.90,4138.0276380,N,07032.2553308,W,1,24,0.6,13.129,M,-29.743,M,0.0,*59
###2023-12-09 12:59:12.967166$GNRMC,175912.10,A,4138.0274944,N,07032.2553552,W,2.43,180.52,091223,,,A*59
###2023-12-09 12:59:12.970022$GNGGA,175912.10,4138.0274944,N,07032.2553552,W,1,24,0.6,13.108,M,-29.743,M,0.0,*58
###2023-12-09 12:59:12.971891$GPGSA,A,3,03,04,16,26,28,29,31,32,,,,,1.1,0.6,0.9*3B
###2023-12-09 12:59:12.973605$GLGSA,A,3,65,71,72,73,74,75,,,,,,,1.1,0.6,0.9*24
###2023-12-09 12:59:12.975199$GAGSA,A,3,04,19,21,27,,,,,,,,,1.1,0.6,0.9*26
###2023-12-09 12:59:12.976847$GBGSA,A,3,14,24,25,26,33,,,,,,,,1.1,0.6,0.9*2F
###2023-12-09 12:59:12.979191$GPGSV,2,1,08,03,35,262,44,04,32,311,40,16,48,211,44,26,78,209,46*78
###2023-12-09 12:59:12.981522$GPGSV,2,2,08,28,50,069,43,29,25,063,40,31,69,033,46,32,20,139,40*78
###2023-12-09 12:59:12.983873$GLGSV,2,1,06,65,23,328,41,71,42,172,43,72,73,273,46,73,37,041,45*6C
###2023-12-09 12:59:12.985625$GLGSV,2,2,06,74,70,334,43,75,31,252,45,,,,,,,,*60
###2023-12-09 12:59:12.987969$GAGSV,1,1,04,04,28,312,40,19,85,226,39,21,85,133,45,27,34,048,41*6A
###2023-12-09 12:59:12.990302$GBGSV,2,1,05,14,44,193,43,24,74,022,48,25,40,261,46,26,27,062,42*6A
###2023-12-09 12:59:12.991766$GBGSV,2,2,05,33,58,234,48,,,,,,,,,,,,*5A
###2023-12-09 12:59:12.993086$GNVTG,180.52,T,,M,2.43,N,4.50,K,A*29
###2023-12-09 12:59:12.994742$GNGST,175912.10,18.000,,,,0.081,0.066,0.160*58
###2023-12-09 12:59:12.996037$GNZDA,175912.10,09,12,2023,00,00*79
###2023-12-09 12:59:12.996676$GNEBP,,,,,,M*13
###2023-12-09 12:59:13.160473$GNGGA,175912.30,4138.0273618,N,07032.2553416,W,1,24,0.6,13.105,M,-29.743,M,0.0,*57
###2023-12-09 12:59:13.361258$GNGGA,175912.50,4138.0272262,N,07032.2553261,W,1,24,0.6,13.111,M,-29.743,M,0.0,*5A
###2023-12-09 12:59:13.561250$GNGGA,175912.70,4138.0270795,N,07032.2553248,W,1,24,0.6,13.108,M,-29.743,M,0.0,*54
###2023-12-09 12:59:13.761491$GNGGA,175912.90,4138.0269426,N,07032.2553153,W,1,24,0.6,13.098,M,-29.743,M,0.0,*58
###2023-12-09 12:59:13.963181$GNRMC,175913.10,A,4138.0268049,N,07032.2552822,W,2.57,167.29,091223,,,A*5A
###2023-12-09 12:59:13.966035$GNGGA,175913.10,4138.0268049,N,07032.2552822,W,1,24,0.6,13.100,M,-29.743,M,0.0,*53
###2023-12-09 12:59:13.967902$GPGSA,A,3,03,04,16,26,28,29,31,32,,,,,1.1,0.6,0.9*3B
###2023-12-09 12:59:13.969611$GLGSA,A,3,65,71,72,73,74,75,,,,,,,1.1,0.6,0.9*24
###2023-12-09 12:59:13.971202$GAGSA,A,3,04,19,21,27,,,,,,,,,1.1,0.6,0.9*26
###2023-12-09 12:59:13.972843$GBGSA,A,3,14,24,25,26,33,,,,,,,,1.1,0.6,0.9*2F
###2023-12-09 12:59:13.975176$GPGSV,2,1,08,03,35,262,44,04,32,311,41,16,48,211,45,26,78,209,47*79
###2023-12-09 12:59:13.977495$GPGSV,2,2,08,28,50,069,44,29,25,063,42,31,69,033,46,32,20,139,40*7D
###2023-12-09 12:59:13.979831$GLGSV,2,1,06,65,23,328,41,71,42,172,42,72,73,273,46,73,37,041,45*6D
###2023-12-09 12:59:13.981577$GLGSV,2,2,06,74,70,334,43,75,31,252,45,,,,,,,,*60
###2023-12-09 12:59:13.983916$GAGSV,1,1,04,04,28,312,40,19,85,226,40,21,85,133,45,27,34,048,41*64
###2023-12-09 12:59:13.986234$GBGSV,2,1,05,14,44,193,42,24,74,022,47,25,40,261,46,26,27,062,42*64
###2023-12-09 12:59:13.987695$GBGSV,2,2,05,33,58,234,47,,,,,,,,,,,,*55
###2023-12-09 12:59:13.989013$GNVTG,167.29,T,,M,2.57,N,4.75,K,A*2E
###2023-12-09 12:59:13.990664$GNGST,175913.10,18.000,,,,0.083,0.067,0.160*5A
###2023-12-09 12:59:13.991948$GNZDA,175913.10,09,12,2023,00,00*78
###2023-12-09 12:59:13.992583$GNEBP,,,,,,M*13
###2023-12-09 12:59:14.161736$GNGGA,175913.30,4138.0266662,N,07032.2552460,W,1,24,0.6,13.098,M,-29.743,M,0.0,*5A
###2023-12-09 12:59:14.361270$GNGGA,175913.50,4138.0265241,N,07032.2552270,W,1,24,0.6,13.108,M,-29.743,M,0.0,*55
###2023-12-09 12:59:14.562296$GNGGA,175913.70,4138.0263785,N,07032.2552069,W,1,24,0.6,13.088,M,-29.743,M,0.0,*5F
###2023-12-09 12:59:14.761678$GNGGA,175913.90,4138.0262371,N,07032.2551847,W,1,24,0.6,13.096,M,-29.743,M,0.0,*57
###2023-12-09 12:59:14.964809$GNRMC,175914.10,A,4138.0260859,N,07032.2551682,W,2.72,176.19,091223,,,A*5F
###2023-12-09 12:59:14.967686$GNGGA,175914.10,4138.0260859,N,07032.2551682,W,1,24,0.6,13.093,M,-29.743,M,0.0,*59
###2023-12-09 12:59:14.969540$GPGSA,A,3,03,04,16,26,28,29,31,32,,,,,1.1,0.6,0.9*3B
###2023-12-09 12:59:14.971262$GLGSA,A,3,65,71,72,73,74,75,,,,,,,1.1,0.6,0.9*24
###2023-12-09 12:59:14.972846$GAGSA,A,3,04,19,21,27,,,,,,,,,1.1,0.6,0.9*26
###2023-12-09 12:59:14.974485$GBGSA,A,3,14,24,25,26,33,,,,,,,,1.1,0.6,0.9*2F
###2023-12-09 12:59:14.976817$GPGSV,2,1,08,03,35,262,44,04,32,311,42,16,48,211,44,26,78,209,48*74
###2023-12-09 12:59:14.979145$GPGSV,2,2,08,28,50,069,45,29,25,063,43,31,69,033,47,32,20,139,41*7D
###2023-12-09 12:59:14.981471$GLGSV,2,1,06,65,23,328,40,71,42,172,44,72,73,273,46,73,37,041,45*6A
###2023-12-09 12:59:14.983218$GLGSV,2,2,06,74,70,334,43,75,31,252,44,,,,,,,,*61
###2023-12-09 12:59:14.985539$GAGSV,1,1,04,04,28,312,40,19,85,226,40,21,85,133,46,27,34,048,42*64
###2023-12-09 12:59:14.987867$GBGSV,2,1,05,14,44,193,43,24,74,022,50,25,40,261,47,26,27,062,45*65
###2023-12-09 12:59:14.989310$GBGSV,2,2,05,33,58,234,49,,,,,,,,,,,,*5B
###2023-12-09 12:59:14.990637$GNVTG,176.19,T,,M,2.72,N,5.04,K,A*2D
###2023-12-09 12:59:14.992280$GNGST,175914.10,18.000,,,,0.083,0.068,0.160*52
###2023-12-09 12:59:14.993568$GNZDA,175914.10,09,12,2023,00,00*7F
###2023-12-09 12:59:14.994199$GNEBP,,,,,,M*13
###2023-12-09 12:59:15.164323$GNGGA,175914.30,4138.0259415,N,07032.2551521,W,1,24,0.6,13.083,M,-29.743,M,0.0,*5E
###2023-12-09 12:59:15.362124$GNGGA,175914.50,4138.0257953,N,07032.2551606,W,1,24,0.6,13.093,M,-29.743,M,0.0,*5E
###2023-12-09 12:59:15.562263$GNGGA,175914.70,4138.0256413,N,07032.2551746,W,1,24,0.6,13.095,M,-29.743,M,0.0,*57
###2023-12-09 12:59:15.764083$GNGGA,175914.90,4138.0254883,N,07032.2551812,W,1,24,0.6,13.066,M,-29.743,M,0.0,*5C
###2023-12-09 12:59:15.965270$GNRMC,175915.10,A,4138.0253455,N,07032.2552192,W,2.78,199.44,091223,,,A*58
###2023-12-09 12:59:15.968155$GNGGA,175915.10,4138.0253455,N,07032.2552192,W,1,24,0.6,13.091,M,-29.743,M,0.0,*5F
###2023-12-09 12:59:15.970014$GPGSA,A,3,03,04,16,26,28,29,31,32,,,,,1.1,0.6,0.9*3B
###2023-12-09 12:59:15.971737$GLGSA,A,3,65,71,72,73,74,75,,,,,,,1.1,0.6,0.9*24
###2023-12-09 12:59:15.973319$GAGSA,A,3,04,19,21,27,,,,,,,,,1.1,0.6,0.9*26
