###2023-12-09 13:38:04.195632$GNGGA,183803.30,4138.0280216,N,07032.3928553,W,1,25,0.6,13.447,M,-29.745,M,0.0,*5C
###2023-12-09 13:38:04.395751$GNGGA,183803.50,4138.0280437,N,07032.3928733,W,1,24,0.6,13.464,M,-29.745,M,0.0,*5B
###2023-12-09 13:38:04.594527$GNGGA,183803.70,4138.0280668,N,07032.3928908,W,1,24,0.6,13.473,M,-29.745,M,0.0,*51
###2023-12-09 13:38:04.796840$GNGGA,183803.90,4138.0280841,N,07032.3928708,W,1,25,0.6,13.458,M,-29.745,M,0.0,*5C
###2023-12-09 13:38:04.999215$GNRMC,183804.10,A,4138.0280970,N,07032.3928534,W,0.31,89.92,091223,,,A*68
###2023-12-09 13:38:05.002066$GNGGA,183804.10,4138.0280970,N,07032.3928534,W,1,24,0.6,13.448,M,-29.745,M,0.0,*5D
###2023-12-09 13:38:05.003926$GPGSA,A,3,03,04,16,26,27,28,29,31,,,,,1.1,0.6,0.9*3F
###2023-12-09 13:38:05.005633$GLGSA,A,3,65,71,72,73,74,75,,,,,,,1.1,0.6,0.9*24
###2023-12-09 13:38:05.007218$GAGSA,A,3,04,19,21,27,,,,,,,,,1.1,0.6,0.9*26
###2023-12-09 13:38:05.008915$GBGSA,A,3,12,14,24,25,33,35,,,,,,,1.1,0.6,0.9*2E
###2023-12-09 13:38:05.011240$GPGSV,2,1,08,03,25,245,37,04,48,307,44,16,68,224,48,26,82,040,48*7A
###2023-12-09 13:38:05.013557$GPGSV,2,2,08,27,18,172,44,28,37,086,44,29,20,046,42,31,58,068,47*76
###2023-12-09 13:38:05.015883$GLGSV,2,1,06,65,39,317,42,71,21,175,46,72,61,219,46,73,21,053,41*60
###2023-12-09 13:38:05.017619$GLGSV,2,2,06,74,59,016,41,75,44,273,47,,,,,,,,*69
###2023-12-09 13:38:05.019940$GAGSV,1,1,04,04,41,309,44,19,70,181,42,21,75,045,46,27,21,050,38*6C
###2023-12-09 13:38:05.022251$GBGSV,2,1,06,12,16,125,43,14,28,189,41,24,62,047,47,25,52,277,48*6D
###2023-12-09 13:38:05.023999$GBGSV,2,2,06,33,44,216,47,35,16,055,43,,,,,,,,*6D
###2023-12-09 13:38:05.025283$GNVTG,89.92,T,,M,0.31,N,0.58,K,A*16
###2023-12-09 13:38:05.026932$GNGST,183804.10,5.400,,,,0.110,0.098,0.220*60
###2023-12-09 13:38:05.028224$GNZDA,183804.10,09,12,2023,00,00*76
###2023-12-09 13:38:05.028868$GNEBP,,,,,,M*13
###2023-12-09 13:38:05.196649$GNGGA,183804.30,4138.0281186,N,07032.3928825,W,1,24,0.6,13.467,M,-29.745,M,0.0,*5F
###2023-12-09 13:38:05.395727$GNGGA,183804.50,4138.0281441,N,07032.3929187,W,1,24,0.6,13.472,M,-29.745,M,0.0,*53
###2023-12-09 13:38:05.597955$GNGGA,183804.70,4138.0281635,N,07032.3929097,W,1,24,0.6,13.473,M,-29.745,M,0.0,*51
###2023-12-09 13:38:05.795422$GNGGA,183804.90,4138.0281767,N,07032.3928760,W,1,24,0.6,13.470,M,-29.745,M,0.0,*54
###2023-12-09 13:38:06.000202$GNRMC,183805.10,A,4138.0282014,N,07032.3928749,W,0.68,89.92,091223,,,A*64
###2023-12-09 13:38:06.003100$GNGGA,183805.10,4138.0282014,N,07032.3928749,W,1,24,0.6,13.462,M,-29.745,M,0.0,*55
###2023-12-09 13:38:06.004963$GPGSA,A,3,03,04,16,26,27,28,29,31,,,,,1.1,0.6,0.9*3F
###2023-12-09 13:38:06.006691$GLGSA,A,3,65,71,72,73,74,75,,,,,,,1.1,0.6,0.9*24
###2023-12-09 13:38:06.008274$GAGSA,A,3,04,19,21,27,,,,,,,,,1.1,0.6,0.9*26
###2023-12-09 13:38:06.009980$GBGSA,A,3,12,14,24,25,33,35,,,,,,,1.1,0.6,0.9*2E
###2023-12-09 13:38:06.012315$GPGSV,2,1,08,03,25,245,37,04,48,307,43,16,68,224,46,26,82,040,47*7C
###2023-12-09 13:38:06.014679$GPGSV,2,2,08,27,18,172,44,28,37,086,44,29,20,046,42,31,58,068,46*77
###2023-12-09 13:38:06.017012$GLGSV,2,1,06,65,39,317,42,71,21,175,46,72,61,219,46,73,21,053,41*60
###2023-12-09 13:38:06.018765$GLGSV,2,2,06,74,59,016,41,75,44,273,47,,,,,,,,*69
###2023-12-09 13:38:06.021081$GAGSV,1,1,04,04,41,309,43,19,70,181,42,21,75,045,45,27,21,050,38*68
###2023-12-09 13:38:06.023418$GBGSV,2,1,06,12,16,125,42,14,28,189,41,24,62,047,47,25,52,277,46*62
###2023-12-09 13:38:06.025162$GBGSV,2,2,06,33,44,216,46,35,16,055,43,,,,,,,,*6C
###2023-12-09 13:38:06.026489$GNVTG,89.92,T,,M,0.68,N,1.26,K,A*12
###2023-12-09 13:38:06.028124$GNGST,183805.10,5.200,,,,0.110,0.098,0.220*67
###2023-12-09 13:38:06.029413$GNZDA,183805.10,09,12,2023,00,00*77
###2023-12-09 13:38:06.030046$GNEBP,,,,,,M*13
###2023-12-09 13:38:06.197855$GNGGA,183805.30,4138.0282395,N,07032.3929060,W,1,24,0.6,13.462,M,-29.745,M,0.0,*50
###2023-12-09 13:38:06.396920$GNGGA,183805.50,4138.0282881,N,07032.3929172,W,1,23,0.6,13.469,M,-29.745,M,0.0,*56
###2023-12-09 13:38:06.596585$GNGGA,183805.70,4138.0283415,N,07032.3928646,W,1,24,0.6,13.494,M,-29.745,M,0.0,*50
###2023-12-09 13:38:06.796701$GNGGA,183805.90,4138.0284093,N,07032.3928001,W,1,24,0.6,13.480,M,-29.745,M,0.0,*53
###2023-12-09 13:38:07.000143$GNRMC,183806.10,A,4138.0284990,N,07032.3927805,W,1.79,357.12,091223,,,A*55
###2023-12-09 13:38:07.003004$GNGGA,183806.10,4138.0284990,N,07032.3927805,W,1,24,0.6,13.475,M,-29.745,M,0.0,*5B
###2023-12-09 13:38:07.004855$GPGSA,A,3,03,04,16,26,27,28,29,31,,,,,1.1,0.6,0.9*3F
###2023-12-09 13:38:07.006561$GLGSA,A,3,65,71,72,73,74,75,,,,,,,1.1,0.6,0.9*24
###2023-12-09 13:38:07.008146$GAGSA,A,3,04,19,21,27,,,,,,,,,1.1,0.6,0.9*26
###2023-12-09 13:38:07.009850$GBGSA,A,3,12,14,24,25,33,35,,,,,,,1.1,0.6,0.9*2E
###2023-12-09 13:38:07.012179$GPGSV,2,1,08,03,25,245,37,04,48,307,44,16,68,224,46,26,82,040,48*74
###2023-12-09 13:38:07.014496$GPGSV,2,2,08,27,18,172,45,28,37,086,45,29,20,046,41,31,58,068,47*75
###2023-12-09 13:38:07.016824$GLGSV,2,1,06,65,39,317,42,71,21,175,46,72,61,219,45,73,21,053,40*62
###2023-12-09 13:38:07.018646$GLGSV,2,2,06,74,59,016,41,75,44,273,46,,,,,,,,*68
###2023-12-09 13:38:07.020971$GAGSV,1,1,04,04,41,309,43,19,70,181,42,21,75,045,46,27,21,050,39*6A
###2023-12-09 13:38:07.023304$GBGSV,2,1,06,12,16,125,42,14,28,189,41,24,62,047,47,25,52,277,47*63
###2023-12-09 13:38:07.025042$GBGSV,2,2,06,33,44,216,46,35,16,055,42,,,,,,,,*6D
###2023-12-09 13:38:07.026357$GNVTG,357.12,T,,M,1.79,N,3.31,K,A*2F
###2023-12-09 13:38:07.027968$GNGST,183806.10,5.700,,,,0.110,0.098,0.220*61
###2023-12-09 13:38:07.029250$GNZDA,183806.10,09,12,2023,00,00*74
###2023-12-09 13:38:07.029884$GNEBP,,,,,,M*13
###2023-12-09 13:38:07.197040$GNGGA,183806.30,4138.0285990,N,07032.3927848,W,1,24,0.6,13.466,M,-29.745,M,0.0,*53
###2023-12-09 13:38:07.396709$GNGGA,183806.50,4138.0287080,N,07032.3927562,W,1,24,0.6,13.474,M,-29.745,M,0.0,*59
###2023-12-09 13:38:07.594080$GNGGA,183806.70,4138.0288358,N,07032.3926990,W,1,24,0.6,13.491,M,-29.745,M,0.0,*59
###2023-12-09 13:38:07.796446$GNGGA,183806.90,4138.0289695,N,07032.3926564,W,1,24,0.6,13.483,M,-29.745,M,0.0,*56
###2023-12-09 13:38:07.999764$GNRMC,183807.10,A,4138.0291044,N,07032.3926564,W,2.43,352.42,091223,,,A*51
###2023-12-09 13:38:08.002852$GNGGA,183807.10,4138.0291044,N,07032.3926564,W,1,24,0.6,13.465,M,-29.745,M,0.0,*54
###2023-12-09 13:38:08.004796$GPGSA,A,3,03,04,16,26,27,28,29,31,,,,,1.1,0.6,0.9*3F
###2023-12-09 13:38:08.006522$GLGSA,A,3,65,71,72,73,74,75,,,,,,,1.1,0.6,0.9*24
###2023-12-09 13:38:08.008123$GAGSA,A,3,04,19,21,27,,,,,,,,,1.1,0.6,0.9*26
###2023-12-09 13:38:08.009839$GBGSA,A,3,12,14,24,25,33,35,,,,,,,1.1,0.6,0.9*2E
###2023-12-09 13:38:08.012194$GPGSV,2,1,08,03,25,245,36,04,48,307,45,16,68,224,46,26,82,040,48*74
###2023-12-09 13:38:08.014537$GPGSV,2,2,08,27,18,172,44,28,37,086,45,29,20,046,41,31,58,068,47*74
###2023-12-09 13:38:08.016892$GLGSV,2,1,06,65,39,317,42,71,21,175,43,72,61,219,46,73,21,053,42*66
###2023-12-09 13:38:08.018656$GLGSV,2,2,06,74,59,016,41,75,44,273,47,,,,,,,,*69
###2023-12-09 13:38:08.020992$GAGSV,1,1,04,04,41,309,43,19,70,181,41,21,75,045,45,27,21,050,39*6A
###2023-12-09 13:38:08.023341$GBGSV,2,1,06,12,16,125,41,14,28,189,42,24,62,047,47,25,52,277,46*62
###2023-12-09 13:38:08.025094$GBGSV,2,2,06,33,44,216,47,35,16,055,43,,,,,,,,*6D
###2023-12-09 13:38:08.026421$GNVTG,352.42,T,,M,2.43,N,4.50,K,A*25
###2023-12-09 13:38:08.028055$GNGST,183807.10,6.000,,,,0.110,0.098,0.220*64
###2023-12-09 13:38:08.029352$GNZDA,183807.10,09,12,2023,00,00*75
###2023-12-09 13:38:08.029991$GNEBP,,,,,,M*13
###2023-12-09 13:38:08.196615$GNGGA,183807.30,4138.0292412,N,07032.3926834,W,1,24,0.6,13.459,M,-29.745,M,0.0,*55
###2023-12-09 13:38:08.394737$GNGGA,183807.50,4138.0293874,N,07032.3926763,W,1,24,0.6,13.476,M,-29.745,M,0.0,*5E
###2023-12-09 13:38:08.594742$GNGGA,183807.70,4138.0295379,N,07032.3926562,W,1,25,0.6,13.477,M,-29.745,M,0.0,*5F
###2023-12-09 13:38:08.795099$GNGGA,183807.90,4138.0296867,N,07032.3926827,W,1,24,0.6,13.473,M,-29.745,M,0.0,*5F
###2023-12-09 13:38:09.007154$GNRMC,183808.10,A,4138.0298291,N,07032.3927525,W,2.76,337.04,091223,,,A*5E
###2023-12-09 13:38:09.010256$GNGGA,183808.10,4138.0298291,N,07032.3927525,W,1,25,0.6,13.472,M,-29.745,M,0.0,*5B
###2023-12-09 13:38:09.012139$GPGSA,A,3,03,04,16,26,27,28,29,31,,,,,1.1,0.6,0.9*3F
###2023-12-09 13:38:09.013926$GLGSA,A,3,65,71,72,73,74,75,83,,,,,,1.1,0.6,0.9*2F
###2023-12-09 13:38:09.015555$GAGSA,A,3,04,19,21,27,,,,,,,,,1.1,0.6,0.9*26
###2023-12-09 13:38:09.017282$GBGSA,A,3,12,14,24,25,33,35,,,,,,,1.1,0.6,0.9*2E
###2023-12-09 13:38:09.019630$GPGSV,2,1,08,03,25,245,38,04,48,307,44,16,68,224,46,26,82,040,48*7B
###2023-12-09 13:38:09.021968$GPGSV,2,2,08,27,18,172,43,28,37,086,46,29,20,046,42,31,58,068,47*73
###2023-12-09 13:38:09.024316$GLGSV,2,1,07,65,39,317,42,71,21,175,41,72,61,219,45,73,21,053,43*67
###2023-12-09 13:38:09.026360$GLGSV,2,2,07,74,59,016,42,75,44,273,46,83,15,046,35,,,,*51
###2023-12-09 13:38:09.028708$GAGSV,1,1,04,04,41,309,44,19,70,181,41,21,75,045,46,27,21,050,41*61
###2023-12-09 13:38:09.031061$GBGSV,2,1,06,12,16,125,41,14,28,189,42,24,62,047,48,25,52,277,45*6E
