###2023-12-09 12:33:51.532665$GNGGA,173350.70,4138.0453638,N,07032.4282482,W,1,22,0.7,12.469,M,-29.745,M,0.0,*50
###2023-12-09 12:33:51.731472$GNGGA,173350.90,4138.0453708,N,07032.4282547,W,1,22,0.7,12.454,M,-29.745,M,0.0,*5A
###2023-12-09 12:33:51.932219$GNRMC,173351.10,A,4138.0453754,N,07032.4282572,W,0.06,100.99,091223,,,A*5D
###2023-12-09 12:33:51.935104$GNGGA,173351.10,4138.0453754,N,07032.4282572,W,1,22,0.7,12.436,M,-29.745,M,0.0,*58
###2023-12-09 12:33:51.936963$GPGSA,A,3,03,04,16,26,28,29,31,32,,,,,1.2,0.7,1.0*31
###2023-12-09 12:33:51.938625$GLGSA,A,3,71,72,73,74,75,,,,,,,,1.2,0.7,1.0*2D
###2023-12-09 12:33:51.940204$GAGSA,A,3,04,19,21,27,,,,,,,,,1.2,0.7,1.0*2C
###2023-12-09 12:33:51.941845$GBGSA,A,3,14,24,25,26,33,,,,,,,,1.2,0.7,1.0*25
###2023-12-09 12:33:51.944178$GPGSV,2,1,08,03,39,278,42,04,21,310,40,16,36,207,45,26,65,206,50*71
###2023-12-09 12:33:51.946522$GPGSV,2,2,08,28,58,055,43,29,25,075,40,31,73,358,41,32,31,134,47*70
###2023-12-09 12:33:51.948883$GLGSV,2,1,05,71,57,169,49,72,65,310,39,73,48,033,43,74,71,290,36*6E
###2023-12-09 12:33:51.950338$GLGSV,2,2,05,75,22,241,36,,,,,,,,,,,,*50
###2023-12-09 12:33:51.952671$GAGSV,1,1,04,04,20,311,40,19,81,304,38,21,77,177,46,27,42,050,41*63
###2023-12-09 12:33:51.955007$GBGSV,2,1,05,14,55,198,45,24,81,343,45,25,32,252,40,26,35,057,35*62
###2023-12-09 12:33:51.956454$GBGSV,2,2,05,33,63,255,47,,,,,,,,,,,,*5A
###2023-12-09 12:33:51.957776$GNVTG,100.99,T,,M,0.06,N,0.11,K,A*24
###2023-12-09 12:33:51.959437$GNGST,173351.10,20.000,,,,0.089,0.080,0.200*5D
###2023-12-09 12:33:51.960727$GNZDA,173351.10,09,12,2023,00,00*72
###2023-12-09 12:33:51.961364$GNEBP,,,,,,M*13
###2023-12-09 12:33:52.132926$GNGGA,173351.30,4138.0453749,N,07032.4282588,W,1,21,0.7,12.412,M,-29.745,M,0.0,*56
###2023-12-09 12:33:52.334279$GNGGA,173351.50,4138.0453791,N,07032.4282596,W,1,20,0.7,12.403,M,-29.745,M,0.0,*5B
###2023-12-09 12:33:52.532417$GNGGA,173351.70,4138.0453785,N,07032.4282512,W,1,22,0.7,12.387,M,-29.745,M,0.0,*59
###2023-12-09 12:33:52.731549$GNGGA,173351.90,4138.0453828,N,07032.4282512,W,1,21,0.7,12.376,M,-29.745,M,0.0,*52
###2023-12-09 12:33:52.934275$GNRMC,173352.10,A,4138.0453869,N,07032.4282523,W,0.17,100.99,091223,,,A*5B
###2023-12-09 12:33:52.937160$GNGGA,173352.10,4138.0453869,N,07032.4282523,W,1,22,0.7,12.373,M,-29.745,M,0.0,*58
###2023-12-09 12:33:52.939040$GPGSA,A,3,03,04,16,26,28,29,31,32,,,,,1.2,0.7,1.0*31
###2023-12-09 12:33:52.940696$GLGSA,A,3,71,72,73,74,75,,,,,,,,1.2,0.7,1.0*2D
###2023-12-09 12:33:52.942285$GAGSA,A,3,04,19,21,27,,,,,,,,,1.2,0.7,1.0*2C
###2023-12-09 12:33:52.943955$GBGSA,A,3,14,24,25,26,33,,,,,,,,1.2,0.7,1.0*25
###2023-12-09 12:33:52.946289$GPGSV,2,1,08,03,39,278,43,04,21,310,40,16,36,207,45,26,65,206,50*70
###2023-12-09 12:33:52.948665$GPGSV,2,2,08,28,58,055,43,29,25,075,39,31,73,358,40,32,31,134,46*7E
###2023-12-09 12:33:52.951031$GLGSV,2,1,05,71,57,169,46,72,65,310,35,73,48,033,45,74,71,290,36*6B
###2023-12-09 12:33:52.952494$GLGSV,2,2,05,75,22,241,39,,,,,,,,,,,,*5F
###2023-12-09 12:33:52.954839$GAGSV,1,1,04,04,20,311,41,19,81,304,37,21,77,177,47,27,42,050,41*6C
###2023-12-09 12:33:52.957183$GBGSV,2,1,05,14,55,198,50,24,81,343,43,25,32,252,42,26,35,057,40*60
###2023-12-09 12:33:52.958657$GBGSV,2,2,05,33,63,255,43,,,,,,,,,,,,*5E
###2023-12-09 12:33:52.959993$GNVTG,100.99,T,,M,0.17,N,0.32,K,A*25
###2023-12-09 12:33:52.961643$GNGST,173352.10,20.000,,,,0.089,0.080,0.200*5E
###2023-12-09 12:33:52.962955$GNZDA,173352.10,09,12,2023,00,00*71
###2023-12-09 12:33:52.963597$GNEBP,,,,,,M*13
###2023-12-09 12:33:53.132990$GNGGA,173352.30,4138.0453849,N,07032.4282496,W,1,22,0.7,12.376,M,-29.745,M,0.0,*52
###2023-12-09 12:33:53.333370$GNGGA,173352.50,4138.0453900,N,07032.4282528,W,1,22,0.7,12.419,M,-29.745,M,0.0,*52
###2023-12-09 12:33:53.533566$GNGGA,173352.70,4138.0453896,N,07032.4282490,W,1,22,0.7,12.499,M,-29.745,M,0.0,*54
###2023-12-09 12:33:53.732460$GNGGA,173352.90,4138.0453918,N,07032.4282398,W,1,21,0.7,12.524,M,-29.745,M,0.0,*56
###2023-12-09 12:33:53.936633$GNRMC,173353.10,A,4138.0453969,N,07032.4282336,W,0.06,100.99,091223,,,A*59
###2023-12-09 12:33:53.939494$GNGGA,173353.10,4138.0453969,N,07032.4282336,W,1,21,0.7,12.502,M,-29.745,M,0.0,*59
###2023-12-09 12:33:53.941286$GPGSA,A,3,03,16,26,28,29,31,32,,,,,,1.3,0.7,1.0*34
###2023-12-09 12:33:53.942945$GLGSA,A,3,71,72,73,74,75,,,,,,,,1.3,0.7,1.0*2C
###2023-12-09 12:33:53.944524$GAGSA,A,3,04,19,21,27,,,,,,,,,1.3,0.7,1.0*2D
###2023-12-09 12:33:53.946169$GBGSA,A,3,14,24,25,26,33,,,,,,,,1.3,0.7,1.0*24
###2023-12-09 12:33:53.948524$GPGSV,2,1,07,03,39,278,43,16,36,207,44,26,65,206,48,28,58,055,44*71
###2023-12-09 12:33:53.950594$GPGSV,2,2,07,29,25,075,40,31,73,358,47,32,31,134,44,,,,*4A
###2023-12-09 12:33:53.952931$GLGSV,2,1,05,71,57,169,48,72,65,310,47,73,48,033,47,74,71,290,44*67
###2023-12-09 12:33:53.954392$GLGSV,2,2,05,75,22,241,37,,,,,,,,,,,,*51
###2023-12-09 12:33:53.956737$GAGSV,1,1,04,04,20,311,36,19,81,304,42,21,77,177,46,27,42,050,41*6F
###2023-12-09 12:33:53.959086$GBGSV,2,1,05,14,55,198,47,24,81,343,49,25,32,252,42,26,35,057,43*6F
###2023-12-09 12:33:53.960548$GBGSV,2,2,05,33,63,255,53,,,,,,,,,,,,*5F
###2023-12-09 12:33:53.961869$GNVTG,100.99,T,,M,0.06,N,0.11,K,A*24
###2023-12-09 12:33:53.963531$GNGST,173353.10,20.000,,,,0.088,0.080,0.200*5E
###2023-12-09 12:33:53.964822$GNZDA,173353.10,09,12,2023,00,00*70
###2023-12-09 12:33:53.965460$GNEBP,,,,,,M*13
###2023-12-09 12:33:54.134441$GNGGA,173353.30,4138.0453987,N,07032.4282283,W,1,21,0.7,12.495,M,-29.745,M,0.0,*5B
###2023-12-09 12:33:54.334318$GNGGA,173353.50,4138.0453940,N,07032.4282134,W,1,21,0.7,12.505,M,-29.745,M,0.0,*51
###2023-12-09 12:33:54.533506$GNGGA,173353.70,4138.0453946,N,07032.4282019,W,1,20,0.8,12.495,M,-29.745,M,0.0,*5D
###2023-12-09 12:33:54.731752$GNGGA,173353.90,4138.0453944,N,07032.4281931,W,1,20,0.8,12.486,M,-29.745,M,0.0,*53
###2023-12-09 12:33:54.937371$GNRMC,173354.10,A,4138.0453995,N,07032.4281878,W,0.17,100.99,091223,,,A*5F
###2023-12-09 12:33:54.940273$GNGGA,173354.10,4138.0453995,N,07032.4281878,W,1,20,0.8,12.483,M,-29.745,M,0.0,*59
###2023-12-09 12:33:54.942067$GPGSA,A,3,03,16,26,28,29,31,32,,,,,,1.4,0.8,1.2*3E
###2023-12-09 12:33:54.943734$GLGSA,A,3,71,72,73,74,75,,,,,,,,1.4,0.8,1.2*26
###2023-12-09 12:33:54.945250$GAGSA,A,3,19,21,27,,,,,,,,,,1.4,0.8,1.2*23
###2023-12-09 12:33:54.946920$GBGSA,A,3,14,24,25,26,33,,,,,,,,1.4,0.8,1.2*2E
###2023-12-09 12:33:54.949271$GPGSV,2,1,07,03,39,278,40,16,36,207,44,26,65,206,47,28,58,055,44*7D
###2023-12-09 12:33:54.951341$GPGSV,2,2,07,29,25,075,42,31,73,358,49,32,31,134,42,,,,*40
###2023-12-09 12:33:54.953684$GLGSV,2,1,05,71,57,169,48,72,65,310,45,73,48,033,47,74,71,290,43*62
###2023-12-09 12:33:54.955160$GLGSV,2,2,05,75,22,241,36,,,,,,,,,,,,*50
###2023-12-09 12:33:54.957204$GAGSV,1,1,03,19,81,304,41,21,77,177,46,27,42,050,42,,,,*58
###2023-12-09 12:33:54.959549$GBGSV,2,1,05,14,55,198,46,24,81,343,50,25,32,252,47,26,35,057,45*65
###2023-12-09 12:33:54.961009$GBGSV,2,2,05,33,63,255,48,,,,,,,,,,,,*55
###2023-12-09 12:33:54.962331$GNVTG,100.99,T,,M,0.17,N,0.32,K,A*25
###2023-12-09 12:33:54.963996$GNGST,173354.10,20.000,,,,0.089,0.081,0.200*59
###2023-12-09 12:33:54.965293$GNZDA,173354.10,09,12,2023,00,00*77
###2023-12-09 12:33:54.965930$GNEBP,,,,,,M*13
###2023-12-09 12:33:55.133462$GNGGA,173354.30,4138.0454043,N,07032.4281764,W,1,19,0.9,12.483,M,-29.745,M,0.0,*57
###2023-12-09 12:33:55.334239$GNGGA,173354.50,4138.0454082,N,07032.4281668,W,1,19,0.9,12.473,M,-29.745,M,0.0,*5E
###2023-12-09 12:33:55.532501$GNGGA,173354.70,4138.0454126,N,07032.4281441,W,1,19,0.9,12.460,M,-29.745,M,0.0,*58
###2023-12-09 12:33:55.731389$GNGGA,173354.90,4138.0454172,N,07032.4280914,W,1,19,0.9,12.470,M,-29.745,M,0.0,*5A
###2023-12-09 12:33:55.933138$GNRMC,173355.10,A,4138.0454239,N,07032.4280173,W,1.09,83.02,091223,,,A*61
###2023-12-09 12:33:55.936020$GNGGA,173355.10,4138.0454239,N,07032.4280173,W,1,19,0.9,12.469,M,-29.745,M,0.0,*5E
###2023-12-09 12:33:55.937819$GPGSA,A,3,03,16,26,28,29,31,32,,,,,,1.6,0.9,1.4*3B
###2023-12-09 12:33:55.939419$GLGSA,A,3,71,72,73,74,,,,,,,,,1.6,0.9,1.4*21
###2023-12-09 12:33:55.940942$GAGSA,A,3,19,21,27,,,,,,,,,,1.6,0.9,1.4*26
###2023-12-09 12:33:55.942846$GBGSA,A,3,14,24,25,26,33,,,,,,,,1.6,0.9,1.4*2B
###2023-12-09 12:33:55.945194$GPGSV,2,1,07,03,39,278,41,16,36,207,45,26,65,206,48,28,58,055,43*75
###2023-12-09 12:33:55.947285$GPGSV,2,2,07,29,25,075,41,31,73,358,48,32,31,134,42,,,,*42
###2023-12-09 12:33:55.949657$GLGSV,1,1,04,71,57,169,46,72,65,310,46,73,48,033,46,74,71,290,43*6C
###2023-12-09 12:33:55.951732$GAGSV,1,1,03,19,81,304,41,21,77,177,46,27,42,050,44,,,,*5E
###2023-12-09 12:33:55.954070$GBGSV,2,1,05,14,55,198,47,24,81,343,48,25,32,252,47,26,35,057,40*68
###2023-12-09 12:33:55.955546$GBGSV,2,2,05,33,63,255,46,,,,,,,,,,,,*5B
###2023-12-09 12:33:55.956840$GNVTG,83.02,T,,M,1.09,N,2.02,K,A*12
###2023-12-09 12:33:55.958490$GNGST,173355.10,21.000,,,,0.091,0.083,0.200*52
