###2023-12-09 13:10:17.978993$GLGSA,A,3,65,71,72,73,74,75,,,,,,,1.2,0.7,1.0*2E
###2023-12-09 13:10:17.980603$GAGSA,A,3,04,19,21,27,,,,,,,,,1.2,0.7,1.0*2C
###2023-12-09 13:10:17.982320$GBGSA,A,3,14,24,25,26,33,35,,,,,,,1.2,0.7,1.0*23
###2023-12-09 13:10:17.984668$GPGSV,2,1,07,03,33,257,42,04,36,311,44,16,54,214,45,26,84,210,48*7D
###2023-12-09 13:10:17.986720$GPGSV,2,2,07,28,46,074,45,29,24,057,43,31,67,046,48,,,,*41
###2023-12-09 13:10:17.989047$GLGSV,2,1,06,65,27,326,43,71,36,173,43,72,72,254,46,73,32,044,46*61
###2023-12-09 13:10:17.990806$GLGSV,2,2,06,74,68,348,43,75,35,257,45,,,,,,,,*63
###2023-12-09 13:10:17.993123$GAGSV,1,1,04,04,32,312,42,19,81,196,40,21,85,078,46,27,30,048,42*6B
###2023-12-09 13:10:17.995461$GBGSV,2,1,06,14,40,192,42,24,71,031,49,25,43,265,47,26,24,064,44*6E
###2023-12-09 13:10:17.997201$GBGSV,2,2,06,33,55,228,47,35,15,066,44,,,,,,,,*64
###2023-12-09 13:10:17.998525$GNVTG,183.78,T,,M,3.71,N,6.88,K,A*25
###2023-12-09 13:10:18.000195$GNGST,181017.10,18.000,,,,0.097,0.070,0.160*5F
###2023-12-09 13:10:18.001491$GNZDA,181017.10,09,12,2023,00,00*7E
###2023-12-09 13:10:18.002130$GNEBP,,,,,,M*13
###2023-12-09 13:10:18.170201$GNGGA,181017.30,4138.0345849,N,07032.2600304,W,1,24,0.7,12.899,M,-29.743,M,0.0,*53
###2023-12-09 13:10:18.369763$GNGGA,181017.50,4138.0343794,N,07032.2600428,W,1,24,0.7,12.891,M,-29.743,M,0.0,*5D
###2023-12-09 13:10:18.569625$GNGGA,181017.70,4138.0341737,N,07032.2600547,W,1,24,0.7,12.896,M,-29.743,M,0.0,*5B
###2023-12-09 13:10:18.770332$GNGGA,181017.90,4138.0339704,N,07032.2600604,W,1,24,0.7,12.903,M,-29.743,M,0.0,*53
###2023-12-09 13:10:18.972800$GNRMC,181018.10,A,4138.0337649,N,07032.2600678,W,3.73,179.96,091223,,,A*57
###2023-12-09 13:10:18.975665$GNGGA,181018.10,4138.0337649,N,07032.2600678,W,1,24,0.7,12.900,M,-29.743,M,0.0,*5A
###2023-12-09 13:10:18.977465$GPGSA,A,3,03,04,16,26,28,29,31,,,,,,1.2,0.7,1.0*30
###2023-12-09 13:10:18.979195$GLGSA,A,3,65,71,72,73,74,75,,,,,,,1.2,0.7,1.0*2E
###2023-12-09 13:10:18.980778$GAGSA,A,3,04,19,21,27,,,,,,,,,1.2,0.7,1.0*2C
###2023-12-09 13:10:18.982491$GBGSA,A,3,14,24,25,26,33,35,,,,,,,1.2,0.7,1.0*23
###2023-12-09 13:10:18.984837$GPGSV,2,1,07,03,33,257,42,04,36,311,44,16,54,214,45,26,84,210,47*72
###2023-12-09 13:10:18.986885$GPGSV,2,2,07,28,46,074,44,29,24,057,41,31,67,046,47,,,,*4D
###2023-12-09 13:10:18.989209$GLGSV,2,1,06,65,27,326,44,71,36,173,43,72,72,254,46,73,32,044,45*65
###2023-12-09 13:10:18.990956$GLGSV,2,2,06,74,68,348,43,75,35,257,46,,,,,,,,*60
###2023-12-09 13:10:18.993279$GAGSV,1,1,04,04,32,312,43,19,81,196,40,21,85,078,46,27,30,048,41*69
###2023-12-09 13:10:18.995657$GBGSV,2,1,06,14,40,192,42,24,71,031,49,25,43,265,47,26,24,064,43*69
###2023-12-09 13:10:18.997406$GBGSV,2,2,06,33,55,228,47,35,15,066,43,,,,,,,,*63
###2023-12-09 13:10:18.998741$GNVTG,179.96,T,,M,3.73,N,6.91,K,A*2A
###2023-12-09 13:10:19.000392$GNGST,181018.10,18.000,,,,0.097,0.070,0.160*50
###2023-12-09 13:10:19.001684$GNZDA,181018.10,09,12,2023,00,00*71
###2023-12-09 13:10:19.002324$GNEBP,,,,,,M*13
###2023-12-09 13:10:19.169709$GNGGA,181018.30,4138.0335570,N,07032.2600599,W,1,24,0.7,12.873,M,-29.743,M,0.0,*5A
###2023-12-09 13:10:19.373273$GNGGA,181018.50,4138.0333593,N,07032.2600793,W,1,24,0.7,12.889,M,-29.743,M,0.0,*5A
###2023-12-09 13:10:19.577085$GNGGA,181018.70,4138.0331565,N,07032.2600952,W,1,24,0.7,12.902,M,-29.743,M,0.0,*52
###2023-12-09 13:10:19.769434$GNGGA,181018.90,4138.0329564,N,07032.2601003,W,1,24,0.7,12.880,M,-29.743,M,0.0,*53
###2023-12-09 13:10:19.973201$GNRMC,181019.10,A,4138.0327557,N,07032.2601036,W,3.67,181.48,091223,,,A*57
###2023-12-09 13:10:19.976085$GNGGA,181019.10,4138.0327557,N,07032.2601036,W,1,24,0.7,12.878,M,-29.743,M,0.0,*55
###2023-12-09 13:10:19.977878$GPGSA,A,3,03,04,16,26,28,29,31,,,,,,1.2,0.7,1.0*30
###2023-12-09 13:10:19.979602$GLGSA,A,3,65,71,72,73,74,75,,,,,,,1.2,0.7,1.0*2E
###2023-12-09 13:10:19.981171$GAGSA,A,3,04,19,21,27,,,,,,,,,1.2,0.7,1.0*2C
###2023-12-09 13:10:19.982880$GBGSA,A,3,14,24,25,26,33,35,,,,,,,1.2,0.7,1.0*23
###2023-12-09 13:10:19.985191$GPGSV,2,1,07,03,33,257,42,04,36,311,43,16,54,214,45,26,84,210,48*7A
###2023-12-09 13:10:19.987260$GPGSV,2,2,07,28,46,074,45,29,24,057,43,31,67,046,47,,,,*4E
###2023-12-09 13:10:19.989582$GLGSV,2,1,06,65,27,326,42,71,36,173,43,72,72,254,46,73,32,044,45*63
###2023-12-09 13:10:19.991329$GLGSV,2,2,06,74,68,348,43,75,35,257,45,,,,,,,,*63
###2023-12-09 13:10:19.993648$GAGSV,1,1,04,04,32,312,43,19,81,196,40,21,85,078,46,27,30,048,42*6A
###2023-12-09 13:10:19.995988$GBGSV,2,1,06,14,40,192,42,24,71,031,49,25,43,265,47,26,24,064,45*6F
###2023-12-09 13:10:19.997729$GBGSV,2,2,06,33,55,228,47,35,15,066,44,,,,,,,,*64
###2023-12-09 13:10:19.999063$GNVTG,181.48,T,,M,3.67,N,6.80,K,A*2B
###2023-12-09 13:10:20.000707$GNGST,181019.10,18.000,,,,0.098,0.070,0.170*5F
###2023-12-09 13:10:20.001999$GNZDA,181019.10,09,12,2023,00,00*70
###2023-12-09 13:10:20.002648$GNEBP,,,,,,M*13
###2023-12-09 13:10:20.170736$GNGGA,181019.30,4138.0325571,N,07032.2601269,W,1,24,0.7,12.889,M,-29.743,M,0.0,*57
###2023-12-09 13:10:20.369208$GNGGA,181019.50,4138.0323531,N,07032.2601514,W,1,24,0.7,12.872,M,-29.743,M,0.0,*5A
###2023-12-09 13:10:20.570425$GNGGA,181019.70,4138.0321579,N,07032.2601516,W,1,24,0.7,12.853,M,-29.743,M,0.0,*57
###2023-12-09 13:10:20.769683$GNGGA,181019.90,4138.0319649,N,07032.2601741,W,1,24,0.7,12.885,M,-29.743,M,0.0,*59
###2023-12-09 13:10:20.976567$GNRMC,181020.10,A,4138.0317613,N,07032.2602047,W,3.52,183.71,091223,,,A*56
###2023-12-09 13:10:20.979448$GNGGA,181020.10,4138.0317613,N,07032.2602047,W,1,24,0.7,12.870,M,-29.743,M,0.0,*52
###2023-12-09 13:10:20.981242$GPGSA,A,3,03,04,16,26,28,29,31,,,,,,1.2,0.7,1.0*30
###2023-12-09 13:10:20.982964$GLGSA,A,3,65,71,72,73,74,75,,,,,,,1.2,0.7,1.0*2E
###2023-12-09 13:10:20.984549$GAGSA,A,3,04,19,21,27,,,,,,,,,1.2,0.7,1.0*2C
###2023-12-09 13:10:20.986262$GBGSA,A,3,14,24,25,26,33,35,,,,,,,1.2,0.7,1.0*23
###2023-12-09 13:10:20.988602$GPGSV,2,1,07,03,33,257,43,04,36,311,43,16,54,214,45,26,84,210,47*74
###2023-12-09 13:10:20.990653$GPGSV,2,2,07,28,46,074,45,29,24,057,42,31,67,046,47,,,,*4F
###2023-12-09 13:10:20.992979$GLGSV,2,1,06,65,27,326,42,71,36,173,43,72,72,254,46,73,32,044,44*62
###2023-12-09 13:10:20.994731$GLGSV,2,2,06,74,68,348,43,75,35,257,46,,,,,,,,*60
###2023-12-09 13:10:20.997049$GAGSV,1,1,04,04,32,312,43,19,81,196,40,21,85,078,46,27,30,048,41*69
###2023-12-09 13:10:20.999386$GBGSV,2,1,06,14,40,192,42,24,71,031,49,25,43,265,47,26,24,064,43*69
###2023-12-09 13:10:21.001134$GBGSV,2,2,06,33,55,228,48,35,15,066,43,,,,,,,,*6C
###2023-12-09 13:10:21.002452$GNVTG,183.71,T,,M,3.52,N,6.52,K,A*2A
###2023-12-09 13:10:21.004110$GNGST,181020.10,18.000,,,,0.098,0.070,0.170*55
###2023-12-09 13:10:21.005404$GNZDA,181020.10,09,12,2023,00,00*7A
###2023-12-09 13:10:21.006040$GNEBP,,,,,,M*13
###2023-12-09 13:10:21.172853$GNGGA,181020.30,4138.0315695,N,07032.2601998,W,1,24,0.7,12.848,M,-29.743,M,0.0,*5F
###2023-12-09 13:10:21.372284$GNGGA,181020.50,4138.0313721,N,07032.2602137,W,1,24,0.7,12.883,M,-29.743,M,0.0,*58
###2023-12-09 13:10:21.569382$GNGGA,181020.70,4138.0311709,N,07032.2602173,W,1,24,0.7,12.863,M,-29.743,M,0.0,*5C
###2023-12-09 13:10:21.770298$GNGGA,181020.90,4138.0309755,N,07032.2602007,W,1,24,0.7,12.855,M,-29.743,M,0.0,*55
###2023-12-09 13:10:21.972048$GNRMC,181021.10,A,4138.0307786,N,07032.2601919,W,3.60,179.82,091223,,,A*52
###2023-12-09 13:10:21.974907$GNGGA,181021.10,4138.0307786,N,07032.2601919,W,1,24,0.7,12.862,M,-29.743,M,0.0,*5D
###2023-12-09 13:10:21.976697$GPGSA,A,3,03,04,16,26,28,29,31,,,,,,1.2,0.7,1.0*30
###2023-12-09 13:10:21.978407$GLGSA,A,3,65,71,72,73,74,75,,,,,,,1.2,0.7,1.0*2E
###2023-12-09 13:10:21.979992$GAGSA,A,3,04,19,21,27,,,,,,,,,1.2,0.7,1.0*2C
###2023-12-09 13:10:21.981700$GBGSA,A,3,14,24,25,26,33,35,,,,,,,1.2,0.7,1.0*23
###2023-12-09 13:10:21.984037$GPGSV,2,1,07,03,33,257,42,04,36,311,45,16,54,214,45,26,84,210,47*73
###2023-12-09 13:10:21.986068$GPGSV,2,2,07,28,46,074,45,29,24,057,42,31,67,046,47,,,,*4F
###2023-12-09 13:10:21.988400$GLGSV,2,1,06,65,27,326,42,71,36,173,42,72,72,254,45,73,32,044,45*61
###2023-12-09 13:10:21.990143$GLGSV,2,2,06,74,68,348,43,75,35,257,46,,,,,,,,*60
###2023-12-09 13:10:21.992733$GAGSV,1,1,04,04,32,312,43,19,81,196,40,21,85,078,46,27,30,048,41*69
###2023-12-09 13:10:21.995093$GBGSV,2,1,06,14,39,192,41,24,71,031,49,25,43,265,46,26,24,064,43*65
###2023-12-09 13:10:21.996853$GBGSV,2,2,06,33,55,228,47,35,15,066,42,,,,,,,,*62
###2023-12-09 13:10:21.998173$GNVTG,179.82,T,,M,3.60,N,6.66,K,A*25
###2023-12-09 13:10:21.999830$GNGST,181021.10,18.000,,,,0.098,0.070,0.170*54
###2023-12-09 13:10:22.001125$GNZDA,181021.10,09,12,2023,00,00*7B
###2023-12-09 13:10:22.001762$GNEBP,,,,,,M*13
###2023-12-09 13:10:22.168648$GNGGA,181021.30,4138.0305821,N,07032.2601972,W,1,24,0.7,12.869,M,-29.743,M,0.0,*59
###2023-12-09 13:10:22.369725$GNGGA,181021.50,4138.0303796,N,07032.2601887,W,1,24,0.7,12.857,M,-29.743,M,0.0,*5C
