###2023-12-09 12:51:14.960986$GPGSV,2,1,08,03,37,267,41,04,29,311,41,16,44,210,45,26,74,208,47*71
###2023-12-09 12:51:14.963376$GPGSV,2,2,08,28,53,065,45,29,26,066,43,31,71,024,48,32,23,138,46*71
###2023-12-09 12:51:14.965741$GLGSV,2,1,06,65,19,329,38,71,47,171,48,72,72,288,45,73,40,038,46*6C
###2023-12-09 12:51:14.967516$GLGSV,2,2,06,74,71,321,42,75,28,248,40,,,,,,,,*62
###2023-12-09 12:51:14.969860$GAGSV,1,1,04,04,26,312,39,19,85,258,40,21,83,157,45,27,36,048,43*69
###2023-12-09 12:51:14.972223$GBGSV,2,1,05,14,48,194,46,24,77,014,48,25,37,258,42,26,29,060,45*67
###2023-12-09 12:51:14.973693$GBGSV,2,2,05,33,60,240,46,,,,,,,,,,,,*5C
###2023-12-09 12:51:14.975044$GNVTG,252.46,T,,M,1.52,N,2.81,K,A*29
###2023-12-09 12:51:14.976706$GNGST,175114.10,18.000,,,,0.077,0.067,0.160*5E
###2023-12-09 12:51:14.978010$GNZDA,175114.10,09,12,2023,00,00*77
###2023-12-09 12:51:14.978668$GNEBP,,,,,,M*13
###2023-12-09 12:51:15.148159$GNGGA,175114.30,4138.0557223,N,07032.3768102,W,1,24,0.6,13.658,M,-29.744,M,0.0,*57
###2023-12-09 12:51:15.349341$GNGGA,175114.50,4138.0557022,N,07032.3769233,W,1,24,0.6,13.654,M,-29.744,M,0.0,*5E
###2023-12-09 12:51:15.550323$GNGGA,175114.70,4138.0556344,N,07032.3770030,W,1,24,0.6,13.631,M,-29.744,M,0.0,*54
###2023-12-09 12:51:15.749396$GNGGA,175114.90,4138.0555568,N,07032.3770898,W,1,24,0.6,13.584,M,-29.744,M,0.0,*56
###2023-12-09 12:51:15.954777$GNRMC,175115.10,A,4138.0555231,N,07032.3772198,W,1.98,262.35,091223,,,A*52
###2023-12-09 12:51:15.957650$GNGGA,175115.10,4138.0555231,N,07032.3772198,W,1,24,0.6,13.587,M,-29.744,M,0.0,*5C
###2023-12-09 12:51:15.959537$GPGSA,A,3,03,04,16,26,28,29,31,32,,,,,1.1,0.6,0.9*3B
###2023-12-09 12:51:15.961256$GLGSA,A,3,65,71,72,73,74,75,,,,,,,1.1,0.6,0.9*24
###2023-12-09 12:51:15.962864$GAGSA,A,3,04,19,21,27,,,,,,,,,1.1,0.6,0.9*26
###2023-12-09 12:51:15.964514$GBGSA,A,3,14,24,25,26,33,,,,,,,,1.1,0.6,0.9*2F
###2023-12-09 12:51:15.966849$GPGSV,2,1,08,03,37,267,42,04,29,311,38,16,44,210,46,26,74,208,47*7F
###2023-12-09 12:51:15.969177$GPGSV,2,2,08,28,53,065,44,29,26,066,42,31,71,024,47,32,23,138,45*7D
###2023-12-09 12:51:15.971521$GLGSV,2,1,06,65,19,329,39,71,47,171,47,72,72,288,46,73,40,038,44*63
###2023-12-09 12:51:15.973268$GLGSV,2,2,06,74,71,321,41,75,28,248,42,,,,,,,,*63
###2023-12-09 12:51:15.975602$GAGSV,1,1,04,04,26,312,39,19,85,258,40,21,83,157,46,27,36,048,42*6B
###2023-12-09 12:51:15.977928$GBGSV,2,1,05,14,48,194,45,24,77,014,48,25,37,258,45,26,29,060,42*64
###2023-12-09 12:51:15.979390$GBGSV,2,2,05,33,60,240,47,,,,,,,,,,,,*5D
###2023-12-09 12:51:15.980710$GNVTG,262.35,T,,M,1.98,N,3.67,K,A*21
###2023-12-09 12:51:15.982354$GNGST,175115.10,18.000,,,,0.077,0.067,0.160*5F
###2023-12-09 12:51:15.983656$GNZDA,175115.10,09,12,2023,00,00*76
###2023-12-09 12:51:15.984293$GNEBP,,,,,,M*13
###2023-12-09 12:51:16.148021$GNGGA,175115.30,4138.0555093,N,07032.3773679,W,1,24,0.6,13.615,M,-29.744,M,0.0,*55
###2023-12-09 12:51:16.349031$GNGGA,175115.50,4138.0554794,N,07032.3775110,W,1,24,0.6,13.627,M,-29.744,M,0.0,*5D
###2023-12-09 12:51:16.549031$GNGGA,175115.70,4138.0554183,N,07032.3776523,W,1,24,0.6,13.611,M,-29.744,M,0.0,*5D
###2023-12-09 12:51:16.752047$GNGGA,175115.90,4138.0553629,N,07032.3778113,W,1,24,0.6,13.566,M,-29.744,M,0.0,*59
###2023-12-09 12:51:16.949964$GNRMC,175116.10,A,4138.0553535,N,07032.3779821,W,2.29,271.22,091223,,,A*59
###2023-12-09 12:51:16.952846$GNGGA,175116.10,4138.0553535,N,07032.3779821,W,1,24,0.6,13.561,M,-29.744,M,0.0,*52
###2023-12-09 12:51:16.954757$GPGSA,A,3,03,04,16,26,28,29,31,32,,,,,1.1,0.6,0.9*3B
###2023-12-09 12:51:16.956472$GLGSA,A,3,65,71,72,73,74,75,,,,,,,1.1,0.6,0.9*24
###2023-12-09 12:51:16.958047$GAGSA,A,3,04,19,21,27,,,,,,,,,1.1,0.6,0.9*26
###2023-12-09 12:51:16.959714$GBGSA,A,3,14,24,25,26,33,,,,,,,,1.1,0.6,0.9*2F
###2023-12-09 12:51:16.962050$GPGSV,2,1,08,03,37,267,43,04,29,311,38,16,44,210,47,26,74,208,48*70
###2023-12-09 12:51:16.964400$GPGSV,2,2,08,28,53,065,44,29,26,066,41,31,71,024,47,32,23,138,44*7F
###2023-12-09 12:51:16.966752$GLGSV,2,1,06,65,19,329,39,71,47,171,48,72,72,288,44,73,40,038,45*6F
###2023-12-09 12:51:16.968497$GLGSV,2,2,06,74,71,321,41,75,28,248,41,,,,,,,,*60
###2023-12-09 12:51:16.970844$GAGSV,1,1,04,04,26,312,37,19,85,258,40,21,83,157,46,27,36,048,42*65
###2023-12-09 12:51:16.973172$GBGSV,2,1,05,14,48,194,45,24,77,014,49,25,37,258,44,26,29,060,41*67
###2023-12-09 12:51:16.974631$GBGSV,2,2,05,33,60,240,47,,,,,,,,,,,,*5D
###2023-12-09 12:51:16.975956$GNVTG,271.22,T,,M,2.29,N,4.25,K,A*2D
###2023-12-09 12:51:16.977604$GNGST,175116.10,18.000,,,,0.077,0.067,0.160*5C
###2023-12-09 12:51:16.978913$GNZDA,175116.10,09,12,2023,00,00*75
###2023-12-09 12:51:16.979559$GNEBP,,,,,,M*13
###2023-12-09 12:51:17.150922$GNGGA,175116.30,4138.0553560,N,07032.3781460,W,1,24,0.6,13.575,M,-29.744,M,0.0,*5B
###2023-12-09 12:51:17.352395$GNGGA,175116.50,4138.0553479,N,07032.3783057,W,1,24,0.6,13.562,M,-29.744,M,0.0,*50
###2023-12-09 12:51:17.550339$GNGGA,175116.70,4138.0553350,N,07032.3784710,W,1,24,0.6,13.546,M,-29.744,M,0.0,*5B
###2023-12-09 12:51:17.750195$GNGGA,175116.90,4138.0553353,N,07032.3786407,W,1,24,0.6,13.537,M,-29.744,M,0.0,*57
###2023-12-09 12:51:17.950469$GNRMC,175117.10,A,4138.0553581,N,07032.3788068,W,2.24,285.31,091223,,,A*58
###2023-12-09 12:51:17.953343$GNGGA,175117.10,4138.0553581,N,07032.3788068,W,1,24,0.6,13.537,M,-29.744,M,0.0,*54
###2023-12-09 12:51:17.955230$GPGSA,A,3,03,04,16,26,28,29,31,32,,,,,1.1,0.6,0.9*3B
###2023-12-09 12:51:17.956945$GLGSA,A,3,65,71,72,73,74,75,,,,,,,1.1,0.6,0.9*24
###2023-12-09 12:51:17.958519$GAGSA,A,3,04,19,21,27,,,,,,,,,1.1,0.6,0.9*26
###2023-12-09 12:51:17.960169$GBGSA,A,3,14,24,25,26,33,,,,,,,,1.1,0.6,0.9*2F
###2023-12-09 12:51:17.962487$GPGSV,2,1,08,03,37,267,41,04,29,311,39,16,44,210,46,26,74,208,48*72
###2023-12-09 12:51:17.964818$GPGSV,2,2,08,28,53,065,45,29,26,066,41,31,71,024,47,32,23,138,45*7F
###2023-12-09 12:51:17.967164$GLGSV,2,1,06,65,19,329,37,71,47,171,48,72,72,288,45,73,40,038,46*63
###2023-12-09 12:51:17.968914$GLGSV,2,2,06,74,71,321,42,75,28,248,44,,,,,,,,*66
###2023-12-09 12:51:17.971237$GAGSV,1,1,04,04,26,312,38,19,85,258,40,21,83,157,45,27,36,048,43*68
###2023-12-09 12:51:17.973554$GBGSV,2,1,05,14,48,194,46,24,77,014,49,25,37,258,45,26,29,060,42*66
###2023-12-09 12:51:17.975010$GBGSV,2,2,05,33,60,240,48,,,,,,,,,,,,*52
###2023-12-09 12:51:17.976323$GNVTG,285.31,T,,M,2.24,N,4.14,K,A*2B
###2023-12-09 12:51:17.977957$GNGST,175117.10,18.000,,,,0.078,0.068,0.160*5D
###2023-12-09 12:51:17.979250$GNZDA,175117.10,09,12,2023,00,00*74
###2023-12-09 12:51:17.979886$GNEBP,,,,,,M*13
###2023-12-09 12:51:18.151803$GNGGA,175117.30,4138.0553935,N,07032.3789697,W,1,24,0.6,13.537,M,-29.744,M,0.0,*52
###2023-12-09 12:51:18.350905$GNGGA,175117.50,4138.0554246,N,07032.3791355,W,1,24,0.6,13.528,M,-29.744,M,0.0,*50
###2023-12-09 12:51:18.550035$GNGGA,175117.70,4138.0554483,N,07032.3793029,W,1,24,0.6,13.524,M,-29.744,M,0.0,*5B
###2023-12-09 12:51:18.750137$GNGGA,175117.90,4138.0554835,N,07032.3794630,W,1,24,0.6,13.515,M,-29.744,M,0.0,*5F
###2023-12-09 12:51:18.952223$GNRMC,175118.10,A,4138.0555357,N,07032.3796044,W,2.06,299.63,091223,,,A*57
###2023-12-09 12:51:18.955107$GNGGA,175118.10,4138.0555357,N,07032.3796044,W,1,24,0.6,13.517,M,-29.744,M,0.0,*53
###2023-12-09 12:51:18.956972$GPGSA,A,3,03,04,16,26,28,29,31,32,,,,,1.1,0.6,0.9*3B
###2023-12-09 12:51:18.958700$GLGSA,A,3,65,71,72,73,74,75,,,,,,,1.1,0.6,0.9*24
###2023-12-09 12:51:18.960288$GAGSA,A,3,04,19,21,27,,,,,,,,,1.1,0.6,0.9*26
###2023-12-09 12:51:18.961939$GBGSA,A,3,14,24,25,26,33,,,,,,,,1.1,0.6,0.9*2F
###2023-12-09 12:51:18.964292$GPGSV,2,1,08,03,37,267,44,04,29,311,41,16,44,210,46,26,74,208,48*78
###2023-12-09 12:51:18.966657$GPGSV,2,2,08,28,53,065,46,29,26,066,41,31,71,024,47,32,23,138,43*7A
###2023-12-09 12:51:18.968993$GLGSV,2,1,06,65,19,329,38,71,47,171,47,72,72,288,45,73,40,038,46*63
###2023-12-09 12:51:18.970756$GLGSV,2,2,06,74,71,321,42,75,28,248,46,,,,,,,,*64
###2023-12-09 12:51:18.973088$GAGSV,1,1,04,04,26,312,38,19,85,258,40,21,83,157,46,27,36,048,44*6C
###2023-12-09 12:51:18.975417$GBGSV,2,1,05,14,48,194,46,24,77,014,49,25,37,258,46,26,29,060,43*64
###2023-12-09 12:51:18.976869$GBGSV,2,2,05,33,60,240,48,,,,,,,,,,,,*52
###2023-12-09 12:51:18.978439$GNVTG,299.63,T,,M,2.06,N,3.82,K,A*29
###2023-12-09 12:51:18.980115$GNGST,175118.10,18.000,,,,0.078,0.068,0.160*52
###2023-12-09 12:51:18.981416$GNZDA,175118.10,09,12,2023,00,00*7B
###2023-12-09 12:51:18.982059$GNEBP,,,,,,M*13
###2023-12-09 12:51:19.149051$GNGGA,175118.30,4138.0555899,N,07032.3797320,W,1,24,0.6,13.519,M,-29.744,M,0.0,*56
###2023-12-09 12:51:19.350237$GNGGA,175118.50,4138.0556362,N,07032.3798551,W,1,24,0.6,13.519,M,-29.744,M,0.0,*53
###2023-12-09 12:51:19.556779$GNGGA,175118.70,4138.0556802,N,07032.3799719,W,1,24,0.6,13.509,M,-29.744,M,0.0,*52
###2023-12-09 12:51:19.751313$GNGGA,175118.90,4138.0557314,N,07032.3800753,W,1,24,0.6,13.509,M,-29.744,M,0.0,*50
###2023-12-09 12:51:19.951374$GNRMC,175119.10,A,4138.0557906,N,07032.3801595,W,1.56,316.74,091223,,,A*54
