###2023-12-09 12:32:37.960964$GNZDA,173237.10,09,12,2023,00,00*73
###2023-12-09 12:32:37.961632$GNEBP,,,,,,M*13
###2023-12-09 12:32:38.129702$GNGGA,173237.30,4138.0446865,N,07032.4285328,W,1,22,0.7,12.954,M,-29.745,M,0.0,*55
###2023-12-09 12:32:38.329628$GNGGA,173237.50,4138.0446754,N,07032.4285164,W,1,22,0.7,12.964,M,-29.745,M,0.0,*57
###2023-12-09 12:32:38.529602$GNGGA,173237.70,4138.0446744,N,07032.4285206,W,1,22,0.7,12.960,M,-29.745,M,0.0,*57
###2023-12-09 12:32:38.729912$GNGGA,173237.90,4138.0446925,N,07032.4285569,W,1,22,0.7,12.955,M,-29.745,M,0.0,*58
###2023-12-09 12:32:38.932857$GNRMC,173238.10,A,4138.0447086,N,07032.4285876,W,0.19,316.77,091223,,,A*5B
###2023-12-09 12:32:38.935768$GNGGA,173238.10,4138.0447086,N,07032.4285876,W,1,22,0.7,12.941,M,-29.745,M,0.0,*58
###2023-12-09 12:32:38.937662$GPGSA,A,3,03,04,16,26,28,29,31,32,,,,,1.2,0.7,1.0*31
###2023-12-09 12:32:38.939356$GLGSA,A,3,71,72,73,74,75,,,,,,,,1.2,0.7,1.0*2D
###2023-12-09 12:32:38.940966$GAGSA,A,3,04,19,21,27,,,,,,,,,1.2,0.7,1.0*2C
###2023-12-09 12:32:38.942657$GBGSA,A,3,14,24,25,26,33,,,,,,,,1.2,0.7,1.0*25
###2023-12-09 12:32:38.945019$GPGSV,2,1,08,03,39,278,44,04,21,310,43,16,36,207,45,26,65,206,48*7D
###2023-12-09 12:32:38.947409$GPGSV,2,2,08,28,59,054,44,29,25,075,39,31,73,356,47,32,31,133,45*74
###2023-12-09 12:32:38.949783$GLGSV,2,1,05,71,58,169,48,72,65,311,48,73,49,033,45,74,71,287,44*63
###2023-12-09 12:32:38.951287$GLGSV,2,2,05,75,21,240,39,,,,,,,,,,,,*5D
###2023-12-09 12:32:38.953635$GAGSV,1,1,04,04,20,311,44,19,80,306,41,21,76,177,45,27,42,050,41*68
###2023-12-09 12:32:38.956005$GBGSV,2,1,05,14,56,198,44,24,81,339,49,25,32,252,46,26,36,057,45*63
###2023-12-09 12:32:38.957486$GBGSV,2,2,05,33,63,257,48,,,,,,,,,,,,*57
###2023-12-09 12:32:38.958849$GNVTG,316.77,T,,M,0.19,N,0.36,K,A*2A
###2023-12-09 12:32:38.960520$GNGST,173238.10,17.000,,,,0.140,0.120,0.230*5B
###2023-12-09 12:32:38.961828$GNZDA,173238.10,09,12,2023,00,00*7C
###2023-12-09 12:32:38.962482$GNEBP,,,,,,M*13
###2023-12-09 12:32:39.133559$GNGGA,173238.30,4138.0447059,N,07032.4285832,W,1,22,0.7,12.945,M,-29.745,M,0.0,*5C
###2023-12-09 12:32:39.332842$GNGGA,173238.50,4138.0446976,N,07032.4285724,W,1,22,0.7,12.949,M,-29.745,M,0.0,*5B
###2023-12-09 12:32:39.530829$GNGGA,173238.70,4138.0447053,N,07032.4285898,W,1,22,0.7,12.956,M,-29.745,M,0.0,*50
###2023-12-09 12:32:39.732364$GNGGA,173238.90,4138.0447227,N,07032.4286247,W,1,22,0.7,12.949,M,-29.745,M,0.0,*5A
###2023-12-09 12:32:39.930364$GNRMC,173239.10,A,4138.0447334,N,07032.4286432,W,0.08,316.77,091223,,,A*5F
###2023-12-09 12:32:39.933321$GNGGA,173239.10,4138.0447334,N,07032.4286432,W,1,22,0.7,12.941,M,-29.745,M,0.0,*5C
###2023-12-09 12:32:39.935240$GPGSA,A,3,03,04,16,26,28,29,31,32,,,,,1.2,0.7,1.0*31
###2023-12-09 12:32:39.936943$GLGSA,A,3,71,72,73,74,75,,,,,,,,1.2,0.7,1.0*2D
###2023-12-09 12:32:39.938583$GAGSA,A,3,04,19,21,27,,,,,,,,,1.2,0.7,1.0*2C
###2023-12-09 12:32:39.940278$GBGSA,A,3,14,24,25,26,33,,,,,,,,1.2,0.7,1.0*25
###2023-12-09 12:32:39.942815$GPGSV,2,1,08,03,39,278,43,04,21,310,44,16,36,207,46,26,65,206,48*7E
###2023-12-09 12:32:39.945406$GPGSV,2,2,08,28,59,054,45,29,25,075,39,31,73,356,47,32,31,133,44*74
###2023-12-09 12:32:39.947831$GLGSV,2,1,05,71,58,169,47,72,65,311,48,73,49,033,46,74,71,287,43*68
###2023-12-09 12:32:39.949344$GLGSV,2,2,05,75,21,240,37,,,,,,,,,,,,*53
###2023-12-09 12:32:39.951734$GAGSV,1,1,04,04,20,311,43,19,80,306,40,21,76,177,45,27,42,050,43*6C
###2023-12-09 12:32:39.954149$GBGSV,2,1,05,14,56,198,44,24,81,339,49,25,32,252,45,26,36,057,44*61
###2023-12-09 12:32:39.955675$GBGSV,2,2,05,33,63,257,48,,,,,,,,,,,,*57
###2023-12-09 12:32:39.957042$GNVTG,316.77,T,,M,0.08,N,0.14,K,A*2A
###2023-12-09 12:32:39.958753$GNGST,173239.10,17.000,,,,0.130,0.120,0.230*5D
###2023-12-09 12:32:39.960274$GNZDA,173239.10,09,12,2023,00,00*7D
###2023-12-09 12:32:39.961144$GNEBP,,,,,,M*13
###2023-12-09 12:32:40.130713$GNGGA,173239.30,4138.0447267,N,07032.4286326,W,1,22,0.7,12.944,M,-29.745,M,0.0,*5E
###2023-12-09 12:32:40.329412$GNGGA,173239.50,4138.0447215,N,07032.4286259,W,1,22,0.7,12.937,M,-29.745,M,0.0,*50
###2023-12-09 12:32:40.529501$GNGGA,173239.70,4138.0447348,N,07032.4286538,W,1,22,0.7,12.944,M,-29.745,M,0.0,*5F
###2023-12-09 12:32:40.727617$GNGGA,173239.90,4138.0447549,N,07032.4286922,W,1,21,0.7,12.946,M,-29.745,M,0.0,*50
###2023-12-09 12:32:40.935088$GNRMC,173240.10,A,4138.0447561,N,07032.4286913,W,0.33,316.77,091223,,,A*51
###2023-12-09 12:32:40.938026$GNGGA,173240.10,4138.0447561,N,07032.4286913,W,1,21,0.7,12.955,M,-29.745,M,0.0,*5C
###2023-12-09 12:32:40.939949$GPGSA,A,3,03,04,16,26,28,29,31,32,,,,,1.3,0.7,1.1*31
###2023-12-09 12:32:40.941582$GLGSA,A,3,71,72,73,74,,,,,,,,,1.3,0.7,1.1*2F
###2023-12-09 12:32:40.943221$GAGSA,A,3,04,19,21,27,,,,,,,,,1.3,0.7,1.1*2C
###2023-12-09 12:32:40.944945$GBGSA,A,3,14,24,25,26,33,,,,,,,,1.3,0.7,1.1*25
###2023-12-09 12:32:40.947336$GPGSV,2,1,08,03,39,278,43,04,21,310,43,16,36,207,44,26,65,206,47*74
###2023-12-09 12:32:40.949721$GPGSV,2,2,08,28,59,054,44,29,25,075,39,31,73,356,47,32,31,133,43*72
###2023-12-09 12:32:40.952130$GLGSV,1,1,04,71,58,169,48,72,65,311,47,73,49,033,45,74,71,287,43*69
###2023-12-09 12:32:40.954520$GAGSV,1,1,04,04,20,311,43,19,80,306,41,21,76,177,45,27,42,050,41*6F
###2023-12-09 12:32:40.956918$GBGSV,2,1,05,14,56,198,45,24,81,339,49,25,32,252,45,26,36,057,45*61
###2023-12-09 12:32:40.958425$GBGSV,2,2,05,33,63,257,49,,,,,,,,,,,,*56
###2023-12-09 12:32:40.959807$GNVTG,316.77,T,,M,0.33,N,0.61,K,A*20
###2023-12-09 12:32:40.961504$GNGST,173240.10,18.000,,,,0.130,0.120,0.230*5C
###2023-12-09 12:32:40.962853$GNZDA,173240.10,09,12,2023,00,00*73
###2023-12-09 12:32:40.963539$GNEBP,,,,,,M*13
###2023-12-09 12:32:41.129338$GNGGA,173240.30,4138.0447453,N,07032.4286735,W,1,21,0.7,12.949,M,-29.745,M,0.0,*59
###2023-12-09 12:32:41.329009$GNGGA,173240.50,4138.0447512,N,07032.4286871,W,1,21,0.7,12.948,M,-29.745,M,0.0,*55
###2023-12-09 12:32:41.528402$GNGGA,173240.70,4138.0447765,N,07032.4287299,W,1,21,0.7,12.952,M,-29.745,M,0.0,*53
###2023-12-09 12:32:41.728499$GNGGA,173240.90,4138.0447855,N,07032.4287479,W,1,21,0.7,12.947,M,-29.745,M,0.0,*5D
###2023-12-09 12:32:41.929145$GNRMC,173241.10,A,4138.0447758,N,07032.4287293,W,0.31,316.77,091223,,,A*58
###2023-12-09 12:32:41.932304$GNGGA,173241.10,4138.0447758,N,07032.4287293,W,1,21,0.7,12.957,M,-29.745,M,0.0,*55
###2023-12-09 12:32:41.934390$GPGSA,A,3,03,04,16,26,28,29,31,32,,,,,1.3,0.7,1.1*31
###2023-12-09 12:32:41.936197$GLGSA,A,3,71,72,73,74,,,,,,,,,1.3,0.7,1.1*2F
###2023-12-09 12:32:41.938015$GAGSA,A,3,04,19,21,27,,,,,,,,,1.3,0.7,1.1*2C
###2023-12-09 12:32:41.939891$GBGSA,A,3,14,24,25,26,33,,,,,,,,1.3,0.7,1.1*25
###2023-12-09 12:32:41.942428$GPGSV,2,1,08,03,39,278,44,04,21,310,43,16,36,207,44,26,65,206,48*7C
###2023-12-09 12:32:41.944973$GPGSV,2,2,08,28,59,054,44,29,25,075,39,31,73,356,46,32,31,133,45*75
###2023-12-09 12:32:41.947387$GLGSV,1,1,04,71,58,169,47,72,65,311,46,73,49,033,46,74,71,287,43*64
###2023-12-09 12:32:41.949783$GAGSV,1,1,04,04,20,311,43,19,80,306,41,21,76,177,47,27,42,050,43*6F
###2023-12-09 12:32:41.952198$GBGSV,2,1,05,14,56,198,44,24,81,339,49,25,32,252,45,26,36,057,44*61
###2023-12-09 12:32:41.953703$GBGSV,2,2,05,33,63,257,49,,,,,,,,,,,,*56
###2023-12-09 12:32:41.955089$GNVTG,316.77,T,,M,0.31,N,0.58,K,A*28
###2023-12-09 12:32:41.956783$GNGST,173241.10,18.000,,,,0.130,0.110,0.230*5E
###2023-12-09 12:32:41.958117$GNZDA,173241.10,09,12,2023,00,00*72
###2023-12-09 12:32:41.958816$GNEBP,,,,,,M*13
###2023-12-09 12:32:42.128378$GNGGA,173241.30,4138.0447758,N,07032.4287278,W,1,21,0.7,12.962,M,-29.745,M,0.0,*54
###2023-12-09 12:32:42.328419$GNGGA,173241.50,4138.0447939,N,07032.4287607,W,1,21,0.7,12.966,M,-29.745,M,0.0,*53
###2023-12-09 12:32:42.529376$GNGGA,173241.70,4138.0448070,N,07032.4287894,W,1,22,0.7,12.955,M,-29.745,M,0.0,*5D
###2023-12-09 12:32:42.728385$GNGGA,173241.90,4138.0448070,N,07032.4287885,W,1,22,0.7,12.956,M,-29.745,M,0.0,*50
###2023-12-09 12:32:42.932674$GNRMC,173242.10,A,4138.0448060,N,07032.4287819,W,0.04,316.77,091223,,,A*56
###2023-12-09 12:32:42.936474$GNGGA,173242.10,4138.0448060,N,07032.4287819,W,1,22,0.7,12.974,M,-29.745,M,0.0,*5F
###2023-12-09 12:32:42.939306$GPGSA,A,3,03,04,16,26,28,29,31,32,,,,,1.2,0.7,1.0*31
###2023-12-09 12:32:42.941815$GLGSA,A,3,71,72,73,74,75,,,,,,,,1.2,0.7,1.0*2D
###2023-12-09 12:32:42.944000$GAGSA,A,3,04,19,21,27,,,,,,,,,1.2,0.7,1.0*2C
###2023-12-09 12:32:42.946246$GBGSA,A,3,14,24,25,26,33,,,,,,,,1.2,0.7,1.0*25
###2023-12-09 12:32:42.949373$GPGSV,2,1,08,03,39,278,43,04,21,310,43,16,36,207,46,26,65,206,47*76
###2023-12-09 12:32:42.952714$GPGSV,2,2,08,28,59,054,45,29,25,075,39,31,73,356,47,32,31,133,45*75
###2023-12-09 12:32:42.955824$GLGSV,2,1,05,71,58,169,48,72,65,311,47,73,49,033,47,74,71,287,43*69
###2023-12-09 12:32:42.957836$GLGSV,2,2,05,75,21,240,36,,,,,,,,,,,,*52
###2023-12-09 12:32:42.960912$GAGSV,1,1,04,04,20,311,43,19,80,306,42,21,76,177,46,27,42,050,41*6F
###2023-12-09 12:32:42.964006$GBGSV,2,1,05,14,56,198,44,24,81,339,48,25,32,252,45,26,36,057,44*60
