###2023-12-09 12:38:18.946176$GPGSA,A,3,03,04,16,26,28,29,31,32,,,,,1.2,0.7,1.0*31
###2023-12-09 12:38:18.947888$GLGSA,A,3,71,72,73,74,75,,,,,,,,1.2,0.7,1.0*2D
###2023-12-09 12:38:18.949490$GAGSA,A,3,04,19,21,27,,,,,,,,,1.2,0.7,1.0*2C
###2023-12-09 12:38:18.951159$GBGSA,A,3,14,24,25,26,33,,,,,,,,1.2,0.7,1.0*25
###2023-12-09 12:38:18.953495$GPGSV,2,1,08,03,38,275,46,04,23,311,43,16,38,208,45,26,68,207,48*7D
###2023-12-09 12:38:18.955841$GPGSV,2,2,08,28,57,058,44,29,25,072,41,31,73,007,46,32,28,135,42*71
###2023-12-09 12:38:18.958181$GLGSV,2,1,05,71,55,169,47,72,67,307,47,73,46,034,46,74,71,296,43*67
###2023-12-09 12:38:18.959661$GLGSV,2,2,05,75,23,242,43,,,,,,,,,,,,*50
###2023-12-09 12:38:18.961994$GAGSV,1,1,04,04,21,311,41,19,82,299,40,21,78,175,46,27,41,049,44*69
###2023-12-09 12:38:18.964352$GBGSV,2,1,05,14,54,197,46,24,80,351,48,25,33,253,45,26,34,058,45*6C
###2023-12-09 12:38:18.965810$GBGSV,2,2,05,33,63,252,48,,,,,,,,,,,,*52
###2023-12-09 12:38:18.967148$GNVTG,104.46,T,,M,2.49,N,4.61,K,A*28
###2023-12-09 12:38:18.968802$GNGST,173818.10,18.000,,,,0.081,0.070,0.170*53
###2023-12-09 12:38:18.970092$GNZDA,173818.10,09,12,2023,00,00*74
###2023-12-09 12:38:18.970743$GNEBP,,,,,,M*13
###2023-12-09 12:38:19.139288$GNGGA,173818.30,4138.0593960,N,07032.3835948,W,1,23,0.7,13.517,M,-29.744,M,0.0,*5F
###2023-12-09 12:38:19.339295$GNGGA,173818.50,4138.0593620,N,07032.3833912,W,1,23,0.7,13.504,M,-29.744,M,0.0,*59
###2023-12-09 12:38:19.539524$GNGGA,173818.70,4138.0593173,N,07032.3832142,W,1,23,0.7,13.493,M,-29.744,M,0.0,*59
###2023-12-09 12:38:19.737679$GNGGA,173818.90,4138.0592575,N,07032.3830358,W,1,23,0.7,13.503,M,-29.744,M,0.0,*57
###2023-12-09 12:38:19.940067$GNRMC,173819.10,A,4138.0592012,N,07032.3828491,W,2.60,110.53,091223,,,A*57
###2023-12-09 12:38:19.942947$GNGGA,173819.10,4138.0592012,N,07032.3828491,W,1,23,0.7,13.500,M,-29.744,M,0.0,*52
###2023-12-09 12:38:19.944817$GPGSA,A,3,03,04,16,26,28,29,31,32,,,,,1.2,0.7,1.0*31
###2023-12-09 12:38:19.946481$GLGSA,A,3,71,72,73,74,75,,,,,,,,1.2,0.7,1.0*2D
###2023-12-09 12:38:19.948105$GAGSA,A,3,04,19,21,27,,,,,,,,,1.2,0.7,1.0*2C
###2023-12-09 12:38:19.949760$GBGSA,A,3,14,24,25,26,33,,,,,,,,1.2,0.7,1.0*25
###2023-12-09 12:38:19.952109$GPGSV,2,1,08,03,38,275,44,04,23,311,41,16,38,208,45,26,68,207,48*7D
###2023-12-09 12:38:19.954456$GPGSV,2,2,08,28,57,058,44,29,25,072,43,31,73,007,47,32,28,135,43*73
###2023-12-09 12:38:19.956836$GLGSV,2,1,05,71,55,169,47,72,67,307,48,73,46,034,47,74,71,296,43*69
###2023-12-09 12:38:19.958291$GLGSV,2,2,05,75,23,242,44,,,,,,,,,,,,*57
###2023-12-09 12:38:19.960634$GAGSV,1,1,04,04,21,311,41,19,82,299,40,21,78,175,45,27,41,049,42*6C
###2023-12-09 12:38:19.962982$GBGSV,2,1,05,14,54,197,46,24,80,351,49,25,33,253,45,26,34,058,45*6D
###2023-12-09 12:38:19.964444$GBGSV,2,2,05,33,63,252,49,,,,,,,,,,,,*53
###2023-12-09 12:38:19.965767$GNVTG,110.53,T,,M,2.60,N,4.82,K,A*2F
###2023-12-09 12:38:19.967433$GNGST,173819.10,19.000,,,,0.081,0.070,0.170*53
###2023-12-09 12:38:19.968728$GNZDA,173819.10,09,12,2023,00,00*75
###2023-12-09 12:38:19.969367$GNEBP,,,,,,M*13
###2023-12-09 12:38:20.139162$GNGGA,173819.30,4138.0591405,N,07032.3826712,W,1,23,0.7,13.495,M,-29.744,M,0.0,*5A
###2023-12-09 12:38:20.339173$GNGGA,173819.50,4138.0590606,N,07032.3825000,W,1,23,0.7,13.494,M,-29.744,M,0.0,*5A
###2023-12-09 12:38:20.543931$GNGGA,173819.70,4138.0589659,N,07032.3823339,W,1,23,0.7,13.490,M,-29.744,M,0.0,*51
###2023-12-09 12:38:20.738490$GNGGA,173819.90,4138.0588692,N,07032.3821739,W,1,23,0.7,13.484,M,-29.744,M,0.0,*5A
###2023-12-09 12:38:20.945050$GNRMC,173820.10,A,4138.0587735,N,07032.3819969,W,3.03,126.56,091223,,,A*57
###2023-12-09 12:38:20.947963$GNGGA,173820.10,4138.0587735,N,07032.3819969,W,1,23,0.7,13.488,M,-29.744,M,0.0,*57
###2023-12-09 12:38:20.949851$GPGSA,A,3,03,04,16,26,28,29,31,32,,,,,1.2,0.7,1.0*31
###2023-12-09 12:38:20.951524$GLGSA,A,3,71,72,73,74,75,,,,,,,,1.2,0.7,1.0*2D
###2023-12-09 12:38:20.953118$GAGSA,A,3,04,19,21,27,,,,,,,,,1.2,0.7,1.0*2C
###2023-12-09 12:38:20.954779$GBGSA,A,3,14,24,25,26,33,,,,,,,,1.2,0.7,1.0*25
###2023-12-09 12:38:20.957110$GPGSV,2,1,08,03,38,275,45,04,23,311,40,16,38,208,45,26,68,207,48*7D
###2023-12-09 12:38:20.959465$GPGSV,2,2,08,28,57,058,44,29,25,072,43,31,73,007,47,32,28,135,43*73
###2023-12-09 12:38:20.961814$GLGSV,2,1,05,71,55,169,47,72,67,307,46,73,46,034,47,74,71,296,43*67
###2023-12-09 12:38:20.963290$GLGSV,2,2,05,75,23,242,44,,,,,,,,,,,,*57
###2023-12-09 12:38:20.965632$GAGSV,1,1,04,04,21,311,41,19,82,299,40,21,78,175,45,27,41,049,44*6A
###2023-12-09 12:38:20.967989$GBGSV,2,1,05,14,54,197,45,24,80,351,49,25,33,253,45,26,34,058,45*6E
###2023-12-09 12:38:20.969452$GBGSV,2,2,05,33,63,252,49,,,,,,,,,,,,*53
###2023-12-09 12:38:20.970786$GNVTG,126.56,T,,M,3.03,N,5.62,K,A*24
###2023-12-09 12:38:20.972442$GNGST,173820.10,18.000,,,,0.081,0.069,0.160*51
###2023-12-09 12:38:20.973737$GNZDA,173820.10,09,12,2023,00,00*7F
###2023-12-09 12:38:20.974377$GNEBP,,,,,,M*13
###2023-12-09 12:38:21.139769$GNGGA,173820.30,4138.0586779,N,07032.3818211,W,1,23,0.7,13.476,M,-29.744,M,0.0,*58
###2023-12-09 12:38:21.340155$GNGGA,173820.50,4138.0585709,N,07032.3816519,W,1,23,0.7,13.480,M,-29.744,M,0.0,*52
###2023-12-09 12:38:21.541427$GNGGA,173820.70,4138.0584526,N,07032.3814833,W,1,23,0.7,13.482,M,-29.744,M,0.0,*5B
###2023-12-09 12:38:21.739322$GNGGA,173820.90,4138.0583518,N,07032.3813108,W,1,23,0.7,13.479,M,-29.744,M,0.0,*5D
###2023-12-09 12:38:21.939936$GNRMC,173821.10,A,4138.0582576,N,07032.3811244,W,3.17,123.89,091223,,,A*58
###2023-12-09 12:38:21.942825$GNGGA,173821.10,4138.0582576,N,07032.3811244,W,1,23,0.7,13.482,M,-29.744,M,0.0,*50
###2023-12-09 12:38:21.944685$GPGSA,A,3,03,04,16,26,28,29,31,32,,,,,1.2,0.7,1.0*31
###2023-12-09 12:38:21.946337$GLGSA,A,3,71,72,73,74,75,,,,,,,,1.2,0.7,1.0*2D
###2023-12-09 12:38:21.947968$GAGSA,A,3,04,19,21,27,,,,,,,,,1.2,0.7,1.0*2C
###2023-12-09 12:38:21.949630$GBGSA,A,3,14,24,25,26,33,,,,,,,,1.2,0.7,1.0*25
###2023-12-09 12:38:21.951973$GPGSV,2,1,08,03,38,275,44,04,23,311,42,16,38,208,43,26,68,207,48*78
###2023-12-09 12:38:21.954313$GPGSV,2,2,08,28,57,058,44,29,25,072,43,31,73,007,47,32,28,135,43*73
###2023-12-09 12:38:21.956666$GLGSV,2,1,05,71,55,169,47,72,67,307,46,73,46,034,48,74,71,296,43*68
###2023-12-09 12:38:21.958120$GLGSV,2,2,05,75,23,242,44,,,,,,,,,,,,*57
###2023-12-09 12:38:21.960465$GAGSV,1,1,04,04,22,311,42,19,82,299,40,21,78,175,45,27,41,049,43*6D
###2023-12-09 12:38:21.962822$GBGSV,2,1,05,14,54,197,45,24,80,351,49,25,33,253,45,26,34,058,45*6E
###2023-12-09 12:38:21.964281$GBGSV,2,2,05,33,63,252,48,,,,,,,,,,,,*52
###2023-12-09 12:38:21.965607$GNVTG,123.89,T,,M,3.17,N,5.87,K,A*2D
###2023-12-09 12:38:21.967268$GNGST,173821.10,18.000,,,,0.080,0.069,0.160*51
###2023-12-09 12:38:21.968560$GNZDA,173821.10,09,12,2023,00,00*7E
###2023-12-09 12:38:21.969198$GNEBP,,,,,,M*13
###2023-12-09 12:38:22.141087$GNGGA,173821.30,4138.0581540,N,07032.3809383,W,1,23,0.7,13.473,M,-29.744,M,0.0,*59
###2023-12-09 12:38:22.341194$GNGGA,173821.50,4138.0580532,N,07032.3807558,W,1,23,0.7,13.481,M,-29.744,M,0.0,*58
###2023-12-09 12:38:22.541217$GNGGA,173821.70,4138.0579563,N,07032.3805652,W,1,23,0.7,13.488,M,-29.744,M,0.0,*5A
###2023-12-09 12:38:22.739712$GNGGA,173821.90,4138.0578710,N,07032.3803619,W,1,23,0.7,13.482,M,-29.744,M,0.0,*50
###2023-12-09 12:38:22.940051$GNRMC,173822.10,A,4138.0577920,N,07032.3801593,W,3.11,118.00,091223,,,A*5D
###2023-12-09 12:38:22.942943$GNGGA,173822.10,4138.0577920,N,07032.3801593,W,1,23,0.7,13.474,M,-29.744,M,0.0,*53
###2023-12-09 12:38:22.944817$GPGSA,A,3,03,04,16,26,28,29,31,32,,,,,1.2,0.7,1.0*31
###2023-12-09 12:38:22.946480$GLGSA,A,3,71,72,73,74,75,,,,,,,,1.2,0.7,1.0*2D
###2023-12-09 12:38:22.948097$GAGSA,A,3,04,19,21,27,,,,,,,,,1.2,0.7,1.0*2C
###2023-12-09 12:38:22.949753$GBGSA,A,3,14,24,25,26,33,,,,,,,,1.2,0.7,1.0*25
###2023-12-09 12:38:22.952104$GPGSV,2,1,08,03,38,275,46,04,23,311,42,16,38,208,45,26,68,207,48*7C
###2023-12-09 12:38:22.954448$GPGSV,2,2,08,28,57,058,45,29,25,072,42,31,73,007,47,32,28,135,42*72
###2023-12-09 12:38:22.956818$GLGSV,2,1,05,71,55,169,46,72,67,307,46,73,46,034,47,74,71,296,43*66
###2023-12-09 12:38:22.958291$GLGSV,2,2,05,75,23,242,42,,,,,,,,,,,,*51
###2023-12-09 12:38:22.960911$GAGSV,1,1,04,04,22,311,43,19,82,299,40,21,78,175,45,27,41,049,44*6B
###2023-12-09 12:38:22.963276$GBGSV,2,1,05,14,54,197,45,24,80,351,48,25,33,253,45,26,34,058,45*6F
###2023-12-09 12:38:22.964752$GBGSV,2,2,05,33,63,252,49,,,,,,,,,,,,*53
###2023-12-09 12:38:22.966084$GNVTG,118.00,T,,M,3.11,N,5.76,K,A*2C
###2023-12-09 12:38:22.967762$GNGST,173822.10,19.000,,,,0.080,0.069,0.160*53
###2023-12-09 12:38:22.969068$GNZDA,173822.10,09,12,2023,00,00*7D
###2023-12-09 12:38:22.969710$GNEBP,,,,,,M*13
###2023-12-09 12:38:23.140241$GNGGA,173822.30,4138.0577155,N,07032.3799571,W,1,23,0.7,13.482,M,-29.744,M,0.0,*50
