###2023-12-09 12:27:48.718281$GNGGA,172747.90,4138.0392142,N,07032.4358694,W,1,17,0.8,6.531,M,-29.746,M,0.0,*6D
###2023-12-09 12:27:48.921764$GNRMC,172748.10,A,4138.0392129,N,07032.4358617,W,0.04,,091223,,,A*4D
###2023-12-09 12:27:48.924902$GNGGA,172748.10,4138.0392129,N,07032.4358617,W,1,17,0.8,6.552,M,-29.746,M,0.0,*69
###2023-12-09 12:27:48.926776$GPGSA,A,3,03,16,26,28,29,31,32,,,,,,1.5,0.8,1.3*3E
###2023-12-09 12:27:48.928410$GLGSA,A,3,71,72,73,75,,,,,,,,,1.5,0.8,1.3*25
###2023-12-09 12:27:48.929900$GAGSA,A,3,21,27,,,,,,,,,,,1.5,0.8,1.3*2B
###2023-12-09 12:27:48.931530$GBGSA,A,3,14,25,26,33,,,,,,,,,1.5,0.8,1.3*28
###2023-12-09 12:27:48.933894$GPGSV,2,1,07,03,39,281,40,16,33,206,43,26,62,205,41,28,60,051,42*73
###2023-12-09 12:27:48.935984$GPGSV,2,2,07,29,24,078,42,31,73,348,43,32,33,132,46,,,,*47
###2023-12-09 12:27:48.938350$GLGSV,1,1,04,71,60,168,47,72,63,315,44,73,51,031,48,75,19,238,41*62
###2023-12-09 12:27:48.940156$GAGSV,1,1,02,21,75,179,41,27,44,050,46,,,,,,,,*63
###2023-12-09 12:27:48.942523$GBGSV,1,1,04,14,58,200,46,25,30,250,36,26,37,056,48,33,64,261,40*6D
###2023-12-09 12:27:48.943899$GNVTG,,T,,M,0.04,N,0.07,K,A*3E
###2023-12-09 12:27:48.945594$GNGST,172748.10,32.000,,,,0.100,0.096,0.260*52
###2023-12-09 12:27:48.946957$GNZDA,172748.10,09,12,2023,00,00*7F
###2023-12-09 12:27:48.947658$GNEBP,,,,,,M*13
###2023-12-09 12:27:49.119104$GNGGA,172748.30,4138.0392129,N,07032.4358552,W,1,17,0.8,6.562,M,-29.746,M,0.0,*6A
###2023-12-09 12:27:49.320090$GNGGA,172748.50,4138.0392122,N,07032.4358481,W,1,17,0.8,6.573,M,-29.746,M,0.0,*68
###2023-12-09 12:27:49.519966$GNGGA,172748.70,4138.0392114,N,07032.4358395,W,1,17,0.8,6.586,M,-29.746,M,0.0,*67
###2023-12-09 12:27:49.718980$GNGGA,172748.90,4138.0392106,N,07032.4358327,W,1,17,0.8,6.593,M,-29.746,M,0.0,*67
###2023-12-09 12:27:49.922429$GNRMC,172749.10,A,4138.0392100,N,07032.4358261,W,0.00,,091223,,,A*46
###2023-12-09 12:27:49.925930$GNGGA,172749.10,4138.0392100,N,07032.4358261,W,1,17,0.8,6.606,M,-29.746,M,0.0,*64
###2023-12-09 12:27:49.928166$GPGSA,A,3,03,16,26,28,29,31,32,,,,,,1.5,0.8,1.3*3E
###2023-12-09 12:27:49.930131$GLGSA,A,3,71,72,73,75,,,,,,,,,1.5,0.8,1.3*25
###2023-12-09 12:27:49.931959$GAGSA,A,3,21,27,,,,,,,,,,,1.5,0.8,1.3*2B
###2023-12-09 12:27:49.934135$GBGSA,A,3,14,25,26,33,,,,,,,,,1.5,0.8,1.3*28
###2023-12-09 12:27:49.937025$GPGSV,2,1,07,03,39,281,41,16,33,206,43,26,62,205,41,28,60,051,42*72
###2023-12-09 12:27:49.939553$GPGSV,2,2,07,29,24,078,42,31,73,348,43,32,33,132,45,,,,*44
###2023-12-09 12:27:49.942420$GLGSV,1,1,04,71,60,168,47,72,63,315,44,73,51,031,48,75,19,238,41*62
###2023-12-09 12:27:49.944599$GAGSV,1,1,02,21,75,179,41,27,44,050,46,,,,,,,,*63
###2023-12-09 12:27:49.947704$GBGSV,1,1,04,14,58,200,45,25,30,250,36,26,37,056,48,33,64,261,40*6E
###2023-12-09 12:27:49.949429$GNVTG,,T,,M,0.00,N,0.00,K,A*3D
###2023-12-09 12:27:49.951500$GNGST,172749.10,32.000,,,,0.100,0.096,0.260*53
###2023-12-09 12:27:49.953112$GNZDA,172749.10,09,12,2023,00,00*7E
###2023-12-09 12:27:49.953934$GNEBP,,,,,,M*13
###2023-12-09 12:27:50.119963$GNGGA,172749.30,4138.0392092,N,07032.4358191,W,1,17,0.8,6.620,M,-29.746,M,0.0,*64
###2023-12-09 12:27:50.321437$GNGGA,172749.50,4138.0392077,N,07032.4358122,W,1,17,0.8,6.638,M,-29.746,M,0.0,*68
###2023-12-09 12:27:50.521070$GNGGA,172749.70,4138.0392064,N,07032.4358047,W,1,17,0.8,6.653,M,-29.746,M,0.0,*67
###2023-12-09 12:27:50.719554$GNGGA,172749.90,4138.0392060,N,07032.4357971,W,1,17,0.8,6.667,M,-29.746,M,0.0,*69
###2023-12-09 12:27:50.923580$GNRMC,172750.10,A,4138.0392054,N,07032.4357902,W,0.04,,091223,,,A*4B
###2023-12-09 12:27:50.927083$GNGGA,172750.10,4138.0392054,N,07032.4357902,W,1,17,0.8,6.686,M,-29.746,M,0.0,*65
###2023-12-09 12:27:50.929292$GPGSA,A,3,03,16,26,28,29,31,32,,,,,,1.5,0.8,1.3*3E
###2023-12-09 12:27:50.931279$GLGSA,A,3,71,72,73,75,,,,,,,,,1.5,0.8,1.3*25
###2023-12-09 12:27:50.933066$GAGSA,A,3,21,27,,,,,,,,,,,1.5,0.8,1.3*2B
###2023-12-09 12:27:50.935020$GBGSA,A,3,14,25,26,33,,,,,,,,,1.5,0.8,1.3*28
###2023-12-09 12:27:50.937841$GPGSV,2,1,07,03,39,281,41,16,33,206,43,26,62,205,41,28,60,051,42*72
###2023-12-09 12:27:50.940375$GPGSV,2,2,07,29,24,078,42,31,73,348,42,32,33,132,45,,,,*45
###2023-12-09 12:27:50.943232$GLGSV,1,1,04,71,60,168,47,72,63,315,44,73,51,031,48,75,19,238,42*61
###2023-12-09 12:27:50.945380$GAGSV,1,1,02,21,75,179,41,27,44,050,46,,,,,,,,*63
###2023-12-09 12:27:50.948262$GBGSV,1,1,04,14,58,200,45,25,30,250,36,26,37,056,48,33,64,261,40*6E
###2023-12-09 12:27:50.949696$GNVTG,,T,,M,0.04,N,0.07,K,A*3E
###2023-12-09 12:27:50.951742$GNGST,172750.10,32.000,,,,0.100,0.096,0.260*5B
###2023-12-09 12:27:50.953343$GNZDA,172750.10,09,12,2023,00,00*76
###2023-12-09 12:27:50.954130$GNEBP,,,,,,M*13
###2023-12-09 12:27:51.121822$GNGGA,172750.30,4138.0392048,N,07032.4357838,W,1,17,0.8,6.700,M,-29.746,M,0.0,*6D
###2023-12-09 12:27:51.320950$GNGGA,172750.50,4138.0392028,N,07032.4357775,W,1,17,0.8,6.717,M,-29.746,M,0.0,*6D
###2023-12-09 12:27:51.521978$GNGGA,172750.70,4138.0392010,N,07032.4357702,W,1,17,0.8,6.728,M,-29.746,M,0.0,*68
###2023-12-09 12:27:51.720625$GNGGA,172750.90,4138.0391985,N,07032.4357638,W,1,17,0.8,6.741,M,-29.746,M,0.0,*67
###2023-12-09 12:27:51.919388$GNRMC,172751.10,A,4138.0391957,N,07032.4357563,W,0.06,,091223,,,A*4A
###2023-12-09 12:27:51.922394$GNGGA,172751.10,4138.0391957,N,07032.4357563,W,1,17,0.8,6.754,M,-29.746,M,0.0,*68
###2023-12-09 12:27:51.924393$GPGSA,A,3,03,16,26,28,29,31,32,,,,,,1.5,0.8,1.3*3E
###2023-12-09 12:27:51.926162$GLGSA,A,3,71,72,73,75,,,,,,,,,1.5,0.8,1.3*25
###2023-12-09 12:27:51.927808$GAGSA,A,3,21,27,,,,,,,,,,,1.5,0.8,1.3*2B
###2023-12-09 12:27:51.929561$GBGSA,A,3,14,25,26,33,,,,,,,,,1.5,0.8,1.3*28
###2023-12-09 12:27:51.932074$GPGSV,2,1,07,03,39,281,40,16,33,206,43,26,62,205,41,28,60,051,42*73
###2023-12-09 12:27:51.934300$GPGSV,2,2,07,29,24,078,41,31,73,348,42,32,33,132,45,,,,*46
###2023-12-09 12:27:51.936813$GLGSV,1,1,04,71,60,168,46,72,63,315,44,73,51,031,48,75,19,238,41*63
###2023-12-09 12:27:51.938752$GAGSV,1,1,02,21,75,179,41,27,44,050,46,,,,,,,,*63
###2023-12-09 12:27:51.941244$GBGSV,1,1,04,14,58,200,46,25,30,250,36,26,37,056,48,33,64,261,41*6C
###2023-12-09 12:27:51.942545$GNVTG,,T,,M,0.06,N,0.11,K,A*3B
###2023-12-09 12:27:51.944369$GNGST,172751.10,32.000,,,,0.100,0.096,0.260*5A
###2023-12-09 12:27:51.945681$GNZDA,172751.10,09,12,2023,00,00*77
###2023-12-09 12:27:51.946343$GNEBP,,,,,,M*13
###2023-12-09 12:27:52.120547$GNGGA,172751.30,4138.0391923,N,07032.4357491,W,1,17,0.8,6.778,M,-29.746,M,0.0,*6B
###2023-12-09 12:27:52.321394$GNGGA,172751.50,4138.0391896,N,07032.4357401,W,1,17,0.8,6.803,M,-29.746,M,0.0,*68
###2023-12-09 12:27:52.519059$GNGGA,172751.70,4138.0391882,N,07032.4357344,W,1,17,0.8,6.832,M,-29.746,M,0.0,*6B
###2023-12-09 12:27:52.718233$GNGGA,172751.90,4138.0391860,N,07032.4357269,W,1,17,0.8,6.855,M,-29.746,M,0.0,*66
###2023-12-09 12:27:52.922549$GNRMC,172752.10,A,4138.0391843,N,07032.4357200,W,0.02,,091223,,,A*4B
###2023-12-09 12:27:52.925591$GNGGA,172752.10,4138.0391843,N,07032.4357200,W,1,17,0.8,6.877,M,-29.746,M,0.0,*63
###2023-12-09 12:27:52.927594$GPGSA,A,3,03,16,26,28,29,31,32,,,,,,1.5,0.8,1.3*3E
###2023-12-09 12:27:52.929351$GLGSA,A,3,71,72,73,75,,,,,,,,,1.5,0.8,1.3*25
###2023-12-09 12:27:52.930988$GAGSA,A,3,21,27,,,,,,,,,,,1.5,0.8,1.3*2B
###2023-12-09 12:27:52.932741$GBGSA,A,3,14,25,26,33,,,,,,,,,1.5,0.8,1.3*28
###2023-12-09 12:27:52.935247$GPGSV,2,1,07,03,39,281,40,16,33,206,43,26,62,205,41,28,60,051,42*73
###2023-12-09 12:27:52.937440$GPGSV,2,2,07,29,24,078,41,31,73,348,42,32,33,132,45,,,,*46
###2023-12-09 12:27:52.939948$GLGSV,1,1,04,71,60,168,46,72,63,315,44,73,51,031,48,75,19,238,41*63
###2023-12-09 12:27:52.941867$GAGSV,1,1,02,21,75,179,41,27,44,050,46,,,,,,,,*63
###2023-12-09 12:27:52.944383$GBGSV,1,1,04,14,58,200,46,25,30,250,36,26,37,056,49,33,64,261,41*6D
###2023-12-09 12:27:52.945690$GNVTG,,T,,M,0.02,N,0.04,K,A*3B
###2023-12-09 12:27:52.947521$GNGST,172752.10,32.000,,,,0.100,0.096,0.260*59
###2023-12-09 12:27:52.949024$GNZDA,172752.10,09,12,2023,00,00*74
###2023-12-09 12:27:52.949845$GNEBP,,,,,,M*13
###2023-12-09 12:27:53.120007$GNGGA,172752.30,4138.0391814,N,07032.4357109,W,1,17,0.8,6.907,M,-29.746,M,0.0,*6F
###2023-12-09 12:27:53.320097$GNGGA,172752.50,4138.0391795,N,07032.4357038,W,1,17,0.8,6.936,M,-29.746,M,0.0,*6E
###2023-12-09 12:27:53.520297$GNGGA,172752.70,4138.0391762,N,07032.4356945,W,1,17,0.8,6.968,M,-29.746,M,0.0,*6D
###2023-12-09 12:27:53.718815$GNGGA,172752.90,4138.0391746,N,07032.4356864,W,1,17,0.8,7.004,M,-29.746,M,0.0,*65
###2023-12-09 12:27:53.922078$GNRMC,172753.10,A,4138.0391710,N,07032.4356768,W,0.06,,091223,,,A*4D
###2023-12-09 12:27:53.925712$GNGGA,172753.10,4138.0391710,N,07032.4356768,W,1,17,0.8,7.033,M,-29.746,M,0.0,*68
###2023-12-09 12:27:53.927906$GPGSA,A,3,03,16,26,28,29,31,32,,,,,,1.5,0.8,1.3*3E
###2023-12-09 12:27:53.929850$GLGSA,A,3,71,72,73,75,,,,,,,,,1.5,0.8,1.3*25
