###2023-12-09 13:22:55.004510$GPGSV,2,1,07,03,30,252,41,04,41,310,45,16,60,218,45,26,90,099,48*75
###2023-12-09 13:22:55.006589$GPGSV,2,2,07,28,42,080,44,29,23,052,39,31,63,057,46,,,,*4A
###2023-12-09 13:22:55.008937$GLGSV,2,1,06,65,34,323,43,71,29,175,43,72,68,232,46,73,27,049,41*6B
###2023-12-09 13:22:55.010740$GLGSV,2,2,06,74,63,004,43,75,40,265,47,,,,,,,,*62
###2023-12-09 13:22:55.013067$GAGSV,1,1,04,04,36,311,44,19,77,186,40,21,81,054,46,27,26,049,40*6C
###2023-12-09 13:22:55.015410$GBGSV,2,1,06,14,34,191,43,24,66,040,49,25,47,271,48,26,19,068,44*63
###2023-12-09 13:22:55.017204$GBGSV,2,2,06,33,50,221,47,35,16,061,44,,,,,,,,*6C
###2023-12-09 13:22:55.018529$GNVTG,185.95,T,,M,3.71,N,6.88,K,A*20
###2023-12-09 13:22:55.020192$GNGST,182254.10,18.000,,,,0.100,0.069,0.160*5E
###2023-12-09 13:22:55.021481$GNZDA,182254.10,09,12,2023,00,00*78
###2023-12-09 13:22:55.022117$GNEBP,,,,,,M*13
###2023-12-09 13:22:55.187461$GNGGA,182254.30,4138.0436241,N,07032.3614447,W,1,24,0.7,12.930,M,-29.744,M,0.0,*55
###2023-12-09 13:22:55.387455$GNGGA,182254.50,4138.0434222,N,07032.3614307,W,1,24,0.7,12.894,M,-29.744,M,0.0,*58
###2023-12-09 13:22:55.587225$GNGGA,182254.70,4138.0432319,N,07032.3614481,W,1,24,0.7,12.913,M,-29.744,M,0.0,*52
###2023-12-09 13:22:55.787311$GNGGA,182254.90,4138.0430294,N,07032.3614915,W,1,24,0.7,12.941,M,-29.744,M,0.0,*5D
###2023-12-09 13:22:55.992396$GNRMC,182255.10,A,4138.0428323,N,07032.3614880,W,3.32,176.15,091223,,,A*53
###2023-12-09 13:22:55.995259$GNGGA,182255.10,4138.0428323,N,07032.3614880,W,1,24,0.7,12.886,M,-29.744,M,0.0,*57
###2023-12-09 13:22:55.997047$GPGSA,A,3,03,04,16,26,28,29,31,,,,,,1.1,0.7,0.9*3B
###2023-12-09 13:22:55.998767$GLGSA,A,3,65,71,72,73,74,75,,,,,,,1.1,0.7,0.9*25
###2023-12-09 13:22:56.000340$GAGSA,A,3,04,19,21,27,,,,,,,,,1.1,0.7,0.9*27
###2023-12-09 13:22:56.002034$GBGSA,A,3,14,24,25,26,33,35,,,,,,,1.1,0.7,0.9*28
###2023-12-09 13:22:56.004355$GPGSV,2,1,07,03,30,252,42,04,41,310,44,16,60,218,45,26,90,099,47*78
###2023-12-09 13:22:56.006370$GPGSV,2,2,07,28,42,080,44,29,23,052,41,31,63,057,46,,,,*45
###2023-12-09 13:22:56.008691$GLGSV,2,1,06,65,34,323,43,71,29,175,41,72,68,232,46,73,27,049,42*6A
###2023-12-09 13:22:56.010466$GLGSV,2,2,06,74,63,004,43,75,40,265,46,,,,,,,,*63
###2023-12-09 13:22:56.012796$GAGSV,1,1,04,04,36,311,44,19,77,186,40,21,81,054,46,27,26,049,38*63
###2023-12-09 13:22:56.015124$GBGSV,2,1,06,14,34,191,42,24,66,040,49,25,47,271,48,26,19,068,43*65
###2023-12-09 13:22:56.016859$GBGSV,2,2,06,33,50,221,47,35,16,061,44,,,,,,,,*6C
###2023-12-09 13:22:56.018172$GNVTG,176.15,T,,M,3.32,N,6.16,K,A*24
###2023-12-09 13:22:56.019824$GNGST,182255.10,18.000,,,,0.100,0.069,0.160*5F
###2023-12-09 13:22:56.021111$GNZDA,182255.10,09,12,2023,00,00*79
###2023-12-09 13:22:56.021745$GNEBP,,,,,,M*13
###2023-12-09 13:22:56.188118$GNGGA,182255.30,4138.0426437,N,07032.3614910,W,1,24,0.7,12.900,M,-29.744,M,0.0,*5E
###2023-12-09 13:22:56.387415$GNGGA,182255.50,4138.0424433,N,07032.3615383,W,1,24,0.7,12.927,M,-29.744,M,0.0,*5A
###2023-12-09 13:22:56.588243$GNGGA,182255.70,4138.0422501,N,07032.3615540,W,1,24,0.7,12.890,M,-29.744,M,0.0,*5A
###2023-12-09 13:22:56.788970$GNGGA,182255.90,4138.0420612,N,07032.3615554,W,1,24,0.7,12.901,M,-29.744,M,0.0,*5B
###2023-12-09 13:22:57.003357$GNRMC,182256.10,A,4138.0418609,N,07032.3615739,W,3.54,185.32,091223,,,A*5B
###2023-12-09 13:22:57.006213$GNGGA,182256.10,4138.0418609,N,07032.3615739,W,1,24,0.7,12.906,M,-29.744,M,0.0,*5F
###2023-12-09 13:22:57.008002$GPGSA,A,3,03,04,16,26,28,29,31,,,,,,1.1,0.7,0.9*3B
###2023-12-09 13:22:57.009708$GLGSA,A,3,65,71,72,73,74,75,,,,,,,1.1,0.7,0.9*25
###2023-12-09 13:22:57.011294$GAGSA,A,3,04,19,21,27,,,,,,,,,1.1,0.7,0.9*27
###2023-12-09 13:22:57.012995$GBGSA,A,3,14,24,25,26,33,35,,,,,,,1.1,0.7,0.9*28
###2023-12-09 13:22:57.015323$GPGSV,2,1,07,03,30,252,42,04,41,310,43,16,60,218,46,26,90,099,48*73
###2023-12-09 13:22:57.017389$GPGSV,2,2,07,28,42,080,45,29,23,052,42,31,63,057,48,,,,*49
###2023-12-09 13:22:57.019725$GLGSV,2,1,06,65,34,323,43,71,29,175,41,72,68,232,46,73,27,049,44*6C
###2023-12-09 13:22:57.021462$GLGSV,2,2,06,74,63,004,42,75,40,265,46,,,,,,,,*62
###2023-12-09 13:22:57.023794$GAGSV,1,1,04,04,36,311,43,19,77,186,40,21,81,054,46,27,26,049,41*6A
###2023-12-09 13:22:57.026105$GBGSV,2,1,06,14,34,191,42,24,66,040,50,25,47,271,48,26,19,068,45*6B
###2023-12-09 13:22:57.027858$GBGSV,2,2,06,33,50,221,48,35,16,061,45,,,,,,,,*62
###2023-12-09 13:22:57.029175$GNVTG,185.32,T,,M,3.54,N,6.55,K,A*2A
###2023-12-09 13:22:57.030827$GNGST,182256.10,18.000,,,,0.100,0.069,0.160*5C
###2023-12-09 13:22:57.032110$GNZDA,182256.10,09,12,2023,00,00*7A
###2023-12-09 13:22:57.032745$GNEBP,,,,,,M*13
###2023-12-09 13:22:57.191786$GNGGA,182256.30,4138.0416688,N,07032.3615922,W,1,24,0.7,12.896,M,-29.744,M,0.0,*56
###2023-12-09 13:22:57.386512$GNGGA,182256.50,4138.0414717,N,07032.3615885,W,1,24,0.7,12.910,M,-29.744,M,0.0,*56
###2023-12-09 13:22:57.587297$GNGGA,182256.70,4138.0412776,N,07032.3615872,W,1,24,0.7,12.917,M,-29.744,M,0.0,*5A
###2023-12-09 13:22:57.787225$GNGGA,182256.90,4138.0410771,N,07032.3615823,W,1,24,0.7,12.905,M,-29.744,M,0.0,*56
###2023-12-09 13:22:57.992120$GNRMC,182257.10,A,4138.0408761,N,07032.3615726,W,3.46,179.49,091223,,,A*56
###2023-12-09 13:22:57.995627$GNGGA,182257.10,4138.0408761,N,07032.3615726,W,1,24,0.7,12.877,M,-29.744,M,0.0,*59
###2023-12-09 13:22:57.997796$GPGSA,A,3,03,04,16,26,28,29,31,,,,,,1.1,0.7,0.9*3B
###2023-12-09 13:22:57.999878$GLGSA,A,3,65,71,72,73,74,75,,,,,,,1.1,0.7,0.9*25
###2023-12-09 13:22:58.001792$GAGSA,A,3,04,19,21,27,,,,,,,,,1.1,0.7,0.9*27
###2023-12-09 13:22:58.003866$GBGSA,A,3,14,24,25,26,33,35,,,,,,,1.1,0.7,0.9*28
###2023-12-09 13:22:58.006729$GPGSV,2,1,07,03,30,252,41,04,41,310,44,16,60,218,46,26,90,099,48*77
###2023-12-09 13:22:58.009220$GPGSV,2,2,07,28,42,080,45,29,23,052,42,31,63,057,46,,,,*47
###2023-12-09 13:22:58.012057$GLGSV,2,1,06,65,34,323,43,71,29,175,42,72,68,232,46,73,27,049,43*68
###2023-12-09 13:22:58.014172$GLGSV,2,2,06,74,63,004,43,75,40,265,46,,,,,,,,*63
###2023-12-09 13:22:58.016996$GAGSV,1,1,04,04,36,311,44,19,77,186,40,21,81,054,46,27,26,049,41*6D
###2023-12-09 13:22:58.019827$GBGSV,2,1,06,14,34,191,42,24,66,040,49,25,47,271,47,26,19,068,44*6D
###2023-12-09 13:22:58.021932$GBGSV,2,2,06,33,50,221,46,35,16,061,44,,,,,,,,*6D
###2023-12-09 13:22:58.023558$GNVTG,179.49,T,,M,3.46,N,6.41,K,A*23
###2023-12-09 13:22:58.025539$GNGST,182257.10,18.000,,,,0.100,0.069,0.160*5D
###2023-12-09 13:22:58.027104$GNZDA,182257.10,09,12,2023,00,00*7B
###2023-12-09 13:22:58.027874$GNEBP,,,,,,M*13
###2023-12-09 13:22:58.188489$GNGGA,182257.30,4138.0406832,N,07032.3615902,W,1,24,0.7,12.898,M,-29.744,M,0.0,*55
###2023-12-09 13:22:58.388043$GNGGA,182257.50,4138.0404810,N,07032.3615996,W,1,24,0.7,12.913,M,-29.744,M,0.0,*5E
###2023-12-09 13:22:58.586369$GNGGA,182257.70,4138.0402849,N,07032.3615891,W,1,24,0.7,12.864,M,-29.744,M,0.0,*51
###2023-12-09 13:22:58.787901$GNGGA,182257.90,4138.0400951,N,07032.3616158,W,1,24,0.7,12.893,M,-29.745,M,0.0,*53
###2023-12-09 13:22:58.993547$GNRMC,182258.10,A,4138.0398970,N,07032.3616549,W,3.60,186.09,091223,,,A*51
###2023-12-09 13:22:58.997041$GNGGA,182258.10,4138.0398970,N,07032.3616549,W,1,24,0.7,12.907,M,-29.745,M,0.0,*59
###2023-12-09 13:22:58.999226$GPGSA,A,3,03,04,16,26,28,29,31,,,,,,1.1,0.7,0.9*3B
###2023-12-09 13:22:59.001337$GLGSA,A,3,65,71,72,73,74,75,,,,,,,1.1,0.7,0.9*25
###2023-12-09 13:22:59.003266$GAGSA,A,3,04,19,21,27,,,,,,,,,1.1,0.7,0.9*27
###2023-12-09 13:22:59.005343$GBGSA,A,3,14,24,25,26,33,35,,,,,,,1.1,0.7,0.9*28
###2023-12-09 13:22:59.008179$GPGSV,2,1,07,03,30,252,41,04,41,310,44,16,60,218,46,26,90,099,48*77
###2023-12-09 13:22:59.010664$GPGSV,2,2,07,28,42,080,44,29,23,052,41,31,63,057,47,,,,*44
###2023-12-09 13:22:59.013484$GLGSV,2,1,06,65,34,323,44,71,29,175,42,72,68,232,46,73,27,049,42*6E
###2023-12-09 13:22:59.015625$GLGSV,2,2,06,74,63,004,43,75,40,265,47,,,,,,,,*62
###2023-12-09 13:22:59.018427$GAGSV,1,1,04,04,36,311,44,19,77,186,40,21,81,054,46,27,26,049,40*6C
###2023-12-09 13:22:59.021268$GBGSV,2,1,06,14,34,191,41,24,66,040,49,25,47,271,48,26,19,068,43*66
###2023-12-09 13:22:59.023385$GBGSV,2,2,06,33,50,221,46,35,16,061,44,,,,,,,,*6D
###2023-12-09 13:22:59.025277$GNVTG,186.09,T,,M,3.60,N,6.66,K,A*26
###2023-12-09 13:22:59.027292$GNGST,182258.10,18.000,,,,0.100,0.069,0.160*52
###2023-12-09 13:22:59.028860$GNZDA,182258.10,09,12,2023,00,00*74
###2023-12-09 13:22:59.029644$GNEBP,,,,,,M*13
###2023-12-09 13:22:59.188380$GNGGA,182258.30,4138.0397044,N,07032.3616651,W,1,24,0.7,12.877,M,-29.745,M,0.0,*56
###2023-12-09 13:22:59.388062$GNGGA,182258.50,4138.0395129,N,07032.3616621,W,1,24,0.7,12.868,M,-29.745,M,0.0,*51
###2023-12-09 13:22:59.588825$GNGGA,182258.70,4138.0393152,N,07032.3616860,W,1,24,0.7,12.873,M,-29.745,M,0.0,*58
###2023-12-09 13:22:59.787856$GNGGA,182258.90,4138.0391226,N,07032.3617310,W,1,24,0.7,12.885,M,-29.745,M,0.0,*50
###2023-12-09 13:22:59.990488$GNRMC,182259.10,A,4138.0389271,N,07032.3617535,W,3.62,177.63,091223,,,A*50
