###2023-12-09 13:39:59.009295$GPGSA,A,3,03,04,16,26,27,28,29,31,,,,,1.0,0.6,0.8*3F
###2023-12-09 13:39:59.011058$GLGSA,A,3,65,71,72,73,74,75,,,,,,,1.0,0.6,0.8*24
###2023-12-09 13:39:59.012643$GAGSA,A,3,04,19,21,27,,,,,,,,,1.0,0.6,0.8*26
###2023-12-09 13:39:59.014350$GBGSA,A,3,12,14,24,25,33,35,,,,,,,1.0,0.6,0.8*2E
###2023-12-09 13:39:59.016683$GPGSV,2,1,08,03,25,244,43,04,48,306,46,16,69,225,46,26,81,040,48*76
###2023-12-09 13:39:59.019023$GPGSV,2,2,08,27,19,172,41,28,36,087,44,29,19,045,40,31,58,070,46*71
###2023-12-09 13:39:59.021343$GLGSV,2,1,06,65,40,316,44,71,20,176,40,72,60,217,44,73,20,054,42*65
###2023-12-09 13:39:59.023091$GLGSV,2,2,06,74,58,018,43,75,45,275,48,,,,,,,,*6C
###2023-12-09 13:39:59.025402$GAGSV,1,1,04,04,41,309,45,19,69,180,40,21,75,045,46,27,21,050,39*67
###2023-12-09 13:39:59.027753$GBGSV,2,1,06,12,17,125,40,14,27,189,41,24,61,048,48,25,52,278,48*6C
###2023-12-09 13:39:59.029496$GBGSV,2,2,06,33,44,215,46,35,16,055,42,,,,,,,,*6E
###2023-12-09 13:39:59.030829$GNVTG,178.29,T,,M,3.21,N,5.94,K,A*2E
###2023-12-09 13:39:59.032435$GNGST,183958.10,5.400,,,,0.090,0.066,0.150*64
###2023-12-09 13:39:59.033715$GNZDA,183958.10,09,12,2023,00,00*7E
###2023-12-09 13:39:59.034351$GNEBP,,,,,,M*13
###2023-12-09 13:39:59.200771$GNGGA,183958.30,4138.0335099,N,07032.3862971,W,1,25,0.6,13.328,M,-29.745,M,0.0,*54
###2023-12-09 13:39:59.400684$GNGGA,183958.50,4138.0333440,N,07032.3863111,W,1,25,0.6,13.366,M,-29.745,M,0.0,*51
###2023-12-09 13:39:59.601506$GNGGA,183958.70,4138.0331640,N,07032.3863626,W,1,25,0.6,13.406,M,-29.745,M,0.0,*51
###2023-12-09 13:39:59.802152$GNGGA,183958.90,4138.0329846,N,07032.3863521,W,1,25,0.6,13.359,M,-29.745,M,0.0,*57
###2023-12-09 13:40:00.005028$GNRMC,183959.10,A,4138.0328280,N,07032.3863240,W,2.86,178.15,091223,,,A*52
###2023-12-09 13:40:00.007894$GNGGA,183959.10,4138.0328280,N,07032.3863240,W,1,25,0.6,13.350,M,-29.745,M,0.0,*56
###2023-12-09 13:40:00.009746$GPGSA,A,3,03,04,16,26,27,28,29,31,,,,,1.0,0.6,0.8*3F
###2023-12-09 13:40:00.011466$GLGSA,A,3,65,71,72,73,74,75,,,,,,,1.0,0.6,0.8*24
###2023-12-09 13:40:00.013045$GAGSA,A,3,04,19,21,27,,,,,,,,,1.0,0.6,0.8*26
###2023-12-09 13:40:00.014767$GBGSA,A,3,12,14,24,25,33,35,,,,,,,1.0,0.6,0.8*2E
###2023-12-09 13:40:00.017084$GPGSV,2,1,08,03,25,244,40,04,48,306,46,16,69,225,45,26,81,040,49*77
###2023-12-09 13:40:00.019422$GPGSV,2,2,08,27,19,172,40,28,36,087,45,29,19,045,43,31,58,070,47*73
###2023-12-09 13:40:00.021756$GLGSV,2,1,06,65,40,316,43,71,20,176,42,72,60,217,45,73,20,054,44*67
###2023-12-09 13:40:00.023522$GLGSV,2,2,06,74,58,018,43,75,45,275,47,,,,,,,,*63
###2023-12-09 13:40:00.025850$GAGSV,1,1,04,04,41,309,44,19,69,180,40,21,74,044,46,27,21,050,42*6A
###2023-12-09 13:40:00.028190$GBGSV,2,1,06,12,17,125,42,14,27,189,40,24,61,048,49,25,52,278,47*61
###2023-12-09 13:40:00.029933$GBGSV,2,2,06,33,44,215,45,35,16,055,43,,,,,,,,*6C
###2023-12-09 13:40:00.031268$GNVTG,178.15,T,,M,2.86,N,5.29,K,A*2B
###2023-12-09 13:40:00.032883$GNGST,183959.10,5.400,,,,0.089,0.066,0.150*6D
###2023-12-09 13:40:00.034174$GNZDA,183959.10,09,12,2023,00,00*7F
###2023-12-09 13:40:00.034824$GNEBP,,,,,,M*13
###2023-12-09 13:40:00.203587$GNGGA,183959.30,4138.0326638,N,07032.3863505,W,1,25,0.6,13.402,M,-29.745,M,0.0,*5B
###2023-12-09 13:40:00.401509$GNGGA,183959.50,4138.0325049,N,07032.3863685,W,1,25,0.6,13.383,M,-29.745,M,0.0,*5B
###2023-12-09 13:40:00.601298$GNGGA,183959.70,4138.0323652,N,07032.3863630,W,1,25,0.6,13.370,M,-29.745,M,0.0,*51
###2023-12-09 13:40:00.802297$GNGGA,183959.90,4138.0322284,N,07032.3863766,W,1,25,0.6,13.398,M,-29.745,M,0.0,*55
###2023-12-09 13:40:01.005434$GNRMC,184000.10,A,4138.0320927,N,07032.3863999,W,2.41,186.42,091223,,,A*59
###2023-12-09 13:40:01.008307$GNGGA,184000.10,4138.0320927,N,07032.3863999,W,1,25,0.6,13.400,M,-29.745,M,0.0,*57
###2023-12-09 13:40:01.010154$GPGSA,A,3,03,04,16,26,27,28,29,31,,,,,1.0,0.6,0.8*3F
###2023-12-09 13:40:01.011877$GLGSA,A,3,65,71,72,73,74,75,,,,,,,1.0,0.6,0.8*24
###2023-12-09 13:40:01.013459$GAGSA,A,3,04,19,21,27,,,,,,,,,1.0,0.6,0.8*26
###2023-12-09 13:40:01.015186$GBGSA,A,3,12,14,24,25,33,35,,,,,,,1.0,0.6,0.8*2E
###2023-12-09 13:40:01.017521$GPGSV,2,1,08,03,25,244,39,04,48,306,44,16,69,225,44,26,81,040,47*74
###2023-12-09 13:40:01.019863$GPGSV,2,2,08,27,19,172,37,28,36,087,44,29,19,045,40,31,58,070,45*73
###2023-12-09 13:40:01.022195$GLGSV,2,1,06,65,40,316,44,71,20,176,42,72,60,217,45,73,20,054,42*66
###2023-12-09 13:40:01.023948$GLGSV,2,2,06,74,58,018,43,75,45,275,48,,,,,,,,*6C
###2023-12-09 13:40:01.026267$GAGSV,1,1,04,04,41,309,44,19,69,180,39,21,74,044,45,27,21,050,39*6B
###2023-12-09 13:40:01.028610$GBGSV,2,1,06,12,17,125,42,14,27,189,40,24,61,048,49,25,52,278,48*6E
###2023-12-09 13:40:01.030349$GBGSV,2,2,06,33,44,215,45,35,16,055,43,,,,,,,,*6C
###2023-12-09 13:40:01.031680$GNVTG,186.42,T,,M,2.41,N,4.46,K,A*2B
###2023-12-09 13:40:01.033296$GNGST,184000.10,5.700,,,,0.089,0.066,0.150*6C
###2023-12-09 13:40:01.034595$GNZDA,184000.10,09,12,2023,00,00*7D
###2023-12-09 13:40:01.035231$GNEBP,,,,,,M*13
###2023-12-09 13:40:01.202437$GNGGA,184000.30,4138.0319613,N,07032.3864059,W,1,25,0.6,13.381,M,-29.745,M,0.0,*5B
###2023-12-09 13:40:01.402544$GNGGA,184000.50,4138.0318400,N,07032.3863931,W,1,25,0.6,13.362,M,-29.745,M,0.0,*51
###2023-12-09 13:40:01.601307$GNGGA,184000.70,4138.0317194,N,07032.3864188,W,1,25,0.6,13.403,M,-29.745,M,0.0,*59
###2023-12-09 13:40:01.802203$GNGGA,184000.90,4138.0315972,N,07032.3864580,W,1,25,0.6,13.418,M,-29.745,M,0.0,*53
###2023-12-09 13:40:02.004962$GNRMC,184001.10,A,4138.0314813,N,07032.3864425,W,2.02,167.51,091223,,,A*5E
###2023-12-09 13:40:02.007829$GNGGA,184001.10,4138.0314813,N,07032.3864425,W,1,25,0.6,13.382,M,-29.745,M,0.0,*57
###2023-12-09 13:40:02.009677$GPGSA,A,3,03,04,16,26,27,28,29,31,,,,,1.0,0.6,0.8*3F
###2023-12-09 13:40:02.011394$GLGSA,A,3,65,71,72,73,74,75,,,,,,,1.0,0.6,0.8*24
###2023-12-09 13:40:02.012975$GAGSA,A,3,04,19,21,27,,,,,,,,,1.0,0.6,0.8*26
###2023-12-09 13:40:02.014691$GBGSA,A,3,12,14,24,25,33,35,,,,,,,1.0,0.6,0.8*2E
###2023-12-09 13:40:02.017014$GPGSV,2,1,08,03,25,244,40,04,48,306,44,16,69,225,44,26,81,040,47*7A
###2023-12-09 13:40:02.019346$GPGSV,2,2,08,27,19,172,40,28,36,087,43,29,19,045,40,31,58,070,45*74
###2023-12-09 13:40:02.021666$GLGSV,2,1,06,65,40,316,44,71,20,176,42,72,60,217,45,73,20,054,43*67
###2023-12-09 13:40:02.023413$GLGSV,2,2,06,74,58,018,43,75,45,275,47,,,,,,,,*63
###2023-12-09 13:40:02.025739$GAGSV,1,1,04,04,41,309,44,19,69,180,40,21,74,044,46,27,21,050,39*66
###2023-12-09 13:40:02.028074$GBGSV,2,1,06,12,17,125,43,14,27,189,42,24,61,048,49,25,52,278,48*6D
###2023-12-09 13:40:02.029812$GBGSV,2,2,06,33,44,215,46,35,16,055,43,,,,,,,,*6F
###2023-12-09 13:40:02.031139$GNVTG,167.51,T,,M,2.02,N,3.74,K,A*27
###2023-12-09 13:40:02.032749$GNGST,184001.10,5.500,,,,0.090,0.066,0.150*67
###2023-12-09 13:40:02.034034$GNZDA,184001.10,09,12,2023,00,00*7C
###2023-12-09 13:40:02.034681$GNEBP,,,,,,M*13
###2023-12-09 13:40:02.201365$GNGGA,184001.30,4138.0313772,N,07032.3864273,W,1,26,0.6,13.365,M,-29.745,M,0.0,*55
###2023-12-09 13:40:02.401390$GNGGA,184001.50,4138.0312677,N,07032.3864636,W,1,26,0.6,13.408,M,-29.745,M,0.0,*5F
###2023-12-09 13:40:02.601140$GNGGA,184001.70,4138.0311614,N,07032.3865072,W,1,25,0.6,13.414,M,-29.745,M,0.0,*52
###2023-12-09 13:40:02.799811$GNGGA,184001.90,4138.0310616,N,07032.3864948,W,1,26,0.6,13.386,M,-29.745,M,0.0,*51
###2023-12-09 13:40:03.004761$GNRMC,184002.10,A,4138.0309683,N,07032.3864647,W,1.63,174.96,091223,,,A*5D
###2023-12-09 13:40:03.007628$GNGGA,184002.10,4138.0309683,N,07032.3864647,W,1,26,0.6,13.369,M,-29.745,M,0.0,*5F
###2023-12-09 13:40:03.009486$GPGSA,A,3,03,04,16,26,27,28,29,31,,,,,1.0,0.6,0.8*3F
###2023-12-09 13:40:03.011269$GLGSA,A,3,65,71,72,73,74,75,83,,,,,,1.0,0.6,0.8*2F
###2023-12-09 13:40:03.012849$GAGSA,A,3,04,19,21,27,,,,,,,,,1.0,0.6,0.8*26
###2023-12-09 13:40:03.014552$GBGSA,A,3,12,14,24,25,33,35,,,,,,,1.0,0.6,0.8*2E
###2023-12-09 13:40:03.016882$GPGSV,2,1,08,03,25,244,39,04,48,306,44,16,69,225,45,26,81,040,48*7A
###2023-12-09 13:40:03.019216$GPGSV,2,2,08,27,19,172,39,28,36,087,44,29,19,045,43,31,58,070,47*7C
###2023-12-09 13:40:03.021540$GLGSV,2,1,07,65,40,316,45,71,20,176,42,72,60,217,47,73,20,054,47*61
###2023-12-09 13:40:03.023828$GLGSV,2,2,07,74,58,018,44,75,45,275,49,83,16,045,37,,,,*52
###2023-12-09 13:40:03.026155$GAGSV,1,1,04,04,41,309,44,19,69,180,40,21,74,044,47,27,21,050,42*6B
###2023-12-09 13:40:03.028499$GBGSV,2,1,06,12,17,125,43,14,27,189,39,24,61,048,48,25,52,278,47*6F
###2023-12-09 13:40:03.030251$GBGSV,2,2,06,33,44,215,45,35,16,055,45,,,,,,,,*6A
###2023-12-09 13:40:03.031587$GNVTG,174.96,T,,M,1.63,N,3.02,K,A*2B
###2023-12-09 13:40:03.033202$GNGST,184002.10,5.300,,,,0.089,0.066,0.150*6A
###2023-12-09 13:40:03.034493$GNZDA,184002.10,09,12,2023,00,00*7F
###2023-12-09 13:40:03.035144$GNEBP,,,,,,M*13
###2023-12-09 13:40:03.205533$GNGGA,184002.30,4138.0308721,N,07032.3864939,W,1,26,0.6,13.399,M,-29.745,M,0.0,*5C
