###2023-12-09 13:36:24.198120$GNGGA,183623.30,4138.0507145,N,07032.4086200,W,1,26,0.6,13.303,M,-29.745,M,0.0,*52
###2023-12-09 13:36:24.397125$GNGGA,183623.50,4138.0505741,N,07032.4085466,W,1,26,0.6,13.324,M,-29.745,M,0.0,*54
###2023-12-09 13:36:24.596863$GNGGA,183623.70,4138.0504159,N,07032.4084774,W,1,27,0.6,13.324,M,-29.745,M,0.0,*58
###2023-12-09 13:36:24.797744$GNGGA,183623.90,4138.0502697,N,07032.4084007,W,1,27,0.6,13.302,M,-29.745,M,0.0,*52
###2023-12-09 13:36:25.000311$GNRMC,183624.10,A,4138.0501152,N,07032.4083435,W,3.03,168.53,091223,,,A*5C
###2023-12-09 13:36:25.003170$GNGGA,183624.10,4138.0501152,N,07032.4083435,W,1,27,0.6,13.331,M,-29.745,M,0.0,*52
###2023-12-09 13:36:25.005024$GPGSA,A,3,03,04,16,26,27,28,29,31,,,,,1.0,0.6,0.8*3F
###2023-12-09 13:36:25.006808$GLGSA,A,3,65,71,72,73,74,75,83,,,,,,1.0,0.6,0.8*2F
###2023-12-09 13:36:25.008383$GAGSA,A,3,04,19,21,27,,,,,,,,,1.0,0.6,0.8*26
###2023-12-09 13:36:25.010150$GBGSA,A,3,12,14,24,25,26,33,35,,,,,,1.0,0.6,0.8*2A
###2023-12-09 13:36:25.012524$GPGSV,2,1,08,03,26,246,43,04,47,307,44,16,67,223,45,26,83,040,48*72
###2023-12-09 13:36:25.014858$GPGSV,2,2,08,27,17,172,38,28,37,085,44,29,20,046,44,31,59,067,47*79
###2023-12-09 13:36:25.017180$GLGSV,2,1,07,65,39,318,43,71,22,175,39,72,62,220,45,73,22,052,43*6E
###2023-12-09 13:36:25.019255$GLGSV,2,2,07,74,59,015,43,75,44,272,48,83,15,047,35,,,,*5D
###2023-12-09 13:36:25.021581$GAGSV,1,1,04,04,40,310,43,19,71,181,40,21,76,045,46,27,22,050,41*6F
###2023-12-09 13:36:25.023913$GBGSV,2,1,07,12,16,125,40,14,28,189,40,24,62,046,48,25,51,276,48*62
###2023-12-09 13:36:25.025941$GBGSV,2,2,07,26,16,071,44,33,45,217,46,35,16,056,43,,,,*5B
###2023-12-09 13:36:25.027268$GNVTG,168.53,T,,M,3.03,N,5.62,K,A*2B
###2023-12-09 13:36:25.028873$GNGST,183624.10,5.600,,,,0.089,0.066,0.150*6A
###2023-12-09 13:36:25.030155$GNZDA,183624.10,09,12,2023,00,00*7A
###2023-12-09 13:36:25.030804$GNEBP,,,,,,M*13
###2023-12-09 13:36:25.198505$GNGGA,183624.30,4138.0499406,N,07032.4082879,W,1,27,0.6,13.338,M,-29.745,M,0.0,*58
###2023-12-09 13:36:25.397772$GNGGA,183624.50,4138.0497838,N,07032.4082132,W,1,27,0.6,13.300,M,-29.745,M,0.0,*5C
###2023-12-09 13:36:25.597781$GNGGA,183624.70,4138.0496221,N,07032.4081471,W,1,27,0.6,13.322,M,-29.745,M,0.0,*5C
###2023-12-09 13:36:25.798549$GNGGA,183624.90,4138.0494429,N,07032.4080981,W,1,27,0.6,13.343,M,-29.745,M,0.0,*5A
###2023-12-09 13:36:26.001276$GNRMC,183625.10,A,4138.0492797,N,07032.4080183,W,3.05,153.92,091223,,,A*51
###2023-12-09 13:36:26.004194$GNGGA,183625.10,4138.0492797,N,07032.4080183,W,1,26,0.6,13.317,M,-29.745,M,0.0,*59
###2023-12-09 13:36:26.006058$GPGSA,A,3,03,04,16,26,27,28,29,31,,,,,1.0,0.6,0.8*3F
###2023-12-09 13:36:26.007776$GLGSA,A,3,65,71,72,73,74,75,,,,,,,1.0,0.6,0.8*24
###2023-12-09 13:36:26.009358$GAGSA,A,3,04,19,21,27,,,,,,,,,1.0,0.6,0.8*26
###2023-12-09 13:36:26.011135$GBGSA,A,3,12,14,24,25,26,33,35,,,,,,1.0,0.6,0.8*2A
###2023-12-09 13:36:26.013455$GPGSV,2,1,08,03,26,246,42,04,47,307,44,16,67,223,45,26,83,040,47*7C
###2023-12-09 13:36:26.015788$GPGSV,2,2,08,27,17,172,39,28,37,085,43,29,20,046,41,31,59,067,46*7B
###2023-12-09 13:36:26.018110$GLGSV,2,1,06,65,39,318,43,71,22,175,42,72,62,220,46,73,22,052,43*60
###2023-12-09 13:36:26.019857$GLGSV,2,2,06,74,59,015,43,75,44,272,47,,,,,,,,*69
###2023-12-09 13:36:26.022164$GAGSV,1,1,04,04,40,310,43,19,71,181,40,21,76,045,46,27,22,050,41*6F
###2023-12-09 13:36:26.024490$GBGSV,2,1,07,12,16,125,40,14,28,189,41,24,62,046,47,25,51,276,47*63
###2023-12-09 13:36:26.026516$GBGSV,2,2,07,26,16,071,43,33,45,217,46,35,16,056,44,,,,*5B
###2023-12-09 13:36:26.027847$GNVTG,153.92,T,,M,3.05,N,5.65,K,A*2F
###2023-12-09 13:36:26.029455$GNGST,183625.10,5.300,,,,0.089,0.066,0.150*6E
###2023-12-09 13:36:26.030744$GNZDA,183625.10,09,12,2023,00,00*7B
###2023-12-09 13:36:26.031380$GNEBP,,,,,,M*13
###2023-12-09 13:36:26.199741$GNGGA,183625.30,4138.0491277,N,07032.4079205,W,1,26,0.6,13.314,M,-29.745,M,0.0,*5B
###2023-12-09 13:36:26.398721$GNGGA,183625.50,4138.0489573,N,07032.4078391,W,1,26,0.6,13.334,M,-29.745,M,0.0,*58
###2023-12-09 13:36:26.598360$GNGGA,183625.70,4138.0487914,N,07032.4077537,W,1,26,0.6,13.315,M,-29.745,M,0.0,*5F
###2023-12-09 13:36:26.798766$GNGGA,183625.90,4138.0486368,N,07032.4076510,W,1,26,0.6,13.324,M,-29.745,M,0.0,*57
###2023-12-09 13:36:27.004131$GNRMC,183626.10,A,4138.0484827,N,07032.4075367,W,3.23,149.69,091223,,,A*58
###2023-12-09 13:36:27.007016$GNGGA,183626.10,4138.0484827,N,07032.4075367,W,1,26,0.6,13.328,M,-29.745,M,0.0,*57
###2023-12-09 13:36:27.008881$GPGSA,A,3,03,04,16,26,27,28,29,31,,,,,1.0,0.6,0.8*3F
###2023-12-09 13:36:27.010614$GLGSA,A,3,65,71,72,73,74,75,,,,,,,1.0,0.6,0.8*24
###2023-12-09 13:36:27.012202$GAGSA,A,3,04,19,21,27,,,,,,,,,1.0,0.6,0.8*26
###2023-12-09 13:36:27.013991$GBGSA,A,3,12,14,24,25,26,33,35,,,,,,1.0,0.6,0.8*2A
###2023-12-09 13:36:27.016346$GPGSV,2,1,08,03,26,246,41,04,47,307,44,16,67,223,45,26,83,040,48*70
###2023-12-09 13:36:27.018702$GPGSV,2,2,08,27,17,172,38,28,37,085,44,29,20,046,42,31,59,067,45*7D
###2023-12-09 13:36:27.021043$GLGSV,2,1,06,65,39,318,44,71,22,175,39,72,62,220,45,73,22,052,44*6F
###2023-12-09 13:36:27.022833$GLGSV,2,2,06,74,59,015,43,75,44,272,47,,,,,,,,*69
###2023-12-09 13:36:27.025161$GAGSV,1,1,04,04,40,310,43,19,71,181,40,21,76,045,46,27,22,050,42*6C
###2023-12-09 13:36:27.027509$GBGSV,2,1,07,12,16,125,40,14,28,189,40,24,62,046,48,25,51,276,46*6C
###2023-12-09 13:36:27.029555$GBGSV,2,2,07,26,16,071,44,33,45,217,47,35,16,056,45,,,,*5C
###2023-12-09 13:36:27.030899$GNVTG,149.69,T,,M,3.23,N,5.98,K,A*26
###2023-12-09 13:36:27.032521$GNGST,183626.10,5.300,,,,0.089,0.067,0.150*6C
###2023-12-09 13:36:27.033814$GNZDA,183626.10,09,12,2023,00,00*78
###2023-12-09 13:36:27.034453$GNEBP,,,,,,M*13
###2023-12-09 13:36:27.201393$GNGGA,183626.30,4138.0483325,N,07032.4074189,W,1,27,0.6,13.321,M,-29.745,M,0.0,*50
###2023-12-09 13:36:27.397593$GNGGA,183626.50,4138.0481862,N,07032.4073016,W,1,27,0.6,13.329,M,-29.745,M,0.0,*54
###2023-12-09 13:36:27.597639$GNGGA,183626.70,4138.0480319,N,07032.4071758,W,1,27,0.6,13.334,M,-29.745,M,0.0,*53
###2023-12-09 13:36:27.798719$GNGGA,183626.90,4138.0478966,N,07032.4070396,W,1,27,0.6,13.329,M,-29.745,M,0.0,*53
###2023-12-09 13:36:28.002718$GNRMC,183627.10,A,4138.0477653,N,07032.4068935,W,3.13,141.46,091223,,,A*5F
###2023-12-09 13:36:28.006200$GNGGA,183627.10,4138.0477653,N,07032.4068935,W,1,27,0.6,13.345,M,-29.745,M,0.0,*5C
###2023-12-09 13:36:28.008456$GPGSA,A,3,03,04,16,26,27,28,29,31,,,,,1.0,0.6,0.8*3F
###2023-12-09 13:36:28.010611$GLGSA,A,3,65,71,72,73,74,75,83,,,,,,1.0,0.6,0.8*2F
###2023-12-09 13:36:28.012511$GAGSA,A,3,04,19,21,27,,,,,,,,,1.0,0.6,0.8*26
###2023-12-09 13:36:28.014697$GBGSA,A,3,12,14,24,25,26,33,35,,,,,,1.0,0.6,0.8*2A
###2023-12-09 13:36:28.017501$GPGSV,2,1,08,03,26,246,41,04,47,307,45,16,67,223,46,26,83,040,48*72
###2023-12-09 13:36:28.020333$GPGSV,2,2,08,27,17,172,38,28,37,085,45,29,20,046,44,31,59,067,46*79
###2023-12-09 13:36:28.023157$GLGSV,2,1,07,65,39,318,44,71,22,175,40,72,62,220,46,73,22,052,45*62
###2023-12-09 13:36:28.025611$GLGSV,2,2,07,74,59,015,42,75,44,272,46,83,15,047,36,,,,*51
###2023-12-09 13:36:28.028425$GAGSV,1,1,04,04,40,310,43,19,71,181,40,21,76,045,46,27,22,050,42*6C
###2023-12-09 13:36:28.031238$GBGSV,2,1,07,12,16,125,39,14,28,189,41,24,62,046,48,25,51,276,46*63
###2023-12-09 13:36:28.033694$GBGSV,2,2,07,26,16,071,45,33,45,217,47,35,16,056,44,,,,*5C
###2023-12-09 13:36:28.035328$GNVTG,141.46,T,,M,3.13,N,5.80,K,A*29
###2023-12-09 13:36:28.037280$GNGST,183627.10,5.600,,,,0.090,0.067,0.150*60
###2023-12-09 13:36:28.038855$GNZDA,183627.10,09,12,2023,00,00*79
###2023-12-09 13:36:28.039626$GNEBP,,,,,,M*13
###2023-12-09 13:36:28.201832$GNGGA,183627.30,4138.0476319,N,07032.4067453,W,1,27,0.6,13.344,M,-29.745,M,0.0,*57
###2023-12-09 13:36:28.398835$GNGGA,183627.50,4138.0475090,N,07032.4065953,W,1,27,0.6,13.350,M,-29.745,M,0.0,*5A
###2023-12-09 13:36:28.597340$GNGGA,183627.70,4138.0473891,N,07032.4064363,W,1,27,0.6,13.362,M,-29.745,M,0.0,*5E
###2023-12-09 13:36:28.799005$GNGGA,183627.90,4138.0472799,N,07032.4062717,W,1,27,0.6,13.362,M,-29.745,M,0.0,*57
###2023-12-09 13:36:29.001812$GNRMC,183628.10,A,4138.0471825,N,07032.4061021,W,2.86,125.59,091223,,,A*5D
###2023-12-09 13:36:29.005577$GNGGA,183628.10,4138.0471825,N,07032.4061021,W,1,27,0.6,13.365,M,-29.745,M,0.0,*5D
###2023-12-09 13:36:29.007844$GPGSA,A,3,03,04,16,26,27,28,29,31,,,,,1.0,0.6,0.8*3F
###2023-12-09 13:36:29.010003$GLGSA,A,3,65,71,72,73,74,75,83,,,,,,1.0,0.6,0.8*2F
###2023-12-09 13:36:29.011936$GAGSA,A,3,04,19,21,27,,,,,,,,,1.0,0.6,0.8*26
###2023-12-09 13:36:29.014082$GBGSA,A,3,12,14,24,25,26,33,35,,,,,,1.0,0.6,0.8*2A
###2023-12-09 13:36:29.016902$GPGSV,2,1,08,03,26,246,43,04,47,307,45,16,67,223,46,26,83,040,48*70
###2023-12-09 13:36:29.019737$GPGSV,2,2,08,27,17,172,40,28,37,085,45,29,20,046,43,31,59,067,46*71
###2023-12-09 13:36:29.022582$GLGSV,2,1,07,65,39,318,44,71,22,175,40,72,62,220,46,73,22,052,44*63
###2023-12-09 13:36:29.025051$GLGSV,2,2,07,74,59,015,42,75,44,272,47,83,15,047,36,,,,*50
###2023-12-09 13:36:29.027908$GAGSV,1,1,04,04,40,310,44,19,71,181,41,21,76,045,46,27,22,050,42*6A
###2023-12-09 13:36:29.030727$GBGSV,2,1,07,12,16,125,39,14,28,189,41,24,62,047,47,25,51,276,47*6C
