###2023-12-09 12:33:16.958307$GBGSV,2,1,05,14,56,198,43,24,81,339,45,25,32,252,42,26,36,057,45*6C
###2023-12-09 12:33:16.959939$GBGSV,2,2,05,33,63,257,48,,,,,,,,,,,,*57
###2023-12-09 12:33:16.961288$GNVTG,316.77,T,,M,0.35,N,0.65,K,A*22
###2023-12-09 12:33:16.962965$GNGST,173316.10,20.000,,,,0.170,0.150,0.270*52
###2023-12-09 12:33:16.964270$GNZDA,173316.10,09,12,2023,00,00*71
###2023-12-09 12:33:16.964915$GNEBP,,,,,,M*13
###2023-12-09 12:33:17.132053$GNGGA,173316.30,4138.0457664,N,07032.4310795,W,1,23,0.7,13.169,M,-29.745,M,0.0,*51
###2023-12-09 12:33:17.331965$GNGGA,173316.50,4138.0457814,N,07032.4311074,W,1,22,0.7,13.188,M,-29.745,M,0.0,*59
###2023-12-09 12:33:17.531681$GNGGA,173316.70,4138.0457949,N,07032.4311356,W,1,21,0.7,13.190,M,-29.745,M,0.0,*5B
###2023-12-09 12:33:17.730679$GNGGA,173316.90,4138.0458055,N,07032.4311312,W,1,20,0.7,13.177,M,-29.745,M,0.0,*56
###2023-12-09 12:33:17.932307$GNRMC,173317.10,A,4138.0458140,N,07032.4311231,W,0.19,316.77,091223,,,A*57
###2023-12-09 12:33:17.935862$GNGGA,173317.10,4138.0458140,N,07032.4311231,W,1,19,0.8,13.174,M,-29.745,M,0.0,*5C
###2023-12-09 12:33:17.938082$GPGSA,A,3,03,16,26,28,29,31,32,,,,,,1.4,0.8,1.1*3D
###2023-12-09 12:33:17.940112$GLGSA,A,3,71,73,74,75,,,,,,,,,1.4,0.8,1.1*20
###2023-12-09 12:33:17.941888$GAGSA,A,3,21,27,,,,,,,,,,,1.4,0.8,1.1*28
###2023-12-09 12:33:17.943903$GBGSA,A,3,14,24,25,26,33,,,,,,,,1.4,0.8,1.1*2D
###2023-12-09 12:33:17.946766$GPGSV,2,1,07,03,39,278,35,16,36,207,45,26,65,206,48,28,58,055,44*71
###2023-12-09 12:33:17.949274$GPGSV,2,2,07,29,25,075,43,31,73,358,42,32,31,134,44,,,,*4C
###2023-12-09 12:33:17.952123$GLGSV,1,1,04,71,58,169,46,73,49,033,49,74,71,287,39,75,21,240,40*63
###2023-12-09 12:33:17.954232$GAGSV,1,1,02,21,76,177,47,27,42,050,43,,,,,,,,*6B
###2023-12-09 12:33:17.957083$GBGSV,2,1,05,14,56,198,46,24,81,339,40,25,32,252,44,26,36,057,42*6D
###2023-12-09 12:33:17.958870$GBGSV,2,2,05,33,63,257,45,,,,,,,,,,,,*5A
###2023-12-09 12:33:17.960477$GNVTG,316.77,T,,M,0.19,N,0.36,K,A*2A
###2023-12-09 12:33:17.962462$GNGST,173317.10,21.000,,,,0.150,0.140,0.260*50
###2023-12-09 12:33:17.964049$GNZDA,173317.10,09,12,2023,00,00*70
###2023-12-09 12:33:17.964822$GNEBP,,,,,,M*13
###2023-12-09 12:33:18.131739$GNGGA,173317.30,4138.0458217,N,07032.4311353,W,1,18,0.9,13.209,M,-29.745,M,0.0,*53
###2023-12-09 12:33:18.331931$GNGGA,173317.50,4138.0458302,N,07032.4311496,W,1,17,0.9,13.205,M,-29.745,M,0.0,*5D
###2023-12-09 12:33:18.531611$GNGGA,173317.70,4138.0458287,N,07032.4311143,W,1,17,0.9,13.221,M,-29.745,M,0.0,*58
###2023-12-09 12:33:18.728972$GNGGA,173317.90,4138.0458288,N,07032.4310834,W,1,18,0.9,13.234,M,-29.745,M,0.0,*5A
###2023-12-09 12:33:18.931759$GNRMC,173318.10,A,4138.0458309,N,07032.4310781,W,0.25,316.77,091223,,,A*57
###2023-12-09 12:33:18.934643$GNGGA,173318.10,4138.0458309,N,07032.4310781,W,1,18,0.9,13.252,M,-29.745,M,0.0,*54
###2023-12-09 12:33:18.936390$GPGSA,A,3,16,26,28,29,31,32,,,,,,,1.5,0.9,1.2*3D
###2023-12-09 12:33:18.937983$GLGSA,A,3,71,72,73,75,,,,,,,,,1.5,0.9,1.2*25
###2023-12-09 12:33:18.939450$GAGSA,A,3,21,27,,,,,,,,,,,1.5,0.9,1.2*2B
###2023-12-09 12:33:18.941094$GBGSA,A,3,14,24,25,26,33,,,,,,,,1.5,0.9,1.2*2E
###2023-12-09 12:33:18.943432$GPGSV,2,1,06,16,36,207,44,26,65,206,46,28,58,055,44,29,25,075,41*76
###2023-12-09 12:33:18.945180$GPGSV,2,2,06,31,73,358,35,32,31,134,45,,,,,,,,*75
###2023-12-09 12:33:18.947539$GLGSV,1,1,04,71,58,169,50,72,65,311,38,73,49,033,48,75,21,240,37*69
###2023-12-09 12:33:18.949311$GAGSV,1,1,02,21,77,177,39,27,42,050,47,,,,,,,,*67
###2023-12-09 12:33:18.951647$GBGSV,2,1,05,14,56,198,43,24,81,339,38,25,32,252,39,26,36,057,44*6B
###2023-12-09 12:33:18.953107$GBGSV,2,2,05,33,63,257,45,,,,,,,,,,,,*5A
###2023-12-09 12:33:18.954431$GNVTG,316.77,T,,M,0.25,N,0.47,K,A*23
###2023-12-09 12:33:18.956097$GNGST,173318.10,22.000,,,,0.140,0.130,0.260*5A
###2023-12-09 12:33:18.957389$GNZDA,173318.10,09,12,2023,00,00*7F
###2023-12-09 12:33:18.958030$GNEBP,,,,,,M*13
###2023-12-09 12:33:19.130609$GNGGA,173318.30,4138.0458249,N,07032.4310418,W,1,18,0.8,13.253,M,-29.745,M,0.0,*50
###2023-12-09 12:33:19.332263$GNGGA,173318.50,4138.0458219,N,07032.4310116,W,1,19,0.8,13.267,M,-29.745,M,0.0,*5E
###2023-12-09 12:33:19.530192$GNGGA,173318.70,4138.0458193,N,07032.4309868,W,1,19,0.8,13.287,M,-29.745,M,0.0,*5B
###2023-12-09 12:33:19.729980$GNGGA,173318.90,4138.0458141,N,07032.4309513,W,1,18,0.9,13.273,M,-29.745,M,0.0,*50
###2023-12-09 12:33:19.933328$GNRMC,173319.10,A,4138.0458175,N,07032.4309443,W,0.06,316.77,091223,,,A*5B
###2023-12-09 12:33:19.936470$GNGGA,173319.10,4138.0458175,N,07032.4309443,W,1,19,0.9,13.256,M,-29.745,M,0.0,*5C
###2023-12-09 12:33:19.938231$GPGSA,A,3,16,26,28,29,31,32,,,,,,,1.4,0.9,1.2*3C
###2023-12-09 12:33:19.939915$GLGSA,A,3,71,72,73,74,75,,,,,,,,1.4,0.9,1.2*27
###2023-12-09 12:33:19.941387$GAGSA,A,3,21,27,,,,,,,,,,,1.4,0.9,1.2*2A
###2023-12-09 12:33:19.943067$GBGSA,A,3,14,24,25,26,33,,,,,,,,1.4,0.9,1.2*2F
###2023-12-09 12:33:19.945403$GPGSV,2,1,06,16,36,207,46,26,65,206,48,28,58,055,48,29,25,075,45*72
###2023-12-09 12:33:19.947184$GPGSV,2,2,06,31,73,358,39,32,31,134,44,,,,,,,,*78
###2023-12-09 12:33:19.949536$GLGSV,2,1,05,71,58,169,47,72,65,311,36,73,49,033,47,74,71,287,37*63
###2023-12-09 12:33:19.951027$GLGSV,2,2,05,75,21,240,40,,,,,,,,,,,,*53
###2023-12-09 12:33:19.952776$GAGSV,1,1,02,21,77,177,45,27,42,050,43,,,,,,,,*68
###2023-12-09 12:33:19.955143$GBGSV,2,1,05,14,56,198,48,24,81,339,43,25,32,252,41,26,36,057,45*62
###2023-12-09 12:33:19.956623$GBGSV,2,2,05,33,63,257,42,,,,,,,,,,,,*5D
###2023-12-09 12:33:19.957960$GNVTG,316.77,T,,M,0.06,N,0.11,K,A*21
###2023-12-09 12:33:19.959631$GNGST,173319.10,21.000,,,,0.140,0.130,0.260*58
###2023-12-09 12:33:19.960934$GNZDA,173319.10,09,12,2023,00,00*7E
###2023-12-09 12:33:19.961580$GNEBP,,,,,,M*13
###2023-12-09 12:33:20.129935$GNGGA,173319.30,4138.0458145,N,07032.4309238,W,1,20,0.9,13.299,M,-29.745,M,0.0,*5E
###2023-12-09 12:33:20.329997$GNGGA,173319.50,4138.0458037,N,07032.4308597,W,1,19,0.9,13.318,M,-29.745,M,0.0,*5D
###2023-12-09 12:33:20.530004$GNGGA,173319.70,4138.0457941,N,07032.4308209,W,1,20,0.8,13.280,M,-29.745,M,0.0,*53
###2023-12-09 12:33:20.728959$GNGGA,173319.90,4138.0457973,N,07032.4308086,W,1,20,0.8,13.322,M,-29.745,M,0.0,*50
###2023-12-09 12:33:20.934289$GNRMC,173320.10,A,4138.0458018,N,07032.4307796,W,0.66,103.59,091223,,,A*52
###2023-12-09 12:33:20.937301$GNGGA,173320.10,4138.0458018,N,07032.4307796,W,1,19,0.8,13.324,M,-29.745,M,0.0,*5C
###2023-12-09 12:33:20.939222$GPGSA,A,3,03,16,26,28,29,31,32,,,,,,1.5,0.8,1.2*3F
###2023-12-09 12:33:20.940879$GLGSA,A,3,71,72,73,74,75,,,,,,,,1.5,0.8,1.2*27
###2023-12-09 12:33:20.942331$GAGSA,A,3,21,27,,,,,,,,,,,1.5,0.8,1.2*2A
###2023-12-09 12:33:20.943991$GBGSA,A,3,14,24,25,26,33,,,,,,,,1.5,0.8,1.2*2F
###2023-12-09 12:33:20.946320$GPGSV,2,1,07,03,39,278,41,16,36,207,42,26,65,206,46,28,58,055,44*7B
###2023-12-09 12:33:20.948408$GPGSV,2,2,07,29,25,075,42,31,73,358,39,32,31,134,45,,,,*40
###2023-12-09 12:33:20.950765$GLGSV,2,1,05,71,58,169,45,72,65,311,36,73,49,033,45,74,71,287,37*63
###2023-12-09 12:33:20.952218$GLGSV,2,2,05,75,21,240,41,,,,,,,,,,,,*52
###2023-12-09 12:33:20.953956$GAGSV,1,1,02,21,77,177,45,27,42,050,46,,,,,,,,*6D
###2023-12-09 12:33:20.956288$GBGSV,2,1,05,14,56,198,44,24,81,339,42,25,32,252,37,26,36,057,43*68
###2023-12-09 12:33:20.957746$GBGSV,2,2,05,33,63,257,44,,,,,,,,,,,,*5B
###2023-12-09 12:33:20.959080$GNVTG,103.59,T,,M,0.66,N,1.22,K,A*2C
###2023-12-09 12:33:20.960725$GNGST,173320.10,21.000,,,,0.130,0.130,0.260*55
###2023-12-09 12:33:20.962012$GNZDA,173320.10,09,12,2023,00,00*74
###2023-12-09 12:33:20.962666$GNEBP,,,,,,M*13
###2023-12-09 12:33:21.132887$GNGGA,173320.30,4138.0458039,N,07032.4307443,W,1,18,0.9,13.291,M,-29.745,M,0.0,*59
###2023-12-09 12:33:21.331956$GNGGA,173320.50,4138.0458018,N,07032.4307009,W,1,18,0.8,13.304,M,-29.745,M,0.0,*5A
###2023-12-09 12:33:21.531965$GNGGA,173320.70,4138.0457985,N,07032.4306598,W,1,18,0.8,13.301,M,-29.745,M,0.0,*53
###2023-12-09 12:33:21.730936$GNGGA,173320.90,4138.0457974,N,07032.4306331,W,1,20,0.7,13.312,M,-29.745,M,0.0,*50
###2023-12-09 12:33:21.935041$GNRMC,173321.10,A,4138.0457864,N,07032.4305882,W,0.99,108.16,091223,,,A*57
###2023-12-09 12:33:21.938414$GNGGA,173321.10,4138.0457864,N,07032.4305882,W,1,20,0.7,13.313,M,-29.745,M,0.0,*58
###2023-12-09 12:33:21.940532$GPGSA,A,3,03,04,16,26,28,29,31,32,,,,,1.3,0.7,1.1*31
###2023-12-09 12:33:21.942253$GLGSA,A,3,71,72,73,74,,,,,,,,,1.3,0.7,1.1*2F
###2023-12-09 12:33:21.943896$GAGSA,A,3,04,21,27,,,,,,,,,,1.3,0.7,1.1*24
###2023-12-09 12:33:21.945660$GBGSA,A,3,14,24,25,26,33,,,,,,,,1.3,0.7,1.1*25
###2023-12-09 12:33:21.948139$GPGSV,2,1,08,03,39,278,37,04,21,310,39,16,36,207,39,26,65,206,48*7F
###2023-12-09 12:33:21.950638$GPGSV,2,2,08,28,58,055,48,29,25,075,39,31,73,358,39,32,31,134,44*79
