###2023-12-09 13:37:21.796326$GNGGA,183720.90,4138.0306900,N,07032.3953435,W,1,24,0.6,13.429,M,-29.745,M,0.0,*5F
###2023-12-09 13:37:22.000509$GNRMC,183721.10,A,4138.0306776,N,07032.3953882,W,0.54,270.75,091223,,,A*55
###2023-12-09 13:37:22.003379$GNGGA,183721.10,4138.0306776,N,07032.3953882,W,1,24,0.6,13.441,M,-29.745,M,0.0,*57
###2023-12-09 13:37:22.005166$GPGSA,A,3,04,16,26,27,28,29,31,,,,,,1.1,0.6,1.0*34
###2023-12-09 13:37:22.006951$GLGSA,A,3,65,71,72,73,74,75,83,,,,,,1.1,0.6,1.0*27
###2023-12-09 13:37:22.008524$GAGSA,A,3,04,19,21,27,,,,,,,,,1.1,0.6,1.0*2E
###2023-12-09 13:37:22.010223$GBGSA,A,3,12,14,24,25,33,35,,,,,,,1.1,0.6,1.0*26
###2023-12-09 13:37:22.012539$GPGSV,2,1,07,04,48,307,47,16,68,224,46,26,83,040,49,27,17,172,41*79
###2023-12-09 13:37:22.014569$GPGSV,2,2,07,28,37,085,43,29,20,046,42,31,59,067,46,,,,*4A
###2023-12-09 13:37:22.016882$GLGSV,2,1,07,65,39,317,45,71,21,175,42,72,61,219,46,73,21,053,44*67
###2023-12-09 13:37:22.018919$GLGSV,2,2,07,74,59,016,43,75,44,273,47,83,15,046,36,,,,*52
###2023-12-09 13:37:22.021232$GAGSV,1,1,04,04,40,309,45,19,71,181,41,21,76,045,47,27,22,050,41*61
###2023-12-09 13:37:22.023563$GBGSV,2,1,06,12,16,125,40,14,28,189,39,24,62,047,47,25,52,277,47*6E
###2023-12-09 13:37:22.025303$GBGSV,2,2,06,33,44,216,45,35,16,055,42,,,,,,,,*6E
###2023-12-09 13:37:22.026631$GNVTG,270.75,T,,M,0.54,N,1.01,K,A*25
###2023-12-09 13:37:22.028244$GNGST,183721.10,5.900,,,,0.087,0.075,0.160*6E
###2023-12-09 13:37:22.029539$GNZDA,183721.10,09,12,2023,00,00*7E
###2023-12-09 13:37:22.030185$GNEBP,,,,,,M*13
###2023-12-09 13:37:22.197013$GNGGA,183721.30,4138.0306545,N,07032.3954051,W,1,24,0.6,13.435,M,-29.745,M,0.0,*55
###2023-12-09 13:37:22.396668$GNGGA,183721.50,4138.0306287,N,07032.3954144,W,1,24,0.6,13.411,M,-29.745,M,0.0,*59
###2023-12-09 13:37:22.594559$GNGGA,183721.70,4138.0306138,N,07032.3954492,W,1,24,0.6,13.408,M,-29.745,M,0.0,*5A
###2023-12-09 13:37:22.797474$GNGGA,183721.90,4138.0306053,N,07032.3954978,W,1,24,0.6,13.415,M,-29.745,M,0.0,*5D
###2023-12-09 13:37:22.999919$GNRMC,183722.10,A,4138.0305891,N,07032.3955253,W,0.45,270.75,091223,,,A*53
###2023-12-09 13:37:23.002783$GNGGA,183722.10,4138.0305891,N,07032.3955253,W,1,24,0.6,13.411,M,-29.745,M,0.0,*54
###2023-12-09 13:37:23.004572$GPGSA,A,3,04,16,26,27,28,29,31,,,,,,1.1,0.6,1.0*34
###2023-12-09 13:37:23.006349$GLGSA,A,3,65,71,72,73,74,75,83,,,,,,1.1,0.6,1.0*27
###2023-12-09 13:37:23.007940$GAGSA,A,3,04,19,21,27,,,,,,,,,1.1,0.6,1.0*2E
###2023-12-09 13:37:23.009649$GBGSA,A,3,12,14,24,25,33,35,,,,,,,1.1,0.6,1.0*26
###2023-12-09 13:37:23.011982$GPGSV,2,1,07,04,48,307,46,16,68,224,46,26,83,040,48,27,17,172,40*78
###2023-12-09 13:37:23.014027$GPGSV,2,2,07,28,37,085,44,29,20,046,43,31,59,067,47,,,,*4D
###2023-12-09 13:37:23.016367$GLGSV,2,1,07,65,39,317,45,71,21,175,43,72,61,219,46,73,21,053,44*66
###2023-12-09 13:37:23.018410$GLGSV,2,2,07,74,59,016,43,75,44,273,48,83,15,046,36,,,,*5D
###2023-12-09 13:37:23.020744$GAGSV,1,1,04,04,40,309,45,19,71,181,41,21,76,045,47,27,22,050,41*61
###2023-12-09 13:37:23.023087$GBGSV,2,1,06,12,16,125,41,14,28,189,40,24,62,047,48,25,52,277,47*6E
###2023-12-09 13:37:23.024841$GBGSV,2,2,06,33,44,216,44,35,16,055,43,,,,,,,,*6E
###2023-12-09 13:37:23.026169$GNVTG,270.75,T,,M,0.45,N,0.83,K,A*2E
###2023-12-09 13:37:23.027794$GNGST,183722.10,6.100,,,,0.087,0.075,0.160*66
###2023-12-09 13:37:23.029091$GNZDA,183722.10,09,12,2023,00,00*7D
###2023-12-09 13:37:23.029732$GNEBP,,,,,,M*13
###2023-12-09 13:37:23.198732$GNGGA,183722.30,4138.0305633,N,07032.3955350,W,1,24,0.6,13.406,M,-29.745,M,0.0,*54
###2023-12-09 13:37:23.395617$GNGGA,183722.50,4138.0305454,N,07032.3955572,W,1,24,0.6,13.409,M,-29.745,M,0.0,*58
###2023-12-09 13:37:23.595507$GNGGA,183722.70,4138.0305375,N,07032.3956034,W,1,24,0.6,13.416,M,-29.745,M,0.0,*54
###2023-12-09 13:37:23.795945$GNGGA,183722.90,4138.0305253,N,07032.3956419,W,1,24,0.6,13.408,M,-29.745,M,0.0,*5B
###2023-12-09 13:37:23.998230$GNRMC,183723.10,A,4138.0305016,N,07032.3956504,W,0.47,270.75,091223,,,A*51
###2023-12-09 13:37:24.001107$GNGGA,183723.10,4138.0305016,N,07032.3956504,W,1,24,0.6,13.387,M,-29.745,M,0.0,*5C
###2023-12-09 13:37:24.002913$GPGSA,A,3,04,16,26,27,28,29,31,,,,,,1.1,0.6,1.0*34
###2023-12-09 13:37:24.004690$GLGSA,A,3,65,71,72,73,74,75,83,,,,,,1.1,0.6,1.0*27
###2023-12-09 13:37:24.006268$GAGSA,A,3,04,19,21,27,,,,,,,,,1.1,0.6,1.0*2E
###2023-12-09 13:37:24.007985$GBGSA,A,3,12,14,24,25,33,35,,,,,,,1.1,0.6,1.0*26
###2023-12-09 13:37:24.010309$GPGSV,2,1,07,04,48,307,46,16,68,224,45,26,83,040,49,27,17,172,40*7A
###2023-12-09 13:37:24.012360$GPGSV,2,2,07,28,37,085,44,29,20,046,43,31,59,067,47,,,,*4D
###2023-12-09 13:37:24.014710$GLGSV,2,1,07,65,39,317,45,71,21,175,43,72,61,219,46,73,21,053,44*66
###2023-12-09 13:37:24.016760$GLGSV,2,2,07,74,59,016,43,75,44,273,47,83,15,046,36,,,,*52
###2023-12-09 13:37:24.019165$GAGSV,1,1,04,04,40,309,45,19,71,181,41,21,76,045,47,27,22,050,41*61
###2023-12-09 13:37:24.021505$GBGSV,2,1,06,12,16,125,42,14,28,189,42,24,62,047,48,25,52,277,47*6F
###2023-12-09 13:37:24.023270$GBGSV,2,2,06,33,44,216,45,35,16,055,44,,,,,,,,*68
###2023-12-09 13:37:24.024595$GNVTG,270.75,T,,M,0.47,N,0.86,K,A*29
###2023-12-09 13:37:24.026204$GNGST,183723.10,6.200,,,,0.087,0.076,0.160*67
###2023-12-09 13:37:24.027504$GNZDA,183723.10,09,12,2023,00,00*7C
###2023-12-09 13:37:24.028145$GNEBP,,,,,,M*13
###2023-12-09 13:37:24.195835$GNGGA,183723.30,4138.0304809,N,07032.3956612,W,1,24,0.6,13.392,M,-29.745,M,0.0,*59
###2023-12-09 13:37:24.393405$GNGGA,183723.50,4138.0304745,N,07032.3957097,W,1,24,0.6,13.412,M,-29.745,M,0.0,*5D
###2023-12-09 13:37:24.593443$GNGGA,183723.70,4138.0304674,N,07032.3957567,W,1,24,0.6,13.410,M,-29.745,M,0.0,*54
###2023-12-09 13:37:24.794917$GNGGA,183723.90,4138.0304474,N,07032.3957674,W,1,24,0.6,13.389,M,-29.745,M,0.0,*5E
###2023-12-09 13:37:25.000385$GNRMC,183724.10,A,4138.0304247,N,07032.3957720,W,0.41,270.75,091223,,,A*52
###2023-12-09 13:37:25.003244$GNGGA,183724.10,4138.0304247,N,07032.3957720,W,1,24,0.6,13.376,M,-29.745,M,0.0,*57
###2023-12-09 13:37:25.005028$GPGSA,A,3,04,16,26,27,28,29,31,,,,,,1.1,0.6,1.0*34
###2023-12-09 13:37:25.006809$GLGSA,A,3,65,71,72,73,74,75,83,,,,,,1.1,0.6,1.0*27
###2023-12-09 13:37:25.008386$GAGSA,A,3,04,19,21,27,,,,,,,,,1.1,0.6,1.0*2E
###2023-12-09 13:37:25.010085$GBGSA,A,3,12,14,24,25,33,35,,,,,,,1.1,0.6,1.0*26
###2023-12-09 13:37:25.012405$GPGSV,2,1,07,04,48,307,46,16,68,224,45,26,83,040,49,27,17,172,40*7A
###2023-12-09 13:37:25.014433$GPGSV,2,2,07,28,37,085,44,29,20,046,43,31,59,067,47,,,,*4D
###2023-12-09 13:37:25.016763$GLGSV,2,1,07,65,39,317,44,71,21,175,42,72,61,219,46,73,21,053,46*64
###2023-12-09 13:37:25.018851$GLGSV,2,2,07,74,59,016,42,75,44,273,47,83,15,046,36,,,,*53
###2023-12-09 13:37:25.021174$GAGSV,1,1,04,04,40,309,45,19,71,181,41,21,76,045,47,27,22,050,42*62
###2023-12-09 13:37:25.023504$GBGSV,2,1,06,12,16,125,44,14,28,189,42,24,62,047,49,25,52,277,47*68
###2023-12-09 13:37:25.025250$GBGSV,2,2,06,33,44,216,46,35,16,055,45,,,,,,,,*6A
###2023-12-09 13:37:25.026580$GNVTG,270.75,T,,M,0.41,N,0.76,K,A*20
###2023-12-09 13:37:25.028193$GNGST,183724.10,5.900,,,,0.088,0.076,0.160*67
###2023-12-09 13:37:25.029479$GNZDA,183724.10,09,12,2023,00,00*7B
###2023-12-09 13:37:25.030116$GNEBP,,,,,,M*13
###2023-12-09 13:37:25.196783$GNGGA,183724.30,4138.0304136,N,07032.3958092,W,1,24,0.6,13.385,M,-29.745,M,0.0,*5D
###2023-12-09 13:37:25.395803$GNGGA,183724.50,4138.0304073,N,07032.3958595,W,1,24,0.6,13.390,M,-29.745,M,0.0,*5D
###2023-12-09 13:37:25.594376$GNGGA,183724.70,4138.0303947,N,07032.3958872,W,1,24,0.6,13.386,M,-29.745,M,0.0,*55
###2023-12-09 13:37:25.795226$GNGGA,183724.90,4138.0303755,N,07032.3958982,W,1,24,0.6,13.387,M,-29.745,M,0.0,*59
###2023-12-09 13:37:25.998998$GNRMC,183725.10,A,4138.0303587,N,07032.3959128,W,0.39,270.75,091223,,,A*50
###2023-12-09 13:37:26.001860$GNGGA,183725.10,4138.0303587,N,07032.3959128,W,1,24,0.6,13.369,M,-29.745,M,0.0,*54
###2023-12-09 13:37:26.003672$GPGSA,A,3,04,16,26,27,28,29,31,,,,,,1.1,0.6,1.0*34
###2023-12-09 13:37:26.005453$GLGSA,A,3,65,71,72,73,74,75,83,,,,,,1.1,0.6,1.0*27
###2023-12-09 13:37:26.007052$GAGSA,A,3,04,19,21,27,,,,,,,,,1.1,0.6,1.0*2E
###2023-12-09 13:37:26.009112$GBGSA,A,3,12,14,24,25,33,35,,,,,,,1.1,0.6,1.0*26
###2023-12-09 13:37:26.011485$GPGSV,2,1,07,04,48,307,46,16,68,224,45,26,83,040,49,27,17,172,40*7A
###2023-12-09 13:37:26.013538$GPGSV,2,2,07,28,37,085,44,29,20,046,42,31,59,067,47,,,,*4C
###2023-12-09 13:37:26.015889$GLGSV,2,1,07,65,39,317,44,71,21,175,41,72,61,219,45,73,21,053,47*65
###2023-12-09 13:37:26.017934$GLGSV,2,2,07,74,59,016,43,75,44,273,46,83,15,046,36,,,,*53
###2023-12-09 13:37:26.020279$GAGSV,1,1,04,04,40,309,44,19,71,181,40,21,76,045,46,27,22,050,41*60
###2023-12-09 13:37:26.022625$GBGSV,2,1,06,12,16,125,41,14,28,189,40,24,62,047,47,25,52,277,46*60
###2023-12-09 13:37:26.024381$GBGSV,2,2,06,33,44,216,44,35,16,055,44,,,,,,,,*69
###2023-12-09 13:37:26.025704$GNVTG,270.75,T,,M,0.39,N,0.72,K,A*2B
###2023-12-09 13:37:26.027361$GNGST,183725.10,5.900,,,,0.089,0.077,0.170*67
