###2023-12-09 13:39:21.013323$GNRMC,183920.10,A,4138.0663314,N,07032.3847329,W,2.59,213.56,091223,,,A*59
###2023-12-09 13:39:21.016204$GNGGA,183920.10,4138.0663314,N,07032.3847329,W,1,25,0.6,13.364,M,-29.744,M,0.0,*50
###2023-12-09 13:39:21.018053$GPGSA,A,3,03,04,16,26,27,28,29,31,,,,,1.0,0.6,0.8*3F
###2023-12-09 13:39:21.019780$GLGSA,A,3,65,71,72,73,74,75,,,,,,,1.0,0.6,0.8*24
###2023-12-09 13:39:21.021364$GAGSA,A,3,04,19,21,27,,,,,,,,,1.0,0.6,0.8*26
###2023-12-09 13:39:21.023085$GBGSA,A,3,12,14,24,25,33,35,,,,,,,1.0,0.6,0.8*2E
###2023-12-09 13:39:21.025406$GPGSV,2,1,08,03,25,244,39,04,48,306,46,16,69,225,45,26,82,040,48*7B
###2023-12-09 13:39:21.027754$GPGSV,2,2,08,27,18,172,36,28,37,086,45,29,20,046,42,31,58,068,46*73
###2023-12-09 13:39:21.030080$GLGSV,2,1,06,65,40,316,43,71,20,176,38,72,60,217,44,73,20,054,42*6D
###2023-12-09 13:39:21.031836$GLGSV,2,2,06,74,58,018,43,75,45,275,47,,,,,,,,*63
###2023-12-09 13:39:21.034154$GAGSV,1,1,04,04,41,309,44,19,70,181,40,21,75,045,46,27,21,050,41*60
###2023-12-09 13:39:21.036480$GBGSV,2,1,06,12,17,125,42,14,27,189,41,24,61,048,49,25,52,278,49*6E
###2023-12-09 13:39:21.038217$GBGSV,2,2,06,33,44,215,46,35,16,055,45,,,,,,,,*69
###2023-12-09 13:39:21.039547$GNVTG,213.56,T,,M,2.59,N,4.79,K,A*24
###2023-12-09 13:39:21.041154$GNGST,183920.10,5.700,,,,0.091,0.070,0.160*6D
###2023-12-09 13:39:21.042434$GNZDA,183920.10,09,12,2023,00,00*71
###2023-12-09 13:39:21.043084$GNEBP,,,,,,M*13
###2023-12-09 13:39:21.214472$GNGGA,183920.30,4138.0662077,N,07032.3847977,W,1,25,0.6,13.333,M,-29.744,M,0.0,*56
###2023-12-09 13:39:21.401507$GNGGA,183920.50,4138.0660933,N,07032.3847875,W,1,25,0.6,13.297,M,-29.744,M,0.0,*57
###2023-12-09 13:39:21.601230$GNGGA,183920.70,4138.0659738,N,07032.3847930,W,1,26,0.6,13.311,M,-29.744,M,0.0,*56
###2023-12-09 13:39:21.804361$GNGGA,183920.90,4138.0658402,N,07032.3848592,W,1,26,0.6,13.351,M,-29.744,M,0.0,*5C
###2023-12-09 13:39:22.010296$GNRMC,183921.10,A,4138.0657062,N,07032.3848966,W,2.39,182.65,091223,,,A*5E
###2023-12-09 13:39:22.016881$GNGGA,183921.10,4138.0657062,N,07032.3848966,W,1,25,0.6,13.350,M,-29.744,M,0.0,*5D
###2023-12-09 13:39:22.018741$GPGSA,A,3,03,04,16,26,27,28,29,31,,,,,1.0,0.6,0.8*3F
###2023-12-09 13:39:22.020434$GLGSA,A,3,65,71,72,73,74,75,,,,,,,1.0,0.6,0.8*24
###2023-12-09 13:39:22.021994$GAGSA,A,3,04,19,21,27,,,,,,,,,1.0,0.6,0.8*26
###2023-12-09 13:39:22.023702$GBGSA,A,3,12,14,24,25,33,35,,,,,,,1.0,0.6,0.8*2E
###2023-12-09 13:39:22.026005$GPGSV,2,1,08,03,25,244,42,04,48,306,46,16,69,225,46,26,82,040,48*74
###2023-12-09 13:39:22.028329$GPGSV,2,2,08,27,18,172,36,28,37,086,44,29,20,046,42,31,58,068,45*71
###2023-12-09 13:39:22.030653$GLGSV,2,1,06,65,40,316,44,71,20,176,39,72,60,217,45,73,20,054,40*68
###2023-12-09 13:39:22.032380$GLGSV,2,2,06,74,58,018,41,75,45,275,49,,,,,,,,*6F
###2023-12-09 13:39:22.034690$GAGSV,1,1,04,04,41,309,45,19,70,181,40,21,75,045,45,27,21,050,39*6D
###2023-12-09 13:39:22.037000$GBGSV,2,1,06,12,17,125,42,14,27,189,41,24,61,048,48,25,52,278,49*6F
###2023-12-09 13:39:22.038743$GBGSV,2,2,06,33,44,215,47,35,16,055,44,,,,,,,,*69
###2023-12-09 13:39:22.040052$GNVTG,182.65,T,,M,2.39,N,4.43,K,A*20
###2023-12-09 13:39:22.041645$GNGST,183921.10,6.100,,,,0.091,0.069,0.160*61
###2023-12-09 13:39:22.042935$GNZDA,183921.10,09,12,2023,00,00*70
###2023-12-09 13:39:22.043565$GNEBP,,,,,,M*13
###2023-12-09 13:39:22.202597$GNGGA,183921.30,4138.0655757,N,07032.3848778,W,1,25,0.6,13.329,M,-29.744,M,0.0,*53
###2023-12-09 13:39:22.403151$GNGGA,183921.50,4138.0654407,N,07032.3848699,W,1,25,0.6,13.317,M,-29.744,M,0.0,*51
###2023-12-09 13:39:22.601160$GNGGA,183921.70,4138.0652995,N,07032.3849243,W,1,25,0.6,13.355,M,-29.744,M,0.0,*57
###2023-12-09 13:39:22.801884$GNGGA,183921.90,4138.0651539,N,07032.3849826,W,1,25,0.6,13.375,M,-29.744,M,0.0,*5B
###2023-12-09 13:39:23.005680$GNRMC,183922.10,A,4138.0650066,N,07032.3849776,W,2.76,172.56,091223,,,A*54
###2023-12-09 13:39:23.008567$GNGGA,183922.10,4138.0650066,N,07032.3849776,W,1,25,0.6,13.351,M,-29.744,M,0.0,*52
###2023-12-09 13:39:23.010429$GPGSA,A,3,03,04,16,26,27,28,29,31,,,,,1.0,0.6,0.8*3F
###2023-12-09 13:39:23.012162$GLGSA,A,3,65,71,72,73,74,75,,,,,,,1.0,0.6,0.8*24
###2023-12-09 13:39:23.013752$GAGSA,A,3,04,19,21,27,,,,,,,,,1.0,0.6,0.8*26
###2023-12-09 13:39:23.015480$GBGSA,A,3,12,14,24,25,33,35,,,,,,,1.0,0.6,0.8*2E
###2023-12-09 13:39:23.017816$GPGSV,2,1,08,03,25,244,41,04,48,306,46,16,69,225,45,26,82,040,48*74
###2023-12-09 13:39:23.020166$GPGSV,2,2,08,27,18,172,38,28,37,086,44,29,20,046,42,31,58,068,46*7C
###2023-12-09 13:39:23.022499$GLGSV,2,1,06,65,40,316,45,71,20,176,38,72,60,217,45,73,20,054,41*69
###2023-12-09 13:39:23.024259$GLGSV,2,2,06,74,58,018,42,75,45,275,48,,,,,,,,*6D
###2023-12-09 13:39:23.026606$GAGSV,1,1,04,04,41,309,45,19,70,181,40,21,75,045,46,27,21,050,39*6E
###2023-12-09 13:39:23.028949$GBGSV,2,1,06,12,17,125,41,14,27,189,40,24,61,048,48,25,52,278,48*6C
###2023-12-09 13:39:23.030720$GBGSV,2,2,06,33,44,215,45,35,16,055,43,,,,,,,,*6C
###2023-12-09 13:39:23.032056$GNVTG,172.56,T,,M,2.76,N,5.11,K,A*22
###2023-12-09 13:39:23.033674$GNGST,183922.10,5.900,,,,0.092,0.069,0.160*6A
###2023-12-09 13:39:23.035016$GNZDA,183922.10,09,12,2023,00,00*73
###2023-12-09 13:39:23.035660$GNEBP,,,,,,M*13
###2023-12-09 13:39:23.201356$GNGGA,183922.30,4138.0648575,N,07032.3849728,W,1,26,0.6,13.334,M,-29.744,M,0.0,*55
###2023-12-09 13:39:23.404478$GNGGA,183922.50,4138.0647161,N,07032.3850457,W,1,26,0.6,13.389,M,-29.744,M,0.0,*58
###2023-12-09 13:39:23.602318$GNGGA,183922.70,4138.0645736,N,07032.3851455,W,1,26,0.6,13.416,M,-29.744,M,0.0,*5E
###2023-12-09 13:39:23.801838$GNGGA,183922.90,4138.0644189,N,07032.3851708,W,1,26,0.6,13.336,M,-29.744,M,0.0,*5D
###2023-12-09 13:39:24.004887$GNRMC,183923.10,A,4138.0642722,N,07032.3852233,W,2.97,208.60,091223,,,A*5B
###2023-12-09 13:39:24.007764$GNGGA,183923.10,4138.0642722,N,07032.3852233,W,1,26,0.6,13.342,M,-29.744,M,0.0,*58
###2023-12-09 13:39:24.009620$GPGSA,A,3,03,04,16,26,27,28,29,31,,,,,1.0,0.6,0.8*3F
###2023-12-09 13:39:24.011424$GLGSA,A,3,65,71,72,73,74,75,83,,,,,,1.0,0.6,0.8*2F
###2023-12-09 13:39:24.013018$GAGSA,A,3,04,19,21,27,,,,,,,,,1.0,0.6,0.8*26
###2023-12-09 13:39:24.014736$GBGSA,A,3,12,14,24,25,33,35,,,,,,,1.0,0.6,0.8*2E
###2023-12-09 13:39:24.017064$GPGSV,2,1,08,03,25,244,38,04,48,306,45,16,69,225,45,26,82,040,48*79
###2023-12-09 13:39:24.019404$GPGSV,2,2,08,27,18,172,42,28,37,086,46,29,20,046,45,31,58,068,48*7A
###2023-12-09 13:39:24.021729$GLGSV,2,1,07,65,40,316,43,71,20,176,42,72,60,217,44,73,20,054,45*66
###2023-12-09 13:39:24.023775$GLGSV,2,2,07,74,58,018,43,75,45,275,46,83,16,045,37,,,,*5A
###2023-12-09 13:39:24.026100$GAGSV,1,1,04,04,41,309,43,19,70,181,39,21,75,045,46,27,21,050,42*6A
###2023-12-09 13:39:24.028449$GBGSV,2,1,06,12,17,125,43,14,27,189,42,24,61,048,49,25,52,278,47*62
###2023-12-09 13:39:24.030193$GBGSV,2,2,06,33,44,215,45,35,16,055,45,,,,,,,,*6A
###2023-12-09 13:39:24.031531$GNVTG,208.60,T,,M,2.97,N,5.51,K,A*22
###2023-12-09 13:39:24.033152$GNGST,183923.10,6.000,,,,0.092,0.070,0.160*69
###2023-12-09 13:39:24.034447$GNZDA,183923.10,09,12,2023,00,00*72
###2023-12-09 13:39:24.035113$GNEBP,,,,,,M*13
###2023-12-09 13:39:24.203507$GNGGA,183923.30,4138.0641321,N,07032.3853687,W,1,26,0.6,13.428,M,-29.744,M,0.0,*5F
###2023-12-09 13:39:24.402308$GNGGA,183923.50,4138.0639845,N,07032.3854879,W,1,25,0.6,13.421,M,-29.744,M,0.0,*5D
###2023-12-09 13:39:24.601759$GNGGA,183923.70,4138.0638210,N,07032.3855057,W,1,26,0.6,13.376,M,-29.744,M,0.0,*57
###2023-12-09 13:39:24.801844$GNGGA,183923.90,4138.0636628,N,07032.3855416,W,1,26,0.6,13.364,M,-29.744,M,0.0,*5A
###2023-12-09 13:39:25.004530$GNRMC,183924.10,A,4138.0635123,N,07032.3856849,W,3.52,218.69,091223,,,A*58
###2023-12-09 13:39:25.007386$GNGGA,183924.10,4138.0635123,N,07032.3856849,W,1,26,0.6,13.443,M,-29.744,M,0.0,*5D
###2023-12-09 13:39:25.009236$GPGSA,A,3,03,04,16,26,27,28,29,31,,,,,1.0,0.6,0.8*3F
###2023-12-09 13:39:25.011018$GLGSA,A,3,65,71,72,73,74,75,83,,,,,,1.0,0.6,0.8*2F
###2023-12-09 13:39:25.012598$GAGSA,A,3,04,19,21,27,,,,,,,,,1.0,0.6,0.8*26
###2023-12-09 13:39:25.014302$GBGSA,A,3,12,14,24,25,33,35,,,,,,,1.0,0.6,0.8*2E
###2023-12-09 13:39:25.016879$GPGSV,2,1,08,03,25,244,40,04,48,306,46,16,69,225,44,26,82,040,48*74
###2023-12-09 13:39:25.019238$GPGSV,2,2,08,27,18,172,41,28,37,086,45,29,20,046,44,31,58,068,47*74
###2023-12-09 13:39:25.021578$GLGSV,2,1,07,65,40,316,44,71,20,176,40,72,60,217,45,73,20,054,43*64
###2023-12-09 13:39:25.023635$GLGSV,2,2,07,74,58,018,42,75,45,275,46,83,16,045,37,,,,*5B
###2023-12-09 13:39:25.025964$GAGSV,1,1,04,04,41,309,45,19,70,181,39,21,75,045,46,27,21,050,41*6F
###2023-12-09 13:39:25.028299$GBGSV,2,1,06,12,17,125,42,14,27,189,39,24,61,048,48,25,52,278,46*6F
###2023-12-09 13:39:25.030039$GBGSV,2,2,06,33,44,215,45,35,16,055,44,,,,,,,,*6B
###2023-12-09 13:39:25.031373$GNVTG,218.69,T,,M,3.52,N,6.52,K,A*22
###2023-12-09 13:39:25.032985$GNGST,183924.10,5.800,,,,0.091,0.070,0.160*66
###2023-12-09 13:39:25.034272$GNZDA,183924.10,09,12,2023,00,00*75
