###2023-12-09 12:47:30.967535$GAGSV,1,1,04,04,24,312,41,19,84,276,41,21,82,165,46,27,38,049,45*62
###2023-12-09 12:47:30.969888$GBGSV,2,1,05,14,50,195,47,24,78,008,49,25,36,257,46,26,31,060,44*6F
###2023-12-09 12:47:30.971369$GBGSV,2,2,05,33,61,243,48,,,,,,,,,,,,*50
###2023-12-09 12:47:30.972632$GNVTG,7.86,T,,M,0.19,N,0.36,K,A*27
###2023-12-09 12:47:30.974279$GNGST,174730.10,18.000,,,,0.078,0.069,0.160*5E
###2023-12-09 12:47:30.975585$GNZDA,174730.10,09,12,2023,00,00*76
###2023-12-09 12:47:30.976223$GNEBP,,,,,,M*13
###2023-12-09 12:47:31.146983$GNGGA,174730.30,4138.0504585,N,07032.3989049,W,1,24,0.6,13.311,M,-29.745,M,0.0,*5D
###2023-12-09 12:47:31.346240$GNGGA,174730.50,4138.0504739,N,07032.3989060,W,1,24,0.6,13.313,M,-29.745,M,0.0,*57
###2023-12-09 12:47:31.546340$GNGGA,174730.70,4138.0504795,N,07032.3989045,W,1,24,0.6,13.312,M,-29.745,M,0.0,*55
###2023-12-09 12:47:31.747023$GNGGA,174730.90,4138.0504798,N,07032.3989039,W,1,24,0.6,13.307,M,-29.745,M,0.0,*59
###2023-12-09 12:47:31.946188$GNRMC,174731.10,A,4138.0504876,N,07032.3989050,W,0.21,7.86,091223,,,A*5B
###2023-12-09 12:47:31.949068$GNGGA,174731.10,4138.0504876,N,07032.3989050,W,1,24,0.6,13.301,M,-29.745,M,0.0,*56
###2023-12-09 12:47:31.950957$GPGSA,A,3,03,04,16,26,28,29,31,32,,,,,1.1,0.6,0.9*3B
###2023-12-09 12:47:31.952677$GLGSA,A,3,65,71,72,73,74,75,,,,,,,1.1,0.6,0.9*24
###2023-12-09 12:47:31.954257$GAGSA,A,3,04,19,21,27,,,,,,,,,1.1,0.6,0.9*26
###2023-12-09 12:47:31.955926$GBGSA,A,3,14,24,25,26,33,,,,,,,,1.1,0.6,0.9*2F
###2023-12-09 12:47:31.958261$GPGSV,2,1,08,03,37,269,45,04,27,311,42,16,42,209,46,26,72,208,48*72
###2023-12-09 12:47:31.960619$GPGSV,2,2,08,28,54,062,45,29,26,068,41,31,72,018,48,32,25,137,40*7E
###2023-12-09 12:47:31.962979$GLGSV,2,1,06,65,17,329,41,71,49,171,46,72,70,294,47,73,42,037,46*6C
###2023-12-09 12:47:31.964734$GLGSV,2,2,06,74,71,314,43,75,27,246,43,,,,,,,,*67
###2023-12-09 12:47:31.967085$GAGSV,1,1,04,04,24,312,42,19,84,276,41,21,82,165,46,27,38,049,44*60
###2023-12-09 12:47:31.969422$GBGSV,2,1,05,14,50,195,47,24,78,008,49,25,36,257,45,26,31,060,44*6C
###2023-12-09 12:47:31.970901$GBGSV,2,2,05,33,61,243,49,,,,,,,,,,,,*51
###2023-12-09 12:47:31.972162$GNVTG,7.86,T,,M,0.21,N,0.40,K,A*2D
###2023-12-09 12:47:31.973814$GNGST,174731.10,18.000,,,,0.078,0.068,0.160*5E
###2023-12-09 12:47:31.975121$GNZDA,174731.10,09,12,2023,00,00*77
###2023-12-09 12:47:31.975762$GNEBP,,,,,,M*13
###2023-12-09 12:47:32.147104$GNGGA,174731.30,4138.0505033,N,07032.3989068,W,1,24,0.6,13.298,M,-29.745,M,0.0,*56
###2023-12-09 12:47:32.346211$GNGGA,174731.50,4138.0505155,N,07032.3989052,W,1,24,0.6,13.299,M,-29.745,M,0.0,*59
###2023-12-09 12:47:32.546503$GNGGA,174731.70,4138.0505218,N,07032.3989067,W,1,24,0.6,13.305,M,-29.745,M,0.0,*53
###2023-12-09 12:47:32.744988$GNGGA,174731.90,4138.0505248,N,07032.3989085,W,1,24,0.6,13.305,M,-29.745,M,0.0,*54
###2023-12-09 12:47:32.953905$GNRMC,174732.10,A,4138.0505319,N,07032.3989095,W,0.23,7.86,091223,,,A*50
###2023-12-09 12:47:32.956796$GNGGA,174732.10,4138.0505319,N,07032.3989095,W,1,24,0.6,13.295,M,-29.745,M,0.0,*53
###2023-12-09 12:47:32.958671$GPGSA,A,3,03,04,16,26,28,29,31,32,,,,,1.1,0.6,0.9*3B
###2023-12-09 12:47:32.960393$GLGSA,A,3,65,71,72,73,74,75,,,,,,,1.1,0.6,0.9*24
###2023-12-09 12:47:32.961981$GAGSA,A,3,04,19,21,27,,,,,,,,,1.1,0.6,0.9*26
###2023-12-09 12:47:32.963650$GBGSA,A,3,14,24,25,26,33,,,,,,,,1.1,0.6,0.9*2F
###2023-12-09 12:47:32.965974$GPGSV,2,1,08,03,37,269,46,04,27,311,42,16,43,209,47,26,72,208,49*70
###2023-12-09 12:47:32.968317$GPGSV,2,2,08,28,54,062,45,29,26,068,40,31,72,018,48,32,25,137,39*71
###2023-12-09 12:47:32.970657$GLGSV,2,1,06,65,17,329,40,71,49,171,47,72,70,294,47,73,42,037,46*6C
###2023-12-09 12:47:32.972401$GLGSV,2,2,06,74,71,314,43,75,27,246,44,,,,,,,,*60
###2023-12-09 12:47:32.974738$GAGSV,1,1,04,04,24,312,41,19,84,276,40,21,82,165,46,27,38,049,44*62
###2023-12-09 12:47:32.977062$GBGSV,2,1,05,14,50,195,47,24,78,008,49,25,36,257,45,26,31,060,44*6C
###2023-12-09 12:47:32.978511$GBGSV,2,2,05,33,61,243,48,,,,,,,,,,,,*50
###2023-12-09 12:47:32.979778$GNVTG,7.86,T,,M,0.23,N,0.43,K,A*2C
###2023-12-09 12:47:32.981425$GNGST,174732.10,18.000,,,,0.077,0.068,0.160*52
###2023-12-09 12:47:32.982727$GNZDA,174732.10,09,12,2023,00,00*74
###2023-12-09 12:47:32.983367$GNEBP,,,,,,M*13
###2023-12-09 12:47:33.146628$GNGGA,174732.30,4138.0505446,N,07032.3989115,W,1,24,0.6,13.289,M,-29.745,M,0.0,*58
###2023-12-09 12:47:33.345885$GNGGA,174732.50,4138.0505604,N,07032.3989125,W,1,24,0.6,13.288,M,-29.745,M,0.0,*58
###2023-12-09 12:47:33.546621$GNGGA,174732.70,4138.0505707,N,07032.3989138,W,1,24,0.6,13.296,M,-29.745,M,0.0,*5B
###2023-12-09 12:47:33.746339$GNGGA,174732.90,4138.0505733,N,07032.3989163,W,1,24,0.6,13.303,M,-29.745,M,0.0,*51
###2023-12-09 12:47:33.947144$GNRMC,174733.10,A,4138.0505761,N,07032.3989184,W,0.14,7.86,091223,,,A*5F
###2023-12-09 12:47:33.950019$GNGGA,174733.10,4138.0505761,N,07032.3989184,W,1,24,0.6,13.300,M,-29.745,M,0.0,*55
###2023-12-09 12:47:33.951901$GPGSA,A,3,03,04,16,26,28,29,31,32,,,,,1.1,0.6,0.9*3B
###2023-12-09 12:47:33.953634$GLGSA,A,3,65,71,72,73,74,75,,,,,,,1.1,0.6,0.9*24
###2023-12-09 12:47:33.955246$GAGSA,A,3,04,19,21,27,,,,,,,,,1.1,0.6,0.9*26
###2023-12-09 12:47:33.956906$GBGSA,A,3,14,24,25,26,33,,,,,,,,1.1,0.6,0.9*2F
###2023-12-09 12:47:33.959273$GPGSV,2,1,08,03,37,269,46,04,27,311,41,16,43,209,47,26,72,208,48*72
###2023-12-09 12:47:33.961621$GPGSV,2,2,08,28,54,062,45,29,26,068,41,31,72,018,47,32,25,137,40*71
###2023-12-09 12:47:33.963990$GLGSV,2,1,06,65,17,329,41,71,49,171,47,72,70,294,47,73,42,037,46*6D
###2023-12-09 12:47:33.965752$GLGSV,2,2,06,74,71,314,43,75,27,246,43,,,,,,,,*67
###2023-12-09 12:47:33.968110$GAGSV,1,1,04,04,24,312,41,19,84,276,41,21,82,165,46,27,38,049,45*62
###2023-12-09 12:47:33.970465$GBGSV,2,1,05,14,50,195,46,24,78,008,48,25,36,257,45,26,31,060,44*6C
###2023-12-09 12:47:33.971954$GBGSV,2,2,05,33,61,243,48,,,,,,,,,,,,*50
###2023-12-09 12:47:33.973224$GNVTG,7.86,T,,M,0.14,N,0.25,K,A*28
###2023-12-09 12:47:33.974894$GNGST,174733.10,18.000,,,,0.077,0.068,0.160*53
###2023-12-09 12:47:33.976196$GNZDA,174733.10,09,12,2023,00,00*75
###2023-12-09 12:47:33.976838$GNEBP,,,,,,M*13
###2023-12-09 12:47:34.146093$GNGGA,174733.30,4138.0505895,N,07032.3989201,W,1,24,0.6,13.297,M,-29.745,M,0.0,*52
###2023-12-09 12:47:34.346503$GNGGA,174733.50,4138.0506109,N,07032.3989221,W,1,24,0.6,13.298,M,-29.745,M,0.0,*56
###2023-12-09 12:47:34.546598$GNGGA,174733.70,4138.0506266,N,07032.3989256,W,1,24,0.6,13.303,M,-29.745,M,0.0,*5D
###2023-12-09 12:47:34.746418$GNGGA,174733.90,4138.0506288,N,07032.3989270,W,1,24,0.6,13.317,M,-29.745,M,0.0,*52
###2023-12-09 12:47:34.947616$GNRMC,174734.10,A,4138.0506333,N,07032.3989294,W,0.19,7.86,091223,,,A*57
###2023-12-09 12:47:34.950494$GNGGA,174734.10,4138.0506333,N,07032.3989294,W,1,24,0.6,13.322,M,-29.745,M,0.0,*50
###2023-12-09 12:47:34.952375$GPGSA,A,3,03,04,16,26,28,29,31,32,,,,,1.1,0.6,0.9*3B
###2023-12-09 12:47:34.954103$GLGSA,A,3,65,71,72,73,74,75,,,,,,,1.1,0.6,0.9*24
###2023-12-09 12:47:34.955713$GAGSA,A,3,04,19,21,27,,,,,,,,,1.1,0.6,0.9*26
###2023-12-09 12:47:34.957369$GBGSA,A,3,14,24,25,26,33,,,,,,,,1.1,0.6,0.9*2F
###2023-12-09 12:47:34.959735$GPGSV,2,1,08,03,37,269,45,04,27,311,40,16,43,209,48,26,72,208,49*7E
###2023-12-09 12:47:34.962078$GPGSV,2,2,08,28,54,062,45,29,26,068,41,31,72,018,47,32,25,137,40*71
###2023-12-09 12:47:34.964435$GLGSV,2,1,06,65,17,329,41,71,49,171,47,72,70,294,47,73,42,037,46*6D
###2023-12-09 12:47:34.966192$GLGSV,2,2,06,74,71,314,43,75,27,246,45,,,,,,,,*61
###2023-12-09 12:47:34.968545$GAGSV,1,1,04,04,24,312,41,19,84,276,41,21,82,165,46,27,38,049,45*62
###2023-12-09 12:47:34.970901$GBGSV,2,1,05,14,50,195,46,24,78,008,48,25,36,257,45,26,31,060,43*6B
###2023-12-09 12:47:34.972364$GBGSV,2,2,05,33,61,243,48,,,,,,,,,,,,*50
###2023-12-09 12:47:34.973630$GNVTG,7.86,T,,M,0.19,N,0.36,K,A*27
###2023-12-09 12:47:34.975301$GNGST,174734.10,18.000,,,,0.077,0.068,0.160*54
###2023-12-09 12:47:34.976605$GNZDA,174734.10,09,12,2023,00,00*72
###2023-12-09 12:47:34.977245$GNEBP,,,,,,M*13
###2023-12-09 12:47:35.147019$GNGGA,174734.30,4138.0506512,N,07032.3989333,W,1,24,0.6,13.319,M,-29.745,M,0.0,*53
###2023-12-09 12:47:35.346318$GNGGA,174734.50,4138.0506757,N,07032.3989349,W,1,24,0.6,13.319,M,-29.745,M,0.0,*5B
###2023-12-09 12:47:35.547352$GNGGA,174734.70,4138.0506903,N,07032.3989373,W,1,24,0.6,13.327,M,-29.745,M,0.0,*52
###2023-12-09 12:47:35.747117$GNGGA,174734.90,4138.0506953,N,07032.3989432,W,1,24,0.6,13.348,M,-29.745,M,0.0,*52
###2023-12-09 12:47:35.949105$GNRMC,174735.10,A,4138.0507039,N,07032.3989461,W,0.21,7.86,091223,,,A*59
###2023-12-09 12:47:35.952000$GNGGA,174735.10,4138.0507039,N,07032.3989461,W,1,24,0.6,13.356,M,-29.745,M,0.0,*56
###2023-12-09 12:47:35.953865$GPGSA,A,3,03,04,16,26,28,29,31,32,,,,,1.1,0.6,0.9*3B
###2023-12-09 12:47:35.955618$GLGSA,A,3,65,71,72,73,74,75,,,,,,,1.1,0.6,0.9*24
###2023-12-09 12:47:35.957214$GAGSA,A,3,04,19,21,27,,,,,,,,,1.1,0.6,0.9*26
