###2023-12-09 12:44:58.954838$GPGSA,A,3,03,04,16,26,28,29,31,32,,,,,1.1,0.6,0.9*3B
###2023-12-09 12:44:58.956581$GLGSA,A,3,65,71,72,73,74,75,,,,,,,1.1,0.6,0.9*24
###2023-12-09 12:44:58.958168$GAGSA,A,3,04,19,21,27,,,,,,,,,1.1,0.6,0.9*26
###2023-12-09 12:44:58.959835$GBGSA,A,3,14,24,25,26,33,,,,,,,,1.1,0.6,0.9*2F
###2023-12-09 12:44:58.962170$GPGSV,2,1,08,03,38,271,45,04,25,311,41,16,41,209,45,26,71,208,48*76
###2023-12-09 12:44:58.964523$GPGSV,2,2,08,28,55,061,45,29,26,069,43,31,72,015,46,32,26,136,42*7C
###2023-12-09 12:44:58.966883$GLGSV,2,1,06,65,17,329,44,71,51,170,46,72,69,300,47,73,44,036,46*62
###2023-12-09 12:44:58.968632$GLGSV,2,2,06,74,71,307,43,75,25,245,45,,,,,,,,*62
###2023-12-09 12:44:58.970987$GAGSV,1,1,04,04,24,312,41,19,84,283,40,21,81,168,45,27,38,049,43*62
###2023-12-09 12:44:58.973318$GBGSV,2,1,05,14,50,195,43,24,78,005,47,25,36,256,46,26,31,059,44*63
###2023-12-09 12:44:58.974781$GBGSV,2,2,05,33,61,245,48,,,,,,,,,,,,*56
###2023-12-09 12:44:58.976099$GNVTG,152.41,T,,M,2.41,N,4.46,K,A*21
###2023-12-09 12:44:58.977738$GNGST,174458.10,18.000,,,,0.081,0.071,0.170*5D
###2023-12-09 12:44:58.979048$GNZDA,174458.10,09,12,2023,00,00*7B
###2023-12-09 12:44:58.979688$GNEBP,,,,,,M*13
###2023-12-09 12:44:59.144552$GNGGA,174458.30,4138.0432545,N,07032.3976056,W,1,24,0.6,13.251,M,-29.745,M,0.0,*53
###2023-12-09 12:44:59.345222$GNGGA,174458.50,4138.0431378,N,07032.3975370,W,1,24,0.6,13.254,M,-29.745,M,0.0,*5F
###2023-12-09 12:44:59.545437$GNGGA,174458.70,4138.0430079,N,07032.3974766,W,1,24,0.6,13.267,M,-29.745,M,0.0,*5C
###2023-12-09 12:44:59.744011$GNGGA,174458.90,4138.0428784,N,07032.3973969,W,1,24,0.6,13.264,M,-29.745,M,0.0,*5B
###2023-12-09 12:44:59.945563$GNRMC,174459.10,A,4138.0427765,N,07032.3972944,W,2.16,137.69,091223,,,A*56
###2023-12-09 12:44:59.948455$GNGGA,174459.10,4138.0427765,N,07032.3972944,W,1,24,0.6,13.256,M,-29.745,M,0.0,*5D
###2023-12-09 12:44:59.950326$GPGSA,A,3,03,04,16,26,28,29,31,32,,,,,1.1,0.6,0.9*3B
###2023-12-09 12:44:59.952060$GLGSA,A,3,65,71,72,73,74,75,,,,,,,1.1,0.6,0.9*24
###2023-12-09 12:44:59.953642$GAGSA,A,3,04,19,21,27,,,,,,,,,1.1,0.6,0.9*26
###2023-12-09 12:44:59.955308$GBGSA,A,3,14,24,25,26,33,,,,,,,,1.1,0.6,0.9*2F
###2023-12-09 12:44:59.957627$GPGSV,2,1,08,03,38,271,44,04,25,311,42,16,41,209,45,26,71,208,48*74
###2023-12-09 12:44:59.960005$GPGSV,2,2,08,28,55,061,44,29,26,069,43,31,72,015,46,32,26,136,42*7D
###2023-12-09 12:44:59.962337$GLGSV,2,1,06,65,17,329,43,71,51,170,47,72,69,300,47,73,44,036,46*64
###2023-12-09 12:44:59.964098$GLGSV,2,2,06,74,71,307,43,75,25,245,45,,,,,,,,*62
###2023-12-09 12:44:59.966427$GAGSV,1,1,04,04,24,312,41,19,84,283,40,21,81,168,46,27,38,049,44*66
###2023-12-09 12:44:59.968778$GBGSV,2,1,05,14,50,195,45,24,78,005,48,25,36,256,45,26,31,059,45*68
###2023-12-09 12:44:59.970237$GBGSV,2,2,05,33,61,245,49,,,,,,,,,,,,*57
###2023-12-09 12:44:59.971576$GNVTG,137.69,T,,M,2.16,N,4.00,K,A*28
###2023-12-09 12:44:59.973223$GNGST,174459.10,18.000,,,,0.081,0.070,0.160*5C
###2023-12-09 12:44:59.974514$GNZDA,174459.10,09,12,2023,00,00*7A
###2023-12-09 12:44:59.975169$GNEBP,,,,,,M*13
###2023-12-09 12:45:00.146389$GNGGA,174459.30,4138.0426812,N,07032.3971847,W,1,24,0.6,13.268,M,-29.745,M,0.0,*5D
###2023-12-09 12:45:00.346726$GNGGA,174459.50,4138.0425675,N,07032.3970762,W,1,24,0.6,13.274,M,-29.745,M,0.0,*53
###2023-12-09 12:45:00.545580$GNGGA,174459.70,4138.0424609,N,07032.3969684,W,1,24,0.6,13.269,M,-29.745,M,0.0,*56
###2023-12-09 12:45:00.745025$GNGGA,174459.90,4138.0423638,N,07032.3968478,W,1,24,0.6,13.280,M,-29.745,M,0.0,*5A
###2023-12-09 12:45:00.947429$GNRMC,174500.10,A,4138.0422726,N,07032.3967102,W,2.43,128.18,091223,,,A*5F
###2023-12-09 12:45:00.950275$GNGGA,174500.10,4138.0422726,N,07032.3967102,W,1,24,0.6,13.289,M,-29.745,M,0.0,*5E
###2023-12-09 12:45:00.952141$GPGSA,A,3,03,04,16,26,28,29,31,32,,,,,1.1,0.6,0.9*3B
###2023-12-09 12:45:00.953856$GLGSA,A,3,65,71,72,73,74,75,,,,,,,1.1,0.6,0.9*24
###2023-12-09 12:45:00.955459$GAGSA,A,3,04,19,21,27,,,,,,,,,1.1,0.6,0.9*26
###2023-12-09 12:45:00.957107$GBGSA,A,3,14,24,25,26,33,,,,,,,,1.1,0.6,0.9*2F
###2023-12-09 12:45:00.959449$GPGSV,2,1,08,03,38,271,44,04,25,311,42,16,41,209,46,26,71,208,48*77
###2023-12-09 12:45:00.961778$GPGSV,2,2,08,28,55,061,45,29,26,069,43,31,72,015,47,32,26,136,43*7C
###2023-12-09 12:45:00.964123$GLGSV,2,1,06,65,17,329,43,71,51,170,47,72,69,300,47,73,44,036,46*64
###2023-12-09 12:45:00.965872$GLGSV,2,2,06,74,71,307,43,75,25,245,43,,,,,,,,*64
###2023-12-09 12:45:00.968228$GAGSV,1,1,04,04,24,312,42,19,84,283,40,21,81,168,45,27,38,049,42*60
###2023-12-09 12:45:00.970575$GBGSV,2,1,05,14,50,195,45,24,78,005,48,25,36,256,45,26,31,059,44*69
###2023-12-09 12:45:00.972031$GBGSV,2,2,05,33,61,245,49,,,,,,,,,,,,*57
###2023-12-09 12:45:00.973352$GNVTG,128.18,T,,M,2.43,N,4.50,K,A*25
###2023-12-09 12:45:00.975012$GNGST,174500.10,18.000,,,,0.080,0.069,0.160*58
###2023-12-09 12:45:00.976303$GNZDA,174500.10,09,12,2023,00,00*77
###2023-12-09 12:45:00.976942$GNEBP,,,,,,M*13
###2023-12-09 12:45:01.145462$GNGGA,174500.30,4138.0421944,N,07032.3965668,W,1,24,0.6,13.284,M,-29.745,M,0.0,*51
###2023-12-09 12:45:01.350446$GNGGA,174500.50,4138.0421128,N,07032.3964226,W,1,24,0.6,13.286,M,-29.745,M,0.0,*58
###2023-12-09 12:45:01.547538$GNGGA,174500.70,4138.0420275,N,07032.3962751,W,1,24,0.6,13.302,M,-29.745,M,0.0,*5E
###2023-12-09 12:45:01.745050$GNGGA,174500.90,4138.0419563,N,07032.3961114,W,1,24,0.6,13.301,M,-29.745,M,0.0,*5D
###2023-12-09 12:45:01.949285$GNRMC,174501.10,A,4138.0419010,N,07032.3959492,W,2.35,112.43,091223,,,A*53
###2023-12-09 12:45:01.952169$GNGGA,174501.10,4138.0419010,N,07032.3959492,W,1,24,0.6,13.301,M,-29.745,M,0.0,*55
###2023-12-09 12:45:01.954023$GPGSA,A,3,03,04,16,26,28,29,31,32,,,,,1.1,0.6,0.9*3B
###2023-12-09 12:45:01.955749$GLGSA,A,3,65,71,72,73,74,75,,,,,,,1.1,0.6,0.9*24
###2023-12-09 12:45:01.957332$GAGSA,A,3,04,19,21,27,,,,,,,,,1.1,0.6,0.9*26
###2023-12-09 12:45:01.958996$GBGSA,A,3,14,24,25,26,33,,,,,,,,1.1,0.6,0.9*2F
###2023-12-09 12:45:01.961329$GPGSV,2,1,08,03,38,271,46,04,25,311,42,16,41,209,47,26,71,208,48*74
###2023-12-09 12:45:01.963672$GPGSV,2,2,08,28,55,061,45,29,26,069,41,31,72,015,47,32,26,136,42*7F
###2023-12-09 12:45:01.966003$GLGSV,2,1,06,65,17,329,41,71,51,170,47,72,69,300,47,73,44,036,46*66
###2023-12-09 12:45:01.967755$GLGSV,2,2,06,74,71,307,43,75,25,245,45,,,,,,,,*62
###2023-12-09 12:45:01.970078$GAGSV,1,1,04,04,24,312,42,19,84,283,40,21,81,168,46,27,38,049,44*65
###2023-12-09 12:45:01.972411$GBGSV,2,1,05,14,50,195,46,24,78,005,49,25,36,256,47,26,31,059,45*68
###2023-12-09 12:45:01.973858$GBGSV,2,2,05,33,61,245,48,,,,,,,,,,,,*56
###2023-12-09 12:45:01.975187$GNVTG,112.43,T,,M,2.35,N,4.36,K,A*23
###2023-12-09 12:45:01.976826$GNGST,174501.10,18.000,,,,0.079,0.069,0.160*5F
###2023-12-09 12:45:01.978113$GNZDA,174501.10,09,12,2023,00,00*76
###2023-12-09 12:45:01.978760$GNEBP,,,,,,M*13
###2023-12-09 12:45:02.144642$GNGGA,174501.30,4138.0418561,N,07032.3957833,W,1,24,0.6,13.316,M,-29.745,M,0.0,*5A
###2023-12-09 12:45:02.347762$GNGGA,174501.50,4138.0418047,N,07032.3956051,W,1,24,0.6,13.310,M,-29.745,M,0.0,*56
###2023-12-09 12:45:02.545696$GNGGA,174501.70,4138.0417597,N,07032.3954384,W,1,24,0.6,13.306,M,-29.745,M,0.0,*5D
###2023-12-09 12:45:02.744940$GNGGA,174501.90,4138.0417372,N,07032.3952634,W,1,24,0.6,13.330,M,-29.745,M,0.0,*53
###2023-12-09 12:45:02.946507$GNRMC,174502.10,A,4138.0417160,N,07032.3950760,W,2.35,97.22,091223,,,A*64
###2023-12-09 12:45:02.949422$GNGGA,174502.10,4138.0417160,N,07032.3950760,W,1,24,0.6,13.323,M,-29.745,M,0.0,*59
###2023-12-09 12:45:02.951318$GPGSA,A,3,03,04,16,26,28,29,31,32,,,,,1.1,0.6,0.9*3B
###2023-12-09 12:45:02.953035$GLGSA,A,3,65,71,72,73,74,75,,,,,,,1.1,0.6,0.9*24
###2023-12-09 12:45:02.954638$GAGSA,A,3,04,19,21,27,,,,,,,,,1.1,0.6,0.9*26
###2023-12-09 12:45:02.956281$GBGSA,A,3,14,24,25,26,33,,,,,,,,1.1,0.6,0.9*2F
###2023-12-09 12:45:02.958616$GPGSV,2,1,08,03,38,271,45,04,25,311,39,16,41,209,46,26,71,208,48*7A
###2023-12-09 12:45:02.960954$GPGSV,2,2,08,28,55,061,44,29,26,069,41,31,72,015,46,32,26,136,42*7F
###2023-12-09 12:45:02.963307$GLGSV,2,1,06,65,17,329,42,71,50,171,47,72,69,300,46,73,44,036,46*64
###2023-12-09 12:45:02.965301$GLGSV,2,2,06,74,71,307,43,75,25,245,43,,,,,,,,*64
###2023-12-09 12:45:02.967665$GAGSV,1,1,04,04,24,312,39,19,84,283,40,21,81,168,46,27,38,049,43*6E
###2023-12-09 12:45:02.970025$GBGSV,2,1,05,14,50,195,46,24,78,005,48,25,36,256,46,26,31,059,42*6F
###2023-12-09 12:45:02.971505$GBGSV,2,2,05,33,61,245,47,,,,,,,,,,,,*59
###2023-12-09 12:45:02.972800$GNVTG,97.22,T,,M,2.35,N,4.36,K,A*18
###2023-12-09 12:45:02.974446$GNGST,174502.10,18.000,,,,0.079,0.069,0.160*5C
###2023-12-09 12:45:02.975751$GNZDA,174502.10,09,12,2023,00,00*75
###2023-12-09 12:45:02.976391$GNEBP,,,,,,M*13
###2023-12-09 12:45:03.144928$GNGGA,174502.30,4138.0417108,N,07032.3949064,W,1,24,0.6,13.317,M,-29.745,M,0.0,*59
