###2023-12-09 13:18:28.011949$GNVTG,352.59,T,,M,3.69,N,6.84,K,A*2D
###2023-12-09 13:18:28.013622$GNGST,181827.10,18.000,,,,0.098,0.071,0.170*5B
###2023-12-09 13:18:28.014939$GNZDA,181827.10,09,12,2023,00,00*75
###2023-12-09 13:18:28.015586$GNEBP,,,,,,M*13
###2023-12-09 13:18:28.181993$GNGGA,181827.30,4138.0254311,N,07032.3118593,W,1,24,0.7,13.197,M,-29.744,M,0.0,*59
###2023-12-09 13:18:28.383092$GNGGA,181827.50,4138.0256295,N,07032.3118636,W,1,24,0.7,13.196,M,-29.744,M,0.0,*5D
###2023-12-09 13:18:28.582973$GNGGA,181827.70,4138.0258275,N,07032.3118660,W,1,24,0.7,13.202,M,-29.744,M,0.0,*52
###2023-12-09 13:18:28.782684$GNGGA,181827.90,4138.0260241,N,07032.3118852,W,1,24,0.7,13.212,M,-29.744,M,0.0,*5E
###2023-12-09 13:18:28.991840$GNRMC,181828.10,A,4138.0262245,N,07032.3119021,W,3.63,359.46,091223,,,A*5D
###2023-12-09 13:18:28.995345$GNGGA,181828.10,4138.0262245,N,07032.3119021,W,1,24,0.7,13.216,M,-29.744,M,0.0,*56
###2023-12-09 13:18:28.997536$GPGSA,A,3,03,04,16,26,28,29,31,,,,,,1.2,0.7,0.9*38
###2023-12-09 13:18:28.999626$GLGSA,A,3,65,71,72,73,74,75,,,,,,,1.2,0.7,0.9*26
###2023-12-09 13:18:29.001551$GAGSA,A,3,04,19,21,27,,,,,,,,,1.2,0.7,0.9*24
###2023-12-09 13:18:29.003650$GBGSA,A,3,14,24,25,26,33,35,,,,,,,1.2,0.7,0.9*2B
###2023-12-09 13:18:29.006464$GPGSV,2,1,07,03,31,253,43,04,39,310,44,16,58,216,46,26,88,205,48*71
###2023-12-09 13:18:29.008950$GPGSV,2,2,07,28,43,078,44,29,23,053,41,31,64,053,46,,,,*41
###2023-12-09 13:18:29.011828$GLGSV,2,1,06,65,31,324,41,71,32,174,45,72,70,240,46,73,29,047,42*69
###2023-12-09 13:18:29.013976$GLGSV,2,2,06,74,65,358,41,75,38,261,47,,,,,,,,*67
###2023-12-09 13:18:29.016815$GAGSV,1,1,04,04,34,311,43,19,78,188,41,21,82,058,46,27,27,049,41*66
###2023-12-09 13:18:29.019650$GBGSV,2,1,06,14,35,191,45,24,68,038,48,25,45,268,47,26,21,066,42*62
###2023-12-09 13:18:29.021773$GBGSV,2,2,06,33,52,224,47,35,16,063,41,,,,,,,,*6C
###2023-12-09 13:18:29.023398$GNVTG,359.46,T,,M,3.63,N,6.73,K,A*2A
###2023-12-09 13:18:29.025391$GNGST,181828.10,18.000,,,,0.097,0.070,0.170*5A
###2023-12-09 13:18:29.026973$GNZDA,181828.10,09,12,2023,00,00*7A
###2023-12-09 13:18:29.027747$GNEBP,,,,,,M*13
###2023-12-09 13:18:29.182536$GNGGA,181828.30,4138.0264258,N,07032.3118970,W,1,24,0.7,13.223,M,-29.744,M,0.0,*54
###2023-12-09 13:18:29.381850$GNGGA,181828.50,4138.0266271,N,07032.3118840,W,1,24,0.7,13.233,M,-29.744,M,0.0,*58
###2023-12-09 13:18:29.583774$GNGGA,181828.70,4138.0268329,N,07032.3118867,W,1,24,0.7,13.236,M,-29.744,M,0.0,*58
###2023-12-09 13:18:29.782852$GNGGA,181828.90,4138.0270388,N,07032.3118975,W,1,24,0.7,13.237,M,-29.744,M,0.0,*57
###2023-12-09 13:18:29.988843$GNRMC,181829.10,A,4138.0272411,N,07032.3119076,W,3.69,358.77,091223,,,A*51
###2023-12-09 13:18:29.991707$GNGGA,181829.10,4138.0272411,N,07032.3119076,W,1,24,0.7,13.238,M,-29.744,M,0.0,*5F
###2023-12-09 13:18:29.993493$GPGSA,A,3,03,04,16,26,28,29,31,,,,,,1.2,0.7,0.9*38
###2023-12-09 13:18:29.995219$GLGSA,A,3,65,71,72,73,74,75,,,,,,,1.2,0.7,0.9*26
###2023-12-09 13:18:29.996801$GAGSA,A,3,04,19,21,27,,,,,,,,,1.2,0.7,0.9*24
###2023-12-09 13:18:29.998515$GBGSA,A,3,14,24,25,26,33,35,,,,,,,1.2,0.7,0.9*2B
###2023-12-09 13:18:30.000842$GPGSV,2,1,07,03,31,253,43,04,39,310,44,16,58,216,47,26,88,205,48*70
###2023-12-09 13:18:30.002889$GPGSV,2,2,07,28,43,078,45,29,23,053,41,31,64,053,45,,,,*43
###2023-12-09 13:18:30.005212$GLGSV,2,1,06,65,31,324,42,71,32,174,46,72,70,240,46,73,29,047,42*69
###2023-12-09 13:18:30.006968$GLGSV,2,2,06,74,65,358,41,75,38,261,47,,,,,,,,*67
###2023-12-09 13:18:30.009292$GAGSV,1,1,04,04,34,311,43,19,78,188,41,21,82,058,46,27,27,049,40*67
###2023-12-09 13:18:30.011621$GBGSV,2,1,06,14,35,191,44,24,68,038,47,25,46,269,47,26,21,066,42*6E
###2023-12-09 13:18:30.013369$GBGSV,2,2,06,33,52,224,47,35,16,063,42,,,,,,,,*6F
###2023-12-09 13:18:30.014694$GNVTG,358.77,T,,M,3.69,N,6.84,K,A*2B
###2023-12-09 13:18:30.016338$GNGST,181829.10,18.000,,,,0.097,0.070,0.170*5B
###2023-12-09 13:18:30.017626$GNZDA,181829.10,09,12,2023,00,00*7B
###2023-12-09 13:18:30.018263$GNEBP,,,,,,M*13
###2023-12-09 13:18:30.183410$GNGGA,181829.30,4138.0274466,N,07032.3118991,W,1,24,0.7,13.245,M,-29.744,M,0.0,*50
###2023-12-09 13:18:30.380855$GNGGA,181829.50,4138.0276503,N,07032.3118722,W,1,24,0.7,13.228,M,-29.744,M,0.0,*5B
###2023-12-09 13:18:30.581675$GNGGA,181829.70,4138.0278480,N,07032.3118743,W,1,24,0.7,13.231,M,-29.744,M,0.0,*52
###2023-12-09 13:18:30.782779$GNGGA,181829.90,4138.0280478,N,07032.3118842,W,1,24,0.7,13.236,M,-29.744,M,0.0,*55
###2023-12-09 13:18:30.991169$GNRMC,181830.10,A,4138.0282462,N,07032.3118763,W,3.56,4.62,091223,,,A*52
###2023-12-09 13:18:30.995663$GNGGA,181830.10,4138.0282462,N,07032.3118763,W,1,24,0.7,13.233,M,-29.744,M,0.0,*55
###2023-12-09 13:18:30.998132$GPGSA,A,3,03,04,16,26,28,29,31,,,,,,1.1,0.7,0.9*3B
###2023-12-09 13:18:31.000482$GLGSA,A,3,65,71,72,73,74,75,,,,,,,1.1,0.7,0.9*25
###2023-12-09 13:18:31.002710$GAGSA,A,3,04,19,21,27,,,,,,,,,1.1,0.7,0.9*27
###2023-12-09 13:18:31.004810$GBGSA,A,3,14,24,25,26,33,35,,,,,,,1.1,0.7,0.9*28
###2023-12-09 13:18:31.007130$GPGSV,2,1,07,03,31,253,43,04,39,310,44,16,58,216,47,26,88,205,48*70
###2023-12-09 13:18:31.009149$GPGSV,2,2,07,28,43,078,44,29,23,053,41,31,64,053,46,,,,*41
###2023-12-09 13:18:31.011466$GLGSV,2,1,06,65,31,324,42,71,32,174,45,72,70,240,46,73,29,047,41*69
###2023-12-09 13:18:31.013194$GLGSV,2,2,06,74,65,358,41,75,38,261,46,,,,,,,,*66
###2023-12-09 13:18:31.015514$GAGSV,1,1,04,04,34,311,43,19,78,188,41,21,82,058,46,27,27,049,39*69
###2023-12-09 13:18:31.017822$GBGSV,2,1,06,14,35,191,44,24,68,038,47,25,46,269,47,26,20,067,41*6D
###2023-12-09 13:18:31.019565$GBGSV,2,2,06,33,52,224,47,35,16,063,42,,,,,,,,*6F
###2023-12-09 13:18:31.020810$GNVTG,4.62,T,,M,3.56,N,6.59,K,A*29
###2023-12-09 13:18:31.022440$GNGST,181830.10,18.000,,,,0.097,0.070,0.170*53
###2023-12-09 13:18:31.023729$GNZDA,181830.10,09,12,2023,00,00*73
###2023-12-09 13:18:31.024361$GNEBP,,,,,,M*13
###2023-12-09 13:18:31.182123$GNGGA,181830.30,4138.0284484,N,07032.3118496,W,1,24,0.7,13.246,M,-29.744,M,0.0,*52
###2023-12-09 13:18:31.383015$GNGGA,181830.50,4138.0286529,N,07032.3118373,W,1,24,0.7,13.255,M,-29.744,M,0.0,*5E
###2023-12-09 13:18:31.582314$GNGGA,181830.70,4138.0288594,N,07032.3118404,W,1,24,0.7,13.258,M,-29.744,M,0.0,*5E
###2023-12-09 13:18:31.784024$GNGGA,181830.90,4138.0290695,N,07032.3118166,W,1,24,0.7,13.256,M,-29.744,M,0.0,*54
###2023-12-09 13:18:31.986124$GNRMC,181831.10,A,4138.0292726,N,07032.3117748,W,3.71,9.02,091223,,,A*59
###2023-12-09 13:18:31.989012$GNGGA,181831.10,4138.0292726,N,07032.3117748,W,1,24,0.7,13.256,M,-29.744,M,0.0,*53
###2023-12-09 13:18:31.990853$GPGSA,A,3,03,04,16,26,28,29,31,,,,,,1.1,0.7,0.9*3B
###2023-12-09 13:18:31.992569$GLGSA,A,3,65,71,72,73,74,75,,,,,,,1.1,0.7,0.9*25
###2023-12-09 13:18:31.994145$GAGSA,A,3,04,19,21,27,,,,,,,,,1.1,0.7,0.9*27
###2023-12-09 13:18:31.995882$GBGSA,A,3,14,24,25,26,33,35,,,,,,,1.1,0.7,0.9*28
###2023-12-09 13:18:31.998217$GPGSV,2,1,07,03,31,253,42,04,39,310,45,16,58,216,46,26,88,205,48*71
###2023-12-09 13:18:32.000269$GPGSV,2,2,07,28,43,078,45,29,23,053,39,31,64,053,46,,,,*4F
###2023-12-09 13:18:32.002625$GLGSV,2,1,06,65,31,324,41,71,32,174,46,72,70,240,46,73,29,047,41*69
###2023-12-09 13:18:32.004375$GLGSV,2,2,06,74,65,358,41,75,38,261,47,,,,,,,,*67
###2023-12-09 13:18:32.006706$GAGSV,1,1,04,04,34,311,44,19,78,188,41,21,82,058,46,27,27,049,37*60
###2023-12-09 13:18:32.009020$GBGSV,2,1,06,14,35,191,44,24,68,038,47,25,46,269,46,26,20,067,42*6F
###2023-12-09 13:18:32.010765$GBGSV,2,2,06,33,52,224,47,35,16,063,41,,,,,,,,*6C
###2023-12-09 13:18:32.012025$GNVTG,9.02,T,,M,3.71,N,6.88,K,A*2B
###2023-12-09 13:18:32.013672$GNGST,181831.10,18.000,,,,0.097,0.070,0.170*52
###2023-12-09 13:18:32.014976$GNZDA,181831.10,09,12,2023,00,00*72
###2023-12-09 13:18:32.015618$GNEBP,,,,,,M*13
###2023-12-09 13:18:32.181706$GNGGA,181831.30,4138.0294746,N,07032.3117327,W,1,24,0.7,13.261,M,-29.744,M,0.0,*58
###2023-12-09 13:18:32.381815$GNGGA,181831.50,4138.0296817,N,07032.3116952,W,1,24,0.7,13.262,M,-29.744,M,0.0,*5D
###2023-12-09 13:18:32.583662$GNGGA,181831.70,4138.0298878,N,07032.3116558,W,1,24,0.7,13.264,M,-29.744,M,0.0,*58
###2023-12-09 13:18:32.782694$GNGGA,181831.90,4138.0300957,N,07032.3116043,W,1,24,0.7,13.279,M,-29.744,M,0.0,*59
###2023-12-09 13:18:32.990773$GNRMC,181832.10,A,4138.0303018,N,07032.3115372,W,3.77,12.97,091223,,,A*66
###2023-12-09 13:18:32.993666$GNGGA,181832.10,4138.0303018,N,07032.3115372,W,1,24,0.7,13.274,M,-29.744,M,0.0,*5C
###2023-12-09 13:18:32.995491$GPGSA,A,3,03,04,16,26,28,29,31,,,,,,1.1,0.7,0.9*3B
###2023-12-09 13:18:32.997210$GLGSA,A,3,65,71,72,73,74,75,,,,,,,1.1,0.7,0.9*25
###2023-12-09 13:18:32.998809$GAGSA,A,3,04,19,21,27,,,,,,,,,1.1,0.7,0.9*27
###2023-12-09 13:18:33.000525$GBGSA,A,3,14,24,25,26,33,35,,,,,,,1.1,0.7,0.9*28
###2023-12-09 13:18:33.002874$GPGSV,2,1,07,03,31,253,42,04,39,310,44,16,58,216,46,26,88,205,48*70
###2023-12-09 13:18:33.004919$GPGSV,2,2,07,28,43,078,43,29,23,053,39,31,64,053,46,,,,*49
