###2023-12-09 12:35:55.946749$GBGSA,A,3,14,24,25,26,33,,,,,,,,1.2,0.7,1.0*25
###2023-12-09 12:35:55.949115$GPGSV,2,1,08,03,38,276,43,04,22,311,41,16,37,207,44,26,66,206,47*79
###2023-12-09 12:35:55.951492$GPGSV,2,2,08,28,58,056,44,29,25,074,41,31,73,001,46,32,30,134,41*7B
###2023-12-09 12:35:55.953841$GLGSV,2,1,05,71,56,169,47,72,66,308,46,73,47,034,47,74,71,293,43*6E
###2023-12-09 12:35:55.955328$GLGSV,2,2,05,75,22,241,43,,,,,,,,,,,,*52
###2023-12-09 12:35:55.957667$GAGSV,1,1,04,04,21,311,40,19,82,300,41,21,78,176,46,27,41,049,44*6B
###2023-12-09 12:35:55.960045$GBGSV,2,1,05,14,55,197,45,24,80,348,48,25,33,253,44,26,35,057,44*68
###2023-12-09 12:35:55.961515$GBGSV,2,2,05,33,63,253,48,,,,,,,,,,,,*53
###2023-12-09 12:35:55.962826$GNVTG,90.96,T,,M,2.78,N,5.15,K,A*19
###2023-12-09 12:35:55.964481$GNGST,173555.10,18.000,,,,0.081,0.070,0.160*56
###2023-12-09 12:35:55.965780$GNZDA,173555.10,09,12,2023,00,00*70
###2023-12-09 12:35:55.966422$GNEBP,,,,,,M*13
###2023-12-09 12:35:56.135020$GNGGA,173555.30,4138.0463397,N,07032.4078851,W,1,23,0.7,13.343,M,-29.745,M,0.0,*5E
###2023-12-09 12:35:56.335122$GNGGA,173555.50,4138.0463380,N,07032.4076814,W,1,23,0.7,13.334,M,-29.745,M,0.0,*51
###2023-12-09 12:35:56.536119$GNGGA,173555.70,4138.0463409,N,07032.4074745,W,1,23,0.7,13.336,M,-29.745,M,0.0,*5E
###2023-12-09 12:35:56.735417$GNGGA,173555.90,4138.0463425,N,07032.4072665,W,1,23,0.7,13.330,M,-29.745,M,0.0,*5D
###2023-12-09 12:35:56.942650$GNRMC,173556.10,A,4138.0463467,N,07032.4070605,W,2.70,88.09,091223,,,A*6B
###2023-12-09 12:35:56.945510$GNGGA,173556.10,4138.0463467,N,07032.4070605,W,1,23,0.7,13.328,M,-29.745,M,0.0,*5D
###2023-12-09 12:35:56.947412$GPGSA,A,3,03,04,16,26,28,29,31,32,,,,,1.2,0.7,1.0*31
###2023-12-09 12:35:56.949105$GLGSA,A,3,71,72,73,74,75,,,,,,,,1.2,0.7,1.0*2D
###2023-12-09 12:35:56.950727$GAGSA,A,3,04,19,21,27,,,,,,,,,1.2,0.7,1.0*2C
###2023-12-09 12:35:56.952388$GBGSA,A,3,14,24,25,26,33,,,,,,,,1.2,0.7,1.0*25
###2023-12-09 12:35:56.954748$GPGSV,2,1,08,03,38,276,44,04,22,311,41,16,37,207,44,26,66,206,47*7E
###2023-12-09 12:35:56.957083$GPGSV,2,2,08,28,58,056,44,29,25,074,41,31,73,001,47,32,30,134,42*79
###2023-12-09 12:35:56.959437$GLGSV,2,1,05,71,56,169,47,72,66,308,46,73,47,034,47,74,71,293,43*6E
###2023-12-09 12:35:56.960902$GLGSV,2,2,05,75,22,241,44,,,,,,,,,,,,*55
###2023-12-09 12:35:56.963243$GAGSV,1,1,04,04,21,311,41,19,82,300,41,21,78,176,46,27,41,049,45*6B
###2023-12-09 12:35:56.965584$GBGSV,2,1,05,14,55,197,45,24,80,348,48,25,33,253,44,26,35,057,42*6E
###2023-12-09 12:35:56.967075$GBGSV,2,2,05,33,63,253,48,,,,,,,,,,,,*53
###2023-12-09 12:35:56.968388$GNVTG,88.09,T,,M,2.70,N,5.00,K,A*1A
###2023-12-09 12:35:56.970045$GNGST,173556.10,18.000,,,,0.081,0.070,0.170*54
###2023-12-09 12:35:56.971352$GNZDA,173556.10,09,12,2023,00,00*73
###2023-12-09 12:35:56.971997$GNEBP,,,,,,M*13
###2023-12-09 12:35:57.136989$GNGGA,173556.30,4138.0463515,N,07032.4068551,W,1,23,0.7,13.335,M,-29.745,M,0.0,*5C
###2023-12-09 12:35:57.335925$GNGGA,173556.50,4138.0463557,N,07032.4066466,W,1,23,0.7,13.338,M,-29.745,M,0.0,*5A
###2023-12-09 12:35:57.535903$GNGGA,173556.70,4138.0463653,N,07032.4064364,W,1,23,0.7,13.327,M,-29.745,M,0.0,*56
###2023-12-09 12:35:57.736119$GNGGA,173556.90,4138.0463730,N,07032.4062311,W,1,23,0.7,13.318,M,-29.745,M,0.0,*54
###2023-12-09 12:35:57.936117$GNRMC,173557.10,A,4138.0463833,N,07032.4060214,W,2.92,87.48,091223,,,A*64
###2023-12-09 12:35:57.938981$GNGGA,173557.10,4138.0463833,N,07032.4060214,W,1,23,0.7,13.322,M,-29.745,M,0.0,*5E
###2023-12-09 12:35:57.940839$GPGSA,A,3,03,04,16,26,28,29,31,32,,,,,1.2,0.7,1.0*31
###2023-12-09 12:35:57.942490$GLGSA,A,3,71,72,73,74,75,,,,,,,,1.2,0.7,1.0*2D
###2023-12-09 12:35:57.944081$GAGSA,A,3,04,19,21,27,,,,,,,,,1.2,0.7,1.0*2C
###2023-12-09 12:35:57.945729$GBGSA,A,3,14,24,25,26,33,,,,,,,,1.2,0.7,1.0*25
###2023-12-09 12:35:57.948087$GPGSV,2,1,08,03,38,276,45,04,22,311,40,16,37,207,45,26,66,206,48*70
###2023-12-09 12:35:57.950438$GPGSV,2,2,08,28,58,056,44,29,25,074,42,31,73,001,47,32,30,134,42*7A
###2023-12-09 12:35:57.952784$GLGSV,2,1,05,71,56,169,47,72,66,308,46,73,47,034,47,74,71,293,43*6E
###2023-12-09 12:35:57.954243$GLGSV,2,2,05,75,22,241,42,,,,,,,,,,,,*53
###2023-12-09 12:35:57.956581$GAGSV,1,1,04,04,21,311,41,19,82,300,41,21,78,176,46,27,41,049,44*6A
###2023-12-09 12:35:57.958921$GBGSV,2,1,05,14,55,197,46,24,80,348,48,25,33,253,45,26,35,057,42*6C
###2023-12-09 12:35:57.960374$GBGSV,2,2,05,33,63,253,47,,,,,,,,,,,,*5C
###2023-12-09 12:35:57.961663$GNVTG,87.48,T,,M,2.92,N,5.40,K,A*18
###2023-12-09 12:35:57.963330$GNGST,173557.10,18.000,,,,0.081,0.071,0.170*54
###2023-12-09 12:35:57.964622$GNZDA,173557.10,09,12,2023,00,00*72
###2023-12-09 12:35:57.965264$GNEBP,,,,,,M*13
###2023-12-09 12:35:58.137543$GNGGA,173557.30,4138.0463947,N,07032.4058094,W,1,23,0.7,13.321,M,-29.745,M,0.0,*5C
###2023-12-09 12:35:58.337990$GNGGA,173557.50,4138.0464081,N,07032.4056041,W,1,23,0.7,13.309,M,-29.745,M,0.0,*52
###2023-12-09 12:35:58.540118$GNGGA,173557.70,4138.0464237,N,07032.4054089,W,1,23,0.7,13.319,M,-29.745,M,0.0,*58
###2023-12-09 12:35:58.735690$GNGGA,173557.90,4138.0464384,N,07032.4052126,W,1,23,0.7,13.326,M,-29.745,M,0.0,*51
###2023-12-09 12:35:58.938670$GNRMC,173558.10,A,4138.0464490,N,07032.4050292,W,2.27,85.21,091223,,,A*67
###2023-12-09 12:35:58.941543$GNGGA,173558.10,4138.0464490,N,07032.4050292,W,1,23,0.7,13.304,M,-29.745,M,0.0,*5A
###2023-12-09 12:35:58.943424$GPGSA,A,3,03,04,16,26,28,29,31,32,,,,,1.2,0.7,1.0*31
###2023-12-09 12:35:58.945085$GLGSA,A,3,71,72,73,74,75,,,,,,,,1.2,0.7,1.0*2D
###2023-12-09 12:35:58.946728$GAGSA,A,3,04,19,21,27,,,,,,,,,1.2,0.7,1.0*2C
###2023-12-09 12:35:58.948410$GBGSA,A,3,14,24,25,26,33,,,,,,,,1.2,0.7,1.0*25
###2023-12-09 12:35:58.950768$GPGSV,2,1,08,03,38,276,45,04,22,311,40,16,37,207,44,26,66,206,48*71
###2023-12-09 12:35:58.953108$GPGSV,2,2,08,28,58,056,44,29,25,074,42,31,73,001,47,32,30,134,42*7A
###2023-12-09 12:35:58.955464$GLGSV,2,1,05,71,56,169,48,72,66,308,47,73,47,034,47,74,71,293,43*60
###2023-12-09 12:35:58.956922$GLGSV,2,2,05,75,22,241,45,,,,,,,,,,,,*54
###2023-12-09 12:35:58.959260$GAGSV,1,1,04,04,21,311,40,19,82,300,41,21,78,176,46,27,41,049,44*6B
###2023-12-09 12:35:58.961594$GBGSV,2,1,05,14,55,197,46,24,80,348,48,25,33,253,44,26,35,057,44*6B
###2023-12-09 12:35:58.963067$GBGSV,2,2,05,33,63,253,47,,,,,,,,,,,,*5C
###2023-12-09 12:35:58.964365$GNVTG,85.21,T,,M,2.27,N,4.21,K,A*1D
###2023-12-09 12:35:58.966014$GNGST,173558.10,18.000,,,,0.081,0.070,0.160*5B
###2023-12-09 12:35:58.967325$GNZDA,173558.10,09,12,2023,00,00*7D
###2023-12-09 12:35:58.967967$GNEBP,,,,,,M*13
###2023-12-09 12:35:59.135921$GNGGA,173558.30,4138.0464661,N,07032.4048690,W,1,23,0.7,13.312,M,-29.745,M,0.0,*5C
###2023-12-09 12:35:59.335959$GNGGA,173558.50,4138.0464853,N,07032.4046994,W,1,23,0.7,13.331,M,-29.745,M,0.0,*51
###2023-12-09 12:35:59.537330$GNGGA,173558.70,4138.0464982,N,07032.4045355,W,1,23,0.7,13.315,M,-29.745,M,0.0,*5C
###2023-12-09 12:35:59.749969$GNGGA,173558.90,4138.0465140,N,07032.4043945,W,1,23,0.7,13.315,M,-29.745,M,0.0,*58
###2023-12-09 12:35:59.938152$GNRMC,173559.10,A,4138.0465407,N,07032.4042436,W,2.12,79.76,091223,,,A*65
###2023-12-09 12:35:59.941135$GNGGA,173559.10,4138.0465407,N,07032.4042436,W,1,23,0.7,13.323,M,-29.745,M,0.0,*5A
###2023-12-09 12:35:59.943020$GPGSA,A,3,03,04,16,26,28,29,31,32,,,,,1.2,0.7,1.0*31
###2023-12-09 12:35:59.944685$GLGSA,A,3,71,72,73,74,75,,,,,,,,1.2,0.7,1.0*2D
###2023-12-09 12:35:59.946279$GAGSA,A,3,04,19,21,27,,,,,,,,,1.2,0.7,1.0*2C
###2023-12-09 12:35:59.947968$GBGSA,A,3,14,24,25,26,33,,,,,,,,1.2,0.7,1.0*25
###2023-12-09 12:35:59.950315$GPGSV,2,1,08,03,38,276,45,04,22,311,41,16,37,207,45,26,66,206,48*71
###2023-12-09 12:35:59.952679$GPGSV,2,2,08,28,58,056,44,29,25,074,41,31,73,001,47,32,30,134,43*78
###2023-12-09 12:35:59.955048$GLGSV,2,1,05,71,56,169,46,72,66,308,46,73,47,034,46,74,71,293,43*6E
###2023-12-09 12:35:59.956516$GLGSV,2,2,05,75,22,241,44,,,,,,,,,,,,*55
###2023-12-09 12:35:59.958862$GAGSV,1,1,04,04,21,311,41,19,82,300,41,21,78,176,46,27,41,049,44*6A
###2023-12-09 12:35:59.961196$GBGSV,2,1,05,14,55,197,47,24,80,348,49,25,33,253,46,26,35,057,43*6E
###2023-12-09 12:35:59.962925$GBGSV,2,2,05,33,63,253,48,,,,,,,,,,,,*53
###2023-12-09 12:35:59.964233$GNVTG,79.76,T,,M,2.12,N,3.92,K,A*15
###2023-12-09 12:35:59.965886$GNGST,173559.10,18.000,,,,0.080,0.070,0.160*5B
###2023-12-09 12:35:59.967198$GNZDA,173559.10,09,12,2023,00,00*7C
###2023-12-09 12:35:59.967851$GNEBP,,,,,,M*13
###2023-12-09 12:36:00.136523$GNGGA,173559.30,4138.0465603,N,07032.4040970,W,1,23,0.7,13.320,M,-29.745,M,0.0,*50
###2023-12-09 12:36:00.335866$GNGGA,173559.50,4138.0465755,N,07032.4039659,W,1,23,0.7,13.320,M,-29.745,M,0.0,*5E
###2023-12-09 12:36:00.536145$GNGGA,173559.70,4138.0465930,N,07032.4038280,W,1,23,0.7,13.335,M,-29.745,M,0.0,*54
###2023-12-09 12:36:00.736183$GNGGA,173559.90,4138.0466176,N,07032.4036950,W,1,23,0.7,13.332,M,-29.745,M,0.0,*5C
