###2023-12-09 12:28:25.119393$GNGGA,172824.30,4138.0393620,N,07032.4360722,W,1,16,0.9,10.087,M,-29.746,M,0.0,*57
###2023-12-09 12:28:25.320967$GNGGA,172824.50,4138.0393574,N,07032.4360781,W,1,16,0.9,10.137,M,-29.746,M,0.0,*50
###2023-12-09 12:28:25.520467$GNGGA,172824.70,4138.0393509,N,07032.4360825,W,1,17,0.8,10.181,M,-29.746,M,0.0,*54
###2023-12-09 12:28:25.719675$GNGGA,172824.90,4138.0393452,N,07032.4360890,W,1,18,0.7,10.223,M,-29.746,M,0.0,*50
###2023-12-09 12:28:25.920287$GNRMC,172825.10,A,4138.0393388,N,07032.4360944,W,0.04,,091223,,,A*43
###2023-12-09 12:28:25.923389$GNGGA,172825.10,4138.0393388,N,07032.4360944,W,1,18,0.7,10.271,M,-29.746,M,0.0,*56
###2023-12-09 12:28:25.925372$GPGSA,A,3,03,16,26,28,29,31,32,,,,,,1.3,0.7,1.1*35
###2023-12-09 12:28:25.927152$GLGSA,A,3,71,72,73,75,,,,,,,,,1.3,0.7,1.1*2E
###2023-12-09 12:28:25.928848$GAGSA,A,3,04,21,27,,,,,,,,,,1.3,0.7,1.1*24
###2023-12-09 12:28:25.930538$GBGSA,A,3,14,26,33,,,,,,,,,,1.3,0.7,1.1*24
###2023-12-09 12:28:25.933042$GPGSV,2,1,07,03,39,281,39,16,34,206,45,26,63,206,41,28,60,052,44*7B
###2023-12-09 12:28:25.935266$GPGSV,2,2,07,29,25,077,43,31,73,351,44,32,33,132,46,,,,*47
###2023-12-09 12:28:25.937770$GLGSV,1,1,04,71,60,168,46,72,63,315,41,73,51,031,47,75,19,238,41*69
###2023-12-09 12:28:25.940042$GAGSV,1,1,03,04,19,310,35,21,75,179,41,27,44,050,46,,,,*5A
###2023-12-09 12:28:25.942256$GBGSV,1,1,03,14,58,200,46,26,37,056,48,33,64,261,39,,,,*52
###2023-12-09 12:28:25.943564$GNVTG,,T,,M,0.04,N,0.07,K,A*3E
###2023-12-09 12:28:25.945378$GNGST,172825.10,31.000,,,,0.120,0.130,0.290*55
###2023-12-09 12:28:25.946864$GNZDA,172825.10,09,12,2023,00,00*7B
###2023-12-09 12:28:25.947717$GNEBP,,,,,,M*13
###2023-12-09 12:28:26.119530$GNGGA,172825.30,4138.0393334,N,07032.4361011,W,1,18,0.7,10.311,M,-29.746,M,0.0,*5C
###2023-12-09 12:28:26.319599$GNGGA,172825.50,4138.0393282,N,07032.4361070,W,1,18,0.7,10.352,M,-29.746,M,0.0,*56
###2023-12-09 12:28:26.519476$GNGGA,172825.70,4138.0393214,N,07032.4361114,W,1,18,0.7,10.398,M,-29.746,M,0.0,*5E
###2023-12-09 12:28:26.718605$GNGGA,172825.90,4138.0393162,N,07032.4361159,W,1,18,0.7,10.439,M,-29.746,M,0.0,*57
###2023-12-09 12:28:26.921082$GNRMC,172826.10,A,4138.0393098,N,07032.4361189,W,0.00,,091223,,,A*4E
###2023-12-09 12:28:26.923989$GNGGA,172826.10,4138.0393098,N,07032.4361189,W,1,18,0.7,10.485,M,-29.746,M,0.0,*52
###2023-12-09 12:28:26.925796$GPGSA,A,3,03,16,26,28,29,31,32,,,,,,1.3,0.7,1.1*35
###2023-12-09 12:28:26.927429$GLGSA,A,3,71,72,73,75,,,,,,,,,1.3,0.7,1.1*2E
###2023-12-09 12:28:26.928965$GAGSA,A,3,04,21,27,,,,,,,,,,1.3,0.7,1.1*24
###2023-12-09 12:28:26.930494$GBGSA,A,3,14,26,33,,,,,,,,,,1.3,0.7,1.1*24
###2023-12-09 12:28:26.932847$GPGSV,2,1,07,03,39,281,39,16,34,206,44,26,63,206,40,28,60,052,43*7C
###2023-12-09 12:28:26.934915$GPGSV,2,2,07,29,25,077,42,31,73,351,43,32,33,132,45,,,,*42
###2023-12-09 12:28:26.937252$GLGSV,1,1,04,71,60,168,46,72,63,315,42,73,51,031,47,75,19,238,41*6A
###2023-12-09 12:28:26.939315$GAGSV,1,1,03,04,19,310,35,21,75,179,40,27,44,050,47,,,,*5A
###2023-12-09 12:28:26.941357$GBGSV,1,1,03,14,58,200,46,26,37,056,49,33,64,261,39,,,,*53
###2023-12-09 12:28:26.942499$GNVTG,,T,,M,0.00,N,0.00,K,A*3D
###2023-12-09 12:28:26.944178$GNGST,172826.10,31.000,,,,0.120,0.120,0.290*57
###2023-12-09 12:28:26.945482$GNZDA,172826.10,09,12,2023,00,00*78
###2023-12-09 12:28:26.946132$GNEBP,,,,,,M*13
###2023-12-09 12:28:27.121288$GNGGA,172826.30,4138.0393054,N,07032.4361238,W,1,18,0.7,10.528,M,-29.746,M,0.0,*5F
###2023-12-09 12:28:27.319570$GNGGA,172826.50,4138.0393001,N,07032.4361285,W,1,18,0.7,10.568,M,-29.746,M,0.0,*5B
###2023-12-09 12:28:27.519460$GNGGA,172826.70,4138.0392949,N,07032.4361324,W,1,18,0.7,10.609,M,-29.746,M,0.0,*53
###2023-12-09 12:28:27.718719$GNGGA,172826.90,4138.0392894,N,07032.4361360,W,1,18,0.7,10.653,M,-29.746,M,0.0,*53
###2023-12-09 12:28:27.918381$GNRMC,172827.10,A,4138.0392858,N,07032.4361418,W,0.04,,091223,,,A*43
###2023-12-09 12:28:27.921288$GNGGA,172827.10,4138.0392858,N,07032.4361418,W,1,18,0.7,10.691,M,-29.746,M,0.0,*5C
###2023-12-09 12:28:27.923122$GPGSA,A,3,03,16,26,28,29,31,32,,,,,,1.3,0.7,1.1*35
###2023-12-09 12:28:27.924735$GLGSA,A,3,71,72,73,75,,,,,,,,,1.3,0.7,1.1*2E
###2023-12-09 12:28:27.926269$GAGSA,A,3,04,21,27,,,,,,,,,,1.3,0.7,1.1*24
###2023-12-09 12:28:27.927815$GBGSA,A,3,14,26,33,,,,,,,,,,1.3,0.7,1.1*24
###2023-12-09 12:28:27.930153$GPGSV,2,1,07,03,39,281,38,16,34,206,44,26,63,206,40,28,60,052,43*7D
###2023-12-09 12:28:27.932216$GPGSV,2,2,07,29,25,077,42,31,73,351,43,32,33,132,45,,,,*42
###2023-12-09 12:28:27.934541$GLGSV,1,1,04,71,60,168,47,72,63,315,42,73,51,031,47,75,19,238,41*6B
###2023-12-09 12:28:27.936601$GAGSV,1,1,03,04,19,311,35,21,75,179,40,27,44,050,46,,,,*5A
###2023-12-09 12:28:27.938662$GBGSV,1,1,03,14,58,200,44,26,37,056,47,33,64,261,38,,,,*5E
###2023-12-09 12:28:27.939802$GNVTG,,T,,M,0.04,N,0.07,K,A*3E
###2023-12-09 12:28:27.941457$GNGST,172827.10,31.000,,,,0.120,0.130,0.290*57
###2023-12-09 12:28:27.942777$GNZDA,172827.10,09,12,2023,00,00*79
###2023-12-09 12:28:27.943433$GNEBP,,,,,,M*13
###2023-12-09 12:28:28.118521$GNGGA,172827.30,4138.0392811,N,07032.4361466,W,1,18,0.7,10.736,M,-29.746,M,0.0,*56
###2023-12-09 12:28:28.318488$GNGGA,172827.50,4138.0392774,N,07032.4361499,W,1,18,0.7,10.779,M,-29.746,M,0.0,*57
###2023-12-09 12:28:28.520236$GNGGA,172827.70,4138.0392736,N,07032.4361540,W,1,18,0.7,10.828,M,-29.746,M,0.0,*5D
###2023-12-09 12:28:28.717548$GNGGA,172827.90,4138.0392705,N,07032.4361597,W,1,17,0.8,10.867,M,-29.746,M,0.0,*52
###2023-12-09 12:28:28.920619$GNRMC,172828.10,A,4138.0392667,N,07032.4361642,W,0.06,,091223,,,A*41
###2023-12-09 12:28:28.923703$GNGGA,172828.10,4138.0392667,N,07032.4361642,W,1,17,0.8,10.906,M,-29.746,M,0.0,*5D
###2023-12-09 12:28:28.925522$GPGSA,A,3,03,16,26,28,29,31,32,,,,,,1.5,0.8,1.2*3F
###2023-12-09 12:28:28.927148$GLGSA,A,3,71,72,73,75,,,,,,,,,1.5,0.8,1.2*24
###2023-12-09 12:28:28.928618$GAGSA,A,3,21,27,,,,,,,,,,,1.5,0.8,1.2*2A
###2023-12-09 12:28:28.930153$GBGSA,A,3,14,26,33,,,,,,,,,,1.5,0.8,1.2*2E
###2023-12-09 12:28:28.932494$GPGSV,2,1,07,03,39,281,38,16,34,206,44,26,63,206,40,28,60,052,45*7B
###2023-12-09 12:28:28.934542$GPGSV,2,2,07,29,25,077,41,31,73,351,43,32,33,132,46,,,,*42
###2023-12-09 12:28:28.936908$GLGSV,1,1,04,71,60,168,46,72,63,315,42,73,51,031,47,75,19,238,41*6A
###2023-12-09 12:28:28.938701$GAGSV,1,1,02,21,75,179,40,27,44,050,46,,,,,,,,*62
###2023-12-09 12:28:28.940766$GBGSV,1,1,03,14,58,200,46,26,37,056,48,33,64,261,39,,,,*52
###2023-12-09 12:28:28.941915$GNVTG,,T,,M,0.06,N,0.11,K,A*3B
###2023-12-09 12:28:28.943610$GNGST,172828.10,31.000,,,,0.120,0.130,0.290*58
###2023-12-09 12:28:28.944924$GNZDA,172828.10,09,12,2023,00,00*76
###2023-12-09 12:28:28.945579$GNEBP,,,,,,M*13
###2023-12-09 12:28:29.118433$GNGGA,172828.30,4138.0392631,N,07032.4361676,W,1,17,0.8,10.956,M,-29.746,M,0.0,*5E
###2023-12-09 12:28:29.318485$GNGGA,172828.50,4138.0392599,N,07032.4361721,W,1,17,0.8,10.999,M,-29.746,M,0.0,*59
###2023-12-09 12:28:29.524277$GNGGA,172828.70,4138.0392573,N,07032.4361781,W,1,17,0.8,11.038,M,-29.746,M,0.0,*56
###2023-12-09 12:28:29.717645$GNGGA,172828.90,4138.0392547,N,07032.4361832,W,1,17,0.8,11.082,M,-29.746,M,0.0,*59
###2023-12-09 12:28:29.917969$GNRMC,172829.10,A,4138.0392513,N,07032.4361873,W,0.02,,091223,,,A*48
###2023-12-09 12:28:29.921080$GNGGA,172829.10,4138.0392513,N,07032.4361873,W,1,17,0.8,11.122,M,-29.746,M,0.0,*5F
###2023-12-09 12:28:29.923083$GPGSA,A,3,03,16,26,28,29,31,32,,,,,,1.5,0.8,1.2*3F
###2023-12-09 12:28:29.924846$GLGSA,A,3,71,72,73,75,,,,,,,,,1.5,0.8,1.2*24
###2023-12-09 12:28:29.926467$GAGSA,A,3,21,27,,,,,,,,,,,1.5,0.8,1.2*2A
###2023-12-09 12:28:29.928160$GBGSA,A,3,14,26,33,,,,,,,,,,1.5,0.8,1.2*2E
###2023-12-09 12:28:29.930679$GPGSV,2,1,07,03,39,281,37,16,34,206,45,26,63,206,40,28,60,052,44*74
###2023-12-09 12:28:29.932890$GPGSV,2,2,07,29,25,077,42,31,73,351,43,32,33,132,45,,,,*42
###2023-12-09 12:28:29.935399$GLGSV,1,1,04,71,60,168,46,72,63,315,43,73,51,031,47,75,19,238,42*68
###2023-12-09 12:28:29.937330$GAGSV,1,1,02,21,75,179,40,27,44,050,46,,,,,,,,*62
###2023-12-09 12:28:29.939578$GBGSV,1,1,03,14,58,200,46,26,37,056,48,33,64,261,39,,,,*52
###2023-12-09 12:28:29.941183$GNVTG,,T,,M,0.02,N,0.04,K,A*3B
###2023-12-09 12:28:29.943082$GNGST,172829.10,31.000,,,,0.120,0.130,0.290*59
###2023-12-09 12:28:29.944600$GNZDA,172829.10,09,12,2023,00,00*77
###2023-12-09 12:28:29.945424$GNEBP,,,,,,M*13
###2023-12-09 12:28:30.118062$GNGGA,172829.30,4138.0392478,N,07032.4361912,W,1,17,0.8,11.164,M,-29.746,M,0.0,*55
###2023-12-09 12:28:30.319473$GNGGA,172829.50,4138.0392436,N,07032.4361953,W,1,17,0.8,11.207,M,-29.746,M,0.0,*5A
###2023-12-09 12:28:30.518779$GNGGA,172829.70,4138.0392405,N,07032.4361994,W,1,17,0.8,11.240,M,-29.746,M,0.0,*50
###2023-12-09 12:28:30.717456$GNGGA,172829.90,4138.0392372,N,07032.4362039,W,1,17,0.8,11.285,M,-29.746,M,0.0,*5D
###2023-12-09 12:28:30.921088$GNRMC,172830.10,A,4138.0392342,N,07032.4362087,W,0.04,,091223,,,A*44
