###2023-12-09 13:47:21.206057$GNGGA,184720.30,4138.0395321,N,07032.4384874,W,1,19,0.7,15.665,M,-29.746,M,0.0,*5F
###2023-12-09 13:47:21.401039$GNGGA,184720.50,4138.0395296,N,07032.4384890,W,1,19,0.7,15.660,M,-29.746,M,0.0,*5B
###2023-12-09 13:47:21.599294$GNGGA,184720.70,4138.0395277,N,07032.4384896,W,1,19,0.7,15.657,M,-29.746,M,0.0,*54
###2023-12-09 13:47:21.800319$GNGGA,184720.90,4138.0395252,N,07032.4384904,W,1,19,0.7,15.662,M,-29.746,M,0.0,*51
###2023-12-09 13:47:22.003572$GNRMC,184721.10,A,4138.0395214,N,07032.4384918,W,0.06,243.17,091223,,,A*5F
###2023-12-09 13:47:22.006406$GNGGA,184721.10,4138.0395214,N,07032.4384918,W,1,19,0.7,15.658,M,-29.746,M,0.0,*5E
###2023-12-09 13:47:22.008138$GPGSA,A,3,04,16,26,28,29,31,,,,,,,1.3,0.7,1.1*33
###2023-12-09 13:47:22.009779$GLGSA,A,3,65,72,73,74,75,,,,,,,,1.3,0.7,1.1*28
###2023-12-09 13:47:22.011299$GAGSA,A,3,04,21,27,,,,,,,,,,1.3,0.7,1.1*24
###2023-12-09 13:47:22.012940$GBGSA,A,3,12,24,25,33,35,,,,,,,,1.3,0.7,1.1*21
###2023-12-09 13:47:22.015268$GPGSV,2,1,06,04,51,304,49,16,73,229,41,26,78,041,41,28,34,089,45*7F
###2023-12-09 13:47:22.017008$GPGSV,2,2,06,29,18,043,42,31,56,073,50,,,,,,,,*7C
###2023-12-09 13:47:22.019333$GLGSV,2,1,05,65,43,312,44,72,56,213,36,73,17,056,39,74,55,024,37*6E
###2023-12-09 13:47:22.020786$GLGSV,2,2,05,75,47,280,46,,,,,,,,,,,,*59
###2023-12-09 13:47:22.022855$GAGSV,1,1,03,04,43,308,46,21,72,043,40,27,19,051,43,,,,*5A
###2023-12-09 13:47:22.025176$GBGSV,2,1,05,12,19,122,42,24,58,052,47,25,54,282,44,33,40,213,36*61
###2023-12-09 13:47:22.026634$GBGSV,2,2,05,35,16,051,35,,,,,,,,,,,,*5D
###2023-12-09 13:47:22.027949$GNVTG,243.17,T,,M,0.06,N,0.11,K,A*26
###2023-12-09 13:47:22.029555$GNGST,184721.10,8.100,,,,0.200,0.120,0.320*66
###2023-12-09 13:47:22.030849$GNZDA,184721.10,09,12,2023,00,00*79
###2023-12-09 13:47:22.031487$GNEBP,,,,,,M*13
###2023-12-09 13:47:22.204863$GNGGA,184721.30,4138.0395186,N,07032.4384929,W,1,19,0.7,15.655,M,-29.746,M,0.0,*5B
###2023-12-09 13:47:22.401997$GNGGA,184721.50,4138.0395148,N,07032.4384927,W,1,19,0.7,15.651,M,-29.746,M,0.0,*55
###2023-12-09 13:47:22.604567$GNGGA,184721.70,4138.0395111,N,07032.4384935,W,1,18,0.7,15.652,M,-29.746,M,0.0,*5A
###2023-12-09 13:47:22.801608$GNGGA,184721.90,4138.0395071,N,07032.4384950,W,1,18,0.7,15.649,M,-29.746,M,0.0,*5A
###2023-12-09 13:47:23.003578$GNRMC,184722.10,A,4138.0395049,N,07032.4384956,W,0.00,243.17,091223,,,A*5A
###2023-12-09 13:47:23.006631$GNGGA,184722.10,4138.0395049,N,07032.4384956,W,1,18,0.7,15.644,M,-29.746,M,0.0,*51
###2023-12-09 13:47:23.008469$GPGSA,A,3,04,16,26,28,29,31,,,,,,,1.3,0.7,1.1*33
###2023-12-09 13:47:23.010225$GLGSA,A,3,65,72,73,74,75,,,,,,,,1.3,0.7,1.1*28
###2023-12-09 13:47:23.011855$GAGSA,A,3,04,21,27,,,,,,,,,,1.3,0.7,1.1*24
###2023-12-09 13:47:23.013530$GBGSA,A,3,12,24,25,33,,,,,,,,,1.3,0.7,1.1*27
###2023-12-09 13:47:23.015875$GPGSV,2,1,06,04,51,304,49,16,73,229,40,26,78,041,40,28,34,089,45*7F
###2023-12-09 13:47:23.017618$GPGSV,2,2,06,29,18,043,41,31,56,073,50,,,,,,,,*7F
###2023-12-09 13:47:23.019954$GLGSV,2,1,05,65,43,312,44,72,56,213,37,73,17,056,39,74,55,024,37*6F
###2023-12-09 13:47:23.021405$GLGSV,2,2,05,75,47,280,46,,,,,,,,,,,,*59
###2023-12-09 13:47:23.023474$GAGSV,1,1,03,04,43,308,46,21,72,043,40,27,19,051,42,,,,*5B
###2023-12-09 13:47:23.025800$GBGSV,1,1,04,12,19,122,42,24,58,052,47,25,54,282,44,33,40,213,35*60
###2023-12-09 13:47:23.027142$GNVTG,243.17,T,,M,0.00,N,0.00,K,A*20
###2023-12-09 13:47:23.028759$GNGST,184722.10,7.700,,,,0.200,0.120,0.320*6C
###2023-12-09 13:47:23.030051$GNZDA,184722.10,09,12,2023,00,00*7A
###2023-12-09 13:47:23.030699$GNEBP,,,,,,M*13
###2023-12-09 13:47:23.202143$GNGGA,184722.30,4138.0395027,N,07032.4384961,W,1,18,0.7,15.643,M,-29.746,M,0.0,*58
###2023-12-09 13:47:23.401954$GNGGA,184722.50,4138.0395017,N,07032.4384963,W,1,18,0.7,15.644,M,-29.746,M,0.0,*58
###2023-12-09 13:47:23.604563$GNGGA,184722.70,4138.0394975,N,07032.4384967,W,1,18,0.7,15.641,M,-29.746,M,0.0,*57
###2023-12-09 13:47:23.800309$GNGGA,184722.90,4138.0394931,N,07032.4384979,W,1,18,0.7,15.638,M,-29.746,M,0.0,*58
###2023-12-09 13:47:24.004474$GNRMC,184723.10,A,4138.0394904,N,07032.4384997,W,0.02,243.17,091223,,,A*55
###2023-12-09 13:47:24.007325$GNGGA,184723.10,4138.0394904,N,07032.4384997,W,1,18,0.7,15.634,M,-29.746,M,0.0,*5B
###2023-12-09 13:47:24.009043$GPGSA,A,3,04,16,26,28,29,31,,,,,,,1.3,0.7,1.1*33
###2023-12-09 13:47:24.010693$GLGSA,A,3,65,72,73,74,75,,,,,,,,1.3,0.7,1.1*28
###2023-12-09 13:47:24.012205$GAGSA,A,3,04,21,27,,,,,,,,,,1.3,0.7,1.1*24
###2023-12-09 13:47:24.013774$GBGSA,A,3,12,24,25,33,,,,,,,,,1.3,0.7,1.1*27
###2023-12-09 13:47:24.016104$GPGSV,2,1,06,04,51,304,49,16,73,229,40,26,78,041,40,28,34,089,44*7E
###2023-12-09 13:47:24.017844$GPGSV,2,2,06,29,18,043,41,31,56,073,49,,,,,,,,*77
###2023-12-09 13:47:24.020166$GLGSV,2,1,05,65,43,312,44,72,56,213,37,73,17,056,38,74,55,024,37*6E
###2023-12-09 13:47:24.021617$GLGSV,2,2,05,75,47,280,46,,,,,,,,,,,,*59
###2023-12-09 13:47:24.023652$GAGSV,1,1,03,04,43,308,45,21,72,043,40,27,19,051,42,,,,*58
###2023-12-09 13:47:24.025962$GBGSV,1,1,04,12,19,122,42,24,58,052,46,25,54,282,44,33,40,213,36*62
###2023-12-09 13:47:24.027295$GNVTG,243.17,T,,M,0.02,N,0.04,K,A*26
###2023-12-09 13:47:24.028907$GNGST,184723.10,7.200,,,,0.200,0.120,0.320*68
###2023-12-09 13:47:24.030198$GNZDA,184723.10,09,12,2023,00,00*7B
###2023-12-09 13:47:24.030848$GNEBP,,,,,,M*13
###2023-12-09 13:47:24.206041$GNGGA,184723.30,4138.0394877,N,07032.4384997,W,1,18,0.7,15.633,M,-29.746,M,0.0,*5B
###2023-12-09 13:47:24.402910$GNGGA,184723.50,4138.0394839,N,07032.4385001,W,1,18,0.7,15.635,M,-29.746,M,0.0,*56
###2023-12-09 13:47:24.601972$GNGGA,184723.70,4138.0394824,N,07032.4385009,W,1,18,0.7,15.630,M,-29.746,M,0.0,*55
###2023-12-09 13:47:24.805362$GNGGA,184723.90,4138.0394808,N,07032.4385009,W,1,18,0.7,15.634,M,-29.746,M,0.0,*51
###2023-12-09 13:47:25.004432$GNRMC,184724.10,A,4138.0394786,N,07032.4385009,W,0.02,243.17,091223,,,A*59
###2023-12-09 13:47:25.007279$GNGGA,184724.10,4138.0394786,N,07032.4385009,W,1,18,0.7,15.631,M,-29.746,M,0.0,*52
###2023-12-09 13:47:25.008991$GPGSA,A,3,04,16,26,28,29,31,,,,,,,1.3,0.7,1.1*33
###2023-12-09 13:47:25.010638$GLGSA,A,3,65,72,73,74,75,,,,,,,,1.3,0.7,1.1*28
###2023-12-09 13:47:25.012147$GAGSA,A,3,04,21,27,,,,,,,,,,1.3,0.7,1.1*24
###2023-12-09 13:47:25.013719$GBGSA,A,3,12,24,25,33,,,,,,,,,1.3,0.7,1.1*27
###2023-12-09 13:47:25.016040$GPGSV,2,1,06,04,51,304,49,16,73,229,40,26,78,041,40,28,34,089,45*7F
###2023-12-09 13:47:25.017773$GPGSV,2,2,06,29,18,043,41,31,56,073,49,,,,,,,,*77
###2023-12-09 13:47:25.020097$GLGSV,2,1,05,65,43,312,44,72,56,213,38,73,17,056,38,74,55,024,38*6E
###2023-12-09 13:47:25.021543$GLGSV,2,2,05,75,47,280,46,,,,,,,,,,,,*59
###2023-12-09 13:47:25.023604$GAGSV,1,1,03,04,43,308,45,21,72,043,40,27,19,051,42,,,,*58
###2023-12-09 13:47:25.025922$GBGSV,1,1,04,12,19,122,42,24,58,052,47,25,54,282,44,33,40,213,36*63
###2023-12-09 13:47:25.027259$GNVTG,243.17,T,,M,0.02,N,0.04,K,A*26
###2023-12-09 13:47:25.028868$GNGST,184724.10,7.100,,,,0.200,0.120,0.320*6C
###2023-12-09 13:47:25.030153$GNZDA,184724.10,09,12,2023,00,00*7C
###2023-12-09 13:47:25.030799$GNEBP,,,,,,M*13
###2023-12-09 13:47:25.203117$GNGGA,184724.30,4138.0394770,N,07032.4385009,W,1,18,0.7,15.631,M,-29.746,M,0.0,*59
###2023-12-09 13:47:25.403050$GNGGA,184724.50,4138.0394747,N,07032.4385006,W,1,18,0.7,15.627,M,-29.746,M,0.0,*53
###2023-12-09 13:47:25.601761$GNGGA,184724.70,4138.0394719,N,07032.4385018,W,1,18,0.7,15.622,M,-29.746,M,0.0,*50
###2023-12-09 13:47:25.806954$GNGGA,184724.90,4138.0394709,N,07032.4385007,W,1,18,0.7,15.627,M,-29.746,M,0.0,*54
###2023-12-09 13:47:26.009798$GNRMC,184725.10,A,4138.0394724,N,07032.4384991,W,0.02,243.17,091223,,,A*59
###2023-12-09 13:47:26.012701$GNGGA,184725.10,4138.0394724,N,07032.4384991,W,1,18,0.7,15.625,M,-29.746,M,0.0,*57
###2023-12-09 13:47:26.014440$GPGSA,A,3,04,16,26,28,29,31,,,,,,,1.3,0.7,1.1*33
###2023-12-09 13:47:26.016107$GLGSA,A,3,65,72,73,74,75,,,,,,,,1.3,0.7,1.1*28
###2023-12-09 13:47:26.017625$GAGSA,A,3,04,21,27,,,,,,,,,,1.3,0.7,1.1*24
###2023-12-09 13:47:26.019218$GBGSA,A,3,12,24,25,33,,,,,,,,,1.3,0.7,1.1*27
###2023-12-09 13:47:26.021546$GPGSV,2,1,06,04,51,304,49,16,73,229,40,26,78,041,41,28,34,089,45*7E
###2023-12-09 13:47:26.023547$GPGSV,2,2,06,29,18,043,41,31,56,073,50,,,,,,,,*7F
###2023-12-09 13:47:26.025879$GLGSV,2,1,05,65,43,312,44,72,56,213,39,73,17,056,38,74,55,024,38*6F
###2023-12-09 13:47:26.027342$GLGSV,2,2,05,75,47,280,46,,,,,,,,,,,,*59
###2023-12-09 13:47:26.029368$GAGSV,1,1,03,04,43,308,45,21,72,043,40,27,19,051,42,,,,*58
###2023-12-09 13:47:26.031706$GBGSV,1,1,04,12,19,122,42,24,58,052,46,25,54,282,44,33,40,213,35*61
###2023-12-09 13:47:26.033037$GNVTG,243.17,T,,M,0.02,N,0.04,K,A*26
###2023-12-09 13:47:26.034661$GNGST,184725.10,7.500,,,,0.200,0.120,0.320*69
###2023-12-09 13:47:26.035949$GNZDA,184725.10,09,12,2023,00,00*7D
