###2023-12-09 12:32:47.954266$GBGSV,2,1,05,14,56,198,45,24,81,339,48,25,32,252,43,26,36,057,44*67
###2023-12-09 12:32:47.955808$GBGSV,2,2,05,33,63,257,48,,,,,,,,,,,,*57
###2023-12-09 12:32:47.957186$GNVTG,316.77,T,,M,0.08,N,0.14,K,A*2A
###2023-12-09 12:32:47.958894$GNGST,173247.10,18.000,,,,0.120,0.110,0.230*59
###2023-12-09 12:32:47.960227$GNZDA,173247.10,09,12,2023,00,00*74
###2023-12-09 12:32:47.960910$GNEBP,,,,,,M*13
###2023-12-09 12:32:48.133038$GNGGA,173247.30,4138.0449712,N,07032.4291377,W,1,21,0.7,12.980,M,-29.745,M,0.0,*57
###2023-12-09 12:32:48.331722$GNGGA,173247.50,4138.0449875,N,07032.4291764,W,1,21,0.7,12.980,M,-29.745,M,0.0,*59
###2023-12-09 12:32:48.530707$GNGGA,173247.70,4138.0449977,N,07032.4292022,W,1,21,0.7,12.979,M,-29.745,M,0.0,*58
###2023-12-09 12:32:48.730069$GNGGA,173247.90,4138.0449955,N,07032.4292006,W,1,21,0.7,12.987,M,-29.745,M,0.0,*51
###2023-12-09 12:32:48.933173$GNRMC,173248.10,A,4138.0449952,N,07032.4292042,W,0.27,316.77,091223,,,A*56
###2023-12-09 12:32:48.936267$GNGGA,173248.10,4138.0449952,N,07032.4292042,W,1,21,0.7,12.989,M,-29.745,M,0.0,*5F
###2023-12-09 12:32:48.938140$GPGSA,A,3,03,04,16,26,28,29,31,32,,,,,1.3,0.7,1.1*31
###2023-12-09 12:32:48.939758$GLGSA,A,3,71,72,73,74,,,,,,,,,1.3,0.7,1.1*2F
###2023-12-09 12:32:48.941356$GAGSA,A,3,04,19,21,27,,,,,,,,,1.3,0.7,1.1*2C
###2023-12-09 12:32:48.943036$GBGSA,A,3,14,24,25,26,33,,,,,,,,1.3,0.7,1.1*25
###2023-12-09 12:32:48.945368$GPGSV,2,1,08,03,39,278,43,04,21,310,42,16,36,207,45,26,65,206,46*75
###2023-12-09 12:32:48.947752$GPGSV,2,2,08,28,58,055,44,29,25,075,40,31,73,356,46,32,31,133,45*7B
###2023-12-09 12:32:48.950122$GLGSV,1,1,04,71,58,169,48,72,65,311,47,73,49,033,45,74,71,287,43*69
###2023-12-09 12:32:48.952484$GAGSV,1,1,04,04,20,311,40,19,80,306,41,21,76,177,46,27,42,050,41*6F
###2023-12-09 12:32:48.954833$GBGSV,2,1,05,14,56,198,45,24,81,339,48,25,32,252,44,26,36,057,44*60
###2023-12-09 12:32:48.956299$GBGSV,2,2,05,33,63,257,48,,,,,,,,,,,,*57
###2023-12-09 12:32:48.957627$GNVTG,316.77,T,,M,0.27,N,0.50,K,A*27
###2023-12-09 12:32:48.959293$GNGST,173248.10,18.000,,,,0.120,0.110,0.230*56
###2023-12-09 12:32:48.960595$GNZDA,173248.10,09,12,2023,00,00*7B
###2023-12-09 12:32:48.961246$GNEBP,,,,,,M*13
###2023-12-09 12:32:49.132260$GNGGA,173248.30,4138.0450077,N,07032.4292333,W,1,21,0.7,12.989,M,-29.745,M,0.0,*5E
###2023-12-09 12:32:49.329513$GNGGA,173248.50,4138.0450216,N,07032.4292672,W,1,21,0.7,12.987,M,-29.745,M,0.0,*53
###2023-12-09 12:32:49.529445$GNGGA,173248.70,4138.0450242,N,07032.4292777,W,1,21,0.7,12.986,M,-29.745,M,0.0,*55
###2023-12-09 12:32:49.728623$GNGGA,173248.90,4138.0450231,N,07032.4292806,W,1,21,0.7,12.995,M,-29.745,M,0.0,*54
###2023-12-09 12:32:49.931561$GNRMC,173249.10,A,4138.0450306,N,07032.4292985,W,0.39,316.77,091223,,,A*59
###2023-12-09 12:32:49.934673$GNGGA,173249.10,4138.0450306,N,07032.4292985,W,1,21,0.7,13.006,M,-29.745,M,0.0,*50
###2023-12-09 12:32:49.936553$GPGSA,A,3,03,04,16,26,28,29,31,32,,,,,1.3,0.7,1.1*31
###2023-12-09 12:32:49.938154$GLGSA,A,3,71,72,73,74,,,,,,,,,1.3,0.7,1.1*2F
###2023-12-09 12:32:49.939816$GAGSA,A,3,04,19,21,27,,,,,,,,,1.3,0.7,1.1*2C
###2023-12-09 12:32:49.941485$GBGSA,A,3,14,24,25,26,33,,,,,,,,1.3,0.7,1.1*25
###2023-12-09 12:32:49.943844$GPGSV,2,1,08,03,39,278,41,04,21,310,40,16,36,207,45,26,65,206,48*7B
###2023-12-09 12:32:49.946193$GPGSV,2,2,08,28,58,055,45,29,25,075,42,31,73,356,47,32,31,133,46*7A
###2023-12-09 12:32:49.948570$GLGSV,1,1,04,71,58,169,48,72,65,311,46,73,49,033,46,74,71,287,44*6C
###2023-12-09 12:32:49.950979$GAGSV,1,1,04,04,20,311,40,19,80,306,41,21,76,177,46,27,42,050,42*6C
###2023-12-09 12:32:49.953324$GBGSV,2,1,05,14,56,198,43,24,81,339,49,25,32,252,44,26,36,057,44*67
###2023-12-09 12:32:49.954817$GBGSV,2,2,05,33,63,257,48,,,,,,,,,,,,*57
###2023-12-09 12:32:49.956159$GNVTG,316.77,T,,M,0.39,N,0.72,K,A*28
###2023-12-09 12:32:49.957817$GNGST,173249.10,18.000,,,,0.120,0.110,0.230*57
###2023-12-09 12:32:49.959130$GNZDA,173249.10,09,12,2023,00,00*7A
###2023-12-09 12:32:49.959787$GNEBP,,,,,,M*13
###2023-12-09 12:32:50.130497$GNGGA,173249.30,4138.0450427,N,07032.4293292,W,1,21,0.7,12.998,M,-29.745,M,0.0,*55
###2023-12-09 12:32:50.331285$GNGGA,173249.50,4138.0450486,N,07032.4293508,W,1,21,0.7,12.992,M,-29.745,M,0.0,*56
###2023-12-09 12:32:50.530643$GNGGA,173249.70,4138.0450509,N,07032.4293614,W,1,21,0.7,12.993,M,-29.745,M,0.0,*5D
###2023-12-09 12:32:50.729615$GNGGA,173249.90,4138.0450576,N,07032.4293777,W,1,21,0.7,12.999,M,-29.745,M,0.0,*55
###2023-12-09 12:32:50.932835$GNRMC,173250.10,A,4138.0450686,N,07032.4294052,W,0.43,316.77,091223,,,A*54
###2023-12-09 12:32:50.936403$GNGGA,173250.10,4138.0450686,N,07032.4294052,W,1,21,0.7,13.007,M,-29.745,M,0.0,*51
###2023-12-09 12:32:50.938718$GPGSA,A,3,03,04,16,26,28,29,31,32,,,,,1.3,0.7,1.1*31
###2023-12-09 12:32:50.940684$GLGSA,A,3,71,72,73,74,,,,,,,,,1.3,0.7,1.1*2F
###2023-12-09 12:32:50.942664$GAGSA,A,3,04,19,21,27,,,,,,,,,1.3,0.7,1.1*2C
###2023-12-09 12:32:50.944689$GBGSA,A,3,14,24,25,26,33,,,,,,,,1.3,0.7,1.1*25
###2023-12-09 12:32:50.947606$GPGSV,2,1,08,03,39,278,41,04,21,310,42,16,36,207,45,26,65,206,47*76
###2023-12-09 12:32:50.950482$GPGSV,2,2,08,28,58,055,45,29,25,075,40,31,73,356,46,32,31,133,45*7A
###2023-12-09 12:32:50.953633$GLGSV,1,1,04,71,58,169,47,72,65,311,46,73,49,033,45,74,71,287,43*67
###2023-12-09 12:32:50.956748$GAGSV,1,1,04,04,20,311,40,19,80,306,41,21,76,177,46,27,42,050,42*6C
###2023-12-09 12:32:50.959636$GBGSV,2,1,05,14,56,198,44,24,81,339,49,25,32,252,43,26,36,057,45*66
###2023-12-09 12:32:50.961440$GBGSV,2,2,05,33,63,257,48,,,,,,,,,,,,*57
###2023-12-09 12:32:50.963113$GNVTG,316.77,T,,M,0.43,N,0.79,K,A*2E
###2023-12-09 12:32:50.965158$GNGST,173250.10,18.000,,,,0.120,0.110,0.230*5F
###2023-12-09 12:32:50.966788$GNZDA,173250.10,09,12,2023,00,00*72
###2023-12-09 12:32:50.967613$GNEBP,,,,,,M*13
###2023-12-09 12:32:51.143392$GNGGA,173250.30,4138.0450761,N,07032.4294258,W,1,21,0.7,13.009,M,-29.745,M,0.0,*5D
###2023-12-09 12:32:51.333633$GNGGA,173250.50,4138.0450814,N,07032.4294421,W,1,21,0.7,13.014,M,-29.745,M,0.0,*52
###2023-12-09 12:32:51.532394$GNGGA,173250.70,4138.0450884,N,07032.4294620,W,1,21,0.7,13.014,M,-29.745,M,0.0,*5A
###2023-12-09 12:32:51.730798$GNGGA,173250.90,4138.0450948,N,07032.4294795,W,1,21,0.7,13.011,M,-29.745,M,0.0,*5F
###2023-12-09 12:32:51.932546$GNRMC,173251.10,A,4138.0451022,N,07032.4294973,W,0.29,316.77,091223,,,A*5A
###2023-12-09 12:32:51.936095$GNGGA,173251.10,4138.0451022,N,07032.4294973,W,1,21,0.7,13.005,M,-29.745,M,0.0,*51
###2023-12-09 12:32:51.938418$GPGSA,A,3,03,04,16,26,28,29,31,32,,,,,1.3,0.7,1.1*31
###2023-12-09 12:32:51.940407$GLGSA,A,3,71,72,73,74,,,,,,,,,1.3,0.7,1.1*2F
###2023-12-09 12:32:51.942363$GAGSA,A,3,04,19,21,27,,,,,,,,,1.3,0.7,1.1*2C
###2023-12-09 12:32:51.944411$GBGSA,A,3,14,24,25,26,33,,,,,,,,1.3,0.7,1.1*25
###2023-12-09 12:32:51.947311$GPGSV,2,1,08,03,39,278,42,04,21,310,43,16,36,207,45,26,65,206,47*74
###2023-12-09 12:32:51.950200$GPGSV,2,2,08,28,58,055,45,29,25,075,40,31,73,358,47,32,31,133,46*76
###2023-12-09 12:32:51.953089$GLGSV,1,1,04,71,58,169,48,72,65,311,47,73,49,033,46,74,71,287,43*6A
###2023-12-09 12:32:51.955975$GAGSV,1,1,04,04,20,311,39,19,80,306,41,21,76,177,46,27,42,050,42*62
###2023-12-09 12:32:51.958841$GBGSV,2,1,05,14,56,198,46,24,81,339,49,25,32,252,43,26,36,057,45*64
###2023-12-09 12:32:51.960644$GBGSV,2,2,05,33,63,257,48,,,,,,,,,,,,*57
###2023-12-09 12:32:51.962285$GNVTG,316.77,T,,M,0.29,N,0.54,K,A*2D
###2023-12-09 12:32:51.964352$GNGST,173251.10,18.000,,,,0.120,0.110,0.230*5E
###2023-12-09 12:32:51.965969$GNZDA,173251.10,09,12,2023,00,00*73
###2023-12-09 12:32:51.966810$GNEBP,,,,,,M*13
###2023-12-09 12:32:52.131217$GNGGA,173251.30,4138.0451106,N,07032.4295225,W,1,21,0.7,13.012,M,-29.745,M,0.0,*5B
###2023-12-09 12:32:52.331051$GNGGA,173251.50,4138.0451216,N,07032.4295504,W,1,21,0.7,13.018,M,-29.745,M,0.0,*51
###2023-12-09 12:32:52.531184$GNGGA,173251.70,4138.0451284,N,07032.4295690,W,1,21,0.7,13.021,M,-29.745,M,0.0,*5C
###2023-12-09 12:32:52.728579$GNGGA,173251.90,4138.0451292,N,07032.4295777,W,1,21,0.7,13.007,M,-29.745,M,0.0,*59
###2023-12-09 12:32:52.933064$GNRMC,173252.10,A,4138.0451340,N,07032.4295960,W,0.49,316.77,091223,,,A*5B
###2023-12-09 12:32:52.936431$GNGGA,173252.10,4138.0451340,N,07032.4295960,W,1,21,0.7,13.001,M,-29.745,M,0.0,*52
###2023-12-09 12:32:52.938324$GPGSA,A,3,03,04,16,26,28,29,31,32,,,,,1.3,0.7,1.1*31
###2023-12-09 12:32:52.939951$GLGSA,A,3,71,72,73,74,,,,,,,,,1.3,0.7,1.1*2F
###2023-12-09 12:32:52.941562$GAGSA,A,3,04,19,21,27,,,,,,,,,1.3,0.7,1.1*2C
###2023-12-09 12:32:52.943255$GBGSA,A,3,14,24,25,26,33,,,,,,,,1.3,0.7,1.1*25
###2023-12-09 12:32:52.945603$GPGSV,2,1,08,03,39,278,39,04,21,310,41,16,36,207,45,26,65,206,47*7A
###2023-12-09 12:32:52.947996$GPGSV,2,2,08,28,58,055,44,29,25,075,41,31,73,358,45,32,31,134,45*70
###2023-12-09 12:32:52.950366$GLGSV,1,1,04,71,58,169,48,72,65,311,46,73,49,033,45,74,71,287,44*6F
###2023-12-09 12:32:52.952728$GAGSV,1,1,04,04,20,311,41,19,80,306,41,21,76,177,46,27,42,050,43*6C
