###2023-12-09 13:29:11.022330$GAGSV,1,1,04,04,38,311,43,19,74,183,41,21,79,049,45,27,24,049,37*68
###2023-12-09 13:29:11.024696$GBGSV,2,1,06,14,31,190,42,24,64,043,48,25,49,274,48,26,17,069,42*64
###2023-12-09 13:29:11.026447$GBGSV,2,2,06,33,48,219,47,35,16,058,42,,,,,,,,*62
###2023-12-09 13:29:11.027781$GNVTG,314.92,T,,M,0.39,N,0.72,K,A*21
###2023-12-09 13:29:11.029419$GNGST,182910.10,18.000,,,,0.100,0.070,0.170*5C
###2023-12-09 13:29:11.030753$GNZDA,182910.10,09,12,2023,00,00*73
###2023-12-09 13:29:11.031393$GNEBP,,,,,,M*13
###2023-12-09 13:29:11.195383$GNGGA,182910.30,4138.0468897,N,07032.4162802,W,1,24,0.6,12.977,M,-29.745,M,0.0,*5B
###2023-12-09 13:29:11.390393$GNGGA,182910.50,4138.0468846,N,07032.4162709,W,1,24,0.6,12.970,M,-29.745,M,0.0,*52
###2023-12-09 13:29:11.591062$GNGGA,182910.70,4138.0468954,N,07032.4162779,W,1,24,0.6,12.973,M,-29.745,M,0.0,*56
###2023-12-09 13:29:11.790359$GNGGA,182910.90,4138.0469178,N,07032.4162991,W,1,24,0.6,12.982,M,-29.745,M,0.0,*59
###2023-12-09 13:29:11.995882$GNRMC,182911.10,A,4138.0469286,N,07032.4163092,W,0.04,314.92,091223,,,A*57
###2023-12-09 13:29:11.998754$GNGGA,182911.10,4138.0469286,N,07032.4163092,W,1,24,0.6,12.984,M,-29.745,M,0.0,*5F
###2023-12-09 13:29:12.000544$GPGSA,A,3,03,04,16,26,28,29,31,,,,,,1.1,0.6,0.9*3A
###2023-12-09 13:29:12.002253$GLGSA,A,3,65,71,72,73,74,75,,,,,,,1.1,0.6,0.9*24
###2023-12-09 13:29:12.003838$GAGSA,A,3,04,19,21,27,,,,,,,,,1.1,0.6,0.9*26
###2023-12-09 13:29:12.005543$GBGSA,A,3,14,24,25,26,33,35,,,,,,,1.1,0.6,0.9*29
###2023-12-09 13:29:12.007867$GPGSV,2,1,07,03,28,248,42,04,44,309,45,16,63,220,45,26,87,041,48*72
###2023-12-09 13:29:12.009896$GPGSV,2,2,07,28,40,082,41,29,22,049,39,31,61,061,44,,,,*41
###2023-12-09 13:29:12.012228$GLGSV,2,1,06,65,36,321,44,71,25,175,42,72,65,225,47,73,24,050,40*61
###2023-12-09 13:29:12.013976$GLGSV,2,2,06,74,61,010,43,75,42,268,48,,,,,,,,*65
###2023-12-09 13:29:12.016293$GAGSV,1,1,04,04,38,311,45,19,74,183,42,21,79,049,46,27,24,049,38*61
###2023-12-09 13:29:12.018621$GBGSV,2,1,06,14,31,190,41,24,64,043,46,25,49,274,48,26,17,069,41*6A
###2023-12-09 13:29:12.020359$GBGSV,2,2,06,33,48,219,47,35,16,058,41,,,,,,,,*61
###2023-12-09 13:29:12.021675$GNVTG,314.92,T,,M,0.04,N,0.07,K,A*2D
###2023-12-09 13:29:12.023330$GNGST,182911.10,18.000,,,,0.100,0.070,0.170*5D
###2023-12-09 13:29:12.024623$GNZDA,182911.10,09,12,2023,00,00*72
###2023-12-09 13:29:12.025260$GNEBP,,,,,,M*13
###2023-12-09 13:29:12.196354$GNGGA,182911.30,4138.0469227,N,07032.4163010,W,1,24,0.6,12.984,M,-29.745,M,0.0,*5C
###2023-12-09 13:29:12.390001$GNGGA,182911.50,4138.0469253,N,07032.4162961,W,1,24,0.6,12.977,M,-29.745,M,0.0,*5B
###2023-12-09 13:29:12.588753$GNGGA,182911.70,4138.0469421,N,07032.4163120,W,1,24,0.6,12.971,M,-29.745,M,0.0,*50
###2023-12-09 13:29:12.789590$GNGGA,182911.90,4138.0469596,N,07032.4163333,W,1,24,0.6,12.967,M,-29.745,M,0.0,*54
###2023-12-09 13:29:12.995335$GNRMC,182912.10,A,4138.0469631,N,07032.4163346,W,0.10,314.92,091223,,,A*53
###2023-12-09 13:29:12.998197$GNGGA,182912.10,4138.0469631,N,07032.4163346,W,1,24,0.6,12.971,M,-29.745,M,0.0,*54
###2023-12-09 13:29:13.000006$GPGSA,A,3,03,04,16,26,28,29,31,,,,,,1.1,0.6,0.9*3A
###2023-12-09 13:29:13.001722$GLGSA,A,3,65,71,72,73,74,75,,,,,,,1.1,0.6,0.9*24
###2023-12-09 13:29:13.003317$GAGSA,A,3,04,19,21,27,,,,,,,,,1.1,0.6,0.9*26
###2023-12-09 13:29:13.005031$GBGSA,A,3,14,24,25,26,33,35,,,,,,,1.1,0.6,0.9*29
###2023-12-09 13:29:13.007374$GPGSV,2,1,07,03,28,248,43,04,44,309,45,16,63,220,46,26,87,041,48*70
###2023-12-09 13:29:13.009420$GPGSV,2,2,07,28,40,082,41,29,22,049,39,31,61,061,45,,,,*40
###2023-12-09 13:29:13.011759$GLGSV,2,1,06,65,36,321,44,71,25,175,42,72,65,225,47,73,24,050,39*6F
###2023-12-09 13:29:13.013512$GLGSV,2,2,06,74,61,010,42,75,42,268,48,,,,,,,,*64
###2023-12-09 13:29:13.015835$GAGSV,1,1,04,04,38,311,45,19,74,183,42,21,79,049,46,27,24,049,38*61
###2023-12-09 13:29:13.018150$GBGSV,2,1,06,14,31,190,41,24,64,043,48,25,49,274,49,26,17,069,41*65
###2023-12-09 13:29:13.019893$GBGSV,2,2,06,33,48,219,47,35,16,058,42,,,,,,,,*62
###2023-12-09 13:29:13.021210$GNVTG,314.92,T,,M,0.10,N,0.18,K,A*26
###2023-12-09 13:29:13.022887$GNGST,182912.10,18.000,,,,0.100,0.070,0.170*5E
###2023-12-09 13:29:13.024175$GNZDA,182912.10,09,12,2023,00,00*71
###2023-12-09 13:29:13.024811$GNEBP,,,,,,M*13
###2023-12-09 13:29:13.191468$GNGGA,182912.30,4138.0469614,N,07032.4163291,W,1,24,0.6,12.984,M,-29.745,M,0.0,*50
###2023-12-09 13:29:13.390250$GNGGA,182912.50,4138.0469692,N,07032.4163333,W,1,24,0.6,12.982,M,-29.745,M,0.0,*57
###2023-12-09 13:29:13.596916$GNGGA,182912.70,4138.0469793,N,07032.4163423,W,1,24,0.6,12.963,M,-29.745,M,0.0,*5C
###2023-12-09 13:29:13.792505$GNGGA,182912.90,4138.0469899,N,07032.4163525,W,1,24,0.6,12.955,M,-29.745,M,0.0,*55
###2023-12-09 13:29:13.995083$GNRMC,182913.10,A,4138.0470002,N,07032.4163627,W,0.27,314.92,091223,,,A*5A
###2023-12-09 13:29:13.998546$GNGGA,182913.10,4138.0470002,N,07032.4163627,W,1,24,0.6,12.966,M,-29.745,M,0.0,*5F
###2023-12-09 13:29:14.000723$GPGSA,A,3,03,04,16,26,28,29,31,,,,,,1.1,0.6,0.9*3A
###2023-12-09 13:29:14.002817$GLGSA,A,3,65,71,72,73,74,75,,,,,,,1.1,0.6,0.9*24
###2023-12-09 13:29:14.004773$GAGSA,A,3,04,19,21,27,,,,,,,,,1.1,0.6,0.9*26
###2023-12-09 13:29:14.006845$GBGSA,A,3,14,24,25,26,33,35,,,,,,,1.1,0.6,0.9*29
###2023-12-09 13:29:14.009661$GPGSV,2,1,07,03,28,248,43,04,44,309,46,16,63,220,47,26,87,041,48*72
###2023-12-09 13:29:14.012132$GPGSV,2,2,07,28,40,082,43,29,22,049,37,31,61,061,46,,,,*4F
###2023-12-09 13:29:14.014945$GLGSV,2,1,06,65,36,321,44,71,25,175,42,72,65,225,46,73,24,050,40*60
###2023-12-09 13:29:14.017049$GLGSV,2,2,06,74,61,010,42,75,42,268,48,,,,,,,,*64
###2023-12-09 13:29:14.019862$GAGSV,1,1,04,04,38,311,45,19,74,183,42,21,79,049,46,27,24,049,38*61
###2023-12-09 13:29:14.022684$GBGSV,2,1,06,14,31,190,41,24,64,043,47,25,49,274,47,26,17,069,42*67
###2023-12-09 13:29:14.024779$GBGSV,2,2,06,33,48,219,47,35,16,058,41,,,,,,,,*61
###2023-12-09 13:29:14.026369$GNVTG,314.92,T,,M,0.27,N,0.50,K,A*2E
###2023-12-09 13:29:14.028376$GNGST,182913.10,18.000,,,,0.100,0.070,0.170*5F
###2023-12-09 13:29:14.029935$GNZDA,182913.10,09,12,2023,00,00*70
###2023-12-09 13:29:14.030721$GNEBP,,,,,,M*13
###2023-12-09 13:29:14.192089$GNGGA,182913.30,4138.0470053,N,07032.4163622,W,1,24,0.6,12.974,M,-29.745,M,0.0,*5F
###2023-12-09 13:29:14.390982$GNGGA,182913.50,4138.0470028,N,07032.4163513,W,1,24,0.6,12.964,M,-29.745,M,0.0,*55
###2023-12-09 13:29:14.591379$GNGGA,182913.70,4138.0470067,N,07032.4163580,W,1,24,0.6,12.963,M,-29.745,M,0.0,*51
###2023-12-09 13:29:14.791665$GNGGA,182913.90,4138.0470261,N,07032.4163820,W,1,24,0.6,12.967,M,-29.745,M,0.0,*58
###2023-12-09 13:29:14.994822$GNRMC,182914.10,A,4138.0470389,N,07032.4163931,W,0.06,314.92,091223,,,A*56
###2023-12-09 13:29:14.998327$GNGGA,182914.10,4138.0470389,N,07032.4163931,W,1,24,0.6,12.965,M,-29.745,M,0.0,*53
###2023-12-09 13:29:15.000510$GPGSA,A,3,03,04,16,26,28,29,31,,,,,,1.1,0.6,0.9*3A
###2023-12-09 13:29:15.002596$GLGSA,A,3,65,71,72,73,74,75,,,,,,,1.1,0.6,0.9*24
###2023-12-09 13:29:15.004498$GAGSA,A,3,04,19,21,27,,,,,,,,,1.1,0.6,0.9*26
###2023-12-09 13:29:15.006573$GBGSA,A,3,14,24,25,26,33,35,,,,,,,1.1,0.6,0.9*29
###2023-12-09 13:29:15.009382$GPGSV,2,1,07,03,28,248,44,04,44,309,47,16,63,220,48,26,87,041,49*7A
###2023-12-09 13:29:15.011845$GPGSV,2,2,07,28,40,082,42,29,22,049,40,31,61,061,46,,,,*4E
###2023-12-09 13:29:15.014671$GLGSV,2,1,06,65,36,321,44,71,25,175,41,72,65,225,46,73,24,050,41*62
###2023-12-09 13:29:15.016772$GLGSV,2,2,06,74,61,010,43,75,42,268,48,,,,,,,,*65
###2023-12-09 13:29:15.019581$GAGSV,1,1,04,04,38,311,44,19,74,183,41,21,79,049,46,27,24,049,38*63
###2023-12-09 13:29:15.022392$GBGSV,2,1,06,14,31,190,41,24,64,043,47,25,49,274,47,26,17,069,42*67
###2023-12-09 13:29:15.024498$GBGSV,2,2,06,33,48,219,47,35,16,058,41,,,,,,,,*61
###2023-12-09 13:29:15.026097$GNVTG,314.92,T,,M,0.06,N,0.11,K,A*28
###2023-12-09 13:29:15.028147$GNGST,182914.10,18.000,,,,0.100,0.070,0.170*58
###2023-12-09 13:29:15.029711$GNZDA,182914.10,09,12,2023,00,00*77
###2023-12-09 13:29:15.030482$GNEBP,,,,,,M*13
###2023-12-09 13:29:15.193965$GNGGA,182914.30,4138.0470327,N,07032.4163813,W,1,24,0.6,12.962,M,-29.745,M,0.0,*53
###2023-12-09 13:29:15.390091$GNGGA,182914.50,4138.0470283,N,07032.4163747,W,1,24,0.6,12.968,M,-29.745,M,0.0,*5E
###2023-12-09 13:29:15.590254$GNGGA,182914.70,4138.0470456,N,07032.4163914,W,1,24,0.6,12.972,M,-29.745,M,0.0,*51
###2023-12-09 13:29:15.792464$GNGGA,182914.90,4138.0470661,N,07032.4164111,W,1,24,0.6,12.967,M,-29.745,M,0.0,*57
###2023-12-09 13:29:15.993632$GNRMC,182915.10,A,4138.0470661,N,07032.4164126,W,0.17,314.92,091223,,,A*5D
###2023-12-09 13:29:15.997104$GNGGA,182915.10,4138.0470661,N,07032.4164126,W,1,24,0.6,12.961,M,-29.745,M,0.0,*5C
###2023-12-09 13:29:15.999274$GPGSA,A,3,03,04,16,26,28,29,31,,,,,,1.1,0.6,0.9*3A
###2023-12-09 13:29:16.001334$GLGSA,A,3,65,71,72,73,74,75,,,,,,,1.1,0.6,0.9*24
###2023-12-09 13:29:16.003253$GAGSA,A,3,04,19,21,27,,,,,,,,,1.1,0.6,0.9*26
