###2023-12-09 13:16:19.984458$GNGGA,181619.10,4138.0704936,N,07032.2753864,W,1,24,0.7,13.236,M,-29.742,M,0.0,*54
###2023-12-09 13:16:19.986277$GPGSA,A,3,03,04,16,26,28,29,31,,,,,,1.2,0.7,1.0*30
###2023-12-09 13:16:19.988030$GLGSA,A,3,65,71,72,73,74,75,,,,,,,1.2,0.7,1.0*2E
###2023-12-09 13:16:19.989633$GAGSA,A,3,04,19,21,27,,,,,,,,,1.2,0.7,1.0*2C
###2023-12-09 13:16:19.991371$GBGSA,A,3,14,24,25,26,33,35,,,,,,,1.2,0.7,1.0*23
###2023-12-09 13:16:19.993694$GPGSV,2,1,07,03,32,254,44,04,38,311,45,16,57,216,46,26,87,208,48*7E
###2023-12-09 13:16:19.995763$GPGSV,2,2,07,28,44,077,45,29,24,054,41,31,65,052,46,,,,*48
###2023-12-09 13:16:19.998100$GLGSV,2,1,06,65,30,325,41,71,33,174,46,72,71,243,46,73,30,046,43*61
###2023-12-09 13:16:19.999866$GLGSV,2,2,06,74,66,355,41,75,37,260,47,,,,,,,,*67
###2023-12-09 13:16:20.002184$GAGSV,1,1,04,04,34,312,43,19,79,190,41,21,83,062,46,27,28,049,40*6B
###2023-12-09 13:16:20.004529$GBGSV,2,1,06,14,37,191,43,24,69,035,47,25,45,267,47,26,22,066,41*6A
###2023-12-09 13:16:20.006276$GBGSV,2,2,06,33,53,225,46,35,16,064,42,,,,,,,,*69
###2023-12-09 13:16:20.007608$GNVTG,359.51,T,,M,3.65,N,6.77,K,A*2E
###2023-12-09 13:16:20.009254$GNGST,181619.10,18.000,,,,0.097,0.070,0.170*56
###2023-12-09 13:16:20.010543$GNZDA,181619.10,09,12,2023,00,00*76
###2023-12-09 13:16:20.011193$GNEBP,,,,,,M*13
###2023-12-09 13:16:20.178705$GNGGA,181619.30,4138.0706964,N,07032.2753854,W,1,24,0.7,13.235,M,-29.742,M,0.0,*53
###2023-12-09 13:16:20.376471$GNGGA,181619.50,4138.0709024,N,07032.2753822,W,1,24,0.7,13.233,M,-29.742,M,0.0,*50
###2023-12-09 13:16:20.578547$GNGGA,181619.70,4138.0711064,N,07032.2753888,W,1,24,0.7,13.229,M,-29.742,M,0.0,*54
###2023-12-09 13:16:20.777259$GNGGA,181619.90,4138.0713091,N,07032.2753924,W,1,24,0.7,13.220,M,-29.742,M,0.0,*5C
###2023-12-09 13:16:20.990430$GNRMC,181620.10,A,4138.0715092,N,07032.2753998,W,3.63,357.33,091223,,,A*58
###2023-12-09 13:16:20.993332$GNGGA,181620.10,4138.0715092,N,07032.2753998,W,1,24,0.7,13.214,M,-29.742,M,0.0,*5B
###2023-12-09 13:16:20.995160$GPGSA,A,3,03,04,16,26,28,29,31,,,,,,1.2,0.7,1.0*30
###2023-12-09 13:16:20.996894$GLGSA,A,3,65,71,72,73,74,75,,,,,,,1.2,0.7,1.0*2E
###2023-12-09 13:16:20.998478$GAGSA,A,3,04,19,21,27,,,,,,,,,1.2,0.7,1.0*2C
###2023-12-09 13:16:21.000200$GBGSA,A,3,14,24,25,26,33,35,,,,,,,1.2,0.7,1.0*23
###2023-12-09 13:16:21.002525$GPGSV,2,1,07,03,32,254,44,04,38,311,44,16,57,216,47,26,87,208,48*7E
###2023-12-09 13:16:21.004587$GPGSV,2,2,07,28,44,077,45,29,24,054,41,31,65,052,46,,,,*48
###2023-12-09 13:16:21.006954$GLGSV,2,1,06,65,30,325,38,71,33,174,47,72,71,243,47,73,30,046,42*6E
###2023-12-09 13:16:21.008712$GLGSV,2,2,06,74,66,355,41,75,37,260,47,,,,,,,,*67
###2023-12-09 13:16:21.011053$GAGSV,1,1,04,04,34,312,43,19,79,190,40,21,83,062,46,27,28,049,40*6A
###2023-12-09 13:16:21.013393$GBGSV,2,1,06,14,37,191,43,24,69,035,48,25,45,267,47,26,22,066,42*66
###2023-12-09 13:16:21.015157$GBGSV,2,2,06,33,53,225,48,35,16,064,42,,,,,,,,*67
###2023-12-09 13:16:21.016483$GNVTG,357.33,T,,M,3.63,N,6.73,K,A*26
###2023-12-09 13:16:21.018133$GNGST,181620.10,18.000,,,,0.097,0.070,0.170*5C
###2023-12-09 13:16:21.019434$GNZDA,181620.10,09,12,2023,00,00*7C
###2023-12-09 13:16:21.020074$GNEBP,,,,,,M*13
###2023-12-09 13:16:21.182357$GNGGA,181620.30,4138.0717094,N,07032.2754177,W,1,24,0.7,13.215,M,-29.742,M,0.0,*52
###2023-12-09 13:16:21.378695$GNGGA,181620.50,4138.0719113,N,07032.2754432,W,1,24,0.7,13.220,M,-29.742,M,0.0,*56
###2023-12-09 13:16:21.578469$GNGGA,181620.70,4138.0721145,N,07032.2754683,W,1,24,0.7,13.219,M,-29.742,M,0.0,*5E
###2023-12-09 13:16:21.778654$GNGGA,181620.90,4138.0723173,N,07032.2754921,W,1,24,0.7,13.220,M,-29.742,M,0.0,*5A
###2023-12-09 13:16:21.982774$GNRMC,181621.10,A,4138.0725182,N,07032.2755260,W,3.62,352.15,091223,,,A*50
###2023-12-09 13:16:21.985632$GNGGA,181621.10,4138.0725182,N,07032.2755260,W,1,24,0.7,13.219,M,-29.742,M,0.0,*5E
###2023-12-09 13:16:21.987431$GPGSA,A,3,03,04,16,26,28,29,31,,,,,,1.2,0.7,1.0*30
###2023-12-09 13:16:21.989140$GLGSA,A,3,65,71,72,73,74,75,,,,,,,1.2,0.7,1.0*2E
###2023-12-09 13:16:21.990734$GAGSA,A,3,04,19,21,27,,,,,,,,,1.2,0.7,1.0*2C
###2023-12-09 13:16:21.992443$GBGSA,A,3,14,24,25,26,33,35,,,,,,,1.2,0.7,1.0*23
###2023-12-09 13:16:21.994808$GPGSV,2,1,07,03,32,254,43,04,38,311,44,16,57,216,47,26,87,208,48*79
###2023-12-09 13:16:21.996845$GPGSV,2,2,07,28,44,077,45,29,24,054,41,31,65,052,46,,,,*48
###2023-12-09 13:16:21.999182$GLGSV,2,1,06,65,30,325,38,71,33,174,47,72,71,243,46,73,30,046,42*6F
###2023-12-09 13:16:22.000929$GLGSV,2,2,06,74,66,355,41,75,37,260,46,,,,,,,,*66
###2023-12-09 13:16:22.003260$GAGSV,1,1,04,04,34,312,42,19,79,190,40,21,83,062,46,27,28,049,40*6B
###2023-12-09 13:16:22.005594$GBGSV,2,1,06,14,36,191,43,24,69,035,48,25,45,267,47,26,22,066,42*67
###2023-12-09 13:16:22.007357$GBGSV,2,2,06,33,53,225,48,35,16,064,42,,,,,,,,*67
###2023-12-09 13:16:22.008678$GNVTG,352.15,T,,M,3.62,N,6.70,K,A*25
###2023-12-09 13:16:22.010325$GNGST,181621.10,18.000,,,,0.097,0.070,0.170*5D
###2023-12-09 13:16:22.011633$GNZDA,181621.10,09,12,2023,00,00*7D
###2023-12-09 13:16:22.012274$GNEBP,,,,,,M*13
###2023-12-09 13:16:22.177411$GNGGA,181621.30,4138.0727164,N,07032.2755638,W,1,24,0.7,13.222,M,-29.742,M,0.0,*57
###2023-12-09 13:16:22.378622$GNGGA,181621.50,4138.0729175,N,07032.2755908,W,1,24,0.7,13.222,M,-29.742,M,0.0,*53
###2023-12-09 13:16:22.578398$GNGGA,181621.70,4138.0731190,N,07032.2756074,W,1,24,0.7,13.218,M,-29.742,M,0.0,*5B
###2023-12-09 13:16:22.778410$GNGGA,181621.90,4138.0733210,N,07032.2756240,W,1,24,0.7,13.219,M,-29.742,M,0.0,*58
###2023-12-09 13:16:22.981588$GNRMC,181622.10,A,4138.0735238,N,07032.2756421,W,3.71,356.53,091223,,,A*54
###2023-12-09 13:16:22.984471$GNGGA,181622.10,4138.0735238,N,07032.2756421,W,1,24,0.7,13.220,M,-29.742,M,0.0,*54
###2023-12-09 13:16:22.986262$GPGSA,A,3,03,04,16,26,28,29,31,,,,,,1.2,0.7,1.0*30
###2023-12-09 13:16:22.987990$GLGSA,A,3,65,71,72,73,74,75,,,,,,,1.2,0.7,1.0*2E
###2023-12-09 13:16:22.989576$GAGSA,A,3,04,19,21,27,,,,,,,,,1.2,0.7,1.0*2C
###2023-12-09 13:16:22.991305$GBGSA,A,3,14,24,25,26,33,35,,,,,,,1.2,0.7,1.0*23
###2023-12-09 13:16:22.993639$GPGSV,2,1,07,03,32,254,44,04,38,311,44,16,57,216,47,26,87,208,48*7E
###2023-12-09 13:16:22.995693$GPGSV,2,2,07,28,44,077,45,29,24,054,42,31,65,052,46,,,,*4B
###2023-12-09 13:16:22.998020$GLGSV,2,1,06,65,30,325,41,71,33,174,46,72,71,243,46,73,30,046,42*60
###2023-12-09 13:16:22.999783$GLGSV,2,2,06,74,66,355,41,75,37,260,46,,,,,,,,*66
###2023-12-09 13:16:23.002110$GAGSV,1,1,04,04,34,312,42,19,79,190,41,21,83,062,46,27,28,049,40*6A
###2023-12-09 13:16:23.004456$GBGSV,2,1,06,14,36,191,45,24,69,035,48,25,45,267,48,26,22,066,44*68
###2023-12-09 13:16:23.006201$GBGSV,2,2,06,33,53,225,48,35,16,064,43,,,,,,,,*66
###2023-12-09 13:16:23.007531$GNVTG,356.53,T,,M,3.71,N,6.88,K,A*26
###2023-12-09 13:16:23.009171$GNGST,181622.10,18.000,,,,0.097,0.070,0.170*5E
###2023-12-09 13:16:23.010455$GNZDA,181622.10,09,12,2023,00,00*7E
###2023-12-09 13:16:23.011106$GNEBP,,,,,,M*13
###2023-12-09 13:16:23.178741$GNGGA,181622.30,4138.0737294,N,07032.2756511,W,1,24,0.7,13.231,M,-29.742,M,0.0,*50
###2023-12-09 13:16:23.377469$GNGGA,181622.50,4138.0739387,N,07032.2756451,W,1,24,0.7,13.242,M,-29.742,M,0.0,*5A
###2023-12-09 13:16:23.579315$GNGGA,181622.70,4138.0741485,N,07032.2756370,W,1,24,0.7,13.239,M,-29.742,M,0.0,*5A
###2023-12-09 13:16:23.778960$GNGGA,181622.90,4138.0743558,N,07032.2756336,W,1,24,0.7,13.238,M,-29.742,M,0.0,*54
###2023-12-09 13:16:23.982941$GNRMC,181623.10,A,4138.0745635,N,07032.2756286,W,3.77,2.15,091223,,,A*56
###2023-12-09 13:16:23.986392$GNGGA,181623.10,4138.0745635,N,07032.2756286,W,1,24,0.7,13.237,M,-29.742,M,0.0,*56
###2023-12-09 13:16:23.988567$GPGSA,A,3,03,04,16,26,28,29,31,,,,,,1.2,0.7,1.0*30
###2023-12-09 13:16:23.990657$GLGSA,A,3,65,71,72,73,74,75,,,,,,,1.2,0.7,1.0*2E
###2023-12-09 13:16:23.992576$GAGSA,A,3,04,19,21,27,,,,,,,,,1.2,0.7,1.0*2C
###2023-12-09 13:16:23.994644$GBGSA,A,3,14,24,25,26,33,35,,,,,,,1.2,0.7,1.0*23
###2023-12-09 13:16:23.997449$GPGSV,2,1,07,03,32,254,45,04,38,311,44,16,57,216,47,26,87,208,48*7F
###2023-12-09 13:16:23.999928$GPGSV,2,2,07,28,44,077,44,29,24,054,40,31,65,052,46,,,,*48
###2023-12-09 13:16:24.003030$GLGSV,2,1,06,65,30,325,42,71,33,174,47,72,71,243,47,73,30,046,41*60
###2023-12-09 13:16:24.005152$GLGSV,2,2,06,74,66,355,41,75,37,260,47,,,,,,,,*67
###2023-12-09 13:16:24.007972$GAGSV,1,1,04,04,34,312,42,19,79,190,41,21,83,062,46,27,28,049,39*64
###2023-12-09 13:16:24.010821$GBGSV,2,1,06,14,36,191,44,24,69,035,48,25,45,267,49,26,22,066,43*6F
###2023-12-09 13:16:24.012959$GBGSV,2,2,06,33,53,225,48,35,16,064,43,,,,,,,,*66
###2023-12-09 13:16:24.014480$GNVTG,2.15,T,,M,3.77,N,6.98,K,A*21
###2023-12-09 13:16:24.016474$GNGST,181623.10,18.000,,,,0.097,0.070,0.170*5F
###2023-12-09 13:16:24.018033$GNZDA,181623.10,09,12,2023,00,00*7F
###2023-12-09 13:16:24.018854$GNEBP,,,,,,M*13
