###2023-12-09 13:18:42.580143$GNGGA,181841.70,4138.0399547,N,07032.3099451,W,1,24,0.7,13.356,M,-29.744,M,0.0,*50
###2023-12-09 13:18:42.781406$GNGGA,181841.90,4138.0401669,N,07032.3098925,W,1,24,0.7,13.345,M,-29.744,M,0.0,*5A
###2023-12-09 13:18:42.991905$GNRMC,181842.10,A,4138.0403812,N,07032.3098454,W,3.97,10.89,091223,,,A*60
###2023-12-09 13:18:42.994774$GNGGA,181842.10,4138.0403812,N,07032.3098454,W,1,24,0.7,13.340,M,-29.744,M,0.0,*5F
###2023-12-09 13:18:42.996569$GPGSA,A,3,03,04,16,26,28,29,31,,,,,,1.1,0.7,0.9*3B
###2023-12-09 13:18:42.998283$GLGSA,A,3,65,71,72,73,74,75,,,,,,,1.1,0.7,0.9*25
###2023-12-09 13:18:42.999875$GAGSA,A,3,04,19,21,27,,,,,,,,,1.1,0.7,0.9*27
###2023-12-09 13:18:43.001589$GBGSA,A,3,14,24,25,26,33,35,,,,,,,1.1,0.7,0.9*28
###2023-12-09 13:18:43.003926$GPGSV,2,1,07,03,31,253,42,04,39,310,44,16,58,216,46,26,88,205,48*70
###2023-12-09 13:18:43.005966$GPGSV,2,2,07,28,43,078,43,29,23,053,39,31,64,053,45,,,,*4A
###2023-12-09 13:18:43.008298$GLGSV,2,1,06,65,32,324,41,71,32,174,46,72,70,240,47,73,29,047,41*6B
###2023-12-09 13:18:43.010036$GLGSV,2,2,06,74,65,358,41,75,38,261,47,,,,,,,,*67
###2023-12-09 13:18:43.012362$GAGSV,1,1,04,04,34,311,44,19,78,188,41,21,82,058,46,27,27,049,39*6E
###2023-12-09 13:18:43.014695$GBGSV,2,1,06,14,35,191,45,24,68,038,48,25,46,269,49,26,20,067,41*6D
###2023-12-09 13:18:43.016444$GBGSV,2,2,06,33,51,223,48,35,16,062,41,,,,,,,,*66
###2023-12-09 13:18:43.017732$GNVTG,10.89,T,,M,3.97,N,7.34,K,A*1E
###2023-12-09 13:18:43.019385$GNGST,181842.10,18.000,,,,0.097,0.071,0.170*57
###2023-12-09 13:18:43.020673$GNZDA,181842.10,09,12,2023,00,00*76
###2023-12-09 13:18:43.021309$GNEBP,,,,,,M*13
###2023-12-09 13:18:43.185322$GNGGA,181842.30,4138.0405927,N,07032.3097659,W,1,24,0.7,13.333,M,-29.744,M,0.0,*58
###2023-12-09 13:18:43.383026$GNGGA,181842.50,4138.0407988,N,07032.3096746,W,1,24,0.7,13.320,M,-29.744,M,0.0,*55
###2023-12-09 13:18:43.581405$GNGGA,181842.70,4138.0410048,N,07032.3096076,W,1,24,0.7,13.320,M,-29.744,M,0.0,*50
###2023-12-09 13:18:43.780520$GNGGA,181842.90,4138.0412114,N,07032.3095454,W,1,24,0.7,13.314,M,-29.744,M,0.0,*54
###2023-12-09 13:18:43.985040$GNRMC,181843.10,A,4138.0414140,N,07032.3094742,W,3.91,13.43,091223,,,A*62
###2023-12-09 13:18:43.987902$GNGGA,181843.10,4138.0414140,N,07032.3094742,W,1,24,0.7,13.311,M,-29.744,M,0.0,*5A
###2023-12-09 13:18:43.989696$GPGSA,A,3,03,04,16,26,28,29,31,,,,,,1.1,0.7,0.9*3B
###2023-12-09 13:18:43.991423$GLGSA,A,3,65,71,72,73,74,75,,,,,,,1.1,0.7,0.9*25
###2023-12-09 13:18:43.993009$GAGSA,A,3,04,19,21,27,,,,,,,,,1.1,0.7,0.9*27
###2023-12-09 13:18:43.994737$GBGSA,A,3,14,24,25,26,33,35,,,,,,,1.1,0.7,0.9*28
###2023-12-09 13:18:43.997069$GPGSV,2,1,07,03,31,253,42,04,39,310,45,16,58,216,46,26,88,205,48*71
###2023-12-09 13:18:43.999119$GPGSV,2,2,07,28,43,078,44,29,23,053,38,31,64,053,46,,,,*4F
###2023-12-09 13:18:44.001447$GLGSV,2,1,06,65,32,324,42,71,31,174,45,72,70,240,46,73,29,047,41*69
###2023-12-09 13:18:44.003203$GLGSV,2,2,06,74,65,358,41,75,38,261,47,,,,,,,,*67
###2023-12-09 13:18:44.005528$GAGSV,1,1,04,04,34,311,43,19,78,188,41,21,82,058,46,27,27,049,38*68
###2023-12-09 13:18:44.007867$GBGSV,2,1,06,14,35,191,45,24,68,038,48,25,46,269,47,26,20,067,43*61
###2023-12-09 13:18:44.009608$GBGSV,2,2,06,33,51,223,47,35,16,062,42,,,,,,,,*6A
###2023-12-09 13:18:44.010906$GNVTG,13.43,T,,M,3.91,N,7.24,K,A*1C
###2023-12-09 13:18:44.012552$GNGST,181843.10,18.000,,,,0.097,0.071,0.170*56
###2023-12-09 13:18:44.013840$GNZDA,181843.10,09,12,2023,00,00*77
###2023-12-09 13:18:44.014478$GNEBP,,,,,,M*13
###2023-12-09 13:18:44.180750$GNGGA,181843.30,4138.0416183,N,07032.3094164,W,1,24,0.7,13.319,M,-29.744,M,0.0,*5F
###2023-12-09 13:18:44.379706$GNGGA,181843.50,4138.0418272,N,07032.3093681,W,1,24,0.7,13.320,M,-29.744,M,0.0,*5B
###2023-12-09 13:18:44.583272$GNGGA,181843.70,4138.0420382,N,07032.3093194,W,1,24,0.7,13.304,M,-29.744,M,0.0,*59
###2023-12-09 13:18:44.780630$GNGGA,181843.90,4138.0422501,N,07032.3092712,W,1,24,0.7,13.299,M,-29.744,M,0.0,*54
###2023-12-09 13:18:44.991806$GNRMC,181844.10,A,4138.0424658,N,07032.3092129,W,4.02,12.88,091223,,,A*6E
###2023-12-09 13:18:44.994689$GNGGA,181844.10,4138.0424658,N,07032.3092129,W,1,24,0.7,13.298,M,-29.744,M,0.0,*5D
###2023-12-09 13:18:44.996477$GPGSA,A,3,03,04,16,26,28,29,31,,,,,,1.1,0.7,0.9*3B
###2023-12-09 13:18:44.998177$GLGSA,A,3,65,71,72,73,74,75,,,,,,,1.1,0.7,0.9*25
###2023-12-09 13:18:44.999766$GAGSA,A,3,04,19,21,27,,,,,,,,,1.1,0.7,0.9*27
###2023-12-09 13:18:45.001475$GBGSA,A,3,14,24,25,26,33,35,,,,,,,1.1,0.7,0.9*28
###2023-12-09 13:18:45.003806$GPGSV,2,1,07,03,31,253,42,04,39,310,45,16,58,216,46,26,88,205,48*71
###2023-12-09 13:18:45.005840$GPGSV,2,2,07,28,43,078,44,29,23,053,39,31,64,053,46,,,,*4E
###2023-12-09 13:18:45.008171$GLGSV,2,1,06,65,32,324,42,71,31,174,45,72,69,237,46,73,29,047,40*60
###2023-12-09 13:18:45.009912$GLGSV,2,2,06,74,65,358,41,75,38,261,47,,,,,,,,*67
###2023-12-09 13:18:45.012245$GAGSV,1,1,04,04,34,311,43,19,78,188,41,21,82,058,46,27,27,049,38*68
###2023-12-09 13:18:45.014572$GBGSV,2,1,06,14,35,191,45,24,68,038,48,25,46,269,47,26,20,067,42*60
###2023-12-09 13:18:45.016352$GBGSV,2,2,06,33,51,223,47,35,16,062,41,,,,,,,,*69
###2023-12-09 13:18:45.017638$GNVTG,12.88,T,,M,4.02,N,7.45,K,A*10
###2023-12-09 13:18:45.019293$GNGST,181844.10,18.000,,,,0.097,0.071,0.170*51
###2023-12-09 13:18:45.020584$GNZDA,181844.10,09,12,2023,00,00*70
###2023-12-09 13:18:45.021222$GNEBP,,,,,,M*13
###2023-12-09 13:18:45.184725$GNGGA,181844.30,4138.0426833,N,07032.3091549,W,1,24,0.7,13.300,M,-29.744,M,0.0,*5F
###2023-12-09 13:18:45.381493$GNGGA,181844.50,4138.0429021,N,07032.3091073,W,1,24,0.7,13.307,M,-29.744,M,0.0,*56
###2023-12-09 13:18:45.580582$GNGGA,181844.70,4138.0431240,N,07032.3090522,W,1,24,0.7,13.308,M,-29.744,M,0.0,*57
###2023-12-09 13:18:45.782486$GNGGA,181844.90,4138.0433452,N,07032.3089861,W,1,24,0.7,13.304,M,-29.744,M,0.0,*50
###2023-12-09 13:18:45.986683$GNRMC,181845.10,A,4138.0435638,N,07032.3089253,W,4.06,10.78,091223,,,A*64
###2023-12-09 13:18:45.989542$GNGGA,181845.10,4138.0435638,N,07032.3089253,W,1,24,0.7,13.310,M,-29.744,M,0.0,*5F
###2023-12-09 13:18:45.991347$GPGSA,A,3,03,04,16,26,28,29,31,,,,,,1.1,0.7,0.9*3B
###2023-12-09 13:18:45.993065$GLGSA,A,3,65,71,72,73,74,75,,,,,,,1.1,0.7,0.9*25
###2023-12-09 13:18:45.994659$GAGSA,A,3,04,19,21,27,,,,,,,,,1.1,0.7,0.9*27
###2023-12-09 13:18:45.996379$GBGSA,A,3,14,24,25,26,33,35,,,,,,,1.1,0.7,0.9*28
###2023-12-09 13:18:45.998733$GPGSV,2,1,07,03,31,253,42,04,39,310,44,16,58,216,46,26,88,205,48*70
###2023-12-09 13:18:46.000785$GPGSV,2,2,07,28,43,078,43,29,23,053,41,31,64,053,46,,,,*46
###2023-12-09 13:18:46.003173$GLGSV,2,1,06,65,32,324,42,71,31,174,46,72,69,237,46,73,28,047,41*63
###2023-12-09 13:18:46.004927$GLGSV,2,2,06,74,65,358,41,75,38,261,47,,,,,,,,*67
###2023-12-09 13:18:46.007280$GAGSV,1,1,04,04,34,311,43,19,78,188,41,21,82,058,46,27,27,049,38*68
###2023-12-09 13:18:46.009618$GBGSV,2,1,06,14,35,191,43,24,68,038,48,25,46,269,47,26,20,067,42*66
###2023-12-09 13:18:46.011388$GBGSV,2,2,06,33,51,223,47,35,16,062,43,,,,,,,,*6B
###2023-12-09 13:18:46.012685$GNVTG,10.78,T,,M,4.06,N,7.52,K,A*1F
###2023-12-09 13:18:46.014339$GNGST,181845.10,18.000,,,,0.097,0.071,0.170*50
###2023-12-09 13:18:46.015648$GNZDA,181845.10,09,12,2023,00,00*71
###2023-12-09 13:18:46.016289$GNEBP,,,,,,M*13
###2023-12-09 13:18:46.180838$GNGGA,181845.30,4138.0437826,N,07032.3088581,W,1,24,0.7,13.313,M,-29.744,M,0.0,*54
###2023-12-09 13:18:46.381473$GNGGA,181845.50,4138.0439894,N,07032.3087614,W,1,24,0.7,13.309,M,-29.744,M,0.0,*5E
###2023-12-09 13:18:46.580214$GNGGA,181845.70,4138.0441881,N,07032.3086608,W,1,24,0.7,13.306,M,-29.744,M,0.0,*54
###2023-12-09 13:18:46.781388$GNGGA,181845.90,4138.0443838,N,07032.3085503,W,1,24,0.7,13.303,M,-29.744,M,0.0,*54
###2023-12-09 13:18:46.987832$GNRMC,181846.10,A,4138.0445792,N,07032.3084508,W,3.77,18.17,091223,,,A*65
###2023-12-09 13:18:46.990709$GNGGA,181846.10,4138.0445792,N,07032.3084508,W,1,24,0.7,13.311,M,-29.744,M,0.0,*5F
###2023-12-09 13:18:46.992502$GPGSA,A,3,03,04,16,26,28,29,31,,,,,,1.1,0.7,0.9*3B
###2023-12-09 13:18:46.994216$GLGSA,A,3,65,71,72,73,74,75,,,,,,,1.1,0.7,0.9*25
###2023-12-09 13:18:46.996058$GAGSA,A,3,04,19,21,27,,,,,,,,,1.1,0.7,0.9*27
###2023-12-09 13:18:46.997778$GBGSA,A,3,14,24,25,26,33,35,,,,,,,1.1,0.7,0.9*28
###2023-12-09 13:18:47.000162$GPGSV,2,1,07,03,31,253,40,04,39,310,43,16,58,216,45,26,88,205,49*77
###2023-12-09 13:18:47.002197$GPGSV,2,2,07,28,43,078,44,29,23,053,41,31,64,053,46,,,,*41
###2023-12-09 13:18:47.004532$GLGSV,2,1,06,65,32,324,42,71,31,174,45,72,69,237,46,73,28,047,41*60
###2023-12-09 13:18:47.006181$GLGSV,2,2,06,74,65,,41,75,38,261,47,,,,,,,,*59
###2023-12-09 13:18:47.008510$GAGSV,1,1,04,04,34,311,43,19,78,188,41,21,82,058,46,27,27,049,40*67
###2023-12-09 13:18:47.010839$GBGSV,2,1,06,14,35,191,43,24,68,038,47,25,46,269,47,26,20,067,42*69
###2023-12-09 13:18:47.012581$GBGSV,2,2,06,33,51,223,46,35,16,062,42,,,,,,,,*6B
###2023-12-09 13:18:47.013868$GNVTG,18.17,T,,M,3.77,N,6.98,K,A*18
