###2023-12-09 12:36:33.951866$GPGSV,2,2,08,28,57,057,44,29,25,073,42,31,73,004,47,32,29,134,43*7F
###2023-12-09 12:36:33.954241$GLGSV,2,1,05,71,56,169,48,72,66,308,46,73,47,034,45,74,71,293,43*63
###2023-12-09 12:36:33.955745$GLGSV,2,2,05,75,22,241,44,,,,,,,,,,,,*55
###2023-12-09 12:36:33.958097$GAGSV,1,1,04,04,21,311,40,19,82,300,40,21,78,175,46,27,41,049,42*6F
###2023-12-09 12:36:33.960466$GBGSV,2,1,05,14,55,197,46,24,80,348,48,25,33,253,46,26,35,057,44*69
###2023-12-09 12:36:33.961932$GBGSV,2,2,05,33,63,253,48,,,,,,,,,,,,*53
###2023-12-09 12:36:33.963245$GNVTG,66.58,T,,M,3.19,N,5.90,K,A*19
###2023-12-09 12:36:33.964901$GNGST,173633.10,18.000,,,,0.080,0.070,0.160*54
###2023-12-09 12:36:33.966198$GNZDA,173633.10,09,12,2023,00,00*73
###2023-12-09 12:36:33.966864$GNEBP,,,,,,M*13
###2023-12-09 12:36:34.136970$GNGGA,173633.30,4138.0445261,N,07032.3787047,W,1,23,0.7,13.137,M,-29.745,M,0.0,*5F
###2023-12-09 12:36:34.337210$GNGGA,173633.50,4138.0445967,N,07032.3784829,W,1,23,0.7,13.151,M,-29.745,M,0.0,*57
###2023-12-09 12:36:34.537820$GNGGA,173633.70,4138.0446568,N,07032.3782550,W,1,23,0.7,13.132,M,-29.745,M,0.0,*55
###2023-12-09 12:36:34.736778$GNGGA,173633.90,4138.0447122,N,07032.3780353,W,1,23,0.7,13.129,M,-29.745,M,0.0,*5D
###2023-12-09 12:36:34.938606$GNRMC,173634.10,A,4138.0447762,N,07032.3778068,W,3.42,73.09,091223,,,A*6D
###2023-12-09 12:36:34.941481$GNGGA,173634.10,4138.0447762,N,07032.3778068,W,1,23,0.7,13.141,M,-29.745,M,0.0,*52
###2023-12-09 12:36:34.943355$GPGSA,A,3,03,04,16,26,28,29,31,32,,,,,1.2,0.7,1.0*31
###2023-12-09 12:36:34.945008$GLGSA,A,3,71,72,73,74,75,,,,,,,,1.2,0.7,1.0*2D
###2023-12-09 12:36:34.946635$GAGSA,A,3,04,19,21,27,,,,,,,,,1.2,0.7,1.0*2C
###2023-12-09 12:36:34.948311$GBGSA,A,3,14,24,25,26,33,,,,,,,,1.2,0.7,1.0*25
###2023-12-09 12:36:34.950673$GPGSV,2,1,08,03,38,276,44,04,22,311,40,16,37,207,45,26,67,207,48*71
###2023-12-09 12:36:34.953022$GPGSV,2,2,08,28,57,057,44,29,25,073,41,31,73,004,47,32,29,134,42*7D
###2023-12-09 12:36:34.955381$GLGSV,2,1,05,71,56,169,47,72,66,308,47,73,47,034,46,74,71,293,43*6E
###2023-12-09 12:36:34.956837$GLGSV,2,2,05,75,22,241,43,,,,,,,,,,,,*52
###2023-12-09 12:36:34.959190$GAGSV,1,1,04,04,21,311,40,19,82,300,41,21,78,175,46,27,41,049,43*6F
###2023-12-09 12:36:34.961540$GBGSV,2,1,05,14,55,197,46,24,80,348,48,25,33,253,46,26,35,057,43*6E
###2023-12-09 12:36:34.963087$GBGSV,2,2,05,33,63,253,48,,,,,,,,,,,,*53
###2023-12-09 12:36:34.964391$GNVTG,73.09,T,,M,3.42,N,6.34,K,A*1A
###2023-12-09 12:36:34.966042$GNGST,173634.10,19.000,,,,0.080,0.070,0.160*52
###2023-12-09 12:36:34.967348$GNZDA,173634.10,09,12,2023,00,00*74
###2023-12-09 12:36:34.967989$GNEBP,,,,,,M*13
###2023-12-09 12:36:35.140262$GNGGA,173634.30,4138.0448136,N,07032.3775696,W,1,23,0.7,13.123,M,-29.745,M,0.0,*56
###2023-12-09 12:36:35.337291$GNGGA,173634.50,4138.0448406,N,07032.3773370,W,1,23,0.7,13.134,M,-29.745,M,0.0,*5B
###2023-12-09 12:36:35.538656$GNGGA,173634.70,4138.0448744,N,07032.3770951,W,1,23,0.7,13.131,M,-29.745,M,0.0,*53
###2023-12-09 12:36:35.736667$GNGGA,173634.90,4138.0449109,N,07032.3768512,W,1,23,0.7,13.122,M,-29.745,M,0.0,*53
###2023-12-09 12:36:35.938839$GNRMC,173635.10,A,4138.0449424,N,07032.3766070,W,3.32,81.77,091223,,,A*66
###2023-12-09 12:36:35.941689$GNGGA,173635.10,4138.0449424,N,07032.3766070,W,1,23,0.7,13.113,M,-29.745,M,0.0,*5D
###2023-12-09 12:36:35.943564$GPGSA,A,3,03,04,16,26,28,29,31,32,,,,,1.2,0.7,1.0*31
###2023-12-09 12:36:35.945224$GLGSA,A,3,71,72,73,74,75,,,,,,,,1.2,0.7,1.0*2D
###2023-12-09 12:36:35.946835$GAGSA,A,3,04,19,21,27,,,,,,,,,1.2,0.7,1.0*2C
###2023-12-09 12:36:35.948501$GBGSA,A,3,14,24,25,26,33,,,,,,,,1.2,0.7,1.0*25
###2023-12-09 12:36:35.950845$GPGSV,2,1,08,03,38,276,44,04,22,311,40,16,37,207,45,26,67,207,48*71
###2023-12-09 12:36:35.953172$GPGSV,2,2,08,28,57,057,44,29,25,073,41,31,73,004,47,32,29,134,42*7D
###2023-12-09 12:36:35.955512$GLGSV,2,1,05,71,56,169,46,72,66,308,47,73,47,034,46,74,71,293,43*6F
###2023-12-09 12:36:35.956964$GLGSV,2,2,05,75,22,241,44,,,,,,,,,,,,*55
###2023-12-09 12:36:35.959297$GAGSV,1,1,04,04,21,311,40,19,82,300,40,21,78,175,46,27,41,049,44*69
###2023-12-09 12:36:35.961627$GBGSV,2,1,05,14,55,197,45,24,80,348,48,25,33,253,46,26,35,057,43*6D
###2023-12-09 12:36:35.963094$GBGSV,2,2,05,33,63,253,47,,,,,,,,,,,,*5C
###2023-12-09 12:36:35.964388$GNVTG,81.77,T,,M,3.32,N,6.16,K,A*19
###2023-12-09 12:36:35.966029$GNGST,173635.10,19.000,,,,0.080,0.070,0.160*53
###2023-12-09 12:36:35.967335$GNZDA,173635.10,09,12,2023,00,00*75
###2023-12-09 12:36:35.967973$GNEBP,,,,,,M*13
###2023-12-09 12:36:36.138110$GNGGA,173635.30,4138.0449731,N,07032.3763566,W,1,23,0.7,13.134,M,-29.745,M,0.0,*5A
###2023-12-09 12:36:36.338291$GNGGA,173635.50,4138.0450030,N,07032.3760983,W,1,23,0.7,13.122,M,-29.745,M,0.0,*51
###2023-12-09 12:36:36.539045$GNGGA,173635.70,4138.0450467,N,07032.3758523,W,1,23,0.7,13.113,M,-29.745,M,0.0,*5A
###2023-12-09 12:36:36.738350$GNGGA,173635.90,4138.0450941,N,07032.3756053,W,1,23,0.7,13.129,M,-29.745,M,0.0,*58
###2023-12-09 12:36:36.939613$GNRMC,173636.10,A,4138.0451367,N,07032.3753510,W,3.48,76.78,091223,,,A*63
###2023-12-09 12:36:36.942451$GNGGA,173636.10,4138.0451367,N,07032.3753510,W,1,23,0.7,13.125,M,-29.745,M,0.0,*57
###2023-12-09 12:36:36.944316$GPGSA,A,3,03,04,16,26,28,29,31,32,,,,,1.2,0.7,1.0*31
###2023-12-09 12:36:36.945973$GLGSA,A,3,71,72,73,74,75,,,,,,,,1.2,0.7,1.0*2D
###2023-12-09 12:36:36.947618$GAGSA,A,3,04,19,21,27,,,,,,,,,1.2,0.7,1.0*2C
###2023-12-09 12:36:36.949294$GBGSA,A,3,14,24,25,26,33,,,,,,,,1.2,0.7,1.0*25
###2023-12-09 12:36:36.951634$GPGSV,2,1,08,03,38,276,44,04,22,311,42,16,37,207,45,26,67,207,48*73
###2023-12-09 12:36:36.953962$GPGSV,2,2,08,28,57,057,44,29,25,073,41,31,73,004,47,32,29,134,42*7D
###2023-12-09 12:36:36.956302$GLGSV,2,1,05,71,56,169,46,72,66,308,47,73,47,034,46,74,71,293,43*6F
###2023-12-09 12:36:36.957755$GLGSV,2,2,05,75,22,241,42,,,,,,,,,,,,*53
###2023-12-09 12:36:36.960099$GAGSV,1,1,04,04,21,311,41,19,82,300,41,21,78,175,46,27,41,049,43*6E
###2023-12-09 12:36:36.962429$GBGSV,2,1,05,14,55,197,45,24,80,348,49,25,33,253,46,26,35,057,43*6C
###2023-12-09 12:36:36.963906$GBGSV,2,2,05,33,63,253,48,,,,,,,,,,,,*53
###2023-12-09 12:36:36.965199$GNVTG,76.78,T,,M,3.48,N,6.44,K,A*14
###2023-12-09 12:36:36.966865$GNGST,173636.10,18.000,,,,0.080,0.070,0.160*51
###2023-12-09 12:36:36.968161$GNZDA,173636.10,09,12,2023,00,00*76
###2023-12-09 12:36:36.968801$GNEBP,,,,,,M*13
###2023-12-09 12:36:37.137004$GNGGA,173636.30,4138.0451829,N,07032.3751007,W,1,23,0.7,13.115,M,-29.745,M,0.0,*56
###2023-12-09 12:36:37.338308$GNGGA,173636.50,4138.0452420,N,07032.3748620,W,1,23,0.7,13.126,M,-29.745,M,0.0,*5D
###2023-12-09 12:36:37.539315$GNGGA,173636.70,4138.0453086,N,07032.3746208,W,1,23,0.7,13.128,M,-29.744,M,0.0,*59
###2023-12-09 12:36:37.736678$GNGGA,173636.90,4138.0453739,N,07032.3743858,W,1,23,0.7,13.115,M,-29.744,M,0.0,*50
###2023-12-09 12:36:37.938028$GNRMC,173637.10,A,4138.0454469,N,07032.3741620,W,3.38,64.84,091223,,,A*6A
###2023-12-09 12:36:37.940892$GNGGA,173637.10,4138.0454469,N,07032.3741620,W,1,23,0.7,13.122,M,-29.744,M,0.0,*5F
###2023-12-09 12:36:37.942761$GPGSA,A,3,03,04,16,26,28,29,31,32,,,,,1.2,0.7,1.0*31
###2023-12-09 12:36:37.944409$GLGSA,A,3,71,72,73,74,75,,,,,,,,1.2,0.7,1.0*2D
###2023-12-09 12:36:37.945987$GAGSA,A,3,04,19,21,27,,,,,,,,,1.2,0.7,1.0*2C
###2023-12-09 12:36:37.947656$GBGSA,A,3,14,24,25,26,33,,,,,,,,1.2,0.7,1.0*25
###2023-12-09 12:36:37.950005$GPGSV,2,1,08,03,38,276,44,04,22,311,42,16,37,207,44,26,67,207,48*72
###2023-12-09 12:36:37.952359$GPGSV,2,2,08,28,57,057,44,29,25,073,41,31,73,004,47,32,29,134,43*7C
###2023-12-09 12:36:37.954716$GLGSV,2,1,05,71,56,169,48,72,66,308,46,73,47,034,46,74,71,293,43*60
###2023-12-09 12:36:37.956173$GLGSV,2,2,05,75,22,241,42,,,,,,,,,,,,*53
###2023-12-09 12:36:37.958495$GAGSV,1,1,04,04,21,311,41,19,82,300,41,21,78,175,46,27,41,049,41*6C
###2023-12-09 12:36:37.960841$GBGSV,2,1,05,14,55,197,45,24,80,348,49,25,33,253,46,26,35,057,44*6B
###2023-12-09 12:36:37.962295$GBGSV,2,2,05,33,63,253,48,,,,,,,,,,,,*53
###2023-12-09 12:36:37.963603$GNVTG,64.84,T,,M,3.38,N,6.26,K,A*17
###2023-12-09 12:36:37.965251$GNGST,173637.10,18.000,,,,0.080,0.070,0.160*50
###2023-12-09 12:36:37.966854$GNZDA,173637.10,09,12,2023,00,00*77
###2023-12-09 12:36:37.967510$GNEBP,,,,,,M*13
###2023-12-09 12:36:38.138091$GNGGA,173637.30,4138.0455254,N,07032.3739330,W,1,23,0.7,13.127,M,-29.744,M,0.0,*5A
###2023-12-09 12:36:38.338321$GNGGA,173637.50,4138.0456024,N,07032.3737122,W,1,23,0.7,13.113,M,-29.744,M,0.0,*52
###2023-12-09 12:36:38.538685$GNGGA,173637.70,4138.0456900,N,07032.3734936,W,1,23,0.7,13.118,M,-29.744,M,0.0,*5A
###2023-12-09 12:36:38.737482$GNGGA,173637.90,4138.0457744,N,07032.3732732,W,1,23,0.7,13.122,M,-29.744,M,0.0,*5E
###2023-12-09 12:36:38.939015$GNRMC,173638.10,A,4138.0458432,N,07032.3730450,W,3.42,74.21,091223,,,A*67
###2023-12-09 12:36:38.941872$GNGGA,173638.10,4138.0458432,N,07032.3730450,W,1,23,0.7,13.121,M,-29.744,M,0.0,*52
