###2023-12-09 13:05:17.976057$GLGSA,A,3,65,71,72,73,74,75,,,,,,,1.1,0.6,0.9*24
###2023-12-09 13:05:17.977672$GAGSA,A,3,04,19,21,27,,,,,,,,,1.1,0.6,0.9*26
###2023-12-09 13:05:17.979352$GBGSA,A,3,14,24,25,26,33,,,,,,,,1.1,0.6,0.9*2F
###2023-12-09 13:05:17.981693$GPGSV,2,1,08,03,34,259,43,04,34,311,42,16,52,213,46,26,81,210,48*79
###2023-12-09 13:05:17.984052$GPGSV,2,2,08,28,48,071,43,29,25,060,41,31,68,040,46,32,18,140,39*74
###2023-12-09 13:05:17.986387$GLGSV,2,1,06,65,26,327,42,71,39,173,44,72,73,261,46,73,34,043,45*6D
###2023-12-09 13:05:17.988158$GLGSV,2,2,06,74,69,343,43,75,33,255,44,,,,,,,,*6C
###2023-12-09 13:05:17.990502$GAGSV,1,1,04,04,30,312,41,19,83,207,40,21,86,104,46,27,32,048,42*68
###2023-12-09 13:05:17.992872$GBGSV,2,1,05,14,42,192,42,24,72,028,48,25,42,263,45,26,25,063,43*61
###2023-12-09 13:05:17.994341$GBGSV,2,2,05,33,56,230,46,,,,,,,,,,,,*5E
###2023-12-09 13:05:17.995692$GNVTG,101.77,T,,M,3.54,N,6.55,K,A*27
###2023-12-09 13:05:17.997341$GNGST,180517.10,18.000,,,,0.083,0.068,0.160*57
###2023-12-09 13:05:17.998642$GNZDA,180517.10,09,12,2023,00,00*7A
###2023-12-09 13:05:17.999284$GNEBP,,,,,,M*13
###2023-12-09 13:05:18.166949$GNGGA,180517.30,4138.0573642,N,07032.2618095,W,1,24,0.6,13.499,M,-29.742,M,0.0,*5E
###2023-12-09 13:05:18.366488$GNGGA,180517.50,4138.0573626,N,07032.2615508,W,1,24,0.6,13.495,M,-29.742,M,0.0,*5A
###2023-12-09 13:05:18.568536$GNGGA,180517.70,4138.0574107,N,07032.2613071,W,1,24,0.6,13.514,M,-29.742,M,0.0,*5E
###2023-12-09 13:05:18.768546$GNGGA,180517.90,4138.0574291,N,07032.2610459,W,1,24,0.6,13.513,M,-29.742,M,0.0,*56
###2023-12-09 13:05:18.969557$GNRMC,180518.10,A,4138.0574127,N,07032.2607837,W,3.32,93.81,091223,,,A*69
###2023-12-09 13:05:18.973075$GNGGA,180518.10,4138.0574127,N,07032.2607837,W,1,24,0.6,13.490,M,-29.742,M,0.0,*57
###2023-12-09 13:05:18.975355$GPGSA,A,3,03,04,16,26,28,29,31,32,,,,,1.1,0.6,0.9*3B
###2023-12-09 13:05:18.977442$GLGSA,A,3,65,71,72,73,74,75,,,,,,,1.1,0.6,0.9*24
###2023-12-09 13:05:18.979381$GAGSA,A,3,04,19,21,27,,,,,,,,,1.1,0.6,0.9*26
###2023-12-09 13:05:18.981379$GBGSA,A,3,14,24,25,26,33,,,,,,,,1.1,0.6,0.9*2F
###2023-12-09 13:05:18.984202$GPGSV,2,1,08,03,34,259,45,04,34,311,42,16,52,213,48,26,81,210,48*71
###2023-12-09 13:05:18.987041$GPGSV,2,2,08,28,48,071,44,29,25,060,41,31,68,040,46,32,18,140,42*7F
###2023-12-09 13:05:18.989896$GLGSV,2,1,06,65,26,327,40,71,39,173,45,72,73,261,47,73,34,043,44*6E
###2023-12-09 13:05:18.992034$GLGSV,2,2,06,74,69,343,43,75,33,255,46,,,,,,,,*6E
###2023-12-09 13:05:18.994866$GAGSV,1,1,04,04,30,312,39,19,83,207,40,21,86,104,45,27,32,048,41*67
###2023-12-09 13:05:18.997684$GBGSV,2,1,05,14,42,192,45,24,72,028,47,25,42,263,45,26,25,063,41*6B
###2023-12-09 13:05:18.999455$GBGSV,2,2,05,33,56,230,47,,,,,,,,,,,,*5F
###2023-12-09 13:05:19.001015$GNVTG,93.81,T,,M,3.32,N,6.16,K,A*13
###2023-12-09 13:05:19.003060$GNGST,180518.10,18.000,,,,0.083,0.068,0.160*58
###2023-12-09 13:05:19.004626$GNZDA,180518.10,09,12,2023,00,00*75
###2023-12-09 13:05:19.005400$GNEBP,,,,,,M*13
###2023-12-09 13:05:19.167627$GNGGA,180518.30,4138.0574324,N,07032.2605352,W,1,24,0.6,13.517,M,-29.742,M,0.0,*50
###2023-12-09 13:05:19.368019$GNGGA,180518.50,4138.0574885,N,07032.2602821,W,1,24,0.6,13.542,M,-29.742,M,0.0,*5E
###2023-12-09 13:05:19.568423$GNGGA,180518.70,4138.0574979,N,07032.2600259,W,1,24,0.6,13.503,M,-29.742,M,0.0,*5C
###2023-12-09 13:05:19.768595$GNGGA,180518.90,4138.0574764,N,07032.2597735,W,1,24,0.6,13.501,M,-29.742,M,0.0,*50
###2023-12-09 13:05:19.970890$GNRMC,180519.10,A,4138.0574887,N,07032.2595238,W,3.48,79.68,091223,,,A*68
###2023-12-09 13:05:19.974353$GNGGA,180519.10,4138.0574887,N,07032.2595238,W,1,24,0.6,13.534,M,-29.742,M,0.0,*57
###2023-12-09 13:05:19.976620$GPGSA,A,3,03,04,16,26,28,29,31,32,,,,,1.1,0.6,0.9*3B
###2023-12-09 13:05:19.978707$GLGSA,A,3,65,71,72,73,74,75,,,,,,,1.1,0.6,0.9*24
###2023-12-09 13:05:19.980618$GAGSA,A,3,04,19,21,27,,,,,,,,,1.1,0.6,0.9*26
###2023-12-09 13:05:19.982659$GBGSA,A,3,14,24,25,26,33,,,,,,,,1.1,0.6,0.9*2F
###2023-12-09 13:05:19.985471$GPGSV,2,1,08,03,34,259,45,04,34,311,43,16,52,213,48,26,81,210,48*70
###2023-12-09 13:05:19.988305$GPGSV,2,2,08,28,48,071,44,29,25,060,40,31,68,040,46,32,18,140,42*7E
###2023-12-09 13:05:19.991138$GLGSV,2,1,06,65,26,327,40,71,39,173,46,72,73,261,46,73,34,043,44*6C
###2023-12-09 13:05:19.993244$GLGSV,2,2,06,74,69,343,43,75,33,255,46,,,,,,,,*6E
###2023-12-09 13:05:19.996058$GAGSV,1,1,04,04,30,312,40,19,83,207,40,21,86,104,46,27,32,048,42*69
###2023-12-09 13:05:19.998877$GBGSV,2,1,05,14,42,192,45,24,72,028,48,25,42,263,46,26,25,063,42*64
###2023-12-09 13:05:20.000638$GBGSV,2,2,05,33,56,230,49,,,,,,,,,,,,*51
###2023-12-09 13:05:20.002189$GNVTG,79.68,T,,M,3.48,N,6.44,K,A*1A
###2023-12-09 13:05:20.004188$GNGST,180519.10,18.000,,,,0.083,0.068,0.160*59
###2023-12-09 13:05:20.005741$GNZDA,180519.10,09,12,2023,00,00*74
###2023-12-09 13:05:20.006509$GNEBP,,,,,,M*13
###2023-12-09 13:05:20.167630$GNGGA,180519.30,4138.0575169,N,07032.2592689,W,1,24,0.6,13.531,M,-29.742,M,0.0,*51
###2023-12-09 13:05:20.368233$GNGGA,180519.50,4138.0574927,N,07032.2590097,W,1,24,0.6,13.515,M,-29.742,M,0.0,*59
###2023-12-09 13:05:20.568416$GNGGA,180519.70,4138.0574626,N,07032.2587556,W,1,24,0.6,13.514,M,-29.742,M,0.0,*5A
###2023-12-09 13:05:20.768532$GNGGA,180519.90,4138.0574749,N,07032.2584932,W,1,24,0.6,13.532,M,-29.742,M,0.0,*55
###2023-12-09 13:05:20.977099$GNRMC,180520.10,A,4138.0574886,N,07032.2582294,W,3.48,88.67,091223,,,A*62
###2023-12-09 13:05:20.979982$GNGGA,180520.10,4138.0574886,N,07032.2582294,W,1,24,0.6,13.516,M,-29.742,M,0.0,*5C
###2023-12-09 13:05:20.981852$GPGSA,A,3,03,04,16,26,28,29,31,32,,,,,1.1,0.6,0.9*3B
###2023-12-09 13:05:20.983591$GLGSA,A,3,65,71,72,73,74,75,,,,,,,1.1,0.6,0.9*24
###2023-12-09 13:05:20.985187$GAGSA,A,3,04,19,21,27,,,,,,,,,1.1,0.6,0.9*26
###2023-12-09 13:05:20.986870$GBGSA,A,3,14,24,25,26,33,,,,,,,,1.1,0.6,0.9*2F
###2023-12-09 13:05:20.989209$GPGSV,2,1,08,03,34,259,44,04,34,311,44,16,52,213,46,26,81,210,47*77
###2023-12-09 13:05:20.991549$GPGSV,2,2,08,28,48,071,44,29,25,060,41,31,68,040,47,32,18,140,41*7D
###2023-12-09 13:05:20.993889$GLGSV,2,1,06,65,26,327,41,71,39,173,44,72,73,261,46,73,34,043,44*6F
###2023-12-09 13:05:20.995644$GLGSV,2,2,06,74,69,343,43,75,33,255,46,,,,,,,,*6E
###2023-12-09 13:05:20.997976$GAGSV,1,1,04,04,30,312,41,19,83,207,40,21,86,104,46,27,32,048,42*68
###2023-12-09 13:05:21.000321$GBGSV,2,1,05,14,42,192,45,24,72,028,49,25,42,263,47,26,25,063,42*64
###2023-12-09 13:05:21.001776$GBGSV,2,2,05,33,56,230,48,,,,,,,,,,,,*50
###2023-12-09 13:05:21.003080$GNVTG,88.67,T,,M,3.48,N,6.44,K,A*1B
###2023-12-09 13:05:21.004735$GNGST,180520.10,18.000,,,,0.083,0.068,0.160*53
###2023-12-09 13:05:21.006030$GNZDA,180520.10,09,12,2023,00,00*7E
###2023-12-09 13:05:21.006686$GNEBP,,,,,,M*13
###2023-12-09 13:05:21.169018$GNGGA,180520.30,4138.0574817,N,07032.2579662,W,1,24,0.6,13.515,M,-29.742,M,0.0,*5C
###2023-12-09 13:05:21.367597$GNGGA,180520.50,4138.0574625,N,07032.2576951,W,1,24,0.6,13.526,M,-29.742,M,0.0,*55
###2023-12-09 13:05:21.567916$GNGGA,180520.70,4138.0574746,N,07032.2574300,W,1,24,0.6,13.534,M,-29.742,M,0.0,*5C
###2023-12-09 13:05:21.767956$GNGGA,180520.90,4138.0575087,N,07032.2571644,W,1,24,0.6,13.524,M,-29.742,M,0.0,*58
###2023-12-09 13:05:21.969702$GNRMC,180521.10,A,4138.0575339,N,07032.2569029,W,3.52,85.70,091223,,,A*6C
###2023-12-09 13:05:21.972588$GNGGA,180521.10,4138.0575339,N,07032.2569029,W,1,24,0.6,13.507,M,-29.742,M,0.0,*52
###2023-12-09 13:05:21.974457$GPGSA,A,3,03,04,16,26,28,29,31,32,,,,,1.1,0.6,0.9*3B
###2023-12-09 13:05:21.976196$GLGSA,A,3,65,71,72,73,74,75,,,,,,,1.1,0.6,0.9*24
###2023-12-09 13:05:21.977791$GAGSA,A,3,04,19,21,27,,,,,,,,,1.1,0.6,0.9*26
###2023-12-09 13:05:21.979454$GBGSA,A,3,14,24,25,26,33,,,,,,,,1.1,0.6,0.9*2F
###2023-12-09 13:05:21.981781$GPGSV,2,1,08,03,34,259,44,04,34,311,43,16,52,213,46,26,81,210,48*7F
###2023-12-09 13:05:21.984129$GPGSV,2,2,08,28,48,071,43,29,25,060,42,31,68,040,46,32,18,140,41*78
###2023-12-09 13:05:21.986460$GLGSV,2,1,06,65,26,327,42,71,39,173,45,72,73,261,46,73,34,043,44*6D
###2023-12-09 13:05:21.988218$GLGSV,2,2,06,74,69,343,43,75,33,255,47,,,,,,,,*6F
###2023-12-09 13:05:21.990821$GAGSV,1,1,04,04,30,312,41,19,83,207,40,21,86,104,46,27,32,048,41*6B
###2023-12-09 13:05:21.993169$GBGSV,2,1,05,14,42,192,45,24,72,028,49,25,42,263,46,26,25,063,44*63
###2023-12-09 13:05:21.994651$GBGSV,2,2,05,33,56,230,48,,,,,,,,,,,,*50
###2023-12-09 13:05:21.995946$GNVTG,85.70,T,,M,3.52,N,6.52,K,A*1C
###2023-12-09 13:05:21.997590$GNGST,180521.10,18.000,,,,0.083,0.068,0.160*52
###2023-12-09 13:05:21.998894$GNZDA,180521.10,09,12,2023,00,00*7F
###2023-12-09 13:05:21.999536$GNEBP,,,,,,M*13
###2023-12-09 13:05:22.167031$GNGGA,180521.30,4138.0575457,N,07032.2566392,W,1,24,0.6,13.518,M,-29.742,M,0.0,*5D
###2023-12-09 13:05:22.367459$GNGGA,180521.50,4138.0575753,N,07032.2563799,W,1,24,0.6,13.526,M,-29.742,M,0.0,*5B
