###2023-12-09 13:36:05.040530$GNEBP,,,,,,M*13
###2023-12-09 13:36:05.199188$GNGGA,183604.30,4138.0494125,N,07032.4157627,W,1,26,0.6,13.210,M,-29.745,M,0.0,*55
###2023-12-09 13:36:05.397194$GNGGA,183604.50,4138.0495767,N,07032.4158243,W,1,26,0.6,13.200,M,-29.745,M,0.0,*5A
###2023-12-09 13:36:05.598943$GNGGA,183604.70,4138.0497357,N,07032.4158902,W,1,26,0.6,13.193,M,-29.745,M,0.0,*5A
###2023-12-09 13:36:05.797092$GNGGA,183604.90,4138.0498894,N,07032.4159616,W,1,26,0.6,13.189,M,-29.745,M,0.0,*5F
###2023-12-09 13:36:06.000663$GNRMC,183605.10,A,4138.0500394,N,07032.4160358,W,2.92,340.11,091223,,,A*51
###2023-12-09 13:36:06.003542$GNGGA,183605.10,4138.0500394,N,07032.4160358,W,1,26,0.6,13.187,M,-29.745,M,0.0,*56
###2023-12-09 13:36:06.005406$GPGSA,A,3,03,04,16,26,27,28,29,31,,,,,1.0,0.6,0.8*3F
###2023-12-09 13:36:06.007130$GLGSA,A,3,65,71,72,73,74,75,,,,,,,1.0,0.6,0.8*24
###2023-12-09 13:36:06.008710$GAGSA,A,3,04,19,21,27,,,,,,,,,1.0,0.6,0.8*26
###2023-12-09 13:36:06.010479$GBGSA,A,3,12,14,24,25,26,33,35,,,,,,1.0,0.6,0.8*2A
###2023-12-09 13:36:06.012818$GPGSV,2,1,08,03,26,246,43,04,47,307,45,16,67,223,46,26,83,040,48*70
###2023-12-09 13:36:06.015155$GPGSV,2,2,08,27,17,172,43,28,37,085,44,29,20,046,41,31,59,067,47*70
###2023-12-09 13:36:06.017479$GLGSV,2,1,06,65,39,318,39,71,22,175,44,72,62,220,46,73,22,052,43*6B
###2023-12-09 13:36:06.019233$GLGSV,2,2,06,74,59,015,41,75,44,272,46,,,,,,,,*6A
###2023-12-09 13:36:06.021548$GAGSV,1,1,04,04,40,310,42,19,71,181,41,21,76,045,45,27,22,050,40*6D
###2023-12-09 13:36:06.023878$GBGSV,2,1,07,12,15,126,40,14,29,190,42,24,62,046,48,25,51,276,47*66
###2023-12-09 13:36:06.025909$GBGSV,2,2,07,26,16,071,41,33,45,217,47,35,16,056,42,,,,*5E
###2023-12-09 13:36:06.027246$GNVTG,340.11,T,,M,2.92,N,5.40,K,A*2C
###2023-12-09 13:36:06.028862$GNGST,183605.10,5.600,,,,0.087,0.067,0.150*66
###2023-12-09 13:36:06.030146$GNZDA,183605.10,09,12,2023,00,00*79
###2023-12-09 13:36:06.030795$GNEBP,,,,,,M*13
###2023-12-09 13:36:06.197857$GNGGA,183605.30,4138.0501891,N,07032.4161090,W,1,26,0.6,13.193,M,-29.745,M,0.0,*58
###2023-12-09 13:36:06.397330$GNGGA,183605.50,4138.0503413,N,07032.4161799,W,1,26,0.6,13.194,M,-29.745,M,0.0,*53
###2023-12-09 13:36:06.596180$GNGGA,183605.70,4138.0504952,N,07032.4162582,W,1,26,0.6,13.184,M,-29.745,M,0.0,*54
###2023-12-09 13:36:06.797293$GNGGA,183605.90,4138.0506432,N,07032.4163499,W,1,26,0.6,13.180,M,-29.745,M,0.0,*5D
###2023-12-09 13:36:06.998768$GNRMC,183606.10,A,4138.0507948,N,07032.4164381,W,2.99,337.10,091223,,,A*54
###2023-12-09 13:36:07.001630$GNGGA,183606.10,4138.0507948,N,07032.4164381,W,1,26,0.6,13.176,M,-29.745,M,0.0,*57
###2023-12-09 13:36:07.003506$GPGSA,A,3,03,04,16,26,27,28,29,31,,,,,1.0,0.6,0.8*3F
###2023-12-09 13:36:07.005217$GLGSA,A,3,65,71,72,73,74,75,,,,,,,1.0,0.6,0.8*24
###2023-12-09 13:36:07.006814$GAGSA,A,3,04,19,21,27,,,,,,,,,1.0,0.6,0.8*26
###2023-12-09 13:36:07.008585$GBGSA,A,3,12,14,24,25,26,33,35,,,,,,1.0,0.6,0.8*2A
###2023-12-09 13:36:07.010910$GPGSV,2,1,08,03,26,246,44,04,47,307,45,16,67,223,45,26,83,040,48*74
###2023-12-09 13:36:07.013237$GPGSV,2,2,08,27,17,172,44,28,37,085,45,29,20,046,42,31,59,067,48*7A
###2023-12-09 13:36:07.015572$GLGSV,2,1,06,65,39,318,42,71,22,175,43,72,62,220,45,73,22,052,43*63
###2023-12-09 13:36:07.017316$GLGSV,2,2,06,74,59,015,41,75,44,272,46,,,,,,,,*6A
###2023-12-09 13:36:07.019649$GAGSV,1,1,04,04,40,310,43,19,71,181,41,21,76,045,45,27,22,050,41*6D
###2023-12-09 13:36:07.021968$GBGSV,2,1,07,12,15,126,40,14,29,190,42,24,62,046,48,25,51,276,46*67
###2023-12-09 13:36:07.024008$GBGSV,2,2,07,26,16,071,42,33,45,217,47,35,16,056,42,,,,*5D
###2023-12-09 13:36:07.025332$GNVTG,337.10,T,,M,2.99,N,5.54,K,A*23
###2023-12-09 13:36:07.026955$GNGST,183606.10,5.900,,,,0.087,0.067,0.150*6A
###2023-12-09 13:36:07.028245$GNZDA,183606.10,09,12,2023,00,00*7A
###2023-12-09 13:36:07.028880$GNEBP,,,,,,M*13
###2023-12-09 13:36:07.197965$GNGGA,183606.30,4138.0509516,N,07032.4165219,W,1,26,0.6,13.182,M,-29.745,M,0.0,*56
###2023-12-09 13:36:07.396155$GNGGA,183606.50,4138.0511117,N,07032.4166049,W,1,26,0.6,13.189,M,-29.745,M,0.0,*53
###2023-12-09 13:36:07.597387$GNGGA,183606.70,4138.0512745,N,07032.4166937,W,1,26,0.6,13.188,M,-29.745,M,0.0,*52
###2023-12-09 13:36:07.796840$GNGGA,183606.90,4138.0514416,N,07032.4167720,W,1,26,0.6,13.185,M,-29.745,M,0.0,*5B
###2023-12-09 13:36:08.000612$GNRMC,183607.10,A,4138.0516141,N,07032.4168260,W,3.13,347.97,091223,,,A*5D
###2023-12-09 13:36:08.003490$GNGGA,183607.10,4138.0516141,N,07032.4168260,W,1,26,0.6,13.177,M,-29.745,M,0.0,*54
###2023-12-09 13:36:08.005354$GPGSA,A,3,03,04,16,26,27,28,29,31,,,,,1.0,0.6,0.8*3F
###2023-12-09 13:36:08.007084$GLGSA,A,3,65,71,72,73,74,75,,,,,,,1.0,0.6,0.8*24
###2023-12-09 13:36:08.008667$GAGSA,A,3,04,19,21,27,,,,,,,,,1.0,0.6,0.8*26
###2023-12-09 13:36:08.010436$GBGSA,A,3,12,14,24,25,26,33,35,,,,,,1.0,0.6,0.8*2A
###2023-12-09 13:36:08.012785$GPGSV,2,1,08,03,26,246,43,04,47,307,45,16,67,223,46,26,83,040,48*70
###2023-12-09 13:36:08.015128$GPGSV,2,2,08,27,17,172,45,28,37,085,44,29,20,046,41,31,59,067,47*76
###2023-12-09 13:36:08.017459$GLGSV,2,1,06,65,39,318,42,71,22,175,44,72,62,220,46,73,22,052,40*64
###2023-12-09 13:36:08.019212$GLGSV,2,2,06,74,59,015,41,75,44,272,47,,,,,,,,*6B
###2023-12-09 13:36:08.021542$GAGSV,1,1,04,04,40,310,44,19,71,181,41,21,76,045,46,27,22,050,40*68
###2023-12-09 13:36:08.023880$GBGSV,2,1,07,12,15,126,41,14,29,190,42,24,62,046,47,25,51,276,47*68
###2023-12-09 13:36:08.025921$GBGSV,2,2,07,26,16,071,41,33,45,217,46,35,16,056,43,,,,*5E
###2023-12-09 13:36:08.027256$GNVTG,347.97,T,,M,3.13,N,5.80,K,A*21
###2023-12-09 13:36:08.028873$GNGST,183607.10,6.000,,,,0.086,0.067,0.150*60
###2023-12-09 13:36:08.030169$GNZDA,183607.10,09,12,2023,00,00*7B
###2023-12-09 13:36:08.030822$GNEBP,,,,,,M*13
###2023-12-09 13:36:08.196832$GNGGA,183607.30,4138.0517848,N,07032.4168689,W,1,26,0.6,13.178,M,-29.745,M,0.0,*5B
###2023-12-09 13:36:08.396049$GNGGA,183607.50,4138.0519562,N,07032.4169043,W,1,26,0.6,13.181,M,-29.745,M,0.0,*51
###2023-12-09 13:36:08.596164$GNGGA,183607.70,4138.0521215,N,07032.4169223,W,1,26,0.6,13.181,M,-29.745,M,0.0,*5B
###2023-12-09 13:36:08.795812$GNGGA,183607.90,4138.0522807,N,07032.4169043,W,1,26,0.6,13.182,M,-29.745,M,0.0,*58
###2023-12-09 13:36:09.009140$GNRMC,183608.10,A,4138.0524281,N,07032.4168688,W,2.68,10.79,091223,,,A*62
###2023-12-09 13:36:09.012028$GNGGA,183608.10,4138.0524281,N,07032.4168688,W,1,26,0.6,13.178,M,-29.745,M,0.0,*58
###2023-12-09 13:36:09.013894$GPGSA,A,3,03,04,16,26,27,28,29,31,,,,,1.0,0.6,0.8*3F
###2023-12-09 13:36:09.015622$GLGSA,A,3,65,71,72,73,74,75,,,,,,,1.0,0.6,0.8*24
###2023-12-09 13:36:09.017204$GAGSA,A,3,04,19,21,27,,,,,,,,,1.0,0.6,0.8*26
###2023-12-09 13:36:09.018988$GBGSA,A,3,12,14,24,25,26,33,35,,,,,,1.0,0.6,0.8*2A
###2023-12-09 13:36:09.021302$GPGSV,2,1,08,03,26,246,40,04,47,307,44,16,67,223,47,26,83,040,48*73
###2023-12-09 13:36:09.023641$GPGSV,2,2,08,27,17,172,44,28,37,085,44,29,20,046,39,31,59,067,46*79
###2023-12-09 13:36:09.025963$GLGSV,2,1,06,65,39,318,42,71,22,175,45,72,62,220,46,73,22,052,38*6A
###2023-12-09 13:36:09.027712$GLGSV,2,2,06,74,59,015,41,75,44,272,47,,,,,,,,*6B
###2023-12-09 13:36:09.030030$GAGSV,1,1,04,04,40,310,42,19,71,181,41,21,76,045,45,27,22,050,36*6C
###2023-12-09 13:36:09.032367$GBGSV,2,1,07,12,15,126,42,14,29,190,41,24,62,046,47,25,51,276,47*68
###2023-12-09 13:36:09.034396$GBGSV,2,2,07,26,16,071,44,33,45,217,44,35,16,056,42,,,,*58
###2023-12-09 13:36:09.035704$GNVTG,10.79,T,,M,2.68,N,4.97,K,A*1A
###2023-12-09 13:36:09.037323$GNGST,183608.10,5.900,,,,0.086,0.067,0.150*65
###2023-12-09 13:36:09.038651$GNZDA,183608.10,09,12,2023,00,00*74
###2023-12-09 13:36:09.039291$GNEBP,,,,,,M*13
###2023-12-09 13:36:09.207732$GNGGA,183608.30,4138.0525715,N,07032.4168400,W,1,26,0.6,13.174,M,-29.745,M,0.0,*5D
###2023-12-09 13:36:09.397060$GNGGA,183608.50,4138.0527142,N,07032.4168332,W,1,26,0.6,13.183,M,-29.745,M,0.0,*53
###2023-12-09 13:36:09.597653$GNGGA,183608.70,4138.0528593,N,07032.4167992,W,1,26,0.6,13.195,M,-29.745,M,0.0,*5E
###2023-12-09 13:36:09.798537$GNGGA,183608.90,4138.0530015,N,07032.4167323,W,1,26,0.6,13.207,M,-29.745,M,0.0,*5A
###2023-12-09 13:36:09.999425$GNRMC,183609.10,A,4138.0531422,N,07032.4166702,W,2.72,16.80,091223,,,A*6E
###2023-12-09 13:36:10.002289$GNGGA,183609.10,4138.0531422,N,07032.4166702,W,1,26,0.6,13.207,M,-29.745,M,0.0,*54
###2023-12-09 13:36:10.004161$GPGSA,A,3,03,04,16,26,27,28,29,31,,,,,1.0,0.6,0.8*3F
###2023-12-09 13:36:10.005888$GLGSA,A,3,65,71,72,73,74,75,,,,,,,1.0,0.6,0.8*24
###2023-12-09 13:36:10.007487$GAGSA,A,3,04,19,21,27,,,,,,,,,1.0,0.6,0.8*26
###2023-12-09 13:36:10.009262$GBGSA,A,3,12,14,24,25,26,33,35,,,,,,1.0,0.6,0.8*2A
###2023-12-09 13:36:10.011598$GPGSV,2,1,08,03,26,246,41,04,47,307,44,16,67,223,46,26,83,040,48*73
###2023-12-09 13:36:10.013927$GPGSV,2,2,08,27,17,172,42,28,37,085,43,29,20,046,40,31,59,067,46*76
###2023-12-09 13:36:10.016261$GLGSV,2,1,06,65,39,318,43,71,22,175,42,72,62,220,46,73,22,052,40*63
###2023-12-09 13:36:10.018004$GLGSV,2,2,06,74,59,015,41,75,44,272,47,,,,,,,,*6B
###2023-12-09 13:36:10.020337$GAGSV,1,1,04,04,40,310,43,19,71,181,41,21,76,045,46,27,22,050,39*61
