###2023-12-09 13:28:47.023541$GNGST,182846.10,18.000,,,,0.100,0.073,0.170*5D
###2023-12-09 13:28:47.024851$GNZDA,182846.10,09,12,2023,00,00*71
###2023-12-09 13:28:47.025494$GNEBP,,,,,,M*13
###2023-12-09 13:28:47.189725$GNGGA,182846.30,4138.0452420,N,07032.4159492,W,1,24,0.6,13.538,M,-29.745,M,0.0,*5B
###2023-12-09 13:28:47.390088$GNGGA,182846.50,4138.0452450,N,07032.4159314,W,1,24,0.6,13.538,M,-29.745,M,0.0,*53
###2023-12-09 13:28:47.591160$GNGGA,182846.70,4138.0452555,N,07032.4159169,W,1,24,0.6,13.540,M,-29.745,M,0.0,*52
###2023-12-09 13:28:47.791657$GNGGA,182846.90,4138.0452791,N,07032.4159050,W,1,24,0.6,13.536,M,-29.745,M,0.0,*5C
###2023-12-09 13:28:47.994791$GNRMC,182847.10,A,4138.0452950,N,07032.4158903,W,0.25,25.74,091223,,,A*6E
###2023-12-09 13:28:47.997658$GNGGA,182847.10,4138.0452950,N,07032.4158903,W,1,24,0.6,13.533,M,-29.745,M,0.0,*5D
###2023-12-09 13:28:47.999469$GPGSA,A,3,03,04,16,26,28,29,31,,,,,,1.1,0.6,0.9*3A
###2023-12-09 13:28:48.001183$GLGSA,A,3,65,71,72,73,74,75,,,,,,,1.1,0.6,0.9*24
###2023-12-09 13:28:48.002775$GAGSA,A,3,04,19,21,27,,,,,,,,,1.1,0.6,0.9*26
###2023-12-09 13:28:48.004488$GBGSA,A,3,14,24,25,26,33,35,,,,,,,1.1,0.6,0.9*29
###2023-12-09 13:28:48.006829$GPGSV,2,1,07,03,28,249,42,04,43,309,45,16,63,220,47,26,87,041,49*77
###2023-12-09 13:28:48.008866$GPGSV,2,2,07,28,40,082,42,29,22,049,40,31,61,061,46,,,,*4E
###2023-12-09 13:28:48.011208$GLGSV,2,1,06,65,36,321,43,71,25,175,46,72,65,225,47,73,24,050,41*63
###2023-12-09 13:28:48.012953$GLGSV,2,2,06,74,61,010,42,75,42,268,47,,,,,,,,*6B
###2023-12-09 13:28:48.015293$GAGSV,1,1,04,04,38,311,44,19,74,183,41,21,79,049,47,27,24,049,40*6D
###2023-12-09 13:28:48.017625$GBGSV,2,1,06,14,31,190,40,24,64,043,49,25,49,274,47,26,17,069,42*68
###2023-12-09 13:28:48.019388$GBGSV,2,2,06,33,48,219,48,35,16,058,42,,,,,,,,*6D
###2023-12-09 13:28:48.020682$GNVTG,25.74,T,,M,0.25,N,0.47,K,A*13
###2023-12-09 13:28:48.022325$GNGST,182847.10,18.000,,,,0.100,0.073,0.170*5C
###2023-12-09 13:28:48.023629$GNZDA,182847.10,09,12,2023,00,00*70
###2023-12-09 13:28:48.024267$GNEBP,,,,,,M*13
###2023-12-09 13:28:48.190867$GNGGA,182847.30,4138.0452958,N,07032.4158733,W,1,24,0.6,13.530,M,-29.745,M,0.0,*59
###2023-12-09 13:28:48.390015$GNGGA,182847.50,4138.0453038,N,07032.4158597,W,1,24,0.6,13.535,M,-29.745,M,0.0,*58
###2023-12-09 13:28:48.589224$GNGGA,182847.70,4138.0453259,N,07032.4158462,W,1,24,0.6,13.535,M,-29.745,M,0.0,*54
###2023-12-09 13:28:48.791344$GNGGA,182847.90,4138.0453472,N,07032.4158365,W,1,24,0.6,13.535,M,-29.745,M,0.0,*55
###2023-12-09 13:28:48.995254$GNRMC,182848.10,A,4138.0453533,N,07032.4158199,W,0.27,25.74,091223,,,A*60
###2023-12-09 13:28:48.998115$GNGGA,182848.10,4138.0453533,N,07032.4158199,W,1,24,0.6,13.536,M,-29.745,M,0.0,*54
###2023-12-09 13:28:48.999924$GPGSA,A,3,03,04,16,26,28,29,31,,,,,,1.1,0.6,0.9*3A
###2023-12-09 13:28:49.001646$GLGSA,A,3,65,71,72,73,74,75,,,,,,,1.1,0.6,0.9*24
###2023-12-09 13:28:49.003241$GAGSA,A,3,04,19,21,27,,,,,,,,,1.1,0.6,0.9*26
###2023-12-09 13:28:49.004957$GBGSA,A,3,14,24,25,26,33,35,,,,,,,1.1,0.6,0.9*29
###2023-12-09 13:28:49.007295$GPGSV,2,1,07,03,28,249,42,04,43,309,44,16,63,220,47,26,87,041,48*77
###2023-12-09 13:28:49.009331$GPGSV,2,2,07,28,40,082,42,29,22,049,41,31,61,061,46,,,,*4F
###2023-12-09 13:28:49.011674$GLGSV,2,1,06,65,36,321,43,71,25,175,44,72,65,225,48,73,24,050,40*6F
###2023-12-09 13:28:49.013424$GLGSV,2,2,06,74,61,010,42,75,42,268,48,,,,,,,,*64
###2023-12-09 13:28:49.015761$GAGSV,1,1,04,04,38,311,44,19,74,183,41,21,79,049,47,27,24,049,40*6D
###2023-12-09 13:28:49.018088$GBGSV,2,1,06,14,31,190,41,24,64,043,48,25,49,274,47,26,17,069,41*6B
###2023-12-09 13:28:49.019843$GBGSV,2,2,06,33,48,219,47,35,16,058,43,,,,,,,,*63
###2023-12-09 13:28:49.021133$GNVTG,25.74,T,,M,0.27,N,0.50,K,A*17
###2023-12-09 13:28:49.022789$GNGST,182848.10,18.000,,,,0.100,0.072,0.170*52
###2023-12-09 13:28:49.024082$GNZDA,182848.10,09,12,2023,00,00*7F
###2023-12-09 13:28:49.024721$GNEBP,,,,,,M*13
###2023-12-09 13:28:49.196649$GNGGA,182848.30,4138.0453548,N,07032.4158045,W,1,24,0.6,13.538,M,-29.745,M,0.0,*54
###2023-12-09 13:28:49.389989$GNGGA,182848.50,4138.0453722,N,07032.4157940,W,1,24,0.6,13.538,M,-29.745,M,0.0,*5F
###2023-12-09 13:28:49.589706$GNGGA,182848.70,4138.0453986,N,07032.4157874,W,1,24,0.6,13.536,M,-29.745,M,0.0,*55
###2023-12-09 13:28:49.790106$GNGGA,182848.90,4138.0454107,N,07032.4157748,W,1,24,0.6,13.533,M,-29.745,M,0.0,*58
###2023-12-09 13:28:49.995468$GNRMC,182849.10,A,4138.0454080,N,07032.4157571,W,0.17,25.74,091223,,,A*65
###2023-12-09 13:28:49.998342$GNGGA,182849.10,4138.0454080,N,07032.4157571,W,1,24,0.6,13.530,M,-29.745,M,0.0,*54
###2023-12-09 13:28:50.000150$GPGSA,A,3,03,04,16,26,28,29,31,,,,,,1.1,0.6,0.9*3A
###2023-12-09 13:28:50.001870$GLGSA,A,3,65,71,72,73,74,75,,,,,,,1.1,0.6,0.9*24
###2023-12-09 13:28:50.003462$GAGSA,A,3,04,19,21,27,,,,,,,,,1.1,0.6,0.9*26
###2023-12-09 13:28:50.005173$GBGSA,A,3,14,24,25,26,33,35,,,,,,,1.1,0.6,0.9*29
###2023-12-09 13:28:50.007502$GPGSV,2,1,07,03,28,249,43,04,43,309,45,16,63,220,47,26,87,041,48*77
###2023-12-09 13:28:50.009530$GPGSV,2,2,07,28,40,082,42,29,22,049,41,31,61,061,46,,,,*4F
###2023-12-09 13:28:50.011861$GLGSV,2,1,06,65,36,321,42,71,25,175,44,72,65,225,47,73,24,050,40*61
###2023-12-09 13:28:50.013601$GLGSV,2,2,06,74,61,010,42,75,42,268,47,,,,,,,,*6B
###2023-12-09 13:28:50.015930$GAGSV,1,1,04,04,38,311,43,19,74,183,41,21,79,049,47,27,24,049,38*65
###2023-12-09 13:28:50.018253$GBGSV,2,1,06,14,31,190,41,24,64,043,48,25,49,274,46,26,17,069,39*65
###2023-12-09 13:28:50.020007$GBGSV,2,2,06,33,48,219,48,35,16,058,42,,,,,,,,*6D
###2023-12-09 13:28:50.021295$GNVTG,25.74,T,,M,0.17,N,0.32,K,A*10
###2023-12-09 13:28:50.022947$GNGST,182849.10,18.000,,,,0.100,0.072,0.170*53
###2023-12-09 13:28:50.024236$GNZDA,182849.10,09,12,2023,00,00*7E
###2023-12-09 13:28:50.024874$GNEBP,,,,,,M*13
###2023-12-09 13:28:50.191063$GNGGA,182849.30,4138.0454165,N,07032.4157493,W,1,24,0.6,13.530,M,-29.745,M,0.0,*51
###2023-12-09 13:28:50.389646$GNGGA,182849.50,4138.0454432,N,07032.4157456,W,1,24,0.6,13.533,M,-29.745,M,0.0,*5A
###2023-12-09 13:28:50.595317$GNGGA,182849.70,4138.0454642,N,07032.4157396,W,1,24,0.6,13.529,M,-29.745,M,0.0,*5D
###2023-12-09 13:28:50.790557$GNGGA,182849.90,4138.0454647,N,07032.4157252,W,1,24,0.6,13.526,M,-29.745,M,0.0,*50
###2023-12-09 13:28:50.992677$GNRMC,182850.10,A,4138.0454632,N,07032.4157146,W,0.17,25.74,091223,,,A*62
###2023-12-09 13:28:50.995554$GNGGA,182850.10,4138.0454632,N,07032.4157146,W,1,24,0.6,13.518,M,-29.745,M,0.0,*59
###2023-12-09 13:28:50.997347$GPGSA,A,3,03,04,16,26,28,29,31,,,,,,1.1,0.6,0.9*3A
###2023-12-09 13:28:50.999079$GLGSA,A,3,65,71,72,73,74,75,,,,,,,1.1,0.6,0.9*24
###2023-12-09 13:28:51.000665$GAGSA,A,3,04,19,21,27,,,,,,,,,1.1,0.6,0.9*26
###2023-12-09 13:28:51.002382$GBGSA,A,3,14,24,25,26,33,35,,,,,,,1.1,0.6,0.9*29
###2023-12-09 13:28:51.004724$GPGSV,2,1,07,03,28,249,42,04,43,309,46,16,63,220,48,26,87,041,48*7A
###2023-12-09 13:28:51.006778$GPGSV,2,2,07,28,40,082,44,29,22,049,40,31,61,061,45,,,,*4B
###2023-12-09 13:28:51.009109$GLGSV,2,1,06,65,36,321,43,71,25,175,45,72,65,225,48,73,24,050,41*6F
###2023-12-09 13:28:51.010865$GLGSV,2,2,06,74,61,010,42,75,42,268,46,,,,,,,,*6A
###2023-12-09 13:28:51.013186$GAGSV,1,1,04,04,38,311,43,19,74,183,41,21,79,049,45,27,24,049,39*66
###2023-12-09 13:28:51.015538$GBGSV,2,1,06,14,31,190,43,24,64,043,48,25,49,274,46,26,17,069,39*67
###2023-12-09 13:28:51.017286$GBGSV,2,2,06,33,48,219,48,35,16,058,41,,,,,,,,*6E
###2023-12-09 13:28:51.018584$GNVTG,25.74,T,,M,0.17,N,0.32,K,A*10
###2023-12-09 13:28:51.020229$GNGST,182850.10,18.000,,,,0.100,0.072,0.170*5B
###2023-12-09 13:28:51.021518$GNZDA,182850.10,09,12,2023,00,00*76
###2023-12-09 13:28:51.022152$GNEBP,,,,,,M*13
###2023-12-09 13:28:51.193568$GNGGA,182850.30,4138.0454830,N,07032.4157124,W,1,24,0.6,13.524,M,-29.745,M,0.0,*5C
###2023-12-09 13:28:51.389112$GNGGA,182850.50,4138.0455147,N,07032.4157168,W,1,24,0.6,13.531,M,-29.745,M,0.0,*5E
###2023-12-09 13:28:51.589652$GNGGA,182850.70,4138.0455244,N,07032.4157066,W,1,24,0.6,13.530,M,-29.745,M,0.0,*52
###2023-12-09 13:28:51.790157$GNGGA,182850.90,4138.0455143,N,07032.4156899,W,1,24,0.6,13.521,M,-29.745,M,0.0,*51
###2023-12-09 13:28:51.994880$GNRMC,182851.10,A,4138.0455214,N,07032.4156852,W,0.37,25.74,091223,,,A*6D
###2023-12-09 13:28:51.997750$GNGGA,182851.10,4138.0455214,N,07032.4156852,W,1,24,0.6,13.513,M,-29.745,M,0.0,*5F
###2023-12-09 13:28:51.999565$GPGSA,A,3,03,04,16,26,28,29,31,,,,,,1.1,0.6,0.9*3A
###2023-12-09 13:28:52.001276$GLGSA,A,3,65,71,72,73,74,75,,,,,,,1.1,0.6,0.9*24
###2023-12-09 13:28:52.002861$GAGSA,A,3,04,19,21,27,,,,,,,,,1.1,0.6,0.9*26
###2023-12-09 13:28:52.004578$GBGSA,A,3,14,24,25,26,33,35,,,,,,,1.1,0.6,0.9*29
###2023-12-09 13:28:52.006911$GPGSV,2,1,07,03,28,249,42,04,43,309,45,16,63,220,48,26,87,041,48*79
###2023-12-09 13:28:52.008945$GPGSV,2,2,07,28,40,082,42,29,22,049,40,31,61,061,46,,,,*4E
###2023-12-09 13:28:52.011275$GLGSV,2,1,06,65,36,321,44,71,25,175,46,72,65,225,48,73,24,050,41*6B
