###2023-12-09 12:52:25.984656$GNZDA,175225.10,09,12,2023,00,00*76
###2023-12-09 12:52:25.985315$GNEBP,,,,,,M*13
###2023-12-09 12:52:26.152904$GNGGA,175225.30,4138.0626295,N,07032.3862562,W,1,24,0.6,13.118,M,-29.744,M,0.0,*5A
###2023-12-09 12:52:26.354251$GNGGA,175225.50,4138.0626386,N,07032.3862684,W,1,24,0.6,13.097,M,-29.744,M,0.0,*52
###2023-12-09 12:52:26.553583$GNGGA,175225.70,4138.0626568,N,07032.3862976,W,1,24,0.6,13.090,M,-29.744,M,0.0,*53
###2023-12-09 12:52:26.754175$GNGGA,175225.90,4138.0626805,N,07032.3863396,W,1,24,0.6,13.093,M,-29.744,M,0.0,*5D
###2023-12-09 12:52:26.954528$GNRMC,175226.10,A,4138.0626973,N,07032.3863664,W,0.35,311.66,091223,,,A*55
###2023-12-09 12:52:26.958026$GNGGA,175226.10,4138.0626973,N,07032.3863664,W,1,24,0.6,13.107,M,-29.744,M,0.0,*52
###2023-12-09 12:52:26.960309$GPGSA,A,3,03,04,16,26,28,29,31,32,,,,,1.1,0.6,0.9*3B
###2023-12-09 12:52:26.962381$GLGSA,A,3,65,71,72,73,74,75,,,,,,,1.1,0.6,0.9*24
###2023-12-09 12:52:26.964369$GAGSA,A,3,04,19,21,27,,,,,,,,,1.1,0.6,0.9*26
###2023-12-09 12:52:26.966390$GBGSA,A,3,14,24,25,26,33,,,,,,,,1.1,0.6,0.9*2F
###2023-12-09 12:52:26.969224$GPGSV,2,1,08,03,37,267,45,04,29,311,45,16,45,210,45,26,75,209,48*7F
###2023-12-09 12:52:26.972049$GPGSV,2,2,08,28,52,066,43,29,26,065,40,31,71,026,46,32,23,138,38*70
###2023-12-09 12:52:26.974860$GLGSV,2,1,06,65,19,329,44,71,47,171,45,72,72,288,46,73,40,038,43*6C
###2023-12-09 12:52:26.976961$GLGSV,2,2,06,74,71,321,43,75,28,248,44,,,,,,,,*67
###2023-12-09 12:52:26.979775$GAGSV,1,1,04,04,26,312,43,19,85,252,40,21,84,154,46,27,36,048,43*69
###2023-12-09 12:52:26.982601$GBGSV,2,1,05,14,48,194,44,24,77,014,48,25,37,258,45,26,29,060,42*65
###2023-12-09 12:52:26.984353$GBGSV,2,2,05,33,60,240,48,,,,,,,,,,,,*52
###2023-12-09 12:52:26.985945$GNVTG,311.66,T,,M,0.35,N,0.65,K,A*25
###2023-12-09 12:52:26.987949$GNGST,175226.10,18.000,,,,0.077,0.068,0.160*53
###2023-12-09 12:52:26.989508$GNZDA,175226.10,09,12,2023,00,00*75
###2023-12-09 12:52:26.990274$GNEBP,,,,,,M*13
###2023-12-09 12:52:27.155457$GNGGA,175226.30,4138.0627087,N,07032.3863763,W,1,24,0.6,13.130,M,-29.744,M,0.0,*51
###2023-12-09 12:52:27.355112$GNGGA,175226.50,4138.0627185,N,07032.3863874,W,1,24,0.6,13.119,M,-29.744,M,0.0,*56
###2023-12-09 12:52:27.554153$GNGGA,175226.70,4138.0627318,N,07032.3864092,W,1,24,0.6,13.093,M,-29.744,M,0.0,*56
###2023-12-09 12:52:27.755368$GNGGA,175226.90,4138.0627528,N,07032.3864461,W,1,24,0.6,13.085,M,-29.744,M,0.0,*52
###2023-12-09 12:52:27.955515$GNRMC,175227.10,A,4138.0627758,N,07032.3864887,W,0.64,311.66,091223,,,A*52
###2023-12-09 12:52:27.959028$GNGGA,175227.10,4138.0627758,N,07032.3864887,W,1,24,0.6,13.107,M,-29.744,M,0.0,*51
###2023-12-09 12:52:27.961271$GPGSA,A,3,03,04,16,26,28,29,31,32,,,,,1.1,0.6,0.9*3B
###2023-12-09 12:52:27.963361$GLGSA,A,3,65,71,72,73,74,75,,,,,,,1.1,0.6,0.9*24
###2023-12-09 12:52:27.965274$GAGSA,A,3,04,19,21,27,,,,,,,,,1.1,0.6,0.9*26
###2023-12-09 12:52:27.967281$GBGSA,A,3,14,24,25,26,33,,,,,,,,1.1,0.6,0.9*2F
###2023-12-09 12:52:27.970066$GPGSV,2,1,08,03,37,267,44,04,29,311,44,16,45,210,45,26,75,209,47*70
###2023-12-09 12:52:27.972899$GPGSV,2,2,08,28,52,066,43,29,26,065,39,31,71,026,46,32,23,138,40*71
###2023-12-09 12:52:27.975735$GLGSV,2,1,06,65,19,329,45,71,47,171,46,72,72,288,46,73,40,038,41*6C
###2023-12-09 12:52:27.977842$GLGSV,2,2,06,74,71,321,42,75,28,248,44,,,,,,,,*66
###2023-12-09 12:52:27.980663$GAGSV,1,1,04,04,26,312,43,19,85,252,40,21,84,154,46,27,36,048,43*69
###2023-12-09 12:52:27.983474$GBGSV,2,1,05,14,48,194,43,24,77,014,48,25,37,258,46,26,29,060,41*62
###2023-12-09 12:52:27.985230$GBGSV,2,2,05,33,60,240,48,,,,,,,,,,,,*52
###2023-12-09 12:52:27.986835$GNVTG,311.66,T,,M,0.64,N,1.19,K,A*2B
###2023-12-09 12:52:27.988814$GNGST,175227.10,18.000,,,,0.077,0.068,0.160*52
###2023-12-09 12:52:27.990396$GNZDA,175227.10,09,12,2023,00,00*74
###2023-12-09 12:52:27.991186$GNEBP,,,,,,M*13
###2023-12-09 12:52:28.152801$GNGGA,175227.30,4138.0627918,N,07032.3865141,W,1,24,0.6,13.132,M,-29.744,M,0.0,*5D
###2023-12-09 12:52:28.354083$GNGGA,175227.50,4138.0628020,N,07032.3865251,W,1,24,0.6,13.143,M,-29.744,M,0.0,*52
###2023-12-09 12:52:28.554396$GNGGA,175227.70,4138.0628068,N,07032.3865307,W,1,24,0.6,13.111,M,-29.744,M,0.0,*59
###2023-12-09 12:52:28.753657$GNGGA,175227.90,4138.0628253,N,07032.3865605,W,1,24,0.6,13.101,M,-29.744,M,0.0,*5B
###2023-12-09 12:52:28.953827$GNRMC,175228.10,A,4138.0628569,N,07032.3866175,W,0.95,306.32,091223,,,A*5D
###2023-12-09 12:52:28.956726$GNGGA,175228.10,4138.0628569,N,07032.3866175,W,1,24,0.6,13.107,M,-29.744,M,0.0,*57
###2023-12-09 12:52:28.958588$GPGSA,A,3,03,04,16,26,28,29,31,32,,,,,1.1,0.6,0.9*3B
###2023-12-09 12:52:28.960301$GLGSA,A,3,65,71,72,73,74,75,,,,,,,1.1,0.6,0.9*24
###2023-12-09 12:52:28.961872$GAGSA,A,3,04,19,21,27,,,,,,,,,1.1,0.6,0.9*26
###2023-12-09 12:52:28.963524$GBGSA,A,3,14,24,25,26,33,,,,,,,,1.1,0.6,0.9*2F
###2023-12-09 12:52:28.965848$GPGSV,2,1,08,03,37,267,44,04,29,311,44,16,45,210,45,26,75,209,48*7F
###2023-12-09 12:52:28.968192$GPGSV,2,2,08,28,52,066,43,29,26,065,40,31,71,026,46,32,23,138,40*7F
###2023-12-09 12:52:28.970519$GLGSV,2,1,06,65,19,329,45,71,47,171,47,72,72,288,47,73,40,038,41*6C
###2023-12-09 12:52:28.972265$GLGSV,2,2,06,74,71,321,42,75,28,248,43,,,,,,,,*61
###2023-12-09 12:52:28.974583$GAGSV,1,1,04,04,26,312,42,19,85,252,40,21,84,154,46,27,36,048,43*68
###2023-12-09 12:52:28.976901$GBGSV,2,1,05,14,48,194,44,24,77,014,48,25,37,258,46,26,29,060,43*67
###2023-12-09 12:52:28.978342$GBGSV,2,2,05,33,60,240,48,,,,,,,,,,,,*52
###2023-12-09 12:52:28.979714$GNVTG,306.32,T,,M,0.95,N,1.76,K,A*2B
###2023-12-09 12:52:28.981357$GNGST,175228.10,18.000,,,,0.078,0.068,0.160*52
###2023-12-09 12:52:28.982700$GNZDA,175228.10,09,12,2023,00,00*7B
###2023-12-09 12:52:28.983341$GNEBP,,,,,,M*13
###2023-12-09 12:52:29.153750$GNGGA,175228.30,4138.0628760,N,07032.3866542,W,1,23,0.7,13.120,M,-29.744,M,0.0,*5D
###2023-12-09 12:52:29.353368$GNGGA,175228.50,4138.0628820,N,07032.3866561,W,1,24,0.6,13.148,M,-29.744,M,0.0,*59
###2023-12-09 12:52:29.554139$GNGGA,175228.70,4138.0628871,N,07032.3866591,W,1,24,0.6,13.133,M,-29.744,M,0.0,*5C
###2023-12-09 12:52:29.753107$GNGGA,175228.90,4138.0629037,N,07032.3866870,W,1,24,0.6,13.119,M,-29.744,M,0.0,*53
###2023-12-09 12:52:29.954037$GNRMC,175229.10,A,4138.0629360,N,07032.3867428,W,1.01,305.16,091223,,,A*57
###2023-12-09 12:52:29.956915$GNGGA,175229.10,4138.0629360,N,07032.3867428,W,1,24,0.6,13.117,M,-29.744,M,0.0,*55
###2023-12-09 12:52:29.958809$GPGSA,A,3,03,04,16,26,28,29,31,32,,,,,1.1,0.6,0.9*3B
###2023-12-09 12:52:29.960520$GLGSA,A,3,65,71,72,73,74,75,,,,,,,1.1,0.6,0.9*24
###2023-12-09 12:52:29.962091$GAGSA,A,3,04,19,21,27,,,,,,,,,1.1,0.6,0.9*26
###2023-12-09 12:52:29.963752$GBGSA,A,3,14,24,25,26,33,,,,,,,,1.1,0.6,0.9*2F
###2023-12-09 12:52:29.966067$GPGSV,2,1,08,03,37,267,43,04,29,311,44,16,45,210,45,26,75,209,48*78
###2023-12-09 12:52:29.968437$GPGSV,2,2,08,28,52,066,44,29,26,065,40,31,71,026,46,32,23,138,41*79
###2023-12-09 12:52:29.970794$GLGSV,2,1,06,65,19,329,44,71,47,171,47,72,72,288,46,73,40,038,42*6F
###2023-12-09 12:52:29.972542$GLGSV,2,2,06,74,71,321,42,75,28,248,45,,,,,,,,*67
###2023-12-09 12:52:29.974880$GAGSV,1,1,04,04,26,312,41,19,85,252,40,21,84,154,46,27,36,048,43*6B
###2023-12-09 12:52:29.977211$GBGSV,2,1,05,14,47,194,45,24,77,014,48,25,37,258,44,26,29,060,42*6A
###2023-12-09 12:52:29.978681$GBGSV,2,2,05,33,60,240,47,,,,,,,,,,,,*5D
###2023-12-09 12:52:29.980003$GNVTG,305.16,T,,M,1.01,N,1.87,K,A*2C
###2023-12-09 12:52:29.981652$GNGST,175229.10,18.000,,,,0.078,0.068,0.160*53
###2023-12-09 12:52:29.982953$GNZDA,175229.10,09,12,2023,00,00*7A
###2023-12-09 12:52:29.983594$GNEBP,,,,,,M*13
###2023-12-09 12:52:30.152710$GNGGA,175229.30,4138.0629603,N,07032.3867888,W,1,24,0.6,13.118,M,-29.744,M,0.0,*5E
###2023-12-09 12:52:30.353873$GNGGA,175229.50,4138.0629640,N,07032.3867933,W,1,24,0.6,13.147,M,-29.744,M,0.0,*54
###2023-12-09 12:52:30.553572$GNGGA,175229.70,4138.0629678,N,07032.3867940,W,1,24,0.6,13.145,M,-29.744,M,0.0,*5B
###2023-12-09 12:52:30.753641$GNGGA,175229.90,4138.0629831,N,07032.3868211,W,1,24,0.6,13.125,M,-29.744,M,0.0,*50
###2023-12-09 12:52:30.953988$GNRMC,175230.10,A,4138.0630180,N,07032.3868749,W,1.09,309.67,091223,,,A*52
###2023-12-09 12:52:30.957125$GNGGA,175230.10,4138.0630180,N,07032.3868749,W,1,24,0.6,13.120,M,-29.744,M,0.0,*56
###2023-12-09 12:52:30.959010$GPGSA,A,3,03,04,16,26,28,29,31,32,,,,,1.1,0.6,0.9*3B
###2023-12-09 12:52:30.960719$GLGSA,A,3,65,71,72,73,74,75,,,,,,,1.1,0.6,0.9*24
###2023-12-09 12:52:30.962301$GAGSA,A,3,04,19,21,27,,,,,,,,,1.1,0.6,0.9*26
###2023-12-09 12:52:30.964009$GBGSA,A,3,14,24,25,26,33,,,,,,,,1.1,0.6,0.9*2F
###2023-12-09 12:52:30.966387$GPGSV,2,1,08,03,37,267,43,04,29,311,44,16,45,210,45,26,75,209,49*79
###2023-12-09 12:52:30.968752$GPGSV,2,2,08,28,52,066,44,29,26,065,42,31,71,026,47,32,23,138,44*7F
###2023-12-09 12:52:30.971110$GLGSV,2,1,06,65,19,329,44,71,47,171,47,72,72,288,46,73,40,038,42*6F
###2023-12-09 12:52:30.972870$GLGSV,2,2,06,74,71,321,42,75,28,248,44,,,,,,,,*66
