###2023-12-09 12:56:24.155949$GNGGA,175623.30,4138.0440315,N,07032.3892244,W,1,24,0.6,13.409,M,-29.745,M,0.0,*5B
###2023-12-09 12:56:24.356511$GNGGA,175623.50,4138.0440735,N,07032.3892368,W,1,24,0.6,13.405,M,-29.745,M,0.0,*58
###2023-12-09 12:56:24.556827$GNGGA,175623.70,4138.0440796,N,07032.3892264,W,1,24,0.6,13.414,M,-29.745,M,0.0,*5E
###2023-12-09 12:56:24.756998$GNGGA,175623.90,4138.0440688,N,07032.3892111,W,1,24,0.6,13.416,M,-29.745,M,0.0,*5D
###2023-12-09 12:56:24.956464$GNRMC,175624.10,A,4138.0440867,N,07032.3892122,W,0.76,348.69,091223,,,A*5A
###2023-12-09 12:56:24.959338$GNGGA,175624.10,4138.0440867,N,07032.3892122,W,1,24,0.6,13.416,M,-29.745,M,0.0,*5D
###2023-12-09 12:56:24.961189$GPGSA,A,3,03,04,16,26,28,29,31,32,,,,,1.1,0.6,0.9*3B
###2023-12-09 12:56:24.962911$GLGSA,A,3,65,71,72,73,74,75,,,,,,,1.1,0.6,0.9*24
###2023-12-09 12:56:24.964490$GAGSA,A,3,04,19,21,27,,,,,,,,,1.1,0.6,0.9*26
###2023-12-09 12:56:24.966129$GBGSA,A,3,14,24,25,26,33,,,,,,,,1.1,0.6,0.9*2F
###2023-12-09 12:56:24.968480$GPGSV,2,1,08,03,36,265,45,04,30,311,41,16,47,211,46,26,77,209,48*72
###2023-12-09 12:56:24.970825$GPGSV,2,2,08,28,51,068,43,29,25,064,40,31,70,031,45,32,21,139,44*73
###2023-12-09 12:56:24.973159$GLGSV,2,1,06,65,21,328,39,71,44,172,49,72,72,281,47,73,38,040,45*6E
###2023-12-09 12:56:24.974914$GLGSV,2,2,06,74,71,327,42,75,30,250,44,,,,,,,,*60
###2023-12-09 12:56:24.977243$GAGSV,1,1,04,04,27,312,41,19,85,234,40,21,85,141,46,27,34,048,41*6F
###2023-12-09 12:56:24.979584$GBGSV,2,1,05,14,46,194,46,24,75,018,46,25,39,260,46,26,28,061,42*6F
###2023-12-09 12:56:24.981039$GBGSV,2,2,05,33,59,237,46,,,,,,,,,,,,*56
###2023-12-09 12:56:24.982362$GNVTG,348.69,T,,M,0.76,N,1.40,K,A*27
###2023-12-09 12:56:24.984019$GNGST,175624.10,18.000,,,,0.076,0.065,0.150*5A
###2023-12-09 12:56:24.985313$GNZDA,175624.10,09,12,2023,00,00*73
###2023-12-09 12:56:24.985952$GNEBP,,,,,,M*13
###2023-12-09 12:56:25.156800$GNGGA,175624.30,4138.0441358,N,07032.3892296,W,1,24,0.6,13.419,M,-29.745,M,0.0,*5A
###2023-12-09 12:56:25.356976$GNGGA,175624.50,4138.0441686,N,07032.3892368,W,1,24,0.6,13.410,M,-29.745,M,0.0,*53
###2023-12-09 12:56:25.555957$GNGGA,175624.70,4138.0441632,N,07032.3892217,W,1,24,0.6,13.422,M,-29.745,M,0.0,*56
###2023-12-09 12:56:25.757482$GNGGA,175624.90,4138.0441622,N,07032.3892094,W,1,24,0.6,13.422,M,-29.745,M,0.0,*50
###2023-12-09 12:56:25.957519$GNRMC,175625.10,A,4138.0441948,N,07032.3892176,W,0.93,345.30,091223,,,A*5D
###2023-12-09 12:56:25.960412$GNGGA,175625.10,4138.0441948,N,07032.3892176,W,1,24,0.6,13.427,M,-29.745,M,0.0,*52
###2023-12-09 12:56:25.962278$GPGSA,A,3,03,04,16,26,28,29,31,32,,,,,1.1,0.6,0.9*3B
###2023-12-09 12:56:25.964023$GLGSA,A,3,65,71,72,73,74,75,,,,,,,1.1,0.6,0.9*24
###2023-12-09 12:56:25.965610$GAGSA,A,3,04,19,21,27,,,,,,,,,1.1,0.6,0.9*26
###2023-12-09 12:56:25.967282$GBGSA,A,3,14,24,25,26,33,,,,,,,,1.1,0.6,0.9*2F
###2023-12-09 12:56:25.969626$GPGSV,2,1,08,03,36,265,45,04,30,311,42,16,47,211,46,26,77,209,48*71
###2023-12-09 12:56:25.972002$GPGSV,2,2,08,28,51,068,43,29,25,064,40,31,70,031,46,32,21,139,44*70
###2023-12-09 12:56:25.974340$GLGSV,2,1,06,65,21,328,41,71,44,172,49,72,72,281,47,73,38,040,44*60
###2023-12-09 12:56:25.976122$GLGSV,2,2,06,74,71,327,42,75,30,250,45,,,,,,,,*61
###2023-12-09 12:56:25.978458$GAGSV,1,1,04,04,27,312,41,19,85,234,40,21,85,141,46,27,34,048,41*6F
###2023-12-09 12:56:25.980808$GBGSV,2,1,05,14,45,193,46,24,75,018,48,25,39,260,47,26,28,061,43*65
###2023-12-09 12:56:25.982268$GBGSV,2,2,05,33,59,237,47,,,,,,,,,,,,*57
###2023-12-09 12:56:25.983606$GNVTG,345.30,T,,M,0.93,N,1.73,K,A*2D
###2023-12-09 12:56:25.985254$GNGST,175625.10,18.000,,,,0.076,0.065,0.150*5B
###2023-12-09 12:56:25.986542$GNZDA,175625.10,09,12,2023,00,00*72
###2023-12-09 12:56:25.987222$GNEBP,,,,,,M*13
###2023-12-09 12:56:26.155863$GNGGA,175625.30,4138.0442431,N,07032.3892370,W,1,24,0.6,13.428,M,-29.745,M,0.0,*5B
###2023-12-09 12:56:26.356815$GNGGA,175625.50,4138.0442610,N,07032.3892393,W,1,24,0.6,13.427,M,-29.745,M,0.0,*5E
###2023-12-09 12:56:26.557010$GNGGA,175625.70,4138.0442578,N,07032.3892248,W,1,24,0.6,13.439,M,-29.745,M,0.0,*59
###2023-12-09 12:56:26.756819$GNGGA,175625.90,4138.0442722,N,07032.3892214,W,1,24,0.6,13.451,M,-29.745,M,0.0,*5D
###2023-12-09 12:56:26.956676$GNRMC,175626.10,A,4138.0443112,N,07032.3892371,W,0.82,345.30,091223,,,A*5E
###2023-12-09 12:56:26.959570$GNGGA,175626.10,4138.0443112,N,07032.3892371,W,1,24,0.6,13.456,M,-29.745,M,0.0,*57
###2023-12-09 12:56:26.961438$GPGSA,A,3,03,04,16,26,28,29,31,32,,,,,1.1,0.6,0.9*3B
###2023-12-09 12:56:26.963168$GLGSA,A,3,65,71,72,73,74,75,,,,,,,1.1,0.6,0.9*24
###2023-12-09 12:56:26.964757$GAGSA,A,3,04,19,21,27,,,,,,,,,1.1,0.6,0.9*26
###2023-12-09 12:56:26.966404$GBGSA,A,3,14,24,25,26,33,,,,,,,,1.1,0.6,0.9*2F
###2023-12-09 12:56:26.968765$GPGSV,2,1,08,03,36,265,44,04,30,311,43,16,47,211,46,26,77,209,48*71
###2023-12-09 12:56:26.971130$GPGSV,2,2,08,28,51,068,43,29,25,064,40,31,70,031,46,32,21,139,44*70
###2023-12-09 12:56:26.973472$GLGSV,2,1,06,65,21,328,43,71,44,172,49,72,72,281,47,73,38,040,44*62
###2023-12-09 12:56:26.975243$GLGSV,2,2,06,74,71,327,43,75,30,250,46,,,,,,,,*63
###2023-12-09 12:56:26.977581$GAGSV,1,1,04,04,27,312,39,19,85,234,40,21,85,141,46,27,34,048,41*60
###2023-12-09 12:56:26.979931$GBGSV,2,1,05,14,45,193,45,24,75,018,48,25,39,260,46,26,28,061,42*66
###2023-12-09 12:56:26.981391$GBGSV,2,2,05,33,59,237,47,,,,,,,,,,,,*57
###2023-12-09 12:56:26.982725$GNVTG,345.30,T,,M,0.82,N,1.51,K,A*2D
###2023-12-09 12:56:26.984378$GNGST,175626.10,18.000,,,,0.076,0.065,0.150*58
###2023-12-09 12:56:26.985677$GNZDA,175626.10,09,12,2023,00,00*71
###2023-12-09 12:56:26.986314$GNEBP,,,,,,M*13
###2023-12-09 12:56:27.156824$GNGGA,175626.30,4138.0443483,N,07032.3892512,W,1,24,0.6,13.445,M,-29.745,M,0.0,*59
###2023-12-09 12:56:27.356320$GNGGA,175626.50,4138.0443592,N,07032.3892475,W,1,24,0.6,13.451,M,-29.745,M,0.0,*5B
###2023-12-09 12:56:27.556770$GNGGA,175626.70,4138.0443643,N,07032.3892389,W,1,24,0.6,13.460,M,-29.745,M,0.0,*50
###2023-12-09 12:56:27.756969$GNGGA,175626.90,4138.0443901,N,07032.3892427,W,1,24,0.6,13.471,M,-29.745,M,0.0,*54
###2023-12-09 12:56:27.956752$GNRMC,175627.10,A,4138.0444283,N,07032.3892583,W,0.70,345.30,091223,,,A*55
###2023-12-09 12:56:27.959638$GNGGA,175627.10,4138.0444283,N,07032.3892583,W,1,24,0.6,13.474,M,-29.745,M,0.0,*51
###2023-12-09 12:56:27.961494$GPGSA,A,3,03,04,16,26,28,29,31,32,,,,,1.1,0.6,0.9*3B
###2023-12-09 12:56:27.963232$GLGSA,A,3,65,71,72,73,74,75,,,,,,,1.1,0.6,0.9*24
###2023-12-09 12:56:27.964816$GAGSA,A,3,04,19,21,27,,,,,,,,,1.1,0.6,0.9*26
###2023-12-09 12:56:27.966463$GBGSA,A,3,14,24,25,26,33,,,,,,,,1.1,0.6,0.9*2F
###2023-12-09 12:56:27.968806$GPGSV,2,1,08,03,36,265,45,04,30,311,43,16,47,211,46,26,77,209,49*71
###2023-12-09 12:56:27.971159$GPGSV,2,2,08,28,51,068,44,29,25,064,40,31,70,031,47,32,21,139,43*71
###2023-12-09 12:56:27.973493$GLGSV,2,1,06,65,21,328,44,71,44,172,48,72,72,281,46,73,38,040,44*65
###2023-12-09 12:56:27.975252$GLGSV,2,2,06,74,71,327,43,75,30,250,47,,,,,,,,*62
###2023-12-09 12:56:27.977578$GAGSV,1,1,04,04,27,312,42,19,85,234,41,21,85,141,46,27,34,048,41*6D
###2023-12-09 12:56:27.979921$GBGSV,2,1,05,14,45,193,45,24,75,018,48,25,39,260,46,26,28,061,43*67
###2023-12-09 12:56:27.981374$GBGSV,2,2,05,33,59,237,48,,,,,,,,,,,,*58
###2023-12-09 12:56:27.982709$GNVTG,345.30,T,,M,0.70,N,1.30,K,A*27
###2023-12-09 12:56:27.984354$GNGST,175627.10,18.000,,,,0.076,0.065,0.150*59
###2023-12-09 12:56:27.985642$GNZDA,175627.10,09,12,2023,00,00*70
###2023-12-09 12:56:27.986281$GNEBP,,,,,,M*13
###2023-12-09 12:56:28.159625$GNGGA,175627.30,4138.0444543,N,07032.3892684,W,1,24,0.6,13.467,M,-29.745,M,0.0,*5E
###2023-12-09 12:56:28.356664$GNGGA,175627.50,4138.0444643,N,07032.3892632,W,1,24,0.6,13.469,M,-29.745,M,0.0,*58
###2023-12-09 12:56:28.556698$GNGGA,175627.70,4138.0444816,N,07032.3892590,W,1,24,0.6,13.471,M,-29.745,M,0.0,*56
###2023-12-09 12:56:28.756562$GNGGA,175627.90,4138.0445134,N,07032.3892674,W,1,24,0.6,13.477,M,-29.745,M,0.0,*5F
###2023-12-09 12:56:28.956464$GNRMC,175628.10,A,4138.0445445,N,07032.3892788,W,0.47,345.30,091223,,,A*5A
###2023-12-09 12:56:28.959340$GNGGA,175628.10,4138.0445445,N,07032.3892788,W,1,24,0.6,13.478,M,-29.745,M,0.0,*56
###2023-12-09 12:56:28.961450$GPGSA,A,3,03,04,16,26,28,29,31,32,,,,,1.1,0.6,0.9*3B
###2023-12-09 12:56:28.963188$GLGSA,A,3,65,71,72,73,74,75,,,,,,,1.1,0.6,0.9*24
###2023-12-09 12:56:28.964775$GAGSA,A,3,04,19,21,27,,,,,,,,,1.1,0.6,0.9*26
###2023-12-09 12:56:28.966422$GBGSA,A,3,14,24,25,26,33,,,,,,,,1.1,0.6,0.9*2F
###2023-12-09 12:56:28.968770$GPGSV,2,1,08,03,36,265,45,04,30,311,43,16,47,211,46,26,77,209,49*71
###2023-12-09 12:56:28.971122$GPGSV,2,2,08,28,51,068,43,29,25,064,40,31,70,031,47,32,21,139,43*76
###2023-12-09 12:56:28.973451$GLGSV,2,1,06,65,21,328,43,71,44,172,47,72,72,281,46,73,38,040,43*6A
###2023-12-09 12:56:28.975211$GLGSV,2,2,06,74,71,327,43,75,30,250,47,,,,,,,,*62
###2023-12-09 12:56:28.977543$GAGSV,1,1,04,04,27,312,43,19,85,234,41,21,85,141,46,27,34,048,42*6F
###2023-12-09 12:56:28.979894$GBGSV,2,1,05,14,45,193,45,24,75,018,48,25,39,260,46,26,28,061,42*66
