###2023-12-09 13:26:34.009546$GPGSV,2,2,07,28,41,081,44,29,22,050,44,31,62,060,47,,,,*45
###2023-12-09 13:26:34.012416$GLGSV,2,1,06,65,34,322,42,71,27,175,46,72,67,229,45,73,26,049,43*65
###2023-12-09 13:26:34.014548$GLGSV,2,2,06,74,63,006,43,75,40,266,44,,,,,,,,*60
###2023-12-09 13:26:34.017390$GAGSV,1,1,04,04,37,311,41,19,75,184,40,21,80,050,46,27,25,049,40*6E
###2023-12-09 13:26:34.020233$GBGSV,2,1,06,14,32,190,44,24,65,042,49,25,49,273,46,26,18,069,45*61
###2023-12-09 13:26:34.022352$GBGSV,2,2,06,33,49,220,48,35,16,060,46,,,,,,,,*69
###2023-12-09 13:26:34.023975$GNVTG,250.51,T,,M,2.86,N,5.29,K,A*22
###2023-12-09 13:26:34.025999$GNGST,182633.10,18.000,,,,0.098,0.071,0.160*52
###2023-12-09 13:26:34.027597$GNZDA,182633.10,09,12,2023,00,00*7D
###2023-12-09 13:26:34.028377$GNEBP,,,,,,M*13
###2023-12-09 13:26:34.187647$GNGGA,182633.30,4138.0778511,N,07032.3510024,W,1,24,0.6,13.218,M,-29.743,M,0.0,*5B
###2023-12-09 13:26:34.387886$GNGGA,182633.50,4138.0777807,N,07032.3511864,W,1,24,0.6,13.216,M,-29.743,M,0.0,*5B
###2023-12-09 13:26:34.587874$GNGGA,182633.70,4138.0777102,N,07032.3513826,W,1,24,0.6,13.207,M,-29.743,M,0.0,*51
###2023-12-09 13:26:34.786780$GNGGA,182633.90,4138.0776602,N,07032.3515911,W,1,24,0.6,13.212,M,-29.743,M,0.0,*5E
###2023-12-09 13:26:34.991515$GNRMC,182634.10,A,4138.0776284,N,07032.3518106,W,3.07,258.26,091223,,,A*55
###2023-12-09 13:26:34.994379$GNGGA,182634.10,4138.0776284,N,07032.3518106,W,1,24,0.6,13.210,M,-29.743,M,0.0,*5A
###2023-12-09 13:26:34.996190$GPGSA,A,3,03,04,16,26,28,29,31,,,,,,1.1,0.6,0.9*3A
###2023-12-09 13:26:34.997905$GLGSA,A,3,65,71,72,73,74,75,,,,,,,1.1,0.6,0.9*24
###2023-12-09 13:26:34.999499$GAGSA,A,3,04,19,21,27,,,,,,,,,1.1,0.6,0.9*26
###2023-12-09 13:26:35.001213$GBGSA,A,3,14,24,25,26,33,35,,,,,,,1.1,0.6,0.9*29
###2023-12-09 13:26:35.003553$GPGSV,2,1,07,03,29,250,43,04,43,309,43,16,62,219,46,26,88,044,48*78
###2023-12-09 13:26:35.005591$GPGSV,2,2,07,28,41,081,44,29,22,050,41,31,62,060,47,,,,*40
###2023-12-09 13:26:35.007929$GLGSV,2,1,06,65,34,322,42,71,27,175,45,72,67,229,45,73,26,049,41*64
###2023-12-09 13:26:35.009684$GLGSV,2,2,06,74,63,006,43,75,40,266,43,,,,,,,,*67
###2023-12-09 13:26:35.012030$GAGSV,1,1,04,04,37,311,42,19,75,184,41,21,80,050,46,27,25,049,39*62
###2023-12-09 13:26:35.014375$GBGSV,2,1,06,14,32,190,43,24,65,042,49,25,49,273,45,26,18,069,45*65
###2023-12-09 13:26:35.016134$GBGSV,2,2,06,33,49,220,47,35,16,060,45,,,,,,,,*65
###2023-12-09 13:26:35.017460$GNVTG,258.26,T,,M,3.07,N,5.69,K,A*26
###2023-12-09 13:26:35.019123$GNGST,182634.10,18.000,,,,0.098,0.071,0.160*55
###2023-12-09 13:26:35.020417$GNZDA,182634.10,09,12,2023,00,00*7A
###2023-12-09 13:26:35.021054$GNEBP,,,,,,M*13
###2023-12-09 13:26:35.187197$GNGGA,182634.30,4138.0775928,N,07032.3520315,W,1,24,0.6,13.195,M,-29.743,M,0.0,*53
###2023-12-09 13:26:35.386710$GNGGA,182634.50,4138.0775455,N,07032.3522517,W,1,24,0.6,13.193,M,-29.743,M,0.0,*52
###2023-12-09 13:26:35.588498$GNGGA,182634.70,4138.0774990,N,07032.3524751,W,1,24,0.6,13.202,M,-29.743,M,0.0,*58
###2023-12-09 13:26:35.787927$GNGGA,182634.90,4138.0774647,N,07032.3527095,W,1,24,0.6,13.208,M,-29.743,M,0.0,*55
###2023-12-09 13:26:35.991685$GNRMC,182635.10,A,4138.0774297,N,07032.3529524,W,3.32,256.79,091223,,,A*50
###2023-12-09 13:26:35.994595$GNGGA,182635.10,4138.0774297,N,07032.3529524,W,1,24,0.6,13.202,M,-29.743,M,0.0,*5E
###2023-12-09 13:26:35.996400$GPGSA,A,3,03,04,16,26,28,29,31,,,,,,1.1,0.6,0.9*3A
###2023-12-09 13:26:35.998109$GLGSA,A,3,65,71,72,73,74,75,,,,,,,1.1,0.6,0.9*24
###2023-12-09 13:26:35.999702$GAGSA,A,3,04,19,21,27,,,,,,,,,1.1,0.6,0.9*26
###2023-12-09 13:26:36.001413$GBGSA,A,3,14,24,25,26,33,35,,,,,,,1.1,0.6,0.9*29
###2023-12-09 13:26:36.003749$GPGSV,2,1,07,03,29,250,42,04,43,309,44,16,62,219,46,26,88,044,48*7E
###2023-12-09 13:26:36.005778$GPGSV,2,2,07,28,41,081,45,29,22,050,42,31,62,060,46,,,,*43
###2023-12-09 13:26:36.008115$GLGSV,2,1,06,65,34,322,43,71,27,175,45,72,67,229,45,73,26,049,42*66
###2023-12-09 13:26:36.009860$GLGSV,2,2,06,74,63,006,43,75,40,266,44,,,,,,,,*60
###2023-12-09 13:26:36.012191$GAGSV,1,1,04,04,37,311,41,19,75,184,41,21,80,050,46,27,25,049,40*6F
###2023-12-09 13:26:36.014527$GBGSV,2,1,06,14,32,190,42,24,65,042,49,25,49,273,46,26,18,069,45*67
###2023-12-09 13:26:36.016284$GBGSV,2,2,06,33,48,220,47,35,16,060,45,,,,,,,,*64
###2023-12-09 13:26:36.017606$GNVTG,256.79,T,,M,3.32,N,6.16,K,A*2F
###2023-12-09 13:26:36.019259$GNGST,182635.10,18.000,,,,0.098,0.071,0.160*54
###2023-12-09 13:26:36.020547$GNZDA,182635.10,09,12,2023,00,00*7B
###2023-12-09 13:26:36.021182$GNEBP,,,,,,M*13
###2023-12-09 13:26:36.189806$GNGGA,182635.30,4138.0773809,N,07032.3531896,W,1,24,0.6,13.202,M,-29.743,M,0.0,*5B
###2023-12-09 13:26:36.386436$GNGGA,182635.50,4138.0773271,N,07032.3534291,W,1,24,0.6,13.206,M,-29.743,M,0.0,*54
###2023-12-09 13:26:36.588319$GNGGA,182635.70,4138.0772648,N,07032.3536642,W,1,24,0.6,13.197,M,-29.743,M,0.0,*5A
###2023-12-09 13:26:36.788242$GNGGA,182635.90,4138.0772029,N,07032.3538953,W,1,24,0.6,13.194,M,-29.743,M,0.0,*57
###2023-12-09 13:26:36.992614$GNRMC,182636.10,A,4138.0771437,N,07032.3541239,W,3.23,247.56,091223,,,A*52
###2023-12-09 13:26:36.995507$GNGGA,182636.10,4138.0771437,N,07032.3541239,W,1,24,0.6,13.196,M,-29.743,M,0.0,*5F
###2023-12-09 13:26:36.997314$GPGSA,A,3,03,04,16,26,28,29,31,,,,,,1.1,0.6,0.9*3A
###2023-12-09 13:26:36.999044$GLGSA,A,3,65,71,72,73,74,75,,,,,,,1.1,0.6,0.9*24
###2023-12-09 13:26:37.000636$GAGSA,A,3,04,19,21,27,,,,,,,,,1.1,0.6,0.9*26
###2023-12-09 13:26:37.002351$GBGSA,A,3,14,24,25,26,33,35,,,,,,,1.1,0.6,0.9*29
###2023-12-09 13:26:37.004708$GPGSV,2,1,07,03,29,250,41,04,43,309,44,16,62,219,45,26,88,044,48*7E
###2023-12-09 13:26:37.006765$GPGSV,2,2,07,28,41,081,45,29,22,050,43,31,62,060,47,,,,*43
###2023-12-09 13:26:37.009105$GLGSV,2,1,06,65,34,322,42,71,27,175,43,72,67,229,45,73,26,049,42*61
###2023-12-09 13:26:37.010872$GLGSV,2,2,06,74,63,006,43,75,40,266,44,,,,,,,,*60
###2023-12-09 13:26:37.013215$GAGSV,1,1,04,04,37,311,42,19,75,184,40,21,80,050,45,27,25,049,40*6E
###2023-12-09 13:26:37.015566$GBGSV,2,1,06,14,32,190,43,24,65,042,47,25,49,273,44,26,18,069,43*6C
###2023-12-09 13:26:37.017318$GBGSV,2,2,06,33,48,220,45,35,16,059,44,,,,,,,,*6D
###2023-12-09 13:26:37.018658$GNVTG,247.56,T,,M,3.23,N,5.98,K,A*27
###2023-12-09 13:26:37.020313$GNGST,182636.10,18.000,,,,0.098,0.071,0.160*57
###2023-12-09 13:26:37.021605$GNZDA,182636.10,09,12,2023,00,00*78
###2023-12-09 13:26:37.022242$GNEBP,,,,,,M*13
###2023-12-09 13:26:37.188682$GNGGA,182636.30,4138.0770665,N,07032.3543403,W,1,24,0.6,13.180,M,-29.743,M,0.0,*53
###2023-12-09 13:26:37.391724$GNGGA,182636.50,4138.0769768,N,07032.3545427,W,1,24,0.6,13.167,M,-29.743,M,0.0,*58
###2023-12-09 13:26:37.590547$GNGGA,182636.70,4138.0769019,N,07032.3547612,W,1,24,0.6,13.193,M,-29.743,M,0.0,*56
###2023-12-09 13:26:37.787633$GNGGA,182636.90,4138.0768361,N,07032.3550043,W,1,24,0.6,13.216,M,-29.743,M,0.0,*5F
###2023-12-09 13:26:37.990441$GNRMC,182637.10,A,4138.0767351,N,07032.3552198,W,3.36,229.32,091223,,,A*57
###2023-12-09 13:26:37.993311$GNGGA,182637.10,4138.0767351,N,07032.3552198,W,1,24,0.6,13.201,M,-29.743,M,0.0,*59
###2023-12-09 13:26:37.995111$GPGSA,A,3,03,04,16,26,28,29,31,,,,,,1.1,0.6,0.9*3A
###2023-12-09 13:26:37.996820$GLGSA,A,3,65,71,72,73,74,75,,,,,,,1.1,0.6,0.9*24
###2023-12-09 13:26:37.998392$GAGSA,A,3,04,19,21,27,,,,,,,,,1.1,0.6,0.9*26
###2023-12-09 13:26:38.000111$GBGSA,A,3,14,24,25,26,33,35,,,,,,,1.1,0.6,0.9*29
###2023-12-09 13:26:38.002423$GPGSV,2,1,07,03,29,250,41,04,43,309,45,16,62,219,45,26,88,044,47*70
###2023-12-09 13:26:38.004466$GPGSV,2,2,07,28,41,081,42,29,22,050,43,31,62,060,45,,,,*46
###2023-12-09 13:26:38.006794$GLGSV,2,1,06,65,35,321,44,71,27,175,43,72,67,229,45,73,26,049,44*63
###2023-12-09 13:26:38.008531$GLGSV,2,2,06,74,63,006,43,75,40,266,46,,,,,,,,*62
###2023-12-09 13:26:38.010850$GAGSV,1,1,04,04,37,311,42,19,75,184,40,21,80,050,45,27,25,049,41*6F
###2023-12-09 13:26:38.013184$GBGSV,2,1,06,14,32,190,43,24,65,042,48,25,49,273,46,26,18,069,42*60
###2023-12-09 13:26:38.014965$GBGSV,2,2,06,33,48,220,45,35,16,059,44,,,,,,,,*6D
###2023-12-09 13:26:38.016289$GNVTG,229.32,T,,M,3.36,N,6.23,K,A*2A
###2023-12-09 13:26:38.018171$GNGST,182637.10,18.000,,,,0.098,0.071,0.160*56
###2023-12-09 13:26:38.019485$GNZDA,182637.10,09,12,2023,00,00*79
###2023-12-09 13:26:38.020128$GNEBP,,,,,,M*13
###2023-12-09 13:26:38.186618$GNGGA,182637.30,4138.0766176,N,07032.3554146,W,1,24,0.6,13.190,M,-29.743,M,0.0,*53
###2023-12-09 13:26:38.386895$GNGGA,182637.50,4138.0765207,N,07032.3556412,W,1,24,0.6,13.215,M,-29.743,M,0.0,*5B
###2023-12-09 13:26:38.588905$GNGGA,182637.70,4138.0764246,N,07032.3558732,W,1,24,0.6,13.223,M,-29.743,M,0.0,*57
###2023-12-09 13:26:38.787701$GNGGA,182637.90,4138.0762990,N,07032.3560690,W,1,24,0.6,13.194,M,-29.743,M,0.0,*52
###2023-12-09 13:26:38.992655$GNRMC,182638.10,A,4138.0761622,N,07032.3562431,W,3.42,227.69,091223,,,A*59
###2023-12-09 13:26:38.995526$GNGGA,182638.10,4138.0761622,N,07032.3562431,W,1,24,0.6,13.171,M,-29.743,M,0.0,*50
