###2023-12-09 13:11:19.984683$GNGGA,181119.10,4138.0336552,N,07032.2762412,W,1,24,0.7,12.910,M,-29.743,M,0.0,*58
###2023-12-09 13:11:19.986499$GPGSA,A,3,03,04,16,26,28,29,31,,,,,,1.2,0.7,1.0*30
###2023-12-09 13:11:19.988240$GLGSA,A,3,65,71,72,73,74,75,,,,,,,1.2,0.7,1.0*2E
###2023-12-09 13:11:19.989832$GAGSA,A,3,04,19,21,27,,,,,,,,,1.2,0.7,1.0*2C
###2023-12-09 13:11:19.991566$GBGSA,A,3,14,24,25,26,33,35,,,,,,,1.2,0.7,1.0*23
###2023-12-09 13:11:19.993900$GPGSV,2,1,07,03,33,256,42,04,37,311,43,16,55,215,46,26,84,210,48*79
###2023-12-09 13:11:19.995964$GPGSV,2,2,07,28,46,074,44,29,24,057,40,31,67,046,46,,,,*4D
###2023-12-09 13:11:19.998307$GLGSV,2,1,06,65,28,326,42,71,35,174,46,72,72,250,46,73,31,045,43*6D
###2023-12-09 13:11:20.000083$GLGSV,2,2,06,74,67,351,42,75,36,258,46,,,,,,,,*6A
###2023-12-09 13:11:20.002417$GAGSV,1,1,04,04,32,312,43,19,81,195,41,21,84,075,46,27,30,048,41*67
###2023-12-09 13:11:20.004770$GBGSV,2,1,06,14,39,192,46,24,70,032,48,25,44,266,48,26,23,065,42*6C
###2023-12-09 13:11:20.006519$GBGSV,2,2,06,33,54,227,47,35,15,065,42,,,,,,,,*6F
###2023-12-09 13:11:20.007788$GNVTG,8.87,T,,M,2.47,N,4.57,K,A*23
###2023-12-09 13:11:20.009434$GNGST,181119.10,18.000,,,,0.095,0.071,0.170*52
###2023-12-09 13:11:20.010738$GNZDA,181119.10,09,12,2023,00,00*71
###2023-12-09 13:11:20.011383$GNEBP,,,,,,M*13
###2023-12-09 13:11:20.175035$GNGGA,181119.30,4138.0337922,N,07032.2762095,W,1,24,0.7,12.920,M,-29.743,M,0.0,*58
###2023-12-09 13:11:20.371805$GNGGA,181119.50,4138.0339266,N,07032.2761616,W,1,24,0.7,12.920,M,-29.743,M,0.0,*55
###2023-12-09 13:11:20.572433$GNGGA,181119.70,4138.0340481,N,07032.2761002,W,1,24,0.7,12.918,M,-29.743,M,0.0,*5E
###2023-12-09 13:11:20.775031$GNGGA,181119.90,4138.0341613,N,07032.2760423,W,1,24,0.7,12.908,M,-29.743,M,0.0,*5F
###2023-12-09 13:11:20.981829$GNRMC,181120.10,A,4138.0342782,N,07032.2759942,W,2.16,16.17,091223,,,A*61
###2023-12-09 13:11:20.984719$GNGGA,181120.10,4138.0342782,N,07032.2759942,W,1,24,0.7,12.891,M,-29.743,M,0.0,*56
###2023-12-09 13:11:20.986521$GPGSA,A,3,03,04,16,26,28,29,31,,,,,,1.2,0.7,1.0*30
###2023-12-09 13:11:20.988259$GLGSA,A,3,65,71,72,73,74,75,,,,,,,1.2,0.7,1.0*2E
###2023-12-09 13:11:20.989843$GAGSA,A,3,04,19,21,27,,,,,,,,,1.2,0.7,1.0*2C
###2023-12-09 13:11:20.991571$GBGSA,A,3,14,24,25,26,33,35,,,,,,,1.2,0.7,1.0*23
###2023-12-09 13:11:20.993895$GPGSV,2,1,07,03,33,256,41,04,37,311,43,16,55,215,46,26,84,210,48*7A
###2023-12-09 13:11:20.995940$GPGSV,2,2,07,28,46,074,44,29,24,057,41,31,67,046,46,,,,*4C
###2023-12-09 13:11:20.998263$GLGSV,2,1,06,65,28,326,41,71,35,174,47,72,72,250,46,73,31,045,44*68
###2023-12-09 13:11:21.000018$GLGSV,2,2,06,74,67,351,42,75,36,258,45,,,,,,,,*69
###2023-12-09 13:11:21.002337$GAGSV,1,1,04,04,32,312,43,19,81,195,41,21,84,075,46,27,30,048,42*64
###2023-12-09 13:11:21.004669$GBGSV,2,1,06,14,39,192,45,24,70,032,48,25,44,266,46,26,23,065,42*61
###2023-12-09 13:11:21.006412$GBGSV,2,2,06,33,54,227,47,35,15,065,42,,,,,,,,*6F
###2023-12-09 13:11:21.007716$GNVTG,16.17,T,,M,2.16,N,4.00,K,A*13
###2023-12-09 13:11:21.009358$GNGST,181120.10,18.000,,,,0.095,0.071,0.170*58
###2023-12-09 13:11:21.010655$GNZDA,181120.10,09,12,2023,00,00*7B
###2023-12-09 13:11:21.011292$GNEBP,,,,,,M*13
###2023-12-09 13:11:21.174583$GNGGA,181120.30,4138.0343904,N,07032.2759541,W,1,24,0.7,12.881,M,-29.743,M,0.0,*5B
###2023-12-09 13:11:21.372780$GNGGA,181120.50,4138.0345014,N,07032.2759106,W,1,24,0.7,12.897,M,-29.743,M,0.0,*53
###2023-12-09 13:11:21.572497$GNGGA,181120.70,4138.0346118,N,07032.2758618,W,1,24,0.7,12.913,M,-29.743,M,0.0,*5B
###2023-12-09 13:11:21.772477$GNGGA,181120.90,4138.0347067,N,07032.2757959,W,1,24,0.7,12.903,M,-29.743,M,0.0,*59
###2023-12-09 13:11:21.975496$GNRMC,181121.10,A,4138.0347865,N,07032.2757247,W,1.61,31.30,091223,,,A*60
###2023-12-09 13:11:21.978361$GNGGA,181121.10,4138.0347865,N,07032.2757247,W,1,24,0.7,12.880,M,-29.743,M,0.0,*54
###2023-12-09 13:11:21.980168$GPGSA,A,3,03,04,16,26,28,29,31,,,,,,1.2,0.7,1.0*30
###2023-12-09 13:11:21.981890$GLGSA,A,3,65,71,72,73,74,75,,,,,,,1.2,0.7,1.0*2E
###2023-12-09 13:11:21.983491$GAGSA,A,3,04,19,21,27,,,,,,,,,1.2,0.7,1.0*2C
###2023-12-09 13:11:21.985212$GBGSA,A,3,14,24,25,26,33,35,,,,,,,1.2,0.7,1.0*23
###2023-12-09 13:11:21.987552$GPGSV,2,1,07,03,33,256,41,04,37,311,45,16,55,215,46,26,84,210,48*7C
###2023-12-09 13:11:21.989603$GPGSV,2,2,07,28,46,074,44,29,24,057,42,31,67,046,46,,,,*4F
###2023-12-09 13:11:21.991951$GLGSV,2,1,06,65,28,326,43,71,35,174,46,72,72,250,46,73,31,045,44*6B
###2023-12-09 13:11:21.993711$GLGSV,2,2,06,74,67,351,41,75,36,258,44,,,,,,,,*6B
###2023-12-09 13:11:21.996061$GAGSV,1,1,04,04,32,312,44,19,81,195,41,21,84,075,46,27,30,048,42*63
###2023-12-09 13:11:21.998400$GBGSV,2,1,06,14,39,192,46,24,70,032,48,25,44,266,47,26,23,065,42*63
###2023-12-09 13:11:22.000168$GBGSV,2,2,06,33,54,227,47,35,15,065,42,,,,,,,,*6F
###2023-12-09 13:11:22.001467$GNVTG,31.30,T,,M,1.61,N,2.99,K,A*16
###2023-12-09 13:11:22.003132$GNGST,181121.10,18.000,,,,0.095,0.071,0.170*59
###2023-12-09 13:11:22.004434$GNZDA,181121.10,09,12,2023,00,00*7A
###2023-12-09 13:11:22.005074$GNEBP,,,,,,M*13
###2023-12-09 13:11:22.171442$GNGGA,181121.30,4138.0348726,N,07032.2756802,W,1,24,0.7,12.883,M,-29.743,M,0.0,*58
###2023-12-09 13:11:22.374163$GNGGA,181121.50,4138.0349715,N,07032.2756585,W,1,24,0.7,12.890,M,-29.743,M,0.0,*5F
###2023-12-09 13:11:22.574942$GNGGA,181121.70,4138.0350577,N,07032.2756100,W,1,24,0.7,12.890,M,-29.743,M,0.0,*5A
###2023-12-09 13:11:22.772447$GNGGA,181121.90,4138.0351285,N,07032.2755476,W,1,24,0.7,12.902,M,-29.743,M,0.0,*52
###2023-12-09 13:11:22.976103$GNRMC,181122.10,A,4138.0351980,N,07032.2754840,W,1.54,33.65,091223,,,A*64
###2023-12-09 13:11:22.978996$GNGGA,181122.10,4138.0351980,N,07032.2754840,W,1,24,0.7,12.894,M,-29.743,M,0.0,*51
###2023-12-09 13:11:22.980798$GPGSA,A,3,03,04,16,26,28,29,31,,,,,,1.2,0.7,1.0*30
###2023-12-09 13:11:22.982520$GLGSA,A,3,65,71,72,73,74,75,,,,,,,1.2,0.7,1.0*2E
###2023-12-09 13:11:22.984111$GAGSA,A,3,04,19,21,27,,,,,,,,,1.2,0.7,1.0*2C
###2023-12-09 13:11:22.985822$GBGSA,A,3,14,24,25,26,33,35,,,,,,,1.2,0.7,1.0*23
###2023-12-09 13:11:22.988164$GPGSV,2,1,07,03,33,256,45,04,37,311,46,16,55,215,48,26,84,210,50*7C
###2023-12-09 13:11:22.990209$GPGSV,2,2,07,28,46,074,45,29,24,057,42,31,67,046,48,,,,*40
###2023-12-09 13:11:22.992550$GLGSV,2,1,06,65,28,326,42,71,35,174,47,72,72,250,46,73,31,045,44*6B
###2023-12-09 13:11:22.994302$GLGSV,2,2,06,74,67,351,42,75,36,258,45,,,,,,,,*69
###2023-12-09 13:11:22.996640$GAGSV,1,1,04,04,32,312,44,19,81,195,41,21,84,075,46,27,30,048,43*62
###2023-12-09 13:11:22.998979$GBGSV,2,1,06,14,39,192,44,24,70,032,48,25,44,266,45,26,23,065,40*61
###2023-12-09 13:11:23.000731$GBGSV,2,2,06,33,54,227,47,35,15,065,40,,,,,,,,*6D
###2023-12-09 13:11:23.002028$GNVTG,33.65,T,,M,1.54,N,2.84,K,A*1E
###2023-12-09 13:11:23.003691$GNGST,181122.10,18.000,,,,0.095,0.071,0.170*5A
###2023-12-09 13:11:23.004981$GNZDA,181122.10,09,12,2023,00,00*79
###2023-12-09 13:11:23.005619$GNEBP,,,,,,M*13
###2023-12-09 13:11:23.172433$GNGGA,181122.30,4138.0352722,N,07032.2754291,W,1,24,0.7,12.877,M,-29.743,M,0.0,*5D
###2023-12-09 13:11:23.372827$GNGGA,181122.50,4138.0353488,N,07032.2753936,W,1,24,0.7,12.870,M,-29.743,M,0.0,*5F
###2023-12-09 13:11:23.573379$GNGGA,181122.70,4138.0354173,N,07032.2753470,W,1,24,0.7,12.868,M,-29.743,M,0.0,*5D
###2023-12-09 13:11:23.773380$GNGGA,181122.90,4138.0354759,N,07032.2752760,W,1,24,0.7,12.873,M,-29.743,M,0.0,*54
###2023-12-09 13:11:23.975281$GNRMC,181123.10,A,4138.0355416,N,07032.2752005,W,1.67,36.39,091223,,,A*60
###2023-12-09 13:11:23.978132$GNGGA,181123.10,4138.0355416,N,07032.2752005,W,1,24,0.7,12.878,M,-29.743,M,0.0,*5B
###2023-12-09 13:11:23.979933$GPGSA,A,3,03,04,16,26,28,29,31,,,,,,1.2,0.7,1.0*30
###2023-12-09 13:11:23.981648$GLGSA,A,3,65,71,72,73,74,75,,,,,,,1.2,0.7,1.0*2E
###2023-12-09 13:11:23.983244$GAGSA,A,3,04,19,21,27,,,,,,,,,1.2,0.7,1.0*2C
###2023-12-09 13:11:23.984951$GBGSA,A,3,14,24,25,26,33,35,,,,,,,1.2,0.7,1.0*23
###2023-12-09 13:11:23.987286$GPGSV,2,1,07,03,33,256,45,04,37,311,45,16,55,215,46,26,84,210,49*79
###2023-12-09 13:11:23.989322$GPGSV,2,2,07,28,46,074,45,29,24,057,41,31,67,046,47,,,,*4C
###2023-12-09 13:11:23.991903$GLGSV,2,1,06,65,28,326,42,71,35,174,46,72,72,250,46,73,31,045,42*6C
###2023-12-09 13:11:23.993672$GLGSV,2,2,06,74,67,351,42,75,36,258,46,,,,,,,,*6A
###2023-12-09 13:11:23.996012$GAGSV,1,1,04,04,32,312,43,19,81,195,41,21,84,075,46,27,30,048,41*67
###2023-12-09 13:11:23.998338$GBGSV,2,1,06,14,39,192,44,24,70,032,48,25,44,266,46,26,23,065,41*63
###2023-12-09 13:11:24.000099$GBGSV,2,2,06,33,54,227,47,35,15,065,41,,,,,,,,*6C
###2023-12-09 13:11:24.001386$GNVTG,36.39,T,,M,1.67,N,3.10,K,A*1E
###2023-12-09 13:11:24.003042$GNGST,181123.10,18.000,,,,0.095,0.071,0.170*5B
###2023-12-09 13:11:24.004333$GNZDA,181123.10,09,12,2023,00,00*78
###2023-12-09 13:11:24.004969$GNEBP,,,,,,M*13
