###2023-12-09 13:43:25.027437$GNEBP,,,,,,M*13
###2023-12-09 13:43:25.198953$GNGGA,184324.30,4138.0393153,N,07032.4384995,W,1,19,0.8,15.683,M,-29.746,M,0.0,*57
###2023-12-09 13:43:25.399258$GNGGA,184324.50,4138.0393142,N,07032.4384989,W,1,19,0.8,15.675,M,-29.746,M,0.0,*55
###2023-12-09 13:43:25.599388$GNGGA,184324.70,4138.0393106,N,07032.4384991,W,1,19,0.8,15.666,M,-29.746,M,0.0,*5C
###2023-12-09 13:43:25.799771$GNGGA,184324.90,4138.0393041,N,07032.4385006,W,1,19,0.8,15.652,M,-29.746,M,0.0,*51
###2023-12-09 13:43:26.004318$GNRMC,184325.10,A,4138.0393012,N,07032.4385006,W,0.04,243.17,091223,,,A*58
###2023-12-09 13:43:26.007410$GNGGA,184325.10,4138.0393012,N,07032.4385006,W,1,19,0.8,15.647,M,-29.746,M,0.0,*5A
###2023-12-09 13:43:26.009198$GPGSA,A,3,04,16,26,28,29,31,,,,,,,1.3,0.8,1.1*3C
###2023-12-09 13:43:26.010859$GLGSA,A,3,65,73,74,75,83,,,,,,,,1.3,0.8,1.1*29
###2023-12-09 13:43:26.012377$GAGSA,A,3,04,21,27,,,,,,,,,,1.3,0.8,1.1*2B
###2023-12-09 13:43:26.014009$GBGSA,A,3,12,14,24,25,35,,,,,,,,1.3,0.8,1.1*2B
###2023-12-09 13:43:26.016337$GPGSV,2,1,06,04,50,305,46,16,71,227,39,26,80,041,43,28,35,088,43*70
###2023-12-09 13:43:26.018072$GPGSV,2,2,06,29,19,044,41,31,57,071,50,,,,,,,,*7A
###2023-12-09 13:43:26.020390$GLGSV,2,1,05,65,42,314,44,73,19,055,43,74,56,021,35,75,46,277,41*69
###2023-12-09 13:43:26.021831$GLGSV,2,2,05,83,16,043,35,,,,,,,,,,,,*5D
###2023-12-09 13:43:26.023850$GAGSV,1,1,03,04,42,308,43,21,74,044,40,27,20,051,41,,,,*57
###2023-12-09 13:43:26.026159$GBGSV,2,1,05,12,18,124,39,14,25,189,35,24,60,050,42,25,53,280,46*64
###2023-12-09 13:43:26.027612$GBGSV,2,2,05,35,16,053,38,,,,,,,,,,,,*52
###2023-12-09 13:43:26.028920$GNVTG,243.17,T,,M,0.04,N,0.07,K,A*23
###2023-12-09 13:43:26.030525$GNGST,184325.10,8.000,,,,0.220,0.120,0.340*63
###2023-12-09 13:43:26.031818$GNZDA,184325.10,09,12,2023,00,00*79
###2023-12-09 13:43:26.032453$GNEBP,,,,,,M*13
###2023-12-09 13:43:26.198467$GNGGA,184325.30,4138.0392970,N,07032.4385017,W,1,19,0.8,15.634,M,-29.746,M,0.0,*50
###2023-12-09 13:43:26.418215$GNGGA,184325.50,4138.0392949,N,07032.4385020,W,1,19,0.8,15.627,M,-29.746,M,0.0,*5A
###2023-12-09 13:43:26.600609$GNGGA,184325.70,4138.0392909,N,07032.4385028,W,1,19,0.8,15.614,M,-29.746,M,0.0,*54
###2023-12-09 13:43:26.799296$GNGGA,184325.90,4138.0392894,N,07032.4385043,W,1,19,0.8,15.601,M,-29.746,M,0.0,*56
###2023-12-09 13:43:27.001017$GNRMC,184326.10,A,4138.0392877,N,07032.4385046,W,0.02,243.17,091223,,,A*53
###2023-12-09 13:43:27.003911$GNGGA,184326.10,4138.0392877,N,07032.4385046,W,1,18,0.8,15.596,M,-29.746,M,0.0,*59
###2023-12-09 13:43:27.005640$GPGSA,A,3,04,16,26,28,29,31,,,,,,,1.3,0.8,1.1*3C
###2023-12-09 13:43:27.007237$GLGSA,A,3,65,73,74,75,,,,,,,,,1.3,0.8,1.1*22
###2023-12-09 13:43:27.008758$GAGSA,A,3,04,21,27,,,,,,,,,,1.3,0.8,1.1*2B
###2023-12-09 13:43:27.010397$GBGSA,A,3,12,14,24,25,35,,,,,,,,1.3,0.8,1.1*2B
###2023-12-09 13:43:27.012736$GPGSV,2,1,06,04,50,305,46,16,71,227,38,26,79,041,42,28,35,088,43*76
###2023-12-09 13:43:27.014488$GPGSV,2,2,06,29,19,044,41,31,57,071,50,,,,,,,,*7A
###2023-12-09 13:43:27.016814$GLGSV,1,1,04,65,42,314,44,73,19,055,43,74,56,021,36,75,46,277,42*6B
###2023-12-09 13:43:27.018858$GAGSV,1,1,03,04,42,308,43,21,74,044,40,27,20,051,41,,,,*57
###2023-12-09 13:43:27.021189$GBGSV,2,1,05,12,18,124,38,14,25,189,35,24,60,050,41,25,53,280,46*66
###2023-12-09 13:43:27.022654$GBGSV,2,2,05,35,16,053,37,,,,,,,,,,,,*5D
###2023-12-09 13:43:27.023972$GNVTG,243.17,T,,M,0.02,N,0.04,K,A*26
###2023-12-09 13:43:27.025615$GNGST,184326.10,7.200,,,,0.220,0.120,0.330*6A
###2023-12-09 13:43:27.026921$GNZDA,184326.10,09,12,2023,00,00*7A
###2023-12-09 13:43:27.027560$GNEBP,,,,,,M*13
###2023-12-09 13:43:27.202136$GNGGA,184326.30,4138.0392850,N,07032.4385058,W,1,19,0.8,15.587,M,-29.746,M,0.0,*50
###2023-12-09 13:43:27.399424$GNGGA,184326.50,4138.0392816,N,07032.4385063,W,1,18,0.8,15.580,M,-29.746,M,0.0,*5A
###2023-12-09 13:43:27.598865$GNGGA,184326.70,4138.0392783,N,07032.4385067,W,1,18,0.8,15.568,M,-29.746,M,0.0,*59
###2023-12-09 13:43:27.801919$GNGGA,184326.90,4138.0392759,N,07032.4385085,W,1,18,0.8,15.556,M,-29.746,M,0.0,*51
###2023-12-09 13:43:28.002236$GNRMC,184327.10,A,4138.0392730,N,07032.4385093,W,0.04,243.17,091223,,,A*50
###2023-12-09 13:43:28.005117$GNGGA,184327.10,4138.0392730,N,07032.4385093,W,1,18,0.8,15.546,M,-29.746,M,0.0,*51
###2023-12-09 13:43:28.006847$GPGSA,A,3,04,16,26,28,29,31,,,,,,,1.3,0.8,1.1*3C
###2023-12-09 13:43:28.008423$GLGSA,A,3,65,73,74,75,,,,,,,,,1.3,0.8,1.1*22
###2023-12-09 13:43:28.009930$GAGSA,A,3,04,21,27,,,,,,,,,,1.3,0.8,1.1*2B
###2023-12-09 13:43:28.011583$GBGSA,A,3,12,14,24,25,35,,,,,,,,1.3,0.8,1.1*2B
###2023-12-09 13:43:28.013904$GPGSV,2,1,06,04,50,305,46,16,71,227,38,26,79,041,43,28,35,088,43*77
###2023-12-09 13:43:28.015654$GPGSV,2,2,06,29,19,044,41,31,57,071,50,,,,,,,,*7A
###2023-12-09 13:43:28.018015$GLGSV,1,1,04,65,42,314,43,73,19,055,42,74,56,021,35,75,46,277,41*6D
###2023-12-09 13:43:28.020084$GAGSV,1,1,03,04,42,308,43,21,74,044,40,27,20,051,41,,,,*57
###2023-12-09 13:43:28.022422$GBGSV,2,1,05,12,18,124,40,14,25,189,35,24,60,050,43,25,53,280,47*6A
###2023-12-09 13:43:28.023888$GBGSV,2,2,05,35,16,053,38,,,,,,,,,,,,*52
###2023-12-09 13:43:28.025209$GNVTG,243.17,T,,M,0.04,N,0.07,K,A*23
###2023-12-09 13:43:28.026830$GNGST,184327.10,7.400,,,,0.220,0.120,0.330*6D
###2023-12-09 13:43:28.028120$GNZDA,184327.10,09,12,2023,00,00*7B
###2023-12-09 13:43:28.028757$GNEBP,,,,,,M*13
###2023-12-09 13:43:28.198943$GNGGA,184327.30,4138.0392714,N,07032.4385097,W,1,18,0.8,15.530,M,-29.746,M,0.0,*50
###2023-12-09 13:43:28.399701$GNGGA,184327.50,4138.0392682,N,07032.4385100,W,1,19,0.8,15.514,M,-29.746,M,0.0,*50
###2023-12-09 13:43:28.598024$GNGGA,184327.70,4138.0392644,N,07032.4385109,W,1,19,0.8,15.502,M,-29.746,M,0.0,*56
###2023-12-09 13:43:28.798913$GNGGA,184327.90,4138.0392614,N,07032.4385123,W,1,19,0.8,15.486,M,-29.746,M,0.0,*58
###2023-12-09 13:43:29.001484$GNRMC,184328.10,A,4138.0392587,N,07032.4385135,W,0.04,243.17,091223,,,A*5C
###2023-12-09 13:43:29.004496$GNGGA,184328.10,4138.0392587,N,07032.4385135,W,1,19,0.8,15.473,M,-29.746,M,0.0,*5B
###2023-12-09 13:43:29.006234$GPGSA,A,3,04,16,26,28,29,31,,,,,,,1.3,0.8,1.1*3C
###2023-12-09 13:43:29.007899$GLGSA,A,3,65,73,74,75,83,,,,,,,,1.3,0.8,1.1*29
###2023-12-09 13:43:29.009459$GAGSA,A,3,04,21,27,,,,,,,,,,1.3,0.8,1.1*2B
###2023-12-09 13:43:29.011120$GBGSA,A,3,12,14,24,25,35,,,,,,,,1.3,0.8,1.1*2B
###2023-12-09 13:43:29.013454$GPGSV,2,1,06,04,50,305,45,16,71,227,37,26,79,041,42,28,35,088,43*7A
###2023-12-09 13:43:29.015208$GPGSV,2,2,06,29,19,044,40,31,57,071,50,,,,,,,,*7B
###2023-12-09 13:43:29.017534$GLGSV,2,1,05,65,42,314,44,73,19,055,43,74,56,021,35,75,46,277,41*69
###2023-12-09 13:43:29.019000$GLGSV,2,2,05,83,16,043,35,,,,,,,,,,,,*5D
###2023-12-09 13:43:29.021033$GAGSV,1,1,03,04,42,308,43,21,74,044,39,27,20,051,40,,,,*58
###2023-12-09 13:43:29.023374$GBGSV,2,1,05,12,18,124,40,14,25,189,35,24,60,050,42,25,53,280,46*6A
###2023-12-09 13:43:29.024836$GBGSV,2,2,05,35,16,053,39,,,,,,,,,,,,*53
###2023-12-09 13:43:29.026160$GNVTG,243.17,T,,M,0.04,N,0.07,K,A*23
###2023-12-09 13:43:29.027789$GNGST,184328.10,7.700,,,,0.220,0.120,0.330*61
###2023-12-09 13:43:29.029077$GNZDA,184328.10,09,12,2023,00,00*74
###2023-12-09 13:43:29.029714$GNEBP,,,,,,M*13
###2023-12-09 13:43:29.198943$GNGGA,184328.30,4138.0392553,N,07032.4385151,W,1,19,0.8,15.466,M,-29.746,M,0.0,*56
###2023-12-09 13:43:29.399334$GNGGA,184328.50,4138.0392544,N,07032.4385177,W,1,19,0.8,15.459,M,-29.746,M,0.0,*5E
###2023-12-09 13:43:29.598893$GNGGA,184328.70,4138.0392526,N,07032.4385189,W,1,19,0.8,15.456,M,-29.746,M,0.0,*56
###2023-12-09 13:43:29.797848$GNGGA,184328.90,4138.0392496,N,07032.4385197,W,1,19,0.8,15.448,M,-29.746,M,0.0,*52
###2023-12-09 13:43:30.001018$GNRMC,184329.10,A,4138.0392475,N,07032.4385214,W,0.04,243.17,091223,,,A*51
###2023-12-09 13:43:30.003909$GNGGA,184329.10,4138.0392475,N,07032.4385214,W,1,19,0.8,15.438,M,-29.746,M,0.0,*59
###2023-12-09 13:43:30.005645$GPGSA,A,3,04,16,26,28,29,31,,,,,,,1.3,0.8,1.1*3C
###2023-12-09 13:43:30.007313$GLGSA,A,3,65,73,74,75,83,,,,,,,,1.3,0.8,1.1*29
###2023-12-09 13:43:30.008837$GAGSA,A,3,04,21,27,,,,,,,,,,1.3,0.8,1.1*2B
###2023-12-09 13:43:30.010750$GBGSA,A,3,12,14,24,25,35,,,,,,,,1.3,0.8,1.1*2B
###2023-12-09 13:43:30.013098$GPGSV,2,1,06,04,50,305,45,16,71,227,37,26,79,041,42,28,35,088,43*7A
###2023-12-09 13:43:30.014866$GPGSV,2,2,06,29,18,043,41,31,57,071,50,,,,,,,,*7C
###2023-12-09 13:43:30.017203$GLGSV,2,1,05,65,42,314,44,73,19,055,43,74,56,021,36,75,46,277,41*6A
###2023-12-09 13:43:30.018675$GLGSV,2,2,05,83,16,043,35,,,,,,,,,,,,*5D
###2023-12-09 13:43:30.020714$GAGSV,1,1,03,04,42,308,43,21,74,044,39,27,20,051,40,,,,*58
###2023-12-09 13:43:30.023057$GBGSV,2,1,05,12,18,124,39,14,25,189,36,24,60,050,43,25,53,280,47*67
###2023-12-09 13:43:30.024522$GBGSV,2,2,05,35,16,053,38,,,,,,,,,,,,*52
