###2023-12-09 12:56:52.976038$GLGSV,2,1,06,65,22,328,42,71,43,172,46,72,73,277,45,73,37,040,43*6A
###2023-12-09 12:56:52.977823$GLGSV,2,2,06,74,70,331,42,75,30,251,44,,,,,,,,*67
###2023-12-09 12:56:52.980199$GAGSV,1,1,04,04,27,312,41,19,85,234,39,21,85,141,45,27,34,048,40*63
###2023-12-09 12:56:52.982544$GBGSV,2,1,05,14,45,193,45,24,75,020,48,25,39,260,46,26,27,062,43*60
###2023-12-09 12:56:52.984016$GBGSV,2,2,05,33,59,235,47,,,,,,,,,,,,*55
###2023-12-09 12:56:52.985304$GNVTG,72.25,T,,M,2.68,N,4.97,K,A*17
###2023-12-09 12:56:52.986964$GNGST,175652.10,18.000,,,,0.077,0.068,0.160*54
###2023-12-09 12:56:52.988254$GNZDA,175652.10,09,12,2023,00,00*72
###2023-12-09 12:56:52.988892$GNEBP,,,,,,M*13
###2023-12-09 12:56:53.157342$GNGGA,175652.30,4138.0471878,N,07032.3886624,W,1,24,0.6,13.662,M,-29.745,M,0.0,*57
###2023-12-09 12:56:53.357311$GNGGA,175652.50,4138.0472281,N,07032.3884890,W,1,24,0.6,13.680,M,-29.745,M,0.0,*51
###2023-12-09 12:56:53.557802$GNGGA,175652.70,4138.0472752,N,07032.3882884,W,1,24,0.6,13.678,M,-29.745,M,0.0,*5C
###2023-12-09 12:56:53.760115$GNGGA,175652.90,4138.0472953,N,07032.3880939,W,1,24,0.6,13.651,M,-29.745,M,0.0,*53
###2023-12-09 12:56:53.957941$GNRMC,175653.10,A,4138.0473014,N,07032.3879117,W,2.55,89.51,091223,,,A*63
###2023-12-09 12:56:53.960839$GNGGA,175653.10,4138.0473014,N,07032.3879117,W,1,24,0.6,13.667,M,-29.745,M,0.0,*56
###2023-12-09 12:56:53.962719$GPGSA,A,3,03,04,16,26,28,29,31,32,,,,,1.1,0.6,0.9*3B
###2023-12-09 12:56:53.964435$GLGSA,A,3,65,71,72,73,74,75,,,,,,,1.1,0.6,0.9*24
###2023-12-09 12:56:53.966009$GAGSA,A,3,04,19,21,27,,,,,,,,,1.1,0.6,0.9*26
###2023-12-09 12:56:53.967656$GBGSA,A,3,14,24,25,26,33,,,,,,,,1.1,0.6,0.9*2F
###2023-12-09 12:56:53.969974$GPGSV,2,1,08,03,36,265,44,04,30,311,41,16,47,211,46,26,77,209,48*73
###2023-12-09 12:56:53.972317$GPGSV,2,2,08,28,51,068,45,29,25,064,41,31,70,031,46,32,21,139,41*72
###2023-12-09 12:56:53.974655$GLGSV,2,1,06,65,22,328,41,71,43,172,45,72,73,277,46,73,37,040,45*6F
###2023-12-09 12:56:53.976399$GLGSV,2,2,06,74,70,331,42,75,30,251,42,,,,,,,,*61
###2023-12-09 12:56:53.978738$GAGSV,1,1,04,04,27,312,42,19,85,234,40,21,85,141,46,27,34,048,43*6E
###2023-12-09 12:56:53.981069$GBGSV,2,1,05,14,45,193,44,24,75,020,47,25,39,260,45,26,27,062,43*6D
###2023-12-09 12:56:53.982516$GBGSV,2,2,05,33,59,235,48,,,,,,,,,,,,*5A
###2023-12-09 12:56:53.983812$GNVTG,89.51,T,,M,2.55,N,4.72,K,A*15
###2023-12-09 12:56:53.985457$GNGST,175653.10,18.000,,,,0.078,0.068,0.160*5A
###2023-12-09 12:56:53.986756$GNZDA,175653.10,09,12,2023,00,00*73
###2023-12-09 12:56:53.987394$GNEBP,,,,,,M*13
###2023-12-09 12:56:54.158146$GNGGA,175653.30,4138.0472934,N,07032.3877088,W,1,24,0.6,13.681,M,-29.745,M,0.0,*5F
###2023-12-09 12:56:54.359050$GNGGA,175653.50,4138.0472859,N,07032.3875105,W,1,24,0.6,13.658,M,-29.745,M,0.0,*51
###2023-12-09 12:56:54.557957$GNGGA,175653.70,4138.0472668,N,07032.3873231,W,1,24,0.6,13.654,M,-29.745,M,0.0,*51
###2023-12-09 12:56:54.759040$GNGGA,175653.90,4138.0472304,N,07032.3871275,W,1,24,0.6,13.666,M,-29.745,M,0.0,*53
###2023-12-09 12:56:54.959093$GNRMC,175654.10,A,4138.0471777,N,07032.3869417,W,2.55,116.25,091223,,,A*54
###2023-12-09 12:56:54.961948$GNGGA,175654.10,4138.0471777,N,07032.3869417,W,1,24,0.6,13.646,M,-29.745,M,0.0,*56
###2023-12-09 12:56:54.963833$GPGSA,A,3,03,04,16,26,28,29,31,32,,,,,1.1,0.6,0.9*3B
###2023-12-09 12:56:54.965556$GLGSA,A,3,65,71,72,73,74,75,,,,,,,1.1,0.6,0.9*24
###2023-12-09 12:56:54.967160$GAGSA,A,3,04,19,21,27,,,,,,,,,1.1,0.6,0.9*26
###2023-12-09 12:56:54.968813$GBGSA,A,3,14,24,25,26,33,,,,,,,,1.1,0.6,0.9*2F
###2023-12-09 12:56:54.971163$GPGSV,2,1,08,03,36,265,43,04,30,311,42,16,47,211,45,26,77,209,48*74
###2023-12-09 12:56:54.973505$GPGSV,2,2,08,28,51,068,45,29,25,064,44,31,70,031,47,32,21,139,41*76
###2023-12-09 12:56:54.975855$GLGSV,2,1,06,65,22,328,42,71,43,172,44,72,73,277,45,73,37,040,45*6E
###2023-12-09 12:56:54.977605$GLGSV,2,2,06,74,70,331,42,75,30,251,42,,,,,,,,*61
###2023-12-09 12:56:54.979939$GAGSV,1,1,04,04,27,312,41,19,85,234,40,21,85,141,46,27,34,048,42*6C
###2023-12-09 12:56:54.982281$GBGSV,2,1,05,14,45,193,44,24,75,020,48,25,39,260,45,26,27,062,45*64
###2023-12-09 12:56:54.983754$GBGSV,2,2,05,33,59,235,48,,,,,,,,,,,,*5A
###2023-12-09 12:56:54.985079$GNVTG,116.25,T,,M,2.55,N,4.72,K,A*21
###2023-12-09 12:56:54.986745$GNGST,175654.10,18.000,,,,0.078,0.068,0.160*5D
###2023-12-09 12:56:54.988040$GNZDA,175654.10,09,12,2023,00,00*74
###2023-12-09 12:56:54.988678$GNEBP,,,,,,M*13
###2023-12-09 12:56:55.159017$GNGGA,175654.30,4138.0471147,N,07032.3867772,W,1,24,0.6,13.652,M,-29.745,M,0.0,*5A
###2023-12-09 12:56:55.360207$GNGGA,175654.50,4138.0470423,N,07032.3866006,W,1,24,0.6,13.658,M,-29.745,M,0.0,*55
###2023-12-09 12:56:55.559296$GNGGA,175654.70,4138.0469668,N,07032.3864324,W,1,24,0.6,13.636,M,-29.745,M,0.0,*5B
###2023-12-09 12:56:55.758056$GNGGA,175654.90,4138.0468804,N,07032.3862875,W,1,24,0.6,13.641,M,-29.745,M,0.0,*59
###2023-12-09 12:56:55.961542$GNRMC,175655.10,A,4138.0467790,N,07032.3861453,W,2.68,134.32,091223,,,A*5B
###2023-12-09 12:56:55.964429$GNGGA,175655.10,4138.0467790,N,07032.3861453,W,1,24,0.6,13.645,M,-29.745,M,0.0,*52
###2023-12-09 12:56:55.966296$GPGSA,A,3,03,04,16,26,28,29,31,32,,,,,1.1,0.6,0.9*3B
###2023-12-09 12:56:55.968030$GLGSA,A,3,65,71,72,73,74,75,,,,,,,1.1,0.6,0.9*24
###2023-12-09 12:56:55.969621$GAGSA,A,3,04,19,21,27,,,,,,,,,1.1,0.6,0.9*26
###2023-12-09 12:56:55.971285$GBGSA,A,3,14,24,25,26,33,,,,,,,,1.1,0.6,0.9*2F
###2023-12-09 12:56:55.973623$GPGSV,2,1,08,03,36,265,44,04,30,311,42,16,47,211,45,26,77,209,48*73
###2023-12-09 12:56:55.975966$GPGSV,2,2,08,28,51,068,44,29,25,064,45,31,70,031,47,32,21,139,40*77
###2023-12-09 12:56:55.978298$GLGSV,2,1,06,65,22,328,41,71,43,172,44,72,73,277,46,73,37,040,45*6E
###2023-12-09 12:56:55.980060$GLGSV,2,2,06,74,70,331,42,75,30,251,45,,,,,,,,*66
###2023-12-09 12:56:55.982396$GAGSV,1,1,04,04,27,312,41,19,85,234,40,21,85,141,46,27,34,048,43*6D
###2023-12-09 12:56:55.984751$GBGSV,2,1,05,14,45,193,43,24,75,020,48,25,39,260,46,26,27,062,45*60
###2023-12-09 12:56:55.986211$GBGSV,2,2,05,33,59,235,48,,,,,,,,,,,,*5A
###2023-12-09 12:56:55.987549$GNVTG,134.32,T,,M,2.68,N,4.97,K,A*22
###2023-12-09 12:56:55.989194$GNGST,175655.10,18.000,,,,0.079,0.067,0.160*52
###2023-12-09 12:56:55.990488$GNZDA,175655.10,09,12,2023,00,00*75
###2023-12-09 12:56:55.991135$GNEBP,,,,,,M*13
###2023-12-09 12:56:56.158173$GNGGA,175655.30,4138.0466751,N,07032.3860103,W,1,24,0.6,13.632,M,-29.745,M,0.0,*5D
###2023-12-09 12:56:56.359034$GNGGA,175655.50,4138.0465655,N,07032.3858976,W,1,24,0.6,13.635,M,-29.745,M,0.0,*5B
###2023-12-09 12:56:56.559053$GNGGA,175655.70,4138.0464446,N,07032.3857843,W,1,24,0.6,13.646,M,-29.745,M,0.0,*54
###2023-12-09 12:56:56.759453$GNGGA,175655.90,4138.0463245,N,07032.3856853,W,1,24,0.6,13.635,M,-29.745,M,0.0,*5C
###2023-12-09 12:56:56.967278$GNRMC,175656.10,A,4138.0461993,N,07032.3856124,W,2.51,164.02,091223,,,A*5E
###2023-12-09 12:56:56.970155$GNGGA,175656.10,4138.0461993,N,07032.3856124,W,1,24,0.6,13.644,M,-29.745,M,0.0,*5A
###2023-12-09 12:56:56.972030$GPGSA,A,3,03,04,16,26,28,29,31,32,,,,,1.1,0.6,0.9*3B
###2023-12-09 12:56:56.973748$GLGSA,A,3,65,71,72,73,74,75,,,,,,,1.1,0.6,0.9*24
###2023-12-09 12:56:56.975344$GAGSA,A,3,04,19,21,27,,,,,,,,,1.1,0.6,0.9*26
###2023-12-09 12:56:56.976992$GBGSA,A,3,14,24,25,26,33,,,,,,,,1.1,0.6,0.9*2F
###2023-12-09 12:56:56.979346$GPGSV,2,1,08,03,36,265,44,04,30,311,41,16,47,211,44,26,77,209,47*7E
###2023-12-09 12:56:56.981688$GPGSV,2,2,08,28,51,068,45,29,25,064,44,31,70,031,47,32,21,139,41*76
###2023-12-09 12:56:56.984020$GLGSV,2,1,06,65,22,328,41,71,43,172,44,72,73,277,46,73,37,040,45*6E
###2023-12-09 12:56:56.985757$GLGSV,2,2,06,74,70,331,43,75,30,251,43,,,,,,,,*61
###2023-12-09 12:56:56.988100$GAGSV,1,1,04,04,27,312,39,19,85,234,40,21,85,141,46,27,34,048,43*62
###2023-12-09 12:56:56.990437$GBGSV,2,1,05,14,45,193,43,24,75,020,48,25,39,260,45,26,27,062,45*63
###2023-12-09 12:56:56.991910$GBGSV,2,2,05,33,59,235,48,,,,,,,,,,,,*5A
###2023-12-09 12:56:56.993234$GNVTG,164.02,T,,M,2.51,N,4.64,K,A*22
###2023-12-09 12:56:56.994898$GNGST,175656.10,18.000,,,,0.079,0.067,0.160*51
###2023-12-09 12:56:56.996441$GNZDA,175656.10,09,12,2023,00,00*76
###2023-12-09 12:56:56.997094$GNEBP,,,,,,M*13
###2023-12-09 12:56:57.160449$GNGGA,175656.30,4138.0460628,N,07032.3855507,W,1,24,0.6,13.637,M,-29.745,M,0.0,*54
###2023-12-09 12:56:57.359037$GNGGA,175656.50,4138.0459381,N,07032.3854931,W,1,24,0.6,13.623,M,-29.745,M,0.0,*53
###2023-12-09 12:56:57.559273$GNGGA,175656.70,4138.0458080,N,07032.3854735,W,1,24,0.6,13.645,M,-29.745,M,0.0,*58
###2023-12-09 12:56:57.759803$GNGGA,175656.90,4138.0456704,N,07032.3854393,W,1,24,0.6,13.628,M,-29.745,M,0.0,*50
###2023-12-09 12:56:57.963235$GNRMC,175657.10,A,4138.0455426,N,07032.3854342,W,2.22,184.49,091223,,,A*5E
###2023-12-09 12:56:57.966105$GNGGA,175657.10,4138.0455426,N,07032.3854342,W,1,24,0.6,13.626,M,-29.745,M,0.0,*5B
###2023-12-09 12:56:57.967995$GPGSA,A,3,03,04,16,26,28,29,31,32,,,,,1.1,0.6,0.9*3B
