###2023-12-09 13:20:55.997496$GBGSA,A,3,14,24,25,26,33,35,,,,,,,1.1,0.7,0.9*28
###2023-12-09 13:20:55.999869$GPGSV,2,1,07,03,31,253,43,04,40,310,44,16,59,217,46,26,89,196,48*77
###2023-12-09 13:20:56.001912$GPGSV,2,2,07,28,43,079,44,29,23,053,43,31,64,055,46,,,,*44
###2023-12-09 13:20:56.004258$GLGSV,2,1,06,65,33,323,42,71,30,174,45,72,69,234,46,73,27,048,42*67
###2023-12-09 13:20:56.006007$GLGSV,2,2,06,74,64,002,43,75,39,263,43,,,,,,,,*6F
###2023-12-09 13:20:56.008334$GAGSV,1,1,04,04,35,311,41,19,77,186,40,21,81,055,46,27,27,049,40*6A
###2023-12-09 13:20:56.010662$GBGSV,2,1,06,14,35,191,42,24,67,039,47,25,47,270,44,26,20,067,44*6A
###2023-12-09 13:20:56.012398$GBGSV,2,2,06,33,51,222,46,35,16,062,43,,,,,,,,*6B
###2023-12-09 13:20:56.013716$GNVTG,246.59,T,,M,3.09,N,5.72,K,A*25
###2023-12-09 13:20:56.015366$GNGST,182055.10,18.000,,,,0.100,0.070,0.160*55
###2023-12-09 13:20:56.016652$GNZDA,182055.10,09,12,2023,00,00*7B
###2023-12-09 13:20:56.017287$GNEBP,,,,,,M*13
###2023-12-09 13:20:56.183363$GNGGA,182055.30,4138.0211266,N,07032.3308250,W,1,24,0.7,12.733,M,-29.745,M,0.0,*54
###2023-12-09 13:20:56.382881$GNGGA,182055.50,4138.0210875,N,07032.3310555,W,1,24,0.7,12.730,M,-29.745,M,0.0,*53
###2023-12-09 13:20:56.588150$GNGGA,182055.70,4138.0210467,N,07032.3312828,W,1,24,0.7,12.713,M,-29.745,M,0.0,*5A
###2023-12-09 13:20:56.783929$GNGGA,182055.90,4138.0210002,N,07032.3315032,W,1,24,0.7,12.701,M,-29.745,M,0.0,*54
###2023-12-09 13:20:56.995046$GNRMC,182056.10,A,4138.0209627,N,07032.3317204,W,2.97,261.35,091223,,,A*5F
###2023-12-09 13:20:56.997898$GNGGA,182056.10,4138.0209627,N,07032.3317204,W,1,24,0.7,12.692,M,-29.745,M,0.0,*58
###2023-12-09 13:20:56.999697$GPGSA,A,3,03,04,16,26,28,29,31,,,,,,1.1,0.7,0.9*3B
###2023-12-09 13:20:57.001408$GLGSA,A,3,65,71,72,73,74,75,,,,,,,1.1,0.7,0.9*25
###2023-12-09 13:20:57.003002$GAGSA,A,3,04,19,21,27,,,,,,,,,1.1,0.7,0.9*27
###2023-12-09 13:20:57.004711$GBGSA,A,3,14,24,25,26,33,35,,,,,,,1.1,0.7,0.9*28
###2023-12-09 13:20:57.007051$GPGSV,2,1,07,03,31,253,40,04,40,310,41,16,59,217,44,26,89,196,46*7D
###2023-12-09 13:20:57.009093$GPGSV,2,2,07,28,43,079,44,29,23,053,38,31,64,055,45,,,,*4B
###2023-12-09 13:20:57.011436$GLGSV,2,1,06,65,33,323,40,71,30,174,45,72,69,234,46,73,27,048,42*65
###2023-12-09 13:20:57.013181$GLGSV,2,2,06,74,64,002,43,75,39,263,43,,,,,,,,*6F
###2023-12-09 13:20:57.015509$GAGSV,1,1,04,04,35,311,40,19,77,186,40,21,81,055,45,27,27,049,38*67
###2023-12-09 13:20:57.017831$GBGSV,2,1,06,14,35,191,44,24,67,039,49,25,47,270,43,26,20,067,44*65
###2023-12-09 13:20:57.019582$GBGSV,2,2,06,33,51,222,48,35,16,062,44,,,,,,,,*62
###2023-12-09 13:20:57.020903$GNVTG,261.35,T,,M,2.97,N,5.51,K,A*2D
###2023-12-09 13:20:57.022544$GNGST,182056.10,18.000,,,,0.100,0.070,0.160*56
###2023-12-09 13:20:57.023845$GNZDA,182056.10,09,12,2023,00,00*78
###2023-12-09 13:20:57.024487$GNEBP,,,,,,M*13
###2023-12-09 13:20:57.185188$GNGGA,182056.30,4138.0209604,N,07032.3319403,W,1,24,0.7,12.700,M,-29.745,M,0.0,*5E
###2023-12-09 13:20:57.383036$GNGGA,182056.50,4138.0209717,N,07032.3321537,W,1,24,0.7,12.715,M,-29.745,M,0.0,*52
###2023-12-09 13:20:57.582961$GNGGA,182056.70,4138.0209850,N,07032.3323677,W,1,24,0.7,12.713,M,-29.745,M,0.0,*5F
###2023-12-09 13:20:57.784952$GNGGA,182056.90,4138.0210035,N,07032.3325836,W,1,24,0.7,12.710,M,-29.745,M,0.0,*5C
###2023-12-09 13:20:57.994833$GNRMC,182057.10,A,4138.0210326,N,07032.3327978,W,2.99,282.66,091223,,,A*54
###2023-12-09 13:20:57.997686$GNGGA,182057.10,4138.0210326,N,07032.3327978,W,1,24,0.7,12.703,M,-29.745,M,0.0,*5F
###2023-12-09 13:20:57.999486$GPGSA,A,3,03,04,16,26,28,29,31,,,,,,1.1,0.7,0.9*3B
###2023-12-09 13:20:58.001193$GLGSA,A,3,65,71,72,73,74,75,,,,,,,1.1,0.7,0.9*25
###2023-12-09 13:20:58.002780$GAGSA,A,3,04,19,21,27,,,,,,,,,1.1,0.7,0.9*27
###2023-12-09 13:20:58.004489$GBGSA,A,3,14,24,25,26,33,35,,,,,,,1.1,0.7,0.9*28
###2023-12-09 13:20:58.006843$GPGSV,2,1,07,03,31,253,40,04,40,310,42,16,59,217,45,26,89,196,48*71
###2023-12-09 13:20:58.008877$GPGSV,2,2,07,28,43,079,44,29,23,053,40,31,64,055,46,,,,*47
###2023-12-09 13:20:58.011202$GLGSV,2,1,06,65,33,323,42,71,30,174,45,72,69,234,46,73,27,048,43*66
###2023-12-09 13:20:58.012940$GLGSV,2,2,06,74,64,002,42,75,39,263,44,,,,,,,,*69
###2023-12-09 13:20:58.015267$GAGSV,1,1,04,04,35,311,41,19,77,186,41,21,81,055,46,27,27,049,40*6B
###2023-12-09 13:20:58.017595$GBGSV,2,1,06,14,35,191,43,24,67,039,48,25,47,270,44,26,20,067,40*60
###2023-12-09 13:20:58.019348$GBGSV,2,2,06,33,51,222,46,35,16,062,40,,,,,,,,*68
###2023-12-09 13:20:58.020668$GNVTG,282.66,T,,M,2.99,N,5.54,K,A*2D
###2023-12-09 13:20:58.022300$GNGST,182057.10,18.000,,,,0.100,0.072,0.170*54
###2023-12-09 13:20:58.023598$GNZDA,182057.10,09,12,2023,00,00*79
###2023-12-09 13:20:58.024236$GNEBP,,,,,,M*13
###2023-12-09 13:20:58.187475$GNGGA,182057.30,4138.0210737,N,07032.3330091,W,1,24,0.7,12.708,M,-29.745,M,0.0,*5A
###2023-12-09 13:20:58.383121$GNGGA,182057.50,4138.0211242,N,07032.3332157,W,1,24,0.7,12.711,M,-29.745,M,0.0,*5B
###2023-12-09 13:20:58.583763$GNGGA,182057.70,4138.0211785,N,07032.3334209,W,1,24,0.7,12.723,M,-29.745,M,0.0,*58
###2023-12-09 13:20:58.782943$GNGGA,182057.90,4138.0212371,N,07032.3336257,W,1,24,0.7,12.723,M,-29.745,M,0.0,*53
###2023-12-09 13:20:58.987334$GNRMC,182058.10,A,4138.0213036,N,07032.3338291,W,2.95,293.40,091223,,,A*50
###2023-12-09 13:20:58.990188$GNGGA,182058.10,4138.0213036,N,07032.3338291,W,1,24,0.7,12.720,M,-29.745,M,0.0,*52
###2023-12-09 13:20:58.991983$GPGSA,A,3,03,04,16,26,28,29,31,,,,,,1.1,0.7,0.9*3B
###2023-12-09 13:20:58.993688$GLGSA,A,3,65,71,72,73,74,75,,,,,,,1.1,0.7,0.9*25
###2023-12-09 13:20:58.995289$GAGSA,A,3,04,19,21,27,,,,,,,,,1.1,0.7,0.9*27
###2023-12-09 13:20:58.997042$GBGSA,A,3,14,24,25,26,33,35,,,,,,,1.1,0.7,0.9*28
###2023-12-09 13:20:58.999407$GPGSV,2,1,07,03,31,253,42,04,40,310,42,16,59,217,46,26,89,196,48*70
###2023-12-09 13:20:59.001452$GPGSV,2,2,07,28,43,079,45,29,23,053,42,31,64,055,47,,,,*45
###2023-12-09 13:20:59.003790$GLGSV,2,1,06,65,33,323,41,71,30,174,44,72,69,234,46,73,27,048,44*63
###2023-12-09 13:20:59.005535$GLGSV,2,2,06,74,64,002,42,75,39,263,45,,,,,,,,*68
###2023-12-09 13:20:59.007881$GAGSV,1,1,04,04,35,311,41,19,77,186,40,21,81,055,45,27,27,049,40*69
###2023-12-09 13:20:59.010209$GBGSV,2,1,06,14,35,191,44,24,67,039,49,25,47,270,46,26,20,067,42*66
###2023-12-09 13:20:59.011965$GBGSV,2,2,06,33,51,222,46,35,16,062,42,,,,,,,,*6A
###2023-12-09 13:20:59.013290$GNVTG,293.40,T,,M,2.95,N,5.47,K,A*27
###2023-12-09 13:20:59.014947$GNGST,182058.10,18.000,,,,0.100,0.072,0.170*5B
###2023-12-09 13:20:59.016237$GNZDA,182058.10,09,12,2023,00,00*76
###2023-12-09 13:20:59.016877$GNEBP,,,,,,M*13
###2023-12-09 13:20:59.183181$GNGGA,182058.30,4138.0213741,N,07032.3340289,W,1,24,0.7,12.721,M,-29.745,M,0.0,*50
###2023-12-09 13:20:59.381785$GNGGA,182058.50,4138.0214446,N,07032.3342268,W,1,24,0.7,12.727,M,-29.745,M,0.0,*5E
###2023-12-09 13:20:59.583441$GNGGA,182058.70,4138.0215197,N,07032.3344214,W,1,24,0.7,12.727,M,-29.745,M,0.0,*59
###2023-12-09 13:20:59.783937$GNGGA,182058.90,4138.0216015,N,07032.3346078,W,1,24,0.7,12.727,M,-29.745,M,0.0,*55
###2023-12-09 13:20:59.987313$GNRMC,182059.10,A,4138.0216912,N,07032.3347844,W,2.78,304.87,091223,,,A*56
###2023-12-09 13:20:59.990157$GNGGA,182059.10,4138.0216912,N,07032.3347844,W,1,24,0.7,12.734,M,-29.745,M,0.0,*56
###2023-12-09 13:20:59.991964$GPGSA,A,3,03,04,16,26,28,29,31,,,,,,1.1,0.7,0.9*3B
###2023-12-09 13:20:59.993672$GLGSA,A,3,65,71,72,73,74,75,,,,,,,1.1,0.7,0.9*25
###2023-12-09 13:20:59.995260$GAGSA,A,3,04,19,21,27,,,,,,,,,1.1,0.7,0.9*27
###2023-12-09 13:20:59.996973$GBGSA,A,3,14,24,25,26,33,35,,,,,,,1.1,0.7,0.9*28
###2023-12-09 13:20:59.999310$GPGSV,2,1,07,03,31,253,43,04,40,310,41,16,59,217,46,26,89,196,48*72
###2023-12-09 13:21:00.001346$GPGSV,2,2,07,28,43,079,45,29,23,053,42,31,64,055,47,,,,*45
###2023-12-09 13:21:00.003684$GLGSV,2,1,06,65,33,323,41,71,30,174,44,72,69,234,46,73,27,048,44*63
###2023-12-09 13:21:00.005429$GLGSV,2,2,06,74,64,002,42,75,39,263,45,,,,,,,,*68
###2023-12-09 13:21:00.007756$GAGSV,1,1,04,04,35,311,42,19,77,186,41,21,81,055,46,27,27,049,41*69
###2023-12-09 13:21:00.010079$GBGSV,2,1,06,14,35,191,43,24,67,039,48,25,47,270,47,26,20,067,41*62
###2023-12-09 13:21:00.012070$GBGSV,2,2,06,33,51,222,48,35,16,062,42,,,,,,,,*64
###2023-12-09 13:21:00.013404$GNVTG,304.87,T,,M,2.78,N,5.15,K,A*27
###2023-12-09 13:21:00.015062$GNGST,182059.10,19.000,,,,0.100,0.072,0.170*5B
###2023-12-09 13:21:00.016355$GNZDA,182059.10,09,12,2023,00,00*77
###2023-12-09 13:21:00.016995$GNEBP,,,,,,M*13
###2023-12-09 13:21:00.184063$GNGGA,182059.30,4138.0217839,N,07032.3349517,W,1,24,0.7,12.740,M,-29.745,M,0.0,*5B
###2023-12-09 13:21:00.387870$GNGGA,182059.50,4138.0218816,N,07032.3351073,W,1,24,0.7,12.748,M,-29.745,M,0.0,*59
###2023-12-09 13:21:00.583688$GNGGA,182059.70,4138.0219818,N,07032.3352547,W,1,24,0.7,12.756,M,-29.745,M,0.0,*5A
###2023-12-09 13:21:00.783766$GNGGA,182059.90,4138.0220844,N,07032.3353944,W,1,24,0.7,12.758,M,-29.745,M,0.0,*57
