###2023-12-09 13:23:09.029832$GBGSV,2,2,06,33,50,221,46,35,16,061,44,,,,,,,,*6D
###2023-12-09 13:23:09.031211$GNVTG,190.92,T,,M,3.58,N,6.62,K,A*2C
###2023-12-09 13:23:09.032860$GNGST,182308.10,18.000,,,,0.100,0.070,0.160*5E
###2023-12-09 13:23:09.034200$GNZDA,182308.10,09,12,2023,00,00*70
###2023-12-09 13:23:09.034866$GNEBP,,,,,,M*13
###2023-12-09 13:23:09.193362$GNGGA,182308.30,4138.0298922,N,07032.3621580,W,1,24,0.7,12.862,M,-29.745,M,0.0,*5A
###2023-12-09 13:23:09.387315$GNGGA,182308.50,4138.0296941,N,07032.3621938,W,1,24,0.7,12.821,M,-29.745,M,0.0,*5F
###2023-12-09 13:23:09.588862$GNGGA,182308.70,4138.0295089,N,07032.3622473,W,1,24,0.7,12.830,M,-29.745,M,0.0,*52
###2023-12-09 13:23:09.789057$GNGGA,182308.90,4138.0293208,N,07032.3623096,W,1,24,0.7,12.864,M,-29.745,M,0.0,*5E
###2023-12-09 13:23:09.990179$GNRMC,182309.10,A,4138.0291359,N,07032.3623824,W,3.38,199.13,091223,,,A*55
###2023-12-09 13:23:09.993072$GNGGA,182309.10,4138.0291359,N,07032.3623824,W,1,24,0.7,12.843,M,-29.745,M,0.0,*54
###2023-12-09 13:23:09.994915$GPGSA,A,3,03,04,16,26,28,29,31,,,,,,1.1,0.7,0.9*3B
###2023-12-09 13:23:09.996628$GLGSA,A,3,65,71,72,73,74,75,,,,,,,1.1,0.7,0.9*25
###2023-12-09 13:23:09.998203$GAGSA,A,3,04,19,21,27,,,,,,,,,1.1,0.7,0.9*27
###2023-12-09 13:23:09.999926$GBGSA,A,3,14,24,25,26,33,35,,,,,,,1.1,0.7,0.9*28
###2023-12-09 13:23:10.002248$GPGSV,2,1,07,03,30,251,40,04,42,310,45,16,60,218,46,26,90,099,48*77
###2023-12-09 13:23:10.004303$GPGSV,2,2,07,28,42,080,44,29,23,052,42,31,63,057,46,,,,*46
###2023-12-09 13:23:10.006640$GLGSV,2,1,06,65,34,323,43,71,29,175,42,72,68,232,45,73,27,049,45*6D
###2023-12-09 13:23:10.008383$GLGSV,2,2,06,74,63,004,43,75,40,265,47,,,,,,,,*62
###2023-12-09 13:23:10.010706$GAGSV,1,1,04,04,36,311,43,19,77,186,40,21,81,054,46,27,26,049,41*6A
###2023-12-09 13:23:10.013026$GBGSV,2,1,06,14,34,191,41,24,66,040,48,25,47,271,46,26,19,068,42*68
###2023-12-09 13:23:10.014778$GBGSV,2,2,06,33,50,221,44,35,16,061,44,,,,,,,,*6F
###2023-12-09 13:23:10.016096$GNVTG,199.13,T,,M,3.38,N,6.26,K,A*2A
###2023-12-09 13:23:10.017734$GNGST,182309.10,18.000,,,,0.100,0.070,0.160*5F
###2023-12-09 13:23:10.019029$GNZDA,182309.10,09,12,2023,00,00*71
###2023-12-09 13:23:10.019664$GNEBP,,,,,,M*13
###2023-12-09 13:23:10.185369$GNGGA,182309.30,4138.0289669,N,07032.3624903,W,1,24,0.7,12.839,M,-29.745,M,0.0,*57
###2023-12-09 13:23:10.386227$GNGGA,182309.50,4138.0288009,N,07032.3626124,W,1,24,0.7,12.865,M,-29.745,M,0.0,*56
###2023-12-09 13:23:10.585686$GNGGA,182309.70,4138.0286343,N,07032.3627216,W,1,24,0.7,12.860,M,-29.745,M,0.0,*51
###2023-12-09 13:23:10.786498$GNGGA,182309.90,4138.0284768,N,07032.3628449,W,1,24,0.7,12.847,M,-29.745,M,0.0,*56
###2023-12-09 13:23:10.991635$GNRMC,182310.10,A,4138.0283337,N,07032.3629943,W,3.30,220.01,091223,,,A*56
###2023-12-09 13:23:10.995129$GNGGA,182310.10,4138.0283337,N,07032.3629943,W,1,24,0.7,12.855,M,-29.745,M,0.0,*5A
###2023-12-09 13:23:10.997318$GPGSA,A,3,03,04,16,26,28,29,31,,,,,,1.1,0.7,0.9*3B
###2023-12-09 13:23:10.999410$GLGSA,A,3,65,71,72,73,74,75,,,,,,,1.1,0.7,0.9*25
###2023-12-09 13:23:11.001340$GAGSA,A,3,04,19,21,27,,,,,,,,,1.1,0.7,0.9*27
###2023-12-09 13:23:11.003433$GBGSA,A,3,14,24,25,26,33,35,,,,,,,1.1,0.7,0.9*28
###2023-12-09 13:23:11.006273$GPGSV,2,1,07,03,30,251,41,04,42,310,43,16,60,218,45,26,90,099,48*73
###2023-12-09 13:23:11.008748$GPGSV,2,2,07,28,42,080,45,29,23,052,43,31,63,057,47,,,,*47
###2023-12-09 13:23:11.011577$GLGSV,2,1,06,65,34,323,43,71,29,175,43,72,68,232,45,73,27,049,45*6C
###2023-12-09 13:23:11.013686$GLGSV,2,2,06,74,63,004,43,75,40,265,44,,,,,,,,*61
###2023-12-09 13:23:11.016517$GAGSV,1,1,04,04,36,311,42,19,77,186,40,21,81,054,46,27,26,049,41*6B
###2023-12-09 13:23:11.019383$GBGSV,2,1,06,14,34,191,43,24,66,040,48,25,47,271,44,26,19,068,44*6E
###2023-12-09 13:23:11.021508$GBGSV,2,2,06,33,50,221,44,35,16,061,44,,,,,,,,*6F
###2023-12-09 13:23:11.023156$GNVTG,220.01,T,,M,3.30,N,6.12,K,A*27
###2023-12-09 13:23:11.025151$GNGST,182310.10,18.000,,,,0.100,0.070,0.160*57
###2023-12-09 13:23:11.026725$GNZDA,182310.10,09,12,2023,00,00*79
###2023-12-09 13:23:11.027497$GNEBP,,,,,,M*13
###2023-12-09 13:23:11.185043$GNGGA,182310.30,4138.0281978,N,07032.3631554,W,1,24,0.7,12.861,M,-29.745,M,0.0,*5F
###2023-12-09 13:23:11.385744$GNGGA,182310.50,4138.0280768,N,07032.3633282,W,1,24,0.7,12.888,M,-29.745,M,0.0,*5E
###2023-12-09 13:23:11.587456$GNGGA,182310.70,4138.0279598,N,07032.3635107,W,1,24,0.7,12.900,M,-29.745,M,0.0,*5E
###2023-12-09 13:23:11.786453$GNGGA,182310.90,4138.0278415,N,07032.3636989,W,1,24,0.7,12.867,M,-29.745,M,0.0,*58
###2023-12-09 13:23:11.992453$GNRMC,182311.10,A,4138.0277395,N,07032.3639030,W,3.30,240.17,091223,,,A*59
###2023-12-09 13:23:11.995934$GNGGA,182311.10,4138.0277395,N,07032.3639030,W,1,24,0.7,12.863,M,-29.745,M,0.0,*51
###2023-12-09 13:23:11.998088$GPGSA,A,3,03,04,16,26,28,29,31,,,,,,1.1,0.7,0.9*3B
###2023-12-09 13:23:12.000174$GLGSA,A,3,65,71,72,73,74,75,,,,,,,1.1,0.7,0.9*25
###2023-12-09 13:23:12.002093$GAGSA,A,3,04,19,21,27,,,,,,,,,1.1,0.7,0.9*27
###2023-12-09 13:23:12.004174$GBGSA,A,3,14,24,25,26,33,35,,,,,,,1.1,0.7,0.9*28
###2023-12-09 13:23:12.006996$GPGSV,2,1,07,03,30,251,41,04,42,310,44,16,60,218,45,26,90,099,48*74
###2023-12-09 13:23:12.009467$GPGSV,2,2,07,28,42,080,44,29,23,052,44,31,63,057,46,,,,*40
###2023-12-09 13:23:12.012323$GLGSV,2,1,06,65,34,323,42,71,29,175,45,72,68,232,45,73,27,049,45*6B
###2023-12-09 13:23:12.014447$GLGSV,2,2,06,74,63,004,43,75,40,265,44,,,,,,,,*61
###2023-12-09 13:23:12.017280$GAGSV,1,1,04,04,36,311,42,19,77,186,40,21,81,054,45,27,26,049,41*68
###2023-12-09 13:23:12.020161$GBGSV,2,1,06,14,34,191,43,24,66,040,48,25,47,271,45,26,19,068,44*6F
###2023-12-09 13:23:12.022286$GBGSV,2,2,06,33,50,221,46,35,16,061,45,,,,,,,,*6C
###2023-12-09 13:23:12.023901$GNVTG,240.17,T,,M,3.30,N,6.12,K,A*26
###2023-12-09 13:23:12.025895$GNGST,182311.10,18.000,,,,0.100,0.070,0.160*56
###2023-12-09 13:23:12.027468$GNZDA,182311.10,09,12,2023,00,00*78
###2023-12-09 13:23:12.028239$GNEBP,,,,,,M*13
###2023-12-09 13:23:12.193185$GNGGA,182311.30,4138.0276465,N,07032.3641186,W,1,24,0.7,12.896,M,-29.745,M,0.0,*53
###2023-12-09 13:23:12.386208$GNGGA,182311.50,4138.0275576,N,07032.3643358,W,1,24,0.7,12.916,M,-29.745,M,0.0,*5F
###2023-12-09 13:23:12.587069$GNGGA,182311.70,4138.0274856,N,07032.3645624,W,1,24,0.7,12.900,M,-29.745,M,0.0,*5C
###2023-12-09 13:23:12.786510$GNGGA,182311.90,4138.0274203,N,07032.3647922,W,1,24,0.7,12.881,M,-29.745,M,0.0,*5B
###2023-12-09 13:23:12.997931$GNRMC,182312.10,A,4138.0273542,N,07032.3650159,W,3.17,248.27,091223,,,A*5D
###2023-12-09 13:23:13.001439$GNGGA,182312.10,4138.0273542,N,07032.3650159,W,1,24,0.7,12.878,M,-29.745,M,0.0,*51
###2023-12-09 13:23:13.003631$GPGSA,A,3,03,04,16,26,28,29,31,,,,,,1.1,0.7,0.9*3B
###2023-12-09 13:23:13.005712$GLGSA,A,3,65,71,72,73,74,75,,,,,,,1.1,0.7,0.9*25
###2023-12-09 13:23:13.007645$GAGSA,A,3,04,19,21,27,,,,,,,,,1.1,0.7,0.9*27
###2023-12-09 13:23:13.009725$GBGSA,A,3,14,24,25,26,33,35,,,,,,,1.1,0.7,0.9*28
###2023-12-09 13:23:13.012565$GPGSV,2,1,07,03,30,251,41,04,42,310,43,16,60,218,46,26,90,099,48*70
###2023-12-09 13:23:13.015054$GPGSV,2,2,07,28,42,080,44,29,23,052,42,31,63,057,47,,,,*47
###2023-12-09 13:23:13.017881$GLGSV,2,1,06,65,34,323,42,71,29,175,46,72,68,232,45,73,27,049,44*69
###2023-12-09 13:23:13.020036$GLGSV,2,2,06,74,63,004,43,75,40,265,43,,,,,,,,*66
###2023-12-09 13:23:13.022870$GAGSV,1,1,04,04,36,311,42,19,77,186,41,21,81,054,46,27,26,049,41*6A
###2023-12-09 13:23:13.025686$GBGSV,2,1,06,14,34,191,44,24,66,040,49,25,47,271,43,26,19,068,44*6F
###2023-12-09 13:23:13.027809$GBGSV,2,2,06,33,50,221,47,35,16,061,45,,,,,,,,*6D
###2023-12-09 13:23:13.029414$GNVTG,248.27,T,,M,3.17,N,5.87,K,A*27
###2023-12-09 13:23:13.031434$GNGST,182312.10,18.000,,,,0.100,0.070,0.160*55
###2023-12-09 13:23:13.033004$GNZDA,182312.10,09,12,2023,00,00*7B
###2023-12-09 13:23:13.033784$GNEBP,,,,,,M*13
###2023-12-09 13:23:13.188228$GNGGA,182312.30,4138.0272999,N,07032.3652316,W,1,24,0.7,12.881,M,-29.745,M,0.0,*55
###2023-12-09 13:23:13.387650$GNGGA,182312.50,4138.0272735,N,07032.3654483,W,1,24,0.7,12.882,M,-29.745,M,0.0,*55
###2023-12-09 13:23:13.587221$GNGGA,182312.70,4138.0272616,N,07032.3656653,W,1,24,0.7,12.885,M,-29.745,M,0.0,*5D
###2023-12-09 13:23:13.787843$GNGGA,182312.90,4138.0272466,N,07032.3658817,W,1,24,0.7,12.889,M,-29.745,M,0.0,*5A
###2023-12-09 13:23:13.991177$GNRMC,182313.10,A,4138.0272304,N,07032.3660991,W,2.94,265.71,091223,,,A*50
###2023-12-09 13:23:13.994058$GNGGA,182313.10,4138.0272304,N,07032.3660991,W,1,24,0.7,12.901,M,-29.745,M,0.0,*55
###2023-12-09 13:23:13.995873$GPGSA,A,3,03,04,16,26,28,29,31,,,,,,1.1,0.7,0.9*3B
###2023-12-09 13:23:13.997595$GLGSA,A,3,65,71,72,73,74,75,,,,,,,1.1,0.7,0.9*25
###2023-12-09 13:23:13.999196$GAGSA,A,3,04,19,21,27,,,,,,,,,1.1,0.7,0.9*27
###2023-12-09 13:23:14.000913$GBGSA,A,3,14,24,25,26,33,35,,,,,,,1.1,0.7,0.9*28
###2023-12-09 13:23:14.003260$GPGSV,2,1,07,03,30,251,40,04,42,310,44,16,60,218,46,26,90,099,48*76
