###2023-12-09 13:29:49.015614$GBGSV,2,2,06,33,48,219,46,35,16,058,42,,,,,,,,*63
###2023-12-09 13:29:49.016965$GNVTG,185.85,T,,M,2.84,N,5.26,K,A*2D
###2023-12-09 13:29:49.018633$GNGST,182948.10,18.000,,,,0.100,0.071,0.160*51
###2023-12-09 13:29:49.019930$GNZDA,182948.10,09,12,2023,00,00*7E
###2023-12-09 13:29:49.020570$GNEBP,,,,,,M*13
###2023-12-09 13:29:49.188526$GNGGA,182948.30,4138.0464052,N,07032.4251245,W,1,24,0.6,12.916,M,-29.745,M,0.0,*56
###2023-12-09 13:29:49.387903$GNGGA,182948.50,4138.0462545,N,07032.4250954,W,1,23,0.7,12.879,M,-29.745,M,0.0,*51
###2023-12-09 13:29:49.589808$GNGGA,182948.70,4138.0460881,N,07032.4251666,W,1,24,0.6,12.936,M,-29.745,M,0.0,*57
###2023-12-09 13:29:49.789250$GNGGA,182948.90,4138.0459255,N,07032.4252380,W,1,24,0.6,12.951,M,-29.745,M,0.0,*5F
###2023-12-09 13:29:49.991415$GNRMC,182949.10,A,4138.0457703,N,07032.4252040,W,2.82,159.09,091223,,,A*54
###2023-12-09 13:29:49.994280$GNGGA,182949.10,4138.0457703,N,07032.4252040,W,1,24,0.6,12.950,M,-29.745,M,0.0,*50
###2023-12-09 13:29:49.996082$GPGSA,A,3,03,04,16,26,28,29,31,,,,,,1.1,0.6,0.9*3A
###2023-12-09 13:29:49.997792$GLGSA,A,3,65,71,72,73,74,75,,,,,,,1.1,0.6,0.9*24
###2023-12-09 13:29:49.999380$GAGSA,A,3,04,19,21,27,,,,,,,,,1.1,0.6,0.9*26
###2023-12-09 13:29:50.001084$GBGSA,A,3,14,24,25,26,33,35,,,,,,,1.1,0.6,0.9*29
###2023-12-09 13:29:50.003411$GPGSV,2,1,07,03,28,248,44,04,44,309,46,16,64,220,46,26,86,041,47*7D
###2023-12-09 13:29:50.005446$GPGSV,2,2,07,28,39,083,45,29,21,049,40,31,61,063,46,,,,*47
###2023-12-09 13:29:50.007773$GLGSV,2,1,06,65,36,321,44,71,25,175,38,72,65,225,46,73,24,050,40*6D
###2023-12-09 13:29:50.009517$GLGSV,2,2,06,74,61,010,42,75,42,268,48,,,,,,,,*64
###2023-12-09 13:29:50.011841$GAGSV,1,1,04,04,38,310,44,19,74,183,39,21,79,049,45,27,24,049,38*6E
###2023-12-09 13:29:50.014159$GBGSV,2,1,06,14,31,190,40,24,64,043,48,25,49,274,48,26,17,069,40*64
###2023-12-09 13:29:50.015906$GBGSV,2,2,06,33,48,219,47,35,16,058,42,,,,,,,,*62
###2023-12-09 13:29:50.017226$GNVTG,159.09,T,,M,2.82,N,5.22,K,A*2A
###2023-12-09 13:29:50.018871$GNGST,182949.10,18.000,,,,0.100,0.071,0.160*50
###2023-12-09 13:29:50.020159$GNZDA,182949.10,09,12,2023,00,00*7F
###2023-12-09 13:29:50.020797$GNEBP,,,,,,M*13
###2023-12-09 13:29:50.189587$GNGGA,182949.30,4138.0456209,N,07032.4251333,W,1,23,0.7,12.899,M,-29.745,M,0.0,*5A
###2023-12-09 13:29:50.388678$GNGGA,182949.50,4138.0454540,N,07032.4251485,W,1,23,0.7,12.916,M,-29.745,M,0.0,*58
###2023-12-09 13:29:50.589146$GNGGA,182949.70,4138.0452832,N,07032.4252115,W,1,23,0.7,12.955,M,-29.745,M,0.0,*5C
###2023-12-09 13:29:50.788651$GNGGA,182949.90,4138.0451185,N,07032.4251942,W,1,22,0.7,12.963,M,-29.745,M,0.0,*59
###2023-12-09 13:29:50.993345$GNRMC,182950.10,A,4138.0449600,N,07032.4251019,W,3.17,155.68,091223,,,A*58
###2023-12-09 13:29:50.996231$GNGGA,182950.10,4138.0449600,N,07032.4251019,W,1,22,0.7,12.929,M,-29.745,M,0.0,*53
###2023-12-09 13:29:50.998033$GPGSA,A,3,03,04,16,26,28,29,31,,,,,,1.3,0.7,1.0*31
###2023-12-09 13:29:50.999708$GLGSA,A,3,65,72,73,74,75,,,,,,,,1.3,0.7,1.0*29
###2023-12-09 13:29:51.001303$GAGSA,A,3,04,19,21,27,,,,,,,,,1.3,0.7,1.0*2D
###2023-12-09 13:29:51.003031$GBGSA,A,3,14,24,25,26,33,35,,,,,,,1.3,0.7,1.0*22
###2023-12-09 13:29:51.005365$GPGSV,2,1,07,03,28,248,41,04,44,309,46,16,64,220,46,26,86,041,48*77
###2023-12-09 13:29:51.007422$GPGSV,2,2,07,28,39,083,45,29,21,049,43,31,61,063,47,,,,*45
###2023-12-09 13:29:51.009753$GLGSV,2,1,05,65,36,321,41,72,65,225,45,73,24,050,44,74,61,010,42*66
###2023-12-09 13:29:51.011217$GLGSV,2,2,05,75,42,268,47,,,,,,,,,,,,*5B
###2023-12-09 13:29:51.013543$GAGSV,1,1,04,04,38,310,42,19,74,183,40,21,79,049,46,27,24,049,41*6B
###2023-12-09 13:29:51.015884$GBGSV,2,1,06,14,31,190,42,24,64,043,48,25,49,274,48,26,17,069,43*65
###2023-12-09 13:29:51.017633$GBGSV,2,2,06,33,48,219,46,35,16,058,44,,,,,,,,*65
###2023-12-09 13:29:51.018967$GNVTG,155.68,T,,M,3.17,N,5.87,K,A*23
###2023-12-09 13:29:51.020618$GNGST,182950.10,19.000,,,,0.100,0.071,0.160*59
###2023-12-09 13:29:51.021910$GNZDA,182950.10,09,12,2023,00,00*77
###2023-12-09 13:29:51.022548$GNEBP,,,,,,M*13
###2023-12-09 13:29:51.192755$GNGGA,182950.30,4138.0447963,N,07032.4250783,W,1,22,0.7,12.915,M,-29.745,M,0.0,*5F
###2023-12-09 13:29:51.388705$GNGGA,182950.50,4138.0446231,N,07032.4251460,W,1,23,0.7,12.981,M,-29.745,M,0.0,*57
###2023-12-09 13:29:51.588328$GNGGA,182950.70,4138.0444570,N,07032.4251660,W,1,23,0.7,12.959,M,-29.745,M,0.0,*52
###2023-12-09 13:29:51.789632$GNGGA,182950.90,4138.0442909,N,07032.4251257,W,1,22,0.7,12.951,M,-29.745,M,0.0,*51
###2023-12-09 13:29:51.993617$GNRMC,182951.10,A,4138.0441222,N,07032.4251045,W,3.01,187.67,091223,,,A*5B
###2023-12-09 13:29:51.996495$GNGGA,182951.10,4138.0441222,N,07032.4251045,W,1,23,0.7,12.947,M,-29.745,M,0.0,*5E
###2023-12-09 13:29:51.998294$GPGSA,A,3,03,04,16,26,28,29,31,,,,,,1.2,0.7,1.0*30
###2023-12-09 13:29:52.000020$GLGSA,A,3,65,71,72,73,74,75,,,,,,,1.2,0.7,1.0*2E
###2023-12-09 13:29:52.001601$GAGSA,A,3,04,19,21,27,,,,,,,,,1.2,0.7,1.0*2C
###2023-12-09 13:29:52.003329$GBGSA,A,3,14,24,25,26,33,35,,,,,,,1.2,0.7,1.0*23
###2023-12-09 13:29:52.005651$GPGSV,2,1,07,03,28,248,35,04,44,309,45,16,64,220,45,26,86,041,49*75
###2023-12-09 13:29:52.007699$GPGSV,2,2,07,28,39,083,46,29,21,049,43,31,61,063,48,,,,*49
###2023-12-09 13:29:52.010027$GLGSV,2,1,06,65,36,321,41,71,25,175,36,72,65,225,44,73,24,050,44*60
###2023-12-09 13:29:52.011786$GLGSV,2,2,06,74,61,010,42,75,42,268,46,,,,,,,,*6A
###2023-12-09 13:29:52.014107$GAGSV,1,1,04,04,38,310,43,19,74,183,39,21,79,049,46,27,24,049,42*67
###2023-12-09 13:29:52.016446$GBGSV,2,1,06,14,31,190,40,24,64,043,48,25,49,274,45,26,17,069,44*6D
###2023-12-09 13:29:52.018192$GBGSV,2,2,06,33,48,219,44,35,16,058,42,,,,,,,,*61
###2023-12-09 13:29:52.019528$GNVTG,187.67,T,,M,3.01,N,5.58,K,A*26
###2023-12-09 13:29:52.021188$GNGST,182951.10,19.000,,,,0.110,0.072,0.170*5B
###2023-12-09 13:29:52.022480$GNZDA,182951.10,09,12,2023,00,00*76
###2023-12-09 13:29:52.023133$GNEBP,,,,,,M*13
###2023-12-09 13:29:52.195101$GNGGA,182951.30,4138.0439598,N,07032.4251723,W,1,22,0.7,12.980,M,-29.745,M,0.0,*58
###2023-12-09 13:29:52.392305$GNGGA,182951.50,4138.0438018,N,07032.4252365,W,1,22,0.7,12.976,M,-29.745,M,0.0,*5E
###2023-12-09 13:29:52.588877$GNGGA,182951.70,4138.0436381,N,07032.4252669,W,1,21,0.8,12.947,M,-29.745,M,0.0,*56
###2023-12-09 13:29:52.788675$GNGGA,182951.90,4138.0434802,N,07032.4253142,W,1,21,0.8,12.984,M,-29.745,M,0.0,*5A
###2023-12-09 13:29:52.992184$GNRMC,182952.10,A,4138.0433257,N,07032.4253877,W,2.94,199.47,091223,,,A*54
###2023-12-09 13:29:52.995063$GNGGA,182952.10,4138.0433257,N,07032.4253877,W,1,21,0.8,13.016,M,-29.745,M,0.0,*50
###2023-12-09 13:29:52.996795$GPGSA,A,3,04,16,26,28,29,31,,,,,,,1.4,0.8,1.1*3B
###2023-12-09 13:29:52.998447$GLGSA,A,3,65,72,73,74,75,,,,,,,,1.4,0.8,1.1*20
###2023-12-09 13:29:53.000045$GAGSA,A,3,04,19,21,27,,,,,,,,,1.4,0.8,1.1*24
###2023-12-09 13:29:53.001759$GBGSA,A,3,14,24,25,26,33,35,,,,,,,1.4,0.8,1.1*2B
###2023-12-09 13:29:53.004099$GPGSV,2,1,06,04,44,309,44,16,64,220,45,26,86,041,48,28,39,083,45*7F
###2023-12-09 13:29:53.005849$GPGSV,2,2,06,29,21,049,43,31,61,063,47,,,,,,,,*7E
###2023-12-09 13:29:53.008194$GLGSV,2,1,05,65,36,321,43,72,65,225,45,73,24,050,45,74,61,010,42*65
###2023-12-09 13:29:53.009646$GLGSV,2,2,05,75,42,268,45,,,,,,,,,,,,*59
###2023-12-09 13:29:53.012009$GAGSV,1,1,04,04,38,310,44,19,74,183,40,21,79,049,46,27,24,049,42*6E
###2023-12-09 13:29:53.014342$GBGSV,2,1,06,14,31,190,40,24,64,043,48,25,49,274,46,26,17,069,44*6E
###2023-12-09 13:29:53.016103$GBGSV,2,2,06,33,48,219,43,35,16,058,44,,,,,,,,*60
###2023-12-09 13:29:53.017433$GNVTG,199.47,T,,M,2.94,N,5.44,K,A*2B
###2023-12-09 13:29:53.019095$GNGST,182952.10,19.000,,,,0.110,0.073,0.170*59
###2023-12-09 13:29:53.020387$GNZDA,182952.10,09,12,2023,00,00*75
###2023-12-09 13:29:53.021024$GNEBP,,,,,,M*13
###2023-12-09 13:29:53.188254$GNGGA,182952.30,4138.0431825,N,07032.4254784,W,1,21,0.8,12.998,M,-29.745,M,0.0,*55
###2023-12-09 13:29:53.386774$GNGGA,182952.50,4138.0430455,N,07032.4255928,W,1,21,0.8,12.993,M,-29.745,M,0.0,*5B
###2023-12-09 13:29:53.588584$GNGGA,182952.70,4138.0429022,N,07032.4256867,W,1,22,0.7,13.009,M,-29.745,M,0.0,*5B
###2023-12-09 13:29:53.787725$GNGGA,182952.90,4138.0427596,N,07032.4257735,W,1,22,0.7,13.005,M,-29.745,M,0.0,*54
###2023-12-09 13:29:53.988246$GNRMC,182953.10,A,4138.0426330,N,07032.4258949,W,2.90,225.21,091223,,,A*56
###2023-12-09 13:29:53.991133$GNGGA,182953.10,4138.0426330,N,07032.4258949,W,1,22,0.7,13.007,M,-29.745,M,0.0,*5E
###2023-12-09 13:29:53.992860$GPGSA,A,3,04,16,26,28,29,31,,,,,,,1.2,0.7,1.0*33
###2023-12-09 13:29:53.994584$GLGSA,A,3,65,71,72,73,74,75,,,,,,,1.2,0.7,1.0*2E
###2023-12-09 13:29:53.996160$GAGSA,A,3,04,19,21,27,,,,,,,,,1.2,0.7,1.0*2C
###2023-12-09 13:29:53.997859$GBGSA,A,3,14,24,25,26,33,35,,,,,,,1.2,0.7,1.0*23
###2023-12-09 13:29:54.000186$GPGSV,2,1,06,04,44,309,44,16,64,220,45,26,86,041,48,28,39,083,44*7E
