###2023-12-09 12:41:00.945469$GNRMC,174100.10,A,4138.0600419,N,07032.3738211,W,1.03,34.95,091223,,,A*6D
###2023-12-09 12:41:00.949014$GNGGA,174100.10,4138.0600419,N,07032.3738211,W,1,23,0.7,13.563,M,-29.744,M,0.0,*56
###2023-12-09 12:41:00.951321$GPGSA,A,3,03,04,16,26,28,29,31,32,,,,,1.2,0.7,1.0*31
###2023-12-09 12:41:00.953334$GLGSA,A,3,71,72,73,74,75,,,,,,,,1.2,0.7,1.0*2D
###2023-12-09 12:41:00.955269$GAGSA,A,3,04,19,21,27,,,,,,,,,1.2,0.7,1.0*2C
###2023-12-09 12:41:00.957263$GBGSA,A,3,14,24,25,26,33,,,,,,,,1.2,0.7,1.0*25
###2023-12-09 12:41:00.960097$GPGSV,2,1,08,03,38,274,44,04,24,311,41,16,39,208,44,26,69,207,48*7A
###2023-12-09 12:41:00.962974$GPGSV,2,2,08,28,56,059,45,29,25,071,41,31,73,010,47,32,28,135,42*74
###2023-12-09 12:41:00.965828$GLGSV,2,1,05,71,54,170,47,72,68,305,46,73,45,035,46,74,71,299,43*6F
###2023-12-09 12:41:00.967611$GLGSV,2,2,05,75,24,243,44,,,,,,,,,,,,*51
###2023-12-09 12:41:00.970437$GAGSV,1,1,04,04,23,311,42,19,83,292,41,21,80,172,47,27,39,049,43*6A
###2023-12-09 12:41:00.973277$GBGSV,2,1,05,14,52,196,45,24,79,359,49,25,34,255,45,26,33,058,43*67
###2023-12-09 12:41:00.975056$GBGSV,2,2,05,33,62,248,47,,,,,,,,,,,,*57
###2023-12-09 12:41:00.976621$GNVTG,34.95,T,,M,1.03,N,1.91,K,A*13
###2023-12-09 12:41:00.978633$GNGST,174100.10,18.000,,,,0.078,0.070,0.160*53
###2023-12-09 12:41:00.980199$GNZDA,174100.10,09,12,2023,00,00*73
###2023-12-09 12:41:00.980970$GNEBP,,,,,,M*13
###2023-12-09 12:41:01.142460$GNGGA,174100.30,4138.0600642,N,07032.3737736,W,1,23,0.7,13.566,M,-29.744,M,0.0,*52
###2023-12-09 12:41:01.342915$GNGGA,174100.50,4138.0600617,N,07032.3737189,W,1,23,0.7,13.578,M,-29.744,M,0.0,*59
###2023-12-09 12:41:01.544807$GNGGA,174100.70,4138.0600860,N,07032.3736707,W,1,23,0.7,13.572,M,-29.744,M,0.0,*5E
###2023-12-09 12:41:01.743317$GNGGA,174100.90,4138.0601388,N,07032.3736323,W,1,23,0.7,13.562,M,-29.744,M,0.0,*5F
###2023-12-09 12:41:01.944253$GNRMC,174101.10,A,4138.0601853,N,07032.3736010,W,0.76,25.05,091223,,,A*68
###2023-12-09 12:41:01.947726$GNGGA,174101.10,4138.0601853,N,07032.3736010,W,1,23,0.7,13.547,M,-29.744,M,0.0,*5F
###2023-12-09 12:41:01.949983$GPGSA,A,3,03,04,16,26,28,29,31,32,,,,,1.2,0.7,1.0*31
###2023-12-09 12:41:01.951996$GLGSA,A,3,71,72,73,74,75,,,,,,,,1.2,0.7,1.0*2D
###2023-12-09 12:41:01.953914$GAGSA,A,3,04,19,21,27,,,,,,,,,1.2,0.7,1.0*2C
###2023-12-09 12:41:01.955921$GBGSA,A,3,14,24,25,26,33,,,,,,,,1.2,0.7,1.0*25
###2023-12-09 12:41:01.958780$GPGSV,2,1,08,03,38,274,46,04,24,311,42,16,39,208,45,26,69,207,47*75
###2023-12-09 12:41:01.961593$GPGSV,2,2,08,28,56,059,45,29,25,071,41,31,73,010,48,32,28,135,42*7B
###2023-12-09 12:41:01.964412$GLGSV,2,1,05,71,54,170,46,72,68,305,47,73,45,035,47,74,71,299,43*6E
###2023-12-09 12:41:01.966166$GLGSV,2,2,05,75,24,243,44,,,,,,,,,,,,*51
###2023-12-09 12:41:01.968976$GAGSV,1,1,04,04,23,311,41,19,83,292,41,21,80,172,46,27,39,049,45*6E
###2023-12-09 12:41:01.971803$GBGSV,2,1,05,14,52,196,45,24,79,359,50,25,34,255,45,26,33,058,43*6F
###2023-12-09 12:41:01.973561$GBGSV,2,2,05,33,62,248,47,,,,,,,,,,,,*57
###2023-12-09 12:41:01.975130$GNVTG,25.05,T,,M,0.76,N,1.40,K,A*15
###2023-12-09 12:41:01.977125$GNGST,174101.10,18.000,,,,0.078,0.070,0.160*52
###2023-12-09 12:41:01.978691$GNZDA,174101.10,09,12,2023,00,00*72
###2023-12-09 12:41:01.979460$GNEBP,,,,,,M*13
###2023-12-09 12:41:02.141468$GNGGA,174101.30,4138.0602005,N,07032.3735618,W,1,23,0.7,13.546,M,-29.744,M,0.0,*59
###2023-12-09 12:41:02.342236$GNGGA,174101.50,4138.0602080,N,07032.3735116,W,1,23,0.7,13.561,M,-29.744,M,0.0,*5E
###2023-12-09 12:41:02.543408$GNGGA,174101.70,4138.0602331,N,07032.3734736,W,1,23,0.7,13.546,M,-29.744,M,0.0,*55
###2023-12-09 12:41:02.741729$GNGGA,174101.90,4138.0602765,N,07032.3734477,W,1,23,0.7,13.537,M,-29.744,M,0.0,*5E
###2023-12-09 12:41:02.942989$GNRMC,174102.10,A,4138.0603184,N,07032.3734166,W,0.72,25.05,091223,,,A*6C
###2023-12-09 12:41:02.945859$GNGGA,174102.10,4138.0603184,N,07032.3734166,W,1,23,0.7,13.524,M,-29.744,M,0.0,*5A
###2023-12-09 12:41:02.947756$GPGSA,A,3,03,04,16,26,28,29,31,32,,,,,1.2,0.7,1.0*31
###2023-12-09 12:41:02.949437$GLGSA,A,3,71,72,73,74,75,,,,,,,,1.2,0.7,1.0*2D
###2023-12-09 12:41:02.951041$GAGSA,A,3,04,19,21,27,,,,,,,,,1.2,0.7,1.0*2C
###2023-12-09 12:41:02.952692$GBGSA,A,3,14,24,25,26,33,,,,,,,,1.2,0.7,1.0*25
###2023-12-09 12:41:02.955044$GPGSV,2,1,08,03,38,274,45,04,24,311,42,16,39,208,45,26,69,207,48*79
###2023-12-09 12:41:02.957382$GPGSV,2,2,08,28,56,059,45,29,25,071,43,31,73,010,48,32,28,135,41*7A
###2023-12-09 12:41:02.959733$GLGSV,2,1,05,71,54,170,44,72,68,305,47,73,45,035,46,74,71,299,43*6D
###2023-12-09 12:41:02.961185$GLGSV,2,2,05,75,24,243,43,,,,,,,,,,,,*56
###2023-12-09 12:41:02.963529$GAGSV,1,1,04,04,23,311,42,19,83,292,41,21,80,172,46,27,39,049,44*6C
###2023-12-09 12:41:02.965864$GBGSV,2,1,05,14,52,196,46,24,79,359,48,25,34,255,46,26,33,058,43*66
###2023-12-09 12:41:02.967336$GBGSV,2,2,05,33,62,248,48,,,,,,,,,,,,*58
###2023-12-09 12:41:02.968627$GNVTG,25.05,T,,M,0.72,N,1.33,K,A*15
###2023-12-09 12:41:02.970276$GNGST,174102.10,18.000,,,,0.078,0.069,0.160*59
###2023-12-09 12:41:02.971580$GNZDA,174102.10,09,12,2023,00,00*71
###2023-12-09 12:41:02.972222$GNEBP,,,,,,M*13
###2023-12-09 12:41:03.142479$GNGGA,174102.30,4138.0603342,N,07032.3733750,W,1,23,0.7,13.531,M,-29.744,M,0.0,*50
###2023-12-09 12:41:03.342254$GNGGA,174102.50,4138.0603384,N,07032.3733381,W,1,23,0.7,13.529,M,-29.744,M,0.0,*5D
###2023-12-09 12:41:03.545361$GNGGA,174102.70,4138.0603574,N,07032.3733060,W,1,23,0.7,13.511,M,-29.744,M,0.0,*51
###2023-12-09 12:41:03.741964$GNGGA,174102.90,4138.0603981,N,07032.3732756,W,1,23,0.7,13.499,M,-29.744,M,0.0,*5B
###2023-12-09 12:41:03.943992$GNRMC,174103.10,A,4138.0604367,N,07032.3732431,W,0.62,25.05,091223,,,A*65
###2023-12-09 12:41:03.946881$GNGGA,174103.10,4138.0604367,N,07032.3732431,W,1,23,0.7,13.488,M,-29.744,M,0.0,*55
###2023-12-09 12:41:03.948780$GPGSA,A,3,03,04,16,26,28,29,31,32,,,,,1.2,0.7,1.0*31
###2023-12-09 12:41:03.950449$GLGSA,A,3,71,72,73,74,75,,,,,,,,1.2,0.7,1.0*2D
###2023-12-09 12:41:03.952060$GAGSA,A,3,04,19,21,27,,,,,,,,,1.2,0.7,1.0*2C
###2023-12-09 12:41:03.953707$GBGSA,A,3,14,24,25,26,33,,,,,,,,1.2,0.7,1.0*25
###2023-12-09 12:41:03.956046$GPGSV,2,1,08,03,38,274,46,04,24,311,41,16,39,208,45,26,69,207,48*79
###2023-12-09 12:41:03.958379$GPGSV,2,2,08,28,56,059,45,29,25,071,42,31,73,010,48,32,28,135,41*7B
###2023-12-09 12:41:03.960719$GLGSV,2,1,05,71,54,170,44,72,68,305,47,73,45,035,46,74,71,299,43*6D
###2023-12-09 12:41:03.962169$GLGSV,2,2,05,75,24,243,43,,,,,,,,,,,,*56
###2023-12-09 12:41:03.964504$GAGSV,1,1,04,04,23,311,41,19,83,292,41,21,80,172,46,27,39,049,45*6E
###2023-12-09 12:41:03.966851$GBGSV,2,1,05,14,52,196,45,24,79,359,49,25,34,255,44,26,33,058,43*66
###2023-12-09 12:41:03.968305$GBGSV,2,2,05,33,62,248,47,,,,,,,,,,,,*57
###2023-12-09 12:41:03.969592$GNVTG,25.05,T,,M,0.62,N,1.15,K,A*10
###2023-12-09 12:41:03.971250$GNGST,174103.10,18.000,,,,0.079,0.070,0.160*51
###2023-12-09 12:41:03.972543$GNZDA,174103.10,09,12,2023,00,00*70
###2023-12-09 12:41:03.973184$GNEBP,,,,,,M*13
###2023-12-09 12:41:04.142477$GNGGA,174103.30,4138.0604482,N,07032.3732093,W,1,23,0.7,13.494,M,-29.744,M,0.0,*5A
###2023-12-09 12:41:04.343013$GNGGA,174103.50,4138.0604524,N,07032.3731738,W,1,23,0.7,13.491,M,-29.744,M,0.0,*51
###2023-12-09 12:41:04.542401$GNGGA,174103.70,4138.0604733,N,07032.3731414,W,1,23,0.7,13.479,M,-29.744,M,0.0,*5C
###2023-12-09 12:41:04.741548$GNGGA,174103.90,4138.0605116,N,07032.3731114,W,1,23,0.7,13.470,M,-29.744,M,0.0,*5E
###2023-12-09 12:41:04.943831$GNRMC,174104.10,A,4138.0605434,N,07032.3730814,W,0.56,25.05,091223,,,A*6C
###2023-12-09 12:41:04.946708$GNGGA,174104.10,4138.0605434,N,07032.3730814,W,1,23,0.7,13.454,M,-29.744,M,0.0,*5A
###2023-12-09 12:41:04.948575$GPGSA,A,3,03,04,16,26,28,29,31,32,,,,,1.2,0.7,1.0*31
###2023-12-09 12:41:04.950226$GLGSA,A,3,71,72,73,74,75,,,,,,,,1.2,0.7,1.0*2D
###2023-12-09 12:41:04.951830$GAGSA,A,3,04,19,21,27,,,,,,,,,1.2,0.7,1.0*2C
###2023-12-09 12:41:04.953485$GBGSA,A,3,14,24,25,26,33,,,,,,,,1.2,0.7,1.0*25
###2023-12-09 12:41:04.955833$GPGSV,2,1,08,03,38,274,46,04,24,311,42,16,39,208,45,26,69,207,48*7A
###2023-12-09 12:41:04.958170$GPGSV,2,2,08,28,56,059,45,29,25,071,41,31,73,010,48,32,28,135,40*79
###2023-12-09 12:41:04.960890$GLGSV,2,1,05,71,54,170,46,72,68,305,47,73,45,035,47,74,71,299,43*6E
###2023-12-09 12:41:04.962364$GLGSV,2,2,05,75,24,243,43,,,,,,,,,,,,*56
###2023-12-09 12:41:04.964719$GAGSV,1,1,04,04,23,311,41,19,83,292,41,21,80,172,46,27,39,049,44*6F
###2023-12-09 12:41:04.967074$GBGSV,2,1,05,14,52,196,46,24,79,359,49,25,34,255,45,26,33,058,43*64
###2023-12-09 12:41:04.968536$GBGSV,2,2,05,33,62,248,48,,,,,,,,,,,,*58
###2023-12-09 12:41:04.969828$GNVTG,25.05,T,,M,0.56,N,1.04,K,A*17
###2023-12-09 12:41:04.971490$GNGST,174104.10,18.000,,,,0.079,0.069,0.160*5E
###2023-12-09 12:41:04.972784$GNZDA,174104.10,09,12,2023,00,00*77
