###2023-12-09 13:08:51.992539$GLGSV,2,2,06,74,68,348,43,75,35,257,47,,,,,,,,*61
###2023-12-09 13:08:51.994910$GAGSV,1,1,04,04,31,312,41,19,82,199,40,21,85,085,46,27,31,048,43*65
###2023-12-09 13:08:51.997255$GBGSV,2,1,06,14,40,192,44,24,71,031,48,25,43,265,47,26,24,064,42*6F
###2023-12-09 13:08:51.999033$GBGSV,2,2,06,33,55,228,48,35,15,066,43,,,,,,,,*6C
###2023-12-09 13:08:52.000365$GNVTG,104.13,T,,M,3.71,N,6.88,K,A*27
###2023-12-09 13:08:52.002012$GNGST,180851.10,18.000,,,,0.081,0.065,0.150*54
###2023-12-09 13:08:52.003331$GNZDA,180851.10,09,12,2023,00,00*75
###2023-12-09 13:08:52.003976$GNEBP,,,,,,M*13
###2023-12-09 13:08:52.169604$GNGGA,180851.30,4138.0820773,N,07032.2624379,W,1,25,0.6,13.194,M,-29.741,M,0.0,*5D
###2023-12-09 13:08:52.370295$GNGGA,180851.50,4138.0820717,N,07032.2621720,W,1,25,0.6,13.216,M,-29.741,M,0.0,*5D
###2023-12-09 13:08:52.570515$GNGGA,180851.70,4138.0820697,N,07032.2618924,W,1,25,0.6,13.206,M,-29.741,M,0.0,*57
###2023-12-09 13:08:52.770500$GNGGA,180851.90,4138.0820503,N,07032.2616207,W,1,25,0.6,13.187,M,-29.741,M,0.0,*59
###2023-12-09 13:08:52.976742$GNRMC,180852.10,A,4138.0820487,N,07032.2613542,W,3.69,89.58,091223,,,A*62
###2023-12-09 13:08:52.983951$GNGGA,180852.10,4138.0820487,N,07032.2613542,W,1,25,0.6,13.212,M,-29.741,M,0.0,*53
###2023-12-09 13:08:52.986079$GPGSA,A,3,03,04,16,26,28,29,31,32,,,,,1.1,0.6,0.9*3B
###2023-12-09 13:08:52.987799$GLGSA,A,3,65,71,72,73,74,75,,,,,,,1.1,0.6,0.9*24
###2023-12-09 13:08:52.989371$GAGSA,A,3,04,19,21,27,,,,,,,,,1.1,0.6,0.9*26
###2023-12-09 13:08:52.991081$GBGSA,A,3,14,24,25,26,33,35,,,,,,,1.1,0.6,0.9*29
###2023-12-09 13:08:52.993387$GPGSV,2,1,08,03,34,258,44,04,35,311,44,16,53,214,47,26,83,210,48*7D
###2023-12-09 13:08:52.995716$GPGSV,2,2,08,28,47,073,42,29,25,058,40,31,67,044,46,32,16,141,42*7A
###2023-12-09 13:08:52.998042$GLGSV,2,1,06,65,27,326,41,71,36,173,45,72,72,254,46,73,32,044,44*67
###2023-12-09 13:08:52.999790$GLGSV,2,2,06,74,68,348,42,75,35,257,47,,,,,,,,*60
###2023-12-09 13:08:53.002101$GAGSV,1,1,04,04,31,312,41,19,82,199,41,21,85,085,46,27,31,048,41*66
###2023-12-09 13:08:53.004420$GBGSV,2,1,06,14,40,192,45,24,71,031,48,25,43,265,46,26,24,064,42*6F
###2023-12-09 13:08:53.006158$GBGSV,2,2,06,33,55,228,47,35,15,066,41,,,,,,,,*61
###2023-12-09 13:08:53.007449$GNVTG,89.58,T,,M,3.69,N,6.84,K,A*19
###2023-12-09 13:08:53.009085$GNGST,180852.10,18.000,,,,0.081,0.065,0.150*57
###2023-12-09 13:08:53.010361$GNZDA,180852.10,09,12,2023,00,00*76
###2023-12-09 13:08:53.011006$GNEBP,,,,,,M*13
###2023-12-09 13:08:53.175137$GNGGA,180852.30,4138.0820455,N,07032.2610770,W,1,25,0.6,13.217,M,-29.741,M,0.0,*5B
###2023-12-09 13:08:53.369700$GNGGA,180852.50,4138.0820591,N,07032.2608065,W,1,25,0.6,13.204,M,-29.741,M,0.0,*5C
###2023-12-09 13:08:53.570559$GNGGA,180852.70,4138.0820844,N,07032.2605387,W,1,25,0.6,13.209,M,-29.741,M,0.0,*54
###2023-12-09 13:08:53.772380$GNGGA,180852.90,4138.0820836,N,07032.2602590,W,1,25,0.6,13.193,M,-29.741,M,0.0,*58
###2023-12-09 13:08:53.973193$GNRMC,180853.10,A,4138.0820890,N,07032.2599900,W,3.62,83.37,091223,,,A*6A
###2023-12-09 13:08:53.976061$GNGGA,180853.10,4138.0820890,N,07032.2599900,W,1,25,0.6,13.199,M,-29.741,M,0.0,*53
###2023-12-09 13:08:53.977914$GPGSA,A,3,03,04,16,26,28,29,31,32,,,,,1.1,0.6,0.9*3B
###2023-12-09 13:08:53.979644$GLGSA,A,3,65,71,72,73,74,75,,,,,,,1.1,0.6,0.9*24
###2023-12-09 13:08:53.981229$GAGSA,A,3,04,19,21,27,,,,,,,,,1.1,0.6,0.9*26
###2023-12-09 13:08:53.982949$GBGSA,A,3,14,24,25,26,33,35,,,,,,,1.1,0.6,0.9*29
###2023-12-09 13:08:53.985267$GPGSV,2,1,08,03,34,258,44,04,35,311,44,16,53,214,48,26,83,210,48*72
###2023-12-09 13:08:53.987605$GPGSV,2,2,08,28,47,073,42,29,25,058,40,31,67,044,46,32,16,141,42*7A
###2023-12-09 13:08:53.989931$GLGSV,2,1,06,65,27,326,41,71,36,173,46,72,72,254,46,73,32,044,44*64
###2023-12-09 13:08:53.991684$GLGSV,2,2,06,74,68,348,42,75,35,257,47,,,,,,,,*60
###2023-12-09 13:08:53.994007$GAGSV,1,1,04,04,31,312,40,19,82,199,41,21,85,085,46,27,31,048,41*67
###2023-12-09 13:08:53.996362$GBGSV,2,1,06,14,40,192,45,24,71,031,48,25,43,265,46,26,24,064,41*6C
###2023-12-09 13:08:53.998106$GBGSV,2,2,06,33,55,228,49,35,15,066,41,,,,,,,,*6F
###2023-12-09 13:08:53.999411$GNVTG,83.37,T,,M,3.62,N,6.70,K,A*1A
###2023-12-09 13:08:54.001057$GNGST,180853.10,18.000,,,,0.081,0.065,0.150*56
###2023-12-09 13:08:54.002347$GNZDA,180853.10,09,12,2023,00,00*77
###2023-12-09 13:08:54.002998$GNEBP,,,,,,M*13
###2023-12-09 13:08:54.170111$GNGGA,180853.30,4138.0821228,N,07032.2597208,W,1,25,0.6,13.233,M,-29.741,M,0.0,*57
###2023-12-09 13:08:54.372612$GNGGA,180853.50,4138.0821239,N,07032.2594405,W,1,25,0.6,13.212,M,-29.741,M,0.0,*5A
###2023-12-09 13:08:54.570527$GNGGA,180853.70,4138.0820896,N,07032.2591780,W,1,25,0.6,13.170,M,-29.741,M,0.0,*5A
###2023-12-09 13:08:54.771714$GNGGA,180853.90,4138.0821000,N,07032.2589197,W,1,25,0.6,13.213,M,-29.741,M,0.0,*5D
###2023-12-09 13:08:54.974308$GNRMC,180854.10,A,4138.0821241,N,07032.2586525,W,3.48,89.47,091223,,,A*6A
###2023-12-09 13:08:54.977183$GNGGA,180854.10,4138.0821241,N,07032.2586525,W,1,25,0.6,13.219,M,-29.741,M,0.0,*5D
###2023-12-09 13:08:54.979063$GPGSA,A,3,03,04,16,26,28,29,31,32,,,,,1.1,0.6,0.9*3B
###2023-12-09 13:08:54.980781$GLGSA,A,3,65,71,72,73,74,75,,,,,,,1.1,0.6,0.9*24
###2023-12-09 13:08:54.982367$GAGSA,A,3,04,19,21,27,,,,,,,,,1.1,0.6,0.9*26
###2023-12-09 13:08:54.984093$GBGSA,A,3,14,24,25,26,33,35,,,,,,,1.1,0.6,0.9*29
###2023-12-09 13:08:54.986423$GPGSV,2,1,08,03,34,258,44,04,35,311,45,16,53,214,46,26,83,210,48*7D
###2023-12-09 13:08:54.988771$GPGSV,2,2,08,28,47,073,43,29,25,058,43,31,67,044,47,32,16,141,40*7B
###2023-12-09 13:08:54.991123$GLGSV,2,1,06,65,27,326,41,71,36,173,44,72,72,254,46,73,32,044,45*67
###2023-12-09 13:08:54.992871$GLGSV,2,2,06,74,68,348,43,75,35,257,46,,,,,,,,*60
###2023-12-09 13:08:54.995218$GAGSV,1,1,04,04,31,312,42,19,82,199,41,21,85,085,46,27,31,048,43*67
###2023-12-09 13:08:54.997554$GBGSV,2,1,06,14,40,192,43,24,71,031,48,25,43,265,46,26,24,064,43*68
###2023-12-09 13:08:54.999321$GBGSV,2,2,06,33,55,228,47,35,15,066,43,,,,,,,,*63
###2023-12-09 13:08:55.000617$GNVTG,89.47,T,,M,3.48,N,6.44,K,A*18
###2023-12-09 13:08:55.002260$GNGST,180854.10,18.000,,,,0.081,0.065,0.150*51
###2023-12-09 13:08:55.003565$GNZDA,180854.10,09,12,2023,00,00*70
###2023-12-09 13:08:55.004204$GNEBP,,,,,,M*13
###2023-12-09 13:08:55.170075$GNGGA,180854.30,4138.0821036,N,07032.2583915,W,1,25,0.6,13.211,M,-29.741,M,0.0,*5F
###2023-12-09 13:08:55.370604$GNGGA,180854.50,4138.0820440,N,07032.2581169,W,1,25,0.6,13.193,M,-29.741,M,0.0,*55
###2023-12-09 13:08:55.571157$GNGGA,180854.70,4138.0820464,N,07032.2578505,W,1,25,0.6,13.205,M,-29.741,M,0.0,*55
###2023-12-09 13:08:55.769389$GNGGA,180854.90,4138.0821147,N,07032.2575869,W,1,25,0.6,13.236,M,-29.741,M,0.0,*54
###2023-12-09 13:08:55.973505$GNRMC,180855.10,A,4138.0821055,N,07032.2573055,W,3.98,104.38,091223,,,A*55
###2023-12-09 13:08:55.976403$GNGGA,180855.10,4138.0821055,N,07032.2573055,W,1,25,0.6,13.214,M,-29.741,M,0.0,*5E
###2023-12-09 13:08:55.978270$GPGSA,A,3,03,04,16,26,28,29,31,32,,,,,1.1,0.6,0.9*3B
###2023-12-09 13:08:55.979999$GLGSA,A,3,65,71,72,73,74,75,,,,,,,1.1,0.6,0.9*24
###2023-12-09 13:08:55.981591$GAGSA,A,3,04,19,21,27,,,,,,,,,1.1,0.6,0.9*26
###2023-12-09 13:08:55.983320$GBGSA,A,3,14,24,25,26,33,35,,,,,,,1.1,0.6,0.9*29
###2023-12-09 13:08:55.985658$GPGSV,2,1,08,03,34,258,44,04,35,311,44,16,53,214,46,26,83,210,48*7C
###2023-12-09 13:08:55.988018$GPGSV,2,2,08,28,47,073,43,29,25,058,41,31,67,044,46,32,16,141,37*78
###2023-12-09 13:08:55.990365$GLGSV,2,1,06,65,27,326,42,71,36,173,44,72,72,254,46,73,32,044,45*64
###2023-12-09 13:08:55.992139$GLGSV,2,2,06,74,68,348,43,75,35,257,45,,,,,,,,*63
###2023-12-09 13:08:55.994473$GAGSV,1,1,04,04,31,312,42,19,82,199,40,21,85,085,46,27,31,048,42*67
###2023-12-09 13:08:55.996822$GBGSV,2,1,06,14,40,192,43,24,71,031,49,25,43,265,46,26,24,064,45*6F
###2023-12-09 13:08:55.998590$GBGSV,2,2,06,33,55,228,47,35,15,066,44,,,,,,,,*64
###2023-12-09 13:08:55.999920$GNVTG,104.38,T,,M,3.98,N,7.38,K,A*23
###2023-12-09 13:08:56.001580$GNGST,180855.10,18.000,,,,0.081,0.065,0.150*50
###2023-12-09 13:08:56.002891$GNZDA,180855.10,09,12,2023,00,00*71
###2023-12-09 13:08:56.003777$GNEBP,,,,,,M*13
###2023-12-09 13:08:56.169501$GNGGA,180855.30,4138.0820604,N,07032.2570279,W,1,25,0.6,13.191,M,-29.741,M,0.0,*5E
###2023-12-09 13:08:56.370207$GNGGA,180855.50,4138.0820842,N,07032.2567586,W,1,25,0.6,13.213,M,-29.741,M,0.0,*5C
###2023-12-09 13:08:56.570354$GNGGA,180855.70,4138.0821402,N,07032.2564896,W,1,25,0.6,13.199,M,-29.741,M,0.0,*59
###2023-12-09 13:08:56.770360$GNGGA,180855.90,4138.0821868,N,07032.2562344,W,1,25,0.6,13.190,M,-29.741,M,0.0,*5C
###2023-12-09 13:08:56.979865$GNRMC,180856.10,A,4138.0821960,N,07032.2559453,W,4.22,94.89,091223,,,A*67
###2023-12-09 13:08:56.982738$GNGGA,180856.10,4138.0821960,N,07032.2559453,W,1,25,0.6,13.238,M,-29.741,M,0.0,*56
###2023-12-09 13:08:56.984594$GPGSA,A,3,03,04,16,26,28,29,31,32,,,,,1.1,0.6,0.9*3B
###2023-12-09 13:08:56.986300$GLGSA,A,3,65,71,72,73,74,75,,,,,,,1.1,0.6,0.9*24
