###2023-12-09 12:34:58.940990$GPGSA,A,3,03,04,16,26,28,29,31,32,,,,,1.2,0.7,1.0*31
###2023-12-09 12:34:58.942690$GLGSA,A,3,71,72,73,74,75,,,,,,,,1.2,0.7,1.0*2D
###2023-12-09 12:34:58.944283$GAGSA,A,3,04,19,21,27,,,,,,,,,1.2,0.7,1.0*2C
###2023-12-09 12:34:58.945932$GBGSA,A,3,14,24,25,26,33,,,,,,,,1.2,0.7,1.0*25
###2023-12-09 12:34:58.948301$GPGSV,2,1,08,03,39,277,42,04,22,311,44,16,37,207,46,26,66,206,48*70
###2023-12-09 12:34:58.950679$GPGSV,2,2,08,28,58,056,44,29,25,074,40,31,73,001,47,32,30,134,45*7F
###2023-12-09 12:34:58.953030$GLGSV,2,1,05,71,57,169,48,72,65,310,47,73,48,033,47,74,71,290,43*60
###2023-12-09 12:34:58.954494$GLGSV,2,2,05,75,22,241,44,,,,,,,,,,,,*55
###2023-12-09 12:34:58.956842$GAGSV,1,1,04,04,21,311,41,19,81,304,41,21,77,177,46,27,42,050,41*6D
###2023-12-09 12:34:58.959208$GBGSV,2,1,05,14,55,198,44,24,81,343,48,25,32,252,46,26,35,057,45*6F
###2023-12-09 12:34:58.960673$GBGSV,2,2,05,33,63,255,47,,,,,,,,,,,,*5A
###2023-12-09 12:34:58.961968$GNVTG,84.40,T,,M,0.25,N,0.47,K,A*1F
###2023-12-09 12:34:58.963643$GNGST,173458.10,18.000,,,,0.080,0.071,0.170*5B
###2023-12-09 12:34:58.964944$GNZDA,173458.10,09,12,2023,00,00*7C
###2023-12-09 12:34:58.965583$GNEBP,,,,,,M*13
###2023-12-09 12:34:59.133612$GNGGA,173458.30,4138.0482285,N,07032.4230523,W,1,23,0.7,13.026,M,-29.745,M,0.0,*59
###2023-12-09 12:34:59.333997$GNGGA,173458.50,4138.0482486,N,07032.4230777,W,1,23,0.7,13.031,M,-29.745,M,0.0,*5F
###2023-12-09 12:34:59.539990$GNGGA,173458.70,4138.0482545,N,07032.4230782,W,1,23,0.7,13.039,M,-29.745,M,0.0,*51
###2023-12-09 12:34:59.733751$GNGGA,173458.90,4138.0482541,N,07032.4230713,W,1,23,0.7,13.036,M,-29.745,M,0.0,*5C
###2023-12-09 12:34:59.936206$GNRMC,173459.10,A,4138.0482611,N,07032.4230786,W,0.37,84.40,091223,,,A*65
###2023-12-09 12:34:59.939076$GNGGA,173459.10,4138.0482611,N,07032.4230786,W,1,23,0.7,13.028,M,-29.745,M,0.0,*50
###2023-12-09 12:34:59.940939$GPGSA,A,3,03,04,16,26,28,29,31,32,,,,,1.2,0.7,1.0*31
###2023-12-09 12:34:59.942606$GLGSA,A,3,71,72,73,74,75,,,,,,,,1.2,0.7,1.0*2D
###2023-12-09 12:34:59.944194$GAGSA,A,3,04,19,21,27,,,,,,,,,1.2,0.7,1.0*2C
###2023-12-09 12:34:59.945841$GBGSA,A,3,14,24,25,26,33,,,,,,,,1.2,0.7,1.0*25
###2023-12-09 12:34:59.948201$GPGSV,2,1,08,03,39,277,43,04,22,311,43,16,37,207,46,26,66,206,48*76
###2023-12-09 12:34:59.950559$GPGSV,2,2,08,28,58,056,45,29,25,074,40,31,73,001,45,32,30,134,45*7C
###2023-12-09 12:34:59.952922$GLGSV,2,1,05,71,57,169,49,72,65,310,46,73,48,033,47,74,71,290,43*60
###2023-12-09 12:34:59.954379$GLGSV,2,2,05,75,22,241,44,,,,,,,,,,,,*55
###2023-12-09 12:34:59.956722$GAGSV,1,1,04,04,21,311,41,19,81,302,41,21,77,177,46,27,42,050,41*6B
###2023-12-09 12:34:59.959071$GBGSV,2,1,05,14,55,198,44,24,81,343,48,25,32,252,45,26,35,057,44*6D
###2023-12-09 12:34:59.960525$GBGSV,2,2,05,33,63,255,48,,,,,,,,,,,,*55
###2023-12-09 12:34:59.961819$GNVTG,84.40,T,,M,0.37,N,0.68,K,A*11
###2023-12-09 12:34:59.963485$GNGST,173459.10,19.000,,,,0.080,0.071,0.170*5B
###2023-12-09 12:34:59.964784$GNZDA,173459.10,09,12,2023,00,00*7D
###2023-12-09 12:34:59.965422$GNEBP,,,,,,M*13
###2023-12-09 12:35:00.133874$GNGGA,173459.30,4138.0482790,N,07032.4231037,W,1,23,0.7,13.021,M,-29.745,M,0.0,*5F
###2023-12-09 12:35:00.333161$GNGGA,173459.50,4138.0482975,N,07032.4231284,W,1,23,0.7,13.020,M,-29.745,M,0.0,*57
###2023-12-09 12:35:00.542872$GNGGA,173459.70,4138.0483022,N,07032.4231265,W,1,23,0.7,13.036,M,-29.745,M,0.0,*57
###2023-12-09 12:35:00.734223$GNGGA,173459.90,4138.0482985,N,07032.4231130,W,1,23,0.7,13.036,M,-29.745,M,0.0,*5F
###2023-12-09 12:35:00.934793$GNRMC,173500.10,A,4138.0483077,N,07032.4231222,W,0.47,84.40,091223,,,A*62
###2023-12-09 12:35:00.937633$GNGGA,173500.10,4138.0483077,N,07032.4231222,W,1,23,0.7,13.024,M,-29.745,M,0.0,*5C
###2023-12-09 12:35:00.939501$GPGSA,A,3,03,04,16,26,28,29,31,32,,,,,1.2,0.7,1.0*31
###2023-12-09 12:35:00.941153$GLGSA,A,3,71,72,73,74,75,,,,,,,,1.2,0.7,1.0*2D
###2023-12-09 12:35:00.942750$GAGSA,A,3,04,19,21,27,,,,,,,,,1.2,0.7,1.0*2C
###2023-12-09 12:35:00.944398$GBGSA,A,3,14,24,25,26,33,,,,,,,,1.2,0.7,1.0*25
###2023-12-09 12:35:00.946761$GPGSV,2,1,08,03,39,277,42,04,22,311,43,16,37,207,47,26,66,206,47*79
###2023-12-09 12:35:00.949151$GPGSV,2,2,08,28,58,056,44,29,25,074,42,31,73,001,46,32,30,134,46*7F
###2023-12-09 12:35:00.951536$GLGSV,2,1,05,71,57,169,48,72,65,310,46,73,48,033,45,74,71,290,42*62
###2023-12-09 12:35:00.953006$GLGSV,2,2,05,75,22,241,44,,,,,,,,,,,,*55
###2023-12-09 12:35:00.955352$GAGSV,1,1,04,04,21,311,40,19,81,302,41,21,78,176,46,27,42,050,41*64
###2023-12-09 12:35:00.957688$GBGSV,2,1,05,14,55,198,45,24,81,343,48,25,32,252,44,26,35,057,45*6C
###2023-12-09 12:35:00.959168$GBGSV,2,2,05,33,63,255,47,,,,,,,,,,,,*5A
###2023-12-09 12:35:00.960465$GNVTG,84.40,T,,M,0.47,N,0.86,K,A*16
###2023-12-09 12:35:00.962118$GNGST,173500.10,18.000,,,,0.080,0.071,0.160*56
###2023-12-09 12:35:00.963429$GNZDA,173500.10,09,12,2023,00,00*70
###2023-12-09 12:35:00.964069$GNEBP,,,,,,M*13
###2023-12-09 12:35:01.136181$GNGGA,173500.30,4138.0483315,N,07032.4231577,W,1,23,0.7,13.020,M,-29.745,M,0.0,*5A
###2023-12-09 12:35:01.336126$GNGGA,173500.50,4138.0483470,N,07032.4231833,W,1,23,0.7,13.023,M,-29.745,M,0.0,*56
###2023-12-09 12:35:01.533887$GNGGA,173500.70,4138.0483466,N,07032.4231724,W,1,23,0.7,13.039,M,-29.745,M,0.0,*51
###2023-12-09 12:35:01.733290$GNGGA,173500.90,4138.0483438,N,07032.4231565,W,1,23,0.7,13.035,M,-29.745,M,0.0,*5F
###2023-12-09 12:35:01.936624$GNRMC,173501.10,A,4138.0483567,N,07032.4231767,W,0.68,84.40,091223,,,A*6E
###2023-12-09 12:35:01.939509$GNGGA,173501.10,4138.0483567,N,07032.4231767,W,1,23,0.7,13.027,M,-29.745,M,0.0,*5E
###2023-12-09 12:35:01.941369$GPGSA,A,3,03,04,16,26,28,29,31,32,,,,,1.2,0.7,1.0*31
###2023-12-09 12:35:01.943035$GLGSA,A,3,71,72,73,74,75,,,,,,,,1.2,0.7,1.0*2D
###2023-12-09 12:35:01.944626$GAGSA,A,3,04,19,21,27,,,,,,,,,1.2,0.7,1.0*2C
###2023-12-09 12:35:01.946287$GBGSA,A,3,14,24,25,26,33,,,,,,,,1.2,0.7,1.0*25
###2023-12-09 12:35:01.948665$GPGSV,2,1,08,03,39,277,44,04,22,311,43,16,37,207,45,26,66,206,48*72
###2023-12-09 12:35:01.951043$GPGSV,2,2,08,28,58,056,44,29,25,074,38,31,73,001,46,32,30,134,47*73
###2023-12-09 12:35:01.953396$GLGSV,2,1,05,71,57,169,48,72,65,310,46,73,48,033,46,74,71,290,42*61
###2023-12-09 12:35:01.954877$GLGSV,2,2,05,75,22,241,44,,,,,,,,,,,,*55
###2023-12-09 12:35:01.957212$GAGSV,1,1,04,04,21,311,40,19,81,302,41,21,78,176,46,27,42,050,41*64
###2023-12-09 12:35:01.959582$GBGSV,2,1,05,14,55,198,45,24,81,343,47,25,32,252,43,26,35,057,44*65
###2023-12-09 12:35:01.961054$GBGSV,2,2,05,33,63,255,48,,,,,,,,,,,,*55
###2023-12-09 12:35:01.962356$GNVTG,84.40,T,,M,0.68,N,1.26,K,A*10
###2023-12-09 12:35:01.964028$GNGST,173501.10,19.000,,,,0.080,0.071,0.160*56
###2023-12-09 12:35:01.965335$GNZDA,173501.10,09,12,2023,00,00*71
###2023-12-09 12:35:01.965980$GNEBP,,,,,,M*13
###2023-12-09 12:35:02.134128$GNGGA,173501.30,4138.0483839,N,07032.4232229,W,1,23,0.7,13.020,M,-29.745,M,0.0,*51
###2023-12-09 12:35:02.334978$GNGGA,173501.50,4138.0483948,N,07032.4232303,W,1,23,0.7,13.017,M,-29.745,M,0.0,*5D
###2023-12-09 12:35:02.534325$GNGGA,173501.70,4138.0483879,N,07032.4232119,W,1,23,0.7,13.031,M,-29.745,M,0.0,*51
###2023-12-09 12:35:02.732547$GNGGA,173501.90,4138.0483942,N,07032.4232199,W,1,23,0.7,13.039,M,-29.745,M,0.0,*56
###2023-12-09 12:35:02.936343$GNRMC,173502.10,A,4138.0484215,N,07032.4232627,W,0.68,84.40,091223,,,A*6E
###2023-12-09 12:35:02.939229$GNGGA,173502.10,4138.0484215,N,07032.4232627,W,1,23,0.7,13.044,M,-29.745,M,0.0,*5B
###2023-12-09 12:35:02.941104$GPGSA,A,3,03,04,16,26,28,29,31,32,,,,,1.2,0.7,1.0*31
###2023-12-09 12:35:02.942777$GLGSA,A,3,71,72,73,74,75,,,,,,,,1.2,0.7,1.0*2D
###2023-12-09 12:35:02.944367$GAGSA,A,3,04,19,21,27,,,,,,,,,1.2,0.7,1.0*2C
###2023-12-09 12:35:02.946012$GBGSA,A,3,14,24,25,26,33,,,,,,,,1.2,0.7,1.0*25
###2023-12-09 12:35:02.948385$GPGSV,2,1,08,03,39,277,44,04,22,311,43,16,37,207,45,26,66,206,47*7D
###2023-12-09 12:35:02.950755$GPGSV,2,2,08,28,58,056,44,29,25,074,38,31,73,001,46,32,30,134,44*70
###2023-12-09 12:35:02.953090$GLGSV,2,1,05,71,57,169,49,72,65,310,47,73,48,033,46,74,71,290,43*60
###2023-12-09 12:35:02.954549$GLGSV,2,2,05,75,22,241,46,,,,,,,,,,,,*57
###2023-12-09 12:35:02.957157$GAGSV,1,1,04,04,21,311,41,19,81,302,40,21,78,176,46,27,42,050,41*64
###2023-12-09 12:35:02.959509$GBGSV,2,1,05,14,55,198,46,24,81,343,50,25,32,252,43,26,35,057,45*61
###2023-12-09 12:35:02.960973$GBGSV,2,2,05,33,63,255,49,,,,,,,,,,,,*54
###2023-12-09 12:35:02.962263$GNVTG,84.40,T,,M,0.68,N,1.26,K,A*10
###2023-12-09 12:35:02.963935$GNGST,173502.10,18.000,,,,0.080,0.071,0.160*54
###2023-12-09 12:35:02.965232$GNZDA,173502.10,09,12,2023,00,00*72
###2023-12-09 12:35:02.965873$GNEBP,,,,,,M*13
###2023-12-09 12:35:03.136125$GNGGA,173502.30,4138.0484361,N,07032.4232805,W,1,23,0.7,13.022,M,-29.745,M,0.0,*55
