###2023-12-09 13:42:22.008438$GLGSA,A,3,65,72,73,74,75,,,,,,,,1.1,0.6,0.8*23
###2023-12-09 13:42:22.010041$GAGSA,A,3,04,19,21,27,,,,,,,,,1.1,0.6,0.8*27
###2023-12-09 13:42:22.011709$GBGSA,A,3,12,24,25,33,35,,,,,,,,1.1,0.6,0.8*2A
###2023-12-09 13:42:22.014026$GPGSV,2,1,08,03,24,243,39,04,49,306,45,09,15,317,35,16,70,226,46*7F
###2023-12-09 13:42:22.016372$GPGSV,2,2,08,26,80,041,50,28,35,088,44,29,19,044,42,31,57,071,48*7E
###2023-12-09 13:42:22.018706$GLGSV,2,1,05,65,41,315,43,72,59,216,47,73,20,054,43,74,57,019,42*65
###2023-12-09 13:42:22.020160$GLGSV,2,2,05,75,45,276,46,,,,,,,,,,,,*52
###2023-12-09 13:42:22.022472$GAGSV,1,1,04,04,42,309,43,19,69,180,41,21,74,044,47,27,20,051,41*6D
###2023-12-09 13:42:22.024826$GBGSV,2,1,05,12,18,124,41,24,60,049,48,25,53,279,47,33,43,215,46*69
###2023-12-09 13:42:22.026272$GBGSV,2,2,05,35,16,054,43,,,,,,,,,,,,*59
###2023-12-09 13:42:22.027601$GNVTG,287.37,T,,M,0.14,N,0.25,K,A*28
###2023-12-09 13:42:22.029210$GNGST,184221.10,7.000,,,,0.130,0.100,0.210*6D
###2023-12-09 13:42:22.030495$GNZDA,184221.10,09,12,2023,00,00*7C
###2023-12-09 13:42:22.031144$GNEBP,,,,,,M*13
###2023-12-09 13:42:22.198704$GNGGA,184221.30,4138.0394466,N,07032.4271133,W,1,23,0.6,14.273,M,-29.745,M,0.0,*56
###2023-12-09 13:42:22.397880$GNGGA,184221.50,4138.0394460,N,07032.4271079,W,1,22,0.7,14.270,M,-29.745,M,0.0,*5A
###2023-12-09 13:42:22.597147$GNGGA,184221.70,4138.0394468,N,07032.4271062,W,1,22,0.7,14.281,M,-29.745,M,0.0,*54
###2023-12-09 13:42:22.797033$GNGGA,184221.90,4138.0394451,N,07032.4271013,W,1,22,0.7,14.269,M,-29.745,M,0.0,*50
###2023-12-09 13:42:23.001770$GNRMC,184222.10,A,4138.0394454,N,07032.4270962,W,0.12,287.37,091223,,,A*52
###2023-12-09 13:42:23.004653$GNGGA,184222.10,4138.0394454,N,07032.4270962,W,1,23,0.7,14.251,M,-29.745,M,0.0,*5A
###2023-12-09 13:42:23.006445$GPGSA,A,3,03,04,16,26,28,29,31,,,,,,1.1,0.7,0.9*3B
###2023-12-09 13:42:23.008159$GLGSA,A,3,65,72,73,74,75,83,,,,,,,1.1,0.7,0.9*28
###2023-12-09 13:42:23.009733$GAGSA,A,3,04,19,21,27,,,,,,,,,1.1,0.7,0.9*27
###2023-12-09 13:42:23.011384$GBGSA,A,3,12,24,25,33,35,,,,,,,,1.1,0.7,0.9*2A
###2023-12-09 13:42:23.013705$GPGSV,2,1,07,03,24,243,39,04,49,306,45,16,70,226,48,26,80,041,49*74
###2023-12-09 13:42:23.015745$GPGSV,2,2,07,28,35,088,46,29,19,044,43,31,57,071,48,,,,*4E
###2023-12-09 13:42:23.018064$GLGSV,2,1,06,65,41,315,45,72,59,216,49,73,20,054,43,74,57,019,45*69
###2023-12-09 13:42:23.019819$GLGSV,2,2,06,75,45,276,48,83,16,044,35,,,,,,,,*65
###2023-12-09 13:42:23.022133$GAGSV,1,1,04,04,42,309,42,19,69,180,42,21,74,044,46,27,20,051,42*6D
###2023-12-09 13:42:23.024477$GBGSV,2,1,05,12,18,124,40,24,60,049,48,25,53,279,46,33,43,215,44*6B
###2023-12-09 13:42:23.025933$GBGSV,2,2,05,35,16,054,44,,,,,,,,,,,,*5E
###2023-12-09 13:42:23.027266$GNVTG,287.37,T,,M,0.12,N,0.22,K,A*29
###2023-12-09 13:42:23.028882$GNGST,184222.10,6.100,,,,0.130,0.096,0.200*61
###2023-12-09 13:42:23.030174$GNZDA,184222.10,09,12,2023,00,00*7F
###2023-12-09 13:42:23.030822$GNEBP,,,,,,M*13
###2023-12-09 13:42:23.200139$GNGGA,184222.30,4138.0394440,N,07032.4270957,W,1,23,0.7,14.236,M,-29.745,M,0.0,*5A
###2023-12-09 13:42:23.398419$GNGGA,184222.50,4138.0394430,N,07032.4270920,W,1,23,0.7,14.203,M,-29.745,M,0.0,*5D
###2023-12-09 13:42:23.598380$GNGGA,184222.70,4138.0394370,N,07032.4270794,W,1,23,0.7,14.132,M,-29.745,M,0.0,*5C
###2023-12-09 13:42:23.797545$GNGGA,184222.90,4138.0394329,N,07032.4270600,W,1,23,0.6,14.033,M,-29.745,M,0.0,*53
###2023-12-09 13:42:24.000736$GNRMC,184223.10,A,4138.0394343,N,07032.4270420,W,0.25,287.37,091223,,,A*5D
###2023-12-09 13:42:24.003608$GNGGA,184223.10,4138.0394343,N,07032.4270420,W,1,20,0.8,13.908,M,-29.745,M,0.0,*5D
###2023-12-09 13:42:24.005339$GPGSA,A,3,04,16,26,28,29,31,,,,,,,1.4,0.8,1.1*3B
###2023-12-09 13:42:24.007001$GLGSA,A,3,65,72,73,74,75,,,,,,,,1.4,0.8,1.1*20
###2023-12-09 13:42:24.008580$GAGSA,A,3,04,19,21,27,,,,,,,,,1.4,0.8,1.1*24
###2023-12-09 13:42:24.010229$GBGSA,A,3,12,24,25,33,35,,,,,,,,1.4,0.8,1.1*29
###2023-12-09 13:42:24.012563$GPGSV,2,1,06,04,49,306,41,16,70,226,47,26,80,041,50,28,35,088,47*73
###2023-12-09 13:42:24.014312$GPGSV,2,2,06,29,19,044,43,31,57,071,48,,,,,,,,*71
###2023-12-09 13:42:24.016645$GLGSV,2,1,05,65,41,315,40,72,59,216,49,73,20,054,42,74,57,019,43*68
###2023-12-09 13:42:24.018095$GLGSV,2,2,05,75,45,276,42,,,,,,,,,,,,*56
###2023-12-09 13:42:24.020426$GAGSV,1,1,04,04,42,309,39,19,69,180,43,21,74,044,47,27,20,051,41*62
###2023-12-09 13:42:24.022763$GBGSV,2,1,05,12,18,124,41,24,60,049,47,25,53,279,44,33,43,215,44*67
###2023-12-09 13:42:24.024206$GBGSV,2,2,05,35,16,054,42,,,,,,,,,,,,*58
###2023-12-09 13:42:24.025524$GNVTG,287.37,T,,M,0.25,N,0.47,K,A*2E
###2023-12-09 13:42:24.027149$GNGST,184223.10,6.700,,,,0.130,0.094,0.200*64
###2023-12-09 13:42:24.028439$GNZDA,184223.10,09,12,2023,00,00*7E
###2023-12-09 13:42:24.029079$GNEBP,,,,,,M*13
###2023-12-09 13:42:24.200161$GNGGA,184223.30,4138.0394353,N,07032.4270272,W,1,21,0.7,13.781,M,-29.745,M,0.0,*5E
###2023-12-09 13:42:24.397373$GNGGA,184223.50,4138.0394392,N,07032.4270249,W,1,20,0.8,13.666,M,-29.745,M,0.0,*5B
###2023-12-09 13:42:24.595289$GNGGA,184223.70,4138.0394444,N,07032.4270271,W,1,20,0.8,13.586,M,-29.745,M,0.0,*53
###2023-12-09 13:42:24.798046$GNGGA,184223.90,4138.0394470,N,07032.4270289,W,1,18,0.9,13.548,M,-29.745,M,0.0,*55
###2023-12-09 13:42:24.998821$GNRMC,184224.10,A,4138.0394496,N,07032.4270367,W,0.17,287.37,091223,,,A*50
###2023-12-09 13:42:25.001661$GNGGA,184224.10,4138.0394496,N,07032.4270367,W,1,19,0.8,13.509,M,-29.745,M,0.0,*56
###2023-12-09 13:42:25.003387$GPGSA,A,3,03,16,26,28,29,31,,,,,,,1.2,0.8,0.9*33
###2023-12-09 13:42:25.004962$GLGSA,A,3,72,73,74,75,,,,,,,,,1.2,0.8,0.9*2C
###2023-12-09 13:42:25.006472$GAGSA,A,3,19,21,27,,,,,,,,,,1.2,0.8,0.9*2F
###2023-12-09 13:42:25.008121$GBGSA,A,3,12,24,25,33,35,,,,,,,,1.2,0.8,0.9*26
###2023-12-09 13:42:25.010434$GPGSV,2,1,06,03,24,243,36,16,70,226,45,26,80,041,46,28,35,088,45*78
###2023-12-09 13:42:25.012185$GPGSV,2,2,06,29,19,044,40,31,57,071,49,,,,,,,,*73
###2023-12-09 13:42:25.014499$GLGSV,1,1,04,72,59,216,49,73,20,054,44,74,57,019,44,75,45,276,36*6B
###2023-12-09 13:42:25.016532$GAGSV,1,1,03,19,69,180,43,21,74,044,45,27,20,051,41,,,,*55
###2023-12-09 13:42:25.018865$GBGSV,2,1,05,12,18,124,43,24,60,049,48,25,53,279,36,33,43,215,40*6B
###2023-12-09 13:42:25.020312$GBGSV,2,2,05,35,16,054,43,,,,,,,,,,,,*59
###2023-12-09 13:42:25.021624$GNVTG,287.37,T,,M,0.17,N,0.32,K,A*2D
###2023-12-09 13:42:25.023244$GNGST,184224.10,6.600,,,,0.130,0.098,0.200*6E
###2023-12-09 13:42:25.024532$GNZDA,184224.10,09,12,2023,00,00*79
###2023-12-09 13:42:25.025166$GNEBP,,,,,,M*13
###2023-12-09 13:42:25.196640$GNGGA,184224.30,4138.0394556,N,07032.4270401,W,1,19,0.8,13.510,M,-29.745,M,0.0,*56
###2023-12-09 13:42:25.399102$GNGGA,184224.50,4138.0394601,N,07032.4270555,W,1,20,0.7,13.541,M,-29.745,M,0.0,*50
###2023-12-09 13:42:25.595399$GNGGA,184224.70,4138.0394652,N,07032.4270469,W,1,21,0.7,13.559,M,-29.745,M,0.0,*52
###2023-12-09 13:42:25.796456$GNGGA,184224.90,4138.0394669,N,07032.4270292,W,1,22,0.7,13.557,M,-29.745,M,0.0,*5B
###2023-12-09 13:42:26.001521$GNRMC,184225.10,A,4138.0394714,N,07032.4270187,W,0.08,287.37,091223,,,A*5A
###2023-12-09 13:42:26.005260$GNGGA,184225.10,4138.0394714,N,07032.4270187,W,1,22,0.7,13.573,M,-29.745,M,0.0,*58
###2023-12-09 13:42:26.007555$GPGSA,A,3,03,09,16,26,28,29,31,,,,,,1.1,0.7,0.9*36
###2023-12-09 13:42:26.009542$GLGSA,A,3,65,72,73,74,75,,,,,,,,1.1,0.7,0.9*23
###2023-12-09 13:42:26.011460$GAGSA,A,3,04,19,21,27,,,,,,,,,1.1,0.7,0.9*27
###2023-12-09 13:42:26.013475$GBGSA,A,3,12,24,25,33,35,,,,,,,,1.1,0.7,0.9*2A
###2023-12-09 13:42:26.016302$GPGSV,2,1,07,03,24,243,39,09,15,317,36,16,70,226,48,26,80,041,48*75
###2023-12-09 13:42:26.018763$GPGSV,2,2,07,28,35,088,44,29,19,044,42,31,57,071,48,,,,*4D
###2023-12-09 13:42:26.021568$GLGSV,2,1,05,65,41,315,38,72,59,216,50,73,20,054,43,74,57,019,40*6D
###2023-12-09 13:42:26.023333$GLGSV,2,2,05,75,45,276,37,,,,,,,,,,,,*54
###2023-12-09 13:42:26.026128$GAGSV,1,1,04,04,42,309,37,19,69,180,44,21,74,044,47,27,20,051,42*68
###2023-12-09 13:42:26.028979$GBGSV,2,1,05,12,18,124,42,24,60,049,47,25,53,279,38,33,43,215,39*65
###2023-12-09 13:42:26.031046$GBGSV,2,2,05,35,16,054,43,,,,,,,,,,,,*59
###2023-12-09 13:42:26.032661$GNVTG,287.37,T,,M,0.08,N,0.14,K,A*27
###2023-12-09 13:42:26.034678$GNGST,184225.10,11.000,,,,0.130,0.100,0.200*5F
###2023-12-09 13:42:26.036249$GNZDA,184225.10,09,12,2023,00,00*78
###2023-12-09 13:42:26.037029$GNEBP,,,,,,M*13
###2023-12-09 13:42:26.198338$GNGGA,184225.30,4138.0394750,N,07032.4270075,W,1,22,0.7,13.605,M,-29.745,M,0.0,*54
###2023-12-09 13:42:26.398868$GNGGA,184225.50,4138.0394786,N,07032.4269986,W,1,22,0.7,13.619,M,-29.745,M,0.0,*59
###2023-12-09 13:42:26.598989$GNGGA,184225.70,4138.0394788,N,07032.4269895,W,1,22,0.7,13.608,M,-29.745,M,0.0,*56
