###2023-12-09 12:55:12.971111$GLGSV,2,1,06,65,21,328,42,71,44,172,45,72,72,281,47,73,38,040,42*69
###2023-12-09 12:55:12.972880$GLGSV,2,2,06,74,71,327,42,75,30,250,42,,,,,,,,*66
###2023-12-09 12:55:12.975230$GAGSV,1,1,04,04,27,312,43,19,85,242,40,21,84,147,46,27,35,048,41*6A
###2023-12-09 12:55:12.977560$GBGSV,2,1,05,14,46,194,43,24,75,018,46,25,39,260,45,26,28,061,39*65
###2023-12-09 12:55:12.979025$GBGSV,2,2,05,33,59,237,47,,,,,,,,,,,,*57
###2023-12-09 12:55:12.980340$GNVTG,356.33,T,,M,2.06,N,3.82,K,A*2E
###2023-12-09 12:55:12.981977$GNGST,175512.10,18.000,,,,0.080,0.068,0.160*5B
###2023-12-09 12:55:12.983278$GNZDA,175512.10,09,12,2023,00,00*75
###2023-12-09 12:55:12.983913$GNEBP,,,,,,M*13
###2023-12-09 12:55:13.153439$GNGGA,175512.30,4138.0429012,N,07032.3948671,W,1,24,0.6,13.200,M,-29.745,M,0.0,*5A
###2023-12-09 12:55:13.354195$GNGGA,175512.50,4138.0429849,N,07032.3947924,W,1,24,0.6,13.206,M,-29.745,M,0.0,*5C
###2023-12-09 12:55:13.553126$GNGGA,175512.70,4138.0430752,N,07032.3947316,W,1,24,0.6,13.212,M,-29.745,M,0.0,*5D
###2023-12-09 12:55:13.754455$GNGGA,175512.90,4138.0431849,N,07032.3946908,W,1,24,0.6,13.206,M,-29.745,M,0.0,*56
###2023-12-09 12:55:13.953867$GNRMC,175513.10,A,4138.0432883,N,07032.3946257,W,2.00,35.85,091223,,,A*63
###2023-12-09 12:55:13.956758$GNGGA,175513.10,4138.0432883,N,07032.3946257,W,1,24,0.6,13.191,M,-29.745,M,0.0,*56
###2023-12-09 12:55:13.958628$GPGSA,A,3,03,04,16,26,28,29,31,32,,,,,1.1,0.6,0.9*3B
###2023-12-09 12:55:13.960335$GLGSA,A,3,65,71,72,73,74,75,,,,,,,1.1,0.6,0.9*24
###2023-12-09 12:55:13.961907$GAGSA,A,3,04,19,21,27,,,,,,,,,1.1,0.6,0.9*26
###2023-12-09 12:55:13.963559$GBGSA,A,3,14,24,25,26,33,,,,,,,,1.1,0.6,0.9*2F
###2023-12-09 12:55:13.965882$GPGSV,2,1,08,03,36,265,42,04,30,311,44,16,46,211,45,26,76,209,48*73
###2023-12-09 12:55:13.968220$GPGSV,2,2,08,28,52,067,43,29,25,064,40,31,70,029,46,32,22,138,42*71
###2023-12-09 12:55:13.970542$GLGSV,2,1,06,65,21,328,44,71,44,172,46,72,72,281,46,73,38,040,42*6D
###2023-12-09 12:55:13.972293$GLGSV,2,2,06,74,71,327,42,75,30,250,46,,,,,,,,*62
###2023-12-09 12:55:13.974627$GAGSV,1,1,04,04,27,312,43,19,85,242,40,21,84,147,46,27,35,048,42*69
###2023-12-09 12:55:13.976941$GBGSV,2,1,05,14,46,194,45,24,75,018,48,25,39,260,44,26,28,061,41*63
###2023-12-09 12:55:13.978390$GBGSV,2,2,05,33,59,237,48,,,,,,,,,,,,*58
###2023-12-09 12:55:13.979687$GNVTG,35.85,T,,M,2.00,N,3.71,K,A*1F
###2023-12-09 12:55:13.981324$GNGST,175513.10,18.000,,,,0.080,0.068,0.160*5A
###2023-12-09 12:55:13.982619$GNZDA,175513.10,09,12,2023,00,00*74
###2023-12-09 12:55:13.983257$GNEBP,,,,,,M*13
###2023-12-09 12:55:14.152232$GNGGA,175513.30,4138.0433716,N,07032.3945320,W,1,24,0.6,13.187,M,-29.745,M,0.0,*53
###2023-12-09 12:55:14.353200$GNGGA,175513.50,4138.0434464,N,07032.3944297,W,1,24,0.6,13.199,M,-29.745,M,0.0,*57
###2023-12-09 12:55:14.554026$GNGGA,175513.70,4138.0435280,N,07032.3943247,W,1,24,0.6,13.208,M,-29.745,M,0.0,*59
###2023-12-09 12:55:14.753211$GNGGA,175513.90,4138.0436169,N,07032.3942193,W,1,24,0.6,13.196,M,-29.745,M,0.0,*5F
###2023-12-09 12:55:14.954797$GNRMC,175514.10,A,4138.0436872,N,07032.3941006,W,2.06,61.80,091223,,,A*6D
###2023-12-09 12:55:14.957644$GNGGA,175514.10,4138.0436872,N,07032.3941006,W,1,24,0.6,13.186,M,-29.745,M,0.0,*5C
###2023-12-09 12:55:14.959520$GPGSA,A,3,03,04,16,26,28,29,31,32,,,,,1.1,0.6,0.9*3B
###2023-12-09 12:55:14.961232$GLGSA,A,3,65,71,72,73,74,75,,,,,,,1.1,0.6,0.9*24
###2023-12-09 12:55:14.962836$GAGSA,A,3,04,19,21,27,,,,,,,,,1.1,0.6,0.9*26
###2023-12-09 12:55:14.964479$GBGSA,A,3,14,24,25,26,33,,,,,,,,1.1,0.6,0.9*2F
###2023-12-09 12:55:14.966809$GPGSV,2,1,08,03,36,265,44,04,30,311,43,16,46,211,45,26,76,209,48*72
###2023-12-09 12:55:14.969148$GPGSV,2,2,08,28,52,067,43,29,25,064,40,31,70,029,47,32,22,138,42*70
###2023-12-09 12:55:14.971498$GLGSV,2,1,06,65,21,328,43,71,44,172,46,72,72,281,46,73,38,040,45*6D
###2023-12-09 12:55:14.973244$GLGSV,2,2,06,74,71,327,43,75,30,250,44,,,,,,,,*61
###2023-12-09 12:55:14.975577$GAGSV,1,1,04,04,27,312,42,19,85,242,40,21,84,147,46,27,35,048,39*64
###2023-12-09 12:55:14.977891$GBGSV,2,1,05,14,46,194,45,24,75,018,47,25,39,260,46,26,28,061,42*6D
###2023-12-09 12:55:14.979358$GBGSV,2,2,05,33,59,237,46,,,,,,,,,,,,*56
###2023-12-09 12:55:14.980644$GNVTG,61.80,T,,M,2.06,N,3.82,K,A*11
###2023-12-09 12:55:14.982287$GNGST,175514.10,18.000,,,,0.080,0.068,0.160*5D
###2023-12-09 12:55:14.983582$GNZDA,175514.10,09,12,2023,00,00*73
###2023-12-09 12:55:14.984218$GNEBP,,,,,,M*13
###2023-12-09 12:55:15.154379$GNGGA,175514.30,4138.0437442,N,07032.3939680,W,1,24,0.6,13.203,M,-29.745,M,0.0,*59
###2023-12-09 12:55:15.358433$GNGGA,175514.50,4138.0437927,N,07032.3938291,W,1,24,0.6,13.206,M,-29.745,M,0.0,*51
###2023-12-09 12:55:15.556859$GNGGA,175514.70,4138.0438378,N,07032.3936867,W,1,24,0.6,13.203,M,-29.745,M,0.0,*54
###2023-12-09 12:55:15.755880$GNGGA,175514.90,4138.0438846,N,07032.3935409,W,1,24,0.6,13.201,M,-29.745,M,0.0,*59
###2023-12-09 12:55:15.956192$GNRMC,175515.10,A,4138.0439096,N,07032.3933845,W,2.20,81.04,091223,,,A*6D
###2023-12-09 12:55:15.959067$GNGGA,175515.10,4138.0439096,N,07032.3933845,W,1,24,0.6,13.202,M,-29.745,M,0.0,*55
###2023-12-09 12:55:15.960931$GPGSA,A,3,03,04,16,26,28,29,31,32,,,,,1.1,0.6,0.9*3B
###2023-12-09 12:55:15.962676$GLGSA,A,3,65,71,72,73,74,75,,,,,,,1.1,0.6,0.9*24
###2023-12-09 12:55:15.964267$GAGSA,A,3,04,19,21,27,,,,,,,,,1.1,0.6,0.9*26
###2023-12-09 12:55:15.965911$GBGSA,A,3,14,24,25,26,33,,,,,,,,1.1,0.6,0.9*2F
###2023-12-09 12:55:15.968249$GPGSV,2,1,08,03,36,265,44,04,30,311,40,16,46,211,46,26,76,209,47*7D
###2023-12-09 12:55:15.970595$GPGSV,2,2,08,28,52,067,44,29,25,064,40,31,70,029,46,32,22,138,40*74
###2023-12-09 12:55:15.972928$GLGSV,2,1,06,65,21,328,43,71,44,172,45,72,72,281,46,73,38,040,45*6E
###2023-12-09 12:55:15.974689$GLGSV,2,2,06,74,71,327,42,75,30,250,43,,,,,,,,*67
###2023-12-09 12:55:15.977013$GAGSV,1,1,04,04,27,312,41,19,85,242,40,21,84,147,46,27,35,048,43*6A
###2023-12-09 12:55:15.979349$GBGSV,2,1,05,14,46,194,46,24,75,018,48,25,39,260,46,26,28,061,42*61
###2023-12-09 12:55:15.980802$GBGSV,2,2,05,33,59,237,48,,,,,,,,,,,,*58
###2023-12-09 12:55:15.982090$GNVTG,81.04,T,,M,2.20,N,4.07,K,A*1D
###2023-12-09 12:55:15.983748$GNGST,175515.10,18.000,,,,0.080,0.068,0.160*5C
###2023-12-09 12:55:15.985035$GNZDA,175515.10,09,12,2023,00,00*72
###2023-12-09 12:55:15.985674$GNEBP,,,,,,M*13
###2023-12-09 12:55:16.153305$GNGGA,175515.30,4138.0439253,N,07032.3932205,W,1,24,0.6,13.206,M,-29.745,M,0.0,*57
###2023-12-09 12:55:16.353740$GNGGA,175515.50,4138.0439328,N,07032.3930647,W,1,24,0.6,13.201,M,-29.745,M,0.0,*5B
###2023-12-09 12:55:16.553033$GNGGA,175515.70,4138.0439307,N,07032.3928999,W,1,24,0.6,13.211,M,-29.745,M,0.0,*50
###2023-12-09 12:55:16.752022$GNGGA,175515.90,4138.0439218,N,07032.3927336,W,1,24,0.6,13.202,M,-29.745,M,0.0,*53
###2023-12-09 12:55:16.953762$GNRMC,175516.10,A,4138.0439112,N,07032.3925745,W,2.22,93.77,091223,,,A*6E
###2023-12-09 12:55:16.956632$GNGGA,175516.10,4138.0439112,N,07032.3925745,W,1,24,0.6,13.209,M,-29.745,M,0.0,*58
###2023-12-09 12:55:16.958477$GPGSA,A,3,03,04,16,26,28,29,31,32,,,,,1.1,0.6,0.9*3B
###2023-12-09 12:55:16.960195$GLGSA,A,3,65,71,72,73,74,75,,,,,,,1.1,0.6,0.9*24
###2023-12-09 12:55:16.961764$GAGSA,A,3,04,19,21,27,,,,,,,,,1.1,0.6,0.9*26
###2023-12-09 12:55:16.963420$GBGSA,A,3,14,24,25,26,33,,,,,,,,1.1,0.6,0.9*2F
###2023-12-09 12:55:16.965731$GPGSV,2,1,08,03,36,265,44,04,30,311,42,16,46,211,46,26,76,209,48*70
###2023-12-09 12:55:16.968057$GPGSV,2,2,08,28,52,067,45,29,25,064,43,31,70,029,47,32,22,138,40*77
###2023-12-09 12:55:16.970375$GLGSV,2,1,06,65,21,328,41,71,44,172,46,72,72,281,46,73,38,040,46*6C
###2023-12-09 12:55:16.972125$GLGSV,2,2,06,74,71,327,42,75,30,250,45,,,,,,,,*61
###2023-12-09 12:55:16.974439$GAGSV,1,1,04,04,27,312,40,19,85,242,40,21,84,147,45,27,35,048,43*68
###2023-12-09 12:55:16.976762$GBGSV,2,1,05,14,46,194,45,24,75,018,49,25,39,260,45,26,28,061,44*66
###2023-12-09 12:55:16.978209$GBGSV,2,2,05,33,59,237,48,,,,,,,,,,,,*58
###2023-12-09 12:55:16.979510$GNVTG,93.77,T,,M,2.22,N,4.10,K,A*1E
###2023-12-09 12:55:16.981141$GNGST,175516.10,18.000,,,,0.079,0.068,0.160*59
###2023-12-09 12:55:16.982686$GNZDA,175516.10,09,12,2023,00,00*71
###2023-12-09 12:55:16.983337$GNEBP,,,,,,M*13
###2023-12-09 12:55:17.152205$GNGGA,175516.30,4138.0438925,N,07032.3923967,W,1,24,0.6,13.209,M,-29.745,M,0.0,*5F
###2023-12-09 12:55:17.354192$GNGGA,175516.50,4138.0438678,N,07032.3922229,W,1,24,0.6,13.205,M,-29.745,M,0.0,*52
###2023-12-09 12:55:17.554182$GNGGA,175516.70,4138.0438447,N,07032.3920459,W,1,24,0.6,13.209,M,-29.745,M,0.0,*51
###2023-12-09 12:55:17.754428$GNGGA,175516.90,4138.0438173,N,07032.3918605,W,1,24,0.6,13.200,M,-29.745,M,0.0,*54
###2023-12-09 12:55:17.954250$GNRMC,175517.10,A,4138.0437877,N,07032.3916780,W,2.49,101.26,091223,,,A*51
###2023-12-09 12:55:17.957163$GNGGA,175517.10,4138.0437877,N,07032.3916780,W,1,24,0.6,13.192,M,-29.745,M,0.0,*55
###2023-12-09 12:55:17.959038$GPGSA,A,3,03,04,16,26,28,29,31,32,,,,,1.1,0.6,0.9*3B
