###2023-12-09 13:43:40.018750$GLGSV,2,2,05,83,16,043,35,,,,,,,,,,,,*5D
###2023-12-09 13:43:40.020809$GAGSV,1,1,03,04,42,308,43,21,74,044,39,27,20,051,41,,,,*59
###2023-12-09 13:43:40.023165$GBGSV,2,1,05,12,18,124,39,14,25,189,35,24,60,050,42,25,53,280,46*64
###2023-12-09 13:43:40.024625$GBGSV,2,2,05,35,16,053,38,,,,,,,,,,,,*52
###2023-12-09 13:43:40.025945$GNVTG,243.17,T,,M,0.10,N,0.18,K,A*28
###2023-12-09 13:43:40.027572$GNGST,184339.10,8.100,,,,0.220,0.120,0.310*6A
###2023-12-09 13:43:40.028864$GNZDA,184339.10,09,12,2023,00,00*74
###2023-12-09 13:43:40.029503$GNEBP,,,,,,M*13
###2023-12-09 13:43:40.198523$GNGGA,184339.30,4138.0391658,N,07032.4385611,W,1,18,0.8,15.027,M,-29.746,M,0.0,*5E
###2023-12-09 13:43:40.397198$GNGGA,184339.50,4138.0391644,N,07032.4385619,W,1,18,0.8,15.022,M,-29.746,M,0.0,*58
###2023-12-09 13:43:40.596743$GNGGA,184339.70,4138.0391627,N,07032.4385637,W,1,19,0.8,15.015,M,-29.746,M,0.0,*56
###2023-12-09 13:43:40.797393$GNGGA,184339.90,4138.0391604,N,07032.4385657,W,1,19,0.8,15.006,M,-29.746,M,0.0,*5D
###2023-12-09 13:43:41.004529$GNRMC,184340.10,A,4138.0391585,N,07032.4385675,W,0.06,243.17,091223,,,A*52
###2023-12-09 13:43:41.007503$GNGGA,184340.10,4138.0391585,N,07032.4385675,W,1,19,0.8,15.001,M,-29.746,M,0.0,*56
###2023-12-09 13:43:41.009235$GPGSA,A,3,04,16,26,28,29,31,,,,,,,1.3,0.8,1.1*3C
###2023-12-09 13:43:41.010895$GLGSA,A,3,65,73,74,75,83,,,,,,,,1.3,0.8,1.1*29
###2023-12-09 13:43:41.012421$GAGSA,A,3,04,21,27,,,,,,,,,,1.3,0.8,1.1*2B
###2023-12-09 13:43:41.014072$GBGSA,A,3,12,14,24,25,35,,,,,,,,1.3,0.8,1.1*2B
###2023-12-09 13:43:41.016404$GPGSV,2,1,06,04,50,305,44,16,71,227,36,26,79,041,41,28,35,088,43*79
###2023-12-09 13:43:41.018147$GPGSV,2,2,06,29,18,043,40,31,56,072,49,,,,,,,,*77
###2023-12-09 13:43:41.020474$GLGSV,2,1,05,65,42,314,43,73,19,055,43,74,56,021,36,75,46,277,42*6E
###2023-12-09 13:43:41.021925$GLGSV,2,2,05,83,16,043,35,,,,,,,,,,,,*5D
###2023-12-09 13:43:41.023968$GAGSV,1,1,03,04,42,308,42,21,74,044,39,27,20,051,41,,,,*58
###2023-12-09 13:43:41.026292$GBGSV,2,1,05,12,18,124,39,14,25,189,35,24,60,050,43,25,53,280,45*66
###2023-12-09 13:43:41.027761$GBGSV,2,2,05,35,16,053,38,,,,,,,,,,,,*52
###2023-12-09 13:43:41.029083$GNVTG,243.17,T,,M,0.06,N,0.11,K,A*26
###2023-12-09 13:43:41.030710$GNGST,184340.10,7.700,,,,0.220,0.120,0.310*6D
###2023-12-09 13:43:41.032002$GNZDA,184340.10,09,12,2023,00,00*7A
###2023-12-09 13:43:41.032641$GNEBP,,,,,,M*13
###2023-12-09 13:43:41.199091$GNGGA,184340.30,4138.0391566,N,07032.4385684,W,1,19,0.8,14.995,M,-29.746,M,0.0,*52
###2023-12-09 13:43:41.398462$GNGGA,184340.50,4138.0391537,N,07032.4385700,W,1,19,0.8,14.988,M,-29.746,M,0.0,*51
###2023-12-09 13:43:41.598042$GNGGA,184340.70,4138.0391529,N,07032.4385718,W,1,18,0.8,14.981,M,-29.746,M,0.0,*5D
###2023-12-09 13:43:41.798693$GNGGA,184340.90,4138.0391509,N,07032.4385732,W,1,18,0.8,14.973,M,-29.746,M,0.0,*54
###2023-12-09 13:43:42.001152$GNRMC,184341.10,A,4138.0391508,N,07032.4385744,W,0.02,243.17,091223,,,A*51
###2023-12-09 13:43:42.004019$GNGGA,184341.10,4138.0391508,N,07032.4385744,W,1,18,0.8,14.972,M,-29.746,M,0.0,*5C
###2023-12-09 13:43:42.005744$GPGSA,A,3,04,16,26,28,29,31,,,,,,,1.3,0.8,1.1*3C
###2023-12-09 13:43:42.007404$GLGSA,A,3,65,73,74,75,83,,,,,,,,1.3,0.8,1.1*29
###2023-12-09 13:43:42.008917$GAGSA,A,3,04,21,27,,,,,,,,,,1.3,0.8,1.1*2B
###2023-12-09 13:43:42.010489$GBGSA,A,3,12,24,25,35,,,,,,,,,1.3,0.8,1.1*2E
###2023-12-09 13:43:42.012821$GPGSV,2,1,06,04,50,305,44,16,71,227,36,26,79,041,41,28,35,088,43*79
###2023-12-09 13:43:42.014572$GPGSV,2,2,06,29,18,043,41,31,56,072,49,,,,,,,,*76
###2023-12-09 13:43:42.016885$GLGSV,2,1,05,65,42,314,42,73,19,055,43,74,56,021,37,75,46,277,44*68
###2023-12-09 13:43:42.018331$GLGSV,2,2,05,83,16,043,35,,,,,,,,,,,,*5D
###2023-12-09 13:43:42.020365$GAGSV,1,1,03,04,42,308,43,21,74,044,39,27,20,051,40,,,,*58
###2023-12-09 13:43:42.022698$GBGSV,1,1,04,12,18,124,39,24,60,050,44,25,53,280,45,35,16,053,38*6B
###2023-12-09 13:43:42.024021$GNVTG,243.17,T,,M,0.02,N,0.04,K,A*26
###2023-12-09 13:43:42.025633$GNGST,184341.10,7.500,,,,0.220,0.120,0.310*6E
###2023-12-09 13:43:42.026927$GNZDA,184341.10,09,12,2023,00,00*7B
###2023-12-09 13:43:42.027563$GNEBP,,,,,,M*13
###2023-12-09 13:43:42.199725$GNGGA,184341.30,4138.0391487,N,07032.4385756,W,1,18,0.8,14.965,M,-29.746,M,0.0,*5D
###2023-12-09 13:43:42.397814$GNGGA,184341.50,4138.0391479,N,07032.4385762,W,1,18,0.8,14.963,M,-29.746,M,0.0,*5B
###2023-12-09 13:43:42.597472$GNGGA,184341.70,4138.0391452,N,07032.4385785,W,1,18,0.8,14.958,M,-29.746,M,0.0,*51
###2023-12-09 13:43:42.798300$GNGGA,184341.90,4138.0391425,N,07032.4385792,W,1,18,0.8,14.953,M,-29.746,M,0.0,*52
###2023-12-09 13:43:43.005868$GNRMC,184342.10,A,4138.0391406,N,07032.4385811,W,0.06,243.17,091223,,,A*56
###2023-12-09 13:43:43.009361$GNGGA,184342.10,4138.0391406,N,07032.4385811,W,1,18,0.8,14.941,M,-29.746,M,0.0,*5F
###2023-12-09 13:43:43.011469$GPGSA,A,3,04,16,26,28,29,31,,,,,,,1.3,0.8,1.1*3C
###2023-12-09 13:43:43.013459$GLGSA,A,3,65,73,74,75,83,,,,,,,,1.3,0.8,1.1*29
###2023-12-09 13:43:43.015301$GAGSA,A,3,04,21,27,,,,,,,,,,1.3,0.8,1.1*2B
###2023-12-09 13:43:43.017220$GBGSA,A,3,12,24,25,35,,,,,,,,,1.3,0.8,1.1*2E
###2023-12-09 13:43:43.020041$GPGSV,2,1,06,04,50,305,45,16,71,227,37,26,79,041,41,28,35,088,44*7E
###2023-12-09 13:43:43.022149$GPGSV,2,2,06,29,18,043,42,31,56,072,50,,,,,,,,*7D
###2023-12-09 13:43:43.024976$GLGSV,2,1,05,65,42,314,42,73,19,055,43,74,56,021,36,75,46,277,43*6E
###2023-12-09 13:43:43.026786$GLGSV,2,2,05,83,16,043,35,,,,,,,,,,,,*5D
###2023-12-09 13:43:43.029247$GAGSV,1,1,03,04,42,308,42,21,74,044,38,27,20,051,40,,,,*58
###2023-12-09 13:43:43.032076$GBGSV,1,1,04,12,18,124,39,24,60,050,42,25,53,280,45,35,16,053,38*6D
###2023-12-09 13:43:43.033686$GNVTG,243.17,T,,M,0.06,N,0.11,K,A*26
###2023-12-09 13:43:43.035654$GNGST,184342.10,7.200,,,,0.220,0.120,0.310*6A
###2023-12-09 13:43:43.037216$GNZDA,184342.10,09,12,2023,00,00*78
###2023-12-09 13:43:43.037984$GNEBP,,,,,,M*13
###2023-12-09 13:43:43.199171$GNGGA,184342.30,4138.0391398,N,07032.4385839,W,1,18,0.8,14.936,M,-29.746,M,0.0,*57
###2023-12-09 13:43:43.400096$GNGGA,184342.50,4138.0391383,N,07032.4385864,W,1,18,0.8,14.931,M,-29.746,M,0.0,*54
###2023-12-09 13:43:43.599600$GNGGA,184342.70,4138.0391363,N,07032.4385879,W,1,19,0.8,14.921,M,-29.746,M,0.0,*54
###2023-12-09 13:43:43.798876$GNGGA,184342.90,4138.0391356,N,07032.4385909,W,1,18,0.8,14.913,M,-29.746,M,0.0,*5A
###2023-12-09 13:43:44.004887$GNRMC,184343.10,A,4138.0391340,N,07032.4385916,W,0.02,243.17,091223,,,A*50
###2023-12-09 13:43:44.008356$GNGGA,184343.10,4138.0391340,N,07032.4385916,W,1,18,0.8,14.915,M,-29.746,M,0.0,*5C
###2023-12-09 13:43:44.010441$GPGSA,A,3,04,16,26,28,29,31,,,,,,,1.3,0.8,1.1*3C
###2023-12-09 13:43:44.012431$GLGSA,A,3,65,73,74,75,83,,,,,,,,1.3,0.8,1.1*29
###2023-12-09 13:43:44.014266$GAGSA,A,3,04,21,27,,,,,,,,,,1.3,0.8,1.1*2B
###2023-12-09 13:43:44.016173$GBGSA,A,3,12,24,25,35,,,,,,,,,1.3,0.8,1.1*2E
###2023-12-09 13:43:44.019016$GPGSV,2,1,06,04,50,305,45,16,71,227,37,26,79,041,41,28,35,088,43*79
###2023-12-09 13:43:44.021123$GPGSV,2,2,06,29,18,043,42,31,56,072,50,,,,,,,,*7D
###2023-12-09 13:43:44.023965$GLGSV,2,1,05,65,42,314,43,73,19,055,43,74,56,021,36,75,46,277,43*6F
###2023-12-09 13:43:44.025713$GLGSV,2,2,05,83,16,043,35,,,,,,,,,,,,*5D
###2023-12-09 13:43:44.028157$GAGSV,1,1,03,04,42,308,43,21,74,044,38,27,20,051,40,,,,*59
###2023-12-09 13:43:44.030967$GBGSV,1,1,04,12,18,124,38,24,60,050,42,25,53,280,45,35,16,053,37*63
###2023-12-09 13:43:44.032569$GNVTG,243.17,T,,M,0.02,N,0.04,K,A*26
###2023-12-09 13:43:44.034502$GNGST,184343.10,7.500,,,,0.220,0.120,0.310*6C
###2023-12-09 13:43:44.036066$GNZDA,184343.10,09,12,2023,00,00*79
###2023-12-09 13:43:44.036832$GNEBP,,,,,,M*13
###2023-12-09 13:43:44.198732$GNGGA,184343.30,4138.0391312,N,07032.4385935,W,1,18,0.8,14.912,M,-29.746,M,0.0,*5F
###2023-12-09 13:43:44.399378$GNGGA,184343.50,4138.0391299,N,07032.4385939,W,1,19,0.8,14.909,M,-29.746,M,0.0,*5C
###2023-12-09 13:43:44.599279$GNGGA,184343.70,4138.0391277,N,07032.4385943,W,1,19,0.8,14.906,M,-29.746,M,0.0,*5C
###2023-12-09 13:43:44.801016$GNGGA,184343.90,4138.0391262,N,07032.4385952,W,1,19,0.8,14.903,M,-29.746,M,0.0,*53
###2023-12-09 13:43:45.006524$GNRMC,184344.10,A,4138.0391252,N,07032.4385971,W,0.02,243.17,091223,,,A*54
###2023-12-09 13:43:45.009423$GNGGA,184344.10,4138.0391252,N,07032.4385971,W,1,19,0.8,14.902,M,-29.746,M,0.0,*5F
###2023-12-09 13:43:45.011175$GPGSA,A,3,04,16,26,28,29,31,,,,,,,1.3,0.8,1.1*3C
###2023-12-09 13:43:45.012827$GLGSA,A,3,65,73,74,75,83,,,,,,,,1.3,0.8,1.1*29
###2023-12-09 13:43:45.014345$GAGSA,A,3,04,21,27,,,,,,,,,,1.3,0.8,1.1*2B
###2023-12-09 13:43:45.015998$GBGSA,A,3,12,14,24,25,35,,,,,,,,1.3,0.8,1.1*2B
###2023-12-09 13:43:45.018322$GPGSV,2,1,06,04,50,305,45,16,71,227,37,26,79,041,40,28,35,088,43*78
