###2023-12-09 12:46:09.967705$GBGSV,2,1,05,14,50,195,43,24,78,005,49,25,36,256,43,26,31,059,45*69
###2023-12-09 12:46:09.969184$GBGSV,2,2,05,33,61,245,47,,,,,,,,,,,,*59
###2023-12-09 12:46:09.970513$GNVTG,264.30,T,,M,0.99,N,1.84,K,A*2D
###2023-12-09 12:46:09.972184$GNGST,174609.10,18.000,,,,0.079,0.070,0.160*5C
###2023-12-09 12:46:09.973485$GNZDA,174609.10,09,12,2023,00,00*7D
###2023-12-09 12:46:09.974127$GNEBP,,,,,,M*13
###2023-12-09 12:46:10.143630$GNGGA,174609.30,4138.0483809,N,07032.3885033,W,1,24,0.6,13.362,M,-29.745,M,0.0,*55
###2023-12-09 12:46:10.344938$GNGGA,174609.50,4138.0483751,N,07032.3885383,W,1,24,0.6,13.366,M,-29.745,M,0.0,*5D
###2023-12-09 12:46:10.545178$GNGGA,174609.70,4138.0483693,N,07032.3885150,W,1,24,0.6,13.377,M,-29.745,M,0.0,*5C
###2023-12-09 12:46:10.744513$GNGGA,174609.90,4138.0483664,N,07032.3885069,W,1,24,0.6,13.357,M,-29.745,M,0.0,*53
###2023-12-09 12:46:10.945625$GNRMC,174610.10,A,4138.0483660,N,07032.3885617,W,0.99,266.23,091223,,,A*5F
###2023-12-09 12:46:10.949119$GNGGA,174610.10,4138.0483660,N,07032.3885617,W,1,24,0.6,13.356,M,-29.745,M,0.0,*59
###2023-12-09 12:46:10.951401$GPGSA,A,3,03,04,16,26,28,29,31,32,,,,,1.1,0.6,0.9*3B
###2023-12-09 12:46:10.953486$GLGSA,A,3,65,71,72,73,74,75,,,,,,,1.1,0.6,0.9*24
###2023-12-09 12:46:10.955421$GAGSA,A,3,04,19,21,27,,,,,,,,,1.1,0.6,0.9*26
###2023-12-09 12:46:10.957421$GBGSA,A,3,14,24,25,26,33,,,,,,,,1.1,0.6,0.9*2F
###2023-12-09 12:46:10.960252$GPGSV,2,1,08,03,37,270,45,04,26,311,40,16,42,209,44,26,72,208,48*7B
###2023-12-09 12:46:10.963106$GPGSV,2,2,08,28,54,062,47,29,26,068,44,31,72,018,49,32,25,137,47*7F
###2023-12-09 12:46:10.965942$GLGSV,2,1,06,65,17,329,41,71,50,171,48,72,70,297,48,73,43,037,49*68
###2023-12-09 12:46:10.968072$GLGSV,2,2,06,74,71,310,43,75,26,245,43,,,,,,,,*61
###2023-12-09 12:46:10.970942$GAGSV,1,1,04,04,24,312,39,19,84,283,42,21,82,167,47,27,38,049,45*67
###2023-12-09 12:46:10.973779$GBGSV,2,1,05,14,50,195,44,24,78,005,50,25,36,256,44,26,31,059,46*62
###2023-12-09 12:46:10.975556$GBGSV,2,2,05,33,61,245,48,,,,,,,,,,,,*56
###2023-12-09 12:46:10.977165$GNVTG,266.23,T,,M,0.99,N,1.84,K,A*2D
###2023-12-09 12:46:10.979183$GNGST,174610.10,18.000,,,,0.079,0.069,0.160*5C
###2023-12-09 12:46:10.980754$GNZDA,174610.10,09,12,2023,00,00*75
###2023-12-09 12:46:10.981527$GNEBP,,,,,,M*13
###2023-12-09 12:46:11.145250$GNGGA,174610.30,4138.0483648,N,07032.3886299,W,1,24,0.6,13.359,M,-29.745,M,0.0,*5F
###2023-12-09 12:46:11.344482$GNGGA,174610.50,4138.0483603,N,07032.3886476,W,1,24,0.6,13.358,M,-29.745,M,0.0,*50
###2023-12-09 12:46:11.545861$GNGGA,174610.70,4138.0483533,N,07032.3886266,W,1,24,0.6,13.356,M,-29.745,M,0.0,*5B
###2023-12-09 12:46:11.748467$GNGGA,174610.90,4138.0483498,N,07032.3886433,W,1,24,0.6,13.349,M,-29.745,M,0.0,*5D
###2023-12-09 12:46:11.945448$GNRMC,174611.10,A,4138.0483491,N,07032.3887045,W,0.91,266.23,091223,,,A*59
###2023-12-09 12:46:11.948939$GNGGA,174611.10,4138.0483491,N,07032.3887045,W,1,24,0.6,13.350,M,-29.745,M,0.0,*51
###2023-12-09 12:46:11.951226$GPGSA,A,3,03,04,16,26,28,29,31,32,,,,,1.1,0.6,0.9*3B
###2023-12-09 12:46:11.953291$GLGSA,A,3,65,71,72,73,74,75,,,,,,,1.1,0.6,0.9*24
###2023-12-09 12:46:11.955217$GAGSA,A,3,04,19,21,27,,,,,,,,,1.1,0.6,0.9*26
###2023-12-09 12:46:11.957199$GBGSA,A,3,14,24,25,26,33,,,,,,,,1.1,0.6,0.9*2F
###2023-12-09 12:46:11.960026$GPGSV,2,1,08,03,37,270,44,04,26,311,41,16,42,209,44,26,72,208,48*7B
###2023-12-09 12:46:11.962856$GPGSV,2,2,08,28,54,062,46,29,26,068,43,31,72,018,49,32,25,137,46*78
###2023-12-09 12:46:11.965700$GLGSV,2,1,06,65,17,329,40,71,50,171,48,72,70,297,48,73,43,037,48*68
###2023-12-09 12:46:11.967866$GLGSV,2,2,06,74,71,310,44,75,26,245,42,,,,,,,,*67
###2023-12-09 12:46:11.970679$GAGSV,1,1,04,04,24,312,40,19,84,283,41,21,82,167,46,27,38,049,44*6A
###2023-12-09 12:46:11.973490$GBGSV,2,1,05,14,50,195,44,24,78,005,49,25,36,256,44,26,31,059,44*68
###2023-12-09 12:46:11.975258$GBGSV,2,2,05,33,61,245,48,,,,,,,,,,,,*56
###2023-12-09 12:46:11.976851$GNVTG,266.23,T,,M,0.91,N,1.69,K,A*26
###2023-12-09 12:46:11.978839$GNGST,174611.10,18.000,,,,0.078,0.069,0.160*5C
###2023-12-09 12:46:11.980398$GNZDA,174611.10,09,12,2023,00,00*74
###2023-12-09 12:46:11.981165$GNEBP,,,,,,M*13
###2023-12-09 12:46:12.144937$GNGGA,174611.30,4138.0483476,N,07032.3887549,W,1,24,0.6,13.342,M,-29.745,M,0.0,*50
###2023-12-09 12:46:12.345553$GNGGA,174611.50,4138.0483407,N,07032.3887574,W,1,24,0.6,13.338,M,-29.745,M,0.0,*53
###2023-12-09 12:46:12.544630$GNGGA,174611.70,4138.0483344,N,07032.3887532,W,1,24,0.6,13.337,M,-29.745,M,0.0,*5C
###2023-12-09 12:46:12.749263$GNGGA,174611.90,4138.0483327,N,07032.3887891,W,1,24,0.6,13.337,M,-29.745,M,0.0,*53
###2023-12-09 12:46:12.948850$GNRMC,174612.10,A,4138.0483330,N,07032.3888420,W,0.60,266.23,091223,,,A*50
###2023-12-09 12:46:12.952352$GNGGA,174612.10,4138.0483330,N,07032.3888420,W,1,24,0.6,13.332,M,-29.745,M,0.0,*52
###2023-12-09 12:46:12.954621$GPGSA,A,3,03,04,16,26,28,29,31,32,,,,,1.1,0.6,0.9*3B
###2023-12-09 12:46:12.956719$GLGSA,A,3,65,71,72,73,74,75,,,,,,,1.1,0.6,0.9*24
###2023-12-09 12:46:12.958654$GAGSA,A,3,04,19,21,27,,,,,,,,,1.1,0.6,0.9*26
###2023-12-09 12:46:12.960648$GBGSA,A,3,14,24,25,26,33,,,,,,,,1.1,0.6,0.9*2F
###2023-12-09 12:46:12.963478$GPGSV,2,1,08,03,37,270,45,04,26,311,41,16,42,209,44,26,72,208,47*75
###2023-12-09 12:46:12.966298$GPGSV,2,2,08,28,54,062,45,29,26,068,42,31,72,018,48,32,25,137,44*79
###2023-12-09 12:46:12.969137$GLGSV,2,1,06,65,17,329,40,71,50,171,47,72,70,297,48,73,43,037,47*68
###2023-12-09 12:46:12.971269$GLGSV,2,2,06,74,71,310,43,75,26,245,43,,,,,,,,*61
###2023-12-09 12:46:12.974079$GAGSV,1,1,04,04,24,312,39,19,84,283,41,21,82,167,46,27,38,049,43*63
###2023-12-09 12:46:12.976915$GBGSV,2,1,05,14,50,195,44,24,78,005,49,25,36,256,44,26,31,059,43*6F
###2023-12-09 12:46:12.978720$GBGSV,2,2,05,33,61,245,48,,,,,,,,,,,,*56
###2023-12-09 12:46:12.980316$GNVTG,266.23,T,,M,0.60,N,1.12,K,A*24
###2023-12-09 12:46:12.982315$GNGST,174612.10,18.000,,,,0.077,0.068,0.160*51
###2023-12-09 12:46:12.983890$GNZDA,174612.10,09,12,2023,00,00*77
###2023-12-09 12:46:12.984671$GNEBP,,,,,,M*13
###2023-12-09 12:46:13.143713$GNGGA,174612.30,4138.0483294,N,07032.3888734,W,1,24,0.6,13.325,M,-29.745,M,0.0,*5F
###2023-12-09 12:46:13.345703$GNGGA,174612.50,4138.0483225,N,07032.3888800,W,1,24,0.6,13.328,M,-29.745,M,0.0,*56
###2023-12-09 12:46:13.544249$GNGGA,174612.70,4138.0483192,N,07032.3888942,W,1,24,0.6,13.327,M,-29.745,M,0.0,*53
###2023-12-09 12:46:13.744044$GNGGA,174612.90,4138.0483193,N,07032.3889312,W,1,24,0.6,13.328,M,-29.745,M,0.0,*5D
###2023-12-09 12:46:13.949185$GNRMC,174613.10,A,4138.0483174,N,07032.3889785,W,0.58,266.23,091223,,,A*55
###2023-12-09 12:46:13.952076$GNGGA,174613.10,4138.0483174,N,07032.3889785,W,1,24,0.6,13.332,M,-29.745,M,0.0,*5C
###2023-12-09 12:46:13.953940$GPGSA,A,3,03,04,16,26,28,29,31,32,,,,,1.1,0.6,0.9*3B
###2023-12-09 12:46:13.955679$GLGSA,A,3,65,71,72,73,74,75,,,,,,,1.1,0.6,0.9*24
###2023-12-09 12:46:13.957266$GAGSA,A,3,04,19,21,27,,,,,,,,,1.1,0.6,0.9*26
###2023-12-09 12:46:13.958919$GBGSA,A,3,14,24,25,26,33,,,,,,,,1.1,0.6,0.9*2F
###2023-12-09 12:46:13.961243$GPGSV,2,1,08,03,37,270,44,04,26,311,41,16,42,209,43,26,72,208,47*73
###2023-12-09 12:46:13.963608$GPGSV,2,2,08,28,54,062,45,29,26,068,40,31,72,018,48,32,25,137,43*7C
###2023-12-09 12:46:13.965937$GLGSV,2,1,06,65,17,329,41,71,50,171,47,72,70,297,47,73,43,037,47*66
###2023-12-09 12:46:13.967706$GLGSV,2,2,06,74,71,310,43,75,26,245,41,,,,,,,,*63
###2023-12-09 12:46:13.970038$GAGSV,1,1,04,04,24,312,41,19,84,283,41,21,82,167,45,27,38,049,42*6E
###2023-12-09 12:46:13.972376$GBGSV,2,1,05,14,50,195,44,24,78,005,48,25,36,256,44,26,31,059,43*6E
###2023-12-09 12:46:13.973833$GBGSV,2,2,05,33,61,245,48,,,,,,,,,,,,*56
###2023-12-09 12:46:13.975172$GNVTG,266.23,T,,M,0.58,N,1.08,K,A*24
###2023-12-09 12:46:13.976824$GNGST,174613.10,18.000,,,,0.077,0.068,0.160*50
###2023-12-09 12:46:13.978113$GNZDA,174613.10,09,12,2023,00,00*76
###2023-12-09 12:46:13.978764$GNEBP,,,,,,M*13
###2023-12-09 12:46:14.144442$GNGGA,174613.30,4138.0483146,N,07032.3890095,W,1,24,0.6,13.335,M,-29.745,M,0.0,*56
###2023-12-09 12:46:14.345959$GNGGA,174613.50,4138.0483098,N,07032.3890183,W,1,24,0.6,13.328,M,-29.745,M,0.0,*58
###2023-12-09 12:46:14.544255$GNGGA,174613.70,4138.0483035,N,07032.3890307,W,1,24,0.6,13.323,M,-29.745,M,0.0,*58
###2023-12-09 12:46:14.743760$GNGGA,174613.90,4138.0483018,N,07032.3890742,W,1,24,0.6,13.330,M,-29.745,M,0.0,*5E
###2023-12-09 12:46:14.945812$GNRMC,174614.10,A,4138.0483019,N,07032.3891281,W,0.60,266.23,091223,,,A*5B
###2023-12-09 12:46:14.948717$GNGGA,174614.10,4138.0483019,N,07032.3891281,W,1,24,0.6,13.337,M,-29.745,M,0.0,*5C
###2023-12-09 12:46:14.950610$GPGSA,A,3,03,04,16,26,28,29,31,32,,,,,1.1,0.6,0.9*3B
###2023-12-09 12:46:14.952328$GLGSA,A,3,65,71,72,73,74,75,,,,,,,1.1,0.6,0.9*24
###2023-12-09 12:46:14.953907$GAGSA,A,3,04,19,21,27,,,,,,,,,1.1,0.6,0.9*26
###2023-12-09 12:46:14.955570$GBGSA,A,3,14,24,25,26,33,,,,,,,,1.1,0.6,0.9*2F
