###2023-12-09 12:27:00.945362$GNVTG,,T,,M,0.02,N,0.04,K,A*3B
###2023-12-09 12:27:00.947116$GNGST,172700.10,30.000,,,,0.230,0.220,0.550*57
###2023-12-09 12:27:00.948494$GNZDA,172700.10,09,12,2023,00,00*73
###2023-12-09 12:27:00.949192$GNEBP,,,,,,M*13
###2023-12-09 12:27:01.119122$GNGGA,172700.30,4138.0379162,N,07032.4356471,W,1,17,0.8,7.766,M,-29.746,M,0.0,*65
###2023-12-09 12:27:01.319158$GNGGA,172700.50,4138.0379152,N,07032.4356458,W,1,17,0.8,7.767,M,-29.746,M,0.0,*6A
###2023-12-09 12:27:01.518422$GNGGA,172700.70,4138.0379148,N,07032.4356455,W,1,17,0.8,7.762,M,-29.746,M,0.0,*6B
###2023-12-09 12:27:01.718276$GNGGA,172700.90,4138.0379149,N,07032.4356456,W,1,17,0.8,7.759,M,-29.746,M,0.0,*6F
###2023-12-09 12:27:01.919606$GNRMC,172701.10,A,4138.0379145,N,07032.4356454,W,0.00,,091223,,,A*40
###2023-12-09 12:27:01.922504$GNGGA,172701.10,4138.0379145,N,07032.4356454,W,1,17,0.8,7.756,M,-29.746,M,0.0,*67
###2023-12-09 12:27:01.924363$GPGSA,A,3,03,16,26,28,29,31,32,,,,,,1.5,0.8,1.3*3E
###2023-12-09 12:27:01.925988$GLGSA,A,3,71,72,73,75,,,,,,,,,1.5,0.8,1.3*25
###2023-12-09 12:27:01.927492$GAGSA,A,3,21,27,,,,,,,,,,,1.5,0.8,1.3*2B
###2023-12-09 12:27:01.929114$GBGSA,A,3,14,25,26,33,,,,,,,,,1.5,0.8,1.3*28
###2023-12-09 12:27:01.931495$GPGSV,2,1,07,03,39,281,42,16,33,206,43,26,62,205,41,28,60,051,43*70
###2023-12-09 12:27:01.933579$GPGSV,2,2,07,29,24,078,42,31,73,348,42,32,33,132,47,,,,*47
###2023-12-09 12:27:01.935965$GLGSV,1,1,04,71,61,167,47,72,62,315,45,73,52,031,48,75,19,238,43*6D
###2023-12-09 12:27:01.937750$GAGSV,1,1,02,21,74,179,42,27,44,051,46,,,,,,,,*60
###2023-12-09 12:27:01.940159$GBGSV,1,1,04,14,59,200,46,25,30,250,39,26,38,056,48,33,64,263,35*6C
###2023-12-09 12:27:01.941351$GNVTG,,T,,M,0.00,N,0.00,K,A*3D
###2023-12-09 12:27:01.943076$GNGST,172701.10,30.000,,,,0.230,0.220,0.550*56
###2023-12-09 12:27:01.944467$GNZDA,172701.10,09,12,2023,00,00*72
###2023-12-09 12:27:01.945156$GNEBP,,,,,,M*13
###2023-12-09 12:27:02.119017$GNGGA,172701.30,4138.0379130,N,07032.4356454,W,1,17,0.8,7.759,M,-29.746,M,0.0,*68
###2023-12-09 12:27:02.319157$GNGGA,172701.50,4138.0379117,N,07032.4356458,W,1,17,0.8,7.750,M,-29.746,M,0.0,*6E
###2023-12-09 12:27:02.519263$GNGGA,172701.70,4138.0379107,N,07032.4356452,W,1,17,0.8,7.750,M,-29.746,M,0.0,*67
###2023-12-09 12:27:02.717891$GNGGA,172701.90,4138.0379101,N,07032.4356447,W,1,17,0.8,7.751,M,-29.746,M,0.0,*6A
###2023-12-09 12:27:02.925681$GNRMC,172702.10,A,4138.0379090,N,07032.4356444,W,0.00,,091223,,,A*4B
###2023-12-09 12:27:02.928761$GNGGA,172702.10,4138.0379090,N,07032.4356444,W,1,17,0.8,7.747,M,-29.746,M,0.0,*6C
###2023-12-09 12:27:02.930604$GPGSA,A,3,03,16,26,28,29,31,32,,,,,,1.5,0.8,1.3*3E
###2023-12-09 12:27:02.932219$GLGSA,A,3,71,72,73,75,,,,,,,,,1.5,0.8,1.3*25
###2023-12-09 12:27:02.933681$GAGSA,A,3,21,27,,,,,,,,,,,1.5,0.8,1.3*2B
###2023-12-09 12:27:02.935283$GBGSA,A,3,14,25,26,33,,,,,,,,,1.5,0.8,1.3*28
###2023-12-09 12:27:02.937621$GPGSV,2,1,07,03,39,281,42,16,33,206,43,26,62,205,42,28,60,051,42*72
###2023-12-09 12:27:02.939695$GPGSV,2,2,07,29,24,078,41,31,73,348,42,32,33,132,47,,,,*44
###2023-12-09 12:27:02.942028$GLGSV,1,1,04,71,61,167,47,72,62,315,45,73,52,031,49,75,19,238,43*6C
###2023-12-09 12:27:02.943797$GAGSV,1,1,02,21,74,179,42,27,44,051,46,,,,,,,,*60
###2023-12-09 12:27:02.946138$GBGSV,1,1,04,14,59,200,46,25,30,250,39,26,38,056,48,33,64,263,35*6C
###2023-12-09 12:27:02.947324$GNVTG,,T,,M,0.00,N,0.00,K,A*3D
###2023-12-09 12:27:02.949005$GNGST,172702.10,30.000,,,,0.230,0.220,0.550*55
###2023-12-09 12:27:02.950313$GNZDA,172702.10,09,12,2023,00,00*71
###2023-12-09 12:27:02.950984$GNEBP,,,,,,M*13
###2023-12-09 12:27:03.122231$GNGGA,172702.30,4138.0379085,N,07032.4356445,W,1,17,0.8,7.747,M,-29.746,M,0.0,*6B
###2023-12-09 12:27:03.319487$GNGGA,172702.50,4138.0379071,N,07032.4356435,W,1,17,0.8,7.744,M,-29.746,M,0.0,*62
###2023-12-09 12:27:03.520042$GNGGA,172702.70,4138.0379065,N,07032.4356440,W,1,17,0.8,7.743,M,-29.746,M,0.0,*60
###2023-12-09 12:27:03.719154$GNGGA,172702.90,4138.0379058,N,07032.4356439,W,1,17,0.8,7.738,M,-29.746,M,0.0,*62
###2023-12-09 12:27:03.920612$GNRMC,172703.10,A,4138.0379054,N,07032.4356440,W,0.02,,091223,,,A*44
###2023-12-09 12:27:03.923483$GNGGA,172703.10,4138.0379054,N,07032.4356440,W,1,17,0.8,7.737,M,-29.746,M,0.0,*66
###2023-12-09 12:27:03.925312$GPGSA,A,3,03,16,26,28,29,31,32,,,,,,1.5,0.8,1.3*3E
###2023-12-09 12:27:03.926938$GLGSA,A,3,71,72,73,75,,,,,,,,,1.5,0.8,1.3*25
###2023-12-09 12:27:03.928417$GAGSA,A,3,21,27,,,,,,,,,,,1.5,0.8,1.3*2B
###2023-12-09 12:27:03.930023$GBGSA,A,3,14,25,26,33,,,,,,,,,1.5,0.8,1.3*28
###2023-12-09 12:27:03.932390$GPGSV,2,1,07,03,39,281,41,16,33,206,42,26,62,205,41,28,60,051,42*73
###2023-12-09 12:27:03.934453$GPGSV,2,2,07,29,24,078,42,31,73,348,41,32,33,132,48,,,,*4B
###2023-12-09 12:27:03.936830$GLGSV,1,1,04,71,61,167,47,72,62,315,45,73,52,031,49,75,19,238,43*6C
###2023-12-09 12:27:03.938623$GAGSV,1,1,02,21,74,179,42,27,44,051,46,,,,,,,,*60
###2023-12-09 12:27:03.940981$GBGSV,1,1,04,14,59,200,46,25,30,250,38,26,38,056,49,33,64,263,35*6C
###2023-12-09 12:27:03.942133$GNVTG,,T,,M,0.02,N,0.04,K,A*3B
###2023-12-09 12:27:03.943827$GNGST,172703.10,30.000,,,,0.230,0.220,0.550*54
###2023-12-09 12:27:03.945137$GNZDA,172703.10,09,12,2023,00,00*70
###2023-12-09 12:27:03.945796$GNEBP,,,,,,M*13
###2023-12-09 12:27:04.120194$GNGGA,172703.30,4138.0379045,N,07032.4356441,W,1,17,0.8,7.733,M,-29.746,M,0.0,*61
###2023-12-09 12:27:04.320144$GNGGA,172703.50,4138.0379028,N,07032.4356428,W,1,17,0.8,7.737,M,-29.746,M,0.0,*67
###2023-12-09 12:27:04.519380$GNGGA,172703.70,4138.0379010,N,07032.4356434,W,1,17,0.8,7.731,M,-29.746,M,0.0,*65
###2023-12-09 12:27:04.718207$GNGGA,172703.90,4138.0378998,N,07032.4356428,W,1,17,0.8,7.732,M,-29.746,M,0.0,*6D
###2023-12-09 12:27:04.922324$GNRMC,172704.10,A,4138.0378977,N,07032.4356399,W,0.04,,091223,,,A*4F
###2023-12-09 12:27:04.925189$GNGGA,172704.10,4138.0378977,N,07032.4356399,W,1,17,0.8,7.734,M,-29.746,M,0.0,*68
###2023-12-09 12:27:04.927030$GPGSA,A,3,03,16,26,28,29,31,32,,,,,,1.5,0.8,1.3*3E
###2023-12-09 12:27:04.928639$GLGSA,A,3,71,72,73,75,,,,,,,,,1.5,0.8,1.3*25
###2023-12-09 12:27:04.930109$GAGSA,A,3,21,27,,,,,,,,,,,1.5,0.8,1.3*2B
###2023-12-09 12:27:04.931719$GBGSA,A,3,14,25,26,33,,,,,,,,,1.5,0.8,1.3*28
###2023-12-09 12:27:04.934062$GPGSV,2,1,07,03,39,281,41,16,33,206,42,26,62,205,42,28,60,051,42*70
###2023-12-09 12:27:04.936142$GPGSV,2,2,07,29,24,078,42,31,73,348,41,32,33,132,47,,,,*44
###2023-12-09 12:27:04.938503$GLGSV,1,1,04,71,61,167,47,72,62,315,45,73,52,031,49,75,19,238,43*6C
###2023-12-09 12:27:04.940287$GAGSV,1,1,02,21,74,179,42,27,44,051,46,,,,,,,,*60
###2023-12-09 12:27:04.942655$GBGSV,1,1,04,14,59,200,46,25,30,250,39,26,38,056,48,33,64,263,36*6F
###2023-12-09 12:27:04.943806$GNVTG,,T,,M,0.04,N,0.07,K,A*3E
###2023-12-09 12:27:04.945464$GNGST,172704.10,30.000,,,,0.230,0.220,0.550*53
###2023-12-09 12:27:04.946792$GNZDA,172704.10,09,12,2023,00,00*77
###2023-12-09 12:27:04.947472$GNEBP,,,,,,M*13
###2023-12-09 12:27:05.120253$GNGGA,172704.30,4138.0378966,N,07032.4356400,W,1,17,0.8,7.732,M,-29.746,M,0.0,*6B
###2023-12-09 12:27:05.320869$GNGGA,172704.50,4138.0378956,N,07032.4356408,W,1,17,0.8,7.728,M,-29.746,M,0.0,*6D
###2023-12-09 12:27:05.520057$GNGGA,172704.70,4138.0378932,N,07032.4356390,W,1,17,0.8,7.729,M,-29.746,M,0.0,*6A
###2023-12-09 12:27:05.719267$GNGGA,172704.90,4138.0378916,N,07032.4356384,W,1,17,0.8,7.727,M,-29.746,M,0.0,*69
###2023-12-09 12:27:05.920759$GNRMC,172705.10,A,4138.0378900,N,07032.4356360,W,0.04,,091223,,,A*48
###2023-12-09 12:27:05.923627$GNGGA,172705.10,4138.0378900,N,07032.4356360,W,1,17,0.8,7.729,M,-29.746,M,0.0,*63
###2023-12-09 12:27:05.925448$GPGSA,A,3,03,16,26,28,29,31,32,,,,,,1.5,0.8,1.3*3E
###2023-12-09 12:27:05.927065$GLGSA,A,3,71,72,73,75,,,,,,,,,1.5,0.8,1.3*25
###2023-12-09 12:27:05.928541$GAGSA,A,3,21,27,,,,,,,,,,,1.5,0.8,1.3*2B
###2023-12-09 12:27:05.930144$GBGSA,A,3,14,25,26,33,,,,,,,,,1.5,0.8,1.3*28
###2023-12-09 12:27:05.932519$GPGSV,2,1,07,03,39,281,41,16,33,206,43,26,62,205,41,28,60,051,42*72
###2023-12-09 12:27:05.934591$GPGSV,2,2,07,29,24,078,42,31,73,348,41,32,33,132,47,,,,*44
###2023-12-09 12:27:05.936937$GLGSV,1,1,04,71,61,167,46,72,62,315,44,73,52,031,49,75,19,238,43*6C
###2023-12-09 12:27:05.939015$GAGSV,1,1,02,21,74,179,42,27,44,051,46,,,,,,,,*60
###2023-12-09 12:27:05.941366$GBGSV,1,1,04,14,59,200,45,25,30,250,38,26,38,056,48,33,64,263,35*6E
###2023-12-09 12:27:05.942527$GNVTG,,T,,M,0.04,N,0.07,K,A*3E
###2023-12-09 12:27:05.944200$GNGST,172705.10,30.000,,,,0.230,0.220,0.550*52
###2023-12-09 12:27:05.945509$GNZDA,172705.10,09,12,2023,00,00*76
###2023-12-09 12:27:05.946166$GNEBP,,,,,,M*13
###2023-12-09 12:27:06.133871$GNGGA,172705.30,4138.0378894,N,07032.4356348,W,1,18,0.9,7.724,M,-29.746,M,0.0,*64
