###2023-12-09 13:12:26.006534$GNZDA,181225.10,09,12,2023,00,00*7D
###2023-12-09 13:12:26.007223$GNEBP,,,,,,M*13
###2023-12-09 13:12:26.173238$GNGGA,181225.30,4138.0461795,N,07032.3129632,W,1,24,0.7,12.749,M,-29.744,M,0.0,*57
###2023-12-09 13:12:26.372469$GNGGA,181225.50,4138.0460847,N,07032.3127913,W,1,24,0.7,12.743,M,-29.744,M,0.0,*58
###2023-12-09 13:12:26.574438$GNGGA,181225.70,4138.0459957,N,07032.3126045,W,1,24,0.7,12.738,M,-29.744,M,0.0,*57
###2023-12-09 13:12:26.773174$GNGGA,181225.90,4138.0459042,N,07032.3124254,W,1,24,0.7,12.736,M,-29.744,M,0.0,*5A
###2023-12-09 13:12:26.979980$GNRMC,181226.10,A,4138.0458295,N,07032.3122280,W,3.09,115.22,091223,,,A*5E
###2023-12-09 13:12:26.982861$GNGGA,181226.10,4138.0458295,N,07032.3122280,W,1,24,0.7,12.754,M,-29.744,M,0.0,*53
###2023-12-09 13:12:26.984654$GPGSA,A,3,03,04,16,26,28,29,31,,,,,,1.2,0.7,1.0*30
###2023-12-09 13:12:26.986372$GLGSA,A,3,65,71,72,73,74,75,,,,,,,1.2,0.7,1.0*2E
###2023-12-09 13:12:26.988001$GAGSA,A,3,04,19,21,27,,,,,,,,,1.2,0.7,1.0*2C
###2023-12-09 13:12:26.989723$GBGSA,A,3,14,24,25,26,33,35,,,,,,,1.2,0.7,1.0*23
###2023-12-09 13:12:26.992068$GPGSV,2,1,07,03,33,256,42,04,37,311,43,16,55,215,46,26,85,210,48*78
###2023-12-09 13:12:26.994114$GPGSV,2,2,07,28,46,075,45,29,24,056,43,31,66,048,46,,,,*40
###2023-12-09 13:12:26.996464$GLGSV,2,1,06,65,28,326,40,71,35,174,44,72,72,250,46,73,31,045,44*6A
###2023-12-09 13:12:26.998212$GLGSV,2,2,06,74,67,351,42,75,36,258,46,,,,,,,,*6A
###2023-12-09 13:12:27.000546$GAGSV,1,1,04,04,33,312,42,19,81,194,40,21,84,070,45,27,29,048,42*6A
###2023-12-09 13:12:27.002877$GBGSV,2,1,06,14,38,192,42,24,70,033,46,25,44,266,45,26,23,065,42*6B
###2023-12-09 13:12:27.004628$GBGSV,2,2,06,33,54,227,47,35,15,065,42,,,,,,,,*6F
###2023-12-09 13:12:27.005952$GNVTG,115.22,T,,M,3.09,N,5.72,K,A*2C
###2023-12-09 13:12:27.007606$GNGST,181226.10,18.000,,,,0.100,0.071,0.170*50
###2023-12-09 13:12:27.008898$GNZDA,181226.10,09,12,2023,00,00*7E
###2023-12-09 13:12:27.009533$GNEBP,,,,,,M*13
###2023-12-09 13:12:27.176007$GNGGA,181226.30,4138.0457571,N,07032.3120234,W,1,24,0.7,12.747,M,-29.744,M,0.0,*5C
###2023-12-09 13:12:27.374894$GNGGA,181226.50,4138.0457019,N,07032.3118200,W,1,24,0.7,12.746,M,-29.744,M,0.0,*5C
###2023-12-09 13:12:27.574450$GNGGA,181226.70,4138.0456497,N,07032.3116051,W,1,24,0.7,12.752,M,-29.744,M,0.0,*50
###2023-12-09 13:12:27.774310$GNGGA,181226.90,4138.0455991,N,07032.3113877,W,1,24,0.7,12.749,M,-29.744,M,0.0,*55
###2023-12-09 13:12:27.977990$GNRMC,181227.10,A,4138.0455573,N,07032.3111691,W,3.05,102.56,091223,,,A*50
###2023-12-09 13:12:27.980867$GNGGA,181227.10,4138.0455573,N,07032.3111691,W,1,24,0.7,12.745,M,-29.744,M,0.0,*54
###2023-12-09 13:12:27.982670$GPGSA,A,3,03,04,16,26,28,29,31,,,,,,1.2,0.7,1.0*30
###2023-12-09 13:12:27.984384$GLGSA,A,3,65,71,72,73,74,75,,,,,,,1.2,0.7,1.0*2E
###2023-12-09 13:12:27.985959$GAGSA,A,3,04,19,21,27,,,,,,,,,1.2,0.7,1.0*2C
###2023-12-09 13:12:27.987680$GBGSA,A,3,14,24,25,26,33,35,,,,,,,1.2,0.7,1.0*23
###2023-12-09 13:12:27.990008$GPGSV,2,1,07,03,33,256,43,04,37,311,42,16,55,215,47,26,85,210,48*79
###2023-12-09 13:12:27.992055$GPGSV,2,2,07,28,46,075,44,29,24,056,43,31,66,048,46,,,,*41
###2023-12-09 13:12:27.994376$GLGSV,2,1,06,65,28,326,40,71,35,174,44,72,72,250,46,73,31,045,44*6A
###2023-12-09 13:12:27.996165$GLGSV,2,2,06,74,67,351,42,75,36,258,47,,,,,,,,*6B
###2023-12-09 13:12:27.998487$GAGSV,1,1,04,04,33,312,42,19,81,194,40,21,84,070,45,27,29,048,42*6A
###2023-12-09 13:12:28.000829$GBGSV,2,1,06,14,38,192,44,24,70,033,48,25,44,267,47,26,23,065,43*61
###2023-12-09 13:12:28.002578$GBGSV,2,2,06,33,54,227,49,35,15,065,42,,,,,,,,*61
###2023-12-09 13:12:28.003896$GNVTG,102.56,T,,M,3.05,N,5.65,K,A*23
###2023-12-09 13:12:28.005532$GNGST,181227.10,18.000,,,,0.100,0.071,0.170*51
###2023-12-09 13:12:28.006829$GNZDA,181227.10,09,12,2023,00,00*7F
###2023-12-09 13:12:28.007466$GNEBP,,,,,,M*13
###2023-12-09 13:12:28.173377$GNGGA,181227.30,4138.0455219,N,07032.3109443,W,1,24,0.7,12.758,M,-29.744,M,0.0,*55
###2023-12-09 13:12:28.373520$GNGGA,181227.50,4138.0454691,N,07032.3107145,W,1,24,0.7,12.743,M,-29.744,M,0.0,*51
###2023-12-09 13:12:28.573269$GNGGA,181227.70,4138.0454159,N,07032.3105056,W,1,24,0.7,12.730,M,-29.744,M,0.0,*55
###2023-12-09 13:12:28.773176$GNGGA,181227.90,4138.0453723,N,07032.3102827,W,1,24,0.7,12.763,M,-29.744,M,0.0,*58
###2023-12-09 13:12:28.976921$GNRMC,181228.10,A,4138.0453189,N,07032.3100520,W,3.05,111.17,091223,,,A*56
###2023-12-09 13:12:28.979802$GNGGA,181228.10,4138.0453189,N,07032.3100520,W,1,24,0.7,12.732,M,-29.744,M,0.0,*55
###2023-12-09 13:12:28.981591$GPGSA,A,3,03,04,16,26,28,29,31,,,,,,1.2,0.7,1.0*30
###2023-12-09 13:12:28.983309$GLGSA,A,3,65,71,72,73,74,75,,,,,,,1.2,0.7,1.0*2E
###2023-12-09 13:12:28.984896$GAGSA,A,3,04,19,21,27,,,,,,,,,1.2,0.7,1.0*2C
###2023-12-09 13:12:28.986613$GBGSA,A,3,14,24,25,26,33,35,,,,,,,1.2,0.7,1.0*23
###2023-12-09 13:12:28.988975$GPGSV,2,1,07,03,33,256,43,04,37,311,44,16,55,215,47,26,85,210,48*7F
###2023-12-09 13:12:28.991029$GPGSV,2,2,07,28,46,075,44,29,24,056,43,31,66,048,47,,,,*40
###2023-12-09 13:12:28.993345$GLGSV,2,1,06,65,28,326,43,71,35,174,46,72,72,250,46,73,31,045,43*6C
###2023-12-09 13:12:28.995094$GLGSV,2,2,06,74,67,351,42,75,36,258,47,,,,,,,,*6B
###2023-12-09 13:12:28.997409$GAGSV,1,1,04,04,33,312,43,19,81,194,40,21,84,070,46,27,29,048,42*68
###2023-12-09 13:12:28.999737$GBGSV,2,1,06,14,38,192,45,24,70,034,49,25,44,267,47,26,23,065,45*60
###2023-12-09 13:12:29.001474$GBGSV,2,2,06,33,54,227,49,35,15,065,45,,,,,,,,*66
###2023-12-09 13:12:29.002805$GNVTG,111.17,T,,M,3.05,N,5.65,K,A*24
###2023-12-09 13:12:29.004451$GNGST,181228.10,18.000,,,,0.099,0.071,0.170*5F
###2023-12-09 13:12:29.005743$GNZDA,181228.10,09,12,2023,00,00*70
###2023-12-09 13:12:29.006380$GNEBP,,,,,,M*13
###2023-12-09 13:12:29.174009$GNGGA,181228.30,4138.0452540,N,07032.3098565,W,1,24,0.7,12.726,M,-29.744,M,0.0,*53
###2023-12-09 13:12:29.373480$GNGGA,181228.50,4138.0451815,N,07032.3096479,W,1,24,0.7,12.760,M,-29.744,M,0.0,*5B
###2023-12-09 13:12:29.575115$GNGGA,181228.70,4138.0450980,N,07032.3094416,W,1,24,0.7,12.725,M,-29.744,M,0.0,*5F
###2023-12-09 13:12:29.774219$GNGGA,181228.90,4138.0450168,N,07032.3092511,W,1,24,0.7,12.719,M,-29.744,M,0.0,*50
###2023-12-09 13:12:29.981634$GNRMC,181229.10,A,4138.0449268,N,07032.3090413,W,3.40,122.46,091223,,,A*5C
###2023-12-09 13:12:29.984507$GNGGA,181229.10,4138.0449268,N,07032.3090413,W,1,24,0.7,12.736,M,-29.744,M,0.0,*5E
###2023-12-09 13:12:29.986292$GPGSA,A,3,03,04,16,26,28,29,31,,,,,,1.2,0.7,1.0*30
###2023-12-09 13:12:29.988016$GLGSA,A,3,65,71,72,73,74,75,,,,,,,1.2,0.7,1.0*2E
###2023-12-09 13:12:29.989593$GAGSA,A,3,04,19,21,27,,,,,,,,,1.2,0.7,1.0*2C
###2023-12-09 13:12:29.991311$GBGSA,A,3,14,24,25,26,33,35,,,,,,,1.2,0.7,1.0*23
###2023-12-09 13:12:29.993626$GPGSV,2,1,07,03,33,256,43,04,37,311,45,16,55,215,47,26,85,210,48*7E
###2023-12-09 13:12:29.995667$GPGSV,2,2,07,28,46,075,44,29,24,056,43,31,66,048,47,,,,*40
###2023-12-09 13:12:29.997979$GLGSV,2,1,06,65,28,326,43,71,35,174,45,72,72,250,46,73,31,045,44*68
###2023-12-09 13:12:29.999730$GLGSV,2,2,06,74,67,351,42,75,36,258,46,,,,,,,,*6A
###2023-12-09 13:12:30.002043$GAGSV,1,1,04,04,33,312,44,19,81,194,40,21,84,070,46,27,29,048,42*6F
###2023-12-09 13:12:30.004377$GBGSV,2,1,06,14,38,192,44,24,70,034,49,25,44,267,46,26,23,065,45*60
###2023-12-09 13:12:30.006120$GBGSV,2,2,06,33,54,227,49,35,15,065,45,,,,,,,,*66
###2023-12-09 13:12:30.007456$GNVTG,122.46,T,,M,3.40,N,6.30,K,A*22
###2023-12-09 13:12:30.009094$GNGST,181229.10,18.000,,,,0.098,0.071,0.170*5F
###2023-12-09 13:12:30.010381$GNZDA,181229.10,09,12,2023,00,00*71
###2023-12-09 13:12:30.011028$GNEBP,,,,,,M*13
###2023-12-09 13:12:30.174198$GNGGA,181229.30,4138.0448307,N,07032.3088375,W,1,24,0.7,12.715,M,-29.744,M,0.0,*5A
###2023-12-09 13:12:30.373457$GNGGA,181229.50,4138.0447380,N,07032.3086289,W,1,24,0.7,12.723,M,-29.744,M,0.0,*55
###2023-12-09 13:12:30.574120$GNGGA,181229.70,4138.0446406,N,07032.3084110,W,1,24,0.7,12.716,M,-29.744,M,0.0,*58
###2023-12-09 13:12:30.774170$GNGGA,181229.90,4138.0445531,N,07032.3081894,W,1,24,0.7,12.710,M,-29.744,M,0.0,*56
###2023-12-09 13:12:30.977950$GNRMC,181230.10,A,4138.0444629,N,07032.3079623,W,3.50,119.59,091223,,,A*59
###2023-12-09 13:12:30.981064$GNGGA,181230.10,4138.0444629,N,07032.3079623,W,1,24,0.7,12.706,M,-29.744,M,0.0,*5F
###2023-12-09 13:12:30.982871$GPGSA,A,3,03,04,16,26,28,29,31,,,,,,1.2,0.7,1.0*30
###2023-12-09 13:12:30.984580$GLGSA,A,3,65,71,72,73,74,75,,,,,,,1.2,0.7,1.0*2E
###2023-12-09 13:12:30.986157$GAGSA,A,3,04,19,21,27,,,,,,,,,1.2,0.7,1.0*2C
###2023-12-09 13:12:30.987878$GBGSA,A,3,14,24,25,26,33,35,,,,,,,1.2,0.7,1.0*23
###2023-12-09 13:12:30.990195$GPGSV,2,1,07,03,33,256,43,04,37,311,43,16,55,215,46,26,85,210,48*79
###2023-12-09 13:12:30.992232$GPGSV,2,2,07,28,46,075,45,29,24,056,42,31,66,048,46,,,,*41
###2023-12-09 13:12:30.994547$GLGSV,2,1,06,65,28,326,42,71,35,174,44,72,72,250,46,73,31,045,44*68
###2023-12-09 13:12:30.996303$GLGSV,2,2,06,74,67,351,43,75,36,258,46,,,,,,,,*6B
