###2023-12-09 13:01:14.978237$GPGSV,2,1,08,03,35,261,45,04,33,311,44,16,49,212,46,26,79,210,48*78
###2023-12-09 13:01:14.980614$GPGSV,2,2,08,28,49,070,42,29,25,061,41,31,69,036,46,32,19,140,40*7B
###2023-12-09 13:01:14.982968$GLGSV,2,1,06,65,24,327,44,71,41,173,45,72,73,269,46,73,36,041,43*69
###2023-12-09 13:01:14.984713$GLGSV,2,2,06,74,70,337,42,75,32,253,46,,,,,,,,*63
###2023-12-09 13:01:14.987040$GAGSV,1,1,04,04,29,312,43,19,84,216,41,21,86,120,46,27,33,048,41*60
###2023-12-09 13:01:14.989368$GBGSV,2,1,05,14,43,193,43,24,74,024,48,25,41,262,45,26,26,063,41*69
###2023-12-09 13:01:14.990832$GBGSV,2,2,05,33,57,233,46,,,,,,,,,,,,*5C
###2023-12-09 13:01:14.992119$GNVTG,64.34,T,,M,3.36,N,6.23,K,A*17
###2023-12-09 13:01:14.993757$GNGST,180114.10,18.000,,,,0.079,0.067,0.160*5A
###2023-12-09 13:01:14.995068$GNZDA,180114.10,09,12,2023,00,00*7D
###2023-12-09 13:01:14.995704$GNEBP,,,,,,M*13
###2023-12-09 13:01:15.165991$GNGGA,180114.30,4138.0432995,N,07032.2605172,W,1,24,0.6,13.477,M,-29.743,M,0.0,*5D
###2023-12-09 13:01:15.364741$GNGGA,180114.50,4138.0433793,N,07032.2602641,W,1,24,0.6,13.474,M,-29.743,M,0.0,*51
###2023-12-09 13:01:15.564991$GNGGA,180114.70,4138.0434649,N,07032.2600233,W,1,24,0.6,13.431,M,-29.743,M,0.0,*50
###2023-12-09 13:01:15.764335$GNGGA,180114.90,4138.0435839,N,07032.2598226,W,1,24,0.6,13.451,M,-29.743,M,0.0,*56
###2023-12-09 13:01:15.969013$GNRMC,180115.10,A,4138.0436868,N,07032.2595951,W,3.75,68.09,091223,,,A*6B
###2023-12-09 13:01:15.971880$GNGGA,180115.10,4138.0436868,N,07032.2595951,W,1,24,0.6,13.470,M,-29.743,M,0.0,*5D
###2023-12-09 13:01:15.973738$GPGSA,A,3,03,04,16,26,28,29,31,32,,,,,1.1,0.6,0.9*3B
###2023-12-09 13:01:15.975465$GLGSA,A,3,65,71,72,73,74,75,,,,,,,1.1,0.6,0.9*24
###2023-12-09 13:01:15.977047$GAGSA,A,3,04,19,21,27,,,,,,,,,1.1,0.6,0.9*26
###2023-12-09 13:01:15.978701$GBGSA,A,3,14,24,25,26,33,,,,,,,,1.1,0.6,0.9*2F
###2023-12-09 13:01:15.981023$GPGSV,2,1,08,03,35,261,43,04,33,311,44,16,49,212,44,26,79,210,47*73
###2023-12-09 13:01:15.983368$GPGSV,2,2,08,28,49,070,41,29,25,061,41,31,69,036,46,32,19,140,39*76
###2023-12-09 13:01:15.985705$GLGSV,2,1,06,65,24,327,44,71,41,173,46,72,73,269,46,73,36,041,42*6B
###2023-12-09 13:01:15.987459$GLGSV,2,2,06,74,70,337,42,75,32,253,46,,,,,,,,*63
###2023-12-09 13:01:15.989784$GAGSV,1,1,04,04,29,312,43,19,84,216,41,21,86,120,46,27,33,048,41*60
###2023-12-09 13:01:15.992120$GBGSV,2,1,05,14,43,193,44,24,74,024,48,25,41,262,46,26,26,063,41*6D
###2023-12-09 13:01:15.993571$GBGSV,2,2,05,33,57,233,47,,,,,,,,,,,,*5D
###2023-12-09 13:01:15.994863$GNVTG,68.09,T,,M,3.75,N,6.95,K,A*1F
###2023-12-09 13:01:15.996513$GNGST,180115.10,18.000,,,,0.079,0.067,0.160*5B
###2023-12-09 13:01:15.997808$GNZDA,180115.10,09,12,2023,00,00*7C
###2023-12-09 13:01:15.998448$GNEBP,,,,,,M*13
###2023-12-09 13:01:16.163843$GNGGA,180115.30,4138.0437439,N,07032.2593355,W,1,24,0.6,13.445,M,-29.743,M,0.0,*58
###2023-12-09 13:01:16.363312$GNGGA,180115.50,4138.0438234,N,07032.2591127,W,1,24,0.6,13.444,M,-29.743,M,0.0,*5E
###2023-12-09 13:01:16.563830$GNGGA,180115.70,4138.0439503,N,07032.2589047,W,1,24,0.6,13.469,M,-29.743,M,0.0,*5F
###2023-12-09 13:01:16.764012$GNGGA,180115.90,4138.0440560,N,07032.2586779,W,1,24,0.6,13.443,M,-29.743,M,0.0,*57
###2023-12-09 13:01:16.966891$GNRMC,180116.10,A,4138.0441293,N,07032.2584271,W,3.69,71.89,091223,,,A*62
###2023-12-09 13:01:16.969751$GNGGA,180116.10,4138.0441293,N,07032.2584271,W,1,24,0.6,13.463,M,-29.743,M,0.0,*5B
###2023-12-09 13:01:16.971628$GPGSA,A,3,03,04,16,26,28,29,31,32,,,,,1.1,0.6,0.9*3B
###2023-12-09 13:01:16.973346$GLGSA,A,3,65,71,72,73,74,75,,,,,,,1.1,0.6,0.9*24
###2023-12-09 13:01:16.974949$GAGSA,A,3,04,19,21,27,,,,,,,,,1.1,0.6,0.9*26
###2023-12-09 13:01:16.976608$GBGSA,A,3,14,24,25,26,33,,,,,,,,1.1,0.6,0.9*2F
###2023-12-09 13:01:16.978937$GPGSV,2,1,08,03,35,261,43,04,33,311,44,16,49,212,44,26,79,210,47*73
###2023-12-09 13:01:16.981271$GPGSV,2,2,08,28,49,070,41,29,25,061,40,31,69,036,44,32,19,140,40*7B
###2023-12-09 13:01:16.983607$GLGSV,2,1,06,65,24,327,44,71,41,173,47,72,73,269,46,73,36,041,43*6B
###2023-12-09 13:01:16.985353$GLGSV,2,2,06,74,70,337,43,75,32,253,46,,,,,,,,*62
###2023-12-09 13:01:16.987695$GAGSV,1,1,04,04,29,312,42,19,84,216,41,21,86,120,45,27,33,048,41*62
###2023-12-09 13:01:16.990030$GBGSV,2,1,05,14,43,193,44,24,74,024,48,25,41,262,46,26,26,063,42*6E
###2023-12-09 13:01:16.991497$GBGSV,2,2,05,33,57,233,48,,,,,,,,,,,,*52
###2023-12-09 13:01:16.992779$GNVTG,71.89,T,,M,3.69,N,6.84,K,A*12
###2023-12-09 13:01:16.994414$GNGST,180116.10,18.000,,,,0.080,0.068,0.160*51
###2023-12-09 13:01:16.995709$GNZDA,180116.10,09,12,2023,00,00*7F
###2023-12-09 13:01:16.996349$GNEBP,,,,,,M*13
###2023-12-09 13:01:17.164023$GNGGA,180116.30,4138.0442083,N,07032.2581719,W,1,24,0.6,13.460,M,-29.743,M,0.0,*54
###2023-12-09 13:01:17.365504$GNGGA,180116.50,4138.0443188,N,07032.2579432,W,1,24,0.6,13.432,M,-29.743,M,0.0,*53
###2023-12-09 13:01:17.565836$GNGGA,180116.70,4138.0444516,N,07032.2577456,W,1,24,0.6,13.426,M,-29.743,M,0.0,*5C
###2023-12-09 13:01:17.766159$GNGGA,180116.90,4138.0445699,N,07032.2575251,W,1,24,0.6,13.445,M,-29.743,M,0.0,*51
###2023-12-09 13:01:17.968100$GNRMC,180117.10,A,4138.0446679,N,07032.2572803,W,3.73,59.68,091223,,,A*6C
###2023-12-09 13:01:17.970970$GNGGA,180117.10,4138.0446679,N,07032.2572803,W,1,24,0.6,13.462,M,-29.743,M,0.0,*5A
###2023-12-09 13:01:17.972831$GPGSA,A,3,03,04,16,26,28,29,31,32,,,,,1.1,0.6,0.9*3B
###2023-12-09 13:01:17.974543$GLGSA,A,3,65,71,72,73,74,75,,,,,,,1.1,0.6,0.9*24
###2023-12-09 13:01:17.976140$GAGSA,A,3,04,19,21,27,,,,,,,,,1.1,0.6,0.9*26
###2023-12-09 13:01:17.977786$GBGSA,A,3,14,24,25,26,33,,,,,,,,1.1,0.6,0.9*2F
###2023-12-09 13:01:17.980118$GPGSV,2,1,08,03,35,261,42,04,33,311,44,16,49,212,44,26,79,210,48*7D
###2023-12-09 13:01:17.982445$GPGSV,2,2,08,28,49,070,42,29,25,061,40,31,69,036,46,32,19,140,42*78
###2023-12-09 13:01:17.984780$GLGSV,2,1,06,65,24,327,44,71,41,173,47,72,73,269,46,73,36,041,42*6A
###2023-12-09 13:01:17.986516$GLGSV,2,2,06,74,70,337,42,75,32,253,45,,,,,,,,*60
###2023-12-09 13:01:17.988841$GAGSV,1,1,04,04,29,312,43,19,84,216,41,21,86,120,46,27,33,048,42*63
###2023-12-09 13:01:17.991170$GBGSV,2,1,05,14,43,193,44,24,74,024,47,25,41,262,44,26,26,063,41*60
###2023-12-09 13:01:17.992618$GBGSV,2,2,05,33,57,233,46,,,,,,,,,,,,*5C
###2023-12-09 13:01:17.993900$GNVTG,59.68,T,,M,3.73,N,6.91,K,A*18
###2023-12-09 13:01:17.995548$GNGST,180117.10,18.000,,,,0.081,0.068,0.160*51
###2023-12-09 13:01:17.996839$GNZDA,180117.10,09,12,2023,00,00*7E
###2023-12-09 13:01:17.997476$GNEBP,,,,,,M*13
###2023-12-09 13:01:18.165774$GNGGA,180117.30,4138.0447895,N,07032.2570591,W,1,24,0.6,13.461,M,-29.743,M,0.0,*52
###2023-12-09 13:01:18.365359$GNGGA,180117.50,4138.0449313,N,07032.2568566,W,1,24,0.6,13.430,M,-29.743,M,0.0,*5A
###2023-12-09 13:01:18.565930$GNGGA,180117.70,4138.0450683,N,07032.2566698,W,1,24,0.6,13.403,M,-29.743,M,0.0,*50
###2023-12-09 13:01:18.765948$GNGGA,180117.90,4138.0451975,N,07032.2564689,W,1,24,0.6,13.434,M,-29.743,M,0.0,*5F
###2023-12-09 13:01:18.966843$GNRMC,180118.10,A,4138.0453193,N,07032.2562573,W,3.50,47.99,091223,,,A*6F
###2023-12-09 13:01:18.969715$GNGGA,180118.10,4138.0453193,N,07032.2562573,W,1,24,0.6,13.450,M,-29.743,M,0.0,*58
###2023-12-09 13:01:18.971595$GPGSA,A,3,03,04,16,26,28,29,31,32,,,,,1.1,0.6,0.9*3B
###2023-12-09 13:01:18.973312$GLGSA,A,3,65,71,72,73,74,75,,,,,,,1.1,0.6,0.9*24
###2023-12-09 13:01:18.974912$GAGSA,A,3,04,19,21,27,,,,,,,,,1.1,0.6,0.9*26
###2023-12-09 13:01:18.976562$GBGSA,A,3,14,24,25,26,33,,,,,,,,1.1,0.6,0.9*2F
###2023-12-09 13:01:18.978904$GPGSV,2,1,08,03,35,261,43,04,33,311,43,16,50,212,45,26,79,210,48*72
###2023-12-09 13:01:18.981247$GPGSV,2,2,08,28,49,070,43,29,25,061,41,31,69,036,45,32,19,140,43*7A
###2023-12-09 13:01:18.983597$GLGSV,2,1,06,65,24,327,42,71,41,173,46,72,73,269,46,73,36,041,44*6B
###2023-12-09 13:01:18.985352$GLGSV,2,2,06,74,70,337,42,75,32,253,44,,,,,,,,*61
###2023-12-09 13:01:18.987700$GAGSV,1,1,04,04,29,312,43,19,84,216,41,21,86,120,46,27,33,048,42*63
###2023-12-09 13:01:18.990045$GBGSV,2,1,05,14,43,193,45,24,74,024,47,25,41,262,46,26,26,063,42*60
###2023-12-09 13:01:18.991515$GBGSV,2,2,05,33,57,233,47,,,,,,,,,,,,*5D
###2023-12-09 13:01:18.993061$GNVTG,47.99,T,,M,3.50,N,6.48,K,A*1C
###2023-12-09 13:01:18.994741$GNGST,180118.10,18.000,,,,0.081,0.069,0.160*5F
###2023-12-09 13:01:18.996044$GNZDA,180118.10,09,12,2023,00,00*71
###2023-12-09 13:01:18.996684$GNEBP,,,,,,M*13
###2023-12-09 13:01:19.164879$GNGGA,180118.30,4138.0454645,N,07032.2560937,W,1,24,0.6,13.443,M,-29.743,M,0.0,*5D
###2023-12-09 13:01:19.366668$GNGGA,180118.50,4138.0456180,N,07032.2559540,W,1,24,0.6,13.432,M,-29.743,M,0.0,*57
###2023-12-09 13:01:19.565851$GNGGA,180118.70,4138.0457656,N,07032.2558129,W,1,24,0.6,13.410,M,-29.743,M,0.0,*52
###2023-12-09 13:01:19.766951$GNGGA,180118.90,4138.0459031,N,07032.2556626,W,1,24,0.6,13.411,M,-29.743,M,0.0,*52
###2023-12-09 13:01:19.968177$GNRMC,180119.10,A,4138.0460466,N,07032.2555183,W,3.21,32.36,091223,,,A*6F
