###2023-12-09 13:34:40.002963$GNGGA,183439.10,4138.0493095,N,07032.4000207,W,1,27,0.6,13.218,M,-29.745,M,0.0,*5A
###2023-12-09 13:34:40.005243$GPGSA,A,3,03,04,16,26,27,28,29,31,,,,,1.0,0.6,0.8*3F
###2023-12-09 13:34:40.007422$GLGSA,A,3,65,71,72,73,74,75,83,,,,,,1.0,0.6,0.8*2F
###2023-12-09 13:34:40.009339$GAGSA,A,3,04,19,21,27,,,,,,,,,1.0,0.6,0.8*26
###2023-12-09 13:34:40.011538$GBGSA,A,3,12,14,24,25,26,33,35,,,,,,1.0,0.6,0.8*2A
###2023-12-09 13:34:40.014353$GPGSV,2,1,08,03,27,247,40,04,46,308,45,16,66,222,45,26,84,040,48*79
###2023-12-09 13:34:40.017203$GPGSV,2,2,08,27,16,172,42,28,38,084,45,29,21,047,43,31,59,066,46*7D
###2023-12-09 13:34:40.020060$GLGSV,2,1,07,65,39,318,42,71,23,175,44,72,63,222,45,73,23,052,43*66
###2023-12-09 13:34:40.022529$GLGSV,2,2,07,74,60,013,43,75,43,271,46,83,15,048,37,,,,*56
###2023-12-09 13:34:40.025375$GAGSV,1,1,04,04,40,310,42,19,72,181,40,21,77,046,46,27,22,050,41*6F
###2023-12-09 13:34:40.028207$GBGSV,2,1,07,12,15,126,41,14,29,190,42,24,62,046,47,25,51,276,46*69
###2023-12-09 13:34:40.030693$GBGSV,2,2,07,26,16,071,45,33,45,217,46,35,16,056,45,,,,*5C
###2023-12-09 13:34:40.032300$GNVTG,236.86,T,,M,2.60,N,4.82,K,A*20
###2023-12-09 13:34:40.034244$GNGST,183439.10,5.600,,,,0.087,0.069,0.150*65
###2023-12-09 13:34:40.035819$GNZDA,183439.10,09,12,2023,00,00*74
###2023-12-09 13:34:40.036596$GNEBP,,,,,,M*13
###2023-12-09 13:34:40.195273$GNGGA,183439.30,4138.0492308,N,07032.4001832,W,1,27,0.6,13.226,M,-29.745,M,0.0,*5E
###2023-12-09 13:34:40.394599$GNGGA,183439.50,4138.0491788,N,07032.4003665,W,1,27,0.6,13.233,M,-29.745,M,0.0,*5D
###2023-12-09 13:34:40.594161$GNGGA,183439.70,4138.0491423,N,07032.4005699,W,1,27,0.6,13.241,M,-29.745,M,0.0,*5D
###2023-12-09 13:34:40.805675$GNGGA,183439.90,4138.0490941,N,07032.4007733,W,1,27,0.6,13.242,M,-29.745,M,0.0,*5B
###2023-12-09 13:34:40.998540$GNRMC,183440.10,A,4138.0490232,N,07032.4009686,W,2.94,242.53,091223,,,A*5C
###2023-12-09 13:34:41.001441$GNGGA,183440.10,4138.0490232,N,07032.4009686,W,1,27,0.6,13.238,M,-29.745,M,0.0,*5E
###2023-12-09 13:34:41.003324$GPGSA,A,3,03,04,16,26,27,28,29,31,,,,,1.0,0.6,0.8*3F
###2023-12-09 13:34:41.005111$GLGSA,A,3,65,71,72,73,74,75,83,,,,,,1.0,0.6,0.8*2F
###2023-12-09 13:34:41.006704$GAGSA,A,3,04,19,21,27,,,,,,,,,1.0,0.6,0.8*26
###2023-12-09 13:34:41.008482$GBGSA,A,3,12,14,24,25,26,33,35,,,,,,1.0,0.6,0.8*2A
###2023-12-09 13:34:41.010818$GPGSV,2,1,08,03,27,247,41,04,46,308,44,16,66,222,45,26,84,040,48*79
###2023-12-09 13:34:41.013146$GPGSV,2,2,08,27,16,172,42,28,38,084,45,29,21,047,43,31,59,066,46*7D
###2023-12-09 13:34:41.015515$GLGSV,2,1,07,65,39,318,42,71,23,175,44,72,63,222,44,73,23,052,43*67
###2023-12-09 13:34:41.017554$GLGSV,2,2,07,74,60,013,43,75,43,271,45,83,15,048,36,,,,*54
###2023-12-09 13:34:41.019895$GAGSV,1,1,04,04,40,310,43,19,72,181,41,21,77,046,46,27,22,050,41*6F
###2023-12-09 13:34:41.022224$GBGSV,2,1,07,12,15,126,41,14,29,190,42,24,62,046,48,25,51,276,46*66
###2023-12-09 13:34:41.024269$GBGSV,2,2,07,26,16,071,45,33,45,217,47,35,16,056,45,,,,*5D
###2023-12-09 13:34:41.025592$GNVTG,242.53,T,,M,2.94,N,5.44,K,A*2B
###2023-12-09 13:34:41.027215$GNGST,183440.10,5.800,,,,0.086,0.069,0.150*64
###2023-12-09 13:34:41.028500$GNZDA,183440.10,09,12,2023,00,00*7A
###2023-12-09 13:34:41.029137$GNEBP,,,,,,M*13
###2023-12-09 13:34:41.196998$GNGGA,183440.30,4138.0489499,N,07032.4011638,W,1,27,0.6,13.233,M,-29.745,M,0.0,*54
###2023-12-09 13:34:41.396750$GNGGA,183440.50,4138.0488906,N,07032.4013790,W,1,27,0.6,13.230,M,-29.745,M,0.0,*5A
###2023-12-09 13:34:41.595108$GNGGA,183440.70,4138.0488285,N,07032.4015986,W,1,27,0.6,13.232,M,-29.745,M,0.0,*55
###2023-12-09 13:34:41.794617$GNGGA,183440.90,4138.0487483,N,07032.4018100,W,1,27,0.6,13.230,M,-29.745,M,0.0,*5D
###2023-12-09 13:34:41.998729$GNRMC,183441.10,A,4138.0486543,N,07032.4020089,W,3.15,238.07,091223,,,A*5D
###2023-12-09 13:34:42.001605$GNGGA,183441.10,4138.0486543,N,07032.4020089,W,1,27,0.6,13.237,M,-29.745,M,0.0,*54
###2023-12-09 13:34:42.003472$GPGSA,A,3,03,04,16,26,27,28,29,31,,,,,1.0,0.6,0.8*3F
###2023-12-09 13:34:42.005247$GLGSA,A,3,65,71,72,73,74,75,83,,,,,,1.0,0.6,0.8*2F
###2023-12-09 13:34:42.006842$GAGSA,A,3,04,19,21,27,,,,,,,,,1.0,0.6,0.8*26
###2023-12-09 13:34:42.008615$GBGSA,A,3,12,14,24,25,26,33,35,,,,,,1.0,0.6,0.8*2A
###2023-12-09 13:34:42.010948$GPGSV,2,1,08,03,27,247,40,04,46,308,45,16,66,222,45,26,84,040,48*79
###2023-12-09 13:34:42.013272$GPGSV,2,2,08,27,16,172,44,28,38,084,43,29,21,047,44,31,59,066,46*7A
###2023-12-09 13:34:42.015598$GLGSV,2,1,07,65,39,318,43,71,23,175,44,72,63,222,44,73,23,052,43*66
###2023-12-09 13:34:42.017625$GLGSV,2,2,07,74,60,013,43,75,43,271,46,83,15,048,37,,,,*56
###2023-12-09 13:34:42.019960$GAGSV,1,1,04,04,40,310,44,19,72,181,41,21,77,046,46,27,22,050,41*68
###2023-12-09 13:34:42.022272$GBGSV,2,1,07,12,15,126,39,14,29,190,42,24,62,046,47,25,51,276,45*65
###2023-12-09 13:34:42.024309$GBGSV,2,2,07,26,16,071,43,33,45,217,45,35,16,056,44,,,,*58
###2023-12-09 13:34:42.025627$GNVTG,238.07,T,,M,3.15,N,5.83,K,A*24
###2023-12-09 13:34:42.027241$GNGST,183441.10,5.300,,,,0.086,0.069,0.150*6E
###2023-12-09 13:34:42.028572$GNZDA,183441.10,09,12,2023,00,00*7B
###2023-12-09 13:34:42.029211$GNEBP,,,,,,M*13
###2023-12-09 13:34:42.197361$GNGGA,183441.30,4138.0485645,N,07032.4022184,W,1,27,0.6,13.241,M,-29.745,M,0.0,*5F
###2023-12-09 13:34:42.393644$GNGGA,183441.50,4138.0484732,N,07032.4024302,W,1,27,0.6,13.240,M,-29.745,M,0.0,*52
###2023-12-09 13:34:42.593897$GNGGA,183441.70,4138.0483685,N,07032.4026170,W,1,27,0.6,13.229,M,-29.745,M,0.0,*50
###2023-12-09 13:34:42.795893$GNGGA,183441.90,4138.0482492,N,07032.4027788,W,1,27,0.6,13.215,M,-29.745,M,0.0,*54
###2023-12-09 13:34:42.999429$GNRMC,183442.10,A,4138.0481287,N,07032.4029372,W,3.03,228.33,091223,,,A*59
###2023-12-09 13:34:43.002268$GNGGA,183442.10,4138.0481287,N,07032.4029372,W,1,27,0.6,13.204,M,-29.745,M,0.0,*51
###2023-12-09 13:34:43.004122$GPGSA,A,3,03,04,16,26,27,28,29,31,,,,,1.0,0.6,0.8*3F
###2023-12-09 13:34:43.005891$GLGSA,A,3,65,71,72,73,74,75,83,,,,,,1.0,0.6,0.8*2F
###2023-12-09 13:34:43.007470$GAGSA,A,3,04,19,21,27,,,,,,,,,1.0,0.6,0.8*26
###2023-12-09 13:34:43.009228$GBGSA,A,3,12,14,24,25,26,33,35,,,,,,1.0,0.6,0.8*2A
###2023-12-09 13:34:43.011539$GPGSV,2,1,08,03,27,247,40,04,46,308,44,16,66,222,45,26,84,040,48*78
###2023-12-09 13:34:43.013845$GPGSV,2,2,08,27,16,172,43,28,38,084,44,29,21,047,44,31,59,066,46*7A
###2023-12-09 13:34:43.016165$GLGSV,2,1,07,65,39,318,42,71,23,175,43,72,63,222,44,73,23,052,43*60
###2023-12-09 13:34:43.018181$GLGSV,2,2,07,74,60,013,42,75,43,271,45,83,15,048,37,,,,*54
###2023-12-09 13:34:43.020531$GAGSV,1,1,04,04,40,310,43,19,72,181,40,21,77,046,46,27,22,050,41*6E
###2023-12-09 13:34:43.022844$GBGSV,2,1,07,12,15,126,41,14,29,190,42,24,62,046,47,25,51,276,45*6A
###2023-12-09 13:34:43.024868$GBGSV,2,2,07,26,16,071,44,33,45,217,44,35,16,056,44,,,,*5E
###2023-12-09 13:34:43.026180$GNVTG,228.33,T,,M,3.03,N,5.62,K,A*2A
###2023-12-09 13:34:43.027795$GNGST,183442.10,5.400,,,,0.086,0.068,0.150*6B
###2023-12-09 13:34:43.029073$GNZDA,183442.10,09,12,2023,00,00*78
###2023-12-09 13:34:43.029705$GNEBP,,,,,,M*13
###2023-12-09 13:34:43.195929$GNGGA,183442.30,4138.0480237,N,07032.4031130,W,1,27,0.6,13.222,M,-29.745,M,0.0,*50
###2023-12-09 13:34:43.398952$GNGGA,183442.50,4138.0479204,N,07032.4032920,W,1,27,0.6,13.240,M,-29.745,M,0.0,*5E
###2023-12-09 13:34:43.593616$GNGGA,183442.70,4138.0478099,N,07032.4034627,W,1,27,0.6,13.241,M,-29.745,M,0.0,*54
###2023-12-09 13:34:43.794655$GNGGA,183442.90,4138.0476976,N,07032.4036393,W,1,27,0.6,13.231,M,-29.745,M,0.0,*53
###2023-12-09 13:34:43.999764$GNRMC,183443.10,A,4138.0475967,N,07032.4038297,W,3.15,237.07,091223,,,A*52
###2023-12-09 13:34:44.002624$GNGGA,183443.10,4138.0475967,N,07032.4038297,W,1,27,0.6,13.230,M,-29.745,M,0.0,*53
###2023-12-09 13:34:44.004476$GPGSA,A,3,03,04,16,26,27,28,29,31,,,,,1.0,0.6,0.8*3F
###2023-12-09 13:34:44.006256$GLGSA,A,3,65,71,72,73,74,75,83,,,,,,1.0,0.6,0.8*2F
###2023-12-09 13:34:44.007847$GAGSA,A,3,04,19,21,27,,,,,,,,,1.0,0.6,0.8*26
###2023-12-09 13:34:44.009616$GBGSA,A,3,12,14,24,25,26,33,35,,,,,,1.0,0.6,0.8*2A
###2023-12-09 13:34:44.011980$GPGSV,2,1,08,03,27,247,41,04,46,308,44,16,66,222,44,26,84,040,48*78
###2023-12-09 13:34:44.014582$GPGSV,2,2,08,27,16,172,43,28,38,084,43,29,21,047,44,31,59,066,47*7C
###2023-12-09 13:34:44.016921$GLGSV,2,1,07,65,39,318,42,71,22,175,45,72,63,222,44,73,23,052,44*60
###2023-12-09 13:34:44.018965$GLGSV,2,2,07,74,60,013,42,75,43,271,46,83,15,048,37,,,,*57
###2023-12-09 13:34:44.021288$GAGSV,1,1,04,04,40,310,44,19,72,181,40,21,77,046,46,27,22,050,42*6A
###2023-12-09 13:34:44.023621$GBGSV,2,1,07,12,15,126,41,14,29,190,42,24,62,046,47,25,51,276,45*6A
###2023-12-09 13:34:44.025646$GBGSV,2,2,07,26,16,071,44,33,45,217,46,35,16,056,45,,,,*5D
###2023-12-09 13:34:44.026982$GNVTG,237.07,T,,M,3.15,N,5.83,K,A*2B
###2023-12-09 13:34:44.028596$GNGST,183443.10,5.600,,,,0.085,0.068,0.150*6B
###2023-12-09 13:34:44.029877$GNZDA,183443.10,09,12,2023,00,00*79
###2023-12-09 13:34:44.030513$GNEBP,,,,,,M*13
