###2023-12-09 12:43:18.952065$GPGSA,A,3,03,04,16,26,28,29,31,32,,,,,1.1,0.6,0.9*3B
###2023-12-09 12:43:18.953803$GLGSA,A,3,65,71,72,73,74,75,,,,,,,1.1,0.6,0.9*24
###2023-12-09 12:43:18.955414$GAGSA,A,3,04,19,21,27,,,,,,,,,1.1,0.6,0.9*26
###2023-12-09 12:43:18.957068$GBGSA,A,3,14,24,25,26,33,,,,,,,,1.1,0.6,0.9*2F
###2023-12-09 12:43:18.959408$GPGSV,2,1,08,03,38,272,42,04,25,311,38,16,40,208,44,26,70,207,48*73
###2023-12-09 12:43:18.961743$GPGSV,2,2,08,28,55,060,44,29,25,070,42,31,72,013,47,32,27,136,42*70
###2023-12-09 12:43:18.964133$GLGSV,2,1,06,65,16,329,40,71,51,170,47,72,69,300,45,73,44,036,48*6A
###2023-12-09 12:43:18.965883$GLGSV,2,2,06,74,71,307,42,75,25,245,40,,,,,,,,*66
###2023-12-09 12:43:18.968219$GAGSV,1,1,04,04,23,312,37,19,84,288,40,21,81,170,45,27,39,049,43*67
###2023-12-09 12:43:18.970547$GBGSV,2,1,05,14,51,196,45,24,79,002,48,25,35,255,42,26,32,059,43*6E
###2023-12-09 12:43:18.972021$GBGSV,2,2,05,33,62,246,47,,,,,,,,,,,,*59
###2023-12-09 12:43:18.973356$GNVTG,291.12,T,,M,2.12,N,3.92,K,A*23
###2023-12-09 12:43:18.975043$GNGST,174318.10,18.000,,,,0.081,0.071,0.170*5E
###2023-12-09 12:43:18.976342$GNZDA,174318.10,09,12,2023,00,00*78
###2023-12-09 12:43:18.976982$GNEBP,,,,,,M*13
###2023-12-09 12:43:19.144363$GNGGA,174318.30,4138.0488746,N,07032.3904133,W,1,24,0.6,13.221,M,-29.745,M,0.0,*50
###2023-12-09 12:43:19.345494$GNGGA,174318.50,4138.0489093,N,07032.3905601,W,1,24,0.6,13.218,M,-29.745,M,0.0,*55
###2023-12-09 12:43:19.550071$GNGGA,174318.70,4138.0489408,N,07032.3907092,W,1,24,0.6,13.212,M,-29.745,M,0.0,*55
###2023-12-09 12:43:19.742936$GNGGA,174318.90,4138.0489657,N,07032.3908609,W,1,24,0.6,13.206,M,-29.745,M,0.0,*5D
###2023-12-09 12:43:19.944224$GNRMC,174319.10,A,4138.0489833,N,07032.3910145,W,2.10,277.81,091223,,,A*57
###2023-12-09 12:43:19.947107$GNGGA,174319.10,4138.0489833,N,07032.3910145,W,1,24,0.6,13.203,M,-29.745,M,0.0,*5B
###2023-12-09 12:43:19.948975$GPGSA,A,3,03,04,16,26,28,29,31,32,,,,,1.1,0.6,0.9*3B
###2023-12-09 12:43:19.950702$GLGSA,A,3,65,71,72,73,74,75,,,,,,,1.1,0.6,0.9*24
###2023-12-09 12:43:19.952284$GAGSA,A,3,04,19,21,27,,,,,,,,,1.1,0.6,0.9*26
###2023-12-09 12:43:19.953927$GBGSA,A,3,14,24,25,26,33,,,,,,,,1.1,0.6,0.9*2F
###2023-12-09 12:43:19.956290$GPGSV,2,1,08,03,38,272,42,04,25,311,39,16,40,208,45,26,70,207,46*7D
###2023-12-09 12:43:19.958636$GPGSV,2,2,08,28,55,060,44,29,25,070,42,31,72,013,47,32,27,136,43*71
###2023-12-09 12:43:19.960965$GLGSV,2,1,06,65,16,329,41,71,51,170,47,72,69,300,45,73,44,036,46*65
###2023-12-09 12:43:19.962718$GLGSV,2,2,06,74,71,307,42,75,25,245,41,,,,,,,,*67
###2023-12-09 12:43:19.965032$GAGSV,1,1,04,04,23,312,38,19,84,288,40,21,81,170,46,27,39,049,43*6B
###2023-12-09 12:43:19.967364$GBGSV,2,1,05,14,51,196,44,24,79,002,48,25,35,255,44,26,32,059,43*69
###2023-12-09 12:43:19.968816$GBGSV,2,2,05,33,62,246,46,,,,,,,,,,,,*58
###2023-12-09 12:43:19.970127$GNVTG,277.81,T,,M,2.10,N,3.89,K,A*29
###2023-12-09 12:43:19.971774$GNGST,174319.10,18.000,,,,0.082,0.072,0.170*5F
###2023-12-09 12:43:19.973062$GNZDA,174319.10,09,12,2023,00,00*79
###2023-12-09 12:43:19.973697$GNEBP,,,,,,M*13
###2023-12-09 12:43:20.143938$GNGGA,174319.30,4138.0489973,N,07032.3911724,W,1,24,0.6,13.203,M,-29.745,M,0.0,*5C
###2023-12-09 12:43:20.344455$GNGGA,174319.50,4138.0490055,N,07032.3913350,W,1,24,0.6,13.205,M,-29.745,M,0.0,*5C
###2023-12-09 12:43:20.545859$GNGGA,174319.70,4138.0490056,N,07032.3915002,W,1,24,0.6,13.205,M,-29.745,M,0.0,*5F
###2023-12-09 12:43:20.745702$GNGGA,174319.90,4138.0489971,N,07032.3916671,W,1,24,0.6,13.213,M,-29.745,M,0.0,*53
###2023-12-09 12:43:20.950927$GNRMC,174320.10,A,4138.0489797,N,07032.3918375,W,2.35,261.54,091223,,,A*5D
###2023-12-09 12:43:20.953779$GNGGA,174320.10,4138.0489797,N,07032.3918375,W,1,24,0.6,13.210,M,-29.745,M,0.0,*5B
###2023-12-09 12:43:20.955687$GPGSA,A,3,03,04,16,26,28,29,31,32,,,,,1.1,0.6,0.9*3B
###2023-12-09 12:43:20.957401$GLGSA,A,3,65,71,72,73,74,75,,,,,,,1.1,0.6,0.9*24
###2023-12-09 12:43:20.958993$GAGSA,A,3,04,19,21,27,,,,,,,,,1.1,0.6,0.9*26
###2023-12-09 12:43:20.960636$GBGSA,A,3,14,24,25,26,33,,,,,,,,1.1,0.6,0.9*2F
###2023-12-09 12:43:20.962968$GPGSV,2,1,08,03,38,272,42,04,25,311,40,16,40,208,46,26,70,207,47*71
###2023-12-09 12:43:20.965289$GPGSV,2,2,08,28,55,060,44,29,25,070,42,31,72,013,47,32,27,136,43*71
###2023-12-09 12:43:20.967624$GLGSV,2,1,06,65,16,329,42,71,51,170,47,72,69,300,45,73,44,036,47*67
###2023-12-09 12:43:20.969365$GLGSV,2,2,06,74,71,307,42,75,25,245,41,,,,,,,,*67
###2023-12-09 12:43:20.971697$GAGSV,1,1,04,04,23,312,40,19,84,288,41,21,81,170,46,27,39,049,43*65
###2023-12-09 12:43:20.974020$GBGSV,2,1,05,14,51,196,46,24,79,002,48,25,35,255,45,26,32,059,45*6C
###2023-12-09 12:43:20.975484$GBGSV,2,2,05,33,62,246,47,,,,,,,,,,,,*59
###2023-12-09 12:43:20.976804$GNVTG,261.54,T,,M,2.35,N,4.36,K,A*22
###2023-12-09 12:43:20.978446$GNGST,174320.10,18.000,,,,0.081,0.072,0.170*56
###2023-12-09 12:43:20.979747$GNZDA,174320.10,09,12,2023,00,00*73
###2023-12-09 12:43:20.980386$GNEBP,,,,,,M*13
###2023-12-09 12:43:21.144953$GNGGA,174320.30,4138.0489593,N,07032.3920120,W,1,24,0.6,13.212,M,-29.745,M,0.0,*54
###2023-12-09 12:43:21.346437$GNGGA,174320.50,4138.0489323,N,07032.3921849,W,1,24,0.6,13.207,M,-29.745,M,0.0,*5C
###2023-12-09 12:43:21.546543$GNGGA,174320.70,4138.0488955,N,07032.3923495,W,1,24,0.6,13.209,M,-29.745,M,0.0,*55
###2023-12-09 12:43:21.745811$GNGGA,174320.90,4138.0488537,N,07032.3925094,W,1,24,0.6,13.210,M,-29.745,M,0.0,*58
###2023-12-09 12:43:21.945492$GNRMC,174321.10,A,4138.0488078,N,07032.3926648,W,2.24,247.18,091223,,,A*51
###2023-12-09 12:43:21.948969$GNGGA,174321.10,4138.0488078,N,07032.3926648,W,1,24,0.6,13.206,M,-29.745,M,0.0,*5C
###2023-12-09 12:43:21.951287$GPGSA,A,3,03,04,16,26,28,29,31,32,,,,,1.1,0.6,0.9*3B
###2023-12-09 12:43:21.953370$GLGSA,A,3,65,71,72,73,74,75,,,,,,,1.1,0.6,0.9*24
###2023-12-09 12:43:21.955292$GAGSA,A,3,04,19,21,27,,,,,,,,,1.1,0.6,0.9*26
###2023-12-09 12:43:21.957273$GBGSA,A,3,14,24,25,26,33,,,,,,,,1.1,0.6,0.9*2F
###2023-12-09 12:43:21.960107$GPGSV,2,1,08,03,38,272,42,04,25,311,42,16,40,208,44,26,70,207,47*71
###2023-12-09 12:43:21.962927$GPGSV,2,2,08,28,55,060,44,29,25,070,43,31,72,013,47,32,27,136,44*77
###2023-12-09 12:43:21.965733$GLGSV,2,1,06,65,16,329,39,71,51,170,47,72,69,300,45,73,44,036,47*6B
###2023-12-09 12:43:21.967854$GLGSV,2,2,06,74,71,307,42,75,25,245,40,,,,,,,,*66
###2023-12-09 12:43:21.970719$GAGSV,1,1,04,04,23,312,41,19,84,288,40,21,81,170,46,27,39,049,45*63
###2023-12-09 12:43:21.973539$GBGSV,2,1,05,14,51,196,45,24,79,002,48,25,35,255,43,26,32,059,44*68
###2023-12-09 12:43:21.975311$GBGSV,2,2,05,33,62,246,47,,,,,,,,,,,,*59
###2023-12-09 12:43:21.976908$GNVTG,247.18,T,,M,2.24,N,4.14,K,A*2E
###2023-12-09 12:43:21.978910$GNGST,174321.10,18.000,,,,0.080,0.071,0.170*55
###2023-12-09 12:43:21.980480$GNZDA,174321.10,09,12,2023,00,00*72
###2023-12-09 12:43:21.981252$GNEBP,,,,,,M*13
###2023-12-09 12:43:22.148590$GNGGA,174321.30,4138.0487574,N,07032.3928194,W,1,24,0.6,13.202,M,-29.745,M,0.0,*54
###2023-12-09 12:43:22.346270$GNGGA,174321.50,4138.0487028,N,07032.3929748,W,1,24,0.6,13.206,M,-29.745,M,0.0,*5C
###2023-12-09 12:43:22.545688$GNGGA,174321.70,4138.0486466,N,07032.3931361,W,1,24,0.6,13.226,M,-29.745,M,0.0,*55
###2023-12-09 12:43:22.744300$GNGGA,174321.90,4138.0485848,N,07032.3932999,W,1,24,0.6,13.232,M,-29.745,M,0.0,*53
###2023-12-09 12:43:22.945761$GNRMC,174322.10,A,4138.0485105,N,07032.3934484,W,2.35,231.41,091223,,,A*58
###2023-12-09 12:43:22.948652$GNGGA,174322.10,4138.0485105,N,07032.3934484,W,1,24,0.6,13.229,M,-29.745,M,0.0,*55
###2023-12-09 12:43:22.950517$GPGSA,A,3,03,04,16,26,28,29,31,32,,,,,1.1,0.6,0.9*3B
###2023-12-09 12:43:22.952250$GLGSA,A,3,65,71,72,73,74,75,,,,,,,1.1,0.6,0.9*24
###2023-12-09 12:43:22.953833$GAGSA,A,3,04,19,21,27,,,,,,,,,1.1,0.6,0.9*26
###2023-12-09 12:43:22.955498$GBGSA,A,3,14,24,25,26,33,,,,,,,,1.1,0.6,0.9*2F
###2023-12-09 12:43:22.957823$GPGSV,2,1,08,03,38,272,43,04,25,311,42,16,40,208,42,26,70,207,47*76
###2023-12-09 12:43:22.960168$GPGSV,2,2,08,28,55,060,44,29,25,070,43,31,72,013,47,32,27,136,44*77
###2023-12-09 12:43:22.962501$GLGSV,2,1,06,65,16,329,42,71,51,170,47,72,69,300,47,73,44,036,47*65
###2023-12-09 12:43:22.964508$GLGSV,2,2,06,74,71,307,42,75,25,245,41,,,,,,,,*67
###2023-12-09 12:43:22.966880$GAGSV,1,1,04,04,23,312,41,19,84,288,40,21,81,170,46,27,39,049,44*62
###2023-12-09 12:43:22.969221$GBGSV,2,1,05,14,51,196,45,24,79,002,48,25,35,255,43,26,32,059,45*69
###2023-12-09 12:43:22.970700$GBGSV,2,2,05,33,62,246,47,,,,,,,,,,,,*59
###2023-12-09 12:43:22.972034$GNVTG,231.41,T,,M,2.35,N,4.36,K,A*23
###2023-12-09 12:43:22.973683$GNGST,174322.10,18.000,,,,0.080,0.071,0.170*56
###2023-12-09 12:43:22.974992$GNZDA,174322.10,09,12,2023,00,00*71
###2023-12-09 12:43:22.975638$GNEBP,,,,,,M*13
###2023-12-09 12:43:23.144311$GNGGA,174322.30,4138.0484233,N,07032.3935820,W,1,24,0.6,13.221,M,-29.745,M,0.0,*5B
