###2023-12-09 12:57:02.558649$GNGGA,175701.70,4138.0435167,N,07032.3877107,W,1,24,0.6,13.624,M,-29.745,M,0.0,*59
###2023-12-09 12:57:02.758935$GNGGA,175701.90,4138.0434448,N,07032.3878469,W,1,24,0.6,13.614,M,-29.745,M,0.0,*5F
###2023-12-09 12:57:02.958894$GNRMC,175702.10,A,4138.0433782,N,07032.3879833,W,2.18,238.07,091223,,,A*57
###2023-12-09 12:57:02.961761$GNGGA,175702.10,4138.0433782,N,07032.3879833,W,1,24,0.6,13.611,M,-29.745,M,0.0,*51
###2023-12-09 12:57:02.963642$GPGSA,A,3,03,04,16,26,28,29,31,32,,,,,1.1,0.6,0.9*3B
###2023-12-09 12:57:02.965355$GLGSA,A,3,65,71,72,73,74,75,,,,,,,1.1,0.6,0.9*24
###2023-12-09 12:57:02.966949$GAGSA,A,3,04,19,21,27,,,,,,,,,1.1,0.6,0.9*26
###2023-12-09 12:57:02.968601$GBGSA,A,3,14,24,25,26,33,,,,,,,,1.1,0.6,0.9*2F
###2023-12-09 12:57:02.970941$GPGSV,2,1,08,03,36,265,42,04,30,311,42,16,47,211,44,26,77,209,47*7B
###2023-12-09 12:57:02.973280$GPGSV,2,2,08,28,51,068,45,29,25,064,43,31,70,031,48,32,21,139,45*7A
###2023-12-09 12:57:02.975613$GLGSV,2,1,06,65,22,328,42,71,43,172,48,72,73,277,45,73,37,040,47*60
###2023-12-09 12:57:02.977359$GLGSV,2,2,06,74,70,331,42,75,30,251,41,,,,,,,,*62
###2023-12-09 12:57:02.979694$GAGSV,1,1,04,04,27,312,41,19,85,234,40,21,85,141,46,27,34,048,45*6B
###2023-12-09 12:57:02.982024$GBGSV,2,1,05,14,45,193,45,24,75,020,48,25,39,260,44,26,27,062,44*65
###2023-12-09 12:57:02.983489$GBGSV,2,2,05,33,59,235,46,,,,,,,,,,,,*54
###2023-12-09 12:57:02.984808$GNVTG,238.07,T,,M,2.18,N,4.03,K,A*21
###2023-12-09 12:57:02.986447$GNGST,175702.10,18.000,,,,0.077,0.067,0.160*5F
###2023-12-09 12:57:02.987742$GNZDA,175702.10,09,12,2023,00,00*76
###2023-12-09 12:57:02.988376$GNEBP,,,,,,M*13
###2023-12-09 12:57:03.159055$GNGGA,175702.30,4138.0433113,N,07032.3881202,W,1,24,0.6,13.618,M,-29.745,M,0.0,*5B
###2023-12-09 12:57:03.357620$GNGGA,175702.50,4138.0432380,N,07032.3882528,W,1,24,0.6,13.634,M,-29.745,M,0.0,*56
###2023-12-09 12:57:03.559820$GNGGA,175702.70,4138.0431629,N,07032.3883833,W,1,24,0.6,13.641,M,-29.745,M,0.0,*55
###2023-12-09 12:57:03.760296$GNGGA,175702.90,4138.0430887,N,07032.3885191,W,1,24,0.6,13.640,M,-29.745,M,0.0,*56
###2023-12-09 12:57:03.958993$GNRMC,175703.10,A,4138.0430056,N,07032.3886494,W,2.31,226.02,091223,,,A*5B
###2023-12-09 12:57:03.961837$GNGGA,175703.10,4138.0430056,N,07032.3886494,W,1,24,0.6,13.619,M,-29.745,M,0.0,*54
###2023-12-09 12:57:03.963720$GPGSA,A,3,03,04,16,26,28,29,31,32,,,,,1.1,0.6,0.9*3B
###2023-12-09 12:57:03.965438$GLGSA,A,3,65,71,72,73,74,75,,,,,,,1.1,0.6,0.9*24
###2023-12-09 12:57:03.967035$GAGSA,A,3,04,19,21,27,,,,,,,,,1.1,0.6,0.9*26
###2023-12-09 12:57:03.968685$GBGSA,A,3,14,24,25,26,33,,,,,,,,1.1,0.6,0.9*2F
###2023-12-09 12:57:03.971037$GPGSV,2,1,08,03,36,265,42,04,30,311,42,16,47,211,44,26,77,209,47*7B
###2023-12-09 12:57:03.973378$GPGSV,2,2,08,28,51,068,45,29,25,064,43,31,70,031,48,32,21,139,45*7A
###2023-12-09 12:57:03.975727$GLGSV,2,1,06,65,22,328,41,71,43,172,47,72,73,277,45,73,37,040,47*6C
###2023-12-09 12:57:03.977480$GLGSV,2,2,06,74,70,331,42,75,30,251,41,,,,,,,,*62
###2023-12-09 12:57:03.979822$GAGSV,1,1,04,04,27,312,40,19,85,234,40,21,85,141,46,27,34,048,44*6B
###2023-12-09 12:57:03.982162$GBGSV,2,1,05,14,45,193,44,24,75,020,48,25,39,260,45,26,27,062,43*62
###2023-12-09 12:57:03.983628$GBGSV,2,2,05,33,59,235,46,,,,,,,,,,,,*54
###2023-12-09 12:57:03.984951$GNVTG,226.02,T,,M,2.31,N,4.28,K,A*29
###2023-12-09 12:57:03.986643$GNGST,175703.10,18.000,,,,0.077,0.067,0.160*5E
###2023-12-09 12:57:03.987941$GNZDA,175703.10,09,12,2023,00,00*77
###2023-12-09 12:57:03.988581$GNEBP,,,,,,M*13
###2023-12-09 12:57:04.157995$GNGGA,175703.30,4138.0429138,N,07032.3887651,W,1,24,0.6,13.607,M,-29.745,M,0.0,*52
###2023-12-09 12:57:04.358392$GNGGA,175703.50,4138.0428291,N,07032.3889006,W,1,24,0.6,13.629,M,-29.745,M,0.0,*53
###2023-12-09 12:57:04.558646$GNGGA,175703.70,4138.0427462,N,07032.3890489,W,1,24,0.6,13.647,M,-29.745,M,0.0,*57
###2023-12-09 12:57:04.758503$GNGGA,175703.90,4138.0426422,N,07032.3891547,W,1,24,0.6,13.632,M,-29.745,M,0.0,*5C
###2023-12-09 12:57:04.961651$GNRMC,175704.10,A,4138.0425245,N,07032.3892247,W,2.27,209.50,091223,,,A*58
###2023-12-09 12:57:04.964556$GNGGA,175704.10,4138.0425245,N,07032.3892247,W,1,24,0.6,13.609,M,-29.745,M,0.0,*5B
###2023-12-09 12:57:04.966414$GPGSA,A,3,03,04,16,26,28,29,31,32,,,,,1.1,0.6,0.9*3B
###2023-12-09 12:57:04.968144$GLGSA,A,3,65,71,72,73,74,75,,,,,,,1.1,0.6,0.9*24
###2023-12-09 12:57:04.969725$GAGSA,A,3,04,19,21,27,,,,,,,,,1.1,0.6,0.9*26
###2023-12-09 12:57:04.971386$GBGSA,A,3,14,24,25,26,33,,,,,,,,1.1,0.6,0.9*2F
###2023-12-09 12:57:04.973716$GPGSV,2,1,08,03,36,265,43,04,30,311,42,16,47,211,43,26,77,209,48*72
###2023-12-09 12:57:04.976046$GPGSV,2,2,08,28,51,068,46,29,25,064,43,31,70,031,47,32,21,139,46*75
###2023-12-09 12:57:04.978363$GLGSV,2,1,06,65,22,328,40,71,43,172,46,72,73,277,44,73,37,040,45*6F
###2023-12-09 12:57:04.980116$GLGSV,2,2,06,74,70,331,42,75,30,251,41,,,,,,,,*62
###2023-12-09 12:57:04.982438$GAGSV,1,1,04,04,27,312,42,19,85,234,40,21,85,141,46,27,34,048,43*6E
###2023-12-09 12:57:04.984766$GBGSV,2,1,05,14,45,193,44,24,75,020,49,25,39,260,44,26,27,062,43*62
###2023-12-09 12:57:04.986215$GBGSV,2,2,05,33,59,235,46,,,,,,,,,,,,*54
###2023-12-09 12:57:04.987542$GNVTG,209.50,T,,M,2.27,N,4.21,K,A*2D
###2023-12-09 12:57:04.989183$GNGST,175704.10,18.000,,,,0.077,0.067,0.160*59
###2023-12-09 12:57:04.990468$GNZDA,175704.10,09,12,2023,00,00*70
###2023-12-09 12:57:04.991117$GNEBP,,,,,,M*13
###2023-12-09 12:57:05.157646$GNGGA,175704.30,4138.0424221,N,07032.3893383,W,1,24,0.6,13.627,M,-29.745,M,0.0,*5E
###2023-12-09 12:57:05.359267$GNGGA,175704.50,4138.0423222,N,07032.3894882,W,1,24,0.6,13.643,M,-29.745,M,0.0,*53
###2023-12-09 12:57:05.559829$GNGGA,175704.70,4138.0422027,N,07032.3895926,W,1,24,0.6,13.626,M,-29.745,M,0.0,*5A
###2023-12-09 12:57:05.759891$GNGGA,175704.90,4138.0420743,N,07032.3896412,W,1,24,0.6,13.618,M,-29.745,M,0.0,*57
###2023-12-09 12:57:05.959220$GNRMC,175705.10,A,4138.0419476,N,07032.3897011,W,2.53,207.50,091223,,,A*59
###2023-12-09 12:57:05.962085$GNGGA,175705.10,4138.0419476,N,07032.3897011,W,1,24,0.6,13.621,M,-29.745,M,0.0,*5D
###2023-12-09 12:57:05.963958$GPGSA,A,3,03,04,16,26,28,29,31,32,,,,,1.1,0.6,0.9*3B
###2023-12-09 12:57:05.965666$GLGSA,A,3,65,71,72,73,74,75,,,,,,,1.1,0.6,0.9*24
###2023-12-09 12:57:05.967262$GAGSA,A,3,04,19,21,27,,,,,,,,,1.1,0.6,0.9*26
###2023-12-09 12:57:05.968912$GBGSA,A,3,14,24,25,26,33,,,,,,,,1.1,0.6,0.9*2F
###2023-12-09 12:57:05.971259$GPGSV,2,1,08,03,36,265,41,04,30,311,41,16,47,211,43,26,77,209,47*7C
###2023-12-09 12:57:05.973598$GPGSV,2,2,08,28,51,068,46,29,25,064,42,31,70,031,48,32,21,139,46*7B
###2023-12-09 12:57:05.975931$GLGSV,2,1,06,65,22,328,39,71,43,172,46,72,73,277,45,73,37,040,45*60
###2023-12-09 12:57:05.977667$GLGSV,2,2,06,74,70,331,42,75,30,251,42,,,,,,,,*61
###2023-12-09 12:57:05.979996$GAGSV,1,1,04,04,27,312,40,19,85,234,40,21,85,141,46,27,34,048,41*6E
###2023-12-09 12:57:05.982321$GBGSV,2,1,05,14,45,193,41,24,75,020,48,25,39,260,43,26,27,062,44*66
###2023-12-09 12:57:05.983786$GBGSV,2,2,05,33,59,235,45,,,,,,,,,,,,*57
###2023-12-09 12:57:05.985103$GNVTG,207.50,T,,M,2.53,N,4.68,K,A*2D
###2023-12-09 12:57:05.986753$GNGST,175705.10,18.000,,,,0.077,0.067,0.160*58
###2023-12-09 12:57:05.988044$GNZDA,175705.10,09,12,2023,00,00*71
###2023-12-09 12:57:05.988679$GNEBP,,,,,,M*13
###2023-12-09 12:57:06.157926$GNGGA,175705.30,4138.0418197,N,07032.3898052,W,1,24,0.6,13.632,M,-29.745,M,0.0,*5E
###2023-12-09 12:57:06.358580$GNGGA,175705.50,4138.0416843,N,07032.3899004,W,1,24,0.6,13.622,M,-29.745,M,0.0,*55
###2023-12-09 12:57:06.558684$GNGGA,175705.70,4138.0415473,N,07032.3899456,W,1,24,0.6,13.617,M,-29.745,M,0.0,*5E
###2023-12-09 12:57:06.758543$GNGGA,175705.90,4138.0414054,N,07032.3899827,W,1,24,0.6,13.620,M,-29.745,M,0.0,*5E
###2023-12-09 12:57:06.959919$GNRMC,175706.10,A,4138.0412620,N,07032.3900632,W,2.84,203.77,091223,,,A*53
###2023-12-09 12:57:06.962779$GNGGA,175706.10,4138.0412620,N,07032.3900632,W,1,24,0.6,13.625,M,-29.745,M,0.0,*58
###2023-12-09 12:57:06.964627$GPGSA,A,3,03,04,16,26,28,29,31,32,,,,,1.1,0.6,0.9*3B
###2023-12-09 12:57:06.966337$GLGSA,A,3,65,71,72,73,74,75,,,,,,,1.1,0.6,0.9*24
###2023-12-09 12:57:06.968178$GAGSA,A,3,04,19,21,27,,,,,,,,,1.1,0.6,0.9*26
###2023-12-09 12:57:06.969837$GBGSA,A,3,14,24,25,26,33,,,,,,,,1.1,0.6,0.9*2F
###2023-12-09 12:57:06.972181$GPGSV,2,1,08,03,36,265,42,04,30,311,42,16,47,211,43,26,77,209,47*7C
###2023-12-09 12:57:06.974524$GPGSV,2,2,08,28,51,068,45,29,25,064,41,31,70,031,47,32,21,139,45*77
###2023-12-09 12:57:06.976870$GLGSV,2,1,06,65,22,328,39,71,43,172,46,72,73,277,45,73,37,040,45*60
###2023-12-09 12:57:06.978629$GLGSV,2,2,06,74,70,331,42,75,30,251,42,,,,,,,,*61
###2023-12-09 12:57:06.980970$GAGSV,1,1,04,04,27,312,41,19,85,234,40,21,85,141,46,27,34,048,41*6F
###2023-12-09 12:57:06.983325$GBGSV,2,1,05,14,45,193,41,24,75,020,49,25,39,260,44,26,27,062,42*66
###2023-12-09 12:57:06.984787$GBGSV,2,2,05,33,59,235,45,,,,,,,,,,,,*57
###2023-12-09 12:57:06.986110$GNVTG,203.77,T,,M,2.84,N,5.26,K,A*2D
