###2023-12-09 13:40:56.014000$GBGSA,A,3,12,14,24,25,33,35,,,,,,,1.2,0.6,1.0*25
###2023-12-09 13:40:56.016380$GPGSV,2,1,07,04,48,306,47,16,69,225,46,26,81,040,48,27,19,172,39*7A
###2023-12-09 13:40:56.018421$GPGSV,2,2,07,28,36,087,44,29,19,045,43,31,58,070,46,,,,*41
###2023-12-09 13:40:56.020772$GLGSV,2,1,07,65,41,315,45,71,19,176,41,72,59,216,45,73,20,054,43*67
###2023-12-09 13:40:56.022824$GLGSV,2,2,07,74,57,019,43,75,45,276,48,83,16,044,36,,,,*59
###2023-12-09 13:40:56.025163$GAGSV,1,1,04,04,41,309,46,19,69,180,40,21,74,044,46,27,20,051,41*6B
###2023-12-09 13:40:56.027499$GBGSV,2,1,06,12,17,124,43,14,26,189,40,24,60,049,48,25,53,279,48*6E
###2023-12-09 13:40:56.029246$GBGSV,2,2,06,33,43,215,46,35,16,054,45,,,,,,,,*6F
###2023-12-09 13:40:56.030560$GNVTG,243.13,T,,M,0.02,N,0.04,K,A*22
###2023-12-09 13:40:56.032189$GNGST,184055.10,5.600,,,,0.093,0.081,0.180*62
###2023-12-09 13:40:56.033475$GNZDA,184055.10,09,12,2023,00,00*7D
###2023-12-09 13:40:56.034112$GNEBP,,,,,,M*13
###2023-12-09 13:40:56.200291$GNGGA,184055.30,4138.0265746,N,07032.3888982,W,1,24,0.6,13.415,M,-29.745,M,0.0,*56
###2023-12-09 13:40:56.399382$GNGGA,184055.50,4138.0265725,N,07032.3889113,W,1,24,0.6,13.418,M,-29.745,M,0.0,*59
###2023-12-09 13:40:56.599533$GNGGA,184055.70,4138.0265714,N,07032.3889166,W,1,24,0.6,13.398,M,-29.745,M,0.0,*54
###2023-12-09 13:40:56.798422$GNGGA,184055.90,4138.0265686,N,07032.3889224,W,1,24,0.6,13.388,M,-29.745,M,0.0,*54
###2023-12-09 13:40:57.006616$GNRMC,184056.10,A,4138.0265647,N,07032.3889380,W,0.23,243.13,091223,,,A*5D
###2023-12-09 13:40:57.009474$GNGGA,184056.10,4138.0265647,N,07032.3889380,W,1,24,0.6,13.393,M,-29.745,M,0.0,*57
###2023-12-09 13:40:57.011274$GPGSA,A,3,04,16,26,27,28,29,31,,,,,,1.2,0.6,1.0*37
###2023-12-09 13:40:57.013050$GLGSA,A,3,65,71,72,73,74,75,83,,,,,,1.2,0.6,1.0*24
###2023-12-09 13:40:57.014638$GAGSA,A,3,04,19,21,27,,,,,,,,,1.2,0.6,1.0*2D
###2023-12-09 13:40:57.016340$GBGSA,A,3,12,14,24,25,33,35,,,,,,,1.2,0.6,1.0*25
###2023-12-09 13:40:57.018667$GPGSV,2,1,07,04,48,306,46,16,69,225,45,26,81,040,47,27,19,172,39*77
###2023-12-09 13:40:57.020701$GPGSV,2,2,07,28,36,087,45,29,19,045,44,31,58,070,46,,,,*47
###2023-12-09 13:40:57.023037$GLGSV,2,1,07,65,41,315,45,71,19,176,41,72,59,216,45,73,20,054,43*67
###2023-12-09 13:40:57.025070$GLGSV,2,2,07,74,57,019,43,75,45,276,47,83,16,044,36,,,,*56
###2023-12-09 13:40:57.027403$GAGSV,1,1,04,04,41,309,45,19,69,180,40,21,74,044,46,27,20,051,41*68
###2023-12-09 13:40:57.029725$GBGSV,2,1,06,12,17,124,42,14,26,189,39,24,60,049,47,25,53,279,46*60
###2023-12-09 13:40:57.031479$GBGSV,2,2,06,33,43,215,45,35,16,054,43,,,,,,,,*6A
###2023-12-09 13:40:57.032805$GNVTG,243.13,T,,M,0.23,N,0.43,K,A*22
###2023-12-09 13:40:57.034415$GNGST,184056.10,5.700,,,,0.095,0.082,0.180*65
###2023-12-09 13:40:57.035719$GNZDA,184056.10,09,12,2023,00,00*7E
###2023-12-09 13:40:57.036356$GNEBP,,,,,,M*13
###2023-12-09 13:40:57.203243$GNGGA,184056.30,4138.0265635,N,07032.3889553,W,1,24,0.6,13.400,M,-29.745,M,0.0,*55
###2023-12-09 13:40:57.399206$GNGGA,184056.50,4138.0265640,N,07032.3889704,W,1,24,0.6,13.412,M,-29.745,M,0.0,*52
###2023-12-09 13:40:57.599192$GNGGA,184056.70,4138.0265622,N,07032.3889797,W,1,24,0.6,13.404,M,-29.745,M,0.0,*59
###2023-12-09 13:40:57.800252$GNGGA,184056.90,4138.0265589,N,07032.3889742,W,1,24,0.6,13.373,M,-29.745,M,0.0,*5A
###2023-12-09 13:40:58.003906$GNRMC,184057.10,A,4138.0265580,N,07032.3889808,W,0.35,243.13,091223,,,A*58
###2023-12-09 13:40:58.006797$GNGGA,184057.10,4138.0265580,N,07032.3889808,W,1,24,0.6,13.367,M,-29.745,M,0.0,*5E
###2023-12-09 13:40:58.008590$GPGSA,A,3,04,16,26,27,28,29,31,,,,,,1.2,0.6,1.0*37
###2023-12-09 13:40:58.010360$GLGSA,A,3,65,71,72,73,74,75,83,,,,,,1.2,0.6,1.0*24
###2023-12-09 13:40:58.011944$GAGSA,A,3,04,19,21,27,,,,,,,,,1.2,0.6,1.0*2D
###2023-12-09 13:40:58.013645$GBGSA,A,3,12,14,24,25,33,35,,,,,,,1.2,0.6,1.0*25
###2023-12-09 13:40:58.015963$GPGSV,2,1,07,04,48,306,45,16,69,225,45,26,81,040,47,27,19,172,41*7B
###2023-12-09 13:40:58.017984$GPGSV,2,2,07,28,36,087,45,29,19,045,43,31,58,070,47,,,,*41
###2023-12-09 13:40:58.020306$GLGSV,2,1,07,65,41,315,44,71,19,176,42,72,59,216,46,73,20,054,44*61
###2023-12-09 13:40:58.022332$GLGSV,2,2,07,74,57,019,43,75,45,276,47,83,16,044,37,,,,*57
###2023-12-09 13:40:58.024663$GAGSV,1,1,04,04,41,309,44,19,69,180,40,21,74,044,46,27,20,051,42*6A
###2023-12-09 13:40:58.026983$GBGSV,2,1,06,12,17,124,43,14,26,189,39,24,60,049,48,25,53,279,46*6E
###2023-12-09 13:40:58.028715$GBGSV,2,2,06,33,43,215,45,35,16,054,44,,,,,,,,*6D
###2023-12-09 13:40:58.030029$GNVTG,243.13,T,,M,0.35,N,0.65,K,A*21
###2023-12-09 13:40:58.031648$GNGST,184057.10,5.600,,,,0.096,0.083,0.190*66
###2023-12-09 13:40:58.032934$GNZDA,184057.10,09,12,2023,00,00*7F
###2023-12-09 13:40:58.033569$GNEBP,,,,,,M*13
###2023-12-09 13:40:58.200432$GNGGA,184057.30,4138.0265596,N,07032.3890192,W,1,24,0.6,13.398,M,-29.745,M,0.0,*59
###2023-12-09 13:40:58.399611$GNGGA,184057.50,4138.0265602,N,07032.3890550,W,1,24,0.6,13.415,M,-29.745,M,0.0,*59
###2023-12-09 13:40:58.598208$GNGGA,184057.70,4138.0265587,N,07032.3890517,W,1,24,0.6,13.404,M,-29.745,M,0.0,*56
###2023-12-09 13:40:58.799104$GNGGA,184057.90,4138.0265542,N,07032.3890270,W,1,24,0.6,13.360,M,-29.745,M,0.0,*52
###2023-12-09 13:40:59.004714$GNRMC,184058.10,A,4138.0265523,N,07032.3890489,W,0.72,243.13,091223,,,A*50
###2023-12-09 13:40:59.007592$GNGGA,184058.10,4138.0265523,N,07032.3890489,W,1,24,0.6,13.363,M,-29.745,M,0.0,*51
###2023-12-09 13:40:59.009396$GPGSA,A,3,04,16,26,27,28,29,31,,,,,,1.2,0.6,1.0*37
###2023-12-09 13:40:59.011193$GLGSA,A,3,65,71,72,73,74,75,83,,,,,,1.2,0.6,1.0*24
###2023-12-09 13:40:59.012780$GAGSA,A,3,04,19,21,27,,,,,,,,,1.2,0.6,1.0*2D
###2023-12-09 13:40:59.014494$GBGSA,A,3,12,14,24,25,33,35,,,,,,,1.2,0.6,1.0*25
###2023-12-09 13:40:59.016835$GPGSV,2,1,07,04,48,306,44,16,69,225,45,26,81,040,48,27,19,172,41*75
###2023-12-09 13:40:59.018880$GPGSV,2,2,07,28,36,087,45,29,19,045,44,31,58,070,48,,,,*49
###2023-12-09 13:40:59.021209$GLGSV,2,1,07,65,41,315,43,71,19,176,43,72,59,216,45,73,20,054,46*66
###2023-12-09 13:40:59.023243$GLGSV,2,2,07,74,57,019,43,75,45,276,46,83,16,044,36,,,,*57
###2023-12-09 13:40:59.025552$GAGSV,1,1,04,04,41,309,44,19,69,180,40,21,74,044,46,27,20,051,43*6B
###2023-12-09 13:40:59.027878$GBGSV,2,1,06,12,17,124,45,14,26,189,39,24,60,049,49,25,53,279,47*68
###2023-12-09 13:40:59.029614$GBGSV,2,2,06,33,43,215,45,35,16,054,46,,,,,,,,*6F
###2023-12-09 13:40:59.030940$GNVTG,243.13,T,,M,0.72,N,1.33,K,A*20
###2023-12-09 13:40:59.032548$GNGST,184058.10,6.000,,,,0.097,0.084,0.190*6A
###2023-12-09 13:40:59.033834$GNZDA,184058.10,09,12,2023,00,00*70
###2023-12-09 13:40:59.034469$GNEBP,,,,,,M*13
###2023-12-09 13:40:59.200357$GNGGA,184058.30,4138.0265575,N,07032.3891039,W,1,24,0.6,13.389,M,-29.745,M,0.0,*5A
###2023-12-09 13:40:59.400368$GNGGA,184058.50,4138.0265599,N,07032.3891232,W,1,23,0.6,13.395,M,-29.745,M,0.0,*5D
###2023-12-09 13:40:59.600193$GNGGA,184058.70,4138.0265545,N,07032.3891048,W,1,24,0.6,13.403,M,-29.745,M,0.0,*5E
###2023-12-09 13:40:59.801190$GNGGA,184058.90,4138.0265495,N,07032.3891000,W,1,24,0.6,13.386,M,-29.745,M,0.0,*5A
###2023-12-09 13:41:00.003827$GNRMC,184059.10,A,4138.0265514,N,07032.3891276,W,0.51,243.13,091223,,,A*53
###2023-12-09 13:41:00.006700$GNGGA,184059.10,4138.0265514,N,07032.3891276,W,1,24,0.6,13.374,M,-29.745,M,0.0,*55
###2023-12-09 13:41:00.008492$GPGSA,A,3,04,16,26,27,28,29,31,,,,,,1.2,0.6,1.0*37
###2023-12-09 13:41:00.010260$GLGSA,A,3,65,71,72,73,74,75,83,,,,,,1.2,0.6,1.0*24
###2023-12-09 13:41:00.011844$GAGSA,A,3,04,19,21,27,,,,,,,,,1.2,0.6,1.0*2D
###2023-12-09 13:41:00.013538$GBGSA,A,3,12,14,24,25,33,35,,,,,,,1.2,0.6,1.0*25
###2023-12-09 13:41:00.015855$GPGSV,2,1,07,04,48,306,46,16,69,225,45,26,81,040,49,27,19,172,42*75
###2023-12-09 13:41:00.017884$GPGSV,2,2,07,28,36,087,45,29,19,045,44,31,58,070,48,,,,*49
###2023-12-09 13:41:00.020208$GLGSV,2,1,07,65,41,315,43,71,19,176,43,72,59,216,45,73,20,054,46*66
###2023-12-09 13:41:00.022248$GLGSV,2,2,07,74,57,019,43,75,45,276,46,83,16,044,36,,,,*57
###2023-12-09 13:41:00.024594$GAGSV,1,1,04,04,41,309,44,19,69,180,40,21,74,044,47,27,20,051,42*6B
###2023-12-09 13:41:00.027177$GBGSV,2,1,06,12,17,124,43,14,26,189,40,24,60,049,48,25,53,279,46*60
###2023-12-09 13:41:00.028932$GBGSV,2,2,06,33,43,215,44,35,16,054,45,,,,,,,,*6D
###2023-12-09 13:41:00.030251$GNVTG,243.13,T,,M,0.51,N,0.94,K,A*2D
###2023-12-09 13:41:00.031870$GNGST,184059.10,5.800,,,,0.098,0.085,0.190*6E
###2023-12-09 13:41:00.033152$GNZDA,184059.10,09,12,2023,00,00*71
###2023-12-09 13:41:00.033786$GNEBP,,,,,,M*13
###2023-12-09 13:41:00.203072$GNGGA,184059.30,4138.0265545,N,07032.3891629,W,1,24,0.6,13.377,M,-29.745,M,0.0,*5E
###2023-12-09 13:41:00.398343$GNGGA,184059.50,4138.0265533,N,07032.3891773,W,1,24,0.6,13.391,M,-29.745,M,0.0,*5F
###2023-12-09 13:41:00.599055$GNGGA,184059.70,4138.0265500,N,07032.3891750,W,1,24,0.6,13.404,M,-29.745,M,0.0,*57
###2023-12-09 13:41:00.799844$GNGGA,184059.90,4138.0265497,N,07032.3891815,W,1,24,0.6,13.398,M,-29.745,M,0.0,*5A
