###2023-12-09 13:10:22.570376$GNGGA,181021.70,4138.0301842,N,07032.2601761,W,1,24,0.7,12.849,M,-29.743,M,0.0,*52
###2023-12-09 13:10:22.771639$GNGGA,181021.90,4138.0299850,N,07032.2601891,W,1,24,0.7,12.858,M,-29.743,M,0.0,*5F
###2023-12-09 13:10:22.973539$GNRMC,181022.10,A,4138.0297865,N,07032.2602063,W,3.52,185.11,091223,,,A*54
###2023-12-09 13:10:22.976436$GNGGA,181022.10,4138.0297865,N,07032.2602063,W,1,24,0.7,12.869,M,-29.743,M,0.0,*58
###2023-12-09 13:10:22.978231$GPGSA,A,3,03,04,16,26,28,29,31,,,,,,1.2,0.7,1.0*30
###2023-12-09 13:10:22.979961$GLGSA,A,3,65,71,72,73,74,75,,,,,,,1.2,0.7,1.0*2E
###2023-12-09 13:10:22.981554$GAGSA,A,3,04,19,21,27,,,,,,,,,1.2,0.7,1.0*2C
###2023-12-09 13:10:22.983280$GBGSA,A,3,14,24,25,26,33,35,,,,,,,1.2,0.7,1.0*23
###2023-12-09 13:10:22.985621$GPGSV,2,1,07,03,33,257,43,04,36,311,46,16,54,214,46,26,84,210,48*7D
###2023-12-09 13:10:22.987682$GPGSV,2,2,07,28,46,074,45,29,24,057,42,31,67,046,47,,,,*4F
###2023-12-09 13:10:22.990015$GLGSV,2,1,06,65,27,326,44,71,36,173,43,72,72,254,46,73,32,044,44*64
###2023-12-09 13:10:22.991777$GLGSV,2,2,06,74,68,348,43,75,35,257,46,,,,,,,,*60
###2023-12-09 13:10:22.994104$GAGSV,1,1,04,04,32,312,43,19,81,196,39,21,85,078,46,27,30,048,41*67
###2023-12-09 13:10:22.996484$GBGSV,2,1,06,14,39,192,40,24,71,031,49,25,43,265,47,26,24,064,42*64
###2023-12-09 13:10:22.998236$GBGSV,2,2,06,33,55,228,47,35,15,066,43,,,,,,,,*63
###2023-12-09 13:10:22.999576$GNVTG,185.11,T,,M,3.52,N,6.52,K,A*2A
###2023-12-09 13:10:23.001221$GNGST,181022.10,18.000,,,,0.099,0.071,0.170*57
###2023-12-09 13:10:23.002513$GNZDA,181022.10,09,12,2023,00,00*78
###2023-12-09 13:10:23.003163$GNEBP,,,,,,M*13
###2023-12-09 13:10:23.170578$GNGGA,181022.30,4138.0295862,N,07032.2602192,W,1,24,0.7,12.870,M,-29.743,M,0.0,*58
###2023-12-09 13:10:23.368823$GNGGA,181022.50,4138.0293858,N,07032.2602206,W,1,24,0.7,12.861,M,-29.743,M,0.0,*5F
###2023-12-09 13:10:23.570349$GNGGA,181022.70,4138.0291809,N,07032.2602377,W,1,24,0.7,12.865,M,-29.743,M,0.0,*58
###2023-12-09 13:10:23.771310$GNGGA,181022.90,4138.0289845,N,07032.2602774,W,1,24,0.7,12.877,M,-29.743,M,0.0,*53
###2023-12-09 13:10:23.973524$GNRMC,181023.10,A,4138.0287812,N,07032.2602904,W,3.63,179.23,091223,,,A*5C
###2023-12-09 13:10:23.976414$GNGGA,181023.10,4138.0287812,N,07032.2602904,W,1,24,0.7,12.875,M,-29.743,M,0.0,*5D
###2023-12-09 13:10:23.978209$GPGSA,A,3,03,04,16,26,28,29,31,,,,,,1.2,0.7,1.0*30
###2023-12-09 13:10:23.979936$GLGSA,A,3,65,71,72,73,74,75,,,,,,,1.2,0.7,1.0*2E
###2023-12-09 13:10:23.981512$GAGSA,A,3,04,19,21,27,,,,,,,,,1.2,0.7,1.0*2C
###2023-12-09 13:10:23.983233$GBGSA,A,3,14,24,25,26,33,35,,,,,,,1.2,0.7,1.0*23
###2023-12-09 13:10:23.985568$GPGSV,2,1,07,03,33,257,43,04,36,311,45,16,54,214,46,26,84,210,48*7E
###2023-12-09 13:10:23.987630$GPGSV,2,2,07,28,46,074,45,29,24,057,42,31,67,046,48,,,,*40
###2023-12-09 13:10:23.989980$GLGSV,2,1,06,65,27,326,42,71,36,173,43,72,72,254,46,73,32,044,44*62
###2023-12-09 13:10:23.991757$GLGSV,2,2,06,74,68,348,43,75,35,257,46,,,,,,,,*60
###2023-12-09 13:10:23.994094$GAGSV,1,1,04,04,32,312,42,19,81,196,40,21,85,078,46,27,30,048,41*68
###2023-12-09 13:10:23.996439$GBGSV,2,1,06,14,39,192,42,24,71,031,49,25,43,265,47,26,24,064,44*60
###2023-12-09 13:10:23.998192$GBGSV,2,2,06,33,55,228,48,35,15,066,44,,,,,,,,*6B
###2023-12-09 13:10:23.999529$GNVTG,179.23,T,,M,3.63,N,6.73,K,A*29
###2023-12-09 13:10:24.001183$GNGST,181023.10,18.000,,,,0.099,0.070,0.170*57
###2023-12-09 13:10:24.002478$GNZDA,181023.10,09,12,2023,00,00*79
###2023-12-09 13:10:24.003129$GNEBP,,,,,,M*13
###2023-12-09 13:10:24.172079$GNGGA,181023.30,4138.0285865,N,07032.2602915,W,1,24,0.7,12.851,M,-29.743,M,0.0,*5B
###2023-12-09 13:10:24.369581$GNGGA,181023.50,4138.0283912,N,07032.2603370,W,1,24,0.7,12.899,M,-29.743,M,0.0,*56
###2023-12-09 13:10:24.570461$GNGGA,181023.70,4138.0281880,N,07032.2603790,W,1,24,0.7,12.884,M,-29.743,M,0.0,*5A
###2023-12-09 13:10:24.770305$GNGGA,181023.90,4138.0279979,N,07032.2603659,W,1,24,0.7,12.871,M,-29.743,M,0.0,*5A
###2023-12-09 13:10:24.974484$GNRMC,181024.10,A,4138.0278016,N,07032.2603663,W,3.67,184.39,091223,,,A*55
###2023-12-09 13:10:24.977360$GNGGA,181024.10,4138.0278016,N,07032.2603663,W,1,24,0.7,12.894,M,-29.743,M,0.0,*56
###2023-12-09 13:10:24.979206$GPGSA,A,3,03,04,16,26,28,29,31,,,,,,1.2,0.7,1.0*30
###2023-12-09 13:10:24.980925$GLGSA,A,3,65,71,72,73,74,75,,,,,,,1.2,0.7,1.0*2E
###2023-12-09 13:10:24.982518$GAGSA,A,3,04,19,21,27,,,,,,,,,1.2,0.7,1.0*2C
###2023-12-09 13:10:24.984247$GBGSA,A,3,14,24,25,26,33,35,,,,,,,1.2,0.7,1.0*23
###2023-12-09 13:10:24.986609$GPGSV,2,1,07,03,33,257,42,04,36,311,44,16,54,214,45,26,84,210,48*7D
###2023-12-09 13:10:24.988667$GPGSV,2,2,07,28,46,074,45,29,24,057,41,31,67,046,47,,,,*4C
###2023-12-09 13:10:24.991022$GLGSV,2,1,06,65,27,326,43,71,36,173,43,72,72,254,46,73,32,044,45*62
###2023-12-09 13:10:24.992777$GLGSV,2,2,06,74,68,348,43,75,35,257,45,,,,,,,,*63
###2023-12-09 13:10:24.995120$GAGSV,1,1,04,04,32,312,42,19,81,196,40,21,85,078,46,27,30,048,42*6B
###2023-12-09 13:10:24.997472$GBGSV,2,1,06,14,39,192,42,24,71,031,48,25,43,265,46,26,24,064,43*67
###2023-12-09 13:10:24.999238$GBGSV,2,2,06,33,55,228,47,35,15,066,44,,,,,,,,*64
###2023-12-09 13:10:25.000568$GNVTG,184.39,T,,M,3.67,N,6.80,K,A*28
###2023-12-09 13:10:25.002224$GNGST,181024.10,18.000,,,,0.099,0.071,0.170*51
###2023-12-09 13:10:25.003532$GNZDA,181024.10,09,12,2023,00,00*7E
###2023-12-09 13:10:25.004174$GNEBP,,,,,,M*13
###2023-12-09 13:10:25.170189$GNGGA,181024.30,4138.0276003,N,07032.2603825,W,1,24,0.7,12.893,M,-29.743,M,0.0,*55
###2023-12-09 13:10:25.370534$GNGGA,181024.50,4138.0274007,N,07032.2603883,W,1,24,0.7,12.882,M,-29.743,M,0.0,*59
###2023-12-09 13:10:25.570292$GNGGA,181024.70,4138.0272060,N,07032.2603992,W,1,24,0.7,12.904,M,-29.744,M,0.0,*55
###2023-12-09 13:10:25.770583$GNGGA,181024.90,4138.0270026,N,07032.2604008,W,1,24,0.7,12.902,M,-29.744,M,0.0,*50
###2023-12-09 13:10:25.973965$GNRMC,181025.10,A,4138.0268028,N,07032.2604000,W,3.56,183.13,091223,,,A*51
###2023-12-09 13:10:25.977477$GNGGA,181025.10,4138.0268028,N,07032.2604000,W,1,24,0.7,12.892,M,-29.744,M,0.0,*5E
###2023-12-09 13:10:25.979670$GPGSA,A,3,03,04,16,26,28,29,31,,,,,,1.2,0.7,1.0*30
###2023-12-09 13:10:25.981749$GLGSA,A,3,65,71,72,73,74,75,,,,,,,1.2,0.7,1.0*2E
###2023-12-09 13:10:25.983673$GAGSA,A,3,04,19,21,27,,,,,,,,,1.2,0.7,1.0*2C
###2023-12-09 13:10:25.985741$GBGSA,A,3,14,24,25,26,33,35,,,,,,,1.2,0.7,1.0*23
###2023-12-09 13:10:25.988599$GPGSV,2,1,07,03,33,257,42,04,36,311,45,16,54,214,45,26,84,210,48*7C
###2023-12-09 13:10:25.991090$GPGSV,2,2,07,28,46,074,45,29,24,057,42,31,67,046,47,,,,*4F
###2023-12-09 13:10:25.993918$GLGSV,2,1,06,65,27,326,41,71,36,173,42,72,72,254,46,73,32,044,45*61
###2023-12-09 13:10:25.996044$GLGSV,2,2,06,74,68,348,43,75,35,257,45,,,,,,,,*63
###2023-12-09 13:10:25.998855$GAGSV,1,1,04,04,32,312,43,19,81,196,40,21,85,078,46,27,30,048,41*69
###2023-12-09 13:10:26.001668$GBGSV,2,1,06,14,39,192,42,24,71,031,49,25,43,265,46,26,24,064,44*61
###2023-12-09 13:10:26.003787$GBGSV,2,2,06,33,55,228,46,35,15,066,43,,,,,,,,*62
###2023-12-09 13:10:26.005385$GNVTG,183.13,T,,M,3.56,N,6.59,K,A*21
###2023-12-09 13:10:26.007390$GNGST,181025.10,18.000,,,,0.099,0.071,0.170*50
###2023-12-09 13:10:26.008950$GNZDA,181025.10,09,12,2023,00,00*7F
###2023-12-09 13:10:26.009719$GNEBP,,,,,,M*13
###2023-12-09 13:10:26.170113$GNGGA,181025.30,4138.0266023,N,07032.2604235,W,1,24,0.7,12.906,M,-29.744,M,0.0,*51
###2023-12-09 13:10:26.369671$GNGGA,181025.50,4138.0263988,N,07032.2604391,W,1,24,0.7,12.908,M,-29.744,M,0.0,*5B
###2023-12-09 13:10:26.571371$GNGGA,181025.70,4138.0261944,N,07032.2604452,W,1,24,0.7,12.909,M,-29.744,M,0.0,*52
###2023-12-09 13:10:26.771344$GNGGA,181025.90,4138.0259899,N,07032.2604524,W,1,24,0.7,12.917,M,-29.744,M,0.0,*59
###2023-12-09 13:10:26.972621$GNRMC,181026.10,A,4138.0257846,N,07032.2604682,W,3.67,186.51,091223,,,A*53
###2023-12-09 13:10:26.975504$GNGGA,181026.10,4138.0257846,N,07032.2604682,W,1,24,0.7,12.923,M,-29.744,M,0.0,*56
###2023-12-09 13:10:26.977305$GPGSA,A,3,03,04,16,26,28,29,31,,,,,,1.2,0.7,1.0*30
###2023-12-09 13:10:26.979044$GLGSA,A,3,65,71,72,73,74,75,,,,,,,1.2,0.7,1.0*2E
###2023-12-09 13:10:26.980861$GAGSA,A,3,04,19,21,27,,,,,,,,,1.2,0.7,1.0*2C
###2023-12-09 13:10:26.982602$GBGSA,A,3,14,24,25,26,33,35,,,,,,,1.2,0.7,1.0*23
###2023-12-09 13:10:26.984947$GPGSV,2,1,07,03,33,257,42,04,36,311,45,16,54,214,46,26,84,210,48*7F
###2023-12-09 13:10:26.987007$GPGSV,2,2,07,28,46,074,45,29,24,057,43,31,67,046,48,,,,*41
###2023-12-09 13:10:26.989345$GLGSV,2,1,06,65,27,326,43,71,36,173,43,72,72,254,46,73,32,044,44*63
###2023-12-09 13:10:26.991114$GLGSV,2,2,06,74,68,348,43,75,35,257,46,,,,,,,,*60
###2023-12-09 13:10:26.993448$GAGSV,1,1,04,04,32,312,43,19,81,196,40,21,85,078,46,27,30,048,41*69
###2023-12-09 13:10:26.995803$GBGSV,2,1,06,14,39,192,43,24,71,031,48,25,43,265,47,26,24,064,44*60
###2023-12-09 13:10:26.997563$GBGSV,2,2,06,33,55,228,46,35,15,066,44,,,,,,,,*65
###2023-12-09 13:10:26.998907$GNVTG,186.51,T,,M,3.67,N,6.80,K,A*24
