###2023-12-09 12:50:26.977839$GNGST,175026.10,18.000,,,,0.078,0.066,0.160*50
###2023-12-09 12:50:26.979183$GNZDA,175026.10,09,12,2023,00,00*77
###2023-12-09 12:50:26.979831$GNEBP,,,,,,M*13
###2023-12-09 12:50:27.148106$GNGGA,175026.30,4138.0615720,N,07032.3845224,W,1,24,0.6,13.635,M,-29.744,M,0.0,*58
###2023-12-09 12:50:27.348941$GNGGA,175026.50,4138.0613987,N,07032.3844542,W,1,24,0.6,13.607,M,-29.744,M,0.0,*5C
###2023-12-09 12:50:27.549036$GNGGA,175026.70,4138.0612156,N,07032.3843988,W,1,24,0.6,13.625,M,-29.744,M,0.0,*56
###2023-12-09 12:50:27.750222$GNGGA,175026.90,4138.0610301,N,07032.3843372,W,1,24,0.6,13.628,M,-29.744,M,0.0,*58
###2023-12-09 12:50:27.949696$GNRMC,175027.10,A,4138.0608523,N,07032.3842564,W,3.30,159.21,091223,,,A*58
###2023-12-09 12:50:27.952569$GNGGA,175027.10,4138.0608523,N,07032.3842564,W,1,24,0.6,13.613,M,-29.744,M,0.0,*56
###2023-12-09 12:50:27.954421$GPGSA,A,3,03,04,16,26,28,29,31,32,,,,,1.1,0.6,0.9*3B
###2023-12-09 12:50:27.956163$GLGSA,A,3,65,71,72,73,74,75,,,,,,,1.1,0.6,0.9*24
###2023-12-09 12:50:27.957750$GAGSA,A,3,04,19,21,27,,,,,,,,,1.1,0.6,0.9*26
###2023-12-09 12:50:27.959409$GBGSA,A,3,14,24,25,26,33,,,,,,,,1.1,0.6,0.9*2F
###2023-12-09 12:50:27.961729$GPGSV,2,1,08,03,37,268,45,04,28,311,42,16,44,210,45,26,74,208,48*77
###2023-12-09 12:50:27.964066$GPGSV,2,2,08,28,53,065,46,29,26,066,44,31,71,024,47,32,23,138,42*7E
###2023-12-09 12:50:27.966408$GLGSV,2,1,06,65,18,329,42,71,48,171,45,72,71,291,46,73,41,038,47*6A
###2023-12-09 12:50:27.968187$GLGSV,2,2,06,74,71,317,43,75,28,247,45,,,,,,,,*6C
###2023-12-09 12:50:27.970515$GAGSV,1,1,04,04,26,312,41,19,85,260,40,21,83,158,46,27,36,048,44*66
###2023-12-09 12:50:27.972857$GBGSV,2,1,05,14,49,195,44,24,77,011,49,25,37,257,45,26,30,060,45*61
###2023-12-09 12:50:27.974318$GBGSV,2,2,05,33,61,241,48,,,,,,,,,,,,*52
###2023-12-09 12:50:27.975656$GNVTG,159.21,T,,M,3.30,N,6.12,K,A*28
###2023-12-09 12:50:27.977310$GNGST,175027.10,18.000,,,,0.079,0.066,0.160*50
###2023-12-09 12:50:27.978612$GNZDA,175027.10,09,12,2023,00,00*76
###2023-12-09 12:50:27.979254$GNEBP,,,,,,M*13
###2023-12-09 12:50:28.148943$GNGGA,175027.30,4138.0606783,N,07032.3841729,W,1,24,0.6,13.613,M,-29.744,M,0.0,*5A
###2023-12-09 12:50:28.350068$GNGGA,175027.50,4138.0604937,N,07032.3841012,W,1,24,0.6,13.621,M,-29.744,M,0.0,*51
###2023-12-09 12:50:28.549000$GNGGA,175027.70,4138.0603185,N,07032.3840161,W,1,24,0.6,13.611,M,-29.744,M,0.0,*52
###2023-12-09 12:50:28.749788$GNGGA,175027.90,4138.0601524,N,07032.3839105,W,1,24,0.6,13.610,M,-29.744,M,0.0,*5C
###2023-12-09 12:50:28.948465$GNRMC,175028.10,A,4138.0599831,N,07032.3838050,W,3.36,154.74,091223,,,A*56
###2023-12-09 12:50:28.951357$GNGGA,175028.10,4138.0599831,N,07032.3838050,W,1,24,0.6,13.604,M,-29.744,M,0.0,*55
###2023-12-09 12:50:28.953215$GPGSA,A,3,03,04,16,26,28,29,31,32,,,,,1.1,0.6,0.9*3B
###2023-12-09 12:50:28.954944$GLGSA,A,3,65,71,72,73,74,75,,,,,,,1.1,0.6,0.9*24
###2023-12-09 12:50:28.956534$GAGSA,A,3,04,19,21,27,,,,,,,,,1.1,0.6,0.9*26
###2023-12-09 12:50:28.958189$GBGSA,A,3,14,24,25,26,33,,,,,,,,1.1,0.6,0.9*2F
###2023-12-09 12:50:28.960546$GPGSV,2,1,08,03,37,268,45,04,28,311,42,16,44,210,45,26,74,208,48*77
###2023-12-09 12:50:28.962921$GPGSV,2,2,08,28,53,065,46,29,26,066,45,31,71,024,47,32,23,138,41*7C
###2023-12-09 12:50:28.965272$GLGSV,2,1,06,65,18,329,42,71,48,171,45,72,71,291,46,73,41,038,47*6A
###2023-12-09 12:50:28.967040$GLGSV,2,2,06,74,71,317,44,75,28,247,43,,,,,,,,*6D
###2023-12-09 12:50:28.969365$GAGSV,1,1,04,04,26,312,40,19,85,260,40,21,83,158,45,27,36,048,44*64
###2023-12-09 12:50:28.971715$GBGSV,2,1,05,14,49,195,44,24,77,011,48,25,37,257,46,26,30,060,45*63
###2023-12-09 12:50:28.973174$GBGSV,2,2,05,33,61,241,48,,,,,,,,,,,,*52
###2023-12-09 12:50:28.974502$GNVTG,154.74,T,,M,3.36,N,6.23,K,A*21
###2023-12-09 12:50:28.976167$GNGST,175028.10,18.000,,,,0.079,0.066,0.160*5F
###2023-12-09 12:50:28.977463$GNZDA,175028.10,09,12,2023,00,00*79
###2023-12-09 12:50:28.978105$GNEBP,,,,,,M*13
###2023-12-09 12:50:29.148069$GNGGA,175028.30,4138.0598193,N,07032.3836952,W,1,24,0.6,13.601,M,-29.744,M,0.0,*57
###2023-12-09 12:50:29.350075$GNGGA,175028.50,4138.0596564,N,07032.3835825,W,1,24,0.6,13.605,M,-29.744,M,0.0,*55
###2023-12-09 12:50:29.550153$GNGGA,175028.70,4138.0594965,N,07032.3834608,W,1,24,0.6,13.606,M,-29.744,M,0.0,*5B
###2023-12-09 12:50:29.751371$GNGGA,175028.90,4138.0593525,N,07032.3833199,W,1,24,0.6,13.594,M,-29.744,M,0.0,*5A
###2023-12-09 12:50:29.949276$GNRMC,175029.10,A,4138.0592025,N,07032.3831827,W,3.32,146.16,091223,,,A*53
###2023-12-09 12:50:29.952159$GNGGA,175029.10,4138.0592025,N,07032.3831827,W,1,24,0.6,13.604,M,-29.744,M,0.0,*53
###2023-12-09 12:50:29.954018$GPGSA,A,3,03,04,16,26,28,29,31,32,,,,,1.1,0.6,0.9*3B
###2023-12-09 12:50:29.955752$GLGSA,A,3,65,71,72,73,74,75,,,,,,,1.1,0.6,0.9*24
###2023-12-09 12:50:29.957328$GAGSA,A,3,04,19,21,27,,,,,,,,,1.1,0.6,0.9*26
###2023-12-09 12:50:29.958984$GBGSA,A,3,14,24,25,26,33,,,,,,,,1.1,0.6,0.9*2F
###2023-12-09 12:50:29.961302$GPGSV,2,1,08,03,37,268,44,04,28,311,41,16,44,210,45,26,74,208,48*75
###2023-12-09 12:50:29.963650$GPGSV,2,2,08,28,53,065,45,29,26,066,44,31,71,024,47,32,23,138,41*7E
###2023-12-09 12:50:29.965986$GLGSV,2,1,06,65,18,329,43,71,48,171,45,72,71,291,46,73,41,038,46*6A
###2023-12-09 12:50:29.967743$GLGSV,2,2,06,74,71,317,43,75,28,247,43,,,,,,,,*6A
###2023-12-09 12:50:29.970063$GAGSV,1,1,04,04,26,312,40,19,85,260,40,21,83,158,45,27,36,048,44*64
###2023-12-09 12:50:29.972400$GBGSV,2,1,05,14,49,195,45,24,77,011,49,25,37,257,46,26,30,060,46*60
###2023-12-09 12:50:29.973850$GBGSV,2,2,05,33,61,241,48,,,,,,,,,,,,*52
###2023-12-09 12:50:29.975182$GNVTG,146.16,T,,M,3.32,N,6.16,K,A*24
###2023-12-09 12:50:29.976823$GNGST,175029.10,18.000,,,,0.079,0.066,0.160*5E
###2023-12-09 12:50:29.978115$GNZDA,175029.10,09,12,2023,00,00*78
###2023-12-09 12:50:29.978767$GNEBP,,,,,,M*13
###2023-12-09 12:50:30.148789$GNGGA,175029.30,4138.0590553,N,07032.3830372,W,1,24,0.6,13.604,M,-29.744,M,0.0,*5D
###2023-12-09 12:50:30.349861$GNGGA,175029.50,4138.0589199,N,07032.3828809,W,1,24,0.6,13.604,M,-29.744,M,0.0,*5F
###2023-12-09 12:50:30.548897$GNGGA,175029.70,4138.0587883,N,07032.3827178,W,1,24,0.6,13.613,M,-29.744,M,0.0,*57
###2023-12-09 12:50:30.750494$GNGGA,175029.90,4138.0586587,N,07032.3825432,W,1,24,0.6,13.604,M,-29.744,M,0.0,*5E
###2023-12-09 12:50:30.947480$GNRMC,175030.10,A,4138.0585438,N,07032.3823716,W,3.05,131.16,091223,,,A*5F
###2023-12-09 12:50:30.950373$GNGGA,175030.10,4138.0585438,N,07032.3823716,W,1,24,0.6,13.592,M,-29.744,M,0.0,*57
###2023-12-09 12:50:30.952254$GPGSA,A,3,03,04,16,26,28,29,31,32,,,,,1.1,0.6,0.9*3B
###2023-12-09 12:50:30.953971$GLGSA,A,3,65,71,72,73,74,75,,,,,,,1.1,0.6,0.9*24
###2023-12-09 12:50:30.955576$GAGSA,A,3,04,19,21,27,,,,,,,,,1.1,0.6,0.9*26
###2023-12-09 12:50:30.957220$GBGSA,A,3,14,24,25,26,33,,,,,,,,1.1,0.6,0.9*2F
###2023-12-09 12:50:30.959563$GPGSV,2,1,08,03,37,268,44,04,28,311,43,16,44,210,46,26,74,208,48*74
###2023-12-09 12:50:30.961900$GPGSV,2,2,08,28,53,065,45,29,26,066,44,31,71,024,47,32,23,138,41*7E
###2023-12-09 12:50:30.964285$GLGSV,2,1,06,65,18,329,44,71,48,171,46,72,71,291,46,73,41,038,47*6F
###2023-12-09 12:50:30.966039$GLGSV,2,2,06,74,71,317,43,75,28,247,44,,,,,,,,*6D
###2023-12-09 12:50:30.968391$GAGSV,1,1,04,04,26,312,42,19,85,260,40,21,83,158,46,27,36,048,43*62
###2023-12-09 12:50:30.970745$GBGSV,2,1,05,14,49,195,45,24,77,011,48,25,37,257,46,26,30,060,45*62
###2023-12-09 12:50:30.972206$GBGSV,2,2,05,33,61,241,49,,,,,,,,,,,,*53
###2023-12-09 12:50:30.973533$GNVTG,131.16,T,,M,3.05,N,5.65,K,A*27
###2023-12-09 12:50:30.975201$GNGST,175030.10,18.000,,,,0.078,0.066,0.160*57
###2023-12-09 12:50:30.976498$GNZDA,175030.10,09,12,2023,00,00*70
###2023-12-09 12:50:30.977139$GNEBP,,,,,,M*13
###2023-12-09 12:50:31.147969$GNGGA,175030.30,4138.0584385,N,07032.3822025,W,1,24,0.6,13.609,M,-29.744,M,0.0,*52
###2023-12-09 12:50:31.348753$GNGGA,175030.50,4138.0583406,N,07032.3820402,W,1,24,0.6,13.612,M,-29.744,M,0.0,*56
###2023-12-09 12:50:31.549070$GNGGA,175030.70,4138.0582533,N,07032.3818802,W,1,24,0.6,13.610,M,-29.744,M,0.0,*57
###2023-12-09 12:50:31.755857$GNGGA,175030.90,4138.0581635,N,07032.3817332,W,1,24,0.6,13.596,M,-29.744,M,0.0,*55
###2023-12-09 12:50:31.948754$GNRMC,175031.10,A,4138.0580802,N,07032.3815961,W,2.35,128.61,091223,,,A*5F
###2023-12-09 12:50:31.951647$GNGGA,175031.10,4138.0580802,N,07032.3815961,W,1,24,0.6,13.606,M,-29.744,M,0.0,*53
###2023-12-09 12:50:31.953506$GPGSA,A,3,03,04,16,26,28,29,31,32,,,,,1.1,0.6,0.9*3B
###2023-12-09 12:50:31.955243$GLGSA,A,3,65,71,72,73,74,75,,,,,,,1.1,0.6,0.9*24
###2023-12-09 12:50:31.956828$GAGSA,A,3,04,19,21,27,,,,,,,,,1.1,0.6,0.9*26
###2023-12-09 12:50:31.958473$GBGSA,A,3,14,24,25,26,33,,,,,,,,1.1,0.6,0.9*2F
###2023-12-09 12:50:31.960817$GPGSV,2,1,08,03,37,268,45,04,28,311,43,16,44,210,46,26,74,208,48*75
###2023-12-09 12:50:31.963164$GPGSV,2,2,08,28,53,065,45,29,26,066,44,31,71,024,47,32,23,138,41*7E
###2023-12-09 12:50:31.965498$GLGSV,2,1,06,65,18,329,44,71,48,171,47,72,71,291,47,73,41,038,47*6F
