###2023-12-09 13:19:54.001759$GPGSV,2,2,07,28,43,079,44,29,23,053,41,31,64,055,46,,,,*46
###2023-12-09 13:19:54.004161$GLGSV,2,1,06,65,32,324,44,71,31,174,43,72,69,237,46,73,28,047,42*63
###2023-12-09 13:19:54.005835$GLGSV,2,2,06,74,65,,43,75,38,262,48,,,,,,,,*57
###2023-12-09 13:19:54.008193$GAGSV,1,1,04,04,35,311,43,19,78,188,40,21,82,058,45,27,27,049,40*64
###2023-12-09 13:19:54.010520$GBGSV,2,1,06,14,35,191,43,24,68,038,48,25,46,269,49,26,20,067,42*68
###2023-12-09 13:19:54.012286$GBGSV,2,2,06,33,51,223,49,35,16,062,42,,,,,,,,*64
###2023-12-09 13:19:54.013619$GNVTG,190.85,T,,M,3.65,N,6.77,K,A*20
###2023-12-09 13:19:54.015277$GNGST,181953.10,18.000,,,,0.100,0.073,0.170*5B
###2023-12-09 13:19:54.016575$GNZDA,181953.10,09,12,2023,00,00*77
###2023-12-09 13:19:54.017218$GNEBP,,,,,,M*13
###2023-12-09 13:19:54.183442$GNGGA,181953.30,4138.0787794,N,07032.3275211,W,1,24,0.7,13.090,M,-29.743,M,0.0,*5D
###2023-12-09 13:19:54.382192$GNGGA,181953.50,4138.0785998,N,07032.3274644,W,1,24,0.7,13.073,M,-29.743,M,0.0,*53
###2023-12-09 13:19:54.582840$GNGGA,181953.70,4138.0784097,N,07032.3274394,W,1,24,0.7,13.069,M,-29.743,M,0.0,*55
###2023-12-09 13:19:54.783228$GNGGA,181953.90,4138.0782162,N,07032.3274436,W,1,24,0.7,13.085,M,-29.743,M,0.0,*5B
###2023-12-09 13:19:54.984884$GNRMC,181954.10,A,4138.0780204,N,07032.3274247,W,3.52,169.73,091223,,,A*54
###2023-12-09 13:19:54.987758$GNGGA,181954.10,4138.0780204,N,07032.3274247,W,1,24,0.7,13.083,M,-29.743,M,0.0,*53
###2023-12-09 13:19:54.989553$GPGSA,A,3,03,04,16,26,28,29,31,,,,,,1.1,0.7,0.9*3B
###2023-12-09 13:19:54.991278$GLGSA,A,3,65,71,72,73,74,75,,,,,,,1.1,0.7,0.9*25
###2023-12-09 13:19:54.992868$GAGSA,A,3,04,19,21,27,,,,,,,,,1.1,0.7,0.9*27
###2023-12-09 13:19:54.994598$GBGSA,A,3,14,24,25,26,33,35,,,,,,,1.1,0.7,0.9*28
###2023-12-09 13:19:54.996939$GPGSV,2,1,07,03,31,253,44,04,40,310,44,16,59,217,46,26,89,196,47*7F
###2023-12-09 13:19:54.998991$GPGSV,2,2,07,28,43,079,45,29,23,053,40,31,64,055,46,,,,*46
###2023-12-09 13:19:55.001330$GLGSV,2,1,06,65,32,324,44,71,31,174,43,72,69,237,46,73,28,047,43*62
###2023-12-09 13:19:55.002985$GLGSV,2,2,06,74,65,,43,75,38,262,48,,,,,,,,*57
###2023-12-09 13:19:55.005312$GAGSV,1,1,04,04,35,311,43,19,78,188,40,21,82,058,46,27,27,049,40*67
###2023-12-09 13:19:55.007652$GBGSV,2,1,06,14,35,191,43,24,68,038,49,25,46,269,50,26,20,067,43*60
###2023-12-09 13:19:55.009400$GBGSV,2,2,06,33,51,223,49,35,16,062,43,,,,,,,,*65
###2023-12-09 13:19:55.010742$GNVTG,169.73,T,,M,3.52,N,6.52,K,A*2C
###2023-12-09 13:19:55.012396$GNGST,181954.10,18.000,,,,0.100,0.072,0.170*5D
###2023-12-09 13:19:55.013690$GNZDA,181954.10,09,12,2023,00,00*70
###2023-12-09 13:19:55.014331$GNEBP,,,,,,M*13
###2023-12-09 13:19:55.183424$GNGGA,181954.30,4138.0778418,N,07032.3273472,W,1,24,0.7,13.078,M,-29.743,M,0.0,*5E
###2023-12-09 13:19:55.384137$GNGGA,181954.50,4138.0776691,N,07032.3272558,W,1,24,0.7,13.072,M,-29.743,M,0.0,*57
###2023-12-09 13:19:55.584021$GNGGA,181954.70,4138.0774736,N,07032.3272057,W,1,24,0.7,13.072,M,-29.743,M,0.0,*51
###2023-12-09 13:19:55.784445$GNGGA,181954.90,4138.0772831,N,07032.3271604,W,1,24,0.7,13.045,M,-29.743,M,0.0,*56
###2023-12-09 13:19:55.986766$GNRMC,181955.10,A,4138.0771049,N,07032.3270939,W,3.50,161.85,091223,,,A*55
###2023-12-09 13:19:55.989648$GNGGA,181955.10,4138.0771049,N,07032.3270939,W,1,24,0.7,13.070,M,-29.743,M,0.0,*5D
###2023-12-09 13:19:55.991461$GPGSA,A,3,03,04,16,26,28,29,31,,,,,,1.1,0.7,0.9*3B
###2023-12-09 13:19:55.993190$GLGSA,A,3,65,71,72,73,74,75,,,,,,,1.1,0.7,0.9*25
###2023-12-09 13:19:55.994797$GAGSA,A,3,04,19,21,27,,,,,,,,,1.1,0.7,0.9*27
###2023-12-09 13:19:55.996524$GBGSA,A,3,14,24,25,26,33,35,,,,,,,1.1,0.7,0.9*28
###2023-12-09 13:19:55.998882$GPGSV,2,1,07,03,31,253,43,04,40,310,45,16,59,217,46,26,89,196,48*76
###2023-12-09 13:19:56.000939$GPGSV,2,2,07,28,43,079,45,29,23,053,42,31,64,055,45,,,,*47
###2023-12-09 13:19:56.003294$GLGSV,2,1,06,65,32,324,44,71,31,174,43,72,69,237,45,73,28,047,41*63
###2023-12-09 13:19:56.004954$GLGSV,2,2,06,74,65,,43,75,38,262,47,,,,,,,,*58
###2023-12-09 13:19:56.007303$GAGSV,1,1,04,04,35,311,43,19,78,188,40,21,82,058,46,27,27,049,40*67
###2023-12-09 13:19:56.009649$GBGSV,2,1,06,14,35,191,42,24,68,038,48,25,46,269,49,26,20,067,43*68
###2023-12-09 13:19:56.011415$GBGSV,2,2,06,33,51,223,47,35,16,062,41,,,,,,,,*69
###2023-12-09 13:19:56.012745$GNVTG,161.85,T,,M,3.50,N,6.48,K,A*24
###2023-12-09 13:19:56.014394$GNGST,181955.10,18.000,,,,0.100,0.072,0.170*5C
###2023-12-09 13:19:56.015695$GNZDA,181955.10,09,12,2023,00,00*71
###2023-12-09 13:19:56.016335$GNEBP,,,,,,M*13
###2023-12-09 13:19:56.182494$GNGGA,181955.30,4138.0769190,N,07032.3270153,W,1,24,0.7,13.064,M,-29.743,M,0.0,*52
###2023-12-09 13:19:56.382108$GNGGA,181955.50,4138.0767293,N,07032.3269666,W,1,24,0.7,13.022,M,-29.743,M,0.0,*51
###2023-12-09 13:19:56.583630$GNGGA,181955.70,4138.0765424,N,07032.3269548,W,1,24,0.7,13.037,M,-29.743,M,0.0,*50
###2023-12-09 13:19:56.793363$GNGGA,181955.90,4138.0763481,N,07032.3269386,W,1,24,0.7,13.054,M,-29.743,M,0.0,*56
###2023-12-09 13:19:56.999515$GNRMC,181956.10,A,4138.0761546,N,07032.3269295,W,3.34,177.07,091223,,,A*57
###2023-12-09 13:19:57.002378$GNGGA,181956.10,4138.0761546,N,07032.3269295,W,1,24,0.7,13.036,M,-29.743,M,0.0,*52
###2023-12-09 13:19:57.004181$GPGSA,A,3,03,04,16,26,28,29,31,,,,,,1.1,0.7,0.9*3B
###2023-12-09 13:19:57.005904$GLGSA,A,3,65,71,72,73,74,75,,,,,,,1.1,0.7,0.9*25
###2023-12-09 13:19:57.007501$GAGSA,A,3,04,19,21,27,,,,,,,,,1.1,0.7,0.9*27
###2023-12-09 13:19:57.009212$GBGSA,A,3,14,24,25,26,33,35,,,,,,,1.1,0.7,0.9*28
###2023-12-09 13:19:57.011548$GPGSV,2,1,07,03,31,253,41,04,40,310,44,16,59,217,45,26,89,196,48*76
###2023-12-09 13:19:57.013588$GPGSV,2,2,07,28,43,079,44,29,23,053,39,31,64,055,46,,,,*49
###2023-12-09 13:19:57.015934$GLGSV,2,1,06,65,32,324,41,71,31,174,42,72,69,237,45,73,28,047,42*64
###2023-12-09 13:19:57.017585$GLGSV,2,2,06,74,65,,43,75,38,262,47,,,,,,,,*58
###2023-12-09 13:19:57.019918$GAGSV,1,1,04,04,35,311,43,19,78,188,40,21,82,058,46,27,27,049,39*69
###2023-12-09 13:19:57.022239$GBGSV,2,1,06,14,35,191,42,24,68,038,49,25,46,269,47,26,20,067,43*67
###2023-12-09 13:19:57.023993$GBGSV,2,2,06,33,51,223,47,35,16,062,44,,,,,,,,*6C
###2023-12-09 13:19:57.025316$GNVTG,177.07,T,,M,3.34,N,6.19,K,A*2F
###2023-12-09 13:19:57.026983$GNGST,181956.10,18.000,,,,0.100,0.071,0.170*5C
###2023-12-09 13:19:57.028275$GNZDA,181956.10,09,12,2023,00,00*72
###2023-12-09 13:19:57.028913$GNEBP,,,,,,M*13
###2023-12-09 13:19:57.188924$GNGGA,181956.30,4138.0759659,N,07032.3269141,W,1,24,0.7,13.016,M,-29.743,M,0.0,*5E
###2023-12-09 13:19:57.384981$GNGGA,181956.50,4138.0757739,N,07032.3269231,W,1,24,0.7,13.017,M,-29.743,M,0.0,*54
###2023-12-09 13:19:57.586924$GNGGA,181956.70,4138.0755777,N,07032.3269601,W,1,24,0.7,13.031,M,-29.743,M,0.0,*5D
###2023-12-09 13:19:57.784227$GNGGA,181956.90,4138.0753835,N,07032.3269751,W,1,24,0.7,13.027,M,-29.743,M,0.0,*5F
###2023-12-09 13:19:57.990050$GNRMC,181957.10,A,4138.0751875,N,07032.3269585,W,3.50,177.64,091223,,,A*59
###2023-12-09 13:19:57.992947$GNGGA,181957.10,4138.0751875,N,07032.3269585,W,1,24,0.7,13.014,M,-29.743,M,0.0,*5B
###2023-12-09 13:19:57.994764$GPGSA,A,3,03,04,16,26,28,29,31,,,,,,1.1,0.7,0.9*3B
###2023-12-09 13:19:57.996489$GLGSA,A,3,65,71,72,73,74,75,,,,,,,1.1,0.7,0.9*25
###2023-12-09 13:19:57.998080$GAGSA,A,3,04,19,21,27,,,,,,,,,1.1,0.7,0.9*27
###2023-12-09 13:19:57.999820$GBGSA,A,3,14,24,25,26,33,35,,,,,,,1.1,0.7,0.9*28
###2023-12-09 13:19:58.002167$GPGSV,2,1,07,03,31,253,41,04,40,310,43,16,59,217,45,26,89,196,47*7E
###2023-12-09 13:19:58.004243$GPGSV,2,2,07,28,43,079,44,29,23,053,42,31,64,055,46,,,,*45
###2023-12-09 13:19:58.006595$GLGSV,2,1,06,65,32,324,43,71,31,174,42,72,69,237,45,73,28,047,43*67
###2023-12-09 13:19:58.008248$GLGSV,2,2,06,74,65,,43,75,38,262,45,,,,,,,,*5A
###2023-12-09 13:19:58.010593$GAGSV,1,1,04,04,35,311,42,19,78,188,39,21,82,058,46,27,27,049,39*66
###2023-12-09 13:19:58.012932$GBGSV,2,1,06,14,35,191,42,24,68,038,49,25,46,269,46,26,20,067,44*61
###2023-12-09 13:19:58.014701$GBGSV,2,2,06,33,51,223,45,35,16,062,45,,,,,,,,*6F
###2023-12-09 13:19:58.016034$GNVTG,177.64,T,,M,3.50,N,6.48,K,A*2C
###2023-12-09 13:19:58.017925$GNGST,181957.10,18.000,,,,0.100,0.071,0.170*5D
###2023-12-09 13:19:58.019249$GNZDA,181957.10,09,12,2023,00,00*73
###2023-12-09 13:19:58.019897$GNEBP,,,,,,M*13
###2023-12-09 13:19:58.184045$GNGGA,181957.30,4138.0749852,N,07032.3269639,W,1,24,0.7,13.006,M,-29.743,M,0.0,*52
###2023-12-09 13:19:58.383905$GNGGA,181957.50,4138.0747875,N,07032.3269929,W,1,24,0.7,13.011,M,-29.743,M,0.0,*57
###2023-12-09 13:19:58.585014$GNGGA,181957.70,4138.0745872,N,07032.3270111,W,1,24,0.7,13.033,M,-29.743,M,0.0,*5B
###2023-12-09 13:19:58.784130$GNGGA,181957.90,4138.0743931,N,07032.3269870,W,1,24,0.7,12.998,M,-29.743,M,0.0,*5A
###2023-12-09 13:19:58.995468$GNRMC,181958.10,A,4138.0742098,N,07032.3269610,W,3.56,179.93,091223,,,A*50
###2023-12-09 13:19:58.998332$GNGGA,181958.10,4138.0742098,N,07032.3269610,W,1,24,0.7,12.998,M,-29.743,M,0.0,*5E
