###2023-12-09 13:06:28.996879$GBGSV,2,2,06,33,56,230,48,35,15,068,42,,,,,,,,*69
###2023-12-09 13:06:28.998222$GNVTG,283.32,T,,M,3.21,N,5.94,K,A*23
###2023-12-09 13:06:28.999912$GNGST,180628.10,18.000,,,,0.082,0.069,0.160*58
###2023-12-09 13:06:29.001210$GNZDA,180628.10,09,12,2023,00,00*75
###2023-12-09 13:06:29.001852$GNEBP,,,,,,M*13
###2023-12-09 13:06:29.168432$GNGGA,180628.30,4138.0715056,N,07032.3148311,W,1,25,0.6,13.040,M,-29.743,M,0.0,*5C
###2023-12-09 13:06:29.368420$GNGGA,180628.50,4138.0715413,N,07032.3150579,W,1,25,0.6,13.043,M,-29.743,M,0.0,*5D
###2023-12-09 13:06:29.568417$GNGGA,180628.70,4138.0715954,N,07032.3152805,W,1,25,0.6,13.050,M,-29.743,M,0.0,*57
###2023-12-09 13:06:29.769440$GNGGA,180628.90,4138.0716542,N,07032.3155100,W,1,25,0.6,13.047,M,-29.743,M,0.0,*5C
###2023-12-09 13:06:29.969900$GNRMC,180629.10,A,4138.0717001,N,07032.3157409,W,3.21,280.55,091223,,,A*53
###2023-12-09 13:06:29.972782$GNGGA,180629.10,4138.0717001,N,07032.3157409,W,1,25,0.6,13.031,M,-29.743,M,0.0,*59
###2023-12-09 13:06:29.974646$GPGSA,A,3,03,04,16,26,28,29,31,32,,,,,1.1,0.6,0.9*3B
###2023-12-09 13:06:29.976358$GLGSA,A,3,65,71,72,73,74,75,,,,,,,1.1,0.6,0.9*24
###2023-12-09 13:06:29.977937$GAGSA,A,3,04,19,21,27,,,,,,,,,1.1,0.6,0.9*26
###2023-12-09 13:06:29.979660$GBGSA,A,3,14,24,25,26,33,35,,,,,,,1.1,0.6,0.9*29
###2023-12-09 13:06:29.981984$GPGSV,2,1,08,03,34,259,41,04,34,311,41,16,52,213,44,26,82,210,47*76
###2023-12-09 13:06:29.984331$GPGSV,2,2,08,28,48,072,45,29,25,059,41,31,68,042,47,32,17,141,43*7B
###2023-12-09 13:06:29.986669$GLGSV,2,1,06,65,26,327,40,71,39,173,45,72,73,261,46,73,34,043,45*6E
###2023-12-09 13:06:29.988417$GLGSV,2,2,06,74,69,343,42,75,33,255,42,,,,,,,,*6B
###2023-12-09 13:06:29.990758$GAGSV,1,1,04,04,31,312,41,19,83,203,40,21,85,092,46,27,31,048,42*63
###2023-12-09 13:06:29.993080$GBGSV,2,1,06,14,41,192,44,24,72,029,48,25,42,264,43,26,25,063,41*65
###2023-12-09 13:06:29.994837$GBGSV,2,2,06,33,56,230,48,35,15,068,43,,,,,,,,*68
###2023-12-09 13:06:29.996156$GNVTG,280.55,T,,M,3.21,N,5.94,K,A*21
###2023-12-09 13:06:29.997803$GNGST,180629.10,18.000,,,,0.082,0.069,0.160*59
###2023-12-09 13:06:29.999104$GNZDA,180629.10,09,12,2023,00,00*74
###2023-12-09 13:06:29.999747$GNEBP,,,,,,M*13
###2023-12-09 13:06:30.168501$GNGGA,180629.30,4138.0717264,N,07032.3159782,W,1,25,0.6,13.010,M,-29.743,M,0.0,*57
###2023-12-09 13:06:30.371729$GNGGA,180629.50,4138.0717591,N,07032.3162197,W,1,25,0.6,13.008,M,-29.743,M,0.0,*5F
###2023-12-09 13:06:30.573472$GNGGA,180629.70,4138.0718034,N,07032.3164633,W,1,25,0.6,13.015,M,-29.743,M,0.0,*5B
###2023-12-09 13:06:30.769101$GNGGA,180629.90,4138.0718375,N,07032.3167113,W,1,25,0.6,13.017,M,-29.743,M,0.0,*57
###2023-12-09 13:06:30.971024$GNRMC,180630.10,A,4138.0718404,N,07032.3169589,W,3.32,268.80,091223,,,A*5D
###2023-12-09 13:06:30.973887$GNGGA,180630.10,4138.0718404,N,07032.3169589,W,1,25,0.6,13.001,M,-29.743,M,0.0,*58
###2023-12-09 13:06:30.975759$GPGSA,A,3,03,04,16,26,28,29,31,32,,,,,1.1,0.6,0.9*3B
###2023-12-09 13:06:30.977471$GLGSA,A,3,65,71,72,73,74,75,,,,,,,1.1,0.6,0.9*24
###2023-12-09 13:06:30.979065$GAGSA,A,3,04,19,21,27,,,,,,,,,1.1,0.6,0.9*26
###2023-12-09 13:06:30.980775$GBGSA,A,3,14,24,25,26,33,35,,,,,,,1.1,0.6,0.9*29
###2023-12-09 13:06:30.983112$GPGSV,2,1,08,03,34,259,42,04,34,311,42,16,52,213,46,26,82,210,48*7B
###2023-12-09 13:06:30.985439$GPGSV,2,2,08,28,48,072,45,29,25,059,42,31,68,042,48,32,17,141,43*77
###2023-12-09 13:06:30.987777$GLGSV,2,1,06,65,26,327,40,71,39,173,47,72,73,261,45,73,34,043,45*6F
###2023-12-09 13:06:30.989522$GLGSV,2,2,06,74,69,343,43,75,33,255,42,,,,,,,,*6A
###2023-12-09 13:06:30.991855$GAGSV,1,1,04,04,31,312,41,19,83,203,40,21,85,092,46,27,31,048,42*63
###2023-12-09 13:06:30.994172$GBGSV,2,1,06,14,41,192,44,24,72,029,48,25,42,264,43,26,24,064,43*61
###2023-12-09 13:06:30.995922$GBGSV,2,2,06,33,56,230,47,35,15,068,44,,,,,,,,*60
###2023-12-09 13:06:30.997246$GNVTG,268.80,T,,M,3.32,N,6.16,K,A*24
###2023-12-09 13:06:30.998930$GNGST,180630.10,18.000,,,,0.082,0.069,0.160*51
###2023-12-09 13:06:31.000225$GNZDA,180630.10,09,12,2023,00,00*7C
###2023-12-09 13:06:31.000871$GNEBP,,,,,,M*13
###2023-12-09 13:06:31.167589$GNGGA,180630.30,4138.0718367,N,07032.3172085,W,1,25,0.6,12.987,M,-29.743,M,0.0,*5D
###2023-12-09 13:06:31.369002$GNGGA,180630.50,4138.0718400,N,07032.3174677,W,1,25,0.6,12.974,M,-29.743,M,0.0,*5C
###2023-12-09 13:06:31.569501$GNGGA,180630.70,4138.0718447,N,07032.3177264,W,1,25,0.6,12.979,M,-29.743,M,0.0,*55
###2023-12-09 13:06:31.768342$GNGGA,180630.90,4138.0718418,N,07032.3179843,W,1,25,0.6,12.996,M,-29.743,M,0.0,*51
###2023-12-09 13:06:31.970896$GNRMC,180631.10,A,4138.0718146,N,07032.3182348,W,3.44,257.87,091223,,,A*5B
###2023-12-09 13:06:31.973770$GNGGA,180631.10,4138.0718146,N,07032.3182348,W,1,25,0.6,12.983,M,-29.743,M,0.0,*56
###2023-12-09 13:06:31.975652$GPGSA,A,3,03,04,16,26,28,29,31,32,,,,,1.1,0.6,0.9*3B
###2023-12-09 13:06:31.977367$GLGSA,A,3,65,71,72,73,74,75,,,,,,,1.1,0.6,0.9*24
###2023-12-09 13:06:31.978957$GAGSA,A,3,04,19,21,27,,,,,,,,,1.1,0.6,0.9*26
###2023-12-09 13:06:31.980667$GBGSA,A,3,14,24,25,26,33,35,,,,,,,1.1,0.6,0.9*29
###2023-12-09 13:06:31.983012$GPGSV,2,1,08,03,34,259,42,04,34,311,42,16,52,213,46,26,82,210,47*74
###2023-12-09 13:06:31.985343$GPGSV,2,2,08,28,48,072,45,29,25,059,42,31,68,042,48,32,17,141,43*77
###2023-12-09 13:06:31.987687$GLGSV,2,1,06,65,26,327,42,71,39,173,47,72,73,261,45,73,34,043,45*6D
###2023-12-09 13:06:31.989440$GLGSV,2,2,06,74,69,343,42,75,33,255,43,,,,,,,,*6A
###2023-12-09 13:06:31.991783$GAGSV,1,1,04,04,31,312,41,19,83,203,40,21,85,092,46,27,31,048,43*62
###2023-12-09 13:06:31.994113$GBGSV,2,1,06,14,41,192,45,24,72,029,48,25,42,264,43,26,24,064,42*61
###2023-12-09 13:06:31.995871$GBGSV,2,2,06,33,56,230,46,35,15,068,45,,,,,,,,*60
###2023-12-09 13:06:31.997195$GNVTG,257.87,T,,M,3.44,N,6.37,K,A*2D
###2023-12-09 13:06:31.998856$GNGST,180631.10,18.000,,,,0.081,0.069,0.160*53
###2023-12-09 13:06:32.000147$GNZDA,180631.10,09,12,2023,00,00*7D
###2023-12-09 13:06:32.000787$GNEBP,,,,,,M*13
###2023-12-09 13:06:32.167522$GNGGA,180631.30,4138.0717715,N,07032.3184781,W,1,25,0.6,12.949,M,-29.743,M,0.0,*5A
###2023-12-09 13:06:32.367930$GNGGA,180631.50,4138.0717470,N,07032.3187259,W,1,25,0.6,12.957,M,-29.743,M,0.0,*50
###2023-12-09 13:06:32.569413$GNGGA,180631.70,4138.0717261,N,07032.3189749,W,1,25,0.6,12.968,M,-29.743,M,0.0,*52
###2023-12-09 13:06:32.769398$GNGGA,180631.90,4138.0716879,N,07032.3192105,W,1,25,0.6,12.959,M,-29.743,M,0.0,*58
###2023-12-09 13:06:32.981284$GNRMC,180632.10,A,4138.0716476,N,07032.3194435,W,3.29,256.85,091223,,,A*52
###2023-12-09 13:06:32.984166$GNGGA,180632.10,4138.0716476,N,07032.3194435,W,1,25,0.6,12.955,M,-29.743,M,0.0,*5C
###2023-12-09 13:06:32.986030$GPGSA,A,3,03,04,16,26,28,29,31,32,,,,,1.1,0.6,0.9*3B
###2023-12-09 13:06:32.987752$GLGSA,A,3,65,71,72,73,74,75,,,,,,,1.1,0.6,0.9*24
###2023-12-09 13:06:32.989332$GAGSA,A,3,04,19,21,27,,,,,,,,,1.1,0.6,0.9*26
###2023-12-09 13:06:32.991053$GBGSA,A,3,14,24,25,26,33,35,,,,,,,1.1,0.6,0.9*29
###2023-12-09 13:06:32.993383$GPGSV,2,1,08,03,34,259,42,04,34,311,42,16,52,213,46,26,82,210,48*7B
###2023-12-09 13:06:32.995728$GPGSV,2,2,08,28,48,072,45,29,25,059,42,31,68,042,48,32,17,141,43*77
###2023-12-09 13:06:32.998063$GLGSV,2,1,06,65,26,327,42,71,39,173,46,72,73,261,45,73,34,043,45*6C
###2023-12-09 13:06:32.999824$GLGSV,2,2,06,74,69,343,43,75,33,255,43,,,,,,,,*6B
###2023-12-09 13:06:33.002151$GAGSV,1,1,04,04,31,312,41,19,83,203,40,21,85,092,46,27,31,048,42*63
###2023-12-09 13:06:33.004494$GBGSV,2,1,06,14,41,192,44,24,72,029,48,25,42,264,42,26,24,064,42*61
###2023-12-09 13:06:33.006245$GBGSV,2,2,06,33,56,230,46,35,15,068,44,,,,,,,,*61
###2023-12-09 13:06:33.007594$GNVTG,256.85,T,,M,3.29,N,6.08,K,A*29
###2023-12-09 13:06:33.009242$GNGST,180632.10,18.000,,,,0.081,0.068,0.160*51
###2023-12-09 13:06:33.010532$GNZDA,180632.10,09,12,2023,00,00*7E
###2023-12-09 13:06:33.011185$GNEBP,,,,,,M*13
###2023-12-09 13:06:33.170457$GNGGA,180632.30,4138.0716120,N,07032.3196855,W,1,25,0.6,12.933,M,-29.743,M,0.0,*50
###2023-12-09 13:06:33.368577$GNGGA,180632.50,4138.0716144,N,07032.3199290,W,1,25,0.6,12.947,M,-29.743,M,0.0,*5B
###2023-12-09 13:06:33.568388$GNGGA,180632.70,4138.0716242,N,07032.3201744,W,1,25,0.6,12.971,M,-29.743,M,0.0,*57
###2023-12-09 13:06:33.768390$GNGGA,180632.90,4138.0716041,N,07032.3204191,W,1,25,0.6,12.947,M,-29.743,M,0.0,*56
###2023-12-09 13:06:33.971487$GNRMC,180633.10,A,4138.0715977,N,07032.3206688,W,3.44,274.97,091223,,,A*58
###2023-12-09 13:06:33.974350$GNGGA,180633.10,4138.0715977,N,07032.3206688,W,1,25,0.6,12.932,M,-29.743,M,0.0,*5F
###2023-12-09 13:06:33.976223$GPGSA,A,3,03,04,16,26,28,29,31,32,,,,,1.1,0.6,0.9*3B
###2023-12-09 13:06:33.977942$GLGSA,A,3,65,71,72,73,74,75,,,,,,,1.1,0.6,0.9*24
###2023-12-09 13:06:33.979539$GAGSA,A,3,04,19,21,27,,,,,,,,,1.1,0.6,0.9*26
###2023-12-09 13:06:33.981256$GBGSA,A,3,14,24,25,26,33,35,,,,,,,1.1,0.6,0.9*29
###2023-12-09 13:06:33.983601$GPGSV,2,1,08,03,34,259,42,04,34,311,42,16,52,213,47,26,82,210,48*7A
