###2023-12-09 12:34:29.946737$GBGSA,A,3,14,24,25,26,33,,,,,,,,1.2,0.7,1.0*25
###2023-12-09 12:34:29.949127$GPGSV,2,1,08,03,39,277,44,04,22,311,43,16,37,207,45,26,66,206,47*7D
###2023-12-09 12:34:29.951528$GPGSV,2,2,08,28,58,055,45,29,25,075,41,31,73,358,48,32,31,134,42*7B
###2023-12-09 12:34:29.953882$GLGSV,1,1,04,71,57,169,46,72,65,310,46,73,48,033,47,74,71,290,43*6D
###2023-12-09 12:34:29.956251$GAGSV,1,1,04,04,20,311,42,19,81,304,41,21,77,177,47,27,42,050,44*6B
###2023-12-09 12:34:29.958619$GBGSV,2,1,05,14,55,198,45,24,81,343,47,25,32,252,45,26,35,057,41*66
###2023-12-09 12:34:29.960085$GBGSV,2,2,05,33,63,255,46,,,,,,,,,,,,*5B
###2023-12-09 12:34:29.961382$GNVTG,84.40,T,,M,0.23,N,0.43,K,A*1D
###2023-12-09 12:34:29.963053$GNGST,173429.10,17.000,,,,0.100,0.090,0.210*51
###2023-12-09 12:34:29.964352$GNZDA,173429.10,09,12,2023,00,00*7A
###2023-12-09 12:34:29.964994$GNEBP,,,,,,M*13
###2023-12-09 12:34:30.133567$GNGGA,173429.30,4138.0468528,N,07032.4224151,W,1,22,0.7,12.847,M,-29.745,M,0.0,*50
###2023-12-09 12:34:30.332591$GNGGA,173429.50,4138.0468511,N,07032.4224060,W,1,22,0.7,12.846,M,-29.745,M,0.0,*5E
###2023-12-09 12:34:30.533769$GNGGA,173429.70,4138.0468637,N,07032.4224028,W,1,22,0.7,12.841,M,-29.745,M,0.0,*50
###2023-12-09 12:34:30.733546$GNGGA,173429.90,4138.0468848,N,07032.4223985,W,1,22,0.7,12.844,M,-29.745,M,0.0,*54
###2023-12-09 12:34:30.935365$GNRMC,173430.10,A,4138.0468930,N,07032.4223889,W,0.14,84.40,091223,,,A*61
###2023-12-09 12:34:30.938230$GNGGA,173430.10,4138.0468930,N,07032.4223889,W,1,22,0.7,12.846,M,-29.745,M,0.0,*55
###2023-12-09 12:34:30.940112$GPGSA,A,3,03,04,16,26,28,29,31,32,,,,,1.2,0.7,1.0*31
###2023-12-09 12:34:30.941708$GLGSA,A,3,71,72,73,74,,,,,,,,,1.2,0.7,1.0*2F
###2023-12-09 12:34:30.943306$GAGSA,A,3,04,19,21,27,,,,,,,,,1.2,0.7,1.0*2C
###2023-12-09 12:34:30.944960$GBGSA,A,3,14,24,25,26,33,,,,,,,,1.2,0.7,1.0*25
###2023-12-09 12:34:30.947339$GPGSV,2,1,08,03,39,277,44,04,22,311,42,16,37,207,45,26,66,206,47*7C
###2023-12-09 12:34:30.949702$GPGSV,2,2,08,28,58,056,44,29,25,075,39,31,73,358,48,32,31,134,42*76
###2023-12-09 12:34:30.952062$GLGSV,1,1,04,71,57,169,47,72,65,310,46,73,48,033,47,74,71,290,43*6C
###2023-12-09 12:34:30.954399$GAGSV,1,1,04,04,20,311,41,19,81,304,40,21,77,177,46,27,42,050,43*6F
###2023-12-09 12:34:30.956772$GBGSV,2,1,05,14,55,198,46,24,81,343,49,25,32,252,45,26,35,057,43*69
###2023-12-09 12:34:30.958237$GBGSV,2,2,05,33,63,255,47,,,,,,,,,,,,*5A
###2023-12-09 12:34:30.959548$GNVTG,84.40,T,,M,0.14,N,0.25,K,A*19
###2023-12-09 12:34:30.961197$GNGST,173430.10,17.000,,,,0.100,0.091,0.210*58
###2023-12-09 12:34:30.962492$GNZDA,173430.10,09,12,2023,00,00*72
###2023-12-09 12:34:30.963144$GNEBP,,,,,,M*13
###2023-12-09 12:34:31.133375$GNGGA,173430.30,4138.0468862,N,07032.4223754,W,1,23,0.7,12.852,M,-29.745,M,0.0,*5A
###2023-12-09 12:34:31.336784$GNGGA,173430.50,4138.0468867,N,07032.4223669,W,1,23,0.7,12.850,M,-29.745,M,0.0,*54
###2023-12-09 12:34:31.533839$GNGGA,173430.70,4138.0469069,N,07032.4223661,W,1,22,0.7,12.849,M,-29.745,M,0.0,*50
###2023-12-09 12:34:31.734095$GNGGA,173430.90,4138.0469269,N,07032.4223640,W,1,22,0.7,12.849,M,-29.745,M,0.0,*5F
###2023-12-09 12:34:31.934455$GNRMC,173431.10,A,4138.0469262,N,07032.4223514,W,0.23,84.40,091223,,,A*60
###2023-12-09 12:34:31.937329$GNGGA,173431.10,4138.0469262,N,07032.4223514,W,1,21,0.7,12.864,M,-29.745,M,0.0,*53
###2023-12-09 12:34:31.939204$GPGSA,A,3,03,04,16,26,28,29,31,32,,,,,1.2,0.7,1.0*31
###2023-12-09 12:34:31.940785$GLGSA,A,3,71,72,73,74,,,,,,,,,1.2,0.7,1.0*2F
###2023-12-09 12:34:31.942366$GAGSA,A,3,04,19,21,27,,,,,,,,,1.2,0.7,1.0*2C
###2023-12-09 12:34:31.944019$GBGSA,A,3,14,24,25,26,33,,,,,,,,1.2,0.7,1.0*25
###2023-12-09 12:34:31.946348$GPGSV,2,1,08,03,39,277,45,04,22,311,41,16,37,207,45,26,66,206,48*71
###2023-12-09 12:34:31.948714$GPGSV,2,2,08,28,58,056,44,29,25,074,42,31,73,358,48,32,31,134,44*7D
###2023-12-09 12:34:31.951067$GLGSV,1,1,04,71,57,169,48,72,65,310,47,73,48,033,47,74,71,290,43*62
###2023-12-09 12:34:31.953392$GAGSV,1,1,04,04,20,311,41,19,81,304,41,21,77,177,46,27,42,050,44*69
###2023-12-09 12:34:31.955732$GBGSV,2,1,05,14,55,198,46,24,81,343,50,25,32,252,45,26,35,057,44*66
###2023-12-09 12:34:31.957185$GBGSV,2,2,05,33,63,255,47,,,,,,,,,,,,*5A
###2023-12-09 12:34:31.958477$GNVTG,84.40,T,,M,0.23,N,0.43,K,A*1D
###2023-12-09 12:34:31.960152$GNGST,173431.10,17.000,,,,0.100,0.092,0.210*5A
###2023-12-09 12:34:31.961445$GNZDA,173431.10,09,12,2023,00,00*73
###2023-12-09 12:34:31.962086$GNEBP,,,,,,M*13
###2023-12-09 12:34:32.133933$GNGGA,173431.30,4138.0469180,N,07032.4223360,W,1,22,0.7,12.872,M,-29.745,M,0.0,*5F
###2023-12-09 12:34:32.336378$GNGGA,173431.50,4138.0469260,N,07032.4223325,W,1,22,0.7,12.865,M,-29.745,M,0.0,*53
###2023-12-09 12:34:32.536197$GNGGA,173431.70,4138.0469523,N,07032.4223355,W,1,22,0.7,12.856,M,-29.745,M,0.0,*56
###2023-12-09 12:34:32.735302$GNGGA,173431.90,4138.0469673,N,07032.4223322,W,1,21,0.7,12.857,M,-29.745,M,0.0,*5C
###2023-12-09 12:34:32.943034$GNRMC,173432.10,A,4138.0469595,N,07032.4223186,W,0.33,84.40,091223,,,A*62
###2023-12-09 12:34:32.946481$GNGGA,173432.10,4138.0469595,N,07032.4223186,W,1,21,0.7,12.867,M,-29.745,M,0.0,*53
###2023-12-09 12:34:32.948765$GPGSA,A,3,03,04,16,26,28,29,31,32,,,,,1.2,0.7,1.0*31
###2023-12-09 12:34:32.950704$GLGSA,A,3,71,72,73,74,,,,,,,,,1.2,0.7,1.0*2F
###2023-12-09 12:34:32.952634$GAGSA,A,3,04,19,21,27,,,,,,,,,1.2,0.7,1.0*2C
###2023-12-09 12:34:32.954638$GBGSA,A,3,14,24,25,26,33,,,,,,,,1.2,0.7,1.0*25
###2023-12-09 12:34:32.957451$GPGSV,2,1,08,03,39,277,45,04,22,311,41,16,37,207,45,26,66,206,48*71
###2023-12-09 12:34:32.960293$GPGSV,2,2,08,28,58,056,45,29,25,074,40,31,73,358,48,32,31,134,43*79
###2023-12-09 12:34:32.963142$GLGSV,1,1,04,71,57,169,48,72,65,310,47,73,48,033,47,74,71,290,43*62
###2023-12-09 12:34:32.965976$GAGSV,1,1,04,04,20,311,40,19,81,304,41,21,77,177,46,27,42,050,44*68
###2023-12-09 12:34:32.968854$GBGSV,2,1,05,14,55,198,45,24,81,343,48,25,32,252,44,26,35,057,42*6B
###2023-12-09 12:34:32.970635$GBGSV,2,2,05,33,63,255,47,,,,,,,,,,,,*5A
###2023-12-09 12:34:32.972212$GNVTG,84.40,T,,M,0.33,N,0.61,K,A*1C
###2023-12-09 12:34:32.974205$GNGST,173432.10,17.000,,,,0.100,0.092,0.210*59
###2023-12-09 12:34:32.975790$GNZDA,173432.10,09,12,2023,00,00*70
###2023-12-09 12:34:32.976562$GNEBP,,,,,,M*13
###2023-12-09 12:34:33.135832$GNGGA,173432.30,4138.0469511,N,07032.4223063,W,1,22,0.7,12.869,M,-29.745,M,0.0,*5A
###2023-12-09 12:34:33.334643$GNGGA,173432.50,4138.0469657,N,07032.4223061,W,1,22,0.7,12.866,M,-29.745,M,0.0,*50
###2023-12-09 12:34:33.534542$GNGGA,173432.70,4138.0469923,N,07032.4223103,W,1,22,0.7,12.868,M,-29.745,M,0.0,*55
###2023-12-09 12:34:33.734269$GNGGA,173432.90,4138.0470000,N,07032.4223028,W,1,21,0.7,12.872,M,-29.745,M,0.0,*5B
###2023-12-09 12:34:33.934542$GNRMC,173433.10,A,4138.0469879,N,07032.4222894,W,0.31,84.40,091223,,,A*65
###2023-12-09 12:34:33.937405$GNGGA,173433.10,4138.0469879,N,07032.4222894,W,1,21,0.7,12.882,M,-29.745,M,0.0,*5D
###2023-12-09 12:34:33.939304$GPGSA,A,3,03,04,16,26,28,29,31,32,,,,,1.3,0.7,1.1*31
###2023-12-09 12:34:33.940892$GLGSA,A,3,71,72,73,74,,,,,,,,,1.3,0.7,1.1*2F
###2023-12-09 12:34:33.942469$GAGSA,A,3,04,19,21,27,,,,,,,,,1.3,0.7,1.1*2C
###2023-12-09 12:34:33.944119$GBGSA,A,3,14,24,25,26,33,,,,,,,,1.3,0.7,1.1*25
###2023-12-09 12:34:33.946475$GPGSV,2,1,08,03,39,277,45,04,22,311,41,16,37,207,45,26,66,206,48*71
###2023-12-09 12:34:33.948838$GPGSV,2,2,08,28,58,056,43,29,25,074,41,31,73,001,47,32,31,134,43*7E
###2023-12-09 12:34:33.951183$GLGSV,1,1,04,71,57,169,48,72,65,310,47,73,48,033,46,74,71,290,43*63
###2023-12-09 12:34:33.953494$GAGSV,1,1,04,04,20,311,41,19,81,304,41,21,77,177,47,27,42,050,44*68
###2023-12-09 12:34:33.955826$GBGSV,2,1,05,14,55,198,46,24,81,343,49,25,32,252,46,26,35,057,44*6D
###2023-12-09 12:34:33.957268$GBGSV,2,2,05,33,63,255,47,,,,,,,,,,,,*5A
###2023-12-09 12:34:33.958549$GNVTG,84.40,T,,M,0.31,N,0.58,K,A*14
###2023-12-09 12:34:33.960220$GNGST,173433.10,17.000,,,,0.100,0.093,0.210*59
###2023-12-09 12:34:33.961513$GNZDA,173433.10,09,12,2023,00,00*71
###2023-12-09 12:34:33.962150$GNEBP,,,,,,M*13
###2023-12-09 12:34:34.136165$GNGGA,173433.30,4138.0469862,N,07032.4222840,W,1,21,0.7,12.885,M,-29.745,M,0.0,*5B
###2023-12-09 12:34:34.335735$GNGGA,173433.50,4138.0470117,N,07032.4222889,W,1,21,0.7,12.897,M,-29.745,M,0.0,*58
###2023-12-09 12:34:34.534766$GNGGA,173433.70,4138.0470372,N,07032.4222943,W,1,21,0.7,12.900,M,-29.745,M,0.0,*53
###2023-12-09 12:34:34.733717$GNGGA,173433.90,4138.0470376,N,07032.4222860,W,1,21,0.7,12.913,M,-29.745,M,0.0,*5B
###2023-12-09 12:34:34.936396$GNRMC,173434.10,A,4138.0470258,N,07032.4222764,W,0.21,84.40,091223,,,A*62
###2023-12-09 12:34:34.939323$GNGGA,173434.10,4138.0470258,N,07032.4222764,W,1,21,0.7,12.927,M,-29.745,M,0.0,*55
###2023-12-09 12:34:34.941185$GPGSA,A,3,03,04,16,26,28,29,31,32,,,,,1.2,0.7,1.0*31
###2023-12-09 12:34:34.942785$GLGSA,A,3,71,72,73,74,,,,,,,,,1.2,0.7,1.0*2F
###2023-12-09 12:34:34.944372$GAGSA,A,3,04,19,21,27,,,,,,,,,1.2,0.7,1.0*2C
