###2023-12-09 12:56:04.986392$GNEBP,,,,,,M*13
###2023-12-09 12:56:05.155305$GNGGA,175604.30,4138.0421840,N,07032.3899710,W,1,24,0.6,13.171,M,-29.745,M,0.0,*57
###2023-12-09 12:56:05.355871$GNGGA,175604.50,4138.0422312,N,07032.3899722,W,1,24,0.6,13.178,M,-29.745,M,0.0,*56
###2023-12-09 12:56:05.556491$GNGGA,175604.70,4138.0422896,N,07032.3899850,W,1,24,0.6,13.172,M,-29.745,M,0.0,*53
###2023-12-09 12:56:05.757429$GNGGA,175604.90,4138.0423210,N,07032.3899655,W,1,24,0.6,13.175,M,-29.745,M,0.0,*54
###2023-12-09 12:56:05.956979$GNRMC,175605.10,A,4138.0423300,N,07032.3899324,W,0.37,346.54,091223,,,A*5C
###2023-12-09 12:56:05.959866$GNGGA,175605.10,4138.0423300,N,07032.3899324,W,1,24,0.6,13.185,M,-29.745,M,0.0,*51
###2023-12-09 12:56:05.961725$GPGSA,A,3,03,04,16,26,28,29,31,32,,,,,1.1,0.6,0.9*3B
###2023-12-09 12:56:05.963459$GLGSA,A,3,65,71,72,73,74,75,,,,,,,1.1,0.6,0.9*24
###2023-12-09 12:56:05.965032$GAGSA,A,3,04,19,21,27,,,,,,,,,1.1,0.6,0.9*26
###2023-12-09 12:56:05.966679$GBGSA,A,3,14,24,25,26,33,,,,,,,,1.1,0.6,0.9*2F
###2023-12-09 12:56:05.968999$GPGSV,2,1,08,03,36,265,45,04,30,311,45,16,47,211,48,26,77,209,50*71
###2023-12-09 12:56:05.971337$GPGSV,2,2,08,28,51,068,46,29,25,064,42,31,70,031,49,32,21,139,45*79
###2023-12-09 12:56:05.973698$GLGSV,2,1,06,65,21,328,44,71,44,172,48,72,72,281,46,73,38,040,42*63
###2023-12-09 12:56:05.975458$GLGSV,2,2,06,74,71,327,43,75,30,250,46,,,,,,,,*63
###2023-12-09 12:56:05.977779$GAGSV,1,1,04,04,27,312,43,19,85,234,42,21,85,141,48,27,35,048,44*65
###2023-12-09 12:56:05.980111$GBGSV,2,1,05,14,46,194,46,24,75,018,48,25,39,260,45,26,28,061,42*62
###2023-12-09 12:56:05.981561$GBGSV,2,2,05,33,59,237,47,,,,,,,,,,,,*57
###2023-12-09 12:56:05.982890$GNVTG,346.54,T,,M,0.37,N,0.68,K,A*29
###2023-12-09 12:56:05.984532$GNGST,175605.10,18.000,,,,0.078,0.067,0.160*56
###2023-12-09 12:56:05.985819$GNZDA,175605.10,09,12,2023,00,00*70
###2023-12-09 12:56:05.986455$GNEBP,,,,,,M*13
###2023-12-09 12:56:06.155268$GNGGA,175605.30,4138.0423572,N,07032.3899208,W,1,24,0.6,13.185,M,-29.745,M,0.0,*5F
###2023-12-09 12:56:06.356270$GNGGA,175605.50,4138.0424092,N,07032.3899257,W,1,24,0.6,13.181,M,-29.745,M,0.0,*5B
###2023-12-09 12:56:06.555068$GNGGA,175605.70,4138.0424473,N,07032.3899180,W,1,24,0.6,13.170,M,-29.745,M,0.0,*55
###2023-12-09 12:56:06.759554$GNGGA,175605.90,4138.0424576,N,07032.3898913,W,1,24,0.6,13.177,M,-29.745,M,0.0,*5B
###2023-12-09 12:56:06.956046$GNRMC,175606.10,A,4138.0424742,N,07032.3898737,W,0.56,352.98,091223,,,A*5F
###2023-12-09 12:56:06.958922$GNGGA,175606.10,4138.0424742,N,07032.3898737,W,1,24,0.6,13.186,M,-29.745,M,0.0,*53
###2023-12-09 12:56:06.960783$GPGSA,A,3,03,04,16,26,28,29,31,32,,,,,1.1,0.6,0.9*3B
###2023-12-09 12:56:06.962491$GLGSA,A,3,65,71,72,73,74,75,,,,,,,1.1,0.6,0.9*24
###2023-12-09 12:56:06.964083$GAGSA,A,3,04,19,21,27,,,,,,,,,1.1,0.6,0.9*26
###2023-12-09 12:56:06.965765$GBGSA,A,3,14,24,25,26,33,,,,,,,,1.1,0.6,0.9*2F
###2023-12-09 12:56:06.968114$GPGSV,2,1,08,03,36,265,44,04,30,311,42,16,47,211,47,26,77,209,48*71
###2023-12-09 12:56:06.970447$GPGSV,2,2,08,28,51,068,44,29,25,064,41,31,70,031,47,32,21,139,45*76
###2023-12-09 12:56:06.972779$GLGSV,2,1,06,65,21,328,43,71,44,172,49,72,72,281,46,73,38,040,43*64
###2023-12-09 12:56:06.974526$GLGSV,2,2,06,74,71,327,43,75,30,250,46,,,,,,,,*63
###2023-12-09 12:56:06.976857$GAGSV,1,1,04,04,27,312,41,19,85,234,41,21,85,141,47,27,35,048,42*6D
###2023-12-09 12:56:06.979195$GBGSV,2,1,05,14,46,194,47,24,75,018,48,25,39,260,47,26,28,061,43*60
###2023-12-09 12:56:06.980646$GBGSV,2,2,05,33,59,237,48,,,,,,,,,,,,*58
###2023-12-09 12:56:06.981961$GNVTG,352.98,T,,M,0.56,N,1.04,K,A*20
###2023-12-09 12:56:06.983611$GNGST,175606.10,18.000,,,,0.077,0.067,0.160*5A
###2023-12-09 12:56:06.984903$GNZDA,175606.10,09,12,2023,00,00*73
###2023-12-09 12:56:06.985541$GNEBP,,,,,,M*13
###2023-12-09 12:56:07.155263$GNGGA,175606.30,4138.0425143,N,07032.3898700,W,1,24,0.6,13.190,M,-29.745,M,0.0,*54
###2023-12-09 12:56:07.356092$GNGGA,175606.50,4138.0425528,N,07032.3898638,W,1,24,0.6,13.182,M,-29.745,M,0.0,*52
###2023-12-09 12:56:07.555155$GNGGA,175606.70,4138.0425697,N,07032.3898432,W,1,24,0.6,13.175,M,-29.745,M,0.0,*57
###2023-12-09 12:56:07.755179$GNGGA,175606.90,4138.0425798,N,07032.3898223,W,1,24,0.6,13.181,M,-29.745,M,0.0,*5A
###2023-12-09 12:56:07.956894$GNRMC,175607.10,A,4138.0426075,N,07032.3898112,W,0.74,352.98,091223,,,A*5E
###2023-12-09 12:56:07.959786$GNGGA,175607.10,4138.0426075,N,07032.3898112,W,1,24,0.6,13.193,M,-29.745,M,0.0,*56
###2023-12-09 12:56:07.961650$GPGSA,A,3,03,04,16,26,28,29,31,32,,,,,1.1,0.6,0.9*3B
###2023-12-09 12:56:07.963371$GLGSA,A,3,65,71,72,73,74,75,,,,,,,1.1,0.6,0.9*24
###2023-12-09 12:56:07.964945$GAGSA,A,3,04,19,21,27,,,,,,,,,1.1,0.6,0.9*26
###2023-12-09 12:56:07.966592$GBGSA,A,3,14,24,25,26,33,,,,,,,,1.1,0.6,0.9*2F
###2023-12-09 12:56:07.968908$GPGSV,2,1,08,03,36,265,46,04,30,311,42,16,47,211,48,26,77,209,49*7D
###2023-12-09 12:56:07.971240$GPGSV,2,2,08,28,51,068,45,29,25,064,41,31,70,031,48,32,21,139,44*79
###2023-12-09 12:56:07.973556$GLGSV,2,1,06,65,21,328,43,71,44,172,48,72,72,281,46,73,38,040,44*62
###2023-12-09 12:56:07.975308$GLGSV,2,2,06,74,71,327,43,75,30,250,45,,,,,,,,*60
###2023-12-09 12:56:07.977621$GAGSV,1,1,04,04,27,312,41,19,85,234,41,21,85,141,47,27,35,048,42*6D
###2023-12-09 12:56:07.979957$GBGSV,2,1,05,14,46,194,46,24,75,018,49,25,39,260,48,26,28,061,43*6F
###2023-12-09 12:56:07.981405$GBGSV,2,2,05,33,59,237,47,,,,,,,,,,,,*57
###2023-12-09 12:56:07.982729$GNVTG,352.98,T,,M,0.74,N,1.37,K,A*20
###2023-12-09 12:56:07.984377$GNGST,175607.10,18.000,,,,0.076,0.066,0.150*58
###2023-12-09 12:56:07.985669$GNZDA,175607.10,09,12,2023,00,00*72
###2023-12-09 12:56:07.986305$GNEBP,,,,,,M*13
###2023-12-09 12:56:08.155290$GNGGA,175607.30,4138.0426464,N,07032.3898053,W,1,24,0.6,13.198,M,-29.745,M,0.0,*5F
###2023-12-09 12:56:08.355073$GNGGA,175607.50,4138.0426665,N,07032.3897893,W,1,24,0.6,13.192,M,-29.745,M,0.0,*5B
###2023-12-09 12:56:08.556008$GNGGA,175607.70,4138.0426737,N,07032.3897677,W,1,24,0.6,13.190,M,-29.745,M,0.0,*59
###2023-12-09 12:56:08.755357$GNGGA,175607.90,4138.0426925,N,07032.3897536,W,1,24,0.6,13.195,M,-29.745,M,0.0,*59
###2023-12-09 12:56:08.962921$GNRMC,175608.10,A,4138.0427283,N,07032.3897493,W,0.68,352.98,091223,,,A*55
###2023-12-09 12:56:08.965763$GNGGA,175608.10,4138.0427283,N,07032.3897493,W,1,24,0.6,13.199,M,-29.745,M,0.0,*5A
###2023-12-09 12:56:08.967633$GPGSA,A,3,03,04,16,26,28,29,31,32,,,,,1.1,0.6,0.9*3B
###2023-12-09 12:56:08.969350$GLGSA,A,3,65,71,72,73,74,75,,,,,,,1.1,0.6,0.9*24
###2023-12-09 12:56:08.970940$GAGSA,A,3,04,19,21,27,,,,,,,,,1.1,0.6,0.9*26
###2023-12-09 12:56:08.972594$GBGSA,A,3,14,24,25,26,33,,,,,,,,1.1,0.6,0.9*2F
###2023-12-09 12:56:08.974923$GPGSV,2,1,08,03,36,265,46,04,30,311,42,16,47,211,47,26,77,209,48*73
###2023-12-09 12:56:08.977244$GPGSV,2,2,08,28,51,068,43,29,25,064,41,31,70,031,47,32,21,139,42*76
###2023-12-09 12:56:08.979585$GLGSV,2,1,06,65,21,328,42,71,44,172,47,72,72,281,46,73,38,040,44*6C
###2023-12-09 12:56:08.981327$GLGSV,2,2,06,74,71,327,43,75,30,250,46,,,,,,,,*63
###2023-12-09 12:56:08.983651$GAGSV,1,1,04,04,27,312,42,19,85,234,41,21,85,141,47,27,35,048,40*6C
###2023-12-09 12:56:08.985972$GBGSV,2,1,05,14,46,194,46,24,75,018,48,25,39,260,47,26,28,061,43*61
###2023-12-09 12:56:08.987430$GBGSV,2,2,05,33,59,237,48,,,,,,,,,,,,*58
###2023-12-09 12:56:08.988749$GNVTG,352.98,T,,M,0.68,N,1.26,K,A*2D
###2023-12-09 12:56:08.990388$GNGST,175608.10,18.000,,,,0.076,0.066,0.150*57
###2023-12-09 12:56:08.991698$GNZDA,175608.10,09,12,2023,00,00*7D
###2023-12-09 12:56:08.992342$GNEBP,,,,,,M*13
###2023-12-09 12:56:09.156760$GNGGA,175608.30,4138.0427542,N,07032.3897383,W,1,24,0.6,13.198,M,-29.745,M,0.0,*55
###2023-12-09 12:56:09.356326$GNGGA,175608.50,4138.0427634,N,07032.3897183,W,1,24,0.6,13.207,M,-29.745,M,0.0,*56
###2023-12-09 12:56:09.556089$GNGGA,175608.70,4138.0427708,N,07032.3897006,W,1,24,0.6,13.206,M,-29.745,M,0.0,*57
###2023-12-09 12:56:09.757166$GNGGA,175608.90,4138.0427961,N,07032.3896934,W,1,24,0.6,13.205,M,-29.745,M,0.0,*52
###2023-12-09 12:56:09.957285$GNRMC,175609.10,A,4138.0428304,N,07032.3896871,W,0.60,352.98,091223,,,A*5C
###2023-12-09 12:56:09.960401$GNGGA,175609.10,4138.0428304,N,07032.3896871,W,1,24,0.6,13.206,M,-29.745,M,0.0,*5E
###2023-12-09 12:56:09.962269$GPGSA,A,3,03,04,16,26,28,29,31,32,,,,,1.1,0.6,0.9*3B
###2023-12-09 12:56:09.964010$GLGSA,A,3,65,71,72,73,74,75,,,,,,,1.1,0.6,0.9*24
###2023-12-09 12:56:09.965596$GAGSA,A,3,04,19,21,27,,,,,,,,,1.1,0.6,0.9*26
###2023-12-09 12:56:09.967251$GBGSA,A,3,14,24,25,26,33,,,,,,,,1.1,0.6,0.9*2F
###2023-12-09 12:56:09.969584$GPGSV,2,1,08,03,36,265,47,04,30,311,43,16,47,211,47,26,77,209,49*72
###2023-12-09 12:56:09.971932$GPGSV,2,2,08,28,51,068,44,29,25,064,42,31,70,031,47,32,21,139,44*74
###2023-12-09 12:56:09.974270$GLGSV,2,1,06,65,21,328,44,71,44,172,48,72,72,281,48,73,38,040,46*69
###2023-12-09 12:56:09.976029$GLGSV,2,2,06,74,71,327,44,75,30,250,47,,,,,,,,*65
###2023-12-09 12:56:09.978357$GAGSV,1,1,04,04,27,312,42,19,85,234,41,21,85,141,47,27,34,048,41*6C
