###2023-12-09 13:41:20.005465$GNGGA,184119.10,4138.0260010,N,07032.3911840,W,1,24,0.6,13.217,M,-29.745,M,0.0,*56
###2023-12-09 13:41:20.007302$GPGSA,A,3,04,16,26,27,28,29,31,,,,,,1.1,0.6,0.9*3C
###2023-12-09 13:41:20.009092$GLGSA,A,3,65,71,72,73,74,75,83,,,,,,1.1,0.6,0.9*2F
###2023-12-09 13:41:20.010700$GAGSA,A,3,04,19,21,27,,,,,,,,,1.1,0.6,0.9*26
###2023-12-09 13:41:20.012416$GBGSA,A,3,12,14,24,25,33,35,,,,,,,1.1,0.6,0.9*2E
###2023-12-09 13:41:20.014750$GPGSV,2,1,07,04,49,306,46,16,70,226,44,26,81,040,47,27,19,172,41*73
###2023-12-09 13:41:20.016790$GPGSV,2,2,07,28,36,087,41,29,19,045,43,31,58,070,46,,,,*44
###2023-12-09 13:41:20.019218$GLGSV,2,1,07,65,41,315,43,71,19,176,41,72,59,216,44,73,20,054,43*60
###2023-12-09 13:41:20.021262$GLGSV,2,2,07,74,57,019,42,75,45,276,46,83,16,044,35,,,,*55
###2023-12-09 13:41:20.023599$GAGSV,1,1,04,04,41,309,44,19,69,180,39,21,74,044,46,27,20,051,41*67
###2023-12-09 13:41:20.025932$GBGSV,2,1,06,12,17,124,39,14,26,189,37,24,60,049,46,25,53,279,46*63
###2023-12-09 13:41:20.027690$GBGSV,2,2,06,33,43,215,45,35,16,054,44,,,,,,,,*6D
###2023-12-09 13:41:20.029014$GNVTG,202.74,T,,M,1.73,N,3.20,K,A*24
###2023-12-09 13:41:20.030644$GNGST,184119.10,6.600,,,,0.110,0.097,0.220*6C
###2023-12-09 13:41:20.031940$GNZDA,184119.10,09,12,2023,00,00*74
###2023-12-09 13:41:20.032584$GNEBP,,,,,,M*13
###2023-12-09 13:41:20.198936$GNGGA,184119.30,4138.0259130,N,07032.3912415,W,1,24,0.6,13.198,M,-29.745,M,0.0,*56
###2023-12-09 13:41:20.397947$GNGGA,184119.50,4138.0258410,N,07032.3913359,W,1,24,0.6,13.190,M,-29.745,M,0.0,*50
###2023-12-09 13:41:20.598781$GNGGA,184119.70,4138.0257820,N,07032.3914465,W,1,24,0.6,13.201,M,-29.745,M,0.0,*56
###2023-12-09 13:41:20.798352$GNGGA,184119.90,4138.0257183,N,07032.3915514,W,1,24,0.6,13.199,M,-29.745,M,0.0,*5C
###2023-12-09 13:41:21.007914$GNRMC,184120.10,A,4138.0256394,N,07032.3916481,W,2.02,220.55,091223,,,A*51
###2023-12-09 13:41:21.010780$GNGGA,184120.10,4138.0256394,N,07032.3916481,W,1,24,0.6,13.197,M,-29.745,M,0.0,*5B
###2023-12-09 13:41:21.012572$GPGSA,A,3,04,16,26,27,28,29,31,,,,,,1.2,0.6,1.0*37
###2023-12-09 13:41:21.014351$GLGSA,A,3,65,71,72,73,74,75,83,,,,,,1.2,0.6,1.0*24
###2023-12-09 13:41:21.015946$GAGSA,A,3,04,19,21,27,,,,,,,,,1.2,0.6,1.0*2D
###2023-12-09 13:41:21.017656$GBGSA,A,3,12,14,24,25,33,35,,,,,,,1.2,0.6,1.0*25
###2023-12-09 13:41:21.019993$GPGSV,2,1,07,04,49,306,44,16,70,226,44,26,81,040,48,27,19,172,41*7E
###2023-12-09 13:41:21.022025$GPGSV,2,2,07,28,36,087,43,29,19,045,43,31,58,070,46,,,,*46
###2023-12-09 13:41:21.024367$GLGSV,2,1,07,65,41,315,43,71,19,176,42,72,59,216,44,73,20,054,44*64
###2023-12-09 13:41:21.026405$GLGSV,2,2,07,74,57,019,42,75,45,276,45,83,16,044,36,,,,*55
###2023-12-09 13:41:21.028740$GAGSV,1,1,04,04,41,309,44,19,69,180,40,21,74,044,47,27,20,051,41*68
###2023-12-09 13:41:21.031080$GBGSV,2,1,06,12,17,124,43,14,26,189,41,24,60,049,48,25,53,279,47*60
###2023-12-09 13:41:21.032827$GBGSV,2,2,06,33,43,215,47,35,16,054,45,,,,,,,,*6E
###2023-12-09 13:41:21.034151$GNVTG,220.55,T,,M,2.02,N,3.74,K,A*23
###2023-12-09 13:41:21.035793$GNGST,184120.10,5.900,,,,0.110,0.097,0.220*6A
###2023-12-09 13:41:21.037089$GNZDA,184120.10,09,12,2023,00,00*7E
###2023-12-09 13:41:21.037730$GNEBP,,,,,,M*13
###2023-12-09 13:41:21.207001$GNGGA,184120.30,4138.0255618,N,07032.3917570,W,1,24,0.6,13.193,M,-29.745,M,0.0,*51
###2023-12-09 13:41:21.397903$GNGGA,184120.50,4138.0255009,N,07032.3918851,W,1,24,0.6,13.203,M,-29.745,M,0.0,*5A
###2023-12-09 13:41:21.597545$GNGGA,184120.70,4138.0254564,N,07032.3920295,W,1,24,0.6,13.200,M,-29.745,M,0.0,*5D
###2023-12-09 13:41:21.799262$GNGGA,184120.90,4138.0254112,N,07032.3921744,W,1,24,0.6,13.199,M,-29.745,M,0.0,*5D
###2023-12-09 13:41:22.003906$GNRMC,184121.10,A,4138.0253632,N,07032.3923223,W,2.18,247.70,091223,,,A*59
###2023-12-09 13:41:22.006785$GNGGA,184121.10,4138.0253632,N,07032.3923223,W,1,23,0.6,13.191,M,-29.746,M,0.0,*5C
###2023-12-09 13:41:22.008577$GPGSA,A,3,04,16,26,27,28,29,31,,,,,,1.2,0.6,1.0*37
###2023-12-09 13:41:22.010294$GLGSA,A,3,65,71,72,73,74,75,,,,,,,1.2,0.6,1.0*2F
###2023-12-09 13:41:22.011891$GAGSA,A,3,04,19,21,27,,,,,,,,,1.2,0.6,1.0*2D
###2023-12-09 13:41:22.013611$GBGSA,A,3,12,14,24,25,33,35,,,,,,,1.2,0.6,1.0*25
###2023-12-09 13:41:22.015947$GPGSV,2,1,07,04,49,306,43,16,70,226,45,26,81,040,47,27,19,172,43*75
###2023-12-09 13:41:22.017976$GPGSV,2,2,07,28,36,087,44,29,19,045,40,31,58,070,46,,,,*42
###2023-12-09 13:41:22.020310$GLGSV,2,1,06,65,41,315,43,71,19,176,43,72,59,216,45,73,20,054,42*63
###2023-12-09 13:41:22.022056$GLGSV,2,2,06,74,57,019,43,75,45,276,44,,,,,,,,*6D
###2023-12-09 13:41:22.024385$GAGSV,1,1,04,04,41,309,43,19,69,180,41,21,74,044,46,27,20,051,39*60
###2023-12-09 13:41:22.026721$GBGSV,2,1,06,12,17,124,43,14,26,189,39,24,60,049,49,25,53,279,46*6F
###2023-12-09 13:41:22.028466$GBGSV,2,2,06,33,43,215,47,35,16,054,43,,,,,,,,*68
###2023-12-09 13:41:22.029794$GNVTG,247.70,T,,M,2.18,N,4.03,K,A*29
###2023-12-09 13:41:22.031418$GNGST,184121.10,6.300,,,,0.110,0.098,0.220*6D
###2023-12-09 13:41:22.032710$GNZDA,184121.10,09,12,2023,00,00*7F
###2023-12-09 13:41:22.033346$GNEBP,,,,,,M*13
###2023-12-09 13:41:22.200127$GNGGA,184121.30,4138.0253193,N,07032.3924771,W,1,23,0.7,13.178,M,-29.746,M,0.0,*51
###2023-12-09 13:41:22.400263$GNGGA,184121.50,4138.0252971,N,07032.3926352,W,1,23,0.6,13.173,M,-29.746,M,0.0,*5F
###2023-12-09 13:41:22.598388$GNGGA,184121.70,4138.0252924,N,07032.3927938,W,1,23,0.6,13.172,M,-29.746,M,0.0,*5B
###2023-12-09 13:41:22.799509$GNGGA,184121.90,4138.0252861,N,07032.3929530,W,1,23,0.6,13.175,M,-29.746,M,0.0,*58
###2023-12-09 13:41:23.006175$GNRMC,184122.10,A,4138.0252787,N,07032.3931134,W,2.18,266.51,091223,,,A*52
###2023-12-09 13:41:23.009055$GNGGA,184122.10,4138.0252787,N,07032.3931134,W,1,23,0.6,13.171,M,-29.746,M,0.0,*59
###2023-12-09 13:41:23.010860$GPGSA,A,3,04,16,26,27,28,29,31,,,,,,1.2,0.6,1.0*37
###2023-12-09 13:41:23.012575$GLGSA,A,3,65,71,72,73,74,75,,,,,,,1.2,0.6,1.0*2F
###2023-12-09 13:41:23.014160$GAGSA,A,3,04,19,21,27,,,,,,,,,1.2,0.6,1.0*2D
###2023-12-09 13:41:23.015886$GBGSA,A,3,12,14,24,25,33,35,,,,,,,1.2,0.6,1.0*25
###2023-12-09 13:41:23.018211$GPGSV,2,1,07,04,49,306,43,16,70,226,45,26,81,040,48,27,19,172,43*7A
###2023-12-09 13:41:23.020263$GPGSV,2,2,07,28,36,087,43,29,19,045,41,31,58,070,46,,,,*44
###2023-12-09 13:41:23.022595$GLGSV,2,1,06,65,41,315,43,71,19,176,41,72,59,216,45,73,20,054,42*61
###2023-12-09 13:41:23.024343$GLGSV,2,2,06,74,57,019,42,75,45,276,45,,,,,,,,*6D
###2023-12-09 13:41:23.026685$GAGSV,1,1,04,04,41,309,42,19,69,180,41,21,74,044,46,27,20,051,41*6E
###2023-12-09 13:41:23.029012$GBGSV,2,1,06,12,17,124,41,14,26,189,38,24,60,049,49,25,53,279,46*6C
###2023-12-09 13:41:23.030771$GBGSV,2,2,06,33,43,215,46,35,16,054,44,,,,,,,,*6E
###2023-12-09 13:41:23.032096$GNVTG,266.51,T,,M,2.18,N,4.03,K,A*29
###2023-12-09 13:41:23.033713$GNGST,184122.10,6.400,,,,0.110,0.098,0.220*69
###2023-12-09 13:41:23.035016$GNZDA,184122.10,09,12,2023,00,00*7C
###2023-12-09 13:41:23.035657$GNEBP,,,,,,M*13
###2023-12-09 13:41:23.198848$GNGGA,184122.30,4138.0252786,N,07032.3932763,W,1,23,0.7,13.166,M,-29.746,M,0.0,*5A
###2023-12-09 13:41:23.397904$GNGGA,184122.50,4138.0252947,N,07032.3934370,W,1,22,0.7,13.170,M,-29.746,M,0.0,*59
###2023-12-09 13:41:23.598750$GNGGA,184122.70,4138.0253268,N,07032.3935992,W,1,22,0.7,13.171,M,-29.746,M,0.0,*5A
###2023-12-09 13:41:23.796798$GNGGA,184122.90,4138.0253675,N,07032.3937584,W,1,22,0.7,13.168,M,-29.746,M,0.0,*5D
###2023-12-09 13:41:24.000713$GNRMC,184123.10,A,4138.0254102,N,07032.3939255,W,2.47,289.40,091223,,,A*59
###2023-12-09 13:41:24.003587$GNGGA,184123.10,4138.0254102,N,07032.3939255,W,1,22,0.7,13.166,M,-29.746,M,0.0,*5F
###2023-12-09 13:41:24.005381$GPGSA,A,3,04,16,26,27,28,29,31,,,,,,1.2,0.7,1.0*36
###2023-12-09 13:41:24.007108$GLGSA,A,3,65,71,72,73,74,75,,,,,,,1.2,0.7,1.0*2E
###2023-12-09 13:41:24.008697$GAGSA,A,3,04,19,21,27,,,,,,,,,1.2,0.7,1.0*2C
###2023-12-09 13:41:24.010342$GBGSA,A,3,12,24,25,33,35,,,,,,,,1.2,0.7,1.0*21
###2023-12-09 13:41:24.012686$GPGSV,2,1,07,04,49,306,43,16,70,226,47,26,81,040,49,27,19,172,41*7B
###2023-12-09 13:41:24.014747$GPGSV,2,2,07,28,36,087,44,29,19,045,42,31,58,070,47,,,,*41
###2023-12-09 13:41:24.017328$GLGSV,2,1,06,65,41,315,40,71,19,176,41,72,59,216,46,73,20,054,42*61
###2023-12-09 13:41:24.019102$GLGSV,2,2,06,74,57,019,42,75,45,276,45,,,,,,,,*6D
###2023-12-09 13:41:24.021435$GAGSV,1,1,04,04,41,309,41,19,69,180,41,21,74,044,46,27,20,051,39*62
###2023-12-09 13:41:24.023793$GBGSV,2,1,05,12,17,124,41,24,60,049,47,25,53,279,46,33,43,215,47*69
###2023-12-09 13:41:24.025253$GBGSV,2,2,05,35,16,054,41,,,,,,,,,,,,*5B
###2023-12-09 13:41:24.026597$GNVTG,289.40,T,,M,2.47,N,4.57,K,A*23
###2023-12-09 13:41:24.028221$GNGST,184123.10,5.700,,,,0.110,0.099,0.220*69
###2023-12-09 13:41:24.029522$GNZDA,184123.10,09,12,2023,00,00*7D
###2023-12-09 13:41:24.030166$GNEBP,,,,,,M*13
