###2023-12-09 13:10:27.000915$GNGST,181026.10,18.000,,,,0.099,0.071,0.170*53
###2023-12-09 13:10:27.002231$GNZDA,181026.10,09,12,2023,00,00*7C
###2023-12-09 13:10:27.002899$GNEBP,,,,,,M*13
###2023-12-09 13:10:27.172724$GNGGA,181026.30,4138.0255794,N,07032.2604935,W,1,24,0.7,12.927,M,-29.744,M,0.0,*51
###2023-12-09 13:10:27.369668$GNGGA,181026.50,4138.0253719,N,07032.2604927,W,1,24,0.7,12.909,M,-29.744,M,0.0,*5B
###2023-12-09 13:10:27.571043$GNGGA,181026.70,4138.0251691,N,07032.2605055,W,1,24,0.7,12.917,M,-29.744,M,0.0,*58
###2023-12-09 13:10:27.772067$GNGGA,181026.90,4138.0249656,N,07032.2605367,W,1,24,0.7,12.938,M,-29.744,M,0.0,*5B
###2023-12-09 13:10:27.972447$GNRMC,181027.10,A,4138.0247644,N,07032.2605434,W,3.65,178.05,091223,,,A*53
###2023-12-09 13:10:27.975910$GNGGA,181027.10,4138.0247644,N,07032.2605434,W,1,24,0.7,12.920,M,-29.744,M,0.0,*57
###2023-12-09 13:10:27.978058$GPGSA,A,3,03,04,16,26,28,29,31,,,,,,1.2,0.7,1.0*30
###2023-12-09 13:10:27.980130$GLGSA,A,3,65,71,72,73,74,75,,,,,,,1.2,0.7,1.0*2E
###2023-12-09 13:10:27.982047$GAGSA,A,3,04,19,21,27,,,,,,,,,1.2,0.7,1.0*2C
###2023-12-09 13:10:27.984114$GBGSA,A,3,14,24,25,26,33,35,,,,,,,1.2,0.7,1.0*23
###2023-12-09 13:10:27.986969$GPGSV,2,1,07,03,33,257,43,04,36,311,44,16,54,214,45,26,84,210,48*7C
###2023-12-09 13:10:27.989438$GPGSV,2,2,07,28,46,074,45,29,24,057,42,31,67,046,47,,,,*4F
###2023-12-09 13:10:27.992299$GLGSV,2,1,06,65,27,326,44,71,36,173,42,72,72,254,46,73,32,044,44*65
###2023-12-09 13:10:27.994414$GLGSV,2,2,06,74,68,348,43,75,35,257,46,,,,,,,,*60
###2023-12-09 13:10:27.997225$GAGSV,1,1,04,04,32,312,43,19,81,196,40,21,85,078,46,27,30,048,40*68
###2023-12-09 13:10:28.000053$GBGSV,2,1,06,14,39,192,42,24,71,031,49,25,43,265,47,26,24,064,43*67
###2023-12-09 13:10:28.002173$GBGSV,2,2,06,33,55,228,47,35,15,066,43,,,,,,,,*63
###2023-12-09 13:10:28.003813$GNVTG,178.05,T,,M,3.65,N,6.77,K,A*2E
###2023-12-09 13:10:28.005807$GNGST,181027.10,18.000,,,,0.099,0.071,0.170*52
###2023-12-09 13:10:28.007385$GNZDA,181027.10,09,12,2023,00,00*7D
###2023-12-09 13:10:28.008155$GNEBP,,,,,,M*13
###2023-12-09 13:10:28.169499$GNGGA,181027.30,4138.0245618,N,07032.2605393,W,1,24,0.7,12.908,M,-29.744,M,0.0,*5E
###2023-12-09 13:10:28.370615$GNGGA,181027.50,4138.0243570,N,07032.2605456,W,1,24,0.7,12.921,M,-29.744,M,0.0,*56
###2023-12-09 13:10:28.570892$GNGGA,181027.70,4138.0241500,N,07032.2605612,W,1,24,0.7,12.925,M,-29.744,M,0.0,*57
###2023-12-09 13:10:28.770250$GNGGA,181027.90,4138.0239455,N,07032.2605700,W,1,24,0.7,12.935,M,-29.744,M,0.0,*54
###2023-12-09 13:10:28.974742$GNRMC,181028.10,A,4138.0237390,N,07032.2605538,W,3.69,173.41,091223,,,A*5D
###2023-12-09 13:10:28.977602$GNGGA,181028.10,4138.0237390,N,07032.2605538,W,1,24,0.7,12.921,M,-29.744,M,0.0,*5F
###2023-12-09 13:10:28.979395$GPGSA,A,3,03,04,16,26,28,29,31,,,,,,1.2,0.7,1.0*30
###2023-12-09 13:10:28.981101$GLGSA,A,3,65,71,72,73,74,75,,,,,,,1.2,0.7,1.0*2E
###2023-12-09 13:10:28.982690$GAGSA,A,3,04,19,21,27,,,,,,,,,1.2,0.7,1.0*2C
###2023-12-09 13:10:28.984392$GBGSA,A,3,14,24,25,26,33,35,,,,,,,1.2,0.7,1.0*23
###2023-12-09 13:10:28.986720$GPGSV,2,1,07,03,33,257,43,04,36,311,45,16,54,214,45,26,84,210,48*7D
###2023-12-09 13:10:28.988756$GPGSV,2,2,07,28,46,074,45,29,24,057,42,31,67,046,48,,,,*40
###2023-12-09 13:10:28.991089$GLGSV,2,1,06,65,27,326,43,71,36,173,42,72,72,254,46,73,32,044,45*63
###2023-12-09 13:10:28.992828$GLGSV,2,2,06,74,68,348,44,75,35,257,46,,,,,,,,*67
###2023-12-09 13:10:28.995154$GAGSV,1,1,04,04,32,312,43,19,81,196,40,21,85,078,46,27,30,048,42*6A
###2023-12-09 13:10:28.997479$GBGSV,2,1,06,14,39,192,42,24,70,032,49,25,43,265,47,26,24,064,43*65
###2023-12-09 13:10:28.999239$GBGSV,2,2,06,33,55,228,47,35,15,066,43,,,,,,,,*63
###2023-12-09 13:10:29.000564$GNVTG,173.41,T,,M,3.69,N,6.84,K,A*25
###2023-12-09 13:10:29.002209$GNGST,181028.10,18.000,,,,0.099,0.070,0.170*5C
###2023-12-09 13:10:29.003513$GNZDA,181028.10,09,12,2023,00,00*72
###2023-12-09 13:10:29.004153$GNEBP,,,,,,M*13
###2023-12-09 13:10:29.171028$GNGGA,181028.30,4138.0235342,N,07032.2605386,W,1,24,0.7,12.912,M,-29.744,M,0.0,*53
###2023-12-09 13:10:29.370387$GNGGA,181028.50,4138.0233295,N,07032.2605604,W,1,24,0.7,12.934,M,-29.744,M,0.0,*53
###2023-12-09 13:10:29.571316$GNGGA,181028.70,4138.0231229,N,07032.2605713,W,1,24,0.7,12.932,M,-29.744,M,0.0,*55
###2023-12-09 13:10:29.769572$GNGGA,181028.90,4138.0229202,N,07032.2605565,W,1,24,0.7,12.919,M,-29.744,M,0.0,*51
###2023-12-09 13:10:29.971901$GNRMC,181029.10,A,4138.0227168,N,07032.2605610,W,3.75,183.87,091223,,,A*59
###2023-12-09 13:10:29.974782$GNGGA,181029.10,4138.0227168,N,07032.2605610,W,1,24,0.7,12.922,M,-29.744,M,0.0,*50
###2023-12-09 13:10:29.976576$GPGSA,A,3,03,04,16,26,28,29,31,,,,,,1.2,0.7,1.0*30
###2023-12-09 13:10:29.978283$GLGSA,A,3,65,71,72,73,74,75,,,,,,,1.2,0.7,1.0*2E
###2023-12-09 13:10:29.979883$GAGSA,A,3,04,19,21,27,,,,,,,,,1.2,0.7,1.0*2C
###2023-12-09 13:10:29.981590$GBGSA,A,3,14,24,25,26,33,35,,,,,,,1.2,0.7,1.0*23
###2023-12-09 13:10:29.983930$GPGSV,2,1,07,03,33,257,42,04,36,311,45,16,54,214,45,26,84,210,48*7C
###2023-12-09 13:10:29.985978$GPGSV,2,2,07,28,46,074,45,29,24,057,43,31,67,046,48,,,,*41
###2023-12-09 13:10:29.988316$GLGSV,2,1,06,65,27,326,43,71,36,173,43,72,72,254,46,73,32,044,45*62
###2023-12-09 13:10:29.990066$GLGSV,2,2,06,74,68,348,43,75,35,257,45,,,,,,,,*63
###2023-12-09 13:10:29.992406$GAGSV,1,1,04,04,32,312,43,19,81,196,40,21,85,078,46,27,30,048,41*69
###2023-12-09 13:10:29.994747$GBGSV,2,1,06,14,39,192,42,24,70,032,49,25,44,266,46,26,24,064,44*67
###2023-12-09 13:10:29.996493$GBGSV,2,2,06,33,55,228,47,35,15,066,44,,,,,,,,*64
###2023-12-09 13:10:29.997815$GNVTG,183.87,T,,M,3.75,N,6.95,K,A*2D
###2023-12-09 13:10:29.999472$GNGST,181029.10,18.000,,,,0.098,0.071,0.170*5D
###2023-12-09 13:10:30.000764$GNZDA,181029.10,09,12,2023,00,00*73
###2023-12-09 13:10:30.001405$GNEBP,,,,,,M*13
###2023-12-09 13:10:30.169710$GNGGA,181029.30,4138.0225131,N,07032.2605830,W,1,24,0.7,12.929,M,-29.744,M,0.0,*5B
###2023-12-09 13:10:30.371812$GNGGA,181029.50,4138.0223103,N,07032.2606022,W,1,24,0.7,12.931,M,-29.744,M,0.0,*5B
###2023-12-09 13:10:30.569581$GNGGA,181029.70,4138.0221078,N,07032.2606114,W,1,24,0.7,12.927,M,-29.744,M,0.0,*55
###2023-12-09 13:10:30.770311$GNGGA,181029.90,4138.0219116,N,07032.2606303,W,1,24,0.7,12.939,M,-29.744,M,0.0,*52
###2023-12-09 13:10:30.975922$GNRMC,181030.10,A,4138.0217094,N,07032.2606411,W,3.54,181.73,091223,,,A*5A
###2023-12-09 13:10:30.978823$GNGGA,181030.10,4138.0217094,N,07032.2606411,W,1,24,0.7,12.925,M,-29.744,M,0.0,*5E
###2023-12-09 13:10:30.980627$GPGSA,A,3,03,04,16,26,28,29,31,,,,,,1.2,0.7,1.0*30
###2023-12-09 13:10:30.982354$GLGSA,A,3,65,71,72,73,74,75,,,,,,,1.2,0.7,1.0*2E
###2023-12-09 13:10:30.983953$GAGSA,A,3,04,19,21,27,,,,,,,,,1.2,0.7,1.0*2C
###2023-12-09 13:10:30.985670$GBGSA,A,3,14,24,25,26,33,35,,,,,,,1.2,0.7,1.0*23
###2023-12-09 13:10:30.988019$GPGSV,2,1,07,03,33,257,42,04,36,311,45,16,54,214,45,26,84,210,48*7C
###2023-12-09 13:10:30.990066$GPGSV,2,2,07,28,46,074,45,29,24,057,42,31,67,046,48,,,,*40
###2023-12-09 13:10:30.992410$GLGSV,2,1,06,65,27,326,41,71,36,173,42,72,72,254,46,73,32,044,44*60
###2023-12-09 13:10:30.994166$GLGSV,2,2,06,74,68,348,43,75,35,257,46,,,,,,,,*60
###2023-12-09 13:10:30.996507$GAGSV,1,1,04,04,32,312,43,19,81,196,40,21,85,078,46,27,30,048,41*69
###2023-12-09 13:10:30.998851$GBGSV,2,1,06,14,39,192,42,24,70,032,49,25,44,266,47,26,23,065,44*60
###2023-12-09 13:10:31.000603$GBGSV,2,2,06,33,55,228,47,35,15,066,44,,,,,,,,*64
###2023-12-09 13:10:31.001928$GNVTG,181.73,T,,M,3.54,N,6.55,K,A*2B
###2023-12-09 13:10:31.003587$GNGST,181030.10,18.000,,,,0.099,0.071,0.170*54
###2023-12-09 13:10:31.004886$GNZDA,181030.10,09,12,2023,00,00*7B
###2023-12-09 13:10:31.005526$GNEBP,,,,,,M*13
###2023-12-09 13:10:31.168763$GNGGA,181030.30,4138.0215124,N,07032.2606531,W,1,24,0.7,12.920,M,-29.744,M,0.0,*52
###2023-12-09 13:10:31.370352$GNGGA,181030.50,4138.0213122,N,07032.2606766,W,1,24,0.7,12.937,M,-29.744,M,0.0,*52
###2023-12-09 13:10:31.569670$GNGGA,181030.70,4138.0211116,N,07032.2606781,W,1,24,0.7,12.925,M,-29.744,M,0.0,*5F
###2023-12-09 13:10:31.769671$GNGGA,181030.90,4138.0209148,N,07032.2606665,W,1,24,0.7,12.929,M,-29.744,M,0.0,*54
###2023-12-09 13:10:31.973187$GNRMC,181031.10,A,4138.0207161,N,07032.2606899,W,3.65,183.89,091223,,,A*58
###2023-12-09 13:10:31.976079$GNGGA,181031.10,4138.0207161,N,07032.2606899,W,1,24,0.7,12.948,M,-29.744,M,0.0,*52
###2023-12-09 13:10:31.977873$GPGSA,A,3,03,04,16,26,28,29,31,,,,,,1.2,0.7,1.0*30
###2023-12-09 13:10:31.979596$GLGSA,A,3,65,71,72,73,74,75,,,,,,,1.2,0.7,1.0*2E
###2023-12-09 13:10:31.981171$GAGSA,A,3,04,19,21,27,,,,,,,,,1.2,0.7,1.0*2C
###2023-12-09 13:10:31.982886$GBGSA,A,3,14,24,25,26,33,35,,,,,,,1.2,0.7,1.0*23
###2023-12-09 13:10:31.985212$GPGSV,2,1,07,03,33,257,42,04,36,311,45,16,54,214,45,26,84,210,47*73
###2023-12-09 13:10:31.987256$GPGSV,2,2,07,28,46,074,45,29,24,057,42,31,67,046,48,,,,*40
###2023-12-09 13:10:31.989585$GLGSV,2,1,06,65,27,326,43,71,36,173,42,72,72,254,46,73,32,044,45*63
