###2023-12-09 13:19:06.015189$GNZDA,181905.10,09,12,2023,00,00*74
###2023-12-09 13:19:06.015852$GNEBP,,,,,,M*13
###2023-12-09 13:19:06.181356$GNGGA,181905.30,4138.0622602,N,07032.3101006,W,1,24,0.7,13.248,M,-29.743,M,0.0,*5D
###2023-12-09 13:19:06.381228$GNGGA,181905.50,4138.0624648,N,07032.3101039,W,1,24,0.7,13.248,M,-29.743,M,0.0,*5F
###2023-12-09 13:19:06.582248$GNGGA,181905.70,4138.0626688,N,07032.3100989,W,1,24,0.7,13.245,M,-29.743,M,0.0,*5D
###2023-12-09 13:19:06.783586$GNGGA,181905.90,4138.0628731,N,07032.3100811,W,1,24,0.7,13.243,M,-29.743,M,0.0,*58
###2023-12-09 13:19:06.988758$GNRMC,181906.10,A,4138.0630746,N,07032.3100660,W,3.69,1.65,091223,,,A*5B
###2023-12-09 13:19:06.992228$GNGGA,181906.10,4138.0630746,N,07032.3100660,W,1,24,0.7,13.242,M,-29.743,M,0.0,*53
###2023-12-09 13:19:06.994398$GPGSA,A,3,03,04,16,26,28,29,31,,,,,,1.1,0.7,0.9*3B
###2023-12-09 13:19:06.996485$GLGSA,A,3,65,71,72,73,74,75,,,,,,,1.1,0.7,0.9*25
###2023-12-09 13:19:06.998404$GAGSA,A,3,04,19,21,27,,,,,,,,,1.1,0.7,0.9*27
###2023-12-09 13:19:07.000528$GBGSA,A,3,14,24,25,26,33,35,,,,,,,1.1,0.7,0.9*28
###2023-12-09 13:19:07.003357$GPGSV,2,1,07,03,31,253,44,04,40,310,44,16,58,216,47,26,88,205,48*79
###2023-12-09 13:19:07.005822$GPGSV,2,2,07,28,43,078,45,29,23,053,41,31,64,053,46,,,,*40
###2023-12-09 13:19:07.008677$GLGSV,2,1,06,65,32,324,40,71,31,174,45,72,69,237,47,73,28,047,41*63
###2023-12-09 13:19:07.010681$GLGSV,2,2,06,74,65,,41,75,38,262,47,,,,,,,,*5A
###2023-12-09 13:19:07.013477$GAGSV,1,1,04,04,35,311,43,19,78,188,41,21,82,058,46,27,27,049,39*68
###2023-12-09 13:19:07.016309$GBGSV,2,1,06,14,35,191,44,24,68,038,47,25,46,269,47,26,20,067,42*6E
###2023-12-09 13:19:07.018414$GBGSV,2,2,06,33,51,223,47,35,16,062,42,,,,,,,,*6A
###2023-12-09 13:19:07.019958$GNVTG,1.65,T,,M,3.69,N,6.84,K,A*27
###2023-12-09 13:19:07.021940$GNGST,181906.10,18.000,,,,0.100,0.071,0.170*59
###2023-12-09 13:19:07.023507$GNZDA,181906.10,09,12,2023,00,00*77
###2023-12-09 13:19:07.024276$GNEBP,,,,,,M*13
###2023-12-09 13:19:07.183118$GNGGA,181906.30,4138.0632765,N,07032.3100698,W,1,24,0.7,13.234,M,-29.743,M,0.0,*54
###2023-12-09 13:19:07.383583$GNGGA,181906.50,4138.0634752,N,07032.3100783,W,1,24,0.7,13.228,M,-29.743,M,0.0,*56
###2023-12-09 13:19:07.583519$GNGGA,181906.70,4138.0636747,N,07032.3100855,W,1,24,0.7,13.237,M,-29.743,M,0.0,*58
###2023-12-09 13:19:07.782678$GNGGA,181906.90,4138.0638779,N,07032.3100818,W,1,24,0.7,13.237,M,-29.743,M,0.0,*5C
###2023-12-09 13:19:07.988299$GNRMC,181907.10,A,4138.0640773,N,07032.3100976,W,3.62,353.43,091223,,,A*58
###2023-12-09 13:19:07.991175$GNGGA,181907.10,4138.0640773,N,07032.3100976,W,1,24,0.7,13.231,M,-29.743,M,0.0,*5F
###2023-12-09 13:19:07.992974$GPGSA,A,3,03,04,16,26,28,29,31,,,,,,1.1,0.7,0.9*3B
###2023-12-09 13:19:07.994690$GLGSA,A,3,65,71,72,73,74,75,,,,,,,1.1,0.7,0.9*25
###2023-12-09 13:19:07.996272$GAGSA,A,3,04,19,21,27,,,,,,,,,1.1,0.7,0.9*27
###2023-12-09 13:19:07.997978$GBGSA,A,3,14,24,25,26,33,35,,,,,,,1.1,0.7,0.9*28
###2023-12-09 13:19:08.000314$GPGSV,2,1,07,03,31,253,44,04,40,310,44,16,58,216,46,26,88,205,48*78
###2023-12-09 13:19:08.002351$GPGSV,2,2,07,28,43,078,45,29,23,053,42,31,64,053,46,,,,*43
###2023-12-09 13:19:08.004679$GLGSV,2,1,06,65,32,324,39,71,31,174,46,72,69,237,47,73,28,047,42*6D
###2023-12-09 13:19:08.006320$GLGSV,2,2,06,74,65,,41,75,38,262,47,,,,,,,,*5A
###2023-12-09 13:19:08.008677$GAGSV,1,1,04,04,35,311,43,19,78,188,41,21,82,058,46,27,27,049,40*66
###2023-12-09 13:19:08.011003$GBGSV,2,1,06,14,35,191,43,24,68,038,48,25,46,269,47,26,20,067,44*60
###2023-12-09 13:19:08.012737$GBGSV,2,2,06,33,51,223,48,35,16,062,43,,,,,,,,*64
###2023-12-09 13:19:08.014049$GNVTG,353.43,T,,M,3.62,N,6.70,K,A*27
###2023-12-09 13:19:08.015703$GNGST,181907.10,18.000,,,,0.100,0.070,0.170*59
###2023-12-09 13:19:08.016993$GNZDA,181907.10,09,12,2023,00,00*76
###2023-12-09 13:19:08.017628$GNEBP,,,,,,M*13
###2023-12-09 13:19:08.182817$GNGGA,181907.30,4138.0642735,N,07032.3101343,W,1,24,0.7,13.228,M,-29.743,M,0.0,*58
###2023-12-09 13:19:08.381854$GNGGA,181907.50,4138.0644682,N,07032.3101648,W,1,24,0.7,13.226,M,-29.743,M,0.0,*55
###2023-12-09 13:19:08.583132$GNGGA,181907.70,4138.0646647,N,07032.3101811,W,1,24,0.7,13.228,M,-29.743,M,0.0,*50
###2023-12-09 13:19:08.782274$GNGGA,181907.90,4138.0648585,N,07032.3102115,W,1,24,0.7,13.233,M,-29.743,M,0.0,*59
###2023-12-09 13:19:08.993354$GNRMC,181908.10,A,4138.0650514,N,07032.3102665,W,3.50,345.62,091223,,,A*5F
###2023-12-09 13:19:08.996256$GNGGA,181908.10,4138.0650514,N,07032.3102665,W,1,24,0.7,13.224,M,-29.743,M,0.0,*59
###2023-12-09 13:19:08.998059$GPGSA,A,3,03,04,16,26,28,29,31,,,,,,1.1,0.7,0.9*3B
###2023-12-09 13:19:08.999791$GLGSA,A,3,65,71,72,73,74,75,,,,,,,1.1,0.7,0.9*25
###2023-12-09 13:19:09.001380$GAGSA,A,3,04,19,21,27,,,,,,,,,1.1,0.7,0.9*27
###2023-12-09 13:19:09.003108$GBGSA,A,3,14,24,25,26,33,35,,,,,,,1.1,0.7,0.9*28
###2023-12-09 13:19:09.005427$GPGSV,2,1,07,03,31,253,42,04,40,310,44,16,58,216,46,26,88,205,48*7E
###2023-12-09 13:19:09.007475$GPGSV,2,2,07,28,43,078,47,29,23,053,42,31,64,053,47,,,,*40
###2023-12-09 13:19:09.009795$GLGSV,2,1,06,65,32,324,39,71,31,174,45,72,69,237,46,73,28,047,43*6E
###2023-12-09 13:19:09.011450$GLGSV,2,2,06,74,65,,41,75,38,262,46,,,,,,,,*5B
###2023-12-09 13:19:09.013770$GAGSV,1,1,04,04,35,311,42,19,78,188,41,21,82,058,46,27,27,049,41*66
###2023-12-09 13:19:09.016105$GBGSV,2,1,06,14,35,191,43,24,68,038,48,25,46,269,46,26,20,067,44*61
###2023-12-09 13:19:09.017850$GBGSV,2,2,06,33,51,223,47,35,16,062,43,,,,,,,,*6B
###2023-12-09 13:19:09.019184$GNVTG,345.62,T,,M,3.50,N,6.48,K,A*29
###2023-12-09 13:19:09.020824$GNGST,181908.10,18.000,,,,0.099,0.070,0.170*57
###2023-12-09 13:19:09.022110$GNZDA,181908.10,09,12,2023,00,00*79
###2023-12-09 13:19:09.022754$GNEBP,,,,,,M*13
###2023-12-09 13:19:09.184912$GNGGA,181908.30,4138.0652407,N,07032.3103347,W,1,24,0.7,13.227,M,-29.743,M,0.0,*5D
###2023-12-09 13:19:09.382240$GNGGA,181908.50,4138.0654367,N,07032.3103816,W,1,24,0.7,13.228,M,-29.743,M,0.0,*5C
###2023-12-09 13:19:09.583100$GNGGA,181908.70,4138.0656355,N,07032.3103949,W,1,24,0.7,13.234,M,-29.743,M,0.0,*5B
###2023-12-09 13:19:09.783163$GNGGA,181908.90,4138.0658336,N,07032.3104132,W,1,24,0.7,13.226,M,-29.743,M,0.0,*5E
###2023-12-09 13:19:09.983695$GNRMC,181909.10,A,4138.0660273,N,07032.3104459,W,3.58,352.47,091223,,,A*59
###2023-12-09 13:19:09.986558$GNGGA,181909.10,4138.0660273,N,07032.3104459,W,1,24,0.7,13.225,M,-29.743,M,0.0,*57
###2023-12-09 13:19:09.988367$GPGSA,A,3,03,04,16,26,28,29,31,,,,,,1.1,0.7,0.9*3B
###2023-12-09 13:19:09.990079$GLGSA,A,3,65,71,72,73,74,75,,,,,,,1.1,0.7,0.9*25
###2023-12-09 13:19:09.991671$GAGSA,A,3,04,19,21,27,,,,,,,,,1.1,0.7,0.9*27
###2023-12-09 13:19:09.993378$GBGSA,A,3,14,24,25,26,33,35,,,,,,,1.1,0.7,0.9*28
###2023-12-09 13:19:09.995718$GPGSV,2,1,07,03,31,253,42,04,40,310,43,16,58,216,46,26,88,205,48*79
###2023-12-09 13:19:09.997754$GPGSV,2,2,07,28,43,078,44,29,23,053,41,31,64,053,46,,,,*41
###2023-12-09 13:19:10.000087$GLGSV,2,1,06,65,32,324,41,71,31,174,46,72,69,237,46,73,28,047,42*63
###2023-12-09 13:19:10.001735$GLGSV,2,2,06,74,65,,41,75,38,262,46,,,,,,,,*5B
###2023-12-09 13:19:10.004113$GAGSV,1,1,04,04,35,311,42,19,78,188,40,21,82,058,45,27,27,049,40*65
###2023-12-09 13:19:10.006442$GBGSV,2,1,06,14,35,191,44,24,68,038,47,25,46,269,46,26,20,067,42*6F
###2023-12-09 13:19:10.008206$GBGSV,2,2,06,33,51,223,46,35,16,062,43,,,,,,,,*6A
###2023-12-09 13:19:10.009531$GNVTG,352.47,T,,M,3.58,N,6.62,K,A*28
###2023-12-09 13:19:10.011188$GNGST,181909.10,18.000,,,,0.099,0.070,0.170*56
###2023-12-09 13:19:10.012482$GNZDA,181909.10,09,12,2023,00,00*78
###2023-12-09 13:19:10.013119$GNEBP,,,,,,M*13
###2023-12-09 13:19:10.182003$GNGGA,181909.30,4138.0662213,N,07032.3104684,W,1,24,0.7,13.226,M,-29.743,M,0.0,*50
###2023-12-09 13:19:10.381170$GNGGA,181909.50,4138.0664168,N,07032.3104589,W,1,24,0.7,13.224,M,-29.743,M,0.0,*53
###2023-12-09 13:19:10.582126$GNGGA,181909.70,4138.0666129,N,07032.3104308,W,1,24,0.7,13.225,M,-29.743,M,0.0,*58
###2023-12-09 13:19:10.781928$GNGGA,181909.90,4138.0668036,N,07032.3104097,W,1,24,0.7,13.228,M,-29.743,M,0.0,*5F
###2023-12-09 13:19:10.985688$GNRMC,181910.10,A,4138.0669945,N,07032.3104048,W,3.44,0.84,091223,,,A*54
###2023-12-09 13:19:10.988804$GNGGA,181910.10,4138.0669945,N,07032.3104048,W,1,24,0.7,13.230,M,-29.743,M,0.0,*58
###2023-12-09 13:19:10.990621$GPGSA,A,3,03,04,16,26,28,29,31,,,,,,1.1,0.7,0.9*3B
###2023-12-09 13:19:10.992337$GLGSA,A,3,65,71,72,73,74,75,,,,,,,1.1,0.7,0.9*25
###2023-12-09 13:19:10.993916$GAGSA,A,3,04,19,21,27,,,,,,,,,1.1,0.7,0.9*27
###2023-12-09 13:19:10.995640$GBGSA,A,3,14,24,25,26,33,35,,,,,,,1.1,0.7,0.9*28
###2023-12-09 13:19:10.997965$GPGSV,2,1,07,03,31,253,43,04,40,310,44,16,58,216,47,26,88,205,48*7E
###2023-12-09 13:19:11.000014$GPGSV,2,2,07,28,43,078,44,29,23,053,40,31,64,053,46,,,,*40
###2023-12-09 13:19:11.002339$GLGSV,2,1,06,65,32,324,42,71,31,174,46,72,69,237,47,73,28,047,41*62
###2023-12-09 13:19:11.003993$GLGSV,2,2,06,74,65,,41,75,38,262,46,,,,,,,,*5B
