###2023-12-09 13:11:38.982736$GPGSA,A,3,03,04,16,26,28,29,31,,,,,,1.2,0.7,1.0*30
###2023-12-09 13:11:38.984468$GLGSA,A,3,65,71,72,73,74,75,,,,,,,1.2,0.7,1.0*2E
###2023-12-09 13:11:38.986052$GAGSA,A,3,04,19,21,27,,,,,,,,,1.2,0.7,1.0*2C
###2023-12-09 13:11:38.987781$GBGSA,A,3,14,24,25,26,33,35,,,,,,,1.2,0.7,1.0*23
###2023-12-09 13:11:38.990108$GPGSV,2,1,07,03,33,256,42,04,37,311,43,16,55,215,46,26,85,210,48*78
###2023-12-09 13:11:38.992167$GPGSV,2,2,07,28,46,075,45,29,24,056,42,31,66,048,47,,,,*40
###2023-12-09 13:11:38.994488$GLGSV,2,1,06,65,28,326,42,71,35,174,45,72,72,250,44,73,31,045,44*6B
###2023-12-09 13:11:38.996260$GLGSV,2,2,06,74,67,351,42,75,36,258,44,,,,,,,,*68
###2023-12-09 13:11:38.998594$GAGSV,1,1,04,04,32,312,42,19,81,195,40,21,84,075,46,27,30,048,41*67
###2023-12-09 13:11:39.000922$GBGSV,2,1,06,14,39,192,44,24,70,032,48,25,44,266,44,26,23,065,43*63
###2023-12-09 13:11:39.002685$GBGSV,2,2,06,33,54,227,46,35,15,065,44,,,,,,,,*68
###2023-12-09 13:11:39.004012$GNVTG,253.17,T,,M,2.86,N,5.29,K,A*23
###2023-12-09 13:11:39.005660$GNGST,181138.10,18.000,,,,0.097,0.073,0.170*51
###2023-12-09 13:11:39.006990$GNZDA,181138.10,09,12,2023,00,00*72
###2023-12-09 13:11:39.007633$GNEBP,,,,,,M*13
###2023-12-09 13:11:39.176207$GNGGA,181138.30,4138.0432332,N,07032.2791050,W,1,24,0.7,12.702,M,-29.743,M,0.0,*59
###2023-12-09 13:11:39.374363$GNGGA,181138.50,4138.0431747,N,07032.2792927,W,1,24,0.7,12.712,M,-29.743,M,0.0,*51
###2023-12-09 13:11:39.574296$GNGGA,181138.70,4138.0431040,N,07032.2794780,W,1,24,0.7,12.698,M,-29.743,M,0.0,*55
###2023-12-09 13:11:39.774202$GNGGA,181138.90,4138.0430391,N,07032.2796756,W,1,24,0.7,12.663,M,-29.743,M,0.0,*58
###2023-12-09 13:11:39.973544$GNRMC,181139.10,A,4138.0429986,N,07032.2798892,W,3.03,260.07,091223,,,A*5F
###2023-12-09 13:11:39.976412$GNGGA,181139.10,4138.0429986,N,07032.2798892,W,1,24,0.7,12.677,M,-29.743,M,0.0,*59
###2023-12-09 13:11:39.978199$GPGSA,A,3,03,04,16,26,28,29,31,,,,,,1.2,0.7,1.0*30
###2023-12-09 13:11:39.979921$GLGSA,A,3,65,71,72,73,74,75,,,,,,,1.2,0.7,1.0*2E
###2023-12-09 13:11:39.981501$GAGSA,A,3,04,19,21,27,,,,,,,,,1.2,0.7,1.0*2C
###2023-12-09 13:11:39.983223$GBGSA,A,3,14,24,25,26,33,35,,,,,,,1.2,0.7,1.0*23
###2023-12-09 13:11:39.985555$GPGSV,2,1,07,03,33,256,43,04,37,311,42,16,55,215,46,26,85,210,48*78
###2023-12-09 13:11:39.987606$GPGSV,2,2,07,28,46,075,44,29,24,056,43,31,66,048,47,,,,*40
###2023-12-09 13:11:39.989940$GLGSV,2,1,06,65,28,326,42,71,35,174,45,72,72,250,45,73,31,045,43*6D
###2023-12-09 13:11:39.991706$GLGSV,2,2,06,74,67,351,42,75,36,258,45,,,,,,,,*69
###2023-12-09 13:11:39.994030$GAGSV,1,1,04,04,32,312,41,19,81,195,40,21,84,075,46,27,30,048,40*65
###2023-12-09 13:11:39.996378$GBGSV,2,1,06,14,39,192,44,24,70,032,49,25,44,266,45,26,23,065,43*63
###2023-12-09 13:11:39.998129$GBGSV,2,2,06,33,54,227,47,35,15,065,45,,,,,,,,*68
###2023-12-09 13:11:39.999458$GNVTG,260.07,T,,M,3.03,N,5.62,K,A*21
###2023-12-09 13:11:40.001103$GNGST,181139.10,18.000,,,,0.097,0.073,0.170*50
###2023-12-09 13:11:40.002389$GNZDA,181139.10,09,12,2023,00,00*73
###2023-12-09 13:11:40.003040$GNEBP,,,,,,M*13
###2023-12-09 13:11:40.169983$GNGGA,181139.30,4138.0429686,N,07032.2801133,W,1,24,0.7,12.704,M,-29.743,M,0.0,*5C
###2023-12-09 13:11:40.371205$GNGGA,181139.50,4138.0429198,N,07032.2803307,W,1,24,0.7,12.707,M,-29.743,M,0.0,*56
###2023-12-09 13:11:40.573010$GNGGA,181139.70,4138.0428451,N,07032.2805411,W,1,24,0.7,12.672,M,-29.743,M,0.0,*50
###2023-12-09 13:11:40.771889$GNGGA,181139.90,4138.0427873,N,07032.2807628,W,1,24,0.7,12.659,M,-29.743,M,0.0,*5E
###2023-12-09 13:11:40.975048$GNRMC,181140.10,A,4138.0427600,N,07032.2810079,W,3.40,262.34,091223,,,A*59
###2023-12-09 13:11:40.977911$GNGGA,181140.10,4138.0427600,N,07032.2810079,W,1,24,0.7,12.692,M,-29.743,M,0.0,*51
###2023-12-09 13:11:40.979712$GPGSA,A,3,03,04,16,26,28,29,31,,,,,,1.2,0.7,1.0*30
###2023-12-09 13:11:40.981433$GLGSA,A,3,65,71,72,73,74,75,,,,,,,1.2,0.7,1.0*2E
###2023-12-09 13:11:40.983036$GAGSA,A,3,04,19,21,27,,,,,,,,,1.2,0.7,1.0*2C
###2023-12-09 13:11:40.984752$GBGSA,A,3,14,24,25,26,33,35,,,,,,,1.2,0.7,1.0*23
###2023-12-09 13:11:40.987102$GPGSV,2,1,07,03,33,256,41,04,37,311,42,16,55,215,45,26,85,210,48*79
###2023-12-09 13:11:40.989142$GPGSV,2,2,07,28,46,075,45,29,24,056,41,31,66,048,46,,,,*42
###2023-12-09 13:11:40.991482$GLGSV,2,1,06,65,28,326,42,71,35,174,44,72,72,250,45,73,31,045,46*69
###2023-12-09 13:11:40.993234$GLGSV,2,2,06,74,67,351,42,75,36,258,43,,,,,,,,*6F
###2023-12-09 13:11:40.995585$GAGSV,1,1,04,04,32,312,42,19,81,195,40,21,84,075,46,27,30,048,42*64
###2023-12-09 13:11:40.997921$GBGSV,2,1,06,14,39,192,44,24,70,032,49,25,44,266,45,26,23,065,43*63
###2023-12-09 13:11:40.999678$GBGSV,2,2,06,33,54,227,47,35,15,065,46,,,,,,,,*6B
###2023-12-09 13:11:41.001006$GNVTG,262.34,T,,M,3.40,N,6.30,K,A*20
###2023-12-09 13:11:41.002663$GNGST,181140.10,18.000,,,,0.097,0.072,0.170*5F
###2023-12-09 13:11:41.003953$GNZDA,181140.10,09,12,2023,00,00*7D
###2023-12-09 13:11:41.004592$GNEBP,,,,,,M*13
###2023-12-09 13:11:41.171063$GNGGA,181140.30,4138.0427095,N,07032.2812440,W,1,24,0.7,12.678,M,-29.743,M,0.0,*51
###2023-12-09 13:11:41.371282$GNGGA,181140.50,4138.0426186,N,07032.2814449,W,1,24,0.7,12.644,M,-29.743,M,0.0,*55
###2023-12-09 13:11:41.571914$GNGGA,181140.70,4138.0425501,N,07032.2816618,W,1,24,0.7,12.660,M,-29.743,M,0.0,*5D
###2023-12-09 13:11:41.771802$GNGGA,181140.90,4138.0425297,N,07032.2819161,W,1,24,0.7,12.703,M,-29.743,M,0.0,*59
###2023-12-09 13:11:41.978099$GNRMC,181141.10,A,4138.0424683,N,07032.2821556,W,3.36,238.31,091223,,,A*51
###2023-12-09 13:11:41.980998$GNGGA,181141.10,4138.0424683,N,07032.2821556,W,1,24,0.7,12.671,M,-29.743,M,0.0,*5F
###2023-12-09 13:11:41.982803$GPGSA,A,3,03,04,16,26,28,29,31,,,,,,1.2,0.7,1.0*30
###2023-12-09 13:11:41.984521$GLGSA,A,3,65,71,72,73,74,75,,,,,,,1.2,0.7,1.0*2E
###2023-12-09 13:11:41.986107$GAGSA,A,3,04,19,21,27,,,,,,,,,1.2,0.7,1.0*2C
###2023-12-09 13:11:41.987832$GBGSA,A,3,14,24,25,26,33,35,,,,,,,1.2,0.7,1.0*23
###2023-12-09 13:11:41.990156$GPGSV,2,1,07,03,33,256,41,04,37,311,44,16,55,215,45,26,85,210,47*70
###2023-12-09 13:11:41.992201$GPGSV,2,2,07,28,46,075,44,29,24,056,42,31,66,048,46,,,,*40
###2023-12-09 13:11:41.994531$GLGSV,2,1,06,65,28,326,43,71,35,174,45,72,72,250,45,73,31,045,44*6B
###2023-12-09 13:11:41.996287$GLGSV,2,2,06,74,67,351,42,75,36,258,44,,,,,,,,*68
###2023-12-09 13:11:41.998620$GAGSV,1,1,04,04,32,312,43,19,81,195,40,21,84,075,46,27,30,048,41*66
###2023-12-09 13:11:42.000954$GBGSV,2,1,06,14,39,192,45,24,70,032,49,25,44,266,46,26,23,065,43*61
###2023-12-09 13:11:42.002750$GBGSV,2,2,06,33,54,227,47,35,15,065,45,,,,,,,,*68
###2023-12-09 13:11:42.004083$GNVTG,238.31,T,,M,3.36,N,6.23,K,A*29
###2023-12-09 13:11:42.005733$GNGST,181141.10,18.000,,,,0.097,0.072,0.170*5E
###2023-12-09 13:11:42.007044$GNZDA,181141.10,09,12,2023,00,00*7C
###2023-12-09 13:11:42.007679$GNEBP,,,,,,M*13
###2023-12-09 13:11:42.170976$GNGGA,181141.30,4138.0423660,N,07032.2823477,W,1,24,0.7,12.631,M,-29.743,M,0.0,*53
###2023-12-09 13:11:42.372569$GNGGA,181141.50,4138.0423024,N,07032.2825739,W,1,24,0.7,12.672,M,-29.743,M,0.0,*5B
###2023-12-09 13:11:42.571549$GNGGA,181141.70,4138.0422676,N,07032.2828432,W,1,24,0.7,12.703,M,-29.743,M,0.0,*5B
###2023-12-09 13:11:42.772449$GNGGA,181141.90,4138.0421863,N,07032.2830671,W,1,24,0.7,12.674,M,-29.743,M,0.0,*51
###2023-12-09 13:11:42.975007$GNRMC,181142.10,A,4138.0420678,N,07032.2832473,W,3.30,230.71,091223,,,A*5C
###2023-12-09 13:11:42.978484$GNGGA,181142.10,4138.0420678,N,07032.2832473,W,1,24,0.7,12.645,M,-29.743,M,0.0,*5F
###2023-12-09 13:11:42.980660$GPGSA,A,3,03,04,16,26,28,29,31,,,,,,1.2,0.7,1.0*30
###2023-12-09 13:11:42.982750$GLGSA,A,3,65,71,72,73,74,75,,,,,,,1.2,0.7,1.0*2E
###2023-12-09 13:11:42.984669$GAGSA,A,3,04,19,21,27,,,,,,,,,1.2,0.7,1.0*2C
###2023-12-09 13:11:42.986754$GBGSA,A,3,14,24,25,26,33,35,,,,,,,1.2,0.7,1.0*23
###2023-12-09 13:11:42.989575$GPGSV,2,1,07,03,33,256,40,04,37,311,43,16,55,215,45,26,85,210,47*76
###2023-12-09 13:11:42.992059$GPGSV,2,2,07,28,46,075,45,29,24,056,42,31,66,048,46,,,,*41
###2023-12-09 13:11:42.994898$GLGSV,2,1,06,65,28,326,42,71,35,174,46,72,72,250,45,73,31,045,43*6E
###2023-12-09 13:11:42.997307$GLGSV,2,2,06,74,67,351,43,75,36,258,44,,,,,,,,*69
###2023-12-09 13:11:43.000139$GAGSV,1,1,04,04,32,312,42,19,81,195,40,21,84,075,46,27,30,048,40*66
###2023-12-09 13:11:43.003015$GBGSV,2,1,06,14,39,192,45,24,70,032,49,25,44,266,45,26,23,065,43*62
###2023-12-09 13:11:43.005141$GBGSV,2,2,06,33,54,227,46,35,15,065,45,,,,,,,,*69
###2023-12-09 13:11:43.006751$GNVTG,230.71,T,,M,3.30,N,6.12,K,A*21
###2023-12-09 13:11:43.008739$GNGST,181142.10,18.000,,,,0.097,0.072,0.170*5D
###2023-12-09 13:11:43.010299$GNZDA,181142.10,09,12,2023,00,00*7F
###2023-12-09 13:11:43.011091$GNEBP,,,,,,M*13
###2023-12-09 13:11:43.171662$GNGGA,181142.30,4138.0419727,N,07032.2834641,W,1,24,0.7,12.642,M,-29.743,M,0.0,*5E
