###2023-12-09 13:46:42.034321$GNGST,184641.10,7.300,,,,0.190,0.120,0.320*66
###2023-12-09 13:46:42.035672$GNZDA,184641.10,09,12,2023,00,00*7E
###2023-12-09 13:46:42.036326$GNEBP,,,,,,M*13
###2023-12-09 13:46:42.205043$GNGGA,184641.30,4138.0395088,N,07032.4386611,W,1,19,0.7,15.544,M,-29.746,M,0.0,*56
###2023-12-09 13:46:42.403673$GNGGA,184641.50,4138.0395090,N,07032.4386592,W,1,19,0.7,15.543,M,-29.746,M,0.0,*56
###2023-12-09 13:46:42.602941$GNGGA,184641.70,4138.0395079,N,07032.4386582,W,1,19,0.7,15.534,M,-29.746,M,0.0,*52
###2023-12-09 13:46:42.803404$GNGGA,184641.90,4138.0395093,N,07032.4386564,W,1,19,0.7,15.530,M,-29.746,M,0.0,*54
###2023-12-09 13:46:43.006416$GNRMC,184642.10,A,4138.0395108,N,07032.4386540,W,0.04,243.17,091223,,,A*54
###2023-12-09 13:46:43.009296$GNGGA,184642.10,4138.0395108,N,07032.4386540,W,1,19,0.7,15.531,M,-29.746,M,0.0,*5B
###2023-12-09 13:46:43.011043$GPGSA,A,3,04,16,26,28,29,31,,,,,,,1.3,0.7,1.1*33
###2023-12-09 13:46:43.012696$GLGSA,A,3,65,72,73,75,83,,,,,,,,1.3,0.7,1.1*20
###2023-12-09 13:46:43.014210$GAGSA,A,3,04,21,27,,,,,,,,,,1.3,0.7,1.1*24
###2023-12-09 13:46:43.015868$GBGSA,A,3,12,24,25,33,35,,,,,,,,1.3,0.7,1.1*21
###2023-12-09 13:46:43.018189$GPGSV,2,1,06,04,51,304,47,16,72,228,42,26,78,041,39,28,34,089,46*7E
###2023-12-09 13:46:43.019945$GPGSV,2,2,06,29,18,043,42,31,56,073,48,,,,,,,,*75
###2023-12-09 13:46:43.022265$GLGSV,2,1,05,65,43,312,45,72,57,214,39,73,18,056,37,75,47,279,46*69
###2023-12-09 13:46:43.023727$GLGSV,2,2,05,83,16,042,35,,,,,,,,,,,,*5C
###2023-12-09 13:46:43.025753$GAGSV,1,1,03,04,43,308,45,21,72,043,41,27,19,051,43,,,,*58
###2023-12-09 13:46:43.028086$GBGSV,2,1,05,12,19,122,42,24,58,052,48,25,54,282,41,33,40,213,36*6B
###2023-12-09 13:46:43.029533$GBGSV,2,2,05,35,16,051,37,,,,,,,,,,,,*5F
###2023-12-09 13:46:43.030863$GNVTG,243.17,T,,M,0.04,N,0.07,K,A*23
###2023-12-09 13:46:43.032473$GNGST,184642.10,7.400,,,,0.190,0.120,0.320*62
###2023-12-09 13:46:43.033762$GNZDA,184642.10,09,12,2023,00,00*7D
###2023-12-09 13:46:43.034399$GNEBP,,,,,,M*13
###2023-12-09 13:46:43.205215$GNGGA,184642.30,4138.0395100,N,07032.4386531,W,1,19,0.7,15.529,M,-29.746,M,0.0,*5E
###2023-12-09 13:46:43.405263$GNGGA,184642.50,4138.0395086,N,07032.4386528,W,1,19,0.7,15.523,M,-29.746,M,0.0,*55
###2023-12-09 13:46:43.603003$GNGGA,184642.70,4138.0395090,N,07032.4386519,W,1,19,0.7,15.522,M,-29.746,M,0.0,*53
###2023-12-09 13:46:43.803137$GNGGA,184642.90,4138.0395069,N,07032.4386507,W,1,19,0.7,15.523,M,-29.746,M,0.0,*55
###2023-12-09 13:46:44.009340$GNRMC,184643.10,A,4138.0395078,N,07032.4386490,W,0.06,243.17,091223,,,A*5D
###2023-12-09 13:46:44.012437$GNGGA,184643.10,4138.0395078,N,07032.4386490,W,1,19,0.7,15.523,M,-29.746,M,0.0,*53
###2023-12-09 13:46:44.014297$GPGSA,A,3,04,16,26,28,29,31,,,,,,,1.3,0.7,1.1*33
###2023-12-09 13:46:44.016060$GLGSA,A,3,65,72,73,75,83,,,,,,,,1.3,0.7,1.1*20
###2023-12-09 13:46:44.017580$GAGSA,A,3,04,21,27,,,,,,,,,,1.3,0.7,1.1*24
###2023-12-09 13:46:44.019236$GBGSA,A,3,12,24,25,33,35,,,,,,,,1.3,0.7,1.1*21
###2023-12-09 13:46:44.021555$GPGSV,2,1,06,04,51,304,48,16,72,228,41,26,78,041,39,28,34,089,46*72
###2023-12-09 13:46:44.023312$GPGSV,2,2,06,29,18,043,42,31,56,073,48,,,,,,,,*75
###2023-12-09 13:46:44.025632$GLGSV,2,1,05,65,43,312,45,72,57,214,39,73,18,056,37,75,47,279,46*69
###2023-12-09 13:46:44.027089$GLGSV,2,2,05,83,16,042,35,,,,,,,,,,,,*5C
###2023-12-09 13:46:44.029109$GAGSV,1,1,03,04,43,308,45,21,72,043,41,27,19,051,43,,,,*58
###2023-12-09 13:46:44.031441$GBGSV,2,1,05,12,19,122,42,24,58,052,48,25,54,282,42,33,40,213,36*68
###2023-12-09 13:46:44.032894$GBGSV,2,2,05,35,16,051,37,,,,,,,,,,,,*5F
###2023-12-09 13:46:44.034214$GNVTG,243.17,T,,M,0.06,N,0.11,K,A*26
###2023-12-09 13:46:44.035842$GNGST,184643.10,7.000,,,,0.190,0.120,0.320*67
###2023-12-09 13:46:44.037131$GNZDA,184643.10,09,12,2023,00,00*7C
###2023-12-09 13:46:44.037769$GNEBP,,,,,,M*13
###2023-12-09 13:46:44.204259$GNGGA,184643.30,4138.0395084,N,07032.4386486,W,1,18,0.7,15.516,M,-29.746,M,0.0,*52
###2023-12-09 13:46:44.404496$GNGGA,184643.50,4138.0395099,N,07032.4386456,W,1,18,0.7,15.513,M,-29.746,M,0.0,*50
###2023-12-09 13:46:44.603112$GNGGA,184643.70,4138.0395109,N,07032.4386432,W,1,18,0.7,15.512,M,-29.746,M,0.0,*59
###2023-12-09 13:46:44.803678$GNGGA,184643.90,4138.0395121,N,07032.4386425,W,1,18,0.7,15.506,M,-29.746,M,0.0,*5E
###2023-12-09 13:46:45.009116$GNRMC,184644.10,A,4138.0395145,N,07032.4386402,W,0.06,243.17,091223,,,A*5E
###2023-12-09 13:46:45.012001$GNGGA,184644.10,4138.0395145,N,07032.4386402,W,1,18,0.7,15.507,M,-29.746,M,0.0,*57
###2023-12-09 13:46:45.013742$GPGSA,A,3,04,16,26,28,29,31,,,,,,,1.4,0.7,1.1*34
###2023-12-09 13:46:45.015344$GLGSA,A,3,65,72,73,75,,,,,,,,,1.4,0.7,1.1*2C
###2023-12-09 13:46:45.016874$GAGSA,A,3,04,21,27,,,,,,,,,,1.4,0.7,1.1*23
###2023-12-09 13:46:45.018532$GBGSA,A,3,12,24,25,33,35,,,,,,,,1.4,0.7,1.1*26
###2023-12-09 13:46:45.020878$GPGSV,2,1,06,04,51,304,48,16,72,228,41,26,78,041,39,28,34,089,46*72
###2023-12-09 13:46:45.022647$GPGSV,2,2,06,29,18,043,42,31,56,073,48,,,,,,,,*75
###2023-12-09 13:46:45.024985$GLGSV,1,1,04,65,43,312,45,72,56,213,39,73,18,056,37,75,47,279,46*6D
###2023-12-09 13:46:45.027043$GAGSV,1,1,03,04,43,308,45,21,72,043,41,27,19,051,43,,,,*58
###2023-12-09 13:46:45.029380$GBGSV,2,1,05,12,19,122,42,24,58,052,48,25,54,282,42,33,40,213,36*68
###2023-12-09 13:46:45.030845$GBGSV,2,2,05,35,16,051,38,,,,,,,,,,,,*50
###2023-12-09 13:46:45.032166$GNVTG,243.17,T,,M,0.06,N,0.11,K,A*26
###2023-12-09 13:46:45.033784$GNGST,184644.10,6.500,,,,0.190,0.120,0.330*65
###2023-12-09 13:46:45.035091$GNZDA,184644.10,09,12,2023,00,00*7B
###2023-12-09 13:46:45.035732$GNEBP,,,,,,M*13
###2023-12-09 13:46:45.210474$GNGGA,184644.30,4138.0395150,N,07032.4386385,W,1,18,0.7,15.500,M,-29.746,M,0.0,*5E
###2023-12-09 13:46:45.404514$GNGGA,184644.50,4138.0395175,N,07032.4386361,W,1,18,0.7,15.501,M,-29.746,M,0.0,*54
###2023-12-09 13:46:45.603815$GNGGA,184644.70,4138.0395175,N,07032.4386344,W,1,18,0.7,15.501,M,-29.746,M,0.0,*51
###2023-12-09 13:46:45.803213$GNGGA,184644.90,4138.0395196,N,07032.4386316,W,1,18,0.7,15.502,M,-29.746,M,0.0,*56
###2023-12-09 13:46:46.008281$GNRMC,184645.10,A,4138.0395198,N,07032.4386309,W,0.02,243.17,091223,,,A*57
###2023-12-09 13:46:46.011163$GNGGA,184645.10,4138.0395198,N,07032.4386309,W,1,18,0.7,15.499,M,-29.746,M,0.0,*5C
###2023-12-09 13:46:46.012898$GPGSA,A,3,04,16,26,28,29,31,,,,,,,1.3,0.7,1.1*33
###2023-12-09 13:46:46.014481$GLGSA,A,3,65,72,73,75,,,,,,,,,1.3,0.7,1.1*2B
###2023-12-09 13:46:46.016013$GAGSA,A,3,04,21,27,,,,,,,,,,1.3,0.7,1.1*24
###2023-12-09 13:46:46.017657$GBGSA,A,3,12,24,25,33,35,,,,,,,,1.3,0.7,1.1*21
###2023-12-09 13:46:46.019991$GPGSV,2,1,06,04,51,304,48,16,72,228,41,26,78,041,39,28,34,089,46*72
###2023-12-09 13:46:46.021742$GPGSV,2,2,06,29,18,043,42,31,56,073,48,,,,,,,,*75
###2023-12-09 13:46:46.024090$GLGSV,1,1,04,65,43,312,45,72,56,213,39,73,17,056,37,75,47,279,46*62
###2023-12-09 13:46:46.026129$GAGSV,1,1,03,04,43,308,45,21,72,043,41,27,19,051,43,,,,*58
###2023-12-09 13:46:46.028465$GBGSV,2,1,05,12,19,122,41,24,58,052,47,25,54,282,41,33,40,213,35*64
###2023-12-09 13:46:46.029918$GBGSV,2,2,05,35,16,051,37,,,,,,,,,,,,*5F
###2023-12-09 13:46:46.031248$GNVTG,243.17,T,,M,0.02,N,0.04,K,A*26
###2023-12-09 13:46:46.032863$GNGST,184645.10,7.000,,,,0.190,0.120,0.330*60
###2023-12-09 13:46:46.034155$GNZDA,184645.10,09,12,2023,00,00*7A
###2023-12-09 13:46:46.034810$GNEBP,,,,,,M*13
###2023-12-09 13:46:46.204676$GNGGA,184645.30,4138.0395201,N,07032.4386297,W,1,18,0.7,15.493,M,-29.746,M,0.0,*51
###2023-12-09 13:46:46.404638$GNGGA,184645.50,4138.0395187,N,07032.4386287,W,1,18,0.7,15.492,M,-29.746,M,0.0,*5A
###2023-12-09 13:46:46.602837$GNGGA,184645.70,4138.0395173,N,07032.4386275,W,1,18,0.7,15.490,M,-29.746,M,0.0,*5C
###2023-12-09 13:46:46.803246$GNGGA,184645.90,4138.0395193,N,07032.4386258,W,1,18,0.7,15.493,M,-29.746,M,0.0,*50
###2023-12-09 13:46:47.009552$GNRMC,184646.10,A,4138.0395204,N,07032.4386250,W,0.02,243.17,091223,,,A*5F
###2023-12-09 13:46:47.012643$GNGGA,184646.10,4138.0395204,N,07032.4386250,W,1,18,0.7,15.487,M,-29.746,M,0.0,*5B
###2023-12-09 13:46:47.014472$GPGSA,A,3,04,16,26,28,29,31,,,,,,,1.3,0.7,1.1*33
###2023-12-09 13:46:47.016334$GLGSA,A,3,65,72,73,75,,,,,,,,,1.3,0.7,1.1*2B
###2023-12-09 13:46:47.017873$GAGSA,A,3,04,21,27,,,,,,,,,,1.3,0.7,1.1*24
###2023-12-09 13:46:47.019543$GBGSA,A,3,12,24,25,33,35,,,,,,,,1.3,0.7,1.1*21
###2023-12-09 13:46:47.021883$GPGSV,2,1,06,04,51,304,48,16,72,228,41,26,78,041,39,28,34,089,46*72
###2023-12-09 13:46:47.023651$GPGSV,2,2,06,29,18,043,42,31,56,073,48,,,,,,,,*75
###2023-12-09 13:46:47.025990$GLGSV,1,1,04,65,43,312,45,72,56,213,39,73,17,056,37,75,47,279,46*62
###2023-12-09 13:46:47.028052$GAGSV,1,1,03,04,43,308,45,21,72,043,41,27,19,051,43,,,,*58
###2023-12-09 13:46:47.030395$GBGSV,2,1,05,12,19,122,42,24,58,052,48,25,54,282,42,33,40,213,36*68
