###2023-12-09 13:21:57.997145$GLGSA,A,3,65,71,72,73,74,75,,,,,,,1.1,0.7,0.9*25
###2023-12-09 13:21:57.999121$GAGSA,A,3,04,19,21,27,,,,,,,,,1.1,0.7,0.9*27
###2023-12-09 13:21:58.001202$GBGSA,A,3,14,24,25,26,33,35,,,,,,,1.1,0.7,0.9*28
###2023-12-09 13:21:58.004055$GPGSV,2,1,07,03,30,252,42,04,41,310,45,16,60,218,46,26,90,099,48*75
###2023-12-09 13:21:58.006583$GPGSV,2,2,07,28,42,080,43,29,23,052,39,31,63,057,46,,,,*4D
###2023-12-09 13:21:58.009410$GLGSV,2,1,06,65,33,323,42,71,30,174,42,72,69,234,47,73,27,048,39*6D
###2023-12-09 13:21:58.011554$GLGSV,2,2,06,74,64,002,41,75,39,263,46,,,,,,,,*68
###2023-12-09 13:21:58.014354$GAGSV,1,1,04,04,36,311,43,19,77,186,41,21,81,055,45,27,27,049,38*66
###2023-12-09 13:21:58.017181$GBGSV,2,1,06,14,35,191,43,24,67,039,47,25,47,270,47,26,20,067,40*6C
###2023-12-09 13:21:58.019305$GBGSV,2,2,06,33,51,222,47,35,16,062,40,,,,,,,,*69
###2023-12-09 13:21:58.020911$GNVTG,357.68,T,,M,3.54,N,6.55,K,A*28
###2023-12-09 13:21:58.022925$GNGST,182157.10,18.000,,,,0.100,0.071,0.170*56
###2023-12-09 13:21:58.024494$GNZDA,182157.10,09,12,2023,00,00*78
###2023-12-09 13:21:58.025266$GNEBP,,,,,,M*13
###2023-12-09 13:21:58.184511$GNGGA,182157.30,4138.0692163,N,07032.3436630,W,1,24,0.7,13.021,M,-29.743,M,0.0,*55
###2023-12-09 13:21:58.385954$GNGGA,182157.50,4138.0693963,N,07032.3436129,W,1,24,0.7,13.025,M,-29.743,M,0.0,*51
###2023-12-09 13:21:58.585554$GNGGA,182157.70,4138.0695731,N,07032.3435472,W,1,24,0.7,13.023,M,-29.743,M,0.0,*52
###2023-12-09 13:21:58.784259$GNGGA,182157.90,4138.0697440,N,07032.3434650,W,1,24,0.7,13.013,M,-29.743,M,0.0,*5B
###2023-12-09 13:21:58.991894$GNRMC,182158.10,A,4138.0699204,N,07032.3433965,W,3.36,14.27,091223,,,A*6C
###2023-12-09 13:21:58.995367$GNGGA,182158.10,4138.0699204,N,07032.3433965,W,1,24,0.7,13.015,M,-29.743,M,0.0,*5C
###2023-12-09 13:21:58.997558$GPGSA,A,3,03,04,16,26,28,29,31,,,,,,1.1,0.7,0.9*3B
###2023-12-09 13:21:58.999644$GLGSA,A,3,65,71,72,73,74,75,,,,,,,1.1,0.7,0.9*25
###2023-12-09 13:21:59.001546$GAGSA,A,3,04,19,21,27,,,,,,,,,1.1,0.7,0.9*27
###2023-12-09 13:21:59.003634$GBGSA,A,3,14,24,25,26,33,35,,,,,,,1.1,0.7,0.9*28
###2023-12-09 13:21:59.006444$GPGSV,2,1,07,03,30,252,42,04,41,310,43,16,60,218,46,26,90,099,48*73
###2023-12-09 13:21:59.008906$GPGSV,2,2,07,28,42,080,44,29,23,052,39,31,63,057,46,,,,*4A
###2023-12-09 13:21:59.011714$GLGSV,2,1,06,65,33,323,41,71,30,174,44,72,69,234,46,73,27,048,40*67
###2023-12-09 13:21:59.013812$GLGSV,2,2,06,74,64,002,41,75,39,263,47,,,,,,,,*69
###2023-12-09 13:21:59.016638$GAGSV,1,1,04,04,36,311,42,19,77,186,41,21,81,055,45,27,27,049,38*67
###2023-12-09 13:21:59.019452$GBGSV,2,1,06,14,35,191,43,24,67,039,47,25,47,270,46,26,20,067,41*6C
###2023-12-09 13:21:59.021554$GBGSV,2,2,06,33,51,222,47,35,16,062,42,,,,,,,,*6B
###2023-12-09 13:21:59.023120$GNVTG,14.27,T,,M,3.36,N,6.23,K,A*12
###2023-12-09 13:21:59.025114$GNGST,182158.10,18.000,,,,0.100,0.072,0.170*5A
###2023-12-09 13:21:59.026689$GNZDA,182158.10,09,12,2023,00,00*77
###2023-12-09 13:21:59.027459$GNEBP,,,,,,M*13
###2023-12-09 13:21:59.183474$GNGGA,182158.30,4138.0701019,N,07032.3433368,W,1,24,0.7,13.030,M,-29.743,M,0.0,*50
###2023-12-09 13:21:59.383855$GNGGA,182158.50,4138.0702848,N,07032.3432562,W,1,24,0.7,13.049,M,-29.743,M,0.0,*5A
###2023-12-09 13:21:59.586522$GNGGA,182158.70,4138.0704692,N,07032.3431498,W,1,24,0.7,13.046,M,-29.743,M,0.0,*5F
###2023-12-09 13:21:59.784411$GNGGA,182158.90,4138.0706596,N,07032.3430671,W,1,24,0.7,13.035,M,-29.743,M,0.0,*54
###2023-12-09 13:21:59.987509$GNRMC,182159.10,A,4138.0708599,N,07032.3430221,W,3.67,11.60,091223,,,A*6D
###2023-12-09 13:21:59.991000$GNGGA,182159.10,4138.0708599,N,07032.3430221,W,1,24,0.7,13.043,M,-29.743,M,0.0,*5C
###2023-12-09 13:21:59.993175$GPGSA,A,3,03,04,16,26,28,29,31,,,,,,1.1,0.7,0.9*3B
###2023-12-09 13:21:59.995275$GLGSA,A,3,65,71,72,73,74,75,,,,,,,1.1,0.7,0.9*25
###2023-12-09 13:21:59.997185$GAGSA,A,3,04,19,21,27,,,,,,,,,1.1,0.7,0.9*27
###2023-12-09 13:21:59.999262$GBGSA,A,3,14,24,25,26,33,35,,,,,,,1.1,0.7,0.9*28
###2023-12-09 13:22:00.002069$GPGSV,2,1,07,03,30,252,41,04,41,310,43,16,60,218,46,26,90,099,48*70
###2023-12-09 13:22:00.004539$GPGSV,2,2,07,28,42,080,44,29,23,052,39,31,63,057,46,,,,*4A
###2023-12-09 13:22:00.007392$GLGSV,2,1,06,65,33,323,42,71,30,174,44,72,69,234,46,73,27,048,38*6B
###2023-12-09 13:22:00.009513$GLGSV,2,2,06,74,64,002,41,75,39,263,48,,,,,,,,*66
###2023-12-09 13:22:00.012337$GAGSV,1,1,04,04,36,311,43,19,77,186,41,21,81,054,46,27,27,049,37*6B
###2023-12-09 13:22:00.015167$GBGSV,2,1,06,14,35,191,43,24,67,039,47,25,47,270,46,26,20,067,40*6D
###2023-12-09 13:22:00.017277$GBGSV,2,2,06,33,51,222,47,35,16,062,42,,,,,,,,*6B
###2023-12-09 13:22:00.018854$GNVTG,11.60,T,,M,3.67,N,6.80,K,A*19
###2023-12-09 13:22:00.020838$GNGST,182159.10,18.000,,,,0.100,0.072,0.170*5B
###2023-12-09 13:22:00.022393$GNZDA,182159.10,09,12,2023,00,00*76
###2023-12-09 13:22:00.023173$GNEBP,,,,,,M*13
###2023-12-09 13:22:00.185690$GNGGA,182159.30,4138.0710574,N,07032.3429442,W,1,24,0.7,13.042,M,-29.743,M,0.0,*5E
###2023-12-09 13:22:00.384205$GNGGA,182159.50,4138.0712496,N,07032.3428393,W,1,24,0.7,13.037,M,-29.743,M,0.0,*5F
###2023-12-09 13:22:00.583703$GNGGA,182159.70,4138.0714453,N,07032.3427481,W,1,24,0.7,13.037,M,-29.743,M,0.0,*59
###2023-12-09 13:22:00.785986$GNGGA,182159.90,4138.0716445,N,07032.3426912,W,1,24,0.7,13.038,M,-29.743,M,0.0,*5B
###2023-12-09 13:22:00.988862$GNRMC,182200.10,A,4138.0718445,N,07032.3426269,W,3.71,16.23,091223,,,A*6F
###2023-12-09 13:22:00.992333$GNGGA,182200.10,4138.0718445,N,07032.3426269,W,1,24,0.7,13.036,M,-29.743,M,0.0,*5B
###2023-12-09 13:22:00.994499$GPGSA,A,3,03,04,16,26,28,29,31,,,,,,1.1,0.7,0.9*3B
###2023-12-09 13:22:00.996582$GLGSA,A,3,65,71,72,73,74,75,,,,,,,1.1,0.7,0.9*25
###2023-12-09 13:22:00.998518$GAGSA,A,3,04,19,21,27,,,,,,,,,1.1,0.7,0.9*27
###2023-12-09 13:22:01.000587$GBGSA,A,3,14,24,25,26,33,35,,,,,,,1.1,0.7,0.9*28
###2023-12-09 13:22:01.003409$GPGSV,2,1,07,03,30,252,41,04,41,310,44,16,60,218,46,26,90,099,48*77
###2023-12-09 13:22:01.005859$GPGSV,2,2,07,28,42,080,44,29,23,052,39,31,63,057,46,,,,*4A
###2023-12-09 13:22:01.008662$GLGSV,2,1,06,65,33,323,42,71,30,174,43,72,69,234,46,73,27,048,39*6D
###2023-12-09 13:22:01.010777$GLGSV,2,2,06,74,64,002,41,75,39,263,47,,,,,,,,*69
###2023-12-09 13:22:01.013572$GAGSV,1,1,04,04,36,311,44,19,77,186,41,21,81,054,46,27,27,049,38*63
###2023-12-09 13:22:01.016392$GBGSV,2,1,06,14,35,191,43,24,67,039,46,25,47,270,47,26,20,067,40*6D
###2023-12-09 13:22:01.018490$GBGSV,2,2,06,33,51,222,46,35,16,062,40,,,,,,,,*68
###2023-12-09 13:22:01.020048$GNVTG,16.23,T,,M,3.71,N,6.88,K,A*16
###2023-12-09 13:22:01.022028$GNGST,182200.10,18.000,,,,0.100,0.072,0.170*54
###2023-12-09 13:22:01.023594$GNZDA,182200.10,09,12,2023,00,00*79
###2023-12-09 13:22:01.024366$GNEBP,,,,,,M*13
###2023-12-09 13:22:01.183960$GNGGA,182200.30,4138.0720405,N,07032.3425406,W,1,24,0.7,13.023,M,-29.743,M,0.0,*5E
###2023-12-09 13:22:01.384791$GNGGA,182200.50,4138.0722352,N,07032.3424575,W,1,24,0.7,13.025,M,-29.743,M,0.0,*5D
###2023-12-09 13:22:01.584458$GNGGA,182200.70,4138.0724313,N,07032.3423929,W,1,24,0.7,13.032,M,-29.743,M,0.0,*58
###2023-12-09 13:22:01.783468$GNGGA,182200.90,4138.0726273,N,07032.3423314,W,1,24,0.7,13.022,M,-29.743,M,0.0,*56
###2023-12-09 13:22:01.988863$GNRMC,182201.10,A,4138.0728248,N,07032.3422705,W,3.63,13.52,091223,,,A*6D
###2023-12-09 13:22:01.991750$GNGGA,182201.10,4138.0728248,N,07032.3422705,W,1,24,0.7,13.016,M,-29.743,M,0.0,*5B
###2023-12-09 13:22:01.993549$GPGSA,A,3,03,04,16,26,28,29,31,,,,,,1.1,0.7,0.9*3B
###2023-12-09 13:22:01.995283$GLGSA,A,3,65,71,72,73,74,75,,,,,,,1.1,0.7,0.9*25
###2023-12-09 13:22:01.996872$GAGSA,A,3,04,19,21,27,,,,,,,,,1.1,0.7,0.9*27
###2023-12-09 13:22:01.998597$GBGSA,A,3,14,24,25,26,33,35,,,,,,,1.1,0.7,0.9*28
###2023-12-09 13:22:02.000926$GPGSV,2,1,07,03,30,252,42,04,41,310,46,16,60,218,47,26,90,099,48*77
###2023-12-09 13:22:02.002979$GPGSV,2,2,07,28,42,080,44,29,23,052,39,31,63,057,45,,,,*49
###2023-12-09 13:22:02.005304$GLGSV,2,1,06,65,33,323,42,71,30,174,42,72,69,234,46,73,27,048,39*6C
###2023-12-09 13:22:02.007066$GLGSV,2,2,06,74,64,002,41,75,39,263,47,,,,,,,,*69
###2023-12-09 13:22:02.009641$GAGSV,1,1,04,04,36,311,44,19,77,186,41,21,81,054,46,27,27,049,38*63
###2023-12-09 13:22:02.011998$GBGSV,2,1,06,14,35,191,43,24,67,039,47,25,47,270,47,26,20,067,42*6E
###2023-12-09 13:22:02.013759$GBGSV,2,2,06,33,51,222,47,35,16,062,40,,,,,,,,*69
###2023-12-09 13:22:02.015063$GNVTG,13.52,T,,M,3.63,N,6.73,K,A*12
###2023-12-09 13:22:02.016708$GNGST,182201.10,18.000,,,,0.100,0.072,0.170*55
###2023-12-09 13:22:02.017992$GNZDA,182201.10,09,12,2023,00,00*78
###2023-12-09 13:22:02.018638$GNEBP,,,,,,M*13
###2023-12-09 13:22:02.185504$GNGGA,182201.30,4138.0730204,N,07032.3422123,W,1,24,0.7,13.014,M,-29.743,M,0.0,*58
###2023-12-09 13:22:02.383763$GNGGA,182201.50,4138.0732156,N,07032.3421605,W,1,24,0.7,13.009,M,-29.743,M,0.0,*54
