###2023-12-09 13:22:12.010728$GLGSV,2,2,06,74,64,002,42,75,39,263,44,,,,,,,,*69
###2023-12-09 13:22:12.013541$GAGSV,1,1,04,04,36,311,41,19,77,186,40,21,81,054,46,27,26,049,39*67
###2023-12-09 13:22:12.016368$GBGSV,2,1,06,14,35,191,42,24,67,039,48,25,47,270,43,26,20,067,43*65
###2023-12-09 13:22:12.018477$GBGSV,2,2,06,33,51,222,47,35,16,062,43,,,,,,,,*6A
###2023-12-09 13:22:12.020095$GNVTG,273.46,T,,M,2.99,N,5.54,K,A*21
###2023-12-09 13:22:12.022113$GNGST,182211.10,18.000,,,,0.100,0.073,0.170*55
###2023-12-09 13:22:12.023687$GNZDA,182211.10,09,12,2023,00,00*79
###2023-12-09 13:22:12.024462$GNEBP,,,,,,M*13
###2023-12-09 13:22:12.184343$GNGGA,182211.30,4138.0793198,N,07032.3489964,W,1,24,0.7,12.990,M,-29.743,M,0.0,*58
###2023-12-09 13:22:12.383302$GNGGA,182211.50,4138.0793369,N,07032.3492094,W,1,24,0.7,12.987,M,-29.743,M,0.0,*58
###2023-12-09 13:22:12.582026$GNGGA,182211.70,4138.0793658,N,07032.3494181,W,1,24,0.7,12.985,M,-29.743,M,0.0,*5C
###2023-12-09 13:22:12.783646$GNGGA,182211.90,4138.0793898,N,07032.3496274,W,1,24,0.7,12.980,M,-29.743,M,0.0,*5E
###2023-12-09 13:22:12.987196$GNRMC,182212.10,A,4138.0794012,N,07032.3498374,W,2.92,275.99,091223,,,A*5C
###2023-12-09 13:22:12.990691$GNGGA,182212.10,4138.0794012,N,07032.3498374,W,1,24,0.7,12.974,M,-29.743,M,0.0,*5C
###2023-12-09 13:22:12.992854$GPGSA,A,3,03,04,16,26,28,29,31,,,,,,1.1,0.7,0.9*3B
###2023-12-09 13:22:12.994943$GLGSA,A,3,65,71,72,73,74,75,,,,,,,1.1,0.7,0.9*25
###2023-12-09 13:22:12.996854$GAGSA,A,3,04,19,21,27,,,,,,,,,1.1,0.7,0.9*27
###2023-12-09 13:22:12.998923$GBGSA,A,3,14,24,25,26,33,35,,,,,,,1.1,0.7,0.9*28
###2023-12-09 13:22:13.001729$GPGSV,2,1,07,03,30,252,41,04,41,310,43,16,60,218,46,26,90,099,49*71
###2023-12-09 13:22:13.004207$GPGSV,2,2,07,28,42,080,45,29,23,052,40,31,63,057,47,,,,*44
###2023-12-09 13:22:13.007019$GLGSV,2,1,06,65,33,323,40,71,30,174,45,72,69,234,45,73,27,048,41*65
###2023-12-09 13:22:13.009119$GLGSV,2,2,06,74,64,002,42,75,39,263,42,,,,,,,,*6F
###2023-12-09 13:22:13.011926$GAGSV,1,1,04,04,36,311,42,19,77,186,41,21,81,054,45,27,26,049,39*66
###2023-12-09 13:22:13.014771$GBGSV,2,1,06,14,35,191,44,24,67,039,49,25,47,270,43,26,20,067,43*62
###2023-12-09 13:22:13.016874$GBGSV,2,2,06,33,51,222,47,35,16,062,42,,,,,,,,*6B
###2023-12-09 13:22:13.018468$GNVTG,275.99,T,,M,2.92,N,5.40,K,A*2B
###2023-12-09 13:22:13.020460$GNGST,182212.10,18.000,,,,0.100,0.074,0.170*51
###2023-12-09 13:22:13.022020$GNZDA,182212.10,09,12,2023,00,00*7A
###2023-12-09 13:22:13.022807$GNEBP,,,,,,M*13
###2023-12-09 13:22:13.183172$GNGGA,182212.30,4138.0794244,N,07032.3500546,W,1,24,0.7,12.975,M,-29.743,M,0.0,*59
###2023-12-09 13:22:13.384080$GNGGA,182212.50,4138.0794547,N,07032.3502804,W,1,24,0.7,12.970,M,-29.743,M,0.0,*57
###2023-12-09 13:22:13.582759$GNGGA,182212.70,4138.0794753,N,07032.3505182,W,1,24,0.7,12.967,M,-29.743,M,0.0,*54
###2023-12-09 13:22:13.782693$GNGGA,182212.90,4138.0794834,N,07032.3507623,W,1,24,0.7,12.972,M,-29.743,M,0.0,*5E
###2023-12-09 13:22:13.987036$GNRMC,182213.10,A,4138.0794825,N,07032.3510174,W,3.46,268.19,091223,,,A*5E
###2023-12-09 13:22:13.990479$GNGGA,182213.10,4138.0794825,N,07032.3510174,W,1,24,0.7,12.971,M,-29.743,M,0.0,*57
###2023-12-09 13:22:13.992670$GPGSA,A,3,03,04,16,26,28,29,31,,,,,,1.1,0.7,0.9*3B
###2023-12-09 13:22:13.994756$GLGSA,A,3,65,71,72,73,74,75,,,,,,,1.1,0.7,0.9*25
###2023-12-09 13:22:13.996673$GAGSA,A,3,04,19,21,27,,,,,,,,,1.1,0.7,0.9*27
###2023-12-09 13:22:13.998747$GBGSA,A,3,14,24,25,26,33,35,,,,,,,1.1,0.7,0.9*28
###2023-12-09 13:22:14.001549$GPGSV,2,1,07,03,30,252,42,04,41,310,44,16,60,218,46,26,90,099,48*74
###2023-12-09 13:22:14.004025$GPGSV,2,2,07,28,42,080,45,29,23,052,42,31,63,057,46,,,,*47
###2023-12-09 13:22:14.006920$GLGSV,2,1,06,65,33,323,42,71,30,174,45,72,69,234,45,73,27,048,43*65
###2023-12-09 13:22:14.009029$GLGSV,2,2,06,74,64,002,42,75,39,263,42,,,,,,,,*6F
###2023-12-09 13:22:14.011839$GAGSV,1,1,04,04,36,311,43,19,77,186,41,21,81,054,45,27,26,049,39*67
###2023-12-09 13:22:14.014665$GBGSV,2,1,06,14,35,191,44,24,67,039,48,25,47,270,45,26,20,067,44*62
###2023-12-09 13:22:14.016765$GBGSV,2,2,06,33,51,222,47,35,16,062,44,,,,,,,,*6D
###2023-12-09 13:22:14.018361$GNVTG,268.19,T,,M,3.46,N,6.41,K,A*25
###2023-12-09 13:22:14.020349$GNGST,182213.10,18.000,,,,0.100,0.074,0.170*50
###2023-12-09 13:22:14.021905$GNZDA,182213.10,09,12,2023,00,00*7B
###2023-12-09 13:22:14.022680$GNEBP,,,,,,M*13
###2023-12-09 13:22:14.183156$GNGGA,182213.30,4138.0794691,N,07032.3512738,W,1,24,0.7,12.967,M,-29.743,M,0.0,*5F
###2023-12-09 13:22:14.381827$GNGGA,182213.50,4138.0794456,N,07032.3515276,W,1,24,0.7,12.966,M,-29.743,M,0.0,*59
###2023-12-09 13:22:14.584835$GNGGA,182213.70,4138.0794067,N,07032.3517702,W,1,24,0.7,12.959,M,-29.743,M,0.0,*55
###2023-12-09 13:22:14.783599$GNGGA,182213.90,4138.0793518,N,07032.3519996,W,1,24,0.7,12.948,M,-29.743,M,0.0,*5C
###2023-12-09 13:22:14.986962$GNRMC,182214.10,A,4138.0792924,N,07032.3522220,W,3.19,250.86,091223,,,A*5B
###2023-12-09 13:22:14.989810$GNGGA,182214.10,4138.0792924,N,07032.3522220,W,1,24,0.7,12.942,M,-29.743,M,0.0,*55
###2023-12-09 13:22:14.991617$GPGSA,A,3,03,04,16,26,28,29,31,,,,,,1.1,0.7,0.9*3B
###2023-12-09 13:22:14.993325$GLGSA,A,3,65,71,72,73,74,75,,,,,,,1.1,0.7,0.9*25
###2023-12-09 13:22:14.994911$GAGSA,A,3,04,19,21,27,,,,,,,,,1.1,0.7,0.9*27
###2023-12-09 13:22:14.996617$GBGSA,A,3,14,24,25,26,33,35,,,,,,,1.1,0.7,0.9*28
###2023-12-09 13:22:14.998947$GPGSV,2,1,07,03,30,252,42,04,41,310,43,16,60,218,45,26,90,099,48*70
###2023-12-09 13:22:15.000985$GPGSV,2,2,07,28,42,080,45,29,23,052,42,31,63,057,46,,,,*47
###2023-12-09 13:22:15.003315$GLGSV,2,1,06,65,33,323,42,71,30,174,44,72,69,234,45,73,27,048,42*65
###2023-12-09 13:22:15.005059$GLGSV,2,2,06,74,64,002,42,75,39,263,43,,,,,,,,*6E
###2023-12-09 13:22:15.007388$GAGSV,1,1,04,04,36,311,42,19,77,186,40,21,81,054,46,27,26,049,40*6A
###2023-12-09 13:22:15.009719$GBGSV,2,1,06,14,35,191,44,24,67,039,48,25,47,270,46,26,20,067,45*60
###2023-12-09 13:22:15.011474$GBGSV,2,2,06,33,51,222,46,35,16,062,46,,,,,,,,*6E
###2023-12-09 13:22:15.012799$GNVTG,250.86,T,,M,3.19,N,5.90,K,A*2D
###2023-12-09 13:22:15.014444$GNGST,182214.10,18.000,,,,0.100,0.073,0.170*50
###2023-12-09 13:22:15.015740$GNZDA,182214.10,09,12,2023,00,00*7C
###2023-12-09 13:22:15.016377$GNEBP,,,,,,M*13
###2023-12-09 13:22:15.185500$GNGGA,182214.30,4138.0792324,N,07032.3524425,W,1,24,0.7,12.940,M,-29.743,M,0.0,*5A
###2023-12-09 13:22:15.381198$GNGGA,182214.50,4138.0791658,N,07032.3526567,W,1,24,0.7,12.939,M,-29.743,M,0.0,*5A
###2023-12-09 13:22:15.582049$GNGGA,182214.70,4138.0790962,N,07032.3528734,W,1,24,0.7,12.950,M,-29.743,M,0.0,*5A
###2023-12-09 13:22:15.785530$GNGGA,182214.90,4138.0790169,N,07032.3530893,W,1,24,0.7,12.951,M,-29.743,M,0.0,*5D
###2023-12-09 13:22:15.987498$GNRMC,182215.10,A,4138.0789284,N,07032.3532964,W,3.17,239.50,091223,,,A*51
###2023-12-09 13:22:15.990374$GNGGA,182215.10,4138.0789284,N,07032.3532964,W,1,24,0.7,12.954,M,-29.743,M,0.0,*52
###2023-12-09 13:22:15.992180$GPGSA,A,3,03,04,16,26,28,29,31,,,,,,1.1,0.7,0.9*3B
###2023-12-09 13:22:15.993890$GLGSA,A,3,65,71,72,73,74,75,,,,,,,1.1,0.7,0.9*25
###2023-12-09 13:22:15.995482$GAGSA,A,3,04,19,21,27,,,,,,,,,1.1,0.7,0.9*27
###2023-12-09 13:22:15.997191$GBGSA,A,3,14,24,25,26,33,35,,,,,,,1.1,0.7,0.9*28
###2023-12-09 13:22:15.999522$GPGSV,2,1,07,03,30,252,42,04,41,310,43,16,60,218,45,26,90,099,49*71
###2023-12-09 13:22:16.001559$GPGSV,2,2,07,28,42,080,44,29,23,052,42,31,63,057,46,,,,*46
###2023-12-09 13:22:16.003893$GLGSV,2,1,06,65,33,323,43,71,30,174,44,72,69,234,45,73,27,048,44*62
###2023-12-09 13:22:16.005632$GLGSV,2,2,06,74,64,002,42,75,39,263,45,,,,,,,,*68
###2023-12-09 13:22:16.007961$GAGSV,1,1,04,04,36,311,42,19,77,186,40,21,81,054,46,27,26,049,41*6B
###2023-12-09 13:22:16.010285$GBGSV,2,1,06,14,35,191,43,24,67,039,47,25,47,270,44,26,20,067,43*6C
###2023-12-09 13:22:16.012033$GBGSV,2,2,06,33,51,222,44,35,16,062,44,,,,,,,,*6E
###2023-12-09 13:22:16.013354$GNVTG,239.50,T,,M,3.17,N,5.87,K,A*21
###2023-12-09 13:22:16.015001$GNGST,182215.10,18.000,,,,0.100,0.073,0.170*51
###2023-12-09 13:22:16.016290$GNZDA,182215.10,09,12,2023,00,00*7D
###2023-12-09 13:22:16.016928$GNEBP,,,,,,M*13
###2023-12-09 13:22:16.194099$GNGGA,182215.30,4138.0788378,N,07032.3535017,W,1,24,0.7,12.963,M,-29.743,M,0.0,*5D
###2023-12-09 13:22:16.388140$GNGGA,182215.50,4138.0787401,N,07032.3537016,W,1,24,0.7,12.967,M,-29.743,M,0.0,*5A
###2023-12-09 13:22:16.585711$GNGGA,182215.70,4138.0786248,N,07032.3538703,W,1,24,0.7,12.943,M,-29.743,M,0.0,*58
###2023-12-09 13:22:16.782966$GNGGA,182215.90,4138.0784941,N,07032.3540240,W,1,24,0.7,12.926,M,-29.743,M,0.0,*58
###2023-12-09 13:22:16.988509$GNRMC,182216.10,A,4138.0783737,N,07032.3541989,W,3.30,231.25,091223,,,A*5D
###2023-12-09 13:22:16.991358$GNGGA,182216.10,4138.0783737,N,07032.3541989,W,1,24,0.7,12.958,M,-29.743,M,0.0,*5D
###2023-12-09 13:22:16.993139$GPGSA,A,3,03,04,16,26,28,29,31,,,,,,1.1,0.7,0.9*3B
###2023-12-09 13:22:16.994848$GLGSA,A,3,65,71,72,73,74,75,,,,,,,1.1,0.7,0.9*25
