###2023-12-09 13:12:07.004763$GNGST,181206.10,18.000,,,,0.096,0.073,0.170*5E
###2023-12-09 13:12:07.006076$GNZDA,181206.10,09,12,2023,00,00*7C
###2023-12-09 13:12:07.006743$GNEBP,,,,,,M*13
###2023-12-09 13:12:07.173275$GNGGA,181206.30,4138.0426792,N,07032.3135791,W,1,24,0.7,12.882,M,-29.744,M,0.0,*5F
###2023-12-09 13:12:07.374128$GNGGA,181206.50,4138.0427599,N,07032.3137510,W,1,24,0.7,12.889,M,-29.744,M,0.0,*53
###2023-12-09 13:12:07.573691$GNGGA,181206.70,4138.0428405,N,07032.3139191,W,1,24,0.7,12.890,M,-29.744,M,0.0,*51
###2023-12-09 13:12:07.774554$GNGGA,181206.90,4138.0429174,N,07032.3140878,W,1,24,0.7,12.893,M,-29.744,M,0.0,*5E
###2023-12-09 13:12:07.975423$GNRMC,181207.10,A,4138.0429853,N,07032.3142556,W,2.59,297.38,091223,,,A*57
###2023-12-09 13:12:07.978282$GNGGA,181207.10,4138.0429853,N,07032.3142556,W,1,24,0.7,12.889,M,-29.744,M,0.0,*53
###2023-12-09 13:12:07.980089$GPGSA,A,3,03,04,16,26,28,29,31,,,,,,1.2,0.7,1.0*30
###2023-12-09 13:12:07.981802$GLGSA,A,3,65,71,72,73,74,75,,,,,,,1.2,0.7,1.0*2E
###2023-12-09 13:12:07.983396$GAGSA,A,3,04,19,21,27,,,,,,,,,1.2,0.7,1.0*2C
###2023-12-09 13:12:07.985105$GBGSA,A,3,14,24,25,26,33,35,,,,,,,1.2,0.7,1.0*23
###2023-12-09 13:12:07.987441$GPGSV,2,1,07,03,33,256,43,04,37,311,42,16,55,215,46,26,85,210,48*78
###2023-12-09 13:12:07.989479$GPGSV,2,2,07,28,46,075,45,29,24,056,42,31,66,048,47,,,,*40
###2023-12-09 13:12:07.991822$GLGSV,2,1,06,65,28,326,40,71,35,174,45,72,72,250,46,73,31,045,46*69
###2023-12-09 13:12:07.993570$GLGSV,2,2,06,74,67,351,42,75,36,258,46,,,,,,,,*6A
###2023-12-09 13:12:07.995908$GAGSV,1,1,04,04,33,312,41,19,81,194,41,21,84,071,46,27,29,048,42*6A
###2023-12-09 13:12:07.998243$GBGSV,2,1,06,14,39,192,45,24,70,033,49,25,44,266,46,26,23,065,42*61
###2023-12-09 13:12:08.000001$GBGSV,2,2,06,33,54,227,47,35,15,065,43,,,,,,,,*6E
###2023-12-09 13:12:08.001331$GNVTG,297.38,T,,M,2.59,N,4.79,K,A*20
###2023-12-09 13:12:08.002994$GNGST,181207.10,18.000,,,,0.096,0.073,0.170*5F
###2023-12-09 13:12:08.004293$GNZDA,181207.10,09,12,2023,00,00*7D
###2023-12-09 13:12:08.004933$GNEBP,,,,,,M*13
###2023-12-09 13:12:08.172566$GNGGA,181207.30,4138.0430506,N,07032.3144182,W,1,24,0.7,12.881,M,-29.744,M,0.0,*57
###2023-12-09 13:12:08.372947$GNGGA,181207.50,4138.0431200,N,07032.3145736,W,1,24,0.7,12.875,M,-29.744,M,0.0,*52
###2023-12-09 13:12:08.575638$GNGGA,181207.70,4138.0431857,N,07032.3147224,W,1,24,0.7,12.871,M,-29.744,M,0.0,*58
###2023-12-09 13:12:08.772458$GNGGA,181207.90,4138.0432474,N,07032.3148640,W,1,24,0.7,12.866,M,-29.744,M,0.0,*57
###2023-12-09 13:12:08.984492$GNRMC,181208.10,A,4138.0433073,N,07032.3149997,W,2.06,300.61,091223,,,A*5A
###2023-12-09 13:12:08.987361$GNGGA,181208.10,4138.0433073,N,07032.3149997,W,1,24,0.7,12.867,M,-29.744,M,0.0,*57
###2023-12-09 13:12:08.989143$GPGSA,A,3,03,04,16,26,28,29,31,,,,,,1.2,0.7,1.0*30
###2023-12-09 13:12:08.990862$GLGSA,A,3,65,71,72,73,74,75,,,,,,,1.2,0.7,1.0*2E
###2023-12-09 13:12:08.992437$GAGSA,A,3,04,19,21,27,,,,,,,,,1.2,0.7,1.0*2C
###2023-12-09 13:12:08.994134$GBGSA,A,3,14,24,25,26,33,35,,,,,,,1.2,0.7,1.0*23
###2023-12-09 13:12:08.996470$GPGSV,2,1,07,03,33,256,43,04,37,311,42,16,55,215,46,26,85,210,48*78
###2023-12-09 13:12:08.998507$GPGSV,2,2,07,28,46,075,45,29,24,056,42,31,66,048,47,,,,*40
###2023-12-09 13:12:09.000846$GLGSV,2,1,06,65,28,326,39,71,35,174,45,72,72,250,46,73,31,045,45*64
###2023-12-09 13:12:09.002609$GLGSV,2,2,06,74,67,351,42,75,36,258,46,,,,,,,,*6A
###2023-12-09 13:12:09.004937$GAGSV,1,1,04,04,33,312,41,19,81,194,40,21,84,071,46,27,29,048,42*6B
###2023-12-09 13:12:09.007287$GBGSV,2,1,06,14,39,192,44,24,70,033,49,25,44,266,46,26,23,065,42*60
###2023-12-09 13:12:09.009037$GBGSV,2,2,06,33,54,227,47,35,15,065,43,,,,,,,,*6E
###2023-12-09 13:12:09.010360$GNVTG,300.61,T,,M,2.06,N,3.82,K,A*2A
###2023-12-09 13:12:09.012027$GNGST,181208.10,18.000,,,,0.096,0.073,0.170*50
###2023-12-09 13:12:09.013318$GNZDA,181208.10,09,12,2023,00,00*72
###2023-12-09 13:12:09.013959$GNEBP,,,,,,M*13
###2023-12-09 13:12:09.176671$GNGGA,181208.30,4138.0433669,N,07032.3151299,W,1,24,0.7,12.866,M,-29.744,M,0.0,*55
###2023-12-09 13:12:09.372649$GNGGA,181208.50,4138.0434294,N,07032.3152571,W,1,24,0.7,12.868,M,-29.744,M,0.0,*5E
###2023-12-09 13:12:09.572679$GNGGA,181208.70,4138.0434925,N,07032.3153816,W,1,24,0.7,12.869,M,-29.744,M,0.0,*51
###2023-12-09 13:12:09.773633$GNGGA,181208.90,4138.0435532,N,07032.3155074,W,1,24,0.7,12.870,M,-29.744,M,0.0,*56
###2023-12-09 13:12:09.974048$GNRMC,181209.10,A,4138.0436109,N,07032.3156341,W,2.00,301.10,091223,,,A*5C
###2023-12-09 13:12:09.976924$GNGGA,181209.10,4138.0436109,N,07032.3156341,W,1,24,0.7,12.868,M,-29.744,M,0.0,*5F
###2023-12-09 13:12:09.978719$GPGSA,A,3,03,04,16,26,28,29,31,,,,,,1.2,0.7,1.0*30
###2023-12-09 13:12:09.980435$GLGSA,A,3,65,71,72,73,74,75,,,,,,,1.2,0.7,1.0*2E
###2023-12-09 13:12:09.982011$GAGSA,A,3,04,19,21,27,,,,,,,,,1.2,0.7,1.0*2C
###2023-12-09 13:12:09.983734$GBGSA,A,3,14,24,25,26,33,35,,,,,,,1.2,0.7,1.0*23
###2023-12-09 13:12:09.986054$GPGSV,2,1,07,03,33,256,43,04,37,311,42,16,55,215,46,26,85,210,47*77
###2023-12-09 13:12:09.988102$GPGSV,2,2,07,28,46,075,45,29,24,056,41,31,66,048,47,,,,*43
###2023-12-09 13:12:09.990428$GLGSV,2,1,06,65,28,326,40,71,35,174,46,72,72,250,46,73,31,045,45*69
###2023-12-09 13:12:09.992180$GLGSV,2,2,06,74,67,351,42,75,36,258,46,,,,,,,,*6A
###2023-12-09 13:12:09.994496$GAGSV,1,1,04,04,33,312,42,19,81,194,40,21,84,071,46,27,29,048,42*68
###2023-12-09 13:12:09.996836$GBGSV,2,1,06,14,39,192,45,24,70,033,49,25,44,266,47,26,23,065,42*60
###2023-12-09 13:12:09.998582$GBGSV,2,2,06,33,54,227,47,35,15,065,43,,,,,,,,*6E
###2023-12-09 13:12:09.999907$GNVTG,301.10,T,,M,2.00,N,3.71,K,A*27
###2023-12-09 13:12:10.001550$GNGST,181209.10,18.000,,,,0.096,0.072,0.170*50
###2023-12-09 13:12:10.002848$GNZDA,181209.10,09,12,2023,00,00*73
###2023-12-09 13:12:10.003489$GNEBP,,,,,,M*13
###2023-12-09 13:12:10.171658$GNGGA,181209.30,4138.0436649,N,07032.3157587,W,1,24,0.7,12.865,M,-29.744,M,0.0,*5E
###2023-12-09 13:12:10.379094$GNGGA,181209.50,4138.0437213,N,07032.3158793,W,1,24,0.7,12.867,M,-29.744,M,0.0,*58
###2023-12-09 13:12:10.572399$GNGGA,181209.70,4138.0437801,N,07032.3159942,W,1,24,0.7,12.870,M,-29.744,M,0.0,*56
###2023-12-09 13:12:10.772628$GNGGA,181209.90,4138.0438380,N,07032.3161058,W,1,24,0.7,12.882,M,-29.744,M,0.0,*51
###2023-12-09 13:12:10.974913$GNRMC,181210.10,A,4138.0438934,N,07032.3162173,W,1.83,305.08,091223,,,A*5D
###2023-12-09 13:12:10.977776$GNGGA,181210.10,4138.0438934,N,07032.3162173,W,1,24,0.7,12.884,M,-29.744,M,0.0,*59
###2023-12-09 13:12:10.979583$GPGSA,A,3,03,04,16,26,28,29,31,,,,,,1.2,0.7,1.0*30
###2023-12-09 13:12:10.981316$GLGSA,A,3,65,71,72,73,74,75,,,,,,,1.2,0.7,1.0*2E
###2023-12-09 13:12:10.982923$GAGSA,A,3,04,19,21,27,,,,,,,,,1.2,0.7,1.0*2C
###2023-12-09 13:12:10.984637$GBGSA,A,3,14,24,25,26,33,35,,,,,,,1.2,0.7,1.0*23
###2023-12-09 13:12:10.986977$GPGSV,2,1,07,03,33,256,46,04,37,311,44,16,55,215,48,26,85,210,50*7C
###2023-12-09 13:12:10.989019$GPGSV,2,2,07,28,46,075,47,29,24,056,43,31,66,048,49,,,,*4D
###2023-12-09 13:12:10.991357$GLGSV,2,1,06,65,28,326,40,71,35,174,45,72,72,250,46,73,31,045,45*6A
###2023-12-09 13:12:10.993106$GLGSV,2,2,06,74,67,351,42,75,36,258,46,,,,,,,,*6A
###2023-12-09 13:12:10.995445$GAGSV,1,1,04,04,33,312,43,19,81,194,42,21,84,071,48,27,29,048,44*63
###2023-12-09 13:12:10.997776$GBGSV,2,1,06,14,39,192,44,24,70,033,48,25,44,266,47,26,23,065,42*60
###2023-12-09 13:12:10.999537$GBGSV,2,2,06,33,54,227,47,35,15,065,41,,,,,,,,*6C
###2023-12-09 13:12:11.000864$GNVTG,305.08,T,,M,1.83,N,3.38,K,A*2F
###2023-12-09 13:12:11.002519$GNGST,181210.10,18.000,,,,0.096,0.072,0.170*58
###2023-12-09 13:12:11.003825$GNZDA,181210.10,09,12,2023,00,00*7B
###2023-12-09 13:12:11.004465$GNEBP,,,,,,M*13
###2023-12-09 13:12:11.171373$GNGGA,181210.30,4138.0439514,N,07032.3163256,W,1,24,0.7,12.884,M,-29.744,M,0.0,*51
###2023-12-09 13:12:11.371182$GNGGA,181210.50,4138.0440114,N,07032.3164301,W,1,24,0.7,12.885,M,-29.744,M,0.0,*58
###2023-12-09 13:12:11.575139$GNGGA,181210.70,4138.0440679,N,07032.3165345,W,1,24,0.7,12.882,M,-29.744,M,0.0,*50
###2023-12-09 13:12:11.772299$GNGGA,181210.90,4138.0441191,N,07032.3166396,W,1,24,0.7,12.882,M,-29.744,M,0.0,*53
###2023-12-09 13:12:11.977755$GNRMC,181211.10,A,4138.0441674,N,07032.3167393,W,1.61,302.55,091223,,,A*53
###2023-12-09 13:12:11.981259$GNGGA,181211.10,4138.0441674,N,07032.3167393,W,1,24,0.7,12.879,M,-29.744,M,0.0,*56
###2023-12-09 13:12:11.983458$GPGSA,A,3,03,04,16,26,28,29,31,,,,,,1.2,0.7,1.0*30
###2023-12-09 13:12:11.985541$GLGSA,A,3,65,71,72,73,74,75,,,,,,,1.2,0.7,1.0*2E
###2023-12-09 13:12:11.987478$GAGSA,A,3,04,19,21,27,,,,,,,,,1.2,0.7,1.0*2C
###2023-12-09 13:12:11.989560$GBGSA,A,3,14,24,25,26,33,35,,,,,,,1.2,0.7,1.0*23
###2023-12-09 13:12:11.992394$GPGSV,2,1,07,03,33,256,44,04,37,311,43,16,55,215,48,26,85,210,49*71
###2023-12-09 13:12:11.994917$GPGSV,2,2,07,28,46,075,45,29,24,056,43,31,66,048,48,,,,*4E
###2023-12-09 13:12:11.997763$GLGSV,2,1,06,65,28,326,40,71,35,174,46,72,72,250,46,73,31,045,46*6A
