###2023-12-09 13:33:28.026457$GNVTG,292.82,T,,M,2.25,N,4.18,K,A*28
###2023-12-09 13:33:28.028127$GNGST,183327.10,5.200,,,,0.087,0.067,0.150*67
###2023-12-09 13:33:28.029428$GNZDA,183327.10,09,12,2023,00,00*7C
###2023-12-09 13:33:28.030067$GNEBP,,,,,,M*13
###2023-12-09 13:33:28.195208$GNGGA,183327.30,4138.0590592,N,07032.4113381,W,1,26,0.6,13.361,M,-29.745,M,0.0,*52
###2023-12-09 13:33:28.394446$GNGGA,183327.50,4138.0590985,N,07032.4114892,W,1,26,0.6,13.364,M,-29.745,M,0.0,*55
###2023-12-09 13:33:28.599496$GNGGA,183327.70,4138.0591411,N,07032.4116384,W,1,26,0.6,13.364,M,-29.745,M,0.0,*58
###2023-12-09 13:33:28.793107$GNGGA,183327.90,4138.0591775,N,07032.4117906,W,1,26,0.6,13.362,M,-29.745,M,0.0,*50
###2023-12-09 13:33:28.997979$GNRMC,183328.10,A,4138.0592013,N,07032.4119441,W,2.08,279.77,091223,,,A*55
###2023-12-09 13:33:29.000867$GNGGA,183328.10,4138.0592013,N,07032.4119441,W,1,26,0.6,13.359,M,-29.745,M,0.0,*5B
###2023-12-09 13:33:29.002730$GPGSA,A,3,03,04,16,26,27,28,29,31,,,,,1.0,0.6,0.9*3E
###2023-12-09 13:33:29.004441$GLGSA,A,3,65,71,72,73,74,75,,,,,,,1.0,0.6,0.9*25
###2023-12-09 13:33:29.006021$GAGSA,A,3,04,19,21,27,,,,,,,,,1.0,0.6,0.9*27
###2023-12-09 13:33:29.007809$GBGSA,A,3,12,14,24,25,26,33,35,,,,,,1.0,0.6,0.9*2B
###2023-12-09 13:33:29.010136$GPGSV,2,1,08,03,27,247,39,04,46,308,44,16,66,222,45,26,84,040,48*76
###2023-12-09 13:33:29.012471$GPGSV,2,2,08,27,16,172,43,28,38,084,45,29,21,048,41,31,60,064,46*79
###2023-12-09 13:33:29.014846$GLGSV,2,1,06,65,38,319,43,71,23,175,45,72,63,222,45,73,23,052,43*67
###2023-12-09 13:33:29.016589$GLGSV,2,2,06,74,60,013,43,75,43,271,44,,,,,,,,*62
###2023-12-09 13:33:29.018935$GAGSV,1,1,04,04,39,310,41,19,73,182,40,21,77,047,45,27,23,050,39*6C
###2023-12-09 13:33:29.021268$GBGSV,2,1,07,12,15,126,41,14,29,190,42,24,63,045,49,25,50,275,45*64
###2023-12-09 13:33:29.023355$GBGSV,2,2,07,26,16,070,44,33,46,217,47,35,16,057,42,,,,*58
###2023-12-09 13:33:29.024685$GNVTG,279.77,T,,M,2.08,N,3.85,K,A*2B
###2023-12-09 13:33:29.026298$GNGST,183328.10,5.000,,,,0.087,0.068,0.150*65
###2023-12-09 13:33:29.027606$GNZDA,183328.10,09,12,2023,00,00*73
###2023-12-09 13:33:29.028248$GNEBP,,,,,,M*13
###2023-12-09 13:33:29.194076$GNGGA,183328.30,4138.0592178,N,07032.4121007,W,1,26,0.6,13.367,M,-29.745,M,0.0,*55
###2023-12-09 13:33:29.393257$GNGGA,183328.50,4138.0592321,N,07032.4122624,W,1,26,0.6,13.367,M,-29.745,M,0.0,*59
###2023-12-09 13:33:29.594610$GNGGA,183328.70,4138.0592425,N,07032.4124285,W,1,26,0.6,13.368,M,-29.745,M,0.0,*5E
###2023-12-09 13:33:29.795867$GNGGA,183328.90,4138.0592478,N,07032.4125990,W,1,26,0.6,13.369,M,-29.745,M,0.0,*57
###2023-12-09 13:33:29.998470$GNRMC,183329.10,A,4138.0592433,N,07032.4127687,W,2.29,266.21,091223,,,A*59
###2023-12-09 13:33:30.001345$GNGGA,183329.10,4138.0592433,N,07032.4127687,W,1,26,0.6,13.367,M,-29.745,M,0.0,*54
###2023-12-09 13:33:30.003259$GPGSA,A,3,03,04,16,26,27,28,29,31,,,,,1.0,0.6,0.9*3E
###2023-12-09 13:33:30.004982$GLGSA,A,3,65,71,72,73,74,75,,,,,,,1.0,0.6,0.9*25
###2023-12-09 13:33:30.006611$GAGSA,A,3,04,19,21,27,,,,,,,,,1.0,0.6,0.9*27
###2023-12-09 13:33:30.008385$GBGSA,A,3,12,14,24,25,26,33,35,,,,,,1.0,0.6,0.9*2B
###2023-12-09 13:33:30.010732$GPGSV,2,1,08,03,27,247,40,04,46,308,42,16,66,222,45,26,84,040,47*71
###2023-12-09 13:33:30.013051$GPGSV,2,2,08,27,16,172,42,28,38,084,45,29,21,047,40,31,60,064,46*76
###2023-12-09 13:33:30.015391$GLGSV,2,1,06,65,38,319,42,71,23,175,45,72,63,222,45,73,23,052,43*66
###2023-12-09 13:33:30.017128$GLGSV,2,2,06,74,60,013,42,75,43,271,44,,,,,,,,*63
###2023-12-09 13:33:30.019462$GAGSV,1,1,04,04,39,310,41,19,73,182,41,21,77,047,46,27,23,050,39*6E
###2023-12-09 13:33:30.021793$GBGSV,2,1,07,12,15,126,42,14,29,190,43,24,63,045,48,25,50,275,45*67
###2023-12-09 13:33:30.023848$GBGSV,2,2,07,26,16,070,45,33,46,217,48,35,16,057,43,,,,*57
###2023-12-09 13:33:30.025182$GNVTG,266.21,T,,M,2.29,N,4.25,K,A*28
###2023-12-09 13:33:30.026809$GNGST,183329.10,5.300,,,,0.086,0.068,0.150*66
###2023-12-09 13:33:30.028100$GNZDA,183329.10,09,12,2023,00,00*72
###2023-12-09 13:33:30.028736$GNEBP,,,,,,M*13
###2023-12-09 13:33:30.196390$GNGGA,183329.30,4138.0592319,N,07032.4129384,W,1,27,0.6,13.371,M,-29.745,M,0.0,*57
###2023-12-09 13:33:30.392817$GNGGA,183329.50,4138.0592202,N,07032.4131131,W,1,27,0.6,13.369,M,-29.745,M,0.0,*56
###2023-12-09 13:33:30.593959$GNGGA,183329.70,4138.0592028,N,07032.4132875,W,1,27,0.6,13.372,M,-29.745,M,0.0,*5E
###2023-12-09 13:33:30.795026$GNGGA,183329.90,4138.0591800,N,07032.4134643,W,1,27,0.6,13.380,M,-29.745,M,0.0,*51
###2023-12-09 13:33:30.998169$GNRMC,183330.10,A,4138.0591500,N,07032.4136355,W,2.33,253.14,091223,,,A*52
###2023-12-09 13:33:31.001079$GNGGA,183330.10,4138.0591500,N,07032.4136355,W,1,27,0.6,13.380,M,-29.745,M,0.0,*5C
###2023-12-09 13:33:31.002951$GPGSA,A,3,03,04,16,26,27,28,29,31,,,,,1.0,0.6,0.8*3F
###2023-12-09 13:33:31.004734$GLGSA,A,3,65,71,72,73,74,75,83,,,,,,1.0,0.6,0.8*2F
###2023-12-09 13:33:31.006321$GAGSA,A,3,04,19,21,27,,,,,,,,,1.0,0.6,0.8*26
###2023-12-09 13:33:31.008109$GBGSA,A,3,12,14,24,25,26,33,35,,,,,,1.0,0.6,0.8*2A
###2023-12-09 13:33:31.010440$GPGSV,2,1,08,03,27,247,40,04,46,308,44,16,66,222,44,26,84,040,47*76
###2023-12-09 13:33:31.012786$GPGSV,2,2,08,27,16,172,42,28,38,084,43,29,21,047,42,31,60,064,46*72
###2023-12-09 13:33:31.015137$GLGSV,2,1,07,65,38,319,43,71,23,175,44,72,63,222,44,73,23,052,43*66
###2023-12-09 13:33:31.017179$GLGSV,2,2,07,74,60,013,43,75,43,271,46,83,15,048,36,,,,*57
###2023-12-09 13:33:31.019530$GAGSV,1,1,04,04,39,310,42,19,73,182,40,21,77,047,46,27,23,050,40*62
###2023-12-09 13:33:31.021857$GBGSV,2,1,07,12,15,126,41,14,29,190,44,24,63,045,48,25,50,275,45*63
###2023-12-09 13:33:31.023906$GBGSV,2,2,07,26,16,070,45,33,46,217,46,35,16,057,45,,,,*5F
###2023-12-09 13:33:31.025235$GNVTG,253.14,T,,M,2.33,N,4.32,K,A*25
###2023-12-09 13:33:31.026886$GNGST,183330.10,5.600,,,,0.086,0.068,0.150*6B
###2023-12-09 13:33:31.028188$GNZDA,183330.10,09,12,2023,00,00*7A
###2023-12-09 13:33:31.028827$GNEBP,,,,,,M*13
###2023-12-09 13:33:31.194099$GNGGA,183330.30,4138.0591033,N,07032.4137937,W,1,27,0.6,13.387,M,-29.745,M,0.0,*53
###2023-12-09 13:33:31.393441$GNGGA,183330.50,4138.0590567,N,07032.4139524,W,1,27,0.6,13.389,M,-29.745,M,0.0,*5E
###2023-12-09 13:33:31.593352$GNGGA,183330.70,4138.0590108,N,07032.4141064,W,1,27,0.6,13.393,M,-29.745,M,0.0,*54
###2023-12-09 13:33:31.794302$GNGGA,183330.90,4138.0589604,N,07032.4142534,W,1,27,0.6,13.392,M,-29.745,M,0.0,*5B
###2023-12-09 13:33:31.996495$GNRMC,183331.10,A,4138.0588958,N,07032.4143864,W,2.16,235.13,091223,,,A*51
###2023-12-09 13:33:31.999382$GNGGA,183331.10,4138.0588958,N,07032.4143864,W,1,27,0.6,13.390,M,-29.745,M,0.0,*5E
###2023-12-09 13:33:32.001252$GPGSA,A,3,03,04,16,26,27,28,29,31,,,,,1.0,0.6,0.8*3F
###2023-12-09 13:33:32.003053$GLGSA,A,3,65,71,72,73,74,75,83,,,,,,1.0,0.6,0.8*2F
###2023-12-09 13:33:32.004646$GAGSA,A,3,04,19,21,27,,,,,,,,,1.0,0.6,0.8*26
###2023-12-09 13:33:32.006420$GBGSA,A,3,12,14,24,25,26,33,35,,,,,,1.0,0.6,0.8*2A
###2023-12-09 13:33:32.008757$GPGSV,2,1,08,03,27,247,40,04,46,308,44,16,66,222,44,26,84,040,47*76
###2023-12-09 13:33:32.011095$GPGSV,2,2,08,27,16,172,43,28,38,084,42,29,21,047,43,31,59,066,45*78
###2023-12-09 13:33:32.013418$GLGSV,2,1,07,65,38,319,42,71,23,175,44,72,63,222,44,73,23,052,43*67
###2023-12-09 13:33:32.015468$GLGSV,2,2,07,74,60,013,43,75,43,271,46,83,15,048,36,,,,*57
###2023-12-09 13:33:32.017791$GAGSV,1,1,04,04,39,310,44,19,73,182,41,21,77,047,46,27,23,050,42*67
###2023-12-09 13:33:32.020124$GBGSV,2,1,07,12,15,126,41,14,29,190,42,24,63,045,48,25,50,275,45*65
###2023-12-09 13:33:32.022153$GBGSV,2,2,07,26,16,070,44,33,46,217,45,35,16,057,45,,,,*5D
###2023-12-09 13:33:32.023519$GNVTG,235.13,T,,M,2.16,N,4.00,K,A*24
###2023-12-09 13:33:32.025133$GNGST,183331.10,5.500,,,,0.085,0.068,0.150*6A
###2023-12-09 13:33:32.026418$GNZDA,183331.10,09,12,2023,00,00*7B
###2023-12-09 13:33:32.027069$GNEBP,,,,,,M*13
###2023-12-09 13:33:32.193047$GNGGA,183331.30,4138.0588234,N,07032.4145156,W,1,27,0.6,13.393,M,-29.745,M,0.0,*50
###2023-12-09 13:33:32.392302$GNGGA,183331.50,4138.0587601,N,07032.4146648,W,1,26,0.6,13.417,M,-29.745,M,0.0,*5A
###2023-12-09 13:33:32.593666$GNGGA,183331.70,4138.0586974,N,07032.4148257,W,1,26,0.6,13.432,M,-29.745,M,0.0,*57
###2023-12-09 13:33:32.793151$GNGGA,183331.90,4138.0586159,N,07032.4149615,W,1,27,0.6,13.428,M,-29.745,M,0.0,*57
###2023-12-09 13:33:33.004525$GNRMC,183332.10,A,4138.0585228,N,07032.4150657,W,2.20,216.61,091223,,,A*5E
###2023-12-09 13:33:33.007395$GNGGA,183332.10,4138.0585228,N,07032.4150657,W,1,27,0.6,13.414,M,-29.745,M,0.0,*5B
###2023-12-09 13:33:33.009245$GPGSA,A,3,03,04,16,26,27,28,29,31,,,,,1.0,0.6,0.8*3F
###2023-12-09 13:33:33.011033$GLGSA,A,3,65,71,72,73,74,75,83,,,,,,1.0,0.6,0.8*2F
###2023-12-09 13:33:33.012609$GAGSA,A,3,04,19,21,27,,,,,,,,,1.0,0.6,0.8*26
###2023-12-09 13:33:33.014377$GBGSA,A,3,12,14,24,25,26,33,35,,,,,,1.0,0.6,0.8*2A
###2023-12-09 13:33:33.016710$GPGSV,2,1,08,03,27,247,39,04,46,308,45,16,66,222,45,26,84,040,47*78
###2023-12-09 13:33:33.019047$GPGSV,2,2,08,27,16,172,41,28,38,084,44,29,21,047,43,31,59,066,47*7E
