###2023-12-09 12:40:17.948471$GLGSA,A,3,71,72,73,74,75,,,,,,,,1.2,0.7,1.0*2D
###2023-12-09 12:40:17.950087$GAGSA,A,3,04,19,21,27,,,,,,,,,1.2,0.7,1.0*2C
###2023-12-09 12:40:17.951768$GBGSA,A,3,14,24,25,26,33,,,,,,,,1.2,0.7,1.0*25
###2023-12-09 12:40:17.954091$GPGSV,2,1,08,03,38,274,43,04,24,311,42,16,39,208,42,26,69,207,47*77
###2023-12-09 12:40:17.956432$GPGSV,2,2,08,28,56,059,45,29,25,071,43,31,73,010,47,32,28,135,45*71
###2023-12-09 12:40:17.958774$GLGSV,2,1,05,71,54,170,48,72,68,305,47,73,45,035,46,74,71,299,42*60
###2023-12-09 12:40:17.960229$GLGSV,2,2,05,75,24,243,41,,,,,,,,,,,,*54
###2023-12-09 12:40:17.962543$GAGSV,1,1,04,04,23,311,40,19,82,296,41,21,79,174,46,27,40,049,44*65
###2023-12-09 12:40:17.964888$GBGSV,2,1,05,14,53,197,46,24,80,355,48,25,34,254,43,26,33,058,46*6D
###2023-12-09 12:40:17.966341$GBGSV,2,2,05,33,62,250,47,,,,,,,,,,,,*5E
###2023-12-09 12:40:17.967679$GNVTG,312.87,T,,M,1.30,N,2.41,K,A*29
###2023-12-09 12:40:17.969320$GNGST,174017.10,19.000,,,,0.078,0.069,0.170*5C
###2023-12-09 12:40:17.970624$GNZDA,174017.10,09,12,2023,00,00*74
###2023-12-09 12:40:17.971265$GNEBP,,,,,,M*13
###2023-12-09 12:40:18.140852$GNGGA,174017.30,4138.0571271,N,07032.3831159,W,1,23,0.7,13.333,M,-29.744,M,0.0,*54
###2023-12-09 12:40:18.340979$GNGGA,174017.50,4138.0571373,N,07032.3831257,W,1,23,0.7,13.328,M,-29.744,M,0.0,*56
###2023-12-09 12:40:18.542735$GNGGA,174017.70,4138.0571296,N,07032.3831082,W,1,23,0.7,13.312,M,-29.744,M,0.0,*5D
###2023-12-09 12:40:18.741280$GNGGA,174017.90,4138.0571460,N,07032.3831278,W,1,23,0.7,13.316,M,-29.744,M,0.0,*5F
###2023-12-09 12:40:18.941616$GNRMC,174018.10,A,4138.0571862,N,07032.3831875,W,1.19,312.58,091223,,,A*53
###2023-12-09 12:40:18.944476$GNGGA,174018.10,4138.0571862,N,07032.3831875,W,1,23,0.7,13.349,M,-29.744,M,0.0,*5B
###2023-12-09 12:40:18.946338$GPGSA,A,3,03,04,16,26,28,29,31,32,,,,,1.2,0.7,1.0*31
###2023-12-09 12:40:18.948052$GLGSA,A,3,71,72,73,74,75,,,,,,,,1.2,0.7,1.0*2D
###2023-12-09 12:40:18.949667$GAGSA,A,3,04,19,21,27,,,,,,,,,1.2,0.7,1.0*2C
###2023-12-09 12:40:18.951337$GBGSA,A,3,14,24,25,26,33,,,,,,,,1.2,0.7,1.0*25
###2023-12-09 12:40:18.953681$GPGSV,2,1,08,03,38,274,43,04,24,311,43,16,39,208,42,26,69,207,47*76
###2023-12-09 12:40:18.956040$GPGSV,2,2,08,28,56,059,45,29,25,071,43,31,73,010,48,32,28,135,45*7E
###2023-12-09 12:40:18.958374$GLGSV,2,1,05,71,54,170,48,72,68,305,47,73,45,035,47,74,71,299,43*60
###2023-12-09 12:40:18.959846$GLGSV,2,2,05,75,24,243,41,,,,,,,,,,,,*54
###2023-12-09 12:40:18.962165$GAGSV,1,1,04,04,23,311,42,19,82,296,41,21,79,174,46,27,40,049,45*66
###2023-12-09 12:40:18.964504$GBGSV,2,1,05,14,53,197,44,24,80,355,48,25,34,254,44,26,33,058,45*6B
###2023-12-09 12:40:18.965955$GBGSV,2,2,05,33,62,250,47,,,,,,,,,,,,*5E
###2023-12-09 12:40:18.967292$GNVTG,312.58,T,,M,1.19,N,2.20,K,A*27
###2023-12-09 12:40:18.968932$GNGST,174018.10,18.000,,,,0.078,0.069,0.170*52
###2023-12-09 12:40:18.970217$GNZDA,174018.10,09,12,2023,00,00*7B
###2023-12-09 12:40:18.970871$GNEBP,,,,,,M*13
###2023-12-09 12:40:19.140486$GNGGA,174018.30,4138.0572162,N,07032.3832311,W,1,23,0.7,13.359,M,-29.744,M,0.0,*58
###2023-12-09 12:40:19.341110$GNGGA,174018.50,4138.0572198,N,07032.3832284,W,1,23,0.7,13.369,M,-29.744,M,0.0,*55
###2023-12-09 12:40:19.543135$GNGGA,174018.70,4138.0572193,N,07032.3832186,W,1,23,0.7,13.350,M,-29.744,M,0.0,*57
###2023-12-09 12:40:19.741006$GNGGA,174018.90,4138.0572405,N,07032.3832469,W,1,23,0.7,13.346,M,-29.744,M,0.0,*50
###2023-12-09 12:40:19.942612$GNRMC,174019.10,A,4138.0572772,N,07032.3832979,W,0.99,315.50,091223,,,A*57
###2023-12-09 12:40:19.945459$GNGGA,174019.10,4138.0572772,N,07032.3832979,W,1,23,0.7,13.369,M,-29.744,M,0.0,*5B
###2023-12-09 12:40:19.947361$GPGSA,A,3,03,04,16,26,28,29,31,32,,,,,1.2,0.7,1.0*31
###2023-12-09 12:40:19.949041$GLGSA,A,3,71,72,73,74,75,,,,,,,,1.2,0.7,1.0*2D
###2023-12-09 12:40:19.950642$GAGSA,A,3,04,19,21,27,,,,,,,,,1.2,0.7,1.0*2C
###2023-12-09 12:40:19.952293$GBGSA,A,3,14,24,25,26,33,,,,,,,,1.2,0.7,1.0*25
###2023-12-09 12:40:19.954628$GPGSV,2,1,08,03,38,274,43,04,24,311,43,16,39,208,42,26,69,207,47*76
###2023-12-09 12:40:19.956953$GPGSV,2,2,08,28,56,059,45,29,25,071,43,31,73,010,48,32,28,135,45*7E
###2023-12-09 12:40:19.959292$GLGSV,2,1,05,71,54,170,47,72,68,305,47,73,45,035,47,74,71,299,43*6F
###2023-12-09 12:40:19.960752$GLGSV,2,2,05,75,24,243,39,,,,,,,,,,,,*5B
###2023-12-09 12:40:19.963088$GAGSV,1,1,04,04,23,311,41,19,82,296,40,21,79,174,45,27,40,049,44*66
###2023-12-09 12:40:19.965412$GBGSV,2,1,05,14,53,197,45,24,80,355,49,25,34,254,44,26,33,058,46*68
###2023-12-09 12:40:19.966878$GBGSV,2,2,05,33,62,250,47,,,,,,,,,,,,*5E
###2023-12-09 12:40:19.968195$GNVTG,315.50,T,,M,0.99,N,1.84,K,A*2C
###2023-12-09 12:40:19.969832$GNGST,174019.10,18.000,,,,0.078,0.069,0.160*52
###2023-12-09 12:40:19.971170$GNZDA,174019.10,09,12,2023,00,00*7A
###2023-12-09 12:40:19.971812$GNEBP,,,,,,M*13
###2023-12-09 12:40:20.144889$GNGGA,174019.30,4138.0573005,N,07032.3833318,W,1,23,0.7,13.381,M,-29.744,M,0.0,*55
###2023-12-09 12:40:20.342280$GNGGA,174019.50,4138.0573049,N,07032.3833328,W,1,23,0.7,13.403,M,-29.744,M,0.0,*55
###2023-12-09 12:40:20.542284$GNGGA,174019.70,4138.0573111,N,07032.3833313,W,1,23,0.7,13.393,M,-29.744,M,0.0,*5D
###2023-12-09 12:40:20.742444$GNGGA,174019.90,4138.0573326,N,07032.3833566,W,1,23,0.7,13.386,M,-29.744,M,0.0,*55
###2023-12-09 12:40:20.948322$GNRMC,174020.10,A,4138.0573611,N,07032.3833968,W,0.78,315.50,091223,,,A*56
###2023-12-09 12:40:20.951803$GNGGA,174020.10,4138.0573611,N,07032.3833968,W,1,23,0.7,13.392,M,-29.744,M,0.0,*51
###2023-12-09 12:40:20.954052$GPGSA,A,3,03,04,16,26,28,29,31,32,,,,,1.2,0.7,1.0*31
###2023-12-09 12:40:20.956074$GLGSA,A,3,71,72,73,74,75,,,,,,,,1.2,0.7,1.0*2D
###2023-12-09 12:40:20.957988$GAGSA,A,3,04,19,21,27,,,,,,,,,1.2,0.7,1.0*2C
###2023-12-09 12:40:20.959990$GBGSA,A,3,14,24,25,26,33,,,,,,,,1.2,0.7,1.0*25
###2023-12-09 12:40:20.962815$GPGSV,2,1,08,03,38,274,43,04,24,311,42,16,39,208,42,26,69,207,47*77
###2023-12-09 12:40:20.965649$GPGSV,2,2,08,28,56,059,45,29,25,071,43,31,73,010,48,32,28,135,45*7E
###2023-12-09 12:40:20.968476$GLGSV,2,1,05,71,54,170,48,72,68,305,46,73,45,035,46,74,71,299,43*60
###2023-12-09 12:40:20.970237$GLGSV,2,2,05,75,24,243,41,,,,,,,,,,,,*54
###2023-12-09 12:40:20.973059$GAGSV,1,1,04,04,23,311,40,19,82,296,40,21,79,174,45,27,40,049,44*67
###2023-12-09 12:40:20.975890$GBGSV,2,1,05,14,53,197,44,24,80,355,47,25,34,254,41,26,33,058,45*61
###2023-12-09 12:40:20.977643$GBGSV,2,2,05,33,62,250,47,,,,,,,,,,,,*5E
###2023-12-09 12:40:20.979290$GNVTG,315.50,T,,M,0.78,N,1.44,K,A*2F
###2023-12-09 12:40:20.981283$GNGST,174020.10,18.000,,,,0.078,0.069,0.170*59
###2023-12-09 12:40:20.982895$GNZDA,174020.10,09,12,2023,00,00*70
###2023-12-09 12:40:20.983668$GNEBP,,,,,,M*13
###2023-12-09 12:40:21.141691$GNGGA,174020.30,4138.0573834,N,07032.3834286,W,1,23,0.7,13.400,M,-29.744,M,0.0,*5A
###2023-12-09 12:40:21.342363$GNGGA,174020.50,4138.0573929,N,07032.3834371,W,1,23,0.7,13.411,M,-29.744,M,0.0,*58
###2023-12-09 12:40:21.542411$GNGGA,174020.70,4138.0574018,N,07032.3834423,W,1,23,0.7,13.420,M,-29.744,M,0.0,*54
###2023-12-09 12:40:21.741852$GNGGA,174020.90,4138.0574249,N,07032.3834743,W,1,23,0.7,13.430,M,-29.744,M,0.0,*58
###2023-12-09 12:40:21.942220$GNRMC,174021.10,A,4138.0574544,N,07032.3835164,W,0.66,315.50,091223,,,A*5E
###2023-12-09 12:40:21.945688$GNGGA,174021.10,4138.0574544,N,07032.3835164,W,1,23,0.7,13.419,M,-29.744,M,0.0,*52
###2023-12-09 12:40:21.947965$GPGSA,A,3,03,04,16,26,28,29,31,32,,,,,1.2,0.7,1.0*31
###2023-12-09 12:40:21.949980$GLGSA,A,3,71,72,73,74,75,,,,,,,,1.2,0.7,1.0*2D
###2023-12-09 12:40:21.951918$GAGSA,A,3,04,19,21,27,,,,,,,,,1.2,0.7,1.0*2C
###2023-12-09 12:40:21.953910$GBGSA,A,3,14,24,25,26,33,,,,,,,,1.2,0.7,1.0*25
###2023-12-09 12:40:21.956742$GPGSV,2,1,08,03,38,274,43,04,24,311,42,16,39,208,42,26,69,207,46*76
###2023-12-09 12:40:21.959580$GPGSV,2,2,08,28,56,059,45,29,25,071,43,31,73,010,48,32,28,135,44*7F
###2023-12-09 12:40:21.962401$GLGSV,2,1,05,71,54,170,47,72,68,305,47,73,45,035,47,74,71,299,43*6F
###2023-12-09 12:40:21.964174$GLGSV,2,2,05,75,24,243,41,,,,,,,,,,,,*54
###2023-12-09 12:40:21.967002$GAGSV,1,1,04,04,23,311,41,19,82,296,41,21,79,174,46,27,40,049,45*65
###2023-12-09 12:40:21.970145$GBGSV,2,1,05,14,53,197,45,24,80,355,48,25,34,254,43,26,33,058,46*6E
###2023-12-09 12:40:21.971940$GBGSV,2,2,05,33,62,250,47,,,,,,,,,,,,*5E
###2023-12-09 12:40:21.973542$GNVTG,315.50,T,,M,0.66,N,1.22,K,A*20
###2023-12-09 12:40:21.975550$GNGST,174021.10,18.000,,,,0.078,0.069,0.160*59
###2023-12-09 12:40:21.977103$GNZDA,174021.10,09,12,2023,00,00*71
###2023-12-09 12:40:21.977872$GNEBP,,,,,,M*13
###2023-12-09 12:40:22.142471$GNGGA,174021.30,4138.0574690,N,07032.3835334,W,1,23,0.7,13.396,M,-29.744,M,0.0,*5D
###2023-12-09 12:40:22.342594$GNGGA,174021.50,4138.0574727,N,07032.3835365,W,1,23,0.7,13.407,M,-29.744,M,0.0,*5D
