###2023-12-09 13:39:01.799375$GNGGA,183900.90,4138.0689219,N,07032.3903294,W,1,25,0.6,13.356,M,-29.744,M,0.0,*55
###2023-12-09 13:39:02.004692$GNRMC,183901.10,A,4138.0689694,N,07032.3901505,W,2.66,75.02,091223,,,A*67
###2023-12-09 13:39:02.008172$GNGGA,183901.10,4138.0689694,N,07032.3901505,W,1,25,0.6,13.350,M,-29.744,M,0.0,*56
###2023-12-09 13:39:02.010417$GPGSA,A,3,03,04,16,26,27,28,29,31,,,,,1.0,0.6,0.8*3F
###2023-12-09 13:39:02.012504$GLGSA,A,3,65,71,72,73,74,75,,,,,,,1.0,0.6,0.8*24
###2023-12-09 13:39:02.014446$GAGSA,A,3,04,19,21,27,,,,,,,,,1.0,0.6,0.8*26
###2023-12-09 13:39:02.016525$GBGSA,A,3,12,14,24,25,33,35,,,,,,,1.0,0.6,0.8*2E
###2023-12-09 13:39:02.019345$GPGSV,2,1,08,03,25,245,42,04,48,307,44,16,68,224,47,26,82,040,47*78
###2023-12-09 13:39:02.022175$GPGSV,2,2,08,27,18,172,40,28,37,086,42,29,20,046,37,31,58,068,45*74
###2023-12-09 13:39:02.025019$GLGSV,2,1,06,65,40,316,44,71,20,176,42,72,60,217,45,73,20,054,39*6A
###2023-12-09 13:39:02.027142$GLGSV,2,2,06,74,58,018,42,75,45,275,48,,,,,,,,*6D
###2023-12-09 13:39:02.029944$GAGSV,1,1,04,04,41,309,44,19,70,181,41,21,75,045,45,27,21,050,37*63
###2023-12-09 13:39:02.032768$GBGSV,2,1,06,12,17,125,39,14,27,189,39,24,61,048,46,25,52,278,46*6D
###2023-12-09 13:39:02.034889$GBGSV,2,2,06,33,44,215,45,35,16,055,40,,,,,,,,*6F
###2023-12-09 13:39:02.036445$GNVTG,75.02,T,,M,2.66,N,4.93,K,A*1F
###2023-12-09 13:39:02.038383$GNGST,183901.10,5.500,,,,0.091,0.068,0.160*65
###2023-12-09 13:39:02.039951$GNZDA,183901.10,09,12,2023,00,00*72
###2023-12-09 13:39:02.040718$GNEBP,,,,,,M*13
###2023-12-09 13:39:02.202394$GNGGA,183901.30,4138.0690170,N,07032.3899822,W,1,25,0.6,13.326,M,-29.744,M,0.0,*58
###2023-12-09 13:39:02.406003$GNGGA,183901.50,4138.0691098,N,07032.3898464,W,1,25,0.6,13.348,M,-29.744,M,0.0,*5F
###2023-12-09 13:39:02.601551$GNGGA,183901.70,4138.0692014,N,07032.3896902,W,1,25,0.6,13.341,M,-29.744,M,0.0,*50
###2023-12-09 13:39:02.803873$GNGGA,183901.90,4138.0692783,N,07032.3895351,W,1,25,0.6,13.337,M,-29.744,M,0.0,*59
###2023-12-09 13:39:03.008070$GNRMC,183902.10,A,4138.0693760,N,07032.3893850,W,2.84,50.38,091223,,,A*60
###2023-12-09 13:39:03.010923$GNGGA,183902.10,4138.0693760,N,07032.3893850,W,1,25,0.6,13.351,M,-29.744,M,0.0,*52
###2023-12-09 13:39:03.012775$GPGSA,A,3,03,04,16,26,27,28,29,31,,,,,1.0,0.6,0.8*3F
###2023-12-09 13:39:03.014487$GLGSA,A,3,65,71,72,73,74,75,,,,,,,1.0,0.6,0.8*24
###2023-12-09 13:39:03.016074$GAGSA,A,3,04,19,21,27,,,,,,,,,1.0,0.6,0.8*26
###2023-12-09 13:39:03.017780$GBGSA,A,3,12,14,24,25,33,35,,,,,,,1.0,0.6,0.8*2E
###2023-12-09 13:39:03.020110$GPGSV,2,1,08,03,25,245,42,04,48,307,45,16,68,224,46,26,82,040,48*77
###2023-12-09 13:39:03.022440$GPGSV,2,2,08,27,18,172,41,28,37,086,43,29,20,046,39,31,58,068,46*79
###2023-12-09 13:39:03.024774$GLGSV,2,1,06,65,40,316,43,71,20,176,42,72,60,217,45,73,20,054,39*6D
###2023-12-09 13:39:03.026518$GLGSV,2,2,06,74,58,018,40,75,45,275,46,,,,,,,,*61
###2023-12-09 13:39:03.028847$GAGSV,1,1,04,04,41,309,45,19,70,181,41,21,75,045,45,27,21,050,37*62
###2023-12-09 13:39:03.031183$GBGSV,2,1,06,12,17,125,42,14,27,189,42,24,61,048,48,25,52,278,48*6D
###2023-12-09 13:39:03.032926$GBGSV,2,2,06,33,44,215,47,35,16,055,41,,,,,,,,*6C
###2023-12-09 13:39:03.034217$GNVTG,50.38,T,,M,2.84,N,5.26,K,A*12
###2023-12-09 13:39:03.035854$GNGST,183902.10,5.900,,,,0.091,0.068,0.160*6A
###2023-12-09 13:39:03.037144$GNZDA,183902.10,09,12,2023,00,00*71
###2023-12-09 13:39:03.037781$GNEBP,,,,,,M*13
###2023-12-09 13:39:03.212374$GNGGA,183902.30,4138.0694815,N,07032.3892226,W,1,25,0.6,13.320,M,-29.744,M,0.0,*56
###2023-12-09 13:39:03.402261$GNGGA,183902.50,4138.0695919,N,07032.3890947,W,1,25,0.6,13.319,M,-29.744,M,0.0,*58
###2023-12-09 13:39:03.600806$GNGGA,183902.70,4138.0697226,N,07032.3889773,W,1,25,0.6,13.366,M,-29.744,M,0.0,*56
###2023-12-09 13:39:03.801089$GNGGA,183902.90,4138.0698377,N,07032.3888174,W,1,25,0.6,13.363,M,-29.744,M,0.0,*57
###2023-12-09 13:39:04.005277$GNRMC,183903.10,A,4138.0699284,N,07032.3886339,W,2.90,58.13,091223,,,A*60
###2023-12-09 13:39:04.008745$GNGGA,183903.10,4138.0699284,N,07032.3886339,W,1,25,0.6,13.315,M,-29.744,M,0.0,*56
###2023-12-09 13:39:04.010994$GPGSA,A,3,03,04,16,26,27,28,29,31,,,,,1.0,0.6,0.8*3F
###2023-12-09 13:39:04.013062$GLGSA,A,3,65,71,72,73,74,75,,,,,,,1.0,0.6,0.8*24
###2023-12-09 13:39:04.014965$GAGSA,A,3,04,19,21,27,,,,,,,,,1.0,0.6,0.8*26
###2023-12-09 13:39:04.017021$GBGSA,A,3,12,14,24,25,33,35,,,,,,,1.0,0.6,0.8*2E
###2023-12-09 13:39:04.019849$GPGSV,2,1,08,03,25,244,42,04,48,307,44,16,68,224,46,26,82,040,48*77
###2023-12-09 13:39:04.022647$GPGSV,2,2,08,27,18,172,42,28,37,086,43,29,20,046,39,31,58,068,46*7A
###2023-12-09 13:39:04.025451$GLGSV,2,1,06,65,40,316,43,71,20,176,43,72,60,217,45,73,20,054,40*62
###2023-12-09 13:39:04.027570$GLGSV,2,2,06,74,58,018,42,75,45,275,45,,,,,,,,*60
###2023-12-09 13:39:04.030390$GAGSV,1,1,04,04,41,309,43,19,70,181,42,21,75,045,45,27,21,050,37*67
###2023-12-09 13:39:04.033203$GBGSV,2,1,06,12,17,125,42,14,27,189,40,24,61,048,46,25,52,278,46*6F
###2023-12-09 13:39:04.035318$GBGSV,2,2,06,33,44,215,47,35,16,055,40,,,,,,,,*6D
###2023-12-09 13:39:04.036872$GNVTG,58.13,T,,M,2.90,N,5.36,K,A*17
###2023-12-09 13:39:04.038820$GNGST,183903.10,5.700,,,,0.092,0.068,0.160*66
###2023-12-09 13:39:04.040372$GNZDA,183903.10,09,12,2023,00,00*70
###2023-12-09 13:39:04.041139$GNEBP,,,,,,M*13
###2023-12-09 13:39:04.203454$GNGGA,183903.30,4138.0700350,N,07032.3884786,W,1,25,0.6,13.304,M,-29.744,M,0.0,*5F
###2023-12-09 13:39:04.402128$GNGGA,183903.50,4138.0701721,N,07032.3883579,W,1,25,0.6,13.317,M,-29.744,M,0.0,*5D
###2023-12-09 13:39:04.599450$GNGGA,183903.70,4138.0702869,N,07032.3882057,W,1,25,0.6,13.332,M,-29.744,M,0.0,*50
###2023-12-09 13:39:04.800768$GNGGA,183903.90,4138.0703639,N,07032.3880103,W,1,25,0.6,13.345,M,-29.744,M,0.0,*56
###2023-12-09 13:39:05.002965$GNRMC,183904.10,A,4138.0704283,N,07032.3878240,W,2.68,64.85,091223,,,A*6C
###2023-12-09 13:39:05.005812$GNGGA,183904.10,4138.0704283,N,07032.3878240,W,1,25,0.6,13.318,M,-29.744,M,0.0,*50
###2023-12-09 13:39:05.007668$GPGSA,A,3,03,04,16,26,27,28,29,31,,,,,1.1,0.6,0.9*3F
###2023-12-09 13:39:05.009372$GLGSA,A,3,65,71,72,73,74,75,,,,,,,1.1,0.6,0.9*24
###2023-12-09 13:39:05.010953$GAGSA,A,3,04,19,21,27,,,,,,,,,1.1,0.6,0.9*26
###2023-12-09 13:39:05.012657$GBGSA,A,3,12,14,24,25,33,35,,,,,,,1.1,0.6,0.9*2E
###2023-12-09 13:39:05.014991$GPGSV,2,1,08,03,25,244,42,04,48,306,44,16,68,224,46,26,82,040,48*76
###2023-12-09 13:39:05.017312$GPGSV,2,2,08,27,18,172,43,28,37,086,42,29,20,046,39,31,58,068,45*79
###2023-12-09 13:39:05.019629$GLGSV,2,1,06,65,40,316,42,71,20,176,46,72,60,217,46,73,20,054,38*6A
###2023-12-09 13:39:05.021367$GLGSV,2,2,06,74,58,018,41,75,45,275,46,,,,,,,,*60
###2023-12-09 13:39:05.023685$GAGSV,1,1,04,04,41,309,42,19,70,181,41,21,75,045,45,27,21,050,39*6B
###2023-12-09 13:39:05.025999$GBGSV,2,1,06,12,17,125,42,14,27,189,42,24,61,048,47,25,52,278,46*6C
###2023-12-09 13:39:05.027752$GBGSV,2,2,06,33,44,215,47,35,16,055,41,,,,,,,,*6C
###2023-12-09 13:39:05.029038$GNVTG,64.85,T,,M,2.68,N,4.97,K,A*1A
###2023-12-09 13:39:05.030678$GNGST,183904.10,4.900,,,,0.092,0.069,0.160*6F
###2023-12-09 13:39:05.031968$GNZDA,183904.10,09,12,2023,00,00*77
###2023-12-09 13:39:05.032608$GNEBP,,,,,,M*13
###2023-12-09 13:39:05.201086$GNGGA,183904.30,4138.0705147,N,07032.3876501,W,1,25,0.6,13.302,M,-29.744,M,0.0,*5F
###2023-12-09 13:39:05.403285$GNGGA,183904.50,4138.0706202,N,07032.3874814,W,1,25,0.6,13.301,M,-29.744,M,0.0,*50
###2023-12-09 13:39:05.601214$GNGGA,183904.70,4138.0706999,N,07032.3872969,W,1,24,0.6,13.320,M,-29.744,M,0.0,*54
###2023-12-09 13:39:05.801791$GNGGA,183904.90,4138.0707336,N,07032.3870838,W,1,25,0.6,13.349,M,-29.744,M,0.0,*5D
###2023-12-09 13:39:06.005430$GNRMC,183905.10,A,4138.0707477,N,07032.3868650,W,2.70,81.45,091223,,,A*69
###2023-12-09 13:39:06.008314$GNGGA,183905.10,4138.0707477,N,07032.3868650,W,1,25,0.6,13.309,M,-29.744,M,0.0,*5B
###2023-12-09 13:39:06.010164$GPGSA,A,3,03,04,16,26,27,28,29,31,,,,,1.1,0.6,0.9*3F
###2023-12-09 13:39:06.011884$GLGSA,A,3,65,71,72,73,74,75,,,,,,,1.1,0.6,0.9*24
###2023-12-09 13:39:06.013460$GAGSA,A,3,04,19,21,27,,,,,,,,,1.1,0.6,0.9*26
###2023-12-09 13:39:06.015419$GBGSA,A,3,12,14,24,25,33,35,,,,,,,1.1,0.6,0.9*2E
###2023-12-09 13:39:06.017756$GPGSV,2,1,08,03,25,244,42,04,48,306,44,16,68,224,47,26,82,040,48*77
###2023-12-09 13:39:06.020114$GPGSV,2,2,08,27,18,172,43,28,37,086,43,29,20,046,40,31,58,068,45*76
###2023-12-09 13:39:06.022454$GLGSV,2,1,06,65,40,316,42,71,20,176,46,72,60,217,46,73,20,054,40*65
###2023-12-09 13:39:06.024211$GLGSV,2,2,06,74,58,018,40,75,45,275,46,,,,,,,,*61
###2023-12-09 13:39:06.026534$GAGSV,1,1,04,04,41,309,43,19,70,181,41,21,75,045,45,27,21,050,39*6A
###2023-12-09 13:39:06.028866$GBGSV,2,1,06,12,17,125,40,14,27,189,45,24,61,048,48,25,52,278,46*66
###2023-12-09 13:39:06.030615$GBGSV,2,2,06,33,44,215,47,35,16,055,41,,,,,,,,*6C
###2023-12-09 13:39:06.031902$GNVTG,81.45,T,,M,2.70,N,5.00,K,A*1B
###2023-12-09 13:39:06.033506$GNGST,183905.10,4.500,,,,0.092,0.069,0.160*62
