###2023-12-09 13:36:58.006387$GLGSA,A,3,65,71,72,73,74,75,83,,,,,,1.0,0.6,0.8*2F
###2023-12-09 13:36:58.008005$GAGSA,A,3,04,19,21,27,,,,,,,,,1.0,0.6,0.8*26
###2023-12-09 13:36:58.009708$GBGSA,A,3,12,14,24,25,33,35,,,,,,,1.0,0.6,0.8*2E
###2023-12-09 13:36:58.012033$GPGSV,2,1,08,03,26,246,43,04,47,307,44,16,67,223,46,26,83,040,47*7E
###2023-12-09 13:36:58.014350$GPGSV,2,2,08,27,17,172,39,28,37,085,44,29,20,046,43,31,59,067,46*7E
###2023-12-09 13:36:58.016694$GLGSV,2,1,07,65,39,317,43,71,21,175,39,72,61,219,45,73,21,053,44*6E
###2023-12-09 13:36:58.018726$GLGSV,2,2,07,74,59,016,42,75,44,273,47,83,15,046,35,,,,*50
###2023-12-09 13:36:58.021030$GAGSV,1,1,04,04,40,309,44,19,71,181,40,21,76,045,45,27,22,050,43*61
###2023-12-09 13:36:58.023350$GBGSV,2,1,06,12,16,125,38,14,28,189,40,24,62,047,48,25,52,277,47*60
###2023-12-09 13:36:58.025081$GBGSV,2,2,06,33,44,216,46,35,16,055,44,,,,,,,,*6B
###2023-12-09 13:36:58.026389$GNVTG,136.48,T,,M,2.45,N,4.54,K,A*2D
###2023-12-09 13:36:58.028011$GNGST,183657.10,5.900,,,,0.090,0.068,0.150*67
###2023-12-09 13:36:58.029295$GNZDA,183657.10,09,12,2023,00,00*7E
###2023-12-09 13:36:58.029930$GNEBP,,,,,,M*13
###2023-12-09 13:36:58.196281$GNGGA,183657.30,4138.0391935,N,07032.4001264,W,1,26,0.6,13.401,M,-29.745,M,0.0,*5F
###2023-12-09 13:36:58.396065$GNGGA,183657.50,4138.0390909,N,07032.4000091,W,1,25,0.6,13.401,M,-29.745,M,0.0,*5D
###2023-12-09 13:36:58.595199$GNGGA,183657.70,4138.0389871,N,07032.3998936,W,1,25,0.6,13.402,M,-29.745,M,0.0,*51
###2023-12-09 13:36:58.796192$GNGGA,183657.90,4138.0388779,N,07032.3997883,W,1,25,0.6,13.404,M,-29.745,M,0.0,*5F
###2023-12-09 13:36:58.999953$GNRMC,183658.10,A,4138.0387680,N,07032.3996854,W,2.49,147.10,091223,,,A*53
###2023-12-09 13:36:59.003286$GNGGA,183658.10,4138.0387680,N,07032.3996854,W,1,25,0.6,13.408,M,-29.745,M,0.0,*57
###2023-12-09 13:36:59.005249$GPGSA,A,3,03,04,16,26,27,28,29,31,,,,,1.0,0.6,0.8*3F
###2023-12-09 13:36:59.006984$GLGSA,A,3,65,71,72,73,74,75,,,,,,,1.0,0.6,0.8*24
###2023-12-09 13:36:59.008569$GAGSA,A,3,04,19,21,27,,,,,,,,,1.0,0.6,0.8*26
###2023-12-09 13:36:59.010280$GBGSA,A,3,12,14,24,25,33,35,,,,,,,1.0,0.6,0.8*2E
###2023-12-09 13:36:59.012624$GPGSV,2,1,08,03,26,246,42,04,47,307,45,16,67,223,46,26,83,040,48*71
###2023-12-09 13:36:59.014980$GPGSV,2,2,08,27,17,172,40,28,37,085,44,29,20,046,42,31,59,067,47*70
###2023-12-09 13:36:59.017324$GLGSV,2,1,06,65,39,317,44,71,21,175,39,72,61,219,45,73,21,053,43*6F
###2023-12-09 13:36:59.019091$GLGSV,2,2,06,74,59,016,43,75,44,273,47,,,,,,,,*6B
###2023-12-09 13:36:59.021426$GAGSV,1,1,04,04,40,309,44,19,71,181,40,21,76,045,46,27,22,050,40*61
###2023-12-09 13:36:59.023769$GBGSV,2,1,06,12,16,125,40,14,28,189,38,24,62,047,47,25,52,277,47*6F
###2023-12-09 13:36:59.025522$GBGSV,2,2,06,33,44,216,45,35,16,055,44,,,,,,,,*68
###2023-12-09 13:36:59.026891$GNVTG,147.10,T,,M,2.49,N,4.61,K,A*2C
###2023-12-09 13:36:59.028508$GNGST,183658.10,5.400,,,,0.089,0.067,0.150*62
###2023-12-09 13:36:59.029795$GNZDA,183658.10,09,12,2023,00,00*71
###2023-12-09 13:36:59.030432$GNEBP,,,,,,M*13
###2023-12-09 13:36:59.197633$GNGGA,183658.30,4138.0386499,N,07032.3995943,W,1,25,0.6,13.411,M,-29.745,M,0.0,*52
###2023-12-09 13:36:59.394957$GNGGA,183658.50,4138.0385251,N,07032.3995129,W,1,25,0.6,13.405,M,-29.745,M,0.0,*54
###2023-12-09 13:36:59.595968$GNGGA,183658.70,4138.0383952,N,07032.3994362,W,1,25,0.6,13.404,M,-29.745,M,0.0,*55
###2023-12-09 13:36:59.795966$GNGGA,183658.90,4138.0382604,N,07032.3993747,W,1,25,0.6,13.421,M,-29.745,M,0.0,*55
###2023-12-09 13:36:59.999590$GNRMC,183659.10,A,4138.0381174,N,07032.3993110,W,2.80,159.28,091223,,,A*55
###2023-12-09 13:37:00.002450$GNGGA,183659.10,4138.0381174,N,07032.3993110,W,1,25,0.6,13.421,M,-29.745,M,0.0,*5B
###2023-12-09 13:37:00.004318$GPGSA,A,3,03,04,16,26,27,28,29,31,,,,,1.0,0.6,0.8*3F
###2023-12-09 13:37:00.006028$GLGSA,A,3,65,71,72,73,74,75,,,,,,,1.0,0.6,0.8*24
###2023-12-09 13:37:00.007625$GAGSA,A,3,04,19,21,27,,,,,,,,,1.0,0.6,0.8*26
###2023-12-09 13:37:00.009324$GBGSA,A,3,12,14,24,25,33,35,,,,,,,1.0,0.6,0.8*2E
###2023-12-09 13:37:00.011650$GPGSV,2,1,08,03,26,246,43,04,47,307,44,16,67,223,46,26,83,040,48*71
###2023-12-09 13:37:00.013968$GPGSV,2,2,08,27,17,172,39,28,37,085,44,29,20,046,43,31,59,067,47*7F
###2023-12-09 13:37:00.016303$GLGSV,2,1,06,65,39,317,43,71,21,175,41,72,61,219,46,73,21,053,42*65
###2023-12-09 13:37:00.018047$GLGSV,2,2,06,74,59,016,43,75,44,273,48,,,,,,,,*64
###2023-12-09 13:37:00.020385$GAGSV,1,1,04,04,40,309,42,19,71,181,39,21,76,045,45,27,22,050,40*6A
###2023-12-09 13:37:00.022740$GBGSV,2,1,06,12,16,125,40,14,28,189,40,24,62,047,48,25,52,277,49*61
###2023-12-09 13:37:00.024478$GBGSV,2,2,06,33,44,216,46,35,16,055,43,,,,,,,,*6C
###2023-12-09 13:37:00.025797$GNVTG,159.28,T,,M,2.80,N,5.18,K,A*22
###2023-12-09 13:37:00.027415$GNGST,183659.10,5.200,,,,0.090,0.067,0.150*6D
###2023-12-09 13:37:00.028699$GNZDA,183659.10,09,12,2023,00,00*70
###2023-12-09 13:37:00.029335$GNEBP,,,,,,M*13
###2023-12-09 13:37:00.197090$GNGGA,183659.30,4138.0379793,N,07032.3992292,W,1,25,0.6,13.391,M,-29.745,M,0.0,*55
###2023-12-09 13:37:00.395668$GNGGA,183659.50,4138.0378359,N,07032.3991644,W,1,25,0.6,13.409,M,-29.745,M,0.0,*5A
###2023-12-09 13:37:00.595657$GNGGA,183659.70,4138.0376761,N,07032.3991200,W,1,25,0.6,13.429,M,-29.745,M,0.0,*5F
###2023-12-09 13:37:00.796679$GNGGA,183659.90,4138.0375250,N,07032.3990513,W,1,25,0.6,13.420,M,-29.745,M,0.0,*58
###2023-12-09 13:37:00.998368$GNRMC,183700.10,A,4138.0373841,N,07032.3989592,W,2.94,155.58,091223,,,A*51
###2023-12-09 13:37:01.001243$GNGGA,183700.10,4138.0373841,N,07032.3989592,W,1,25,0.6,13.408,M,-29.745,M,0.0,*5A
###2023-12-09 13:37:01.003110$GPGSA,A,3,03,04,16,26,27,28,29,31,,,,,1.0,0.6,0.8*3F
###2023-12-09 13:37:01.004823$GLGSA,A,3,65,71,72,73,74,75,,,,,,,1.0,0.6,0.8*24
###2023-12-09 13:37:01.006404$GAGSA,A,3,04,19,21,27,,,,,,,,,1.0,0.6,0.8*26
###2023-12-09 13:37:01.008128$GBGSA,A,3,12,14,24,25,33,35,,,,,,,1.0,0.6,0.8*2E
###2023-12-09 13:37:01.010446$GPGSV,2,1,08,03,26,246,42,04,47,307,45,16,67,223,46,26,83,040,48*71
###2023-12-09 13:37:01.012784$GPGSV,2,2,08,27,17,172,40,28,37,085,43,29,20,046,42,31,59,067,47*77
###2023-12-09 13:37:01.015123$GLGSV,2,1,06,65,39,317,43,71,21,175,41,72,61,219,45,73,21,053,45*61
###2023-12-09 13:37:01.016859$GLGSV,2,2,06,74,59,016,43,75,44,273,47,,,,,,,,*6B
###2023-12-09 13:37:01.019190$GAGSV,1,1,04,04,40,309,43,19,71,181,39,21,76,045,45,27,22,050,41*6A
###2023-12-09 13:37:01.021512$GBGSV,2,1,06,12,16,125,40,14,28,189,35,24,62,047,47,25,52,277,48*6D
###2023-12-09 13:37:01.023262$GBGSV,2,2,06,33,44,216,45,35,16,055,45,,,,,,,,*69
###2023-12-09 13:37:01.024584$GNVTG,155.58,T,,M,2.94,N,5.44,K,A*25
###2023-12-09 13:37:01.026199$GNGST,183700.10,5.700,,,,0.089,0.067,0.150*6D
###2023-12-09 13:37:01.027505$GNZDA,183700.10,09,12,2023,00,00*7D
###2023-12-09 13:37:01.028147$GNEBP,,,,,,M*13
###2023-12-09 13:37:01.200336$GNGGA,183700.30,4138.0372311,N,07032.3988799,W,1,25,0.6,13.423,M,-29.745,M,0.0,*56
###2023-12-09 13:37:01.396737$GNGGA,183700.50,4138.0370708,N,07032.3988109,W,1,26,0.6,13.419,M,-29.745,M,0.0,*5B
###2023-12-09 13:37:01.596806$GNGGA,183700.70,4138.0369189,N,07032.3987235,W,1,25,0.6,13.421,M,-29.745,M,0.0,*55
###2023-12-09 13:37:01.797002$GNGGA,183700.90,4138.0367761,N,07032.3986111,W,1,26,0.6,13.411,M,-29.745,M,0.0,*51
###2023-12-09 13:37:02.001266$GNRMC,183701.10,A,4138.0366393,N,07032.3985020,W,2.90,150.30,091223,,,A*5F
###2023-12-09 13:37:02.004131$GNGGA,183701.10,4138.0366393,N,07032.3985020,W,1,26,0.6,13.418,M,-29.745,M,0.0,*59
###2023-12-09 13:37:02.005990$GPGSA,A,3,03,04,16,26,27,28,29,31,,,,,1.0,0.6,0.8*3F
###2023-12-09 13:37:02.007779$GLGSA,A,3,65,71,72,73,74,75,83,,,,,,1.0,0.6,0.8*2F
###2023-12-09 13:37:02.009360$GAGSA,A,3,04,19,21,27,,,,,,,,,1.0,0.6,0.8*26
###2023-12-09 13:37:02.011082$GBGSA,A,3,12,14,24,25,33,35,,,,,,,1.0,0.6,0.8*2E
###2023-12-09 13:37:02.013409$GPGSV,2,1,08,03,26,246,40,04,47,307,44,16,67,223,46,26,83,040,48*72
###2023-12-09 13:37:02.015745$GPGSV,2,2,08,27,17,172,40,28,37,085,44,29,20,046,44,31,59,067,46*77
###2023-12-09 13:37:02.018071$GLGSV,2,1,07,65,39,317,44,71,21,175,39,72,61,219,44,73,21,053,45*69
###2023-12-09 13:37:02.020348$GLGSV,2,2,07,74,59,016,43,75,44,273,46,83,15,046,37,,,,*52
###2023-12-09 13:37:02.022698$GAGSV,1,1,04,04,40,309,44,19,71,181,40,21,76,045,46,27,22,050,43*62
###2023-12-09 13:37:02.025036$GBGSV,2,1,06,12,16,125,39,14,28,189,38,24,62,047,49,25,52,277,47*6F
###2023-12-09 13:37:02.026792$GBGSV,2,2,06,33,44,216,46,35,16,055,46,,,,,,,,*69
###2023-12-09 13:37:02.028110$GNVTG,150.30,T,,M,2.90,N,5.36,K,A*2F
###2023-12-09 13:37:02.029717$GNGST,183701.10,5.600,,,,0.089,0.068,0.150*62
###2023-12-09 13:37:02.031044$GNZDA,183701.10,09,12,2023,00,00*7C
###2023-12-09 13:37:02.031684$GNEBP,,,,,,M*13
###2023-12-09 13:37:02.198453$GNGGA,183701.30,4138.0364872,N,07032.3983968,W,1,26,0.6,13.422,M,-29.745,M,0.0,*57
###2023-12-09 13:37:02.397162$GNGGA,183701.50,4138.0363470,N,07032.3982853,W,1,26,0.6,13.417,M,-29.745,M,0.0,*56
