###2023-12-09 13:32:12.010934$GLGSV,2,2,06,75,42,269,46,83,15,049,36,,,,,,,,*6F
###2023-12-09 13:32:12.013272$GAGSV,1,1,04,04,39,310,44,19,73,182,41,21,77,047,46,27,23,050,43*66
###2023-12-09 13:32:12.015620$GBGSV,2,1,05,24,64,044,48,25,50,275,46,26,17,070,44,33,47,218,46*6A
###2023-12-09 13:32:12.017117$GBGSV,2,2,05,35,16,058,45,,,,,,,,,,,,*53
###2023-12-09 13:32:12.018411$GNVTG,97.99,T,,M,0.66,N,1.22,K,A*1C
###2023-12-09 13:32:12.020041$GNGST,183211.10,5.900,,,,0.170,0.097,0.250*6D
###2023-12-09 13:32:12.021337$GNZDA,183211.10,09,12,2023,00,00*78
###2023-12-09 13:32:12.021977$GNEBP,,,,,,M*13
###2023-12-09 13:32:12.192463$GNGGA,183211.30,4138.0376486,N,07032.4161368,W,1,23,0.8,13.883,M,-29.745,M,0.0,*52
###2023-12-09 13:32:12.393231$GNGGA,183211.50,4138.0376271,N,07032.4160930,W,1,23,0.8,13.889,M,-29.745,M,0.0,*56
###2023-12-09 13:32:12.589218$GNGGA,183211.70,4138.0376111,N,07032.4160459,W,1,22,0.8,13.883,M,-29.745,M,0.0,*58
###2023-12-09 13:32:12.789731$GNGGA,183211.90,4138.0375986,N,07032.4160028,W,1,22,0.8,13.877,M,-29.745,M,0.0,*5A
###2023-12-09 13:32:12.991171$GNRMC,183212.10,A,4138.0375732,N,07032.4159754,W,0.68,97.99,091223,,,A*63
###2023-12-09 13:32:12.994011$GNGGA,183212.10,4138.0375732,N,07032.4159754,W,1,22,0.8,13.881,M,-29.745,M,0.0,*5F
###2023-12-09 13:32:12.995809$GPGSA,A,3,03,04,16,26,28,29,31,,,,,,1.4,0.8,1.1*38
###2023-12-09 13:32:12.997517$GLGSA,A,3,65,72,73,74,75,83,,,,,,,1.4,0.8,1.1*2B
###2023-12-09 13:32:12.999106$GAGSA,A,3,04,19,21,27,,,,,,,,,1.4,0.8,1.1*24
###2023-12-09 13:32:13.000752$GBGSA,A,3,24,25,26,33,35,,,,,,,,1.4,0.8,1.1*2E
###2023-12-09 13:32:13.003082$GPGSV,2,1,07,03,27,247,40,04,45,308,46,16,65,221,47,26,85,040,49*74
###2023-12-09 13:32:13.005112$GPGSV,2,2,07,28,39,084,45,29,21,048,44,31,60,064,48,,,,*4D
###2023-12-09 13:32:13.007451$GLGSV,2,1,06,65,37,320,45,72,64,223,47,73,23,051,45,74,61,011,43*63
###2023-12-09 13:32:13.009191$GLGSV,2,2,06,75,42,269,48,83,15,049,36,,,,,,,,*61
###2023-12-09 13:32:13.011510$GAGSV,1,1,04,04,39,310,44,19,73,182,39,21,77,047,46,27,23,050,42*68
###2023-12-09 13:32:13.013829$GBGSV,2,1,05,24,64,044,48,25,50,275,47,26,17,070,43,33,47,218,46*6C
###2023-12-09 13:32:13.015292$GBGSV,2,2,05,35,16,058,45,,,,,,,,,,,,*53
###2023-12-09 13:32:13.016575$GNVTG,97.99,T,,M,0.68,N,1.26,K,A*16
###2023-12-09 13:32:13.018177$GNGST,183212.10,5.600,,,,0.160,0.097,0.250*60
###2023-12-09 13:32:13.019475$GNZDA,183212.10,09,12,2023,00,00*7B
###2023-12-09 13:32:13.020112$GNEBP,,,,,,M*13
###2023-12-09 13:32:13.189363$GNGGA,183212.30,4138.0375471,N,07032.4159464,W,1,23,0.8,13.892,M,-29.745,M,0.0,*5A
###2023-12-09 13:32:13.389976$GNGGA,183212.50,4138.0375362,N,07032.4159067,W,1,23,0.8,13.891,M,-29.745,M,0.0,*5D
###2023-12-09 13:32:13.592110$GNGGA,183212.70,4138.0375263,N,07032.4158670,W,1,23,0.8,13.881,M,-29.745,M,0.0,*5F
###2023-12-09 13:32:13.790657$GNGGA,183212.90,4138.0375027,N,07032.4158461,W,1,23,0.8,13.894,M,-29.745,M,0.0,*55
###2023-12-09 13:32:13.992334$GNRMC,183213.10,A,4138.0374769,N,07032.4158296,W,0.54,97.99,091223,,,A*68
###2023-12-09 13:32:13.995214$GNGGA,183213.10,4138.0374769,N,07032.4158296,W,1,23,0.8,13.903,M,-29.745,M,0.0,*51
###2023-12-09 13:32:13.997004$GPGSA,A,3,03,04,16,26,28,29,31,,,,,,1.2,0.8,0.9*37
###2023-12-09 13:32:13.998731$GLGSA,A,3,65,72,73,74,75,83,,,,,,,1.2,0.8,0.9*24
###2023-12-09 13:32:14.000315$GAGSA,A,3,04,19,21,27,,,,,,,,,1.2,0.8,0.9*2B
###2023-12-09 13:32:14.001960$GBGSA,A,3,24,25,26,33,35,,,,,,,,1.2,0.8,0.9*21
###2023-12-09 13:32:14.004292$GPGSV,2,1,07,03,27,247,42,04,45,308,45,16,65,221,48,26,85,040,49*7A
###2023-12-09 13:32:14.006326$GPGSV,2,2,07,28,39,084,43,29,21,048,41,31,60,064,48,,,,*4E
###2023-12-09 13:32:14.008666$GLGSV,2,1,06,65,37,320,44,72,64,223,47,73,23,051,43,74,61,011,43*64
###2023-12-09 13:32:14.010412$GLGSV,2,2,06,75,42,269,49,83,15,049,35,,,,,,,,*63
###2023-12-09 13:32:14.012743$GAGSV,1,1,04,04,39,310,44,19,73,182,40,21,77,047,46,27,23,050,40*64
###2023-12-09 13:32:14.015077$GBGSV,2,1,05,24,64,044,47,25,50,275,48,26,17,070,43,33,47,218,46*6C
###2023-12-09 13:32:14.016523$GBGSV,2,2,05,35,16,058,43,,,,,,,,,,,,*55
###2023-12-09 13:32:14.017800$GNVTG,97.99,T,,M,0.54,N,1.01,K,A*1C
###2023-12-09 13:32:14.019418$GNGST,183213.10,5.700,,,,0.160,0.096,0.240*60
###2023-12-09 13:32:14.020705$GNZDA,183213.10,09,12,2023,00,00*7A
###2023-12-09 13:32:14.021341$GNEBP,,,,,,M*13
###2023-12-09 13:32:14.190671$GNGGA,183213.30,4138.0374605,N,07032.4157969,W,1,22,0.8,13.879,M,-29.745,M,0.0,*51
###2023-12-09 13:32:14.390275$GNGGA,183213.50,4138.0374507,N,07032.4157619,W,1,22,0.8,13.864,M,-29.745,M,0.0,*52
###2023-12-09 13:32:14.590034$GNGGA,183213.70,4138.0374295,N,07032.4157427,W,1,23,0.7,13.887,M,-29.745,M,0.0,*50
###2023-12-09 13:32:14.789604$GNGGA,183213.90,4138.0374054,N,07032.4157266,W,1,23,0.7,13.898,M,-29.745,M,0.0,*5C
###2023-12-09 13:32:14.992100$GNRMC,183214.10,A,4138.0373911,N,07032.4157012,W,0.43,97.99,091223,,,A*6E
###2023-12-09 13:32:14.994965$GNGGA,183214.10,4138.0373911,N,07032.4157012,W,1,23,0.7,13.887,M,-29.745,M,0.0,*53
###2023-12-09 13:32:14.996755$GPGSA,A,3,03,04,16,26,28,29,31,,,,,,1.1,0.7,0.9*3B
###2023-12-09 13:32:14.998460$GLGSA,A,3,65,72,73,74,75,83,,,,,,,1.1,0.7,0.9*28
###2023-12-09 13:32:15.000051$GAGSA,A,3,04,19,21,27,,,,,,,,,1.1,0.7,0.9*27
###2023-12-09 13:32:15.001696$GBGSA,A,3,24,25,26,33,35,,,,,,,,1.1,0.7,0.9*2D
###2023-12-09 13:32:15.004028$GPGSV,2,1,07,03,27,247,40,04,45,308,45,16,65,221,47,26,85,040,49*77
###2023-12-09 13:32:15.006057$GPGSV,2,2,07,28,39,084,45,29,21,048,43,31,60,064,47,,,,*45
###2023-12-09 13:32:15.008390$GLGSV,2,1,06,65,37,320,43,72,64,223,46,73,23,051,43,74,61,011,43*62
###2023-12-09 13:32:15.010130$GLGSV,2,2,06,75,42,269,48,83,15,049,35,,,,,,,,*62
###2023-12-09 13:32:15.012459$GAGSV,1,1,04,04,39,310,44,19,73,182,41,21,77,047,46,27,23,050,40*65
###2023-12-09 13:32:15.014790$GBGSV,2,1,05,24,64,044,48,25,50,275,49,26,17,070,45,33,47,218,47*65
###2023-12-09 13:32:15.016235$GBGSV,2,2,05,35,16,058,44,,,,,,,,,,,,*52
###2023-12-09 13:32:15.017525$GNVTG,97.99,T,,M,0.43,N,0.79,K,A*14
###2023-12-09 13:32:15.019140$GNGST,183214.10,6.500,,,,0.160,0.096,0.240*66
###2023-12-09 13:32:15.020421$GNZDA,183214.10,09,12,2023,00,00*7D
###2023-12-09 13:32:15.021056$GNEBP,,,,,,M*13
###2023-12-09 13:32:15.196651$GNGGA,183214.30,4138.0373757,N,07032.4156741,W,1,23,0.7,13.875,M,-29.745,M,0.0,*50
###2023-12-09 13:32:15.389655$GNGGA,183214.50,4138.0373579,N,07032.4156506,W,1,23,0.7,13.881,M,-29.745,M,0.0,*52
###2023-12-09 13:32:15.588804$GNGGA,183214.70,4138.0373450,N,07032.4156385,W,1,23,0.7,13.893,M,-29.745,M,0.0,*54
###2023-12-09 13:32:15.789135$GNGGA,183214.90,4138.0373255,N,07032.4156365,W,1,23,0.8,13.911,M,-29.745,M,0.0,*53
###2023-12-09 13:32:15.989435$GNRMC,183215.10,A,4138.0373057,N,07032.4156128,W,0.54,97.99,091223,,,A*6B
###2023-12-09 13:32:15.992333$GNGGA,183215.10,4138.0373057,N,07032.4156128,W,1,23,0.7,13.894,M,-29.745,M,0.0,*52
###2023-12-09 13:32:15.994138$GPGSA,A,3,03,04,16,26,28,29,31,,,,,,1.1,0.7,0.9*3B
###2023-12-09 13:32:15.995865$GLGSA,A,3,65,72,73,74,75,83,,,,,,,1.1,0.7,0.9*28
###2023-12-09 13:32:15.997449$GAGSA,A,3,04,19,21,27,,,,,,,,,1.1,0.7,0.9*27
###2023-12-09 13:32:15.999099$GBGSA,A,3,24,25,26,33,35,,,,,,,,1.1,0.7,0.9*2D
###2023-12-09 13:32:16.001417$GPGSV,2,1,07,03,27,247,38,04,45,308,44,16,65,221,47,26,85,040,48*78
###2023-12-09 13:32:16.003462$GPGSV,2,2,07,28,39,084,45,29,21,048,43,31,60,064,46,,,,*44
###2023-12-09 13:32:16.005779$GLGSV,2,1,06,65,37,320,44,72,64,223,46,73,23,051,41,74,61,011,43*67
###2023-12-09 13:32:16.007534$GLGSV,2,2,06,75,42,269,48,83,15,049,35,,,,,,,,*62
###2023-12-09 13:32:16.009848$GAGSV,1,1,04,04,39,310,42,19,73,182,40,21,77,047,45,27,23,050,40*61
###2023-12-09 13:32:16.012182$GBGSV,2,1,05,24,64,044,48,25,50,275,48,26,17,070,44,33,47,218,46*64
###2023-12-09 13:32:16.013634$GBGSV,2,2,05,35,16,058,44,,,,,,,,,,,,*52
###2023-12-09 13:32:16.014931$GNVTG,97.99,T,,M,0.54,N,1.01,K,A*1C
###2023-12-09 13:32:16.016537$GNGST,183215.10,6.300,,,,0.160,0.096,0.240*61
###2023-12-09 13:32:16.017817$GNZDA,183215.10,09,12,2023,00,00*7C
###2023-12-09 13:32:16.018449$GNEBP,,,,,,M*13
###2023-12-09 13:32:16.187666$GNGGA,183215.30,4138.0373007,N,07032.4155851,W,1,24,0.7,13.872,M,-29.745,M,0.0,*5E
###2023-12-09 13:32:16.386958$GNGGA,183215.50,4138.0372840,N,07032.4155963,W,1,24,0.7,13.897,M,-29.745,M,0.0,*59
###2023-12-09 13:32:16.587352$GNGGA,183215.70,4138.0372627,N,07032.4156024,W,1,23,0.7,13.934,M,-29.745,M,0.0,*52
###2023-12-09 13:32:16.788846$GNGGA,183215.90,4138.0372524,N,07032.4155798,W,1,23,0.7,13.920,M,-29.745,M,0.0,*5A
###2023-12-09 13:32:16.993249$GNRMC,183216.10,A,4138.0372452,N,07032.4155569,W,0.25,97.99,091223,,,A*6C
###2023-12-09 13:32:16.996130$GNGGA,183216.10,4138.0372452,N,07032.4155569,W,1,23,0.7,13.892,M,-29.745,M,0.0,*55
###2023-12-09 13:32:16.997924$GPGSA,A,3,03,04,16,26,28,29,31,,,,,,1.1,0.7,0.9*3B
###2023-12-09 13:32:16.999645$GLGSA,A,3,65,71,72,73,74,75,,,,,,,1.1,0.7,0.9*25
