###2023-12-09 12:45:17.952849$GLGSA,A,3,65,71,72,73,74,75,,,,,,,1.1,0.6,0.9*24
###2023-12-09 12:45:17.954468$GAGSA,A,3,04,19,21,27,,,,,,,,,1.1,0.6,0.9*26
###2023-12-09 12:45:17.956153$GBGSA,A,3,14,24,25,26,33,,,,,,,,1.1,0.6,0.9*2F
###2023-12-09 12:45:17.958489$GPGSV,2,1,08,03,38,271,44,04,25,311,41,16,41,209,46,26,71,208,48*74
###2023-12-09 12:45:17.960847$GPGSV,2,2,08,28,55,061,47,29,26,069,42,31,72,015,48,32,26,136,44*77
###2023-12-09 12:45:17.963217$GLGSV,2,1,06,65,17,329,40,71,50,171,48,72,70,297,45,73,43,037,47*6A
###2023-12-09 12:45:17.964974$GLGSV,2,2,06,74,71,310,42,75,26,245,44,,,,,,,,*67
###2023-12-09 12:45:17.967322$GAGSV,1,1,04,04,24,312,39,19,84,283,40,21,81,168,46,27,38,049,44*69
###2023-12-09 12:45:17.969661$GBGSV,2,1,05,14,50,195,45,24,78,005,48,25,36,256,46,26,31,059,43*6D
###2023-12-09 12:45:17.971178$GBGSV,2,2,05,33,61,245,46,,,,,,,,,,,,*58
###2023-12-09 12:45:17.972515$GNVTG,310.66,T,,M,3.11,N,5.76,K,A*26
###2023-12-09 12:45:17.974174$GNGST,174517.10,18.000,,,,0.078,0.069,0.160*59
###2023-12-09 12:45:17.975494$GNZDA,174517.10,09,12,2023,00,00*71
###2023-12-09 12:45:17.976135$GNEBP,,,,,,M*13
###2023-12-09 12:45:18.145873$GNGGA,174517.30,4138.0498656,N,07032.3885101,W,1,24,0.6,13.396,M,-29.745,M,0.0,*5C
###2023-12-09 12:45:18.346375$GNGGA,174517.50,4138.0499668,N,07032.3886878,W,1,24,0.6,13.394,M,-29.745,M,0.0,*50
###2023-12-09 12:45:18.546589$GNGGA,174517.70,4138.0500678,N,07032.3888722,W,1,24,0.6,13.393,M,-29.745,M,0.0,*5B
###2023-12-09 12:45:18.745513$GNGGA,174517.90,4138.0501623,N,07032.3890631,W,1,24,0.6,13.381,M,-29.745,M,0.0,*53
###2023-12-09 12:45:18.946749$GNRMC,174518.10,A,4138.0502437,N,07032.3892592,W,3.03,296.40,091223,,,A*5E
###2023-12-09 12:45:18.949647$GNGGA,174518.10,4138.0502437,N,07032.3892592,W,1,24,0.6,13.380,M,-29.745,M,0.0,*59
###2023-12-09 12:45:18.951543$GPGSA,A,3,03,04,16,26,28,29,31,32,,,,,1.1,0.6,0.9*3B
###2023-12-09 12:45:18.953266$GLGSA,A,3,65,71,72,73,74,75,,,,,,,1.1,0.6,0.9*24
###2023-12-09 12:45:18.954867$GAGSA,A,3,04,19,21,27,,,,,,,,,1.1,0.6,0.9*26
###2023-12-09 12:45:18.956512$GBGSA,A,3,14,24,25,26,33,,,,,,,,1.1,0.6,0.9*2F
###2023-12-09 12:45:18.958859$GPGSV,2,1,08,03,38,271,42,04,25,311,39,16,41,209,46,26,71,208,48*7D
###2023-12-09 12:45:18.961201$GPGSV,2,2,08,28,55,061,45,29,26,069,42,31,72,015,48,32,26,136,44*75
###2023-12-09 12:45:18.963562$GLGSV,2,1,06,65,17,329,39,71,50,171,49,72,70,297,45,73,43,037,47*65
###2023-12-09 12:45:18.965313$GLGSV,2,2,06,74,71,310,41,75,26,245,43,,,,,,,,*63
###2023-12-09 12:45:18.967654$GAGSV,1,1,04,04,24,312,37,19,84,283,40,21,81,168,46,27,38,049,44*67
###2023-12-09 12:45:18.969996$GBGSV,2,1,05,14,50,195,45,24,78,005,48,25,36,256,45,26,31,059,43*6E
###2023-12-09 12:45:18.971482$GBGSV,2,2,05,33,61,245,47,,,,,,,,,,,,*59
###2023-12-09 12:45:18.972811$GNVTG,296.40,T,,M,3.03,N,5.62,K,A*2B
###2023-12-09 12:45:18.974463$GNGST,174518.10,18.000,,,,0.078,0.069,0.160*56
###2023-12-09 12:45:18.975771$GNZDA,174518.10,09,12,2023,00,00*7E
###2023-12-09 12:45:18.976413$GNEBP,,,,,,M*13
###2023-12-09 12:45:19.146204$GNGGA,174518.30,4138.0503174,N,07032.3894569,W,1,24,0.6,13.382,M,-29.745,M,0.0,*58
###2023-12-09 12:45:19.347438$GNGGA,174518.50,4138.0503862,N,07032.3896572,W,1,24,0.6,13.383,M,-29.745,M,0.0,*59
###2023-12-09 12:45:19.545413$GNGGA,174518.70,4138.0504462,N,07032.3898614,W,1,24,0.6,13.371,M,-29.745,M,0.0,*50
###2023-12-09 12:45:19.744516$GNGGA,174518.90,4138.0504953,N,07032.3900624,W,1,24,0.6,13.374,M,-29.745,M,0.0,*57
###2023-12-09 12:45:19.946065$GNRMC,174519.10,A,4138.0505378,N,07032.3902659,W,2.84,284.26,091223,,,A*55
###2023-12-09 12:45:19.948950$GNGGA,174519.10,4138.0505378,N,07032.3902659,W,1,24,0.6,13.370,M,-29.745,M,0.0,*50
###2023-12-09 12:45:19.950831$GPGSA,A,3,03,04,16,26,28,29,31,32,,,,,1.1,0.6,0.9*3B
###2023-12-09 12:45:19.952544$GLGSA,A,3,65,71,72,73,74,75,,,,,,,1.1,0.6,0.9*24
###2023-12-09 12:45:19.954123$GAGSA,A,3,04,19,21,27,,,,,,,,,1.1,0.6,0.9*26
###2023-12-09 12:45:19.955787$GBGSA,A,3,14,24,25,26,33,,,,,,,,1.1,0.6,0.9*2F
###2023-12-09 12:45:19.958106$GPGSV,2,1,08,03,38,271,42,04,25,311,37,16,41,209,45,26,71,208,47*7F
###2023-12-09 12:45:19.960442$GPGSV,2,2,08,28,55,061,45,29,26,069,42,31,72,015,47,32,26,136,43*7D
###2023-12-09 12:45:19.962774$GLGSV,2,1,06,65,17,329,40,71,50,171,47,72,70,297,45,73,43,037,47*65
###2023-12-09 12:45:19.964519$GLGSV,2,2,06,74,71,310,42,75,26,245,39,,,,,,,,*6D
###2023-12-09 12:45:19.966856$GAGSV,1,1,04,04,24,312,37,19,84,283,40,21,82,167,46,27,38,049,43*6C
###2023-12-09 12:45:19.969183$GBGSV,2,1,05,14,50,195,45,24,78,005,48,25,36,256,44,26,31,059,43*6F
###2023-12-09 12:45:19.970674$GBGSV,2,2,05,33,61,245,47,,,,,,,,,,,,*59
###2023-12-09 12:45:19.971998$GNVTG,284.26,T,,M,2.84,N,5.26,K,A*26
###2023-12-09 12:45:19.973642$GNGST,174519.10,18.000,,,,0.079,0.070,0.160*5E
###2023-12-09 12:45:19.974942$GNZDA,174519.10,09,12,2023,00,00*7F
###2023-12-09 12:45:19.975581$GNEBP,,,,,,M*13
###2023-12-09 12:45:20.149709$GNGGA,174519.30,4138.0505684,N,07032.3904698,W,1,24,0.6,13.375,M,-29.745,M,0.0,*5A
###2023-12-09 12:45:20.346031$GNGGA,174519.50,4138.0505940,N,07032.3906736,W,1,24,0.6,13.373,M,-29.745,M,0.0,*5A
###2023-12-09 12:45:20.545117$GNGGA,174519.70,4138.0506112,N,07032.3908811,W,1,24,0.6,13.375,M,-29.745,M,0.0,*56
###2023-12-09 12:45:20.744473$GNGGA,174519.90,4138.0506121,N,07032.3910848,W,1,24,0.6,13.379,M,-29.745,M,0.0,*51
###2023-12-09 12:45:20.952681$GNRMC,174520.10,A,4138.0505998,N,07032.3912850,W,2.66,263.59,091223,,,A*50
###2023-12-09 12:45:20.955535$GNGGA,174520.10,4138.0505998,N,07032.3912850,W,1,24,0.6,13.378,M,-29.745,M,0.0,*50
###2023-12-09 12:45:20.957395$GPGSA,A,3,03,04,16,26,28,29,31,32,,,,,1.1,0.6,0.9*3B
###2023-12-09 12:45:20.959126$GLGSA,A,3,65,71,72,73,74,75,,,,,,,1.1,0.6,0.9*24
###2023-12-09 12:45:20.960712$GAGSA,A,3,04,19,21,27,,,,,,,,,1.1,0.6,0.9*26
###2023-12-09 12:45:20.962368$GBGSA,A,3,14,24,25,26,33,,,,,,,,1.1,0.6,0.9*2F
###2023-12-09 12:45:20.964717$GPGSV,2,1,08,03,38,271,42,04,25,311,41,16,41,209,45,26,71,208,47*7E
###2023-12-09 12:45:20.967065$GPGSV,2,2,08,28,55,061,45,29,26,069,42,31,72,015,47,32,26,136,43*7D
###2023-12-09 12:45:20.969392$GLGSV,2,1,06,65,17,329,42,71,50,171,46,72,70,297,45,73,43,037,46*67
###2023-12-09 12:45:20.971148$GLGSV,2,2,06,74,71,310,42,75,26,245,42,,,,,,,,*61
###2023-12-09 12:45:20.973477$GAGSV,1,1,04,04,24,312,40,19,84,283,40,21,82,167,46,27,38,049,43*6C
###2023-12-09 12:45:20.975825$GBGSV,2,1,05,14,50,195,45,24,78,005,48,25,36,256,44,26,31,059,43*6F
###2023-12-09 12:45:20.977278$GBGSV,2,2,05,33,61,245,46,,,,,,,,,,,,*58
###2023-12-09 12:45:20.978608$GNVTG,263.59,T,,M,2.66,N,4.93,K,A*24
###2023-12-09 12:45:20.980253$GNGST,174520.10,18.000,,,,0.079,0.070,0.160*54
###2023-12-09 12:45:20.981541$GNZDA,174520.10,09,12,2023,00,00*75
###2023-12-09 12:45:20.982179$GNEBP,,,,,,M*13
###2023-12-09 12:45:21.145351$GNGGA,174520.30,4138.0505812,N,07032.3914822,W,1,24,0.6,13.374,M,-29.745,M,0.0,*5E
###2023-12-09 12:45:21.344887$GNGGA,174520.50,4138.0505569,N,07032.3916798,W,1,24,0.6,13.373,M,-29.745,M,0.0,*52
###2023-12-09 12:45:21.546856$GNGGA,174520.70,4138.0505259,N,07032.3918731,W,1,24,0.6,13.374,M,-29.745,M,0.0,*5E
###2023-12-09 12:45:21.746406$GNGGA,174520.90,4138.0504877,N,07032.3920610,W,1,24,0.6,13.377,M,-29.745,M,0.0,*5D
###2023-12-09 12:45:21.945992$GNRMC,174521.10,A,4138.0504378,N,07032.3922461,W,2.68,247.62,091223,,,A*59
###2023-12-09 12:45:21.948868$GNGGA,174521.10,4138.0504378,N,07032.3922461,W,1,24,0.6,13.374,M,-29.745,M,0.0,*55
###2023-12-09 12:45:21.950753$GPGSA,A,3,03,04,16,26,28,29,31,32,,,,,1.1,0.6,0.9*3B
###2023-12-09 12:45:21.952470$GLGSA,A,3,65,71,72,73,74,75,,,,,,,1.1,0.6,0.9*24
###2023-12-09 12:45:21.954047$GAGSA,A,3,04,19,21,27,,,,,,,,,1.1,0.6,0.9*26
###2023-12-09 12:45:21.955709$GBGSA,A,3,14,24,25,26,33,,,,,,,,1.1,0.6,0.9*2F
###2023-12-09 12:45:21.958032$GPGSV,2,1,08,03,38,271,41,04,25,311,41,16,41,209,45,26,71,208,47*7D
###2023-12-09 12:45:21.960381$GPGSV,2,2,08,28,55,061,45,29,26,069,42,31,72,015,47,32,26,136,44*7A
###2023-12-09 12:45:21.962734$GLGSV,2,1,06,65,17,329,42,71,50,171,46,72,70,297,45,73,43,037,47*66
###2023-12-09 12:45:21.964472$GLGSV,2,2,06,74,71,310,42,75,26,245,42,,,,,,,,*61
###2023-12-09 12:45:21.967060$GAGSV,1,1,04,04,24,312,40,19,84,283,40,21,82,167,46,27,38,049,44*6B
###2023-12-09 12:45:21.969409$GBGSV,2,1,05,14,50,195,45,24,78,005,48,25,36,256,45,26,31,059,45*68
###2023-12-09 12:45:21.970886$GBGSV,2,2,05,33,61,245,47,,,,,,,,,,,,*59
###2023-12-09 12:45:21.972216$GNVTG,247.62,T,,M,2.68,N,4.97,K,A*20
###2023-12-09 12:45:21.973871$GNGST,174521.10,18.000,,,,0.079,0.070,0.160*55
###2023-12-09 12:45:21.975179$GNZDA,174521.10,09,12,2023,00,00*74
###2023-12-09 12:45:21.975823$GNEBP,,,,,,M*13
###2023-12-09 12:45:22.145580$GNGGA,174521.30,4138.0503799,N,07032.3924282,W,1,24,0.6,13.377,M,-29.745,M,0.0,*55
###2023-12-09 12:45:22.346046$GNGGA,174521.50,4138.0503276,N,07032.3926182,W,1,24,0.6,13.390,M,-29.745,M,0.0,*5F
