###2023-12-09 13:07:21.768820$GNGGA,180720.90,4138.0758191,N,07032.3748326,W,1,25,0.6,13.207,M,-29.743,M,0.0,*5F
###2023-12-09 13:07:21.971043$GNRMC,180721.10,A,4138.0759431,N,07032.3747672,W,2.47,17.94,091223,,,A*6E
###2023-12-09 13:07:21.973902$GNGGA,180721.10,4138.0759431,N,07032.3747672,W,1,25,0.6,13.206,M,-29.743,M,0.0,*52
###2023-12-09 13:07:21.975780$GPGSA,A,3,03,04,16,26,28,29,31,32,,,,,1.1,0.6,0.9*3B
###2023-12-09 13:07:21.977490$GLGSA,A,3,65,71,72,73,74,75,,,,,,,1.1,0.6,0.9*24
###2023-12-09 13:07:21.979085$GAGSA,A,3,04,19,21,27,,,,,,,,,1.1,0.6,0.9*26
###2023-12-09 13:07:21.980804$GBGSA,A,3,14,24,25,26,33,35,,,,,,,1.1,0.6,0.9*29
###2023-12-09 13:07:21.983144$GPGSV,2,1,08,03,34,258,40,04,35,311,42,16,53,214,45,26,82,210,47*73
###2023-12-09 13:07:21.985483$GPGSV,2,2,08,28,48,072,43,29,25,059,39,31,68,042,45,32,17,141,42*71
###2023-12-09 13:07:21.987834$GLGSV,2,1,06,65,26,326,43,71,37,173,45,72,72,258,46,73,33,043,44*6F
###2023-12-09 13:07:21.989593$GLGSV,2,2,06,74,68,345,42,75,34,256,44,,,,,,,,*6E
###2023-12-09 13:07:21.991952$GAGSV,1,1,04,04,31,312,43,19,83,203,40,21,85,092,45,27,31,048,40*60
###2023-12-09 13:07:21.994299$GBGSV,2,1,06,14,41,192,45,24,72,029,47,25,42,264,46,26,24,064,41*68
###2023-12-09 13:07:21.996074$GBGSV,2,2,06,33,56,229,47,35,15,067,43,,,,,,,,*60
###2023-12-09 13:07:21.997370$GNVTG,17.94,T,,M,2.47,N,4.57,K,A*1F
###2023-12-09 13:07:21.999035$GNGST,180721.10,18.000,,,,0.081,0.067,0.150*5E
###2023-12-09 13:07:22.000333$GNZDA,180721.10,09,12,2023,00,00*7D
###2023-12-09 13:07:22.000974$GNEBP,,,,,,M*13
###2023-12-09 13:07:22.167385$GNGGA,180721.30,4138.0760718,N,07032.3747056,W,1,25,0.6,13.210,M,-29.743,M,0.0,*55
###2023-12-09 13:07:22.368500$GNGGA,180721.50,4138.0761894,N,07032.3746135,W,1,25,0.6,13.217,M,-29.743,M,0.0,*5B
###2023-12-09 13:07:22.568144$GNGGA,180721.70,4138.0762883,N,07032.3745055,W,1,25,0.6,13.231,M,-29.743,M,0.0,*5C
###2023-12-09 13:07:22.768170$GNGGA,180721.90,4138.0763974,N,07032.3744140,W,1,25,0.6,13.238,M,-29.743,M,0.0,*57
###2023-12-09 13:07:22.975248$GNRMC,180722.10,A,4138.0765077,N,07032.3743102,W,2.37,42.91,091223,,,A*62
###2023-12-09 13:07:22.978133$GNGGA,180722.10,4138.0765077,N,07032.3743102,W,1,25,0.6,13.215,M,-29.743,M,0.0,*5E
###2023-12-09 13:07:22.980021$GPGSA,A,3,03,04,16,26,28,29,31,32,,,,,1.1,0.6,0.9*3B
###2023-12-09 13:07:22.981755$GLGSA,A,3,65,71,72,73,74,75,,,,,,,1.1,0.6,0.9*24
###2023-12-09 13:07:22.983371$GAGSA,A,3,04,19,21,27,,,,,,,,,1.1,0.6,0.9*26
###2023-12-09 13:07:22.985102$GBGSA,A,3,14,24,25,26,33,35,,,,,,,1.1,0.6,0.9*29
###2023-12-09 13:07:22.987465$GPGSV,2,1,08,03,34,258,44,04,35,311,44,16,53,214,45,26,82,210,48*7E
###2023-12-09 13:07:22.989817$GPGSV,2,2,08,28,48,072,42,29,25,059,39,31,68,042,46,32,17,141,43*72
###2023-12-09 13:07:22.992182$GLGSV,2,1,06,65,26,326,43,71,37,173,47,72,72,258,46,73,33,043,41*68
###2023-12-09 13:07:22.993950$GLGSV,2,2,06,74,68,345,42,75,34,256,45,,,,,,,,*6F
###2023-12-09 13:07:22.996311$GAGSV,1,1,04,04,31,312,43,19,83,203,40,21,85,092,45,27,31,048,42*62
###2023-12-09 13:07:22.998675$GBGSV,2,1,06,14,41,192,43,24,72,029,47,25,42,264,45,26,24,064,39*62
###2023-12-09 13:07:23.000439$GBGSV,2,2,06,33,56,229,46,35,15,067,41,,,,,,,,*63
###2023-12-09 13:07:23.001741$GNVTG,42.91,T,,M,2.37,N,4.39,K,A*15
###2023-12-09 13:07:23.003417$GNGST,180722.10,18.000,,,,0.082,0.068,0.160*52
###2023-12-09 13:07:23.004722$GNZDA,180722.10,09,12,2023,00,00*7E
###2023-12-09 13:07:23.005366$GNEBP,,,,,,M*13
###2023-12-09 13:07:23.168485$GNGGA,180722.30,4138.0765861,N,07032.3741904,W,1,25,0.6,13.197,M,-29.743,M,0.0,*56
###2023-12-09 13:07:23.369029$GNGGA,180722.50,4138.0766680,N,07032.3740795,W,1,25,0.6,13.227,M,-29.743,M,0.0,*5D
###2023-12-09 13:07:23.569396$GNGGA,180722.70,4138.0767603,N,07032.3739598,W,1,25,0.6,13.237,M,-29.743,M,0.0,*55
###2023-12-09 13:07:23.769488$GNGGA,180722.90,4138.0768179,N,07032.3738264,W,1,25,0.6,13.225,M,-29.743,M,0.0,*58
###2023-12-09 13:07:23.970883$GNRMC,180723.10,A,4138.0768746,N,07032.3737038,W,2.10,50.41,091223,,,A*6B
###2023-12-09 13:07:23.973746$GNGGA,180723.10,4138.0768746,N,07032.3737038,W,1,25,0.6,13.234,M,-29.743,M,0.0,*5F
###2023-12-09 13:07:23.975614$GPGSA,A,3,03,04,16,26,28,29,31,32,,,,,1.1,0.6,0.9*3B
###2023-12-09 13:07:23.977340$GLGSA,A,3,65,71,72,73,74,75,,,,,,,1.1,0.6,0.9*24
###2023-12-09 13:07:23.978937$GAGSA,A,3,04,19,21,27,,,,,,,,,1.1,0.6,0.9*26
###2023-12-09 13:07:23.980651$GBGSA,A,3,14,24,25,26,33,35,,,,,,,1.1,0.6,0.9*29
###2023-12-09 13:07:23.982988$GPGSV,2,1,08,03,34,258,44,04,35,311,42,16,53,214,47,26,82,210,48*7A
###2023-12-09 13:07:23.985317$GPGSV,2,2,08,28,48,072,42,29,25,059,39,31,68,042,45,32,17,141,42*70
###2023-12-09 13:07:23.987653$GLGSV,2,1,06,65,26,326,42,71,37,173,47,72,72,258,47,73,33,043,42*6B
###2023-12-09 13:07:23.989404$GLGSV,2,2,06,74,68,345,42,75,34,256,47,,,,,,,,*6D
###2023-12-09 13:07:23.991734$GAGSV,1,1,04,04,31,312,42,19,83,203,40,21,85,092,45,27,31,048,39*6F
###2023-12-09 13:07:23.994060$GBGSV,2,1,06,14,41,192,45,24,72,029,47,25,42,264,46,26,24,064,40*69
###2023-12-09 13:07:23.995813$GBGSV,2,2,06,33,56,229,47,35,15,067,41,,,,,,,,*62
###2023-12-09 13:07:23.997105$GNVTG,50.41,T,,M,2.10,N,3.89,K,A*12
###2023-12-09 13:07:23.998766$GNGST,180723.10,18.000,,,,0.083,0.068,0.160*52
###2023-12-09 13:07:24.000058$GNZDA,180723.10,09,12,2023,00,00*7F
###2023-12-09 13:07:24.000699$GNEBP,,,,,,M*13
###2023-12-09 13:07:24.168530$GNGGA,180723.30,4138.0769440,N,07032.3735717,W,1,25,0.6,13.248,M,-29.743,M,0.0,*5A
###2023-12-09 13:07:24.370622$GNGGA,180723.50,4138.0769914,N,07032.3734337,W,1,25,0.6,13.231,M,-29.743,M,0.0,*59
###2023-12-09 13:07:24.569371$GNGGA,180723.70,4138.0770284,N,07032.3733029,W,1,25,0.6,13.256,M,-29.743,M,0.0,*5B
###2023-12-09 13:07:24.769435$GNGGA,180723.90,4138.0770796,N,07032.3731612,W,1,25,0.6,13.265,M,-29.743,M,0.0,*5F
###2023-12-09 13:07:24.971111$GNRMC,180724.10,A,4138.0771091,N,07032.3730047,W,2.06,82.95,091223,,,A*67
###2023-12-09 13:07:24.973975$GNGGA,180724.10,4138.0771091,N,07032.3730047,W,1,25,0.6,13.254,M,-29.743,M,0.0,*54
###2023-12-09 13:07:24.975849$GPGSA,A,3,03,04,16,26,28,29,31,32,,,,,1.1,0.6,0.9*3B
###2023-12-09 13:07:24.977568$GLGSA,A,3,65,71,72,73,74,75,,,,,,,1.1,0.6,0.9*24
###2023-12-09 13:07:24.979202$GAGSA,A,3,04,19,21,27,,,,,,,,,1.1,0.6,0.9*26
###2023-12-09 13:07:24.980920$GBGSA,A,3,14,24,25,26,33,35,,,,,,,1.1,0.6,0.9*29
###2023-12-09 13:07:24.983264$GPGSV,2,1,08,03,34,258,42,04,35,311,42,16,53,214,47,26,82,210,48*7C
###2023-12-09 13:07:24.985600$GPGSV,2,2,08,28,48,072,44,29,25,059,41,31,68,042,46,32,17,141,40*78
###2023-12-09 13:07:24.987945$GLGSV,2,1,06,65,26,326,40,71,37,173,45,72,72,258,47,73,33,043,44*6D
###2023-12-09 13:07:24.989693$GLGSV,2,2,06,74,68,345,42,75,34,256,44,,,,,,,,*6E
###2023-12-09 13:07:24.992038$GAGSV,1,1,04,04,31,312,40,19,83,203,40,21,85,092,46,27,31,048,42*62
###2023-12-09 13:07:24.994374$GBGSV,2,1,06,14,41,192,45,24,72,029,47,25,42,264,45,26,24,064,42*68
###2023-12-09 13:07:24.996137$GBGSV,2,2,06,33,56,229,47,35,15,067,42,,,,,,,,*61
###2023-12-09 13:07:24.997432$GNVTG,82.95,T,,M,2.06,N,3.82,K,A*18
###2023-12-09 13:07:24.999121$GNGST,180724.10,18.000,,,,0.083,0.068,0.160*55
###2023-12-09 13:07:25.000414$GNZDA,180724.10,09,12,2023,00,00*78
###2023-12-09 13:07:25.001053$GNEBP,,,,,,M*13
###2023-12-09 13:07:25.168397$GNGGA,180724.30,4138.0771204,N,07032.3728636,W,1,25,0.6,13.250,M,-29.743,M,0.0,*55
###2023-12-09 13:07:25.369074$GNGGA,180724.50,4138.0771417,N,07032.3727217,W,1,25,0.6,13.268,M,-29.743,M,0.0,*54
###2023-12-09 13:07:25.569383$GNGGA,180724.70,4138.0771595,N,07032.3725564,W,1,25,0.6,13.278,M,-29.743,M,0.0,*5D
###2023-12-09 13:07:25.768731$GNGGA,180724.90,4138.0771551,N,07032.3724000,W,1,25,0.6,13.262,M,-29.743,M,0.0,*56
###2023-12-09 13:07:25.971223$GNRMC,180725.10,A,4138.0771503,N,07032.3722614,W,1.94,89.57,091223,,,A*66
###2023-12-09 13:07:25.974100$GNGGA,180725.10,4138.0771503,N,07032.3722614,W,1,25,0.6,13.276,M,-29.743,M,0.0,*58
###2023-12-09 13:07:25.975983$GPGSA,A,3,03,04,16,26,28,29,31,32,,,,,1.1,0.6,0.9*3B
###2023-12-09 13:07:25.977712$GLGSA,A,3,65,71,72,73,74,75,,,,,,,1.1,0.6,0.9*24
###2023-12-09 13:07:25.979313$GAGSA,A,3,04,19,21,27,,,,,,,,,1.1,0.6,0.9*26
###2023-12-09 13:07:25.981304$GBGSA,A,3,14,24,25,26,33,35,,,,,,,1.1,0.6,0.9*29
###2023-12-09 13:07:25.983662$GPGSV,2,1,08,03,34,258,42,04,35,311,43,16,53,214,47,26,82,210,49*7C
###2023-12-09 13:07:25.986006$GPGSV,2,2,08,28,48,072,45,29,25,059,44,31,68,042,46,32,17,141,43*7F
###2023-12-09 13:07:25.988361$GLGSV,2,1,06,65,26,326,41,71,37,173,45,72,72,258,46,73,33,043,45*6C
###2023-12-09 13:07:25.990115$GLGSV,2,2,06,74,68,345,42,75,34,256,45,,,,,,,,*6F
###2023-12-09 13:07:25.992453$GAGSV,1,1,04,04,31,312,44,19,83,203,40,21,85,092,45,27,31,048,41*66
###2023-12-09 13:07:25.994797$GBGSV,2,1,06,14,41,192,44,24,72,029,49,25,42,264,45,26,24,064,44*61
###2023-12-09 13:07:25.996547$GBGSV,2,2,06,33,56,229,49,35,15,067,44,,,,,,,,*69
###2023-12-09 13:07:25.997837$GNVTG,89.57,T,,M,1.94,N,3.60,K,A*19
###2023-12-09 13:07:25.999496$GNGST,180725.10,18.000,,,,0.083,0.067,0.150*58
