###2023-12-09 12:35:45.964048$GNZDA,173545.10,09,12,2023,00,00*71
###2023-12-09 12:35:45.964721$GNEBP,,,,,,M*13
###2023-12-09 12:35:46.134160$GNGGA,173545.30,4138.0500195,N,07032.4153646,W,1,23,0.7,13.226,M,-29.745,M,0.0,*59
###2023-12-09 12:35:46.334167$GNGGA,173545.50,4138.0499028,N,07032.4152671,W,1,23,0.7,13.224,M,-29.745,M,0.0,*5E
###2023-12-09 12:35:46.534038$GNGGA,173545.70,4138.0497837,N,07032.4151715,W,1,23,0.7,13.221,M,-29.745,M,0.0,*51
###2023-12-09 12:35:46.733190$GNGGA,173545.90,4138.0496673,N,07032.4150757,W,1,23,0.7,13.231,M,-29.745,M,0.0,*56
###2023-12-09 12:35:46.936070$GNRMC,173546.10,A,4138.0495426,N,07032.4149808,W,2.51,151.27,091223,,,A*54
###2023-12-09 12:35:46.938960$GNGGA,173546.10,4138.0495426,N,07032.4149808,W,1,23,0.7,13.234,M,-29.745,M,0.0,*54
###2023-12-09 12:35:46.940829$GPGSA,A,3,03,04,16,26,28,29,31,32,,,,,1.2,0.7,1.0*31
###2023-12-09 12:35:46.942489$GLGSA,A,3,71,72,73,74,75,,,,,,,,1.2,0.7,1.0*2D
###2023-12-09 12:35:46.944110$GAGSA,A,3,04,19,21,27,,,,,,,,,1.2,0.7,1.0*2C
###2023-12-09 12:35:46.945774$GBGSA,A,3,14,24,25,26,33,,,,,,,,1.2,0.7,1.0*25
###2023-12-09 12:35:46.948146$GPGSV,2,1,08,03,39,277,44,04,22,311,40,16,37,207,44,26,66,206,47*7F
###2023-12-09 12:35:46.950514$GPGSV,2,2,08,28,58,056,46,29,25,074,44,31,73,001,46,32,30,134,43*7E
###2023-12-09 12:35:46.952885$GLGSV,2,1,05,71,56,169,46,72,66,308,47,73,47,034,47,74,71,293,41*6C
###2023-12-09 12:35:46.954359$GLGSV,2,2,05,75,22,241,44,,,,,,,,,,,,*55
###2023-12-09 12:35:46.956725$GAGSV,1,1,04,04,21,311,41,19,81,302,40,21,78,176,45,27,41,049,44*69
###2023-12-09 12:35:46.959086$GBGSV,2,1,05,14,55,197,44,24,80,347,48,25,33,253,44,26,35,057,46*64
###2023-12-09 12:35:46.960555$GBGSV,2,2,05,33,63,253,48,,,,,,,,,,,,*53
###2023-12-09 12:35:46.961886$GNVTG,151.27,T,,M,2.51,N,4.64,K,A*23
###2023-12-09 12:35:46.963564$GNGST,173546.10,19.000,,,,0.082,0.071,0.170*56
###2023-12-09 12:35:46.964860$GNZDA,173546.10,09,12,2023,00,00*72
###2023-12-09 12:35:46.965504$GNEBP,,,,,,M*13
###2023-12-09 12:35:47.133663$GNGGA,173546.30,4138.0494229,N,07032.4148831,W,1,23,0.7,13.231,M,-29.745,M,0.0,*50
###2023-12-09 12:35:47.335280$GNGGA,173546.50,4138.0493034,N,07032.4147824,W,1,23,0.7,13.224,M,-29.745,M,0.0,*50
###2023-12-09 12:35:47.536201$GNGGA,173546.70,4138.0491801,N,07032.4146806,W,1,23,0.7,13.229,M,-29.745,M,0.0,*52
###2023-12-09 12:35:47.734492$GNGGA,173546.90,4138.0490578,N,07032.4145778,W,1,23,0.7,13.231,M,-29.745,M,0.0,*52
###2023-12-09 12:35:47.937182$GNRMC,173547.10,A,4138.0489377,N,07032.4144725,W,2.64,147.25,091223,,,A*55
###2023-12-09 12:35:47.940216$GNGGA,173547.10,4138.0489377,N,07032.4144725,W,1,23,0.7,13.235,M,-29.745,M,0.0,*57
###2023-12-09 12:35:47.942092$GPGSA,A,3,03,04,16,26,28,29,31,32,,,,,1.2,0.7,1.0*31
###2023-12-09 12:35:47.943769$GLGSA,A,3,71,72,73,74,75,,,,,,,,1.2,0.7,1.0*2D
###2023-12-09 12:35:47.945360$GAGSA,A,3,04,19,21,27,,,,,,,,,1.2,0.7,1.0*2C
###2023-12-09 12:35:47.947036$GBGSA,A,3,14,24,25,26,33,,,,,,,,1.2,0.7,1.0*25
###2023-12-09 12:35:47.949382$GPGSV,2,1,08,03,39,277,44,04,22,311,42,16,37,207,44,26,66,206,47*7D
###2023-12-09 12:35:47.951782$GPGSV,2,2,08,28,58,056,45,29,25,074,43,31,73,001,47,32,30,134,43*7B
###2023-12-09 12:35:47.954130$GLGSV,2,1,05,71,56,169,47,72,66,308,47,73,47,034,47,74,71,293,43*6F
###2023-12-09 12:35:47.955608$GLGSV,2,2,05,75,22,241,45,,,,,,,,,,,,*54
###2023-12-09 12:35:47.957935$GAGSV,1,1,04,04,21,311,42,19,81,302,40,21,78,176,46,27,41,049,44*69
###2023-12-09 12:35:47.960274$GBGSV,2,1,05,14,55,197,44,24,80,347,48,25,33,253,44,26,35,057,45*67
###2023-12-09 12:35:47.961725$GBGSV,2,2,05,33,63,253,48,,,,,,,,,,,,*53
###2023-12-09 12:35:47.963061$GNVTG,147.25,T,,M,2.64,N,4.90,K,A*2B
###2023-12-09 12:35:47.964708$GNGST,173547.10,18.000,,,,0.082,0.071,0.170*56
###2023-12-09 12:35:47.966000$GNZDA,173547.10,09,12,2023,00,00*73
###2023-12-09 12:35:47.966656$GNEBP,,,,,,M*13
###2023-12-09 12:35:48.136074$GNGGA,173547.30,4138.0488134,N,07032.4143659,W,1,23,0.7,13.241,M,-29.745,M,0.0,*5F
###2023-12-09 12:35:48.336292$GNGGA,173547.50,4138.0486926,N,07032.4142507,W,1,23,0.7,13.233,M,-29.745,M,0.0,*50
###2023-12-09 12:35:48.536377$GNGGA,173547.70,4138.0485735,N,07032.4141392,W,1,23,0.7,13.233,M,-29.745,M,0.0,*54
###2023-12-09 12:35:48.735316$GNGGA,173547.90,4138.0484457,N,07032.4140320,W,1,23,0.7,13.245,M,-29.745,M,0.0,*55
###2023-12-09 12:35:48.935122$GNRMC,173548.10,A,4138.0483255,N,07032.4139267,W,2.51,144.18,091223,,,A*53
###2023-12-09 12:35:48.937989$GNGGA,173548.10,4138.0483255,N,07032.4139267,W,1,23,0.7,13.242,M,-29.745,M,0.0,*5A
###2023-12-09 12:35:48.939872$GPGSA,A,3,03,04,16,26,28,29,31,32,,,,,1.2,0.7,1.0*31
###2023-12-09 12:35:48.941528$GLGSA,A,3,71,72,73,74,75,,,,,,,,1.2,0.7,1.0*2D
###2023-12-09 12:35:48.943174$GAGSA,A,3,04,19,21,27,,,,,,,,,1.2,0.7,1.0*2C
###2023-12-09 12:35:48.944840$GBGSA,A,3,14,24,25,26,33,,,,,,,,1.2,0.7,1.0*25
###2023-12-09 12:35:48.947207$GPGSV,2,1,08,03,39,277,44,04,22,311,43,16,37,207,44,26,66,206,47*7C
###2023-12-09 12:35:48.949571$GPGSV,2,2,08,28,58,056,45,29,25,074,43,31,73,001,47,32,30,134,43*7B
###2023-12-09 12:35:48.951937$GLGSV,2,1,05,71,56,169,47,72,66,308,47,73,47,034,46,74,71,293,43*6E
###2023-12-09 12:35:48.953407$GLGSV,2,2,05,75,22,241,44,,,,,,,,,,,,*55
###2023-12-09 12:35:48.955761$GAGSV,1,1,04,04,21,311,41,19,81,302,40,21,78,176,46,27,41,049,44*6A
###2023-12-09 12:35:48.958107$GBGSV,2,1,05,14,55,197,44,24,80,347,48,25,33,253,44,26,35,057,45*67
###2023-12-09 12:35:48.959589$GBGSV,2,2,05,33,63,253,48,,,,,,,,,,,,*53
###2023-12-09 12:35:48.960924$GNVTG,144.18,T,,M,2.51,N,4.64,K,A*2B
###2023-12-09 12:35:48.962594$GNGST,173548.10,18.000,,,,0.082,0.070,0.160*59
###2023-12-09 12:35:48.963899$GNZDA,173548.10,09,12,2023,00,00*7C
###2023-12-09 12:35:48.964546$GNEBP,,,,,,M*13
###2023-12-09 12:35:49.135803$GNGGA,173548.30,4138.0482103,N,07032.4138167,W,1,23,0.7,13.248,M,-29.745,M,0.0,*51
###2023-12-09 12:35:49.336076$GNGGA,173548.50,4138.0480948,N,07032.4136985,W,1,23,0.7,13.245,M,-29.745,M,0.0,*55
###2023-12-09 12:35:49.536822$GNGGA,173548.70,4138.0479831,N,07032.4135860,W,1,23,0.7,13.251,M,-29.745,M,0.0,*52
###2023-12-09 12:35:49.741682$GNGGA,173548.90,4138.0478695,N,07032.4134764,W,1,23,0.7,13.271,M,-29.745,M,0.0,*55
###2023-12-09 12:35:49.936045$GNRMC,173549.10,A,4138.0477604,N,07032.4133543,W,2.47,136.12,091223,,,A*5A
###2023-12-09 12:35:49.938931$GNGGA,173549.10,4138.0477604,N,07032.4133543,W,1,23,0.7,13.271,M,-29.745,M,0.0,*5B
###2023-12-09 12:35:49.940803$GPGSA,A,3,03,04,16,26,28,29,31,32,,,,,1.2,0.7,1.0*31
###2023-12-09 12:35:49.942461$GLGSA,A,3,71,72,73,74,75,,,,,,,,1.2,0.7,1.0*2D
###2023-12-09 12:35:49.944068$GAGSA,A,3,04,19,21,27,,,,,,,,,1.2,0.7,1.0*2C
###2023-12-09 12:35:49.945724$GBGSA,A,3,14,24,25,26,33,,,,,,,,1.2,0.7,1.0*25
###2023-12-09 12:35:49.948089$GPGSV,2,1,08,03,39,277,43,04,22,311,41,16,37,207,44,26,66,206,47*79
###2023-12-09 12:35:49.950453$GPGSV,2,2,08,28,58,056,44,29,25,074,42,31,73,001,46,32,30,134,44*7D
###2023-12-09 12:35:49.952823$GLGSV,2,1,05,71,56,169,46,72,66,308,47,73,47,034,47,74,71,293,43*6E
###2023-12-09 12:35:49.954290$GLGSV,2,2,05,75,22,241,44,,,,,,,,,,,,*55
###2023-12-09 12:35:49.956639$GAGSV,1,1,04,04,21,311,41,19,81,302,40,21,78,176,45,27,41,049,44*69
###2023-12-09 12:35:49.958999$GBGSV,2,1,05,14,55,197,45,24,80,347,48,25,33,253,43,26,35,057,45*61
###2023-12-09 12:35:49.960467$GBGSV,2,2,05,33,63,253,48,,,,,,,,,,,,*53
###2023-12-09 12:35:49.961798$GNVTG,136.12,T,,M,2.47,N,4.57,K,A*23
###2023-12-09 12:35:49.963472$GNGST,173549.10,18.000,,,,0.082,0.070,0.160*58
###2023-12-09 12:35:49.964773$GNZDA,173549.10,09,12,2023,00,00*7D
###2023-12-09 12:35:49.965419$GNEBP,,,,,,M*13
###2023-12-09 12:35:50.136106$GNGGA,173549.30,4138.0476653,N,07032.4132302,W,1,23,0.7,13.272,M,-29.745,M,0.0,*5B
###2023-12-09 12:35:50.336056$GNGGA,173549.50,4138.0475663,N,07032.4131050,W,1,23,0.7,13.284,M,-29.745,M,0.0,*53
###2023-12-09 12:35:50.537330$GNGGA,173549.70,4138.0474642,N,07032.4129754,W,1,23,0.7,13.288,M,-29.745,M,0.0,*55
###2023-12-09 12:35:50.734225$GNGGA,173549.90,4138.0473751,N,07032.4128407,W,1,23,0.7,13.289,M,-29.745,M,0.0,*5A
###2023-12-09 12:35:50.937564$GNRMC,173550.10,A,4138.0472916,N,07032.4126973,W,2.51,126.35,091223,,,A*53
###2023-12-09 12:35:50.940858$GNGGA,173550.10,4138.0472916,N,07032.4126973,W,1,23,0.7,13.300,M,-29.745,M,0.0,*56
###2023-12-09 12:35:50.942768$GPGSA,A,3,03,04,16,26,28,29,31,32,,,,,1.2,0.7,1.0*31
###2023-12-09 12:35:50.944435$GLGSA,A,3,71,72,73,74,75,,,,,,,,1.2,0.7,1.0*2D
###2023-12-09 12:35:50.946029$GAGSA,A,3,04,19,21,27,,,,,,,,,1.2,0.7,1.0*2C
###2023-12-09 12:35:50.947728$GBGSA,A,3,14,24,25,26,33,,,,,,,,1.2,0.7,1.0*25
###2023-12-09 12:35:50.950106$GPGSV,2,1,08,03,38,276,44,04,22,311,42,16,37,207,44,26,66,206,48*72
###2023-12-09 12:35:50.952471$GPGSV,2,2,08,28,58,056,44,29,25,074,43,31,73,001,47,32,30,134,43*7A
###2023-12-09 12:35:50.954835$GLGSV,2,1,05,71,56,169,46,72,66,308,46,73,47,034,47,74,71,293,43*6F
###2023-12-09 12:35:50.956309$GLGSV,2,2,05,75,22,241,42,,,,,,,,,,,,*53
