###2023-12-09 13:22:50.013757$GBGSV,2,1,06,14,34,191,41,24,66,040,49,25,47,271,47,26,19,068,45*6F
###2023-12-09 13:22:50.015557$GBGSV,2,2,06,33,50,221,45,35,16,061,45,,,,,,,,*6F
###2023-12-09 13:22:50.016893$GNVTG,191.08,T,,M,3.58,N,6.62,K,A*2E
###2023-12-09 13:22:50.018544$GNGST,182249.10,18.000,,,,0.100,0.069,0.160*52
###2023-12-09 13:22:50.019854$GNZDA,182249.10,09,12,2023,00,00*74
###2023-12-09 13:22:50.020491$GNEBP,,,,,,M*13
###2023-12-09 13:22:50.185859$GNGGA,182249.30,4138.0485742,N,07032.3610151,W,1,24,0.7,12.983,M,-29.744,M,0.0,*59
###2023-12-09 13:22:50.385553$GNGGA,182249.50,4138.0483798,N,07032.3610322,W,1,24,0.7,12.967,M,-29.744,M,0.0,*52
###2023-12-09 13:22:50.586396$GNGGA,182249.70,4138.0481835,N,07032.3610376,W,1,24,0.7,12.960,M,-29.744,M,0.0,*5C
###2023-12-09 13:22:50.786549$GNGGA,182249.90,4138.0479856,N,07032.3610744,W,1,24,0.7,12.966,M,-29.744,M,0.0,*53
###2023-12-09 13:22:50.992004$GNRMC,182250.10,A,4138.0477877,N,07032.3611060,W,3.62,183.64,091223,,,A*5C
###2023-12-09 13:22:50.994879$GNGGA,182250.10,4138.0477877,N,07032.3611060,W,1,24,0.7,12.967,M,-29.744,M,0.0,*5F
###2023-12-09 13:22:50.996668$GPGSA,A,3,03,04,16,26,28,29,31,,,,,,1.1,0.7,0.9*3B
###2023-12-09 13:22:50.998381$GLGSA,A,3,65,71,72,73,74,75,,,,,,,1.1,0.7,0.9*25
###2023-12-09 13:22:50.999978$GAGSA,A,3,04,19,21,27,,,,,,,,,1.1,0.7,0.9*27
###2023-12-09 13:22:51.001698$GBGSA,A,3,14,24,25,26,33,35,,,,,,,1.1,0.7,0.9*28
###2023-12-09 13:22:51.004042$GPGSV,2,1,07,03,30,252,43,04,41,310,45,16,60,218,46,26,90,099,48*74
###2023-12-09 13:22:51.006092$GPGSV,2,2,07,28,42,080,45,29,23,052,40,31,63,057,47,,,,*44
###2023-12-09 13:22:51.008433$GLGSV,2,1,06,65,34,323,43,71,29,175,43,72,68,232,46,73,27,049,41*6B
###2023-12-09 13:22:51.010180$GLGSV,2,2,06,74,63,004,43,75,40,265,47,,,,,,,,*62
###2023-12-09 13:22:51.012515$GAGSV,1,1,04,04,36,311,45,19,77,186,40,21,81,054,47,27,26,049,39*62
###2023-12-09 13:22:51.014861$GBGSV,2,1,06,14,34,191,41,24,66,040,48,25,47,271,47,26,19,068,42*69
###2023-12-09 13:22:51.016609$GBGSV,2,2,06,33,50,221,45,35,16,061,43,,,,,,,,*69
###2023-12-09 13:22:51.017931$GNVTG,183.64,T,,M,3.62,N,6.70,K,A*2D
###2023-12-09 13:22:51.019589$GNGST,182250.10,18.000,,,,0.100,0.069,0.160*5A
###2023-12-09 13:22:51.020883$GNZDA,182250.10,09,12,2023,00,00*7C
###2023-12-09 13:22:51.021523$GNEBP,,,,,,M*13
###2023-12-09 13:22:51.189217$GNGGA,182250.30,4138.0475881,N,07032.3611028,W,1,24,0.7,12.942,M,-29.744,M,0.0,*5D
###2023-12-09 13:22:51.386455$GNGGA,182250.50,4138.0473932,N,07032.3611010,W,1,24,0.7,12.941,M,-29.744,M,0.0,*5C
###2023-12-09 13:22:51.587183$GNGGA,182250.70,4138.0471899,N,07032.3611247,W,1,24,0.7,12.952,M,-29.744,M,0.0,*5E
###2023-12-09 13:22:51.788688$GNGGA,182250.90,4138.0469900,N,07032.3611351,W,1,24,0.7,12.946,M,-29.744,M,0.0,*5B
###2023-12-09 13:22:51.992660$GNRMC,182251.10,A,4138.0467968,N,07032.3611524,W,3.58,183.98,091223,,,A*5C
###2023-12-09 13:22:51.996127$GNGGA,182251.10,4138.0467968,N,07032.3611524,W,1,24,0.7,12.968,M,-29.744,M,0.0,*5A
###2023-12-09 13:22:51.998288$GPGSA,A,3,03,04,16,26,28,29,31,,,,,,1.1,0.7,0.9*3B
###2023-12-09 13:22:52.000374$GLGSA,A,3,65,71,72,73,74,75,,,,,,,1.1,0.7,0.9*25
###2023-12-09 13:22:52.002291$GAGSA,A,3,04,19,21,27,,,,,,,,,1.1,0.7,0.9*27
###2023-12-09 13:22:52.004370$GBGSA,A,3,14,24,25,26,33,35,,,,,,,1.1,0.7,0.9*28
###2023-12-09 13:22:52.007185$GPGSV,2,1,07,03,30,252,42,04,41,310,45,16,60,218,46,26,90,099,48*75
###2023-12-09 13:22:52.009669$GPGSV,2,2,07,28,42,080,44,29,23,052,42,31,63,057,47,,,,*47
###2023-12-09 13:22:52.012485$GLGSV,2,1,06,65,34,323,43,71,29,175,42,72,68,232,46,73,27,049,43*68
###2023-12-09 13:22:52.014596$GLGSV,2,2,06,74,63,004,43,75,40,265,46,,,,,,,,*63
###2023-12-09 13:22:52.017398$GAGSV,1,1,04,04,36,311,45,19,77,186,40,21,81,054,47,27,26,049,40*6C
###2023-12-09 13:22:52.020210$GBGSV,2,1,06,14,34,191,42,24,66,040,49,25,47,271,48,26,19,068,43*65
###2023-12-09 13:22:52.022307$GBGSV,2,2,06,33,50,221,46,35,16,061,45,,,,,,,,*6C
###2023-12-09 13:22:52.023928$GNVTG,183.98,T,,M,3.58,N,6.62,K,A*24
###2023-12-09 13:22:52.025908$GNGST,182251.10,18.000,,,,0.100,0.069,0.160*5B
###2023-12-09 13:22:52.027470$GNZDA,182251.10,09,12,2023,00,00*7D
###2023-12-09 13:22:52.028237$GNEBP,,,,,,M*13
###2023-12-09 13:22:52.187599$GNGGA,182251.30,4138.0465935,N,07032.3611647,W,1,24,0.7,12.954,M,-29.744,M,0.0,*5B
###2023-12-09 13:22:52.386598$GNGGA,182251.50,4138.0463958,N,07032.3611603,W,1,24,0.7,12.909,M,-29.744,M,0.0,*58
###2023-12-09 13:22:52.588147$GNGGA,182251.70,4138.0462014,N,07032.3611889,W,1,24,0.7,12.938,M,-29.744,M,0.0,*54
###2023-12-09 13:22:52.787533$GNGGA,182251.90,4138.0460004,N,07032.3612243,W,1,24,0.7,12.953,M,-29.744,M,0.0,*5B
###2023-12-09 13:22:52.993417$GNRMC,182252.10,A,4138.0458037,N,07032.3612268,W,3.56,177.14,091223,,,A*5D
###2023-12-09 13:22:52.996292$GNGGA,182252.10,4138.0458037,N,07032.3612268,W,1,24,0.7,12.932,M,-29.744,M,0.0,*55
###2023-12-09 13:22:52.998088$GPGSA,A,3,03,04,16,26,28,29,31,,,,,,1.1,0.7,0.9*3B
###2023-12-09 13:22:52.999816$GLGSA,A,3,65,71,72,73,74,75,,,,,,,1.1,0.7,0.9*25
###2023-12-09 13:22:53.001402$GAGSA,A,3,04,19,21,27,,,,,,,,,1.1,0.7,0.9*27
###2023-12-09 13:22:53.003124$GBGSA,A,3,14,24,25,26,33,35,,,,,,,1.1,0.7,0.9*28
###2023-12-09 13:22:53.005454$GPGSV,2,1,07,03,30,252,43,04,41,310,45,16,60,218,46,26,90,099,48*74
###2023-12-09 13:22:53.007503$GPGSV,2,2,07,28,42,080,45,29,23,052,40,31,63,057,47,,,,*44
###2023-12-09 13:22:53.009836$GLGSV,2,1,06,65,34,323,43,71,29,175,41,72,68,232,46,73,27,049,41*69
###2023-12-09 13:22:53.011597$GLGSV,2,2,06,74,63,004,43,75,40,265,47,,,,,,,,*62
###2023-12-09 13:22:53.013927$GAGSV,1,1,04,04,36,311,45,19,77,186,40,21,81,054,47,27,26,049,38*63
###2023-12-09 13:22:53.016272$GBGSV,2,1,06,14,34,191,41,24,66,040,48,25,47,271,47,26,19,068,42*69
###2023-12-09 13:22:53.018018$GBGSV,2,2,06,33,50,221,46,35,16,061,43,,,,,,,,*6A
###2023-12-09 13:22:53.019351$GNVTG,177.14,T,,M,3.56,N,6.59,K,A*2D
###2023-12-09 13:22:53.020998$GNGST,182252.10,19.000,,,,0.100,0.069,0.160*59
###2023-12-09 13:22:53.022291$GNZDA,182252.10,09,12,2023,00,00*7E
###2023-12-09 13:22:53.022943$GNEBP,,,,,,M*13
###2023-12-09 13:22:53.188429$GNGGA,182252.30,4138.0456075,N,07032.3612162,W,1,24,0.7,12.927,M,-29.744,M,0.0,*52
###2023-12-09 13:22:53.386530$GNGGA,182252.50,4138.0454116,N,07032.3612455,W,1,24,0.7,12.936,M,-29.744,M,0.0,*53
###2023-12-09 13:22:53.587074$GNGGA,182252.70,4138.0452108,N,07032.3612881,W,1,24,0.7,12.940,M,-29.744,M,0.0,*5C
###2023-12-09 13:22:53.787466$GNGGA,182252.90,4138.0450127,N,07032.3612947,W,1,24,0.7,12.924,M,-29.744,M,0.0,*54
###2023-12-09 13:22:53.990706$GNRMC,182253.10,A,4138.0448168,N,07032.3613130,W,3.67,185.38,091223,,,A*58
###2023-12-09 13:22:53.993570$GNGGA,182253.10,4138.0448168,N,07032.3613130,W,1,24,0.7,12.941,M,-29.744,M,0.0,*55
###2023-12-09 13:22:53.995375$GPGSA,A,3,03,04,16,26,28,29,31,,,,,,1.1,0.7,0.9*3B
###2023-12-09 13:22:53.997087$GLGSA,A,3,65,71,72,73,74,75,,,,,,,1.1,0.7,0.9*25
###2023-12-09 13:22:53.998678$GAGSA,A,3,04,19,21,27,,,,,,,,,1.1,0.7,0.9*27
###2023-12-09 13:22:54.000387$GBGSA,A,3,14,24,25,26,33,35,,,,,,,1.1,0.7,0.9*28
###2023-12-09 13:22:54.002714$GPGSV,2,1,07,03,30,252,41,04,41,310,44,16,60,218,44,26,90,099,47*7A
###2023-12-09 13:22:54.004752$GPGSV,2,2,07,28,42,080,44,29,23,052,41,31,63,057,46,,,,*45
###2023-12-09 13:22:54.007083$GLGSV,2,1,06,65,34,323,43,71,29,175,42,72,68,232,46,73,27,049,43*68
###2023-12-09 13:22:54.008816$GLGSV,2,2,06,74,63,004,43,75,40,265,46,,,,,,,,*63
###2023-12-09 13:22:54.011149$GAGSV,1,1,04,04,36,311,44,19,77,186,40,21,81,054,46,27,26,049,40*6C
###2023-12-09 13:22:54.013463$GBGSV,2,1,06,14,34,191,43,24,66,040,49,25,47,271,47,26,19,068,44*6C
###2023-12-09 13:22:54.015210$GBGSV,2,2,06,33,50,221,45,35,16,061,45,,,,,,,,*6F
###2023-12-09 13:22:54.016524$GNVTG,185.38,T,,M,3.67,N,6.80,K,A*28
###2023-12-09 13:22:54.018159$GNGST,182253.10,18.000,,,,0.100,0.069,0.160*59
###2023-12-09 13:22:54.019452$GNZDA,182253.10,09,12,2023,00,00*7F
###2023-12-09 13:22:54.020087$GNEBP,,,,,,M*13
###2023-12-09 13:22:54.187914$GNGGA,182253.30,4138.0446160,N,07032.3613409,W,1,24,0.7,12.942,M,-29.744,M,0.0,*5D
###2023-12-09 13:22:54.386644$GNGGA,182253.50,4138.0444198,N,07032.3613701,W,1,24,0.7,12.925,M,-29.744,M,0.0,*54
###2023-12-09 13:22:54.589417$GNGGA,182253.70,4138.0442203,N,07032.3613781,W,1,24,0.7,12.915,M,-29.744,M,0.0,*5A
###2023-12-09 13:22:54.788836$GNGGA,182253.90,4138.0440231,N,07032.3613944,W,1,24,0.7,12.925,M,-29.744,M,0.0,*53
###2023-12-09 13:22:54.992083$GNRMC,182254.10,A,4138.0438246,N,07032.3614238,W,3.71,185.95,091223,,,A*5B
###2023-12-09 13:22:54.994963$GNGGA,182254.10,4138.0438246,N,07032.3614238,W,1,24,0.7,12.945,M,-29.744,M,0.0,*52
###2023-12-09 13:22:54.996758$GPGSA,A,3,03,04,16,26,28,29,31,,,,,,1.1,0.7,0.9*3B
###2023-12-09 13:22:54.998468$GLGSA,A,3,65,71,72,73,74,75,,,,,,,1.1,0.7,0.9*25
###2023-12-09 13:22:55.000063$GAGSA,A,3,04,19,21,27,,,,,,,,,1.1,0.7,0.9*27
###2023-12-09 13:22:55.001778$GBGSA,A,3,14,24,25,26,33,35,,,,,,,1.1,0.7,0.9*28
