###2023-12-09 12:42:25.975752$GNZDA,174225.10,09,12,2023,00,00*77
###2023-12-09 12:42:25.976412$GNEBP,,,,,,M*13
###2023-12-09 12:42:26.143034$GNGGA,174225.30,4138.0631723,N,07032.3778694,W,1,24,0.6,13.490,M,-29.744,M,0.0,*5E
###2023-12-09 12:42:26.343392$GNGGA,174225.50,4138.0630945,N,07032.3780269,W,1,24,0.6,13.478,M,-29.744,M,0.0,*50
###2023-12-09 12:42:26.542693$GNGGA,174225.70,4138.0629900,N,07032.3781312,W,1,24,0.6,13.469,M,-29.744,M,0.0,*57
###2023-12-09 12:42:26.742709$GNGGA,174225.90,4138.0628846,N,07032.3782297,W,1,24,0.6,13.479,M,-29.744,M,0.0,*55
###2023-12-09 12:42:26.943384$GNRMC,174226.10,A,4138.0627878,N,07032.3783822,W,2.74,228.30,091223,,,A*5D
###2023-12-09 12:42:26.946214$GNGGA,174226.10,4138.0627878,N,07032.3783822,W,1,24,0.6,13.501,M,-29.744,M,0.0,*57
###2023-12-09 12:42:26.948095$GPGSA,A,3,03,04,16,26,28,29,31,32,,,,,1.1,0.6,0.9*3B
###2023-12-09 12:42:26.949815$GLGSA,A,3,65,71,72,73,74,75,,,,,,,1.1,0.6,0.9*24
###2023-12-09 12:42:26.951416$GAGSA,A,3,04,19,21,27,,,,,,,,,1.1,0.6,0.9*26
###2023-12-09 12:42:26.953049$GBGSA,A,3,14,24,25,26,33,,,,,,,,1.1,0.6,0.9*2F
###2023-12-09 12:42:26.955387$GPGSV,2,1,08,03,38,272,43,04,25,311,42,16,40,208,42,26,70,207,46*77
###2023-12-09 12:42:26.957705$GPGSV,2,2,08,28,55,060,44,29,25,070,41,31,72,013,47,32,27,136,44*75
###2023-12-09 12:42:26.960043$GLGSV,2,1,06,65,15,329,36,71,52,170,46,72,68,302,46,73,44,035,46*67
###2023-12-09 12:42:26.961781$GLGSV,2,2,06,74,71,303,43,75,25,244,40,,,,,,,,*62
###2023-12-09 12:42:26.964111$GAGSV,1,1,04,04,23,311,41,19,84,288,40,21,81,170,45,27,39,049,43*65
###2023-12-09 12:42:26.966433$GBGSV,2,1,05,14,52,196,45,24,79,359,49,25,34,255,44,26,33,058,45*60
###2023-12-09 12:42:26.967903$GBGSV,2,2,05,33,62,248,48,,,,,,,,,,,,*58
###2023-12-09 12:42:26.969224$GNVTG,228.30,T,,M,2.74,N,5.08,K,A*24
###2023-12-09 12:42:26.970876$GNGST,174226.10,18.000,,,,0.078,0.069,0.160*5C
###2023-12-09 12:42:26.972161$GNZDA,174226.10,09,12,2023,00,00*74
###2023-12-09 12:42:26.972797$GNEBP,,,,,,M*13
###2023-12-09 12:42:27.142088$GNGGA,174226.30,4138.0626798,N,07032.3785105,W,1,24,0.6,13.481,M,-29.744,M,0.0,*56
###2023-12-09 12:42:27.343488$GNGGA,174226.50,4138.0625568,N,07032.3785894,W,1,24,0.6,13.465,M,-29.744,M,0.0,*55
###2023-12-09 12:42:27.542819$GNGGA,174226.70,4138.0624305,N,07032.3786813,W,1,24,0.6,13.479,M,-29.744,M,0.0,*5A
###2023-12-09 12:42:27.743210$GNGGA,174226.90,4138.0623158,N,07032.3788127,W,1,24,0.6,13.498,M,-29.744,M,0.0,*56
###2023-12-09 12:42:27.944019$GNRMC,174227.10,A,4138.0621983,N,07032.3789397,W,2.66,214.10,091223,,,A*5E
###2023-12-09 12:42:27.946868$GNGGA,174227.10,4138.0621983,N,07032.3789397,W,1,24,0.6,13.502,M,-29.744,M,0.0,*59
###2023-12-09 12:42:27.948731$GPGSA,A,3,03,04,16,26,28,29,31,32,,,,,1.1,0.6,0.9*3B
###2023-12-09 12:42:27.950440$GLGSA,A,3,65,71,72,73,74,75,,,,,,,1.1,0.6,0.9*24
###2023-12-09 12:42:27.952031$GAGSA,A,3,04,19,21,27,,,,,,,,,1.1,0.6,0.9*26
###2023-12-09 12:42:27.953670$GBGSA,A,3,14,24,25,26,33,,,,,,,,1.1,0.6,0.9*2F
###2023-12-09 12:42:27.956003$GPGSV,2,1,08,03,38,272,44,04,25,311,43,16,40,208,42,26,70,207,46*71
###2023-12-09 12:42:27.958330$GPGSV,2,2,08,28,55,060,44,29,25,070,41,31,72,013,48,32,27,136,44*7A
###2023-12-09 12:42:27.960670$GLGSV,2,1,06,65,15,329,41,71,52,170,46,72,68,302,47,73,44,035,45*65
###2023-12-09 12:42:27.962412$GLGSV,2,2,06,74,71,303,43,75,25,244,39,,,,,,,,*6C
###2023-12-09 12:42:27.964745$GAGSV,1,1,04,04,23,311,43,19,84,288,40,21,81,170,45,27,39,049,44*60
###2023-12-09 12:42:27.967095$GBGSV,2,1,05,14,52,196,45,24,79,359,48,25,34,255,45,26,33,058,44*61
###2023-12-09 12:42:27.968558$GBGSV,2,2,05,33,62,248,48,,,,,,,,,,,,*58
###2023-12-09 12:42:27.969876$GNVTG,214.10,T,,M,2.66,N,4.93,K,A*29
###2023-12-09 12:42:27.971533$GNGST,174227.10,18.000,,,,0.078,0.069,0.160*5D
###2023-12-09 12:42:27.972821$GNZDA,174227.10,09,12,2023,00,00*75
###2023-12-09 12:42:27.973457$GNEBP,,,,,,M*13
###2023-12-09 12:42:28.142925$GNGGA,174227.30,4138.0620675,N,07032.3790298,W,1,24,0.6,13.486,M,-29.744,M,0.0,*57
###2023-12-09 12:42:28.345649$GNGGA,174227.50,4138.0619245,N,07032.3791126,W,1,24,0.6,13.457,M,-29.744,M,0.0,*57
###2023-12-09 12:42:28.546235$GNGGA,174227.70,4138.0617986,N,07032.3792456,W,1,24,0.6,13.470,M,-29.744,M,0.0,*5B
###2023-12-09 12:42:28.744031$GNGGA,174227.90,4138.0616874,N,07032.3793991,W,1,24,0.6,13.502,M,-29.744,M,0.0,*5B
###2023-12-09 12:42:28.944020$GNRMC,174228.10,A,4138.0615625,N,07032.3795383,W,2.99,215.64,091223,,,A*5F
###2023-12-09 12:42:28.946941$GNGGA,174228.10,4138.0615625,N,07032.3795383,W,1,24,0.6,13.506,M,-29.744,M,0.0,*5E
###2023-12-09 12:42:28.948832$GPGSA,A,3,03,04,16,26,28,29,31,32,,,,,1.1,0.6,0.9*3B
###2023-12-09 12:42:28.950587$GLGSA,A,3,65,71,72,73,74,75,,,,,,,1.1,0.6,0.9*24
###2023-12-09 12:42:28.952194$GAGSA,A,3,04,19,21,27,,,,,,,,,1.1,0.6,0.9*26
###2023-12-09 12:42:28.953858$GBGSA,A,3,14,24,25,26,33,,,,,,,,1.1,0.6,0.9*2F
###2023-12-09 12:42:28.956226$GPGSV,2,1,08,03,38,272,44,04,25,311,43,16,40,208,42,26,70,207,46*71
###2023-12-09 12:42:28.958604$GPGSV,2,2,08,28,55,060,44,29,25,070,42,31,72,013,47,32,27,136,43*71
###2023-12-09 12:42:28.960968$GLGSV,2,1,06,65,15,329,42,71,52,170,47,72,68,302,47,73,44,035,46*64
###2023-12-09 12:42:28.962742$GLGSV,2,2,06,74,71,303,43,75,25,244,40,,,,,,,,*62
###2023-12-09 12:42:28.965099$GAGSV,1,1,04,04,23,311,42,19,84,288,40,21,81,170,45,27,39,049,45*60
###2023-12-09 12:42:28.967460$GBGSV,2,1,05,14,52,196,44,24,79,359,47,25,34,255,44,26,33,058,46*6C
###2023-12-09 12:42:28.968928$GBGSV,2,2,05,33,62,248,47,,,,,,,,,,,,*57
###2023-12-09 12:42:28.970265$GNVTG,215.64,T,,M,2.99,N,5.54,K,A*21
###2023-12-09 12:42:28.971935$GNGST,174228.10,18.000,,,,0.078,0.069,0.160*52
###2023-12-09 12:42:28.973239$GNZDA,174228.10,09,12,2023,00,00*7A
###2023-12-09 12:42:28.973883$GNEBP,,,,,,M*13
###2023-12-09 12:42:29.144009$GNGGA,174228.30,4138.0614236,N,07032.3796652,W,1,24,0.6,13.475,M,-29.744,M,0.0,*54
###2023-12-09 12:42:29.343722$GNGGA,174228.50,4138.0613022,N,07032.3798180,W,1,24,0.6,13.471,M,-29.744,M,0.0,*50
###2023-12-09 12:42:29.543669$GNGGA,174228.70,4138.0612027,N,07032.3800076,W,1,24,0.6,13.492,M,-29.744,M,0.0,*5D
###2023-12-09 12:42:29.742659$GNGGA,174228.90,4138.0610937,N,07032.3801849,W,1,24,0.6,13.480,M,-29.744,M,0.0,*5F
###2023-12-09 12:42:29.942912$GNRMC,174229.10,A,4138.0609678,N,07032.3803435,W,3.11,224.10,091223,,,A*51
###2023-12-09 12:42:29.946419$GNGGA,174229.10,4138.0609678,N,07032.3803435,W,1,24,0.6,13.479,M,-29.744,M,0.0,*59
###2023-12-09 12:42:29.948759$GPGSA,A,3,03,04,16,26,28,29,31,32,,,,,1.1,0.6,0.9*3B
###2023-12-09 12:42:29.950863$GLGSA,A,3,65,71,72,73,74,75,,,,,,,1.1,0.6,0.9*24
###2023-12-09 12:42:29.952783$GAGSA,A,3,04,19,21,27,,,,,,,,,1.1,0.6,0.9*26
###2023-12-09 12:42:29.954797$GBGSA,A,3,14,24,25,26,33,,,,,,,,1.1,0.6,0.9*2F
###2023-12-09 12:42:29.957611$GPGSV,2,1,08,03,38,272,44,04,25,311,42,16,40,208,43,26,70,207,46*71
###2023-12-09 12:42:29.960452$GPGSV,2,2,08,28,55,060,45,29,25,070,43,31,72,013,47,32,27,136,45*77
###2023-12-09 12:42:29.963281$GLGSV,2,1,06,65,15,329,42,71,52,170,47,72,68,302,45,73,44,035,47*67
###2023-12-09 12:42:29.965390$GLGSV,2,2,06,74,71,303,43,75,25,244,41,,,,,,,,*63
###2023-12-09 12:42:29.968207$GAGSV,1,1,04,04,23,311,42,19,84,288,40,21,81,170,46,27,39,049,44*62
###2023-12-09 12:42:29.971090$GBGSV,2,1,05,14,52,196,44,24,79,359,48,25,34,255,43,26,33,058,45*67
###2023-12-09 12:42:29.972857$GBGSV,2,2,05,33,62,248,47,,,,,,,,,,,,*57
###2023-12-09 12:42:29.974450$GNVTG,224.10,T,,M,3.11,N,5.76,K,A*21
###2023-12-09 12:42:29.976457$GNGST,174229.10,18.000,,,,0.078,0.069,0.160*53
###2023-12-09 12:42:29.978022$GNZDA,174229.10,09,12,2023,00,00*7B
###2023-12-09 12:42:29.978810$GNEBP,,,,,,M*13
###2023-12-09 12:42:30.143563$GNGGA,174229.30,4138.0608513,N,07032.3805224,W,1,24,0.6,13.489,M,-29.744,M,0.0,*5B
###2023-12-09 12:42:30.343092$GNGGA,174229.50,4138.0607402,N,07032.3807249,W,1,24,0.6,13.492,M,-29.744,M,0.0,*50
###2023-12-09 12:42:30.545115$GNGGA,174229.70,4138.0606224,N,07032.3809193,W,1,24,0.6,13.476,M,-29.744,M,0.0,*51
###2023-12-09 12:42:30.744364$GNGGA,174229.90,4138.0604948,N,07032.3810983,W,1,24,0.6,13.475,M,-29.744,M,0.0,*5E
###2023-12-09 12:42:30.945787$GNRMC,174230.10,A,4138.0603586,N,07032.3812698,W,3.38,223.90,091223,,,A*50
###2023-12-09 12:42:30.949582$GNGGA,174230.10,4138.0603586,N,07032.3812698,W,1,24,0.6,13.473,M,-29.744,M,0.0,*56
###2023-12-09 12:42:30.951880$GPGSA,A,3,03,04,16,26,28,29,31,32,,,,,1.1,0.6,0.9*3B
###2023-12-09 12:42:30.953964$GLGSA,A,3,65,71,72,73,74,75,,,,,,,1.1,0.6,0.9*24
###2023-12-09 12:42:30.955912$GAGSA,A,3,04,19,21,27,,,,,,,,,1.1,0.6,0.9*26
###2023-12-09 12:42:30.957909$GBGSA,A,3,14,24,25,26,33,,,,,,,,1.1,0.6,0.9*2F
###2023-12-09 12:42:30.960803$GPGSV,2,1,08,03,38,272,43,04,25,311,41,16,40,208,42,26,70,207,46*74
###2023-12-09 12:42:30.963653$GPGSV,2,2,08,28,55,060,45,29,25,070,43,31,72,013,47,32,27,136,45*77
###2023-12-09 12:42:30.966488$GLGSV,2,1,06,65,15,329,40,71,52,170,47,72,68,302,46,73,44,035,47*66
###2023-12-09 12:42:30.968619$GLGSV,2,2,06,74,71,303,43,75,25,244,39,,,,,,,,*6C
