###2023-12-09 12:41:24.140451$GNGGA,174123.30,4138.0620905,N,07032.3726000,W,1,23,0.7,13.461,M,-29.744,M,0.0,*59
###2023-12-09 12:41:24.340973$GNGGA,174123.50,4138.0621204,N,07032.3726158,W,1,23,0.7,13.479,M,-29.744,M,0.0,*51
###2023-12-09 12:41:24.541517$GNGGA,174123.70,4138.0621590,N,07032.3726425,W,1,23,0.7,13.491,M,-29.744,M,0.0,*50
###2023-12-09 12:41:24.740805$GNGGA,174123.90,4138.0621747,N,07032.3726487,W,1,23,0.7,13.505,M,-29.744,M,0.0,*52
###2023-12-09 12:41:24.943129$GNRMC,174124.10,A,4138.0621753,N,07032.3726386,W,0.19,25.05,091223,,,A*66
###2023-12-09 12:41:24.945963$GNGGA,174124.10,4138.0621753,N,07032.3726386,W,1,23,0.7,13.511,M,-29.744,M,0.0,*5B
###2023-12-09 12:41:24.947862$GPGSA,A,3,03,04,16,26,28,29,31,32,,,,,1.2,0.7,1.0*31
###2023-12-09 12:41:24.949537$GLGSA,A,3,71,72,73,74,75,,,,,,,,1.2,0.7,1.0*2D
###2023-12-09 12:41:24.951177$GAGSA,A,3,04,19,21,27,,,,,,,,,1.2,0.7,1.0*2C
###2023-12-09 12:41:24.952825$GBGSA,A,3,14,24,25,26,33,,,,,,,,1.2,0.7,1.0*25
###2023-12-09 12:41:24.955162$GPGSV,2,1,08,03,38,274,44,04,24,311,41,16,39,208,46,26,69,207,49*79
###2023-12-09 12:41:24.957482$GPGSV,2,2,08,28,56,059,44,29,25,071,42,31,73,010,47,32,28,135,43*77
###2023-12-09 12:41:24.959826$GLGSV,2,1,05,71,52,170,49,72,68,302,46,73,44,035,46,74,71,303,43*63
###2023-12-09 12:41:24.961280$GLGSV,2,2,05,75,25,244,43,,,,,,,,,,,,*50
###2023-12-09 12:41:24.963616$GAGSV,1,1,04,04,23,311,40,19,83,292,41,21,80,172,46,27,39,049,41*6B
###2023-12-09 12:41:24.965947$GBGSV,2,1,05,14,52,196,46,24,79,359,48,25,34,255,46,26,33,058,45*60
###2023-12-09 12:41:24.967409$GBGSV,2,2,05,33,62,248,48,,,,,,,,,,,,*58
###2023-12-09 12:41:24.968706$GNVTG,25.05,T,,M,0.19,N,0.36,K,A*1C
###2023-12-09 12:41:24.970355$GNGST,174124.10,19.000,,,,0.077,0.069,0.160*53
###2023-12-09 12:41:24.971662$GNZDA,174124.10,09,12,2023,00,00*75
###2023-12-09 12:41:24.972306$GNEBP,,,,,,M*13
###2023-12-09 12:41:25.139838$GNGGA,174124.30,4138.0621878,N,07032.3726389,W,1,23,0.7,13.504,M,-29.744,M,0.0,*54
###2023-12-09 12:41:25.341212$GNGGA,174124.50,4138.0622238,N,07032.3726626,W,1,23,0.7,13.503,M,-29.744,M,0.0,*58
###2023-12-09 12:41:25.540981$GNGGA,174124.70,4138.0622620,N,07032.3726900,W,1,23,0.7,13.506,M,-29.744,M,0.0,*59
###2023-12-09 12:41:25.740586$GNGGA,174124.90,4138.0622786,N,07032.3726956,W,1,23,0.7,13.534,M,-29.744,M,0.0,*58
###2023-12-09 12:41:25.941783$GNRMC,174125.10,A,4138.0622829,N,07032.3726850,W,0.19,25.05,091223,,,A*66
###2023-12-09 12:41:25.944694$GNGGA,174125.10,4138.0622829,N,07032.3726850,W,1,23,0.7,13.554,M,-29.744,M,0.0,*5A
###2023-12-09 12:41:25.946593$GPGSA,A,3,03,04,16,26,28,29,31,32,,,,,1.2,0.7,1.0*31
###2023-12-09 12:41:25.948286$GLGSA,A,3,71,72,73,74,75,,,,,,,,1.2,0.7,1.0*2D
###2023-12-09 12:41:25.949891$GAGSA,A,3,04,19,21,27,,,,,,,,,1.2,0.7,1.0*2C
###2023-12-09 12:41:25.951569$GBGSA,A,3,14,24,25,26,33,,,,,,,,1.2,0.7,1.0*25
###2023-12-09 12:41:25.953905$GPGSV,2,1,08,03,38,274,44,04,24,311,41,16,39,208,45,26,69,207,48*7B
###2023-12-09 12:41:25.956266$GPGSV,2,2,08,28,56,059,44,29,25,071,42,31,73,010,47,32,28,135,44*70
###2023-12-09 12:41:25.958624$GLGSV,2,1,05,71,52,170,48,72,68,302,46,73,44,035,46,74,71,303,43*62
###2023-12-09 12:41:25.960086$GLGSV,2,2,05,75,25,244,44,,,,,,,,,,,,*57
###2023-12-09 12:41:25.962428$GAGSV,1,1,04,04,23,311,40,19,83,292,41,21,80,172,46,27,39,049,42*68
###2023-12-09 12:41:25.964788$GBGSV,2,1,05,14,52,196,44,24,79,359,47,25,34,255,45,26,33,058,44*6F
###2023-12-09 12:41:25.966255$GBGSV,2,2,05,33,62,248,47,,,,,,,,,,,,*57
###2023-12-09 12:41:25.967568$GNVTG,25.05,T,,M,0.19,N,0.36,K,A*1C
###2023-12-09 12:41:25.969221$GNGST,174125.10,19.000,,,,0.078,0.069,0.160*5D
###2023-12-09 12:41:25.970523$GNZDA,174125.10,09,12,2023,00,00*74
###2023-12-09 12:41:25.971181$GNEBP,,,,,,M*13
###2023-12-09 12:41:26.140970$GNGGA,174125.30,4138.0622943,N,07032.3726851,W,1,23,0.7,13.533,M,-29.744,M,0.0,*55
###2023-12-09 12:41:26.343629$GNGGA,174125.50,4138.0623314,N,07032.3727119,W,1,23,0.7,13.522,M,-29.744,M,0.0,*5E
###2023-12-09 12:41:26.542075$GNGGA,174125.70,4138.0623716,N,07032.3727423,W,1,23,0.7,13.514,M,-29.744,M,0.0,*53
###2023-12-09 12:41:26.740047$GNGGA,174125.90,4138.0623865,N,07032.3727488,W,1,23,0.7,13.541,M,-29.744,M,0.0,*57
###2023-12-09 12:41:26.941424$GNRMC,174126.10,A,4138.0623924,N,07032.3727397,W,0.17,331.68,091223,,,A*5A
###2023-12-09 12:41:26.944309$GNGGA,174126.10,4138.0623924,N,07032.3727397,W,1,23,0.7,13.564,M,-29.744,M,0.0,*56
###2023-12-09 12:41:26.946165$GPGSA,A,3,03,04,16,26,28,29,31,32,,,,,1.2,0.7,1.0*31
###2023-12-09 12:41:26.947845$GLGSA,A,3,71,72,73,74,75,,,,,,,,1.2,0.7,1.0*2D
###2023-12-09 12:41:26.949445$GAGSA,A,3,04,19,21,27,,,,,,,,,1.2,0.7,1.0*2C
###2023-12-09 12:41:26.951105$GBGSA,A,3,14,24,25,26,33,,,,,,,,1.2,0.7,1.0*25
###2023-12-09 12:41:26.953411$GPGSV,2,1,08,03,38,274,44,04,24,311,41,16,39,208,45,26,69,207,48*7B
###2023-12-09 12:41:26.955742$GPGSV,2,2,08,28,56,059,44,29,25,071,40,31,73,010,47,32,28,135,44*72
###2023-12-09 12:41:26.958072$GLGSV,2,1,05,71,52,170,49,72,68,302,47,73,44,035,45,74,71,303,43*61
###2023-12-09 12:41:26.959535$GLGSV,2,2,05,75,25,244,44,,,,,,,,,,,,*57
###2023-12-09 12:41:26.961859$GAGSV,1,1,04,04,23,311,42,19,83,292,41,21,80,172,46,27,39,049,41*69
###2023-12-09 12:41:26.964199$GBGSV,2,1,05,14,52,196,45,24,79,359,49,25,34,255,47,26,33,058,45*63
###2023-12-09 12:41:26.965656$GBGSV,2,2,05,33,62,248,48,,,,,,,,,,,,*58
###2023-12-09 12:41:26.966998$GNVTG,331.68,T,,M,0.17,N,0.32,K,A*2B
###2023-12-09 12:41:26.968649$GNGST,174126.10,19.000,,,,0.078,0.069,0.160*5E
###2023-12-09 12:41:26.969935$GNZDA,174126.10,09,12,2023,00,00*77
###2023-12-09 12:41:26.970584$GNEBP,,,,,,M*13
###2023-12-09 12:41:27.141123$GNGGA,174126.30,4138.0624069,N,07032.3727442,W,1,23,0.7,13.550,M,-29.744,M,0.0,*5B
###2023-12-09 12:41:27.342377$GNGGA,174126.50,4138.0624389,N,07032.3727672,W,1,23,0.7,13.527,M,-29.744,M,0.0,*51
###2023-12-09 12:41:27.541150$GNGGA,174126.70,4138.0624755,N,07032.3727941,W,1,23,0.7,13.516,M,-29.744,M,0.0,*5B
###2023-12-09 12:41:27.740020$GNGGA,174126.90,4138.0624970,N,07032.3728068,W,1,23,0.7,13.533,M,-29.744,M,0.0,*56
###2023-12-09 12:41:27.940411$GNRMC,174127.10,A,4138.0625038,N,07032.3728006,W,0.19,331.68,091223,,,A*53
###2023-12-09 12:41:27.943282$GNGGA,174127.10,4138.0625038,N,07032.3728006,W,1,23,0.7,13.554,M,-29.744,M,0.0,*52
###2023-12-09 12:41:27.945145$GPGSA,A,3,03,04,16,26,28,29,31,32,,,,,1.2,0.7,1.0*31
###2023-12-09 12:41:27.946825$GLGSA,A,3,71,72,73,74,75,,,,,,,,1.2,0.7,1.0*2D
###2023-12-09 12:41:27.948428$GAGSA,A,3,04,19,21,27,,,,,,,,,1.2,0.7,1.0*2C
###2023-12-09 12:41:27.950076$GBGSA,A,3,14,24,25,26,33,,,,,,,,1.2,0.7,1.0*25
###2023-12-09 12:41:27.952427$GPGSV,2,1,08,03,38,274,44,04,24,311,43,16,39,208,45,26,69,207,49*78
###2023-12-09 12:41:27.954785$GPGSV,2,2,08,28,56,059,44,29,25,071,39,31,73,010,47,32,28,135,44*7C
###2023-12-09 12:41:27.957108$GLGSV,2,1,05,71,52,170,48,72,68,302,47,73,44,035,46,74,71,303,43*63
###2023-12-09 12:41:27.958556$GLGSV,2,2,05,75,25,244,45,,,,,,,,,,,,*56
###2023-12-09 12:41:27.960917$GAGSV,1,1,04,04,23,311,43,19,83,292,41,21,80,172,45,27,39,049,41*6B
###2023-12-09 12:41:27.963273$GBGSV,2,1,05,14,52,196,45,24,79,359,49,25,34,255,47,26,33,058,46*60
###2023-12-09 12:41:27.964729$GBGSV,2,2,05,33,62,248,48,,,,,,,,,,,,*58
###2023-12-09 12:41:27.966048$GNVTG,331.68,T,,M,0.19,N,0.36,K,A*21
###2023-12-09 12:41:27.967704$GNGST,174127.10,18.000,,,,0.078,0.069,0.160*5E
###2023-12-09 12:41:27.968994$GNZDA,174127.10,09,12,2023,00,00*76
###2023-12-09 12:41:27.969630$GNEBP,,,,,,M*13
###2023-12-09 12:41:28.140583$GNGGA,174127.30,4138.0625125,N,07032.3727983,W,1,23,0.7,13.551,M,-29.744,M,0.0,*53
###2023-12-09 12:41:28.342770$GNGGA,174127.50,4138.0625403,N,07032.3728171,W,1,23,0.7,13.537,M,-29.744,M,0.0,*5E
###2023-12-09 12:41:28.542074$GNGGA,174127.70,4138.0625802,N,07032.3728457,W,1,23,0.7,13.524,M,-29.744,M,0.0,*52
###2023-12-09 12:41:28.743229$GNGGA,174127.90,4138.0626034,N,07032.3728593,W,1,23,0.7,13.524,M,-29.744,M,0.0,*5B
###2023-12-09 12:41:28.943177$GNRMC,174128.10,A,4138.0626117,N,07032.3728577,W,0.17,331.68,091223,,,A*5E
###2023-12-09 12:41:28.946036$GNGGA,174128.10,4138.0626117,N,07032.3728577,W,1,23,0.7,13.549,M,-29.744,M,0.0,*5D
###2023-12-09 12:41:28.948179$GPGSA,A,3,03,04,16,26,28,29,31,32,,,,,1.2,0.7,1.0*31
###2023-12-09 12:41:28.949852$GLGSA,A,3,71,72,73,74,75,,,,,,,,1.2,0.7,1.0*2D
###2023-12-09 12:41:28.951457$GAGSA,A,3,04,19,21,27,,,,,,,,,1.2,0.7,1.0*2C
###2023-12-09 12:41:28.953113$GBGSA,A,3,14,24,25,26,33,,,,,,,,1.2,0.7,1.0*25
###2023-12-09 12:41:28.955464$GPGSV,2,1,08,03,38,272,45,04,24,311,44,16,39,208,45,26,69,207,48*79
###2023-12-09 12:41:28.957798$GPGSV,2,2,08,28,56,059,45,29,25,071,40,31,73,010,47,32,28,135,45*72
###2023-12-09 12:41:28.960138$GLGSV,2,1,05,71,52,170,47,72,68,302,47,73,44,035,45,74,71,303,43*6F
###2023-12-09 12:41:28.961590$GLGSV,2,2,05,75,25,244,45,,,,,,,,,,,,*56
###2023-12-09 12:41:28.963936$GAGSV,1,1,04,04,23,311,43,19,83,292,41,21,80,172,46,27,39,049,42*6B
###2023-12-09 12:41:28.966266$GBGSV,2,1,05,14,52,196,44,24,79,359,48,25,34,255,46,26,33,058,45*62
