###2023-12-09 12:41:57.949833$GLGSA,A,3,65,71,72,73,74,75,,,,,,,1.1,0.6,0.9*24
###2023-12-09 12:41:57.951468$GAGSA,A,3,04,19,21,27,,,,,,,,,1.1,0.6,0.9*26
###2023-12-09 12:41:57.953123$GBGSA,A,3,14,24,25,26,33,,,,,,,,1.1,0.6,0.9*2F
###2023-12-09 12:41:57.955476$GPGSV,2,1,08,03,38,272,45,04,25,311,42,16,40,208,46,26,70,207,48*7B
###2023-12-09 12:41:57.957814$GPGSV,2,2,08,28,55,060,45,29,25,070,40,31,72,013,47,32,27,136,44*75
###2023-12-09 12:41:57.960171$GLGSV,2,1,06,65,15,329,42,71,52,170,48,72,68,302,47,73,44,035,43*6E
###2023-12-09 12:41:57.961920$GLGSV,2,2,06,74,71,303,43,75,25,244,45,,,,,,,,*67
###2023-12-09 12:41:57.964264$GAGSV,1,1,04,04,23,311,43,19,83,289,41,21,80,172,46,27,39,049,42*61
###2023-12-09 12:41:57.966609$GBGSV,2,1,05,14,52,196,45,24,79,359,48,25,34,255,44,26,33,058,45*61
###2023-12-09 12:41:57.968069$GBGSV,2,2,05,33,62,248,48,,,,,,,,,,,,*58
###2023-12-09 12:41:57.969390$GNVTG,312.82,T,,M,0.80,N,1.48,K,A*2C
###2023-12-09 12:41:57.971057$GNGST,174157.10,18.000,,,,0.076,0.069,0.160*57
###2023-12-09 12:41:57.972348$GNZDA,174157.10,09,12,2023,00,00*71
###2023-12-09 12:41:57.972988$GNEBP,,,,,,M*13
###2023-12-09 12:41:58.142637$GNGGA,174157.30,4138.0655454,N,07032.3758808,W,1,24,0.6,13.440,M,-29.744,M,0.0,*5D
###2023-12-09 12:41:58.342988$GNGGA,174157.50,4138.0655608,N,07032.3759036,W,1,24,0.6,13.437,M,-29.744,M,0.0,*54
###2023-12-09 12:41:58.545636$GNGGA,174157.70,4138.0655676,N,07032.3759156,W,1,24,0.6,13.439,M,-29.744,M,0.0,*56
###2023-12-09 12:41:58.742524$GNGGA,174157.90,4138.0655841,N,07032.3759385,W,1,24,0.6,13.442,M,-29.744,M,0.0,*52
###2023-12-09 12:41:58.943869$GNRMC,174158.10,A,4138.0656082,N,07032.3759767,W,0.62,312.82,091223,,,A*51
###2023-12-09 12:41:58.946768$GNGGA,174158.10,4138.0656082,N,07032.3759767,W,1,24,0.6,13.447,M,-29.744,M,0.0,*5C
###2023-12-09 12:41:58.948660$GPGSA,A,3,03,04,16,26,28,29,31,32,,,,,1.1,0.6,0.9*3B
###2023-12-09 12:41:58.950382$GLGSA,A,3,65,71,72,73,74,75,,,,,,,1.1,0.6,0.9*24
###2023-12-09 12:41:58.951989$GAGSA,A,3,04,19,21,27,,,,,,,,,1.1,0.6,0.9*26
###2023-12-09 12:41:58.953637$GBGSA,A,3,14,24,25,26,33,,,,,,,,1.1,0.6,0.9*2F
###2023-12-09 12:41:58.955988$GPGSV,2,1,08,03,38,272,43,04,25,311,41,16,40,208,44,26,70,207,47*73
###2023-12-09 12:41:58.958328$GPGSV,2,2,08,28,55,060,42,29,25,070,39,31,72,013,45,32,27,136,43*79
###2023-12-09 12:41:58.960681$GLGSV,2,1,06,65,15,329,42,71,52,170,49,72,68,302,47,73,44,035,44*68
###2023-12-09 12:41:58.962426$GLGSV,2,2,06,74,71,303,43,75,25,244,45,,,,,,,,*67
###2023-12-09 12:41:58.964781$GAGSV,1,1,04,04,23,311,43,19,83,289,41,21,80,172,46,27,39,049,41*62
###2023-12-09 12:41:58.967128$GBGSV,2,1,05,14,52,196,45,24,79,359,48,25,34,255,44,26,33,058,45*61
###2023-12-09 12:41:58.968588$GBGSV,2,2,05,33,62,248,48,,,,,,,,,,,,*58
###2023-12-09 12:41:58.969914$GNVTG,312.82,T,,M,0.62,N,1.15,K,A*28
###2023-12-09 12:41:58.971579$GNGST,174158.10,18.000,,,,0.076,0.070,0.160*50
###2023-12-09 12:41:58.972876$GNZDA,174158.10,09,12,2023,00,00*7E
###2023-12-09 12:41:58.973519$GNEBP,,,,,,M*13
###2023-12-09 12:41:59.143643$GNGGA,174158.30,4138.0656292,N,07032.3760095,W,1,24,0.6,13.450,M,-29.744,M,0.0,*5B
###2023-12-09 12:41:59.342903$GNGGA,174158.50,4138.0656403,N,07032.3760260,W,1,24,0.6,13.450,M,-29.744,M,0.0,*5B
###2023-12-09 12:41:59.543328$GNGGA,174158.70,4138.0656513,N,07032.3760431,W,1,24,0.6,13.447,M,-29.744,M,0.0,*5D
###2023-12-09 12:41:59.742821$GNGGA,174158.90,4138.0656696,N,07032.3760713,W,1,24,0.6,13.439,M,-29.744,M,0.0,*57
###2023-12-09 12:41:59.942905$GNRMC,174159.10,A,4138.0656906,N,07032.3761041,W,0.51,312.82,091223,,,A*5D
###2023-12-09 12:41:59.945771$GNGGA,174159.10,4138.0656906,N,07032.3761041,W,1,24,0.6,13.429,M,-29.744,M,0.0,*58
###2023-12-09 12:41:59.947657$GPGSA,A,3,03,04,16,26,28,29,31,32,,,,,1.1,0.6,0.9*3B
###2023-12-09 12:41:59.949397$GLGSA,A,3,65,71,72,73,74,75,,,,,,,1.1,0.6,0.9*24
###2023-12-09 12:41:59.950998$GAGSA,A,3,04,19,21,27,,,,,,,,,1.1,0.6,0.9*26
###2023-12-09 12:41:59.952651$GBGSA,A,3,14,24,25,26,33,,,,,,,,1.1,0.6,0.9*2F
###2023-12-09 12:41:59.955005$GPGSV,2,1,08,03,38,272,43,04,25,311,42,16,40,208,45,26,70,207,48*7E
###2023-12-09 12:41:59.957351$GPGSV,2,2,08,28,55,060,44,29,25,070,40,31,72,013,46,32,27,136,44*75
###2023-12-09 12:41:59.959710$GLGSV,2,1,06,65,15,329,40,71,52,170,47,72,68,302,47,73,44,035,44*64
###2023-12-09 12:41:59.961456$GLGSV,2,2,06,74,71,303,43,75,25,244,45,,,,,,,,*67
###2023-12-09 12:41:59.963805$GAGSV,1,1,04,04,23,311,42,19,83,289,41,21,80,172,46,27,39,049,42*60
###2023-12-09 12:41:59.966154$GBGSV,2,1,05,14,52,196,45,24,79,359,48,25,34,255,45,26,33,058,45*60
###2023-12-09 12:41:59.967634$GBGSV,2,2,05,33,62,248,48,,,,,,,,,,,,*58
###2023-12-09 12:41:59.968962$GNVTG,312.82,T,,M,0.51,N,0.94,K,A*20
###2023-12-09 12:41:59.970623$GNGST,174159.10,18.000,,,,0.076,0.070,0.160*51
###2023-12-09 12:41:59.971922$GNZDA,174159.10,09,12,2023,00,00*7F
###2023-12-09 12:41:59.972560$GNEBP,,,,,,M*13
###2023-12-09 12:42:00.142878$GNGGA,174159.30,4138.0657060,N,07032.3761312,W,1,24,0.6,13.433,M,-29.744,M,0.0,*5C
###2023-12-09 12:42:00.343871$GNGGA,174159.50,4138.0657186,N,07032.3761522,W,1,24,0.6,13.442,M,-29.744,M,0.0,*50
###2023-12-09 12:42:00.544312$GNGGA,174159.70,4138.0657363,N,07032.3761783,W,1,24,0.6,13.447,M,-29.744,M,0.0,*57
###2023-12-09 12:42:00.743477$GNGGA,174159.90,4138.0657539,N,07032.3762038,W,1,24,0.6,13.433,M,-29.744,M,0.0,*57
###2023-12-09 12:42:00.943810$GNRMC,174200.10,A,4138.0657684,N,07032.3762269,W,0.39,312.82,091223,,,A*53
###2023-12-09 12:42:00.946666$GNGGA,174200.10,4138.0657684,N,07032.3762269,W,1,24,0.6,13.414,M,-29.744,M,0.0,*56
###2023-12-09 12:42:00.948537$GPGSA,A,3,03,04,16,26,28,29,31,32,,,,,1.1,0.6,0.9*3B
###2023-12-09 12:42:00.950248$GLGSA,A,3,65,71,72,73,74,75,,,,,,,1.1,0.6,0.9*24
###2023-12-09 12:42:00.951848$GAGSA,A,3,04,19,21,27,,,,,,,,,1.1,0.6,0.9*26
###2023-12-09 12:42:00.953506$GBGSA,A,3,14,24,25,26,33,,,,,,,,1.1,0.6,0.9*2F
###2023-12-09 12:42:00.955848$GPGSV,2,1,08,03,38,272,43,04,25,311,42,16,40,208,45,26,70,207,48*7E
###2023-12-09 12:42:00.958177$GPGSV,2,2,08,28,55,060,44,29,25,070,41,31,72,013,46,32,27,136,44*74
###2023-12-09 12:42:00.960524$GLGSV,2,1,06,65,15,329,39,71,52,170,48,72,68,302,47,73,44,035,45*64
###2023-12-09 12:42:00.962268$GLGSV,2,2,06,74,71,303,43,75,25,244,46,,,,,,,,*64
###2023-12-09 12:42:00.964598$GAGSV,1,1,04,04,23,311,42,19,83,289,41,21,80,172,46,27,39,049,42*60
###2023-12-09 12:42:00.966937$GBGSV,2,1,05,14,52,196,45,24,79,359,48,25,34,255,44,26,33,058,45*61
###2023-12-09 12:42:00.968395$GBGSV,2,2,05,33,62,248,48,,,,,,,,,,,,*58
###2023-12-09 12:42:00.969717$GNVTG,312.82,T,,M,0.39,N,0.72,K,A*26
###2023-12-09 12:42:00.971379$GNGST,174200.10,18.000,,,,0.076,0.070,0.160*5E
###2023-12-09 12:42:00.972668$GNZDA,174200.10,09,12,2023,00,00*70
###2023-12-09 12:42:00.973303$GNEBP,,,,,,M*13
###2023-12-09 12:42:01.142655$GNGGA,174200.30,4138.0657835,N,07032.3762554,W,1,24,0.6,13.407,M,-29.744,M,0.0,*5B
###2023-12-09 12:42:01.342869$GNGGA,174200.50,4138.0658029,N,07032.3762862,W,1,24,0.6,13.422,M,-29.744,M,0.0,*58
###2023-12-09 12:42:01.543446$GNGGA,174200.70,4138.0658224,N,07032.3763179,W,1,24,0.6,13.436,M,-29.744,M,0.0,*52
###2023-12-09 12:42:01.742385$GNGGA,174200.90,4138.0658347,N,07032.3763389,W,1,24,0.6,13.431,M,-29.744,M,0.0,*52
###2023-12-09 12:42:01.943750$GNRMC,174201.10,A,4138.0658422,N,07032.3763545,W,0.27,312.82,091223,,,A*54
###2023-12-09 12:42:01.946636$GNGGA,174201.10,4138.0658422,N,07032.3763545,W,1,24,0.6,13.415,M,-29.744,M,0.0,*5F
###2023-12-09 12:42:01.948511$GPGSA,A,3,03,04,16,26,28,29,31,32,,,,,1.1,0.6,0.9*3B
###2023-12-09 12:42:01.950233$GLGSA,A,3,65,71,72,73,74,75,,,,,,,1.1,0.6,0.9*24
###2023-12-09 12:42:01.951835$GAGSA,A,3,04,19,21,27,,,,,,,,,1.1,0.6,0.9*26
###2023-12-09 12:42:01.953482$GBGSA,A,3,14,24,25,26,33,,,,,,,,1.1,0.6,0.9*2F
###2023-12-09 12:42:01.955821$GPGSV,2,1,08,03,38,272,43,04,25,311,42,16,40,208,46,26,70,207,48*7D
###2023-12-09 12:42:01.958159$GPGSV,2,2,08,28,55,060,44,29,25,070,41,31,72,013,46,32,27,136,44*74
###2023-12-09 12:42:01.960505$GLGSV,2,1,06,65,15,329,39,71,52,170,48,72,68,302,46,73,44,035,45*65
###2023-12-09 12:42:01.962256$GLGSV,2,2,06,74,71,303,42,75,25,244,45,,,,,,,,*66
###2023-12-09 12:42:01.964863$GAGSV,1,1,04,04,23,311,42,19,83,289,41,21,80,172,46,27,39,049,42*60
###2023-12-09 12:42:01.967227$GBGSV,2,1,05,14,52,196,45,24,79,359,48,25,34,255,44,26,33,058,45*61
###2023-12-09 12:42:01.968693$GBGSV,2,2,05,33,62,248,48,,,,,,,,,,,,*58
###2023-12-09 12:42:01.970016$GNVTG,312.82,T,,M,0.27,N,0.50,K,A*29
###2023-12-09 12:42:01.971674$GNGST,174201.10,18.000,,,,0.076,0.070,0.160*5F
###2023-12-09 12:42:01.972966$GNZDA,174201.10,09,12,2023,00,00*71
###2023-12-09 12:42:01.973606$GNEBP,,,,,,M*13
###2023-12-09 12:42:02.143892$GNGGA,174201.30,4138.0658578,N,07032.3763800,W,1,24,0.6,13.408,M,-29.744,M,0.0,*53
###2023-12-09 12:42:02.342931$GNGGA,174201.50,4138.0658826,N,07032.3764204,W,1,24,0.6,13.409,M,-29.744,M,0.0,*5B
