###2023-12-09 13:20:32.006954$GLGSV,2,2,06,74,65,,43,75,38,262,47,,,,,,,,*58
###2023-12-09 13:20:32.009288$GAGSV,1,1,04,04,35,311,43,19,78,187,40,21,82,056,45,27,27,049,40*65
###2023-12-09 13:20:32.011638$GBGSV,2,1,06,14,35,191,41,24,67,039,49,25,47,270,48,26,20,067,44*6B
###2023-12-09 13:20:32.013389$GBGSV,2,2,06,33,51,223,46,35,16,062,44,,,,,,,,*6D
###2023-12-09 13:20:32.014726$GNVTG,184.16,T,,M,3.48,N,6.44,K,A*20
###2023-12-09 13:20:32.016375$GNGST,182031.10,18.000,,,,0.100,0.069,0.160*5F
###2023-12-09 13:20:32.017663$GNZDA,182031.10,09,12,2023,00,00*79
###2023-12-09 13:20:32.018302$GNEBP,,,,,,M*13
###2023-12-09 13:20:32.184922$GNGGA,182031.30,4138.0428126,N,07032.3275677,W,1,24,0.7,12.829,M,-29.744,M,0.0,*52
###2023-12-09 13:20:32.384406$GNGGA,182031.50,4138.0426165,N,07032.3275653,W,1,24,0.7,12.818,M,-29.744,M,0.0,*59
###2023-12-09 13:20:32.585002$GNGGA,182031.70,4138.0424220,N,07032.3275814,W,1,24,0.7,12.831,M,-29.744,M,0.0,*5D
###2023-12-09 13:20:32.784258$GNGGA,182031.90,4138.0422263,N,07032.3275970,W,1,24,0.7,12.828,M,-29.744,M,0.0,*59
###2023-12-09 13:20:32.999956$GNRMC,182032.10,A,4138.0420303,N,07032.3276026,W,3.34,183.13,091223,,,A*54
###2023-12-09 13:20:33.002847$GNGGA,182032.10,4138.0420303,N,07032.3276026,W,1,24,0.7,12.804,M,-29.744,M,0.0,*50
###2023-12-09 13:20:33.004643$GPGSA,A,3,03,04,16,26,28,29,31,,,,,,1.1,0.7,0.9*3B
###2023-12-09 13:20:33.006362$GLGSA,A,3,65,71,72,73,74,75,,,,,,,1.1,0.7,0.9*25
###2023-12-09 13:20:33.007961$GAGSA,A,3,04,19,21,27,,,,,,,,,1.1,0.7,0.9*27
###2023-12-09 13:20:33.009668$GBGSA,A,3,14,24,25,26,33,35,,,,,,,1.1,0.7,0.9*28
###2023-12-09 13:20:33.012011$GPGSV,2,1,07,03,31,253,42,04,40,310,44,16,59,217,46,26,89,196,48*76
###2023-12-09 13:20:33.014046$GPGSV,2,2,07,28,43,079,44,29,23,053,42,31,64,055,46,,,,*45
###2023-12-09 13:20:33.016391$GLGSV,2,1,06,65,32,324,43,71,31,174,43,72,69,237,46,73,28,047,44*62
###2023-12-09 13:20:33.018042$GLGSV,2,2,06,74,65,,43,75,38,262,47,,,,,,,,*58
###2023-12-09 13:20:33.020375$GAGSV,1,1,04,04,35,311,44,19,78,187,40,21,82,056,47,27,27,049,40*60
###2023-12-09 13:20:33.022709$GBGSV,2,1,06,14,35,191,42,24,67,039,49,25,47,270,47,26,20,067,44*67
###2023-12-09 13:20:33.024453$GBGSV,2,2,06,33,51,223,46,35,16,062,44,,,,,,,,*6D
###2023-12-09 13:20:33.025770$GNVTG,183.13,T,,M,3.34,N,6.19,K,A*21
###2023-12-09 13:20:33.027427$GNGST,182032.10,18.000,,,,0.100,0.069,0.160*5C
###2023-12-09 13:20:33.028711$GNZDA,182032.10,09,12,2023,00,00*7A
###2023-12-09 13:20:33.029346$GNEBP,,,,,,M*13
###2023-12-09 13:20:33.189572$GNGGA,182032.30,4138.0418427,N,07032.3276354,W,1,24,0.7,12.835,M,-29.744,M,0.0,*5C
###2023-12-09 13:20:33.384482$GNGGA,182032.50,4138.0416478,N,07032.3276680,W,1,24,0.7,12.839,M,-29.744,M,0.0,*5E
###2023-12-09 13:20:33.585316$GNGGA,182032.70,4138.0414530,N,07032.3276647,W,1,24,0.7,12.800,M,-29.744,M,0.0,*52
###2023-12-09 13:20:33.784231$GNGGA,182032.90,4138.0412611,N,07032.3276654,W,1,24,0.7,12.801,M,-29.744,M,0.0,*59
###2023-12-09 13:20:33.995170$GNRMC,182033.10,A,4138.0410627,N,07032.3276963,W,3.62,187.57,091223,,,A*5A
###2023-12-09 13:20:33.998015$GNGGA,182033.10,4138.0410627,N,07032.3276963,W,1,24,0.7,12.831,M,-29.744,M,0.0,*5F
###2023-12-09 13:20:33.999828$GPGSA,A,3,03,04,16,26,28,29,31,,,,,,1.1,0.7,0.9*3B
###2023-12-09 13:20:34.001541$GLGSA,A,3,65,71,72,73,74,75,,,,,,,1.1,0.7,0.9*25
###2023-12-09 13:20:34.003136$GAGSA,A,3,04,19,21,27,,,,,,,,,1.1,0.7,0.9*27
###2023-12-09 13:20:34.004847$GBGSA,A,3,14,24,25,26,33,35,,,,,,,1.1,0.7,0.9*28
###2023-12-09 13:20:34.007182$GPGSV,2,1,07,03,31,253,42,04,40,310,44,16,59,217,45,26,89,196,48*75
###2023-12-09 13:20:34.009213$GPGSV,2,2,07,28,43,079,45,29,23,053,42,31,64,055,47,,,,*45
###2023-12-09 13:20:34.011544$GLGSV,2,1,06,65,32,324,43,71,31,174,42,72,69,237,46,73,28,047,44*63
###2023-12-09 13:20:34.013190$GLGSV,2,2,06,74,65,,43,75,38,262,47,,,,,,,,*58
###2023-12-09 13:20:34.015529$GAGSV,1,1,04,04,35,311,44,19,78,187,40,21,82,056,46,27,27,049,40*61
###2023-12-09 13:20:34.017855$GBGSV,2,1,06,14,35,191,42,24,67,039,48,25,47,270,47,26,20,067,43*61
###2023-12-09 13:20:34.019608$GBGSV,2,2,06,33,51,223,45,35,16,062,43,,,,,,,,*69
###2023-12-09 13:20:34.020930$GNVTG,187.57,T,,M,3.62,N,6.70,K,A*29
###2023-12-09 13:20:34.022583$GNGST,182033.10,18.000,,,,0.100,0.069,0.160*5D
###2023-12-09 13:20:34.023875$GNZDA,182033.10,09,12,2023,00,00*7B
###2023-12-09 13:20:34.024514$GNEBP,,,,,,M*13
###2023-12-09 13:20:34.184665$GNGGA,182033.30,4138.0408643,N,07032.3277143,W,1,24,0.7,12.823,M,-29.744,M,0.0,*5E
###2023-12-09 13:20:34.385417$GNGGA,182033.50,4138.0406718,N,07032.3276884,W,1,24,0.7,12.805,M,-29.744,M,0.0,*5E
###2023-12-09 13:20:34.585355$GNGGA,182033.70,4138.0404781,N,07032.3276635,W,1,24,0.7,12.804,M,-29.744,M,0.0,*5B
###2023-12-09 13:20:34.785280$GNGGA,182033.90,4138.0402813,N,07032.3276729,W,1,24,0.7,12.805,M,-29.744,M,0.0,*5A
###2023-12-09 13:20:34.989818$GNRMC,182034.10,A,4138.0400837,N,07032.3276931,W,3.63,180.78,091223,,,A*5F
###2023-12-09 13:20:34.992689$GNGGA,182034.10,4138.0400837,N,07032.3276931,W,1,24,0.7,12.816,M,-29.744,M,0.0,*54
###2023-12-09 13:20:34.994480$GPGSA,A,3,03,04,16,26,28,29,31,,,,,,1.1,0.7,0.9*3B
###2023-12-09 13:20:34.996204$GLGSA,A,3,65,71,72,73,74,75,,,,,,,1.1,0.7,0.9*25
###2023-12-09 13:20:34.997785$GAGSA,A,3,04,19,21,27,,,,,,,,,1.1,0.7,0.9*27
###2023-12-09 13:20:34.999509$GBGSA,A,3,14,24,25,26,33,35,,,,,,,1.1,0.7,0.9*28
###2023-12-09 13:20:35.001831$GPGSV,2,1,07,03,31,253,43,04,40,310,45,16,59,217,46,26,89,196,48*76
###2023-12-09 13:20:35.003877$GPGSV,2,2,07,28,43,079,45,29,23,053,41,31,64,055,46,,,,*47
###2023-12-09 13:20:35.006213$GLGSV,2,1,06,65,32,324,43,71,31,174,43,72,69,237,45,73,28,047,41*64
###2023-12-09 13:20:35.007874$GLGSV,2,2,06,74,65,,43,75,38,262,47,,,,,,,,*58
###2023-12-09 13:20:35.010193$GAGSV,1,1,04,04,35,311,44,19,78,187,40,21,82,056,46,27,27,049,39*6F
###2023-12-09 13:20:35.012528$GBGSV,2,1,06,14,35,191,42,24,67,039,47,25,47,270,47,26,20,067,41*6C
###2023-12-09 13:20:35.014271$GBGSV,2,2,06,33,51,223,45,35,16,062,43,,,,,,,,*69
###2023-12-09 13:20:35.015608$GNVTG,180.78,T,,M,3.63,N,6.73,K,A*21
###2023-12-09 13:20:35.017258$GNGST,182034.10,18.000,,,,0.100,0.069,0.160*5A
###2023-12-09 13:20:35.018548$GNZDA,182034.10,09,12,2023,00,00*7C
###2023-12-09 13:20:35.019227$GNEBP,,,,,,M*13
###2023-12-09 13:20:35.185672$GNGGA,182034.30,4138.0398892,N,07032.3276743,W,1,24,0.7,12.792,M,-29.744,M,0.0,*57
###2023-12-09 13:20:35.386245$GNGGA,182034.50,4138.0397046,N,07032.3276849,W,1,24,0.7,12.801,M,-29.744,M,0.0,*5F
###2023-12-09 13:20:35.587195$GNGGA,182034.70,4138.0395121,N,07032.3277133,W,1,24,0.7,12.803,M,-29.744,M,0.0,*58
###2023-12-09 13:20:35.786390$GNGGA,182034.90,4138.0393269,N,07032.3277268,W,1,24,0.7,12.770,M,-29.744,M,0.0,*59
###2023-12-09 13:20:35.988504$GNRMC,182035.10,A,4138.0391454,N,07032.3277533,W,3.40,185.03,091223,,,A*5F
###2023-12-09 13:20:35.991384$GNGGA,182035.10,4138.0391454,N,07032.3277533,W,1,24,0.7,12.804,M,-29.744,M,0.0,*5F
###2023-12-09 13:20:35.993184$GPGSA,A,3,03,04,16,26,28,29,31,,,,,,1.1,0.7,0.9*3B
###2023-12-09 13:20:35.994920$GLGSA,A,3,65,71,72,73,74,75,,,,,,,1.1,0.7,0.9*25
###2023-12-09 13:20:35.996502$GAGSA,A,3,04,19,21,27,,,,,,,,,1.1,0.7,0.9*27
###2023-12-09 13:20:35.998219$GBGSA,A,3,14,24,25,26,33,35,,,,,,,1.1,0.7,0.9*28
###2023-12-09 13:20:36.000565$GPGSV,2,1,07,03,31,253,43,04,40,310,45,16,59,217,46,26,89,196,48*76
###2023-12-09 13:20:36.002621$GPGSV,2,2,07,28,43,079,44,29,23,053,41,31,64,055,46,,,,*46
###2023-12-09 13:20:36.004964$GLGSV,2,1,06,65,32,324,43,71,31,174,42,72,69,237,45,73,28,047,44*60
###2023-12-09 13:20:36.006633$GLGSV,2,2,06,74,65,,43,75,38,262,46,,,,,,,,*59
###2023-12-09 13:20:36.008968$GAGSV,1,1,04,04,35,311,43,19,78,187,40,21,82,056,47,27,27,049,40*67
###2023-12-09 13:20:36.011315$GBGSV,2,1,06,14,35,191,40,24,67,039,49,25,47,270,48,26,20,067,43*6D
###2023-12-09 13:20:36.013074$GBGSV,2,2,06,33,51,222,47,35,16,062,43,,,,,,,,*6A
###2023-12-09 13:20:36.014396$GNVTG,185.03,T,,M,3.40,N,6.30,K,A*2E
###2023-12-09 13:20:36.016057$GNGST,182035.10,18.000,,,,0.100,0.069,0.160*5B
###2023-12-09 13:20:36.017357$GNZDA,182035.10,09,12,2023,00,00*7D
###2023-12-09 13:20:36.017999$GNEBP,,,,,,M*13
###2023-12-09 13:20:36.184857$GNGGA,182035.30,4138.0389526,N,07032.3277712,W,1,24,0.7,12.812,M,-29.744,M,0.0,*56
###2023-12-09 13:20:36.384488$GNGGA,182035.50,4138.0387672,N,07032.3277613,W,1,24,0.7,12.776,M,-29.744,M,0.0,*51
###2023-12-09 13:20:36.585310$GNGGA,182035.70,4138.0385829,N,07032.3277608,W,1,24,0.7,12.795,M,-29.744,M,0.0,*56
###2023-12-09 13:20:36.784683$GNGGA,182035.90,4138.0383850,N,07032.3277749,W,1,24,0.7,12.805,M,-29.744,M,0.0,*52
###2023-12-09 13:20:36.988303$GNRMC,182036.10,A,4138.0381948,N,07032.3277638,W,3.50,173.63,091223,,,A*5B
###2023-12-09 13:20:36.991190$GNGGA,182036.10,4138.0381948,N,07032.3277638,W,1,24,0.7,12.793,M,-29.744,M,0.0,*54
###2023-12-09 13:20:36.992988$GPGSA,A,3,03,04,16,26,28,29,31,,,,,,1.1,0.7,0.9*3B
###2023-12-09 13:20:36.994718$GLGSA,A,3,65,71,72,73,74,75,,,,,,,1.1,0.7,0.9*25
