###2023-12-09 13:20:36.996698$GAGSA,A,3,04,19,21,27,,,,,,,,,1.1,0.7,0.9*27
###2023-12-09 13:20:36.998435$GBGSA,A,3,14,24,25,26,33,35,,,,,,,1.1,0.7,0.9*28
###2023-12-09 13:20:37.000796$GPGSV,2,1,07,03,31,253,43,04,40,310,43,16,59,217,46,26,89,196,48*70
###2023-12-09 13:20:37.002863$GPGSV,2,2,07,28,43,079,46,29,23,053,42,31,64,055,46,,,,*47
###2023-12-09 13:20:37.005205$GLGSV,2,1,06,65,32,324,43,71,31,174,43,72,69,237,45,73,28,047,43*66
###2023-12-09 13:20:37.006924$GLGSV,2,2,06,74,65,,43,75,38,262,48,,,,,,,,*57
###2023-12-09 13:20:37.009255$GAGSV,1,1,04,04,35,311,43,19,78,187,40,21,82,056,46,27,27,049,40*66
###2023-12-09 13:20:37.011613$GBGSV,2,1,06,14,35,191,41,24,67,039,48,25,47,270,48,26,20,067,43*6D
###2023-12-09 13:20:37.013355$GBGSV,2,2,06,33,51,222,47,35,16,062,42,,,,,,,,*6B
###2023-12-09 13:20:37.014687$GNVTG,173.63,T,,M,3.50,N,6.48,K,A*2F
###2023-12-09 13:20:37.016325$GNGST,182036.10,18.000,,,,0.100,0.069,0.160*58
###2023-12-09 13:20:37.017611$GNZDA,182036.10,09,12,2023,00,00*7E
###2023-12-09 13:20:37.018247$GNEBP,,,,,,M*13
###2023-12-09 13:20:37.184217$GNGGA,182036.30,4138.0380088,N,07032.3277271,W,1,24,0.7,12.797,M,-29.744,M,0.0,*5F
###2023-12-09 13:20:37.387921$GNGGA,182036.50,4138.0378209,N,07032.3276910,W,1,24,0.7,12.801,M,-29.744,M,0.0,*58
###2023-12-09 13:20:37.586158$GNGGA,182036.70,4138.0376304,N,07032.3276647,W,1,24,0.7,12.803,M,-29.744,M,0.0,*57
###2023-12-09 13:20:37.785273$GNGGA,182036.90,4138.0374436,N,07032.3276354,W,1,24,0.7,12.802,M,-29.744,M,0.0,*5B
###2023-12-09 13:20:37.987225$GNRMC,182037.10,A,4138.0372559,N,07032.3275769,W,3.54,167.80,091223,,,A*51
###2023-12-09 13:20:37.990064$GNGGA,182037.10,4138.0372559,N,07032.3275769,W,1,24,0.7,12.794,M,-29.744,M,0.0,*55
###2023-12-09 13:20:37.991859$GPGSA,A,3,03,04,16,26,28,29,31,,,,,,1.1,0.7,0.9*3B
###2023-12-09 13:20:37.993575$GLGSA,A,3,65,71,72,73,74,75,,,,,,,1.1,0.7,0.9*25
###2023-12-09 13:20:37.995163$GAGSA,A,3,04,19,21,27,,,,,,,,,1.1,0.7,0.9*27
###2023-12-09 13:20:37.996869$GBGSA,A,3,14,24,25,26,33,35,,,,,,,1.1,0.7,0.9*28
###2023-12-09 13:20:37.999196$GPGSV,2,1,07,03,31,253,42,04,40,310,44,16,59,217,46,26,89,196,48*76
###2023-12-09 13:20:38.001224$GPGSV,2,2,07,28,43,079,45,29,23,053,42,31,64,055,46,,,,*44
###2023-12-09 13:20:38.003551$GLGSV,2,1,06,65,33,323,44,71,31,174,43,72,69,237,45,73,28,047,42*66
###2023-12-09 13:20:38.005196$GLGSV,2,2,06,74,65,,43,75,38,262,47,,,,,,,,*58
###2023-12-09 13:20:38.007525$GAGSV,1,1,04,04,35,311,43,19,78,187,40,21,82,056,46,27,27,049,40*66
###2023-12-09 13:20:38.009844$GBGSV,2,1,06,14,35,191,41,24,67,039,48,25,47,270,48,26,20,067,43*6D
###2023-12-09 13:20:38.011596$GBGSV,2,2,06,33,51,222,47,35,16,062,42,,,,,,,,*6B
###2023-12-09 13:20:38.012914$GNVTG,167.80,T,,M,3.54,N,6.55,K,A*2F
###2023-12-09 13:20:38.014558$GNGST,182037.10,18.000,,,,0.100,0.069,0.160*59
###2023-12-09 13:20:38.015887$GNZDA,182037.10,09,12,2023,00,00*7F
###2023-12-09 13:20:38.016529$GNEBP,,,,,,M*13
###2023-12-09 13:20:38.184301$GNGGA,182037.30,4138.0370710,N,07032.3275525,W,1,24,0.7,12.800,M,-29.744,M,0.0,*52
###2023-12-09 13:20:38.384360$GNGGA,182037.50,4138.0368780,N,07032.3275458,W,1,24,0.7,12.818,M,-29.744,M,0.0,*56
###2023-12-09 13:20:38.584785$GNGGA,182037.70,4138.0366843,N,07032.3275279,W,1,24,0.7,12.800,M,-29.744,M,0.0,*56
###2023-12-09 13:20:38.785319$GNGGA,182037.90,4138.0364962,N,07032.3275271,W,1,24,0.7,12.809,M,-29.744,M,0.0,*59
###2023-12-09 13:20:38.991578$GNRMC,182038.10,A,4138.0363111,N,07032.3275357,W,3.48,183.44,091223,,,A*50
###2023-12-09 13:20:38.994445$GNGGA,182038.10,4138.0363111,N,07032.3275357,W,1,24,0.7,12.821,M,-29.744,M,0.0,*5A
###2023-12-09 13:20:38.996250$GPGSA,A,3,03,04,16,26,28,29,31,,,,,,1.1,0.7,0.9*3B
###2023-12-09 13:20:38.997958$GLGSA,A,3,65,71,72,73,74,75,,,,,,,1.1,0.7,0.9*25
###2023-12-09 13:20:38.999546$GAGSA,A,3,04,19,21,27,,,,,,,,,1.1,0.7,0.9*27
###2023-12-09 13:20:39.001245$GBGSA,A,3,14,24,25,26,33,35,,,,,,,1.1,0.7,0.9*28
###2023-12-09 13:20:39.003572$GPGSV,2,1,07,03,31,253,42,04,40,310,44,16,59,217,45,26,89,196,48*75
###2023-12-09 13:20:39.005601$GPGSV,2,2,07,28,43,079,45,29,23,053,41,31,64,055,47,,,,*46
###2023-12-09 13:20:39.007926$GLGSV,2,1,06,65,33,323,42,71,31,174,43,72,69,237,46,73,28,047,43*62
###2023-12-09 13:20:39.009572$GLGSV,2,2,06,74,65,,42,75,38,262,47,,,,,,,,*59
###2023-12-09 13:20:39.011891$GAGSV,1,1,04,04,35,311,44,19,78,187,40,21,82,056,46,27,27,049,40*61
###2023-12-09 13:20:39.014207$GBGSV,2,1,06,14,35,191,41,24,67,039,48,25,47,270,47,26,20,067,43*62
###2023-12-09 13:20:39.015954$GBGSV,2,2,06,33,51,222,45,35,16,062,44,,,,,,,,*6F
###2023-12-09 13:20:39.017273$GNVTG,183.44,T,,M,3.48,N,6.44,K,A*20
###2023-12-09 13:20:39.018923$GNGST,182038.10,18.000,,,,0.100,0.069,0.160*56
###2023-12-09 13:20:39.020212$GNZDA,182038.10,09,12,2023,00,00*70
###2023-12-09 13:20:39.020853$GNEBP,,,,,,M*13
###2023-12-09 13:20:39.190499$GNGGA,182038.30,4138.0361193,N,07032.3275567,W,1,24,0.7,12.799,M,-29.744,M,0.0,*59
###2023-12-09 13:20:39.386079$GNGGA,182038.50,4138.0359373,N,07032.3275795,W,1,24,0.7,12.784,M,-29.744,M,0.0,*5B
###2023-12-09 13:20:39.590848$GNGGA,182038.70,4138.0357538,N,07032.3276134,W,1,24,0.7,12.814,M,-29.744,M,0.0,*56
###2023-12-09 13:20:39.786322$GNGGA,182038.90,4138.0355646,N,07032.3276396,W,1,24,0.7,12.798,M,-29.744,M,0.0,*51
###2023-12-09 13:20:39.985653$GNRMC,182039.10,A,4138.0353831,N,07032.3276441,W,3.27,179.66,091223,,,A*56
###2023-12-09 13:20:39.988549$GNGGA,182039.10,4138.0353831,N,07032.3276441,W,1,24,0.7,12.786,M,-29.744,M,0.0,*52
###2023-12-09 13:20:39.990341$GPGSA,A,3,03,04,16,26,28,29,31,,,,,,1.1,0.7,0.9*3B
###2023-12-09 13:20:39.992059$GLGSA,A,3,65,71,72,73,74,75,,,,,,,1.1,0.7,0.9*25
###2023-12-09 13:20:39.993634$GAGSA,A,3,04,19,21,27,,,,,,,,,1.1,0.7,0.9*27
###2023-12-09 13:20:39.995351$GBGSA,A,3,14,24,25,26,33,35,,,,,,,1.1,0.7,0.9*28
###2023-12-09 13:20:39.997665$GPGSV,2,1,07,03,31,253,40,04,40,310,44,16,59,217,46,26,89,196,48*74
###2023-12-09 13:20:39.999743$GPGSV,2,2,07,28,43,079,44,29,23,053,43,31,64,055,47,,,,*45
###2023-12-09 13:20:40.002065$GLGSV,2,1,06,65,33,323,43,71,31,174,41,72,69,237,46,73,28,047,44*66
###2023-12-09 13:20:40.003717$GLGSV,2,2,06,74,65,,43,75,38,262,47,,,,,,,,*58
###2023-12-09 13:20:40.006029$GAGSV,1,1,04,04,35,311,43,19,78,187,40,21,82,056,46,27,27,049,41*67
###2023-12-09 13:20:40.008353$GBGSV,2,1,06,14,35,191,40,24,67,039,49,25,47,270,47,26,20,067,45*64
###2023-12-09 13:20:40.010094$GBGSV,2,2,06,33,51,222,46,35,16,062,45,,,,,,,,*6D
###2023-12-09 13:20:40.011420$GNVTG,179.66,T,,M,3.27,N,6.05,K,A*29
###2023-12-09 13:20:40.013056$GNGST,182039.10,18.000,,,,0.100,0.069,0.160*57
###2023-12-09 13:20:40.014340$GNZDA,182039.10,09,12,2023,00,00*71
###2023-12-09 13:20:40.014990$GNEBP,,,,,,M*13
###2023-12-09 13:20:40.183620$GNGGA,182039.30,4138.0351968,N,07032.3276518,W,1,24,0.7,12.793,M,-29.744,M,0.0,*56
###2023-12-09 13:20:40.383986$GNGGA,182039.50,4138.0350078,N,07032.3276673,W,1,24,0.7,12.781,M,-29.744,M,0.0,*54
###2023-12-09 13:20:40.585378$GNGGA,182039.70,4138.0348198,N,07032.3276608,W,1,24,0.7,12.782,M,-29.744,M,0.0,*5F
###2023-12-09 13:20:40.787021$GNGGA,182039.90,4138.0346341,N,07032.3276482,W,1,24,0.7,12.793,M,-29.744,M,0.0,*59
###2023-12-09 13:20:40.995830$GNRMC,182040.10,A,4138.0344405,N,07032.3276269,W,3.50,173.30,091223,,,A*50
###2023-12-09 13:20:40.999274$GNGGA,182040.10,4138.0344405,N,07032.3276269,W,1,24,0.7,12.778,M,-29.744,M,0.0,*5C
###2023-12-09 13:20:41.001427$GPGSA,A,3,03,04,16,26,28,29,31,,,,,,1.1,0.7,0.9*3B
###2023-12-09 13:20:41.003517$GLGSA,A,3,65,71,72,73,74,75,,,,,,,1.1,0.7,0.9*25
###2023-12-09 13:20:41.005432$GAGSA,A,3,04,19,21,27,,,,,,,,,1.1,0.7,0.9*27
###2023-12-09 13:20:41.007502$GBGSA,A,3,14,24,25,26,33,35,,,,,,,1.1,0.7,0.9*28
###2023-12-09 13:20:41.010293$GPGSV,2,1,07,03,31,253,43,04,40,310,44,16,59,217,46,26,89,196,48*77
###2023-12-09 13:20:41.012753$GPGSV,2,2,07,28,43,079,45,29,23,053,41,31,64,055,47,,,,*46
###2023-12-09 13:20:41.015564$GLGSV,2,1,06,65,33,323,44,71,31,174,43,72,69,237,46,73,28,047,43*64
###2023-12-09 13:20:41.017550$GLGSV,2,2,06,74,65,,43,75,38,262,47,,,,,,,,*58
###2023-12-09 13:20:41.020355$GAGSV,1,1,04,04,35,311,43,19,78,187,40,21,82,056,46,27,27,049,40*66
###2023-12-09 13:20:41.023474$GBGSV,2,1,06,14,35,191,43,24,67,039,49,25,47,270,48,26,20,067,44*69
###2023-12-09 13:20:41.025598$GBGSV,2,2,06,33,51,222,48,35,16,062,44,,,,,,,,*62
###2023-12-09 13:20:41.027226$GNVTG,173.30,T,,M,3.50,N,6.48,K,A*29
###2023-12-09 13:20:41.029206$GNGST,182040.10,18.000,,,,0.100,0.069,0.160*59
###2023-12-09 13:20:41.030770$GNZDA,182040.10,09,12,2023,00,00*7F
###2023-12-09 13:20:41.031538$GNEBP,,,,,,M*13
###2023-12-09 13:20:41.184150$GNGGA,182040.30,4138.0342536,N,07032.3275979,W,1,24,0.7,12.759,M,-29.744,M,0.0,*53
###2023-12-09 13:20:41.383706$GNGGA,182040.50,4138.0340650,N,07032.3275948,W,1,24,0.7,12.785,M,-29.744,M,0.0,*57
###2023-12-09 13:20:41.584469$GNGGA,182040.70,4138.0338694,N,07032.3275763,W,1,24,0.7,12.778,M,-29.744,M,0.0,*57
