###2023-12-09 12:26:50.921709$GNGGA,172650.10,4138.0379655,N,07032.4356854,W,1,16,0.8,7.918,M,-29.746,M,0.0,*6D
###2023-12-09 12:26:50.923565$GPGSA,A,3,03,16,26,28,29,31,32,,,,,,1.6,0.8,1.3*3D
###2023-12-09 12:26:50.925181$GLGSA,A,3,71,72,73,75,,,,,,,,,1.6,0.8,1.3*26
###2023-12-09 12:26:50.926674$GAGSA,A,3,21,27,,,,,,,,,,,1.6,0.8,1.3*28
###2023-12-09 12:26:50.928213$GBGSA,A,3,14,25,26,,,,,,,,,,1.6,0.8,1.3*2B
###2023-12-09 12:26:50.930558$GPGSV,2,1,07,03,39,281,42,16,33,206,40,26,62,205,40,28,60,051,42*73
###2023-12-09 12:26:50.932632$GPGSV,2,2,07,29,24,078,39,31,73,348,40,32,34,132,45,,,,*4C
###2023-12-09 12:26:50.934993$GLGSV,1,1,04,71,61,167,47,72,62,315,45,73,52,031,48,75,19,238,42*6C
###2023-12-09 12:26:50.936752$GAGSV,1,1,02,21,74,179,40,27,44,051,44,,,,,,,,*60
###2023-12-09 12:26:50.938832$GBGSV,1,1,03,14,59,200,44,25,30,250,37,26,38,056,47,,,,*5B
###2023-12-09 12:26:50.939980$GNVTG,,T,,M,0.06,N,0.11,K,A*3B
###2023-12-09 12:26:50.941639$GNGST,172650.10,30.000,,,,0.230,0.220,0.540*52
###2023-12-09 12:26:50.942970$GNZDA,172650.10,09,12,2023,00,00*77
###2023-12-09 12:26:50.943624$GNEBP,,,,,,M*13
###2023-12-09 12:26:51.117541$GNGGA,172650.30,4138.0379648,N,07032.4356861,W,1,16,0.8,7.909,M,-29.746,M,0.0,*65
###2023-12-09 12:26:51.316066$GNGGA,172650.50,4138.0379634,N,07032.4356864,W,1,16,0.8,7.901,M,-29.746,M,0.0,*65
###2023-12-09 12:26:51.516056$GNGGA,172650.70,4138.0379620,N,07032.4356848,W,1,16,0.8,7.903,M,-29.746,M,0.0,*6E
###2023-12-09 12:26:51.715340$GNGGA,172650.90,4138.0379617,N,07032.4356844,W,1,16,0.8,7.897,M,-29.746,M,0.0,*64
###2023-12-09 12:26:51.914967$GNRMC,172651.10,A,4138.0379616,N,07032.4356832,W,0.06,,091223,,,A*4F
###2023-12-09 12:26:51.917817$GNGGA,172651.10,4138.0379616,N,07032.4356832,W,1,16,0.8,7.894,M,-29.746,M,0.0,*6E
###2023-12-09 12:26:51.919652$GPGSA,A,3,03,16,26,28,29,31,32,,,,,,1.6,0.8,1.3*3D
###2023-12-09 12:26:51.921268$GLGSA,A,3,71,72,73,75,,,,,,,,,1.6,0.8,1.3*26
###2023-12-09 12:26:51.922764$GAGSA,A,3,21,27,,,,,,,,,,,1.6,0.8,1.3*28
###2023-12-09 12:26:51.924302$GBGSA,A,3,14,25,26,,,,,,,,,,1.6,0.8,1.3*2B
###2023-12-09 12:26:51.926664$GPGSV,2,1,07,03,39,281,43,16,33,206,41,26,62,205,41,28,60,051,42*72
###2023-12-09 12:26:51.928724$GPGSV,2,2,07,29,24,078,40,31,73,348,40,32,33,132,47,,,,*47
###2023-12-09 12:26:51.931088$GLGSV,1,1,04,71,61,167,47,72,62,315,45,73,52,031,48,75,19,238,42*6C
###2023-12-09 12:26:51.932867$GAGSV,1,1,02,21,74,179,41,27,44,051,45,,,,,,,,*60
###2023-12-09 12:26:51.934949$GBGSV,1,1,03,14,59,200,45,25,30,250,39,26,38,056,48,,,,*5B
###2023-12-09 12:26:51.936104$GNVTG,,T,,M,0.06,N,0.11,K,A*3B
###2023-12-09 12:26:51.937777$GNGST,172651.10,30.000,,,,0.230,0.220,0.540*53
###2023-12-09 12:26:51.939107$GNZDA,172651.10,09,12,2023,00,00*76
###2023-12-09 12:26:51.939763$GNEBP,,,,,,M*13
###2023-12-09 12:26:52.115799$GNGGA,172651.30,4138.0379596,N,07032.4356815,W,1,16,0.8,7.894,M,-29.746,M,0.0,*62
###2023-12-09 12:26:52.316130$GNGGA,172651.50,4138.0379579,N,07032.4356807,W,1,16,0.8,7.887,M,-29.746,M,0.0,*64
###2023-12-09 12:26:52.514927$GNGGA,172651.70,4138.0379568,N,07032.4356798,W,1,16,0.8,7.886,M,-29.746,M,0.0,*6E
###2023-12-09 12:26:52.714391$GNGGA,172651.90,4138.0379558,N,07032.4356810,W,1,16,0.8,7.882,M,-29.746,M,0.0,*68
###2023-12-09 12:26:52.920546$GNRMC,172652.10,A,4138.0379545,N,07032.4356810,W,0.02,,091223,,,A*4D
###2023-12-09 12:26:52.923598$GNGGA,172652.10,4138.0379545,N,07032.4356810,W,1,16,0.8,7.880,M,-29.746,M,0.0,*6D
###2023-12-09 12:26:52.925419$GPGSA,A,3,03,16,26,28,29,31,32,,,,,,1.6,0.8,1.3*3D
###2023-12-09 12:26:52.927048$GLGSA,A,3,71,72,73,75,,,,,,,,,1.6,0.8,1.3*26
###2023-12-09 12:26:52.928523$GAGSA,A,3,21,27,,,,,,,,,,,1.6,0.8,1.3*28
###2023-12-09 12:26:52.930047$GBGSA,A,3,14,25,26,,,,,,,,,,1.6,0.8,1.3*2B
###2023-12-09 12:26:52.932413$GPGSV,2,1,07,03,39,281,43,16,33,206,42,26,62,205,41,28,60,051,42*71
###2023-12-09 12:26:52.934478$GPGSV,2,2,07,29,24,078,40,31,73,348,41,32,33,132,47,,,,*46
###2023-12-09 12:26:52.936838$GLGSV,1,1,04,71,61,167,47,72,62,315,45,73,52,031,48,75,19,238,42*6C
###2023-12-09 12:26:52.938622$GAGSV,1,1,02,21,74,179,42,27,44,051,46,,,,,,,,*60
###2023-12-09 12:26:52.940677$GBGSV,1,1,03,14,59,200,46,25,30,250,40,26,38,056,49,,,,*57
###2023-12-09 12:26:52.941825$GNVTG,,T,,M,0.02,N,0.04,K,A*3B
###2023-12-09 12:26:52.943539$GNGST,172652.10,30.000,,,,0.230,0.220,0.550*51
###2023-12-09 12:26:52.944851$GNZDA,172652.10,09,12,2023,00,00*75
###2023-12-09 12:26:52.945507$GNEBP,,,,,,M*13
###2023-12-09 12:26:53.115300$GNGGA,172652.30,4138.0379534,N,07032.4356813,W,1,16,0.8,7.878,M,-29.746,M,0.0,*6D
###2023-12-09 12:26:53.316221$GNGGA,172652.50,4138.0379511,N,07032.4356801,W,1,16,0.8,7.875,M,-29.746,M,0.0,*62
###2023-12-09 12:26:53.517202$GNGGA,172652.70,4138.0379512,N,07032.4356801,W,1,16,0.8,7.872,M,-29.746,M,0.0,*64
###2023-12-09 12:26:53.716289$GNGGA,172652.90,4138.0379497,N,07032.4356782,W,1,16,0.8,7.869,M,-29.746,M,0.0,*68
###2023-12-09 12:26:53.917762$GNRMC,172653.10,A,4138.0379487,N,07032.4356774,W,0.04,,091223,,,A*48
###2023-12-09 12:26:53.920637$GNGGA,172653.10,4138.0379487,N,07032.4356774,W,1,16,0.8,7.871,M,-29.746,M,0.0,*60
###2023-12-09 12:26:53.922463$GPGSA,A,3,03,16,26,28,29,31,32,,,,,,1.6,0.8,1.3*3D
###2023-12-09 12:26:53.924100$GLGSA,A,3,71,72,73,75,,,,,,,,,1.6,0.8,1.3*26
###2023-12-09 12:26:53.925577$GAGSA,A,3,21,27,,,,,,,,,,,1.6,0.8,1.3*28
###2023-12-09 12:26:53.927130$GBGSA,A,3,14,25,26,,,,,,,,,,1.6,0.8,1.3*2B
###2023-12-09 12:26:53.929479$GPGSV,2,1,07,03,39,281,42,16,33,206,42,26,62,205,41,28,60,051,43*71
###2023-12-09 12:26:53.931568$GPGSV,2,2,07,29,24,078,40,31,73,348,41,32,33,132,47,,,,*46
###2023-12-09 12:26:53.933924$GLGSV,1,1,04,71,61,167,47,72,62,315,45,73,52,031,48,75,19,238,42*6C
###2023-12-09 12:26:53.935714$GAGSV,1,1,02,21,74,179,42,27,44,051,46,,,,,,,,*60
###2023-12-09 12:26:53.937784$GBGSV,1,1,03,14,59,200,46,25,30,250,40,26,38,056,48,,,,*56
###2023-12-09 12:26:53.938947$GNVTG,,T,,M,0.04,N,0.07,K,A*3E
###2023-12-09 12:26:53.940628$GNGST,172653.10,30.000,,,,0.230,0.220,0.550*50
###2023-12-09 12:26:53.941941$GNZDA,172653.10,09,12,2023,00,00*74
###2023-12-09 12:26:53.942610$GNEBP,,,,,,M*13
###2023-12-09 12:26:54.117360$GNGGA,172653.30,4138.0379482,N,07032.4356775,W,1,16,0.8,7.865,M,-29.746,M,0.0,*63
###2023-12-09 12:26:54.318708$GNGGA,172653.50,4138.0379476,N,07032.4356764,W,1,16,0.8,7.859,M,-29.746,M,0.0,*61
###2023-12-09 12:26:54.517474$GNGGA,172653.70,4138.0379472,N,07032.4356754,W,1,16,0.8,7.857,M,-29.746,M,0.0,*6A
###2023-12-09 12:26:54.717364$GNGGA,172653.90,4138.0379469,N,07032.4356756,W,1,16,0.8,7.852,M,-29.746,M,0.0,*69
###2023-12-09 12:26:54.920042$GNRMC,172654.10,A,4138.0379455,N,07032.4356750,W,0.02,,091223,,,A*40
###2023-12-09 12:26:54.922910$GNGGA,172654.10,4138.0379455,N,07032.4356750,W,1,16,0.8,7.840,M,-29.746,M,0.0,*6C
###2023-12-09 12:26:54.924729$GPGSA,A,3,03,16,26,28,29,31,32,,,,,,1.6,0.8,1.3*3D
###2023-12-09 12:26:54.926333$GLGSA,A,3,71,72,73,75,,,,,,,,,1.6,0.8,1.3*26
###2023-12-09 12:26:54.927823$GAGSA,A,3,21,27,,,,,,,,,,,1.6,0.8,1.3*28
###2023-12-09 12:26:54.929357$GBGSA,A,3,14,25,26,,,,,,,,,,1.6,0.8,1.3*2B
###2023-12-09 12:26:54.931715$GPGSV,2,1,07,03,39,281,43,16,33,206,42,26,62,205,41,28,60,051,43*70
###2023-12-09 12:26:54.933767$GPGSV,2,2,07,29,24,078,40,31,73,348,41,32,33,132,47,,,,*46
###2023-12-09 12:26:54.936134$GLGSV,1,1,04,71,61,167,47,72,62,315,45,73,52,031,48,75,19,238,42*6C
###2023-12-09 12:26:54.937896$GAGSV,1,1,02,21,74,179,42,27,44,051,46,,,,,,,,*60
###2023-12-09 12:26:54.939959$GBGSV,1,1,03,14,59,200,46,25,30,250,40,26,38,056,49,,,,*57
###2023-12-09 12:26:54.941103$GNVTG,,T,,M,0.02,N,0.04,K,A*3B
###2023-12-09 12:26:54.942782$GNGST,172654.10,30.000,,,,0.230,0.220,0.550*57
###2023-12-09 12:26:54.944089$GNZDA,172654.10,09,12,2023,00,00*73
###2023-12-09 12:26:54.944744$GNEBP,,,,,,M*13
###2023-12-09 12:26:55.118599$GNGGA,172654.30,4138.0379439,N,07032.4356714,W,1,16,0.8,7.841,M,-29.746,M,0.0,*65
###2023-12-09 12:26:55.318609$GNGGA,172654.50,4138.0379436,N,07032.4356708,W,1,16,0.8,7.839,M,-29.746,M,0.0,*6E
###2023-12-09 12:26:55.518409$GNGGA,172654.70,4138.0379419,N,07032.4356710,W,1,17,0.8,7.833,M,-29.746,M,0.0,*63
###2023-12-09 12:26:55.716380$GNGGA,172654.90,4138.0379410,N,07032.4356698,W,1,17,0.8,7.834,M,-29.746,M,0.0,*62
###2023-12-09 12:26:55.917991$GNRMC,172655.10,A,4138.0379412,N,07032.4356683,W,0.00,,091223,,,A*4F
###2023-12-09 12:26:55.921070$GNGGA,172655.10,4138.0379412,N,07032.4356683,W,1,16,0.8,7.830,M,-29.746,M,0.0,*66
###2023-12-09 12:26:55.923108$GPGSA,A,3,03,16,26,28,29,31,32,,,,,,1.6,0.8,1.3*3D
###2023-12-09 12:26:55.924892$GLGSA,A,3,71,72,73,75,,,,,,,,,1.6,0.8,1.3*26
###2023-12-09 12:26:55.926557$GAGSA,A,3,21,27,,,,,,,,,,,1.6,0.8,1.3*28
###2023-12-09 12:26:55.928310$GBGSA,A,3,14,25,26,,,,,,,,,,1.6,0.8,1.3*2B
