###2023-12-09 13:37:26.029014$GNZDA,183725.10,09,12,2023,00,00*7A
###2023-12-09 13:37:26.029677$GNEBP,,,,,,M*13
###2023-12-09 13:37:26.194455$GNGGA,183725.30,4138.0303477,N,07032.3959466,W,1,24,0.6,13.366,M,-29.745,M,0.0,*58
###2023-12-09 13:37:26.395646$GNGGA,183725.50,4138.0303415,N,07032.3959978,W,1,24,0.6,13.381,M,-29.745,M,0.0,*51
###2023-12-09 13:37:26.597141$GNGGA,183725.70,4138.0303312,N,07032.3960317,W,1,24,0.6,13.384,M,-29.745,M,0.0,*5F
###2023-12-09 13:37:26.795026$GNGGA,183725.90,4138.0303116,N,07032.3960320,W,1,24,0.6,13.363,M,-29.745,M,0.0,*5A
###2023-12-09 13:37:26.999899$GNRMC,183726.10,A,4138.0302935,N,07032.3960419,W,0.47,270.75,091223,,,A*53
###2023-12-09 13:37:27.002777$GNGGA,183726.10,4138.0302935,N,07032.3960419,W,1,24,0.6,13.358,M,-29.745,M,0.0,*5C
###2023-12-09 13:37:27.004574$GPGSA,A,3,04,16,26,27,28,29,31,,,,,,1.1,0.6,1.0*34
###2023-12-09 13:37:27.006352$GLGSA,A,3,65,71,72,73,74,75,83,,,,,,1.1,0.6,1.0*27
###2023-12-09 13:37:27.007938$GAGSA,A,3,04,19,21,27,,,,,,,,,1.1,0.6,1.0*2E
###2023-12-09 13:37:27.009639$GBGSA,A,3,12,14,24,25,33,35,,,,,,,1.1,0.6,1.0*26
###2023-12-09 13:37:27.011954$GPGSV,2,1,07,04,48,307,46,16,68,224,46,26,82,040,48,27,17,172,42*7B
###2023-12-09 13:37:27.013974$GPGSV,2,2,07,28,37,085,45,29,20,046,43,31,59,067,48,,,,*43
###2023-12-09 13:37:27.016301$GLGSV,2,1,07,65,39,317,44,71,21,175,39,72,61,219,45,73,21,053,47*6A
###2023-12-09 13:37:27.018332$GLGSV,2,2,07,74,59,016,43,75,44,273,46,83,15,046,36,,,,*53
###2023-12-09 13:37:27.020665$GAGSV,1,1,04,04,40,309,45,19,71,181,41,21,76,045,46,27,22,050,42*63
###2023-12-09 13:37:27.022996$GBGSV,2,1,06,12,16,125,41,14,28,189,40,24,62,047,47,25,52,277,45*63
###2023-12-09 13:37:27.024742$GBGSV,2,2,06,33,44,216,44,35,16,055,43,,,,,,,,*6E
###2023-12-09 13:37:27.026066$GNVTG,270.75,T,,M,0.47,N,0.86,K,A*29
###2023-12-09 13:37:27.027692$GNGST,183726.10,5.700,,,,0.089,0.078,0.170*65
###2023-12-09 13:37:27.028979$GNZDA,183726.10,09,12,2023,00,00*79
###2023-12-09 13:37:27.029614$GNEBP,,,,,,M*13
###2023-12-09 13:37:27.201046$GNGGA,183726.30,4138.0302873,N,07032.3960914,W,1,24,0.6,13.377,M,-29.745,M,0.0,*50
###2023-12-09 13:37:27.398815$GNGGA,183726.50,4138.0302824,N,07032.3961459,W,1,24,0.6,13.374,M,-29.745,M,0.0,*52
###2023-12-09 13:37:27.594384$GNGGA,183726.70,4138.0302666,N,07032.3961568,W,1,24,0.6,13.371,M,-29.745,M,0.0,*5E
###2023-12-09 13:37:27.796171$GNGGA,183726.90,4138.0302457,N,07032.3961518,W,1,24,0.6,13.367,M,-29.745,M,0.0,*50
###2023-12-09 13:37:27.999083$GNRMC,183727.10,A,4138.0302347,N,07032.3961812,W,0.68,270.75,091223,,,A*56
###2023-12-09 13:37:28.001930$GNGGA,183727.10,4138.0302347,N,07032.3961812,W,1,24,0.6,13.371,M,-29.745,M,0.0,*5F
###2023-12-09 13:37:28.003719$GPGSA,A,3,04,16,26,27,28,29,31,,,,,,1.1,0.6,1.0*34
###2023-12-09 13:37:28.005483$GLGSA,A,3,65,71,72,73,74,75,83,,,,,,1.1,0.6,1.0*27
###2023-12-09 13:37:28.007062$GAGSA,A,3,04,19,21,27,,,,,,,,,1.1,0.6,1.0*2E
###2023-12-09 13:37:28.008762$GBGSA,A,3,12,14,24,25,33,35,,,,,,,1.1,0.6,1.0*26
###2023-12-09 13:37:28.011085$GPGSV,2,1,07,04,48,307,45,16,68,224,45,26,82,040,49,27,18,172,42*75
###2023-12-09 13:37:28.013113$GPGSV,2,2,07,28,37,085,44,29,20,046,43,31,59,067,48,,,,*42
###2023-12-09 13:37:28.015437$GLGSV,2,1,07,65,39,317,44,71,21,175,40,72,61,219,45,73,21,053,46*65
###2023-12-09 13:37:28.017463$GLGSV,2,2,07,74,59,016,43,75,44,273,46,83,15,046,36,,,,*53
###2023-12-09 13:37:28.019793$GAGSV,1,1,04,04,40,309,44,19,71,181,41,21,76,045,47,27,22,050,42*63
###2023-12-09 13:37:28.022105$GBGSV,2,1,06,12,16,125,43,14,28,189,39,24,62,047,48,25,52,277,47*62
###2023-12-09 13:37:28.023848$GBGSV,2,2,06,33,44,216,44,35,16,055,44,,,,,,,,*69
###2023-12-09 13:37:28.025162$GNVTG,270.75,T,,M,0.68,N,1.26,K,A*2F
###2023-12-09 13:37:28.026774$GNGST,183727.10,5.900,,,,0.090,0.078,0.170*62
###2023-12-09 13:37:28.028056$GNZDA,183727.10,09,12,2023,00,00*78
###2023-12-09 13:37:28.028686$GNEBP,,,,,,M*13
###2023-12-09 13:37:28.200363$GNGGA,183727.30,4138.0302318,N,07032.3962331,W,1,24,0.6,13.378,M,-29.745,M,0.0,*57
###2023-12-09 13:37:28.396473$GNGGA,183727.50,4138.0302237,N,07032.3962645,W,1,24,0.6,13.373,M,-29.745,M,0.0,*50
###2023-12-09 13:37:28.596076$GNGGA,183727.70,4138.0302061,N,07032.3962684,W,1,24,0.6,13.380,M,-29.745,M,0.0,*52
###2023-12-09 13:37:28.795129$GNGGA,183727.90,4138.0301907,N,07032.3962787,W,1,24,0.6,13.377,M,-29.745,M,0.0,*5C
###2023-12-09 13:37:28.999815$GNRMC,183728.10,A,4138.0301839,N,07032.3963129,W,0.60,270.75,091223,,,A*53
###2023-12-09 13:37:29.002689$GNGGA,183728.10,4138.0301839,N,07032.3963129,W,1,24,0.6,13.375,M,-29.745,M,0.0,*56
###2023-12-09 13:37:29.004484$GPGSA,A,3,04,16,26,27,28,29,31,,,,,,1.1,0.6,1.0*34
###2023-12-09 13:37:29.006264$GLGSA,A,3,65,71,72,73,74,75,83,,,,,,1.1,0.6,1.0*27
###2023-12-09 13:37:29.007860$GAGSA,A,3,04,19,21,27,,,,,,,,,1.1,0.6,1.0*2E
###2023-12-09 13:37:29.009565$GBGSA,A,3,12,14,24,25,33,35,,,,,,,1.1,0.6,1.0*26
###2023-12-09 13:37:29.011887$GPGSV,2,1,07,04,48,307,46,16,68,224,46,26,82,040,49,27,18,172,40*77
###2023-12-09 13:37:29.013921$GPGSV,2,2,07,28,37,086,45,29,20,046,44,31,59,067,48,,,,*47
###2023-12-09 13:37:29.016257$GLGSV,2,1,07,65,39,317,45,71,21,175,39,72,61,219,46,73,21,053,46*69
###2023-12-09 13:37:29.018292$GLGSV,2,2,07,74,59,016,43,75,44,273,46,83,15,046,36,,,,*53
###2023-12-09 13:37:29.020627$GAGSV,1,1,04,04,40,309,45,19,71,181,41,21,76,045,47,27,22,050,42*62
###2023-12-09 13:37:29.022963$GBGSV,2,1,06,12,16,125,41,14,28,189,40,24,62,047,47,25,52,277,45*63
###2023-12-09 13:37:29.024702$GBGSV,2,2,06,33,44,216,43,35,16,055,44,,,,,,,,*6E
###2023-12-09 13:37:29.026021$GNVTG,270.75,T,,M,0.60,N,1.12,K,A*20
###2023-12-09 13:37:29.027665$GNGST,183728.10,6.100,,,,0.092,0.080,0.170*63
###2023-12-09 13:37:29.028954$GNZDA,183728.10,09,12,2023,00,00*77
###2023-12-09 13:37:29.029591$GNEBP,,,,,,M*13
###2023-12-09 13:37:29.201615$GNGGA,183728.30,4138.0301784,N,07032.3963545,W,1,24,0.6,13.376,M,-29.745,M,0.0,*50
###2023-12-09 13:37:29.396177$GNGGA,183728.50,4138.0301659,N,07032.3963716,W,1,24,0.6,13.371,M,-29.745,M,0.0,*54
###2023-12-09 13:37:29.596561$GNGGA,183728.70,4138.0301484,N,07032.3963722,W,1,24,0.6,13.377,M,-29.745,M,0.0,*55
###2023-12-09 13:37:29.794211$GNGGA,183728.90,4138.0301387,N,07032.3963996,W,1,24,0.6,13.386,M,-29.745,M,0.0,*50
###2023-12-09 13:37:29.999133$GNRMC,183729.10,A,4138.0301363,N,07032.3964484,W,0.56,270.75,091223,,,A*56
###2023-12-09 13:37:30.001974$GNGGA,183729.10,4138.0301363,N,07032.3964484,W,1,24,0.6,13.385,M,-29.745,M,0.0,*59
###2023-12-09 13:37:30.003776$GPGSA,A,3,04,16,26,27,28,29,31,,,,,,1.1,0.6,1.0*34
###2023-12-09 13:37:30.005546$GLGSA,A,3,65,71,72,73,74,75,83,,,,,,1.1,0.6,1.0*27
###2023-12-09 13:37:30.007136$GAGSA,A,3,04,19,21,27,,,,,,,,,1.1,0.6,1.0*2E
###2023-12-09 13:37:30.008836$GBGSA,A,3,12,14,24,25,33,35,,,,,,,1.1,0.6,1.0*26
###2023-12-09 13:37:30.011161$GPGSV,2,1,07,04,48,307,46,16,68,224,46,26,82,040,49,27,18,172,40*77
###2023-12-09 13:37:30.013185$GPGSV,2,2,07,28,37,086,45,29,20,046,43,31,59,067,48,,,,*40
###2023-12-09 13:37:30.015513$GLGSV,2,1,07,65,39,317,45,71,21,175,39,72,61,219,45,73,21,053,44*68
###2023-12-09 13:37:30.017534$GLGSV,2,2,07,74,59,016,43,75,44,273,47,83,15,046,35,,,,*51
###2023-12-09 13:37:30.019863$GAGSV,1,1,04,04,40,309,45,19,71,181,41,21,76,045,47,27,22,050,42*62
###2023-12-09 13:37:30.022190$GBGSV,2,1,06,12,16,125,41,14,28,189,39,24,62,047,48,25,52,277,47*60
###2023-12-09 13:37:30.023944$GBGSV,2,2,06,33,44,216,45,35,16,055,43,,,,,,,,*6F
###2023-12-09 13:37:30.025262$GNVTG,270.75,T,,M,0.56,N,1.04,K,A*22
###2023-12-09 13:37:30.026882$GNGST,183729.10,6.400,,,,0.094,0.081,0.170*60
###2023-12-09 13:37:30.028166$GNZDA,183729.10,09,12,2023,00,00*76
###2023-12-09 13:37:30.028798$GNEBP,,,,,,M*13
###2023-12-09 13:37:30.198754$GNGGA,183729.30,4138.0301240,N,07032.3964712,W,1,24,0.6,13.370,M,-29.745,M,0.0,*5D
###2023-12-09 13:37:30.396311$GNGGA,183729.50,4138.0301073,N,07032.3964711,W,1,24,0.6,13.365,M,-29.745,M,0.0,*5E
###2023-12-09 13:37:30.596436$GNGGA,183729.70,4138.0300972,N,07032.3964882,W,1,24,0.6,13.371,M,-29.745,M,0.0,*55
###2023-12-09 13:37:30.798222$GNGGA,183729.90,4138.0300922,N,07032.3965274,W,1,24,0.6,13.377,M,-29.745,M,0.0,*5A
###2023-12-09 13:37:31.003363$GNRMC,183730.10,A,4138.0300844,N,07032.3965632,W,0.33,270.75,091223,,,A*5C
###2023-12-09 13:37:31.006225$GNGGA,183730.10,4138.0300844,N,07032.3965632,W,1,24,0.6,13.379,M,-29.745,M,0.0,*53
###2023-12-09 13:37:31.008027$GPGSA,A,3,04,16,26,27,28,29,31,,,,,,1.1,0.6,1.0*34
###2023-12-09 13:37:31.009798$GLGSA,A,3,65,71,72,73,74,75,83,,,,,,1.1,0.6,1.0*27
###2023-12-09 13:37:31.011393$GAGSA,A,3,04,19,21,27,,,,,,,,,1.1,0.6,1.0*2E
###2023-12-09 13:37:31.013111$GBGSA,A,3,12,14,24,25,33,35,,,,,,,1.1,0.6,1.0*26
###2023-12-09 13:37:31.015453$GPGSV,2,1,07,04,48,307,47,16,68,224,45,26,82,040,48,27,18,172,40*74
###2023-12-09 13:37:31.017496$GPGSV,2,2,07,28,37,086,44,29,20,046,43,31,59,067,46,,,,*4F
###2023-12-09 13:37:31.019838$GLGSV,2,1,07,65,39,317,46,71,21,175,36,72,61,219,46,73,21,053,44*67
###2023-12-09 13:37:31.021871$GLGSV,2,2,07,74,59,016,43,75,44,273,48,83,15,046,36,,,,*5D
