###2023-12-09 12:37:06.965412$GNGST,173706.10,19.000,,,,0.084,0.071,0.170*56
###2023-12-09 12:37:06.966746$GNZDA,173706.10,09,12,2023,00,00*74
###2023-12-09 12:37:06.967390$GNEBP,,,,,,M*13
###2023-12-09 12:37:07.136714$GNGGA,173706.30,4138.0589407,N,07032.3569355,W,1,23,0.7,13.223,M,-29.744,M,0.0,*5A
###2023-12-09 12:37:07.336864$GNGGA,173706.50,4138.0590995,N,07032.3570005,W,1,23,0.7,13.211,M,-29.744,M,0.0,*5D
###2023-12-09 12:37:07.537108$GNGGA,173706.70,4138.0592584,N,07032.3570603,W,1,23,0.7,13.215,M,-29.744,M,0.0,*55
###2023-12-09 12:37:07.739060$GNGGA,173706.90,4138.0594191,N,07032.3571184,W,1,23,0.7,13.221,M,-29.744,M,0.0,*53
###2023-12-09 12:37:07.936634$GNRMC,173707.10,A,4138.0595769,N,07032.3571922,W,3.05,337.89,091223,,,A*5D
###2023-12-09 12:37:07.939489$GNGGA,173707.10,4138.0595769,N,07032.3571922,W,1,23,0.7,13.225,M,-29.744,M,0.0,*5A
###2023-12-09 12:37:07.941342$GPGSA,A,3,03,04,16,26,28,29,31,32,,,,,1.2,0.7,1.0*31
###2023-12-09 12:37:07.942995$GLGSA,A,3,71,72,73,74,75,,,,,,,,1.2,0.7,1.0*2D
###2023-12-09 12:37:07.944570$GAGSA,A,3,04,19,21,27,,,,,,,,,1.2,0.7,1.0*2C
###2023-12-09 12:37:07.946204$GBGSA,A,3,14,24,25,26,33,,,,,,,,1.2,0.7,1.0*25
###2023-12-09 12:37:07.948559$GPGSV,2,1,08,03,38,276,44,04,22,311,39,16,37,207,43,26,67,207,47*76
###2023-12-09 12:37:07.950908$GPGSV,2,2,08,28,57,057,45,29,25,073,43,31,73,004,46,32,29,134,43*7E
###2023-12-09 12:37:07.953233$GLGSV,2,1,05,71,56,169,48,72,66,308,46,73,47,034,46,74,71,293,42*61
###2023-12-09 12:37:07.954696$GLGSV,2,2,05,75,22,241,45,,,,,,,,,,,,*54
###2023-12-09 12:37:07.957014$GAGSV,1,1,04,04,21,311,38,19,82,299,40,21,78,175,46,27,41,049,43*60
###2023-12-09 12:37:07.959363$GBGSV,2,1,05,14,54,197,45,24,80,351,48,25,33,253,45,26,34,058,44*6E
###2023-12-09 12:37:07.960812$GBGSV,2,2,05,33,63,253,48,,,,,,,,,,,,*53
###2023-12-09 12:37:07.962128$GNVTG,337.89,T,,M,3.05,N,5.65,K,A*25
###2023-12-09 12:37:07.963778$GNGST,173707.10,19.000,,,,0.084,0.071,0.170*57
###2023-12-09 12:37:07.965064$GNZDA,173707.10,09,12,2023,00,00*75
###2023-12-09 12:37:07.965696$GNEBP,,,,,,M*13
###2023-12-09 12:37:08.136670$GNGGA,173707.30,4138.0597281,N,07032.3572883,W,1,23,0.7,13.219,M,-29.744,M,0.0,*5F
###2023-12-09 12:37:08.336782$GNGGA,173707.50,4138.0598785,N,07032.3573957,W,1,23,0.7,13.219,M,-29.744,M,0.0,*5E
###2023-12-09 12:37:08.540317$GNGGA,173707.70,4138.0600344,N,07032.3575006,W,1,23,0.7,13.222,M,-29.744,M,0.0,*54
###2023-12-09 12:37:08.736031$GNGGA,173707.90,4138.0601907,N,07032.3576129,W,1,23,0.7,13.220,M,-29.744,M,0.0,*5B
###2023-12-09 12:37:08.944369$GNRMC,173708.10,A,4138.0603377,N,07032.3577444,W,3.17,325.37,091223,,,A*5B
###2023-12-09 12:37:08.947250$GNGGA,173708.10,4138.0603377,N,07032.3577444,W,1,23,0.7,13.223,M,-29.744,M,0.0,*5F
###2023-12-09 12:37:08.949118$GPGSA,A,3,03,04,16,26,28,29,31,32,,,,,1.2,0.7,1.0*31
###2023-12-09 12:37:08.950775$GLGSA,A,3,71,72,73,74,75,,,,,,,,1.2,0.7,1.0*2D
###2023-12-09 12:37:08.952358$GAGSA,A,3,04,19,21,27,,,,,,,,,1.2,0.7,1.0*2C
###2023-12-09 12:37:08.954002$GBGSA,A,3,14,24,25,26,33,,,,,,,,1.2,0.7,1.0*25
###2023-12-09 12:37:08.956359$GPGSV,2,1,08,03,38,276,44,04,22,311,39,16,37,207,44,26,67,207,47*71
###2023-12-09 12:37:08.958707$GPGSV,2,2,08,28,57,057,45,29,25,073,43,31,73,004,47,32,29,134,44*78
###2023-12-09 12:37:08.961034$GLGSV,2,1,05,71,56,169,48,72,66,308,45,73,47,034,46,74,71,293,42*62
###2023-12-09 12:37:08.962483$GLGSV,2,2,05,75,22,241,46,,,,,,,,,,,,*57
###2023-12-09 12:37:08.964822$GAGSV,1,1,04,04,21,311,38,19,82,299,40,21,78,175,46,27,41,049,43*60
###2023-12-09 12:37:08.967170$GBGSV,2,1,05,14,54,197,46,24,80,351,48,25,33,253,44,26,34,058,45*6D
###2023-12-09 12:37:08.968623$GBGSV,2,2,05,33,63,253,47,,,,,,,,,,,,*5C
###2023-12-09 12:37:08.969941$GNVTG,325.37,T,,M,3.17,N,5.87,K,A*2C
###2023-12-09 12:37:08.971592$GNGST,173708.10,19.000,,,,0.085,0.072,0.170*5A
###2023-12-09 12:37:08.972881$GNZDA,173708.10,09,12,2023,00,00*7A
###2023-12-09 12:37:08.973516$GNEBP,,,,,,M*13
###2023-12-09 12:37:09.137068$GNGGA,173708.30,4138.0604841,N,07032.3578895,W,1,23,0.7,13.216,M,-29.744,M,0.0,*5D
###2023-12-09 12:37:09.337548$GNGGA,173708.50,4138.0606303,N,07032.3580376,W,1,23,0.7,13.212,M,-29.744,M,0.0,*51
###2023-12-09 12:37:09.537972$GNGGA,173708.70,4138.0607781,N,07032.3581871,W,1,23,0.7,13.210,M,-29.744,M,0.0,*53
###2023-12-09 12:37:09.736745$GNGGA,173708.90,4138.0609282,N,07032.3583388,W,1,23,0.7,13.211,M,-29.744,M,0.0,*5B
###2023-12-09 12:37:09.935351$GNRMC,173709.10,A,4138.0610750,N,07032.3584997,W,3.36,320.03,091223,,,A*57
###2023-12-09 12:37:09.938183$GNGGA,173709.10,4138.0610750,N,07032.3584997,W,1,23,0.7,13.208,M,-29.744,M,0.0,*5B
###2023-12-09 12:37:09.940045$GPGSA,A,3,03,04,16,26,28,29,31,32,,,,,1.2,0.7,1.0*31
###2023-12-09 12:37:09.941694$GLGSA,A,3,71,72,73,74,75,,,,,,,,1.2,0.7,1.0*2D
###2023-12-09 12:37:09.943288$GAGSA,A,3,04,19,21,27,,,,,,,,,1.2,0.7,1.0*2C
###2023-12-09 12:37:09.944934$GBGSA,A,3,14,24,25,26,33,,,,,,,,1.2,0.7,1.0*25
###2023-12-09 12:37:09.947290$GPGSV,2,1,08,03,38,276,44,04,22,311,38,16,37,207,46,26,67,207,47*72
###2023-12-09 12:37:09.949651$GPGSV,2,2,08,28,57,057,45,29,25,073,41,31,73,004,47,32,29,134,44*7A
###2023-12-09 12:37:09.952008$GLGSV,2,1,05,71,56,169,48,72,66,308,45,73,47,034,46,74,71,293,42*62
###2023-12-09 12:37:09.953463$GLGSV,2,2,05,75,22,241,46,,,,,,,,,,,,*57
###2023-12-09 12:37:09.955795$GAGSV,1,1,04,04,21,311,38,19,82,299,40,21,78,175,46,27,41,049,44*67
###2023-12-09 12:37:09.958108$GBGSV,2,1,05,14,54,197,45,24,80,351,48,25,33,253,44,26,34,058,44*6F
###2023-12-09 12:37:09.959572$GBGSV,2,2,05,33,63,252,47,,,,,,,,,,,,*5D
###2023-12-09 12:37:09.960894$GNVTG,320.03,T,,M,3.36,N,6.23,K,A*20
###2023-12-09 12:37:09.962535$GNGST,173709.10,18.000,,,,0.086,0.072,0.170*59
###2023-12-09 12:37:09.963833$GNZDA,173709.10,09,12,2023,00,00*7B
###2023-12-09 12:37:09.964468$GNEBP,,,,,,M*13
###2023-12-09 12:37:10.136217$GNGGA,173709.30,4138.0612156,N,07032.3586650,W,1,23,0.7,13.208,M,-29.744,M,0.0,*5D
###2023-12-09 12:37:10.336830$GNGGA,173709.50,4138.0613525,N,07032.3588375,W,1,23,0.7,13.210,M,-29.744,M,0.0,*5F
###2023-12-09 12:37:10.537041$GNGGA,173709.70,4138.0614823,N,07032.3590157,W,1,23,0.7,13.208,M,-29.744,M,0.0,*53
###2023-12-09 12:37:10.736354$GNGGA,173709.90,4138.0616098,N,07032.3592015,W,1,23,0.7,13.216,M,-29.744,M,0.0,*5D
###2023-12-09 12:37:10.937385$GNRMC,173710.10,A,4138.0617276,N,07032.3593933,W,3.29,308.04,091223,,,A*52
###2023-12-09 12:37:10.940275$GNGGA,173710.10,4138.0617276,N,07032.3593933,W,1,23,0.7,13.218,M,-29.744,M,0.0,*5C
###2023-12-09 12:37:10.942134$GPGSA,A,3,03,04,16,26,28,29,31,32,,,,,1.2,0.7,1.0*31
###2023-12-09 12:37:10.943794$GLGSA,A,3,71,72,73,74,75,,,,,,,,1.2,0.7,1.0*2D
###2023-12-09 12:37:10.945381$GAGSA,A,3,04,19,21,27,,,,,,,,,1.2,0.7,1.0*2C
###2023-12-09 12:37:10.947076$GBGSA,A,3,14,24,25,26,33,,,,,,,,1.2,0.7,1.0*25
###2023-12-09 12:37:10.949442$GPGSV,2,1,08,03,38,276,42,04,22,311,39,16,37,207,45,26,67,207,47*76
###2023-12-09 12:37:10.951799$GPGSV,2,2,08,28,57,057,46,29,25,073,41,31,73,004,47,32,29,134,44*79
###2023-12-09 12:37:10.954127$GLGSV,2,1,05,71,56,169,48,72,66,308,45,73,47,034,47,74,71,293,42*63
###2023-12-09 12:37:10.955593$GLGSV,2,2,05,75,22,241,45,,,,,,,,,,,,*54
###2023-12-09 12:37:10.957913$GAGSV,1,1,04,04,21,311,38,19,82,299,40,21,78,175,46,27,41,049,45*66
###2023-12-09 12:37:10.960258$GBGSV,2,1,05,14,54,197,44,24,80,351,48,25,33,253,45,26,34,058,44*6F
###2023-12-09 12:37:10.961707$GBGSV,2,2,05,33,63,252,47,,,,,,,,,,,,*5D
###2023-12-09 12:37:10.963048$GNVTG,308.04,T,,M,3.29,N,6.08,K,A*2A
###2023-12-09 12:37:10.964695$GNGST,173710.10,18.000,,,,0.086,0.072,0.170*51
###2023-12-09 12:37:10.965986$GNZDA,173710.10,09,12,2023,00,00*73
###2023-12-09 12:37:10.966639$GNEBP,,,,,,M*13
###2023-12-09 12:37:11.136050$GNGGA,173710.30,4138.0618339,N,07032.3595926,W,1,23,0.7,13.224,M,-29.744,M,0.0,*56
###2023-12-09 12:37:11.336656$GNGGA,173710.50,4138.0619297,N,07032.3597995,W,1,23,0.7,13.227,M,-29.744,M,0.0,*5D
###2023-12-09 12:37:11.536996$GNGGA,173710.70,4138.0620178,N,07032.3600077,W,1,23,0.7,13.229,M,-29.744,M,0.0,*51
###2023-12-09 12:37:11.736136$GNGGA,173710.90,4138.0621021,N,07032.3602212,W,1,23,0.7,13.231,M,-29.744,M,0.0,*59
###2023-12-09 12:37:11.937120$GNRMC,173711.10,A,4138.0621746,N,07032.3604382,W,3.17,291.55,091223,,,A*55
###2023-12-09 12:37:11.940000$GNGGA,173711.10,4138.0621746,N,07032.3604382,W,1,23,0.7,13.233,M,-29.744,M,0.0,*5A
###2023-12-09 12:37:11.941868$GPGSA,A,3,03,04,16,26,28,29,31,32,,,,,1.2,0.7,1.0*31
###2023-12-09 12:37:11.943529$GLGSA,A,3,71,72,73,74,75,,,,,,,,1.2,0.7,1.0*2D
###2023-12-09 12:37:11.945112$GAGSA,A,3,04,19,21,27,,,,,,,,,1.2,0.7,1.0*2C
###2023-12-09 12:37:11.946776$GBGSA,A,3,14,24,25,26,33,,,,,,,,1.2,0.7,1.0*25
###2023-12-09 12:37:11.949117$GPGSV,2,1,08,03,38,276,41,04,22,311,38,16,37,207,44,26,67,207,46*74
###2023-12-09 12:37:11.951466$GPGSV,2,2,08,28,57,057,45,29,25,073,41,31,73,004,46,32,29,134,43*7C
###2023-12-09 12:37:11.953794$GLGSV,2,1,05,71,56,169,47,72,66,308,45,73,47,034,48,74,71,293,42*63
