###2023-12-09 12:53:23.354050$GNGGA,175322.50,4138.0581910,N,07032.3868655,W,1,24,0.6,13.303,M,-29.744,M,0.0,*57
###2023-12-09 12:53:23.554469$GNGGA,175322.70,4138.0582005,N,07032.3868835,W,1,24,0.6,13.292,M,-29.744,M,0.0,*5A
###2023-12-09 12:53:23.753549$GNGGA,175322.90,4138.0582180,N,07032.3869228,W,1,24,0.6,13.300,M,-29.744,M,0.0,*55
###2023-12-09 12:53:23.956157$GNRMC,175323.10,A,4138.0582363,N,07032.3869663,W,0.52,303.35,091223,,,A*5E
###2023-12-09 12:53:23.959030$GNGGA,175323.10,4138.0582363,N,07032.3869663,W,1,24,0.6,13.313,M,-29.744,M,0.0,*5A
###2023-12-09 12:53:23.960882$GPGSA,A,3,03,04,16,26,28,29,31,32,,,,,1.1,0.6,0.9*3B
###2023-12-09 12:53:23.962601$GLGSA,A,3,65,71,72,73,74,75,,,,,,,1.1,0.6,0.9*24
###2023-12-09 12:53:23.964179$GAGSA,A,3,04,19,21,27,,,,,,,,,1.1,0.6,0.9*26
###2023-12-09 12:53:23.965820$GBGSA,A,3,14,24,25,26,33,,,,,,,,1.1,0.6,0.9*2F
###2023-12-09 12:53:23.968150$GPGSV,2,1,08,03,36,266,43,04,29,311,43,16,45,210,43,26,75,209,48*79
###2023-12-09 12:53:23.970469$GPGSV,2,2,08,28,52,066,45,29,26,065,43,31,71,026,48,32,23,138,44*70
###2023-12-09 12:53:23.972810$GLGSV,2,1,06,65,20,328,42,71,45,172,47,72,72,285,46,73,39,039,47*64
###2023-12-09 12:53:23.974555$GLGSV,2,2,06,74,71,324,43,75,29,249,41,,,,,,,,*67
###2023-12-09 12:53:23.976893$GAGSV,1,1,04,04,26,312,43,19,85,252,40,21,84,154,46,27,36,048,45*6F
###2023-12-09 12:53:23.979233$GBGSV,2,1,05,14,47,194,46,24,76,016,49,25,38,259,46,26,29,061,44*60
###2023-12-09 12:53:23.980693$GBGSV,2,2,05,33,60,238,47,,,,,,,,,,,,*52
###2023-12-09 12:53:23.982015$GNVTG,303.35,T,,M,0.52,N,0.97,K,A*2C
###2023-12-09 12:53:23.983691$GNGST,175323.10,18.000,,,,0.075,0.066,0.160*5B
###2023-12-09 12:53:23.984981$GNZDA,175323.10,09,12,2023,00,00*71
###2023-12-09 12:53:23.985618$GNEBP,,,,,,M*13
###2023-12-09 12:53:24.154372$GNGGA,175323.30,4138.0582463,N,07032.3869904,W,1,24,0.6,13.317,M,-29.744,M,0.0,*55
###2023-12-09 12:53:24.355062$GNGGA,175323.50,4138.0582466,N,07032.3869897,W,1,24,0.6,13.304,M,-29.744,M,0.0,*5F
###2023-12-09 12:53:24.554532$GNGGA,175323.70,4138.0582504,N,07032.3870000,W,1,24,0.6,13.297,M,-29.744,M,0.0,*5D
###2023-12-09 12:53:24.754444$GNGGA,175323.90,4138.0582744,N,07032.3870547,W,1,24,0.6,13.323,M,-29.744,M,0.0,*5D
###2023-12-09 12:53:24.955855$GNRMC,175324.10,A,4138.0582984,N,07032.3871077,W,0.49,299.90,091223,,,A*57
###2023-12-09 12:53:24.958740$GNGGA,175324.10,4138.0582984,N,07032.3871077,W,1,24,0.6,13.336,M,-29.744,M,0.0,*53
###2023-12-09 12:53:24.960589$GPGSA,A,3,03,04,16,26,28,29,31,32,,,,,1.1,0.6,0.9*3B
###2023-12-09 12:53:24.962300$GLGSA,A,3,65,71,72,73,74,75,,,,,,,1.1,0.6,0.9*24
###2023-12-09 12:53:24.963896$GAGSA,A,3,04,19,21,27,,,,,,,,,1.1,0.6,0.9*26
###2023-12-09 12:53:24.965535$GBGSA,A,3,14,24,25,26,33,,,,,,,,1.1,0.6,0.9*2F
###2023-12-09 12:53:24.967879$GPGSV,2,1,08,03,36,266,46,04,29,311,46,16,46,211,46,26,75,209,49*7F
###2023-12-09 12:53:24.970216$GPGSV,2,2,08,28,52,066,46,29,26,065,44,31,71,026,50,32,23,138,44*7D
###2023-12-09 12:53:24.972561$GLGSV,2,1,06,65,20,328,44,71,45,172,45,72,72,285,46,73,39,039,48*6F
###2023-12-09 12:53:24.974307$GLGSV,2,2,06,74,71,324,43,75,29,249,43,,,,,,,,*65
###2023-12-09 12:53:24.976641$GAGSV,1,1,04,04,26,312,45,19,85,252,41,21,84,154,47,27,36,048,46*6A
###2023-12-09 12:53:24.978977$GBGSV,2,1,05,14,47,194,44,24,76,016,48,25,38,259,46,26,29,061,44*63
###2023-12-09 12:53:24.980428$GBGSV,2,2,05,33,60,238,47,,,,,,,,,,,,*52
###2023-12-09 12:53:24.981746$GNVTG,299.90,T,,M,0.49,N,0.90,K,A*2C
###2023-12-09 12:53:24.983395$GNGST,175324.10,18.000,,,,0.075,0.066,0.150*5F
###2023-12-09 12:53:24.984684$GNZDA,175324.10,09,12,2023,00,00*76
###2023-12-09 12:53:24.985319$GNEBP,,,,,,M*13
###2023-12-09 12:53:25.153540$GNGGA,175324.30,4138.0583004,N,07032.3871148,W,1,24,0.6,13.331,M,-29.744,M,0.0,*5B
###2023-12-09 12:53:25.355012$GNGGA,175324.50,4138.0582959,N,07032.3871051,W,1,24,0.6,13.323,M,-29.744,M,0.0,*57
###2023-12-09 12:53:25.554097$GNGGA,175324.70,4138.0583091,N,07032.3871361,W,1,24,0.6,13.337,M,-29.744,M,0.0,*5C
###2023-12-09 12:53:25.754396$GNGGA,175324.90,4138.0583368,N,07032.3871951,W,1,24,0.6,13.359,M,-29.744,M,0.0,*56
###2023-12-09 12:53:25.955840$GNRMC,175325.10,A,4138.0583532,N,07032.3872290,W,0.14,299.90,091223,,,A*56
###2023-12-09 12:53:25.958734$GNGGA,175325.10,4138.0583532,N,07032.3872290,W,1,24,0.6,13.359,M,-29.744,M,0.0,*53
###2023-12-09 12:53:25.960604$GPGSA,A,3,03,04,16,26,28,29,31,32,,,,,1.1,0.6,0.9*3B
###2023-12-09 12:53:25.962316$GLGSA,A,3,65,71,72,73,74,75,,,,,,,1.1,0.6,0.9*24
###2023-12-09 12:53:25.963916$GAGSA,A,3,04,19,21,27,,,,,,,,,1.1,0.6,0.9*26
###2023-12-09 12:53:25.965565$GBGSA,A,3,14,24,25,26,33,,,,,,,,1.1,0.6,0.9*2F
###2023-12-09 12:53:25.967905$GPGSV,2,1,08,03,36,266,45,04,29,311,46,16,46,211,45,26,75,209,49*7F
###2023-12-09 12:53:25.970241$GPGSV,2,2,08,28,52,066,44,29,26,065,42,31,71,026,49,32,23,138,43*76
###2023-12-09 12:53:25.972602$GLGSV,2,1,06,65,20,328,44,71,45,172,47,72,72,285,46,73,39,039,47*62
###2023-12-09 12:53:25.974361$GLGSV,2,2,06,74,71,324,43,75,29,249,42,,,,,,,,*64
###2023-12-09 12:53:25.976722$GAGSV,1,1,04,04,26,312,45,19,85,252,41,21,84,154,46,27,36,048,46*6B
###2023-12-09 12:53:25.979071$GBGSV,2,1,05,14,47,194,45,24,76,016,49,25,38,259,46,26,29,061,43*64
###2023-12-09 12:53:25.980532$GBGSV,2,2,05,33,60,238,47,,,,,,,,,,,,*52
###2023-12-09 12:53:25.981856$GNVTG,299.90,T,,M,0.14,N,0.25,K,A*2A
###2023-12-09 12:53:25.983518$GNGST,175325.10,18.000,,,,0.075,0.065,0.150*5D
###2023-12-09 12:53:25.984812$GNZDA,175325.10,09,12,2023,00,00*77
###2023-12-09 12:53:25.985453$GNEBP,,,,,,M*13
###2023-12-09 12:53:26.154649$GNGGA,175325.30,4138.0583502,N,07032.3872236,W,1,24,0.6,13.359,M,-29.744,M,0.0,*5E
###2023-12-09 12:53:26.354401$GNGGA,175325.50,4138.0583493,N,07032.3872258,W,1,24,0.6,13.365,M,-29.744,M,0.0,*56
###2023-12-09 12:53:26.554940$GNGGA,175325.70,4138.0583698,N,07032.3872729,W,1,24,0.6,13.383,M,-29.744,M,0.0,*56
###2023-12-09 12:53:26.755551$GNGGA,175325.90,4138.0583964,N,07032.3873281,W,1,24,0.6,13.387,M,-29.744,M,0.0,*56
###2023-12-09 12:53:26.956270$GNRMC,175326.10,A,4138.0584037,N,07032.3873453,W,0.08,301.08,091223,,,A*56
###2023-12-09 12:53:26.959151$GNGGA,175326.10,4138.0584037,N,07032.3873453,W,1,24,0.6,13.379,M,-29.744,M,0.0,*5D
###2023-12-09 12:53:26.961012$GPGSA,A,3,03,04,16,26,28,29,31,32,,,,,1.1,0.6,0.9*3B
###2023-12-09 12:53:26.962742$GLGSA,A,3,65,71,72,73,74,75,,,,,,,1.1,0.6,0.9*24
###2023-12-09 12:53:26.964332$GAGSA,A,3,04,19,21,27,,,,,,,,,1.1,0.6,0.9*26
###2023-12-09 12:53:26.965976$GBGSA,A,3,14,24,25,26,33,,,,,,,,1.1,0.6,0.9*2F
###2023-12-09 12:53:26.968321$GPGSV,2,1,08,03,36,266,44,04,29,311,45,16,46,211,44,26,75,209,47*72
###2023-12-09 12:53:26.970677$GPGSV,2,2,08,28,52,066,44,29,26,065,43,31,71,026,48,32,23,138,43*76
###2023-12-09 12:53:26.973010$GLGSV,2,1,06,65,20,328,44,71,45,172,45,72,72,285,46,73,39,039,48*6F
###2023-12-09 12:53:26.974769$GLGSV,2,2,06,74,71,324,43,75,29,249,42,,,,,,,,*64
###2023-12-09 12:53:26.977098$GAGSV,1,1,04,04,26,312,44,19,85,252,40,21,84,154,46,27,36,048,45*68
###2023-12-09 12:53:26.979441$GBGSV,2,1,05,14,47,194,45,24,76,016,48,25,38,259,46,26,29,061,43*65
###2023-12-09 12:53:26.980891$GBGSV,2,2,05,33,60,238,47,,,,,,,,,,,,*52
###2023-12-09 12:53:26.982212$GNVTG,301.08,T,,M,0.08,N,0.14,K,A*24
###2023-12-09 12:53:26.983871$GNGST,175326.10,18.000,,,,0.074,0.065,0.150*5F
###2023-12-09 12:53:26.985152$GNZDA,175326.10,09,12,2023,00,00*74
###2023-12-09 12:53:26.985787$GNEBP,,,,,,M*13
###2023-12-09 12:53:27.154351$GNGGA,175326.30,4138.0583987,N,07032.3873333,W,1,24,0.6,13.378,M,-29.744,M,0.0,*5A
###2023-12-09 12:53:27.354294$GNGGA,175326.50,4138.0584056,N,07032.3873471,W,1,24,0.6,13.385,M,-29.744,M,0.0,*5D
###2023-12-09 12:53:27.554281$GNGGA,175326.70,4138.0584288,N,07032.3874000,W,1,24,0.6,13.409,M,-29.744,M,0.0,*58
###2023-12-09 12:53:27.754890$GNGGA,175326.90,4138.0584514,N,07032.3874470,W,1,24,0.6,13.413,M,-29.744,M,0.0,*5C
###2023-12-09 12:53:27.959877$GNRMC,175327.10,A,4138.0584583,N,07032.3874579,W,0.08,301.08,091223,,,A*53
###2023-12-09 12:53:27.962747$GNGGA,175327.10,4138.0584583,N,07032.3874579,W,1,24,0.6,13.416,M,-29.744,M,0.0,*56
###2023-12-09 12:53:27.964601$GPGSA,A,3,03,04,16,26,28,29,31,32,,,,,1.1,0.6,0.9*3B
###2023-12-09 12:53:27.966552$GLGSA,A,3,65,71,72,73,74,75,,,,,,,1.1,0.6,0.9*24
###2023-12-09 12:53:27.968167$GAGSA,A,3,04,19,21,27,,,,,,,,,1.1,0.6,0.9*26
###2023-12-09 12:53:27.969820$GBGSA,A,3,14,24,25,26,33,,,,,,,,1.1,0.6,0.9*2F
###2023-12-09 12:53:27.972170$GPGSV,2,1,08,03,36,266,44,04,29,311,44,16,46,211,44,26,75,209,47*73
###2023-12-09 12:53:27.974504$GPGSV,2,2,08,28,52,066,44,29,26,065,43,31,71,026,48,32,23,138,42*77
###2023-12-09 12:53:27.976852$GLGSV,2,1,06,65,20,328,44,71,45,172,47,72,72,285,47,73,39,039,47*63
###2023-12-09 12:53:27.978612$GLGSV,2,2,06,74,71,324,43,75,29,249,42,,,,,,,,*64
###2023-12-09 12:53:27.980944$GAGSV,1,1,04,04,26,312,43,19,85,252,40,21,84,154,46,27,36,048,44*6E
###2023-12-09 12:53:27.983289$GBGSV,2,1,05,14,47,194,44,24,76,016,48,25,38,259,46,26,29,061,44*63
###2023-12-09 12:53:27.984746$GBGSV,2,2,05,33,60,238,47,,,,,,,,,,,,*52
