###2023-12-09 12:28:40.943143$GNVTG,,T,,M,0.02,N,0.04,K,A*3B
###2023-12-09 12:28:40.944824$GNGST,172840.10,31.000,,,,0.120,0.130,0.300*5E
###2023-12-09 12:28:40.946127$GNZDA,172840.10,09,12,2023,00,00*78
###2023-12-09 12:28:40.946821$GNEBP,,,,,,M*13
###2023-12-09 12:28:41.117295$GNGGA,172840.30,4138.0390633,N,07032.4362614,W,1,17,0.8,12.895,M,-29.746,M,0.0,*5B
###2023-12-09 12:28:41.317352$GNGGA,172840.50,4138.0390601,N,07032.4362595,W,1,17,0.8,12.920,M,-29.746,M,0.0,*59
###2023-12-09 12:28:41.517180$GNGGA,172840.70,4138.0390579,N,07032.4362570,W,1,17,0.8,12.944,M,-29.746,M,0.0,*5E
###2023-12-09 12:28:41.716428$GNGGA,172840.90,4138.0390551,N,07032.4362545,W,1,17,0.8,12.966,M,-29.746,M,0.0,*5C
###2023-12-09 12:28:41.917675$GNRMC,172841.10,A,4138.0390508,N,07032.4362513,W,0.02,,091223,,,A*46
###2023-12-09 12:28:41.920761$GNGGA,172841.10,4138.0390508,N,07032.4362513,W,1,17,0.8,12.992,M,-29.746,M,0.0,*51
###2023-12-09 12:28:41.922595$GPGSA,A,3,03,16,26,28,29,31,32,,,,,,1.5,0.8,1.3*3E
###2023-12-09 12:28:41.924199$GLGSA,A,3,71,72,73,75,,,,,,,,,1.5,0.8,1.3*25
###2023-12-09 12:28:41.925665$GAGSA,A,3,21,27,,,,,,,,,,,1.5,0.8,1.3*2B
###2023-12-09 12:28:41.927277$GBGSA,A,3,14,25,26,33,,,,,,,,,1.5,0.8,1.3*28
###2023-12-09 12:28:41.929621$GPGSV,2,1,07,03,39,281,36,16,34,206,44,26,63,206,39,28,60,052,44*7A
###2023-12-09 12:28:41.931696$GPGSV,2,2,07,29,25,077,43,31,73,351,44,32,33,132,46,,,,*47
###2023-12-09 12:28:41.934032$GLGSV,1,1,04,71,60,168,49,72,63,315,43,73,51,031,47,75,19,238,41*64
###2023-12-09 12:28:41.935807$GAGSV,1,1,02,21,75,179,40,27,44,050,46,,,,,,,,*62
###2023-12-09 12:28:41.938146$GBGSV,1,1,04,14,58,200,46,25,30,250,35,26,37,056,48,33,64,261,40*6E
###2023-12-09 12:28:41.939300$GNVTG,,T,,M,0.02,N,0.04,K,A*3B
###2023-12-09 12:28:41.940956$GNGST,172841.10,31.000,,,,0.120,0.130,0.300*5F
###2023-12-09 12:28:41.942259$GNZDA,172841.10,09,12,2023,00,00*79
###2023-12-09 12:28:41.942918$GNEBP,,,,,,M*13
###2023-12-09 12:28:42.119336$GNGGA,172841.30,4138.0390483,N,07032.4362489,W,1,17,0.8,13.019,M,-29.746,M,0.0,*58
###2023-12-09 12:28:42.318061$GNGGA,172841.50,4138.0390458,N,07032.4362482,W,1,17,0.8,13.040,M,-29.746,M,0.0,*5F
###2023-12-09 12:28:42.520075$GNGGA,172841.70,4138.0390427,N,07032.4362476,W,1,17,0.8,13.062,M,-29.746,M,0.0,*5E
###2023-12-09 12:28:42.718909$GNGGA,172841.90,4138.0390403,N,07032.4362466,W,1,17,0.8,13.084,M,-29.746,M,0.0,*5F
###2023-12-09 12:28:42.919226$GNRMC,172842.10,A,4138.0390374,N,07032.4362459,W,0.04,,091223,,,A*41
###2023-12-09 12:28:42.922316$GNGGA,172842.10,4138.0390374,N,07032.4362459,W,1,17,0.8,13.111,M,-29.746,M,0.0,*52
###2023-12-09 12:28:42.924158$GPGSA,A,3,03,16,26,28,29,31,32,,,,,,1.5,0.8,1.3*3E
###2023-12-09 12:28:42.925764$GLGSA,A,3,71,72,73,75,,,,,,,,,1.5,0.8,1.3*25
###2023-12-09 12:28:42.927256$GAGSA,A,3,21,27,,,,,,,,,,,1.5,0.8,1.3*2B
###2023-12-09 12:28:42.928858$GBGSA,A,3,14,25,26,33,,,,,,,,,1.5,0.8,1.3*28
###2023-12-09 12:28:42.931216$GPGSV,2,1,07,03,39,281,36,16,34,206,45,26,63,206,39,28,60,052,44*7B
###2023-12-09 12:28:42.933277$GPGSV,2,2,07,29,25,077,43,31,73,351,44,32,33,132,46,,,,*47
###2023-12-09 12:28:42.935630$GLGSV,1,1,04,71,60,168,49,72,63,315,43,73,51,031,47,75,19,238,41*64
###2023-12-09 12:28:42.937396$GAGSV,1,1,02,21,75,179,40,27,43,050,46,,,,,,,,*65
###2023-12-09 12:28:42.939745$GBGSV,1,1,04,14,58,200,46,25,30,250,35,26,37,056,48,33,64,261,40*6E
###2023-12-09 12:28:42.940889$GNVTG,,T,,M,0.04,N,0.07,K,A*3E
###2023-12-09 12:28:42.942541$GNGST,172842.10,31.000,,,,0.120,0.130,0.300*5C
###2023-12-09 12:28:42.943858$GNZDA,172842.10,09,12,2023,00,00*7A
###2023-12-09 12:28:42.944506$GNEBP,,,,,,M*13
###2023-12-09 12:28:43.117992$GNGGA,172842.30,4138.0390341,N,07032.4362454,W,1,17,0.8,13.140,M,-29.746,M,0.0,*5F
###2023-12-09 12:28:43.317964$GNGGA,172842.50,4138.0390313,N,07032.4362448,W,1,17,0.8,13.167,M,-29.746,M,0.0,*56
###2023-12-09 12:28:43.516925$GNGGA,172842.70,4138.0390270,N,07032.4362423,W,1,17,0.8,13.190,M,-29.746,M,0.0,*55
###2023-12-09 12:28:43.717835$GNGGA,172842.90,4138.0390237,N,07032.4362398,W,1,17,0.8,13.212,M,-29.746,M,0.0,*56
###2023-12-09 12:28:43.919760$GNRMC,172843.10,A,4138.0390199,N,07032.4362373,W,0.02,,091223,,,A*48
###2023-12-09 12:28:43.922644$GNGGA,172843.10,4138.0390199,N,07032.4362373,W,1,17,0.8,13.238,M,-29.746,M,0.0,*55
###2023-12-09 12:28:43.924446$GPGSA,A,3,03,16,26,28,29,31,32,,,,,,1.5,0.8,1.3*3E
###2023-12-09 12:28:43.926039$GLGSA,A,3,71,72,73,75,,,,,,,,,1.5,0.8,1.3*25
###2023-12-09 12:28:43.927528$GAGSA,A,3,21,27,,,,,,,,,,,1.5,0.8,1.3*2B
###2023-12-09 12:28:43.929126$GBGSA,A,3,14,25,26,33,,,,,,,,,1.5,0.8,1.3*28
###2023-12-09 12:28:43.931483$GPGSV,2,1,07,03,39,280,36,16,34,206,45,26,63,206,39,28,60,052,44*7A
###2023-12-09 12:28:43.933536$GPGSV,2,2,07,29,25,077,42,31,73,351,44,32,33,132,46,,,,*46
###2023-12-09 12:28:43.935884$GLGSV,1,1,04,71,60,168,49,72,63,315,43,73,51,031,47,75,19,238,41*64
###2023-12-09 12:28:43.937637$GAGSV,1,1,02,21,75,179,40,27,43,050,46,,,,,,,,*65
###2023-12-09 12:28:43.939985$GBGSV,1,1,04,14,58,200,46,25,30,250,36,26,37,056,48,33,64,261,40*6D
###2023-12-09 12:28:43.941123$GNVTG,,T,,M,0.02,N,0.04,K,A*3B
###2023-12-09 12:28:43.942785$GNGST,172843.10,31.000,,,,0.120,0.130,0.300*5D
###2023-12-09 12:28:43.944085$GNZDA,172843.10,09,12,2023,00,00*7B
###2023-12-09 12:28:43.944730$GNEBP,,,,,,M*13
###2023-12-09 12:28:44.117871$GNGGA,172843.30,4138.0390165,N,07032.4362360,W,1,18,0.8,13.263,M,-29.746,M,0.0,*57
###2023-12-09 12:28:44.317910$GNGGA,172843.50,4138.0390129,N,07032.4362339,W,1,17,0.8,13.285,M,-29.746,M,0.0,*52
###2023-12-09 12:28:44.519712$GNGGA,172843.70,4138.0390087,N,07032.4362313,W,1,17,0.8,13.307,M,-29.746,M,0.0,*56
###2023-12-09 12:28:44.717120$GNGGA,172843.90,4138.0390047,N,07032.4362302,W,1,17,0.8,13.324,M,-29.746,M,0.0,*55
###2023-12-09 12:28:44.922865$GNRMC,172844.10,A,4138.0390006,N,07032.4362280,W,0.02,,091223,,,A*45
###2023-12-09 12:28:44.925745$GNGGA,172844.10,4138.0390006,N,07032.4362280,W,1,17,0.8,13.346,M,-29.746,M,0.0,*50
###2023-12-09 12:28:44.927578$GPGSA,A,3,03,16,26,28,29,31,32,,,,,,1.5,0.8,1.3*3E
###2023-12-09 12:28:44.929182$GLGSA,A,3,71,72,73,75,,,,,,,,,1.5,0.8,1.3*25
###2023-12-09 12:28:44.930665$GAGSA,A,3,21,27,,,,,,,,,,,1.5,0.8,1.3*2B
###2023-12-09 12:28:44.932260$GBGSA,A,3,14,25,26,33,,,,,,,,,1.5,0.8,1.3*28
###2023-12-09 12:28:44.934608$GPGSV,2,1,07,03,39,280,37,16,34,206,45,26,63,206,39,28,60,052,44*7B
###2023-12-09 12:28:44.936661$GPGSV,2,2,07,29,25,077,43,31,73,351,44,32,33,132,46,,,,*47
###2023-12-09 12:28:44.939014$GLGSV,1,1,04,71,60,168,49,72,63,315,43,73,51,031,47,75,19,238,41*64
###2023-12-09 12:28:44.940768$GAGSV,1,1,02,21,75,179,40,27,43,050,46,,,,,,,,*65
###2023-12-09 12:28:44.943127$GBGSV,1,1,04,14,58,200,46,25,30,250,36,26,37,056,48,33,64,261,40*6D
###2023-12-09 12:28:44.944278$GNVTG,,T,,M,0.02,N,0.04,K,A*3B
###2023-12-09 12:28:44.945935$GNGST,172844.10,31.000,,,,0.120,0.130,0.300*5A
###2023-12-09 12:28:44.947262$GNZDA,172844.10,09,12,2023,00,00*7C
###2023-12-09 12:28:44.947928$GNEBP,,,,,,M*13
###2023-12-09 12:28:45.119103$GNGGA,172844.30,4138.0389964,N,07032.4362266,W,1,17,0.8,13.362,M,-29.746,M,0.0,*59
###2023-12-09 12:28:45.317844$GNGGA,172844.50,4138.0389926,N,07032.4362228,W,1,17,0.8,13.382,M,-29.746,M,0.0,*5D
###2023-12-09 12:28:45.522022$GNGGA,172844.70,4138.0389879,N,07032.4362192,W,1,17,0.8,13.402,M,-29.746,M,0.0,*59
###2023-12-09 12:28:45.717065$GNGGA,172844.90,4138.0389835,N,07032.4362166,W,1,17,0.8,13.422,M,-29.746,M,0.0,*56
###2023-12-09 12:28:45.917588$GNRMC,172845.10,A,4138.0389792,N,07032.4362138,W,0.04,,091223,,,A*40
###2023-12-09 12:28:45.920712$GNGGA,172845.10,4138.0389792,N,07032.4362138,W,1,17,0.8,13.441,M,-29.746,M,0.0,*53
###2023-12-09 12:28:45.922708$GPGSA,A,3,03,16,26,28,29,31,32,,,,,,1.5,0.8,1.3*3E
###2023-12-09 12:28:45.924473$GLGSA,A,3,71,72,73,75,,,,,,,,,1.5,0.8,1.3*25
###2023-12-09 12:28:45.926102$GAGSA,A,3,21,27,,,,,,,,,,,1.5,0.8,1.3*2B
###2023-12-09 12:28:45.927878$GBGSA,A,3,14,25,26,33,,,,,,,,,1.5,0.8,1.3*28
###2023-12-09 12:28:45.930360$GPGSV,2,1,07,03,39,280,37,16,34,206,45,26,63,206,39,28,60,052,44*7B
###2023-12-09 12:28:45.932595$GPGSV,2,2,07,29,25,077,43,31,73,351,45,32,33,132,46,,,,*46
###2023-12-09 12:28:45.935369$GLGSV,1,1,04,71,60,168,49,72,63,315,43,73,51,031,47,75,19,238,41*64
###2023-12-09 12:28:45.937322$GAGSV,1,1,02,21,75,179,40,27,43,050,46,,,,,,,,*65
###2023-12-09 12:28:45.939839$GBGSV,1,1,04,14,58,200,45,25,30,250,35,26,37,056,47,33,64,261,39*6C
###2023-12-09 12:28:45.941151$GNVTG,,T,,M,0.04,N,0.07,K,A*3E
###2023-12-09 12:28:45.942977$GNGST,172845.10,31.000,,,,0.120,0.130,0.300*5B
###2023-12-09 12:28:45.944446$GNZDA,172845.10,09,12,2023,00,00*7D
###2023-12-09 12:28:45.945209$GNEBP,,,,,,M*13
###2023-12-09 12:28:46.117894$GNGGA,172845.30,4138.0389726,N,07032.4362100,W,1,17,0.8,13.463,M,-29.746,M,0.0,*55
