###2023-12-09 12:43:51.963765$GLGSV,2,2,06,74,71,307,43,75,25,245,42,,,,,,,,*65
###2023-12-09 12:43:51.966118$GAGSV,1,1,04,04,23,312,39,19,84,288,40,21,81,170,46,27,39,049,43*6A
###2023-12-09 12:43:51.968473$GBGSV,2,1,05,14,51,196,45,24,79,002,47,25,35,255,43,26,32,059,44*67
###2023-12-09 12:43:51.969945$GBGSV,2,2,05,33,62,246,46,,,,,,,,,,,,*58
###2023-12-09 12:43:51.971297$GNVTG,255.86,T,,M,3.19,N,5.90,K,A*28
###2023-12-09 12:43:51.972950$GNGST,174351.10,18.000,,,,0.081,0.071,0.170*53
###2023-12-09 12:43:51.974244$GNZDA,174351.10,09,12,2023,00,00*75
###2023-12-09 12:43:51.974905$GNEBP,,,,,,M*13
###2023-12-09 12:43:52.144393$GNGGA,174351.30,4138.0527640,N,07032.3907751,W,1,24,0.6,13.333,M,-29.744,M,0.0,*5C
###2023-12-09 12:43:52.344826$GNGGA,174351.50,4138.0527018,N,07032.3909869,W,1,24,0.6,13.325,M,-29.744,M,0.0,*5C
###2023-12-09 12:43:52.544200$GNGGA,174351.70,4138.0526149,N,07032.3911747,W,1,24,0.6,13.299,M,-29.744,M,0.0,*56
###2023-12-09 12:43:52.744476$GNGGA,174351.90,4138.0525209,N,07032.3913542,W,1,24,0.6,13.287,M,-29.744,M,0.0,*56
###2023-12-09 12:43:52.944822$GNRMC,174352.10,A,4138.0524507,N,07032.3915599,W,3.21,249.53,091223,,,A*55
###2023-12-09 12:43:52.947724$GNGGA,174352.10,4138.0524507,N,07032.3915599,W,1,24,0.6,13.322,M,-29.744,M,0.0,*5B
###2023-12-09 12:43:52.949599$GPGSA,A,3,03,04,16,26,28,29,31,32,,,,,1.1,0.6,0.9*3B
###2023-12-09 12:43:52.951343$GLGSA,A,3,65,71,72,73,74,75,,,,,,,1.1,0.6,0.9*24
###2023-12-09 12:43:52.952924$GAGSA,A,3,04,19,21,27,,,,,,,,,1.1,0.6,0.9*26
###2023-12-09 12:43:52.954581$GBGSA,A,3,14,24,25,26,33,,,,,,,,1.1,0.6,0.9*2F
###2023-12-09 12:43:52.956914$GPGSV,2,1,08,03,38,271,43,04,25,311,42,16,41,209,43,26,71,208,46*7B
###2023-12-09 12:43:52.959268$GPGSV,2,2,08,28,55,061,45,29,26,069,44,31,72,013,47,32,27,136,45*7A
###2023-12-09 12:43:52.961608$GLGSV,2,1,06,65,16,329,42,71,51,170,47,72,69,300,45,73,44,036,47*67
###2023-12-09 12:43:52.963378$GLGSV,2,2,06,74,71,307,42,75,25,245,40,,,,,,,,*66
###2023-12-09 12:43:52.965709$GAGSV,1,1,04,04,23,312,42,19,84,288,40,21,81,170,46,27,39,049,44*61
###2023-12-09 12:43:52.968049$GBGSV,2,1,05,14,51,196,45,24,79,002,48,25,35,255,42,26,32,059,45*68
###2023-12-09 12:43:52.969510$GBGSV,2,2,05,33,62,246,47,,,,,,,,,,,,*59
###2023-12-09 12:43:52.970846$GNVTG,249.53,T,,M,3.21,N,5.94,K,A*22
###2023-12-09 12:43:52.972498$GNGST,174352.10,18.000,,,,0.080,0.071,0.170*51
###2023-12-09 12:43:52.973802$GNZDA,174352.10,09,12,2023,00,00*76
###2023-12-09 12:43:52.974440$GNEBP,,,,,,M*13
###2023-12-09 12:43:53.142958$GNGGA,174352.30,4138.0523814,N,07032.3917779,W,1,24,0.6,13.334,M,-29.744,M,0.0,*58
###2023-12-09 12:43:53.347184$GNGGA,174352.50,4138.0522783,N,07032.3919455,W,1,24,0.6,13.329,M,-29.744,M,0.0,*51
###2023-12-09 12:43:53.544671$GNGGA,174352.70,4138.0521503,N,07032.3920712,W,1,24,0.6,13.298,M,-29.744,M,0.0,*5B
###2023-12-09 12:43:53.743298$GNGGA,174352.90,4138.0520388,N,07032.3922316,W,1,24,0.6,13.291,M,-29.745,M,0.0,*5B
###2023-12-09 12:43:53.943618$GNRMC,174353.10,A,4138.0519392,N,07032.3924347,W,3.32,235.95,091223,,,A*54
###2023-12-09 12:43:53.946480$GNGGA,174353.10,4138.0519392,N,07032.3924347,W,1,24,0.6,13.321,M,-29.745,M,0.0,*5B
###2023-12-09 12:43:53.948372$GPGSA,A,3,03,04,16,26,28,29,31,32,,,,,1.1,0.6,0.9*3B
###2023-12-09 12:43:53.950086$GLGSA,A,3,65,71,72,73,74,75,,,,,,,1.1,0.6,0.9*24
###2023-12-09 12:43:53.951687$GAGSA,A,3,04,19,21,27,,,,,,,,,1.1,0.6,0.9*26
###2023-12-09 12:43:53.953341$GBGSA,A,3,14,24,25,26,33,,,,,,,,1.1,0.6,0.9*2F
###2023-12-09 12:43:53.955699$GPGSV,2,1,08,03,38,271,43,04,25,311,43,16,41,209,40,26,71,208,46*79
###2023-12-09 12:43:53.958057$GPGSV,2,2,08,28,55,061,44,29,26,069,42,31,72,015,47,32,27,136,43*7D
###2023-12-09 12:43:53.960409$GLGSV,2,1,06,65,16,329,40,71,51,170,47,72,69,300,46,73,44,036,46*67
###2023-12-09 12:43:53.962158$GLGSV,2,2,06,74,71,307,43,75,25,245,39,,,,,,,,*69
###2023-12-09 12:43:53.964504$GAGSV,1,1,04,04,23,312,41,19,84,288,40,21,81,170,45,27,39,049,44*61
###2023-12-09 12:43:53.966855$GBGSV,2,1,05,14,51,196,44,24,79,002,48,25,35,255,45,26,32,059,44*6F
###2023-12-09 12:43:53.968316$GBGSV,2,2,05,33,62,246,47,,,,,,,,,,,,*59
###2023-12-09 12:43:53.969644$GNVTG,235.95,T,,M,3.32,N,6.16,K,A*28
###2023-12-09 12:43:53.971306$GNGST,174353.10,18.000,,,,0.080,0.071,0.170*50
###2023-12-09 12:43:53.972595$GNZDA,174353.10,09,12,2023,00,00*77
###2023-12-09 12:43:53.973231$GNEBP,,,,,,M*13
###2023-12-09 12:43:54.144693$GNGGA,174353.30,4138.0518230,N,07032.3926094,W,1,24,0.6,13.327,M,-29.745,M,0.0,*58
###2023-12-09 12:43:54.343681$GNGGA,174353.50,4138.0516818,N,07032.3927206,W,1,24,0.6,13.340,M,-29.745,M,0.0,*59
###2023-12-09 12:43:54.544784$GNGGA,174353.70,4138.0515328,N,07032.3927998,W,1,24,0.6,13.309,M,-29.745,M,0.0,*51
###2023-12-09 12:43:54.744502$GNGGA,174353.90,4138.0513975,N,07032.3929417,W,1,24,0.6,13.326,M,-29.745,M,0.0,*52
###2023-12-09 12:43:54.944734$GNRMC,174354.10,A,4138.0512582,N,07032.3931223,W,3.38,218.92,091223,,,A*5A
###2023-12-09 12:43:54.947599$GNGGA,174354.10,4138.0512582,N,07032.3931223,W,1,24,0.6,13.341,M,-29.745,M,0.0,*51
###2023-12-09 12:43:54.949473$GPGSA,A,3,03,04,16,26,28,29,31,32,,,,,1.1,0.6,0.9*3B
###2023-12-09 12:43:54.951210$GLGSA,A,3,65,71,72,73,74,75,,,,,,,1.1,0.6,0.9*24
###2023-12-09 12:43:54.952803$GAGSA,A,3,04,19,21,27,,,,,,,,,1.1,0.6,0.9*26
###2023-12-09 12:43:54.954456$GBGSA,A,3,14,24,25,26,33,,,,,,,,1.1,0.6,0.9*2F
###2023-12-09 12:43:54.956814$GPGSV,2,1,08,03,38,271,44,04,25,311,44,16,41,209,43,26,71,208,47*7B
###2023-12-09 12:43:54.959171$GPGSV,2,2,08,28,55,061,45,29,26,069,41,31,72,015,47,32,26,136,43*7E
###2023-12-09 12:43:54.961507$GLGSV,2,1,06,65,16,329,41,71,51,170,46,72,69,300,47,73,44,036,46*66
###2023-12-09 12:43:54.963266$GLGSV,2,2,06,74,71,307,42,75,25,245,43,,,,,,,,*65
###2023-12-09 12:43:54.965594$GAGSV,1,1,04,04,23,312,41,19,84,288,39,21,81,170,45,27,39,049,42*69
###2023-12-09 12:43:54.967949$GBGSV,2,1,05,14,51,196,44,24,79,002,48,25,35,255,44,26,32,059,42*68
###2023-12-09 12:43:54.969405$GBGSV,2,2,05,33,62,246,47,,,,,,,,,,,,*59
###2023-12-09 12:43:54.970739$GNVTG,218.92,T,,M,3.38,N,6.26,K,A*29
###2023-12-09 12:43:54.972386$GNGST,174354.10,18.000,,,,0.080,0.071,0.170*57
###2023-12-09 12:43:54.973678$GNZDA,174354.10,09,12,2023,00,00*70
###2023-12-09 12:43:54.974314$GNEBP,,,,,,M*13
###2023-12-09 12:43:55.143462$GNGGA,174354.30,4138.0511053,N,07032.3932210,W,1,24,0.6,13.328,M,-29.745,M,0.0,*55
###2023-12-09 12:43:55.343715$GNGGA,174354.50,4138.0509436,N,07032.3932477,W,1,24,0.6,13.337,M,-29.745,M,0.0,*54
###2023-12-09 12:43:55.543857$GNGGA,174354.70,4138.0507807,N,07032.3932868,W,1,24,0.6,13.308,M,-29.745,M,0.0,*58
###2023-12-09 12:43:55.743206$GNGGA,174354.90,4138.0506264,N,07032.3933894,W,1,24,0.6,13.338,M,-29.745,M,0.0,*59
###2023-12-09 12:43:55.944605$GNRMC,174355.10,A,4138.0504666,N,07032.3935128,W,3.27,200.52,091223,,,A*52
###2023-12-09 12:43:55.947507$GNGGA,174355.10,4138.0504666,N,07032.3935128,W,1,24,0.6,13.357,M,-29.745,M,0.0,*55
###2023-12-09 12:43:55.949377$GPGSA,A,3,03,04,16,26,28,29,31,32,,,,,1.1,0.6,0.9*3B
###2023-12-09 12:43:55.951112$GLGSA,A,3,65,71,72,73,74,75,,,,,,,1.1,0.6,0.9*24
###2023-12-09 12:43:55.952699$GAGSA,A,3,04,19,21,27,,,,,,,,,1.1,0.6,0.9*26
###2023-12-09 12:43:55.954343$GBGSA,A,3,14,24,25,26,33,,,,,,,,1.1,0.6,0.9*2F
###2023-12-09 12:43:55.956687$GPGSV,2,1,08,03,38,271,46,04,25,311,43,16,41,209,43,26,71,208,47*7E
###2023-12-09 12:43:55.959038$GPGSV,2,2,08,28,55,061,45,29,26,069,42,31,72,015,47,32,26,136,43*7D
###2023-12-09 12:43:55.961386$GLGSV,2,1,06,65,16,329,42,71,51,170,46,72,69,300,46,73,44,036,46*64
###2023-12-09 12:43:55.963157$GLGSV,2,2,06,74,71,307,42,75,25,245,43,,,,,,,,*65
###2023-12-09 12:43:55.965481$GAGSV,1,1,04,04,23,312,41,19,84,288,40,21,81,170,45,27,39,049,42*67
###2023-12-09 12:43:55.967816$GBGSV,2,1,05,14,51,196,43,24,79,002,47,25,35,255,44,26,32,059,43*61
###2023-12-09 12:43:55.969271$GBGSV,2,2,05,33,62,246,47,,,,,,,,,,,,*59
###2023-12-09 12:43:55.970603$GNVTG,200.52,T,,M,3.27,N,6.05,K,A*23
###2023-12-09 12:43:55.972250$GNGST,174355.10,18.000,,,,0.080,0.071,0.170*56
###2023-12-09 12:43:55.973534$GNZDA,174355.10,09,12,2023,00,00*71
###2023-12-09 12:43:55.974176$GNEBP,,,,,,M*13
###2023-12-09 12:43:56.144815$GNGGA,174355.30,4138.0502980,N,07032.3935399,W,1,24,0.6,13.334,M,-29.745,M,0.0,*5B
###2023-12-09 12:43:56.343764$GNGGA,174355.50,4138.0501495,N,07032.3935072,W,1,24,0.6,13.307,M,-29.745,M,0.0,*51
###2023-12-09 12:43:56.543846$GNGGA,174355.70,4138.0499950,N,07032.3935540,W,1,24,0.6,13.346,M,-29.745,M,0.0,*56
###2023-12-09 12:43:56.742072$GNGGA,174355.90,4138.0498178,N,07032.3936434,W,1,24,0.6,13.339,M,-29.745,M,0.0,*52
###2023-12-09 12:43:56.951768$GNRMC,174356.10,A,4138.0496617,N,07032.3936484,W,2.70,168.66,091223,,,A*54
###2023-12-09 12:43:56.954661$GNGGA,174356.10,4138.0496617,N,07032.3936484,W,1,24,0.6,13.316,M,-29.745,M,0.0,*5F
###2023-12-09 12:43:56.956528$GPGSA,A,3,03,04,16,26,28,29,31,32,,,,,1.1,0.6,0.9*3B
###2023-12-09 12:43:56.958236$GLGSA,A,3,65,71,72,73,74,75,,,,,,,1.1,0.6,0.9*24
