###2023-12-09 13:19:20.994623$GNRMC,181920.10,A,4138.0767465,N,07032.3097773,W,3.63,7.76,091223,,,A*5C
###2023-12-09 13:19:20.997489$GNGGA,181920.10,4138.0767465,N,07032.3097773,W,1,24,0.7,13.198,M,-29.742,M,0.0,*5F
###2023-12-09 13:19:20.999305$GPGSA,A,3,03,04,16,26,28,29,31,,,,,,1.1,0.7,0.9*3B
###2023-12-09 13:19:21.001015$GLGSA,A,3,65,71,72,73,74,75,,,,,,,1.1,0.7,0.9*25
###2023-12-09 13:19:21.002604$GAGSA,A,3,04,19,21,27,,,,,,,,,1.1,0.7,0.9*27
###2023-12-09 13:19:21.004312$GBGSA,A,3,14,24,25,26,33,35,,,,,,,1.1,0.7,0.9*28
###2023-12-09 13:19:21.006643$GPGSV,2,1,07,03,31,253,42,04,40,310,45,16,59,217,46,26,88,205,47*70
###2023-12-09 13:19:21.008666$GPGSV,2,2,07,28,43,078,45,29,23,053,40,31,64,053,46,,,,*41
###2023-12-09 13:19:21.010993$GLGSV,2,1,06,65,32,324,42,71,31,174,44,72,69,237,46,73,28,047,41*61
###2023-12-09 13:19:21.012632$GLGSV,2,2,06,74,65,,41,75,38,262,46,,,,,,,,*5B
###2023-12-09 13:19:21.014948$GAGSV,1,1,04,04,35,311,42,19,78,188,41,21,82,058,46,27,27,049,38*68
###2023-12-09 13:19:21.017253$GBGSV,2,1,06,14,35,191,44,24,68,038,47,25,46,269,47,26,20,067,42*6E
###2023-12-09 13:19:21.019032$GBGSV,2,2,06,33,51,223,46,35,16,062,42,,,,,,,,*6B
###2023-12-09 13:19:21.020284$GNVTG,7.76,T,,M,3.63,N,6.73,K,A*21
###2023-12-09 13:19:21.021916$GNGST,181920.10,18.000,,,,0.100,0.071,0.170*5D
###2023-12-09 13:19:21.023213$GNZDA,181920.10,09,12,2023,00,00*73
###2023-12-09 13:19:21.023849$GNEBP,,,,,,M*13
###2023-12-09 13:19:21.185298$GNGGA,181920.30,4138.0769514,N,07032.3097461,W,1,24,0.7,13.198,M,-29.742,M,0.0,*54
###2023-12-09 13:19:21.380834$GNGGA,181920.50,4138.0771630,N,07032.3097239,W,1,24,0.7,13.202,M,-29.742,M,0.0,*55
###2023-12-09 13:19:21.580650$GNGGA,181920.70,4138.0773762,N,07032.3096899,W,1,24,0.7,13.208,M,-29.742,M,0.0,*58
###2023-12-09 13:19:21.780757$GNGGA,181920.90,4138.0775882,N,07032.3096467,W,1,24,0.7,13.204,M,-29.742,M,0.0,*50
###2023-12-09 13:19:21.985269$GNRMC,181921.10,A,4138.0777996,N,07032.3096232,W,3.81,0.38,091223,,,A*5D
###2023-12-09 13:19:21.988150$GNGGA,181921.10,4138.0777996,N,07032.3096232,W,1,24,0.7,13.193,M,-29.742,M,0.0,*54
###2023-12-09 13:19:21.989945$GPGSA,A,3,03,04,16,26,28,29,31,,,,,,1.1,0.7,0.9*3B
###2023-12-09 13:19:21.991675$GLGSA,A,3,65,71,72,73,74,75,,,,,,,1.1,0.7,0.9*25
###2023-12-09 13:19:21.993254$GAGSA,A,3,04,19,21,27,,,,,,,,,1.1,0.7,0.9*27
###2023-12-09 13:19:21.994970$GBGSA,A,3,14,24,25,26,33,35,,,,,,,1.1,0.7,0.9*28
###2023-12-09 13:19:21.997289$GPGSV,2,1,07,03,31,253,42,04,40,310,44,16,59,217,46,26,88,205,48*7E
###2023-12-09 13:19:21.999333$GPGSV,2,2,07,28,43,078,45,29,23,053,40,31,64,053,46,,,,*41
###2023-12-09 13:19:22.001667$GLGSV,2,1,06,65,32,324,41,71,31,174,45,72,69,237,47,73,28,047,41*62
###2023-12-09 13:19:22.003335$GLGSV,2,2,06,74,65,,41,75,38,262,46,,,,,,,,*5B
###2023-12-09 13:19:22.005668$GAGSV,1,1,04,04,35,311,43,19,78,188,40,21,82,058,46,27,27,049,38*68
###2023-12-09 13:19:22.008006$GBGSV,2,1,06,14,35,191,44,24,68,038,47,25,46,269,47,26,20,067,43*6F
###2023-12-09 13:19:22.009749$GBGSV,2,2,06,33,51,223,46,35,16,062,43,,,,,,,,*6A
###2023-12-09 13:19:22.011024$GNVTG,0.38,T,,M,3.81,N,7.06,K,A*23
###2023-12-09 13:19:22.012671$GNGST,181921.10,18.000,,,,0.100,0.071,0.170*5C
###2023-12-09 13:19:22.013961$GNZDA,181921.10,09,12,2023,00,00*72
###2023-12-09 13:19:22.014608$GNEBP,,,,,,M*13
###2023-12-09 13:19:22.180988$GNGGA,181921.30,4138.0780095,N,07032.3096263,W,1,24,0.7,13.194,M,-29.742,M,0.0,*57
###2023-12-09 13:19:22.381655$GNGGA,181921.50,4138.0782198,N,07032.3096255,W,1,24,0.7,13.195,M,-29.742,M,0.0,*5B
###2023-12-09 13:19:22.582038$GNGGA,181921.70,4138.0784307,N,07032.3096047,W,1,24,0.7,13.203,M,-29.742,M,0.0,*56
###2023-12-09 13:19:22.782523$GNGGA,181921.90,4138.0786432,N,07032.3095921,W,1,24,0.7,13.202,M,-29.742,M,0.0,*50
###2023-12-09 13:19:22.985346$GNRMC,181922.10,A,4138.0788537,N,07032.3095978,W,3.73,358.22,091223,,,A*57
###2023-12-09 13:19:22.988220$GNGGA,181922.10,4138.0788537,N,07032.3095978,W,1,24,0.7,13.196,M,-29.742,M,0.0,*53
###2023-12-09 13:19:22.990009$GPGSA,A,3,03,04,16,26,28,29,31,,,,,,1.1,0.7,0.9*3B
###2023-12-09 13:19:22.991731$GLGSA,A,3,65,71,72,73,74,75,,,,,,,1.1,0.7,0.9*25
###2023-12-09 13:19:22.993312$GAGSA,A,3,04,19,21,27,,,,,,,,,1.1,0.7,0.9*27
###2023-12-09 13:19:22.995052$GBGSA,A,3,14,24,25,26,33,35,,,,,,,1.1,0.7,0.9*28
###2023-12-09 13:19:22.997381$GPGSV,2,1,07,03,31,253,42,04,40,310,44,16,59,217,46,26,88,205,48*7E
###2023-12-09 13:19:22.999424$GPGSV,2,2,07,28,43,078,45,29,23,053,40,31,64,053,46,,,,*41
###2023-12-09 13:19:23.001752$GLGSV,2,1,06,65,32,324,41,71,31,174,44,72,69,237,46,73,28,047,41*62
###2023-12-09 13:19:23.003411$GLGSV,2,2,06,74,65,,41,75,38,262,47,,,,,,,,*5A
###2023-12-09 13:19:23.005726$GAGSV,1,1,04,04,35,311,42,19,78,188,40,21,82,058,45,27,27,049,38*6A
###2023-12-09 13:19:23.008060$GBGSV,2,1,06,14,35,191,43,24,68,038,47,25,46,269,46,26,20,067,43*69
###2023-12-09 13:19:23.009804$GBGSV,2,2,06,33,51,223,47,35,16,062,43,,,,,,,,*6B
###2023-12-09 13:19:23.011133$GNVTG,358.22,T,,M,3.73,N,6.91,K,A*24
###2023-12-09 13:19:23.012773$GNGST,181922.10,18.000,,,,0.100,0.071,0.170*5F
###2023-12-09 13:19:23.014059$GNZDA,181922.10,09,12,2023,00,00*71
###2023-12-09 13:19:23.014705$GNEBP,,,,,,M*13
###2023-12-09 13:19:23.182688$GNGGA,181922.30,4138.0790659,N,07032.3095999,W,1,24,0.7,13.196,M,-29.742,M,0.0,*5C
###2023-12-09 13:19:23.381836$GNGGA,181922.50,4138.0792768,N,07032.3095853,W,1,24,0.7,13.198,M,-29.742,M,0.0,*52
###2023-12-09 13:19:23.582672$GNGGA,181922.70,4138.0794835,N,07032.3095649,W,1,24,0.7,13.202,M,-29.742,M,0.0,*54
###2023-12-09 13:19:23.781597$GNGGA,181922.90,4138.0796950,N,07032.3095615,W,1,24,0.7,13.205,M,-29.742,M,0.0,*54
###2023-12-09 13:19:23.985710$GNRMC,181923.10,A,4138.0799071,N,07032.3095550,W,3.83,2.70,091223,,,A*53
###2023-12-09 13:19:23.988587$GNGGA,181923.10,4138.0799071,N,07032.3095550,W,1,24,0.7,13.206,M,-29.742,M,0.0,*59
###2023-12-09 13:19:23.990371$GPGSA,A,3,03,04,16,26,28,29,31,,,,,,1.1,0.7,0.9*3B
###2023-12-09 13:19:23.992092$GLGSA,A,3,65,71,72,73,74,75,,,,,,,1.1,0.7,0.9*25
###2023-12-09 13:19:23.993664$GAGSA,A,3,04,19,21,27,,,,,,,,,1.1,0.7,0.9*27
###2023-12-09 13:19:23.995378$GBGSA,A,3,14,24,25,26,33,35,,,,,,,1.1,0.7,0.9*28
###2023-12-09 13:19:23.997695$GPGSV,2,1,07,03,31,253,41,04,40,310,44,16,59,217,46,26,88,205,48*7D
###2023-12-09 13:19:23.999738$GPGSV,2,2,07,28,43,078,44,29,23,053,39,31,64,053,46,,,,*4E
###2023-12-09 13:19:24.002064$GLGSV,2,1,06,65,32,324,41,71,31,174,44,72,69,237,46,73,28,047,39*6D
###2023-12-09 13:19:24.003724$GLGSV,2,2,06,74,65,,41,75,38,262,48,,,,,,,,*55
###2023-12-09 13:19:24.006050$GAGSV,1,1,04,04,35,311,44,19,78,188,40,21,82,058,46,27,27,049,38*6F
###2023-12-09 13:19:24.008385$GBGSV,2,1,06,14,35,191,43,24,68,038,47,25,46,269,47,26,20,067,40*6B
###2023-12-09 13:19:24.010127$GBGSV,2,2,06,33,51,223,47,35,16,062,40,,,,,,,,*68
###2023-12-09 13:19:24.011395$GNVTG,2.70,T,,M,3.83,N,7.09,K,A*20
###2023-12-09 13:19:24.013040$GNGST,181923.10,18.000,,,,0.100,0.071,0.170*5E
###2023-12-09 13:19:24.014331$GNZDA,181923.10,09,12,2023,00,00*70
###2023-12-09 13:19:24.014983$GNEBP,,,,,,M*13
###2023-12-09 13:19:24.182042$GNGGA,181923.30,4138.0801217,N,07032.3095267,W,1,24,0.7,13.210,M,-29.742,M,0.0,*53
###2023-12-09 13:19:24.380798$GNGGA,181923.50,4138.0803348,N,07032.3094753,W,1,24,0.7,13.212,M,-29.742,M,0.0,*5D
###2023-12-09 13:19:24.582910$GNGGA,181923.70,4138.0805452,N,07032.3094207,W,1,24,0.7,13.201,M,-29.742,M,0.0,*53
###2023-12-09 13:19:24.782801$GNGGA,181923.90,4138.0807516,N,07032.3093518,W,1,24,0.7,13.187,M,-29.742,M,0.0,*5D
###2023-12-09 13:19:24.984158$GNRMC,181924.10,A,4138.0809534,N,07032.3092789,W,3.63,13.78,091223,,,A*61
###2023-12-09 13:19:24.987031$GNGGA,181924.10,4138.0809534,N,07032.3092789,W,1,24,0.7,13.180,M,-29.742,M,0.0,*50
###2023-12-09 13:19:24.988825$GPGSA,A,3,03,04,16,26,28,29,31,,,,,,1.1,0.7,0.9*3B
###2023-12-09 13:19:24.990539$GLGSA,A,3,65,71,72,73,74,75,,,,,,,1.1,0.7,0.9*25
###2023-12-09 13:19:24.992135$GAGSA,A,3,04,19,21,27,,,,,,,,,1.1,0.7,0.9*27
###2023-12-09 13:19:24.993848$GBGSA,A,3,14,24,25,26,33,35,,,,,,,1.1,0.7,0.9*28
###2023-12-09 13:19:24.996186$GPGSV,2,1,07,03,31,253,41,04,40,310,44,16,59,217,46,26,88,205,47*72
###2023-12-09 13:19:24.998469$GPGSV,2,2,07,28,43,078,44,29,23,053,42,31,64,053,45,,,,*41
###2023-12-09 13:19:25.000835$GLGSV,2,1,06,65,32,324,41,71,31,174,45,72,69,237,46,73,28,047,41*63
###2023-12-09 13:19:25.002489$GLGSV,2,2,06,74,65,,41,75,38,262,47,,,,,,,,*5A
###2023-12-09 13:19:25.004828$GAGSV,1,1,04,04,35,311,43,19,78,188,41,21,82,058,46,27,27,049,40*66
###2023-12-09 13:19:25.007173$GBGSV,2,1,06,14,35,191,45,24,68,038,47,25,46,269,48,26,20,067,43*61
###2023-12-09 13:19:25.008914$GBGSV,2,2,06,33,51,223,47,35,16,062,43,,,,,,,,*6B
###2023-12-09 13:19:25.010207$GNVTG,13.78,T,,M,3.63,N,6.73,K,A*1A
###2023-12-09 13:19:25.011862$GNGST,181924.10,18.000,,,,0.100,0.071,0.170*59
###2023-12-09 13:19:25.013154$GNZDA,181924.10,09,12,2023,00,00*77
