###2023-12-09 12:28:51.927994$GPGSA,A,3,03,16,26,28,29,31,32,,,,,,1.5,0.8,1.3*3E
###2023-12-09 12:28:51.930198$GLGSA,A,3,71,72,73,75,,,,,,,,,1.5,0.8,1.3*25
###2023-12-09 12:28:51.932212$GAGSA,A,3,21,27,,,,,,,,,,,1.5,0.8,1.3*2B
###2023-12-09 12:28:51.934374$GBGSA,A,3,14,25,26,33,,,,,,,,,1.5,0.8,1.3*28
###2023-12-09 12:28:51.937467$GPGSV,2,1,07,03,39,280,37,16,34,206,45,26,63,206,41,28,60,052,44*74
###2023-12-09 12:28:51.940220$GPGSV,2,2,07,29,25,077,45,31,73,351,45,32,33,132,46,,,,*40
###2023-12-09 12:28:51.943297$GLGSV,1,1,04,71,60,168,49,72,63,315,43,73,51,031,47,75,19,238,40*65
###2023-12-09 12:28:51.945666$GAGSV,1,1,02,21,75,179,40,27,43,050,45,,,,,,,,*66
###2023-12-09 12:28:51.948752$GBGSV,1,1,04,14,57,199,46,25,31,251,35,26,37,056,48,33,64,261,41*63
###2023-12-09 12:28:51.950445$GNVTG,,T,,M,0.02,N,0.04,K,A*3B
###2023-12-09 12:28:51.952536$GNGST,172851.10,31.000,,,,0.120,0.130,0.300*5E
###2023-12-09 12:28:51.954122$GNZDA,172851.10,09,12,2023,00,00*78
###2023-12-09 12:28:51.954939$GNEBP,,,,,,M*13
###2023-12-09 12:28:52.120733$GNGGA,172851.30,4138.0387876,N,07032.4361936,W,1,17,0.8,14.001,M,-29.746,M,0.0,*5D
###2023-12-09 12:28:52.322386$GNGGA,172851.50,4138.0387828,N,07032.4361938,W,1,17,0.8,14.017,M,-29.746,M,0.0,*59
###2023-12-09 12:28:52.524273$GNGGA,172851.70,4138.0387789,N,07032.4361946,W,1,17,0.8,14.027,M,-29.746,M,0.0,*55
###2023-12-09 12:28:52.720260$GNGGA,172851.90,4138.0387749,N,07032.4361954,W,1,17,0.8,14.039,M,-29.746,M,0.0,*5B
###2023-12-09 12:28:52.928291$GNRMC,172852.10,A,4138.0387695,N,07032.4361955,W,0.04,,091223,,,A*4E
###2023-12-09 12:28:52.931394$GNGGA,172852.10,4138.0387695,N,07032.4361955,W,1,16,0.9,14.052,M,-29.746,M,0.0,*5C
###2023-12-09 12:28:52.933221$GPGSA,A,3,03,16,26,28,29,31,32,,,,,,1.6,0.9,1.3*3C
###2023-12-09 12:28:52.934840$GLGSA,A,3,71,72,73,75,,,,,,,,,1.6,0.9,1.3*27
###2023-12-09 12:28:52.936312$GAGSA,A,3,21,27,,,,,,,,,,,1.6,0.9,1.3*29
###2023-12-09 12:28:52.937837$GBGSA,A,3,14,26,33,,,,,,,,,,1.6,0.9,1.3*2D
###2023-12-09 12:28:52.940200$GPGSV,2,1,07,03,39,280,37,16,34,206,45,26,63,206,41,28,60,052,44*74
###2023-12-09 12:28:52.942266$GPGSV,2,2,07,29,25,077,45,31,73,351,45,32,33,132,46,,,,*40
###2023-12-09 12:28:52.944621$GLGSV,1,1,04,71,60,168,49,72,63,315,43,73,51,031,46,75,19,238,40*64
###2023-12-09 12:28:52.946398$GAGSV,1,1,02,21,75,179,40,27,43,050,45,,,,,,,,*66
###2023-12-09 12:28:52.948494$GBGSV,1,1,03,14,57,199,46,26,37,056,47,33,64,260,41,,,,*5F
###2023-12-09 12:28:52.949658$GNVTG,,T,,M,0.04,N,0.07,K,A*3E
###2023-12-09 12:28:52.951344$GNGST,172852.10,32.000,,,,0.120,0.130,0.300*5E
###2023-12-09 12:28:52.952660$GNZDA,172852.10,09,12,2023,00,00*7B
###2023-12-09 12:28:52.953314$GNEBP,,,,,,M*13
###2023-12-09 12:28:53.122321$GNGGA,172852.30,4138.0387643,N,07032.4361948,W,1,16,0.9,14.067,M,-29.746,M,0.0,*5F
###2023-12-09 12:28:53.321218$GNGGA,172852.50,4138.0387594,N,07032.4361960,W,1,16,0.9,14.080,M,-29.746,M,0.0,*53
###2023-12-09 12:28:53.522730$GNGGA,172852.70,4138.0387530,N,07032.4361951,W,1,17,0.8,14.090,M,-29.746,M,0.0,*5C
###2023-12-09 12:28:53.721457$GNGGA,172852.90,4138.0387467,N,07032.4361932,W,1,17,0.8,14.110,M,-29.746,M,0.0,*5D
###2023-12-09 12:28:53.923414$GNRMC,172853.10,A,4138.0387412,N,07032.4361925,W,0.04,,091223,,,A*45
###2023-12-09 12:28:53.927199$GNGGA,172853.10,4138.0387412,N,07032.4361925,W,1,17,0.8,14.126,M,-29.746,M,0.0,*55
###2023-12-09 12:28:53.929610$GPGSA,A,3,03,16,26,28,29,31,32,,,,,,1.5,0.8,1.2*3F
###2023-12-09 12:28:53.931786$GLGSA,A,3,71,72,73,75,,,,,,,,,1.5,0.8,1.2*24
###2023-12-09 12:28:53.933780$GAGSA,A,3,21,27,,,,,,,,,,,1.5,0.8,1.2*2A
###2023-12-09 12:28:53.935843$GBGSA,A,3,14,26,33,,,,,,,,,,1.5,0.8,1.2*2E
###2023-12-09 12:28:53.938884$GPGSV,2,1,07,03,39,280,37,16,34,206,44,26,63,206,41,28,60,052,44*75
###2023-12-09 12:28:53.941579$GPGSV,2,2,07,29,25,077,44,31,73,351,45,32,33,132,46,,,,*41
###2023-12-09 12:28:53.944633$GLGSV,1,1,04,71,60,168,49,72,63,315,42,73,51,031,46,75,19,238,41*64
###2023-12-09 12:28:53.947025$GAGSV,1,1,02,21,75,179,40,27,43,050,45,,,,,,,,*66
###2023-12-09 12:28:53.949579$GBGSV,1,1,03,14,57,199,45,26,37,056,47,33,64,260,41,,,,*5C
###2023-12-09 12:28:53.951027$GNVTG,,T,,M,0.04,N,0.07,K,A*3E
###2023-12-09 12:28:53.953105$GNGST,172853.10,31.000,,,,0.120,0.130,0.290*54
###2023-12-09 12:28:53.954746$GNZDA,172853.10,09,12,2023,00,00*7A
###2023-12-09 12:28:53.955541$GNEBP,,,,,,M*13
###2023-12-09 12:28:54.123396$GNGGA,172853.30,4138.0387349,N,07032.4361913,W,1,16,0.9,14.143,M,-29.746,M,0.0,*58
###2023-12-09 12:28:54.323110$GNGGA,172853.50,4138.0387287,N,07032.4361894,W,1,16,0.9,14.160,M,-29.746,M,0.0,*52
###2023-12-09 12:28:54.522012$GNGGA,172853.70,4138.0387237,N,07032.4361906,W,1,16,0.9,14.173,M,-29.746,M,0.0,*53
###2023-12-09 12:28:54.723275$GNGGA,172853.90,4138.0387182,N,07032.4361895,W,1,16,0.9,14.189,M,-29.746,M,0.0,*5E
###2023-12-09 12:28:54.923953$GNRMC,172854.10,A,4138.0387123,N,07032.4361880,W,0.04,,091223,,,A*4B
###2023-12-09 12:28:54.927031$GNGGA,172854.10,4138.0387123,N,07032.4361880,W,1,17,0.8,14.204,M,-29.746,M,0.0,*58
###2023-12-09 12:28:54.929005$GPGSA,A,3,03,16,26,28,29,31,32,,,,,,1.5,0.8,1.3*3E
###2023-12-09 12:28:54.930788$GLGSA,A,3,71,72,73,75,,,,,,,,,1.5,0.8,1.3*25
###2023-12-09 12:28:54.932417$GAGSA,A,3,21,27,,,,,,,,,,,1.5,0.8,1.3*2B
###2023-12-09 12:28:54.934158$GBGSA,A,3,14,25,26,33,,,,,,,,,1.5,0.8,1.3*28
###2023-12-09 12:28:54.936674$GPGSV,2,1,07,03,39,280,37,16,34,206,45,26,63,206,41,28,60,052,44*74
###2023-12-09 12:28:54.938898$GPGSV,2,2,07,29,25,077,44,31,73,351,45,32,33,132,47,,,,*40
###2023-12-09 12:28:54.941402$GLGSV,1,1,04,71,60,168,49,72,63,315,42,73,51,031,46,75,19,238,41*64
###2023-12-09 12:28:54.943324$GAGSV,1,1,02,21,75,179,41,27,43,050,45,,,,,,,,*67
###2023-12-09 12:28:54.945815$GBGSV,1,1,04,14,57,199,46,25,31,251,35,26,37,056,47,33,64,260,41*6D
###2023-12-09 12:28:54.947164$GNVTG,,T,,M,0.04,N,0.07,K,A*3E
###2023-12-09 12:28:54.949050$GNGST,172854.10,31.000,,,,0.120,0.130,0.290*53
###2023-12-09 12:28:54.950523$GNZDA,172854.10,09,12,2023,00,00*7D
###2023-12-09 12:28:54.951347$GNEBP,,,,,,M*13
###2023-12-09 12:28:55.122006$GNGGA,172854.30,4138.0387069,N,07032.4361882,W,1,17,0.8,14.217,M,-29.746,M,0.0,*55
###2023-12-09 12:28:55.323251$GNGGA,172854.50,4138.0387006,N,07032.4361867,W,1,17,0.8,14.231,M,-29.746,M,0.0,*55
###2023-12-09 12:28:55.523766$GNGGA,172854.70,4138.0386949,N,07032.4361867,W,1,17,0.8,14.242,M,-29.746,M,0.0,*50
###2023-12-09 12:28:55.722346$GNGGA,172854.90,4138.0386889,N,07032.4361853,W,1,16,0.9,14.255,M,-29.746,M,0.0,*52
###2023-12-09 12:28:55.924156$GNRMC,172855.10,A,4138.0386820,N,07032.4361835,W,0.02,,091223,,,A*49
###2023-12-09 12:28:55.927312$GNGGA,172855.10,4138.0386820,N,07032.4361835,W,1,16,0.9,14.269,M,-29.746,M,0.0,*57
###2023-12-09 12:28:55.929321$GPGSA,A,3,03,16,26,28,29,31,32,,,,,,1.6,0.9,1.3*3C
###2023-12-09 12:28:55.931121$GLGSA,A,3,71,72,73,75,,,,,,,,,1.6,0.9,1.3*27
###2023-12-09 12:28:55.932773$GAGSA,A,3,21,27,,,,,,,,,,,1.6,0.9,1.3*29
###2023-12-09 12:28:55.934481$GBGSA,A,3,14,26,33,,,,,,,,,,1.6,0.9,1.3*2D
###2023-12-09 12:28:55.937047$GPGSV,2,1,07,03,39,280,37,16,34,206,44,26,63,206,40,28,60,052,44*74
###2023-12-09 12:28:55.939302$GPGSV,2,2,07,29,25,077,43,31,73,351,44,32,33,132,45,,,,*44
###2023-12-09 12:28:55.941834$GLGSV,1,1,04,71,60,168,49,72,63,315,42,73,51,031,46,75,19,238,41*64
###2023-12-09 12:28:55.943783$GAGSV,1,1,02,21,75,179,40,27,43,050,45,,,,,,,,*66
###2023-12-09 12:28:55.946004$GBGSV,1,1,03,14,57,199,46,26,37,056,47,33,64,260,42,,,,*5C
###2023-12-09 12:28:55.947385$GNVTG,,T,,M,0.02,N,0.04,K,A*3B
###2023-12-09 12:28:55.949109$GNGST,172855.10,32.000,,,,0.120,0.130,0.290*51
###2023-12-09 12:28:55.950443$GNZDA,172855.10,09,12,2023,00,00*7C
###2023-12-09 12:28:55.951144$GNEBP,,,,,,M*13
###2023-12-09 12:28:56.124276$GNGGA,172855.30,4138.0386765,N,07032.4361835,W,1,16,0.9,14.281,M,-29.746,M,0.0,*5D
###2023-12-09 12:28:56.323161$GNGGA,172855.50,4138.0386699,N,07032.4361834,W,1,16,0.9,14.294,M,-29.746,M,0.0,*5C
###2023-12-09 12:28:56.524219$GNGGA,172855.70,4138.0386626,N,07032.4361810,W,1,16,0.9,14.304,M,-29.746,M,0.0,*54
###2023-12-09 12:28:56.721574$GNGGA,172855.90,4138.0386555,N,07032.4361787,W,1,16,0.9,14.322,M,-29.746,M,0.0,*58
###2023-12-09 12:28:56.930329$GNRMC,172856.10,A,4138.0386488,N,07032.4361760,W,0.02,,091223,,,A*4B
###2023-12-09 12:28:56.933289$GNGGA,172856.10,4138.0386488,N,07032.4361760,W,1,16,0.9,14.333,M,-29.746,M,0.0,*5B
###2023-12-09 12:28:56.935150$GPGSA,A,3,03,16,26,28,29,31,32,,,,,,1.6,0.9,1.3*3C
###2023-12-09 12:28:56.936780$GLGSA,A,3,71,72,73,75,,,,,,,,,1.6,0.9,1.3*27
###2023-12-09 12:28:56.938462$GAGSA,A,3,21,27,,,,,,,,,,,1.6,0.9,1.3*29
###2023-12-09 12:28:56.940038$GBGSA,A,3,14,26,33,,,,,,,,,,1.6,0.9,1.3*2D
###2023-12-09 12:28:56.942391$GPGSV,2,1,07,03,39,280,37,16,34,206,44,26,63,206,40,28,60,052,44*74
