###2023-12-09 12:59:01.763976$GNGGA,175900.90,4138.0323346,N,07032.2622075,W,1,24,0.6,13.271,M,-29.743,M,0.0,*50
###2023-12-09 12:59:01.965530$GNRMC,175901.10,A,4138.0322958,N,07032.2619688,W,3.21,104.53,091223,,,A*55
###2023-12-09 12:59:01.968427$GNGGA,175901.10,4138.0322958,N,07032.2619688,W,1,24,0.6,13.247,M,-29.743,M,0.0,*54
###2023-12-09 12:59:01.970291$GPGSA,A,3,03,04,16,26,28,29,31,32,,,,,1.1,0.6,0.9*3B
###2023-12-09 12:59:01.972064$GLGSA,A,3,65,71,72,73,74,75,,,,,,,1.1,0.6,0.9*24
###2023-12-09 12:59:01.973649$GAGSA,A,3,04,19,21,27,,,,,,,,,1.1,0.6,0.9*26
###2023-12-09 12:59:01.975313$GBGSA,A,3,14,24,25,26,33,,,,,,,,1.1,0.6,0.9*2F
###2023-12-09 12:59:01.977655$GPGSV,2,1,08,03,36,264,44,04,31,311,41,16,48,211,47,26,78,209,48*72
###2023-12-09 12:59:01.980006$GPGSV,2,2,08,28,50,069,45,29,25,063,42,31,69,033,47,32,20,139,41*7C
###2023-12-09 12:59:01.982347$GLGSV,2,1,06,65,23,328,41,71,42,172,46,72,73,273,46,73,37,041,45*69
###2023-12-09 12:59:01.984105$GLGSV,2,2,06,74,70,334,43,75,31,252,44,,,,,,,,*61
###2023-12-09 12:59:01.986436$GAGSV,1,1,04,04,28,312,41,19,85,226,41,21,85,133,46,27,34,048,42*64
###2023-12-09 12:59:01.988789$GBGSV,2,1,05,14,44,193,45,24,74,022,49,25,40,261,46,26,27,062,43*6C
###2023-12-09 12:59:01.990255$GBGSV,2,2,05,33,58,234,48,,,,,,,,,,,,*5A
###2023-12-09 12:59:01.991585$GNVTG,104.53,T,,M,3.21,N,5.94,K,A*28
###2023-12-09 12:59:01.993238$GNGST,175901.10,18.000,,,,0.080,0.067,0.160*5A
###2023-12-09 12:59:01.994530$GNZDA,175901.10,09,12,2023,00,00*7B
###2023-12-09 12:59:01.995177$GNEBP,,,,,,M*13
###2023-12-09 12:59:02.162693$GNGGA,175901.30,4138.0322707,N,07032.2617341,W,1,24,0.6,13.275,M,-29.743,M,0.0,*5D
###2023-12-09 12:59:02.363236$GNGGA,175901.50,4138.0322568,N,07032.2614819,W,1,24,0.6,13.290,M,-29.743,M,0.0,*5E
###2023-12-09 12:59:02.563597$GNGGA,175901.70,4138.0322362,N,07032.2612360,W,1,24,0.6,13.264,M,-29.743,M,0.0,*58
###2023-12-09 12:59:02.763983$GNGGA,175901.90,4138.0322201,N,07032.2609927,W,1,24,0.6,13.282,M,-29.743,M,0.0,*59
###2023-12-09 12:59:02.964719$GNRMC,175902.10,A,4138.0321808,N,07032.2607311,W,3.63,101.95,091223,,,A*52
###2023-12-09 12:59:02.967602$GNGGA,175902.10,4138.0321808,N,07032.2607311,W,1,24,0.6,13.272,M,-29.743,M,0.0,*5C
###2023-12-09 12:59:02.969462$GPGSA,A,3,03,04,16,26,28,29,31,32,,,,,1.1,0.6,0.9*3B
###2023-12-09 12:59:02.971192$GLGSA,A,3,65,71,72,73,74,75,,,,,,,1.1,0.6,0.9*24
###2023-12-09 12:59:02.972784$GAGSA,A,3,04,19,21,27,,,,,,,,,1.1,0.6,0.9*26
###2023-12-09 12:59:02.974431$GBGSA,A,3,14,24,25,26,33,,,,,,,,1.1,0.6,0.9*2F
###2023-12-09 12:59:02.976778$GPGSV,2,1,08,03,36,264,45,04,31,311,42,16,48,211,46,26,78,209,48*71
###2023-12-09 12:59:02.979127$GPGSV,2,2,08,28,50,069,44,29,25,063,41,31,69,033,47,32,20,139,42*7D
###2023-12-09 12:59:02.981457$GLGSV,2,1,06,65,23,328,42,71,42,172,47,72,73,273,47,73,37,041,45*6A
###2023-12-09 12:59:02.983217$GLGSV,2,2,06,74,70,334,43,75,31,252,47,,,,,,,,*62
###2023-12-09 12:59:02.985550$GAGSV,1,1,04,04,28,312,41,19,85,226,41,21,85,133,46,27,34,048,43*65
###2023-12-09 12:59:02.987896$GBGSV,2,1,05,14,44,193,46,24,74,022,48,25,40,261,46,26,27,062,42*6F
###2023-12-09 12:59:02.989357$GBGSV,2,2,05,33,58,234,48,,,,,,,,,,,,*5A
###2023-12-09 12:59:02.990694$GNVTG,101.95,T,,M,3.63,N,6.73,K,A*2B
###2023-12-09 12:59:02.992349$GNGST,175902.10,18.000,,,,0.079,0.067,0.160*5F
###2023-12-09 12:59:02.993644$GNZDA,175902.10,09,12,2023,00,00*78
###2023-12-09 12:59:02.994283$GNEBP,,,,,,M*13
###2023-12-09 12:59:03.165500$GNGGA,175902.30,4138.0321675,N,07032.2604859,W,1,24,0.6,13.258,M,-29.743,M,0.0,*56
###2023-12-09 12:59:03.363165$GNGGA,175902.50,4138.0321903,N,07032.2602429,W,1,24,0.6,13.294,M,-29.743,M,0.0,*53
###2023-12-09 12:59:03.562416$GNGGA,175902.70,4138.0321758,N,07032.2599839,W,1,24,0.6,13.281,M,-29.743,M,0.0,*59
###2023-12-09 12:59:03.763836$GNGGA,175902.90,4138.0321656,N,07032.2597477,W,1,24,0.6,13.258,M,-29.743,M,0.0,*54
###2023-12-09 12:59:03.965545$GNRMC,175903.10,A,4138.0321965,N,07032.2595120,W,3.36,77.15,091223,,,A*69
###2023-12-09 12:59:03.968412$GNGGA,175903.10,4138.0321965,N,07032.2595120,W,1,24,0.6,13.286,M,-29.743,M,0.0,*54
###2023-12-09 12:59:03.970262$GPGSA,A,3,03,04,16,26,28,29,31,32,,,,,1.1,0.6,0.9*3B
###2023-12-09 12:59:03.971997$GLGSA,A,3,65,71,72,73,74,75,,,,,,,1.1,0.6,0.9*24
###2023-12-09 12:59:03.973578$GAGSA,A,3,04,19,21,27,,,,,,,,,1.1,0.6,0.9*26
###2023-12-09 12:59:03.975236$GBGSA,A,3,14,24,25,26,33,,,,,,,,1.1,0.6,0.9*2F
###2023-12-09 12:59:03.977561$GPGSV,2,1,08,03,36,264,46,04,31,311,43,16,48,211,47,26,78,209,49*73
###2023-12-09 12:59:03.979909$GPGSV,2,2,08,28,50,069,43,29,25,063,40,31,69,033,47,32,20,139,42*7B
###2023-12-09 12:59:03.982234$GLGSV,2,1,06,65,23,328,41,71,42,172,47,72,73,273,47,73,37,041,46*6A
###2023-12-09 12:59:03.983992$GLGSV,2,2,06,74,70,334,43,75,31,252,46,,,,,,,,*63
###2023-12-09 12:59:03.986321$GAGSV,1,1,04,04,28,312,41,19,85,226,41,21,85,133,46,27,34,048,43*65
###2023-12-09 12:59:03.988711$GBGSV,2,1,05,14,44,193,47,24,74,022,48,25,40,261,47,26,27,062,41*6C
###2023-12-09 12:59:03.990173$GBGSV,2,2,05,33,58,234,49,,,,,,,,,,,,*5B
###2023-12-09 12:59:03.991481$GNVTG,77.15,T,,M,3.36,N,6.23,K,A*16
###2023-12-09 12:59:03.993128$GNGST,175903.10,18.000,,,,0.079,0.067,0.160*5E
###2023-12-09 12:59:03.994412$GNZDA,175903.10,09,12,2023,00,00*79
###2023-12-09 12:59:03.995062$GNEBP,,,,,,M*13
###2023-12-09 12:59:04.162633$GNGGA,175903.30,4138.0322263,N,07032.2592706,W,1,24,0.6,13.271,M,-29.743,M,0.0,*55
###2023-12-09 12:59:04.363511$GNGGA,175903.50,4138.0322257,N,07032.2590319,W,1,24,0.6,13.251,M,-29.743,M,0.0,*5E
###2023-12-09 12:59:04.563404$GNGGA,175903.70,4138.0322335,N,07032.2588000,W,1,24,0.6,13.271,M,-29.743,M,0.0,*59
###2023-12-09 12:59:04.763814$GNGGA,175903.90,4138.0322652,N,07032.2585617,W,1,24,0.6,13.282,M,-29.743,M,0.0,*52
###2023-12-09 12:59:04.965427$GNRMC,175904.10,A,4138.0322749,N,07032.2583294,W,2.99,89.42,091223,,,A*61
###2023-12-09 12:59:04.968308$GNGGA,175904.10,4138.0322749,N,07032.2583294,W,1,24,0.6,13.256,M,-29.743,M,0.0,*56
###2023-12-09 12:59:04.970161$GPGSA,A,3,03,04,16,26,28,29,31,32,,,,,1.1,0.6,0.9*3B
###2023-12-09 12:59:04.971888$GLGSA,A,3,65,71,72,73,74,75,,,,,,,1.1,0.6,0.9*24
###2023-12-09 12:59:04.973470$GAGSA,A,3,04,19,21,27,,,,,,,,,1.1,0.6,0.9*26
###2023-12-09 12:59:04.975127$GBGSA,A,3,14,24,25,26,33,,,,,,,,1.1,0.6,0.9*2F
###2023-12-09 12:59:04.977452$GPGSV,2,1,08,03,36,264,45,04,31,311,40,16,48,211,47,26,78,209,48*72
###2023-12-09 12:59:04.979803$GPGSV,2,2,08,28,50,069,44,29,25,063,41,31,69,033,47,32,20,139,41*7E
###2023-12-09 12:59:04.982137$GLGSV,2,1,06,65,23,328,41,71,42,172,46,72,73,273,46,73,37,041,46*6A
###2023-12-09 12:59:04.983907$GLGSV,2,2,06,74,70,334,43,75,31,252,46,,,,,,,,*63
###2023-12-09 12:59:04.986245$GAGSV,1,1,04,04,28,312,39,19,85,226,41,21,85,133,46,27,34,048,43*6A
###2023-12-09 12:59:04.988587$GBGSV,2,1,05,14,44,193,46,24,74,022,49,25,40,261,46,26,27,062,42*6E
###2023-12-09 12:59:04.990041$GBGSV,2,2,05,33,58,234,49,,,,,,,,,,,,*5B
###2023-12-09 12:59:04.991342$GNVTG,89.42,T,,M,2.99,N,5.54,K,A*12
###2023-12-09 12:59:04.992987$GNGST,175904.10,18.000,,,,0.079,0.067,0.160*59
###2023-12-09 12:59:04.994275$GNZDA,175904.10,09,12,2023,00,00*7E
###2023-12-09 12:59:04.994924$GNEBP,,,,,,M*13
###2023-12-09 12:59:05.162662$GNGGA,175904.30,4138.0322700,N,07032.2580986,W,1,24,0.6,13.254,M,-29.743,M,0.0,*50
###2023-12-09 12:59:05.363419$GNGGA,175904.50,4138.0322664,N,07032.2578611,W,1,24,0.6,13.242,M,-29.743,M,0.0,*54
###2023-12-09 12:59:05.563555$GNGGA,175904.70,4138.0322623,N,07032.2576341,W,1,24,0.6,13.236,M,-29.743,M,0.0,*58
###2023-12-09 12:59:05.764447$GNGGA,175904.90,4138.0322439,N,07032.2574026,W,1,24,0.6,13.255,M,-29.743,M,0.0,*5A
###2023-12-09 12:59:05.966048$GNRMC,175905.10,A,4138.0321945,N,07032.2571755,W,3.09,110.04,091223,,,A*5F
###2023-12-09 12:59:05.968942$GNGGA,175905.10,4138.0321945,N,07032.2571755,W,1,24,0.6,13.232,M,-29.743,M,0.0,*51
###2023-12-09 12:59:05.970854$GPGSA,A,3,03,04,16,26,28,29,31,32,,,,,1.1,0.6,0.9*3B
###2023-12-09 12:59:05.972573$GLGSA,A,3,65,71,72,73,74,75,,,,,,,1.1,0.6,0.9*24
###2023-12-09 12:59:05.974156$GAGSA,A,3,04,19,21,27,,,,,,,,,1.1,0.6,0.9*26
###2023-12-09 12:59:05.975820$GBGSA,A,3,14,24,25,26,33,,,,,,,,1.1,0.6,0.9*2F
###2023-12-09 12:59:05.978408$GPGSV,2,1,08,03,36,264,45,04,31,311,44,16,48,211,47,26,78,209,49*77
###2023-12-09 12:59:05.980758$GPGSV,2,2,08,28,50,069,45,29,25,063,43,31,69,033,47,32,20,139,42*7E
###2023-12-09 12:59:05.983102$GLGSV,2,1,06,65,23,328,42,71,42,172,47,72,73,273,46,73,37,041,45*6B
###2023-12-09 12:59:05.984850$GLGSV,2,2,06,74,70,334,43,75,31,252,45,,,,,,,,*60
###2023-12-09 12:59:05.987232$GAGSV,1,1,04,04,28,312,44,19,85,226,41,21,85,133,46,27,34,048,43*60
###2023-12-09 12:59:05.989575$GBGSV,2,1,05,14,44,193,46,24,74,022,48,25,40,261,46,26,27,062,44*69
###2023-12-09 12:59:05.991043$GBGSV,2,2,05,33,58,234,49,,,,,,,,,,,,*5B
###2023-12-09 12:59:05.992368$GNVTG,110.04,T,,M,3.09,N,5.72,K,A*2D
###2023-12-09 12:59:05.994014$GNGST,175905.10,18.000,,,,0.079,0.067,0.160*58
