###2023-12-09 13:20:22.582911$GNGGA,182021.70,4138.0518961,N,07032.3272733,W,1,24,0.7,12.825,M,-29.744,M,0.0,*54
###2023-12-09 13:20:22.782953$GNGGA,182021.90,4138.0517038,N,07032.3272699,W,1,24,0.7,12.825,M,-29.744,M,0.0,*51
###2023-12-09 13:20:22.987567$GNRMC,182022.10,A,4138.0515132,N,07032.3272817,W,3.38,184.12,091223,,,A*56
###2023-12-09 13:20:22.991047$GNGGA,182022.10,4138.0515132,N,07032.3272817,W,1,24,0.7,12.832,M,-29.744,M,0.0,*5D
###2023-12-09 13:20:22.993215$GPGSA,A,3,03,04,16,26,28,29,31,,,,,,1.1,0.7,0.9*3B
###2023-12-09 13:20:22.995306$GLGSA,A,3,65,71,72,73,74,75,,,,,,,1.1,0.7,0.9*25
###2023-12-09 13:20:22.997229$GAGSA,A,3,04,19,21,27,,,,,,,,,1.1,0.7,0.9*27
###2023-12-09 13:20:22.999317$GBGSA,A,3,14,24,25,26,33,35,,,,,,,1.1,0.7,0.9*28
###2023-12-09 13:20:23.002130$GPGSV,2,1,07,03,31,253,41,04,40,310,45,16,59,217,45,26,89,196,48*77
###2023-12-09 13:20:23.004616$GPGSV,2,2,07,28,43,079,45,29,23,053,42,31,64,055,47,,,,*45
###2023-12-09 13:20:23.007480$GLGSV,2,1,06,65,32,324,41,71,31,174,43,72,69,237,46,73,28,047,43*67
###2023-12-09 13:20:23.009479$GLGSV,2,2,06,74,65,,43,75,38,262,46,,,,,,,,*59
###2023-12-09 13:20:23.012301$GAGSV,1,1,04,04,35,311,43,19,78,187,39,21,82,056,46,27,27,049,39*66
###2023-12-09 13:20:23.015121$GBGSV,2,1,06,14,35,191,42,24,68,038,50,25,46,269,47,26,20,067,44*68
###2023-12-09 13:20:23.017232$GBGSV,2,2,06,33,51,223,46,35,16,062,45,,,,,,,,*6C
###2023-12-09 13:20:23.018845$GNVTG,184.12,T,,M,3.38,N,6.26,K,A*27
###2023-12-09 13:20:23.020839$GNGST,182022.10,18.000,,,,0.100,0.069,0.160*5D
###2023-12-09 13:20:23.022394$GNZDA,182022.10,09,12,2023,00,00*7B
###2023-12-09 13:20:23.023181$GNEBP,,,,,,M*13
###2023-12-09 13:20:23.182370$GNGGA,182022.30,4138.0513179,N,07032.3272999,W,1,24,0.7,12.836,M,-29.744,M,0.0,*55
###2023-12-09 13:20:23.381746$GNGGA,182022.50,4138.0511152,N,07032.3273173,W,1,24,0.7,12.815,M,-29.744,M,0.0,*54
###2023-12-09 13:20:23.583959$GNGGA,182022.70,4138.0509276,N,07032.3273341,W,1,24,0.7,12.836,M,-29.744,M,0.0,*58
###2023-12-09 13:20:23.782413$GNGGA,182022.90,4138.0507370,N,07032.3273725,W,1,24,0.7,12.876,M,-29.744,M,0.0,*5D
###2023-12-09 13:20:23.987308$GNRMC,182023.10,A,4138.0505417,N,07032.3273772,W,3.42,175.14,091223,,,A*5C
###2023-12-09 13:20:23.990178$GNGGA,182023.10,4138.0505417,N,07032.3273772,W,1,24,0.7,12.820,M,-29.744,M,0.0,*51
###2023-12-09 13:20:23.991988$GPGSA,A,3,03,04,16,26,28,29,31,,,,,,1.1,0.7,0.9*3B
###2023-12-09 13:20:23.993702$GLGSA,A,3,65,71,72,73,74,75,,,,,,,1.1,0.7,0.9*25
###2023-12-09 13:20:23.995296$GAGSA,A,3,04,19,21,27,,,,,,,,,1.1,0.7,0.9*27
###2023-12-09 13:20:23.997006$GBGSA,A,3,14,24,25,26,33,35,,,,,,,1.1,0.7,0.9*28
###2023-12-09 13:20:23.999350$GPGSV,2,1,07,03,31,253,41,04,40,310,45,16,59,217,46,26,89,196,48*74
###2023-12-09 13:20:24.001384$GPGSV,2,2,07,28,43,079,46,29,23,053,41,31,64,055,47,,,,*45
###2023-12-09 13:20:24.003720$GLGSV,2,1,06,65,32,324,41,71,31,174,41,72,69,237,45,73,28,047,39*6B
###2023-12-09 13:20:24.005370$GLGSV,2,2,06,74,65,,42,75,38,262,44,,,,,,,,*5A
###2023-12-09 13:20:24.007699$GAGSV,1,1,04,04,35,311,42,19,78,187,40,21,82,056,45,27,27,049,38*6B
###2023-12-09 13:20:24.010016$GBGSV,2,1,06,14,35,191,42,24,68,038,49,25,46,269,46,26,20,067,44*61
###2023-12-09 13:20:24.011772$GBGSV,2,2,06,33,51,223,47,35,16,062,45,,,,,,,,*6D
###2023-12-09 13:20:24.013096$GNVTG,175.14,T,,M,3.42,N,6.34,K,A*21
###2023-12-09 13:20:24.014747$GNGST,182023.10,18.000,,,,0.100,0.069,0.160*5C
###2023-12-09 13:20:24.016036$GNZDA,182023.10,09,12,2023,00,00*7A
###2023-12-09 13:20:24.016673$GNEBP,,,,,,M*13
###2023-12-09 13:20:24.183963$GNGGA,182023.30,4138.0503573,N,07032.3273773,W,1,24,0.7,12.797,M,-29.744,M,0.0,*54
###2023-12-09 13:20:24.382528$GNGGA,182023.50,4138.0501651,N,07032.3274370,W,1,24,0.7,12.857,M,-29.744,M,0.0,*50
###2023-12-09 13:20:24.583340$GNGGA,182023.70,4138.0499720,N,07032.3274835,W,1,24,0.7,12.851,M,-29.744,M,0.0,*59
###2023-12-09 13:20:24.784518$GNGGA,182023.90,4138.0497888,N,07032.3274578,W,1,24,0.7,12.826,M,-29.744,M,0.0,*50
###2023-12-09 13:20:24.988924$GNRMC,182024.10,A,4138.0496020,N,07032.3274294,W,3.48,183.64,091223,,,A*5E
###2023-12-09 13:20:24.991794$GNGGA,182024.10,4138.0496020,N,07032.3274294,W,1,24,0.7,12.826,M,-29.744,M,0.0,*51
###2023-12-09 13:20:24.993585$GPGSA,A,3,03,04,16,26,28,29,31,,,,,,1.1,0.7,0.9*3B
###2023-12-09 13:20:24.995311$GLGSA,A,3,65,71,72,73,74,75,,,,,,,1.1,0.7,0.9*25
###2023-12-09 13:20:24.996903$GAGSA,A,3,04,19,21,27,,,,,,,,,1.1,0.7,0.9*27
###2023-12-09 13:20:24.998630$GBGSA,A,3,14,24,25,26,33,35,,,,,,,1.1,0.7,0.9*28
###2023-12-09 13:20:25.000970$GPGSV,2,1,07,03,31,253,40,04,40,310,44,16,59,217,45,26,89,196,48*77
###2023-12-09 13:20:25.003029$GPGSV,2,2,07,28,43,079,45,29,23,053,43,31,64,055,48,,,,*4B
###2023-12-09 13:20:25.005365$GLGSV,2,1,06,65,32,324,42,71,31,174,43,72,69,237,45,73,28,047,44*60
###2023-12-09 13:20:25.007019$GLGSV,2,2,06,74,65,,43,75,38,262,46,,,,,,,,*59
###2023-12-09 13:20:25.009347$GAGSV,1,1,04,04,35,311,42,19,78,187,40,21,82,056,47,27,27,049,42*64
###2023-12-09 13:20:25.011684$GBGSV,2,1,06,14,35,191,41,24,68,038,49,25,46,269,46,26,20,067,45*63
###2023-12-09 13:20:25.013436$GBGSV,2,2,06,33,51,223,44,35,16,062,45,,,,,,,,*6E
###2023-12-09 13:20:25.014774$GNVTG,183.64,T,,M,3.48,N,6.44,K,A*22
###2023-12-09 13:20:25.016422$GNGST,182024.10,18.000,,,,0.100,0.070,0.160*53
###2023-12-09 13:20:25.017716$GNZDA,182024.10,09,12,2023,00,00*7D
###2023-12-09 13:20:25.018355$GNEBP,,,,,,M*13
###2023-12-09 13:20:25.183887$GNGGA,182024.30,4138.0494061,N,07032.3274667,W,1,24,0.7,12.843,M,-29.744,M,0.0,*5F
###2023-12-09 13:20:25.384517$GNGGA,182024.50,4138.0492173,N,07032.3274991,W,1,24,0.7,12.847,M,-29.744,M,0.0,*5F
###2023-12-09 13:20:25.585951$GNGGA,182024.70,4138.0490283,N,07032.3274731,W,1,24,0.7,12.845,M,-29.744,M,0.0,*55
###2023-12-09 13:20:25.784961$GNGGA,182024.90,4138.0488427,N,07032.3274316,W,1,24,0.7,12.824,M,-29.744,M,0.0,*5C
###2023-12-09 13:20:25.986962$GNRMC,182025.10,A,4138.0486584,N,07032.3274680,W,3.48,192.00,091223,,,A*56
###2023-12-09 13:20:25.989824$GNGGA,182025.10,4138.0486584,N,07032.3274680,W,1,24,0.7,12.866,M,-29.744,M,0.0,*5F
###2023-12-09 13:20:25.991637$GPGSA,A,3,03,04,16,26,28,29,31,,,,,,1.1,0.7,0.9*3B
###2023-12-09 13:20:25.993353$GLGSA,A,3,65,71,72,73,74,75,,,,,,,1.1,0.7,0.9*25
###2023-12-09 13:20:25.994950$GAGSA,A,3,04,19,21,27,,,,,,,,,1.1,0.7,0.9*27
###2023-12-09 13:20:25.996665$GBGSA,A,3,14,24,25,26,33,35,,,,,,,1.1,0.7,0.9*28
###2023-12-09 13:20:25.999006$GPGSV,2,1,07,03,31,253,43,04,40,310,45,16,59,217,46,26,89,196,48*76
###2023-12-09 13:20:26.001046$GPGSV,2,2,07,28,43,079,45,29,23,053,43,31,64,055,48,,,,*4B
###2023-12-09 13:20:26.003392$GLGSV,2,1,06,65,32,324,43,71,31,174,43,72,69,237,46,73,28,047,44*62
###2023-12-09 13:20:26.005053$GLGSV,2,2,06,74,65,,43,75,38,262,45,,,,,,,,*5A
###2023-12-09 13:20:26.007398$GAGSV,1,1,04,04,35,311,43,19,78,187,40,21,82,056,47,27,27,049,41*66
###2023-12-09 13:20:26.009736$GBGSV,2,1,06,14,35,191,41,24,68,038,48,25,46,269,46,26,20,067,43*64
###2023-12-09 13:20:26.011496$GBGSV,2,2,06,33,51,223,47,35,16,062,44,,,,,,,,*6C
###2023-12-09 13:20:26.012821$GNVTG,192.00,T,,M,3.48,N,6.44,K,A*20
###2023-12-09 13:20:26.014468$GNGST,182025.10,18.000,,,,0.100,0.070,0.160*52
###2023-12-09 13:20:26.015774$GNZDA,182025.10,09,12,2023,00,00*7C
###2023-12-09 13:20:26.016414$GNEBP,,,,,,M*13
###2023-12-09 13:20:26.185530$GNGGA,182025.30,4138.0484632,N,07032.3274913,W,1,24,0.7,12.860,M,-29.744,M,0.0,*52
###2023-12-09 13:20:26.383521$GNGGA,182025.50,4138.0482828,N,07032.3274677,W,1,24,0.7,12.811,M,-29.744,M,0.0,*5C
###2023-12-09 13:20:26.585577$GNGGA,182025.70,4138.0481067,N,07032.3274766,W,1,24,0.7,12.862,M,-29.744,M,0.0,*5B
###2023-12-09 13:20:26.784492$GNGGA,182025.90,4138.0479178,N,07032.3275106,W,1,24,0.7,12.873,M,-29.744,M,0.0,*5C
###2023-12-09 13:20:26.996893$GNRMC,182026.10,A,4138.0477392,N,07032.3275144,W,3.23,176.28,091223,,,A*59
###2023-12-09 13:20:26.999751$GNGGA,182026.10,4138.0477392,N,07032.3275144,W,1,24,0.7,12.831,M,-29.744,M,0.0,*5F
###2023-12-09 13:20:27.001541$GPGSA,A,3,03,04,16,26,28,29,31,,,,,,1.1,0.7,0.9*3B
###2023-12-09 13:20:27.003261$GLGSA,A,3,65,71,72,73,74,75,,,,,,,1.1,0.7,0.9*25
###2023-12-09 13:20:27.005121$GAGSA,A,3,04,19,21,27,,,,,,,,,1.1,0.7,0.9*27
###2023-12-09 13:20:27.006876$GBGSA,A,3,14,24,25,26,33,35,,,,,,,1.1,0.7,0.9*28
###2023-12-09 13:20:27.009225$GPGSV,2,1,07,03,31,253,43,04,40,310,45,16,59,217,46,26,89,196,48*76
###2023-12-09 13:20:27.011296$GPGSV,2,2,07,28,43,079,45,29,23,053,43,31,64,055,48,,,,*4B
###2023-12-09 13:20:27.013636$GLGSV,2,1,06,65,32,324,43,71,31,174,43,72,69,237,45,73,28,047,42*67
###2023-12-09 13:20:27.015307$GLGSV,2,2,06,74,65,,43,75,38,262,46,,,,,,,,*59
###2023-12-09 13:20:27.017641$GAGSV,1,1,04,04,35,311,43,19,78,187,40,21,82,056,46,27,27,049,40*66
###2023-12-09 13:20:27.019994$GBGSV,2,1,06,14,35,191,42,24,68,038,49,25,46,269,48,26,20,067,44*6F
###2023-12-09 13:20:27.021752$GBGSV,2,2,06,33,51,223,48,35,16,062,45,,,,,,,,*62
###2023-12-09 13:20:27.023091$GNVTG,176.28,T,,M,3.23,N,5.98,K,A*2F
