###2023-12-09 13:22:45.025052$GNEBP,,,,,,M*13
###2023-12-09 13:22:45.188800$GNGGA,182244.30,4138.0534954,N,07032.3606762,W,1,24,0.7,13.012,M,-29.744,M,0.0,*57
###2023-12-09 13:22:45.385745$GNGGA,182244.50,4138.0532963,N,07032.3606855,W,1,24,0.7,13.013,M,-29.744,M,0.0,*59
###2023-12-09 13:22:45.585469$GNGGA,182244.70,4138.0530986,N,07032.3607050,W,1,24,0.7,13.021,M,-29.744,M,0.0,*5F
###2023-12-09 13:22:45.785710$GNGGA,182244.90,4138.0528980,N,07032.3607071,W,1,24,0.7,12.997,M,-29.744,M,0.0,*58
###2023-12-09 13:22:45.989175$GNRMC,182245.10,A,4138.0527048,N,07032.3607259,W,3.36,190.67,091223,,,A*57
###2023-12-09 13:22:45.992056$GNGGA,182245.10,4138.0527048,N,07032.3607259,W,1,24,0.7,13.006,M,-29.744,M,0.0,*5B
###2023-12-09 13:22:45.993842$GPGSA,A,3,03,04,16,26,28,29,31,,,,,,1.1,0.7,0.9*3B
###2023-12-09 13:22:45.995560$GLGSA,A,3,65,71,72,73,74,75,,,,,,,1.1,0.7,0.9*25
###2023-12-09 13:22:45.997144$GAGSA,A,3,04,19,21,27,,,,,,,,,1.1,0.7,0.9*27
###2023-12-09 13:22:45.998868$GBGSA,A,3,14,24,25,26,33,35,,,,,,,1.1,0.7,0.9*28
###2023-12-09 13:22:46.001194$GPGSV,2,1,07,03,30,252,42,04,41,310,46,16,60,218,47,26,90,099,49*76
###2023-12-09 13:22:46.003245$GPGSV,2,2,07,28,42,080,46,29,23,052,44,31,63,057,48,,,,*4C
###2023-12-09 13:22:46.005575$GLGSV,2,1,06,65,34,323,43,71,29,175,42,72,68,232,45,73,27,049,42*6A
###2023-12-09 13:22:46.007342$GLGSV,2,2,06,74,64,002,43,75,39,263,46,,,,,,,,*6A
###2023-12-09 13:22:46.009666$GAGSV,1,1,04,04,36,311,44,19,77,186,40,21,81,054,46,27,26,049,40*6C
###2023-12-09 13:22:46.012011$GBGSV,2,1,06,14,34,191,42,24,66,040,49,25,47,271,47,26,19,068,45*6C
###2023-12-09 13:22:46.013760$GBGSV,2,2,06,33,50,221,44,35,16,061,45,,,,,,,,*6E
###2023-12-09 13:22:46.015102$GNVTG,190.67,T,,M,3.36,N,6.23,K,A*2B
###2023-12-09 13:22:46.016757$GNGST,182245.10,18.000,,,,0.100,0.069,0.160*5E
###2023-12-09 13:22:46.018049$GNZDA,182245.10,09,12,2023,00,00*78
###2023-12-09 13:22:46.018701$GNEBP,,,,,,M*13
###2023-12-09 13:22:46.184886$GNGGA,182245.30,4138.0525096,N,07032.3607730,W,1,24,0.7,13.022,M,-29.744,M,0.0,*54
###2023-12-09 13:22:46.385560$GNGGA,182245.50,4138.0523111,N,07032.3607859,W,1,24,0.7,12.982,M,-29.744,M,0.0,*58
###2023-12-09 13:22:46.585378$GNGGA,182245.70,4138.0521190,N,07032.3608073,W,1,24,0.7,12.992,M,-29.744,M,0.0,*5F
###2023-12-09 13:22:46.785385$GNGGA,182245.90,4138.0519192,N,07032.3608680,W,1,24,0.7,13.025,M,-29.744,M,0.0,*56
###2023-12-09 13:22:46.990415$GNRMC,182246.10,A,4138.0517243,N,07032.3608867,W,3.38,181.70,091223,,,A*5E
###2023-12-09 13:22:46.993307$GNGGA,182246.10,4138.0517243,N,07032.3608867,W,1,24,0.7,12.993,M,-29.744,M,0.0,*5E
###2023-12-09 13:22:46.995146$GPGSA,A,3,03,04,16,26,28,29,31,,,,,,1.1,0.7,0.9*3B
###2023-12-09 13:22:46.996864$GLGSA,A,3,65,71,72,73,74,75,,,,,,,1.1,0.7,0.9*25
###2023-12-09 13:22:46.998444$GAGSA,A,3,04,19,21,27,,,,,,,,,1.1,0.7,0.9*27
###2023-12-09 13:22:47.000167$GBGSA,A,3,14,24,25,26,33,35,,,,,,,1.1,0.7,0.9*28
###2023-12-09 13:22:47.002489$GPGSV,2,1,07,03,30,252,43,04,41,310,46,16,60,218,46,26,90,099,49*76
###2023-12-09 13:22:47.004549$GPGSV,2,2,07,28,42,080,45,29,23,052,41,31,63,057,47,,,,*45
###2023-12-09 13:22:47.006893$GLGSV,2,1,06,65,34,323,44,71,29,175,42,72,68,232,46,73,27,049,42*6E
###2023-12-09 13:22:47.008643$GLGSV,2,2,06,74,63,004,43,75,39,263,47,,,,,,,,*6A
###2023-12-09 13:22:47.010971$GAGSV,1,1,04,04,36,311,44,19,77,186,40,21,81,054,46,27,26,049,39*62
###2023-12-09 13:22:47.013303$GBGSV,2,1,06,14,34,191,42,24,66,040,48,25,47,271,47,26,19,068,43*6B
###2023-12-09 13:22:47.015062$GBGSV,2,2,06,33,50,221,46,35,16,061,43,,,,,,,,*6A
###2023-12-09 13:22:47.016384$GNVTG,181.70,T,,M,3.38,N,6.26,K,A*26
###2023-12-09 13:22:47.018027$GNGST,182246.10,18.000,,,,0.100,0.069,0.160*5D
###2023-12-09 13:22:47.019329$GNZDA,182246.10,09,12,2023,00,00*7B
###2023-12-09 13:22:47.019965$GNEBP,,,,,,M*13
###2023-12-09 13:22:47.184982$GNGGA,182246.30,4138.0515274,N,07032.3608874,W,1,24,0.7,12.986,M,-29.744,M,0.0,*5C
###2023-12-09 13:22:47.384582$GNGGA,182246.50,4138.0513270,N,07032.3608982,W,1,24,0.7,12.977,M,-29.744,M,0.0,*5E
###2023-12-09 13:22:47.586253$GNGGA,182246.70,4138.0511293,N,07032.3609288,W,1,24,0.7,13.005,M,-29.744,M,0.0,*5E
###2023-12-09 13:22:47.785925$GNGGA,182246.90,4138.0509305,N,07032.3609454,W,1,24,0.7,13.022,M,-29.744,M,0.0,*55
###2023-12-09 13:22:47.990368$GNRMC,182247.10,A,4138.0507321,N,07032.3609216,W,3.58,167.75,091223,,,A*5D
###2023-12-09 13:22:47.993258$GNGGA,182247.10,4138.0507321,N,07032.3609216,W,1,24,0.7,12.997,M,-29.744,M,0.0,*52
###2023-12-09 13:22:47.995062$GPGSA,A,3,03,04,16,26,28,29,31,,,,,,1.1,0.7,0.9*3B
###2023-12-09 13:22:47.996781$GLGSA,A,3,65,71,72,73,74,75,,,,,,,1.1,0.7,0.9*25
###2023-12-09 13:22:47.998364$GAGSA,A,3,04,19,21,27,,,,,,,,,1.1,0.7,0.9*27
###2023-12-09 13:22:48.000080$GBGSA,A,3,14,24,25,26,33,35,,,,,,,1.1,0.7,0.9*28
###2023-12-09 13:22:48.002404$GPGSV,2,1,07,03,30,252,42,04,41,310,46,16,60,218,46,26,90,099,48*76
###2023-12-09 13:22:48.004451$GPGSV,2,2,07,28,42,080,45,29,23,052,41,31,63,057,47,,,,*45
###2023-12-09 13:22:48.006791$GLGSV,2,1,06,65,34,323,42,71,29,175,42,72,68,232,46,73,27,049,42*68
###2023-12-09 13:22:48.008537$GLGSV,2,2,06,74,63,004,43,75,40,265,47,,,,,,,,*62
###2023-12-09 13:22:48.010871$GAGSV,1,1,04,04,36,311,43,19,77,186,40,21,81,054,45,27,26,049,39*66
###2023-12-09 13:22:48.013205$GBGSV,2,1,06,14,34,191,42,24,66,040,48,25,47,271,48,26,19,068,43*64
###2023-12-09 13:22:48.014962$GBGSV,2,2,06,33,50,221,47,35,16,061,43,,,,,,,,*6B
###2023-12-09 13:22:48.016283$GNVTG,167.75,T,,M,3.58,N,6.62,K,A*2D
###2023-12-09 13:22:48.017942$GNGST,182247.10,19.000,,,,0.100,0.069,0.160*5D
###2023-12-09 13:22:48.019245$GNZDA,182247.10,09,12,2023,00,00*7A
###2023-12-09 13:22:48.019884$GNEBP,,,,,,M*13
###2023-12-09 13:22:48.186920$GNGGA,182247.30,4138.0505426,N,07032.3608742,W,1,24,0.7,12.971,M,-29.744,M,0.0,*5F
###2023-12-09 13:22:48.386629$GNGGA,182247.50,4138.0503453,N,07032.3608970,W,1,24,0.7,13.027,M,-29.744,M,0.0,*59
###2023-12-09 13:22:48.586324$GNGGA,182247.70,4138.0501406,N,07032.3609131,W,1,24,0.7,13.012,M,-29.744,M,0.0,*53
###2023-12-09 13:22:48.788071$GNGGA,182247.90,4138.0499498,N,07032.3608809,W,1,24,0.7,12.973,M,-29.744,M,0.0,*56
###2023-12-09 13:22:48.992584$GNRMC,182248.10,A,4138.0497542,N,07032.3608619,W,3.67,181.43,091223,,,A*52
###2023-12-09 13:22:48.996100$GNGGA,182248.10,4138.0497542,N,07032.3608619,W,1,24,0.7,12.990,M,-29.744,M,0.0,*5B
###2023-12-09 13:22:48.998292$GPGSA,A,3,03,04,16,26,28,29,31,,,,,,1.1,0.7,0.9*3B
###2023-12-09 13:22:49.000423$GLGSA,A,3,65,71,72,73,74,75,,,,,,,1.1,0.7,0.9*25
###2023-12-09 13:22:49.002346$GAGSA,A,3,04,19,21,27,,,,,,,,,1.1,0.7,0.9*27
###2023-12-09 13:22:49.004443$GBGSA,A,3,14,24,25,26,33,35,,,,,,,1.1,0.7,0.9*28
###2023-12-09 13:22:49.007288$GPGSV,2,1,07,03,30,252,41,04,41,310,45,16,60,218,46,26,90,099,49*77
###2023-12-09 13:22:49.009758$GPGSV,2,2,07,28,42,080,45,29,23,052,44,31,63,057,47,,,,*40
###2023-12-09 13:22:49.012602$GLGSV,2,1,06,65,34,323,42,71,29,175,43,72,68,232,45,73,27,049,44*6C
###2023-12-09 13:22:49.014732$GLGSV,2,2,06,74,63,004,43,75,40,265,45,,,,,,,,*60
###2023-12-09 13:22:49.017542$GAGSV,1,1,04,04,36,311,44,19,77,186,40,21,81,054,46,27,26,049,42*6E
###2023-12-09 13:22:49.020363$GBGSV,2,1,06,14,34,191,42,24,66,040,48,25,47,271,46,26,19,068,43*6A
###2023-12-09 13:22:49.022480$GBGSV,2,2,06,33,50,221,45,35,16,061,44,,,,,,,,*6E
###2023-12-09 13:22:49.024096$GNVTG,181.43,T,,M,3.67,N,6.80,K,A*20
###2023-12-09 13:22:49.026092$GNGST,182248.10,18.000,,,,0.100,0.069,0.160*53
###2023-12-09 13:22:49.027665$GNZDA,182248.10,09,12,2023,00,00*75
###2023-12-09 13:22:49.028446$GNEBP,,,,,,M*13
###2023-12-09 13:22:49.186921$GNGGA,182248.30,4138.0495526,N,07032.3608891,W,1,24,0.7,13.007,M,-29.744,M,0.0,*51
###2023-12-09 13:22:49.387599$GNGGA,182248.50,4138.0493584,N,07032.3609199,W,1,24,0.7,12.990,M,-29.744,M,0.0,*5F
###2023-12-09 13:22:49.589041$GNGGA,182248.70,4138.0491623,N,07032.3609180,W,1,24,0.7,12.977,M,-29.744,M,0.0,*50
###2023-12-09 13:22:49.786405$GNGGA,182248.90,4138.0489629,N,07032.3609256,W,1,24,0.7,12.961,M,-29.744,M,0.0,*52
###2023-12-09 13:22:49.990219$GNRMC,182249.10,A,4138.0487691,N,07032.3609694,W,3.58,191.08,091223,,,A*59
###2023-12-09 13:22:49.993343$GNGGA,182249.10,4138.0487691,N,07032.3609694,W,1,24,0.7,12.976,M,-29.744,M,0.0,*5A
###2023-12-09 13:22:49.995166$GPGSA,A,3,03,04,16,26,28,29,31,,,,,,1.1,0.7,0.9*3B
###2023-12-09 13:22:49.996884$GLGSA,A,3,65,71,72,73,74,75,,,,,,,1.1,0.7,0.9*25
###2023-12-09 13:22:49.998471$GAGSA,A,3,04,19,21,27,,,,,,,,,1.1,0.7,0.9*27
###2023-12-09 13:22:50.000206$GBGSA,A,3,14,24,25,26,33,35,,,,,,,1.1,0.7,0.9*28
###2023-12-09 13:22:50.002546$GPGSV,2,1,07,03,30,252,41,04,41,310,45,16,60,218,45,26,90,099,48*75
###2023-12-09 13:22:50.004615$GPGSV,2,2,07,28,42,080,44,29,23,052,41,31,63,057,47,,,,*44
###2023-12-09 13:22:50.006970$GLGSV,2,1,06,65,34,323,42,71,29,175,41,72,68,232,46,73,27,049,43*6A
###2023-12-09 13:22:50.008721$GLGSV,2,2,06,74,63,004,43,75,40,265,46,,,,,,,,*63
###2023-12-09 13:22:50.011063$GAGSV,1,1,04,04,36,311,43,19,77,186,40,21,81,054,47,27,26,049,40*6A
