###2023-12-09 12:25:15.928980$GPGSV,2,1,08,03,39,283,44,16,32,206,38,25,16,045,41,26,61,205,45*7A
###2023-12-09 12:25:15.931374$GPGSV,2,2,08,28,61,050,43,29,24,079,44,31,73,344,37,32,34,131,46*7B
###2023-12-09 12:25:15.933730$GLGSV,1,1,04,71,62,167,43,72,61,316,40,73,52,030,48,75,18,237,40*63
###2023-12-09 12:25:15.935802$GAGSV,1,1,03,04,18,310,36,21,74,180,45,27,45,051,46,,,,*5B
###2023-12-09 12:25:15.938140$GBGSV,1,1,04,14,59,200,44,25,29,249,37,26,38,055,48,33,64,264,37*66
###2023-12-09 12:25:15.939297$GNVTG,,T,,M,0.02,N,0.04,K,A*3B
###2023-12-09 12:25:15.940959$GNGST,172515.10,30.000,,,,0.220,0.210,0.410*56
###2023-12-09 12:25:15.942255$GNZDA,172515.10,09,12,2023,00,00*75
###2023-12-09 12:25:15.942927$GNEBP,,,,,,M*13
###2023-12-09 12:25:16.117426$GNGGA,172515.30,4138.0388505,N,07032.4364507,W,1,19,0.7,10.735,M,-29.746,M,0.0,*58
###2023-12-09 12:25:16.317823$GNGGA,172515.50,4138.0388481,N,07032.4364477,W,1,19,0.7,10.737,M,-29.746,M,0.0,*57
###2023-12-09 12:25:16.516210$GNGGA,172515.70,4138.0388447,N,07032.4364447,W,1,19,0.7,10.736,M,-29.746,M,0.0,*5D
###2023-12-09 12:25:16.715965$GNGGA,172515.90,4138.0388410,N,07032.4364430,W,1,19,0.7,10.728,M,-29.746,M,0.0,*5E
###2023-12-09 12:25:16.920952$GNRMC,172516.10,A,4138.0388380,N,07032.4364405,W,0.04,,091223,,,A*40
###2023-12-09 12:25:16.923851$GNGGA,172516.10,4138.0388380,N,07032.4364405,W,1,19,0.7,10.726,M,-29.746,M,0.0,*53
###2023-12-09 12:25:16.925732$GPGSA,A,3,03,16,25,26,28,29,31,32,,,,,1.2,0.7,1.0*32
###2023-12-09 12:25:16.927357$GLGSA,A,3,71,72,73,75,,,,,,,,,1.2,0.7,1.0*2E
###2023-12-09 12:25:16.928907$GAGSA,A,3,04,21,27,,,,,,,,,,1.2,0.7,1.0*24
###2023-12-09 12:25:16.930516$GBGSA,A,3,14,25,26,33,,,,,,,,,1.2,0.7,1.0*23
###2023-12-09 12:25:16.932882$GPGSV,2,1,08,03,39,283,45,16,32,206,38,25,16,045,40,26,61,205,45*7A
###2023-12-09 12:25:16.935254$GPGSV,2,2,08,28,61,050,43,29,24,079,43,31,73,344,36,32,34,131,46*7D
###2023-12-09 12:25:16.937606$GLGSV,1,1,04,71,62,167,43,72,61,316,39,73,52,030,48,75,18,237,40*6D
###2023-12-09 12:25:16.939679$GAGSV,1,1,03,04,18,310,35,21,74,180,44,27,45,051,46,,,,*59
###2023-12-09 12:25:16.942032$GBGSV,1,1,04,14,59,200,44,25,29,249,37,26,38,055,46,33,64,264,37*68
###2023-12-09 12:25:16.943196$GNVTG,,T,,M,0.04,N,0.07,K,A*3E
###2023-12-09 12:25:16.944858$GNGST,172516.10,30.000,,,,0.220,0.210,0.410*55
###2023-12-09 12:25:16.946165$GNZDA,172516.10,09,12,2023,00,00*76
###2023-12-09 12:25:16.946847$GNEBP,,,,,,M*13
###2023-12-09 12:25:17.117118$GNGGA,172516.30,4138.0388357,N,07032.4364388,W,1,19,0.7,10.720,M,-29.746,M,0.0,*5F
###2023-12-09 12:25:17.317466$GNGGA,172516.50,4138.0388343,N,07032.4364369,W,1,19,0.7,10.709,M,-29.746,M,0.0,*58
###2023-12-09 12:25:17.517129$GNGGA,172516.70,4138.0388304,N,07032.4364346,W,1,19,0.7,10.706,M,-29.746,M,0.0,*5B
###2023-12-09 12:25:17.714351$GNGGA,172516.90,4138.0388281,N,07032.4364315,W,1,19,0.7,10.707,M,-29.746,M,0.0,*5E
###2023-12-09 12:25:17.917399$GNRMC,172517.10,A,4138.0388256,N,07032.4364310,W,0.02,,091223,,,A*4E
###2023-12-09 12:25:17.920304$GNGGA,172517.10,4138.0388256,N,07032.4364310,W,1,19,0.7,10.696,M,-29.746,M,0.0,*51
###2023-12-09 12:25:17.922175$GPGSA,A,3,03,16,25,26,28,29,31,32,,,,,1.2,0.7,1.0*32
###2023-12-09 12:25:17.923793$GLGSA,A,3,71,72,73,75,,,,,,,,,1.2,0.7,1.0*2E
###2023-12-09 12:25:17.925332$GAGSA,A,3,04,21,27,,,,,,,,,,1.2,0.7,1.0*24
###2023-12-09 12:25:17.926947$GBGSA,A,3,14,25,26,33,,,,,,,,,1.2,0.7,1.0*23
###2023-12-09 12:25:17.929300$GPGSV,2,1,08,03,39,283,45,16,32,206,38,25,16,045,40,26,61,205,45*7A
###2023-12-09 12:25:17.931672$GPGSV,2,2,08,28,61,050,44,29,24,079,43,31,73,344,36,32,34,131,46*7A
###2023-12-09 12:25:17.934030$GLGSV,1,1,04,71,62,167,43,72,61,316,40,73,52,030,48,75,18,237,41*62
###2023-12-09 12:25:17.936117$GAGSV,1,1,03,04,18,310,36,21,74,180,45,27,45,051,46,,,,*5B
###2023-12-09 12:25:17.938466$GBGSV,1,1,04,14,59,200,45,25,29,249,38,26,38,055,46,33,64,264,37*66
###2023-12-09 12:25:17.939672$GNVTG,,T,,M,0.02,N,0.04,K,A*3B
###2023-12-09 12:25:17.941339$GNGST,172517.10,30.000,,,,0.220,0.210,0.420*57
###2023-12-09 12:25:17.942660$GNZDA,172517.10,09,12,2023,00,00*77
###2023-12-09 12:25:17.943315$GNEBP,,,,,,M*13
###2023-12-09 12:25:18.116117$GNGGA,172517.30,4138.0388233,N,07032.4364277,W,1,19,0.7,10.697,M,-29.746,M,0.0,*51
###2023-12-09 12:25:18.316203$GNGGA,172517.50,4138.0388205,N,07032.4364243,W,1,19,0.7,10.691,M,-29.746,M,0.0,*53
###2023-12-09 12:25:18.516066$GNGGA,172517.70,4138.0388171,N,07032.4364227,W,1,19,0.7,10.685,M,-29.746,M,0.0,*56
###2023-12-09 12:25:18.715257$GNGGA,172517.90,4138.0388135,N,07032.4364199,W,1,19,0.7,10.683,M,-29.746,M,0.0,*58
###2023-12-09 12:25:18.920412$GNRMC,172518.10,A,4138.0388104,N,07032.4364172,W,0.02,,091223,,,A*43
###2023-12-09 12:25:18.923479$GNGGA,172518.10,4138.0388104,N,07032.4364172,W,1,19,0.7,10.676,M,-29.746,M,0.0,*52
###2023-12-09 12:25:18.925523$GPGSA,A,3,03,16,25,26,28,29,31,32,,,,,1.2,0.7,1.0*32
###2023-12-09 12:25:18.927299$GLGSA,A,3,71,72,73,75,,,,,,,,,1.2,0.7,1.0*2E
###2023-12-09 12:25:18.928990$GAGSA,A,3,04,21,27,,,,,,,,,,1.2,0.7,1.0*24
###2023-12-09 12:25:18.930756$GBGSA,A,3,14,25,26,33,,,,,,,,,1.2,0.7,1.0*23
###2023-12-09 12:25:18.933246$GPGSV,2,1,08,03,39,283,44,16,32,206,38,25,16,045,39,26,61,205,44*74
###2023-12-09 12:25:18.935760$GPGSV,2,2,08,28,61,050,43,29,24,079,43,31,73,344,36,32,34,131,45*7E
###2023-12-09 12:25:18.938272$GLGSV,1,1,04,71,62,167,43,72,61,316,40,73,52,030,48,75,18,237,40*63
###2023-12-09 12:25:18.940503$GAGSV,1,1,03,04,18,310,36,21,74,180,45,27,45,051,46,,,,*5B
###2023-12-09 12:25:18.942991$GBGSV,1,1,04,14,59,200,45,25,29,249,37,26,38,055,48,33,64,264,37*67
###2023-12-09 12:25:18.944248$GNVTG,,T,,M,0.02,N,0.04,K,A*3B
###2023-12-09 12:25:18.946005$GNGST,172518.10,30.000,,,,0.220,0.210,0.420*58
###2023-12-09 12:25:18.947433$GNZDA,172518.10,09,12,2023,00,00*78
###2023-12-09 12:25:18.948216$GNEBP,,,,,,M*13
###2023-12-09 12:25:19.116133$GNGGA,172518.30,4138.0388074,N,07032.4364145,W,1,19,0.7,10.674,M,-29.746,M,0.0,*50
###2023-12-09 12:25:19.318117$GNGGA,172518.50,4138.0388028,N,07032.4364123,W,1,19,0.7,10.674,M,-29.746,M,0.0,*5F
###2023-12-09 12:25:19.516104$GNGGA,172518.70,4138.0388010,N,07032.4364097,W,1,19,0.7,10.674,M,-29.746,M,0.0,*58
###2023-12-09 12:25:19.715269$GNGGA,172518.90,4138.0387972,N,07032.4364081,W,1,19,0.7,10.667,M,-29.746,M,0.0,*51
###2023-12-09 12:25:19.917656$GNRMC,172519.10,A,4138.0387941,N,07032.4364057,W,0.02,,091223,,,A*42
###2023-12-09 12:25:19.920550$GNGGA,172519.10,4138.0387941,N,07032.4364057,W,1,19,0.7,10.665,M,-29.746,M,0.0,*51
###2023-12-09 12:25:19.922439$GPGSA,A,3,03,16,25,26,28,29,31,32,,,,,1.2,0.7,1.0*32
###2023-12-09 12:25:19.924067$GLGSA,A,3,71,72,73,75,,,,,,,,,1.2,0.7,1.0*2E
###2023-12-09 12:25:19.925606$GAGSA,A,3,04,21,27,,,,,,,,,,1.2,0.7,1.0*24
###2023-12-09 12:25:19.927227$GBGSA,A,3,14,25,26,33,,,,,,,,,1.2,0.7,1.0*23
###2023-12-09 12:25:19.929585$GPGSV,2,1,08,03,39,282,44,16,32,206,38,25,16,045,40,26,61,205,44*7B
###2023-12-09 12:25:19.931969$GPGSV,2,2,08,28,61,050,43,29,24,079,43,31,73,344,35,32,34,131,46*7E
###2023-12-09 12:25:19.934320$GLGSV,1,1,04,71,62,167,42,72,61,316,40,73,52,030,48,75,18,237,41*63
###2023-12-09 12:25:19.936386$GAGSV,1,1,03,04,18,310,36,21,74,180,45,27,45,051,46,,,,*5B
###2023-12-09 12:25:19.938753$GBGSV,1,1,04,14,59,200,44,25,29,249,37,26,38,055,47,33,64,264,36*68
###2023-12-09 12:25:19.939908$GNVTG,,T,,M,0.02,N,0.04,K,A*3B
###2023-12-09 12:25:19.941574$GNGST,172519.10,30.000,,,,0.220,0.210,0.420*59
###2023-12-09 12:25:19.942908$GNZDA,172519.10,09,12,2023,00,00*79
###2023-12-09 12:25:19.943578$GNEBP,,,,,,M*13
###2023-12-09 12:25:20.117993$GNGGA,172519.30,4138.0387920,N,07032.4364031,W,1,19,0.7,10.664,M,-29.746,M,0.0,*55
###2023-12-09 12:25:20.316067$GNGGA,172519.50,4138.0387879,N,07032.4364013,W,1,19,0.7,10.656,M,-29.746,M,0.0,*5F
###2023-12-09 12:25:20.515911$GNGGA,172519.70,4138.0387855,N,07032.4363991,W,1,19,0.7,10.654,M,-29.746,M,0.0,*55
###2023-12-09 12:25:20.715136$GNGGA,172519.90,4138.0387833,N,07032.4363974,W,1,19,0.7,10.650,M,-29.746,M,0.0,*54
###2023-12-09 12:25:20.920367$GNRMC,172520.10,A,4138.0387794,N,07032.4363946,W,0.02,,091223,,,A*40
###2023-12-09 12:25:20.923455$GNGGA,172520.10,4138.0387794,N,07032.4363946,W,1,19,0.7,10.639,M,-29.746,M,0.0,*5A
###2023-12-09 12:25:20.925776$GPGSA,A,3,03,16,25,26,28,29,31,32,,,,,1.2,0.7,1.0*32
###2023-12-09 12:25:20.927566$GLGSA,A,3,71,72,73,75,,,,,,,,,1.2,0.7,1.0*2E
###2023-12-09 12:25:20.929268$GAGSA,A,3,04,21,27,,,,,,,,,,1.2,0.7,1.0*24
###2023-12-09 12:25:20.931035$GBGSA,A,3,14,25,26,33,,,,,,,,,1.2,0.7,1.0*23
###2023-12-09 12:25:20.933521$GPGSV,2,1,08,03,39,282,44,16,32,206,38,25,16,045,40,26,61,205,44*7B
###2023-12-09 12:25:20.936028$GPGSV,2,2,08,28,61,050,43,29,24,079,44,31,73,344,35,32,34,131,46*79
###2023-12-09 12:25:20.938525$GLGSV,1,1,04,71,62,167,43,72,61,316,40,73,52,030,48,75,18,237,41*62
###2023-12-09 12:25:20.940751$GAGSV,1,1,03,04,18,310,36,21,74,180,45,27,45,051,46,,,,*5B
###2023-12-09 12:25:20.943214$GBGSV,1,1,04,14,59,200,45,25,29,249,38,26,38,055,48,33,64,264,36*69
