###2023-12-09 13:12:54.989610$GPGSV,2,1,07,03,33,256,43,04,37,311,44,16,55,215,46,26,85,210,48*7E
###2023-12-09 13:12:54.991705$GPGSV,2,2,07,28,46,075,41,29,24,056,40,31,66,048,45,,,,*44
###2023-12-09 13:12:54.994052$GLGSV,2,1,06,65,29,325,41,71,34,174,45,72,71,246,46,73,31,045,44*6D
###2023-12-09 13:12:54.995823$GLGSV,2,2,06,74,66,353,43,75,36,259,48,,,,,,,,*67
###2023-12-09 13:12:54.998152$GAGSV,1,1,04,04,33,312,43,19,81,194,40,21,84,070,45,27,29,048,41*68
###2023-12-09 13:12:55.000506$GBGSV,2,1,06,14,38,192,45,24,70,034,48,25,44,267,46,26,22,065,43*67
###2023-12-09 13:12:55.002254$GBGSV,2,2,06,33,53,226,48,35,15,065,43,,,,,,,,*67
###2023-12-09 13:12:55.003567$GNVTG,87.14,T,,M,3.77,N,6.98,K,A*1D
###2023-12-09 13:12:55.005212$GNGST,181254.10,18.000,,,,0.097,0.071,0.170*5A
###2023-12-09 13:12:55.006498$GNZDA,181254.10,09,12,2023,00,00*7B
###2023-12-09 13:12:55.007157$GNEBP,,,,,,M*13
###2023-12-09 13:12:55.173618$GNGGA,181254.30,4138.0448817,N,07032.2764601,W,1,24,0.7,12.817,M,-29.743,M,0.0,*52
###2023-12-09 13:12:55.373825$GNGGA,181254.50,4138.0448769,N,07032.2762027,W,1,24,0.7,12.798,M,-29.743,M,0.0,*5E
###2023-12-09 13:12:55.573840$GNGGA,181254.70,4138.0448971,N,07032.2759377,W,1,24,0.7,12.818,M,-29.743,M,0.0,*52
###2023-12-09 13:12:55.773590$GNGGA,181254.90,4138.0449090,N,07032.2756718,W,1,24,0.7,12.797,M,-29.743,M,0.0,*51
###2023-12-09 13:12:55.978285$GNRMC,181255.10,A,4138.0449110,N,07032.2754111,W,3.62,90.86,091223,,,A*66
###2023-12-09 13:12:55.981182$GNGGA,181255.10,4138.0449110,N,07032.2754111,W,1,24,0.7,12.804,M,-29.743,M,0.0,*59
###2023-12-09 13:12:55.982981$GPGSA,A,3,03,04,16,26,28,29,31,,,,,,1.2,0.7,1.0*30
###2023-12-09 13:12:55.984705$GLGSA,A,3,65,71,72,73,74,75,,,,,,,1.2,0.7,1.0*2E
###2023-12-09 13:12:55.986293$GAGSA,A,3,04,19,21,27,,,,,,,,,1.2,0.7,1.0*2C
###2023-12-09 13:12:55.988020$GBGSA,A,3,14,24,25,26,33,35,,,,,,,1.2,0.7,1.0*23
###2023-12-09 13:12:55.990341$GPGSV,2,1,07,03,33,256,42,04,37,311,44,16,55,215,46,26,85,210,47*70
###2023-12-09 13:12:55.992392$GPGSV,2,2,07,28,46,075,42,29,24,056,40,31,66,048,45,,,,*47
###2023-12-09 13:12:55.994730$GLGSV,2,1,06,65,29,325,41,71,34,174,45,72,71,246,46,73,31,045,44*6D
###2023-12-09 13:12:55.996478$GLGSV,2,2,06,74,66,353,42,75,36,259,48,,,,,,,,*66
###2023-12-09 13:12:55.998816$GAGSV,1,1,04,04,33,312,42,19,81,194,40,21,84,070,45,27,29,048,41*69
###2023-12-09 13:12:56.001142$GBGSV,2,1,06,14,38,192,44,24,70,034,48,25,44,267,46,26,22,065,43*66
###2023-12-09 13:12:56.002898$GBGSV,2,2,06,33,53,226,47,35,15,065,42,,,,,,,,*69
###2023-12-09 13:12:56.004191$GNVTG,90.86,T,,M,3.62,N,6.70,K,A*12
###2023-12-09 13:12:56.005837$GNGST,181255.10,18.000,,,,0.097,0.072,0.170*58
###2023-12-09 13:12:56.007170$GNZDA,181255.10,09,12,2023,00,00*7A
###2023-12-09 13:12:56.007809$GNEBP,,,,,,M*13
###2023-12-09 13:12:56.174117$GNGGA,181255.30,4138.0449028,N,07032.2751401,W,1,24,0.7,12.812,M,-29.743,M,0.0,*57
###2023-12-09 13:12:56.374558$GNGGA,181255.50,4138.0449008,N,07032.2748737,W,1,24,0.7,12.798,M,-29.743,M,0.0,*50
###2023-12-09 13:12:56.574444$GNGGA,181255.70,4138.0448985,N,07032.2746044,W,1,24,0.7,12.776,M,-29.743,M,0.0,*52
###2023-12-09 13:12:56.774444$GNGGA,181255.90,4138.0449042,N,07032.2743427,W,1,24,0.7,12.779,M,-29.743,M,0.0,*54
###2023-12-09 13:12:56.984061$GNRMC,181256.10,A,4138.0449067,N,07032.2740772,W,3.75,94.48,091223,,,A*62
###2023-12-09 13:12:56.986927$GNGGA,181256.10,4138.0449067,N,07032.2740772,W,1,24,0.7,12.806,M,-29.743,M,0.0,*5F
###2023-12-09 13:12:56.988729$GPGSA,A,3,03,04,16,26,28,29,31,,,,,,1.2,0.7,1.0*30
###2023-12-09 13:12:56.990437$GLGSA,A,3,65,71,72,73,74,75,,,,,,,1.2,0.7,1.0*2E
###2023-12-09 13:12:56.992032$GAGSA,A,3,04,19,21,27,,,,,,,,,1.2,0.7,1.0*2C
###2023-12-09 13:12:56.993743$GBGSA,A,3,14,24,25,26,33,35,,,,,,,1.2,0.7,1.0*23
###2023-12-09 13:12:56.996078$GPGSV,2,1,07,03,33,256,44,04,37,311,45,16,55,215,47,26,85,210,48*79
###2023-12-09 13:12:56.998118$GPGSV,2,2,07,28,46,075,43,29,24,056,43,31,66,048,46,,,,*46
###2023-12-09 13:12:57.000448$GLGSV,2,1,06,65,29,325,42,71,34,174,44,72,71,246,46,73,31,045,44*6F
###2023-12-09 13:12:57.002196$GLGSV,2,2,06,74,66,353,43,75,36,259,47,,,,,,,,*68
###2023-12-09 13:12:57.004532$GAGSV,1,1,04,04,33,312,42,19,81,194,40,21,84,070,45,27,29,048,42*6A
###2023-12-09 13:12:57.006863$GBGSV,2,1,06,14,38,192,44,24,70,034,48,25,44,267,46,26,22,065,43*66
###2023-12-09 13:12:57.008612$GBGSV,2,2,06,33,53,226,47,35,15,065,42,,,,,,,,*69
###2023-12-09 13:12:57.009897$GNVTG,94.48,T,,M,3.75,N,6.95,K,A*19
###2023-12-09 13:12:57.011548$GNGST,181256.10,18.000,,,,0.097,0.072,0.170*5B
###2023-12-09 13:12:57.012833$GNZDA,181256.10,09,12,2023,00,00*79
###2023-12-09 13:12:57.013469$GNEBP,,,,,,M*13
###2023-12-09 13:12:57.177593$GNGGA,181256.30,4138.0448766,N,07032.2738018,W,1,24,0.7,12.773,M,-29.743,M,0.0,*53
###2023-12-09 13:12:57.374177$GNGGA,181256.50,4138.0448626,N,07032.2735475,W,1,24,0.7,12.755,M,-29.743,M,0.0,*56
###2023-12-09 13:12:57.574514$GNGGA,181256.70,4138.0448862,N,07032.2732840,W,1,24,0.7,12.782,M,-29.743,M,0.0,*5D
###2023-12-09 13:12:57.775504$GNGGA,181256.90,4138.0448856,N,07032.2730118,W,1,24,0.7,12.770,M,-29.743,M,0.0,*5F
###2023-12-09 13:12:57.977760$GNRMC,181257.10,A,4138.0448460,N,07032.2727443,W,3.65,101.55,091223,,,A*51
###2023-12-09 13:12:57.980646$GNGGA,181257.10,4138.0448460,N,07032.2727443,W,1,24,0.7,12.770,M,-29.743,M,0.0,*52
###2023-12-09 13:12:57.982445$GPGSA,A,3,03,04,16,26,28,29,31,,,,,,1.2,0.7,1.0*30
###2023-12-09 13:12:57.984177$GLGSA,A,3,65,71,72,73,74,75,,,,,,,1.2,0.7,1.0*2E
###2023-12-09 13:12:57.985758$GAGSA,A,3,04,19,21,27,,,,,,,,,1.2,0.7,1.0*2C
###2023-12-09 13:12:57.987481$GBGSA,A,3,14,24,25,26,33,35,,,,,,,1.2,0.7,1.0*23
###2023-12-09 13:12:57.989805$GPGSV,2,1,07,03,33,256,43,04,37,311,44,16,55,215,47,26,85,210,48*7F
###2023-12-09 13:12:57.991855$GPGSV,2,2,07,28,46,075,43,29,24,056,41,31,66,048,46,,,,*44
###2023-12-09 13:12:57.994189$GLGSV,2,1,06,65,29,325,42,71,34,174,45,72,71,246,46,73,31,045,44*6E
###2023-12-09 13:12:57.995949$GLGSV,2,2,06,74,66,353,42,75,36,259,48,,,,,,,,*66
###2023-12-09 13:12:57.998276$GAGSV,1,1,04,04,33,312,40,19,81,194,40,21,84,070,45,27,29,048,41*6B
###2023-12-09 13:12:58.000618$GBGSV,2,1,06,14,38,192,45,24,70,034,48,25,44,267,46,26,22,065,43*67
###2023-12-09 13:12:58.002362$GBGSV,2,2,06,33,53,226,48,35,15,065,44,,,,,,,,*60
###2023-12-09 13:12:58.003698$GNVTG,101.55,T,,M,3.65,N,6.77,K,A*25
###2023-12-09 13:12:58.005344$GNGST,181257.10,18.000,,,,0.097,0.071,0.170*59
###2023-12-09 13:12:58.006641$GNZDA,181257.10,09,12,2023,00,00*78
###2023-12-09 13:12:58.007277$GNEBP,,,,,,M*13
###2023-12-09 13:12:58.173569$GNGGA,181257.30,4138.0448223,N,07032.2724771,W,1,24,0.7,12.772,M,-29.743,M,0.0,*52
###2023-12-09 13:12:58.379686$GNGGA,181257.50,4138.0448343,N,07032.2722105,W,1,24,0.7,12.777,M,-29.743,M,0.0,*55
###2023-12-09 13:12:58.574492$GNGGA,181257.70,4138.0448407,N,07032.2719416,W,1,24,0.7,12.762,M,-29.743,M,0.0,*5B
###2023-12-09 13:12:58.774623$GNGGA,181257.90,4138.0448199,N,07032.2716667,W,1,24,0.7,12.764,M,-29.743,M,0.0,*5A
###2023-12-09 13:12:58.978048$GNRMC,181258.10,A,4138.0448110,N,07032.2714023,W,3.54,87.61,091223,,,A*64
###2023-12-09 13:12:58.980946$GNGGA,181258.10,4138.0448110,N,07032.2714023,W,1,24,0.7,12.775,M,-29.743,M,0.0,*58
###2023-12-09 13:12:58.982756$GPGSA,A,3,03,04,16,26,28,29,31,,,,,,1.2,0.7,1.0*30
###2023-12-09 13:12:58.984478$GLGSA,A,3,65,71,72,73,74,75,,,,,,,1.2,0.7,1.0*2E
###2023-12-09 13:12:58.986064$GAGSA,A,3,04,19,21,27,,,,,,,,,1.2,0.7,1.0*2C
###2023-12-09 13:12:58.987800$GBGSA,A,3,14,24,25,26,33,35,,,,,,,1.2,0.7,1.0*23
###2023-12-09 13:12:58.990139$GPGSV,2,1,07,03,33,256,46,04,37,311,45,16,55,215,49,26,85,210,49*74
###2023-12-09 13:12:58.992199$GPGSV,2,2,07,28,46,075,45,29,24,056,42,31,66,048,48,,,,*4F
###2023-12-09 13:12:58.994534$GLGSV,2,1,06,65,29,325,42,71,34,174,45,72,71,246,46,73,31,045,44*6E
###2023-12-09 13:12:58.996296$GLGSV,2,2,06,74,66,353,42,75,36,259,48,,,,,,,,*66
###2023-12-09 13:12:58.998635$GAGSV,1,1,04,04,33,312,43,19,81,194,41,21,84,070,47,27,29,048,43*69
###2023-12-09 13:12:59.000972$GBGSV,2,1,06,14,38,192,45,24,70,034,48,25,44,267,47,26,22,065,42*67
###2023-12-09 13:12:59.002735$GBGSV,2,2,06,33,53,226,48,35,15,065,42,,,,,,,,*66
###2023-12-09 13:12:59.004281$GNVTG,87.61,T,,M,3.54,N,6.55,K,A*1F
###2023-12-09 13:12:59.005938$GNGST,181258.10,18.000,,,,0.097,0.071,0.170*56
###2023-12-09 13:12:59.007247$GNZDA,181258.10,09,12,2023,00,00*77
###2023-12-09 13:12:59.007888$GNEBP,,,,,,M*13
###2023-12-09 13:12:59.172577$GNGGA,181258.30,4138.0448182,N,07032.2711291,W,1,24,0.7,12.785,M,-29.743,M,0.0,*50
###2023-12-09 13:12:59.374390$GNGGA,181258.50,4138.0448202,N,07032.2708552,W,1,24,0.7,12.752,M,-29.743,M,0.0,*57
###2023-12-09 13:12:59.575138$GNGGA,181258.70,4138.0448517,N,07032.2705970,W,1,24,0.7,12.777,M,-29.743,M,0.0,*50
###2023-12-09 13:12:59.775189$GNGGA,181258.90,4138.0448715,N,07032.2703284,W,1,24,0.7,12.801,M,-29.743,M,0.0,*56
###2023-12-09 13:12:59.982182$GNRMC,181259.10,A,4138.0448516,N,07032.2700567,W,3.60,96.91,091223,,,A*6F
