###2023-12-09 13:12:59.986144$GNGGA,181259.10,4138.0448516,N,07032.2700567,W,1,24,0.7,12.755,M,-29.743,M,0.0,*59
###2023-12-09 13:12:59.988361$GPGSA,A,3,03,04,16,26,28,29,31,,,,,,1.2,0.7,1.0*30
###2023-12-09 13:12:59.990446$GLGSA,A,3,65,71,72,73,74,75,,,,,,,1.2,0.7,1.0*2E
###2023-12-09 13:12:59.992374$GAGSA,A,3,04,19,21,27,,,,,,,,,1.2,0.7,1.0*2C
###2023-12-09 13:12:59.994437$GBGSA,A,3,14,24,25,26,33,35,,,,,,,1.2,0.7,1.0*23
###2023-12-09 13:12:59.997272$GPGSV,2,1,07,03,33,256,46,04,37,311,43,16,55,215,49,26,85,210,50*7A
###2023-12-09 13:12:59.999775$GPGSV,2,2,07,28,46,075,45,29,24,056,42,31,66,048,47,,,,*40
###2023-12-09 13:13:00.002599$GLGSV,2,1,06,65,29,325,41,71,34,174,46,72,71,246,46,73,31,045,43*69
###2023-12-09 13:13:00.004713$GLGSV,2,2,06,74,66,353,41,75,36,259,48,,,,,,,,*65
###2023-12-09 13:13:00.007530$GAGSV,1,1,04,04,33,312,39,19,81,194,41,21,84,070,47,27,29,048,42*65
###2023-12-09 13:13:00.010339$GBGSV,2,1,06,14,38,192,46,24,70,034,48,25,44,267,46,26,22,065,41*66
###2023-12-09 13:13:00.012452$GBGSV,2,2,06,33,53,226,48,35,15,065,42,,,,,,,,*66
###2023-12-09 13:13:00.014003$GNVTG,96.91,T,,M,3.60,N,6.66,K,A*17
###2023-12-09 13:13:00.016004$GNGST,181259.10,18.000,,,,0.097,0.071,0.170*57
###2023-12-09 13:13:00.017563$GNZDA,181259.10,09,12,2023,00,00*76
###2023-12-09 13:13:00.018332$GNEBP,,,,,,M*13
###2023-12-09 13:13:00.173604$GNGGA,181259.30,4138.0448576,N,07032.2698002,W,1,24,0.7,12.758,M,-29.743,M,0.0,*56
###2023-12-09 13:13:00.374227$GNGGA,181259.50,4138.0448998,N,07032.2695350,W,1,24,0.7,12.789,M,-29.743,M,0.0,*59
###2023-12-09 13:13:00.574425$GNGGA,181259.70,4138.0449015,N,07032.2692691,W,1,24,0.7,12.774,M,-29.743,M,0.0,*5B
###2023-12-09 13:13:00.774445$GNGGA,181259.90,4138.0448615,N,07032.2690058,W,1,24,0.7,12.782,M,-29.743,M,0.0,*5A
###2023-12-09 13:13:00.980791$GNRMC,181300.10,A,4138.0448265,N,07032.2687417,W,3.44,92.82,091223,,,A*69
###2023-12-09 13:13:00.983646$GNGGA,181300.10,4138.0448265,N,07032.2687417,W,1,24,0.7,12.773,M,-29.743,M,0.0,*5B
###2023-12-09 13:13:00.985439$GPGSA,A,3,03,04,16,26,28,29,31,,,,,,1.2,0.7,1.0*30
###2023-12-09 13:13:00.987174$GLGSA,A,3,65,71,72,73,74,75,,,,,,,1.2,0.7,1.0*2E
###2023-12-09 13:13:00.988754$GAGSA,A,3,04,19,21,27,,,,,,,,,1.2,0.7,1.0*2C
###2023-12-09 13:13:00.990456$GBGSA,A,3,14,24,25,26,33,35,,,,,,,1.2,0.7,1.0*23
###2023-12-09 13:13:00.992788$GPGSV,2,1,07,03,33,256,46,04,37,311,43,16,55,215,48,26,85,210,49*73
###2023-12-09 13:13:00.994825$GPGSV,2,2,07,28,46,075,44,29,24,056,41,31,66,048,47,,,,*42
###2023-12-09 13:13:00.997146$GLGSV,2,1,06,65,29,325,39,71,34,174,46,72,71,246,46,73,31,045,43*66
###2023-12-09 13:13:00.998886$GLGSV,2,2,06,74,66,353,42,75,36,259,48,,,,,,,,*66
###2023-12-09 13:13:01.001197$GAGSV,1,1,04,04,33,312,41,19,81,194,41,21,84,070,46,27,29,048,42*6B
###2023-12-09 13:13:01.003528$GBGSV,2,1,06,14,38,192,46,24,70,034,47,25,44,267,46,26,22,065,41*69
###2023-12-09 13:13:01.005264$GBGSV,2,2,06,33,53,226,49,35,15,065,41,,,,,,,,*64
###2023-12-09 13:13:01.006550$GNVTG,92.82,T,,M,3.44,N,6.37,K,A*13
###2023-12-09 13:13:01.008196$GNGST,181300.10,18.000,,,,0.096,0.071,0.170*5B
###2023-12-09 13:13:01.009479$GNZDA,181300.10,09,12,2023,00,00*7B
###2023-12-09 13:13:01.010114$GNEBP,,,,,,M*13
###2023-12-09 13:13:01.174088$GNGGA,181300.30,4138.0448379,N,07032.2684810,W,1,24,0.7,12.789,M,-29.743,M,0.0,*58
###2023-12-09 13:13:01.374376$GNGGA,181300.50,4138.0448467,N,07032.2682115,W,1,24,0.7,12.787,M,-29.743,M,0.0,*52
###2023-12-09 13:13:01.575734$GNGGA,181300.70,4138.0448163,N,07032.2679474,W,1,24,0.7,12.792,M,-29.743,M,0.0,*53
###2023-12-09 13:13:01.775645$GNGGA,181300.90,4138.0447716,N,07032.2676824,W,1,24,0.7,12.791,M,-29.743,M,0.0,*53
###2023-12-09 13:13:01.976733$GNRMC,181301.10,A,4138.0447709,N,07032.2674177,W,3.77,82.04,091223,,,A*68
###2023-12-09 13:13:01.979607$GNGGA,181301.10,4138.0447709,N,07032.2674177,W,1,24,0.7,12.794,M,-29.743,M,0.0,*5C
###2023-12-09 13:13:01.981403$GPGSA,A,3,03,04,16,26,28,29,31,,,,,,1.2,0.7,1.0*30
###2023-12-09 13:13:01.983135$GLGSA,A,3,65,71,72,73,74,75,,,,,,,1.2,0.7,1.0*2E
###2023-12-09 13:13:01.984722$GAGSA,A,3,04,19,21,27,,,,,,,,,1.2,0.7,1.0*2C
###2023-12-09 13:13:01.986434$GBGSA,A,3,14,24,25,26,33,35,,,,,,,1.2,0.7,1.0*23
###2023-12-09 13:13:01.988773$GPGSV,2,1,07,03,33,256,45,04,37,311,44,16,55,215,48,26,85,210,49*77
###2023-12-09 13:13:01.990826$GPGSV,2,2,07,28,46,075,42,29,24,056,40,31,66,048,46,,,,*44
###2023-12-09 13:13:01.993161$GLGSV,2,1,06,65,29,325,40,71,34,174,46,72,71,246,46,73,31,045,43*68
###2023-12-09 13:13:01.994924$GLGSV,2,2,06,74,66,353,42,75,36,259,47,,,,,,,,*69
###2023-12-09 13:13:01.997261$GAGSV,1,1,04,04,33,312,40,19,81,194,41,21,84,070,46,27,29,048,41*69
###2023-12-09 13:13:01.999604$GBGSV,2,1,06,14,38,192,45,24,70,034,47,25,44,267,47,26,22,065,42*68
###2023-12-09 13:13:02.001351$GBGSV,2,2,06,33,53,226,49,35,15,065,42,,,,,,,,*67
###2023-12-09 13:13:02.002653$GNVTG,82.04,T,,M,3.77,N,6.98,K,A*19
###2023-12-09 13:13:02.004306$GNGST,181301.10,18.000,,,,0.096,0.071,0.170*5A
###2023-12-09 13:13:02.005598$GNZDA,181301.10,09,12,2023,00,00*7A
###2023-12-09 13:13:02.006235$GNEBP,,,,,,M*13
###2023-12-09 13:13:02.174176$GNGGA,181301.30,4138.0447992,N,07032.2671502,W,1,24,0.7,12.788,M,-29.743,M,0.0,*5C
###2023-12-09 13:13:02.374315$GNGGA,181301.50,4138.0448084,N,07032.2668919,W,1,24,0.7,12.785,M,-29.743,M,0.0,*58
###2023-12-09 13:13:02.574966$GNGGA,181301.70,4138.0447987,N,07032.2666225,W,1,24,0.7,12.818,M,-29.743,M,0.0,*5E
###2023-12-09 13:13:02.774111$GNGGA,181301.90,4138.0447935,N,07032.2663532,W,1,24,0.7,12.796,M,-29.743,M,0.0,*54
###2023-12-09 13:13:02.977466$GNRMC,181302.10,A,4138.0448128,N,07032.2660868,W,3.50,79.31,091223,,,A*64
###2023-12-09 13:13:02.980946$GNGGA,181302.10,4138.0448128,N,07032.2660868,W,1,24,0.7,12.768,M,-29.743,M,0.0,*54
###2023-12-09 13:13:02.983112$GPGSA,A,3,03,04,16,26,28,29,31,,,,,,1.2,0.7,1.0*30
###2023-12-09 13:13:02.985179$GLGSA,A,3,65,71,72,73,74,75,,,,,,,1.2,0.7,1.0*2E
###2023-12-09 13:13:02.987103$GAGSA,A,3,04,19,21,27,,,,,,,,,1.2,0.7,1.0*2C
###2023-12-09 13:13:02.989172$GBGSA,A,3,14,24,25,26,33,35,,,,,,,1.2,0.7,1.0*23
###2023-12-09 13:13:02.991985$GPGSV,2,1,07,03,33,256,44,04,37,311,42,16,55,215,47,26,85,210,48*7E
###2023-12-09 13:13:02.994437$GPGSV,2,2,07,28,46,075,42,29,24,056,39,31,66,048,46,,,,*4A
###2023-12-09 13:13:02.997249$GLGSV,2,1,06,65,29,325,40,71,34,174,46,72,71,246,47,73,31,045,43*69
###2023-12-09 13:13:02.999361$GLGSV,2,2,06,74,66,353,41,75,36,259,48,,,,,,,,*65
###2023-12-09 13:13:03.002165$GAGSV,1,1,04,04,33,312,39,19,81,194,41,21,84,070,46,27,29,048,41*67
###2023-12-09 13:13:03.004985$GBGSV,2,1,06,14,38,192,46,24,70,034,47,25,44,267,47,26,22,065,42*6B
###2023-12-09 13:13:03.007147$GBGSV,2,2,06,33,53,226,48,35,15,065,42,,,,,,,,*66
###2023-12-09 13:13:03.008704$GNVTG,79.31,T,,M,3.50,N,6.48,K,A*13
###2023-12-09 13:13:03.010700$GNGST,181302.10,18.000,,,,0.096,0.071,0.170*59
###2023-12-09 13:13:03.012252$GNZDA,181302.10,09,12,2023,00,00*79
###2023-12-09 13:13:03.013018$GNEBP,,,,,,M*13
###2023-12-09 13:13:03.177139$GNGGA,181302.30,4138.0448502,N,07032.2658332,W,1,24,0.7,12.777,M,-29.743,M,0.0,*5B
###2023-12-09 13:13:03.374230$GNGGA,181302.50,4138.0448541,N,07032.2655642,W,1,24,0.7,12.797,M,-29.743,M,0.0,*5B
###2023-12-09 13:13:03.574479$GNGGA,181302.70,4138.0448270,N,07032.2653025,W,1,24,0.7,12.789,M,-29.743,M,0.0,*52
###2023-12-09 13:13:03.774418$GNGGA,181302.90,4138.0448219,N,07032.2650449,W,1,24,0.7,12.798,M,-29.743,M,0.0,*5E
###2023-12-09 13:13:03.977622$GNRMC,181303.10,A,4138.0448415,N,07032.2647836,W,3.58,86.49,091223,,,A*67
###2023-12-09 13:13:03.980490$GNGGA,181303.10,4138.0448415,N,07032.2647836,W,1,24,0.7,12.797,M,-29.743,M,0.0,*50
###2023-12-09 13:13:03.982281$GPGSA,A,3,03,04,16,26,28,29,31,,,,,,1.2,0.7,1.0*30
###2023-12-09 13:13:03.983997$GLGSA,A,3,65,71,72,73,74,75,,,,,,,1.2,0.7,1.0*2E
###2023-12-09 13:13:03.985577$GAGSA,A,3,04,19,21,27,,,,,,,,,1.2,0.7,1.0*2C
###2023-12-09 13:13:03.987296$GBGSA,A,3,14,24,25,26,33,35,,,,,,,1.2,0.7,1.0*23
###2023-12-09 13:13:03.989633$GPGSV,2,1,07,03,32,255,45,04,37,311,44,16,55,215,47,26,85,210,48*7B
###2023-12-09 13:13:03.991673$GPGSV,2,2,07,28,46,075,42,29,24,056,41,31,66,048,47,,,,*44
###2023-12-09 13:13:03.994242$GLGSV,2,1,06,65,29,325,41,71,34,174,45,72,71,246,46,73,31,045,43*6A
###2023-12-09 13:13:03.996019$GLGSV,2,2,06,74,66,353,42,75,36,259,48,,,,,,,,*66
###2023-12-09 13:13:03.998339$GAGSV,1,1,04,04,33,312,43,19,81,194,41,21,84,070,46,27,29,048,42*69
###2023-12-09 13:13:04.000687$GBGSV,2,1,06,14,38,192,44,24,70,034,48,25,44,267,46,26,22,065,42*67
###2023-12-09 13:13:04.002431$GBGSV,2,2,06,33,53,226,48,35,15,065,43,,,,,,,,*67
###2023-12-09 13:13:04.003739$GNVTG,86.49,T,,M,3.58,N,6.62,K,A*1C
###2023-12-09 13:13:04.005386$GNGST,181303.10,18.000,,,,0.096,0.071,0.170*58
###2023-12-09 13:13:04.006686$GNZDA,181303.10,09,12,2023,00,00*78
###2023-12-09 13:13:04.007327$GNEBP,,,,,,M*13
