###2023-12-09 12:30:20.956176$GNVTG,,T,,M,0.02,N,0.04,K,A*3B
###2023-12-09 12:30:20.957890$GNGST,173020.10,31.000,,,,0.100,0.110,0.280*58
###2023-12-09 12:30:20.959254$GNZDA,173020.10,09,12,2023,00,00*77
###2023-12-09 12:30:20.959937$GNEBP,,,,,,M*13
###2023-12-09 12:30:21.129672$GNGGA,173020.30,4138.0383325,N,07032.4369496,W,1,17,0.7,13.282,M,-29.746,M,0.0,*55
###2023-12-09 12:30:21.326873$GNGGA,173020.50,4138.0383314,N,07032.4369479,W,1,17,0.7,13.291,M,-29.746,M,0.0,*52
###2023-12-09 12:30:21.525960$GNGGA,173020.70,4138.0383309,N,07032.4369471,W,1,17,0.7,13.299,M,-29.746,M,0.0,*5C
###2023-12-09 12:30:21.724605$GNGGA,173020.90,4138.0383306,N,07032.4369463,W,1,17,0.7,13.306,M,-29.746,M,0.0,*59
###2023-12-09 12:30:21.926764$GNRMC,173021.10,A,4138.0383294,N,07032.4369448,W,0.02,,091223,,,A*4D
###2023-12-09 12:30:21.929698$GNGGA,173021.10,4138.0383294,N,07032.4369448,W,1,17,0.7,13.314,M,-29.746,M,0.0,*50
###2023-12-09 12:30:21.931619$GPGSA,A,3,03,04,16,26,28,29,31,32,,,,,1.4,0.7,1.2*35
###2023-12-09 12:30:21.933253$GLGSA,A,3,71,72,73,75,,,,,,,,,1.4,0.7,1.2*2A
###2023-12-09 12:30:21.934766$GAGSA,A,3,21,27,,,,,,,,,,,1.4,0.7,1.2*24
###2023-12-09 12:30:21.936322$GBGSA,A,3,14,25,26,,,,,,,,,,1.4,0.7,1.2*27
###2023-12-09 12:30:21.938700$GPGSV,2,1,08,03,39,280,38,04,20,310,36,16,34,206,40,26,64,206,44*79
###2023-12-09 12:30:21.941077$GPGSV,2,2,08,28,60,053,45,29,25,076,44,31,73,353,42,32,32,133,48*7F
###2023-12-09 12:30:21.943511$GLGSV,1,1,04,71,59,168,48,72,64,313,42,73,50,032,43,75,20,239,38*6C
###2023-12-09 12:30:21.945318$GAGSV,1,1,02,21,76,178,39,27,43,050,44,,,,,,,,*6B
###2023-12-09 12:30:21.947440$GBGSV,1,1,03,14,57,199,44,25,31,251,40,26,36,056,44,,,,*5B
###2023-12-09 12:30:21.948649$GNVTG,,T,,M,0.02,N,0.04,K,A*3B
###2023-12-09 12:30:21.950351$GNGST,173021.10,31.000,,,,0.100,0.120,0.280*5A
###2023-12-09 12:30:21.951708$GNZDA,173021.10,09,12,2023,00,00*76
###2023-12-09 12:30:21.952391$GNEBP,,,,,,M*13
###2023-12-09 12:30:22.127863$GNGGA,173021.30,4138.0383277,N,07032.4369461,W,1,17,0.7,13.313,M,-29.746,M,0.0,*53
###2023-12-09 12:30:22.327708$GNGGA,173021.50,4138.0383259,N,07032.4369452,W,1,17,0.7,13.311,M,-29.746,M,0.0,*5B
###2023-12-09 12:30:22.527138$GNGGA,173021.70,4138.0383229,N,07032.4369436,W,1,17,0.7,13.309,M,-29.746,M,0.0,*55
###2023-12-09 12:30:22.725290$GNGGA,173021.90,4138.0383202,N,07032.4369422,W,1,17,0.7,13.309,M,-29.746,M,0.0,*57
###2023-12-09 12:30:22.929091$GNRMC,173022.10,A,4138.0383189,N,07032.4369424,W,0.04,,091223,,,A*4D
###2023-12-09 12:30:22.932192$GNGGA,173022.10,4138.0383189,N,07032.4369424,W,1,17,0.7,13.309,M,-29.746,M,0.0,*5A
###2023-12-09 12:30:22.934085$GPGSA,A,3,03,04,16,26,28,29,31,32,,,,,1.4,0.7,1.2*35
###2023-12-09 12:30:22.935715$GLGSA,A,3,71,72,73,75,,,,,,,,,1.4,0.7,1.2*2A
###2023-12-09 12:30:22.937187$GAGSA,A,3,21,27,,,,,,,,,,,1.4,0.7,1.2*24
###2023-12-09 12:30:22.938739$GBGSA,A,3,14,25,26,,,,,,,,,,1.4,0.7,1.2*27
###2023-12-09 12:30:22.941086$GPGSV,2,1,08,03,39,280,38,04,20,310,36,16,34,206,40,26,64,206,44*79
###2023-12-09 12:30:22.943452$GPGSV,2,2,08,28,60,053,45,29,25,076,44,31,73,353,42,32,32,133,48*7F
###2023-12-09 12:30:22.945803$GLGSV,1,1,04,71,59,168,48,72,64,313,42,73,50,032,43,75,20,239,38*6C
###2023-12-09 12:30:22.947613$GAGSV,1,1,02,21,76,178,38,27,43,050,44,,,,,,,,*6A
###2023-12-09 12:30:22.949683$GBGSV,1,1,03,14,57,199,44,25,31,251,39,26,36,056,44,,,,*55
###2023-12-09 12:30:22.950860$GNVTG,,T,,M,0.04,N,0.07,K,A*3E
###2023-12-09 12:30:22.952527$GNGST,173022.10,31.000,,,,0.100,0.120,0.280*59
###2023-12-09 12:30:22.953829$GNZDA,173022.10,09,12,2023,00,00*75
###2023-12-09 12:30:22.954483$GNEBP,,,,,,M*13
###2023-12-09 12:30:23.125544$GNGGA,173022.30,4138.0383167,N,07032.4369411,W,1,17,0.7,13.313,M,-29.746,M,0.0,*55
###2023-12-09 12:30:23.325652$GNGGA,173022.50,4138.0383148,N,07032.4369412,W,1,17,0.7,13.314,M,-29.746,M,0.0,*5A
###2023-12-09 12:30:23.525529$GNGGA,173022.70,4138.0383128,N,07032.4369404,W,1,17,0.7,13.313,M,-29.746,M,0.0,*5E
###2023-12-09 12:30:23.724380$GNGGA,173022.90,4138.0383106,N,07032.4369404,W,1,17,0.7,13.310,M,-29.746,M,0.0,*5F
###2023-12-09 12:30:23.924927$GNRMC,173023.10,A,4138.0383091,N,07032.4369403,W,0.02,,091223,,,A*47
###2023-12-09 12:30:23.928013$GNGGA,173023.10,4138.0383091,N,07032.4369403,W,1,17,0.7,13.303,M,-29.746,M,0.0,*5C
###2023-12-09 12:30:23.930061$GPGSA,A,3,03,04,16,26,28,29,31,32,,,,,1.4,0.7,1.2*35
###2023-12-09 12:30:23.931828$GLGSA,A,3,71,72,73,75,,,,,,,,,1.4,0.7,1.2*2A
###2023-12-09 12:30:23.933451$GAGSA,A,3,21,27,,,,,,,,,,,1.4,0.7,1.2*24
###2023-12-09 12:30:23.935138$GBGSA,A,3,14,25,26,,,,,,,,,,1.4,0.7,1.2*27
###2023-12-09 12:30:23.937632$GPGSV,2,1,08,03,39,280,39,04,20,310,36,16,34,206,40,26,64,206,43*7F
###2023-12-09 12:30:23.940148$GPGSV,2,2,08,28,60,053,44,29,25,076,44,31,73,353,42,32,32,133,48*7E
###2023-12-09 12:30:23.942662$GLGSV,1,1,04,71,59,168,48,72,64,313,42,73,50,032,43,75,20,239,38*6C
###2023-12-09 12:30:23.944578$GAGSV,1,1,02,21,76,178,39,27,43,050,44,,,,,,,,*6B
###2023-12-09 12:30:23.946800$GBGSV,1,1,03,14,57,199,44,25,31,251,39,26,36,056,44,,,,*55
###2023-12-09 12:30:23.948151$GNVTG,,T,,M,0.02,N,0.04,K,A*3B
###2023-12-09 12:30:23.949971$GNGST,173023.10,31.000,,,,0.110,0.120,0.280*59
###2023-12-09 12:30:23.951439$GNZDA,173023.10,09,12,2023,00,00*74
###2023-12-09 12:30:23.952238$GNEBP,,,,,,M*13
###2023-12-09 12:30:24.126924$GNGGA,173023.30,4138.0383064,N,07032.4369403,W,1,17,0.7,13.302,M,-29.746,M,0.0,*55
###2023-12-09 12:30:24.326218$GNGGA,173023.50,4138.0383036,N,07032.4369404,W,1,17,0.7,13.298,M,-29.746,M,0.0,*51
###2023-12-09 12:30:24.530926$GNGGA,173023.70,4138.0383007,N,07032.4369403,W,1,17,0.7,13.300,M,-29.746,M,0.0,*56
###2023-12-09 12:30:24.724365$GNGGA,173023.90,4138.0382986,N,07032.4369419,W,1,17,0.7,13.292,M,-29.746,M,0.0,*58
###2023-12-09 12:30:24.925668$GNRMC,173024.10,A,4138.0382959,N,07032.4369419,W,0.02,,091223,,,A*47
###2023-12-09 12:30:24.928740$GNGGA,173024.10,4138.0382959,N,07032.4369419,W,1,17,0.7,13.288,M,-29.746,M,0.0,*5E
###2023-12-09 12:30:24.930810$GPGSA,A,3,03,04,16,26,28,29,31,32,,,,,1.4,0.7,1.2*35
###2023-12-09 12:30:24.932570$GLGSA,A,3,71,72,73,75,,,,,,,,,1.4,0.7,1.2*2A
###2023-12-09 12:30:24.934191$GAGSA,A,3,21,27,,,,,,,,,,,1.4,0.7,1.2*24
###2023-12-09 12:30:24.935886$GBGSA,A,3,14,25,26,,,,,,,,,,1.4,0.7,1.2*27
###2023-12-09 12:30:24.938362$GPGSV,2,1,08,03,39,280,39,04,20,310,36,16,34,206,40,26,64,206,44*78
###2023-12-09 12:30:24.940865$GPGSV,2,2,08,28,60,053,45,29,25,076,44,31,73,353,43,32,32,133,48*7E
###2023-12-09 12:30:24.943372$GLGSV,1,1,04,71,59,168,48,72,64,313,42,73,50,032,43,75,20,239,39*6D
###2023-12-09 12:30:24.945296$GAGSV,1,1,02,21,76,178,39,27,43,050,44,,,,,,,,*6B
###2023-12-09 12:30:24.947501$GBGSV,1,1,03,14,57,199,44,25,31,251,39,26,36,056,44,,,,*55
###2023-12-09 12:30:24.948851$GNVTG,,T,,M,0.02,N,0.04,K,A*3B
###2023-12-09 12:30:24.950680$GNGST,173024.10,31.000,,,,0.110,0.120,0.280*5E
###2023-12-09 12:30:24.952137$GNZDA,173024.10,09,12,2023,00,00*73
###2023-12-09 12:30:24.952935$GNEBP,,,,,,M*13
###2023-12-09 12:30:25.125252$GNGGA,173024.30,4138.0382935,N,07032.4369416,W,1,17,0.7,13.287,M,-29.746,M,0.0,*56
###2023-12-09 12:30:25.326250$GNGGA,173024.50,4138.0382904,N,07032.4369415,W,1,17,0.7,13.288,M,-29.746,M,0.0,*5E
###2023-12-09 12:30:25.525553$GNGGA,173024.70,4138.0382877,N,07032.4369403,W,1,17,0.7,13.288,M,-29.746,M,0.0,*5E
###2023-12-09 12:30:25.724362$GNGGA,173024.90,4138.0382851,N,07032.4369380,W,1,17,0.7,13.288,M,-29.746,M,0.0,*58
###2023-12-09 12:30:25.928387$GNRMC,173025.10,A,4138.0382821,N,07032.4369332,W,0.08,,091223,,,A*4C
###2023-12-09 12:30:25.931497$GNGGA,173025.10,4138.0382821,N,07032.4369332,W,1,17,0.7,13.297,M,-29.746,M,0.0,*51
###2023-12-09 12:30:25.933389$GPGSA,A,3,03,04,16,26,28,29,31,32,,,,,1.4,0.7,1.2*35
###2023-12-09 12:30:25.935020$GLGSA,A,3,71,72,73,75,,,,,,,,,1.4,0.7,1.2*2A
###2023-12-09 12:30:25.936495$GAGSA,A,3,21,27,,,,,,,,,,,1.4,0.7,1.2*24
###2023-12-09 12:30:25.938038$GBGSA,A,3,14,25,26,,,,,,,,,,1.4,0.7,1.2*27
###2023-12-09 12:30:25.940479$GPGSV,2,1,08,03,39,280,39,04,20,310,36,16,34,206,39,26,64,206,43*71
###2023-12-09 12:30:25.942851$GPGSV,2,2,08,28,60,053,44,29,25,076,43,31,73,353,43,32,32,133,48*78
###2023-12-09 12:30:25.945479$GLGSV,1,1,04,71,59,168,48,72,64,313,41,73,50,032,44,75,20,239,39*69
###2023-12-09 12:30:25.947320$GAGSV,1,1,02,21,76,178,39,27,43,050,44,,,,,,,,*6B
###2023-12-09 12:30:25.949401$GBGSV,1,1,03,14,57,199,44,25,31,251,39,26,36,056,44,,,,*55
###2023-12-09 12:30:25.950559$GNVTG,,T,,M,0.08,N,0.14,K,A*30
###2023-12-09 12:30:25.952252$GNGST,173025.10,31.000,,,,0.110,0.120,0.280*5F
###2023-12-09 12:30:25.953568$GNZDA,173025.10,09,12,2023,00,00*72
###2023-12-09 12:30:25.954223$GNEBP,,,,,,M*13
###2023-12-09 12:30:26.125307$GNGGA,173025.30,4138.0382811,N,07032.4369294,W,1,17,0.7,13.303,M,-29.746,M,0.0,*51
