###2023-12-09 12:45:55.963544$GBGSA,A,3,14,24,25,26,33,,,,,,,,1.1,0.6,0.9*2F
###2023-12-09 12:45:55.966405$GPGSV,2,1,08,03,37,270,45,04,26,311,41,16,42,209,45,26,72,208,49*7A
###2023-12-09 12:45:55.969264$GPGSV,2,2,08,28,54,062,48,29,26,068,44,31,72,018,50,32,25,137,46*79
###2023-12-09 12:45:55.972107$GLGSV,2,1,06,65,17,329,39,71,50,171,47,72,70,297,46,73,43,037,47*68
###2023-12-09 12:45:55.974231$GLGSV,2,2,06,74,71,310,43,75,26,245,40,,,,,,,,*62
###2023-12-09 12:45:55.977072$GAGSV,1,1,04,04,24,312,41,19,84,283,42,21,82,167,48,27,38,049,45*67
###2023-12-09 12:45:55.979909$GBGSV,2,1,05,14,50,195,44,24,78,005,48,25,36,256,45,26,31,059,44*68
###2023-12-09 12:45:55.981667$GBGSV,2,2,05,33,61,245,48,,,,,,,,,,,,*56
###2023-12-09 12:45:55.983272$GNVTG,258.81,T,,M,0.52,N,0.97,K,A*2C
###2023-12-09 12:45:55.985252$GNGST,174555.10,18.000,,,,0.077,0.069,0.160*50
###2023-12-09 12:45:55.986824$GNZDA,174555.10,09,12,2023,00,00*77
###2023-12-09 12:45:55.987601$GNEBP,,,,,,M*13
###2023-12-09 12:45:56.146219$GNGGA,174555.30,4138.0491062,N,07032.3865186,W,1,24,0.6,13.365,M,-29.745,M,0.0,*5F
###2023-12-09 12:45:56.347975$GNGGA,174555.50,4138.0490916,N,07032.3865797,W,1,24,0.6,13.356,M,-29.745,M,0.0,*54
###2023-12-09 12:45:56.549161$GNGGA,174555.70,4138.0490723,N,07032.3866097,W,1,24,0.6,13.352,M,-29.745,M,0.0,*5E
###2023-12-09 12:45:56.750342$GNGGA,174555.90,4138.0490531,N,07032.3866307,W,1,24,0.6,13.379,M,-29.745,M,0.0,*52
###2023-12-09 12:45:56.954514$GNRMC,174556.10,A,4138.0490383,N,07032.3866709,W,0.64,258.81,091223,,,A*50
###2023-12-09 12:45:56.958022$GNGGA,174556.10,4138.0490383,N,07032.3866709,W,1,24,0.6,13.391,M,-29.745,M,0.0,*5A
###2023-12-09 12:45:56.960287$GPGSA,A,3,03,04,16,26,28,29,31,32,,,,,1.1,0.6,0.9*3B
###2023-12-09 12:45:56.962364$GLGSA,A,3,65,71,72,73,74,75,,,,,,,1.1,0.6,0.9*24
###2023-12-09 12:45:56.964294$GAGSA,A,3,04,19,21,27,,,,,,,,,1.1,0.6,0.9*26
###2023-12-09 12:45:56.966277$GBGSA,A,3,14,24,25,26,33,,,,,,,,1.1,0.6,0.9*2F
###2023-12-09 12:45:56.969106$GPGSV,2,1,08,03,37,270,46,04,26,311,43,16,42,209,44,26,72,208,48*7B
###2023-12-09 12:45:56.971943$GPGSV,2,2,08,28,54,062,46,29,26,068,43,31,72,018,49,32,25,137,44*7A
###2023-12-09 12:45:56.974776$GLGSV,2,1,06,65,17,329,38,71,50,171,47,72,70,297,46,73,43,037,47*69
###2023-12-09 12:45:56.976879$GLGSV,2,2,06,74,71,310,43,75,26,245,42,,,,,,,,*60
###2023-12-09 12:45:56.979709$GAGSV,1,1,04,04,24,312,41,19,84,283,41,21,82,167,46,27,38,049,43*6C
###2023-12-09 12:45:56.982524$GBGSV,2,1,05,14,50,195,44,24,78,005,49,25,36,256,45,26,31,059,43*6E
###2023-12-09 12:45:56.984296$GBGSV,2,2,05,33,61,245,47,,,,,,,,,,,,*59
###2023-12-09 12:45:56.985943$GNVTG,258.81,T,,M,0.64,N,1.19,K,A*2E
###2023-12-09 12:45:56.987956$GNGST,174556.10,18.000,,,,0.077,0.068,0.160*52
###2023-12-09 12:45:56.989520$GNZDA,174556.10,09,12,2023,00,00*74
###2023-12-09 12:45:56.990289$GNEBP,,,,,,M*13
###2023-12-09 12:45:57.147164$GNGGA,174556.30,4138.0490215,N,07032.3867042,W,1,24,0.6,13.371,M,-29.745,M,0.0,*51
###2023-12-09 12:45:57.345880$GNGGA,174556.50,4138.0490046,N,07032.3867164,W,1,24,0.6,13.349,M,-29.745,M,0.0,*5D
###2023-12-09 12:45:57.547470$GNGGA,174556.70,4138.0489884,N,07032.3867514,W,1,24,0.6,13.362,M,-29.745,M,0.0,*5B
###2023-12-09 12:45:57.754789$GNGGA,174556.90,4138.0489765,N,07032.3868167,W,1,24,0.6,13.397,M,-29.745,M,0.0,*50
###2023-12-09 12:45:57.950172$GNRMC,174557.10,A,4138.0489608,N,07032.3868576,W,0.35,258.81,091223,,,A*5F
###2023-12-09 12:45:57.953638$GNGGA,174557.10,4138.0489608,N,07032.3868576,W,1,24,0.6,13.407,M,-29.745,M,0.0,*59
###2023-12-09 12:45:57.955909$GPGSA,A,3,03,04,16,26,28,29,31,32,,,,,1.1,0.6,0.9*3B
###2023-12-09 12:45:57.957972$GLGSA,A,3,65,71,72,73,74,75,,,,,,,1.1,0.6,0.9*24
###2023-12-09 12:45:57.959899$GAGSA,A,3,04,19,21,27,,,,,,,,,1.1,0.6,0.9*26
###2023-12-09 12:45:57.961892$GBGSA,A,3,14,24,25,26,33,,,,,,,,1.1,0.6,0.9*2F
###2023-12-09 12:45:57.964724$GPGSV,2,1,08,03,37,270,46,04,26,311,42,16,42,209,44,26,72,208,47*75
###2023-12-09 12:45:57.967566$GPGSV,2,2,08,28,54,062,45,29,26,068,41,31,72,018,48,32,25,137,43*7D
###2023-12-09 12:45:57.970392$GLGSV,2,1,06,65,17,329,41,71,50,171,46,72,70,297,47,73,43,037,46*66
###2023-12-09 12:45:57.972520$GLGSV,2,2,06,74,71,310,44,75,26,245,44,,,,,,,,*61
###2023-12-09 12:45:57.975349$GAGSV,1,1,04,04,24,312,42,19,84,283,41,21,82,167,46,27,38,049,42*6E
###2023-12-09 12:45:57.978200$GBGSV,2,1,05,14,50,195,45,24,78,005,48,25,36,256,46,26,31,059,42*6C
###2023-12-09 12:45:57.979969$GBGSV,2,2,05,33,61,245,48,,,,,,,,,,,,*56
###2023-12-09 12:45:57.981561$GNVTG,258.81,T,,M,0.35,N,0.65,K,A*20
###2023-12-09 12:45:57.983569$GNGST,174557.10,18.000,,,,0.077,0.068,0.160*53
###2023-12-09 12:45:57.985131$GNZDA,174557.10,09,12,2023,00,00*75
###2023-12-09 12:45:57.985908$GNEBP,,,,,,M*13
###2023-12-09 12:45:58.146008$GNGGA,174557.30,4138.0489441,N,07032.3868494,W,1,24,0.6,13.387,M,-29.745,M,0.0,*56
###2023-12-09 12:45:58.346842$GNGGA,174557.50,4138.0489290,N,07032.3868476,W,1,24,0.6,13.358,M,-29.745,M,0.0,*54
###2023-12-09 12:45:58.549298$GNGGA,174557.70,4138.0489162,N,07032.3869076,W,1,24,0.6,13.382,M,-29.745,M,0.0,*5A
###2023-12-09 12:45:58.744832$GNGGA,174557.90,4138.0489059,N,07032.3869813,W,1,24,0.6,13.401,M,-29.745,M,0.0,*5A
###2023-12-09 12:45:58.946062$GNRMC,174558.10,A,4138.0488906,N,07032.3869974,W,0.45,259.26,091223,,,A*54
###2023-12-09 12:45:58.948979$GNGGA,174558.10,4138.0488906,N,07032.3869974,W,1,24,0.6,13.418,M,-29.745,M,0.0,*57
###2023-12-09 12:45:58.950875$GPGSA,A,3,03,04,16,26,28,29,31,32,,,,,1.1,0.6,0.9*3B
###2023-12-09 12:45:58.952606$GLGSA,A,3,65,71,72,73,74,75,,,,,,,1.1,0.6,0.9*24
###2023-12-09 12:45:58.954194$GAGSA,A,3,04,19,21,27,,,,,,,,,1.1,0.6,0.9*26
###2023-12-09 12:45:58.955870$GBGSA,A,3,14,24,25,26,33,,,,,,,,1.1,0.6,0.9*2F
###2023-12-09 12:45:58.958210$GPGSV,2,1,08,03,37,270,46,04,26,311,43,16,42,209,44,26,72,208,47*74
###2023-12-09 12:45:58.960573$GPGSV,2,2,08,28,54,062,44,29,26,068,41,31,72,018,47,32,25,137,42*72
###2023-12-09 12:45:58.962929$GLGSV,2,1,06,65,17,329,42,71,50,171,46,72,70,297,47,73,43,037,45*66
###2023-12-09 12:45:58.964680$GLGSV,2,2,06,74,71,310,42,75,26,245,44,,,,,,,,*67
###2023-12-09 12:45:58.967020$GAGSV,1,1,04,04,24,312,42,19,84,283,41,21,82,167,45,27,38,049,42*6D
###2023-12-09 12:45:58.969355$GBGSV,2,1,05,14,50,195,43,24,78,005,48,25,36,256,45,26,31,059,41*6A
###2023-12-09 12:45:58.970823$GBGSV,2,2,05,33,61,245,47,,,,,,,,,,,,*59
###2023-12-09 12:45:58.972152$GNVTG,259.26,T,,M,0.45,N,0.83,K,A*23
###2023-12-09 12:45:58.973806$GNGST,174558.10,18.000,,,,0.077,0.068,0.160*5C
###2023-12-09 12:45:58.975113$GNZDA,174558.10,09,12,2023,00,00*7A
###2023-12-09 12:45:58.975753$GNEBP,,,,,,M*13
###2023-12-09 12:45:59.145261$GNGGA,174558.30,4138.0488731,N,07032.3869657,W,1,24,0.6,13.407,M,-29.745,M,0.0,*5F
###2023-12-09 12:45:59.347663$GNGGA,174558.50,4138.0488588,N,07032.3869765,W,1,24,0.6,13.389,M,-29.745,M,0.0,*58
###2023-12-09 12:45:59.547803$GNGGA,174558.70,4138.0488495,N,07032.3870523,W,1,24,0.6,13.413,M,-29.745,M,0.0,*5B
###2023-12-09 12:45:59.749375$GNGGA,174558.90,4138.0488381,N,07032.3871159,W,1,24,0.6,13.422,M,-29.745,M,0.0,*5D
###2023-12-09 12:45:59.947036$GNRMC,174559.10,A,4138.0488219,N,07032.3871085,W,0.60,263.80,091223,,,A*5C
###2023-12-09 12:45:59.949901$GNGGA,174559.10,4138.0488219,N,07032.3871085,W,1,24,0.6,13.441,M,-29.745,M,0.0,*51
###2023-12-09 12:45:59.951776$GPGSA,A,3,03,04,16,26,28,29,31,32,,,,,1.1,0.6,0.9*3B
###2023-12-09 12:45:59.953491$GLGSA,A,3,65,71,72,73,74,75,,,,,,,1.1,0.6,0.9*24
###2023-12-09 12:45:59.955094$GAGSA,A,3,04,19,21,27,,,,,,,,,1.1,0.6,0.9*26
###2023-12-09 12:45:59.956742$GBGSA,A,3,14,24,25,26,33,,,,,,,,1.1,0.6,0.9*2F
###2023-12-09 12:45:59.959081$GPGSV,2,1,08,03,37,270,44,04,26,311,43,16,42,209,43,26,72,208,48*7E
###2023-12-09 12:45:59.961416$GPGSV,2,2,08,28,54,062,44,29,26,068,41,31,72,018,47,32,25,137,42*72
###2023-12-09 12:45:59.963778$GLGSV,2,1,06,65,17,329,42,71,50,171,46,72,70,297,47,73,43,037,46*65
###2023-12-09 12:45:59.965532$GLGSV,2,2,06,74,71,310,42,75,26,245,45,,,,,,,,*66
###2023-12-09 12:45:59.967886$GAGSV,1,1,04,04,24,312,41,19,84,283,41,21,82,167,46,27,38,049,42*6D
###2023-12-09 12:45:59.970232$GBGSV,2,1,05,14,50,195,44,24,78,005,48,25,36,256,46,26,31,059,43*6C
###2023-12-09 12:45:59.971970$GBGSV,2,2,05,33,61,245,49,,,,,,,,,,,,*57
###2023-12-09 12:45:59.973310$GNVTG,263.80,T,,M,0.60,N,1.12,K,A*28
###2023-12-09 12:45:59.974984$GNGST,174559.10,18.000,,,,0.078,0.069,0.160*53
###2023-12-09 12:45:59.976286$GNZDA,174559.10,09,12,2023,00,00*7B
###2023-12-09 12:45:59.976928$GNEBP,,,,,,M*13
###2023-12-09 12:46:00.146963$GNGGA,174559.30,4138.0488057,N,07032.3870788,W,1,24,0.6,13.424,M,-29.745,M,0.0,*53
###2023-12-09 12:46:00.347593$GNGGA,174559.50,4138.0487948,N,07032.3871161,W,1,24,0.6,13.422,M,-29.745,M,0.0,*5B
###2023-12-09 12:46:00.547506$GNGGA,174559.70,4138.0487855,N,07032.3871930,W,1,24,0.6,13.439,M,-29.745,M,0.0,*52
###2023-12-09 12:46:00.746615$GNGGA,174559.90,4138.0487724,N,07032.3872316,W,1,24,0.6,13.438,M,-29.745,M,0.0,*59
