###2023-12-09 13:45:49.801464$GNGGA,184548.90,4138.0393452,N,07032.4389282,W,1,20,0.7,14.450,M,-29.746,M,0.0,*5D
###2023-12-09 13:45:50.005507$GNRMC,184549.10,A,4138.0393467,N,07032.4389279,W,0.02,243.17,091223,,,A*52
###2023-12-09 13:45:50.008404$GNGGA,184549.10,4138.0393467,N,07032.4389279,W,1,20,0.7,14.457,M,-29.746,M,0.0,*51
###2023-12-09 13:45:50.010132$GPGSA,A,3,04,16,26,28,29,31,,,,,,,1.3,0.7,1.1*33
###2023-12-09 13:45:50.011868$GLGSA,A,3,65,72,73,74,75,83,,,,,,,1.3,0.7,1.1*23
###2023-12-09 13:45:50.013378$GAGSA,A,3,04,21,27,,,,,,,,,,1.3,0.7,1.1*24
###2023-12-09 13:45:50.015030$GBGSA,A,3,12,24,25,33,35,,,,,,,,1.3,0.7,1.1*21
###2023-12-09 13:45:50.017354$GPGSV,2,1,06,04,51,304,46,16,72,228,43,26,78,041,39,28,34,089,45*7D
###2023-12-09 13:45:50.019111$GPGSV,2,2,06,29,18,043,43,31,56,073,49,,,,,,,,*75
###2023-12-09 13:45:50.021427$GLGSV,2,1,06,65,42,313,46,72,57,214,38,73,18,056,43,74,56,022,38*6F
###2023-12-09 13:45:50.023180$GLGSV,2,2,06,75,47,279,47,83,16,042,36,,,,,,,,*62
###2023-12-09 13:45:50.025213$GAGSV,1,1,03,04,43,308,44,21,73,044,38,27,19,051,41,,,,*53
###2023-12-09 13:45:50.027545$GBGSV,2,1,05,12,19,123,43,24,59,051,47,25,54,281,39,33,41,214,37*6D
###2023-12-09 13:45:50.029000$GBGSV,2,2,05,35,16,052,37,,,,,,,,,,,,*5C
###2023-12-09 13:45:50.030322$GNVTG,243.17,T,,M,0.02,N,0.04,K,A*26
###2023-12-09 13:45:50.031953$GNGST,184549.10,6.900,,,,0.200,0.120,0.330*6D
###2023-12-09 13:45:50.033243$GNZDA,184549.10,09,12,2023,00,00*75
###2023-12-09 13:45:50.033881$GNEBP,,,,,,M*13
###2023-12-09 13:45:50.202126$GNGGA,184549.30,4138.0393480,N,07032.4389266,W,1,20,0.7,14.466,M,-29.746,M,0.0,*56
###2023-12-09 13:45:50.404016$GNGGA,184549.50,4138.0393496,N,07032.4389251,W,1,20,0.7,14.470,M,-29.746,M,0.0,*54
###2023-12-09 13:45:50.602410$GNGGA,184549.70,4138.0393501,N,07032.4389230,W,1,20,0.7,14.480,M,-29.746,M,0.0,*51
###2023-12-09 13:45:50.801092$GNGGA,184549.90,4138.0393525,N,07032.4389217,W,1,20,0.7,14.484,M,-29.746,M,0.0,*58
###2023-12-09 13:45:51.003671$GNRMC,184550.10,A,4138.0393530,N,07032.4389224,W,0.04,243.17,091223,,,A*57
###2023-12-09 13:45:51.006535$GNGGA,184550.10,4138.0393530,N,07032.4389224,W,1,20,0.7,14.484,M,-29.746,M,0.0,*5C
###2023-12-09 13:45:51.008271$GPGSA,A,3,04,16,26,28,29,31,,,,,,,1.3,0.7,1.1*33
###2023-12-09 13:45:51.009985$GLGSA,A,3,65,72,73,74,75,83,,,,,,,1.3,0.7,1.1*23
###2023-12-09 13:45:51.011517$GAGSA,A,3,04,21,27,,,,,,,,,,1.3,0.7,1.1*24
###2023-12-09 13:45:51.013154$GBGSA,A,3,12,24,25,33,35,,,,,,,,1.3,0.7,1.1*21
###2023-12-09 13:45:51.015471$GPGSV,2,1,06,04,51,304,46,16,72,228,43,26,78,041,40,28,34,089,45*73
###2023-12-09 13:45:51.017211$GPGSV,2,2,06,29,18,043,43,31,56,073,49,,,,,,,,*75
###2023-12-09 13:45:51.019528$GLGSV,2,1,06,65,42,313,46,72,57,214,38,73,18,056,43,74,56,022,38*6F
###2023-12-09 13:45:51.021285$GLGSV,2,2,06,75,47,279,47,83,16,042,36,,,,,,,,*62
###2023-12-09 13:45:51.023338$GAGSV,1,1,03,04,43,308,44,21,73,044,38,27,19,051,42,,,,*50
###2023-12-09 13:45:51.025652$GBGSV,2,1,05,12,19,123,43,24,59,051,47,25,54,281,38,33,41,214,38*63
###2023-12-09 13:45:51.027111$GBGSV,2,2,05,35,16,052,37,,,,,,,,,,,,*5C
###2023-12-09 13:45:51.028429$GNVTG,243.17,T,,M,0.04,N,0.07,K,A*23
###2023-12-09 13:45:51.030034$GNGST,184550.10,6.800,,,,0.200,0.120,0.330*64
###2023-12-09 13:45:51.031332$GNZDA,184550.10,09,12,2023,00,00*7D
###2023-12-09 13:45:51.031971$GNEBP,,,,,,M*13
###2023-12-09 13:45:51.207003$GNGGA,184550.30,4138.0393545,N,07032.4389200,W,1,20,0.7,14.497,M,-29.746,M,0.0,*58
###2023-12-09 13:45:51.402786$GNGGA,184550.50,4138.0393567,N,07032.4389179,W,1,20,0.7,14.506,M,-29.746,M,0.0,*5A
###2023-12-09 13:45:51.600002$GNGGA,184550.70,4138.0393584,N,07032.4389150,W,1,20,0.7,14.518,M,-29.746,M,0.0,*51
###2023-12-09 13:45:51.800146$GNGGA,184550.90,4138.0393604,N,07032.4389143,W,1,20,0.7,14.527,M,-29.746,M,0.0,*5A
###2023-12-09 13:45:52.004521$GNRMC,184551.10,A,4138.0393610,N,07032.4389128,W,0.00,243.17,091223,,,A*5C
###2023-12-09 13:45:52.007392$GNGGA,184551.10,4138.0393610,N,07032.4389128,W,1,20,0.7,14.537,M,-29.746,M,0.0,*5A
###2023-12-09 13:45:52.009112$GPGSA,A,3,04,16,26,28,29,31,,,,,,,1.3,0.7,1.1*33
###2023-12-09 13:45:52.010825$GLGSA,A,3,65,72,73,74,75,83,,,,,,,1.3,0.7,1.1*23
###2023-12-09 13:45:52.012339$GAGSA,A,3,04,21,27,,,,,,,,,,1.3,0.7,1.1*24
###2023-12-09 13:45:52.013976$GBGSA,A,3,12,24,25,33,35,,,,,,,,1.3,0.7,1.1*21
###2023-12-09 13:45:52.016323$GPGSV,2,1,06,04,51,304,46,16,72,228,43,26,78,041,40,28,34,089,45*73
###2023-12-09 13:45:52.018064$GPGSV,2,2,06,29,18,043,43,31,56,073,49,,,,,,,,*75
###2023-12-09 13:45:52.020389$GLGSV,2,1,06,65,42,313,46,72,57,214,37,73,18,056,43,74,56,022,38*60
###2023-12-09 13:45:52.022127$GLGSV,2,2,06,75,47,279,47,83,16,042,37,,,,,,,,*63
###2023-12-09 13:45:52.024189$GAGSV,1,1,03,04,43,308,44,21,73,044,38,27,19,051,42,,,,*50
###2023-12-09 13:45:52.026508$GBGSV,2,1,05,12,19,123,42,24,59,051,47,25,54,281,38,33,41,214,37*6D
###2023-12-09 13:45:52.027965$GBGSV,2,2,05,35,16,052,36,,,,,,,,,,,,*5D
###2023-12-09 13:45:52.029284$GNVTG,243.17,T,,M,0.00,N,0.00,K,A*20
###2023-12-09 13:45:52.030901$GNGST,184551.10,6.900,,,,0.200,0.120,0.320*65
###2023-12-09 13:45:52.032185$GNZDA,184551.10,09,12,2023,00,00*7C
###2023-12-09 13:45:52.032821$GNEBP,,,,,,M*13
###2023-12-09 13:45:52.201975$GNGGA,184551.30,4138.0393611,N,07032.4389116,W,1,20,0.7,14.546,M,-29.746,M,0.0,*52
###2023-12-09 13:45:52.401307$GNGGA,184551.50,4138.0393612,N,07032.4389100,W,1,20,0.7,14.560,M,-29.746,M,0.0,*54
###2023-12-09 13:45:52.606164$GNGGA,184551.70,4138.0393610,N,07032.4389091,W,1,20,0.7,14.568,M,-29.746,M,0.0,*55
###2023-12-09 13:45:52.801388$GNGGA,184551.90,4138.0393607,N,07032.4389086,W,1,20,0.7,14.572,M,-29.746,M,0.0,*50
###2023-12-09 13:45:53.004594$GNRMC,184552.10,A,4138.0393612,N,07032.4389084,W,0.02,243.17,091223,,,A*58
###2023-12-09 13:45:53.007462$GNGGA,184552.10,4138.0393612,N,07032.4389084,W,1,20,0.7,14.583,M,-29.746,M,0.0,*53
###2023-12-09 13:45:53.009188$GPGSA,A,3,04,16,26,28,29,31,,,,,,,1.3,0.7,1.1*33
###2023-12-09 13:45:53.010909$GLGSA,A,3,65,72,73,74,75,83,,,,,,,1.3,0.7,1.1*23
###2023-12-09 13:45:53.012426$GAGSA,A,3,04,21,27,,,,,,,,,,1.3,0.7,1.1*24
###2023-12-09 13:45:53.014062$GBGSA,A,3,12,24,25,33,35,,,,,,,,1.3,0.7,1.1*21
###2023-12-09 13:45:53.016400$GPGSV,2,1,06,04,51,304,46,16,72,228,43,26,78,041,40,28,34,089,45*73
###2023-12-09 13:45:53.018146$GPGSV,2,2,06,29,18,043,42,31,56,073,49,,,,,,,,*74
###2023-12-09 13:45:53.020479$GLGSV,2,1,06,65,42,313,46,72,57,214,37,73,18,056,42,74,56,022,38*61
###2023-12-09 13:45:53.022218$GLGSV,2,2,06,75,47,279,47,83,16,042,37,,,,,,,,*63
###2023-12-09 13:45:53.024291$GAGSV,1,1,03,04,43,308,44,21,73,044,38,27,19,051,42,,,,*50
###2023-12-09 13:45:53.026628$GBGSV,2,1,05,12,19,123,42,24,59,051,47,25,54,281,38,33,41,214,37*6D
###2023-12-09 13:45:53.028080$GBGSV,2,2,05,35,16,052,37,,,,,,,,,,,,*5C
###2023-12-09 13:45:53.029399$GNVTG,243.17,T,,M,0.02,N,0.04,K,A*26
###2023-12-09 13:45:53.031014$GNGST,184552.10,6.700,,,,0.200,0.120,0.320*68
###2023-12-09 13:45:53.032301$GNZDA,184552.10,09,12,2023,00,00*7F
###2023-12-09 13:45:53.032935$GNEBP,,,,,,M*13
###2023-12-09 13:45:53.202946$GNGGA,184552.30,4138.0393621,N,07032.4389070,W,1,20,0.7,14.590,M,-29.746,M,0.0,*58
###2023-12-09 13:45:53.402710$GNGGA,184552.50,4138.0393622,N,07032.4389047,W,1,20,0.7,14.599,M,-29.746,M,0.0,*50
###2023-12-09 13:45:53.601825$GNGGA,184552.70,4138.0393613,N,07032.4389044,W,1,20,0.7,14.604,M,-29.746,M,0.0,*54
###2023-12-09 13:45:53.803261$GNGGA,184552.90,4138.0393605,N,07032.4389035,W,1,20,0.7,14.617,M,-29.746,M,0.0,*59
###2023-12-09 13:45:54.006115$GNRMC,184553.10,A,4138.0393602,N,07032.4389036,W,0.04,243.17,091223,,,A*57
###2023-12-09 13:45:54.008994$GNGGA,184553.10,4138.0393602,N,07032.4389036,W,1,20,0.7,14.618,M,-29.746,M,0.0,*5B
###2023-12-09 13:45:54.010723$GPGSA,A,3,04,16,26,28,29,31,,,,,,,1.3,0.7,1.1*33
###2023-12-09 13:45:54.012430$GLGSA,A,3,65,72,73,74,75,83,,,,,,,1.3,0.7,1.1*23
###2023-12-09 13:45:54.013945$GAGSA,A,3,04,21,27,,,,,,,,,,1.3,0.7,1.1*24
###2023-12-09 13:45:54.015600$GBGSA,A,3,12,24,25,33,35,,,,,,,,1.3,0.7,1.1*21
###2023-12-09 13:45:54.017923$GPGSV,2,1,06,04,51,304,46,16,72,228,43,26,78,041,40,28,34,089,45*73
###2023-12-09 13:45:54.019919$GPGSV,2,2,06,29,18,043,42,31,56,073,49,,,,,,,,*74
###2023-12-09 13:45:54.022248$GLGSV,2,1,06,65,42,313,46,72,57,214,36,73,18,056,42,74,56,022,37*6F
###2023-12-09 13:45:54.024010$GLGSV,2,2,06,75,47,279,47,83,16,042,36,,,,,,,,*62
###2023-12-09 13:45:54.026046$GAGSV,1,1,03,04,43,308,44,21,73,044,38,27,19,051,42,,,,*50
###2023-12-09 13:45:54.028383$GBGSV,2,1,05,12,19,123,42,24,59,051,47,25,54,281,38,33,41,214,37*6D
###2023-12-09 13:45:54.029842$GBGSV,2,2,05,35,16,052,37,,,,,,,,,,,,*5C
###2023-12-09 13:45:54.031180$GNVTG,243.17,T,,M,0.04,N,0.07,K,A*23
###2023-12-09 13:45:54.032786$GNGST,184553.10,7.200,,,,0.200,0.120,0.320*6D
