###2023-12-09 13:17:50.008238$GBGSV,2,1,06,14,36,191,42,24,68,036,50,25,45,268,48,26,21,066,43*6F
###2023-12-09 13:17:50.010004$GBGSV,2,2,06,33,52,224,47,35,16,063,43,,,,,,,,*6E
###2023-12-09 13:17:50.011348$GNVTG,177.49,T,,M,3.46,N,6.41,K,A*2D
###2023-12-09 13:17:50.012998$GNGST,181749.10,18.000,,,,0.100,0.069,0.170*55
###2023-12-09 13:17:50.014289$GNZDA,181749.10,09,12,2023,00,00*72
###2023-12-09 13:17:50.014940$GNEBP,,,,,,M*13
###2023-12-09 13:17:50.181822$GNGGA,181749.30,4138.0317951,N,07032.2942523,W,1,24,0.7,12.879,M,-29.744,M,0.0,*53
###2023-12-09 13:17:50.380800$GNGGA,181749.50,4138.0316003,N,07032.2942647,W,1,24,0.7,12.900,M,-29.744,M,0.0,*54
###2023-12-09 13:17:50.582553$GNGGA,181749.70,4138.0314004,N,07032.2942585,W,1,24,0.7,12.880,M,-29.744,M,0.0,*57
###2023-12-09 13:17:50.781984$GNGGA,181749.90,4138.0312093,N,07032.2942570,W,1,24,0.7,12.871,M,-29.744,M,0.0,*55
###2023-12-09 13:17:50.986812$GNRMC,181750.10,A,4138.0310181,N,07032.2942709,W,3.54,184.09,091223,,,A*55
###2023-12-09 13:17:50.989670$GNGGA,181750.10,4138.0310181,N,07032.2942709,W,1,24,0.7,12.888,M,-29.744,M,0.0,*5F
###2023-12-09 13:17:50.991478$GPGSA,A,3,03,04,16,26,28,29,31,,,,,,1.2,0.7,0.9*38
###2023-12-09 13:17:50.993194$GLGSA,A,3,65,71,72,73,74,75,,,,,,,1.2,0.7,0.9*26
###2023-12-09 13:17:50.994795$GAGSA,A,3,04,19,21,27,,,,,,,,,1.2,0.7,0.9*24
###2023-12-09 13:17:50.996514$GBGSA,A,3,14,24,25,26,33,35,,,,,,,1.2,0.7,0.9*2B
###2023-12-09 13:17:50.998864$GPGSV,2,1,07,03,31,253,42,04,39,310,45,16,58,216,46,26,88,205,48*71
###2023-12-09 13:17:51.000918$GPGSV,2,2,07,28,43,078,45,29,23,053,43,31,64,053,47,,,,*43
###2023-12-09 13:17:51.003278$GLGSV,2,1,06,65,31,324,43,71,32,174,43,72,70,240,45,73,29,047,44*68
###2023-12-09 13:17:51.005041$GLGSV,2,2,06,74,65,358,43,75,38,261,46,,,,,,,,*64
###2023-12-09 13:17:51.007393$GAGSV,1,1,04,04,34,311,44,19,79,190,40,21,83,062,46,27,28,049,41*6F
###2023-12-09 13:17:51.009734$GBGSV,2,1,06,14,36,191,42,24,68,036,50,25,45,268,47,26,21,066,44*67
###2023-12-09 13:17:51.011498$GBGSV,2,2,06,33,52,224,47,35,16,063,45,,,,,,,,*68
###2023-12-09 13:17:51.012836$GNVTG,184.09,T,,M,3.54,N,6.55,K,A*23
###2023-12-09 13:17:51.014496$GNGST,181750.10,18.000,,,,0.100,0.069,0.160*5C
###2023-12-09 13:17:51.015808$GNZDA,181750.10,09,12,2023,00,00*7A
###2023-12-09 13:17:51.016450$GNEBP,,,,,,M*13
###2023-12-09 13:17:51.183472$GNGGA,181750.30,4138.0308225,N,07032.2942889,W,1,24,0.7,12.881,M,-29.744,M,0.0,*57
###2023-12-09 13:17:51.383707$GNGGA,181750.50,4138.0306396,N,07032.2943118,W,1,24,0.7,12.883,M,-29.744,M,0.0,*54
###2023-12-09 13:17:51.581569$GNGGA,181750.70,4138.0304453,N,07032.2943225,W,1,24,0.7,12.885,M,-29.744,M,0.0,*51
###2023-12-09 13:17:51.782823$GNGGA,181750.90,4138.0302577,N,07032.2943344,W,1,24,0.7,12.850,M,-29.744,M,0.0,*50
###2023-12-09 13:17:51.986508$GNRMC,181751.10,A,4138.0300722,N,07032.2943709,W,3.50,189.70,091223,,,A*5C
###2023-12-09 13:17:51.989398$GNGGA,181751.10,4138.0300722,N,07032.2943709,W,1,24,0.7,12.877,M,-29.744,M,0.0,*51
###2023-12-09 13:17:51.991207$GPGSA,A,3,03,04,16,26,28,29,31,,,,,,1.2,0.7,0.9*38
###2023-12-09 13:17:51.992926$GLGSA,A,3,65,71,72,73,74,75,,,,,,,1.2,0.7,0.9*26
###2023-12-09 13:17:51.994508$GAGSA,A,3,04,19,21,27,,,,,,,,,1.2,0.7,0.9*24
###2023-12-09 13:17:51.996230$GBGSA,A,3,14,24,25,26,33,35,,,,,,,1.2,0.7,0.9*2B
###2023-12-09 13:17:51.998571$GPGSV,2,1,07,03,31,253,44,04,39,310,44,16,58,216,46,26,88,205,48*76
###2023-12-09 13:17:52.000614$GPGSV,2,2,07,28,43,078,45,29,23,053,43,31,64,053,47,,,,*43
###2023-12-09 13:17:52.002957$GLGSV,2,1,06,65,31,324,43,71,32,174,43,72,70,240,45,73,29,047,44*68
###2023-12-09 13:17:52.004717$GLGSV,2,2,06,74,65,358,43,75,38,261,46,,,,,,,,*64
###2023-12-09 13:17:52.007056$GAGSV,1,1,04,04,34,311,43,19,79,190,40,21,83,062,46,27,28,049,42*6B
###2023-12-09 13:17:52.009392$GBGSV,2,1,06,14,36,191,40,24,68,036,48,25,45,268,46,26,21,066,43*6A
###2023-12-09 13:17:52.011161$GBGSV,2,2,06,33,52,224,46,35,16,063,43,,,,,,,,*6F
###2023-12-09 13:17:52.012486$GNVTG,189.70,T,,M,3.50,N,6.48,K,A*28
###2023-12-09 13:17:52.014133$GNGST,181751.10,18.000,,,,0.100,0.069,0.170*5C
###2023-12-09 13:17:52.015435$GNZDA,181751.10,09,12,2023,00,00*7B
###2023-12-09 13:17:52.016076$GNEBP,,,,,,M*13
###2023-12-09 13:17:52.180731$GNGGA,181751.30,4138.0298782,N,07032.2943999,W,1,24,0.7,12.878,M,-29.744,M,0.0,*51
###2023-12-09 13:17:52.381601$GNGGA,181751.50,4138.0296921,N,07032.2943959,W,1,24,0.7,12.863,M,-29.744,M,0.0,*58
###2023-12-09 13:17:52.581422$GNGGA,181751.70,4138.0295013,N,07032.2943833,W,1,24,0.7,12.855,M,-29.744,M,0.0,*59
###2023-12-09 13:17:52.780432$GNGGA,181751.90,4138.0293078,N,07032.2943782,W,1,24,0.7,12.843,M,-29.744,M,0.0,*5E
###2023-12-09 13:17:52.984792$GNRMC,181752.10,A,4138.0291172,N,07032.2943896,W,3.48,182.18,091223,,,A*50
###2023-12-09 13:17:52.987669$GNGGA,181752.10,4138.0291172,N,07032.2943896,W,1,24,0.7,12.865,M,-29.744,M,0.0,*52
###2023-12-09 13:17:52.989464$GPGSA,A,3,03,04,16,26,28,29,31,,,,,,1.2,0.7,0.9*38
###2023-12-09 13:17:52.991196$GLGSA,A,3,65,71,72,73,74,75,,,,,,,1.2,0.7,0.9*26
###2023-12-09 13:17:52.992786$GAGSA,A,3,04,19,21,27,,,,,,,,,1.2,0.7,0.9*24
###2023-12-09 13:17:52.994500$GBGSA,A,3,14,24,25,26,33,35,,,,,,,1.2,0.7,0.9*2B
###2023-12-09 13:17:52.996850$GPGSV,2,1,07,03,31,253,43,04,39,310,46,16,58,216,47,26,88,205,48*72
###2023-12-09 13:17:52.998920$GPGSV,2,2,07,28,43,078,45,29,23,053,41,31,64,053,47,,,,*41
###2023-12-09 13:17:53.001261$GLGSV,2,1,06,65,31,324,44,71,32,174,43,72,70,240,45,73,29,047,43*68
###2023-12-09 13:17:53.003021$GLGSV,2,2,06,74,65,358,43,75,38,261,47,,,,,,,,*65
###2023-12-09 13:17:53.005355$GAGSV,1,1,04,04,34,311,43,19,79,190,40,21,83,062,46,27,28,049,40*69
###2023-12-09 13:17:53.007709$GBGSV,2,1,06,14,36,191,41,24,68,036,48,25,45,268,47,26,21,066,42*6B
###2023-12-09 13:17:53.009464$GBGSV,2,2,06,33,52,224,47,35,16,063,42,,,,,,,,*6F
###2023-12-09 13:17:53.010805$GNVTG,182.18,T,,M,3.48,N,6.44,K,A*28
###2023-12-09 13:17:53.012457$GNGST,181752.10,18.000,,,,0.100,0.069,0.170*5F
###2023-12-09 13:17:53.013750$GNZDA,181752.10,09,12,2023,00,00*78
###2023-12-09 13:17:53.014387$GNEBP,,,,,,M*13
###2023-12-09 13:17:53.180763$GNGGA,181752.30,4138.0289220,N,07032.2943750,W,1,24,0.7,12.865,M,-29.744,M,0.0,*58
###2023-12-09 13:17:53.379706$GNGGA,181752.50,4138.0287351,N,07032.2943326,W,1,24,0.7,12.842,M,-29.744,M,0.0,*57
###2023-12-09 13:17:53.581380$GNGGA,181752.70,4138.0285398,N,07032.2943113,W,1,24,0.7,12.842,M,-29.744,M,0.0,*56
###2023-12-09 13:17:53.781413$GNGGA,181752.90,4138.0283445,N,07032.2943062,W,1,24,0.7,12.838,M,-29.744,M,0.0,*53
###2023-12-09 13:17:53.985534$GNRMC,181753.10,A,4138.0281505,N,07032.2943035,W,3.38,180.01,091223,,,A*58
###2023-12-09 13:17:53.988430$GNGGA,181753.10,4138.0281505,N,07032.2943035,W,1,24,0.7,12.845,M,-29.744,M,0.0,*55
###2023-12-09 13:17:53.990230$GPGSA,A,3,03,04,16,26,28,29,31,,,,,,1.2,0.7,0.9*38
###2023-12-09 13:17:53.991953$GLGSA,A,3,65,71,72,73,74,75,,,,,,,1.2,0.7,0.9*26
###2023-12-09 13:17:53.993542$GAGSA,A,3,04,19,21,27,,,,,,,,,1.2,0.7,0.9*24
###2023-12-09 13:17:53.995268$GBGSA,A,3,14,24,25,26,33,35,,,,,,,1.2,0.7,0.9*2B
###2023-12-09 13:17:53.997596$GPGSV,2,1,07,03,31,253,43,04,39,310,46,16,58,216,46,26,88,205,48*73
###2023-12-09 13:17:53.999647$GPGSV,2,2,07,28,43,078,45,29,23,053,41,31,64,053,47,,,,*41
###2023-12-09 13:17:54.001974$GLGSV,2,1,06,65,31,324,44,71,32,174,43,72,70,240,45,73,29,047,43*68
###2023-12-09 13:17:54.003727$GLGSV,2,2,06,74,65,358,43,75,38,261,46,,,,,,,,*64
###2023-12-09 13:17:54.006053$GAGSV,1,1,04,04,34,311,44,19,78,188,40,21,83,062,46,27,28,049,40*66
###2023-12-09 13:17:54.008387$GBGSV,2,1,06,14,36,191,42,24,68,036,48,25,45,268,47,26,21,066,42*68
###2023-12-09 13:17:54.010132$GBGSV,2,2,06,33,52,224,47,35,16,063,43,,,,,,,,*6E
###2023-12-09 13:17:54.011463$GNVTG,180.01,T,,M,3.38,N,6.26,K,A*21
###2023-12-09 13:17:54.013105$GNGST,181753.10,18.000,,,,0.100,0.069,0.170*5E
###2023-12-09 13:17:54.014393$GNZDA,181753.10,09,12,2023,00,00*79
###2023-12-09 13:17:54.015043$GNEBP,,,,,,M*13
###2023-12-09 13:17:54.180644$GNGGA,181753.30,4138.0279536,N,07032.2942924,W,1,24,0.7,12.841,M,-29.744,M,0.0,*5C
###2023-12-09 13:17:54.380758$GNGGA,181753.50,4138.0277596,N,07032.2942897,W,1,24,0.7,12.822,M,-29.744,M,0.0,*52
###2023-12-09 13:17:54.581417$GNGGA,181753.70,4138.0275651,N,07032.2943134,W,1,24,0.7,12.829,M,-29.744,M,0.0,*50
###2023-12-09 13:17:54.782337$GNGGA,181753.90,4138.0273731,N,07032.2943547,W,1,24,0.7,12.836,M,-29.744,M,0.0,*51
###2023-12-09 13:17:54.990360$GNRMC,181754.10,A,4138.0271743,N,07032.2943745,W,3.56,178.78,091223,,,A*51
###2023-12-09 13:17:54.993236$GNGGA,181754.10,4138.0271743,N,07032.2943745,W,1,24,0.7,12.813,M,-29.744,M,0.0,*5E
###2023-12-09 13:17:54.995040$GPGSA,A,3,03,04,16,26,28,29,31,,,,,,1.2,0.7,0.9*38
###2023-12-09 13:17:54.996756$GLGSA,A,3,65,71,72,73,74,75,,,,,,,1.2,0.7,0.9*26
###2023-12-09 13:17:54.998344$GAGSA,A,3,04,19,21,27,,,,,,,,,1.2,0.7,0.9*24
###2023-12-09 13:17:55.000067$GBGSA,A,3,14,24,25,26,33,35,,,,,,,1.2,0.7,0.9*2B
