###2023-12-09 12:58:32.987460$GLGSV,2,1,06,65,22,328,40,71,43,172,47,72,73,277,47,73,37,040,45*6D
###2023-12-09 12:58:32.989232$GLGSV,2,2,06,74,70,331,43,75,30,251,46,,,,,,,,*64
###2023-12-09 12:58:32.991583$GAGSV,1,1,04,04,28,312,40,19,85,226,40,21,85,133,46,27,34,048,43*65
###2023-12-09 12:58:32.993927$GBGSV,2,1,05,14,44,193,46,24,74,022,48,25,40,261,47,26,27,062,41*6D
###2023-12-09 12:58:32.995408$GBGSV,2,2,05,33,59,235,48,,,,,,,,,,,,*5A
###2023-12-09 12:58:32.996701$GNVTG,88.02,T,,M,3.32,N,6.16,K,A*12
###2023-12-09 12:58:32.998349$GNGST,175832.10,18.000,,,,0.081,0.068,0.160*55
###2023-12-09 12:58:32.999659$GNZDA,175832.10,09,12,2023,00,00*7A
###2023-12-09 12:58:33.000301$GNEBP,,,,,,M*13
###2023-12-09 12:58:33.163338$GNGGA,175832.30,4138.0327618,N,07032.2986624,W,1,24,0.6,13.025,M,-29.744,M,0.0,*57
###2023-12-09 12:58:33.360149$GNGGA,175832.50,4138.0327487,N,07032.2983950,W,1,24,0.6,13.004,M,-29.744,M,0.0,*5F
###2023-12-09 12:58:33.561193$GNGGA,175832.70,4138.0327240,N,07032.2981482,W,1,24,0.6,12.984,M,-29.744,M,0.0,*50
###2023-12-09 12:58:33.761495$GNGGA,175832.90,4138.0327362,N,07032.2979027,W,1,24,0.6,13.014,M,-29.744,M,0.0,*52
###2023-12-09 12:58:33.962267$GNRMC,175833.10,A,4138.0327511,N,07032.2976427,W,3.52,89.33,091223,,,A*66
###2023-12-09 12:58:33.965136$GNGGA,175833.10,4138.0327511,N,07032.2976427,W,1,24,0.6,13.001,M,-29.744,M,0.0,*56
###2023-12-09 12:58:33.967005$GPGSA,A,3,03,04,16,26,28,29,31,32,,,,,1.1,0.6,0.9*3B
###2023-12-09 12:58:33.968715$GLGSA,A,3,65,71,72,73,74,75,,,,,,,1.1,0.6,0.9*24
###2023-12-09 12:58:33.970292$GAGSA,A,3,04,19,21,27,,,,,,,,,1.1,0.6,0.9*26
###2023-12-09 12:58:33.971942$GBGSA,A,3,14,24,25,26,33,,,,,,,,1.1,0.6,0.9*2F
###2023-12-09 12:58:33.974264$GPGSV,2,1,08,03,36,264,45,04,31,311,42,16,48,211,46,26,78,209,48*71
###2023-12-09 12:58:33.976596$GPGSV,2,2,08,28,50,069,44,29,25,063,40,31,69,033,46,32,20,139,41*7E
###2023-12-09 12:58:33.978937$GLGSV,2,1,06,65,22,328,41,71,43,172,46,72,73,277,47,73,37,040,45*6D
###2023-12-09 12:58:33.980688$GLGSV,2,2,06,74,70,331,43,75,30,251,45,,,,,,,,*67
###2023-12-09 12:58:33.983009$GAGSV,1,1,04,04,28,312,40,19,85,226,40,21,85,133,46,27,34,048,43*65
###2023-12-09 12:58:33.985335$GBGSV,2,1,05,14,44,193,46,24,74,022,49,25,40,261,46,26,27,062,42*6E
###2023-12-09 12:58:33.986805$GBGSV,2,2,05,33,59,235,48,,,,,,,,,,,,*5A
###2023-12-09 12:58:33.988095$GNVTG,89.33,T,,M,3.52,N,6.52,K,A*17
###2023-12-09 12:58:33.989738$GNGST,175833.10,18.000,,,,0.081,0.068,0.160*54
###2023-12-09 12:58:33.991040$GNZDA,175833.10,09,12,2023,00,00*7B
###2023-12-09 12:58:33.991677$GNEBP,,,,,,M*13
###2023-12-09 12:58:34.160364$GNGGA,175833.30,4138.0327542,N,07032.2973903,W,1,24,0.6,12.979,M,-29.744,M,0.0,*5B
###2023-12-09 12:58:34.361524$GNGGA,175833.50,4138.0327613,N,07032.2971440,W,1,24,0.6,13.003,M,-29.744,M,0.0,*57
###2023-12-09 12:58:34.564864$GNGGA,175833.70,4138.0327700,N,07032.2968863,W,1,24,0.6,13.006,M,-29.744,M,0.0,*56
###2023-12-09 12:58:34.761740$GNGGA,175833.90,4138.0327770,N,07032.2966311,W,1,24,0.6,12.967,M,-29.744,M,0.0,*50
###2023-12-09 12:58:34.962872$GNRMC,175834.10,A,4138.0328016,N,07032.2963927,W,3.27,78.30,091223,,,A*6A
###2023-12-09 12:58:34.965729$GNGGA,175834.10,4138.0328016,N,07032.2963927,W,1,24,0.6,12.986,M,-29.744,M,0.0,*52
###2023-12-09 12:58:34.967595$GPGSA,A,3,03,04,16,26,28,29,31,32,,,,,1.1,0.6,0.9*3B
###2023-12-09 12:58:34.969312$GLGSA,A,3,65,71,72,73,74,75,,,,,,,1.1,0.6,0.9*24
###2023-12-09 12:58:34.970920$GAGSA,A,3,04,19,21,27,,,,,,,,,1.1,0.6,0.9*26
###2023-12-09 12:58:34.972563$GBGSA,A,3,14,24,25,26,33,,,,,,,,1.1,0.6,0.9*2F
###2023-12-09 12:58:34.974896$GPGSV,2,1,08,03,36,264,45,04,31,311,43,16,48,211,47,26,78,209,48*71
###2023-12-09 12:58:34.977232$GPGSV,2,2,08,28,50,069,43,29,25,063,40,31,69,033,46,32,20,139,42*7A
###2023-12-09 12:58:34.979572$GLGSV,2,1,06,65,22,328,42,71,43,172,45,72,73,277,46,73,37,040,45*6C
###2023-12-09 12:58:34.981316$GLGSV,2,2,06,74,70,331,43,75,30,251,45,,,,,,,,*67
###2023-12-09 12:58:34.983645$GAGSV,1,1,04,04,28,312,39,19,85,226,40,21,85,133,46,27,34,048,43*6B
###2023-12-09 12:58:34.985969$GBGSV,2,1,05,14,44,193,46,24,74,022,49,25,40,261,47,26,27,062,42*6F
###2023-12-09 12:58:34.987431$GBGSV,2,2,05,33,59,235,48,,,,,,,,,,,,*5A
###2023-12-09 12:58:34.988716$GNVTG,78.30,T,,M,3.27,N,6.05,K,A*1A
###2023-12-09 12:58:34.990357$GNGST,175834.10,18.000,,,,0.080,0.068,0.160*52
###2023-12-09 12:58:34.991659$GNZDA,175834.10,09,12,2023,00,00*7C
###2023-12-09 12:58:34.992297$GNEBP,,,,,,M*13
###2023-12-09 12:58:35.159205$GNGGA,175834.30,4138.0328321,N,07032.2961444,W,1,24,0.6,13.026,M,-29.744,M,0.0,*5F
###2023-12-09 12:58:35.360879$GNGGA,175834.50,4138.0328191,N,07032.2958838,W,1,24,0.6,12.987,M,-29.744,M,0.0,*5E
###2023-12-09 12:58:35.561183$GNGGA,175834.70,4138.0328056,N,07032.2956532,W,1,24,0.6,12.962,M,-29.744,M,0.0,*54
###2023-12-09 12:58:35.761548$GNGGA,175834.90,4138.0328509,N,07032.2954136,W,1,24,0.6,13.015,M,-29.744,M,0.0,*5F
###2023-12-09 12:58:35.962946$GNRMC,175835.10,A,4138.0328565,N,07032.2951529,W,3.56,100.01,091223,,,A*53
###2023-12-09 12:58:35.965822$GNGGA,175835.10,4138.0328565,N,07032.2951529,W,1,24,0.6,12.992,M,-29.744,M,0.0,*54
###2023-12-09 12:58:35.967700$GPGSA,A,3,03,04,16,26,28,29,31,32,,,,,1.1,0.6,0.9*3B
###2023-12-09 12:58:35.969407$GLGSA,A,3,65,71,72,73,74,75,,,,,,,1.1,0.6,0.9*24
###2023-12-09 12:58:35.970997$GAGSA,A,3,04,19,21,27,,,,,,,,,1.1,0.6,0.9*26
###2023-12-09 12:58:35.972634$GBGSA,A,3,14,24,25,26,33,,,,,,,,1.1,0.6,0.9*2F
###2023-12-09 12:58:35.974959$GPGSV,2,1,08,03,36,264,43,04,31,311,42,16,48,211,46,26,78,209,48*77
###2023-12-09 12:58:35.977282$GPGSV,2,2,08,28,50,069,44,29,25,063,43,31,69,033,46,32,20,139,40*7C
###2023-12-09 12:58:35.979611$GLGSV,2,1,06,65,22,328,42,71,43,172,45,72,73,277,46,73,37,040,45*6C
###2023-12-09 12:58:35.981351$GLGSV,2,2,06,74,70,331,43,75,30,251,44,,,,,,,,*66
###2023-12-09 12:58:35.983677$GAGSV,1,1,04,04,28,312,41,19,85,226,40,21,85,133,46,27,34,048,43*64
###2023-12-09 12:58:35.985992$GBGSV,2,1,05,14,44,193,45,24,74,022,49,25,40,261,45,26,27,062,44*68
###2023-12-09 12:58:35.987449$GBGSV,2,2,05,33,59,235,47,,,,,,,,,,,,*55
###2023-12-09 12:58:35.988760$GNVTG,100.01,T,,M,3.56,N,6.59,K,A*29
###2023-12-09 12:58:35.990397$GNGST,175835.10,18.000,,,,0.081,0.068,0.160*52
###2023-12-09 12:58:35.991690$GNZDA,175835.10,09,12,2023,00,00*7D
###2023-12-09 12:58:35.992325$GNEBP,,,,,,M*13
###2023-12-09 12:58:36.161196$GNGGA,175835.30,4138.0328106,N,07032.2949125,W,1,24,0.6,12.967,M,-29.744,M,0.0,*5C
###2023-12-09 12:58:36.361095$GNGGA,175835.50,4138.0327953,N,07032.2946812,W,1,24,0.6,13.010,M,-29.744,M,0.0,*57
###2023-12-09 12:58:36.563686$GNGGA,175835.70,4138.0328158,N,07032.2944253,W,1,24,0.6,13.034,M,-29.744,M,0.0,*52
###2023-12-09 12:58:36.763987$GNGGA,175835.90,4138.0327983,N,07032.2941767,W,1,24,0.6,12.973,M,-29.744,M,0.0,*51
###2023-12-09 12:58:36.963833$GNRMC,175836.10,A,4138.0327924,N,07032.2939490,W,3.15,85.44,091223,,,A*61
###2023-12-09 12:58:36.966743$GNGGA,175836.10,4138.0327924,N,07032.2939490,W,1,24,0.6,12.993,M,-29.744,M,0.0,*5D
###2023-12-09 12:58:36.968593$GPGSA,A,3,03,04,16,26,28,29,31,32,,,,,1.1,0.6,0.9*3B
###2023-12-09 12:58:36.970301$GLGSA,A,3,65,71,72,73,74,75,,,,,,,1.1,0.6,0.9*24
###2023-12-09 12:58:36.971885$GAGSA,A,3,04,19,21,27,,,,,,,,,1.1,0.6,0.9*26
###2023-12-09 12:58:36.973521$GBGSA,A,3,14,24,25,26,33,,,,,,,,1.1,0.6,0.9*2F
###2023-12-09 12:58:36.975840$GPGSV,2,1,08,03,36,264,45,04,31,311,41,16,48,211,46,26,78,209,48*72
###2023-12-09 12:58:36.978154$GPGSV,2,2,08,28,50,069,43,29,25,063,40,31,69,033,47,32,20,139,42*7B
###2023-12-09 12:58:36.980498$GLGSV,2,1,06,65,22,328,43,71,43,172,46,72,73,277,46,73,37,040,45*6E
###2023-12-09 12:58:36.982238$GLGSV,2,2,06,74,70,331,42,75,30,251,45,,,,,,,,*66
###2023-12-09 12:58:36.984570$GAGSV,1,1,04,04,28,312,41,19,85,226,40,21,85,133,45,27,34,048,42*66
###2023-12-09 12:58:36.986892$GBGSV,2,1,05,14,44,193,46,24,74,022,49,25,40,261,47,26,27,062,42*6F
###2023-12-09 12:58:36.988337$GBGSV,2,2,05,33,59,235,47,,,,,,,,,,,,*55
###2023-12-09 12:58:36.989614$GNVTG,85.44,T,,M,3.15,N,5.83,K,A*17
###2023-12-09 12:58:36.991259$GNGST,175836.10,18.000,,,,0.080,0.068,0.160*50
###2023-12-09 12:58:36.992796$GNZDA,175836.10,09,12,2023,00,00*7E
###2023-12-09 12:58:36.993447$GNEBP,,,,,,M*13
###2023-12-09 12:58:37.161163$GNGGA,175836.30,4138.0327940,N,07032.2936961,W,1,24,0.6,13.038,M,-29.744,M,0.0,*58
###2023-12-09 12:58:37.361746$GNGGA,175836.50,4138.0327820,N,07032.2934393,W,1,24,0.6,12.999,M,-29.744,M,0.0,*5F
###2023-12-09 12:58:37.562140$GNGGA,175836.70,4138.0328022,N,07032.2932022,W,1,24,0.6,13.006,M,-29.744,M,0.0,*59
###2023-12-09 12:58:37.762527$GNGGA,175836.90,4138.0328239,N,07032.2929428,W,1,24,0.6,13.026,M,-29.744,M,0.0,*59
###2023-12-09 12:58:37.966133$GNRMC,175837.10,A,4138.0328208,N,07032.2926896,W,3.21,92.05,091223,,,A*6A
###2023-12-09 12:58:37.969013$GNGGA,175837.10,4138.0328208,N,07032.2926896,W,1,24,0.6,13.001,M,-29.744,M,0.0,*51
###2023-12-09 12:58:37.970898$GPGSA,A,3,03,04,16,26,28,29,31,32,,,,,1.1,0.6,0.9*3B
