###2023-12-09 13:20:03.383115$GNGGA,182002.50,4138.0700745,N,07032.3267504,W,1,24,0.7,12.990,M,-29.743,M,0.0,*5E
###2023-12-09 13:20:03.585534$GNGGA,182002.70,4138.0698885,N,07032.3266966,W,1,24,0.7,12.965,M,-29.743,M,0.0,*5C
###2023-12-09 13:20:03.784390$GNGGA,182002.90,4138.0697041,N,07032.3266668,W,1,24,0.7,12.983,M,-29.743,M,0.0,*54
###2023-12-09 13:20:03.985523$GNRMC,182003.10,A,4138.0695126,N,07032.3266271,W,3.42,167.49,091223,,,A*5A
###2023-12-09 13:20:03.988401$GNGGA,182003.10,4138.0695126,N,07032.3266271,W,1,24,0.7,12.986,M,-29.743,M,0.0,*56
###2023-12-09 13:20:03.990196$GPGSA,A,3,03,04,16,26,28,29,31,,,,,,1.1,0.7,0.9*3B
###2023-12-09 13:20:03.991928$GLGSA,A,3,65,71,72,73,74,75,,,,,,,1.1,0.7,0.9*25
###2023-12-09 13:20:03.993515$GAGSA,A,3,04,19,21,27,,,,,,,,,1.1,0.7,0.9*27
###2023-12-09 13:20:03.995242$GBGSA,A,3,14,24,25,26,33,35,,,,,,,1.1,0.7,0.9*28
###2023-12-09 13:20:03.997567$GPGSV,2,1,07,03,31,253,44,04,40,310,45,16,59,217,47,26,89,196,49*71
###2023-12-09 13:20:03.999620$GPGSV,2,2,07,28,43,079,46,29,23,053,41,31,64,055,47,,,,*45
###2023-12-09 13:20:04.001952$GLGSV,2,1,06,65,32,324,44,71,31,174,43,72,69,237,46,73,28,047,42*63
###2023-12-09 13:20:04.003617$GLGSV,2,2,06,74,65,,43,75,38,262,49,,,,,,,,*56
###2023-12-09 13:20:04.005949$GAGSV,1,1,04,04,35,311,43,19,78,187,40,21,82,056,46,27,27,049,40*66
###2023-12-09 13:20:04.008296$GBGSV,2,1,06,14,35,191,42,24,68,038,49,25,46,269,49,26,20,067,44*6E
###2023-12-09 13:20:04.010048$GBGSV,2,2,06,33,51,223,48,35,16,062,43,,,,,,,,*64
###2023-12-09 13:20:04.011382$GNVTG,167.49,T,,M,3.42,N,6.34,K,A*2A
###2023-12-09 13:20:04.013036$GNGST,182003.10,18.000,,,,0.100,0.070,0.170*57
###2023-12-09 13:20:04.014333$GNZDA,182003.10,09,12,2023,00,00*78
###2023-12-09 13:20:04.014985$GNEBP,,,,,,M*13
###2023-12-09 13:20:04.182374$GNGGA,182003.30,4138.0693279,N,07032.3265676,W,1,24,0.7,12.970,M,-29.743,M,0.0,*52
###2023-12-09 13:20:04.381917$GNGGA,182003.50,4138.0691399,N,07032.3265164,W,1,24,0.7,12.981,M,-29.743,M,0.0,*53
###2023-12-09 13:20:04.582362$GNGGA,182003.70,4138.0689466,N,07032.3264766,W,1,24,0.7,12.972,M,-29.743,M,0.0,*56
###2023-12-09 13:20:04.782642$GNGGA,182003.90,4138.0687579,N,07032.3264646,W,1,24,0.7,12.971,M,-29.743,M,0.0,*59
###2023-12-09 13:20:04.987417$GNRMC,182004.10,A,4138.0685658,N,07032.3264583,W,3.54,175.81,091223,,,A*5A
###2023-12-09 13:20:04.990291$GNGGA,182004.10,4138.0685658,N,07032.3264583,W,1,24,0.7,12.980,M,-29.743,M,0.0,*50
###2023-12-09 13:20:04.992111$GPGSA,A,3,03,04,16,26,28,29,31,,,,,,1.1,0.7,0.9*3B
###2023-12-09 13:20:04.993838$GLGSA,A,3,65,71,72,73,74,75,,,,,,,1.1,0.7,0.9*25
###2023-12-09 13:20:04.995446$GAGSA,A,3,04,19,21,27,,,,,,,,,1.1,0.7,0.9*27
###2023-12-09 13:20:04.997163$GBGSA,A,3,14,24,25,26,33,35,,,,,,,1.1,0.7,0.9*28
###2023-12-09 13:20:04.999519$GPGSV,2,1,07,03,31,253,42,04,40,310,45,16,59,217,46,26,89,196,49*76
###2023-12-09 13:20:05.001567$GPGSV,2,2,07,28,43,079,45,29,23,053,42,31,64,055,47,,,,*45
###2023-12-09 13:20:05.003924$GLGSV,2,1,06,65,32,324,42,71,31,174,42,72,69,237,46,73,28,047,43*65
###2023-12-09 13:20:05.005585$GLGSV,2,2,06,74,65,,43,75,38,262,47,,,,,,,,*58
###2023-12-09 13:20:05.007912$GAGSV,1,1,04,04,35,311,44,19,78,187,40,21,82,056,46,27,27,049,40*61
###2023-12-09 13:20:05.010229$GBGSV,2,1,06,14,35,191,40,24,68,038,48,25,46,269,48,26,20,067,43*6B
###2023-12-09 13:20:05.011983$GBGSV,2,2,06,33,51,223,46,35,16,062,44,,,,,,,,*6D
###2023-12-09 13:20:05.013305$GNVTG,175.81,T,,M,3.54,N,6.55,K,A*2D
###2023-12-09 13:20:05.014956$GNGST,182004.10,18.000,,,,0.100,0.070,0.170*50
###2023-12-09 13:20:05.016243$GNZDA,182004.10,09,12,2023,00,00*7F
###2023-12-09 13:20:05.016878$GNEBP,,,,,,M*13
###2023-12-09 13:20:05.182184$GNGGA,182004.30,4138.0683732,N,07032.3264392,W,1,24,0.7,12.952,M,-29.743,M,0.0,*50
###2023-12-09 13:20:05.381831$GNGGA,182004.50,4138.0681869,N,07032.3264557,W,1,24,0.7,12.965,M,-29.743,M,0.0,*5E
###2023-12-09 13:20:05.582658$GNGGA,182004.70,4138.0679941,N,07032.3264735,W,1,24,0.7,12.965,M,-29.743,M,0.0,*56
###2023-12-09 13:20:05.781626$GNGGA,182004.90,4138.0678060,N,07032.3264906,W,1,24,0.7,12.952,M,-29.743,M,0.0,*59
###2023-12-09 13:20:05.985449$GNRMC,182005.10,A,4138.0676168,N,07032.3264962,W,3.21,184.44,091223,,,A*55
###2023-12-09 13:20:05.988357$GNGGA,182005.10,4138.0676168,N,07032.3264962,W,1,24,0.7,12.950,M,-29.743,M,0.0,*57
###2023-12-09 13:20:05.990157$GPGSA,A,3,03,04,16,26,28,29,31,,,,,,1.1,0.7,0.9*3B
###2023-12-09 13:20:05.991891$GLGSA,A,3,65,71,72,73,74,75,,,,,,,1.1,0.7,0.9*25
###2023-12-09 13:20:05.993474$GAGSA,A,3,04,19,21,27,,,,,,,,,1.1,0.7,0.9*27
###2023-12-09 13:20:05.995198$GBGSA,A,3,14,24,25,26,33,35,,,,,,,1.1,0.7,0.9*28
###2023-12-09 13:20:05.997530$GPGSV,2,1,07,03,31,253,42,04,40,310,44,16,59,217,46,26,89,196,48*76
###2023-12-09 13:20:05.999579$GPGSV,2,2,07,28,43,079,45,29,23,053,42,31,64,055,47,,,,*45
###2023-12-09 13:20:06.001913$GLGSV,2,1,06,65,32,324,43,71,31,174,42,72,69,237,46,73,28,047,42*65
###2023-12-09 13:20:06.003565$GLGSV,2,2,06,74,65,,43,75,38,262,47,,,,,,,,*58
###2023-12-09 13:20:06.005882$GAGSV,1,1,04,04,35,311,43,19,78,187,40,21,82,056,46,27,27,049,40*66
###2023-12-09 13:20:06.008215$GBGSV,2,1,06,14,35,191,42,24,68,038,49,25,46,269,47,26,20,067,43*67
###2023-12-09 13:20:06.009948$GBGSV,2,2,06,33,51,223,46,35,16,062,45,,,,,,,,*6C
###2023-12-09 13:20:06.011273$GNVTG,184.44,T,,M,3.21,N,5.94,K,A*26
###2023-12-09 13:20:06.012917$GNGST,182005.10,18.000,,,,0.100,0.070,0.170*51
###2023-12-09 13:20:06.014204$GNZDA,182005.10,09,12,2023,00,00*7E
###2023-12-09 13:20:06.014854$GNEBP,,,,,,M*13
###2023-12-09 13:20:06.182015$GNGGA,182005.30,4138.0674271,N,07032.3265230,W,1,24,0.7,12.964,M,-29.743,M,0.0,*56
###2023-12-09 13:20:06.381841$GNGGA,182005.50,4138.0672329,N,07032.3265423,W,1,24,0.7,12.940,M,-29.743,M,0.0,*58
###2023-12-09 13:20:06.582659$GNGGA,182005.70,4138.0670484,N,07032.3265412,W,1,24,0.7,12.929,M,-29.743,M,0.0,*55
###2023-12-09 13:20:06.784591$GNGGA,182005.90,4138.0668507,N,07032.3265564,W,1,24,0.7,12.949,M,-29.743,M,0.0,*5E
###2023-12-09 13:20:06.992743$GNRMC,182006.10,A,4138.0666582,N,07032.3265586,W,3.29,178.70,091223,,,A*5C
###2023-12-09 13:20:06.995624$GNGGA,182006.10,4138.0666582,N,07032.3265586,W,1,24,0.7,12.928,M,-29.743,M,0.0,*5D
###2023-12-09 13:20:06.997429$GPGSA,A,3,03,04,16,26,28,29,31,,,,,,1.1,0.7,0.9*3B
###2023-12-09 13:20:06.999167$GLGSA,A,3,65,71,72,73,74,75,,,,,,,1.1,0.7,0.9*25
###2023-12-09 13:20:07.000763$GAGSA,A,3,04,19,21,27,,,,,,,,,1.1,0.7,0.9*27
###2023-12-09 13:20:07.002480$GBGSA,A,3,14,24,25,26,33,35,,,,,,,1.1,0.7,0.9*28
###2023-12-09 13:20:07.004818$GPGSV,2,1,07,03,31,253,42,04,40,310,45,16,59,217,46,26,89,196,48*77
###2023-12-09 13:20:07.006870$GPGSV,2,2,07,28,43,079,45,29,23,053,42,31,64,055,47,,,,*45
###2023-12-09 13:20:07.009186$GLGSV,2,1,06,65,32,324,44,71,31,174,42,72,69,237,46,73,28,047,43*63
###2023-12-09 13:20:07.010841$GLGSV,2,2,06,74,65,,43,75,38,262,47,,,,,,,,*58
###2023-12-09 13:20:07.013156$GAGSV,1,1,04,04,35,311,43,19,78,187,40,21,82,056,46,27,27,049,40*66
###2023-12-09 13:20:07.015484$GBGSV,2,1,06,14,35,191,42,24,68,038,49,25,46,269,48,26,20,067,44*6F
###2023-12-09 13:20:07.017230$GBGSV,2,2,06,33,51,223,47,35,16,062,43,,,,,,,,*6B
###2023-12-09 13:20:07.018549$GNVTG,178.70,T,,M,3.29,N,6.08,K,A*2C
###2023-12-09 13:20:07.020194$GNGST,182006.10,18.000,,,,0.100,0.070,0.170*52
###2023-12-09 13:20:07.021477$GNZDA,182006.10,09,12,2023,00,00*7D
###2023-12-09 13:20:07.022112$GNEBP,,,,,,M*13
###2023-12-09 13:20:07.183115$GNGGA,182006.30,4138.0664683,N,07032.3265543,W,1,24,0.7,12.947,M,-29.743,M,0.0,*5F
###2023-12-09 13:20:07.382756$GNGGA,182006.50,4138.0662730,N,07032.3265376,W,1,24,0.7,12.942,M,-29.743,M,0.0,*53
###2023-12-09 13:20:07.582919$GNGGA,182006.70,4138.0660789,N,07032.3265165,W,1,24,0.7,12.922,M,-29.743,M,0.0,*57
###2023-12-09 13:20:07.782833$GNGGA,182006.90,4138.0658849,N,07032.3265041,W,1,24,0.7,12.923,M,-29.743,M,0.0,*57
###2023-12-09 13:20:07.985952$GNRMC,182007.10,A,4138.0656958,N,07032.3265019,W,3.32,183.15,091223,,,A*5B
###2023-12-09 13:20:07.988863$GNGGA,182007.10,4138.0656958,N,07032.3265019,W,1,24,0.7,12.944,M,-29.743,M,0.0,*5D
###2023-12-09 13:20:07.990686$GPGSA,A,3,03,04,16,26,28,29,31,,,,,,1.1,0.7,0.9*3B
###2023-12-09 13:20:07.992669$GLGSA,A,3,65,71,72,73,74,75,,,,,,,1.1,0.7,0.9*25
###2023-12-09 13:20:07.994275$GAGSA,A,3,04,19,21,27,,,,,,,,,1.1,0.7,0.9*27
###2023-12-09 13:20:07.996025$GBGSA,A,3,14,24,25,26,33,35,,,,,,,1.1,0.7,0.9*28
###2023-12-09 13:20:07.998374$GPGSV,2,1,07,03,31,253,43,04,40,310,45,16,59,217,46,26,89,196,48*76
###2023-12-09 13:20:08.000443$GPGSV,2,2,07,28,43,079,45,29,23,053,43,31,64,055,46,,,,*45
###2023-12-09 13:20:08.002797$GLGSV,2,1,06,65,32,324,44,71,31,174,42,72,69,237,46,73,28,047,43*63
###2023-12-09 13:20:08.004458$GLGSV,2,2,06,74,65,,43,75,38,262,47,,,,,,,,*58
###2023-12-09 13:20:08.006808$GAGSV,1,1,04,04,35,311,43,19,78,187,40,21,82,056,46,27,27,049,40*66
###2023-12-09 13:20:08.009145$GBGSV,2,1,06,14,35,191,41,24,68,038,48,25,46,269,47,26,20,067,43*65
###2023-12-09 13:20:08.010904$GBGSV,2,2,06,33,51,223,45,35,16,062,43,,,,,,,,*69
