###2023-12-09 13:29:44.188665$GNGGA,182943.30,4138.0499666,N,07032.4239950,W,1,24,0.6,12.865,M,-29.745,M,0.0,*5A
###2023-12-09 13:29:44.387862$GNGGA,182943.50,4138.0498434,N,07032.4240753,W,1,24,0.6,12.882,M,-29.745,M,0.0,*52
###2023-12-09 13:29:44.588652$GNGGA,182943.70,4138.0497192,N,07032.4241582,W,1,24,0.6,12.894,M,-29.745,M,0.0,*5E
###2023-12-09 13:29:44.788825$GNGGA,182943.90,4138.0495887,N,07032.4241873,W,1,24,0.6,12.916,M,-29.745,M,0.0,*57
###2023-12-09 13:29:45.000693$GNRMC,182944.10,A,4138.0494579,N,07032.4241826,W,2.25,178.75,091223,,,A*56
###2023-12-09 13:29:45.003575$GNGGA,182944.10,4138.0494579,N,07032.4241826,W,1,24,0.6,12.898,M,-29.745,M,0.0,*52
###2023-12-09 13:29:45.005371$GPGSA,A,3,03,04,16,26,28,29,31,,,,,,1.1,0.6,0.9*3A
###2023-12-09 13:29:45.007101$GLGSA,A,3,65,71,72,73,74,75,,,,,,,1.1,0.6,0.9*24
###2023-12-09 13:29:45.008690$GAGSA,A,3,04,19,21,27,,,,,,,,,1.1,0.6,0.9*26
###2023-12-09 13:29:45.010401$GBGSA,A,3,14,24,25,26,33,35,,,,,,,1.1,0.6,0.9*29
###2023-12-09 13:29:45.012741$GPGSV,2,1,07,03,28,248,41,04,44,309,44,16,64,220,45,26,86,041,48*76
###2023-12-09 13:29:45.014798$GPGSV,2,2,07,28,39,083,46,29,21,049,40,31,61,063,47,,,,*45
###2023-12-09 13:29:45.017134$GLGSV,2,1,06,65,36,321,38,71,25,175,42,72,65,225,45,73,24,050,40*68
###2023-12-09 13:29:45.018893$GLGSV,2,2,06,74,61,010,42,75,42,268,46,,,,,,,,*6A
###2023-12-09 13:29:45.021216$GAGSV,1,1,04,04,38,311,42,19,74,183,40,21,79,049,45,27,24,049,39*66
###2023-12-09 13:29:45.023564$GBGSV,2,1,06,14,31,190,43,24,64,043,49,25,49,274,47,26,17,069,44*6D
###2023-12-09 13:29:45.025306$GBGSV,2,2,06,33,48,219,46,35,16,058,46,,,,,,,,*67
###2023-12-09 13:29:45.026645$GNVTG,178.75,T,,M,2.25,N,4.18,K,A*27
###2023-12-09 13:29:45.028294$GNGST,182944.10,18.000,,,,0.100,0.071,0.160*5D
###2023-12-09 13:29:45.029585$GNZDA,182944.10,09,12,2023,00,00*72
###2023-12-09 13:29:45.030225$GNEBP,,,,,,M*13
###2023-12-09 13:29:45.192977$GNGGA,182944.30,4138.0493239,N,07032.4242054,W,1,24,0.6,12.873,M,-29.745,M,0.0,*5F
###2023-12-09 13:29:45.387988$GNGGA,182944.50,4138.0491883,N,07032.4242755,W,1,24,0.6,12.899,M,-29.745,M,0.0,*52
###2023-12-09 13:29:45.586988$GNGGA,182944.70,4138.0490491,N,07032.4243310,W,1,24,0.6,12.914,M,-29.745,M,0.0,*5E
###2023-12-09 13:29:45.787700$GNGGA,182944.90,4138.0489083,N,07032.4243320,W,1,24,0.6,12.922,M,-29.745,M,0.0,*59
###2023-12-09 13:29:45.991243$GNRMC,182945.10,A,4138.0487646,N,07032.4243166,W,2.59,183.61,091223,,,A*5F
###2023-12-09 13:29:45.994115$GNGGA,182945.10,4138.0487646,N,07032.4243166,W,1,24,0.6,12.894,M,-29.745,M,0.0,*5D
###2023-12-09 13:29:45.995922$GPGSA,A,3,03,04,16,26,28,29,31,,,,,,1.1,0.6,0.9*3A
###2023-12-09 13:29:45.997644$GLGSA,A,3,65,71,72,73,74,75,,,,,,,1.1,0.6,0.9*24
###2023-12-09 13:29:45.999243$GAGSA,A,3,04,19,21,27,,,,,,,,,1.1,0.6,0.9*26
###2023-12-09 13:29:46.000957$GBGSA,A,3,14,24,25,26,33,35,,,,,,,1.1,0.6,0.9*29
###2023-12-09 13:29:46.003300$GPGSV,2,1,07,03,28,248,40,04,44,309,44,16,64,220,45,26,86,041,48*77
###2023-12-09 13:29:46.005345$GPGSV,2,2,07,28,39,083,45,29,21,049,43,31,61,063,47,,,,*45
###2023-12-09 13:29:46.007692$GLGSV,2,1,06,65,36,321,41,71,25,175,43,72,65,225,44,73,24,050,44*62
###2023-12-09 13:29:46.009437$GLGSV,2,2,06,74,61,010,42,75,42,268,46,,,,,,,,*6A
###2023-12-09 13:29:46.011775$GAGSV,1,1,04,04,38,311,43,19,74,183,40,21,79,049,46,27,24,049,40*6A
###2023-12-09 13:29:46.014104$GBGSV,2,1,06,14,31,190,42,24,64,043,49,25,49,274,46,26,17,069,45*6C
###2023-12-09 13:29:46.015861$GBGSV,2,2,06,33,48,219,47,35,16,058,46,,,,,,,,*66
###2023-12-09 13:29:46.017184$GNVTG,183.61,T,,M,2.59,N,4.79,K,A*2A
###2023-12-09 13:29:46.018843$GNGST,182945.10,18.000,,,,0.100,0.071,0.160*5C
###2023-12-09 13:29:46.020146$GNZDA,182945.10,09,12,2023,00,00*73
###2023-12-09 13:29:46.020783$GNEBP,,,,,,M*13
###2023-12-09 13:29:46.188289$GNGGA,182945.30,4138.0486236,N,07032.4243725,W,1,24,0.6,12.912,M,-29.745,M,0.0,*53
###2023-12-09 13:29:46.387849$GNGGA,182945.50,4138.0484830,N,07032.4244583,W,1,24,0.6,12.941,M,-29.745,M,0.0,*54
###2023-12-09 13:29:46.586459$GNGGA,182945.70,4138.0483404,N,07032.4244936,W,1,24,0.6,12.919,M,-29.745,M,0.0,*55
###2023-12-09 13:29:46.787254$GNGGA,182945.90,4138.0481931,N,07032.4244976,W,1,24,0.6,12.896,M,-29.745,M,0.0,*50
###2023-12-09 13:29:46.990417$GNRMC,182946.10,A,4138.0480500,N,07032.4245527,W,2.78,204.86,091223,,,A*5B
###2023-12-09 13:29:46.993306$GNGGA,182946.10,4138.0480500,N,07032.4245527,W,1,24,0.6,12.918,M,-29.745,M,0.0,*5A
###2023-12-09 13:29:46.995108$GPGSA,A,3,03,04,16,26,28,29,31,,,,,,1.1,0.6,0.9*3A
###2023-12-09 13:29:46.996826$GLGSA,A,3,65,71,72,73,74,75,,,,,,,1.1,0.6,0.9*24
###2023-12-09 13:29:46.998408$GAGSA,A,3,04,19,21,27,,,,,,,,,1.1,0.6,0.9*26
###2023-12-09 13:29:47.000135$GBGSA,A,3,14,24,25,26,33,35,,,,,,,1.1,0.6,0.9*29
###2023-12-09 13:29:47.002462$GPGSV,2,1,07,03,28,248,40,04,44,309,45,16,64,220,45,26,86,041,48*76
###2023-12-09 13:29:47.004516$GPGSV,2,2,07,28,39,083,45,29,21,049,44,31,61,063,47,,,,*42
###2023-12-09 13:29:47.006859$GLGSV,2,1,06,65,36,321,42,71,25,175,42,72,65,225,44,73,24,050,45*61
###2023-12-09 13:29:47.008607$GLGSV,2,2,06,74,61,010,42,75,42,268,46,,,,,,,,*6A
###2023-12-09 13:29:47.010940$GAGSV,1,1,04,04,38,311,44,19,74,183,40,21,79,049,46,27,24,049,42*6F
###2023-12-09 13:29:47.013275$GBGSV,2,1,06,14,31,190,42,24,64,043,49,25,49,274,46,26,17,069,44*6D
###2023-12-09 13:29:47.015064$GBGSV,2,2,06,33,48,219,44,35,16,058,45,,,,,,,,*66
###2023-12-09 13:29:47.016393$GNVTG,204.86,T,,M,2.78,N,5.15,K,A*27
###2023-12-09 13:29:47.018039$GNGST,182946.10,18.000,,,,0.100,0.071,0.160*5F
###2023-12-09 13:29:47.019343$GNZDA,182946.10,09,12,2023,00,00*70
###2023-12-09 13:29:47.019983$GNEBP,,,,,,M*13
###2023-12-09 13:29:47.187352$GNGGA,182946.30,4138.0479104,N,07032.4246406,W,1,24,0.6,12.938,M,-29.745,M,0.0,*5D
###2023-12-09 13:29:47.386716$GNGGA,182946.50,4138.0477678,N,07032.4246992,W,1,24,0.6,12.921,M,-29.745,M,0.0,*51
###2023-12-09 13:29:47.588542$GNGGA,182946.70,4138.0476186,N,07032.4247209,W,1,24,0.6,12.901,M,-29.745,M,0.0,*5E
###2023-12-09 13:29:47.789004$GNGGA,182946.90,4138.0474705,N,07032.4247778,W,1,24,0.6,12.924,M,-29.745,M,0.0,*5B
###2023-12-09 13:29:47.990401$GNRMC,182947.10,A,4138.0473289,N,07032.4248768,W,2.90,205.99,091223,,,A*5D
###2023-12-09 13:29:47.993291$GNGGA,182947.10,4138.0473289,N,07032.4248768,W,1,24,0.6,12.946,M,-29.745,M,0.0,*5E
###2023-12-09 13:29:47.995121$GPGSA,A,3,03,04,16,26,28,29,31,,,,,,1.1,0.6,0.9*3A
###2023-12-09 13:29:47.996833$GLGSA,A,3,65,71,72,73,74,75,,,,,,,1.1,0.6,0.9*24
###2023-12-09 13:29:47.998414$GAGSA,A,3,04,19,21,27,,,,,,,,,1.1,0.6,0.9*26
###2023-12-09 13:29:48.000136$GBGSA,A,3,14,24,25,26,33,35,,,,,,,1.1,0.6,0.9*29
###2023-12-09 13:29:48.002456$GPGSV,2,1,07,03,28,248,39,04,44,309,46,16,64,220,46,26,86,041,48*78
###2023-12-09 13:29:48.004518$GPGSV,2,2,07,28,39,083,45,29,21,049,42,31,61,063,47,,,,*44
###2023-12-09 13:29:48.006876$GLGSV,2,1,06,65,36,321,43,71,25,175,40,72,65,225,45,73,24,050,41*67
###2023-12-09 13:29:48.008627$GLGSV,2,2,06,74,61,010,43,75,42,268,47,,,,,,,,*6A
###2023-12-09 13:29:48.010962$GAGSV,1,1,04,04,38,310,44,19,74,183,40,21,79,049,46,27,24,049,40*6C
###2023-12-09 13:29:48.013301$GBGSV,2,1,06,14,31,190,41,24,64,043,48,25,49,274,47,26,17,069,44*6E
###2023-12-09 13:29:48.015058$GBGSV,2,2,06,33,48,219,46,35,16,058,44,,,,,,,,*65
###2023-12-09 13:29:48.016382$GNVTG,205.99,T,,M,2.90,N,5.36,K,A*2F
###2023-12-09 13:29:48.018026$GNGST,182947.10,18.000,,,,0.100,0.070,0.160*5F
###2023-12-09 13:29:48.019326$GNZDA,182947.10,09,12,2023,00,00*71
###2023-12-09 13:29:48.019967$GNEBP,,,,,,M*13
###2023-12-09 13:29:48.190253$GNGGA,182947.30,4138.0471785,N,07032.4249397,W,1,24,0.6,12.928,M,-29.745,M,0.0,*5A
###2023-12-09 13:29:48.388455$GNGGA,182947.50,4138.0470242,N,07032.4249455,W,1,24,0.6,12.888,M,-29.745,M,0.0,*51
###2023-12-09 13:29:48.589446$GNGGA,182947.70,4138.0468720,N,07032.4249755,W,1,24,0.6,12.906,M,-29.745,M,0.0,*5F
###2023-12-09 13:29:48.788902$GNGGA,182947.90,4138.0467142,N,07032.4250792,W,1,24,0.6,12.958,M,-29.745,M,0.0,*54
###2023-12-09 13:29:48.990317$GNRMC,182948.10,A,4138.0465580,N,07032.4251531,W,2.84,185.85,091223,,,A*5E
###2023-12-09 13:29:48.993216$GNGGA,182948.10,4138.0465580,N,07032.4251531,W,1,24,0.6,12.954,M,-29.745,M,0.0,*5D
###2023-12-09 13:29:48.995270$GPGSA,A,3,03,04,16,26,28,29,31,,,,,,1.1,0.6,0.9*3A
###2023-12-09 13:29:48.996994$GLGSA,A,3,65,71,72,73,74,75,,,,,,,1.1,0.6,0.9*24
###2023-12-09 13:29:48.998598$GAGSA,A,3,04,19,21,27,,,,,,,,,1.1,0.6,0.9*26
###2023-12-09 13:29:49.000320$GBGSA,A,3,14,24,25,26,33,35,,,,,,,1.1,0.6,0.9*29
###2023-12-09 13:29:49.002662$GPGSV,2,1,07,03,28,248,43,04,44,309,46,16,64,220,45,26,86,041,46*78
###2023-12-09 13:29:49.004714$GPGSV,2,2,07,28,39,083,44,29,21,049,39,31,61,063,46,,,,*48
###2023-12-09 13:29:49.007067$GLGSV,2,1,06,65,36,321,44,71,25,175,38,72,65,225,45,73,24,050,40*6E
###2023-12-09 13:29:49.008819$GLGSV,2,2,06,74,61,010,42,75,42,268,49,,,,,,,,*65
###2023-12-09 13:29:49.011151$GAGSV,1,1,04,04,38,310,44,19,74,183,39,21,79,049,45,27,24,049,39*6F
###2023-12-09 13:29:49.013481$GBGSV,2,1,06,14,31,190,41,24,64,043,47,25,49,274,48,26,17,069,39*64
