###2023-12-09 13:41:24.199195$GNGGA,184123.30,4138.0254589,N,07032.3940940,W,1,22,0.7,13.167,M,-29.746,M,0.0,*5A
###2023-12-09 13:41:24.398041$GNGGA,184123.50,4138.0255207,N,07032.3942617,W,1,22,0.7,13.168,M,-29.746,M,0.0,*5C
###2023-12-09 13:41:24.597453$GNGGA,184123.70,4138.0255961,N,07032.3944268,W,1,22,0.7,13.165,M,-29.746,M,0.0,*52
###2023-12-09 13:41:24.798390$GNGGA,184123.90,4138.0256757,N,07032.3946013,W,1,22,0.7,13.164,M,-29.746,M,0.0,*59
###2023-12-09 13:41:25.003213$GNRMC,184124.10,A,4138.0257576,N,07032.3947778,W,2.84,300.24,091223,,,A*54
###2023-12-09 13:41:25.006074$GNGGA,184124.10,4138.0257576,N,07032.3947778,W,1,22,0.7,13.162,M,-29.746,M,0.0,*5B
###2023-12-09 13:41:25.007882$GPGSA,A,3,04,16,26,27,28,29,31,,,,,,1.2,0.7,1.0*36
###2023-12-09 13:41:25.009593$GLGSA,A,3,65,71,72,73,74,75,,,,,,,1.2,0.7,1.0*2E
###2023-12-09 13:41:25.011192$GAGSA,A,3,04,19,21,27,,,,,,,,,1.2,0.7,1.0*2C
###2023-12-09 13:41:25.012847$GBGSA,A,3,12,24,25,33,35,,,,,,,,1.2,0.7,1.0*21
###2023-12-09 13:41:25.015188$GPGSV,2,1,07,04,49,306,43,16,70,226,46,26,81,040,49,27,19,172,40*7B
###2023-12-09 13:41:25.017237$GPGSV,2,2,07,28,36,087,43,29,19,045,41,31,58,070,48,,,,*4A
###2023-12-09 13:41:25.019578$GLGSV,2,1,06,65,41,315,40,71,19,176,41,72,59,216,46,73,20,054,42*61
###2023-12-09 13:41:25.021333$GLGSV,2,2,06,74,57,019,42,75,45,276,47,,,,,,,,*6F
###2023-12-09 13:41:25.023678$GAGSV,1,1,04,04,41,309,41,19,69,180,41,21,74,044,46,27,20,051,41*6D
###2023-12-09 13:41:25.026015$GBGSV,2,1,05,12,17,124,43,24,60,049,49,25,53,279,47,33,43,215,47*64
###2023-12-09 13:41:25.027475$GBGSV,2,2,05,35,16,054,43,,,,,,,,,,,,*59
###2023-12-09 13:41:25.028797$GNVTG,300.24,T,,M,2.84,N,5.26,K,A*29
###2023-12-09 13:41:25.030407$GNGST,184124.10,6.200,,,,0.110,0.100,0.220*69
###2023-12-09 13:41:25.031707$GNZDA,184124.10,09,12,2023,00,00*7A
###2023-12-09 13:41:25.032350$GNEBP,,,,,,M*13
###2023-12-09 13:41:25.199920$GNGGA,184124.30,4138.0258467,N,07032.3949586,W,1,22,0.7,13.157,M,-29.746,M,0.0,*5C
###2023-12-09 13:41:25.397096$GNGGA,184124.50,4138.0259472,N,07032.3951305,W,1,22,0.7,13.155,M,-29.746,M,0.0,*59
###2023-12-09 13:41:25.595637$GNGGA,184124.70,4138.0260591,N,07032.3952997,W,1,22,0.7,13.158,M,-29.746,M,0.0,*52
###2023-12-09 13:41:25.797100$GNGGA,184124.90,4138.0261728,N,07032.3954706,W,1,22,0.7,13.156,M,-29.746,M,0.0,*53
###2023-12-09 13:41:26.000897$GNRMC,184125.10,A,4138.0262866,N,07032.3956461,W,3.13,311.83,091223,,,A*56
###2023-12-09 13:41:26.003779$GNGGA,184125.10,4138.0262866,N,07032.3956461,W,1,22,0.7,13.148,M,-29.746,M,0.0,*53
###2023-12-09 13:41:26.005575$GPGSA,A,3,04,16,26,27,28,29,31,,,,,,1.2,0.7,1.0*36
###2023-12-09 13:41:26.007295$GLGSA,A,3,65,71,72,73,74,75,,,,,,,1.2,0.7,1.0*2E
###2023-12-09 13:41:26.008874$GAGSA,A,3,04,19,21,27,,,,,,,,,1.2,0.7,1.0*2C
###2023-12-09 13:41:26.010514$GBGSA,A,3,12,24,25,33,35,,,,,,,,1.2,0.7,1.0*21
###2023-12-09 13:41:26.012842$GPGSV,2,1,07,04,49,306,43,16,70,226,46,26,81,040,49,27,19,172,41*7A
###2023-12-09 13:41:26.014890$GPGSV,2,2,07,28,36,087,44,29,19,045,42,31,58,070,48,,,,*4E
###2023-12-09 13:41:26.017214$GLGSV,2,1,06,65,41,315,40,71,19,176,43,72,59,216,46,73,20,054,42*63
###2023-12-09 13:41:26.018963$GLGSV,2,2,06,74,57,019,42,75,45,276,46,,,,,,,,*6E
###2023-12-09 13:41:26.021275$GAGSV,1,1,04,04,41,309,41,19,69,180,41,21,74,044,47,27,20,051,40*6D
###2023-12-09 13:41:26.023607$GBGSV,2,1,05,12,17,124,42,24,60,049,48,25,53,279,47,33,43,215,47*64
###2023-12-09 13:41:26.025054$GBGSV,2,2,05,35,16,054,41,,,,,,,,,,,,*5B
###2023-12-09 13:41:26.026369$GNVTG,311.83,T,,M,3.13,N,5.80,K,A*27
###2023-12-09 13:41:26.027986$GNGST,184125.10,5.700,,,,0.110,0.100,0.220*6E
###2023-12-09 13:41:26.029268$GNZDA,184125.10,09,12,2023,00,00*7B
###2023-12-09 13:41:26.029905$GNEBP,,,,,,M*13
###2023-12-09 13:41:26.198311$GNGGA,184125.30,4138.0264051,N,07032.3958176,W,1,22,0.7,13.149,M,-29.746,M,0.0,*57
###2023-12-09 13:41:26.398649$GNGGA,184125.50,4138.0265292,N,07032.3959896,W,1,23,0.7,13.142,M,-29.746,M,0.0,*51
###2023-12-09 13:41:26.598500$GNGGA,184125.70,4138.0266566,N,07032.3961615,W,1,22,0.7,13.144,M,-29.746,M,0.0,*55
###2023-12-09 13:41:26.798997$GNGGA,184125.90,4138.0267790,N,07032.3963393,W,1,22,0.7,13.148,M,-29.746,M,0.0,*54
###2023-12-09 13:41:27.005003$GNRMC,184126.10,A,4138.0269006,N,07032.3965238,W,3.29,311.52,091223,,,A*5F
###2023-12-09 13:41:27.007876$GNGGA,184126.10,4138.0269006,N,07032.3965238,W,1,22,0.7,13.153,M,-29.746,M,0.0,*55
###2023-12-09 13:41:27.009656$GPGSA,A,3,04,16,26,27,28,29,31,,,,,,1.2,0.7,1.0*36
###2023-12-09 13:41:27.011371$GLGSA,A,3,65,71,72,73,74,75,,,,,,,1.2,0.7,1.0*2E
###2023-12-09 13:41:27.012950$GAGSA,A,3,04,19,21,27,,,,,,,,,1.2,0.7,1.0*2C
###2023-12-09 13:41:27.014599$GBGSA,A,3,12,24,25,33,35,,,,,,,,1.2,0.7,1.0*21
###2023-12-09 13:41:27.016921$GPGSV,2,1,07,04,49,306,42,16,70,226,46,26,80,041,48,27,19,172,42*79
###2023-12-09 13:41:27.018958$GPGSV,2,2,07,28,36,087,43,29,19,045,41,31,58,070,47,,,,*45
###2023-12-09 13:41:27.021282$GLGSV,2,1,06,65,41,315,40,71,19,176,39,72,59,216,46,73,20,054,43*6F
###2023-12-09 13:41:27.023023$GLGSV,2,2,06,74,57,019,41,75,45,276,46,,,,,,,,*6D
###2023-12-09 13:41:27.025328$GAGSV,1,1,04,04,41,309,40,19,69,180,41,21,74,044,46,27,20,051,40*6D
###2023-12-09 13:41:27.027670$GBGSV,2,1,05,12,17,124,41,24,60,049,48,25,53,279,47,33,43,215,47*67
###2023-12-09 13:41:27.029143$GBGSV,2,2,05,35,16,054,42,,,,,,,,,,,,*58
###2023-12-09 13:41:27.030455$GNVTG,311.52,T,,M,3.29,N,6.08,K,A*21
###2023-12-09 13:41:27.032076$GNGST,184126.10,6.200,,,,0.110,0.100,0.220*6B
###2023-12-09 13:41:27.033361$GNZDA,184126.10,09,12,2023,00,00*78
###2023-12-09 13:41:27.034000$GNEBP,,,,,,M*13
###2023-12-09 13:41:27.205093$GNGGA,184126.30,4138.0270194,N,07032.3967085,W,1,22,0.7,13.149,M,-29.746,M,0.0,*58
###2023-12-09 13:41:27.398724$GNGGA,184126.50,4138.0271349,N,07032.3968957,W,1,21,0.7,13.155,M,-29.746,M,0.0,*5A
###2023-12-09 13:41:27.599397$GNGGA,184126.70,4138.0272452,N,07032.3970911,W,1,22,0.7,13.153,M,-29.746,M,0.0,*58
###2023-12-09 13:41:27.800464$GNGGA,184126.90,4138.0273492,N,07032.3972934,W,1,23,0.6,13.150,M,-29.746,M,0.0,*5D
###2023-12-09 13:41:28.003813$GNRMC,184127.10,A,4138.0274469,N,07032.3975002,W,3.32,299.96,091223,,,A*56
###2023-12-09 13:41:28.006694$GNGGA,184127.10,4138.0274469,N,07032.3975002,W,1,21,0.7,13.153,M,-29.745,M,0.0,*5F
###2023-12-09 13:41:28.008484$GPGSA,A,3,04,16,26,27,28,29,31,,,,,,1.2,0.7,1.0*36
###2023-12-09 13:41:28.010132$GLGSA,A,3,65,72,73,74,75,,,,,,,,1.2,0.7,1.0*28
###2023-12-09 13:41:28.011728$GAGSA,A,3,04,19,21,27,,,,,,,,,1.2,0.7,1.0*2C
###2023-12-09 13:41:28.013374$GBGSA,A,3,12,24,25,33,35,,,,,,,,1.2,0.7,1.0*21
###2023-12-09 13:41:28.015712$GPGSV,2,1,07,04,49,306,42,16,70,226,47,26,80,041,48,27,20,171,41*72
###2023-12-09 13:41:28.017750$GPGSV,2,2,07,28,36,087,42,29,19,045,41,31,58,070,47,,,,*44
###2023-12-09 13:41:28.020088$GLGSV,2,1,05,65,41,315,40,72,59,216,46,73,20,054,42,74,57,019,41*65
###2023-12-09 13:41:28.021537$GLGSV,2,2,05,75,45,276,46,,,,,,,,,,,,*52
###2023-12-09 13:41:28.023889$GAGSV,1,1,04,04,41,309,41,19,69,180,41,21,74,044,46,27,20,051,40*6C
###2023-12-09 13:41:28.026228$GBGSV,2,1,05,12,17,124,43,24,60,049,48,25,53,279,47,33,43,215,48*6A
###2023-12-09 13:41:28.027698$GBGSV,2,2,05,35,16,054,43,,,,,,,,,,,,*59
###2023-12-09 13:41:28.029022$GNVTG,299.96,T,,M,3.32,N,6.16,K,A*2D
###2023-12-09 13:41:28.030651$GNGST,184127.10,5.300,,,,0.110,0.100,0.220*68
###2023-12-09 13:41:28.031943$GNZDA,184127.10,09,12,2023,00,00*79
###2023-12-09 13:41:28.032584$GNEBP,,,,,,M*13
###2023-12-09 13:41:28.203955$GNGGA,184127.30,4138.0275424,N,07032.3977123,W,1,21,0.7,13.159,M,-29.745,M,0.0,*5F
###2023-12-09 13:41:28.399929$GNGGA,184127.50,4138.0276362,N,07032.3979267,W,1,21,0.7,13.159,M,-29.745,M,0.0,*52
###2023-12-09 13:41:28.597319$GNGGA,184127.70,4138.0277293,N,07032.3981440,W,1,21,0.7,13.158,M,-29.745,M,0.0,*5B
###2023-12-09 13:41:28.796935$GNGGA,184127.90,4138.0278238,N,07032.3983657,W,1,21,0.7,13.157,M,-29.745,M,0.0,*52
###2023-12-09 13:41:29.003030$GNRMC,184128.10,A,4138.0279210,N,07032.3985842,W,3.54,300.16,091223,,,A*56
###2023-12-09 13:41:29.005892$GNGGA,184128.10,4138.0279210,N,07032.3985842,W,1,21,0.7,13.164,M,-29.745,M,0.0,*52
###2023-12-09 13:41:29.007940$GPGSA,A,3,04,16,26,27,28,29,31,,,,,,1.2,0.7,1.0*36
###2023-12-09 13:41:29.009595$GLGSA,A,3,65,72,73,74,75,,,,,,,,1.2,0.7,1.0*28
###2023-12-09 13:41:29.011192$GAGSA,A,3,04,19,21,27,,,,,,,,,1.2,0.7,1.0*2C
###2023-12-09 13:41:29.012838$GBGSA,A,3,12,24,25,33,35,,,,,,,,1.2,0.7,1.0*21
###2023-12-09 13:41:29.015169$GPGSV,2,1,07,04,49,306,42,16,70,226,46,26,80,041,48,27,20,171,37*72
###2023-12-09 13:41:29.017201$GPGSV,2,2,07,28,35,088,42,29,19,045,42,31,58,070,47,,,,*4B
###2023-12-09 13:41:29.019533$GLGSV,2,1,05,65,41,315,40,72,59,216,46,73,20,054,41,74,57,019,41*66
###2023-12-09 13:41:29.020980$GLGSV,2,2,05,75,45,276,46,,,,,,,,,,,,*52
###2023-12-09 13:41:29.023309$GAGSV,1,1,04,04,41,309,41,19,69,180,41,21,74,044,46,27,20,051,40*6C
###2023-12-09 13:41:29.025630$GBGSV,2,1,05,12,17,124,42,24,60,049,48,25,53,279,45,33,43,215,48*69
