###2023-12-09 12:47:44.978024$GNEBP,,,,,,M*13
###2023-12-09 12:47:45.145795$GNGGA,174744.30,4138.0515937,N,07032.3993410,W,1,24,0.6,13.304,M,-29.745,M,0.0,*5C
###2023-12-09 12:47:45.344999$GNGGA,174744.50,4138.0516145,N,07032.3993513,W,1,24,0.6,13.327,M,-29.745,M,0.0,*57
###2023-12-09 12:47:45.545043$GNGGA,174744.70,4138.0516255,N,07032.3993493,W,1,24,0.6,13.327,M,-29.745,M,0.0,*5E
###2023-12-09 12:47:45.744834$GNGGA,174744.90,4138.0516363,N,07032.3993526,W,1,24,0.6,13.298,M,-29.745,M,0.0,*5E
###2023-12-09 12:47:45.944832$GNRMC,174745.10,A,4138.0516660,N,07032.3993745,W,0.76,336.59,091223,,,A*5B
###2023-12-09 12:47:45.947714$GNGGA,174745.10,4138.0516660,N,07032.3993745,W,1,24,0.6,13.282,M,-29.745,M,0.0,*5D
###2023-12-09 12:47:45.949585$GPGSA,A,3,03,04,16,26,28,29,31,32,,,,,1.1,0.6,0.9*3B
###2023-12-09 12:47:45.951325$GLGSA,A,3,65,71,72,73,74,75,,,,,,,1.1,0.6,0.9*24
###2023-12-09 12:47:45.952918$GAGSA,A,3,04,19,21,27,,,,,,,,,1.1,0.6,0.9*26
###2023-12-09 12:47:45.954585$GBGSA,A,3,14,24,25,26,33,,,,,,,,1.1,0.6,0.9*2F
###2023-12-09 12:47:45.956926$GPGSV,2,1,08,03,37,269,42,04,27,311,39,16,43,209,46,26,73,208,49*78
###2023-12-09 12:47:45.959283$GPGSV,2,2,08,28,53,064,45,29,26,067,41,31,72,018,46,32,25,137,45*7B
###2023-12-09 12:47:45.961624$GLGSV,2,1,06,65,17,329,41,71,49,171,49,72,70,294,46,73,42,037,45*61
###2023-12-09 12:47:45.963394$GLGSV,2,2,06,74,71,314,43,75,27,246,45,,,,,,,,*61
###2023-12-09 12:47:45.965730$GAGSV,1,1,04,04,24,312,38,19,84,276,41,21,82,165,46,27,38,049,41*68
###2023-12-09 12:47:45.968085$GBGSV,2,1,05,14,50,195,46,24,78,008,48,25,36,257,45,26,31,060,45*6D
###2023-12-09 12:47:45.969547$GBGSV,2,2,05,33,61,243,47,,,,,,,,,,,,*5F
###2023-12-09 12:47:45.970884$GNVTG,336.59,T,,M,0.76,N,1.40,K,A*2D
###2023-12-09 12:47:45.972545$GNGST,174745.10,18.000,,,,0.076,0.068,0.160*53
###2023-12-09 12:47:45.973844$GNZDA,174745.10,09,12,2023,00,00*74
###2023-12-09 12:47:45.974486$GNEBP,,,,,,M*13
###2023-12-09 12:47:46.144677$GNGGA,174745.30,4138.0517044,N,07032.3994001,W,1,24,0.6,13.280,M,-29.745,M,0.0,*5C
###2023-12-09 12:47:46.345031$GNGGA,174745.50,4138.0517213,N,07032.3994089,W,1,24,0.6,13.298,M,-29.745,M,0.0,*53
###2023-12-09 12:47:46.545086$GNGGA,174745.70,4138.0517253,N,07032.3994056,W,1,24,0.6,13.318,M,-29.745,M,0.0,*5E
###2023-12-09 12:47:46.744874$GNGGA,174745.90,4138.0517403,N,07032.3994122,W,1,24,0.6,13.310,M,-29.745,M,0.0,*59
###2023-12-09 12:47:46.946865$GNRMC,174746.10,A,4138.0517736,N,07032.3994374,W,0.74,336.59,091223,,,A*58
###2023-12-09 12:47:46.949770$GNGGA,174746.10,4138.0517736,N,07032.3994374,W,1,24,0.6,13.290,M,-29.745,M,0.0,*5F
###2023-12-09 12:47:46.951686$GPGSA,A,3,03,04,16,26,28,29,31,32,,,,,1.1,0.6,0.9*3B
###2023-12-09 12:47:46.953409$GLGSA,A,3,65,71,72,73,74,75,,,,,,,1.1,0.6,0.9*24
###2023-12-09 12:47:46.955048$GAGSA,A,3,04,19,21,27,,,,,,,,,1.1,0.6,0.9*26
###2023-12-09 12:47:46.956702$GBGSA,A,3,14,24,25,26,33,,,,,,,,1.1,0.6,0.9*2F
###2023-12-09 12:47:46.959059$GPGSV,2,1,08,03,37,269,41,04,27,311,38,16,43,209,46,26,73,208,49*7A
###2023-12-09 12:47:46.961409$GPGSV,2,2,08,28,53,064,44,29,26,067,41,31,72,018,46,32,25,137,44*7B
###2023-12-09 12:47:46.963766$GLGSV,2,1,06,65,17,329,42,71,49,171,48,72,70,294,46,73,42,037,46*60
###2023-12-09 12:47:46.965521$GLGSV,2,2,06,74,71,314,43,75,27,246,44,,,,,,,,*60
###2023-12-09 12:47:46.967872$GAGSV,1,1,04,04,24,312,37,19,84,276,40,21,82,165,46,27,38,049,41*66
###2023-12-09 12:47:46.970211$GBGSV,2,1,05,14,50,195,46,24,78,008,49,25,36,257,45,26,31,060,45*6C
###2023-12-09 12:47:46.971684$GBGSV,2,2,05,33,61,243,47,,,,,,,,,,,,*5F
###2023-12-09 12:47:46.973014$GNVTG,336.59,T,,M,0.74,N,1.37,K,A*2F
###2023-12-09 12:47:46.974673$GNGST,174746.10,18.000,,,,0.076,0.068,0.160*50
###2023-12-09 12:47:46.975972$GNZDA,174746.10,09,12,2023,00,00*77
###2023-12-09 12:47:46.976614$GNEBP,,,,,,M*13
###2023-12-09 12:47:47.146109$GNGGA,174746.30,4138.0518048,N,07032.3994612,W,1,24,0.6,13.275,M,-29.745,M,0.0,*52
###2023-12-09 12:47:47.347308$GNGGA,174746.50,4138.0518208,N,07032.3994727,W,1,24,0.6,13.278,M,-29.745,M,0.0,*58
###2023-12-09 12:47:47.548846$GNGGA,174746.70,4138.0518294,N,07032.3994737,W,1,24,0.6,13.297,M,-29.745,M,0.0,*5F
###2023-12-09 12:47:47.747590$GNGGA,174746.90,4138.0518481,N,07032.3994835,W,1,24,0.6,13.308,M,-29.745,M,0.0,*59
###2023-12-09 12:47:47.947075$GNRMC,174747.10,A,4138.0518757,N,07032.3995054,W,0.58,336.59,091223,,,A*5F
###2023-12-09 12:47:47.950575$GNGGA,174747.10,4138.0518757,N,07032.3995054,W,1,24,0.6,13.296,M,-29.745,M,0.0,*50
###2023-12-09 12:47:47.952826$GPGSA,A,3,03,04,16,26,28,29,31,32,,,,,1.1,0.6,0.9*3B
###2023-12-09 12:47:47.954909$GLGSA,A,3,65,71,72,73,74,75,,,,,,,1.1,0.6,0.9*24
###2023-12-09 12:47:47.956823$GAGSA,A,3,04,19,21,27,,,,,,,,,1.1,0.6,0.9*26
###2023-12-09 12:47:47.958828$GBGSA,A,3,14,24,25,26,33,,,,,,,,1.1,0.6,0.9*2F
###2023-12-09 12:47:47.961627$GPGSV,2,1,08,03,37,269,42,04,27,311,41,16,43,209,45,26,73,208,48*75
###2023-12-09 12:47:47.964457$GPGSV,2,2,08,28,53,064,44,29,26,067,41,31,71,021,46,32,25,137,43*75
###2023-12-09 12:47:47.967302$GLGSV,2,1,06,65,17,329,43,71,49,171,48,72,70,294,47,73,42,037,45*63
###2023-12-09 12:47:47.969409$GLGSV,2,2,06,74,71,314,42,75,27,246,44,,,,,,,,*61
###2023-12-09 12:47:47.972262$GAGSV,1,1,04,04,24,312,40,19,84,276,41,21,82,165,46,27,38,049,41*67
###2023-12-09 12:47:47.975076$GBGSV,2,1,05,14,50,195,46,24,78,008,49,25,36,257,47,26,31,060,46*6D
###2023-12-09 12:47:47.976830$GBGSV,2,2,05,33,61,243,47,,,,,,,,,,,,*5F
###2023-12-09 12:47:47.978422$GNVTG,336.59,T,,M,0.58,N,1.08,K,A*2D
###2023-12-09 12:47:47.980416$GNGST,174747.10,18.000,,,,0.076,0.068,0.160*51
###2023-12-09 12:47:47.981968$GNZDA,174747.10,09,12,2023,00,00*76
###2023-12-09 12:47:47.982744$GNEBP,,,,,,M*13
###2023-12-09 12:47:48.146896$GNGGA,174747.30,4138.0519009,N,07032.3995246,W,1,24,0.6,13.270,M,-29.745,M,0.0,*56
###2023-12-09 12:47:48.347055$GNGGA,174747.50,4138.0519153,N,07032.3995340,W,1,24,0.6,13.265,M,-29.745,M,0.0,*5D
###2023-12-09 12:47:48.548283$GNGGA,174747.70,4138.0519315,N,07032.3995457,W,1,24,0.6,13.283,M,-29.745,M,0.0,*56
###2023-12-09 12:47:48.747506$GNGGA,174747.90,4138.0519555,N,07032.3995632,W,1,24,0.6,13.299,M,-29.745,M,0.0,*50
###2023-12-09 12:47:48.946068$GNRMC,174748.10,A,4138.0519790,N,07032.3995791,W,0.33,336.59,091223,,,A*59
###2023-12-09 12:47:48.949551$GNGGA,174748.10,4138.0519790,N,07032.3995791,W,1,24,0.6,13.298,M,-29.745,M,0.0,*55
###2023-12-09 12:47:48.951820$GPGSA,A,3,03,04,16,26,28,29,31,32,,,,,1.1,0.6,0.9*3B
###2023-12-09 12:47:48.953900$GLGSA,A,3,65,71,72,73,74,75,,,,,,,1.1,0.6,0.9*24
###2023-12-09 12:47:48.955835$GAGSA,A,3,04,19,21,27,,,,,,,,,1.1,0.6,0.9*26
###2023-12-09 12:47:48.957825$GBGSA,A,3,14,24,25,26,33,,,,,,,,1.1,0.6,0.9*2F
###2023-12-09 12:47:48.960637$GPGSV,2,1,08,03,37,269,43,04,27,311,43,16,43,209,45,26,73,208,48*76
###2023-12-09 12:47:48.963490$GPGSV,2,2,08,28,53,064,44,29,26,067,41,31,71,021,46,32,24,137,44*73
###2023-12-09 12:47:48.966301$GLGSV,2,1,06,65,17,329,43,71,49,171,48,72,70,294,47,73,42,037,46*60
###2023-12-09 12:47:48.968423$GLGSV,2,2,06,74,71,314,43,75,27,246,45,,,,,,,,*61
###2023-12-09 12:47:48.971223$GAGSV,1,1,04,04,24,312,41,19,84,276,40,21,82,165,46,27,38,049,41*67
###2023-12-09 12:47:48.974022$GBGSV,2,1,05,14,50,195,45,24,78,008,49,25,36,257,46,26,31,060,44*6D
###2023-12-09 12:47:48.975776$GBGSV,2,2,05,33,61,243,48,,,,,,,,,,,,*50
###2023-12-09 12:47:48.977360$GNVTG,336.59,T,,M,0.33,N,0.61,K,A*2E
###2023-12-09 12:47:48.979351$GNGST,174748.10,18.000,,,,0.076,0.068,0.160*5E
###2023-12-09 12:47:48.980900$GNZDA,174748.10,09,12,2023,00,00*79
###2023-12-09 12:47:48.981666$GNEBP,,,,,,M*13
###2023-12-09 12:47:49.146609$GNGGA,174748.30,4138.0519913,N,07032.3995867,W,1,24,0.6,13.282,M,-29.745,M,0.0,*5F
###2023-12-09 12:47:49.348697$GNGGA,174748.50,4138.0520067,N,07032.3995969,W,1,24,0.6,13.274,M,-29.745,M,0.0,*5F
###2023-12-09 12:47:49.548811$GNGGA,174748.70,4138.0520337,N,07032.3996153,W,1,24,0.6,13.280,M,-29.745,M,0.0,*52
###2023-12-09 12:47:49.748504$GNGGA,174748.90,4138.0520595,N,07032.3996381,W,1,24,0.6,13.291,M,-29.745,M,0.0,*5F
###2023-12-09 12:47:49.947297$GNRMC,174749.10,A,4138.0520749,N,07032.3996492,W,0.19,336.59,091223,,,A*5D
###2023-12-09 12:47:49.951081$GNGGA,174749.10,4138.0520749,N,07032.3996492,W,1,24,0.6,13.305,M,-29.745,M,0.0,*5C
###2023-12-09 12:47:49.953341$GPGSA,A,3,03,04,16,26,28,29,31,32,,,,,1.1,0.6,0.9*3B
###2023-12-09 12:47:49.955458$GLGSA,A,3,65,71,72,73,74,75,,,,,,,1.1,0.6,0.9*24
###2023-12-09 12:47:49.957373$GAGSA,A,3,04,19,21,27,,,,,,,,,1.1,0.6,0.9*26
###2023-12-09 12:47:49.959374$GBGSA,A,3,14,24,25,26,33,,,,,,,,1.1,0.6,0.9*2F
###2023-12-09 12:47:49.962158$GPGSV,2,1,08,03,37,269,43,04,27,311,44,16,43,209,44,26,73,208,48*70
###2023-12-09 12:47:49.964974$GPGSV,2,2,08,28,53,064,44,29,26,067,39,31,71,021,47,32,24,137,43*7A
###2023-12-09 12:47:49.967788$GLGSV,2,1,06,65,17,329,44,71,49,171,47,72,70,294,47,73,42,037,45*6B
###2023-12-09 12:47:49.969892$GLGSV,2,2,06,74,71,314,43,75,27,246,44,,,,,,,,*60
###2023-12-09 12:47:49.972743$GAGSV,1,1,04,04,24,312,43,19,84,276,41,21,82,165,47,27,38,049,42*66
