###2023-12-09 12:33:55.960181$GNZDA,173355.10,09,12,2023,00,00*76
###2023-12-09 12:33:55.960844$GNEBP,,,,,,M*13
###2023-12-09 12:33:56.132042$GNGGA,173355.30,4138.0454276,N,07032.4279232,W,1,20,0.8,12.466,M,-29.745,M,0.0,*53
###2023-12-09 12:33:56.332430$GNGGA,173355.50,4138.0454354,N,07032.4278248,W,1,21,0.7,12.475,M,-29.745,M,0.0,*54
###2023-12-09 12:33:56.533517$GNGGA,173355.70,4138.0454424,N,07032.4277281,W,1,21,0.7,12.479,M,-29.745,M,0.0,*50
###2023-12-09 12:33:56.731402$GNGGA,173355.90,4138.0454472,N,07032.4276395,W,1,21,0.7,12.485,M,-29.745,M,0.0,*5B
###2023-12-09 12:33:56.941452$GNRMC,173356.10,A,4138.0454521,N,07032.4275493,W,1.22,90.48,091223,,,A*68
###2023-12-09 12:33:56.944322$GNGGA,173356.10,4138.0454521,N,07032.4275493,W,1,21,0.7,12.471,M,-29.745,M,0.0,*5E
###2023-12-09 12:33:56.946182$GPGSA,A,3,03,04,16,26,28,29,31,32,,,,,1.3,0.7,1.1*31
###2023-12-09 12:33:56.947857$GLGSA,A,3,71,72,73,74,,,,,,,,,1.3,0.7,1.1*2F
###2023-12-09 12:33:56.949472$GAGSA,A,3,04,19,21,27,,,,,,,,,1.3,0.7,1.1*2C
###2023-12-09 12:33:56.951147$GBGSA,A,3,14,24,25,26,33,,,,,,,,1.3,0.7,1.1*25
###2023-12-09 12:33:56.953470$GPGSV,2,1,08,03,39,278,45,04,21,310,39,16,36,207,45,26,65,206,48*71
###2023-12-09 12:33:56.955814$GPGSV,2,2,08,28,58,055,44,29,25,075,41,31,73,358,48,32,31,134,43*7B
###2023-12-09 12:33:56.958139$GLGSV,1,1,04,71,57,169,48,72,65,310,47,73,48,033,46,74,71,290,43*63
###2023-12-09 12:33:56.960482$GAGSV,1,1,04,04,20,311,41,19,81,304,41,21,77,177,46,27,42,050,44*69
###2023-12-09 12:33:56.962820$GBGSV,2,1,05,14,55,198,46,24,81,343,48,25,32,252,47,26,35,057,45*6C
###2023-12-09 12:33:56.964277$GBGSV,2,2,05,33,63,255,47,,,,,,,,,,,,*5A
###2023-12-09 12:33:56.965565$GNVTG,90.48,T,,M,1.22,N,2.27,K,A*10
###2023-12-09 12:33:56.967228$GNGST,173356.10,19.000,,,,0.091,0.082,0.200*5B
###2023-12-09 12:33:56.968528$GNZDA,173356.10,09,12,2023,00,00*75
###2023-12-09 12:33:56.969165$GNEBP,,,,,,M*13
###2023-12-09 12:33:57.134175$GNGGA,173356.30,4138.0454552,N,07032.4274645,W,1,21,0.7,12.456,M,-29.745,M,0.0,*55
###2023-12-09 12:33:57.332242$GNGGA,173356.50,4138.0454654,N,07032.4273832,W,1,21,0.7,12.458,M,-29.745,M,0.0,*51
###2023-12-09 12:33:57.532271$GNGGA,173356.70,4138.0454716,N,07032.4272919,W,1,21,0.7,12.470,M,-29.745,M,0.0,*57
###2023-12-09 12:33:57.732364$GNGGA,173356.90,4138.0454741,N,07032.4272071,W,1,21,0.7,12.479,M,-29.745,M,0.0,*55
###2023-12-09 12:33:57.933684$GNRMC,173357.10,A,4138.0454745,N,07032.4271252,W,1.03,85.71,091223,,,A*6B
###2023-12-09 12:33:57.936583$GNGGA,173357.10,4138.0454745,N,07032.4271252,W,1,21,0.7,12.493,M,-29.745,M,0.0,*5C
###2023-12-09 12:33:57.938437$GPGSA,A,3,03,04,16,26,28,29,31,32,,,,,1.3,0.7,1.1*31
###2023-12-09 12:33:57.940031$GLGSA,A,3,71,72,73,74,,,,,,,,,1.3,0.7,1.1*2F
###2023-12-09 12:33:57.941604$GAGSA,A,3,04,19,21,27,,,,,,,,,1.3,0.7,1.1*2C
###2023-12-09 12:33:57.943253$GBGSA,A,3,14,24,25,26,33,,,,,,,,1.3,0.7,1.1*25
###2023-12-09 12:33:57.945565$GPGSV,2,1,08,03,39,278,44,04,21,310,40,16,36,207,46,26,65,206,47*72
###2023-12-09 12:33:57.947917$GPGSV,2,2,08,28,58,055,44,29,25,075,41,31,73,358,47,32,31,134,43*74
###2023-12-09 12:33:57.950262$GLGSV,1,1,04,71,57,169,48,72,65,310,47,73,48,033,46,74,71,290,43*63
###2023-12-09 12:33:57.952605$GAGSV,1,1,04,04,20,311,42,19,81,304,41,21,77,177,46,27,42,050,44*6A
###2023-12-09 12:33:57.954942$GBGSV,2,1,05,14,55,198,46,24,81,343,48,25,32,252,45,26,35,057,44*6F
###2023-12-09 12:33:57.956389$GBGSV,2,2,05,33,63,255,48,,,,,,,,,,,,*55
###2023-12-09 12:33:57.957674$GNVTG,85.71,T,,M,1.03,N,1.91,K,A*13
###2023-12-09 12:33:57.959374$GNGST,173357.10,19.000,,,,0.090,0.081,0.200*58
###2023-12-09 12:33:57.960668$GNZDA,173357.10,09,12,2023,00,00*74
###2023-12-09 12:33:57.961305$GNEBP,,,,,,M*13
###2023-12-09 12:33:58.133210$GNGGA,173357.30,4138.0454802,N,07032.4270410,W,1,21,0.7,12.488,M,-29.745,M,0.0,*59
###2023-12-09 12:33:58.333191$GNGGA,173357.50,4138.0454908,N,07032.4269647,W,1,21,0.7,12.479,M,-29.745,M,0.0,*52
###2023-12-09 12:33:58.532271$GNGGA,173357.70,4138.0454966,N,07032.4268916,W,1,21,0.7,12.467,M,-29.745,M,0.0,*5D
###2023-12-09 12:33:58.731611$GNGGA,173357.90,4138.0455001,N,07032.4268130,W,1,21,0.7,12.471,M,-29.745,M,0.0,*51
###2023-12-09 12:33:58.934863$GNRMC,173358.10,A,4138.0455019,N,07032.4267295,W,1.01,89.18,091223,,,A*66
###2023-12-09 12:33:58.937735$GNGGA,173358.10,4138.0455019,N,07032.4267295,W,1,21,0.7,12.481,M,-29.745,M,0.0,*53
###2023-12-09 12:33:58.939604$GPGSA,A,3,03,04,16,26,28,29,31,32,,,,,1.3,0.7,1.1*31
###2023-12-09 12:33:58.941195$GLGSA,A,3,71,72,73,74,,,,,,,,,1.3,0.7,1.1*2F
###2023-12-09 12:33:58.942783$GAGSA,A,3,04,19,21,27,,,,,,,,,1.3,0.7,1.1*2C
###2023-12-09 12:33:58.944427$GBGSA,A,3,14,24,25,26,33,,,,,,,,1.3,0.7,1.1*25
###2023-12-09 12:33:58.946790$GPGSV,2,1,08,03,39,278,46,04,21,310,42,16,36,207,47,26,65,206,49*7D
###2023-12-09 12:33:58.949143$GPGSV,2,2,08,28,58,055,46,29,25,075,43,31,73,358,48,32,31,134,44*7C
###2023-12-09 12:33:58.951528$GLGSV,1,1,04,71,57,169,48,72,65,310,47,73,48,033,48,74,71,290,43*6D
###2023-12-09 12:33:58.953866$GAGSV,1,1,04,04,20,311,42,19,81,304,42,21,77,177,47,27,42,050,46*6A
###2023-12-09 12:33:58.956218$GBGSV,2,1,05,14,55,198,46,24,81,343,49,25,32,252,45,26,35,057,44*6E
###2023-12-09 12:33:58.957675$GBGSV,2,2,05,33,63,255,48,,,,,,,,,,,,*55
###2023-12-09 12:33:58.958980$GNVTG,89.18,T,,M,1.01,N,1.87,K,A*15
###2023-12-09 12:33:58.960632$GNGST,173358.10,19.000,,,,0.089,0.080,0.190*54
###2023-12-09 12:33:58.961923$GNZDA,173358.10,09,12,2023,00,00*7B
###2023-12-09 12:33:58.962606$GNEBP,,,,,,M*13
###2023-12-09 12:33:59.131093$GNGGA,173358.30,4138.0455085,N,07032.4266576,W,1,21,0.7,12.479,M,-29.745,M,0.0,*58
###2023-12-09 12:33:59.332129$GNGGA,173358.50,4138.0455160,N,07032.4265895,W,1,21,0.7,12.462,M,-29.745,M,0.0,*5D
###2023-12-09 12:33:59.539341$GNGGA,173358.70,4138.0455264,N,07032.4265198,W,1,21,0.7,12.464,M,-29.745,M,0.0,*5A
###2023-12-09 12:33:59.731211$GNGGA,173358.90,4138.0455325,N,07032.4264442,W,1,21,0.7,12.460,M,-29.745,M,0.0,*57
###2023-12-09 12:33:59.932956$GNRMC,173359.10,A,4138.0455362,N,07032.4263802,W,0.82,84.40,091223,,,A*62
###2023-12-09 12:33:59.935814$GNGGA,173359.10,4138.0455362,N,07032.4263802,W,1,21,0.7,12.449,M,-29.745,M,0.0,*59
###2023-12-09 12:33:59.937656$GPGSA,A,3,03,04,16,26,28,29,31,32,,,,,1.3,0.7,1.1*31
###2023-12-09 12:33:59.939247$GLGSA,A,3,71,72,73,74,,,,,,,,,1.3,0.7,1.1*2F
###2023-12-09 12:33:59.940818$GAGSA,A,3,04,19,21,27,,,,,,,,,1.3,0.7,1.1*2C
###2023-12-09 12:33:59.942491$GBGSA,A,3,14,24,25,26,33,,,,,,,,1.3,0.7,1.1*25
###2023-12-09 12:33:59.944819$GPGSV,2,1,08,03,39,278,43,04,21,310,38,16,36,207,46,26,65,206,48*75
###2023-12-09 12:33:59.947179$GPGSV,2,2,08,28,58,055,44,29,25,075,40,31,73,358,47,32,31,134,42*74
###2023-12-09 12:33:59.949528$GLGSV,1,1,04,71,57,169,48,72,65,310,47,73,48,033,47,74,71,290,43*62
###2023-12-09 12:33:59.951873$GAGSV,1,1,04,04,20,311,39,19,81,304,40,21,77,177,47,27,42,050,44*66
###2023-12-09 12:33:59.954207$GBGSV,2,1,05,14,55,198,47,24,81,343,49,25,32,252,44,26,35,057,45*6F
###2023-12-09 12:33:59.955680$GBGSV,2,2,05,33,63,255,47,,,,,,,,,,,,*5A
###2023-12-09 12:33:59.956972$GNVTG,84.40,T,,M,0.82,N,1.51,K,A*14
###2023-12-09 12:33:59.958627$GNGST,173359.10,19.000,,,,0.088,0.079,0.190*52
###2023-12-09 12:33:59.959917$GNZDA,173359.10,09,12,2023,00,00*7A
###2023-12-09 12:33:59.960552$GNEBP,,,,,,M*13
###2023-12-09 12:34:00.133171$GNGGA,173359.30,4138.0455429,N,07032.4263158,W,1,22,0.7,12.455,M,-29.745,M,0.0,*5B
###2023-12-09 12:34:00.333015$GNGGA,173359.50,4138.0455530,N,07032.4262428,W,1,22,0.7,12.465,M,-29.745,M,0.0,*54
###2023-12-09 12:34:00.538019$GNGGA,173359.70,4138.0455616,N,07032.4261779,W,1,23,0.7,12.473,M,-29.745,M,0.0,*53
###2023-12-09 12:34:00.732228$GNGGA,173359.90,4138.0455612,N,07032.4261151,W,1,23,0.7,12.468,M,-29.745,M,0.0,*5F
###2023-12-09 12:34:00.934166$GNRMC,173400.10,A,4138.0455661,N,07032.4260540,W,0.91,84.40,091223,,,A*65
###2023-12-09 12:34:00.937038$GNGGA,173400.10,4138.0455661,N,07032.4260540,W,1,23,0.7,12.466,M,-29.745,M,0.0,*53
###2023-12-09 12:34:00.938912$GPGSA,A,3,03,04,16,26,28,29,31,32,,,,,1.2,0.7,1.0*31
###2023-12-09 12:34:00.940573$GLGSA,A,3,71,72,73,74,75,,,,,,,,1.2,0.7,1.0*2D
###2023-12-09 12:34:00.942413$GAGSA,A,3,04,19,21,27,,,,,,,,,1.2,0.7,1.0*2C
###2023-12-09 12:34:00.944089$GBGSA,A,3,14,24,25,26,33,,,,,,,,1.2,0.7,1.0*25
###2023-12-09 12:34:00.946448$GPGSV,2,1,08,03,39,278,44,04,21,310,39,16,36,207,45,26,65,206,48*70
###2023-12-09 12:34:00.948829$GPGSV,2,2,08,28,58,055,44,29,25,075,40,31,73,358,47,32,31,134,44*72
###2023-12-09 12:34:00.951185$GLGSV,2,1,05,71,57,169,48,72,65,310,48,73,48,033,47,74,71,290,44*68
###2023-12-09 12:34:00.952641$GLGSV,2,2,05,75,22,241,36,,,,,,,,,,,,*50
###2023-12-09 12:34:00.954977$GAGSV,1,1,04,04,20,311,40,19,81,304,40,21,77,177,47,27,42,050,44*68
###2023-12-09 12:34:00.957300$GBGSV,2,1,05,14,55,198,46,24,81,343,49,25,32,252,46,26,35,057,43*6A
###2023-12-09 12:34:00.958760$GBGSV,2,2,05,33,63,255,48,,,,,,,,,,,,*55
###2023-12-09 12:34:00.960047$GNVTG,84.40,T,,M,0.91,N,1.69,K,A*1D
