###2023-12-09 12:56:47.986355$GNVTG,332.29,T,,M,0.10,N,0.18,K,A*22
###2023-12-09 12:56:47.988065$GNGST,175647.10,18.000,,,,0.076,0.066,0.160*5F
###2023-12-09 12:56:47.989371$GNZDA,175647.10,09,12,2023,00,00*76
###2023-12-09 12:56:47.990014$GNEBP,,,,,,M*13
###2023-12-09 12:56:48.156566$GNGGA,175647.30,4138.0461334,N,07032.3899150,W,1,24,0.6,13.635,M,-29.745,M,0.0,*59
###2023-12-09 12:56:48.360285$GNGGA,175647.50,4138.0461504,N,07032.3899268,W,1,24,0.6,13.631,M,-29.745,M,0.0,*56
###2023-12-09 12:56:48.557328$GNGGA,175647.70,4138.0461708,N,07032.3899442,W,1,24,0.6,13.621,M,-29.745,M,0.0,*55
###2023-12-09 12:56:48.757323$GNGGA,175647.90,4138.0461906,N,07032.3899585,W,1,24,0.6,13.625,M,-29.745,M,0.0,*55
###2023-12-09 12:56:48.956950$GNRMC,175648.10,A,4138.0462023,N,07032.3899622,W,0.10,332.29,091223,,,A*5D
###2023-12-09 12:56:48.959834$GNGGA,175648.10,4138.0462023,N,07032.3899622,W,1,24,0.6,13.633,M,-29.745,M,0.0,*56
###2023-12-09 12:56:48.961697$GPGSA,A,3,03,04,16,26,28,29,31,32,,,,,1.1,0.6,0.9*3B
###2023-12-09 12:56:48.963415$GLGSA,A,3,65,71,72,73,74,75,,,,,,,1.1,0.6,0.9*24
###2023-12-09 12:56:48.964999$GAGSA,A,3,04,19,21,27,,,,,,,,,1.1,0.6,0.9*26
###2023-12-09 12:56:48.966659$GBGSA,A,3,14,24,25,26,33,,,,,,,,1.1,0.6,0.9*2F
###2023-12-09 12:56:48.968994$GPGSV,2,1,08,03,36,265,43,04,30,311,44,16,47,211,45,26,77,209,48*72
###2023-12-09 12:56:48.971334$GPGSV,2,2,08,28,51,068,44,29,25,064,40,31,70,031,47,32,21,139,44*76
###2023-12-09 12:56:48.973669$GLGSV,2,1,06,65,22,328,44,71,43,172,47,72,73,277,47,73,38,040,40*63
###2023-12-09 12:56:48.975438$GLGSV,2,2,06,74,71,327,43,75,30,250,46,,,,,,,,*63
###2023-12-09 12:56:48.977769$GAGSV,1,1,04,04,27,312,43,19,85,234,41,21,85,141,47,27,34,048,43*6F
###2023-12-09 12:56:48.980117$GBGSV,2,1,05,14,45,193,44,24,75,020,49,25,39,260,46,26,27,062,42*61
###2023-12-09 12:56:48.981576$GBGSV,2,2,05,33,59,235,47,,,,,,,,,,,,*55
###2023-12-09 12:56:48.982911$GNVTG,332.29,T,,M,0.10,N,0.18,K,A*22
###2023-12-09 12:56:48.984559$GNGST,175648.10,18.000,,,,0.075,0.066,0.150*50
###2023-12-09 12:56:48.985853$GNZDA,175648.10,09,12,2023,00,00*79
###2023-12-09 12:56:48.986489$GNEBP,,,,,,M*13
###2023-12-09 12:56:49.157969$GNGGA,175648.30,4138.0462066,N,07032.3899644,W,1,24,0.6,13.632,M,-29.745,M,0.0,*54
###2023-12-09 12:56:49.358187$GNGGA,175648.50,4138.0462204,N,07032.3899738,W,1,24,0.6,13.630,M,-29.745,M,0.0,*5C
###2023-12-09 12:56:49.557940$GNGGA,175648.70,4138.0462465,N,07032.3899957,W,1,24,0.6,13.639,M,-29.745,M,0.0,*51
###2023-12-09 12:56:49.757831$GNGGA,175648.90,4138.0462660,N,07032.3900122,W,1,24,0.6,13.639,M,-29.745,M,0.0,*53
###2023-12-09 12:56:49.958744$GNRMC,175649.10,A,4138.0462718,N,07032.3900170,W,0.04,332.29,091223,,,A*57
###2023-12-09 12:56:49.961595$GNGGA,175649.10,4138.0462718,N,07032.3900170,W,1,24,0.6,13.641,M,-29.745,M,0.0,*5C
###2023-12-09 12:56:49.963475$GPGSA,A,3,03,04,16,26,28,29,31,32,,,,,1.1,0.6,0.9*3B
###2023-12-09 12:56:49.965193$GLGSA,A,3,65,71,72,73,74,75,,,,,,,1.1,0.6,0.9*24
###2023-12-09 12:56:49.966798$GAGSA,A,3,04,19,21,27,,,,,,,,,1.1,0.6,0.9*26
###2023-12-09 12:56:49.968444$GBGSA,A,3,14,24,25,26,33,,,,,,,,1.1,0.6,0.9*2F
###2023-12-09 12:56:49.970796$GPGSV,2,1,08,03,36,265,44,04,30,311,44,16,47,211,46,26,77,209,48*76
###2023-12-09 12:56:49.973138$GPGSV,2,2,08,28,51,068,44,29,25,064,40,31,70,031,46,32,21,139,43*70
###2023-12-09 12:56:49.975492$GLGSV,2,1,06,65,22,328,44,71,43,172,48,72,73,277,47,73,37,040,41*62
###2023-12-09 12:56:49.977247$GLGSV,2,2,06,74,71,327,43,75,30,250,47,,,,,,,,*62
###2023-12-09 12:56:49.979584$GAGSV,1,1,04,04,27,312,43,19,85,234,41,21,85,141,47,27,34,048,43*6F
###2023-12-09 12:56:49.981919$GBGSV,2,1,05,14,45,193,44,24,75,020,48,25,39,260,45,26,27,062,41*60
###2023-12-09 12:56:49.983392$GBGSV,2,2,05,33,59,235,47,,,,,,,,,,,,*55
###2023-12-09 12:56:49.984720$GNVTG,332.29,T,,M,0.04,N,0.07,K,A*29
###2023-12-09 12:56:49.986370$GNGST,175649.10,18.000,,,,0.075,0.066,0.150*51
###2023-12-09 12:56:49.987672$GNZDA,175649.10,09,12,2023,00,00*78
###2023-12-09 12:56:49.988313$GNEBP,,,,,,M*13
###2023-12-09 12:56:50.157413$GNGGA,175649.30,4138.0462764,N,07032.3900138,W,1,24,0.6,13.638,M,-29.745,M,0.0,*57
###2023-12-09 12:56:50.357639$GNGGA,175649.50,4138.0463023,N,07032.3900227,W,1,24,0.6,13.642,M,-29.745,M,0.0,*54
###2023-12-09 12:56:50.558021$GNGGA,175649.70,4138.0463368,N,07032.3900287,W,1,24,0.6,13.642,M,-29.745,M,0.0,*50
###2023-12-09 12:56:50.758473$GNGGA,175649.90,4138.0463610,N,07032.3899993,W,1,24,0.6,13.638,M,-29.745,M,0.0,*56
###2023-12-09 12:56:50.958358$GNRMC,175650.10,A,4138.0463881,N,07032.3899480,W,1.01,49.12,091223,,,A*69
###2023-12-09 12:56:50.961239$GNGGA,175650.10,4138.0463881,N,07032.3899480,W,1,24,0.6,13.651,M,-29.745,M,0.0,*50
###2023-12-09 12:56:50.963117$GPGSA,A,3,03,04,16,26,28,29,31,32,,,,,1.1,0.6,0.9*3B
###2023-12-09 12:56:50.964833$GLGSA,A,3,65,71,72,73,74,75,,,,,,,1.1,0.6,0.9*24
###2023-12-09 12:56:50.966417$GAGSA,A,3,04,19,21,27,,,,,,,,,1.1,0.6,0.9*26
###2023-12-09 12:56:50.968070$GBGSA,A,3,14,24,25,26,33,,,,,,,,1.1,0.6,0.9*2F
###2023-12-09 12:56:50.970395$GPGSV,2,1,08,03,36,265,41,04,30,311,41,16,47,211,43,26,77,209,46*7D
###2023-12-09 12:56:50.972742$GPGSV,2,2,08,28,51,068,41,29,25,064,38,31,70,031,44,32,21,139,42*79
###2023-12-09 12:56:50.975092$GLGSV,2,1,06,65,22,328,41,71,43,172,45,72,73,277,44,73,37,040,40*68
###2023-12-09 12:56:50.976842$GLGSV,2,2,06,74,70,331,41,75,30,250,44,,,,,,,,*65
###2023-12-09 12:56:50.979180$GAGSV,1,1,04,04,27,312,41,19,85,234,38,21,85,141,43,27,34,048,41*65
###2023-12-09 12:56:50.981513$GBGSV,2,1,05,14,45,193,44,24,75,020,47,25,39,260,45,26,27,062,41*6F
###2023-12-09 12:56:50.982984$GBGSV,2,2,05,33,59,235,46,,,,,,,,,,,,*54
###2023-12-09 12:56:50.984279$GNVTG,49.12,T,,M,1.01,N,1.87,K,A*13
###2023-12-09 12:56:50.985929$GNGST,175650.10,18.000,,,,0.076,0.066,0.150*5A
###2023-12-09 12:56:50.987239$GNZDA,175650.10,09,12,2023,00,00*70
###2023-12-09 12:56:50.987882$GNEBP,,,,,,M*13
###2023-12-09 12:56:51.158978$GNGGA,175650.30,4138.0464417,N,07032.3898948,W,1,24,0.6,13.664,M,-29.745,M,0.0,*58
###2023-12-09 12:56:51.359534$GNGGA,175650.50,4138.0465250,N,07032.3898509,W,1,24,0.6,13.664,M,-29.745,M,0.0,*53
###2023-12-09 12:56:51.558526$GNGGA,175650.70,4138.0466082,N,07032.3897840,W,1,24,0.6,13.644,M,-29.745,M,0.0,*52
###2023-12-09 12:56:51.760814$GNGGA,175650.90,4138.0466829,N,07032.3896910,W,1,24,0.6,13.653,M,-29.745,M,0.0,*56
###2023-12-09 12:56:51.959639$GNRMC,175651.10,A,4138.0467680,N,07032.3895864,W,2.27,42.25,091223,,,A*61
###2023-12-09 12:56:51.962495$GNGGA,175651.10,4138.0467680,N,07032.3895864,W,1,24,0.6,13.675,M,-29.745,M,0.0,*56
###2023-12-09 12:56:51.964372$GPGSA,A,3,03,04,16,26,28,29,31,32,,,,,1.1,0.6,0.9*3B
###2023-12-09 12:56:51.966103$GLGSA,A,3,65,71,72,73,74,75,,,,,,,1.1,0.6,0.9*24
###2023-12-09 12:56:51.967708$GAGSA,A,3,04,19,21,27,,,,,,,,,1.1,0.6,0.9*26
###2023-12-09 12:56:51.969353$GBGSA,A,3,14,24,25,26,33,,,,,,,,1.1,0.6,0.9*2F
###2023-12-09 12:56:51.971681$GPGSV,2,1,08,03,36,265,43,04,30,311,43,16,47,211,45,26,77,209,47*7A
###2023-12-09 12:56:51.974017$GPGSV,2,2,08,28,51,068,42,29,25,064,39,31,70,031,45,32,21,139,42*7A
###2023-12-09 12:56:51.976357$GLGSV,2,1,06,65,22,328,42,71,43,172,46,72,73,277,45,73,37,040,40*69
###2023-12-09 12:56:51.978097$GLGSV,2,2,06,74,70,331,42,75,30,251,45,,,,,,,,*66
###2023-12-09 12:56:51.980441$GAGSV,1,1,04,04,27,312,42,19,85,234,40,21,85,141,46,27,34,048,42*6F
###2023-12-09 12:56:51.982786$GBGSV,2,1,05,14,45,193,44,24,75,020,47,25,39,260,45,26,27,062,41*6F
###2023-12-09 12:56:51.984235$GBGSV,2,2,05,33,59,235,48,,,,,,,,,,,,*5A
###2023-12-09 12:56:51.985518$GNVTG,42.25,T,,M,2.27,N,4.21,K,A*12
###2023-12-09 12:56:51.987173$GNGST,175651.10,18.000,,,,0.077,0.068,0.160*57
###2023-12-09 12:56:51.988458$GNZDA,175651.10,09,12,2023,00,00*71
###2023-12-09 12:56:51.989091$GNEBP,,,,,,M*13
###2023-12-09 12:56:52.157820$GNGGA,175651.30,4138.0468557,N,07032.3894632,W,1,24,0.6,13.676,M,-29.745,M,0.0,*5D
###2023-12-09 12:56:52.360064$GNGGA,175651.50,4138.0469311,N,07032.3893235,W,1,24,0.6,13.662,M,-29.745,M,0.0,*5F
###2023-12-09 12:56:52.559104$GNGGA,175651.70,4138.0470078,N,07032.3891809,W,1,24,0.6,13.668,M,-29.745,M,0.0,*54
###2023-12-09 12:56:52.760104$GNGGA,175651.90,4138.0470916,N,07032.3890266,W,1,24,0.6,13.679,M,-29.745,M,0.0,*59
###2023-12-09 12:56:52.958836$GNRMC,175652.10,A,4138.0471531,N,07032.3888447,W,2.68,72.25,091223,,,A*65
###2023-12-09 12:56:52.961723$GNGGA,175652.10,4138.0471531,N,07032.3888447,W,1,24,0.6,13.677,M,-29.745,M,0.0,*58
###2023-12-09 12:56:52.963612$GPGSA,A,3,03,04,16,26,28,29,31,32,,,,,1.1,0.6,0.9*3B
###2023-12-09 12:56:52.965341$GLGSA,A,3,65,71,72,73,74,75,,,,,,,1.1,0.6,0.9*24
###2023-12-09 12:56:52.966947$GAGSA,A,3,04,19,21,27,,,,,,,,,1.1,0.6,0.9*26
###2023-12-09 12:56:52.968600$GBGSA,A,3,14,24,25,26,33,,,,,,,,1.1,0.6,0.9*2F
###2023-12-09 12:56:52.970948$GPGSV,2,1,08,03,36,265,44,04,30,311,41,16,47,211,46,26,77,209,47*7C
###2023-12-09 12:56:52.973294$GPGSV,2,2,08,28,51,068,43,29,25,064,42,31,70,031,46,32,21,139,41*77
