###2023-12-09 12:45:03.344246$GNGGA,174502.50,4138.0417161,N,07032.3947251,W,1,24,0.6,13.336,M,-29.745,M,0.0,*59
###2023-12-09 12:45:03.545347$GNGGA,174502.70,4138.0417119,N,07032.3945413,W,1,24,0.6,13.328,M,-29.745,M,0.0,*59
###2023-12-09 12:45:03.746321$GNGGA,174502.90,4138.0417354,N,07032.3943695,W,1,24,0.6,13.338,M,-29.745,M,0.0,*57
###2023-12-09 12:45:03.946257$GNRMC,174503.10,A,4138.0417653,N,07032.3941922,W,2.43,79.32,091223,,,A*6A
###2023-12-09 12:45:03.949164$GNGGA,174503.10,4138.0417653,N,07032.3941922,W,1,24,0.6,13.343,M,-29.745,M,0.0,*51
###2023-12-09 12:45:03.951068$GPGSA,A,3,03,04,16,26,28,29,31,32,,,,,1.1,0.6,0.9*3B
###2023-12-09 12:45:03.952790$GLGSA,A,3,65,71,72,73,74,75,,,,,,,1.1,0.6,0.9*24
###2023-12-09 12:45:03.954378$GAGSA,A,3,04,19,21,27,,,,,,,,,1.1,0.6,0.9*26
###2023-12-09 12:45:03.956040$GBGSA,A,3,14,24,25,26,33,,,,,,,,1.1,0.6,0.9*2F
###2023-12-09 12:45:03.958367$GPGSV,2,1,08,03,38,271,43,04,25,311,41,16,41,209,46,26,71,208,48*73
###2023-12-09 12:45:03.960718$GPGSV,2,2,08,28,55,061,44,29,26,069,41,31,72,015,46,32,26,136,41*7C
###2023-12-09 12:45:03.963105$GLGSV,2,1,06,65,17,329,41,71,50,171,48,72,70,297,46,73,44,036,45*6C
###2023-12-09 12:45:03.964856$GLGSV,2,2,06,74,71,307,42,75,25,245,44,,,,,,,,*62
###2023-12-09 12:45:03.967204$GAGSV,1,1,04,04,24,312,41,19,84,283,40,21,81,168,46,27,38,049,41*63
###2023-12-09 12:45:03.969535$GBGSV,2,1,05,14,50,195,45,24,78,005,48,25,36,256,46,26,31,059,43*6D
###2023-12-09 12:45:03.971010$GBGSV,2,2,05,33,61,245,48,,,,,,,,,,,,*56
###2023-12-09 12:45:03.972301$GNVTG,79.32,T,,M,2.43,N,4.50,K,A*18
###2023-12-09 12:45:03.973956$GNGST,174503.10,18.000,,,,0.079,0.069,0.160*5D
###2023-12-09 12:45:03.975260$GNZDA,174503.10,09,12,2023,00,00*74
###2023-12-09 12:45:03.975902$GNEBP,,,,,,M*13
###2023-12-09 12:45:04.145857$GNGGA,174503.30,4138.0417998,N,07032.3940240,W,1,24,0.6,13.343,M,-29.745,M,0.0,*55
###2023-12-09 12:45:04.347622$GNGGA,174503.50,4138.0418483,N,07032.3938550,W,1,24,0.6,13.348,M,-29.745,M,0.0,*59
###2023-12-09 12:45:04.546318$GNGGA,174503.70,4138.0418890,N,07032.3936824,W,1,24,0.6,13.344,M,-29.745,M,0.0,*59
###2023-12-09 12:45:04.744853$GNGGA,174503.90,4138.0419400,N,07032.3935174,W,1,24,0.6,13.349,M,-29.745,M,0.0,*51
###2023-12-09 12:45:04.946146$GNRMC,174504.10,A,4138.0420029,N,07032.3933594,W,2.47,60.83,091223,,,A*60
###2023-12-09 12:45:04.949052$GNGGA,174504.10,4138.0420029,N,07032.3933594,W,1,24,0.6,13.358,M,-29.745,M,0.0,*57
###2023-12-09 12:45:04.950955$GPGSA,A,3,03,04,16,26,28,29,31,32,,,,,1.1,0.6,0.9*3B
###2023-12-09 12:45:04.952684$GLGSA,A,3,65,71,72,73,74,75,,,,,,,1.1,0.6,0.9*24
###2023-12-09 12:45:04.954267$GAGSA,A,3,04,19,21,27,,,,,,,,,1.1,0.6,0.9*26
###2023-12-09 12:45:04.955935$GBGSA,A,3,14,24,25,26,33,,,,,,,,1.1,0.6,0.9*2F
###2023-12-09 12:45:04.958267$GPGSV,2,1,08,03,38,271,43,04,25,311,42,16,41,209,45,26,71,208,48*73
###2023-12-09 12:45:04.960623$GPGSV,2,2,08,28,55,061,44,29,26,069,41,31,72,015,46,32,26,136,43*7E
###2023-12-09 12:45:04.962971$GLGSV,2,1,06,65,17,329,43,71,50,171,48,72,70,297,46,73,43,037,46*6B
###2023-12-09 12:45:04.964721$GLGSV,2,2,06,74,71,307,42,75,25,245,43,,,,,,,,*65
###2023-12-09 12:45:04.967095$GAGSV,1,1,04,04,24,312,40,19,84,283,39,21,81,168,45,27,38,049,39*60
###2023-12-09 12:45:04.969433$GBGSV,2,1,05,14,50,195,46,24,78,005,48,25,36,256,46,26,31,059,44*69
###2023-12-09 12:45:04.970896$GBGSV,2,2,05,33,61,245,48,,,,,,,,,,,,*56
###2023-12-09 12:45:04.972183$GNVTG,60.83,T,,M,2.47,N,4.57,K,A*19
###2023-12-09 12:45:04.973826$GNGST,174504.10,18.000,,,,0.078,0.069,0.160*5B
###2023-12-09 12:45:04.975139$GNZDA,174504.10,09,12,2023,00,00*73
###2023-12-09 12:45:04.975780$GNEBP,,,,,,M*13
###2023-12-09 12:45:05.144605$GNGGA,174504.30,4138.0420671,N,07032.3931955,W,1,24,0.6,13.361,M,-29.745,M,0.0,*57
###2023-12-09 12:45:05.345490$GNGGA,174504.50,4138.0421227,N,07032.3930269,W,1,24,0.6,13.350,M,-29.745,M,0.0,*50
###2023-12-09 12:45:05.547737$GNGGA,174504.70,4138.0421853,N,07032.3928668,W,1,24,0.6,13.368,M,-29.745,M,0.0,*5C
###2023-12-09 12:45:05.745131$GNGGA,174504.90,4138.0422592,N,07032.3926982,W,1,24,0.6,13.378,M,-29.745,M,0.0,*55
###2023-12-09 12:45:05.945276$GNRMC,174505.10,A,4138.0423140,N,07032.3925214,W,2.43,74.03,091223,,,A*6D
###2023-12-09 12:45:05.948163$GNGGA,174505.10,4138.0423140,N,07032.3925214,W,1,24,0.6,13.348,M,-29.745,M,0.0,*52
###2023-12-09 12:45:05.950035$GPGSA,A,3,03,04,16,26,28,29,31,32,,,,,1.1,0.6,0.9*3B
###2023-12-09 12:45:05.951764$GLGSA,A,3,65,71,72,73,74,75,,,,,,,1.1,0.6,0.9*24
###2023-12-09 12:45:05.953354$GAGSA,A,3,04,19,21,27,,,,,,,,,1.1,0.6,0.9*26
###2023-12-09 12:45:05.955015$GBGSA,A,3,14,24,25,26,33,,,,,,,,1.1,0.6,0.9*2F
###2023-12-09 12:45:05.957337$GPGSV,2,1,08,03,38,271,43,04,25,311,41,16,41,209,45,26,71,208,48*70
###2023-12-09 12:45:05.959672$GPGSV,2,2,08,28,55,061,43,29,26,069,41,31,72,015,46,32,26,136,42*78
###2023-12-09 12:45:05.961999$GLGSV,2,1,06,65,17,329,41,71,50,171,48,72,70,297,46,73,43,037,46*69
###2023-12-09 12:45:05.963752$GLGSV,2,2,06,74,71,310,42,75,25,245,44,,,,,,,,*64
###2023-12-09 12:45:05.966077$GAGSV,1,1,04,04,24,312,41,19,84,283,41,21,81,168,46,27,38,049,42*61
###2023-12-09 12:45:05.968426$GBGSV,2,1,05,14,50,195,46,24,78,005,48,25,36,256,46,26,31,059,43*6E
###2023-12-09 12:45:05.969884$GBGSV,2,2,05,33,61,245,47,,,,,,,,,,,,*59
###2023-12-09 12:45:05.971198$GNVTG,74.03,T,,M,2.43,N,4.50,K,A*17
###2023-12-09 12:45:05.972853$GNGST,174505.10,18.000,,,,0.078,0.069,0.160*5A
###2023-12-09 12:45:05.974146$GNZDA,174505.10,09,12,2023,00,00*72
###2023-12-09 12:45:05.974808$GNEBP,,,,,,M*13
###2023-12-09 12:45:06.146095$GNGGA,174505.30,4138.0423639,N,07032.3923560,W,1,24,0.6,13.355,M,-29.745,M,0.0,*57
###2023-12-09 12:45:06.345386$GNGGA,174505.50,4138.0424406,N,07032.3921881,W,1,24,0.6,13.382,M,-29.745,M,0.0,*52
###2023-12-09 12:45:06.546423$GNGGA,174505.70,4138.0424929,N,07032.3919987,W,1,24,0.6,13.359,M,-29.745,M,0.0,*5A
###2023-12-09 12:45:06.746075$GNGGA,174505.90,4138.0425242,N,07032.3918238,W,1,24,0.6,13.351,M,-29.745,M,0.0,*55
###2023-12-09 12:45:06.946161$GNRMC,174506.10,A,4138.0425768,N,07032.3916443,W,2.74,66.19,091223,,,A*6C
###2023-12-09 12:45:06.949055$GNGGA,174506.10,4138.0425768,N,07032.3916443,W,1,24,0.6,13.374,M,-29.745,M,0.0,*50
###2023-12-09 12:45:06.950942$GPGSA,A,3,03,04,16,26,28,29,31,32,,,,,1.1,0.6,0.9*3B
###2023-12-09 12:45:06.952661$GLGSA,A,3,65,71,72,73,74,75,,,,,,,1.1,0.6,0.9*24
###2023-12-09 12:45:06.954246$GAGSA,A,3,04,19,21,27,,,,,,,,,1.1,0.6,0.9*26
###2023-12-09 12:45:06.955912$GBGSA,A,3,14,24,25,26,33,,,,,,,,1.1,0.6,0.9*2F
###2023-12-09 12:45:06.958243$GPGSV,2,1,08,03,38,271,45,04,25,311,41,16,41,209,46,26,71,208,48*75
###2023-12-09 12:45:06.960592$GPGSV,2,2,08,28,55,061,44,29,26,069,41,31,72,015,47,32,26,136,43*7F
###2023-12-09 12:45:06.962947$GLGSV,2,1,06,65,17,329,40,71,50,171,48,72,70,297,46,73,43,037,45*6B
###2023-12-09 12:45:06.964695$GLGSV,2,2,06,74,71,310,42,75,26,245,43,,,,,,,,*60
###2023-12-09 12:45:06.967032$GAGSV,1,1,04,04,24,312,41,19,84,283,41,21,81,168,46,27,38,049,42*61
###2023-12-09 12:45:06.969366$GBGSV,2,1,05,14,50,195,46,24,78,005,47,25,36,256,46,26,31,059,42*60
###2023-12-09 12:45:06.970831$GBGSV,2,2,05,33,61,245,47,,,,,,,,,,,,*59
###2023-12-09 12:45:06.972122$GNVTG,66.19,T,,M,2.74,N,5.08,K,A*17
###2023-12-09 12:45:06.973774$GNGST,174506.10,18.000,,,,0.078,0.069,0.160*59
###2023-12-09 12:45:06.975079$GNZDA,174506.10,09,12,2023,00,00*71
###2023-12-09 12:45:06.975721$GNEBP,,,,,,M*13
###2023-12-09 12:45:07.144640$GNGGA,174506.30,4138.0426300,N,07032.3914553,W,1,24,0.6,13.361,M,-29.745,M,0.0,*5D
###2023-12-09 12:45:07.345604$GNGGA,174506.50,4138.0426718,N,07032.3912720,W,1,24,0.6,13.357,M,-29.745,M,0.0,*53
###2023-12-09 12:45:07.545382$GNGGA,174506.70,4138.0427067,N,07032.3910724,W,1,24,0.6,13.378,M,-29.745,M,0.0,*54
###2023-12-09 12:45:07.749437$GNGGA,174506.90,4138.0427454,N,07032.3908689,W,1,24,0.6,13.371,M,-29.745,M,0.0,*58
###2023-12-09 12:45:07.946254$GNRMC,174507.10,A,4138.0428010,N,07032.3906719,W,2.88,68.07,091223,,,A*67
###2023-12-09 12:45:07.949157$GNGGA,174507.10,4138.0428010,N,07032.3906719,W,1,24,0.6,13.375,M,-29.745,M,0.0,*58
###2023-12-09 12:45:07.951046$GPGSA,A,3,03,04,16,26,28,29,31,32,,,,,1.1,0.6,0.9*3B
###2023-12-09 12:45:07.953001$GLGSA,A,3,65,71,72,73,74,75,,,,,,,1.1,0.6,0.9*24
###2023-12-09 12:45:07.954614$GAGSA,A,3,04,19,21,27,,,,,,,,,1.1,0.6,0.9*26
###2023-12-09 12:45:07.956267$GBGSA,A,3,14,24,25,26,33,,,,,,,,1.1,0.6,0.9*2F
###2023-12-09 12:45:07.958622$GPGSV,2,1,08,03,38,271,43,04,25,311,42,16,41,209,46,26,71,208,48*70
###2023-12-09 12:45:07.960960$GPGSV,2,2,08,28,55,061,44,29,26,069,41,31,72,015,47,32,26,136,42*7E
###2023-12-09 12:45:07.963308$GLGSV,2,1,06,65,17,329,41,71,50,171,48,72,70,297,46,73,43,037,45*6A
###2023-12-09 12:45:07.965062$GLGSV,2,2,06,74,71,310,42,75,26,245,43,,,,,,,,*60
###2023-12-09 12:45:07.967399$GAGSV,1,1,04,04,24,312,41,19,84,283,41,21,81,168,46,27,38,049,42*61
###2023-12-09 12:45:07.969727$GBGSV,2,1,05,14,50,195,45,24,78,005,48,25,36,256,46,26,31,059,43*6D
###2023-12-09 12:45:07.971195$GBGSV,2,2,05,33,61,245,47,,,,,,,,,,,,*59
