###2023-12-09 12:25:52.929219$GLGSA,A,3,71,72,73,75,,,,,,,,,1.4,0.8,1.1*26
###2023-12-09 12:25:52.931067$GAGSA,A,3,21,27,,,,,,,,,,,1.4,0.8,1.1*28
###2023-12-09 12:25:52.933031$GBGSA,A,3,14,25,26,33,,,,,,,,,1.4,0.8,1.1*2B
###2023-12-09 12:25:52.935917$GPGSV,2,1,08,03,39,282,44,16,32,206,41,25,15,045,39,26,62,205,44*7B
###2023-12-09 12:25:52.938809$GPGSV,2,2,08,28,61,050,43,29,24,078,41,31,73,346,39,32,34,132,46*70
###2023-12-09 12:25:52.941676$GLGSV,1,1,04,71,62,167,47,72,61,316,43,73,52,030,49,75,18,237,43*66
###2023-12-09 12:25:52.943848$GAGSV,1,1,02,21,74,180,45,27,45,051,45,,,,,,,,*63
###2023-12-09 12:25:52.946730$GBGSV,1,1,04,14,59,200,45,25,29,249,40,26,38,055,48,33,64,264,40*67
###2023-12-09 12:25:52.948216$GNVTG,,T,,M,0.02,N,0.04,K,A*3B
###2023-12-09 12:25:52.950254$GNGST,172552.10,29.000,,,,0.230,0.220,0.490*57
###2023-12-09 12:25:52.951858$GNZDA,172552.10,09,12,2023,00,00*76
###2023-12-09 12:25:52.952641$GNEBP,,,,,,M*13
###2023-12-09 12:25:53.119029$GNGGA,172552.30,4138.0383512,N,07032.4360767,W,1,18,0.8,9.915,M,-29.746,M,0.0,*6C
###2023-12-09 12:25:53.321751$GNGGA,172552.50,4138.0383476,N,07032.4360735,W,1,18,0.8,9.904,M,-29.746,M,0.0,*6E
###2023-12-09 12:25:53.524581$GNGGA,172552.70,4138.0383451,N,07032.4360716,W,1,18,0.8,9.895,M,-29.746,M,0.0,*61
###2023-12-09 12:25:53.719505$GNGGA,172552.90,4138.0383431,N,07032.4360686,W,1,18,0.8,9.889,M,-29.746,M,0.0,*6C
###2023-12-09 12:25:53.922593$GNRMC,172553.10,A,4138.0383403,N,07032.4360659,W,0.02,,091223,,,A*4F
###2023-12-09 12:25:53.926021$GNGGA,172553.10,4138.0383403,N,07032.4360659,W,1,18,0.8,9.876,M,-29.746,M,0.0,*66
###2023-12-09 12:25:53.928278$GPGSA,A,3,03,16,25,26,28,29,31,32,,,,,1.4,0.8,1.1*3A
###2023-12-09 12:25:53.930191$GLGSA,A,3,71,72,73,75,,,,,,,,,1.4,0.8,1.1*26
###2023-12-09 12:25:53.931966$GAGSA,A,3,21,27,,,,,,,,,,,1.4,0.8,1.1*28
###2023-12-09 12:25:53.933877$GBGSA,A,3,14,25,26,33,,,,,,,,,1.4,0.8,1.1*2B
###2023-12-09 12:25:53.936678$GPGSV,2,1,08,03,39,282,44,16,32,206,41,25,15,045,39,26,62,205,44*7B
###2023-12-09 12:25:53.939560$GPGSV,2,2,08,28,61,050,43,29,24,078,41,31,73,346,39,32,34,132,46*70
###2023-12-09 12:25:53.942375$GLGSV,1,1,04,71,62,167,47,72,61,316,43,73,52,030,49,75,18,237,43*66
###2023-12-09 12:25:53.944500$GAGSV,1,1,02,21,74,180,45,27,45,051,45,,,,,,,,*63
###2023-12-09 12:25:53.947331$GBGSV,1,1,04,14,59,200,44,25,29,249,39,26,38,055,47,33,64,264,39*69
###2023-12-09 12:25:53.948713$GNVTG,,T,,M,0.02,N,0.04,K,A*3B
###2023-12-09 12:25:53.950717$GNGST,172553.10,29.000,,,,0.230,0.220,0.490*56
###2023-12-09 12:25:53.952276$GNZDA,172553.10,09,12,2023,00,00*77
###2023-12-09 12:25:53.953047$GNEBP,,,,,,M*13
###2023-12-09 12:25:54.117433$GNGGA,172553.30,4138.0383379,N,07032.4360625,W,1,18,0.8,9.869,M,-29.746,M,0.0,*6B
###2023-12-09 12:25:54.317443$GNGGA,172553.50,4138.0383360,N,07032.4360604,W,1,18,0.8,9.858,M,-29.746,M,0.0,*64
###2023-12-09 12:25:54.517346$GNGGA,172553.70,4138.0383339,N,07032.4360575,W,1,18,0.8,9.852,M,-29.746,M,0.0,*65
###2023-12-09 12:25:54.717576$GNGGA,172553.90,4138.0383313,N,07032.4360560,W,1,18,0.8,9.845,M,-29.746,M,0.0,*61
###2023-12-09 12:25:54.920412$GNRMC,172554.10,A,4138.0383298,N,07032.4360531,W,0.00,,091223,,,A*43
###2023-12-09 12:25:54.923255$GNGGA,172554.10,4138.0383298,N,07032.4360531,W,1,18,0.8,9.831,M,-29.746,M,0.0,*6B
###2023-12-09 12:25:54.925132$GPGSA,A,3,03,16,25,26,28,29,31,32,,,,,1.4,0.8,1.1*3A
###2023-12-09 12:25:54.926740$GLGSA,A,3,71,72,73,75,,,,,,,,,1.4,0.8,1.1*26
###2023-12-09 12:25:54.928205$GAGSA,A,3,21,27,,,,,,,,,,,1.4,0.8,1.1*28
###2023-12-09 12:25:54.929797$GBGSA,A,3,14,25,26,33,,,,,,,,,1.4,0.8,1.1*2B
###2023-12-09 12:25:54.932152$GPGSV,2,1,08,03,39,282,45,16,32,206,41,25,15,045,40,26,62,205,45*75
###2023-12-09 12:25:54.934500$GPGSV,2,2,08,28,61,050,43,29,24,078,42,31,73,346,40,32,34,132,46*7D
###2023-12-09 12:25:54.936860$GLGSV,1,1,04,71,62,167,47,72,61,316,43,73,52,030,49,75,18,237,43*66
###2023-12-09 12:25:54.938631$GAGSV,1,1,02,21,74,180,45,27,45,051,45,,,,,,,,*63
###2023-12-09 12:25:54.940970$GBGSV,1,1,04,14,59,200,44,25,29,249,39,26,38,055,48,33,64,264,39*66
###2023-12-09 12:25:54.942111$GNVTG,,T,,M,0.00,N,0.00,K,A*3D
###2023-12-09 12:25:54.943776$GNGST,172554.10,29.000,,,,0.230,0.220,0.490*51
###2023-12-09 12:25:54.945079$GNZDA,172554.10,09,12,2023,00,00*70
###2023-12-09 12:25:54.945723$GNEBP,,,,,,M*13
###2023-12-09 12:25:55.118402$GNGGA,172554.30,4138.0383282,N,07032.4360503,W,1,18,0.8,9.826,M,-29.746,M,0.0,*65
###2023-12-09 12:25:55.318867$GNGGA,172554.50,4138.0383261,N,07032.4360482,W,1,18,0.8,9.818,M,-29.746,M,0.0,*6B
###2023-12-09 12:25:55.518417$GNGGA,172554.70,4138.0383246,N,07032.4360464,W,1,18,0.8,9.813,M,-29.746,M,0.0,*6F
###2023-12-09 12:25:55.717518$GNGGA,172554.90,4138.0383226,N,07032.4360445,W,1,18,0.8,9.801,M,-29.746,M,0.0,*67
###2023-12-09 12:25:55.919454$GNRMC,172555.10,A,4138.0383202,N,07032.4360420,W,0.04,,091223,,,A*44
###2023-12-09 12:25:55.922499$GNGGA,172555.10,4138.0383202,N,07032.4360420,W,1,18,0.8,9.791,M,-29.746,M,0.0,*6D
###2023-12-09 12:25:55.924563$GPGSA,A,3,03,16,25,26,28,29,31,32,,,,,1.4,0.8,1.1*3A
###2023-12-09 12:25:55.926337$GLGSA,A,3,71,72,73,75,,,,,,,,,1.4,0.8,1.1*26
###2023-12-09 12:25:55.927987$GAGSA,A,3,21,27,,,,,,,,,,,1.4,0.8,1.1*28
###2023-12-09 12:25:55.929591$GBGSA,A,3,14,25,26,33,,,,,,,,,1.4,0.8,1.1*2B
###2023-12-09 12:25:55.931944$GPGSV,2,1,08,03,39,282,45,16,32,206,41,25,15,045,40,26,62,205,45*75
###2023-12-09 12:25:55.934289$GPGSV,2,2,08,28,61,050,43,29,24,078,42,31,73,346,40,32,34,132,46*7D
###2023-12-09 12:25:55.936642$GLGSV,1,1,04,71,62,167,47,72,61,316,43,73,52,030,48,75,18,237,43*67
###2023-12-09 12:25:55.938394$GAGSV,1,1,02,21,74,179,45,27,45,051,45,,,,,,,,*65
###2023-12-09 12:25:55.940737$GBGSV,1,1,04,14,59,200,44,25,29,249,39,26,38,055,47,33,64,264,39*69
###2023-12-09 12:25:55.941874$GNVTG,,T,,M,0.04,N,0.07,K,A*3E
###2023-12-09 12:25:55.943539$GNGST,172555.10,29.000,,,,0.230,0.220,0.490*50
###2023-12-09 12:25:55.944832$GNZDA,172555.10,09,12,2023,00,00*71
###2023-12-09 12:25:55.945476$GNEBP,,,,,,M*13
###2023-12-09 12:25:56.118419$GNGGA,172555.30,4138.0383176,N,07032.4360389,W,1,18,0.8,9.780,M,-29.746,M,0.0,*6B
###2023-12-09 12:25:56.318536$GNGGA,172555.50,4138.0383148,N,07032.4360365,W,1,18,0.8,9.773,M,-29.746,M,0.0,*6E
###2023-12-09 12:25:56.518340$GNGGA,172555.70,4138.0383136,N,07032.4360349,W,1,18,0.8,9.764,M,-29.746,M,0.0,*6D
###2023-12-09 12:25:56.716489$GNGGA,172555.90,4138.0383105,N,07032.4360332,W,1,18,0.8,9.757,M,-29.746,M,0.0,*6F
###2023-12-09 12:25:56.921479$GNRMC,172556.10,A,4138.0383081,N,07032.4360302,W,0.02,,091223,,,A*4F
###2023-12-09 12:25:56.924538$GNGGA,172556.10,4138.0383081,N,07032.4360302,W,1,18,0.8,9.748,M,-29.746,M,0.0,*64
###2023-12-09 12:25:56.926417$GPGSA,A,3,03,16,25,26,28,29,31,32,,,,,1.4,0.8,1.1*3A
###2023-12-09 12:25:56.928043$GLGSA,A,3,71,72,73,75,,,,,,,,,1.4,0.8,1.1*26
###2023-12-09 12:25:56.929517$GAGSA,A,3,21,27,,,,,,,,,,,1.4,0.8,1.1*28
###2023-12-09 12:25:56.931132$GBGSA,A,3,14,25,26,33,,,,,,,,,1.4,0.8,1.1*2B
###2023-12-09 12:25:56.933474$GPGSV,2,1,08,03,39,282,45,16,32,206,41,25,15,045,40,26,62,205,44*74
###2023-12-09 12:25:56.935821$GPGSV,2,2,08,28,61,050,43,29,24,078,42,31,73,346,40,32,34,132,46*7D
###2023-12-09 12:25:56.938158$GLGSV,1,1,04,71,62,167,47,72,61,316,43,73,52,030,48,75,18,237,43*67
###2023-12-09 12:25:56.939935$GAGSV,1,1,02,21,74,179,45,27,45,051,45,,,,,,,,*65
###2023-12-09 12:25:56.942289$GBGSV,1,1,04,14,59,200,44,25,29,249,39,26,38,055,48,33,64,264,39*66
###2023-12-09 12:25:56.943448$GNVTG,,T,,M,0.02,N,0.04,K,A*3B
###2023-12-09 12:25:56.945128$GNGST,172556.10,30.000,,,,0.230,0.220,0.490*5B
###2023-12-09 12:25:56.946471$GNZDA,172556.10,09,12,2023,00,00*72
###2023-12-09 12:25:56.947176$GNEBP,,,,,,M*13
###2023-12-09 12:25:57.119404$GNGGA,172556.30,4138.0383059,N,07032.4360284,W,1,18,0.8,9.740,M,-29.746,M,0.0,*64
###2023-12-09 12:25:57.318962$GNGGA,172556.50,4138.0383040,N,07032.4360277,W,1,18,0.8,9.730,M,-29.746,M,0.0,*61
###2023-12-09 12:25:57.518500$GNGGA,172556.70,4138.0383012,N,07032.4360256,W,1,18,0.8,9.726,M,-29.746,M,0.0,*60
###2023-12-09 12:25:57.717402$GNGGA,172556.90,4138.0383004,N,07032.4360245,W,1,18,0.8,9.715,M,-29.746,M,0.0,*6B
###2023-12-09 12:25:57.919013$GNRMC,172557.10,A,4138.0382973,N,07032.4360211,W,0.02,,091223,,,A*48
###2023-12-09 12:25:57.922053$GNGGA,172557.10,4138.0382973,N,07032.4360211,W,1,18,0.8,9.708,M,-29.746,M,0.0,*67
###2023-12-09 12:25:57.924117$GPGSA,A,3,03,16,25,26,28,29,31,32,,,,,1.4,0.8,1.1*3A
###2023-12-09 12:25:57.925891$GLGSA,A,3,71,72,73,75,,,,,,,,,1.4,0.8,1.1*26
###2023-12-09 12:25:57.927528$GAGSA,A,3,21,27,,,,,,,,,,,1.4,0.8,1.1*28
###2023-12-09 12:25:57.929273$GBGSA,A,3,14,25,26,33,,,,,,,,,1.4,0.8,1.1*2B
###2023-12-09 12:25:57.931770$GPGSV,2,1,08,03,39,282,45,16,32,206,41,25,15,045,40,26,62,205,44*74
###2023-12-09 12:25:57.934281$GPGSV,2,2,08,28,61,050,43,29,24,078,42,31,73,346,40,32,34,132,47*7C
