###2023-12-09 13:07:17.023425$GAGSA,A,3,04,19,21,27,,,,,,,,,1.1,0.6,0.9*26
###2023-12-09 13:07:17.025152$GBGSA,A,3,14,24,25,26,33,35,,,,,,,1.1,0.6,0.9*29
###2023-12-09 13:07:17.027501$GPGSV,2,1,08,03,34,258,42,04,35,311,41,16,53,214,46,26,82,210,49*7F
###2023-12-09 13:07:17.029813$GPGSV,2,2,08,28,48,072,46,29,25,059,43,31,68,042,47,32,17,141,44*7D
###2023-12-09 13:07:17.032155$GLGSV,2,1,06,65,26,326,37,71,37,173,46,72,72,258,45,73,33,043,47*6F
###2023-12-09 13:07:17.033892$GLGSV,2,2,06,74,68,345,41,75,34,256,44,,,,,,,,*6D
###2023-12-09 13:07:17.036230$GAGSV,1,1,04,04,31,312,40,19,83,203,41,21,85,092,46,27,31,048,43*62
###2023-12-09 13:07:17.038539$GBGSV,2,1,06,14,41,192,45,24,72,029,49,25,42,264,46,26,24,064,43*64
###2023-12-09 13:07:17.040304$GBGSV,2,2,06,33,56,229,48,35,15,067,43,,,,,,,,*6F
###2023-12-09 13:07:17.041621$GNVTG,285.13,T,,M,3.11,N,5.76,K,A*29
###2023-12-09 13:07:17.043270$GNGST,180716.10,18.000,,,,0.081,0.068,0.150*55
###2023-12-09 13:07:17.044556$GNZDA,180716.10,09,12,2023,00,00*79
###2023-12-09 13:07:17.045189$GNEBP,,,,,,M*13
###2023-12-09 13:07:17.166516$GNGGA,180716.30,4138.0730003,N,07032.3730314,W,1,25,0.6,13.160,M,-29.743,M,0.0,*58
###2023-12-09 13:07:17.366824$GNGGA,180716.50,4138.0730613,N,07032.3732350,W,1,25,0.6,13.162,M,-29.743,M,0.0,*59
###2023-12-09 13:07:17.567982$GNGGA,180716.70,4138.0731324,N,07032.3734259,W,1,25,0.6,13.167,M,-29.743,M,0.0,*50
###2023-12-09 13:07:17.768309$GNGGA,180716.90,4138.0732122,N,07032.3736091,W,1,25,0.6,13.174,M,-29.743,M,0.0,*5F
###2023-12-09 13:07:17.970039$GNRMC,180717.10,A,4138.0732996,N,07032.3737807,W,2.82,306.00,091223,,,A*5A
###2023-12-09 13:07:17.972924$GNGGA,180717.10,4138.0732996,N,07032.3737807,W,1,25,0.6,13.178,M,-29.743,M,0.0,*5B
###2023-12-09 13:07:17.974800$GPGSA,A,3,03,04,16,26,28,29,31,32,,,,,1.1,0.6,0.9*3B
###2023-12-09 13:07:17.976519$GLGSA,A,3,65,71,72,73,74,75,,,,,,,1.1,0.6,0.9*24
###2023-12-09 13:07:17.978104$GAGSA,A,3,04,19,21,27,,,,,,,,,1.1,0.6,0.9*26
###2023-12-09 13:07:17.979840$GBGSA,A,3,14,24,25,26,33,35,,,,,,,1.1,0.6,0.9*29
###2023-12-09 13:07:17.982176$GPGSV,2,1,08,03,34,258,44,04,35,311,42,16,53,214,46,26,82,210,48*7B
###2023-12-09 13:07:17.984517$GPGSV,2,2,08,28,48,072,46,29,25,059,43,31,68,042,47,32,17,141,45*7C
###2023-12-09 13:07:17.986857$GLGSV,2,1,06,65,26,326,39,71,37,173,46,72,72,258,45,73,33,043,45*63
###2023-12-09 13:07:17.988606$GLGSV,2,2,06,74,68,345,41,75,34,256,45,,,,,,,,*6C
###2023-12-09 13:07:17.990946$GAGSV,1,1,04,04,31,312,42,19,83,203,41,21,85,092,46,27,31,048,43*60
###2023-12-09 13:07:17.993279$GBGSV,2,1,06,14,41,192,43,24,72,029,47,25,42,264,46,26,24,064,43*6C
###2023-12-09 13:07:17.995033$GBGSV,2,2,06,33,56,229,47,35,15,067,41,,,,,,,,*62
###2023-12-09 13:07:17.996361$GNVTG,306.00,T,,M,2.82,N,5.22,K,A*2B
###2023-12-09 13:07:17.998010$GNGST,180717.10,18.000,,,,0.081,0.067,0.150*5B
###2023-12-09 13:07:17.999314$GNZDA,180717.10,09,12,2023,00,00*78
###2023-12-09 13:07:17.999956$GNEBP,,,,,,M*13
###2023-12-09 13:07:18.171071$GNGGA,180717.30,4138.0733970,N,07032.3739416,W,1,25,0.6,13.183,M,-29.743,M,0.0,*56
###2023-12-09 13:07:18.367581$GNGGA,180717.50,4138.0734976,N,07032.3740951,W,1,25,0.6,13.192,M,-29.743,M,0.0,*51
###2023-12-09 13:07:18.567247$GNGGA,180717.70,4138.0736067,N,07032.3742404,W,1,25,0.6,13.196,M,-29.743,M,0.0,*53
###2023-12-09 13:07:18.767597$GNGGA,180717.90,4138.0737262,N,07032.3743731,W,1,25,0.6,13.201,M,-29.743,M,0.0,*52
###2023-12-09 13:07:18.970174$GNRMC,180718.10,A,4138.0738486,N,07032.3744986,W,2.78,323.91,091223,,,A*55
###2023-12-09 13:07:18.973050$GNGGA,180718.10,4138.0738486,N,07032.3744986,W,1,25,0.6,13.203,M,-29.743,M,0.0,*51
###2023-12-09 13:07:18.974914$GPGSA,A,3,03,04,16,26,28,29,31,32,,,,,1.1,0.6,0.9*3B
###2023-12-09 13:07:18.976623$GLGSA,A,3,65,71,72,73,74,75,,,,,,,1.1,0.6,0.9*24
###2023-12-09 13:07:18.978193$GAGSA,A,3,04,19,21,27,,,,,,,,,1.1,0.6,0.9*26
###2023-12-09 13:07:18.979911$GBGSA,A,3,14,24,25,26,33,35,,,,,,,1.1,0.6,0.9*29
###2023-12-09 13:07:18.982233$GPGSV,2,1,08,03,34,258,44,04,35,311,42,16,53,214,47,26,82,210,48*7A
###2023-12-09 13:07:18.984574$GPGSV,2,2,08,28,48,072,46,29,25,059,44,31,68,042,47,32,17,141,45*7B
###2023-12-09 13:07:18.986909$GLGSV,2,1,06,65,26,326,41,71,37,173,45,72,72,258,45,73,33,043,45*6F
###2023-12-09 13:07:18.988653$GLGSV,2,2,06,74,68,345,41,75,34,256,45,,,,,,,,*6C
###2023-12-09 13:07:18.990987$GAGSV,1,1,04,04,31,312,39,19,83,203,41,21,85,092,46,27,31,048,42*6D
###2023-12-09 13:07:18.993317$GBGSV,2,1,06,14,41,192,44,24,72,029,48,25,42,264,45,26,24,064,43*67
###2023-12-09 13:07:18.995068$GBGSV,2,2,06,33,56,229,47,35,15,067,41,,,,,,,,*62
###2023-12-09 13:07:18.996385$GNVTG,323.91,T,,M,2.78,N,5.15,K,A*25
###2023-12-09 13:07:18.998020$GNGST,180718.10,18.000,,,,0.081,0.067,0.150*54
###2023-12-09 13:07:18.999319$GNZDA,180718.10,09,12,2023,00,00*77
###2023-12-09 13:07:18.999958$GNEBP,,,,,,M*13
###2023-12-09 13:07:19.167489$GNGGA,180718.30,4138.0739767,N,07032.3746149,W,1,25,0.6,13.207,M,-29.743,M,0.0,*53
###2023-12-09 13:07:19.367668$GNGGA,180718.50,4138.0741112,N,07032.3747153,W,1,25,0.6,13.210,M,-29.743,M,0.0,*52
###2023-12-09 13:07:19.570413$GNGGA,180718.70,4138.0742471,N,07032.3748006,W,1,25,0.6,13.214,M,-29.743,M,0.0,*59
###2023-12-09 13:07:19.768438$GNGGA,180718.90,4138.0743872,N,07032.3748730,W,1,25,0.6,13.219,M,-29.743,M,0.0,*56
###2023-12-09 13:07:19.970986$GNRMC,180719.10,A,4138.0745290,N,07032.3749367,W,2.68,342.12,091223,,,A*5A
###2023-12-09 13:07:19.973829$GNGGA,180719.10,4138.0745290,N,07032.3749367,W,1,25,0.6,13.215,M,-29.743,M,0.0,*54
###2023-12-09 13:07:19.975701$GPGSA,A,3,03,04,16,26,28,29,31,32,,,,,1.1,0.6,0.9*3B
###2023-12-09 13:07:19.977417$GLGSA,A,3,65,71,72,73,74,75,,,,,,,1.1,0.6,0.9*24
###2023-12-09 13:07:19.979009$GAGSA,A,3,04,19,21,27,,,,,,,,,1.1,0.6,0.9*26
###2023-12-09 13:07:19.980717$GBGSA,A,3,14,24,25,26,33,35,,,,,,,1.1,0.6,0.9*29
###2023-12-09 13:07:19.983056$GPGSV,2,1,08,03,34,258,44,04,35,311,44,16,53,214,46,26,82,210,48*7D
###2023-12-09 13:07:19.985386$GPGSV,2,2,08,28,48,072,44,29,25,059,43,31,68,042,46,32,17,141,43*79
###2023-12-09 13:07:19.987730$GLGSV,2,1,06,65,26,326,38,71,37,173,48,72,72,258,45,73,33,043,43*6A
###2023-12-09 13:07:19.989474$GLGSV,2,2,06,74,68,345,41,75,34,256,46,,,,,,,,*6F
###2023-12-09 13:07:19.991806$GAGSV,1,1,04,04,31,312,43,19,83,203,41,21,85,092,46,27,31,048,42*60
###2023-12-09 13:07:19.994128$GBGSV,2,1,06,14,41,192,43,24,72,029,48,25,42,264,47,26,24,064,42*63
###2023-12-09 13:07:19.995881$GBGSV,2,2,06,33,56,229,48,35,15,067,42,,,,,,,,*6E
###2023-12-09 13:07:19.997198$GNVTG,342.12,T,,M,2.68,N,4.97,K,A*23
###2023-12-09 13:07:19.998850$GNGST,180719.10,18.000,,,,0.081,0.066,0.150*54
###2023-12-09 13:07:20.000139$GNZDA,180719.10,09,12,2023,00,00*76
###2023-12-09 13:07:20.000778$GNEBP,,,,,,M*13
###2023-12-09 13:07:20.168548$GNGGA,180719.30,4138.0746732,N,07032.3749867,W,1,25,0.6,13.210,M,-29.743,M,0.0,*56
###2023-12-09 13:07:20.369086$GNGGA,180719.50,4138.0748195,N,07032.3750200,W,1,25,0.6,13.212,M,-29.743,M,0.0,*54
###2023-12-09 13:07:20.569444$GNGGA,180719.70,4138.0749712,N,07032.3750411,W,1,25,0.6,13.212,M,-29.743,M,0.0,*58
###2023-12-09 13:07:20.769546$GNGGA,180719.90,4138.0751238,N,07032.3750441,W,1,25,0.6,13.218,M,-29.743,M,0.0,*5D
###2023-12-09 13:07:20.978585$GNRMC,180720.10,A,4138.0752760,N,07032.3750264,W,2.72,5.80,091223,,,A*56
###2023-12-09 13:07:20.981452$GNGGA,180720.10,4138.0752760,N,07032.3750264,W,1,25,0.6,13.216,M,-29.743,M,0.0,*5B
###2023-12-09 13:07:20.983326$GPGSA,A,3,03,04,16,26,28,29,31,32,,,,,1.1,0.6,0.9*3B
###2023-12-09 13:07:20.985040$GLGSA,A,3,65,71,72,73,74,75,,,,,,,1.1,0.6,0.9*24
###2023-12-09 13:07:20.986634$GAGSA,A,3,04,19,21,27,,,,,,,,,1.1,0.6,0.9*26
###2023-12-09 13:07:20.988351$GBGSA,A,3,14,24,25,26,33,35,,,,,,,1.1,0.6,0.9*29
###2023-12-09 13:07:20.990688$GPGSV,2,1,08,03,34,258,42,04,35,311,43,16,53,214,45,26,82,210,46*71
###2023-12-09 13:07:20.993023$GPGSV,2,2,08,28,48,072,42,29,25,059,37,31,68,042,44,32,17,141,40*7D
###2023-12-09 13:07:20.995368$GLGSV,2,1,06,65,26,326,42,71,37,173,46,72,72,258,46,73,33,043,42*6B
###2023-12-09 13:07:20.997118$GLGSV,2,2,06,74,68,345,42,75,34,256,46,,,,,,,,*6C
###2023-12-09 13:07:20.999456$GAGSV,1,1,04,04,31,312,42,19,83,203,39,21,85,092,45,27,31,048,38*60
###2023-12-09 13:07:21.002023$GBGSV,2,1,06,14,41,192,44,24,72,029,46,25,42,264,46,26,24,064,40*69
###2023-12-09 13:07:21.003788$GBGSV,2,2,06,33,56,229,46,35,15,067,40,,,,,,,,*62
###2023-12-09 13:07:21.005055$GNVTG,5.80,T,,M,2.72,N,5.04,K,A*28
###2023-12-09 13:07:21.006721$GNGST,180720.10,18.000,,,,0.081,0.066,0.150*5E
###2023-12-09 13:07:21.008010$GNZDA,180720.10,09,12,2023,00,00*7C
###2023-12-09 13:07:21.008646$GNEBP,,,,,,M*13
###2023-12-09 13:07:21.170481$GNGGA,180720.30,4138.0754235,N,07032.3749935,W,1,25,0.6,13.223,M,-29.743,M,0.0,*5B
###2023-12-09 13:07:21.369042$GNGGA,180720.50,4138.0755620,N,07032.3749562,W,1,25,0.6,13.226,M,-29.743,M,0.0,*57
###2023-12-09 13:07:21.568172$GNGGA,180720.70,4138.0756945,N,07032.3749028,W,1,25,0.6,13.219,M,-29.743,M,0.0,*5D
