###2023-12-09 13:47:41.033323$GNEBP,,,,,,M*13
###2023-12-09 13:47:41.205691$GNGGA,184740.30,4138.0392772,N,07032.4384534,W,1,17,0.8,15.709,M,-29.746,M,0.0,*5F
###2023-12-09 13:47:41.404341$GNGGA,184740.50,4138.0392745,N,07032.4384512,W,1,17,0.8,15.717,M,-29.746,M,0.0,*56
###2023-12-09 13:47:41.603879$GNGGA,184740.70,4138.0392719,N,07032.4384497,W,1,17,0.8,15.722,M,-29.746,M,0.0,*57
###2023-12-09 13:47:41.804046$GNGGA,184740.90,4138.0392674,N,07032.4384479,W,1,17,0.8,15.728,M,-29.746,M,0.0,*59
###2023-12-09 13:47:42.007654$GNRMC,184741.10,A,4138.0392640,N,07032.4384467,W,0.06,243.17,091223,,,A*5E
###2023-12-09 13:47:42.010508$GNGGA,184741.10,4138.0392640,N,07032.4384467,W,1,17,0.8,15.731,M,-29.746,M,0.0,*50
###2023-12-09 13:47:42.012243$GPGSA,A,3,04,16,26,28,29,31,,,,,,,1.3,0.8,1.1*3C
###2023-12-09 13:47:42.013885$GLGSA,A,3,65,72,73,74,75,,,,,,,,1.3,0.8,1.1*27
###2023-12-09 13:47:42.015413$GAGSA,A,3,04,21,27,,,,,,,,,,1.3,0.8,1.1*2B
###2023-12-09 13:47:42.016923$GBGSA,A,3,12,24,25,,,,,,,,,,1.3,0.8,1.1*28
###2023-12-09 13:47:42.019251$GPGSV,2,1,06,04,51,304,49,16,73,229,40,26,77,041,42,28,33,090,43*7B
###2023-12-09 13:47:42.020996$GPGSV,2,2,06,29,17,042,42,31,55,075,50,,,,,,,,*77
###2023-12-09 13:47:42.023328$GLGSV,2,1,05,65,43,312,43,72,56,213,35,73,17,056,40,74,55,024,36*65
###2023-12-09 13:47:42.024778$GLGSV,2,2,05,75,47,280,47,,,,,,,,,,,,*58
###2023-12-09 13:47:42.026810$GAGSV,1,1,03,04,43,308,45,21,72,043,40,27,19,051,41,,,,*5B
###2023-12-09 13:47:42.028836$GBGSV,1,1,03,12,19,122,42,24,58,052,46,25,54,282,44,,,,*54
###2023-12-09 13:47:42.030157$GNVTG,243.17,T,,M,0.06,N,0.11,K,A*26
###2023-12-09 13:47:42.031791$GNGST,184741.10,7.300,,,,0.210,0.120,0.320*6C
###2023-12-09 13:47:42.033082$GNZDA,184741.10,09,12,2023,00,00*7F
###2023-12-09 13:47:42.033718$GNEBP,,,,,,M*13
###2023-12-09 13:47:42.209632$GNGGA,184741.30,4138.0392604,N,07032.4384441,W,1,17,0.8,15.735,M,-29.746,M,0.0,*52
###2023-12-09 13:47:42.410051$GNGGA,184741.50,4138.0392564,N,07032.4384422,W,1,17,0.8,15.738,M,-29.746,M,0.0,*59
###2023-12-09 13:47:42.603341$GNGGA,184741.70,4138.0392524,N,07032.4384404,W,1,18,0.8,15.738,M,-29.746,M,0.0,*54
###2023-12-09 13:47:42.804748$GNGGA,184741.90,4138.0392485,N,07032.4384386,W,1,18,0.8,15.739,M,-29.746,M,0.0,*5C
###2023-12-09 13:47:43.007140$GNRMC,184742.10,A,4138.0392450,N,07032.4384359,W,0.06,243.17,091223,,,A*54
###2023-12-09 13:47:43.009989$GNGGA,184742.10,4138.0392450,N,07032.4384359,W,1,18,0.8,15.744,M,-29.746,M,0.0,*57
###2023-12-09 13:47:43.011714$GPGSA,A,3,04,16,26,28,29,31,,,,,,,1.3,0.8,1.1*3C
###2023-12-09 13:47:43.013354$GLGSA,A,3,65,72,73,74,75,,,,,,,,1.3,0.8,1.1*27
###2023-12-09 13:47:43.014876$GAGSA,A,3,04,21,27,,,,,,,,,,1.3,0.8,1.1*2B
###2023-12-09 13:47:43.016463$GBGSA,A,3,12,24,25,35,,,,,,,,,1.3,0.8,1.1*2E
###2023-12-09 13:47:43.018804$GPGSV,2,1,06,04,51,304,49,16,73,229,40,26,77,041,43,28,33,090,43*7A
###2023-12-09 13:47:43.020552$GPGSV,2,2,06,29,17,042,43,31,55,075,50,,,,,,,,*76
###2023-12-09 13:47:43.022885$GLGSV,2,1,05,65,43,312,43,72,56,213,35,73,17,056,39,74,55,024,35*68
###2023-12-09 13:47:43.024339$GLGSV,2,2,05,75,47,280,47,,,,,,,,,,,,*58
###2023-12-09 13:47:43.026359$GAGSV,1,1,03,04,43,308,45,21,72,043,40,27,19,051,41,,,,*5B
###2023-12-09 13:47:43.028696$GBGSV,1,1,04,12,19,122,42,24,58,052,46,25,54,282,45,35,16,051,35*61
###2023-12-09 13:47:43.030032$GNVTG,243.17,T,,M,0.06,N,0.11,K,A*26
###2023-12-09 13:47:43.031659$GNGST,184742.10,7.800,,,,0.210,0.120,0.320*64
###2023-12-09 13:47:43.032947$GNZDA,184742.10,09,12,2023,00,00*7C
###2023-12-09 13:47:43.033586$GNEBP,,,,,,M*13
###2023-12-09 13:47:43.204563$GNGGA,184742.30,4138.0392406,N,07032.4384349,W,1,17,0.8,15.748,M,-29.746,M,0.0,*54
###2023-12-09 13:47:43.405512$GNGGA,184742.50,4138.0392378,N,07032.4384329,W,1,18,0.8,15.748,M,-29.746,M,0.0,*55
###2023-12-09 13:47:43.604690$GNGGA,184742.70,4138.0392358,N,07032.4384310,W,1,18,0.8,15.752,M,-29.746,M,0.0,*54
###2023-12-09 13:47:43.805040$GNGGA,184742.90,4138.0392336,N,07032.4384293,W,1,17,0.8,15.757,M,-29.746,M,0.0,*52
###2023-12-09 13:47:44.009119$GNRMC,184743.10,A,4138.0392313,N,07032.4384271,W,0.04,243.17,091223,,,A*5C
###2023-12-09 13:47:44.011994$GNGGA,184743.10,4138.0392313,N,07032.4384271,W,1,17,0.8,15.758,M,-29.746,M,0.0,*5F
###2023-12-09 13:47:44.013716$GPGSA,A,3,04,16,26,28,29,31,,,,,,,1.3,0.8,1.1*3C
###2023-12-09 13:47:44.015371$GLGSA,A,3,65,72,73,74,75,,,,,,,,1.3,0.8,1.1*27
###2023-12-09 13:47:44.016891$GAGSA,A,3,04,21,27,,,,,,,,,,1.3,0.8,1.1*2B
###2023-12-09 13:47:44.018397$GBGSA,A,3,12,24,25,,,,,,,,,,1.3,0.8,1.1*28
###2023-12-09 13:47:44.020809$GPGSV,2,1,06,04,51,304,49,16,73,229,40,26,77,041,43,28,33,090,44*7D
###2023-12-09 13:47:44.022575$GPGSV,2,2,06,29,17,042,42,31,55,075,50,,,,,,,,*77
###2023-12-09 13:47:44.024900$GLGSV,2,1,05,65,43,312,43,72,56,213,36,73,17,056,39,74,55,024,36*68
###2023-12-09 13:47:44.026348$GLGSV,2,2,05,75,47,280,47,,,,,,,,,,,,*58
###2023-12-09 13:47:44.028395$GAGSV,1,1,03,04,43,308,46,21,72,043,40,27,19,051,41,,,,*58
###2023-12-09 13:47:44.030437$GBGSV,1,1,03,12,19,122,42,24,58,052,46,25,54,282,45,,,,*55
###2023-12-09 13:47:44.031778$GNVTG,243.17,T,,M,0.04,N,0.07,K,A*23
###2023-12-09 13:47:44.033389$GNGST,184743.10,7.200,,,,0.210,0.120,0.320*6F
###2023-12-09 13:47:44.034688$GNZDA,184743.10,09,12,2023,00,00*7D
###2023-12-09 13:47:44.035325$GNEBP,,,,,,M*13
###2023-12-09 13:47:44.206772$GNGGA,184743.30,4138.0392282,N,07032.4384257,W,1,17,0.8,15.761,M,-29.746,M,0.0,*5A
###2023-12-09 13:47:44.405311$GNGGA,184743.50,4138.0392249,N,07032.4384239,W,1,18,0.8,15.760,M,-29.746,M,0.0,*5D
###2023-12-09 13:47:44.604645$GNGGA,184743.70,4138.0392209,N,07032.4384230,W,1,18,0.8,15.762,M,-29.746,M,0.0,*50
###2023-12-09 13:47:44.806029$GNGGA,184743.90,4138.0392183,N,07032.4384218,W,1,18,0.8,15.763,M,-29.746,M,0.0,*54
###2023-12-09 13:47:45.010095$GNRMC,184744.10,A,4138.0392152,N,07032.4384193,W,0.02,243.17,091223,,,A*55
###2023-12-09 13:47:45.012971$GNGGA,184744.10,4138.0392152,N,07032.4384193,W,1,18,0.8,15.769,M,-29.746,M,0.0,*5D
###2023-12-09 13:47:45.014713$GPGSA,A,3,04,16,26,28,29,31,,,,,,,1.3,0.8,1.1*3C
###2023-12-09 13:47:45.016361$GLGSA,A,3,65,72,73,74,75,,,,,,,,1.3,0.8,1.1*27
###2023-12-09 13:47:45.017876$GAGSA,A,3,04,21,27,,,,,,,,,,1.3,0.8,1.1*2B
###2023-12-09 13:47:45.019466$GBGSA,A,3,12,24,25,35,,,,,,,,,1.3,0.8,1.1*2E
###2023-12-09 13:47:45.021794$GPGSV,2,1,06,04,51,304,50,16,73,229,40,26,77,041,43,28,33,090,44*75
###2023-12-09 13:47:45.023553$GPGSV,2,2,06,29,17,042,42,31,55,075,50,,,,,,,,*77
###2023-12-09 13:47:45.025876$GLGSV,2,1,05,65,43,312,43,72,56,213,35,73,17,056,40,74,55,024,35*66
###2023-12-09 13:47:45.027342$GLGSV,2,2,05,75,47,280,47,,,,,,,,,,,,*58
###2023-12-09 13:47:45.029380$GAGSV,1,1,03,04,43,308,45,21,72,043,40,27,19,051,41,,,,*5B
###2023-12-09 13:47:45.031725$GBGSV,1,1,04,12,19,122,42,24,58,052,46,25,54,282,45,35,16,051,35*61
###2023-12-09 13:47:45.033055$GNVTG,243.17,T,,M,0.02,N,0.04,K,A*26
###2023-12-09 13:47:45.034680$GNGST,184744.10,7.900,,,,0.210,0.120,0.320*63
###2023-12-09 13:47:45.035978$GNZDA,184744.10,09,12,2023,00,00*7A
###2023-12-09 13:47:45.036620$GNEBP,,,,,,M*13
###2023-12-09 13:47:45.213592$GNGGA,184744.30,4138.0392129,N,07032.4384178,W,1,18,0.8,15.769,M,-29.746,M,0.0,*56
###2023-12-09 13:47:45.407467$GNGGA,184744.50,4138.0392099,N,07032.4384153,W,1,18,0.8,15.775,M,-29.746,M,0.0,*5E
###2023-12-09 13:47:45.606075$GNGGA,184744.70,4138.0392078,N,07032.4384135,W,1,18,0.8,15.779,M,-29.746,M,0.0,*5F
###2023-12-09 13:47:45.807064$GNGGA,184744.90,4138.0392047,N,07032.4384119,W,1,18,0.8,15.778,M,-29.746,M,0.0,*52
###2023-12-09 13:47:46.011255$GNRMC,184745.10,A,4138.0392010,N,07032.4384099,W,0.04,243.17,091223,,,A*5E
###2023-12-09 13:47:46.014134$GNGGA,184745.10,4138.0392010,N,07032.4384099,W,1,18,0.8,15.782,M,-29.746,M,0.0,*55
###2023-12-09 13:47:46.015885$GPGSA,A,3,04,16,26,28,29,31,,,,,,,1.3,0.8,1.1*3C
###2023-12-09 13:47:46.017547$GLGSA,A,3,65,72,73,74,75,,,,,,,,1.3,0.8,1.1*27
###2023-12-09 13:47:46.019082$GAGSA,A,3,04,21,27,,,,,,,,,,1.3,0.8,1.1*2B
###2023-12-09 13:47:46.020671$GBGSA,A,3,12,24,25,35,,,,,,,,,1.3,0.8,1.1*2E
###2023-12-09 13:47:46.023021$GPGSV,2,1,06,04,51,304,50,16,73,229,40,26,77,041,43,28,33,090,44*75
###2023-12-09 13:47:46.025022$GPGSV,2,2,06,29,17,042,42,31,55,075,50,,,,,,,,*77
###2023-12-09 13:47:46.027378$GLGSV,2,1,05,65,43,312,43,72,56,213,35,73,17,056,40,74,55,024,35*66
###2023-12-09 13:47:46.028846$GLGSV,2,2,05,75,47,280,47,,,,,,,,,,,,*58
###2023-12-09 13:47:46.030931$GAGSV,1,1,03,04,43,308,45,21,72,043,40,27,19,051,41,,,,*5B
###2023-12-09 13:47:46.033270$GBGSV,1,1,04,12,19,122,41,24,58,052,46,25,54,282,45,35,16,051,35*62
###2023-12-09 13:47:46.034616$GNVTG,243.17,T,,M,0.04,N,0.07,K,A*23
###2023-12-09 13:47:46.036233$GNGST,184745.10,7.900,,,,0.210,0.120,0.320*62
###2023-12-09 13:47:46.037524$GNZDA,184745.10,09,12,2023,00,00*7B
