###2023-12-09 12:38:42.545820$GNGGA,173841.70,4138.0539835,N,07032.3677339,W,1,23,0.7,13.678,M,-29.744,M,0.0,*58
###2023-12-09 12:38:42.741357$GNGGA,173841.90,4138.0539822,N,07032.3677145,W,1,23,0.7,13.681,M,-29.744,M,0.0,*5F
###2023-12-09 12:38:42.938599$GNRMC,173842.10,A,4138.0539703,N,07032.3677145,W,0.33,124.15,091223,,,A*56
###2023-12-09 12:38:42.941456$GNGGA,173842.10,4138.0539703,N,07032.3677145,W,1,23,0.7,13.695,M,-29.744,M,0.0,*5D
###2023-12-09 12:38:42.943326$GPGSA,A,3,03,04,16,26,28,29,31,32,,,,,1.2,0.7,1.0*31
###2023-12-09 12:38:42.944973$GLGSA,A,3,71,72,73,74,75,,,,,,,,1.2,0.7,1.0*2D
###2023-12-09 12:38:42.946560$GAGSA,A,3,04,19,21,27,,,,,,,,,1.2,0.7,1.0*2C
###2023-12-09 12:38:42.948272$GBGSA,A,3,14,24,25,26,33,,,,,,,,1.2,0.7,1.0*25
###2023-12-09 12:38:42.950650$GPGSV,2,1,08,03,38,275,45,04,23,311,40,16,38,208,44,26,68,207,48*7C
###2023-12-09 12:38:42.952996$GPGSV,2,2,08,28,57,058,46,29,25,072,45,31,73,007,48,32,28,135,41*7A
###2023-12-09 12:38:42.955344$GLGSV,2,1,05,71,55,169,47,72,67,307,47,73,46,034,47,74,71,296,43*66
###2023-12-09 12:38:42.956808$GLGSV,2,2,05,75,23,242,45,,,,,,,,,,,,*56
###2023-12-09 12:38:42.959146$GAGSV,1,1,04,04,22,311,39,19,82,296,41,21,79,174,46,27,40,049,45*6B
###2023-12-09 12:38:42.961475$GBGSV,2,1,05,14,54,197,44,24,80,351,48,25,33,253,45,26,34,058,46*6D
###2023-12-09 12:38:42.963019$GBGSV,2,2,05,33,63,252,49,,,,,,,,,,,,*53
###2023-12-09 12:38:42.964358$GNVTG,124.15,T,,M,0.33,N,0.61,K,A*27
###2023-12-09 12:38:42.966010$GNGST,173842.10,19.000,,,,0.080,0.068,0.160*54
###2023-12-09 12:38:42.967327$GNZDA,173842.10,09,12,2023,00,00*7B
###2023-12-09 12:38:42.967971$GNEBP,,,,,,M*13
###2023-12-09 12:38:43.137703$GNGGA,173842.30,4138.0539567,N,07032.3677224,W,1,23,0.7,13.698,M,-29.744,M,0.0,*56
###2023-12-09 12:38:43.339733$GNGGA,173842.50,4138.0539559,N,07032.3677129,W,1,23,0.7,13.685,M,-29.744,M,0.0,*5F
###2023-12-09 12:38:43.538957$GNGGA,173842.70,4138.0539553,N,07032.3677017,W,1,23,0.7,13.679,M,-29.744,M,0.0,*58
###2023-12-09 12:38:43.736198$GNGGA,173842.90,4138.0539442,N,07032.3677039,W,1,23,0.7,13.699,M,-29.744,M,0.0,*55
###2023-12-09 12:38:43.936540$GNRMC,173843.10,A,4138.0539357,N,07032.3677154,W,0.25,124.15,091223,,,A*55
###2023-12-09 12:38:43.939404$GNGGA,173843.10,4138.0539357,N,07032.3677154,W,1,23,0.7,13.707,M,-29.744,M,0.0,*53
###2023-12-09 12:38:43.941258$GPGSA,A,3,03,04,16,26,28,29,31,32,,,,,1.2,0.7,1.0*31
###2023-12-09 12:38:43.942914$GLGSA,A,3,71,72,73,74,75,,,,,,,,1.2,0.7,1.0*2D
###2023-12-09 12:38:43.944494$GAGSA,A,3,04,19,21,27,,,,,,,,,1.2,0.7,1.0*2C
###2023-12-09 12:38:43.946139$GBGSA,A,3,14,24,25,26,33,,,,,,,,1.2,0.7,1.0*25
###2023-12-09 12:38:43.948510$GPGSV,2,1,08,03,38,275,46,04,23,311,39,16,38,208,43,26,68,207,47*79
###2023-12-09 12:38:43.950887$GPGSV,2,2,08,28,57,058,46,29,25,072,44,31,73,007,47,32,28,135,43*76
###2023-12-09 12:38:43.953220$GLGSV,2,1,05,71,55,169,47,72,67,307,47,73,46,034,47,74,71,296,43*66
###2023-12-09 12:38:43.954688$GLGSV,2,2,05,75,23,242,44,,,,,,,,,,,,*57
###2023-12-09 12:38:43.957012$GAGSV,1,1,04,04,22,311,37,19,82,296,41,21,79,174,46,27,40,049,43*63
###2023-12-09 12:38:43.959356$GBGSV,2,1,05,14,54,197,45,24,80,351,49,25,33,253,44,26,34,058,44*6E
###2023-12-09 12:38:43.960811$GBGSV,2,2,05,33,63,252,50,,,,,,,,,,,,*5B
###2023-12-09 12:38:43.962132$GNVTG,124.15,T,,M,0.25,N,0.47,K,A*24
###2023-12-09 12:38:43.963795$GNGST,173843.10,19.000,,,,0.080,0.068,0.160*55
###2023-12-09 12:38:43.965089$GNZDA,173843.10,09,12,2023,00,00*7A
###2023-12-09 12:38:43.965727$GNEBP,,,,,,M*13
###2023-12-09 12:38:44.136322$GNGGA,173843.30,4138.0539289,N,07032.3677191,W,1,23,0.7,13.698,M,-29.744,M,0.0,*5D
###2023-12-09 12:38:44.336584$GNGGA,173843.50,4138.0539272,N,07032.3677062,W,1,23,0.7,13.679,M,-29.744,M,0.0,*5D
###2023-12-09 12:38:44.537717$GNGGA,173843.70,4138.0539224,N,07032.3677071,W,1,23,0.7,13.680,M,-29.744,M,0.0,*58
###2023-12-09 12:38:44.739511$GNGGA,173843.90,4138.0539111,N,07032.3677311,W,1,23,0.7,13.703,M,-29.744,M,0.0,*5C
###2023-12-09 12:38:44.945828$GNRMC,173844.10,A,4138.0539066,N,07032.3677426,W,0.06,124.15,091223,,,A*52
###2023-12-09 12:38:44.949324$GNGGA,173844.10,4138.0539066,N,07032.3677426,W,1,23,0.7,13.714,M,-29.744,M,0.0,*57
###2023-12-09 12:38:44.951612$GPGSA,A,3,03,04,16,26,28,29,31,32,,,,,1.2,0.7,1.0*31
###2023-12-09 12:38:44.953607$GLGSA,A,3,71,72,73,74,75,,,,,,,,1.2,0.7,1.0*2D
###2023-12-09 12:38:44.955530$GAGSA,A,3,04,19,21,27,,,,,,,,,1.2,0.7,1.0*2C
###2023-12-09 12:38:44.957508$GBGSA,A,3,14,24,25,26,33,,,,,,,,1.2,0.7,1.0*25
###2023-12-09 12:38:44.960330$GPGSV,2,1,08,03,38,275,46,04,23,311,40,16,38,208,43,26,68,207,48*78
###2023-12-09 12:38:44.963156$GPGSV,2,2,08,28,57,058,45,29,25,072,42,31,73,007,48,32,28,135,44*7B
###2023-12-09 12:38:44.965951$GLGSV,2,1,05,71,55,169,47,72,67,307,46,73,46,034,47,74,71,296,43*67
###2023-12-09 12:38:44.967733$GLGSV,2,2,05,75,23,242,44,,,,,,,,,,,,*57
###2023-12-09 12:38:44.970529$GAGSV,1,1,04,04,22,311,39,19,82,296,41,21,79,174,46,27,40,049,44*6A
###2023-12-09 12:38:44.973395$GBGSV,2,1,05,14,54,197,45,24,80,351,48,25,33,253,44,26,34,058,44*6F
###2023-12-09 12:38:44.975170$GBGSV,2,2,05,33,63,252,48,,,,,,,,,,,,*52
###2023-12-09 12:38:44.976760$GNVTG,124.15,T,,M,0.06,N,0.11,K,A*26
###2023-12-09 12:38:44.978757$GNGST,173844.10,19.000,,,,0.080,0.068,0.160*52
###2023-12-09 12:38:44.980315$GNZDA,173844.10,09,12,2023,00,00*7D
###2023-12-09 12:38:44.981081$GNEBP,,,,,,M*13
###2023-12-09 12:38:45.138110$GNGGA,173844.30,4138.0539025,N,07032.3677345,W,1,23,0.7,13.702,M,-29.744,M,0.0,*57
###2023-12-09 12:38:45.338517$GNGGA,173844.50,4138.0538937,N,07032.3677350,W,1,23,0.7,13.687,M,-29.744,M,0.0,*52
###2023-12-09 12:38:45.541587$GNGGA,173844.70,4138.0538876,N,07032.3677532,W,1,23,0.7,13.694,M,-29.744,M,0.0,*54
###2023-12-09 12:38:45.742868$GNGGA,173844.90,4138.0538869,N,07032.3677820,W,1,23,0.7,13.712,M,-29.744,M,0.0,*55
###2023-12-09 12:38:45.942274$GNRMC,173845.10,A,4138.0538817,N,07032.3678036,W,0.25,124.15,091223,,,A*57
###2023-12-09 12:38:45.945748$GNGGA,173845.10,4138.0538817,N,07032.3678036,W,1,23,0.7,13.731,M,-29.744,M,0.0,*54
###2023-12-09 12:38:45.948014$GPGSA,A,3,03,04,16,26,28,29,31,32,,,,,1.2,0.7,1.0*31
###2023-12-09 12:38:45.950016$GLGSA,A,3,71,72,73,74,75,,,,,,,,1.2,0.7,1.0*2D
###2023-12-09 12:38:45.951941$GAGSA,A,3,04,19,21,27,,,,,,,,,1.2,0.7,1.0*2C
###2023-12-09 12:38:45.953916$GBGSA,A,3,14,24,25,26,33,,,,,,,,1.2,0.7,1.0*25
###2023-12-09 12:38:45.956724$GPGSV,2,1,08,03,38,275,43,04,23,311,40,16,38,208,42,26,68,207,46*72
###2023-12-09 12:38:45.959542$GPGSV,2,2,08,28,57,058,44,29,25,072,41,31,73,007,46,32,28,135,41*72
###2023-12-09 12:38:45.962343$GLGSV,2,1,05,71,55,169,46,72,67,307,46,73,46,034,47,74,71,296,43*66
###2023-12-09 12:38:45.964130$GLGSV,2,2,05,75,23,242,43,,,,,,,,,,,,*50
###2023-12-09 12:38:45.966933$GAGSV,1,1,04,04,22,311,41,19,82,296,40,21,79,174,45,27,40,049,42*61
###2023-12-09 12:38:45.969728$GBGSV,2,1,05,14,54,197,44,24,80,351,48,25,33,253,44,26,34,058,42*68
###2023-12-09 12:38:45.971480$GBGSV,2,2,05,33,63,252,48,,,,,,,,,,,,*52
###2023-12-09 12:38:45.973070$GNVTG,124.15,T,,M,0.25,N,0.47,K,A*24
###2023-12-09 12:38:45.975066$GNGST,173845.10,18.000,,,,0.080,0.068,0.160*52
###2023-12-09 12:38:45.976616$GNZDA,173845.10,09,12,2023,00,00*7C
###2023-12-09 12:38:45.977383$GNEBP,,,,,,M*13
###2023-12-09 12:38:46.137889$GNGGA,173845.30,4138.0538721,N,07032.3678084,W,1,23,0.7,13.722,M,-29.744,M,0.0,*57
###2023-12-09 12:38:46.338391$GNGGA,173845.50,4138.0538707,N,07032.3678120,W,1,23,0.7,13.692,M,-29.744,M,0.0,*50
###2023-12-09 12:38:46.542166$GNGGA,173845.70,4138.0538701,N,07032.3678354,W,1,23,0.7,13.681,M,-29.744,M,0.0,*57
###2023-12-09 12:38:46.737159$GNGGA,173845.90,4138.0538742,N,07032.3678836,W,1,23,0.7,13.729,M,-29.744,M,0.0,*52
###2023-12-09 12:38:46.939384$GNRMC,173846.10,A,4138.0538790,N,07032.3679377,W,0.47,124.15,091223,,,A*57
###2023-12-09 12:38:46.942222$GNGGA,173846.10,4138.0538790,N,07032.3679377,W,1,23,0.7,13.770,M,-29.744,M,0.0,*55
###2023-12-09 12:38:46.944072$GPGSA,A,3,03,04,16,26,28,29,31,32,,,,,1.2,0.7,1.0*31
###2023-12-09 12:38:46.945707$GLGSA,A,3,71,72,73,74,75,,,,,,,,1.2,0.7,1.0*2D
###2023-12-09 12:38:46.947304$GAGSA,A,3,04,19,21,27,,,,,,,,,1.2,0.7,1.0*2C
###2023-12-09 12:38:46.949204$GBGSA,A,3,14,24,25,26,33,,,,,,,,1.2,0.7,1.0*25
###2023-12-09 12:38:46.951563$GPGSV,2,1,08,03,38,275,45,04,23,311,41,16,38,208,41,26,68,207,46*76
###2023-12-09 12:38:46.953912$GPGSV,2,2,08,28,57,058,44,29,25,072,40,31,73,007,47,32,28,135,42*71
###2023-12-09 12:38:46.956298$GLGSV,2,1,05,71,55,169,46,72,67,307,47,73,46,034,45,74,71,296,43*65
###2023-12-09 12:38:46.957753$GLGSV,2,2,05,75,23,242,43,,,,,,,,,,,,*50
###2023-12-09 12:38:46.960075$GAGSV,1,1,04,04,22,311,41,19,82,296,40,21,79,174,44,27,40,049,41*63
###2023-12-09 12:38:46.962397$GBGSV,2,1,05,14,54,197,46,24,80,351,48,25,33,253,45,26,34,058,44*6D
###2023-12-09 12:38:46.963862$GBGSV,2,2,05,33,63,252,48,,,,,,,,,,,,*52
###2023-12-09 12:38:46.965177$GNVTG,124.15,T,,M,0.47,N,0.86,K,A*2D
