###2023-12-09 12:31:58.954727$GBGSV,1,1,04,14,56,198,45,24,81,339,49,26,36,057,45,33,63,257,47*67
###2023-12-09 12:31:58.956083$GNVTG,320.35,T,,M,0.19,N,0.36,K,A*29
###2023-12-09 12:31:58.957742$GNGST,173158.10,20.000,,,,0.082,0.074,0.170*52
###2023-12-09 12:31:58.959058$GNZDA,173158.10,09,12,2023,00,00*79
###2023-12-09 12:31:58.959710$GNEBP,,,,,,M*13
###2023-12-09 12:31:59.129193$GNGGA,173158.30,4138.0424839,N,07032.4261662,W,1,20,0.7,13.276,M,-29.745,M,0.0,*5B
###2023-12-09 12:31:59.328448$GNGGA,173158.50,4138.0424933,N,07032.4261653,W,1,20,0.7,13.274,M,-29.745,M,0.0,*56
###2023-12-09 12:31:59.529331$GNGGA,173158.70,4138.0425145,N,07032.4261743,W,1,20,0.7,13.266,M,-29.745,M,0.0,*5F
###2023-12-09 12:31:59.728516$GNGGA,173158.90,4138.0425313,N,07032.4261790,W,1,20,0.7,13.258,M,-29.745,M,0.0,*53
###2023-12-09 12:31:59.929228$GNRMC,173159.10,A,4138.0425386,N,07032.4261746,W,0.10,320.35,091223,,,A*54
###2023-12-09 12:31:59.932374$GNGGA,173159.10,4138.0425386,N,07032.4261746,W,1,20,0.7,13.255,M,-29.745,M,0.0,*50
###2023-12-09 12:31:59.934478$GPGSA,A,3,03,04,16,26,28,29,31,32,,,,,1.3,0.7,1.1*31
###2023-12-09 12:31:59.936317$GLGSA,A,3,71,72,73,74,,,,,,,,,1.3,0.7,1.1*2F
###2023-12-09 12:31:59.938099$GAGSA,A,3,04,19,21,27,,,,,,,,,1.3,0.7,1.1*2C
###2023-12-09 12:31:59.939822$GBGSA,A,3,14,24,26,33,,,,,,,,,1.3,0.7,1.1*22
###2023-12-09 12:31:59.942259$GPGSV,2,1,08,03,39,279,44,04,20,310,42,16,35,207,42,26,65,206,48*78
###2023-12-09 12:31:59.944708$GPGSV,2,2,08,28,59,054,45,29,25,075,40,31,73,356,48,32,31,133,45*74
###2023-12-09 12:31:59.947185$GLGSV,1,1,04,71,59,168,48,72,64,313,47,73,50,032,47,74,70,284,44*64
###2023-12-09 12:31:59.949690$GAGSV,1,1,04,04,20,311,42,19,80,306,41,21,76,177,46,27,42,050,42*6E
###2023-12-09 12:31:59.952162$GBGSV,1,1,04,14,56,198,45,24,81,339,49,26,36,057,46,33,63,257,49*6A
###2023-12-09 12:31:59.953617$GNVTG,320.35,T,,M,0.10,N,0.18,K,A*2C
###2023-12-09 12:31:59.955392$GNGST,173159.10,20.000,,,,0.082,0.074,0.170*53
###2023-12-09 12:31:59.956786$GNZDA,173159.10,09,12,2023,00,00*78
###2023-12-09 12:31:59.957530$GNEBP,,,,,,M*13
###2023-12-09 12:32:00.130225$GNGGA,173159.30,4138.0425473,N,07032.4261718,W,1,20,0.7,13.255,M,-29.745,M,0.0,*54
###2023-12-09 12:32:00.328336$GNGGA,173159.50,4138.0425640,N,07032.4261779,W,1,22,0.7,13.257,M,-29.745,M,0.0,*57
###2023-12-09 12:32:00.528297$GNGGA,173159.70,4138.0425814,N,07032.4261856,W,1,22,0.7,13.256,M,-29.745,M,0.0,*59
###2023-12-09 12:32:00.731055$GNGGA,173159.90,4138.0425919,N,07032.4261874,W,1,22,0.7,13.249,M,-29.745,M,0.0,*55
###2023-12-09 12:32:00.932072$GNRMC,173200.10,A,4138.0425975,N,07032.4261833,W,0.10,320.35,091223,,,A*50
###2023-12-09 12:32:00.935196$GNGGA,173200.10,4138.0425975,N,07032.4261833,W,1,22,0.7,13.244,M,-29.745,M,0.0,*56
###2023-12-09 12:32:00.937264$GPGSA,A,3,03,04,16,26,28,29,31,32,,,,,1.2,0.7,1.0*31
###2023-12-09 12:32:00.939135$GLGSA,A,3,71,72,73,74,75,,,,,,,,1.2,0.7,1.0*2D
###2023-12-09 12:32:00.940912$GAGSA,A,3,04,19,21,27,,,,,,,,,1.2,0.7,1.0*2C
###2023-12-09 12:32:00.942766$GBGSA,A,3,14,24,25,26,33,,,,,,,,1.2,0.7,1.0*25
###2023-12-09 12:32:00.945283$GPGSV,2,1,08,03,39,279,45,04,20,310,41,16,35,207,43,26,65,206,48*7B
###2023-12-09 12:32:00.947786$GPGSV,2,2,08,28,59,054,46,29,25,075,41,31,73,356,47,32,31,133,45*79
###2023-12-09 12:32:00.950280$GLGSV,2,1,05,71,59,168,48,72,64,313,46,73,50,032,47,74,70,284,44*67
###2023-12-09 12:32:00.951861$GLGSV,2,2,05,75,20,239,38,,,,,,,,,,,,*53
###2023-12-09 12:32:00.954298$GAGSV,1,1,04,04,20,311,43,19,80,306,41,21,76,177,46,27,42,050,42*6F
###2023-12-09 12:32:00.956746$GBGSV,2,1,05,14,56,198,45,24,81,339,50,25,32,252,36,26,36,057,46*6E
###2023-12-09 12:32:00.958356$GBGSV,2,2,05,33,63,257,48,,,,,,,,,,,,*57
###2023-12-09 12:32:00.959811$GNVTG,320.35,T,,M,0.10,N,0.18,K,A*2C
###2023-12-09 12:32:00.961558$GNGST,173200.10,19.000,,,,0.082,0.074,0.170*56
###2023-12-09 12:32:00.962966$GNZDA,173200.10,09,12,2023,00,00*77
###2023-12-09 12:32:00.963713$GNEBP,,,,,,M*13
###2023-12-09 12:32:01.129454$GNGGA,173200.30,4138.0426090,N,07032.4261856,W,1,22,0.7,13.237,M,-29.745,M,0.0,*52
###2023-12-09 12:32:01.330773$GNGGA,173200.50,4138.0426287,N,07032.4261953,W,1,22,0.7,13.233,M,-29.745,M,0.0,*50
###2023-12-09 12:32:01.529356$GNGGA,173200.70,4138.0426420,N,07032.4261988,W,1,22,0.7,13.229,M,-29.745,M,0.0,*54
###2023-12-09 12:32:01.728583$GNGGA,173200.90,4138.0426453,N,07032.4261952,W,1,22,0.7,13.218,M,-29.745,M,0.0,*5B
###2023-12-09 12:32:01.929996$GNRMC,173201.10,A,4138.0426543,N,07032.4261935,W,0.29,320.35,091223,,,A*56
###2023-12-09 12:32:01.933128$GNGGA,173201.10,4138.0426543,N,07032.4261935,W,1,22,0.7,13.214,M,-29.745,M,0.0,*5F
###2023-12-09 12:32:01.935215$GPGSA,A,3,03,04,16,26,28,29,31,32,,,,,1.2,0.7,1.0*31
###2023-12-09 12:32:01.937069$GLGSA,A,3,71,72,73,74,75,,,,,,,,1.2,0.7,1.0*2D
###2023-12-09 12:32:01.938891$GAGSA,A,3,04,19,21,27,,,,,,,,,1.2,0.7,1.0*2C
###2023-12-09 12:32:01.940760$GBGSA,A,3,14,24,25,26,33,,,,,,,,1.2,0.7,1.0*25
###2023-12-09 12:32:01.943489$GPGSV,2,1,08,03,39,279,44,04,20,310,42,16,35,207,44,26,65,206,49*7F
###2023-12-09 12:32:01.946030$GPGSV,2,2,08,28,59,054,44,29,25,075,41,31,73,356,47,32,31,133,44*7A
###2023-12-09 12:32:01.948592$GLGSV,2,1,05,71,59,168,48,72,64,313,46,73,50,032,46,74,70,284,43*61
###2023-12-09 12:32:01.950318$GLGSV,2,2,05,75,20,239,35,,,,,,,,,,,,*5E
###2023-12-09 12:32:01.952862$GAGSV,1,1,04,04,20,311,41,19,80,306,41,21,76,177,46,27,42,050,42*6D
###2023-12-09 12:32:01.955338$GBGSV,2,1,05,14,56,198,45,24,81,339,49,25,32,252,39,26,36,057,46*69
###2023-12-09 12:32:01.956904$GBGSV,2,2,05,33,63,257,48,,,,,,,,,,,,*57
###2023-12-09 12:32:01.958329$GNVTG,320.35,T,,M,0.29,N,0.54,K,A*2E
###2023-12-09 12:32:01.960319$GNGST,173201.10,19.000,,,,0.082,0.075,0.170*56
###2023-12-09 12:32:01.961740$GNZDA,173201.10,09,12,2023,00,00*76
###2023-12-09 12:32:01.962420$GNEBP,,,,,,M*13
###2023-12-09 12:32:02.128401$GNGGA,173201.30,4138.0426725,N,07032.4262015,W,1,22,0.7,13.210,M,-29.745,M,0.0,*53
###2023-12-09 12:32:02.328377$GNGGA,173201.50,4138.0426872,N,07032.4262093,W,1,22,0.7,13.203,M,-29.745,M,0.0,*54
###2023-12-09 12:32:02.529357$GNGGA,173201.70,4138.0426932,N,07032.4262083,W,1,22,0.7,13.196,M,-29.745,M,0.0,*5D
###2023-12-09 12:32:02.732660$GNGGA,173201.90,4138.0426969,N,07032.4262048,W,1,22,0.7,13.188,M,-29.745,M,0.0,*55
###2023-12-09 12:32:02.930453$GNRMC,173202.10,A,4138.0427086,N,07032.4262078,W,0.29,320.35,091223,,,A*5B
###2023-12-09 12:32:02.933441$GNGGA,173202.10,4138.0427086,N,07032.4262078,W,1,22,0.7,13.182,M,-29.745,M,0.0,*5E
###2023-12-09 12:32:02.935381$GPGSA,A,3,03,04,16,26,28,29,31,32,,,,,1.2,0.7,1.0*31
###2023-12-09 12:32:02.937067$GLGSA,A,3,71,72,73,74,75,,,,,,,,1.2,0.7,1.0*2D
###2023-12-09 12:32:02.938695$GAGSA,A,3,04,19,21,27,,,,,,,,,1.2,0.7,1.0*2C
###2023-12-09 12:32:02.940362$GBGSA,A,3,14,24,25,26,33,,,,,,,,1.2,0.7,1.0*25
###2023-12-09 12:32:02.942720$GPGSV,2,1,08,03,39,279,44,04,20,310,41,16,35,207,42,26,65,206,48*7B
###2023-12-09 12:32:02.945076$GPGSV,2,2,08,28,59,054,44,29,25,075,40,31,73,356,47,32,31,133,44*7B
###2023-12-09 12:32:02.947479$GLGSV,2,1,05,71,59,168,48,72,64,313,46,73,50,032,46,74,70,284,43*61
###2023-12-09 12:32:02.948980$GLGSV,2,2,05,75,20,239,35,,,,,,,,,,,,*5E
###2023-12-09 12:32:02.951362$GAGSV,1,1,04,04,20,311,42,19,80,306,41,21,76,177,46,27,42,050,42*6E
###2023-12-09 12:32:02.953730$GBGSV,2,1,05,14,56,198,46,24,81,339,49,25,32,252,39,26,36,057,46*6A
###2023-12-09 12:32:02.955230$GBGSV,2,2,05,33,63,257,48,,,,,,,,,,,,*57
###2023-12-09 12:32:02.956577$GNVTG,320.35,T,,M,0.29,N,0.54,K,A*2E
###2023-12-09 12:32:02.958237$GNGST,173202.10,20.000,,,,0.083,0.075,0.170*5E
###2023-12-09 12:32:02.959552$GNZDA,173202.10,09,12,2023,00,00*75
###2023-12-09 12:32:02.960207$GNEBP,,,,,,M*13
###2023-12-09 12:32:03.131103$GNGGA,173202.30,4138.0427245,N,07032.4262154,W,1,22,0.7,13.175,M,-29.745,M,0.0,*56
###2023-12-09 12:32:03.330371$GNGGA,173202.50,4138.0427360,N,07032.4262196,W,1,22,0.7,13.172,M,-29.745,M,0.0,*5F
###2023-12-09 12:32:03.529362$GNGGA,173202.70,4138.0427428,N,07032.4262187,W,1,22,0.7,13.173,M,-29.745,M,0.0,*57
###2023-12-09 12:32:03.729480$GNGGA,173202.90,4138.0427498,N,07032.4262191,W,1,22,0.7,13.170,M,-29.745,M,0.0,*56
###2023-12-09 12:32:03.929822$GNRMC,173203.10,A,4138.0427578,N,07032.4262224,W,0.16,320.35,091223,,,A*59
###2023-12-09 12:32:03.932920$GNGGA,173203.10,4138.0427578,N,07032.4262224,W,1,22,0.7,13.153,M,-29.745,M,0.0,*5C
###2023-12-09 12:32:03.934836$GPGSA,A,3,03,04,16,26,28,29,31,32,,,,,1.2,0.7,1.0*31
###2023-12-09 12:32:03.936504$GLGSA,A,3,71,72,73,74,75,,,,,,,,1.2,0.7,1.0*2D
###2023-12-09 12:32:03.938104$GAGSA,A,3,04,19,21,27,,,,,,,,,1.2,0.7,1.0*2C
###2023-12-09 12:32:03.939783$GBGSA,A,3,14,24,25,26,33,,,,,,,,1.2,0.7,1.0*25
###2023-12-09 12:32:03.942124$GPGSV,2,1,08,03,39,279,43,04,20,310,41,16,35,207,41,26,65,206,48*7F
###2023-12-09 12:32:03.944473$GPGSV,2,2,08,28,59,054,45,29,25,075,42,31,73,356,47,32,31,133,45*79
###2023-12-09 12:32:03.946861$GLGSV,2,1,05,71,59,168,48,72,64,313,46,73,50,032,47,74,70,284,43*60
