###2023-12-09 13:27:36.005506$GBGSA,A,3,14,24,25,26,33,35,,,,,,,1.1,0.6,0.9*29
###2023-12-09 13:27:36.007879$GPGSV,2,1,07,03,28,249,41,04,43,309,45,16,63,220,46,26,87,041,48*74
###2023-12-09 13:27:36.009930$GPGSV,2,2,07,28,40,082,43,29,22,049,43,31,61,061,47,,,,*4D
###2023-12-09 13:27:36.012277$GLGSV,2,1,06,65,35,321,45,71,26,175,44,72,66,227,45,73,25,050,44*60
###2023-12-09 13:27:36.014048$GLGSV,2,2,06,74,62,008,43,75,41,267,45,,,,,,,,*6E
###2023-12-09 13:27:36.016395$GAGSV,1,1,04,04,37,311,43,19,75,184,40,21,80,050,46,27,25,049,42*6E
###2023-12-09 13:27:36.018743$GBGSV,2,1,06,14,32,190,42,24,65,042,49,25,49,273,45,26,18,069,44*65
###2023-12-09 13:27:36.020490$GBGSV,2,2,06,33,48,220,45,35,16,059,45,,,,,,,,*6C
###2023-12-09 13:27:36.021815$GNVTG,226.70,T,,M,3.77,N,6.98,K,A*26
###2023-12-09 13:27:36.023506$GNGST,182735.10,18.000,,,,0.100,0.071,0.160*55
###2023-12-09 13:27:36.024802$GNZDA,182735.10,09,12,2023,00,00*7A
###2023-12-09 13:27:36.025440$GNEBP,,,,,,M*13
###2023-12-09 13:27:36.193810$GNGGA,182735.30,4138.0477628,N,07032.4179373,W,1,24,0.6,12.981,M,-29.745,M,0.0,*58
###2023-12-09 13:27:36.390466$GNGGA,182735.50,4138.0476192,N,07032.4181451,W,1,24,0.6,12.961,M,-29.745,M,0.0,*57
###2023-12-09 13:27:36.589380$GNGGA,182735.70,4138.0474716,N,07032.4183431,W,1,24,0.6,12.938,M,-29.745,M,0.0,*55
###2023-12-09 13:27:36.789705$GNGGA,182735.90,4138.0473397,N,07032.4185530,W,1,24,0.6,12.925,M,-29.745,M,0.0,*5B
###2023-12-09 13:27:36.993524$GNRMC,182736.10,A,4138.0472236,N,07032.4187700,W,3.48,236.01,091223,,,A*5B
###2023-12-09 13:27:36.996409$GNGGA,182736.10,4138.0472236,N,07032.4187700,W,1,24,0.6,12.930,M,-29.745,M,0.0,*5C
###2023-12-09 13:27:36.998207$GPGSA,A,3,03,04,16,26,28,29,31,,,,,,1.1,0.6,0.9*3A
###2023-12-09 13:27:36.999932$GLGSA,A,3,65,71,72,73,74,75,,,,,,,1.1,0.6,0.9*24
###2023-12-09 13:27:37.001515$GAGSA,A,3,04,19,21,27,,,,,,,,,1.1,0.6,0.9*26
###2023-12-09 13:27:37.003239$GBGSA,A,3,14,24,25,26,33,35,,,,,,,1.1,0.6,0.9*29
###2023-12-09 13:27:37.005561$GPGSV,2,1,07,03,28,249,40,04,43,309,44,16,63,220,45,26,87,041,48*77
###2023-12-09 13:27:37.007612$GPGSV,2,2,07,28,40,082,45,29,22,049,43,31,61,061,47,,,,*4B
###2023-12-09 13:27:37.009936$GLGSV,2,1,06,65,35,321,41,71,26,175,45,72,66,227,45,73,25,050,43*62
###2023-12-09 13:27:37.011696$GLGSV,2,2,06,74,62,008,43,75,41,267,45,,,,,,,,*6E
###2023-12-09 13:27:37.014022$GAGSV,1,1,04,04,37,311,42,19,75,184,40,21,80,050,46,27,25,049,40*6D
###2023-12-09 13:27:37.016358$GBGSV,2,1,06,14,32,190,44,24,65,042,49,25,49,273,46,26,18,069,45*61
###2023-12-09 13:27:37.018114$GBGSV,2,2,06,33,48,220,46,35,16,059,45,,,,,,,,*6F
###2023-12-09 13:27:37.019454$GNVTG,236.01,T,,M,3.48,N,6.44,K,A*2C
###2023-12-09 13:27:37.021102$GNGST,182736.10,18.000,,,,0.100,0.071,0.160*56
###2023-12-09 13:27:37.022397$GNZDA,182736.10,09,12,2023,00,00*79
###2023-12-09 13:27:37.023050$GNEBP,,,,,,M*13
###2023-12-09 13:27:37.192858$GNGGA,182736.30,4138.0471127,N,07032.4189828,W,1,24,0.6,12.926,M,-29.745,M,0.0,*52
###2023-12-09 13:27:37.388543$GNGGA,182736.50,4138.0469997,N,07032.4191904,W,1,24,0.6,12.928,M,-29.745,M,0.0,*56
###2023-12-09 13:27:37.587195$GNGGA,182736.70,4138.0468932,N,07032.4194066,W,1,24,0.6,12.931,M,-29.745,M,0.0,*5A
###2023-12-09 13:27:37.788469$GNGGA,182736.90,4138.0467940,N,07032.4196336,W,1,24,0.6,12.934,M,-29.745,M,0.0,*5F
###2023-12-09 13:27:37.992011$GNRMC,182737.10,A,4138.0466899,N,07032.4198548,W,3.48,234.85,091223,,,A*5E
###2023-12-09 13:27:37.994877$GNGGA,182737.10,4138.0466899,N,07032.4198548,W,1,24,0.6,12.931,M,-29.745,M,0.0,*56
###2023-12-09 13:27:37.996667$GPGSA,A,3,03,04,16,26,28,29,31,,,,,,1.1,0.6,0.9*3A
###2023-12-09 13:27:37.998379$GLGSA,A,3,65,71,72,73,74,75,,,,,,,1.1,0.6,0.9*24
###2023-12-09 13:27:37.999970$GAGSA,A,3,04,19,21,27,,,,,,,,,1.1,0.6,0.9*26
###2023-12-09 13:27:38.001681$GBGSA,A,3,14,24,25,26,33,35,,,,,,,1.1,0.6,0.9*29
###2023-12-09 13:27:38.004011$GPGSV,2,1,07,03,28,249,40,04,43,309,45,16,63,220,45,26,87,041,48*76
###2023-12-09 13:27:38.006048$GPGSV,2,2,07,28,40,082,44,29,22,049,44,31,61,061,47,,,,*4D
###2023-12-09 13:27:38.008388$GLGSV,2,1,06,65,35,321,43,71,26,175,42,72,66,227,45,73,25,050,43*67
###2023-12-09 13:27:38.010125$GLGSV,2,2,06,74,62,008,43,75,41,267,46,,,,,,,,*6D
###2023-12-09 13:27:38.012447$GAGSV,1,1,04,04,37,311,43,19,75,184,40,21,80,050,46,27,25,049,41*6D
###2023-12-09 13:27:38.014772$GBGSV,2,1,06,14,32,190,42,24,65,042,47,25,49,273,44,26,18,069,44*6A
###2023-12-09 13:27:38.016512$GBGSV,2,2,06,33,48,220,44,35,16,059,44,,,,,,,,*6C
###2023-12-09 13:27:38.017826$GNVTG,234.85,T,,M,3.48,N,6.44,K,A*22
###2023-12-09 13:27:38.019477$GNGST,182737.10,18.000,,,,0.100,0.071,0.160*57
###2023-12-09 13:27:38.020768$GNZDA,182737.10,09,12,2023,00,00*78
###2023-12-09 13:27:38.021413$GNEBP,,,,,,M*13
###2023-12-09 13:27:38.189537$GNGGA,182737.30,4138.0465683,N,07032.4200606,W,1,24,0.6,12.918,M,-29.745,M,0.0,*52
###2023-12-09 13:27:38.390726$GNGGA,182737.50,4138.0464428,N,07032.4202626,W,1,23,0.7,12.901,M,-29.745,M,0.0,*58
###2023-12-09 13:27:38.589306$GNGGA,182737.70,4138.0463233,N,07032.4204725,W,1,24,0.6,12.904,M,-29.745,M,0.0,*56
###2023-12-09 13:27:38.788384$GNGGA,182737.90,4138.0462056,N,07032.4206965,W,1,24,0.6,12.915,M,-29.745,M,0.0,*50
###2023-12-09 13:27:38.992854$GNRMC,182738.10,A,4138.0460739,N,07032.4209096,W,3.69,225.47,091223,,,A*52
###2023-12-09 13:27:38.995744$GNGGA,182738.10,4138.0460739,N,07032.4209096,W,1,24,0.6,12.920,M,-29.745,M,0.0,*57
###2023-12-09 13:27:38.997540$GPGSA,A,3,03,04,16,26,28,29,31,,,,,,1.1,0.6,0.9*3A
###2023-12-09 13:27:38.999266$GLGSA,A,3,65,71,72,73,74,75,,,,,,,1.1,0.6,0.9*24
###2023-12-09 13:27:39.000857$GAGSA,A,3,04,19,21,27,,,,,,,,,1.1,0.6,0.9*26
###2023-12-09 13:27:39.002577$GBGSA,A,3,14,24,25,26,33,35,,,,,,,1.1,0.6,0.9*29
###2023-12-09 13:27:39.004904$GPGSV,2,1,07,03,28,249,38,04,43,309,46,16,63,220,45,26,87,041,48*7A
###2023-12-09 13:27:39.006953$GPGSV,2,2,07,28,40,082,43,29,22,049,43,31,61,061,47,,,,*4D
###2023-12-09 13:27:39.009275$GLGSV,2,1,06,65,35,321,44,71,26,175,45,72,66,227,46,73,25,050,44*63
###2023-12-09 13:27:39.011031$GLGSV,2,2,06,74,62,008,43,75,41,267,47,,,,,,,,*6C
###2023-12-09 13:27:39.013345$GAGSV,1,1,04,04,37,311,45,19,75,184,40,21,80,050,46,27,25,049,42*68
###2023-12-09 13:27:39.015679$GBGSV,2,1,06,14,32,190,41,24,65,042,47,25,49,273,46,26,18,069,43*6C
###2023-12-09 13:27:39.017428$GBGSV,2,2,06,33,48,220,45,35,16,059,43,,,,,,,,*6A
###2023-12-09 13:27:39.018758$GNVTG,225.47,T,,M,3.69,N,6.84,K,A*23
###2023-12-09 13:27:39.020403$GNGST,182738.10,18.000,,,,0.100,0.071,0.160*58
###2023-12-09 13:27:39.021691$GNZDA,182738.10,09,12,2023,00,00*77
###2023-12-09 13:27:39.022334$GNEBP,,,,,,M*13
###2023-12-09 13:27:39.193637$GNGGA,182738.30,4138.0459240,N,07032.4210945,W,1,24,0.6,12.919,M,-29.745,M,0.0,*51
###2023-12-09 13:27:39.388403$GNGGA,182738.50,4138.0457697,N,07032.4212775,W,1,24,0.6,12.915,M,-29.745,M,0.0,*54
###2023-12-09 13:27:39.589161$GNGGA,182738.70,4138.0456283,N,07032.4214849,W,1,24,0.6,12.915,M,-29.745,M,0.0,*50
###2023-12-09 13:27:39.789820$GNGGA,182738.90,4138.0454843,N,07032.4216882,W,1,24,0.6,12.913,M,-29.745,M,0.0,*59
###2023-12-09 13:27:39.991625$GNRMC,182739.10,A,4138.0453321,N,07032.4218711,W,3.67,221.24,091223,,,A*59
###2023-12-09 13:27:39.994490$GNGGA,182739.10,4138.0453321,N,07032.4218711,W,1,24,0.6,12.907,M,-29.745,M,0.0,*56
###2023-12-09 13:27:39.996297$GPGSA,A,3,03,04,16,26,28,29,31,,,,,,1.1,0.6,0.9*3A
###2023-12-09 13:27:39.998011$GLGSA,A,3,65,71,72,73,74,75,,,,,,,1.1,0.6,0.9*24
###2023-12-09 13:27:39.999615$GAGSA,A,3,04,19,21,27,,,,,,,,,1.1,0.6,0.9*26
###2023-12-09 13:27:40.001335$GBGSA,A,3,14,24,25,26,33,35,,,,,,,1.1,0.6,0.9*29
###2023-12-09 13:27:40.003681$GPGSV,2,1,07,03,28,249,40,04,43,309,44,16,63,220,45,26,87,041,48*77
###2023-12-09 13:27:40.005724$GPGSV,2,2,07,28,40,082,44,29,22,049,43,31,61,061,47,,,,*4A
###2023-12-09 13:27:40.008078$GLGSV,2,1,06,65,35,321,44,71,26,175,43,72,66,227,45,73,25,050,43*61
###2023-12-09 13:27:40.009831$GLGSV,2,2,06,74,62,008,43,75,41,267,46,,,,,,,,*6D
###2023-12-09 13:27:40.012169$GAGSV,1,1,04,04,37,311,43,19,75,184,40,21,80,050,46,27,25,049,40*6C
###2023-12-09 13:27:40.014501$GBGSV,2,1,06,14,32,190,41,24,65,042,49,25,49,273,47,26,18,069,44*64
###2023-12-09 13:27:40.016512$GBGSV,2,2,06,33,48,220,45,35,16,059,45,,,,,,,,*6C
###2023-12-09 13:27:40.017852$GNVTG,221.24,T,,M,3.67,N,6.80,K,A*28
###2023-12-09 13:27:40.019509$GNGST,182739.10,18.000,,,,0.100,0.071,0.160*59
###2023-12-09 13:27:40.020802$GNZDA,182739.10,09,12,2023,00,00*76
###2023-12-09 13:27:40.021439$GNEBP,,,,,,M*13
###2023-12-09 13:27:40.187212$GNGGA,182739.30,4138.0451793,N,07032.4220476,W,1,24,0.6,12.903,M,-29.745,M,0.0,*56
###2023-12-09 13:27:40.391919$GNGGA,182739.50,4138.0450437,N,07032.4222429,W,1,24,0.6,12.901,M,-29.745,M,0.0,*56
###2023-12-09 13:27:40.585560$GNGGA,182739.70,4138.0449199,N,07032.4224480,W,1,23,0.7,12.909,M,-29.745,M,0.0,*56
###2023-12-09 13:27:40.786161$GNGGA,182739.90,4138.0448022,N,07032.4226525,W,1,23,0.7,12.909,M,-29.745,M,0.0,*54
