###2023-12-09 13:11:52.993383$GLGSV,2,1,06,65,28,326,41,71,35,174,45,72,72,250,45,73,31,045,44*69
###2023-12-09 13:11:52.995170$GLGSV,2,2,06,74,67,351,43,75,36,258,43,,,,,,,,*6E
###2023-12-09 13:11:52.997491$GAGSV,1,1,04,04,33,312,40,19,81,195,40,21,84,075,46,27,30,048,41*64
###2023-12-09 13:11:52.999833$GBGSV,2,1,06,14,39,192,43,24,70,033,49,25,44,266,42,26,23,065,43*62
###2023-12-09 13:11:53.001573$GBGSV,2,2,06,33,54,227,46,35,15,065,44,,,,,,,,*68
###2023-12-09 13:11:53.002913$GNVTG,267.21,T,,M,3.69,N,6.84,K,A*25
###2023-12-09 13:11:53.004552$GNGST,181152.10,18.000,,,,0.096,0.073,0.170*5C
###2023-12-09 13:11:53.005835$GNZDA,181152.10,09,12,2023,00,00*7E
###2023-12-09 13:11:53.006468$GNEBP,,,,,,M*13
###2023-12-09 13:11:53.172863$GNGGA,181152.30,4138.0385400,N,07032.2955413,W,1,24,0.7,12.726,M,-29.744,M,0.0,*5C
###2023-12-09 13:11:53.372006$GNGGA,181152.50,4138.0385220,N,07032.2958139,W,1,24,0.7,12.733,M,-29.744,M,0.0,*5A
###2023-12-09 13:11:53.572818$GNGGA,181152.70,4138.0385169,N,07032.2960966,W,1,24,0.7,12.727,M,-29.744,M,0.0,*5A
###2023-12-09 13:11:53.773345$GNGGA,181152.90,4138.0385296,N,07032.2963785,W,1,24,0.7,12.728,M,-29.744,M,0.0,*58
###2023-12-09 13:11:53.975608$GNRMC,181153.10,A,4138.0385427,N,07032.2966565,W,3.75,272.58,091223,,,A*56
###2023-12-09 13:11:53.978463$GNGGA,181153.10,4138.0385427,N,07032.2966565,W,1,24,0.7,12.740,M,-29.744,M,0.0,*5A
###2023-12-09 13:11:53.980267$GPGSA,A,3,03,04,16,26,28,29,31,,,,,,1.2,0.7,1.0*30
###2023-12-09 13:11:53.981981$GLGSA,A,3,65,71,72,73,74,75,,,,,,,1.2,0.7,1.0*2E
###2023-12-09 13:11:53.983572$GAGSA,A,3,04,19,21,27,,,,,,,,,1.2,0.7,1.0*2C
###2023-12-09 13:11:53.985281$GBGSA,A,3,14,24,25,26,33,35,,,,,,,1.2,0.7,1.0*23
###2023-12-09 13:11:53.987610$GPGSV,2,1,07,03,33,256,40,04,37,311,42,16,55,215,46,26,85,210,48*7B
###2023-12-09 13:11:53.989643$GPGSV,2,2,07,28,46,075,45,29,24,056,42,31,66,048,48,,,,*4F
###2023-12-09 13:11:53.991983$GLGSV,2,1,06,65,28,326,41,71,35,174,45,72,72,250,45,73,31,045,44*69
###2023-12-09 13:11:53.993731$GLGSV,2,2,06,74,67,351,42,75,36,258,42,,,,,,,,*6E
###2023-12-09 13:11:53.996067$GAGSV,1,1,04,04,33,312,40,19,81,195,40,21,84,075,46,27,30,048,41*64
###2023-12-09 13:11:53.998389$GBGSV,2,1,06,14,39,192,44,24,70,033,49,25,44,266,43,26,23,065,43*64
###2023-12-09 13:11:54.000145$GBGSV,2,2,06,33,54,227,47,35,15,065,44,,,,,,,,*69
###2023-12-09 13:11:54.001465$GNVTG,272.58,T,,M,3.75,N,6.95,K,A*22
###2023-12-09 13:11:54.003130$GNGST,181153.10,18.000,,,,0.097,0.073,0.170*5C
###2023-12-09 13:11:54.004421$GNZDA,181153.10,09,12,2023,00,00*7F
###2023-12-09 13:11:54.005058$GNEBP,,,,,,M*13
###2023-12-09 13:11:54.172939$GNGGA,181153.30,4138.0385502,N,07032.2969341,W,1,24,0.7,12.737,M,-29.744,M,0.0,*51
###2023-12-09 13:11:54.372472$GNGGA,181153.50,4138.0385661,N,07032.2972085,W,1,24,0.7,12.732,M,-29.744,M,0.0,*55
###2023-12-09 13:11:54.572887$GNGGA,181153.70,4138.0386042,N,07032.2974772,W,1,24,0.7,12.743,M,-29.744,M,0.0,*5C
###2023-12-09 13:11:54.774096$GNGGA,181153.90,4138.0386566,N,07032.2977386,W,1,24,0.7,12.758,M,-29.744,M,0.0,*57
###2023-12-09 13:11:54.976943$GNRMC,181154.10,A,4138.0387060,N,07032.2979981,W,3.50,283.39,091223,,,A*52
###2023-12-09 13:11:54.979815$GNGGA,181154.10,4138.0387060,N,07032.2979981,W,1,24,0.7,12.752,M,-29.744,M,0.0,*53
###2023-12-09 13:11:54.981615$GPGSA,A,3,03,04,16,26,28,29,31,,,,,,1.2,0.7,1.0*30
###2023-12-09 13:11:54.983352$GLGSA,A,3,65,71,72,73,74,75,,,,,,,1.2,0.7,1.0*2E
###2023-12-09 13:11:54.984944$GAGSA,A,3,04,19,21,27,,,,,,,,,1.2,0.7,1.0*2C
###2023-12-09 13:11:54.986675$GBGSA,A,3,14,24,25,26,33,35,,,,,,,1.2,0.7,1.0*23
###2023-12-09 13:11:54.989015$GPGSV,2,1,07,03,33,256,40,04,37,311,42,16,55,215,46,26,85,210,48*7B
###2023-12-09 13:11:54.991067$GPGSV,2,2,07,28,46,075,45,29,24,056,41,31,66,048,48,,,,*4C
###2023-12-09 13:11:54.993398$GLGSV,2,1,06,65,28,326,39,71,35,174,46,72,72,250,45,73,31,045,45*64
###2023-12-09 13:11:54.995164$GLGSV,2,2,06,74,67,351,42,75,36,258,44,,,,,,,,*68
###2023-12-09 13:11:54.997501$GAGSV,1,1,04,04,33,312,40,19,81,194,40,21,84,075,46,27,30,048,41*65
###2023-12-09 13:11:54.999849$GBGSV,2,1,06,14,39,192,44,24,70,033,49,25,44,266,45,26,23,065,43*62
###2023-12-09 13:11:55.001607$GBGSV,2,2,06,33,54,227,47,35,15,065,42,,,,,,,,*6F
###2023-12-09 13:11:55.002947$GNVTG,283.39,T,,M,3.50,N,6.48,K,A*2C
###2023-12-09 13:11:55.004601$GNGST,181154.10,18.000,,,,0.097,0.073,0.170*5B
###2023-12-09 13:11:55.005896$GNZDA,181154.10,09,12,2023,00,00*78
###2023-12-09 13:11:55.006537$GNEBP,,,,,,M*13
###2023-12-09 13:11:55.171759$GNGGA,181154.30,4138.0387598,N,07032.2982509,W,1,24,0.7,12.753,M,-29.744,M,0.0,*5A
###2023-12-09 13:11:55.372997$GNGGA,181154.50,4138.0388181,N,07032.2984993,W,1,24,0.7,12.749,M,-29.744,M,0.0,*5D
###2023-12-09 13:11:55.573878$GNGGA,181154.70,4138.0388863,N,07032.2987364,W,1,24,0.7,12.744,M,-29.744,M,0.0,*56
###2023-12-09 13:11:55.772676$GNGGA,181154.90,4138.0389614,N,07032.2989665,W,1,24,0.7,12.755,M,-29.744,M,0.0,*5D
###2023-12-09 13:11:55.975539$GNRMC,181155.10,A,4138.0390368,N,07032.2991965,W,3.38,293.21,091223,,,A*54
###2023-12-09 13:11:55.978403$GNGGA,181155.10,4138.0390368,N,07032.2991965,W,1,24,0.7,12.761,M,-29.744,M,0.0,*53
###2023-12-09 13:11:55.980205$GPGSA,A,3,03,04,16,26,28,29,31,,,,,,1.2,0.7,1.0*30
###2023-12-09 13:11:55.981922$GLGSA,A,3,65,71,72,73,74,75,,,,,,,1.2,0.7,1.0*2E
###2023-12-09 13:11:55.983524$GAGSA,A,3,04,19,21,27,,,,,,,,,1.2,0.7,1.0*2C
###2023-12-09 13:11:55.985242$GBGSA,A,3,14,24,25,26,33,35,,,,,,,1.2,0.7,1.0*23
###2023-12-09 13:11:55.987601$GPGSV,2,1,07,03,33,256,42,04,37,311,42,16,55,215,46,26,85,210,48*79
###2023-12-09 13:11:55.989650$GPGSV,2,2,07,28,46,075,45,29,24,056,41,31,66,048,48,,,,*4C
###2023-12-09 13:11:55.991992$GLGSV,2,1,06,65,28,326,39,71,35,174,45,72,72,250,46,73,31,045,45*64
###2023-12-09 13:11:55.993748$GLGSV,2,2,06,74,67,351,42,75,36,258,45,,,,,,,,*69
###2023-12-09 13:11:55.996089$GAGSV,1,1,04,04,33,312,40,19,81,194,40,21,84,075,46,27,30,048,42*66
###2023-12-09 13:11:55.998428$GBGSV,2,1,06,14,39,192,44,24,70,033,49,25,44,266,45,26,23,065,41*60
###2023-12-09 13:11:56.000189$GBGSV,2,2,06,33,54,227,47,35,15,065,42,,,,,,,,*6F
###2023-12-09 13:11:56.001508$GNVTG,293.21,T,,M,3.38,N,6.26,K,A*22
###2023-12-09 13:11:56.003160$GNGST,181155.10,18.000,,,,0.096,0.073,0.170*5B
###2023-12-09 13:11:56.004453$GNZDA,181155.10,09,12,2023,00,00*79
###2023-12-09 13:11:56.005091$GNEBP,,,,,,M*13
###2023-12-09 13:11:56.171752$GNGGA,181155.30,4138.0391072,N,07032.2994342,W,1,24,0.7,12.758,M,-29.744,M,0.0,*58
###2023-12-09 13:11:56.372312$GNGGA,181155.50,4138.0391815,N,07032.2996745,W,1,24,0.7,12.769,M,-29.744,M,0.0,*54
###2023-12-09 13:11:56.573826$GNGGA,181155.70,4138.0392667,N,07032.2999220,W,1,24,0.7,12.779,M,-29.744,M,0.0,*56
###2023-12-09 13:11:56.773726$GNGGA,181155.90,4138.0393418,N,07032.3001762,W,1,24,0.7,12.780,M,-29.744,M,0.0,*5F
###2023-12-09 13:11:56.983206$GNRMC,181156.10,A,4138.0393907,N,07032.3004323,W,3.54,281.09,091223,,,A*58
###2023-12-09 13:11:56.986071$GNGGA,181156.10,4138.0393907,N,07032.3004323,W,1,24,0.7,12.784,M,-29.744,M,0.0,*57
###2023-12-09 13:11:56.987881$GPGSA,A,3,03,04,16,26,28,29,31,,,,,,1.2,0.7,1.0*30
###2023-12-09 13:11:56.989594$GLGSA,A,3,65,71,72,73,74,75,,,,,,,1.2,0.7,1.0*2E
###2023-12-09 13:11:56.991194$GAGSA,A,3,04,19,21,27,,,,,,,,,1.2,0.7,1.0*2C
###2023-12-09 13:11:56.992909$GBGSA,A,3,14,24,25,26,33,35,,,,,,,1.2,0.7,1.0*23
###2023-12-09 13:11:56.995253$GPGSV,2,1,07,03,33,256,41,04,37,311,42,16,55,215,46,26,85,210,48*7A
###2023-12-09 13:11:56.997304$GPGSV,2,2,07,28,46,075,45,29,24,056,41,31,66,048,48,,,,*4C
###2023-12-09 13:11:56.999654$GLGSV,2,1,06,65,28,326,40,71,35,174,45,72,72,250,44,73,31,045,43*6E
###2023-12-09 13:11:57.001409$GLGSV,2,2,06,74,67,351,42,75,36,258,42,,,,,,,,*6E
###2023-12-09 13:11:57.003749$GAGSV,1,1,04,04,33,312,40,19,81,194,40,21,84,075,46,27,30,048,41*65
###2023-12-09 13:11:57.006078$GBGSV,2,1,06,14,39,192,43,24,70,033,49,25,44,266,44,26,23,065,43*64
###2023-12-09 13:11:57.007838$GBGSV,2,2,06,33,54,227,47,35,15,065,43,,,,,,,,*6E
###2023-12-09 13:11:57.009166$GNVTG,281.09,T,,M,3.54,N,6.55,K,A*25
###2023-12-09 13:11:57.010834$GNGST,181156.10,18.000,,,,0.097,0.074,0.170*5E
###2023-12-09 13:11:57.012399$GNZDA,181156.10,09,12,2023,00,00*7A
###2023-12-09 13:11:57.013053$GNEBP,,,,,,M*13
###2023-12-09 13:11:57.174844$GNGGA,181156.30,4138.0394222,N,07032.3006890,W,1,24,0.7,12.782,M,-29.744,M,0.0,*59
###2023-12-09 13:11:57.373021$GNGGA,181156.50,4138.0394508,N,07032.3009433,W,1,24,0.7,12.770,M,-29.744,M,0.0,*57
###2023-12-09 13:11:57.573049$GNGGA,181156.70,4138.0394920,N,07032.3011974,W,1,24,0.7,12.777,M,-29.744,M,0.0,*53
###2023-12-09 13:11:57.773879$GNGGA,181156.90,4138.0395301,N,07032.3014526,W,1,24,0.7,12.796,M,-29.744,M,0.0,*54
###2023-12-09 13:11:57.977384$GNRMC,181157.10,A,4138.0395521,N,07032.3017117,W,3.54,275.28,091223,,,A*58
###2023-12-09 13:11:57.980269$GNGGA,181157.10,4138.0395521,N,07032.3017117,W,1,24,0.7,12.819,M,-29.744,M,0.0,*54
###2023-12-09 13:11:57.982054$GPGSA,A,3,03,04,16,26,28,29,31,,,,,,1.2,0.7,1.0*30
