###2023-12-09 13:23:42.588978$GNGGA,182341.70,4138.0440375,N,07032.3773961,W,1,24,0.7,12.821,M,-29.745,M,0.0,*5A
###2023-12-09 13:23:42.787307$GNGGA,182341.90,4138.0442260,N,07032.3773370,W,1,24,0.7,12.827,M,-29.745,M,0.0,*5F
###2023-12-09 13:23:42.990195$GNRMC,182342.10,A,4138.0444123,N,07032.3772438,W,3.60,20.44,091223,,,A*63
###2023-12-09 13:23:42.993069$GNGGA,182342.10,4138.0444123,N,07032.3772438,W,1,24,0.7,12.828,M,-29.745,M,0.0,*53
###2023-12-09 13:23:42.994877$GPGSA,A,3,03,04,16,26,28,29,31,,,,,,1.1,0.7,0.9*3B
###2023-12-09 13:23:42.996603$GLGSA,A,3,65,71,72,73,74,75,,,,,,,1.1,0.7,0.9*25
###2023-12-09 13:23:42.998192$GAGSA,A,3,04,19,21,27,,,,,,,,,1.1,0.7,0.9*27
###2023-12-09 13:23:42.999917$GBGSA,A,3,14,24,25,26,33,35,,,,,,,1.1,0.7,0.9*28
###2023-12-09 13:23:43.002247$GPGSV,2,1,07,03,30,251,43,04,42,310,45,16,61,218,46,26,89,050,48*78
###2023-12-09 13:23:43.004302$GPGSV,2,2,07,28,41,080,43,29,22,051,40,31,63,058,46,,,,*4D
###2023-12-09 13:23:43.006655$GLGSV,2,1,06,65,34,323,42,71,29,175,43,72,68,232,47,73,27,049,38*65
###2023-12-09 13:23:43.008405$GLGSV,2,2,06,74,63,004,41,75,40,265,47,,,,,,,,*60
###2023-12-09 13:23:43.010741$GAGSV,1,1,04,04,36,311,45,19,77,186,41,21,81,054,46,27,26,049,37*6C
###2023-12-09 13:23:43.013087$GBGSV,2,1,06,14,34,191,43,24,66,040,47,25,47,271,46,26,19,068,42*65
###2023-12-09 13:23:43.014846$GBGSV,2,2,06,33,50,221,47,35,16,061,41,,,,,,,,*69
###2023-12-09 13:23:43.016138$GNVTG,20.44,T,,M,3.60,N,6.66,K,A*12
###2023-12-09 13:23:43.017782$GNGST,182342.10,18.000,,,,0.100,0.071,0.170*50
###2023-12-09 13:23:43.019083$GNZDA,182342.10,09,12,2023,00,00*7E
###2023-12-09 13:23:43.019724$GNEBP,,,,,,M*13
###2023-12-09 13:23:43.192876$GNGGA,182342.30,4138.0446030,N,07032.3771641,W,1,24,0.7,12.828,M,-29.745,M,0.0,*5F
###2023-12-09 13:23:43.385521$GNGGA,182342.50,4138.0447970,N,07032.3771311,W,1,24,0.7,12.830,M,-29.745,M,0.0,*5C
###2023-12-09 13:23:43.584936$GNGGA,182342.70,4138.0449915,N,07032.3771054,W,1,24,0.7,12.822,M,-29.745,M,0.0,*52
###2023-12-09 13:23:43.786251$GNGGA,182342.90,4138.0451853,N,07032.3770553,W,1,24,0.7,12.811,M,-29.745,M,0.0,*55
###2023-12-09 13:23:43.990090$GNRMC,182343.10,A,4138.0453808,N,07032.3769987,W,3.63,10.06,091223,,,A*61
###2023-12-09 13:23:43.992966$GNGGA,182343.10,4138.0453808,N,07032.3769987,W,1,24,0.7,12.807,M,-29.745,M,0.0,*5A
###2023-12-09 13:23:43.994771$GPGSA,A,3,03,04,16,26,28,29,31,,,,,,1.1,0.7,0.9*3B
###2023-12-09 13:23:43.996482$GLGSA,A,3,65,71,72,73,74,75,,,,,,,1.1,0.7,0.9*25
###2023-12-09 13:23:43.998055$GAGSA,A,3,04,19,21,27,,,,,,,,,1.1,0.7,0.9*27
###2023-12-09 13:23:43.999773$GBGSA,A,3,14,24,25,26,33,35,,,,,,,1.1,0.7,0.9*28
###2023-12-09 13:23:44.002092$GPGSV,2,1,07,03,30,251,43,04,42,310,45,16,61,218,47,26,89,050,48*79
###2023-12-09 13:23:44.004144$GPGSV,2,2,07,28,41,080,44,29,22,051,41,31,63,058,45,,,,*48
###2023-12-09 13:23:44.006474$GLGSV,2,1,06,65,34,323,43,71,29,175,43,72,68,232,46,73,27,049,40*6A
###2023-12-09 13:23:44.008235$GLGSV,2,2,06,74,63,004,41,75,40,265,46,,,,,,,,*61
###2023-12-09 13:23:44.010573$GAGSV,1,1,04,04,36,311,44,19,77,186,41,21,81,054,46,27,26,049,39*63
###2023-12-09 13:23:44.012913$GBGSV,2,1,06,14,34,191,42,24,66,040,47,25,47,271,47,26,19,068,42*65
###2023-12-09 13:23:44.014688$GBGSV,2,2,06,33,50,221,47,35,16,061,42,,,,,,,,*6A
###2023-12-09 13:23:44.015995$GNVTG,10.06,T,,M,3.63,N,6.73,K,A*10
###2023-12-09 13:23:44.017649$GNGST,182343.10,18.000,,,,0.100,0.071,0.170*51
###2023-12-09 13:23:44.018961$GNZDA,182343.10,09,12,2023,00,00*7F
###2023-12-09 13:23:44.019602$GNEBP,,,,,,M*13
###2023-12-09 13:23:44.189406$GNGGA,182343.30,4138.0455747,N,07032.3769758,W,1,24,0.7,12.809,M,-29.745,M,0.0,*58
###2023-12-09 13:23:44.385989$GNGGA,182343.50,4138.0457694,N,07032.3769872,W,1,24,0.7,12.816,M,-29.745,M,0.0,*5A
###2023-12-09 13:23:44.587385$GNGGA,182343.70,4138.0459678,N,07032.3769839,W,1,24,0.7,12.807,M,-29.745,M,0.0,*5B
###2023-12-09 13:23:44.786322$GNGGA,182343.90,4138.0461669,N,07032.3769734,W,1,24,0.7,12.803,M,-29.744,M,0.0,*59
###2023-12-09 13:23:44.995945$GNRMC,182344.10,A,4138.0463669,N,07032.3769814,W,3.62,355.43,091223,,,A*55
###2023-12-09 13:23:44.998832$GNGGA,182344.10,4138.0463669,N,07032.3769814,W,1,24,0.7,12.810,M,-29.744,M,0.0,*5B
###2023-12-09 13:23:45.000619$GPGSA,A,3,03,04,16,26,28,29,31,,,,,,1.1,0.7,0.9*3B
###2023-12-09 13:23:45.002325$GLGSA,A,3,65,71,72,73,74,75,,,,,,,1.1,0.7,0.9*25
###2023-12-09 13:23:45.003919$GAGSA,A,3,04,19,21,27,,,,,,,,,1.1,0.7,0.9*27
###2023-12-09 13:23:45.005627$GBGSA,A,3,14,24,25,26,33,35,,,,,,,1.1,0.7,0.9*28
###2023-12-09 13:23:45.007969$GPGSV,2,1,07,03,30,251,44,04,42,310,45,16,61,218,46,26,89,050,48*7F
###2023-12-09 13:23:45.010010$GPGSV,2,2,07,28,41,080,44,29,22,051,42,31,63,058,46,,,,*48
###2023-12-09 13:23:45.012350$GLGSV,2,1,06,65,34,323,42,71,29,175,44,72,68,232,47,73,27,049,41*6C
###2023-12-09 13:23:45.014098$GLGSV,2,2,06,74,63,004,41,75,40,265,48,,,,,,,,*6F
###2023-12-09 13:23:45.016429$GAGSV,1,1,04,04,36,311,44,19,77,186,41,21,81,054,46,27,26,049,39*63
###2023-12-09 13:23:45.018773$GBGSV,2,1,06,14,34,191,43,24,66,040,47,25,47,271,47,26,19,068,42*64
###2023-12-09 13:23:45.020528$GBGSV,2,2,06,33,50,221,48,35,16,061,42,,,,,,,,*65
###2023-12-09 13:23:45.021862$GNVTG,355.43,T,,M,3.62,N,6.70,K,A*21
###2023-12-09 13:23:45.023548$GNGST,182344.10,18.000,,,,0.100,0.071,0.170*56
###2023-12-09 13:23:45.024838$GNZDA,182344.10,09,12,2023,00,00*78
###2023-12-09 13:23:45.025475$GNEBP,,,,,,M*13
###2023-12-09 13:23:45.189086$GNGGA,182344.30,4138.0465659,N,07032.3770047,W,1,24,0.7,12.808,M,-29.744,M,0.0,*53
###2023-12-09 13:23:45.384469$GNGGA,182344.50,4138.0467625,N,07032.3770366,W,1,24,0.7,12.793,M,-29.744,M,0.0,*51
###2023-12-09 13:23:45.585955$GNGGA,182344.70,4138.0469547,N,07032.3770711,W,1,24,0.7,12.792,M,-29.744,M,0.0,*5F
###2023-12-09 13:23:45.786721$GNGGA,182344.90,4138.0471429,N,07032.3771117,W,1,24,0.7,12.799,M,-29.744,M,0.0,*5B
###2023-12-09 13:23:45.990411$GNRMC,182345.10,A,4138.0473280,N,07032.3771670,W,3.36,346.37,091223,,,A*53
###2023-12-09 13:23:45.993311$GNGGA,182345.10,4138.0473280,N,07032.3771670,W,1,24,0.7,12.798,M,-29.744,M,0.0,*52
###2023-12-09 13:23:45.995128$GPGSA,A,3,03,04,16,26,28,29,31,,,,,,1.1,0.7,0.9*3B
###2023-12-09 13:23:45.996844$GLGSA,A,3,65,71,72,73,74,75,,,,,,,1.1,0.7,0.9*25
###2023-12-09 13:23:45.998429$GAGSA,A,3,04,19,21,27,,,,,,,,,1.1,0.7,0.9*27
###2023-12-09 13:23:46.000150$GBGSA,A,3,14,24,25,26,33,35,,,,,,,1.1,0.7,0.9*28
###2023-12-09 13:23:46.002489$GPGSV,2,1,07,03,30,251,43,04,42,310,44,16,61,218,47,26,89,050,48*78
###2023-12-09 13:23:46.004553$GPGSV,2,2,07,28,41,080,45,29,22,051,41,31,63,058,46,,,,*4A
###2023-12-09 13:23:46.006905$GLGSV,2,1,06,65,34,323,40,71,29,175,44,72,68,232,47,73,27,049,42*6D
###2023-12-09 13:23:46.008654$GLGSV,2,2,06,74,63,004,41,75,40,265,46,,,,,,,,*61
###2023-12-09 13:23:46.010996$GAGSV,1,1,04,04,36,311,43,19,77,186,41,21,81,054,46,27,26,049,40*6A
###2023-12-09 13:23:46.013322$GBGSV,2,1,06,14,34,191,43,24,66,040,48,25,47,271,46,26,19,068,44*6C
###2023-12-09 13:23:46.015082$GBGSV,2,2,06,33,50,221,47,35,16,061,42,,,,,,,,*6A
###2023-12-09 13:23:46.016404$GNVTG,346.37,T,,M,3.36,N,6.23,K,A*27
###2023-12-09 13:23:46.018046$GNGST,182345.10,18.000,,,,0.100,0.071,0.170*57
###2023-12-09 13:23:46.019350$GNZDA,182345.10,09,12,2023,00,00*79
###2023-12-09 13:23:46.019998$GNEBP,,,,,,M*13
###2023-12-09 13:23:46.186051$GNGGA,182345.30,4138.0475104,N,07032.3772232,W,1,24,0.7,12.778,M,-29.744,M,0.0,*56
###2023-12-09 13:23:46.385468$GNGGA,182345.50,4138.0476885,N,07032.3772740,W,1,24,0.7,12.777,M,-29.744,M,0.0,*5C
###2023-12-09 13:23:46.585892$GNGGA,182345.70,4138.0478700,N,07032.3773216,W,1,24,0.7,12.784,M,-29.744,M,0.0,*59
###2023-12-09 13:23:46.786628$GNGGA,182345.90,4138.0480509,N,07032.3773582,W,1,24,0.7,12.780,M,-29.744,M,0.0,*55
###2023-12-09 13:23:46.991612$GNRMC,182346.10,A,4138.0482311,N,07032.3774011,W,3.32,348.42,091223,,,A*5B
###2023-12-09 13:23:46.994473$GNGGA,182346.10,4138.0482311,N,07032.3774011,W,1,24,0.7,12.780,M,-29.744,M,0.0,*5B
###2023-12-09 13:23:46.996282$GPGSA,A,3,03,04,16,26,28,29,31,,,,,,1.1,0.7,0.9*3B
###2023-12-09 13:23:46.998003$GLGSA,A,3,65,71,72,73,74,75,,,,,,,1.1,0.7,0.9*25
###2023-12-09 13:23:46.999829$GAGSA,A,3,04,19,21,27,,,,,,,,,1.1,0.7,0.9*27
###2023-12-09 13:23:47.001556$GBGSA,A,3,14,24,25,26,33,35,,,,,,,1.1,0.7,0.9*28
###2023-12-09 13:23:47.003902$GPGSV,2,1,07,03,30,251,43,04,42,310,44,16,61,218,47,26,89,050,48*78
###2023-12-09 13:23:47.005957$GPGSV,2,2,07,28,41,080,45,29,22,051,42,31,63,058,46,,,,*49
###2023-12-09 13:23:47.008298$GLGSV,2,1,06,65,34,323,40,71,29,175,43,72,68,232,46,73,27,049,41*68
###2023-12-09 13:23:47.010049$GLGSV,2,2,06,74,63,004,41,75,40,265,47,,,,,,,,*60
###2023-12-09 13:23:47.012396$GAGSV,1,1,04,04,36,311,43,19,77,186,41,21,81,054,46,27,26,049,40*6A
###2023-12-09 13:23:47.014741$GBGSV,2,1,06,14,34,191,43,24,66,040,48,25,47,271,46,26,19,068,44*6C
###2023-12-09 13:23:47.016488$GBGSV,2,2,06,33,50,221,47,35,16,061,43,,,,,,,,*6B
###2023-12-09 13:23:47.017813$GNVTG,348.42,T,,M,3.32,N,6.16,K,A*29
