###2023-12-09 12:35:03.334059$GNGGA,173502.50,4138.0484336,N,07032.4232719,W,1,23,0.7,13.024,M,-29.745,M,0.0,*55
###2023-12-09 12:35:03.533960$GNGGA,173502.70,4138.0484436,N,07032.4232817,W,1,23,0.7,13.051,M,-29.745,M,0.0,*53
###2023-12-09 12:35:03.733261$GNGGA,173502.90,4138.0484675,N,07032.4233153,W,1,23,0.7,13.064,M,-29.745,M,0.0,*56
###2023-12-09 12:35:03.936308$GNRMC,173503.10,A,4138.0484798,N,07032.4233305,W,0.04,84.40,091223,,,A*61
###2023-12-09 12:35:03.939185$GNGGA,173503.10,4138.0484798,N,07032.4233305,W,1,23,0.7,13.056,M,-29.745,M,0.0,*5D
###2023-12-09 12:35:03.941044$GPGSA,A,3,03,04,16,26,28,29,31,32,,,,,1.2,0.7,1.0*31
###2023-12-09 12:35:03.942708$GLGSA,A,3,71,72,73,74,75,,,,,,,,1.2,0.7,1.0*2D
###2023-12-09 12:35:03.944288$GAGSA,A,3,04,19,21,27,,,,,,,,,1.2,0.7,1.0*2C
###2023-12-09 12:35:03.945939$GBGSA,A,3,14,24,25,26,33,,,,,,,,1.2,0.7,1.0*25
###2023-12-09 12:35:03.948294$GPGSV,2,1,08,03,39,277,45,04,22,311,45,16,37,207,45,26,66,206,48*75
###2023-12-09 12:35:03.950664$GPGSV,2,2,08,28,58,056,43,29,25,074,38,31,73,001,46,32,30,134,44*77
###2023-12-09 12:35:03.952998$GLGSV,2,1,05,71,57,169,48,72,65,310,46,73,48,033,45,74,71,290,43*63
###2023-12-09 12:35:03.954449$GLGSV,2,2,05,75,22,241,46,,,,,,,,,,,,*57
###2023-12-09 12:35:03.956802$GAGSV,1,1,04,04,21,311,42,19,81,302,41,21,78,176,46,27,42,050,42*65
###2023-12-09 12:35:03.959155$GBGSV,2,1,05,14,55,198,45,24,81,343,49,25,32,252,44,26,35,057,45*6D
###2023-12-09 12:35:03.960617$GBGSV,2,2,05,33,63,255,49,,,,,,,,,,,,*54
###2023-12-09 12:35:03.961909$GNVTG,84.40,T,,M,0.04,N,0.07,K,A*18
###2023-12-09 12:35:03.963572$GNGST,173503.10,18.000,,,,0.079,0.071,0.160*53
###2023-12-09 12:35:03.964870$GNZDA,173503.10,09,12,2023,00,00*73
###2023-12-09 12:35:03.965512$GNEBP,,,,,,M*13
###2023-12-09 12:35:04.133354$GNGGA,173503.30,4138.0484790,N,07032.4233200,W,1,23,0.7,13.042,M,-29.745,M,0.0,*56
###2023-12-09 12:35:04.335009$GNGGA,173503.50,4138.0484846,N,07032.4233227,W,1,23,0.7,13.046,M,-29.745,M,0.0,*55
###2023-12-09 12:35:04.534514$GNGGA,173503.70,4138.0485062,N,07032.4233594,W,1,23,0.7,13.059,M,-29.745,M,0.0,*59
###2023-12-09 12:35:04.732587$GNGGA,173503.90,4138.0485245,N,07032.4233881,W,1,23,0.7,13.061,M,-29.745,M,0.0,*52
###2023-12-09 12:35:04.935866$GNRMC,173504.10,A,4138.0485242,N,07032.4233704,W,0.41,84.40,091223,,,A*61
###2023-12-09 12:35:04.938716$GNGGA,173504.10,4138.0485242,N,07032.4233704,W,1,23,0.7,13.057,M,-29.745,M,0.0,*5D
###2023-12-09 12:35:04.940560$GPGSA,A,3,03,04,16,26,28,29,31,32,,,,,1.2,0.7,1.0*31
###2023-12-09 12:35:04.942201$GLGSA,A,3,71,72,73,74,75,,,,,,,,1.2,0.7,1.0*2D
###2023-12-09 12:35:04.943795$GAGSA,A,3,04,19,21,27,,,,,,,,,1.2,0.7,1.0*2C
###2023-12-09 12:35:04.945433$GBGSA,A,3,14,24,25,26,33,,,,,,,,1.2,0.7,1.0*25
###2023-12-09 12:35:04.947814$GPGSV,2,1,08,03,39,277,44,04,22,311,44,16,37,207,45,26,66,206,46*7B
###2023-12-09 12:35:04.950153$GPGSV,2,2,08,28,58,056,43,29,25,074,38,31,73,001,46,32,30,134,44*77
###2023-12-09 12:35:04.952498$GLGSV,2,1,05,71,57,169,47,72,65,310,47,73,48,033,46,74,71,290,43*6E
###2023-12-09 12:35:04.953950$GLGSV,2,2,05,75,22,241,46,,,,,,,,,,,,*57
###2023-12-09 12:35:04.956284$GAGSV,1,1,04,04,21,311,42,19,81,302,40,21,78,176,45,27,41,049,41*6F
###2023-12-09 12:35:04.958636$GBGSV,2,1,05,14,55,198,45,24,81,343,49,25,32,252,45,26,35,057,46*6F
###2023-12-09 12:35:04.960103$GBGSV,2,2,05,33,63,255,47,,,,,,,,,,,,*5A
###2023-12-09 12:35:04.961394$GNVTG,84.40,T,,M,0.41,N,0.76,K,A*1F
###2023-12-09 12:35:04.963052$GNGST,173504.10,18.000,,,,0.079,0.071,0.160*54
###2023-12-09 12:35:04.964352$GNZDA,173504.10,09,12,2023,00,00*74
###2023-12-09 12:35:04.964990$GNEBP,,,,,,M*13
###2023-12-09 12:35:05.133545$GNGGA,173504.30,4138.0485191,N,07032.4233526,W,1,23,0.7,13.042,M,-29.745,M,0.0,*54
###2023-12-09 12:35:05.334269$GNGGA,173504.50,4138.0485375,N,07032.4233824,W,1,23,0.7,13.051,M,-29.745,M,0.0,*57
###2023-12-09 12:35:05.533774$GNGGA,173504.70,4138.0485661,N,07032.4234401,W,1,23,0.7,13.068,M,-29.745,M,0.0,*53
###2023-12-09 12:35:05.732673$GNGGA,173504.90,4138.0485726,N,07032.4234433,W,1,23,0.7,13.075,M,-29.745,M,0.0,*52
###2023-12-09 12:35:05.934606$GNRMC,173505.10,A,4138.0485608,N,07032.4234015,W,0.56,303.38,091223,,,A*5F
###2023-12-09 12:35:05.937488$GNGGA,173505.10,4138.0485608,N,07032.4234015,W,1,23,0.7,13.065,M,-29.745,M,0.0,*57
###2023-12-09 12:35:05.939358$GPGSA,A,3,03,04,16,26,28,29,31,32,,,,,1.2,0.7,1.0*31
###2023-12-09 12:35:05.941020$GLGSA,A,3,71,72,73,74,75,,,,,,,,1.2,0.7,1.0*2D
###2023-12-09 12:35:05.942618$GAGSA,A,3,04,19,21,27,,,,,,,,,1.2,0.7,1.0*2C
###2023-12-09 12:35:05.944275$GBGSA,A,3,14,24,25,26,33,,,,,,,,1.2,0.7,1.0*25
###2023-12-09 12:35:05.946638$GPGSV,2,1,08,03,39,277,43,04,22,311,40,16,37,207,44,26,66,206,47*78
###2023-12-09 12:35:05.949003$GPGSV,2,2,08,28,58,056,44,29,25,074,40,31,73,001,47,32,30,134,45*7F
###2023-12-09 12:35:05.951352$GLGSV,2,1,05,71,57,169,48,72,65,310,46,73,48,033,45,74,71,290,43*63
###2023-12-09 12:35:05.952806$GLGSV,2,2,05,75,22,241,45,,,,,,,,,,,,*54
###2023-12-09 12:35:05.955135$GAGSV,1,1,04,04,21,311,40,19,81,302,41,21,78,176,46,27,41,049,42*6C
###2023-12-09 12:35:05.957467$GBGSV,2,1,05,14,55,198,46,24,81,343,48,25,32,252,44,26,35,057,44*6E
###2023-12-09 12:35:05.958938$GBGSV,2,2,05,33,63,255,47,,,,,,,,,,,,*5A
###2023-12-09 12:35:05.960257$GNVTG,303.38,T,,M,0.56,N,1.04,K,A*2E
###2023-12-09 12:35:05.961898$GNGST,173505.10,18.000,,,,0.079,0.072,0.160*56
###2023-12-09 12:35:05.963198$GNZDA,173505.10,09,12,2023,00,00*75
###2023-12-09 12:35:05.963841$GNEBP,,,,,,M*13
###2023-12-09 12:35:06.135040$GNGGA,173505.30,4138.0485643,N,07032.4234010,W,1,23,0.7,13.051,M,-29.745,M,0.0,*58
###2023-12-09 12:35:06.332876$GNGGA,173505.50,4138.0485935,N,07032.4234650,W,1,23,0.7,13.066,M,-29.745,M,0.0,*56
###2023-12-09 12:35:06.534039$GNGGA,173505.70,4138.0486140,N,07032.4235116,W,1,23,0.7,13.055,M,-29.745,M,0.0,*59
###2023-12-09 12:35:06.733277$GNGGA,173505.90,4138.0486105,N,07032.4234814,W,1,23,0.7,13.080,M,-29.745,M,0.0,*54
###2023-12-09 12:35:06.934960$GNRMC,173506.10,A,4138.0485954,N,07032.4234427,W,0.14,298.82,091223,,,A*5B
###2023-12-09 12:35:06.937828$GNGGA,173506.10,4138.0485954,N,07032.4234427,W,1,23,0.7,13.056,M,-29.745,M,0.0,*57
###2023-12-09 12:35:06.939702$GPGSA,A,3,03,04,16,26,28,29,31,32,,,,,1.2,0.7,1.0*31
###2023-12-09 12:35:06.941357$GLGSA,A,3,71,72,73,74,75,,,,,,,,1.2,0.7,1.0*2D
###2023-12-09 12:35:06.942958$GAGSA,A,3,04,19,21,27,,,,,,,,,1.2,0.7,1.0*2C
###2023-12-09 12:35:06.944609$GBGSA,A,3,14,24,25,26,33,,,,,,,,1.2,0.7,1.0*25
###2023-12-09 12:35:06.946972$GPGSV,2,1,08,03,39,277,42,04,22,311,39,16,37,207,45,26,66,206,48*79
###2023-12-09 12:35:06.949325$GPGSV,2,2,08,28,58,056,45,29,25,074,41,31,73,001,46,32,30,134,47*7C
###2023-12-09 12:35:06.951678$GLGSV,2,1,05,71,57,169,49,72,65,310,46,73,48,033,46,74,71,290,43*61
###2023-12-09 12:35:06.953140$GLGSV,2,2,05,75,22,241,41,,,,,,,,,,,,*50
###2023-12-09 12:35:06.955483$GAGSV,1,1,04,04,21,311,39,19,81,302,41,21,78,176,46,27,41,049,42*62
###2023-12-09 12:35:06.957826$GBGSV,2,1,05,14,55,198,46,24,81,343,48,25,32,252,43,26,35,057,44*69
###2023-12-09 12:35:06.959294$GBGSV,2,2,05,33,63,255,47,,,,,,,,,,,,*5A
###2023-12-09 12:35:06.960621$GNVTG,298.82,T,,M,0.14,N,0.25,K,A*28
###2023-12-09 12:35:06.962266$GNGST,173506.10,18.000,,,,0.080,0.072,0.160*53
###2023-12-09 12:35:06.963575$GNZDA,173506.10,09,12,2023,00,00*76
###2023-12-09 12:35:06.964217$GNEBP,,,,,,M*13
###2023-12-09 12:35:07.133733$GNGGA,173506.30,4138.0486138,N,07032.4234809,W,1,23,0.7,13.054,M,-29.745,M,0.0,*56
###2023-12-09 12:35:07.334853$GNGGA,173506.50,4138.0486494,N,07032.4235539,W,1,23,0.7,13.048,M,-29.745,M,0.0,*51
###2023-12-09 12:35:07.533180$GNGGA,173506.70,4138.0486522,N,07032.4235582,W,1,23,0.7,13.053,M,-29.745,M,0.0,*55
###2023-12-09 12:35:07.735739$GNGGA,173506.90,4138.0486352,N,07032.4235167,W,1,23,0.7,13.075,M,-29.745,M,0.0,*51
###2023-12-09 12:35:07.935471$GNRMC,173507.10,A,4138.0486358,N,07032.4235127,W,0.68,303.39,091223,,,A*53
###2023-12-09 12:35:07.938321$GNGGA,173507.10,4138.0486358,N,07032.4235127,W,1,23,0.7,13.068,M,-29.745,M,0.0,*5A
###2023-12-09 12:35:07.940189$GPGSA,A,3,03,04,16,26,28,29,31,32,,,,,1.2,0.7,1.0*31
###2023-12-09 12:35:07.942089$GLGSA,A,3,71,72,73,74,75,,,,,,,,1.2,0.7,1.0*2D
###2023-12-09 12:35:07.943701$GAGSA,A,3,04,19,21,27,,,,,,,,,1.2,0.7,1.0*2C
###2023-12-09 12:35:07.945358$GBGSA,A,3,14,24,25,26,33,,,,,,,,1.2,0.7,1.0*25
###2023-12-09 12:35:07.947724$GPGSV,2,1,08,03,39,277,42,04,22,311,40,16,37,207,46,26,66,206,46*7A
###2023-12-09 12:35:07.950085$GPGSV,2,2,08,28,58,056,45,29,25,074,43,31,73,001,45,32,30,134,47*7D
###2023-12-09 12:35:07.952439$GLGSV,2,1,05,71,57,169,48,72,65,310,45,73,48,033,46,74,71,290,43*63
###2023-12-09 12:35:07.953888$GLGSV,2,2,05,75,22,241,44,,,,,,,,,,,,*55
###2023-12-09 12:35:07.956251$GAGSV,1,1,04,04,21,311,39,19,81,302,40,21,78,176,45,27,41,049,42*60
###2023-12-09 12:35:07.958589$GBGSV,2,1,05,14,55,198,44,24,81,343,48,25,32,252,42,26,35,057,44*6A
###2023-12-09 12:35:07.960055$GBGSV,2,2,05,33,63,255,48,,,,,,,,,,,,*55
