###2023-12-09 13:43:00.020773$GBGSV,1,1,04,24,60,050,49,25,53,280,47,33,42,214,45,35,16,053,44*68
###2023-12-09 13:43:00.022125$GNVTG,292.14,T,,M,1.50,N,2.77,K,A*29
###2023-12-09 13:43:00.023761$GNGST,184259.10,5.500,,,,0.180,0.130,0.240*68
###2023-12-09 13:43:00.025058$GNZDA,184259.10,09,12,2023,00,00*73
###2023-12-09 13:43:00.025700$GNEBP,,,,,,M*13
###2023-12-09 13:43:00.195972$GNGGA,184259.30,4138.0398087,N,07032.4280503,W,1,19,0.9,13.894,M,-29.745,M,0.0,*55
###2023-12-09 13:43:00.393934$GNGGA,184259.50,4138.0398306,N,07032.4281221,W,1,18,0.9,13.898,M,-29.745,M,0.0,*52
###2023-12-09 13:43:00.593552$GNGGA,184259.70,4138.0398488,N,07032.4281980,W,1,17,0.9,13.901,M,-29.745,M,0.0,*5F
###2023-12-09 13:43:00.793929$GNGGA,184259.90,4138.0398529,N,07032.4282610,W,1,18,0.9,13.920,M,-29.745,M,0.0,*52
###2023-12-09 13:43:00.994847$GNRMC,184300.10,A,4138.0398494,N,07032.4283328,W,1.15,261.72,091223,,,A*54
###2023-12-09 13:43:00.997701$GNGGA,184300.10,4138.0398494,N,07032.4283328,W,1,19,0.9,13.928,M,-29.745,M,0.0,*56
###2023-12-09 13:43:00.999442$GPGSA,A,3,03,04,16,26,29,31,,,,,,,1.4,0.9,1.1*33
###2023-12-09 13:43:01.001089$GLGSA,A,3,65,72,73,74,75,,,,,,,,1.4,0.9,1.1*21
###2023-12-09 13:43:01.002628$GAGSA,A,3,04,21,27,,,,,,,,,,1.4,0.9,1.1*2D
###2023-12-09 13:43:01.004215$GBGSA,A,3,24,25,33,35,,,,,,,,,1.4,0.9,1.1*2B
###2023-12-09 13:43:01.006549$GPGSV,2,1,06,03,24,243,38,04,49,306,47,16,70,226,43,26,80,041,43*77
###2023-12-09 13:43:01.008306$GPGSV,2,2,06,29,19,044,42,31,57,071,43,,,,,,,,*7B
###2023-12-09 13:43:01.010649$GLGSV,2,1,05,65,42,314,44,72,58,215,46,73,19,055,43,74,56,021,43*63
###2023-12-09 13:43:01.012111$GLGSV,2,2,05,75,46,277,50,,,,,,,,,,,,*57
###2023-12-09 13:43:01.014141$GAGSV,1,1,03,04,42,308,46,21,74,044,44,27,20,051,41,,,,*56
###2023-12-09 13:43:01.016492$GBGSV,1,1,04,24,60,050,46,25,53,280,49,33,42,214,45,35,16,053,42*6F
###2023-12-09 13:43:01.017822$GNVTG,261.72,T,,M,1.15,N,2.12,K,A*27
###2023-12-09 13:43:01.019450$GNGST,184300.10,6.600,,,,0.180,0.120,0.250*65
###2023-12-09 13:43:01.020743$GNZDA,184300.10,09,12,2023,00,00*7E
###2023-12-09 13:43:01.021381$GNEBP,,,,,,M*13
###2023-12-09 13:43:01.192221$GNGGA,184300.30,4138.0398324,N,07032.4284181,W,1,19,0.9,13.923,M,-29.745,M,0.0,*55
###2023-12-09 13:43:01.392880$GNGGA,184300.50,4138.0398060,N,07032.4285132,W,1,19,0.9,13.925,M,-29.745,M,0.0,*5F
###2023-12-09 13:43:01.591403$GNGGA,184300.70,4138.0397815,N,07032.4286102,W,1,21,0.8,14.001,M,-29.745,M,0.0,*5A
###2023-12-09 13:43:01.791819$GNGGA,184300.90,4138.0397703,N,07032.4287027,W,1,20,0.8,14.058,M,-29.745,M,0.0,*56
###2023-12-09 13:43:01.994708$GNRMC,184301.10,A,4138.0397625,N,07032.4287825,W,1.07,259.70,091223,,,A*5A
###2023-12-09 13:43:01.997999$GNGGA,184301.10,4138.0397625,N,07032.4287825,W,1,19,0.8,14.095,M,-29.745,M,0.0,*5B
###2023-12-09 13:43:02.000071$GPGSA,A,3,04,09,16,26,28,29,31,,,,,,1.3,0.8,1.0*34
###2023-12-09 13:43:02.001976$GLGSA,A,3,65,72,73,74,75,,,,,,,,1.3,0.8,1.0*26
###2023-12-09 13:43:02.003637$GAGSA,A,3,04,21,,,,,,,,,,,1.3,0.8,1.0*2F
###2023-12-09 13:43:02.005220$GBGSA,A,3,24,25,33,35,,,,,,,,,1.3,0.8,1.0*2C
###2023-12-09 13:43:02.007562$GPGSV,2,1,07,04,49,306,46,09,15,317,38,16,70,226,45,26,80,041,44*7E
###2023-12-09 13:43:02.009601$GPGSV,2,2,07,28,35,088,38,29,19,044,38,31,57,071,42,,,,*41
###2023-12-09 13:43:02.011939$GLGSV,2,1,05,65,42,314,46,72,58,215,47,73,19,055,35,74,56,021,43*61
###2023-12-09 13:43:02.013389$GLGSV,2,2,05,75,46,277,44,,,,,,,,,,,,*52
###2023-12-09 13:43:02.015134$GAGSV,1,1,02,04,42,308,47,21,74,044,45,,,,,,,,*61
###2023-12-09 13:43:02.017459$GBGSV,1,1,04,24,60,050,47,25,53,280,47,33,42,214,49,35,16,053,41*6F
###2023-12-09 13:43:02.018790$GNVTG,259.70,T,,M,1.07,N,1.98,K,A*2C
###2023-12-09 13:43:02.020399$GNGST,184301.10,5.700,,,,0.180,0.120,0.250*66
###2023-12-09 13:43:02.021688$GNZDA,184301.10,09,12,2023,00,00*7F
###2023-12-09 13:43:02.022323$GNEBP,,,,,,M*13
###2023-12-09 13:43:02.193256$GNGGA,184301.30,4138.0397593,N,07032.4288595,W,1,18,0.8,14.090,M,-29.745,M,0.0,*5A
###2023-12-09 13:43:02.392613$GNGGA,184301.50,4138.0397646,N,07032.4289336,W,1,18,0.8,14.104,M,-29.745,M,0.0,*55
###2023-12-09 13:43:02.593395$GNGGA,184301.70,4138.0397619,N,07032.4289977,W,1,18,0.9,14.140,M,-29.745,M,0.0,*53
###2023-12-09 13:43:02.796098$GNGGA,184301.90,4138.0397462,N,07032.4290629,W,1,18,0.8,14.129,M,-29.746,M,0.0,*52
###2023-12-09 13:43:02.997959$GNRMC,184302.10,A,4138.0397170,N,07032.4291348,W,1.28,236.69,091223,,,A*55
###2023-12-09 13:43:03.000831$GNGGA,184302.10,4138.0397170,N,07032.4291348,W,1,19,0.8,14.124,M,-29.746,M,0.0,*50
###2023-12-09 13:43:03.002556$GPGSA,A,3,04,16,26,28,29,31,,,,,,,1.4,0.8,1.2*38
###2023-12-09 13:43:03.004219$GLGSA,A,3,65,72,73,74,75,,,,,,,,1.4,0.8,1.2*23
###2023-12-09 13:43:03.005798$GAGSA,A,3,04,19,21,27,,,,,,,,,1.4,0.8,1.2*27
###2023-12-09 13:43:03.007390$GBGSA,A,3,14,24,25,33,,,,,,,,,1.4,0.8,1.2*2A
###2023-12-09 13:43:03.009712$GPGSV,2,1,06,04,49,306,47,16,70,226,46,26,80,041,45,28,35,088,35*75
###2023-12-09 13:43:03.011463$GPGSV,2,2,06,29,19,044,35,31,57,071,43,,,,,,,,*7B
###2023-12-09 13:43:03.013786$GLGSV,2,1,05,65,42,314,44,72,58,215,45,73,19,055,39,74,56,021,38*61
###2023-12-09 13:43:03.015246$GLGSV,2,2,05,75,46,277,46,,,,,,,,,,,,*50
###2023-12-09 13:43:03.017569$GAGSV,1,1,04,04,42,308,45,19,69,180,36,21,74,044,45,27,20,051,36*68
###2023-12-09 13:43:03.019907$GBGSV,1,1,04,14,25,189,35,24,60,050,43,25,53,280,50,33,42,214,49*6B
###2023-12-09 13:43:03.021231$GNVTG,236.69,T,,M,1.28,N,2.38,K,A*29
###2023-12-09 13:43:03.022850$GNGST,184302.10,7.900,,,,0.180,0.130,0.270*6A
###2023-12-09 13:43:03.024139$GNZDA,184302.10,09,12,2023,00,00*7C
###2023-12-09 13:43:03.024776$GNEBP,,,,,,M*13
###2023-12-09 13:43:03.196654$GNGGA,184302.30,4138.0396817,N,07032.4292036,W,1,20,0.7,14.155,M,-29.746,M,0.0,*51
###2023-12-09 13:43:03.396183$GNGGA,184302.50,4138.0396492,N,07032.4292745,W,1,19,0.8,14.188,M,-29.746,M,0.0,*50
###2023-12-09 13:43:03.594384$GNGGA,184302.70,4138.0396222,N,07032.4293581,W,1,19,0.8,14.221,M,-29.746,M,0.0,*54
###2023-12-09 13:43:03.796421$GNGGA,184302.90,4138.0395997,N,07032.4294511,W,1,17,0.7,14.214,M,-29.746,M,0.0,*55
###2023-12-09 13:43:03.997745$GNRMC,184303.10,A,4138.0395836,N,07032.4295589,W,1.44,259.47,091223,,,A*5D
###2023-12-09 13:43:04.000629$GNGGA,184303.10,4138.0395836,N,07032.4295589,W,1,18,0.8,14.256,M,-29.746,M,0.0,*50
###2023-12-09 13:43:04.002427$GPGSA,A,3,03,04,16,26,28,29,31,,,,,,1.4,0.8,1.2*3B
###2023-12-09 13:43:04.004024$GLGSA,A,3,65,72,74,75,,,,,,,,,1.4,0.8,1.2*27
###2023-12-09 13:43:04.005539$GAGSA,A,3,04,19,21,,,,,,,,,,1.4,0.8,1.2*22
###2023-12-09 13:43:04.007131$GBGSA,A,3,24,25,33,35,,,,,,,,,1.4,0.8,1.2*29
###2023-12-09 13:43:04.009455$GPGSV,2,1,07,03,23,243,38,04,49,306,48,16,70,226,45,26,80,041,41*7A
###2023-12-09 13:43:04.011505$GPGSV,2,2,07,28,35,088,37,29,19,044,38,31,57,071,37,,,,*4C
###2023-12-09 13:43:04.013823$GLGSV,1,1,04,65,42,314,42,72,58,215,46,74,56,021,40,75,46,277,49*60
###2023-12-09 13:43:04.015861$GAGSV,1,1,03,04,42,308,44,19,69,180,36,21,74,044,40,,,,*5D
###2023-12-09 13:43:04.018183$GBGSV,1,1,04,24,60,050,43,25,53,280,50,33,42,214,48,35,16,053,39*63
###2023-12-09 13:43:04.019513$GNVTG,259.47,T,,M,1.44,N,2.66,K,A*2D
###2023-12-09 13:43:04.021125$GNGST,184303.10,5.800,,,,0.180,0.130,0.280*67
###2023-12-09 13:43:04.022415$GNZDA,184303.10,09,12,2023,00,00*7D
###2023-12-09 13:43:04.023076$GNEBP,,,,,,M*13
###2023-12-09 13:43:04.197424$GNGGA,184303.30,4138.0395632,N,07032.4296624,W,1,17,0.9,14.297,M,-29.746,M,0.0,*5C
###2023-12-09 13:43:04.398061$GNGGA,184303.50,4138.0395240,N,07032.4297674,W,1,16,0.8,14.312,M,-29.746,M,0.0,*53
###2023-12-09 13:43:04.596459$GNGGA,184303.70,4138.0394751,N,07032.4298775,W,1,17,0.8,14.321,M,-29.746,M,0.0,*5B
###2023-12-09 13:43:04.799628$GNGGA,184303.90,4138.0394335,N,07032.4299968,W,1,19,0.8,14.372,M,-29.746,M,0.0,*58
###2023-12-09 13:43:05.000538$GNRMC,184304.10,A,4138.0394041,N,07032.4301117,W,1.73,251.94,091223,,,A*5E
###2023-12-09 13:43:05.004150$GNGGA,184304.10,4138.0394041,N,07032.4301117,W,1,17,0.9,14.369,M,-29.746,M,0.0,*52
###2023-12-09 13:43:05.006165$GPGSA,A,3,03,04,16,26,31,,,,,,,,1.5,0.9,1.1*39
###2023-12-09 13:43:05.008475$GLGSA,A,3,65,72,73,74,75,,,,,,,,1.5,0.9,1.1*20
###2023-12-09 13:43:05.010316$GAGSA,A,3,04,21,27,,,,,,,,,,1.5,0.9,1.1*2C
###2023-12-09 13:43:05.012245$GBGSA,A,3,24,25,33,35,,,,,,,,,1.5,0.9,1.1*2A
###2023-12-09 13:43:05.015063$GPGSV,2,1,05,03,23,243,38,04,50,305,47,16,70,226,48,26,80,041,43*73
###2023-12-09 13:43:05.016826$GPGSV,2,2,05,31,57,071,40,,,,,,,,,,,,*4E
###2023-12-09 13:43:05.019641$GLGSV,2,1,05,65,42,314,45,72,58,215,45,73,19,055,36,74,56,021,41*61
###2023-12-09 13:43:05.021391$GLGSV,2,2,05,75,46,277,48,,,,,,,,,,,,*5E
###2023-12-09 13:43:05.023899$GAGSV,1,1,03,04,42,308,46,21,74,044,42,27,20,051,38,,,,*5E
###2023-12-09 13:43:05.026708$GBGSV,1,1,04,24,60,050,44,25,53,280,49,33,42,214,49,35,16,053,38*6C
