###2023-12-09 12:30:15.940415$GPGSV,2,1,08,03,39,280,40,04,20,310,35,16,34,206,41,26,64,206,44*74
###2023-12-09 12:30:15.943353$GPGSV,2,2,08,28,60,053,45,29,25,076,44,31,73,353,43,32,32,133,48*7E
###2023-12-09 12:30:15.946232$GLGSV,1,1,04,71,59,168,48,72,64,313,43,73,50,032,44,75,20,239,37*65
###2023-12-09 12:30:15.948447$GAGSV,1,1,02,21,76,178,38,27,43,050,44,,,,,,,,*6A
###2023-12-09 12:30:15.950990$GBGSV,1,1,03,14,57,199,44,25,31,251,38,26,37,056,44,,,,*55
###2023-12-09 12:30:15.952413$GNVTG,,T,,M,0.08,N,0.14,K,A*30
###2023-12-09 12:30:15.954437$GNGST,173015.10,31.000,,,,0.100,0.100,0.260*51
###2023-12-09 12:30:15.956063$GNZDA,173015.10,09,12,2023,00,00*71
###2023-12-09 12:30:15.956881$GNEBP,,,,,,M*13
###2023-12-09 12:30:16.126476$GNGGA,173015.30,4138.0383381,N,07032.4369537,W,1,17,0.7,13.014,M,-29.746,M,0.0,*5A
###2023-12-09 12:30:16.326137$GNGGA,173015.50,4138.0383381,N,07032.4369533,W,1,17,0.7,13.020,M,-29.746,M,0.0,*5F
###2023-12-09 12:30:16.526480$GNGGA,173015.70,4138.0383379,N,07032.4369517,W,1,17,0.7,13.030,M,-29.746,M,0.0,*5D
###2023-12-09 12:30:16.723783$GNGGA,173015.90,4138.0383372,N,07032.4369503,W,1,17,0.7,13.040,M,-29.746,M,0.0,*5A
###2023-12-09 12:30:16.927831$GNRMC,173016.10,A,4138.0383368,N,07032.4369477,W,0.02,,091223,,,A*47
###2023-12-09 12:30:16.931625$GNGGA,173016.10,4138.0383368,N,07032.4369477,W,1,17,0.7,13.050,M,-29.746,M,0.0,*59
###2023-12-09 12:30:16.934124$GPGSA,A,3,03,04,16,26,28,29,31,32,,,,,1.4,0.7,1.2*35
###2023-12-09 12:30:16.936341$GLGSA,A,3,71,72,73,75,,,,,,,,,1.4,0.7,1.2*2A
###2023-12-09 12:30:16.938341$GAGSA,A,3,21,27,,,,,,,,,,,1.4,0.7,1.2*24
###2023-12-09 12:30:16.940417$GBGSA,A,3,14,25,26,,,,,,,,,,1.4,0.7,1.2*27
###2023-12-09 12:30:16.943453$GPGSV,2,1,08,03,39,280,40,04,20,310,35,16,34,206,41,26,64,206,44*74
###2023-12-09 12:30:16.946505$GPGSV,2,2,08,28,60,053,45,29,25,076,44,31,73,353,43,32,32,133,48*7E
###2023-12-09 12:30:16.949434$GLGSV,1,1,04,71,59,168,48,72,64,313,43,73,50,032,44,75,20,239,37*65
###2023-12-09 12:30:16.951624$GAGSV,1,1,02,21,76,178,38,27,43,050,44,,,,,,,,*6A
###2023-12-09 12:30:16.954128$GBGSV,1,1,03,14,57,199,44,25,31,251,39,26,37,056,45,,,,*55
###2023-12-09 12:30:16.955560$GNVTG,,T,,M,0.02,N,0.04,K,A*3B
###2023-12-09 12:30:16.957590$GNGST,173016.10,31.000,,,,0.100,0.100,0.260*52
###2023-12-09 12:30:16.959220$GNZDA,173016.10,09,12,2023,00,00*72
###2023-12-09 12:30:16.960039$GNEBP,,,,,,M*13
###2023-12-09 12:30:17.125204$GNGGA,173016.30,4138.0383367,N,07032.4369477,W,1,17,0.7,13.061,M,-29.746,M,0.0,*56
###2023-12-09 12:30:17.325184$GNGGA,173016.50,4138.0383366,N,07032.4369467,W,1,17,0.7,13.071,M,-29.746,M,0.0,*51
###2023-12-09 12:30:17.524576$GNGGA,173016.70,4138.0383373,N,07032.4369473,W,1,17,0.7,13.076,M,-29.746,M,0.0,*55
###2023-12-09 12:30:17.723571$GNGGA,173016.90,4138.0383369,N,07032.4369481,W,1,17,0.7,13.086,M,-29.746,M,0.0,*52
###2023-12-09 12:30:17.928810$GNRMC,173017.10,A,4138.0383370,N,07032.4369462,W,0.04,,091223,,,A*4D
###2023-12-09 12:30:17.931894$GNGGA,173017.10,4138.0383370,N,07032.4369462,W,1,17,0.7,13.092,M,-29.746,M,0.0,*5B
###2023-12-09 12:30:17.933772$GPGSA,A,3,03,04,16,26,28,29,31,32,,,,,1.4,0.7,1.2*35
###2023-12-09 12:30:17.935400$GLGSA,A,3,71,72,73,75,,,,,,,,,1.4,0.7,1.2*2A
###2023-12-09 12:30:17.936872$GAGSA,A,3,21,27,,,,,,,,,,,1.4,0.7,1.2*24
###2023-12-09 12:30:17.938406$GBGSA,A,3,14,25,26,,,,,,,,,,1.4,0.7,1.2*27
###2023-12-09 12:30:17.940759$GPGSV,2,1,08,03,39,280,39,04,20,310,35,16,34,206,40,26,64,206,43*7C
###2023-12-09 12:30:17.943120$GPGSV,2,2,08,28,60,053,44,29,25,076,43,31,73,353,42,32,32,133,47*76
###2023-12-09 12:30:17.945469$GLGSV,1,1,04,71,59,168,48,72,64,313,43,73,50,032,44,75,20,239,37*65
###2023-12-09 12:30:17.947265$GAGSV,1,1,02,21,76,178,38,27,43,050,44,,,,,,,,*6A
###2023-12-09 12:30:17.949341$GBGSV,1,1,03,14,57,199,44,25,31,251,39,26,37,056,44,,,,*54
###2023-12-09 12:30:17.950490$GNVTG,,T,,M,0.04,N,0.07,K,A*3E
###2023-12-09 12:30:17.952173$GNGST,173017.10,31.000,,,,0.100,0.100,0.260*53
###2023-12-09 12:30:17.953482$GNZDA,173017.10,09,12,2023,00,00*73
###2023-12-09 12:30:17.954136$GNEBP,,,,,,M*13
###2023-12-09 12:30:18.125544$GNGGA,173017.30,4138.0383376,N,07032.4369472,W,1,17,0.7,13.100,M,-29.746,M,0.0,*54
###2023-12-09 12:30:18.325483$GNGGA,173017.50,4138.0383378,N,07032.4369464,W,1,17,0.7,13.112,M,-29.746,M,0.0,*58
###2023-12-09 12:30:18.526617$GNGGA,173017.70,4138.0383394,N,07032.4369460,W,1,17,0.7,13.126,M,-29.746,M,0.0,*5B
###2023-12-09 12:30:18.726235$GNGGA,173017.90,4138.0383399,N,07032.4369467,W,1,17,0.7,13.141,M,-29.746,M,0.0,*5E
###2023-12-09 12:30:18.925846$GNRMC,173018.10,A,4138.0383405,N,07032.4369466,W,0.04,,091223,,,A*43
###2023-12-09 12:30:18.928943$GNGGA,173018.10,4138.0383405,N,07032.4369466,W,1,17,0.7,13.152,M,-29.746,M,0.0,*58
###2023-12-09 12:30:18.930861$GPGSA,A,3,03,04,16,26,28,29,31,32,,,,,1.4,0.7,1.2*35
###2023-12-09 12:30:18.932468$GLGSA,A,3,71,72,73,75,,,,,,,,,1.4,0.7,1.2*2A
###2023-12-09 12:30:18.933930$GAGSA,A,3,21,27,,,,,,,,,,,1.4,0.7,1.2*24
###2023-12-09 12:30:18.935475$GBGSA,A,3,14,25,26,,,,,,,,,,1.4,0.7,1.2*27
###2023-12-09 12:30:18.937822$GPGSV,2,1,08,03,39,280,39,04,20,310,35,16,34,206,41,26,64,206,44*7A
###2023-12-09 12:30:18.940182$GPGSV,2,2,08,28,60,053,45,29,25,076,44,31,73,353,42,32,32,133,48*7F
###2023-12-09 12:30:18.942534$GLGSV,1,1,04,71,59,168,48,72,64,313,43,73,50,032,44,75,20,239,37*65
###2023-12-09 12:30:18.944310$GAGSV,1,1,02,21,76,178,38,27,43,050,44,,,,,,,,*6A
###2023-12-09 12:30:18.946380$GBGSV,1,1,03,14,57,199,44,25,31,251,39,26,37,056,44,,,,*54
###2023-12-09 12:30:18.947571$GNVTG,,T,,M,0.04,N,0.07,K,A*3E
###2023-12-09 12:30:18.949247$GNGST,173018.10,31.000,,,,0.100,0.110,0.270*5C
###2023-12-09 12:30:18.950559$GNZDA,173018.10,09,12,2023,00,00*7C
###2023-12-09 12:30:18.951243$GNEBP,,,,,,M*13
###2023-12-09 12:30:19.126139$GNGGA,173018.30,4138.0383406,N,07032.4369470,W,1,17,0.7,13.168,M,-29.746,M,0.0,*57
###2023-12-09 12:30:19.325423$GNGGA,173018.50,4138.0383400,N,07032.4369472,W,1,17,0.7,13.183,M,-29.746,M,0.0,*50
###2023-12-09 12:30:19.530063$GNGGA,173018.70,4138.0383402,N,07032.4369474,W,1,17,0.7,13.198,M,-29.746,M,0.0,*5C
###2023-12-09 12:30:19.725242$GNGGA,173018.90,4138.0383397,N,07032.4369469,W,1,17,0.7,13.213,M,-29.746,M,0.0,*55
###2023-12-09 12:30:19.926946$GNRMC,173019.10,A,4138.0383393,N,07032.4369493,W,0.04,,091223,,,A*40
###2023-12-09 12:30:19.929808$GNGGA,173019.10,4138.0383393,N,07032.4369493,W,1,17,0.7,13.223,M,-29.746,M,0.0,*5E
###2023-12-09 12:30:19.931696$GPGSA,A,3,03,04,16,26,28,29,31,32,,,,,1.4,0.7,1.2*35
###2023-12-09 12:30:19.933295$GLGSA,A,3,71,72,73,75,,,,,,,,,1.4,0.7,1.2*2A
###2023-12-09 12:30:19.934778$GAGSA,A,3,21,27,,,,,,,,,,,1.4,0.7,1.2*24
###2023-12-09 12:30:19.936314$GBGSA,A,3,14,25,26,,,,,,,,,,1.4,0.7,1.2*27
###2023-12-09 12:30:19.938665$GPGSV,2,1,08,03,39,280,39,04,20,310,35,16,34,206,41,26,64,206,44*7A
###2023-12-09 12:30:19.941020$GPGSV,2,2,08,28,60,053,44,29,25,076,44,31,73,353,42,32,32,133,48*7E
###2023-12-09 12:30:19.943389$GLGSV,1,1,04,71,59,168,48,72,64,313,42,73,50,032,44,75,20,239,37*64
###2023-12-09 12:30:19.945165$GAGSV,1,1,02,21,76,178,39,27,43,050,44,,,,,,,,*6B
###2023-12-09 12:30:19.947287$GBGSV,1,1,03,14,57,199,44,25,31,251,38,26,37,056,43,,,,*52
###2023-12-09 12:30:19.948503$GNVTG,,T,,M,0.04,N,0.07,K,A*3E
###2023-12-09 12:30:19.950193$GNGST,173019.10,31.000,,,,0.100,0.110,0.270*5D
###2023-12-09 12:30:19.951526$GNZDA,173019.10,09,12,2023,00,00*7D
###2023-12-09 12:30:19.952183$GNEBP,,,,,,M*13
###2023-12-09 12:30:20.129112$GNGGA,173019.30,4138.0383391,N,07032.4369502,W,1,17,0.7,13.234,M,-29.746,M,0.0,*51
###2023-12-09 12:30:20.325475$GNGGA,173019.50,4138.0383374,N,07032.4369502,W,1,17,0.7,13.240,M,-29.746,M,0.0,*5F
###2023-12-09 12:30:20.531959$GNGGA,173019.70,4138.0383372,N,07032.4369498,W,1,17,0.7,13.252,M,-29.746,M,0.0,*5A
###2023-12-09 12:30:20.725529$GNGGA,173019.90,4138.0383352,N,07032.4369485,W,1,17,0.7,13.264,M,-29.746,M,0.0,*5F
###2023-12-09 12:30:20.933288$GNRMC,173020.10,A,4138.0383334,N,07032.4369490,W,0.02,,091223,,,A*42
###2023-12-09 12:30:20.936469$GNGGA,173020.10,4138.0383334,N,07032.4369490,W,1,17,0.7,13.272,M,-29.746,M,0.0,*5E
###2023-12-09 12:30:20.938388$GPGSA,A,3,03,04,16,26,28,29,31,32,,,,,1.4,0.7,1.2*35
###2023-12-09 12:30:20.940301$GLGSA,A,3,71,72,73,75,,,,,,,,,1.4,0.7,1.2*2A
###2023-12-09 12:30:20.941811$GAGSA,A,3,21,27,,,,,,,,,,,1.4,0.7,1.2*24
###2023-12-09 12:30:20.943379$GBGSA,A,3,14,25,26,,,,,,,,,,1.4,0.7,1.2*27
###2023-12-09 12:30:20.945750$GPGSV,2,1,08,03,39,280,38,04,20,310,36,16,34,206,40,26,64,206,44*79
###2023-12-09 12:30:20.948179$GPGSV,2,2,08,28,60,053,45,29,25,076,44,31,73,353,42,32,32,133,48*7F
###2023-12-09 12:30:20.950654$GLGSV,1,1,04,71,59,168,48,72,64,313,42,73,50,032,44,75,20,239,37*64
###2023-12-09 12:30:20.952459$GAGSV,1,1,02,21,76,178,39,27,43,050,44,,,,,,,,*6B
###2023-12-09 12:30:20.954538$GBGSV,1,1,03,14,57,199,44,25,31,251,39,26,36,056,44,,,,*55
