###2023-12-09 13:09:20.981061$GNRMC,180920.10,A,4138.0885529,N,07032.2625616,W,2.86,178.22,091223,,,A*59
###2023-12-09 13:09:20.984552$GNGGA,180920.10,4138.0885529,N,07032.2625616,W,1,25,0.6,13.094,M,-29.741,M,0.0,*56
###2023-12-09 13:09:20.986837$GPGSA,A,3,03,04,16,26,28,29,31,32,,,,,1.1,0.6,0.9*3B
###2023-12-09 13:09:20.988919$GLGSA,A,3,65,71,72,73,74,75,,,,,,,1.1,0.6,0.9*24
###2023-12-09 13:09:20.990872$GAGSA,A,3,04,19,21,27,,,,,,,,,1.1,0.6,0.9*26
###2023-12-09 13:09:20.992947$GBGSA,A,3,14,24,25,26,33,35,,,,,,,1.1,0.6,0.9*29
###2023-12-09 13:09:20.995783$GPGSV,2,1,08,03,33,257,43,04,36,311,44,16,54,214,46,26,83,210,48*77
###2023-12-09 13:09:20.998603$GPGSV,2,2,08,28,47,073,45,29,25,058,43,31,67,044,47,32,16,141,42*7F
###2023-12-09 13:09:21.001419$GLGSV,2,1,06,65,27,326,42,71,36,173,42,72,72,254,46,73,32,044,42*65
###2023-12-09 13:09:21.003549$GLGSV,2,2,06,74,68,348,43,75,35,257,45,,,,,,,,*63
###2023-12-09 13:09:21.006357$GAGSV,1,1,04,04,31,312,42,19,82,199,40,21,85,085,46,27,31,048,40*65
###2023-12-09 13:09:21.009176$GBGSV,2,1,06,14,40,192,43,24,71,031,49,25,43,265,47,26,24,064,44*6F
###2023-12-09 13:09:21.011297$GBGSV,2,2,06,33,55,228,48,35,15,066,42,,,,,,,,*6D
###2023-12-09 13:09:21.012895$GNVTG,178.22,T,,M,2.86,N,5.29,K,A*2F
###2023-12-09 13:09:21.014898$GNGST,180920.10,18.000,,,,0.082,0.066,0.150*53
###2023-12-09 13:09:21.016450$GNZDA,180920.10,09,12,2023,00,00*72
###2023-12-09 13:09:21.017225$GNEBP,,,,,,M*13
###2023-12-09 13:09:21.174442$GNGGA,180920.30,4138.0883944,N,07032.2625662,W,1,25,0.6,13.123,M,-29.741,M,0.0,*5B
###2023-12-09 13:09:21.372800$GNGGA,180920.50,4138.0882187,N,07032.2626101,W,1,25,0.6,13.153,M,-29.741,M,0.0,*5D
###2023-12-09 13:09:21.571061$GNGGA,180920.70,4138.0880489,N,07032.2626289,W,1,25,0.6,13.102,M,-29.741,M,0.0,*51
###2023-12-09 13:09:21.770952$GNGGA,180920.90,4138.0878925,N,07032.2626173,W,1,25,0.6,13.112,M,-29.741,M,0.0,*54
###2023-12-09 13:09:21.973759$GNRMC,180921.10,A,4138.0877213,N,07032.2626241,W,3.27,182.38,091223,,,A*5A
###2023-12-09 13:09:21.976633$GNGGA,180921.10,4138.0877213,N,07032.2626241,W,1,25,0.6,13.132,M,-29.741,M,0.0,*5C
###2023-12-09 13:09:21.978489$GPGSA,A,3,03,04,16,26,28,29,31,32,,,,,1.1,0.6,0.9*3B
###2023-12-09 13:09:21.980216$GLGSA,A,3,65,71,72,73,74,75,,,,,,,1.1,0.6,0.9*24
###2023-12-09 13:09:21.981795$GAGSA,A,3,04,19,21,27,,,,,,,,,1.1,0.6,0.9*26
###2023-12-09 13:09:21.983517$GBGSA,A,3,14,24,25,26,33,35,,,,,,,1.1,0.6,0.9*29
###2023-12-09 13:09:21.985838$GPGSV,2,1,08,03,33,257,42,04,36,311,43,16,54,214,46,26,83,210,46*7F
###2023-12-09 13:09:21.988174$GPGSV,2,2,08,28,47,073,45,29,25,058,42,31,67,044,47,32,16,141,40*7C
###2023-12-09 13:09:21.990502$GLGSV,2,1,06,65,27,326,41,71,36,173,43,72,72,254,46,73,32,044,45*60
###2023-12-09 13:09:21.992248$GLGSV,2,2,06,74,68,348,43,75,35,257,46,,,,,,,,*60
###2023-12-09 13:09:21.994574$GAGSV,1,1,04,04,31,312,41,19,82,199,39,21,85,085,45,27,31,048,41*6A
###2023-12-09 13:09:21.996906$GBGSV,2,1,06,14,40,192,43,24,71,031,50,25,43,265,48,26,24,064,44*68
###2023-12-09 13:09:21.998665$GBGSV,2,2,06,33,55,228,48,35,15,066,45,,,,,,,,*6A
###2023-12-09 13:09:21.999991$GNVTG,182.38,T,,M,3.27,N,6.05,K,A*26
###2023-12-09 13:09:22.001636$GNGST,180921.10,18.000,,,,0.082,0.066,0.150*52
###2023-12-09 13:09:22.002971$GNZDA,180921.10,09,12,2023,00,00*73
###2023-12-09 13:09:22.003615$GNEBP,,,,,,M*13
###2023-12-09 13:09:22.169968$GNGGA,180921.30,4138.0875504,N,07032.2626167,W,1,25,0.6,13.113,M,-29.741,M,0.0,*59
###2023-12-09 13:09:22.370503$GNGGA,180921.50,4138.0873927,N,07032.2625838,W,1,25,0.6,13.114,M,-29.741,M,0.0,*53
###2023-12-09 13:09:22.570945$GNGGA,180921.70,4138.0872298,N,07032.2625389,W,1,25,0.6,13.120,M,-29.741,M,0.0,*59
###2023-12-09 13:09:22.770947$GNGGA,180921.90,4138.0870596,N,07032.2624924,W,1,25,0.6,13.112,M,-29.741,M,0.0,*51
###2023-12-09 13:09:22.974148$GNRMC,180922.10,A,4138.0868990,N,07032.2624421,W,2.92,165.99,091223,,,A*58
###2023-12-09 13:09:22.977692$GNGGA,180922.10,4138.0868990,N,07032.2624421,W,1,25,0.6,13.113,M,-29.741,M,0.0,*50
###2023-12-09 13:09:22.979954$GPGSA,A,3,03,04,16,26,28,29,31,32,,,,,1.1,0.6,0.9*3B
###2023-12-09 13:09:22.982027$GLGSA,A,3,65,71,72,73,74,75,,,,,,,1.1,0.6,0.9*24
###2023-12-09 13:09:22.983957$GAGSA,A,3,04,19,21,27,,,,,,,,,1.1,0.6,0.9*26
###2023-12-09 13:09:22.986018$GBGSA,A,3,14,24,25,26,33,35,,,,,,,1.1,0.6,0.9*29
###2023-12-09 13:09:22.988845$GPGSV,2,1,08,03,33,257,43,04,36,311,44,16,54,214,46,26,83,210,47*78
###2023-12-09 13:09:22.991666$GPGSV,2,2,08,28,47,073,45,29,25,058,43,31,67,044,46,32,16,141,41*7D
###2023-12-09 13:09:22.994480$GLGSV,2,1,06,65,27,326,41,71,36,173,44,72,72,254,45,73,32,044,45*64
###2023-12-09 13:09:22.996596$GLGSV,2,2,06,74,68,348,43,75,35,257,46,,,,,,,,*60
###2023-12-09 13:09:22.999417$GAGSV,1,1,04,04,31,312,42,19,82,199,39,21,85,085,45,27,31,048,42*6A
###2023-12-09 13:09:23.002216$GBGSV,2,1,06,14,40,192,43,24,71,031,49,25,43,265,48,26,24,064,45*61
###2023-12-09 13:09:23.004337$GBGSV,2,2,06,33,55,228,49,35,15,066,45,,,,,,,,*6B
###2023-12-09 13:09:23.005941$GNVTG,165.99,T,,M,2.92,N,5.40,K,A*29
###2023-12-09 13:09:23.007980$GNGST,180922.10,18.000,,,,0.083,0.066,0.150*50
###2023-12-09 13:09:23.009537$GNZDA,180922.10,09,12,2023,00,00*70
###2023-12-09 13:09:23.010305$GNEBP,,,,,,M*13
###2023-12-09 13:09:23.169509$GNGGA,180922.30,4138.0867348,N,07032.2623754,W,1,25,0.6,13.133,M,-29.741,M,0.0,*56
###2023-12-09 13:09:23.370125$GNGGA,180922.50,4138.0865770,N,07032.2622903,W,1,25,0.6,13.114,M,-29.741,M,0.0,*55
###2023-12-09 13:09:23.571626$GNGGA,180922.70,4138.0864375,N,07032.2621871,W,1,25,0.6,13.110,M,-29.741,M,0.0,*54
###2023-12-09 13:09:23.771502$GNGGA,180922.90,4138.0862783,N,07032.2620990,W,1,25,0.6,13.128,M,-29.741,M,0.0,*55
###2023-12-09 13:09:23.974451$GNRMC,180923.10,A,4138.0861196,N,07032.2619928,W,2.92,146.35,091223,,,A*53
###2023-12-09 13:09:23.977938$GNGGA,180923.10,4138.0861196,N,07032.2619928,W,1,25,0.6,13.117,M,-29.741,M,0.0,*58
###2023-12-09 13:09:23.980202$GPGSA,A,3,03,04,16,26,28,29,31,32,,,,,1.1,0.6,0.9*3B
###2023-12-09 13:09:23.982268$GLGSA,A,3,65,71,72,73,74,75,,,,,,,1.1,0.6,0.9*24
###2023-12-09 13:09:23.984191$GAGSA,A,3,04,19,21,27,,,,,,,,,1.1,0.6,0.9*26
###2023-12-09 13:09:23.986257$GBGSA,A,3,14,24,25,26,33,35,,,,,,,1.1,0.6,0.9*29
###2023-12-09 13:09:23.989077$GPGSV,2,1,08,03,33,257,43,04,36,311,44,16,54,214,46,26,83,210,47*78
###2023-12-09 13:09:23.991893$GPGSV,2,2,08,28,47,073,44,29,25,058,43,31,67,044,46,32,16,141,40*7D
###2023-12-09 13:09:23.994713$GLGSV,2,1,06,65,27,326,44,71,36,173,44,72,72,254,46,73,32,044,45*62
###2023-12-09 13:09:23.996822$GLGSV,2,2,06,74,68,348,43,75,35,257,47,,,,,,,,*61
###2023-12-09 13:09:23.999655$GAGSV,1,1,04,04,31,312,43,19,82,199,40,21,85,085,46,27,31,048,43*67
###2023-12-09 13:09:24.002467$GBGSV,2,1,06,14,40,192,44,24,71,031,48,25,43,265,48,26,24,064,45*67
###2023-12-09 13:09:24.004586$GBGSV,2,2,06,33,55,228,49,35,15,066,44,,,,,,,,*6A
###2023-12-09 13:09:24.006185$GNVTG,146.35,T,,M,2.92,N,5.40,K,A*2E
###2023-12-09 13:09:24.008181$GNGST,180923.10,18.000,,,,0.083,0.066,0.150*51
###2023-12-09 13:09:24.009733$GNZDA,180923.10,09,12,2023,00,00*71
###2023-12-09 13:09:24.010501$GNEBP,,,,,,M*13
###2023-12-09 13:09:24.171522$GNGGA,180923.30,4138.0859994,N,07032.2618608,W,1,25,0.6,13.125,M,-29.741,M,0.0,*56
###2023-12-09 13:09:24.372143$GNGGA,180923.50,4138.0858687,N,07032.2617119,W,1,25,0.6,13.148,M,-29.741,M,0.0,*5F
###2023-12-09 13:09:24.572409$GNGGA,180923.70,4138.0857338,N,07032.2615729,W,1,25,0.6,13.124,M,-29.741,M,0.0,*5E
###2023-12-09 13:09:24.772342$GNGGA,180923.90,4138.0856163,N,07032.2614241,W,1,25,0.6,13.136,M,-29.741,M,0.0,*54
###2023-12-09 13:09:24.972670$GNRMC,180924.10,A,4138.0854966,N,07032.2612537,W,3.25,135.14,091223,,,A*56
###2023-12-09 13:09:24.975567$GNGGA,180924.10,4138.0854966,N,07032.2612537,W,1,25,0.6,13.153,M,-29.741,M,0.0,*57
###2023-12-09 13:09:24.977431$GPGSA,A,3,03,04,16,26,28,29,31,32,,,,,1.1,0.6,0.9*3B
###2023-12-09 13:09:24.979159$GLGSA,A,3,65,71,72,73,74,75,,,,,,,1.1,0.6,0.9*24
###2023-12-09 13:09:24.980754$GAGSA,A,3,04,19,21,27,,,,,,,,,1.1,0.6,0.9*26
###2023-12-09 13:09:24.982464$GBGSA,A,3,14,24,25,26,33,35,,,,,,,1.1,0.6,0.9*29
###2023-12-09 13:09:24.985062$GPGSV,2,1,08,03,33,257,44,04,36,311,45,16,54,214,46,26,83,210,48*71
###2023-12-09 13:09:24.987436$GPGSV,2,2,08,28,47,073,44,29,25,058,43,31,67,044,46,32,16,141,40*7D
###2023-12-09 13:09:24.989790$GLGSV,2,1,06,65,27,326,43,71,36,173,45,72,72,254,46,73,32,044,44*65
###2023-12-09 13:09:24.991561$GLGSV,2,2,06,74,68,348,43,75,35,257,47,,,,,,,,*61
###2023-12-09 13:09:24.993900$GAGSV,1,1,04,04,31,312,43,19,82,199,40,21,85,085,45,27,31,048,42*65
###2023-12-09 13:09:24.996253$GBGSV,2,1,06,14,40,192,45,24,71,031,49,25,43,265,47,26,24,064,44*69
###2023-12-09 13:09:24.998011$GBGSV,2,2,06,33,55,228,49,35,15,066,44,,,,,,,,*6A
###2023-12-09 13:09:24.999352$GNVTG,135.14,T,,M,3.25,N,6.01,K,A*22
###2023-12-09 13:09:25.001003$GNGST,180924.10,18.000,,,,0.083,0.065,0.150*55
###2023-12-09 13:09:25.002298$GNZDA,180924.10,09,12,2023,00,00*76
