###2023-12-09 13:33:09.029777$GBGSV,2,2,06,33,46,217,46,35,16,057,41,,,,,,,,*6F
###2023-12-09 13:33:09.031117$GNVTG,10.21,T,,M,2.80,N,5.18,K,A*17
###2023-12-09 13:33:09.032763$GNGST,183308.10,18.000,,,,0.110,0.071,0.170*5E
###2023-12-09 13:33:09.034050$GNZDA,183308.10,09,12,2023,00,00*71
###2023-12-09 13:33:09.034702$GNEBP,,,,,,M*13
###2023-12-09 13:33:09.202531$GNGGA,183308.30,4138.0457099,N,07032.4127306,W,1,25,0.6,13.295,M,-29.745,M,0.0,*5A
###2023-12-09 13:33:09.393220$GNGGA,183308.50,4138.0458720,N,07032.4127045,W,1,25,0.6,13.293,M,-29.745,M,0.0,*54
###2023-12-09 13:33:09.592792$GNGGA,183308.70,4138.0460298,N,07032.4126517,W,1,25,0.6,13.302,M,-29.745,M,0.0,*51
###2023-12-09 13:33:09.795323$GNGGA,183308.90,4138.0461720,N,07032.4125657,W,1,24,0.6,13.307,M,-29.745,M,0.0,*58
###2023-12-09 13:33:09.997155$GNRMC,183309.10,A,4138.0463070,N,07032.4124596,W,2.80,28.14,091223,,,A*6A
###2023-12-09 13:33:10.000039$GNGGA,183309.10,4138.0463070,N,07032.4124596,W,1,25,0.6,13.296,M,-29.745,M,0.0,*56
###2023-12-09 13:33:10.001890$GPGSA,A,3,03,04,16,26,27,28,29,31,,,,,1.0,0.6,0.8*3F
###2023-12-09 13:33:10.003617$GLGSA,A,3,65,71,72,73,74,75,,,,,,,1.0,0.6,0.8*24
###2023-12-09 13:33:10.005198$GAGSA,A,3,04,19,21,27,,,,,,,,,1.0,0.6,0.8*26
###2023-12-09 13:33:10.006914$GBGSA,A,3,14,24,25,26,33,35,,,,,,,1.0,0.6,0.8*29
###2023-12-09 13:33:10.009239$GPGSV,2,1,08,03,27,247,42,04,46,308,45,16,65,221,46,26,85,040,48*79
###2023-12-09 13:33:10.011577$GPGSV,2,2,08,27,16,173,37,28,39,084,44,29,21,048,40,31,60,064,46*7A
###2023-12-09 13:33:10.013895$GLGSV,2,1,06,65,38,319,41,71,23,175,43,72,63,222,46,73,23,052,41*62
###2023-12-09 13:33:10.015647$GLGSV,2,2,06,74,60,013,40,75,43,271,47,,,,,,,,*62
###2023-12-09 13:33:10.017964$GAGSV,1,1,04,04,39,310,44,19,73,182,41,21,77,047,46,27,23,050,39*6B
###2023-12-09 13:33:10.020294$GBGSV,2,1,06,14,29,190,41,24,63,045,47,25,50,275,46,26,16,070,41*6D
###2023-12-09 13:33:10.022037$GBGSV,2,2,06,33,46,217,45,35,16,057,43,,,,,,,,*6E
###2023-12-09 13:33:10.023334$GNVTG,28.14,T,,M,2.80,N,5.18,K,A*1A
###2023-12-09 13:33:10.024978$GNGST,183309.10,18.000,,,,0.110,0.071,0.170*5F
###2023-12-09 13:33:10.026264$GNZDA,183309.10,09,12,2023,00,00*70
###2023-12-09 13:33:10.026912$GNEBP,,,,,,M*13
###2023-12-09 13:33:10.192426$GNGGA,183309.30,4138.0464498,N,07032.4123863,W,1,25,0.6,13.300,M,-29.745,M,0.0,*5F
###2023-12-09 13:33:10.391740$GNGGA,183309.50,4138.0466011,N,07032.4123371,W,1,25,0.6,13.320,M,-29.745,M,0.0,*54
###2023-12-09 13:33:10.590826$GNGGA,183309.70,4138.0467397,N,07032.4122347,W,1,25,0.6,13.321,M,-29.745,M,0.0,*5F
###2023-12-09 13:33:10.791546$GNGGA,183309.90,4138.0468556,N,07032.4120919,W,1,25,0.6,13.311,M,-29.745,M,0.0,*55
###2023-12-09 13:33:10.996961$GNRMC,183310.10,A,4138.0469856,N,07032.4119828,W,2.78,22.67,091223,,,A*6B
###2023-12-09 13:33:11.000435$GNGGA,183310.10,4138.0469856,N,07032.4119828,W,1,25,0.6,13.306,M,-29.745,M,0.0,*56
###2023-12-09 13:33:11.002731$GPGSA,A,3,03,04,16,26,27,28,29,31,,,,,1.0,0.6,0.8*3F
###2023-12-09 13:33:11.004803$GLGSA,A,3,65,71,72,73,74,75,,,,,,,1.0,0.6,0.8*24
###2023-12-09 13:33:11.006728$GAGSA,A,3,04,19,21,27,,,,,,,,,1.0,0.6,0.8*26
###2023-12-09 13:33:11.008795$GBGSA,A,3,14,24,25,26,33,35,,,,,,,1.0,0.6,0.8*29
###2023-12-09 13:33:11.011611$GPGSV,2,1,08,03,27,247,40,04,46,308,45,16,65,221,47,26,85,040,48*7A
###2023-12-09 13:33:11.014420$GPGSV,2,2,08,27,16,173,38,28,39,084,44,29,21,048,41,31,60,064,45*77
###2023-12-09 13:33:11.017232$GLGSV,2,1,06,65,38,319,41,71,23,175,44,72,63,222,46,73,23,052,41*65
###2023-12-09 13:33:11.019356$GLGSV,2,2,06,74,60,013,40,75,43,271,46,,,,,,,,*63
###2023-12-09 13:33:11.022147$GAGSV,1,1,04,04,39,310,43,19,73,182,41,21,77,047,46,27,23,050,39*6C
###2023-12-09 13:33:11.024956$GBGSV,2,1,06,14,29,190,42,24,63,045,47,25,50,275,46,26,16,070,42*6D
###2023-12-09 13:33:11.027078$GBGSV,2,2,06,33,46,217,47,35,16,057,43,,,,,,,,*6C
###2023-12-09 13:33:11.028638$GNVTG,22.67,T,,M,2.78,N,5.15,K,A*1E
###2023-12-09 13:33:11.030663$GNGST,183310.10,18.000,,,,0.100,0.071,0.170*56
###2023-12-09 13:33:11.032230$GNZDA,183310.10,09,12,2023,00,00*78
###2023-12-09 13:33:11.033008$GNEBP,,,,,,M*13
###2023-12-09 13:33:11.193116$GNGGA,183310.30,4138.0471381,N,07032.4119190,W,1,25,0.6,13.318,M,-29.745,M,0.0,*59
###2023-12-09 13:33:11.392208$GNGGA,183310.50,4138.0472775,N,07032.4118282,W,1,25,0.6,13.317,M,-29.745,M,0.0,*5D
###2023-12-09 13:33:11.592523$GNGGA,183310.70,4138.0473954,N,07032.4116758,W,1,25,0.6,13.321,M,-29.745,M,0.0,*5A
###2023-12-09 13:33:11.793072$GNGGA,183310.90,4138.0475157,N,07032.4115405,W,1,25,0.6,13.318,M,-29.745,M,0.0,*5B
###2023-12-09 13:33:11.995959$GNRMC,183311.10,A,4138.0476613,N,07032.4114682,W,2.86,17.83,091223,,,A*65
###2023-12-09 13:33:11.999432$GNGGA,183311.10,4138.0476613,N,07032.4114682,W,1,25,0.6,13.333,M,-29.745,M,0.0,*53
###2023-12-09 13:33:12.001671$GPGSA,A,3,03,04,16,26,27,28,29,31,,,,,1.0,0.6,0.8*3F
###2023-12-09 13:33:12.003757$GLGSA,A,3,65,71,72,73,74,75,,,,,,,1.0,0.6,0.8*24
###2023-12-09 13:33:12.005664$GAGSA,A,3,04,19,21,27,,,,,,,,,1.0,0.6,0.8*26
###2023-12-09 13:33:12.007744$GBGSA,A,3,14,24,25,26,33,35,,,,,,,1.0,0.6,0.8*29
###2023-12-09 13:33:12.010548$GPGSV,2,1,08,03,27,247,41,04,46,308,44,16,65,221,47,26,85,040,48*7A
###2023-12-09 13:33:12.013365$GPGSV,2,2,08,27,16,173,38,28,39,084,44,29,21,048,41,31,60,064,46*74
###2023-12-09 13:33:12.016215$GLGSV,2,1,06,65,38,319,42,71,23,175,42,72,63,222,46,73,23,052,41*60
###2023-12-09 13:33:12.018314$GLGSV,2,2,06,74,60,013,40,75,43,271,47,,,,,,,,*62
###2023-12-09 13:33:12.021155$GAGSV,1,1,04,04,39,310,43,19,73,182,41,21,77,047,46,27,23,050,39*6C
###2023-12-09 13:33:12.023974$GBGSV,2,1,06,14,29,190,41,24,63,045,48,25,50,275,48,26,16,070,42*6F
###2023-12-09 13:33:12.026067$GBGSV,2,2,06,33,46,217,47,35,16,057,44,,,,,,,,*6B
###2023-12-09 13:33:12.027644$GNVTG,17.83,T,,M,2.86,N,5.29,K,A*1C
###2023-12-09 13:33:12.029624$GNGST,183311.10,18.000,,,,0.100,0.071,0.170*57
###2023-12-09 13:33:12.031190$GNZDA,183311.10,09,12,2023,00,00*79
###2023-12-09 13:33:12.031959$GNEBP,,,,,,M*13
###2023-12-09 13:33:12.200578$GNGGA,183311.30,4138.0478077,N,07032.4113872,W,1,25,0.6,13.322,M,-29.745,M,0.0,*5D
###2023-12-09 13:33:12.392072$GNGGA,183311.50,4138.0479361,N,07032.4112737,W,1,25,0.6,13.339,M,-29.745,M,0.0,*5B
###2023-12-09 13:33:12.592299$GNGGA,183311.70,4138.0480645,N,07032.4111407,W,1,25,0.6,13.355,M,-29.745,M,0.0,*55
###2023-12-09 13:33:12.794186$GNGGA,183311.90,4138.0482030,N,07032.4110323,W,1,25,0.6,13.336,M,-29.745,M,0.0,*58
###2023-12-09 13:33:12.996608$GNRMC,183312.10,A,4138.0483525,N,07032.4109775,W,2.74,12.29,091223,,,A*67
###2023-12-09 13:33:13.000080$GNGGA,183312.10,4138.0483525,N,07032.4109775,W,1,25,0.6,13.332,M,-29.745,M,0.0,*58
###2023-12-09 13:33:13.002318$GPGSA,A,3,03,04,16,26,27,28,29,31,,,,,1.0,0.6,0.8*3F
###2023-12-09 13:33:13.004388$GLGSA,A,3,65,71,72,73,74,75,,,,,,,1.0,0.6,0.8*24
###2023-12-09 13:33:13.006287$GAGSA,A,3,04,19,21,27,,,,,,,,,1.0,0.6,0.8*26
###2023-12-09 13:33:13.008358$GBGSA,A,3,14,24,25,26,33,35,,,,,,,1.0,0.6,0.8*29
###2023-12-09 13:33:13.011161$GPGSV,2,1,08,03,27,247,42,04,46,308,44,16,65,221,46,26,85,040,48*78
###2023-12-09 13:33:13.013991$GPGSV,2,2,08,27,16,173,39,28,39,084,44,29,21,048,41,31,60,064,45*76
###2023-12-09 13:33:13.016839$GLGSV,2,1,06,65,38,319,42,71,23,175,43,72,63,222,46,73,23,052,40*60
###2023-12-09 13:33:13.018955$GLGSV,2,2,06,74,60,013,40,75,43,271,47,,,,,,,,*62
###2023-12-09 13:33:13.021744$GAGSV,1,1,04,04,39,310,43,19,73,182,41,21,77,047,46,27,23,050,39*6C
###2023-12-09 13:33:13.024558$GBGSV,2,1,06,14,29,190,41,24,63,045,48,25,50,275,47,26,16,070,43*61
###2023-12-09 13:33:13.026681$GBGSV,2,2,06,33,46,217,47,35,16,057,43,,,,,,,,*6C
###2023-12-09 13:33:13.028234$GNVTG,12.29,T,,M,2.74,N,5.08,K,A*17
###2023-12-09 13:33:13.030203$GNGST,183312.10,18.000,,,,0.100,0.070,0.170*55
###2023-12-09 13:33:13.031768$GNZDA,183312.10,09,12,2023,00,00*7A
###2023-12-09 13:33:13.032532$GNEBP,,,,,,M*13
###2023-12-09 13:33:13.193525$GNGGA,183312.30,4138.0484978,N,07032.4109213,W,1,25,0.6,13.358,M,-29.745,M,0.0,*50
###2023-12-09 13:33:13.393626$GNGGA,183312.50,4138.0486394,N,07032.4108075,W,1,25,0.6,13.370,M,-29.745,M,0.0,*55
###2023-12-09 13:33:13.593865$GNGGA,183312.70,4138.0487842,N,07032.4106942,W,1,25,0.6,13.337,M,-29.745,M,0.0,*56
###2023-12-09 13:33:13.794616$GNGGA,183312.90,4138.0489399,N,07032.4106632,W,1,25,0.6,13.354,M,-29.745,M,0.0,*56
###2023-12-09 13:33:13.997389$GNRMC,183313.10,A,4138.0490995,N,07032.4106507,W,2.80,11.66,091223,,,A*68
###2023-12-09 13:33:14.000279$GNGGA,183313.10,4138.0490995,N,07032.4106507,W,1,25,0.6,13.368,M,-29.745,M,0.0,*5B
###2023-12-09 13:33:14.002136$GPGSA,A,3,03,04,16,26,27,28,29,31,,,,,1.0,0.6,0.8*3F
###2023-12-09 13:33:14.003861$GLGSA,A,3,65,71,72,73,74,75,,,,,,,1.0,0.6,0.8*24
###2023-12-09 13:33:14.005432$GAGSA,A,3,04,19,21,27,,,,,,,,,1.0,0.6,0.8*26
###2023-12-09 13:33:14.007144$GBGSA,A,3,14,24,25,26,33,35,,,,,,,1.0,0.6,0.8*29
###2023-12-09 13:33:14.009443$GPGSV,2,1,08,03,27,247,42,04,46,308,45,16,65,221,46,26,85,040,49*78
