###2023-12-09 13:05:55.979745$GBGSA,A,3,14,24,25,26,33,,,,,,,,1.1,0.6,0.9*2F
###2023-12-09 13:05:55.982109$GPGSV,2,1,08,03,34,259,42,04,34,311,43,16,52,213,46,26,82,210,48*7A
###2023-12-09 13:05:55.984476$GPGSV,2,2,08,28,48,072,46,29,25,059,43,31,68,042,48,32,17,141,42*74
###2023-12-09 13:05:55.986835$GLGSV,2,1,06,65,26,327,43,71,39,173,44,72,73,261,46,73,34,043,46*6F
###2023-12-09 13:05:55.988587$GLGSV,2,2,06,74,69,343,43,75,33,255,42,,,,,,,,*6A
###2023-12-09 13:05:55.990956$GAGSV,1,1,04,04,31,312,43,19,83,203,41,21,86,104,46,27,32,048,43*6F
###2023-12-09 13:05:55.993298$GBGSV,2,1,05,14,42,192,45,24,72,028,49,25,42,263,45,26,25,063,43*67
###2023-12-09 13:05:55.994775$GBGSV,2,2,05,33,56,230,48,,,,,,,,,,,,*50
###2023-12-09 13:05:55.996105$GNVTG,249.02,T,,M,3.38,N,6.26,K,A*24
###2023-12-09 13:05:55.997760$GNGST,180555.10,18.000,,,,0.080,0.068,0.160*52
###2023-12-09 13:05:55.999079$GNZDA,180555.10,09,12,2023,00,00*7C
###2023-12-09 13:05:55.999722$GNEBP,,,,,,M*13
###2023-12-09 13:05:56.167191$GNGGA,180555.30,4138.0709404,N,07032.2749688,W,1,24,0.6,13.509,M,-29.742,M,0.0,*50
###2023-12-09 13:05:56.367807$GNGGA,180555.50,4138.0708717,N,07032.2751878,W,1,24,0.6,13.529,M,-29.742,M,0.0,*5C
###2023-12-09 13:05:56.568063$GNGGA,180555.70,4138.0708293,N,07032.2754423,W,1,24,0.6,13.556,M,-29.742,M,0.0,*58
###2023-12-09 13:05:56.768136$GNGGA,180555.90,4138.0707713,N,07032.2756777,W,1,24,0.6,13.541,M,-29.742,M,0.0,*52
###2023-12-09 13:05:56.977306$GNRMC,180556.10,A,4138.0706899,N,07032.2758932,W,3.34,242.07,091223,,,A*51
###2023-12-09 13:05:56.980193$GNGGA,180556.10,4138.0706899,N,07032.2758932,W,1,24,0.6,13.538,M,-29.742,M,0.0,*5A
###2023-12-09 13:05:56.982057$GPGSA,A,3,03,04,16,26,28,29,31,32,,,,,1.1,0.6,0.9*3B
###2023-12-09 13:05:56.983788$GLGSA,A,3,65,71,72,73,74,75,,,,,,,1.1,0.6,0.9*24
###2023-12-09 13:05:56.985370$GAGSA,A,3,04,19,21,27,,,,,,,,,1.1,0.6,0.9*26
###2023-12-09 13:05:56.987028$GBGSA,A,3,14,24,25,26,33,,,,,,,,1.1,0.6,0.9*2F
###2023-12-09 13:05:56.989352$GPGSV,2,1,08,03,34,259,43,04,34,311,44,16,52,213,46,26,82,210,49*7D
###2023-12-09 13:05:56.991698$GPGSV,2,2,08,28,48,072,45,29,25,059,43,31,68,042,48,32,17,141,43*76
###2023-12-09 13:05:56.994033$GLGSV,2,1,06,65,26,327,43,71,39,173,46,72,73,261,45,73,34,043,46*6E
###2023-12-09 13:05:56.995793$GLGSV,2,2,06,74,69,343,43,75,33,255,43,,,,,,,,*6B
###2023-12-09 13:05:56.998119$GAGSV,1,1,04,04,31,312,43,19,83,203,40,21,86,104,46,27,32,048,43*6E
###2023-12-09 13:05:57.000464$GBGSV,2,1,05,14,42,192,44,24,72,028,48,25,42,263,43,26,25,063,42*60
###2023-12-09 13:05:57.001926$GBGSV,2,2,05,33,56,230,46,,,,,,,,,,,,*5E
###2023-12-09 13:05:57.003276$GNVTG,242.07,T,,M,3.34,N,6.19,K,A*2A
###2023-12-09 13:05:57.004928$GNGST,180556.10,18.000,,,,0.080,0.067,0.150*5D
###2023-12-09 13:05:57.006218$GNZDA,180556.10,09,12,2023,00,00*7F
###2023-12-09 13:05:57.006870$GNEBP,,,,,,M*13
###2023-12-09 13:05:57.170222$GNGGA,180556.30,4138.0706088,N,07032.2761186,W,1,24,0.6,13.517,M,-29.742,M,0.0,*50
###2023-12-09 13:05:57.368639$GNGGA,180556.50,4138.0705699,N,07032.2763584,W,1,24,0.6,13.517,M,-29.742,M,0.0,*57
###2023-12-09 13:05:57.569898$GNGGA,180556.70,4138.0705431,N,07032.2765958,W,1,24,0.6,13.545,M,-29.742,M,0.0,*59
###2023-12-09 13:05:57.769220$GNGGA,180556.90,4138.0704768,N,07032.2768202,W,1,24,0.6,13.519,M,-29.742,M,0.0,*59
###2023-12-09 13:05:57.969817$GNRMC,180557.10,A,4138.0704283,N,07032.2770435,W,3.13,260.79,091223,,,A*5F
###2023-12-09 13:05:57.972701$GNGGA,180557.10,4138.0704283,N,07032.2770435,W,1,24,0.6,13.498,M,-29.742,M,0.0,*53
###2023-12-09 13:05:57.974559$GPGSA,A,3,03,04,16,26,28,29,31,32,,,,,1.1,0.6,0.9*3B
###2023-12-09 13:05:57.976287$GLGSA,A,3,65,71,72,73,74,75,,,,,,,1.1,0.6,0.9*24
###2023-12-09 13:05:57.977869$GAGSA,A,3,04,19,21,27,,,,,,,,,1.1,0.6,0.9*26
###2023-12-09 13:05:57.979529$GBGSA,A,3,14,24,25,26,33,,,,,,,,1.1,0.6,0.9*2F
###2023-12-09 13:05:57.981863$GPGSV,2,1,08,03,34,259,43,04,34,311,41,16,52,213,47,26,82,210,48*78
###2023-12-09 13:05:57.984210$GPGSV,2,2,08,28,48,072,45,29,25,059,42,31,68,042,48,32,17,141,44*70
###2023-12-09 13:05:57.986551$GLGSV,2,1,06,65,26,327,41,71,39,173,46,72,73,261,45,73,34,043,45*6F
###2023-12-09 13:05:57.988314$GLGSV,2,2,06,74,69,343,43,75,33,255,43,,,,,,,,*6B
###2023-12-09 13:05:57.990649$GAGSV,1,1,04,04,31,312,40,19,83,203,40,21,86,104,46,27,32,048,42*6C
###2023-12-09 13:05:57.992984$GBGSV,2,1,05,14,42,192,43,24,72,028,48,25,42,263,44,26,25,063,42*60
###2023-12-09 13:05:57.994440$GBGSV,2,2,05,33,56,230,47,,,,,,,,,,,,*5F
###2023-12-09 13:05:57.995778$GNVTG,260.79,T,,M,3.13,N,5.80,K,A*25
###2023-12-09 13:05:57.997426$GNGST,180557.10,18.000,,,,0.080,0.067,0.150*5C
###2023-12-09 13:05:57.998725$GNZDA,180557.10,09,12,2023,00,00*7E
###2023-12-09 13:05:57.999364$GNEBP,,,,,,M*13
###2023-12-09 13:05:58.167239$GNGGA,180557.30,4138.0704092,N,07032.2772771,W,1,24,0.6,13.519,M,-29.742,M,0.0,*5A
###2023-12-09 13:05:58.367556$GNGGA,180557.50,4138.0703899,N,07032.2775150,W,1,24,0.6,13.512,M,-29.742,M,0.0,*51
###2023-12-09 13:05:58.568027$GNGGA,180557.70,4138.0703819,N,07032.2777507,W,1,24,0.6,13.498,M,-29.742,M,0.0,*5C
###2023-12-09 13:05:58.768134$GNGGA,180557.90,4138.0703790,N,07032.2779882,W,1,24,0.6,13.515,M,-29.742,M,0.0,*56
###2023-12-09 13:05:58.970411$GNRMC,180558.10,A,4138.0703923,N,07032.2782325,W,3.25,274.38,091223,,,A*58
###2023-12-09 13:05:58.973327$GNGGA,180558.10,4138.0703923,N,07032.2782325,W,1,24,0.6,13.522,M,-29.742,M,0.0,*51
###2023-12-09 13:05:58.975209$GPGSA,A,3,03,04,16,26,28,29,31,32,,,,,1.1,0.6,0.9*3B
###2023-12-09 13:05:58.976926$GLGSA,A,3,65,71,72,73,74,75,,,,,,,1.1,0.6,0.9*24
###2023-12-09 13:05:58.978513$GAGSA,A,3,04,19,21,27,,,,,,,,,1.1,0.6,0.9*26
###2023-12-09 13:05:58.980174$GBGSA,A,3,14,24,25,26,33,,,,,,,,1.1,0.6,0.9*2F
###2023-12-09 13:05:58.982510$GPGSV,2,1,08,03,34,259,41,04,34,311,42,16,52,213,46,26,82,210,48*78
###2023-12-09 13:05:58.984866$GPGSV,2,2,08,28,48,072,46,29,25,059,42,31,68,042,48,32,17,141,43*74
###2023-12-09 13:05:58.987219$GLGSV,2,1,06,65,26,327,40,71,39,173,45,72,73,261,45,73,34,043,45*6D
###2023-12-09 13:05:58.988972$GLGSV,2,2,06,74,69,343,42,75,33,255,41,,,,,,,,*68
###2023-12-09 13:05:58.991313$GAGSV,1,1,04,04,31,312,40,19,83,203,40,21,86,104,46,27,32,048,42*6C
###2023-12-09 13:05:58.993652$GBGSV,2,1,05,14,42,192,46,24,72,028,49,25,42,263,45,26,25,063,42*65
###2023-12-09 13:05:58.995126$GBGSV,2,2,05,33,56,230,49,,,,,,,,,,,,*51
###2023-12-09 13:05:58.996453$GNVTG,274.38,T,,M,3.25,N,6.01,K,A*2A
###2023-12-09 13:05:58.998108$GNGST,180558.10,18.000,,,,0.080,0.067,0.150*53
###2023-12-09 13:05:58.999415$GNZDA,180558.10,09,12,2023,00,00*71
###2023-12-09 13:05:59.000056$GNEBP,,,,,,M*13
###2023-12-09 13:05:59.168037$GNGGA,180558.30,4138.0704093,N,07032.2784695,W,1,24,0.6,13.498,M,-29.742,M,0.0,*5E
###2023-12-09 13:05:59.367610$GNGGA,180558.50,4138.0704369,N,07032.2786981,W,1,24,0.6,13.480,M,-29.742,M,0.0,*5F
###2023-12-09 13:05:59.568195$GNGGA,180558.70,4138.0704714,N,07032.2789245,W,1,24,0.6,13.483,M,-29.742,M,0.0,*5C
###2023-12-09 13:05:59.768104$GNGGA,180558.90,4138.0705088,N,07032.2791430,W,1,24,0.6,13.485,M,-29.742,M,0.0,*5A
###2023-12-09 13:06:00.012617$GNRMC,180559.10,A,4138.0705558,N,07032.2793537,W,2.97,288.04,091223,,,A*5E
###2023-12-09 13:06:00.015500$GNGGA,180559.10,4138.0705558,N,07032.2793537,W,1,24,0.6,13.495,M,-29.742,M,0.0,*5E
###2023-12-09 13:06:00.017365$GPGSA,A,3,03,04,16,26,28,29,31,32,,,,,1.1,0.6,0.9*3B
###2023-12-09 13:06:00.019095$GLGSA,A,3,65,71,72,73,74,75,,,,,,,1.1,0.6,0.9*24
###2023-12-09 13:06:00.020683$GAGSA,A,3,04,19,21,27,,,,,,,,,1.1,0.6,0.9*26
###2023-12-09 13:06:00.022334$GBGSA,A,3,14,24,25,26,33,,,,,,,,1.1,0.6,0.9*2F
###2023-12-09 13:06:00.024687$GPGSV,2,1,08,03,34,259,41,04,34,311,41,16,52,213,46,26,82,210,48*7B
###2023-12-09 13:06:00.027040$GPGSV,2,2,08,28,48,072,45,29,25,059,40,31,68,042,46,32,17,141,43*7B
###2023-12-09 13:06:00.029384$GLGSV,2,1,06,65,26,327,38,71,39,173,46,72,73,261,46,73,34,043,45*62
###2023-12-09 13:06:00.031147$GLGSV,2,2,06,74,69,343,42,75,33,255,44,,,,,,,,*6D
###2023-12-09 13:06:00.033487$GAGSV,1,1,04,04,31,312,40,19,83,203,40,21,85,094,46,27,32,048,43*66
###2023-12-09 13:06:00.035873$GBGSV,2,1,05,14,42,192,45,24,72,028,49,25,42,263,46,26,25,063,42*65
###2023-12-09 13:06:00.037584$GBGSV,2,2,05,33,56,230,47,,,,,,,,,,,,*5F
###2023-12-09 13:06:00.038934$GNVTG,288.04,T,,M,2.97,N,5.51,K,A*28
###2023-12-09 13:06:00.040595$GNGST,180559.10,18.000,,,,0.080,0.067,0.160*51
###2023-12-09 13:06:00.041895$GNZDA,180559.10,09,12,2023,00,00*70
###2023-12-09 13:06:00.042533$GNEBP,,,,,,M*13
###2023-12-09 13:06:00.168688$GNGGA,180559.30,4138.0706170,N,07032.2795669,W,1,24,0.6,13.500,M,-29.742,M,0.0,*52
###2023-12-09 13:06:00.367185$GNGGA,180559.50,4138.0706810,N,07032.2797841,W,1,24,0.6,13.494,M,-29.742,M,0.0,*51
###2023-12-09 13:06:00.568095$GNGGA,180559.70,4138.0707332,N,07032.2800052,W,1,24,0.6,13.488,M,-29.742,M,0.0,*5F
###2023-12-09 13:06:00.768151$GNGGA,180559.90,4138.0707863,N,07032.2802374,W,1,24,0.6,13.483,M,-29.742,M,0.0,*50
