###2023-12-09 13:01:52.993840$GLGSV,2,1,06,65,24,327,39,71,41,173,46,72,73,269,45,73,36,041,44*64
###2023-12-09 13:01:52.996014$GLGSV,2,2,06,74,70,337,42,75,32,253,40,,,,,,,,*65
###2023-12-09 13:01:52.998859$GAGSV,1,1,04,04,29,312,38,19,84,216,40,21,86,120,45,27,33,048,40*6F
###2023-12-09 13:01:53.001665$GBGSV,2,1,05,14,43,193,45,24,74,024,49,25,41,262,45,26,26,063,43*6C
###2023-12-09 13:01:53.003450$GBGSV,2,2,05,33,57,233,48,,,,,,,,,,,,*52
###2023-12-09 13:01:53.005065$GNVTG,289.70,T,,M,3.40,N,6.30,K,A*25
###2023-12-09 13:01:53.007114$GNGST,180152.10,18.000,,,,0.080,0.068,0.160*51
###2023-12-09 13:01:53.008690$GNZDA,180152.10,09,12,2023,00,00*7F
###2023-12-09 13:01:53.009463$GNEBP,,,,,,M*13
###2023-12-09 13:01:53.168380$GNGGA,180152.30,4138.0451043,N,07032.2797329,W,1,24,0.6,13.375,M,-29.743,M,0.0,*5B
###2023-12-09 13:01:53.365571$GNGGA,180152.50,4138.0451423,N,07032.2799796,W,1,24,0.6,13.370,M,-29.743,M,0.0,*54
###2023-12-09 13:01:53.566008$GNGGA,180152.70,4138.0451402,N,07032.2802182,W,1,24,0.6,13.371,M,-29.743,M,0.0,*5A
###2023-12-09 13:01:53.766040$GNGGA,180152.90,4138.0451220,N,07032.2804534,W,1,24,0.6,13.354,M,-29.743,M,0.0,*5A
###2023-12-09 13:01:53.968705$GNRMC,180153.10,A,4138.0451073,N,07032.2806913,W,3.25,267.48,091223,,,A*56
###2023-12-09 13:01:53.972173$GNGGA,180153.10,4138.0451073,N,07032.2806913,W,1,24,0.6,13.348,M,-29.743,M,0.0,*51
###2023-12-09 13:01:53.974409$GPGSA,A,3,03,04,16,26,28,29,31,32,,,,,1.1,0.6,0.9*3B
###2023-12-09 13:01:53.976490$GLGSA,A,3,65,71,72,73,74,75,,,,,,,1.1,0.6,0.9*24
###2023-12-09 13:01:53.978402$GAGSA,A,3,04,19,21,27,,,,,,,,,1.1,0.6,0.9*26
###2023-12-09 13:01:53.980391$GBGSA,A,3,14,24,25,26,33,,,,,,,,1.1,0.6,0.9*2F
###2023-12-09 13:01:53.983208$GPGSV,2,1,08,03,35,261,43,04,33,311,41,16,50,212,46,26,80,210,48*75
###2023-12-09 13:01:53.986019$GPGSV,2,2,08,28,49,070,46,29,25,061,41,31,69,038,48,32,19,140,45*7A
###2023-12-09 13:01:53.988892$GLGSV,2,1,06,65,24,327,40,71,41,173,45,72,73,269,44,73,36,041,45*69
###2023-12-09 13:01:53.991036$GLGSV,2,2,06,74,70,337,42,75,32,253,44,,,,,,,,*61
###2023-12-09 13:01:53.993847$GAGSV,1,1,04,04,29,312,39,19,84,216,40,21,86,120,46,27,33,048,42*6F
###2023-12-09 13:01:53.996677$GBGSV,2,1,05,14,43,193,45,24,74,024,48,25,41,262,44,26,26,063,42*6D
###2023-12-09 13:01:53.998459$GBGSV,2,2,05,33,57,233,46,,,,,,,,,,,,*5C
###2023-12-09 13:01:54.000086$GNVTG,267.48,T,,M,3.25,N,6.01,K,A*2F
###2023-12-09 13:01:54.002073$GNGST,180153.10,18.000,,,,0.080,0.068,0.160*50
###2023-12-09 13:01:54.003644$GNZDA,180153.10,09,12,2023,00,00*7E
###2023-12-09 13:01:54.004421$GNEBP,,,,,,M*13
###2023-12-09 13:01:54.166155$GNGGA,180153.30,4138.0451082,N,07032.2809327,W,1,24,0.6,13.372,M,-29.743,M,0.0,*56
###2023-12-09 13:01:54.366361$GNGGA,180153.50,4138.0450985,N,07032.2811752,W,1,24,0.6,13.397,M,-29.743,M,0.0,*5B
###2023-12-09 13:01:54.566874$GNGGA,180153.70,4138.0450491,N,07032.2814016,W,1,24,0.6,13.384,M,-29.743,M,0.0,*51
###2023-12-09 13:01:54.767117$GNGGA,180153.90,4138.0450094,N,07032.2816329,W,1,24,0.6,13.364,M,-29.743,M,0.0,*5D
###2023-12-09 13:01:54.968166$GNRMC,180154.10,A,4138.0450135,N,07032.2818866,W,3.46,274.44,091223,,,A*54
###2023-12-09 13:01:54.971034$GNGGA,180154.10,4138.0450135,N,07032.2818866,W,1,24,0.6,13.389,M,-29.743,M,0.0,*55
###2023-12-09 13:01:54.972886$GPGSA,A,3,03,04,16,26,28,29,31,32,,,,,1.1,0.6,0.9*3B
###2023-12-09 13:01:54.974619$GLGSA,A,3,65,71,72,73,74,75,,,,,,,1.1,0.6,0.9*24
###2023-12-09 13:01:54.976209$GAGSA,A,3,04,19,21,27,,,,,,,,,1.1,0.6,0.9*26
###2023-12-09 13:01:54.977853$GBGSA,A,3,14,24,25,26,33,,,,,,,,1.1,0.6,0.9*2F
###2023-12-09 13:01:54.980196$GPGSV,2,1,08,03,35,261,43,04,33,311,41,16,50,212,46,26,80,210,47*7A
###2023-12-09 13:01:54.982524$GPGSV,2,2,08,28,49,070,45,29,25,061,40,31,69,038,47,32,19,140,44*76
###2023-12-09 13:01:54.984856$GLGSV,2,1,06,65,24,327,39,71,41,173,46,72,73,269,45,73,36,041,45*65
###2023-12-09 13:01:54.986640$GLGSV,2,2,06,74,70,337,42,75,32,253,44,,,,,,,,*61
###2023-12-09 13:01:54.988966$GAGSV,1,1,04,04,29,312,39,19,84,216,40,21,86,120,45,27,33,048,41*6F
###2023-12-09 13:01:54.991295$GBGSV,2,1,05,14,43,193,45,24,74,024,48,25,41,262,43,26,26,063,42*6A
###2023-12-09 13:01:54.992756$GBGSV,2,2,05,33,57,233,47,,,,,,,,,,,,*5D
###2023-12-09 13:01:54.994077$GNVTG,274.44,T,,M,3.46,N,6.41,K,A*20
###2023-12-09 13:01:54.995738$GNGST,180154.10,18.000,,,,0.080,0.068,0.160*57
###2023-12-09 13:01:54.997030$GNZDA,180154.10,09,12,2023,00,00*79
###2023-12-09 13:01:54.997669$GNEBP,,,,,,M*13
###2023-12-09 13:01:55.165924$GNGGA,180154.30,4138.0450155,N,07032.2821386,W,1,24,0.6,13.398,M,-29.743,M,0.0,*5E
###2023-12-09 13:01:55.368547$GNGGA,180154.50,4138.0449791,N,07032.2823789,W,1,24,0.6,13.403,M,-29.743,M,0.0,*52
###2023-12-09 13:01:55.567333$GNGGA,180154.70,4138.0449562,N,07032.2826224,W,1,24,0.6,13.399,M,-29.743,M,0.0,*5D
###2023-12-09 13:01:55.765333$GNGGA,180154.90,4138.0449622,N,07032.2828798,W,1,24,0.6,13.399,M,-29.743,M,0.0,*58
###2023-12-09 13:01:55.967814$GNRMC,180155.10,A,4138.0449662,N,07032.2831366,W,3.38,267.88,091223,,,A*53
###2023-12-09 13:01:55.971270$GNGGA,180155.10,4138.0449662,N,07032.2831366,W,1,24,0.6,13.391,M,-29.743,M,0.0,*50
###2023-12-09 13:01:55.973508$GPGSA,A,3,03,04,16,26,28,29,31,32,,,,,1.1,0.6,0.9*3B
###2023-12-09 13:01:55.975596$GLGSA,A,3,65,71,72,73,74,75,,,,,,,1.1,0.6,0.9*24
###2023-12-09 13:01:55.977502$GAGSA,A,3,04,19,21,27,,,,,,,,,1.1,0.6,0.9*26
###2023-12-09 13:01:55.979496$GBGSA,A,3,14,24,25,26,33,,,,,,,,1.1,0.6,0.9*2F
###2023-12-09 13:01:55.982302$GPGSV,2,1,08,03,35,261,43,04,33,311,41,16,50,212,46,26,80,210,47*7A
###2023-12-09 13:01:55.985129$GPGSV,2,2,08,28,49,070,45,29,25,061,42,31,69,038,47,32,19,140,43*73
###2023-12-09 13:01:55.988013$GLGSV,2,1,06,65,24,327,41,71,41,173,47,72,73,269,45,73,36,041,46*68
###2023-12-09 13:01:55.990116$GLGSV,2,2,06,74,70,337,42,75,32,253,42,,,,,,,,*67
###2023-12-09 13:01:55.992930$GAGSV,1,1,04,04,29,312,40,19,84,216,40,21,86,120,46,27,33,048,42*61
###2023-12-09 13:01:55.995760$GBGSV,2,1,05,14,43,193,45,24,74,024,49,25,41,262,45,26,26,063,43*6C
###2023-12-09 13:01:55.997509$GBGSV,2,2,05,33,57,233,47,,,,,,,,,,,,*5D
###2023-12-09 13:01:55.999118$GNVTG,267.88,T,,M,3.38,N,6.26,K,A*2A
###2023-12-09 13:01:56.001107$GNGST,180155.10,18.000,,,,0.080,0.068,0.160*56
###2023-12-09 13:01:56.002672$GNZDA,180155.10,09,12,2023,00,00*78
###2023-12-09 13:01:56.003440$GNEBP,,,,,,M*13
###2023-12-09 13:01:56.165768$GNGGA,180155.30,4138.0449471,N,07032.2833829,W,1,24,0.6,13.393,M,-29.743,M,0.0,*52
###2023-12-09 13:01:56.367120$GNGGA,180155.50,4138.0449294,N,07032.2836325,W,1,24,0.6,13.403,M,-29.743,M,0.0,*55
###2023-12-09 13:01:56.566100$GNGGA,180155.70,4138.0449394,N,07032.2838819,W,1,24,0.6,13.406,M,-29.743,M,0.0,*59
###2023-12-09 13:01:56.766761$GNGGA,180155.90,4138.0449684,N,07032.2841269,W,1,24,0.6,13.415,M,-29.743,M,0.0,*52
###2023-12-09 13:01:56.973818$GNRMC,180156.10,A,4138.0449865,N,07032.2843697,W,3.30,274.18,091223,,,A*54
###2023-12-09 13:01:56.976701$GNGGA,180156.10,4138.0449865,N,07032.2843697,W,1,24,0.6,13.409,M,-29.743,M,0.0,*52
###2023-12-09 13:01:56.978553$GPGSA,A,3,03,04,16,26,28,29,31,32,,,,,1.1,0.6,0.9*3B
###2023-12-09 13:01:56.980270$GLGSA,A,3,65,71,72,73,74,75,,,,,,,1.1,0.6,0.9*24
###2023-12-09 13:01:56.981848$GAGSA,A,3,04,19,21,27,,,,,,,,,1.1,0.6,0.9*26
###2023-12-09 13:01:56.983502$GBGSA,A,3,14,24,25,26,33,,,,,,,,1.1,0.6,0.9*2F
###2023-12-09 13:01:56.985822$GPGSV,2,1,08,03,35,261,42,04,33,311,42,16,50,212,45,26,80,210,48*74
###2023-12-09 13:01:56.988160$GPGSV,2,2,08,28,49,070,46,29,25,061,41,31,69,038,47,32,19,140,43*73
###2023-12-09 13:01:56.990487$GLGSV,2,1,06,65,24,327,39,71,41,173,46,72,73,269,45,73,36,041,46*66
###2023-12-09 13:01:56.992238$GLGSV,2,2,06,74,70,337,42,75,32,253,43,,,,,,,,*66
###2023-12-09 13:01:56.994570$GAGSV,1,1,04,04,29,312,39,19,84,216,40,21,86,120,46,27,33,048,43*6E
###2023-12-09 13:01:56.996895$GBGSV,2,1,05,14,43,193,45,24,74,024,48,25,41,262,44,26,26,063,41*6E
###2023-12-09 13:01:56.998344$GBGSV,2,2,05,33,57,233,47,,,,,,,,,,,,*5D
###2023-12-09 13:01:56.999670$GNVTG,274.18,T,,M,3.30,N,6.12,K,A*2E
###2023-12-09 13:01:57.001315$GNGST,180156.10,18.000,,,,0.080,0.069,0.160*54
###2023-12-09 13:01:57.002865$GNZDA,180156.10,09,12,2023,00,00*7B
###2023-12-09 13:01:57.003517$GNEBP,,,,,,M*13
###2023-12-09 13:01:57.170428$GNGGA,180156.30,4138.0450027,N,07032.2846131,W,1,24,0.6,13.395,M,-29.743,M,0.0,*5A
###2023-12-09 13:01:57.365735$GNGGA,180156.50,4138.0450461,N,07032.2848512,W,1,24,0.6,13.406,M,-29.743,M,0.0,*5C
###2023-12-09 13:01:57.565026$GNGGA,180156.70,4138.0451065,N,07032.2850903,W,1,24,0.6,13.425,M,-29.743,M,0.0,*5B
###2023-12-09 13:01:57.767730$GNGGA,180156.90,4138.0451580,N,07032.2853360,W,1,24,0.6,13.433,M,-29.743,M,0.0,*50
###2023-12-09 13:01:57.969165$GNRMC,180157.10,A,4138.0451998,N,07032.2855894,W,3.56,281.89,091223,,,A*57
###2023-12-09 13:01:57.972050$GNGGA,180157.10,4138.0451998,N,07032.2855894,W,1,24,0.6,13.438,M,-29.743,M,0.0,*51
###2023-12-09 13:01:57.973910$GPGSA,A,3,03,04,16,26,28,29,31,32,,,,,1.1,0.6,0.9*3B
