###2023-12-09 12:40:22.541735$GNGGA,174021.70,4138.0574970,N,07032.3835671,W,1,23,0.7,13.449,M,-29.744,M,0.0,*59
###2023-12-09 12:40:22.741659$GNGGA,174021.90,4138.0575353,N,07032.3836168,W,1,23,0.7,13.463,M,-29.744,M,0.0,*59
###2023-12-09 12:40:22.944294$GNRMC,174022.10,A,4138.0575490,N,07032.3836266,W,0.25,313.88,091223,,,A*52
###2023-12-09 12:40:22.947780$GNGGA,174022.10,4138.0575490,N,07032.3836266,W,1,23,0.7,13.437,M,-29.744,M,0.0,*56
###2023-12-09 12:40:22.950038$GPGSA,A,3,03,04,16,26,28,29,31,32,,,,,1.2,0.7,1.0*31
###2023-12-09 12:40:22.952052$GLGSA,A,3,71,72,73,74,75,,,,,,,,1.2,0.7,1.0*2D
###2023-12-09 12:40:22.953967$GAGSA,A,3,04,19,21,27,,,,,,,,,1.2,0.7,1.0*2C
###2023-12-09 12:40:22.955974$GBGSA,A,3,14,24,25,26,33,,,,,,,,1.2,0.7,1.0*25
###2023-12-09 12:40:22.958797$GPGSV,2,1,08,03,38,274,45,04,24,311,43,16,39,208,42,26,69,207,46*71
###2023-12-09 12:40:22.961608$GPGSV,2,2,08,28,56,059,44,29,25,071,43,31,73,010,48,32,28,135,44*7E
###2023-12-09 12:40:22.964472$GLGSV,2,1,05,71,54,170,47,72,68,305,47,73,45,035,47,74,71,299,43*6F
###2023-12-09 12:40:22.966232$GLGSV,2,2,05,75,24,243,42,,,,,,,,,,,,*57
###2023-12-09 12:40:22.969048$GAGSV,1,1,04,04,23,311,41,19,82,296,40,21,79,174,44,27,40,049,44*67
###2023-12-09 12:40:22.971885$GBGSV,2,1,05,14,53,197,44,24,80,355,47,25,34,254,43,26,33,058,46*60
###2023-12-09 12:40:22.973641$GBGSV,2,2,05,33,62,250,47,,,,,,,,,,,,*5E
###2023-12-09 12:40:22.975251$GNVTG,313.88,T,,M,0.25,N,0.47,K,A*26
###2023-12-09 12:40:22.977237$GNGST,174022.10,18.000,,,,0.078,0.069,0.160*5A
###2023-12-09 12:40:22.978837$GNZDA,174022.10,09,12,2023,00,00*72
###2023-12-09 12:40:22.979610$GNEBP,,,,,,M*13
###2023-12-09 12:40:23.142105$GNGGA,174022.30,4138.0575417,N,07032.3836064,W,1,23,0.7,13.404,M,-29.744,M,0.0,*5B
###2023-12-09 12:40:23.342749$GNGGA,174022.50,4138.0575608,N,07032.3836378,W,1,23,0.7,13.438,M,-29.744,M,0.0,*50
###2023-12-09 12:40:23.542825$GNGGA,174022.70,4138.0576059,N,07032.3837050,W,1,23,0.7,13.463,M,-29.744,M,0.0,*55
###2023-12-09 12:40:23.741918$GNGGA,174022.90,4138.0576248,N,07032.3837269,W,1,23,0.7,13.458,M,-29.744,M,0.0,*59
###2023-12-09 12:40:23.942525$GNRMC,174023.10,A,4138.0576105,N,07032.3836986,W,0.58,313.28,091223,,,A*5C
###2023-12-09 12:40:23.946007$GNGGA,174023.10,4138.0576105,N,07032.3836986,W,1,23,0.7,13.452,M,-29.744,M,0.0,*5B
###2023-12-09 12:40:23.948280$GPGSA,A,3,03,04,16,26,28,29,31,32,,,,,1.2,0.7,1.0*31
###2023-12-09 12:40:23.950296$GLGSA,A,3,71,72,73,74,75,,,,,,,,1.2,0.7,1.0*2D
###2023-12-09 12:40:23.952236$GAGSA,A,3,04,19,21,27,,,,,,,,,1.2,0.7,1.0*2C
###2023-12-09 12:40:23.954278$GBGSA,A,3,14,24,25,26,33,,,,,,,,1.2,0.7,1.0*25
###2023-12-09 12:40:23.957134$GPGSV,2,1,08,03,38,274,43,04,24,311,42,16,39,208,42,26,69,207,47*77
###2023-12-09 12:40:23.959996$GPGSV,2,2,08,28,56,059,45,29,25,071,43,31,73,010,48,32,28,135,45*7E
###2023-12-09 12:40:23.962835$GLGSV,2,1,05,71,54,170,48,72,68,305,46,73,45,035,46,74,71,299,43*60
###2023-12-09 12:40:23.964600$GLGSV,2,2,05,75,24,243,41,,,,,,,,,,,,*54
###2023-12-09 12:40:23.967428$GAGSV,1,1,04,04,23,311,41,19,82,296,40,21,79,174,45,27,40,049,44*66
###2023-12-09 12:40:23.970261$GBGSV,2,1,05,14,53,197,44,24,80,355,47,25,34,254,42,26,33,058,45*62
###2023-12-09 12:40:23.972057$GBGSV,2,2,05,33,62,250,46,,,,,,,,,,,,*5F
###2023-12-09 12:40:23.973667$GNVTG,313.28,T,,M,0.58,N,1.08,K,A*2C
###2023-12-09 12:40:23.975678$GNGST,174023.10,18.000,,,,0.078,0.069,0.160*5B
###2023-12-09 12:40:23.977249$GNZDA,174023.10,09,12,2023,00,00*73
###2023-12-09 12:40:23.978023$GNEBP,,,,,,M*13
###2023-12-09 12:40:24.142101$GNGGA,174023.30,4138.0576128,N,07032.3836992,W,1,23,0.7,13.436,M,-29.744,M,0.0,*51
###2023-12-09 12:40:24.341437$GNGGA,174023.50,4138.0576524,N,07032.3837604,W,1,23,0.7,13.464,M,-29.744,M,0.0,*59
###2023-12-09 12:40:24.541932$GNGGA,174023.70,4138.0576858,N,07032.3838076,W,1,23,0.7,13.466,M,-29.744,M,0.0,*53
###2023-12-09 12:40:24.741923$GNGGA,174023.90,4138.0576804,N,07032.3837981,W,1,23,0.7,13.475,M,-29.744,M,0.0,*58
###2023-12-09 12:40:24.943615$GNRMC,174024.10,A,4138.0576702,N,07032.3837787,W,0.08,315.09,091223,,,A*54
###2023-12-09 12:40:24.947113$GNGGA,174024.10,4138.0576702,N,07032.3837787,W,1,23,0.7,13.473,M,-29.744,M,0.0,*50
###2023-12-09 12:40:24.949390$GPGSA,A,3,03,04,16,26,28,29,31,32,,,,,1.2,0.7,1.0*31
###2023-12-09 12:40:24.951409$GLGSA,A,3,71,72,73,74,75,,,,,,,,1.2,0.7,1.0*2D
###2023-12-09 12:40:24.953326$GAGSA,A,3,04,19,21,27,,,,,,,,,1.2,0.7,1.0*2C
###2023-12-09 12:40:24.955334$GBGSA,A,3,14,24,25,26,33,,,,,,,,1.2,0.7,1.0*25
###2023-12-09 12:40:24.958151$GPGSV,2,1,08,03,38,274,44,04,24,311,41,16,39,208,42,26,69,207,46*72
###2023-12-09 12:40:24.960997$GPGSV,2,2,08,28,56,059,46,29,25,071,44,31,73,010,47,32,28,135,45*75
###2023-12-09 12:40:24.963832$GLGSV,2,1,05,71,54,170,48,72,68,305,46,73,45,035,46,74,71,299,43*60
###2023-12-09 12:40:24.965596$GLGSV,2,2,05,75,24,243,39,,,,,,,,,,,,*5B
###2023-12-09 12:40:24.968441$GAGSV,1,1,04,04,23,311,40,19,82,296,41,21,79,174,46,27,40,049,45*64
###2023-12-09 12:40:24.971282$GBGSV,2,1,05,14,53,197,45,24,80,355,48,25,34,254,43,26,33,058,46*6E
###2023-12-09 12:40:24.973064$GBGSV,2,2,05,33,62,250,46,,,,,,,,,,,,*5F
###2023-12-09 12:40:24.974689$GNVTG,315.09,T,,M,0.08,N,0.14,K,A*20
###2023-12-09 12:40:24.976696$GNGST,174024.10,19.000,,,,0.078,0.069,0.160*5D
###2023-12-09 12:40:24.978300$GNZDA,174024.10,09,12,2023,00,00*74
###2023-12-09 12:40:24.979088$GNEBP,,,,,,M*13
###2023-12-09 12:40:25.140696$GNGGA,174024.30,4138.0576922,N,07032.3838106,W,1,23,0.7,13.482,M,-29.744,M,0.0,*50
###2023-12-09 12:40:25.341415$GNGGA,174024.50,4138.0577277,N,07032.3838587,W,1,23,0.7,13.493,M,-29.744,M,0.0,*51
###2023-12-09 12:40:25.541919$GNGGA,174024.70,4138.0577398,N,07032.3838785,W,1,23,0.7,13.495,M,-29.744,M,0.0,*55
###2023-12-09 12:40:25.740907$GNGGA,174024.90,4138.0577384,N,07032.3838766,W,1,23,0.7,13.519,M,-29.744,M,0.0,*5E
###2023-12-09 12:40:25.943841$GNRMC,174025.10,A,4138.0577507,N,07032.3838894,W,0.52,315.09,091223,,,A*5E
###2023-12-09 12:40:25.947328$GNGGA,174025.10,4138.0577507,N,07032.3838894,W,1,23,0.7,13.522,M,-29.744,M,0.0,*50
###2023-12-09 12:40:25.949586$GPGSA,A,3,03,04,16,26,28,29,31,32,,,,,1.2,0.7,1.0*31
###2023-12-09 12:40:25.951597$GLGSA,A,3,71,72,73,74,75,,,,,,,,1.2,0.7,1.0*2D
###2023-12-09 12:40:25.953511$GAGSA,A,3,04,19,21,27,,,,,,,,,1.2,0.7,1.0*2C
###2023-12-09 12:40:25.955549$GBGSA,A,3,14,24,25,26,33,,,,,,,,1.2,0.7,1.0*25
###2023-12-09 12:40:25.958369$GPGSV,2,1,08,03,38,274,44,04,24,311,42,16,39,208,42,26,69,207,47*70
###2023-12-09 12:40:25.961219$GPGSV,2,2,08,28,56,059,45,29,25,071,44,31,73,010,47,32,28,135,45*76
###2023-12-09 12:40:25.964046$GLGSV,2,1,05,71,54,170,48,72,68,305,46,73,45,035,47,74,71,299,42*60
###2023-12-09 12:40:25.965803$GLGSV,2,2,05,75,24,243,39,,,,,,,,,,,,*5B
###2023-12-09 12:40:25.968621$GAGSV,1,1,04,04,23,311,42,19,83,293,40,21,79,174,45,27,40,049,44*61
###2023-12-09 12:40:25.971453$GBGSV,2,1,05,14,53,197,46,24,80,355,49,25,34,254,44,26,33,058,46*6B
###2023-12-09 12:40:25.973207$GBGSV,2,2,05,33,62,250,47,,,,,,,,,,,,*5E
###2023-12-09 12:40:25.974833$GNVTG,315.09,T,,M,0.52,N,0.97,K,A*24
###2023-12-09 12:40:25.976823$GNGST,174025.10,19.000,,,,0.078,0.069,0.160*5C
###2023-12-09 12:40:25.978385$GNZDA,174025.10,09,12,2023,00,00*75
###2023-12-09 12:40:25.979174$GNEBP,,,,,,M*13
###2023-12-09 12:40:26.147447$GNGGA,174025.30,4138.0577744,N,07032.3839189,W,1,23,0.7,13.518,M,-29.744,M,0.0,*5A
###2023-12-09 12:40:26.341231$GNGGA,174025.50,4138.0577907,N,07032.3839400,W,1,23,0.7,13.512,M,-29.744,M,0.0,*5B
###2023-12-09 12:40:26.543489$GNGGA,174025.70,4138.0578013,N,07032.3839532,W,1,23,0.7,13.528,M,-29.744,M,0.0,*53
###2023-12-09 12:40:26.740919$GNGGA,174025.90,4138.0578163,N,07032.3839732,W,1,23,0.7,13.554,M,-29.744,M,0.0,*52
###2023-12-09 12:40:26.942289$GNRMC,174026.10,A,4138.0578364,N,07032.3840017,W,0.52,315.09,091223,,,A*5D
###2023-12-09 12:40:26.945758$GNGGA,174026.10,4138.0578364,N,07032.3840017,W,1,23,0.7,13.570,M,-29.744,M,0.0,*54
###2023-12-09 12:40:26.948071$GPGSA,A,3,03,04,16,26,28,29,31,32,,,,,1.2,0.7,1.0*31
###2023-12-09 12:40:26.950092$GLGSA,A,3,71,72,73,74,75,,,,,,,,1.2,0.7,1.0*2D
###2023-12-09 12:40:26.952023$GAGSA,A,3,04,19,21,27,,,,,,,,,1.2,0.7,1.0*2C
###2023-12-09 12:40:26.954309$GBGSA,A,3,14,24,25,26,33,,,,,,,,1.2,0.7,1.0*25
###2023-12-09 12:40:26.957145$GPGSV,2,1,08,03,38,274,44,04,24,311,42,16,39,208,43,26,69,207,47*71
###2023-12-09 12:40:26.959992$GPGSV,2,2,08,28,56,059,45,29,25,071,43,31,73,010,48,32,28,135,44*7F
###2023-12-09 12:40:26.962823$GLGSV,2,1,05,71,54,170,47,72,68,305,47,73,45,035,47,74,71,299,43*6F
###2023-12-09 12:40:26.964583$GLGSV,2,2,05,75,24,243,43,,,,,,,,,,,,*56
###2023-12-09 12:40:26.967416$GAGSV,1,1,04,04,23,311,42,19,83,293,41,21,80,172,46,27,40,049,45*62
###2023-12-09 12:40:26.970217$GBGSV,2,1,05,14,53,197,44,24,80,355,48,25,34,254,44,26,33,058,45*6B
###2023-12-09 12:40:26.971999$GBGSV,2,2,05,33,62,250,46,,,,,,,,,,,,*5F
###2023-12-09 12:40:26.973593$GNVTG,315.09,T,,M,0.52,N,0.97,K,A*24
