###2023-12-09 12:47:35.959281$GBGSA,A,3,14,24,25,26,33,,,,,,,,1.1,0.6,0.9*2F
###2023-12-09 12:47:35.961643$GPGSV,2,1,08,03,37,269,46,04,27,311,39,16,43,209,47,26,72,208,48*7D
###2023-12-09 12:47:35.964010$GPGSV,2,2,08,28,54,062,44,29,26,068,41,31,72,018,47,32,25,137,40*70
###2023-12-09 12:47:35.966353$GLGSV,2,1,06,65,17,329,41,71,49,171,47,72,70,294,48,73,42,037,46*62
###2023-12-09 12:47:35.968120$GLGSV,2,2,06,74,71,314,43,75,27,246,43,,,,,,,,*67
###2023-12-09 12:47:35.970446$GAGSV,1,1,04,04,24,312,41,19,84,276,41,21,82,165,46,27,38,049,45*62
###2023-12-09 12:47:35.972799$GBGSV,2,1,05,14,50,195,46,24,78,008,49,25,36,257,46,26,31,060,43*69
###2023-12-09 12:47:35.974260$GBGSV,2,2,05,33,61,243,48,,,,,,,,,,,,*50
###2023-12-09 12:47:35.975533$GNVTG,7.86,T,,M,0.21,N,0.40,K,A*2D
###2023-12-09 12:47:35.977183$GNGST,174735.10,18.000,,,,0.077,0.068,0.160*55
###2023-12-09 12:47:35.978471$GNZDA,174735.10,09,12,2023,00,00*73
###2023-12-09 12:47:35.979122$GNEBP,,,,,,M*13
###2023-12-09 12:47:36.147128$GNGGA,174735.30,4138.0507253,N,07032.3989477,W,1,24,0.6,13.355,M,-29.745,M,0.0,*5E
###2023-12-09 12:47:36.347004$GNGGA,174735.50,4138.0507485,N,07032.3989534,W,1,24,0.6,13.350,M,-29.745,M,0.0,*56
###2023-12-09 12:47:36.547153$GNGGA,174735.70,4138.0507618,N,07032.3989614,W,1,24,0.6,13.351,M,-29.745,M,0.0,*52
###2023-12-09 12:47:36.746101$GNGGA,174735.90,4138.0507706,N,07032.3989684,W,1,24,0.6,13.366,M,-29.745,M,0.0,*5F
###2023-12-09 12:47:36.945930$GNRMC,174736.10,A,4138.0507879,N,07032.3989708,W,0.39,7.86,091223,,,A*53
###2023-12-09 12:47:36.948838$GNGGA,174736.10,4138.0507879,N,07032.3989708,W,1,24,0.6,13.385,M,-29.745,M,0.0,*5B
###2023-12-09 12:47:36.950776$GPGSA,A,3,03,04,16,26,28,29,31,32,,,,,1.1,0.6,0.9*3B
###2023-12-09 12:47:36.952509$GLGSA,A,3,65,71,72,73,74,75,,,,,,,1.1,0.6,0.9*24
###2023-12-09 12:47:36.954102$GAGSA,A,3,04,19,21,27,,,,,,,,,1.1,0.6,0.9*26
###2023-12-09 12:47:36.955781$GBGSA,A,3,14,24,25,26,33,,,,,,,,1.1,0.6,0.9*2F
###2023-12-09 12:47:36.958126$GPGSV,2,1,08,03,37,269,46,04,27,311,40,16,43,209,47,26,72,208,47*7C
###2023-12-09 12:47:36.960493$GPGSV,2,2,08,28,54,062,45,29,26,068,43,31,72,018,47,32,25,137,42*71
###2023-12-09 12:47:36.962861$GLGSV,2,1,06,65,17,329,42,71,49,171,46,72,70,294,47,73,42,037,46*6F
###2023-12-09 12:47:36.964624$GLGSV,2,2,06,74,71,314,43,75,27,246,44,,,,,,,,*60
###2023-12-09 12:47:36.966978$GAGSV,1,1,04,04,24,312,40,19,84,276,41,21,82,165,46,27,38,049,43*65
###2023-12-09 12:47:36.969322$GBGSV,2,1,05,14,50,195,45,24,78,008,48,25,36,257,46,26,31,060,42*6A
###2023-12-09 12:47:36.970798$GBGSV,2,2,05,33,61,243,48,,,,,,,,,,,,*50
###2023-12-09 12:47:36.972064$GNVTG,7.86,T,,M,0.39,N,0.72,K,A*25
###2023-12-09 12:47:36.973723$GNGST,174736.10,18.000,,,,0.077,0.068,0.160*56
###2023-12-09 12:47:36.975032$GNZDA,174736.10,09,12,2023,00,00*70
###2023-12-09 12:47:36.975678$GNEBP,,,,,,M*13
###2023-12-09 12:47:37.147229$GNGGA,174736.30,4138.0508109,N,07032.3989751,W,1,24,0.6,13.381,M,-29.745,M,0.0,*50
###2023-12-09 12:47:37.346228$GNGGA,174736.50,4138.0508239,N,07032.3989818,W,1,24,0.6,13.374,M,-29.745,M,0.0,*5E
###2023-12-09 12:47:37.546339$GNGGA,174736.70,4138.0508352,N,07032.3989906,W,1,24,0.6,13.365,M,-29.745,M,0.0,*5E
###2023-12-09 12:47:37.746150$GNGGA,174736.90,4138.0508599,N,07032.3989959,W,1,24,0.6,13.372,M,-29.745,M,0.0,*5D
###2023-12-09 12:47:37.945963$GNRMC,174737.10,A,4138.0508890,N,07032.3990032,W,0.39,7.86,091223,,,A*5C
###2023-12-09 12:47:37.948873$GNGGA,174737.10,4138.0508890,N,07032.3990032,W,1,24,0.6,13.392,M,-29.745,M,0.0,*52
###2023-12-09 12:47:37.950776$GPGSA,A,3,03,04,16,26,28,29,31,32,,,,,1.1,0.6,0.9*3B
###2023-12-09 12:47:37.952504$GLGSA,A,3,65,71,72,73,74,75,,,,,,,1.1,0.6,0.9*24
###2023-12-09 12:47:37.954090$GAGSA,A,3,04,19,21,27,,,,,,,,,1.1,0.6,0.9*26
###2023-12-09 12:47:37.955756$GBGSA,A,3,14,24,25,26,33,,,,,,,,1.1,0.6,0.9*2F
###2023-12-09 12:47:37.958079$GPGSV,2,1,08,03,37,269,46,04,27,311,42,16,43,209,44,26,72,208,48*72
###2023-12-09 12:47:37.960418$GPGSV,2,2,08,28,54,062,45,29,26,068,42,31,72,018,47,32,25,137,41*73
###2023-12-09 12:47:37.962760$GLGSV,2,1,06,65,17,329,42,71,49,171,47,72,70,294,47,73,42,037,46*6E
###2023-12-09 12:47:37.964509$GLGSV,2,2,06,74,71,314,43,75,27,246,44,,,,,,,,*60
###2023-12-09 12:47:37.966866$GAGSV,1,1,04,04,24,312,41,19,84,276,40,21,82,165,46,27,38,049,42*64
###2023-12-09 12:47:37.969201$GBGSV,2,1,05,14,50,195,45,24,78,008,49,25,36,257,46,26,31,060,43*6A
###2023-12-09 12:47:37.970670$GBGSV,2,2,05,33,61,243,47,,,,,,,,,,,,*5F
###2023-12-09 12:47:37.971935$GNVTG,7.86,T,,M,0.39,N,0.72,K,A*25
###2023-12-09 12:47:37.973581$GNGST,174737.10,18.000,,,,0.077,0.068,0.160*57
###2023-12-09 12:47:37.974881$GNZDA,174737.10,09,12,2023,00,00*71
###2023-12-09 12:47:37.975522$GNEBP,,,,,,M*13
###2023-12-09 12:47:38.145917$GNGGA,174737.30,4138.0509003,N,07032.3990041,W,1,24,0.6,13.397,M,-29.745,M,0.0,*52
###2023-12-09 12:47:38.346232$GNGGA,174737.50,4138.0509012,N,07032.3990062,W,1,24,0.6,13.388,M,-29.745,M,0.0,*5B
###2023-12-09 12:47:38.546301$GNGGA,174737.70,4138.0509161,N,07032.3990155,W,1,24,0.6,13.374,M,-29.745,M,0.0,*5A
###2023-12-09 12:47:38.746177$GNGGA,174737.90,4138.0509573,N,07032.3990340,W,1,24,0.6,13.387,M,-29.745,M,0.0,*59
###2023-12-09 12:47:38.945952$GNRMC,174738.10,A,4138.0509852,N,07032.3990437,W,0.17,7.86,091223,,,A*51
###2023-12-09 12:47:38.948850$GNGGA,174738.10,4138.0509852,N,07032.3990437,W,1,24,0.6,13.401,M,-29.745,M,0.0,*5E
###2023-12-09 12:47:38.950775$GPGSA,A,3,03,04,16,26,28,29,31,32,,,,,1.1,0.6,0.9*3B
###2023-12-09 12:47:38.952492$GLGSA,A,3,65,71,72,73,74,75,,,,,,,1.1,0.6,0.9*24
###2023-12-09 12:47:38.954073$GAGSA,A,3,04,19,21,27,,,,,,,,,1.1,0.6,0.9*26
###2023-12-09 12:47:38.955740$GBGSA,A,3,14,24,25,26,33,,,,,,,,1.1,0.6,0.9*2F
###2023-12-09 12:47:38.958072$GPGSV,2,1,08,03,37,269,45,04,27,311,42,16,43,209,45,26,72,208,48*70
###2023-12-09 12:47:38.960428$GPGSV,2,2,08,28,54,062,44,29,26,068,41,31,72,018,47,32,25,137,41*71
###2023-12-09 12:47:38.962780$GLGSV,2,1,06,65,17,329,44,71,49,171,47,72,70,294,47,73,42,037,45*6B
###2023-12-09 12:47:38.964538$GLGSV,2,2,06,74,71,314,43,75,27,246,44,,,,,,,,*60
###2023-12-09 12:47:38.966886$GAGSV,1,1,04,04,24,312,42,19,84,276,41,21,82,165,46,27,38,049,41*65
###2023-12-09 12:47:38.969224$GBGSV,2,1,05,14,50,195,44,24,78,008,49,25,36,257,45,26,31,060,43*68
###2023-12-09 12:47:38.970696$GBGSV,2,2,05,33,61,243,46,,,,,,,,,,,,*5E
###2023-12-09 12:47:38.971957$GNVTG,7.86,T,,M,0.17,N,0.32,K,A*2D
###2023-12-09 12:47:38.973606$GNGST,174738.10,18.000,,,,0.077,0.068,0.160*58
###2023-12-09 12:47:38.974910$GNZDA,174738.10,09,12,2023,00,00*7E
###2023-12-09 12:47:38.975550$GNEBP,,,,,,M*13
###2023-12-09 12:47:39.146556$GNGGA,174738.30,4138.0509835,N,07032.3990429,W,1,24,0.6,13.408,M,-29.745,M,0.0,*5B
###2023-12-09 12:47:39.347301$GNGGA,174738.50,4138.0509788,N,07032.3990441,W,1,24,0.6,13.393,M,-29.745,M,0.0,*5F
###2023-12-09 12:47:39.546371$GNGGA,174738.70,4138.0510086,N,07032.3990571,W,1,24,0.6,13.387,M,-29.745,M,0.0,*5B
###2023-12-09 12:47:39.747157$GNGGA,174738.90,4138.0510563,N,07032.3990815,W,1,24,0.6,13.390,M,-29.745,M,0.0,*52
###2023-12-09 12:47:39.945846$GNRMC,174739.10,A,4138.0510734,N,07032.3990911,W,0.08,7.86,091223,,,A*50
###2023-12-09 12:47:39.948750$GNGGA,174739.10,4138.0510734,N,07032.3990911,W,1,24,0.6,13.396,M,-29.745,M,0.0,*58
###2023-12-09 12:47:39.950656$GPGSA,A,3,03,04,16,26,28,29,31,32,,,,,1.1,0.6,0.9*3B
###2023-12-09 12:47:39.952375$GLGSA,A,3,65,71,72,73,74,75,,,,,,,1.1,0.6,0.9*24
###2023-12-09 12:47:39.953958$GAGSA,A,3,04,19,21,27,,,,,,,,,1.1,0.6,0.9*26
###2023-12-09 12:47:39.955623$GBGSA,A,3,14,24,25,26,33,,,,,,,,1.1,0.6,0.9*2F
###2023-12-09 12:47:39.957944$GPGSV,2,1,08,03,37,269,46,04,27,311,43,16,43,209,44,26,72,208,48*73
###2023-12-09 12:47:39.960291$GPGSV,2,2,08,28,54,062,44,29,26,068,40,31,72,018,47,32,25,137,39*7F
###2023-12-09 12:47:39.962639$GLGSV,2,1,06,65,17,329,44,71,49,171,47,72,70,294,47,73,42,037,46*68
###2023-12-09 12:47:39.964383$GLGSV,2,2,06,74,71,314,43,75,27,246,44,,,,,,,,*60
###2023-12-09 12:47:39.966719$GAGSV,1,1,04,04,24,312,42,19,84,276,41,21,82,165,46,27,38,049,41*65
###2023-12-09 12:47:39.969040$GBGSV,2,1,05,14,50,195,45,24,78,008,48,25,36,257,45,26,31,060,44*6F
###2023-12-09 12:47:39.970792$GBGSV,2,2,05,33,61,243,47,,,,,,,,,,,,*5F
###2023-12-09 12:47:39.972071$GNVTG,7.86,T,,M,0.08,N,0.14,K,A*27
###2023-12-09 12:47:39.973715$GNGST,174739.10,18.000,,,,0.077,0.068,0.160*59
###2023-12-09 12:47:39.975026$GNZDA,174739.10,09,12,2023,00,00*7F
###2023-12-09 12:47:39.975667$GNEBP,,,,,,M*13
###2023-12-09 12:47:40.143962$GNGGA,174739.30,4138.0510643,N,07032.3990815,W,1,24,0.6,13.407,M,-29.745,M,0.0,*51
###2023-12-09 12:47:40.345158$GNGGA,174739.50,4138.0510665,N,07032.3990818,W,1,24,0.6,13.386,M,-29.745,M,0.0,*50
###2023-12-09 12:47:40.545144$GNGGA,174739.70,4138.0511016,N,07032.3990992,W,1,24,0.6,13.371,M,-29.745,M,0.0,*5A
###2023-12-09 12:47:40.744028$GNGGA,174739.90,4138.0511464,N,07032.3991268,W,1,24,0.6,13.368,M,-29.745,M,0.0,*52
