###2023-12-09 12:26:13.924802$GAGSA,A,3,21,27,,,,,,,,,,,1.4,0.8,1.1*28
###2023-12-09 12:26:13.926448$GBGSA,A,3,14,25,26,33,,,,,,,,,1.4,0.8,1.1*2B
###2023-12-09 12:26:13.928859$GPGSV,2,1,08,03,39,282,45,16,32,206,43,25,15,045,39,26,62,205,44*78
###2023-12-09 12:26:13.931257$GPGSV,2,2,08,28,61,050,42,29,24,078,43,31,73,346,38,32,34,132,47*73
###2023-12-09 12:26:13.933627$GLGSV,1,1,04,71,61,167,47,72,61,316,44,73,52,030,49,75,18,237,44*65
###2023-12-09 12:26:13.935436$GAGSV,1,1,02,21,74,179,44,27,44,051,45,,,,,,,,*65
###2023-12-09 12:26:13.937795$GBGSV,1,1,04,14,59,200,45,25,30,250,37,26,38,056,48,33,64,263,40*63
###2023-12-09 12:26:13.939002$GNVTG,,T,,M,0.04,N,0.07,K,A*3E
###2023-12-09 12:26:13.940687$GNGST,172613.10,30.000,,,,0.230,0.220,0.500*51
###2023-12-09 12:26:13.942058$GNZDA,172613.10,09,12,2023,00,00*70
###2023-12-09 12:26:13.942753$GNEBP,,,,,,M*13
###2023-12-09 12:26:14.115874$GNGGA,172613.30,4138.0381500,N,07032.4358627,W,1,18,0.8,9.011,M,-29.746,M,0.0,*68
###2023-12-09 12:26:14.320116$GNGGA,172613.50,4138.0381482,N,07032.4358606,W,1,18,0.8,9.006,M,-29.746,M,0.0,*60
###2023-12-09 12:26:14.515815$GNGGA,172613.70,4138.0381469,N,07032.4358589,W,1,18,0.8,8.997,M,-29.746,M,0.0,*63
###2023-12-09 12:26:14.714018$GNGGA,172613.90,4138.0381465,N,07032.4358589,W,1,18,0.8,8.993,M,-29.746,M,0.0,*65
###2023-12-09 12:26:14.919685$GNRMC,172614.10,A,4138.0381449,N,07032.4358570,W,0.02,,091223,,,A*40
###2023-12-09 12:26:14.922601$GNGGA,172614.10,4138.0381449,N,07032.4358570,W,1,18,0.8,8.985,M,-29.746,M,0.0,*65
###2023-12-09 12:26:14.924507$GPGSA,A,3,03,16,25,26,28,29,31,32,,,,,1.4,0.8,1.1*3A
###2023-12-09 12:26:14.926133$GLGSA,A,3,71,72,73,75,,,,,,,,,1.4,0.8,1.1*26
###2023-12-09 12:26:14.927648$GAGSA,A,3,21,27,,,,,,,,,,,1.4,0.8,1.1*28
###2023-12-09 12:26:14.929269$GBGSA,A,3,14,25,26,33,,,,,,,,,1.4,0.8,1.1*2B
###2023-12-09 12:26:14.931645$GPGSV,2,1,08,03,39,282,45,16,32,206,43,25,15,045,39,26,62,205,44*78
###2023-12-09 12:26:14.934317$GPGSV,2,2,08,28,61,050,43,29,24,078,43,31,73,346,38,32,34,132,47*72
###2023-12-09 12:26:14.937210$GLGSV,1,1,04,71,61,167,47,72,62,315,44,73,52,030,49,75,18,237,44*65
###2023-12-09 12:26:14.939390$GAGSV,1,1,02,21,74,179,44,27,44,051,45,,,,,,,,*65
###2023-12-09 12:26:14.942249$GBGSV,1,1,04,14,59,200,45,25,30,250,37,26,38,056,48,33,64,263,39*6D
###2023-12-09 12:26:14.943684$GNVTG,,T,,M,0.02,N,0.04,K,A*3B
###2023-12-09 12:26:14.945721$GNGST,172614.10,30.000,,,,0.230,0.220,0.500*56
###2023-12-09 12:26:14.947362$GNZDA,172614.10,09,12,2023,00,00*77
###2023-12-09 12:26:14.948205$GNEBP,,,,,,M*13
###2023-12-09 12:26:15.117854$GNGGA,172614.30,4138.0381436,N,07032.4358551,W,1,18,0.8,8.981,M,-29.746,M,0.0,*68
###2023-12-09 12:26:15.316593$GNGGA,172614.50,4138.0381419,N,07032.4358525,W,1,18,0.8,8.974,M,-29.746,M,0.0,*6A
###2023-12-09 12:26:15.517762$GNGGA,172614.70,4138.0381399,N,07032.4358494,W,1,18,0.8,8.972,M,-29.746,M,0.0,*6A
###2023-12-09 12:26:15.716240$GNGGA,172614.90,4138.0381376,N,07032.4358472,W,1,18,0.8,8.963,M,-29.746,M,0.0,*6D
###2023-12-09 12:26:15.917338$GNRMC,172615.10,A,4138.0381357,N,07032.4358454,W,0.02,,091223,,,A*4E
###2023-12-09 12:26:15.921079$GNGGA,172615.10,4138.0381357,N,07032.4358454,W,1,18,0.8,8.961,M,-29.746,M,0.0,*61
###2023-12-09 12:26:15.923405$GPGSA,A,3,03,16,25,26,28,29,31,32,,,,,1.4,0.8,1.1*3A
###2023-12-09 12:26:15.925372$GLGSA,A,3,71,72,73,75,,,,,,,,,1.4,0.8,1.1*26
###2023-12-09 12:26:15.927184$GAGSA,A,3,21,27,,,,,,,,,,,1.4,0.8,1.1*28
###2023-12-09 12:26:15.929130$GBGSA,A,3,14,25,26,33,,,,,,,,,1.4,0.8,1.1*2B
###2023-12-09 12:26:15.931997$GPGSV,2,1,08,03,39,282,45,16,32,206,43,25,15,045,39,26,62,205,43*7F
###2023-12-09 12:26:15.934871$GPGSV,2,2,08,28,61,050,43,29,24,078,43,31,73,346,38,32,34,132,46*73
###2023-12-09 12:26:15.937948$GLGSV,1,1,04,71,61,167,47,72,62,315,44,73,52,031,49,75,18,237,45*65
###2023-12-09 12:26:15.940339$GAGSV,1,1,02,21,74,179,44,27,44,051,45,,,,,,,,*65
###2023-12-09 12:26:15.943467$GBGSV,1,1,04,14,59,200,45,25,30,250,37,26,38,056,48,33,64,263,39*6D
###2023-12-09 12:26:15.944890$GNVTG,,T,,M,0.02,N,0.04,K,A*3B
###2023-12-09 12:26:15.946941$GNGST,172615.10,29.000,,,,0.230,0.220,0.500*5F
###2023-12-09 12:26:15.948559$GNZDA,172615.10,09,12,2023,00,00*76
###2023-12-09 12:26:15.949377$GNEBP,,,,,,M*13
###2023-12-09 12:26:16.123628$GNGGA,172615.30,4138.0381336,N,07032.4358429,W,1,18,0.8,8.954,M,-29.746,M,0.0,*68
###2023-12-09 12:26:16.316431$GNGGA,172615.50,4138.0381321,N,07032.4358421,W,1,18,0.8,8.948,M,-29.746,M,0.0,*6D
###2023-12-09 12:26:16.516572$GNGGA,172615.70,4138.0381308,N,07032.4358414,W,1,18,0.8,8.942,M,-29.746,M,0.0,*68
###2023-12-09 12:26:16.715640$GNGGA,172615.90,4138.0381295,N,07032.4358398,W,1,18,0.8,8.932,M,-29.746,M,0.0,*67
###2023-12-09 12:26:16.919654$GNRMC,172616.10,A,4138.0381277,N,07032.4358382,W,0.02,,091223,,,A*42
###2023-12-09 12:26:16.923174$GNGGA,172616.10,4138.0381277,N,07032.4358382,W,1,18,0.8,8.921,M,-29.746,M,0.0,*69
###2023-12-09 12:26:16.925475$GPGSA,A,3,03,16,25,26,28,29,31,32,,,,,1.4,0.8,1.1*3A
###2023-12-09 12:26:16.927467$GLGSA,A,3,71,72,73,75,,,,,,,,,1.4,0.8,1.1*26
###2023-12-09 12:26:16.929271$GAGSA,A,3,21,27,,,,,,,,,,,1.4,0.8,1.1*28
###2023-12-09 12:26:16.931238$GBGSA,A,3,14,25,26,33,,,,,,,,,1.4,0.8,1.1*2B
###2023-12-09 12:26:16.934114$GPGSV,2,1,08,03,39,282,45,16,32,206,43,25,15,045,39,26,62,205,43*7F
###2023-12-09 12:26:16.936998$GPGSV,2,2,08,28,61,050,43,29,24,078,43,31,73,346,38,32,34,132,47*72
###2023-12-09 12:26:16.939871$GLGSV,1,1,04,71,61,167,46,72,62,315,44,73,52,031,49,75,18,237,45*64
###2023-12-09 12:26:16.942014$GAGSV,1,1,02,21,74,179,44,27,44,051,45,,,,,,,,*65
###2023-12-09 12:26:16.944840$GBGSV,1,1,04,14,59,200,45,25,30,250,36,26,38,056,48,33,64,263,39*6C
###2023-12-09 12:26:16.946215$GNVTG,,T,,M,0.02,N,0.04,K,A*3B
###2023-12-09 12:26:16.948243$GNGST,172616.10,29.000,,,,0.230,0.220,0.500*5C
###2023-12-09 12:26:16.949829$GNZDA,172616.10,09,12,2023,00,00*75
###2023-12-09 12:26:16.950631$GNEBP,,,,,,M*13
###2023-12-09 12:26:17.119235$GNGGA,172616.30,4138.0381260,N,07032.4358371,W,1,18,0.8,8.920,M,-29.746,M,0.0,*60
###2023-12-09 12:26:17.316964$GNGGA,172616.50,4138.0381251,N,07032.4358349,W,1,18,0.8,8.912,M,-29.746,M,0.0,*6E
###2023-12-09 12:26:17.516802$GNGGA,172616.70,4138.0381225,N,07032.4358325,W,1,18,0.8,8.906,M,-29.746,M,0.0,*60
###2023-12-09 12:26:17.716062$GNGGA,172616.90,4138.0381206,N,07032.4358300,W,1,18,0.8,8.901,M,-29.746,M,0.0,*6F
###2023-12-09 12:26:17.918374$GNRMC,172617.10,A,4138.0381188,N,07032.4358295,W,0.04,,091223,,,A*41
###2023-12-09 12:26:17.921253$GNGGA,172617.10,4138.0381188,N,07032.4358295,W,1,19,0.8,8.895,M,-29.746,M,0.0,*63
###2023-12-09 12:26:17.923150$GPGSA,A,3,03,16,25,26,28,29,31,32,,,,,1.3,0.8,1.0*3C
###2023-12-09 12:26:17.924751$GLGSA,A,3,71,72,73,75,,,,,,,,,1.3,0.8,1.0*20
###2023-12-09 12:26:17.926219$GAGSA,A,3,21,27,,,,,,,,,,,1.3,0.8,1.0*2E
###2023-12-09 12:26:17.927828$GBGSA,A,3,14,25,26,33,,,,,,,,,1.3,0.8,1.0*2D
###2023-12-09 12:26:17.930165$GPGSV,2,1,08,03,39,282,45,16,32,206,43,25,15,045,39,26,62,205,43*7F
###2023-12-09 12:26:17.932518$GPGSV,2,2,08,28,61,050,43,29,24,078,43,31,73,346,38,32,34,132,47*72
###2023-12-09 12:26:17.934872$GLGSV,1,1,04,71,61,167,46,72,62,315,45,73,52,031,49,75,19,238,44*6A
###2023-12-09 12:26:17.936636$GAGSV,1,1,02,21,74,179,44,27,44,051,45,,,,,,,,*65
###2023-12-09 12:26:17.938993$GBGSV,1,1,04,14,59,200,46,25,30,250,36,26,38,056,48,33,64,263,39*6F
###2023-12-09 12:26:17.940143$GNVTG,,T,,M,0.04,N,0.07,K,A*3E
###2023-12-09 12:26:17.941805$GNGST,172617.10,29.000,,,,0.230,0.220,0.500*5D
###2023-12-09 12:26:17.943130$GNZDA,172617.10,09,12,2023,00,00*74
###2023-12-09 12:26:17.943789$GNEBP,,,,,,M*13
###2023-12-09 12:26:18.116920$GNGGA,172617.30,4138.0381174,N,07032.4358283,W,1,19,0.8,8.887,M,-29.746,M,0.0,*66
###2023-12-09 12:26:18.316939$GNGGA,172617.50,4138.0381159,N,07032.4358273,W,1,19,0.8,8.885,M,-29.746,M,0.0,*62
###2023-12-09 12:26:18.517004$GNGGA,172617.70,4138.0381150,N,07032.4358263,W,1,19,0.8,8.875,M,-29.746,M,0.0,*67
###2023-12-09 12:26:18.716170$GNGGA,172617.90,4138.0381135,N,07032.4358256,W,1,19,0.8,8.864,M,-29.746,M,0.0,*6C
###2023-12-09 12:26:18.921106$GNRMC,172618.10,A,4138.0381123,N,07032.4358242,W,0.02,,091223,,,A*43
###2023-12-09 12:26:18.924426$GNGGA,172618.10,4138.0381123,N,07032.4358242,W,1,18,0.8,8.859,M,-29.746,M,0.0,*66
###2023-12-09 12:26:18.926256$GPGSA,A,3,03,16,26,28,29,31,32,,,,,,1.4,0.8,1.2*3E
###2023-12-09 12:26:18.927885$GLGSA,A,3,71,72,73,75,,,,,,,,,1.4,0.8,1.2*25
###2023-12-09 12:26:18.929368$GAGSA,A,3,21,27,,,,,,,,,,,1.4,0.8,1.2*2B
###2023-12-09 12:26:18.930985$GBGSA,A,3,14,25,26,33,,,,,,,,,1.4,0.8,1.2*28
###2023-12-09 12:26:18.933334$GPGSV,2,1,07,03,39,282,45,16,32,206,43,26,62,205,43,28,61,050,43*77
###2023-12-09 12:26:18.935400$GPGSV,2,2,07,29,24,078,43,31,73,346,38,32,34,132,46,,,,*43
###2023-12-09 12:26:18.937750$GLGSV,1,1,04,71,61,167,46,72,62,315,45,73,52,031,49,75,19,238,44*6A
