###2023-12-09 13:13:28.004066$GNVTG,237.14,T,,M,2.97,N,5.51,K,A*2D
###2023-12-09 13:13:28.005747$GNGST,181327.10,18.000,,,,0.097,0.071,0.170*5F
###2023-12-09 13:13:28.007063$GNZDA,181327.10,09,12,2023,00,00*7E
###2023-12-09 13:13:28.007708$GNEBP,,,,,,M*13
###2023-12-09 13:13:28.175623$GNGGA,181327.30,4138.0525118,N,07032.2587964,W,1,24,0.7,12.720,M,-29.743,M,0.0,*53
###2023-12-09 13:13:28.374161$GNGGA,181327.50,4138.0524282,N,07032.2589785,W,1,24,0.7,12.727,M,-29.743,M,0.0,*5C
###2023-12-09 13:13:28.574851$GNGGA,181327.70,4138.0523914,N,07032.2592098,W,1,24,0.7,12.796,M,-29.743,M,0.0,*56
###2023-12-09 13:13:28.774967$GNGGA,181327.90,4138.0523208,N,07032.2594340,W,1,24,0.7,12.770,M,-29.743,M,0.0,*56
###2023-12-09 13:13:28.976819$GNRMC,181328.10,A,4138.0522049,N,07032.2595821,W,2.90,216.00,091223,,,A*57
###2023-12-09 13:13:28.979681$GNGGA,181328.10,4138.0522049,N,07032.2595821,W,1,24,0.7,12.692,M,-29.743,M,0.0,*57
###2023-12-09 13:13:28.981468$GPGSA,A,3,03,04,16,26,28,29,31,,,,,,1.2,0.7,1.0*30
###2023-12-09 13:13:28.983188$GLGSA,A,3,65,71,72,73,74,75,,,,,,,1.2,0.7,1.0*2E
###2023-12-09 13:13:28.984764$GAGSA,A,3,04,19,21,27,,,,,,,,,1.2,0.7,1.0*2C
###2023-12-09 13:13:28.986467$GBGSA,A,3,14,24,25,26,33,35,,,,,,,1.2,0.7,1.0*23
###2023-12-09 13:13:28.988787$GPGSV,2,1,07,03,32,255,40,04,38,311,42,16,56,215,45,26,86,209,48*7D
###2023-12-09 13:13:28.990828$GPGSV,2,2,07,28,45,076,45,29,24,056,43,31,66,048,46,,,,*40
###2023-12-09 13:13:28.993149$GLGSV,2,1,06,65,29,325,41,71,34,174,45,72,71,246,45,73,31,045,43*69
###2023-12-09 13:13:28.994894$GLGSV,2,2,06,74,66,353,41,75,36,259,44,,,,,,,,*69
###2023-12-09 13:13:28.997215$GAGSV,1,1,04,04,33,312,40,19,81,194,39,21,84,070,45,27,29,048,41*65
###2023-12-09 13:13:28.999551$GBGSV,2,1,06,14,38,192,45,24,70,034,49,25,44,267,44,26,22,065,45*62
###2023-12-09 13:13:29.001286$GBGSV,2,2,06,33,53,226,46,35,15,065,46,,,,,,,,*6C
###2023-12-09 13:13:29.002614$GNVTG,216.00,T,,M,2.90,N,5.36,K,A*2D
###2023-12-09 13:13:29.004258$GNGST,181328.10,18.000,,,,0.096,0.071,0.170*51
###2023-12-09 13:13:29.005547$GNZDA,181328.10,09,12,2023,00,00*71
###2023-12-09 13:13:29.006185$GNEBP,,,,,,M*13
###2023-12-09 13:13:29.173803$GNGGA,181328.30,4138.0520961,N,07032.2597625,W,1,24,0.7,12.699,M,-29.743,M,0.0,*57
###2023-12-09 13:13:29.373967$GNGGA,181328.50,4138.0520319,N,07032.2600204,W,1,24,0.7,12.748,M,-29.743,M,0.0,*53
###2023-12-09 13:13:29.574827$GNGGA,181328.70,4138.0519414,N,07032.2602304,W,1,24,0.7,12.745,M,-29.743,M,0.0,*5F
###2023-12-09 13:13:29.777706$GNGGA,181328.90,4138.0518001,N,07032.2603663,W,1,24,0.7,12.741,M,-29.743,M,0.0,*51
###2023-12-09 13:13:29.977424$GNRMC,181329.10,A,4138.0516596,N,07032.2605099,W,3.11,228.46,091223,,,A*50
###2023-12-09 13:13:29.980300$GNGGA,181329.10,4138.0516596,N,07032.2605099,W,1,24,0.7,12.677,M,-29.743,M,0.0,*5C
###2023-12-09 13:13:29.982094$GPGSA,A,3,03,04,16,26,28,29,31,,,,,,1.2,0.7,1.0*30
###2023-12-09 13:13:29.983821$GLGSA,A,3,65,71,72,73,74,75,,,,,,,1.2,0.7,1.0*2E
###2023-12-09 13:13:29.985401$GAGSA,A,3,04,19,21,27,,,,,,,,,1.2,0.7,1.0*2C
###2023-12-09 13:13:29.987124$GBGSA,A,3,14,24,25,26,33,35,,,,,,,1.2,0.7,1.0*23
###2023-12-09 13:13:29.989438$GPGSV,2,1,07,03,32,255,39,04,38,311,41,16,56,215,45,26,86,209,47*7F
###2023-12-09 13:13:29.991486$GPGSV,2,2,07,28,45,076,46,29,24,055,45,31,66,048,47,,,,*47
###2023-12-09 13:13:29.993814$GLGSV,2,1,06,65,29,325,38,71,34,174,45,72,71,246,44,73,31,045,46*63
###2023-12-09 13:13:29.995578$GLGSV,2,2,06,74,66,353,42,75,36,259,42,,,,,,,,*6C
###2023-12-09 13:13:29.997901$GAGSV,1,1,04,04,33,312,38,19,81,194,40,21,84,070,46,27,29,048,43*65
###2023-12-09 13:13:30.000246$GBGSV,2,1,06,14,38,192,42,24,70,034,48,25,44,267,44,26,22,065,47*66
###2023-12-09 13:13:30.001999$GBGSV,2,2,06,33,53,226,45,35,15,065,46,,,,,,,,*6F
###2023-12-09 13:13:30.003334$GNVTG,228.46,T,,M,3.11,N,5.76,K,A*2E
###2023-12-09 13:13:30.004975$GNGST,181329.10,18.000,,,,0.096,0.071,0.170*50
###2023-12-09 13:13:30.006265$GNZDA,181329.10,09,12,2023,00,00*70
###2023-12-09 13:13:30.006913$GNEBP,,,,,,M*13
###2023-12-09 13:13:30.174288$GNGGA,181329.30,4138.0515611,N,07032.2607219,W,1,24,0.7,12.714,M,-29.743,M,0.0,*5D
###2023-12-09 13:13:30.373917$GNGGA,181329.50,4138.0514706,N,07032.2609558,W,1,24,0.7,12.742,M,-29.743,M,0.0,*52
###2023-12-09 13:13:30.574843$GNGGA,181329.70,4138.0513300,N,07032.2611152,W,1,24,0.7,12.731,M,-29.743,M,0.0,*56
###2023-12-09 13:13:30.781390$GNGGA,181329.90,4138.0511745,N,07032.2612189,W,1,24,0.7,12.700,M,-29.743,M,0.0,*58
###2023-12-09 13:13:30.979884$GNRMC,181330.10,A,4138.0510377,N,07032.2613796,W,3.54,231.23,091223,,,A*52
###2023-12-09 13:13:30.982749$GNGGA,181330.10,4138.0510377,N,07032.2613796,W,1,24,0.7,12.713,M,-29.743,M,0.0,*57
###2023-12-09 13:13:30.984552$GPGSA,A,3,03,04,16,26,28,29,31,,,,,,1.2,0.7,1.0*30
###2023-12-09 13:13:30.986261$GLGSA,A,3,65,71,72,73,74,75,,,,,,,1.2,0.7,1.0*2E
###2023-12-09 13:13:30.987858$GAGSA,A,3,04,19,21,27,,,,,,,,,1.2,0.7,1.0*2C
###2023-12-09 13:13:30.989570$GBGSA,A,3,14,24,25,26,33,35,,,,,,,1.2,0.7,1.0*23
###2023-12-09 13:13:30.991904$GPGSV,2,1,07,03,32,255,38,04,38,311,42,16,56,215,45,26,86,209,48*72
###2023-12-09 13:13:30.993941$GPGSV,2,2,07,28,45,076,46,29,24,055,45,31,66,048,47,,,,*47
###2023-12-09 13:13:30.996287$GLGSV,2,1,06,65,29,325,40,71,34,174,45,72,71,246,44,73,31,045,46*6C
###2023-12-09 13:13:30.998036$GLGSV,2,2,06,74,66,353,43,75,36,259,43,,,,,,,,*6C
###2023-12-09 13:13:31.000365$GAGSV,1,1,04,04,33,312,40,19,81,194,39,21,84,070,45,27,29,048,43*67
###2023-12-09 13:13:31.002700$GBGSV,2,1,06,14,38,192,41,24,70,034,49,25,44,267,44,26,22,065,46*65
###2023-12-09 13:13:31.004443$GBGSV,2,2,06,33,53,226,45,35,15,065,45,,,,,,,,*6C
###2023-12-09 13:13:31.005764$GNVTG,231.23,T,,M,3.54,N,6.55,K,A*26
###2023-12-09 13:13:31.007421$GNGST,181330.10,18.000,,,,0.097,0.072,0.170*5A
###2023-12-09 13:13:31.008710$GNZDA,181330.10,09,12,2023,00,00*78
###2023-12-09 13:13:31.009346$GNEBP,,,,,,M*13
###2023-12-09 13:13:31.174464$GNGGA,181330.30,4138.0509103,N,07032.2615904,W,1,24,0.7,12.719,M,-29.743,M,0.0,*55
###2023-12-09 13:13:31.374785$GNGGA,181330.50,4138.0507698,N,07032.2617634,W,1,24,0.7,12.706,M,-29.743,M,0.0,*58
###2023-12-09 13:13:31.574897$GNGGA,181330.70,4138.0506135,N,07032.2618939,W,1,24,0.7,12.736,M,-29.743,M,0.0,*55
###2023-12-09 13:13:31.775126$GNGGA,181330.90,4138.0504539,N,07032.2620389,W,1,24,0.7,12.715,M,-29.743,M,0.0,*5A
###2023-12-09 13:13:31.979520$GNRMC,181331.10,A,4138.0503220,N,07032.2622257,W,3.50,232.11,091223,,,A*5E
###2023-12-09 13:13:31.982368$GNGGA,181331.10,4138.0503220,N,07032.2622257,W,1,24,0.7,12.704,M,-29.743,M,0.0,*5B
###2023-12-09 13:13:31.984158$GPGSA,A,3,03,04,16,26,28,29,31,,,,,,1.2,0.7,1.0*30
###2023-12-09 13:13:31.985870$GLGSA,A,3,65,71,72,73,74,75,,,,,,,1.2,0.7,1.0*2E
###2023-12-09 13:13:31.987456$GAGSA,A,3,04,19,21,27,,,,,,,,,1.2,0.7,1.0*2C
###2023-12-09 13:13:31.989161$GBGSA,A,3,14,24,25,26,33,35,,,,,,,1.2,0.7,1.0*23
###2023-12-09 13:13:31.991499$GPGSV,2,1,07,03,32,255,41,04,38,311,46,16,56,215,47,26,86,209,50*73
###2023-12-09 13:13:31.993532$GPGSV,2,2,07,28,45,076,48,29,24,055,46,31,65,050,49,,,,*4E
###2023-12-09 13:13:31.995886$GLGSV,2,1,06,65,29,325,42,71,34,174,45,72,71,246,45,73,31,045,46*6F
###2023-12-09 13:13:31.997651$GLGSV,2,2,06,74,66,353,43,75,36,259,43,,,,,,,,*6C
###2023-12-09 13:13:31.999984$GAGSV,1,1,04,04,33,312,43,19,81,194,40,21,84,070,47,27,29,048,44*6F
###2023-12-09 13:13:32.002312$GBGSV,2,1,06,14,38,192,41,24,70,034,48,25,44,267,44,26,22,065,44*66
###2023-12-09 13:13:32.004064$GBGSV,2,2,06,33,53,226,45,35,15,065,44,,,,,,,,*6D
###2023-12-09 13:13:32.005383$GNVTG,232.11,T,,M,3.50,N,6.48,K,A*2C
###2023-12-09 13:13:32.007066$GNGST,181331.10,18.000,,,,0.097,0.072,0.170*5B
###2023-12-09 13:13:32.008359$GNZDA,181331.10,09,12,2023,00,00*79
###2023-12-09 13:13:32.008996$GNEBP,,,,,,M*13
###2023-12-09 13:13:32.174495$GNGGA,181331.30,4138.0502007,N,07032.2624214,W,1,24,0.7,12.714,M,-29.743,M,0.0,*5F
###2023-12-09 13:13:32.374029$GNGGA,181331.50,4138.0500507,N,07032.2625775,W,1,24,0.7,12.690,M,-29.743,M,0.0,*50
###2023-12-09 13:13:32.574775$GNGGA,181331.70,4138.0499102,N,07032.2627411,W,1,24,0.7,12.692,M,-29.743,M,0.0,*53
###2023-12-09 13:13:32.774760$GNGGA,181331.90,4138.0497873,N,07032.2629461,W,1,24,0.7,12.722,M,-29.743,M,0.0,*5F
###2023-12-09 13:13:32.984902$GNRMC,181332.10,A,4138.0496524,N,07032.2631333,W,3.32,219.79,091223,,,A*51
###2023-12-09 13:13:32.987771$GNGGA,181332.10,4138.0496524,N,07032.2631333,W,1,24,0.7,12.707,M,-29.743,M,0.0,*54
###2023-12-09 13:13:32.989560$GPGSA,A,3,03,04,16,26,28,29,31,,,,,,1.2,0.7,1.0*30
###2023-12-09 13:13:32.991282$GLGSA,A,3,65,71,72,73,74,75,,,,,,,1.2,0.7,1.0*2E
###2023-12-09 13:13:32.992865$GAGSA,A,3,04,19,21,27,,,,,,,,,1.2,0.7,1.0*2C
###2023-12-09 13:13:32.994587$GBGSA,A,3,14,24,25,26,33,35,,,,,,,1.2,0.7,1.0*23
###2023-12-09 13:13:32.996927$GPGSV,2,1,07,03,32,255,43,04,38,311,45,16,56,215,46,26,86,209,48*7A
###2023-12-09 13:13:32.998969$GPGSV,2,2,07,28,45,076,46,29,24,055,43,31,65,050,48,,,,*44
