###2023-12-09 13:25:27.023947$GNGST,182526.10,18.000,,,,0.098,0.069,0.160*5C
###2023-12-09 13:25:27.025282$GNZDA,182526.10,09,12,2023,00,00*7A
###2023-12-09 13:25:27.025934$GNEBP,,,,,,M*13
###2023-12-09 13:25:27.196708$GNGGA,182526.30,4138.0252330,N,07032.3406240,W,1,24,0.6,13.276,M,-29.745,M,0.0,*5C
###2023-12-09 13:25:27.390151$GNGGA,182526.50,4138.0253122,N,07032.3404263,W,1,24,0.6,13.301,M,-29.745,M,0.0,*58
###2023-12-09 13:25:27.589994$GNGGA,182526.70,4138.0253997,N,07032.3402168,W,1,24,0.6,13.323,M,-29.745,M,0.0,*52
###2023-12-09 13:25:27.791320$GNGGA,182526.90,4138.0254587,N,07032.3399962,W,1,24,0.6,13.279,M,-29.745,M,0.0,*5F
###2023-12-09 13:25:27.995507$GNRMC,182527.10,A,4138.0255545,N,07032.3398246,W,2.99,48.35,091223,,,A*64
###2023-12-09 13:25:27.998392$GNGGA,182527.10,4138.0255545,N,07032.3398246,W,1,24,0.6,13.289,M,-29.745,M,0.0,*5A
###2023-12-09 13:25:28.000206$GPGSA,A,3,03,04,16,26,28,29,31,,,,,,1.1,0.6,0.9*3A
###2023-12-09 13:25:28.001927$GLGSA,A,3,65,71,72,73,74,75,,,,,,,1.1,0.6,0.9*24
###2023-12-09 13:25:28.003527$GAGSA,A,3,04,19,21,27,,,,,,,,,1.1,0.6,0.9*26
###2023-12-09 13:25:28.005247$GBGSA,A,3,14,24,25,26,33,35,,,,,,,1.1,0.6,0.9*29
###2023-12-09 13:25:28.007597$GPGSV,2,1,07,03,29,250,45,04,43,309,45,16,62,219,47,26,88,044,48*79
###2023-12-09 13:25:28.009642$GPGSV,2,2,07,28,41,080,43,29,22,051,41,31,63,058,46,,,,*4C
###2023-12-09 13:25:28.011985$GLGSV,2,1,06,65,34,322,44,71,27,175,44,72,67,229,46,73,26,049,42*63
###2023-12-09 13:25:28.013736$GLGSV,2,2,06,74,63,006,42,75,40,266,46,,,,,,,,*63
###2023-12-09 13:25:28.016080$GAGSV,1,1,04,04,37,311,44,19,76,185,41,21,80,051,46,27,26,049,40*6A
###2023-12-09 13:25:28.018418$GBGSV,2,1,06,14,33,190,42,24,66,041,48,25,48,272,47,26,19,068,43*60
###2023-12-09 13:25:28.020178$GBGSV,2,2,06,33,49,220,48,35,16,060,42,,,,,,,,*6D
###2023-12-09 13:25:28.021473$GNVTG,48.35,T,,M,2.99,N,5.54,K,A*1F
###2023-12-09 13:25:28.023135$GNGST,182527.10,18.000,,,,0.098,0.069,0.160*5D
###2023-12-09 13:25:28.024430$GNZDA,182527.10,09,12,2023,00,00*7B
###2023-12-09 13:25:28.025069$GNEBP,,,,,,M*13
###2023-12-09 13:25:28.194909$GNGGA,182527.30,4138.0256554,N,07032.3396386,W,1,24,0.6,13.308,M,-29.745,M,0.0,*50
###2023-12-09 13:25:28.390299$GNGGA,182527.50,4138.0257380,N,07032.3394505,W,1,24,0.6,13.283,M,-29.745,M,0.0,*55
###2023-12-09 13:25:28.591468$GNGGA,182527.70,4138.0258362,N,07032.3392765,W,1,24,0.6,13.287,M,-29.745,M,0.0,*52
###2023-12-09 13:25:28.791327$GNGGA,182527.90,4138.0259430,N,07032.3391054,W,1,24,0.6,13.294,M,-29.745,M,0.0,*59
###2023-12-09 13:25:28.998510$GNRMC,182528.10,A,4138.0260516,N,07032.3389532,W,2.86,45.22,091223,,,A*6A
###2023-12-09 13:25:29.001409$GNGGA,182528.10,4138.0260516,N,07032.3389532,W,1,24,0.6,13.295,M,-29.745,M,0.0,*5C
###2023-12-09 13:25:29.003224$GPGSA,A,3,03,04,16,26,28,29,31,,,,,,1.1,0.6,0.9*3A
###2023-12-09 13:25:29.004940$GLGSA,A,3,65,71,72,73,74,75,,,,,,,1.1,0.6,0.9*24
###2023-12-09 13:25:29.006526$GAGSA,A,3,04,19,21,27,,,,,,,,,1.1,0.6,0.9*26
###2023-12-09 13:25:29.008245$GBGSA,A,3,14,24,25,26,33,35,,,,,,,1.1,0.6,0.9*29
###2023-12-09 13:25:29.010571$GPGSV,2,1,07,03,29,250,44,04,43,309,46,16,62,219,46,26,88,044,48*7A
###2023-12-09 13:25:29.012609$GPGSV,2,2,07,28,41,081,43,29,22,051,42,31,63,058,47,,,,*4F
###2023-12-09 13:25:29.014955$GLGSV,2,1,06,65,34,322,42,71,27,175,41,72,67,229,46,73,26,049,42*60
###2023-12-09 13:25:29.016703$GLGSV,2,2,06,74,63,006,42,75,40,266,47,,,,,,,,*62
###2023-12-09 13:25:29.019042$GAGSV,1,1,04,04,37,311,45,19,76,185,41,21,80,051,45,27,26,049,41*69
###2023-12-09 13:25:29.021375$GBGSV,2,1,06,14,33,190,40,24,66,041,47,25,48,272,47,26,19,068,42*6C
###2023-12-09 13:25:29.023136$GBGSV,2,2,06,33,49,220,46,35,16,060,42,,,,,,,,*63
###2023-12-09 13:25:29.024426$GNVTG,45.22,T,,M,2.86,N,5.29,K,A*10
###2023-12-09 13:25:29.026069$GNGST,182528.10,18.000,,,,0.099,0.069,0.160*53
###2023-12-09 13:25:29.027368$GNZDA,182528.10,09,12,2023,00,00*74
###2023-12-09 13:25:29.028007$GNEBP,,,,,,M*13
###2023-12-09 13:25:29.191848$GNGGA,182528.30,4138.0261617,N,07032.3387839,W,1,24,0.6,13.274,M,-29.745,M,0.0,*5A
###2023-12-09 13:25:29.389336$GNGGA,182528.50,4138.0262697,N,07032.3386172,W,1,24,0.6,13.247,M,-29.745,M,0.0,*50
###2023-12-09 13:25:29.591013$GNGGA,182528.70,4138.0264005,N,07032.3385033,W,1,24,0.6,13.288,M,-29.745,M,0.0,*5D
###2023-12-09 13:25:29.789193$GNGGA,182528.90,4138.0265314,N,07032.3383689,W,1,24,0.6,13.313,M,-29.745,M,0.0,*53
###2023-12-09 13:25:29.994785$GNRMC,182529.10,A,4138.0266492,N,07032.3382154,W,2.84,37.55,091223,,,A*68
###2023-12-09 13:25:29.997655$GNGGA,182529.10,4138.0266492,N,07032.3382154,W,1,24,0.6,13.279,M,-29.745,M,0.0,*5B
###2023-12-09 13:25:29.999464$GPGSA,A,3,03,04,16,26,28,29,31,,,,,,1.1,0.6,0.9*3A
###2023-12-09 13:25:30.001185$GLGSA,A,3,65,71,72,73,74,75,,,,,,,1.1,0.6,0.9*24
###2023-12-09 13:25:30.002778$GAGSA,A,3,04,19,21,27,,,,,,,,,1.1,0.6,0.9*26
###2023-12-09 13:25:30.004493$GBGSA,A,3,14,24,25,26,33,35,,,,,,,1.1,0.6,0.9*29
###2023-12-09 13:25:30.006831$GPGSV,2,1,07,03,29,250,42,04,43,309,45,16,62,219,46,26,88,044,48*7F
###2023-12-09 13:25:30.008869$GPGSV,2,2,07,28,41,081,44,29,22,050,41,31,63,058,47,,,,*4A
###2023-12-09 13:25:30.011204$GLGSV,2,1,06,65,34,322,42,71,27,175,44,72,67,229,46,73,26,049,42*65
###2023-12-09 13:25:30.012946$GLGSV,2,2,06,74,63,006,41,75,40,266,46,,,,,,,,*60
###2023-12-09 13:25:30.015280$GAGSV,1,1,04,04,37,311,43,19,76,185,41,21,80,051,45,27,26,049,40*6E
###2023-12-09 13:25:30.017613$GBGSV,2,1,06,14,33,190,43,24,66,041,47,25,48,272,47,26,19,068,41*6C
###2023-12-09 13:25:30.019372$GBGSV,2,2,06,33,49,220,46,35,16,060,41,,,,,,,,*60
###2023-12-09 13:25:30.020669$GNVTG,37.55,T,,M,2.84,N,5.26,K,A*18
###2023-12-09 13:25:30.022318$GNGST,182529.10,18.000,,,,0.099,0.069,0.160*52
###2023-12-09 13:25:30.023617$GNZDA,182529.10,09,12,2023,00,00*75
###2023-12-09 13:25:30.024253$GNEBP,,,,,,M*13
###2023-12-09 13:25:30.190744$GNGGA,182529.30,4138.0267786,N,07032.3380974,W,1,24,0.6,13.261,M,-29.745,M,0.0,*5F
###2023-12-09 13:25:30.390089$GNGGA,182529.50,4138.0269189,N,07032.3379964,W,1,24,0.6,13.266,M,-29.745,M,0.0,*5E
###2023-12-09 13:25:30.590493$GNGGA,182529.70,4138.0270557,N,07032.3379141,W,1,24,0.6,13.290,M,-29.745,M,0.0,*55
###2023-12-09 13:25:30.798295$GNGGA,182529.90,4138.0271939,N,07032.3378043,W,1,24,0.6,13.298,M,-29.745,M,0.0,*54
###2023-12-09 13:25:30.996543$GNRMC,182530.10,A,4138.0273351,N,07032.3377103,W,2.82,18.80,091223,,,A*67
###2023-12-09 13:25:30.999422$GNGGA,182530.10,4138.0273351,N,07032.3377103,W,1,24,0.6,13.274,M,-29.745,M,0.0,*5A
###2023-12-09 13:25:31.001219$GPGSA,A,3,03,04,16,26,28,29,31,,,,,,1.1,0.6,0.9*3A
###2023-12-09 13:25:31.002957$GLGSA,A,3,65,71,72,73,74,75,,,,,,,1.1,0.6,0.9*24
###2023-12-09 13:25:31.004535$GAGSA,A,3,04,19,21,27,,,,,,,,,1.1,0.6,0.9*26
###2023-12-09 13:25:31.006237$GBGSA,A,3,14,24,25,26,33,35,,,,,,,1.1,0.6,0.9*29
###2023-12-09 13:25:31.008574$GPGSV,2,1,07,03,29,250,40,04,43,309,43,16,62,219,46,26,88,044,47*74
###2023-12-09 13:25:31.010624$GPGSV,2,2,07,28,41,081,44,29,22,050,39,31,63,058,45,,,,*47
###2023-12-09 13:25:31.012953$GLGSV,2,1,06,65,34,322,41,71,27,175,44,72,67,229,46,73,26,049,40*64
###2023-12-09 13:25:31.014740$GLGSV,2,2,06,74,63,006,41,75,40,266,47,,,,,,,,*61
###2023-12-09 13:25:31.017066$GAGSV,1,1,04,04,37,311,42,19,76,185,41,21,80,051,45,27,26,049,38*60
###2023-12-09 13:25:31.019398$GBGSV,2,1,06,14,33,190,44,24,66,041,48,25,48,272,46,26,19,068,43*67
###2023-12-09 13:25:31.021140$GBGSV,2,2,06,33,49,220,47,35,16,060,42,,,,,,,,*62
###2023-12-09 13:25:31.022425$GNVTG,18.80,T,,M,2.82,N,5.22,K,A*1F
###2023-12-09 13:25:31.024079$GNGST,182530.10,18.000,,,,0.100,0.069,0.160*5B
###2023-12-09 13:25:31.025367$GNZDA,182530.10,09,12,2023,00,00*7D
###2023-12-09 13:25:31.026003$GNEBP,,,,,,M*13
###2023-12-09 13:25:31.192863$GNGGA,182530.30,4138.0274790,N,07032.3376548,W,1,24,0.6,13.257,M,-29.745,M,0.0,*5D
###2023-12-09 13:25:31.390208$GNGGA,182530.50,4138.0276211,N,07032.3375913,W,1,24,0.6,13.247,M,-29.745,M,0.0,*55
###2023-12-09 13:25:31.589468$GNGGA,182530.70,4138.0277575,N,07032.3375488,W,1,24,0.6,13.253,M,-29.745,M,0.0,*59
###2023-12-09 13:25:31.791266$GNGGA,182530.90,4138.0278981,N,07032.3375030,W,1,24,0.6,13.259,M,-29.745,M,0.0,*52
###2023-12-09 13:25:31.993816$GNRMC,182531.10,A,4138.0280445,N,07032.3374802,W,2.68,359.43,091223,,,A*5E
###2023-12-09 13:25:31.996706$GNGGA,182531.10,4138.0280445,N,07032.3374802,W,1,24,0.6,13.250,M,-29.745,M,0.0,*58
###2023-12-09 13:25:31.998500$GPGSA,A,3,03,04,16,26,28,29,31,,,,,,1.1,0.6,0.9*3A
###2023-12-09 13:25:32.000220$GLGSA,A,3,65,71,72,73,74,75,,,,,,,1.1,0.6,0.9*24
###2023-12-09 13:25:32.001801$GAGSA,A,3,04,19,21,27,,,,,,,,,1.1,0.6,0.9*26
###2023-12-09 13:25:32.003530$GBGSA,A,3,14,24,25,26,33,35,,,,,,,1.1,0.6,0.9*29
###2023-12-09 13:25:32.005856$GPGSV,2,1,07,03,29,250,41,04,43,309,44,16,62,219,45,26,88,044,47*71
###2023-12-09 13:25:32.007914$GPGSV,2,2,07,28,41,081,44,29,22,050,41,31,62,060,45,,,,*42
###2023-12-09 13:25:32.010235$GLGSV,2,1,06,65,34,322,43,71,27,175,43,72,67,229,46,73,26,049,42*63
