###2023-12-09 12:31:38.958496$GNGST,173138.10,20.000,,,,0.100,0.080,0.200*50
###2023-12-09 12:31:38.959838$GNZDA,173138.10,09,12,2023,00,00*7F
###2023-12-09 12:31:38.960495$GNEBP,,,,,,M*13
###2023-12-09 12:31:39.132653$GNGGA,173138.30,4138.0401240,N,07032.4260963,W,1,21,0.7,13.759,M,-29.745,M,0.0,*58
###2023-12-09 12:31:39.331528$GNGGA,173138.50,4138.0401438,N,07032.4260708,W,1,20,0.7,13.774,M,-29.745,M,0.0,*5A
###2023-12-09 12:31:39.530303$GNGGA,173138.70,4138.0401680,N,07032.4260627,W,1,20,0.7,13.788,M,-29.745,M,0.0,*56
###2023-12-09 12:31:39.728918$GNGGA,173138.90,4138.0401972,N,07032.4260827,W,1,21,0.7,13.776,M,-29.745,M,0.0,*54
###2023-12-09 12:31:39.927499$GNRMC,173139.10,A,4138.0402251,N,07032.4260971,W,0.52,292.24,091223,,,A*59
###2023-12-09 12:31:39.930381$GNGGA,173139.10,4138.0402251,N,07032.4260971,W,1,21,0.7,13.751,M,-29.745,M,0.0,*53
###2023-12-09 12:31:39.932278$GPGSA,A,3,03,04,16,26,28,29,31,32,,,,,1.2,0.7,1.0*31
###2023-12-09 12:31:39.933953$GLGSA,A,3,71,72,73,74,75,,,,,,,,1.2,0.7,1.0*2D
###2023-12-09 12:31:39.935575$GAGSA,A,3,04,19,21,27,,,,,,,,,1.2,0.7,1.0*2C
###2023-12-09 12:31:39.937179$GBGSA,A,3,14,25,26,33,,,,,,,,,1.2,0.7,1.0*23
###2023-12-09 12:31:39.939549$GPGSV,2,1,08,03,39,279,46,04,20,310,41,16,35,207,38,26,65,206,47*7B
###2023-12-09 12:31:39.941908$GPGSV,2,2,08,28,59,054,45,29,25,075,43,31,73,356,47,32,31,133,44*79
###2023-12-09 12:31:39.944283$GLGSV,2,1,05,71,59,168,47,72,64,313,46,73,50,032,46,74,70,284,43*6E
###2023-12-09 12:31:39.945761$GLGSV,2,2,05,75,20,239,40,,,,,,,,,,,,*5C
###2023-12-09 12:31:39.948143$GAGSV,1,1,04,04,20,311,41,19,80,306,40,21,76,177,45,27,43,050,44*68
###2023-12-09 12:31:39.950527$GBGSV,1,1,04,14,57,199,45,25,31,251,35,26,36,056,45,33,63,258,48*68
###2023-12-09 12:31:39.951897$GNVTG,292.24,T,,M,0.52,N,0.97,K,A*25
###2023-12-09 12:31:39.953560$GNGST,173139.10,19.000,,,,0.097,0.079,0.200*52
###2023-12-09 12:31:39.954882$GNZDA,173139.10,09,12,2023,00,00*7E
###2023-12-09 12:31:39.955536$GNEBP,,,,,,M*13
###2023-12-09 12:31:40.128746$GNGGA,173139.30,4138.0402561,N,07032.4260893,W,1,21,0.7,13.753,M,-29.745,M,0.0,*5A
###2023-12-09 12:31:40.328703$GNGGA,173139.50,4138.0402893,N,07032.4260765,W,1,21,0.7,13.762,M,-29.745,M,0.0,*58
###2023-12-09 12:31:40.528731$GNGGA,173139.70,4138.0403241,N,07032.4260755,W,1,21,0.7,13.761,M,-29.745,M,0.0,*5E
###2023-12-09 12:31:40.726795$GNGGA,173139.90,4138.0403586,N,07032.4260798,W,1,22,0.7,13.749,M,-29.745,M,0.0,*54
###2023-12-09 12:31:40.929664$GNRMC,173140.10,A,4138.0403932,N,07032.4260813,W,0.66,292.24,091223,,,A*5A
###2023-12-09 12:31:40.932567$GNGGA,173140.10,4138.0403932,N,07032.4260813,W,1,22,0.7,13.746,M,-29.745,M,0.0,*52
###2023-12-09 12:31:40.934455$GPGSA,A,3,03,04,16,26,28,29,31,32,,,,,1.2,0.7,1.0*31
###2023-12-09 12:31:40.936140$GLGSA,A,3,71,72,73,74,75,,,,,,,,1.2,0.7,1.0*2D
###2023-12-09 12:31:40.937746$GAGSA,A,3,04,19,21,27,,,,,,,,,1.2,0.7,1.0*2C
###2023-12-09 12:31:40.939359$GBGSA,A,3,14,25,26,33,,,,,,,,,1.2,0.7,1.0*23
###2023-12-09 12:31:40.941705$GPGSV,2,1,08,03,39,279,46,04,20,310,40,16,35,207,40,26,65,206,47*75
###2023-12-09 12:31:40.944071$GPGSV,2,2,08,28,59,054,46,29,25,075,42,31,73,356,46,32,31,133,44*7A
###2023-12-09 12:31:40.946421$GLGSV,2,1,05,71,59,168,47,72,64,313,46,73,50,032,46,74,70,284,43*6E
###2023-12-09 12:31:40.947921$GLGSV,2,2,05,75,20,239,38,,,,,,,,,,,,*53
###2023-12-09 12:31:40.950266$GAGSV,1,1,04,04,20,311,41,19,80,306,41,21,76,177,46,27,43,050,43*6D
###2023-12-09 12:31:40.952623$GBGSV,1,1,04,14,57,199,45,25,31,251,41,26,36,056,44,33,63,258,48*6A
###2023-12-09 12:31:40.953962$GNVTG,292.24,T,,M,0.66,N,1.22,K,A*2D
###2023-12-09 12:31:40.955633$GNGST,173140.10,19.000,,,,0.096,0.078,0.190*56
###2023-12-09 12:31:40.956935$GNZDA,173140.10,09,12,2023,00,00*70
###2023-12-09 12:31:40.957581$GNEBP,,,,,,M*13
###2023-12-09 12:31:41.127491$GNGGA,173140.30,4138.0404291,N,07032.4260722,W,1,22,0.7,13.753,M,-29.745,M,0.0,*5C
###2023-12-09 12:31:41.327785$GNGGA,173140.50,4138.0404612,N,07032.4260678,W,1,21,0.7,13.754,M,-29.745,M,0.0,*5F
###2023-12-09 12:31:41.528849$GNGGA,173140.70,4138.0404971,N,07032.4260690,W,1,21,0.7,13.758,M,-29.745,M,0.0,*5D
###2023-12-09 12:31:41.734528$GNGGA,173140.90,4138.0405323,N,07032.4260752,W,1,21,0.7,13.754,M,-29.745,M,0.0,*5C
###2023-12-09 12:31:41.927715$GNRMC,173141.10,A,4138.0405650,N,07032.4260730,W,0.51,292.24,091223,,,A*5C
###2023-12-09 12:31:41.930592$GNGGA,173141.10,4138.0405650,N,07032.4260730,W,1,21,0.7,13.745,M,-29.745,M,0.0,*50
###2023-12-09 12:31:41.932475$GPGSA,A,3,03,04,16,26,28,29,31,32,,,,,1.2,0.7,1.0*31
###2023-12-09 12:31:41.934142$GLGSA,A,3,71,72,73,74,75,,,,,,,,1.2,0.7,1.0*2D
###2023-12-09 12:31:41.935756$GAGSA,A,3,04,19,21,27,,,,,,,,,1.2,0.7,1.0*2C
###2023-12-09 12:31:41.937356$GBGSA,A,3,14,25,26,33,,,,,,,,,1.2,0.7,1.0*23
###2023-12-09 12:31:41.939712$GPGSV,2,1,08,03,39,279,45,04,20,310,41,16,35,207,41,26,65,206,48*79
###2023-12-09 12:31:41.942055$GPGSV,2,2,08,28,59,054,47,29,25,075,42,31,73,356,47,32,31,133,45*7B
###2023-12-09 12:31:41.944418$GLGSV,2,1,05,71,59,168,47,72,64,313,47,73,50,032,47,74,70,284,43*6E
###2023-12-09 12:31:41.945883$GLGSV,2,2,05,75,20,239,43,,,,,,,,,,,,*5F
###2023-12-09 12:31:41.948239$GAGSV,1,1,04,04,20,311,43,19,80,306,41,21,76,177,46,27,43,050,44*68
###2023-12-09 12:31:41.950609$GBGSV,1,1,04,14,57,199,45,25,31,251,40,26,36,056,43,33,63,258,47*63
###2023-12-09 12:31:41.951946$GNVTG,292.24,T,,M,0.51,N,0.94,K,A*25
###2023-12-09 12:31:41.953596$GNGST,173141.10,19.000,,,,0.094,0.077,0.190*5A
###2023-12-09 12:31:41.954909$GNZDA,173141.10,09,12,2023,00,00*71
###2023-12-09 12:31:41.955558$GNEBP,,,,,,M*13
###2023-12-09 12:31:42.128575$GNGGA,173141.30,4138.0405963,N,07032.4260553,W,1,21,0.7,13.740,M,-29.745,M,0.0,*5F
###2023-12-09 12:31:42.327681$GNGGA,173141.50,4138.0406332,N,07032.4260595,W,1,21,0.7,13.748,M,-29.745,M,0.0,*56
###2023-12-09 12:31:42.527691$GNGGA,173141.70,4138.0406697,N,07032.4260815,W,1,21,0.7,13.747,M,-29.745,M,0.0,*54
###2023-12-09 12:31:42.727856$GNGGA,173141.90,4138.0407008,N,07032.4260690,W,1,22,0.7,13.729,M,-29.745,M,0.0,*53
###2023-12-09 12:31:42.931280$GNRMC,173142.10,A,4138.0407285,N,07032.4260469,W,0.52,292.24,091223,,,A*5D
###2023-12-09 12:31:42.934155$GNGGA,173142.10,4138.0407285,N,07032.4260469,W,1,22,0.7,13.725,M,-29.745,M,0.0,*57
###2023-12-09 12:31:42.936049$GPGSA,A,3,03,04,16,26,28,29,31,32,,,,,1.2,0.7,1.0*31
###2023-12-09 12:31:42.937713$GLGSA,A,3,71,72,73,74,75,,,,,,,,1.2,0.7,1.0*2D
###2023-12-09 12:31:42.939320$GAGSA,A,3,04,19,21,27,,,,,,,,,1.2,0.7,1.0*2C
###2023-12-09 12:31:42.940919$GBGSA,A,3,14,25,26,33,,,,,,,,,1.2,0.7,1.0*23
###2023-12-09 12:31:42.943273$GPGSV,2,1,08,03,39,279,45,04,20,310,42,16,35,207,41,26,65,206,48*7A
###2023-12-09 12:31:42.945617$GPGSV,2,2,08,28,59,054,45,29,25,075,44,31,73,356,46,32,31,133,46*7D
###2023-12-09 12:31:42.947977$GLGSV,2,1,05,71,59,168,47,72,64,313,45,73,50,032,46,74,70,284,43*6D
###2023-12-09 12:31:42.949458$GLGSV,2,2,05,75,20,239,41,,,,,,,,,,,,*5D
###2023-12-09 12:31:42.951805$GAGSV,1,1,04,04,20,311,43,19,80,306,41,21,76,177,47,27,43,050,43*6E
###2023-12-09 12:31:42.954139$GBGSV,1,1,04,14,57,199,44,25,31,251,38,26,36,056,43,33,63,258,48*62
###2023-12-09 12:31:42.955485$GNVTG,292.24,T,,M,0.52,N,0.97,K,A*25
###2023-12-09 12:31:42.957139$GNGST,173142.10,19.000,,,,0.092,0.076,0.190*5E
###2023-12-09 12:31:42.958431$GNZDA,173142.10,09,12,2023,00,00*72
###2023-12-09 12:31:42.959089$GNEBP,,,,,,M*13
###2023-12-09 12:31:43.128653$GNGGA,173142.30,4138.0407641,N,07032.4260543,W,1,22,0.7,13.729,M,-29.745,M,0.0,*5C
###2023-12-09 12:31:43.328684$GNGGA,173142.50,4138.0408007,N,07032.4260817,W,1,22,0.7,13.721,M,-29.745,M,0.0,*55
###2023-12-09 12:31:43.528627$GNGGA,173142.70,4138.0408333,N,07032.4260793,W,1,22,0.7,13.713,M,-29.745,M,0.0,*51
###2023-12-09 12:31:43.727300$GNGGA,173142.90,4138.0408576,N,07032.4260500,W,1,22,0.7,13.705,M,-29.745,M,0.0,*57
###2023-12-09 12:31:43.929812$GNRMC,173143.10,A,4138.0408843,N,07032.4260362,W,0.54,292.24,091223,,,A*59
###2023-12-09 12:31:43.932715$GNGGA,173143.10,4138.0408843,N,07032.4260362,W,1,22,0.7,13.702,M,-29.745,M,0.0,*50
###2023-12-09 12:31:43.934606$GPGSA,A,3,03,04,16,26,28,29,31,32,,,,,1.2,0.7,1.0*31
###2023-12-09 12:31:43.936526$GLGSA,A,3,71,72,73,74,75,,,,,,,,1.2,0.7,1.0*2D
###2023-12-09 12:31:43.938141$GAGSA,A,3,04,19,21,27,,,,,,,,,1.2,0.7,1.0*2C
###2023-12-09 12:31:43.939762$GBGSA,A,3,14,25,26,33,,,,,,,,,1.2,0.7,1.0*23
###2023-12-09 12:31:43.942109$GPGSV,2,1,08,03,39,279,47,04,20,310,42,16,35,207,40,26,65,206,47*76
###2023-12-09 12:31:43.944472$GPGSV,2,2,08,28,59,054,45,29,25,075,44,31,73,356,46,32,31,133,47*7C
###2023-12-09 12:31:43.946839$GLGSV,2,1,05,71,59,168,47,72,64,313,44,73,50,032,45,74,70,284,43*6F
###2023-12-09 12:31:43.948325$GLGSV,2,2,05,75,20,239,39,,,,,,,,,,,,*52
###2023-12-09 12:31:43.950674$GAGSV,1,1,04,04,20,311,43,19,80,306,40,21,76,177,46,27,42,050,44*68
###2023-12-09 12:31:43.953016$GBGSV,1,1,04,14,57,199,43,25,31,251,36,26,36,056,44,33,63,258,48*6C
###2023-12-09 12:31:43.954348$GNVTG,292.24,T,,M,0.54,N,1.01,K,A*2D
