###2023-12-09 13:32:55.004691$GPGSV,2,1,07,03,27,247,38,04,45,308,43,16,65,221,45,26,85,040,48*7D
###2023-12-09 13:32:55.006770$GPGSV,2,2,07,28,39,084,45,29,21,048,40,31,60,064,47,,,,*46
###2023-12-09 13:32:55.009095$GLGSV,2,1,06,65,38,319,40,71,23,175,37,72,63,222,46,73,23,052,42*63
###2023-12-09 13:32:55.010862$GLGSV,2,2,06,74,60,013,41,75,43,271,46,,,,,,,,*62
###2023-12-09 13:32:55.013171$GAGSV,1,1,04,04,39,310,43,19,73,182,41,21,77,047,46,27,23,050,39*6C
###2023-12-09 13:32:55.015502$GBGSV,2,1,06,14,29,190,38,24,63,045,48,25,50,275,48,26,16,070,41*62
###2023-12-09 13:32:55.017252$GBGSV,2,2,06,33,46,217,48,35,16,057,41,,,,,,,,*61
###2023-12-09 13:32:55.018585$GNVTG,337.24,T,,M,2.08,N,3.85,K,A*26
###2023-12-09 13:32:55.020224$GNGST,183254.10,18.000,,,,0.140,0.079,0.220*5D
###2023-12-09 13:32:55.021512$GNZDA,183254.10,09,12,2023,00,00*79
###2023-12-09 13:32:55.022146$GNEBP,,,,,,M*13
###2023-12-09 13:32:55.190662$GNGGA,183254.30,4138.0353364,N,07032.4099855,W,1,24,0.6,13.542,M,-29.745,M,0.0,*55
###2023-12-09 13:32:55.391312$GNGGA,183254.50,4138.0354598,N,07032.4100189,W,1,23,0.7,13.532,M,-29.745,M,0.0,*59
###2023-12-09 13:32:55.592091$GNGGA,183254.70,4138.0355770,N,07032.4100717,W,1,24,0.6,13.525,M,-29.745,M,0.0,*5F
###2023-12-09 13:32:55.790623$GNGGA,183254.90,4138.0356882,N,07032.4101441,W,1,24,0.6,13.526,M,-29.745,M,0.0,*52
###2023-12-09 13:32:55.994527$GNRMC,183255.10,A,4138.0358044,N,07032.4102118,W,2.25,341.01,091223,,,A*5B
###2023-12-09 13:32:55.997404$GNGGA,183255.10,4138.0358044,N,07032.4102118,W,1,24,0.6,13.514,M,-29.745,M,0.0,*5C
###2023-12-09 13:32:55.999212$GPGSA,A,3,03,04,16,26,28,29,31,,,,,,1.1,0.6,0.9*3A
###2023-12-09 13:32:56.000928$GLGSA,A,3,65,71,72,73,74,75,,,,,,,1.1,0.6,0.9*24
###2023-12-09 13:32:56.002512$GAGSA,A,3,04,19,21,27,,,,,,,,,1.1,0.6,0.9*26
###2023-12-09 13:32:56.004231$GBGSA,A,3,14,24,25,26,33,35,,,,,,,1.1,0.6,0.9*29
###2023-12-09 13:32:56.006557$GPGSV,2,1,07,03,27,247,40,04,45,308,45,16,65,221,46,26,85,040,48*77
###2023-12-09 13:32:56.008603$GPGSV,2,2,07,28,39,084,45,29,21,048,41,31,60,064,46,,,,*46
###2023-12-09 13:32:56.010938$GLGSV,2,1,06,65,38,319,41,71,23,175,40,72,63,222,46,73,23,052,41*61
###2023-12-09 13:32:56.012687$GLGSV,2,2,06,74,60,013,41,75,43,271,46,,,,,,,,*62
###2023-12-09 13:32:56.015022$GAGSV,1,1,04,04,39,310,43,19,73,182,41,21,77,047,46,27,23,050,39*6C
###2023-12-09 13:32:56.017345$GBGSV,2,1,06,14,29,190,36,24,63,045,47,25,50,275,45,26,16,070,41*6E
###2023-12-09 13:32:56.019100$GBGSV,2,2,06,33,46,217,47,35,16,057,40,,,,,,,,*6F
###2023-12-09 13:32:56.020425$GNVTG,341.01,T,,M,2.25,N,4.18,K,A*2C
###2023-12-09 13:32:56.022073$GNGST,183255.10,18.000,,,,0.130,0.078,0.210*59
###2023-12-09 13:32:56.023375$GNZDA,183255.10,09,12,2023,00,00*78
###2023-12-09 13:32:56.024014$GNEBP,,,,,,M*13
###2023-12-09 13:32:56.191946$GNGGA,183255.30,4138.0359285,N,07032.4102497,W,1,23,0.7,13.506,M,-29.745,M,0.0,*57
###2023-12-09 13:32:56.392611$GNGGA,183255.50,4138.0360528,N,07032.4102829,W,1,23,0.7,13.503,M,-29.745,M,0.0,*57
###2023-12-09 13:32:56.592670$GNGGA,183255.70,4138.0361753,N,07032.4103267,W,1,23,0.7,13.489,M,-29.745,M,0.0,*58
###2023-12-09 13:32:56.793527$GNGGA,183255.90,4138.0362947,N,07032.4103744,W,1,23,0.7,13.472,M,-29.745,M,0.0,*5E
###2023-12-09 13:32:57.002913$GNRMC,183256.10,A,4138.0364165,N,07032.4104167,W,2.43,348.81,091223,,,A*5A
###2023-12-09 13:32:57.006376$GNGGA,183256.10,4138.0364165,N,07032.4104167,W,1,23,0.7,13.458,M,-29.745,M,0.0,*53
###2023-12-09 13:32:57.008564$GPGSA,A,3,03,04,16,26,28,29,31,,,,,,1.1,0.7,0.9*3B
###2023-12-09 13:32:57.010641$GLGSA,A,3,65,71,72,73,74,75,,,,,,,1.1,0.7,0.9*25
###2023-12-09 13:32:57.012581$GAGSA,A,3,04,19,21,27,,,,,,,,,1.1,0.7,0.9*27
###2023-12-09 13:32:57.014668$GBGSA,A,3,14,24,25,26,33,35,,,,,,,1.1,0.7,0.9*28
###2023-12-09 13:32:57.017479$GPGSV,2,1,07,03,27,247,40,04,45,308,45,16,65,221,46,26,85,040,48*77
###2023-12-09 13:32:57.019948$GPGSV,2,2,07,28,39,084,44,29,21,048,40,31,60,064,46,,,,*46
###2023-12-09 13:32:57.022759$GLGSV,2,1,06,65,38,319,42,71,23,175,40,72,63,222,46,73,23,052,40*63
###2023-12-09 13:32:57.024871$GLGSV,2,2,06,74,60,013,41,75,43,271,46,,,,,,,,*62
###2023-12-09 13:32:57.027684$GAGSV,1,1,04,04,39,310,43,19,73,182,41,21,77,047,46,27,23,050,39*6C
###2023-12-09 13:32:57.030482$GBGSV,2,1,06,14,29,190,40,24,63,045,48,25,50,275,47,26,16,070,42*61
###2023-12-09 13:32:57.032601$GBGSV,2,2,06,33,46,217,48,35,16,057,42,,,,,,,,*62
###2023-12-09 13:32:57.034200$GNVTG,348.81,T,,M,2.43,N,4.50,K,A*21
###2023-12-09 13:32:57.036206$GNGST,183256.10,19.000,,,,0.130,0.077,0.210*54
###2023-12-09 13:32:57.037761$GNZDA,183256.10,09,12,2023,00,00*7B
###2023-12-09 13:32:57.038529$GNEBP,,,,,,M*13
###2023-12-09 13:32:57.200019$GNGGA,183256.30,4138.0365427,N,07032.4104416,W,1,23,0.7,13.459,M,-29.745,M,0.0,*51
###2023-12-09 13:32:57.392759$GNGGA,183256.50,4138.0366758,N,07032.4104759,W,1,24,0.6,13.474,M,-29.745,M,0.0,*5E
###2023-12-09 13:32:57.592079$GNGGA,183256.70,4138.0368118,N,07032.4105146,W,1,23,0.7,13.469,M,-29.745,M,0.0,*53
###2023-12-09 13:32:57.792947$GNGGA,183256.90,4138.0369479,N,07032.4105520,W,1,23,0.7,13.463,M,-29.745,M,0.0,*50
###2023-12-09 13:32:57.995776$GNRMC,183257.10,A,4138.0370856,N,07032.4105894,W,2.57,350.38,091223,,,A*5D
###2023-12-09 13:32:57.998634$GNGGA,183257.10,4138.0370856,N,07032.4105894,W,1,24,0.6,13.463,M,-29.745,M,0.0,*54
###2023-12-09 13:32:58.000433$GPGSA,A,3,03,04,16,26,28,29,31,,,,,,1.1,0.6,0.9*3A
###2023-12-09 13:32:58.002151$GLGSA,A,3,65,71,72,73,74,75,,,,,,,1.1,0.6,0.9*24
###2023-12-09 13:32:58.003782$GAGSA,A,3,04,19,21,27,,,,,,,,,1.1,0.6,0.9*26
###2023-12-09 13:32:58.005498$GBGSA,A,3,14,24,25,26,33,35,,,,,,,1.1,0.6,0.9*29
###2023-12-09 13:32:58.007834$GPGSV,2,1,07,03,27,247,35,04,45,308,44,16,65,221,45,26,85,040,48*77
###2023-12-09 13:32:58.009869$GPGSV,2,2,07,28,39,084,46,29,21,048,41,31,60,064,47,,,,*44
###2023-12-09 13:32:58.012200$GLGSV,2,1,06,65,38,319,41,71,23,175,43,72,63,222,45,73,23,052,41*61
###2023-12-09 13:32:58.013945$GLGSV,2,2,06,74,60,013,41,75,43,271,45,,,,,,,,*61
###2023-12-09 13:32:58.016274$GAGSV,1,1,04,04,39,310,43,19,73,182,41,21,77,047,46,27,23,050,39*6C
###2023-12-09 13:32:58.018616$GBGSV,2,1,06,14,29,190,39,24,63,045,49,25,50,275,46,26,16,070,42*6F
###2023-12-09 13:32:58.020371$GBGSV,2,2,06,33,46,217,47,35,16,057,41,,,,,,,,*6E
###2023-12-09 13:32:58.021692$GNVTG,350.38,T,,M,2.57,N,4.75,K,A*28
###2023-12-09 13:32:58.023342$GNGST,183257.10,18.000,,,,0.130,0.077,0.200*55
###2023-12-09 13:32:58.024631$GNZDA,183257.10,09,12,2023,00,00*7A
###2023-12-09 13:32:58.025270$GNEBP,,,,,,M*13
###2023-12-09 13:32:58.199529$GNGGA,183257.30,4138.0372261,N,07032.4106172,W,1,24,0.6,13.453,M,-29.745,M,0.0,*5B
###2023-12-09 13:32:58.396814$GNGGA,183257.50,4138.0373656,N,07032.4106543,W,1,24,0.6,13.453,M,-29.745,M,0.0,*5A
###2023-12-09 13:32:58.593997$GNGGA,183257.70,4138.0374963,N,07032.4107079,W,1,24,0.6,13.451,M,-29.745,M,0.0,*59
###2023-12-09 13:32:58.794755$GNGGA,183257.90,4138.0376326,N,07032.4107654,W,1,24,0.6,13.448,M,-29.745,M,0.0,*5F
###2023-12-09 13:32:58.997445$GNRMC,183258.10,A,4138.0377715,N,07032.4108211,W,2.70,341.55,091223,,,A*59
###2023-12-09 13:32:59.000942$GNGGA,183258.10,4138.0377715,N,07032.4108211,W,1,24,0.6,13.432,M,-29.745,M,0.0,*5A
###2023-12-09 13:32:59.003124$GPGSA,A,3,03,04,16,26,28,29,31,,,,,,1.1,0.6,0.9*3A
###2023-12-09 13:32:59.005195$GLGSA,A,3,65,71,72,73,74,75,,,,,,,1.1,0.6,0.9*24
###2023-12-09 13:32:59.007112$GAGSA,A,3,04,19,21,27,,,,,,,,,1.1,0.6,0.9*26
###2023-12-09 13:32:59.009181$GBGSA,A,3,14,24,25,26,33,35,,,,,,,1.1,0.6,0.9*29
###2023-12-09 13:32:59.012000$GPGSV,2,1,07,03,27,247,42,04,45,308,43,16,65,221,45,26,85,040,48*70
###2023-12-09 13:32:59.014452$GPGSV,2,2,07,28,39,084,45,29,21,048,41,31,60,064,47,,,,*47
###2023-12-09 13:32:59.017272$GLGSV,2,1,06,65,38,319,40,71,23,175,46,72,63,222,45,73,23,052,44*60
###2023-12-09 13:32:59.019398$GLGSV,2,2,06,74,60,013,41,75,43,271,47,,,,,,,,*63
###2023-12-09 13:32:59.022207$GAGSV,1,1,04,04,39,310,42,19,73,182,41,21,77,047,46,27,23,050,41*62
###2023-12-09 13:32:59.025022$GBGSV,2,1,06,14,29,190,41,24,63,045,48,25,50,275,47,26,16,070,41*63
###2023-12-09 13:32:59.027148$GBGSV,2,2,06,33,46,217,48,35,16,057,42,,,,,,,,*62
###2023-12-09 13:32:59.029093$GNVTG,341.55,T,,M,2.70,N,5.00,K,A*25
###2023-12-09 13:32:59.031106$GNGST,183258.10,18.000,,,,0.130,0.077,0.200*5A
###2023-12-09 13:32:59.032678$GNZDA,183258.10,09,12,2023,00,00*75
###2023-12-09 13:32:59.033455$GNEBP,,,,,,M*13
###2023-12-09 13:32:59.195561$GNGGA,183258.30,4138.0379126,N,07032.4108874,W,1,24,0.6,13.431,M,-29.745,M,0.0,*5A
###2023-12-09 13:32:59.393853$GNGGA,183258.50,4138.0380555,N,07032.4109747,W,1,24,0.6,13.428,M,-29.745,M,0.0,*5C
###2023-12-09 13:32:59.593192$GNGGA,183258.70,4138.0381977,N,07032.4110631,W,1,24,0.6,13.434,M,-29.745,M,0.0,*56
###2023-12-09 13:32:59.792777$GNGGA,183258.90,4138.0383406,N,07032.4111561,W,1,24,0.6,13.429,M,-29.745,M,0.0,*5A
###2023-12-09 13:32:59.995597$GNRMC,183259.10,A,4138.0384792,N,07032.4112655,W,2.84,326.91,091223,,,A*56
