###2023-12-09 13:30:55.997427$GBGSA,A,3,24,25,26,33,35,,,,,,,,1.6,0.9,1.2*2E
###2023-12-09 13:30:55.999823$GPGSV,2,1,06,04,44,309,44,16,64,220,46,26,86,041,47,28,39,083,45*73
###2023-12-09 13:30:56.001582$GPGSV,2,2,06,29,21,049,45,31,61,063,48,,,,,,,,*77
###2023-12-09 13:30:56.003926$GLGSV,2,1,06,65,37,320,43,72,64,223,46,73,23,051,45,74,61,011,42*65
###2023-12-09 13:30:56.005669$GLGSV,2,2,06,75,42,269,45,83,15,049,37,,,,,,,,*6D
###2023-12-09 13:30:56.008005$GAGSV,1,1,04,04,39,310,43,19,73,182,40,21,78,047,46,27,23,050,43*6F
###2023-12-09 13:30:56.010316$GBGSV,2,1,05,24,64,044,48,25,50,275,45,26,17,070,44,33,47,218,45*6A
###2023-12-09 13:30:56.011777$GBGSV,2,2,05,35,16,058,43,,,,,,,,,,,,*55
###2023-12-09 13:30:56.013094$GNVTG,178.45,T,,M,1.22,N,2.27,K,A*2A
###2023-12-09 13:30:56.014724$GNGST,183055.10,5.700,,,,0.140,0.079,0.220*65
###2023-12-09 13:30:56.016009$GNZDA,183055.10,09,12,2023,00,00*7A
###2023-12-09 13:30:56.016647$GNEBP,,,,,,M*13
###2023-12-09 13:30:56.186814$GNGGA,183055.30,4138.0334288,N,07032.4140335,W,1,21,0.9,12.988,M,-29.746,M,0.0,*5E
###2023-12-09 13:30:56.387429$GNGGA,183055.50,4138.0333924,N,07032.4140027,W,1,20,0.9,12.997,M,-29.746,M,0.0,*5D
###2023-12-09 13:30:56.593453$GNGGA,183055.70,4138.0333598,N,07032.4139560,W,1,20,0.9,13.004,M,-29.746,M,0.0,*5E
###2023-12-09 13:30:56.790697$GNGGA,183055.90,4138.0333128,N,07032.4139120,W,1,20,0.9,13.005,M,-29.746,M,0.0,*5E
###2023-12-09 13:30:57.001817$GNRMC,183056.10,A,4138.0332567,N,07032.4138871,W,1.15,165.58,091223,,,A*55
###2023-12-09 13:30:57.004696$GNGGA,183056.10,4138.0332567,N,07032.4138871,W,1,21,0.9,13.004,M,-29.746,M,0.0,*57
###2023-12-09 13:30:57.006428$GPGSA,A,3,04,16,26,28,29,31,,,,,,,1.6,0.9,1.2*3B
###2023-12-09 13:30:57.008153$GLGSA,A,3,65,72,73,74,75,83,,,,,,,1.6,0.9,1.2*2B
###2023-12-09 13:30:57.009739$GAGSA,A,3,04,19,21,27,,,,,,,,,1.6,0.9,1.2*24
###2023-12-09 13:30:57.011399$GBGSA,A,3,24,25,26,33,35,,,,,,,,1.6,0.9,1.2*2E
###2023-12-09 13:30:57.013722$GPGSV,2,1,06,04,44,309,44,16,64,220,47,26,86,041,48,28,39,083,45*7D
###2023-12-09 13:30:57.015472$GPGSV,2,2,06,29,21,049,43,31,61,063,45,,,,,,,,*7C
###2023-12-09 13:30:57.017795$GLGSV,2,1,06,65,37,320,43,72,64,223,47,73,23,051,45,74,61,011,42*64
###2023-12-09 13:30:57.019549$GLGSV,2,2,06,75,42,269,45,83,15,049,37,,,,,,,,*6D
###2023-12-09 13:30:57.021870$GAGSV,1,1,04,04,39,310,44,19,73,182,41,21,78,047,46,27,23,050,43*69
###2023-12-09 13:30:57.024203$GBGSV,2,1,05,24,64,044,49,25,50,275,46,26,17,070,45,33,47,218,47*6B
###2023-12-09 13:30:57.025655$GBGSV,2,2,05,35,16,058,45,,,,,,,,,,,,*53
###2023-12-09 13:30:57.026980$GNVTG,165.58,T,,M,1.15,N,2.12,K,A*28
###2023-12-09 13:30:57.028591$GNGST,183056.10,5.200,,,,0.140,0.079,0.220*63
###2023-12-09 13:30:57.029877$GNZDA,183056.10,09,12,2023,00,00*79
###2023-12-09 13:30:57.030509$GNEBP,,,,,,M*13
###2023-12-09 13:30:57.190146$GNGGA,183056.30,4138.0331977,N,07032.4138584,W,1,21,0.9,13.012,M,-29.746,M,0.0,*5B
###2023-12-09 13:30:57.389970$GNGGA,183056.50,4138.0331520,N,07032.4138063,W,1,22,0.8,13.022,M,-29.746,M,0.0,*5E
###2023-12-09 13:30:57.588489$GNGGA,183056.70,4138.0331181,N,07032.4137421,W,1,22,0.8,13.021,M,-29.746,M,0.0,*5D
###2023-12-09 13:30:57.789202$GNGGA,183056.90,4138.0330714,N,07032.4136890,W,1,22,0.8,13.024,M,-29.746,M,0.0,*5A
###2023-12-09 13:30:57.992069$GNRMC,183057.10,A,4138.0330108,N,07032.4136391,W,1.44,147.40,091223,,,A*5D
###2023-12-09 13:30:57.994942$GNGGA,183057.10,4138.0330108,N,07032.4136391,W,1,21,0.9,13.040,M,-29.746,M,0.0,*52
###2023-12-09 13:30:57.996670$GPGSA,A,3,04,16,26,28,29,31,,,,,,,1.6,0.9,1.2*3B
###2023-12-09 13:30:57.998378$GLGSA,A,3,65,72,73,74,75,83,,,,,,,1.6,0.9,1.2*2B
###2023-12-09 13:30:57.999979$GAGSA,A,3,04,19,21,27,,,,,,,,,1.6,0.9,1.2*24
###2023-12-09 13:30:58.001627$GBGSA,A,3,24,25,26,33,35,,,,,,,,1.6,0.9,1.2*2E
###2023-12-09 13:30:58.003963$GPGSV,2,1,06,04,44,309,44,16,64,220,46,26,86,041,48,28,39,083,43*7A
###2023-12-09 13:30:58.005709$GPGSV,2,2,06,29,21,049,44,31,61,063,46,,,,,,,,*78
###2023-12-09 13:30:58.008044$GLGSV,2,1,06,65,37,320,43,72,64,223,46,73,23,051,44,74,61,011,41*67
###2023-12-09 13:30:58.009787$GLGSV,2,2,06,75,42,269,45,83,15,049,35,,,,,,,,*6F
###2023-12-09 13:30:58.012143$GAGSV,1,1,04,04,39,310,44,19,73,182,41,21,78,047,46,27,23,050,42*68
###2023-12-09 13:30:58.014469$GBGSV,2,1,05,24,64,044,47,25,50,275,46,26,17,070,43,33,47,218,47*63
###2023-12-09 13:30:58.015929$GBGSV,2,2,05,35,16,058,45,,,,,,,,,,,,*53
###2023-12-09 13:30:58.017245$GNVTG,147.40,T,,M,1.44,N,2.66,K,A*26
###2023-12-09 13:30:58.018862$GNGST,183057.10,6.000,,,,0.140,0.080,0.220*65
###2023-12-09 13:30:58.020147$GNZDA,183057.10,09,12,2023,00,00*78
###2023-12-09 13:30:58.020786$GNEBP,,,,,,M*13
###2023-12-09 13:30:58.187868$GNGGA,183057.30,4138.0329489,N,07032.4135773,W,1,21,0.9,13.037,M,-29.746,M,0.0,*5F
###2023-12-09 13:30:58.387573$GNGGA,183057.50,4138.0329138,N,07032.4135002,W,1,22,0.9,13.055,M,-29.746,M,0.0,*50
###2023-12-09 13:30:58.587651$GNGGA,183057.70,4138.0328718,N,07032.4134232,W,1,22,0.9,13.052,M,-29.746,M,0.0,*50
###2023-12-09 13:30:58.786369$GNGGA,183057.90,4138.0328253,N,07032.4133424,W,1,22,0.9,13.054,M,-29.746,M,0.0,*54
###2023-12-09 13:30:58.990348$GNRMC,183058.10,A,4138.0327704,N,07032.4132566,W,1.63,130.75,091223,,,A*57
###2023-12-09 13:30:58.993332$GNGGA,183058.10,4138.0327704,N,07032.4132566,W,1,22,0.9,13.067,M,-29.746,M,0.0,*5D
###2023-12-09 13:30:58.995143$GPGSA,A,3,03,04,16,26,28,29,31,,,,,,1.4,0.9,1.1*39
###2023-12-09 13:30:58.996849$GLGSA,A,3,65,72,73,74,75,83,,,,,,,1.4,0.9,1.1*2A
###2023-12-09 13:30:58.998420$GAGSA,A,3,04,19,21,27,,,,,,,,,1.4,0.9,1.1*25
###2023-12-09 13:30:59.000079$GBGSA,A,3,24,25,26,33,35,,,,,,,,1.4,0.9,1.1*2F
###2023-12-09 13:30:59.002408$GPGSV,2,1,07,03,28,248,35,04,44,309,45,16,64,220,46,26,86,041,48*77
###2023-12-09 13:30:59.004465$GPGSV,2,2,07,28,39,083,41,29,21,049,44,31,61,063,46,,,,*47
###2023-12-09 13:30:59.006805$GLGSV,2,1,06,65,37,320,42,72,64,223,46,73,23,051,44,74,61,011,42*65
###2023-12-09 13:30:59.008556$GLGSV,2,2,06,75,42,269,47,83,15,049,35,,,,,,,,*6D
###2023-12-09 13:30:59.010892$GAGSV,1,1,04,04,39,310,42,19,73,182,40,21,78,047,45,27,23,050,42*6C
###2023-12-09 13:30:59.013224$GBGSV,2,1,05,24,64,044,47,25,50,275,47,26,17,070,43,33,47,218,48*6D
###2023-12-09 13:30:59.014691$GBGSV,2,2,05,35,16,058,44,,,,,,,,,,,,*52
###2023-12-09 13:30:59.016009$GNVTG,130.75,T,,M,1.63,N,3.02,K,A*26
###2023-12-09 13:30:59.017621$GNGST,183058.10,6.300,,,,0.140,0.080,0.220*69
###2023-12-09 13:30:59.018923$GNZDA,183058.10,09,12,2023,00,00*77
###2023-12-09 13:30:59.019563$GNEBP,,,,,,M*13
###2023-12-09 13:30:59.186942$GNGGA,183058.30,4138.0327171,N,07032.4131684,W,1,21,0.9,13.071,M,-29.746,M,0.0,*53
###2023-12-09 13:30:59.386331$GNGGA,183058.50,4138.0326778,N,07032.4130759,W,1,21,0.9,13.069,M,-29.746,M,0.0,*52
###2023-12-09 13:30:59.586776$GNGGA,183058.70,4138.0326509,N,07032.4129755,W,1,20,0.9,13.078,M,-29.746,M,0.0,*51
###2023-12-09 13:30:59.786346$GNGGA,183058.90,4138.0326133,N,07032.4128733,W,1,22,0.9,13.078,M,-29.746,M,0.0,*51
###2023-12-09 13:30:59.987967$GNRMC,183059.10,A,4138.0325676,N,07032.4127696,W,1.54,118.69,091223,,,A*5B
###2023-12-09 13:30:59.990826$GNGGA,183059.10,4138.0325676,N,07032.4127696,W,1,22,0.9,13.082,M,-29.746,M,0.0,*59
###2023-12-09 13:30:59.992615$GPGSA,A,3,03,04,16,26,28,29,31,,,,,,1.4,0.9,1.1*39
###2023-12-09 13:30:59.994320$GLGSA,A,3,65,72,73,74,75,83,,,,,,,1.4,0.9,1.1*2A
###2023-12-09 13:30:59.995913$GAGSA,A,3,04,19,21,27,,,,,,,,,1.4,0.9,1.1*25
###2023-12-09 13:30:59.997554$GBGSA,A,3,24,25,26,33,35,,,,,,,,1.4,0.9,1.1*2F
###2023-12-09 13:30:59.999879$GPGSV,2,1,07,03,28,248,36,04,44,309,45,16,64,220,47,26,86,041,48*75
###2023-12-09 13:31:00.001909$GPGSV,2,2,07,28,39,083,42,29,21,049,44,31,61,063,47,,,,*45
###2023-12-09 13:31:00.004238$GLGSV,2,1,06,65,37,320,42,72,64,223,46,73,23,051,43,74,61,011,42*62
###2023-12-09 13:31:00.005977$GLGSV,2,2,06,75,42,269,47,83,15,049,35,,,,,,,,*6D
###2023-12-09 13:31:00.008302$GAGSV,1,1,04,04,39,310,43,19,73,182,42,21,78,047,46,27,23,050,42*6C
###2023-12-09 13:31:00.010631$GBGSV,2,1,05,24,64,044,47,25,50,275,47,26,17,070,41,33,47,218,47*60
###2023-12-09 13:31:00.012084$GBGSV,2,2,05,35,16,058,42,,,,,,,,,,,,*54
###2023-12-09 13:31:00.013650$GNVTG,118.69,T,,M,1.54,N,2.84,K,A*2A
###2023-12-09 13:31:00.015284$GNGST,183059.10,6.200,,,,0.140,0.080,0.220*69
###2023-12-09 13:31:00.016574$GNZDA,183059.10,09,12,2023,00,00*76
###2023-12-09 13:31:00.017212$GNEBP,,,,,,M*13
###2023-12-09 13:31:00.188512$GNGGA,183059.30,4138.0325305,N,07032.4126612,W,1,21,0.9,13.087,M,-29.746,M,0.0,*51
###2023-12-09 13:31:00.386357$GNGGA,183059.50,4138.0325094,N,07032.4125452,W,1,20,0.9,13.099,M,-29.746,M,0.0,*57
###2023-12-09 13:31:00.586501$GNGGA,183059.70,4138.0324935,N,07032.4124328,W,1,20,0.9,13.099,M,-29.746,M,0.0,*5D
###2023-12-09 13:31:00.787428$GNGGA,183059.90,4138.0324716,N,07032.4123187,W,1,20,0.9,13.101,M,-29.746,M,0.0,*5C
