###2023-12-09 13:18:57.000974$GAGSA,A,3,04,19,21,27,,,,,,,,,1.1,0.7,0.9*27
###2023-12-09 13:18:57.002726$GBGSA,A,3,14,24,25,26,33,35,,,,,,,1.1,0.7,0.9*28
###2023-12-09 13:18:57.005066$GPGSV,2,1,07,03,31,253,42,04,39,310,41,16,58,216,44,26,88,205,47*78
###2023-12-09 13:18:57.007132$GPGSV,2,2,07,28,43,078,45,29,23,053,42,31,64,053,47,,,,*42
###2023-12-09 13:18:57.009482$GLGSV,2,1,06,65,32,324,41,71,31,174,42,72,69,237,45,73,28,047,44*62
###2023-12-09 13:18:57.011161$GLGSV,2,2,06,74,65,,42,75,38,262,46,,,,,,,,*58
###2023-12-09 13:18:57.013486$GAGSV,1,1,04,04,35,311,41,19,78,188,40,21,82,058,46,27,27,049,41*64
###2023-12-09 13:18:57.015837$GBGSV,2,1,06,14,35,191,42,24,68,038,48,25,46,269,47,26,20,067,44*61
###2023-12-09 13:18:57.017584$GBGSV,2,2,06,33,51,223,47,35,16,062,42,,,,,,,,*6A
###2023-12-09 13:18:57.018927$GNVTG,322.47,T,,M,3.13,N,5.80,K,A*2F
###2023-12-09 13:18:57.020574$GNGST,181856.10,18.000,,,,0.098,0.071,0.170*5D
###2023-12-09 13:18:57.021862$GNZDA,181856.10,09,12,2023,00,00*73
###2023-12-09 13:18:57.022498$GNEBP,,,,,,M*13
###2023-12-09 13:18:57.183905$GNGGA,181856.30,4138.0539708,N,07032.3071190,W,1,24,0.7,13.246,M,-29.743,M,0.0,*5E
###2023-12-09 13:18:57.380395$GNGGA,181856.50,4138.0541082,N,07032.3072592,W,1,24,0.7,13.249,M,-29.743,M,0.0,*58
###2023-12-09 13:18:57.581123$GNGGA,181856.70,4138.0542462,N,07032.3073987,W,1,24,0.7,13.248,M,-29.743,M,0.0,*5B
###2023-12-09 13:18:57.781337$GNGGA,181856.90,4138.0543863,N,07032.3075411,W,1,24,0.7,13.252,M,-29.743,M,0.0,*56
###2023-12-09 13:18:57.984770$GNRMC,181857.10,A,4138.0545331,N,07032.3076818,W,3.27,325.86,091223,,,A*58
###2023-12-09 13:18:57.987612$GNGGA,181857.10,4138.0545331,N,07032.3076818,W,1,24,0.7,13.254,M,-29.743,M,0.0,*55
###2023-12-09 13:18:57.989388$GPGSA,A,3,03,04,16,26,28,29,31,,,,,,1.1,0.7,0.9*3B
###2023-12-09 13:18:57.991109$GLGSA,A,3,65,71,72,73,74,75,,,,,,,1.1,0.7,0.9*25
###2023-12-09 13:18:57.992688$GAGSA,A,3,04,19,21,27,,,,,,,,,1.1,0.7,0.9*27
###2023-12-09 13:18:57.994393$GBGSA,A,3,14,24,25,26,33,35,,,,,,,1.1,0.7,0.9*28
###2023-12-09 13:18:57.996727$GPGSV,2,1,07,03,31,253,42,04,39,310,42,16,58,216,46,26,88,205,48*76
###2023-12-09 13:18:57.998778$GPGSV,2,2,07,28,43,078,45,29,23,053,43,31,64,053,46,,,,*42
###2023-12-09 13:18:58.001096$GLGSV,2,1,06,65,32,324,41,71,31,174,46,72,69,237,45,73,28,047,44*66
###2023-12-09 13:18:58.002792$GLGSV,2,2,06,74,65,,42,75,38,262,45,,,,,,,,*5B
###2023-12-09 13:18:58.005118$GAGSV,1,1,04,04,35,311,41,19,78,188,40,21,82,058,46,27,27,049,41*64
###2023-12-09 13:18:58.007472$GBGSV,2,1,06,14,35,191,41,24,68,038,48,25,46,269,46,26,20,067,43*64
###2023-12-09 13:18:58.009216$GBGSV,2,2,06,33,51,223,47,35,16,062,42,,,,,,,,*6A
###2023-12-09 13:18:58.010532$GNVTG,325.86,T,,M,3.27,N,6.05,K,A*2C
###2023-12-09 13:18:58.012190$GNGST,181857.10,18.000,,,,0.099,0.071,0.170*5D
###2023-12-09 13:18:58.013475$GNZDA,181857.10,09,12,2023,00,00*72
###2023-12-09 13:18:58.014112$GNEBP,,,,,,M*13
###2023-12-09 13:18:58.180610$GNGGA,181857.30,4138.0546876,N,07032.3078132,W,1,24,0.7,13.251,M,-29.743,M,0.0,*56
###2023-12-09 13:18:58.380587$GNGGA,181857.50,4138.0548492,N,07032.3079291,W,1,24,0.7,13.250,M,-29.743,M,0.0,*52
###2023-12-09 13:18:58.580847$GNGGA,181857.70,4138.0550170,N,07032.3080373,W,1,24,0.7,13.250,M,-29.743,M,0.0,*5B
###2023-12-09 13:18:58.781239$GNGGA,181857.90,4138.0551907,N,07032.3081296,W,1,24,0.7,13.250,M,-29.743,M,0.0,*57
###2023-12-09 13:18:58.984978$GNRMC,181858.10,A,4138.0553722,N,07032.3081988,W,3.34,346.65,091223,,,A*5C
###2023-12-09 13:18:58.987856$GNGGA,181858.10,4138.0553722,N,07032.3081988,W,1,24,0.7,13.250,M,-29.743,M,0.0,*5F
###2023-12-09 13:18:58.989653$GPGSA,A,3,03,04,16,26,28,29,31,,,,,,1.1,0.7,0.9*3B
###2023-12-09 13:18:58.991388$GLGSA,A,3,65,71,72,73,74,75,,,,,,,1.1,0.7,0.9*25
###2023-12-09 13:18:58.992978$GAGSA,A,3,04,19,21,27,,,,,,,,,1.1,0.7,0.9*27
###2023-12-09 13:18:58.994703$GBGSA,A,3,14,24,25,26,33,35,,,,,,,1.1,0.7,0.9*28
###2023-12-09 13:18:58.997032$GPGSV,2,1,07,03,31,253,44,04,39,310,44,16,58,216,46,26,88,205,48*76
###2023-12-09 13:18:58.999089$GPGSV,2,2,07,28,43,078,43,29,23,053,41,31,64,053,46,,,,*46
###2023-12-09 13:18:59.001415$GLGSV,2,1,06,65,32,324,39,71,31,174,46,72,69,237,46,73,28,047,41*6F
###2023-12-09 13:18:59.003078$GLGSV,2,2,06,74,65,,41,75,38,262,47,,,,,,,,*5A
###2023-12-09 13:18:59.005406$GAGSV,1,1,04,04,35,311,42,19,78,188,40,21,82,058,46,27,27,049,39*68
###2023-12-09 13:18:59.007744$GBGSV,2,1,06,14,35,191,43,24,68,038,47,25,46,269,47,26,20,067,40*6B
###2023-12-09 13:18:59.009491$GBGSV,2,2,06,33,51,223,47,35,16,062,40,,,,,,,,*68
###2023-12-09 13:18:59.010823$GNVTG,346.65,T,,M,3.34,N,6.19,K,A*2B
###2023-12-09 13:18:59.012464$GNGST,181858.10,18.000,,,,0.099,0.071,0.170*52
###2023-12-09 13:18:59.013755$GNZDA,181858.10,09,12,2023,00,00*7D
###2023-12-09 13:18:59.014393$GNEBP,,,,,,M*13
###2023-12-09 13:18:59.180523$GNGGA,181858.30,4138.0555584,N,07032.3082509,W,1,24,0.7,13.248,M,-29.743,M,0.0,*5A
###2023-12-09 13:18:59.380339$GNGGA,181858.50,4138.0557510,N,07032.3082964,W,1,24,0.7,13.252,M,-29.743,M,0.0,*5F
###2023-12-09 13:18:59.582194$GNGGA,181858.70,4138.0559487,N,07032.3083365,W,1,24,0.7,13.251,M,-29.743,M,0.0,*55
###2023-12-09 13:18:59.782358$GNGGA,181858.90,4138.0561482,N,07032.3083671,W,1,24,0.7,13.248,M,-29.743,M,0.0,*5D
###2023-12-09 13:18:59.989317$GNRMC,181859.10,A,4138.0563476,N,07032.3083893,W,3.56,354.89,091223,,,A*50
###2023-12-09 13:18:59.992195$GNGGA,181859.10,4138.0563476,N,07032.3083893,W,1,24,0.7,13.245,M,-29.743,M,0.0,*52
###2023-12-09 13:18:59.993997$GPGSA,A,3,03,04,16,26,28,29,31,,,,,,1.1,0.7,0.9*3B
###2023-12-09 13:18:59.995735$GLGSA,A,3,65,71,72,73,74,75,,,,,,,1.1,0.7,0.9*25
###2023-12-09 13:18:59.997316$GAGSA,A,3,04,19,21,27,,,,,,,,,1.1,0.7,0.9*27
###2023-12-09 13:18:59.999045$GBGSA,A,3,14,24,25,26,33,35,,,,,,,1.1,0.7,0.9*28
###2023-12-09 13:19:00.001375$GPGSV,2,1,07,03,31,253,44,04,39,310,44,16,58,216,46,26,88,205,48*76
###2023-12-09 13:19:00.003433$GPGSV,2,2,07,28,43,078,44,29,23,053,40,31,64,053,46,,,,*40
###2023-12-09 13:19:00.005772$GLGSV,2,1,06,65,32,324,39,71,31,174,46,72,69,237,46,73,28,047,41*6F
###2023-12-09 13:19:00.007439$GLGSV,2,2,06,74,65,,41,75,38,262,47,,,,,,,,*5A
###2023-12-09 13:19:00.009783$GAGSV,1,1,04,04,35,311,43,19,78,188,40,21,82,058,46,27,27,049,39*69
###2023-12-09 13:19:00.012132$GBGSV,2,1,06,14,35,191,43,24,68,038,47,25,46,269,47,26,20,067,42*69
###2023-12-09 13:19:00.013886$GBGSV,2,2,06,33,51,223,47,35,16,062,42,,,,,,,,*6A
###2023-12-09 13:19:00.015221$GNVTG,354.89,T,,M,3.56,N,6.59,K,A*2A
###2023-12-09 13:19:00.016876$GNGST,181859.10,18.000,,,,0.099,0.071,0.170*53
###2023-12-09 13:19:00.018173$GNZDA,181859.10,09,12,2023,00,00*7C
###2023-12-09 13:19:00.018858$GNEBP,,,,,,M*13
###2023-12-09 13:19:00.182187$GNGGA,181859.30,4138.0565468,N,07032.3084122,W,1,24,0.7,13.241,M,-29.743,M,0.0,*59
###2023-12-09 13:19:00.382118$GNGGA,181859.50,4138.0567437,N,07032.3084419,W,1,24,0.7,13.236,M,-29.743,M,0.0,*5A
###2023-12-09 13:19:00.582202$GNGGA,181859.70,4138.0569371,N,07032.3084774,W,1,24,0.7,13.234,M,-29.743,M,0.0,*59
###2023-12-09 13:19:00.781163$GNGGA,181859.90,4138.0571298,N,07032.3085125,W,1,24,0.7,13.232,M,-29.743,M,0.0,*5D
###2023-12-09 13:19:00.985900$GNRMC,181900.10,A,4138.0573264,N,07032.3085509,W,3.58,351.22,091223,,,A*5B
###2023-12-09 13:19:00.988774$GNGGA,181900.10,4138.0573264,N,07032.3085509,W,1,24,0.7,13.236,M,-29.743,M,0.0,*57
###2023-12-09 13:19:00.990575$GPGSA,A,3,03,04,16,26,28,29,31,,,,,,1.1,0.7,0.9*3B
###2023-12-09 13:19:00.992296$GLGSA,A,3,65,71,72,73,74,75,,,,,,,1.1,0.7,0.9*25
###2023-12-09 13:19:00.993880$GAGSA,A,3,04,19,21,27,,,,,,,,,1.1,0.7,0.9*27
###2023-12-09 13:19:00.995606$GBGSA,A,3,14,24,25,26,33,35,,,,,,,1.1,0.7,0.9*28
###2023-12-09 13:19:00.997932$GPGSV,2,1,07,03,31,253,43,04,39,310,44,16,58,216,47,26,88,205,48*70
###2023-12-09 13:19:00.999987$GPGSV,2,2,07,28,43,078,45,29,23,053,41,31,64,053,46,,,,*40
###2023-12-09 13:19:01.002309$GLGSV,2,1,06,65,32,324,38,71,31,174,45,72,69,237,46,73,28,047,42*6E
###2023-12-09 13:19:01.003975$GLGSV,2,2,06,74,65,,41,75,38,262,47,,,,,,,,*5A
###2023-12-09 13:19:01.006302$GAGSV,1,1,04,04,35,311,42,19,78,188,40,21,82,058,46,27,27,049,40*66
###2023-12-09 13:19:01.008890$GBGSV,2,1,06,14,35,191,41,24,68,038,47,25,46,269,46,26,20,067,42*6A
###2023-12-09 13:19:01.010664$GBGSV,2,2,06,33,51,223,48,35,16,062,41,,,,,,,,*66
###2023-12-09 13:19:01.012007$GNVTG,351.22,T,,M,3.58,N,6.62,K,A*28
###2023-12-09 13:19:01.013661$GNGST,181900.10,18.000,,,,0.099,0.071,0.170*5E
###2023-12-09 13:19:01.015002$GNZDA,181900.10,09,12,2023,00,00*71
###2023-12-09 13:19:01.015646$GNEBP,,,,,,M*13
###2023-12-09 13:19:01.181159$GNGGA,181900.30,4138.0575194,N,07032.3086029,W,1,24,0.7,13.234,M,-29.743,M,0.0,*59
###2023-12-09 13:19:01.381343$GNGGA,181900.50,4138.0577130,N,07032.3086722,W,1,24,0.7,13.239,M,-29.743,M,0.0,*52
###2023-12-09 13:19:01.583004$GNGGA,181900.70,4138.0579081,N,07032.3087436,W,1,24,0.7,13.242,M,-29.743,M,0.0,*5E
