###2023-12-09 12:42:30.971956$GAGSV,1,1,04,04,23,311,40,19,84,288,40,21,81,170,46,27,39,049,44*60
###2023-12-09 12:42:30.974818$GBGSV,2,1,05,14,52,196,44,24,79,359,48,25,34,255,43,26,33,058,44*66
###2023-12-09 12:42:30.976594$GBGSV,2,2,05,33,62,248,47,,,,,,,,,,,,*57
###2023-12-09 12:42:30.978199$GNVTG,223.90,T,,M,3.38,N,6.26,K,A*23
###2023-12-09 12:42:30.980208$GNGST,174230.10,18.000,,,,0.077,0.069,0.160*54
###2023-12-09 12:42:30.981772$GNZDA,174230.10,09,12,2023,00,00*73
###2023-12-09 12:42:30.982542$GNEBP,,,,,,M*13
###2023-12-09 12:42:31.142472$GNGGA,174230.30,4138.0602254,N,07032.3814436,W,1,24,0.6,13.473,M,-29.744,M,0.0,*5D
###2023-12-09 12:42:31.344637$GNGGA,174230.50,4138.0600948,N,07032.3816234,W,1,24,0.6,13.473,M,-29.744,M,0.0,*59
###2023-12-09 12:42:31.542715$GNGGA,174230.70,4138.0599603,N,07032.3817897,W,1,24,0.6,13.470,M,-29.744,M,0.0,*59
###2023-12-09 12:42:31.741939$GNGGA,174230.90,4138.0598110,N,07032.3819387,W,1,24,0.6,13.447,M,-29.744,M,0.0,*53
###2023-12-09 12:42:31.946086$GNRMC,174231.10,A,4138.0596567,N,07032.3820722,W,3.30,216.97,091223,,,A*59
###2023-12-09 12:42:31.948977$GNGGA,174231.10,4138.0596567,N,07032.3820722,W,1,24,0.6,13.421,M,-29.744,M,0.0,*51
###2023-12-09 12:42:31.950878$GPGSA,A,3,03,04,16,26,28,29,31,32,,,,,1.1,0.6,0.9*3B
###2023-12-09 12:42:31.952593$GLGSA,A,3,65,71,72,73,74,75,,,,,,,1.1,0.6,0.9*24
###2023-12-09 12:42:31.954170$GAGSA,A,3,04,19,21,27,,,,,,,,,1.1,0.6,0.9*26
###2023-12-09 12:42:31.955837$GBGSA,A,3,14,24,25,26,33,,,,,,,,1.1,0.6,0.9*2F
###2023-12-09 12:42:31.958164$GPGSV,2,1,08,03,38,272,43,04,25,311,40,16,40,208,43,26,70,207,46*74
###2023-12-09 12:42:31.960513$GPGSV,2,2,08,28,55,060,46,29,25,070,44,31,72,013,48,32,27,136,45*7C
###2023-12-09 12:42:31.962853$GLGSV,2,1,06,65,15,329,40,71,52,170,47,72,68,302,46,73,44,035,47*66
###2023-12-09 12:42:31.964605$GLGSV,2,2,06,74,71,303,43,75,25,244,38,,,,,,,,*6D
###2023-12-09 12:42:31.966947$GAGSV,1,1,04,04,23,311,40,19,84,288,40,21,81,170,46,27,39,049,43*67
###2023-12-09 12:42:31.969290$GBGSV,2,1,05,14,52,196,44,24,79,359,47,25,34,255,42,26,33,058,44*68
###2023-12-09 12:42:31.970767$GBGSV,2,2,05,33,62,248,47,,,,,,,,,,,,*57
###2023-12-09 12:42:31.972095$GNVTG,216.97,T,,M,3.30,N,6.12,K,A*2D
###2023-12-09 12:42:31.973752$GNGST,174231.10,18.000,,,,0.078,0.069,0.160*5A
###2023-12-09 12:42:31.975067$GNZDA,174231.10,09,12,2023,00,00*72
###2023-12-09 12:42:31.975712$GNEBP,,,,,,M*13
###2023-12-09 12:42:32.147811$GNGGA,174231.30,4138.0595202,N,07032.3822401,W,1,24,0.6,13.452,M,-29.744,M,0.0,*50
###2023-12-09 12:42:32.343332$GNGGA,174231.50,4138.0593820,N,07032.3824241,W,1,24,0.6,13.465,M,-29.744,M,0.0,*5A
###2023-12-09 12:42:32.542682$GNGGA,174231.70,4138.0592194,N,07032.3825357,W,1,24,0.6,13.432,M,-29.744,M,0.0,*5A
###2023-12-09 12:42:32.741901$GNGGA,174231.90,4138.0590495,N,07032.3825959,W,1,24,0.6,13.383,M,-29.744,M,0.0,*5B
###2023-12-09 12:42:32.949321$GNRMC,174232.10,A,4138.0588982,N,07032.3827450,W,3.75,225.36,091223,,,A*59
###2023-12-09 12:42:32.952201$GNGGA,174232.10,4138.0588982,N,07032.3827450,W,1,24,0.6,13.437,M,-29.744,M,0.0,*5C
###2023-12-09 12:42:32.954054$GPGSA,A,3,03,04,16,26,28,29,31,32,,,,,1.1,0.6,0.9*3B
###2023-12-09 12:42:32.955787$GLGSA,A,3,65,71,72,73,74,75,,,,,,,1.1,0.6,0.9*24
###2023-12-09 12:42:32.957372$GAGSA,A,3,04,19,21,27,,,,,,,,,1.1,0.6,0.9*26
###2023-12-09 12:42:32.959033$GBGSA,A,3,14,24,25,26,33,,,,,,,,1.1,0.6,0.9*2F
###2023-12-09 12:42:32.961356$GPGSV,2,1,08,03,38,272,43,04,25,311,39,16,40,208,43,26,70,207,46*7A
###2023-12-09 12:42:32.963701$GPGSV,2,2,08,28,55,060,46,29,25,070,44,31,72,013,47,32,27,136,45*73
###2023-12-09 12:42:32.966031$GLGSV,2,1,06,65,15,329,40,71,52,170,46,72,68,302,46,73,44,035,47*67
###2023-12-09 12:42:32.967787$GLGSV,2,2,06,74,71,303,42,75,25,244,38,,,,,,,,*6C
###2023-12-09 12:42:32.970101$GAGSV,1,1,04,04,23,311,36,19,84,288,40,21,81,170,45,27,39,049,42*64
###2023-12-09 12:42:32.972433$GBGSV,2,1,05,14,52,196,43,24,79,359,48,25,34,255,44,26,33,058,43*61
###2023-12-09 12:42:32.973884$GBGSV,2,2,05,33,62,248,47,,,,,,,,,,,,*57
###2023-12-09 12:42:32.975222$GNVTG,225.36,T,,M,3.75,N,6.95,K,A*28
###2023-12-09 12:42:32.976863$GNGST,174232.10,19.000,,,,0.078,0.069,0.160*58
###2023-12-09 12:42:32.978148$GNZDA,174232.10,09,12,2023,00,00*71
###2023-12-09 12:42:32.978795$GNEBP,,,,,,M*13
###2023-12-09 12:42:33.142436$GNGGA,174232.30,4138.0587462,N,07032.3829163,W,1,24,0.6,13.441,M,-29.744,M,0.0,*58
###2023-12-09 12:42:33.343253$GNGGA,174232.50,4138.0585792,N,07032.3829826,W,1,24,0.6,13.410,M,-29.744,M,0.0,*5C
###2023-12-09 12:42:33.542910$GNGGA,174232.70,4138.0584087,N,07032.3829964,W,1,24,0.6,13.391,M,-29.744,M,0.0,*55
###2023-12-09 12:42:33.741799$GNGGA,174232.90,4138.0582461,N,07032.3830907,W,1,24,0.6,13.412,M,-29.744,M,0.0,*50
###2023-12-09 12:42:33.942101$GNRMC,174233.10,A,4138.0580848,N,07032.3832189,W,3.25,206.92,091223,,,A*58
###2023-12-09 12:42:33.944966$GNGGA,174233.10,4138.0580848,N,07032.3832189,W,1,24,0.6,13.422,M,-29.744,M,0.0,*53
###2023-12-09 12:42:33.946854$GPGSA,A,3,03,04,16,26,28,29,31,32,,,,,1.1,0.6,0.9*3B
###2023-12-09 12:42:33.948590$GLGSA,A,3,65,71,72,73,74,75,,,,,,,1.1,0.6,0.9*24
###2023-12-09 12:42:33.950183$GAGSA,A,3,04,19,21,27,,,,,,,,,1.1,0.6,0.9*26
###2023-12-09 12:42:33.951852$GBGSA,A,3,14,24,25,26,33,,,,,,,,1.1,0.6,0.9*2F
###2023-12-09 12:42:33.954178$GPGSV,2,1,08,03,38,272,45,04,25,311,42,16,40,208,42,26,70,207,47*70
###2023-12-09 12:42:33.956527$GPGSV,2,2,08,28,55,060,45,29,25,070,42,31,72,013,47,32,27,136,44*77
###2023-12-09 12:42:33.958875$GLGSV,2,1,06,65,15,329,40,71,52,170,46,72,68,302,46,73,44,035,46*66
###2023-12-09 12:42:33.960616$GLGSV,2,2,06,74,71,303,43,75,25,244,42,,,,,,,,*60
###2023-12-09 12:42:33.962946$GAGSV,1,1,04,04,23,311,40,19,84,288,40,21,81,170,46,27,39,049,42*66
###2023-12-09 12:42:33.965277$GBGSV,2,1,05,14,52,196,42,24,79,359,48,25,34,255,43,26,33,058,43*67
###2023-12-09 12:42:33.966743$GBGSV,2,2,05,33,62,248,47,,,,,,,,,,,,*57
###2023-12-09 12:42:33.968065$GNVTG,206.92,T,,M,3.25,N,6.01,K,A*2F
###2023-12-09 12:42:33.969710$GNGST,174233.10,18.000,,,,0.078,0.070,0.160*50
###2023-12-09 12:42:33.971045$GNZDA,174233.10,09,12,2023,00,00*70
###2023-12-09 12:42:33.971689$GNEBP,,,,,,M*13
###2023-12-09 12:42:34.143794$GNGGA,174233.30,4138.0579129,N,07032.3832864,W,1,24,0.6,13.413,M,-29.744,M,0.0,*51
###2023-12-09 12:42:34.343488$GNGGA,174233.50,4138.0577434,N,07032.3832917,W,1,24,0.6,13.404,M,-29.744,M,0.0,*53
###2023-12-09 12:42:34.544808$GNGGA,174233.70,4138.0575780,N,07032.3833336,W,1,24,0.6,13.408,M,-29.744,M,0.0,*5B
###2023-12-09 12:42:34.742657$GNGGA,174233.90,4138.0574094,N,07032.3834347,W,1,24,0.6,13.419,M,-29.744,M,0.0,*57
###2023-12-09 12:42:34.943142$GNRMC,174234.10,A,4138.0572424,N,07032.3835090,W,2.95,192.03,091223,,,A*56
###2023-12-09 12:42:34.945999$GNGGA,174234.10,4138.0572424,N,07032.3835090,W,1,24,0.6,13.400,M,-29.744,M,0.0,*51
###2023-12-09 12:42:34.947883$GPGSA,A,3,03,04,16,26,28,29,31,32,,,,,1.1,0.6,0.9*3B
###2023-12-09 12:42:34.949611$GLGSA,A,3,65,71,72,73,74,75,,,,,,,1.1,0.6,0.9*24
###2023-12-09 12:42:34.951211$GAGSA,A,3,04,19,21,27,,,,,,,,,1.1,0.6,0.9*26
###2023-12-09 12:42:34.952868$GBGSA,A,3,14,24,25,26,33,,,,,,,,1.1,0.6,0.9*2F
###2023-12-09 12:42:34.955223$GPGSV,2,1,08,03,38,272,45,04,25,311,43,16,40,208,43,26,70,207,47*70
###2023-12-09 12:42:34.957564$GPGSV,2,2,08,28,55,060,44,29,25,070,41,31,72,013,48,32,27,136,43*7D
###2023-12-09 12:42:34.959921$GLGSV,2,1,06,65,15,329,39,71,52,170,46,72,68,302,47,73,44,035,45*6A
###2023-12-09 12:42:34.961672$GLGSV,2,2,06,74,71,303,43,75,25,244,41,,,,,,,,*63
###2023-12-09 12:42:34.964033$GAGSV,1,1,04,04,23,311,43,19,84,288,40,21,81,170,46,27,39,049,42*65
###2023-12-09 12:42:34.966380$GBGSV,2,1,05,14,52,196,44,24,79,359,48,25,34,255,45,26,33,058,42*66
###2023-12-09 12:42:34.967854$GBGSV,2,2,05,33,62,248,47,,,,,,,,,,,,*57
###2023-12-09 12:42:34.969184$GNVTG,192.03,T,,M,2.95,N,5.47,K,A*22
###2023-12-09 12:42:34.970853$GNGST,174234.10,18.000,,,,0.079,0.070,0.160*56
###2023-12-09 12:42:34.972140$GNZDA,174234.10,09,12,2023,00,00*77
###2023-12-09 12:42:34.972785$GNEBP,,,,,,M*13
###2023-12-09 12:42:35.143252$GNGGA,174234.30,4138.0570789,N,07032.3835520,W,1,24,0.6,13.417,M,-29.744,M,0.0,*5D
###2023-12-09 12:42:35.342141$GNGGA,174234.50,4138.0569001,N,07032.3835946,W,1,24,0.6,13.409,M,-29.744,M,0.0,*57
###2023-12-09 12:42:35.548233$GNGGA,174234.70,4138.0567307,N,07032.3836719,W,1,24,0.6,13.383,M,-29.744,M,0.0,*5C
###2023-12-09 12:42:35.742732$GNGGA,174234.90,4138.0565851,N,07032.3837997,W,1,24,0.6,13.424,M,-29.744,M,0.0,*5B
###2023-12-09 12:42:35.942894$GNRMC,174235.10,A,4138.0564182,N,07032.3839034,W,3.30,197.67,091223,,,A*52
###2023-12-09 12:42:35.945759$GNGGA,174235.10,4138.0564182,N,07032.3839034,W,1,24,0.6,13.431,M,-29.744,M,0.0,*5E
###2023-12-09 12:42:35.947642$GPGSA,A,3,03,04,16,26,28,29,31,32,,,,,1.1,0.6,0.9*3B
###2023-12-09 12:42:35.949364$GLGSA,A,3,65,71,72,73,74,75,,,,,,,1.1,0.6,0.9*24
###2023-12-09 12:42:35.950963$GAGSA,A,3,04,19,21,27,,,,,,,,,1.1,0.6,0.9*26
