###2023-12-09 12:24:33.928521$GBGSA,A,3,14,25,26,33,,,,,,,,,1.3,0.8,1.0*2D
###2023-12-09 12:24:33.931036$GPGSV,2,1,08,03,39,283,41,16,32,206,43,25,16,045,42,26,61,205,44*71
###2023-12-09 12:24:33.933500$GPGSV,2,2,08,28,61,050,43,29,24,079,45,31,73,344,35,32,34,131,47*79
###2023-12-09 12:24:33.935983$GLGSV,1,1,04,71,63,167,46,72,61,317,35,73,53,030,47,75,18,237,43*69
###2023-12-09 12:24:33.938155$GAGSV,1,1,03,04,17,310,37,21,73,180,46,27,45,051,47,,,,*50
###2023-12-09 12:24:33.940619$GBGSV,1,1,04,14,60,201,45,25,29,249,40,26,39,055,48,33,64,265,41*6D
###2023-12-09 12:24:33.941876$GNVTG,,T,,M,0.00,N,0.00,K,A*3D
###2023-12-09 12:24:33.943654$GNGST,172433.10,32.000,,,,0.100,0.100,0.220*57
###2023-12-09 12:24:33.945060$GNZDA,172433.10,09,12,2023,00,00*70
###2023-12-09 12:24:33.945806$GNEBP,,,,,,M*13
###2023-12-09 12:24:34.117964$GNGGA,172433.30,4138.0392697,N,07032.4365665,W,1,19,0.8,12.044,M,-29.746,M,0.0,*54
###2023-12-09 12:24:34.318217$GNGGA,172433.50,4138.0392696,N,07032.4365698,W,1,19,0.8,12.026,M,-29.746,M,0.0,*55
###2023-12-09 12:24:34.517909$GNGGA,172433.70,4138.0392696,N,07032.4365728,W,1,19,0.8,12.008,M,-29.746,M,0.0,*51
###2023-12-09 12:24:34.717061$GNGGA,172433.90,4138.0392700,N,07032.4365761,W,1,19,0.8,11.989,M,-29.746,M,0.0,*5F
###2023-12-09 12:24:34.923018$GNRMC,172434.10,A,4138.0392693,N,07032.4365780,W,0.02,,091223,,,A*44
###2023-12-09 12:24:34.926077$GNGGA,172434.10,4138.0392693,N,07032.4365780,W,1,19,0.8,11.973,M,-29.746,M,0.0,*51
###2023-12-09 12:24:34.928157$GPGSA,A,3,03,16,25,26,28,29,31,32,,,,,1.3,0.8,1.0*3C
###2023-12-09 12:24:34.929943$GLGSA,A,3,71,72,73,75,,,,,,,,,1.3,0.8,1.0*20
###2023-12-09 12:24:34.931693$GAGSA,A,3,04,21,27,,,,,,,,,,1.3,0.8,1.0*2A
###2023-12-09 12:24:34.933442$GBGSA,A,3,14,25,26,33,,,,,,,,,1.3,0.8,1.0*2D
###2023-12-09 12:24:34.935955$GPGSV,2,1,08,03,39,283,41,16,32,206,43,25,16,045,42,26,61,205,44*71
###2023-12-09 12:24:34.938503$GPGSV,2,2,08,28,61,050,43,29,24,079,45,31,73,344,35,32,34,131,46*78
###2023-12-09 12:24:34.941019$GLGSV,1,1,04,71,63,167,46,72,61,317,36,73,53,030,47,75,18,237,43*6A
###2023-12-09 12:24:34.943223$GAGSV,1,1,03,04,17,310,36,21,73,180,46,27,45,051,46,,,,*50
###2023-12-09 12:24:34.945685$GBGSV,1,1,04,14,60,201,44,25,29,249,40,26,39,055,47,33,64,265,41*63
###2023-12-09 12:24:34.947030$GNVTG,,T,,M,0.02,N,0.04,K,A*3B
###2023-12-09 12:24:34.948888$GNGST,172434.10,32.000,,,,0.100,0.100,0.220*50
###2023-12-09 12:24:34.950369$GNZDA,172434.10,09,12,2023,00,00*77
###2023-12-09 12:24:34.951214$GNEBP,,,,,,M*13
###2023-12-09 12:24:35.117881$GNGGA,172434.30,4138.0392689,N,07032.4365808,W,1,19,0.8,11.956,M,-29.746,M,0.0,*50
###2023-12-09 12:24:35.317148$GNGGA,172434.50,4138.0392683,N,07032.4365844,W,1,19,0.8,11.936,M,-29.746,M,0.0,*52
###2023-12-09 12:24:35.516824$GNGGA,172434.70,4138.0392685,N,07032.4365887,W,1,19,0.8,11.924,M,-29.746,M,0.0,*5A
###2023-12-09 12:24:35.715427$GNGGA,172434.90,4138.0392675,N,07032.4365923,W,1,19,0.8,11.905,M,-29.746,M,0.0,*57
###2023-12-09 12:24:35.917627$GNRMC,172435.10,A,4138.0392666,N,07032.4365963,W,0.06,,091223,,,A*48
###2023-12-09 12:24:35.920735$GNGGA,172435.10,4138.0392666,N,07032.4365963,W,1,19,0.8,11.889,M,-29.746,M,0.0,*5D
###2023-12-09 12:24:35.922801$GPGSA,A,3,03,16,25,26,28,29,31,32,,,,,1.3,0.8,1.0*3C
###2023-12-09 12:24:35.924564$GLGSA,A,3,71,72,73,75,,,,,,,,,1.3,0.8,1.0*20
###2023-12-09 12:24:35.926246$GAGSA,A,3,04,21,27,,,,,,,,,,1.3,0.8,1.0*2A
###2023-12-09 12:24:35.928000$GBGSA,A,3,14,25,26,33,,,,,,,,,1.3,0.8,1.0*2D
###2023-12-09 12:24:35.930501$GPGSV,2,1,08,03,39,283,41,16,32,206,43,25,16,045,42,26,61,205,44*71
###2023-12-09 12:24:35.933001$GPGSV,2,2,08,28,61,050,42,29,24,079,45,31,73,344,35,32,34,131,46*79
###2023-12-09 12:24:35.935508$GLGSV,1,1,04,71,63,167,46,72,61,317,36,73,53,030,47,75,18,237,43*6A
###2023-12-09 12:24:35.937723$GAGSV,1,1,03,04,17,310,36,21,73,180,46,27,45,051,46,,,,*50
###2023-12-09 12:24:35.940216$GBGSV,1,1,04,14,60,201,44,25,29,249,40,26,39,055,47,33,64,265,40*62
###2023-12-09 12:24:35.941472$GNVTG,,T,,M,0.06,N,0.11,K,A*3B
###2023-12-09 12:24:35.943232$GNGST,172435.10,32.000,,,,0.100,0.100,0.220*51
###2023-12-09 12:24:35.944629$GNZDA,172435.10,09,12,2023,00,00*76
###2023-12-09 12:24:35.945373$GNEBP,,,,,,M*13
###2023-12-09 12:24:36.117383$GNGGA,172435.30,4138.0392648,N,07032.4365988,W,1,19,0.8,11.873,M,-29.746,M,0.0,*53
###2023-12-09 12:24:36.317094$GNGGA,172435.50,4138.0392625,N,07032.4366010,W,1,19,0.8,11.855,M,-29.746,M,0.0,*51
###2023-12-09 12:24:36.516532$GNGGA,172435.70,4138.0392613,N,07032.4366045,W,1,19,0.8,11.838,M,-29.746,M,0.0,*5D
###2023-12-09 12:24:36.716268$GNGGA,172435.90,4138.0392589,N,07032.4366067,W,1,19,0.8,11.824,M,-29.746,M,0.0,*5E
###2023-12-09 12:24:36.922221$GNRMC,172436.10,A,4138.0392582,N,07032.4366096,W,0.04,,091223,,,A*40
###2023-12-09 12:24:36.925312$GNGGA,172436.10,4138.0392582,N,07032.4366096,W,1,19,0.8,11.804,M,-29.746,M,0.0,*52
###2023-12-09 12:24:36.927369$GPGSA,A,3,03,16,25,26,28,29,31,32,,,,,1.3,0.8,1.0*3C
###2023-12-09 12:24:36.929136$GLGSA,A,3,71,72,73,75,,,,,,,,,1.3,0.8,1.0*20
###2023-12-09 12:24:36.930836$GAGSA,A,3,04,21,27,,,,,,,,,,1.3,0.8,1.0*2A
###2023-12-09 12:24:36.932580$GBGSA,A,3,14,25,26,33,,,,,,,,,1.3,0.8,1.0*2D
###2023-12-09 12:24:36.935082$GPGSV,2,1,08,03,39,283,40,16,32,206,42,25,16,045,41,26,61,205,44*72
###2023-12-09 12:24:36.937562$GPGSV,2,2,08,28,61,050,42,29,24,079,46,31,73,344,35,32,34,131,46*7A
###2023-12-09 12:24:36.940056$GLGSV,1,1,04,71,63,167,47,72,61,317,37,73,53,030,47,75,18,237,43*6A
###2023-12-09 12:24:36.942258$GAGSV,1,1,03,04,17,310,36,21,73,180,46,27,45,051,46,,,,*50
###2023-12-09 12:24:36.944775$GBGSV,1,1,04,14,60,201,44,25,29,249,40,26,39,055,48,33,64,265,41*6C
###2023-12-09 12:24:36.946070$GNVTG,,T,,M,0.04,N,0.07,K,A*3E
###2023-12-09 12:24:36.947835$GNGST,172436.10,32.000,,,,0.100,0.100,0.220*52
###2023-12-09 12:24:36.949171$GNZDA,172436.10,09,12,2023,00,00*75
###2023-12-09 12:24:36.949838$GNEBP,,,,,,M*13
###2023-12-09 12:24:37.116861$GNGGA,172436.30,4138.0392561,N,07032.4366121,W,1,19,0.8,11.784,M,-29.746,M,0.0,*57
###2023-12-09 12:24:37.317047$GNGGA,172436.50,4138.0392533,N,07032.4366131,W,1,19,0.8,11.770,M,-29.746,M,0.0,*5C
###2023-12-09 12:24:37.516465$GNGGA,172436.70,4138.0392516,N,07032.4366164,W,1,19,0.8,11.750,M,-29.746,M,0.0,*5B
###2023-12-09 12:24:37.716210$GNGGA,172436.90,4138.0392501,N,07032.4366194,W,1,19,0.8,11.734,M,-29.746,M,0.0,*5E
###2023-12-09 12:24:37.917191$GNRMC,172437.10,A,4138.0392476,N,07032.4366211,W,0.02,,091223,,,A*40
###2023-12-09 12:24:37.920401$GNGGA,172437.10,4138.0392476,N,07032.4366211,W,1,19,0.8,11.719,M,-29.746,M,0.0,*57
###2023-12-09 12:24:37.922321$GPGSA,A,3,03,16,25,26,28,29,31,32,,,,,1.3,0.8,1.0*3C
###2023-12-09 12:24:37.923973$GLGSA,A,3,71,72,73,75,,,,,,,,,1.3,0.8,1.0*20
###2023-12-09 12:24:37.925534$GAGSA,A,3,04,21,27,,,,,,,,,,1.3,0.8,1.0*2A
###2023-12-09 12:24:37.927173$GBGSA,A,3,14,25,26,33,,,,,,,,,1.3,0.8,1.0*2D
###2023-12-09 12:24:37.929727$GPGSV,2,1,08,03,39,283,41,16,32,206,43,25,16,045,41,26,61,205,44*72
###2023-12-09 12:24:37.932318$GPGSV,2,2,08,28,61,050,42,29,24,079,45,31,73,344,36,32,34,131,45*79
###2023-12-09 12:24:37.935110$GLGSV,1,1,04,71,63,167,47,72,61,317,37,73,53,030,47,75,18,237,42*6B
###2023-12-09 12:24:37.937390$GAGSV,1,1,03,04,17,310,36,21,73,180,46,27,45,051,46,,,,*50
###2023-12-09 12:24:37.939963$GBGSV,1,1,04,14,60,201,44,25,29,249,40,26,39,055,48,33,64,265,41*6C
###2023-12-09 12:24:37.941152$GNVTG,,T,,M,0.02,N,0.04,K,A*3B
###2023-12-09 12:24:37.942855$GNGST,172437.10,32.000,,,,0.100,0.100,0.220*53
###2023-12-09 12:24:37.944184$GNZDA,172437.10,09,12,2023,00,00*74
###2023-12-09 12:24:37.944864$GNEBP,,,,,,M*13
###2023-12-09 12:24:38.118276$GNGGA,172437.30,4138.0392458,N,07032.4366242,W,1,19,0.8,11.704,M,-29.746,M,0.0,*53
###2023-12-09 12:24:38.317206$GNGGA,172437.50,4138.0392438,N,07032.4366265,W,1,19,0.8,11.687,M,-29.746,M,0.0,*5C
###2023-12-09 12:24:38.517849$GNGGA,172437.70,4138.0392411,N,07032.4366290,W,1,19,0.8,11.678,M,-29.746,M,0.0,*5F
###2023-12-09 12:24:38.716063$GNGGA,172437.90,4138.0392394,N,07032.4366320,W,1,19,0.8,11.663,M,-29.746,M,0.0,*5B
###2023-12-09 12:24:38.919136$GNRMC,172438.10,A,4138.0392363,N,07032.4366340,W,0.04,,091223,,,A*4F
###2023-12-09 12:24:38.922311$GNGGA,172438.10,4138.0392363,N,07032.4366340,W,1,19,0.8,11.649,M,-29.746,M,0.0,*5A
###2023-12-09 12:24:38.924244$GPGSA,A,3,03,16,25,26,28,29,31,32,,,,,1.3,0.8,1.0*3C
###2023-12-09 12:24:38.925872$GLGSA,A,3,71,72,73,75,,,,,,,,,1.3,0.8,1.0*20
###2023-12-09 12:24:38.927442$GAGSA,A,3,04,21,27,,,,,,,,,,1.3,0.8,1.0*2A
###2023-12-09 12:24:38.929064$GBGSA,A,3,14,25,26,33,,,,,,,,,1.3,0.8,1.0*2D
###2023-12-09 12:24:38.931438$GPGSV,2,1,08,03,39,283,41,16,32,206,42,25,16,045,41,26,61,205,44*73
###2023-12-09 12:24:38.933799$GPGSV,2,2,08,28,61,050,42,29,24,079,45,31,73,344,36,32,34,131,46*7A
###2023-12-09 12:24:38.936177$GLGSV,1,1,04,71,63,167,47,72,61,317,38,73,53,030,47,75,18,237,42*64
###2023-12-09 12:24:38.938251$GAGSV,1,1,03,04,17,310,36,21,73,180,46,27,45,051,46,,,,*50
