###2023-12-09 13:44:30.024122$GAGSV,1,1,02,04,43,308,45,27,19,051,40,,,,,,,,*6E
###2023-12-09 13:44:30.026465$GBGSV,1,1,04,12,19,123,42,24,59,051,46,25,54,281,44,35,16,053,38*6F
###2023-12-09 13:44:30.027808$GNVTG,243.17,T,,M,0.02,N,0.04,K,A*26
###2023-12-09 13:44:30.029421$GNGST,184429.10,7.500,,,,0.200,0.110,0.300*67
###2023-12-09 13:44:30.030726$GNZDA,184429.10,09,12,2023,00,00*72
###2023-12-09 13:44:30.031364$GNEBP,,,,,,M*13
###2023-12-09 13:44:30.200576$GNGGA,184429.30,4138.0390689,N,07032.4388955,W,1,17,0.8,13.735,M,-29.746,M,0.0,*5A
###2023-12-09 13:44:30.399882$GNGGA,184429.50,4138.0390666,N,07032.4388960,W,1,17,0.8,13.736,M,-29.746,M,0.0,*58
###2023-12-09 13:44:30.598535$GNGGA,184429.70,4138.0390653,N,07032.4388966,W,1,17,0.8,13.736,M,-29.746,M,0.0,*5A
###2023-12-09 13:44:30.800115$GNGGA,184429.90,4138.0390633,N,07032.4388966,W,1,17,0.8,13.737,M,-29.746,M,0.0,*53
###2023-12-09 13:44:31.000555$GNRMC,184430.10,A,4138.0390628,N,07032.4388964,W,0.02,243.17,091223,,,A*51
###2023-12-09 13:44:31.003422$GNGGA,184430.10,4138.0390628,N,07032.4388964,W,1,17,0.8,13.734,M,-29.746,M,0.0,*58
###2023-12-09 13:44:31.005142$GPGSA,A,3,04,16,26,28,29,31,,,,,,,1.3,0.8,1.1*3C
###2023-12-09 13:44:31.006807$GLGSA,A,3,65,73,74,75,83,,,,,,,,1.3,0.8,1.1*29
###2023-12-09 13:44:31.008280$GAGSA,A,3,04,27,,,,,,,,,,,1.3,0.8,1.1*28
###2023-12-09 13:44:31.009865$GBGSA,A,3,12,24,25,35,,,,,,,,,1.3,0.8,1.1*2E
###2023-12-09 13:44:31.012207$GPGSV,2,1,06,04,50,305,46,16,71,227,40,26,79,041,39,28,35,088,43*75
###2023-12-09 13:44:31.013952$GPGSV,2,2,06,29,18,043,42,31,56,072,50,,,,,,,,*7D
###2023-12-09 13:44:31.016312$GLGSV,2,1,05,65,42,314,44,73,19,055,44,74,56,021,35,75,46,277,45*6A
###2023-12-09 13:44:31.017790$GLGSV,2,2,05,83,16,043,36,,,,,,,,,,,,*5E
###2023-12-09 13:44:31.019549$GAGSV,1,1,02,04,43,308,45,27,19,051,40,,,,,,,,*6E
###2023-12-09 13:44:31.021875$GBGSV,1,1,04,12,19,123,42,24,59,051,46,25,54,281,44,35,16,053,39*6E
###2023-12-09 13:44:31.023213$GNVTG,243.17,T,,M,0.02,N,0.04,K,A*26
###2023-12-09 13:44:31.024832$GNGST,184430.10,7.100,,,,0.200,0.110,0.300*6B
###2023-12-09 13:44:31.026120$GNZDA,184430.10,09,12,2023,00,00*7A
###2023-12-09 13:44:31.026770$GNEBP,,,,,,M*13
###2023-12-09 13:44:31.200323$GNGGA,184430.30,4138.0390610,N,07032.4388982,W,1,17,0.8,13.733,M,-29.746,M,0.0,*5E
###2023-12-09 13:44:31.400025$GNGGA,184430.50,4138.0390605,N,07032.4388981,W,1,17,0.8,13.735,M,-29.746,M,0.0,*59
###2023-12-09 13:44:31.600926$GNGGA,184430.70,4138.0390604,N,07032.4388994,W,1,18,0.8,13.731,M,-29.746,M,0.0,*55
###2023-12-09 13:44:31.798974$GNGGA,184430.90,4138.0390598,N,07032.4389009,W,1,18,0.8,13.730,M,-29.746,M,0.0,*50
###2023-12-09 13:44:32.004319$GNRMC,184431.10,A,4138.0390594,N,07032.4389010,W,0.02,243.17,091223,,,A*5F
###2023-12-09 13:44:32.007403$GNGGA,184431.10,4138.0390594,N,07032.4389010,W,1,18,0.8,13.731,M,-29.746,M,0.0,*5C
###2023-12-09 13:44:32.009184$GPGSA,A,3,04,16,26,28,29,31,,,,,,,1.3,0.8,1.1*3C
###2023-12-09 13:44:32.010910$GLGSA,A,3,65,72,73,74,75,83,,,,,,,1.3,0.8,1.1*2C
###2023-12-09 13:44:32.012357$GAGSA,A,3,04,27,,,,,,,,,,,1.3,0.8,1.1*28
###2023-12-09 13:44:32.013926$GBGSA,A,3,12,24,25,35,,,,,,,,,1.3,0.8,1.1*2E
###2023-12-09 13:44:32.016258$GPGSV,2,1,06,04,50,305,45,16,71,227,41,26,79,041,39,28,35,088,43*77
###2023-12-09 13:44:32.017997$GPGSV,2,2,06,29,18,043,42,31,56,072,50,,,,,,,,*7D
###2023-12-09 13:44:32.020328$GLGSV,2,1,06,65,42,314,43,72,58,215,35,73,19,055,44,74,56,021,35*65
###2023-12-09 13:44:32.022112$GLGSV,2,2,06,75,46,277,45,83,16,043,36,,,,,,,,*6E
###2023-12-09 13:44:32.023871$GAGSV,1,1,02,04,43,308,45,27,19,051,40,,,,,,,,*6E
###2023-12-09 13:44:32.026201$GBGSV,1,1,04,12,19,123,42,24,59,051,47,25,54,281,43,35,16,053,40*66
###2023-12-09 13:44:32.027539$GNVTG,243.17,T,,M,0.02,N,0.04,K,A*26
###2023-12-09 13:44:32.029148$GNGST,184431.10,7.700,,,,0.200,0.110,0.300*6C
###2023-12-09 13:44:32.030438$GNZDA,184431.10,09,12,2023,00,00*7B
###2023-12-09 13:44:32.031085$GNEBP,,,,,,M*13
###2023-12-09 13:44:32.200188$GNGGA,184431.30,4138.0390603,N,07032.4389008,W,1,18,0.8,13.732,M,-29.746,M,0.0,*59
###2023-12-09 13:44:32.399831$GNGGA,184431.50,4138.0390603,N,07032.4389009,W,1,17,0.8,13.733,M,-29.746,M,0.0,*50
###2023-12-09 13:44:32.599669$GNGGA,184431.70,4138.0390605,N,07032.4389017,W,1,17,0.8,13.736,M,-29.746,M,0.0,*5E
###2023-12-09 13:44:32.798876$GNGGA,184431.90,4138.0390605,N,07032.4389029,W,1,17,0.8,13.736,M,-29.746,M,0.0,*5D
###2023-12-09 13:44:33.006887$GNRMC,184432.10,A,4138.0390608,N,07032.4389036,W,0.04,243.17,091223,,,A*58
###2023-12-09 13:44:33.009749$GNGGA,184432.10,4138.0390608,N,07032.4389036,W,1,17,0.8,13.733,M,-29.746,M,0.0,*50
###2023-12-09 13:44:33.011499$GPGSA,A,3,04,16,26,28,29,31,,,,,,,1.4,0.8,1.1*3B
###2023-12-09 13:44:33.013159$GLGSA,A,3,65,72,73,75,83,,,,,,,,1.4,0.8,1.1*28
###2023-12-09 13:44:33.014659$GAGSA,A,3,04,27,,,,,,,,,,,1.4,0.8,1.1*2F
###2023-12-09 13:44:33.016240$GBGSA,A,3,12,24,25,35,,,,,,,,,1.4,0.8,1.1*29
###2023-12-09 13:44:33.018560$GPGSV,2,1,06,04,50,305,46,16,71,227,41,26,79,041,39,28,35,088,43*74
###2023-12-09 13:44:33.020315$GPGSV,2,2,06,29,18,043,42,31,56,072,50,,,,,,,,*7D
###2023-12-09 13:44:33.022646$GLGSV,2,1,05,65,42,314,43,72,58,215,35,73,19,055,44,75,46,277,45*60
###2023-12-09 13:44:33.024102$GLGSV,2,2,05,83,16,043,36,,,,,,,,,,,,*5E
###2023-12-09 13:44:33.025832$GAGSV,1,1,02,04,43,308,45,27,19,051,41,,,,,,,,*6F
###2023-12-09 13:44:33.028155$GBGSV,1,1,04,12,19,123,42,24,59,051,47,25,54,281,43,35,16,053,41*67
###2023-12-09 13:44:33.029477$GNVTG,243.17,T,,M,0.04,N,0.07,K,A*23
###2023-12-09 13:44:33.031099$GNGST,184432.10,7.100,,,,0.200,0.110,0.300*69
###2023-12-09 13:44:33.032386$GNZDA,184432.10,09,12,2023,00,00*78
###2023-12-09 13:44:33.033023$GNEBP,,,,,,M*13
###2023-12-09 13:44:33.206963$GNGGA,184432.30,4138.0390593,N,07032.4389037,W,1,17,0.8,13.737,M,-29.746,M,0.0,*56
###2023-12-09 13:44:33.400044$GNGGA,184432.50,4138.0390599,N,07032.4389034,W,1,17,0.8,13.740,M,-29.746,M,0.0,*59
###2023-12-09 13:44:33.598411$GNGGA,184432.70,4138.0390623,N,07032.4389035,W,1,17,0.8,13.739,M,-29.746,M,0.0,*56
###2023-12-09 13:44:33.800067$GNGGA,184432.90,4138.0390634,N,07032.4389036,W,1,17,0.8,13.742,M,-29.746,M,0.0,*51
###2023-12-09 13:44:34.003679$GNRMC,184433.10,A,4138.0390636,N,07032.4389021,W,0.04,243.17,091223,,,A*52
###2023-12-09 13:44:34.006551$GNGGA,184433.10,4138.0390636,N,07032.4389021,W,1,17,0.8,13.745,M,-29.746,M,0.0,*5B
###2023-12-09 13:44:34.008292$GPGSA,A,3,04,16,26,28,29,31,,,,,,,1.4,0.8,1.1*3B
###2023-12-09 13:44:34.009944$GLGSA,A,3,65,72,73,75,83,,,,,,,,1.4,0.8,1.1*28
###2023-12-09 13:44:34.011413$GAGSA,A,3,04,27,,,,,,,,,,,1.4,0.8,1.1*2F
###2023-12-09 13:44:34.012993$GBGSA,A,3,12,24,25,35,,,,,,,,,1.4,0.8,1.1*29
###2023-12-09 13:44:34.015330$GPGSV,2,1,06,04,50,305,46,16,71,227,41,26,79,041,39,28,35,088,43*74
###2023-12-09 13:44:34.017085$GPGSV,2,2,06,29,18,043,42,31,56,072,50,,,,,,,,*7D
###2023-12-09 13:44:34.019428$GLGSV,2,1,05,65,42,314,44,72,58,215,36,73,19,055,44,75,46,277,45*64
###2023-12-09 13:44:34.020884$GLGSV,2,2,05,83,16,043,36,,,,,,,,,,,,*5E
###2023-12-09 13:44:34.022635$GAGSV,1,1,02,04,43,308,45,27,19,051,41,,,,,,,,*6F
###2023-12-09 13:44:34.024959$GBGSV,1,1,04,12,19,123,42,24,59,051,47,25,54,281,44,35,16,053,40*61
###2023-12-09 13:44:34.026285$GNVTG,243.17,T,,M,0.04,N,0.07,K,A*23
###2023-12-09 13:44:34.027917$GNGST,184433.10,6.800,,,,0.200,0.110,0.300*60
###2023-12-09 13:44:34.029211$GNZDA,184433.10,09,12,2023,00,00*79
###2023-12-09 13:44:34.029851$GNEBP,,,,,,M*13
###2023-12-09 13:44:34.199155$GNGGA,184433.30,4138.0390657,N,07032.4389030,W,1,17,0.8,13.749,M,-29.746,M,0.0,*52
###2023-12-09 13:44:34.401238$GNGGA,184433.50,4138.0390651,N,07032.4389031,W,1,17,0.8,13.754,M,-29.746,M,0.0,*5F
###2023-12-09 13:44:34.598504$GNGGA,184433.70,4138.0390651,N,07032.4389041,W,1,17,0.8,13.751,M,-29.746,M,0.0,*5F
###2023-12-09 13:44:34.809985$GNGGA,184433.90,4138.0390654,N,07032.4389035,W,1,17,0.8,13.758,M,-29.746,M,0.0,*5E
###2023-12-09 13:44:35.000833$GNRMC,184434.10,A,4138.0390657,N,07032.4389041,W,0.02,243.17,091223,,,A*52
###2023-12-09 13:44:35.003707$GNGGA,184434.10,4138.0390657,N,07032.4389041,W,1,17,0.8,13.757,M,-29.746,M,0.0,*5E
###2023-12-09 13:44:35.005670$GPGSA,A,3,04,16,26,28,29,31,,,,,,,1.4,0.8,1.1*3B
###2023-12-09 13:44:35.007348$GLGSA,A,3,65,72,73,75,83,,,,,,,,1.4,0.8,1.1*28
###2023-12-09 13:44:35.008807$GAGSA,A,3,04,27,,,,,,,,,,,1.4,0.8,1.1*2F
###2023-12-09 13:44:35.010388$GBGSA,A,3,12,24,25,35,,,,,,,,,1.4,0.8,1.1*29
###2023-12-09 13:44:35.012735$GPGSV,2,1,06,04,50,305,46,16,71,227,41,26,79,041,39,28,35,088,42*75
###2023-12-09 13:44:35.014483$GPGSV,2,2,06,29,18,043,42,31,56,072,50,,,,,,,,*7D
###2023-12-09 13:44:35.016823$GLGSV,2,1,05,65,42,314,44,72,58,215,35,73,19,055,44,75,46,277,45*67
###2023-12-09 13:44:35.018277$GLGSV,2,2,05,83,16,043,36,,,,,,,,,,,,*5E
