###2023-12-09 12:39:58.947951$GPGSA,A,3,03,04,16,26,28,29,31,32,,,,,1.2,0.7,1.0*31
###2023-12-09 12:39:58.949633$GLGSA,A,3,71,72,73,74,75,,,,,,,,1.2,0.7,1.0*2D
###2023-12-09 12:39:58.951242$GAGSA,A,3,04,19,21,27,,,,,,,,,1.2,0.7,1.0*2C
###2023-12-09 12:39:58.952901$GBGSA,A,3,14,24,25,26,33,,,,,,,,1.2,0.7,1.0*25
###2023-12-09 12:39:58.955250$GPGSV,2,1,08,03,38,274,43,04,24,311,43,16,39,208,42,26,69,207,47*76
###2023-12-09 12:39:58.957594$GPGSV,2,2,08,28,56,059,44,29,25,071,42,31,73,007,48,32,28,135,44*79
###2023-12-09 12:39:58.959954$GLGSV,2,1,05,71,54,170,47,72,68,305,47,73,45,035,47,74,71,299,43*6F
###2023-12-09 12:39:58.961415$GLGSV,2,2,05,75,24,243,42,,,,,,,,,,,,*57
###2023-12-09 12:39:58.963766$GAGSV,1,1,04,04,22,311,43,19,82,296,41,21,79,174,45,27,40,049,45*65
###2023-12-09 12:39:58.966096$GBGSV,2,1,05,14,53,197,45,24,80,355,48,25,34,254,44,26,33,058,45*6A
###2023-12-09 12:39:58.967566$GBGSV,2,2,05,33,62,250,48,,,,,,,,,,,,*51
###2023-12-09 12:39:58.968891$GNVTG,305.01,T,,M,0.25,N,0.47,K,A*20
###2023-12-09 12:39:58.970536$GNGST,173958.10,18.000,,,,0.078,0.069,0.160*59
###2023-12-09 12:39:58.971841$GNZDA,173958.10,09,12,2023,00,00*71
###2023-12-09 12:39:58.972479$GNEBP,,,,,,M*13
###2023-12-09 12:39:59.142447$GNGGA,173958.30,4138.0555699,N,07032.3807404,W,1,23,0.7,13.344,M,-29.744,M,0.0,*5D
###2023-12-09 12:39:59.341245$GNGGA,173958.50,4138.0555802,N,07032.3807539,W,1,23,0.7,13.336,M,-29.744,M,0.0,*5D
###2023-12-09 12:39:59.542541$GNGGA,173958.70,4138.0555974,N,07032.3807828,W,1,23,0.7,13.328,M,-29.744,M,0.0,*5D
###2023-12-09 12:39:59.740767$GNGGA,173958.90,4138.0556185,N,07032.3808218,W,1,23,0.7,13.333,M,-29.744,M,0.0,*5A
###2023-12-09 12:39:59.941123$GNRMC,173959.10,A,4138.0556351,N,07032.3808512,W,0.41,305.01,091223,,,A*56
###2023-12-09 12:39:59.943995$GNGGA,173959.10,4138.0556351,N,07032.3808512,W,1,23,0.7,13.349,M,-29.744,M,0.0,*58
###2023-12-09 12:39:59.945845$GPGSA,A,3,03,04,16,26,28,29,31,32,,,,,1.2,0.7,1.0*31
###2023-12-09 12:39:59.947525$GLGSA,A,3,71,72,73,74,75,,,,,,,,1.2,0.7,1.0*2D
###2023-12-09 12:39:59.949122$GAGSA,A,3,04,19,21,27,,,,,,,,,1.2,0.7,1.0*2C
###2023-12-09 12:39:59.950783$GBGSA,A,3,14,24,25,26,33,,,,,,,,1.2,0.7,1.0*25
###2023-12-09 12:39:59.953109$GPGSV,2,1,08,03,38,274,45,04,24,311,43,16,39,208,42,26,69,207,47*70
###2023-12-09 12:39:59.955454$GPGSV,2,2,08,28,56,059,45,29,25,071,42,31,73,010,48,32,28,135,44*7E
###2023-12-09 12:39:59.957781$GLGSV,2,1,05,71,54,170,49,72,68,305,49,73,45,035,48,74,71,299,45*66
###2023-12-09 12:39:59.959251$GLGSV,2,2,05,75,24,243,43,,,,,,,,,,,,*56
###2023-12-09 12:39:59.961576$GAGSV,1,1,04,04,22,311,43,19,82,296,42,21,79,174,46,27,40,049,45*65
###2023-12-09 12:39:59.963917$GBGSV,2,1,05,14,53,197,45,24,80,355,49,25,34,254,45,26,33,058,46*69
###2023-12-09 12:39:59.965370$GBGSV,2,2,05,33,62,250,48,,,,,,,,,,,,*51
###2023-12-09 12:39:59.966707$GNVTG,305.01,T,,M,0.41,N,0.76,K,A*20
###2023-12-09 12:39:59.968358$GNGST,173959.10,19.000,,,,0.078,0.069,0.160*59
###2023-12-09 12:39:59.969654$GNZDA,173959.10,09,12,2023,00,00*70
###2023-12-09 12:39:59.970294$GNEBP,,,,,,M*13
###2023-12-09 12:40:00.143127$GNGGA,173959.30,4138.0556467,N,07032.3808696,W,1,23,0.7,13.354,M,-29.744,M,0.0,*5B
###2023-12-09 12:40:00.341964$GNGGA,173959.50,4138.0556535,N,07032.3808750,W,1,23,0.7,13.339,M,-29.744,M,0.0,*5B
###2023-12-09 12:40:00.542185$GNGGA,173959.70,4138.0556619,N,07032.3808891,W,1,23,0.7,13.328,M,-29.744,M,0.0,*56
###2023-12-09 12:40:00.742489$GNGGA,173959.90,4138.0556867,N,07032.3809348,W,1,23,0.7,13.346,M,-29.744,M,0.0,*59
###2023-12-09 12:40:00.942555$GNRMC,174000.10,A,4138.0557113,N,07032.3809844,W,0.60,305.01,091223,,,A*5D
###2023-12-09 12:40:00.946035$GNGGA,174000.10,4138.0557113,N,07032.3809844,W,1,23,0.7,13.355,M,-29.744,M,0.0,*5D
###2023-12-09 12:40:00.948334$GPGSA,A,3,03,04,16,26,28,29,31,32,,,,,1.2,0.7,1.0*31
###2023-12-09 12:40:00.950360$GLGSA,A,3,71,72,73,74,75,,,,,,,,1.2,0.7,1.0*2D
###2023-12-09 12:40:00.952305$GAGSA,A,3,04,19,21,27,,,,,,,,,1.2,0.7,1.0*2C
###2023-12-09 12:40:00.954301$GBGSA,A,3,14,24,25,26,33,,,,,,,,1.2,0.7,1.0*25
###2023-12-09 12:40:00.957150$GPGSV,2,1,08,03,38,274,45,04,24,311,43,16,39,208,41,26,69,207,46*72
###2023-12-09 12:40:00.960001$GPGSV,2,2,08,28,56,059,45,29,25,071,42,31,73,010,48,32,28,135,43*79
###2023-12-09 12:40:00.962870$GLGSV,2,1,05,71,54,170,48,72,68,305,48,73,45,035,47,74,71,299,43*6F
###2023-12-09 12:40:00.964637$GLGSV,2,2,05,75,24,243,41,,,,,,,,,,,,*54
###2023-12-09 12:40:00.967470$GAGSV,1,1,04,04,22,311,42,19,82,296,41,21,79,174,45,27,40,049,44*65
###2023-12-09 12:40:00.970281$GBGSV,2,1,05,14,53,197,45,24,80,355,48,25,34,254,45,26,33,058,45*6B
###2023-12-09 12:40:00.972063$GBGSV,2,2,05,33,62,250,48,,,,,,,,,,,,*51
###2023-12-09 12:40:00.973667$GNVTG,305.01,T,,M,0.60,N,1.12,K,A*20
###2023-12-09 12:40:00.975670$GNGST,174000.10,19.000,,,,0.078,0.069,0.160*5B
###2023-12-09 12:40:00.977235$GNZDA,174000.10,09,12,2023,00,00*72
###2023-12-09 12:40:00.978005$GNEBP,,,,,,M*13
###2023-12-09 12:40:01.141567$GNGGA,174000.30,4138.0557218,N,07032.3809989,W,1,23,0.7,13.354,M,-29.744,M,0.0,*56
###2023-12-09 12:40:01.343123$GNGGA,174000.50,4138.0557229,N,07032.3809895,W,1,23,0.7,13.340,M,-29.744,M,0.0,*5B
###2023-12-09 12:40:01.542221$GNGGA,174000.70,4138.0557342,N,07032.3810075,W,1,23,0.7,13.326,M,-29.744,M,0.0,*5B
###2023-12-09 12:40:01.741387$GNGGA,174000.90,4138.0557611,N,07032.3810584,W,1,23,0.7,13.339,M,-29.744,M,0.0,*53
###2023-12-09 12:40:01.941945$GNRMC,174001.10,A,4138.0557832,N,07032.3811005,W,0.43,305.01,091223,,,A*53
###2023-12-09 12:40:01.944824$GNGGA,174001.10,4138.0557832,N,07032.3811005,W,1,23,0.7,13.347,M,-29.744,M,0.0,*51
###2023-12-09 12:40:01.946694$GPGSA,A,3,03,04,16,26,28,29,31,32,,,,,1.2,0.7,1.0*31
###2023-12-09 12:40:01.948354$GLGSA,A,3,71,72,73,74,75,,,,,,,,1.2,0.7,1.0*2D
###2023-12-09 12:40:01.949934$GAGSA,A,3,04,19,21,27,,,,,,,,,1.2,0.7,1.0*2C
###2023-12-09 12:40:01.951592$GBGSA,A,3,14,24,25,26,33,,,,,,,,1.2,0.7,1.0*25
###2023-12-09 12:40:01.953917$GPGSV,2,1,08,03,38,274,43,04,24,311,43,16,39,208,42,26,69,207,47*76
###2023-12-09 12:40:01.956294$GPGSV,2,2,08,28,56,059,44,29,25,071,42,31,73,010,47,32,28,135,43*77
###2023-12-09 12:40:01.958639$GLGSV,2,1,05,71,54,170,47,72,68,305,48,73,45,035,46,74,71,299,43*61
###2023-12-09 12:40:01.960092$GLGSV,2,2,05,75,24,243,40,,,,,,,,,,,,*55
###2023-12-09 12:40:01.962399$GAGSV,1,1,04,04,22,311,42,19,82,296,41,21,79,174,45,27,40,049,44*65
###2023-12-09 12:40:01.964736$GBGSV,2,1,05,14,53,197,44,24,80,355,48,25,34,254,44,26,33,058,44*6A
###2023-12-09 12:40:01.966189$GBGSV,2,2,05,33,62,250,48,,,,,,,,,,,,*51
###2023-12-09 12:40:01.967511$GNVTG,305.01,T,,M,0.43,N,0.79,K,A*2D
###2023-12-09 12:40:01.969199$GNGST,174001.10,19.000,,,,0.078,0.069,0.170*5B
###2023-12-09 12:40:01.970486$GNZDA,174001.10,09,12,2023,00,00*73
###2023-12-09 12:40:01.971130$GNEBP,,,,,,M*13
###2023-12-09 12:40:02.141212$GNGGA,174001.30,4138.0557934,N,07032.3811132,W,1,23,0.7,13.359,M,-29.744,M,0.0,*5E
###2023-12-09 12:40:02.341286$GNGGA,174001.50,4138.0558006,N,07032.3811185,W,1,23,0.7,13.361,M,-29.744,M,0.0,*58
###2023-12-09 12:40:02.541356$GNGGA,174001.70,4138.0558129,N,07032.3811352,W,1,23,0.7,13.338,M,-29.744,M,0.0,*52
###2023-12-09 12:40:02.738768$GNGGA,174001.90,4138.0558329,N,07032.3811689,W,1,23,0.7,13.333,M,-29.744,M,0.0,*56
###2023-12-09 12:40:02.941100$GNRMC,174002.10,A,4138.0558550,N,07032.3812085,W,0.60,305.01,091223,,,A*5C
###2023-12-09 12:40:02.943988$GNGGA,174002.10,4138.0558550,N,07032.3812085,W,1,23,0.7,13.350,M,-29.744,M,0.0,*59
###2023-12-09 12:40:02.945845$GPGSA,A,3,03,04,16,26,28,29,31,32,,,,,1.2,0.7,1.0*31
###2023-12-09 12:40:02.947542$GLGSA,A,3,71,72,73,74,75,,,,,,,,1.2,0.7,1.0*2D
###2023-12-09 12:40:02.949151$GAGSA,A,3,04,19,21,27,,,,,,,,,1.2,0.7,1.0*2C
###2023-12-09 12:40:02.950816$GBGSA,A,3,14,24,25,26,33,,,,,,,,1.2,0.7,1.0*25
###2023-12-09 12:40:02.953138$GPGSV,2,1,08,03,38,274,44,04,24,311,44,16,39,208,42,26,69,207,47*76
###2023-12-09 12:40:02.955469$GPGSV,2,2,08,28,56,059,44,29,25,071,42,31,73,010,48,32,28,135,44*7F
###2023-12-09 12:40:02.957787$GLGSV,2,1,05,71,54,170,47,72,68,305,47,73,45,035,47,74,71,299,44*68
###2023-12-09 12:40:02.959252$GLGSV,2,2,05,75,24,243,41,,,,,,,,,,,,*54
###2023-12-09 12:40:02.961880$GAGSV,1,1,04,04,22,311,41,19,82,296,41,21,79,174,46,27,40,049,44*65
###2023-12-09 12:40:02.964244$GBGSV,2,1,05,14,53,197,44,24,80,355,48,25,34,254,43,26,33,058,45*6C
###2023-12-09 12:40:02.965705$GBGSV,2,2,05,33,62,250,47,,,,,,,,,,,,*5E
###2023-12-09 12:40:02.967047$GNVTG,305.01,T,,M,0.60,N,1.12,K,A*20
###2023-12-09 12:40:02.968700$GNGST,174002.10,19.000,,,,0.078,0.070,0.170*50
###2023-12-09 12:40:02.969992$GNZDA,174002.10,09,12,2023,00,00*70
###2023-12-09 12:40:02.970651$GNEBP,,,,,,M*13
###2023-12-09 12:40:03.142242$GNGGA,174002.30,4138.0558735,N,07032.3812386,W,1,23,0.7,13.367,M,-29.744,M,0.0,*5E
