###2023-12-09 13:43:30.026192$GNVTG,243.17,T,,M,0.04,N,0.07,K,A*23
###2023-12-09 13:43:30.027864$GNGST,184329.10,7.400,,,,0.220,0.120,0.330*63
###2023-12-09 13:43:30.029168$GNZDA,184329.10,09,12,2023,00,00*75
###2023-12-09 13:43:30.029812$GNEBP,,,,,,M*13
###2023-12-09 13:43:30.199143$GNGGA,184329.30,4138.0392471,N,07032.4385219,W,1,20,0.7,15.427,M,-29.746,M,0.0,*59
###2023-12-09 13:43:30.398414$GNGGA,184329.50,4138.0392448,N,07032.4385235,W,1,20,0.7,15.413,M,-29.746,M,0.0,*5C
###2023-12-09 13:43:30.597947$GNGGA,184329.70,4138.0392428,N,07032.4385234,W,1,20,0.7,15.402,M,-29.746,M,0.0,*59
###2023-12-09 13:43:30.798057$GNGGA,184329.90,4138.0392410,N,07032.4385240,W,1,20,0.7,15.389,M,-29.746,M,0.0,*5B
###2023-12-09 13:43:31.001446$GNRMC,184330.10,A,4138.0392396,N,07032.4385243,W,0.02,243.17,091223,,,A*57
###2023-12-09 13:43:31.004318$GNGGA,184330.10,4138.0392396,N,07032.4385243,W,1,20,0.7,15.379,M,-29.746,M,0.0,*5E
###2023-12-09 13:43:31.006044$GPGSA,A,3,04,16,26,28,29,31,,,,,,,1.3,0.7,1.1*33
###2023-12-09 13:43:31.007704$GLGSA,A,3,65,73,74,75,83,,,,,,,,1.3,0.7,1.1*26
###2023-12-09 13:43:31.009211$GAGSA,A,3,04,21,27,,,,,,,,,,1.3,0.7,1.1*24
###2023-12-09 13:43:31.010932$GBGSA,A,3,12,14,24,25,33,35,,,,,,,1.3,0.7,1.1*24
###2023-12-09 13:43:31.013255$GPGSV,2,1,06,04,50,305,47,16,71,227,37,26,79,041,42,28,35,088,44*7F
###2023-12-09 13:43:31.015018$GPGSV,2,2,06,29,18,043,42,31,57,071,52,,,,,,,,*7D
###2023-12-09 13:43:31.017351$GLGSV,2,1,05,65,42,314,44,73,19,055,43,74,56,021,37,75,46,277,40*6A
###2023-12-09 13:43:31.018814$GLGSV,2,2,05,83,16,043,35,,,,,,,,,,,,*5D
###2023-12-09 13:43:31.020841$GAGSV,1,1,03,04,42,308,45,21,74,044,40,27,20,051,41,,,,*51
###2023-12-09 13:43:31.023177$GBGSV,2,1,06,12,18,124,40,14,25,189,36,24,60,050,44,25,53,280,47*6D
###2023-12-09 13:43:31.024922$GBGSV,2,2,06,33,42,214,35,35,16,053,39,,,,,,,,*67
###2023-12-09 13:43:31.026244$GNVTG,243.17,T,,M,0.02,N,0.04,K,A*26
###2023-12-09 13:43:31.027867$GNGST,184330.10,9.200,,,,0.220,0.120,0.320*62
###2023-12-09 13:43:31.029153$GNZDA,184330.10,09,12,2023,00,00*7D
###2023-12-09 13:43:31.029790$GNEBP,,,,,,M*13
###2023-12-09 13:43:31.197938$GNGGA,184330.30,4138.0392371,N,07032.4385250,W,1,20,0.7,15.371,M,-29.746,M,0.0,*5F
###2023-12-09 13:43:31.398629$GNGGA,184330.50,4138.0392365,N,07032.4385258,W,1,19,0.8,15.350,M,-29.746,M,0.0,*52
###2023-12-09 13:43:31.597050$GNGGA,184330.70,4138.0392346,N,07032.4385264,W,1,18,0.8,15.342,M,-29.746,M,0.0,*5C
###2023-12-09 13:43:31.798868$GNGGA,184330.90,4138.0392336,N,07032.4385280,W,1,18,0.8,15.327,M,-29.746,M,0.0,*5C
###2023-12-09 13:43:32.003040$GNRMC,184331.10,A,4138.0392345,N,07032.4385282,W,0.02,243.17,091223,,,A*55
###2023-12-09 13:43:32.005921$GNGGA,184331.10,4138.0392345,N,07032.4385282,W,1,19,0.8,15.317,M,-29.746,M,0.0,*51
###2023-12-09 13:43:32.007664$GPGSA,A,3,04,16,26,28,29,31,,,,,,,1.3,0.8,1.1*3C
###2023-12-09 13:43:32.009312$GLGSA,A,3,65,73,74,75,83,,,,,,,,1.3,0.8,1.1*29
###2023-12-09 13:43:32.010838$GAGSA,A,3,04,21,27,,,,,,,,,,1.3,0.8,1.1*2B
###2023-12-09 13:43:32.012485$GBGSA,A,3,12,14,24,25,35,,,,,,,,1.3,0.8,1.1*2B
###2023-12-09 13:43:32.014821$GPGSV,2,1,06,04,50,305,47,16,71,227,38,26,79,041,42,28,35,088,44*70
###2023-12-09 13:43:32.016573$GPGSV,2,2,06,29,18,043,41,31,56,072,51,,,,,,,,*7F
###2023-12-09 13:43:32.018912$GLGSV,2,1,05,65,42,314,44,73,19,055,43,74,56,021,37,75,46,277,41*6B
###2023-12-09 13:43:32.020369$GLGSV,2,2,05,83,16,043,35,,,,,,,,,,,,*5D
###2023-12-09 13:43:32.022408$GAGSV,1,1,03,04,42,308,44,21,74,044,39,27,20,051,41,,,,*5E
###2023-12-09 13:43:32.024753$GBGSV,2,1,05,12,18,124,39,14,25,189,35,24,60,050,43,25,53,280,47*64
###2023-12-09 13:43:32.026212$GBGSV,2,2,05,35,16,053,39,,,,,,,,,,,,*53
###2023-12-09 13:43:32.027548$GNVTG,243.17,T,,M,0.02,N,0.04,K,A*26
###2023-12-09 13:43:32.029171$GNGST,184331.10,8.300,,,,0.220,0.120,0.320*63
###2023-12-09 13:43:32.030466$GNZDA,184331.10,09,12,2023,00,00*7C
###2023-12-09 13:43:32.031116$GNEBP,,,,,,M*13
###2023-12-09 13:43:32.199579$GNGGA,184331.30,4138.0392351,N,07032.4385285,W,1,18,0.8,15.305,M,-29.746,M,0.0,*53
###2023-12-09 13:43:32.398982$GNGGA,184331.50,4138.0392346,N,07032.4385289,W,1,18,0.8,15.289,M,-29.746,M,0.0,*5A
###2023-12-09 13:43:32.598998$GNGGA,184331.70,4138.0392324,N,07032.4385293,W,1,18,0.8,15.287,M,-29.746,M,0.0,*59
###2023-12-09 13:43:32.799264$GNGGA,184331.90,4138.0392310,N,07032.4385309,W,1,17,0.8,15.281,M,-29.746,M,0.0,*5B
###2023-12-09 13:43:33.005328$GNRMC,184332.10,A,4138.0392287,N,07032.4385313,W,0.02,243.17,091223,,,A*50
###2023-12-09 13:43:33.008212$GNGGA,184332.10,4138.0392287,N,07032.4385313,W,1,18,0.8,15.275,M,-29.746,M,0.0,*50
###2023-12-09 13:43:33.009939$GPGSA,A,3,04,16,26,28,29,31,,,,,,,1.3,0.8,1.1*3C
###2023-12-09 13:43:33.011537$GLGSA,A,3,65,73,74,75,,,,,,,,,1.3,0.8,1.1*22
###2023-12-09 13:43:33.013058$GAGSA,A,3,04,21,27,,,,,,,,,,1.3,0.8,1.1*2B
###2023-12-09 13:43:33.014718$GBGSA,A,3,12,14,24,25,35,,,,,,,,1.3,0.8,1.1*2B
###2023-12-09 13:43:33.017047$GPGSV,2,1,06,04,50,305,46,16,71,227,38,26,79,041,42,28,35,088,43*76
###2023-12-09 13:43:33.018809$GPGSV,2,2,06,29,18,043,41,31,56,072,50,,,,,,,,*7E
###2023-12-09 13:43:33.021141$GLGSV,1,1,04,65,42,314,44,73,19,055,43,74,56,021,37,75,46,277,40*68
###2023-12-09 13:43:33.023190$GAGSV,1,1,03,04,42,308,44,21,74,044,39,27,20,051,41,,,,*5E
###2023-12-09 13:43:33.025522$GBGSV,2,1,05,12,18,124,38,14,25,189,35,24,60,050,43,25,53,280,46*64
###2023-12-09 13:43:33.026989$GBGSV,2,2,05,35,16,053,37,,,,,,,,,,,,*5D
###2023-12-09 13:43:33.028313$GNVTG,243.17,T,,M,0.02,N,0.04,K,A*26
###2023-12-09 13:43:33.029930$GNGST,184332.10,7.300,,,,0.220,0.120,0.320*6F
###2023-12-09 13:43:33.031237$GNZDA,184332.10,09,12,2023,00,00*7F
###2023-12-09 13:43:33.031877$GNEBP,,,,,,M*13
###2023-12-09 13:43:33.206930$GNGGA,184332.30,4138.0392262,N,07032.4385322,W,1,18,0.8,15.267,M,-29.746,M,0.0,*58
###2023-12-09 13:43:33.398941$GNGGA,184332.50,4138.0392253,N,07032.4385320,W,1,18,0.8,15.260,M,-29.746,M,0.0,*59
###2023-12-09 13:43:33.599465$GNGGA,184332.70,4138.0392247,N,07032.4385327,W,1,17,0.8,15.254,M,-29.746,M,0.0,*51
###2023-12-09 13:43:33.800519$GNGGA,184332.90,4138.0392241,N,07032.4385330,W,1,18,0.8,15.248,M,-29.746,M,0.0,*5D
###2023-12-09 13:43:34.005662$GNRMC,184333.10,A,4138.0392229,N,07032.4385325,W,0.04,243.17,091223,,,A*56
###2023-12-09 13:43:34.008540$GNGGA,184333.10,4138.0392229,N,07032.4385325,W,1,18,0.8,15.239,M,-29.746,M,0.0,*58
###2023-12-09 13:43:34.010259$GPGSA,A,3,04,16,26,28,29,31,,,,,,,1.3,0.8,1.1*3C
###2023-12-09 13:43:34.011847$GLGSA,A,3,65,73,74,75,,,,,,,,,1.3,0.8,1.1*22
###2023-12-09 13:43:34.013355$GAGSA,A,3,04,21,27,,,,,,,,,,1.3,0.8,1.1*2B
###2023-12-09 13:43:34.015001$GBGSA,A,3,12,14,24,25,35,,,,,,,,1.3,0.8,1.1*2B
###2023-12-09 13:43:34.017317$GPGSV,2,1,06,04,50,305,46,16,71,227,37,26,79,041,42,28,35,088,43*79
###2023-12-09 13:43:34.019084$GPGSV,2,2,06,29,18,043,41,31,56,072,50,,,,,,,,*7E
###2023-12-09 13:43:34.021429$GLGSV,1,1,04,65,42,314,44,73,19,055,43,74,56,021,36,75,46,277,40*69
###2023-12-09 13:43:34.023477$GAGSV,1,1,03,04,42,308,44,21,74,044,39,27,20,051,41,,,,*5E
###2023-12-09 13:43:34.025791$GBGSV,2,1,05,12,18,124,40,14,25,189,35,24,60,050,44,25,53,280,47*6D
###2023-12-09 13:43:34.027256$GBGSV,2,2,05,35,16,053,39,,,,,,,,,,,,*53
###2023-12-09 13:43:34.028572$GNVTG,243.17,T,,M,0.04,N,0.07,K,A*23
###2023-12-09 13:43:34.030177$GNGST,184333.10,6.900,,,,0.220,0.120,0.320*65
###2023-12-09 13:43:34.031475$GNZDA,184333.10,09,12,2023,00,00*7E
###2023-12-09 13:43:34.032113$GNEBP,,,,,,M*13
###2023-12-09 13:43:34.200719$GNGGA,184333.30,4138.0392231,N,07032.4385327,W,1,18,0.8,15.233,M,-29.746,M,0.0,*5B
###2023-12-09 13:43:34.399959$GNGGA,184333.50,4138.0392241,N,07032.4385327,W,1,19,0.7,15.227,M,-29.746,M,0.0,*51
###2023-12-09 13:43:34.599364$GNGGA,184333.70,4138.0392248,N,07032.4385339,W,1,19,0.7,15.220,M,-29.746,M,0.0,*52
###2023-12-09 13:43:34.798989$GNGGA,184333.90,4138.0392234,N,07032.4385352,W,1,18,0.8,15.214,M,-29.746,M,0.0,*53
###2023-12-09 13:43:35.004925$GNRMC,184334.10,A,4138.0392213,N,07032.4385357,W,0.04,243.17,091223,,,A*5D
###2023-12-09 13:43:35.007798$GNGGA,184334.10,4138.0392213,N,07032.4385357,W,1,18,0.8,15.204,M,-29.746,M,0.0,*5D
###2023-12-09 13:43:35.009759$GPGSA,A,3,04,16,26,28,29,31,,,,,,,1.3,0.8,1.1*3C
###2023-12-09 13:43:35.011370$GLGSA,A,3,65,73,74,75,,,,,,,,,1.3,0.8,1.1*22
###2023-12-09 13:43:35.012888$GAGSA,A,3,04,21,27,,,,,,,,,,1.3,0.8,1.1*2B
###2023-12-09 13:43:35.014530$GBGSA,A,3,12,14,24,25,35,,,,,,,,1.3,0.8,1.1*2B
###2023-12-09 13:43:35.016874$GPGSV,2,1,06,04,50,305,46,16,71,227,37,26,79,041,42,28,35,088,44*7E
###2023-12-09 13:43:35.018635$GPGSV,2,2,06,29,18,043,42,31,56,072,51,,,,,,,,*7C
###2023-12-09 13:43:35.020962$GLGSV,1,1,04,65,42,314,44,73,19,055,43,74,56,021,35,75,46,277,41*6B
###2023-12-09 13:43:35.023014$GAGSV,1,1,03,04,42,308,43,21,74,044,39,27,20,051,40,,,,*58
