###2023-12-09 13:29:01.792491$GNGGA,182900.90,4138.0463307,N,07032.4159137,W,1,24,0.6,13.265,M,-29.745,M,0.0,*57
###2023-12-09 13:29:01.996370$GNRMC,182901.10,A,4138.0463464,N,07032.4159149,W,0.33,25.74,091223,,,A*65
###2023-12-09 13:29:01.999884$GNGGA,182901.10,4138.0463464,N,07032.4159149,W,1,24,0.6,13.274,M,-29.745,M,0.0,*55
###2023-12-09 13:29:02.002077$GPGSA,A,3,03,04,16,26,28,29,31,,,,,,1.1,0.6,0.9*3A
###2023-12-09 13:29:02.004202$GLGSA,A,3,65,71,72,73,74,75,,,,,,,1.1,0.6,0.9*24
###2023-12-09 13:29:02.006120$GAGSA,A,3,04,19,21,27,,,,,,,,,1.1,0.6,0.9*26
###2023-12-09 13:29:02.008207$GBGSA,A,3,14,24,25,26,33,35,,,,,,,1.1,0.6,0.9*29
###2023-12-09 13:29:02.011027$GPGSV,2,1,07,03,28,249,44,04,43,309,46,16,63,220,47,26,87,041,48*73
###2023-12-09 13:29:02.013496$GPGSV,2,2,07,28,40,082,44,29,22,049,38,31,61,061,46,,,,*47
###2023-12-09 13:29:02.016317$GLGSV,2,1,06,65,36,321,43,71,25,175,38,72,65,225,47,73,24,050,41*6A
###2023-12-09 13:29:02.018422$GLGSV,2,2,06,74,61,010,41,75,42,268,49,,,,,,,,*66
###2023-12-09 13:29:02.021255$GAGSV,1,1,04,04,38,311,45,19,74,183,42,21,79,049,46,27,24,049,37*6E
###2023-12-09 13:29:02.024079$GBGSV,2,1,06,14,31,190,39,24,64,043,47,25,49,274,49,26,17,069,42*66
###2023-12-09 13:29:02.026190$GBGSV,2,2,06,33,48,219,46,35,16,058,41,,,,,,,,*60
###2023-12-09 13:29:02.027776$GNVTG,25.74,T,,M,0.33,N,0.61,K,A*10
###2023-12-09 13:29:02.029769$GNGST,182901.10,18.000,,,,0.100,0.070,0.170*5C
###2023-12-09 13:29:02.031341$GNZDA,182901.10,09,12,2023,00,00*73
###2023-12-09 13:29:02.032114$GNEBP,,,,,,M*13
###2023-12-09 13:29:02.191098$GNGGA,182901.30,4138.0463443,N,07032.4158915,W,1,24,0.6,13.251,M,-29.745,M,0.0,*55
###2023-12-09 13:29:02.392120$GNGGA,182901.50,4138.0463554,N,07032.4158974,W,1,24,0.6,13.234,M,-29.745,M,0.0,*50
###2023-12-09 13:29:02.595127$GNGGA,182901.70,4138.0463913,N,07032.4159367,W,1,24,0.6,13.240,M,-29.745,M,0.0,*57
###2023-12-09 13:29:02.793564$GNGGA,182901.90,4138.0464193,N,07032.4159661,W,1,24,0.6,13.233,M,-29.745,M,0.0,*59
###2023-12-09 13:29:02.997639$GNRMC,182902.10,A,4138.0464204,N,07032.4159498,W,0.47,25.74,091223,,,A*6B
###2023-12-09 13:29:03.001116$GNGGA,182902.10,4138.0464204,N,07032.4159498,W,1,24,0.6,13.243,M,-29.745,M,0.0,*5C
###2023-12-09 13:29:03.003288$GPGSA,A,3,03,04,16,26,28,29,31,,,,,,1.1,0.6,0.9*3A
###2023-12-09 13:29:03.005364$GLGSA,A,3,65,71,72,73,74,75,,,,,,,1.1,0.6,0.9*24
###2023-12-09 13:29:03.007287$GAGSA,A,3,04,19,21,27,,,,,,,,,1.1,0.6,0.9*26
###2023-12-09 13:29:03.009354$GBGSA,A,3,14,24,25,26,33,35,,,,,,,1.1,0.6,0.9*29
###2023-12-09 13:29:03.012172$GPGSV,2,1,07,03,28,249,44,04,43,309,47,16,63,220,47,26,87,041,49*73
###2023-12-09 13:29:03.014644$GPGSV,2,2,07,28,40,082,42,29,22,049,39,31,61,061,46,,,,*40
###2023-12-09 13:29:03.017456$GLGSV,2,1,06,65,36,321,44,71,25,175,40,72,65,225,46,73,24,050,40*62
###2023-12-09 13:29:03.019580$GLGSV,2,2,06,74,61,010,42,75,42,268,47,,,,,,,,*6B
###2023-12-09 13:29:03.022375$GAGSV,1,1,04,04,38,311,44,19,74,183,41,21,79,049,46,27,24,049,38*63
###2023-12-09 13:29:03.025202$GBGSV,2,1,06,14,31,190,41,24,64,043,46,25,49,274,47,26,17,069,42*66
###2023-12-09 13:29:03.027348$GBGSV,2,2,06,33,48,219,46,35,16,058,41,,,,,,,,*60
###2023-12-09 13:29:03.028913$GNVTG,25.74,T,,M,0.47,N,0.86,K,A*1A
###2023-12-09 13:29:03.030918$GNGST,182902.10,18.000,,,,0.100,0.070,0.170*5F
###2023-12-09 13:29:03.032475$GNZDA,182902.10,09,12,2023,00,00*70
###2023-12-09 13:29:03.033245$GNEBP,,,,,,M*13
###2023-12-09 13:29:03.196385$GNGGA,182902.30,4138.0464133,N,07032.4159262,W,1,24,0.6,13.231,M,-29.745,M,0.0,*5F
###2023-12-09 13:29:03.393059$GNGGA,182902.50,4138.0464303,N,07032.4159389,W,1,24,0.6,13.217,M,-29.745,M,0.0,*58
###2023-12-09 13:29:03.592937$GNGGA,182902.70,4138.0464680,N,07032.4159831,W,1,24,0.6,13.210,M,-29.745,M,0.0,*5B
###2023-12-09 13:29:03.794773$GNGGA,182902.90,4138.0464892,N,07032.4160070,W,1,24,0.6,13.205,M,-29.745,M,0.0,*5B
###2023-12-09 13:29:03.997055$GNRMC,182903.10,A,4138.0464851,N,07032.4159860,W,0.51,25.74,091223,,,A*6C
###2023-12-09 13:29:04.000524$GNGGA,182903.10,4138.0464851,N,07032.4159860,W,1,24,0.6,13.223,M,-29.745,M,0.0,*5A
###2023-12-09 13:29:04.002696$GPGSA,A,3,03,04,16,26,28,29,31,,,,,,1.1,0.6,0.9*3A
###2023-12-09 13:29:04.004755$GLGSA,A,3,65,71,72,73,74,75,,,,,,,1.1,0.6,0.9*24
###2023-12-09 13:29:04.006675$GAGSA,A,3,04,19,21,27,,,,,,,,,1.1,0.6,0.9*26
###2023-12-09 13:29:04.008735$GBGSA,A,3,14,24,25,26,33,35,,,,,,,1.1,0.6,0.9*29
###2023-12-09 13:29:04.011550$GPGSV,2,1,07,03,28,248,44,04,43,309,46,16,63,220,47,26,87,041,48*72
###2023-12-09 13:29:04.014001$GPGSV,2,2,07,28,40,082,43,29,22,049,39,31,61,061,46,,,,*41
###2023-12-09 13:29:04.016826$GLGSV,2,1,06,65,36,321,44,71,25,175,40,72,65,225,47,73,24,050,41*62
###2023-12-09 13:29:04.018955$GLGSV,2,2,06,74,61,010,42,75,42,268,48,,,,,,,,*64
###2023-12-09 13:29:04.021783$GAGSV,1,1,04,04,38,311,43,19,74,183,41,21,79,049,46,27,24,049,37*6B
###2023-12-09 13:29:04.024616$GBGSV,2,1,06,14,31,190,40,24,64,043,47,25,49,274,48,26,17,069,41*6A
###2023-12-09 13:29:04.026747$GBGSV,2,2,06,33,48,219,46,35,16,058,42,,,,,,,,*63
###2023-12-09 13:29:04.028296$GNVTG,25.74,T,,M,0.51,N,0.94,K,A*1E
###2023-12-09 13:29:04.030285$GNGST,182903.10,18.000,,,,0.100,0.070,0.170*5E
###2023-12-09 13:29:04.031853$GNZDA,182903.10,09,12,2023,00,00*71
###2023-12-09 13:29:04.032621$GNEBP,,,,,,M*13
###2023-12-09 13:29:04.192170$GNGGA,182903.30,4138.0464813,N,07032.4159672,W,1,24,0.6,13.210,M,-29.745,M,0.0,*53
###2023-12-09 13:29:04.391619$GNGGA,182903.50,4138.0465035,N,07032.4159889,W,1,24,0.6,13.200,M,-29.745,M,0.0,*53
###2023-12-09 13:29:04.594527$GNGGA,182903.70,4138.0465413,N,07032.4160319,W,1,24,0.6,13.189,M,-29.745,M,0.0,*5B
###2023-12-09 13:29:04.791235$GNGGA,182903.90,4138.0465535,N,07032.4160460,W,1,24,0.6,13.186,M,-29.745,M,0.0,*56
###2023-12-09 13:29:04.998401$GNRMC,182904.10,A,4138.0465479,N,07032.4160249,W,0.31,25.74,091223,,,A*61
###2023-12-09 13:29:05.001878$GNGGA,182904.10,4138.0465479,N,07032.4160249,W,1,24,0.6,13.195,M,-29.745,M,0.0,*5F
###2023-12-09 13:29:05.004053$GPGSA,A,3,03,04,16,26,28,29,31,,,,,,1.1,0.6,0.9*3A
###2023-12-09 13:29:05.006126$GLGSA,A,3,65,71,72,73,74,75,,,,,,,1.1,0.6,0.9*24
###2023-12-09 13:29:05.008040$GAGSA,A,3,04,19,21,27,,,,,,,,,1.1,0.6,0.9*26
###2023-12-09 13:29:05.010109$GBGSA,A,3,14,24,25,26,33,35,,,,,,,1.1,0.6,0.9*29
###2023-12-09 13:29:05.012926$GPGSV,2,1,07,03,28,248,44,04,44,309,45,16,63,220,46,26,87,041,48*77
###2023-12-09 13:29:05.015390$GPGSV,2,2,07,28,40,082,41,29,22,049,38,31,61,061,44,,,,*40
###2023-12-09 13:29:05.018210$GLGSV,2,1,06,65,36,321,43,71,25,175,41,72,65,225,46,73,24,050,43*67
###2023-12-09 13:29:05.020340$GLGSV,2,2,06,74,61,010,42,75,42,268,48,,,,,,,,*64
###2023-12-09 13:29:05.023155$GAGSV,1,1,04,04,38,311,44,19,74,183,41,21,79,049,45,27,24,049,38*60
###2023-12-09 13:29:05.025962$GBGSV,2,1,06,14,31,190,40,24,64,043,47,25,49,274,46,26,17,069,41*64
###2023-12-09 13:29:05.028109$GBGSV,2,2,06,33,48,219,46,35,16,058,41,,,,,,,,*60
###2023-12-09 13:29:05.029668$GNVTG,25.74,T,,M,0.31,N,0.58,K,A*18
###2023-12-09 13:29:05.031668$GNGST,182904.10,18.000,,,,0.100,0.070,0.170*59
###2023-12-09 13:29:05.033231$GNZDA,182904.10,09,12,2023,00,00*76
###2023-12-09 13:29:05.034000$GNEBP,,,,,,M*13
###2023-12-09 13:29:05.193292$GNGGA,182904.30,4138.0465523,N,07032.4160174,W,1,24,0.6,13.189,M,-29.745,M,0.0,*53
###2023-12-09 13:29:05.392384$GNGGA,182904.50,4138.0465735,N,07032.4160423,W,1,24,0.6,13.168,M,-29.745,M,0.0,*58
###2023-12-09 13:29:05.593424$GNGGA,182904.70,4138.0465984,N,07032.4160724,W,1,24,0.6,13.150,M,-29.745,M,0.0,*51
###2023-12-09 13:29:05.790660$GNGGA,182904.90,4138.0466130,N,07032.4160843,W,1,24,0.6,13.159,M,-29.745,M,0.0,*5C
###2023-12-09 13:29:05.995707$GNRMC,182905.10,A,4138.0466157,N,07032.4160754,W,0.19,25.74,091223,,,A*69
###2023-12-09 13:29:05.998576$GNGGA,182905.10,4138.0466157,N,07032.4160754,W,1,24,0.6,13.168,M,-29.745,M,0.0,*5F
###2023-12-09 13:29:06.000367$GPGSA,A,3,03,04,16,26,28,29,31,,,,,,1.1,0.6,0.9*3A
###2023-12-09 13:29:06.002077$GLGSA,A,3,65,71,72,73,74,75,,,,,,,1.1,0.6,0.9*24
###2023-12-09 13:29:06.003668$GAGSA,A,3,04,19,21,27,,,,,,,,,1.1,0.6,0.9*26
###2023-12-09 13:29:06.005373$GBGSA,A,3,14,24,25,26,33,35,,,,,,,1.1,0.6,0.9*29
###2023-12-09 13:29:06.007984$GPGSV,2,1,07,03,28,248,43,04,44,309,46,16,63,220,46,26,87,041,48*73
###2023-12-09 13:29:06.010043$GPGSV,2,2,07,28,40,082,42,29,22,049,35,31,61,061,46,,,,*4C
###2023-12-09 13:29:06.012389$GLGSV,2,1,06,65,36,321,43,71,25,175,42,72,65,225,47,73,24,050,40*66
###2023-12-09 13:29:06.014141$GLGSV,2,2,06,74,61,010,42,75,42,268,48,,,,,,,,*64
###2023-12-09 13:29:06.016487$GAGSV,1,1,04,04,38,311,44,19,74,183,42,21,79,049,47,27,24,049,37*6E
###2023-12-09 13:29:06.018837$GBGSV,2,1,06,14,31,190,41,24,64,043,46,25,49,274,47,26,17,069,42*66
###2023-12-09 13:29:06.020591$GBGSV,2,2,06,33,48,219,46,35,16,058,42,,,,,,,,*63
###2023-12-09 13:29:06.021888$GNVTG,25.74,T,,M,0.19,N,0.36,K,A*1A
###2023-12-09 13:29:06.023548$GNGST,182905.10,18.000,,,,0.100,0.071,0.170*59
