###2023-12-09 13:19:30.013659$GBGSV,2,1,06,14,35,191,42,24,68,038,48,25,46,269,46,26,20,067,42*66
###2023-12-09 13:19:30.015811$GBGSV,2,2,06,33,51,223,47,35,16,062,41,,,,,,,,*69
###2023-12-09 13:19:30.017421$GNVTG,341.75,T,,M,3.91,N,7.24,K,A*2D
###2023-12-09 13:19:30.019441$GNGST,181929.10,18.000,,,,0.098,0.070,0.170*55
###2023-12-09 13:19:30.021005$GNZDA,181929.10,09,12,2023,00,00*7A
###2023-12-09 13:19:30.021779$GNEBP,,,,,,M*13
###2023-12-09 13:19:30.181651$GNGGA,181929.30,4138.0863908,N,07032.3090934,W,1,24,0.7,13.193,M,-29.742,M,0.0,*58
###2023-12-09 13:19:30.381262$GNGGA,181929.50,4138.0865883,N,07032.3091827,W,1,24,0.7,13.191,M,-29.742,M,0.0,*5A
###2023-12-09 13:19:30.582249$GNGGA,181929.70,4138.0867751,N,07032.3092878,W,1,24,0.7,13.191,M,-29.742,M,0.0,*53
###2023-12-09 13:19:30.781127$GNGGA,181929.90,4138.0869571,N,07032.3094020,W,1,24,0.7,13.188,M,-29.742,M,0.0,*58
###2023-12-09 13:19:30.987709$GNRMC,181930.10,A,4138.0871390,N,07032.3095159,W,3.65,335.85,091223,,,A*5C
###2023-12-09 13:19:30.991187$GNGGA,181930.10,4138.0871390,N,07032.3095159,W,1,24,0.7,13.191,M,-29.742,M,0.0,*5E
###2023-12-09 13:19:30.993341$GPGSA,A,3,03,04,16,26,28,29,31,,,,,,1.1,0.7,0.9*3B
###2023-12-09 13:19:30.995428$GLGSA,A,3,65,71,72,73,74,75,,,,,,,1.1,0.7,0.9*25
###2023-12-09 13:19:30.997338$GAGSA,A,3,04,19,21,27,,,,,,,,,1.1,0.7,0.9*27
###2023-12-09 13:19:30.999405$GBGSA,A,3,14,24,25,26,33,35,,,,,,,1.1,0.7,0.9*28
###2023-12-09 13:19:31.002202$GPGSV,2,1,07,03,31,253,44,04,40,310,42,16,59,217,46,26,89,196,48*76
###2023-12-09 13:19:31.004683$GPGSV,2,2,07,28,43,079,46,29,23,053,42,31,64,053,46,,,,*41
###2023-12-09 13:19:31.007499$GLGSV,2,1,06,65,32,324,40,71,31,174,44,72,69,237,46,73,28,047,43*61
###2023-12-09 13:19:31.009487$GLGSV,2,2,06,74,65,,41,75,38,262,46,,,,,,,,*5B
###2023-12-09 13:19:31.012294$GAGSV,1,1,04,04,35,311,39,19,78,188,41,21,82,058,46,27,27,049,41*6A
###2023-12-09 13:19:31.015100$GBGSV,2,1,06,14,35,191,42,24,68,038,48,25,46,269,47,26,20,067,41*64
###2023-12-09 13:19:31.017210$GBGSV,2,2,06,33,51,223,47,35,16,062,40,,,,,,,,*68
###2023-12-09 13:19:31.018838$GNVTG,335.85,T,,M,3.65,N,6.77,K,A*2D
###2023-12-09 13:19:31.020833$GNGST,181930.10,18.000,,,,0.098,0.070,0.170*5D
###2023-12-09 13:19:31.022390$GNZDA,181930.10,09,12,2023,00,00*72
###2023-12-09 13:19:31.023170$GNEBP,,,,,,M*13
###2023-12-09 13:19:31.181272$GNGGA,181930.30,4138.0873221,N,07032.3096272,W,1,24,0.7,13.190,M,-29.742,M,0.0,*5D
###2023-12-09 13:19:31.381324$GNGGA,181930.50,4138.0875010,N,07032.3097524,W,1,24,0.7,13.189,M,-29.742,M,0.0,*50
###2023-12-09 13:19:31.580180$GNGGA,181930.70,4138.0876710,N,07032.3098915,W,1,24,0.7,13.191,M,-29.742,M,0.0,*5E
###2023-12-09 13:19:31.782074$GNGGA,181930.90,4138.0878413,N,07032.3100360,W,1,24,0.7,13.186,M,-29.742,M,0.0,*50
###2023-12-09 13:19:31.985690$GNRMC,181931.10,A,4138.0880123,N,07032.3101790,W,3.71,327.86,091223,,,A*53
###2023-12-09 13:19:31.989175$GNGGA,181931.10,4138.0880123,N,07032.3101790,W,1,24,0.7,13.188,M,-29.742,M,0.0,*5C
###2023-12-09 13:19:31.991369$GPGSA,A,3,03,04,16,26,28,29,31,,,,,,1.1,0.7,0.9*3B
###2023-12-09 13:19:31.993445$GLGSA,A,3,65,71,72,73,74,75,,,,,,,1.1,0.7,0.9*25
###2023-12-09 13:19:31.995373$GAGSA,A,3,04,19,21,27,,,,,,,,,1.1,0.7,0.9*27
###2023-12-09 13:19:31.997438$GBGSA,A,3,14,24,25,26,33,35,,,,,,,1.1,0.7,0.9*28
###2023-12-09 13:19:32.000253$GPGSV,2,1,07,03,31,253,44,04,40,310,40,16,59,217,46,26,89,196,48*74
###2023-12-09 13:19:32.002727$GPGSV,2,2,07,28,43,079,44,29,23,053,42,31,64,055,47,,,,*44
###2023-12-09 13:19:32.005531$GLGSV,2,1,06,65,32,324,41,71,31,174,44,72,69,237,46,73,28,047,43*60
###2023-12-09 13:19:32.007519$GLGSV,2,2,06,74,65,,42,75,38,262,46,,,,,,,,*58
###2023-12-09 13:19:32.010339$GAGSV,1,1,04,04,35,311,40,19,78,188,40,21,82,058,46,27,27,049,41*65
###2023-12-09 13:19:32.013158$GBGSV,2,1,06,14,35,191,42,24,68,038,48,25,46,269,46,26,20,067,41*65
###2023-12-09 13:19:32.015267$GBGSV,2,2,06,33,51,223,47,35,16,062,40,,,,,,,,*68
###2023-12-09 13:19:32.016868$GNVTG,327.86,T,,M,3.71,N,6.88,K,A*28
###2023-12-09 13:19:32.018870$GNGST,181931.10,18.000,,,,0.099,0.070,0.170*5D
###2023-12-09 13:19:32.020434$GNZDA,181931.10,09,12,2023,00,00*73
###2023-12-09 13:19:32.021204$GNEBP,,,,,,M*13
###2023-12-09 13:19:32.181238$GNGGA,181931.30,4138.0881803,N,07032.3103286,W,1,24,0.7,13.198,M,-29.742,M,0.0,*55
###2023-12-09 13:19:32.382205$GNGGA,181931.50,4138.0883392,N,07032.3104893,W,1,24,0.7,13.197,M,-29.742,M,0.0,*54
###2023-12-09 13:19:32.583223$GNGGA,181931.70,4138.0884919,N,07032.3106577,W,1,24,0.7,13.202,M,-29.742,M,0.0,*52
###2023-12-09 13:19:32.782414$GNGGA,181931.90,4138.0886370,N,07032.3108291,W,1,24,0.7,13.205,M,-29.742,M,0.0,*5D
###2023-12-09 13:19:32.992194$GNRMC,181932.10,A,4138.0887808,N,07032.3109984,W,3.48,317.67,091223,,,A*52
###2023-12-09 13:19:32.995666$GNGGA,181932.10,4138.0887808,N,07032.3109984,W,1,24,0.7,13.208,M,-29.742,M,0.0,*50
###2023-12-09 13:19:32.997818$GPGSA,A,3,03,04,16,26,28,29,31,,,,,,1.1,0.7,0.9*3B
###2023-12-09 13:19:32.999907$GLGSA,A,3,65,71,72,73,74,75,,,,,,,1.1,0.7,0.9*25
###2023-12-09 13:19:33.001817$GAGSA,A,3,04,19,21,27,,,,,,,,,1.1,0.7,0.9*27
###2023-12-09 13:19:33.003901$GBGSA,A,3,14,24,25,26,33,35,,,,,,,1.1,0.7,0.9*28
###2023-12-09 13:19:33.006718$GPGSV,2,1,07,03,31,253,42,04,40,310,41,16,59,217,45,26,89,196,47*7F
###2023-12-09 13:19:33.009173$GPGSV,2,2,07,28,43,079,44,29,23,053,42,31,64,055,46,,,,*45
###2023-12-09 13:19:33.012032$GLGSV,2,1,06,65,32,324,40,71,31,174,44,72,69,237,46,73,28,047,44*66
###2023-12-09 13:19:33.014020$GLGSV,2,2,06,74,65,,42,75,38,262,46,,,,,,,,*58
###2023-12-09 13:19:33.016831$GAGSV,1,1,04,04,35,311,41,19,78,188,41,21,82,058,46,27,27,049,41*65
###2023-12-09 13:19:33.019663$GBGSV,2,1,06,14,35,191,44,24,68,038,49,25,46,269,46,26,20,067,41*62
###2023-12-09 13:19:33.021775$GBGSV,2,2,06,33,51,223,49,35,16,062,41,,,,,,,,*67
###2023-12-09 13:19:33.023391$GNVTG,317.67,T,,M,3.48,N,6.44,K,A*2E
###2023-12-09 13:19:33.025368$GNGST,181932.10,18.000,,,,0.099,0.071,0.170*5F
###2023-12-09 13:19:33.026929$GNZDA,181932.10,09,12,2023,00,00*70
###2023-12-09 13:19:33.027697$GNEBP,,,,,,M*13
###2023-12-09 13:19:33.184354$GNGGA,181932.30,4138.0889149,N,07032.3111786,W,1,24,0.7,13.205,M,-29.742,M,0.0,*58
###2023-12-09 13:19:33.380103$GNGGA,181932.50,4138.0890348,N,07032.3113663,W,1,24,0.7,13.210,M,-29.742,M,0.0,*59
###2023-12-09 13:19:33.581465$GNGGA,181932.70,4138.0891525,N,07032.3115546,W,1,24,0.7,13.215,M,-29.742,M,0.0,*50
###2023-12-09 13:19:33.782090$GNGGA,181932.90,4138.0892629,N,07032.3117477,W,1,24,0.7,13.215,M,-29.742,M,0.0,*53
###2023-12-09 13:19:33.985945$GNRMC,181933.10,A,4138.0893636,N,07032.3119472,W,3.29,301.93,091223,,,A*5B
###2023-12-09 13:19:33.989413$GNGGA,181933.10,4138.0893636,N,07032.3119472,W,1,24,0.7,13.219,M,-29.742,M,0.0,*52
###2023-12-09 13:19:33.991590$GPGSA,A,3,03,04,16,26,28,29,31,,,,,,1.1,0.7,0.9*3B
###2023-12-09 13:19:33.993656$GLGSA,A,3,65,71,72,73,74,75,,,,,,,1.1,0.7,0.9*25
###2023-12-09 13:19:33.995577$GAGSA,A,3,04,19,21,27,,,,,,,,,1.1,0.7,0.9*27
###2023-12-09 13:19:33.997632$GBGSA,A,3,14,24,25,26,33,35,,,,,,,1.1,0.7,0.9*28
###2023-12-09 13:19:34.000445$GPGSV,2,1,07,03,31,253,43,04,40,310,42,16,59,217,46,26,89,196,49*70
###2023-12-09 13:19:34.002910$GPGSV,2,2,07,28,43,079,45,29,23,053,41,31,64,055,47,,,,*46
###2023-12-09 13:19:34.005705$GLGSV,2,1,06,65,32,324,40,71,31,174,44,72,69,237,46,73,28,047,44*66
###2023-12-09 13:19:34.007704$GLGSV,2,2,06,74,65,,42,75,38,262,45,,,,,,,,*5B
###2023-12-09 13:19:34.010524$GAGSV,1,1,04,04,35,311,41,19,78,188,41,21,82,058,46,27,27,049,41*65
###2023-12-09 13:19:34.013348$GBGSV,2,1,06,14,35,191,43,24,68,038,48,25,46,269,44,26,20,067,41*66
###2023-12-09 13:19:34.015461$GBGSV,2,2,06,33,51,223,45,35,16,062,41,,,,,,,,*6B
###2023-12-09 13:19:34.017048$GNVTG,301.93,T,,M,3.29,N,6.08,K,A*2D
###2023-12-09 13:19:34.019039$GNGST,181933.10,18.000,,,,0.099,0.071,0.170*5E
###2023-12-09 13:19:34.020587$GNZDA,181933.10,09,12,2023,00,00*71
###2023-12-09 13:19:34.021363$GNEBP,,,,,,M*13
###2023-12-09 13:19:34.181621$GNGGA,181933.30,4138.0894567,N,07032.3121542,W,1,24,0.7,13.219,M,-29.742,M,0.0,*59
###2023-12-09 13:19:34.381318$GNGGA,181933.50,4138.0895459,N,07032.3123591,W,1,24,0.7,13.221,M,-29.742,M,0.0,*55
###2023-12-09 13:19:34.582389$GNGGA,181933.70,4138.0896314,N,07032.3125666,W,1,24,0.7,13.223,M,-29.742,M,0.0,*55
###2023-12-09 13:19:34.781448$GNGGA,181933.90,4138.0897084,N,07032.3127796,W,1,24,0.7,13.214,M,-29.742,M,0.0,*58
###2023-12-09 13:19:34.985129$GNRMC,181934.10,A,4138.0897790,N,07032.3129916,W,3.11,293.64,091223,,,A*50
###2023-12-09 13:19:34.988000$GNGGA,181934.10,4138.0897790,N,07032.3129916,W,1,24,0.7,13.217,M,-29.742,M,0.0,*5E
###2023-12-09 13:19:34.989789$GPGSA,A,3,03,04,16,26,28,29,31,,,,,,1.1,0.7,0.9*3B
###2023-12-09 13:19:34.991503$GLGSA,A,3,65,71,72,73,74,75,,,,,,,1.1,0.7,0.9*25
###2023-12-09 13:19:34.993080$GAGSA,A,3,04,19,21,27,,,,,,,,,1.1,0.7,0.9*27
###2023-12-09 13:19:34.994794$GBGSA,A,3,14,24,25,26,33,35,,,,,,,1.1,0.7,0.9*28
