###2023-12-09 13:32:50.015366$GBGSV,2,1,05,24,63,045,47,25,50,275,46,26,16,070,42,33,46,217,45*69
###2023-12-09 13:32:50.016837$GBGSV,2,2,05,35,16,057,42,,,,,,,,,,,,*5B
###2023-12-09 13:32:50.018124$GNVTG,62.25,T,,M,2.18,N,4.03,K,A*1C
###2023-12-09 13:32:50.019746$GNGST,183249.10,5.800,,,,0.140,0.081,0.230*63
###2023-12-09 13:32:50.021033$GNZDA,183249.10,09,12,2023,00,00*75
###2023-12-09 13:32:50.021670$GNEBP,,,,,,M*13
###2023-12-09 13:32:50.189909$GNGGA,183249.30,4138.0325931,N,07032.4107791,W,1,22,0.8,13.780,M,-29.746,M,0.0,*54
###2023-12-09 13:32:50.389001$GNGGA,183249.50,4138.0326689,N,07032.4106704,W,1,23,0.7,13.771,M,-29.745,M,0.0,*53
###2023-12-09 13:32:50.588404$GNGGA,183249.70,4138.0327557,N,07032.4105524,W,1,21,0.8,13.772,M,-29.745,M,0.0,*5D
###2023-12-09 13:32:50.787487$GNGGA,183249.90,4138.0328386,N,07032.4104264,W,1,21,0.8,13.749,M,-29.745,M,0.0,*5C
###2023-12-09 13:32:50.992427$GNRMC,183250.10,A,4138.0329279,N,07032.4103291,W,2.02,30.70,091223,,,A*61
###2023-12-09 13:32:50.995299$GNGGA,183250.10,4138.0329279,N,07032.4103291,W,1,21,0.8,13.759,M,-29.745,M,0.0,*50
###2023-12-09 13:32:50.997028$GPGSA,A,3,04,16,26,28,29,31,,,,,,,1.3,0.8,1.0*3D
###2023-12-09 13:32:50.998692$GLGSA,A,3,65,72,73,74,75,,,,,,,,1.3,0.8,1.0*26
###2023-12-09 13:32:51.000275$GAGSA,A,3,04,19,21,27,,,,,,,,,1.3,0.8,1.0*22
###2023-12-09 13:32:51.001918$GBGSA,A,3,24,25,26,33,35,,,,,,,,1.3,0.8,1.0*28
###2023-12-09 13:32:51.004257$GPGSV,2,1,06,04,45,308,44,16,65,221,47,26,85,040,48,28,39,084,43*7E
###2023-12-09 13:32:51.006002$GPGSV,2,2,06,29,21,048,41,31,60,064,46,,,,,,,,*7A
###2023-12-09 13:32:51.008333$GLGSV,2,1,05,65,38,319,42,72,63,222,47,73,23,052,41,74,60,013,41*62
###2023-12-09 13:32:51.009781$GLGSV,2,2,05,75,43,271,47,,,,,,,,,,,,*52
###2023-12-09 13:32:51.012120$GAGSV,1,1,04,04,39,310,43,19,73,182,42,21,77,047,46,27,23,050,38*6E
###2023-12-09 13:32:51.014454$GBGSV,2,1,05,24,63,045,47,25,50,275,47,26,16,070,42,33,46,217,48*65
###2023-12-09 13:32:51.015921$GBGSV,2,2,05,35,16,057,43,,,,,,,,,,,,*5A
###2023-12-09 13:32:51.017211$GNVTG,30.70,T,,M,2.02,N,3.74,K,A*17
###2023-12-09 13:32:51.018826$GNGST,183250.10,5.400,,,,0.140,0.081,0.230*67
###2023-12-09 13:32:51.020111$GNZDA,183250.10,09,12,2023,00,00*7D
###2023-12-09 13:32:51.020747$GNEBP,,,,,,M*13
###2023-12-09 13:32:51.201881$GNGGA,183250.30,4138.0330300,N,07032.4102314,W,1,21,0.7,13.770,M,-29.745,M,0.0,*5C
###2023-12-09 13:32:51.391334$GNGGA,183250.50,4138.0331300,N,07032.4101300,W,1,23,0.7,13.758,M,-29.745,M,0.0,*55
###2023-12-09 13:32:51.590318$GNGGA,183250.70,4138.0332330,N,07032.4100646,W,1,23,0.7,13.768,M,-29.745,M,0.0,*52
###2023-12-09 13:32:51.793313$GNGGA,183250.90,4138.0333461,N,07032.4099721,W,1,23,0.7,13.775,M,-29.745,M,0.0,*53
###2023-12-09 13:32:51.995865$GNRMC,183251.10,A,4138.0334620,N,07032.4098947,W,2.08,16.60,091223,,,A*68
###2023-12-09 13:32:51.998742$GNGGA,183251.10,4138.0334620,N,07032.4098947,W,1,24,0.6,13.758,M,-29.745,M,0.0,*5C
###2023-12-09 13:32:52.000533$GPGSA,A,3,03,04,16,26,28,29,31,,,,,,1.1,0.6,0.9*3A
###2023-12-09 13:32:52.002244$GLGSA,A,3,65,71,72,73,74,75,,,,,,,1.1,0.6,0.9*24
###2023-12-09 13:32:52.003833$GAGSA,A,3,04,19,21,27,,,,,,,,,1.1,0.6,0.9*26
###2023-12-09 13:32:52.005542$GBGSA,A,3,14,24,25,26,33,35,,,,,,,1.1,0.6,0.9*29
###2023-12-09 13:32:52.007892$GPGSV,2,1,07,03,27,247,37,04,45,308,45,16,65,221,46,26,85,040,48*77
###2023-12-09 13:32:52.009946$GPGSV,2,2,07,28,39,084,44,29,21,048,41,31,60,064,46,,,,*47
###2023-12-09 13:32:52.012284$GLGSV,2,1,06,65,38,319,43,71,23,175,37,72,63,222,47,73,23,052,41*62
###2023-12-09 13:32:52.014030$GLGSV,2,2,06,74,60,013,41,75,43,271,46,,,,,,,,*62
###2023-12-09 13:32:52.016360$GAGSV,1,1,04,04,39,310,43,19,73,182,42,21,77,047,46,27,23,050,39*6F
###2023-12-09 13:32:52.018691$GBGSV,2,1,06,14,29,190,36,24,63,045,47,25,50,275,47,26,16,070,44*69
###2023-12-09 13:32:52.020443$GBGSV,2,2,06,33,46,217,48,35,16,057,42,,,,,,,,*62
###2023-12-09 13:32:52.021735$GNVTG,16.60,T,,M,2.08,N,3.85,K,A*16
###2023-12-09 13:32:52.023362$GNGST,183251.10,6.000,,,,0.140,0.082,0.230*62
###2023-12-09 13:32:52.024652$GNZDA,183251.10,09,12,2023,00,00*7C
###2023-12-09 13:32:52.025289$GNEBP,,,,,,M*13
###2023-12-09 13:32:52.193435$GNGGA,183251.30,4138.0335795,N,07032.4098669,W,1,23,0.7,13.777,M,-29.745,M,0.0,*58
###2023-12-09 13:32:52.391165$GNGGA,183251.50,4138.0336981,N,07032.4098070,W,1,22,0.7,13.784,M,-29.745,M,0.0,*55
###2023-12-09 13:32:52.590222$GNGGA,183251.70,4138.0338208,N,07032.4097582,W,1,22,0.7,13.755,M,-29.745,M,0.0,*58
###2023-12-09 13:32:52.793291$GNGGA,183251.90,4138.0339391,N,07032.4097330,W,1,23,0.7,13.748,M,-29.745,M,0.0,*54
###2023-12-09 13:32:52.995731$GNRMC,183252.10,A,4138.0340603,N,07032.4097061,W,2.18,6.76,091223,,,A*5C
###2023-12-09 13:32:52.998590$GNGGA,183252.10,4138.0340603,N,07032.4097061,W,1,24,0.6,13.734,M,-29.745,M,0.0,*55
###2023-12-09 13:32:53.000388$GPGSA,A,3,03,04,16,26,28,29,31,,,,,,1.1,0.6,0.9*3A
###2023-12-09 13:32:53.002102$GLGSA,A,3,65,71,72,73,74,75,,,,,,,1.1,0.6,0.9*24
###2023-12-09 13:32:53.003692$GAGSA,A,3,04,19,21,27,,,,,,,,,1.1,0.6,0.9*26
###2023-12-09 13:32:53.005395$GBGSA,A,3,14,24,25,26,33,35,,,,,,,1.1,0.6,0.9*29
###2023-12-09 13:32:53.007731$GPGSV,2,1,07,03,27,247,42,04,45,308,45,16,65,221,47,26,85,040,48*74
###2023-12-09 13:32:53.009761$GPGSV,2,2,07,28,39,084,44,29,21,048,41,31,60,064,47,,,,*46
###2023-12-09 13:32:53.012092$GLGSV,2,1,06,65,38,319,43,71,23,175,35,72,63,222,47,73,23,052,41*60
###2023-12-09 13:32:53.013835$GLGSV,2,2,06,74,60,013,41,75,43,271,48,,,,,,,,*6C
###2023-12-09 13:32:53.016163$GAGSV,1,1,04,04,39,310,45,19,73,182,41,21,77,047,46,27,23,050,39*6A
###2023-12-09 13:32:53.018484$GBGSV,2,1,06,14,29,190,36,24,63,045,47,25,50,275,46,26,16,070,41*6D
###2023-12-09 13:32:53.020238$GBGSV,2,2,06,33,46,217,47,35,16,057,43,,,,,,,,*6C
###2023-12-09 13:32:53.021494$GNVTG,6.76,T,,M,2.18,N,4.03,K,A*28
###2023-12-09 13:32:53.023147$GNGST,183252.10,18.000,,,,0.140,0.081,0.230*5D
###2023-12-09 13:32:53.024439$GNZDA,183252.10,09,12,2023,00,00*7F
###2023-12-09 13:32:53.025077$GNEBP,,,,,,M*13
###2023-12-09 13:32:53.193138$GNGGA,183252.30,4138.0341768,N,07032.4096934,W,1,24,0.6,13.704,M,-29.745,M,0.0,*51
###2023-12-09 13:32:53.391915$GNGGA,183252.50,4138.0342995,N,07032.4096878,W,1,23,0.7,13.702,M,-29.745,M,0.0,*51
###2023-12-09 13:32:53.592036$GNGGA,183252.70,4138.0344214,N,07032.4096903,W,1,23,0.7,13.673,M,-29.745,M,0.0,*5D
###2023-12-09 13:32:53.791811$GNGGA,183252.90,4138.0345410,N,07032.4096947,W,1,24,0.6,13.628,M,-29.745,M,0.0,*58
###2023-12-09 13:32:53.992217$GNRMC,183253.10,A,4138.0346560,N,07032.4097241,W,2.08,349.45,091223,,,A*54
###2023-12-09 13:32:53.995087$GNGGA,183253.10,4138.0346560,N,07032.4097241,W,1,24,0.6,13.603,M,-29.745,M,0.0,*51
###2023-12-09 13:32:53.996881$GPGSA,A,3,03,04,16,26,28,29,31,,,,,,1.1,0.6,0.9*3A
###2023-12-09 13:32:53.998603$GLGSA,A,3,65,71,72,73,74,75,,,,,,,1.1,0.6,0.9*24
###2023-12-09 13:32:54.000187$GAGSA,A,3,04,19,21,27,,,,,,,,,1.1,0.6,0.9*26
###2023-12-09 13:32:54.001893$GBGSA,A,3,14,24,25,26,33,35,,,,,,,1.1,0.6,0.9*29
###2023-12-09 13:32:54.004226$GPGSV,2,1,07,03,27,247,41,04,45,308,45,16,65,221,46,26,85,040,49*77
###2023-12-09 13:32:54.006270$GPGSV,2,2,07,28,39,084,46,29,21,048,42,31,60,064,48,,,,*48
###2023-12-09 13:32:54.008613$GLGSV,2,1,06,65,38,319,40,71,23,175,37,72,63,222,45,73,23,052,43*61
###2023-12-09 13:32:54.010357$GLGSV,2,2,06,74,60,013,41,75,43,271,45,,,,,,,,*61
###2023-12-09 13:32:54.012689$GAGSV,1,1,04,04,39,310,43,19,73,182,42,21,77,047,46,27,23,050,40*61
###2023-12-09 13:32:54.015016$GBGSV,2,1,06,14,29,190,38,24,63,045,48,25,50,275,46,26,16,070,41*6C
###2023-12-09 13:32:54.016761$GBGSV,2,2,06,33,46,217,46,35,16,057,41,,,,,,,,*6F
###2023-12-09 13:32:54.018080$GNVTG,349.45,T,,M,2.08,N,3.85,K,A*28
###2023-12-09 13:32:54.019700$GNGST,183253.10,5.500,,,,0.140,0.080,0.220*65
###2023-12-09 13:32:54.020984$GNZDA,183253.10,09,12,2023,00,00*7E
###2023-12-09 13:32:54.021616$GNEBP,,,,,,M*13
###2023-12-09 13:32:54.190790$GNGGA,183253.30,4138.0347691,N,07032.4097573,W,1,24,0.6,13.589,M,-29.745,M,0.0,*58
###2023-12-09 13:32:54.389963$GNGGA,183253.50,4138.0348867,N,07032.4097771,W,1,24,0.6,13.571,M,-29.745,M,0.0,*51
###2023-12-09 13:32:54.591897$GNGGA,183253.70,4138.0350009,N,07032.4098152,W,1,24,0.6,13.555,M,-29.745,M,0.0,*54
###2023-12-09 13:32:54.791123$GNGGA,183253.90,4138.0351080,N,07032.4098710,W,1,22,0.7,13.554,M,-29.745,M,0.0,*5C
###2023-12-09 13:32:54.992305$GNRMC,183254.10,A,4138.0352203,N,07032.4099367,W,2.08,337.24,091223,,,A*51
###2023-12-09 13:32:54.995165$GNGGA,183254.10,4138.0352203,N,07032.4099367,W,1,23,0.7,13.556,M,-29.745,M,0.0,*5F
###2023-12-09 13:32:54.996955$GPGSA,A,3,03,04,16,26,28,29,31,,,,,,1.1,0.7,0.9*3B
###2023-12-09 13:32:54.998675$GLGSA,A,3,65,71,72,73,74,75,,,,,,,1.1,0.7,0.9*25
###2023-12-09 13:32:55.000257$GAGSA,A,3,04,19,21,27,,,,,,,,,1.1,0.7,0.9*27
###2023-12-09 13:32:55.001960$GBGSA,A,3,14,24,25,26,33,35,,,,,,,1.1,0.7,0.9*28
