###2023-12-09 13:12:30.999011$GAGSV,1,1,04,04,33,312,42,19,81,194,40,21,84,070,46,27,29,048,42*69
###2023-12-09 13:12:31.001346$GBGSV,2,1,06,14,38,192,45,24,70,034,49,25,44,267,47,26,22,065,45*61
###2023-12-09 13:12:31.003105$GBGSV,2,2,06,33,54,227,49,35,15,065,45,,,,,,,,*66
###2023-12-09 13:12:31.004428$GNVTG,119.59,T,,M,3.50,N,6.48,K,A*2A
###2023-12-09 13:12:31.006075$GNGST,181230.10,18.000,,,,0.098,0.071,0.170*57
###2023-12-09 13:12:31.007379$GNZDA,181230.10,09,12,2023,00,00*79
###2023-12-09 13:12:31.008021$GNEBP,,,,,,M*13
###2023-12-09 13:12:31.173117$GNGGA,181230.30,4138.0443760,N,07032.3077323,W,1,24,0.7,12.705,M,-29.744,M,0.0,*5E
###2023-12-09 13:12:31.373309$GNGGA,181230.50,4138.0442950,N,07032.3074955,W,1,24,0.7,12.707,M,-29.744,M,0.0,*5E
###2023-12-09 13:12:31.574307$GNGGA,181230.70,4138.0442226,N,07032.3072540,W,1,24,0.7,12.705,M,-29.744,M,0.0,*5A
###2023-12-09 13:12:31.774167$GNGGA,181230.90,4138.0441613,N,07032.3070110,W,1,24,0.7,12.705,M,-29.744,M,0.0,*56
###2023-12-09 13:12:31.978112$GNRMC,181231.10,A,4138.0440912,N,07032.3067644,W,3.52,108.66,091223,,,A*5B
###2023-12-09 13:12:31.980989$GNGGA,181231.10,4138.0440912,N,07032.3067644,W,1,24,0.7,12.697,M,-29.744,M,0.0,*5A
###2023-12-09 13:12:31.982791$GPGSA,A,3,03,04,16,26,28,29,31,,,,,,1.2,0.7,1.0*30
###2023-12-09 13:12:31.984502$GLGSA,A,3,65,71,72,73,74,75,,,,,,,1.2,0.7,1.0*2E
###2023-12-09 13:12:31.986080$GAGSA,A,3,04,19,21,27,,,,,,,,,1.2,0.7,1.0*2C
###2023-12-09 13:12:31.987865$GBGSA,A,3,14,24,25,26,33,35,,,,,,,1.2,0.7,1.0*23
###2023-12-09 13:12:31.990189$GPGSV,2,1,07,03,33,256,44,04,37,311,43,16,55,215,48,26,85,210,49*71
###2023-12-09 13:12:31.992239$GPGSV,2,2,07,28,46,075,45,29,24,056,44,31,66,048,47,,,,*46
###2023-12-09 13:12:31.994558$GLGSV,2,1,06,65,28,326,42,71,35,174,45,72,72,250,46,73,31,045,43*6E
###2023-12-09 13:12:31.996317$GLGSV,2,2,06,74,67,351,43,75,36,258,47,,,,,,,,*6A
###2023-12-09 13:12:31.998659$GAGSV,1,1,04,04,33,312,41,19,81,194,42,21,84,070,46,27,29,048,43*69
###2023-12-09 13:12:32.000988$GBGSV,2,1,06,14,38,192,44,24,70,034,49,25,44,267,47,26,22,065,42*67
###2023-12-09 13:12:32.002744$GBGSV,2,2,06,33,54,227,49,35,15,065,43,,,,,,,,*60
###2023-12-09 13:12:32.004070$GNVTG,108.66,T,,M,3.52,N,6.52,K,A*2F
###2023-12-09 13:12:32.005718$GNGST,181231.10,18.000,,,,0.098,0.071,0.170*56
###2023-12-09 13:12:32.007050$GNZDA,181231.10,09,12,2023,00,00*78
###2023-12-09 13:12:32.007691$GNEBP,,,,,,M*13
###2023-12-09 13:12:32.178045$GNGGA,181231.30,4138.0440501,N,07032.3065182,W,1,24,0.7,12.702,M,-29.744,M,0.0,*54
###2023-12-09 13:12:32.373301$GNGGA,181231.50,4138.0440070,N,07032.3062649,W,1,24,0.7,12.711,M,-29.744,M,0.0,*54
###2023-12-09 13:12:32.574336$GNGGA,181231.70,4138.0439602,N,07032.3060171,W,1,24,0.7,12.689,M,-29.744,M,0.0,*55
###2023-12-09 13:12:32.774841$GNGGA,181231.90,4138.0439502,N,07032.3057720,W,1,24,0.7,12.706,M,-29.744,M,0.0,*58
###2023-12-09 13:12:32.985625$GNRMC,181232.10,A,4138.0439238,N,07032.3055143,W,3.46,101.90,091223,,,A*51
###2023-12-09 13:12:32.989146$GNGGA,181232.10,4138.0439238,N,07032.3055143,W,1,24,0.7,12.696,M,-29.744,M,0.0,*54
###2023-12-09 13:12:32.991320$GPGSA,A,3,03,04,16,26,28,29,31,,,,,,1.2,0.7,1.0*30
###2023-12-09 13:12:32.993395$GLGSA,A,3,65,71,72,73,74,75,,,,,,,1.2,0.7,1.0*2E
###2023-12-09 13:12:32.995315$GAGSA,A,3,04,19,21,27,,,,,,,,,1.2,0.7,1.0*2C
###2023-12-09 13:12:32.997388$GBGSA,A,3,14,24,25,26,33,35,,,,,,,1.2,0.7,1.0*23
###2023-12-09 13:12:33.000208$GPGSV,2,1,07,03,33,256,45,04,37,311,45,16,55,215,48,26,85,210,49*76
###2023-12-09 13:12:33.002690$GPGSV,2,2,07,28,46,075,44,29,24,056,43,31,66,048,48,,,,*4F
###2023-12-09 13:12:33.005507$GLGSV,2,1,06,65,28,326,41,71,35,174,45,72,72,250,46,73,31,045,44*6A
###2023-12-09 13:12:33.007637$GLGSV,2,2,06,74,67,351,43,75,36,258,47,,,,,,,,*6A
###2023-12-09 13:12:33.010443$GAGSV,1,1,04,04,33,312,42,19,81,194,41,21,84,070,46,27,29,048,43*69
###2023-12-09 13:12:33.013256$GBGSV,2,1,06,14,38,192,45,24,70,034,47,25,44,267,45,26,22,065,40*68
###2023-12-09 13:12:33.015381$GBGSV,2,2,06,33,54,227,48,35,15,065,40,,,,,,,,*62
###2023-12-09 13:12:33.016983$GNVTG,101.90,T,,M,3.46,N,6.41,K,A*28
###2023-12-09 13:12:33.018983$GNGST,181232.10,18.000,,,,0.097,0.071,0.170*5A
###2023-12-09 13:12:33.020566$GNZDA,181232.10,09,12,2023,00,00*7B
###2023-12-09 13:12:33.021339$GNEBP,,,,,,M*13
###2023-12-09 13:12:33.176736$GNGGA,181232.30,4138.0439115,N,07032.3052781,W,1,24,0.7,12.683,M,-29.744,M,0.0,*51
###2023-12-09 13:12:33.373988$GNGGA,181232.50,4138.0439275,N,07032.3050316,W,1,24,0.7,12.713,M,-29.744,M,0.0,*52
###2023-12-09 13:12:33.574167$GNGGA,181232.70,4138.0439302,N,07032.3047814,W,1,24,0.7,12.698,M,-29.744,M,0.0,*5C
###2023-12-09 13:12:33.774781$GNGGA,181232.90,4138.0439328,N,07032.3045419,W,1,24,0.7,12.694,M,-29.744,M,0.0,*55
###2023-12-09 13:12:33.978822$GNRMC,181233.10,A,4138.0439441,N,07032.3042919,W,3.42,86.92,091223,,,A*61
###2023-12-09 13:12:33.982294$GNGGA,181233.10,4138.0439441,N,07032.3042919,W,1,24,0.7,12.710,M,-29.744,M,0.0,*53
###2023-12-09 13:12:33.984466$GPGSA,A,3,03,04,16,26,28,29,31,,,,,,1.2,0.7,1.0*30
###2023-12-09 13:12:33.986532$GLGSA,A,3,65,71,72,73,74,75,,,,,,,1.2,0.7,1.0*2E
###2023-12-09 13:12:33.988456$GAGSA,A,3,04,19,21,27,,,,,,,,,1.2,0.7,1.0*2C
###2023-12-09 13:12:33.990517$GBGSA,A,3,14,24,25,26,33,35,,,,,,,1.2,0.7,1.0*23
###2023-12-09 13:12:33.993344$GPGSV,2,1,07,03,33,256,45,04,37,311,44,16,55,215,48,26,85,210,49*77
###2023-12-09 13:12:33.995816$GPGSV,2,2,07,28,46,075,43,29,24,056,42,31,66,048,47,,,,*46
###2023-12-09 13:12:33.998642$GLGSV,2,1,06,65,28,326,40,71,35,174,45,72,72,250,46,73,31,045,43*6C
###2023-12-09 13:12:34.000746$GLGSV,2,2,06,74,67,351,42,75,36,258,48,,,,,,,,*64
###2023-12-09 13:12:34.003564$GAGSV,1,1,04,04,33,312,42,19,81,194,41,21,84,070,46,27,29,048,42*68
###2023-12-09 13:12:34.006369$GBGSV,2,1,06,14,38,192,45,24,70,034,48,25,44,267,46,26,22,065,40*64
###2023-12-09 13:12:34.008489$GBGSV,2,2,06,33,54,227,48,35,15,065,41,,,,,,,,*63
###2023-12-09 13:12:34.010048$GNVTG,86.92,T,,M,3.42,N,6.34,K,A*12
###2023-12-09 13:12:34.012033$GNGST,181233.10,18.000,,,,0.097,0.071,0.170*5B
###2023-12-09 13:12:34.013620$GNZDA,181233.10,09,12,2023,00,00*7A
###2023-12-09 13:12:34.014388$GNEBP,,,,,,M*13
###2023-12-09 13:12:34.173152$GNGGA,181233.30,4138.0439484,N,07032.3040391,W,1,24,0.7,12.698,M,-29.744,M,0.0,*51
###2023-12-09 13:12:34.374230$GNGGA,181233.50,4138.0439332,N,07032.3037857,W,1,24,0.7,12.695,M,-29.744,M,0.0,*51
###2023-12-09 13:12:34.575619$GNGGA,181233.70,4138.0439031,N,07032.3035385,W,1,24,0.7,12.700,M,-29.744,M,0.0,*58
###2023-12-09 13:12:34.774677$GNGGA,181233.90,4138.0438878,N,07032.3032858,W,1,24,0.7,12.710,M,-29.744,M,0.0,*5F
###2023-12-09 13:12:34.979053$GNRMC,181234.10,A,4138.0438551,N,07032.3030284,W,3.52,104.31,091223,,,A*5E
###2023-12-09 13:12:34.981899$GNGGA,181234.10,4138.0438551,N,07032.3030284,W,1,24,0.7,12.695,M,-29.744,M,0.0,*53
###2023-12-09 13:12:34.983701$GPGSA,A,3,03,04,16,26,28,29,31,,,,,,1.2,0.7,1.0*30
###2023-12-09 13:12:34.985408$GLGSA,A,3,65,71,72,73,74,75,,,,,,,1.2,0.7,1.0*2E
###2023-12-09 13:12:34.987001$GAGSA,A,3,04,19,21,27,,,,,,,,,1.2,0.7,1.0*2C
###2023-12-09 13:12:34.988700$GBGSA,A,3,14,24,25,26,33,35,,,,,,,1.2,0.7,1.0*23
###2023-12-09 13:12:34.991025$GPGSV,2,1,07,03,33,256,45,04,37,311,44,16,55,215,48,26,85,210,49*77
###2023-12-09 13:12:34.993049$GPGSV,2,2,07,28,46,075,45,29,24,056,44,31,66,048,47,,,,*46
###2023-12-09 13:12:34.995379$GLGSV,2,1,06,65,28,326,40,71,35,174,45,72,72,250,46,73,31,045,43*6C
###2023-12-09 13:12:34.997121$GLGSV,2,2,06,74,67,351,43,75,36,258,47,,,,,,,,*6A
###2023-12-09 13:12:34.999461$GAGSV,1,1,04,04,33,312,42,19,81,194,41,21,84,070,46,27,29,048,42*68
###2023-12-09 13:12:35.001848$GBGSV,2,1,06,14,38,192,44,24,70,034,48,25,44,267,45,26,22,065,41*67
###2023-12-09 13:12:35.003626$GBGSV,2,2,06,33,54,227,47,35,15,065,41,,,,,,,,*6C
###2023-12-09 13:12:35.004954$GNVTG,104.31,T,,M,3.52,N,6.52,K,A*21
###2023-12-09 13:12:35.006610$GNGST,181234.10,18.000,,,,0.097,0.071,0.170*5C
###2023-12-09 13:12:35.007904$GNZDA,181234.10,09,12,2023,00,00*7D
###2023-12-09 13:12:35.008546$GNEBP,,,,,,M*13
###2023-12-09 13:12:35.173048$GNGGA,181234.30,4138.0438173,N,07032.3027835,W,1,24,0.7,12.682,M,-29.744,M,0.0,*55
###2023-12-09 13:12:35.373248$GNGGA,181234.50,4138.0437951,N,07032.3025254,W,1,24,0.7,12.713,M,-29.743,M,0.0,*55
###2023-12-09 13:12:35.575970$GNGGA,181234.70,4138.0437632,N,07032.3022615,W,1,24,0.7,12.706,M,-29.743,M,0.0,*5F
###2023-12-09 13:12:35.774631$GNGGA,181234.90,4138.0437310,N,07032.3019992,W,1,24,0.7,12.696,M,-29.743,M,0.0,*54
###2023-12-09 13:12:35.979484$GNRMC,181235.10,A,4138.0437058,N,07032.3017350,W,3.65,94.56,091223,,,A*6C
###2023-12-09 13:12:35.982337$GNGGA,181235.10,4138.0437058,N,07032.3017350,W,1,24,0.7,12.705,M,-29.743,M,0.0,*53
###2023-12-09 13:12:35.984152$GPGSA,A,3,03,04,16,26,28,29,31,,,,,,1.2,0.7,1.0*30
###2023-12-09 13:12:35.985876$GLGSA,A,3,65,71,72,73,74,75,,,,,,,1.2,0.7,1.0*2E
###2023-12-09 13:12:35.987473$GAGSA,A,3,04,19,21,27,,,,,,,,,1.2,0.7,1.0*2C
