###2023-12-09 12:53:27.986439$GNVTG,301.08,T,,M,0.08,N,0.14,K,A*24
###2023-12-09 12:53:27.988139$GNGST,175327.10,18.000,,,,0.074,0.065,0.150*5E
###2023-12-09 12:53:27.989435$GNZDA,175327.10,09,12,2023,00,00*75
###2023-12-09 12:53:27.990075$GNEBP,,,,,,M*13
###2023-12-09 12:53:28.153569$GNGGA,175327.30,4138.0584513,N,07032.3874479,W,1,24,0.6,13.397,M,-29.744,M,0.0,*52
###2023-12-09 12:53:28.354954$GNGGA,175327.50,4138.0584582,N,07032.3874661,W,1,24,0.6,13.389,M,-29.744,M,0.0,*58
###2023-12-09 12:53:28.555254$GNGGA,175327.70,4138.0584889,N,07032.3875293,W,1,24,0.6,13.417,M,-29.744,M,0.0,*54
###2023-12-09 12:53:28.754222$GNGGA,175327.90,4138.0585138,N,07032.3875817,W,1,24,0.6,13.421,M,-29.744,M,0.0,*5B
###2023-12-09 12:53:28.955713$GNRMC,175328.10,A,4138.0585115,N,07032.3875799,W,0.37,303.16,091223,,,A*5A
###2023-12-09 12:53:28.958585$GNGGA,175328.10,4138.0585115,N,07032.3875799,W,1,24,0.6,13.416,M,-29.744,M,0.0,*5E
###2023-12-09 12:53:28.960449$GPGSA,A,3,03,04,16,26,28,29,31,32,,,,,1.1,0.6,0.9*3B
###2023-12-09 12:53:28.962160$GLGSA,A,3,65,71,72,73,74,75,,,,,,,1.1,0.6,0.9*24
###2023-12-09 12:53:28.963754$GAGSA,A,3,04,19,21,27,,,,,,,,,1.1,0.6,0.9*26
###2023-12-09 12:53:28.965397$GBGSA,A,3,14,24,25,26,33,,,,,,,,1.1,0.6,0.9*2F
###2023-12-09 12:53:28.967730$GPGSV,2,1,08,03,36,266,44,04,29,311,44,16,46,211,43,26,75,209,47*74
###2023-12-09 12:53:28.970056$GPGSV,2,2,08,28,52,066,45,29,26,065,43,31,71,026,48,32,23,138,43*77
###2023-12-09 12:53:28.972392$GLGSV,2,1,06,65,20,328,44,71,45,172,46,72,72,285,46,73,39,039,48*6C
###2023-12-09 12:53:28.974132$GLGSV,2,2,06,74,71,324,43,75,29,249,43,,,,,,,,*65
###2023-12-09 12:53:28.976455$GAGSV,1,1,04,04,26,312,43,19,85,252,40,21,84,154,46,27,36,048,45*6F
###2023-12-09 12:53:28.978784$GBGSV,2,1,05,14,47,194,44,24,76,016,49,25,38,259,46,26,29,061,44*62
###2023-12-09 12:53:28.980229$GBGSV,2,2,05,33,60,238,47,,,,,,,,,,,,*52
###2023-12-09 12:53:28.981548$GNVTG,303.16,T,,M,0.37,N,0.68,K,A*2E
###2023-12-09 12:53:28.983226$GNGST,175328.10,18.000,,,,0.075,0.066,0.150*53
###2023-12-09 12:53:28.984519$GNZDA,175328.10,09,12,2023,00,00*7A
###2023-12-09 12:53:28.985155$GNEBP,,,,,,M*13
###2023-12-09 12:53:29.153504$GNGGA,175328.30,4138.0585033,N,07032.3875657,W,1,24,0.6,13.389,M,-29.744,M,0.0,*5B
###2023-12-09 12:53:29.354375$GNGGA,175328.50,4138.0585207,N,07032.3876039,W,1,24,0.6,13.388,M,-29.744,M,0.0,*54
###2023-12-09 12:53:29.554950$GNGGA,175328.70,4138.0585534,N,07032.3876743,W,1,24,0.6,13.403,M,-29.744,M,0.0,*5F
###2023-12-09 12:53:29.754188$GNGGA,175328.90,4138.0585706,N,07032.3877097,W,1,24,0.6,13.404,M,-29.744,M,0.0,*5A
###2023-12-09 12:53:29.955812$GNRMC,175329.10,A,4138.0585640,N,07032.3877020,W,0.33,301.56,091223,,,A*59
###2023-12-09 12:53:29.958700$GNGGA,175329.10,4138.0585640,N,07032.3877020,W,1,24,0.6,13.410,M,-29.744,M,0.0,*59
###2023-12-09 12:53:29.960561$GPGSA,A,3,03,04,16,26,28,29,31,32,,,,,1.1,0.6,0.9*3B
###2023-12-09 12:53:29.962284$GLGSA,A,3,65,71,72,73,74,75,,,,,,,1.1,0.6,0.9*24
###2023-12-09 12:53:29.963897$GAGSA,A,3,04,19,21,27,,,,,,,,,1.1,0.6,0.9*26
###2023-12-09 12:53:29.965552$GBGSA,A,3,14,24,25,26,33,,,,,,,,1.1,0.6,0.9*2F
###2023-12-09 12:53:29.967905$GPGSV,2,1,08,03,36,266,43,04,29,311,43,16,46,211,43,26,75,209,47*74
###2023-12-09 12:53:29.970249$GPGSV,2,2,08,28,52,066,43,29,26,065,42,31,71,026,48,32,23,138,43*70
###2023-12-09 12:53:29.972606$GLGSV,2,1,06,65,20,328,43,71,45,172,47,72,72,285,46,73,39,039,48*6A
###2023-12-09 12:53:29.974367$GLGSV,2,2,06,74,71,324,43,75,29,249,43,,,,,,,,*65
###2023-12-09 12:53:29.976725$GAGSV,1,1,04,04,26,312,42,19,85,252,40,21,84,154,46,27,36,048,45*6E
###2023-12-09 12:53:29.979071$GBGSV,2,1,05,14,47,194,44,24,76,016,48,25,38,259,44,26,29,061,43*66
###2023-12-09 12:53:29.980526$GBGSV,2,2,05,33,60,238,47,,,,,,,,,,,,*52
###2023-12-09 12:53:29.981849$GNVTG,301.56,T,,M,0.33,N,0.61,K,A*25
###2023-12-09 12:53:29.983501$GNGST,175329.10,18.000,,,,0.075,0.066,0.150*52
###2023-12-09 12:53:29.984795$GNZDA,175329.10,09,12,2023,00,00*7B
###2023-12-09 12:53:29.985433$GNEBP,,,,,,M*13
###2023-12-09 12:53:30.154299$GNGGA,175329.30,4138.0585611,N,07032.3877023,W,1,24,0.6,13.386,M,-29.744,M,0.0,*54
###2023-12-09 12:53:30.355173$GNGGA,175329.50,4138.0585813,N,07032.3877455,W,1,24,0.6,13.391,M,-29.744,M,0.0,*5D
###2023-12-09 12:53:30.554144$GNGGA,175329.70,4138.0586088,N,07032.3878033,W,1,24,0.6,13.400,M,-29.744,M,0.0,*52
###2023-12-09 12:53:30.754216$GNGGA,175329.90,4138.0586197,N,07032.3878321,W,1,24,0.6,13.408,M,-29.744,M,0.0,*5B
###2023-12-09 12:53:30.954805$GNRMC,175330.10,A,4138.0586166,N,07032.3878313,W,0.14,301.56,091223,,,A*58
###2023-12-09 12:53:30.957648$GNGGA,175330.10,4138.0586166,N,07032.3878313,W,1,24,0.6,13.407,M,-29.744,M,0.0,*5B
###2023-12-09 12:53:30.959518$GPGSA,A,3,03,04,16,26,28,29,31,32,,,,,1.1,0.6,0.9*3B
###2023-12-09 12:53:30.961226$GLGSA,A,3,65,71,72,73,74,75,,,,,,,1.1,0.6,0.9*24
###2023-12-09 12:53:30.962814$GAGSA,A,3,04,19,21,27,,,,,,,,,1.1,0.6,0.9*26
###2023-12-09 12:53:30.964451$GBGSA,A,3,14,24,25,26,33,,,,,,,,1.1,0.6,0.9*2F
###2023-12-09 12:53:30.966822$GPGSV,2,1,08,03,36,266,44,04,29,311,42,16,46,211,43,26,75,209,47*72
###2023-12-09 12:53:30.969149$GPGSV,2,2,08,28,52,066,44,29,26,065,42,31,71,026,47,32,23,138,43*78
###2023-12-09 12:53:30.971489$GLGSV,2,1,06,65,20,328,42,71,45,172,47,72,72,285,46,73,39,039,47*64
###2023-12-09 12:53:30.973234$GLGSV,2,2,06,74,71,324,43,75,29,249,44,,,,,,,,*62
###2023-12-09 12:53:30.975567$GAGSV,1,1,04,04,26,312,42,19,85,252,40,21,84,154,46,27,36,048,45*6E
###2023-12-09 12:53:30.977900$GBGSV,2,1,05,14,47,194,45,24,76,016,49,25,38,259,46,26,29,061,44*63
###2023-12-09 12:53:30.979369$GBGSV,2,2,05,33,60,238,48,,,,,,,,,,,,*5D
###2023-12-09 12:53:30.980690$GNVTG,301.56,T,,M,0.14,N,0.25,K,A*20
###2023-12-09 12:53:30.982336$GNGST,175330.10,18.000,,,,0.075,0.066,0.150*5A
###2023-12-09 12:53:30.983638$GNZDA,175330.10,09,12,2023,00,00*73
###2023-12-09 12:53:30.984276$GNEBP,,,,,,M*13
###2023-12-09 12:53:31.153408$GNGGA,175330.30,4138.0586162,N,07032.3878359,W,1,24,0.6,13.382,M,-29.744,M,0.0,*59
###2023-12-09 12:53:31.354839$GNGGA,175330.50,4138.0586304,N,07032.3878721,W,1,24,0.6,13.382,M,-29.744,M,0.0,*56
###2023-12-09 12:53:31.555244$GNGGA,175330.70,4138.0586563,N,07032.3879256,W,1,24,0.6,13.402,M,-29.744,M,0.0,*58
###2023-12-09 12:53:31.754167$GNGGA,175330.90,4138.0586718,N,07032.3879594,W,1,24,0.6,13.404,M,-29.744,M,0.0,*57
###2023-12-09 12:53:31.955733$GNRMC,175331.10,A,4138.0586686,N,07032.3879588,W,0.17,301.56,091223,,,A*56
###2023-12-09 12:53:31.958631$GNGGA,175331.10,4138.0586686,N,07032.3879588,W,1,24,0.6,13.404,M,-29.744,M,0.0,*55
###2023-12-09 12:53:31.960502$GPGSA,A,3,03,04,16,26,28,29,31,32,,,,,1.1,0.6,0.9*3B
###2023-12-09 12:53:31.962233$GLGSA,A,3,65,71,72,73,74,75,,,,,,,1.1,0.6,0.9*24
###2023-12-09 12:53:31.963854$GAGSA,A,3,04,19,21,27,,,,,,,,,1.1,0.6,0.9*26
###2023-12-09 12:53:31.965507$GBGSA,A,3,14,24,25,26,33,,,,,,,,1.1,0.6,0.9*2F
###2023-12-09 12:53:31.967862$GPGSV,2,1,08,03,36,266,43,04,29,311,40,16,46,211,43,26,75,209,45*75
###2023-12-09 12:53:31.970200$GPGSV,2,2,08,28,52,066,43,29,26,065,41,31,71,026,46,32,23,138,42*7C
###2023-12-09 12:53:31.972571$GLGSV,2,1,06,65,20,328,42,71,45,172,47,72,72,285,46,73,39,039,48*6B
###2023-12-09 12:53:31.974317$GLGSV,2,2,06,74,71,324,43,75,29,249,43,,,,,,,,*65
###2023-12-09 12:53:31.976655$GAGSV,1,1,04,04,26,312,40,19,85,252,39,21,84,154,44,27,36,048,44*61
###2023-12-09 12:53:31.979003$GBGSV,2,1,05,14,47,194,44,24,76,016,48,25,38,259,45,26,29,061,43*67
###2023-12-09 12:53:31.980457$GBGSV,2,2,05,33,60,238,46,,,,,,,,,,,,*53
###2023-12-09 12:53:31.981780$GNVTG,301.56,T,,M,0.17,N,0.32,K,A*25
###2023-12-09 12:53:31.983440$GNGST,175331.10,18.000,,,,0.075,0.066,0.160*58
###2023-12-09 12:53:31.984731$GNZDA,175331.10,09,12,2023,00,00*72
###2023-12-09 12:53:31.985370$GNEBP,,,,,,M*13
###2023-12-09 12:53:32.154335$GNGGA,175331.30,4138.0586668,N,07032.3879646,W,1,24,0.6,13.390,M,-29.744,M,0.0,*5C
###2023-12-09 12:53:32.353811$GNGGA,175331.50,4138.0586847,N,07032.3880054,W,1,24,0.6,13.398,M,-29.744,M,0.0,*52
###2023-12-09 12:53:32.554490$GNGGA,175331.70,4138.0587086,N,07032.3880544,W,1,24,0.6,13.407,M,-29.744,M,0.0,*51
###2023-12-09 12:53:32.753149$GNGGA,175331.90,4138.0587207,N,07032.3880817,W,1,24,0.6,13.411,M,-29.744,M,0.0,*58
###2023-12-09 12:53:32.959816$GNRMC,175332.10,A,4138.0587199,N,07032.3880884,W,0.10,301.56,091223,,,A*5D
###2023-12-09 12:53:32.962708$GNGGA,175332.10,4138.0587199,N,07032.3880884,W,1,24,0.6,13.417,M,-29.744,M,0.0,*5B
###2023-12-09 12:53:32.964573$GPGSA,A,3,03,04,16,26,28,29,31,32,,,,,1.1,0.6,0.9*3B
###2023-12-09 12:53:32.966290$GLGSA,A,3,65,71,72,73,74,75,,,,,,,1.1,0.6,0.9*24
###2023-12-09 12:53:32.967887$GAGSA,A,3,04,19,21,27,,,,,,,,,1.1,0.6,0.9*26
###2023-12-09 12:53:32.969536$GBGSA,A,3,14,24,25,26,33,,,,,,,,1.1,0.6,0.9*2F
###2023-12-09 12:53:32.971876$GPGSV,2,1,08,03,36,266,43,04,29,311,42,16,46,211,43,26,75,209,46*74
###2023-12-09 12:53:32.974208$GPGSV,2,2,08,28,52,066,43,29,26,065,42,31,71,026,46,32,23,138,43*7E
