###2023-12-09 13:46:23.021442$GPGSV,2,1,06,04,51,304,46,16,72,228,42,26,78,041,40,28,34,089,46*71
###2023-12-09 13:46:23.023238$GPGSV,2,2,06,29,18,043,43,31,56,073,49,,,,,,,,*75
###2023-12-09 13:46:23.025572$GLGSV,2,1,05,65,42,313,44,72,57,214,39,73,18,056,41,75,47,279,45*6A
###2023-12-09 13:46:23.027048$GLGSV,2,2,05,83,16,042,35,,,,,,,,,,,,*5C
###2023-12-09 13:46:23.029069$GAGSV,1,1,03,04,43,308,45,21,72,043,41,27,19,051,43,,,,*58
###2023-12-09 13:46:23.031407$GBGSV,2,1,05,12,19,122,42,24,59,051,47,25,54,281,41,33,41,214,38*6D
###2023-12-09 13:46:23.032859$GBGSV,2,2,05,35,16,052,38,,,,,,,,,,,,*53
###2023-12-09 13:46:23.034176$GNVTG,243.17,T,,M,0.06,N,0.11,K,A*26
###2023-12-09 13:46:23.035794$GNGST,184622.10,6.600,,,,0.190,0.120,0.310*64
###2023-12-09 13:46:23.037076$GNZDA,184622.10,09,12,2023,00,00*7B
###2023-12-09 13:46:23.037712$GNEBP,,,,,,M*13
###2023-12-09 13:46:23.207115$GNGGA,184622.30,4138.0395083,N,07032.4387815,W,1,19,0.7,15.542,M,-29.746,M,0.0,*55
###2023-12-09 13:46:23.405979$GNGGA,184622.50,4138.0395091,N,07032.4387818,W,1,19,0.7,15.546,M,-29.746,M,0.0,*59
###2023-12-09 13:46:23.606441$GNGGA,184622.70,4138.0395084,N,07032.4387808,W,1,19,0.7,15.549,M,-29.746,M,0.0,*51
###2023-12-09 13:46:23.806425$GNGGA,184622.90,4138.0395087,N,07032.4387796,W,1,19,0.7,15.553,M,-29.746,M,0.0,*5F
###2023-12-09 13:46:24.009615$GNRMC,184623.10,A,4138.0395075,N,07032.4387784,W,0.06,243.17,091223,,,A*51
###2023-12-09 13:46:24.012492$GNGGA,184623.10,4138.0395075,N,07032.4387784,W,1,20,0.7,15.559,M,-29.746,M,0.0,*58
###2023-12-09 13:46:24.014219$GPGSA,A,3,04,16,26,28,29,31,,,,,,,1.3,0.7,1.1*33
###2023-12-09 13:46:24.015943$GLGSA,A,3,65,72,73,74,75,83,,,,,,,1.3,0.7,1.1*23
###2023-12-09 13:46:24.017459$GAGSA,A,3,04,21,27,,,,,,,,,,1.3,0.7,1.1*24
###2023-12-09 13:46:24.019123$GBGSA,A,3,12,24,25,33,35,,,,,,,,1.3,0.7,1.1*21
###2023-12-09 13:46:24.021447$GPGSV,2,1,06,04,51,304,46,16,72,228,42,26,78,041,39,28,34,089,47*7E
###2023-12-09 13:46:24.023195$GPGSV,2,2,06,29,18,043,43,31,56,073,49,,,,,,,,*75
###2023-12-09 13:46:24.025516$GLGSV,2,1,06,65,42,313,44,72,57,214,38,73,18,056,41,74,56,022,35*62
###2023-12-09 13:46:24.027273$GLGSV,2,2,06,75,47,279,45,83,16,042,36,,,,,,,,*60
###2023-12-09 13:46:24.029304$GAGSV,1,1,03,04,43,308,45,21,72,043,41,27,19,051,43,,,,*58
###2023-12-09 13:46:24.031633$GBGSV,2,1,05,12,19,122,42,24,59,051,47,25,54,281,41,33,41,214,38*6D
###2023-12-09 13:46:24.033088$GBGSV,2,2,05,35,16,052,38,,,,,,,,,,,,*53
###2023-12-09 13:46:24.034405$GNVTG,243.17,T,,M,0.06,N,0.11,K,A*26
###2023-12-09 13:46:24.036031$GNGST,184623.10,6.900,,,,0.190,0.120,0.310*6A
###2023-12-09 13:46:24.037323$GNZDA,184623.10,09,12,2023,00,00*7A
###2023-12-09 13:46:24.037966$GNEBP,,,,,,M*13
###2023-12-09 13:46:24.207702$GNGGA,184623.30,4138.0395068,N,07032.4387778,W,1,20,0.7,15.559,M,-29.746,M,0.0,*55
###2023-12-09 13:46:24.405591$GNGGA,184623.50,4138.0395078,N,07032.4387773,W,1,19,0.7,15.565,M,-29.746,M,0.0,*5C
###2023-12-09 13:46:24.605275$GNGGA,184623.70,4138.0395083,N,07032.4387772,W,1,19,0.7,15.562,M,-29.746,M,0.0,*5C
###2023-12-09 13:46:24.807039$GNGGA,184623.90,4138.0395084,N,07032.4387772,W,1,20,0.7,15.560,M,-29.746,M,0.0,*5D
###2023-12-09 13:46:25.009786$GNRMC,184624.10,A,4138.0395081,N,07032.4387754,W,0.02,243.17,091223,,,A*54
###2023-12-09 13:46:25.012655$GNGGA,184624.10,4138.0395081,N,07032.4387754,W,1,19,0.7,15.563,M,-29.746,M,0.0,*5A
###2023-12-09 13:46:25.014374$GPGSA,A,3,04,16,26,28,29,31,,,,,,,1.3,0.7,1.1*33
###2023-12-09 13:46:25.016017$GLGSA,A,3,65,72,73,75,83,,,,,,,,1.3,0.7,1.1*20
###2023-12-09 13:46:25.017524$GAGSA,A,3,04,21,27,,,,,,,,,,1.3,0.7,1.1*24
###2023-12-09 13:46:25.019171$GBGSA,A,3,12,24,25,33,35,,,,,,,,1.3,0.7,1.1*21
###2023-12-09 13:46:25.021485$GPGSV,2,1,06,04,51,304,46,16,72,228,42,26,78,041,39,28,34,089,46*7F
###2023-12-09 13:46:25.023233$GPGSV,2,2,06,29,18,043,43,31,56,073,50,,,,,,,,*7D
###2023-12-09 13:46:25.025544$GLGSV,2,1,05,65,42,313,44,72,57,214,38,73,18,056,40,75,47,279,45*6A
###2023-12-09 13:46:25.027003$GLGSV,2,2,05,83,16,042,36,,,,,,,,,,,,*5F
###2023-12-09 13:46:25.029025$GAGSV,1,1,03,04,43,308,45,21,72,043,41,27,19,051,43,,,,*58
###2023-12-09 13:46:25.031352$GBGSV,2,1,05,12,19,122,42,24,59,051,48,25,54,281,41,33,41,214,38*62
###2023-12-09 13:46:25.032803$GBGSV,2,2,05,35,16,052,38,,,,,,,,,,,,*53
###2023-12-09 13:46:25.034117$GNVTG,243.17,T,,M,0.02,N,0.04,K,A*26
###2023-12-09 13:46:25.035734$GNGST,184624.10,6.700,,,,0.190,0.120,0.310*63
###2023-12-09 13:46:25.037019$GNZDA,184624.10,09,12,2023,00,00*7D
###2023-12-09 13:46:25.037655$GNEBP,,,,,,M*13
###2023-12-09 13:46:25.207481$GNGGA,184624.30,4138.0395070,N,07032.4387755,W,1,19,0.7,15.559,M,-29.746,M,0.0,*5E
###2023-12-09 13:46:25.408260$GNGGA,184624.50,4138.0395075,N,07032.4387746,W,1,19,0.7,15.557,M,-29.746,M,0.0,*51
###2023-12-09 13:46:25.605814$GNGGA,184624.70,4138.0395079,N,07032.4387742,W,1,20,0.7,15.558,M,-29.746,M,0.0,*5E
###2023-12-09 13:46:25.805694$GNGGA,184624.90,4138.0395073,N,07032.4387738,W,1,20,0.7,15.554,M,-29.746,M,0.0,*5B
###2023-12-09 13:46:26.009786$GNRMC,184625.10,A,4138.0395083,N,07032.4387724,W,0.02,243.17,091223,,,A*50
###2023-12-09 13:46:26.012657$GNGGA,184625.10,4138.0395083,N,07032.4387724,W,1,20,0.7,15.556,M,-29.746,M,0.0,*52
###2023-12-09 13:46:26.014382$GPGSA,A,3,04,16,26,28,29,31,,,,,,,1.3,0.7,1.1*33
###2023-12-09 13:46:26.016107$GLGSA,A,3,65,72,73,74,75,83,,,,,,,1.3,0.7,1.1*23
###2023-12-09 13:46:26.017620$GAGSA,A,3,04,21,27,,,,,,,,,,1.3,0.7,1.1*24
###2023-12-09 13:46:26.019272$GBGSA,A,3,12,24,25,33,35,,,,,,,,1.3,0.7,1.1*21
###2023-12-09 13:46:26.021593$GPGSV,2,1,06,04,51,304,46,16,72,228,42,26,78,041,39,28,34,089,46*7F
###2023-12-09 13:46:26.023343$GPGSV,2,2,06,29,18,043,43,31,56,073,50,,,,,,,,*7D
###2023-12-09 13:46:26.025657$GLGSV,2,1,06,65,42,313,44,72,57,214,39,73,18,056,40,74,56,022,35*62
###2023-12-09 13:46:26.027401$GLGSV,2,2,06,75,47,279,45,83,16,042,35,,,,,,,,*63
###2023-12-09 13:46:26.029430$GAGSV,1,1,03,04,43,308,45,21,72,043,40,27,19,051,43,,,,*59
###2023-12-09 13:46:26.031765$GBGSV,2,1,05,12,19,122,42,24,59,051,48,25,54,281,41,33,41,214,38*62
###2023-12-09 13:46:26.033212$GBGSV,2,2,05,35,16,052,38,,,,,,,,,,,,*53
###2023-12-09 13:46:26.034527$GNVTG,243.17,T,,M,0.02,N,0.04,K,A*26
###2023-12-09 13:46:26.036155$GNGST,184625.10,7.200,,,,0.190,0.120,0.310*66
###2023-12-09 13:46:26.037441$GNZDA,184625.10,09,12,2023,00,00*7C
###2023-12-09 13:46:26.038075$GNEBP,,,,,,M*13
###2023-12-09 13:46:26.207192$GNGGA,184625.30,4138.0395095,N,07032.4387713,W,1,20,0.7,15.556,M,-29.746,M,0.0,*53
###2023-12-09 13:46:26.407093$GNGGA,184625.50,4138.0395105,N,07032.4387701,W,1,20,0.7,15.554,M,-29.746,M,0.0,*5C
###2023-12-09 13:46:26.606299$GNGGA,184625.70,4138.0395111,N,07032.4387697,W,1,20,0.7,15.551,M,-29.746,M,0.0,*50
###2023-12-09 13:46:26.806397$GNGGA,184625.90,4138.0395107,N,07032.4387688,W,1,20,0.7,15.549,M,-29.746,M,0.0,*5E
###2023-12-09 13:46:27.009101$GNRMC,184626.10,A,4138.0395103,N,07032.4387677,W,0.04,243.17,091223,,,A*5B
###2023-12-09 13:46:27.011972$GNGGA,184626.10,4138.0395103,N,07032.4387677,W,1,20,0.7,15.549,M,-29.746,M,0.0,*51
###2023-12-09 13:46:27.013691$GPGSA,A,3,04,16,26,28,29,31,,,,,,,1.3,0.7,1.1*33
###2023-12-09 13:46:27.015414$GLGSA,A,3,65,72,73,74,75,83,,,,,,,1.3,0.7,1.1*23
###2023-12-09 13:46:27.016928$GAGSA,A,3,04,21,27,,,,,,,,,,1.3,0.7,1.1*24
###2023-12-09 13:46:27.018574$GBGSA,A,3,12,24,25,33,35,,,,,,,,1.3,0.7,1.1*21
###2023-12-09 13:46:27.020904$GPGSV,2,1,06,04,51,304,46,16,72,228,42,26,78,041,39,28,34,089,46*7F
###2023-12-09 13:46:27.022661$GPGSV,2,2,06,29,18,043,42,31,56,073,50,,,,,,,,*7C
###2023-12-09 13:46:27.024983$GLGSV,2,1,06,65,42,313,44,72,57,214,39,73,18,056,40,74,56,022,35*62
###2023-12-09 13:46:27.026742$GLGSV,2,2,06,75,47,279,45,83,16,042,36,,,,,,,,*60
###2023-12-09 13:46:27.028779$GAGSV,1,1,03,04,43,308,45,21,72,043,40,27,19,051,43,,,,*59
###2023-12-09 13:46:27.031116$GBGSV,2,1,05,12,19,122,42,24,59,051,48,25,54,281,41,33,41,214,38*62
###2023-12-09 13:46:27.032572$GBGSV,2,2,05,35,16,052,37,,,,,,,,,,,,*5C
###2023-12-09 13:46:27.033893$GNVTG,243.17,T,,M,0.04,N,0.07,K,A*23
###2023-12-09 13:46:27.035511$GNGST,184626.10,7.100,,,,0.190,0.120,0.310*66
###2023-12-09 13:46:27.037053$GNZDA,184626.10,09,12,2023,00,00*7F
###2023-12-09 13:46:27.037705$GNEBP,,,,,,M*13
###2023-12-09 13:46:27.212319$GNGGA,184626.30,4138.0395105,N,07032.4387664,W,1,20,0.7,15.552,M,-29.746,M,0.0,*5D
###2023-12-09 13:46:27.406976$GNGGA,184626.50,4138.0395100,N,07032.4387652,W,1,19,0.7,15.549,M,-29.746,M,0.0,*5B
###2023-12-09 13:46:27.606321$GNGGA,184626.70,4138.0395114,N,07032.4387634,W,1,20,0.7,15.552,M,-29.746,M,0.0,*5C
###2023-12-09 13:46:27.807003$GNGGA,184626.90,4138.0395123,N,07032.4387614,W,1,20,0.7,15.554,M,-29.746,M,0.0,*52
###2023-12-09 13:46:28.008795$GNRMC,184627.10,A,4138.0395126,N,07032.4387613,W,0.02,243.17,091223,,,A*59
