###2023-12-09 13:13:33.001667$GLGSV,2,1,06,65,29,325,44,71,34,174,45,72,71,246,45,73,31,045,45*6A
###2023-12-09 13:13:33.003463$GLGSV,2,2,06,74,66,353,43,75,36,259,46,,,,,,,,*69
###2023-12-09 13:13:33.005792$GAGSV,1,1,04,04,33,312,43,19,81,194,40,21,84,070,47,27,29,048,42*69
###2023-12-09 13:13:33.008139$GBGSV,2,1,06,14,38,192,42,24,70,034,48,25,44,267,45,26,22,065,43*63
###2023-12-09 13:13:33.009887$GBGSV,2,2,06,33,53,226,46,35,15,065,44,,,,,,,,*6E
###2023-12-09 13:13:33.011223$GNVTG,219.79,T,,M,3.32,N,6.16,K,A*24
###2023-12-09 13:13:33.012866$GNGST,181332.10,18.000,,,,0.097,0.071,0.170*5B
###2023-12-09 13:13:33.014155$GNZDA,181332.10,09,12,2023,00,00*7A
###2023-12-09 13:13:33.014816$GNEBP,,,,,,M*13
###2023-12-09 13:13:33.177049$GNGGA,181332.30,4138.0495059,N,07032.2632865,W,1,24,0.7,12.698,M,-29.743,M,0.0,*56
###2023-12-09 13:13:33.374056$GNGGA,181332.50,4138.0493556,N,07032.2634633,W,1,24,0.7,12.700,M,-29.743,M,0.0,*57
###2023-12-09 13:13:33.574676$GNGGA,181332.70,4138.0492046,N,07032.2636273,W,1,24,0.7,12.682,M,-29.743,M,0.0,*59
###2023-12-09 13:13:33.774801$GNGGA,181332.90,4138.0490628,N,07032.2638040,W,1,24,0.7,12.731,M,-29.743,M,0.0,*5E
###2023-12-09 13:13:33.979271$GNRMC,181333.10,A,4138.0489177,N,07032.2639917,W,3.63,219.20,091223,,,A*50
###2023-12-09 13:13:33.982122$GNGGA,181333.10,4138.0489177,N,07032.2639917,W,1,24,0.7,12.750,M,-29.743,M,0.0,*5F
###2023-12-09 13:13:33.983924$GPGSA,A,3,03,04,16,26,28,29,31,,,,,,1.2,0.7,1.0*30
###2023-12-09 13:13:33.985635$GLGSA,A,3,65,71,72,73,74,75,,,,,,,1.2,0.7,1.0*2E
###2023-12-09 13:13:33.987222$GAGSA,A,3,04,19,21,27,,,,,,,,,1.2,0.7,1.0*2C
###2023-12-09 13:13:33.988932$GBGSA,A,3,14,24,25,26,33,35,,,,,,,1.2,0.7,1.0*23
###2023-12-09 13:13:33.991270$GPGSV,2,1,07,03,32,255,42,04,38,311,46,16,56,215,46,26,86,209,48*78
###2023-12-09 13:13:33.993309$GPGSV,2,2,07,28,45,076,44,29,24,055,43,31,65,050,47,,,,*49
###2023-12-09 13:13:33.995640$GLGSV,2,1,06,65,29,325,45,71,34,174,45,72,71,246,46,73,31,045,45*68
###2023-12-09 13:13:33.997385$GLGSV,2,2,06,74,66,353,43,75,36,259,46,,,,,,,,*69
###2023-12-09 13:13:33.999720$GAGSV,1,1,04,04,33,312,45,19,81,194,39,21,84,070,46,27,29,048,42*60
###2023-12-09 13:13:34.002050$GBGSV,2,1,06,14,38,192,43,24,70,034,49,25,44,267,48,26,22,065,43*6E
###2023-12-09 13:13:34.003803$GBGSV,2,2,06,33,53,226,48,35,15,065,44,,,,,,,,*60
###2023-12-09 13:13:34.005123$GNVTG,219.20,T,,M,3.63,N,6.73,K,A*2F
###2023-12-09 13:13:34.006779$GNGST,181333.10,18.000,,,,0.097,0.071,0.170*5A
###2023-12-09 13:13:34.008067$GNZDA,181333.10,09,12,2023,00,00*7B
###2023-12-09 13:13:34.008704$GNEBP,,,,,,M*13
###2023-12-09 13:13:34.175554$GNGGA,181333.30,4138.0487497,N,07032.2641228,W,1,24,0.7,12.693,M,-29.743,M,0.0,*5E
###2023-12-09 13:13:34.375675$GNGGA,181333.50,4138.0485825,N,07032.2642466,W,1,24,0.7,12.684,M,-29.743,M,0.0,*56
###2023-12-09 13:13:34.575637$GNGGA,181333.70,4138.0484424,N,07032.2644421,W,1,24,0.7,12.742,M,-29.743,M,0.0,*56
###2023-12-09 13:13:34.775654$GNGGA,181333.90,4138.0482870,N,07032.2646141,W,1,24,0.7,12.730,M,-29.743,M,0.0,*57
###2023-12-09 13:13:34.978176$GNRMC,181334.10,A,4138.0481103,N,07032.2647106,W,3.15,203.09,091223,,,A*5C
###2023-12-09 13:13:34.981078$GNGGA,181334.10,4138.0481103,N,07032.2647106,W,1,24,0.7,12.690,M,-29.743,M,0.0,*5F
###2023-12-09 13:13:34.982888$GPGSA,A,3,03,04,16,26,28,29,31,,,,,,1.2,0.7,1.0*30
###2023-12-09 13:13:34.984612$GLGSA,A,3,65,71,72,73,74,75,,,,,,,1.2,0.7,1.0*2E
###2023-12-09 13:13:34.986192$GAGSA,A,3,04,19,21,27,,,,,,,,,1.2,0.7,1.0*2C
###2023-12-09 13:13:34.987918$GBGSA,A,3,14,24,25,26,33,35,,,,,,,1.2,0.7,1.0*23
###2023-12-09 13:13:34.990246$GPGSV,2,1,07,03,32,255,41,04,38,311,45,16,56,215,44,26,86,209,48*7A
###2023-12-09 13:13:34.992306$GPGSV,2,2,07,28,45,076,45,29,24,055,44,31,65,050,47,,,,*4F
###2023-12-09 13:13:34.994655$GLGSV,2,1,06,65,29,325,43,71,34,174,44,72,71,246,45,73,31,045,45*6C
###2023-12-09 13:13:34.996415$GLGSV,2,2,06,74,66,353,43,75,36,259,44,,,,,,,,*6B
###2023-12-09 13:13:34.998748$GAGSV,1,1,04,04,33,312,42,19,81,194,39,21,84,070,46,27,29,048,42*67
###2023-12-09 13:13:35.001084$GBGSV,2,1,06,14,38,192,42,24,70,034,49,25,44,267,46,26,22,065,45*67
###2023-12-09 13:13:35.002840$GBGSV,2,2,06,33,53,226,46,35,15,065,45,,,,,,,,*6F
###2023-12-09 13:13:35.004163$GNVTG,203.09,T,,M,3.15,N,5.83,K,A*22
###2023-12-09 13:13:35.005807$GNGST,181334.10,18.000,,,,0.097,0.071,0.170*5D
###2023-12-09 13:13:35.007138$GNZDA,181334.10,09,12,2023,00,00*7C
###2023-12-09 13:13:35.007777$GNEBP,,,,,,M*13
###2023-12-09 13:13:35.174326$GNGGA,181334.30,4138.0479509,N,07032.2648459,W,1,24,0.7,12.725,M,-29.743,M,0.0,*5B
###2023-12-09 13:13:35.375679$GNGGA,181334.50,4138.0478077,N,07032.2650527,W,1,24,0.7,12.750,M,-29.743,M,0.0,*53
###2023-12-09 13:13:35.575569$GNGGA,181334.70,4138.0476613,N,07032.2652226,W,1,24,0.7,12.731,M,-29.743,M,0.0,*58
###2023-12-09 13:13:35.775655$GNGGA,181334.90,4138.0474978,N,07032.2653455,W,1,24,0.7,12.742,M,-29.743,M,0.0,*51
###2023-12-09 13:13:35.977990$GNRMC,181335.10,A,4138.0473280,N,07032.2654798,W,3.44,217.64,091223,,,A*51
###2023-12-09 13:13:35.980903$GNGGA,181335.10,4138.0473280,N,07032.2654798,W,1,24,0.7,12.719,M,-29.743,M,0.0,*58
###2023-12-09 13:13:35.982714$GPGSA,A,3,03,04,16,26,28,29,31,,,,,,1.2,0.7,1.0*30
###2023-12-09 13:13:35.984424$GLGSA,A,3,65,71,72,73,74,75,,,,,,,1.2,0.7,1.0*2E
###2023-12-09 13:13:35.986011$GAGSA,A,3,04,19,21,27,,,,,,,,,1.2,0.7,1.0*2C
###2023-12-09 13:13:35.987740$GBGSA,A,3,14,24,25,26,33,35,,,,,,,1.2,0.7,1.0*23
###2023-12-09 13:13:35.990074$GPGSV,2,1,07,03,32,255,40,04,38,311,43,16,56,215,45,26,86,209,48*7C
###2023-12-09 13:13:35.992130$GPGSV,2,2,07,28,45,076,46,29,24,055,44,31,65,050,48,,,,*43
###2023-12-09 13:13:35.994465$GLGSV,2,1,06,65,29,325,40,71,34,174,45,72,71,246,45,73,31,045,45*6E
###2023-12-09 13:13:35.996216$GLGSV,2,2,06,74,66,353,43,75,36,259,43,,,,,,,,*6C
###2023-12-09 13:13:35.998541$GAGSV,1,1,04,04,33,312,41,19,81,194,40,21,84,070,45,27,29,048,42*69
###2023-12-09 13:13:36.000887$GBGSV,2,1,06,14,38,192,42,24,70,034,49,25,44,267,45,26,22,065,46*67
###2023-12-09 13:13:36.002658$GBGSV,2,2,06,33,53,226,46,35,15,065,45,,,,,,,,*6F
###2023-12-09 13:13:36.003988$GNVTG,217.64,T,,M,3.44,N,6.37,K,A*24
###2023-12-09 13:13:36.005641$GNGST,181335.10,18.000,,,,0.097,0.071,0.170*5C
###2023-12-09 13:13:36.006948$GNZDA,181335.10,09,12,2023,00,00*7D
###2023-12-09 13:13:36.007590$GNEBP,,,,,,M*13
###2023-12-09 13:13:36.175150$GNGGA,181335.30,4138.0471897,N,07032.2656681,W,1,24,0.7,12.735,M,-29.743,M,0.0,*51
###2023-12-09 13:13:36.375610$GNGGA,181335.50,4138.0470497,N,07032.2658650,W,1,24,0.7,12.773,M,-29.743,M,0.0,*5A
###2023-12-09 13:13:36.576879$GNGGA,181335.70,4138.0468845,N,07032.2660099,W,1,24,0.7,12.766,M,-29.743,M,0.0,*5E
###2023-12-09 13:13:36.776917$GNGGA,181335.90,4138.0467182,N,07032.2661439,W,1,24,0.7,12.764,M,-29.743,M,0.0,*50
###2023-12-09 13:13:36.978301$GNRMC,181336.10,A,4138.0465656,N,07032.2663239,W,3.65,224.61,091223,,,A*56
###2023-12-09 13:13:36.981195$GNGGA,181336.10,4138.0465656,N,07032.2663239,W,1,24,0.7,12.779,M,-29.743,M,0.0,*5F
###2023-12-09 13:13:36.983003$GPGSA,A,3,03,04,16,26,28,29,31,,,,,,1.2,0.7,1.0*30
###2023-12-09 13:13:36.984718$GLGSA,A,3,65,71,72,73,74,75,,,,,,,1.2,0.7,1.0*2E
###2023-12-09 13:13:36.986298$GAGSA,A,3,04,19,21,27,,,,,,,,,1.2,0.7,1.0*2C
###2023-12-09 13:13:36.988016$GBGSA,A,3,14,24,25,26,33,35,,,,,,,1.2,0.7,1.0*23
###2023-12-09 13:13:36.990342$GPGSV,2,1,07,03,32,255,41,04,38,311,43,16,56,215,45,26,86,209,47*72
###2023-12-09 13:13:36.992393$GPGSV,2,2,07,28,45,076,46,29,24,055,44,31,65,050,47,,,,*4C
###2023-12-09 13:13:36.994733$GLGSV,2,1,06,65,29,325,42,71,34,174,44,72,71,246,45,73,31,045,45*6D
###2023-12-09 13:13:36.996481$GLGSV,2,2,06,74,66,353,43,75,36,259,45,,,,,,,,*6A
###2023-12-09 13:13:36.998815$GAGSV,1,1,04,04,33,312,42,19,81,194,39,21,84,070,46,27,29,048,43*66
###2023-12-09 13:13:37.001129$GBGSV,2,1,06,14,38,192,40,24,70,034,48,25,44,267,43,26,22,065,43*67
###2023-12-09 13:13:37.002881$GBGSV,2,2,06,33,53,226,45,35,15,065,44,,,,,,,,*6D
###2023-12-09 13:13:37.004201$GNVTG,224.61,T,,M,3.65,N,6.77,K,A*26
###2023-12-09 13:13:37.005837$GNGST,181336.10,18.000,,,,0.097,0.071,0.170*5F
###2023-12-09 13:13:37.007394$GNZDA,181336.10,09,12,2023,00,00*7E
###2023-12-09 13:13:37.008049$GNEBP,,,,,,M*13
###2023-12-09 13:13:37.174778$GNGGA,181336.30,4138.0464135,N,07032.2665011,W,1,24,0.7,12.775,M,-29.743,M,0.0,*5C
###2023-12-09 13:13:37.374947$GNGGA,181336.50,4138.0462500,N,07032.2666475,W,1,24,0.7,12.773,M,-29.743,M,0.0,*5D
###2023-12-09 13:13:37.575789$GNGGA,181336.70,4138.0460881,N,07032.2667929,W,1,24,0.7,12.777,M,-29.743,M,0.0,*58
###2023-12-09 13:13:37.775963$GNGGA,181336.90,4138.0459354,N,07032.2669642,W,1,24,0.7,12.772,M,-29.743,M,0.0,*56
###2023-12-09 13:13:37.979068$GNRMC,181337.10,A,4138.0457958,N,07032.2671494,W,3.52,229.75,091223,,,A*59
###2023-12-09 13:13:37.981942$GNGGA,181337.10,4138.0457958,N,07032.2671494,W,1,24,0.7,12.774,M,-29.743,M,0.0,*51
###2023-12-09 13:13:37.983757$GPGSA,A,3,03,04,16,26,28,29,31,,,,,,1.2,0.7,1.0*30
