###2023-12-09 13:27:50.013366$GBGSV,2,1,05,24,65,042,50,25,49,273,46,26,18,069,45,33,48,220,47*69
###2023-12-09 13:27:50.014914$GBGSV,2,2,05,35,16,059,45,,,,,,,,,,,,*52
###2023-12-09 13:27:50.016252$GNVTG,244.76,T,,M,1.28,N,2.38,K,A*22
###2023-12-09 13:27:50.017904$GNGST,182749.10,32.000,,,,0.120,0.077,0.180*5C
###2023-12-09 13:27:50.019213$GNZDA,182749.10,09,12,2023,00,00*71
###2023-12-09 13:27:50.019851$GNEBP,,,,,,M*13
###2023-12-09 13:27:50.185641$GNGGA,182749.30,4138.0406362,N,07032.4300286,W,1,22,0.7,13.061,M,-29.745,M,0.0,*58
###2023-12-09 13:27:50.384988$GNGGA,182749.50,4138.0406111,N,07032.4301088,W,1,22,0.7,13.068,M,-29.745,M,0.0,*5C
###2023-12-09 13:27:50.586074$GNGGA,182749.70,4138.0406000,N,07032.4301861,W,1,22,0.7,13.068,M,-29.745,M,0.0,*50
###2023-12-09 13:27:50.785505$GNGGA,182749.90,4138.0405857,N,07032.4302437,W,1,22,0.7,13.068,M,-29.745,M,0.0,*5B
###2023-12-09 13:27:50.989338$GNRMC,182750.10,A,4138.0405706,N,07032.4302804,W,0.49,265.76,091223,,,A*5D
###2023-12-09 13:27:50.992232$GNGGA,182750.10,4138.0405706,N,07032.4302804,W,1,22,0.7,13.065,M,-29.745,M,0.0,*51
###2023-12-09 13:27:50.993963$GPGSA,A,3,04,16,26,28,29,31,,,,,,,1.2,0.7,1.0*33
###2023-12-09 13:27:50.995700$GLGSA,A,3,65,71,72,73,74,75,,,,,,,1.2,0.7,1.0*2E
###2023-12-09 13:27:50.997297$GAGSA,A,3,04,19,21,27,,,,,,,,,1.2,0.7,1.0*2C
###2023-12-09 13:27:50.999025$GBGSA,A,3,14,24,25,26,33,35,,,,,,,1.2,0.7,1.0*23
###2023-12-09 13:27:51.001351$GPGSV,2,1,06,04,43,309,44,16,63,220,45,26,87,041,48,28,40,082,45*71
###2023-12-09 13:27:51.003099$GPGSV,2,2,06,29,22,049,44,31,61,061,47,,,,,,,,*78
###2023-12-09 13:27:51.005409$GLGSV,2,1,06,65,35,321,44,71,26,175,37,72,66,227,46,73,25,050,45*67
###2023-12-09 13:27:51.007167$GLGSV,2,2,06,74,62,008,42,75,41,267,45,,,,,,,,*6F
###2023-12-09 13:27:51.009493$GAGSV,1,1,04,04,38,311,44,19,75,184,41,21,80,050,46,27,25,049,42*67
###2023-12-09 13:27:51.011828$GBGSV,2,1,06,14,32,190,38,24,65,042,48,25,49,273,44,26,18,069,45*69
###2023-12-09 13:27:51.013574$GBGSV,2,2,06,33,48,220,45,35,16,059,45,,,,,,,,*6C
###2023-12-09 13:27:51.014908$GNVTG,265.76,T,,M,0.49,N,0.90,K,A*27
###2023-12-09 13:27:51.016518$GNGST,182750.10,5.400,,,,0.120,0.078,0.190*6A
###2023-12-09 13:27:51.017804$GNZDA,182750.10,09,12,2023,00,00*79
###2023-12-09 13:27:51.018438$GNEBP,,,,,,M*13
###2023-12-09 13:27:51.189504$GNGGA,182750.30,4138.0405651,N,07032.4303043,W,1,22,0.7,13.075,M,-29.745,M,0.0,*5B
###2023-12-09 13:27:51.391012$GNGGA,182750.50,4138.0405618,N,07032.4303079,W,1,22,0.7,13.081,M,-29.745,M,0.0,*52
###2023-12-09 13:27:51.585855$GNGGA,182750.70,4138.0405610,N,07032.4303041,W,1,22,0.7,13.089,M,-29.745,M,0.0,*5B
###2023-12-09 13:27:51.786248$GNGGA,182750.90,4138.0405608,N,07032.4303031,W,1,22,0.7,13.085,M,-29.745,M,0.0,*57
###2023-12-09 13:27:51.987551$GNRMC,182751.10,A,4138.0405617,N,07032.4303023,W,0.06,265.76,091223,,,A*5A
###2023-12-09 13:27:51.990417$GNGGA,182751.10,4138.0405617,N,07032.4303023,W,1,22,0.7,13.089,M,-29.745,M,0.0,*5F
###2023-12-09 13:27:51.992160$GPGSA,A,3,04,16,26,28,29,31,,,,,,,1.2,0.7,1.0*33
###2023-12-09 13:27:51.993878$GLGSA,A,3,65,71,72,73,74,75,,,,,,,1.2,0.7,1.0*2E
###2023-12-09 13:27:51.995475$GAGSA,A,3,04,19,21,27,,,,,,,,,1.2,0.7,1.0*2C
###2023-12-09 13:27:51.997192$GBGSA,A,3,14,24,25,26,33,35,,,,,,,1.2,0.7,1.0*23
###2023-12-09 13:27:51.999536$GPGSV,2,1,06,04,43,309,43,16,63,220,46,26,87,041,49,28,40,082,44*75
###2023-12-09 13:27:52.001291$GPGSV,2,2,06,29,22,049,42,31,61,061,47,,,,,,,,*7E
###2023-12-09 13:27:52.003632$GLGSV,2,1,06,65,35,321,43,71,26,175,36,72,66,227,45,73,25,050,41*66
###2023-12-09 13:27:52.005383$GLGSV,2,2,06,74,62,008,43,75,41,267,44,,,,,,,,*6F
###2023-12-09 13:27:52.007732$GAGSV,1,1,04,04,38,311,44,19,75,184,41,21,80,050,46,27,25,049,41*64
###2023-12-09 13:27:52.010063$GBGSV,2,1,06,14,32,190,36,24,65,042,48,25,49,273,43,26,18,069,43*66
###2023-12-09 13:27:52.011823$GBGSV,2,2,06,33,48,220,45,35,16,059,44,,,,,,,,*6D
###2023-12-09 13:27:52.013146$GNVTG,265.76,T,,M,0.06,N,0.11,K,A*25
###2023-12-09 13:27:52.014776$GNGST,182751.10,6.000,,,,0.120,0.078,0.190*6C
###2023-12-09 13:27:52.016069$GNZDA,182751.10,09,12,2023,00,00*78
###2023-12-09 13:27:52.016708$GNEBP,,,,,,M*13
###2023-12-09 13:27:52.190473$GNGGA,182751.30,4138.0405620,N,07032.4303022,W,1,22,0.7,13.090,M,-29.745,M,0.0,*50
###2023-12-09 13:27:52.388841$GNGGA,182751.50,4138.0405598,N,07032.4303013,W,1,22,0.7,13.089,M,-29.745,M,0.0,*5C
###2023-12-09 13:27:52.585648$GNGGA,182751.70,4138.0405582,N,07032.4302989,W,1,22,0.7,13.097,M,-29.745,M,0.0,*51
###2023-12-09 13:27:52.785504$GNGGA,182751.90,4138.0405569,N,07032.4302972,W,1,22,0.7,13.101,M,-29.745,M,0.0,*50
###2023-12-09 13:27:52.991535$GNRMC,182752.10,A,4138.0405560,N,07032.4302945,W,0.02,265.76,091223,,,A*56
###2023-12-09 13:27:52.994379$GNGGA,182752.10,4138.0405560,N,07032.4302945,W,1,22,0.7,13.106,M,-29.745,M,0.0,*51
###2023-12-09 13:27:52.996119$GPGSA,A,3,04,16,26,28,29,31,,,,,,,1.2,0.7,1.0*33
###2023-12-09 13:27:52.997822$GLGSA,A,3,65,71,72,73,74,75,,,,,,,1.2,0.7,1.0*2E
###2023-12-09 13:27:52.999410$GAGSA,A,3,04,19,21,27,,,,,,,,,1.2,0.7,1.0*2C
###2023-12-09 13:27:53.001115$GBGSA,A,3,14,24,25,26,33,35,,,,,,,1.2,0.7,1.0*23
###2023-12-09 13:27:53.003442$GPGSV,2,1,06,04,43,309,43,16,63,220,46,26,87,041,49,28,40,082,45*74
###2023-12-09 13:27:53.005180$GPGSV,2,2,06,29,22,049,43,31,61,061,47,,,,,,,,*7F
###2023-12-09 13:27:53.007522$GLGSV,2,1,06,65,35,321,44,71,26,175,36,72,66,227,45,73,25,050,41*61
###2023-12-09 13:27:53.009260$GLGSV,2,2,06,74,62,008,43,75,41,267,44,,,,,,,,*6F
###2023-12-09 13:27:53.011590$GAGSV,1,1,04,04,38,311,43,19,75,184,40,21,80,050,46,27,25,049,39*6D
###2023-12-09 13:27:53.013909$GBGSV,2,1,06,14,32,190,38,24,65,042,48,25,49,273,44,26,18,069,44*68
###2023-12-09 13:27:53.015662$GBGSV,2,2,06,33,48,220,45,35,16,059,44,,,,,,,,*6D
###2023-12-09 13:27:53.016982$GNVTG,265.76,T,,M,0.02,N,0.04,K,A*25
###2023-12-09 13:27:53.018605$GNGST,182752.10,5.700,,,,0.120,0.079,0.190*6A
###2023-12-09 13:27:53.019897$GNZDA,182752.10,09,12,2023,00,00*7B
###2023-12-09 13:27:53.020536$GNEBP,,,,,,M*13
###2023-12-09 13:27:53.193954$GNGGA,182752.30,4138.0405566,N,07032.4302938,W,1,22,0.7,13.108,M,-29.745,M,0.0,*51
###2023-12-09 13:27:53.388876$GNGGA,182752.50,4138.0405573,N,07032.4302930,W,1,22,0.7,13.113,M,-29.745,M,0.0,*51
###2023-12-09 13:27:53.589383$GNGGA,182752.70,4138.0405555,N,07032.4302911,W,1,22,0.7,13.116,M,-29.745,M,0.0,*51
###2023-12-09 13:27:53.785021$GNGGA,182752.90,4138.0405540,N,07032.4302889,W,1,22,0.7,13.117,M,-29.745,M,0.0,*5A
###2023-12-09 13:27:53.988709$GNRMC,182753.10,A,4138.0405545,N,07032.4302872,W,0.04,265.76,091223,,,A*53
###2023-12-09 13:27:53.991586$GNGGA,182753.10,4138.0405545,N,07032.4302872,W,1,22,0.7,13.121,M,-29.745,M,0.0,*57
###2023-12-09 13:27:53.993318$GPGSA,A,3,04,16,26,28,29,31,,,,,,,1.2,0.7,1.0*33
###2023-12-09 13:27:53.995047$GLGSA,A,3,65,71,72,73,74,75,,,,,,,1.2,0.7,1.0*2E
###2023-12-09 13:27:53.996624$GAGSA,A,3,04,19,21,27,,,,,,,,,1.2,0.7,1.0*2C
###2023-12-09 13:27:53.998329$GBGSA,A,3,14,24,25,26,33,35,,,,,,,1.2,0.7,1.0*23
###2023-12-09 13:27:54.000665$GPGSV,2,1,06,04,43,309,43,16,63,220,47,26,87,041,49,28,40,082,45*75
###2023-12-09 13:27:54.002404$GPGSV,2,2,06,29,22,049,43,31,61,061,47,,,,,,,,*7F
###2023-12-09 13:27:54.004737$GLGSV,2,1,06,65,35,321,44,71,26,175,36,72,66,227,45,73,25,050,41*61
###2023-12-09 13:27:54.006481$GLGSV,2,2,06,74,62,008,43,75,41,267,44,,,,,,,,*6F
###2023-12-09 13:27:54.008820$GAGSV,1,1,04,04,38,311,44,19,75,184,40,21,80,050,46,27,25,049,40*64
###2023-12-09 13:27:54.011154$GBGSV,2,1,06,14,32,190,38,24,65,042,49,25,49,273,44,26,18,069,44*69
###2023-12-09 13:27:54.012898$GBGSV,2,2,06,33,48,220,45,35,16,059,45,,,,,,,,*6C
###2023-12-09 13:27:54.014218$GNVTG,265.76,T,,M,0.04,N,0.07,K,A*20
###2023-12-09 13:27:54.015840$GNGST,182753.10,5.900,,,,0.130,0.080,0.200*68
###2023-12-09 13:27:54.017129$GNZDA,182753.10,09,12,2023,00,00*7A
###2023-12-09 13:27:54.017766$GNEBP,,,,,,M*13
###2023-12-09 13:27:54.187483$GNGGA,182753.30,4138.0405554,N,07032.4302873,W,1,22,0.7,13.124,M,-29.745,M,0.0,*51
###2023-12-09 13:27:54.384932$GNGGA,182753.50,4138.0405531,N,07032.4302860,W,1,22,0.7,13.121,M,-29.745,M,0.0,*53
###2023-12-09 13:27:54.585510$GNGGA,182753.70,4138.0405534,N,07032.4302848,W,1,22,0.7,13.127,M,-29.745,M,0.0,*58
###2023-12-09 13:27:54.786593$GNGGA,182753.90,4138.0405520,N,07032.4302837,W,1,22,0.7,13.124,M,-29.745,M,0.0,*58
###2023-12-09 13:27:54.989515$GNRMC,182754.10,A,4138.0405515,N,07032.4302831,W,0.02,265.76,091223,,,A*50
###2023-12-09 13:27:54.992427$GNGGA,182754.10,4138.0405515,N,07032.4302831,W,1,22,0.7,13.130,M,-29.745,M,0.0,*52
###2023-12-09 13:27:54.994157$GPGSA,A,3,04,16,26,28,29,31,,,,,,,1.2,0.7,1.0*33
###2023-12-09 13:27:54.995886$GLGSA,A,3,65,71,72,73,74,75,,,,,,,1.2,0.7,1.0*2E
###2023-12-09 13:27:54.997472$GAGSA,A,3,04,19,21,27,,,,,,,,,1.2,0.7,1.0*2C
###2023-12-09 13:27:54.999197$GBGSA,A,3,14,24,25,26,33,35,,,,,,,1.2,0.7,1.0*23
