###2023-12-09 13:40:32.025759$GLGSV,2,2,06,74,58,018,42,75,45,275,48,,,,,,,,*6D
###2023-12-09 13:40:32.028141$GAGSV,1,1,04,04,41,309,46,19,69,180,41,21,74,044,46,27,21,050,40*6B
###2023-12-09 13:40:32.030487$GBGSV,2,1,06,12,17,124,40,14,26,189,42,24,60,049,48,25,53,279,49*6E
###2023-12-09 13:40:32.032255$GBGSV,2,2,06,33,44,215,47,35,16,055,42,,,,,,,,*6F
###2023-12-09 13:40:32.033581$GNVTG,243.13,T,,M,0.17,N,0.32,K,A*23
###2023-12-09 13:40:32.035209$GNGST,184031.10,5.600,,,,0.087,0.073,0.160*66
###2023-12-09 13:40:32.036497$GNZDA,184031.10,09,12,2023,00,00*7F
###2023-12-09 13:40:32.037134$GNEBP,,,,,,M*13
###2023-12-09 13:40:32.201701$GNGGA,184031.30,4138.0268731,N,07032.3877860,W,1,24,0.6,13.375,M,-29.745,M,0.0,*55
###2023-12-09 13:40:32.400895$GNGGA,184031.50,4138.0268722,N,07032.3877797,W,1,25,0.6,13.372,M,-29.745,M,0.0,*50
###2023-12-09 13:40:32.601934$GNGGA,184031.70,4138.0268652,N,07032.3878015,W,1,25,0.6,13.362,M,-29.745,M,0.0,*57
###2023-12-09 13:40:32.800978$GNGGA,184031.90,4138.0268584,N,07032.3878154,W,1,24,0.6,13.349,M,-29.745,M,0.0,*5D
###2023-12-09 13:40:33.013393$GNRMC,184032.10,A,4138.0268545,N,07032.3878148,W,0.14,243.13,091223,,,A*5F
###2023-12-09 13:40:33.016272$GNGGA,184032.10,4138.0268545,N,07032.3878148,W,1,24,0.6,13.352,M,-29.745,M,0.0,*5C
###2023-12-09 13:40:33.018121$GPGSA,A,3,03,04,16,26,27,28,29,31,,,,,1.1,0.6,0.9*3F
###2023-12-09 13:40:33.019843$GLGSA,A,3,65,71,72,73,74,75,,,,,,,1.1,0.6,0.9*24
###2023-12-09 13:40:33.021423$GAGSA,A,3,04,19,21,27,,,,,,,,,1.1,0.6,0.9*26
###2023-12-09 13:40:33.023137$GBGSA,A,3,12,14,24,25,33,35,,,,,,,1.1,0.6,0.9*2E
###2023-12-09 13:40:33.025459$GPGSV,2,1,08,03,25,244,37,04,48,306,45,16,69,225,46,26,81,040,47*79
###2023-12-09 13:40:33.027791$GPGSV,2,2,08,27,19,172,40,28,36,087,44,29,19,045,42,31,58,070,46*72
###2023-12-09 13:40:33.030106$GLGSV,2,1,06,65,40,316,44,71,20,176,42,72,60,217,45,73,20,054,43*67
###2023-12-09 13:40:33.031855$GLGSV,2,2,06,74,58,018,43,75,45,275,48,,,,,,,,*6C
###2023-12-09 13:40:33.034162$GAGSV,1,1,04,04,41,309,44,19,69,180,40,21,74,044,45,27,21,050,41*6A
###2023-12-09 13:40:33.036482$GBGSV,2,1,06,12,17,124,40,14,26,189,41,24,60,049,47,25,53,279,48*63
###2023-12-09 13:40:33.038219$GBGSV,2,2,06,33,44,215,46,35,16,055,42,,,,,,,,*6E
###2023-12-09 13:40:33.039547$GNVTG,243.13,T,,M,0.14,N,0.25,K,A*26
###2023-12-09 13:40:33.041156$GNGST,184032.10,5.400,,,,0.087,0.074,0.160*60
###2023-12-09 13:40:33.042439$GNZDA,184032.10,09,12,2023,00,00*7C
###2023-12-09 13:40:33.043085$GNEBP,,,,,,M*13
###2023-12-09 13:40:33.210939$GNGGA,184032.30,4138.0268511,N,07032.3878121,W,1,24,0.6,13.375,M,-29.745,M,0.0,*55
###2023-12-09 13:40:33.399960$GNGGA,184032.50,4138.0268516,N,07032.3878127,W,1,25,0.6,13.376,M,-29.745,M,0.0,*50
###2023-12-09 13:40:33.600727$GNGGA,184032.70,4138.0268542,N,07032.3878202,W,1,25,0.6,13.356,M,-29.745,M,0.0,*55
###2023-12-09 13:40:33.802653$GNGGA,184032.90,4138.0268467,N,07032.3878348,W,1,25,0.6,13.353,M,-29.745,M,0.0,*57
###2023-12-09 13:40:34.005867$GNRMC,184033.10,A,4138.0268386,N,07032.3878454,W,0.14,243.13,091223,,,A*5F
###2023-12-09 13:40:34.008746$GNGGA,184033.10,4138.0268386,N,07032.3878454,W,1,25,0.6,13.360,M,-29.745,M,0.0,*5C
###2023-12-09 13:40:34.010610$GPGSA,A,3,03,04,16,26,27,28,29,31,,,,,1.1,0.6,0.9*3F
###2023-12-09 13:40:34.012389$GLGSA,A,3,65,71,72,73,74,75,83,,,,,,1.1,0.6,0.9*2F
###2023-12-09 13:40:34.013963$GAGSA,A,3,04,19,21,27,,,,,,,,,1.1,0.6,0.9*26
###2023-12-09 13:40:34.015672$GBGSA,A,3,12,14,24,25,33,35,,,,,,,1.1,0.6,0.9*2E
###2023-12-09 13:40:34.017982$GPGSV,2,1,08,03,25,244,36,04,48,306,44,16,69,225,46,26,81,040,47*79
###2023-12-09 13:40:34.020301$GPGSV,2,2,08,27,19,172,40,28,36,087,44,29,19,045,43,31,58,070,46*73
###2023-12-09 13:40:34.022632$GLGSV,2,1,07,65,40,316,45,71,20,176,42,72,60,217,46,73,20,054,43*64
###2023-12-09 13:40:34.024661$GLGSV,2,2,07,74,58,018,43,75,45,275,48,83,16,045,35,,,,*56
###2023-12-09 13:40:34.026983$GAGSV,1,1,04,04,41,309,45,19,69,180,40,21,74,044,47,27,21,050,41*69
###2023-12-09 13:40:34.029295$GBGSV,2,1,06,12,17,124,41,14,26,189,41,24,60,049,47,25,53,279,48*62
###2023-12-09 13:40:34.031042$GBGSV,2,2,06,33,44,215,45,35,16,055,43,,,,,,,,*6C
###2023-12-09 13:40:34.032367$GNVTG,243.13,T,,M,0.14,N,0.25,K,A*26
###2023-12-09 13:40:34.033984$GNGST,184033.10,5.900,,,,0.086,0.074,0.160*6D
###2023-12-09 13:40:34.035282$GNZDA,184033.10,09,12,2023,00,00*7D
###2023-12-09 13:40:34.035921$GNEBP,,,,,,M*13
###2023-12-09 13:40:34.203225$GNGGA,184033.30,4138.0268398,N,07032.3878407,W,1,25,0.6,13.358,M,-29.745,M,0.0,*5C
###2023-12-09 13:40:34.402777$GNGGA,184033.50,4138.0268430,N,07032.3878370,W,1,25,0.6,13.359,M,-29.745,M,0.0,*59
###2023-12-09 13:40:34.601323$GNGGA,184033.70,4138.0268367,N,07032.3878565,W,1,25,0.6,13.367,M,-29.745,M,0.0,*51
###2023-12-09 13:40:34.802067$GNGGA,184033.90,4138.0268287,N,07032.3878764,W,1,25,0.6,13.374,M,-29.745,M,0.0,*51
###2023-12-09 13:40:35.006959$GNRMC,184034.10,A,4138.0268284,N,07032.3878763,W,0.17,243.13,091223,,,A*5F
###2023-12-09 13:40:35.009827$GNGGA,184034.10,4138.0268284,N,07032.3878763,W,1,25,0.6,13.358,M,-29.745,M,0.0,*54
###2023-12-09 13:40:35.011694$GPGSA,A,3,03,04,16,26,27,28,29,31,,,,,1.1,0.6,0.9*3F
###2023-12-09 13:40:35.013472$GLGSA,A,3,65,71,72,73,74,75,83,,,,,,1.1,0.6,0.9*2F
###2023-12-09 13:40:35.015064$GAGSA,A,3,04,19,21,27,,,,,,,,,1.1,0.6,0.9*26
###2023-12-09 13:40:35.016772$GBGSA,A,3,12,14,24,25,33,35,,,,,,,1.1,0.6,0.9*2E
###2023-12-09 13:40:35.019106$GPGSV,2,1,08,03,25,244,36,04,48,306,45,16,69,225,46,26,81,040,48*77
###2023-12-09 13:40:35.021434$GPGSV,2,2,08,27,19,172,40,28,36,087,44,29,19,045,41,31,58,070,46*71
###2023-12-09 13:40:35.023774$GLGSV,2,1,07,65,40,316,45,71,20,176,42,72,60,217,46,73,20,054,43*64
###2023-12-09 13:40:35.025810$GLGSV,2,2,07,74,58,018,42,75,45,275,48,83,16,045,35,,,,*57
###2023-12-09 13:40:35.028147$GAGSV,1,1,04,04,41,309,45,19,69,180,40,21,74,044,47,27,21,050,41*69
###2023-12-09 13:40:35.030469$GBGSV,2,1,06,12,17,124,41,14,26,189,42,24,60,049,49,25,53,279,50*66
###2023-12-09 13:40:35.032233$GBGSV,2,2,06,33,44,215,47,35,16,055,44,,,,,,,,*69
###2023-12-09 13:40:35.033561$GNVTG,243.13,T,,M,0.17,N,0.32,K,A*23
###2023-12-09 13:40:35.035183$GNGST,184034.10,6.200,,,,0.086,0.074,0.160*62
###2023-12-09 13:40:35.036477$GNZDA,184034.10,09,12,2023,00,00*7A
###2023-12-09 13:40:35.037116$GNEBP,,,,,,M*13
###2023-12-09 13:40:35.201549$GNGGA,184034.30,4138.0268298,N,07032.3878683,W,1,25,0.6,13.351,M,-29.745,M,0.0,*5D
###2023-12-09 13:40:35.401034$GNGGA,184034.50,4138.0268236,N,07032.3878783,W,1,25,0.6,13.361,M,-29.745,M,0.0,*5D
###2023-12-09 13:40:35.602542$GNGGA,184034.70,4138.0268169,N,07032.3879041,W,1,25,0.6,13.373,M,-29.745,M,0.0,*5D
###2023-12-09 13:40:35.800950$GNGGA,184034.90,4138.0268121,N,07032.3879203,W,1,25,0.6,13.381,M,-29.745,M,0.0,*56
###2023-12-09 13:40:36.006421$GNRMC,184035.10,A,4138.0268125,N,07032.3879169,W,0.17,243.13,091223,,,A*5B
###2023-12-09 13:40:36.009305$GNGGA,184035.10,4138.0268125,N,07032.3879169,W,1,25,0.6,13.374,M,-29.745,M,0.0,*5E
###2023-12-09 13:40:36.011183$GPGSA,A,3,03,04,16,26,27,28,29,31,,,,,1.1,0.6,0.9*3F
###2023-12-09 13:40:36.012965$GLGSA,A,3,65,71,72,73,74,75,83,,,,,,1.1,0.6,0.9*2F
###2023-12-09 13:40:36.014550$GAGSA,A,3,04,19,21,27,,,,,,,,,1.1,0.6,0.9*26
###2023-12-09 13:40:36.016278$GBGSA,A,3,12,14,24,25,33,35,,,,,,,1.1,0.6,0.9*2E
###2023-12-09 13:40:36.018633$GPGSV,2,1,08,03,25,244,38,04,48,306,46,16,69,225,48,26,81,040,50*7D
###2023-12-09 13:40:36.020976$GPGSV,2,2,08,27,19,172,41,28,36,087,46,29,19,045,44,31,58,070,47*76
###2023-12-09 13:40:36.023320$GLGSV,2,1,07,65,40,316,45,71,20,176,42,72,60,217,45,73,20,054,42*66
###2023-12-09 13:40:36.025366$GLGSV,2,2,07,74,58,018,43,75,45,275,49,83,16,045,35,,,,*57
###2023-12-09 13:40:36.027711$GAGSV,1,1,04,04,41,309,45,19,69,180,42,21,74,044,47,27,21,050,42*68
###2023-12-09 13:40:36.030052$GBGSV,2,1,06,12,17,124,40,14,26,189,40,24,60,049,47,25,53,279,48*62
###2023-12-09 13:40:36.031813$GBGSV,2,2,06,33,43,215,45,35,16,055,42,,,,,,,,*6A
###2023-12-09 13:40:36.033139$GNVTG,243.13,T,,M,0.17,N,0.32,K,A*23
###2023-12-09 13:40:36.034763$GNGST,184035.10,6.200,,,,0.086,0.074,0.160*63
###2023-12-09 13:40:36.036054$GNZDA,184035.10,09,12,2023,00,00*7B
###2023-12-09 13:40:36.036933$GNEBP,,,,,,M*13
###2023-12-09 13:40:36.202581$GNGGA,184035.30,4138.0268151,N,07032.3879114,W,1,25,0.6,13.356,M,-29.745,M,0.0,*55
###2023-12-09 13:40:36.400917$GNGGA,184035.50,4138.0268087,N,07032.3879300,W,1,25,0.6,13.356,M,-29.745,M,0.0,*5E
###2023-12-09 13:40:36.600914$GNGGA,184035.70,4138.0267968,N,07032.3879673,W,1,25,0.6,13.375,M,-29.745,M,0.0,*5B
###2023-12-09 13:40:36.800591$GNGGA,184035.90,4138.0267919,N,07032.3879849,W,1,24,0.6,13.384,M,-29.745,M,0.0,*5B
###2023-12-09 13:40:37.002506$GNRMC,184036.10,A,4138.0267972,N,07032.3879674,W,0.33,243.13,091223,,,A*50
###2023-12-09 13:40:37.005388$GNGGA,184036.10,4138.0267972,N,07032.3879674,W,1,24,0.6,13.370,M,-29.745,M,0.0,*56
###2023-12-09 13:40:37.007255$GPGSA,A,3,03,04,16,26,27,28,29,31,,,,,1.1,0.6,0.9*3F
###2023-12-09 13:40:37.008966$GLGSA,A,3,65,71,72,73,74,75,,,,,,,1.1,0.6,0.9*24
