###2023-12-09 12:55:03.354434$GNGGA,175502.50,4138.0428040,N,07032.3899253,W,1,24,0.6,13.242,M,-29.745,M,0.0,*54
###2023-12-09 12:55:03.555767$GNGGA,175502.70,4138.0426359,N,07032.3899891,W,1,24,0.6,13.217,M,-29.745,M,0.0,*57
###2023-12-09 12:55:03.756999$GNGGA,175502.90,4138.0424798,N,07032.3900736,W,1,24,0.6,13.212,M,-29.745,M,0.0,*54
###2023-12-09 12:55:03.954857$GNRMC,175503.10,A,4138.0423430,N,07032.3901969,W,3.01,213.64,091223,,,A*5A
###2023-12-09 12:55:03.957719$GNGGA,175503.10,4138.0423430,N,07032.3901969,W,1,24,0.6,13.250,M,-29.745,M,0.0,*58
###2023-12-09 12:55:03.959604$GPGSA,A,3,03,04,16,26,28,29,31,32,,,,,1.1,0.6,0.9*3B
###2023-12-09 12:55:03.961329$GLGSA,A,3,65,71,72,73,74,75,,,,,,,1.1,0.6,0.9*24
###2023-12-09 12:55:03.962932$GAGSA,A,3,04,19,21,27,,,,,,,,,1.1,0.6,0.9*26
###2023-12-09 12:55:03.964583$GBGSA,A,3,14,24,25,26,33,,,,,,,,1.1,0.6,0.9*2F
###2023-12-09 12:55:03.966922$GPGSV,2,1,08,03,36,266,43,04,29,311,43,16,46,211,44,26,76,209,47*70
###2023-12-09 12:55:03.969250$GPGSV,2,2,08,28,52,067,44,29,25,064,43,31,70,029,47,32,22,138,44*72
###2023-12-09 12:55:03.971600$GLGSV,2,1,06,65,21,328,40,71,44,172,45,72,72,281,45,73,38,040,47*6C
###2023-12-09 12:55:03.973348$GLGSV,2,2,06,74,71,327,42,75,30,250,43,,,,,,,,*67
###2023-12-09 12:55:03.975688$GAGSV,1,1,04,04,27,312,41,19,85,242,40,21,84,147,45,27,35,048,44*6E
###2023-12-09 12:55:03.978019$GBGSV,2,1,05,14,46,194,44,24,75,018,48,25,39,260,45,26,28,061,44*66
###2023-12-09 12:55:03.979479$GBGSV,2,2,05,33,59,237,46,,,,,,,,,,,,*56
###2023-12-09 12:55:03.980801$GNVTG,213.64,T,,M,3.01,N,5.58,K,A*2B
###2023-12-09 12:55:03.982450$GNGST,175503.10,18.000,,,,0.079,0.065,0.150*53
###2023-12-09 12:55:03.983749$GNZDA,175503.10,09,12,2023,00,00*75
###2023-12-09 12:55:03.984388$GNEBP,,,,,,M*13
###2023-12-09 12:55:04.154348$GNGGA,175503.30,4138.0422022,N,07032.3903101,W,1,24,0.6,13.245,M,-29.745,M,0.0,*5C
###2023-12-09 12:55:04.355638$GNGGA,175503.50,4138.0420676,N,07032.3904277,W,1,24,0.6,13.214,M,-29.745,M,0.0,*5E
###2023-12-09 12:55:04.554513$GNGGA,175503.70,4138.0419332,N,07032.3905446,W,1,24,0.6,13.208,M,-29.745,M,0.0,*5B
###2023-12-09 12:55:04.754395$GNGGA,175503.90,4138.0418113,N,07032.3906719,W,1,24,0.6,13.217,M,-29.745,M,0.0,*51
###2023-12-09 12:55:04.955127$GNRMC,175504.10,A,4138.0417192,N,07032.3908235,W,2.62,234.81,091223,,,A*56
###2023-12-09 12:55:04.957978$GNGGA,175504.10,4138.0417192,N,07032.3908235,W,1,24,0.6,13.239,M,-29.745,M,0.0,*51
###2023-12-09 12:55:04.959850$GPGSA,A,3,03,04,16,26,28,29,31,32,,,,,1.1,0.6,0.9*3B
###2023-12-09 12:55:04.961564$GLGSA,A,3,65,71,72,73,74,75,,,,,,,1.1,0.6,0.9*24
###2023-12-09 12:55:04.963159$GAGSA,A,3,04,19,21,27,,,,,,,,,1.1,0.6,0.9*26
###2023-12-09 12:55:04.964802$GBGSA,A,3,14,24,25,26,33,,,,,,,,1.1,0.6,0.9*2F
###2023-12-09 12:55:04.967140$GPGSV,2,1,08,03,36,266,41,04,29,311,41,16,46,211,45,26,76,209,46*70
###2023-12-09 12:55:04.969462$GPGSV,2,2,08,28,52,067,45,29,25,064,42,31,70,029,47,32,22,138,44*72
###2023-12-09 12:55:04.971797$GLGSV,2,1,06,65,21,328,41,71,44,172,47,72,72,281,45,73,38,040,47*6F
###2023-12-09 12:55:04.973539$GLGSV,2,2,06,74,71,327,42,75,30,250,43,,,,,,,,*67
###2023-12-09 12:55:04.975877$GAGSV,1,1,04,04,27,312,41,19,85,242,40,21,84,147,46,27,35,048,44*6D
###2023-12-09 12:55:04.978208$GBGSV,2,1,05,14,46,194,45,24,75,018,49,25,39,260,43,26,28,061,44*60
###2023-12-09 12:55:04.979676$GBGSV,2,2,05,33,59,237,47,,,,,,,,,,,,*57
###2023-12-09 12:55:04.980996$GNVTG,234.81,T,,M,2.62,N,4.86,K,A*23
###2023-12-09 12:55:04.982649$GNGST,175504.10,18.000,,,,0.079,0.066,0.150*57
###2023-12-09 12:55:04.983941$GNZDA,175504.10,09,12,2023,00,00*72
###2023-12-09 12:55:04.984579$GNEBP,,,,,,M*13
###2023-12-09 12:55:05.154646$GNGGA,175504.30,4138.0416342,N,07032.3909800,W,1,24,0.6,13.235,M,-29.745,M,0.0,*5C
###2023-12-09 12:55:05.356470$GNGGA,175504.50,4138.0415383,N,07032.3911291,W,1,24,0.6,13.218,M,-29.745,M,0.0,*50
###2023-12-09 12:55:05.556403$GNGGA,175504.70,4138.0414359,N,07032.3912751,W,1,24,0.6,13.212,M,-29.745,M,0.0,*54
###2023-12-09 12:55:05.755610$GNGGA,175504.90,4138.0413583,N,07032.3914369,W,1,24,0.6,13.217,M,-29.745,M,0.0,*50
###2023-12-09 12:55:05.955504$GNRMC,175505.10,A,4138.0413030,N,07032.3916155,W,2.57,249.35,091223,,,A*53
###2023-12-09 12:55:05.958373$GNGGA,175505.10,4138.0413030,N,07032.3916155,W,1,24,0.6,13.228,M,-29.745,M,0.0,*57
###2023-12-09 12:55:05.960246$GPGSA,A,3,03,04,16,26,28,29,31,32,,,,,1.1,0.6,0.9*3B
###2023-12-09 12:55:05.961967$GLGSA,A,3,65,71,72,73,74,75,,,,,,,1.1,0.6,0.9*24
###2023-12-09 12:55:05.963568$GAGSA,A,3,04,19,21,27,,,,,,,,,1.1,0.6,0.9*26
###2023-12-09 12:55:05.965216$GBGSA,A,3,14,24,25,26,33,,,,,,,,1.1,0.6,0.9*2F
###2023-12-09 12:55:05.967564$GPGSV,2,1,08,03,36,266,42,04,29,311,40,16,46,211,45,26,76,209,47*73
###2023-12-09 12:55:05.969895$GPGSV,2,2,08,28,52,067,44,29,25,064,42,31,70,029,47,32,22,138,44*73
###2023-12-09 12:55:05.972252$GLGSV,2,1,06,65,21,328,41,71,44,172,47,72,72,281,45,73,38,040,46*6E
###2023-12-09 12:55:05.973998$GLGSV,2,2,06,74,71,327,42,75,30,250,43,,,,,,,,*67
###2023-12-09 12:55:05.976344$GAGSV,1,1,04,04,27,312,40,19,85,242,40,21,84,147,46,27,35,048,43*6B
###2023-12-09 12:55:05.978691$GBGSV,2,1,05,14,46,194,45,24,75,018,47,25,39,260,44,26,28,061,42*6F
###2023-12-09 12:55:05.980151$GBGSV,2,2,05,33,59,237,47,,,,,,,,,,,,*57
###2023-12-09 12:55:05.981474$GNVTG,249.35,T,,M,2.57,N,4.75,K,A*2C
###2023-12-09 12:55:05.983144$GNGST,175505.10,18.000,,,,0.079,0.066,0.160*55
###2023-12-09 12:55:05.984441$GNZDA,175505.10,09,12,2023,00,00*73
###2023-12-09 12:55:05.985079$GNEBP,,,,,,M*13
###2023-12-09 12:55:06.155635$GNGGA,175505.30,4138.0412536,N,07032.3917915,W,1,24,0.6,13.227,M,-29.745,M,0.0,*55
###2023-12-09 12:55:06.354349$GNGGA,175505.50,4138.0411984,N,07032.3919623,W,1,24,0.6,13.224,M,-29.745,M,0.0,*52
###2023-12-09 12:55:06.555341$GNGGA,175505.70,4138.0411371,N,07032.3921280,W,1,24,0.6,13.223,M,-29.745,M,0.0,*51
###2023-12-09 12:55:06.755394$GNGGA,175505.90,4138.0410991,N,07032.3922958,W,1,24,0.6,13.213,M,-29.745,M,0.0,*54
###2023-12-09 12:55:06.959658$GNRMC,175506.10,A,4138.0410893,N,07032.3924583,W,2.18,269.70,091223,,,A*54
###2023-12-09 12:55:06.962521$GNGGA,175506.10,4138.0410893,N,07032.3924583,W,1,24,0.6,13.225,M,-29.745,M,0.0,*55
###2023-12-09 12:55:06.964393$GPGSA,A,3,03,04,16,26,28,29,31,32,,,,,1.1,0.6,0.9*3B
###2023-12-09 12:55:06.966109$GLGSA,A,3,65,71,72,73,74,75,,,,,,,1.1,0.6,0.9*24
###2023-12-09 12:55:06.967710$GAGSA,A,3,04,19,21,27,,,,,,,,,1.1,0.6,0.9*26
###2023-12-09 12:55:06.969359$GBGSA,A,3,14,24,25,26,33,,,,,,,,1.1,0.6,0.9*2F
###2023-12-09 12:55:06.971711$GPGSV,2,1,08,03,36,266,42,04,29,311,38,16,46,211,45,26,76,209,47*7C
###2023-12-09 12:55:06.974045$GPGSV,2,2,08,28,52,067,43,29,25,064,40,31,70,029,46,32,22,138,43*70
###2023-12-09 12:55:06.976406$GLGSV,2,1,06,65,21,328,37,71,44,172,47,72,72,281,45,73,38,040,46*6F
###2023-12-09 12:55:06.978151$GLGSV,2,2,06,74,71,327,42,75,30,250,41,,,,,,,,*65
###2023-12-09 12:55:06.980493$GAGSV,1,1,04,04,27,312,39,19,85,242,40,21,84,147,46,27,35,048,43*65
###2023-12-09 12:55:06.982852$GBGSV,2,1,05,14,46,194,45,24,75,018,48,25,39,260,43,26,28,061,40*65
###2023-12-09 12:55:06.984312$GBGSV,2,2,05,33,59,237,47,,,,,,,,,,,,*57
###2023-12-09 12:55:06.985634$GNVTG,269.70,T,,M,2.18,N,4.03,K,A*25
###2023-12-09 12:55:06.987289$GNGST,175506.10,18.000,,,,0.078,0.067,0.160*56
###2023-12-09 12:55:06.988578$GNZDA,175506.10,09,12,2023,00,00*70
###2023-12-09 12:55:06.989215$GNEBP,,,,,,M*13
###2023-12-09 12:55:07.154398$GNGGA,175506.30,4138.0410853,N,07032.3926101,W,1,24,0.6,13.233,M,-29.745,M,0.0,*50
###2023-12-09 12:55:07.355955$GNGGA,175506.50,4138.0410803,N,07032.3927596,W,1,24,0.6,13.233,M,-29.745,M,0.0,*58
###2023-12-09 12:55:07.555606$GNGGA,175506.70,4138.0410738,N,07032.3929095,W,1,24,0.6,13.229,M,-29.745,M,0.0,*5E
###2023-12-09 12:55:07.755640$GNGGA,175506.90,4138.0410786,N,07032.3930533,W,1,24,0.6,13.234,M,-29.745,M,0.0,*58
###2023-12-09 12:55:07.955992$GNRMC,175507.10,A,4138.0411010,N,07032.3931912,W,1.90,282.85,091223,,,A*5B
###2023-12-09 12:55:07.958876$GNGGA,175507.10,4138.0411010,N,07032.3931912,W,1,24,0.6,13.233,M,-29.745,M,0.0,*51
###2023-12-09 12:55:07.960743$GPGSA,A,3,03,04,16,26,28,29,31,32,,,,,1.1,0.6,0.9*3B
###2023-12-09 12:55:07.962727$GLGSA,A,3,65,71,72,73,74,75,,,,,,,1.1,0.6,0.9*24
###2023-12-09 12:55:07.964327$GAGSA,A,3,04,19,21,27,,,,,,,,,1.1,0.6,0.9*26
###2023-12-09 12:55:07.965977$GBGSA,A,3,14,24,25,26,33,,,,,,,,1.1,0.6,0.9*2F
###2023-12-09 12:55:07.968322$GPGSV,2,1,08,03,36,266,42,04,29,311,41,16,46,211,47,26,76,209,48*7F
###2023-12-09 12:55:07.970674$GPGSV,2,2,08,28,52,067,45,29,25,064,40,31,70,029,48,32,22,138,44*7F
###2023-12-09 12:55:07.973001$GLGSV,2,1,06,65,21,328,36,71,44,172,48,72,72,281,45,73,38,040,46*61
###2023-12-09 12:55:07.974751$GLGSV,2,2,06,74,71,327,42,75,30,250,44,,,,,,,,*60
###2023-12-09 12:55:07.977068$GAGSV,1,1,04,04,27,312,39,19,85,242,40,21,84,147,47,27,35,048,44*63
###2023-12-09 12:55:07.979401$GBGSV,2,1,05,14,46,194,44,24,75,018,48,25,39,260,45,26,28,061,41*63
###2023-12-09 12:55:07.980854$GBGSV,2,2,05,33,59,237,47,,,,,,,,,,,,*57
