###2023-12-09 13:24:54.005058$GPGSV,2,2,07,28,41,080,44,29,22,051,43,31,63,058,47,,,,*48
###2023-12-09 13:24:54.007426$GLGSV,2,1,06,65,34,322,44,71,27,175,41,72,67,229,46,73,26,049,44*60
###2023-12-09 13:24:54.009169$GLGSV,2,2,06,74,63,006,43,75,40,266,47,,,,,,,,*63
###2023-12-09 13:24:54.011502$GAGSV,1,1,04,04,37,311,44,19,76,185,40,21,80,051,45,27,26,049,42*6A
###2023-12-09 13:24:54.013810$GBGSV,2,1,06,14,33,190,41,24,66,041,48,25,48,272,47,26,19,068,43*63
###2023-12-09 13:24:54.015560$GBGSV,2,2,06,33,49,220,48,35,16,060,44,,,,,,,,*6B
###2023-12-09 13:24:54.016874$GNVTG,149.43,T,,M,3.60,N,6.66,K,A*2B
###2023-12-09 13:24:54.018551$GNGST,182453.10,18.000,,,,0.099,0.068,0.160*5F
###2023-12-09 13:24:54.019864$GNZDA,182453.10,09,12,2023,00,00*79
###2023-12-09 13:24:54.020505$GNEBP,,,,,,M*13
###2023-12-09 13:24:54.190724$GNGGA,182453.30,4138.0497636,N,07032.3655434,W,1,24,0.6,13.072,M,-29.744,M,0.0,*55
###2023-12-09 13:24:54.387022$GNGGA,182453.50,4138.0496060,N,07032.3653961,W,1,24,0.6,13.079,M,-29.744,M,0.0,*57
###2023-12-09 13:24:54.587568$GNGGA,182453.70,4138.0494369,N,07032.3652561,W,1,24,0.6,13.086,M,-29.744,M,0.0,*50
###2023-12-09 13:24:54.789238$GNGGA,182453.90,4138.0492662,N,07032.3651182,W,1,24,0.6,13.083,M,-29.744,M,0.0,*59
###2023-12-09 13:24:54.992382$GNRMC,182454.10,A,4138.0490975,N,07032.3649731,W,3.46,146.02,091223,,,A*55
###2023-12-09 13:24:54.995257$GNGGA,182454.10,4138.0490975,N,07032.3649731,W,1,24,0.6,13.085,M,-29.744,M,0.0,*5C
###2023-12-09 13:24:54.997053$GPGSA,A,3,03,04,16,26,28,29,31,,,,,,1.1,0.6,0.9*3A
###2023-12-09 13:24:54.998783$GLGSA,A,3,65,71,72,73,74,75,,,,,,,1.1,0.6,0.9*24
###2023-12-09 13:24:55.000369$GAGSA,A,3,04,19,21,27,,,,,,,,,1.1,0.6,0.9*26
###2023-12-09 13:24:55.002085$GBGSA,A,3,14,24,25,26,33,35,,,,,,,1.1,0.6,0.9*29
###2023-12-09 13:24:55.004431$GPGSV,2,1,07,03,30,251,44,04,42,310,45,16,61,218,46,26,89,050,48*7F
###2023-12-09 13:24:55.006467$GPGSV,2,2,07,28,41,080,44,29,22,051,43,31,63,058,47,,,,*48
###2023-12-09 13:24:55.008805$GLGSV,2,1,06,65,34,322,45,71,27,175,41,72,67,229,46,73,26,049,43*66
###2023-12-09 13:24:55.010592$GLGSV,2,2,06,74,63,006,43,75,40,266,48,,,,,,,,*6C
###2023-12-09 13:24:55.012923$GAGSV,1,1,04,04,37,311,44,19,76,185,40,21,80,051,46,27,26,049,42*69
###2023-12-09 13:24:55.015260$GBGSV,2,1,06,14,33,190,41,24,66,041,47,25,48,272,47,26,19,068,43*6C
###2023-12-09 13:24:55.017006$GBGSV,2,2,06,33,49,220,47,35,16,060,44,,,,,,,,*64
###2023-12-09 13:24:55.018332$GNVTG,146.02,T,,M,3.46,N,6.41,K,A*20
###2023-12-09 13:24:55.020000$GNGST,182454.10,18.000,,,,0.099,0.068,0.160*58
###2023-12-09 13:24:55.021296$GNZDA,182454.10,09,12,2023,00,00*7E
###2023-12-09 13:24:55.021935$GNEBP,,,,,,M*13
###2023-12-09 13:24:55.187393$GNGGA,182454.30,4138.0489308,N,07032.3648242,W,1,24,0.6,13.082,M,-29.744,M,0.0,*51
###2023-12-09 13:24:55.388101$GNGGA,182454.50,4138.0487561,N,07032.3646924,W,1,24,0.6,13.087,M,-29.744,M,0.0,*50
###2023-12-09 13:24:55.587262$GNGGA,182454.70,4138.0485820,N,07032.3645654,W,1,24,0.6,13.086,M,-29.744,M,0.0,*52
###2023-12-09 13:24:55.787901$GNGGA,182454.90,4138.0484111,N,07032.3644328,W,1,24,0.6,13.075,M,-29.744,M,0.0,*55
###2023-12-09 13:24:55.991455$GNRMC,182455.10,A,4138.0482427,N,07032.3643091,W,3.50,154.50,091223,,,A*59
###2023-12-09 13:24:55.994317$GNGGA,182455.10,4138.0482427,N,07032.3643091,W,1,24,0.6,13.088,M,-29.744,M,0.0,*5E
###2023-12-09 13:24:55.996128$GPGSA,A,3,03,04,16,26,28,29,31,,,,,,1.1,0.6,0.9*3A
###2023-12-09 13:24:55.997839$GLGSA,A,3,65,71,72,73,74,75,,,,,,,1.1,0.6,0.9*24
###2023-12-09 13:24:55.999432$GAGSA,A,3,04,19,21,27,,,,,,,,,1.1,0.6,0.9*26
###2023-12-09 13:24:56.001144$GBGSA,A,3,14,24,25,26,33,35,,,,,,,1.1,0.6,0.9*29
###2023-12-09 13:24:56.003480$GPGSV,2,1,07,03,30,251,43,04,42,310,45,16,61,218,45,26,89,050,48*7B
###2023-12-09 13:24:56.005521$GPGSV,2,2,07,28,41,080,43,29,22,051,44,31,63,058,48,,,,*47
###2023-12-09 13:24:56.007855$GLGSV,2,1,06,65,34,322,45,71,27,175,41,72,67,229,46,73,26,049,45*60
###2023-12-09 13:24:56.009596$GLGSV,2,2,06,74,63,006,43,75,40,266,47,,,,,,,,*63
###2023-12-09 13:24:56.011926$GAGSV,1,1,04,04,37,311,44,19,76,185,40,21,80,051,46,27,26,049,43*68
###2023-12-09 13:24:56.014249$GBGSV,2,1,06,14,33,190,41,24,66,041,48,25,48,272,48,26,19,068,45*6A
###2023-12-09 13:24:56.016000$GBGSV,2,2,06,33,49,220,47,35,16,060,45,,,,,,,,*65
###2023-12-09 13:24:56.017318$GNVTG,154.50,T,,M,3.50,N,6.48,K,A*2A
###2023-12-09 13:24:56.018969$GNGST,182455.10,18.000,,,,0.099,0.068,0.160*59
###2023-12-09 13:24:56.020256$GNZDA,182455.10,09,12,2023,00,00*7F
###2023-12-09 13:24:56.020894$GNEBP,,,,,,M*13
###2023-12-09 13:24:56.189065$GNGGA,182455.30,4138.0480639,N,07032.3641877,W,1,24,0.6,13.089,M,-29.744,M,0.0,*50
###2023-12-09 13:24:56.390756$GNGGA,182455.50,4138.0478989,N,07032.3640581,W,1,24,0.6,13.070,M,-29.744,M,0.0,*56
###2023-12-09 13:24:56.589996$GNGGA,182455.70,4138.0477333,N,07032.3639344,W,1,24,0.6,13.096,M,-29.744,M,0.0,*59
###2023-12-09 13:24:56.790056$GNGGA,182455.90,4138.0475569,N,07032.3638115,W,1,24,0.6,13.091,M,-29.744,M,0.0,*5C
###2023-12-09 13:24:57.004466$GNRMC,182456.10,A,4138.0474002,N,07032.3636775,W,3.36,148.93,091223,,,A*5D
###2023-12-09 13:24:57.007343$GNGGA,182456.10,4138.0474002,N,07032.3636775,W,1,24,0.6,13.071,M,-29.744,M,0.0,*5E
###2023-12-09 13:24:57.009124$GPGSA,A,3,03,04,16,26,28,29,31,,,,,,1.1,0.6,0.9*3A
###2023-12-09 13:24:57.010845$GLGSA,A,3,65,71,72,73,74,75,,,,,,,1.1,0.6,0.9*24
###2023-12-09 13:24:57.012429$GAGSA,A,3,04,19,21,27,,,,,,,,,1.1,0.6,0.9*26
###2023-12-09 13:24:57.014131$GBGSA,A,3,14,24,25,26,33,35,,,,,,,1.1,0.6,0.9*29
###2023-12-09 13:24:57.016467$GPGSV,2,1,07,03,30,251,43,04,42,310,45,16,61,218,46,26,89,050,48*78
###2023-12-09 13:24:57.018502$GPGSV,2,2,07,28,41,080,44,29,22,051,45,31,63,058,48,,,,*41
###2023-12-09 13:24:57.020837$GLGSV,2,1,06,65,34,322,44,71,27,175,43,72,67,229,46,73,26,049,46*60
###2023-12-09 13:24:57.022623$GLGSV,2,2,06,74,63,006,43,75,40,266,47,,,,,,,,*63
###2023-12-09 13:24:57.024951$GAGSV,1,1,04,04,37,311,45,19,76,185,40,21,80,051,46,27,26,049,43*69
###2023-12-09 13:24:57.027325$GBGSV,2,1,06,14,33,190,41,24,66,041,49,25,48,272,47,26,19,068,44*65
###2023-12-09 13:24:57.029072$GBGSV,2,2,06,33,49,220,47,35,16,060,44,,,,,,,,*64
###2023-12-09 13:24:57.030388$GNVTG,148.93,T,,M,3.36,N,6.23,K,A*25
###2023-12-09 13:24:57.032042$GNGST,182456.10,18.000,,,,0.099,0.068,0.160*5A
###2023-12-09 13:24:57.033329$GNZDA,182456.10,09,12,2023,00,00*7C
###2023-12-09 13:24:57.033967$GNEBP,,,,,,M*13
###2023-12-09 13:24:57.192202$GNGGA,182456.30,4138.0472291,N,07032.3635484,W,1,24,0.6,13.107,M,-29.744,M,0.0,*5C
###2023-12-09 13:24:57.385850$GNGGA,182456.50,4138.0470678,N,07032.3634016,W,1,24,0.6,13.081,M,-29.744,M,0.0,*5A
###2023-12-09 13:24:57.587423$GNGGA,182456.70,4138.0469238,N,07032.3632508,W,1,24,0.6,13.080,M,-29.744,M,0.0,*5D
###2023-12-09 13:24:57.790283$GNGGA,182456.90,4138.0467563,N,07032.3631067,W,1,24,0.6,13.107,M,-29.744,M,0.0,*55
###2023-12-09 13:24:57.992963$GNRMC,182457.10,A,4138.0466034,N,07032.3629543,W,3.34,141.36,091223,,,A*57
###2023-12-09 13:24:57.995816$GNGGA,182457.10,4138.0466034,N,07032.3629543,W,1,24,0.6,13.082,M,-29.744,M,0.0,*5C
###2023-12-09 13:24:57.997592$GPGSA,A,3,03,04,16,26,28,29,31,,,,,,1.1,0.6,0.9*3A
###2023-12-09 13:24:57.999312$GLGSA,A,3,65,71,72,73,74,75,,,,,,,1.1,0.6,0.9*24
###2023-12-09 13:24:58.000896$GAGSA,A,3,04,19,21,27,,,,,,,,,1.1,0.6,0.9*26
###2023-12-09 13:24:58.002632$GBGSA,A,3,14,24,25,26,33,35,,,,,,,1.1,0.6,0.9*29
###2023-12-09 13:24:58.004951$GPGSV,2,1,07,03,30,251,44,04,42,310,45,16,61,218,46,26,89,050,48*7F
###2023-12-09 13:24:58.006989$GPGSV,2,2,07,28,41,080,44,29,22,051,44,31,63,058,47,,,,*4F
###2023-12-09 13:24:58.009297$GLGSV,2,1,06,65,34,322,45,71,27,175,44,72,67,229,46,73,26,049,45*65
###2023-12-09 13:24:58.011033$GLGSV,2,2,06,74,63,006,43,75,40,266,47,,,,,,,,*63
###2023-12-09 13:24:58.013333$GAGSV,1,1,04,04,37,311,45,19,76,185,40,21,80,051,46,27,26,049,42*68
###2023-12-09 13:24:58.015656$GBGSV,2,1,06,14,33,190,41,24,66,041,48,25,48,272,47,26,19,068,44*64
###2023-12-09 13:24:58.017392$GBGSV,2,2,06,33,49,220,47,35,16,060,44,,,,,,,,*64
###2023-12-09 13:24:58.018762$GNVTG,141.36,T,,M,3.34,N,6.19,K,A*28
###2023-12-09 13:24:58.020661$GNGST,182457.10,18.000,,,,0.099,0.068,0.160*5B
###2023-12-09 13:24:58.021965$GNZDA,182457.10,09,12,2023,00,00*7D
###2023-12-09 13:24:58.022623$GNEBP,,,,,,M*13
###2023-12-09 13:24:58.189335$GNGGA,182457.30,4138.0464521,N,07032.3627998,W,1,24,0.6,13.091,M,-29.744,M,0.0,*5B
###2023-12-09 13:24:58.388015$GNGGA,182457.50,4138.0463009,N,07032.3626379,W,1,24,0.6,13.088,M,-29.744,M,0.0,*59
###2023-12-09 13:24:58.588537$GNGGA,182457.70,4138.0461438,N,07032.3624897,W,1,24,0.6,13.092,M,-29.744,M,0.0,*5D
###2023-12-09 13:24:58.789452$GNGGA,182457.90,4138.0459792,N,07032.3623446,W,1,24,0.6,13.094,M,-29.744,M,0.0,*5A
###2023-12-09 13:24:58.995089$GNRMC,182458.10,A,4138.0458196,N,07032.3622076,W,3.38,150.64,091223,,,A*5F
###2023-12-09 13:24:58.998558$GNGGA,182458.10,4138.0458196,N,07032.3622076,W,1,24,0.6,13.096,M,-29.744,M,0.0,*5A
