###2023-12-09 13:21:00.988238$GNRMC,182100.10,A,4138.0221872,N,07032.3355299,W,2.57,314.86,091223,,,A*5C
###2023-12-09 13:21:00.991122$GNGGA,182100.10,4138.0221872,N,07032.3355299,W,1,24,0.7,12.767,M,-29.745,M,0.0,*57
###2023-12-09 13:21:00.992925$GPGSA,A,3,03,04,16,26,28,29,31,,,,,,1.1,0.7,0.9*3B
###2023-12-09 13:21:00.994654$GLGSA,A,3,65,71,72,73,74,75,,,,,,,1.1,0.7,0.9*25
###2023-12-09 13:21:00.996243$GAGSA,A,3,04,19,21,27,,,,,,,,,1.1,0.7,0.9*27
###2023-12-09 13:21:00.997962$GBGSA,A,3,14,24,25,26,33,35,,,,,,,1.1,0.7,0.9*28
###2023-12-09 13:21:01.000299$GPGSV,2,1,07,03,31,253,43,04,40,310,41,16,59,217,45,26,89,196,48*71
###2023-12-09 13:21:01.002344$GPGSV,2,2,07,28,43,079,45,29,23,053,42,31,64,055,47,,,,*45
###2023-12-09 13:21:01.004689$GLGSV,2,1,06,65,33,323,42,71,30,174,43,72,69,234,46,73,27,048,44*67
###2023-12-09 13:21:01.006441$GLGSV,2,2,06,74,64,002,42,75,39,263,46,,,,,,,,*6B
###2023-12-09 13:21:01.008779$GAGSV,1,1,04,04,35,311,42,19,77,186,41,21,81,055,46,27,27,049,41*69
###2023-12-09 13:21:01.011121$GBGSV,2,1,06,14,35,191,42,24,67,039,48,25,47,270,47,26,20,067,42*60
###2023-12-09 13:21:01.012869$GBGSV,2,2,06,33,51,222,47,35,16,062,42,,,,,,,,*6B
###2023-12-09 13:21:01.014191$GNVTG,314.86,T,,M,2.57,N,4.75,K,A*2D
###2023-12-09 13:21:01.015848$GNGST,182100.10,18.000,,,,0.100,0.072,0.170*57
###2023-12-09 13:21:01.017143$GNZDA,182100.10,09,12,2023,00,00*7A
###2023-12-09 13:21:01.017784$GNEBP,,,,,,M*13
###2023-12-09 13:21:01.190862$GNGGA,182100.30,4138.0222926,N,07032.3356609,W,1,24,0.7,12.777,M,-29.745,M,0.0,*59
###2023-12-09 13:21:01.387232$GNGGA,182100.50,4138.0223996,N,07032.3357870,W,1,24,0.7,12.782,M,-29.745,M,0.0,*5E
###2023-12-09 13:21:01.582976$GNGGA,182100.70,4138.0225080,N,07032.3359112,W,1,24,0.7,12.793,M,-29.745,M,0.0,*57
###2023-12-09 13:21:01.785141$GNGGA,182100.90,4138.0226132,N,07032.3360389,W,1,24,0.7,12.799,M,-29.745,M,0.0,*52
###2023-12-09 13:21:01.987675$GNRMC,182101.10,A,4138.0227192,N,07032.3361707,W,2.60,317.17,091223,,,A*56
###2023-12-09 13:21:01.990534$GNGGA,182101.10,4138.0227192,N,07032.3361707,W,1,24,0.7,12.803,M,-29.745,M,0.0,*5F
###2023-12-09 13:21:01.992333$GPGSA,A,3,03,04,16,26,28,29,31,,,,,,1.1,0.7,0.9*3B
###2023-12-09 13:21:01.994038$GLGSA,A,3,65,71,72,73,74,75,,,,,,,1.1,0.7,0.9*25
###2023-12-09 13:21:01.995634$GAGSA,A,3,04,19,21,27,,,,,,,,,1.1,0.7,0.9*27
###2023-12-09 13:21:01.997344$GBGSA,A,3,14,24,25,26,33,35,,,,,,,1.1,0.7,0.9*28
###2023-12-09 13:21:01.999669$GPGSV,2,1,07,03,31,253,43,04,40,310,41,16,59,217,47,26,89,196,48*73
###2023-12-09 13:21:02.001708$GPGSV,2,2,07,28,43,079,45,29,23,053,43,31,64,055,47,,,,*44
###2023-12-09 13:21:02.004068$GLGSV,2,1,06,65,33,323,41,71,30,174,43,72,69,234,46,73,27,048,44*64
###2023-12-09 13:21:02.005824$GLGSV,2,2,06,74,64,002,42,75,39,263,45,,,,,,,,*68
###2023-12-09 13:21:02.008151$GAGSV,1,1,04,04,35,311,42,19,77,186,41,21,81,055,46,27,27,049,41*69
###2023-12-09 13:21:02.010471$GBGSV,2,1,06,14,35,191,44,24,67,039,49,25,47,270,47,26,20,067,43*66
###2023-12-09 13:21:02.012226$GBGSV,2,2,06,33,51,222,49,35,16,062,43,,,,,,,,*64
###2023-12-09 13:21:02.013543$GNVTG,317.17,T,,M,2.60,N,4.82,K,A*2A
###2023-12-09 13:21:02.015191$GNGST,182101.10,18.000,,,,0.100,0.072,0.170*56
###2023-12-09 13:21:02.016480$GNZDA,182101.10,09,12,2023,00,00*7B
###2023-12-09 13:21:02.017119$GNEBP,,,,,,M*13
###2023-12-09 13:21:02.190014$GNGGA,182101.30,4138.0228254,N,07032.3363026,W,1,24,0.7,12.812,M,-29.745,M,0.0,*5D
###2023-12-09 13:21:02.382884$GNGGA,182101.50,4138.0229330,N,07032.3364380,W,1,24,0.7,12.818,M,-29.745,M,0.0,*5B
###2023-12-09 13:21:02.583447$GNGGA,182101.70,4138.0230420,N,07032.3365772,W,1,24,0.7,12.821,M,-29.745,M,0.0,*55
###2023-12-09 13:21:02.783638$GNGGA,182101.90,4138.0231513,N,07032.3367212,W,1,24,0.7,12.827,M,-29.745,M,0.0,*5C
###2023-12-09 13:21:02.988755$GNRMC,182102.10,A,4138.0232631,N,07032.3368682,W,2.84,315.11,091223,,,A*54
###2023-12-09 13:21:02.991618$GNGGA,182102.10,4138.0232631,N,07032.3368682,W,1,24,0.7,12.831,M,-29.745,M,0.0,*52
###2023-12-09 13:21:02.993401$GPGSA,A,3,03,04,16,26,28,29,31,,,,,,1.1,0.7,0.9*3B
###2023-12-09 13:21:02.995121$GLGSA,A,3,65,71,72,73,74,75,,,,,,,1.1,0.7,0.9*25
###2023-12-09 13:21:02.996705$GAGSA,A,3,04,19,21,27,,,,,,,,,1.1,0.7,0.9*27
###2023-12-09 13:21:02.998408$GBGSA,A,3,14,24,25,26,33,35,,,,,,,1.1,0.7,0.9*28
###2023-12-09 13:21:03.000737$GPGSV,2,1,07,03,31,253,42,04,40,310,41,16,59,217,46,26,89,196,48*73
###2023-12-09 13:21:03.002792$GPGSV,2,2,07,28,43,079,44,29,23,053,42,31,64,055,47,,,,*44
###2023-12-09 13:21:03.005135$GLGSV,2,1,06,65,33,323,42,71,30,174,42,72,69,234,46,73,27,048,44*66
###2023-12-09 13:21:03.006894$GLGSV,2,2,06,74,64,002,42,75,39,263,46,,,,,,,,*6B
###2023-12-09 13:21:03.009209$GAGSV,1,1,04,04,35,311,42,19,77,186,41,21,81,055,46,27,27,049,42*6A
###2023-12-09 13:21:03.011546$GBGSV,2,1,06,14,35,191,44,24,67,039,49,25,47,270,47,26,20,067,43*66
###2023-12-09 13:21:03.013295$GBGSV,2,2,06,33,51,222,49,35,16,062,43,,,,,,,,*64
###2023-12-09 13:21:03.014635$GNVTG,315.11,T,,M,2.84,N,5.26,K,A*2B
###2023-12-09 13:21:03.016283$GNGST,182102.10,18.000,,,,0.100,0.072,0.170*55
###2023-12-09 13:21:03.017567$GNZDA,182102.10,09,12,2023,00,00*78
###2023-12-09 13:21:03.018205$GNEBP,,,,,,M*13
###2023-12-09 13:21:03.184998$GNGGA,182102.30,4138.0233785,N,07032.3370154,W,1,24,0.7,12.839,M,-29.745,M,0.0,*52
###2023-12-09 13:21:03.381629$GNGGA,182102.50,4138.0234938,N,07032.3371646,W,1,24,0.7,12.846,M,-29.745,M,0.0,*56
###2023-12-09 13:21:03.588429$GNGGA,182102.70,4138.0236088,N,07032.3373206,W,1,24,0.7,12.844,M,-29.745,M,0.0,*54
###2023-12-09 13:21:03.785349$GNGGA,182102.90,4138.0237242,N,07032.3374779,W,1,24,0.7,12.850,M,-29.745,M,0.0,*50
###2023-12-09 13:21:03.990583$GNRMC,182103.10,A,4138.0238360,N,07032.3376391,W,3.01,312.80,091223,,,A*55
###2023-12-09 13:21:03.993458$GNGGA,182103.10,4138.0238360,N,07032.3376391,W,1,24,0.7,12.860,M,-29.745,M,0.0,*54
###2023-12-09 13:21:03.995274$GPGSA,A,3,03,04,16,26,28,29,31,,,,,,1.1,0.7,0.9*3B
###2023-12-09 13:21:03.996987$GLGSA,A,3,65,71,72,73,74,75,,,,,,,1.1,0.7,0.9*25
###2023-12-09 13:21:03.998575$GAGSA,A,3,04,19,21,27,,,,,,,,,1.1,0.7,0.9*27
###2023-12-09 13:21:04.000279$GBGSA,A,3,14,24,25,26,33,35,,,,,,,1.1,0.7,0.9*28
###2023-12-09 13:21:04.002598$GPGSV,2,1,07,03,30,252,43,04,40,310,41,16,59,217,46,26,89,196,48*72
###2023-12-09 13:21:04.004619$GPGSV,2,2,07,28,43,079,45,29,23,053,42,31,64,055,47,,,,*45
###2023-12-09 13:21:04.006943$GLGSV,2,1,06,65,33,323,41,71,30,174,43,72,69,234,46,73,27,048,44*64
###2023-12-09 13:21:04.008685$GLGSV,2,2,06,74,64,002,42,75,39,263,47,,,,,,,,*6A
###2023-12-09 13:21:04.011007$GAGSV,1,1,04,04,35,311,42,19,77,186,41,21,81,055,46,27,27,049,42*6A
###2023-12-09 13:21:04.013332$GBGSV,2,1,06,14,35,191,43,24,67,039,49,25,47,270,46,26,20,067,41*62
###2023-12-09 13:21:04.015087$GBGSV,2,2,06,33,51,222,48,35,16,062,42,,,,,,,,*64
###2023-12-09 13:21:04.016404$GNVTG,312.80,T,,M,3.01,N,5.58,K,A*21
###2023-12-09 13:21:04.018083$GNGST,182103.10,18.000,,,,0.100,0.072,0.170*54
###2023-12-09 13:21:04.019385$GNZDA,182103.10,09,12,2023,00,00*79
###2023-12-09 13:21:04.020023$GNEBP,,,,,,M*13
###2023-12-09 13:21:04.186414$GNGGA,182103.30,4138.0239489,N,07032.3378030,W,1,24,0.7,12.859,M,-29.745,M,0.0,*5B
###2023-12-09 13:21:04.382719$GNGGA,182103.50,4138.0240548,N,07032.3379724,W,1,24,0.7,12.862,M,-29.745,M,0.0,*54
###2023-12-09 13:21:04.584017$GNGGA,182103.70,4138.0241563,N,07032.3381477,W,1,24,0.7,12.866,M,-29.745,M,0.0,*58
###2023-12-09 13:21:04.783771$GNGGA,182103.90,4138.0242570,N,07032.3383271,W,1,24,0.7,12.868,M,-29.745,M,0.0,*5B
###2023-12-09 13:21:04.987190$GNRMC,182104.10,A,4138.0243528,N,07032.3385105,W,3.07,302.81,091223,,,A*51
###2023-12-09 13:21:04.990059$GNGGA,182104.10,4138.0243528,N,07032.3385105,W,1,24,0.7,12.873,M,-29.745,M,0.0,*54
###2023-12-09 13:21:04.991878$GPGSA,A,3,03,04,16,26,28,29,31,,,,,,1.1,0.7,0.9*3B
###2023-12-09 13:21:04.993588$GLGSA,A,3,65,71,72,73,74,75,,,,,,,1.1,0.7,0.9*25
###2023-12-09 13:21:04.995177$GAGSA,A,3,04,19,21,27,,,,,,,,,1.1,0.7,0.9*27
###2023-12-09 13:21:04.996891$GBGSA,A,3,14,24,25,26,33,35,,,,,,,1.1,0.7,0.9*28
###2023-12-09 13:21:04.999223$GPGSV,2,1,07,03,30,252,42,04,41,310,42,16,59,217,46,26,89,196,48*71
###2023-12-09 13:21:05.001480$GPGSV,2,2,07,28,43,079,43,29,23,053,42,31,64,055,47,,,,*43
###2023-12-09 13:21:05.003829$GLGSV,2,1,06,65,33,323,41,71,30,174,44,72,69,234,46,73,27,048,44*63
###2023-12-09 13:21:05.005586$GLGSV,2,2,06,74,64,002,42,75,39,263,46,,,,,,,,*6B
###2023-12-09 13:21:05.007915$GAGSV,1,1,04,04,35,311,41,19,77,186,40,21,81,055,45,27,27,049,41*68
###2023-12-09 13:21:05.010271$GBGSV,2,1,06,14,35,191,45,24,67,039,49,25,47,270,46,26,20,067,42*67
###2023-12-09 13:21:05.012025$GBGSV,2,2,06,33,51,222,47,35,16,062,42,,,,,,,,*6B
###2023-12-09 13:21:05.013351$GNVTG,302.81,T,,M,3.07,N,5.69,K,A*25
###2023-12-09 13:21:05.015003$GNGST,182104.10,18.000,,,,0.100,0.071,0.170*50
###2023-12-09 13:21:05.016288$GNZDA,182104.10,09,12,2023,00,00*7E
