###2023-12-09 13:30:41.790304$GNGGA,183040.90,4138.0345140,N,07032.4132554,W,1,22,0.7,12.601,M,-29.745,M,0.0,*55
###2023-12-09 13:30:41.989995$GNRMC,183041.10,A,4138.0345088,N,07032.4132659,W,0.33,94.14,091223,,,A*6B
###2023-12-09 13:30:41.992902$GNGGA,183041.10,4138.0345088,N,07032.4132659,W,1,22,0.7,12.622,M,-29.745,M,0.0,*56
###2023-12-09 13:30:41.994711$GPGSA,A,3,03,04,16,26,28,29,31,,,,,,1.2,0.7,0.9*38
###2023-12-09 13:30:41.996361$GLGSA,A,3,65,72,73,74,75,,,,,,,,1.2,0.7,0.9*20
###2023-12-09 13:30:41.997940$GAGSA,A,3,04,19,21,27,,,,,,,,,1.2,0.7,0.9*24
###2023-12-09 13:30:41.999597$GBGSA,A,3,24,25,26,33,35,,,,,,,,1.2,0.7,0.9*2E
###2023-12-09 13:30:42.001920$GPGSV,2,1,07,03,28,248,38,04,44,309,46,16,64,220,44,26,86,041,48*7B
###2023-12-09 13:30:42.003974$GPGSV,2,2,07,28,39,083,44,29,21,049,43,31,61,063,47,,,,*44
###2023-12-09 13:30:42.006304$GLGSV,2,1,05,65,37,320,43,72,65,224,45,73,24,051,43,74,61,011,43*63
###2023-12-09 13:30:42.007767$GLGSV,2,2,05,75,42,269,47,,,,,,,,,,,,*5A
###2023-12-09 13:30:42.010085$GAGSV,1,1,04,04,38,310,46,19,74,182,40,21,78,047,46,27,24,050,42*6A
###2023-12-09 13:30:42.012426$GBGSV,2,1,05,24,64,044,49,25,50,275,46,26,17,070,44,33,47,218,45*68
###2023-12-09 13:30:42.013887$GBGSV,2,2,05,35,16,058,45,,,,,,,,,,,,*53
###2023-12-09 13:30:42.015190$GNVTG,94.14,T,,M,0.33,N,0.61,K,A*1C
###2023-12-09 13:30:42.016833$GNGST,183041.10,19.000,,,,0.140,0.080,0.210*5F
###2023-12-09 13:30:42.018121$GNZDA,183041.10,09,12,2023,00,00*7F
###2023-12-09 13:30:42.018770$GNEBP,,,,,,M*13
###2023-12-09 13:30:42.189667$GNGGA,183041.30,4138.0345045,N,07032.4132782,W,1,22,0.7,12.623,M,-29.745,M,0.0,*53
###2023-12-09 13:30:42.387596$GNGGA,183041.50,4138.0344973,N,07032.4132782,W,1,22,0.7,12.605,M,-29.745,M,0.0,*5C
###2023-12-09 13:30:42.592595$GNGGA,183041.70,4138.0344945,N,07032.4132868,W,1,22,0.7,12.618,M,-29.745,M,0.0,*5C
###2023-12-09 13:30:42.788586$GNGGA,183041.90,4138.0344910,N,07032.4133092,W,1,22,0.7,12.641,M,-29.745,M,0.0,*52
###2023-12-09 13:30:42.990736$GNRMC,183042.10,A,4138.0344891,N,07032.4133253,W,0.16,94.14,091223,,,A*61
###2023-12-09 13:30:42.993606$GNGGA,183042.10,4138.0344891,N,07032.4133253,W,1,22,0.7,12.652,M,-29.745,M,0.0,*5C
###2023-12-09 13:30:42.995412$GPGSA,A,3,03,04,16,26,28,29,31,,,,,,1.2,0.7,0.9*38
###2023-12-09 13:30:42.997067$GLGSA,A,3,65,72,73,74,75,,,,,,,,1.2,0.7,0.9*20
###2023-12-09 13:30:42.998662$GAGSA,A,3,04,19,21,27,,,,,,,,,1.2,0.7,0.9*24
###2023-12-09 13:30:43.000304$GBGSA,A,3,24,25,26,33,35,,,,,,,,1.2,0.7,0.9*2E
###2023-12-09 13:30:43.002637$GPGSV,2,1,07,03,28,248,37,04,44,309,47,16,64,220,48,26,86,041,50*70
###2023-12-09 13:30:43.004680$GPGSV,2,2,07,28,39,083,45,29,21,049,43,31,61,063,48,,,,*4A
###2023-12-09 13:30:43.007008$GLGSV,2,1,05,65,37,320,44,72,65,224,45,73,24,051,44,74,61,011,43*63
###2023-12-09 13:30:43.008462$GLGSV,2,2,05,75,42,269,47,,,,,,,,,,,,*5A
###2023-12-09 13:30:43.010791$GAGSV,1,1,04,04,38,310,47,19,74,182,41,21,78,047,48,27,24,050,42*64
###2023-12-09 13:30:43.013134$GBGSV,2,1,05,24,64,044,48,25,50,275,47,26,17,070,43,33,47,218,45*6F
###2023-12-09 13:30:43.014597$GBGSV,2,2,05,35,16,058,44,,,,,,,,,,,,*52
###2023-12-09 13:30:43.015881$GNVTG,94.14,T,,M,0.16,N,0.29,K,A*17
###2023-12-09 13:30:43.017522$GNGST,183042.10,19.000,,,,0.140,0.080,0.210*5C
###2023-12-09 13:30:43.018851$GNZDA,183042.10,09,12,2023,00,00*7C
###2023-12-09 13:30:43.019495$GNEBP,,,,,,M*13
###2023-12-09 13:30:43.188441$GNGGA,183042.30,4138.0344868,N,07032.4133265,W,1,22,0.7,12.650,M,-29.745,M,0.0,*5F
###2023-12-09 13:30:43.387680$GNGGA,183042.50,4138.0344815,N,07032.4133260,W,1,22,0.7,12.639,M,-29.745,M,0.0,*59
###2023-12-09 13:30:43.587772$GNGGA,183042.70,4138.0344763,N,07032.4133419,W,1,22,0.7,12.640,M,-29.745,M,0.0,*53
###2023-12-09 13:30:43.787672$GNGGA,183042.90,4138.0344763,N,07032.4133742,W,1,22,0.7,12.659,M,-29.745,M,0.0,*58
###2023-12-09 13:30:43.990590$GNRMC,183043.10,A,4138.0344789,N,07032.4134010,W,0.25,94.14,091223,,,A*64
###2023-12-09 13:30:43.993456$GNGGA,183043.10,4138.0344789,N,07032.4134010,W,1,22,0.7,12.684,M,-29.745,M,0.0,*52
###2023-12-09 13:30:43.995262$GPGSA,A,3,03,04,16,26,28,29,31,,,,,,1.2,0.7,0.9*38
###2023-12-09 13:30:43.996909$GLGSA,A,3,65,72,73,74,75,,,,,,,,1.2,0.7,0.9*20
###2023-12-09 13:30:43.998487$GAGSA,A,3,04,19,21,27,,,,,,,,,1.2,0.7,0.9*24
###2023-12-09 13:30:44.000143$GBGSA,A,3,24,25,26,33,35,,,,,,,,1.2,0.7,0.9*2E
###2023-12-09 13:30:44.002467$GPGSV,2,1,07,03,28,248,38,04,44,309,48,16,64,220,47,26,86,041,49*77
###2023-12-09 13:30:44.004514$GPGSV,2,2,07,28,39,083,46,29,21,049,43,31,61,063,48,,,,*49
###2023-12-09 13:30:44.006849$GLGSV,2,1,05,65,37,320,44,72,65,224,46,73,24,051,42,74,61,011,43*66
###2023-12-09 13:30:44.008301$GLGSV,2,2,05,75,42,269,48,,,,,,,,,,,,*55
###2023-12-09 13:30:44.010622$GAGSV,1,1,04,04,38,310,46,19,74,182,41,21,78,047,46,27,24,050,41*68
###2023-12-09 13:30:44.012944$GBGSV,2,1,05,24,64,044,47,25,50,275,48,26,17,070,44,33,47,218,46*6B
###2023-12-09 13:30:44.014387$GBGSV,2,2,05,35,16,058,43,,,,,,,,,,,,*55
###2023-12-09 13:30:44.015678$GNVTG,94.14,T,,M,0.25,N,0.47,K,A*1F
###2023-12-09 13:30:44.017317$GNGST,183043.10,19.000,,,,0.140,0.079,0.210*5B
###2023-12-09 13:30:44.018641$GNZDA,183043.10,09,12,2023,00,00*7D
###2023-12-09 13:30:44.019283$GNEBP,,,,,,M*13
###2023-12-09 13:30:44.188434$GNGGA,183043.30,4138.0344763,N,07032.4134009,W,1,22,0.7,12.680,M,-29.745,M,0.0,*58
###2023-12-09 13:30:44.386803$GNGGA,183043.50,4138.0344736,N,07032.4133888,W,1,21,0.9,12.665,M,-29.745,M,0.0,*5E
###2023-12-09 13:30:44.587873$GNGGA,183043.70,4138.0344738,N,07032.4134113,W,1,21,0.9,12.683,M,-29.745,M,0.0,*56
###2023-12-09 13:30:44.787504$GNGGA,183043.90,4138.0344744,N,07032.4134675,W,1,21,0.9,12.706,M,-29.745,M,0.0,*58
###2023-12-09 13:30:44.994300$GNRMC,183044.10,A,4138.0344759,N,07032.4135032,W,0.19,94.14,091223,,,A*60
###2023-12-09 13:30:44.997197$GNGGA,183044.10,4138.0344759,N,07032.4135032,W,1,21,0.9,12.712,M,-29.745,M,0.0,*5A
###2023-12-09 13:30:44.999008$GPGSA,A,3,03,04,16,26,28,29,31,,,,,,1.4,0.9,1.1*39
###2023-12-09 13:30:45.000665$GLGSA,A,3,65,72,73,74,75,,,,,,,,1.4,0.9,1.1*21
###2023-12-09 13:30:45.002259$GAGSA,A,3,04,19,21,27,,,,,,,,,1.4,0.9,1.1*25
###2023-12-09 13:30:45.003924$GBGSA,A,3,24,25,26,33,35,,,,,,,,1.4,0.9,1.1*2F
###2023-12-09 13:30:45.006263$GPGSV,2,1,07,03,28,248,38,04,44,309,47,16,64,220,45,26,86,041,48*7B
###2023-12-09 13:30:45.008328$GPGSV,2,2,07,28,39,083,46,29,21,049,42,31,61,063,48,,,,*48
###2023-12-09 13:30:45.010684$GLGSV,2,1,05,65,37,320,43,72,64,223,46,73,24,051,41,74,61,011,43*64
###2023-12-09 13:30:45.012148$GLGSV,2,2,05,75,42,269,48,,,,,,,,,,,,*55
###2023-12-09 13:30:45.014479$GAGSV,1,1,04,04,38,310,46,19,74,182,40,21,78,047,46,27,24,050,40*68
###2023-12-09 13:30:45.016826$GBGSV,2,1,05,24,64,044,48,25,50,275,49,26,17,070,42,33,47,218,47*62
###2023-12-09 13:30:45.018284$GBGSV,2,2,05,35,16,058,44,,,,,,,,,,,,*52
###2023-12-09 13:30:45.019587$GNVTG,94.14,T,,M,0.19,N,0.36,K,A*16
###2023-12-09 13:30:45.021202$GNGST,183044.10,5.000,,,,0.140,0.078,0.210*60
###2023-12-09 13:30:45.022498$GNZDA,183044.10,09,12,2023,00,00*7A
###2023-12-09 13:30:45.023148$GNEBP,,,,,,M*13
###2023-12-09 13:30:45.196409$GNGGA,183044.30,4138.0344737,N,07032.4134927,W,1,21,0.9,12.702,M,-29.745,M,0.0,*5D
###2023-12-09 13:30:45.388319$GNGGA,183044.50,4138.0344703,N,07032.4134743,W,1,21,0.9,12.682,M,-29.745,M,0.0,*59
###2023-12-09 13:30:45.588879$GNGGA,183044.70,4138.0344714,N,07032.4135146,W,1,21,0.9,12.699,M,-29.745,M,0.0,*55
###2023-12-09 13:30:45.788934$GNGGA,183044.90,4138.0344713,N,07032.4135816,W,1,21,0.9,12.719,M,-29.745,M,0.0,*59
###2023-12-09 13:30:45.991514$GNRMC,183045.10,A,4138.0344689,N,07032.4136129,W,0.10,268.88,091223,,,A*58
###2023-12-09 13:30:45.994384$GNGGA,183045.10,4138.0344689,N,07032.4136129,W,1,21,0.9,12.727,M,-29.745,M,0.0,*59
###2023-12-09 13:30:45.996193$GPGSA,A,3,03,04,16,26,28,29,31,,,,,,1.4,0.9,1.1*39
###2023-12-09 13:30:45.997842$GLGSA,A,3,65,72,73,74,75,,,,,,,,1.4,0.9,1.1*21
###2023-12-09 13:30:45.999441$GAGSA,A,3,04,19,21,27,,,,,,,,,1.4,0.9,1.1*25
###2023-12-09 13:30:46.001092$GBGSA,A,3,24,25,26,33,35,,,,,,,,1.4,0.9,1.1*2F
###2023-12-09 13:30:46.003457$GPGSV,2,1,07,03,28,248,39,04,44,309,48,16,64,220,47,26,86,041,48*77
###2023-12-09 13:30:46.005776$GPGSV,2,2,07,28,39,083,45,29,21,049,43,31,61,063,46,,,,*44
###2023-12-09 13:30:46.008145$GLGSV,2,1,05,65,37,320,44,72,64,223,46,73,23,051,39,74,61,011,43*6B
###2023-12-09 13:30:46.009611$GLGSV,2,2,05,75,42,269,48,,,,,,,,,,,,*55
###2023-12-09 13:30:46.011958$GAGSV,1,1,04,04,38,310,44,19,74,182,40,21,78,047,45,27,24,050,40*69
###2023-12-09 13:30:46.014297$GBGSV,2,1,05,24,64,044,49,25,50,275,49,26,17,070,40,33,47,218,48*6E
###2023-12-09 13:30:46.015771$GBGSV,2,2,05,35,16,058,44,,,,,,,,,,,,*52
###2023-12-09 13:30:46.017099$GNVTG,268.88,T,,M,0.10,N,0.18,K,A*27
###2023-12-09 13:30:46.018733$GNGST,183045.10,5.700,,,,0.140,0.078,0.210*66
