###2023-12-09 13:33:47.026446$GNGST,183346.10,5.700,,,,0.088,0.066,0.150*6B
###2023-12-09 13:33:47.027791$GNZDA,183346.10,09,12,2023,00,00*7B
###2023-12-09 13:33:47.028438$GNEBP,,,,,,M*13
###2023-12-09 13:33:47.194725$GNGGA,183346.30,4138.0481020,N,07032.4149142,W,1,26,0.6,13.560,M,-29.745,M,0.0,*5D
###2023-12-09 13:33:47.394531$GNGGA,183346.50,4138.0479333,N,07032.4149267,W,1,26,0.6,13.561,M,-29.745,M,0.0,*58
###2023-12-09 13:33:47.596957$GNGGA,183346.70,4138.0477650,N,07032.4149429,W,1,27,0.6,13.550,M,-29.745,M,0.0,*5B
###2023-12-09 13:33:47.795388$GNGGA,183346.90,4138.0476095,N,07032.4149849,W,1,27,0.6,13.546,M,-29.745,M,0.0,*56
###2023-12-09 13:33:47.998230$GNRMC,183347.10,A,4138.0474537,N,07032.4150348,W,2.92,192.71,091223,,,A*56
###2023-12-09 13:33:48.001716$GNGGA,183347.10,4138.0474537,N,07032.4150348,W,1,27,0.6,13.552,M,-29.745,M,0.0,*57
###2023-12-09 13:33:48.003988$GPGSA,A,3,03,04,16,26,27,28,29,31,,,,,1.0,0.6,0.8*3F
###2023-12-09 13:33:48.006144$GLGSA,A,3,65,71,72,73,74,75,83,,,,,,1.0,0.6,0.8*2F
###2023-12-09 13:33:48.008078$GAGSA,A,3,04,19,21,27,,,,,,,,,1.0,0.6,0.8*26
###2023-12-09 13:33:48.010227$GBGSA,A,3,12,14,24,25,26,33,35,,,,,,1.0,0.6,0.8*2A
###2023-12-09 13:33:48.013062$GPGSV,2,1,08,03,27,247,38,04,46,308,45,16,66,222,46,26,84,040,47*7A
###2023-12-09 13:33:48.015887$GPGSV,2,2,08,27,16,172,38,28,38,084,44,29,21,047,43,31,59,066,47*70
###2023-12-09 13:33:48.018719$GLGSV,2,1,07,65,38,319,43,71,23,175,39,72,63,222,45,73,23,052,43*6D
###2023-12-09 13:33:48.021178$GLGSV,2,2,07,74,60,013,42,75,43,271,45,83,15,048,36,,,,*55
###2023-12-09 13:33:48.024022$GAGSV,1,1,04,04,40,310,44,19,73,182,40,21,77,047,45,27,23,050,41*68
###2023-12-09 13:33:48.026846$GBGSV,2,1,07,12,15,126,42,14,29,190,42,24,63,045,49,25,50,275,48*6A
###2023-12-09 13:33:48.029315$GBGSV,2,2,07,26,16,070,44,33,46,217,45,35,16,057,45,,,,*5D
###2023-12-09 13:33:48.030926$GNVTG,192.71,T,,M,2.92,N,5.40,K,A*27
###2023-12-09 13:33:48.032868$GNGST,183347.10,6.000,,,,0.089,0.067,0.150*6E
###2023-12-09 13:33:48.034426$GNZDA,183347.10,09,12,2023,00,00*7A
###2023-12-09 13:33:48.035205$GNEBP,,,,,,M*13
###2023-12-09 13:33:48.196364$GNGGA,183347.30,4138.0472958,N,07032.4150776,W,1,27,0.6,13.531,M,-29.745,M,0.0,*5A
###2023-12-09 13:33:48.393431$GNGGA,183347.50,4138.0471510,N,07032.4151431,W,1,27,0.6,13.533,M,-29.745,M,0.0,*5C
###2023-12-09 13:33:48.594139$GNGGA,183347.70,4138.0470103,N,07032.4152270,W,1,27,0.6,13.552,M,-29.745,M,0.0,*5E
###2023-12-09 13:33:48.794749$GNGGA,183347.90,4138.0468689,N,07032.4153040,W,1,27,0.6,13.542,M,-29.745,M,0.0,*5D
###2023-12-09 13:33:48.998646$GNRMC,183348.10,A,4138.0467271,N,07032.4153776,W,2.74,202.15,091223,,,A*54
###2023-12-09 13:33:49.001504$GNGGA,183348.10,4138.0467271,N,07032.4153776,W,1,27,0.6,13.527,M,-29.745,M,0.0,*57
###2023-12-09 13:33:49.003378$GPGSA,A,3,03,04,16,26,27,28,29,31,,,,,1.0,0.6,0.8*3F
###2023-12-09 13:33:49.005155$GLGSA,A,3,65,71,72,73,74,75,83,,,,,,1.0,0.6,0.8*2F
###2023-12-09 13:33:49.006742$GAGSA,A,3,04,19,21,27,,,,,,,,,1.0,0.6,0.8*26
###2023-12-09 13:33:49.008510$GBGSA,A,3,12,14,24,25,26,33,35,,,,,,1.0,0.6,0.8*2A
###2023-12-09 13:33:49.010838$GPGSV,2,1,08,03,27,247,38,04,46,308,45,16,66,222,45,26,84,040,48*76
###2023-12-09 13:33:49.013150$GPGSV,2,2,08,27,16,172,37,28,38,084,43,29,21,047,42,31,59,066,47*79
###2023-12-09 13:33:49.015473$GLGSV,2,1,07,65,38,319,43,71,23,175,41,72,63,222,45,73,23,052,44*65
###2023-12-09 13:33:49.017503$GLGSV,2,2,07,74,60,013,42,75,43,271,45,83,15,048,36,,,,*55
###2023-12-09 13:33:49.019828$GAGSV,1,1,04,04,40,310,44,19,73,182,40,21,77,047,46,27,23,050,41*6B
###2023-12-09 13:33:49.022146$GBGSV,2,1,07,12,15,126,41,14,29,190,41,24,63,045,48,25,50,275,47*64
###2023-12-09 13:33:49.024186$GBGSV,2,2,07,26,16,070,45,33,46,217,43,35,16,057,45,,,,*5A
###2023-12-09 13:33:49.025509$GNVTG,202.15,T,,M,2.74,N,5.08,K,A*2B
###2023-12-09 13:33:49.027127$GNGST,183348.10,6.000,,,,0.089,0.067,0.150*61
###2023-12-09 13:33:49.028414$GNZDA,183348.10,09,12,2023,00,00*75
###2023-12-09 13:33:49.029049$GNEBP,,,,,,M*13
###2023-12-09 13:33:49.194909$GNGGA,183348.30,4138.0465875,N,07032.4154598,W,1,27,0.6,13.533,M,-29.745,M,0.0,*59
###2023-12-09 13:33:49.395045$GNGGA,183348.50,4138.0464541,N,07032.4155608,W,1,27,0.6,13.552,M,-29.745,M,0.0,*58
###2023-12-09 13:33:49.594443$GNGGA,183348.70,4138.0463259,N,07032.4156643,W,1,26,0.6,13.554,M,-29.745,M,0.0,*58
###2023-12-09 13:33:49.794731$GNGGA,183348.90,4138.0461891,N,07032.4157511,W,1,26,0.6,13.538,M,-29.745,M,0.0,*55
###2023-12-09 13:33:49.998737$GNRMC,183349.10,A,4138.0460502,N,07032.4158288,W,2.76,203.88,091223,,,A*59
###2023-12-09 13:33:50.001583$GNGGA,183349.10,4138.0460502,N,07032.4158288,W,1,26,0.6,13.530,M,-29.745,M,0.0,*5A
###2023-12-09 13:33:50.003381$GPGSA,A,3,03,04,16,26,28,29,31,,,,,,1.0,0.6,0.9*3B
###2023-12-09 13:33:50.005162$GLGSA,A,3,65,71,72,73,74,75,83,,,,,,1.0,0.6,0.9*2E
###2023-12-09 13:33:50.006746$GAGSA,A,3,04,19,21,27,,,,,,,,,1.0,0.6,0.9*27
###2023-12-09 13:33:50.008514$GBGSA,A,3,12,14,24,25,26,33,35,,,,,,1.0,0.6,0.9*2B
###2023-12-09 13:33:50.010846$GPGSV,2,1,07,03,27,247,40,04,46,308,45,16,66,222,45,26,84,040,48*76
###2023-12-09 13:33:50.012887$GPGSV,2,2,07,28,38,084,44,29,21,047,43,31,59,066,47,,,,*42
###2023-12-09 13:33:50.015215$GLGSV,2,1,07,65,38,319,43,71,23,175,40,72,63,222,45,73,23,052,45*65
###2023-12-09 13:33:50.017246$GLGSV,2,2,07,74,60,013,42,75,43,271,45,83,15,048,36,,,,*55
###2023-12-09 13:33:50.019572$GAGSV,1,1,04,04,40,310,44,19,73,182,40,21,77,047,46,27,23,050,41*6B
###2023-12-09 13:33:50.021893$GBGSV,2,1,07,12,15,126,43,14,29,190,41,24,63,045,48,25,50,275,46*67
###2023-12-09 13:33:50.023939$GBGSV,2,2,07,26,16,070,44,33,46,217,46,35,16,057,46,,,,*5D
###2023-12-09 13:33:50.025263$GNVTG,203.88,T,,M,2.76,N,5.11,K,A*24
###2023-12-09 13:33:50.026885$GNGST,183349.10,5.800,,,,0.091,0.068,0.150*6D
###2023-12-09 13:33:50.028168$GNZDA,183349.10,09,12,2023,00,00*74
###2023-12-09 13:33:50.028806$GNEBP,,,,,,M*13
###2023-12-09 13:33:50.193684$GNGGA,183349.30,4138.0459162,N,07032.4159211,W,1,26,0.6,13.537,M,-29.745,M,0.0,*56
###2023-12-09 13:33:50.393808$GNGGA,183349.50,4138.0457872,N,07032.4160231,W,1,26,0.6,13.557,M,-29.745,M,0.0,*58
###2023-12-09 13:33:50.595983$GNGGA,183349.70,4138.0456552,N,07032.4161192,W,1,26,0.6,13.566,M,-29.745,M,0.0,*5D
###2023-12-09 13:33:50.794676$GNGGA,183349.90,4138.0455199,N,07032.4161966,W,1,26,0.6,13.553,M,-29.745,M,0.0,*56
###2023-12-09 13:33:50.999474$GNRMC,183350.10,A,4138.0453822,N,07032.4162581,W,2.68,197.07,091223,,,A*5F
###2023-12-09 13:33:51.002347$GNGGA,183350.10,4138.0453822,N,07032.4162581,W,1,26,0.6,13.518,M,-29.745,M,0.0,*50
###2023-12-09 13:33:51.004162$GPGSA,A,3,03,04,16,26,28,29,31,,,,,,1.0,0.6,0.9*3B
###2023-12-09 13:33:51.005950$GLGSA,A,3,65,71,72,73,74,75,83,,,,,,1.0,0.6,0.9*2E
###2023-12-09 13:33:51.007552$GAGSA,A,3,04,19,21,27,,,,,,,,,1.0,0.6,0.9*27
###2023-12-09 13:33:51.009330$GBGSA,A,3,12,14,24,25,26,33,35,,,,,,1.0,0.6,0.9*2B
###2023-12-09 13:33:51.011675$GPGSV,2,1,07,03,27,247,38,04,46,308,45,16,66,222,45,26,84,040,48*79
###2023-12-09 13:33:51.013720$GPGSV,2,2,07,28,38,084,45,29,21,047,44,31,59,066,48,,,,*4B
###2023-12-09 13:33:51.016066$GLGSV,2,1,07,65,38,319,42,71,23,175,42,72,63,222,45,73,23,052,43*60
###2023-12-09 13:33:51.018114$GLGSV,2,2,07,74,60,013,42,75,43,271,45,83,15,048,36,,,,*55
###2023-12-09 13:33:51.020456$GAGSV,1,1,04,04,40,310,44,19,73,182,40,21,77,047,46,27,23,050,42*68
###2023-12-09 13:33:51.022795$GBGSV,2,1,07,12,15,126,43,14,29,190,43,24,63,045,49,25,50,275,47*65
###2023-12-09 13:33:51.024834$GBGSV,2,2,07,26,16,070,45,33,46,217,45,35,16,057,46,,,,*5F
###2023-12-09 13:33:51.026158$GNVTG,197.07,T,,M,2.68,N,4.97,K,A*2D
###2023-12-09 13:33:51.027784$GNGST,183350.10,5.600,,,,0.091,0.068,0.150*6B
###2023-12-09 13:33:51.029076$GNZDA,183350.10,09,12,2023,00,00*7C
###2023-12-09 13:33:51.029716$GNEBP,,,,,,M*13
###2023-12-09 13:33:51.197638$GNGGA,183350.30,4138.0452438,N,07032.4163334,W,1,26,0.6,13.514,M,-29.745,M,0.0,*51
###2023-12-09 13:33:51.392757$GNGGA,183350.50,4138.0451079,N,07032.4164258,W,1,26,0.6,13.539,M,-29.745,M,0.0,*56
###2023-12-09 13:33:51.592851$GNGGA,183350.70,4138.0449679,N,07032.4164921,W,1,26,0.6,13.546,M,-29.745,M,0.0,*56
###2023-12-09 13:33:51.793523$GNGGA,183350.90,4138.0448224,N,07032.4165172,W,1,26,0.6,13.524,M,-29.745,M,0.0,*5E
###2023-12-09 13:33:51.997878$GNRMC,183351.10,A,4138.0446739,N,07032.4165549,W,2.84,198.72,091223,,,A*53
###2023-12-09 13:33:52.000768$GNGGA,183351.10,4138.0446739,N,07032.4165549,W,1,26,0.6,13.499,M,-29.745,M,0.0,*5B
###2023-12-09 13:33:52.002558$GPGSA,A,3,03,04,16,26,28,29,31,,,,,,1.0,0.6,0.9*3B
###2023-12-09 13:33:52.004347$GLGSA,A,3,65,71,72,73,74,75,83,,,,,,1.0,0.6,0.9*2E
###2023-12-09 13:33:52.005922$GAGSA,A,3,04,19,21,27,,,,,,,,,1.0,0.6,0.9*27
###2023-12-09 13:33:52.007702$GBGSA,A,3,12,14,24,25,26,33,35,,,,,,1.0,0.6,0.9*2B
###2023-12-09 13:33:52.010028$GPGSV,2,1,07,03,27,247,40,04,46,308,44,16,66,222,45,26,84,040,47*78
###2023-12-09 13:33:52.012071$GPGSV,2,2,07,28,38,084,46,29,21,047,44,31,59,066,48,,,,*48
###2023-12-09 13:33:52.014392$GLGSV,2,1,07,65,38,319,42,71,23,175,42,72,63,222,44,73,23,052,44*66
