###2023-12-09 12:58:09.002015$GBGSV,2,2,05,33,59,235,49,,,,,,,,,,,,*5B
###2023-12-09 12:58:09.003629$GNVTG,76.98,T,,M,3.40,N,6.30,K,A*11
###2023-12-09 12:58:09.005632$GNGST,175808.10,18.000,,,,0.078,0.066,0.160*54
###2023-12-09 12:58:09.007262$GNZDA,175808.10,09,12,2023,00,00*73
###2023-12-09 12:58:09.008040$GNEBP,,,,,,M*13
###2023-12-09 12:58:09.165958$GNGGA,175808.30,4138.0336191,N,07032.3292657,W,1,24,0.6,13.298,M,-29.744,M,0.0,*57
###2023-12-09 12:58:09.363417$GNGGA,175808.50,4138.0336162,N,07032.3290191,W,1,24,0.6,13.262,M,-29.744,M,0.0,*57
###2023-12-09 12:58:09.563472$GNGGA,175808.70,4138.0336178,N,07032.3287743,W,1,24,0.6,13.295,M,-29.744,M,0.0,*59
###2023-12-09 12:58:09.767377$GNGGA,175808.90,4138.0336251,N,07032.3285077,W,1,24,0.6,13.295,M,-29.744,M,0.0,*5D
###2023-12-09 12:58:09.966035$GNRMC,175809.10,A,4138.0336127,N,07032.3282625,W,3.23,94.16,091223,,,A*62
###2023-12-09 12:58:09.969534$GNGGA,175809.10,4138.0336127,N,07032.3282625,W,1,24,0.6,13.264,M,-29.744,M,0.0,*5E
###2023-12-09 12:58:09.971780$GPGSA,A,3,03,04,16,26,28,29,31,32,,,,,1.1,0.6,0.9*3B
###2023-12-09 12:58:09.973848$GLGSA,A,3,65,71,72,73,74,75,,,,,,,1.1,0.6,0.9*24
###2023-12-09 12:58:09.975775$GAGSA,A,3,04,19,21,27,,,,,,,,,1.1,0.6,0.9*26
###2023-12-09 12:58:09.977750$GBGSA,A,3,14,24,25,26,33,,,,,,,,1.1,0.6,0.9*2F
###2023-12-09 12:58:09.980560$GPGSV,2,1,08,03,36,264,46,04,31,311,41,16,48,211,47,26,78,209,48*70
###2023-12-09 12:58:09.983388$GPGSV,2,2,08,28,50,069,43,29,25,063,41,31,69,033,47,32,20,139,43*7B
###2023-12-09 12:58:09.986205$GLGSV,2,1,06,65,22,328,42,71,43,172,46,72,73,277,47,73,37,040,45*6E
###2023-12-09 12:58:09.988326$GLGSV,2,2,06,74,70,331,43,75,30,251,46,,,,,,,,*64
###2023-12-09 12:58:09.991150$GAGSV,1,1,04,04,28,312,41,19,85,226,41,21,85,133,46,27,34,048,43*65
###2023-12-09 12:58:09.993957$GBGSV,2,1,05,14,45,193,46,24,75,020,49,25,39,260,48,26,27,062,43*6C
###2023-12-09 12:58:09.995725$GBGSV,2,2,05,33,59,235,48,,,,,,,,,,,,*5A
###2023-12-09 12:58:09.997284$GNVTG,94.16,T,,M,3.23,N,5.98,K,A*1F
###2023-12-09 12:58:09.999331$GNGST,175809.10,18.000,,,,0.078,0.066,0.160*55
###2023-12-09 12:58:10.000897$GNZDA,175809.10,09,12,2023,00,00*72
###2023-12-09 12:58:10.001668$GNEBP,,,,,,M*13
###2023-12-09 12:58:10.159174$GNGGA,175809.30,4138.0336059,N,07032.3280191,W,1,24,0.6,13.288,M,-29.744,M,0.0,*5C
###2023-12-09 12:58:10.359346$GNGGA,175809.50,4138.0335831,N,07032.3277655,W,1,24,0.6,13.292,M,-29.744,M,0.0,*53
###2023-12-09 12:58:10.564501$GNGGA,175809.70,4138.0335617,N,07032.3275238,W,1,24,0.6,13.282,M,-29.744,M,0.0,*57
###2023-12-09 12:58:10.766230$GNGGA,175809.90,4138.0335477,N,07032.3272752,W,1,24,0.6,13.294,M,-29.744,M,0.0,*54
###2023-12-09 12:58:10.986661$GNRMC,175810.10,A,4138.0335244,N,07032.3270250,W,3.44,96.93,091223,,,A*6A
###2023-12-09 12:58:10.989535$GNGGA,175810.10,4138.0335244,N,07032.3270250,W,1,24,0.6,13.290,M,-29.744,M,0.0,*53
###2023-12-09 12:58:10.991415$GPGSA,A,3,03,04,16,26,28,29,31,32,,,,,1.1,0.6,0.9*3B
###2023-12-09 12:58:10.993137$GLGSA,A,3,65,71,72,73,74,75,,,,,,,1.1,0.6,0.9*24
###2023-12-09 12:58:10.994731$GAGSA,A,3,04,19,21,27,,,,,,,,,1.1,0.6,0.9*26
###2023-12-09 12:58:10.996375$GBGSA,A,3,14,24,25,26,33,,,,,,,,1.1,0.6,0.9*2F
###2023-12-09 12:58:10.998705$GPGSV,2,1,08,03,36,264,46,04,31,311,41,16,48,211,47,26,78,209,48*70
###2023-12-09 12:58:11.001027$GPGSV,2,2,08,28,50,069,43,29,25,063,41,31,69,033,46,32,20,139,41*78
###2023-12-09 12:58:11.003354$GLGSV,2,1,06,65,22,328,41,71,43,172,47,72,73,277,47,73,37,040,46*6F
###2023-12-09 12:58:11.005097$GLGSV,2,2,06,74,70,331,43,75,30,251,46,,,,,,,,*64
###2023-12-09 12:58:11.007428$GAGSV,1,1,04,04,28,312,41,19,85,226,41,21,85,133,46,27,34,048,43*65
###2023-12-09 12:58:11.009752$GBGSV,2,1,05,14,45,193,46,24,75,020,49,25,39,260,46,26,27,062,42*63
###2023-12-09 12:58:11.011212$GBGSV,2,2,05,33,59,235,48,,,,,,,,,,,,*5A
###2023-12-09 12:58:11.012497$GNVTG,96.93,T,,M,3.44,N,6.37,K,A*17
###2023-12-09 12:58:11.014139$GNGST,175810.10,18.000,,,,0.078,0.066,0.160*5D
###2023-12-09 12:58:11.015439$GNZDA,175810.10,09,12,2023,00,00*7A
###2023-12-09 12:58:11.016071$GNEBP,,,,,,M*13
###2023-12-09 12:58:11.158792$GNGGA,175810.30,4138.0335044,N,07032.3267714,W,1,24,0.6,13.287,M,-29.744,M,0.0,*56
###2023-12-09 12:58:11.358915$GNGGA,175810.50,4138.0334822,N,07032.3265143,W,1,24,0.6,13.292,M,-29.744,M,0.0,*5B
###2023-12-09 12:58:11.559659$GNGGA,175810.70,4138.0334723,N,07032.3262547,W,1,24,0.6,13.309,M,-29.744,M,0.0,*53
###2023-12-09 12:58:11.759689$GNGGA,175810.90,4138.0334530,N,07032.3259872,W,1,24,0.6,13.302,M,-29.744,M,0.0,*55
###2023-12-09 12:58:11.972177$GNRMC,175811.10,A,4138.0334511,N,07032.3257237,W,3.62,88.29,091223,,,A*63
###2023-12-09 12:58:11.975070$GNGGA,175811.10,4138.0334511,N,07032.3257237,W,1,24,0.6,13.302,M,-29.744,M,0.0,*5A
###2023-12-09 12:58:11.976935$GPGSA,A,3,03,04,16,26,28,29,31,32,,,,,1.1,0.6,0.9*3B
###2023-12-09 12:58:11.978666$GLGSA,A,3,65,71,72,73,74,75,,,,,,,1.1,0.6,0.9*24
###2023-12-09 12:58:11.980258$GAGSA,A,3,04,19,21,27,,,,,,,,,1.1,0.6,0.9*26
###2023-12-09 12:58:11.981915$GBGSA,A,3,14,24,25,26,33,,,,,,,,1.1,0.6,0.9*2F
###2023-12-09 12:58:11.984260$GPGSV,2,1,08,03,36,264,45,04,31,311,42,16,48,211,47,26,78,209,48*70
###2023-12-09 12:58:11.986614$GPGSV,2,2,08,28,50,069,43,29,25,063,39,31,69,033,46,32,20,139,43*75
###2023-12-09 12:58:11.988949$GLGSV,2,1,06,65,22,328,41,71,43,172,47,72,73,277,47,73,37,040,44*6D
###2023-12-09 12:58:11.990704$GLGSV,2,2,06,74,70,331,43,75,30,251,46,,,,,,,,*64
###2023-12-09 12:58:11.993025$GAGSV,1,1,04,04,28,312,40,19,85,226,41,21,85,133,46,27,34,048,42*65
###2023-12-09 12:58:11.995365$GBGSV,2,1,05,14,45,193,47,24,75,020,48,25,39,260,47,26,27,062,41*61
###2023-12-09 12:58:11.996814$GBGSV,2,2,05,33,59,235,47,,,,,,,,,,,,*55
###2023-12-09 12:58:11.998100$GNVTG,88.29,T,,M,3.62,N,6.70,K,A*1E
###2023-12-09 12:58:11.999759$GNGST,175811.10,18.000,,,,0.078,0.066,0.160*5C
###2023-12-09 12:58:12.001051$GNZDA,175811.10,09,12,2023,00,00*7B
###2023-12-09 12:58:12.001689$GNEBP,,,,,,M*13
###2023-12-09 12:58:12.159593$GNGGA,175811.30,4138.0334511,N,07032.3254517,W,1,24,0.6,13.313,M,-29.744,M,0.0,*5E
###2023-12-09 12:58:12.359421$GNGGA,175811.50,4138.0334541,N,07032.3251874,W,1,24,0.6,13.313,M,-29.744,M,0.0,*50
###2023-12-09 12:58:12.559313$GNGGA,175811.70,4138.0334673,N,07032.3249164,W,1,24,0.6,13.330,M,-29.744,M,0.0,*50
###2023-12-09 12:58:12.762166$GNGGA,175811.90,4138.0334724,N,07032.3246481,W,1,24,0.6,13.321,M,-29.744,M,0.0,*5C
###2023-12-09 12:58:12.963081$GNRMC,175812.10,A,4138.0334712,N,07032.3243885,W,3.50,89.19,091223,,,A*64
###2023-12-09 12:58:12.965941$GNGGA,175812.10,4138.0334712,N,07032.3243885,W,1,24,0.6,13.319,M,-29.744,M,0.0,*54
###2023-12-09 12:58:12.967821$GPGSA,A,3,03,04,16,26,28,29,31,32,,,,,1.1,0.6,0.9*3B
###2023-12-09 12:58:12.969542$GLGSA,A,3,65,71,72,73,74,75,,,,,,,1.1,0.6,0.9*24
###2023-12-09 12:58:12.971137$GAGSA,A,3,04,19,21,27,,,,,,,,,1.1,0.6,0.9*26
###2023-12-09 12:58:12.972782$GBGSA,A,3,14,24,25,26,33,,,,,,,,1.1,0.6,0.9*2F
###2023-12-09 12:58:12.975130$GPGSV,2,1,08,03,36,264,46,04,31,311,40,16,48,211,48,26,78,209,48*7E
###2023-12-09 12:58:12.977473$GPGSV,2,2,08,28,50,069,43,29,25,063,39,31,69,033,46,32,20,139,42*74
###2023-12-09 12:58:12.979816$GLGSV,2,1,06,65,22,328,41,71,43,172,47,72,73,277,47,73,37,040,45*6C
###2023-12-09 12:58:12.981566$GLGSV,2,2,06,74,70,331,43,75,30,251,47,,,,,,,,*65
###2023-12-09 12:58:12.983902$GAGSV,1,1,04,04,28,312,38,19,85,226,40,21,85,133,45,27,34,048,41*6B
###2023-12-09 12:58:12.986239$GBGSV,2,1,05,14,45,193,47,24,75,020,48,25,39,260,48,26,27,062,41*6E
###2023-12-09 12:58:12.987714$GBGSV,2,2,05,33,59,235,49,,,,,,,,,,,,*5B
###2023-12-09 12:58:12.989007$GNVTG,89.19,T,,M,3.50,N,6.48,K,A*16
###2023-12-09 12:58:12.990695$GNGST,175812.10,18.000,,,,0.078,0.067,0.160*5E
###2023-12-09 12:58:12.991990$GNZDA,175812.10,09,12,2023,00,00*78
###2023-12-09 12:58:12.992631$GNEBP,,,,,,M*13
###2023-12-09 12:58:13.159238$GNGGA,175812.30,4138.0334793,N,07032.3241211,W,1,24,0.6,13.335,M,-29.744,M,0.0,*54
###2023-12-09 12:58:13.360940$GNGGA,175812.50,4138.0334766,N,07032.3238580,W,1,24,0.6,13.333,M,-29.744,M,0.0,*5F
###2023-12-09 12:58:13.558859$GNGGA,175812.70,4138.0334565,N,07032.3236018,W,1,24,0.6,13.346,M,-29.744,M,0.0,*54
###2023-12-09 12:58:13.758926$GNGGA,175812.90,4138.0334320,N,07032.3233371,W,1,24,0.6,13.346,M,-29.744,M,0.0,*54
###2023-12-09 12:58:13.960247$GNRMC,175813.10,A,4138.0334184,N,07032.3230871,W,3.29,90.44,091223,,,A*6D
###2023-12-09 12:58:13.963140$GNGGA,175813.10,4138.0334184,N,07032.3230871,W,1,24,0.6,13.341,M,-29.744,M,0.0,*5E
###2023-12-09 12:58:13.964995$GPGSA,A,3,03,04,16,26,28,29,31,32,,,,,1.1,0.6,0.9*3B
###2023-12-09 12:58:13.966746$GLGSA,A,3,65,71,72,73,74,75,,,,,,,1.1,0.6,0.9*24
###2023-12-09 12:58:13.968336$GAGSA,A,3,04,19,21,27,,,,,,,,,1.1,0.6,0.9*26
###2023-12-09 12:58:13.969984$GBGSA,A,3,14,24,25,26,33,,,,,,,,1.1,0.6,0.9*2F
###2023-12-09 12:58:13.972317$GPGSV,2,1,08,03,36,264,46,04,31,311,41,16,48,211,48,26,78,209,48*7F
