###2023-12-09 12:52:44.988961$GNEBP,,,,,,M*13
###2023-12-09 12:52:45.152506$GNGGA,175244.30,4138.0631008,N,07032.3842631,W,1,24,0.6,13.135,M,-29.744,M,0.0,*55
###2023-12-09 12:52:45.353206$GNGGA,175244.50,4138.0629723,N,07032.3841876,W,1,24,0.6,13.124,M,-29.744,M,0.0,*5A
###2023-12-09 12:52:45.552261$GNGGA,175244.70,4138.0628348,N,07032.3841240,W,1,24,0.6,13.148,M,-29.744,M,0.0,*55
###2023-12-09 12:52:45.752070$GNGGA,175244.90,4138.0626916,N,07032.3840557,W,1,24,0.6,13.139,M,-29.744,M,0.0,*52
###2023-12-09 12:52:45.952793$GNRMC,175245.10,A,4138.0625681,N,07032.3839778,W,2.39,153.17,091223,,,A*5E
###2023-12-09 12:52:45.955678$GNGGA,175245.10,4138.0625681,N,07032.3839778,W,1,24,0.6,13.119,M,-29.744,M,0.0,*5A
###2023-12-09 12:52:45.957534$GPGSA,A,3,03,04,16,26,28,29,31,32,,,,,1.1,0.6,0.9*3B
###2023-12-09 12:52:45.959252$GLGSA,A,3,65,71,72,73,74,75,,,,,,,1.1,0.6,0.9*24
###2023-12-09 12:52:45.960830$GAGSA,A,3,04,19,21,27,,,,,,,,,1.1,0.6,0.9*26
###2023-12-09 12:52:45.962469$GBGSA,A,3,14,24,25,26,33,,,,,,,,1.1,0.6,0.9*2F
###2023-12-09 12:52:45.964800$GPGSV,2,1,08,03,37,267,44,04,29,311,40,16,45,210,44,26,75,209,48*7A
###2023-12-09 12:52:45.967133$GPGSV,2,2,08,28,52,066,45,29,26,065,45,31,71,026,47,32,23,138,42*7F
###2023-12-09 12:52:45.969450$GLGSV,2,1,06,65,20,328,42,71,47,171,45,72,72,288,46,73,40,038,46*64
###2023-12-09 12:52:45.971203$GLGSV,2,2,06,74,71,321,42,75,28,248,45,,,,,,,,*67
###2023-12-09 12:52:45.973518$GAGSV,1,1,04,04,26,312,41,19,85,252,40,21,84,154,46,27,36,048,44*6C
###2023-12-09 12:52:45.975848$GBGSV,2,1,05,14,47,194,43,24,76,016,47,25,38,259,46,26,29,061,44*6B
###2023-12-09 12:52:45.977296$GBGSV,2,2,05,33,60,238,48,,,,,,,,,,,,*5D
###2023-12-09 12:52:45.978622$GNVTG,153.17,T,,M,2.39,N,4.43,K,A*29
###2023-12-09 12:52:45.980266$GNGST,175245.10,18.000,,,,0.080,0.068,0.160*5E
###2023-12-09 12:52:45.981556$GNZDA,175245.10,09,12,2023,00,00*70
###2023-12-09 12:52:45.982195$GNEBP,,,,,,M*13
###2023-12-09 12:52:46.154619$GNGGA,175245.30,4138.0624410,N,07032.3839017,W,1,24,0.6,13.137,M,-29.744,M,0.0,*51
###2023-12-09 12:52:46.354267$GNGGA,175245.50,4138.0622992,N,07032.3838352,W,1,24,0.6,13.135,M,-29.744,M,0.0,*57
###2023-12-09 12:52:46.553144$GNGGA,175245.70,4138.0621745,N,07032.3837725,W,1,24,0.6,13.126,M,-29.744,M,0.0,*5B
###2023-12-09 12:52:46.752190$GNGGA,175245.90,4138.0620558,N,07032.3836844,W,1,24,0.6,13.142,M,-29.744,M,0.0,*51
###2023-12-09 12:52:46.955216$GNRMC,175246.10,A,4138.0619302,N,07032.3835946,W,2.51,152.53,091223,,,A*5C
###2023-12-09 12:52:46.958079$GNGGA,175246.10,4138.0619302,N,07032.3835946,W,1,24,0.6,13.146,M,-29.744,M,0.0,*5D
###2023-12-09 12:52:46.959955$GPGSA,A,3,03,04,16,26,28,29,31,32,,,,,1.1,0.6,0.9*3B
###2023-12-09 12:52:46.961663$GLGSA,A,3,65,71,72,73,74,75,,,,,,,1.1,0.6,0.9*24
###2023-12-09 12:52:46.963259$GAGSA,A,3,04,19,21,27,,,,,,,,,1.1,0.6,0.9*26
###2023-12-09 12:52:46.964905$GBGSA,A,3,14,24,25,26,33,,,,,,,,1.1,0.6,0.9*2F
###2023-12-09 12:52:46.967244$GPGSV,2,1,08,03,37,267,45,04,29,311,40,16,45,210,45,26,75,209,48*7A
###2023-12-09 12:52:46.969579$GPGSV,2,2,08,28,52,066,45,29,26,065,45,31,71,026,47,32,23,138,40*7D
###2023-12-09 12:52:46.971925$GLGSV,2,1,06,65,20,328,43,71,47,171,45,72,72,288,47,73,40,038,46*64
###2023-12-09 12:52:46.973673$GLGSV,2,2,06,74,71,321,42,75,28,248,45,,,,,,,,*67
###2023-12-09 12:52:46.976014$GAGSV,1,1,04,04,26,312,41,19,85,252,40,21,84,154,46,27,36,048,44*6C
###2023-12-09 12:52:46.978341$GBGSV,2,1,05,14,47,194,44,24,76,016,49,25,38,259,47,26,29,061,45*62
###2023-12-09 12:52:46.979805$GBGSV,2,2,05,33,60,238,49,,,,,,,,,,,,*5C
###2023-12-09 12:52:46.981128$GNVTG,152.53,T,,M,2.51,N,4.64,K,A*23
###2023-12-09 12:52:46.982784$GNGST,175246.10,18.000,,,,0.080,0.068,0.160*5D
###2023-12-09 12:52:46.984079$GNZDA,175246.10,09,12,2023,00,00*73
###2023-12-09 12:52:46.984718$GNEBP,,,,,,M*13
###2023-12-09 12:52:47.154115$GNGGA,175246.30,4138.0618111,N,07032.3835103,W,1,24,0.6,13.140,M,-29.744,M,0.0,*51
###2023-12-09 12:52:47.355051$GNGGA,175246.50,4138.0616907,N,07032.3834164,W,1,24,0.6,13.148,M,-29.744,M,0.0,*5E
###2023-12-09 12:52:47.554211$GNGGA,175246.70,4138.0615745,N,07032.3833111,W,1,24,0.6,13.151,M,-29.744,M,0.0,*5A
###2023-12-09 12:52:47.753243$GNGGA,175246.90,4138.0614617,N,07032.3832055,W,1,24,0.6,13.155,M,-29.744,M,0.0,*57
###2023-12-09 12:52:47.955298$GNRMC,175247.10,A,4138.0613425,N,07032.3831040,W,2.66,147.07,091223,,,A*5F
###2023-12-09 12:52:47.958178$GNGGA,175247.10,4138.0613425,N,07032.3831040,W,1,24,0.6,13.162,M,-29.744,M,0.0,*59
###2023-12-09 12:52:47.960064$GPGSA,A,3,03,04,16,26,28,29,31,32,,,,,1.1,0.6,0.9*3B
###2023-12-09 12:52:47.961790$GLGSA,A,3,65,71,72,73,74,75,,,,,,,1.1,0.6,0.9*24
###2023-12-09 12:52:47.963391$GAGSA,A,3,04,19,21,27,,,,,,,,,1.1,0.6,0.9*26
###2023-12-09 12:52:47.965036$GBGSA,A,3,14,24,25,26,33,,,,,,,,1.1,0.6,0.9*2F
###2023-12-09 12:52:47.967366$GPGSV,2,1,08,03,37,267,44,04,29,311,42,16,45,210,46,26,75,209,48*7A
###2023-12-09 12:52:47.969696$GPGSV,2,2,08,28,52,066,45,29,26,065,44,31,71,026,47,32,23,138,41*7D
###2023-12-09 12:52:47.972038$GLGSV,2,1,06,65,20,328,44,71,47,171,45,72,72,288,46,73,40,038,46*62
###2023-12-09 12:52:47.973782$GLGSV,2,2,06,74,71,321,42,75,28,248,45,,,,,,,,*67
###2023-12-09 12:52:47.976128$GAGSV,1,1,04,04,26,312,40,19,85,252,40,21,84,154,46,27,36,048,44*6D
###2023-12-09 12:52:47.978460$GBGSV,2,1,05,14,47,194,42,24,76,016,47,25,38,259,45,26,29,061,44*69
###2023-12-09 12:52:47.979930$GBGSV,2,2,05,33,60,238,48,,,,,,,,,,,,*5D
###2023-12-09 12:52:47.981244$GNVTG,147.07,T,,M,2.66,N,4.93,K,A*2A
###2023-12-09 12:52:47.982896$GNGST,175247.10,18.000,,,,0.079,0.067,0.160*55
###2023-12-09 12:52:47.984186$GNZDA,175247.10,09,12,2023,00,00*72
###2023-12-09 12:52:47.984822$GNEBP,,,,,,M*13
###2023-12-09 12:52:48.155897$GNGGA,175247.30,4138.0612210,N,07032.3830015,W,1,24,0.6,13.162,M,-29.744,M,0.0,*5B
###2023-12-09 12:52:48.354043$GNGGA,175247.50,4138.0611040,N,07032.3829029,W,1,24,0.6,13.172,M,-29.744,M,0.0,*5F
###2023-12-09 12:52:48.553721$GNGGA,175247.70,4138.0609837,N,07032.3828017,W,1,24,0.6,13.185,M,-29.744,M,0.0,*58
###2023-12-09 12:52:48.754161$GNGGA,175247.90,4138.0608652,N,07032.3827081,W,1,24,0.6,13.181,M,-29.744,M,0.0,*5E
###2023-12-09 12:52:48.955545$GNRMC,175248.10,A,4138.0607497,N,07032.3826336,W,2.33,158.33,091223,,,A*51
###2023-12-09 12:52:48.958418$GNGGA,175248.10,4138.0607497,N,07032.3826336,W,1,24,0.6,13.193,M,-29.744,M,0.0,*50
###2023-12-09 12:52:48.960309$GPGSA,A,3,03,04,16,26,28,29,31,32,,,,,1.1,0.6,0.9*3B
###2023-12-09 12:52:48.962026$GLGSA,A,3,65,71,72,73,74,75,,,,,,,1.1,0.6,0.9*24
###2023-12-09 12:52:48.963620$GAGSA,A,3,04,19,21,27,,,,,,,,,1.1,0.6,0.9*26
###2023-12-09 12:52:48.965264$GBGSA,A,3,14,24,25,26,33,,,,,,,,1.1,0.6,0.9*2F
###2023-12-09 12:52:48.967608$GPGSV,2,1,08,03,37,267,44,04,29,311,41,16,45,210,44,26,75,209,47*74
###2023-12-09 12:52:48.969937$GPGSV,2,2,08,28,52,066,46,29,26,065,44,31,71,026,47,32,23,138,42*7D
###2023-12-09 12:52:48.972277$GLGSV,2,1,06,65,20,328,43,71,47,171,44,72,72,288,46,73,40,038,46*64
###2023-12-09 12:52:48.974034$GLGSV,2,2,06,74,71,321,43,75,28,248,45,,,,,,,,*66
###2023-12-09 12:52:48.976373$GAGSV,1,1,04,04,26,312,39,19,85,252,40,21,84,154,46,27,36,048,44*63
###2023-12-09 12:52:48.978707$GBGSV,2,1,05,14,47,194,43,24,76,016,47,25,38,259,46,26,29,061,45*6A
###2023-12-09 12:52:48.980164$GBGSV,2,2,05,33,60,238,48,,,,,,,,,,,,*5D
###2023-12-09 12:52:48.981485$GNVTG,158.33,T,,M,2.33,N,4.32,K,A*28
###2023-12-09 12:52:48.983145$GNGST,175248.10,18.000,,,,0.079,0.067,0.160*5A
###2023-12-09 12:52:48.984444$GNZDA,175248.10,09,12,2023,00,00*7D
###2023-12-09 12:52:48.985097$GNEBP,,,,,,M*13
###2023-12-09 12:52:49.153845$GNGGA,175248.30,4138.0606267,N,07032.3825648,W,1,24,0.6,13.202,M,-29.744,M,0.0,*5E
###2023-12-09 12:52:49.355407$GNGGA,175248.50,4138.0605170,N,07032.3824955,W,1,24,0.6,13.192,M,-29.744,M,0.0,*56
###2023-12-09 12:52:49.553603$GNGGA,175248.70,4138.0604139,N,07032.3824368,W,1,24,0.6,13.207,M,-29.744,M,0.0,*53
###2023-12-09 12:52:49.753672$GNGGA,175248.90,4138.0603062,N,07032.3823835,W,1,24,0.6,13.220,M,-29.744,M,0.0,*54
###2023-12-09 12:52:49.954476$GNRMC,175249.10,A,4138.0602024,N,07032.3823353,W,1.90,160.14,091223,,,A*5B
###2023-12-09 12:52:49.957608$GNGGA,175249.10,4138.0602024,N,07032.3823353,W,1,24,0.6,13.217,M,-29.744,M,0.0,*51
###2023-12-09 12:52:49.959499$GPGSA,A,3,03,04,16,26,28,29,31,32,,,,,1.1,0.6,0.9*3B
###2023-12-09 12:52:49.961219$GLGSA,A,3,65,71,72,73,74,75,,,,,,,1.1,0.6,0.9*24
###2023-12-09 12:52:49.962817$GAGSA,A,3,04,19,21,27,,,,,,,,,1.1,0.6,0.9*26
###2023-12-09 12:52:49.964469$GBGSA,A,3,14,24,25,26,33,,,,,,,,1.1,0.6,0.9*2F
###2023-12-09 12:52:49.966826$GPGSV,2,1,08,03,37,267,45,04,29,311,41,16,45,210,44,26,75,209,47*75
###2023-12-09 12:52:49.969172$GPGSV,2,2,08,28,52,066,45,29,26,065,43,31,71,026,47,32,23,138,41*7A
###2023-12-09 12:52:49.971515$GLGSV,2,1,06,65,20,328,40,71,47,171,44,72,72,288,47,73,40,038,46*66
###2023-12-09 12:52:49.973271$GLGSV,2,2,06,74,71,321,43,75,28,248,45,,,,,,,,*66
###2023-12-09 12:52:49.975610$GAGSV,1,1,04,04,26,312,40,19,85,252,40,21,84,154,46,27,36,048,43*6A
