###2023-12-09 12:36:19.939729$GNGGA,173619.10,4138.0462162,N,07032.3944119,W,1,23,0.7,13.294,M,-29.745,M,0.0,*51
###2023-12-09 12:36:19.941613$GPGSA,A,3,03,04,16,26,28,29,31,32,,,,,1.2,0.7,1.0*31
###2023-12-09 12:36:19.943286$GLGSA,A,3,71,72,73,74,75,,,,,,,,1.2,0.7,1.0*2D
###2023-12-09 12:36:19.944873$GAGSA,A,3,04,19,21,27,,,,,,,,,1.2,0.7,1.0*2C
###2023-12-09 12:36:19.946524$GBGSA,A,3,14,24,25,26,33,,,,,,,,1.2,0.7,1.0*25
###2023-12-09 12:36:19.948902$GPGSV,2,1,08,03,38,276,45,04,22,311,42,16,37,207,45,26,67,207,48*72
###2023-12-09 12:36:19.951280$GPGSV,2,2,08,28,57,057,44,29,25,073,41,31,73,004,47,32,29,134,41*7E
###2023-12-09 12:36:19.953615$GLGSV,2,1,05,71,56,169,46,72,66,308,47,73,47,034,46,74,71,293,43*6F
###2023-12-09 12:36:19.955096$GLGSV,2,2,05,75,22,241,42,,,,,,,,,,,,*53
###2023-12-09 12:36:19.957421$GAGSV,1,1,04,04,21,311,41,19,82,300,40,21,78,176,46,27,41,049,44*6B
###2023-12-09 12:36:19.959763$GBGSV,2,1,05,14,55,197,45,24,80,348,48,25,33,253,44,26,35,057,45*69
###2023-12-09 12:36:19.961222$GBGSV,2,2,05,33,63,253,48,,,,,,,,,,,,*53
###2023-12-09 12:36:19.962550$GNVTG,111.10,T,,M,3.05,N,5.65,K,A*23
###2023-12-09 12:36:19.964225$GNGST,173619.10,18.000,,,,0.080,0.070,0.160*5C
###2023-12-09 12:36:19.965520$GNZDA,173619.10,09,12,2023,00,00*7B
###2023-12-09 12:36:19.966160$GNEBP,,,,,,M*13
###2023-12-09 12:36:20.135498$GNGGA,173619.30,4138.0461538,N,07032.3941982,W,1,23,0.7,13.291,M,-29.745,M,0.0,*51
###2023-12-09 12:36:20.335450$GNGGA,173619.50,4138.0460863,N,07032.3939887,W,1,23,0.7,13.287,M,-29.745,M,0.0,*59
###2023-12-09 12:36:20.536816$GNGGA,173619.70,4138.0460173,N,07032.3937759,W,1,23,0.7,13.291,M,-29.745,M,0.0,*56
###2023-12-09 12:36:20.736056$GNGGA,173619.90,4138.0459468,N,07032.3935628,W,1,23,0.7,13.278,M,-29.745,M,0.0,*5F
###2023-12-09 12:36:20.943146$GNRMC,173620.10,A,4138.0458767,N,07032.3933606,W,3.15,116.31,091223,,,A*57
###2023-12-09 12:36:20.946021$GNGGA,173620.10,4138.0458767,N,07032.3933606,W,1,23,0.7,13.282,M,-29.745,M,0.0,*5F
###2023-12-09 12:36:20.947919$GPGSA,A,3,03,04,16,26,28,29,31,32,,,,,1.2,0.7,1.0*31
###2023-12-09 12:36:20.949595$GLGSA,A,3,71,72,73,74,75,,,,,,,,1.2,0.7,1.0*2D
###2023-12-09 12:36:20.951198$GAGSA,A,3,04,19,21,27,,,,,,,,,1.2,0.7,1.0*2C
###2023-12-09 12:36:20.952858$GBGSA,A,3,14,24,25,26,33,,,,,,,,1.2,0.7,1.0*25
###2023-12-09 12:36:20.955209$GPGSV,2,1,08,03,38,276,45,04,22,311,42,16,37,207,45,26,67,207,48*72
###2023-12-09 12:36:20.957552$GPGSV,2,2,08,28,57,057,44,29,25,073,43,31,73,004,46,32,29,134,42*7E
###2023-12-09 12:36:20.959914$GLGSV,2,1,05,71,56,169,47,72,66,308,47,73,47,034,48,74,71,293,43*60
###2023-12-09 12:36:20.961376$GLGSV,2,2,05,75,22,241,43,,,,,,,,,,,,*52
###2023-12-09 12:36:20.963727$GAGSV,1,1,04,04,21,311,41,19,82,300,40,21,78,176,45,27,41,049,43*6F
###2023-12-09 12:36:20.966068$GBGSV,2,1,05,14,55,197,45,24,80,348,48,25,33,253,45,26,35,057,45*68
###2023-12-09 12:36:20.967539$GBGSV,2,2,05,33,63,253,49,,,,,,,,,,,,*52
###2023-12-09 12:36:20.968866$GNVTG,116.31,T,,M,3.15,N,5.83,K,A*2E
###2023-12-09 12:36:20.970524$GNGST,173620.10,18.000,,,,0.080,0.069,0.160*5E
###2023-12-09 12:36:20.971833$GNZDA,173620.10,09,12,2023,00,00*71
###2023-12-09 12:36:20.972477$GNEBP,,,,,,M*13
###2023-12-09 12:36:21.135991$GNGGA,173620.30,4138.0457934,N,07032.3931496,W,1,23,0.7,13.284,M,-29.745,M,0.0,*55
###2023-12-09 12:36:21.334496$GNGGA,173620.50,4138.0457058,N,07032.3929550,W,1,23,0.7,13.268,M,-29.745,M,0.0,*50
###2023-12-09 12:36:21.535747$GNGGA,173620.70,4138.0456099,N,07032.3927681,W,1,23,0.7,13.280,M,-29.745,M,0.0,*59
###2023-12-09 12:36:21.735661$GNGGA,173620.90,4138.0455090,N,07032.3925786,W,1,23,0.7,13.276,M,-29.745,M,0.0,*50
###2023-12-09 12:36:21.935413$GNRMC,173621.10,A,4138.0454018,N,07032.3924018,W,3.17,131.95,091223,,,A*53
###2023-12-09 12:36:21.938268$GNGGA,173621.10,4138.0454018,N,07032.3924018,W,1,23,0.7,13.269,M,-29.745,M,0.0,*57
###2023-12-09 12:36:21.940140$GPGSA,A,3,03,04,16,26,28,29,31,32,,,,,1.2,0.7,1.0*31
###2023-12-09 12:36:21.941792$GLGSA,A,3,71,72,73,74,75,,,,,,,,1.2,0.7,1.0*2D
###2023-12-09 12:36:21.943389$GAGSA,A,3,04,19,21,27,,,,,,,,,1.2,0.7,1.0*2C
###2023-12-09 12:36:21.945038$GBGSA,A,3,14,24,25,26,33,,,,,,,,1.2,0.7,1.0*25
###2023-12-09 12:36:21.947395$GPGSV,2,1,08,03,38,276,43,04,22,311,43,16,37,207,45,26,67,207,48*75
###2023-12-09 12:36:21.949750$GPGSV,2,2,08,28,57,057,45,29,25,073,44,31,73,004,47,32,29,134,43*78
###2023-12-09 12:36:21.952104$GLGSV,2,1,05,71,56,169,47,72,66,308,47,73,47,034,48,74,71,293,43*60
###2023-12-09 12:36:21.953560$GLGSV,2,2,05,75,22,241,42,,,,,,,,,,,,*53
###2023-12-09 12:36:21.955908$GAGSV,1,1,04,04,21,311,41,19,82,300,40,21,78,176,46,27,41,049,45*6A
###2023-12-09 12:36:21.958246$GBGSV,2,1,05,14,55,197,45,24,80,348,48,25,33,253,43,26,35,057,45*6E
###2023-12-09 12:36:21.959724$GBGSV,2,2,05,33,63,253,48,,,,,,,,,,,,*53
###2023-12-09 12:36:21.961048$GNVTG,131.95,T,,M,3.17,N,5.87,K,A*23
###2023-12-09 12:36:21.962715$GNGST,173621.10,18.000,,,,0.079,0.069,0.160*59
###2023-12-09 12:36:21.964008$GNZDA,173621.10,09,12,2023,00,00*70
###2023-12-09 12:36:21.964645$GNEBP,,,,,,M*13
###2023-12-09 12:36:22.135731$GNGGA,173621.30,4138.0452828,N,07032.3922260,W,1,23,0.7,13.281,M,-29.745,M,0.0,*55
###2023-12-09 12:36:22.336795$GNGGA,173621.50,4138.0451667,N,07032.3920474,W,1,23,0.7,13.279,M,-29.745,M,0.0,*53
###2023-12-09 12:36:22.535856$GNGGA,173621.70,4138.0450511,N,07032.3918647,W,1,23,0.7,13.272,M,-29.745,M,0.0,*50
###2023-12-09 12:36:22.734693$GNGGA,173621.90,4138.0449357,N,07032.3916790,W,1,23,0.7,13.268,M,-29.745,M,0.0,*5C
###2023-12-09 12:36:22.937227$GNRMC,173622.10,A,4138.0448136,N,07032.3914948,W,3.34,132.27,091223,,,A*54
###2023-12-09 12:36:22.940137$GNGGA,173622.10,4138.0448136,N,07032.3914948,W,1,23,0.7,13.268,M,-29.745,M,0.0,*5A
###2023-12-09 12:36:22.942006$GPGSA,A,3,03,04,16,26,28,29,31,32,,,,,1.2,0.7,1.0*31
###2023-12-09 12:36:22.943673$GLGSA,A,3,71,72,73,74,75,,,,,,,,1.2,0.7,1.0*2D
###2023-12-09 12:36:22.945254$GAGSA,A,3,04,19,21,27,,,,,,,,,1.2,0.7,1.0*2C
###2023-12-09 12:36:22.946938$GBGSA,A,3,14,24,25,26,33,,,,,,,,1.2,0.7,1.0*25
###2023-12-09 12:36:22.949280$GPGSV,2,1,08,03,38,276,45,04,22,311,41,16,37,207,44,26,67,207,48*70
###2023-12-09 12:36:22.951631$GPGSV,2,2,08,28,57,057,44,29,25,073,44,31,73,004,47,32,29,134,43*79
###2023-12-09 12:36:22.953956$GLGSV,2,1,05,71,56,169,47,72,66,308,47,73,47,034,47,74,71,293,43*6F
###2023-12-09 12:36:22.955425$GLGSV,2,2,05,75,22,241,42,,,,,,,,,,,,*53
###2023-12-09 12:36:22.957751$GAGSV,1,1,04,04,21,311,41,19,82,300,40,21,78,176,46,27,41,049,44*6B
###2023-12-09 12:36:22.960094$GBGSV,2,1,05,14,55,197,45,24,80,348,48,25,33,253,44,26,35,057,45*69
###2023-12-09 12:36:22.961587$GBGSV,2,2,05,33,63,253,48,,,,,,,,,,,,*53
###2023-12-09 12:36:22.962925$GNVTG,132.27,T,,M,3.34,N,6.19,K,A*2C
###2023-12-09 12:36:22.964576$GNGST,173622.10,19.000,,,,0.079,0.069,0.160*5B
###2023-12-09 12:36:22.965866$GNZDA,173622.10,09,12,2023,00,00*73
###2023-12-09 12:36:22.966505$GNEBP,,,,,,M*13
###2023-12-09 12:36:23.134256$GNGGA,173622.30,4138.0446964,N,07032.3913117,W,1,23,0.7,13.270,M,-29.745,M,0.0,*55
###2023-12-09 12:36:23.335300$GNGGA,173622.50,4138.0445827,N,07032.3911151,W,1,23,0.7,13.273,M,-29.745,M,0.0,*55
###2023-12-09 12:36:23.536581$GNGGA,173622.70,4138.0444761,N,07032.3909167,W,1,23,0.7,13.258,M,-29.745,M,0.0,*5E
###2023-12-09 12:36:23.735785$GNGGA,173622.90,4138.0443745,N,07032.3907149,W,1,23,0.7,13.264,M,-29.745,M,0.0,*5C
###2023-12-09 12:36:23.937452$GNRMC,173623.10,A,4138.0442659,N,07032.3905130,W,3.36,125.37,091223,,,A*53
###2023-12-09 12:36:23.940362$GNGGA,173623.10,4138.0442659,N,07032.3905130,W,1,23,0.7,13.264,M,-29.745,M,0.0,*54
###2023-12-09 12:36:23.942228$GPGSA,A,3,03,04,16,26,28,29,31,32,,,,,1.2,0.7,1.0*31
###2023-12-09 12:36:23.943900$GLGSA,A,3,71,72,73,74,75,,,,,,,,1.2,0.7,1.0*2D
###2023-12-09 12:36:23.945494$GAGSA,A,3,04,19,21,27,,,,,,,,,1.2,0.7,1.0*2C
###2023-12-09 12:36:23.947178$GBGSA,A,3,14,24,25,26,33,,,,,,,,1.2,0.7,1.0*25
###2023-12-09 12:36:23.949531$GPGSV,2,1,08,03,38,276,44,04,22,311,42,16,37,207,45,26,67,207,48*73
###2023-12-09 12:36:23.951898$GPGSV,2,2,08,28,57,057,45,29,25,073,43,31,73,004,47,32,29,134,42*7E
###2023-12-09 12:36:23.954652$GLGSV,2,1,05,71,56,169,46,72,66,308,47,73,47,034,47,74,71,293,43*6E
###2023-12-09 12:36:23.956148$GLGSV,2,2,05,75,22,241,42,,,,,,,,,,,,*53
###2023-12-09 12:36:23.958497$GAGSV,1,1,04,04,21,311,41,19,82,300,40,21,78,176,46,27,41,049,44*6B
###2023-12-09 12:36:23.960864$GBGSV,2,1,05,14,55,197,45,24,80,348,49,25,33,253,44,26,35,057,45*68
###2023-12-09 12:36:23.962327$GBGSV,2,2,05,33,63,253,49,,,,,,,,,,,,*52
###2023-12-09 12:36:23.963676$GNVTG,125.37,T,,M,3.36,N,6.23,K,A*20
###2023-12-09 12:36:23.965329$GNGST,173623.10,18.000,,,,0.079,0.069,0.160*5B
###2023-12-09 12:36:23.966634$GNZDA,173623.10,09,12,2023,00,00*72
###2023-12-09 12:36:23.967278$GNEBP,,,,,,M*13
