###2023-12-09 13:34:01.794490$GNGGA,183400.90,4138.0396730,N,07032.4117665,W,1,25,0.6,13.644,M,-29.745,M,0.0,*5A
###2023-12-09 13:34:01.998281$GNRMC,183401.10,A,4138.0397125,N,07032.4116071,W,2.20,67.51,091223,,,A*65
###2023-12-09 13:34:02.001274$GNGGA,183401.10,4138.0397125,N,07032.4116071,W,1,24,0.6,13.650,M,-29.745,M,0.0,*56
###2023-12-09 13:34:02.003097$GPGSA,A,3,03,04,16,26,28,29,31,,,,,,1.1,0.6,0.9*3A
###2023-12-09 13:34:02.004820$GLGSA,A,3,65,71,72,73,74,75,,,,,,,1.1,0.6,0.9*24
###2023-12-09 13:34:02.006409$GAGSA,A,3,04,19,21,27,,,,,,,,,1.1,0.6,0.9*26
###2023-12-09 13:34:02.008200$GBGSA,A,3,12,14,24,25,26,33,35,,,,,,1.1,0.6,0.9*2A
###2023-12-09 13:34:02.010536$GPGSV,2,1,07,03,27,247,42,04,46,308,46,16,66,222,46,26,84,040,48*74
###2023-12-09 13:34:02.012592$GPGSV,2,2,07,28,38,084,43,29,21,047,39,31,59,066,45,,,,*4A
###2023-12-09 13:34:02.014940$GLGSV,2,1,06,65,38,319,44,71,23,175,44,72,63,222,46,73,23,052,41*60
###2023-12-09 13:34:02.016694$GLGSV,2,2,06,74,60,013,42,75,43,271,49,,,,,,,,*6E
###2023-12-09 13:34:02.019031$GAGSV,1,1,04,04,40,310,45,19,72,181,41,21,77,046,45,27,23,050,37*6A
###2023-12-09 13:34:02.021363$GBGSV,2,1,07,12,15,126,40,14,29,190,40,24,63,045,48,25,50,275,47*64
###2023-12-09 13:34:02.023408$GBGSV,2,2,07,26,16,070,42,33,46,217,48,35,16,057,41,,,,*52
###2023-12-09 13:34:02.024706$GNVTG,67.51,T,,M,2.20,N,4.07,K,A*15
###2023-12-09 13:34:02.026316$GNGST,183401.10,5.600,,,,0.100,0.068,0.160*62
###2023-12-09 13:34:02.027613$GNZDA,183401.10,09,12,2023,00,00*7F
###2023-12-09 13:34:02.028250$GNEBP,,,,,,M*13
###2023-12-09 13:34:02.195427$GNGGA,183401.30,4138.0397550,N,07032.4114629,W,1,24,0.6,13.642,M,-29.745,M,0.0,*58
###2023-12-09 13:34:02.393498$GNGGA,183401.50,4138.0398079,N,07032.4113320,W,1,24,0.6,13.660,M,-29.745,M,0.0,*54
###2023-12-09 13:34:02.593945$GNGGA,183401.70,4138.0398606,N,07032.4111797,W,1,24,0.6,13.666,M,-29.745,M,0.0,*54
###2023-12-09 13:34:02.794446$GNGGA,183401.90,4138.0399114,N,07032.4110365,W,1,24,0.6,13.647,M,-29.745,M,0.0,*54
###2023-12-09 13:34:02.999581$GNRMC,183402.10,A,4138.0399801,N,07032.4109207,W,2.00,48.72,091223,,,A*64
###2023-12-09 13:34:03.002474$GNGGA,183402.10,4138.0399801,N,07032.4109207,W,1,24,0.6,13.656,M,-29.745,M,0.0,*5F
###2023-12-09 13:34:03.004294$GPGSA,A,3,03,04,16,26,28,29,31,,,,,,1.1,0.6,0.9*3A
###2023-12-09 13:34:03.006022$GLGSA,A,3,65,71,72,73,74,75,,,,,,,1.1,0.6,0.9*24
###2023-12-09 13:34:03.007626$GAGSA,A,3,04,19,21,27,,,,,,,,,1.1,0.6,0.9*26
###2023-12-09 13:34:03.009411$GBGSA,A,3,12,14,24,25,26,33,35,,,,,,1.1,0.6,0.9*2A
###2023-12-09 13:34:03.011757$GPGSV,2,1,07,03,27,247,42,04,46,308,45,16,66,222,46,26,84,040,48*77
###2023-12-09 13:34:03.013796$GPGSV,2,2,07,28,38,084,43,29,21,047,37,31,59,066,45,,,,*44
###2023-12-09 13:34:03.016143$GLGSV,2,1,06,65,38,319,43,71,23,175,42,72,63,222,46,73,23,052,39*6E
###2023-12-09 13:34:03.017887$GLGSV,2,2,06,74,60,013,41,75,43,271,47,,,,,,,,*63
###2023-12-09 13:34:03.020220$GAGSV,1,1,04,04,40,310,45,19,72,181,41,21,77,046,45,27,23,050,38*65
###2023-12-09 13:34:03.022545$GBGSV,2,1,07,12,15,126,40,14,29,190,40,24,63,045,46,25,50,275,47*6A
###2023-12-09 13:34:03.024585$GBGSV,2,2,07,26,16,070,42,33,46,217,46,35,16,057,41,,,,*5C
###2023-12-09 13:34:03.025876$GNVTG,48.72,T,,M,2.00,N,3.71,K,A*1D
###2023-12-09 13:34:03.027503$GNGST,183402.10,5.500,,,,0.100,0.068,0.160*62
###2023-12-09 13:34:03.028795$GNZDA,183402.10,09,12,2023,00,00*7C
###2023-12-09 13:34:03.029432$GNEBP,,,,,,M*13
###2023-12-09 13:34:03.201601$GNGGA,183402.30,4138.0400505,N,07032.4107946,W,1,24,0.6,13.665,M,-29.745,M,0.0,*53
###2023-12-09 13:34:03.395692$GNGGA,183402.50,4138.0401199,N,07032.4106663,W,1,24,0.6,13.652,M,-29.745,M,0.0,*58
###2023-12-09 13:34:03.595781$GNGGA,183402.70,4138.0401894,N,07032.4105463,W,1,25,0.6,13.658,M,-29.745,M,0.0,*54
###2023-12-09 13:34:03.797597$GNGGA,183402.90,4138.0402682,N,07032.4104331,W,1,25,0.6,13.671,M,-29.745,M,0.0,*5A
###2023-12-09 13:34:04.000434$GNRMC,183403.10,A,4138.0403562,N,07032.4103265,W,2.04,39.23,091223,,,A*61
###2023-12-09 13:34:04.003304$GNGGA,183403.10,4138.0403562,N,07032.4103265,W,1,25,0.6,13.656,M,-29.745,M,0.0,*5D
###2023-12-09 13:34:04.005093$GPGSA,A,3,03,04,16,26,28,29,31,,,,,,1.0,0.6,0.9*3B
###2023-12-09 13:34:04.006822$GLGSA,A,3,65,71,72,73,74,75,,,,,,,1.0,0.6,0.9*25
###2023-12-09 13:34:04.008404$GAGSA,A,3,04,19,21,27,,,,,,,,,1.0,0.6,0.9*27
###2023-12-09 13:34:04.010179$GBGSA,A,3,12,14,24,25,26,33,35,,,,,,1.0,0.6,0.9*2B
###2023-12-09 13:34:04.012520$GPGSV,2,1,07,03,27,247,40,04,46,308,45,16,66,222,46,26,84,040,48*75
###2023-12-09 13:34:04.014570$GPGSV,2,2,07,28,38,084,44,29,21,047,39,31,59,066,45,,,,*4D
###2023-12-09 13:34:04.016906$GLGSV,2,1,06,65,38,319,42,71,23,175,43,72,63,222,47,73,23,052,40*61
###2023-12-09 13:34:04.018698$GLGSV,2,2,06,74,60,013,41,75,43,271,47,,,,,,,,*63
###2023-12-09 13:34:04.021033$GAGSV,1,1,04,04,40,310,44,19,72,181,41,21,77,046,45,27,22,050,38*65
###2023-12-09 13:34:04.023377$GBGSV,2,1,07,12,15,126,39,14,29,190,39,24,63,045,47,25,50,275,47*6B
###2023-12-09 13:34:04.025417$GBGSV,2,2,07,26,16,070,41,33,46,217,46,35,16,057,43,,,,*5D
###2023-12-09 13:34:04.026722$GNVTG,39.23,T,,M,2.04,N,3.78,K,A*12
###2023-12-09 13:34:04.028339$GNGST,183403.10,5.600,,,,0.100,0.069,0.160*61
###2023-12-09 13:34:04.029630$GNZDA,183403.10,09,12,2023,00,00*7D
###2023-12-09 13:34:04.030268$GNEBP,,,,,,M*13
###2023-12-09 13:34:04.196683$GNGGA,183403.30,4138.0404425,N,07032.4102312,W,1,25,0.6,13.656,M,-29.745,M,0.0,*5A
###2023-12-09 13:34:04.395778$GNGGA,183403.50,4138.0405380,N,07032.4101485,W,1,25,0.6,13.679,M,-29.745,M,0.0,*52
###2023-12-09 13:34:04.595460$GNGGA,183403.70,4138.0406337,N,07032.4100493,W,1,24,0.6,13.682,M,-29.745,M,0.0,*5C
###2023-12-09 13:34:04.795471$GNGGA,183403.90,4138.0407309,N,07032.4099610,W,1,24,0.6,13.663,M,-29.745,M,0.0,*59
###2023-12-09 13:34:05.000033$GNRMC,183404.10,A,4138.0408345,N,07032.4099049,W,1.98,21.61,091223,,,A*69
###2023-12-09 13:34:05.002909$GNGGA,183404.10,4138.0408345,N,07032.4099049,W,1,25,0.6,13.668,M,-29.745,M,0.0,*51
###2023-12-09 13:34:05.004775$GPGSA,A,3,03,04,16,26,27,28,29,31,,,,,1.1,0.6,0.9*3F
###2023-12-09 13:34:05.006490$GLGSA,A,3,65,71,72,73,74,75,,,,,,,1.1,0.6,0.9*24
###2023-12-09 13:34:05.008090$GAGSA,A,3,04,19,21,27,,,,,,,,,1.1,0.6,0.9*26
###2023-12-09 13:34:05.009872$GBGSA,A,3,12,14,24,25,26,33,35,,,,,,1.1,0.6,0.9*2A
###2023-12-09 13:34:05.012213$GPGSV,2,1,08,03,27,247,40,04,46,308,44,16,66,222,47,26,84,040,48*7A
###2023-12-09 13:34:05.014548$GPGSV,2,2,08,27,16,172,37,28,38,084,44,29,21,047,40,31,59,066,46*7D
###2023-12-09 13:34:05.016893$GLGSV,2,1,06,65,38,319,43,71,23,175,43,72,63,222,46,73,23,052,40*61
###2023-12-09 13:34:05.018679$GLGSV,2,2,06,74,60,013,41,75,43,271,46,,,,,,,,*62
###2023-12-09 13:34:05.021010$GAGSV,1,1,04,04,40,310,43,19,72,181,42,21,77,046,45,27,22,050,38*61
###2023-12-09 13:34:05.023350$GBGSV,2,1,07,12,15,126,40,14,29,190,41,24,63,045,47,25,50,275,47*6A
###2023-12-09 13:34:05.025393$GBGSV,2,2,07,26,16,070,43,33,46,217,46,35,16,057,42,,,,*5E
###2023-12-09 13:34:05.026694$GNVTG,21.61,T,,M,1.98,N,3.67,K,A*15
###2023-12-09 13:34:05.028311$GNGST,183404.10,5.300,,,,0.100,0.069,0.160*63
###2023-12-09 13:34:05.029603$GNZDA,183404.10,09,12,2023,00,00*7A
###2023-12-09 13:34:05.030240$GNEBP,,,,,,M*13
###2023-12-09 13:34:05.196532$GNGGA,183404.30,4138.0409395,N,07032.4098468,W,1,26,0.6,13.684,M,-29.745,M,0.0,*58
###2023-12-09 13:34:05.395492$GNGGA,183404.50,4138.0410508,N,07032.4097942,W,1,26,0.6,13.685,M,-29.745,M,0.0,*5F
###2023-12-09 13:34:05.595806$GNGGA,183404.70,4138.0411623,N,07032.4097315,W,1,25,0.6,13.670,M,-29.745,M,0.0,*57
###2023-12-09 13:34:05.796748$GNGGA,183404.90,4138.0412712,N,07032.4096757,W,1,25,0.6,13.656,M,-29.745,M,0.0,*5E
###2023-12-09 13:34:05.999264$GNRMC,183405.10,A,4138.0413891,N,07032.4096512,W,2.22,6.13,091223,,,A*56
###2023-12-09 13:34:06.002145$GNGGA,183405.10,4138.0413891,N,07032.4096512,W,1,24,0.6,13.662,M,-29.745,M,0.0,*57
###2023-12-09 13:34:06.003958$GPGSA,A,3,03,04,16,26,28,29,31,,,,,,1.1,0.6,0.9*3A
###2023-12-09 13:34:06.005680$GLGSA,A,3,65,71,72,73,74,75,,,,,,,1.1,0.6,0.9*24
###2023-12-09 13:34:06.007280$GAGSA,A,3,04,19,21,27,,,,,,,,,1.1,0.6,0.9*26
###2023-12-09 13:34:06.009306$GBGSA,A,3,12,14,24,25,26,33,35,,,,,,1.1,0.6,0.9*2A
###2023-12-09 13:34:06.011669$GPGSV,2,1,07,03,27,247,41,04,46,308,44,16,66,222,46,26,84,040,48*75
###2023-12-09 13:34:06.013716$GPGSV,2,2,07,28,38,084,44,29,21,047,40,31,59,066,46,,,,*40
###2023-12-09 13:34:06.016063$GLGSV,2,1,06,65,38,319,43,71,23,175,44,72,63,222,47,73,23,052,40*67
###2023-12-09 13:34:06.017814$GLGSV,2,2,06,74,60,013,41,75,43,271,47,,,,,,,,*63
###2023-12-09 13:34:06.020150$GAGSV,1,1,04,04,40,310,44,19,72,181,42,21,77,046,45,27,22,050,38*66
###2023-12-09 13:34:06.022481$GBGSV,2,1,07,12,15,126,40,14,29,190,41,24,63,045,47,25,50,275,47*6A
###2023-12-09 13:34:06.024536$GBGSV,2,2,07,26,16,070,43,33,46,217,47,35,16,057,41,,,,*5C
###2023-12-09 13:34:06.025797$GNVTG,6.13,T,,M,2.22,N,4.10,K,A*20
###2023-12-09 13:34:06.027427$GNGST,183405.10,5.400,,,,0.100,0.069,0.160*65
