###2023-12-09 13:33:33.021761$GLGSV,2,1,07,65,38,319,43,71,23,175,42,72,63,222,44,73,23,052,44*67
###2023-12-09 13:33:33.023856$GLGSV,2,2,07,74,60,013,41,75,43,271,45,83,15,048,35,,,,*55
###2023-12-09 13:33:33.026193$GAGSV,1,1,04,04,39,310,44,19,73,182,41,21,77,047,46,27,23,050,42*67
###2023-12-09 13:33:33.028551$GBGSV,2,1,07,12,15,126,40,14,29,190,40,24,63,045,47,25,50,275,45*69
###2023-12-09 13:33:33.030612$GBGSV,2,2,07,26,16,070,43,33,46,217,44,35,16,057,44,,,,*5A
###2023-12-09 13:33:33.031942$GNVTG,216.61,T,,M,2.20,N,4.07,K,A*22
###2023-12-09 13:33:33.033559$GNGST,183332.10,6.000,,,,0.085,0.069,0.150*6E
###2023-12-09 13:33:33.034868$GNZDA,183332.10,09,12,2023,00,00*78
###2023-12-09 13:33:33.035513$GNEBP,,,,,,M*13
###2023-12-09 13:33:33.202662$GNGGA,183332.30,4138.0584289,N,07032.4151747,W,1,27,0.6,13.410,M,-29.745,M,0.0,*56
###2023-12-09 13:33:33.393157$GNGGA,183332.50,4138.0583355,N,07032.4153002,W,1,27,0.6,13.416,M,-29.745,M,0.0,*55
###2023-12-09 13:33:33.592473$GNGGA,183332.70,4138.0582375,N,07032.4154133,W,1,27,0.6,13.428,M,-29.745,M,0.0,*5D
###2023-12-09 13:33:33.794308$GNGGA,183332.90,4138.0581340,N,07032.4155054,W,1,27,0.6,13.453,M,-29.745,M,0.0,*5B
###2023-12-09 13:33:33.997335$GNRMC,183333.10,A,4138.0580304,N,07032.4155896,W,2.24,208.22,091223,,,A*5F
###2023-12-09 13:33:34.000229$GNGGA,183333.10,4138.0580304,N,07032.4155896,W,1,27,0.6,13.463,M,-29.745,M,0.0,*56
###2023-12-09 13:33:34.002091$GPGSA,A,3,03,04,16,26,27,28,29,31,,,,,1.0,0.6,0.8*3F
###2023-12-09 13:33:34.003944$GLGSA,A,3,65,71,72,73,74,75,83,,,,,,1.0,0.6,0.8*2F
###2023-12-09 13:33:34.005528$GAGSA,A,3,04,19,21,27,,,,,,,,,1.0,0.6,0.8*26
###2023-12-09 13:33:34.007315$GBGSA,A,3,12,14,24,25,26,33,35,,,,,,1.0,0.6,0.8*2A
###2023-12-09 13:33:34.009637$GPGSV,2,1,08,03,27,247,41,04,46,308,45,16,66,222,45,26,84,040,48*78
###2023-12-09 13:33:34.011975$GPGSV,2,2,08,27,16,172,40,28,38,084,44,29,21,047,43,31,59,066,48*70
###2023-12-09 13:33:34.014298$GLGSV,2,1,07,65,38,319,44,71,23,175,39,72,63,222,45,73,23,052,43*6A
###2023-12-09 13:33:34.016349$GLGSV,2,2,07,74,60,013,42,75,43,271,45,83,15,048,36,,,,*55
###2023-12-09 13:33:34.018690$GAGSV,1,1,04,04,39,310,44,19,73,182,40,21,77,047,46,27,23,050,41*65
###2023-12-09 13:33:34.021010$GBGSV,2,1,07,12,15,126,42,14,29,190,42,24,63,045,48,25,50,275,46*65
###2023-12-09 13:33:34.023056$GBGSV,2,2,07,26,16,070,45,33,46,217,45,35,16,057,45,,,,*5C
###2023-12-09 13:33:34.024380$GNVTG,208.22,T,,M,2.24,N,4.14,K,A*2C
###2023-12-09 13:33:34.025988$GNGST,183333.10,6.000,,,,0.086,0.069,0.150*6C
###2023-12-09 13:33:34.027292$GNZDA,183333.10,09,12,2023,00,00*79
###2023-12-09 13:33:34.027930$GNEBP,,,,,,M*13
###2023-12-09 13:33:34.193096$GNGGA,183333.30,4138.0579185,N,07032.4156559,W,1,27,0.6,13.432,M,-29.745,M,0.0,*50
###2023-12-09 13:33:34.393420$GNGGA,183333.50,4138.0578085,N,07032.4157262,W,1,27,0.6,13.427,M,-29.745,M,0.0,*5C
###2023-12-09 13:33:34.593232$GNGGA,183333.70,4138.0577008,N,07032.4158321,W,1,27,0.6,13.472,M,-29.745,M,0.0,*5D
###2023-12-09 13:33:34.793536$GNGGA,183333.90,4138.0575844,N,07032.4159238,W,1,27,0.6,13.490,M,-29.745,M,0.0,*55
###2023-12-09 13:33:34.997047$GNRMC,183334.10,A,4138.0574665,N,07032.4159527,W,2.08,178.88,091223,,,A*50
###2023-12-09 13:33:34.999929$GNGGA,183334.10,4138.0574665,N,07032.4159527,W,1,27,0.6,13.473,M,-29.745,M,0.0,*52
###2023-12-09 13:33:35.001789$GPGSA,A,3,03,04,16,26,27,28,29,31,,,,,1.0,0.6,0.8*3F
###2023-12-09 13:33:35.003582$GLGSA,A,3,65,71,72,73,74,75,83,,,,,,1.0,0.6,0.8*2F
###2023-12-09 13:33:35.005171$GAGSA,A,3,04,19,21,27,,,,,,,,,1.0,0.6,0.8*26
###2023-12-09 13:33:35.006953$GBGSA,A,3,12,14,24,25,26,33,35,,,,,,1.0,0.6,0.8*2A
###2023-12-09 13:33:35.009276$GPGSV,2,1,08,03,27,247,42,04,46,308,46,16,66,222,46,26,84,040,48*7B
###2023-12-09 13:33:35.011606$GPGSV,2,2,08,27,16,172,36,28,38,084,45,29,21,047,42,31,59,066,47*7E
###2023-12-09 13:33:35.013922$GLGSV,2,1,07,65,38,319,43,71,23,175,40,72,63,222,45,73,23,052,39*6E
###2023-12-09 13:33:35.015961$GLGSV,2,2,07,74,60,013,42,75,43,271,47,83,15,048,35,,,,*54
###2023-12-09 13:33:35.018279$GAGSV,1,1,04,04,39,310,44,19,73,182,40,21,77,047,46,27,23,050,39*6A
###2023-12-09 13:33:35.020616$GBGSV,2,1,07,12,15,126,42,14,29,190,42,24,63,045,48,25,50,275,48*6B
###2023-12-09 13:33:35.022665$GBGSV,2,2,07,26,16,070,42,33,46,217,47,35,16,057,43,,,,*5F
###2023-12-09 13:33:35.023989$GNVTG,178.88,T,,M,2.08,N,3.85,K,A*29
###2023-12-09 13:33:35.025600$GNGST,183334.10,5.800,,,,0.086,0.069,0.150*60
###2023-12-09 13:33:35.026900$GNZDA,183334.10,09,12,2023,00,00*7E
###2023-12-09 13:33:35.027541$GNEBP,,,,,,M*13
###2023-12-09 13:33:35.194261$GNGGA,183334.30,4138.0573568,N,07032.4159521,W,1,27,0.6,13.445,M,-29.745,M,0.0,*5A
###2023-12-09 13:33:35.392850$GNGGA,183334.50,4138.0572361,N,07032.4160090,W,1,27,0.6,13.464,M,-29.745,M,0.0,*54
###2023-12-09 13:33:35.592477$GNGGA,183334.70,4138.0571070,N,07032.4160835,W,1,26,0.6,13.492,M,-29.745,M,0.0,*59
###2023-12-09 13:33:35.792155$GNGGA,183334.90,4138.0569852,N,07032.4161027,W,1,26,0.6,13.502,M,-29.745,M,0.0,*54
###2023-12-09 13:33:35.996877$GNRMC,183335.10,A,4138.0568719,N,07032.4160772,W,2.18,169.22,091223,,,A*5F
###2023-12-09 13:33:35.999770$GNGGA,183335.10,4138.0568719,N,07032.4160772,W,1,26,0.6,13.507,M,-29.745,M,0.0,*5F
###2023-12-09 13:33:36.001641$GPGSA,A,3,03,04,16,26,27,28,29,31,,,,,1.0,0.6,0.8*3F
###2023-12-09 13:33:36.003363$GLGSA,A,3,65,71,72,73,74,75,,,,,,,1.0,0.6,0.8*24
###2023-12-09 13:33:36.004943$GAGSA,A,3,04,19,21,27,,,,,,,,,1.0,0.6,0.8*26
###2023-12-09 13:33:36.006724$GBGSA,A,3,12,14,24,25,26,33,35,,,,,,1.0,0.6,0.8*2A
###2023-12-09 13:33:36.009050$GPGSV,2,1,08,03,27,247,40,04,46,308,45,16,66,222,45,26,84,040,48*79
###2023-12-09 13:33:36.011387$GPGSV,2,2,08,27,16,172,35,28,38,084,45,29,21,047,42,31,59,066,46*7C
###2023-12-09 13:33:36.013712$GLGSV,2,1,06,65,38,319,43,71,23,175,40,72,63,222,45,73,23,052,42*63
###2023-12-09 13:33:36.015471$GLGSV,2,2,06,74,60,013,42,75,43,271,47,,,,,,,,*60
###2023-12-09 13:33:36.017787$GAGSV,1,1,04,04,39,310,44,19,73,182,40,21,77,047,45,27,23,050,39*69
###2023-12-09 13:33:36.020188$GBGSV,2,1,07,12,15,126,42,14,29,190,40,24,63,045,49,25,50,275,47*67
###2023-12-09 13:33:36.022233$GBGSV,2,2,07,26,16,070,42,33,46,217,46,35,16,057,43,,,,*5E
###2023-12-09 13:33:36.023574$GNVTG,169.22,T,,M,2.18,N,4.03,K,A*21
###2023-12-09 13:33:36.025183$GNGST,183335.10,5.900,,,,0.087,0.069,0.150*61
###2023-12-09 13:33:36.026470$GNZDA,183335.10,09,12,2023,00,00*7F
###2023-12-09 13:33:36.027121$GNEBP,,,,,,M*13
###2023-12-09 13:33:36.194245$GNGGA,183335.30,4138.0567494,N,07032.4160663,W,1,27,0.6,13.495,M,-29.745,M,0.0,*5E
###2023-12-09 13:33:36.393149$GNGGA,183335.50,4138.0566176,N,07032.4160971,W,1,27,0.6,13.501,M,-29.745,M,0.0,*50
###2023-12-09 13:33:36.592444$GNGGA,183335.70,4138.0564884,N,07032.4161345,W,1,27,0.6,13.523,M,-29.745,M,0.0,*58
###2023-12-09 13:33:36.794890$GNGGA,183335.90,4138.0563594,N,07032.4161287,W,1,27,0.6,13.542,M,-29.745,M,0.0,*55
###2023-12-09 13:33:36.997712$GNRMC,183336.10,A,4138.0562293,N,07032.4160916,W,2.31,170.46,091223,,,A*5C
###2023-12-09 13:33:37.000617$GNGGA,183336.10,4138.0562293,N,07032.4160916,W,1,26,0.6,13.538,M,-29.745,M,0.0,*51
###2023-12-09 13:33:37.002489$GPGSA,A,3,03,04,16,26,27,28,29,31,,,,,1.0,0.6,0.8*3F
###2023-12-09 13:33:37.004217$GLGSA,A,3,65,71,72,73,74,75,,,,,,,1.0,0.6,0.8*24
###2023-12-09 13:33:37.005806$GAGSA,A,3,04,19,21,27,,,,,,,,,1.0,0.6,0.8*26
###2023-12-09 13:33:37.007589$GBGSA,A,3,12,14,24,25,26,33,35,,,,,,1.0,0.6,0.8*2A
###2023-12-09 13:33:37.009919$GPGSV,2,1,08,03,27,247,41,04,46,308,46,16,66,222,46,26,84,040,48*78
###2023-12-09 13:33:37.012255$GPGSV,2,2,08,27,16,172,38,28,38,084,44,29,21,047,43,31,59,066,46*71
###2023-12-09 13:33:37.014605$GLGSV,2,1,06,65,38,319,41,71,23,175,39,72,63,222,45,73,23,052,42*6F
###2023-12-09 13:33:37.016351$GLGSV,2,2,06,74,60,013,42,75,43,271,46,,,,,,,,*61
###2023-12-09 13:33:37.018694$GAGSV,1,1,04,04,39,310,44,19,73,182,40,21,77,047,45,27,23,050,40*67
###2023-12-09 13:33:37.021032$GBGSV,2,1,07,12,15,126,42,14,29,190,41,24,63,045,49,25,50,275,48*69
###2023-12-09 13:33:37.023116$GBGSV,2,2,07,26,16,070,43,33,46,217,46,35,16,057,46,,,,*5A
###2023-12-09 13:33:37.024441$GNVTG,170.46,T,,M,2.31,N,4.28,K,A*29
###2023-12-09 13:33:37.026310$GNGST,183336.10,5.400,,,,0.088,0.068,0.150*61
###2023-12-09 13:33:37.027628$GNZDA,183336.10,09,12,2023,00,00*7C
###2023-12-09 13:33:37.028274$GNEBP,,,,,,M*13
###2023-12-09 13:33:37.192945$GNGGA,183336.30,4138.0561008,N,07032.4161015,W,1,27,0.6,13.539,M,-29.745,M,0.0,*5B
###2023-12-09 13:33:37.393208$GNGGA,183336.50,4138.0559635,N,07032.4161497,W,1,26,0.6,13.554,M,-29.745,M,0.0,*5A
###2023-12-09 13:33:37.592414$GNGGA,183336.70,4138.0558272,N,07032.4161653,W,1,26,0.6,13.541,M,-29.745,M,0.0,*50
###2023-12-09 13:33:37.793190$GNGGA,183336.90,4138.0556946,N,07032.4161557,W,1,26,0.6,13.549,M,-29.745,M,0.0,*53
###2023-12-09 13:33:37.997144$GNRMC,183337.10,A,4138.0555557,N,07032.4161732,W,2.60,189.80,091223,,,A*57
###2023-12-09 13:33:38.000021$GNGGA,183337.10,4138.0555557,N,07032.4161732,W,1,26,0.6,13.570,M,-29.745,M,0.0,*5E
###2023-12-09 13:33:38.001879$GPGSA,A,3,03,04,16,26,27,28,29,31,,,,,1.0,0.6,0.8*3F
