###2023-12-09 13:33:23.393361$GNGGA,183322.50,4138.0564633,N,07032.4083128,W,1,26,0.6,13.437,M,-29.745,M,0.0,*5F
###2023-12-09 13:33:23.593571$GNGGA,183322.70,4138.0566222,N,07032.4084187,W,1,26,0.6,13.433,M,-29.745,M,0.0,*5D
###2023-12-09 13:33:23.792959$GNGGA,183322.90,4138.0567807,N,07032.4085252,W,1,26,0.6,13.415,M,-29.745,M,0.0,*51
###2023-12-09 13:33:23.997180$GNRMC,183323.10,A,4138.0569387,N,07032.4086259,W,3.13,335.82,091223,,,A*54
###2023-12-09 13:33:24.000063$GNGGA,183323.10,4138.0569387,N,07032.4086259,W,1,26,0.6,13.413,M,-29.745,M,0.0,*5B
###2023-12-09 13:33:24.001923$GPGSA,A,3,03,04,16,26,27,28,29,31,,,,,1.0,0.6,0.8*3F
###2023-12-09 13:33:24.003653$GLGSA,A,3,65,71,72,73,74,75,,,,,,,1.0,0.6,0.8*24
###2023-12-09 13:33:24.005237$GAGSA,A,3,04,19,21,27,,,,,,,,,1.0,0.6,0.8*26
###2023-12-09 13:33:24.007037$GBGSA,A,3,12,14,24,25,26,33,35,,,,,,1.0,0.6,0.8*2A
###2023-12-09 13:33:24.009361$GPGSV,2,1,08,03,27,247,44,04,46,308,43,16,66,222,46,26,85,040,48*79
###2023-12-09 13:33:24.011703$GPGSV,2,2,08,27,16,173,43,28,39,084,45,29,21,048,42,31,60,064,47*7B
###2023-12-09 13:33:24.014033$GLGSV,2,1,06,65,38,319,40,71,23,175,45,72,63,222,46,73,23,052,44*60
###2023-12-09 13:33:24.015794$GLGSV,2,2,06,74,60,013,42,75,43,271,47,,,,,,,,*60
###2023-12-09 13:33:24.018128$GAGSV,1,1,04,04,39,310,42,19,73,182,42,21,77,047,46,27,23,050,41*61
###2023-12-09 13:33:24.020485$GBGSV,2,1,07,12,15,126,41,14,29,190,41,24,63,045,49,25,50,275,48*6A
###2023-12-09 13:33:24.022514$GBGSV,2,2,07,26,16,070,41,33,46,217,48,35,16,057,42,,,,*52
###2023-12-09 13:33:24.023849$GNVTG,335.82,T,,M,3.13,N,5.80,K,A*20
###2023-12-09 13:33:24.025465$GNGST,183323.10,5.800,,,,0.090,0.068,0.150*60
###2023-12-09 13:33:24.026796$GNZDA,183323.10,09,12,2023,00,00*78
###2023-12-09 13:33:24.027441$GNEBP,,,,,,M*13
###2023-12-09 13:33:24.195082$GNGGA,183323.30,4138.0570945,N,07032.4087197,W,1,26,0.6,13.415,M,-29.745,M,0.0,*53
###2023-12-09 13:33:24.393371$GNGGA,183323.50,4138.0572437,N,07032.4088211,W,1,26,0.6,13.412,M,-29.745,M,0.0,*5A
###2023-12-09 13:33:24.593415$GNGGA,183323.70,4138.0573864,N,07032.4089315,W,1,26,0.6,13.411,M,-29.745,M,0.0,*54
###2023-12-09 13:33:24.796090$GNGGA,183323.90,4138.0575276,N,07032.4090329,W,1,26,0.6,13.411,M,-29.745,M,0.0,*52
###2023-12-09 13:33:24.999098$GNRMC,183324.10,A,4138.0576668,N,07032.4091337,W,2.82,329.33,091223,,,A*58
###2023-12-09 13:33:25.001942$GNGGA,183324.10,4138.0576668,N,07032.4091337,W,1,26,0.6,13.406,M,-29.745,M,0.0,*5D
###2023-12-09 13:33:25.003812$GPGSA,A,3,03,04,16,26,27,28,29,31,,,,,1.0,0.6,0.8*3F
###2023-12-09 13:33:25.005526$GLGSA,A,3,65,71,72,73,74,75,,,,,,,1.0,0.6,0.8*24
###2023-12-09 13:33:25.007115$GAGSA,A,3,04,19,21,27,,,,,,,,,1.0,0.6,0.8*26
###2023-12-09 13:33:25.008886$GBGSA,A,3,12,14,24,25,26,33,35,,,,,,1.0,0.6,0.8*2A
###2023-12-09 13:33:25.011224$GPGSV,2,1,08,03,27,247,44,04,46,308,43,16,66,222,46,26,85,040,48*79
###2023-12-09 13:33:25.013558$GPGSV,2,2,08,27,16,173,42,28,39,084,44,29,21,048,42,31,60,064,47*7B
###2023-12-09 13:33:25.015899$GLGSV,2,1,06,65,38,319,40,71,23,175,45,72,63,222,46,73,23,052,44*60
###2023-12-09 13:33:25.017638$GLGSV,2,2,06,74,60,013,41,75,43,271,47,,,,,,,,*63
###2023-12-09 13:33:25.019976$GAGSV,1,1,04,04,39,310,41,19,73,182,41,21,77,047,46,27,23,050,41*61
###2023-12-09 13:33:25.022305$GBGSV,2,1,07,12,15,126,44,14,29,190,42,24,63,045,50,25,50,275,49*65
###2023-12-09 13:33:25.024358$GBGSV,2,2,07,26,16,070,43,33,46,217,49,35,16,057,43,,,,*50
###2023-12-09 13:33:25.025685$GNVTG,329.33,T,,M,2.82,N,5.22,K,A*26
###2023-12-09 13:33:25.027307$GNGST,183324.10,6.200,,,,0.089,0.067,0.150*69
###2023-12-09 13:33:25.028597$GNZDA,183324.10,09,12,2023,00,00*7F
###2023-12-09 13:33:25.029236$GNEBP,,,,,,M*13
###2023-12-09 13:33:25.194170$GNGGA,183324.30,4138.0577969,N,07032.4092425,W,1,27,0.6,13.404,M,-29.745,M,0.0,*54
###2023-12-09 13:33:25.394350$GNGGA,183324.50,4138.0579189,N,07032.4093536,W,1,26,0.6,13.405,M,-29.745,M,0.0,*58
###2023-12-09 13:33:25.594083$GNGGA,183324.70,4138.0580360,N,07032.4094694,W,1,26,0.6,13.399,M,-29.745,M,0.0,*57
###2023-12-09 13:33:25.794160$GNGGA,183324.90,4138.0581505,N,07032.4095856,W,1,26,0.6,13.397,M,-29.745,M,0.0,*52
###2023-12-09 13:33:25.998113$GNRMC,183325.10,A,4138.0582614,N,07032.4097064,W,2.55,318.05,091223,,,A*57
###2023-12-09 13:33:26.000989$GNGGA,183325.10,4138.0582614,N,07032.4097064,W,1,26,0.6,13.388,M,-29.745,M,0.0,*5E
###2023-12-09 13:33:26.002847$GPGSA,A,3,03,04,16,26,27,28,29,31,,,,,1.0,0.6,0.9*3E
###2023-12-09 13:33:26.004560$GLGSA,A,3,65,71,72,73,74,75,,,,,,,1.0,0.6,0.9*25
###2023-12-09 13:33:26.006135$GAGSA,A,3,04,19,21,27,,,,,,,,,1.0,0.6,0.9*27
###2023-12-09 13:33:26.007910$GBGSA,A,3,12,14,24,25,26,33,35,,,,,,1.0,0.6,0.9*2B
###2023-12-09 13:33:26.010224$GPGSV,2,1,08,03,27,247,43,04,46,308,42,16,66,222,46,26,85,040,48*7F
###2023-12-09 13:33:26.012566$GPGSV,2,2,08,27,16,173,41,28,39,084,43,29,21,048,42,31,60,064,48*70
###2023-12-09 13:33:26.014899$GLGSV,2,1,06,65,38,319,40,71,23,175,42,72,63,222,46,73,23,052,43*60
###2023-12-09 13:33:26.016638$GLGSV,2,2,06,74,60,013,42,75,43,271,47,,,,,,,,*60
###2023-12-09 13:33:26.018968$GAGSV,1,1,04,04,39,310,41,19,73,182,41,21,77,047,46,27,23,050,41*61
###2023-12-09 13:33:26.021293$GBGSV,2,1,07,12,15,126,42,14,29,190,41,24,63,045,48,25,50,275,46*66
###2023-12-09 13:33:26.023337$GBGSV,2,2,07,26,16,070,42,33,46,217,47,35,16,057,41,,,,*5D
###2023-12-09 13:33:26.024659$GNVTG,318.05,T,,M,2.55,N,4.72,K,A*2F
###2023-12-09 13:33:26.026262$GNGST,183325.10,5.200,,,,0.088,0.067,0.150*6A
###2023-12-09 13:33:26.027559$GNZDA,183325.10,09,12,2023,00,00*7E
###2023-12-09 13:33:26.028195$GNEBP,,,,,,M*13
###2023-12-09 13:33:26.194136$GNGGA,183325.30,4138.0583610,N,07032.4098345,W,1,26,0.6,13.390,M,-29.745,M,0.0,*5F
###2023-12-09 13:33:26.393309$GNGGA,183325.50,4138.0584544,N,07032.4099698,W,1,26,0.6,13.390,M,-29.745,M,0.0,*58
###2023-12-09 13:33:26.594438$GNGGA,183325.70,4138.0585432,N,07032.4101092,W,1,26,0.6,13.392,M,-29.745,M,0.0,*55
###2023-12-09 13:33:26.792889$GNGGA,183325.90,4138.0586274,N,07032.4102551,W,1,26,0.6,13.389,M,-29.745,M,0.0,*5F
###2023-12-09 13:33:26.999179$GNRMC,183326.10,A,4138.0587057,N,07032.4104065,W,2.41,300.91,091223,,,A*5B
###2023-12-09 13:33:27.002024$GNGGA,183326.10,4138.0587057,N,07032.4104065,W,1,26,0.6,13.389,M,-29.745,M,0.0,*52
###2023-12-09 13:33:27.003897$GPGSA,A,3,03,04,16,26,27,28,29,31,,,,,1.0,0.6,0.9*3E
###2023-12-09 13:33:27.005613$GLGSA,A,3,65,71,72,73,74,75,,,,,,,1.0,0.6,0.9*25
###2023-12-09 13:33:27.007211$GAGSA,A,3,04,19,21,27,,,,,,,,,1.0,0.6,0.9*27
###2023-12-09 13:33:27.008980$GBGSA,A,3,12,14,24,25,26,33,35,,,,,,1.0,0.6,0.9*2B
###2023-12-09 13:33:27.011312$GPGSV,2,1,08,03,27,247,42,04,46,308,42,16,66,222,46,26,84,040,48*7F
###2023-12-09 13:33:27.013659$GPGSV,2,2,08,27,16,173,42,28,39,084,43,29,21,048,41,31,60,064,47*7F
###2023-12-09 13:33:27.016003$GLGSV,2,1,06,65,38,319,40,71,23,175,43,72,63,222,45,73,23,052,42*63
###2023-12-09 13:33:27.017747$GLGSV,2,2,06,74,60,013,43,75,43,271,46,,,,,,,,*60
###2023-12-09 13:33:27.020079$GAGSV,1,1,04,04,39,310,40,19,73,182,41,21,77,047,46,27,23,050,40*61
###2023-12-09 13:33:27.022402$GBGSV,2,1,07,12,15,126,41,14,29,190,43,24,63,045,49,25,50,275,46*66
###2023-12-09 13:33:27.024453$GBGSV,2,2,07,26,16,070,41,33,46,217,46,35,16,057,42,,,,*5C
###2023-12-09 13:33:27.025772$GNVTG,300.91,T,,M,2.41,N,4.46,K,A*29
###2023-12-09 13:33:27.027395$GNGST,183326.10,4.900,,,,0.087,0.067,0.150*6C
###2023-12-09 13:33:27.028678$GNZDA,183326.10,09,12,2023,00,00*7D
###2023-12-09 13:33:27.029315$GNEBP,,,,,,M*13
###2023-12-09 13:33:27.197539$GNGGA,183326.30,4138.0587759,N,07032.4105618,W,1,26,0.6,13.384,M,-29.745,M,0.0,*59
###2023-12-09 13:33:27.392182$GNGGA,183326.50,4138.0588409,N,07032.4107191,W,1,26,0.6,13.376,M,-29.745,M,0.0,*5F
###2023-12-09 13:33:27.593620$GNGGA,183326.70,4138.0589025,N,07032.4108763,W,1,26,0.6,13.370,M,-29.745,M,0.0,*54
###2023-12-09 13:33:27.795194$GNGGA,183326.90,4138.0589626,N,07032.4110309,W,1,26,0.6,13.375,M,-29.745,M,0.0,*5B
###2023-12-09 13:33:27.999084$GNRMC,183327.10,A,4138.0590168,N,07032.4111845,W,2.25,292.82,091223,,,A*55
###2023-12-09 13:33:28.001936$GNGGA,183327.10,4138.0590168,N,07032.4111845,W,1,26,0.6,13.369,M,-29.745,M,0.0,*58
###2023-12-09 13:33:28.004063$GPGSA,A,3,03,04,16,26,27,28,29,31,,,,,1.0,0.6,0.9*3E
###2023-12-09 13:33:28.005790$GLGSA,A,3,65,71,72,73,74,75,,,,,,,1.0,0.6,0.9*25
###2023-12-09 13:33:28.007407$GAGSA,A,3,04,19,21,27,,,,,,,,,1.0,0.6,0.9*27
###2023-12-09 13:33:28.009195$GBGSA,A,3,12,14,24,25,26,33,35,,,,,,1.0,0.6,0.9*2B
###2023-12-09 13:33:28.011542$GPGSV,2,1,08,03,27,247,40,04,46,308,43,16,66,222,46,26,84,040,48*7C
###2023-12-09 13:33:28.013877$GPGSV,2,2,08,27,16,172,42,28,39,084,45,29,21,048,41,31,60,064,47*78
###2023-12-09 13:33:28.016231$GLGSV,2,1,06,65,38,319,40,71,23,175,43,72,63,222,46,73,23,052,42*60
###2023-12-09 13:33:28.017992$GLGSV,2,2,06,74,60,013,42,75,43,271,44,,,,,,,,*63
###2023-12-09 13:33:28.020333$GAGSV,1,1,04,04,39,310,41,19,73,182,41,21,77,047,46,27,23,050,40*60
###2023-12-09 13:33:28.022683$GBGSV,2,1,07,12,15,126,41,14,29,190,43,24,63,045,49,25,50,275,46*66
###2023-12-09 13:33:28.024723$GBGSV,2,2,07,26,16,070,41,33,46,217,46,35,16,057,42,,,,*5C
