###2023-12-09 12:37:11.955640$GLGSV,2,2,05,75,22,241,43,,,,,,,,,,,,*52
###2023-12-09 12:37:11.957988$GAGSV,1,1,04,04,21,311,37,19,82,299,40,21,78,175,45,27,41,049,44*6B
###2023-12-09 12:37:11.960353$GBGSV,2,1,05,14,54,197,46,24,80,351,48,25,33,253,43,26,34,058,44*6B
###2023-12-09 12:37:11.961819$GBGSV,2,2,05,33,63,252,48,,,,,,,,,,,,*52
###2023-12-09 12:37:11.963157$GNVTG,291.55,T,,M,3.17,N,5.87,K,A*26
###2023-12-09 12:37:11.964803$GNGST,173711.10,19.000,,,,0.086,0.073,0.170*50
###2023-12-09 12:37:11.966087$GNZDA,173711.10,09,12,2023,00,00*72
###2023-12-09 12:37:11.966742$GNEBP,,,,,,M*13
###2023-12-09 12:37:12.136552$GNGGA,173711.30,4138.0622344,N,07032.3606609,W,1,23,0.7,13.241,M,-29.744,M,0.0,*5C
###2023-12-09 12:37:12.336753$GNGGA,173711.50,4138.0622880,N,07032.3608866,W,1,23,0.7,13.246,M,-29.744,M,0.0,*57
###2023-12-09 12:37:12.538641$GNGGA,173711.70,4138.0623391,N,07032.3611154,W,1,23,0.7,13.248,M,-29.744,M,0.0,*51
###2023-12-09 12:37:12.735948$GNGGA,173711.90,4138.0623914,N,07032.3613473,W,1,23,0.7,13.246,M,-29.744,M,0.0,*54
###2023-12-09 12:37:12.937415$GNRMC,173712.10,A,4138.0624403,N,07032.3615806,W,3.29,284.45,091223,,,A*5E
###2023-12-09 12:37:12.940272$GNGGA,173712.10,4138.0624403,N,07032.3615806,W,1,23,0.7,13.252,M,-29.744,M,0.0,*5E
###2023-12-09 12:37:12.942134$GPGSA,A,3,03,04,16,26,28,29,31,32,,,,,1.2,0.7,1.0*31
###2023-12-09 12:37:12.943805$GLGSA,A,3,71,72,73,74,75,,,,,,,,1.2,0.7,1.0*2D
###2023-12-09 12:37:12.945396$GAGSA,A,3,04,19,21,27,,,,,,,,,1.2,0.7,1.0*2C
###2023-12-09 12:37:12.947069$GBGSA,A,3,14,24,25,26,33,,,,,,,,1.2,0.7,1.0*25
###2023-12-09 12:37:12.949421$GPGSV,2,1,08,03,38,276,42,04,22,311,37,16,37,207,44,26,67,207,47*79
###2023-12-09 12:37:12.951812$GPGSV,2,2,08,28,57,057,45,29,25,073,41,31,73,004,48,32,29,134,43*72
###2023-12-09 12:37:12.954150$GLGSV,2,1,05,71,56,169,47,72,66,308,45,73,47,034,48,74,71,293,42*63
###2023-12-09 12:37:12.955625$GLGSV,2,2,05,75,22,241,43,,,,,,,,,,,,*52
###2023-12-09 12:37:12.957953$GAGSV,1,1,04,04,21,311,37,19,82,299,40,21,78,175,45,27,41,049,44*6B
###2023-12-09 12:37:12.960305$GBGSV,2,1,05,14,54,197,45,24,80,351,48,25,33,253,43,26,34,058,43*6F
###2023-12-09 12:37:12.961761$GBGSV,2,2,05,33,63,252,47,,,,,,,,,,,,*5D
###2023-12-09 12:37:12.963097$GNVTG,284.45,T,,M,3.29,N,6.08,K,A*2A
###2023-12-09 12:37:12.964748$GNGST,173712.10,19.000,,,,0.087,0.073,0.170*52
###2023-12-09 12:37:12.966042$GNZDA,173712.10,09,12,2023,00,00*71
###2023-12-09 12:37:12.966694$GNEBP,,,,,,M*13
###2023-12-09 12:37:13.136721$GNGGA,173712.30,4138.0624851,N,07032.3618157,W,1,23,0.7,13.247,M,-29.744,M,0.0,*53
###2023-12-09 12:37:13.337400$GNGGA,173712.50,4138.0625344,N,07032.3620511,W,1,23,0.7,13.244,M,-29.744,M,0.0,*55
###2023-12-09 12:37:13.535901$GNGGA,173712.70,4138.0625921,N,07032.3622827,W,1,23,0.7,13.242,M,-29.744,M,0.0,*52
###2023-12-09 12:37:13.736503$GNGGA,173712.90,4138.0626564,N,07032.3625124,W,1,23,0.7,13.246,M,-29.744,M,0.0,*5B
###2023-12-09 12:37:13.936361$GNRMC,173713.10,A,4138.0627183,N,07032.3627436,W,3.32,288.70,091223,,,A*5F
###2023-12-09 12:37:13.939257$GNGGA,173713.10,4138.0627183,N,07032.3627436,W,1,23,0.7,13.241,M,-29.744,M,0.0,*5D
###2023-12-09 12:37:13.941113$GPGSA,A,3,03,04,16,26,28,29,31,32,,,,,1.2,0.7,1.0*31
###2023-12-09 12:37:13.942776$GLGSA,A,3,71,72,73,74,75,,,,,,,,1.2,0.7,1.0*2D
###2023-12-09 12:37:13.944359$GAGSA,A,3,04,19,21,27,,,,,,,,,1.2,0.7,1.0*2C
###2023-12-09 12:37:13.945999$GBGSA,A,3,14,24,25,26,33,,,,,,,,1.2,0.7,1.0*25
###2023-12-09 12:37:13.948346$GPGSV,2,1,08,03,38,276,42,04,22,311,38,16,37,207,44,26,67,207,47*76
###2023-12-09 12:37:13.950713$GPGSV,2,2,08,28,57,057,45,29,25,073,41,31,73,004,47,32,29,134,44*7A
###2023-12-09 12:37:13.953053$GLGSV,2,1,05,71,56,169,47,72,66,308,45,73,47,034,47,74,71,293,42*6C
###2023-12-09 12:37:13.954509$GLGSV,2,2,05,75,22,241,44,,,,,,,,,,,,*55
###2023-12-09 12:37:13.956852$GAGSV,1,1,04,04,21,311,38,19,82,299,40,21,78,175,45,27,41,049,44*64
###2023-12-09 12:37:13.959201$GBGSV,2,1,05,14,54,197,47,24,80,351,49,25,33,253,44,26,34,058,45*6D
###2023-12-09 12:37:13.960662$GBGSV,2,2,05,33,63,252,48,,,,,,,,,,,,*52
###2023-12-09 12:37:13.961984$GNVTG,288.70,T,,M,3.32,N,6.16,K,A*25
###2023-12-09 12:37:13.963646$GNGST,173713.10,18.000,,,,0.087,0.074,0.170*55
###2023-12-09 12:37:13.964941$GNZDA,173713.10,09,12,2023,00,00*70
###2023-12-09 12:37:13.965578$GNEBP,,,,,,M*13
###2023-12-09 12:37:14.136160$GNGGA,173713.30,4138.0627750,N,07032.3629750,W,1,23,0.7,13.244,M,-29.744,M,0.0,*5F
###2023-12-09 12:37:14.336668$GNGGA,173713.50,4138.0628360,N,07032.3632099,W,1,23,0.7,13.247,M,-29.744,M,0.0,*5A
###2023-12-09 12:37:14.537681$GNGGA,173713.70,4138.0628984,N,07032.3634445,W,1,23,0.7,13.247,M,-29.744,M,0.0,*5B
###2023-12-09 12:37:14.736133$GNGGA,173713.90,4138.0629545,N,07032.3636815,W,1,23,0.7,13.249,M,-29.744,M,0.0,*50
###2023-12-09 12:37:14.937389$GNRMC,173714.10,A,4138.0629998,N,07032.3639221,W,3.32,282.85,091223,,,A*5B
###2023-12-09 12:37:14.940280$GNGGA,173714.10,4138.0629998,N,07032.3639221,W,1,23,0.7,13.251,M,-29.744,M,0.0,*58
###2023-12-09 12:37:14.942148$GPGSA,A,3,03,04,16,26,28,29,31,32,,,,,1.2,0.7,1.0*31
###2023-12-09 12:37:14.943810$GLGSA,A,3,71,72,73,74,75,,,,,,,,1.2,0.7,1.0*2D
###2023-12-09 12:37:14.945390$GAGSA,A,3,04,19,21,27,,,,,,,,,1.2,0.7,1.0*2C
###2023-12-09 12:37:14.947063$GBGSA,A,3,14,24,25,26,33,,,,,,,,1.2,0.7,1.0*25
###2023-12-09 12:37:14.949417$GPGSV,2,1,08,03,38,276,41,04,22,311,36,16,37,207,44,26,67,207,46*7A
###2023-12-09 12:37:14.951770$GPGSV,2,2,08,28,57,057,45,29,25,073,41,31,73,004,47,32,29,134,42*7C
###2023-12-09 12:37:14.954107$GLGSV,2,1,05,71,56,169,47,72,66,308,45,73,47,034,48,74,71,293,42*63
###2023-12-09 12:37:14.955579$GLGSV,2,2,05,75,22,241,41,,,,,,,,,,,,*50
###2023-12-09 12:37:14.957916$GAGSV,1,1,04,04,21,311,37,19,82,299,40,21,78,175,45,27,41,049,44*6B
###2023-12-09 12:37:14.960265$GBGSV,2,1,05,14,54,197,45,24,80,351,49,25,33,253,43,26,34,058,45*68
###2023-12-09 12:37:14.961725$GBGSV,2,2,05,33,63,252,48,,,,,,,,,,,,*52
###2023-12-09 12:37:14.963069$GNVTG,282.85,T,,M,3.32,N,6.16,K,A*25
###2023-12-09 12:37:14.964726$GNGST,173714.10,18.000,,,,0.087,0.074,0.170*52
###2023-12-09 12:37:14.966024$GNZDA,173714.10,09,12,2023,00,00*77
###2023-12-09 12:37:14.966675$GNEBP,,,,,,M*13
###2023-12-09 12:37:15.136186$GNGGA,173714.30,4138.0630385,N,07032.3641613,W,1,23,0.7,13.248,M,-29.744,M,0.0,*56
###2023-12-09 12:37:15.336040$GNGGA,173714.50,4138.0630798,N,07032.3644014,W,1,23,0.7,13.257,M,-29.744,M,0.0,*52
###2023-12-09 12:37:15.537026$GNGGA,173714.70,4138.0631180,N,07032.3646421,W,1,23,0.7,13.260,M,-29.744,M,0.0,*5A
###2023-12-09 12:37:15.735874$GNGGA,173714.90,4138.0631412,N,07032.3648821,W,1,23,0.7,13.265,M,-29.744,M,0.0,*5D
###2023-12-09 12:37:15.937310$GNRMC,173715.10,A,4138.0631538,N,07032.3651173,W,3.19,271.91,091223,,,A*5F
###2023-12-09 12:37:15.940189$GNGGA,173715.10,4138.0631538,N,07032.3651173,W,1,23,0.7,13.266,M,-29.744,M,0.0,*58
###2023-12-09 12:37:15.942054$GPGSA,A,3,03,04,16,26,28,29,31,32,,,,,1.2,0.7,1.0*31
###2023-12-09 12:37:15.943723$GLGSA,A,3,71,72,73,74,75,,,,,,,,1.2,0.7,1.0*2D
###2023-12-09 12:37:15.945309$GAGSA,A,3,04,19,21,27,,,,,,,,,1.2,0.7,1.0*2C
###2023-12-09 12:37:15.946982$GBGSA,A,3,14,24,25,26,33,,,,,,,,1.2,0.7,1.0*25
###2023-12-09 12:37:15.949332$GPGSV,2,1,08,03,38,276,42,04,22,311,38,16,37,207,45,26,67,207,46*76
###2023-12-09 12:37:15.951690$GPGSV,2,2,08,28,57,057,44,29,25,073,42,31,73,004,47,32,29,134,42*7E
###2023-12-09 12:37:15.954029$GLGSV,2,1,05,71,56,169,48,72,66,308,45,73,47,034,47,74,71,293,42*63
###2023-12-09 12:37:15.955515$GLGSV,2,2,05,75,22,241,42,,,,,,,,,,,,*53
###2023-12-09 12:37:15.957849$GAGSV,1,1,04,04,21,311,37,19,82,299,40,21,78,175,46,27,41,049,44*68
###2023-12-09 12:37:15.960192$GBGSV,2,1,05,14,54,197,44,24,80,351,48,25,33,253,43,26,34,058,43*6E
###2023-12-09 12:37:15.961649$GBGSV,2,2,05,33,63,252,46,,,,,,,,,,,,*5C
###2023-12-09 12:37:15.962988$GNVTG,271.91,T,,M,3.19,N,5.90,K,A*28
###2023-12-09 12:37:15.964635$GNGST,173715.10,19.000,,,,0.088,0.074,0.180*52
###2023-12-09 12:37:15.965928$GNZDA,173715.10,09,12,2023,00,00*76
###2023-12-09 12:37:15.966578$GNEBP,,,,,,M*13
###2023-12-09 12:37:16.137405$GNGGA,173715.30,4138.0631640,N,07032.3653487,W,1,23,0.7,13.261,M,-29.744,M,0.0,*5D
###2023-12-09 12:37:16.336624$GNGGA,173715.50,4138.0631717,N,07032.3655754,W,1,23,0.7,13.260,M,-29.744,M,0.0,*52
###2023-12-09 12:37:16.537035$GNGGA,173715.70,4138.0631752,N,07032.3658004,W,1,23,0.7,13.261,M,-29.744,M,0.0,*5F
###2023-12-09 12:37:16.736275$GNGGA,173715.90,4138.0631671,N,07032.3660215,W,1,23,0.7,13.263,M,-29.744,M,0.0,*5A
###2023-12-09 12:37:16.938523$GNRMC,173716.10,A,4138.0631604,N,07032.3662436,W,3.05,268.04,091223,,,A*5D
###2023-12-09 12:37:16.941414$GNGGA,173716.10,4138.0631604,N,07032.3662436,W,1,23,0.7,13.269,M,-29.744,M,0.0,*5C
###2023-12-09 12:37:16.943294$GPGSA,A,3,03,04,16,26,28,29,31,32,,,,,1.2,0.7,1.0*31
###2023-12-09 12:37:16.944951$GLGSA,A,3,71,72,73,74,75,,,,,,,,1.2,0.7,1.0*2D
