###2023-12-09 13:18:33.008813$GLGSV,2,1,06,65,31,324,42,71,32,174,46,72,70,240,47,73,29,047,42*68
###2023-12-09 13:18:33.010614$GLGSV,2,2,06,74,65,358,41,75,38,261,48,,,,,,,,*68
###2023-12-09 13:18:33.012954$GAGSV,1,1,04,04,34,311,43,19,78,188,41,21,82,058,46,27,27,049,39*69
###2023-12-09 13:18:33.015332$GBGSV,2,1,06,14,35,191,44,24,68,038,47,25,46,269,46,26,20,067,42*6F
###2023-12-09 13:18:33.017087$GBGSV,2,2,06,33,52,224,47,35,16,063,42,,,,,,,,*6F
###2023-12-09 13:18:33.018377$GNVTG,12.97,T,,M,3.77,N,6.98,K,A*1A
###2023-12-09 13:18:33.020045$GNGST,181832.10,18.000,,,,0.097,0.071,0.170*50
###2023-12-09 13:18:33.021337$GNZDA,181832.10,09,12,2023,00,00*71
###2023-12-09 13:18:33.021978$GNEBP,,,,,,M*13
###2023-12-09 13:18:33.183631$GNGGA,181832.30,4138.0305045,N,07032.3114920,W,1,24,0.7,13.268,M,-29.744,M,0.0,*51
###2023-12-09 13:18:33.381813$GNGGA,181832.50,4138.0307065,N,07032.3114687,W,1,24,0.7,13.272,M,-29.744,M,0.0,*5E
###2023-12-09 13:18:33.581612$GNGGA,181832.70,4138.0309041,N,07032.3114437,W,1,24,0.7,13.262,M,-29.744,M,0.0,*5C
###2023-12-09 13:18:33.783697$GNGGA,181832.90,4138.0310938,N,07032.3114279,W,1,24,0.7,13.271,M,-29.744,M,0.0,*53
###2023-12-09 13:18:33.984945$GNRMC,181833.10,A,4138.0312837,N,07032.3114207,W,3.44,359.39,091223,,,A*58
###2023-12-09 13:18:33.987827$GNGGA,181833.10,4138.0312837,N,07032.3114207,W,1,24,0.7,13.283,M,-29.744,M,0.0,*52
###2023-12-09 13:18:33.989628$GPGSA,A,3,03,04,16,26,28,29,31,,,,,,1.1,0.7,0.9*3B
###2023-12-09 13:18:33.991355$GLGSA,A,3,65,71,72,73,74,75,,,,,,,1.1,0.7,0.9*25
###2023-12-09 13:18:33.992940$GAGSA,A,3,04,19,21,27,,,,,,,,,1.1,0.7,0.9*27
###2023-12-09 13:18:33.994666$GBGSA,A,3,14,24,25,26,33,35,,,,,,,1.1,0.7,0.9*28
###2023-12-09 13:18:33.996996$GPGSV,2,1,07,03,31,253,42,04,39,310,44,16,58,216,47,26,88,205,48*71
###2023-12-09 13:18:33.999049$GPGSV,2,2,07,28,43,078,46,29,23,053,42,31,64,053,47,,,,*41
###2023-12-09 13:18:34.001377$GLGSV,2,1,06,65,31,324,42,71,32,174,45,72,70,240,46,73,29,047,42*6A
###2023-12-09 13:18:34.003219$GLGSV,2,2,06,74,65,358,41,75,38,261,47,,,,,,,,*67
###2023-12-09 13:18:34.005553$GAGSV,1,1,04,04,34,311,43,19,78,188,41,21,82,058,46,27,27,049,40*67
###2023-12-09 13:18:34.007897$GBGSV,2,1,06,14,35,191,44,24,68,038,48,25,46,269,47,26,20,067,44*67
###2023-12-09 13:18:34.009650$GBGSV,2,2,06,33,52,224,47,35,16,063,44,,,,,,,,*69
###2023-12-09 13:18:34.010989$GNVTG,359.39,T,,M,3.44,N,6.37,K,A*27
###2023-12-09 13:18:34.012637$GNGST,181833.10,18.000,,,,0.097,0.070,0.170*50
###2023-12-09 13:18:34.013924$GNZDA,181833.10,09,12,2023,00,00*70
###2023-12-09 13:18:34.014561$GNEBP,,,,,,M*13
###2023-12-09 13:18:34.180983$GNGGA,181833.30,4138.0314727,N,07032.3114302,W,1,24,0.7,13.286,M,-29.744,M,0.0,*59
###2023-12-09 13:18:34.382857$GNGGA,181833.50,4138.0316639,N,07032.3114356,W,1,24,0.7,13.296,M,-29.744,M,0.0,*53
###2023-12-09 13:18:34.582683$GNGGA,181833.70,4138.0318573,N,07032.3114368,W,1,24,0.7,13.300,M,-29.744,M,0.0,*51
###2023-12-09 13:18:34.781641$GNGGA,181833.90,4138.0320532,N,07032.3114378,W,1,24,0.7,13.306,M,-29.744,M,0.0,*56
###2023-12-09 13:18:34.986208$GNRMC,181834.10,A,4138.0322528,N,07032.3114227,W,3.67,5.30,091223,,,A*5F
###2023-12-09 13:18:34.989099$GNGGA,181834.10,4138.0322528,N,07032.3114227,W,1,24,0.7,13.314,M,-29.744,M,0.0,*58
###2023-12-09 13:18:34.990905$GPGSA,A,3,03,04,16,26,28,29,31,,,,,,1.1,0.7,0.9*3B
###2023-12-09 13:18:34.992625$GLGSA,A,3,65,71,72,73,74,75,,,,,,,1.1,0.7,0.9*25
###2023-12-09 13:18:34.994210$GAGSA,A,3,04,19,21,27,,,,,,,,,1.1,0.7,0.9*27
###2023-12-09 13:18:34.995940$GBGSA,A,3,14,24,25,26,33,35,,,,,,,1.1,0.7,0.9*28
###2023-12-09 13:18:34.998280$GPGSV,2,1,07,03,31,253,41,04,39,310,44,16,58,216,45,26,88,205,48*70
###2023-12-09 13:18:35.000338$GPGSV,2,2,07,28,43,078,43,29,23,053,40,31,64,053,45,,,,*44
###2023-12-09 13:18:35.002686$GLGSV,2,1,06,65,31,324,42,71,32,174,45,72,70,240,46,73,29,047,41*69
###2023-12-09 13:18:35.004437$GLGSV,2,2,06,74,65,358,41,75,38,261,47,,,,,,,,*67
###2023-12-09 13:18:35.006770$GAGSV,1,1,04,04,34,311,42,19,78,188,40,21,82,058,45,27,27,049,38*6B
###2023-12-09 13:18:35.009098$GBGSV,2,1,06,14,35,191,43,24,68,038,47,25,46,269,46,26,20,067,41*6B
###2023-12-09 13:18:35.010854$GBGSV,2,2,06,33,52,224,46,35,16,063,41,,,,,,,,*6D
###2023-12-09 13:18:35.012113$GNVTG,5.30,T,,M,3.67,N,6.80,K,A*29
###2023-12-09 13:18:35.013760$GNGST,181834.10,18.000,,,,0.098,0.070,0.170*58
###2023-12-09 13:18:35.015062$GNZDA,181834.10,09,12,2023,00,00*77
###2023-12-09 13:18:35.015704$GNEBP,,,,,,M*13
###2023-12-09 13:18:35.180767$GNGGA,181834.30,4138.0324522,N,07032.3113853,W,1,24,0.7,13.326,M,-29.744,M,0.0,*59
###2023-12-09 13:18:35.380813$GNGGA,181834.50,4138.0326498,N,07032.3113204,W,1,24,0.7,13.343,M,-29.744,M,0.0,*56
###2023-12-09 13:18:35.582627$GNGGA,181834.70,4138.0328492,N,07032.3112539,W,1,24,0.7,13.351,M,-29.744,M,0.0,*5B
###2023-12-09 13:18:35.781679$GNGGA,181834.90,4138.0330468,N,07032.3111822,W,1,24,0.7,13.344,M,-29.744,M,0.0,*59
###2023-12-09 13:18:35.984218$GNRMC,181835.10,A,4138.0332382,N,07032.3110838,W,3.67,22.68,091223,,,A*61
###2023-12-09 13:18:35.987079$GNGGA,181835.10,4138.0332382,N,07032.3110838,W,1,24,0.7,13.343,M,-29.744,M,0.0,*5C
###2023-12-09 13:18:35.988871$GPGSA,A,3,03,04,16,26,28,29,31,,,,,,1.1,0.7,0.9*3B
###2023-12-09 13:18:35.990596$GLGSA,A,3,65,71,72,73,74,75,,,,,,,1.1,0.7,0.9*25
###2023-12-09 13:18:35.992181$GAGSA,A,3,04,19,21,27,,,,,,,,,1.1,0.7,0.9*27
###2023-12-09 13:18:35.993891$GBGSA,A,3,14,24,25,26,33,35,,,,,,,1.1,0.7,0.9*28
###2023-12-09 13:18:35.996225$GPGSV,2,1,07,03,31,253,41,04,39,310,42,16,58,216,45,26,88,205,48*76
###2023-12-09 13:18:35.998265$GPGSV,2,2,07,28,43,078,43,29,23,053,40,31,64,053,45,,,,*44
###2023-12-09 13:18:36.000609$GLGSV,2,1,06,65,31,324,43,71,32,174,46,72,70,240,46,73,29,047,41*6B
###2023-12-09 13:18:36.002357$GLGSV,2,2,06,74,65,358,41,75,38,261,45,,,,,,,,*65
###2023-12-09 13:18:36.004696$GAGSV,1,1,04,04,34,311,42,19,78,188,40,21,82,058,45,27,27,049,39*6A
###2023-12-09 13:18:36.007037$GBGSV,2,1,06,14,35,191,45,24,68,038,48,25,46,269,47,26,20,067,42*60
###2023-12-09 13:18:36.008781$GBGSV,2,2,06,33,51,223,47,35,16,063,42,,,,,,,,*6B
###2023-12-09 13:18:36.010068$GNVTG,22.68,T,,M,3.67,N,6.80,K,A*11
###2023-12-09 13:18:36.011721$GNGST,181835.10,18.000,,,,0.098,0.070,0.170*59
###2023-12-09 13:18:36.013009$GNZDA,181835.10,09,12,2023,00,00*76
###2023-12-09 13:18:36.013646$GNEBP,,,,,,M*13
###2023-12-09 13:18:36.181981$GNGGA,181835.30,4138.0334293,N,07032.3109786,W,1,24,0.7,13.348,M,-29.744,M,0.0,*50
###2023-12-09 13:18:36.381996$GNGGA,181835.50,4138.0336186,N,07032.3108771,W,1,24,0.7,13.352,M,-29.744,M,0.0,*51
###2023-12-09 13:18:36.581528$GNGGA,181835.70,4138.0338099,N,07032.3107772,W,1,24,0.7,13.364,M,-29.744,M,0.0,*5B
###2023-12-09 13:18:36.782528$GNGGA,181835.90,4138.0340017,N,07032.3106699,W,1,24,0.7,13.366,M,-29.744,M,0.0,*5B
###2023-12-09 13:18:36.986416$GNRMC,181836.10,A,4138.0341953,N,07032.3105671,W,3.85,22.37,091223,,,A*61
###2023-12-09 13:18:36.989315$GNGGA,181836.10,4138.0341953,N,07032.3105671,W,1,24,0.7,13.364,M,-29.744,M,0.0,*5F
###2023-12-09 13:18:36.991129$GPGSA,A,3,03,04,16,26,28,29,31,,,,,,1.1,0.7,0.9*3B
###2023-12-09 13:18:36.992845$GLGSA,A,3,65,71,72,73,74,75,,,,,,,1.1,0.7,0.9*25
###2023-12-09 13:18:36.994425$GAGSA,A,3,04,19,21,27,,,,,,,,,1.1,0.7,0.9*27
###2023-12-09 13:18:36.996150$GBGSA,A,3,14,24,25,26,33,35,,,,,,,1.1,0.7,0.9*28
###2023-12-09 13:18:36.998477$GPGSV,2,1,07,03,31,253,42,04,39,310,43,16,58,216,46,26,88,205,48*77
###2023-12-09 13:18:37.000531$GPGSV,2,2,07,28,43,078,44,29,23,053,41,31,64,053,46,,,,*41
###2023-12-09 13:18:37.002879$GLGSV,2,1,06,65,31,324,40,71,32,174,46,72,70,240,46,73,29,047,42*6B
###2023-12-09 13:18:37.004633$GLGSV,2,2,06,74,65,358,41,75,38,261,47,,,,,,,,*67
###2023-12-09 13:18:37.006976$GAGSV,1,1,04,04,34,311,42,19,78,188,41,21,82,058,45,27,27,049,39*6B
###2023-12-09 13:18:37.009307$GBGSV,2,1,06,14,35,191,45,24,68,038,49,25,46,269,48,26,20,067,43*6F
###2023-12-09 13:18:37.011064$GBGSV,2,2,06,33,51,223,48,35,16,062,42,,,,,,,,*65
###2023-12-09 13:18:37.012355$GNVTG,22.37,T,,M,3.85,N,7.13,K,A*1C
###2023-12-09 13:18:37.014007$GNGST,181836.10,18.000,,,,0.097,0.070,0.170*55
###2023-12-09 13:18:37.015551$GNZDA,181836.10,09,12,2023,00,00*75
###2023-12-09 13:18:37.016203$GNEBP,,,,,,M*13
###2023-12-09 13:18:37.182093$GNGGA,181836.30,4138.0343973,N,07032.3104642,W,1,24,0.7,13.368,M,-29.744,M,0.0,*50
###2023-12-09 13:18:37.381845$GNGGA,181836.50,4138.0346013,N,07032.3103786,W,1,24,0.7,13.377,M,-29.744,M,0.0,*5C
###2023-12-09 13:18:37.581600$GNGGA,181836.70,4138.0348113,N,07032.3102872,W,1,24,0.7,13.398,M,-29.744,M,0.0,*55
###2023-12-09 13:18:37.781859$GNGGA,181836.90,4138.0350261,N,07032.3101864,W,1,24,0.7,13.394,M,-29.744,M,0.0,*5C
###2023-12-09 13:18:37.987262$GNRMC,181837.10,A,4138.0352391,N,07032.3100889,W,4.08,17.86,091223,,,A*64
###2023-12-09 13:18:37.990134$GNGGA,181837.10,4138.0352391,N,07032.3100889,W,1,24,0.7,13.377,M,-29.744,M,0.0,*56
###2023-12-09 13:18:37.991954$GPGSA,A,3,03,04,16,26,28,29,31,,,,,,1.1,0.7,0.9*3B
