###2023-12-09 12:33:31.943260$GBGSA,A,3,14,24,25,33,,,,,,,,,1.2,0.7,1.0*21
###2023-12-09 12:33:31.945624$GPGSV,2,1,08,03,39,278,44,04,21,310,39,16,36,207,46,26,65,206,48*73
###2023-12-09 12:33:31.947999$GPGSV,2,2,08,28,58,055,45,29,25,075,41,31,73,358,45,32,31,134,40*74
###2023-12-09 12:33:31.950366$GLGSV,2,1,05,71,58,169,48,72,65,311,40,73,49,033,41,74,71,287,39*65
###2023-12-09 12:33:31.951858$GLGSV,2,2,05,75,21,240,36,,,,,,,,,,,,*52
###2023-12-09 12:33:31.954186$GAGSV,1,1,04,04,20,311,39,19,81,304,40,21,77,177,46,27,42,050,41*62
###2023-12-09 12:33:31.956577$GBGSV,1,1,04,14,55,198,45,24,81,339,47,25,32,252,45,33,63,257,51*6D
###2023-12-09 12:33:31.957916$GNVTG,100.99,T,,M,0.35,N,0.65,K,A*27
###2023-12-09 12:33:31.959580$GNGST,173331.10,20.000,,,,0.110,0.096,0.230*5E
###2023-12-09 12:33:31.960874$GNZDA,173331.10,09,12,2023,00,00*74
###2023-12-09 12:33:31.961515$GNEBP,,,,,,M*13
###2023-12-09 12:33:32.130853$GNGGA,173331.30,4138.0454824,N,07032.4284506,W,1,22,0.7,12.745,M,-29.745,M,0.0,*51
###2023-12-09 12:33:32.331940$GNGGA,173331.50,4138.0454880,N,07032.4284451,W,1,22,0.7,12.731,M,-29.745,M,0.0,*59
###2023-12-09 12:33:32.532706$GNGGA,173331.70,4138.0454886,N,07032.4284314,W,1,21,0.7,12.717,M,-29.745,M,0.0,*5C
###2023-12-09 12:33:32.730805$GNGGA,173331.90,4138.0454877,N,07032.4284222,W,1,21,0.7,12.722,M,-29.745,M,0.0,*5E
###2023-12-09 12:33:32.934653$GNRMC,173332.10,A,4138.0454788,N,07032.4284231,W,0.10,100.99,091223,,,A*5F
###2023-12-09 12:33:32.937541$GNGGA,173332.10,4138.0454788,N,07032.4284231,W,1,21,0.7,12.742,M,-29.745,M,0.0,*5E
###2023-12-09 12:33:32.939441$GPGSA,A,3,03,04,16,26,28,29,31,32,,,,,1.2,0.7,1.0*31
###2023-12-09 12:33:32.941101$GLGSA,A,3,71,72,73,74,75,,,,,,,,1.2,0.7,1.0*2D
###2023-12-09 12:33:32.942710$GAGSA,A,3,04,19,21,27,,,,,,,,,1.2,0.7,1.0*2C
###2023-12-09 12:33:32.944304$GBGSA,A,3,14,24,25,33,,,,,,,,,1.2,0.7,1.0*21
###2023-12-09 12:33:32.946674$GPGSV,2,1,08,03,39,278,43,04,21,310,40,16,36,207,44,26,65,206,49*79
###2023-12-09 12:33:32.949035$GPGSV,2,2,08,28,58,055,45,29,25,075,41,31,73,358,44,32,31,134,44*71
###2023-12-09 12:33:32.951392$GLGSV,2,1,05,71,58,169,48,72,65,311,35,73,49,033,43,74,71,287,36*6A
###2023-12-09 12:33:32.952858$GLGSV,2,2,05,75,21,240,36,,,,,,,,,,,,*52
###2023-12-09 12:33:32.955224$GAGSV,1,1,04,04,20,311,39,19,81,304,39,21,77,177,46,27,42,050,39*63
###2023-12-09 12:33:32.957563$GBGSV,1,1,04,14,55,198,45,24,81,339,48,25,32,252,46,33,63,257,50*60
###2023-12-09 12:33:32.958916$GNVTG,100.99,T,,M,0.10,N,0.18,K,A*2A
###2023-12-09 12:33:32.960575$GNGST,173332.10,20.000,,,,0.100,0.093,0.220*58
###2023-12-09 12:33:32.961877$GNZDA,173332.10,09,12,2023,00,00*77
###2023-12-09 12:33:32.962520$GNEBP,,,,,,M*13
###2023-12-09 12:33:33.135355$GNGGA,173332.30,4138.0454715,N,07032.4284188,W,1,22,0.7,12.785,M,-29.745,M,0.0,*51
###2023-12-09 12:33:33.332975$GNGGA,173332.50,4138.0454583,N,07032.4284174,W,1,21,0.7,12.816,M,-29.745,M,0.0,*5F
###2023-12-09 12:33:33.532750$GNGGA,173332.70,4138.0454595,N,07032.4284312,W,1,21,0.7,12.792,M,-29.745,M,0.0,*5B
###2023-12-09 12:33:33.731976$GNGGA,173332.90,4138.0454494,N,07032.4284334,W,1,21,0.7,12.763,M,-29.745,M,0.0,*5F
###2023-12-09 12:33:33.931553$GNRMC,173333.10,A,4138.0454512,N,07032.4284400,W,0.16,100.99,091223,,,A*5D
###2023-12-09 12:33:33.934412$GNGGA,173333.10,4138.0454512,N,07032.4284400,W,1,21,0.7,12.750,M,-29.745,M,0.0,*59
###2023-12-09 12:33:33.936295$GPGSA,A,3,03,04,16,26,28,29,31,32,,,,,1.3,0.7,1.1*31
###2023-12-09 12:33:33.937891$GLGSA,A,3,71,72,73,74,,,,,,,,,1.3,0.7,1.1*2F
###2023-12-09 12:33:33.939500$GAGSA,A,3,04,19,21,27,,,,,,,,,1.3,0.7,1.1*2C
###2023-12-09 12:33:33.941157$GBGSA,A,3,14,24,25,26,33,,,,,,,,1.3,0.7,1.1*25
###2023-12-09 12:33:33.943507$GPGSV,2,1,08,03,39,278,42,04,21,310,39,16,36,207,42,26,65,206,47*7E
###2023-12-09 12:33:33.945847$GPGSV,2,2,08,28,58,055,46,29,25,075,42,31,73,358,47,32,31,134,43*75
###2023-12-09 12:33:33.948211$GLGSV,1,1,04,71,58,169,50,72,65,311,41,73,49,033,42,74,71,287,41*63
###2023-12-09 12:33:33.950579$GAGSV,1,1,04,04,20,311,39,19,81,304,41,21,77,177,44,27,42,050,42*62
###2023-12-09 12:33:33.952929$GBGSV,2,1,05,14,55,198,44,24,81,339,49,25,32,252,43,26,36,057,36*61
###2023-12-09 12:33:33.954396$GBGSV,2,2,05,33,63,257,51,,,,,,,,,,,,*5F
###2023-12-09 12:33:33.955743$GNVTG,100.99,T,,M,0.16,N,0.29,K,A*2E
###2023-12-09 12:33:33.957399$GNGST,173333.10,20.000,,,,0.100,0.091,0.220*5B
###2023-12-09 12:33:33.958748$GNZDA,173333.10,09,12,2023,00,00*76
###2023-12-09 12:33:33.959400$GNEBP,,,,,,M*13
###2023-12-09 12:33:34.133308$GNGGA,173333.30,4138.0454452,N,07032.4284377,W,1,21,0.7,12.742,M,-29.745,M,0.0,*5A
###2023-12-09 12:33:34.333313$GNGGA,173333.50,4138.0454420,N,07032.4284300,W,1,21,0.7,12.727,M,-29.745,M,0.0,*5A
###2023-12-09 12:33:34.531713$GNGGA,173333.70,4138.0454338,N,07032.4284203,W,1,21,0.7,12.707,M,-29.745,M,0.0,*56
###2023-12-09 12:33:34.730797$GNGGA,173333.90,4138.0454266,N,07032.4284087,W,1,22,0.7,12.697,M,-29.745,M,0.0,*57
###2023-12-09 12:33:34.933544$GNRMC,173334.10,A,4138.0454208,N,07032.4283964,W,0.27,100.99,091223,,,A*5C
###2023-12-09 12:33:34.936590$GNGGA,173334.10,4138.0454208,N,07032.4283964,W,1,22,0.7,12.691,M,-29.745,M,0.0,*55
###2023-12-09 12:33:34.938472$GPGSA,A,3,03,04,16,26,28,29,31,32,,,,,1.2,0.7,1.0*31
###2023-12-09 12:33:34.940162$GLGSA,A,3,71,72,73,74,75,,,,,,,,1.2,0.7,1.0*2D
###2023-12-09 12:33:34.941764$GAGSA,A,3,04,19,21,27,,,,,,,,,1.2,0.7,1.0*2C
###2023-12-09 12:33:34.943427$GBGSA,A,3,14,24,25,26,33,,,,,,,,1.2,0.7,1.0*25
###2023-12-09 12:33:34.945748$GPGSV,2,1,08,03,39,278,44,04,21,310,39,16,36,207,46,26,65,206,49*72
###2023-12-09 12:33:34.948169$GPGSV,2,2,08,28,58,055,43,29,25,075,42,31,73,358,43,32,31,134,43*74
###2023-12-09 12:33:34.950536$GLGSV,2,1,05,71,58,169,49,72,65,311,39,73,49,033,42,74,71,287,37*67
###2023-12-09 12:33:34.952032$GLGSV,2,2,05,75,21,240,36,,,,,,,,,,,,*52
###2023-12-09 12:33:34.954359$GAGSV,1,1,04,04,20,311,40,19,81,304,40,21,77,177,46,27,42,050,40*6D
###2023-12-09 12:33:34.956724$GBGSV,2,1,05,14,55,198,45,24,81,343,48,25,32,252,45,26,36,057,40*6B
###2023-12-09 12:33:34.958190$GBGSV,2,2,05,33,63,257,50,,,,,,,,,,,,*5E
###2023-12-09 12:33:34.959535$GNVTG,100.99,T,,M,0.27,N,0.50,K,A*22
###2023-12-09 12:33:34.961199$GNGST,173334.10,20.000,,,,0.100,0.090,0.220*5D
###2023-12-09 12:33:34.962496$GNZDA,173334.10,09,12,2023,00,00*71
###2023-12-09 12:33:34.963159$GNEBP,,,,,,M*13
###2023-12-09 12:33:35.133101$GNGGA,173334.30,4138.0454100,N,07032.4283781,W,1,22,0.7,12.693,M,-29.745,M,0.0,*5B
###2023-12-09 12:33:35.335494$GNGGA,173334.50,4138.0454013,N,07032.4283625,W,1,22,0.7,12.696,M,-29.745,M,0.0,*54
###2023-12-09 12:33:35.531619$GNGGA,173334.70,4138.0453885,N,07032.4283450,W,1,22,0.7,12.692,M,-29.745,M,0.0,*52
###2023-12-09 12:33:35.728674$GNGGA,173334.90,4138.0453887,N,07032.4283422,W,1,22,0.7,12.687,M,-29.745,M,0.0,*5F
###2023-12-09 12:33:35.934711$GNRMC,173335.10,A,4138.0453801,N,07032.4283382,W,0.12,100.99,091223,,,A*5D
###2023-12-09 12:33:35.937575$GNGGA,173335.10,4138.0453801,N,07032.4283382,W,1,22,0.7,12.694,M,-29.745,M,0.0,*57
###2023-12-09 12:33:35.939446$GPGSA,A,3,03,04,16,26,28,29,31,32,,,,,1.2,0.7,1.0*31
###2023-12-09 12:33:35.941105$GLGSA,A,3,71,72,73,74,75,,,,,,,,1.2,0.7,1.0*2D
###2023-12-09 12:33:35.942706$GAGSA,A,3,04,19,21,27,,,,,,,,,1.2,0.7,1.0*2C
###2023-12-09 12:33:35.944351$GBGSA,A,3,14,24,25,26,33,,,,,,,,1.2,0.7,1.0*25
###2023-12-09 12:33:35.946722$GPGSV,2,1,08,03,39,278,44,04,21,310,41,16,36,207,46,26,65,206,50*75
###2023-12-09 12:33:35.949075$GPGSV,2,2,08,28,58,055,45,29,25,075,41,31,73,358,43,32,31,134,46*74
###2023-12-09 12:33:35.951433$GLGSV,2,1,05,71,58,169,49,72,65,311,36,73,49,033,43,74,71,287,36*68
###2023-12-09 12:33:35.952892$GLGSV,2,2,05,75,21,240,37,,,,,,,,,,,,*53
###2023-12-09 12:33:35.955238$GAGSV,1,1,04,04,20,311,41,19,81,304,40,21,77,177,45,27,42,050,38*60
###2023-12-09 12:33:35.957574$GBGSV,2,1,05,14,55,198,45,24,81,343,48,25,32,252,43,26,36,057,38*62
###2023-12-09 12:33:35.959056$GBGSV,2,2,05,33,63,257,49,,,,,,,,,,,,*56
###2023-12-09 12:33:35.960386$GNVTG,100.99,T,,M,0.12,N,0.22,K,A*21
###2023-12-09 12:33:35.962037$GNGST,173335.10,20.000,,,,0.099,0.088,0.210*57
###2023-12-09 12:33:35.963598$GNZDA,173335.10,09,12,2023,00,00*70
###2023-12-09 12:33:35.964275$GNEBP,,,,,,M*13
###2023-12-09 12:33:36.131646$GNGGA,173335.30,4138.0453780,N,07032.4283386,W,1,22,0.7,12.700,M,-29.745,M,0.0,*5B
###2023-12-09 12:33:36.331523$GNGGA,173335.50,4138.0453815,N,07032.4283411,W,1,22,0.7,12.687,M,-29.745,M,0.0,*59
###2023-12-09 12:33:36.530639$GNGGA,173335.70,4138.0453847,N,07032.4283438,W,1,22,0.7,12.670,M,-29.745,M,0.0,*5F
###2023-12-09 12:33:36.730682$GNGGA,173335.90,4138.0453816,N,07032.4283455,W,1,22,0.7,12.668,M,-29.745,M,0.0,*57
###2023-12-09 12:33:36.936111$GNRMC,173336.10,A,4138.0453876,N,07032.4283470,W,0.21,100.99,091223,,,A*54
###2023-12-09 12:33:36.938991$GNGGA,173336.10,4138.0453876,N,07032.4283470,W,1,22,0.7,12.705,M,-29.745,M,0.0,*57
###2023-12-09 12:33:36.940859$GPGSA,A,3,03,04,16,26,28,29,31,32,,,,,1.2,0.7,1.0*31
