###2023-12-09 12:57:35.972823$GBGSA,A,3,14,24,25,26,33,,,,,,,,1.1,0.6,0.9*2F
###2023-12-09 12:57:35.975189$GPGSV,2,1,08,03,36,264,46,04,31,311,40,16,48,211,47,26,78,209,48*71
###2023-12-09 12:57:35.977530$GPGSV,2,2,08,28,50,069,44,29,25,063,41,31,69,033,47,32,21,139,43*7D
###2023-12-09 12:57:35.979878$GLGSV,2,1,06,65,22,328,41,71,43,172,46,72,73,277,47,73,37,040,46*6E
###2023-12-09 12:57:35.981629$GLGSV,2,2,06,74,70,331,43,75,30,251,46,,,,,,,,*64
###2023-12-09 12:57:35.983966$GAGSV,1,1,04,04,27,312,39,19,85,234,41,21,85,141,46,27,34,048,43*63
###2023-12-09 12:57:35.986294$GBGSV,2,1,05,14,45,193,45,24,75,020,49,25,39,260,46,26,27,062,42*60
###2023-12-09 12:57:35.987761$GBGSV,2,2,05,33,59,235,47,,,,,,,,,,,,*55
###2023-12-09 12:57:35.989048$GNVTG,93.77,T,,M,3.30,N,6.12,K,A*1C
###2023-12-09 12:57:35.990716$GNGST,175735.10,18.000,,,,0.077,0.066,0.150*59
###2023-12-09 12:57:35.992025$GNZDA,175735.10,09,12,2023,00,00*72
###2023-12-09 12:57:35.992666$GNEBP,,,,,,M*13
###2023-12-09 12:57:36.160355$GNGGA,175735.30,4138.0349270,N,07032.3711669,W,1,24,0.6,13.322,M,-29.745,M,0.0,*50
###2023-12-09 12:57:36.360173$GNGGA,175735.50,4138.0349068,N,07032.3709282,W,1,24,0.6,13.308,M,-29.745,M,0.0,*5D
###2023-12-09 12:57:36.560164$GNGGA,175735.70,4138.0348870,N,07032.3706887,W,1,24,0.6,13.320,M,-29.745,M,0.0,*55
###2023-12-09 12:57:36.765802$GNGGA,175735.90,4138.0348614,N,07032.3704433,W,1,24,0.6,13.312,M,-29.745,M,0.0,*57
###2023-12-09 12:57:36.960999$GNRMC,175736.10,A,4138.0348333,N,07032.3701983,W,3.32,96.32,091223,,,A*66
###2023-12-09 12:57:36.963868$GNGGA,175736.10,4138.0348333,N,07032.3701983,W,1,24,0.6,13.308,M,-29.745,M,0.0,*54
###2023-12-09 12:57:36.965722$GPGSA,A,3,03,04,16,26,28,29,31,32,,,,,1.1,0.6,0.9*3B
###2023-12-09 12:57:36.967448$GLGSA,A,3,65,71,72,73,74,75,,,,,,,1.1,0.6,0.9*24
###2023-12-09 12:57:36.969025$GAGSA,A,3,04,19,21,27,,,,,,,,,1.1,0.6,0.9*26
###2023-12-09 12:57:36.970677$GBGSA,A,3,14,24,25,26,33,,,,,,,,1.1,0.6,0.9*2F
###2023-12-09 12:57:36.973007$GPGSV,2,1,08,03,36,264,46,04,31,311,42,16,48,211,47,26,78,209,48*73
###2023-12-09 12:57:36.975360$GPGSV,2,2,08,28,50,069,44,29,25,063,41,31,69,033,47,32,20,139,43*7C
###2023-12-09 12:57:36.977697$GLGSV,2,1,06,65,22,328,40,71,43,172,47,72,73,277,47,73,37,040,45*6D
###2023-12-09 12:57:36.979452$GLGSV,2,2,06,74,70,331,43,75,30,251,46,,,,,,,,*64
###2023-12-09 12:57:36.981778$GAGSV,1,1,04,04,27,312,40,19,85,234,41,21,85,141,46,27,34,048,43*6D
###2023-12-09 12:57:36.984119$GBGSV,2,1,05,14,45,193,45,24,75,020,49,25,39,260,47,26,27,062,42*61
###2023-12-09 12:57:36.985575$GBGSV,2,2,05,33,59,235,48,,,,,,,,,,,,*5A
###2023-12-09 12:57:36.986876$GNVTG,96.32,T,,M,3.32,N,6.16,K,A*1E
###2023-12-09 12:57:36.988524$GNGST,175736.10,18.000,,,,0.077,0.066,0.150*5A
###2023-12-09 12:57:36.989809$GNZDA,175736.10,09,12,2023,00,00*71
###2023-12-09 12:57:36.990445$GNEBP,,,,,,M*13
###2023-12-09 12:57:37.160448$GNGGA,175736.30,4138.0348096,N,07032.3699507,W,1,24,0.6,13.305,M,-29.745,M,0.0,*57
###2023-12-09 12:57:37.361506$GNGGA,175736.50,4138.0347861,N,07032.3697026,W,1,24,0.6,13.303,M,-29.745,M,0.0,*50
###2023-12-09 12:57:37.560283$GNGGA,175736.70,4138.0347699,N,07032.3694448,W,1,24,0.6,13.296,M,-29.745,M,0.0,*59
###2023-12-09 12:57:37.761304$GNGGA,175736.90,4138.0347511,N,07032.3691924,W,1,24,0.6,13.278,M,-29.745,M,0.0,*56
###2023-12-09 12:57:37.962906$GNRMC,175737.10,A,4138.0347490,N,07032.3689454,W,3.52,89.63,091223,,,A*6C
###2023-12-09 12:57:37.965768$GNGGA,175737.10,4138.0347490,N,07032.3689454,W,1,24,0.6,13.299,M,-29.745,M,0.0,*5B
###2023-12-09 12:57:37.967640$GPGSA,A,3,03,04,16,26,28,29,31,32,,,,,1.1,0.6,0.9*3B
###2023-12-09 12:57:37.969351$GLGSA,A,3,65,71,72,73,74,75,,,,,,,1.1,0.6,0.9*24
###2023-12-09 12:57:37.970940$GAGSA,A,3,04,19,21,27,,,,,,,,,1.1,0.6,0.9*26
###2023-12-09 12:57:37.972577$GBGSA,A,3,14,24,25,26,33,,,,,,,,1.1,0.6,0.9*2F
###2023-12-09 12:57:37.974900$GPGSV,2,1,08,03,36,264,46,04,31,311,42,16,48,211,47,26,78,209,49*72
###2023-12-09 12:57:37.977213$GPGSV,2,2,08,28,50,069,44,29,25,063,41,31,69,033,47,32,20,139,41*7E
###2023-12-09 12:57:37.979538$GLGSV,2,1,06,65,22,328,42,71,43,172,47,72,73,277,47,73,37,040,45*6F
###2023-12-09 12:57:37.981272$GLGSV,2,2,06,74,70,331,43,75,30,251,46,,,,,,,,*64
###2023-12-09 12:57:37.983595$GAGSV,1,1,04,04,27,312,40,19,85,234,41,21,85,141,45,27,34,048,43*6E
###2023-12-09 12:57:37.985915$GBGSV,2,1,05,14,45,193,45,24,75,020,47,25,39,260,45,26,27,062,41*6E
###2023-12-09 12:57:37.987371$GBGSV,2,2,05,33,59,235,47,,,,,,,,,,,,*55
###2023-12-09 12:57:37.988651$GNVTG,89.63,T,,M,3.52,N,6.52,K,A*12
###2023-12-09 12:57:37.990288$GNGST,175737.10,18.000,,,,0.077,0.066,0.150*5B
###2023-12-09 12:57:37.991581$GNZDA,175737.10,09,12,2023,00,00*70
###2023-12-09 12:57:37.992217$GNEBP,,,,,,M*13
###2023-12-09 12:57:38.160400$GNGGA,175737.30,4138.0347399,N,07032.3686829,W,1,24,0.6,13.288,M,-29.745,M,0.0,*5E
###2023-12-09 12:57:38.361573$GNGGA,175737.50,4138.0347442,N,07032.3684359,W,1,24,0.6,13.274,M,-29.745,M,0.0,*54
###2023-12-09 12:57:38.561409$GNGGA,175737.70,4138.0347636,N,07032.3681932,W,1,24,0.6,13.294,M,-29.745,M,0.0,*5B
###2023-12-09 12:57:38.762470$GNGGA,175737.90,4138.0347664,N,07032.3679364,W,1,24,0.6,13.285,M,-29.745,M,0.0,*5C
###2023-12-09 12:57:38.962094$GNRMC,175738.10,A,4138.0347708,N,07032.3676958,W,3.25,84.76,091223,,,A*69
###2023-12-09 12:57:38.964974$GNGGA,175738.10,4138.0347708,N,07032.3676958,W,1,24,0.6,13.261,M,-29.745,M,0.0,*50
###2023-12-09 12:57:38.966848$GPGSA,A,3,03,04,16,26,28,29,31,32,,,,,1.1,0.6,0.9*3B
###2023-12-09 12:57:38.968560$GLGSA,A,3,65,71,72,73,74,75,,,,,,,1.1,0.6,0.9*24
###2023-12-09 12:57:38.970140$GAGSA,A,3,04,19,21,27,,,,,,,,,1.1,0.6,0.9*26
###2023-12-09 12:57:38.971798$GBGSA,A,3,14,24,25,26,33,,,,,,,,1.1,0.6,0.9*2F
###2023-12-09 12:57:38.974118$GPGSV,2,1,08,03,36,264,44,04,31,311,36,16,48,211,46,26,78,209,47*7C
###2023-12-09 12:57:38.976461$GPGSV,2,2,08,28,50,069,42,29,25,063,38,31,69,033,45,32,20,139,43*76
###2023-12-09 12:57:38.978803$GLGSV,2,1,06,65,22,328,41,71,43,172,47,72,73,277,47,73,37,040,45*6C
###2023-12-09 12:57:38.980548$GLGSV,2,2,06,74,70,331,43,75,30,251,47,,,,,,,,*65
###2023-12-09 12:57:38.982879$GAGSV,1,1,04,04,27,312,38,19,85,234,40,21,85,141,45,27,34,048,42*61
###2023-12-09 12:57:38.985200$GBGSV,2,1,05,14,45,193,46,24,75,020,48,25,39,260,47,26,27,062,41*60
###2023-12-09 12:57:38.986671$GBGSV,2,2,05,33,59,235,47,,,,,,,,,,,,*55
###2023-12-09 12:57:38.987964$GNVTG,84.76,T,,M,3.25,N,6.01,K,A*1D
###2023-12-09 12:57:38.989610$GNGST,175738.10,18.000,,,,0.078,0.067,0.160*59
###2023-12-09 12:57:38.990915$GNZDA,175738.10,09,12,2023,00,00*7F
###2023-12-09 12:57:38.991553$GNEBP,,,,,,M*13
###2023-12-09 12:57:39.163469$GNGGA,175738.30,4138.0347962,N,07032.3674558,W,1,24,0.6,13.286,M,-29.745,M,0.0,*57
###2023-12-09 12:57:39.359962$GNGGA,175738.50,4138.0348107,N,07032.3672047,W,1,24,0.6,13.274,M,-29.745,M,0.0,*55
###2023-12-09 12:57:39.561631$GNGGA,175738.70,4138.0348063,N,07032.3669670,W,1,24,0.6,13.264,M,-29.745,M,0.0,*5D
###2023-12-09 12:57:39.761525$GNGGA,175738.90,4138.0348008,N,07032.3667230,W,1,24,0.6,13.274,M,-29.745,M,0.0,*51
###2023-12-09 12:57:39.959843$GNRMC,175739.10,A,4138.0348008,N,07032.3664744,W,3.40,91.57,091223,,,A*64
###2023-12-09 12:57:39.962729$GNGGA,175739.10,4138.0348008,N,07032.3664744,W,1,24,0.6,13.271,M,-29.745,M,0.0,*58
###2023-12-09 12:57:39.964590$GPGSA,A,3,03,04,16,26,28,29,31,32,,,,,1.1,0.6,0.9*3B
###2023-12-09 12:57:39.966306$GLGSA,A,3,65,71,72,73,74,75,,,,,,,1.1,0.6,0.9*24
###2023-12-09 12:57:39.967897$GAGSA,A,3,04,19,21,27,,,,,,,,,1.1,0.6,0.9*26
###2023-12-09 12:57:39.969543$GBGSA,A,3,14,24,25,26,33,,,,,,,,1.1,0.6,0.9*2F
###2023-12-09 12:57:39.971879$GPGSV,2,1,08,03,36,264,45,04,31,311,40,16,48,211,47,26,78,209,48*72
###2023-12-09 12:57:39.974213$GPGSV,2,2,08,28,50,069,44,29,25,063,40,31,69,033,46,32,20,139,42*7D
###2023-12-09 12:57:39.976562$GLGSV,2,1,06,65,22,328,39,71,43,172,47,72,73,277,47,73,37,040,46*60
###2023-12-09 12:57:39.978311$GLGSV,2,2,06,74,70,331,43,75,30,251,46,,,,,,,,*64
###2023-12-09 12:57:39.980641$GAGSV,1,1,04,04,27,312,40,19,85,234,41,21,85,141,46,27,34,048,43*6D
###2023-12-09 12:57:39.982981$GBGSV,2,1,05,14,45,193,46,24,75,020,48,25,39,260,47,26,27,062,42*63
###2023-12-09 12:57:39.984703$GBGSV,2,2,05,33,59,235,48,,,,,,,,,,,,*5A
###2023-12-09 12:57:39.986016$GNVTG,91.57,T,,M,3.40,N,6.30,K,A*1B
###2023-12-09 12:57:39.987688$GNGST,175739.10,18.000,,,,0.079,0.067,0.160*59
###2023-12-09 12:57:39.988992$GNZDA,175739.10,09,12,2023,00,00*7E
###2023-12-09 12:57:39.989634$GNEBP,,,,,,M*13
###2023-12-09 12:57:40.157663$GNGGA,175739.30,4138.0347873,N,07032.3662318,W,1,24,0.6,13.259,M,-29.745,M,0.0,*50
###2023-12-09 12:57:40.359070$GNGGA,175739.50,4138.0347631,N,07032.3659918,W,1,24,0.6,13.273,M,-29.745,M,0.0,*54
###2023-12-09 12:57:40.558318$GNGGA,175739.70,4138.0347346,N,07032.3657479,W,1,24,0.6,13.276,M,-29.745,M,0.0,*52
###2023-12-09 12:57:40.759071$GNGGA,175739.90,4138.0347145,N,07032.3655067,W,1,24,0.6,13.269,M,-29.745,M,0.0,*5A
