###2023-12-09 12:50:55.960323$GBGSA,A,3,14,24,25,26,33,,,,,,,,1.1,0.6,0.9*2F
###2023-12-09 12:50:55.962683$GPGSV,2,1,08,03,37,268,45,04,28,311,42,16,44,210,45,26,74,208,47*78
###2023-12-09 12:50:55.965010$GPGSV,2,2,08,28,53,065,46,29,26,066,45,31,71,024,47,32,23,138,41*7C
###2023-12-09 12:50:55.967361$GLGSV,2,1,06,65,19,329,43,71,47,171,46,72,72,288,46,73,40,038,46*6D
###2023-12-09 12:50:55.969114$GLGSV,2,2,06,74,71,317,43,75,28,247,45,,,,,,,,*6C
###2023-12-09 12:50:55.971458$GAGSV,1,1,04,04,26,312,40,19,85,258,41,21,83,157,46,27,36,048,44*62
###2023-12-09 12:50:55.973797$GBGSV,2,1,05,14,48,194,44,24,77,014,49,25,37,258,46,26,29,060,45*60
###2023-12-09 12:50:55.975281$GBGSV,2,2,05,33,60,240,49,,,,,,,,,,,,*53
###2023-12-09 12:50:55.976602$GNVTG,110.98,T,,M,0.23,N,0.43,K,A*24
###2023-12-09 12:50:55.978242$GNGST,175055.10,18.000,,,,0.079,0.066,0.160*55
###2023-12-09 12:50:55.979547$GNZDA,175055.10,09,12,2023,00,00*73
###2023-12-09 12:50:55.980188$GNEBP,,,,,,M*13
###2023-12-09 12:50:56.148607$GNGGA,175055.30,4138.0558020,N,07032.3753382,W,1,24,0.6,13.629,M,-29.744,M,0.0,*59
###2023-12-09 12:50:56.349305$GNGGA,175055.50,4138.0558014,N,07032.3753239,W,1,24,0.6,13.637,M,-29.744,M,0.0,*56
###2023-12-09 12:50:56.549429$GNGGA,175055.70,4138.0558088,N,07032.3753007,W,1,24,0.6,13.623,M,-29.744,M,0.0,*5B
###2023-12-09 12:50:56.749305$GNGGA,175055.90,4138.0558060,N,07032.3752990,W,1,24,0.6,13.622,M,-29.744,M,0.0,*54
###2023-12-09 12:50:56.957030$GNRMC,175056.10,A,4138.0557942,N,07032.3753141,W,0.23,110.98,091223,,,A*5E
###2023-12-09 12:50:56.959914$GNGGA,175056.10,4138.0557942,N,07032.3753141,W,1,24,0.6,13.637,M,-29.744,M,0.0,*58
###2023-12-09 12:50:56.961778$GPGSA,A,3,03,04,16,26,28,29,31,32,,,,,1.1,0.6,0.9*3B
###2023-12-09 12:50:56.963518$GLGSA,A,3,65,71,72,73,74,75,,,,,,,1.1,0.6,0.9*24
###2023-12-09 12:50:56.965098$GAGSA,A,3,04,19,21,27,,,,,,,,,1.1,0.6,0.9*26
###2023-12-09 12:50:56.966755$GBGSA,A,3,14,24,25,26,33,,,,,,,,1.1,0.6,0.9*2F
###2023-12-09 12:50:56.969084$GPGSV,2,1,08,03,37,268,45,04,28,311,42,16,44,210,45,26,74,208,48*77
###2023-12-09 12:50:56.971423$GPGSV,2,2,08,28,53,065,45,29,26,066,44,31,71,024,47,32,23,138,41*7E
###2023-12-09 12:50:56.973749$GLGSV,2,1,06,65,19,329,42,71,47,171,45,72,72,288,47,73,40,038,46*6E
###2023-12-09 12:50:56.975508$GLGSV,2,2,06,74,71,321,43,75,28,247,44,,,,,,,,*68
###2023-12-09 12:50:56.977840$GAGSV,1,1,04,04,26,312,40,19,85,258,40,21,83,157,45,27,36,048,44*60
###2023-12-09 12:50:56.980184$GBGSV,2,1,05,14,48,194,44,24,77,014,48,25,37,258,46,26,29,060,45*61
###2023-12-09 12:50:56.981646$GBGSV,2,2,05,33,60,240,48,,,,,,,,,,,,*52
###2023-12-09 12:50:56.982992$GNVTG,110.98,T,,M,0.23,N,0.43,K,A*24
###2023-12-09 12:50:56.984645$GNGST,175056.10,18.000,,,,0.079,0.066,0.160*56
###2023-12-09 12:50:56.985938$GNZDA,175056.10,09,12,2023,00,00*70
###2023-12-09 12:50:56.986584$GNEBP,,,,,,M*13
###2023-12-09 12:50:57.151573$GNGGA,175056.30,4138.0557893,N,07032.3753153,W,1,24,0.6,13.639,M,-29.744,M,0.0,*5A
###2023-12-09 12:50:57.351290$GNGGA,175056.50,4138.0557931,N,07032.3752921,W,1,24,0.6,13.634,M,-29.744,M,0.0,*54
###2023-12-09 12:50:57.550388$GNGGA,175056.70,4138.0557955,N,07032.3752715,W,1,24,0.6,13.617,M,-29.744,M,0.0,*5C
###2023-12-09 12:50:57.750299$GNGGA,175056.90,4138.0557888,N,07032.3752783,W,1,24,0.6,13.628,M,-29.744,M,0.0,*50
###2023-12-09 12:50:57.958646$GNRMC,175057.10,A,4138.0557778,N,07032.3752990,W,0.25,110.98,091223,,,A*5B
###2023-12-09 12:50:57.961516$GNGGA,175057.10,4138.0557778,N,07032.3752990,W,1,24,0.6,13.642,M,-29.744,M,0.0,*59
###2023-12-09 12:50:57.963398$GPGSA,A,3,03,04,16,26,28,29,31,32,,,,,1.1,0.6,0.9*3B
###2023-12-09 12:50:57.965122$GLGSA,A,3,65,71,72,73,74,75,,,,,,,1.1,0.6,0.9*24
###2023-12-09 12:50:57.966726$GAGSA,A,3,04,19,21,27,,,,,,,,,1.1,0.6,0.9*26
###2023-12-09 12:50:57.968384$GBGSA,A,3,14,24,25,26,33,,,,,,,,1.1,0.6,0.9*2F
###2023-12-09 12:50:57.970736$GPGSV,2,1,08,03,37,268,46,04,28,311,42,16,44,210,45,26,74,208,48*74
###2023-12-09 12:50:57.973087$GPGSV,2,2,08,28,53,065,45,29,26,066,44,31,71,024,47,32,23,138,42*7D
###2023-12-09 12:50:57.975438$GLGSV,2,1,06,65,19,329,42,71,47,171,44,72,72,288,47,73,40,038,46*6F
###2023-12-09 12:50:57.977192$GLGSV,2,2,06,74,71,321,43,75,28,248,44,,,,,,,,*67
###2023-12-09 12:50:57.979541$GAGSV,1,1,04,04,26,312,41,19,85,258,40,21,83,157,46,27,36,048,43*65
###2023-12-09 12:50:57.981881$GBGSV,2,1,05,14,48,194,44,24,77,014,48,25,37,258,47,26,29,060,45*60
###2023-12-09 12:50:57.983356$GBGSV,2,2,05,33,60,240,49,,,,,,,,,,,,*53
###2023-12-09 12:50:57.984685$GNVTG,110.98,T,,M,0.25,N,0.47,K,A*26
###2023-12-09 12:50:57.986350$GNGST,175057.10,18.000,,,,0.079,0.066,0.160*57
###2023-12-09 12:50:57.987661$GNZDA,175057.10,09,12,2023,00,00*71
###2023-12-09 12:50:57.988307$GNEBP,,,,,,M*13
###2023-12-09 12:50:58.149684$GNGGA,175057.30,4138.0557739,N,07032.3752975,W,1,24,0.6,13.657,M,-29.744,M,0.0,*51
###2023-12-09 12:50:58.352753$GNGGA,175057.50,4138.0557819,N,07032.3752706,W,1,24,0.6,13.647,M,-29.744,M,0.0,*51
###2023-12-09 12:50:58.550317$GNGGA,175057.70,4138.0557847,N,07032.3752574,W,1,24,0.6,13.629,M,-29.744,M,0.0,*57
###2023-12-09 12:50:58.751817$GNGGA,175057.90,4138.0557719,N,07032.3752784,W,1,24,0.6,13.639,M,-29.744,M,0.0,*51
###2023-12-09 12:50:58.950057$GNRMC,175058.10,A,4138.0557613,N,07032.3752995,W,0.08,110.98,091223,,,A*52
###2023-12-09 12:50:58.952940$GNGGA,175058.10,4138.0557613,N,07032.3752995,W,1,24,0.6,13.654,M,-29.744,M,0.0,*58
###2023-12-09 12:50:58.954831$GPGSA,A,3,03,04,16,26,28,29,31,32,,,,,1.1,0.6,0.9*3B
###2023-12-09 12:50:58.956554$GLGSA,A,3,65,71,72,73,74,75,,,,,,,1.1,0.6,0.9*24
###2023-12-09 12:50:58.958144$GAGSA,A,3,04,19,21,27,,,,,,,,,1.1,0.6,0.9*26
###2023-12-09 12:50:58.959807$GBGSA,A,3,14,24,25,26,33,,,,,,,,1.1,0.6,0.9*2F
###2023-12-09 12:50:58.962139$GPGSV,2,1,08,03,37,268,46,04,28,311,42,16,44,210,45,26,74,208,48*74
###2023-12-09 12:50:58.964492$GPGSV,2,2,08,28,53,065,45,29,26,066,43,31,71,024,47,32,23,138,41*79
###2023-12-09 12:50:58.966844$GLGSV,2,1,06,65,19,329,42,71,47,171,45,72,72,288,46,73,40,038,46*6F
###2023-12-09 12:50:58.968601$GLGSV,2,2,06,74,71,321,43,75,28,248,45,,,,,,,,*66
###2023-12-09 12:50:58.970949$GAGSV,1,1,04,04,26,312,40,19,85,258,40,21,83,157,45,27,36,048,44*60
###2023-12-09 12:50:58.973294$GBGSV,2,1,05,14,48,194,44,24,77,014,47,25,37,258,46,26,29,060,43*68
###2023-12-09 12:50:58.974774$GBGSV,2,2,05,33,60,240,48,,,,,,,,,,,,*52
###2023-12-09 12:50:58.976111$GNVTG,110.98,T,,M,0.08,N,0.14,K,A*2F
###2023-12-09 12:50:58.977772$GNGST,175058.10,18.000,,,,0.079,0.066,0.160*58
###2023-12-09 12:50:58.979087$GNZDA,175058.10,09,12,2023,00,00*7E
###2023-12-09 12:50:58.979729$GNEBP,,,,,,M*13
###2023-12-09 12:50:59.149396$GNGGA,175058.30,4138.0557664,N,07032.3752800,W,1,24,0.6,13.657,M,-29.744,M,0.0,*54
###2023-12-09 12:50:59.350236$GNGGA,175058.50,4138.0557693,N,07032.3752521,W,1,24,0.6,13.660,M,-29.744,M,0.0,*50
###2023-12-09 12:50:59.551791$GNGGA,175058.70,4138.0557645,N,07032.3752636,W,1,24,0.6,13.671,M,-29.744,M,0.0,*5C
###2023-12-09 12:50:59.751760$GNGGA,175058.90,4138.0557544,N,07032.3752924,W,1,24,0.6,13.675,M,-29.744,M,0.0,*58
###2023-12-09 12:50:59.950863$GNRMC,175059.10,A,4138.0557552,N,07032.3752927,W,0.29,110.98,091223,,,A*5F
###2023-12-09 12:50:59.953747$GNGGA,175059.10,4138.0557552,N,07032.3752927,W,1,24,0.6,13.652,M,-29.744,M,0.0,*50
###2023-12-09 12:50:59.955637$GPGSA,A,3,03,04,16,26,28,29,31,32,,,,,1.1,0.6,0.9*3B
###2023-12-09 12:50:59.957356$GLGSA,A,3,65,71,72,73,74,75,,,,,,,1.1,0.6,0.9*24
###2023-12-09 12:50:59.958962$GAGSA,A,3,04,19,21,27,,,,,,,,,1.1,0.6,0.9*26
###2023-12-09 12:50:59.960618$GBGSA,A,3,14,24,25,26,33,,,,,,,,1.1,0.6,0.9*2F
###2023-12-09 12:50:59.962969$GPGSV,2,1,08,03,37,268,46,04,28,311,41,16,44,210,45,26,74,208,48*77
###2023-12-09 12:50:59.965318$GPGSV,2,2,08,28,53,065,44,29,26,066,44,31,71,024,47,32,23,138,41*7F
###2023-12-09 12:50:59.967677$GLGSV,2,1,06,65,19,329,42,71,47,171,46,72,72,288,46,73,40,038,47*6D
###2023-12-09 12:50:59.969444$GLGSV,2,2,06,74,71,321,43,75,28,248,44,,,,,,,,*67
###2023-12-09 12:50:59.971802$GAGSV,1,1,04,04,26,312,41,19,85,258,41,21,83,157,45,27,36,048,44*60
###2023-12-09 12:50:59.974142$GBGSV,2,1,05,14,48,194,44,24,77,014,48,25,37,258,45,26,29,060,44*63
###2023-12-09 12:50:59.975873$GBGSV,2,2,05,33,60,240,49,,,,,,,,,,,,*53
###2023-12-09 12:50:59.977220$GNVTG,110.98,T,,M,0.29,N,0.54,K,A*28
###2023-12-09 12:50:59.978889$GNGST,175059.10,18.000,,,,0.079,0.066,0.160*59
###2023-12-09 12:50:59.980193$GNZDA,175059.10,09,12,2023,00,00*7F
###2023-12-09 12:50:59.980837$GNEBP,,,,,,M*13
###2023-12-09 12:51:00.149441$GNGGA,175059.30,4138.0557562,N,07032.3752721,W,1,24,0.6,13.658,M,-29.744,M,0.0,*53
###2023-12-09 12:51:00.354057$GNGGA,175059.50,4138.0557494,N,07032.3752783,W,1,24,0.6,13.675,M,-29.744,M,0.0,*5A
###2023-12-09 12:51:00.550316$GNGGA,175059.70,4138.0557457,N,07032.3752981,W,1,24,0.6,13.686,M,-29.744,M,0.0,*57
###2023-12-09 12:51:00.752382$GNGGA,175059.90,4138.0557474,N,07032.3753038,W,1,24,0.6,13.668,M,-29.744,M,0.0,*52
