###2023-12-09 12:54:29.981793$GBGSV,2,1,05,14,46,194,46,24,76,016,49,25,38,259,46,26,29,061,45*60
###2023-12-09 12:54:29.983294$GBGSV,2,2,05,33,60,238,47,,,,,,,,,,,,*52
###2023-12-09 12:54:29.984624$GNVTG,304.99,T,,M,0.62,N,1.15,K,A*25
###2023-12-09 12:54:29.986281$GNGST,175429.10,18.000,,,,0.076,0.067,0.160*54
###2023-12-09 12:54:29.987607$GNZDA,175429.10,09,12,2023,00,00*7C
###2023-12-09 12:54:29.988251$GNEBP,,,,,,M*13
###2023-12-09 12:54:30.154126$GNGGA,175429.30,4138.0613847,N,07032.3957047,W,1,24,0.6,13.348,M,-29.744,M,0.0,*51
###2023-12-09 12:54:30.354257$GNGGA,175429.50,4138.0613902,N,07032.3957143,W,1,24,0.6,13.326,M,-29.744,M,0.0,*5A
###2023-12-09 12:54:30.555075$GNGGA,175429.70,4138.0613880,N,07032.3957123,W,1,24,0.6,13.294,M,-29.744,M,0.0,*5D
###2023-12-09 12:54:30.755048$GNGGA,175429.90,4138.0613950,N,07032.3957336,W,1,24,0.6,13.294,M,-29.744,M,0.0,*59
###2023-12-09 12:54:30.956643$GNRMC,175430.10,A,4138.0614240,N,07032.3957863,W,0.95,304.99,091223,,,A*5F
###2023-12-09 12:54:30.959497$GNGGA,175430.10,4138.0614240,N,07032.3957863,W,1,24,0.6,13.316,M,-29.744,M,0.0,*54
###2023-12-09 12:54:30.961342$GPGSA,A,3,03,04,16,26,28,29,31,32,,,,,1.1,0.6,0.9*3B
###2023-12-09 12:54:30.963065$GLGSA,A,3,65,71,72,73,74,75,,,,,,,1.1,0.6,0.9*24
###2023-12-09 12:54:30.964645$GAGSA,A,3,04,19,21,27,,,,,,,,,1.1,0.6,0.9*26
###2023-12-09 12:54:30.966283$GBGSA,A,3,14,24,25,26,33,,,,,,,,1.1,0.6,0.9*2F
###2023-12-09 12:54:30.968623$GPGSV,2,1,08,03,36,266,43,04,29,311,43,16,46,211,44,26,76,209,47*70
###2023-12-09 12:54:30.971070$GPGSV,2,2,08,28,52,067,45,29,25,064,44,31,70,029,48,32,22,138,44*7B
###2023-12-09 12:54:30.973479$GLGSV,2,1,06,65,20,328,41,71,45,172,46,72,72,285,45,73,39,039,47*65
###2023-12-09 12:54:30.975301$GLGSV,2,2,06,74,71,324,43,75,29,249,43,,,,,,,,*65
###2023-12-09 12:54:30.977656$GAGSV,1,1,04,04,27,312,42,19,85,242,40,21,84,147,46,27,35,048,44*6E
###2023-12-09 12:54:30.980022$GBGSV,2,1,05,14,46,194,46,24,76,016,49,25,38,259,45,26,29,061,44*62
###2023-12-09 12:54:30.981474$GBGSV,2,2,05,33,60,238,47,,,,,,,,,,,,*52
###2023-12-09 12:54:30.982850$GNVTG,304.99,T,,M,0.95,N,1.76,K,A*28
###2023-12-09 12:54:30.984502$GNGST,175430.10,18.000,,,,0.076,0.067,0.160*5C
###2023-12-09 12:54:30.985790$GNZDA,175430.10,09,12,2023,00,00*74
###2023-12-09 12:54:30.986427$GNEBP,,,,,,M*13
###2023-12-09 12:54:31.154151$GNGGA,175430.30,4138.0614442,N,07032.3958241,W,1,24,0.6,13.320,M,-29.744,M,0.0,*52
###2023-12-09 12:54:31.355125$GNGGA,175430.50,4138.0614397,N,07032.3958175,W,1,24,0.6,13.303,M,-29.744,M,0.0,*5E
###2023-12-09 12:54:31.555105$GNGGA,175430.70,4138.0614322,N,07032.3958028,W,1,24,0.6,13.267,M,-29.744,M,0.0,*58
###2023-12-09 12:54:31.755727$GNGGA,175430.90,4138.0614504,N,07032.3958403,W,1,24,0.6,13.272,M,-29.744,M,0.0,*5D
###2023-12-09 12:54:31.956865$GNRMC,175431.10,A,4138.0614816,N,07032.3959024,W,0.93,302.24,091223,,,A*54
###2023-12-09 12:54:31.959743$GNGGA,175431.10,4138.0614816,N,07032.3959024,W,1,24,0.6,13.287,M,-29.744,M,0.0,*50
###2023-12-09 12:54:31.961597$GPGSA,A,3,03,04,16,26,28,29,31,32,,,,,1.1,0.6,0.9*3B
###2023-12-09 12:54:31.963320$GLGSA,A,3,65,71,72,73,74,75,,,,,,,1.1,0.6,0.9*24
###2023-12-09 12:54:31.964898$GAGSA,A,3,04,19,21,27,,,,,,,,,1.1,0.6,0.9*26
###2023-12-09 12:54:31.966534$GBGSA,A,3,14,24,25,26,33,,,,,,,,1.1,0.6,0.9*2F
###2023-12-09 12:54:31.968881$GPGSV,2,1,08,03,36,266,44,04,29,311,44,16,46,211,45,26,76,209,47*71
###2023-12-09 12:54:31.971213$GPGSV,2,2,08,28,52,067,45,29,25,064,42,31,70,029,48,32,22,138,43*7A
###2023-12-09 12:54:31.973534$GLGSV,2,1,06,65,20,328,44,71,45,172,46,72,72,285,45,73,39,039,48*6F
###2023-12-09 12:54:31.975287$GLGSV,2,2,06,74,71,324,43,75,29,249,43,,,,,,,,*65
###2023-12-09 12:54:31.977607$GAGSV,1,1,04,04,27,312,44,19,85,242,40,21,84,147,46,27,35,048,45*69
###2023-12-09 12:54:31.979944$GBGSV,2,1,05,14,46,194,46,24,76,016,49,25,38,259,46,26,29,061,44*61
###2023-12-09 12:54:31.981392$GBGSV,2,2,05,33,60,238,48,,,,,,,,,,,,*5D
###2023-12-09 12:54:31.982717$GNVTG,302.24,T,,M,0.93,N,1.73,K,A*2B
###2023-12-09 12:54:31.984368$GNGST,175431.10,18.000,,,,0.076,0.067,0.160*5D
###2023-12-09 12:54:31.985657$GNZDA,175431.10,09,12,2023,00,00*75
###2023-12-09 12:54:31.986298$GNEBP,,,,,,M*13
###2023-12-09 12:54:32.153716$GNGGA,175431.30,4138.0614937,N,07032.3959244,W,1,24,0.6,13.282,M,-29.744,M,0.0,*51
###2023-12-09 12:54:32.355228$GNGGA,175431.50,4138.0614829,N,07032.3959013,W,1,24,0.6,13.272,M,-29.744,M,0.0,*56
###2023-12-09 12:54:32.555960$GNGGA,175431.70,4138.0614807,N,07032.3958980,W,1,24,0.6,13.251,M,-29.744,M,0.0,*5B
###2023-12-09 12:54:32.756940$GNGGA,175431.90,4138.0615054,N,07032.3959499,W,1,24,0.6,13.262,M,-29.744,M,0.0,*5E
###2023-12-09 12:54:32.961336$GNRMC,175432.10,A,4138.0615354,N,07032.3960030,W,0.60,307.75,091223,,,A*59
###2023-12-09 12:54:32.964223$GNGGA,175432.10,4138.0615354,N,07032.3960030,W,1,24,0.6,13.261,M,-29.744,M,0.0,*58
###2023-12-09 12:54:32.966074$GPGSA,A,3,03,04,16,26,28,29,31,32,,,,,1.1,0.6,0.9*3B
###2023-12-09 12:54:32.967797$GLGSA,A,3,65,71,72,73,74,75,,,,,,,1.1,0.6,0.9*24
###2023-12-09 12:54:32.969377$GAGSA,A,3,04,19,21,27,,,,,,,,,1.1,0.6,0.9*26
###2023-12-09 12:54:32.971030$GBGSA,A,3,14,24,25,26,33,,,,,,,,1.1,0.6,0.9*2F
###2023-12-09 12:54:32.973348$GPGSV,2,1,08,03,36,266,43,04,29,311,43,16,46,211,44,26,76,209,47*70
###2023-12-09 12:54:32.975689$GPGSV,2,2,08,28,52,067,45,29,25,064,43,31,70,029,48,32,22,138,42*7A
###2023-12-09 12:54:32.978024$GLGSV,2,1,06,65,20,328,44,71,45,172,46,72,72,285,46,73,39,039,47*63
###2023-12-09 12:54:32.979775$GLGSV,2,2,06,74,71,324,43,75,29,249,43,,,,,,,,*65
###2023-12-09 12:54:32.982098$GAGSV,1,1,04,04,27,312,43,19,85,242,40,21,84,147,46,27,35,048,45*6E
###2023-12-09 12:54:32.984422$GBGSV,2,1,05,14,46,194,45,24,76,016,49,25,38,259,46,26,29,061,44*62
###2023-12-09 12:54:32.985864$GBGSV,2,2,05,33,60,238,47,,,,,,,,,,,,*52
###2023-12-09 12:54:32.987191$GNVTG,307.75,T,,M,0.60,N,1.12,K,A*21
###2023-12-09 12:54:32.988838$GNGST,175432.10,18.000,,,,0.076,0.067,0.160*5E
###2023-12-09 12:54:32.990128$GNZDA,175432.10,09,12,2023,00,00*76
###2023-12-09 12:54:32.990778$GNEBP,,,,,,M*13
###2023-12-09 12:54:33.154893$GNGGA,175432.30,4138.0615381,N,07032.3960099,W,1,24,0.6,13.258,M,-29.744,M,0.0,*5B
###2023-12-09 12:54:33.355118$GNGGA,175432.50,4138.0615245,N,07032.3959895,W,1,24,0.6,13.246,M,-29.744,M,0.0,*55
###2023-12-09 12:54:33.555102$GNGGA,175432.70,4138.0615307,N,07032.3960024,W,1,24,0.6,13.238,M,-29.744,M,0.0,*51
###2023-12-09 12:54:33.755197$GNGGA,175432.90,4138.0615630,N,07032.3960635,W,1,24,0.6,13.252,M,-29.744,M,0.0,*54
###2023-12-09 12:54:33.956459$GNRMC,175433.10,A,4138.0615879,N,07032.3961133,W,0.43,303.86,091223,,,A*56
###2023-12-09 12:54:33.959327$GNGGA,175433.10,4138.0615879,N,07032.3961133,W,1,24,0.6,13.245,M,-29.744,M,0.0,*58
###2023-12-09 12:54:33.961180$GPGSA,A,3,03,04,16,26,28,29,31,32,,,,,1.1,0.6,0.9*3B
###2023-12-09 12:54:33.962913$GLGSA,A,3,65,71,72,73,74,75,,,,,,,1.1,0.6,0.9*24
###2023-12-09 12:54:33.964497$GAGSA,A,3,04,19,21,27,,,,,,,,,1.1,0.6,0.9*26
###2023-12-09 12:54:33.966145$GBGSA,A,3,14,24,25,26,33,,,,,,,,1.1,0.6,0.9*2F
###2023-12-09 12:54:33.968493$GPGSV,2,1,08,03,36,266,45,04,29,311,45,16,46,211,45,26,76,209,48*7E
###2023-12-09 12:54:33.970841$GPGSV,2,2,08,28,52,067,46,29,25,064,43,31,70,029,49,32,22,138,42*78
###2023-12-09 12:54:33.973174$GLGSV,2,1,06,65,20,328,44,71,45,172,45,72,72,285,46,73,39,039,47*60
###2023-12-09 12:54:33.974928$GLGSV,2,2,06,74,71,324,43,75,29,249,42,,,,,,,,*64
###2023-12-09 12:54:33.977255$GAGSV,1,1,04,04,27,312,44,19,85,242,41,21,84,147,47,27,35,048,45*69
###2023-12-09 12:54:33.979582$GBGSV,2,1,05,14,46,194,44,24,76,016,49,25,38,259,47,26,29,061,43*65
###2023-12-09 12:54:33.981031$GBGSV,2,2,05,33,60,238,48,,,,,,,,,,,,*5D
###2023-12-09 12:54:33.982349$GNVTG,303.86,T,,M,0.43,N,0.79,K,A*24
###2023-12-09 12:54:33.984005$GNGST,175433.10,18.000,,,,0.076,0.067,0.160*5F
###2023-12-09 12:54:33.985293$GNZDA,175433.10,09,12,2023,00,00*77
###2023-12-09 12:54:33.985930$GNEBP,,,,,,M*13
###2023-12-09 12:54:34.154376$GNGGA,175433.30,4138.0615821,N,07032.3961071,W,1,24,0.6,13.229,M,-29.744,M,0.0,*5A
###2023-12-09 12:54:34.355175$GNGGA,175433.50,4138.0615675,N,07032.3960869,W,1,24,0.6,13.202,M,-29.744,M,0.0,*5A
###2023-12-09 12:54:34.555072$GNGGA,175433.70,4138.0615825,N,07032.3961212,W,1,24,0.6,13.219,M,-29.744,M,0.0,*5E
###2023-12-09 12:54:34.755469$GNGGA,175433.90,4138.0616233,N,07032.3961966,W,1,24,0.6,13.242,M,-29.744,M,0.0,*58
###2023-12-09 12:54:34.956504$GNRMC,175434.10,A,4138.0616426,N,07032.3962307,W,0.08,308.19,091223,,,A*50
###2023-12-09 12:54:34.959393$GNGGA,175434.10,4138.0616426,N,07032.3962307,W,1,24,0.6,13.229,M,-29.744,M,0.0,*56
###2023-12-09 12:54:34.961250$GPGSA,A,3,03,04,16,26,28,29,31,32,,,,,1.1,0.6,0.9*3B
###2023-12-09 12:54:34.962974$GLGSA,A,3,65,71,72,73,74,75,,,,,,,1.1,0.6,0.9*24
###2023-12-09 12:54:34.964552$GAGSA,A,3,04,19,21,27,,,,,,,,,1.1,0.6,0.9*26
###2023-12-09 12:54:34.966196$GBGSA,A,3,14,24,25,26,33,,,,,,,,1.1,0.6,0.9*2F
