###2023-12-09 13:34:54.013397$GPGSV,2,2,08,27,16,172,39,28,38,084,43,29,21,047,43,31,59,066,46*77
###2023-12-09 13:34:54.015770$GLGSV,2,1,07,65,39,318,44,71,22,175,43,72,62,220,45,73,22,052,44*63
###2023-12-09 13:34:54.017809$GLGSV,2,2,07,74,59,015,42,75,44,272,46,83,15,048,37,,,,*5F
###2023-12-09 13:34:54.020146$GAGSV,1,1,04,04,40,310,44,19,72,181,41,21,77,046,46,27,22,050,41*68
###2023-12-09 13:34:54.022469$GBGSV,2,1,07,12,15,126,43,14,29,190,40,24,62,046,48,25,51,276,46*66
###2023-12-09 13:34:54.024515$GBGSV,2,2,07,26,16,071,44,33,45,217,44,35,16,056,44,,,,*5E
###2023-12-09 13:34:54.025835$GNVTG,225.03,T,,M,2.99,N,5.54,K,A*23
###2023-12-09 13:34:54.027449$GNGST,183453.10,5.500,,,,0.085,0.069,0.150*68
###2023-12-09 13:34:54.028731$GNZDA,183453.10,09,12,2023,00,00*78
###2023-12-09 13:34:54.029366$GNEBP,,,,,,M*13
###2023-12-09 13:34:54.195508$GNGGA,183453.30,4138.0444547,N,07032.4148658,W,1,27,0.6,13.384,M,-29.745,M,0.0,*53
###2023-12-09 13:34:54.394516$GNGGA,183453.50,4138.0443339,N,07032.4150202,W,1,27,0.6,13.398,M,-29.745,M,0.0,*52
###2023-12-09 13:34:54.598864$GNGGA,183453.70,4138.0442071,N,07032.4151676,W,1,26,0.6,13.403,M,-29.745,M,0.0,*5C
###2023-12-09 13:34:54.796180$GNGGA,183453.90,4138.0440751,N,07032.4152886,W,1,26,0.6,13.393,M,-29.745,M,0.0,*59
###2023-12-09 13:34:54.998843$GNRMC,183454.10,A,4138.0439397,N,07032.4153997,W,2.92,213.83,091223,,,A*5A
###2023-12-09 13:34:55.001709$GNGGA,183454.10,4138.0439397,N,07032.4153997,W,1,26,0.6,13.388,M,-29.745,M,0.0,*5C
###2023-12-09 13:34:55.003508$GPGSA,A,3,03,04,16,26,28,29,31,,,,,,1.0,0.6,0.9*3B
###2023-12-09 13:34:55.005323$GLGSA,A,3,65,71,72,73,74,75,83,,,,,,1.0,0.6,0.9*2E
###2023-12-09 13:34:55.006921$GAGSA,A,3,04,19,21,27,,,,,,,,,1.0,0.6,0.9*27
###2023-12-09 13:34:55.008696$GBGSA,A,3,12,14,24,25,26,33,35,,,,,,1.0,0.6,0.9*2B
###2023-12-09 13:34:55.011029$GPGSV,2,1,07,03,27,247,38,04,46,308,45,16,66,222,45,26,84,040,47*76
###2023-12-09 13:34:55.013059$GPGSV,2,2,07,28,38,084,43,29,21,047,43,31,59,066,47,,,,*45
###2023-12-09 13:34:55.015393$GLGSV,2,1,07,65,39,318,44,71,22,175,40,72,62,220,45,73,22,052,44*60
###2023-12-09 13:34:55.017426$GLGSV,2,2,07,74,59,015,42,75,44,272,46,83,15,048,35,,,,*5D
###2023-12-09 13:34:55.019760$GAGSV,1,1,04,04,40,310,44,19,72,181,40,21,77,046,46,27,22,050,41*69
###2023-12-09 13:34:55.022086$GBGSV,2,1,07,12,15,126,42,14,29,190,39,24,62,046,47,25,51,276,45*65
###2023-12-09 13:34:55.024127$GBGSV,2,2,07,26,16,071,43,33,45,217,44,35,16,056,44,,,,*59
###2023-12-09 13:34:55.025447$GNVTG,213.83,T,,M,2.92,N,5.40,K,A*20
###2023-12-09 13:34:55.027074$GNGST,183454.10,6.300,,,,0.086,0.070,0.150*61
###2023-12-09 13:34:55.028364$GNZDA,183454.10,09,12,2023,00,00*7F
###2023-12-09 13:34:55.029003$GNEBP,,,,,,M*13
###2023-12-09 13:34:55.197582$GNGGA,183454.30,4138.0438075,N,07032.4155150,W,1,26,0.6,13.394,M,-29.745,M,0.0,*58
###2023-12-09 13:34:55.395712$GNGGA,183454.50,4138.0436732,N,07032.4156186,W,1,26,0.6,13.396,M,-29.745,M,0.0,*5E
###2023-12-09 13:34:55.595685$GNGGA,183454.70,4138.0435374,N,07032.4157094,W,1,26,0.6,13.395,M,-29.745,M,0.0,*59
###2023-12-09 13:34:55.795724$GNGGA,183454.90,4138.0434014,N,07032.4157849,W,1,26,0.6,13.393,M,-29.745,M,0.0,*5D
###2023-12-09 13:34:55.999105$GNRMC,183455.10,A,4138.0432666,N,07032.4158551,W,2.55,203.41,091223,,,A*52
###2023-12-09 13:34:56.002048$GNGGA,183455.10,4138.0432666,N,07032.4158551,W,1,26,0.6,13.392,M,-29.745,M,0.0,*5B
###2023-12-09 13:34:56.003858$GPGSA,A,3,03,04,16,26,28,29,31,,,,,,1.0,0.6,0.9*3B
###2023-12-09 13:34:56.005645$GLGSA,A,3,65,71,72,73,74,75,83,,,,,,1.0,0.6,0.9*2E
###2023-12-09 13:34:56.007246$GAGSA,A,3,04,19,21,27,,,,,,,,,1.0,0.6,0.9*27
###2023-12-09 13:34:56.009016$GBGSA,A,3,12,14,24,25,26,33,35,,,,,,1.0,0.6,0.9*2B
###2023-12-09 13:34:56.011342$GPGSV,2,1,07,03,27,247,40,04,46,308,45,16,66,222,45,26,84,040,48*76
###2023-12-09 13:34:56.013377$GPGSV,2,2,07,28,38,084,45,29,21,047,43,31,59,066,47,,,,*43
###2023-12-09 13:34:56.015713$GLGSV,2,1,07,65,39,318,42,71,22,175,36,72,62,220,45,73,22,052,43*60
###2023-12-09 13:34:56.017743$GLGSV,2,2,07,74,59,015,42,75,44,272,46,83,15,047,35,,,,*52
###2023-12-09 13:34:56.020086$GAGSV,1,1,04,04,40,310,43,19,72,181,39,21,77,046,45,27,22,050,40*62
###2023-12-09 13:34:56.022408$GBGSV,2,1,07,12,15,126,42,14,29,190,39,24,62,046,48,25,51,276,47*68
###2023-12-09 13:34:56.024453$GBGSV,2,2,07,26,16,071,44,33,45,217,45,35,16,056,44,,,,*5F
###2023-12-09 13:34:56.025770$GNVTG,203.41,T,,M,2.55,N,4.72,K,A*24
###2023-12-09 13:34:56.027401$GNGST,183455.10,6.000,,,,0.088,0.070,0.150*6D
###2023-12-09 13:34:56.028726$GNZDA,183455.10,09,12,2023,00,00*7E
###2023-12-09 13:34:56.029361$GNEBP,,,,,,M*13
###2023-12-09 13:34:56.196572$GNGGA,183455.30,4138.0431349,N,07032.4159317,W,1,26,0.6,13.398,M,-29.745,M,0.0,*5D
###2023-12-09 13:34:56.395522$GNGGA,183455.50,4138.0429985,N,07032.4159973,W,1,26,0.6,13.386,M,-29.745,M,0.0,*5F
###2023-12-09 13:34:56.596515$GNGGA,183455.70,4138.0428639,N,07032.4160265,W,1,26,0.6,13.366,M,-29.745,M,0.0,*5C
###2023-12-09 13:34:56.795380$GNGGA,183455.90,4138.0427331,N,07032.4160543,W,1,26,0.6,13.370,M,-29.745,M,0.0,*54
###2023-12-09 13:34:57.005311$GNRMC,183456.10,A,4138.0425972,N,07032.4161096,W,2.53,199.41,091223,,,A*5F
###2023-12-09 13:34:57.008197$GNGGA,183456.10,4138.0425972,N,07032.4161096,W,1,25,0.6,13.388,M,-29.745,M,0.0,*58
###2023-12-09 13:34:57.009990$GPGSA,A,3,03,04,16,26,28,29,31,,,,,,1.0,0.6,0.9*3B
###2023-12-09 13:34:57.011715$GLGSA,A,3,65,71,72,73,74,75,,,,,,,1.0,0.6,0.9*25
###2023-12-09 13:34:57.013300$GAGSA,A,3,04,19,21,27,,,,,,,,,1.0,0.6,0.9*27
###2023-12-09 13:34:57.015092$GBGSA,A,3,12,14,24,25,26,33,35,,,,,,1.0,0.6,0.9*2B
###2023-12-09 13:34:57.017416$GPGSV,2,1,07,03,27,247,42,04,46,308,45,16,66,222,45,26,84,040,48*74
###2023-12-09 13:34:57.019463$GPGSV,2,2,07,28,38,084,44,29,21,047,42,31,59,066,45,,,,*41
###2023-12-09 13:34:57.021787$GLGSV,2,1,06,65,39,318,43,71,22,175,37,72,62,220,45,73,22,052,42*60
###2023-12-09 13:34:57.023540$GLGSV,2,2,06,74,59,015,42,75,44,272,47,,,,,,,,*68
###2023-12-09 13:34:57.025871$GAGSV,1,1,04,04,40,310,44,19,72,181,40,21,77,046,46,27,22,050,41*69
###2023-12-09 13:34:57.028214$GBGSV,2,1,07,12,15,126,41,14,29,190,39,24,62,046,47,25,51,276,46*65
###2023-12-09 13:34:57.030256$GBGSV,2,2,07,26,16,071,41,33,45,217,45,35,16,056,43,,,,*5D
###2023-12-09 13:34:57.031599$GNVTG,199.41,T,,M,2.53,N,4.68,K,A*29
###2023-12-09 13:34:57.033217$GNGST,183456.10,5.900,,,,0.090,0.069,0.150*65
###2023-12-09 13:34:57.034506$GNZDA,183456.10,09,12,2023,00,00*7D
###2023-12-09 13:34:57.035162$GNEBP,,,,,,M*13
###2023-12-09 13:34:57.207263$GNGGA,183456.30,4138.0424652,N,07032.4161433,W,1,25,0.6,13.370,M,-29.745,M,0.0,*5A
###2023-12-09 13:34:57.395462$GNGGA,183456.50,4138.0423397,N,07032.4161275,W,1,25,0.6,13.342,M,-29.745,M,0.0,*52
###2023-12-09 13:34:57.595728$GNGGA,183456.70,4138.0422144,N,07032.4161221,W,1,25,0.6,13.352,M,-29.745,M,0.0,*5D
###2023-12-09 13:34:57.796481$GNGGA,183456.90,4138.0420799,N,07032.4161521,W,1,26,0.6,13.370,M,-29.745,M,0.0,*53
###2023-12-09 13:34:57.999069$GNRMC,183457.10,A,4138.0419505,N,07032.4161575,W,2.25,171.05,091223,,,A*52
###2023-12-09 13:34:58.001939$GNGGA,183457.10,4138.0419505,N,07032.4161575,W,1,26,0.6,13.348,M,-29.745,M,0.0,*5D
###2023-12-09 13:34:58.003748$GPGSA,A,3,03,04,16,26,28,29,31,,,,,,1.0,0.6,0.9*3B
###2023-12-09 13:34:58.005534$GLGSA,A,3,65,71,72,73,74,75,83,,,,,,1.0,0.6,0.9*2E
###2023-12-09 13:34:58.007128$GAGSA,A,3,04,19,21,27,,,,,,,,,1.0,0.6,0.9*27
###2023-12-09 13:34:58.008892$GBGSA,A,3,12,14,24,25,26,33,35,,,,,,1.0,0.6,0.9*2B
###2023-12-09 13:34:58.011218$GPGSV,2,1,07,03,27,247,42,04,46,308,46,16,66,222,46,26,84,040,47*7B
###2023-12-09 13:34:58.013258$GPGSV,2,2,07,28,38,084,44,29,21,047,42,31,59,066,45,,,,*41
###2023-12-09 13:34:58.015594$GLGSV,2,1,07,65,39,318,43,71,22,175,35,72,62,220,46,73,22,052,42*60
###2023-12-09 13:34:58.017633$GLGSV,2,2,07,74,59,015,42,75,44,272,47,83,15,047,35,,,,*53
###2023-12-09 13:34:58.019967$GAGSV,1,1,04,04,40,310,45,19,72,181,40,21,77,046,46,27,22,050,39*67
###2023-12-09 13:34:58.022285$GBGSV,2,1,07,12,15,126,39,14,29,190,37,24,62,046,47,25,51,276,48*6A
###2023-12-09 13:34:58.024329$GBGSV,2,2,07,26,16,071,42,33,45,217,46,35,16,056,41,,,,*5F
###2023-12-09 13:34:58.025901$GNVTG,171.05,T,,M,2.25,N,4.18,K,A*29
###2023-12-09 13:34:58.027544$GNGST,183457.10,6.100,,,,0.092,0.069,0.150*6D
###2023-12-09 13:34:58.028883$GNZDA,183457.10,09,12,2023,00,00*7C
###2023-12-09 13:34:58.029530$GNEBP,,,,,,M*13
###2023-12-09 13:34:58.196493$GNGGA,183457.30,4138.0418384,N,07032.4161231,W,1,25,0.6,13.338,M,-29.745,M,0.0,*52
###2023-12-09 13:34:58.395835$GNGGA,183457.50,4138.0417217,N,07032.4160859,W,1,25,0.6,13.337,M,-29.745,M,0.0,*5A
###2023-12-09 13:34:58.594463$GNGGA,183457.70,4138.0416005,N,07032.4160686,W,1,25,0.6,13.334,M,-29.745,M,0.0,*57
###2023-12-09 13:34:58.796442$GNGGA,183457.90,4138.0414785,N,07032.4160579,W,1,25,0.6,13.342,M,-29.745,M,0.0,*56
###2023-12-09 13:34:58.998921$GNRMC,183458.10,A,4138.0413600,N,07032.4160238,W,2.10,162.67,091223,,,A*5E
###2023-12-09 13:34:59.001781$GNGGA,183458.10,4138.0413600,N,07032.4160238,W,1,25,0.6,13.340,M,-29.745,M,0.0,*5A
