###2023-12-09 12:35:50.959111$GAGSV,1,1,04,04,21,311,41,19,81,302,40,21,78,176,45,27,41,049,43*6E
###2023-12-09 12:35:50.961477$GBGSV,2,1,05,14,55,197,44,24,80,347,48,25,33,253,43,26,35,057,45*60
###2023-12-09 12:35:50.963006$GBGSV,2,2,05,33,63,253,49,,,,,,,,,,,,*52
###2023-12-09 12:35:50.964346$GNVTG,126.35,T,,M,2.51,N,4.64,K,A*20
###2023-12-09 12:35:50.965991$GNGST,173550.10,18.000,,,,0.082,0.070,0.160*50
###2023-12-09 12:35:50.967305$GNZDA,173550.10,09,12,2023,00,00*75
###2023-12-09 12:35:50.967954$GNEBP,,,,,,M*13
###2023-12-09 12:35:51.137224$GNGGA,173550.30,4138.0472070,N,07032.4125494,W,1,23,0.7,13.309,M,-29.745,M,0.0,*53
###2023-12-09 12:35:51.336997$GNGGA,173550.50,4138.0471302,N,07032.4123970,W,1,23,0.7,13.313,M,-29.745,M,0.0,*5A
###2023-12-09 12:35:51.536646$GNGGA,173550.70,4138.0470604,N,07032.4122403,W,1,23,0.7,13.309,M,-29.745,M,0.0,*59
###2023-12-09 12:35:51.735937$GNGGA,173550.90,4138.0469956,N,07032.4120764,W,1,23,0.7,13.321,M,-29.745,M,0.0,*5D
###2023-12-09 12:35:51.936415$GNRMC,173551.10,A,4138.0469326,N,07032.4119110,W,2.47,115.75,091223,,,A*53
###2023-12-09 12:35:51.939894$GNGGA,173551.10,4138.0469326,N,07032.4119110,W,1,23,0.7,13.320,M,-29.745,M,0.0,*57
###2023-12-09 12:35:51.942144$GPGSA,A,3,03,04,16,26,28,29,31,32,,,,,1.2,0.7,1.0*31
###2023-12-09 12:35:51.944165$GLGSA,A,3,71,72,73,74,75,,,,,,,,1.2,0.7,1.0*2D
###2023-12-09 12:35:51.946090$GAGSA,A,3,04,19,21,27,,,,,,,,,1.2,0.7,1.0*2C
###2023-12-09 12:35:51.948129$GBGSA,A,3,14,24,25,26,33,,,,,,,,1.2,0.7,1.0*25
###2023-12-09 12:35:51.951018$GPGSV,2,1,08,03,38,276,43,04,22,311,42,16,37,207,45,26,66,206,47*7B
###2023-12-09 12:35:51.953847$GPGSV,2,2,08,28,58,056,44,29,25,074,40,31,73,001,47,32,30,134,41*7B
###2023-12-09 12:35:51.956712$GLGSV,2,1,05,71,56,169,47,72,66,308,47,73,47,034,46,74,71,293,43*6E
###2023-12-09 12:35:51.958484$GLGSV,2,2,05,75,22,241,41,,,,,,,,,,,,*50
###2023-12-09 12:35:51.961312$GAGSV,1,1,04,04,21,311,41,19,81,302,40,21,78,176,45,27,41,049,43*6E
###2023-12-09 12:35:51.964154$GBGSV,2,1,05,14,55,197,46,24,80,348,49,25,33,253,44,26,35,057,46*68
###2023-12-09 12:35:51.965921$GBGSV,2,2,05,33,63,253,48,,,,,,,,,,,,*53
###2023-12-09 12:35:51.967541$GNVTG,115.75,T,,M,2.47,N,4.57,K,A*23
###2023-12-09 12:35:51.969543$GNGST,173551.10,19.000,,,,0.082,0.070,0.160*50
###2023-12-09 12:35:51.971122$GNZDA,173551.10,09,12,2023,00,00*74
###2023-12-09 12:35:51.971905$GNEBP,,,,,,M*13
###2023-12-09 12:35:52.136163$GNGGA,173551.30,4138.0468719,N,07032.4117435,W,1,23,0.7,13.320,M,-29.745,M,0.0,*50
###2023-12-09 12:35:52.337822$GNGGA,173551.50,4138.0468176,N,07032.4115715,W,1,23,0.7,13.333,M,-29.745,M,0.0,*58
###2023-12-09 12:35:52.536346$GNGGA,173551.70,4138.0467646,N,07032.4113942,W,1,23,0.7,13.327,M,-29.745,M,0.0,*5E
###2023-12-09 12:35:52.742725$GNGGA,173551.90,4138.0467168,N,07032.4112214,W,1,23,0.7,13.340,M,-29.745,M,0.0,*53
###2023-12-09 12:35:52.938649$GNRMC,173552.10,A,4138.0466688,N,07032.4110372,W,2.51,107.19,091223,,,A*5F
###2023-12-09 12:35:52.942129$GNGGA,173552.10,4138.0466688,N,07032.4110372,W,1,23,0.7,13.345,M,-29.745,M,0.0,*56
###2023-12-09 12:35:52.944429$GPGSA,A,3,03,04,16,26,28,29,31,32,,,,,1.2,0.7,1.0*31
###2023-12-09 12:35:52.946439$GLGSA,A,3,71,72,73,74,75,,,,,,,,1.2,0.7,1.0*2D
###2023-12-09 12:35:52.948399$GAGSA,A,3,04,19,21,27,,,,,,,,,1.2,0.7,1.0*2C
###2023-12-09 12:35:52.950403$GBGSA,A,3,14,24,25,26,33,,,,,,,,1.2,0.7,1.0*25
###2023-12-09 12:35:52.953230$GPGSV,2,1,08,03,38,276,45,04,22,311,42,16,37,207,45,26,66,206,48*72
###2023-12-09 12:35:52.956071$GPGSV,2,2,08,28,58,056,44,29,25,074,38,31,73,001,47,32,30,134,42*77
###2023-12-09 12:35:52.958909$GLGSV,2,1,05,71,56,169,47,72,66,308,46,73,47,034,46,74,71,293,43*6F
###2023-12-09 12:35:52.960673$GLGSV,2,2,05,75,22,241,42,,,,,,,,,,,,*53
###2023-12-09 12:35:52.963487$GAGSV,1,1,04,04,21,311,41,19,81,302,40,21,78,176,46,27,41,049,44*6A
###2023-12-09 12:35:52.966300$GBGSV,2,1,05,14,55,197,47,24,80,348,49,25,33,253,45,26,35,057,46*68
###2023-12-09 12:35:52.968073$GBGSV,2,2,05,33,63,253,48,,,,,,,,,,,,*53
###2023-12-09 12:35:52.969675$GNVTG,107.19,T,,M,2.51,N,4.64,K,A*2D
###2023-12-09 12:35:52.971684$GNGST,173552.10,18.000,,,,0.081,0.070,0.160*51
###2023-12-09 12:35:52.973251$GNZDA,173552.10,09,12,2023,00,00*77
###2023-12-09 12:35:52.974025$GNEBP,,,,,,M*13
###2023-12-09 12:35:53.136518$GNGGA,173552.30,4138.0466292,N,07032.4108541,W,1,23,0.7,13.342,M,-29.745,M,0.0,*53
###2023-12-09 12:35:53.336090$GNGGA,173552.50,4138.0465932,N,07032.4106701,W,1,23,0.7,13.344,M,-29.745,M,0.0,*59
###2023-12-09 12:35:53.547198$GNGGA,173552.70,4138.0465558,N,07032.4104792,W,1,23,0.7,13.344,M,-29.745,M,0.0,*53
###2023-12-09 12:35:53.735428$GNGGA,173552.90,4138.0465224,N,07032.4102900,W,1,23,0.7,13.347,M,-29.745,M,0.0,*51
###2023-12-09 12:35:53.935963$GNRMC,173553.10,A,4138.0464936,N,07032.4100964,W,2.66,101.34,091223,,,A*57
###2023-12-09 12:35:53.938838$GNGGA,173553.10,4138.0464936,N,07032.4100964,W,1,23,0.7,13.351,M,-29.745,M,0.0,*56
###2023-12-09 12:35:53.940703$GPGSA,A,3,03,04,16,26,28,29,31,32,,,,,1.2,0.7,1.0*31
###2023-12-09 12:35:53.942357$GLGSA,A,3,71,72,73,74,75,,,,,,,,1.2,0.7,1.0*2D
###2023-12-09 12:35:53.943964$GAGSA,A,3,04,19,21,27,,,,,,,,,1.2,0.7,1.0*2C
###2023-12-09 12:35:53.945617$GBGSA,A,3,14,24,25,26,33,,,,,,,,1.2,0.7,1.0*25
###2023-12-09 12:35:53.947975$GPGSV,2,1,08,03,38,276,44,04,22,311,41,16,37,207,45,26,66,206,47*7F
###2023-12-09 12:35:53.950334$GPGSV,2,2,08,28,58,056,45,29,25,074,41,31,73,001,47,32,30,134,41*7B
###2023-12-09 12:35:53.952697$GLGSV,2,1,05,71,56,169,47,72,66,308,46,73,47,034,47,74,71,293,43*6E
###2023-12-09 12:35:53.954156$GLGSV,2,2,05,75,22,241,44,,,,,,,,,,,,*55
###2023-12-09 12:35:53.956497$GAGSV,1,1,04,04,21,311,40,19,81,302,40,21,78,176,46,27,41,049,44*6B
###2023-12-09 12:35:53.958849$GBGSV,2,1,05,14,55,197,46,24,80,348,49,25,33,253,43,26,35,057,46*6F
###2023-12-09 12:35:53.960318$GBGSV,2,2,05,33,63,253,48,,,,,,,,,,,,*53
###2023-12-09 12:35:53.961646$GNVTG,101.34,T,,M,2.66,N,4.93,K,A*28
###2023-12-09 12:35:53.963317$GNGST,173553.10,18.000,,,,0.081,0.070,0.160*50
###2023-12-09 12:35:53.964613$GNZDA,173553.10,09,12,2023,00,00*76
###2023-12-09 12:35:53.965256$GNEBP,,,,,,M*13
###2023-12-09 12:35:54.136664$GNGGA,173553.30,4138.0464667,N,07032.4099015,W,1,23,0.7,13.357,M,-29.745,M,0.0,*57
###2023-12-09 12:35:54.335095$GNGGA,173553.50,4138.0464419,N,07032.4097043,W,1,23,0.7,13.356,M,-29.745,M,0.0,*56
###2023-12-09 12:35:54.535409$GNGGA,173553.70,4138.0464214,N,07032.4095083,W,1,23,0.7,13.356,M,-29.745,M,0.0,*51
###2023-12-09 12:35:54.735263$GNGGA,173553.90,4138.0464018,N,07032.4093085,W,1,23,0.7,13.356,M,-29.745,M,0.0,*51
###2023-12-09 12:35:54.936874$GNRMC,173554.10,A,4138.0463866,N,07032.4091091,W,2.70,94.04,091223,,,A*60
###2023-12-09 12:35:54.939763$GNGGA,173554.10,4138.0463866,N,07032.4091091,W,1,23,0.7,13.351,M,-29.745,M,0.0,*58
###2023-12-09 12:35:54.941634$GPGSA,A,3,03,04,16,26,28,29,31,32,,,,,1.2,0.7,1.0*31
###2023-12-09 12:35:54.943308$GLGSA,A,3,71,72,73,74,75,,,,,,,,1.2,0.7,1.0*2D
###2023-12-09 12:35:54.944904$GAGSA,A,3,04,19,21,27,,,,,,,,,1.2,0.7,1.0*2C
###2023-12-09 12:35:54.946580$GBGSA,A,3,14,24,25,26,33,,,,,,,,1.2,0.7,1.0*25
###2023-12-09 12:35:54.948941$GPGSV,2,1,08,03,38,276,45,04,22,311,41,16,37,207,45,26,66,206,47*7E
###2023-12-09 12:35:54.951306$GPGSV,2,2,08,28,58,056,44,29,25,074,41,31,73,001,47,32,30,134,41*7A
###2023-12-09 12:35:54.953651$GLGSV,2,1,05,71,56,169,47,72,66,308,47,73,47,034,47,74,71,293,43*6F
###2023-12-09 12:35:54.955130$GLGSV,2,2,05,75,22,241,41,,,,,,,,,,,,*50
###2023-12-09 12:35:54.957466$GAGSV,1,1,04,04,21,311,41,19,82,300,40,21,78,176,46,27,41,049,44*6B
###2023-12-09 12:35:54.959815$GBGSV,2,1,05,14,55,197,45,24,80,348,49,25,33,253,45,26,35,057,45*69
###2023-12-09 12:35:54.961275$GBGSV,2,2,05,33,63,253,48,,,,,,,,,,,,*53
###2023-12-09 12:35:54.962583$GNVTG,94.04,T,,M,2.70,N,5.00,K,A*1A
###2023-12-09 12:35:54.964234$GNGST,173554.10,18.000,,,,0.081,0.070,0.160*57
###2023-12-09 12:35:54.965534$GNZDA,173554.10,09,12,2023,00,00*71
###2023-12-09 12:35:54.966178$GNEBP,,,,,,M*13
###2023-12-09 12:35:55.134965$GNGGA,173554.30,4138.0463726,N,07032.4089045,W,1,23,0.7,13.348,M,-29.745,M,0.0,*59
###2023-12-09 12:35:55.337227$GNGGA,173554.50,4138.0463638,N,07032.4087059,W,1,23,0.7,13.348,M,-29.745,M,0.0,*52
###2023-12-09 12:35:55.539367$GNGGA,173554.70,4138.0463551,N,07032.4085006,W,1,23,0.7,13.350,M,-29.745,M,0.0,*5D
###2023-12-09 12:35:55.734252$GNGGA,173554.90,4138.0463461,N,07032.4082958,W,1,23,0.7,13.347,M,-29.745,M,0.0,*52
###2023-12-09 12:35:55.936610$GNRMC,173555.10,A,4138.0463443,N,07032.4080923,W,2.78,90.96,091223,,,A*6D
###2023-12-09 12:35:55.939486$GNGGA,173555.10,4138.0463443,N,07032.4080923,W,1,23,0.7,13.347,M,-29.745,M,0.0,*55
###2023-12-09 12:35:55.941368$GPGSA,A,3,03,04,16,26,28,29,31,32,,,,,1.2,0.7,1.0*31
###2023-12-09 12:35:55.943053$GLGSA,A,3,71,72,73,74,75,,,,,,,,1.2,0.7,1.0*2D
###2023-12-09 12:35:55.944653$GAGSA,A,3,04,19,21,27,,,,,,,,,1.2,0.7,1.0*2C
