###2023-12-09 12:55:31.976033$GLGSV,2,2,06,74,71,327,42,75,30,250,41,,,,,,,,*65
###2023-12-09 12:55:31.978388$GAGSV,1,1,04,04,27,312,39,19,85,242,40,21,84,147,46,27,35,048,42*64
###2023-12-09 12:55:31.980759$GBGSV,2,1,05,14,46,194,45,24,75,018,47,25,39,260,42,26,28,061,41*6A
###2023-12-09 12:55:31.982226$GBGSV,2,2,05,33,59,237,46,,,,,,,,,,,,*56
###2023-12-09 12:55:31.983567$GNVTG,291.55,T,,M,2.10,N,3.89,K,A*28
###2023-12-09 12:55:31.985215$GNGST,175531.10,18.000,,,,0.078,0.067,0.160*52
###2023-12-09 12:55:31.986502$GNZDA,175531.10,09,12,2023,00,00*74
###2023-12-09 12:55:31.987164$GNEBP,,,,,,M*13
###2023-12-09 12:55:32.155964$GNGGA,175531.30,4138.0488345,N,07032.3886574,W,1,24,0.6,13.005,M,-29.745,M,0.0,*53
###2023-12-09 12:55:32.355954$GNGGA,175531.50,4138.0488699,N,07032.3888040,W,1,24,0.6,13.006,M,-29.745,M,0.0,*5E
###2023-12-09 12:55:32.557172$GNGGA,175531.70,4138.0488975,N,07032.3889559,W,1,24,0.6,13.010,M,-29.745,M,0.0,*5A
###2023-12-09 12:55:32.756921$GNGGA,175531.90,4138.0489202,N,07032.3891156,W,1,24,0.6,13.010,M,-29.745,M,0.0,*5C
###2023-12-09 12:55:32.961906$GNRMC,175532.10,A,4138.0489378,N,07032.3892789,W,2.31,279.02,091223,,,A*56
###2023-12-09 12:55:32.965416$GNGGA,175532.10,4138.0489378,N,07032.3892789,W,1,24,0.6,13.010,M,-29.745,M,0.0,*5C
###2023-12-09 12:55:32.967695$GPGSA,A,3,03,04,16,26,28,29,31,32,,,,,1.1,0.6,0.9*3B
###2023-12-09 12:55:32.969773$GLGSA,A,3,65,71,72,73,74,75,,,,,,,1.1,0.6,0.9*24
###2023-12-09 12:55:32.971701$GAGSA,A,3,04,19,21,27,,,,,,,,,1.1,0.6,0.9*26
###2023-12-09 12:55:32.973690$GBGSA,A,3,14,24,25,26,33,,,,,,,,1.1,0.6,0.9*2F
###2023-12-09 12:55:32.976521$GPGSV,2,1,08,03,36,265,42,04,30,311,41,16,47,211,46,26,77,209,48*75
###2023-12-09 12:55:32.979366$GPGSV,2,2,08,28,52,067,45,29,25,064,41,31,70,029,47,32,22,138,43*76
###2023-12-09 12:55:32.982192$GLGSV,2,1,06,65,21,328,40,71,44,172,47,72,72,281,46,73,38,040,45*6F
###2023-12-09 12:55:32.984322$GLGSV,2,2,06,74,71,327,42,75,30,250,41,,,,,,,,*65
###2023-12-09 12:55:32.987144$GAGSV,1,1,04,04,27,312,40,19,85,242,41,21,84,147,46,27,35,048,42*6B
###2023-12-09 12:55:32.989957$GBGSV,2,1,05,14,46,194,44,24,75,018,48,25,39,260,42,26,28,061,42*67
###2023-12-09 12:55:32.991723$GBGSV,2,2,05,33,59,237,46,,,,,,,,,,,,*56
###2023-12-09 12:55:32.993326$GNVTG,279.02,T,,M,2.31,N,4.28,K,A*23
###2023-12-09 12:55:32.995374$GNGST,175532.10,18.000,,,,0.078,0.067,0.160*51
###2023-12-09 12:55:32.996940$GNZDA,175532.10,09,12,2023,00,00*77
###2023-12-09 12:55:32.997709$GNEBP,,,,,,M*13
###2023-12-09 12:55:33.157380$GNGGA,175532.30,4138.0489539,N,07032.3894461,W,1,24,0.6,13.008,M,-29.745,M,0.0,*57
###2023-12-09 12:55:33.355569$GNGGA,175532.50,4138.0489640,N,07032.3896158,W,1,24,0.6,13.004,M,-29.745,M,0.0,*5D
###2023-12-09 12:55:33.556695$GNGGA,175532.70,4138.0489658,N,07032.3897835,W,1,24,0.6,12.999,M,-29.745,M,0.0,*59
###2023-12-09 12:55:33.757593$GNGGA,175532.90,4138.0489651,N,07032.3899512,W,1,24,0.6,12.995,M,-29.745,M,0.0,*54
###2023-12-09 12:55:33.957796$GNRMC,175533.10,A,4138.0489601,N,07032.3901190,W,2.25,266.83,091223,,,A*5B
###2023-12-09 12:55:33.961250$GNGGA,175533.10,4138.0489601,N,07032.3901190,W,1,24,0.6,12.998,M,-29.745,M,0.0,*5B
###2023-12-09 12:55:33.963512$GPGSA,A,3,03,04,16,26,28,29,31,32,,,,,1.1,0.6,0.9*3B
###2023-12-09 12:55:33.965583$GLGSA,A,3,65,71,72,73,74,75,,,,,,,1.1,0.6,0.9*24
###2023-12-09 12:55:33.967510$GAGSA,A,3,04,19,21,27,,,,,,,,,1.1,0.6,0.9*26
###2023-12-09 12:55:33.969496$GBGSA,A,3,14,24,25,26,33,,,,,,,,1.1,0.6,0.9*2F
###2023-12-09 12:55:33.972350$GPGSV,2,1,08,03,36,265,42,04,30,311,41,16,47,211,46,26,77,209,47*7A
###2023-12-09 12:55:33.975183$GPGSV,2,2,08,28,52,067,45,29,25,064,41,31,70,029,48,32,22,138,44*7E
###2023-12-09 12:55:33.978000$GLGSV,2,1,06,65,21,328,41,71,44,172,47,72,72,281,46,73,38,040,45*6E
###2023-12-09 12:55:33.980120$GLGSV,2,2,06,74,71,327,42,75,30,250,44,,,,,,,,*60
###2023-12-09 12:55:33.982936$GAGSV,1,1,04,04,27,312,40,19,85,242,41,21,84,147,46,27,35,048,43*6A
###2023-12-09 12:55:33.985752$GBGSV,2,1,05,14,46,194,45,24,75,018,48,25,39,260,43,26,28,061,42*67
###2023-12-09 12:55:33.987522$GBGSV,2,2,05,33,59,237,47,,,,,,,,,,,,*57
###2023-12-09 12:55:33.989116$GNVTG,266.83,T,,M,2.25,N,4.18,K,A*22
###2023-12-09 12:55:33.991157$GNGST,175533.10,18.000,,,,0.078,0.068,0.160*5F
###2023-12-09 12:55:33.992721$GNZDA,175533.10,09,12,2023,00,00*76
###2023-12-09 12:55:33.993488$GNEBP,,,,,,M*13
###2023-12-09 12:55:34.155906$GNGGA,175533.30,4138.0489521,N,07032.3902882,W,1,24,0.6,13.001,M,-29.745,M,0.0,*59
###2023-12-09 12:55:34.357330$GNGGA,175533.50,4138.0489383,N,07032.3904583,W,1,24,0.6,13.003,M,-29.745,M,0.0,*59
###2023-12-09 12:55:34.556373$GNGGA,175533.70,4138.0489213,N,07032.3906320,W,1,24,0.6,13.002,M,-29.745,M,0.0,*5F
###2023-12-09 12:55:34.757697$GNGGA,175533.90,4138.0488946,N,07032.3908052,W,1,24,0.6,13.000,M,-29.745,M,0.0,*51
###2023-12-09 12:55:34.957161$GNRMC,175534.10,A,4138.0488629,N,07032.3909832,W,2.47,256.37,091223,,,A*56
###2023-12-09 12:55:34.960624$GNGGA,175534.10,4138.0488629,N,07032.3909832,W,1,24,0.6,13.003,M,-29.745,M,0.0,*54
###2023-12-09 12:55:34.962872$GPGSA,A,3,03,04,16,26,28,29,31,32,,,,,1.1,0.6,0.9*3B
###2023-12-09 12:55:34.964966$GLGSA,A,3,65,71,72,73,74,75,,,,,,,1.1,0.6,0.9*24
###2023-12-09 12:55:34.966893$GAGSA,A,3,04,19,21,27,,,,,,,,,1.1,0.6,0.9*26
###2023-12-09 12:55:34.968884$GBGSA,A,3,14,24,25,26,33,,,,,,,,1.1,0.6,0.9*2F
###2023-12-09 12:55:34.971697$GPGSV,2,1,08,03,36,265,42,04,30,311,42,16,47,211,46,26,77,209,48*76
###2023-12-09 12:55:34.974509$GPGSV,2,2,08,28,51,068,45,29,25,064,42,31,70,029,48,32,22,138,44*71
###2023-12-09 12:55:34.977336$GLGSV,2,1,06,65,21,328,42,71,44,172,46,72,72,281,45,73,38,040,47*6D
###2023-12-09 12:55:34.979456$GLGSV,2,2,06,74,71,327,42,75,30,250,44,,,,,,,,*60
###2023-12-09 12:55:34.982263$GAGSV,1,1,04,04,27,312,40,19,85,242,41,21,84,147,46,27,35,048,44*6D
###2023-12-09 12:55:34.985082$GBGSV,2,1,05,14,46,194,46,24,75,018,50,25,39,260,45,26,28,061,43*6A
###2023-12-09 12:55:34.986846$GBGSV,2,2,05,33,59,237,48,,,,,,,,,,,,*58
###2023-12-09 12:55:34.988442$GNVTG,256.37,T,,M,2.47,N,4.57,K,A*21
###2023-12-09 12:55:34.990427$GNGST,175534.10,18.000,,,,0.078,0.067,0.160*57
###2023-12-09 12:55:34.991997$GNZDA,175534.10,09,12,2023,00,00*71
###2023-12-09 12:55:34.992766$GNEBP,,,,,,M*13
###2023-12-09 12:55:35.155643$GNGGA,175534.30,4138.0488252,N,07032.3911619,W,1,24,0.6,13.009,M,-29.745,M,0.0,*5A
###2023-12-09 12:55:35.357500$GNGGA,175534.50,4138.0487810,N,07032.3913389,W,1,24,0.6,13.014,M,-29.745,M,0.0,*5D
###2023-12-09 12:55:35.557418$GNGGA,175534.70,4138.0487202,N,07032.3915027,W,1,24,0.6,13.008,M,-29.745,M,0.0,*5A
###2023-12-09 12:55:35.757427$GNGGA,175534.90,4138.0486455,N,07032.3916460,W,1,24,0.6,13.004,M,-29.745,M,0.0,*59
###2023-12-09 12:55:35.958388$GNRMC,175535.10,A,4138.0485718,N,07032.3917964,W,2.49,239.42,091223,,,A*51
###2023-12-09 12:55:35.961297$GNGGA,175535.10,4138.0485718,N,07032.3917964,W,1,24,0.6,13.004,M,-29.745,M,0.0,*51
###2023-12-09 12:55:35.963195$GPGSA,A,3,03,04,16,26,28,29,31,32,,,,,1.1,0.6,0.9*3B
###2023-12-09 12:55:35.964907$GLGSA,A,3,65,71,72,73,74,75,,,,,,,1.1,0.6,0.9*24
###2023-12-09 12:55:35.966482$GAGSA,A,3,04,19,21,27,,,,,,,,,1.1,0.6,0.9*26
###2023-12-09 12:55:35.968136$GBGSA,A,3,14,24,25,26,33,,,,,,,,1.1,0.6,0.9*2F
###2023-12-09 12:55:35.970456$GPGSV,2,1,08,03,36,265,42,04,30,311,42,16,47,211,45,26,77,209,48*75
###2023-12-09 12:55:35.972806$GPGSV,2,2,08,28,51,068,46,29,25,064,44,31,70,029,48,32,22,138,46*76
###2023-12-09 12:55:35.975153$GLGSV,2,1,06,65,21,328,40,71,44,172,47,72,72,281,45,73,38,040,46*6F
###2023-12-09 12:55:35.976889$GLGSV,2,2,06,74,71,327,42,75,30,250,41,,,,,,,,*65
###2023-12-09 12:55:35.979211$GAGSV,1,1,04,04,27,312,41,19,85,242,40,21,84,147,46,27,35,048,44*6D
###2023-12-09 12:55:35.981534$GBGSV,2,1,05,14,46,194,46,24,75,018,48,25,39,260,45,26,28,061,46*66
###2023-12-09 12:55:35.982996$GBGSV,2,2,05,33,59,237,47,,,,,,,,,,,,*57
###2023-12-09 12:55:35.984312$GNVTG,239.42,T,,M,2.49,N,4.61,K,A*21
###2023-12-09 12:55:35.985954$GNGST,175535.10,18.000,,,,0.077,0.067,0.160*59
###2023-12-09 12:55:35.987255$GNZDA,175535.10,09,12,2023,00,00*70
###2023-12-09 12:55:35.987898$GNEBP,,,,,,M*13
###2023-12-09 12:55:36.155951$GNGGA,175535.30,4138.0485000,N,07032.3919591,W,1,24,0.6,13.013,M,-29.745,M,0.0,*53
###2023-12-09 12:55:36.355880$GNGGA,175535.50,4138.0484210,N,07032.3921119,W,1,24,0.6,13.024,M,-29.745,M,0.0,*5C
###2023-12-09 12:55:36.555868$GNGGA,175535.70,4138.0483302,N,07032.3922460,W,1,24,0.6,13.037,M,-29.745,M,0.0,*51
###2023-12-09 12:55:36.761915$GNGGA,175535.90,4138.0482284,N,07032.3923634,W,1,24,0.6,13.033,M,-29.745,M,0.0,*57
###2023-12-09 12:55:36.956296$GNRMC,175536.10,A,4138.0481251,N,07032.3924698,W,2.33,219.40,091223,,,A*5F
###2023-12-09 12:55:36.959173$GNGGA,175536.10,4138.0481251,N,07032.3924698,W,1,24,0.6,13.020,M,-29.745,M,0.0,*54
###2023-12-09 12:55:36.961042$GPGSA,A,3,03,04,16,26,28,29,31,32,,,,,1.1,0.6,0.9*3B
###2023-12-09 12:55:36.962781$GLGSA,A,3,65,71,72,73,74,75,,,,,,,1.1,0.6,0.9*24
