###2023-12-09 13:20:13.004871$GLGSV,2,1,06,65,32,324,43,71,31,174,42,72,69,237,46,73,28,047,43*64
###2023-12-09 13:20:13.006544$GLGSV,2,2,06,74,65,,43,75,38,262,46,,,,,,,,*59
###2023-12-09 13:20:13.008892$GAGSV,1,1,04,04,35,311,44,19,78,187,40,21,82,056,46,27,27,049,40*61
###2023-12-09 13:20:13.011231$GBGSV,2,1,06,14,35,191,43,24,68,038,49,25,46,269,47,26,20,067,44*61
###2023-12-09 13:20:13.012971$GBGSV,2,2,06,33,51,223,46,35,16,062,45,,,,,,,,*6C
###2023-12-09 13:20:13.014293$GNVTG,188.11,T,,M,3.40,N,6.30,K,A*20
###2023-12-09 13:20:13.015949$GNGST,182012.10,18.000,,,,0.100,0.070,0.170*57
###2023-12-09 13:20:13.017243$GNZDA,182012.10,09,12,2023,00,00*78
###2023-12-09 13:20:13.017880$GNEBP,,,,,,M*13
###2023-12-09 13:20:13.182854$GNGGA,182012.30,4138.0607823,N,07032.3266492,W,1,24,0.7,12.890,M,-29.743,M,0.0,*5E
###2023-12-09 13:20:13.382451$GNGGA,182012.50,4138.0605916,N,07032.3266717,W,1,24,0.7,12.871,M,-29.743,M,0.0,*5C
###2023-12-09 13:20:13.584343$GNGGA,182012.70,4138.0604115,N,07032.3267065,W,1,24,0.7,12.887,M,-29.743,M,0.0,*5E
###2023-12-09 13:20:13.785032$GNGGA,182012.90,4138.0602184,N,07032.3267317,W,1,24,0.7,12.886,M,-29.743,M,0.0,*59
###2023-12-09 13:20:13.987903$GNRMC,182013.10,A,4138.0600294,N,07032.3267476,W,3.40,182.76,091223,,,A*58
###2023-12-09 13:20:13.990776$GNGGA,182013.10,4138.0600294,N,07032.3267476,W,1,24,0.7,12.856,M,-29.743,M,0.0,*5D
###2023-12-09 13:20:13.992586$GPGSA,A,3,03,04,16,26,28,29,31,,,,,,1.1,0.7,0.9*3B
###2023-12-09 13:20:13.994308$GLGSA,A,3,65,71,72,73,74,75,,,,,,,1.1,0.7,0.9*25
###2023-12-09 13:20:13.995907$GAGSA,A,3,04,19,21,27,,,,,,,,,1.1,0.7,0.9*27
###2023-12-09 13:20:13.997627$GBGSA,A,3,14,24,25,26,33,35,,,,,,,1.1,0.7,0.9*28
###2023-12-09 13:20:13.999979$GPGSV,2,1,07,03,31,253,42,04,40,310,44,16,59,217,46,26,89,196,48*76
###2023-12-09 13:20:14.002020$GPGSV,2,2,07,28,43,079,44,29,23,053,41,31,64,055,46,,,,*46
###2023-12-09 13:20:14.004370$GLGSV,2,1,06,65,32,324,42,71,31,174,42,72,69,237,45,73,28,047,43*66
###2023-12-09 13:20:14.006022$GLGSV,2,2,06,74,65,,43,75,38,262,46,,,,,,,,*59
###2023-12-09 13:20:14.008366$GAGSV,1,1,04,04,35,311,43,19,78,187,40,21,82,056,46,27,27,049,40*66
###2023-12-09 13:20:14.010702$GBGSV,2,1,06,14,35,191,42,24,68,038,49,25,46,269,47,26,20,067,44*60
###2023-12-09 13:20:14.012451$GBGSV,2,2,06,33,51,223,47,35,16,062,44,,,,,,,,*6C
###2023-12-09 13:20:14.013775$GNVTG,182.76,T,,M,3.40,N,6.30,K,A*2B
###2023-12-09 13:20:14.015426$GNGST,182013.10,18.000,,,,0.100,0.070,0.170*56
###2023-12-09 13:20:14.016717$GNZDA,182013.10,09,12,2023,00,00*79
###2023-12-09 13:20:14.017356$GNEBP,,,,,,M*13
###2023-12-09 13:20:14.182960$GNGGA,182013.30,4138.0598417,N,07032.3267654,W,1,24,0.7,12.883,M,-29.743,M,0.0,*5A
###2023-12-09 13:20:14.382386$GNGGA,182013.50,4138.0596420,N,07032.3267885,W,1,24,0.7,12.895,M,-29.743,M,0.0,*53
###2023-12-09 13:20:14.582184$GNGGA,182013.70,4138.0594534,N,07032.3267956,W,1,24,0.7,12.874,M,-29.743,M,0.0,*57
###2023-12-09 13:20:14.780445$GNGGA,182013.90,4138.0592656,N,07032.3267885,W,1,24,0.7,12.869,M,-29.743,M,0.0,*5B
###2023-12-09 13:20:14.987458$GNRMC,182014.10,A,4138.0590655,N,07032.3268067,W,3.67,183.54,091223,,,A*53
###2023-12-09 13:20:14.990322$GNGGA,182014.10,4138.0590655,N,07032.3268067,W,1,24,0.7,12.859,M,-29.743,M,0.0,*5D
###2023-12-09 13:20:14.992138$GPGSA,A,3,03,04,16,26,28,29,31,,,,,,1.1,0.7,0.9*3B
###2023-12-09 13:20:14.993866$GLGSA,A,3,65,71,72,73,74,75,,,,,,,1.1,0.7,0.9*25
###2023-12-09 13:20:14.995465$GAGSA,A,3,04,19,21,27,,,,,,,,,1.1,0.7,0.9*27
###2023-12-09 13:20:14.997186$GBGSA,A,3,14,24,25,26,33,35,,,,,,,1.1,0.7,0.9*28
###2023-12-09 13:20:14.999536$GPGSV,2,1,07,03,31,253,42,04,40,310,45,16,59,217,45,26,89,196,48*74
###2023-12-09 13:20:15.001587$GPGSV,2,2,07,28,43,079,45,29,23,053,42,31,64,055,48,,,,*4A
###2023-12-09 13:20:15.003945$GLGSV,2,1,06,65,32,324,43,71,31,174,42,72,69,237,45,73,28,047,44*60
###2023-12-09 13:20:15.005606$GLGSV,2,2,06,74,65,,43,75,38,262,46,,,,,,,,*59
###2023-12-09 13:20:15.007957$GAGSV,1,1,04,04,35,311,44,19,78,187,40,21,82,056,45,27,27,049,41*63
###2023-12-09 13:20:15.010286$GBGSV,2,1,06,14,35,191,42,24,68,038,49,25,46,269,48,26,20,067,44*6F
###2023-12-09 13:20:15.012055$GBGSV,2,2,06,33,51,223,47,35,16,062,45,,,,,,,,*6D
###2023-12-09 13:20:15.013384$GNVTG,183.54,T,,M,3.67,N,6.80,K,A*24
###2023-12-09 13:20:15.015044$GNGST,182014.10,18.000,,,,0.100,0.070,0.160*50
###2023-12-09 13:20:15.016335$GNZDA,182014.10,09,12,2023,00,00*7E
###2023-12-09 13:20:15.016975$GNEBP,,,,,,M*13
###2023-12-09 13:20:15.187042$GNGGA,182014.30,4138.0588822,N,07032.3268288,W,1,24,0.7,12.843,M,-29.743,M,0.0,*50
###2023-12-09 13:20:15.381632$GNGGA,182014.50,4138.0587026,N,07032.3268612,W,1,24,0.7,12.886,M,-29.743,M,0.0,*5B
###2023-12-09 13:20:15.582602$GNGGA,182014.70,4138.0585175,N,07032.3268724,W,1,24,0.7,12.857,M,-29.743,M,0.0,*54
###2023-12-09 13:20:15.782453$GNGGA,182014.90,4138.0583425,N,07032.3268697,W,1,24,0.7,12.789,M,-29.743,M,0.0,*59
###2023-12-09 13:20:15.986137$GNRMC,182015.10,A,4138.0581652,N,07032.3269315,W,3.44,195.63,091223,,,A*50
###2023-12-09 13:20:15.989033$GNGGA,182015.10,4138.0581652,N,07032.3269315,W,1,24,0.7,12.835,M,-29.743,M,0.0,*56
###2023-12-09 13:20:15.990849$GPGSA,A,3,03,04,16,26,28,29,31,,,,,,1.1,0.7,0.9*3B
###2023-12-09 13:20:15.992575$GLGSA,A,3,65,71,72,73,74,75,,,,,,,1.1,0.7,0.9*25
###2023-12-09 13:20:15.994163$GAGSA,A,3,04,19,21,27,,,,,,,,,1.1,0.7,0.9*27
###2023-12-09 13:20:15.995888$GBGSA,A,3,14,24,25,26,33,35,,,,,,,1.1,0.7,0.9*28
###2023-12-09 13:20:15.998219$GPGSV,2,1,07,03,31,253,43,04,40,310,45,16,59,217,47,26,89,196,48*77
###2023-12-09 13:20:16.000270$GPGSV,2,2,07,28,43,079,45,29,23,053,43,31,64,055,47,,,,*44
###2023-12-09 13:20:16.002611$GLGSV,2,1,06,65,32,324,43,71,31,174,44,72,69,237,46,73,28,047,44*65
###2023-12-09 13:20:16.004266$GLGSV,2,2,06,74,65,,43,75,38,262,46,,,,,,,,*59
###2023-12-09 13:20:16.006607$GAGSV,1,1,04,04,35,311,44,19,78,187,40,21,82,056,46,27,27,049,42*63
###2023-12-09 13:20:16.008937$GBGSV,2,1,06,14,35,191,40,24,68,038,49,25,46,269,47,26,20,067,43*65
###2023-12-09 13:20:16.010693$GBGSV,2,2,06,33,51,223,48,35,16,062,43,,,,,,,,*64
###2023-12-09 13:20:16.012020$GNVTG,195.63,T,,M,3.44,N,6.37,K,A*2A
###2023-12-09 13:20:16.013670$GNGST,182015.10,18.000,,,,0.100,0.070,0.160*51
###2023-12-09 13:20:16.014975$GNZDA,182015.10,09,12,2023,00,00*7F
###2023-12-09 13:20:16.015617$GNEBP,,,,,,M*13
###2023-12-09 13:20:16.182072$GNGGA,182015.30,4138.0579848,N,07032.3269692,W,1,24,0.7,12.822,M,-29.743,M,0.0,*5A
###2023-12-09 13:20:16.381715$GNGGA,182015.50,4138.0578069,N,07032.3269553,W,1,24,0.7,12.798,M,-29.743,M,0.0,*56
###2023-12-09 13:20:16.581451$GNGGA,182015.70,4138.0576239,N,07032.3269422,W,1,24,0.7,12.785,M,-29.743,M,0.0,*56
###2023-12-09 13:20:16.782624$GNGGA,182015.90,4138.0574385,N,07032.3269678,W,1,24,0.7,12.802,M,-29.743,M,0.0,*51
###2023-12-09 13:20:16.988322$GNRMC,182016.10,A,4138.0572426,N,07032.3269895,W,3.44,179.90,091223,,,A*53
###2023-12-09 13:20:16.991208$GNGGA,182016.10,4138.0572426,N,07032.3269895,W,1,24,0.7,12.803,M,-29.743,M,0.0,*5E
###2023-12-09 13:20:16.993007$GPGSA,A,3,03,04,16,26,28,29,31,,,,,,1.1,0.7,0.9*3B
###2023-12-09 13:20:16.994745$GLGSA,A,3,65,71,72,73,74,75,,,,,,,1.1,0.7,0.9*25
###2023-12-09 13:20:16.996335$GAGSA,A,3,04,19,21,27,,,,,,,,,1.1,0.7,0.9*27
###2023-12-09 13:20:16.998046$GBGSA,A,3,14,24,25,26,33,35,,,,,,,1.1,0.7,0.9*28
###2023-12-09 13:20:17.000402$GPGSV,2,1,07,03,31,253,44,04,40,310,46,16,59,217,46,26,89,196,48*72
###2023-12-09 13:20:17.002443$GPGSV,2,2,07,28,43,079,44,29,23,053,42,31,64,055,47,,,,*44
###2023-12-09 13:20:17.004796$GLGSV,2,1,06,65,32,324,44,71,31,174,44,72,69,237,46,73,28,047,42*64
###2023-12-09 13:20:17.006458$GLGSV,2,2,06,74,65,,43,75,38,262,47,,,,,,,,*58
###2023-12-09 13:20:17.008805$GAGSV,1,1,04,04,35,311,44,19,78,187,40,21,82,056,46,27,27,049,39*6F
###2023-12-09 13:20:17.011153$GBGSV,2,1,06,14,35,191,41,24,68,038,48,25,46,269,48,26,20,067,40*69
###2023-12-09 13:20:17.012902$GBGSV,2,2,06,33,51,223,48,35,16,062,42,,,,,,,,*65
###2023-12-09 13:20:17.014233$GNVTG,179.90,T,,M,3.44,N,6.37,K,A*24
###2023-12-09 13:20:17.015898$GNGST,182016.10,18.000,,,,0.100,0.070,0.160*52
###2023-12-09 13:20:17.017443$GNZDA,182016.10,09,12,2023,00,00*7C
###2023-12-09 13:20:17.018099$GNEBP,,,,,,M*13
###2023-12-09 13:20:17.182949$GNGGA,182016.30,4138.0570565,N,07032.3269658,W,1,24,0.7,12.785,M,-29.743,M,0.0,*56
###2023-12-09 13:20:17.381768$GNGGA,182016.50,4138.0568728,N,07032.3269287,W,1,24,0.7,12.788,M,-29.743,M,0.0,*59
###2023-12-09 13:20:17.582540$GNGGA,182016.70,4138.0566770,N,07032.3269212,W,1,24,0.7,12.791,M,-29.743,M,0.0,*5C
###2023-12-09 13:20:17.781358$GNGGA,182016.90,4138.0564835,N,07032.3269261,W,1,24,0.7,12.781,M,-29.743,M,0.0,*5B
###2023-12-09 13:20:17.986251$GNRMC,182017.10,A,4138.0562912,N,07032.3269094,W,3.44,172.11,091223,,,A*52
###2023-12-09 13:20:17.989158$GNGGA,182017.10,4138.0562912,N,07032.3269094,W,1,24,0.7,12.776,M,-29.743,M,0.0,*50
###2023-12-09 13:20:17.990977$GPGSA,A,3,03,04,16,26,28,29,31,,,,,,1.1,0.7,0.9*3B
