###2023-12-09 13:11:43.371668$GNGGA,181142.50,4138.0419049,N,07032.2837153,W,1,24,0.7,12.670,M,-29.743,M,0.0,*51
###2023-12-09 13:11:43.570729$GNGGA,181142.70,4138.0418206,N,07032.2839484,W,1,24,0.7,12.686,M,-29.743,M,0.0,*53
###2023-12-09 13:11:43.771773$GNGGA,181142.90,4138.0417038,N,07032.2841432,W,1,24,0.7,12.674,M,-29.743,M,0.0,*52
###2023-12-09 13:11:43.973433$GNRMC,181143.10,A,4138.0415871,N,07032.2843447,W,3.60,238.12,091223,,,A*55
###2023-12-09 13:11:43.976323$GNGGA,181143.10,4138.0415871,N,07032.2843447,W,1,24,0.7,12.637,M,-29.743,M,0.0,*5B
###2023-12-09 13:11:43.978122$GPGSA,A,3,03,04,16,26,28,29,31,,,,,,1.2,0.7,1.0*30
###2023-12-09 13:11:43.979849$GLGSA,A,3,65,71,72,73,74,75,,,,,,,1.2,0.7,1.0*2E
###2023-12-09 13:11:43.981439$GAGSA,A,3,04,19,21,27,,,,,,,,,1.2,0.7,1.0*2C
###2023-12-09 13:11:43.983164$GBGSA,A,3,14,24,25,26,33,35,,,,,,,1.2,0.7,1.0*23
###2023-12-09 13:11:43.985498$GPGSV,2,1,07,03,33,256,39,04,37,311,43,16,55,215,45,26,85,210,48*77
###2023-12-09 13:11:43.987553$GPGSV,2,2,07,28,46,075,46,29,24,056,42,31,66,048,47,,,,*43
###2023-12-09 13:11:43.989892$GLGSV,2,1,06,65,28,326,41,71,35,174,46,72,72,250,44,73,31,045,44*6B
###2023-12-09 13:11:43.991656$GLGSV,2,2,06,74,67,351,43,75,36,258,43,,,,,,,,*6E
###2023-12-09 13:11:43.993986$GAGSV,1,1,04,04,32,312,42,19,81,195,40,21,84,075,46,27,30,048,41*67
###2023-12-09 13:11:43.996335$GBGSV,2,1,06,14,39,192,44,24,70,032,48,25,44,266,44,26,23,065,43*63
###2023-12-09 13:11:43.998083$GBGSV,2,2,06,33,54,227,45,35,15,065,44,,,,,,,,*6B
###2023-12-09 13:11:43.999424$GNVTG,238.12,T,,M,3.60,N,6.66,K,A*2A
###2023-12-09 13:11:44.001079$GNGST,181143.10,18.000,,,,0.097,0.072,0.170*5C
###2023-12-09 13:11:44.002392$GNZDA,181143.10,09,12,2023,00,00*7E
###2023-12-09 13:11:44.003062$GNEBP,,,,,,M*13
###2023-12-09 13:11:44.174244$GNGGA,181143.30,4138.0414857,N,07032.2845780,W,1,24,0.7,12.632,M,-29.743,M,0.0,*57
###2023-12-09 13:11:44.371760$GNGGA,181143.50,4138.0414006,N,07032.2848256,W,1,24,0.7,12.664,M,-29.743,M,0.0,*5D
###2023-12-09 13:11:44.573556$GNGGA,181143.70,4138.0412949,N,07032.2850547,W,1,24,0.7,12.708,M,-29.743,M,0.0,*5E
###2023-12-09 13:11:44.771306$GNGGA,181143.90,4138.0411609,N,07032.2852554,W,1,24,0.7,12.666,M,-29.743,M,0.0,*51
###2023-12-09 13:11:44.977729$GNRMC,181144.10,A,4138.0410391,N,07032.2854634,W,3.62,238.79,091223,,,A*5D
###2023-12-09 13:11:44.980624$GNGGA,181144.10,4138.0410391,N,07032.2854634,W,1,24,0.7,12.607,M,-29.743,M,0.0,*5F
###2023-12-09 13:11:44.982415$GPGSA,A,3,03,04,16,26,28,29,31,,,,,,1.2,0.7,1.0*30
###2023-12-09 13:11:44.984137$GLGSA,A,3,65,71,72,73,74,75,,,,,,,1.2,0.7,1.0*2E
###2023-12-09 13:11:44.985720$GAGSA,A,3,04,19,21,27,,,,,,,,,1.2,0.7,1.0*2C
###2023-12-09 13:11:44.987440$GBGSA,A,3,14,24,25,26,33,35,,,,,,,1.2,0.7,1.0*23
###2023-12-09 13:11:44.989754$GPGSV,2,1,07,03,33,256,39,04,37,311,42,16,55,215,45,26,85,210,48*76
###2023-12-09 13:11:44.991797$GPGSV,2,2,07,28,46,075,46,29,24,056,42,31,66,048,47,,,,*43
###2023-12-09 13:11:44.994113$GLGSV,2,1,06,65,28,326,39,71,35,174,46,72,72,250,45,73,31,045,43*62
###2023-12-09 13:11:44.995866$GLGSV,2,2,06,74,67,351,42,75,36,258,41,,,,,,,,*6D
###2023-12-09 13:11:44.998187$GAGSV,1,1,04,04,32,312,39,19,81,195,39,21,84,075,45,27,30,048,39*69
###2023-12-09 13:11:45.000520$GBGSV,2,1,06,14,39,192,44,24,70,032,48,25,44,266,43,26,23,065,44*63
###2023-12-09 13:11:45.002262$GBGSV,2,2,06,33,54,227,45,35,15,065,45,,,,,,,,*6A
###2023-12-09 13:11:45.003599$GNVTG,238.79,T,,M,3.62,N,6.70,K,A*22
###2023-12-09 13:11:45.005240$GNGST,181144.10,18.000,,,,0.097,0.072,0.170*5B
###2023-12-09 13:11:45.006526$GNZDA,181144.10,09,12,2023,00,00*79
###2023-12-09 13:11:45.007173$GNEBP,,,,,,M*13
###2023-12-09 13:11:45.173007$GNGGA,181144.30,4138.0409567,N,07032.2857122,W,1,24,0.7,12.660,M,-29.743,M,0.0,*58
###2023-12-09 13:11:45.373595$GNGGA,181144.50,4138.0408714,N,07032.2859566,W,1,24,0.7,12.676,M,-29.743,M,0.0,*54
###2023-12-09 13:11:45.571725$GNGGA,181144.70,4138.0407414,N,07032.2861463,W,1,24,0.7,12.661,M,-29.743,M,0.0,*53
###2023-12-09 13:11:45.772344$GNGGA,181144.90,4138.0406139,N,07032.2863378,W,1,24,0.7,12.650,M,-29.743,M,0.0,*5B
###2023-12-09 13:11:45.974023$GNRMC,181145.10,A,4138.0405243,N,07032.2865950,W,4.06,248.52,091223,,,A*52
###2023-12-09 13:11:45.977540$GNGGA,181145.10,4138.0405243,N,07032.2865950,W,1,24,0.7,12.688,M,-29.743,M,0.0,*5C
###2023-12-09 13:11:45.979739$GPGSA,A,3,03,04,16,26,28,29,31,,,,,,1.2,0.7,1.0*30
###2023-12-09 13:11:45.981813$GLGSA,A,3,65,71,72,73,74,75,,,,,,,1.2,0.7,1.0*2E
###2023-12-09 13:11:45.983755$GAGSA,A,3,04,19,21,27,,,,,,,,,1.2,0.7,1.0*2C
###2023-12-09 13:11:45.985818$GBGSA,A,3,14,24,25,26,33,35,,,,,,,1.2,0.7,1.0*23
###2023-12-09 13:11:45.988632$GPGSV,2,1,07,03,33,256,41,04,37,311,44,16,55,215,46,26,85,210,48*7C
###2023-12-09 13:11:45.991112$GPGSV,2,2,07,28,46,075,45,29,24,056,42,31,66,048,47,,,,*40
###2023-12-09 13:11:45.993927$GLGSV,2,1,06,65,28,326,42,71,35,174,45,72,72,250,45,73,31,045,45*6B
###2023-12-09 13:11:45.996059$GLGSV,2,2,06,74,67,351,42,75,36,258,44,,,,,,,,*68
###2023-12-09 13:11:45.998866$GAGSV,1,1,04,04,32,312,41,19,81,195,39,21,84,075,45,27,30,048,42*6A
###2023-12-09 13:11:46.001676$GBGSV,2,1,06,14,39,192,45,24,70,032,49,25,44,266,46,26,23,065,44*66
###2023-12-09 13:11:46.003788$GBGSV,2,2,06,33,54,227,47,35,15,065,45,,,,,,,,*68
###2023-12-09 13:11:46.005389$GNVTG,248.52,T,,M,4.06,N,7.52,K,A*28
###2023-12-09 13:11:46.007387$GNGST,181145.10,18.000,,,,0.096,0.072,0.170*5B
###2023-12-09 13:11:46.008982$GNZDA,181145.10,09,12,2023,00,00*78
###2023-12-09 13:11:46.009753$GNEBP,,,,,,M*13
###2023-12-09 13:11:46.170856$GNGGA,181145.30,4138.0404345,N,07032.2868476,W,1,24,0.7,12.687,M,-29.743,M,0.0,*53
###2023-12-09 13:11:46.371647$GNGGA,181145.50,4138.0403168,N,07032.2870640,W,1,24,0.7,12.695,M,-29.743,M,0.0,*52
###2023-12-09 13:11:46.572816$GNGGA,181145.70,4138.0401790,N,07032.2872632,W,1,24,0.7,12.655,M,-29.743,M,0.0,*58
###2023-12-09 13:11:46.772011$GNGGA,181145.90,4138.0400616,N,07032.2874888,W,1,24,0.7,12.643,M,-29.743,M,0.0,*56
###2023-12-09 13:11:46.974776$GNRMC,181146.10,A,4138.0399701,N,07032.2877438,W,3.91,245.03,091223,,,A*50
###2023-12-09 13:11:46.977635$GNGGA,181146.10,4138.0399701,N,07032.2877438,W,1,24,0.7,12.682,M,-29.743,M,0.0,*54
###2023-12-09 13:11:46.979437$GPGSA,A,3,03,04,16,26,28,29,31,,,,,,1.2,0.7,1.0*30
###2023-12-09 13:11:46.981144$GLGSA,A,3,65,71,72,73,74,75,,,,,,,1.2,0.7,1.0*2E
###2023-12-09 13:11:46.982732$GAGSA,A,3,04,19,21,27,,,,,,,,,1.2,0.7,1.0*2C
###2023-12-09 13:11:46.984438$GBGSA,A,3,14,24,25,26,33,35,,,,,,,1.2,0.7,1.0*23
###2023-12-09 13:11:46.986768$GPGSV,2,1,07,03,33,256,41,04,37,311,43,16,55,215,45,26,85,210,48*78
###2023-12-09 13:11:46.988806$GPGSV,2,2,07,28,46,075,44,29,24,056,43,31,66,048,47,,,,*40
###2023-12-09 13:11:46.991143$GLGSV,2,1,06,65,28,326,42,71,35,174,45,72,72,250,45,73,31,045,46*68
###2023-12-09 13:11:46.992885$GLGSV,2,2,06,74,67,351,43,75,36,258,44,,,,,,,,*69
###2023-12-09 13:11:46.995213$GAGSV,1,1,04,04,32,312,41,19,81,195,39,21,84,075,45,27,30,048,42*6A
###2023-12-09 13:11:46.997532$GBGSV,2,1,06,14,39,192,43,24,70,032,49,25,44,266,46,26,23,065,45*61
###2023-12-09 13:11:46.999285$GBGSV,2,2,06,33,54,227,46,35,15,065,44,,,,,,,,*68
###2023-12-09 13:11:47.000609$GNVTG,245.03,T,,M,3.91,N,7.24,K,A*29
###2023-12-09 13:11:47.002252$GNGST,181146.10,18.000,,,,0.096,0.072,0.170*58
###2023-12-09 13:11:47.003548$GNZDA,181146.10,09,12,2023,00,00*7B
###2023-12-09 13:11:47.004189$GNEBP,,,,,,M*13
###2023-12-09 13:11:47.170861$GNGGA,181146.30,4138.0398618,N,07032.2879830,W,1,24,0.7,12.697,M,-29.743,M,0.0,*50
###2023-12-09 13:11:47.371498$GNGGA,181146.50,4138.0397152,N,07032.2881707,W,1,24,0.7,12.675,M,-29.743,M,0.0,*50
###2023-12-09 13:11:47.571978$GNGGA,181146.70,4138.0395822,N,07032.2883833,W,1,24,0.7,12.667,M,-29.743,M,0.0,*57
###2023-12-09 13:11:47.771639$GNGGA,181146.90,4138.0394848,N,07032.2886420,W,1,24,0.7,12.697,M,-29.743,M,0.0,*50
###2023-12-09 13:11:47.973332$GNRMC,181147.10,A,4138.0393801,N,07032.2888883,W,3.83,234.53,091223,,,A*58
###2023-12-09 13:11:47.976204$GNGGA,181147.10,4138.0393801,N,07032.2888883,W,1,24,0.7,12.689,M,-29.743,M,0.0,*57
###2023-12-09 13:11:47.977992$GPGSA,A,3,03,04,16,26,28,29,31,,,,,,1.2,0.7,1.0*30
###2023-12-09 13:11:47.979962$GLGSA,A,3,65,71,72,73,74,75,,,,,,,1.2,0.7,1.0*2E
###2023-12-09 13:11:47.981555$GAGSA,A,3,04,19,21,27,,,,,,,,,1.2,0.7,1.0*2C
###2023-12-09 13:11:47.983281$GBGSA,A,3,14,24,25,26,33,35,,,,,,,1.2,0.7,1.0*23
###2023-12-09 13:11:47.985613$GPGSV,2,1,07,03,33,256,42,04,37,311,44,16,55,215,45,26,85,210,48*7C
###2023-12-09 13:11:47.987660$GPGSV,2,2,07,28,46,075,44,29,24,056,42,31,66,048,48,,,,*4E
###2023-12-09 13:11:47.989984$GLGSV,2,1,06,65,28,326,43,71,35,174,45,72,72,250,45,73,31,045,45*6A
###2023-12-09 13:11:47.991736$GLGSV,2,2,06,74,67,351,43,75,36,258,43,,,,,,,,*6E
###2023-12-09 13:11:47.994059$GAGSV,1,1,04,04,33,312,43,19,81,195,40,21,84,075,45,27,30,048,42*67
###2023-12-09 13:11:47.996383$GBGSV,2,1,06,14,39,192,43,24,70,032,48,25,44,266,45,26,23,065,42*64
###2023-12-09 13:11:47.998120$GBGSV,2,2,06,33,54,227,45,35,15,065,43,,,,,,,,*6C
