###2023-12-09 13:37:40.998752$GNRMC,183740.10,A,4138.0296633,N,07032.3973133,W,0.52,263.64,091223,,,A*5F
###2023-12-09 13:37:41.001713$GNGGA,183740.10,4138.0296633,N,07032.3973133,W,1,23,0.6,13.352,M,-29.745,M,0.0,*5B
###2023-12-09 13:37:41.003532$GPGSA,A,3,04,16,26,27,28,29,31,,,,,,1.1,0.6,1.0*34
###2023-12-09 13:37:41.005260$GLGSA,A,3,65,72,73,74,75,83,,,,,,,1.1,0.6,1.0*21
###2023-12-09 13:37:41.006866$GAGSA,A,3,04,19,21,27,,,,,,,,,1.1,0.6,1.0*2E
###2023-12-09 13:37:41.008590$GBGSA,A,3,12,14,24,25,33,35,,,,,,,1.1,0.6,1.0*26
###2023-12-09 13:37:41.010942$GPGSV,2,1,07,04,48,307,45,16,68,224,46,26,82,040,47,27,18,172,39*74
###2023-12-09 13:37:41.012979$GPGSV,2,2,07,28,37,086,45,29,20,046,43,31,58,068,47,,,,*41
###2023-12-09 13:37:41.015325$GLGSV,2,1,06,65,39,317,42,72,61,219,44,73,21,053,44,74,59,016,43*6C
###2023-12-09 13:37:41.017075$GLGSV,2,2,06,75,44,273,47,83,15,046,36,,,,,,,,*6C
###2023-12-09 13:37:41.019427$GAGSV,1,1,04,04,40,309,42,19,71,181,40,21,76,045,46,27,22,050,42*65
###2023-12-09 13:37:41.021769$GBGSV,2,1,06,12,16,125,43,14,28,189,37,24,62,047,49,25,52,277,47*6D
###2023-12-09 13:37:41.023529$GBGSV,2,2,06,33,44,216,46,35,16,055,45,,,,,,,,*6A
###2023-12-09 13:37:41.024855$GNVTG,263.64,T,,M,0.52,N,0.97,K,A*2F
###2023-12-09 13:37:41.026472$GNGST,183740.10,6.100,,,,0.110,0.091,0.200*62
###2023-12-09 13:37:41.027778$GNZDA,183740.10,09,12,2023,00,00*79
###2023-12-09 13:37:41.028418$GNEBP,,,,,,M*13
###2023-12-09 13:37:41.195499$GNGGA,183740.30,4138.0296529,N,07032.3973527,W,1,23,0.6,13.362,M,-29.745,M,0.0,*53
###2023-12-09 13:37:41.395564$GNGGA,183740.50,4138.0296457,N,07032.3973677,W,1,23,0.6,13.368,M,-29.745,M,0.0,*51
###2023-12-09 13:37:41.595343$GNGGA,183740.70,4138.0296421,N,07032.3973497,W,1,23,0.6,13.363,M,-29.745,M,0.0,*55
###2023-12-09 13:37:41.795897$GNGGA,183740.90,4138.0296370,N,07032.3973362,W,1,23,0.6,13.346,M,-29.745,M,0.0,*52
###2023-12-09 13:37:41.998200$GNRMC,183741.10,A,4138.0296280,N,07032.3973599,W,0.54,263.64,091223,,,A*50
###2023-12-09 13:37:42.001077$GNGGA,183741.10,4138.0296280,N,07032.3973599,W,1,23,0.6,13.349,M,-29.745,M,0.0,*58
###2023-12-09 13:37:42.002918$GPGSA,A,3,04,16,26,27,28,29,31,,,,,,1.1,0.6,1.0*34
###2023-12-09 13:37:42.004636$GLGSA,A,3,65,72,73,74,75,83,,,,,,,1.1,0.6,1.0*21
###2023-12-09 13:37:42.006220$GAGSA,A,3,04,19,21,27,,,,,,,,,1.1,0.6,1.0*2E
###2023-12-09 13:37:42.007950$GBGSA,A,3,12,14,24,25,33,35,,,,,,,1.1,0.6,1.0*26
###2023-12-09 13:37:42.010281$GPGSV,2,1,07,04,48,307,44,16,68,224,45,26,82,040,49,27,18,172,39*78
###2023-12-09 13:37:42.012335$GPGSV,2,2,07,28,37,086,45,29,20,046,44,31,58,068,47,,,,*46
###2023-12-09 13:37:42.014674$GLGSV,2,1,06,65,39,317,41,72,61,219,45,73,21,053,43,74,59,016,43*69
###2023-12-09 13:37:42.016421$GLGSV,2,2,06,75,44,273,47,83,15,046,35,,,,,,,,*6F
###2023-12-09 13:37:42.018751$GAGSV,1,1,04,04,40,309,44,19,71,181,40,21,76,045,46,27,22,050,42*63
###2023-12-09 13:37:42.021078$GBGSV,2,1,06,12,16,125,43,14,28,189,37,24,62,047,49,25,52,277,47*6D
###2023-12-09 13:37:42.022836$GBGSV,2,2,06,33,44,216,46,35,16,055,46,,,,,,,,*69
###2023-12-09 13:37:42.024160$GNVTG,263.64,T,,M,0.54,N,1.01,K,A*27
###2023-12-09 13:37:42.025773$GNGST,183741.10,6.300,,,,0.110,0.091,0.200*61
###2023-12-09 13:37:42.027074$GNZDA,183741.10,09,12,2023,00,00*78
###2023-12-09 13:37:42.027711$GNEBP,,,,,,M*13
###2023-12-09 13:37:42.196042$GNGGA,183741.30,4138.0296190,N,07032.3973973,W,1,23,0.6,13.358,M,-29.745,M,0.0,*50
###2023-12-09 13:37:42.393457$GNGGA,183741.50,4138.0296148,N,07032.3974102,W,1,22,0.6,13.362,M,-29.745,M,0.0,*52
###2023-12-09 13:37:42.593916$GNGGA,183741.70,4138.0296082,N,07032.3973964,W,1,22,0.6,13.359,M,-29.745,M,0.0,*50
###2023-12-09 13:37:42.795159$GNGGA,183741.90,4138.0295971,N,07032.3973898,W,1,23,0.6,13.340,M,-29.745,M,0.0,*53
###2023-12-09 13:37:42.998512$GNRMC,183742.10,A,4138.0295818,N,07032.3974097,W,0.54,263.64,091223,,,A*57
###2023-12-09 13:37:43.001381$GNGGA,183742.10,4138.0295818,N,07032.3974097,W,1,24,0.6,13.333,M,-29.745,M,0.0,*55
###2023-12-09 13:37:43.003185$GPGSA,A,3,04,16,26,27,28,29,31,,,,,,1.1,0.6,1.0*34
###2023-12-09 13:37:43.004965$GLGSA,A,3,65,71,72,73,74,75,83,,,,,,1.1,0.6,1.0*27
###2023-12-09 13:37:43.006552$GAGSA,A,3,04,19,21,27,,,,,,,,,1.1,0.6,1.0*2E
###2023-12-09 13:37:43.008278$GBGSA,A,3,12,14,24,25,33,35,,,,,,,1.1,0.6,1.0*26
###2023-12-09 13:37:43.010624$GPGSV,2,1,07,04,48,307,45,16,68,224,45,26,82,040,48,27,18,172,39*78
###2023-12-09 13:37:43.012679$GPGSV,2,2,07,28,37,086,44,29,20,046,43,31,58,068,47,,,,*40
###2023-12-09 13:37:43.015027$GLGSV,2,1,07,65,39,317,43,71,21,175,35,72,61,219,46,73,21,053,44*61
###2023-12-09 13:37:43.017068$GLGSV,2,2,07,74,59,016,43,75,44,273,47,83,15,046,35,,,,*51
###2023-12-09 13:37:43.019408$GAGSV,1,1,04,04,40,309,43,19,71,181,40,21,76,045,46,27,22,050,42*64
###2023-12-09 13:37:43.021740$GBGSV,2,1,06,12,16,125,43,14,28,189,37,24,62,047,49,25,52,277,48*62
###2023-12-09 13:37:43.023504$GBGSV,2,2,06,33,44,216,46,35,16,055,45,,,,,,,,*6A
###2023-12-09 13:37:43.024834$GNVTG,263.64,T,,M,0.54,N,1.01,K,A*27
###2023-12-09 13:37:43.026452$GNGST,183742.10,6.700,,,,0.110,0.092,0.210*64
###2023-12-09 13:37:43.027756$GNZDA,183742.10,09,12,2023,00,00*7B
###2023-12-09 13:37:43.028396$GNEBP,,,,,,M*13
###2023-12-09 13:37:43.194872$GNGGA,183742.30,4138.0295598,N,07032.3974483,W,1,23,0.6,13.344,M,-29.745,M,0.0,*54
###2023-12-09 13:37:43.394408$GNGGA,183742.50,4138.0295301,N,07032.3974686,W,1,23,0.6,13.352,M,-29.745,M,0.0,*54
###2023-12-09 13:37:43.593960$GNGGA,183742.70,4138.0295001,N,07032.3974606,W,1,23,0.6,13.344,M,-29.745,M,0.0,*5A
###2023-12-09 13:37:43.794682$GNGGA,183742.90,4138.0294714,N,07032.3974609,W,1,23,0.6,13.327,M,-29.745,M,0.0,*5C
###2023-12-09 13:37:43.998554$GNRMC,183743.10,A,4138.0294264,N,07032.3974891,W,1.13,204.59,091223,,,A*55
###2023-12-09 13:37:44.001427$GNGGA,183743.10,4138.0294264,N,07032.3974891,W,1,22,0.6,13.328,M,-29.745,M,0.0,*56
###2023-12-09 13:37:44.003228$GPGSA,A,3,04,16,26,27,28,29,31,,,,,,1.1,0.6,1.0*34
###2023-12-09 13:37:44.004875$GLGSA,A,3,65,72,73,74,75,,,,,,,,1.1,0.6,1.0*2A
###2023-12-09 13:37:44.006451$GAGSA,A,3,04,19,21,27,,,,,,,,,1.1,0.6,1.0*2E
###2023-12-09 13:37:44.008166$GBGSA,A,3,12,14,24,25,33,35,,,,,,,1.1,0.6,1.0*26
###2023-12-09 13:37:44.010482$GPGSV,2,1,07,04,48,307,45,16,68,224,45,26,82,040,48,27,18,172,38*79
###2023-12-09 13:37:44.012528$GPGSV,2,2,07,28,37,086,45,29,20,046,43,31,58,068,47,,,,*41
###2023-12-09 13:37:44.014858$GLGSV,2,1,05,65,39,317,42,72,61,219,43,73,21,053,43,74,59,016,42*6E
###2023-12-09 13:37:44.016311$GLGSV,2,2,05,75,44,273,46,,,,,,,,,,,,*56
###2023-12-09 13:37:44.018633$GAGSV,1,1,04,04,40,309,43,19,71,181,40,21,76,045,46,27,22,050,42*64
###2023-12-09 13:37:44.020953$GBGSV,2,1,06,12,16,125,43,14,28,189,35,24,62,047,48,25,52,277,47*6E
###2023-12-09 13:37:44.022707$GBGSV,2,2,06,33,44,216,46,35,16,055,44,,,,,,,,*6B
###2023-12-09 13:37:44.024030$GNVTG,204.59,T,,M,1.13,N,2.09,K,A*21
###2023-12-09 13:37:44.025642$GNGST,183743.10,6.000,,,,0.110,0.092,0.210*62
###2023-12-09 13:37:44.026978$GNZDA,183743.10,09,12,2023,00,00*7A
###2023-12-09 13:37:44.027619$GNEBP,,,,,,M*13
###2023-12-09 13:37:44.194702$GNGGA,183743.30,4138.0293700,N,07032.3975220,W,1,23,0.6,13.331,M,-29.745,M,0.0,*5C
###2023-12-09 13:37:44.394523$GNGGA,183743.50,4138.0293177,N,07032.3975386,W,1,23,0.6,13.329,M,-29.745,M,0.0,*58
###2023-12-09 13:37:44.594432$GNGGA,183743.70,4138.0292613,N,07032.3975275,W,1,23,0.6,13.329,M,-29.745,M,0.0,*53
###2023-12-09 13:37:44.795705$GNGGA,183743.90,4138.0292031,N,07032.3975129,W,1,23,0.6,13.298,M,-29.745,M,0.0,*5A
###2023-12-09 13:37:45.002743$GNRMC,183744.10,A,4138.0291335,N,07032.3975273,W,1.56,196.93,091223,,,A*5A
###2023-12-09 13:37:45.005609$GNGGA,183744.10,4138.0291335,N,07032.3975273,W,1,23,0.6,13.308,M,-29.745,M,0.0,*55
###2023-12-09 13:37:45.007417$GPGSA,A,3,04,16,26,27,28,29,31,,,,,,1.1,0.6,1.0*34
###2023-12-09 13:37:45.009127$GLGSA,A,3,65,71,72,73,74,75,,,,,,,1.1,0.6,1.0*2C
###2023-12-09 13:37:45.010718$GAGSA,A,3,04,19,21,27,,,,,,,,,1.1,0.6,1.0*2E
###2023-12-09 13:37:45.012427$GBGSA,A,3,12,14,24,25,33,35,,,,,,,1.1,0.6,1.0*26
###2023-12-09 13:37:45.014749$GPGSV,2,1,07,04,48,307,44,16,68,224,45,26,82,040,48,27,18,172,37*77
###2023-12-09 13:37:45.017033$GPGSV,2,2,07,28,37,086,44,29,20,046,43,31,58,068,48,,,,*4F
###2023-12-09 13:37:45.019388$GLGSV,2,1,06,65,39,317,42,71,21,175,36,72,61,219,44,73,21,053,44*60
###2023-12-09 13:37:45.021141$GLGSV,2,2,06,74,59,016,43,75,44,273,46,,,,,,,,*6A
###2023-12-09 13:37:45.023472$GAGSV,1,1,04,04,40,309,43,19,71,181,40,21,76,045,46,27,22,050,42*64
###2023-12-09 13:37:45.025797$GBGSV,2,1,06,12,16,125,40,14,28,189,35,24,62,047,47,25,52,277,47*62
###2023-12-09 13:37:45.027549$GBGSV,2,2,06,33,44,216,45,35,16,055,43,,,,,,,,*6F
###2023-12-09 13:37:45.028870$GNVTG,196.93,T,,M,1.56,N,2.88,K,A*27
###2023-12-09 13:37:45.030479$GNGST,183744.10,6.000,,,,0.120,0.093,0.210*67
###2023-12-09 13:37:45.031773$GNZDA,183744.10,09,12,2023,00,00*7D
