###2023-12-09 13:22:26.025454$GNZDA,182225.10,09,12,2023,00,00*7E
###2023-12-09 13:22:26.026111$GNEBP,,,,,,M*13
###2023-12-09 13:22:26.189090$GNGGA,182225.30,4138.0718776,N,07032.3618149,W,1,24,0.7,13.020,M,-29.743,M,0.0,*54
###2023-12-09 13:22:26.389249$GNGGA,182225.50,4138.0716774,N,07032.3618465,W,1,24,0.7,13.005,M,-29.743,M,0.0,*52
###2023-12-09 13:22:26.587168$GNGGA,182225.70,4138.0714797,N,07032.3619547,W,1,24,0.7,13.058,M,-29.743,M,0.0,*57
###2023-12-09 13:22:26.785811$GNGGA,182225.90,4138.0712778,N,07032.3620238,W,1,24,0.7,13.066,M,-29.743,M,0.0,*56
###2023-12-09 13:22:26.988367$GNRMC,182226.10,A,4138.0710843,N,07032.3619779,W,3.36,161.29,091223,,,A*5B
###2023-12-09 13:22:26.991259$GNGGA,182226.10,4138.0710843,N,07032.3619779,W,1,24,0.7,13.026,M,-29.743,M,0.0,*56
###2023-12-09 13:22:26.993054$GPGSA,A,3,03,04,16,26,28,29,31,,,,,,1.1,0.7,0.9*3B
###2023-12-09 13:22:26.994793$GLGSA,A,3,65,71,72,73,74,75,,,,,,,1.1,0.7,0.9*25
###2023-12-09 13:22:26.996377$GAGSA,A,3,04,19,21,27,,,,,,,,,1.1,0.7,0.9*27
###2023-12-09 13:22:26.998080$GBGSA,A,3,14,24,25,26,33,35,,,,,,,1.1,0.7,0.9*28
###2023-12-09 13:22:27.000411$GPGSV,2,1,07,03,30,252,43,04,41,310,45,16,60,218,45,26,90,099,47*78
###2023-12-09 13:22:27.002435$GPGSV,2,2,07,28,42,080,44,29,23,052,43,31,63,057,46,,,,*47
###2023-12-09 13:22:27.004761$GLGSV,2,1,06,65,33,323,42,71,30,174,41,72,69,234,46,73,27,048,43*62
###2023-12-09 13:22:27.006502$GLGSV,2,2,06,74,64,002,42,75,39,263,46,,,,,,,,*6B
###2023-12-09 13:22:27.008828$GAGSV,1,1,04,04,36,311,44,19,77,186,39,21,81,054,44,27,26,049,39*6E
###2023-12-09 13:22:27.011154$GBGSV,2,1,06,14,34,191,42,24,67,039,48,25,47,270,48,26,20,067,43*6F
###2023-12-09 13:22:27.012895$GBGSV,2,2,06,33,51,222,47,35,16,062,42,,,,,,,,*6B
###2023-12-09 13:22:27.014216$GNVTG,161.29,T,,M,3.36,N,6.23,K,A*2F
###2023-12-09 13:22:27.015867$GNGST,182226.10,18.000,,,,0.100,0.072,0.170*50
###2023-12-09 13:22:27.017154$GNZDA,182226.10,09,12,2023,00,00*7D
###2023-12-09 13:22:27.017791$GNEBP,,,,,,M*13
###2023-12-09 13:22:27.188099$GNGGA,182226.30,4138.0709095,N,07032.3619253,W,1,24,0.7,12.990,M,-29.743,M,0.0,*57
###2023-12-09 13:22:27.385038$GNGGA,182226.50,4138.0707028,N,07032.3619833,W,1,24,0.7,13.073,M,-29.743,M,0.0,*50
###2023-12-09 13:22:27.585441$GNGGA,182226.70,4138.0705016,N,07032.3620198,W,1,24,0.7,13.030,M,-29.743,M,0.0,*58
###2023-12-09 13:22:27.786067$GNGGA,182226.90,4138.0703308,N,07032.3619552,W,1,24,0.7,13.028,M,-29.743,M,0.0,*5D
###2023-12-09 13:22:27.987843$GNRMC,182227.10,A,4138.0701515,N,07032.3618762,W,3.63,165.62,091223,,,A*54
###2023-12-09 13:22:27.990715$GNGGA,182227.10,4138.0701515,N,07032.3618762,W,1,24,0.7,13.048,M,-29.743,M,0.0,*5A
###2023-12-09 13:22:27.992512$GPGSA,A,3,03,04,16,26,28,29,31,,,,,,1.1,0.7,0.9*3B
###2023-12-09 13:22:27.994226$GLGSA,A,3,65,71,72,73,74,75,,,,,,,1.1,0.7,0.9*25
###2023-12-09 13:22:27.995826$GAGSA,A,3,04,19,21,27,,,,,,,,,1.1,0.7,0.9*27
###2023-12-09 13:22:27.997539$GBGSA,A,3,14,24,25,26,33,35,,,,,,,1.1,0.7,0.9*28
###2023-12-09 13:22:27.999882$GPGSV,2,1,07,03,30,252,41,04,41,310,44,16,60,218,46,26,90,099,48*77
###2023-12-09 13:22:28.001921$GPGSV,2,2,07,28,42,080,46,29,23,052,42,31,63,057,47,,,,*45
###2023-12-09 13:22:28.004257$GLGSV,2,1,06,65,33,323,43,71,30,174,43,72,69,234,45,73,27,048,43*62
###2023-12-09 13:22:28.006009$GLGSV,2,2,06,74,64,002,43,75,39,263,46,,,,,,,,*6A
###2023-12-09 13:22:28.008352$GAGSV,1,1,04,04,36,311,42,19,77,186,40,21,81,054,46,27,26,049,40*6A
###2023-12-09 13:22:28.010695$GBGSV,2,1,06,14,34,191,42,24,67,039,49,25,47,270,47,26,20,067,45*67
###2023-12-09 13:22:28.012441$GBGSV,2,2,06,33,51,222,47,35,16,062,44,,,,,,,,*6D
###2023-12-09 13:22:28.013756$GNVTG,165.62,T,,M,3.63,N,6.73,K,A*21
###2023-12-09 13:22:28.015417$GNGST,182227.10,18.000,,,,0.100,0.072,0.170*51
###2023-12-09 13:22:28.016703$GNZDA,182227.10,09,12,2023,00,00*7C
###2023-12-09 13:22:28.017340$GNEBP,,,,,,M*13
###2023-12-09 13:22:28.184387$GNGGA,182227.30,4138.0699635,N,07032.3618351,W,1,24,0.7,13.023,M,-29.743,M,0.0,*50
###2023-12-09 13:22:28.385047$GNGGA,182227.50,4138.0697750,N,07032.3618219,W,1,24,0.7,13.038,M,-29.743,M,0.0,*5D
###2023-12-09 13:22:28.585756$GNGGA,182227.70,4138.0695856,N,07032.3617679,W,1,24,0.7,13.040,M,-29.743,M,0.0,*56
###2023-12-09 13:22:28.785841$GNGGA,182227.90,4138.0694079,N,07032.3617000,W,1,24,0.7,13.025,M,-29.743,M,0.0,*57
###2023-12-09 13:22:28.988409$GNRMC,182228.10,A,4138.0692215,N,07032.3616680,W,3.48,177.90,091223,,,A*53
###2023-12-09 13:22:28.991288$GNGGA,182228.10,4138.0692215,N,07032.3616680,W,1,24,0.7,13.046,M,-29.743,M,0.0,*54
###2023-12-09 13:22:28.993084$GPGSA,A,3,03,04,16,26,28,29,31,,,,,,1.1,0.7,0.9*3B
###2023-12-09 13:22:28.994807$GLGSA,A,3,65,71,72,73,74,75,,,,,,,1.1,0.7,0.9*25
###2023-12-09 13:22:28.996389$GAGSA,A,3,04,19,21,27,,,,,,,,,1.1,0.7,0.9*27
###2023-12-09 13:22:28.998092$GBGSA,A,3,14,24,25,26,33,35,,,,,,,1.1,0.7,0.9*28
###2023-12-09 13:22:29.000420$GPGSV,2,1,07,03,30,252,42,04,41,310,45,16,60,218,46,26,90,099,48*75
###2023-12-09 13:22:29.002461$GPGSV,2,2,07,28,42,080,45,29,23,052,42,31,63,057,47,,,,*46
###2023-12-09 13:22:29.004806$GLGSV,2,1,06,65,33,323,43,71,30,174,43,72,69,234,45,73,27,048,44*65
###2023-12-09 13:22:29.006561$GLGSV,2,2,06,74,64,002,43,75,39,263,46,,,,,,,,*6A
###2023-12-09 13:22:29.008937$GAGSV,1,1,04,04,36,311,43,19,77,186,40,21,81,054,46,27,26,049,41*6A
###2023-12-09 13:22:29.011288$GBGSV,2,1,06,14,34,191,40,24,66,040,48,25,47,270,47,26,20,067,44*6A
###2023-12-09 13:22:29.013029$GBGSV,2,2,06,33,51,222,44,35,16,062,43,,,,,,,,*69
###2023-12-09 13:22:29.014351$GNVTG,177.90,T,,M,3.48,N,6.44,K,A*22
###2023-12-09 13:22:29.016012$GNGST,182228.10,18.000,,,,0.100,0.072,0.170*5E
###2023-12-09 13:22:29.017307$GNZDA,182228.10,09,12,2023,00,00*73
###2023-12-09 13:22:29.017943$GNEBP,,,,,,M*13
###2023-12-09 13:22:29.185337$GNGGA,182228.30,4138.0690235,N,07032.3616511,W,1,24,0.7,13.033,M,-29.743,M,0.0,*5F
###2023-12-09 13:22:29.384962$GNGGA,182228.50,4138.0688370,N,07032.3616365,W,1,24,0.7,13.017,M,-29.743,M,0.0,*53
###2023-12-09 13:22:29.585751$GNGGA,182228.70,4138.0686560,N,07032.3616310,W,1,24,0.7,13.047,M,-29.743,M,0.0,*5F
###2023-12-09 13:22:29.784832$GNGGA,182228.90,4138.0684638,N,07032.3616304,W,1,24,0.7,13.061,M,-29.743,M,0.0,*5C
###2023-12-09 13:22:29.989890$GNRMC,182229.10,A,4138.0682727,N,07032.3616323,W,3.38,178.75,091223,,,A*58
###2023-12-09 13:22:29.992771$GNGGA,182229.10,4138.0682727,N,07032.3616323,W,1,24,0.7,13.013,M,-29.743,M,0.0,*5C
###2023-12-09 13:22:29.994558$GPGSA,A,3,03,04,16,26,28,29,31,,,,,,1.1,0.7,0.9*3B
###2023-12-09 13:22:29.996278$GLGSA,A,3,65,71,72,73,74,75,,,,,,,1.1,0.7,0.9*25
###2023-12-09 13:22:29.997862$GAGSA,A,3,04,19,21,27,,,,,,,,,1.1,0.7,0.9*27
###2023-12-09 13:22:29.999593$GBGSA,A,3,14,24,25,26,33,35,,,,,,,1.1,0.7,0.9*28
###2023-12-09 13:22:30.001931$GPGSV,2,1,07,03,30,252,41,04,41,310,44,16,60,218,46,26,90,099,48*77
###2023-12-09 13:22:30.003978$GPGSV,2,2,07,28,42,080,45,29,23,052,41,31,63,057,47,,,,*45
###2023-12-09 13:22:30.006301$GLGSV,2,1,06,65,33,323,40,71,30,174,42,72,69,234,45,73,27,048,42*61
###2023-12-09 13:22:30.008050$GLGSV,2,2,06,74,64,002,43,75,39,263,46,,,,,,,,*6A
###2023-12-09 13:22:30.010378$GAGSV,1,1,04,04,36,311,43,19,77,186,40,21,81,054,46,27,26,049,39*65
###2023-12-09 13:22:30.012719$GBGSV,2,1,06,14,34,191,42,24,66,040,48,25,47,271,47,26,20,067,43*6E
###2023-12-09 13:22:30.014464$GBGSV,2,2,06,33,51,222,46,35,16,062,44,,,,,,,,*6C
###2023-12-09 13:22:30.015794$GNVTG,178.75,T,,M,3.38,N,6.26,K,A*25
###2023-12-09 13:22:30.017433$GNGST,182229.10,18.000,,,,0.100,0.072,0.170*5F
###2023-12-09 13:22:30.018770$GNZDA,182229.10,09,12,2023,00,00*72
###2023-12-09 13:22:30.019411$GNEBP,,,,,,M*13
###2023-12-09 13:22:30.187266$GNGGA,182229.30,4138.0680930,N,07032.3616288,W,1,24,0.7,13.004,M,-29.743,M,0.0,*52
###2023-12-09 13:22:30.384965$GNGGA,182229.50,4138.0679051,N,07032.3616547,W,1,24,0.7,13.059,M,-29.743,M,0.0,*50
###2023-12-09 13:22:30.587300$GNGGA,182229.70,4138.0677088,N,07032.3616671,W,1,24,0.7,13.051,M,-29.743,M,0.0,*56
###2023-12-09 13:22:30.785730$GNGGA,182229.90,4138.0675249,N,07032.3616248,W,1,24,0.7,13.016,M,-29.743,M,0.0,*58
###2023-12-09 13:22:30.992038$GNRMC,182230.10,A,4138.0673393,N,07032.3615876,W,3.58,177.83,091223,,,A*5D
###2023-12-09 13:22:30.995169$GNGGA,182230.10,4138.0673393,N,07032.3615876,W,1,24,0.7,13.033,M,-29.743,M,0.0,*5B
###2023-12-09 13:22:30.996969$GPGSA,A,3,03,04,16,26,28,29,31,,,,,,1.1,0.7,0.9*3B
###2023-12-09 13:22:30.998694$GLGSA,A,3,65,71,72,73,74,75,,,,,,,1.1,0.7,0.9*25
###2023-12-09 13:22:31.000283$GAGSA,A,3,04,19,21,27,,,,,,,,,1.1,0.7,0.9*27
###2023-12-09 13:22:31.002002$GBGSA,A,3,14,24,25,26,33,35,,,,,,,1.1,0.7,0.9*28
###2023-12-09 13:22:31.004340$GPGSV,2,1,07,03,30,252,40,04,41,310,44,16,60,218,45,26,90,099,48*75
###2023-12-09 13:22:31.006379$GPGSV,2,2,07,28,42,080,45,29,23,052,44,31,63,057,46,,,,*41
###2023-12-09 13:22:31.008717$GLGSV,2,1,06,65,33,323,43,71,30,174,41,72,69,234,45,73,27,048,45*66
###2023-12-09 13:22:31.010466$GLGSV,2,2,06,74,64,002,43,75,39,263,46,,,,,,,,*6A
