###2023-12-09 13:29:54.002310$GPGSV,2,2,06,29,21,049,42,31,61,063,47,,,,,,,,*7F
###2023-12-09 13:29:54.004688$GLGSV,2,1,06,65,36,321,43,71,25,175,35,72,65,225,45,73,24,050,43*67
###2023-12-09 13:29:54.006441$GLGSV,2,2,06,74,61,010,41,75,42,268,45,,,,,,,,*6A
###2023-12-09 13:29:54.008779$GAGSV,1,1,04,04,38,310,42,19,74,182,40,21,79,049,46,27,24,049,40*6B
###2023-12-09 13:29:54.011108$GBGSV,2,1,06,14,31,190,41,24,64,043,49,25,49,274,47,26,17,069,45*6E
###2023-12-09 13:29:54.012848$GBGSV,2,2,06,33,48,219,45,35,16,058,45,,,,,,,,*67
###2023-12-09 13:29:54.014178$GNVTG,225.21,T,,M,2.90,N,5.36,K,A*2E
###2023-12-09 13:29:54.015847$GNGST,182953.10,19.000,,,,0.110,0.074,0.170*5F
###2023-12-09 13:29:54.017140$GNZDA,182953.10,09,12,2023,00,00*74
###2023-12-09 13:29:54.017777$GNEBP,,,,,,M*13
###2023-12-09 13:29:54.187973$GNGGA,182953.30,4138.0425187,N,07032.4260459,W,1,22,0.7,13.021,M,-29.745,M,0.0,*52
###2023-12-09 13:29:54.384716$GNGGA,182953.50,4138.0423973,N,07032.4261769,W,1,22,0.7,13.034,M,-29.745,M,0.0,*54
###2023-12-09 13:29:54.586714$GNGGA,182953.70,4138.0422658,N,07032.4262930,W,1,21,0.8,13.033,M,-29.745,M,0.0,*5B
###2023-12-09 13:29:54.787927$GNGGA,182953.90,4138.0421343,N,07032.4264191,W,1,21,0.8,13.033,M,-29.745,M,0.0,*5C
###2023-12-09 13:29:54.990085$GNRMC,182954.10,A,4138.0420155,N,07032.4265655,W,2.95,223.50,091223,,,A*5F
###2023-12-09 13:29:54.992957$GNGGA,182954.10,4138.0420155,N,07032.4265655,W,1,21,0.8,13.047,M,-29.745,M,0.0,*5A
###2023-12-09 13:29:54.994700$GPGSA,A,3,04,16,26,28,29,31,,,,,,,1.4,0.8,1.1*3B
###2023-12-09 13:29:54.996349$GLGSA,A,3,65,72,73,74,75,,,,,,,,1.4,0.8,1.1*20
###2023-12-09 13:29:54.997928$GAGSA,A,3,04,19,21,27,,,,,,,,,1.4,0.8,1.1*24
###2023-12-09 13:29:54.999651$GBGSA,A,3,14,24,25,26,33,35,,,,,,,1.4,0.8,1.1*2B
###2023-12-09 13:29:55.001982$GPGSV,2,1,06,04,44,309,45,16,64,220,45,26,86,041,49,28,39,083,45*7F
###2023-12-09 13:29:55.003743$GPGSV,2,2,06,29,21,049,42,31,61,063,47,,,,,,,,*7F
###2023-12-09 13:29:55.006077$GLGSV,2,1,05,65,36,321,43,72,65,225,45,73,24,050,44,74,61,010,42*64
###2023-12-09 13:29:55.007545$GLGSV,2,2,05,75,42,268,47,,,,,,,,,,,,*5B
###2023-12-09 13:29:55.009883$GAGSV,1,1,04,04,38,310,44,19,74,182,40,21,79,049,46,27,24,049,41*6C
###2023-12-09 13:29:55.012238$GBGSV,2,1,06,14,31,190,39,24,64,043,49,25,49,274,46,26,17,069,45*60
###2023-12-09 13:29:55.013987$GBGSV,2,2,06,33,48,219,43,35,16,058,45,,,,,,,,*61
###2023-12-09 13:29:55.015322$GNVTG,223.50,T,,M,2.95,N,5.47,K,A*2D
###2023-12-09 13:29:55.016974$GNGST,182954.10,19.000,,,,0.110,0.074,0.180*57
###2023-12-09 13:29:55.018266$GNZDA,182954.10,09,12,2023,00,00*73
###2023-12-09 13:29:55.018918$GNEBP,,,,,,M*13
###2023-12-09 13:29:55.187589$GNGGA,182954.30,4138.0418932,N,07032.4267073,W,1,21,0.8,13.046,M,-29.745,M,0.0,*5B
###2023-12-09 13:29:55.388755$GNGGA,182954.50,4138.0417658,N,07032.4268241,W,1,21,0.8,13.041,M,-29.745,M,0.0,*5A
###2023-12-09 13:29:55.587092$GNGGA,182954.70,4138.0416393,N,07032.4269303,W,1,20,0.9,13.033,M,-29.745,M,0.0,*58
###2023-12-09 13:29:55.787682$GNGGA,182954.90,4138.0415185,N,07032.4270566,W,1,21,0.8,13.035,M,-29.745,M,0.0,*5B
###2023-12-09 13:29:55.990054$GNRMC,182955.10,A,4138.0414060,N,07032.4272008,W,2.80,222.19,091223,,,A*5E
###2023-12-09 13:29:55.992939$GNGGA,182955.10,4138.0414060,N,07032.4272008,W,1,21,0.8,13.049,M,-29.745,M,0.0,*5D
###2023-12-09 13:29:55.994685$GPGSA,A,3,04,16,26,28,29,31,,,,,,,1.4,0.8,1.1*3B
###2023-12-09 13:29:55.996334$GLGSA,A,3,65,72,73,74,75,,,,,,,,1.4,0.8,1.1*20
###2023-12-09 13:29:55.997916$GAGSA,A,3,04,19,21,27,,,,,,,,,1.4,0.8,1.1*24
###2023-12-09 13:29:55.999639$GBGSA,A,3,14,24,25,26,33,35,,,,,,,1.4,0.8,1.1*2B
###2023-12-09 13:29:56.001961$GPGSV,2,1,06,04,44,309,46,16,64,220,45,26,86,041,49,28,39,083,43*7A
###2023-12-09 13:29:56.003720$GPGSV,2,2,06,29,21,049,42,31,61,063,46,,,,,,,,*7E
###2023-12-09 13:29:56.006042$GLGSV,2,1,05,65,36,321,44,72,65,225,44,73,24,050,44,74,61,010,41*61
###2023-12-09 13:29:56.007508$GLGSV,2,2,05,75,42,268,48,,,,,,,,,,,,*54
###2023-12-09 13:29:56.009845$GAGSV,1,1,04,04,38,310,45,19,74,182,40,21,79,049,46,27,24,049,41*6D
###2023-12-09 13:29:56.012193$GBGSV,2,1,06,14,31,190,39,24,64,043,47,25,49,274,45,26,17,069,43*6B
###2023-12-09 13:29:56.013947$GBGSV,2,2,06,33,48,219,44,35,16,058,43,,,,,,,,*60
###2023-12-09 13:29:56.015285$GNVTG,222.19,T,,M,2.80,N,5.18,K,A*2F
###2023-12-09 13:29:56.016933$GNGST,182955.10,19.000,,,,0.120,0.075,0.180*54
###2023-12-09 13:29:56.018227$GNZDA,182955.10,09,12,2023,00,00*72
###2023-12-09 13:29:56.018877$GNEBP,,,,,,M*13
###2023-12-09 13:29:56.187712$GNGGA,182955.30,4138.0412863,N,07032.4273310,W,1,21,0.8,13.070,M,-29.745,M,0.0,*53
###2023-12-09 13:29:56.388541$GNGGA,182955.50,4138.0411622,N,07032.4274397,W,1,21,0.8,13.080,M,-29.745,M,0.0,*5A
###2023-12-09 13:29:56.589034$GNGGA,182955.70,4138.0410401,N,07032.4275431,W,1,21,0.8,13.074,M,-29.745,M,0.0,*5B
###2023-12-09 13:29:56.787489$GNGGA,182955.90,4138.0409297,N,07032.4276520,W,1,21,0.8,13.066,M,-29.745,M,0.0,*55
###2023-12-09 13:29:56.994169$GNRMC,182956.10,A,4138.0408247,N,07032.4277548,W,2.29,212.90,091223,,,A*52
###2023-12-09 13:29:56.997044$GNGGA,182956.10,4138.0408247,N,07032.4277548,W,1,21,0.8,13.063,M,-29.745,M,0.0,*58
###2023-12-09 13:29:56.998782$GPGSA,A,3,04,16,26,28,29,31,,,,,,,1.4,0.8,1.1*3B
###2023-12-09 13:29:57.000434$GLGSA,A,3,65,72,73,74,75,,,,,,,,1.4,0.8,1.1*20
###2023-12-09 13:29:57.002018$GAGSA,A,3,04,19,21,27,,,,,,,,,1.4,0.8,1.1*24
###2023-12-09 13:29:57.003744$GBGSA,A,3,14,24,25,26,33,35,,,,,,,1.4,0.8,1.1*2B
###2023-12-09 13:29:57.006071$GPGSV,2,1,06,04,44,309,44,16,64,220,44,26,86,041,48,28,39,083,43*78
###2023-12-09 13:29:57.007831$GPGSV,2,2,06,29,21,049,43,31,61,063,46,,,,,,,,*7F
###2023-12-09 13:29:57.010159$GLGSV,2,1,05,65,36,321,43,72,65,225,45,73,24,050,45,74,61,010,42*65
###2023-12-09 13:29:57.011708$GLGSV,2,2,05,75,42,268,46,,,,,,,,,,,,*5A
###2023-12-09 13:29:57.014039$GAGSV,1,1,04,04,38,310,43,19,74,182,40,21,79,049,46,27,24,049,42*68
###2023-12-09 13:29:57.016389$GBGSV,2,1,06,14,31,190,37,24,64,043,48,25,49,274,47,26,17,069,44*6F
###2023-12-09 13:29:57.018132$GBGSV,2,2,06,33,48,219,44,35,16,058,44,,,,,,,,*67
###2023-12-09 13:29:57.019470$GNVTG,212.90,T,,M,2.29,N,4.25,K,A*21
###2023-12-09 13:29:57.021117$GNGST,182956.10,19.000,,,,0.120,0.076,0.180*54
###2023-12-09 13:29:57.022405$GNZDA,182956.10,09,12,2023,00,00*71
###2023-12-09 13:29:57.023054$GNEBP,,,,,,M*13
###2023-12-09 13:29:57.193529$GNGGA,182956.30,4138.0407198,N,07032.4278409,W,1,21,0.8,13.069,M,-29.745,M,0.0,*55
###2023-12-09 13:29:57.387602$GNGGA,182956.50,4138.0406189,N,07032.4279238,W,1,22,0.7,13.083,M,-29.745,M,0.0,*5F
###2023-12-09 13:29:57.587758$GNGGA,182956.70,4138.0405233,N,07032.4280116,W,1,21,0.7,13.096,M,-29.745,M,0.0,*52
###2023-12-09 13:29:57.788495$GNGGA,182956.90,4138.0404258,N,07032.4280997,W,1,21,0.7,13.079,M,-29.745,M,0.0,*50
###2023-12-09 13:29:57.989844$GNRMC,182957.10,A,4138.0403257,N,07032.4281782,W,2.16,204.76,091223,,,A*57
###2023-12-09 13:29:57.992737$GNGGA,182957.10,4138.0403257,N,07032.4281782,W,1,20,0.8,13.068,M,-29.745,M,0.0,*54
###2023-12-09 13:29:57.994463$GPGSA,A,3,04,16,26,28,29,31,,,,,,,1.4,0.8,1.1*3B
###2023-12-09 13:29:57.996124$GLGSA,A,3,65,72,73,74,75,,,,,,,,1.4,0.8,1.1*20
###2023-12-09 13:29:57.997703$GAGSA,A,3,04,19,21,27,,,,,,,,,1.4,0.8,1.1*24
###2023-12-09 13:29:57.999359$GBGSA,A,3,24,25,26,33,35,,,,,,,,1.4,0.8,1.1*2E
###2023-12-09 13:29:58.001697$GPGSV,2,1,06,04,44,309,44,16,64,220,44,26,86,041,48,28,39,083,44*7F
###2023-12-09 13:29:58.003462$GPGSV,2,2,06,29,21,049,41,31,61,063,47,,,,,,,,*7C
###2023-12-09 13:29:58.005797$GLGSV,2,1,05,65,36,321,43,72,65,225,44,73,24,050,44,74,61,010,42*65
###2023-12-09 13:29:58.007265$GLGSV,2,2,05,75,42,268,46,,,,,,,,,,,,*5A
###2023-12-09 13:29:58.009591$GAGSV,1,1,04,04,38,310,43,19,74,182,40,21,79,049,46,27,24,049,40*6A
###2023-12-09 13:29:58.011935$GBGSV,2,1,05,24,64,043,48,25,49,274,46,26,17,069,44,33,48,219,45*61
###2023-12-09 13:29:58.013392$GBGSV,2,2,05,35,16,058,45,,,,,,,,,,,,*53
###2023-12-09 13:29:58.014726$GNVTG,204.76,T,,M,2.16,N,4.00,K,A*25
###2023-12-09 13:29:58.016378$GNGST,182957.10,20.000,,,,0.120,0.077,0.190*5F
###2023-12-09 13:29:58.017907$GNZDA,182957.10,09,12,2023,00,00*70
###2023-12-09 13:29:58.018559$GNEBP,,,,,,M*13
###2023-12-09 13:29:58.190526$GNGGA,182957.30,4138.0402289,N,07032.4282555,W,1,20,0.8,13.078,M,-29.745,M,0.0,*5E
###2023-12-09 13:29:58.390230$GNGGA,182957.50,4138.0401317,N,07032.4283393,W,1,20,0.8,13.098,M,-29.745,M,0.0,*5E
###2023-12-09 13:29:58.589520$GNGGA,182957.70,4138.0400326,N,07032.4284155,W,1,20,0.9,13.102,M,-29.745,M,0.0,*53
###2023-12-09 13:29:58.788472$GNGGA,182957.90,4138.0399283,N,07032.4284738,W,1,21,0.8,13.077,M,-29.745,M,0.0,*5A
###2023-12-09 13:29:58.992667$GNRMC,182958.10,A,4138.0398229,N,07032.4285347,W,2.14,206.79,091223,,,A*52
###2023-12-09 13:29:58.995543$GNGGA,182958.10,4138.0398229,N,07032.4285347,W,1,21,0.8,13.079,M,-29.745,M,0.0,*5F
