###2023-12-09 12:57:21.759499$GNGGA,175720.90,4138.0337577,N,07032.3874479,W,1,24,0.6,13.361,M,-29.745,M,0.0,*5F
###2023-12-09 12:57:21.961215$GNRMC,175721.10,A,4138.0338065,N,07032.3873051,W,2.24,62.43,091223,,,A*60
###2023-12-09 12:57:21.964103$GNGGA,175721.10,4138.0338065,N,07032.3873051,W,1,24,0.6,13.369,M,-29.745,M,0.0,*5E
###2023-12-09 12:57:21.965969$GPGSA,A,3,03,04,16,26,28,29,31,32,,,,,1.1,0.6,0.9*3B
###2023-12-09 12:57:21.967697$GLGSA,A,3,65,71,72,73,74,75,,,,,,,1.1,0.6,0.9*24
###2023-12-09 12:57:21.969281$GAGSA,A,3,04,19,21,27,,,,,,,,,1.1,0.6,0.9*26
###2023-12-09 12:57:21.970943$GBGSA,A,3,14,24,25,26,33,,,,,,,,1.1,0.6,0.9*2F
###2023-12-09 12:57:21.973274$GPGSV,2,1,08,03,36,264,44,04,31,311,41,16,48,211,47,26,77,209,48*7D
###2023-12-09 12:57:21.975619$GPGSV,2,2,08,28,51,068,43,29,25,064,41,31,70,031,46,32,21,139,43*76
###2023-12-09 12:57:21.977954$GLGSV,2,1,06,65,22,328,42,71,43,172,48,72,73,277,47,73,37,040,44*61
###2023-12-09 12:57:21.979719$GLGSV,2,2,06,74,70,331,44,75,30,251,48,,,,,,,,*6D
###2023-12-09 12:57:21.982060$GAGSV,1,1,04,04,27,312,41,19,85,234,41,21,85,141,46,27,34,048,39*61
###2023-12-09 12:57:21.984406$GBGSV,2,1,05,14,45,193,46,24,75,020,47,25,39,260,47,26,27,062,42*6C
###2023-12-09 12:57:21.985866$GBGSV,2,2,05,33,59,235,46,,,,,,,,,,,,*54
###2023-12-09 12:57:21.987166$GNVTG,62.43,T,,M,2.24,N,4.14,K,A*15
###2023-12-09 12:57:21.988824$GNGST,175721.10,18.000,,,,0.078,0.067,0.160*51
###2023-12-09 12:57:21.990118$GNZDA,175721.10,09,12,2023,00,00*77
###2023-12-09 12:57:21.990769$GNEBP,,,,,,M*13
###2023-12-09 12:57:22.158857$GNGGA,175721.30,4138.0338738,N,07032.3871464,W,1,24,0.6,13.373,M,-29.745,M,0.0,*58
###2023-12-09 12:57:22.360316$GNGGA,175721.50,4138.0339261,N,07032.3869910,W,1,24,0.6,13.351,M,-29.745,M,0.0,*51
###2023-12-09 12:57:22.560521$GNGGA,175721.70,4138.0339731,N,07032.3868338,W,1,24,0.6,13.353,M,-29.745,M,0.0,*50
###2023-12-09 12:57:22.759706$GNGGA,175721.90,4138.0340176,N,07032.3866533,W,1,24,0.6,13.356,M,-29.745,M,0.0,*53
###2023-12-09 12:57:22.960511$GNRMC,175722.10,A,4138.0340510,N,07032.3864773,W,2.33,76.15,091223,,,A*6A
###2023-12-09 12:57:22.963402$GNGGA,175722.10,4138.0340510,N,07032.3864773,W,1,24,0.6,13.334,M,-29.745,M,0.0,*5C
###2023-12-09 12:57:22.965272$GPGSA,A,3,03,04,16,26,28,29,31,32,,,,,1.1,0.6,0.9*3B
###2023-12-09 12:57:22.967009$GLGSA,A,3,65,71,72,73,74,75,,,,,,,1.1,0.6,0.9*24
###2023-12-09 12:57:22.968601$GAGSA,A,3,04,19,21,27,,,,,,,,,1.1,0.6,0.9*26
###2023-12-09 12:57:22.970253$GBGSA,A,3,14,24,25,26,33,,,,,,,,1.1,0.6,0.9*2F
###2023-12-09 12:57:22.972591$GPGSV,2,1,08,03,36,264,44,04,31,311,40,16,48,211,46,26,77,209,47*72
###2023-12-09 12:57:22.974940$GPGSV,2,2,08,28,51,068,44,29,25,064,41,31,70,031,46,32,21,139,42*70
###2023-12-09 12:57:22.977277$GLGSV,2,1,06,65,22,328,42,71,43,172,46,72,73,277,48,73,37,040,46*62
###2023-12-09 12:57:22.979038$GLGSV,2,2,06,74,70,331,42,75,30,251,45,,,,,,,,*66
###2023-12-09 12:57:22.981368$GAGSV,1,1,04,04,27,312,40,19,85,234,41,21,85,141,46,27,34,048,42*6C
###2023-12-09 12:57:22.983708$GBGSV,2,1,05,14,45,193,47,24,75,020,47,25,39,260,46,26,27,062,43*6D
###2023-12-09 12:57:22.985169$GBGSV,2,2,05,33,59,235,47,,,,,,,,,,,,*55
###2023-12-09 12:57:22.986466$GNVTG,76.15,T,,M,2.33,N,4.32,K,A*11
###2023-12-09 12:57:22.988131$GNGST,175722.10,18.000,,,,0.078,0.066,0.160*53
###2023-12-09 12:57:22.989433$GNZDA,175722.10,09,12,2023,00,00*74
###2023-12-09 12:57:22.990074$GNEBP,,,,,,M*13
###2023-12-09 12:57:23.158763$GNGGA,175722.30,4138.0340875,N,07032.3863048,W,1,24,0.6,13.347,M,-29.745,M,0.0,*5C
###2023-12-09 12:57:23.359525$GNGGA,175722.50,4138.0341199,N,07032.3861134,W,1,24,0.6,13.344,M,-29.745,M,0.0,*5B
###2023-12-09 12:57:23.559229$GNGGA,175722.70,4138.0341349,N,07032.3859211,W,1,24,0.6,13.324,M,-29.745,M,0.0,*5F
###2023-12-09 12:57:23.772345$GNGGA,175722.90,4138.0341345,N,07032.3857322,W,1,24,0.6,13.335,M,-29.745,M,0.0,*52
###2023-12-09 12:57:23.960371$GNRMC,175723.10,A,4138.0341252,N,07032.3855321,W,2.74,94.22,091223,,,A*61
###2023-12-09 12:57:23.963269$GNGGA,175723.10,4138.0341252,N,07032.3855321,W,1,24,0.6,13.349,M,-29.745,M,0.0,*56
###2023-12-09 12:57:23.965128$GPGSA,A,3,03,04,16,26,28,29,31,32,,,,,1.1,0.6,0.9*3B
###2023-12-09 12:57:23.966858$GLGSA,A,3,65,71,72,73,74,75,,,,,,,1.1,0.6,0.9*24
###2023-12-09 12:57:23.968443$GAGSA,A,3,04,19,21,27,,,,,,,,,1.1,0.6,0.9*26
###2023-12-09 12:57:23.970085$GBGSA,A,3,14,24,25,26,33,,,,,,,,1.1,0.6,0.9*2F
###2023-12-09 12:57:23.972421$GPGSV,2,1,08,03,36,264,45,04,31,311,41,16,48,211,48,26,77,209,48*73
###2023-12-09 12:57:23.974766$GPGSV,2,2,08,28,51,068,44,29,25,064,42,31,70,031,47,32,21,139,41*71
###2023-12-09 12:57:23.977111$GLGSV,2,1,06,65,22,328,40,71,43,172,46,72,73,277,47,73,37,040,47*6E
###2023-12-09 12:57:23.978869$GLGSV,2,2,06,74,70,331,43,75,30,251,46,,,,,,,,*64
###2023-12-09 12:57:23.981206$GAGSV,1,1,04,04,27,312,41,19,85,234,40,21,85,141,45,27,34,048,42*6F
###2023-12-09 12:57:23.983556$GBGSV,2,1,05,14,45,193,45,24,75,020,48,25,39,260,47,26,27,062,43*61
###2023-12-09 12:57:23.985015$GBGSV,2,2,05,33,59,235,48,,,,,,,,,,,,*5A
###2023-12-09 12:57:23.986310$GNVTG,94.22,T,,M,2.74,N,5.08,K,A*12
###2023-12-09 12:57:23.987969$GNGST,175723.10,18.000,,,,0.078,0.066,0.160*52
###2023-12-09 12:57:23.989263$GNZDA,175723.10,09,12,2023,00,00*75
###2023-12-09 12:57:23.989903$GNEBP,,,,,,M*13
###2023-12-09 12:57:24.158452$GNGGA,175723.30,4138.0341083,N,07032.3853271,W,1,24,0.6,13.340,M,-29.745,M,0.0,*51
###2023-12-09 12:57:24.359471$GNGGA,175723.50,4138.0340865,N,07032.3851217,W,1,24,0.6,13.336,M,-29.745,M,0.0,*55
###2023-12-09 12:57:24.559365$GNGGA,175723.70,4138.0340619,N,07032.3849078,W,1,24,0.6,13.337,M,-29.745,M,0.0,*51
###2023-12-09 12:57:24.759786$GNGGA,175723.90,4138.0340281,N,07032.3846930,W,1,24,0.6,13.338,M,-29.745,M,0.0,*5F
###2023-12-09 12:57:24.959474$GNRMC,175724.10,A,4138.0339930,N,07032.3844740,W,3.11,102.20,091223,,,A*5B
###2023-12-09 12:57:24.962326$GNGGA,175724.10,4138.0339930,N,07032.3844740,W,1,24,0.6,13.339,M,-29.745,M,0.0,*55
###2023-12-09 12:57:24.964200$GPGSA,A,3,03,04,16,26,28,29,31,32,,,,,1.1,0.6,0.9*3B
###2023-12-09 12:57:24.965917$GLGSA,A,3,65,71,72,73,74,75,,,,,,,1.1,0.6,0.9*24
###2023-12-09 12:57:24.967511$GAGSA,A,3,04,19,21,27,,,,,,,,,1.1,0.6,0.9*26
###2023-12-09 12:57:24.969159$GBGSA,A,3,14,24,25,26,33,,,,,,,,1.1,0.6,0.9*2F
###2023-12-09 12:57:24.971496$GPGSV,2,1,08,03,36,264,46,04,31,311,41,16,48,211,47,26,77,209,48*7F
###2023-12-09 12:57:24.973829$GPGSV,2,2,08,28,51,068,45,29,25,064,42,31,70,031,47,32,21,139,40*71
###2023-12-09 12:57:24.976171$GLGSV,2,1,06,65,22,328,40,71,43,172,46,72,73,277,48,73,37,040,46*60
###2023-12-09 12:57:24.977919$GLGSV,2,2,06,74,70,331,43,75,30,251,47,,,,,,,,*65
###2023-12-09 12:57:24.980259$GAGSV,1,1,04,04,27,312,41,19,85,234,40,21,85,141,46,27,34,048,43*6D
###2023-12-09 12:57:24.982615$GBGSV,2,1,05,14,45,193,46,24,75,020,50,25,39,260,48,26,27,062,44*63
###2023-12-09 12:57:24.984077$GBGSV,2,2,05,33,59,235,49,,,,,,,,,,,,*5B
###2023-12-09 12:57:24.985399$GNVTG,102.20,T,,M,3.11,N,5.76,K,A*25
###2023-12-09 12:57:24.987055$GNGST,175724.10,18.000,,,,0.078,0.066,0.160*55
###2023-12-09 12:57:24.988347$GNZDA,175724.10,09,12,2023,00,00*72
###2023-12-09 12:57:24.988984$GNEBP,,,,,,M*13
###2023-12-09 12:57:25.158547$GNGGA,175724.30,4138.0339598,N,07032.3842518,W,1,24,0.6,13.335,M,-29.745,M,0.0,*5C
###2023-12-09 12:57:25.360506$GNGGA,175724.50,4138.0339289,N,07032.3840269,W,1,24,0.6,13.338,M,-29.745,M,0.0,*53
###2023-12-09 12:57:25.560486$GNGGA,175724.70,4138.0338958,N,07032.3837932,W,1,24,0.6,13.336,M,-29.745,M,0.0,*5C
###2023-12-09 12:57:25.759832$GNGGA,175724.90,4138.0338678,N,07032.3835640,W,1,24,0.6,13.331,M,-29.745,M,0.0,*50
###2023-12-09 12:57:25.960411$GNRMC,175725.10,A,4138.0338447,N,07032.3833301,W,3.30,97.82,091223,,,A*61
###2023-12-09 12:57:25.963304$GNGGA,175725.10,4138.0338447,N,07032.3833301,W,1,24,0.6,13.335,M,-29.745,M,0.0,*55
###2023-12-09 12:57:25.965168$GPGSA,A,3,03,04,16,26,28,29,31,32,,,,,1.1,0.6,0.9*3B
###2023-12-09 12:57:25.966890$GLGSA,A,3,65,71,72,73,74,75,,,,,,,1.1,0.6,0.9*24
###2023-12-09 12:57:25.968467$GAGSA,A,3,04,19,21,27,,,,,,,,,1.1,0.6,0.9*26
###2023-12-09 12:57:25.970104$GBGSA,A,3,14,24,25,26,33,,,,,,,,1.1,0.6,0.9*2F
###2023-12-09 12:57:25.972683$GPGSV,2,1,08,03,36,264,45,04,31,311,40,16,48,211,47,26,77,209,49*7C
###2023-12-09 12:57:25.975032$GPGSV,2,2,08,28,51,068,44,29,25,064,40,31,70,031,47,32,21,139,40*72
###2023-12-09 12:57:25.977369$GLGSV,2,1,06,65,22,328,42,71,43,172,46,72,73,277,48,73,37,040,45*61
###2023-12-09 12:57:25.979133$GLGSV,2,2,06,74,70,331,43,75,30,251,46,,,,,,,,*64
###2023-12-09 12:57:25.981456$GAGSV,1,1,04,04,27,312,39,19,85,234,40,21,85,141,46,27,34,048,43*62
###2023-12-09 12:57:25.983798$GBGSV,2,1,05,14,45,193,46,24,75,020,49,25,39,260,47,26,27,062,42*62
###2023-12-09 12:57:25.985249$GBGSV,2,2,05,33,59,235,48,,,,,,,,,,,,*5A
###2023-12-09 12:57:25.986536$GNVTG,97.82,T,,M,3.30,N,6.12,K,A*12
###2023-12-09 12:57:25.988196$GNGST,175725.10,18.000,,,,0.078,0.066,0.160*54
