###2023-12-09 13:23:04.187664$GNGGA,182303.30,4138.0348151,N,07032.3620204,W,1,24,0.7,12.826,M,-29.745,M,0.0,*5B
###2023-12-09 13:23:04.387257$GNGGA,182303.50,4138.0346169,N,07032.3620025,W,1,24,0.7,12.812,M,-29.745,M,0.0,*5E
###2023-12-09 13:23:04.587933$GNGGA,182303.70,4138.0344236,N,07032.3619811,W,1,24,0.7,12.826,M,-29.745,M,0.0,*55
###2023-12-09 13:23:04.790609$GNGGA,182303.90,4138.0342203,N,07032.3619714,W,1,24,0.7,12.821,M,-29.745,M,0.0,*56
###2023-12-09 13:23:04.994013$GNRMC,182304.10,A,4138.0340191,N,07032.3619764,W,3.48,183.19,091223,,,A*57
###2023-12-09 13:23:04.996906$GNGGA,182304.10,4138.0340191,N,07032.3619764,W,1,24,0.7,12.801,M,-29.745,M,0.0,*56
###2023-12-09 13:23:04.998727$GPGSA,A,3,03,04,16,26,28,29,31,,,,,,1.1,0.7,0.9*3B
###2023-12-09 13:23:05.000452$GLGSA,A,3,65,71,72,73,74,75,,,,,,,1.1,0.7,0.9*25
###2023-12-09 13:23:05.002040$GAGSA,A,3,04,19,21,27,,,,,,,,,1.1,0.7,0.9*27
###2023-12-09 13:23:05.003771$GBGSA,A,3,14,24,25,26,33,35,,,,,,,1.1,0.7,0.9*28
###2023-12-09 13:23:05.006104$GPGSV,2,1,07,03,30,251,42,04,42,310,45,16,60,218,46,26,90,099,48*75
###2023-12-09 13:23:05.008157$GPGSV,2,2,07,28,42,080,45,29,23,052,41,31,63,057,46,,,,*44
###2023-12-09 13:23:05.010489$GLGSV,2,1,06,65,34,323,43,71,29,175,42,72,68,232,46,73,27,049,43*68
###2023-12-09 13:23:05.012249$GLGSV,2,2,06,74,63,004,43,75,40,265,46,,,,,,,,*63
###2023-12-09 13:23:05.014585$GAGSV,1,1,04,04,36,311,45,19,77,186,40,21,81,054,46,27,26,049,39*63
###2023-12-09 13:23:05.016920$GBGSV,2,1,06,14,34,191,42,24,66,040,49,25,47,271,48,26,19,068,44*62
###2023-12-09 13:23:05.018689$GBGSV,2,2,06,33,50,221,46,35,16,061,45,,,,,,,,*6C
###2023-12-09 13:23:05.020018$GNVTG,183.19,T,,M,3.48,N,6.44,K,A*28
###2023-12-09 13:23:05.021668$GNGST,182304.10,18.000,,,,0.100,0.069,0.160*5A
###2023-12-09 13:23:05.022974$GNZDA,182304.10,09,12,2023,00,00*7C
###2023-12-09 13:23:05.023615$GNEBP,,,,,,M*13
###2023-12-09 13:23:05.188457$GNGGA,182304.30,4138.0338292,N,07032.3620046,W,1,24,0.7,12.834,M,-29.745,M,0.0,*50
###2023-12-09 13:23:05.388180$GNGGA,182304.50,4138.0336308,N,07032.3620240,W,1,24,0.7,12.842,M,-29.745,M,0.0,*5F
###2023-12-09 13:23:05.589331$GNGGA,182304.70,4138.0334328,N,07032.3620084,W,1,24,0.7,12.763,M,-29.745,M,0.0,*5B
###2023-12-09 13:23:05.788326$GNGGA,182304.90,4138.0332463,N,07032.3620558,W,1,24,0.7,12.801,M,-29.745,M,0.0,*54
###2023-12-09 13:23:05.992779$GNRMC,182305.10,A,4138.0330499,N,07032.3621379,W,3.75,191.84,091223,,,A*56
###2023-12-09 13:23:05.995656$GNGGA,182305.10,4138.0330499,N,07032.3621379,W,1,24,0.7,12.858,M,-29.745,M,0.0,*52
###2023-12-09 13:23:05.997457$GPGSA,A,3,03,04,16,26,28,29,31,,,,,,1.1,0.7,0.9*3B
###2023-12-09 13:23:05.999181$GLGSA,A,3,65,71,72,73,74,75,,,,,,,1.1,0.7,0.9*25
###2023-12-09 13:23:06.000772$GAGSA,A,3,04,19,21,27,,,,,,,,,1.1,0.7,0.9*27
###2023-12-09 13:23:06.002488$GBGSA,A,3,14,24,25,26,33,35,,,,,,,1.1,0.7,0.9*28
###2023-12-09 13:23:06.004838$GPGSV,2,1,07,03,30,251,42,04,42,310,45,16,60,218,46,26,90,099,48*75
###2023-12-09 13:23:06.006895$GPGSV,2,2,07,28,42,080,43,29,23,052,38,31,63,057,46,,,,*4C
###2023-12-09 13:23:06.009229$GLGSV,2,1,06,65,34,323,45,71,29,175,42,72,68,232,47,73,27,049,41*6D
###2023-12-09 13:23:06.010992$GLGSV,2,2,06,74,63,004,43,75,40,265,48,,,,,,,,*6D
###2023-12-09 13:23:06.013324$GAGSV,1,1,04,04,36,311,45,19,77,186,40,21,81,054,46,27,26,049,39*63
###2023-12-09 13:23:06.015669$GBGSV,2,1,06,14,34,191,40,24,66,040,48,25,47,271,49,26,19,068,42*66
###2023-12-09 13:23:06.017417$GBGSV,2,2,06,33,50,221,47,35,16,061,42,,,,,,,,*6A
###2023-12-09 13:23:06.018751$GNVTG,191.84,T,,M,3.75,N,6.95,K,A*2D
###2023-12-09 13:23:06.020398$GNGST,182305.10,18.000,,,,0.100,0.069,0.160*5B
###2023-12-09 13:23:06.021690$GNZDA,182305.10,09,12,2023,00,00*7D
###2023-12-09 13:23:06.022331$GNEBP,,,,,,M*13
###2023-12-09 13:23:06.189055$GNGGA,182305.30,4138.0328524,N,07032.3621472,W,1,24,0.7,12.803,M,-29.745,M,0.0,*5C
###2023-12-09 13:23:06.388072$GNGGA,182305.50,4138.0326666,N,07032.3620954,W,1,24,0.7,12.762,M,-29.745,M,0.0,*51
###2023-12-09 13:23:06.588346$GNGGA,182305.70,4138.0324702,N,07032.3621303,W,1,24,0.7,12.827,M,-29.745,M,0.0,*55
###2023-12-09 13:23:06.788738$GNGGA,182305.90,4138.0322643,N,07032.3621935,W,1,24,0.7,12.831,M,-29.745,M,0.0,*51
###2023-12-09 13:23:06.994631$GNRMC,182306.10,A,4138.0320744,N,07032.3621642,W,3.32,167.63,091223,,,A*59
###2023-12-09 13:23:06.997494$GNGGA,182306.10,4138.0320744,N,07032.3621642,W,1,24,0.7,12.806,M,-29.745,M,0.0,*55
###2023-12-09 13:23:06.999300$GPGSA,A,3,03,04,16,26,28,29,31,,,,,,1.1,0.7,0.9*3B
###2023-12-09 13:23:07.001016$GLGSA,A,3,65,71,72,73,74,75,,,,,,,1.1,0.7,0.9*25
###2023-12-09 13:23:07.002611$GAGSA,A,3,04,19,21,27,,,,,,,,,1.1,0.7,0.9*27
###2023-12-09 13:23:07.004326$GBGSA,A,3,14,24,25,26,33,35,,,,,,,1.1,0.7,0.9*28
###2023-12-09 13:23:07.006667$GPGSV,2,1,07,03,30,251,42,04,42,310,45,16,60,218,46,26,90,099,47*7A
###2023-12-09 13:23:07.008708$GPGSV,2,2,07,28,42,080,43,29,23,052,42,31,63,057,45,,,,*42
###2023-12-09 13:23:07.011059$GLGSV,2,1,06,65,34,323,44,71,29,175,42,72,68,232,46,73,27,049,42*6E
###2023-12-09 13:23:07.012812$GLGSV,2,2,06,74,63,004,43,75,40,265,47,,,,,,,,*62
###2023-12-09 13:23:07.015153$GAGSV,1,1,04,04,36,311,44,19,77,186,40,21,81,054,46,27,26,049,39*62
###2023-12-09 13:23:07.017479$GBGSV,2,1,06,14,34,191,41,24,66,040,48,25,47,271,49,26,19,068,42*67
###2023-12-09 13:23:07.019241$GBGSV,2,2,06,33,50,221,48,35,16,061,43,,,,,,,,*64
###2023-12-09 13:23:07.020567$GNVTG,167.63,T,,M,3.32,N,6.16,K,A*25
###2023-12-09 13:23:07.022215$GNGST,182306.10,18.000,,,,0.100,0.070,0.160*50
###2023-12-09 13:23:07.023518$GNZDA,182306.10,09,12,2023,00,00*7E
###2023-12-09 13:23:07.024156$GNEBP,,,,,,M*13
###2023-12-09 13:23:07.187910$GNGGA,182306.30,4138.0318840,N,07032.3621247,W,1,24,0.7,12.826,M,-29.745,M,0.0,*54
###2023-12-09 13:23:07.387218$GNGGA,182306.50,4138.0316817,N,07032.3621219,W,1,24,0.7,12.818,M,-29.745,M,0.0,*58
###2023-12-09 13:23:07.587080$GNGGA,182306.70,4138.0314832,N,07032.3621441,W,1,24,0.7,12.824,M,-29.745,M,0.0,*5B
###2023-12-09 13:23:07.787698$GNGGA,182306.90,4138.0312833,N,07032.3621255,W,1,24,0.7,12.828,M,-29.745,M,0.0,*5D
###2023-12-09 13:23:07.991543$GNRMC,182307.10,A,4138.0310881,N,07032.3620964,W,3.52,177.41,091223,,,A*50
###2023-12-09 13:23:07.994427$GNGGA,182307.10,4138.0310881,N,07032.3620964,W,1,24,0.7,12.823,M,-29.745,M,0.0,*5C
###2023-12-09 13:23:07.996242$GPGSA,A,3,03,04,16,26,28,29,31,,,,,,1.1,0.7,0.9*3B
###2023-12-09 13:23:07.997963$GLGSA,A,3,65,71,72,73,74,75,,,,,,,1.1,0.7,0.9*25
###2023-12-09 13:23:07.999561$GAGSA,A,3,04,19,21,27,,,,,,,,,1.1,0.7,0.9*27
###2023-12-09 13:23:08.001272$GBGSA,A,3,14,24,25,26,33,35,,,,,,,1.1,0.7,0.9*28
###2023-12-09 13:23:08.003609$GPGSV,2,1,07,03,30,251,41,04,42,310,44,16,60,218,45,26,90,099,47*7B
###2023-12-09 13:23:08.005645$GPGSV,2,2,07,28,42,080,44,29,23,052,42,31,63,057,46,,,,*46
###2023-12-09 13:23:08.007980$GLGSV,2,1,06,65,34,323,43,71,29,175,42,72,68,232,45,73,27,049,43*6B
###2023-12-09 13:23:08.009762$GLGSV,2,2,06,74,63,004,43,75,40,265,46,,,,,,,,*63
###2023-12-09 13:23:08.012097$GAGSV,1,1,04,04,36,311,43,19,77,186,39,21,81,054,45,27,26,049,40*66
###2023-12-09 13:23:08.014424$GBGSV,2,1,06,14,34,191,41,24,66,040,48,25,47,271,47,26,19,068,43*68
###2023-12-09 13:23:08.016180$GBGSV,2,2,06,33,50,221,45,35,16,061,44,,,,,,,,*6E
###2023-12-09 13:23:08.017509$GNVTG,177.41,T,,M,3.52,N,6.52,K,A*22
###2023-12-09 13:23:08.019165$GNGST,182307.10,18.000,,,,0.100,0.070,0.160*51
###2023-12-09 13:23:08.020453$GNZDA,182307.10,09,12,2023,00,00*7F
###2023-12-09 13:23:08.021092$GNEBP,,,,,,M*13
###2023-12-09 13:23:08.187582$GNGGA,182307.30,4138.0308874,N,07032.3620942,W,1,24,0.7,12.837,M,-29.745,M,0.0,*5C
###2023-12-09 13:23:08.387197$GNGGA,182307.50,4138.0306870,N,07032.3621141,W,1,24,0.7,12.838,M,-29.745,M,0.0,*55
###2023-12-09 13:23:08.590285$GNGGA,182307.70,4138.0304871,N,07032.3621138,W,1,24,0.7,12.837,M,-29.745,M,0.0,*55
###2023-12-09 13:23:08.789054$GNGGA,182307.90,4138.0302849,N,07032.3620942,W,1,24,0.7,12.836,M,-29.745,M,0.0,*53
###2023-12-09 13:23:09.004583$GNRMC,182308.10,A,4138.0300893,N,07032.3621141,W,3.58,190.92,091223,,,A*5E
###2023-12-09 13:23:09.007465$GNGGA,182308.10,4138.0300893,N,07032.3621141,W,1,24,0.7,12.853,M,-29.745,M,0.0,*58
###2023-12-09 13:23:09.009538$GPGSA,A,3,03,04,16,26,28,29,31,,,,,,1.1,0.7,0.9*3B
###2023-12-09 13:23:09.011280$GLGSA,A,3,65,71,72,73,74,75,,,,,,,1.1,0.7,0.9*25
###2023-12-09 13:23:09.012873$GAGSA,A,3,04,19,21,27,,,,,,,,,1.1,0.7,0.9*27
###2023-12-09 13:23:09.014589$GBGSA,A,3,14,24,25,26,33,35,,,,,,,1.1,0.7,0.9*28
###2023-12-09 13:23:09.016920$GPGSV,2,1,07,03,30,251,41,04,42,310,45,16,60,218,45,26,90,099,48*75
###2023-12-09 13:23:09.018972$GPGSV,2,2,07,28,42,080,45,29,23,052,41,31,63,057,47,,,,*45
###2023-12-09 13:23:09.021297$GLGSV,2,1,06,65,34,323,42,71,29,175,42,72,68,232,46,73,27,049,44*6E
###2023-12-09 13:23:09.023051$GLGSV,2,2,06,74,63,004,43,75,40,265,47,,,,,,,,*62
###2023-12-09 13:23:09.025376$GAGSV,1,1,04,04,36,311,44,19,77,186,39,21,81,054,45,27,26,049,40*61
###2023-12-09 13:23:09.027716$GBGSV,2,1,06,14,34,191,42,24,66,040,49,25,47,271,47,26,19,068,44*6D
