###2023-12-09 13:05:03.366794$GNGGA,180502.50,4138.0577947,N,07032.2806811,W,1,24,0.6,13.320,M,-29.743,M,0.0,*53
###2023-12-09 13:05:03.567093$GNGGA,180502.70,4138.0578078,N,07032.2804245,W,1,24,0.6,13.348,M,-29.743,M,0.0,*5C
###2023-12-09 13:05:03.767367$GNGGA,180502.90,4138.0578259,N,07032.2801729,W,1,24,0.6,13.323,M,-29.743,M,0.0,*54
###2023-12-09 13:05:03.968812$GNRMC,180503.10,A,4138.0578074,N,07032.2799204,W,3.56,100.68,091223,,,A*5A
###2023-12-09 13:05:03.971680$GNGGA,180503.10,4138.0578074,N,07032.2799204,W,1,24,0.6,13.325,M,-29.743,M,0.0,*52
###2023-12-09 13:05:03.973536$GPGSA,A,3,03,04,16,26,28,29,31,32,,,,,1.1,0.6,0.9*3B
###2023-12-09 13:05:03.975269$GLGSA,A,3,65,71,72,73,74,75,,,,,,,1.1,0.6,0.9*24
###2023-12-09 13:05:03.976857$GAGSA,A,3,04,19,21,27,,,,,,,,,1.1,0.6,0.9*26
###2023-12-09 13:05:03.978505$GBGSA,A,3,14,24,25,26,33,,,,,,,,1.1,0.6,0.9*2F
###2023-12-09 13:05:03.980846$GPGSV,2,1,08,03,34,259,43,04,33,311,42,16,51,213,46,26,81,210,47*72
###2023-12-09 13:05:03.983193$GPGSV,2,2,08,28,48,071,44,29,25,060,42,31,68,040,46,32,18,140,39*70
###2023-12-09 13:05:03.985526$GLGSV,2,1,06,65,26,327,42,71,39,173,45,72,73,261,46,73,34,043,44*6D
###2023-12-09 13:05:03.987277$GLGSV,2,2,06,74,69,343,43,75,33,255,46,,,,,,,,*6E
###2023-12-09 13:05:03.989600$GAGSV,1,1,04,04,30,312,41,19,83,207,40,21,86,104,45,27,32,048,42*6B
###2023-12-09 13:05:03.991939$GBGSV,2,1,05,14,42,192,44,24,72,028,49,25,42,263,47,26,25,063,43*64
###2023-12-09 13:05:03.993391$GBGSV,2,2,05,33,56,230,48,,,,,,,,,,,,*50
###2023-12-09 13:05:03.994720$GNVTG,100.68,T,,M,3.56,N,6.59,K,A*26
###2023-12-09 13:05:03.996362$GNGST,180503.10,18.000,,,,0.081,0.067,0.160*5F
###2023-12-09 13:05:03.997650$GNZDA,180503.10,09,12,2023,00,00*7F
###2023-12-09 13:05:03.998288$GNEBP,,,,,,M*13
###2023-12-09 13:05:04.166306$GNGGA,180503.30,4138.0577686,N,07032.2796638,W,1,24,0.6,13.339,M,-29.743,M,0.0,*5D
###2023-12-09 13:05:04.366876$GNGGA,180503.50,4138.0577511,N,07032.2794126,W,1,24,0.6,13.345,M,-29.743,M,0.0,*57
###2023-12-09 13:05:04.567472$GNGGA,180503.70,4138.0577427,N,07032.2791516,W,1,24,0.6,13.341,M,-29.743,M,0.0,*57
###2023-12-09 13:05:04.767406$GNGGA,180503.90,4138.0577100,N,07032.2788925,W,1,24,0.6,13.319,M,-29.743,M,0.0,*50
###2023-12-09 13:05:04.980186$GNRMC,180504.10,A,4138.0576771,N,07032.2786338,W,3.52,98.69,091223,,,A*64
###2023-12-09 13:05:04.983075$GNGGA,180504.10,4138.0576771,N,07032.2786338,W,1,24,0.6,13.323,M,-29.743,M,0.0,*5F
###2023-12-09 13:05:04.984932$GPGSA,A,3,03,04,16,26,28,29,31,32,,,,,1.1,0.6,0.9*3B
###2023-12-09 13:05:04.986656$GLGSA,A,3,65,71,72,73,74,75,,,,,,,1.1,0.6,0.9*24
###2023-12-09 13:05:04.988238$GAGSA,A,3,04,19,21,27,,,,,,,,,1.1,0.6,0.9*26
###2023-12-09 13:05:04.989875$GBGSA,A,3,14,24,25,26,33,,,,,,,,1.1,0.6,0.9*2F
###2023-12-09 13:05:04.992200$GPGSV,2,1,08,03,34,259,44,04,34,311,41,16,51,213,47,26,81,210,48*7F
###2023-12-09 13:05:04.994522$GPGSV,2,2,08,28,48,071,44,29,25,060,41,31,68,040,46,32,18,140,40*7D
###2023-12-09 13:05:04.996858$GLGSV,2,1,06,65,26,327,40,71,39,173,46,72,73,261,46,73,34,043,44*6C
###2023-12-09 13:05:04.998608$GLGSV,2,2,06,74,69,343,43,75,33,255,46,,,,,,,,*6E
###2023-12-09 13:05:05.000924$GAGSV,1,1,04,04,30,312,41,19,83,207,41,21,86,104,46,27,32,048,44*6F
###2023-12-09 13:05:05.003255$GBGSV,2,1,05,14,42,192,45,24,72,028,48,25,42,263,47,26,25,063,42*65
###2023-12-09 13:05:05.004704$GBGSV,2,2,05,33,56,230,48,,,,,,,,,,,,*50
###2023-12-09 13:05:05.005989$GNVTG,98.69,T,,M,3.52,N,6.52,K,A*18
###2023-12-09 13:05:05.007651$GNGST,180504.10,18.000,,,,0.081,0.067,0.160*58
###2023-12-09 13:05:05.008945$GNZDA,180504.10,09,12,2023,00,00*78
###2023-12-09 13:05:05.009585$GNEBP,,,,,,M*13
###2023-12-09 13:05:05.166276$GNGGA,180504.30,4138.0576596,N,07032.2783742,W,1,24,0.6,13.344,M,-29.743,M,0.0,*5B
###2023-12-09 13:05:05.367103$GNGGA,180504.50,4138.0576558,N,07032.2781124,W,1,24,0.6,13.348,M,-29.743,M,0.0,*57
###2023-12-09 13:05:05.567096$GNGGA,180504.70,4138.0576219,N,07032.2778422,W,1,24,0.6,13.319,M,-29.743,M,0.0,*56
###2023-12-09 13:05:05.767166$GNGGA,180504.90,4138.0576110,N,07032.2775870,W,1,24,0.6,13.325,M,-29.743,M,0.0,*5B
###2023-12-09 13:05:05.968279$GNRMC,180505.10,A,4138.0576372,N,07032.2773310,W,3.62,83.41,091223,,,A*61
###2023-12-09 13:05:05.971172$GNGGA,180505.10,4138.0576372,N,07032.2773310,W,1,24,0.6,13.364,M,-29.743,M,0.0,*5A
###2023-12-09 13:05:05.973024$GPGSA,A,3,03,04,16,26,28,29,31,32,,,,,1.1,0.6,0.9*3B
###2023-12-09 13:05:05.974750$GLGSA,A,3,65,71,72,73,74,75,,,,,,,1.1,0.6,0.9*24
###2023-12-09 13:05:05.976325$GAGSA,A,3,04,19,21,27,,,,,,,,,1.1,0.6,0.9*26
###2023-12-09 13:05:05.977959$GBGSA,A,3,14,24,25,26,33,,,,,,,,1.1,0.6,0.9*2F
###2023-12-09 13:05:05.980280$GPGSV,2,1,08,03,34,259,44,04,34,311,45,16,51,213,46,26,81,210,48*7A
###2023-12-09 13:05:05.982603$GPGSV,2,2,08,28,48,071,42,29,25,060,39,31,68,040,46,32,18,140,40*74
###2023-12-09 13:05:05.984920$GLGSV,2,1,06,65,26,327,41,71,39,173,45,72,73,261,46,73,34,043,45*6F
###2023-12-09 13:05:05.986662$GLGSV,2,2,06,74,69,343,43,75,33,255,46,,,,,,,,*6E
###2023-12-09 13:05:05.988977$GAGSV,1,1,04,04,30,312,42,19,83,207,40,21,86,104,46,27,32,048,42*6B
###2023-12-09 13:05:05.991307$GBGSV,2,1,05,14,42,192,45,24,72,028,48,25,42,263,46,26,25,063,43*65
###2023-12-09 13:05:05.992753$GBGSV,2,2,05,33,56,230,48,,,,,,,,,,,,*50
###2023-12-09 13:05:05.994032$GNVTG,83.41,T,,M,3.62,N,6.70,K,A*1B
###2023-12-09 13:05:05.995683$GNGST,180505.10,18.000,,,,0.081,0.067,0.160*59
###2023-12-09 13:05:05.996969$GNZDA,180505.10,09,12,2023,00,00*79
###2023-12-09 13:05:05.997602$GNEBP,,,,,,M*13
###2023-12-09 13:05:06.166263$GNGGA,180505.30,4138.0576337,N,07032.2770611,W,1,24,0.6,13.350,M,-29.743,M,0.0,*59
###2023-12-09 13:05:06.367203$GNGGA,180505.50,4138.0576031,N,07032.2768048,W,1,24,0.6,13.310,M,-29.743,M,0.0,*5D
###2023-12-09 13:05:06.567202$GNGGA,180505.70,4138.0576197,N,07032.2765593,W,1,24,0.6,13.340,M,-29.743,M,0.0,*59
###2023-12-09 13:05:06.767853$GNGGA,180505.90,4138.0576501,N,07032.2763040,W,1,24,0.6,13.357,M,-29.743,M,0.0,*57
###2023-12-09 13:05:06.972867$GNRMC,180506.10,A,4138.0576428,N,07032.2760459,W,3.46,97.88,091223,,,A*64
###2023-12-09 13:05:06.975758$GNGGA,180506.10,4138.0576428,N,07032.2760459,W,1,24,0.6,13.335,M,-29.743,M,0.0,*5D
###2023-12-09 13:05:06.977623$GPGSA,A,3,03,04,16,26,28,29,31,32,,,,,1.1,0.6,0.9*3B
###2023-12-09 13:05:06.979357$GLGSA,A,3,65,71,72,73,74,75,,,,,,,1.1,0.6,0.9*24
###2023-12-09 13:05:06.980948$GAGSA,A,3,04,19,21,27,,,,,,,,,1.1,0.6,0.9*26
###2023-12-09 13:05:06.982613$GBGSA,A,3,14,24,25,26,33,,,,,,,,1.1,0.6,0.9*2F
###2023-12-09 13:05:06.984955$GPGSV,2,1,08,03,34,259,44,04,34,311,42,16,51,213,46,26,81,210,48*7D
###2023-12-09 13:05:06.987308$GPGSV,2,2,08,28,48,071,44,29,25,060,39,31,68,040,46,32,18,140,39*7C
###2023-12-09 13:05:06.989648$GLGSV,2,1,06,65,26,327,40,71,39,173,46,72,73,261,47,73,34,043,44*6D
###2023-12-09 13:05:06.991415$GLGSV,2,2,06,74,69,343,43,75,33,255,46,,,,,,,,*6E
###2023-12-09 13:05:06.993758$GAGSV,1,1,04,04,30,312,40,19,83,207,41,21,86,104,46,27,32,048,43*69
###2023-12-09 13:05:06.996111$GBGSV,2,1,05,14,42,192,45,24,72,028,49,25,42,263,47,26,25,063,42*64
###2023-12-09 13:05:06.997570$GBGSV,2,2,05,33,56,230,48,,,,,,,,,,,,*50
###2023-12-09 13:05:06.998874$GNVTG,97.88,T,,M,3.46,N,6.41,K,A*1F
###2023-12-09 13:05:07.000523$GNGST,180506.10,18.000,,,,0.082,0.067,0.160*59
###2023-12-09 13:05:07.001816$GNZDA,180506.10,09,12,2023,00,00*7A
###2023-12-09 13:05:07.002458$GNEBP,,,,,,M*13
###2023-12-09 13:05:07.167256$GNGGA,180506.30,4138.0576231,N,07032.2757941,W,1,24,0.6,13.330,M,-29.743,M,0.0,*54
###2023-12-09 13:05:07.367743$GNGGA,180506.50,4138.0576344,N,07032.2755391,W,1,24,0.6,13.346,M,-29.743,M,0.0,*55
###2023-12-09 13:05:07.567289$GNGGA,180506.70,4138.0576486,N,07032.2752744,W,1,24,0.6,13.332,M,-29.743,M,0.0,*56
###2023-12-09 13:05:07.767118$GNGGA,180506.90,4138.0576337,N,07032.2750210,W,1,24,0.6,13.325,M,-29.743,M,0.0,*55
###2023-12-09 13:05:07.971522$GNRMC,180507.10,A,4138.0576053,N,07032.2747659,W,3.54,96.56,091223,,,A*6B
###2023-12-09 13:05:07.974394$GNGGA,180507.10,4138.0576053,N,07032.2747659,W,1,24,0.6,13.338,M,-29.743,M,0.0,*5E
###2023-12-09 13:05:07.976265$GPGSA,A,3,03,04,16,26,28,29,31,32,,,,,1.1,0.6,0.9*3B
###2023-12-09 13:05:07.978232$GLGSA,A,3,65,71,72,73,74,75,,,,,,,1.1,0.6,0.9*24
###2023-12-09 13:05:07.979833$GAGSA,A,3,04,19,21,27,,,,,,,,,1.1,0.6,0.9*26
###2023-12-09 13:05:07.981482$GBGSA,A,3,14,24,25,26,33,,,,,,,,1.1,0.6,0.9*2F
###2023-12-09 13:05:07.983822$GPGSV,2,1,08,03,34,259,45,04,34,311,43,16,51,213,48,26,81,210,48*73
###2023-12-09 13:05:07.986153$GPGSV,2,2,08,28,48,071,45,29,25,060,41,31,68,040,47,32,18,140,42*7F
###2023-12-09 13:05:07.988496$GLGSV,2,1,06,65,26,327,40,71,39,173,46,72,73,261,46,73,34,043,44*6C
###2023-12-09 13:05:07.990232$GLGSV,2,2,06,74,69,343,43,75,33,255,46,,,,,,,,*6E
###2023-12-09 13:05:07.992568$GAGSV,1,1,04,04,30,312,40,19,83,207,41,21,86,104,46,27,32,048,43*69
###2023-12-09 13:05:07.994902$GBGSV,2,1,05,14,42,192,45,24,72,028,47,25,42,263,46,26,25,063,41*68
###2023-12-09 13:05:07.996352$GBGSV,2,2,05,33,56,230,48,,,,,,,,,,,,*50
