###2023-12-09 12:52:06.982671$GNGST,175206.10,18.000,,,,0.076,0.068,0.160*50
###2023-12-09 12:52:06.983990$GNZDA,175206.10,09,12,2023,00,00*77
###2023-12-09 12:52:06.984638$GNEBP,,,,,,M*13
###2023-12-09 12:52:07.153469$GNGGA,175206.30,4138.0612636,N,07032.3843006,W,1,24,0.6,13.252,M,-29.744,M,0.0,*58
###2023-12-09 12:52:07.354617$GNGGA,175206.50,4138.0612974,N,07032.3843389,W,1,24,0.6,13.247,M,-29.744,M,0.0,*57
###2023-12-09 12:52:07.554647$GNGGA,175206.70,4138.0613289,N,07032.3843743,W,1,24,0.6,13.235,M,-29.744,M,0.0,*5A
###2023-12-09 12:52:07.755491$GNGGA,175206.90,4138.0613365,N,07032.3843867,W,1,24,0.6,13.247,M,-29.744,M,0.0,*5B
###2023-12-09 12:52:07.955866$GNRMC,175207.10,A,4138.0613337,N,07032.3843822,W,0.04,317.75,091223,,,A*52
###2023-12-09 12:52:07.959343$GNGGA,175207.10,4138.0613337,N,07032.3843822,W,1,24,0.6,13.257,M,-29.744,M,0.0,*55
###2023-12-09 12:52:07.961575$GPGSA,A,3,03,04,16,26,28,29,31,32,,,,,1.1,0.6,0.9*3B
###2023-12-09 12:52:07.963666$GLGSA,A,3,65,71,72,73,74,75,,,,,,,1.1,0.6,0.9*24
###2023-12-09 12:52:07.965584$GAGSA,A,3,04,19,21,27,,,,,,,,,1.1,0.6,0.9*26
###2023-12-09 12:52:07.967590$GBGSA,A,3,14,24,25,26,33,,,,,,,,1.1,0.6,0.9*2F
###2023-12-09 12:52:07.970396$GPGSV,2,1,08,03,37,267,44,04,29,311,44,16,45,210,46,26,75,209,49*7D
###2023-12-09 12:52:07.973262$GPGSV,2,2,08,28,52,066,45,29,26,065,39,31,71,026,47,32,23,138,45*73
###2023-12-09 12:52:07.976094$GLGSV,2,1,06,65,19,329,43,71,47,171,49,72,72,288,46,73,40,038,43*67
###2023-12-09 12:52:07.978198$GLGSV,2,2,06,74,71,321,43,75,28,248,46,,,,,,,,*65
###2023-12-09 12:52:07.981018$GAGSV,1,1,04,04,26,312,42,19,85,258,40,21,83,157,46,27,36,048,42*67
###2023-12-09 12:52:07.983840$GBGSV,2,1,05,14,48,194,46,24,77,014,48,25,37,258,46,26,29,060,43*65
###2023-12-09 12:52:07.985588$GBGSV,2,2,05,33,60,240,48,,,,,,,,,,,,*52
###2023-12-09 12:52:07.987191$GNVTG,317.75,T,,M,0.04,N,0.07,K,A*27
###2023-12-09 12:52:07.989184$GNGST,175207.10,18.000,,,,0.076,0.067,0.160*5E
###2023-12-09 12:52:07.990759$GNZDA,175207.10,09,12,2023,00,00*76
###2023-12-09 12:52:07.991531$GNEBP,,,,,,M*13
###2023-12-09 12:52:08.156659$GNGGA,175207.30,4138.0613412,N,07032.3843898,W,1,24,0.6,13.246,M,-29.744,M,0.0,*56
###2023-12-09 12:52:08.354742$GNGGA,175207.50,4138.0613730,N,07032.3844276,W,1,24,0.6,13.243,M,-29.744,M,0.0,*5B
###2023-12-09 12:52:08.553434$GNGGA,175207.70,4138.0614039,N,07032.3844647,W,1,24,0.6,13.228,M,-29.744,M,0.0,*5B
###2023-12-09 12:52:08.753764$GNGGA,175207.90,4138.0614093,N,07032.3844706,W,1,24,0.6,13.234,M,-29.744,M,0.0,*5C
###2023-12-09 12:52:08.958528$GNRMC,175208.10,A,4138.0614063,N,07032.3844647,W,0.16,318.50,091223,,,A*59
###2023-12-09 12:52:08.961397$GNGGA,175208.10,4138.0614063,N,07032.3844647,W,1,24,0.6,13.235,M,-29.744,M,0.0,*51
###2023-12-09 12:52:08.963267$GPGSA,A,3,03,04,16,26,28,29,31,32,,,,,1.1,0.6,0.9*3B
###2023-12-09 12:52:08.964983$GLGSA,A,3,65,71,72,73,74,75,,,,,,,1.1,0.6,0.9*24
###2023-12-09 12:52:08.966576$GAGSA,A,3,04,19,21,27,,,,,,,,,1.1,0.6,0.9*26
###2023-12-09 12:52:08.968228$GBGSA,A,3,14,24,25,26,33,,,,,,,,1.1,0.6,0.9*2F
###2023-12-09 12:52:08.970559$GPGSV,2,1,08,03,37,267,45,04,29,311,43,16,45,210,47,26,75,209,49*7A
###2023-12-09 12:52:08.972908$GPGSV,2,2,08,28,52,066,45,29,26,065,41,31,71,026,47,32,23,138,46*7F
###2023-12-09 12:52:08.975264$GLGSV,2,1,06,65,19,329,43,71,47,171,48,72,72,288,46,73,40,038,43*66
###2023-12-09 12:52:08.977010$GLGSV,2,2,06,74,71,321,43,75,28,248,46,,,,,,,,*65
###2023-12-09 12:52:08.979343$GAGSV,1,1,04,04,26,312,42,19,85,252,41,21,83,157,46,27,36,048,43*6D
###2023-12-09 12:52:08.981700$GBGSV,2,1,05,14,48,194,46,24,77,014,48,25,37,258,45,26,29,060,43*66
###2023-12-09 12:52:08.983175$GBGSV,2,2,05,33,60,240,48,,,,,,,,,,,,*52
###2023-12-09 12:52:08.984498$GNVTG,318.50,T,,M,0.16,N,0.29,K,A*20
###2023-12-09 12:52:08.986138$GNGST,175208.10,18.000,,,,0.076,0.067,0.160*51
###2023-12-09 12:52:08.987441$GNZDA,175208.10,09,12,2023,00,00*79
###2023-12-09 12:52:08.988081$GNEBP,,,,,,M*13
###2023-12-09 12:52:09.154493$GNGGA,175208.30,4138.0614240,N,07032.3844865,W,1,24,0.6,13.238,M,-29.744,M,0.0,*53
###2023-12-09 12:52:09.355794$GNGGA,175208.50,4138.0614542,N,07032.3845256,W,1,24,0.6,13.230,M,-29.744,M,0.0,*53
###2023-12-09 12:52:09.554743$GNGGA,175208.70,4138.0614755,N,07032.3845520,W,1,24,0.6,13.220,M,-29.744,M,0.0,*52
###2023-12-09 12:52:09.754669$GNGGA,175208.90,4138.0614797,N,07032.3845558,W,1,24,0.6,13.226,M,-29.744,M,0.0,*5B
###2023-12-09 12:52:09.952459$GNRMC,175209.10,A,4138.0614817,N,07032.3845599,W,0.25,318.50,091223,,,A*52
###2023-12-09 12:52:09.955322$GNGGA,175209.10,4138.0614817,N,07032.3845599,W,1,24,0.6,13.223,M,-29.744,M,0.0,*5D
###2023-12-09 12:52:09.957179$GPGSA,A,3,03,04,16,26,28,29,31,32,,,,,1.1,0.6,0.9*3B
###2023-12-09 12:52:09.958911$GLGSA,A,3,65,71,72,73,74,75,,,,,,,1.1,0.6,0.9*24
###2023-12-09 12:52:09.960495$GAGSA,A,3,04,19,21,27,,,,,,,,,1.1,0.6,0.9*26
###2023-12-09 12:52:09.962133$GBGSA,A,3,14,24,25,26,33,,,,,,,,1.1,0.6,0.9*2F
###2023-12-09 12:52:09.964472$GPGSV,2,1,08,03,37,267,43,04,29,311,43,16,45,210,47,26,75,209,49*7C
###2023-12-09 12:52:09.966849$GPGSV,2,2,08,28,52,066,44,29,26,065,41,31,71,026,47,32,23,138,45*7D
###2023-12-09 12:52:09.969193$GLGSV,2,1,06,65,19,329,43,71,47,171,48,72,72,288,46,73,40,038,41*64
###2023-12-09 12:52:09.970954$GLGSV,2,2,06,74,71,321,43,75,28,248,45,,,,,,,,*66
###2023-12-09 12:52:09.973324$GAGSV,1,1,04,04,26,312,42,19,85,252,41,21,84,154,46,27,36,048,43*69
###2023-12-09 12:52:09.975670$GBGSV,2,1,05,14,48,194,45,24,77,014,47,25,37,258,44,26,29,060,43*6B
###2023-12-09 12:52:09.977129$GBGSV,2,2,05,33,60,240,47,,,,,,,,,,,,*5D
###2023-12-09 12:52:09.978459$GNVTG,318.50,T,,M,0.25,N,0.47,K,A*28
###2023-12-09 12:52:09.980124$GNGST,175209.10,18.000,,,,0.075,0.067,0.160*53
###2023-12-09 12:52:09.981420$GNZDA,175209.10,09,12,2023,00,00*78
###2023-12-09 12:52:09.982060$GNEBP,,,,,,M*13
###2023-12-09 12:52:10.150181$GNGGA,175209.30,4138.0615008,N,07032.3845853,W,1,24,0.6,13.224,M,-29.744,M,0.0,*54
###2023-12-09 12:52:10.351874$GNGGA,175209.50,4138.0615318,N,07032.3846237,W,1,24,0.6,13.223,M,-29.744,M,0.0,*5C
###2023-12-09 12:52:10.551829$GNGGA,175209.70,4138.0615472,N,07032.3846429,W,1,24,0.6,13.222,M,-29.744,M,0.0,*5D
###2023-12-09 12:52:10.750775$GNGGA,175209.90,4138.0615487,N,07032.3846458,W,1,24,0.6,13.234,M,-29.744,M,0.0,*58
###2023-12-09 12:52:10.951585$GNRMC,175210.10,A,4138.0615546,N,07032.3846575,W,0.41,318.50,091223,,,A*51
###2023-12-09 12:52:10.954459$GNGGA,175210.10,4138.0615546,N,07032.3846575,W,1,24,0.6,13.234,M,-29.744,M,0.0,*5A
###2023-12-09 12:52:10.956334$GPGSA,A,3,03,04,16,26,28,29,31,32,,,,,1.1,0.6,0.9*3B
###2023-12-09 12:52:10.958050$GLGSA,A,3,65,71,72,73,74,75,,,,,,,1.1,0.6,0.9*24
###2023-12-09 12:52:10.959677$GAGSA,A,3,04,19,21,27,,,,,,,,,1.1,0.6,0.9*26
###2023-12-09 12:52:10.961321$GBGSA,A,3,14,24,25,26,33,,,,,,,,1.1,0.6,0.9*2F
###2023-12-09 12:52:10.963660$GPGSV,2,1,08,03,37,267,42,04,29,311,42,16,45,210,46,26,75,209,49*7D
###2023-12-09 12:52:10.966025$GPGSV,2,2,08,28,52,066,44,29,26,065,41,31,71,026,46,32,23,138,45*7C
###2023-12-09 12:52:10.968380$GLGSV,2,1,06,65,19,329,43,71,47,171,49,72,72,288,46,73,40,038,42*66
###2023-12-09 12:52:10.970129$GLGSV,2,2,06,74,71,321,43,75,28,248,46,,,,,,,,*65
###2023-12-09 12:52:10.972473$GAGSV,1,1,04,04,26,312,41,19,85,252,40,21,84,154,46,27,36,048,41*69
###2023-12-09 12:52:10.974811$GBGSV,2,1,05,14,48,194,46,24,77,014,47,25,37,258,44,26,29,060,43*68
###2023-12-09 12:52:10.976261$GBGSV,2,2,05,33,60,240,47,,,,,,,,,,,,*5D
###2023-12-09 12:52:10.977583$GNVTG,318.50,T,,M,0.41,N,0.76,K,A*28
###2023-12-09 12:52:10.979238$GNGST,175210.10,18.000,,,,0.075,0.067,0.160*5B
###2023-12-09 12:52:10.980530$GNZDA,175210.10,09,12,2023,00,00*70
###2023-12-09 12:52:10.981165$GNEBP,,,,,,M*13
###2023-12-09 12:52:11.150950$GNGGA,175210.30,4138.0615800,N,07032.3846920,W,1,24,0.6,13.232,M,-29.744,M,0.0,*5D
###2023-12-09 12:52:11.351780$GNGGA,175210.50,4138.0616101,N,07032.3847299,W,1,24,0.6,13.225,M,-29.744,M,0.0,*5E
###2023-12-09 12:52:11.551835$GNGGA,175210.70,4138.0616218,N,07032.3847412,W,1,24,0.6,13.224,M,-29.744,M,0.0,*53
###2023-12-09 12:52:11.759583$GNGGA,175210.90,4138.0616166,N,07032.3847386,W,1,24,0.6,13.227,M,-29.744,M,0.0,*5E
###2023-12-09 12:52:11.954667$GNRMC,175211.10,A,4138.0616298,N,07032.3847562,W,0.70,318.50,091223,,,A*52
###2023-12-09 12:52:11.957557$GNGGA,175211.10,4138.0616298,N,07032.3847562,W,1,24,0.6,13.232,M,-29.744,M,0.0,*5D
###2023-12-09 12:52:11.959441$GPGSA,A,3,03,04,16,26,28,29,31,32,,,,,1.1,0.6,0.9*3B
###2023-12-09 12:52:11.961157$GLGSA,A,3,65,71,72,73,74,75,,,,,,,1.1,0.6,0.9*24
###2023-12-09 12:52:11.962793$GAGSA,A,3,04,19,21,27,,,,,,,,,1.1,0.6,0.9*26
###2023-12-09 12:52:11.964451$GBGSA,A,3,14,24,25,26,33,,,,,,,,1.1,0.6,0.9*2F
###2023-12-09 12:52:11.966794$GPGSV,2,1,08,03,37,267,42,04,29,311,42,16,45,210,46,26,75,209,49*7D
###2023-12-09 12:52:11.969138$GPGSV,2,2,08,28,52,066,45,29,26,065,41,31,71,026,47,32,23,138,45*7C
###2023-12-09 12:52:11.971490$GLGSV,2,1,06,65,19,329,43,71,47,171,49,72,72,288,46,73,40,038,43*67
