###2023-12-09 12:36:09.957206$GBGSV,2,1,05,14,55,197,46,24,80,348,48,25,33,253,44,26,35,057,43*6C
###2023-12-09 12:36:09.958708$GBGSV,2,2,05,33,63,253,48,,,,,,,,,,,,*53
###2023-12-09 12:36:09.960004$GNVTG,66.38,T,,M,0.74,N,1.37,K,A*1E
###2023-12-09 12:36:09.961654$GNGST,173609.10,18.000,,,,0.079,0.070,0.160*5B
###2023-12-09 12:36:09.962994$GNZDA,173609.10,09,12,2023,00,00*7A
###2023-12-09 12:36:09.963640$GNEBP,,,,,,M*13
###2023-12-09 12:36:10.133220$GNGGA,173609.30,4138.0473669,N,07032.3998423,W,1,23,0.7,13.193,M,-29.745,M,0.0,*57
###2023-12-09 12:36:10.334520$GNGGA,173609.50,4138.0473817,N,07032.3997934,W,1,23,0.7,13.195,M,-29.745,M,0.0,*54
###2023-12-09 12:36:10.532894$GNGGA,173609.70,4138.0473950,N,07032.3997437,W,1,23,0.7,13.192,M,-29.745,M,0.0,*5D
###2023-12-09 12:36:10.733327$GNGGA,173609.90,4138.0474041,N,07032.3996922,W,1,23,0.7,13.193,M,-29.745,M,0.0,*54
###2023-12-09 12:36:10.935563$GNRMC,173610.10,A,4138.0474096,N,07032.3996396,W,0.70,66.38,091223,,,A*6F
###2023-12-09 12:36:10.938435$GNGGA,173610.10,4138.0474096,N,07032.3996396,W,1,23,0.7,13.200,M,-29.745,M,0.0,*52
###2023-12-09 12:36:10.940319$GPGSA,A,3,03,04,16,26,28,29,31,32,,,,,1.2,0.7,1.0*31
###2023-12-09 12:36:10.941967$GLGSA,A,3,71,72,73,74,75,,,,,,,,1.2,0.7,1.0*2D
###2023-12-09 12:36:10.943568$GAGSA,A,3,04,19,21,27,,,,,,,,,1.2,0.7,1.0*2C
###2023-12-09 12:36:10.945210$GBGSA,A,3,14,24,25,26,33,,,,,,,,1.2,0.7,1.0*25
###2023-12-09 12:36:10.947707$GPGSV,2,1,08,03,38,276,45,04,22,311,41,16,37,207,44,26,66,206,47*7F
###2023-12-09 12:36:10.950062$GPGSV,2,2,08,28,58,056,44,29,25,074,41,31,73,001,47,32,30,134,42*79
###2023-12-09 12:36:10.952412$GLGSV,2,1,05,71,56,169,47,72,66,308,48,73,47,034,47,74,71,293,43*60
###2023-12-09 12:36:10.953868$GLGSV,2,2,05,75,22,241,43,,,,,,,,,,,,*52
###2023-12-09 12:36:10.956199$GAGSV,1,1,04,04,21,311,39,19,82,300,41,21,78,176,47,27,41,049,44*64
###2023-12-09 12:36:10.958521$GBGSV,2,1,05,14,55,197,46,24,80,348,48,25,33,253,44,26,35,057,44*6B
###2023-12-09 12:36:10.959990$GBGSV,2,2,05,33,63,253,47,,,,,,,,,,,,*5C
###2023-12-09 12:36:10.961276$GNVTG,66.38,T,,M,0.70,N,1.30,K,A*1D
###2023-12-09 12:36:10.962967$GNGST,173610.10,18.000,,,,0.080,0.070,0.160*55
###2023-12-09 12:36:10.964260$GNZDA,173610.10,09,12,2023,00,00*72
###2023-12-09 12:36:10.964900$GNEBP,,,,,,M*13
###2023-12-09 12:36:11.134259$GNGGA,173610.30,4138.0474179,N,07032.3995909,W,1,23,0.7,13.193,M,-29.745,M,0.0,*56
###2023-12-09 12:36:11.335242$GNGGA,173610.50,4138.0474296,N,07032.3995421,W,1,23,0.7,13.185,M,-29.745,M,0.0,*52
###2023-12-09 12:36:11.534611$GNGGA,173610.70,4138.0474413,N,07032.3994947,W,1,23,0.7,13.189,M,-29.745,M,0.0,*5B
###2023-12-09 12:36:11.732989$GNGGA,173610.90,4138.0474520,N,07032.3994473,W,1,23,0.7,13.195,M,-29.745,M,0.0,*53
###2023-12-09 12:36:11.934600$GNRMC,173611.10,A,4138.0474566,N,07032.3993977,W,0.66,66.38,091223,,,A*63
###2023-12-09 12:36:11.937454$GNGGA,173611.10,4138.0474566,N,07032.3993977,W,1,23,0.7,13.192,M,-29.745,M,0.0,*51
###2023-12-09 12:36:11.939317$GPGSA,A,3,03,04,16,26,28,29,31,32,,,,,1.2,0.7,1.0*31
###2023-12-09 12:36:11.940963$GLGSA,A,3,71,72,73,74,75,,,,,,,,1.2,0.7,1.0*2D
###2023-12-09 12:36:11.942544$GAGSA,A,3,04,19,21,27,,,,,,,,,1.2,0.7,1.0*2C
###2023-12-09 12:36:11.944196$GBGSA,A,3,14,24,25,26,33,,,,,,,,1.2,0.7,1.0*25
###2023-12-09 12:36:11.946531$GPGSV,2,1,08,03,38,276,45,04,22,311,40,16,37,207,46,26,66,206,47*7C
###2023-12-09 12:36:11.948911$GPGSV,2,2,08,28,58,056,45,29,25,074,41,31,73,001,47,32,30,134,41*7B
###2023-12-09 12:36:11.951276$GLGSV,2,1,05,71,56,169,47,72,66,308,47,73,47,034,47,74,71,293,43*6F
###2023-12-09 12:36:11.952727$GLGSV,2,2,05,75,22,241,42,,,,,,,,,,,,*53
###2023-12-09 12:36:11.955071$GAGSV,1,1,04,04,21,311,40,19,82,300,41,21,78,176,47,27,41,049,45*6B
###2023-12-09 12:36:11.957390$GBGSV,2,1,05,14,55,197,46,24,80,348,49,25,33,253,45,26,35,057,45*6A
###2023-12-09 12:36:11.958855$GBGSV,2,2,05,33,63,253,48,,,,,,,,,,,,*53
###2023-12-09 12:36:11.960140$GNVTG,66.38,T,,M,0.66,N,1.22,K,A*19
###2023-12-09 12:36:11.961778$GNGST,173611.10,18.000,,,,0.080,0.070,0.160*54
###2023-12-09 12:36:11.963083$GNZDA,173611.10,09,12,2023,00,00*73
###2023-12-09 12:36:11.963725$GNEBP,,,,,,M*13
###2023-12-09 12:36:12.134100$GNGGA,173611.30,4138.0474612,N,07032.3993546,W,1,23,0.7,13.192,M,-29.745,M,0.0,*5D
###2023-12-09 12:36:12.333434$GNGGA,173611.50,4138.0474758,N,07032.3993115,W,1,23,0.7,13.196,M,-29.745,M,0.0,*52
###2023-12-09 12:36:12.534925$GNGGA,173611.70,4138.0474912,N,07032.3992679,W,1,23,0.7,13.203,M,-29.745,M,0.0,*53
###2023-12-09 12:36:12.733770$GNGGA,173611.90,4138.0474972,N,07032.3992204,W,1,23,0.7,13.200,M,-29.745,M,0.0,*56
###2023-12-09 12:36:12.934434$GNRMC,173612.10,A,4138.0475012,N,07032.3991815,W,0.54,66.38,091223,,,A*61
###2023-12-09 12:36:12.937313$GNGGA,173612.10,4138.0475012,N,07032.3991815,W,1,23,0.7,13.205,M,-29.745,M,0.0,*5F
###2023-12-09 12:36:12.939179$GPGSA,A,3,03,04,16,26,28,29,31,32,,,,,1.2,0.7,1.0*31
###2023-12-09 12:36:12.940825$GLGSA,A,3,71,72,73,74,75,,,,,,,,1.2,0.7,1.0*2D
###2023-12-09 12:36:12.942405$GAGSA,A,3,04,19,21,27,,,,,,,,,1.2,0.7,1.0*2C
###2023-12-09 12:36:12.944063$GBGSA,A,3,14,24,25,26,33,,,,,,,,1.2,0.7,1.0*25
###2023-12-09 12:36:12.946384$GPGSV,2,1,08,03,38,276,45,04,22,311,41,16,37,207,45,26,66,206,47*7E
###2023-12-09 12:36:12.948743$GPGSV,2,2,08,28,58,056,45,29,25,074,41,31,73,001,47,32,30,134,42*78
###2023-12-09 12:36:12.951095$GLGSV,2,1,05,71,56,169,47,72,66,308,47,73,47,034,47,74,71,293,43*6F
###2023-12-09 12:36:12.952549$GLGSV,2,2,05,75,22,241,43,,,,,,,,,,,,*52
###2023-12-09 12:36:12.954878$GAGSV,1,1,04,04,21,311,41,19,82,300,41,21,78,176,46,27,41,049,45*6B
###2023-12-09 12:36:12.957198$GBGSV,2,1,05,14,55,197,46,24,80,348,50,25,33,253,45,26,35,057,47*60
###2023-12-09 12:36:12.958660$GBGSV,2,2,05,33,63,253,48,,,,,,,,,,,,*53
###2023-12-09 12:36:12.959951$GNVTG,66.38,T,,M,0.54,N,1.01,K,A*19
###2023-12-09 12:36:12.961594$GNGST,173612.10,18.000,,,,0.080,0.070,0.160*57
###2023-12-09 12:36:12.962895$GNZDA,173612.10,09,12,2023,00,00*70
###2023-12-09 12:36:12.963534$GNEBP,,,,,,M*13
###2023-12-09 12:36:13.134171$GNGGA,173612.30,4138.0475100,N,07032.3991425,W,1,23,0.7,13.207,M,-29.745,M,0.0,*52
###2023-12-09 12:36:13.335789$GNGGA,173612.50,4138.0475233,N,07032.3991001,W,1,23,0.7,13.213,M,-29.745,M,0.0,*50
###2023-12-09 12:36:13.534969$GNGGA,173612.70,4138.0475338,N,07032.3990588,W,1,23,0.7,13.224,M,-29.745,M,0.0,*59
###2023-12-09 12:36:13.733689$GNGGA,173612.90,4138.0475366,N,07032.3990216,W,1,23,0.7,13.228,M,-29.745,M,0.0,*50
###2023-12-09 12:36:13.935959$GNRMC,173613.10,A,4138.0475410,N,07032.3989880,W,0.52,66.38,091223,,,A*65
###2023-12-09 12:36:13.938820$GNGGA,173613.10,4138.0475410,N,07032.3989880,W,1,23,0.7,13.234,M,-29.745,M,0.0,*5F
###2023-12-09 12:36:13.940684$GPGSA,A,3,03,04,16,26,28,29,31,32,,,,,1.2,0.7,1.0*31
###2023-12-09 12:36:13.942336$GLGSA,A,3,71,72,73,74,75,,,,,,,,1.2,0.7,1.0*2D
###2023-12-09 12:36:13.943932$GAGSA,A,3,04,19,21,27,,,,,,,,,1.2,0.7,1.0*2C
###2023-12-09 12:36:13.945583$GBGSA,A,3,14,24,25,26,33,,,,,,,,1.2,0.7,1.0*25
###2023-12-09 12:36:13.947927$GPGSV,2,1,08,03,38,276,45,04,22,311,41,16,37,207,46,26,67,207,48*72
###2023-12-09 12:36:13.950278$GPGSV,2,2,08,28,58,056,45,29,25,074,41,31,73,001,48,32,30,134,41*74
###2023-12-09 12:36:13.952620$GLGSV,2,1,05,71,56,169,47,72,66,308,47,73,47,034,46,74,71,293,44*69
###2023-12-09 12:36:13.954077$GLGSV,2,2,05,75,22,241,43,,,,,,,,,,,,*52
###2023-12-09 12:36:13.956412$GAGSV,1,1,04,04,21,311,42,19,82,300,41,21,78,176,46,27,41,049,45*68
###2023-12-09 12:36:13.958749$GBGSV,2,1,05,14,55,197,47,24,80,348,49,25,33,253,45,26,35,057,46*68
###2023-12-09 12:36:13.960204$GBGSV,2,2,05,33,63,253,48,,,,,,,,,,,,*53
###2023-12-09 12:36:13.961488$GNVTG,66.38,T,,M,0.52,N,0.97,K,A*11
###2023-12-09 12:36:13.963146$GNGST,173613.10,18.000,,,,0.080,0.070,0.160*56
###2023-12-09 12:36:13.964437$GNZDA,173613.10,09,12,2023,00,00*71
###2023-12-09 12:36:13.965075$GNEBP,,,,,,M*13
###2023-12-09 12:36:14.133368$GNGGA,173613.30,4138.0475512,N,07032.3989479,W,1,23,0.7,13.239,M,-29.745,M,0.0,*59
###2023-12-09 12:36:14.334414$GNGGA,173613.50,4138.0475611,N,07032.3989058,W,1,23,0.7,13.247,M,-29.745,M,0.0,*51
###2023-12-09 12:36:14.534818$GNGGA,173613.70,4138.0475673,N,07032.3988600,W,1,23,0.7,13.247,M,-29.745,M,0.0,*5D
###2023-12-09 12:36:14.734142$GNGGA,173613.90,4138.0475665,N,07032.3988028,W,1,23,0.7,13.251,M,-29.745,M,0.0,*5F
###2023-12-09 12:36:14.935443$GNRMC,173614.10,A,4138.0475666,N,07032.3987227,W,1.17,90.38,091223,,,A*61
###2023-12-09 12:36:14.938308$GNGGA,173614.10,4138.0475666,N,07032.3987227,W,1,23,0.7,13.257,M,-29.745,M,0.0,*57
###2023-12-09 12:36:14.940183$GPGSA,A,3,03,04,16,26,28,29,31,32,,,,,1.2,0.7,1.0*31
###2023-12-09 12:36:14.941837$GLGSA,A,3,71,72,73,74,75,,,,,,,,1.2,0.7,1.0*2D
###2023-12-09 12:36:14.943438$GAGSA,A,3,04,19,21,27,,,,,,,,,1.2,0.7,1.0*2C
###2023-12-09 12:36:14.945087$GBGSA,A,3,14,24,25,26,33,,,,,,,,1.2,0.7,1.0*25
