###2023-12-09 12:51:43.350240$GNGGA,175142.50,4138.0590469,N,07032.3823850,W,1,24,0.6,13.366,M,-29.744,M,0.0,*57
###2023-12-09 12:51:43.551355$GNGGA,175142.70,4138.0590687,N,07032.3824015,W,1,24,0.6,13.360,M,-29.744,M,0.0,*5F
###2023-12-09 12:51:43.753470$GNGGA,175142.90,4138.0590597,N,07032.3823964,W,1,24,0.6,13.383,M,-29.744,M,0.0,*56
###2023-12-09 12:51:43.952003$GNRMC,175143.10,A,4138.0590608,N,07032.3823996,W,0.37,332.41,091223,,,A*58
###2023-12-09 12:51:43.954866$GNGGA,175143.10,4138.0590608,N,07032.3823996,W,1,24,0.6,13.369,M,-29.744,M,0.0,*53
###2023-12-09 12:51:43.956725$GPGSA,A,3,03,04,16,26,28,29,31,32,,,,,1.1,0.6,0.9*3B
###2023-12-09 12:51:43.958430$GLGSA,A,3,65,71,72,73,74,75,,,,,,,1.1,0.6,0.9*24
###2023-12-09 12:51:43.960029$GAGSA,A,3,04,19,21,27,,,,,,,,,1.1,0.6,0.9*26
###2023-12-09 12:51:43.961674$GBGSA,A,3,14,24,25,26,33,,,,,,,,1.1,0.6,0.9*2F
###2023-12-09 12:51:43.964011$GPGSV,2,1,08,03,37,267,45,04,29,311,41,16,45,210,47,26,75,209,48*79
###2023-12-09 12:51:43.966344$GPGSV,2,2,08,28,52,066,44,29,26,065,41,31,71,026,46,32,23,138,45*7C
###2023-12-09 12:51:43.968690$GLGSV,2,1,06,65,19,329,39,71,47,171,49,72,72,288,47,73,40,038,46*6E
###2023-12-09 12:51:43.970438$GLGSV,2,2,06,74,71,321,43,75,28,248,45,,,,,,,,*66
###2023-12-09 12:51:43.972775$GAGSV,1,1,04,04,26,312,40,19,85,258,40,21,83,157,46,27,36,048,41*66
###2023-12-09 12:51:43.975114$GBGSV,2,1,05,14,48,194,46,24,77,014,47,25,37,258,46,26,29,060,43*6A
###2023-12-09 12:51:43.976565$GBGSV,2,2,05,33,60,240,47,,,,,,,,,,,,*5D
###2023-12-09 12:51:43.977886$GNVTG,332.41,T,,M,0.37,N,0.68,K,A*2E
###2023-12-09 12:51:43.979545$GNGST,175143.10,18.000,,,,0.077,0.067,0.160*5C
###2023-12-09 12:51:43.980834$GNZDA,175143.10,09,12,2023,00,00*75
###2023-12-09 12:51:43.981474$GNEBP,,,,,,M*13
###2023-12-09 12:51:44.154524$GNGGA,175143.30,4138.0590991,N,07032.3824253,W,1,24,0.6,13.361,M,-29.744,M,0.0,*53
###2023-12-09 12:51:44.353178$GNGGA,175143.50,4138.0591450,N,07032.3824584,W,1,24,0.6,13.353,M,-29.744,M,0.0,*58
###2023-12-09 12:51:44.550404$GNGGA,175143.70,4138.0591618,N,07032.3824715,W,1,24,0.6,13.355,M,-29.744,M,0.0,*58
###2023-12-09 12:51:44.750593$GNGGA,175143.90,4138.0591593,N,07032.3824681,W,1,24,0.6,13.377,M,-29.744,M,0.0,*5A
###2023-12-09 12:51:44.967745$GNRMC,175144.10,A,4138.0591658,N,07032.3824721,W,0.35,333.09,091223,,,A*51
###2023-12-09 12:51:44.970613$GNGGA,175144.10,4138.0591658,N,07032.3824721,W,1,24,0.6,13.363,M,-29.744,M,0.0,*5F
###2023-12-09 12:51:44.972463$GPGSA,A,3,03,04,16,26,28,29,31,32,,,,,1.1,0.6,0.9*3B
###2023-12-09 12:51:44.974164$GLGSA,A,3,65,71,72,73,74,75,,,,,,,1.1,0.6,0.9*24
###2023-12-09 12:51:44.975750$GAGSA,A,3,04,19,21,27,,,,,,,,,1.1,0.6,0.9*26
###2023-12-09 12:51:44.977388$GBGSA,A,3,14,24,25,26,33,,,,,,,,1.1,0.6,0.9*2F
###2023-12-09 12:51:44.979715$GPGSV,2,1,08,03,37,267,44,04,29,311,41,16,45,210,46,26,75,209,48*79
###2023-12-09 12:51:44.982037$GPGSV,2,2,08,28,52,066,44,29,26,065,41,31,71,026,46,32,23,138,45*7C
###2023-12-09 12:51:44.984370$GLGSV,2,1,06,65,19,329,40,71,47,171,47,72,72,288,46,73,40,038,45*6C
###2023-12-09 12:51:44.986107$GLGSV,2,2,06,74,71,321,43,75,28,248,44,,,,,,,,*67
###2023-12-09 12:51:44.988437$GAGSV,1,1,04,04,26,312,41,19,85,258,40,21,83,157,46,27,36,048,41*67
###2023-12-09 12:51:44.990758$GBGSV,2,1,05,14,48,194,46,24,77,014,47,25,37,258,46,26,29,060,44*6D
###2023-12-09 12:51:44.992204$GBGSV,2,2,05,33,60,240,46,,,,,,,,,,,,*5C
###2023-12-09 12:51:44.993515$GNVTG,333.09,T,,M,0.35,N,0.65,K,A*2C
###2023-12-09 12:51:44.995168$GNGST,175144.10,18.000,,,,0.077,0.067,0.160*5B
###2023-12-09 12:51:44.996459$GNZDA,175144.10,09,12,2023,00,00*72
###2023-12-09 12:51:44.997096$GNEBP,,,,,,M*13
###2023-12-09 12:51:45.150547$GNGGA,175144.30,4138.0591938,N,07032.3824917,W,1,24,0.6,13.346,M,-29.744,M,0.0,*58
###2023-12-09 12:51:45.352167$GNGGA,175144.50,4138.0592349,N,07032.3825212,W,1,24,0.6,13.338,M,-29.744,M,0.0,*57
###2023-12-09 12:51:45.551583$GNGGA,175144.70,4138.0592578,N,07032.3825387,W,1,24,0.6,13.345,M,-29.744,M,0.0,*56
###2023-12-09 12:51:45.752481$GNGGA,175144.90,4138.0592587,N,07032.3825382,W,1,24,0.6,13.370,M,-29.744,M,0.0,*5B
###2023-12-09 12:51:45.953186$GNRMC,175145.10,A,4138.0592622,N,07032.3825432,W,0.23,333.09,091223,,,A*59
###2023-12-09 12:51:45.956074$GNGGA,175145.10,4138.0592622,N,07032.3825432,W,1,24,0.6,13.352,M,-29.744,M,0.0,*52
###2023-12-09 12:51:45.957931$GPGSA,A,3,03,04,16,26,28,29,31,32,,,,,1.1,0.6,0.9*3B
###2023-12-09 12:51:45.959661$GLGSA,A,3,65,71,72,73,74,75,,,,,,,1.1,0.6,0.9*24
###2023-12-09 12:51:45.961241$GAGSA,A,3,04,19,21,27,,,,,,,,,1.1,0.6,0.9*26
###2023-12-09 12:51:45.962897$GBGSA,A,3,14,24,25,26,33,,,,,,,,1.1,0.6,0.9*2F
###2023-12-09 12:51:45.965226$GPGSV,2,1,08,03,37,267,45,04,29,311,41,16,45,210,47,26,75,209,49*78
###2023-12-09 12:51:45.967578$GPGSV,2,2,08,28,52,066,44,29,26,065,41,31,71,026,46,32,23,138,44*7D
###2023-12-09 12:51:45.969920$GLGSV,2,1,06,65,19,329,40,71,47,171,48,72,72,288,47,73,40,038,46*61
###2023-12-09 12:51:45.971679$GLGSV,2,2,06,74,71,321,43,75,28,248,44,,,,,,,,*67
###2023-12-09 12:51:45.974004$GAGSV,1,1,04,04,26,312,40,19,85,258,40,21,83,157,46,27,36,048,40*67
###2023-12-09 12:51:45.976339$GBGSV,2,1,05,14,48,194,46,24,77,014,48,25,37,258,46,26,29,060,44*62
###2023-12-09 12:51:45.977795$GBGSV,2,2,05,33,60,240,47,,,,,,,,,,,,*5D
###2023-12-09 12:51:45.979136$GNVTG,333.09,T,,M,0.23,N,0.43,K,A*2F
###2023-12-09 12:51:45.980791$GNGST,175145.10,18.000,,,,0.077,0.067,0.160*5A
###2023-12-09 12:51:45.982083$GNZDA,175145.10,09,12,2023,00,00*73
###2023-12-09 12:51:45.982730$GNEBP,,,,,,M*13
###2023-12-09 12:51:46.150471$GNGGA,175145.30,4138.0592880,N,07032.3825658,W,1,24,0.6,13.330,M,-29.744,M,0.0,*5C
###2023-12-09 12:51:46.351071$GNGGA,175145.50,4138.0593336,N,07032.3825954,W,1,24,0.6,13.324,M,-29.744,M,0.0,*5B
###2023-12-09 12:51:46.551485$GNGGA,175145.70,4138.0593587,N,07032.3826142,W,1,24,0.6,13.331,M,-29.744,M,0.0,*5D
###2023-12-09 12:51:46.752743$GNGGA,175145.90,4138.0593543,N,07032.3826120,W,1,24,0.6,13.360,M,-29.744,M,0.0,*5B
###2023-12-09 12:51:46.953114$GNRMC,175146.10,A,4138.0593559,N,07032.3826152,W,0.35,333.09,091223,,,A*53
###2023-12-09 12:51:46.955999$GNGGA,175146.10,4138.0593559,N,07032.3826152,W,1,24,0.6,13.357,M,-29.744,M,0.0,*5A
###2023-12-09 12:51:46.957858$GPGSA,A,3,03,04,16,26,28,29,31,32,,,,,1.1,0.6,0.9*3B
###2023-12-09 12:51:46.959584$GLGSA,A,3,65,71,72,73,74,75,,,,,,,1.1,0.6,0.9*24
###2023-12-09 12:51:46.961163$GAGSA,A,3,04,19,21,27,,,,,,,,,1.1,0.6,0.9*26
###2023-12-09 12:51:46.962816$GBGSA,A,3,14,24,25,26,33,,,,,,,,1.1,0.6,0.9*2F
###2023-12-09 12:51:46.965142$GPGSV,2,1,08,03,37,267,46,04,29,311,41,16,45,210,48,26,75,209,49*74
###2023-12-09 12:51:46.967487$GPGSV,2,2,08,28,52,066,46,29,26,065,42,31,71,026,47,32,23,138,46*7F
###2023-12-09 12:51:46.969814$GLGSV,2,1,06,65,19,329,41,71,47,171,48,72,72,288,47,73,40,038,45*63
###2023-12-09 12:51:46.971580$GLGSV,2,2,06,74,71,321,43,75,28,248,46,,,,,,,,*65
###2023-12-09 12:51:46.973898$GAGSV,1,1,04,04,26,312,41,19,85,258,41,21,83,157,46,27,36,048,42*65
###2023-12-09 12:51:46.976232$GBGSV,2,1,05,14,48,194,46,24,77,014,48,25,37,258,46,26,29,060,44*62
###2023-12-09 12:51:46.977686$GBGSV,2,2,05,33,60,240,47,,,,,,,,,,,,*5D
###2023-12-09 12:51:46.979015$GNVTG,333.09,T,,M,0.35,N,0.65,K,A*2C
###2023-12-09 12:51:46.980660$GNGST,175146.10,18.000,,,,0.077,0.067,0.160*59
###2023-12-09 12:51:46.981948$GNZDA,175146.10,09,12,2023,00,00*70
###2023-12-09 12:51:46.982604$GNEBP,,,,,,M*13
###2023-12-09 12:51:47.152565$GNGGA,175146.30,4138.0593926,N,07032.3826403,W,1,24,0.6,13.347,M,-29.744,M,0.0,*5C
###2023-12-09 12:51:47.354095$GNGGA,175146.50,4138.0594360,N,07032.3826715,W,1,24,0.6,13.331,M,-29.744,M,0.0,*50
###2023-12-09 12:51:47.552225$GNGGA,175146.70,4138.0594483,N,07032.3826824,W,1,24,0.6,13.326,M,-29.744,M,0.0,*53
###2023-12-09 12:51:47.752383$GNGGA,175146.90,4138.0594516,N,07032.3826838,W,1,24,0.6,13.348,M,-29.744,M,0.0,*55
###2023-12-09 12:51:47.952753$GNRMC,175147.10,A,4138.0594729,N,07032.3826973,W,0.52,331.21,091223,,,A*52
###2023-12-09 12:51:47.955674$GNGGA,175147.10,4138.0594729,N,07032.3826973,W,1,24,0.6,13.351,M,-29.744,M,0.0,*54
###2023-12-09 12:51:47.957534$GPGSA,A,3,03,04,16,26,28,29,31,32,,,,,1.1,0.6,0.9*3B
###2023-12-09 12:51:47.959516$GLGSA,A,3,65,71,72,73,74,75,,,,,,,1.1,0.6,0.9*24
###2023-12-09 12:51:47.961104$GAGSA,A,3,04,19,21,27,,,,,,,,,1.1,0.6,0.9*26
###2023-12-09 12:51:47.962766$GBGSA,A,3,14,24,25,26,33,,,,,,,,1.1,0.6,0.9*2F
###2023-12-09 12:51:47.965089$GPGSV,2,1,08,03,37,267,44,04,29,311,42,16,45,210,46,26,75,209,48*7A
###2023-12-09 12:51:47.967434$GPGSV,2,2,08,28,52,066,45,29,26,065,41,31,71,026,47,32,23,138,45*7C
###2023-12-09 12:51:47.969753$GLGSV,2,1,06,65,19,329,43,71,47,171,48,72,72,288,47,73,40,038,45*61
###2023-12-09 12:51:47.971501$GLGSV,2,2,06,74,71,321,43,75,28,248,46,,,,,,,,*65
###2023-12-09 12:51:47.973812$GAGSV,1,1,04,04,26,312,40,19,85,258,41,21,83,157,46,27,36,048,42*64
###2023-12-09 12:51:47.976138$GBGSV,2,1,05,14,48,194,45,24,77,014,48,25,37,258,46,26,29,060,43*66
###2023-12-09 12:51:47.977585$GBGSV,2,2,05,33,60,240,46,,,,,,,,,,,,*5C
