###2023-12-09 13:22:02.585625$GNGGA,182201.70,4138.0734087,N,07032.3421363,W,1,24,0.7,13.007,M,-29.743,M,0.0,*56
###2023-12-09 13:22:02.784816$GNGGA,182201.90,4138.0736019,N,07032.3421305,W,1,24,0.7,13.019,M,-29.743,M,0.0,*52
###2023-12-09 13:22:02.988839$GNRMC,182202.10,A,4138.0737987,N,07032.3421287,W,3.62,0.93,091223,,,A*5A
###2023-12-09 13:22:02.991701$GNGGA,182202.10,4138.0737987,N,07032.3421287,W,1,24,0.7,13.033,M,-29.743,M,0.0,*55
###2023-12-09 13:22:02.993489$GPGSA,A,3,03,04,16,26,28,29,31,,,,,,1.1,0.7,0.9*3B
###2023-12-09 13:22:02.995208$GLGSA,A,3,65,71,72,73,74,75,,,,,,,1.1,0.7,0.9*25
###2023-12-09 13:22:02.996779$GAGSA,A,3,04,19,21,27,,,,,,,,,1.1,0.7,0.9*27
###2023-12-09 13:22:02.998481$GBGSA,A,3,14,24,25,26,33,35,,,,,,,1.1,0.7,0.9*28
###2023-12-09 13:22:03.000809$GPGSV,2,1,07,03,30,252,43,04,41,310,45,16,60,218,47,26,90,099,48*75
###2023-12-09 13:22:03.002846$GPGSV,2,2,07,28,42,080,43,29,23,052,40,31,63,057,46,,,,*43
###2023-12-09 13:22:03.005160$GLGSV,2,1,06,65,33,323,43,71,30,174,44,72,69,234,46,73,27,048,41*64
###2023-12-09 13:22:03.006910$GLGSV,2,2,06,74,64,002,41,75,39,263,47,,,,,,,,*69
###2023-12-09 13:22:03.009219$GAGSV,1,1,04,04,36,311,44,19,77,186,41,21,81,054,46,27,27,049,40*6C
###2023-12-09 13:22:03.011546$GBGSV,2,1,06,14,35,191,42,24,67,039,47,25,47,270,47,26,20,067,40*6D
###2023-12-09 13:22:03.013284$GBGSV,2,2,06,33,51,222,47,35,16,062,42,,,,,,,,*6B
###2023-12-09 13:22:03.014536$GNVTG,0.93,T,,M,3.62,N,6.70,K,A*2F
###2023-12-09 13:22:03.016184$GNGST,182202.10,18.000,,,,0.100,0.072,0.170*56
###2023-12-09 13:22:03.017467$GNZDA,182202.10,09,12,2023,00,00*7B
###2023-12-09 13:22:03.018104$GNEBP,,,,,,M*13
###2023-12-09 13:22:03.192031$GNGGA,182202.30,4138.0739975,N,07032.3421195,W,1,24,0.7,13.028,M,-29.743,M,0.0,*5E
###2023-12-09 13:22:03.383435$GNGGA,182202.50,4138.0741972,N,07032.3421216,W,1,24,0.7,13.014,M,-29.743,M,0.0,*57
###2023-12-09 13:22:03.583341$GNGGA,182202.70,4138.0743945,N,07032.3421460,W,1,24,0.7,13.009,M,-29.743,M,0.0,*58
###2023-12-09 13:22:03.785725$GNGGA,182202.90,4138.0745849,N,07032.3421748,W,1,24,0.7,13.005,M,-29.743,M,0.0,*58
###2023-12-09 13:22:03.988951$GNRMC,182203.10,A,4138.0747774,N,07032.3421896,W,3.44,357.36,091223,,,A*5E
###2023-12-09 13:22:03.991828$GNGGA,182203.10,4138.0747774,N,07032.3421896,W,1,24,0.7,13.009,M,-29.743,M,0.0,*52
###2023-12-09 13:22:03.993626$GPGSA,A,3,03,04,16,26,28,29,31,,,,,,1.1,0.7,0.9*3B
###2023-12-09 13:22:03.995358$GLGSA,A,3,65,71,72,73,74,75,,,,,,,1.1,0.7,0.9*25
###2023-12-09 13:22:03.996933$GAGSA,A,3,04,19,21,27,,,,,,,,,1.1,0.7,0.9*27
###2023-12-09 13:22:03.998651$GBGSA,A,3,14,24,25,26,33,35,,,,,,,1.1,0.7,0.9*28
###2023-12-09 13:22:04.000976$GPGSV,2,1,07,03,30,252,44,04,41,310,44,16,60,218,47,26,90,099,48*73
###2023-12-09 13:22:04.003024$GPGSV,2,2,07,28,42,080,44,29,23,052,41,31,63,057,46,,,,*45
###2023-12-09 13:22:04.005386$GLGSV,2,1,06,65,33,323,39,71,30,174,45,72,69,234,46,73,27,048,41*68
###2023-12-09 13:22:04.007147$GLGSV,2,2,06,74,64,002,41,75,39,263,47,,,,,,,,*69
###2023-12-09 13:22:04.009463$GAGSV,1,1,04,04,36,311,41,19,77,186,41,21,81,054,46,27,26,049,40*68
###2023-12-09 13:22:04.011796$GBGSV,2,1,06,14,35,191,43,24,67,039,48,25,47,270,47,26,20,067,43*60
###2023-12-09 13:22:04.013534$GBGSV,2,2,06,33,51,222,48,35,16,062,41,,,,,,,,*67
###2023-12-09 13:22:04.014860$GNVTG,357.36,T,,M,3.44,N,6.37,K,A*26
###2023-12-09 13:22:04.016501$GNGST,182203.10,18.000,,,,0.100,0.072,0.170*57
###2023-12-09 13:22:04.017784$GNZDA,182203.10,09,12,2023,00,00*7A
###2023-12-09 13:22:04.018419$GNEBP,,,,,,M*13
###2023-12-09 13:22:04.184794$GNGGA,182203.30,4138.0749655,N,07032.3422142,W,1,24,0.7,13.003,M,-29.743,M,0.0,*55
###2023-12-09 13:22:04.384492$GNGGA,182203.50,4138.0751421,N,07032.3422720,W,1,24,0.7,13.002,M,-29.743,M,0.0,*58
###2023-12-09 13:22:04.584783$GNGGA,182203.70,4138.0753150,N,07032.3423414,W,1,24,0.7,13.004,M,-29.743,M,0.0,*58
###2023-12-09 13:22:04.783248$GNGGA,182203.90,4138.0754899,N,07032.3424082,W,1,24,0.7,13.001,M,-29.743,M,0.0,*54
###2023-12-09 13:22:04.988835$GNRMC,182204.10,A,4138.0756633,N,07032.3424830,W,3.32,339.77,091223,,,A*5E
###2023-12-09 13:22:04.991718$GNGGA,182204.10,4138.0756633,N,07032.3424830,W,1,24,0.7,13.003,M,-29.743,M,0.0,*54
###2023-12-09 13:22:04.993515$GPGSA,A,3,03,04,16,26,28,29,31,,,,,,1.1,0.7,0.9*3B
###2023-12-09 13:22:04.995246$GLGSA,A,3,65,71,72,73,74,75,,,,,,,1.1,0.7,0.9*25
###2023-12-09 13:22:04.996827$GAGSA,A,3,04,19,21,27,,,,,,,,,1.1,0.7,0.9*27
###2023-12-09 13:22:04.998575$GBGSA,A,3,14,24,25,26,33,35,,,,,,,1.1,0.7,0.9*28
###2023-12-09 13:22:05.000908$GPGSV,2,1,07,03,30,252,43,04,41,310,43,16,60,218,45,26,90,099,48*71
###2023-12-09 13:22:05.002957$GPGSV,2,2,07,28,42,080,46,29,23,052,43,31,63,057,47,,,,*44
###2023-12-09 13:22:05.005290$GLGSV,2,1,06,65,33,323,40,71,30,174,45,72,69,234,46,73,27,048,44*63
###2023-12-09 13:22:05.007044$GLGSV,2,2,06,74,64,002,41,75,39,263,46,,,,,,,,*68
###2023-12-09 13:22:05.009365$GAGSV,1,1,04,04,36,311,40,19,77,186,41,21,81,054,46,27,26,049,41*68
###2023-12-09 13:22:05.011710$GBGSV,2,1,06,14,35,191,41,24,67,039,48,25,47,270,47,26,20,067,43*62
###2023-12-09 13:22:05.013450$GBGSV,2,2,06,33,51,222,47,35,16,062,43,,,,,,,,*6A
###2023-12-09 13:22:05.014778$GNVTG,339.77,T,,M,3.32,N,6.16,K,A*29
###2023-12-09 13:22:05.016424$GNGST,182204.10,18.000,,,,0.100,0.072,0.170*50
###2023-12-09 13:22:05.017710$GNZDA,182204.10,09,12,2023,00,00*7D
###2023-12-09 13:22:05.018349$GNEBP,,,,,,M*13
###2023-12-09 13:22:05.184763$GNGGA,182204.30,4138.0758320,N,07032.3425765,W,1,24,0.7,13.002,M,-29.743,M,0.0,*50
###2023-12-09 13:22:05.383503$GNGGA,182204.50,4138.0759921,N,07032.3426909,W,1,24,0.7,12.999,M,-29.743,M,0.0,*51
###2023-12-09 13:22:05.586333$GNGGA,182204.70,4138.0761580,N,07032.3428025,W,1,24,0.7,12.994,M,-29.743,M,0.0,*5B
###2023-12-09 13:22:05.785484$GNGGA,182204.90,4138.0763317,N,07032.3429110,W,1,24,0.7,12.996,M,-29.743,M,0.0,*5B
###2023-12-09 13:22:05.987933$GNRMC,182205.10,A,4138.0764985,N,07032.3430307,W,3.52,328.80,091223,,,A*58
###2023-12-09 13:22:05.990843$GNGGA,182205.10,4138.0764985,N,07032.3430307,W,1,24,0.7,12.994,M,-29.743,M,0.0,*5A
###2023-12-09 13:22:05.992637$GPGSA,A,3,03,04,16,26,28,29,31,,,,,,1.1,0.7,0.9*3B
###2023-12-09 13:22:05.994347$GLGSA,A,3,65,71,72,73,74,75,,,,,,,1.1,0.7,0.9*25
###2023-12-09 13:22:05.995936$GAGSA,A,3,04,19,21,27,,,,,,,,,1.1,0.7,0.9*27
###2023-12-09 13:22:05.997646$GBGSA,A,3,14,24,25,26,33,35,,,,,,,1.1,0.7,0.9*28
###2023-12-09 13:22:05.999976$GPGSV,2,1,07,03,30,252,43,04,41,310,42,16,60,218,46,26,90,099,48*73
###2023-12-09 13:22:06.002014$GPGSV,2,2,07,28,42,080,45,29,23,052,43,31,63,057,46,,,,*46
###2023-12-09 13:22:06.004362$GLGSV,2,1,06,65,33,323,41,71,30,174,44,72,69,234,45,73,27,048,44*60
###2023-12-09 13:22:06.006117$GLGSV,2,2,06,74,64,002,42,75,39,263,47,,,,,,,,*6A
###2023-12-09 13:22:06.008451$GAGSV,1,1,04,04,36,311,41,19,77,186,41,21,81,054,46,27,26,049,42*6A
###2023-12-09 13:22:06.010783$GBGSV,2,1,06,14,35,191,41,24,67,039,49,25,47,270,47,26,20,067,43*63
###2023-12-09 13:22:06.012525$GBGSV,2,2,06,33,51,222,46,35,16,062,41,,,,,,,,*69
###2023-12-09 13:22:06.013844$GNVTG,328.80,T,,M,3.52,N,6.52,K,A*27
###2023-12-09 13:22:06.015499$GNGST,182205.10,18.000,,,,0.100,0.071,0.170*52
###2023-12-09 13:22:06.016788$GNZDA,182205.10,09,12,2023,00,00*7C
###2023-12-09 13:22:06.017425$GNEBP,,,,,,M*13
###2023-12-09 13:22:06.185771$GNGGA,182205.30,4138.0766595,N,07032.3431677,W,1,24,0.7,12.989,M,-29.743,M,0.0,*58
###2023-12-09 13:22:06.383463$GNGGA,182205.50,4138.0768170,N,07032.3433125,W,1,24,0.7,12.984,M,-29.743,M,0.0,*50
###2023-12-09 13:22:06.584298$GNGGA,182205.70,4138.0769745,N,07032.3434552,W,1,24,0.7,12.983,M,-29.743,M,0.0,*57
###2023-12-09 13:22:06.785274$GNGGA,182205.90,4138.0771324,N,07032.3436020,W,1,24,0.7,12.982,M,-29.743,M,0.0,*50
###2023-12-09 13:22:06.996469$GNRMC,182206.10,A,4138.0772823,N,07032.3437633,W,3.50,318.24,091223,,,A*5B
###2023-12-09 13:22:06.999338$GNGGA,182206.10,4138.0772823,N,07032.3437633,W,1,24,0.7,12.983,M,-29.743,M,0.0,*50
###2023-12-09 13:22:07.001119$GPGSA,A,3,03,04,16,26,28,29,31,,,,,,1.1,0.7,0.9*3B
###2023-12-09 13:22:07.002837$GLGSA,A,3,65,71,72,73,74,75,,,,,,,1.1,0.7,0.9*25
###2023-12-09 13:22:07.004729$GAGSA,A,3,04,19,21,27,,,,,,,,,1.1,0.7,0.9*27
###2023-12-09 13:22:07.006457$GBGSA,A,3,14,24,25,26,33,35,,,,,,,1.1,0.7,0.9*28
###2023-12-09 13:22:07.008810$GPGSV,2,1,07,03,30,252,42,04,41,310,41,16,60,218,46,26,90,099,49*70
###2023-12-09 13:22:07.010869$GPGSV,2,2,07,28,42,080,44,29,23,052,42,31,63,057,47,,,,*47
###2023-12-09 13:22:07.013229$GLGSV,2,1,06,65,33,323,41,71,30,174,43,72,69,234,46,73,27,048,44*64
###2023-12-09 13:22:07.014989$GLGSV,2,2,06,74,64,002,42,75,39,263,46,,,,,,,,*6B
###2023-12-09 13:22:07.017316$GAGSV,1,1,04,04,36,311,42,19,77,186,40,21,81,054,46,27,26,049,41*6B
###2023-12-09 13:22:07.019653$GBGSV,2,1,06,14,35,191,43,24,67,039,48,25,47,270,47,26,20,067,43*60
###2023-12-09 13:22:07.021397$GBGSV,2,2,06,33,51,222,48,35,16,062,42,,,,,,,,*64
###2023-12-09 13:22:07.022730$GNVTG,318.24,T,,M,3.50,N,6.48,K,A*23
