###2023-12-09 13:25:56.004577$GBGSA,A,3,14,24,25,26,33,35,,,,,,,1.1,0.6,0.9*29
###2023-12-09 13:25:56.006939$GPGSV,2,1,07,03,29,250,43,04,43,309,45,16,62,219,47,26,88,044,48*7F
###2023-12-09 13:25:56.008977$GPGSV,2,2,07,28,41,081,44,29,22,050,41,31,62,060,46,,,,*41
###2023-12-09 13:25:56.011315$GLGSV,2,1,06,65,34,322,41,71,27,175,43,72,67,229,47,73,26,049,41*63
###2023-12-09 13:25:56.013055$GLGSV,2,2,06,74,63,006,41,75,40,266,47,,,,,,,,*61
###2023-12-09 13:25:56.015383$GAGSV,1,1,04,04,37,311,44,19,76,185,42,21,80,051,46,27,26,049,40*69
###2023-12-09 13:25:56.017709$GBGSV,2,1,06,14,33,190,42,24,66,041,47,25,48,272,47,26,19,068,41*6D
###2023-12-09 13:25:56.019463$GBGSV,2,2,06,33,49,220,47,35,16,060,40,,,,,,,,*60
###2023-12-09 13:25:56.020716$GNVTG,7.50,T,,M,3.52,N,6.52,K,A*24
###2023-12-09 13:25:56.022394$GNGST,182555.10,18.000,,,,0.099,0.069,0.160*59
###2023-12-09 13:25:56.023701$GNZDA,182555.10,09,12,2023,00,00*7E
###2023-12-09 13:25:56.024340$GNEBP,,,,,,M*13
###2023-12-09 13:25:56.192164$GNGGA,182555.30,4138.0487263,N,07032.3436662,W,1,24,0.6,13.012,M,-29.744,M,0.0,*57
###2023-12-09 13:25:56.389629$GNGGA,182555.50,4138.0489173,N,07032.3435782,W,1,24,0.6,13.028,M,-29.744,M,0.0,*58
###2023-12-09 13:25:56.592586$GNGGA,182555.70,4138.0491095,N,07032.3435058,W,1,24,0.6,13.024,M,-29.744,M,0.0,*56
###2023-12-09 13:25:56.790440$GNGGA,182555.90,4138.0493068,N,07032.3434909,W,1,24,0.6,13.026,M,-29.744,M,0.0,*56
###2023-12-09 13:25:57.004381$GNRMC,182556.10,A,4138.0495048,N,07032.3434763,W,3.56,7.07,091223,,,A*5B
###2023-12-09 13:25:57.007256$GNGGA,182556.10,4138.0495048,N,07032.3434763,W,1,24,0.6,13.017,M,-29.744,M,0.0,*59
###2023-12-09 13:25:57.009046$GPGSA,A,3,03,04,16,26,28,29,31,,,,,,1.1,0.6,0.9*3A
###2023-12-09 13:25:57.010766$GLGSA,A,3,65,71,72,73,74,75,,,,,,,1.1,0.6,0.9*24
###2023-12-09 13:25:57.012342$GAGSA,A,3,04,19,21,27,,,,,,,,,1.1,0.6,0.9*26
###2023-12-09 13:25:57.014038$GBGSA,A,3,14,24,25,26,33,35,,,,,,,1.1,0.6,0.9*29
###2023-12-09 13:25:57.016372$GPGSV,2,1,07,03,29,250,42,04,43,309,44,16,62,219,45,26,88,044,46*73
###2023-12-09 13:25:57.018407$GPGSV,2,2,07,28,41,081,41,29,22,050,37,31,62,060,45,,,,*46
###2023-12-09 13:25:57.020748$GLGSV,2,1,06,65,34,322,42,71,27,175,43,72,67,229,47,73,26,049,39*6F
###2023-12-09 13:25:57.022495$GLGSV,2,2,06,74,63,006,41,75,40,266,46,,,,,,,,*60
###2023-12-09 13:25:57.024834$GAGSV,1,1,04,04,37,311,41,19,76,185,40,21,80,051,44,27,26,049,38*63
###2023-12-09 13:25:57.027177$GBGSV,2,1,06,14,33,190,43,24,66,041,48,25,48,272,47,26,19,068,41*63
###2023-12-09 13:25:57.028918$GBGSV,2,2,06,33,49,220,47,35,16,060,40,,,,,,,,*60
###2023-12-09 13:25:57.030211$GNVTG,7.07,T,,M,3.56,N,6.59,K,A*29
###2023-12-09 13:25:57.031870$GNGST,182556.10,18.000,,,,0.100,0.069,0.160*5B
###2023-12-09 13:25:57.033160$GNZDA,182556.10,09,12,2023,00,00*7D
###2023-12-09 13:25:57.033796$GNEBP,,,,,,M*13
###2023-12-09 13:25:57.194307$GNGGA,182556.30,4138.0497004,N,07032.3434267,W,1,24,0.6,13.017,M,-29.744,M,0.0,*50
###2023-12-09 13:25:57.390389$GNGGA,182556.50,4138.0498960,N,07032.3433574,W,1,24,0.6,13.028,M,-29.744,M,0.0,*5C
###2023-12-09 13:25:57.589805$GNGGA,182556.70,4138.0500928,N,07032.3433268,W,1,24,0.6,13.014,M,-29.744,M,0.0,*57
###2023-12-09 13:25:57.791557$GNGGA,182556.90,4138.0502869,N,07032.3433188,W,1,24,0.6,13.008,M,-29.744,M,0.0,*5F
###2023-12-09 13:25:57.994940$GNRMC,182557.10,A,4138.0504800,N,07032.3432846,W,3.54,10.89,091223,,,A*6B
###2023-12-09 13:25:57.997795$GNGGA,182557.10,4138.0504800,N,07032.3432846,W,1,24,0.6,12.998,M,-29.744,M,0.0,*54
###2023-12-09 13:25:57.999599$GPGSA,A,3,03,04,16,26,28,29,31,,,,,,1.1,0.6,0.9*3A
###2023-12-09 13:25:58.001306$GLGSA,A,3,65,71,72,73,74,75,,,,,,,1.1,0.6,0.9*24
###2023-12-09 13:25:58.002892$GAGSA,A,3,04,19,21,27,,,,,,,,,1.1,0.6,0.9*26
###2023-12-09 13:25:58.004596$GBGSA,A,3,14,24,25,26,33,35,,,,,,,1.1,0.6,0.9*29
###2023-12-09 13:25:58.006925$GPGSV,2,1,07,03,29,250,42,04,43,309,44,16,62,219,46,26,88,044,47*71
###2023-12-09 13:25:58.008951$GPGSV,2,2,07,28,41,081,43,29,22,050,38,31,62,060,45,,,,*4B
###2023-12-09 13:25:58.011276$GLGSV,2,1,06,65,34,322,42,71,27,175,43,72,67,229,47,73,26,049,39*6F
###2023-12-09 13:25:58.013006$GLGSV,2,2,06,74,63,006,41,75,40,266,47,,,,,,,,*61
###2023-12-09 13:25:58.015340$GAGSV,1,1,04,04,37,311,44,19,76,185,41,21,80,051,45,27,26,049,37*69
###2023-12-09 13:25:58.017664$GBGSV,2,1,06,14,33,190,44,24,66,041,47,25,48,272,49,26,19,068,41*65
###2023-12-09 13:25:58.019413$GBGSV,2,2,06,33,49,220,47,35,16,060,40,,,,,,,,*60
###2023-12-09 13:25:58.020699$GNVTG,10.89,T,,M,3.54,N,6.55,K,A*17
###2023-12-09 13:25:58.022375$GNGST,182557.10,18.000,,,,0.100,0.070,0.170*53
###2023-12-09 13:25:58.023687$GNZDA,182557.10,09,12,2023,00,00*7C
###2023-12-09 13:25:58.024329$GNEBP,,,,,,M*13
###2023-12-09 13:25:58.190801$GNGGA,182557.30,4138.0506721,N,07032.3432364,W,1,24,0.6,12.992,M,-29.744,M,0.0,*59
###2023-12-09 13:25:58.390671$GNGGA,182557.50,4138.0508634,N,07032.3432005,W,1,24,0.6,12.993,M,-29.744,M,0.0,*51
###2023-12-09 13:25:58.590283$GNGGA,182557.70,4138.0510543,N,07032.3432066,W,1,24,0.6,12.992,M,-29.744,M,0.0,*5D
###2023-12-09 13:25:58.791346$GNGGA,182557.90,4138.0512483,N,07032.3432160,W,1,24,0.6,12.984,M,-29.744,M,0.0,*5C
###2023-12-09 13:25:58.995520$GNRMC,182558.10,A,4138.0514478,N,07032.3432028,W,3.63,3.19,091223,,,A*59
###2023-12-09 13:25:58.998388$GNGGA,182558.10,4138.0514478,N,07032.3432028,W,1,24,0.6,12.982,M,-29.744,M,0.0,*52
###2023-12-09 13:25:59.000200$GPGSA,A,3,03,04,16,26,28,29,31,,,,,,1.1,0.6,0.9*3A
###2023-12-09 13:25:59.001919$GLGSA,A,3,65,71,72,73,74,75,,,,,,,1.1,0.6,0.9*24
###2023-12-09 13:25:59.003509$GAGSA,A,3,04,19,21,27,,,,,,,,,1.1,0.6,0.9*26
###2023-12-09 13:25:59.005225$GBGSA,A,3,14,24,25,26,33,35,,,,,,,1.1,0.6,0.9*29
###2023-12-09 13:25:59.007572$GPGSV,2,1,07,03,29,250,43,04,43,309,44,16,62,219,47,26,88,044,48*7E
###2023-12-09 13:25:59.009619$GPGSV,2,2,07,28,41,081,44,29,22,050,40,31,62,060,46,,,,*40
###2023-12-09 13:25:59.011957$GLGSV,2,1,06,65,34,322,42,71,27,175,44,72,67,229,46,73,26,049,40*67
###2023-12-09 13:25:59.013711$GLGSV,2,2,06,74,63,006,41,75,40,266,48,,,,,,,,*6E
###2023-12-09 13:25:59.016087$GAGSV,1,1,04,04,37,311,44,19,75,184,41,21,80,051,45,27,26,049,39*65
###2023-12-09 13:25:59.018421$GBGSV,2,1,06,14,33,190,45,24,66,041,48,25,48,272,48,26,19,068,41*6A
###2023-12-09 13:25:59.020173$GBGSV,2,2,06,33,49,220,48,35,16,060,42,,,,,,,,*6D
###2023-12-09 13:25:59.021432$GNVTG,3.19,T,,M,3.63,N,6.73,K,A*2C
###2023-12-09 13:25:59.023084$GNGST,182558.10,18.000,,,,0.100,0.070,0.170*5C
###2023-12-09 13:25:59.024375$GNZDA,182558.10,09,12,2023,00,00*73
###2023-12-09 13:25:59.025015$GNEBP,,,,,,M*13
###2023-12-09 13:25:59.190826$GNGGA,182558.30,4138.0516494,N,07032.3432003,W,1,24,0.6,12.982,M,-29.744,M,0.0,*59
###2023-12-09 13:25:59.390424$GNGGA,182558.50,4138.0518463,N,07032.3432302,W,1,24,0.6,12.975,M,-29.744,M,0.0,*53
###2023-12-09 13:25:59.594198$GNGGA,182558.70,4138.0520424,N,07032.3432702,W,1,24,0.6,12.972,M,-29.744,M,0.0,*5A
###2023-12-09 13:25:59.790869$GNGGA,182558.90,4138.0522419,N,07032.3433052,W,1,24,0.6,12.972,M,-29.744,M,0.0,*5B
###2023-12-09 13:25:59.995089$GNRMC,182559.10,A,4138.0524409,N,07032.3433309,W,3.62,353.59,091223,,,A*5F
###2023-12-09 13:25:59.997959$GNGGA,182559.10,4138.0524409,N,07032.3433309,W,1,24,0.6,12.969,M,-29.744,M,0.0,*52
###2023-12-09 13:25:59.999767$GPGSA,A,3,03,04,16,26,28,29,31,,,,,,1.1,0.6,0.9*3A
###2023-12-09 13:26:00.001480$GLGSA,A,3,65,71,72,73,74,75,,,,,,,1.1,0.6,0.9*24
###2023-12-09 13:26:00.003077$GAGSA,A,3,04,19,21,27,,,,,,,,,1.1,0.6,0.9*26
###2023-12-09 13:26:00.004796$GBGSA,A,3,14,24,25,26,33,35,,,,,,,1.1,0.6,0.9*29
###2023-12-09 13:26:00.007173$GPGSV,2,1,07,03,29,250,43,04,43,309,44,16,62,219,47,26,88,044,48*7E
###2023-12-09 13:26:00.009224$GPGSV,2,2,07,28,41,081,45,29,22,050,41,31,62,060,46,,,,*40
###2023-12-09 13:26:00.011572$GLGSV,2,1,06,65,34,322,41,71,27,175,45,72,67,229,46,73,26,049,41*64
###2023-12-09 13:26:00.013321$GLGSV,2,2,06,74,63,006,41,75,40,266,46,,,,,,,,*60
###2023-12-09 13:26:00.015646$GAGSV,1,1,04,04,37,311,42,19,75,184,41,21,80,050,46,27,26,049,40*6F
###2023-12-09 13:26:00.017966$GBGSV,2,1,06,14,33,190,43,24,66,041,48,25,48,272,47,26,19,068,43*61
###2023-12-09 13:26:00.020067$GBGSV,2,2,06,33,49,220,48,35,16,060,42,,,,,,,,*6D
###2023-12-09 13:26:00.021413$GNVTG,353.59,T,,M,3.62,N,6.70,K,A*2C
###2023-12-09 13:26:00.023080$GNGST,182559.10,18.000,,,,0.100,0.070,0.170*5D
###2023-12-09 13:26:00.024375$GNZDA,182559.10,09,12,2023,00,00*72
###2023-12-09 13:26:00.025015$GNEBP,,,,,,M*13
###2023-12-09 13:26:00.191170$GNGGA,182559.30,4138.0526352,N,07032.3433754,W,1,24,0.6,12.964,M,-29.744,M,0.0,*5A
###2023-12-09 13:26:00.389669$GNGGA,182559.50,4138.0528232,N,07032.3434419,W,1,24,0.6,12.955,M,-29.744,M,0.0,*5A
###2023-12-09 13:26:00.590241$GNGGA,182559.70,4138.0530059,N,07032.3435014,W,1,24,0.6,12.943,M,-29.744,M,0.0,*51
###2023-12-09 13:26:00.791819$GNGGA,182559.90,4138.0531882,N,07032.3435434,W,1,24,0.6,12.934,M,-29.744,M,0.0,*56
