###2023-12-09 13:08:56.988315$GAGSA,A,3,04,19,21,27,,,,,,,,,1.1,0.6,0.9*26
###2023-12-09 13:08:56.990051$GBGSA,A,3,14,24,25,26,33,35,,,,,,,1.1,0.6,0.9*29
###2023-12-09 13:08:56.992410$GPGSV,2,1,08,03,34,258,44,04,35,311,45,16,53,214,46,26,83,210,48*7D
###2023-12-09 13:08:56.994769$GPGSV,2,2,08,28,47,073,42,29,25,058,43,31,67,044,46,32,16,141,40*7B
###2023-12-09 13:08:56.997103$GLGSV,2,1,06,65,27,326,42,71,36,173,45,72,72,254,46,73,32,044,43*63
###2023-12-09 13:08:56.998862$GLGSV,2,2,06,74,68,348,43,75,35,257,47,,,,,,,,*61
###2023-12-09 13:08:57.001185$GAGSV,1,1,04,04,31,312,42,19,82,199,40,21,85,085,46,27,31,048,41*64
###2023-12-09 13:08:57.003524$GBGSV,2,1,06,14,40,192,44,24,71,031,48,25,43,265,46,26,24,064,44*68
###2023-12-09 13:08:57.005267$GBGSV,2,2,06,33,55,228,48,35,15,066,42,,,,,,,,*6D
###2023-12-09 13:08:57.006554$GNVTG,94.89,T,,M,4.22,N,7.81,K,A*15
###2023-12-09 13:08:57.008218$GNGST,180856.10,18.000,,,,0.082,0.065,0.150*50
###2023-12-09 13:08:57.009502$GNZDA,180856.10,09,12,2023,00,00*72
###2023-12-09 13:08:57.010138$GNEBP,,,,,,M*13
###2023-12-09 13:08:57.172555$GNGGA,180856.30,4138.0821858,N,07032.2556402,W,1,25,0.6,13.158,M,-29.741,M,0.0,*50
###2023-12-09 13:08:57.371061$GNGGA,180856.50,4138.0822698,N,07032.2553908,W,1,25,0.6,13.165,M,-29.741,M,0.0,*5B
###2023-12-09 13:08:57.569381$GNGGA,180856.70,4138.0823823,N,07032.2551503,W,1,25,0.6,13.194,M,-29.741,M,0.0,*5D
###2023-12-09 13:08:57.769242$GNGGA,180856.90,4138.0824280,N,07032.2548751,W,1,25,0.6,13.201,M,-29.741,M,0.0,*55
###2023-12-09 13:08:57.969797$GNRMC,180857.10,A,4138.0824479,N,07032.2545901,W,3.91,80.91,091223,,,A*62
###2023-12-09 13:08:57.972700$GNGGA,180857.10,4138.0824479,N,07032.2545901,W,1,25,0.6,13.187,M,-29.741,M,0.0,*57
###2023-12-09 13:08:57.974589$GPGSA,A,3,03,04,16,26,28,29,31,32,,,,,1.1,0.6,0.9*3B
###2023-12-09 13:08:57.976319$GLGSA,A,3,65,71,72,73,74,75,,,,,,,1.1,0.6,0.9*24
###2023-12-09 13:08:57.977907$GAGSA,A,3,04,19,21,27,,,,,,,,,1.1,0.6,0.9*26
###2023-12-09 13:08:57.979639$GBGSA,A,3,14,24,25,26,33,35,,,,,,,1.1,0.6,0.9*29
###2023-12-09 13:08:57.981965$GPGSV,2,1,08,03,34,258,45,04,35,311,43,16,53,214,47,26,83,210,49*7A
###2023-12-09 13:08:57.984316$GPGSV,2,2,08,28,47,073,41,29,25,058,41,31,67,044,46,32,16,141,44*7E
###2023-12-09 13:08:57.986659$GLGSV,2,1,06,65,27,326,42,71,36,173,48,72,72,254,47,73,32,044,41*6D
###2023-12-09 13:08:57.988412$GLGSV,2,2,06,74,68,348,42,75,35,257,47,,,,,,,,*60
###2023-12-09 13:08:57.990754$GAGSV,1,1,04,04,31,312,42,19,82,199,40,21,85,085,46,27,31,048,39*6B
###2023-12-09 13:08:57.993095$GBGSV,2,1,06,14,40,192,46,24,71,031,47,25,43,265,45,26,24,064,41*63
###2023-12-09 13:08:57.994855$GBGSV,2,2,06,33,55,228,47,35,15,066,40,,,,,,,,*60
###2023-12-09 13:08:57.996146$GNVTG,80.91,T,,M,3.91,N,7.24,K,A*19
###2023-12-09 13:08:57.997794$GNGST,180857.10,18.000,,,,0.083,0.066,0.150*53
###2023-12-09 13:08:57.999102$GNZDA,180857.10,09,12,2023,00,00*73
###2023-12-09 13:08:57.999743$GNEBP,,,,,,M*13
###2023-12-09 13:08:58.168398$GNGGA,180857.30,4138.0825084,N,07032.2543211,W,1,25,0.6,13.162,M,-29.741,M,0.0,*55
###2023-12-09 13:08:58.370970$GNGGA,180857.50,4138.0826297,N,07032.2541035,W,1,25,0.6,13.177,M,-29.741,M,0.0,*52
###2023-12-09 13:08:58.570353$GNGGA,180857.70,4138.0827274,N,07032.2538738,W,1,24,0.7,13.188,M,-29.741,M,0.0,*58
###2023-12-09 13:08:58.770486$GNGGA,180857.90,4138.0827813,N,07032.2535977,W,1,25,0.6,13.213,M,-29.741,M,0.0,*54
###2023-12-09 13:08:58.973876$GNRMC,180858.10,A,4138.0828410,N,07032.2533305,W,3.69,64.61,091223,,,A*63
###2023-12-09 13:08:58.976773$GNGGA,180858.10,4138.0828410,N,07032.2533305,W,1,25,0.6,13.166,M,-29.741,M,0.0,*5B
###2023-12-09 13:08:58.978649$GPGSA,A,3,03,04,16,26,28,29,31,32,,,,,1.1,0.6,0.9*3B
###2023-12-09 13:08:58.980363$GLGSA,A,3,65,71,72,73,74,75,,,,,,,1.1,0.6,0.9*24
###2023-12-09 13:08:58.981944$GAGSA,A,3,04,19,21,27,,,,,,,,,1.1,0.6,0.9*26
###2023-12-09 13:08:58.983671$GBGSA,A,3,14,24,25,26,33,35,,,,,,,1.1,0.6,0.9*29
###2023-12-09 13:08:58.986003$GPGSV,2,1,08,03,34,258,44,04,35,311,42,16,53,214,47,26,83,210,48*7B
###2023-12-09 13:08:58.988346$GPGSV,2,2,08,28,47,073,43,29,25,058,41,31,67,044,46,32,16,141,46*7E
###2023-12-09 13:08:58.990697$GLGSV,2,1,06,65,27,326,42,71,36,173,48,72,72,254,46,73,32,044,42*6F
###2023-12-09 13:08:58.992456$GLGSV,2,2,06,74,68,348,42,75,35,257,46,,,,,,,,*61
###2023-12-09 13:08:58.994793$GAGSV,1,1,04,04,31,312,40,19,82,199,40,21,85,085,46,27,31,048,41*66
###2023-12-09 13:08:58.997128$GBGSV,2,1,06,14,40,192,45,24,71,031,47,25,43,265,46,26,24,064,41*63
###2023-12-09 13:08:58.998888$GBGSV,2,2,06,33,55,228,47,35,15,066,41,,,,,,,,*61
###2023-12-09 13:08:59.000183$GNVTG,64.61,T,,M,3.69,N,6.84,K,A*10
###2023-12-09 13:08:59.001830$GNGST,180858.10,18.000,,,,0.083,0.066,0.150*5C
###2023-12-09 13:08:59.003137$GNZDA,180858.10,09,12,2023,00,00*7C
###2023-12-09 13:08:59.003777$GNEBP,,,,,,M*13
###2023-12-09 13:08:59.170415$GNGGA,180858.30,4138.0829628,N,07032.2531206,W,1,25,0.6,13.188,M,-29.741,M,0.0,*51
###2023-12-09 13:08:59.369637$GNGGA,180858.50,4138.0830918,N,07032.2529171,W,1,25,0.6,13.185,M,-29.741,M,0.0,*54
###2023-12-09 13:08:59.570352$GNGGA,180858.70,4138.0831715,N,07032.2526632,W,1,25,0.6,13.181,M,-29.741,M,0.0,*5F
###2023-12-09 13:08:59.770472$GNGGA,180858.90,4138.0832395,N,07032.2523926,W,1,25,0.6,13.162,M,-29.741,M,0.0,*5C
###2023-12-09 13:08:59.971000$GNRMC,180859.10,A,4138.0833738,N,07032.2521864,W,3.85,39.65,091223,,,A*60
###2023-12-09 13:08:59.973869$GNGGA,180859.10,4138.0833738,N,07032.2521864,W,1,25,0.6,13.190,M,-29.741,M,0.0,*5F
###2023-12-09 13:08:59.975738$GPGSA,A,3,03,04,16,26,28,29,31,32,,,,,1.1,0.6,0.9*3B
###2023-12-09 13:08:59.977458$GLGSA,A,3,65,71,72,73,74,75,,,,,,,1.1,0.6,0.9*24
###2023-12-09 13:08:59.979057$GAGSA,A,3,04,19,21,27,,,,,,,,,1.1,0.6,0.9*26
###2023-12-09 13:08:59.980763$GBGSA,A,3,14,24,25,26,33,35,,,,,,,1.1,0.6,0.9*29
###2023-12-09 13:08:59.983094$GPGSV,2,1,08,03,34,258,44,04,35,311,44,16,53,214,47,26,83,210,48*7D
###2023-12-09 13:08:59.985422$GPGSV,2,2,08,28,47,073,45,29,25,058,42,31,67,044,46,32,16,141,43*7E
###2023-12-09 13:08:59.987761$GLGSV,2,1,06,65,27,326,42,71,36,173,47,72,72,254,46,73,32,044,41*63
###2023-12-09 13:08:59.989510$GLGSV,2,2,06,74,68,348,41,75,35,257,46,,,,,,,,*62
###2023-12-09 13:08:59.991844$GAGSV,1,1,04,04,31,312,43,19,82,199,40,21,85,085,46,27,31,048,41*65
###2023-12-09 13:08:59.994166$GBGSV,2,1,06,14,40,192,45,24,71,031,47,25,43,265,46,26,24,064,43*61
###2023-12-09 13:08:59.995926$GBGSV,2,2,06,33,55,228,47,35,15,066,42,,,,,,,,*62
###2023-12-09 13:08:59.997226$GNVTG,39.65,T,,M,3.85,N,7.13,K,A*11
###2023-12-09 13:08:59.998882$GNGST,180859.10,18.000,,,,0.083,0.066,0.150*5D
###2023-12-09 13:09:00.000173$GNZDA,180859.10,09,12,2023,00,00*7D
###2023-12-09 13:09:00.000811$GNEBP,,,,,,M*13
###2023-12-09 13:09:00.171070$GNGGA,180859.30,4138.0835385,N,07032.2520033,W,1,25,0.6,13.195,M,-29.741,M,0.0,*57
###2023-12-09 13:09:00.371995$GNGGA,180859.50,4138.0836643,N,07032.2517735,W,1,24,0.7,13.189,M,-29.741,M,0.0,*55
###2023-12-09 13:09:00.570316$GNGGA,180859.70,4138.0837676,N,07032.2515091,W,1,25,0.6,13.191,M,-29.741,M,0.0,*52
###2023-12-09 13:09:00.770416$GNGGA,180859.90,4138.0838995,N,07032.2512779,W,1,25,0.6,13.171,M,-29.741,M,0.0,*59
###2023-12-09 13:09:00.973035$GNRMC,180900.10,A,4138.0840600,N,07032.2511038,W,3.69,36.18,091223,,,A*66
###2023-12-09 13:09:00.975891$GNGGA,180900.10,4138.0840600,N,07032.2511038,W,1,25,0.6,13.163,M,-29.741,M,0.0,*52
###2023-12-09 13:09:00.977735$GPGSA,A,3,03,04,16,26,28,29,31,32,,,,,1.1,0.6,0.9*3B
###2023-12-09 13:09:00.979460$GLGSA,A,3,65,71,72,73,74,75,,,,,,,1.1,0.6,0.9*24
###2023-12-09 13:09:00.981040$GAGSA,A,3,04,19,21,27,,,,,,,,,1.1,0.6,0.9*26
###2023-12-09 13:09:00.982756$GBGSA,A,3,14,24,25,26,33,35,,,,,,,1.1,0.6,0.9*29
###2023-12-09 13:09:00.985080$GPGSV,2,1,08,03,34,258,42,04,35,311,43,16,53,214,46,26,83,210,48*7D
###2023-12-09 13:09:00.987423$GPGSV,2,2,08,28,47,073,44,29,25,058,42,31,67,044,46,32,16,141,42*7E
###2023-12-09 13:09:00.989751$GLGSV,2,1,06,65,27,326,43,71,36,173,46,72,72,254,46,73,32,044,44*66
###2023-12-09 13:09:00.991501$GLGSV,2,2,06,74,68,348,41,75,35,257,46,,,,,,,,*62
###2023-12-09 13:09:00.993827$GAGSV,1,1,04,04,31,312,42,19,82,199,40,21,85,085,45,27,31,048,42*64
###2023-12-09 13:09:00.996407$GBGSV,2,1,06,14,40,192,46,24,71,031,48,25,43,265,47,26,24,064,42*6D
###2023-12-09 13:09:00.998160$GBGSV,2,2,06,33,55,228,48,35,15,066,42,,,,,,,,*6D
###2023-12-09 13:09:00.999466$GNVTG,36.18,T,,M,3.69,N,6.84,K,A*19
###2023-12-09 13:09:01.001108$GNGST,180900.10,18.000,,,,0.083,0.066,0.150*50
###2023-12-09 13:09:01.002395$GNZDA,180900.10,09,12,2023,00,00*70
###2023-12-09 13:09:01.003044$GNEBP,,,,,,M*13
###2023-12-09 13:09:01.169477$GNGGA,180900.30,4138.0842150,N,07032.2509372,W,1,25,0.6,13.153,M,-29.741,M,0.0,*57
###2023-12-09 13:09:01.371735$GNGGA,180900.50,4138.0843409,N,07032.2507235,W,1,25,0.6,13.175,M,-29.741,M,0.0,*51
###2023-12-09 13:09:01.570826$GNGGA,180900.70,4138.0844740,N,07032.2505216,W,1,25,0.6,13.184,M,-29.741,M,0.0,*57
