###2023-12-09 12:40:41.738777$GNGGA,174040.90,4138.0541705,N,07032.3852071,W,1,23,0.7,13.525,M,-29.744,M,0.0,*56
###2023-12-09 12:40:41.939660$GNRMC,174041.10,A,4138.0540815,N,07032.3850379,W,2.72,123.66,091223,,,A*5E
###2023-12-09 12:40:41.942516$GNGGA,174041.10,4138.0540815,N,07032.3850379,W,1,23,0.7,13.525,M,-29.744,M,0.0,*59
###2023-12-09 12:40:41.944377$GPGSA,A,3,03,04,16,26,28,29,31,32,,,,,1.2,0.7,1.0*31
###2023-12-09 12:40:41.946018$GLGSA,A,3,71,72,73,74,75,,,,,,,,1.2,0.7,1.0*2D
###2023-12-09 12:40:41.947631$GAGSA,A,3,04,19,21,27,,,,,,,,,1.2,0.7,1.0*2C
###2023-12-09 12:40:41.949312$GBGSA,A,3,14,24,25,26,33,,,,,,,,1.2,0.7,1.0*25
###2023-12-09 12:40:41.951667$GPGSV,2,1,08,03,38,274,45,04,24,311,42,16,39,208,45,26,69,207,48*79
###2023-12-09 12:40:41.953998$GPGSV,2,2,08,28,56,059,45,29,25,071,43,31,73,010,47,32,28,135,41*75
###2023-12-09 12:40:41.956397$GLGSV,2,1,05,71,54,170,47,72,68,305,47,73,45,035,46,74,71,299,43*6E
###2023-12-09 12:40:41.957858$GLGSV,2,2,05,75,24,243,42,,,,,,,,,,,,*57
###2023-12-09 12:40:41.960211$GAGSV,1,1,04,04,23,311,42,19,83,293,40,21,80,172,46,27,40,049,43*65
###2023-12-09 12:40:41.962560$GBGSV,2,1,05,14,53,197,44,24,80,355,48,25,34,254,44,26,33,058,45*6B
###2023-12-09 12:40:41.964033$GBGSV,2,2,05,33,62,250,48,,,,,,,,,,,,*51
###2023-12-09 12:40:41.965363$GNVTG,123.66,T,,M,2.72,N,5.04,K,A*25
###2023-12-09 12:40:41.967025$GNGST,174041.10,18.000,,,,0.080,0.070,0.170*51
###2023-12-09 12:40:41.968323$GNZDA,174041.10,09,12,2023,00,00*77
###2023-12-09 12:40:41.968963$GNEBP,,,,,,M*13
###2023-12-09 12:40:42.139181$GNGGA,174041.30,4138.0539918,N,07032.3848686,W,1,23,0.7,13.535,M,-29.744,M,0.0,*54
###2023-12-09 12:40:42.339389$GNGGA,174041.50,4138.0539070,N,07032.3846911,W,1,23,0.7,13.540,M,-29.744,M,0.0,*58
###2023-12-09 12:40:42.541017$GNGGA,174041.70,4138.0538347,N,07032.3845095,W,1,23,0.7,13.540,M,-29.744,M,0.0,*5A
###2023-12-09 12:40:42.739706$GNGGA,174041.90,4138.0537787,N,07032.3843272,W,1,23,0.7,13.551,M,-29.744,M,0.0,*5E
###2023-12-09 12:40:42.941780$GNRMC,174042.10,A,4138.0537315,N,07032.3841329,W,2.78,107.84,091223,,,A*53
###2023-12-09 12:40:42.944657$GNGGA,174042.10,4138.0537315,N,07032.3841329,W,1,23,0.7,13.548,M,-29.744,M,0.0,*5F
###2023-12-09 12:40:42.946527$GPGSA,A,3,03,04,16,26,28,29,31,32,,,,,1.2,0.7,1.0*31
###2023-12-09 12:40:42.948218$GLGSA,A,3,71,72,73,74,75,,,,,,,,1.2,0.7,1.0*2D
###2023-12-09 12:40:42.949809$GAGSA,A,3,04,19,21,27,,,,,,,,,1.2,0.7,1.0*2C
###2023-12-09 12:40:42.951476$GBGSA,A,3,14,24,25,26,33,,,,,,,,1.2,0.7,1.0*25
###2023-12-09 12:40:42.953808$GPGSV,2,1,08,03,38,274,44,04,24,311,41,16,39,208,46,26,69,207,47*77
###2023-12-09 12:40:42.956160$GPGSV,2,2,08,28,56,059,45,29,25,071,40,31,73,010,47,32,28,135,41*76
###2023-12-09 12:40:42.958498$GLGSV,2,1,05,71,54,170,46,72,68,305,47,73,45,035,46,74,71,299,43*6F
###2023-12-09 12:40:42.959972$GLGSV,2,2,05,75,24,243,43,,,,,,,,,,,,*56
###2023-12-09 12:40:42.962298$GAGSV,1,1,04,04,23,311,41,19,83,293,40,21,80,172,46,27,40,049,44*61
###2023-12-09 12:40:42.964651$GBGSV,2,1,05,14,53,197,46,24,80,355,49,25,34,254,45,26,33,058,45*69
###2023-12-09 12:40:42.966110$GBGSV,2,2,05,33,62,250,48,,,,,,,,,,,,*51
###2023-12-09 12:40:42.967443$GNVTG,107.84,T,,M,2.78,N,5.15,K,A*25
###2023-12-09 12:40:42.969099$GNGST,174042.10,18.000,,,,0.080,0.070,0.170*52
###2023-12-09 12:40:42.970391$GNZDA,174042.10,09,12,2023,00,00*74
###2023-12-09 12:40:42.971041$GNEBP,,,,,,M*13
###2023-12-09 12:40:43.139039$GNGGA,174042.30,4138.0536826,N,07032.3839447,W,1,23,0.7,13.538,M,-29.744,M,0.0,*50
###2023-12-09 12:40:43.340352$GNGGA,174042.50,4138.0536562,N,07032.3837617,W,1,23,0.7,13.557,M,-29.744,M,0.0,*5B
###2023-12-09 12:40:43.539814$GNGGA,174042.70,4138.0536296,N,07032.3835629,W,1,23,0.7,13.567,M,-29.744,M,0.0,*59
###2023-12-09 12:40:43.738951$GNGGA,174042.90,4138.0536121,N,07032.3833805,W,1,23,0.7,13.546,M,-29.744,M,0.0,*5D
###2023-12-09 12:40:43.939325$GNRMC,174043.10,A,4138.0536316,N,07032.3832015,W,2.55,81.67,091223,,,A*65
###2023-12-09 12:40:43.942178$GNGGA,174043.10,4138.0536316,N,07032.3832015,W,1,23,0.7,13.564,M,-29.744,M,0.0,*5A
###2023-12-09 12:40:43.944046$GPGSA,A,3,03,04,16,26,28,29,31,32,,,,,1.2,0.7,1.0*31
###2023-12-09 12:40:43.945705$GLGSA,A,3,71,72,73,74,75,,,,,,,,1.2,0.7,1.0*2D
###2023-12-09 12:40:43.947316$GAGSA,A,3,04,19,21,27,,,,,,,,,1.2,0.7,1.0*2C
###2023-12-09 12:40:43.948988$GBGSA,A,3,14,24,25,26,33,,,,,,,,1.2,0.7,1.0*25
###2023-12-09 12:40:43.951341$GPGSV,2,1,08,03,38,274,45,04,24,311,41,16,39,208,46,26,69,207,48*79
###2023-12-09 12:40:43.953685$GPGSV,2,2,08,28,56,059,44,29,25,071,41,31,73,010,47,32,28,135,43*74
###2023-12-09 12:40:43.956047$GLGSV,2,1,05,71,54,170,48,72,68,305,47,73,45,035,47,74,71,299,43*60
###2023-12-09 12:40:43.957514$GLGSV,2,2,05,75,24,243,44,,,,,,,,,,,,*51
###2023-12-09 12:40:43.959858$GAGSV,1,1,04,04,23,311,41,19,83,293,40,21,80,172,46,27,40,049,43*66
###2023-12-09 12:40:43.962194$GBGSV,2,1,05,14,53,197,47,24,80,355,49,25,34,254,46,26,33,058,43*6D
###2023-12-09 12:40:43.963670$GBGSV,2,2,05,33,62,250,48,,,,,,,,,,,,*51
###2023-12-09 12:40:43.964962$GNVTG,81.67,T,,M,2.55,N,4.72,K,A*18
###2023-12-09 12:40:43.966628$GNGST,174043.10,19.000,,,,0.080,0.069,0.170*5A
###2023-12-09 12:40:43.967927$GNZDA,174043.10,09,12,2023,00,00*75
###2023-12-09 12:40:43.968565$GNEBP,,,,,,M*13
###2023-12-09 12:40:44.139106$GNGGA,174043.30,4138.0536396,N,07032.3830120,W,1,23,0.7,13.585,M,-29.744,M,0.0,*5A
###2023-12-09 12:40:44.339278$GNGGA,174043.50,4138.0536418,N,07032.3828158,W,1,23,0.7,13.563,M,-29.744,M,0.0,*53
###2023-12-09 12:40:44.543847$GNGGA,174043.70,4138.0536551,N,07032.3826303,W,1,23,0.7,13.549,M,-29.744,M,0.0,*57
###2023-12-09 12:40:44.738820$GNGGA,174043.90,4138.0536961,N,07032.3824587,W,1,23,0.7,13.577,M,-29.744,M,0.0,*53
###2023-12-09 12:40:44.947255$GNRMC,174044.10,A,4138.0537376,N,07032.3822797,W,2.57,72.97,091223,,,A*68
###2023-12-09 12:40:44.950121$GNGGA,174044.10,4138.0537376,N,07032.3822797,W,1,23,0.7,13.581,M,-29.744,M,0.0,*5D
###2023-12-09 12:40:44.951998$GPGSA,A,3,03,04,16,26,28,29,31,32,,,,,1.2,0.7,1.0*31
###2023-12-09 12:40:44.953656$GLGSA,A,3,71,72,73,74,75,,,,,,,,1.2,0.7,1.0*2D
###2023-12-09 12:40:44.955262$GAGSA,A,3,04,19,21,27,,,,,,,,,1.2,0.7,1.0*2C
###2023-12-09 12:40:44.956914$GBGSA,A,3,14,24,25,26,33,,,,,,,,1.2,0.7,1.0*25
###2023-12-09 12:40:44.959257$GPGSV,2,1,08,03,38,274,43,04,24,311,42,16,39,208,45,26,69,207,48*7F
###2023-12-09 12:40:44.961593$GPGSV,2,2,08,28,56,059,44,29,25,071,42,31,73,010,47,32,28,135,43*77
###2023-12-09 12:40:44.963936$GLGSV,2,1,05,71,54,170,48,72,68,305,46,73,45,035,46,74,71,299,43*60
###2023-12-09 12:40:44.965394$GLGSV,2,2,05,75,24,243,44,,,,,,,,,,,,*51
###2023-12-09 12:40:44.967742$GAGSV,1,1,04,04,23,311,42,19,83,293,40,21,80,172,46,27,40,049,41*67
###2023-12-09 12:40:44.970077$GBGSV,2,1,05,14,53,197,44,24,80,355,48,25,34,254,45,26,33,058,43*6C
###2023-12-09 12:40:44.971543$GBGSV,2,2,05,33,62,250,47,,,,,,,,,,,,*5E
###2023-12-09 12:40:44.972832$GNVTG,72.97,T,,M,2.57,N,4.75,K,A*1E
###2023-12-09 12:40:44.974484$GNGST,174044.10,18.000,,,,0.079,0.069,0.170*5A
###2023-12-09 12:40:44.975789$GNZDA,174044.10,09,12,2023,00,00*72
###2023-12-09 12:40:44.976427$GNEBP,,,,,,M*13
###2023-12-09 12:40:45.140640$GNGGA,174044.30,4138.0537727,N,07032.3820999,W,1,23,0.7,13.561,M,-29.744,M,0.0,*53
###2023-12-09 12:40:45.339283$GNGGA,174044.50,4138.0538247,N,07032.3819406,W,1,23,0.7,13.565,M,-29.744,M,0.0,*5C
###2023-12-09 12:40:45.539772$GNGGA,174044.70,4138.0538848,N,07032.3817753,W,1,23,0.7,13.588,M,-29.744,M,0.0,*55
###2023-12-09 12:40:45.740483$GNGGA,174044.90,4138.0539441,N,07032.3816110,W,1,23,0.7,13.572,M,-29.744,M,0.0,*5A
###2023-12-09 12:40:45.940122$GNRMC,174045.10,A,4138.0540197,N,07032.3814809,W,2.33,44.77,091223,,,A*60
###2023-12-09 12:40:45.943625$GNGGA,174045.10,4138.0540197,N,07032.3814809,W,1,23,0.7,13.571,M,-29.744,M,0.0,*53
###2023-12-09 12:40:45.945874$GPGSA,A,3,03,04,16,26,28,29,31,32,,,,,1.2,0.7,1.0*31
###2023-12-09 12:40:45.947898$GLGSA,A,3,71,72,73,74,75,,,,,,,,1.2,0.7,1.0*2D
###2023-12-09 12:40:45.949849$GAGSA,A,3,04,19,21,27,,,,,,,,,1.2,0.7,1.0*2C
###2023-12-09 12:40:45.951874$GBGSA,A,3,14,24,25,26,33,,,,,,,,1.2,0.7,1.0*25
###2023-12-09 12:40:45.954993$GPGSV,2,1,08,03,38,274,44,04,24,311,42,16,39,208,44,26,69,207,47*76
###2023-12-09 12:40:45.957873$GPGSV,2,2,08,28,56,059,43,29,25,071,40,31,73,010,46,32,28,135,43*73
###2023-12-09 12:40:45.960725$GLGSV,2,1,05,71,54,170,49,72,68,305,46,73,45,035,43,74,71,299,43*64
###2023-12-09 12:40:45.962497$GLGSV,2,2,05,75,24,243,44,,,,,,,,,,,,*51
###2023-12-09 12:40:45.965349$GAGSV,1,1,04,04,23,311,41,19,83,293,40,21,80,172,45,27,40,049,40*66
###2023-12-09 12:40:45.968202$GBGSV,2,1,05,14,53,197,45,24,80,355,48,25,34,254,43,26,33,058,44*6C
###2023-12-09 12:40:45.969967$GBGSV,2,2,05,33,62,250,48,,,,,,,,,,,,*51
###2023-12-09 12:40:45.971562$GNVTG,44.77,T,,M,2.33,N,4.32,K,A*14
###2023-12-09 12:40:45.973551$GNGST,174045.10,18.000,,,,0.079,0.069,0.170*5B
