###2023-12-09 13:01:33.982465$GPGSV,2,2,08,28,49,070,45,29,25,061,42,31,69,038,48,32,19,140,43*7C
###2023-12-09 13:01:33.984859$GLGSV,2,1,06,65,24,327,44,71,41,173,46,72,73,269,45,73,36,041,47*6D
###2023-12-09 13:01:33.986636$GLGSV,2,2,06,74,70,337,43,75,32,253,42,,,,,,,,*66
###2023-12-09 13:01:33.988976$GAGSV,1,1,04,04,29,312,42,19,84,216,40,21,86,120,46,27,33,048,43*62
###2023-12-09 13:01:33.991317$GBGSV,2,1,05,14,43,193,43,24,74,024,48,25,41,262,45,26,26,063,43*6B
###2023-12-09 13:01:33.992776$GBGSV,2,2,05,33,57,233,46,,,,,,,,,,,,*5C
###2023-12-09 13:01:33.994092$GNVTG,233.18,T,,M,2.49,N,4.61,K,A*24
###2023-12-09 13:01:33.995759$GNGST,180133.10,18.000,,,,0.080,0.068,0.160*56
###2023-12-09 13:01:33.997088$GNZDA,180133.10,09,12,2023,00,00*78
###2023-12-09 13:01:33.997726$GNEBP,,,,,,M*13
###2023-12-09 13:01:34.163644$GNGGA,180133.30,4138.0513170,N,07032.2612798,W,1,24,0.6,13.452,M,-29.743,M,0.0,*5A
###2023-12-09 13:01:34.365393$GNGGA,180133.50,4138.0512212,N,07032.2614184,W,1,24,0.6,13.417,M,-29.743,M,0.0,*56
###2023-12-09 13:01:34.565447$GNGGA,180133.70,4138.0511608,N,07032.2616041,W,1,24,0.6,13.469,M,-29.743,M,0.0,*5B
###2023-12-09 13:01:34.766023$GNGGA,180133.90,4138.0511022,N,07032.2618097,W,1,24,0.6,13.499,M,-29.743,M,0.0,*51
###2023-12-09 13:01:34.967715$GNRMC,180134.10,A,4138.0510018,N,07032.2619599,W,2.64,215.51,091223,,,A*59
###2023-12-09 13:01:34.970616$GNGGA,180134.10,4138.0510018,N,07032.2619599,W,1,24,0.6,13.464,M,-29.743,M,0.0,*5E
###2023-12-09 13:01:34.972476$GPGSA,A,3,03,04,16,26,28,29,31,32,,,,,1.1,0.6,0.9*3B
###2023-12-09 13:01:34.974197$GLGSA,A,3,65,71,72,73,74,75,,,,,,,1.1,0.6,0.9*24
###2023-12-09 13:01:34.975799$GAGSA,A,3,04,19,21,27,,,,,,,,,1.1,0.6,0.9*26
###2023-12-09 13:01:34.977443$GBGSA,A,3,14,24,25,26,33,,,,,,,,1.1,0.6,0.9*2F
###2023-12-09 13:01:34.979782$GPGSV,2,1,08,03,35,261,42,04,33,311,44,16,50,212,44,26,80,210,46*7D
###2023-12-09 13:01:34.982107$GPGSV,2,2,08,28,49,070,44,29,25,061,41,31,69,038,47,32,19,140,43*71
###2023-12-09 13:01:34.984440$GLGSV,2,1,06,65,24,327,43,71,41,173,46,72,73,269,45,73,36,041,47*6A
###2023-12-09 13:01:34.986187$GLGSV,2,2,06,74,70,337,43,75,32,253,44,,,,,,,,*60
###2023-12-09 13:01:34.988528$GAGSV,1,1,04,04,29,312,43,19,84,216,39,21,86,120,45,27,33,048,43*6E
###2023-12-09 13:01:34.990898$GBGSV,2,1,05,14,43,193,44,24,74,024,48,25,41,262,45,26,26,063,42*6D
###2023-12-09 13:01:34.992347$GBGSV,2,2,05,33,57,233,47,,,,,,,,,,,,*5D
###2023-12-09 13:01:34.993669$GNVTG,215.51,T,,M,2.64,N,4.90,K,A*2C
###2023-12-09 13:01:34.995317$GNGST,180134.10,18.000,,,,0.080,0.068,0.160*51
###2023-12-09 13:01:34.996612$GNZDA,180134.10,09,12,2023,00,00*7F
###2023-12-09 13:01:34.997251$GNEBP,,,,,,M*13
###2023-12-09 13:01:35.164320$GNGGA,180134.30,4138.0508804,N,07032.2620762,W,1,24,0.6,13.387,M,-29.743,M,0.0,*56
###2023-12-09 13:01:35.366928$GNGGA,180134.50,4138.0508009,N,07032.2622570,W,1,24,0.6,13.419,M,-29.743,M,0.0,*56
###2023-12-09 13:01:35.567009$GNGGA,180134.70,4138.0507408,N,07032.2624792,W,1,24,0.6,13.460,M,-29.743,M,0.0,*58
###2023-12-09 13:01:35.767245$GNGGA,180134.90,4138.0506340,N,07032.2626410,W,1,24,0.6,13.452,M,-29.743,M,0.0,*56
###2023-12-09 13:01:35.968525$GNRMC,180135.10,A,4138.0505056,N,07032.2627452,W,2.76,212.26,091223,,,A*59
###2023-12-09 13:01:35.971415$GNGGA,180135.10,4138.0505056,N,07032.2627452,W,1,24,0.6,13.433,M,-29.743,M,0.0,*58
###2023-12-09 13:01:35.973282$GPGSA,A,3,03,04,16,26,28,29,31,32,,,,,1.1,0.6,0.9*3B
###2023-12-09 13:01:35.975012$GLGSA,A,3,65,71,72,73,74,75,,,,,,,1.1,0.6,0.9*24
###2023-12-09 13:01:35.976601$GAGSA,A,3,04,19,21,27,,,,,,,,,1.1,0.6,0.9*26
###2023-12-09 13:01:35.978243$GBGSA,A,3,14,24,25,26,33,,,,,,,,1.1,0.6,0.9*2F
###2023-12-09 13:01:35.980588$GPGSV,2,1,08,03,35,261,42,04,33,311,42,16,50,212,44,26,80,210,48*75
###2023-12-09 13:01:35.982967$GPGSV,2,2,08,28,49,070,46,29,25,061,43,31,69,038,47,32,19,140,45*77
###2023-12-09 13:01:35.985296$GLGSV,2,1,06,65,24,327,41,71,41,173,45,72,73,269,45,73,36,041,47*6B
###2023-12-09 13:01:35.987050$GLGSV,2,2,06,74,70,337,43,75,32,253,43,,,,,,,,*67
###2023-12-09 13:01:35.989360$GAGSV,1,1,04,04,29,312,41,19,84,216,39,21,86,120,45,27,33,048,43*6C
###2023-12-09 13:01:35.991689$GBGSV,2,1,05,14,43,193,44,24,74,024,48,25,41,262,44,26,26,063,44*6A
###2023-12-09 13:01:35.993149$GBGSV,2,2,05,33,57,233,46,,,,,,,,,,,,*5C
###2023-12-09 13:01:35.994464$GNVTG,212.26,T,,M,2.76,N,5.11,K,A*20
###2023-12-09 13:01:35.996118$GNGST,180135.10,18.000,,,,0.080,0.068,0.160*50
###2023-12-09 13:01:35.997403$GNZDA,180135.10,09,12,2023,00,00*7E
###2023-12-09 13:01:35.998039$GNEBP,,,,,,M*13
###2023-12-09 13:01:36.164499$GNGGA,180135.30,4138.0503945,N,07032.2629059,W,1,24,0.6,13.433,M,-29.743,M,0.0,*56
###2023-12-09 13:01:36.366768$GNGGA,180135.50,4138.0503093,N,07032.2631176,W,1,24,0.6,13.441,M,-29.743,M,0.0,*52
###2023-12-09 13:01:36.566770$GNGGA,180135.70,4138.0502013,N,07032.2632850,W,1,24,0.6,13.420,M,-29.743,M,0.0,*50
###2023-12-09 13:01:36.767144$GNGGA,180135.90,4138.0500712,N,07032.2634164,W,1,24,0.6,13.435,M,-29.743,M,0.0,*56
###2023-12-09 13:01:36.967602$GNRMC,180136.10,A,4138.0499662,N,07032.2635842,W,3.05,237.27,091223,,,A*52
###2023-12-09 13:01:36.970466$GNGGA,180136.10,4138.0499662,N,07032.2635842,W,1,24,0.6,13.454,M,-29.743,M,0.0,*51
###2023-12-09 13:01:36.972331$GPGSA,A,3,03,04,16,26,28,29,31,32,,,,,1.1,0.6,0.9*3B
###2023-12-09 13:01:36.974074$GLGSA,A,3,65,71,72,73,74,75,,,,,,,1.1,0.6,0.9*24
###2023-12-09 13:01:36.975665$GAGSA,A,3,04,19,21,27,,,,,,,,,1.1,0.6,0.9*26
###2023-12-09 13:01:36.977307$GBGSA,A,3,14,24,25,26,33,,,,,,,,1.1,0.6,0.9*2F
###2023-12-09 13:01:36.979638$GPGSV,2,1,08,03,35,261,42,04,33,311,43,16,50,212,44,26,80,210,47*7B
###2023-12-09 13:01:36.981962$GPGSV,2,2,08,28,49,070,45,29,25,061,43,31,69,038,47,32,19,140,45*74
###2023-12-09 13:01:36.984295$GLGSV,2,1,06,65,24,327,41,71,41,173,46,72,73,269,45,73,36,041,47*68
###2023-12-09 13:01:36.986039$GLGSV,2,2,06,74,70,337,43,75,32,253,43,,,,,,,,*67
###2023-12-09 13:01:36.988373$GAGSV,1,1,04,04,29,312,40,19,84,216,40,21,86,120,45,27,33,048,43*63
###2023-12-09 13:01:36.990716$GBGSV,2,1,05,14,43,193,44,24,74,024,49,25,41,262,45,26,26,063,45*6B
###2023-12-09 13:01:36.992176$GBGSV,2,2,05,33,57,233,46,,,,,,,,,,,,*5C
###2023-12-09 13:01:36.993499$GNVTG,237.27,T,,M,3.05,N,5.65,K,A*20
###2023-12-09 13:01:36.995165$GNGST,180136.10,18.000,,,,0.080,0.068,0.160*53
###2023-12-09 13:01:36.996459$GNZDA,180136.10,09,12,2023,00,00*7D
###2023-12-09 13:01:36.997097$GNEBP,,,,,,M*13
###2023-12-09 13:01:37.165317$GNGGA,180136.30,4138.0498695,N,07032.2637756,W,1,24,0.6,13.445,M,-29.743,M,0.0,*52
###2023-12-09 13:01:37.366673$GNGGA,180136.50,4138.0497537,N,07032.2639437,W,1,24,0.6,13.395,M,-29.743,M,0.0,*50
###2023-12-09 13:01:37.566609$GNGGA,180136.70,4138.0496404,N,07032.2641061,W,1,24,0.6,13.415,M,-29.743,M,0.0,*55
###2023-12-09 13:01:37.765565$GNGGA,180136.90,4138.0495405,N,07032.2643075,W,1,24,0.6,13.458,M,-29.743,M,0.0,*57
###2023-12-09 13:01:37.970375$GNRMC,180137.10,A,4138.0494219,N,07032.2644855,W,3.01,220.76,091223,,,A*50
###2023-12-09 13:01:37.973268$GNGGA,180137.10,4138.0494219,N,07032.2644855,W,1,24,0.6,13.435,M,-29.743,M,0.0,*52
###2023-12-09 13:01:37.975147$GPGSA,A,3,03,04,16,26,28,29,31,32,,,,,1.1,0.6,0.9*3B
###2023-12-09 13:01:37.976864$GLGSA,A,3,65,71,72,73,74,75,,,,,,,1.1,0.6,0.9*24
###2023-12-09 13:01:37.978450$GAGSA,A,3,04,19,21,27,,,,,,,,,1.1,0.6,0.9*26
###2023-12-09 13:01:37.980118$GBGSA,A,3,14,24,25,26,33,,,,,,,,1.1,0.6,0.9*2F
###2023-12-09 13:01:37.982458$GPGSV,2,1,08,03,35,261,43,04,33,311,44,16,50,212,44,26,80,210,47*7D
###2023-12-09 13:01:37.984817$GPGSV,2,2,08,28,49,070,44,29,25,061,43,31,69,038,47,32,19,140,43*73
###2023-12-09 13:01:37.987174$GLGSV,2,1,06,65,24,327,42,71,41,173,46,72,73,269,46,73,36,041,47*68
###2023-12-09 13:01:37.988924$GLGSV,2,2,06,74,70,337,43,75,32,253,44,,,,,,,,*60
###2023-12-09 13:01:37.991271$GAGSV,1,1,04,04,29,312,42,19,84,216,40,21,86,120,46,27,33,048,43*62
###2023-12-09 13:01:37.993612$GBGSV,2,1,05,14,43,193,44,24,74,024,49,25,41,262,46,26,26,063,44*69
###2023-12-09 13:01:37.995086$GBGSV,2,2,05,33,57,233,47,,,,,,,,,,,,*5D
###2023-12-09 13:01:37.996414$GNVTG,220.76,T,,M,3.01,N,5.58,K,A*28
###2023-12-09 13:01:37.998305$GNGST,180137.10,18.000,,,,0.080,0.068,0.160*52
###2023-12-09 13:01:37.999627$GNZDA,180137.10,09,12,2023,00,00*7C
###2023-12-09 13:01:38.000273$GNEBP,,,,,,M*13
###2023-12-09 13:01:38.164557$GNGGA,180137.30,4138.0492903,N,07032.2646187,W,1,24,0.6,13.414,M,-29.743,M,0.0,*51
###2023-12-09 13:01:38.365064$GNGGA,180137.50,4138.0491688,N,07032.2647893,W,1,24,0.6,13.426,M,-29.743,M,0.0,*54
###2023-12-09 13:01:38.565291$GNGGA,180137.70,4138.0490429,N,07032.2649729,W,1,24,0.6,13.411,M,-29.743,M,0.0,*5A
###2023-12-09 13:01:38.764547$GNGGA,180137.90,4138.0489095,N,07032.2651117,W,1,24,0.6,13.407,M,-29.743,M,0.0,*5A
###2023-12-09 13:01:38.967558$GNRMC,180138.10,A,4138.0487730,N,07032.2652623,W,3.40,221.71,091223,,,A*58
###2023-12-09 13:01:38.970433$GNGGA,180138.10,4138.0487730,N,07032.2652623,W,1,24,0.6,13.439,M,-29.743,M,0.0,*55
