###2023-12-09 13:42:02.598752$GNGGA,184201.70,4138.0389452,N,07032.4248461,W,1,22,0.7,13.379,M,-29.745,M,0.0,*5F
###2023-12-09 13:42:02.797950$GNGGA,184201.90,4138.0389581,N,07032.4249037,W,1,22,0.6,13.380,M,-29.745,M,0.0,*5F
###2023-12-09 13:42:03.001462$GNRMC,184202.10,A,4138.0389743,N,07032.4249599,W,0.78,287.13,091223,,,A*51
###2023-12-09 13:42:03.004359$GNGGA,184202.10,4138.0389743,N,07032.4249599,W,1,22,0.6,13.380,M,-29.745,M,0.0,*59
###2023-12-09 13:42:03.006210$GPGSA,A,3,03,04,09,16,26,28,29,31,,,,,1.1,0.6,0.9*33
###2023-12-09 13:42:03.007864$GLGSA,A,3,65,72,73,74,75,,,,,,,,1.1,0.6,0.9*22
###2023-12-09 13:42:03.009443$GAGSA,A,3,04,19,21,27,,,,,,,,,1.1,0.6,0.9*26
###2023-12-09 13:42:03.011096$GBGSA,A,3,12,24,25,33,35,,,,,,,,1.1,0.6,0.9*2B
###2023-12-09 13:42:03.013413$GPGSV,2,1,08,03,24,243,44,04,49,306,43,09,15,317,39,16,70,226,47*7E
###2023-12-09 13:42:03.015743$GPGSV,2,2,08,26,80,041,48,28,35,088,44,29,19,044,42,31,57,071,49*76
###2023-12-09 13:42:03.018070$GLGSV,2,1,05,65,41,315,40,72,59,216,47,73,20,054,43,74,57,019,42*66
###2023-12-09 13:42:03.019531$GLGSV,2,2,05,75,45,276,46,,,,,,,,,,,,*52
###2023-12-09 13:42:03.021858$GAGSV,1,1,04,04,42,309,40,19,69,180,41,21,74,044,47,27,20,051,41*6E
###2023-12-09 13:42:03.024190$GBGSV,2,1,05,12,17,124,42,24,60,049,49,25,53,279,47,33,43,215,45*67
###2023-12-09 13:42:03.025638$GBGSV,2,2,05,35,16,054,42,,,,,,,,,,,,*58
###2023-12-09 13:42:03.026970$GNVTG,287.13,T,,M,0.78,N,1.44,K,A*22
###2023-12-09 13:42:03.028586$GNGST,184202.10,5.900,,,,0.130,0.094,0.220*68
###2023-12-09 13:42:03.029874$GNZDA,184202.10,09,12,2023,00,00*7D
###2023-12-09 13:42:03.030512$GNEBP,,,,,,M*13
###2023-12-09 13:42:03.202158$GNGGA,184202.30,4138.0389924,N,07032.4250117,W,1,22,0.6,13.376,M,-29.745,M,0.0,*57
###2023-12-09 13:42:03.398627$GNGGA,184202.50,4138.0390101,N,07032.4250635,W,1,22,0.7,13.380,M,-29.745,M,0.0,*59
###2023-12-09 13:42:03.600739$GNGGA,184202.70,4138.0390263,N,07032.4251135,W,1,23,0.7,13.384,M,-29.745,M,0.0,*5F
###2023-12-09 13:42:03.797924$GNGGA,184202.90,4138.0390421,N,07032.4251642,W,1,23,0.7,13.387,M,-29.745,M,0.0,*55
###2023-12-09 13:42:04.002251$GNRMC,184203.10,A,4138.0390553,N,07032.4252149,W,0.72,287.13,091223,,,A*52
###2023-12-09 13:42:04.005138$GNGGA,184203.10,4138.0390553,N,07032.4252149,W,1,23,0.7,13.383,M,-29.745,M,0.0,*53
###2023-12-09 13:42:04.007013$GPGSA,A,3,03,04,09,16,26,28,29,31,,,,,1.1,0.7,0.9*32
###2023-12-09 13:42:04.008669$GLGSA,A,3,65,72,73,74,75,,,,,,,,1.1,0.7,0.9*23
###2023-12-09 13:42:04.010248$GAGSA,A,3,04,19,21,27,,,,,,,,,1.1,0.7,0.9*27
###2023-12-09 13:42:04.011900$GBGSA,A,3,12,24,25,33,35,,,,,,,,1.1,0.7,0.9*2A
###2023-12-09 13:42:04.014219$GPGSV,2,1,08,03,24,243,43,04,49,306,44,09,15,317,39,16,70,226,46*7F
###2023-12-09 13:42:04.016559$GPGSV,2,2,08,26,80,041,48,28,35,088,43,29,19,044,42,31,57,071,47*7F
###2023-12-09 13:42:04.018893$GLGSV,2,1,05,65,41,315,37,72,59,216,46,73,20,054,42,74,57,019,43*67
###2023-12-09 13:42:04.020346$GLGSV,2,2,05,75,45,276,47,,,,,,,,,,,,*53
###2023-12-09 13:42:04.022678$GAGSV,1,1,04,04,42,309,40,19,69,180,41,21,74,044,46,27,20,051,41*6F
###2023-12-09 13:42:04.025008$GBGSV,2,1,05,12,17,124,44,24,60,049,48,25,53,279,48,33,43,215,48*62
###2023-12-09 13:42:04.026460$GBGSV,2,2,05,35,16,054,41,,,,,,,,,,,,*5B
###2023-12-09 13:42:04.027787$GNVTG,287.13,T,,M,0.72,N,1.33,K,A*28
###2023-12-09 13:42:04.029395$GNGST,184203.10,5.300,,,,0.130,0.093,0.220*64
###2023-12-09 13:42:04.030695$GNZDA,184203.10,09,12,2023,00,00*7C
###2023-12-09 13:42:04.031334$GNEBP,,,,,,M*13
###2023-12-09 13:42:04.200881$GNGGA,184203.30,4138.0390694,N,07032.4252622,W,1,23,0.7,13.383,M,-29.745,M,0.0,*53
###2023-12-09 13:42:04.398942$GNGGA,184203.50,4138.0390840,N,07032.4253096,W,1,24,0.7,13.389,M,-29.745,M,0.0,*57
###2023-12-09 13:42:04.596506$GNGGA,184203.70,4138.0390976,N,07032.4253582,W,1,23,0.8,13.386,M,-29.745,M,0.0,*56
###2023-12-09 13:42:04.797534$GNGGA,184203.90,4138.0391087,N,07032.4254077,W,1,23,0.7,13.392,M,-29.745,M,0.0,*5C
###2023-12-09 13:42:05.002362$GNRMC,184204.10,A,4138.0391221,N,07032.4254559,W,0.62,287.13,091223,,,A*54
###2023-12-09 13:42:05.005261$GNGGA,184204.10,4138.0391221,N,07032.4254559,W,1,23,0.7,13.397,M,-29.745,M,0.0,*51
###2023-12-09 13:42:05.007141$GPGSA,A,3,03,04,09,16,26,28,29,31,,,,,1.3,0.7,1.0*38
###2023-12-09 13:42:05.008852$GLGSA,A,3,65,72,73,74,75,83,,,,,,,1.3,0.7,1.0*22
###2023-12-09 13:42:05.010430$GAGSA,A,3,04,19,21,27,,,,,,,,,1.3,0.7,1.0*2D
###2023-12-09 13:42:05.012086$GBGSA,A,3,12,24,25,33,35,,,,,,,,1.3,0.7,1.0*20
###2023-12-09 13:42:05.014402$GPGSV,2,1,08,03,24,243,44,04,49,306,44,09,15,317,37,16,70,226,48*78
###2023-12-09 13:42:05.016738$GPGSV,2,2,08,26,80,041,49,28,35,088,44,29,19,044,44,31,57,071,48*70
###2023-12-09 13:42:05.019071$GLGSV,2,1,06,65,41,315,40,72,59,216,45,73,20,054,44,74,57,019,43*61
###2023-12-09 13:42:05.020814$GLGSV,2,2,06,75,45,276,48,83,16,044,35,,,,,,,,*65
###2023-12-09 13:42:05.023146$GAGSV,1,1,04,04,42,309,41,19,69,180,43,21,74,044,47,27,20,051,41*6D
###2023-12-09 13:42:05.025452$GBGSV,2,1,05,12,17,124,42,24,60,049,49,25,53,279,48,33,43,215,47*6A
###2023-12-09 13:42:05.026905$GBGSV,2,2,05,35,16,054,40,,,,,,,,,,,,*5A
###2023-12-09 13:42:05.028217$GNVTG,287.13,T,,M,0.62,N,1.15,K,A*2D
###2023-12-09 13:42:05.029816$GNGST,184204.10,8.800,,,,0.130,0.092,0.210*67
###2023-12-09 13:42:05.031106$GNZDA,184204.10,09,12,2023,00,00*7B
###2023-12-09 13:42:05.031744$GNEBP,,,,,,M*13
###2023-12-09 13:42:05.197427$GNGGA,184204.30,4138.0391385,N,07032.4254951,W,1,23,0.7,13.397,M,-29.745,M,0.0,*58
###2023-12-09 13:42:05.396894$GNGGA,184204.50,4138.0391530,N,07032.4255363,W,1,24,0.7,13.404,M,-29.745,M,0.0,*56
###2023-12-09 13:42:05.598445$GNGGA,184204.70,4138.0391653,N,07032.4255817,W,1,24,0.7,13.403,M,-29.745,M,0.0,*5D
###2023-12-09 13:42:05.798199$GNGGA,184204.90,4138.0391781,N,07032.4256261,W,1,23,0.7,13.409,M,-29.745,M,0.0,*58
###2023-12-09 13:42:06.001144$GNRMC,184205.10,A,4138.0391935,N,07032.4256621,W,0.60,287.13,091223,,,A*57
###2023-12-09 13:42:06.004042$GNGGA,184205.10,4138.0391935,N,07032.4256621,W,1,22,0.8,13.407,M,-29.745,M,0.0,*50
###2023-12-09 13:42:06.005897$GPGSA,A,3,03,04,09,16,26,28,29,31,,,,,1.4,0.8,1.1*31
###2023-12-09 13:42:06.007559$GLGSA,A,3,65,72,73,74,75,,,,,,,,1.4,0.8,1.1*20
###2023-12-09 13:42:06.009139$GAGSA,A,3,04,19,21,27,,,,,,,,,1.4,0.8,1.1*24
###2023-12-09 13:42:06.010790$GBGSA,A,3,12,24,25,33,35,,,,,,,,1.4,0.8,1.1*29
###2023-12-09 13:42:06.013108$GPGSV,2,1,08,03,24,243,44,04,49,306,44,09,15,317,38,16,70,226,46*79
###2023-12-09 13:42:06.015437$GPGSV,2,2,08,26,80,041,48,28,35,088,43,29,19,044,42,31,57,071,47*7F
###2023-12-09 13:42:06.017763$GLGSV,2,1,05,65,41,315,39,72,59,216,47,73,20,054,44,74,57,019,42*6F
###2023-12-09 13:42:06.019223$GLGSV,2,2,05,75,45,276,45,,,,,,,,,,,,*51
###2023-12-09 13:42:06.021544$GAGSV,1,1,04,04,42,309,43,19,69,180,42,21,74,044,46,27,20,051,41*6F
###2023-12-09 13:42:06.023879$GBGSV,2,1,05,12,17,124,41,24,60,049,48,25,53,279,48,33,43,215,46*69
###2023-12-09 13:42:06.025324$GBGSV,2,2,05,35,16,054,41,,,,,,,,,,,,*5B
###2023-12-09 13:42:06.026652$GNVTG,287.13,T,,M,0.60,N,1.12,K,A*28
###2023-12-09 13:42:06.028264$GNGST,184205.10,5.700,,,,0.130,0.091,0.210*67
###2023-12-09 13:42:06.029551$GNZDA,184205.10,09,12,2023,00,00*7A
###2023-12-09 13:42:06.030185$GNEBP,,,,,,M*13
###2023-12-09 13:42:06.199572$GNGGA,184205.30,4138.0392107,N,07032.4257000,W,1,23,0.8,13.416,M,-29.745,M,0.0,*5D
###2023-12-09 13:42:06.397917$GNGGA,184205.50,4138.0392242,N,07032.4257390,W,1,22,0.8,13.418,M,-29.745,M,0.0,*5C
###2023-12-09 13:42:06.597546$GNGGA,184205.70,4138.0392375,N,07032.4257790,W,1,23,0.7,13.412,M,-29.745,M,0.0,*5B
###2023-12-09 13:42:06.799494$GNGGA,184205.90,4138.0392491,N,07032.4258169,W,1,23,0.8,13.418,M,-29.745,M,0.0,*52
###2023-12-09 13:42:07.001124$GNRMC,184206.10,A,4138.0392631,N,07032.4258496,W,0.51,287.13,091223,,,A*5E
###2023-12-09 13:42:07.003994$GNGGA,184206.10,4138.0392631,N,07032.4258496,W,1,23,0.8,13.421,M,-29.745,M,0.0,*5E
###2023-12-09 13:42:07.005851$GPGSA,A,3,03,04,09,16,26,28,29,31,,,,,1.4,0.8,1.1*31
###2023-12-09 13:42:07.007576$GLGSA,A,3,65,72,73,74,75,83,,,,,,,1.4,0.8,1.1*2B
###2023-12-09 13:42:07.009159$GAGSA,A,3,04,19,21,27,,,,,,,,,1.4,0.8,1.1*24
###2023-12-09 13:42:07.011078$GBGSA,A,3,12,24,25,33,35,,,,,,,,1.4,0.8,1.1*29
###2023-12-09 13:42:07.013416$GPGSV,2,1,08,03,24,243,42,04,49,306,45,09,15,317,36,16,70,226,46*70
###2023-12-09 13:42:07.015756$GPGSV,2,2,08,26,80,041,47,28,35,088,45,29,19,044,42,31,57,071,47*76
###2023-12-09 13:42:07.018084$GLGSV,2,1,06,65,41,315,43,72,59,216,47,73,20,054,44,74,57,019,41*62
###2023-12-09 13:42:07.019834$GLGSV,2,2,06,75,45,276,48,83,16,044,35,,,,,,,,*65
###2023-12-09 13:42:07.022165$GAGSV,1,1,04,04,42,309,44,19,69,180,42,21,74,044,46,27,20,051,41*68
###2023-12-09 13:42:07.024512$GBGSV,2,1,05,12,17,124,38,24,60,049,48,25,53,279,48,33,43,215,45*64
###2023-12-09 13:42:07.025967$GBGSV,2,2,05,35,16,054,42,,,,,,,,,,,,*58
###2023-12-09 13:42:07.027332$GNVTG,287.13,T,,M,0.51,N,0.94,K,A*25
