###2023-12-09 13:45:20.018456$GPGSV,2,1,06,04,51,304,46,16,72,228,44,26,79,041,41,28,34,089,44*75
###2023-12-09 13:45:20.020252$GPGSV,2,2,06,29,18,043,44,31,56,072,49,,,,,,,,*73
###2023-12-09 13:45:20.022600$GLGSV,2,1,05,65,42,313,46,73,18,056,44,74,56,022,36,75,47,279,46*61
###2023-12-09 13:45:20.024058$GLGSV,2,2,05,83,16,042,38,,,,,,,,,,,,*51
###2023-12-09 13:45:20.026089$GAGSV,1,1,03,04,43,308,44,21,73,044,35,27,19,051,41,,,,*5E
###2023-12-09 13:45:20.028440$GBGSV,1,1,04,12,19,123,42,24,59,051,47,25,54,281,41,35,16,052,37*65
###2023-12-09 13:45:20.029772$GNVTG,243.17,T,,M,0.06,N,0.11,K,A*26
###2023-12-09 13:45:20.031397$GNGST,184519.10,7.500,,,,0.190,0.110,0.300*6F
###2023-12-09 13:45:20.032687$GNZDA,184519.10,09,12,2023,00,00*70
###2023-12-09 13:45:20.033328$GNEBP,,,,,,M*13
###2023-12-09 13:45:20.201485$GNGGA,184519.30,4138.0393181,N,07032.4388578,W,1,18,0.8,14.245,M,-29.746,M,0.0,*5D
###2023-12-09 13:45:20.401287$GNGGA,184519.50,4138.0393173,N,07032.4388579,W,1,18,0.8,14.248,M,-29.746,M,0.0,*5A
###2023-12-09 13:45:20.601086$GNGGA,184519.70,4138.0393166,N,07032.4388582,W,1,18,0.8,14.246,M,-29.746,M,0.0,*56
###2023-12-09 13:45:20.802148$GNGGA,184519.90,4138.0393159,N,07032.4388579,W,1,19,0.8,14.247,M,-29.746,M,0.0,*50
###2023-12-09 13:45:21.009431$GNRMC,184520.10,A,4138.0393164,N,07032.4388576,W,0.02,243.17,091223,,,A*52
###2023-12-09 13:45:21.012306$GNGGA,184520.10,4138.0393164,N,07032.4388576,W,1,19,0.8,14.248,M,-29.746,M,0.0,*5C
###2023-12-09 13:45:21.014032$GPGSA,A,3,04,16,26,28,29,31,,,,,,,1.3,0.8,1.1*3C
###2023-12-09 13:45:21.015754$GLGSA,A,3,65,72,73,74,75,83,,,,,,,1.3,0.8,1.1*2C
###2023-12-09 13:45:21.017263$GAGSA,A,3,04,21,27,,,,,,,,,,1.3,0.8,1.1*2B
###2023-12-09 13:45:21.018851$GBGSA,A,3,12,24,25,35,,,,,,,,,1.3,0.8,1.1*2E
###2023-12-09 13:45:21.021167$GPGSV,2,1,06,04,51,304,46,16,72,228,44,26,79,041,41,28,34,089,44*75
###2023-12-09 13:45:21.022915$GPGSV,2,2,06,29,18,043,44,31,56,072,49,,,,,,,,*73
###2023-12-09 13:45:21.025230$GLGSV,2,1,06,65,42,313,46,72,57,214,35,73,18,056,44,74,56,022,37*6A
###2023-12-09 13:45:21.026982$GLGSV,2,2,06,75,47,279,46,83,16,042,38,,,,,,,,*6D
###2023-12-09 13:45:21.029019$GAGSV,1,1,03,04,43,308,44,21,73,044,36,27,19,051,41,,,,*5D
###2023-12-09 13:45:21.031359$GBGSV,1,1,04,12,19,123,42,24,59,051,47,25,54,281,40,35,16,052,37*64
###2023-12-09 13:45:21.032687$GNVTG,243.17,T,,M,0.02,N,0.04,K,A*26
###2023-12-09 13:45:21.034300$GNGST,184520.10,7.700,,,,0.190,0.110,0.300*67
###2023-12-09 13:45:21.035605$GNZDA,184520.10,09,12,2023,00,00*7A
###2023-12-09 13:45:21.036243$GNEBP,,,,,,M*13
###2023-12-09 13:45:21.204746$GNGGA,184520.30,4138.0393164,N,07032.4388565,W,1,19,0.8,14.252,M,-29.746,M,0.0,*57
###2023-12-09 13:45:21.401327$GNGGA,184520.50,4138.0393171,N,07032.4388558,W,1,19,0.8,14.259,M,-29.746,M,0.0,*50
###2023-12-09 13:45:21.600738$GNGGA,184520.70,4138.0393158,N,07032.4388566,W,1,19,0.8,14.257,M,-29.746,M,0.0,*5A
###2023-12-09 13:45:21.803427$GNGGA,184520.90,4138.0393164,N,07032.4388565,W,1,19,0.8,14.260,M,-29.746,M,0.0,*5C
###2023-12-09 13:45:22.004451$GNRMC,184521.10,A,4138.0393177,N,07032.4388564,W,0.02,243.17,091223,,,A*52
###2023-12-09 13:45:22.007334$GNGGA,184521.10,4138.0393177,N,07032.4388564,W,1,19,0.8,14.267,M,-29.746,M,0.0,*51
###2023-12-09 13:45:22.009073$GPGSA,A,3,04,16,26,28,29,31,,,,,,,1.3,0.8,1.1*3C
###2023-12-09 13:45:22.010809$GLGSA,A,3,65,72,73,74,75,83,,,,,,,1.3,0.8,1.1*2C
###2023-12-09 13:45:22.012331$GAGSA,A,3,04,21,27,,,,,,,,,,1.3,0.8,1.1*2B
###2023-12-09 13:45:22.013910$GBGSA,A,3,12,24,25,35,,,,,,,,,1.3,0.8,1.1*2E
###2023-12-09 13:45:22.016256$GPGSV,2,1,06,04,51,304,46,16,72,228,44,26,79,041,41,28,34,089,44*75
###2023-12-09 13:45:22.018007$GPGSV,2,2,06,29,18,043,44,31,56,072,49,,,,,,,,*73
###2023-12-09 13:45:22.020351$GLGSV,2,1,06,65,42,313,46,72,57,214,36,73,18,056,44,74,56,022,37*69
###2023-12-09 13:45:22.022097$GLGSV,2,2,06,75,47,279,46,83,16,042,38,,,,,,,,*6D
###2023-12-09 13:45:22.024142$GAGSV,1,1,03,04,43,308,44,21,73,044,36,27,19,051,41,,,,*5D
###2023-12-09 13:45:22.026476$GBGSV,1,1,04,12,19,123,42,24,59,051,47,25,54,281,40,35,16,052,37*64
###2023-12-09 13:45:22.027819$GNVTG,243.17,T,,M,0.02,N,0.04,K,A*26
###2023-12-09 13:45:22.029435$GNGST,184521.10,7.700,,,,0.190,0.110,0.310*67
###2023-12-09 13:45:22.030738$GNZDA,184521.10,09,12,2023,00,00*7B
###2023-12-09 13:45:22.031380$GNEBP,,,,,,M*13
###2023-12-09 13:45:22.202933$GNGGA,184521.30,4138.0393172,N,07032.4388565,W,1,19,0.8,14.264,M,-29.746,M,0.0,*54
###2023-12-09 13:45:22.402694$GNGGA,184521.50,4138.0393175,N,07032.4388575,W,1,19,0.8,14.268,M,-29.746,M,0.0,*58
###2023-12-09 13:45:22.601476$GNGGA,184521.70,4138.0393167,N,07032.4388580,W,1,19,0.8,14.268,M,-29.746,M,0.0,*53
###2023-12-09 13:45:22.801347$GNGGA,184521.90,4138.0393160,N,07032.4388583,W,1,19,0.8,14.269,M,-29.746,M,0.0,*58
###2023-12-09 13:45:23.004345$GNRMC,184522.10,A,4138.0393159,N,07032.4388583,W,0.02,243.17,091223,,,A*54
###2023-12-09 13:45:23.007204$GNGGA,184522.10,4138.0393159,N,07032.4388583,W,1,19,0.8,14.275,M,-29.746,M,0.0,*54
###2023-12-09 13:45:23.008918$GPGSA,A,3,04,16,26,28,29,31,,,,,,,1.3,0.8,1.1*3C
###2023-12-09 13:45:23.010629$GLGSA,A,3,65,72,73,74,75,83,,,,,,,1.3,0.8,1.1*2C
###2023-12-09 13:45:23.012139$GAGSA,A,3,04,21,27,,,,,,,,,,1.3,0.8,1.1*2B
###2023-12-09 13:45:23.013718$GBGSA,A,3,12,24,25,35,,,,,,,,,1.3,0.8,1.1*2E
###2023-12-09 13:45:23.016047$GPGSV,2,1,06,04,51,304,46,16,72,228,44,26,79,041,41,28,34,089,44*75
###2023-12-09 13:45:23.017781$GPGSV,2,2,06,29,18,043,44,31,56,072,49,,,,,,,,*73
###2023-12-09 13:45:23.020102$GLGSV,2,1,06,65,42,313,46,72,57,214,36,73,18,056,44,74,56,022,38*66
###2023-12-09 13:45:23.021842$GLGSV,2,2,06,75,47,279,46,83,16,042,38,,,,,,,,*6D
###2023-12-09 13:45:23.023913$GAGSV,1,1,03,04,43,308,44,21,73,044,36,27,19,051,42,,,,*5E
###2023-12-09 13:45:23.026237$GBGSV,1,1,04,12,19,123,41,24,59,051,46,25,54,281,40,35,16,052,36*67
###2023-12-09 13:45:23.027569$GNVTG,243.17,T,,M,0.02,N,0.04,K,A*26
###2023-12-09 13:45:23.029175$GNGST,184522.10,7.800,,,,0.190,0.120,0.310*68
###2023-12-09 13:45:23.030457$GNZDA,184522.10,09,12,2023,00,00*78
###2023-12-09 13:45:23.031104$GNEBP,,,,,,M*13
###2023-12-09 13:45:23.201452$GNGGA,184522.30,4138.0393152,N,07032.4388589,W,1,19,0.8,14.278,M,-29.746,M,0.0,*5A
###2023-12-09 13:45:23.402415$GNGGA,184522.50,4138.0393153,N,07032.4388600,W,1,19,0.8,14.281,M,-29.746,M,0.0,*59
###2023-12-09 13:45:23.603060$GNGGA,184522.70,4138.0393170,N,07032.4388604,W,1,19,0.8,14.283,M,-29.746,M,0.0,*5C
###2023-12-09 13:45:23.803061$GNGGA,184522.90,4138.0393161,N,07032.4388602,W,1,19,0.8,14.286,M,-29.746,M,0.0,*51
###2023-12-09 13:45:24.005863$GNRMC,184523.10,A,4138.0393162,N,07032.4388601,W,0.04,243.17,091223,,,A*52
###2023-12-09 13:45:24.008745$GNGGA,184523.10,4138.0393162,N,07032.4388601,W,1,19,0.8,14.287,M,-29.746,M,0.0,*59
###2023-12-09 13:45:24.010481$GPGSA,A,3,04,16,26,28,29,31,,,,,,,1.3,0.8,1.1*3C
###2023-12-09 13:45:24.012213$GLGSA,A,3,65,72,73,74,75,83,,,,,,,1.3,0.8,1.1*2C
###2023-12-09 13:45:24.013729$GAGSA,A,3,04,21,27,,,,,,,,,,1.3,0.8,1.1*2B
###2023-12-09 13:45:24.015320$GBGSA,A,3,12,24,25,35,,,,,,,,,1.3,0.8,1.1*2E
###2023-12-09 13:45:24.017648$GPGSV,2,1,06,04,51,304,46,16,72,228,44,26,79,041,41,28,34,089,45*74
###2023-12-09 13:45:24.019408$GPGSV,2,2,06,29,18,043,44,31,56,072,50,,,,,,,,*7B
###2023-12-09 13:45:24.021746$GLGSV,2,1,06,65,42,313,46,72,57,214,36,73,18,056,44,74,56,022,38*66
###2023-12-09 13:45:24.023499$GLGSV,2,2,06,75,47,279,46,83,16,042,38,,,,,,,,*6D
###2023-12-09 13:45:24.025526$GAGSV,1,1,03,04,43,308,44,21,73,044,36,27,19,051,42,,,,*5E
###2023-12-09 13:45:24.027864$GBGSV,1,1,04,12,19,123,42,24,59,051,46,25,54,281,40,35,16,052,36*64
###2023-12-09 13:45:24.029193$GNVTG,243.17,T,,M,0.04,N,0.07,K,A*23
###2023-12-09 13:45:24.030822$GNGST,184523.10,8.000,,,,0.190,0.120,0.310*6E
###2023-12-09 13:45:24.032109$GNZDA,184523.10,09,12,2023,00,00*79
###2023-12-09 13:45:24.032747$GNEBP,,,,,,M*13
###2023-12-09 13:45:24.204034$GNGGA,184523.30,4138.0393153,N,07032.4388615,W,1,19,0.8,14.288,M,-29.746,M,0.0,*53
###2023-12-09 13:45:24.405983$GNGGA,184523.50,4138.0393149,N,07032.4388610,W,1,19,0.8,14.292,M,-29.746,M,0.0,*50
###2023-12-09 13:45:24.601549$GNGGA,184523.70,4138.0393159,N,07032.4388613,W,1,19,0.8,14.296,M,-29.746,M,0.0,*54
###2023-12-09 13:45:24.803239$GNGGA,184523.90,4138.0393154,N,07032.4388615,W,1,19,0.8,14.299,M,-29.746,M,0.0,*5E
###2023-12-09 13:45:25.004392$GNRMC,184524.10,A,4138.0393141,N,07032.4388621,W,0.02,243.17,091223,,,A*50
###2023-12-09 13:45:25.007257$GNGGA,184524.10,4138.0393141,N,07032.4388621,W,1,19,0.8,14.299,M,-29.746,M,0.0,*52
###2023-12-09 13:45:25.008983$GPGSA,A,3,04,16,26,28,29,31,,,,,,,1.3,0.8,1.1*3C
###2023-12-09 13:45:25.010710$GLGSA,A,3,65,72,73,74,75,83,,,,,,,1.3,0.8,1.1*2C
###2023-12-09 13:45:25.012222$GAGSA,A,3,04,21,27,,,,,,,,,,1.3,0.8,1.1*2B
###2023-12-09 13:45:25.013792$GBGSA,A,3,12,24,25,35,,,,,,,,,1.3,0.8,1.1*2E
