###2023-12-09 12:56:09.981067$GBGSV,2,1,05,14,46,194,46,24,75,018,49,25,39,260,48,26,28,061,43*6F
###2023-12-09 12:56:09.982549$GBGSV,2,2,05,33,59,237,48,,,,,,,,,,,,*58
###2023-12-09 12:56:09.983898$GNVTG,352.98,T,,M,0.60,N,1.12,K,A*22
###2023-12-09 12:56:09.985550$GNGST,175609.10,18.000,,,,0.075,0.065,0.150*56
###2023-12-09 12:56:09.986857$GNZDA,175609.10,09,12,2023,00,00*7C
###2023-12-09 12:56:09.987496$GNEBP,,,,,,M*13
###2023-12-09 12:56:10.154881$GNGGA,175609.30,4138.0428505,N,07032.3896721,W,1,24,0.6,13.216,M,-29.745,M,0.0,*50
###2023-12-09 12:56:10.354696$GNGGA,175609.50,4138.0428513,N,07032.3896554,W,1,24,0.6,13.221,M,-29.745,M,0.0,*55
###2023-12-09 12:56:10.554962$GNGGA,175609.70,4138.0428606,N,07032.3896438,W,1,24,0.6,13.216,M,-29.745,M,0.0,*5F
###2023-12-09 12:56:10.754969$GNGGA,175609.90,4138.0428913,N,07032.3896362,W,1,24,0.6,13.213,M,-29.745,M,0.0,*57
###2023-12-09 12:56:10.955978$GNRMC,175610.10,A,4138.0429251,N,07032.3896318,W,0.45,352.98,091223,,,A*57
###2023-12-09 12:56:10.958860$GNGGA,175610.10,4138.0429251,N,07032.3896318,W,1,24,0.6,13.217,M,-29.745,M,0.0,*52
###2023-12-09 12:56:10.960722$GPGSA,A,3,03,04,16,26,28,29,31,32,,,,,1.1,0.6,0.9*3B
###2023-12-09 12:56:10.962446$GLGSA,A,3,65,71,72,73,74,75,,,,,,,1.1,0.6,0.9*24
###2023-12-09 12:56:10.964048$GAGSA,A,3,04,19,21,27,,,,,,,,,1.1,0.6,0.9*26
###2023-12-09 12:56:10.965697$GBGSA,A,3,14,24,25,26,33,,,,,,,,1.1,0.6,0.9*2F
###2023-12-09 12:56:10.968054$GPGSV,2,1,08,03,36,265,46,04,30,311,41,16,47,211,47,26,77,209,49*71
###2023-12-09 12:56:10.970395$GPGSV,2,2,08,28,51,068,44,29,25,064,41,31,70,031,47,32,21,139,42*71
###2023-12-09 12:56:10.972742$GLGSV,2,1,06,65,21,328,42,71,44,172,47,72,72,281,47,73,38,040,46*6F
###2023-12-09 12:56:10.974494$GLGSV,2,2,06,74,71,327,43,75,30,250,46,,,,,,,,*63
###2023-12-09 12:56:10.976837$GAGSV,1,1,04,04,27,312,41,19,85,234,40,21,85,141,46,27,34,048,42*6C
###2023-12-09 12:56:10.979184$GBGSV,2,1,05,14,46,194,44,24,75,018,48,25,39,260,45,26,28,061,42*60
###2023-12-09 12:56:10.980641$GBGSV,2,2,05,33,59,237,47,,,,,,,,,,,,*57
###2023-12-09 12:56:10.981970$GNVTG,352.98,T,,M,0.45,N,0.83,K,A*2C
###2023-12-09 12:56:10.983628$GNGST,175610.10,18.000,,,,0.075,0.065,0.150*5E
###2023-12-09 12:56:10.984919$GNZDA,175610.10,09,12,2023,00,00*74
###2023-12-09 12:56:10.985556$GNEBP,,,,,,M*13
###2023-12-09 12:56:11.153241$GNGGA,175610.30,4138.0429362,N,07032.3896182,W,1,24,0.6,13.223,M,-29.745,M,0.0,*57
###2023-12-09 12:56:11.355193$GNGGA,175610.50,4138.0429345,N,07032.3896012,W,1,24,0.6,13.225,M,-29.745,M,0.0,*5A
###2023-12-09 12:56:11.555028$GNGGA,175610.70,4138.0429510,N,07032.3895895,W,1,24,0.6,13.223,M,-29.745,M,0.0,*5C
###2023-12-09 12:56:11.755357$GNGGA,175610.90,4138.0429855,N,07032.3895842,W,1,24,0.6,13.224,M,-29.745,M,0.0,*53
###2023-12-09 12:56:11.968626$GNRMC,175611.10,A,4138.0430128,N,07032.3895778,W,0.37,352.98,091223,,,A*57
###2023-12-09 12:56:11.971507$GNGGA,175611.10,4138.0430128,N,07032.3895778,W,1,24,0.6,13.223,M,-29.745,M,0.0,*50
###2023-12-09 12:56:11.973363$GPGSA,A,3,03,04,16,26,28,29,31,32,,,,,1.1,0.6,0.9*3B
###2023-12-09 12:56:11.975087$GLGSA,A,3,65,71,72,73,74,75,,,,,,,1.1,0.6,0.9*24
###2023-12-09 12:56:11.976667$GAGSA,A,3,04,19,21,27,,,,,,,,,1.1,0.6,0.9*26
###2023-12-09 12:56:11.978305$GBGSA,A,3,14,24,25,26,33,,,,,,,,1.1,0.6,0.9*2F
###2023-12-09 12:56:11.980636$GPGSV,2,1,08,03,36,265,45,04,30,311,42,16,47,211,47,26,77,209,49*71
###2023-12-09 12:56:11.982987$GPGSV,2,2,08,28,51,068,45,29,25,064,41,31,70,031,47,32,21,139,41*73
###2023-12-09 12:56:11.985309$GLGSV,2,1,06,65,21,328,43,71,44,172,47,72,72,281,47,73,38,040,47*6F
###2023-12-09 12:56:11.987057$GLGSV,2,2,06,74,71,327,43,75,30,250,45,,,,,,,,*60
###2023-12-09 12:56:11.989370$GAGSV,1,1,04,04,27,312,41,19,85,234,41,21,85,141,47,27,34,048,43*6D
###2023-12-09 12:56:11.991704$GBGSV,2,1,05,14,46,194,45,24,75,018,49,25,39,260,47,26,28,061,43*63
###2023-12-09 12:56:11.993151$GBGSV,2,2,05,33,59,237,47,,,,,,,,,,,,*57
###2023-12-09 12:56:11.994466$GNVTG,352.98,T,,M,0.37,N,0.68,K,A*2C
###2023-12-09 12:56:11.996119$GNGST,175611.10,18.000,,,,0.075,0.065,0.150*5F
###2023-12-09 12:56:11.997411$GNZDA,175611.10,09,12,2023,00,00*75
###2023-12-09 12:56:11.998045$GNEBP,,,,,,M*13
###2023-12-09 12:56:12.155276$GNGGA,175611.30,4138.0430185,N,07032.3895619,W,1,24,0.6,13.233,M,-29.745,M,0.0,*52
###2023-12-09 12:56:12.355069$GNGGA,175611.50,4138.0430205,N,07032.3895478,W,1,24,0.6,13.237,M,-29.745,M,0.0,*5E
###2023-12-09 12:56:12.555980$GNGGA,175611.70,4138.0430398,N,07032.3895401,W,1,24,0.6,13.239,M,-29.745,M,0.0,*59
###2023-12-09 12:56:12.756344$GNGGA,175611.90,4138.0430746,N,07032.3895351,W,1,24,0.6,13.243,M,-29.745,M,0.0,*5F
###2023-12-09 12:56:12.955074$GNRMC,175612.10,A,4138.0430992,N,07032.3895257,W,0.29,352.98,091223,,,A*5A
###2023-12-09 12:56:12.957924$GNGGA,175612.10,4138.0430992,N,07032.3895257,W,1,24,0.6,13.248,M,-29.745,M,0.0,*5F
###2023-12-09 12:56:12.959791$GPGSA,A,3,03,04,16,26,28,29,31,32,,,,,1.1,0.6,0.9*3B
###2023-12-09 12:56:12.961504$GLGSA,A,3,65,71,72,73,74,75,,,,,,,1.1,0.6,0.9*24
###2023-12-09 12:56:12.963095$GAGSA,A,3,04,19,21,27,,,,,,,,,1.1,0.6,0.9*26
###2023-12-09 12:56:12.964730$GBGSA,A,3,14,24,25,26,33,,,,,,,,1.1,0.6,0.9*2F
###2023-12-09 12:56:12.967057$GPGSV,2,1,08,03,36,265,45,04,30,311,42,16,47,211,46,26,77,209,48*71
###2023-12-09 12:56:12.969375$GPGSV,2,2,08,28,51,068,44,29,25,064,41,31,70,031,48,32,21,139,41*7D
###2023-12-09 12:56:12.971709$GLGSV,2,1,06,65,21,328,43,71,44,172,47,72,72,281,47,73,38,040,46*6E
###2023-12-09 12:56:12.973452$GLGSV,2,2,06,74,71,327,43,75,30,250,46,,,,,,,,*63
###2023-12-09 12:56:12.975777$GAGSV,1,1,04,04,27,312,42,19,85,234,41,21,85,141,47,27,34,048,43*6E
###2023-12-09 12:56:12.978098$GBGSV,2,1,05,14,46,194,45,24,75,018,49,25,39,260,47,26,28,061,42*62
###2023-12-09 12:56:12.979557$GBGSV,2,2,05,33,59,237,47,,,,,,,,,,,,*57
###2023-12-09 12:56:12.980873$GNVTG,352.98,T,,M,0.29,N,0.54,K,A*2C
###2023-12-09 12:56:12.982508$GNGST,175612.10,18.000,,,,0.075,0.065,0.150*5C
###2023-12-09 12:56:12.983807$GNZDA,175612.10,09,12,2023,00,00*76
###2023-12-09 12:56:12.984442$GNEBP,,,,,,M*13
###2023-12-09 12:56:13.154085$GNGGA,175612.30,4138.0431033,N,07032.3895130,W,1,24,0.6,13.252,M,-29.745,M,0.0,*57
###2023-12-09 12:56:13.355940$GNGGA,175612.50,4138.0431066,N,07032.3895016,W,1,24,0.6,13.259,M,-29.745,M,0.0,*5F
###2023-12-09 12:56:13.555064$GNGGA,175612.70,4138.0431295,N,07032.3894937,W,1,24,0.6,13.260,M,-29.745,M,0.0,*52
###2023-12-09 12:56:13.757203$GNGGA,175612.90,4138.0431615,N,07032.3894872,W,1,24,0.6,13.256,M,-29.745,M,0.0,*55
###2023-12-09 12:56:13.956493$GNRMC,175613.10,A,4138.0431844,N,07032.3894822,W,0.27,352.98,091223,,,A*57
###2023-12-09 12:56:13.959355$GNGGA,175613.10,4138.0431844,N,07032.3894822,W,1,24,0.6,13.261,M,-29.745,M,0.0,*57
###2023-12-09 12:56:13.961204$GPGSA,A,3,03,04,16,26,28,29,31,32,,,,,1.1,0.6,0.9*3B
###2023-12-09 12:56:13.962926$GLGSA,A,3,65,71,72,73,74,75,,,,,,,1.1,0.6,0.9*24
###2023-12-09 12:56:13.964502$GAGSA,A,3,04,19,21,27,,,,,,,,,1.1,0.6,0.9*26
###2023-12-09 12:56:13.966140$GBGSA,A,3,14,24,25,26,33,,,,,,,,1.1,0.6,0.9*2F
###2023-12-09 12:56:13.968471$GPGSV,2,1,08,03,36,265,45,04,30,311,42,16,47,211,46,26,77,209,48*71
###2023-12-09 12:56:13.970809$GPGSV,2,2,08,28,51,068,44,29,25,064,42,31,70,031,47,32,21,139,41*71
###2023-12-09 12:56:13.973134$GLGSV,2,1,06,65,21,328,44,71,44,172,46,72,72,281,47,73,38,040,46*68
###2023-12-09 12:56:13.974921$GLGSV,2,2,06,74,71,327,43,75,30,250,46,,,,,,,,*63
###2023-12-09 12:56:13.977252$GAGSV,1,1,04,04,27,312,40,19,85,234,41,21,85,141,47,27,34,048,43*6C
###2023-12-09 12:56:13.979586$GBGSV,2,1,05,14,46,194,45,24,75,018,49,25,39,260,46,26,28,061,42*63
###2023-12-09 12:56:13.981037$GBGSV,2,2,05,33,59,237,47,,,,,,,,,,,,*57
###2023-12-09 12:56:13.982353$GNVTG,352.98,T,,M,0.27,N,0.50,K,A*26
###2023-12-09 12:56:13.984005$GNGST,175613.10,18.000,,,,0.075,0.065,0.150*5D
###2023-12-09 12:56:13.985296$GNZDA,175613.10,09,12,2023,00,00*77
###2023-12-09 12:56:13.985933$GNEBP,,,,,,M*13
###2023-12-09 12:56:14.155133$GNGGA,175613.30,4138.0431877,N,07032.3894668,W,1,24,0.6,13.273,M,-29.745,M,0.0,*56
###2023-12-09 12:56:14.355163$GNGGA,175613.50,4138.0431926,N,07032.3894536,W,1,24,0.6,13.275,M,-29.745,M,0.0,*5B
###2023-12-09 12:56:14.555987$GNGGA,175613.70,4138.0432131,N,07032.3894470,W,1,24,0.6,13.275,M,-29.745,M,0.0,*57
###2023-12-09 12:56:14.755068$GNGGA,175613.90,4138.0432457,N,07032.3894434,W,1,24,0.6,13.277,M,-29.745,M,0.0,*5E
###2023-12-09 12:56:14.955680$GNRMC,175614.10,A,4138.0432692,N,07032.3894337,W,0.29,352.98,091223,,,A*57
###2023-12-09 12:56:14.958535$GNGGA,175614.10,4138.0432692,N,07032.3894337,W,1,24,0.6,13.280,M,-29.745,M,0.0,*56
###2023-12-09 12:56:14.960408$GPGSA,A,3,03,04,16,26,28,29,31,32,,,,,1.1,0.6,0.9*3B
###2023-12-09 12:56:14.962123$GLGSA,A,3,65,71,72,73,74,75,,,,,,,1.1,0.6,0.9*24
###2023-12-09 12:56:14.963715$GAGSA,A,3,04,19,21,27,,,,,,,,,1.1,0.6,0.9*26
###2023-12-09 12:56:14.965358$GBGSA,A,3,14,24,25,26,33,,,,,,,,1.1,0.6,0.9*2F
