###2023-12-09 13:24:44.187218$GNGGA,182443.30,4138.0584030,N,07032.3718677,W,1,24,0.6,13.086,M,-29.744,M,0.0,*51
###2023-12-09 13:24:44.385192$GNGGA,182443.50,4138.0582285,N,07032.3717253,W,1,24,0.6,13.071,M,-29.744,M,0.0,*58
###2023-12-09 13:24:44.585284$GNGGA,182443.70,4138.0580560,N,07032.3715867,W,1,24,0.6,13.079,M,-29.744,M,0.0,*53
###2023-12-09 13:24:44.784988$GNGGA,182443.90,4138.0578764,N,07032.3714573,W,1,24,0.6,13.102,M,-29.744,M,0.0,*58
###2023-12-09 13:24:44.997882$GNRMC,182444.10,A,4138.0576979,N,07032.3713256,W,3.63,151.46,091223,,,A*5A
###2023-12-09 13:24:45.000775$GNGGA,182444.10,4138.0576979,N,07032.3713256,W,1,24,0.6,13.096,M,-29.744,M,0.0,*50
###2023-12-09 13:24:45.002583$GPGSA,A,3,03,04,16,26,28,29,31,,,,,,1.1,0.6,0.9*3A
###2023-12-09 13:24:45.004301$GLGSA,A,3,65,71,72,73,74,75,,,,,,,1.1,0.6,0.9*24
###2023-12-09 13:24:45.005880$GAGSA,A,3,04,19,21,27,,,,,,,,,1.1,0.6,0.9*26
###2023-12-09 13:24:45.007600$GBGSA,A,3,14,24,25,26,33,35,,,,,,,1.1,0.6,0.9*29
###2023-12-09 13:24:45.009926$GPGSV,2,1,07,03,30,251,42,04,42,310,44,16,61,218,46,26,89,050,48*78
###2023-12-09 13:24:45.011977$GPGSV,2,2,07,28,41,080,44,29,22,051,43,31,63,058,47,,,,*48
###2023-12-09 13:24:45.014305$GLGSV,2,1,06,65,34,322,45,71,27,175,42,72,67,229,45,73,27,049,44*60
###2023-12-09 13:24:45.016064$GLGSV,2,2,06,74,63,004,43,75,40,265,48,,,,,,,,*6D
###2023-12-09 13:24:45.018382$GAGSV,1,1,04,04,36,311,44,19,76,185,41,21,80,051,46,27,26,049,42*69
###2023-12-09 13:24:45.020702$GBGSV,2,1,06,14,33,190,41,24,66,041,48,25,48,272,47,26,19,068,44*64
###2023-12-09 13:24:45.022444$GBGSV,2,2,06,33,49,220,47,35,16,060,45,,,,,,,,*65
###2023-12-09 13:24:45.023774$GNVTG,151.46,T,,M,3.63,N,6.73,K,A*20
###2023-12-09 13:24:45.025422$GNGST,182444.10,18.000,,,,0.099,0.068,0.160*59
###2023-12-09 13:24:45.026731$GNZDA,182444.10,09,12,2023,00,00*7F
###2023-12-09 13:24:45.027372$GNEBP,,,,,,M*13
###2023-12-09 13:24:45.189797$GNGGA,182444.30,4138.0575190,N,07032.3711956,W,1,24,0.6,13.087,M,-29.744,M,0.0,*57
###2023-12-09 13:24:45.385308$GNGGA,182444.50,4138.0573401,N,07032.3710731,W,1,24,0.6,13.092,M,-29.744,M,0.0,*50
###2023-12-09 13:24:45.586215$GNGGA,182444.70,4138.0571578,N,07032.3709568,W,1,24,0.6,13.096,M,-29.744,M,0.0,*5D
###2023-12-09 13:24:45.786120$GNGGA,182444.90,4138.0569793,N,07032.3708428,W,1,24,0.6,13.091,M,-29.744,M,0.0,*5E
###2023-12-09 13:24:45.991915$GNRMC,182445.10,A,4138.0568035,N,07032.3707217,W,3.62,150.76,091223,,,A*56
###2023-12-09 13:24:45.994790$GNGGA,182445.10,4138.0568035,N,07032.3707217,W,1,24,0.6,13.091,M,-29.744,M,0.0,*58
###2023-12-09 13:24:45.996596$GPGSA,A,3,03,04,16,26,28,29,31,,,,,,1.1,0.6,0.9*3A
###2023-12-09 13:24:45.998318$GLGSA,A,3,65,71,72,73,74,75,,,,,,,1.1,0.6,0.9*24
###2023-12-09 13:24:45.999918$GAGSA,A,3,04,19,21,27,,,,,,,,,1.1,0.6,0.9*26
###2023-12-09 13:24:46.001661$GBGSA,A,3,14,24,25,26,33,35,,,,,,,1.1,0.6,0.9*29
###2023-12-09 13:24:46.003996$GPGSV,2,1,07,03,30,251,43,04,42,310,45,16,61,218,46,26,89,050,49*79
###2023-12-09 13:24:46.006031$GPGSV,2,2,07,28,41,080,46,29,22,051,44,31,63,058,48,,,,*42
###2023-12-09 13:24:46.008367$GLGSV,2,1,06,65,34,322,45,71,27,175,42,72,67,229,46,73,26,049,45*63
###2023-12-09 13:24:46.010106$GLGSV,2,2,06,74,63,004,43,75,40,265,48,,,,,,,,*6D
###2023-12-09 13:24:46.012435$GAGSV,1,1,04,04,36,311,44,19,76,185,40,21,80,051,46,27,26,049,42*68
###2023-12-09 13:24:46.014761$GBGSV,2,1,06,14,33,190,41,24,66,041,48,25,48,272,46,26,19,068,44*65
###2023-12-09 13:24:46.016502$GBGSV,2,2,06,33,49,220,47,35,16,060,45,,,,,,,,*65
###2023-12-09 13:24:46.017819$GNVTG,150.76,T,,M,3.62,N,6.70,K,A*20
###2023-12-09 13:24:46.019504$GNGST,182445.10,18.000,,,,0.099,0.068,0.160*58
###2023-12-09 13:24:46.020795$GNZDA,182445.10,09,12,2023,00,00*7E
###2023-12-09 13:24:46.021436$GNEBP,,,,,,M*13
###2023-12-09 13:24:46.187089$GNGGA,182445.30,4138.0566315,N,07032.3705921,W,1,24,0.6,13.076,M,-29.744,M,0.0,*50
###2023-12-09 13:24:46.386883$GNGGA,182445.50,4138.0564543,N,07032.3704682,W,1,24,0.6,13.082,M,-29.744,M,0.0,*5D
###2023-12-09 13:24:46.586241$GNGGA,182445.70,4138.0562716,N,07032.3703561,W,1,24,0.6,13.096,M,-29.744,M,0.0,*57
###2023-12-09 13:24:46.787828$GNGGA,182445.90,4138.0560990,N,07032.3702164,W,1,24,0.6,13.081,M,-29.744,M,0.0,*5D
###2023-12-09 13:24:46.993038$GNRMC,182446.10,A,4138.0559374,N,07032.3700671,W,3.60,147.46,091223,,,A*55
###2023-12-09 13:24:46.996507$GNGGA,182446.10,4138.0559374,N,07032.3700671,W,1,24,0.6,13.072,M,-29.744,M,0.0,*51
###2023-12-09 13:24:46.998677$GPGSA,A,3,03,04,16,26,28,29,31,,,,,,1.1,0.6,0.9*3A
###2023-12-09 13:24:47.000748$GLGSA,A,3,65,71,72,73,74,75,,,,,,,1.1,0.6,0.9*24
###2023-12-09 13:24:47.002674$GAGSA,A,3,04,19,21,27,,,,,,,,,1.1,0.6,0.9*26
###2023-12-09 13:24:47.004732$GBGSA,A,3,14,24,25,26,33,35,,,,,,,1.1,0.6,0.9*29
###2023-12-09 13:24:47.007542$GPGSV,2,1,07,03,30,251,44,04,42,310,44,16,61,218,46,26,89,050,48*7E
###2023-12-09 13:24:47.010000$GPGSV,2,2,07,28,41,080,45,29,22,051,45,31,63,058,48,,,,*40
###2023-12-09 13:24:47.012841$GLGSV,2,1,06,65,34,322,45,71,27,175,42,72,67,229,45,73,26,049,45*60
###2023-12-09 13:24:47.014977$GLGSV,2,2,06,74,63,006,43,75,40,265,46,,,,,,,,*61
###2023-12-09 13:24:47.017792$GAGSV,1,1,04,04,36,311,45,19,76,185,41,21,80,051,46,27,26,049,43*69
###2023-12-09 13:24:47.020621$GBGSV,2,1,06,14,33,190,42,24,66,041,48,25,48,272,46,26,19,068,43*61
###2023-12-09 13:24:47.022735$GBGSV,2,2,06,33,49,220,46,35,16,060,44,,,,,,,,*65
###2023-12-09 13:24:47.024334$GNVTG,147.46,T,,M,3.60,N,6.66,K,A*20
###2023-12-09 13:24:47.026349$GNGST,182446.10,18.000,,,,0.099,0.068,0.160*5B
###2023-12-09 13:24:47.027970$GNZDA,182446.10,09,12,2023,00,00*7D
###2023-12-09 13:24:47.028742$GNEBP,,,,,,M*13
###2023-12-09 13:24:47.195269$GNGGA,182446.30,4138.0557611,N,07032.3699355,W,1,24,0.6,13.087,M,-29.744,M,0.0,*53
###2023-12-09 13:24:47.387296$GNGGA,182446.50,4138.0555875,N,07032.3698084,W,1,24,0.6,13.091,M,-29.744,M,0.0,*52
###2023-12-09 13:24:47.588914$GNGGA,182446.70,4138.0554111,N,07032.3696714,W,1,24,0.6,13.083,M,-29.744,M,0.0,*59
###2023-12-09 13:24:47.788015$GNGGA,182446.90,4138.0552447,N,07032.3695316,W,1,24,0.6,13.069,M,-29.744,M,0.0,*56
###2023-12-09 13:24:47.990809$GNRMC,182447.10,A,4138.0550700,N,07032.3694169,W,3.69,155.95,091223,,,A*5C
###2023-12-09 13:24:47.993655$GNGGA,182447.10,4138.0550700,N,07032.3694169,W,1,24,0.6,13.089,M,-29.744,M,0.0,*58
###2023-12-09 13:24:47.995457$GPGSA,A,3,03,04,16,26,28,29,31,,,,,,1.1,0.6,0.9*3A
###2023-12-09 13:24:47.997181$GLGSA,A,3,65,71,72,73,74,75,,,,,,,1.1,0.6,0.9*24
###2023-12-09 13:24:47.998779$GAGSA,A,3,04,19,21,27,,,,,,,,,1.1,0.6,0.9*26
###2023-12-09 13:24:48.000484$GBGSA,A,3,14,24,25,26,33,35,,,,,,,1.1,0.6,0.9*29
###2023-12-09 13:24:48.002824$GPGSV,2,1,07,03,30,251,43,04,42,310,44,16,61,218,47,26,89,050,49*79
###2023-12-09 13:24:48.004871$GPGSV,2,2,07,28,41,080,44,29,22,051,45,31,63,058,48,,,,*41
###2023-12-09 13:24:48.007216$GLGSV,2,1,06,65,34,322,44,71,27,175,41,72,67,229,45,73,26,049,45*62
###2023-12-09 13:24:48.008970$GLGSV,2,2,06,74,63,006,43,75,40,266,47,,,,,,,,*63
###2023-12-09 13:24:48.011303$GAGSV,1,1,04,04,36,311,44,19,76,185,41,21,80,051,47,27,26,049,43*69
###2023-12-09 13:24:48.013624$GBGSV,2,1,06,14,33,190,42,24,66,041,49,25,48,272,50,26,19,068,46*62
###2023-12-09 13:24:48.015377$GBGSV,2,2,06,33,49,220,49,35,16,060,46,,,,,,,,*68
###2023-12-09 13:24:48.016696$GNVTG,155.95,T,,M,3.69,N,6.84,K,A*28
###2023-12-09 13:24:48.018334$GNGST,182447.10,18.000,,,,0.098,0.068,0.160*5B
###2023-12-09 13:24:48.019638$GNZDA,182447.10,09,12,2023,00,00*7C
###2023-12-09 13:24:48.020279$GNEBP,,,,,,M*13
###2023-12-09 13:24:48.188615$GNGGA,182447.30,4138.0548842,N,07032.3693036,W,1,24,0.6,13.086,M,-29.744,M,0.0,*59
###2023-12-09 13:24:48.386146$GNGGA,182447.50,4138.0547164,N,07032.3691878,W,1,24,0.6,13.067,M,-29.744,M,0.0,*52
###2023-12-09 13:24:48.587587$GNGGA,182447.70,4138.0545412,N,07032.3690750,W,1,24,0.6,13.090,M,-29.744,M,0.0,*5A
###2023-12-09 13:24:48.788000$GNGGA,182447.90,4138.0543661,N,07032.3689628,W,1,24,0.6,13.069,M,-29.744,M,0.0,*54
###2023-12-09 13:24:48.992309$GNRMC,182448.10,A,4138.0541956,N,07032.3688485,W,3.48,152.66,091223,,,A*5C
###2023-12-09 13:24:48.995169$GNGGA,182448.10,4138.0541956,N,07032.3688485,W,1,24,0.6,13.061,M,-29.744,M,0.0,*56
###2023-12-09 13:24:48.997210$GPGSA,A,3,03,04,16,26,28,29,31,,,,,,1.1,0.6,0.9*3A
###2023-12-09 13:24:48.998947$GLGSA,A,3,65,71,72,73,74,75,,,,,,,1.1,0.6,0.9*24
###2023-12-09 13:24:49.000535$GAGSA,A,3,04,19,21,27,,,,,,,,,1.1,0.6,0.9*26
###2023-12-09 13:24:49.002246$GBGSA,A,3,14,24,25,26,33,35,,,,,,,1.1,0.6,0.9*29
###2023-12-09 13:24:49.004595$GPGSV,2,1,07,03,30,251,43,04,42,310,44,16,61,218,46,26,89,050,49*78
###2023-12-09 13:24:49.006652$GPGSV,2,2,07,28,41,080,45,29,22,051,44,31,63,058,48,,,,*41
###2023-12-09 13:24:49.008986$GLGSV,2,1,06,65,34,322,45,71,27,175,41,72,67,229,46,73,26,049,45*60
###2023-12-09 13:24:49.010747$GLGSV,2,2,06,74,63,006,43,75,40,266,48,,,,,,,,*6C
###2023-12-09 13:24:49.013068$GAGSV,1,1,04,04,36,311,43,19,76,185,40,21,80,051,47,27,26,049,42*6E
###2023-12-09 13:24:49.015406$GBGSV,2,1,06,14,33,190,42,24,66,041,49,25,48,272,48,26,19,068,46*6B
