###2023-12-09 13:39:54.019899$GPGSV,2,2,08,27,19,172,38,28,36,087,45,29,19,045,42,31,58,070,47*7D
###2023-12-09 13:39:54.022266$GLGSV,2,1,06,65,40,316,44,71,20,176,40,72,60,217,45,73,20,054,43*65
###2023-12-09 13:39:54.024042$GLGSV,2,2,06,74,58,018,43,75,45,275,48,,,,,,,,*6C
###2023-12-09 13:39:54.026387$GAGSV,1,1,04,04,41,309,45,19,70,181,41,21,75,045,47,27,21,050,41*61
###2023-12-09 13:39:54.028736$GBGSV,2,1,06,12,17,125,41,14,27,189,41,24,61,048,48,25,52,278,48*6D
###2023-12-09 13:39:54.030482$GBGSV,2,2,06,33,44,215,45,35,16,055,43,,,,,,,,*6C
###2023-12-09 13:39:54.031820$GNVTG,187.26,T,,M,3.30,N,6.12,K,A*2C
###2023-12-09 13:39:54.033433$GNGST,183953.10,5.400,,,,0.091,0.066,0.150*6E
###2023-12-09 13:39:54.034756$GNZDA,183953.10,09,12,2023,00,00*75
###2023-12-09 13:39:54.035405$GNEBP,,,,,,M*13
###2023-12-09 13:39:54.205138$GNGGA,183953.30,4138.0378966,N,07032.3859767,W,1,25,0.6,13.431,M,-29.745,M,0.0,*51
###2023-12-09 13:39:54.401736$GNGGA,183953.50,4138.0377225,N,07032.3859680,W,1,26,0.6,13.371,M,-29.745,M,0.0,*5C
###2023-12-09 13:39:54.601404$GNGGA,183953.70,4138.0375484,N,07032.3860118,W,1,26,0.6,13.417,M,-29.745,M,0.0,*5A
###2023-12-09 13:39:54.802500$GNGGA,183953.90,4138.0373617,N,07032.3860525,W,1,25,0.6,13.419,M,-29.745,M,0.0,*5D
###2023-12-09 13:39:55.005165$GNRMC,183954.10,A,4138.0371888,N,07032.3860388,W,2.97,172.43,091223,,,A*5E
###2023-12-09 13:39:55.008059$GNGGA,183954.10,4138.0371888,N,07032.3860388,W,1,25,0.6,13.372,M,-29.745,M,0.0,*53
###2023-12-09 13:39:55.009899$GPGSA,A,3,03,04,16,26,27,28,29,31,,,,,1.0,0.6,0.8*3F
###2023-12-09 13:39:55.011619$GLGSA,A,3,65,71,72,73,74,75,,,,,,,1.0,0.6,0.8*24
###2023-12-09 13:39:55.013194$GAGSA,A,3,04,19,21,27,,,,,,,,,1.0,0.6,0.8*26
###2023-12-09 13:39:55.014911$GBGSA,A,3,12,14,24,25,33,35,,,,,,,1.0,0.6,0.8*2E
###2023-12-09 13:39:55.017237$GPGSV,2,1,08,03,25,244,42,04,48,306,46,16,69,225,46,26,81,040,49*76
###2023-12-09 13:39:55.019569$GPGSV,2,2,08,27,19,172,39,28,36,087,45,29,19,045,43,31,58,070,46*7C
###2023-12-09 13:39:55.021890$GLGSV,2,1,06,65,40,316,44,71,20,176,40,72,60,217,45,73,20,054,43*65
###2023-12-09 13:39:55.023641$GLGSV,2,2,06,74,58,018,42,75,45,275,48,,,,,,,,*6D
###2023-12-09 13:39:55.025961$GAGSV,1,1,04,04,41,309,45,19,70,181,41,21,75,045,46,27,21,050,41*60
###2023-12-09 13:39:55.028400$GBGSV,2,1,06,12,17,125,42,14,27,189,41,24,61,048,49,25,52,278,49*6E
###2023-12-09 13:39:55.030152$GBGSV,2,2,06,33,44,215,45,35,16,055,43,,,,,,,,*6C
###2023-12-09 13:39:55.031485$GNVTG,172.43,T,,M,2.97,N,5.51,K,A*2D
###2023-12-09 13:39:55.033095$GNGST,183954.10,5.700,,,,0.091,0.066,0.150*6A
###2023-12-09 13:39:55.034385$GNZDA,183954.10,09,12,2023,00,00*72
###2023-12-09 13:39:55.035035$GNEBP,,,,,,M*13
###2023-12-09 13:39:55.202634$GNGGA,183954.30,4138.0370160,N,07032.3860440,W,1,26,0.6,13.389,M,-29.745,M,0.0,*5B
###2023-12-09 13:39:55.406470$GNGGA,183954.50,4138.0368325,N,07032.3860936,W,1,25,0.6,13.413,M,-29.745,M,0.0,*5C
###2023-12-09 13:39:55.605184$GNGGA,183954.70,4138.0366524,N,07032.3860987,W,1,25,0.6,13.373,M,-29.745,M,0.0,*5C
###2023-12-09 13:39:55.802193$GNGGA,183954.90,4138.0364831,N,07032.3860846,W,1,25,0.6,13.376,M,-29.745,M,0.0,*50
###2023-12-09 13:39:56.004685$GNRMC,183955.10,A,4138.0363009,N,07032.3860943,W,3.29,184.26,091223,,,A*5E
###2023-12-09 13:39:56.008171$GNGGA,183955.10,4138.0363009,N,07032.3860943,W,1,25,0.6,13.397,M,-29.745,M,0.0,*56
###2023-12-09 13:39:56.010422$GPGSA,A,3,03,04,16,26,27,28,29,31,,,,,1.0,0.6,0.8*3F
###2023-12-09 13:39:56.012513$GLGSA,A,3,65,71,72,73,74,75,,,,,,,1.0,0.6,0.8*24
###2023-12-09 13:39:56.014426$GAGSA,A,3,04,19,21,27,,,,,,,,,1.0,0.6,0.8*26
###2023-12-09 13:39:56.016506$GBGSA,A,3,12,14,24,25,33,35,,,,,,,1.0,0.6,0.8*2E
###2023-12-09 13:39:56.019330$GPGSV,2,1,08,03,25,244,41,04,48,306,45,16,69,225,45,26,81,040,48*74
###2023-12-09 13:39:56.022151$GPGSV,2,2,08,27,19,172,40,28,36,087,45,29,19,045,42,31,58,070,47*72
###2023-12-09 13:39:56.024984$GLGSV,2,1,06,65,40,316,44,71,20,176,41,72,60,217,45,73,20,054,43*64
###2023-12-09 13:39:56.027148$GLGSV,2,2,06,74,58,018,43,75,45,275,48,,,,,,,,*6C
###2023-12-09 13:39:56.029960$GAGSV,1,1,04,04,41,309,45,19,70,181,40,21,75,045,46,27,21,050,41*61
###2023-12-09 13:39:56.032787$GBGSV,2,1,06,12,17,125,42,14,27,189,40,24,61,048,48,25,52,278,48*6F
###2023-12-09 13:39:56.034949$GBGSV,2,2,06,33,44,215,46,35,16,055,44,,,,,,,,*68
###2023-12-09 13:39:56.036551$GNVTG,184.26,T,,M,3.29,N,6.08,K,A*2C
###2023-12-09 13:39:56.038497$GNGST,183955.10,5.700,,,,0.090,0.066,0.150*6A
###2023-12-09 13:39:56.040067$GNZDA,183955.10,09,12,2023,00,00*73
###2023-12-09 13:39:56.040847$GNEBP,,,,,,M*13
###2023-12-09 13:39:56.202179$GNGGA,183955.30,4138.0361252,N,07032.3861145,W,1,25,0.6,13.383,M,-29.745,M,0.0,*50
###2023-12-09 13:39:56.401257$GNGGA,183955.50,4138.0359489,N,07032.3861242,W,1,25,0.6,13.383,M,-29.745,M,0.0,*59
###2023-12-09 13:39:56.602307$GNGGA,183955.70,4138.0357720,N,07032.3861131,W,1,25,0.6,13.342,M,-29.745,M,0.0,*5F
###2023-12-09 13:39:56.803949$GNGGA,183955.90,4138.0356006,N,07032.3861340,W,1,25,0.6,13.358,M,-29.745,M,0.0,*5C
###2023-12-09 13:39:57.013182$GNRMC,183956.10,A,4138.0354189,N,07032.3861855,W,3.29,188.80,091223,,,A*57
###2023-12-09 13:39:57.016653$GNGGA,183956.10,4138.0354189,N,07032.3861855,W,1,25,0.6,13.393,M,-29.745,M,0.0,*5B
###2023-12-09 13:39:57.018907$GPGSA,A,3,03,04,16,26,27,28,29,31,,,,,1.0,0.6,0.8*3F
###2023-12-09 13:39:57.020978$GLGSA,A,3,65,71,72,73,74,75,,,,,,,1.0,0.6,0.8*24
###2023-12-09 13:39:57.022886$GAGSA,A,3,04,19,21,27,,,,,,,,,1.0,0.6,0.8*26
###2023-12-09 13:39:57.024945$GBGSA,A,3,12,14,24,25,33,35,,,,,,,1.0,0.6,0.8*2E
###2023-12-09 13:39:57.027785$GPGSV,2,1,08,03,25,244,40,04,48,306,46,16,69,225,46,26,81,040,47*7A
###2023-12-09 13:39:57.030615$GPGSV,2,2,08,27,19,172,38,28,36,087,44,29,19,045,40,31,58,070,46*7F
###2023-12-09 13:39:57.033427$GLGSV,2,1,06,65,40,316,44,71,20,176,41,72,60,217,45,73,20,054,41*66
###2023-12-09 13:39:57.035553$GLGSV,2,2,06,74,58,018,43,75,45,275,49,,,,,,,,*6D
###2023-12-09 13:39:57.038361$GAGSV,1,1,04,04,41,309,45,19,70,181,40,21,75,045,46,27,21,050,39*6E
###2023-12-09 13:39:57.041179$GBGSV,2,1,06,12,17,125,41,14,27,189,42,24,61,048,48,25,52,278,49*6F
###2023-12-09 13:39:57.043301$GBGSV,2,2,06,33,44,215,46,35,16,055,43,,,,,,,,*6F
###2023-12-09 13:39:57.044903$GNVTG,188.80,T,,M,3.29,N,6.08,K,A*2C
###2023-12-09 13:39:57.046853$GNGST,183956.10,5.100,,,,0.090,0.066,0.150*6F
###2023-12-09 13:39:57.048404$GNZDA,183956.10,09,12,2023,00,00*70
###2023-12-09 13:39:57.049171$GNEBP,,,,,,M*13
###2023-12-09 13:39:57.211818$GNGGA,183956.30,4138.0352439,N,07032.3861893,W,1,25,0.6,13.366,M,-29.745,M,0.0,*51
###2023-12-09 13:39:57.401200$GNGGA,183956.50,4138.0350751,N,07032.3861648,W,1,25,0.6,13.346,M,-29.745,M,0.0,*52
###2023-12-09 13:39:57.602800$GNGGA,183956.70,4138.0349005,N,07032.3861956,W,1,25,0.6,13.368,M,-29.745,M,0.0,*52
###2023-12-09 13:39:57.803448$GNGGA,183956.90,4138.0347177,N,07032.3862349,W,1,25,0.6,13.367,M,-29.745,M,0.0,*5E
###2023-12-09 13:39:58.004977$GNRMC,183957.10,A,4138.0345501,N,07032.3862287,W,2.95,176.11,091223,,,A*5B
###2023-12-09 13:39:58.007849$GNGGA,183957.10,4138.0345501,N,07032.3862287,W,1,25,0.6,13.351,M,-29.745,M,0.0,*56
###2023-12-09 13:39:58.009700$GPGSA,A,3,03,04,16,26,27,28,29,31,,,,,1.0,0.6,0.8*3F
###2023-12-09 13:39:58.011422$GLGSA,A,3,65,71,72,73,74,75,,,,,,,1.0,0.6,0.8*24
###2023-12-09 13:39:58.012999$GAGSA,A,3,04,19,21,27,,,,,,,,,1.0,0.6,0.8*26
###2023-12-09 13:39:58.014710$GBGSA,A,3,12,14,24,25,33,35,,,,,,,1.0,0.6,0.8*2E
###2023-12-09 13:39:58.017022$GPGSV,2,1,08,03,25,244,41,04,48,306,46,16,69,225,45,26,81,040,48*77
###2023-12-09 13:39:58.019357$GPGSV,2,2,08,27,19,172,40,28,36,087,44,29,19,045,42,31,58,070,45*71
###2023-12-09 13:39:58.021681$GLGSV,2,1,06,65,40,316,43,71,20,176,42,72,60,217,45,73,20,054,43*60
###2023-12-09 13:39:58.023437$GLGSV,2,2,06,74,58,018,43,75,45,275,48,,,,,,,,*6C
###2023-12-09 13:39:58.025749$GAGSV,1,1,04,04,41,309,45,19,70,181,40,21,75,045,45,27,21,050,39*6D
###2023-12-09 13:39:58.028083$GBGSV,2,1,06,12,17,125,41,14,27,189,40,24,61,048,48,25,52,278,48*6C
###2023-12-09 13:39:58.029817$GBGSV,2,2,06,33,44,215,45,35,16,055,44,,,,,,,,*6B
###2023-12-09 13:39:58.031398$GNVTG,176.11,T,,M,2.95,N,5.47,K,A*2B
###2023-12-09 13:39:58.033027$GNGST,183957.10,5.700,,,,0.090,0.066,0.150*68
###2023-12-09 13:39:58.034321$GNZDA,183957.10,09,12,2023,00,00*71
###2023-12-09 13:39:58.034975$GNEBP,,,,,,M*13
###2023-12-09 13:39:58.202535$GNGGA,183957.30,4138.0343772,N,07032.3862354,W,1,25,0.6,13.380,M,-29.745,M,0.0,*57
###2023-12-09 13:39:58.402687$GNGGA,183957.50,4138.0341988,N,07032.3862529,W,1,25,0.6,13.368,M,-29.745,M,0.0,*52
###2023-12-09 13:39:58.599492$GNGGA,183957.70,4138.0340268,N,07032.3862589,W,1,25,0.6,13.330,M,-29.745,M,0.0,*53
###2023-12-09 13:39:58.800399$GNGGA,183957.90,4138.0338579,N,07032.3862952,W,1,25,0.6,13.368,M,-29.745,M,0.0,*52
###2023-12-09 13:39:59.004151$GNRMC,183958.10,A,4138.0336780,N,07032.3863183,W,3.21,178.29,091223,,,A*56
###2023-12-09 13:39:59.007042$GNGGA,183958.10,4138.0336780,N,07032.3863183,W,1,25,0.6,13.373,M,-29.745,M,0.0,*50
