###2023-12-09 12:29:07.525508$GNGGA,172906.70,4138.0383546,N,07032.4359380,W,1,16,0.9,15.076,M,-29.746,M,0.0,*5D
###2023-12-09 12:29:07.718852$GNGGA,172906.90,4138.0383510,N,07032.4359330,W,1,16,0.9,15.100,M,-29.746,M,0.0,*5B
###2023-12-09 12:29:07.920350$GNRMC,172907.10,A,4138.0383476,N,07032.4359285,W,0.10,,091223,,,A*4C
###2023-12-09 12:29:07.923302$GNGGA,172907.10,4138.0383476,N,07032.4359285,W,1,16,0.9,15.120,M,-29.746,M,0.0,*5E
###2023-12-09 12:29:07.925151$GPGSA,A,3,03,16,26,28,29,31,32,,,,,,1.6,0.9,1.3*3C
###2023-12-09 12:29:07.926787$GLGSA,A,3,71,72,73,75,,,,,,,,,1.6,0.9,1.3*27
###2023-12-09 12:29:07.928277$GAGSA,A,3,21,27,,,,,,,,,,,1.6,0.9,1.3*29
###2023-12-09 12:29:07.929822$GBGSA,A,3,14,26,33,,,,,,,,,,1.6,0.9,1.3*2D
###2023-12-09 12:29:07.932192$GPGSV,2,1,07,03,39,280,36,16,34,206,44,26,63,206,42,28,60,052,45*76
###2023-12-09 12:29:07.934269$GPGSV,2,2,07,29,25,077,42,31,73,351,44,32,33,132,47,,,,*47
###2023-12-09 12:29:07.936651$GLGSV,1,1,04,71,60,168,49,72,63,314,41,73,50,032,45,75,20,239,38*62
###2023-12-09 12:29:07.938478$GAGSV,1,1,02,21,75,179,39,27,43,050,45,,,,,,,,*68
###2023-12-09 12:29:07.940564$GBGSV,1,1,03,14,57,199,45,26,37,056,46,33,64,260,40,,,,*5C
###2023-12-09 12:29:07.941734$GNVTG,,T,,M,0.10,N,0.18,K,A*35
###2023-12-09 12:29:07.943427$GNGST,172907.10,32.000,,,,0.120,0.140,0.320*5A
###2023-12-09 12:29:07.944753$GNZDA,172907.10,09,12,2023,00,00*7A
###2023-12-09 12:29:07.945429$GNEBP,,,,,,M*13
###2023-12-09 12:29:08.119711$GNGGA,172907.30,4138.0383418,N,07032.4359219,W,1,16,0.9,15.143,M,-29.746,M,0.0,*54
###2023-12-09 12:29:08.320724$GNGGA,172907.50,4138.0383366,N,07032.4359170,W,1,16,0.9,15.169,M,-29.746,M,0.0,*58
###2023-12-09 12:29:08.519675$GNGGA,172907.70,4138.0383319,N,07032.4359116,W,1,16,0.9,15.188,M,-29.746,M,0.0,*5D
###2023-12-09 12:29:08.719863$GNGGA,172907.90,4138.0383271,N,07032.4359051,W,1,16,0.9,15.208,M,-29.746,M,0.0,*55
###2023-12-09 12:29:08.923420$GNRMC,172908.10,A,4138.0383227,N,07032.4358995,W,0.02,,091223,,,A*49
###2023-12-09 12:29:08.926340$GNGGA,172908.10,4138.0383227,N,07032.4358995,W,1,16,0.9,15.232,M,-29.746,M,0.0,*58
###2023-12-09 12:29:08.928183$GPGSA,A,3,03,16,26,28,29,31,32,,,,,,1.6,0.9,1.3*3C
###2023-12-09 12:29:08.929845$GLGSA,A,3,71,72,73,75,,,,,,,,,1.6,0.9,1.3*27
###2023-12-09 12:29:08.931358$GAGSA,A,3,21,27,,,,,,,,,,,1.6,0.9,1.3*29
###2023-12-09 12:29:08.932910$GBGSA,A,3,14,26,33,,,,,,,,,,1.6,0.9,1.3*2D
###2023-12-09 12:29:08.935277$GPGSV,2,1,07,03,39,280,36,16,34,206,44,26,63,206,42,28,60,052,45*76
###2023-12-09 12:29:08.937349$GPGSV,2,2,07,29,25,077,42,31,73,351,45,32,33,132,47,,,,*46
###2023-12-09 12:29:08.939724$GLGSV,1,1,04,71,60,168,49,72,63,314,41,73,50,032,45,75,20,239,38*62
###2023-12-09 12:29:08.941499$GAGSV,1,1,02,21,75,179,39,27,43,050,45,,,,,,,,*68
###2023-12-09 12:29:08.943580$GBGSV,1,1,03,14,57,199,45,26,37,056,46,33,64,260,40,,,,*5C
###2023-12-09 12:29:08.944752$GNVTG,,T,,M,0.02,N,0.04,K,A*3B
###2023-12-09 12:29:08.946446$GNGST,172908.10,32.000,,,,0.120,0.140,0.320*55
###2023-12-09 12:29:08.947815$GNZDA,172908.10,09,12,2023,00,00*75
###2023-12-09 12:29:08.948499$GNEBP,,,,,,M*13
###2023-12-09 12:29:09.127183$GNGGA,172908.30,4138.0383186,N,07032.4358945,W,1,16,0.9,15.260,M,-29.746,M,0.0,*58
###2023-12-09 12:29:09.319668$GNGGA,172908.50,4138.0383136,N,07032.4358888,W,1,16,0.9,15.287,M,-29.746,M,0.0,*5C
###2023-12-09 12:29:09.520626$GNGGA,172908.70,4138.0383080,N,07032.4358840,W,1,16,0.9,15.315,M,-29.746,M,0.0,*5C
###2023-12-09 12:29:09.720452$GNGGA,172908.90,4138.0383033,N,07032.4358789,W,1,16,0.9,15.342,M,-29.746,M,0.0,*52
###2023-12-09 12:29:09.922700$GNRMC,172909.10,A,4138.0382992,N,07032.4358769,W,0.02,,091223,,,A*41
###2023-12-09 12:29:09.925562$GNGGA,172909.10,4138.0382992,N,07032.4358769,W,1,16,0.9,15.368,M,-29.746,M,0.0,*5E
###2023-12-09 12:29:09.927393$GPGSA,A,3,03,16,26,28,29,31,32,,,,,,1.6,0.9,1.3*3C
###2023-12-09 12:29:09.928996$GLGSA,A,3,71,72,73,75,,,,,,,,,1.6,0.9,1.3*27
###2023-12-09 12:29:09.930452$GAGSA,A,3,21,27,,,,,,,,,,,1.6,0.9,1.3*29
###2023-12-09 12:29:09.932000$GBGSA,A,3,14,26,33,,,,,,,,,,1.6,0.9,1.3*2D
###2023-12-09 12:29:09.934347$GPGSV,2,1,07,03,39,280,36,16,34,206,44,26,63,206,42,28,60,052,45*76
###2023-12-09 12:29:09.936414$GPGSV,2,2,07,29,25,077,42,31,73,351,44,32,33,132,47,,,,*47
###2023-12-09 12:29:09.938768$GLGSV,1,1,04,71,60,168,48,72,63,314,41,73,50,032,45,75,20,239,38*63
###2023-12-09 12:29:09.940531$GAGSV,1,1,02,21,75,179,39,27,43,050,45,,,,,,,,*68
###2023-12-09 12:29:09.942585$GBGSV,1,1,03,14,57,199,45,26,37,056,46,33,64,260,40,,,,*5C
###2023-12-09 12:29:09.943729$GNVTG,,T,,M,0.02,N,0.04,K,A*3B
###2023-12-09 12:29:09.945381$GNGST,172909.10,32.000,,,,0.120,0.140,0.320*54
###2023-12-09 12:29:09.946703$GNZDA,172909.10,09,12,2023,00,00*74
###2023-12-09 12:29:09.947371$GNEBP,,,,,,M*13
###2023-12-09 12:29:10.122065$GNGGA,172909.30,4138.0382940,N,07032.4358736,W,1,16,0.9,15.389,M,-29.746,M,0.0,*56
###2023-12-09 12:29:10.321872$GNGGA,172909.50,4138.0382887,N,07032.4358676,W,1,16,0.9,15.411,M,-29.746,M,0.0,*59
###2023-12-09 12:29:10.521891$GNGGA,172909.70,4138.0382833,N,07032.4358632,W,1,16,0.9,15.433,M,-29.746,M,0.0,*54
###2023-12-09 12:29:10.718650$GNGGA,172909.90,4138.0382776,N,07032.4358576,W,1,16,0.9,15.452,M,-29.746,M,0.0,*50
###2023-12-09 12:29:10.921418$GNRMC,172910.10,A,4138.0382722,N,07032.4358508,W,0.04,,091223,,,A*4F
###2023-12-09 12:29:10.924614$GNGGA,172910.10,4138.0382722,N,07032.4358508,W,1,16,0.9,15.476,M,-29.746,M,0.0,*5E
###2023-12-09 12:29:10.926658$GPGSA,A,3,03,16,26,28,29,31,32,,,,,,1.6,0.9,1.3*3C
###2023-12-09 12:29:10.928445$GLGSA,A,3,71,72,73,75,,,,,,,,,1.6,0.9,1.3*27
###2023-12-09 12:29:10.930104$GAGSA,A,3,21,27,,,,,,,,,,,1.6,0.9,1.3*29
###2023-12-09 12:29:10.931850$GBGSA,A,3,14,26,33,,,,,,,,,,1.6,0.9,1.3*2D
###2023-12-09 12:29:10.934371$GPGSV,2,1,07,03,39,280,35,16,34,206,44,26,63,206,43,28,60,052,45*74
###2023-12-09 12:29:10.936614$GPGSV,2,2,07,29,25,077,42,31,73,351,45,32,33,132,47,,,,*46
###2023-12-09 12:29:10.939152$GLGSV,1,1,04,71,60,168,48,72,63,314,41,73,50,032,45,75,20,239,38*63
###2023-12-09 12:29:10.941094$GAGSV,1,1,02,21,75,179,39,27,43,050,45,,,,,,,,*68
###2023-12-09 12:29:10.943358$GBGSV,1,1,03,14,57,199,45,26,37,056,46,33,64,260,40,,,,*5C
###2023-12-09 12:29:10.944717$GNVTG,,T,,M,0.04,N,0.07,K,A*3E
###2023-12-09 12:29:10.946644$GNGST,172910.10,32.000,,,,0.120,0.150,0.320*5D
###2023-12-09 12:29:10.948191$GNZDA,172910.10,09,12,2023,00,00*7C
###2023-12-09 12:29:10.949029$GNEBP,,,,,,M*13
###2023-12-09 12:29:11.119391$GNGGA,172910.30,4138.0382661,N,07032.4358439,W,1,16,0.9,15.494,M,-29.746,M,0.0,*55
###2023-12-09 12:29:11.320617$GNGGA,172910.50,4138.0382627,N,07032.4358408,W,1,16,0.9,15.507,M,-29.746,M,0.0,*58
###2023-12-09 12:29:11.520684$GNGGA,172910.70,4138.0382574,N,07032.4358373,W,1,16,0.9,15.524,M,-29.746,M,0.0,*55
###2023-12-09 12:29:11.718815$GNGGA,172910.90,4138.0382536,N,07032.4358352,W,1,16,0.9,15.538,M,-29.746,M,0.0,*53
###2023-12-09 12:29:11.921726$GNRMC,172911.10,A,4138.0382487,N,07032.4358296,W,0.06,,091223,,,A*40
###2023-12-09 12:29:11.924873$GNGGA,172911.10,4138.0382487,N,07032.4358296,W,1,16,0.9,15.552,M,-29.746,M,0.0,*54
###2023-12-09 12:29:11.926896$GPGSA,A,3,03,16,26,28,29,31,32,,,,,,1.6,0.9,1.3*3C
###2023-12-09 12:29:11.928685$GLGSA,A,3,71,72,73,75,,,,,,,,,1.6,0.9,1.3*27
###2023-12-09 12:29:11.930331$GAGSA,A,3,21,27,,,,,,,,,,,1.6,0.9,1.3*29
###2023-12-09 12:29:11.932048$GBGSA,A,3,14,26,33,,,,,,,,,,1.6,0.9,1.3*2D
###2023-12-09 12:29:11.934550$GPGSV,2,1,07,03,39,280,35,16,34,206,44,26,63,206,43,28,60,052,45*74
###2023-12-09 12:29:11.936794$GPGSV,2,2,07,29,25,077,41,31,73,351,44,32,33,132,46,,,,*45
###2023-12-09 12:29:11.939374$GLGSV,1,1,04,71,60,168,48,72,63,314,42,73,50,032,46,75,20,239,38*63
###2023-12-09 12:29:11.941326$GAGSV,1,1,02,21,75,179,38,27,43,050,45,,,,,,,,*69
###2023-12-09 12:29:11.943568$GBGSV,1,1,03,14,57,199,45,26,37,056,44,33,64,260,40,,,,*5E
###2023-12-09 12:29:11.944886$GNVTG,,T,,M,0.06,N,0.11,K,A*3B
###2023-12-09 12:29:11.946739$GNGST,172911.10,32.000,,,,0.120,0.150,0.330*5D
###2023-12-09 12:29:11.948264$GNZDA,172911.10,09,12,2023,00,00*7D
###2023-12-09 12:29:11.949098$GNEBP,,,,,,M*13
###2023-12-09 12:29:12.121036$GNGGA,172911.30,4138.0382434,N,07032.4358271,W,1,16,0.9,15.560,M,-29.746,M,0.0,*56
###2023-12-09 12:29:12.320663$GNGGA,172911.50,4138.0382385,N,07032.4358231,W,1,16,0.9,15.573,M,-29.746,M,0.0,*5B
###2023-12-09 12:29:12.520468$GNGGA,172911.70,4138.0382343,N,07032.4358210,W,1,16,0.9,15.582,M,-29.746,M,0.0,*5E
###2023-12-09 12:29:12.718635$GNGGA,172911.90,4138.0382298,N,07032.4358185,W,1,16,0.9,15.588,M,-29.746,M,0.0,*52
###2023-12-09 12:29:12.920987$GNRMC,172912.10,A,4138.0382253,N,07032.4358168,W,0.02,,091223,,,A*4A
###2023-12-09 12:29:12.924120$GNGGA,172912.10,4138.0382253,N,07032.4358168,W,1,16,0.9,15.592,M,-29.746,M,0.0,*56
###2023-12-09 12:29:12.926132$GPGSA,A,3,03,16,26,28,29,31,32,,,,,,1.6,0.9,1.3*3C
