###2023-12-09 13:48:02.010658$GNRMC,184801.10,A,4138.0391091,N,07032.4383218,W,0.02,243.17,091223,,,A*51
###2023-12-09 13:48:02.013517$GNGGA,184801.10,4138.0391091,N,07032.4383218,W,1,17,0.8,15.572,M,-29.746,M,0.0,*5E
###2023-12-09 13:48:02.015258$GPGSA,A,3,04,16,26,28,29,31,,,,,,,1.3,0.8,1.1*3C
###2023-12-09 13:48:02.016838$GLGSA,A,3,65,73,74,75,,,,,,,,,1.3,0.8,1.1*22
###2023-12-09 13:48:02.018343$GAGSA,A,3,04,21,27,,,,,,,,,,1.3,0.8,1.1*2B
###2023-12-09 13:48:02.019925$GBGSA,A,3,12,24,25,35,,,,,,,,,1.3,0.8,1.1*2E
###2023-12-09 13:48:02.022234$GPGSV,2,1,06,04,51,304,49,16,73,229,41,26,77,041,44,28,33,090,45*7A
###2023-12-09 13:48:02.023985$GPGSV,2,2,06,29,17,042,41,31,55,075,49,,,,,,,,*7C
###2023-12-09 13:48:02.026296$GLGSV,1,1,04,65,43,312,44,73,17,056,43,74,55,024,36,75,47,280,47*6B
###2023-12-09 13:48:02.028334$GAGSV,1,1,03,04,44,307,45,21,72,043,39,27,19,051,38,,,,*53
###2023-12-09 13:48:02.030658$GBGSV,1,1,04,12,19,122,40,24,58,052,46,25,54,282,44,35,16,051,38*6F
###2023-12-09 13:48:02.031979$GNVTG,243.17,T,,M,0.02,N,0.04,K,A*26
###2023-12-09 13:48:02.033583$GNGST,184801.10,7.200,,,,0.210,0.120,0.320*66
###2023-12-09 13:48:02.034916$GNZDA,184801.10,09,12,2023,00,00*74
###2023-12-09 13:48:02.035560$GNEBP,,,,,,M*13
###2023-12-09 13:48:02.209605$GNGGA,184801.30,4138.0391088,N,07032.4383231,W,1,17,0.8,15.566,M,-29.746,M,0.0,*5A
###2023-12-09 13:48:02.408552$GNGGA,184801.50,4138.0391090,N,07032.4383227,W,1,17,0.8,15.562,M,-29.746,M,0.0,*56
###2023-12-09 13:48:02.606924$GNGGA,184801.70,4138.0391091,N,07032.4383226,W,1,17,0.8,15.558,M,-29.746,M,0.0,*5D
###2023-12-09 13:48:02.812355$GNGGA,184801.90,4138.0391074,N,07032.4383216,W,1,17,0.8,15.551,M,-29.746,M,0.0,*52
###2023-12-09 13:48:03.008460$GNRMC,184802.10,A,4138.0391070,N,07032.4383201,W,0.02,243.17,091223,,,A*55
###2023-12-09 13:48:03.011341$GNGGA,184802.10,4138.0391070,N,07032.4383201,W,1,17,0.8,15.548,M,-29.746,M,0.0,*53
###2023-12-09 13:48:03.013063$GPGSA,A,3,04,16,26,28,29,31,,,,,,,1.3,0.8,1.1*3C
###2023-12-09 13:48:03.014652$GLGSA,A,3,65,73,74,75,,,,,,,,,1.3,0.8,1.1*22
###2023-12-09 13:48:03.016162$GAGSA,A,3,04,21,27,,,,,,,,,,1.3,0.8,1.1*2B
###2023-12-09 13:48:03.017732$GBGSA,A,3,12,24,25,35,,,,,,,,,1.3,0.8,1.1*2E
###2023-12-09 13:48:03.020060$GPGSV,2,1,06,04,51,304,49,16,73,229,41,26,77,041,43,28,33,090,44*7C
###2023-12-09 13:48:03.021805$GPGSV,2,2,06,29,17,042,42,31,55,075,49,,,,,,,,*7F
###2023-12-09 13:48:03.024141$GLGSV,1,1,04,65,43,312,43,73,17,056,43,74,55,024,36,75,47,280,47*6C
###2023-12-09 13:48:03.026179$GAGSV,1,1,03,04,44,307,45,21,72,043,40,27,19,051,39,,,,*5C
###2023-12-09 13:48:03.028518$GBGSV,1,1,04,12,19,122,40,24,58,052,46,25,54,282,44,35,16,051,38*6F
###2023-12-09 13:48:03.029850$GNVTG,243.17,T,,M,0.02,N,0.04,K,A*26
###2023-12-09 13:48:03.031468$GNGST,184802.10,6.700,,,,0.210,0.120,0.320*61
###2023-12-09 13:48:03.032758$GNZDA,184802.10,09,12,2023,00,00*77
###2023-12-09 13:48:03.033394$GNEBP,,,,,,M*13
###2023-12-09 13:48:03.213407$GNGGA,184802.30,4138.0391067,N,07032.4383197,W,1,17,0.8,15.548,M,-29.746,M,0.0,*5B
###2023-12-09 13:48:03.408090$GNGGA,184802.50,4138.0391059,N,07032.4383192,W,1,17,0.8,15.539,M,-29.746,M,0.0,*53
###2023-12-09 13:48:03.605883$GNGGA,184802.70,4138.0391043,N,07032.4383189,W,1,17,0.8,15.537,M,-29.746,M,0.0,*5E
###2023-12-09 13:48:03.805626$GNGGA,184802.90,4138.0391040,N,07032.4383195,W,1,17,0.8,15.530,M,-29.746,M,0.0,*59
###2023-12-09 13:48:04.010545$GNRMC,184803.10,A,4138.0391041,N,07032.4383194,W,0.02,243.17,091223,,,A*59
###2023-12-09 13:48:04.013407$GNGGA,184803.10,4138.0391041,N,07032.4383194,W,1,17,0.8,15.530,M,-29.746,M,0.0,*50
###2023-12-09 13:48:04.015135$GPGSA,A,3,04,16,26,28,29,31,,,,,,,1.3,0.8,1.1*3C
###2023-12-09 13:48:04.016709$GLGSA,A,3,65,73,74,75,,,,,,,,,1.3,0.8,1.1*22
###2023-12-09 13:48:04.018217$GAGSA,A,3,04,21,27,,,,,,,,,,1.3,0.8,1.1*2B
###2023-12-09 13:48:04.019839$GBGSA,A,3,12,24,25,35,,,,,,,,,1.3,0.8,1.1*2E
###2023-12-09 13:48:04.022162$GPGSV,2,1,06,04,51,304,49,16,73,229,41,26,77,041,44,28,33,090,44*7B
###2023-12-09 13:48:04.023919$GPGSV,2,2,06,29,17,042,42,31,55,075,49,,,,,,,,*7F
###2023-12-09 13:48:04.026229$GLGSV,1,1,04,65,43,312,44,73,17,056,43,74,55,024,36,75,47,280,47*6B
###2023-12-09 13:48:04.028283$GAGSV,1,1,03,04,44,307,45,21,72,043,39,27,18,051,39,,,,*53
###2023-12-09 13:48:04.030623$GBGSV,1,1,04,12,19,122,40,24,58,052,45,25,54,282,45,35,16,051,38*6D
###2023-12-09 13:48:04.031951$GNVTG,243.17,T,,M,0.02,N,0.04,K,A*26
###2023-12-09 13:48:04.033562$GNGST,184803.10,6.800,,,,0.210,0.120,0.320*6F
###2023-12-09 13:48:04.034856$GNZDA,184803.10,09,12,2023,00,00*76
###2023-12-09 13:48:04.035497$GNEBP,,,,,,M*13
###2023-12-09 13:48:04.208228$GNGGA,184803.30,4138.0391020,N,07032.4383208,W,1,17,0.8,15.516,M,-29.746,M,0.0,*57
###2023-12-09 13:48:04.408439$GNGGA,184803.50,4138.0391014,N,07032.4383201,W,1,17,0.8,15.515,M,-29.746,M,0.0,*5C
###2023-12-09 13:48:04.606718$GNGGA,184803.70,4138.0391001,N,07032.4383195,W,1,17,0.8,15.513,M,-29.746,M,0.0,*52
###2023-12-09 13:48:04.807179$GNGGA,184803.90,4138.0390978,N,07032.4383198,W,1,17,0.8,15.509,M,-29.746,M,0.0,*5C
###2023-12-09 13:48:05.009155$GNRMC,184804.10,A,4138.0390971,N,07032.4383200,W,0.04,243.17,091223,,,A*5D
###2023-12-09 13:48:05.012034$GNGGA,184804.10,4138.0390971,N,07032.4383200,W,1,17,0.8,15.508,M,-29.746,M,0.0,*59
###2023-12-09 13:48:05.013768$GPGSA,A,3,04,16,26,28,29,31,,,,,,,1.3,0.8,1.1*3C
###2023-12-09 13:48:05.015372$GLGSA,A,3,65,73,74,75,,,,,,,,,1.3,0.8,1.1*22
###2023-12-09 13:48:05.016897$GAGSA,A,3,04,21,27,,,,,,,,,,1.3,0.8,1.1*2B
###2023-12-09 13:48:05.018480$GBGSA,A,3,12,24,25,35,,,,,,,,,1.3,0.8,1.1*2E
###2023-12-09 13:48:05.020827$GPGSV,2,1,06,04,51,304,48,16,73,229,41,26,77,041,44,28,33,090,44*7A
###2023-12-09 13:48:05.022593$GPGSV,2,2,06,29,17,042,42,31,55,075,49,,,,,,,,*7F
###2023-12-09 13:48:05.024927$GLGSV,1,1,04,65,43,312,44,73,17,056,44,74,55,024,36,75,47,280,48*63
###2023-12-09 13:48:05.026977$GAGSV,1,1,03,04,44,307,45,21,72,043,39,27,18,051,39,,,,*53
###2023-12-09 13:48:05.029311$GBGSV,1,1,04,12,19,122,40,24,58,052,45,25,54,282,45,35,16,051,38*6D
###2023-12-09 13:48:05.030653$GNVTG,243.17,T,,M,0.04,N,0.07,K,A*23
###2023-12-09 13:48:05.032276$GNGST,184804.10,6.900,,,,0.210,0.120,0.320*69
###2023-12-09 13:48:05.033568$GNZDA,184804.10,09,12,2023,00,00*71
###2023-12-09 13:48:05.034206$GNEBP,,,,,,M*13
###2023-12-09 13:48:05.207013$GNGGA,184804.30,4138.0390949,N,07032.4383195,W,1,17,0.8,15.503,M,-29.746,M,0.0,*54
###2023-12-09 13:48:05.407021$GNGGA,184804.50,4138.0390948,N,07032.4383188,W,1,17,0.8,15.501,M,-29.746,M,0.0,*5D
###2023-12-09 13:48:05.606166$GNGGA,184804.70,4138.0390935,N,07032.4383179,W,1,17,0.8,15.498,M,-29.746,M,0.0,*5A
###2023-12-09 13:48:05.805665$GNGGA,184804.90,4138.0390923,N,07032.4383169,W,1,17,0.8,15.495,M,-29.746,M,0.0,*5F
###2023-12-09 13:48:06.010952$GNRMC,184805.10,A,4138.0390908,N,07032.4383161,W,0.04,243.17,091223,,,A*56
###2023-12-09 13:48:06.013823$GNGGA,184805.10,4138.0390908,N,07032.4383161,W,1,17,0.8,15.492,M,-29.746,M,0.0,*50
###2023-12-09 13:48:06.015567$GPGSA,A,3,04,16,26,28,29,31,,,,,,,1.3,0.8,1.1*3C
###2023-12-09 13:48:06.017159$GLGSA,A,3,65,73,74,75,,,,,,,,,1.3,0.8,1.1*22
###2023-12-09 13:48:06.018688$GAGSA,A,3,04,21,27,,,,,,,,,,1.3,0.8,1.1*2B
###2023-12-09 13:48:06.020272$GBGSA,A,3,12,24,25,35,,,,,,,,,1.3,0.8,1.1*2E
###2023-12-09 13:48:06.022616$GPGSV,2,1,06,04,51,304,49,16,73,229,41,26,77,041,44,28,33,090,44*7B
###2023-12-09 13:48:06.024372$GPGSV,2,2,06,29,17,042,42,31,55,075,49,,,,,,,,*7F
###2023-12-09 13:48:06.026715$GLGSV,1,1,04,65,43,312,44,73,17,056,44,74,55,024,36,75,47,280,48*63
###2023-12-09 13:48:06.028764$GAGSV,1,1,03,04,44,307,45,21,72,043,40,27,18,051,38,,,,*5C
###2023-12-09 13:48:06.031103$GBGSV,1,1,04,12,19,122,39,24,58,052,45,25,54,282,45,35,16,051,38*63
###2023-12-09 13:48:06.032435$GNVTG,243.17,T,,M,0.04,N,0.07,K,A*23
###2023-12-09 13:48:06.034051$GNGST,184805.10,7.300,,,,0.210,0.120,0.320*63
###2023-12-09 13:48:06.035361$GNZDA,184805.10,09,12,2023,00,00*70
###2023-12-09 13:48:06.036006$GNEBP,,,,,,M*13
###2023-12-09 13:48:06.211336$GNGGA,184805.30,4138.0390902,N,07032.4383160,W,1,17,0.8,15.489,M,-29.746,M,0.0,*53
###2023-12-09 13:48:06.406824$GNGGA,184805.50,4138.0390883,N,07032.4383152,W,1,17,0.8,15.488,M,-29.746,M,0.0,*5D
###2023-12-09 13:48:06.605028$GNGGA,184805.70,4138.0390859,N,07032.4383145,W,1,17,0.8,15.483,M,-29.746,M,0.0,*55
###2023-12-09 13:48:06.806358$GNGGA,184805.90,4138.0390827,N,07032.4383140,W,1,17,0.8,15.477,M,-29.746,M,0.0,*5C
###2023-12-09 13:48:07.008984$GNRMC,184806.10,A,4138.0390793,N,07032.4383139,W,0.02,243.17,091223,,,A*52
###2023-12-09 13:48:07.011863$GNGGA,184806.10,4138.0390793,N,07032.4383139,W,1,17,0.8,15.477,M,-29.746,M,0.0,*59
###2023-12-09 13:48:07.013596$GPGSA,A,3,04,16,26,28,29,31,,,,,,,1.3,0.8,1.1*3C
###2023-12-09 13:48:07.015194$GLGSA,A,3,65,73,74,75,,,,,,,,,1.3,0.8,1.1*22
###2023-12-09 13:48:07.016716$GAGSA,A,3,04,21,27,,,,,,,,,,1.3,0.8,1.1*2B
