###2023-12-09 12:42:44.980757$GNEBP,,,,,,M*13
###2023-12-09 12:42:45.141221$GNGGA,174244.30,4138.0483245,N,07032.3874473,W,1,24,0.6,13.306,M,-29.745,M,0.0,*56
###2023-12-09 12:42:45.340997$GNGGA,174244.50,4138.0481412,N,07032.3875632,W,1,24,0.6,13.273,M,-29.745,M,0.0,*53
###2023-12-09 12:42:45.541614$GNGGA,174244.70,4138.0479631,N,07032.3876162,W,1,24,0.6,13.265,M,-29.745,M,0.0,*53
###2023-12-09 12:42:45.741617$GNGGA,174244.90,4138.0477740,N,07032.3876908,W,1,24,0.6,13.283,M,-29.745,M,0.0,*58
###2023-12-09 12:42:45.940877$GNRMC,174245.10,A,4138.0475903,N,07032.3877777,W,3.40,198.33,091223,,,A*56
###2023-12-09 12:42:45.943744$GNGGA,174245.10,4138.0475903,N,07032.3877777,W,1,24,0.6,13.269,M,-29.745,M,0.0,*59
###2023-12-09 12:42:45.945601$GPGSA,A,3,03,04,16,26,28,29,31,32,,,,,1.1,0.6,0.9*3B
###2023-12-09 12:42:45.947345$GLGSA,A,3,65,71,72,73,74,75,,,,,,,1.1,0.6,0.9*24
###2023-12-09 12:42:45.948941$GAGSA,A,3,04,19,21,27,,,,,,,,,1.1,0.6,0.9*26
###2023-12-09 12:42:45.950608$GBGSA,A,3,14,24,25,26,33,,,,,,,,1.1,0.6,0.9*2F
###2023-12-09 12:42:45.952944$GPGSV,2,1,08,03,38,272,44,04,25,311,40,16,40,208,43,26,70,207,47*72
###2023-12-09 12:42:45.955297$GPGSV,2,2,08,28,55,060,46,29,25,070,42,31,72,013,47,32,27,136,44*74
###2023-12-09 12:42:45.957643$GLGSV,2,1,06,65,15,329,41,71,52,170,46,72,68,302,46,73,44,035,46*67
###2023-12-09 12:42:45.959409$GLGSV,2,2,06,74,71,303,43,75,25,244,40,,,,,,,,*62
###2023-12-09 12:42:45.961736$GAGSV,1,1,04,04,23,311,39,19,84,288,41,21,81,170,45,27,39,049,43*6B
###2023-12-09 12:42:45.964083$GBGSV,2,1,05,14,51,196,43,24,79,359,49,25,34,255,44,26,33,058,44*64
###2023-12-09 12:42:45.965543$GBGSV,2,2,05,33,62,248,47,,,,,,,,,,,,*57
###2023-12-09 12:42:45.966879$GNVTG,198.33,T,,M,3.40,N,6.30,K,A*21
###2023-12-09 12:42:45.968537$GNGST,174245.10,18.000,,,,0.079,0.070,0.160*50
###2023-12-09 12:42:45.969833$GNZDA,174245.10,09,12,2023,00,00*71
###2023-12-09 12:42:45.970473$GNEBP,,,,,,M*13
###2023-12-09 12:42:46.141656$GNGGA,174245.30,4138.0474072,N,07032.3878530,W,1,24,0.6,13.264,M,-29.745,M,0.0,*56
###2023-12-09 12:42:46.342247$GNGGA,174245.50,4138.0472163,N,07032.3879206,W,1,24,0.6,13.276,M,-29.745,M,0.0,*57
###2023-12-09 12:42:46.540356$GNGGA,174245.70,4138.0470304,N,07032.3879833,W,1,24,0.6,13.271,M,-29.745,M,0.0,*5F
###2023-12-09 12:42:46.739801$GNGGA,174245.90,4138.0468410,N,07032.3880555,W,1,24,0.6,13.280,M,-29.745,M,0.0,*5F
###2023-12-09 12:42:46.942838$GNRMC,174246.10,A,4138.0466503,N,07032.3881246,W,3.54,192.78,091223,,,A*55
###2023-12-09 12:42:46.945687$GNGGA,174246.10,4138.0466503,N,07032.3881246,W,1,24,0.6,13.267,M,-29.745,M,0.0,*54
###2023-12-09 12:42:46.947576$GPGSA,A,3,03,04,16,26,28,29,31,32,,,,,1.1,0.6,0.9*3B
###2023-12-09 12:42:46.949314$GLGSA,A,3,65,71,72,73,74,75,,,,,,,1.1,0.6,0.9*24
###2023-12-09 12:42:46.950920$GAGSA,A,3,04,19,21,27,,,,,,,,,1.1,0.6,0.9*26
###2023-12-09 12:42:46.952564$GBGSA,A,3,14,24,25,26,33,,,,,,,,1.1,0.6,0.9*2F
###2023-12-09 12:42:46.954898$GPGSV,2,1,08,03,38,272,44,04,25,311,41,16,40,208,42,26,70,207,47*72
###2023-12-09 12:42:46.957232$GPGSV,2,2,08,28,55,060,45,29,25,070,41,31,72,013,47,32,27,136,44*74
###2023-12-09 12:42:46.959584$GLGSV,2,1,06,65,15,329,41,71,52,170,46,72,68,302,46,73,44,035,46*67
###2023-12-09 12:42:46.961329$GLGSV,2,2,06,74,71,303,43,75,25,244,42,,,,,,,,*60
###2023-12-09 12:42:46.963671$GAGSV,1,1,04,04,23,311,39,19,84,288,40,21,81,170,46,27,39,049,44*6E
###2023-12-09 12:42:46.966010$GBGSV,2,1,05,14,51,196,43,24,79,359,48,25,34,255,43,26,33,058,43*65
###2023-12-09 12:42:46.967480$GBGSV,2,2,05,33,62,248,47,,,,,,,,,,,,*57
###2023-12-09 12:42:46.968804$GNVTG,192.78,T,,M,3.54,N,6.55,K,A*22
###2023-12-09 12:42:46.970455$GNGST,174246.10,18.000,,,,0.079,0.070,0.160*53
###2023-12-09 12:42:46.971766$GNZDA,174246.10,09,12,2023,00,00*72
###2023-12-09 12:42:46.972407$GNEBP,,,,,,M*13
###2023-12-09 12:42:47.143311$GNGGA,174246.30,4138.0464608,N,07032.3881950,W,1,24,0.6,13.256,M,-29.745,M,0.0,*52
###2023-12-09 12:42:47.343248$GNGGA,174246.50,4138.0462726,N,07032.3882786,W,1,24,0.6,13.265,M,-29.745,M,0.0,*59
###2023-12-09 12:42:47.546994$GNGGA,174246.70,4138.0460895,N,07032.3883701,W,1,24,0.6,13.270,M,-29.745,M,0.0,*54
###2023-12-09 12:42:47.740340$GNGGA,174246.90,4138.0459090,N,07032.3884641,W,1,24,0.6,13.282,M,-29.745,M,0.0,*52
###2023-12-09 12:42:47.942921$GNRMC,174247.10,A,4138.0457209,N,07032.3885476,W,3.63,194.82,091223,,,A*5D
###2023-12-09 12:42:47.945740$GNGGA,174247.10,4138.0457209,N,07032.3885476,W,1,24,0.6,13.260,M,-29.745,M,0.0,*5C
###2023-12-09 12:42:47.947613$GPGSA,A,3,03,04,16,26,28,29,31,32,,,,,1.1,0.6,0.9*3B
###2023-12-09 12:42:47.949342$GLGSA,A,3,65,71,72,73,74,75,,,,,,,1.1,0.6,0.9*24
###2023-12-09 12:42:47.950944$GAGSA,A,3,04,19,21,27,,,,,,,,,1.1,0.6,0.9*26
###2023-12-09 12:42:47.952585$GBGSA,A,3,14,24,25,26,33,,,,,,,,1.1,0.6,0.9*2F
###2023-12-09 12:42:47.954915$GPGSV,2,1,08,03,38,272,44,04,25,311,41,16,40,208,41,26,70,207,46*70
###2023-12-09 12:42:47.957230$GPGSV,2,2,08,28,55,060,45,29,25,070,40,31,72,013,47,32,27,136,44*75
###2023-12-09 12:42:47.959564$GLGSV,2,1,06,65,15,329,39,71,52,170,45,72,68,302,47,73,44,035,46*6A
###2023-12-09 12:42:47.961306$GLGSV,2,2,06,74,71,303,43,75,25,244,42,,,,,,,,*60
###2023-12-09 12:42:47.963640$GAGSV,1,1,04,04,23,311,40,19,84,288,41,21,81,170,46,27,39,049,43*66
###2023-12-09 12:42:47.965959$GBGSV,2,1,05,14,51,196,43,24,79,359,49,25,34,255,43,26,33,058,43*64
###2023-12-09 12:42:47.967413$GBGSV,2,2,05,33,62,248,47,,,,,,,,,,,,*57
###2023-12-09 12:42:47.968732$GNVTG,194.82,T,,M,3.63,N,6.73,K,A*21
###2023-12-09 12:42:47.970372$GNGST,174247.10,18.000,,,,0.080,0.070,0.160*54
###2023-12-09 12:42:47.971667$GNZDA,174247.10,09,12,2023,00,00*73
###2023-12-09 12:42:47.972300$GNEBP,,,,,,M*13
###2023-12-09 12:42:48.143077$GNGGA,174247.30,4138.0455360,N,07032.3886248,W,1,24,0.6,13.244,M,-29.745,M,0.0,*5C
###2023-12-09 12:42:48.342227$GNGGA,174247.50,4138.0453689,N,07032.3887570,W,1,24,0.6,13.295,M,-29.745,M,0.0,*5F
###2023-12-09 12:42:48.543245$GNGGA,174247.70,4138.0451919,N,07032.3888776,W,1,24,0.6,13.302,M,-29.745,M,0.0,*5D
###2023-12-09 12:42:48.745324$GNGGA,174247.90,4138.0450082,N,07032.3889351,W,1,24,0.6,13.248,M,-29.745,M,0.0,*56
###2023-12-09 12:42:48.943026$GNRMC,174248.10,A,4138.0448274,N,07032.3890157,W,3.46,209.21,091223,,,A*5D
###2023-12-09 12:42:48.945860$GNGGA,174248.10,4138.0448274,N,07032.3890157,W,1,24,0.6,13.244,M,-29.745,M,0.0,*53
###2023-12-09 12:42:48.947740$GPGSA,A,3,03,04,16,26,28,29,31,32,,,,,1.1,0.6,0.9*3B
###2023-12-09 12:42:48.949468$GLGSA,A,3,65,71,72,73,74,75,,,,,,,1.1,0.6,0.9*24
###2023-12-09 12:42:48.951072$GAGSA,A,3,04,19,21,27,,,,,,,,,1.1,0.6,0.9*26
###2023-12-09 12:42:48.952718$GBGSA,A,3,14,24,25,26,33,,,,,,,,1.1,0.6,0.9*2F
###2023-12-09 12:42:48.955075$GPGSV,2,1,08,03,38,272,42,04,25,311,39,16,40,208,44,26,70,207,47*7D
###2023-12-09 12:42:48.957413$GPGSV,2,2,08,28,55,060,46,29,25,070,44,31,72,013,47,32,27,136,46*70
###2023-12-09 12:42:48.959768$GLGSV,2,1,06,65,15,329,39,71,52,170,46,72,68,302,46,73,44,035,46*68
###2023-12-09 12:42:48.961524$GLGSV,2,2,06,74,71,303,42,75,25,244,40,,,,,,,,*63
###2023-12-09 12:42:48.963865$GAGSV,1,1,04,04,23,311,38,19,84,288,40,21,81,170,46,27,39,049,43*68
###2023-12-09 12:42:48.966194$GBGSV,2,1,05,14,51,196,43,24,79,359,48,25,34,255,42,26,33,058,44*63
###2023-12-09 12:42:48.967659$GBGSV,2,2,05,33,62,248,47,,,,,,,,,,,,*57
###2023-12-09 12:42:48.968984$GNVTG,209.21,T,,M,3.46,N,6.41,K,A*29
###2023-12-09 12:42:48.970645$GNGST,174248.10,18.000,,,,0.080,0.070,0.160*5B
###2023-12-09 12:42:48.971943$GNZDA,174248.10,09,12,2023,00,00*7C
###2023-12-09 12:42:48.972589$GNEBP,,,,,,M*13
###2023-12-09 12:42:49.155324$GNGGA,174248.30,4138.0446592,N,07032.3891669,W,1,24,0.6,13.293,M,-29.745,M,0.0,*51
###2023-12-09 12:42:49.341852$GNGGA,174248.50,4138.0444809,N,07032.3892805,W,1,24,0.6,13.276,M,-29.745,M,0.0,*56
###2023-12-09 12:42:49.542292$GNGGA,174248.70,4138.0442939,N,07032.3893081,W,1,24,0.6,13.252,M,-29.745,M,0.0,*53
###2023-12-09 12:42:49.741476$GNGGA,174248.90,4138.0441065,N,07032.3893739,W,1,24,0.6,13.262,M,-29.745,M,0.0,*59
###2023-12-09 12:42:49.941794$GNRMC,174249.10,A,4138.0439313,N,07032.3895130,W,3.79,210.12,091223,,,A*5A
###2023-12-09 12:42:49.944916$GNGGA,174249.10,4138.0439313,N,07032.3895130,W,1,24,0.6,13.300,M,-29.745,M,0.0,*51
###2023-12-09 12:42:49.946797$GPGSA,A,3,03,04,16,26,28,29,31,32,,,,,1.1,0.6,0.9*3B
###2023-12-09 12:42:49.948523$GLGSA,A,3,65,71,72,73,74,75,,,,,,,1.1,0.6,0.9*24
###2023-12-09 12:42:49.950109$GAGSA,A,3,04,19,21,27,,,,,,,,,1.1,0.6,0.9*26
###2023-12-09 12:42:49.951778$GBGSA,A,3,14,24,25,26,33,,,,,,,,1.1,0.6,0.9*2F
###2023-12-09 12:42:49.954112$GPGSV,2,1,08,03,38,272,43,04,25,311,41,16,40,208,43,26,70,207,46*75
###2023-12-09 12:42:49.956460$GPGSV,2,2,08,28,55,060,45,29,25,070,41,31,72,013,47,32,27,136,43*73
###2023-12-09 12:42:49.958808$GLGSV,2,1,06,65,15,329,40,71,52,170,46,72,68,302,47,73,44,035,46*67
###2023-12-09 12:42:49.960553$GLGSV,2,2,06,74,71,303,42,75,25,244,41,,,,,,,,*62
###2023-12-09 12:42:49.962891$GAGSV,1,1,04,04,23,311,40,19,84,288,40,21,81,170,46,27,39,049,43*67
