###2023-12-09 12:39:48.967433$GBGSV,2,2,05,33,62,250,47,,,,,,,,,,,,*5E
###2023-12-09 12:39:48.968777$GNVTG,303.72,T,,M,0.06,N,0.11,K,A*20
###2023-12-09 12:39:48.970428$GNGST,173948.10,18.000,,,,0.079,0.069,0.170*58
###2023-12-09 12:39:48.971733$GNZDA,173948.10,09,12,2023,00,00*70
###2023-12-09 12:39:48.972378$GNEBP,,,,,,M*13
###2023-12-09 12:39:49.141234$GNGGA,173948.30,4138.0547704,N,07032.3793052,W,1,23,0.7,13.325,M,-29.744,M,0.0,*58
###2023-12-09 12:39:49.342139$GNGGA,173948.50,4138.0547722,N,07032.3793065,W,1,23,0.7,13.293,M,-29.744,M,0.0,*52
###2023-12-09 12:39:49.541941$GNGGA,173948.70,4138.0547931,N,07032.3793501,W,1,22,0.7,13.279,M,-29.744,M,0.0,*5E
###2023-12-09 12:39:49.740684$GNGGA,173948.90,4138.0548208,N,07032.3794087,W,1,23,0.7,13.281,M,-29.744,M,0.0,*54
###2023-12-09 12:39:49.941981$GNRMC,173949.10,A,4138.0548353,N,07032.3794373,W,0.17,302.02,091223,,,A*56
###2023-12-09 12:39:49.944864$GNGGA,173949.10,4138.0548353,N,07032.3794373,W,1,23,0.7,13.286,M,-29.744,M,0.0,*5D
###2023-12-09 12:39:49.946746$GPGSA,A,3,03,04,16,26,28,29,31,32,,,,,1.2,0.7,1.0*31
###2023-12-09 12:39:49.948418$GLGSA,A,3,71,72,73,74,75,,,,,,,,1.2,0.7,1.0*2D
###2023-12-09 12:39:49.950004$GAGSA,A,3,04,19,21,27,,,,,,,,,1.2,0.7,1.0*2C
###2023-12-09 12:39:49.951666$GBGSA,A,3,14,24,25,26,33,,,,,,,,1.2,0.7,1.0*25
###2023-12-09 12:39:49.953997$GPGSV,2,1,08,03,38,274,45,04,24,311,45,16,39,208,43,26,68,207,47*76
###2023-12-09 12:39:49.956356$GPGSV,2,2,08,28,57,058,44,29,25,072,43,31,73,007,48,32,28,135,43*7C
###2023-12-09 12:39:49.958715$GLGSV,2,1,05,71,54,170,47,72,68,305,48,73,45,035,46,74,71,299,43*61
###2023-12-09 12:39:49.960178$GLGSV,2,2,05,75,24,243,42,,,,,,,,,,,,*57
###2023-12-09 12:39:49.962516$GAGSV,1,1,04,04,22,311,43,19,82,296,40,21,79,174,44,27,40,049,44*64
###2023-12-09 12:39:49.964879$GBGSV,2,1,05,14,53,197,44,24,80,355,47,25,34,254,44,26,33,058,45*64
###2023-12-09 12:39:49.966342$GBGSV,2,2,05,33,62,250,47,,,,,,,,,,,,*5E
###2023-12-09 12:39:49.967677$GNVTG,302.02,T,,M,0.17,N,0.32,K,A*27
###2023-12-09 12:39:49.969332$GNGST,173949.10,18.000,,,,0.079,0.070,0.170*51
###2023-12-09 12:39:49.970637$GNZDA,173949.10,09,12,2023,00,00*71
###2023-12-09 12:39:49.971282$GNEBP,,,,,,M*13
###2023-12-09 12:39:50.140220$GNGGA,173949.30,4138.0548378,N,07032.3794427,W,1,23,0.7,13.312,M,-29.744,M,0.0,*5C
###2023-12-09 12:39:50.341500$GNGGA,173949.50,4138.0548498,N,07032.3794640,W,1,23,0.7,13.314,M,-29.744,M,0.0,*56
###2023-12-09 12:39:50.542497$GNGGA,173949.70,4138.0548677,N,07032.3794994,W,1,23,0.7,13.295,M,-29.744,M,0.0,*59
###2023-12-09 12:39:50.740985$GNGGA,173949.90,4138.0548862,N,07032.3795348,W,1,23,0.7,13.275,M,-29.744,M,0.0,*59
###2023-12-09 12:39:50.942612$GNRMC,173950.10,A,4138.0549002,N,07032.3795659,W,0.45,302.02,091223,,,A*53
###2023-12-09 12:39:50.945482$GNGGA,173950.10,4138.0549002,N,07032.3795659,W,1,23,0.7,13.281,M,-29.744,M,0.0,*58
###2023-12-09 12:39:50.947372$GPGSA,A,3,03,04,16,26,28,29,31,32,,,,,1.2,0.7,1.0*31
###2023-12-09 12:39:50.949040$GLGSA,A,3,71,72,73,74,75,,,,,,,,1.2,0.7,1.0*2D
###2023-12-09 12:39:50.950642$GAGSA,A,3,04,19,21,27,,,,,,,,,1.2,0.7,1.0*2C
###2023-12-09 12:39:50.952292$GBGSA,A,3,14,24,25,26,33,,,,,,,,1.2,0.7,1.0*25
###2023-12-09 12:39:50.954638$GPGSV,2,1,08,03,38,274,44,04,24,311,43,16,39,208,42,26,68,207,47*70
###2023-12-09 12:39:50.956974$GPGSV,2,2,08,28,57,058,45,29,25,072,44,31,73,007,48,32,28,135,45*7C
###2023-12-09 12:39:50.959328$GLGSV,2,1,05,71,54,170,48,72,68,305,47,73,45,035,47,74,71,299,43*60
###2023-12-09 12:39:50.960786$GLGSV,2,2,05,75,24,243,40,,,,,,,,,,,,*55
###2023-12-09 12:39:50.963132$GAGSV,1,1,04,04,22,311,42,19,82,296,41,21,79,174,46,27,40,049,44*66
###2023-12-09 12:39:50.965471$GBGSV,2,1,05,14,53,197,45,24,80,355,48,25,34,254,43,26,33,058,45*6D
###2023-12-09 12:39:50.966938$GBGSV,2,2,05,33,62,250,47,,,,,,,,,,,,*5E
###2023-12-09 12:39:50.968267$GNVTG,302.02,T,,M,0.45,N,0.83,K,A*2A
###2023-12-09 12:39:50.969914$GNGST,173950.10,18.000,,,,0.079,0.070,0.170*59
###2023-12-09 12:39:50.971225$GNZDA,173950.10,09,12,2023,00,00*79
###2023-12-09 12:39:50.971867$GNEBP,,,,,,M*13
###2023-12-09 12:39:51.142050$GNGGA,173950.30,4138.0549160,N,07032.3795984,W,1,23,0.7,13.306,M,-29.744,M,0.0,*5E
###2023-12-09 12:39:51.342820$GNGGA,173950.50,4138.0549348,N,07032.3796332,W,1,23,0.7,13.320,M,-29.744,M,0.0,*50
###2023-12-09 12:39:51.541828$GNGGA,173950.70,4138.0549484,N,07032.3796545,W,1,23,0.7,13.312,M,-29.744,M,0.0,*52
###2023-12-09 12:39:51.741081$GNGGA,173950.90,4138.0549573,N,07032.3796699,W,1,23,0.7,13.288,M,-29.744,M,0.0,*55
###2023-12-09 12:39:51.941254$GNRMC,173951.10,A,4138.0549735,N,07032.3797077,W,0.84,302.02,091223,,,A*54
###2023-12-09 12:39:51.944128$GNGGA,173951.10,4138.0549735,N,07032.3797077,W,1,23,0.7,13.290,M,-29.744,M,0.0,*52
###2023-12-09 12:39:51.945983$GPGSA,A,3,03,04,16,26,28,29,31,32,,,,,1.2,0.7,1.0*31
###2023-12-09 12:39:51.947658$GLGSA,A,3,71,72,73,74,75,,,,,,,,1.2,0.7,1.0*2D
###2023-12-09 12:39:51.949259$GAGSA,A,3,04,19,21,27,,,,,,,,,1.2,0.7,1.0*2C
###2023-12-09 12:39:51.950926$GBGSA,A,3,14,24,25,26,33,,,,,,,,1.2,0.7,1.0*25
###2023-12-09 12:39:51.953258$GPGSV,2,1,08,03,38,274,42,04,24,311,41,16,39,208,43,26,68,207,47*75
###2023-12-09 12:39:51.955613$GPGSV,2,2,08,28,57,058,46,29,25,072,44,31,73,007,48,32,28,135,46*7C
###2023-12-09 12:39:51.957949$GLGSV,2,1,05,71,54,170,48,72,68,305,46,73,45,035,46,74,71,299,42*61
###2023-12-09 12:39:51.959429$GLGSV,2,2,05,75,24,243,40,,,,,,,,,,,,*55
###2023-12-09 12:39:51.961763$GAGSV,1,1,04,04,22,311,38,19,82,296,41,21,79,174,46,27,40,049,43*6C
###2023-12-09 12:39:51.964111$GBGSV,2,1,05,14,53,197,45,24,80,355,48,25,34,254,43,26,33,058,45*6D
###2023-12-09 12:39:51.965571$GBGSV,2,2,05,33,62,250,46,,,,,,,,,,,,*5F
###2023-12-09 12:39:51.966907$GNVTG,302.02,T,,M,0.84,N,1.55,K,A*2D
###2023-12-09 12:39:51.968558$GNGST,173951.10,19.000,,,,0.079,0.070,0.170*59
###2023-12-09 12:39:51.969849$GNZDA,173951.10,09,12,2023,00,00*78
###2023-12-09 12:39:51.970488$GNEBP,,,,,,M*13
###2023-12-09 12:39:52.142085$GNGGA,173951.30,4138.0549999,N,07032.3797609,W,1,23,0.7,13.301,M,-29.744,M,0.0,*5E
###2023-12-09 12:39:52.343698$GNGGA,173951.50,4138.0550221,N,07032.3797983,W,1,23,0.7,13.306,M,-29.744,M,0.0,*52
###2023-12-09 12:39:52.541809$GNGGA,173951.70,4138.0550308,N,07032.3798114,W,1,23,0.7,13.305,M,-29.744,M,0.0,*50
###2023-12-09 12:39:52.741590$GNGGA,173951.90,4138.0550344,N,07032.3798183,W,1,23,0.7,13.298,M,-29.744,M,0.0,*5D
###2023-12-09 12:39:52.943214$GNRMC,173952.10,A,4138.0550536,N,07032.3798569,W,0.93,302.02,091223,,,A*5D
###2023-12-09 12:39:52.946079$GNGGA,173952.10,4138.0550536,N,07032.3798569,W,1,23,0.7,13.296,M,-29.744,M,0.0,*5B
###2023-12-09 12:39:52.947965$GPGSA,A,3,03,04,16,26,28,29,31,32,,,,,1.2,0.7,1.0*31
###2023-12-09 12:39:52.949641$GLGSA,A,3,71,72,73,74,75,,,,,,,,1.2,0.7,1.0*2D
###2023-12-09 12:39:52.951248$GAGSA,A,3,04,19,21,27,,,,,,,,,1.2,0.7,1.0*2C
###2023-12-09 12:39:52.952897$GBGSA,A,3,14,24,25,26,33,,,,,,,,1.2,0.7,1.0*25
###2023-12-09 12:39:52.955240$GPGSV,2,1,08,03,38,274,43,04,24,311,39,16,39,208,43,26,68,207,47*7B
###2023-12-09 12:39:52.957572$GPGSV,2,2,08,28,57,058,46,29,25,072,44,31,73,007,48,32,28,135,46*7C
###2023-12-09 12:39:52.959913$GLGSV,2,1,05,71,54,170,48,72,68,305,46,73,45,035,46,74,71,299,42*61
###2023-12-09 12:39:52.961368$GLGSV,2,2,05,75,24,243,38,,,,,,,,,,,,*5A
###2023-12-09 12:39:52.963707$GAGSV,1,1,04,04,22,311,37,19,82,296,41,21,79,174,46,27,40,049,44*64
###2023-12-09 12:39:52.966031$GBGSV,2,1,05,14,53,197,45,24,80,355,48,25,34,254,42,26,33,058,45*6C
###2023-12-09 12:39:52.967499$GBGSV,2,2,05,33,62,250,46,,,,,,,,,,,,*5F
###2023-12-09 12:39:52.968819$GNVTG,302.02,T,,M,0.93,N,1.73,K,A*2F
###2023-12-09 12:39:52.970461$GNGST,173952.10,19.000,,,,0.079,0.069,0.170*52
###2023-12-09 12:39:52.971764$GNZDA,173952.10,09,12,2023,00,00*7B
###2023-12-09 12:39:52.972400$GNEBP,,,,,,M*13
###2023-12-09 12:39:53.141607$GNGGA,173952.30,4138.0550854,N,07032.3799193,W,1,23,0.7,13.307,M,-29.744,M,0.0,*59
###2023-12-09 12:39:53.341275$GNGGA,173952.50,4138.0551113,N,07032.3799633,W,1,23,0.7,13.308,M,-29.744,M,0.0,*56
###2023-12-09 12:39:53.542836$GNGGA,173952.70,4138.0551168,N,07032.3799710,W,1,23,0.7,13.308,M,-29.744,M,0.0,*58
###2023-12-09 12:39:53.739815$GNGGA,173952.90,4138.0551195,N,07032.3799741,W,1,23,0.7,13.298,M,-29.744,M,0.0,*58
###2023-12-09 12:39:53.941180$GNRMC,173953.10,A,4138.0551408,N,07032.3800142,W,0.95,305.22,091223,,,A*51
###2023-12-09 12:39:53.944071$GNGGA,173953.10,4138.0551408,N,07032.3800142,W,1,23,0.7,13.304,M,-29.744,M,0.0,*5E
###2023-12-09 12:39:53.945929$GPGSA,A,3,03,04,16,26,28,29,31,32,,,,,1.2,0.7,1.0*31
###2023-12-09 12:39:53.947608$GLGSA,A,3,71,72,73,74,75,,,,,,,,1.2,0.7,1.0*2D
###2023-12-09 12:39:53.949209$GAGSA,A,3,04,19,21,27,,,,,,,,,1.2,0.7,1.0*2C
###2023-12-09 12:39:53.950869$GBGSA,A,3,14,24,25,26,33,,,,,,,,1.2,0.7,1.0*25
###2023-12-09 12:39:53.953198$GPGSV,2,1,08,03,38,274,43,04,24,311,39,16,39,208,41,26,68,207,47*79
