###2023-12-09 13:31:57.998649$GLGSA,A,3,65,72,73,74,75,,,,,,,,1.4,0.8,1.1*20
###2023-12-09 13:31:58.000247$GAGSA,A,3,04,19,21,27,,,,,,,,,1.4,0.8,1.1*24
###2023-12-09 13:31:58.001888$GBGSA,A,3,24,25,26,33,35,,,,,,,,1.4,0.8,1.1*2E
###2023-12-09 13:31:58.004233$GPGSV,2,1,06,04,45,308,45,16,65,221,47,26,85,040,48,28,39,084,43*7F
###2023-12-09 13:31:58.005985$GPGSV,2,2,06,29,21,048,40,31,60,064,46,,,,,,,,*7B
###2023-12-09 13:31:58.008322$GLGSV,2,1,05,65,37,320,42,72,64,223,46,73,23,051,41,74,61,011,41*60
###2023-12-09 13:31:58.009776$GLGSV,2,2,05,75,42,269,47,,,,,,,,,,,,*5A
###2023-12-09 13:31:58.012104$GAGSV,1,1,04,04,39,310,45,19,73,182,42,21,78,047,46,27,23,050,37*68
###2023-12-09 13:31:58.014427$GBGSV,2,1,05,24,64,044,46,25,50,275,46,26,17,070,42,33,47,218,44*60
###2023-12-09 13:31:58.015890$GBGSV,2,2,05,35,16,058,41,,,,,,,,,,,,*57
###2023-12-09 13:31:58.017173$GNVTG,52.56,T,,M,2.43,N,4.50,K,A*13
###2023-12-09 13:31:58.018789$GNGST,183157.10,5.800,,,,0.180,0.100,0.270*6F
###2023-12-09 13:31:58.020075$GNZDA,183157.10,09,12,2023,00,00*79
###2023-12-09 13:31:58.020711$GNEBP,,,,,,M*13
###2023-12-09 13:31:58.187282$GNGGA,183157.30,4138.0358789,N,07032.4248417,W,1,20,0.8,13.624,M,-29.746,M,0.0,*57
###2023-12-09 13:31:58.386445$GNGGA,183157.50,4138.0359736,N,07032.4247114,W,1,20,0.8,13.644,M,-29.746,M,0.0,*5B
###2023-12-09 13:31:58.584209$GNGGA,183157.70,4138.0360585,N,07032.4245660,W,1,20,0.8,13.626,M,-29.746,M,0.0,*5B
###2023-12-09 13:31:58.785329$GNGGA,183157.90,4138.0361196,N,07032.4244237,W,1,20,0.8,13.623,M,-29.746,M,0.0,*50
###2023-12-09 13:31:58.985649$GNRMC,183158.10,A,4138.0361806,N,07032.4242870,W,2.33,56.01,091223,,,A*63
###2023-12-09 13:31:58.988737$GNGGA,183158.10,4138.0361806,N,07032.4242870,W,1,20,0.9,13.641,M,-29.746,M,0.0,*5D
###2023-12-09 13:31:58.990602$GPGSA,A,3,04,16,26,28,29,31,,,,,,,1.6,0.9,1.2*3B
###2023-12-09 13:31:58.992369$GLGSA,A,3,65,72,73,74,75,,,,,,,,1.6,0.9,1.2*20
###2023-12-09 13:31:58.994070$GAGSA,A,3,04,19,21,27,,,,,,,,,1.6,0.9,1.2*24
###2023-12-09 13:31:58.995826$GBGSA,A,3,24,25,26,33,35,,,,,,,,1.6,0.9,1.2*2E
###2023-12-09 13:31:58.998161$GPGSV,2,1,06,04,45,308,45,16,65,221,47,26,85,040,48,28,39,084,42*7E
###2023-12-09 13:31:58.999922$GPGSV,2,2,06,29,21,048,40,31,60,064,46,,,,,,,,*7B
###2023-12-09 13:31:59.002258$GLGSV,2,1,05,65,37,320,44,72,64,223,47,73,23,051,40,74,61,011,42*65
###2023-12-09 13:31:59.003728$GLGSV,2,2,05,75,42,269,46,,,,,,,,,,,,*5B
###2023-12-09 13:31:59.006062$GAGSV,1,1,04,04,39,310,43,19,73,182,41,21,78,047,45,27,23,050,38*61
###2023-12-09 13:31:59.008409$GBGSV,2,1,05,24,64,044,46,25,50,275,47,26,17,070,40,33,47,218,43*64
###2023-12-09 13:31:59.009873$GBGSV,2,2,05,35,16,058,40,,,,,,,,,,,,*56
###2023-12-09 13:31:59.011177$GNVTG,56.01,T,,M,2.33,N,4.32,K,A*16
###2023-12-09 13:31:59.012800$GNGST,183158.10,5.600,,,,0.180,0.100,0.270*6E
###2023-12-09 13:31:59.014094$GNZDA,183158.10,09,12,2023,00,00*76
###2023-12-09 13:31:59.014744$GNEBP,,,,,,M*13
###2023-12-09 13:31:59.185313$GNGGA,183158.30,4138.0362511,N,07032.4241418,W,1,20,0.9,13.634,M,-29.746,M,0.0,*54
###2023-12-09 13:31:59.384162$GNGGA,183158.50,4138.0363219,N,07032.4240034,W,1,20,0.9,13.612,M,-29.746,M,0.0,*53
###2023-12-09 13:31:59.584463$GNGGA,183158.70,4138.0364022,N,07032.4238605,W,1,20,0.9,13.635,M,-29.746,M,0.0,*52
###2023-12-09 13:31:59.787784$GNGGA,183158.90,4138.0364685,N,07032.4236756,W,1,21,0.8,13.628,M,-29.746,M,0.0,*52
###2023-12-09 13:31:59.988039$GNRMC,183159.10,A,4138.0365294,N,07032.4234972,W,2.55,66.86,091223,,,A*69
###2023-12-09 13:31:59.990898$GNGGA,183159.10,4138.0365294,N,07032.4234972,W,1,21,0.8,13.614,M,-29.746,M,0.0,*5B
###2023-12-09 13:31:59.992681$GPGSA,A,3,03,04,16,26,28,29,31,,,,,,1.4,0.8,1.1*38
###2023-12-09 13:31:59.994327$GLGSA,A,3,65,72,73,74,75,,,,,,,,1.4,0.8,1.1*20
###2023-12-09 13:31:59.995920$GAGSA,A,3,04,19,21,27,,,,,,,,,1.4,0.8,1.1*24
###2023-12-09 13:31:59.997568$GBGSA,A,3,24,25,26,33,35,,,,,,,,1.4,0.8,1.1*2E
###2023-12-09 13:31:59.999914$GPGSV,2,1,07,03,27,247,40,04,45,308,45,16,65,221,48,26,85,040,49*78
###2023-12-09 13:32:00.001964$GPGSV,2,2,07,28,39,084,42,29,21,048,42,31,60,064,46,,,,*42
###2023-12-09 13:32:00.004309$GLGSV,2,1,05,65,37,320,43,72,64,223,46,73,23,051,41,74,61,011,42*62
###2023-12-09 13:32:00.005767$GLGSV,2,2,05,75,42,269,46,,,,,,,,,,,,*5B
###2023-12-09 13:32:00.008137$GAGSV,1,1,04,04,39,310,43,19,73,182,41,21,77,047,46,27,23,050,39*6C
###2023-12-09 13:32:00.010466$GBGSV,2,1,05,24,64,044,47,25,50,275,45,26,17,070,41,33,47,218,46*63
###2023-12-09 13:32:00.011927$GBGSV,2,2,05,35,16,058,41,,,,,,,,,,,,*57
###2023-12-09 13:32:00.013213$GNVTG,66.86,T,,M,2.55,N,4.72,K,A*1E
###2023-12-09 13:32:00.014874$GNGST,183159.10,17.000,,,,0.180,0.100,0.270*5A
###2023-12-09 13:32:00.016169$GNZDA,183159.10,09,12,2023,00,00*77
###2023-12-09 13:32:00.016806$GNEBP,,,,,,M*13
###2023-12-09 13:32:00.187222$GNGGA,183159.30,4138.0366131,N,07032.4233230,W,1,21,0.8,13.653,M,-29.746,M,0.0,*5F
###2023-12-09 13:32:00.384099$GNGGA,183159.50,4138.0366994,N,07032.4231308,W,1,21,0.8,13.635,M,-29.746,M,0.0,*56
###2023-12-09 13:32:00.585285$GNGGA,183159.70,4138.0367669,N,07032.4229348,W,1,21,0.8,13.636,M,-29.746,M,0.0,*56
###2023-12-09 13:32:00.787151$GNGGA,183159.90,4138.0368330,N,07032.4227264,W,1,21,0.8,13.658,M,-29.746,M,0.0,*57
###2023-12-09 13:32:00.990635$GNRMC,183200.10,A,4138.0369029,N,07032.4225091,W,3.17,64.86,091223,,,A*6F
###2023-12-09 13:32:00.993498$GNGGA,183200.10,4138.0369029,N,07032.4225091,W,1,21,0.9,13.655,M,-29.746,M,0.0,*5C
###2023-12-09 13:32:00.995293$GPGSA,A,3,03,04,16,26,28,29,31,,,,,,1.4,0.9,1.1*39
###2023-12-09 13:32:00.996936$GLGSA,A,3,65,72,73,74,75,,,,,,,,1.4,0.9,1.1*21
###2023-12-09 13:32:00.998514$GAGSA,A,3,04,19,21,27,,,,,,,,,1.4,0.9,1.1*25
###2023-12-09 13:32:01.000168$GBGSA,A,3,24,25,26,33,35,,,,,,,,1.4,0.9,1.1*2F
###2023-12-09 13:32:01.002492$GPGSV,2,1,07,03,27,247,40,04,45,308,46,16,65,221,47,26,85,040,48*75
###2023-12-09 13:32:01.004539$GPGSV,2,2,07,28,39,084,42,29,21,048,41,31,60,064,46,,,,*41
###2023-12-09 13:32:01.006877$GLGSV,2,1,05,65,37,320,44,72,64,223,46,73,23,051,41,74,61,011,42*65
###2023-12-09 13:32:01.008333$GLGSV,2,2,05,75,42,269,47,,,,,,,,,,,,*5A
###2023-12-09 13:32:01.010667$GAGSV,1,1,04,04,39,310,44,19,73,182,41,21,77,047,45,27,23,050,40*66
###2023-12-09 13:32:01.012991$GBGSV,2,1,05,24,64,044,47,25,50,275,46,26,17,070,41,33,47,218,47*61
###2023-12-09 13:32:01.014435$GBGSV,2,2,05,35,16,058,41,,,,,,,,,,,,*57
###2023-12-09 13:32:01.015732$GNVTG,64.86,T,,M,3.17,N,5.87,K,A*10
###2023-12-09 13:32:01.017341$GNGST,183200.10,6.400,,,,0.180,0.100,0.270*61
###2023-12-09 13:32:01.018634$GNZDA,183200.10,09,12,2023,00,00*78
###2023-12-09 13:32:01.019272$GNEBP,,,,,,M*13
###2023-12-09 13:32:01.189271$GNGGA,183200.30,4138.0369779,N,07032.4222982,W,1,21,0.9,13.639,M,-29.746,M,0.0,*5A
###2023-12-09 13:32:01.388369$GNGGA,183200.50,4138.0370484,N,07032.4220847,W,1,21,0.9,13.646,M,-29.745,M,0.0,*54
###2023-12-09 13:32:01.588048$GNGGA,183200.70,4138.0371103,N,07032.4218579,W,1,21,0.9,13.640,M,-29.745,M,0.0,*50
###2023-12-09 13:32:01.789262$GNGGA,183200.90,4138.0371639,N,07032.4216379,W,1,21,0.9,13.635,M,-29.745,M,0.0,*5A
###2023-12-09 13:32:01.991673$GNRMC,183201.10,A,4138.0372293,N,07032.4214382,W,2.95,66.81,091223,,,A*6A
###2023-12-09 13:32:01.994527$GNGGA,183201.10,4138.0372293,N,07032.4214382,W,1,21,0.9,13.651,M,-29.745,M,0.0,*50
###2023-12-09 13:32:01.996325$GPGSA,A,3,03,04,16,26,28,29,31,,,,,,1.4,0.9,1.1*39
###2023-12-09 13:32:01.997963$GLGSA,A,3,65,72,73,74,75,,,,,,,,1.4,0.9,1.1*21
###2023-12-09 13:32:01.999552$GAGSA,A,3,04,19,21,27,,,,,,,,,1.4,0.9,1.1*25
###2023-12-09 13:32:02.001191$GBGSA,A,3,24,25,26,33,35,,,,,,,,1.4,0.9,1.1*2F
###2023-12-09 13:32:02.003514$GPGSV,2,1,07,03,27,247,40,04,45,308,46,16,65,221,47,26,85,040,48*75
###2023-12-09 13:32:02.005545$GPGSV,2,2,07,28,39,084,42,29,21,048,41,31,60,064,46,,,,*41
###2023-12-09 13:32:02.007870$GLGSV,2,1,05,65,37,320,44,72,64,223,47,73,23,051,41,74,61,011,42*64
###2023-12-09 13:32:02.009317$GLGSV,2,2,05,75,42,269,46,,,,,,,,,,,,*5B
###2023-12-09 13:32:02.011645$GAGSV,1,1,04,04,39,310,44,19,73,182,41,21,77,047,46,27,23,050,39*6B
###2023-12-09 13:32:02.013961$GBGSV,2,1,05,24,64,044,48,25,50,275,48,26,17,070,41,33,47,218,49*6E
###2023-12-09 13:32:02.015679$GBGSV,2,2,05,35,16,058,42,,,,,,,,,,,,*54
###2023-12-09 13:32:02.016978$GNVTG,66.81,T,,M,2.95,N,5.47,K,A*12
###2023-12-09 13:32:02.018600$GNGST,183201.10,5.600,,,,0.180,0.100,0.270*61
###2023-12-09 13:32:02.019895$GNZDA,183201.10,09,12,2023,00,00*79
###2023-12-09 13:32:02.020533$GNEBP,,,,,,M*13
###2023-12-09 13:32:02.189269$GNGGA,183201.30,4138.0372852,N,07032.4212400,W,1,21,0.9,13.651,M,-29.745,M,0.0,*5E
###2023-12-09 13:32:02.388024$GNGGA,183201.50,4138.0373315,N,07032.4210568,W,1,21,0.9,13.649,M,-29.745,M,0.0,*55
