###2023-12-09 13:15:17.987813$GLGSA,A,3,65,71,72,73,74,75,,,,,,,1.2,0.7,1.0*2E
###2023-12-09 13:15:17.989422$GAGSA,A,3,04,19,21,27,,,,,,,,,1.2,0.7,1.0*2C
###2023-12-09 13:15:17.991157$GBGSA,A,3,14,24,25,26,33,35,,,,,,,1.2,0.7,1.0*23
###2023-12-09 13:15:17.993533$GPGSV,2,1,07,03,32,254,44,04,38,311,45,16,57,216,46,26,86,209,48*7E
###2023-12-09 13:15:17.995599$GPGSV,2,2,07,28,45,076,42,29,24,055,40,31,65,050,46,,,,*4D
###2023-12-09 13:15:17.997923$GLGSV,2,1,06,65,30,325,42,71,33,174,46,72,71,243,47,73,30,046,41*61
###2023-12-09 13:15:17.999693$GLGSV,2,2,06,74,66,355,43,75,37,260,46,,,,,,,,*64
###2023-12-09 13:15:18.002022$GAGSV,1,1,04,04,33,312,43,19,80,192,40,21,84,066,44,27,29,048,40*68
###2023-12-09 13:15:18.004369$GBGSV,2,1,06,14,37,191,45,24,69,035,48,25,45,267,46,26,22,066,42*61
###2023-12-09 13:15:18.006120$GBGSV,2,2,06,33,53,225,47,35,16,064,41,,,,,,,,*6B
###2023-12-09 13:15:18.007427$GNVTG,64.64,T,,M,3.46,N,6.41,K,A*11
###2023-12-09 13:15:18.009075$GNGST,181517.10,18.000,,,,0.097,0.070,0.170*5B
###2023-12-09 13:15:18.010363$GNZDA,181517.10,09,12,2023,00,00*7B
###2023-12-09 13:15:18.011022$GNEBP,,,,,,M*13
###2023-12-09 13:15:18.177638$GNGGA,181517.30,4138.0131511,N,07032.2727068,W,1,24,0.7,12.801,M,-29.744,M,0.0,*5C
###2023-12-09 13:15:18.378903$GNGGA,181517.50,4138.0132561,N,07032.2724902,W,1,24,0.7,12.802,M,-29.744,M,0.0,*5B
###2023-12-09 13:15:18.578760$GNGGA,181517.70,4138.0133578,N,07032.2722722,W,1,24,0.7,12.793,M,-29.744,M,0.0,*5D
###2023-12-09 13:15:18.778687$GNGGA,181517.90,4138.0134664,N,07032.2720669,W,1,24,0.7,12.790,M,-29.744,M,0.0,*55
###2023-12-09 13:15:18.983047$GNRMC,181518.10,A,4138.0135845,N,07032.2718680,W,3.44,50.68,091223,,,A*60
###2023-12-09 13:15:18.985906$GNGGA,181518.10,4138.0135845,N,07032.2718680,W,1,24,0.7,12.785,M,-29.744,M,0.0,*56
###2023-12-09 13:15:18.987723$GPGSA,A,3,03,04,16,26,28,29,31,,,,,,1.2,0.7,1.0*30
###2023-12-09 13:15:18.989440$GLGSA,A,3,65,71,72,73,74,75,,,,,,,1.2,0.7,1.0*2E
###2023-12-09 13:15:18.991037$GAGSA,A,3,04,19,21,27,,,,,,,,,1.2,0.7,1.0*2C
###2023-12-09 13:15:18.992755$GBGSA,A,3,14,24,25,26,33,35,,,,,,,1.2,0.7,1.0*23
###2023-12-09 13:15:18.995102$GPGSV,2,1,07,03,32,254,43,04,38,311,45,16,57,216,46,26,86,209,49*78
###2023-12-09 13:15:18.997148$GPGSV,2,2,07,28,45,076,44,29,24,055,41,31,65,050,46,,,,*4A
###2023-12-09 13:15:18.999490$GLGSV,2,1,06,65,30,325,44,71,33,174,46,72,71,243,47,73,30,046,43*65
###2023-12-09 13:15:19.001244$GLGSV,2,2,06,74,66,355,42,75,37,260,45,,,,,,,,*66
###2023-12-09 13:15:19.003589$GAGSV,1,1,04,04,33,312,43,19,80,192,41,21,84,066,46,27,29,048,41*6A
###2023-12-09 13:15:19.005927$GBGSV,2,1,06,14,37,191,43,24,69,035,47,25,45,267,46,26,22,066,40*6A
###2023-12-09 13:15:19.007691$GBGSV,2,2,06,33,53,225,46,35,16,064,40,,,,,,,,*6B
###2023-12-09 13:15:19.008982$GNVTG,50.68,T,,M,3.44,N,6.37,K,A*19
###2023-12-09 13:15:19.010636$GNGST,181518.10,18.000,,,,0.097,0.070,0.170*54
###2023-12-09 13:15:19.011927$GNZDA,181518.10,09,12,2023,00,00*74
###2023-12-09 13:15:19.012565$GNEBP,,,,,,M*13
###2023-12-09 13:15:19.176642$GNGGA,181518.30,4138.0137034,N,07032.2716715,W,1,24,0.7,12.776,M,-29.744,M,0.0,*57
###2023-12-09 13:15:19.378027$GNGGA,181518.50,4138.0138274,N,07032.2714875,W,1,24,0.7,12.778,M,-29.744,M,0.0,*5D
###2023-12-09 13:15:19.579134$GNGGA,181518.70,4138.0139591,N,07032.2713067,W,1,24,0.7,12.787,M,-29.744,M,0.0,*5E
###2023-12-09 13:15:19.777632$GNGGA,181518.90,4138.0140913,N,07032.2711410,W,1,24,0.7,12.786,M,-29.744,M,0.0,*5F
###2023-12-09 13:15:19.983176$GNRMC,181519.10,A,4138.0142274,N,07032.2709798,W,3.34,46.20,091223,,,A*6D
###2023-12-09 13:15:19.986030$GNGGA,181519.10,4138.0142274,N,07032.2709798,W,1,24,0.7,12.786,M,-29.744,M,0.0,*54
###2023-12-09 13:15:19.987838$GPGSA,A,3,03,04,16,26,28,29,31,,,,,,1.2,0.7,1.0*30
###2023-12-09 13:15:19.989556$GLGSA,A,3,65,71,72,73,74,75,,,,,,,1.2,0.7,1.0*2E
###2023-12-09 13:15:19.991153$GAGSA,A,3,04,19,21,27,,,,,,,,,1.2,0.7,1.0*2C
###2023-12-09 13:15:19.992857$GBGSA,A,3,14,24,25,26,33,35,,,,,,,1.2,0.7,1.0*23
###2023-12-09 13:15:19.995192$GPGSV,2,1,07,03,32,254,43,04,38,311,46,16,57,216,47,26,86,209,49*7A
###2023-12-09 13:15:19.997232$GPGSV,2,2,07,28,45,076,44,29,24,055,41,31,65,050,46,,,,*4A
###2023-12-09 13:15:19.999572$GLGSV,2,1,06,65,30,325,43,71,33,174,45,72,71,243,47,73,30,046,43*61
###2023-12-09 13:15:20.001323$GLGSV,2,2,06,74,66,355,42,75,37,260,47,,,,,,,,*64
###2023-12-09 13:15:20.003661$GAGSV,1,1,04,04,33,312,44,19,80,192,41,21,84,066,46,27,29,048,41*6D
###2023-12-09 13:15:20.005981$GBGSV,2,1,06,14,37,191,45,24,69,035,48,25,45,267,47,26,22,066,39*6C
###2023-12-09 13:15:20.007737$GBGSV,2,2,06,33,53,225,47,35,16,064,41,,,,,,,,*6B
###2023-12-09 13:15:20.009023$GNVTG,46.20,T,,M,3.34,N,6.19,K,A*19
###2023-12-09 13:15:20.010708$GNGST,181519.10,18.000,,,,0.097,0.070,0.170*55
###2023-12-09 13:15:20.012003$GNZDA,181519.10,09,12,2023,00,00*75
###2023-12-09 13:15:20.012640$GNEBP,,,,,,M*13
###2023-12-09 13:15:20.179602$GNGGA,181519.30,4138.0143567,N,07032.2708082,W,1,24,0.7,12.750,M,-29.744,M,0.0,*54
###2023-12-09 13:15:20.377939$GNGGA,181519.50,4138.0144972,N,07032.2706800,W,1,24,0.7,12.751,M,-29.744,M,0.0,*50
###2023-12-09 13:15:20.578737$GNGGA,181519.70,4138.0146487,N,07032.2705673,W,1,24,0.7,12.780,M,-29.744,M,0.0,*52
###2023-12-09 13:15:20.780129$GNGGA,181519.90,4138.0147956,N,07032.2704373,W,1,24,0.7,12.784,M,-29.744,M,0.0,*5C
###2023-12-09 13:15:20.988710$GNRMC,181520.10,A,4138.0149418,N,07032.2703011,W,3.23,32.60,091223,,,A*6D
###2023-12-09 13:15:20.991584$GNGGA,181520.10,4138.0149418,N,07032.2703011,W,1,24,0.7,12.765,M,-29.744,M,0.0,*58
###2023-12-09 13:15:20.993381$GPGSA,A,3,03,04,16,26,28,29,31,,,,,,1.2,0.7,1.0*30
###2023-12-09 13:15:20.995103$GLGSA,A,3,65,71,72,73,74,75,,,,,,,1.2,0.7,1.0*2E
###2023-12-09 13:15:20.996687$GAGSA,A,3,04,19,21,27,,,,,,,,,1.2,0.7,1.0*2C
###2023-12-09 13:15:20.998392$GBGSA,A,3,14,24,25,26,33,35,,,,,,,1.2,0.7,1.0*23
###2023-12-09 13:15:21.000729$GPGSV,2,1,07,03,32,254,42,04,38,311,45,16,57,216,47,26,86,209,49*78
###2023-12-09 13:15:21.002776$GPGSV,2,2,07,28,45,076,43,29,24,055,40,31,65,050,47,,,,*4D
###2023-12-09 13:15:21.005097$GLGSV,2,1,06,65,30,325,42,71,33,174,46,72,71,243,47,73,30,046,42*62
###2023-12-09 13:15:21.006850$GLGSV,2,2,06,74,66,355,42,75,37,260,46,,,,,,,,*65
###2023-12-09 13:15:21.009176$GAGSV,1,1,04,04,33,312,44,19,80,192,41,21,84,066,46,27,29,048,40*6C
###2023-12-09 13:15:21.011555$GBGSV,2,1,06,14,37,191,45,24,69,035,48,25,45,267,47,26,22,066,41*63
###2023-12-09 13:15:21.013314$GBGSV,2,2,06,33,53,225,47,35,16,064,41,,,,,,,,*6B
###2023-12-09 13:15:21.014615$GNVTG,32.60,T,,M,3.23,N,5.98,K,A*12
###2023-12-09 13:15:21.016266$GNGST,181520.10,18.000,,,,0.097,0.070,0.170*5F
###2023-12-09 13:15:21.017558$GNZDA,181520.10,09,12,2023,00,00*7F
###2023-12-09 13:15:21.018195$GNEBP,,,,,,M*13
###2023-12-09 13:15:21.180564$GNGGA,181520.30,4138.0150971,N,07032.2701877,W,1,24,0.7,12.750,M,-29.744,M,0.0,*5C
###2023-12-09 13:15:21.378290$GNGGA,181520.50,4138.0152577,N,07032.2701065,W,1,24,0.7,12.752,M,-29.744,M,0.0,*5B
###2023-12-09 13:15:21.578938$GNGGA,181520.70,4138.0154135,N,07032.2700149,W,1,24,0.7,12.757,M,-29.744,M,0.0,*56
###2023-12-09 13:15:21.779717$GNGGA,181520.90,4138.0155655,N,07032.2699144,W,1,24,0.7,12.756,M,-29.744,M,0.0,*55
###2023-12-09 13:15:21.983554$GNRMC,181521.10,A,4138.0157217,N,07032.2698454,W,2.94,12.92,091223,,,A*6E
###2023-12-09 13:15:21.986420$GNGGA,181521.10,4138.0157217,N,07032.2698454,W,1,24,0.7,12.755,M,-29.744,M,0.0,*5A
###2023-12-09 13:15:21.988221$GPGSA,A,3,03,04,16,26,28,29,31,,,,,,1.2,0.7,1.0*30
###2023-12-09 13:15:21.989933$GLGSA,A,3,65,71,72,73,74,75,,,,,,,1.2,0.7,1.0*2E
###2023-12-09 13:15:21.991529$GAGSA,A,3,04,19,21,27,,,,,,,,,1.2,0.7,1.0*2C
###2023-12-09 13:15:21.993238$GBGSA,A,3,14,24,25,26,33,35,,,,,,,1.2,0.7,1.0*23
###2023-12-09 13:15:21.995577$GPGSV,2,1,07,03,32,254,42,04,38,311,44,16,57,216,44,26,86,209,47*74
###2023-12-09 13:15:21.997620$GPGSV,2,2,07,28,45,076,45,29,24,055,40,31,65,050,46,,,,*4A
###2023-12-09 13:15:21.999961$GLGSV,2,1,06,65,30,325,41,71,33,174,45,72,71,243,47,73,30,046,43*63
###2023-12-09 13:15:22.001713$GLGSV,2,2,06,74,66,355,41,75,37,260,46,,,,,,,,*66
###2023-12-09 13:15:22.004297$GAGSV,1,1,04,04,33,312,43,19,80,192,41,21,84,066,46,27,29,048,40*6B
###2023-12-09 13:15:22.006664$GBGSV,2,1,06,14,37,191,44,24,69,035,47,25,45,267,45,26,22,066,42*6C
###2023-12-09 13:15:22.008416$GBGSV,2,2,06,33,53,225,46,35,16,064,42,,,,,,,,*69
###2023-12-09 13:15:22.009711$GNVTG,12.92,T,,M,2.94,N,5.44,K,A*11
###2023-12-09 13:15:22.011394$GNGST,181521.10,18.000,,,,0.097,0.071,0.170*5F
###2023-12-09 13:15:22.012688$GNZDA,181521.10,09,12,2023,00,00*7E
###2023-12-09 13:15:22.013325$GNEBP,,,,,,M*13
###2023-12-09 13:15:22.178314$GNGGA,181521.30,4138.0158817,N,07032.2698040,W,1,24,0.7,12.758,M,-29.744,M,0.0,*51
###2023-12-09 13:15:22.377937$GNGGA,181521.50,4138.0160445,N,07032.2697540,W,1,24,0.7,12.757,M,-29.744,M,0.0,*52
