###2023-12-09 12:46:38.954323$GPGSA,A,3,03,04,16,26,28,29,31,32,,,,,1.1,0.6,0.9*3B
###2023-12-09 12:46:38.956468$GLGSA,A,3,65,71,72,73,74,75,,,,,,,1.1,0.6,0.9*24
###2023-12-09 12:46:38.958697$GAGSA,A,3,04,19,21,27,,,,,,,,,1.1,0.6,0.9*26
###2023-12-09 12:46:38.960854$GBGSA,A,3,14,24,25,26,33,,,,,,,,1.1,0.6,0.9*2F
###2023-12-09 12:46:38.964150$GPGSV,2,1,08,03,37,270,46,04,26,311,45,16,42,209,43,26,72,208,47*75
###2023-12-09 12:46:38.967739$GPGSV,2,2,08,28,54,062,43,29,26,068,42,31,72,018,47,32,25,137,42*76
###2023-12-09 12:46:38.971093$GLGSV,2,1,06,65,17,329,42,71,50,171,44,72,70,297,47,73,43,037,45*64
###2023-12-09 12:46:38.973536$GLGSV,2,2,06,74,71,310,43,75,26,245,43,,,,,,,,*61
###2023-12-09 12:46:38.976860$GAGSV,1,1,04,04,24,312,45,19,84,276,41,21,82,165,45,27,38,049,42*62
###2023-12-09 12:46:38.980137$GBGSV,2,1,05,14,50,195,45,24,78,005,47,25,36,256,46,26,31,059,42*63
###2023-12-09 12:46:38.982280$GBGSV,2,2,05,33,61,245,47,,,,,,,,,,,,*59
###2023-12-09 12:46:38.984165$GNVTG,274.71,T,,M,0.21,N,0.40,K,A*23
###2023-12-09 12:46:38.986408$GNGST,174638.10,18.000,,,,0.079,0.069,0.160*56
###2023-12-09 12:46:38.988392$GNZDA,174638.10,09,12,2023,00,00*7F
###2023-12-09 12:46:38.989248$GNEBP,,,,,,M*13
###2023-12-09 12:46:39.147274$GNGGA,174638.30,4138.0479067,N,07032.3925715,W,1,24,0.6,13.293,M,-29.745,M,0.0,*55
###2023-12-09 12:46:39.349289$GNGGA,174638.50,4138.0479022,N,07032.3925573,W,1,24,0.6,13.251,M,-29.745,M,0.0,*5E
###2023-12-09 12:46:39.546406$GNGGA,174638.70,4138.0479057,N,07032.3926324,W,1,24,0.6,13.283,M,-29.745,M,0.0,*56
###2023-12-09 12:46:39.747269$GNGGA,174638.90,4138.0479096,N,07032.3927135,W,1,24,0.6,13.287,M,-29.745,M,0.0,*52
###2023-12-09 12:46:39.945200$GNRMC,174639.10,A,4138.0479044,N,07032.3927116,W,0.56,273.85,091223,,,A*55
###2023-12-09 12:46:39.948094$GNGGA,174639.10,4138.0479044,N,07032.3927116,W,1,24,0.6,13.306,M,-29.745,M,0.0,*5D
###2023-12-09 12:46:39.949976$GPGSA,A,3,03,04,16,26,28,29,31,32,,,,,1.1,0.6,0.9*3B
###2023-12-09 12:46:39.951713$GLGSA,A,3,65,71,72,73,74,75,,,,,,,1.1,0.6,0.9*24
###2023-12-09 12:46:39.953302$GAGSA,A,3,04,19,21,27,,,,,,,,,1.1,0.6,0.9*26
###2023-12-09 12:46:39.954970$GBGSA,A,3,14,24,25,26,33,,,,,,,,1.1,0.6,0.9*2F
###2023-12-09 12:46:39.957314$GPGSV,2,1,08,03,37,270,46,04,26,311,45,16,42,209,43,26,72,208,46*74
###2023-12-09 12:46:39.959671$GPGSV,2,2,08,28,54,062,44,29,26,068,42,31,72,018,47,32,25,137,41*72
###2023-12-09 12:46:39.962014$GLGSV,2,1,06,65,17,329,44,71,50,171,44,72,70,297,47,73,43,037,46*61
###2023-12-09 12:46:39.963786$GLGSV,2,2,06,74,71,310,43,75,26,245,43,,,,,,,,*61
###2023-12-09 12:46:39.966127$GAGSV,1,1,04,04,24,312,44,19,84,276,41,21,82,165,45,27,38,049,42*63
###2023-12-09 12:46:39.968477$GBGSV,2,1,05,14,50,195,44,24,78,005,48,25,36,256,47,26,31,059,42*6C
###2023-12-09 12:46:39.969940$GBGSV,2,2,05,33,61,245,48,,,,,,,,,,,,*56
###2023-12-09 12:46:39.971276$GNVTG,273.85,T,,M,0.56,N,1.04,K,A*2E
###2023-12-09 12:46:39.972932$GNGST,174639.10,18.000,,,,0.079,0.069,0.160*57
###2023-12-09 12:46:39.974228$GNZDA,174639.10,09,12,2023,00,00*7E
###2023-12-09 12:46:39.974879$GNEBP,,,,,,M*13
###2023-12-09 12:46:40.144510$GNGGA,174639.30,4138.0478940,N,07032.3926664,W,1,24,0.6,13.292,M,-29.745,M,0.0,*5C
###2023-12-09 12:46:40.345087$GNGGA,174639.50,4138.0478916,N,07032.3926764,W,1,24,0.6,13.259,M,-29.745,M,0.0,*5F
###2023-12-09 12:46:40.544032$GNGGA,174639.70,4138.0478958,N,07032.3927471,W,1,24,0.6,13.275,M,-29.745,M,0.0,*5F
###2023-12-09 12:46:40.743827$GNGGA,174639.90,4138.0478934,N,07032.3928067,W,1,24,0.6,13.278,M,-29.745,M,0.0,*5A
###2023-12-09 12:46:40.945382$GNRMC,174640.10,A,4138.0478868,N,07032.3927954,W,0.47,272.88,091223,,,A*5E
###2023-12-09 12:46:40.948922$GNGGA,174640.10,4138.0478868,N,07032.3927954,W,1,24,0.6,13.294,M,-29.745,M,0.0,*50
###2023-12-09 12:46:40.951205$GPGSA,A,3,03,04,16,26,28,29,31,32,,,,,1.1,0.6,0.9*3B
###2023-12-09 12:46:40.953282$GLGSA,A,3,65,71,72,73,74,75,,,,,,,1.1,0.6,0.9*24
###2023-12-09 12:46:40.955214$GAGSA,A,3,04,19,21,27,,,,,,,,,1.1,0.6,0.9*26
###2023-12-09 12:46:40.957200$GBGSA,A,3,14,24,25,26,33,,,,,,,,1.1,0.6,0.9*2F
###2023-12-09 12:46:40.960036$GPGSV,2,1,08,03,37,270,45,04,26,311,44,16,42,209,44,26,72,208,47*70
###2023-12-09 12:46:40.962881$GPGSV,2,2,08,28,54,062,44,29,26,068,42,31,72,018,48,32,25,137,43*7F
###2023-12-09 12:46:40.965703$GLGSV,2,1,06,65,17,329,42,71,50,171,45,72,70,297,47,73,43,037,45*65
###2023-12-09 12:46:40.967831$GLGSV,2,2,06,74,71,310,43,75,26,245,43,,,,,,,,*61
###2023-12-09 12:46:40.970640$GAGSV,1,1,04,04,24,312,43,19,84,276,40,21,82,165,45,27,38,049,42*65
###2023-12-09 12:46:40.973484$GBGSV,2,1,05,14,50,195,45,24,78,005,49,25,36,256,46,26,31,059,41*6E
###2023-12-09 12:46:40.975268$GBGSV,2,2,05,33,61,245,48,,,,,,,,,,,,*56
###2023-12-09 12:46:40.976872$GNVTG,272.88,T,,M,0.47,N,0.86,K,A*29
###2023-12-09 12:46:40.978876$GNGST,174640.10,18.000,,,,0.079,0.069,0.160*59
###2023-12-09 12:46:40.980443$GNZDA,174640.10,09,12,2023,00,00*70
###2023-12-09 12:46:40.981215$GNEBP,,,,,,M*13
###2023-12-09 12:46:41.146836$GNGGA,174640.30,4138.0478805,N,07032.3927674,W,1,24,0.6,13.284,M,-29.745,M,0.0,*55
###2023-12-09 12:46:41.345118$GNGGA,174640.50,4138.0478779,N,07032.3927897,W,1,24,0.6,13.266,M,-29.745,M,0.0,*58
###2023-12-09 12:46:41.546412$GNGGA,174640.70,4138.0478785,N,07032.3928491,W,1,24,0.6,13.273,M,-29.745,M,0.0,*58
###2023-12-09 12:46:41.746875$GNGGA,174640.90,4138.0478760,N,07032.3928899,W,1,24,0.6,13.277,M,-29.745,M,0.0,*5D
###2023-12-09 12:46:41.946069$GNRMC,174641.10,A,4138.0478700,N,07032.3928823,W,0.27,272.88,091223,,,A*56
###2023-12-09 12:46:41.949612$GNGGA,174641.10,4138.0478700,N,07032.3928823,W,1,24,0.6,13.285,M,-29.745,M,0.0,*5E
###2023-12-09 12:46:41.951890$GPGSA,A,3,03,04,16,26,28,29,31,32,,,,,1.1,0.6,0.9*3B
###2023-12-09 12:46:41.953952$GLGSA,A,3,65,71,72,73,74,75,,,,,,,1.1,0.6,0.9*24
###2023-12-09 12:46:41.955881$GAGSA,A,3,04,19,21,27,,,,,,,,,1.1,0.6,0.9*26
###2023-12-09 12:46:41.957860$GBGSA,A,3,14,24,25,26,33,,,,,,,,1.1,0.6,0.9*2F
###2023-12-09 12:46:41.960687$GPGSV,2,1,08,03,37,270,44,04,26,311,43,16,42,209,43,26,72,208,47*71
###2023-12-09 12:46:41.963501$GPGSV,2,2,08,28,54,062,44,29,26,068,41,31,72,018,48,32,25,137,43*7C
###2023-12-09 12:46:41.966309$GLGSV,2,1,06,65,17,329,42,71,50,171,45,72,70,297,47,73,43,037,45*65
###2023-12-09 12:46:41.968417$GLGSV,2,2,06,74,71,310,43,75,26,245,43,,,,,,,,*61
###2023-12-09 12:46:41.971227$GAGSV,1,1,04,04,24,312,42,19,84,276,41,21,82,165,46,27,38,049,42*66
###2023-12-09 12:46:41.974026$GBGSV,2,1,05,14,50,195,45,24,78,005,49,25,36,256,46,26,31,059,42*6D
###2023-12-09 12:46:41.975795$GBGSV,2,2,05,33,61,245,48,,,,,,,,,,,,*56
###2023-12-09 12:46:41.977382$GNVTG,272.88,T,,M,0.27,N,0.50,K,A*24
###2023-12-09 12:46:41.979376$GNGST,174641.10,18.000,,,,0.079,0.069,0.160*58
###2023-12-09 12:46:41.980935$GNZDA,174641.10,09,12,2023,00,00*71
###2023-12-09 12:46:41.981736$GNEBP,,,,,,M*13
###2023-12-09 12:46:42.145412$GNGGA,174641.30,4138.0478647,N,07032.3928760,W,1,24,0.6,13.290,M,-29.745,M,0.0,*52
###2023-12-09 12:46:42.344024$GNGGA,174641.50,4138.0478622,N,07032.3929037,W,1,24,0.6,13.291,M,-29.745,M,0.0,*52
###2023-12-09 12:46:42.546211$GNGGA,174641.70,4138.0478627,N,07032.3929464,W,1,24,0.6,13.283,M,-29.745,M,0.0,*54
###2023-12-09 12:46:42.744413$GNGGA,174641.90,4138.0478592,N,07032.3929744,W,1,24,0.6,13.278,M,-29.745,M,0.0,*52
###2023-12-09 12:46:42.946324$GNRMC,174642.10,A,4138.0478523,N,07032.3929793,W,0.16,272.88,091223,,,A*51
###2023-12-09 12:46:42.949818$GNGGA,174642.10,4138.0478523,N,07032.3929793,W,1,24,0.6,13.285,M,-29.745,M,0.0,*5B
###2023-12-09 12:46:42.952087$GPGSA,A,3,03,04,16,26,28,29,31,32,,,,,1.1,0.6,0.9*3B
###2023-12-09 12:46:42.954149$GLGSA,A,3,65,71,72,73,74,75,,,,,,,1.1,0.6,0.9*24
###2023-12-09 12:46:42.956072$GAGSA,A,3,04,19,21,27,,,,,,,,,1.1,0.6,0.9*26
###2023-12-09 12:46:42.958065$GBGSA,A,3,14,24,25,26,33,,,,,,,,1.1,0.6,0.9*2F
###2023-12-09 12:46:42.960891$GPGSV,2,1,08,03,37,270,44,04,26,311,42,16,42,209,43,26,72,208,48*7F
###2023-12-09 12:46:42.963727$GPGSV,2,2,08,28,54,062,45,29,26,068,42,31,72,018,48,32,25,137,44*79
###2023-12-09 12:46:42.966540$GLGSV,2,1,06,65,17,329,40,71,50,171,46,72,70,297,47,73,43,037,46*67
###2023-12-09 12:46:42.968953$GLGSV,2,2,06,74,71,310,42,75,26,245,42,,,,,,,,*61
###2023-12-09 12:46:42.971791$GAGSV,1,1,04,04,24,312,43,19,84,276,41,21,82,165,46,27,38,049,43*66
###2023-12-09 12:46:42.974651$GBGSV,2,1,05,14,50,195,43,24,78,005,49,25,36,256,45,26,31,059,43*69
###2023-12-09 12:46:42.976408$GBGSV,2,2,05,33,61,245,47,,,,,,,,,,,,*59
###2023-12-09 12:46:42.978002$GNVTG,272.88,T,,M,0.16,N,0.29,K,A*28
###2023-12-09 12:46:42.980012$GNGST,174642.10,18.000,,,,0.079,0.069,0.160*5B
###2023-12-09 12:46:42.981571$GNZDA,174642.10,09,12,2023,00,00*72
###2023-12-09 12:46:42.982337$GNEBP,,,,,,M*13
###2023-12-09 12:46:43.145186$GNGGA,174642.30,4138.0478475,N,07032.3929837,W,1,24,0.6,13.293,M,-29.745,M,0.0,*5D
