###2023-12-09 13:35:56.014724$GBGSA,A,3,12,14,24,25,26,33,35,,,,,,1.0,0.6,0.8*2A
###2023-12-09 13:35:56.017556$GPGSV,2,1,08,03,26,246,44,04,47,307,43,16,67,223,46,26,83,040,48*71
###2023-12-09 13:35:56.020411$GPGSV,2,2,08,27,17,172,42,28,37,085,43,29,20,046,43,31,59,067,47*74
###2023-12-09 13:35:56.023262$GLGSV,2,1,06,65,39,318,39,71,22,175,44,72,62,220,46,73,22,052,43*6B
###2023-12-09 13:35:56.025370$GLGSV,2,2,06,74,59,015,41,75,44,272,47,,,,,,,,*6B
###2023-12-09 13:35:56.028201$GAGSV,1,1,04,04,40,310,42,19,71,181,41,21,77,046,47,27,22,050,41*6C
###2023-12-09 13:35:56.031033$GBGSV,2,1,07,12,15,126,42,14,29,190,40,24,62,046,49,25,51,276,47*67
###2023-12-09 13:35:56.033524$GBGSV,2,2,07,26,16,071,41,33,45,217,48,35,16,056,43,,,,*50
###2023-12-09 13:35:56.035151$GNVTG,327.03,T,,M,3.25,N,6.01,K,A*25
###2023-12-09 13:35:56.037092$GNGST,183555.10,5.800,,,,0.093,0.068,0.150*64
###2023-12-09 13:35:56.038699$GNZDA,183555.10,09,12,2023,00,00*7F
###2023-12-09 13:35:56.039474$GNEBP,,,,,,M*13
###2023-12-09 13:35:56.199419$GNGGA,183555.30,4138.0439174,N,07032.4092227,W,1,27,0.6,13.211,M,-29.745,M,0.0,*5D
###2023-12-09 13:35:56.398514$GNGGA,183555.50,4138.0440706,N,07032.4093538,W,1,27,0.6,13.212,M,-29.745,M,0.0,*5D
###2023-12-09 13:35:56.597992$GNGGA,183555.70,4138.0442216,N,07032.4094894,W,1,27,0.6,13.212,M,-29.745,M,0.0,*55
###2023-12-09 13:35:56.800288$GNGGA,183555.90,4138.0443672,N,07032.4096276,W,1,27,0.6,13.214,M,-29.745,M,0.0,*5E
###2023-12-09 13:35:57.010546$GNRMC,183556.10,A,4138.0445101,N,07032.4097685,W,3.21,321.83,091223,,,A*53
###2023-12-09 13:35:57.013425$GNGGA,183556.10,4138.0445101,N,07032.4097685,W,1,27,0.6,13.215,M,-29.745,M,0.0,*58
###2023-12-09 13:35:57.015294$GPGSA,A,3,03,04,16,26,27,28,29,31,,,,,1.0,0.6,0.8*3F
###2023-12-09 13:35:57.017066$GLGSA,A,3,65,71,72,73,74,75,83,,,,,,1.0,0.6,0.8*2F
###2023-12-09 13:35:57.018654$GAGSA,A,3,04,19,21,27,,,,,,,,,1.0,0.6,0.8*26
###2023-12-09 13:35:57.020421$GBGSA,A,3,12,14,24,25,26,33,35,,,,,,1.0,0.6,0.8*2A
###2023-12-09 13:35:57.022752$GPGSV,2,1,08,03,26,246,42,04,47,307,42,16,67,223,46,26,83,040,48*76
###2023-12-09 13:35:57.025073$GPGSV,2,2,08,27,17,172,40,28,37,085,44,29,20,046,42,31,59,067,47*70
###2023-12-09 13:35:57.027408$GLGSV,2,1,07,65,39,318,39,71,22,175,44,72,62,220,46,73,22,052,43*6A
###2023-12-09 13:35:57.029436$GLGSV,2,2,07,74,59,015,41,75,44,272,47,83,15,047,35,,,,*50
###2023-12-09 13:35:57.031764$GAGSV,1,1,04,04,40,310,40,19,71,181,41,21,77,046,46,27,22,050,41*6F
###2023-12-09 13:35:57.034079$GBGSV,2,1,07,12,15,126,43,14,29,190,41,24,62,046,48,25,51,276,47*66
###2023-12-09 13:35:57.036115$GBGSV,2,2,07,26,16,071,42,33,45,217,47,35,16,056,41,,,,*5E
###2023-12-09 13:35:57.037436$GNVTG,321.83,T,,M,3.21,N,5.94,K,A*20
###2023-12-09 13:35:57.039059$GNGST,183556.10,6.100,,,,0.092,0.068,0.150*6C
###2023-12-09 13:35:57.040348$GNZDA,183556.10,09,12,2023,00,00*7C
###2023-12-09 13:35:57.040984$GNEBP,,,,,,M*13
###2023-12-09 13:35:57.209081$GNGGA,183556.30,4138.0446456,N,07032.4099142,W,1,26,0.6,13.224,M,-29.745,M,0.0,*5F
###2023-12-09 13:35:57.398211$GNGGA,183556.50,4138.0447804,N,07032.4100616,W,1,26,0.6,13.220,M,-29.745,M,0.0,*50
###2023-12-09 13:35:57.597397$GNGGA,183556.70,4138.0449128,N,07032.4102129,W,1,26,0.6,13.214,M,-29.745,M,0.0,*55
###2023-12-09 13:35:57.798254$GNGGA,183556.90,4138.0450387,N,07032.4103701,W,1,26,0.6,13.218,M,-29.745,M,0.0,*55
###2023-12-09 13:35:57.999835$GNRMC,183557.10,A,4138.0451667,N,07032.4105293,W,3.21,315.98,091223,,,A*54
###2023-12-09 13:35:58.002688$GNGGA,183557.10,4138.0451667,N,07032.4105293,W,1,26,0.6,13.223,M,-29.745,M,0.0,*56
###2023-12-09 13:35:58.004531$GPGSA,A,3,03,04,16,26,27,28,29,31,,,,,1.0,0.6,0.9*3E
###2023-12-09 13:35:58.006237$GLGSA,A,3,65,71,72,73,74,75,,,,,,,1.0,0.6,0.9*25
###2023-12-09 13:35:58.007812$GAGSA,A,3,04,19,21,27,,,,,,,,,1.0,0.6,0.9*27
###2023-12-09 13:35:58.009576$GBGSA,A,3,12,14,24,25,26,33,35,,,,,,1.0,0.6,0.9*2B
###2023-12-09 13:35:58.011900$GPGSV,2,1,08,03,26,246,42,04,47,307,42,16,67,223,47,26,83,040,49*76
###2023-12-09 13:35:58.014221$GPGSV,2,2,08,27,17,172,39,28,37,085,43,29,20,046,41,31,59,067,48*75
###2023-12-09 13:35:58.016553$GLGSV,2,1,06,65,39,318,39,71,22,175,43,72,62,220,46,73,22,052,43*6C
###2023-12-09 13:35:58.018332$GLGSV,2,2,06,74,59,015,41,75,44,272,46,,,,,,,,*6A
###2023-12-09 13:35:58.020664$GAGSV,1,1,04,04,40,310,42,19,71,181,41,21,77,046,46,27,22,050,40*6C
###2023-12-09 13:35:58.022992$GBGSV,2,1,07,12,15,126,43,14,29,190,43,24,62,046,49,25,51,276,46*64
###2023-12-09 13:35:58.025021$GBGSV,2,2,07,26,16,071,42,33,45,217,49,35,16,056,42,,,,*53
###2023-12-09 13:35:58.026338$GNVTG,315.98,T,,M,3.21,N,5.94,K,A*2D
###2023-12-09 13:35:58.027956$GNGST,183557.10,5.400,,,,0.092,0.068,0.150*6B
###2023-12-09 13:35:58.029241$GNZDA,183557.10,09,12,2023,00,00*7D
###2023-12-09 13:35:58.029877$GNEBP,,,,,,M*13
###2023-12-09 13:35:58.198167$GNGGA,183557.30,4138.0452927,N,07032.4106895,W,1,26,0.6,13.226,M,-29.745,M,0.0,*56
###2023-12-09 13:35:58.397422$GNGGA,183557.50,4138.0454125,N,07032.4108572,W,1,26,0.6,13.223,M,-29.745,M,0.0,*53
###2023-12-09 13:35:58.597295$GNGGA,183557.70,4138.0455279,N,07032.4110280,W,1,26,0.6,13.228,M,-29.745,M,0.0,*52
###2023-12-09 13:35:58.798056$GNGGA,183557.90,4138.0456435,N,07032.4112034,W,1,26,0.6,13.230,M,-29.745,M,0.0,*57
###2023-12-09 13:35:59.002248$GNRMC,183558.10,A,4138.0457551,N,07032.4113789,W,3.19,309.62,091223,,,A*51
###2023-12-09 13:35:59.005128$GNGGA,183558.10,4138.0457551,N,07032.4113789,W,1,26,0.6,13.233,M,-29.745,M,0.0,*51
###2023-12-09 13:35:59.006988$GPGSA,A,3,03,04,16,26,27,28,29,31,,,,,1.0,0.6,0.9*3E
###2023-12-09 13:35:59.008698$GLGSA,A,3,65,71,72,73,74,75,,,,,,,1.0,0.6,0.9*25
###2023-12-09 13:35:59.010304$GAGSA,A,3,04,19,21,27,,,,,,,,,1.0,0.6,0.9*27
###2023-12-09 13:35:59.012097$GBGSA,A,3,12,14,24,25,26,33,35,,,,,,1.0,0.6,0.9*2B
###2023-12-09 13:35:59.014405$GPGSV,2,1,08,03,26,246,41,04,47,307,42,16,67,223,47,26,83,040,48*74
###2023-12-09 13:35:59.016746$GPGSV,2,2,08,27,17,172,41,28,37,085,42,29,20,046,41,31,59,067,47*74
###2023-12-09 13:35:59.019088$GLGSV,2,1,06,65,39,318,40,71,22,175,42,72,62,220,45,73,22,052,43*60
###2023-12-09 13:35:59.020829$GLGSV,2,2,06,74,59,015,41,75,44,272,46,,,,,,,,*6A
###2023-12-09 13:35:59.023160$GAGSV,1,1,04,04,40,310,40,19,71,181,41,21,77,046,46,27,22,050,41*6F
###2023-12-09 13:35:59.025490$GBGSV,2,1,07,12,15,126,43,14,29,190,42,24,62,046,48,25,51,276,47*65
###2023-12-09 13:35:59.027535$GBGSV,2,2,07,26,16,071,42,33,45,217,48,35,16,056,42,,,,*52
###2023-12-09 13:35:59.028854$GNVTG,309.62,T,,M,3.19,N,5.90,K,A*2A
###2023-12-09 13:35:59.030460$GNGST,183558.10,5.300,,,,0.091,0.068,0.150*60
###2023-12-09 13:35:59.031756$GNZDA,183558.10,09,12,2023,00,00*72
###2023-12-09 13:35:59.032391$GNEBP,,,,,,M*13
###2023-12-09 13:35:59.199207$GNGGA,183558.30,4138.0458655,N,07032.4115588,W,1,26,0.6,13.232,M,-29.745,M,0.0,*5F
###2023-12-09 13:35:59.397869$GNGGA,183558.50,4138.0459687,N,07032.4117422,W,1,26,0.6,13.230,M,-29.745,M,0.0,*56
###2023-12-09 13:35:59.598223$GNGGA,183558.70,4138.0460701,N,07032.4119244,W,1,26,0.6,13.225,M,-29.745,M,0.0,*5D
###2023-12-09 13:35:59.797496$GNGGA,183558.90,4138.0461684,N,07032.4121052,W,1,26,0.6,13.226,M,-29.745,M,0.0,*53
###2023-12-09 13:35:59.999932$GNRMC,183559.10,A,4138.0462625,N,07032.4122845,W,2.88,303.98,091223,,,A*5D
###2023-12-09 13:36:00.002810$GNGGA,183559.10,4138.0462625,N,07032.4122845,W,1,26,0.6,13.227,M,-29.745,M,0.0,*5E
###2023-12-09 13:36:00.004666$GPGSA,A,3,03,04,16,26,27,28,29,31,,,,,1.0,0.6,0.9*3E
###2023-12-09 13:36:00.006385$GLGSA,A,3,65,71,72,73,74,75,,,,,,,1.0,0.6,0.9*25
###2023-12-09 13:36:00.007981$GAGSA,A,3,04,19,21,27,,,,,,,,,1.0,0.6,0.9*27
###2023-12-09 13:36:00.009755$GBGSA,A,3,12,14,24,25,26,33,35,,,,,,1.0,0.6,0.9*2B
###2023-12-09 13:36:00.012089$GPGSV,2,1,08,03,26,246,43,04,47,307,42,16,67,223,46,26,83,040,48*77
###2023-12-09 13:36:00.014424$GPGSV,2,2,08,27,17,172,41,28,37,085,43,29,20,046,42,31,59,067,48*79
###2023-12-09 13:36:00.016756$GLGSV,2,1,06,65,39,318,41,71,22,175,41,72,62,220,45,73,22,052,42*63
###2023-12-09 13:36:00.018497$GLGSV,2,2,06,74,59,015,41,75,44,272,45,,,,,,,,*69
###2023-12-09 13:36:00.020832$GAGSV,1,1,04,04,40,310,41,19,71,181,41,21,76,045,46,27,22,050,41*6C
###2023-12-09 13:36:00.023436$GBGSV,2,1,07,12,15,126,43,14,29,190,41,24,62,046,49,25,51,276,46*66
###2023-12-09 13:36:00.025488$GBGSV,2,2,07,26,16,071,44,33,45,217,48,35,16,056,43,,,,*55
###2023-12-09 13:36:00.026827$GNVTG,303.98,T,,M,2.88,N,5.33,K,A*25
###2023-12-09 13:36:00.028439$GNGST,183559.10,5.000,,,,0.090,0.068,0.150*63
###2023-12-09 13:36:00.029726$GNZDA,183559.10,09,12,2023,00,00*73
###2023-12-09 13:36:00.030366$GNEBP,,,,,,M*13
###2023-12-09 13:36:00.198257$GNGGA,183559.30,4138.0463514,N,07032.4124639,W,1,26,0.6,13.223,M,-29.745,M,0.0,*5B
###2023-12-09 13:36:00.398277$GNGGA,183559.50,4138.0464357,N,07032.4126401,W,1,26,0.6,13.218,M,-29.745,M,0.0,*58
###2023-12-09 13:36:00.598364$GNGGA,183559.70,4138.0465185,N,07032.4128173,W,1,26,0.6,13.220,M,-29.745,M,0.0,*53
###2023-12-09 13:36:00.798175$GNGGA,183559.90,4138.0465993,N,07032.4129922,W,1,26,0.6,13.215,M,-29.745,M,0.0,*59
