###2023-12-09 13:47:31.032465$GNEBP,,,,,,M*13
###2023-12-09 13:47:31.204934$GNGGA,184730.30,4138.0394559,N,07032.4384856,W,1,17,0.8,15.575,M,-29.746,M,0.0,*55
###2023-12-09 13:47:31.404697$GNGGA,184730.50,4138.0394527,N,07032.4384855,W,1,17,0.8,15.569,M,-29.746,M,0.0,*54
###2023-12-09 13:47:31.603463$GNGGA,184730.70,4138.0394515,N,07032.4384855,W,1,17,0.8,15.571,M,-29.746,M,0.0,*5E
###2023-12-09 13:47:31.802547$GNGGA,184730.90,4138.0394492,N,07032.4384842,W,1,18,0.8,15.570,M,-29.746,M,0.0,*56
###2023-12-09 13:47:32.008704$GNRMC,184731.10,A,4138.0394459,N,07032.4384845,W,0.06,243.17,091223,,,A*59
###2023-12-09 13:47:32.011669$GNGGA,184731.10,4138.0394459,N,07032.4384845,W,1,18,0.8,15.565,M,-29.746,M,0.0,*5B
###2023-12-09 13:47:32.013398$GPGSA,A,3,04,16,26,28,29,31,,,,,,,1.3,0.8,1.1*3C
###2023-12-09 13:47:32.015059$GLGSA,A,3,65,72,73,74,75,,,,,,,,1.3,0.8,1.1*27
###2023-12-09 13:47:32.016576$GAGSA,A,3,04,21,27,,,,,,,,,,1.3,0.8,1.1*2B
###2023-12-09 13:47:32.018158$GBGSA,A,3,12,24,25,35,,,,,,,,,1.3,0.8,1.1*2E
###2023-12-09 13:47:32.020496$GPGSV,2,1,06,04,51,304,49,16,73,229,40,26,77,041,41,28,33,090,44*7F
###2023-12-09 13:47:32.022242$GPGSV,2,2,06,29,17,042,41,31,55,075,50,,,,,,,,*74
###2023-12-09 13:47:32.024582$GLGSV,2,1,05,65,43,312,44,72,56,213,37,73,17,056,40,74,55,024,37*61
###2023-12-09 13:47:32.026034$GLGSV,2,2,05,75,47,280,46,,,,,,,,,,,,*59
###2023-12-09 13:47:32.028080$GAGSV,1,1,03,04,43,308,45,21,72,043,40,27,19,051,42,,,,*58
###2023-12-09 13:47:32.030411$GBGSV,1,1,04,12,19,122,42,24,58,052,46,25,54,282,44,35,16,051,35*60
###2023-12-09 13:47:32.031748$GNVTG,243.17,T,,M,0.06,N,0.11,K,A*26
###2023-12-09 13:47:32.033371$GNGST,184731.10,7.800,,,,0.200,0.120,0.320*61
###2023-12-09 13:47:32.034678$GNZDA,184731.10,09,12,2023,00,00*78
###2023-12-09 13:47:32.035322$GNEBP,,,,,,M*13
###2023-12-09 13:47:32.202393$GNGGA,184731.30,4138.0394429,N,07032.4384847,W,1,18,0.8,15.565,M,-29.746,M,0.0,*5C
###2023-12-09 13:47:32.402276$GNGGA,184731.50,4138.0394395,N,07032.4384847,W,1,18,0.8,15.563,M,-29.746,M,0.0,*5C
###2023-12-09 13:47:32.602079$GNGGA,184731.70,4138.0394364,N,07032.4384854,W,1,18,0.8,15.557,M,-29.746,M,0.0,*55
###2023-12-09 13:47:32.801558$GNGGA,184731.90,4138.0394351,N,07032.4384848,W,1,18,0.8,15.559,M,-29.746,M,0.0,*5E
###2023-12-09 13:47:33.008829$GNRMC,184732.10,A,4138.0394328,N,07032.4384851,W,0.02,243.17,091223,,,A*5A
###2023-12-09 13:47:33.011688$GNGGA,184732.10,4138.0394328,N,07032.4384851,W,1,17,0.8,15.560,M,-29.746,M,0.0,*56
###2023-12-09 13:47:33.013401$GPGSA,A,3,04,16,26,28,29,31,,,,,,,1.3,0.8,1.1*3C
###2023-12-09 13:47:33.015061$GLGSA,A,3,65,72,73,74,75,,,,,,,,1.3,0.8,1.1*27
###2023-12-09 13:47:33.016576$GAGSA,A,3,04,21,27,,,,,,,,,,1.3,0.8,1.1*2B
###2023-12-09 13:47:33.018084$GBGSA,A,3,12,24,25,,,,,,,,,,1.3,0.8,1.1*28
###2023-12-09 13:47:33.020404$GPGSV,2,1,06,04,51,304,49,16,73,229,40,26,77,041,41,28,33,090,44*7F
###2023-12-09 13:47:33.022144$GPGSV,2,2,06,29,17,042,41,31,55,075,50,,,,,,,,*74
###2023-12-09 13:47:33.024483$GLGSV,2,1,05,65,43,312,44,72,56,213,37,73,17,056,40,74,55,024,36*60
###2023-12-09 13:47:33.025947$GLGSV,2,2,05,75,47,280,46,,,,,,,,,,,,*59
###2023-12-09 13:47:33.027988$GAGSV,1,1,03,04,43,308,45,21,72,043,40,27,19,051,42,,,,*58
###2023-12-09 13:47:33.030019$GBGSV,1,1,03,12,19,122,42,24,58,052,46,25,54,282,44,,,,*54
###2023-12-09 13:47:33.031352$GNVTG,243.17,T,,M,0.02,N,0.04,K,A*26
###2023-12-09 13:47:33.032961$GNGST,184732.10,7.900,,,,0.200,0.120,0.320*63
###2023-12-09 13:47:33.034244$GNZDA,184732.10,09,12,2023,00,00*7B
###2023-12-09 13:47:33.034888$GNEBP,,,,,,M*13
###2023-12-09 13:47:33.210314$GNGGA,184732.30,4138.0394284,N,07032.4384856,W,1,17,0.8,15.560,M,-29.746,M,0.0,*54
###2023-12-09 13:47:33.402744$GNGGA,184732.50,4138.0394245,N,07032.4384857,W,1,17,0.8,15.564,M,-29.746,M,0.0,*5A
###2023-12-09 13:47:33.601605$GNGGA,184732.70,4138.0394200,N,07032.4384852,W,1,17,0.8,15.564,M,-29.746,M,0.0,*5C
###2023-12-09 13:47:33.802113$GNGGA,184732.90,4138.0394147,N,07032.4384845,W,1,17,0.8,15.565,M,-29.746,M,0.0,*55
###2023-12-09 13:47:34.004862$GNRMC,184733.10,A,4138.0394109,N,07032.4384842,W,0.02,243.17,091223,,,A*58
###2023-12-09 13:47:34.007742$GNGGA,184733.10,4138.0394109,N,07032.4384842,W,1,17,0.8,15.566,M,-29.746,M,0.0,*52
###2023-12-09 13:47:34.009478$GPGSA,A,3,04,16,26,28,29,31,,,,,,,1.3,0.8,1.1*3C
###2023-12-09 13:47:34.011143$GLGSA,A,3,65,72,73,74,75,,,,,,,,1.3,0.8,1.1*27
###2023-12-09 13:47:34.012655$GAGSA,A,3,04,21,27,,,,,,,,,,1.3,0.8,1.1*2B
###2023-12-09 13:47:34.014166$GBGSA,A,3,12,24,25,,,,,,,,,,1.3,0.8,1.1*28
###2023-12-09 13:47:34.016498$GPGSV,2,1,06,04,51,304,49,16,73,229,41,26,77,041,41,28,33,090,44*7E
###2023-12-09 13:47:34.018245$GPGSV,2,2,06,29,17,042,41,31,55,075,50,,,,,,,,*74
###2023-12-09 13:47:34.020581$GLGSV,2,1,05,65,43,312,44,72,56,213,37,73,17,056,40,74,55,024,36*60
###2023-12-09 13:47:34.022044$GLGSV,2,2,05,75,47,280,46,,,,,,,,,,,,*59
###2023-12-09 13:47:34.024090$GAGSV,1,1,03,04,43,308,45,21,72,043,41,27,19,051,42,,,,*59
###2023-12-09 13:47:34.026119$GBGSV,1,1,03,12,19,122,42,24,58,052,46,25,54,282,44,,,,*54
###2023-12-09 13:47:34.027456$GNVTG,243.17,T,,M,0.02,N,0.04,K,A*26
###2023-12-09 13:47:34.029068$GNGST,184733.10,7.700,,,,0.200,0.120,0.320*6C
###2023-12-09 13:47:34.030360$GNZDA,184733.10,09,12,2023,00,00*7A
###2023-12-09 13:47:34.031006$GNEBP,,,,,,M*13
###2023-12-09 13:47:34.202814$GNGGA,184733.30,4138.0394083,N,07032.4384842,W,1,17,0.8,15.572,M,-29.746,M,0.0,*56
###2023-12-09 13:47:34.402870$GNGGA,184733.50,4138.0394043,N,07032.4384826,W,1,17,0.8,15.575,M,-29.746,M,0.0,*59
###2023-12-09 13:47:34.600748$GNGGA,184733.70,4138.0394008,N,07032.4384821,W,1,17,0.8,15.576,M,-29.746,M,0.0,*50
###2023-12-09 13:47:34.802378$GNGGA,184733.90,4138.0393974,N,07032.4384819,W,1,17,0.8,15.581,M,-29.746,M,0.0,*58
###2023-12-09 13:47:35.004466$GNRMC,184734.10,A,4138.0393967,N,07032.4384811,W,0.06,243.17,091223,,,A*5A
###2023-12-09 13:47:35.007594$GNGGA,184734.10,4138.0393967,N,07032.4384811,W,1,17,0.8,15.586,M,-29.746,M,0.0,*5A
###2023-12-09 13:47:35.009425$GPGSA,A,3,04,16,26,28,29,31,,,,,,,1.3,0.8,1.1*3C
###2023-12-09 13:47:35.011095$GLGSA,A,3,65,72,73,74,75,,,,,,,,1.3,0.8,1.1*27
###2023-12-09 13:47:35.012623$GAGSA,A,3,04,21,27,,,,,,,,,,1.3,0.8,1.1*2B
###2023-12-09 13:47:35.014143$GBGSA,A,3,12,24,25,,,,,,,,,,1.3,0.8,1.1*28
###2023-12-09 13:47:35.016482$GPGSV,2,1,06,04,51,304,49,16,73,229,41,26,77,041,41,28,33,090,43*79
###2023-12-09 13:47:35.018229$GPGSV,2,2,06,29,17,042,41,31,55,075,50,,,,,,,,*74
###2023-12-09 13:47:35.020572$GLGSV,2,1,05,65,43,312,44,72,56,213,37,73,17,056,40,74,55,024,36*60
###2023-12-09 13:47:35.022038$GLGSV,2,2,05,75,47,280,46,,,,,,,,,,,,*59
###2023-12-09 13:47:35.024090$GAGSV,1,1,03,04,43,308,45,21,72,043,41,27,19,051,42,,,,*59
###2023-12-09 13:47:35.026131$GBGSV,1,1,03,12,19,122,42,24,58,052,46,25,54,282,44,,,,*54
###2023-12-09 13:47:35.027469$GNVTG,243.17,T,,M,0.06,N,0.11,K,A*26
###2023-12-09 13:47:35.029086$GNGST,184734.10,7.700,,,,0.200,0.120,0.320*6B
###2023-12-09 13:47:35.030383$GNZDA,184734.10,09,12,2023,00,00*7D
###2023-12-09 13:47:35.031036$GNEBP,,,,,,M*13
###2023-12-09 13:47:35.202829$GNGGA,184734.30,4138.0393912,N,07032.4384812,W,1,17,0.8,15.586,M,-29.746,M,0.0,*59
###2023-12-09 13:47:35.402739$GNGGA,184734.50,4138.0393877,N,07032.4384803,W,1,17,0.8,15.587,M,-29.746,M,0.0,*5C
###2023-12-09 13:47:35.601703$GNGGA,184734.70,4138.0393818,N,07032.4384804,W,1,17,0.8,15.585,M,-29.746,M,0.0,*52
###2023-12-09 13:47:35.801989$GNGGA,184734.90,4138.0393783,N,07032.4384801,W,1,17,0.8,15.591,M,-29.746,M,0.0,*51
###2023-12-09 13:47:36.004682$GNRMC,184735.10,A,4138.0393750,N,07032.4384790,W,0.00,243.17,091223,,,A*51
###2023-12-09 13:47:36.007564$GNGGA,184735.10,4138.0393750,N,07032.4384790,W,1,17,0.8,15.596,M,-29.746,M,0.0,*56
###2023-12-09 13:47:36.009293$GPGSA,A,3,04,16,26,28,29,31,,,,,,,1.3,0.8,1.1*3C
###2023-12-09 13:47:36.010944$GLGSA,A,3,65,72,73,74,75,,,,,,,,1.3,0.8,1.1*27
###2023-12-09 13:47:36.012466$GAGSA,A,3,04,21,27,,,,,,,,,,1.3,0.8,1.1*2B
###2023-12-09 13:47:36.013972$GBGSA,A,3,12,24,25,,,,,,,,,,1.3,0.8,1.1*28
###2023-12-09 13:47:36.016304$GPGSV,2,1,06,04,51,304,49,16,73,229,40,26,77,041,41,28,33,090,43*78
###2023-12-09 13:47:36.018289$GPGSV,2,2,06,29,17,042,42,31,55,075,50,,,,,,,,*77
###2023-12-09 13:47:36.020644$GLGSV,2,1,05,65,43,312,43,72,56,213,37,73,17,056,40,74,55,024,37*66
###2023-12-09 13:47:36.022107$GLGSV,2,2,05,75,47,280,46,,,,,,,,,,,,*59
###2023-12-09 13:47:36.024155$GAGSV,1,1,03,04,43,308,46,21,72,043,41,27,19,051,42,,,,*5A
###2023-12-09 13:47:36.026181$GBGSV,1,1,03,12,19,122,41,24,58,052,46,25,54,282,44,,,,*57
###2023-12-09 13:47:36.027526$GNVTG,243.17,T,,M,0.00,N,0.00,K,A*20
###2023-12-09 13:47:36.029147$GNGST,184735.10,7.600,,,,0.200,0.120,0.320*6B
###2023-12-09 13:47:36.030434$GNZDA,184735.10,09,12,2023,00,00*7C
