###2023-12-09 13:13:09.010946$GBGSV,2,2,06,33,53,226,47,35,15,065,43,,,,,,,,*68
###2023-12-09 13:13:09.012261$GNVTG,91.87,T,,M,3.79,N,7.02,K,A*1C
###2023-12-09 13:13:09.013900$GNGST,181308.10,18.000,,,,0.097,0.071,0.170*52
###2023-12-09 13:13:09.015208$GNZDA,181308.10,09,12,2023,00,00*73
###2023-12-09 13:13:09.015848$GNEBP,,,,,,M*13
###2023-12-09 13:13:09.177812$GNGGA,181308.30,4138.0447412,N,07032.2578301,W,1,24,0.7,12.780,M,-29.743,M,0.0,*57
###2023-12-09 13:13:09.374370$GNGGA,181308.50,4138.0447560,N,07032.2575572,W,1,24,0.7,12.781,M,-29.743,M,0.0,*5B
###2023-12-09 13:13:09.576449$GNGGA,181308.70,4138.0448054,N,07032.2572865,W,1,24,0.7,12.806,M,-29.743,M,0.0,*58
###2023-12-09 13:13:09.780914$GNGGA,181308.90,4138.0448252,N,07032.2569995,W,1,24,0.7,12.791,M,-29.743,M,0.0,*57
###2023-12-09 13:13:09.975284$GNRMC,181309.10,A,4138.0448533,N,07032.2567179,W,3.79,78.34,091223,,,A*63
###2023-12-09 13:13:09.978151$GNGGA,181309.10,4138.0448533,N,07032.2567179,W,1,24,0.7,12.779,M,-29.743,M,0.0,*5C
###2023-12-09 13:13:09.979959$GPGSA,A,3,03,04,16,26,28,29,31,,,,,,1.2,0.7,1.0*30
###2023-12-09 13:13:09.981678$GLGSA,A,3,65,71,72,73,74,75,,,,,,,1.2,0.7,1.0*2E
###2023-12-09 13:13:09.983268$GAGSA,A,3,04,19,21,27,,,,,,,,,1.2,0.7,1.0*2C
###2023-12-09 13:13:09.984980$GBGSA,A,3,14,24,25,26,33,35,,,,,,,1.2,0.7,1.0*23
###2023-12-09 13:13:09.987322$GPGSV,2,1,07,03,32,255,44,04,38,311,43,16,55,215,47,26,85,210,48*72
###2023-12-09 13:13:09.989360$GPGSV,2,2,07,28,46,075,41,29,24,056,41,31,66,048,46,,,,*46
###2023-12-09 13:13:09.991697$GLGSV,2,1,06,65,29,325,42,71,34,174,46,72,71,246,46,73,31,045,42*6B
###2023-12-09 13:13:09.993445$GLGSV,2,2,06,74,66,353,42,75,36,259,48,,,,,,,,*66
###2023-12-09 13:13:09.995770$GAGSV,1,1,04,04,33,312,42,19,81,194,41,21,84,070,46,27,29,048,39*64
###2023-12-09 13:13:09.998095$GBGSV,2,1,06,14,38,192,44,24,70,034,47,25,44,267,46,26,22,065,42*68
###2023-12-09 13:13:09.999884$GBGSV,2,2,06,33,53,226,47,35,15,065,40,,,,,,,,*6B
###2023-12-09 13:13:10.001175$GNVTG,78.34,T,,M,3.79,N,7.02,K,A*13
###2023-12-09 13:13:10.002824$GNGST,181309.10,18.000,,,,0.097,0.071,0.170*53
###2023-12-09 13:13:10.004115$GNZDA,181309.10,09,12,2023,00,00*72
###2023-12-09 13:13:10.004751$GNEBP,,,,,,M*13
###2023-12-09 13:13:10.171186$GNGGA,181309.30,4138.0449040,N,07032.2564527,W,1,24,0.7,12.803,M,-29.743,M,0.0,*50
###2023-12-09 13:13:10.373108$GNGGA,181309.50,4138.0449730,N,07032.2561932,W,1,24,0.7,12.836,M,-29.743,M,0.0,*5D
###2023-12-09 13:13:10.573139$GNGGA,181309.70,4138.0450206,N,07032.2559081,W,1,24,0.7,12.802,M,-29.743,M,0.0,*5A
###2023-12-09 13:13:10.772662$GNGGA,181309.90,4138.0450875,N,07032.2556575,W,1,24,0.7,12.791,M,-29.743,M,0.0,*5E
###2023-12-09 13:13:10.975756$GNRMC,181310.10,A,4138.0451915,N,07032.2554203,W,3.83,61.07,091223,,,A*68
###2023-12-09 13:13:10.978627$GNGGA,181310.10,4138.0451915,N,07032.2554203,W,1,24,0.7,12.843,M,-29.743,M,0.0,*5C
###2023-12-09 13:13:10.980422$GPGSA,A,3,03,04,16,26,28,29,31,,,,,,1.2,0.7,1.0*30
###2023-12-09 13:13:10.982134$GLGSA,A,3,65,71,72,73,74,75,,,,,,,1.2,0.7,1.0*2E
###2023-12-09 13:13:10.983724$GAGSA,A,3,04,19,21,27,,,,,,,,,1.2,0.7,1.0*2C
###2023-12-09 13:13:10.985436$GBGSA,A,3,14,24,25,26,33,35,,,,,,,1.2,0.7,1.0*23
###2023-12-09 13:13:10.987769$GPGSV,2,1,07,03,32,255,44,04,38,311,46,16,55,215,47,26,85,210,48*77
###2023-12-09 13:13:10.989812$GPGSV,2,2,07,28,46,075,41,29,24,056,41,31,66,048,46,,,,*46
###2023-12-09 13:13:10.992150$GLGSV,2,1,06,65,29,325,42,71,34,174,46,72,71,246,46,73,31,045,40*69
###2023-12-09 13:13:10.993895$GLGSV,2,2,06,74,66,353,42,75,36,259,46,,,,,,,,*68
###2023-12-09 13:13:10.996226$GAGSV,1,1,04,04,33,312,45,19,81,194,41,21,84,070,45,27,29,048,41*6F
###2023-12-09 13:13:10.998550$GBGSV,2,1,06,14,38,192,45,24,70,034,49,25,44,267,47,26,22,065,42*66
###2023-12-09 13:13:11.000305$GBGSV,2,2,06,33,53,226,48,35,15,065,41,,,,,,,,*65
###2023-12-09 13:13:11.001592$GNVTG,61.07,T,,M,3.83,N,7.09,K,A*15
###2023-12-09 13:13:11.003249$GNGST,181310.10,18.000,,,,0.097,0.071,0.170*5B
###2023-12-09 13:13:11.004538$GNZDA,181310.10,09,12,2023,00,00*7A
###2023-12-09 13:13:11.005173$GNEBP,,,,,,M*13
###2023-12-09 13:13:11.172292$GNGGA,181310.30,4138.0452765,N,07032.2551667,W,1,24,0.7,12.840,M,-29.743,M,0.0,*54
###2023-12-09 13:13:11.372447$GNGGA,181310.50,4138.0453634,N,07032.2549276,W,1,24,0.7,12.821,M,-29.743,M,0.0,*5C
###2023-12-09 13:13:11.573073$GNGGA,181310.70,4138.0454568,N,07032.2546867,W,1,24,0.7,12.805,M,-29.743,M,0.0,*50
###2023-12-09 13:13:11.772220$GNGGA,181310.90,4138.0455611,N,07032.2544648,W,1,24,0.7,12.799,M,-29.743,M,0.0,*59
###2023-12-09 13:13:11.975927$GNRMC,181311.10,A,4138.0456938,N,07032.2542764,W,3.54,47.96,091223,,,A*64
###2023-12-09 13:13:11.979402$GNGGA,181311.10,4138.0456938,N,07032.2542764,W,1,24,0.7,12.834,M,-29.743,M,0.0,*56
###2023-12-09 13:13:11.981563$GPGSA,A,3,03,04,16,26,28,29,31,,,,,,1.2,0.7,1.0*30
###2023-12-09 13:13:11.983678$GLGSA,A,3,65,71,72,73,74,75,,,,,,,1.2,0.7,1.0*2E
###2023-12-09 13:13:11.985598$GAGSA,A,3,04,19,21,27,,,,,,,,,1.2,0.7,1.0*2C
###2023-12-09 13:13:11.987693$GBGSA,A,3,14,24,25,26,33,35,,,,,,,1.2,0.7,1.0*23
###2023-12-09 13:13:11.990502$GPGSV,2,1,07,03,32,255,43,04,38,311,44,16,55,215,45,26,85,210,48*70
###2023-12-09 13:13:11.992968$GPGSV,2,2,07,28,46,075,43,29,24,056,41,31,66,048,46,,,,*44
###2023-12-09 13:13:11.995782$GLGSV,2,1,06,65,29,325,44,71,34,174,44,72,71,246,46,73,31,045,43*6E
###2023-12-09 13:13:11.997880$GLGSV,2,2,06,74,66,353,42,75,36,259,46,,,,,,,,*68
###2023-12-09 13:13:12.000693$GAGSV,1,1,04,04,33,312,43,19,81,194,41,21,84,070,46,27,29,048,42*69
###2023-12-09 13:13:12.003512$GBGSV,2,1,06,14,38,192,42,24,70,034,47,25,44,267,46,26,22,065,42*6E
###2023-12-09 13:13:12.005620$GBGSV,2,2,06,33,53,226,46,35,15,065,40,,,,,,,,*6A
###2023-12-09 13:13:12.007190$GNVTG,47.96,T,,M,3.54,N,6.55,K,A*1B
###2023-12-09 13:13:12.009166$GNGST,181311.10,18.000,,,,0.097,0.071,0.170*5A
###2023-12-09 13:13:12.010731$GNZDA,181311.10,09,12,2023,00,00*7B
###2023-12-09 13:13:12.011499$GNEBP,,,,,,M*13
###2023-12-09 13:13:12.172753$GNGGA,181311.30,4138.0458174,N,07032.2540661,W,1,24,0.7,12.869,M,-29.743,M,0.0,*54
###2023-12-09 13:13:12.373035$GNGGA,181311.50,4138.0459396,N,07032.2538535,W,1,24,0.7,12.862,M,-29.743,M,0.0,*5B
###2023-12-09 13:13:12.574208$GNGGA,181311.70,4138.0460748,N,07032.2536449,W,1,24,0.7,12.834,M,-29.743,M,0.0,*53
###2023-12-09 13:13:12.773101$GNGGA,181311.90,4138.0462119,N,07032.2534407,W,1,24,0.7,12.798,M,-29.743,M,0.0,*5C
###2023-12-09 13:13:12.976920$GNRMC,181312.10,A,4138.0463604,N,07032.2532660,W,3.63,39.79,091223,,,A*6F
###2023-12-09 13:13:12.979803$GNGGA,181312.10,4138.0463604,N,07032.2532660,W,1,24,0.7,12.816,M,-29.743,M,0.0,*51
###2023-12-09 13:13:12.981594$GPGSA,A,3,03,04,16,26,28,29,31,,,,,,1.2,0.7,1.0*30
###2023-12-09 13:13:12.983320$GLGSA,A,3,65,71,72,73,74,75,,,,,,,1.2,0.7,1.0*2E
###2023-12-09 13:13:12.984901$GAGSA,A,3,04,19,21,27,,,,,,,,,1.2,0.7,1.0*2C
###2023-12-09 13:13:12.986622$GBGSA,A,3,14,24,25,26,33,35,,,,,,,1.2,0.7,1.0*23
###2023-12-09 13:13:12.988950$GPGSV,2,1,07,03,32,255,42,04,38,311,45,16,55,215,45,26,85,210,48*70
###2023-12-09 13:13:12.990999$GPGSV,2,2,07,28,46,075,43,29,24,056,41,31,66,048,46,,,,*44
###2023-12-09 13:13:12.993329$GLGSV,2,1,06,65,29,325,44,71,34,174,44,72,71,246,46,73,31,045,43*6E
###2023-12-09 13:13:12.995082$GLGSV,2,2,06,74,66,353,42,75,36,259,45,,,,,,,,*6B
###2023-12-09 13:13:12.997404$GAGSV,1,1,04,04,33,312,43,19,81,194,41,21,84,070,45,27,29,048,42*6A
###2023-12-09 13:13:12.999738$GBGSV,2,1,06,14,38,192,42,24,70,034,47,25,44,267,47,26,22,065,41*6C
###2023-12-09 13:13:13.001485$GBGSV,2,2,06,33,53,226,47,35,15,065,40,,,,,,,,*6B
###2023-12-09 13:13:13.002794$GNVTG,39.79,T,,M,3.63,N,6.73,K,A*13
###2023-12-09 13:13:13.004452$GNGST,181312.10,18.000,,,,0.097,0.071,0.170*59
###2023-12-09 13:13:13.005737$GNZDA,181312.10,09,12,2023,00,00*78
###2023-12-09 13:13:13.006374$GNEBP,,,,,,M*13
###2023-12-09 13:13:13.172265$GNGGA,181312.30,4138.0465061,N,07032.2530735,W,1,24,0.7,12.855,M,-29.743,M,0.0,*54
###2023-12-09 13:13:13.372544$GNGGA,181312.50,4138.0466495,N,07032.2528694,W,1,24,0.7,12.853,M,-29.743,M,0.0,*5B
###2023-12-09 13:13:13.571946$GNGGA,181312.70,4138.0468131,N,07032.2526992,W,1,24,0.7,12.840,M,-29.743,M,0.0,*59
###2023-12-09 13:13:13.775229$GNGGA,181312.90,4138.0469866,N,07032.2525466,W,1,24,0.7,12.842,M,-29.743,M,0.0,*5A
###2023-12-09 13:13:13.975374$GNRMC,181313.10,A,4138.0471446,N,07032.2523641,W,3.75,44.56,091223,,,A*6A
###2023-12-09 13:13:13.978254$GNGGA,181313.10,4138.0471446,N,07032.2523641,W,1,24,0.7,12.822,M,-29.743,M,0.0,*53
###2023-12-09 13:13:13.980062$GPGSA,A,3,03,04,16,26,28,29,31,,,,,,1.2,0.7,1.0*30
###2023-12-09 13:13:13.981776$GLGSA,A,3,65,71,72,73,74,75,,,,,,,1.2,0.7,1.0*2E
###2023-12-09 13:13:13.983371$GAGSA,A,3,04,19,21,27,,,,,,,,,1.2,0.7,1.0*2C
###2023-12-09 13:13:13.985085$GBGSA,A,3,14,24,25,26,33,35,,,,,,,1.2,0.7,1.0*23
###2023-12-09 13:13:13.987426$GPGSV,2,1,07,03,32,255,41,04,38,311,44,16,55,215,46,26,85,210,47*7E
