###2023-12-09 12:59:25.002646$GNEBP,,,,,,M*13
###2023-12-09 12:59:25.163059$GNGGA,175924.30,4138.0186524,N,07032.2595188,W,1,24,0.6,12.962,M,-29.744,M,0.0,*50
###2023-12-09 12:59:25.363355$GNGGA,175924.50,4138.0186231,N,07032.2597423,W,1,24,0.6,12.960,M,-29.744,M,0.0,*51
###2023-12-09 12:59:25.564408$GNGGA,175924.70,4138.0186191,N,07032.2599691,W,1,24,0.6,12.962,M,-29.744,M,0.0,*5D
###2023-12-09 12:59:25.764779$GNGGA,175924.90,4138.0186329,N,07032.2601952,W,1,24,0.6,12.959,M,-29.744,M,0.0,*58
###2023-12-09 12:59:25.964230$GNRMC,175925.10,A,4138.0186504,N,07032.2604157,W,2.95,276.37,091223,,,A*59
###2023-12-09 12:59:25.967115$GNGGA,175925.10,4138.0186504,N,07032.2604157,W,1,24,0.6,12.956,M,-29.744,M,0.0,*5F
###2023-12-09 12:59:25.968976$GPGSA,A,3,03,04,16,26,28,29,31,32,,,,,1.1,0.6,0.9*3B
###2023-12-09 12:59:25.970720$GLGSA,A,3,65,71,72,73,74,75,,,,,,,1.1,0.6,0.9*24
###2023-12-09 12:59:25.972303$GAGSA,A,3,04,19,21,27,,,,,,,,,1.1,0.6,0.9*26
###2023-12-09 12:59:25.973950$GBGSA,A,3,14,24,25,26,33,,,,,,,,1.1,0.6,0.9*2F
###2023-12-09 12:59:25.976297$GPGSV,2,1,08,03,35,262,41,04,32,311,42,16,49,212,46,26,78,209,48*71
###2023-12-09 12:59:25.978649$GPGSV,2,2,08,28,50,069,45,29,25,063,41,31,69,033,47,32,20,139,43*7D
###2023-12-09 12:59:25.980989$GLGSV,2,1,06,65,23,328,40,71,42,172,47,72,73,273,45,73,37,041,46*69
###2023-12-09 12:59:25.982750$GLGSV,2,2,06,74,70,334,42,75,31,252,42,,,,,,,,*66
###2023-12-09 12:59:25.985086$GAGSV,1,1,04,04,28,312,40,19,85,226,40,21,85,133,47,27,34,048,43*64
###2023-12-09 12:59:25.987424$GBGSV,2,1,05,14,44,193,46,24,74,022,49,25,40,261,44,26,27,062,41*6F
###2023-12-09 12:59:25.988881$GBGSV,2,2,05,33,58,234,48,,,,,,,,,,,,*5A
###2023-12-09 12:59:25.990203$GNVTG,276.37,T,,M,2.95,N,5.47,K,A*2C
###2023-12-09 12:59:25.991862$GNGST,175925.10,18.000,,,,0.080,0.067,0.160*5C
###2023-12-09 12:59:25.993155$GNZDA,175925.10,09,12,2023,00,00*7D
###2023-12-09 12:59:25.993795$GNEBP,,,,,,M*13
###2023-12-09 12:59:26.162255$GNGGA,175925.30,4138.0186724,N,07032.2606355,W,1,24,0.6,12.965,M,-29.744,M,0.0,*5F
###2023-12-09 12:59:26.362705$GNGGA,175925.50,4138.0186983,N,07032.2608585,W,1,24,0.6,12.966,M,-29.744,M,0.0,*5C
###2023-12-09 12:59:26.566383$GNGGA,175925.70,4138.0187301,N,07032.2610780,W,1,24,0.6,12.965,M,-29.744,M,0.0,*52
###2023-12-09 12:59:26.763461$GNGGA,175925.90,4138.0187673,N,07032.2612921,W,1,24,0.6,12.968,M,-29.744,M,0.0,*56
###2023-12-09 12:59:26.966270$GNRMC,175926.10,A,4138.0188030,N,07032.2615052,W,2.84,282.29,091223,,,A*56
###2023-12-09 12:59:26.969167$GNGGA,175926.10,4138.0188030,N,07032.2615052,W,1,24,0.6,12.960,M,-29.744,M,0.0,*51
###2023-12-09 12:59:26.971039$GPGSA,A,3,03,04,16,26,28,29,31,32,,,,,1.1,0.6,0.9*3B
###2023-12-09 12:59:26.972750$GLGSA,A,3,65,71,72,73,74,75,,,,,,,1.1,0.6,0.9*24
###2023-12-09 12:59:26.974328$GAGSA,A,3,04,19,21,27,,,,,,,,,1.1,0.6,0.9*26
###2023-12-09 12:59:26.975983$GBGSA,A,3,14,24,25,26,33,,,,,,,,1.1,0.6,0.9*2F
###2023-12-09 12:59:26.978303$GPGSV,2,1,08,03,35,262,43,04,32,311,42,16,49,212,46,26,78,209,48*73
###2023-12-09 12:59:26.980640$GPGSV,2,2,08,28,50,069,45,29,25,063,40,31,69,033,47,32,20,139,44*7B
###2023-12-09 12:59:26.982990$GLGSV,2,1,06,65,23,328,40,71,42,172,47,72,73,273,45,73,37,041,46*69
###2023-12-09 12:59:26.984738$GLGSV,2,2,06,74,70,334,42,75,31,252,43,,,,,,,,*67
###2023-12-09 12:59:26.987075$GAGSV,1,1,04,04,28,312,40,19,85,226,41,21,85,133,46,27,34,048,43*64
###2023-12-09 12:59:26.989402$GBGSV,2,1,05,14,44,193,47,24,74,022,48,25,40,261,45,26,27,062,43*6C
###2023-12-09 12:59:26.990868$GBGSV,2,2,05,33,58,234,49,,,,,,,,,,,,*5B
###2023-12-09 12:59:26.992193$GNVTG,282.29,T,,M,2.84,N,5.26,K,A*2F
###2023-12-09 12:59:26.993847$GNGST,175926.10,18.000,,,,0.080,0.068,0.160*50
###2023-12-09 12:59:26.995152$GNZDA,175926.10,09,12,2023,00,00*7E
###2023-12-09 12:59:26.995790$GNEBP,,,,,,M*13
###2023-12-09 12:59:27.165382$GNGGA,175926.30,4138.0188348,N,07032.2617133,W,1,24,0.6,12.955,M,-29.744,M,0.0,*5D
###2023-12-09 12:59:27.363411$GNGGA,175926.50,4138.0188696,N,07032.2619189,W,1,24,0.6,12.964,M,-29.744,M,0.0,*50
###2023-12-09 12:59:27.563112$GNGGA,175926.70,4138.0189120,N,07032.2621226,W,1,24,0.6,12.972,M,-29.744,M,0.0,*53
###2023-12-09 12:59:27.763605$GNGGA,175926.90,4138.0189585,N,07032.2623260,W,1,24,0.6,12.976,M,-29.744,M,0.0,*52
###2023-12-09 12:59:27.965081$GNRMC,175927.10,A,4138.0189992,N,07032.2625283,W,2.80,283.88,091223,,,A*54
###2023-12-09 12:59:27.967951$GNGGA,175927.10,4138.0189992,N,07032.2625283,W,1,24,0.6,12.977,M,-29.744,M,0.0,*5B
###2023-12-09 12:59:27.969806$GPGSA,A,3,03,04,16,26,28,29,31,32,,,,,1.1,0.6,0.9*3B
###2023-12-09 12:59:27.971533$GLGSA,A,3,65,71,72,73,74,75,,,,,,,1.1,0.6,0.9*24
###2023-12-09 12:59:27.973118$GAGSA,A,3,04,19,21,27,,,,,,,,,1.1,0.6,0.9*26
###2023-12-09 12:59:27.974767$GBGSA,A,3,14,24,25,26,33,,,,,,,,1.1,0.6,0.9*2F
###2023-12-09 12:59:27.977095$GPGSV,2,1,08,03,35,262,42,04,32,311,42,16,49,212,45,26,78,209,48*71
###2023-12-09 12:59:27.979438$GPGSV,2,2,08,28,50,069,45,29,25,063,41,31,69,033,47,32,20,139,43*7D
###2023-12-09 12:59:27.981762$GLGSV,2,1,06,65,23,328,40,71,42,172,47,72,73,273,45,73,37,041,46*69
###2023-12-09 12:59:27.983512$GLGSV,2,2,06,74,70,334,42,75,31,252,43,,,,,,,,*67
###2023-12-09 12:59:27.985823$GAGSV,1,1,04,04,28,312,40,19,85,226,41,21,85,133,46,27,34,048,43*64
###2023-12-09 12:59:27.988161$GBGSV,2,1,05,14,44,193,45,24,74,022,48,25,40,261,45,26,27,062,43*6E
###2023-12-09 12:59:27.989618$GBGSV,2,2,05,33,58,234,49,,,,,,,,,,,,*5B
###2023-12-09 12:59:27.990950$GNVTG,283.88,T,,M,2.80,N,5.18,K,A*2C
###2023-12-09 12:59:27.992595$GNGST,175927.10,18.000,,,,0.080,0.068,0.160*51
###2023-12-09 12:59:27.993882$GNZDA,175927.10,09,12,2023,00,00*7F
###2023-12-09 12:59:27.994521$GNEBP,,,,,,M*13
###2023-12-09 12:59:28.162255$GNGGA,175927.30,4138.0190314,N,07032.2627304,W,1,24,0.6,12.968,M,-29.744,M,0.0,*57
###2023-12-09 12:59:28.362440$GNGGA,175927.50,4138.0190624,N,07032.2629322,W,1,24,0.6,12.955,M,-29.744,M,0.0,*53
###2023-12-09 12:59:28.563618$GNGGA,175927.70,4138.0190948,N,07032.2631330,W,1,24,0.6,12.955,M,-29.744,M,0.0,*5E
###2023-12-09 12:59:28.764777$GNGGA,175927.90,4138.0191270,N,07032.2633367,W,1,24,0.6,12.965,M,-29.744,M,0.0,*52
###2023-12-09 12:59:28.965944$GNRMC,175928.10,A,4138.0191554,N,07032.2635428,W,2.86,278.62,091223,,,A*54
###2023-12-09 12:59:28.968821$GNGGA,175928.10,4138.0191554,N,07032.2635428,W,1,24,0.6,12.980,M,-29.744,M,0.0,*55
###2023-12-09 12:59:28.970682$GPGSA,A,3,03,04,16,26,28,29,31,32,,,,,1.1,0.6,0.9*3B
###2023-12-09 12:59:28.972384$GLGSA,A,3,65,71,72,73,74,75,,,,,,,1.1,0.6,0.9*24
###2023-12-09 12:59:28.973955$GAGSA,A,3,04,19,21,27,,,,,,,,,1.1,0.6,0.9*26
###2023-12-09 12:59:28.975603$GBGSA,A,3,14,24,25,26,33,,,,,,,,1.1,0.6,0.9*2F
###2023-12-09 12:59:28.977909$GPGSV,2,1,08,03,35,262,43,04,32,311,42,16,49,212,46,26,78,209,48*73
###2023-12-09 12:59:28.980236$GPGSV,2,2,08,28,50,069,45,29,25,063,41,31,69,033,48,32,20,139,43*72
###2023-12-09 12:59:28.982546$GLGSV,2,1,06,65,23,328,41,71,42,172,47,72,73,273,45,73,37,041,45*6B
###2023-12-09 12:59:28.984300$GLGSV,2,2,06,74,70,334,42,75,31,252,43,,,,,,,,*67
###2023-12-09 12:59:28.986627$GAGSV,1,1,04,04,28,312,41,19,85,226,40,21,85,133,46,27,34,048,43*64
###2023-12-09 12:59:28.988951$GBGSV,2,1,05,14,44,193,44,24,74,022,48,25,40,261,44,26,27,062,42*6F
###2023-12-09 12:59:28.990394$GBGSV,2,2,05,33,58,234,47,,,,,,,,,,,,*55
###2023-12-09 12:59:28.991724$GNVTG,278.62,T,,M,2.86,N,5.29,K,A*28
###2023-12-09 12:59:28.993366$GNGST,175928.10,18.000,,,,0.080,0.068,0.160*5E
###2023-12-09 12:59:28.994666$GNZDA,175928.10,09,12,2023,00,00*70
###2023-12-09 12:59:28.995311$GNEBP,,,,,,M*13
###2023-12-09 12:59:29.162834$GNGGA,175928.30,4138.0191643,N,07032.2637488,W,1,24,0.6,12.964,M,-29.744,M,0.0,*50
###2023-12-09 12:59:29.364134$GNGGA,175928.50,4138.0191512,N,07032.2639508,W,1,24,0.6,12.935,M,-29.744,M,0.0,*52
###2023-12-09 12:59:29.564197$GNGGA,175928.70,4138.0191577,N,07032.2641615,W,1,24,0.6,12.947,M,-29.744,M,0.0,*56
###2023-12-09 12:59:29.764708$GNGGA,175928.90,4138.0191802,N,07032.2643809,W,1,24,0.6,12.967,M,-29.744,M,0.0,*54
###2023-12-09 12:59:29.967205$GNRMC,175929.10,A,4138.0191647,N,07032.2645861,W,2.80,252.26,091223,,,A*5C
###2023-12-09 12:59:29.970312$GNGGA,175929.10,4138.0191647,N,07032.2645861,W,1,24,0.6,12.957,M,-29.744,M,0.0,*59
###2023-12-09 12:59:29.972206$GPGSA,A,3,03,04,16,26,28,29,31,32,,,,,1.1,0.6,0.9*3B
###2023-12-09 12:59:29.973928$GLGSA,A,3,65,71,72,73,74,75,,,,,,,1.1,0.6,0.9*24
###2023-12-09 12:59:29.975527$GAGSA,A,3,04,19,21,27,,,,,,,,,1.1,0.6,0.9*26
###2023-12-09 12:59:29.977178$GBGSA,A,3,14,24,25,26,33,,,,,,,,1.1,0.6,0.9*2F
###2023-12-09 12:59:29.979521$GPGSV,2,1,08,03,35,262,43,04,32,311,43,16,49,212,45,26,79,210,47*77
###2023-12-09 12:59:29.981853$GPGSV,2,2,08,28,50,069,45,29,25,063,42,31,69,033,47,32,20,139,42*7F
###2023-12-09 12:59:29.984203$GLGSV,2,1,06,65,23,328,43,71,42,172,47,72,73,273,45,73,37,041,47*6B
###2023-12-09 12:59:29.985951$GLGSV,2,2,06,74,70,334,42,75,31,252,43,,,,,,,,*67
###2023-12-09 12:59:29.988287$GAGSV,1,1,04,04,28,312,41,19,85,226,39,21,85,133,45,27,34,048,44*6E
