###2023-12-09 13:08:42.568984$GNGGA,180841.70,4138.0825252,N,07032.2751078,W,1,25,0.6,13.146,M,-29.742,M,0.0,*56
###2023-12-09 13:08:42.769272$GNGGA,180841.90,4138.0825293,N,07032.2748393,W,1,25,0.6,13.167,M,-29.742,M,0.0,*58
###2023-12-09 13:08:42.971416$GNRMC,180842.10,A,4138.0825637,N,07032.2745673,W,3.65,82.17,091223,,,A*60
###2023-12-09 13:08:42.974282$GNGGA,180842.10,4138.0825637,N,07032.2745673,W,1,25,0.6,13.189,M,-29.742,M,0.0,*5F
###2023-12-09 13:08:42.976145$GPGSA,A,3,03,04,16,26,28,29,31,32,,,,,1.1,0.6,0.9*3B
###2023-12-09 13:08:42.977847$GLGSA,A,3,65,71,72,73,74,75,,,,,,,1.1,0.6,0.9*24
###2023-12-09 13:08:42.979433$GAGSA,A,3,04,19,21,27,,,,,,,,,1.1,0.6,0.9*26
###2023-12-09 13:08:42.981140$GBGSA,A,3,14,24,25,26,33,35,,,,,,,1.1,0.6,0.9*29
###2023-12-09 13:08:42.983470$GPGSV,2,1,08,03,34,258,44,04,35,311,45,16,53,214,47,26,83,210,48*7C
###2023-12-09 13:08:42.985793$GPGSV,2,2,08,28,47,073,43,29,25,058,40,31,67,044,46,32,16,141,41*78
###2023-12-09 13:08:42.988123$GLGSV,2,1,06,65,27,326,40,71,37,173,46,72,72,258,46,73,33,043,44*6E
###2023-12-09 13:08:42.989869$GLGSV,2,2,06,74,68,345,42,75,34,256,48,,,,,,,,*62
###2023-12-09 13:08:42.992198$GAGSV,1,1,04,04,31,312,42,19,82,199,41,21,85,085,46,27,31,048,41*65
###2023-12-09 13:08:42.994519$GBGSV,2,1,06,14,40,192,46,24,71,031,49,25,43,265,46,26,24,064,43*6C
###2023-12-09 13:08:42.996262$GBGSV,2,2,06,33,55,228,48,35,15,066,43,,,,,,,,*6C
###2023-12-09 13:08:42.997550$GNVTG,82.17,T,,M,3.65,N,6.77,K,A*19
###2023-12-09 13:08:42.999201$GNGST,180842.10,18.000,,,,0.082,0.066,0.150*56
###2023-12-09 13:08:43.000486$GNZDA,180842.10,09,12,2023,00,00*77
###2023-12-09 13:08:43.001123$GNEBP,,,,,,M*13
###2023-12-09 13:08:43.168229$GNGGA,180842.30,4138.0825675,N,07032.2742937,W,1,25,0.6,13.166,M,-29.742,M,0.0,*52
###2023-12-09 13:08:43.368689$GNGGA,180842.50,4138.0825479,N,07032.2740275,W,1,25,0.6,13.169,M,-29.742,M,0.0,*5A
###2023-12-09 13:08:43.568618$GNGGA,180842.70,4138.0825488,N,07032.2737586,W,1,25,0.6,13.199,M,-29.742,M,0.0,*52
###2023-12-09 13:08:43.769494$GNGGA,180842.90,4138.0825373,N,07032.2734783,W,1,25,0.6,13.175,M,-29.742,M,0.0,*59
###2023-12-09 13:08:43.971081$GNRMC,180843.10,A,4138.0825255,N,07032.2732234,W,3.38,89.35,091223,,,A*65
###2023-12-09 13:08:43.973937$GNGGA,180843.10,4138.0825255,N,07032.2732234,W,1,25,0.6,13.160,M,-29.742,M,0.0,*5E
###2023-12-09 13:08:43.975810$GPGSA,A,3,03,04,16,26,28,29,31,32,,,,,1.1,0.6,0.9*3B
###2023-12-09 13:08:43.977516$GLGSA,A,3,65,71,72,73,74,75,,,,,,,1.1,0.6,0.9*24
###2023-12-09 13:08:43.979102$GAGSA,A,3,04,19,21,27,,,,,,,,,1.1,0.6,0.9*26
###2023-12-09 13:08:43.980811$GBGSA,A,3,14,24,25,26,33,35,,,,,,,1.1,0.6,0.9*29
###2023-12-09 13:08:43.983139$GPGSV,2,1,08,03,34,258,44,04,35,311,43,16,53,214,48,26,83,210,48*75
###2023-12-09 13:08:43.985466$GPGSV,2,2,08,28,47,073,44,29,25,058,41,31,67,044,46,32,16,141,41*7E
###2023-12-09 13:08:43.987798$GLGSV,2,1,06,65,27,326,40,71,36,173,46,72,72,258,46,73,33,043,44*6F
###2023-12-09 13:08:43.989544$GLGSV,2,2,06,74,68,345,42,75,34,256,47,,,,,,,,*6D
###2023-12-09 13:08:43.991874$GAGSV,1,1,04,04,31,312,41,19,82,199,41,21,85,085,46,27,31,048,42*65
###2023-12-09 13:08:43.994188$GBGSV,2,1,06,14,40,192,45,24,71,031,48,25,43,265,47,26,24,064,42*6E
###2023-12-09 13:08:43.995947$GBGSV,2,2,06,33,55,228,49,35,15,066,42,,,,,,,,*6C
###2023-12-09 13:08:43.997239$GNVTG,89.35,T,,M,3.38,N,6.26,K,A*1E
###2023-12-09 13:08:43.998887$GNGST,180843.10,18.000,,,,0.082,0.065,0.150*54
###2023-12-09 13:08:44.000174$GNZDA,180843.10,09,12,2023,00,00*76
###2023-12-09 13:08:44.000810$GNEBP,,,,,,M*13
###2023-12-09 13:08:44.167932$GNGGA,180843.30,4138.0825336,N,07032.2729586,W,1,25,0.6,13.195,M,-29.742,M,0.0,*56
###2023-12-09 13:08:44.370077$GNGGA,180843.50,4138.0825018,N,07032.2726848,W,1,25,0.6,13.174,M,-29.742,M,0.0,*50
###2023-12-09 13:08:44.569241$GNGGA,180843.70,4138.0824882,N,07032.2724338,W,1,25,0.6,13.163,M,-29.742,M,0.0,*50
###2023-12-09 13:08:44.770015$GNGGA,180843.90,4138.0825078,N,07032.2721716,W,1,25,0.6,13.203,M,-29.742,M,0.0,*5A
###2023-12-09 13:08:44.980085$GNRMC,180844.10,A,4138.0824877,N,07032.2719011,W,3.42,99.98,091223,,,A*6E
###2023-12-09 13:08:44.982962$GNGGA,180844.10,4138.0824877,N,07032.2719011,W,1,25,0.6,13.168,M,-29.742,M,0.0,*56
###2023-12-09 13:08:44.984818$GPGSA,A,3,03,04,16,26,28,29,31,32,,,,,1.1,0.6,0.9*3B
###2023-12-09 13:08:44.986530$GLGSA,A,3,65,71,72,73,74,75,,,,,,,1.1,0.6,0.9*24
###2023-12-09 13:08:44.988123$GAGSA,A,3,04,19,21,27,,,,,,,,,1.1,0.6,0.9*26
###2023-12-09 13:08:44.989835$GBGSA,A,3,14,24,25,26,33,35,,,,,,,1.1,0.6,0.9*29
###2023-12-09 13:08:44.992159$GPGSV,2,1,08,03,34,258,45,04,35,311,44,16,53,214,47,26,83,210,48*7C
###2023-12-09 13:08:44.994485$GPGSV,2,2,08,28,47,073,44,29,25,058,41,31,67,044,47,32,16,141,41*7F
###2023-12-09 13:08:44.996823$GLGSV,2,1,06,65,27,326,41,71,36,173,46,72,72,254,46,73,33,043,44*62
###2023-12-09 13:08:44.998581$GLGSV,2,2,06,74,68,345,42,75,34,256,47,,,,,,,,*6D
###2023-12-09 13:08:45.000904$GAGSV,1,1,04,04,31,312,41,19,82,199,41,21,85,085,46,27,31,048,43*64
###2023-12-09 13:08:45.003238$GBGSV,2,1,06,14,40,192,45,24,71,031,49,25,43,265,47,26,24,064,42*6F
###2023-12-09 13:08:45.004984$GBGSV,2,2,06,33,55,228,48,35,15,066,43,,,,,,,,*6C
###2023-12-09 13:08:45.006274$GNVTG,99.98,T,,M,3.42,N,6.34,K,A*16
###2023-12-09 13:08:45.007931$GNGST,180844.10,18.000,,,,0.081,0.065,0.150*50
###2023-12-09 13:08:45.009218$GNZDA,180844.10,09,12,2023,00,00*71
###2023-12-09 13:08:45.009856$GNEBP,,,,,,M*13
###2023-12-09 13:08:45.170754$GNGGA,180844.30,4138.0824676,N,07032.2716526,W,1,25,0.6,13.169,M,-29.742,M,0.0,*54
###2023-12-09 13:08:45.368507$GNGGA,180844.50,4138.0824692,N,07032.2713946,W,1,25,0.6,13.200,M,-29.742,M,0.0,*5B
###2023-12-09 13:08:45.568977$GNGGA,180844.70,4138.0824647,N,07032.2711321,W,1,25,0.6,13.181,M,-29.742,M,0.0,*52
###2023-12-09 13:08:45.769207$GNGGA,180844.90,4138.0824513,N,07032.2708766,W,1,25,0.6,13.166,M,-29.742,M,0.0,*58
###2023-12-09 13:08:45.971128$GNRMC,180845.10,A,4138.0824453,N,07032.2706193,W,3.54,90.31,091223,,,A*6D
###2023-12-09 13:08:45.973973$GNGGA,180845.10,4138.0824453,N,07032.2706193,W,1,25,0.6,13.187,M,-29.742,M,0.0,*59
###2023-12-09 13:08:45.975833$GPGSA,A,3,03,04,16,26,28,29,31,32,,,,,1.1,0.6,0.9*3B
###2023-12-09 13:08:45.977541$GLGSA,A,3,65,71,72,73,74,75,,,,,,,1.1,0.6,0.9*24
###2023-12-09 13:08:45.979129$GAGSA,A,3,04,19,21,27,,,,,,,,,1.1,0.6,0.9*26
###2023-12-09 13:08:45.980838$GBGSA,A,3,14,24,25,26,33,35,,,,,,,1.1,0.6,0.9*29
###2023-12-09 13:08:45.983162$GPGSV,2,1,08,03,34,258,45,04,35,311,44,16,53,214,47,26,83,210,48*7C
###2023-12-09 13:08:45.985485$GPGSV,2,2,08,28,47,073,43,29,25,058,41,31,67,044,46,32,16,141,41*79
###2023-12-09 13:08:45.987820$GLGSV,2,1,06,65,27,326,41,71,36,173,45,72,72,254,46,73,32,044,44*67
###2023-12-09 13:08:45.989559$GLGSV,2,2,06,74,68,345,43,75,34,256,48,,,,,,,,*63
###2023-12-09 13:08:45.991887$GAGSV,1,1,04,04,31,312,41,19,82,199,40,21,85,085,45,27,31,048,42*67
###2023-12-09 13:08:45.994213$GBGSV,2,1,06,14,40,192,45,24,71,031,48,25,43,265,46,26,24,064,41*6C
###2023-12-09 13:08:45.995968$GBGSV,2,2,06,33,55,228,48,35,15,066,43,,,,,,,,*6C
###2023-12-09 13:08:45.997260$GNVTG,90.31,T,,M,3.54,N,6.55,K,A*1C
###2023-12-09 13:08:45.998918$GNGST,180845.10,18.000,,,,0.081,0.065,0.150*51
###2023-12-09 13:08:46.000207$GNZDA,180845.10,09,12,2023,00,00*70
###2023-12-09 13:08:46.000844$GNEBP,,,,,,M*13
###2023-12-09 13:08:46.167836$GNGGA,180845.30,4138.0824428,N,07032.2703530,W,1,25,0.6,13.192,M,-29.742,M,0.0,*5B
###2023-12-09 13:08:46.368571$GNGGA,180845.50,4138.0824367,N,07032.2700893,W,1,25,0.6,13.167,M,-29.742,M,0.0,*5C
###2023-12-09 13:08:46.568905$GNGGA,180845.70,4138.0824508,N,07032.2698310,W,1,25,0.6,13.181,M,-29.742,M,0.0,*59
###2023-12-09 13:08:46.769025$GNGGA,180845.90,4138.0824586,N,07032.2695634,W,1,25,0.6,13.185,M,-29.742,M,0.0,*5B
###2023-12-09 13:08:46.972566$GNRMC,180846.10,A,4138.0824521,N,07032.2692907,W,3.62,91.39,091223,,,A*6F
###2023-12-09 13:08:46.975444$GNGGA,180846.10,4138.0824521,N,07032.2692907,W,1,25,0.6,13.168,M,-29.742,M,0.0,*56
###2023-12-09 13:08:46.977309$GPGSA,A,3,03,04,16,26,28,29,31,32,,,,,1.1,0.6,0.9*3B
###2023-12-09 13:08:46.979036$GLGSA,A,3,65,71,72,73,74,75,,,,,,,1.1,0.6,0.9*24
###2023-12-09 13:08:46.980871$GAGSA,A,3,04,19,21,27,,,,,,,,,1.1,0.6,0.9*26
###2023-12-09 13:08:46.982600$GBGSA,A,3,14,24,25,26,33,35,,,,,,,1.1,0.6,0.9*29
###2023-12-09 13:08:46.984925$GPGSV,2,1,08,03,34,258,45,04,35,311,44,16,53,214,47,26,83,210,48*7C
###2023-12-09 13:08:46.987276$GPGSV,2,2,08,28,47,073,43,29,25,058,40,31,67,044,46,32,16,141,42*7B
###2023-12-09 13:08:46.989609$GLGSV,2,1,06,65,27,326,41,71,36,173,46,72,72,254,46,73,32,044,44*64
###2023-12-09 13:08:46.991365$GLGSV,2,2,06,74,68,348,43,75,34,256,48,,,,,,,,*6E
###2023-12-09 13:08:46.993691$GAGSV,1,1,04,04,31,312,40,19,82,199,40,21,85,085,45,27,31,048,41*65
###2023-12-09 13:08:46.996024$GBGSV,2,1,06,14,40,192,46,24,71,031,48,25,43,265,46,26,24,064,42*6C
###2023-12-09 13:08:46.997766$GBGSV,2,2,06,33,55,228,48,35,15,066,42,,,,,,,,*6D
###2023-12-09 13:08:46.999072$GNVTG,91.39,T,,M,3.62,N,6.70,K,A*17
