###2023-12-09 13:15:36.993271$GAGSA,A,3,04,19,21,27,,,,,,,,,1.2,0.7,1.0*2C
###2023-12-09 13:15:36.995394$GBGSA,A,3,14,24,25,26,33,35,,,,,,,1.2,0.7,1.0*23
###2023-12-09 13:15:36.998214$GPGSV,2,1,07,03,32,254,43,04,38,311,44,16,57,216,47,26,87,208,48*79
###2023-12-09 13:15:37.000709$GPGSV,2,2,07,28,44,077,44,29,24,054,42,31,65,052,46,,,,*4A
###2023-12-09 13:15:37.003554$GLGSV,2,1,06,65,30,325,40,71,33,174,46,72,71,243,47,73,30,046,42*60
###2023-12-09 13:15:37.005681$GLGSV,2,2,06,74,66,355,41,75,37,260,47,,,,,,,,*67
###2023-12-09 13:15:37.008513$GAGSV,1,1,04,04,33,312,43,19,80,192,40,21,84,066,46,27,29,048,40*6A
###2023-12-09 13:15:37.011350$GBGSV,2,1,06,14,37,191,42,24,69,035,48,25,45,267,48,26,22,066,43*69
###2023-12-09 13:15:37.013460$GBGSV,2,2,06,33,53,225,48,35,16,064,42,,,,,,,,*67
###2023-12-09 13:15:37.015068$GNVTG,353.53,T,,M,3.52,N,6.52,K,A*25
###2023-12-09 13:15:37.017053$GNGST,181536.10,18.000,,,,0.098,0.071,0.170*56
###2023-12-09 13:15:37.018700$GNZDA,181536.10,09,12,2023,00,00*78
###2023-12-09 13:15:37.019483$GNEBP,,,,,,M*13
###2023-12-09 13:15:37.178856$GNGGA,181536.30,4138.0275672,N,07032.2778261,W,1,24,0.7,13.033,M,-29.744,M,0.0,*53
###2023-12-09 13:15:37.380669$GNGGA,181536.50,4138.0277665,N,07032.2778621,W,1,24,0.7,13.046,M,-29.744,M,0.0,*53
###2023-12-09 13:15:37.579463$GNGGA,181536.70,4138.0279710,N,07032.2778823,W,1,24,0.7,13.066,M,-29.744,M,0.0,*52
###2023-12-09 13:15:37.779490$GNGGA,181536.90,4138.0281765,N,07032.2779034,W,1,24,0.7,13.060,M,-29.744,M,0.0,*50
###2023-12-09 13:15:37.981731$GNRMC,181537.10,A,4138.0283752,N,07032.2779478,W,3.63,348.69,091223,,,A*56
###2023-12-09 13:15:37.984611$GNGGA,181537.10,4138.0283752,N,07032.2779478,W,1,24,0.7,13.053,M,-29.744,M,0.0,*53
###2023-12-09 13:15:37.986407$GPGSA,A,3,03,04,16,26,28,29,31,,,,,,1.2,0.7,1.0*30
###2023-12-09 13:15:37.988137$GLGSA,A,3,65,71,72,73,74,75,,,,,,,1.2,0.7,1.0*2E
###2023-12-09 13:15:37.989711$GAGSA,A,3,04,19,21,27,,,,,,,,,1.2,0.7,1.0*2C
###2023-12-09 13:15:37.991430$GBGSA,A,3,14,24,25,26,33,35,,,,,,,1.2,0.7,1.0*23
###2023-12-09 13:15:37.993745$GPGSV,2,1,07,03,32,254,43,04,38,311,43,16,57,216,47,26,87,208,48*7E
###2023-12-09 13:15:37.995788$GPGSV,2,2,07,28,44,077,44,29,24,054,41,31,65,052,46,,,,*49
###2023-12-09 13:15:37.998099$GLGSV,2,1,06,65,30,325,38,71,33,174,46,72,71,243,46,73,30,046,42*6E
###2023-12-09 13:15:37.999849$GLGSV,2,2,06,74,66,355,41,75,37,260,47,,,,,,,,*67
###2023-12-09 13:15:38.002154$GAGSV,1,1,04,04,33,312,42,19,80,192,40,21,84,066,46,27,29,048,39*65
###2023-12-09 13:15:38.004496$GBGSV,2,1,06,14,37,191,43,24,69,035,49,25,45,267,47,26,22,066,44*61
###2023-12-09 13:15:38.006236$GBGSV,2,2,06,33,53,225,49,35,16,064,42,,,,,,,,*66
###2023-12-09 13:15:38.007565$GNVTG,348.69,T,,M,3.63,N,6.73,K,A*27
###2023-12-09 13:15:38.009199$GNGST,181537.10,18.000,,,,0.098,0.071,0.170*57
###2023-12-09 13:15:38.010524$GNZDA,181537.10,09,12,2023,00,00*79
###2023-12-09 13:15:38.011187$GNEBP,,,,,,M*13
###2023-12-09 13:15:38.178340$GNGGA,181537.30,4138.0285721,N,07032.2779953,W,1,24,0.7,13.062,M,-29.744,M,0.0,*55
###2023-12-09 13:15:38.377580$GNGGA,181537.50,4138.0287735,N,07032.2780322,W,1,24,0.7,13.070,M,-29.744,M,0.0,*5D
###2023-12-09 13:15:38.579461$GNGGA,181537.70,4138.0289694,N,07032.2780750,W,1,24,0.7,13.073,M,-29.744,M,0.0,*59
###2023-12-09 13:15:38.779857$GNGGA,181537.90,4138.0291571,N,07032.2781425,W,1,24,0.7,13.078,M,-29.744,M,0.0,*5D
###2023-12-09 13:15:38.988767$GNRMC,181538.10,A,4138.0293420,N,07032.2782237,W,3.56,342.57,091223,,,A*56
###2023-12-09 13:15:38.991648$GNGGA,181538.10,4138.0293420,N,07032.2782237,W,1,24,0.7,13.101,M,-29.744,M,0.0,*54
###2023-12-09 13:15:38.993444$GPGSA,A,3,03,04,16,26,28,29,31,,,,,,1.2,0.7,1.0*30
###2023-12-09 13:15:38.995179$GLGSA,A,3,65,71,72,73,74,75,,,,,,,1.2,0.7,1.0*2E
###2023-12-09 13:15:38.996770$GAGSA,A,3,04,19,21,27,,,,,,,,,1.2,0.7,1.0*2C
###2023-12-09 13:15:38.998483$GBGSA,A,3,14,24,25,26,33,35,,,,,,,1.2,0.7,1.0*23
###2023-12-09 13:15:39.000824$GPGSV,2,1,07,03,32,254,43,04,38,311,43,16,57,216,46,26,87,208,47*70
###2023-12-09 13:15:39.002909$GPGSV,2,2,07,28,44,077,45,29,24,054,42,31,65,052,46,,,,*4B
###2023-12-09 13:15:39.005237$GLGSV,2,1,06,65,30,325,39,71,33,174,46,72,71,243,46,73,30,046,44*69
###2023-12-09 13:15:39.006992$GLGSV,2,2,06,74,66,355,41,75,37,260,47,,,,,,,,*67
###2023-12-09 13:15:39.009321$GAGSV,1,1,04,04,33,312,41,19,80,192,40,21,84,066,46,27,29,048,40*68
###2023-12-09 13:15:39.011666$GBGSV,2,1,06,14,37,191,41,24,69,035,47,25,45,267,45,26,22,066,44*6F
###2023-12-09 13:15:39.013413$GBGSV,2,2,06,33,53,225,47,35,16,064,43,,,,,,,,*69
###2023-12-09 13:15:39.014748$GNVTG,342.57,T,,M,3.56,N,6.59,K,A*2E
###2023-12-09 13:15:39.016397$GNGST,181538.10,18.000,,,,0.099,0.071,0.170*59
###2023-12-09 13:15:39.017686$GNZDA,181538.10,09,12,2023,00,00*76
###2023-12-09 13:15:39.018322$GNEBP,,,,,,M*13
###2023-12-09 13:15:39.184756$GNGGA,181538.30,4138.0295320,N,07032.2782971,W,1,24,0.7,13.104,M,-29.744,M,0.0,*5B
###2023-12-09 13:15:39.378842$GNGGA,181538.50,4138.0297225,N,07032.2783600,W,1,24,0.7,13.102,M,-29.744,M,0.0,*55
###2023-12-09 13:15:39.578967$GNGGA,181538.70,4138.0299137,N,07032.2784246,W,1,24,0.7,13.112,M,-29.744,M,0.0,*59
###2023-12-09 13:15:39.779633$GNGGA,181538.90,4138.0301067,N,07032.2784879,W,1,24,0.7,13.125,M,-29.744,M,0.0,*51
###2023-12-09 13:15:39.981505$GNRMC,181539.10,A,4138.0303014,N,07032.2785316,W,3.54,353.66,091223,,,A*59
###2023-12-09 13:15:39.984391$GNGGA,181539.10,4138.0303014,N,07032.2785316,W,1,24,0.7,13.127,M,-29.744,M,0.0,*5F
###2023-12-09 13:15:39.986191$GPGSA,A,3,03,04,16,26,28,29,31,,,,,,1.2,0.7,1.0*30
###2023-12-09 13:15:39.987927$GLGSA,A,3,65,71,72,73,74,75,,,,,,,1.2,0.7,1.0*2E
###2023-12-09 13:15:39.989512$GAGSA,A,3,04,19,21,27,,,,,,,,,1.2,0.7,1.0*2C
###2023-12-09 13:15:39.991236$GBGSA,A,3,14,24,25,26,33,35,,,,,,,1.2,0.7,1.0*23
###2023-12-09 13:15:39.993562$GPGSV,2,1,07,03,32,254,43,04,38,311,43,16,57,216,46,26,87,208,47*70
###2023-12-09 13:15:39.995619$GPGSV,2,2,07,28,44,077,44,29,24,054,40,31,65,052,46,,,,*48
###2023-12-09 13:15:39.997949$GLGSV,2,1,06,65,30,325,42,71,33,174,45,72,71,243,46,73,30,046,42*60
###2023-12-09 13:15:39.999712$GLGSV,2,2,06,74,66,355,41,75,37,260,47,,,,,,,,*67
###2023-12-09 13:15:40.002040$GAGSV,1,1,04,04,33,312,42,19,80,192,40,21,84,066,45,27,29,048,39*66
###2023-12-09 13:15:40.004383$GBGSV,2,1,06,14,37,191,44,24,69,035,48,25,45,267,48,26,22,066,43*6F
###2023-12-09 13:15:40.006132$GBGSV,2,2,06,33,53,225,48,35,16,064,42,,,,,,,,*67
###2023-12-09 13:15:40.007468$GNVTG,353.66,T,,M,3.54,N,6.55,K,A*22
###2023-12-09 13:15:40.009109$GNGST,181539.10,18.000,,,,0.099,0.071,0.170*58
###2023-12-09 13:15:40.010394$GNZDA,181539.10,09,12,2023,00,00*77
###2023-12-09 13:15:40.011044$GNEBP,,,,,,M*13
###2023-12-09 13:15:40.176505$GNGGA,181539.30,4138.0304983,N,07032.2785526,W,1,24,0.7,13.127,M,-29.744,M,0.0,*58
###2023-12-09 13:15:40.377606$GNGGA,181539.50,4138.0306945,N,07032.2785566,W,1,24,0.7,13.137,M,-29.744,M,0.0,*53
###2023-12-09 13:15:40.579667$GNGGA,181539.70,4138.0308874,N,07032.2785471,W,1,24,0.7,13.148,M,-29.744,M,0.0,*53
###2023-12-09 13:15:40.777309$GNGGA,181539.90,4138.0310792,N,07032.2785236,W,1,24,0.7,13.156,M,-29.744,M,0.0,*59
###2023-12-09 13:15:40.981557$GNRMC,181540.10,A,4138.0312729,N,07032.2785025,W,3.48,4.16,091223,,,A*56
###2023-12-09 13:15:40.984437$GNGGA,181540.10,4138.0312729,N,07032.2785025,W,1,24,0.7,13.149,M,-29.744,M,0.0,*53
###2023-12-09 13:15:40.986235$GPGSA,A,3,03,04,16,26,28,29,31,,,,,,1.2,0.7,1.0*30
###2023-12-09 13:15:40.987966$GLGSA,A,3,65,71,72,73,74,75,,,,,,,1.2,0.7,1.0*2E
###2023-12-09 13:15:40.989554$GAGSA,A,3,04,19,21,27,,,,,,,,,1.2,0.7,1.0*2C
###2023-12-09 13:15:40.991276$GBGSA,A,3,14,24,25,26,33,35,,,,,,,1.2,0.7,1.0*23
###2023-12-09 13:15:40.993612$GPGSV,2,1,07,03,32,254,42,04,38,311,44,16,57,216,46,26,87,208,48*79
###2023-12-09 13:15:40.995669$GPGSV,2,2,07,28,44,077,44,29,24,054,39,31,65,052,45,,,,*45
###2023-12-09 13:15:40.998004$GLGSV,2,1,06,65,30,325,42,71,33,174,47,72,71,243,46,73,30,046,41*61
###2023-12-09 13:15:40.999771$GLGSV,2,2,06,74,66,355,41,75,37,260,46,,,,,,,,*66
###2023-12-09 13:15:41.002103$GAGSV,1,1,04,04,33,312,43,19,80,192,40,21,84,066,46,27,29,048,38*65
###2023-12-09 13:15:41.004727$GBGSV,2,1,06,14,37,191,45,24,69,035,48,25,45,267,47,26,22,066,43*61
###2023-12-09 13:15:41.006489$GBGSV,2,2,06,33,53,225,47,35,16,064,41,,,,,,,,*6B
###2023-12-09 13:15:41.007770$GNVTG,4.16,T,,M,3.48,N,6.44,K,A*29
###2023-12-09 13:15:41.009420$GNGST,181540.10,18.000,,,,0.098,0.071,0.170*57
###2023-12-09 13:15:41.010725$GNZDA,181540.10,09,12,2023,00,00*79
###2023-12-09 13:15:41.011365$GNEBP,,,,,,M*13
###2023-12-09 13:15:41.177875$GNGGA,181540.30,4138.0314647,N,07032.2784792,W,1,24,0.7,13.139,M,-29.744,M,0.0,*53
###2023-12-09 13:15:41.377430$GNGGA,181540.50,4138.0316578,N,07032.2784537,W,1,24,0.7,13.141,M,-29.744,M,0.0,*5A
###2023-12-09 13:15:41.578314$GNGGA,181540.70,4138.0318510,N,07032.2784167,W,1,24,0.7,13.142,M,-29.744,M,0.0,*5A
