###2023-12-09 12:53:51.975327$GLGSV,2,2,06,74,71,324,43,75,29,249,43,,,,,,,,*65
###2023-12-09 12:53:51.977683$GAGSV,1,1,04,04,26,312,40,19,85,252,40,21,84,154,46,27,36,048,44*6D
###2023-12-09 12:53:51.980033$GBGSV,2,1,05,14,47,194,45,24,76,016,49,25,38,259,46,26,29,061,44*63
###2023-12-09 12:53:51.981494$GBGSV,2,2,05,33,60,238,47,,,,,,,,,,,,*52
###2023-12-09 12:53:51.982831$GNVTG,300.73,T,,M,1.15,N,2.12,K,A*20
###2023-12-09 12:53:51.984479$GNGST,175351.10,18.000,,,,0.075,0.066,0.150*5D
###2023-12-09 12:53:51.985771$GNZDA,175351.10,09,12,2023,00,00*74
###2023-12-09 12:53:51.986408$GNEBP,,,,,,M*13
###2023-12-09 12:53:52.153756$GNGGA,175351.30,4138.0597453,N,07032.3908244,W,1,24,0.6,13.517,M,-29.744,M,0.0,*58
###2023-12-09 12:53:52.355121$GNGGA,175351.50,4138.0597432,N,07032.3908234,W,1,24,0.6,13.510,M,-29.744,M,0.0,*59
###2023-12-09 12:53:52.554998$GNGGA,175351.70,4138.0597407,N,07032.3908202,W,1,24,0.6,13.493,M,-29.744,M,0.0,*52
###2023-12-09 12:53:52.753728$GNGGA,175351.90,4138.0597595,N,07032.3908646,W,1,24,0.6,13.498,M,-29.744,M,0.0,*59
###2023-12-09 12:53:52.955544$GNRMC,175352.10,A,4138.0597858,N,07032.3909256,W,0.76,299.02,091223,,,A*5A
###2023-12-09 12:53:52.958393$GNGGA,175352.10,4138.0597858,N,07032.3909256,W,1,24,0.6,13.503,M,-29.744,M,0.0,*59
###2023-12-09 12:53:52.960271$GPGSA,A,3,03,04,16,26,28,29,31,32,,,,,1.1,0.6,0.9*3B
###2023-12-09 12:53:52.961986$GLGSA,A,3,65,71,72,73,74,75,,,,,,,1.1,0.6,0.9*24
###2023-12-09 12:53:52.963590$GAGSA,A,3,04,19,21,27,,,,,,,,,1.1,0.6,0.9*26
###2023-12-09 12:53:52.965235$GBGSA,A,3,14,24,25,26,33,,,,,,,,1.1,0.6,0.9*2F
###2023-12-09 12:53:52.967579$GPGSV,2,1,08,03,36,266,43,04,29,311,43,16,46,211,43,26,76,209,47*77
###2023-12-09 12:53:52.969916$GPGSV,2,2,08,28,52,067,44,29,25,064,42,31,70,029,47,32,22,138,43*74
###2023-12-09 12:53:52.972252$GLGSV,2,1,06,65,20,328,43,71,45,172,47,72,72,285,46,73,39,039,47*65
###2023-12-09 12:53:52.974000$GLGSV,2,2,06,74,71,324,43,75,29,249,42,,,,,,,,*64
###2023-12-09 12:53:52.976344$GAGSV,1,1,04,04,26,312,42,19,85,252,40,21,84,154,46,27,36,048,44*6F
###2023-12-09 12:53:52.978693$GBGSV,2,1,05,14,47,194,45,24,76,016,49,25,38,259,45,26,29,061,44*60
###2023-12-09 12:53:52.980149$GBGSV,2,2,05,33,60,238,46,,,,,,,,,,,,*53
###2023-12-09 12:53:52.981470$GNVTG,299.02,T,,M,0.76,N,1.40,K,A*27
###2023-12-09 12:53:52.983128$GNGST,175352.10,18.000,,,,0.075,0.067,0.160*5C
###2023-12-09 12:53:52.984423$GNZDA,175352.10,09,12,2023,00,00*77
###2023-12-09 12:53:52.985061$GNEBP,,,,,,M*13
###2023-12-09 12:53:53.154046$GNGGA,175352.30,4138.0597954,N,07032.3909515,W,1,24,0.6,13.503,M,-29.744,M,0.0,*56
###2023-12-09 12:53:53.354118$GNGGA,175352.50,4138.0597941,N,07032.3909502,W,1,24,0.6,13.502,M,-29.744,M,0.0,*53
###2023-12-09 12:53:53.553880$GNGGA,175352.70,4138.0598020,N,07032.3909705,W,1,24,0.6,13.499,M,-29.744,M,0.0,*56
###2023-12-09 12:53:53.753727$GNGGA,175352.90,4138.0598212,N,07032.3910130,W,1,24,0.6,13.490,M,-29.744,M,0.0,*5A
###2023-12-09 12:53:53.954402$GNRMC,175353.10,A,4138.0598379,N,07032.3910516,W,0.54,299.02,091223,,,A*57
###2023-12-09 12:53:53.957317$GNGGA,175353.10,4138.0598379,N,07032.3910516,W,1,24,0.6,13.489,M,-29.744,M,0.0,*57
###2023-12-09 12:53:53.959195$GPGSA,A,3,03,04,16,26,28,29,31,32,,,,,1.1,0.6,0.9*3B
###2023-12-09 12:53:53.960916$GLGSA,A,3,65,71,72,73,74,75,,,,,,,1.1,0.6,0.9*24
###2023-12-09 12:53:53.962501$GAGSA,A,3,04,19,21,27,,,,,,,,,1.1,0.6,0.9*26
###2023-12-09 12:53:53.964172$GBGSA,A,3,14,24,25,26,33,,,,,,,,1.1,0.6,0.9*2F
###2023-12-09 12:53:53.966511$GPGSV,2,1,08,03,36,266,43,04,29,311,44,16,46,211,43,26,76,209,48*7F
###2023-12-09 12:53:53.968881$GPGSV,2,2,08,28,52,067,44,29,25,064,43,31,70,029,48,32,22,138,44*7D
###2023-12-09 12:53:53.971241$GLGSV,2,1,06,65,20,328,42,71,45,172,47,72,72,285,46,73,39,039,47*64
###2023-12-09 12:53:53.972994$GLGSV,2,2,06,74,71,324,43,75,29,249,42,,,,,,,,*64
###2023-12-09 12:53:53.975346$GAGSV,1,1,04,04,26,312,42,19,85,243,40,21,84,154,46,27,36,048,44*6F
###2023-12-09 12:53:53.977685$GBGSV,2,1,05,14,47,194,45,24,76,016,49,25,38,259,45,26,29,061,44*60
###2023-12-09 12:53:53.979156$GBGSV,2,2,05,33,60,238,47,,,,,,,,,,,,*52
###2023-12-09 12:53:53.980482$GNVTG,299.02,T,,M,0.54,N,1.01,K,A*22
###2023-12-09 12:53:53.982132$GNGST,175353.10,18.000,,,,0.076,0.067,0.160*5E
###2023-12-09 12:53:53.983443$GNZDA,175353.10,09,12,2023,00,00*76
###2023-12-09 12:53:53.984082$GNEBP,,,,,,M*13
###2023-12-09 12:53:54.153005$GNGGA,175353.30,4138.0598466,N,07032.3910774,W,1,24,0.6,13.499,M,-29.744,M,0.0,*5B
###2023-12-09 12:53:54.353897$GNGGA,175353.50,4138.0598551,N,07032.3910985,W,1,24,0.6,13.512,M,-29.744,M,0.0,*5A
###2023-12-09 12:53:54.553770$GNGGA,175353.70,4138.0598668,N,07032.3911220,W,1,24,0.6,13.505,M,-29.744,M,0.0,*52
###2023-12-09 12:53:54.753916$GNGGA,175353.90,4138.0598773,N,07032.3911471,W,1,24,0.6,13.495,M,-29.744,M,0.0,*5D
###2023-12-09 12:53:54.954328$GNRMC,175354.10,A,4138.0598914,N,07032.3911811,W,0.64,299.02,091223,,,A*59
###2023-12-09 12:53:54.957236$GNGGA,175354.10,4138.0598914,N,07032.3911811,W,1,24,0.6,13.503,M,-29.744,M,0.0,*59
###2023-12-09 12:53:54.959118$GPGSA,A,3,03,04,16,26,28,29,31,32,,,,,1.1,0.6,0.9*3B
###2023-12-09 12:53:54.960843$GLGSA,A,3,65,71,72,73,74,75,,,,,,,1.1,0.6,0.9*24
###2023-12-09 12:53:54.962430$GAGSA,A,3,04,19,21,27,,,,,,,,,1.1,0.6,0.9*26
###2023-12-09 12:53:54.964096$GBGSA,A,3,14,24,25,26,33,,,,,,,,1.1,0.6,0.9*2F
###2023-12-09 12:53:54.966433$GPGSV,2,1,08,03,36,266,43,04,29,311,43,16,46,211,43,26,76,209,47*77
###2023-12-09 12:53:54.968789$GPGSV,2,2,08,28,52,067,45,29,25,064,44,31,70,029,48,32,22,138,44*7B
###2023-12-09 12:53:54.971138$GLGSV,2,1,06,65,20,328,40,71,45,172,47,72,72,285,46,73,39,039,47*66
###2023-12-09 12:53:54.972889$GLGSV,2,2,06,74,71,324,43,75,29,249,41,,,,,,,,*67
###2023-12-09 12:53:54.975230$GAGSV,1,1,04,04,26,312,40,19,85,243,40,21,84,154,45,27,36,048,44*6E
###2023-12-09 12:53:54.977561$GBGSV,2,1,05,14,47,194,44,24,76,016,47,25,38,259,44,26,29,061,43*69
###2023-12-09 12:53:54.979029$GBGSV,2,2,05,33,60,238,45,,,,,,,,,,,,*50
###2023-12-09 12:53:54.980356$GNVTG,299.02,T,,M,0.64,N,1.19,K,A*28
###2023-12-09 12:53:54.982007$GNGST,175354.10,18.000,,,,0.076,0.067,0.160*59
###2023-12-09 12:53:54.983312$GNZDA,175354.10,09,12,2023,00,00*71
###2023-12-09 12:53:54.983951$GNEBP,,,,,,M*13
###2023-12-09 12:53:55.153010$GNGGA,175354.30,4138.0599093,N,07032.3912248,W,1,24,0.6,13.515,M,-29.744,M,0.0,*5E
###2023-12-09 12:53:55.354036$GNGGA,175354.50,4138.0599213,N,07032.3912568,W,1,24,0.6,13.521,M,-29.744,M,0.0,*50
###2023-12-09 12:53:55.553766$GNGGA,175354.70,4138.0599236,N,07032.3912665,W,1,24,0.6,13.508,M,-29.744,M,0.0,*50
###2023-12-09 12:53:55.753737$GNGGA,175354.90,4138.0599280,N,07032.3912849,W,1,24,0.6,13.505,M,-29.744,M,0.0,*5E
###2023-12-09 12:53:55.954316$GNRMC,175355.10,A,4138.0599472,N,07032.3913311,W,0.93,299.02,091223,,,A*55
###2023-12-09 12:53:55.957214$GNGGA,175355.10,4138.0599472,N,07032.3913311,W,1,24,0.6,13.521,M,-29.744,M,0.0,*5D
###2023-12-09 12:53:55.959102$GPGSA,A,3,03,04,16,26,28,29,31,32,,,,,1.1,0.6,0.9*3B
###2023-12-09 12:53:55.960822$GLGSA,A,3,65,71,72,73,74,75,,,,,,,1.1,0.6,0.9*24
###2023-12-09 12:53:55.962415$GAGSA,A,3,04,19,21,27,,,,,,,,,1.1,0.6,0.9*26
###2023-12-09 12:53:55.964083$GBGSA,A,3,14,24,25,26,33,,,,,,,,1.1,0.6,0.9*2F
###2023-12-09 12:53:55.966414$GPGSV,2,1,08,03,36,266,43,04,29,311,42,16,46,211,43,26,76,209,47*76
###2023-12-09 12:53:55.968769$GPGSV,2,2,08,28,52,067,45,29,25,064,44,31,70,029,47,32,22,138,45*75
###2023-12-09 12:53:55.971134$GLGSV,2,1,06,65,20,328,40,71,45,172,47,72,72,285,46,73,39,039,47*66
###2023-12-09 12:53:55.972897$GLGSV,2,2,06,74,71,324,42,75,29,249,42,,,,,,,,*65
###2023-12-09 12:53:55.975249$GAGSV,1,1,04,04,27,312,41,19,85,243,40,21,84,154,46,27,36,048,45*6C
###2023-12-09 12:53:55.977593$GBGSV,2,1,05,14,47,194,44,24,76,016,47,25,38,259,43,26,29,061,44*69
###2023-12-09 12:53:55.979062$GBGSV,2,2,05,33,60,238,45,,,,,,,,,,,,*50
###2023-12-09 12:53:55.980389$GNVTG,299.02,T,,M,0.93,N,1.73,K,A*2C
###2023-12-09 12:53:55.982047$GNGST,175355.10,18.000,,,,0.076,0.067,0.160*58
###2023-12-09 12:53:55.983354$GNZDA,175355.10,09,12,2023,00,00*70
###2023-12-09 12:53:55.983996$GNEBP,,,,,,M*13
###2023-12-09 12:53:56.153068$GNGGA,175355.30,4138.0599720,N,07032.3913861,W,1,24,0.6,13.525,M,-29.744,M,0.0,*53
###2023-12-09 12:53:56.353791$GNGGA,175355.50,4138.0599829,N,07032.3914162,W,1,24,0.6,13.517,M,-29.744,M,0.0,*5F
###2023-12-09 12:53:56.553668$GNGGA,175355.70,4138.0599784,N,07032.3914201,W,1,24,0.6,13.507,M,-29.744,M,0.0,*52
###2023-12-09 12:53:56.753634$GNGGA,175355.90,4138.0599802,N,07032.3914346,W,1,24,0.6,13.498,M,-29.744,M,0.0,*58
###2023-12-09 12:53:56.959275$GNRMC,175356.10,A,4138.0600029,N,07032.3914847,W,0.97,299.02,091223,,,A*54
###2023-12-09 12:53:56.962132$GNGGA,175356.10,4138.0600029,N,07032.3914847,W,1,24,0.6,13.517,M,-29.744,M,0.0,*5D
###2023-12-09 12:53:56.964010$GPGSA,A,3,03,04,16,26,28,29,31,32,,,,,1.1,0.6,0.9*3B
###2023-12-09 12:53:56.965730$GLGSA,A,3,65,71,72,73,74,75,,,,,,,1.1,0.6,0.9*24
