###2023-12-09 12:40:45.975568$GNZDA,174045.10,09,12,2023,00,00*73
###2023-12-09 12:40:45.976366$GNEBP,,,,,,M*13
###2023-12-09 12:40:46.139522$GNGGA,174045.30,4138.0541016,N,07032.3813372,W,1,23,0.7,13.581,M,-29.744,M,0.0,*57
###2023-12-09 12:40:46.340978$GNGGA,174045.50,4138.0541785,N,07032.3811970,W,1,23,0.7,13.577,M,-29.744,M,0.0,*5F
###2023-12-09 12:40:46.543704$GNGGA,174045.70,4138.0542765,N,07032.3810908,W,1,23,0.7,13.610,M,-29.744,M,0.0,*5C
###2023-12-09 12:40:46.738807$GNGGA,174045.90,4138.0543701,N,07032.3809648,W,1,23,0.7,13.615,M,-29.744,M,0.0,*57
###2023-12-09 12:40:46.942949$GNRMC,174046.10,A,4138.0544542,N,07032.3808254,W,2.29,46.48,091223,,,A*61
###2023-12-09 12:40:46.946405$GNGGA,174046.10,4138.0544542,N,07032.3808254,W,1,23,0.7,13.564,M,-29.744,M,0.0,*53
###2023-12-09 12:40:46.948730$GPGSA,A,3,03,04,16,26,28,29,31,32,,,,,1.2,0.7,1.0*31
###2023-12-09 12:40:46.950770$GLGSA,A,3,71,72,73,74,75,,,,,,,,1.2,0.7,1.0*2D
###2023-12-09 12:40:46.952689$GAGSA,A,3,04,19,21,27,,,,,,,,,1.2,0.7,1.0*2C
###2023-12-09 12:40:46.954685$GBGSA,A,3,14,24,25,26,33,,,,,,,,1.2,0.7,1.0*25
###2023-12-09 12:40:46.957480$GPGSV,2,1,08,03,38,274,42,04,24,311,42,16,39,208,46,26,69,207,48*7D
###2023-12-09 12:40:46.960298$GPGSV,2,2,08,28,56,059,44,29,25,071,41,31,73,010,46,32,28,135,45*73
###2023-12-09 12:40:46.963115$GLGSV,2,1,05,71,54,170,48,72,68,305,45,73,45,035,44,74,71,299,42*60
###2023-12-09 12:40:46.964871$GLGSV,2,2,05,75,24,243,45,,,,,,,,,,,,*50
###2023-12-09 12:40:46.967692$GAGSV,1,1,04,04,23,311,41,19,83,293,40,21,80,172,46,27,40,049,41*64
###2023-12-09 12:40:46.970497$GBGSV,2,1,05,14,52,196,44,24,80,355,47,25,34,254,43,26,33,058,43*65
###2023-12-09 12:40:46.972255$GBGSV,2,2,05,33,62,250,47,,,,,,,,,,,,*5E
###2023-12-09 12:40:46.973804$GNVTG,46.48,T,,M,2.29,N,4.25,K,A*17
###2023-12-09 12:40:46.975808$GNGST,174046.10,18.000,,,,0.079,0.070,0.170*50
###2023-12-09 12:40:46.977367$GNZDA,174046.10,09,12,2023,00,00*70
###2023-12-09 12:40:46.978140$GNEBP,,,,,,M*13
###2023-12-09 12:40:47.141624$GNGGA,174046.30,4138.0545560,N,07032.3807298,W,1,23,0.7,13.575,M,-29.744,M,0.0,*5F
###2023-12-09 12:40:47.341407$GNGGA,174046.50,4138.0546732,N,07032.3806521,W,1,23,0.7,13.610,M,-29.744,M,0.0,*5B
###2023-12-09 12:40:47.542737$GNGGA,174046.70,4138.0547737,N,07032.3805308,W,1,23,0.7,13.609,M,-29.744,M,0.0,*5B
###2023-12-09 12:40:47.739884$GNGGA,174046.90,4138.0548618,N,07032.3803902,W,1,23,0.7,13.592,M,-29.744,M,0.0,*51
###2023-12-09 12:40:47.941426$GNRMC,174047.10,A,4138.0549729,N,07032.3802816,W,2.57,26.49,091223,,,A*6A
###2023-12-09 12:40:47.944289$GNGGA,174047.10,4138.0549729,N,07032.3802816,W,1,23,0.7,13.591,M,-29.744,M,0.0,*5C
###2023-12-09 12:40:47.946136$GPGSA,A,3,03,04,16,26,28,29,31,32,,,,,1.2,0.7,1.0*31
###2023-12-09 12:40:47.947823$GLGSA,A,3,71,72,73,74,75,,,,,,,,1.2,0.7,1.0*2D
###2023-12-09 12:40:47.949433$GAGSA,A,3,04,19,21,27,,,,,,,,,1.2,0.7,1.0*2C
###2023-12-09 12:40:47.951105$GBGSA,A,3,14,24,25,26,33,,,,,,,,1.2,0.7,1.0*25
###2023-12-09 12:40:47.953435$GPGSV,2,1,08,03,38,274,43,04,24,311,41,16,39,208,46,26,69,207,48*7F
###2023-12-09 12:40:47.955781$GPGSV,2,2,08,28,56,059,43,29,25,071,42,31,73,010,46,32,28,135,45*77
###2023-12-09 12:40:47.958108$GLGSV,2,1,05,71,54,170,49,72,68,305,45,73,45,035,44,74,71,299,42*61
###2023-12-09 12:40:47.959580$GLGSV,2,2,05,75,24,243,45,,,,,,,,,,,,*50
###2023-12-09 12:40:47.961918$GAGSV,1,1,04,04,23,311,40,19,83,293,40,21,80,172,46,27,40,049,41*65
###2023-12-09 12:40:47.964280$GBGSV,2,1,05,14,52,196,45,24,80,355,47,25,34,254,43,26,33,058,43*64
###2023-12-09 12:40:47.965740$GBGSV,2,2,05,33,62,250,46,,,,,,,,,,,,*5F
###2023-12-09 12:40:47.967054$GNVTG,26.49,T,,M,2.57,N,4.75,K,A*1C
###2023-12-09 12:40:47.968711$GNGST,174047.10,19.000,,,,0.079,0.070,0.170*50
###2023-12-09 12:40:47.970007$GNZDA,174047.10,09,12,2023,00,00*71
###2023-12-09 12:40:47.970659$GNEBP,,,,,,M*13
###2023-12-09 12:40:48.140631$GNGGA,174047.30,4138.0551025,N,07032.3802003,W,1,23,0.7,13.591,M,-29.744,M,0.0,*50
###2023-12-09 12:40:48.341324$GNGGA,174047.50,4138.0552096,N,07032.3800842,W,1,23,0.7,13.602,M,-29.744,M,0.0,*5B
###2023-12-09 12:40:48.541713$GNGGA,174047.70,4138.0552833,N,07032.3799225,W,1,23,0.7,13.609,M,-29.744,M,0.0,*51
###2023-12-09 12:40:48.740977$GNGGA,174047.90,4138.0553530,N,07032.3797717,W,1,23,0.7,13.586,M,-29.744,M,0.0,*5E
###2023-12-09 12:40:48.942821$GNRMC,174048.10,A,4138.0554711,N,07032.3796731,W,2.66,26.17,091223,,,A*63
###2023-12-09 12:40:48.945687$GNGGA,174048.10,4138.0554711,N,07032.3796731,W,1,23,0.7,13.603,M,-29.744,M,0.0,*54
###2023-12-09 12:40:48.947606$GPGSA,A,3,03,04,16,26,28,29,31,32,,,,,1.2,0.7,1.0*31
###2023-12-09 12:40:48.949296$GLGSA,A,3,71,72,73,74,75,,,,,,,,1.2,0.7,1.0*2D
###2023-12-09 12:40:48.950902$GAGSA,A,3,04,19,21,27,,,,,,,,,1.2,0.7,1.0*2C
###2023-12-09 12:40:48.952553$GBGSA,A,3,14,24,25,26,33,,,,,,,,1.2,0.7,1.0*25
###2023-12-09 12:40:48.954901$GPGSV,2,1,08,03,38,274,44,04,24,311,41,16,39,208,45,26,69,207,48*7B
###2023-12-09 12:40:48.957238$GPGSV,2,2,08,28,56,059,44,29,25,071,42,31,73,010,47,32,28,135,44*70
###2023-12-09 12:40:48.959595$GLGSV,2,1,05,71,54,170,49,72,68,305,45,73,45,035,44,74,71,299,42*61
###2023-12-09 12:40:48.961051$GLGSV,2,2,05,75,24,243,43,,,,,,,,,,,,*56
###2023-12-09 12:40:48.963385$GAGSV,1,1,04,04,23,311,42,19,83,293,40,21,80,172,46,27,40,049,41*67
###2023-12-09 12:40:48.965728$GBGSV,2,1,05,14,52,196,46,24,80,355,48,25,34,254,46,26,33,058,45*6B
###2023-12-09 12:40:48.967208$GBGSV,2,2,05,33,62,250,48,,,,,,,,,,,,*51
###2023-12-09 12:40:48.968505$GNVTG,26.17,T,,M,2.66,N,4.93,K,A*1D
###2023-12-09 12:40:48.970155$GNGST,174048.10,18.000,,,,0.079,0.070,0.170*5E
###2023-12-09 12:40:48.971463$GNZDA,174048.10,09,12,2023,00,00*7E
###2023-12-09 12:40:48.972104$GNEBP,,,,,,M*13
###2023-12-09 12:40:49.140888$GNGGA,174048.30,4138.0555898,N,07032.3795610,W,1,23,0.7,13.596,M,-29.744,M,0.0,*57
###2023-12-09 12:40:49.343612$GNGGA,174048.50,4138.0556577,N,07032.3793898,W,1,23,0.7,13.617,M,-29.744,M,0.0,*5C
###2023-12-09 12:40:49.542734$GNGGA,174048.70,4138.0557012,N,07032.3792051,W,1,23,0.7,13.597,M,-29.744,M,0.0,*5E
###2023-12-09 12:40:49.741039$GNGGA,174048.90,4138.0558092,N,07032.3790722,W,1,23,0.7,13.614,M,-29.744,M,0.0,*5E
###2023-12-09 12:40:49.942725$GNRMC,174049.10,A,4138.0559323,N,07032.3789486,W,2.64,47.74,091223,,,A*6B
###2023-12-09 12:40:49.945580$GNGGA,174049.10,4138.0559323,N,07032.3789486,W,1,23,0.7,13.604,M,-29.744,M,0.0,*5B
###2023-12-09 12:40:49.947471$GPGSA,A,3,03,04,16,26,28,29,31,32,,,,,1.2,0.7,1.0*31
###2023-12-09 12:40:49.949137$GLGSA,A,3,71,72,73,74,75,,,,,,,,1.2,0.7,1.0*2D
###2023-12-09 12:40:49.950739$GAGSA,A,3,04,19,21,27,,,,,,,,,1.2,0.7,1.0*2C
###2023-12-09 12:40:49.952390$GBGSA,A,3,14,24,25,26,33,,,,,,,,1.2,0.7,1.0*25
###2023-12-09 12:40:49.954733$GPGSV,2,1,08,03,38,274,44,04,24,311,44,16,39,208,43,26,69,207,47*77
###2023-12-09 12:40:49.957073$GPGSV,2,2,08,28,56,059,43,29,25,071,39,31,73,010,47,32,28,135,42*7D
###2023-12-09 12:40:49.959419$GLGSV,2,1,05,71,54,170,47,72,68,305,46,73,45,035,45,74,71,299,43*6C
###2023-12-09 12:40:49.960875$GLGSV,2,2,05,75,24,243,45,,,,,,,,,,,,*50
###2023-12-09 12:40:49.963214$GAGSV,1,1,04,04,23,311,43,19,83,292,40,21,80,172,45,27,39,049,41*6A
###2023-12-09 12:40:49.965546$GBGSV,2,1,05,14,52,196,45,24,80,355,49,25,34,254,46,26,33,058,44*68
###2023-12-09 12:40:49.967015$GBGSV,2,2,05,33,62,250,48,,,,,,,,,,,,*51
###2023-12-09 12:40:49.968307$GNVTG,47.74,T,,M,2.64,N,4.90,K,A*1E
###2023-12-09 12:40:49.969955$GNGST,174049.10,18.000,,,,0.079,0.070,0.170*5F
###2023-12-09 12:40:49.971301$GNZDA,174049.10,09,12,2023,00,00*7F
###2023-12-09 12:40:49.971944$GNEBP,,,,,,M*13
###2023-12-09 12:40:50.140551$GNGGA,174049.30,4138.0560052,N,07032.3787771,W,1,23,0.7,13.610,M,-29.744,M,0.0,*56
###2023-12-09 12:40:50.342243$GNGGA,174049.50,4138.0560541,N,07032.3785718,W,1,23,0.7,13.623,M,-29.744,M,0.0,*5A
###2023-12-09 12:40:50.547505$GNGGA,174049.70,4138.0561457,N,07032.3784049,W,1,23,0.7,13.624,M,-29.744,M,0.0,*5A
###2023-12-09 12:40:50.742524$GNGGA,174049.90,4138.0562715,N,07032.3782787,W,1,23,0.7,13.628,M,-29.744,M,0.0,*5D
###2023-12-09 12:40:50.944307$GNRMC,174050.10,A,4138.0563727,N,07032.3781203,W,3.01,65.03,091223,,,A*6B
###2023-12-09 12:40:50.948092$GNGGA,174050.10,4138.0563727,N,07032.3781203,W,1,23,0.7,13.615,M,-29.744,M,0.0,*59
###2023-12-09 12:40:50.950372$GPGSA,A,3,03,04,16,26,28,29,31,32,,,,,1.2,0.7,1.0*31
###2023-12-09 12:40:50.952391$GLGSA,A,3,71,72,73,74,75,,,,,,,,1.2,0.7,1.0*2D
###2023-12-09 12:40:50.954306$GAGSA,A,3,04,19,21,27,,,,,,,,,1.2,0.7,1.0*2C
###2023-12-09 12:40:50.956313$GBGSA,A,3,14,24,25,26,33,,,,,,,,1.2,0.7,1.0*25
###2023-12-09 12:40:50.959138$GPGSV,2,1,08,03,38,274,45,04,24,311,44,16,39,208,43,26,69,207,47*76
###2023-12-09 12:40:50.961956$GPGSV,2,2,08,28,56,059,43,29,25,071,39,31,73,010,47,32,28,135,41*7E
###2023-12-09 12:40:50.964844$GLGSV,2,1,05,71,54,170,47,72,68,305,47,73,45,035,44,74,71,299,43*6C
###2023-12-09 12:40:50.966633$GLGSV,2,2,05,75,24,243,46,,,,,,,,,,,,*53
