###2023-12-09 13:16:24.178208$GNGGA,181623.30,4138.0747726,N,07032.2756122,W,1,24,0.7,13.241,M,-29.742,M,0.0,*59
###2023-12-09 13:16:24.381540$GNGGA,181623.50,4138.0749757,N,07032.2756061,W,1,24,0.7,13.232,M,-29.742,M,0.0,*55
###2023-12-09 13:16:24.579163$GNGGA,181623.70,4138.0751774,N,07032.2756067,W,1,24,0.7,13.239,M,-29.742,M,0.0,*52
###2023-12-09 13:16:24.783629$GNGGA,181623.90,4138.0753788,N,07032.2756096,W,1,24,0.7,13.236,M,-29.742,M,0.0,*5C
###2023-12-09 13:16:24.988158$GNRMC,181624.10,A,4138.0755773,N,07032.2756198,W,3.58,356.73,091223,,,A*50
###2023-12-09 13:16:24.993977$GNGGA,181624.10,4138.0755773,N,07032.2756198,W,1,24,0.7,13.235,M,-29.742,M,0.0,*5D
###2023-12-09 13:16:24.996491$GPGSA,A,3,03,04,16,26,28,29,31,,,,,,1.2,0.7,1.0*30
###2023-12-09 13:16:24.998898$GLGSA,A,3,65,71,72,73,74,75,,,,,,,1.2,0.7,1.0*2E
###2023-12-09 13:16:25.001121$GAGSA,A,3,04,19,21,27,,,,,,,,,1.2,0.7,1.0*2C
###2023-12-09 13:16:25.003390$GBGSA,A,3,14,24,25,26,33,35,,,,,,,1.2,0.7,1.0*23
###2023-12-09 13:16:25.006186$GPGSV,2,1,07,03,32,254,43,04,38,311,44,16,57,216,46,26,87,208,48*78
###2023-12-09 13:16:25.008634$GPGSV,2,2,07,28,44,077,44,29,24,054,40,31,65,052,46,,,,*48
###2023-12-09 13:16:25.011430$GLGSV,2,1,06,65,30,325,40,71,33,174,46,72,71,243,47,73,30,046,42*60
###2023-12-09 13:16:25.013514$GLGSV,2,2,06,74,66,355,41,75,37,260,47,,,,,,,,*67
###2023-12-09 13:16:25.016315$GAGSV,1,1,04,04,34,312,42,19,79,190,40,21,83,062,45,27,28,049,39*66
###2023-12-09 13:16:25.019114$GBGSV,2,1,06,14,36,191,45,24,69,035,49,25,45,267,48,26,22,066,44*69
###2023-12-09 13:16:25.021225$GBGSV,2,2,06,33,53,225,48,35,16,064,44,,,,,,,,*61
###2023-12-09 13:16:25.022857$GNVTG,356.73,T,,M,3.58,N,6.62,K,A*2B
###2023-12-09 13:16:25.024829$GNGST,181624.10,18.000,,,,0.096,0.069,0.170*51
###2023-12-09 13:16:25.026367$GNZDA,181624.10,09,12,2023,00,00*78
###2023-12-09 13:16:25.027148$GNEBP,,,,,,M*13
###2023-12-09 13:16:25.178533$GNGGA,181624.30,4138.0757754,N,07032.2756346,W,1,24,0.7,13.245,M,-29.742,M,0.0,*5E
###2023-12-09 13:16:25.379160$GNGGA,181624.50,4138.0759716,N,07032.2756519,W,1,24,0.7,13.246,M,-29.742,M,0.0,*5F
###2023-12-09 13:16:25.581109$GNGGA,181624.70,4138.0761676,N,07032.2756713,W,1,24,0.7,13.246,M,-29.742,M,0.0,*59
###2023-12-09 13:16:25.778648$GNGGA,181624.90,4138.0763668,N,07032.2756829,W,1,24,0.7,13.253,M,-29.742,M,0.0,*58
###2023-12-09 13:16:25.983163$GNRMC,181625.10,A,4138.0765644,N,07032.2756771,W,3.56,1.77,091223,,,A*5D
###2023-12-09 13:16:25.986623$GNGGA,181625.10,4138.0765644,N,07032.2756771,W,1,24,0.7,13.251,M,-29.742,M,0.0,*59
###2023-12-09 13:16:25.988792$GPGSA,A,3,03,04,16,26,28,29,31,,,,,,1.2,0.7,1.0*30
###2023-12-09 13:16:25.990868$GLGSA,A,3,65,71,72,73,74,75,,,,,,,1.2,0.7,1.0*2E
###2023-12-09 13:16:25.992769$GAGSA,A,3,04,19,21,27,,,,,,,,,1.2,0.7,1.0*2C
###2023-12-09 13:16:25.994837$GBGSA,A,3,14,24,25,26,33,35,,,,,,,1.2,0.7,1.0*23
###2023-12-09 13:16:25.997623$GPGSV,2,1,07,03,32,254,43,04,38,311,45,16,57,216,46,26,87,208,48*79
###2023-12-09 13:16:26.000079$GPGSV,2,2,07,28,44,077,44,29,24,054,40,31,65,052,46,,,,*48
###2023-12-09 13:16:26.002906$GLGSV,2,1,06,65,30,325,41,71,33,174,45,72,71,243,46,73,30,046,42*63
###2023-12-09 13:16:26.005010$GLGSV,2,2,06,74,66,355,41,75,37,260,47,,,,,,,,*67
###2023-12-09 13:16:26.007822$GAGSV,1,1,04,04,34,312,42,19,79,190,40,21,83,062,45,27,28,049,39*66
###2023-12-09 13:16:26.010627$GBGSV,2,1,06,14,36,191,45,24,69,035,48,25,45,267,48,26,22,066,43*6F
###2023-12-09 13:16:26.012718$GBGSV,2,2,06,33,53,225,47,35,16,064,43,,,,,,,,*69
###2023-12-09 13:16:26.014255$GNVTG,1.77,T,,M,3.56,N,6.59,K,A*28
###2023-12-09 13:16:26.016251$GNGST,181625.10,18.000,,,,0.097,0.069,0.170*51
###2023-12-09 13:16:26.017810$GNZDA,181625.10,09,12,2023,00,00*79
###2023-12-09 13:16:26.018589$GNEBP,,,,,,M*13
###2023-12-09 13:16:26.178432$GNGGA,181625.30,4138.0767612,N,07032.2756718,W,1,24,0.7,13.255,M,-29.742,M,0.0,*51
###2023-12-09 13:16:26.378936$GNGGA,181625.50,4138.0769606,N,07032.2756643,W,1,24,0.7,13.244,M,-29.742,M,0.0,*53
###2023-12-09 13:16:26.580751$GNGGA,181625.70,4138.0771615,N,07032.2756441,W,1,24,0.7,13.243,M,-29.742,M,0.0,*5D
###2023-12-09 13:16:26.781046$GNGGA,181625.90,4138.0773647,N,07032.2756171,W,1,24,0.7,13.247,M,-29.742,M,0.0,*54
###2023-12-09 13:16:26.983718$GNRMC,181626.10,A,4138.0775700,N,07032.2755806,W,3.67,7.96,091223,,,A*59
###2023-12-09 13:16:26.986599$GNGGA,181626.10,4138.0775700,N,07032.2755806,W,1,24,0.7,13.244,M,-29.742,M,0.0,*52
###2023-12-09 13:16:26.988396$GPGSA,A,3,03,04,16,26,28,29,31,,,,,,1.2,0.7,1.0*30
###2023-12-09 13:16:26.990115$GLGSA,A,3,65,71,72,73,74,75,,,,,,,1.2,0.7,1.0*2E
###2023-12-09 13:16:26.991712$GAGSA,A,3,04,19,21,27,,,,,,,,,1.2,0.7,1.0*2C
###2023-12-09 13:16:26.993436$GBGSA,A,3,14,24,25,26,33,35,,,,,,,1.2,0.7,1.0*23
###2023-12-09 13:16:26.995782$GPGSV,2,1,07,03,32,254,42,04,38,311,44,16,57,216,45,26,87,208,48*7A
###2023-12-09 13:16:26.997825$GPGSV,2,2,07,28,44,077,43,29,24,054,39,31,65,052,45,,,,*42
###2023-12-09 13:16:27.000183$GLGSV,2,1,06,65,30,325,41,71,33,174,46,72,71,243,47,73,30,046,40*63
###2023-12-09 13:16:27.001939$GLGSV,2,2,06,74,66,355,41,75,37,260,47,,,,,,,,*67
###2023-12-09 13:16:27.004283$GAGSV,1,1,04,04,34,312,43,19,79,190,40,21,83,062,46,27,28,049,39*64
###2023-12-09 13:16:27.006640$GBGSV,2,1,06,14,36,191,44,24,69,035,47,25,45,267,47,26,22,066,42*6F
###2023-12-09 13:16:27.008402$GBGSV,2,2,06,33,53,225,47,35,16,064,43,,,,,,,,*69
###2023-12-09 13:16:27.009668$GNVTG,7.96,T,,M,3.67,N,6.80,K,A*27
###2023-12-09 13:16:27.011356$GNGST,181626.10,18.000,,,,0.097,0.070,0.170*5A
###2023-12-09 13:16:27.012655$GNZDA,181626.10,09,12,2023,00,00*7A
###2023-12-09 13:16:27.013297$GNEBP,,,,,,M*13
###2023-12-09 13:16:27.181812$GNGGA,181626.30,4138.0777732,N,07032.2755499,W,1,24,0.7,13.235,M,-29.742,M,0.0,*5F
###2023-12-09 13:16:27.379277$GNGGA,181626.50,4138.0779754,N,07032.2755275,W,1,24,0.7,13.232,M,-29.742,M,0.0,*54
###2023-12-09 13:16:27.579834$GNGGA,181626.70,4138.0781790,N,07032.2755076,W,1,24,0.7,13.234,M,-29.742,M,0.0,*5E
###2023-12-09 13:16:27.780462$GNGGA,181626.90,4138.0783812,N,07032.2754891,W,1,24,0.7,13.239,M,-29.742,M,0.0,*5A
###2023-12-09 13:16:27.981470$GNRMC,181627.10,A,4138.0785826,N,07032.2754798,W,3.62,1.30,091223,,,A*5A
###2023-12-09 13:16:27.984370$GNGGA,181627.10,4138.0785826,N,07032.2754798,W,1,24,0.7,13.239,M,-29.742,M,0.0,*54
###2023-12-09 13:16:27.986172$GPGSA,A,3,03,04,16,26,28,29,31,,,,,,1.2,0.7,1.0*30
###2023-12-09 13:16:27.987904$GLGSA,A,3,65,71,72,73,74,75,,,,,,,1.2,0.7,1.0*2E
###2023-12-09 13:16:27.989491$GAGSA,A,3,04,19,21,27,,,,,,,,,1.2,0.7,1.0*2C
###2023-12-09 13:16:27.991219$GBGSA,A,3,14,24,25,26,33,35,,,,,,,1.2,0.7,1.0*23
###2023-12-09 13:16:27.993542$GPGSV,2,1,07,03,32,254,42,04,38,311,44,16,57,216,45,26,87,208,47*75
###2023-12-09 13:16:27.995594$GPGSV,2,2,07,28,44,077,45,29,24,054,41,31,65,052,45,,,,*4B
###2023-12-09 13:16:27.997927$GLGSV,2,1,06,65,30,325,41,71,33,174,45,72,71,243,46,73,30,046,42*63
###2023-12-09 13:16:27.999692$GLGSV,2,2,06,74,66,355,41,75,37,260,47,,,,,,,,*67
###2023-12-09 13:16:28.002020$GAGSV,1,1,04,04,34,312,42,19,79,190,40,21,83,062,44,27,28,049,40*69
###2023-12-09 13:16:28.004367$GBGSV,2,1,06,14,36,191,44,24,69,035,48,25,45,267,48,26,22,066,43*6E
###2023-12-09 13:16:28.006115$GBGSV,2,2,06,33,53,225,47,35,16,064,44,,,,,,,,*6E
###2023-12-09 13:16:28.007388$GNVTG,1.30,T,,M,3.62,N,6.70,K,A*27
###2023-12-09 13:16:28.009034$GNGST,181627.10,18.000,,,,0.097,0.070,0.170*5B
###2023-12-09 13:16:28.010321$GNZDA,181627.10,09,12,2023,00,00*7B
###2023-12-09 13:16:28.010967$GNEBP,,,,,,M*13
###2023-12-09 13:16:28.178320$GNGGA,181627.30,4138.0787828,N,07032.2754768,W,1,24,0.7,13.236,M,-29.742,M,0.0,*5A
###2023-12-09 13:16:28.379595$GNGGA,181627.50,4138.0789831,N,07032.2754656,W,1,24,0.7,13.221,M,-29.742,M,0.0,*50
###2023-12-09 13:16:28.580242$GNGGA,181627.70,4138.0791830,N,07032.2754418,W,1,24,0.7,13.209,M,-29.742,M,0.0,*58
###2023-12-09 13:16:28.778287$GNGGA,181627.90,4138.0793836,N,07032.2754349,W,1,24,0.7,13.210,M,-29.742,M,0.0,*59
###2023-12-09 13:16:28.983682$GNRMC,181628.10,A,4138.0795916,N,07032.2754310,W,3.83,3.05,091223,,,A*59
###2023-12-09 13:16:28.986552$GNGGA,181628.10,4138.0795916,N,07032.2754310,W,1,24,0.7,13.215,M,-29.742,M,0.0,*52
###2023-12-09 13:16:28.988625$GPGSA,A,3,03,04,16,26,28,29,31,,,,,,1.2,0.7,1.0*30
###2023-12-09 13:16:28.990357$GLGSA,A,3,65,71,72,73,74,75,,,,,,,1.2,0.7,1.0*2E
###2023-12-09 13:16:28.991962$GAGSA,A,3,04,19,21,27,,,,,,,,,1.2,0.7,1.0*2C
###2023-12-09 13:16:28.993686$GBGSA,A,3,14,24,25,26,33,35,,,,,,,1.2,0.7,1.0*23
###2023-12-09 13:16:28.996040$GPGSV,2,1,07,03,32,254,43,04,38,311,45,16,57,216,46,26,87,208,48*79
###2023-12-09 13:16:28.998084$GPGSV,2,2,07,28,44,077,44,29,24,054,41,31,65,052,46,,,,*49
###2023-12-09 13:16:29.000428$GLGSV,2,1,06,65,30,325,41,71,33,174,45,72,71,243,46,73,30,046,41*60
###2023-12-09 13:16:29.002171$GLGSV,2,2,06,74,66,355,41,75,37,260,48,,,,,,,,*68
###2023-12-09 13:16:29.004508$GAGSV,1,1,04,04,34,312,43,19,79,190,40,21,83,062,46,27,28,049,39*64
###2023-12-09 13:16:29.006850$GBGSV,2,1,06,14,36,191,44,24,68,036,48,25,45,267,48,26,22,066,42*6D
