###2023-12-09 12:57:16.967932$GAGSA,A,3,04,19,21,27,,,,,,,,,1.1,0.6,0.9*26
###2023-12-09 12:57:16.969603$GBGSA,A,3,14,24,25,26,33,,,,,,,,1.1,0.6,0.9*2F
###2023-12-09 12:57:16.971947$GPGSV,2,1,08,03,36,264,42,04,31,311,43,16,47,211,47,26,77,209,48*76
###2023-12-09 12:57:16.974281$GPGSV,2,2,08,28,51,068,45,29,25,064,43,31,70,031,47,32,21,139,42*72
###2023-12-09 12:57:16.976625$GLGSV,2,1,06,65,22,328,42,71,43,172,46,72,73,277,46,73,37,040,43*69
###2023-12-09 12:57:16.978364$GLGSV,2,2,06,74,70,331,42,75,30,251,42,,,,,,,,*61
###2023-12-09 12:57:16.980713$GAGSV,1,1,04,04,27,312,41,19,85,234,40,21,85,141,46,27,34,048,42*6C
###2023-12-09 12:57:16.983060$GBGSV,2,1,05,14,45,193,44,24,75,020,48,25,39,260,44,26,27,062,44*64
###2023-12-09 12:57:16.984522$GBGSV,2,2,05,33,59,235,48,,,,,,,,,,,,*5A
###2023-12-09 12:57:16.985837$GNVTG,122.10,T,,M,2.37,N,4.39,K,A*2B
###2023-12-09 12:57:16.987506$GNGST,175716.10,18.000,,,,0.081,0.068,0.160*5C
###2023-12-09 12:57:16.988799$GNZDA,175716.10,09,12,2023,00,00*73
###2023-12-09 12:57:16.989436$GNEBP,,,,,,M*13
###2023-12-09 12:57:17.158796$GNGGA,175716.30,4138.0336751,N,07032.3908628,W,1,24,0.6,13.444,M,-29.745,M,0.0,*5B
###2023-12-09 12:57:17.359761$GNGGA,175716.50,4138.0335994,N,07032.3907163,W,1,24,0.6,13.439,M,-29.745,M,0.0,*54
###2023-12-09 12:57:17.558730$GNGGA,175716.70,4138.0335315,N,07032.3905686,W,1,24,0.6,13.446,M,-29.745,M,0.0,*53
###2023-12-09 12:57:17.758560$GNGGA,175716.90,4138.0334750,N,07032.3904091,W,1,24,0.6,13.446,M,-29.745,M,0.0,*58
###2023-12-09 12:57:17.958356$GNRMC,175717.10,A,4138.0334331,N,07032.3902590,W,2.10,110.71,091223,,,A*56
###2023-12-09 12:57:17.961242$GNGGA,175717.10,4138.0334331,N,07032.3902590,W,1,24,0.6,13.434,M,-29.745,M,0.0,*55
###2023-12-09 12:57:17.963111$GPGSA,A,3,03,04,16,26,28,29,31,32,,,,,1.1,0.6,0.9*3B
###2023-12-09 12:57:17.964822$GLGSA,A,3,65,71,72,73,74,75,,,,,,,1.1,0.6,0.9*24
###2023-12-09 12:57:17.966396$GAGSA,A,3,04,19,21,27,,,,,,,,,1.1,0.6,0.9*26
###2023-12-09 12:57:17.968051$GBGSA,A,3,14,24,25,26,33,,,,,,,,1.1,0.6,0.9*2F
###2023-12-09 12:57:17.970370$GPGSV,2,1,08,03,36,264,44,04,31,311,40,16,47,211,47,26,77,209,47*7C
###2023-12-09 12:57:17.972709$GPGSV,2,2,08,28,51,068,44,29,25,064,41,31,70,031,46,32,21,139,40*72
###2023-12-09 12:57:17.975047$GLGSV,2,1,06,65,22,328,40,71,43,172,46,72,73,277,46,73,37,040,46*6E
###2023-12-09 12:57:17.976789$GLGSV,2,2,06,74,70,331,42,75,30,251,45,,,,,,,,*66
###2023-12-09 12:57:17.979113$GAGSV,1,1,04,04,27,312,39,19,85,234,40,21,85,141,46,27,34,048,43*62
###2023-12-09 12:57:17.981427$GBGSV,2,1,05,14,45,193,45,24,75,020,48,25,39,260,46,26,27,062,43*60
###2023-12-09 12:57:17.982882$GBGSV,2,2,05,33,59,235,48,,,,,,,,,,,,*5A
###2023-12-09 12:57:17.984198$GNVTG,110.71,T,,M,2.10,N,3.89,K,A*24
###2023-12-09 12:57:17.985842$GNGST,175717.10,18.000,,,,0.080,0.068,0.160*5C
###2023-12-09 12:57:17.987140$GNZDA,175717.10,09,12,2023,00,00*72
###2023-12-09 12:57:17.987778$GNEBP,,,,,,M*13
###2023-12-09 12:57:18.158842$GNGGA,175717.30,4138.0333940,N,07032.3901069,W,1,24,0.6,13.445,M,-29.745,M,0.0,*5A
###2023-12-09 12:57:18.358538$GNGGA,175717.50,4138.0333512,N,07032.3899408,W,1,24,0.6,13.430,M,-29.745,M,0.0,*56
###2023-12-09 12:57:18.559483$GNGGA,175717.70,4138.0333197,N,07032.3897962,W,1,24,0.6,13.425,M,-29.745,M,0.0,*56
###2023-12-09 12:57:18.758438$GNGGA,175717.90,4138.0333108,N,07032.3896411,W,1,24,0.6,13.439,M,-29.745,M,0.0,*5B
###2023-12-09 12:57:18.959465$GNRMC,175718.10,A,4138.0332950,N,07032.3894807,W,1.98,101.31,091223,,,A*58
###2023-12-09 12:57:18.962331$GNGGA,175718.10,4138.0332950,N,07032.3894807,W,1,24,0.6,13.425,M,-29.745,M,0.0,*5C
###2023-12-09 12:57:18.964210$GPGSA,A,3,03,04,16,26,28,29,31,32,,,,,1.1,0.6,0.9*3B
###2023-12-09 12:57:18.965925$GLGSA,A,3,65,71,72,73,74,75,,,,,,,1.1,0.6,0.9*24
###2023-12-09 12:57:18.967525$GAGSA,A,3,04,19,21,27,,,,,,,,,1.1,0.6,0.9*26
###2023-12-09 12:57:18.969166$GBGSA,A,3,14,24,25,26,33,,,,,,,,1.1,0.6,0.9*2F
###2023-12-09 12:57:18.971505$GPGSV,2,1,08,03,36,264,45,04,31,311,42,16,47,211,47,26,77,209,49*71
###2023-12-09 12:57:18.973825$GPGSV,2,2,08,28,51,068,44,29,25,064,41,31,70,031,47,32,21,139,41*72
###2023-12-09 12:57:18.976160$GLGSV,2,1,06,65,22,328,41,71,43,172,46,72,73,277,46,73,37,040,45*6C
###2023-12-09 12:57:18.977904$GLGSV,2,2,06,74,70,331,42,75,30,251,45,,,,,,,,*66
###2023-12-09 12:57:18.980242$GAGSV,1,1,04,04,27,312,40,19,85,234,40,21,85,141,46,27,34,048,42*6D
###2023-12-09 12:57:18.982576$GBGSV,2,1,05,14,45,193,45,24,75,020,49,25,39,260,46,26,27,062,42*60
###2023-12-09 12:57:18.984028$GBGSV,2,2,05,33,59,235,48,,,,,,,,,,,,*5A
###2023-12-09 12:57:18.985343$GNVTG,101.31,T,,M,1.98,N,3.67,K,A*23
###2023-12-09 12:57:18.986998$GNGST,175718.10,18.000,,,,0.080,0.068,0.160*53
###2023-12-09 12:57:18.988287$GNZDA,175718.10,09,12,2023,00,00*7D
###2023-12-09 12:57:18.988922$GNEBP,,,,,,M*13
###2023-12-09 12:57:19.157644$GNGGA,175718.30,4138.0332874,N,07032.3893360,W,1,24,0.6,13.414,M,-29.745,M,0.0,*56
###2023-12-09 12:57:19.359160$GNGGA,175718.50,4138.0332952,N,07032.3891806,W,1,24,0.6,13.429,M,-29.745,M,0.0,*52
###2023-12-09 12:57:19.558343$GNGGA,175718.70,4138.0332948,N,07032.3890246,W,1,24,0.6,13.415,M,-29.745,M,0.0,*5B
###2023-12-09 12:57:19.760005$GNGGA,175718.90,4138.0333134,N,07032.3888812,W,1,24,0.6,13.410,M,-29.745,M,0.0,*50
###2023-12-09 12:57:19.963857$GNRMC,175719.10,A,4138.0333445,N,07032.3887353,W,1.94,76.69,091223,,,A*69
###2023-12-09 12:57:19.966706$GNGGA,175719.10,4138.0333445,N,07032.3887353,W,1,24,0.6,13.413,M,-29.745,M,0.0,*58
###2023-12-09 12:57:19.968554$GPGSA,A,3,03,04,16,26,28,29,31,32,,,,,1.1,0.6,0.9*3B
###2023-12-09 12:57:19.970255$GLGSA,A,3,65,71,72,73,74,75,,,,,,,1.1,0.6,0.9*24
###2023-12-09 12:57:19.971835$GAGSA,A,3,04,19,21,27,,,,,,,,,1.1,0.6,0.9*26
###2023-12-09 12:57:19.973460$GBGSA,A,3,14,24,25,26,33,,,,,,,,1.1,0.6,0.9*2F
###2023-12-09 12:57:19.975775$GPGSV,2,1,08,03,36,264,44,04,31,311,43,16,47,211,45,26,77,209,48*72
###2023-12-09 12:57:19.978088$GPGSV,2,2,08,28,51,068,44,29,25,064,42,31,70,031,46,32,21,139,43*72
###2023-12-09 12:57:19.980419$GLGSV,2,1,06,65,22,328,43,71,43,172,47,72,73,277,46,73,37,040,44*6E
###2023-12-09 12:57:19.982159$GLGSV,2,2,06,74,70,331,42,75,30,251,47,,,,,,,,*64
###2023-12-09 12:57:19.984485$GAGSV,1,1,04,04,27,312,42,19,85,234,40,21,85,141,45,27,34,048,40*6E
###2023-12-09 12:57:19.986822$GBGSV,2,1,05,14,45,193,46,24,75,020,48,25,39,260,45,26,27,062,43*60
###2023-12-09 12:57:19.988267$GBGSV,2,2,05,33,59,235,48,,,,,,,,,,,,*5A
###2023-12-09 12:57:19.989544$GNVTG,76.69,T,,M,1.94,N,3.60,K,A*14
###2023-12-09 12:57:19.991186$GNGST,175719.10,18.000,,,,0.079,0.068,0.160*54
###2023-12-09 12:57:19.992466$GNZDA,175719.10,09,12,2023,00,00*7C
###2023-12-09 12:57:19.993102$GNEBP,,,,,,M*13
###2023-12-09 12:57:20.164075$GNGGA,175719.30,4138.0333720,N,07032.3885947,W,1,24,0.6,13.415,M,-29.745,M,0.0,*51
###2023-12-09 12:57:20.374240$GNGGA,175719.50,4138.0334065,N,07032.3884430,W,1,24,0.6,13.414,M,-29.745,M,0.0,*5B
###2023-12-09 12:57:20.561912$GNGGA,175719.70,4138.0334384,N,07032.3882964,W,1,24,0.6,13.396,M,-29.745,M,0.0,*52
###2023-12-09 12:57:20.762146$GNGGA,175719.90,4138.0334881,N,07032.3881666,W,1,24,0.6,13.406,M,-29.745,M,0.0,*52
###2023-12-09 12:57:20.963522$GNRMC,175720.10,A,4138.0335436,N,07032.3880175,W,2.24,68.26,091223,,,A*6C
###2023-12-09 12:57:20.966400$GNGGA,175720.10,4138.0335436,N,07032.3880175,W,1,24,0.6,13.412,M,-29.745,M,0.0,*50
###2023-12-09 12:57:20.968271$GPGSA,A,3,03,04,16,26,28,29,31,32,,,,,1.1,0.6,0.9*3B
###2023-12-09 12:57:20.969984$GLGSA,A,3,65,71,72,73,74,75,,,,,,,1.1,0.6,0.9*24
###2023-12-09 12:57:20.971578$GAGSA,A,3,04,19,21,27,,,,,,,,,1.1,0.6,0.9*26
###2023-12-09 12:57:20.973231$GBGSA,A,3,14,24,25,26,33,,,,,,,,1.1,0.6,0.9*2F
###2023-12-09 12:57:20.975569$GPGSV,2,1,08,03,36,264,44,04,31,311,42,16,48,211,46,26,77,209,48*7F
###2023-12-09 12:57:20.977902$GPGSV,2,2,08,28,51,068,44,29,25,064,42,31,70,031,47,32,21,139,43*73
###2023-12-09 12:57:20.980246$GLGSV,2,1,06,65,22,328,44,71,43,172,48,72,73,277,46,73,37,040,44*66
###2023-12-09 12:57:20.981990$GLGSV,2,2,06,74,70,331,42,75,30,251,45,,,,,,,,*66
###2023-12-09 12:57:20.984325$GAGSV,1,1,04,04,27,312,42,19,85,234,41,21,85,141,46,27,34,048,41*6D
###2023-12-09 12:57:20.986918$GBGSV,2,1,05,14,45,193,45,24,75,020,48,25,39,260,46,26,27,062,43*60
###2023-12-09 12:57:20.988394$GBGSV,2,2,05,33,59,235,47,,,,,,,,,,,,*55
###2023-12-09 12:57:20.989688$GNVTG,68.26,T,,M,2.24,N,4.14,K,A*1C
###2023-12-09 12:57:20.991347$GNGST,175720.10,18.000,,,,0.079,0.067,0.160*51
###2023-12-09 12:57:20.992640$GNZDA,175720.10,09,12,2023,00,00*76
###2023-12-09 12:57:20.993278$GNEBP,,,,,,M*13
###2023-12-09 12:57:21.161723$GNGGA,175720.30,4138.0335795,N,07032.3878676,W,1,24,0.6,13.379,M,-29.745,M,0.0,*51
###2023-12-09 12:57:21.358552$GNGGA,175720.50,4138.0336348,N,07032.3877404,W,1,24,0.6,13.387,M,-29.745,M,0.0,*59
###2023-12-09 12:57:21.559655$GNGGA,175720.70,4138.0337077,N,07032.3875945,W,1,24,0.6,13.396,M,-29.745,M,0.0,*5F
