###2023-12-09 13:47:46.038545$GNEBP,,,,,,M*13
###2023-12-09 13:47:46.207750$GNGGA,184745.30,4138.0391986,N,07032.4384091,W,1,18,0.8,15.781,M,-29.746,M,0.0,*59
###2023-12-09 13:47:46.407678$GNGGA,184745.50,4138.0391938,N,07032.4384078,W,1,18,0.8,15.783,M,-29.746,M,0.0,*5F
###2023-12-09 13:47:46.606195$GNGGA,184745.70,4138.0391904,N,07032.4384058,W,1,18,0.8,15.785,M,-29.746,M,0.0,*56
###2023-12-09 13:47:46.805770$GNGGA,184745.90,4138.0391866,N,07032.4384037,W,1,18,0.8,15.787,M,-29.746,M,0.0,*56
###2023-12-09 13:47:47.009137$GNRMC,184746.10,A,4138.0391839,N,07032.4384019,W,0.02,243.17,091223,,,A*53
###2023-12-09 13:47:47.012014$GNGGA,184746.10,4138.0391839,N,07032.4384019,W,1,18,0.8,15.787,M,-29.746,M,0.0,*5B
###2023-12-09 13:47:47.013749$GPGSA,A,3,04,16,26,28,29,31,,,,,,,1.3,0.8,1.1*3C
###2023-12-09 13:47:47.015416$GLGSA,A,3,65,72,73,74,75,,,,,,,,1.3,0.8,1.1*27
###2023-12-09 13:47:47.016934$GAGSA,A,3,04,21,27,,,,,,,,,,1.3,0.8,1.1*2B
###2023-12-09 13:47:47.018506$GBGSA,A,3,12,24,25,35,,,,,,,,,1.3,0.8,1.1*2E
###2023-12-09 13:47:47.020838$GPGSV,2,1,06,04,51,304,50,16,73,229,40,26,77,041,43,28,33,090,44*75
###2023-12-09 13:47:47.022598$GPGSV,2,2,06,29,17,042,42,31,55,075,50,,,,,,,,*77
###2023-12-09 13:47:47.024924$GLGSV,2,1,05,65,43,312,43,72,56,213,35,73,17,056,40,74,55,024,36*65
###2023-12-09 13:47:47.026378$GLGSV,2,2,05,75,47,280,47,,,,,,,,,,,,*58
###2023-12-09 13:47:47.028420$GAGSV,1,1,03,04,43,308,45,21,72,043,40,27,19,051,41,,,,*5B
###2023-12-09 13:47:47.030760$GBGSV,1,1,04,12,19,122,41,24,58,052,47,25,54,282,45,35,16,051,35*63
###2023-12-09 13:47:47.032089$GNVTG,243.17,T,,M,0.02,N,0.04,K,A*26
###2023-12-09 13:47:47.033700$GNGST,184746.10,7.700,,,,0.210,0.120,0.320*6F
###2023-12-09 13:47:47.035001$GNZDA,184746.10,09,12,2023,00,00*78
###2023-12-09 13:47:47.035640$GNEBP,,,,,,M*13
###2023-12-09 13:47:47.208171$GNGGA,184746.30,4138.0391814,N,07032.4384001,W,1,18,0.8,15.789,M,-29.746,M,0.0,*51
###2023-12-09 13:47:47.406073$GNGGA,184746.50,4138.0391782,N,07032.4383976,W,1,18,0.8,15.791,M,-29.746,M,0.0,*50
###2023-12-09 13:47:47.605635$GNGGA,184746.70,4138.0391759,N,07032.4383963,W,1,18,0.8,15.788,M,-29.746,M,0.0,*58
###2023-12-09 13:47:47.806083$GNGGA,184746.90,4138.0391747,N,07032.4383943,W,1,18,0.8,15.796,M,-29.746,M,0.0,*54
###2023-12-09 13:47:48.007459$GNRMC,184747.10,A,4138.0391738,N,07032.4383933,W,0.02,243.17,091223,,,A*5A
###2023-12-09 13:47:48.010321$GNGGA,184747.10,4138.0391738,N,07032.4383933,W,1,18,0.8,15.796,M,-29.746,M,0.0,*52
###2023-12-09 13:47:48.012054$GPGSA,A,3,04,16,26,28,29,31,,,,,,,1.3,0.8,1.1*3C
###2023-12-09 13:47:48.013697$GLGSA,A,3,65,72,73,74,75,,,,,,,,1.3,0.8,1.1*27
###2023-12-09 13:47:48.015221$GAGSA,A,3,04,21,27,,,,,,,,,,1.3,0.8,1.1*2B
###2023-12-09 13:47:48.016794$GBGSA,A,3,12,24,25,35,,,,,,,,,1.3,0.8,1.1*2E
###2023-12-09 13:47:48.019123$GPGSV,2,1,06,04,51,304,49,16,73,229,41,26,77,041,44,28,33,090,44*7B
###2023-12-09 13:47:48.020867$GPGSV,2,2,06,29,17,042,43,31,55,075,50,,,,,,,,*76
###2023-12-09 13:47:48.023196$GLGSV,2,1,05,65,43,312,43,72,56,213,35,73,17,056,40,74,55,024,37*64
###2023-12-09 13:47:48.024646$GLGSV,2,2,05,75,47,280,47,,,,,,,,,,,,*58
###2023-12-09 13:47:48.026684$GAGSV,1,1,03,04,44,307,45,21,72,043,40,27,19,051,41,,,,*53
###2023-12-09 13:47:48.029008$GBGSV,1,1,04,12,19,122,41,24,58,052,47,25,54,282,45,35,16,051,36*60
###2023-12-09 13:47:48.030327$GNVTG,243.17,T,,M,0.02,N,0.04,K,A*26
###2023-12-09 13:47:48.031952$GNGST,184747.10,7.300,,,,0.210,0.120,0.320*6A
###2023-12-09 13:47:48.033241$GNZDA,184747.10,09,12,2023,00,00*79
###2023-12-09 13:47:48.033876$GNEBP,,,,,,M*13
###2023-12-09 13:47:48.206718$GNGGA,184747.30,4138.0391721,N,07032.4383930,W,1,18,0.8,15.796,M,-29.746,M,0.0,*5B
###2023-12-09 13:47:48.406228$GNGGA,184747.50,4138.0391696,N,07032.4383914,W,1,18,0.8,15.794,M,-29.746,M,0.0,*54
###2023-12-09 13:47:48.605450$GNGGA,184747.70,4138.0391687,N,07032.4383896,W,1,18,0.8,15.791,M,-29.746,M,0.0,*58
###2023-12-09 13:47:48.805163$GNGGA,184747.90,4138.0391655,N,07032.4383890,W,1,18,0.8,15.789,M,-29.746,M,0.0,*56
###2023-12-09 13:47:49.006927$GNRMC,184748.10,A,4138.0391626,N,07032.4383874,W,0.04,243.17,091223,,,A*5F
###2023-12-09 13:47:49.009786$GNGGA,184748.10,4138.0391626,N,07032.4383874,W,1,18,0.8,15.794,M,-29.746,M,0.0,*53
###2023-12-09 13:47:49.011524$GPGSA,A,3,04,16,26,28,29,31,,,,,,,1.3,0.8,1.1*3C
###2023-12-09 13:47:49.013171$GLGSA,A,3,65,72,73,74,75,,,,,,,,1.3,0.8,1.1*27
###2023-12-09 13:47:49.014699$GAGSA,A,3,04,21,27,,,,,,,,,,1.3,0.8,1.1*2B
###2023-12-09 13:47:49.016280$GBGSA,A,3,12,24,25,35,,,,,,,,,1.3,0.8,1.1*2E
###2023-12-09 13:47:49.018608$GPGSV,2,1,06,04,51,304,49,16,73,229,41,26,77,041,44,28,33,090,44*7B
###2023-12-09 13:47:49.020354$GPGSV,2,2,06,29,17,042,42,31,55,075,50,,,,,,,,*77
###2023-12-09 13:47:49.022688$GLGSV,2,1,05,65,43,312,43,72,56,213,35,73,17,056,40,74,55,024,37*64
###2023-12-09 13:47:49.024137$GLGSV,2,2,05,75,47,280,47,,,,,,,,,,,,*58
###2023-12-09 13:47:49.026157$GAGSV,1,1,03,04,44,307,45,21,72,043,40,27,19,051,40,,,,*52
###2023-12-09 13:47:49.028493$GBGSV,1,1,04,12,19,122,42,24,58,052,47,25,54,282,45,35,16,051,36*63
###2023-12-09 13:47:49.029820$GNVTG,243.17,T,,M,0.04,N,0.07,K,A*23
###2023-12-09 13:47:49.031438$GNGST,184748.10,7.400,,,,0.210,0.120,0.320*62
###2023-12-09 13:47:49.032725$GNZDA,184748.10,09,12,2023,00,00*76
###2023-12-09 13:47:49.033362$GNEBP,,,,,,M*13
###2023-12-09 13:47:49.205464$GNGGA,184748.30,4138.0391622,N,07032.4383860,W,1,18,0.8,15.789,M,-29.746,M,0.0,*5C
###2023-12-09 13:47:49.407543$GNGGA,184748.50,4138.0391604,N,07032.4383851,W,1,18,0.8,15.785,M,-29.746,M,0.0,*50
###2023-12-09 13:47:49.606142$GNGGA,184748.70,4138.0391588,N,07032.4383844,W,1,18,0.8,15.783,M,-29.746,M,0.0,*57
###2023-12-09 13:47:49.805527$GNGGA,184748.90,4138.0391561,N,07032.4383834,W,1,18,0.8,15.780,M,-29.746,M,0.0,*5A
###2023-12-09 13:47:50.008160$GNRMC,184749.10,A,4138.0391534,N,07032.4383818,W,0.00,243.17,091223,,,A*50
###2023-12-09 13:47:50.011018$GNGGA,184749.10,4138.0391534,N,07032.4383818,W,1,18,0.8,15.781,M,-29.746,M,0.0,*5C
###2023-12-09 13:47:50.012734$GPGSA,A,3,04,16,26,28,29,31,,,,,,,1.3,0.8,1.1*3C
###2023-12-09 13:47:50.014380$GLGSA,A,3,65,72,73,74,75,,,,,,,,1.3,0.8,1.1*27
###2023-12-09 13:47:50.015903$GAGSA,A,3,04,21,27,,,,,,,,,,1.3,0.8,1.1*2B
###2023-12-09 13:47:50.017475$GBGSA,A,3,12,24,25,35,,,,,,,,,1.3,0.8,1.1*2E
###2023-12-09 13:47:50.019810$GPGSV,2,1,06,04,51,304,49,16,73,229,40,26,77,041,44,28,33,090,44*7A
###2023-12-09 13:47:50.021553$GPGSV,2,2,06,29,17,042,42,31,55,075,50,,,,,,,,*77
###2023-12-09 13:47:50.023884$GLGSV,2,1,05,65,43,312,43,72,56,213,35,73,17,056,40,74,55,024,37*64
###2023-12-09 13:47:50.025335$GLGSV,2,2,05,75,47,280,47,,,,,,,,,,,,*58
###2023-12-09 13:47:50.027376$GAGSV,1,1,03,04,44,307,45,21,72,043,40,27,19,051,40,,,,*52
###2023-12-09 13:47:50.029700$GBGSV,1,1,04,12,19,122,41,24,58,052,46,25,54,282,45,35,16,051,35*62
###2023-12-09 13:47:50.031034$GNVTG,243.17,T,,M,0.00,N,0.00,K,A*20
###2023-12-09 13:47:50.032646$GNGST,184749.10,7.600,,,,0.210,0.120,0.320*61
###2023-12-09 13:47:50.033935$GNZDA,184749.10,09,12,2023,00,00*77
###2023-12-09 13:47:50.034582$GNEBP,,,,,,M*13
###2023-12-09 13:47:50.206814$GNGGA,184749.30,4138.0391508,N,07032.4383809,W,1,18,0.8,15.776,M,-29.746,M,0.0,*59
###2023-12-09 13:47:50.406348$GNGGA,184749.50,4138.0391506,N,07032.4383798,W,1,18,0.8,15.774,M,-29.746,M,0.0,*54
###2023-12-09 13:47:50.605775$GNGGA,184749.70,4138.0391492,N,07032.4383795,W,1,18,0.8,15.774,M,-29.746,M,0.0,*57
###2023-12-09 13:47:50.808876$GNGGA,184749.90,4138.0391487,N,07032.4383788,W,1,18,0.8,15.770,M,-29.746,M,0.0,*55
###2023-12-09 13:47:51.007927$GNRMC,184750.10,A,4138.0391464,N,07032.4383780,W,0.06,243.17,091223,,,A*54
###2023-12-09 13:47:51.010815$GNGGA,184750.10,4138.0391464,N,07032.4383780,W,1,18,0.8,15.766,M,-29.746,M,0.0,*57
###2023-12-09 13:47:51.012542$GPGSA,A,3,04,16,26,28,29,31,,,,,,,1.3,0.8,1.1*3C
###2023-12-09 13:47:51.014190$GLGSA,A,3,65,72,73,74,75,,,,,,,,1.3,0.8,1.1*27
###2023-12-09 13:47:51.015719$GAGSA,A,3,04,21,27,,,,,,,,,,1.3,0.8,1.1*2B
###2023-12-09 13:47:51.017303$GBGSA,A,3,12,24,25,35,,,,,,,,,1.3,0.8,1.1*2E
###2023-12-09 13:47:51.019631$GPGSV,2,1,06,04,51,304,49,16,73,229,40,26,77,041,44,28,33,090,44*7A
###2023-12-09 13:47:51.021629$GPGSV,2,2,06,29,17,042,42,31,55,075,50,,,,,,,,*77
###2023-12-09 13:47:51.023974$GLGSV,2,1,05,65,43,312,43,72,56,213,35,73,17,056,40,74,55,024,36*65
###2023-12-09 13:47:51.025435$GLGSV,2,2,05,75,47,280,47,,,,,,,,,,,,*58
###2023-12-09 13:47:51.027471$GAGSV,1,1,03,04,44,307,45,21,72,043,40,27,19,051,40,,,,*52
###2023-12-09 13:47:51.029792$GBGSV,1,1,04,12,19,122,41,24,58,052,46,25,54,282,45,35,16,051,36*61
###2023-12-09 13:47:51.031126$GNVTG,243.17,T,,M,0.06,N,0.11,K,A*26
###2023-12-09 13:47:51.032739$GNGST,184750.10,7.600,,,,0.210,0.120,0.320*69
###2023-12-09 13:47:51.034025$GNZDA,184750.10,09,12,2023,00,00*7F
