###2023-12-09 13:19:49.012484$GBGSV,2,2,06,33,51,223,47,35,16,062,41,,,,,,,,*69
###2023-12-09 13:19:49.013837$GNVTG,185.82,T,,M,3.36,N,6.23,K,A*24
###2023-12-09 13:19:49.015513$GNGST,181948.10,18.000,,,,0.100,0.073,0.170*51
###2023-12-09 13:19:49.016810$GNZDA,181948.10,09,12,2023,00,00*7D
###2023-12-09 13:19:49.017451$GNEBP,,,,,,M*13
###2023-12-09 13:19:49.181261$GNGGA,181948.30,4138.0832902,N,07032.3252161,W,1,24,0.7,13.140,M,-29.742,M,0.0,*5B
###2023-12-09 13:19:49.380912$GNGGA,181948.50,4138.0831158,N,07032.3252958,W,1,24,0.7,13.125,M,-29.742,M,0.0,*58
###2023-12-09 13:19:49.583156$GNGGA,181948.70,4138.0829536,N,07032.3254705,W,1,24,0.7,13.184,M,-29.742,M,0.0,*54
###2023-12-09 13:19:49.782026$GNGGA,181948.90,4138.0827817,N,07032.3255834,W,1,24,0.7,13.175,M,-29.742,M,0.0,*58
###2023-12-09 13:19:49.984789$GNRMC,181949.10,A,4138.0825885,N,07032.3256132,W,3.56,184.55,091223,,,A*59
###2023-12-09 13:19:49.987662$GNGGA,181949.10,4138.0825885,N,07032.3256132,W,1,24,0.7,13.157,M,-29.742,M,0.0,*54
###2023-12-09 13:19:49.989461$GPGSA,A,3,03,04,16,26,28,29,31,,,,,,1.1,0.7,0.9*3B
###2023-12-09 13:19:49.991194$GLGSA,A,3,65,71,72,73,74,75,,,,,,,1.1,0.7,0.9*25
###2023-12-09 13:19:49.992777$GAGSA,A,3,04,19,21,27,,,,,,,,,1.1,0.7,0.9*27
###2023-12-09 13:19:49.994490$GBGSA,A,3,14,24,25,26,33,35,,,,,,,1.1,0.7,0.9*28
###2023-12-09 13:19:49.996821$GPGSV,2,1,07,03,31,253,42,04,40,310,46,16,59,217,46,26,89,196,48*74
###2023-12-09 13:19:49.998880$GPGSV,2,2,07,28,43,079,45,29,23,053,43,31,64,055,47,,,,*44
###2023-12-09 13:19:50.001217$GLGSV,2,1,06,65,32,324,44,71,31,174,40,72,69,237,45,73,28,047,45*64
###2023-12-09 13:19:50.002880$GLGSV,2,2,06,74,65,,43,75,38,262,47,,,,,,,,*58
###2023-12-09 13:19:50.005215$GAGSV,1,1,04,04,35,311,45,19,78,188,39,21,82,058,46,27,27,049,41*6E
###2023-12-09 13:19:50.007557$GBGSV,2,1,06,14,35,191,42,24,68,038,48,25,46,269,46,26,20,067,42*66
###2023-12-09 13:19:50.009308$GBGSV,2,2,06,33,51,223,45,35,16,062,43,,,,,,,,*69
###2023-12-09 13:19:50.010642$GNVTG,184.55,T,,M,3.56,N,6.59,K,A*24
###2023-12-09 13:19:50.012293$GNGST,181949.10,18.000,,,,0.100,0.073,0.170*50
###2023-12-09 13:19:50.013586$GNZDA,181949.10,09,12,2023,00,00*7C
###2023-12-09 13:19:50.014225$GNEBP,,,,,,M*13
###2023-12-09 13:19:50.181463$GNGGA,181949.30,4138.0824042,N,07032.3256857,W,1,24,0.7,13.138,M,-29.742,M,0.0,*57
###2023-12-09 13:19:50.381355$GNGGA,181949.50,4138.0822430,N,07032.3258482,W,1,24,0.7,13.170,M,-29.742,M,0.0,*50
###2023-12-09 13:19:50.581975$GNGGA,181949.70,4138.0820846,N,07032.3260058,W,1,24,0.7,13.167,M,-29.742,M,0.0,*53
###2023-12-09 13:19:50.780957$GNGGA,181949.90,4138.0819012,N,07032.3260919,W,1,24,0.7,13.143,M,-29.742,M,0.0,*54
###2023-12-09 13:19:50.988198$GNRMC,181950.10,A,4138.0817187,N,07032.3261842,W,3.56,209.80,091223,,,A*5F
###2023-12-09 13:19:50.991060$GNGGA,181950.10,4138.0817187,N,07032.3261842,W,1,24,0.7,13.125,M,-29.742,M,0.0,*59
###2023-12-09 13:19:50.992848$GPGSA,A,3,03,04,16,26,28,29,31,,,,,,1.1,0.7,0.9*3B
###2023-12-09 13:19:50.994557$GLGSA,A,3,65,71,72,73,74,75,,,,,,,1.1,0.7,0.9*25
###2023-12-09 13:19:50.996146$GAGSA,A,3,04,19,21,27,,,,,,,,,1.1,0.7,0.9*27
###2023-12-09 13:19:50.997847$GBGSA,A,3,14,24,25,26,33,35,,,,,,,1.1,0.7,0.9*28
###2023-12-09 13:19:51.000181$GPGSV,2,1,07,03,31,253,39,04,40,310,44,16,59,217,45,26,89,196,48*79
###2023-12-09 13:19:51.002214$GPGSV,2,2,07,28,43,079,45,29,23,053,46,31,64,055,48,,,,*4E
###2023-12-09 13:19:51.004547$GLGSV,2,1,06,65,32,324,39,71,31,174,42,72,69,237,44,73,28,047,46*6E
###2023-12-09 13:19:51.006198$GLGSV,2,2,06,74,65,,43,75,38,262,43,,,,,,,,*5C
###2023-12-09 13:19:51.008535$GAGSV,1,1,04,04,35,311,42,19,78,188,40,21,82,058,46,27,27,049,44*62
###2023-12-09 13:19:51.010862$GBGSV,2,1,06,14,35,191,41,24,68,038,48,25,46,269,44,26,20,067,45*60
###2023-12-09 13:19:51.012604$GBGSV,2,2,06,33,51,223,44,35,16,062,44,,,,,,,,*6F
###2023-12-09 13:19:51.013920$GNVTG,209.80,T,,M,3.56,N,6.59,K,A*2A
###2023-12-09 13:19:51.015568$GNGST,181950.10,18.000,,,,0.100,0.073,0.170*58
###2023-12-09 13:19:51.016849$GNZDA,181950.10,09,12,2023,00,00*74
###2023-12-09 13:19:51.017484$GNEBP,,,,,,M*13
###2023-12-09 13:19:51.188504$GNGGA,181950.30,4138.0815599,N,07032.3263514,W,1,24,0.7,13.168,M,-29.742,M,0.0,*57
###2023-12-09 13:19:51.391124$GNGGA,181950.50,4138.0813985,N,07032.3265319,W,1,24,0.7,13.175,M,-29.742,M,0.0,*57
###2023-12-09 13:19:51.581997$GNGGA,181950.70,4138.0812121,N,07032.3266290,W,1,24,0.7,13.118,M,-29.742,M,0.0,*5A
###2023-12-09 13:19:51.783036$GNGGA,181950.90,4138.0810313,N,07032.3266942,W,1,24,0.7,13.109,M,-29.742,M,0.0,*51
###2023-12-09 13:19:51.985910$GNRMC,181951.10,A,4138.0808565,N,07032.3268602,W,4.08,221.19,091223,,,A*5D
###2023-12-09 13:19:51.988788$GNGGA,181951.10,4138.0808565,N,07032.3268602,W,1,24,0.7,13.173,M,-29.742,M,0.0,*5E
###2023-12-09 13:19:51.990592$GPGSA,A,3,03,04,16,26,28,29,31,,,,,,1.1,0.7,0.9*3B
###2023-12-09 13:19:51.992309$GLGSA,A,3,65,71,72,73,74,75,,,,,,,1.1,0.7,0.9*25
###2023-12-09 13:19:51.993893$GAGSA,A,3,04,19,21,27,,,,,,,,,1.1,0.7,0.9*27
###2023-12-09 13:19:51.995610$GBGSA,A,3,14,24,25,26,33,35,,,,,,,1.1,0.7,0.9*28
###2023-12-09 13:19:51.997925$GPGSV,2,1,07,03,31,253,41,04,40,310,44,16,59,217,45,26,89,196,48*76
###2023-12-09 13:19:51.999976$GPGSV,2,2,07,28,43,079,46,29,23,053,42,31,64,055,47,,,,*46
###2023-12-09 13:19:52.002299$GLGSV,2,1,06,65,32,324,42,71,31,174,41,72,69,237,46,73,28,047,45*60
###2023-12-09 13:19:52.003960$GLGSV,2,2,06,74,65,,42,75,38,262,45,,,,,,,,*5B
###2023-12-09 13:19:52.006282$GAGSV,1,1,04,04,35,311,42,19,78,188,40,21,82,058,46,27,27,049,41*67
###2023-12-09 13:19:52.008608$GBGSV,2,1,06,14,35,191,42,24,68,038,49,25,46,269,46,26,20,067,43*66
###2023-12-09 13:19:52.010364$GBGSV,2,2,06,33,51,223,44,35,16,062,44,,,,,,,,*6F
###2023-12-09 13:19:52.011709$GNVTG,221.19,T,,M,4.08,N,7.56,K,A*22
###2023-12-09 13:19:52.013352$GNGST,181951.10,18.000,,,,0.100,0.073,0.170*59
###2023-12-09 13:19:52.014650$GNZDA,181951.10,09,12,2023,00,00*75
###2023-12-09 13:19:52.015287$GNEBP,,,,,,M*13
###2023-12-09 13:19:52.182378$GNGGA,181951.30,4138.0806790,N,07032.3270065,W,1,24,0.7,13.124,M,-29.742,M,0.0,*56
###2023-12-09 13:19:52.382242$GNGGA,181951.50,4138.0804944,N,07032.3270507,W,1,24,0.7,13.116,M,-29.742,M,0.0,*55
###2023-12-09 13:19:52.584178$GNGGA,181951.70,4138.0803061,N,07032.3271317,W,1,24,0.7,13.140,M,-29.742,M,0.0,*5B
###2023-12-09 13:19:52.784255$GNGGA,181951.90,4138.0801161,N,07032.3272198,W,1,24,0.7,13.121,M,-29.742,M,0.0,*57
###2023-12-09 13:19:52.988442$GNRMC,181952.10,A,4138.0799248,N,07032.3272967,W,3.52,195.77,091223,,,A*5A
###2023-12-09 13:19:52.991362$GNGGA,181952.10,4138.0799248,N,07032.3272967,W,1,24,0.7,13.119,M,-29.743,M,0.0,*58
###2023-12-09 13:19:52.993161$GPGSA,A,3,03,04,16,26,28,29,31,,,,,,1.1,0.7,0.9*3B
###2023-12-09 13:19:52.994891$GLGSA,A,3,65,71,72,73,74,75,,,,,,,1.1,0.7,0.9*25
###2023-12-09 13:19:52.996474$GAGSA,A,3,04,19,21,27,,,,,,,,,1.1,0.7,0.9*27
###2023-12-09 13:19:52.998178$GBGSA,A,3,14,24,25,26,33,35,,,,,,,1.1,0.7,0.9*28
###2023-12-09 13:19:53.000513$GPGSV,2,1,07,03,31,253,42,04,40,310,45,16,59,217,45,26,89,196,48*74
###2023-12-09 13:19:53.002547$GPGSV,2,2,07,28,43,079,46,29,23,053,42,31,64,055,48,,,,*49
###2023-12-09 13:19:53.004884$GLGSV,2,1,06,65,32,324,40,71,31,174,41,72,69,237,45,73,28,047,43*67
###2023-12-09 13:19:53.006524$GLGSV,2,2,06,74,65,,42,75,38,262,46,,,,,,,,*58
###2023-12-09 13:19:53.008845$GAGSV,1,1,04,04,35,311,42,19,78,188,40,21,82,058,46,27,27,049,41*67
###2023-12-09 13:19:53.011180$GBGSV,2,1,06,14,35,191,42,24,68,038,48,25,46,269,47,26,20,067,45*60
###2023-12-09 13:19:53.012921$GBGSV,2,2,06,33,51,223,46,35,16,062,45,,,,,,,,*6C
###2023-12-09 13:19:53.014242$GNVTG,195.77,T,,M,3.52,N,6.52,K,A*2B
###2023-12-09 13:19:53.015912$GNGST,181952.10,18.000,,,,0.100,0.073,0.170*5A
###2023-12-09 13:19:53.017207$GNZDA,181952.10,09,12,2023,00,00*76
###2023-12-09 13:19:53.017847$GNEBP,,,,,,M*13
###2023-12-09 13:19:53.182470$GNGGA,181952.30,4138.0797387,N,07032.3273605,W,1,24,0.7,13.136,M,-29.743,M,0.0,*51
###2023-12-09 13:19:53.383263$GNGGA,181952.50,4138.0795431,N,07032.3273965,W,1,24,0.7,13.126,M,-29.743,M,0.0,*57
###2023-12-09 13:19:53.584252$GNGGA,181952.70,4138.0793516,N,07032.3274032,W,1,24,0.7,13.067,M,-29.743,M,0.0,*5F
###2023-12-09 13:19:53.784586$GNGGA,181952.90,4138.0791678,N,07032.3274432,W,1,24,0.7,13.096,M,-29.743,M,0.0,*52
###2023-12-09 13:19:53.987301$GNRMC,181953.10,A,4138.0789714,N,07032.3275177,W,3.65,190.85,091223,,,A*54
###2023-12-09 13:19:53.990157$GNGGA,181953.10,4138.0789714,N,07032.3275177,W,1,24,0.7,13.131,M,-29.743,M,0.0,*50
###2023-12-09 13:19:53.991960$GPGSA,A,3,03,04,16,26,28,29,31,,,,,,1.1,0.7,0.9*3B
###2023-12-09 13:19:53.993675$GLGSA,A,3,65,71,72,73,74,75,,,,,,,1.1,0.7,0.9*25
###2023-12-09 13:19:53.995268$GAGSA,A,3,04,19,21,27,,,,,,,,,1.1,0.7,0.9*27
###2023-12-09 13:19:53.996982$GBGSA,A,3,14,24,25,26,33,35,,,,,,,1.1,0.7,0.9*28
###2023-12-09 13:19:53.999328$GPGSV,2,1,07,03,31,253,43,04,40,310,44,16,59,217,46,26,89,196,48*77
