###2023-12-09 13:27:45.024963$GNEBP,,,,,,M*13
###2023-12-09 13:27:45.189805$GNGGA,182744.30,4138.0421251,N,07032.4270495,W,1,21,0.8,12.997,M,-29.745,M,0.0,*5E
###2023-12-09 13:27:45.384443$GNGGA,182744.50,4138.0420366,N,07032.4271983,W,1,21,0.8,13.005,M,-29.745,M,0.0,*54
###2023-12-09 13:27:45.583489$GNGGA,182744.70,4138.0419487,N,07032.4273436,W,1,22,0.7,13.001,M,-29.745,M,0.0,*5D
###2023-12-09 13:27:45.784219$GNGGA,182744.90,4138.0418640,N,07032.4274854,W,1,21,0.8,13.007,M,-29.745,M,0.0,*5E
###2023-12-09 13:27:45.988528$GNRMC,182745.10,A,4138.0417783,N,07032.4276194,W,2.39,230.85,091223,,,A*5C
###2023-12-09 13:27:45.991397$GNGGA,182745.10,4138.0417783,N,07032.4276194,W,1,21,0.8,13.013,M,-29.745,M,0.0,*54
###2023-12-09 13:27:45.993118$GPGSA,A,3,04,16,26,28,29,31,,,,,,,1.4,0.8,1.1*3B
###2023-12-09 13:27:45.994768$GLGSA,A,3,65,72,73,74,75,,,,,,,,1.4,0.8,1.1*20
###2023-12-09 13:27:45.996346$GAGSA,A,3,04,19,21,27,,,,,,,,,1.4,0.8,1.1*24
###2023-12-09 13:27:45.998049$GBGSA,A,3,14,24,25,26,33,35,,,,,,,1.4,0.8,1.1*2B
###2023-12-09 13:27:46.000389$GPGSV,2,1,06,04,43,309,45,16,63,220,45,26,87,041,48,28,40,082,44*71
###2023-12-09 13:27:46.002133$GPGSV,2,2,06,29,22,049,43,31,61,061,46,,,,,,,,*7E
###2023-12-09 13:27:46.004470$GLGSV,2,1,05,65,35,321,43,72,66,227,46,73,25,050,42,74,62,008,43*69
###2023-12-09 13:27:46.005925$GLGSV,2,2,05,75,41,267,44,,,,,,,,,,,,*54
###2023-12-09 13:27:46.008262$GAGSV,1,1,04,04,37,311,44,19,75,184,40,21,80,050,46,27,25,049,40*6B
###2023-12-09 13:27:46.010602$GBGSV,2,1,06,14,32,190,41,24,65,042,48,25,49,273,47,26,18,069,43*62
###2023-12-09 13:27:46.012349$GBGSV,2,2,06,33,48,220,46,35,16,059,45,,,,,,,,*6F
###2023-12-09 13:27:46.013676$GNVTG,230.85,T,,M,2.39,N,4.43,K,A*24
###2023-12-09 13:27:46.015369$GNGST,182745.10,19.000,,,,0.110,0.074,0.170*56
###2023-12-09 13:27:46.016669$GNZDA,182745.10,09,12,2023,00,00*7D
###2023-12-09 13:27:46.017304$GNEBP,,,,,,M*13
###2023-12-09 13:27:46.184497$GNGGA,182745.30,4138.0416937,N,07032.4277563,W,1,21,0.8,13.019,M,-29.745,M,0.0,*51
###2023-12-09 13:27:46.383728$GNGGA,182745.50,4138.0416106,N,07032.4278914,W,1,21,0.8,13.028,M,-29.745,M,0.0,*5C
###2023-12-09 13:27:46.582983$GNGGA,182745.70,4138.0415332,N,07032.4280293,W,1,21,0.8,13.034,M,-29.745,M,0.0,*56
###2023-12-09 13:27:46.783315$GNGGA,182745.90,4138.0414636,N,07032.4281663,W,1,21,0.7,13.040,M,-29.745,M,0.0,*5E
###2023-12-09 13:27:46.988269$GNRMC,182746.10,A,4138.0413954,N,07032.4282995,W,2.08,234.90,091223,,,A*5F
###2023-12-09 13:27:46.991135$GNGGA,182746.10,4138.0413954,N,07032.4282995,W,1,22,0.7,13.039,M,-29.745,M,0.0,*51
###2023-12-09 13:27:46.992861$GPGSA,A,3,04,16,26,28,29,31,,,,,,,1.2,0.7,1.0*33
###2023-12-09 13:27:46.994604$GLGSA,A,3,65,71,72,73,74,75,,,,,,,1.2,0.7,1.0*2E
###2023-12-09 13:27:46.996194$GAGSA,A,3,04,19,21,27,,,,,,,,,1.2,0.7,1.0*2C
###2023-12-09 13:27:46.997904$GBGSA,A,3,14,24,25,26,33,35,,,,,,,1.2,0.7,1.0*23
###2023-12-09 13:27:47.000240$GPGSV,2,1,06,04,43,309,45,16,63,220,45,26,87,041,48,28,40,082,44*71
###2023-12-09 13:27:47.001988$GPGSV,2,2,06,29,22,049,43,31,61,061,46,,,,,,,,*7E
###2023-12-09 13:27:47.004326$GLGSV,2,1,06,65,35,321,42,71,26,175,35,72,66,227,46,73,25,050,42*64
###2023-12-09 13:27:47.006071$GLGSV,2,2,06,74,62,008,43,75,41,267,46,,,,,,,,*6D
###2023-12-09 13:27:47.008421$GAGSV,1,1,04,04,37,311,43,19,75,184,41,21,80,050,46,27,25,049,40*6D
###2023-12-09 13:27:47.010765$GBGSV,2,1,06,14,32,190,38,24,65,042,48,25,49,273,46,26,18,069,43*6D
###2023-12-09 13:27:47.012517$GBGSV,2,2,06,33,48,220,46,35,16,059,44,,,,,,,,*6E
###2023-12-09 13:27:47.013841$GNVTG,234.90,T,,M,2.08,N,3.85,K,A*2B
###2023-12-09 13:27:47.015498$GNGST,182746.10,19.000,,,,0.110,0.075,0.180*5B
###2023-12-09 13:27:47.016789$GNZDA,182746.10,09,12,2023,00,00*7E
###2023-12-09 13:27:47.017431$GNEBP,,,,,,M*13
###2023-12-09 13:27:47.186413$GNGGA,182746.30,4138.0413290,N,07032.4284316,W,1,22,0.7,13.033,M,-29.745,M,0.0,*5D
###2023-12-09 13:27:47.384731$GNGGA,182746.50,4138.0412676,N,07032.4285571,W,1,22,0.7,13.035,M,-29.745,M,0.0,*56
###2023-12-09 13:27:47.584918$GNGGA,182746.70,4138.0412079,N,07032.4286804,W,1,22,0.7,13.041,M,-29.745,M,0.0,*52
###2023-12-09 13:27:47.785308$GNGGA,182746.90,4138.0411526,N,07032.4287980,W,1,21,0.7,13.035,M,-29.745,M,0.0,*5C
###2023-12-09 13:27:47.986715$GNRMC,182747.10,A,4138.0410985,N,07032.4289150,W,1.79,238.95,091223,,,A*57
###2023-12-09 13:27:47.989586$GNGGA,182747.10,4138.0410985,N,07032.4289150,W,1,21,0.7,13.036,M,-29.745,M,0.0,*59
###2023-12-09 13:27:47.991339$GPGSA,A,3,04,16,26,28,29,31,,,,,,,1.2,0.7,1.0*33
###2023-12-09 13:27:47.992990$GLGSA,A,3,65,72,73,74,75,,,,,,,,1.2,0.7,1.0*28
###2023-12-09 13:27:47.994577$GAGSA,A,3,04,19,21,27,,,,,,,,,1.2,0.7,1.0*2C
###2023-12-09 13:27:47.996280$GBGSA,A,3,14,24,25,26,33,35,,,,,,,1.2,0.7,1.0*23
###2023-12-09 13:27:47.998605$GPGSV,2,1,06,04,43,309,45,16,63,220,45,26,87,041,47,28,40,082,44*7E
###2023-12-09 13:27:48.000351$GPGSV,2,2,06,29,22,049,42,31,61,061,47,,,,,,,,*7E
###2023-12-09 13:27:48.002678$GLGSV,2,1,05,65,35,321,42,72,66,227,45,73,25,050,41,74,62,008,43*68
###2023-12-09 13:27:48.004129$GLGSV,2,2,05,75,41,267,45,,,,,,,,,,,,*55
###2023-12-09 13:27:48.006452$GAGSV,1,1,04,04,38,311,43,19,75,184,40,21,80,050,46,27,25,049,39*6D
###2023-12-09 13:27:48.008792$GBGSV,2,1,06,14,32,190,38,24,65,042,49,25,49,273,45,26,18,069,44*68
###2023-12-09 13:27:48.010537$GBGSV,2,2,06,33,48,220,46,35,16,059,45,,,,,,,,*6F
###2023-12-09 13:27:48.011867$GNVTG,238.95,T,,M,1.79,N,3.31,K,A*28
###2023-12-09 13:27:48.013511$GNGST,182747.10,19.000,,,,0.110,0.076,0.180*59
###2023-12-09 13:27:48.014806$GNZDA,182747.10,09,12,2023,00,00*7F
###2023-12-09 13:27:48.015439$GNEBP,,,,,,M*13
###2023-12-09 13:27:48.188144$GNGGA,182747.30,4138.0410439,N,07032.4290248,W,1,22,0.7,13.040,M,-29.745,M,0.0,*51
###2023-12-09 13:27:48.383398$GNGGA,182747.50,4138.0409952,N,07032.4291334,W,1,21,0.8,13.037,M,-29.745,M,0.0,*58
###2023-12-09 13:27:48.583388$GNGGA,182747.70,4138.0409464,N,07032.4292369,W,1,21,0.8,13.046,M,-29.745,M,0.0,*5F
###2023-12-09 13:27:48.784312$GNGGA,182747.90,4138.0409027,N,07032.4293448,W,1,21,0.7,13.056,M,-29.745,M,0.0,*59
###2023-12-09 13:27:48.990531$GNRMC,182748.10,A,4138.0408626,N,07032.4294511,W,1.67,241.70,091223,,,A*50
###2023-12-09 13:27:48.993398$GNGGA,182748.10,4138.0408626,N,07032.4294511,W,1,20,0.9,13.060,M,-29.745,M,0.0,*58
###2023-12-09 13:27:48.995128$GPGSA,A,3,04,16,26,28,29,31,,,,,,,1.6,0.9,1.3*3A
###2023-12-09 13:27:48.996767$GLGSA,A,3,65,72,73,74,75,,,,,,,,1.6,0.9,1.3*21
###2023-12-09 13:27:48.998348$GAGSA,A,3,04,19,21,27,,,,,,,,,1.6,0.9,1.3*25
###2023-12-09 13:27:48.999997$GBGSA,A,3,24,25,26,33,35,,,,,,,,1.6,0.9,1.3*2F
###2023-12-09 13:27:49.002318$GPGSV,2,1,06,04,43,309,43,16,63,220,45,26,87,041,48,28,40,082,43*70
###2023-12-09 13:27:49.004072$GPGSV,2,2,06,29,22,049,43,31,61,061,45,,,,,,,,*7D
###2023-12-09 13:27:49.006391$GLGSV,2,1,05,65,35,321,42,72,66,227,45,73,25,050,43,74,62,008,43*6A
###2023-12-09 13:27:49.007848$GLGSV,2,2,05,75,41,267,45,,,,,,,,,,,,*55
###2023-12-09 13:27:49.010170$GAGSV,1,1,04,04,38,311,43,19,75,184,41,21,80,050,46,27,25,049,41*63
###2023-12-09 13:27:49.012503$GBGSV,2,1,05,24,65,042,48,25,49,273,45,26,18,069,45,33,48,220,48*6C
###2023-12-09 13:27:49.013955$GBGSV,2,2,05,35,16,059,46,,,,,,,,,,,,*51
###2023-12-09 13:27:49.015315$GNVTG,241.70,T,,M,1.67,N,3.10,K,A*21
###2023-12-09 13:27:49.016923$GNGST,182748.10,5.300,,,,0.110,0.076,0.180*68
###2023-12-09 13:27:49.018210$GNZDA,182748.10,09,12,2023,00,00*70
###2023-12-09 13:27:49.018858$GNEBP,,,,,,M*13
###2023-12-09 13:27:49.187055$GNGGA,182748.30,4138.0408233,N,07032.4295519,W,1,20,0.9,13.066,M,-29.745,M,0.0,*55
###2023-12-09 13:27:49.386112$GNGGA,182748.50,4138.0407842,N,07032.4296529,W,1,20,0.9,13.070,M,-29.745,M,0.0,*57
###2023-12-09 13:27:49.588995$GNGGA,182748.70,4138.0407448,N,07032.4297541,W,1,20,0.9,13.065,M,-29.745,M,0.0,*58
###2023-12-09 13:27:49.785144$GNGGA,182748.90,4138.0407070,N,07032.4298467,W,1,21,0.7,13.065,M,-29.745,M,0.0,*5C
###2023-12-09 13:27:49.990366$GNRMC,182749.10,A,4138.0406725,N,07032.4299399,W,1.28,244.76,091223,,,A*5E
###2023-12-09 13:27:49.993257$GNGGA,182749.10,4138.0406725,N,07032.4299399,W,1,22,0.7,13.066,M,-29.745,M,0.0,*54
###2023-12-09 13:27:49.995228$GPGSA,A,3,04,16,26,28,29,31,,,,,,,1.2,0.7,1.0*33
###2023-12-09 13:27:49.996949$GLGSA,A,3,65,71,72,73,74,75,,,,,,,1.2,0.7,1.0*2E
###2023-12-09 13:27:49.998527$GAGSA,A,3,04,19,21,27,,,,,,,,,1.2,0.7,1.0*2C
###2023-12-09 13:27:50.000173$GBGSA,A,3,24,25,26,33,35,,,,,,,,1.2,0.7,1.0*26
###2023-12-09 13:27:50.002495$GPGSV,2,1,06,04,43,309,43,16,63,220,44,26,87,041,47,28,40,082,44*79
###2023-12-09 13:27:50.004251$GPGSV,2,2,06,29,22,049,42,31,61,061,46,,,,,,,,*7F
###2023-12-09 13:27:50.006593$GLGSV,2,1,06,65,35,321,42,71,26,175,35,72,66,227,45,73,25,050,43*66
###2023-12-09 13:27:50.008345$GLGSV,2,2,06,74,62,008,43,75,41,267,45,,,,,,,,*6E
###2023-12-09 13:27:50.010678$GAGSV,1,1,04,04,38,311,42,19,75,184,40,21,80,050,46,27,25,049,40*62
