###2023-12-09 12:43:37.950905$GLGSA,A,3,65,71,72,73,74,75,,,,,,,1.1,0.6,0.9*24
###2023-12-09 12:43:37.952549$GAGSA,A,3,04,19,21,27,,,,,,,,,1.1,0.6,0.9*26
###2023-12-09 12:43:37.954193$GBGSA,A,3,14,24,25,26,33,,,,,,,,1.1,0.6,0.9*2F
###2023-12-09 12:43:37.956541$GPGSV,2,1,08,03,38,271,42,04,25,311,43,16,40,208,46,26,70,207,48*7E
###2023-12-09 12:43:37.958889$GPGSV,2,2,08,28,55,060,44,29,25,070,41,31,72,013,46,32,27,136,45*75
###2023-12-09 12:43:37.961222$GLGSV,2,1,06,65,16,329,42,71,51,170,48,72,69,300,46,73,44,036,44*68
###2023-12-09 12:43:37.962983$GLGSV,2,2,06,74,71,307,42,75,25,245,45,,,,,,,,*63
###2023-12-09 12:43:37.965311$GAGSV,1,1,04,04,23,312,42,19,84,288,40,21,81,170,46,27,39,049,41*64
###2023-12-09 12:43:37.967662$GBGSV,2,1,05,14,51,196,45,24,79,002,48,25,35,255,41,26,32,059,43*6D
###2023-12-09 12:43:37.969124$GBGSV,2,2,05,33,62,246,47,,,,,,,,,,,,*59
###2023-12-09 12:43:37.970415$GNVTG,46.27,T,,M,3.07,N,5.69,K,A*1A
###2023-12-09 12:43:37.972079$GNGST,174337.10,18.000,,,,0.078,0.070,0.160*55
###2023-12-09 12:43:37.973368$GNZDA,174337.10,09,12,2023,00,00*75
###2023-12-09 12:43:37.974003$GNEBP,,,,,,M*13
###2023-12-09 12:43:38.143912$GNGGA,174337.30,4138.0444491,N,07032.3854200,W,1,24,0.6,13.349,M,-29.745,M,0.0,*5C
###2023-12-09 12:43:38.343130$GNGGA,174337.50,4138.0445815,N,07032.3852535,W,1,24,0.6,13.354,M,-29.745,M,0.0,*50
###2023-12-09 12:43:38.548840$GNGGA,174337.70,4138.0447073,N,07032.3850853,W,1,24,0.6,13.326,M,-29.745,M,0.0,*52
###2023-12-09 12:43:38.742547$GNGGA,174337.90,4138.0448479,N,07032.3849380,W,1,24,0.6,13.338,M,-29.745,M,0.0,*5F
###2023-12-09 12:43:38.944930$GNRMC,174338.10,A,4138.0449972,N,07032.3848068,W,3.15,28.66,091223,,,A*6B
###2023-12-09 12:43:38.947839$GNGGA,174338.10,4138.0449972,N,07032.3848068,W,1,24,0.6,13.361,M,-29.745,M,0.0,*57
###2023-12-09 12:43:38.949710$GPGSA,A,3,03,04,16,26,28,29,31,32,,,,,1.1,0.6,0.9*3B
###2023-12-09 12:43:38.951446$GLGSA,A,3,65,71,72,73,74,75,,,,,,,1.1,0.6,0.9*24
###2023-12-09 12:43:38.953033$GAGSA,A,3,04,19,21,27,,,,,,,,,1.1,0.6,0.9*26
###2023-12-09 12:43:38.954701$GBGSA,A,3,14,24,25,26,33,,,,,,,,1.1,0.6,0.9*2F
###2023-12-09 12:43:38.957033$GPGSV,2,1,08,03,38,271,44,04,25,311,43,16,41,209,46,26,70,207,48*78
###2023-12-09 12:43:38.959379$GPGSV,2,2,08,28,55,060,43,29,25,070,40,31,72,013,47,32,27,136,43*74
###2023-12-09 12:43:38.961710$GLGSV,2,1,06,65,16,329,43,71,51,170,47,72,69,300,47,73,44,036,44*67
###2023-12-09 12:43:38.963465$GLGSV,2,2,06,74,71,307,42,75,25,245,43,,,,,,,,*65
###2023-12-09 12:43:38.965792$GAGSV,1,1,04,04,23,312,42,19,84,288,40,21,81,170,45,27,39,049,41*67
###2023-12-09 12:43:38.968130$GBGSV,2,1,05,14,51,196,44,24,79,002,48,25,35,255,43,26,32,059,42*6F
###2023-12-09 12:43:38.969587$GBGSV,2,2,05,33,62,246,48,,,,,,,,,,,,*56
###2023-12-09 12:43:38.970891$GNVTG,28.66,T,,M,3.15,N,5.83,K,A*10
###2023-12-09 12:43:38.972540$GNGST,174338.10,18.000,,,,0.078,0.070,0.160*5A
###2023-12-09 12:43:38.973834$GNZDA,174338.10,09,12,2023,00,00*7A
###2023-12-09 12:43:38.974474$GNEBP,,,,,,M*13
###2023-12-09 12:43:39.143502$GNGGA,174338.30,4138.0451584,N,07032.3846975,W,1,24,0.6,13.375,M,-29.745,M,0.0,*57
###2023-12-09 12:43:39.343947$GNGGA,174338.50,4138.0453139,N,07032.3845602,W,1,24,0.6,13.348,M,-29.745,M,0.0,*53
###2023-12-09 12:43:39.544106$GNGGA,174338.70,4138.0454752,N,07032.3844545,W,1,24,0.6,13.324,M,-29.745,M,0.0,*56
###2023-12-09 12:43:39.743474$GNGGA,174338.90,4138.0456394,N,07032.3843662,W,1,24,0.6,13.336,M,-29.745,M,0.0,*56
###2023-12-09 12:43:39.941419$GNRMC,174339.10,A,4138.0458070,N,07032.3842800,W,3.23,20.70,091223,,,A*67
###2023-12-09 12:43:39.944282$GNGGA,174339.10,4138.0458070,N,07032.3842800,W,1,24,0.6,13.348,M,-29.745,M,0.0,*5A
###2023-12-09 12:43:39.946131$GPGSA,A,3,03,04,16,26,28,29,31,32,,,,,1.1,0.6,0.9*3B
###2023-12-09 12:43:39.947864$GLGSA,A,3,65,71,72,73,74,75,,,,,,,1.1,0.6,0.9*24
###2023-12-09 12:43:39.949458$GAGSA,A,3,04,19,21,27,,,,,,,,,1.1,0.6,0.9*26
###2023-12-09 12:43:39.951119$GBGSA,A,3,14,24,25,26,33,,,,,,,,1.1,0.6,0.9*2F
###2023-12-09 12:43:39.953443$GPGSV,2,1,08,03,38,271,46,04,25,311,42,16,41,209,46,26,70,207,48*7B
###2023-12-09 12:43:39.955785$GPGSV,2,2,08,28,55,060,44,29,25,070,40,31,72,013,46,32,27,136,42*73
###2023-12-09 12:43:39.958121$GLGSV,2,1,06,65,16,329,43,71,51,170,47,72,69,300,47,73,44,036,44*67
###2023-12-09 12:43:39.959877$GLGSV,2,2,06,74,71,307,42,75,25,245,41,,,,,,,,*67
###2023-12-09 12:43:39.962195$GAGSV,1,1,04,04,23,312,42,19,84,288,40,21,81,170,46,27,39,049,42*67
###2023-12-09 12:43:39.964531$GBGSV,2,1,05,14,51,196,46,24,79,002,49,25,35,255,47,26,32,059,44*6E
###2023-12-09 12:43:39.965987$GBGSV,2,2,05,33,62,246,49,,,,,,,,,,,,*57
###2023-12-09 12:43:39.967286$GNVTG,20.70,T,,M,3.23,N,5.98,K,A*10
###2023-12-09 12:43:39.968974$GNGST,174339.10,18.000,,,,0.078,0.070,0.160*5B
###2023-12-09 12:43:39.970273$GNZDA,174339.10,09,12,2023,00,00*7B
###2023-12-09 12:43:39.970926$GNEBP,,,,,,M*13
###2023-12-09 12:43:40.141491$GNGGA,174339.30,4138.0459734,N,07032.3841932,W,1,24,0.6,13.355,M,-29.745,M,0.0,*51
###2023-12-09 12:43:40.343074$GNGGA,174339.50,4138.0461444,N,07032.3841161,W,1,24,0.6,13.345,M,-29.745,M,0.0,*57
###2023-12-09 12:43:40.541155$GNGGA,174339.70,4138.0463182,N,07032.3840724,W,1,24,0.6,13.335,M,-29.745,M,0.0,*59
###2023-12-09 12:43:40.741643$GNGGA,174339.90,4138.0464891,N,07032.3840364,W,1,24,0.6,13.333,M,-29.745,M,0.0,*5D
###2023-12-09 12:43:40.943408$GNRMC,174340.10,A,4138.0466581,N,07032.3839852,W,3.05,12.17,091223,,,A*60
###2023-12-09 12:43:40.946323$GNGGA,174340.10,4138.0466581,N,07032.3839852,W,1,24,0.6,13.337,M,-29.745,M,0.0,*51
###2023-12-09 12:43:40.948240$GPGSA,A,3,03,04,16,26,28,29,31,32,,,,,1.1,0.6,0.9*3B
###2023-12-09 12:43:40.949971$GLGSA,A,3,65,71,72,73,74,75,,,,,,,1.1,0.6,0.9*24
###2023-12-09 12:43:40.951581$GAGSA,A,3,04,19,21,27,,,,,,,,,1.1,0.6,0.9*26
###2023-12-09 12:43:40.953233$GBGSA,A,3,14,24,25,26,33,,,,,,,,1.1,0.6,0.9*2F
###2023-12-09 12:43:40.955582$GPGSV,2,1,08,03,38,271,44,04,25,311,42,16,41,209,44,26,70,207,47*74
###2023-12-09 12:43:40.957937$GPGSV,2,2,08,28,55,060,43,29,25,070,42,31,72,013,46,32,27,136,41*75
###2023-12-09 12:43:40.960308$GLGSV,2,1,06,65,16,329,39,71,51,170,47,72,69,300,46,73,44,036,44*6B
###2023-12-09 12:43:40.962065$GLGSV,2,2,06,74,71,307,42,75,25,245,44,,,,,,,,*62
###2023-12-09 12:43:40.964419$GAGSV,1,1,04,04,23,312,41,19,84,288,40,21,81,170,45,27,39,049,42*67
###2023-12-09 12:43:40.966808$GBGSV,2,1,05,14,51,196,44,24,79,002,48,25,35,255,47,26,32,059,43*6A
###2023-12-09 12:43:40.968276$GBGSV,2,2,05,33,62,246,47,,,,,,,,,,,,*59
###2023-12-09 12:43:40.969570$GNVTG,12.17,T,,M,3.05,N,5.65,K,A*16
###2023-12-09 12:43:40.971236$GNGST,174340.10,18.000,,,,0.078,0.070,0.160*55
###2023-12-09 12:43:40.972530$GNZDA,174340.10,09,12,2023,00,00*75
###2023-12-09 12:43:40.973170$GNEBP,,,,,,M*13
###2023-12-09 12:43:41.141238$GNGGA,174340.30,4138.0468263,N,07032.3839627,W,1,24,0.6,13.337,M,-29.745,M,0.0,*5A
###2023-12-09 12:43:41.341881$GNGGA,174340.50,4138.0469947,N,07032.3839718,W,1,24,0.6,13.336,M,-29.745,M,0.0,*5C
###2023-12-09 12:43:41.542117$GNGGA,174340.70,4138.0471655,N,07032.3839805,W,1,24,0.6,13.322,M,-29.745,M,0.0,*5D
###2023-12-09 12:43:41.746510$GNGGA,174340.90,4138.0473411,N,07032.3839856,W,1,24,0.6,13.329,M,-29.745,M,0.0,*5E
###2023-12-09 12:43:41.941785$GNRMC,174341.10,A,4138.0475216,N,07032.3839931,W,3.29,356.49,091223,,,A*58
###2023-12-09 12:43:41.944665$GNGGA,174341.10,4138.0475216,N,07032.3839931,W,1,24,0.6,13.331,M,-29.745,M,0.0,*59
###2023-12-09 12:43:41.946523$GPGSA,A,3,03,04,16,26,28,29,31,32,,,,,1.1,0.6,0.9*3B
###2023-12-09 12:43:41.948310$GLGSA,A,3,65,71,72,73,74,75,,,,,,,1.1,0.6,0.9*24
###2023-12-09 12:43:41.949910$GAGSA,A,3,04,19,21,27,,,,,,,,,1.1,0.6,0.9*26
###2023-12-09 12:43:41.951577$GBGSA,A,3,14,24,25,26,33,,,,,,,,1.1,0.6,0.9*2F
###2023-12-09 12:43:41.953895$GPGSV,2,1,08,03,38,271,44,04,25,311,41,16,41,209,43,26,70,207,47*70
###2023-12-09 12:43:41.956238$GPGSV,2,2,08,28,55,060,44,29,25,070,42,31,72,013,46,32,27,136,43*70
###2023-12-09 12:43:41.958577$GLGSV,2,1,06,65,16,329,38,71,51,170,47,72,69,300,45,73,44,036,45*68
###2023-12-09 12:43:41.960321$GLGSV,2,2,06,74,71,307,42,75,25,245,43,,,,,,,,*65
###2023-12-09 12:43:41.962887$GAGSV,1,1,04,04,23,312,40,19,84,288,40,21,81,170,46,27,39,049,42*65
###2023-12-09 12:43:41.965204$GBGSV,2,1,05,14,51,196,45,24,79,002,49,25,35,255,47,26,32,059,44*6D
###2023-12-09 12:43:41.966678$GBGSV,2,2,05,33,62,246,48,,,,,,,,,,,,*56
###2023-12-09 12:43:41.968003$GNVTG,356.49,T,,M,3.29,N,6.08,K,A*28
###2023-12-09 12:43:41.969646$GNGST,174341.10,18.000,,,,0.078,0.070,0.160*54
###2023-12-09 12:43:41.970954$GNZDA,174341.10,09,12,2023,00,00*74
###2023-12-09 12:43:41.971597$GNEBP,,,,,,M*13
###2023-12-09 12:43:42.141965$GNGGA,174341.30,4138.0477050,N,07032.3840135,W,1,24,0.6,13.322,M,-29.745,M,0.0,*59
###2023-12-09 12:43:42.341829$GNGGA,174341.50,4138.0478871,N,07032.3840383,W,1,24,0.6,13.313,M,-29.745,M,0.0,*56
