###2023-12-09 12:26:39.946310$GBGSV,1,1,04,14,59,200,46,25,30,250,38,26,38,056,48,33,64,263,39*61
###2023-12-09 12:26:39.947546$GNVTG,,T,,M,0.04,N,0.07,K,A*3E
###2023-12-09 12:26:39.949230$GNGST,172639.10,30.000,,,,0.230,0.220,0.530*5A
###2023-12-09 12:26:39.950545$GNZDA,172639.10,09,12,2023,00,00*78
###2023-12-09 12:26:39.951230$GNEBP,,,,,,M*13
###2023-12-09 12:26:40.115312$GNGGA,172639.30,4138.0379956,N,07032.4357155,W,1,17,0.8,8.234,M,-29.746,M,0.0,*6E
###2023-12-09 12:26:40.315663$GNGGA,172639.50,4138.0379948,N,07032.4357134,W,1,17,0.8,8.230,M,-29.746,M,0.0,*64
###2023-12-09 12:26:40.516674$GNGGA,172639.70,4138.0379954,N,07032.4357136,W,1,17,0.8,8.218,M,-29.746,M,0.0,*63
###2023-12-09 12:26:40.715804$GNGGA,172639.90,4138.0379950,N,07032.4357129,W,1,17,0.8,8.217,M,-29.746,M,0.0,*68
###2023-12-09 12:26:40.920267$GNRMC,172640.10,A,4138.0379944,N,07032.4357118,W,0.00,,091223,,,A*41
###2023-12-09 12:26:40.924016$GNGGA,172640.10,4138.0379944,N,07032.4357118,W,1,17,0.8,8.212,M,-29.746,M,0.0,*6C
###2023-12-09 12:26:40.926456$GPGSA,A,3,03,16,26,28,29,31,32,,,,,,1.5,0.8,1.3*3E
###2023-12-09 12:26:40.928459$GLGSA,A,3,71,72,73,75,,,,,,,,,1.5,0.8,1.3*25
###2023-12-09 12:26:40.930260$GAGSA,A,3,21,27,,,,,,,,,,,1.5,0.8,1.3*2B
###2023-12-09 12:26:40.932237$GBGSA,A,3,14,25,26,33,,,,,,,,,1.5,0.8,1.3*28
###2023-12-09 12:26:40.935127$GPGSV,2,1,07,03,39,281,44,16,33,206,42,26,62,205,42,28,61,050,43*74
###2023-12-09 12:26:40.937644$GPGSV,2,2,07,29,24,078,42,31,73,346,39,32,34,132,47,,,,*42
###2023-12-09 12:26:40.940507$GLGSV,1,1,04,71,61,167,48,72,62,315,44,73,52,031,48,75,19,238,42*62
###2023-12-09 12:26:40.942686$GAGSV,1,1,02,21,74,179,43,27,44,051,46,,,,,,,,*61
###2023-12-09 12:26:40.945539$GBGSV,1,1,04,14,59,200,46,25,30,250,38,26,38,056,48,33,64,263,39*61
###2023-12-09 12:26:40.947043$GNVTG,,T,,M,0.00,N,0.00,K,A*3D
###2023-12-09 12:26:40.949107$GNGST,172640.10,30.000,,,,0.230,0.220,0.530*54
###2023-12-09 12:26:40.950781$GNZDA,172640.10,09,12,2023,00,00*76
###2023-12-09 12:26:40.951611$GNEBP,,,,,,M*13
###2023-12-09 12:26:41.116994$GNGGA,172640.30,4138.0379944,N,07032.4357108,W,1,17,0.8,8.203,M,-29.746,M,0.0,*6F
###2023-12-09 12:26:41.317057$GNGGA,172640.50,4138.0379942,N,07032.4357105,W,1,17,0.8,8.197,M,-29.746,M,0.0,*6C
###2023-12-09 12:26:41.517074$GNGGA,172640.70,4138.0379946,N,07032.4357103,W,1,17,0.8,8.190,M,-29.746,M,0.0,*6B
###2023-12-09 12:26:41.716756$GNGGA,172640.90,4138.0379953,N,07032.4357099,W,1,17,0.8,8.184,M,-29.746,M,0.0,*66
###2023-12-09 12:26:41.918466$GNRMC,172641.10,A,4138.0379952,N,07032.4357112,W,0.04,,091223,,,A*49
###2023-12-09 12:26:41.921328$GNGGA,172641.10,4138.0379952,N,07032.4357112,W,1,17,0.8,8.176,M,-29.746,M,0.0,*61
###2023-12-09 12:26:41.923169$GPGSA,A,3,03,16,26,28,29,31,32,,,,,,1.5,0.8,1.3*3E
###2023-12-09 12:26:41.924783$GLGSA,A,3,71,72,73,75,,,,,,,,,1.5,0.8,1.3*25
###2023-12-09 12:26:41.926260$GAGSA,A,3,21,27,,,,,,,,,,,1.5,0.8,1.3*2B
###2023-12-09 12:26:41.927880$GBGSA,A,3,14,25,26,33,,,,,,,,,1.5,0.8,1.3*28
###2023-12-09 12:26:41.930235$GPGSV,2,1,07,03,39,281,44,16,33,206,42,26,62,205,41,28,61,050,43*77
###2023-12-09 12:26:41.932310$GPGSV,2,2,07,29,24,078,42,31,73,346,39,32,34,132,47,,,,*42
###2023-12-09 12:26:41.934674$GLGSV,1,1,04,71,61,167,48,72,62,315,44,73,52,031,48,75,19,238,42*62
###2023-12-09 12:26:41.936436$GAGSV,1,1,02,21,74,179,43,27,44,051,46,,,,,,,,*61
###2023-12-09 12:26:41.938793$GBGSV,1,1,04,14,59,200,46,25,30,250,38,26,38,056,48,33,64,263,39*61
###2023-12-09 12:26:41.939943$GNVTG,,T,,M,0.04,N,0.07,K,A*3E
###2023-12-09 12:26:41.941614$GNGST,172641.10,30.000,,,,0.230,0.220,0.530*55
###2023-12-09 12:26:41.942943$GNZDA,172641.10,09,12,2023,00,00*77
###2023-12-09 12:26:41.943604$GNEBP,,,,,,M*13
###2023-12-09 12:26:42.118503$GNGGA,172641.30,4138.0379956,N,07032.4357111,W,1,17,0.8,8.170,M,-29.746,M,0.0,*62
###2023-12-09 12:26:42.316449$GNGGA,172641.50,4138.0379943,N,07032.4357106,W,1,17,0.8,8.168,M,-29.746,M,0.0,*6F
###2023-12-09 12:26:42.518703$GNGGA,172641.70,4138.0379955,N,07032.4357107,W,1,17,0.8,8.160,M,-29.746,M,0.0,*63
###2023-12-09 12:26:42.716599$GNGGA,172641.90,4138.0379953,N,07032.4357101,W,1,17,0.8,8.155,M,-29.746,M,0.0,*6B
###2023-12-09 12:26:42.917165$GNRMC,172642.10,A,4138.0379954,N,07032.4357088,W,0.04,,091223,,,A*4E
###2023-12-09 12:26:42.920232$GNGGA,172642.10,4138.0379954,N,07032.4357088,W,1,17,0.8,8.144,M,-29.746,M,0.0,*67
###2023-12-09 12:26:42.922220$GPGSA,A,3,03,16,26,28,29,31,32,,,,,,1.5,0.8,1.3*3E
###2023-12-09 12:26:42.924003$GLGSA,A,3,71,72,73,75,,,,,,,,,1.5,0.8,1.3*25
###2023-12-09 12:26:42.925626$GAGSA,A,3,21,27,,,,,,,,,,,1.5,0.8,1.3*2B
###2023-12-09 12:26:42.927396$GBGSA,A,3,14,25,26,33,,,,,,,,,1.5,0.8,1.3*28
###2023-12-09 12:26:42.929904$GPGSV,2,1,07,03,39,281,43,16,33,206,42,26,62,205,41,28,61,050,43*70
###2023-12-09 12:26:42.932134$GPGSV,2,2,07,29,24,078,42,31,73,346,39,32,34,132,47,,,,*42
###2023-12-09 12:26:42.934656$GLGSV,1,1,04,71,61,167,48,72,62,315,45,73,52,031,48,75,19,238,42*63
###2023-12-09 12:26:42.936585$GAGSV,1,1,02,21,74,179,43,27,44,051,46,,,,,,,,*61
###2023-12-09 12:26:42.939128$GBGSV,1,1,04,14,59,200,46,25,30,250,38,26,38,056,49,33,64,263,38*61
###2023-12-09 12:26:42.940446$GNVTG,,T,,M,0.04,N,0.07,K,A*3E
###2023-12-09 12:26:42.942215$GNGST,172642.10,30.000,,,,0.230,0.220,0.530*56
###2023-12-09 12:26:42.943633$GNZDA,172642.10,09,12,2023,00,00*74
###2023-12-09 12:26:42.944380$GNEBP,,,,,,M*13
###2023-12-09 12:26:43.117996$GNGGA,172642.30,4138.0379957,N,07032.4357094,W,1,17,0.8,8.135,M,-29.746,M,0.0,*6D
###2023-12-09 12:26:43.317503$GNGGA,172642.50,4138.0379960,N,07032.4357095,W,1,17,0.8,8.131,M,-29.746,M,0.0,*6A
###2023-12-09 12:26:43.517596$GNGGA,172642.70,4138.0379960,N,07032.4357100,W,1,17,0.8,8.122,M,-29.746,M,0.0,*67
###2023-12-09 12:26:43.716116$GNGGA,172642.90,4138.0379950,N,07032.4357080,W,1,17,0.8,8.116,M,-29.746,M,0.0,*64
###2023-12-09 12:26:43.918485$GNRMC,172643.10,A,4138.0379949,N,07032.4357084,W,0.02,,091223,,,A*49
###2023-12-09 12:26:43.921537$GNGGA,172643.10,4138.0379949,N,07032.4357084,W,1,17,0.8,8.110,M,-29.746,M,0.0,*67
###2023-12-09 12:26:43.923525$GPGSA,A,3,03,16,26,28,29,31,32,,,,,,1.5,0.8,1.3*3E
###2023-12-09 12:26:43.925297$GLGSA,A,3,71,72,73,75,,,,,,,,,1.5,0.8,1.3*25
###2023-12-09 12:26:43.926939$GAGSA,A,3,21,27,,,,,,,,,,,1.5,0.8,1.3*2B
###2023-12-09 12:26:43.928692$GBGSA,A,3,14,25,26,33,,,,,,,,,1.5,0.8,1.3*28
###2023-12-09 12:26:43.931200$GPGSV,2,1,07,03,39,281,43,16,33,206,43,26,62,205,42,28,61,050,43*72
###2023-12-09 12:26:43.933410$GPGSV,2,2,07,29,24,078,41,31,73,346,40,32,34,132,47,,,,*4F
###2023-12-09 12:26:43.935917$GLGSV,1,1,04,71,61,167,48,72,62,315,45,73,52,031,48,75,19,238,42*63
###2023-12-09 12:26:43.937837$GAGSV,1,1,02,21,74,179,43,27,44,051,46,,,,,,,,*61
###2023-12-09 12:26:43.940346$GBGSV,1,1,04,14,59,200,46,25,30,250,37,26,38,056,48,33,64,263,37*60
###2023-12-09 12:26:43.941648$GNVTG,,T,,M,0.02,N,0.04,K,A*3B
###2023-12-09 12:26:43.943469$GNGST,172643.10,30.000,,,,0.230,0.220,0.540*50
###2023-12-09 12:26:43.944931$GNZDA,172643.10,09,12,2023,00,00*75
###2023-12-09 12:26:43.945733$GNEBP,,,,,,M*13
###2023-12-09 12:26:44.117514$GNGGA,172643.30,4138.0379934,N,07032.4357064,W,1,17,0.8,8.110,M,-29.746,M,0.0,*61
###2023-12-09 12:26:44.315462$GNGGA,172643.50,4138.0379922,N,07032.4357056,W,1,17,0.8,8.097,M,-29.746,M,0.0,*6F
###2023-12-09 12:26:44.516225$GNGGA,172643.70,4138.0379914,N,07032.4357047,W,1,17,0.8,8.092,M,-29.746,M,0.0,*6D
###2023-12-09 12:26:44.715388$GNGGA,172643.90,4138.0379899,N,07032.4357038,W,1,17,0.8,8.092,M,-29.746,M,0.0,*6F
###2023-12-09 12:26:44.920963$GNRMC,172644.10,A,4138.0379887,N,07032.4357036,W,0.02,,091223,,,A*44
###2023-12-09 12:26:44.924004$GNGGA,172644.10,4138.0379887,N,07032.4357036,W,1,17,0.8,8.084,M,-29.746,M,0.0,*66
###2023-12-09 12:26:44.925993$GPGSA,A,3,03,16,26,28,29,31,32,,,,,,1.5,0.8,1.3*3E
###2023-12-09 12:26:44.927774$GLGSA,A,3,71,72,73,75,,,,,,,,,1.5,0.8,1.3*25
###2023-12-09 12:26:44.929392$GAGSA,A,3,21,27,,,,,,,,,,,1.5,0.8,1.3*2B
###2023-12-09 12:26:44.931135$GBGSA,A,3,14,25,26,33,,,,,,,,,1.5,0.8,1.3*28
###2023-12-09 12:26:44.933629$GPGSV,2,1,07,03,39,281,43,16,33,206,43,26,62,205,41,28,61,050,43*71
###2023-12-09 12:26:44.936128$GPGSV,2,2,07,29,24,078,41,31,73,346,40,32,34,132,47,,,,*4F
###2023-12-09 12:26:44.938677$GLGSV,1,1,04,71,61,167,48,72,62,315,45,73,52,031,48,75,19,238,42*63
###2023-12-09 12:26:44.940626$GAGSV,1,1,02,21,74,179,42,27,44,051,46,,,,,,,,*60
###2023-12-09 12:26:44.943136$GBGSV,1,1,04,14,59,200,45,25,30,250,37,26,38,056,48,33,64,263,37*63
###2023-12-09 12:26:44.944475$GNVTG,,T,,M,0.02,N,0.04,K,A*3B
###2023-12-09 12:26:44.946153$GNGST,172644.10,30.000,,,,0.230,0.220,0.540*57
###2023-12-09 12:26:44.947529$GNZDA,172644.10,09,12,2023,00,00*72
###2023-12-09 12:26:44.948240$GNEBP,,,,,,M*13
