###2023-12-09 13:00:17.972823$GLGSA,A,3,65,71,72,73,74,75,,,,,,,1.1,0.6,0.9*24
###2023-12-09 13:00:17.974429$GAGSA,A,3,04,19,21,27,,,,,,,,,1.1,0.6,0.9*26
###2023-12-09 13:00:17.976101$GBGSA,A,3,14,24,25,26,33,,,,,,,,1.1,0.6,0.9*2F
###2023-12-09 13:00:17.978417$GPGSV,2,1,08,03,35,262,42,04,32,311,44,16,49,212,46,26,79,210,48*7D
###2023-12-09 13:00:17.980748$GPGSV,2,2,08,28,49,070,42,29,25,061,40,31,69,036,46,32,19,140,43*79
###2023-12-09 13:00:17.983071$GLGSV,2,1,06,65,24,327,43,71,41,173,45,72,73,271,46,73,36,041,43*67
###2023-12-09 13:00:17.984805$GLGSV,2,2,06,74,70,336,42,75,32,252,43,,,,,,,,*66
###2023-12-09 13:00:17.987136$GAGSV,1,1,04,04,29,312,43,19,84,219,40,21,86,124,46,27,33,048,42*69
###2023-12-09 13:00:17.989452$GBGSV,2,1,05,14,43,193,44,24,74,024,47,25,40,262,46,26,26,063,41*63
###2023-12-09 13:00:17.990918$GBGSV,2,2,05,33,57,233,48,,,,,,,,,,,,*52
###2023-12-09 13:00:17.992204$GNVTG,22.46,T,,M,1.94,N,3.60,K,A*18
###2023-12-09 13:00:17.993843$GNGST,180017.10,18.000,,,,0.081,0.068,0.160*50
###2023-12-09 13:00:17.995140$GNZDA,180017.10,09,12,2023,00,00*7F
###2023-12-09 13:00:17.995775$GNEBP,,,,,,M*13
###2023-12-09 13:00:18.162965$GNGGA,180017.30,4138.0245500,N,07032.3202832,W,1,24,0.6,13.153,M,-29.744,M,0.0,*52
###2023-12-09 13:00:18.362851$GNGGA,180017.50,4138.0246575,N,07032.3202443,W,1,24,0.6,13.157,M,-29.744,M,0.0,*5B
###2023-12-09 13:00:18.563027$GNGGA,180017.70,4138.0247554,N,07032.3201839,W,1,24,0.6,13.156,M,-29.744,M,0.0,*58
###2023-12-09 13:00:18.763214$GNGGA,180017.90,4138.0248339,N,07032.3201066,W,1,24,0.6,13.162,M,-29.744,M,0.0,*51
###2023-12-09 13:00:18.964987$GNRMC,180018.10,A,4138.0249125,N,07032.3200292,W,1.75,33.03,091223,,,A*61
###2023-12-09 13:00:18.967843$GNGGA,180018.10,4138.0249125,N,07032.3200292,W,1,24,0.6,13.168,M,-29.744,M,0.0,*5A
###2023-12-09 13:00:18.969696$GPGSA,A,3,03,04,16,26,28,29,31,32,,,,,1.1,0.6,0.9*3B
###2023-12-09 13:00:18.971423$GLGSA,A,3,65,71,72,73,74,75,,,,,,,1.1,0.6,0.9*24
###2023-12-09 13:00:18.973002$GAGSA,A,3,04,19,21,27,,,,,,,,,1.1,0.6,0.9*26
###2023-12-09 13:00:18.974655$GBGSA,A,3,14,24,25,26,33,,,,,,,,1.1,0.6,0.9*2F
###2023-12-09 13:00:18.976968$GPGSV,2,1,08,03,35,262,43,04,32,311,43,16,49,212,45,26,79,210,48*78
###2023-12-09 13:00:18.979306$GPGSV,2,2,08,28,49,070,43,29,25,061,40,31,69,036,46,32,19,140,43*78
###2023-12-09 13:00:18.981637$GLGSV,2,1,06,65,24,327,44,71,41,173,48,72,73,271,46,73,36,041,41*6F
###2023-12-09 13:00:18.983393$GLGSV,2,2,06,74,70,336,42,75,32,252,46,,,,,,,,*63
###2023-12-09 13:00:18.985724$GAGSV,1,1,04,04,29,312,42,19,84,219,40,21,86,124,46,27,33,048,41*6B
###2023-12-09 13:00:18.988075$GBGSV,2,1,05,14,43,193,44,24,74,024,47,25,40,262,45,26,26,063,40*61
###2023-12-09 13:00:18.989533$GBGSV,2,2,05,33,57,233,47,,,,,,,,,,,,*5D
###2023-12-09 13:00:18.990832$GNVTG,33.03,T,,M,1.75,N,3.24,K,A*16
###2023-12-09 13:00:18.992481$GNGST,180018.10,18.000,,,,0.081,0.068,0.160*5F
###2023-12-09 13:00:18.993771$GNZDA,180018.10,09,12,2023,00,00*70
###2023-12-09 13:00:18.994408$GNEBP,,,,,,M*13
###2023-12-09 13:00:19.162314$GNGGA,180018.30,4138.0249938,N,07032.3199563,W,1,24,0.6,13.170,M,-29.744,M,0.0,*5F
###2023-12-09 13:00:19.365141$GNGGA,180018.50,4138.0250713,N,07032.3198822,W,1,24,0.6,13.174,M,-29.744,M,0.0,*5B
###2023-12-09 13:00:19.564372$GNGGA,180018.70,4138.0251390,N,07032.3198002,W,1,24,0.6,13.186,M,-29.744,M,0.0,*50
###2023-12-09 13:00:19.764595$GNGGA,180018.90,4138.0251915,N,07032.3197031,W,1,24,0.6,13.190,M,-29.744,M,0.0,*51
###2023-12-09 13:00:19.965007$GNRMC,180019.10,A,4138.0252458,N,07032.3196112,W,1.61,45.25,091223,,,A*62
###2023-12-09 13:00:19.967890$GNGGA,180019.10,4138.0252458,N,07032.3196112,W,1,24,0.6,13.194,M,-29.744,M,0.0,*5A
###2023-12-09 13:00:19.969743$GPGSA,A,3,03,04,16,26,28,29,31,32,,,,,1.1,0.6,0.9*3B
###2023-12-09 13:00:19.971471$GLGSA,A,3,65,71,72,73,74,75,,,,,,,1.1,0.6,0.9*24
###2023-12-09 13:00:19.973047$GAGSA,A,3,04,19,21,27,,,,,,,,,1.1,0.6,0.9*26
###2023-12-09 13:00:19.974698$GBGSA,A,3,14,24,25,26,33,,,,,,,,1.1,0.6,0.9*2F
###2023-12-09 13:00:19.977016$GPGSV,2,1,08,03,35,262,44,04,32,311,42,16,49,212,46,26,79,210,48*7D
###2023-12-09 13:00:19.979353$GPGSV,2,2,08,28,49,070,43,29,25,061,41,31,69,036,46,32,19,140,43*79
###2023-12-09 13:00:19.981671$GLGSV,2,1,06,65,24,327,41,71,41,173,47,72,73,271,46,73,36,041,45*61
###2023-12-09 13:00:19.983415$GLGSV,2,2,06,74,70,336,42,75,32,252,45,,,,,,,,*60
###2023-12-09 13:00:19.985717$GAGSV,1,1,04,04,29,312,42,19,84,219,40,21,86,124,46,27,33,048,40*6A
###2023-12-09 13:00:19.988047$GBGSV,2,1,05,14,43,193,46,24,74,024,48,25,40,262,47,26,26,063,43*6D
###2023-12-09 13:00:19.989495$GBGSV,2,2,05,33,57,233,48,,,,,,,,,,,,*52
###2023-12-09 13:00:19.990785$GNVTG,45.25,T,,M,1.61,N,2.99,K,A*11
###2023-12-09 13:00:19.992429$GNGST,180019.10,18.000,,,,0.081,0.068,0.160*5E
###2023-12-09 13:00:19.993718$GNZDA,180019.10,09,12,2023,00,00*71
###2023-12-09 13:00:19.994355$GNEBP,,,,,,M*13
###2023-12-09 13:00:20.162040$GNGGA,180019.30,4138.0253157,N,07032.3195236,W,1,24,0.6,13.201,M,-29.744,M,0.0,*5A
###2023-12-09 13:00:20.362906$GNGGA,180019.50,4138.0253740,N,07032.3194222,W,1,24,0.6,13.205,M,-29.744,M,0.0,*5C
###2023-12-09 13:00:20.562940$GNGGA,180019.70,4138.0254026,N,07032.3193119,W,1,24,0.6,13.201,M,-29.744,M,0.0,*56
###2023-12-09 13:00:20.770686$GNGGA,180019.90,4138.0254250,N,07032.3192056,W,1,24,0.6,13.194,M,-29.744,M,0.0,*5F
###2023-12-09 13:00:20.971741$GNRMC,180020.10,A,4138.0254637,N,07032.3191000,W,1.73,58.06,091223,,,A*6E
###2023-12-09 13:00:20.974614$GNGGA,180020.10,4138.0254637,N,07032.3191000,W,1,24,0.6,13.200,M,-29.744,M,0.0,*56
###2023-12-09 13:00:20.976457$GPGSA,A,3,03,04,16,26,28,29,31,32,,,,,1.1,0.6,0.9*3B
###2023-12-09 13:00:20.978165$GLGSA,A,3,65,71,72,73,74,75,,,,,,,1.1,0.6,0.9*24
###2023-12-09 13:00:20.979788$GAGSA,A,3,04,19,21,27,,,,,,,,,1.1,0.6,0.9*26
###2023-12-09 13:00:20.981480$GBGSA,A,3,14,24,25,26,33,,,,,,,,1.1,0.6,0.9*2F
###2023-12-09 13:00:20.983848$GPGSV,2,1,08,03,35,262,44,04,32,311,41,16,49,212,47,26,79,210,48*7F
###2023-12-09 13:00:20.986179$GPGSV,2,2,08,28,49,070,44,29,25,061,41,31,69,036,45,32,19,140,41*7F
###2023-12-09 13:00:20.988514$GLGSV,2,1,06,65,24,327,40,71,41,173,45,72,73,271,46,73,36,041,44*63
###2023-12-09 13:00:20.990244$GLGSV,2,2,06,74,70,336,42,75,32,252,45,,,,,,,,*60
###2023-12-09 13:00:20.992563$GAGSV,1,1,04,04,29,312,40,19,84,219,40,21,86,124,46,27,33,048,43*6B
###2023-12-09 13:00:20.994897$GBGSV,2,1,05,14,43,193,46,24,74,024,48,25,40,262,46,26,26,063,41*6E
###2023-12-09 13:00:20.996349$GBGSV,2,2,05,33,57,233,48,,,,,,,,,,,,*52
###2023-12-09 13:00:20.997635$GNVTG,58.06,T,,M,1.73,N,3.20,K,A*1C
###2023-12-09 13:00:20.999283$GNGST,180020.10,18.000,,,,0.081,0.068,0.160*54
###2023-12-09 13:00:21.000569$GNZDA,180020.10,09,12,2023,00,00*7B
###2023-12-09 13:00:21.001204$GNEBP,,,,,,M*13
###2023-12-09 13:00:21.165095$GNGGA,180020.30,4138.0255099,N,07032.3189827,W,1,24,0.6,13.211,M,-29.744,M,0.0,*53
###2023-12-09 13:00:21.361444$GNGGA,180020.50,4138.0255278,N,07032.3188571,W,1,24,0.6,13.208,M,-29.744,M,0.0,*5F
###2023-12-09 13:00:21.562217$GNGGA,180020.70,4138.0255192,N,07032.3187431,W,1,24,0.6,13.194,M,-29.744,M,0.0,*56
###2023-12-09 13:00:21.763159$GNGGA,180020.90,4138.0255173,N,07032.3186361,W,1,24,0.6,13.199,M,-29.744,M,0.0,*59
###2023-12-09 13:00:21.969429$GNRMC,180021.10,A,4138.0255374,N,07032.3185063,W,2.00,79.97,091223,,,A*60
###2023-12-09 13:00:21.972311$GNGGA,180021.10,4138.0255374,N,07032.3185063,W,1,24,0.6,13.224,M,-29.744,M,0.0,*52
###2023-12-09 13:00:21.974172$GPGSA,A,3,03,04,16,26,28,29,31,32,,,,,1.1,0.6,0.9*3B
###2023-12-09 13:00:21.975911$GLGSA,A,3,65,71,72,73,74,75,,,,,,,1.1,0.6,0.9*24
###2023-12-09 13:00:21.977500$GAGSA,A,3,04,19,21,27,,,,,,,,,1.1,0.6,0.9*26
###2023-12-09 13:00:21.979163$GBGSA,A,3,14,24,25,26,33,,,,,,,,1.1,0.6,0.9*2F
###2023-12-09 13:00:21.981493$GPGSV,2,1,08,03,35,262,43,04,32,311,43,16,49,212,46,26,79,210,48*7B
###2023-12-09 13:00:21.983844$GPGSV,2,2,08,28,49,070,45,29,25,061,43,31,69,036,46,32,19,140,41*7F
###2023-12-09 13:00:21.986179$GLGSV,2,1,06,65,24,327,42,71,41,173,45,72,73,271,46,73,36,041,44*61
###2023-12-09 13:00:21.987944$GLGSV,2,2,06,74,70,336,42,75,32,252,44,,,,,,,,*61
###2023-12-09 13:00:21.990501$GAGSV,1,1,04,04,29,312,42,19,84,219,40,21,86,124,46,27,33,048,42*68
###2023-12-09 13:00:21.992863$GBGSV,2,1,05,14,43,193,44,24,74,024,48,25,40,262,45,26,26,063,44*6A
###2023-12-09 13:00:21.994328$GBGSV,2,2,05,33,57,233,49,,,,,,,,,,,,*53
###2023-12-09 13:00:21.995636$GNVTG,79.97,T,,M,2.00,N,3.71,K,A*14
###2023-12-09 13:00:21.997285$GNGST,180021.10,18.000,,,,0.081,0.068,0.160*55
###2023-12-09 13:00:21.998616$GNZDA,180021.10,09,12,2023,00,00*7A
###2023-12-09 13:00:21.999260$GNEBP,,,,,,M*13
###2023-12-09 13:00:22.161829$GNGGA,180021.30,4138.0255363,N,07032.3183669,W,1,24,0.6,13.213,M,-29.744,M,0.0,*58
###2023-12-09 13:00:22.362421$GNGGA,180021.50,4138.0255092,N,07032.3182526,W,1,24,0.6,13.193,M,-29.744,M,0.0,*51
