###2023-12-09 13:30:22.593418$GNGGA,183021.70,4138.0355088,N,07032.4161777,W,1,21,0.8,13.333,M,-29.745,M,0.0,*54
###2023-12-09 13:30:22.792271$GNGGA,183021.90,4138.0355149,N,07032.4160714,W,1,22,0.8,13.337,M,-29.745,M,0.0,*55
###2023-12-09 13:30:22.993735$GNRMC,183022.10,A,4138.0355217,N,07032.4159835,W,1.11,80.02,091223,,,A*61
###2023-12-09 13:30:22.996615$GNGGA,183022.10,4138.0355217,N,07032.4159835,W,1,21,0.9,13.336,M,-29.745,M,0.0,*53
###2023-12-09 13:30:22.998411$GPGSA,A,3,03,04,16,26,28,29,31,,,,,,1.4,0.9,1.1*39
###2023-12-09 13:30:23.000079$GLGSA,A,3,65,72,73,74,75,,,,,,,,1.4,0.9,1.1*21
###2023-12-09 13:30:23.001667$GAGSA,A,3,04,19,21,27,,,,,,,,,1.4,0.9,1.1*25
###2023-12-09 13:30:23.003335$GBGSA,A,3,24,25,26,33,35,,,,,,,,1.4,0.9,1.1*2F
###2023-12-09 13:30:23.005673$GPGSV,2,1,07,03,28,248,37,04,44,309,46,16,64,220,47,26,86,041,49*76
###2023-12-09 13:30:23.007727$GPGSV,2,2,07,28,39,083,42,29,21,049,44,31,61,063,47,,,,*45
###2023-12-09 13:30:23.010067$GLGSV,2,1,05,65,37,320,44,72,65,224,46,73,24,051,44,74,61,011,43*60
###2023-12-09 13:30:23.011536$GLGSV,2,2,05,75,42,268,48,,,,,,,,,,,,*54
###2023-12-09 13:30:23.013862$GAGSV,1,1,04,04,38,310,43,19,74,182,41,21,78,048,45,27,24,050,42*62
###2023-12-09 13:30:23.016197$GBGSV,2,1,05,24,64,043,47,25,49,274,46,26,17,069,42,33,48,219,47*6A
###2023-12-09 13:30:23.017651$GBGSV,2,2,05,35,16,058,42,,,,,,,,,,,,*54
###2023-12-09 13:30:23.018979$GNVTG,80.02,T,,M,1.11,N,2.05,K,A*1F
###2023-12-09 13:30:23.020606$GNGST,183022.10,5.800,,,,0.160,0.097,0.250*6F
###2023-12-09 13:30:23.021895$GNZDA,183022.10,09,12,2023,00,00*7A
###2023-12-09 13:30:23.022535$GNEBP,,,,,,M*13
###2023-12-09 13:30:23.192213$GNGGA,183022.30,4138.0355263,N,07032.4158932,W,1,21,0.9,13.344,M,-29.745,M,0.0,*50
###2023-12-09 13:30:23.392473$GNGGA,183022.50,4138.0355251,N,07032.4157959,W,1,21,0.9,13.347,M,-29.745,M,0.0,*56
###2023-12-09 13:30:23.593500$GNGGA,183022.70,4138.0355261,N,07032.4157133,W,1,21,0.9,13.339,M,-29.745,M,0.0,*5A
###2023-12-09 13:30:23.791145$GNGGA,183022.90,4138.0355292,N,07032.4156383,W,1,22,0.7,13.345,M,-29.745,M,0.0,*56
###2023-12-09 13:30:23.991802$GNRMC,183023.10,A,4138.0355259,N,07032.4155512,W,1.21,93.13,091223,,,A*6F
###2023-12-09 13:30:23.994675$GNGGA,183023.10,4138.0355259,N,07032.4155512,W,1,22,0.7,13.352,M,-29.745,M,0.0,*53
###2023-12-09 13:30:23.996469$GPGSA,A,3,03,04,16,26,28,29,31,,,,,,1.2,0.7,1.0*30
###2023-12-09 13:30:23.998122$GLGSA,A,3,65,72,73,74,75,,,,,,,,1.2,0.7,1.0*28
###2023-12-09 13:30:23.999718$GAGSA,A,3,04,19,21,27,,,,,,,,,1.2,0.7,1.0*2C
###2023-12-09 13:30:24.001425$GBGSA,A,3,14,24,25,26,33,35,,,,,,,1.2,0.7,1.0*23
###2023-12-09 13:30:24.003751$GPGSV,2,1,07,03,28,248,35,04,44,309,43,16,64,220,46,26,86,041,47*7E
###2023-12-09 13:30:24.005780$GPGSV,2,2,07,28,39,083,40,29,21,049,41,31,61,063,46,,,,*43
###2023-12-09 13:30:24.008114$GLGSV,2,1,05,65,37,320,44,72,65,224,46,73,24,051,44,74,61,011,43*60
###2023-12-09 13:30:24.009569$GLGSV,2,2,05,75,42,268,47,,,,,,,,,,,,*5B
###2023-12-09 13:30:24.011896$GAGSV,1,1,04,04,38,310,43,19,74,182,42,21,78,047,46,27,24,050,42*6D
###2023-12-09 13:30:24.014218$GBGSV,2,1,06,14,30,190,37,24,64,043,48,25,49,274,46,26,17,069,43*68
###2023-12-09 13:30:24.015963$GBGSV,2,2,06,33,48,219,48,35,16,058,44,,,,,,,,*6B
###2023-12-09 13:30:24.017249$GNVTG,93.13,T,,M,1.21,N,2.23,K,A*1A
###2023-12-09 13:30:24.018911$GNGST,183023.10,6.800,,,,0.160,0.097,0.250*6D
###2023-12-09 13:30:24.020210$GNZDA,183023.10,09,12,2023,00,00*7B
###2023-12-09 13:30:24.020849$GNEBP,,,,,,M*13
###2023-12-09 13:30:24.191185$GNGGA,183023.30,4138.0355269,N,07032.4154673,W,1,22,0.7,13.353,M,-29.745,M,0.0,*56
###2023-12-09 13:30:24.389135$GNGGA,183023.50,4138.0355361,N,07032.4153947,W,1,21,0.9,13.360,M,-29.745,M,0.0,*5B
###2023-12-09 13:30:24.589673$GNGGA,183023.70,4138.0355310,N,07032.4153193,W,1,22,0.7,13.361,M,-29.745,M,0.0,*52
###2023-12-09 13:30:24.791413$GNGGA,183023.90,4138.0355257,N,07032.4152374,W,1,22,0.7,13.364,M,-29.745,M,0.0,*51
###2023-12-09 13:30:24.992982$GNRMC,183024.10,A,4138.0355300,N,07032.4151712,W,0.87,98.78,091223,,,A*68
###2023-12-09 13:30:24.995839$GNGGA,183024.10,4138.0355300,N,07032.4151712,W,1,22,0.7,13.373,M,-29.745,M,0.0,*5C
###2023-12-09 13:30:24.997557$GPGSA,A,3,04,16,26,28,29,31,,,,,,,1.2,0.7,1.0*33
###2023-12-09 13:30:24.999208$GLGSA,A,3,65,72,73,74,75,,,,,,,,1.2,0.7,1.0*28
###2023-12-09 13:30:25.000784$GAGSA,A,3,04,19,21,27,,,,,,,,,1.2,0.7,1.0*2C
###2023-12-09 13:30:25.002479$GBGSA,A,3,14,24,25,26,33,35,,,,,,,1.2,0.7,1.0*23
###2023-12-09 13:30:25.004812$GPGSV,2,1,06,04,44,309,45,16,64,220,46,26,86,041,48,28,39,083,42*7A
###2023-12-09 13:30:25.006572$GPGSV,2,2,06,29,21,049,44,31,61,063,45,,,,,,,,*7B
###2023-12-09 13:30:25.008896$GLGSV,2,1,05,65,37,320,44,72,65,224,46,73,24,051,44,74,61,011,43*60
###2023-12-09 13:30:25.010342$GLGSV,2,2,05,75,42,268,47,,,,,,,,,,,,*5B
###2023-12-09 13:30:25.012664$GAGSV,1,1,04,04,38,310,43,19,74,182,42,21,78,047,45,27,24,050,42*6E
###2023-12-09 13:30:25.014991$GBGSV,2,1,06,14,30,190,39,24,64,043,48,25,49,274,48,26,17,069,43*68
###2023-12-09 13:30:25.016732$GBGSV,2,2,06,33,48,219,48,35,16,058,44,,,,,,,,*6B
###2023-12-09 13:30:25.018052$GNVTG,98.78,T,,M,0.87,N,1.62,K,A*17
###2023-12-09 13:30:25.019690$GNGST,183024.10,6.100,,,,0.160,0.097,0.250*63
###2023-12-09 13:30:25.020981$GNZDA,183024.10,09,12,2023,00,00*7C
###2023-12-09 13:30:25.021619$GNEBP,,,,,,M*13
###2023-12-09 13:30:25.190149$GNGGA,183024.30,4138.0355314,N,07032.4151078,W,1,22,0.7,13.375,M,-29.745,M,0.0,*56
###2023-12-09 13:30:25.390078$GNGGA,183024.50,4138.0355275,N,07032.4150377,W,1,22,0.7,13.377,M,-29.745,M,0.0,*59
###2023-12-09 13:30:25.589057$GNGGA,183024.70,4138.0355201,N,07032.4149691,W,1,21,0.8,13.391,M,-29.745,M,0.0,*59
###2023-12-09 13:30:25.789565$GNGGA,183024.90,4138.0355212,N,07032.4149081,W,1,21,0.8,13.389,M,-29.745,M,0.0,*5B
###2023-12-09 13:30:25.992629$GNRMC,183025.10,A,4138.0355192,N,07032.4148452,W,0.89,98.78,091223,,,A*61
###2023-12-09 13:30:25.996121$GNGGA,183025.10,4138.0355192,N,07032.4148452,W,1,21,0.8,13.386,M,-29.745,M,0.0,*5D
###2023-12-09 13:30:25.998215$GPGSA,A,3,04,16,26,28,29,31,,,,,,,1.3,0.8,1.0*3D
###2023-12-09 13:30:26.000220$GLGSA,A,3,65,72,73,74,75,,,,,,,,1.3,0.8,1.0*26
###2023-12-09 13:30:26.002138$GAGSA,A,3,04,19,21,27,,,,,,,,,1.3,0.8,1.0*22
###2023-12-09 13:30:26.004159$GBGSA,A,3,24,25,26,33,35,,,,,,,,1.3,0.8,1.0*28
###2023-12-09 13:30:26.006998$GPGSV,2,1,06,04,44,309,46,16,64,220,47,26,86,041,48,28,39,083,43*79
###2023-12-09 13:30:26.009144$GPGSV,2,2,06,29,21,049,44,31,61,063,45,,,,,,,,*7B
###2023-12-09 13:30:26.012008$GLGSV,2,1,05,65,37,320,43,72,65,224,46,73,24,051,43,74,61,011,43*60
###2023-12-09 13:30:26.013786$GLGSV,2,2,05,75,42,268,48,,,,,,,,,,,,*54
###2023-12-09 13:30:26.016627$GAGSV,1,1,04,04,38,310,43,19,74,182,42,21,78,047,46,27,24,050,42*6D
###2023-12-09 13:30:26.019452$GBGSV,2,1,05,24,64,043,47,25,49,274,46,26,17,069,42,33,48,219,48*65
###2023-12-09 13:30:26.021213$GBGSV,2,2,05,35,16,058,44,,,,,,,,,,,,*52
###2023-12-09 13:30:26.022786$GNVTG,98.78,T,,M,0.89,N,1.66,K,A*1D
###2023-12-09 13:30:26.024749$GNGST,183025.10,5.700,,,,0.160,0.097,0.250*67
###2023-12-09 13:30:26.026310$GNZDA,183025.10,09,12,2023,00,00*7D
###2023-12-09 13:30:26.027092$GNEBP,,,,,,M*13
###2023-12-09 13:30:26.189426$GNGGA,183025.30,4138.0355137,N,07032.4147804,W,1,21,0.8,13.393,M,-29.745,M,0.0,*54
###2023-12-09 13:30:26.389608$GNGGA,183025.50,4138.0355114,N,07032.4147188,W,1,21,0.8,13.407,M,-29.745,M,0.0,*54
###2023-12-09 13:30:26.590854$GNGGA,183025.70,4138.0355083,N,07032.4146625,W,1,21,0.8,13.416,M,-29.745,M,0.0,*58
###2023-12-09 13:30:26.789858$GNGGA,183025.90,4138.0355010,N,07032.4146065,W,1,21,0.7,13.403,M,-29.745,M,0.0,*55
###2023-12-09 13:30:26.992171$GNRMC,183026.10,A,4138.0354967,N,07032.4145499,W,0.82,98.78,091223,,,A*60
###2023-12-09 13:30:26.995654$GNGGA,183026.10,4138.0354967,N,07032.4145499,W,1,22,0.7,13.414,M,-29.745,M,0.0,*57
###2023-12-09 13:30:26.997827$GPGSA,A,3,03,04,16,26,28,29,31,,,,,,1.3,0.7,1.1*30
###2023-12-09 13:30:26.999925$GLGSA,A,3,65,71,72,73,74,75,,,,,,,1.3,0.7,1.1*2E
###2023-12-09 13:30:27.001842$GAGSA,A,3,04,19,21,27,,,,,,,,,1.3,0.7,1.1*2C
###2023-12-09 13:30:27.004141$GBGSA,A,3,24,25,26,33,35,,,,,,,,1.3,0.7,1.1*26
###2023-12-09 13:30:27.006987$GPGSV,2,1,07,03,28,248,36,04,44,309,45,16,64,220,48,26,86,041,49*7B
###2023-12-09 13:30:27.009459$GPGSV,2,2,07,28,39,083,46,29,21,049,45,31,61,063,47,,,,*40
###2023-12-09 13:30:27.012286$GLGSV,2,1,06,65,37,320,42,71,25,175,35,72,65,224,46,73,24,051,42*64
###2023-12-09 13:30:27.014401$GLGSV,2,2,06,74,61,011,43,75,42,268,46,,,,,,,,*6A
###2023-12-09 13:30:27.017259$GAGSV,1,1,04,04,38,310,44,19,74,182,43,21,78,047,47,27,24,050,44*6C
###2023-12-09 13:30:27.020088$GBGSV,2,1,05,24,64,043,49,25,49,274,46,26,17,069,44,33,48,219,49*6C
###2023-12-09 13:30:27.021849$GBGSV,2,2,05,35,16,058,47,,,,,,,,,,,,*51
###2023-12-09 13:30:27.023421$GNVTG,98.78,T,,M,0.82,N,1.51,K,A*12
