###2023-12-09 13:09:29.996349$GBGSV,2,1,06,14,40,192,43,24,71,031,49,25,43,265,48,26,24,064,46*62
###2023-12-09 13:09:29.998125$GBGSV,2,2,06,33,55,228,47,35,15,066,45,,,,,,,,*65
###2023-12-09 13:09:29.999474$GNVTG,167.53,T,,M,3.50,N,6.48,K,A*29
###2023-12-09 13:09:30.001127$GNGST,180929.10,18.000,,,,0.083,0.064,0.150*59
###2023-12-09 13:09:30.002419$GNZDA,180929.10,09,12,2023,00,00*7B
###2023-12-09 13:09:30.003075$GNEBP,,,,,,M*13
###2023-12-09 13:09:30.170839$GNGGA,180929.30,4138.0812800,N,07032.2589947,W,1,25,0.6,13.210,M,-29.741,M,0.0,*55
###2023-12-09 13:09:30.369927$GNGGA,180929.50,4138.0811068,N,07032.2588937,W,1,25,0.6,13.217,M,-29.741,M,0.0,*57
###2023-12-09 13:09:30.570751$GNGGA,180929.70,4138.0809383,N,07032.2587856,W,1,25,0.6,13.220,M,-29.741,M,0.0,*57
###2023-12-09 13:09:30.772909$GNGGA,180929.90,4138.0807671,N,07032.2586695,W,1,25,0.6,13.233,M,-29.741,M,0.0,*5D
###2023-12-09 13:09:30.973451$GNRMC,180930.10,A,4138.0805962,N,07032.2585543,W,3.40,151.84,091223,,,A*55
###2023-12-09 13:09:30.976332$GNGGA,180930.10,4138.0805962,N,07032.2585543,W,1,25,0.6,13.231,M,-29.741,M,0.0,*5B
###2023-12-09 13:09:30.978184$GPGSA,A,3,03,04,16,26,28,29,31,32,,,,,1.1,0.6,0.9*3B
###2023-12-09 13:09:30.979899$GLGSA,A,3,65,71,72,73,74,75,,,,,,,1.1,0.6,0.9*24
###2023-12-09 13:09:30.981471$GAGSA,A,3,04,19,21,27,,,,,,,,,1.1,0.6,0.9*26
###2023-12-09 13:09:30.983189$GBGSA,A,3,14,24,25,26,33,35,,,,,,,1.1,0.6,0.9*29
###2023-12-09 13:09:30.985508$GPGSV,2,1,08,03,33,257,45,04,36,311,46,16,54,214,47,26,84,210,49*74
###2023-12-09 13:09:30.987838$GPGSV,2,2,08,28,46,074,46,29,24,057,43,31,67,044,47,32,16,141,41*77
###2023-12-09 13:09:30.990174$GLGSV,2,1,06,65,27,326,42,71,36,173,43,72,72,254,47,73,32,044,45*62
###2023-12-09 13:09:30.991933$GLGSV,2,2,06,74,68,348,43,75,35,257,47,,,,,,,,*61
###2023-12-09 13:09:30.994261$GAGSV,1,1,04,04,31,312,44,19,82,199,40,21,85,085,46,27,31,048,43*60
###2023-12-09 13:09:30.996611$GBGSV,2,1,06,14,40,192,43,24,71,031,49,25,43,265,49,26,24,064,44*61
###2023-12-09 13:09:30.998355$GBGSV,2,2,06,33,55,228,48,35,15,066,44,,,,,,,,*6B
###2023-12-09 13:09:30.999694$GNVTG,151.84,T,,M,3.40,N,6.30,K,A*28
###2023-12-09 13:09:31.001339$GNGST,180930.10,18.000,,,,0.083,0.064,0.150*51
###2023-12-09 13:09:31.002637$GNZDA,180930.10,09,12,2023,00,00*73
###2023-12-09 13:09:31.003277$GNEBP,,,,,,M*13
###2023-12-09 13:09:31.169767$GNGGA,180930.30,4138.0804197,N,07032.2584422,W,1,25,0.6,13.238,M,-29.741,M,0.0,*54
###2023-12-09 13:09:31.371018$GNGGA,180930.50,4138.0802446,N,07032.2583480,W,1,25,0.6,13.236,M,-29.741,M,0.0,*5C
###2023-12-09 13:09:31.571498$GNGGA,180930.70,4138.0800651,N,07032.2582540,W,1,25,0.6,13.245,M,-29.741,M,0.0,*50
###2023-12-09 13:09:31.771842$GNGGA,180930.90,4138.0798864,N,07032.2581673,W,1,25,0.6,13.231,M,-29.741,M,0.0,*5B
###2023-12-09 13:09:31.983643$GNRMC,180931.10,A,4138.0797117,N,07032.2581100,W,3.36,170.80,091223,,,A*5B
###2023-12-09 13:09:31.986500$GNGGA,180931.10,4138.0797117,N,07032.2581100,W,1,25,0.6,13.248,M,-29.742,M,0.0,*5E
###2023-12-09 13:09:31.988365$GPGSA,A,3,03,04,16,26,28,29,31,32,,,,,1.1,0.6,0.9*3B
###2023-12-09 13:09:31.990066$GLGSA,A,3,65,71,72,73,74,75,,,,,,,1.1,0.6,0.9*24
###2023-12-09 13:09:31.991656$GAGSA,A,3,04,19,21,27,,,,,,,,,1.1,0.6,0.9*26
###2023-12-09 13:09:31.993368$GBGSA,A,3,14,24,25,26,33,35,,,,,,,1.1,0.6,0.9*29
###2023-12-09 13:09:31.995701$GPGSV,2,1,08,03,33,257,43,04,36,311,43,16,54,214,45,26,84,210,48*74
###2023-12-09 13:09:31.998028$GPGSV,2,2,08,28,46,074,45,29,24,057,42,31,67,046,47,32,16,141,41*77
###2023-12-09 13:09:32.000370$GLGSV,2,1,06,65,27,326,42,71,36,173,43,72,72,254,46,73,32,044,45*63
###2023-12-09 13:09:32.002119$GLGSV,2,2,06,74,68,348,43,75,35,257,46,,,,,,,,*60
###2023-12-09 13:09:32.004459$GAGSV,1,1,04,04,31,312,43,19,82,199,40,21,85,085,47,27,31,048,41*64
###2023-12-09 13:09:32.006803$GBGSV,2,1,06,14,40,192,41,24,71,031,49,25,43,265,48,26,24,064,44*62
###2023-12-09 13:09:32.008539$GBGSV,2,2,06,33,55,228,48,35,15,066,44,,,,,,,,*6B
###2023-12-09 13:09:32.009856$GNVTG,170.80,T,,M,3.36,N,6.23,K,A*2C
###2023-12-09 13:09:32.011511$GNGST,180931.10,18.000,,,,0.083,0.063,0.150*57
###2023-12-09 13:09:32.012801$GNZDA,180931.10,09,12,2023,00,00*72
###2023-12-09 13:09:32.013437$GNEBP,,,,,,M*13
###2023-12-09 13:09:32.169642$GNGGA,180931.30,4138.0795252,N,07032.2580656,W,1,25,0.6,13.255,M,-29.742,M,0.0,*55
###2023-12-09 13:09:32.370322$GNGGA,180931.50,4138.0793486,N,07032.2580260,W,1,25,0.6,13.236,M,-29.742,M,0.0,*5E
###2023-12-09 13:09:32.571715$GNGGA,180931.70,4138.0791675,N,07032.2580021,W,1,25,0.6,13.267,M,-29.742,M,0.0,*53
###2023-12-09 13:09:32.770694$GNGGA,180931.90,4138.0789836,N,07032.2579670,W,1,25,0.6,13.251,M,-29.742,M,0.0,*5C
###2023-12-09 13:09:32.981533$GNRMC,180932.10,A,4138.0788026,N,07032.2579367,W,3.38,175.29,091223,,,A*59
###2023-12-09 13:09:32.984411$GNGGA,180932.10,4138.0788026,N,07032.2579367,W,1,25,0.6,13.248,M,-29.742,M,0.0,*54
###2023-12-09 13:09:32.986266$GPGSA,A,3,03,04,16,26,28,29,31,32,,,,,1.1,0.6,0.9*3B
###2023-12-09 13:09:32.988001$GLGSA,A,3,65,71,72,73,74,75,,,,,,,1.1,0.6,0.9*24
###2023-12-09 13:09:32.989600$GAGSA,A,3,04,19,21,27,,,,,,,,,1.1,0.6,0.9*26
###2023-12-09 13:09:32.991337$GBGSA,A,3,14,24,25,26,33,35,,,,,,,1.1,0.6,0.9*29
###2023-12-09 13:09:32.993680$GPGSV,2,1,08,03,33,257,42,04,36,311,43,16,54,214,46,26,84,210,48*76
###2023-12-09 13:09:32.996035$GPGSV,2,2,08,28,46,074,45,29,24,057,42,31,67,046,47,32,15,141,41*74
###2023-12-09 13:09:32.998366$GLGSV,2,1,06,65,27,326,41,71,36,173,43,72,72,254,46,73,32,044,44*61
###2023-12-09 13:09:33.000125$GLGSV,2,2,06,74,68,348,43,75,35,257,45,,,,,,,,*63
###2023-12-09 13:09:33.002464$GAGSV,1,1,04,04,31,312,41,19,82,199,39,21,85,085,46,27,31,048,41*69
###2023-12-09 13:09:33.004818$GBGSV,2,1,06,14,40,192,42,24,71,031,49,25,43,265,48,26,24,064,44*61
###2023-12-09 13:09:33.006587$GBGSV,2,2,06,33,55,228,47,35,15,066,44,,,,,,,,*64
###2023-12-09 13:09:33.007923$GNVTG,175.29,T,,M,3.38,N,6.26,K,A*21
###2023-12-09 13:09:33.009575$GNGST,180932.10,18.000,,,,0.083,0.064,0.150*53
###2023-12-09 13:09:33.010877$GNZDA,180932.10,09,12,2023,00,00*71
###2023-12-09 13:09:33.011517$GNEBP,,,,,,M*13
###2023-12-09 13:09:33.173924$GNGGA,180932.30,4138.0786153,N,07032.2579292,W,1,25,0.6,13.266,M,-29.742,M,0.0,*5C
###2023-12-09 13:09:33.372214$GNGGA,180932.50,4138.0784302,N,07032.2579064,W,1,25,0.6,13.253,M,-29.742,M,0.0,*53
###2023-12-09 13:09:33.572957$GNGGA,180932.70,4138.0782490,N,07032.2578643,W,1,25,0.6,13.250,M,-29.742,M,0.0,*5A
###2023-12-09 13:09:33.771674$GNGGA,180932.90,4138.0780616,N,07032.2578403,W,1,25,0.6,13.260,M,-29.742,M,0.0,*5F
###2023-12-09 13:09:33.972387$GNRMC,180933.10,A,4138.0778695,N,07032.2578160,W,3.48,172.28,091223,,,A*5C
###2023-12-09 13:09:33.975251$GNGGA,180933.10,4138.0778695,N,07032.2578160,W,1,25,0.6,13.261,M,-29.742,M,0.0,*5B
###2023-12-09 13:09:33.977104$GPGSA,A,3,03,04,16,26,28,29,31,32,,,,,1.1,0.6,0.9*3B
###2023-12-09 13:09:33.978828$GLGSA,A,3,65,71,72,73,74,75,,,,,,,1.1,0.6,0.9*24
###2023-12-09 13:09:33.980413$GAGSA,A,3,04,19,21,27,,,,,,,,,1.1,0.6,0.9*26
###2023-12-09 13:09:33.982122$GBGSA,A,3,14,24,25,26,33,35,,,,,,,1.1,0.6,0.9*29
###2023-12-09 13:09:33.984466$GPGSV,2,1,08,03,33,257,43,04,36,311,44,16,54,214,46,26,84,210,47*7F
###2023-12-09 13:09:33.986810$GPGSV,2,2,08,28,46,074,45,29,24,057,42,31,67,046,47,32,15,141,41*74
###2023-12-09 13:09:33.989141$GLGSV,2,1,06,65,27,326,42,71,36,173,42,72,72,254,46,73,32,044,44*63
###2023-12-09 13:09:33.990896$GLGSV,2,2,06,74,68,348,43,75,35,257,46,,,,,,,,*60
###2023-12-09 13:09:33.993225$GAGSV,1,1,04,04,31,312,42,19,82,199,40,21,85,085,46,27,31,048,41*64
###2023-12-09 13:09:33.995571$GBGSV,2,1,06,14,40,192,42,24,71,031,48,25,43,265,48,26,24,064,44*60
###2023-12-09 13:09:33.997319$GBGSV,2,2,06,33,55,228,47,35,15,066,44,,,,,,,,*64
###2023-12-09 13:09:33.998653$GNVTG,172.28,T,,M,3.48,N,6.44,K,A*24
###2023-12-09 13:09:34.000302$GNGST,180933.10,18.000,,,,0.083,0.064,0.150*52
###2023-12-09 13:09:34.001593$GNZDA,180933.10,09,12,2023,00,00*70
###2023-12-09 13:09:34.002233$GNEBP,,,,,,M*13
###2023-12-09 13:09:34.169668$GNGGA,180933.30,4138.0776821,N,07032.2577861,W,1,25,0.6,13.264,M,-29.742,M,0.0,*54
###2023-12-09 13:09:34.371436$GNGGA,180933.50,4138.0774906,N,07032.2577549,W,1,25,0.6,13.288,M,-29.742,M,0.0,*51
###2023-12-09 13:09:34.571784$GNGGA,180933.70,4138.0772947,N,07032.2577193,W,1,25,0.6,13.280,M,-29.742,M,0.0,*5B
###2023-12-09 13:09:34.770657$GNGGA,180933.90,4138.0771001,N,07032.2576934,W,1,25,0.6,13.271,M,-29.742,M,0.0,*57
###2023-12-09 13:09:34.973284$GNRMC,180934.10,A,4138.0769094,N,07032.2576737,W,3.46,178.15,091223,,,A*5C
###2023-12-09 13:09:34.976178$GNGGA,180934.10,4138.0769094,N,07032.2576737,W,1,25,0.6,13.291,M,-29.742,M,0.0,*5E
###2023-12-09 13:09:34.978038$GPGSA,A,3,03,04,16,26,28,29,31,32,,,,,1.1,0.6,0.9*3B
###2023-12-09 13:09:34.979765$GLGSA,A,3,65,71,72,73,74,75,,,,,,,1.1,0.6,0.9*24
###2023-12-09 13:09:34.981348$GAGSA,A,3,04,19,21,27,,,,,,,,,1.1,0.6,0.9*26
###2023-12-09 13:09:34.983068$GBGSA,A,3,14,24,25,26,33,35,,,,,,,1.1,0.6,0.9*29
