###2023-12-09 12:50:31.967668$GLGSV,2,2,06,74,71,317,43,75,28,247,44,,,,,,,,*6D
###2023-12-09 12:50:31.970019$GAGSV,1,1,04,04,26,312,43,19,85,260,40,21,83,158,46,27,36,048,43*63
###2023-12-09 12:50:31.972373$GBGSV,2,1,05,14,48,194,45,24,77,011,48,25,37,257,45,26,30,060,44*60
###2023-12-09 12:50:31.973840$GBGSV,2,2,05,33,61,241,49,,,,,,,,,,,,*53
###2023-12-09 12:50:31.975184$GNVTG,128.61,T,,M,2.35,N,4.36,K,A*2A
###2023-12-09 12:50:31.976842$GNGST,175031.10,18.000,,,,0.078,0.066,0.150*55
###2023-12-09 12:50:31.978140$GNZDA,175031.10,09,12,2023,00,00*71
###2023-12-09 12:50:31.978792$GNEBP,,,,,,M*13
###2023-12-09 12:50:32.153615$GNGGA,175031.30,4138.0580032,N,07032.3814573,W,1,24,0.6,13.618,M,-29.744,M,0.0,*5B
###2023-12-09 12:50:32.349041$GNGGA,175031.50,4138.0579270,N,07032.3813158,W,1,24,0.6,13.620,M,-29.744,M,0.0,*5E
###2023-12-09 12:50:32.549077$GNGGA,175031.70,4138.0578567,N,07032.3811874,W,1,24,0.6,13.603,M,-29.744,M,0.0,*58
###2023-12-09 12:50:32.748671$GNGGA,175031.90,4138.0577859,N,07032.3810595,W,1,24,0.6,13.608,M,-29.744,M,0.0,*51
###2023-12-09 12:50:32.956260$GNRMC,175032.10,A,4138.0577160,N,07032.3809319,W,2.14,125.11,091223,,,A*58
###2023-12-09 12:50:32.959169$GNGGA,175032.10,4138.0577160,N,07032.3809319,W,1,24,0.6,13.607,M,-29.744,M,0.0,*5C
###2023-12-09 12:50:32.961055$GPGSA,A,3,03,04,16,26,28,29,31,32,,,,,1.1,0.6,0.9*3B
###2023-12-09 12:50:32.962801$GLGSA,A,3,65,71,72,73,74,75,,,,,,,1.1,0.6,0.9*24
###2023-12-09 12:50:32.964400$GAGSA,A,3,04,19,21,27,,,,,,,,,1.1,0.6,0.9*26
###2023-12-09 12:50:32.966061$GBGSA,A,3,14,24,25,26,33,,,,,,,,1.1,0.6,0.9*2F
###2023-12-09 12:50:32.968433$GPGSV,2,1,08,03,37,268,45,04,28,311,44,16,44,210,46,26,74,208,48*72
###2023-12-09 12:50:32.970812$GPGSV,2,2,08,28,53,065,45,29,26,066,44,31,71,024,47,32,23,138,41*7E
###2023-12-09 12:50:32.973170$GLGSV,2,1,06,65,18,329,44,71,48,171,46,72,71,291,47,73,41,038,46*6F
###2023-12-09 12:50:32.974942$GLGSV,2,2,06,74,71,317,43,75,28,247,43,,,,,,,,*6A
###2023-12-09 12:50:32.977298$GAGSV,1,1,04,04,26,312,41,19,85,260,41,21,83,158,46,27,36,048,43*60
###2023-12-09 12:50:32.979697$GBGSV,2,1,05,14,48,194,45,24,77,011,49,25,37,257,46,26,30,060,45*63
###2023-12-09 12:50:32.981175$GBGSV,2,2,05,33,61,241,49,,,,,,,,,,,,*53
###2023-12-09 12:50:32.982514$GNVTG,125.11,T,,M,2.14,N,3.96,K,A*2E
###2023-12-09 12:50:32.984187$GNGST,175032.10,18.000,,,,0.077,0.065,0.150*5A
###2023-12-09 12:50:32.985489$GNZDA,175032.10,09,12,2023,00,00*72
###2023-12-09 12:50:32.986133$GNEBP,,,,,,M*13
###2023-12-09 12:50:33.150007$GNGGA,175032.30,4138.0576497,N,07032.3808115,W,1,24,0.6,13.607,M,-29.744,M,0.0,*5D
###2023-12-09 12:50:33.349812$GNGGA,175032.50,4138.0575883,N,07032.3806905,W,1,24,0.6,13.608,M,-29.744,M,0.0,*59
###2023-12-09 12:50:33.548936$GNGGA,175032.70,4138.0575319,N,07032.3805699,W,1,24,0.6,13.603,M,-29.744,M,0.0,*51
###2023-12-09 12:50:33.749915$GNGGA,175032.90,4138.0574719,N,07032.3804566,W,1,24,0.6,13.603,M,-29.744,M,0.0,*58
###2023-12-09 12:50:33.948539$GNRMC,175033.10,A,4138.0574127,N,07032.3803487,W,1.81,124.06,091223,,,A*5B
###2023-12-09 12:50:33.951423$GNGGA,175033.10,4138.0574127,N,07032.3803487,W,1,24,0.6,13.606,M,-29.744,M,0.0,*56
###2023-12-09 12:50:33.953292$GPGSA,A,3,03,04,16,26,28,29,31,32,,,,,1.1,0.6,0.9*3B
###2023-12-09 12:50:33.955027$GLGSA,A,3,65,71,72,73,74,75,,,,,,,1.1,0.6,0.9*24
###2023-12-09 12:50:33.956619$GAGSA,A,3,04,19,21,27,,,,,,,,,1.1,0.6,0.9*26
###2023-12-09 12:50:33.958270$GBGSA,A,3,14,24,25,26,33,,,,,,,,1.1,0.6,0.9*2F
###2023-12-09 12:50:33.960621$GPGSV,2,1,08,03,37,268,46,04,28,311,42,16,44,210,48,26,74,208,50*70
###2023-12-09 12:50:33.962980$GPGSV,2,2,08,28,53,065,47,29,26,066,44,31,71,024,49,32,23,138,42*71
###2023-12-09 12:50:33.965325$GLGSV,2,1,06,65,18,329,43,71,48,171,46,72,71,291,47,73,41,038,46*68
###2023-12-09 12:50:33.967096$GLGSV,2,2,06,74,71,317,43,75,28,247,43,,,,,,,,*6A
###2023-12-09 12:50:33.969433$GAGSV,1,1,04,04,26,312,42,19,85,260,41,21,83,158,46,27,36,048,43*63
###2023-12-09 12:50:33.971787$GBGSV,2,1,05,14,48,194,45,24,77,011,48,25,37,257,46,26,30,060,44*63
###2023-12-09 12:50:33.973255$GBGSV,2,2,05,33,61,241,49,,,,,,,,,,,,*53
###2023-12-09 12:50:33.974593$GNVTG,124.06,T,,M,1.81,N,3.35,K,A*2F
###2023-12-09 12:50:33.976253$GNGST,175033.10,18.000,,,,0.077,0.065,0.150*5B
###2023-12-09 12:50:33.977550$GNZDA,175033.10,09,12,2023,00,00*73
###2023-12-09 12:50:33.978190$GNEBP,,,,,,M*13
###2023-12-09 12:50:34.148039$GNGGA,175033.30,4138.0573633,N,07032.3802352,W,1,24,0.6,13.607,M,-29.744,M,0.0,*5E
###2023-12-09 12:50:34.348901$GNGGA,175033.50,4138.0573186,N,07032.3801303,W,1,24,0.6,13.614,M,-29.744,M,0.0,*54
###2023-12-09 12:50:34.548894$GNGGA,175033.70,4138.0572646,N,07032.3800254,W,1,24,0.6,13.620,M,-29.744,M,0.0,*59
###2023-12-09 12:50:34.752140$GNGGA,175033.90,4138.0572146,N,07032.3799227,W,1,24,0.6,13.615,M,-29.744,M,0.0,*5D
###2023-12-09 12:50:34.950205$GNRMC,175034.10,A,4138.0571740,N,07032.3798254,W,1.54,116.96,091223,,,A*5B
###2023-12-09 12:50:34.953100$GNGGA,175034.10,4138.0571740,N,07032.3798254,W,1,24,0.6,13.624,M,-29.744,M,0.0,*56
###2023-12-09 12:50:34.954982$GPGSA,A,3,03,04,16,26,28,29,31,32,,,,,1.1,0.6,0.9*3B
###2023-12-09 12:50:34.956703$GLGSA,A,3,65,71,72,73,74,75,,,,,,,1.1,0.6,0.9*24
###2023-12-09 12:50:34.958292$GAGSA,A,3,04,19,21,27,,,,,,,,,1.1,0.6,0.9*26
###2023-12-09 12:50:34.959966$GBGSA,A,3,14,24,25,26,33,,,,,,,,1.1,0.6,0.9*2F
###2023-12-09 12:50:34.962310$GPGSV,2,1,08,03,37,268,45,04,28,311,44,16,44,210,47,26,74,208,49*72
###2023-12-09 12:50:34.964661$GPGSV,2,2,08,28,53,065,46,29,26,066,45,31,71,024,48,32,23,138,41*73
###2023-12-09 12:50:34.967012$GLGSV,2,1,06,65,18,329,43,71,48,171,46,72,71,291,47,73,41,038,46*68
###2023-12-09 12:50:34.968775$GLGSV,2,2,06,74,71,317,43,75,28,247,43,,,,,,,,*6A
###2023-12-09 12:50:34.971125$GAGSV,1,1,04,04,26,312,42,19,85,260,41,21,83,158,47,27,36,048,44*65
###2023-12-09 12:50:34.973466$GBGSV,2,1,05,14,48,194,44,24,77,011,47,25,37,257,46,26,30,060,43*6A
###2023-12-09 12:50:34.974940$GBGSV,2,2,05,33,61,241,48,,,,,,,,,,,,*52
###2023-12-09 12:50:34.976268$GNVTG,116.96,T,,M,1.54,N,2.84,K,A*24
###2023-12-09 12:50:34.977921$GNGST,175034.10,18.000,,,,0.076,0.065,0.150*5D
###2023-12-09 12:50:34.979225$GNZDA,175034.10,09,12,2023,00,00*74
###2023-12-09 12:50:34.979864$GNEBP,,,,,,M*13
###2023-12-09 12:50:35.147912$GNGGA,175034.30,4138.0571295,N,07032.3797218,W,1,24,0.6,13.631,M,-29.744,M,0.0,*5A
###2023-12-09 12:50:35.348664$GNGGA,175034.50,4138.0570863,N,07032.3796242,W,1,24,0.6,13.638,M,-29.744,M,0.0,*59
###2023-12-09 12:50:35.549859$GNGGA,175034.70,4138.0570444,N,07032.3795323,W,1,24,0.6,13.640,M,-29.744,M,0.0,*58
###2023-12-09 12:50:35.749780$GNGGA,175034.90,4138.0570006,N,07032.3794374,W,1,24,0.6,13.641,M,-29.744,M,0.0,*56
###2023-12-09 12:50:35.948607$GNRMC,175035.10,A,4138.0569631,N,07032.3793457,W,1.36,115.66,091223,,,A*52
###2023-12-09 12:50:35.951504$GNGGA,175035.10,4138.0569631,N,07032.3793457,W,1,24,0.6,13.643,M,-29.744,M,0.0,*56
###2023-12-09 12:50:35.953374$GPGSA,A,3,03,04,16,26,28,29,31,32,,,,,1.1,0.6,0.9*3B
###2023-12-09 12:50:35.955118$GLGSA,A,3,65,71,72,73,74,75,,,,,,,1.1,0.6,0.9*24
###2023-12-09 12:50:35.956702$GAGSA,A,3,04,19,21,27,,,,,,,,,1.1,0.6,0.9*26
###2023-12-09 12:50:35.958351$GBGSA,A,3,14,24,25,26,33,,,,,,,,1.1,0.6,0.9*2F
###2023-12-09 12:50:35.960703$GPGSV,2,1,08,03,37,268,45,04,28,311,43,16,44,210,47,26,74,208,49*75
###2023-12-09 12:50:35.963055$GPGSV,2,2,08,28,53,065,46,29,26,066,44,31,71,024,48,32,23,138,42*71
###2023-12-09 12:50:35.965409$GLGSV,2,1,06,65,18,329,43,71,48,171,47,72,71,291,47,73,41,038,46*69
###2023-12-09 12:50:35.967198$GLGSV,2,2,06,74,71,317,43,75,28,247,43,,,,,,,,*6A
###2023-12-09 12:50:35.969539$GAGSV,1,1,04,04,26,312,41,19,85,260,41,21,83,158,46,27,36,048,43*60
###2023-12-09 12:50:35.971900$GBGSV,2,1,05,14,48,194,45,24,77,011,48,25,37,257,45,26,30,060,43*67
###2023-12-09 12:50:35.973362$GBGSV,2,2,05,33,61,241,48,,,,,,,,,,,,*52
###2023-12-09 12:50:35.974702$GNVTG,115.66,T,,M,1.36,N,2.52,K,A*27
###2023-12-09 12:50:35.976355$GNGST,175035.10,18.000,,,,0.076,0.065,0.150*5C
###2023-12-09 12:50:35.977653$GNZDA,175035.10,09,12,2023,00,00*75
###2023-12-09 12:50:35.978295$GNEBP,,,,,,M*13
###2023-12-09 12:50:36.149777$GNGGA,175035.30,4138.0569304,N,07032.3792564,W,1,24,0.6,13.653,M,-29.744,M,0.0,*56
###2023-12-09 12:50:36.349917$GNGGA,175035.50,4138.0568919,N,07032.3791666,W,1,24,0.6,13.657,M,-29.744,M,0.0,*51
###2023-12-09 12:50:36.555032$GNGGA,175035.70,4138.0568518,N,07032.3790817,W,1,24,0.6,13.659,M,-29.744,M,0.0,*59
###2023-12-09 12:50:36.748332$GNGGA,175035.90,4138.0568199,N,07032.3789978,W,1,24,0.6,13.662,M,-29.744,M,0.0,*52
###2023-12-09 12:50:36.949921$GNRMC,175036.10,A,4138.0567916,N,07032.3789068,W,1.34,112.12,091223,,,A*50
###2023-12-09 12:50:36.952834$GNGGA,175036.10,4138.0567916,N,07032.3789068,W,1,24,0.6,13.664,M,-29.744,M,0.0,*57
###2023-12-09 12:50:36.954719$GPGSA,A,3,03,04,16,26,28,29,31,32,,,,,1.1,0.6,0.9*3B
###2023-12-09 12:50:36.956435$GLGSA,A,3,65,71,72,73,74,75,,,,,,,1.1,0.6,0.9*24
