###2023-12-09 13:30:51.013222$GAGSV,1,1,04,04,38,310,42,19,73,182,40,21,78,047,46,27,23,050,42*6E
###2023-12-09 13:30:51.015612$GBGSV,2,1,05,24,64,044,48,25,50,275,46,26,17,070,44,33,47,218,45*69
###2023-12-09 13:30:51.017089$GBGSV,2,2,05,35,16,058,44,,,,,,,,,,,,*52
###2023-12-09 13:30:51.018420$GNVTG,264.98,T,,M,0.35,N,0.65,K,A*27
###2023-12-09 13:30:51.020049$GNGST,183050.10,5.600,,,,0.140,0.078,0.210*63
###2023-12-09 13:30:51.021346$GNZDA,183050.10,09,12,2023,00,00*7F
###2023-12-09 13:30:51.021985$GNEBP,,,,,,M*13
###2023-12-09 13:30:51.193583$GNGGA,183050.30,4138.0344724,N,07032.4140656,W,1,21,0.9,12.856,M,-29.745,M,0.0,*5E
###2023-12-09 13:30:51.389560$GNGGA,183050.50,4138.0344583,N,07032.4141076,W,1,22,0.9,12.871,M,-29.745,M,0.0,*54
###2023-12-09 13:30:51.592924$GNGGA,183050.70,4138.0344423,N,07032.4141317,W,1,22,0.7,12.889,M,-29.745,M,0.0,*50
###2023-12-09 13:30:51.791190$GNGGA,183050.90,4138.0344278,N,07032.4141346,W,1,22,0.7,12.890,M,-29.745,M,0.0,*5A
###2023-12-09 13:30:51.992563$GNRMC,183051.10,A,4138.0344120,N,07032.4141233,W,0.35,264.98,091223,,,A*5B
###2023-12-09 13:30:51.995446$GNGGA,183051.10,4138.0344120,N,07032.4141233,W,1,21,0.7,12.861,M,-29.745,M,0.0,*53
###2023-12-09 13:30:51.997186$GPGSA,A,3,04,16,26,28,29,31,,,,,,,1.3,0.7,1.1*33
###2023-12-09 13:30:51.998918$GLGSA,A,3,65,71,72,73,74,75,,,,,,,1.3,0.7,1.1*2E
###2023-12-09 13:30:52.000505$GAGSA,A,3,04,19,21,27,,,,,,,,,1.3,0.7,1.1*2C
###2023-12-09 13:30:52.002155$GBGSA,A,3,24,25,26,33,35,,,,,,,,1.3,0.7,1.1*26
###2023-12-09 13:30:52.004499$GPGSV,2,1,06,04,44,309,44,16,64,220,45,26,86,041,48,28,39,083,45*7F
###2023-12-09 13:30:52.006253$GPGSV,2,2,06,29,21,049,44,31,61,063,46,,,,,,,,*78
###2023-12-09 13:30:52.008596$GLGSV,2,1,06,65,37,320,42,71,24,175,35,72,64,223,46,73,23,051,43*65
###2023-12-09 13:30:52.010348$GLGSV,2,2,06,74,61,011,42,75,42,269,47,,,,,,,,*6B
###2023-12-09 13:30:52.012687$GAGSV,1,1,04,04,38,310,43,19,73,182,40,21,78,047,46,27,23,050,41*6C
###2023-12-09 13:30:52.015037$GBGSV,2,1,05,24,64,044,49,25,50,275,47,26,17,070,45,33,47,218,46*6B
###2023-12-09 13:30:52.016509$GBGSV,2,2,05,35,16,058,44,,,,,,,,,,,,*52
###2023-12-09 13:30:52.017838$GNVTG,264.98,T,,M,0.35,N,0.65,K,A*27
###2023-12-09 13:30:52.019469$GNGST,183051.10,5.600,,,,0.140,0.078,0.210*62
###2023-12-09 13:30:52.020767$GNZDA,183051.10,09,12,2023,00,00*7E
###2023-12-09 13:30:52.021410$GNEBP,,,,,,M*13
###2023-12-09 13:30:52.189344$GNGGA,183051.30,4138.0343831,N,07032.4141395,W,1,22,0.7,12.863,M,-29.745,M,0.0,*53
###2023-12-09 13:30:52.389524$GNGGA,183051.50,4138.0343387,N,07032.4141938,W,1,21,0.9,12.899,M,-29.745,M,0.0,*56
###2023-12-09 13:30:52.587564$GNGGA,183051.70,4138.0342968,N,07032.4142302,W,1,21,0.9,12.907,M,-29.745,M,0.0,*58
###2023-12-09 13:30:52.789589$GNGGA,183051.90,4138.0342675,N,07032.4142046,W,1,21,0.9,12.900,M,-29.745,M,0.0,*51
###2023-12-09 13:30:52.994380$GNRMC,183052.10,A,4138.0342340,N,07032.4141738,W,0.80,229.61,091223,,,A*55
###2023-12-09 13:30:52.997270$GNGGA,183052.10,4138.0342340,N,07032.4141738,W,1,21,0.9,12.862,M,-29.745,M,0.0,*51
###2023-12-09 13:30:52.999011$GPGSA,A,3,04,16,26,28,29,31,,,,,,,1.6,0.9,1.2*3B
###2023-12-09 13:30:53.000727$GLGSA,A,3,65,72,73,74,75,83,,,,,,,1.6,0.9,1.2*2B
###2023-12-09 13:30:53.002308$GAGSA,A,3,04,19,21,27,,,,,,,,,1.6,0.9,1.2*24
###2023-12-09 13:30:53.003961$GBGSA,A,3,24,25,26,33,35,,,,,,,,1.6,0.9,1.2*2E
###2023-12-09 13:30:53.006279$GPGSV,2,1,06,04,44,309,43,16,64,220,44,26,86,041,48,28,39,083,45*79
###2023-12-09 13:30:53.008029$GPGSV,2,2,06,29,21,049,45,31,61,063,48,,,,,,,,*77
###2023-12-09 13:30:53.010348$GLGSV,2,1,06,65,37,320,40,72,64,223,45,73,23,051,47,74,61,011,42*67
###2023-12-09 13:30:53.012103$GLGSV,2,2,06,75,42,269,45,83,15,050,36,,,,,,,,*64
###2023-12-09 13:30:53.014425$GAGSV,1,1,04,04,38,310,41,19,73,182,40,21,78,047,46,27,23,050,43*6C
###2023-12-09 13:30:53.016762$GBGSV,2,1,05,24,64,044,49,25,50,275,47,26,17,070,47,33,47,218,44*6B
###2023-12-09 13:30:53.018209$GBGSV,2,2,05,35,16,058,46,,,,,,,,,,,,*50
###2023-12-09 13:30:53.019536$GNVTG,229.61,T,,M,0.80,N,1.48,K,A*28
###2023-12-09 13:30:53.021148$GNGST,183052.10,5.500,,,,0.140,0.078,0.220*61
###2023-12-09 13:30:53.022433$GNZDA,183052.10,09,12,2023,00,00*7D
###2023-12-09 13:30:53.023081$GNEBP,,,,,,M*13
###2023-12-09 13:30:53.189138$GNGGA,183052.30,4138.0341813,N,07032.4142043,W,1,21,0.9,12.895,M,-29.745,M,0.0,*5D
###2023-12-09 13:30:53.387374$GNGGA,183052.50,4138.0341129,N,07032.4142636,W,1,22,0.8,12.917,M,-29.745,M,0.0,*56
###2023-12-09 13:30:53.588087$GNGGA,183052.70,4138.0340636,N,07032.4142612,W,1,22,0.8,12.925,M,-29.745,M,0.0,*5B
###2023-12-09 13:30:53.787077$GNGGA,183052.90,4138.0340331,N,07032.4142046,W,1,21,0.8,12.931,M,-29.745,M,0.0,*56
###2023-12-09 13:30:53.989087$GNRMC,183053.10,A,4138.0339849,N,07032.4141820,W,1.17,189.26,091223,,,A*59
###2023-12-09 13:30:53.991956$GNGGA,183053.10,4138.0339849,N,07032.4141820,W,1,21,0.9,12.914,M,-29.745,M,0.0,*58
###2023-12-09 13:30:53.993690$GPGSA,A,3,04,16,26,28,29,31,,,,,,,1.6,0.9,1.2*3B
###2023-12-09 13:30:53.995416$GLGSA,A,3,65,72,73,74,75,83,,,,,,,1.6,0.9,1.2*2B
###2023-12-09 13:30:53.997002$GAGSA,A,3,04,19,21,27,,,,,,,,,1.6,0.9,1.2*24
###2023-12-09 13:30:53.998660$GBGSA,A,3,24,25,26,33,35,,,,,,,,1.6,0.9,1.2*2E
###2023-12-09 13:30:54.000996$GPGSV,2,1,06,04,44,309,42,16,64,220,45,26,86,041,48,28,39,083,44*78
###2023-12-09 13:30:54.002760$GPGSV,2,2,06,29,21,049,45,31,61,063,49,,,,,,,,*76
###2023-12-09 13:30:54.005098$GLGSV,2,1,06,65,37,320,44,72,64,223,45,73,23,051,47,74,61,011,43*62
###2023-12-09 13:30:54.006858$GLGSV,2,2,06,75,42,269,45,83,15,050,37,,,,,,,,*65
###2023-12-09 13:30:54.009199$GAGSV,1,1,04,04,38,310,43,19,73,182,40,21,78,047,46,27,23,050,44*69
###2023-12-09 13:30:54.011550$GBGSV,2,1,05,24,64,044,49,25,50,275,44,26,17,070,46,33,47,218,44*69
###2023-12-09 13:30:54.013012$GBGSV,2,2,05,35,16,058,47,,,,,,,,,,,,*51
###2023-12-09 13:30:54.014338$GNVTG,189.26,T,,M,1.17,N,2.16,K,A*25
###2023-12-09 13:30:54.015973$GNGST,183053.10,5.500,,,,0.140,0.078,0.220*60
###2023-12-09 13:30:54.017268$GNZDA,183053.10,09,12,2023,00,00*7C
###2023-12-09 13:30:54.017909$GNEBP,,,,,,M*13
###2023-12-09 13:30:54.188751$GNGGA,183053.30,4138.0339095,N,07032.4142090,W,1,21,0.9,12.952,M,-29.746,M,0.0,*52
###2023-12-09 13:30:54.386458$GNGGA,183053.50,4138.0338326,N,07032.4142260,W,1,20,0.9,12.934,M,-29.746,M,0.0,*52
###2023-12-09 13:30:54.585637$GNGGA,183053.70,4138.0337956,N,07032.4141882,W,1,21,0.8,12.951,M,-29.746,M,0.0,*54
###2023-12-09 13:30:54.788035$GNGGA,183053.90,4138.0337746,N,07032.4141393,W,1,22,0.8,12.951,M,-29.746,M,0.0,*5D
###2023-12-09 13:30:54.989213$GNRMC,183054.10,A,4138.0337198,N,07032.4141275,W,1.38,186.86,091223,,,A*57
###2023-12-09 13:30:54.992102$GNGGA,183054.10,4138.0337198,N,07032.4141275,W,1,21,0.9,12.966,M,-29.746,M,0.0,*58
###2023-12-09 13:30:54.993830$GPGSA,A,3,04,16,26,28,29,31,,,,,,,1.6,0.9,1.2*3B
###2023-12-09 13:30:54.995557$GLGSA,A,3,65,72,73,74,75,83,,,,,,,1.6,0.9,1.2*2B
###2023-12-09 13:30:54.997141$GAGSA,A,3,04,19,21,27,,,,,,,,,1.6,0.9,1.2*24
###2023-12-09 13:30:54.998799$GBGSA,A,3,24,25,26,33,35,,,,,,,,1.6,0.9,1.2*2E
###2023-12-09 13:30:55.001121$GPGSV,2,1,06,04,44,309,43,16,64,220,46,26,86,041,49,28,39,083,44*7B
###2023-12-09 13:30:55.002876$GPGSV,2,2,06,29,21,049,44,31,61,063,48,,,,,,,,*76
###2023-12-09 13:30:55.005217$GLGSV,2,1,06,65,37,320,44,72,64,223,45,73,23,051,45,74,61,011,43*60
###2023-12-09 13:30:55.006996$GLGSV,2,2,06,75,42,269,47,83,15,050,37,,,,,,,,*67
###2023-12-09 13:30:55.009319$GAGSV,1,1,04,04,39,310,43,19,73,182,40,21,78,047,46,27,23,050,44*68
###2023-12-09 13:30:55.011653$GBGSV,2,1,05,24,64,044,50,25,50,275,47,26,17,070,46,33,47,218,46*60
###2023-12-09 13:30:55.013109$GBGSV,2,2,05,35,16,058,46,,,,,,,,,,,,*50
###2023-12-09 13:30:55.014427$GNVTG,186.86,T,,M,1.38,N,2.56,K,A*29
###2023-12-09 13:30:55.016054$GNGST,183054.10,5.800,,,,0.140,0.078,0.220*6A
###2023-12-09 13:30:55.017342$GNZDA,183054.10,09,12,2023,00,00*7B
###2023-12-09 13:30:55.017978$GNEBP,,,,,,M*13
###2023-12-09 13:30:55.194330$GNGGA,183054.30,4138.0336503,N,07032.4141419,W,1,21,0.9,12.976,M,-29.746,M,0.0,*50
###2023-12-09 13:30:55.388660$GNGGA,183054.50,4138.0336015,N,07032.4141312,W,1,21,0.9,12.968,M,-29.746,M,0.0,*57
###2023-12-09 13:30:55.586800$GNGGA,183054.70,4138.0335805,N,07032.4140888,W,1,21,0.9,12.974,M,-29.746,M,0.0,*5B
###2023-12-09 13:30:55.785540$GNGGA,183054.90,4138.0335490,N,07032.4140509,W,1,21,0.9,12.979,M,-29.746,M,0.0,*5C
###2023-12-09 13:30:55.987458$GNRMC,183055.10,A,4138.0334897,N,07032.4140400,W,1.22,178.45,091223,,,A*53
###2023-12-09 13:30:55.990324$GNGGA,183055.10,4138.0334897,N,07032.4140400,W,1,21,0.9,12.994,M,-29.746,M,0.0,*54
###2023-12-09 13:30:55.992076$GPGSA,A,3,04,16,26,28,29,31,,,,,,,1.6,0.9,1.2*3B
###2023-12-09 13:30:55.993795$GLGSA,A,3,65,72,73,74,75,83,,,,,,,1.6,0.9,1.2*2B
###2023-12-09 13:30:55.995393$GAGSA,A,3,04,19,21,27,,,,,,,,,1.6,0.9,1.2*24
