###2023-12-09 13:44:15.022762$GAGSV,1,1,03,04,43,308,45,21,73,044,37,27,19,051,40,,,,*5C
###2023-12-09 13:44:15.025102$GBGSV,1,1,04,12,18,124,41,24,60,050,46,25,53,280,44,35,16,053,39*66
###2023-12-09 13:44:15.026433$GNVTG,243.17,T,,M,0.02,N,0.04,K,A*26
###2023-12-09 13:44:15.028096$GNGST,184414.10,7.600,,,,0.210,0.120,0.310*69
###2023-12-09 13:44:15.029389$GNZDA,184414.10,09,12,2023,00,00*7C
###2023-12-09 13:44:15.030031$GNEBP,,,,,,M*13
###2023-12-09 13:44:15.203502$GNGGA,184414.30,4138.0390850,N,07032.4388497,W,1,18,0.8,13.926,M,-29.746,M,0.0,*5E
###2023-12-09 13:44:15.400463$GNGGA,184414.50,4138.0390850,N,07032.4388499,W,1,18,0.8,13.922,M,-29.746,M,0.0,*52
###2023-12-09 13:44:15.598469$GNGGA,184414.70,4138.0390861,N,07032.4388522,W,1,18,0.8,13.916,M,-29.746,M,0.0,*54
###2023-12-09 13:44:15.799740$GNGGA,184414.90,4138.0390873,N,07032.4388532,W,1,18,0.8,13.910,M,-29.746,M,0.0,*5E
###2023-12-09 13:44:16.003988$GNRMC,184415.10,A,4138.0390885,N,07032.4388556,W,0.02,243.17,091223,,,A*52
###2023-12-09 13:44:16.006863$GNGGA,184415.10,4138.0390885,N,07032.4388556,W,1,18,0.8,13.903,M,-29.746,M,0.0,*5E
###2023-12-09 13:44:16.008583$GPGSA,A,3,04,16,26,28,29,31,,,,,,,1.3,0.8,1.1*3C
###2023-12-09 13:44:16.010231$GLGSA,A,3,65,73,74,75,83,,,,,,,,1.3,0.8,1.1*29
###2023-12-09 13:44:16.011759$GAGSA,A,3,04,21,27,,,,,,,,,,1.3,0.8,1.1*2B
###2023-12-09 13:44:16.013329$GBGSA,A,3,12,24,25,35,,,,,,,,,1.3,0.8,1.1*2E
###2023-12-09 13:44:16.015662$GPGSV,2,1,06,04,50,305,45,16,71,227,41,26,79,041,39,28,35,088,43*77
###2023-12-09 13:44:16.017404$GPGSV,2,2,06,29,18,043,43,31,56,072,50,,,,,,,,*7C
###2023-12-09 13:44:16.019738$GLGSV,2,1,05,65,42,314,44,73,19,055,44,74,56,021,36,75,46,277,43*6F
###2023-12-09 13:44:16.021224$GLGSV,2,2,05,83,16,043,36,,,,,,,,,,,,*5E
###2023-12-09 13:44:16.023264$GAGSV,1,1,03,04,43,308,45,21,73,044,36,27,19,051,40,,,,*5D
###2023-12-09 13:44:16.025582$GBGSV,1,1,04,12,18,124,41,24,60,050,46,25,53,280,44,35,16,053,39*66
###2023-12-09 13:44:16.026922$GNVTG,243.17,T,,M,0.02,N,0.04,K,A*26
###2023-12-09 13:44:16.028541$GNGST,184415.10,8.000,,,,0.210,0.120,0.300*60
###2023-12-09 13:44:16.029832$GNZDA,184415.10,09,12,2023,00,00*7D
###2023-12-09 13:44:16.030469$GNEBP,,,,,,M*13
###2023-12-09 13:44:16.199769$GNGGA,184415.30,4138.0390910,N,07032.4388559,W,1,18,0.8,13.902,M,-29.746,M,0.0,*5F
###2023-12-09 13:44:16.399600$GNGGA,184415.50,4138.0390911,N,07032.4388569,W,1,18,0.8,13.898,M,-29.746,M,0.0,*59
###2023-12-09 13:44:16.600479$GNGGA,184415.70,4138.0390922,N,07032.4388580,W,1,18,0.8,13.893,M,-29.746,M,0.0,*57
###2023-12-09 13:44:16.800112$GNGGA,184415.90,4138.0390935,N,07032.4388580,W,1,18,0.8,13.895,M,-29.746,M,0.0,*59
###2023-12-09 13:44:17.003745$GNRMC,184416.10,A,4138.0390951,N,07032.4388595,W,0.02,243.17,091223,,,A*56
###2023-12-09 13:44:17.006626$GNGGA,184416.10,4138.0390951,N,07032.4388595,W,1,18,0.8,13.893,M,-29.746,M,0.0,*52
###2023-12-09 13:44:17.008357$GPGSA,A,3,04,16,26,28,29,31,,,,,,,1.3,0.8,1.1*3C
###2023-12-09 13:44:17.010017$GLGSA,A,3,65,73,74,75,83,,,,,,,,1.3,0.8,1.1*29
###2023-12-09 13:44:17.011594$GAGSA,A,3,04,21,27,,,,,,,,,,1.3,0.8,1.1*2B
###2023-12-09 13:44:17.013181$GBGSA,A,3,12,24,25,35,,,,,,,,,1.3,0.8,1.1*2E
###2023-12-09 13:44:17.015526$GPGSV,2,1,06,04,50,305,46,16,71,227,41,26,79,041,40,28,35,088,42*7B
###2023-12-09 13:44:17.017279$GPGSV,2,2,06,29,18,043,43,31,56,072,50,,,,,,,,*7C
###2023-12-09 13:44:17.019631$GLGSV,2,1,05,65,42,314,44,73,19,055,44,74,56,021,37,75,46,277,44*69
###2023-12-09 13:44:17.021092$GLGSV,2,2,05,83,16,043,36,,,,,,,,,,,,*5E
###2023-12-09 13:44:17.023167$GAGSV,1,1,03,04,43,308,45,21,73,044,36,27,19,051,40,,,,*5D
###2023-12-09 13:44:17.025501$GBGSV,1,1,04,12,18,124,41,24,60,050,45,25,53,280,44,35,16,053,39*65
###2023-12-09 13:44:17.026839$GNVTG,243.17,T,,M,0.02,N,0.04,K,A*26
###2023-12-09 13:44:17.028463$GNGST,184416.10,7.600,,,,0.210,0.120,0.300*6A
###2023-12-09 13:44:17.029756$GNZDA,184416.10,09,12,2023,00,00*7E
###2023-12-09 13:44:17.030395$GNEBP,,,,,,M*13
###2023-12-09 13:44:17.199476$GNGGA,184416.30,4138.0390959,N,07032.4388612,W,1,18,0.8,13.892,M,-29.746,M,0.0,*55
###2023-12-09 13:44:17.399042$GNGGA,184416.50,4138.0390960,N,07032.4388620,W,1,18,0.8,13.883,M,-29.746,M,0.0,*58
###2023-12-09 13:44:17.598935$GNGGA,184416.70,4138.0390973,N,07032.4388654,W,1,18,0.8,13.878,M,-29.746,M,0.0,*5F
###2023-12-09 13:44:17.799047$GNGGA,184416.90,4138.0390983,N,07032.4388664,W,1,18,0.8,13.878,M,-29.746,M,0.0,*5D
###2023-12-09 13:44:18.004055$GNRMC,184417.10,A,4138.0390980,N,07032.4388688,W,0.02,243.17,091223,,,A*54
###2023-12-09 13:44:18.006948$GNGGA,184417.10,4138.0390980,N,07032.4388688,W,1,18,0.8,13.876,M,-29.746,M,0.0,*5B
###2023-12-09 13:44:18.008688$GPGSA,A,3,04,16,26,28,29,31,,,,,,,1.3,0.8,1.1*3C
###2023-12-09 13:44:18.010341$GLGSA,A,3,65,73,74,75,83,,,,,,,,1.3,0.8,1.1*29
###2023-12-09 13:44:18.011877$GAGSA,A,3,04,21,27,,,,,,,,,,1.3,0.8,1.1*2B
###2023-12-09 13:44:18.013465$GBGSA,A,3,12,24,25,35,,,,,,,,,1.3,0.8,1.1*2E
###2023-12-09 13:44:18.015809$GPGSV,2,1,06,04,50,305,45,16,71,227,41,26,79,041,40,28,35,088,43*79
###2023-12-09 13:44:18.017559$GPGSV,2,2,06,29,18,043,43,31,56,072,50,,,,,,,,*7C
###2023-12-09 13:44:18.019901$GLGSV,2,1,05,65,42,314,44,73,19,055,44,74,56,021,37,75,46,277,44*69
###2023-12-09 13:44:18.021349$GLGSV,2,2,05,83,16,043,37,,,,,,,,,,,,*5F
###2023-12-09 13:44:18.023389$GAGSV,1,1,03,04,43,308,45,21,73,044,36,27,19,051,40,,,,*5D
###2023-12-09 13:44:18.025721$GBGSV,1,1,04,12,18,124,41,24,60,050,45,25,53,280,43,35,16,053,38*63
###2023-12-09 13:44:18.027060$GNVTG,243.17,T,,M,0.02,N,0.04,K,A*26
###2023-12-09 13:44:18.028677$GNGST,184417.10,7.500,,,,0.210,0.120,0.300*68
###2023-12-09 13:44:18.029968$GNZDA,184417.10,09,12,2023,00,00*7F
###2023-12-09 13:44:18.030616$GNEBP,,,,,,M*13
###2023-12-09 13:44:18.200667$GNGGA,184417.30,4138.0390982,N,07032.4388702,W,1,18,0.8,13.873,M,-29.746,M,0.0,*5D
###2023-12-09 13:44:18.399272$GNGGA,184417.50,4138.0391001,N,07032.4388716,W,1,18,0.8,13.874,M,-29.746,M,0.0,*5A
###2023-12-09 13:44:18.598664$GNGGA,184417.70,4138.0391007,N,07032.4388731,W,1,18,0.8,13.871,M,-29.746,M,0.0,*5E
###2023-12-09 13:44:18.799022$GNGGA,184417.90,4138.0390987,N,07032.4388757,W,1,18,0.8,13.871,M,-29.746,M,0.0,*50
###2023-12-09 13:44:19.004375$GNRMC,184418.10,A,4138.0390990,N,07032.4388757,W,0.02,243.17,091223,,,A*59
###2023-12-09 13:44:19.007239$GNGGA,184418.10,4138.0390990,N,07032.4388757,W,1,18,0.8,13.870,M,-29.746,M,0.0,*50
###2023-12-09 13:44:19.008969$GPGSA,A,3,04,16,26,28,29,31,,,,,,,1.3,0.8,1.1*3C
###2023-12-09 13:44:19.010631$GLGSA,A,3,65,73,74,75,83,,,,,,,,1.3,0.8,1.1*29
###2023-12-09 13:44:19.012143$GAGSA,A,3,04,21,27,,,,,,,,,,1.3,0.8,1.1*2B
###2023-12-09 13:44:19.013726$GBGSA,A,3,12,24,25,35,,,,,,,,,1.3,0.8,1.1*2E
###2023-12-09 13:44:19.016068$GPGSV,2,1,06,04,50,305,46,16,71,227,40,26,79,041,40,28,35,088,43*7B
###2023-12-09 13:44:19.017816$GPGSV,2,2,06,29,18,043,43,31,56,072,50,,,,,,,,*7C
###2023-12-09 13:44:19.020157$GLGSV,2,1,05,65,42,314,44,73,19,055,44,74,56,021,37,75,46,277,44*69
###2023-12-09 13:44:19.021615$GLGSV,2,2,05,83,16,043,37,,,,,,,,,,,,*5F
###2023-12-09 13:44:19.023663$GAGSV,1,1,03,04,43,308,45,21,73,044,36,27,19,051,40,,,,*5D
###2023-12-09 13:44:19.025992$GBGSV,1,1,04,12,18,124,41,24,60,050,46,25,53,280,44,35,16,053,38*67
###2023-12-09 13:44:19.027372$GNVTG,243.17,T,,M,0.02,N,0.04,K,A*26
###2023-12-09 13:44:19.028998$GNGST,184418.10,7.800,,,,0.200,0.110,0.300*68
###2023-12-09 13:44:19.030297$GNZDA,184418.10,09,12,2023,00,00*70
###2023-12-09 13:44:19.030953$GNEBP,,,,,,M*13
###2023-12-09 13:44:19.200411$GNGGA,184418.30,4138.0391003,N,07032.4388782,W,1,19,0.8,13.867,M,-29.746,M,0.0,*5F
###2023-12-09 13:44:19.399181$GNGGA,184418.50,4138.0390996,N,07032.4388787,W,1,19,0.8,13.862,M,-29.746,M,0.0,*5D
###2023-12-09 13:44:19.598753$GNGGA,184418.70,4138.0391028,N,07032.4388793,W,1,18,0.8,13.865,M,-29.746,M,0.0,*51
###2023-12-09 13:44:19.799919$GNGGA,184418.90,4138.0391022,N,07032.4388805,W,1,18,0.8,13.856,M,-29.746,M,0.0,*55
###2023-12-09 13:44:20.005989$GNRMC,184419.10,A,4138.0391027,N,07032.4388803,W,0.04,243.17,091223,,,A*54
###2023-12-09 13:44:20.008868$GNGGA,184419.10,4138.0391027,N,07032.4388803,W,1,18,0.8,13.854,M,-29.746,M,0.0,*5D
###2023-12-09 13:44:20.010846$GPGSA,A,3,04,16,26,28,29,31,,,,,,,1.3,0.8,1.1*3C
###2023-12-09 13:44:20.012502$GLGSA,A,3,65,73,74,75,83,,,,,,,,1.3,0.8,1.1*29
###2023-12-09 13:44:20.014028$GAGSA,A,3,04,21,27,,,,,,,,,,1.3,0.8,1.1*2B
###2023-12-09 13:44:20.015624$GBGSA,A,3,12,24,25,35,,,,,,,,,1.3,0.8,1.1*2E
###2023-12-09 13:44:20.017954$GPGSV,2,1,06,04,50,305,46,16,71,227,40,26,79,041,40,28,35,088,43*7B
###2023-12-09 13:44:20.019711$GPGSV,2,2,06,29,18,043,42,31,56,072,50,,,,,,,,*7D
###2023-12-09 13:44:20.022072$GLGSV,2,1,05,65,42,314,44,73,19,055,44,74,56,021,36,75,46,277,45*69
###2023-12-09 13:44:20.023540$GLGSV,2,2,05,83,16,043,37,,,,,,,,,,,,*5F
