###2023-12-09 12:44:39.958428$GNGGA,174439.10,4138.0422270,N,07032.3878399,W,1,24,0.6,13.440,M,-29.745,M,0.0,*5F
###2023-12-09 12:44:39.960333$GPGSA,A,3,03,04,16,26,28,29,31,32,,,,,1.1,0.6,0.9*3B
###2023-12-09 12:44:39.962066$GLGSA,A,3,65,71,72,73,74,75,,,,,,,1.1,0.6,0.9*24
###2023-12-09 12:44:39.963675$GAGSA,A,3,04,19,21,27,,,,,,,,,1.1,0.6,0.9*26
###2023-12-09 12:44:39.965335$GBGSA,A,3,14,24,25,26,33,,,,,,,,1.1,0.6,0.9*2F
###2023-12-09 12:44:39.967691$GPGSV,2,1,08,03,38,271,42,04,25,311,38,16,41,209,45,26,71,208,47*70
###2023-12-09 12:44:39.970036$GPGSV,2,2,08,28,55,061,45,29,26,069,42,31,72,015,47,32,26,136,44*7A
###2023-12-09 12:44:39.972398$GLGSV,2,1,06,65,16,329,39,71,51,170,48,72,69,300,45,73,44,036,46*65
###2023-12-09 12:44:39.974153$GLGSV,2,2,06,74,71,307,42,75,25,245,44,,,,,,,,*62
###2023-12-09 12:44:39.976502$GAGSV,1,1,04,04,24,312,37,19,84,283,40,21,81,168,46,27,38,049,44*67
###2023-12-09 12:44:39.978856$GBGSV,2,1,05,14,51,196,45,24,79,002,47,25,35,255,44,26,32,059,44*60
###2023-12-09 12:44:39.980322$GBGSV,2,2,05,33,62,246,47,,,,,,,,,,,,*59
###2023-12-09 12:44:39.981647$GNVTG,287.23,T,,M,2.14,N,3.96,K,A*24
###2023-12-09 12:44:39.983331$GNGST,174439.10,18.000,,,,0.080,0.072,0.170*58
###2023-12-09 12:44:39.984633$GNZDA,174439.10,09,12,2023,00,00*7C
###2023-12-09 12:44:39.985275$GNEBP,,,,,,M*13
###2023-12-09 12:44:40.142069$GNGGA,174439.30,4138.0422703,N,07032.3879900,W,1,24,0.6,13.436,M,-29.745,M,0.0,*56
###2023-12-09 12:44:40.342739$GNGGA,174439.50,4138.0423230,N,07032.3881358,W,1,24,0.6,13.432,M,-29.745,M,0.0,*50
###2023-12-09 12:44:40.541694$GNGGA,174439.70,4138.0423851,N,07032.3882802,W,1,24,0.6,13.431,M,-29.745,M,0.0,*5B
###2023-12-09 12:44:40.742909$GNGGA,174439.90,4138.0424537,N,07032.3884186,W,1,24,0.6,13.426,M,-29.745,M,0.0,*5A
###2023-12-09 12:44:40.943590$GNRMC,174440.10,A,4138.0425339,N,07032.3885504,W,2.31,310.78,091223,,,A*52
###2023-12-09 12:44:40.946469$GNGGA,174440.10,4138.0425339,N,07032.3885504,W,1,24,0.6,13.424,M,-29.745,M,0.0,*58
###2023-12-09 12:44:40.948366$GPGSA,A,3,03,04,16,26,28,29,31,32,,,,,1.1,0.6,0.9*3B
###2023-12-09 12:44:40.950086$GLGSA,A,3,65,71,72,73,74,75,,,,,,,1.1,0.6,0.9*24
###2023-12-09 12:44:40.951717$GAGSA,A,3,04,19,21,27,,,,,,,,,1.1,0.6,0.9*26
###2023-12-09 12:44:40.953366$GBGSA,A,3,14,24,25,26,33,,,,,,,,1.1,0.6,0.9*2F
###2023-12-09 12:44:40.955706$GPGSV,2,1,08,03,38,271,44,04,25,311,40,16,41,209,47,26,71,208,47*7B
###2023-12-09 12:44:40.958037$GPGSV,2,2,08,28,55,061,45,29,26,069,42,31,72,015,46,32,26,136,43*7C
###2023-12-09 12:44:40.960379$GLGSV,2,1,06,65,16,329,39,71,51,170,48,72,69,300,46,73,44,036,46*66
###2023-12-09 12:44:40.962124$GLGSV,2,2,06,74,71,307,42,75,25,245,47,,,,,,,,*61
###2023-12-09 12:44:40.964463$GAGSV,1,1,04,04,24,312,37,19,84,283,40,21,81,168,45,27,38,049,43*63
###2023-12-09 12:44:40.966800$GBGSV,2,1,05,14,50,195,46,24,79,002,48,25,35,255,45,26,32,059,43*68
###2023-12-09 12:44:40.968256$GBGSV,2,2,05,33,62,246,48,,,,,,,,,,,,*56
###2023-12-09 12:44:40.969582$GNVTG,310.78,T,,M,2.31,N,4.28,K,A*20
###2023-12-09 12:44:40.971247$GNGST,174440.10,18.000,,,,0.080,0.071,0.170*55
###2023-12-09 12:44:40.972537$GNZDA,174440.10,09,12,2023,00,00*72
###2023-12-09 12:44:40.973175$GNEBP,,,,,,M*13
###2023-12-09 12:44:41.142105$GNGGA,174440.30,4138.0426246,N,07032.3886690,W,1,24,0.6,13.424,M,-29.745,M,0.0,*5D
###2023-12-09 12:44:41.343098$GNGGA,174440.50,4138.0427223,N,07032.3887811,W,1,24,0.6,13.422,M,-29.745,M,0.0,*59
###2023-12-09 12:44:41.542713$GNGGA,174440.70,4138.0428241,N,07032.3888894,W,1,24,0.6,13.417,M,-29.745,M,0.0,*54
###2023-12-09 12:44:41.741231$GNGGA,174440.90,4138.0429324,N,07032.3889935,W,1,24,0.6,13.422,M,-29.745,M,0.0,*54
###2023-12-09 12:44:41.942624$GNRMC,174441.10,A,4138.0430480,N,07032.3890874,W,2.51,332.74,091223,,,A*56
###2023-12-09 12:44:41.945473$GNGGA,174441.10,4138.0430480,N,07032.3890874,W,1,24,0.6,13.415,M,-29.745,M,0.0,*54
###2023-12-09 12:44:41.947368$GPGSA,A,3,03,04,16,26,28,29,31,32,,,,,1.1,0.6,0.9*3B
###2023-12-09 12:44:41.949108$GLGSA,A,3,65,71,72,73,74,75,,,,,,,1.1,0.6,0.9*24
###2023-12-09 12:44:41.950711$GAGSA,A,3,04,19,21,27,,,,,,,,,1.1,0.6,0.9*26
###2023-12-09 12:44:41.952373$GBGSA,A,3,14,24,25,26,33,,,,,,,,1.1,0.6,0.9*2F
###2023-12-09 12:44:41.954725$GPGSV,2,1,08,03,38,271,44,04,25,311,38,16,41,209,45,26,71,208,47*76
###2023-12-09 12:44:41.957056$GPGSV,2,2,08,28,55,061,44,29,26,069,42,31,72,015,46,32,26,136,42*7C
###2023-12-09 12:44:41.959401$GLGSV,2,1,06,65,16,329,39,71,51,170,48,72,69,300,46,73,44,036,46*66
###2023-12-09 12:44:41.961141$GLGSV,2,2,06,74,71,307,42,75,25,245,45,,,,,,,,*63
###2023-12-09 12:44:41.963468$GAGSV,1,1,04,04,24,312,39,19,84,283,40,21,81,168,46,27,38,049,42*6F
###2023-12-09 12:44:41.965799$GBGSV,2,1,05,14,50,195,45,24,79,002,47,25,35,255,45,26,32,059,43*64
###2023-12-09 12:44:41.967269$GBGSV,2,2,05,33,62,246,48,,,,,,,,,,,,*56
###2023-12-09 12:44:41.968592$GNVTG,332.74,T,,M,2.51,N,4.64,K,A*22
###2023-12-09 12:44:41.970239$GNGST,174441.10,18.000,,,,0.080,0.071,0.170*54
###2023-12-09 12:44:41.971543$GNZDA,174441.10,09,12,2023,00,00*73
###2023-12-09 12:44:41.972182$GNEBP,,,,,,M*13
###2023-12-09 12:44:42.142666$GNGGA,174441.30,4138.0431711,N,07032.3891684,W,1,24,0.6,13.411,M,-29.745,M,0.0,*58
###2023-12-09 12:44:42.342778$GNGGA,174441.50,4138.0432949,N,07032.3892481,W,1,24,0.6,13.411,M,-29.745,M,0.0,*5A
###2023-12-09 12:44:42.544019$GNGGA,174441.70,4138.0434211,N,07032.3893292,W,1,24,0.6,13.409,M,-29.745,M,0.0,*54
###2023-12-09 12:44:42.742554$GNGGA,174441.90,4138.0435474,N,07032.3894018,W,1,24,0.6,13.404,M,-29.745,M,0.0,*54
###2023-12-09 12:44:42.944092$GNRMC,174442.10,A,4138.0436756,N,07032.3894710,W,2.53,337.87,091223,,,A*59
###2023-12-09 12:44:42.946964$GNGGA,174442.10,4138.0436756,N,07032.3894710,W,1,24,0.6,13.403,M,-29.745,M,0.0,*57
###2023-12-09 12:44:42.948858$GPGSA,A,3,03,04,16,26,28,29,31,32,,,,,1.1,0.6,0.9*3B
###2023-12-09 12:44:42.950599$GLGSA,A,3,65,71,72,73,74,75,,,,,,,1.1,0.6,0.9*24
###2023-12-09 12:44:42.952187$GAGSA,A,3,04,19,21,27,,,,,,,,,1.1,0.6,0.9*26
###2023-12-09 12:44:42.953829$GBGSA,A,3,14,24,25,26,33,,,,,,,,1.1,0.6,0.9*2F
###2023-12-09 12:44:42.956158$GPGSV,2,1,08,03,38,271,44,04,25,311,40,16,41,209,45,26,71,208,47*79
###2023-12-09 12:44:42.958486$GPGSV,2,2,08,28,55,061,45,29,26,069,43,31,72,015,46,32,26,136,42*7C
###2023-12-09 12:44:42.960817$GLGSV,2,1,06,65,16,329,38,71,51,170,47,72,69,300,46,73,44,036,46*68
###2023-12-09 12:44:42.962552$GLGSV,2,2,06,74,71,307,42,75,25,245,46,,,,,,,,*60
###2023-12-09 12:44:42.964882$GAGSV,1,1,04,04,24,312,39,19,84,283,40,21,81,168,45,27,38,049,42*6C
###2023-12-09 12:44:42.967259$GBGSV,2,1,05,14,50,195,44,24,79,002,48,25,35,255,45,26,32,059,44*6D
###2023-12-09 12:44:42.968718$GBGSV,2,2,05,33,62,246,47,,,,,,,,,,,,*59
###2023-12-09 12:44:42.970036$GNVTG,337.87,T,,M,2.53,N,4.68,K,A*25
###2023-12-09 12:44:42.971695$GNGST,174442.10,18.000,,,,0.080,0.071,0.170*57
###2023-12-09 12:44:42.972982$GNZDA,174442.10,09,12,2023,00,00*70
###2023-12-09 12:44:42.973616$GNEBP,,,,,,M*13
###2023-12-09 12:44:43.142581$GNGGA,174442.30,4138.0438080,N,07032.3895404,W,1,24,0.6,13.406,M,-29.745,M,0.0,*55
###2023-12-09 12:44:43.344933$GNGGA,174442.50,4138.0439400,N,07032.3896111,W,1,24,0.6,13.404,M,-29.745,M,0.0,*5E
###2023-12-09 12:44:43.543888$GNGGA,174442.70,4138.0440771,N,07032.3896885,W,1,24,0.6,13.409,M,-29.745,M,0.0,*5E
###2023-12-09 12:44:43.743215$GNGGA,174442.90,4138.0442169,N,07032.3897689,W,1,24,0.6,13.407,M,-29.745,M,0.0,*50
###2023-12-09 12:44:43.944208$GNRMC,174443.10,A,4138.0443602,N,07032.3898503,W,2.82,337.10,091223,,,A*54
###2023-12-09 12:44:43.947093$GNGGA,174443.10,4138.0443602,N,07032.3898503,W,1,24,0.6,13.399,M,-29.745,M,0.0,*5C
###2023-12-09 12:44:43.948949$GPGSA,A,3,03,04,16,26,28,29,31,32,,,,,1.1,0.6,0.9*3B
###2023-12-09 12:44:43.950664$GLGSA,A,3,65,71,72,73,74,75,,,,,,,1.1,0.6,0.9*24
###2023-12-09 12:44:43.952238$GAGSA,A,3,04,19,21,27,,,,,,,,,1.1,0.6,0.9*26
###2023-12-09 12:44:43.953871$GBGSA,A,3,14,24,25,26,33,,,,,,,,1.1,0.6,0.9*2F
###2023-12-09 12:44:43.956198$GPGSV,2,1,08,03,38,271,45,04,25,311,39,16,41,209,45,26,71,208,48*79
###2023-12-09 12:44:43.958512$GPGSV,2,2,08,28,55,061,45,29,26,069,43,31,72,015,47,32,26,136,42*7D
###2023-12-09 12:44:43.961183$GLGSV,2,1,06,65,16,329,38,71,51,170,48,72,69,300,46,73,44,036,46*67
###2023-12-09 12:44:43.962975$GLGSV,2,2,06,74,71,307,42,75,25,245,45,,,,,,,,*63
###2023-12-09 12:44:43.965305$GAGSV,1,1,04,04,24,312,39,19,84,283,40,21,81,168,46,27,38,049,43*6E
###2023-12-09 12:44:43.967651$GBGSV,2,1,05,14,50,195,45,24,79,002,48,25,35,255,45,26,32,059,45*6D
###2023-12-09 12:44:43.969103$GBGSV,2,2,05,33,62,246,48,,,,,,,,,,,,*56
###2023-12-09 12:44:43.970421$GNVTG,337.10,T,,M,2.82,N,5.22,K,A*28
###2023-12-09 12:44:43.972080$GNGST,174443.10,18.000,,,,0.081,0.071,0.170*57
###2023-12-09 12:44:43.973374$GNZDA,174443.10,09,12,2023,00,00*71
###2023-12-09 12:44:43.974014$GNEBP,,,,,,M*13
