###2023-12-09 12:38:46.967227$GNGST,173846.10,19.000,,,,0.081,0.069,0.160*50
###2023-12-09 12:38:46.968535$GNZDA,173846.10,09,12,2023,00,00*7F
###2023-12-09 12:38:46.969178$GNEBP,,,,,,M*13
###2023-12-09 12:38:47.136874$GNGGA,173846.30,4138.0538786,N,07032.3679361,W,1,23,0.7,13.746,M,-29.744,M,0.0,*52
###2023-12-09 12:38:47.340262$GNGGA,173846.50,4138.0538709,N,07032.3679163,W,1,23,0.7,13.671,M,-29.744,M,0.0,*56
###2023-12-09 12:38:47.537927$GNGGA,173846.70,4138.0538747,N,07032.3679701,W,1,23,0.7,13.713,M,-29.744,M,0.0,*59
###2023-12-09 12:38:47.737086$GNGGA,173846.90,4138.0538917,N,07032.3680593,W,1,23,0.7,13.763,M,-29.744,M,0.0,*54
###2023-12-09 12:38:47.938554$GNRMC,173847.10,A,4138.0538958,N,07032.3680811,W,0.29,284.11,091223,,,A*54
###2023-12-09 12:38:47.941437$GNGGA,173847.10,4138.0538958,N,07032.3680811,W,1,23,0.7,13.777,M,-29.744,M,0.0,*54
###2023-12-09 12:38:47.943302$GPGSA,A,3,03,04,16,26,28,29,31,32,,,,,1.2,0.7,1.0*31
###2023-12-09 12:38:47.944952$GLGSA,A,3,71,72,73,74,75,,,,,,,,1.2,0.7,1.0*2D
###2023-12-09 12:38:47.946547$GAGSA,A,3,04,19,21,27,,,,,,,,,1.2,0.7,1.0*2C
###2023-12-09 12:38:47.948224$GBGSA,A,3,14,24,25,26,33,,,,,,,,1.2,0.7,1.0*25
###2023-12-09 12:38:47.950547$GPGSV,2,1,08,03,38,275,46,04,23,311,44,16,38,208,41,26,68,207,46*70
###2023-12-09 12:38:47.952887$GPGSV,2,2,08,28,57,058,43,29,25,072,40,31,73,007,47,32,28,135,42*76
###2023-12-09 12:38:47.955235$GLGSV,2,1,05,71,55,169,45,72,67,307,47,73,46,034,45,74,71,296,43*66
###2023-12-09 12:38:47.956700$GLGSV,2,2,05,75,23,242,42,,,,,,,,,,,,*51
###2023-12-09 12:38:47.959036$GAGSV,1,1,04,04,22,311,43,19,82,296,40,21,79,174,44,27,40,049,43*63
###2023-12-09 12:38:47.961368$GBGSV,2,1,05,14,54,197,45,24,80,351,48,25,33,253,45,26,34,058,44*6E
###2023-12-09 12:38:47.962837$GBGSV,2,2,05,33,63,252,49,,,,,,,,,,,,*53
###2023-12-09 12:38:47.964168$GNVTG,284.11,T,,M,0.29,N,0.54,K,A*27
###2023-12-09 12:38:47.965814$GNGST,173847.10,18.000,,,,0.082,0.070,0.170*5A
###2023-12-09 12:38:47.967122$GNZDA,173847.10,09,12,2023,00,00*7E
###2023-12-09 12:38:47.967761$GNEBP,,,,,,M*13
###2023-12-09 12:38:48.137301$GNGGA,173847.30,4138.0538816,N,07032.3680414,W,1,23,0.7,13.753,M,-29.744,M,0.0,*52
###2023-12-09 12:38:48.339266$GNGGA,173847.50,4138.0538721,N,07032.3680435,W,1,23,0.7,13.708,M,-29.744,M,0.0,*52
###2023-12-09 12:38:48.538918$GNGGA,173847.70,4138.0538886,N,07032.3681264,W,1,23,0.7,13.748,M,-29.744,M,0.0,*55
###2023-12-09 12:38:48.738278$GNGGA,173847.90,4138.0539043,N,07032.3681968,W,1,23,0.7,13.760,M,-29.744,M,0.0,*56
###2023-12-09 12:38:48.940198$GNRMC,173848.10,A,4138.0538963,N,07032.3681921,W,0.52,288.73,091223,,,A*54
###2023-12-09 12:38:48.943054$GNGGA,173848.10,4138.0538963,N,07032.3681921,W,1,23,0.7,13.787,M,-29.744,M,0.0,*5F
###2023-12-09 12:38:48.944909$GPGSA,A,3,03,04,16,26,28,29,31,32,,,,,1.2,0.7,1.0*31
###2023-12-09 12:38:48.946578$GLGSA,A,3,71,72,73,74,75,,,,,,,,1.2,0.7,1.0*2D
###2023-12-09 12:38:48.948187$GAGSA,A,3,04,19,21,27,,,,,,,,,1.2,0.7,1.0*2C
###2023-12-09 12:38:48.949838$GBGSA,A,3,14,24,25,26,33,,,,,,,,1.2,0.7,1.0*25
###2023-12-09 12:38:48.952211$GPGSV,2,1,08,03,38,275,46,04,23,311,43,16,38,208,42,26,68,207,46*74
###2023-12-09 12:38:48.954543$GPGSV,2,2,08,28,57,058,43,29,25,072,39,31,73,007,47,32,28,135,42*78
###2023-12-09 12:38:48.956893$GLGSV,2,1,05,71,55,169,46,72,67,307,48,73,46,034,45,74,71,296,43*6A
###2023-12-09 12:38:48.958349$GLGSV,2,2,05,75,23,242,42,,,,,,,,,,,,*51
###2023-12-09 12:38:48.960684$GAGSV,1,1,04,04,22,311,44,19,82,296,40,21,79,174,44,27,40,049,44*63
###2023-12-09 12:38:48.963023$GBGSV,2,1,05,14,54,197,44,24,80,351,47,25,33,253,45,26,34,058,44*60
###2023-12-09 12:38:48.964478$GBGSV,2,2,05,33,63,252,48,,,,,,,,,,,,*52
###2023-12-09 12:38:48.965806$GNVTG,288.73,T,,M,0.52,N,0.97,K,A*2C
###2023-12-09 12:38:48.967474$GNGST,173848.10,18.000,,,,0.082,0.071,0.170*54
###2023-12-09 12:38:48.968766$GNZDA,173848.10,09,12,2023,00,00*71
###2023-12-09 12:38:48.969406$GNEBP,,,,,,M*13
###2023-12-09 12:38:49.138209$GNGGA,173848.30,4138.0538779,N,07032.3681606,W,1,23,0.7,13.757,M,-29.744,M,0.0,*5F
###2023-12-09 12:38:49.339520$GNGGA,173848.50,4138.0538781,N,07032.3681890,W,1,22,0.7,13.735,M,-29.744,M,0.0,*5A
###2023-12-09 12:38:49.538948$GNGGA,173848.70,4138.0538988,N,07032.3682708,W,1,23,0.7,13.760,M,-29.744,M,0.0,*53
###2023-12-09 12:38:49.738014$GNGGA,173848.90,4138.0539099,N,07032.3683232,W,1,23,0.7,13.762,M,-29.744,M,0.0,*5A
###2023-12-09 12:38:49.941490$GNRMC,173849.10,A,4138.0538970,N,07032.3683166,W,0.52,287.55,091223,,,A*55
###2023-12-09 12:38:49.944369$GNGGA,173849.10,4138.0538970,N,07032.3683166,W,1,23,0.7,13.776,M,-29.744,M,0.0,*5B
###2023-12-09 12:38:49.946216$GPGSA,A,3,03,04,16,26,28,29,31,32,,,,,1.2,0.7,1.0*31
###2023-12-09 12:38:49.947899$GLGSA,A,3,71,72,73,74,75,,,,,,,,1.2,0.7,1.0*2D
###2023-12-09 12:38:49.949503$GAGSA,A,3,04,19,21,27,,,,,,,,,1.2,0.7,1.0*2C
###2023-12-09 12:38:49.951158$GBGSA,A,3,14,24,25,26,33,,,,,,,,1.2,0.7,1.0*25
###2023-12-09 12:38:49.953473$GPGSV,2,1,08,03,38,275,45,04,23,311,44,16,38,208,42,26,68,207,47*71
###2023-12-09 12:38:49.955817$GPGSV,2,2,08,28,57,058,45,29,25,072,41,31,73,007,48,32,28,135,42*7E
###2023-12-09 12:38:49.958149$GLGSV,2,1,05,71,55,169,47,72,67,307,48,73,46,034,45,74,71,296,43*6B
###2023-12-09 12:38:49.959615$GLGSV,2,2,05,75,23,242,43,,,,,,,,,,,,*50
###2023-12-09 12:38:49.961925$GAGSV,1,1,04,04,22,311,43,19,82,296,40,21,79,174,44,27,40,049,44*64
###2023-12-09 12:38:49.964263$GBGSV,2,1,05,14,53,197,44,24,80,351,48,25,33,253,44,26,34,058,45*68
###2023-12-09 12:38:49.965715$GBGSV,2,2,05,33,63,252,47,,,,,,,,,,,,*5D
###2023-12-09 12:38:49.967042$GNVTG,287.55,T,,M,0.52,N,0.97,K,A*27
###2023-12-09 12:38:49.968681$GNGST,173849.10,18.000,,,,0.082,0.071,0.170*55
###2023-12-09 12:38:49.969959$GNZDA,173849.10,09,12,2023,00,00*70
###2023-12-09 12:38:49.970605$GNEBP,,,,,,M*13
###2023-12-09 12:38:50.139447$GNGGA,173849.30,4138.0538797,N,07032.3683015,W,1,23,0.7,13.759,M,-29.744,M,0.0,*56
###2023-12-09 12:38:50.339453$GNGGA,173849.50,4138.0538869,N,07032.3683414,W,1,23,0.7,13.754,M,-29.744,M,0.0,*56
###2023-12-09 12:38:50.539041$GNGGA,173849.70,4138.0539115,N,07032.3684170,W,1,23,0.7,13.768,M,-29.744,M,0.0,*58
###2023-12-09 12:38:50.737101$GNGGA,173849.90,4138.0539206,N,07032.3684614,W,1,23,0.7,13.766,M,-29.744,M,0.0,*5C
###2023-12-09 12:38:50.939493$GNRMC,173850.10,A,4138.0539046,N,07032.3684537,W,0.43,292.16,091223,,,A*54
###2023-12-09 12:38:50.942320$GNGGA,173850.10,4138.0539046,N,07032.3684537,W,1,23,0.7,13.779,M,-29.744,M,0.0,*56
###2023-12-09 12:38:50.944173$GPGSA,A,3,03,04,16,26,28,29,31,32,,,,,1.2,0.7,1.0*31
###2023-12-09 12:38:50.945809$GLGSA,A,3,71,72,73,74,75,,,,,,,,1.2,0.7,1.0*2D
###2023-12-09 12:38:50.947417$GAGSA,A,3,04,19,21,27,,,,,,,,,1.2,0.7,1.0*2C
###2023-12-09 12:38:50.949091$GBGSA,A,3,14,24,25,26,33,,,,,,,,1.2,0.7,1.0*25
###2023-12-09 12:38:50.951421$GPGSV,2,1,08,03,38,275,44,04,23,311,43,16,38,208,42,26,68,207,47*77
###2023-12-09 12:38:50.953744$GPGSV,2,2,08,28,57,058,45,29,25,072,42,31,73,007,47,32,28,135,45*75
###2023-12-09 12:38:50.956074$GLGSV,2,1,05,71,55,169,47,72,67,307,47,73,46,034,46,74,71,296,43*67
###2023-12-09 12:38:50.957520$GLGSV,2,2,05,75,23,242,42,,,,,,,,,,,,*51
###2023-12-09 12:38:50.959837$GAGSV,1,1,04,04,22,311,43,19,82,296,41,21,79,174,46,27,40,049,45*66
###2023-12-09 12:38:50.962145$GBGSV,2,1,05,14,53,197,44,24,80,351,48,25,33,253,44,26,34,058,45*68
###2023-12-09 12:38:50.963603$GBGSV,2,2,05,33,63,252,47,,,,,,,,,,,,*5D
###2023-12-09 12:38:50.964916$GNVTG,292.16,T,,M,0.43,N,0.79,K,A*24
###2023-12-09 12:38:50.966549$GNGST,173850.10,18.000,,,,0.082,0.071,0.170*5D
###2023-12-09 12:38:50.967855$GNZDA,173850.10,09,12,2023,00,00*78
###2023-12-09 12:38:50.968493$GNEBP,,,,,,M*13
###2023-12-09 12:38:51.139528$GNGGA,173850.30,4138.0538936,N,07032.3684560,W,1,23,0.7,13.766,M,-29.744,M,0.0,*57
###2023-12-09 12:38:51.339535$GNGGA,173850.50,4138.0539082,N,07032.3685069,W,1,23,0.7,13.769,M,-29.744,M,0.0,*54
###2023-12-09 12:38:51.539888$GNGGA,173850.70,4138.0539318,N,07032.3685707,W,1,23,0.7,13.769,M,-29.744,M,0.0,*59
###2023-12-09 12:38:51.737996$GNGGA,173850.90,4138.0539352,N,07032.3686013,W,1,23,0.7,13.766,M,-29.744,M,0.0,*57
###2023-12-09 12:38:51.938461$GNRMC,173851.10,A,4138.0539206,N,07032.3686021,W,0.31,296.46,091223,,,A*57
###2023-12-09 12:38:51.941349$GNGGA,173851.10,4138.0539206,N,07032.3686021,W,1,23,0.7,13.769,M,-29.744,M,0.0,*50
###2023-12-09 12:38:51.943232$GPGSA,A,3,03,04,16,26,28,29,31,32,,,,,1.2,0.7,1.0*31
###2023-12-09 12:38:51.944892$GLGSA,A,3,71,72,73,74,75,,,,,,,,1.2,0.7,1.0*2D
###2023-12-09 12:38:51.946486$GAGSA,A,3,04,19,21,27,,,,,,,,,1.2,0.7,1.0*2C
###2023-12-09 12:38:51.948170$GBGSA,A,3,14,24,25,26,33,,,,,,,,1.2,0.7,1.0*25
###2023-12-09 12:38:51.950506$GPGSV,2,1,08,03,38,275,44,04,23,311,42,16,38,208,42,26,68,207,47*76
###2023-12-09 12:38:51.952853$GPGSV,2,2,08,28,57,058,45,29,25,072,43,31,73,007,48,32,28,135,45*7B
###2023-12-09 12:38:51.955263$GLGSV,2,1,05,71,55,169,47,72,67,307,47,73,46,034,47,74,71,296,43*66
