###2023-12-09 13:04:15.978839$GBGSA,A,3,14,24,25,26,33,,,,,,,,1.1,0.6,0.9*2F
###2023-12-09 13:04:15.981189$GPGSV,2,1,08,03,34,260,45,04,33,311,43,16,51,213,48,26,81,210,48*7E
###2023-12-09 13:04:15.983543$GPGSV,2,2,08,28,48,071,45,29,25,060,43,31,68,040,47,32,18,140,41*7E
###2023-12-09 13:04:15.985880$GLGSV,2,1,06,65,25,327,41,71,40,173,46,72,73,265,46,73,35,042,45*65
###2023-12-09 13:04:15.987643$GLGSV,2,2,06,74,69,340,43,75,33,254,47,,,,,,,,*6D
###2023-12-09 13:04:15.989967$GAGSV,1,1,04,04,30,312,41,19,83,207,40,21,86,104,45,27,32,048,42*6B
###2023-12-09 13:04:15.992309$GBGSV,2,1,05,14,43,193,46,24,73,026,49,25,41,263,46,26,26,063,44*6F
###2023-12-09 13:04:15.993763$GBGSV,2,2,05,33,57,231,49,,,,,,,,,,,,*51
###2023-12-09 13:04:15.995069$GNVTG,95.95,T,,M,3.42,N,6.34,K,A*17
###2023-12-09 13:04:15.996711$GNGST,180415.10,18.000,,,,0.079,0.065,0.150*5F
###2023-12-09 13:04:15.997994$GNZDA,180415.10,09,12,2023,00,00*79
###2023-12-09 13:04:15.998645$GNEBP,,,,,,M*13
###2023-12-09 13:04:16.164234$GNGGA,180415.30,4138.0592034,N,07032.3404603,W,1,24,0.6,13.184,M,-29.743,M,0.0,*5A
###2023-12-09 13:04:16.365537$GNGGA,180415.50,4138.0591728,N,07032.3402073,W,1,24,0.6,13.189,M,-29.743,M,0.0,*5F
###2023-12-09 13:04:16.565879$GNGGA,180415.70,4138.0591428,N,07032.3399509,W,1,24,0.6,13.187,M,-29.743,M,0.0,*5D
###2023-12-09 13:04:16.771689$GNGGA,180415.90,4138.0591098,N,07032.3396882,W,1,24,0.6,13.184,M,-29.743,M,0.0,*5E
###2023-12-09 13:04:16.972491$GNRMC,180416.10,A,4138.0590757,N,07032.3394244,W,3.52,96.40,091223,,,A*63
###2023-12-09 13:04:16.975377$GNGGA,180416.10,4138.0590757,N,07032.3394244,W,1,24,0.6,13.180,M,-29.743,M,0.0,*56
###2023-12-09 13:04:16.977237$GPGSA,A,3,03,04,16,26,28,29,31,32,,,,,1.1,0.6,0.9*3B
###2023-12-09 13:04:16.978974$GLGSA,A,3,65,71,72,73,74,75,,,,,,,1.1,0.6,0.9*24
###2023-12-09 13:04:16.980571$GAGSA,A,3,04,19,21,27,,,,,,,,,1.1,0.6,0.9*26
###2023-12-09 13:04:16.982217$GBGSA,A,3,14,24,25,26,33,,,,,,,,1.1,0.6,0.9*2F
###2023-12-09 13:04:16.984565$GPGSV,2,1,08,03,34,260,45,04,33,311,43,16,51,213,48,26,81,210,48*7E
###2023-12-09 13:04:16.986913$GPGSV,2,2,08,28,48,071,44,29,25,060,42,31,68,040,47,32,18,140,41*7E
###2023-12-09 13:04:16.989245$GLGSV,2,1,06,65,25,327,41,71,40,173,46,72,73,265,46,73,35,042,44*64
###2023-12-09 13:04:16.991002$GLGSV,2,2,06,74,69,340,43,75,33,254,47,,,,,,,,*6D
###2023-12-09 13:04:16.993337$GAGSV,1,1,04,04,30,312,41,19,83,207,40,21,86,104,45,27,32,048,42*6B
###2023-12-09 13:04:16.995683$GBGSV,2,1,05,14,43,193,46,24,73,026,49,25,41,263,47,26,26,063,44*6E
###2023-12-09 13:04:16.997137$GBGSV,2,2,05,33,57,231,49,,,,,,,,,,,,*51
###2023-12-09 13:04:16.998428$GNVTG,96.40,T,,M,3.52,N,6.52,K,A*1D
###2023-12-09 13:04:17.000092$GNGST,180416.10,18.000,,,,0.079,0.065,0.150*5C
###2023-12-09 13:04:17.001386$GNZDA,180416.10,09,12,2023,00,00*7A
###2023-12-09 13:04:17.002026$GNEBP,,,,,,M*13
###2023-12-09 13:04:17.164203$GNGGA,180416.30,4138.0590583,N,07032.3391563,W,1,24,0.6,13.189,M,-29.743,M,0.0,*51
###2023-12-09 13:04:17.366067$GNGGA,180416.50,4138.0590321,N,07032.3388847,W,1,24,0.6,13.181,M,-29.743,M,0.0,*52
###2023-12-09 13:04:17.568448$GNGGA,180416.70,4138.0590148,N,07032.3386137,W,1,24,0.6,13.176,M,-29.743,M,0.0,*55
###2023-12-09 13:04:17.765593$GNGGA,180416.90,4138.0590003,N,07032.3383371,W,1,24,0.6,13.178,M,-29.743,M,0.0,*5E
###2023-12-09 13:04:17.967550$GNRMC,180417.10,A,4138.0589982,N,07032.3380702,W,3.58,86.78,091223,,,A*6E
###2023-12-09 13:04:17.970410$GNGGA,180417.10,4138.0589982,N,07032.3380702,W,1,24,0.6,13.183,M,-29.743,M,0.0,*58
###2023-12-09 13:04:17.972292$GPGSA,A,3,03,04,16,26,28,29,31,32,,,,,1.1,0.6,0.9*3B
###2023-12-09 13:04:17.974016$GLGSA,A,3,65,71,72,73,74,75,,,,,,,1.1,0.6,0.9*24
###2023-12-09 13:04:17.975611$GAGSA,A,3,04,19,21,27,,,,,,,,,1.1,0.6,0.9*26
###2023-12-09 13:04:17.977260$GBGSA,A,3,14,24,25,26,33,,,,,,,,1.1,0.6,0.9*2F
###2023-12-09 13:04:17.979602$GPGSV,2,1,08,03,34,260,44,04,33,311,43,16,51,213,47,26,81,210,48*70
###2023-12-09 13:04:17.981946$GPGSV,2,2,08,28,48,071,43,29,25,060,40,31,68,040,46,32,18,140,41*7A
###2023-12-09 13:04:17.984307$GLGSV,2,1,06,65,25,327,42,71,40,173,46,72,73,265,46,73,35,042,45*66
###2023-12-09 13:04:17.986059$GLGSV,2,2,06,74,69,340,43,75,33,254,47,,,,,,,,*6D
###2023-12-09 13:04:17.988401$GAGSV,1,1,04,04,30,312,40,19,83,207,40,21,86,104,45,27,32,048,42*6A
###2023-12-09 13:04:17.990738$GBGSV,2,1,05,14,43,193,45,24,73,026,48,25,41,263,46,26,26,063,43*6A
###2023-12-09 13:04:17.992183$GBGSV,2,2,05,33,57,231,48,,,,,,,,,,,,*50
###2023-12-09 13:04:17.993472$GNVTG,86.78,T,,M,3.58,N,6.62,K,A*1E
###2023-12-09 13:04:17.995163$GNGST,180417.10,18.000,,,,0.079,0.065,0.150*5D
###2023-12-09 13:04:17.996453$GNZDA,180417.10,09,12,2023,00,00*7B
###2023-12-09 13:04:17.997094$GNEBP,,,,,,M*13
###2023-12-09 13:04:18.165294$GNGGA,180417.30,4138.0589989,N,07032.3377974,W,1,24,0.6,13.186,M,-29.743,M,0.0,*53
###2023-12-09 13:04:18.366058$GNGGA,180417.50,4138.0590044,N,07032.3375371,W,1,24,0.6,13.183,M,-29.743,M,0.0,*5D
###2023-12-09 13:04:18.566160$GNGGA,180417.70,4138.0590241,N,07032.3372784,W,1,24,0.6,13.193,M,-29.743,M,0.0,*50
###2023-12-09 13:04:18.766711$GNGGA,180417.90,4138.0590428,N,07032.3370191,W,1,24,0.6,13.188,M,-29.743,M,0.0,*5D
###2023-12-09 13:04:18.968519$GNRMC,180418.10,A,4138.0590639,N,07032.3367692,W,3.36,82.83,091223,,,A*6F
###2023-12-09 13:04:18.971387$GNGGA,180418.10,4138.0590639,N,07032.3367692,W,1,24,0.6,13.179,M,-29.743,M,0.0,*54
###2023-12-09 13:04:18.973246$GPGSA,A,3,03,04,16,26,28,29,31,32,,,,,1.1,0.6,0.9*3B
###2023-12-09 13:04:18.974975$GLGSA,A,3,65,71,72,73,74,75,,,,,,,1.1,0.6,0.9*24
###2023-12-09 13:04:18.976561$GAGSA,A,3,04,19,21,27,,,,,,,,,1.1,0.6,0.9*26
###2023-12-09 13:04:18.978212$GBGSA,A,3,14,24,25,26,33,,,,,,,,1.1,0.6,0.9*2F
###2023-12-09 13:04:18.980558$GPGSV,2,1,08,03,34,260,45,04,33,311,42,16,51,213,47,26,81,210,49*71
###2023-12-09 13:04:18.982917$GPGSV,2,2,08,28,48,071,43,29,25,060,40,31,68,040,46,32,18,140,42*79
###2023-12-09 13:04:18.985253$GLGSV,2,1,06,65,25,327,41,71,40,173,46,72,73,265,46,73,35,042,45*65
###2023-12-09 13:04:18.987014$GLGSV,2,2,06,74,69,340,42,75,33,254,47,,,,,,,,*6C
###2023-12-09 13:04:18.989353$GAGSV,1,1,04,04,30,312,41,19,83,207,41,21,86,104,46,27,32,048,43*68
###2023-12-09 13:04:18.991721$GBGSV,2,1,05,14,43,193,46,24,73,026,48,25,41,263,47,26,26,063,43*68
###2023-12-09 13:04:18.993179$GBGSV,2,2,05,33,57,231,48,,,,,,,,,,,,*50
###2023-12-09 13:04:18.994473$GNVTG,82.83,T,,M,3.36,N,6.23,K,A*13
###2023-12-09 13:04:18.996135$GNGST,180418.10,18.000,,,,0.079,0.066,0.150*51
###2023-12-09 13:04:18.997428$GNZDA,180418.10,09,12,2023,00,00*74
###2023-12-09 13:04:18.998067$GNEBP,,,,,,M*13
###2023-12-09 13:04:19.165331$GNGGA,180418.30,4138.0590859,N,07032.3365208,W,1,24,0.6,13.192,M,-29.743,M,0.0,*5E
###2023-12-09 13:04:19.366743$GNGGA,180418.50,4138.0591042,N,07032.3362685,W,1,24,0.6,13.191,M,-29.743,M,0.0,*5E
###2023-12-09 13:04:19.567194$GNGGA,180418.70,4138.0591025,N,07032.3360182,W,1,24,0.6,13.177,M,-29.743,M,0.0,*57
###2023-12-09 13:04:19.766835$GNGGA,180418.90,4138.0591059,N,07032.3357735,W,1,24,0.6,13.186,M,-29.743,M,0.0,*52
###2023-12-09 13:04:19.969036$GNRMC,180419.10,A,4138.0591058,N,07032.3355217,W,3.38,92.79,091223,,,A*6C
###2023-12-09 13:04:19.971921$GNGGA,180419.10,4138.0591058,N,07032.3355217,W,1,24,0.6,13.198,M,-29.743,M,0.0,*52
###2023-12-09 13:04:19.973774$GPGSA,A,3,03,04,16,26,28,29,31,32,,,,,1.1,0.6,0.9*3B
###2023-12-09 13:04:19.975498$GLGSA,A,3,65,71,72,73,74,75,,,,,,,1.1,0.6,0.9*24
###2023-12-09 13:04:19.977067$GAGSA,A,3,04,19,21,27,,,,,,,,,1.1,0.6,0.9*26
###2023-12-09 13:04:19.978722$GBGSA,A,3,14,24,25,26,33,,,,,,,,1.1,0.6,0.9*2F
###2023-12-09 13:04:19.981035$GPGSV,2,1,08,03,34,260,45,04,33,311,43,16,51,213,47,26,81,210,47*7E
###2023-12-09 13:04:19.983371$GPGSV,2,2,08,28,48,071,44,29,25,060,42,31,68,040,47,32,18,140,41*7E
###2023-12-09 13:04:19.985692$GLGSV,2,1,06,65,25,327,41,71,40,173,45,72,73,265,46,73,35,042,44*67
###2023-12-09 13:04:19.987454$GLGSV,2,2,06,74,69,340,43,75,33,254,47,,,,,,,,*6D
###2023-12-09 13:04:19.989774$GAGSV,1,1,04,04,30,312,41,19,83,207,41,21,86,104,46,27,32,048,43*68
###2023-12-09 13:04:19.992115$GBGSV,2,1,05,14,43,193,44,24,73,026,48,25,41,263,45,26,26,063,42*69
###2023-12-09 13:04:19.993837$GBGSV,2,2,05,33,57,231,47,,,,,,,,,,,,*5F
###2023-12-09 13:04:19.995178$GNVTG,92.79,T,,M,3.38,N,6.26,K,A*1C
###2023-12-09 13:04:19.996842$GNGST,180419.10,18.000,,,,0.079,0.066,0.160*53
###2023-12-09 13:04:19.998141$GNZDA,180419.10,09,12,2023,00,00*75
###2023-12-09 13:04:19.998800$GNEBP,,,,,,M*13
###2023-12-09 13:04:20.169989$GNGGA,180419.30,4138.0590837,N,07032.3352699,W,1,24,0.6,13.184,M,-29.743,M,0.0,*58
###2023-12-09 13:04:20.366893$GNGGA,180419.50,4138.0590579,N,07032.3350255,W,1,24,0.6,13.183,M,-29.743,M,0.0,*58
###2023-12-09 13:04:20.567142$GNGGA,180419.70,4138.0590394,N,07032.3347733,W,1,24,0.6,13.191,M,-29.743,M,0.0,*5F
###2023-12-09 13:04:20.766621$GNGGA,180419.90,4138.0590188,N,07032.3345112,W,1,24,0.6,13.183,M,-29.743,M,0.0,*5A
