###2023-12-09 12:50:22.548982$GNGGA,175021.70,4138.0641557,N,07032.3877104,W,1,24,0.6,13.570,M,-29.744,M,0.0,*5A
###2023-12-09 12:50:22.753548$GNGGA,175021.90,4138.0640685,N,07032.3875531,W,1,24,0.6,13.557,M,-29.744,M,0.0,*5C
###2023-12-09 12:50:22.949963$GNRMC,175022.10,A,4138.0639953,N,07032.3873999,W,2.49,118.69,091223,,,A*5E
###2023-12-09 12:50:22.952886$GNGGA,175022.10,4138.0639953,N,07032.3873999,W,1,24,0.6,13.563,M,-29.744,M,0.0,*52
###2023-12-09 12:50:22.954778$GPGSA,A,3,03,04,16,26,28,29,31,32,,,,,1.1,0.6,0.9*3B
###2023-12-09 12:50:22.956502$GLGSA,A,3,65,71,72,73,74,75,,,,,,,1.1,0.6,0.9*24
###2023-12-09 12:50:22.958087$GAGSA,A,3,04,19,21,27,,,,,,,,,1.1,0.6,0.9*26
###2023-12-09 12:50:22.959749$GBGSA,A,3,14,24,25,26,33,,,,,,,,1.1,0.6,0.9*2F
###2023-12-09 12:50:22.962089$GPGSV,2,1,08,03,37,268,45,04,28,311,44,16,44,210,47,26,74,208,48*73
###2023-12-09 12:50:22.964454$GPGSV,2,2,08,28,53,065,45,29,26,066,43,31,71,024,47,32,23,138,43*7B
###2023-12-09 12:50:22.966821$GLGSV,2,1,06,65,18,329,43,71,48,171,47,72,71,291,47,73,41,038,46*69
###2023-12-09 12:50:22.968575$GLGSV,2,2,06,74,71,317,43,75,28,247,42,,,,,,,,*6B
###2023-12-09 12:50:22.970924$GAGSV,1,1,04,04,26,312,42,19,85,260,40,21,83,158,45,27,36,048,43*61
###2023-12-09 12:50:22.973263$GBGSV,2,1,05,14,49,195,45,24,77,011,48,25,37,257,45,26,30,060,44*60
###2023-12-09 12:50:22.974759$GBGSV,2,2,05,33,61,241,49,,,,,,,,,,,,*53
###2023-12-09 12:50:22.976093$GNVTG,118.69,T,,M,2.49,N,4.61,K,A*28
###2023-12-09 12:50:22.977748$GNGST,175022.10,18.000,,,,0.079,0.067,0.160*54
###2023-12-09 12:50:22.979059$GNZDA,175022.10,09,12,2023,00,00*73
###2023-12-09 12:50:22.979703$GNEBP,,,,,,M*13
###2023-12-09 12:50:23.148122$GNGGA,175022.30,4138.0639228,N,07032.3872330,W,1,24,0.6,13.584,M,-29.744,M,0.0,*56
###2023-12-09 12:50:23.349030$GNGGA,175022.50,4138.0638475,N,07032.3870542,W,1,24,0.6,13.581,M,-29.744,M,0.0,*5B
###2023-12-09 12:50:23.549052$GNGGA,175022.70,4138.0637823,N,07032.3868834,W,1,24,0.6,13.578,M,-29.744,M,0.0,*5A
###2023-12-09 12:50:23.749341$GNGGA,175022.90,4138.0637139,N,07032.3867063,W,1,24,0.6,13.598,M,-29.744,M,0.0,*5D
###2023-12-09 12:50:23.948717$GNRMC,175023.10,A,4138.0636317,N,07032.3865238,W,2.86,120.11,091223,,,A*5A
###2023-12-09 12:50:23.951598$GNGGA,175023.10,4138.0636317,N,07032.3865238,W,1,24,0.6,13.592,M,-29.744,M,0.0,*5F
###2023-12-09 12:50:23.953460$GPGSA,A,3,03,04,16,26,28,29,31,32,,,,,1.1,0.6,0.9*3B
###2023-12-09 12:50:23.955189$GLGSA,A,3,65,71,72,73,74,75,,,,,,,1.1,0.6,0.9*24
###2023-12-09 12:50:23.956770$GAGSA,A,3,04,19,21,27,,,,,,,,,1.1,0.6,0.9*26
###2023-12-09 12:50:23.958421$GBGSA,A,3,14,24,25,26,33,,,,,,,,1.1,0.6,0.9*2F
###2023-12-09 12:50:23.960774$GPGSV,2,1,08,03,37,268,44,04,28,311,42,16,44,210,47,26,74,208,48*74
###2023-12-09 12:50:23.963126$GPGSV,2,2,08,28,53,065,44,29,26,066,43,31,71,024,47,32,23,138,42*7B
###2023-12-09 12:50:23.965470$GLGSV,2,1,06,65,18,329,44,71,48,171,46,72,71,291,47,73,41,038,46*6F
###2023-12-09 12:50:23.967236$GLGSV,2,2,06,74,71,317,43,75,28,247,43,,,,,,,,*6A
###2023-12-09 12:50:23.969570$GAGSV,1,1,04,04,26,312,41,19,85,260,40,21,83,158,45,27,36,048,43*62
###2023-12-09 12:50:23.971914$GBGSV,2,1,05,14,49,195,45,24,77,011,48,25,37,257,45,26,30,060,44*60
###2023-12-09 12:50:23.973375$GBGSV,2,2,05,33,61,241,48,,,,,,,,,,,,*52
###2023-12-09 12:50:23.974717$GNVTG,120.11,T,,M,2.86,N,5.29,K,A*22
###2023-12-09 12:50:23.976374$GNGST,175023.10,18.000,,,,0.078,0.067,0.160*54
###2023-12-09 12:50:23.977672$GNZDA,175023.10,09,12,2023,00,00*72
###2023-12-09 12:50:23.978312$GNEBP,,,,,,M*13
###2023-12-09 12:50:24.148148$GNGGA,175023.30,4138.0635561,N,07032.3863486,W,1,24,0.6,13.585,M,-29.744,M,0.0,*5A
###2023-12-09 12:50:24.350000$GNGGA,175023.50,4138.0634825,N,07032.3861701,W,1,24,0.6,13.605,M,-29.744,M,0.0,*55
###2023-12-09 12:50:24.549175$GNGGA,175023.70,4138.0633917,N,07032.3859869,W,1,24,0.6,13.605,M,-29.744,M,0.0,*5A
###2023-12-09 12:50:24.749189$GNGGA,175023.90,4138.0632981,N,07032.3858200,W,1,24,0.6,13.596,M,-29.744,M,0.0,*57
###2023-12-09 12:50:24.949895$GNRMC,175024.10,A,4138.0632041,N,07032.3856590,W,2.94,131.04,091223,,,A*5B
###2023-12-09 12:50:24.952784$GNGGA,175024.10,4138.0632041,N,07032.3856590,W,1,24,0.6,13.613,M,-29.744,M,0.0,*53
###2023-12-09 12:50:24.954661$GPGSA,A,3,03,04,16,26,28,29,31,32,,,,,1.1,0.6,0.9*3B
###2023-12-09 12:50:24.956378$GLGSA,A,3,65,71,72,73,74,75,,,,,,,1.1,0.6,0.9*24
###2023-12-09 12:50:24.957960$GAGSA,A,3,04,19,21,27,,,,,,,,,1.1,0.6,0.9*26
###2023-12-09 12:50:24.959625$GBGSA,A,3,14,24,25,26,33,,,,,,,,1.1,0.6,0.9*2F
###2023-12-09 12:50:24.961956$GPGSV,2,1,08,03,37,268,44,04,28,311,41,16,44,210,46,26,74,208,48*76
###2023-12-09 12:50:24.964302$GPGSV,2,2,08,28,53,065,44,29,26,066,44,31,71,024,47,32,23,138,41*7F
###2023-12-09 12:50:24.966638$GLGSV,2,1,06,65,18,329,41,71,48,171,45,72,71,291,47,73,41,038,46*69
###2023-12-09 12:50:24.968383$GLGSV,2,2,06,74,71,317,43,75,28,247,44,,,,,,,,*6D
###2023-12-09 12:50:24.970715$GAGSV,1,1,04,04,26,312,39,19,85,260,40,21,83,158,46,27,36,048,44*69
###2023-12-09 12:50:24.973034$GBGSV,2,1,05,14,49,195,45,24,77,011,49,25,37,257,47,26,30,060,46*61
###2023-12-09 12:50:24.974480$GBGSV,2,2,05,33,61,241,50,,,,,,,,,,,,*5B
###2023-12-09 12:50:24.975808$GNVTG,131.04,T,,M,2.94,N,5.44,K,A*2E
###2023-12-09 12:50:24.977442$GNGST,175024.10,18.000,,,,0.078,0.067,0.160*53
###2023-12-09 12:50:24.978737$GNZDA,175024.10,09,12,2023,00,00*75
###2023-12-09 12:50:24.979372$GNEBP,,,,,,M*13
###2023-12-09 12:50:25.148833$GNGGA,175024.30,4138.0630885,N,07032.3854970,W,1,24,0.6,13.627,M,-29.744,M,0.0,*54
###2023-12-09 12:50:25.349834$GNGGA,175024.50,4138.0629753,N,07032.3853412,W,1,24,0.6,13.610,M,-29.744,M,0.0,*54
###2023-12-09 12:50:25.549112$GNGGA,175024.70,4138.0628539,N,07032.3852026,W,1,24,0.6,13.611,M,-29.744,M,0.0,*5A
###2023-12-09 12:50:25.749045$GNGGA,175024.90,4138.0627195,N,07032.3850744,W,1,24,0.6,13.628,M,-29.744,M,0.0,*52
###2023-12-09 12:50:25.948757$GNRMC,175025.10,A,4138.0625734,N,07032.3849601,W,3.17,150.75,091223,,,A*57
###2023-12-09 12:50:25.951634$GNGGA,175025.10,4138.0625734,N,07032.3849601,W,1,24,0.6,13.626,M,-29.744,M,0.0,*52
###2023-12-09 12:50:25.953508$GPGSA,A,3,03,04,16,26,28,29,31,32,,,,,1.1,0.6,0.9*3B
###2023-12-09 12:50:25.955248$GLGSA,A,3,65,71,72,73,74,75,,,,,,,1.1,0.6,0.9*24
###2023-12-09 12:50:25.956834$GAGSA,A,3,04,19,21,27,,,,,,,,,1.1,0.6,0.9*26
###2023-12-09 12:50:25.958484$GBGSA,A,3,14,24,25,26,33,,,,,,,,1.1,0.6,0.9*2F
###2023-12-09 12:50:25.960841$GPGSV,2,1,08,03,37,268,45,04,28,311,40,16,44,210,44,26,74,208,48*74
###2023-12-09 12:50:25.963196$GPGSV,2,2,08,28,53,065,46,29,26,066,44,31,71,024,47,32,23,138,42*7E
###2023-12-09 12:50:25.965537$GLGSV,2,1,06,65,18,329,43,71,48,171,45,72,71,291,46,73,41,038,46*6A
###2023-12-09 12:50:25.967298$GLGSV,2,2,06,74,71,317,43,75,28,247,44,,,,,,,,*6D
###2023-12-09 12:50:25.969623$GAGSV,1,1,04,04,26,312,39,19,85,260,40,21,83,158,46,27,36,048,44*69
###2023-12-09 12:50:25.971972$GBGSV,2,1,05,14,49,195,45,24,77,011,49,25,37,257,47,26,30,060,46*61
###2023-12-09 12:50:25.973433$GBGSV,2,2,05,33,61,241,50,,,,,,,,,,,,*5B
###2023-12-09 12:50:25.974775$GNVTG,150.75,T,,M,3.17,N,5.87,K,A*2A
###2023-12-09 12:50:25.976428$GNGST,175025.10,18.000,,,,0.078,0.066,0.160*53
###2023-12-09 12:50:25.977719$GNZDA,175025.10,09,12,2023,00,00*74
###2023-12-09 12:50:25.978357$GNEBP,,,,,,M*13
###2023-12-09 12:50:26.148098$GNGGA,175025.30,4138.0624257,N,07032.3848583,W,1,24,0.6,13.621,M,-29.744,M,0.0,*5E
###2023-12-09 12:50:26.348914$GNGGA,175025.50,4138.0622695,N,07032.3847824,W,1,24,0.6,13.628,M,-29.744,M,0.0,*52
###2023-12-09 12:50:26.548792$GNGGA,175025.70,4138.0620969,N,07032.3847134,W,1,24,0.6,13.626,M,-29.744,M,0.0,*58
###2023-12-09 12:50:26.750876$GNGGA,175025.90,4138.0619317,N,07032.3846465,W,1,24,0.6,13.618,M,-29.744,M,0.0,*52
###2023-12-09 12:50:26.949358$GNRMC,175026.10,A,4138.0617571,N,07032.3845858,W,3.38,166.71,091223,,,A*54
###2023-12-09 12:50:26.952253$GNGGA,175026.10,4138.0617571,N,07032.3845858,W,1,24,0.6,13.641,M,-29.744,M,0.0,*5C
###2023-12-09 12:50:26.954119$GPGSA,A,3,03,04,16,26,28,29,31,32,,,,,1.1,0.6,0.9*3B
###2023-12-09 12:50:26.955861$GLGSA,A,3,65,71,72,73,74,75,,,,,,,1.1,0.6,0.9*24
###2023-12-09 12:50:26.957715$GAGSA,A,3,04,19,21,27,,,,,,,,,1.1,0.6,0.9*26
###2023-12-09 12:50:26.959410$GBGSA,A,3,14,24,25,26,33,,,,,,,,1.1,0.6,0.9*2F
###2023-12-09 12:50:26.961757$GPGSV,2,1,08,03,37,268,45,04,28,311,41,16,44,210,44,26,74,208,47*7A
###2023-12-09 12:50:26.964159$GPGSV,2,2,08,28,53,065,46,29,26,066,44,31,71,024,47,32,23,138,42*7E
###2023-12-09 12:50:26.966519$GLGSV,2,1,06,65,18,329,42,71,48,171,44,72,71,291,46,73,41,038,46*6A
###2023-12-09 12:50:26.968293$GLGSV,2,2,06,74,71,317,43,75,28,247,43,,,,,,,,*6A
###2023-12-09 12:50:26.970653$GAGSV,1,1,04,04,26,312,40,19,85,260,40,21,83,158,46,27,36,048,43*60
###2023-12-09 12:50:26.973003$GBGSV,2,1,05,14,49,195,43,24,77,011,49,25,37,257,46,26,30,060,46*66
###2023-12-09 12:50:26.974469$GBGSV,2,2,05,33,61,241,48,,,,,,,,,,,,*52
###2023-12-09 12:50:26.975815$GNVTG,166.71,T,,M,3.38,N,6.26,K,A*2E
