###2023-12-09 13:17:26.012177$GNZDA,181725.10,09,12,2023,00,00*78
###2023-12-09 13:17:26.012838$GNEBP,,,,,,M*13
###2023-12-09 13:17:26.179163$GNGGA,181725.30,4138.0548386,N,07032.2933408,W,1,24,0.7,12.968,M,-29.743,M,0.0,*5D
###2023-12-09 13:17:26.378224$GNGGA,181725.50,4138.0546447,N,07032.2933560,W,1,24,0.7,12.965,M,-29.743,M,0.0,*5D
###2023-12-09 13:17:26.579806$GNGGA,181725.70,4138.0544495,N,07032.2933582,W,1,24,0.7,12.934,M,-29.743,M,0.0,*5A
###2023-12-09 13:17:26.780038$GNGGA,181725.90,4138.0542640,N,07032.2934057,W,1,24,0.7,12.972,M,-29.743,M,0.0,*50
###2023-12-09 13:17:26.983410$GNRMC,181726.10,A,4138.0540703,N,07032.2934528,W,3.40,186.04,091223,,,A*51
###2023-12-09 13:17:26.986271$GNGGA,181726.10,4138.0540703,N,07032.2934528,W,1,24,0.7,12.986,M,-29.743,M,0.0,*59
###2023-12-09 13:17:26.988076$GPGSA,A,3,03,04,16,26,28,29,31,,,,,,1.2,0.7,1.0*30
###2023-12-09 13:17:26.989782$GLGSA,A,3,65,71,72,73,74,75,,,,,,,1.2,0.7,1.0*2E
###2023-12-09 13:17:26.991369$GAGSA,A,3,04,19,21,27,,,,,,,,,1.2,0.7,1.0*2C
###2023-12-09 13:17:26.993079$GBGSA,A,3,14,24,25,26,33,35,,,,,,,1.2,0.7,1.0*23
###2023-12-09 13:17:26.995410$GPGSV,2,1,07,03,31,253,42,04,39,310,46,16,58,216,46,26,88,205,49*73
###2023-12-09 13:17:26.997447$GPGSV,2,2,07,28,44,077,44,29,24,054,41,31,65,052,48,,,,*47
###2023-12-09 13:17:26.999785$GLGSV,2,1,06,65,31,324,42,71,32,174,42,72,70,240,46,73,29,047,43*6C
###2023-12-09 13:17:27.001532$GLGSV,2,2,06,74,65,358,43,75,38,261,47,,,,,,,,*65
###2023-12-09 13:17:27.003866$GAGSV,1,1,04,04,34,312,44,19,79,190,40,21,83,062,46,27,28,049,41*6C
###2023-12-09 13:17:27.006194$GBGSV,2,1,06,14,36,191,42,24,68,036,49,25,45,268,48,26,21,066,43*67
###2023-12-09 13:17:27.007954$GBGSV,2,2,06,33,52,224,47,35,16,063,43,,,,,,,,*6E
###2023-12-09 13:17:27.009282$GNVTG,186.04,T,,M,3.40,N,6.30,K,A*2A
###2023-12-09 13:17:27.010942$GNGST,181726.10,18.000,,,,0.100,0.070,0.170*54
###2023-12-09 13:17:27.012232$GNZDA,181726.10,09,12,2023,00,00*7B
###2023-12-09 13:17:27.012868$GNEBP,,,,,,M*13
###2023-12-09 13:17:27.181151$GNGGA,181726.30,4138.0538784,N,07032.2934680,W,1,24,0.7,12.959,M,-29.743,M,0.0,*58
###2023-12-09 13:17:27.378236$GNGGA,181726.50,4138.0536840,N,07032.2934759,W,1,24,0.7,12.940,M,-29.743,M,0.0,*5A
###2023-12-09 13:17:27.579531$GNGGA,181726.70,4138.0534902,N,07032.2935174,W,1,24,0.7,12.962,M,-29.743,M,0.0,*55
###2023-12-09 13:17:27.780117$GNGGA,181726.90,4138.0532940,N,07032.2935682,W,1,24,0.7,12.967,M,-29.743,M,0.0,*50
###2023-12-09 13:17:27.987109$GNRMC,181727.10,A,4138.0531015,N,07032.2935651,W,3.34,175.47,091223,,,A*52
###2023-12-09 13:17:27.989977$GNGGA,181727.10,4138.0531015,N,07032.2935651,W,1,24,0.7,12.960,M,-29.743,M,0.0,*5A
###2023-12-09 13:17:27.991777$GPGSA,A,3,03,04,16,26,28,29,31,,,,,,1.2,0.7,1.0*30
###2023-12-09 13:17:27.993488$GLGSA,A,3,65,71,72,73,74,75,,,,,,,1.2,0.7,1.0*2E
###2023-12-09 13:17:27.995080$GAGSA,A,3,04,19,21,27,,,,,,,,,1.2,0.7,1.0*2C
###2023-12-09 13:17:27.996794$GBGSA,A,3,14,24,25,26,33,35,,,,,,,1.2,0.7,1.0*23
###2023-12-09 13:17:27.999130$GPGSV,2,1,07,03,31,253,42,04,39,310,45,16,58,216,46,26,88,205,47*7E
###2023-12-09 13:17:28.001166$GPGSV,2,2,07,28,44,077,44,29,24,054,42,31,65,052,46,,,,*4A
###2023-12-09 13:17:28.003503$GLGSV,2,1,06,65,31,324,44,71,32,174,42,72,70,240,46,73,29,047,43*6A
###2023-12-09 13:17:28.005251$GLGSV,2,2,06,74,65,358,43,75,38,261,46,,,,,,,,*64
###2023-12-09 13:17:28.007590$GAGSV,1,1,04,04,34,312,43,19,79,190,40,21,83,062,46,27,28,049,40*6A
###2023-12-09 13:17:28.009911$GBGSV,2,1,06,14,36,191,42,24,68,036,48,25,45,268,47,26,21,066,43*69
###2023-12-09 13:17:28.011664$GBGSV,2,2,06,33,52,224,47,35,16,063,43,,,,,,,,*6E
###2023-12-09 13:17:28.012975$GNVTG,175.47,T,,M,3.34,N,6.19,K,A*29
###2023-12-09 13:17:28.014661$GNGST,181727.10,18.000,,,,0.100,0.070,0.170*55
###2023-12-09 13:17:28.015951$GNZDA,181727.10,09,12,2023,00,00*7A
###2023-12-09 13:17:28.016588$GNEBP,,,,,,M*13
###2023-12-09 13:17:28.178985$GNGGA,181727.30,4138.0529095,N,07032.2935567,W,1,24,0.7,12.968,M,-29.743,M,0.0,*57
###2023-12-09 13:17:28.379268$GNGGA,181727.50,4138.0527101,N,07032.2935629,W,1,24,0.7,12.963,M,-29.743,M,0.0,*51
###2023-12-09 13:17:28.580070$GNGGA,181727.70,4138.0525155,N,07032.2935698,W,1,24,0.7,12.954,M,-29.743,M,0.0,*5E
###2023-12-09 13:17:28.779071$GNGGA,181727.90,4138.0523257,N,07032.2935767,W,1,24,0.7,12.980,M,-29.743,M,0.0,*5F
###2023-12-09 13:17:28.987313$GNRMC,181728.10,A,4138.0521282,N,07032.2935598,W,3.48,174.13,091223,,,A*5D
###2023-12-09 13:17:28.990176$GNGGA,181728.10,4138.0521282,N,07032.2935598,W,1,24,0.7,12.966,M,-29.743,M,0.0,*58
###2023-12-09 13:17:28.991978$GPGSA,A,3,03,04,16,26,28,29,31,,,,,,1.2,0.7,1.0*30
###2023-12-09 13:17:28.993690$GLGSA,A,3,65,71,72,73,74,75,,,,,,,1.2,0.7,1.0*2E
###2023-12-09 13:17:28.995290$GAGSA,A,3,04,19,21,27,,,,,,,,,1.2,0.7,1.0*2C
###2023-12-09 13:17:28.997006$GBGSA,A,3,14,24,25,26,33,35,,,,,,,1.2,0.7,1.0*23
###2023-12-09 13:17:28.999355$GPGSV,2,1,07,03,31,253,42,04,39,310,45,16,58,216,47,26,88,205,48*70
###2023-12-09 13:17:29.001400$GPGSV,2,2,07,28,43,078,44,29,24,054,42,31,65,052,47,,,,*43
###2023-12-09 13:17:29.003738$GLGSV,2,1,06,65,31,324,43,71,32,174,42,72,70,240,46,73,29,047,43*6D
###2023-12-09 13:17:29.005485$GLGSV,2,2,06,74,65,358,43,75,38,261,46,,,,,,,,*64
###2023-12-09 13:17:29.007817$GAGSV,1,1,04,04,34,312,43,19,79,190,40,21,83,062,46,27,28,049,41*6B
###2023-12-09 13:17:29.010182$GBGSV,2,1,06,14,36,191,42,24,68,036,49,25,45,268,48,26,21,066,44*60
###2023-12-09 13:17:29.011944$GBGSV,2,2,06,33,52,224,48,35,16,063,44,,,,,,,,*66
###2023-12-09 13:17:29.013271$GNVTG,174.13,T,,M,3.48,N,6.44,K,A*2A
###2023-12-09 13:17:29.014929$GNGST,181728.10,18.000,,,,0.100,0.070,0.170*5A
###2023-12-09 13:17:29.016220$GNZDA,181728.10,09,12,2023,00,00*75
###2023-12-09 13:17:29.016858$GNEBP,,,,,,M*13
###2023-12-09 13:17:29.179054$GNGGA,181728.30,4138.0519339,N,07032.2935496,W,1,24,0.7,12.947,M,-29.743,M,0.0,*5C
###2023-12-09 13:17:29.378142$GNGGA,181728.50,4138.0517401,N,07032.2935822,W,1,24,0.7,12.986,M,-29.743,M,0.0,*56
###2023-12-09 13:17:29.580058$GNGGA,181728.70,4138.0515374,N,07032.2935980,W,1,24,0.7,12.981,M,-29.743,M,0.0,*5D
###2023-12-09 13:17:29.779927$GNGGA,181728.90,4138.0513474,N,07032.2935839,W,1,24,0.7,12.948,M,-29.743,M,0.0,*54
###2023-12-09 13:17:29.982398$GNRMC,181729.10,A,4138.0511583,N,07032.2936030,W,3.62,191.90,091223,,,A*55
###2023-12-09 13:17:29.985277$GNGGA,181729.10,4138.0511583,N,07032.2936030,W,1,24,0.7,12.977,M,-29.743,M,0.0,*58
###2023-12-09 13:17:29.987115$GPGSA,A,3,03,04,16,26,28,29,31,,,,,,1.2,0.7,1.0*30
###2023-12-09 13:17:29.988828$GLGSA,A,3,65,71,72,73,74,75,,,,,,,1.2,0.7,1.0*2E
###2023-12-09 13:17:29.990412$GAGSA,A,3,04,19,21,27,,,,,,,,,1.2,0.7,1.0*2C
###2023-12-09 13:17:29.992131$GBGSA,A,3,14,24,25,26,33,35,,,,,,,1.2,0.7,1.0*23
###2023-12-09 13:17:29.994450$GPGSV,2,1,07,03,31,253,42,04,39,310,45,16,58,216,46,26,88,205,48*71
###2023-12-09 13:17:29.996505$GPGSV,2,2,07,28,43,078,45,29,23,053,44,31,65,052,48,,,,*4B
###2023-12-09 13:17:29.998845$GLGSV,2,1,06,65,31,324,42,71,32,174,43,72,70,240,45,73,29,047,45*68
###2023-12-09 13:17:30.000589$GLGSV,2,2,06,74,65,358,43,75,38,261,45,,,,,,,,*67
###2023-12-09 13:17:30.002911$GAGSV,1,1,04,04,34,312,43,19,79,190,40,21,83,062,46,27,28,049,42*68
###2023-12-09 13:17:30.005234$GBGSV,2,1,06,14,36,191,42,24,68,036,49,25,45,268,46,26,21,066,44*6E
###2023-12-09 13:17:30.006988$GBGSV,2,2,06,33,52,224,46,35,16,063,44,,,,,,,,*68
###2023-12-09 13:17:30.008309$GNVTG,191.90,T,,M,3.62,N,6.70,K,A*25
###2023-12-09 13:17:30.009947$GNGST,181729.10,18.000,,,,0.100,0.070,0.170*5B
###2023-12-09 13:17:30.011242$GNZDA,181729.10,09,12,2023,00,00*74
###2023-12-09 13:17:30.011882$GNEBP,,,,,,M*13
###2023-12-09 13:17:30.179071$GNGGA,181729.30,4138.0509586,N,07032.2936526,W,1,24,0.7,12.984,M,-29.743,M,0.0,*58
###2023-12-09 13:17:30.382303$GNGGA,181729.50,4138.0507708,N,07032.2936676,W,1,24,0.7,12.958,M,-29.743,M,0.0,*53
###2023-12-09 13:17:30.578957$GNGGA,181729.70,4138.0505824,N,07032.2936744,W,1,24,0.7,12.990,M,-29.743,M,0.0,*56
###2023-12-09 13:17:30.780018$GNGGA,181729.90,4138.0503858,N,07032.2936865,W,1,24,0.7,12.978,M,-29.743,M,0.0,*5F
###2023-12-09 13:17:30.984349$GNRMC,181730.10,A,4138.0501969,N,07032.2936949,W,3.36,183.56,091223,,,A*5B
###2023-12-09 13:17:30.987453$GNGGA,181730.10,4138.0501969,N,07032.2936949,W,1,24,0.7,12.973,M,-29.743,M,0.0,*5A
###2023-12-09 13:17:30.989252$GPGSA,A,3,03,04,16,26,28,29,31,,,,,,1.2,0.7,1.0*30
###2023-12-09 13:17:30.990981$GLGSA,A,3,65,71,72,73,74,75,,,,,,,1.2,0.7,1.0*2E
###2023-12-09 13:17:30.992562$GAGSA,A,3,04,19,21,27,,,,,,,,,1.2,0.7,1.0*2C
###2023-12-09 13:17:30.994269$GBGSA,A,3,14,24,25,26,33,35,,,,,,,1.2,0.7,1.0*23
###2023-12-09 13:17:30.996612$GPGSV,2,1,07,03,31,253,42,04,39,310,44,16,58,216,46,26,88,205,47*7F
###2023-12-09 13:17:30.998666$GPGSV,2,2,07,28,43,078,45,29,23,053,43,31,65,052,47,,,,*43
###2023-12-09 13:17:31.000996$GLGSV,2,1,06,65,31,324,43,71,32,174,42,72,70,240,45,73,29,047,44*69
###2023-12-09 13:17:31.002753$GLGSV,2,2,06,74,65,358,43,75,38,261,46,,,,,,,,*64
