###2023-12-09 12:42:21.740965$GNGGA,174220.90,4138.0642435,N,07032.3743738,W,1,24,0.6,13.403,M,-29.744,M,0.0,*54
###2023-12-09 12:42:21.942344$GNRMC,174221.10,A,4138.0642007,N,07032.3745359,W,2.37,253.53,091223,,,A*5A
###2023-12-09 12:42:21.945236$GNGGA,174221.10,4138.0642007,N,07032.3745359,W,1,24,0.6,13.404,M,-29.744,M,0.0,*5A
###2023-12-09 12:42:21.947138$GPGSA,A,3,03,04,16,26,28,29,31,32,,,,,1.1,0.6,0.9*3B
###2023-12-09 12:42:21.948869$GLGSA,A,3,65,71,72,73,74,75,,,,,,,1.1,0.6,0.9*24
###2023-12-09 12:42:21.950452$GAGSA,A,3,04,19,21,27,,,,,,,,,1.1,0.6,0.9*26
###2023-12-09 12:42:21.952116$GBGSA,A,3,14,24,25,26,33,,,,,,,,1.1,0.6,0.9*2F
###2023-12-09 12:42:21.954441$GPGSV,2,1,08,03,38,272,43,04,25,311,41,16,40,208,45,26,70,207,47*72
###2023-12-09 12:42:21.956790$GPGSV,2,2,08,28,55,060,44,29,25,070,42,31,72,013,47,32,27,136,44*76
###2023-12-09 12:42:21.959139$GLGSV,2,1,06,65,15,329,40,71,52,170,47,72,68,302,46,73,44,035,46*67
###2023-12-09 12:42:21.960890$GLGSV,2,2,06,74,71,303,42,75,25,244,42,,,,,,,,*61
###2023-12-09 12:42:21.963232$GAGSV,1,1,04,04,23,311,40,19,83,289,40,21,80,172,46,27,39,049,44*65
###2023-12-09 12:42:21.965559$GBGSV,2,1,05,14,52,196,45,24,79,359,48,25,34,255,44,26,33,058,45*61
###2023-12-09 12:42:21.967029$GBGSV,2,2,05,33,62,248,46,,,,,,,,,,,,*56
###2023-12-09 12:42:21.968355$GNVTG,253.53,T,,M,2.37,N,4.39,K,A*29
###2023-12-09 12:42:21.970006$GNGST,174221.10,18.000,,,,0.078,0.069,0.160*5B
###2023-12-09 12:42:21.971309$GNZDA,174221.10,09,12,2023,00,00*73
###2023-12-09 12:42:21.971946$GNEBP,,,,,,M*13
###2023-12-09 12:42:22.141560$GNGGA,174221.30,4138.0641682,N,07032.3747074,W,1,24,0.6,13.412,M,-29.744,M,0.0,*59
###2023-12-09 12:42:22.342629$GNGGA,174221.50,4138.0641449,N,07032.3748824,W,1,24,0.6,13.408,M,-29.744,M,0.0,*53
###2023-12-09 12:42:22.542850$GNGGA,174221.70,4138.0641129,N,07032.3750527,W,1,24,0.6,13.409,M,-29.744,M,0.0,*54
###2023-12-09 12:42:22.743993$GNGGA,174221.90,4138.0640661,N,07032.3752170,W,1,24,0.6,13.401,M,-29.744,M,0.0,*5C
###2023-12-09 12:42:22.944763$GNRMC,174222.10,A,4138.0640261,N,07032.3753843,W,2.37,255.72,091223,,,A*5B
###2023-12-09 12:42:22.947660$GNGGA,174222.10,4138.0640261,N,07032.3753843,W,1,24,0.6,13.401,M,-29.744,M,0.0,*5B
###2023-12-09 12:42:22.949543$GPGSA,A,3,03,04,16,26,28,29,31,32,,,,,1.1,0.6,0.9*3B
###2023-12-09 12:42:22.951287$GLGSA,A,3,65,71,72,73,74,75,,,,,,,1.1,0.6,0.9*24
###2023-12-09 12:42:22.952877$GAGSA,A,3,04,19,21,27,,,,,,,,,1.1,0.6,0.9*26
###2023-12-09 12:42:22.954529$GBGSA,A,3,14,24,25,26,33,,,,,,,,1.1,0.6,0.9*2F
###2023-12-09 12:42:22.956889$GPGSV,2,1,08,03,38,272,42,04,25,311,40,16,40,208,45,26,70,207,47*72
###2023-12-09 12:42:22.959249$GPGSV,2,2,08,28,55,060,45,29,25,070,43,31,72,013,47,32,27,136,44*76
###2023-12-09 12:42:22.961587$GLGSV,2,1,06,65,15,329,39,71,52,170,47,72,68,302,46,73,44,035,47*68
###2023-12-09 12:42:22.963353$GLGSV,2,2,06,74,71,303,42,75,25,244,41,,,,,,,,*62
###2023-12-09 12:42:22.965690$GAGSV,1,1,04,04,23,311,39,19,84,288,40,21,80,172,46,27,39,049,44*6D
###2023-12-09 12:42:22.968042$GBGSV,2,1,05,14,52,196,46,24,79,359,48,25,34,255,44,26,33,058,45*62
###2023-12-09 12:42:22.969499$GBGSV,2,2,05,33,62,248,47,,,,,,,,,,,,*57
###2023-12-09 12:42:22.970835$GNVTG,255.72,T,,M,2.37,N,4.39,K,A*2C
###2023-12-09 12:42:22.972479$GNGST,174222.10,18.000,,,,0.078,0.069,0.160*58
###2023-12-09 12:42:22.973764$GNZDA,174222.10,09,12,2023,00,00*70
###2023-12-09 12:42:22.974400$GNEBP,,,,,,M*13
###2023-12-09 12:42:23.144195$GNGGA,174222.30,4138.0639966,N,07032.3755597,W,1,24,0.6,13.419,M,-29.744,M,0.0,*50
###2023-12-09 12:42:23.343482$GNGGA,174222.50,4138.0639672,N,07032.3757354,W,1,24,0.6,13.425,M,-29.744,M,0.0,*58
###2023-12-09 12:42:23.542893$GNGGA,174222.70,4138.0639280,N,07032.3758994,W,1,24,0.6,13.428,M,-29.744,M,0.0,*57
###2023-12-09 12:42:23.741946$GNGGA,174222.90,4138.0638788,N,07032.3760581,W,1,24,0.6,13.428,M,-29.744,M,0.0,*56
###2023-12-09 12:42:23.942410$GNRMC,174223.10,A,4138.0638370,N,07032.3762176,W,2.29,252.14,091223,,,A*51
###2023-12-09 12:42:23.945290$GNGGA,174223.10,4138.0638370,N,07032.3762176,W,1,24,0.6,13.422,M,-29.744,M,0.0,*58
###2023-12-09 12:42:23.947171$GPGSA,A,3,03,04,16,26,28,29,31,32,,,,,1.1,0.6,0.9*3B
###2023-12-09 12:42:23.948901$GLGSA,A,3,65,71,72,73,74,75,,,,,,,1.1,0.6,0.9*24
###2023-12-09 12:42:23.950481$GAGSA,A,3,04,19,21,27,,,,,,,,,1.1,0.6,0.9*26
###2023-12-09 12:42:23.952138$GBGSA,A,3,14,24,25,26,33,,,,,,,,1.1,0.6,0.9*2F
###2023-12-09 12:42:23.954458$GPGSV,2,1,08,03,38,272,42,04,25,311,40,16,40,208,45,26,70,207,47*72
###2023-12-09 12:42:23.956807$GPGSV,2,2,08,28,55,060,45,29,25,070,43,31,72,013,47,32,27,136,45*77
###2023-12-09 12:42:23.959151$GLGSV,2,1,06,65,15,329,36,71,52,170,47,72,68,302,45,73,44,035,46*65
###2023-12-09 12:42:23.960896$GLGSV,2,2,06,74,71,303,42,75,25,244,42,,,,,,,,*61
###2023-12-09 12:42:23.963236$GAGSV,1,1,04,04,23,311,39,19,84,288,40,21,81,170,46,27,39,049,45*6F
###2023-12-09 12:42:23.965562$GBGSV,2,1,05,14,52,196,45,24,79,359,47,25,34,255,44,26,33,058,44*6F
###2023-12-09 12:42:23.967032$GBGSV,2,2,05,33,62,248,46,,,,,,,,,,,,*56
###2023-12-09 12:42:23.968350$GNVTG,252.14,T,,M,2.29,N,4.25,K,A*29
###2023-12-09 12:42:23.969996$GNGST,174223.10,18.000,,,,0.078,0.069,0.160*59
###2023-12-09 12:42:23.971305$GNZDA,174223.10,09,12,2023,00,00*71
###2023-12-09 12:42:23.971945$GNEBP,,,,,,M*13
###2023-12-09 12:42:24.143768$GNGGA,174223.30,4138.0638017,N,07032.3763814,W,1,24,0.6,13.430,M,-29.744,M,0.0,*57
###2023-12-09 12:42:24.343426$GNGGA,174223.50,4138.0637640,N,07032.3765448,W,1,24,0.6,13.443,M,-29.744,M,0.0,*5D
###2023-12-09 12:42:24.543563$GNGGA,174223.70,4138.0637177,N,07032.3767033,W,1,24,0.6,13.455,M,-29.744,M,0.0,*51
###2023-12-09 12:42:24.741854$GNGGA,174223.90,4138.0636606,N,07032.3768542,W,1,24,0.6,13.456,M,-29.744,M,0.0,*50
###2023-12-09 12:42:24.943362$GNRMC,174224.10,A,4138.0635984,N,07032.3770006,W,2.29,240.54,091223,,,A*58
###2023-12-09 12:42:24.946216$GNGGA,174224.10,4138.0635984,N,07032.3770006,W,1,24,0.6,13.450,M,-29.744,M,0.0,*53
###2023-12-09 12:42:24.948112$GPGSA,A,3,03,04,16,26,28,29,31,32,,,,,1.1,0.6,0.9*3B
###2023-12-09 12:42:24.949848$GLGSA,A,3,65,71,72,73,74,75,,,,,,,1.1,0.6,0.9*24
###2023-12-09 12:42:24.951450$GAGSA,A,3,04,19,21,27,,,,,,,,,1.1,0.6,0.9*26
###2023-12-09 12:42:24.953093$GBGSA,A,3,14,24,25,26,33,,,,,,,,1.1,0.6,0.9*2F
###2023-12-09 12:42:24.955428$GPGSV,2,1,08,03,38,272,42,04,25,311,41,16,40,208,44,26,70,207,47*72
###2023-12-09 12:42:24.957757$GPGSV,2,2,08,28,55,060,45,29,25,070,44,31,72,013,47,32,27,136,45*70
###2023-12-09 12:42:24.960108$GLGSV,2,1,06,65,15,329,40,71,52,170,48,72,68,302,46,73,44,035,46*68
###2023-12-09 12:42:24.961856$GLGSV,2,2,06,74,71,303,42,75,25,244,42,,,,,,,,*61
###2023-12-09 12:42:24.964210$GAGSV,1,1,04,04,23,311,41,19,84,288,40,21,81,170,46,27,39,049,45*60
###2023-12-09 12:42:24.966544$GBGSV,2,1,05,14,52,196,45,24,79,359,48,25,34,255,43,26,33,058,46*65
###2023-12-09 12:42:24.968017$GBGSV,2,2,05,33,62,248,47,,,,,,,,,,,,*57
###2023-12-09 12:42:24.969340$GNVTG,240.54,T,,M,2.29,N,4.25,K,A*2E
###2023-12-09 12:42:24.970998$GNGST,174224.10,18.000,,,,0.078,0.069,0.160*5E
###2023-12-09 12:42:24.972296$GNZDA,174224.10,09,12,2023,00,00*76
###2023-12-09 12:42:24.972933$GNEBP,,,,,,M*13
###2023-12-09 12:42:25.142253$GNGGA,174224.30,4138.0635421,N,07032.3771591,W,1,24,0.6,13.461,M,-29.744,M,0.0,*5B
###2023-12-09 12:42:25.342449$GNGGA,174224.50,4138.0634876,N,07032.3773273,W,1,24,0.6,13.478,M,-29.744,M,0.0,*53
###2023-12-09 12:42:25.546553$GNGGA,174224.70,4138.0634184,N,07032.3774759,W,1,24,0.6,13.469,M,-29.744,M,0.0,*5F
###2023-12-09 12:42:25.742006$GNGGA,174224.90,4138.0633306,N,07032.3775933,W,1,24,0.6,13.463,M,-29.744,M,0.0,*57
###2023-12-09 12:42:25.946067$GNRMC,174225.10,A,4138.0632426,N,07032.3777140,W,2.31,232.64,091223,,,A*50
###2023-12-09 12:42:25.948985$GNGGA,174225.10,4138.0632426,N,07032.3777140,W,1,24,0.6,13.470,M,-29.744,M,0.0,*56
###2023-12-09 12:42:25.950891$GPGSA,A,3,03,04,16,26,28,29,31,32,,,,,1.1,0.6,0.9*3B
###2023-12-09 12:42:25.952617$GLGSA,A,3,65,71,72,73,74,75,,,,,,,1.1,0.6,0.9*24
###2023-12-09 12:42:25.954208$GAGSA,A,3,04,19,21,27,,,,,,,,,1.1,0.6,0.9*26
###2023-12-09 12:42:25.955868$GBGSA,A,3,14,24,25,26,33,,,,,,,,1.1,0.6,0.9*2F
###2023-12-09 12:42:25.958469$GPGSV,2,1,08,03,38,272,42,04,25,311,40,16,40,208,42,26,70,207,47*75
###2023-12-09 12:42:25.960834$GPGSV,2,2,08,28,55,060,46,29,25,070,44,31,72,013,47,32,27,136,46*70
###2023-12-09 12:42:25.963198$GLGSV,2,1,06,65,15,329,36,71,52,170,47,72,68,302,46,73,44,035,46*66
###2023-12-09 12:42:25.964950$GLGSV,2,2,06,74,71,303,42,75,25,244,38,,,,,,,,*6C
###2023-12-09 12:42:25.967288$GAGSV,1,1,04,04,23,311,38,19,84,288,40,21,81,170,46,27,39,049,44*6F
###2023-12-09 12:42:25.969613$GBGSV,2,1,05,14,52,196,44,24,79,359,47,25,34,255,42,26,33,058,44*68
###2023-12-09 12:42:25.971083$GBGSV,2,2,05,33,62,248,46,,,,,,,,,,,,*56
###2023-12-09 12:42:25.972403$GNVTG,232.64,T,,M,2.31,N,4.28,K,A*2C
###2023-12-09 12:42:25.974050$GNGST,174225.10,19.000,,,,0.078,0.069,0.160*5E
