###2023-12-09 12:24:17.934764$GAGSV,1,1,03,04,17,310,36,21,73,180,46,27,45,051,46,,,,*50
###2023-12-09 12:24:17.937124$GBGSV,1,1,04,14,60,201,45,25,29,249,41,26,39,055,47,33,64,265,39*6C
###2023-12-09 12:24:17.938279$GNVTG,,T,,M,0.04,N,0.07,K,A*3E
###2023-12-09 12:24:17.939956$GNGST,172417.10,33.000,,,,0.110,0.100,0.230*50
###2023-12-09 12:24:17.941260$GNZDA,172417.10,09,12,2023,00,00*76
###2023-12-09 12:24:17.941910$GNEBP,,,,,,M*13
###2023-12-09 12:24:18.115320$GNGGA,172417.30,4138.0392447,N,07032.4362029,W,1,18,0.8,13.209,M,-29.746,M,0.0,*5F
###2023-12-09 12:24:18.315430$GNGGA,172417.50,4138.0392448,N,07032.4362078,W,1,18,0.8,13.195,M,-29.746,M,0.0,*54
###2023-12-09 12:24:18.517158$GNGGA,172417.70,4138.0392435,N,07032.4362119,W,1,18,0.8,13.175,M,-29.746,M,0.0,*54
###2023-12-09 12:24:18.714431$GNGGA,172417.90,4138.0392431,N,07032.4362153,W,1,18,0.8,13.159,M,-29.746,M,0.0,*5E
###2023-12-09 12:24:18.918478$GNRMC,172418.10,A,4138.0392420,N,07032.4362204,W,0.04,,091223,,,A*48
###2023-12-09 12:24:18.921435$GNGGA,172418.10,4138.0392420,N,07032.4362204,W,1,19,0.8,13.143,M,-29.746,M,0.0,*52
###2023-12-09 12:24:18.923366$GPGSA,A,3,03,16,25,26,28,29,31,32,,,,,1.3,0.8,1.0*3C
###2023-12-09 12:24:18.925045$GLGSA,A,3,71,72,73,75,,,,,,,,,1.3,0.8,1.0*20
###2023-12-09 12:24:18.926630$GAGSA,A,3,04,21,27,,,,,,,,,,1.3,0.8,1.0*2A
###2023-12-09 12:24:18.928260$GBGSA,A,3,14,25,26,33,,,,,,,,,1.3,0.8,1.0*2D
###2023-12-09 12:24:18.930649$GPGSV,2,1,08,03,39,283,41,16,32,206,43,25,16,045,42,26,61,205,44*71
###2023-12-09 12:24:18.933036$GPGSV,2,2,08,28,62,049,41,29,24,079,45,31,73,343,35,32,35,131,46*77
###2023-12-09 12:24:18.935615$GLGSV,1,1,04,71,63,167,46,72,61,317,35,73,53,030,48,75,18,237,43*66
###2023-12-09 12:24:18.937714$GAGSV,1,1,03,04,17,310,36,21,73,180,46,27,45,051,46,,,,*50
###2023-12-09 12:24:18.940104$GBGSV,1,1,04,14,60,201,44,25,29,249,40,26,39,055,47,33,64,265,38*6D
###2023-12-09 12:24:18.941278$GNVTG,,T,,M,0.04,N,0.07,K,A*3E
###2023-12-09 12:24:18.942980$GNGST,172418.10,32.000,,,,0.110,0.100,0.230*5E
###2023-12-09 12:24:18.944320$GNZDA,172418.10,09,12,2023,00,00*79
###2023-12-09 12:24:18.945218$GNEBP,,,,,,M*13
###2023-12-09 12:24:19.115393$GNGGA,172418.30,4138.0392409,N,07032.4362247,W,1,19,0.8,13.126,M,-29.746,M,0.0,*5F
###2023-12-09 12:24:19.315488$GNGGA,172418.50,4138.0392400,N,07032.4362293,W,1,19,0.8,13.116,M,-29.746,M,0.0,*5A
###2023-12-09 12:24:19.517539$GNGGA,172418.70,4138.0392394,N,07032.4362359,W,1,19,0.8,13.099,M,-29.746,M,0.0,*53
###2023-12-09 12:24:19.714540$GNGGA,172418.90,4138.0392383,N,07032.4362411,W,1,19,0.8,13.084,M,-29.746,M,0.0,*5C
###2023-12-09 12:24:19.916557$GNRMC,172419.10,A,4138.0392381,N,07032.4362469,W,0.04,,091223,,,A*48
###2023-12-09 12:24:19.919668$GNGGA,172419.10,4138.0392381,N,07032.4362469,W,1,19,0.8,13.072,M,-29.746,M,0.0,*51
###2023-12-09 12:24:19.921560$GPGSA,A,3,03,16,25,26,28,29,31,32,,,,,1.3,0.8,1.0*3C
###2023-12-09 12:24:19.923185$GLGSA,A,3,71,72,73,75,,,,,,,,,1.3,0.8,1.0*20
###2023-12-09 12:24:19.924731$GAGSA,A,3,04,21,27,,,,,,,,,,1.3,0.8,1.0*2A
###2023-12-09 12:24:19.926332$GBGSA,A,3,14,25,26,33,,,,,,,,,1.3,0.8,1.0*2D
###2023-12-09 12:24:19.928695$GPGSV,2,1,08,03,39,283,42,16,32,206,43,25,16,045,42,26,61,205,45*73
###2023-12-09 12:24:19.931058$GPGSV,2,2,08,28,62,049,42,29,24,079,45,31,73,343,35,32,35,131,47*75
###2023-12-09 12:24:19.933412$GLGSV,1,1,04,71,63,167,46,72,61,317,35,73,53,030,47,75,18,237,43*69
###2023-12-09 12:24:19.935488$GAGSV,1,1,03,04,17,310,36,21,73,180,46,27,45,051,46,,,,*50
###2023-12-09 12:24:19.937842$GBGSV,1,1,04,14,60,201,44,25,29,249,41,26,39,055,47,33,64,265,38*6C
###2023-12-09 12:24:19.939012$GNVTG,,T,,M,0.04,N,0.07,K,A*3E
###2023-12-09 12:24:19.940670$GNGST,172419.10,32.000,,,,0.110,0.100,0.230*5F
###2023-12-09 12:24:19.941987$GNZDA,172419.10,09,12,2023,00,00*78
###2023-12-09 12:24:19.942655$GNEBP,,,,,,M*13
###2023-12-09 12:24:20.115474$GNGGA,172419.30,4138.0392380,N,07032.4362513,W,1,19,0.8,13.058,M,-29.746,M,0.0,*56
###2023-12-09 12:24:20.315362$GNGGA,172419.50,4138.0392377,N,07032.4362569,W,1,19,0.8,13.040,M,-29.746,M,0.0,*5C
###2023-12-09 12:24:20.515299$GNGGA,172419.70,4138.0392379,N,07032.4362631,W,1,19,0.8,13.023,M,-29.746,M,0.0,*5B
###2023-12-09 12:24:20.714347$GNGGA,172419.90,4138.0392382,N,07032.4362696,W,1,19,0.8,13.005,M,-29.746,M,0.0,*58
###2023-12-09 12:24:20.919551$GNRMC,172420.10,A,4138.0392385,N,07032.4362756,W,0.02,,091223,,,A*4F
###2023-12-09 12:24:20.922437$GNGGA,172420.10,4138.0392385,N,07032.4362756,W,1,19,0.8,12.990,M,-29.746,M,0.0,*54
###2023-12-09 12:24:20.924331$GPGSA,A,3,03,16,25,26,28,29,31,32,,,,,1.3,0.8,1.0*3C
###2023-12-09 12:24:20.925944$GLGSA,A,3,71,72,73,75,,,,,,,,,1.3,0.8,1.0*20
###2023-12-09 12:24:20.927497$GAGSA,A,3,04,21,27,,,,,,,,,,1.3,0.8,1.0*2A
###2023-12-09 12:24:20.929102$GBGSA,A,3,14,25,26,33,,,,,,,,,1.3,0.8,1.0*2D
###2023-12-09 12:24:20.931458$GPGSV,2,1,08,03,39,283,42,16,32,206,43,25,16,045,42,26,61,205,45*73
###2023-12-09 12:24:20.933809$GPGSV,2,2,08,28,62,049,42,29,24,079,45,31,73,343,35,32,35,131,47*75
###2023-12-09 12:24:20.936162$GLGSV,1,1,04,71,63,167,47,72,61,317,35,73,53,030,48,75,18,237,43*67
###2023-12-09 12:24:20.938224$GAGSV,1,1,03,04,17,310,36,21,73,180,46,27,45,051,46,,,,*50
###2023-12-09 12:24:20.940590$GBGSV,1,1,04,14,60,201,44,25,29,249,40,26,39,055,47,33,64,265,38*6D
###2023-12-09 12:24:20.941746$GNVTG,,T,,M,0.02,N,0.04,K,A*3B
###2023-12-09 12:24:20.943422$GNGST,172420.10,32.000,,,,0.100,0.100,0.230*54
###2023-12-09 12:24:20.944727$GNZDA,172420.10,09,12,2023,00,00*72
###2023-12-09 12:24:20.945380$GNEBP,,,,,,M*13
###2023-12-09 12:24:21.116250$GNGGA,172420.30,4138.0392385,N,07032.4362819,W,1,19,0.8,12.975,M,-29.746,M,0.0,*59
###2023-12-09 12:24:21.316514$GNGGA,172420.50,4138.0392384,N,07032.4362872,W,1,19,0.8,12.956,M,-29.746,M,0.0,*52
###2023-12-09 12:24:21.529417$GNGGA,172420.70,4138.0392390,N,07032.4362932,W,1,19,0.8,12.942,M,-29.746,M,0.0,*55
###2023-12-09 12:24:21.715839$GNGGA,172420.90,4138.0392402,N,07032.4363001,W,1,19,0.8,12.926,M,-29.746,M,0.0,*5D
###2023-12-09 12:24:21.916180$GNRMC,172421.10,A,4138.0392416,N,07032.4363056,W,0.04,,091223,,,A*43
###2023-12-09 12:24:21.919250$GNGGA,172421.10,4138.0392416,N,07032.4363056,W,1,19,0.8,12.908,M,-29.746,M,0.0,*5F
###2023-12-09 12:24:21.921304$GPGSA,A,3,03,16,25,26,28,29,31,32,,,,,1.3,0.8,1.0*3C
###2023-12-09 12:24:21.923089$GLGSA,A,3,71,72,73,75,,,,,,,,,1.3,0.8,1.0*20
###2023-12-09 12:24:21.924800$GAGSA,A,3,04,21,27,,,,,,,,,,1.3,0.8,1.0*2A
###2023-12-09 12:24:21.926543$GBGSA,A,3,14,25,26,33,,,,,,,,,1.3,0.8,1.0*2D
###2023-12-09 12:24:21.929065$GPGSV,2,1,08,03,39,283,41,16,32,206,43,25,16,045,42,26,61,205,44*71
###2023-12-09 12:24:21.931583$GPGSV,2,2,08,28,62,049,42,29,24,079,44,31,73,343,35,32,35,131,47*74
###2023-12-09 12:24:21.934093$GLGSV,1,1,04,71,63,167,46,72,61,317,35,73,53,030,48,75,18,237,43*66
###2023-12-09 12:24:21.936316$GAGSV,1,1,03,04,17,310,36,21,73,180,45,27,45,051,46,,,,*53
###2023-12-09 12:24:21.938822$GBGSV,1,1,04,14,60,201,45,25,29,249,41,26,39,055,48,33,64,265,39*63
###2023-12-09 12:24:21.940123$GNVTG,,T,,M,0.04,N,0.07,K,A*3E
###2023-12-09 12:24:21.941940$GNGST,172421.10,32.000,,,,0.100,0.100,0.230*55
###2023-12-09 12:24:21.943408$GNZDA,172421.10,09,12,2023,00,00*73
###2023-12-09 12:24:21.944205$GNEBP,,,,,,M*13
###2023-12-09 12:24:22.115255$GNGGA,172421.30,4138.0392429,N,07032.4363113,W,1,19,0.8,12.887,M,-29.746,M,0.0,*57
###2023-12-09 12:24:22.315323$GNGGA,172421.50,4138.0392439,N,07032.4363186,W,1,19,0.8,12.876,M,-29.746,M,0.0,*52
###2023-12-09 12:24:22.515235$GNGGA,172421.70,4138.0392444,N,07032.4363246,W,1,19,0.8,12.856,M,-29.746,M,0.0,*57
###2023-12-09 12:24:22.715361$GNGGA,172421.90,4138.0392453,N,07032.4363313,W,1,18,0.8,12.838,M,-29.746,M,0.0,*57
###2023-12-09 12:24:22.917792$GNRMC,172422.10,A,4138.0392448,N,07032.4363364,W,0.06,,091223,,,A*4B
###2023-12-09 12:24:22.920901$GNGGA,172422.10,4138.0392448,N,07032.4363364,W,1,18,0.8,12.823,M,-29.746,M,0.0,*5C
###2023-12-09 12:24:22.922809$GPGSA,A,3,03,16,25,26,28,29,31,32,,,,,1.3,0.8,1.1*3D
###2023-12-09 12:24:22.924355$GLGSA,A,3,71,73,75,,,,,,,,,,1.3,0.8,1.1*24
###2023-12-09 12:24:22.925888$GAGSA,A,3,04,21,27,,,,,,,,,,1.3,0.8,1.1*2B
###2023-12-09 12:24:22.927753$GBGSA,A,3,14,25,26,33,,,,,,,,,1.3,0.8,1.1*2C
###2023-12-09 12:24:22.930103$GPGSV,2,1,08,03,39,283,42,16,32,206,43,25,16,045,42,26,61,205,44*72
###2023-12-09 12:24:22.932476$GPGSV,2,2,08,28,61,050,42,29,24,079,45,31,73,343,36,32,35,131,47*7D
###2023-12-09 12:24:22.934539$GLGSV,1,1,03,71,63,167,46,73,53,030,47,75,18,237,43,,,,*5F
###2023-12-09 12:24:22.936603$GAGSV,1,1,03,04,17,310,36,21,73,180,46,27,45,051,46,,,,*50
###2023-12-09 12:24:22.938963$GBGSV,1,1,04,14,60,201,44,25,29,249,40,26,39,055,47,33,64,265,39*6C
###2023-12-09 12:24:22.940114$GNVTG,,T,,M,0.06,N,0.11,K,A*3B
###2023-12-09 12:24:22.941774$GNGST,172422.10,33.000,,,,0.100,0.100,0.230*57
###2023-12-09 12:24:22.943097$GNZDA,172422.10,09,12,2023,00,00*70
