###2023-12-09 12:55:50.977935$GAGSV,1,1,04,04,27,312,40,19,85,242,39,21,84,147,45,27,35,048,40*65
###2023-12-09 12:55:50.980327$GBGSV,2,1,05,14,46,194,43,24,75,018,49,25,39,260,45,26,28,061,42*66
###2023-12-09 12:55:50.981801$GBGSV,2,2,05,33,59,237,46,,,,,,,,,,,,*56
###2023-12-09 12:55:50.983143$GNVTG,177.10,T,,M,2.41,N,4.46,K,A*22
###2023-12-09 12:55:50.984792$GNGST,175550.10,18.000,,,,0.080,0.067,0.160*52
###2023-12-09 12:55:50.986080$GNZDA,175550.10,09,12,2023,00,00*73
###2023-12-09 12:55:50.986733$GNEBP,,,,,,M*13
###2023-12-09 12:55:51.155553$GNGGA,175550.30,4138.0415329,N,07032.3861724,W,1,24,0.6,13.106,M,-29.745,M,0.0,*56
###2023-12-09 12:55:51.355444$GNGGA,175550.50,4138.0414192,N,07032.3862118,W,1,24,0.6,13.131,M,-29.745,M,0.0,*5D
###2023-12-09 12:55:51.555512$GNGGA,175550.70,4138.0412982,N,07032.3862401,W,1,24,0.6,13.118,M,-29.745,M,0.0,*56
###2023-12-09 12:55:51.755985$GNGGA,175550.90,4138.0411884,N,07032.3862767,W,1,24,0.6,13.097,M,-29.745,M,0.0,*59
###2023-12-09 12:55:51.957470$GNRMC,175551.10,A,4138.0410912,N,07032.3863419,W,1.92,209.74,091223,,,A*5D
###2023-12-09 12:55:51.960344$GNGGA,175551.10,4138.0410912,N,07032.3863419,W,1,24,0.6,13.136,M,-29.745,M,0.0,*5E
###2023-12-09 12:55:51.962198$GPGSA,A,3,03,04,16,26,28,29,31,32,,,,,1.1,0.6,0.9*3B
###2023-12-09 12:55:51.963927$GLGSA,A,3,65,71,72,73,74,75,,,,,,,1.1,0.6,0.9*24
###2023-12-09 12:55:51.965502$GAGSA,A,3,04,19,21,27,,,,,,,,,1.1,0.6,0.9*26
###2023-12-09 12:55:51.967154$GBGSA,A,3,14,24,25,26,33,,,,,,,,1.1,0.6,0.9*2F
###2023-12-09 12:55:51.969474$GPGSV,2,1,08,03,36,265,42,04,30,311,43,16,47,211,43,26,77,209,47*7D
###2023-12-09 12:55:51.971820$GPGSV,2,2,08,28,51,068,44,29,25,064,44,31,70,031,47,32,21,139,44*72
###2023-12-09 12:55:51.974151$GLGSV,2,1,06,65,21,328,42,71,44,172,45,72,72,281,45,73,38,040,47*6E
###2023-12-09 12:55:51.975903$GLGSV,2,2,06,74,71,327,42,75,30,250,42,,,,,,,,*66
###2023-12-09 12:55:51.978231$GAGSV,1,1,04,04,27,312,41,19,85,242,39,21,84,147,45,27,35,048,44*60
###2023-12-09 12:55:51.980570$GBGSV,2,1,05,14,46,194,45,24,75,018,49,25,39,260,44,26,28,061,44*67
###2023-12-09 12:55:51.982026$GBGSV,2,2,05,33,59,237,46,,,,,,,,,,,,*56
###2023-12-09 12:55:51.983358$GNVTG,209.74,T,,M,1.92,N,3.56,K,A*21
###2023-12-09 12:55:51.985007$GNGST,175551.10,18.000,,,,0.079,0.067,0.160*55
###2023-12-09 12:55:51.986297$GNZDA,175551.10,09,12,2023,00,00*72
###2023-12-09 12:55:51.986946$GNEBP,,,,,,M*13
###2023-12-09 12:55:52.155251$GNGGA,175551.30,4138.0409945,N,07032.3864004,W,1,24,0.6,13.148,M,-29.745,M,0.0,*50
###2023-12-09 12:55:52.355281$GNGGA,175551.50,4138.0409033,N,07032.3864546,W,1,24,0.6,13.103,M,-29.745,M,0.0,*52
###2023-12-09 12:55:52.554667$GNGGA,175551.70,4138.0408177,N,07032.3865218,W,1,24,0.6,13.093,M,-29.745,M,0.0,*55
###2023-12-09 12:55:52.754475$GNGGA,175551.90,4138.0407391,N,07032.3865949,W,1,24,0.6,13.133,M,-29.745,M,0.0,*5A
###2023-12-09 12:55:52.955248$GNRMC,175552.10,A,4138.0406749,N,07032.3866796,W,1.59,225.34,091223,,,A*55
###2023-12-09 12:55:52.958095$GNGGA,175552.10,4138.0406749,N,07032.3866796,W,1,24,0.6,13.155,M,-29.745,M,0.0,*5E
###2023-12-09 12:55:52.959953$GPGSA,A,3,03,04,16,26,28,29,31,32,,,,,1.1,0.6,0.9*3B
###2023-12-09 12:55:52.961657$GLGSA,A,3,65,71,72,73,74,75,,,,,,,1.1,0.6,0.9*24
###2023-12-09 12:55:52.963243$GAGSA,A,3,04,19,21,27,,,,,,,,,1.1,0.6,0.9*26
###2023-12-09 12:55:52.964875$GBGSA,A,3,14,24,25,26,33,,,,,,,,1.1,0.6,0.9*2F
###2023-12-09 12:55:52.967203$GPGSV,2,1,08,03,36,265,42,04,30,311,42,16,47,211,44,26,77,209,47*7B
###2023-12-09 12:55:52.969527$GPGSV,2,2,08,28,51,068,44,29,25,064,42,31,70,031,47,32,21,139,44*74
###2023-12-09 12:55:52.971862$GLGSV,2,1,06,65,21,328,41,71,44,172,47,72,72,281,45,73,38,040,47*6F
###2023-12-09 12:55:52.973604$GLGSV,2,2,06,74,71,327,42,75,30,250,43,,,,,,,,*67
###2023-12-09 12:55:52.975938$GAGSV,1,1,04,04,27,312,41,19,85,242,40,21,84,147,46,27,35,048,44*6D
###2023-12-09 12:55:52.978259$GBGSV,2,1,05,14,46,194,45,24,75,018,49,25,39,260,45,26,28,061,44*66
###2023-12-09 12:55:52.979718$GBGSV,2,2,05,33,59,237,47,,,,,,,,,,,,*57
###2023-12-09 12:55:52.981070$GNVTG,225.34,T,,M,1.59,N,2.95,K,A*22
###2023-12-09 12:55:52.982729$GNGST,175552.10,18.000,,,,0.079,0.067,0.160*56
###2023-12-09 12:55:52.984021$GNZDA,175552.10,09,12,2023,00,00*71
###2023-12-09 12:55:52.984657$GNEBP,,,,,,M*13
###2023-12-09 12:55:53.153584$GNGGA,175552.30,4138.0406089,N,07032.3867606,W,1,24,0.6,13.138,M,-29.745,M,0.0,*55
###2023-12-09 12:55:53.354587$GNGGA,175552.50,4138.0405420,N,07032.3868387,W,1,24,0.6,13.118,M,-29.745,M,0.0,*56
###2023-12-09 12:55:53.555354$GNGGA,175552.70,4138.0404694,N,07032.3869095,W,1,24,0.6,13.125,M,-29.745,M,0.0,*57
###2023-12-09 12:55:53.755318$GNGGA,175552.90,4138.0404185,N,07032.3869861,W,1,24,0.6,13.136,M,-29.745,M,0.0,*5F
###2023-12-09 12:55:53.955028$GNRMC,175553.10,A,4138.0403814,N,07032.3870749,W,1.36,243.12,091223,,,A*5E
###2023-12-09 12:55:53.957895$GNGGA,175553.10,4138.0403814,N,07032.3870749,W,1,24,0.6,13.143,M,-29.745,M,0.0,*5F
###2023-12-09 12:55:53.959768$GPGSA,A,3,03,04,16,26,28,29,31,32,,,,,1.1,0.6,0.9*3B
###2023-12-09 12:55:53.961488$GLGSA,A,3,65,71,72,73,74,75,,,,,,,1.1,0.6,0.9*24
###2023-12-09 12:55:53.963089$GAGSA,A,3,04,19,21,27,,,,,,,,,1.1,0.6,0.9*26
###2023-12-09 12:55:53.964737$GBGSA,A,3,14,24,25,26,33,,,,,,,,1.1,0.6,0.9*2F
###2023-12-09 12:55:53.967087$GPGSV,2,1,08,03,36,265,42,04,30,311,40,16,47,211,45,26,77,209,47*78
###2023-12-09 12:55:53.969422$GPGSV,2,2,08,28,51,068,44,29,25,064,41,31,70,031,47,32,21,139,43*70
###2023-12-09 12:55:53.971800$GLGSV,2,1,06,65,21,328,43,71,44,172,47,72,72,281,45,73,38,040,47*6D
###2023-12-09 12:55:53.973587$GLGSV,2,2,06,74,71,327,42,75,30,250,44,,,,,,,,*60
###2023-12-09 12:55:53.975950$GAGSV,1,1,04,04,27,312,39,19,85,242,40,21,84,147,46,27,35,048,44*62
###2023-12-09 12:55:53.978290$GBGSV,2,1,05,14,46,194,46,24,75,018,49,25,39,260,44,26,28,061,42*62
###2023-12-09 12:55:53.979762$GBGSV,2,2,05,33,59,237,47,,,,,,,,,,,,*57
###2023-12-09 12:55:53.981097$GNVTG,243.12,T,,M,1.36,N,2.52,K,A*24
###2023-12-09 12:55:53.982764$GNGST,175553.10,18.000,,,,0.078,0.067,0.160*56
###2023-12-09 12:55:53.984063$GNZDA,175553.10,09,12,2023,00,00*70
###2023-12-09 12:55:53.984703$GNEBP,,,,,,M*13
###2023-12-09 12:55:54.154605$GNGGA,175553.30,4138.0403422,N,07032.3871614,W,1,24,0.6,13.146,M,-29.745,M,0.0,*59
###2023-12-09 12:55:54.354684$GNGGA,175553.50,4138.0402947,N,07032.3872402,W,1,24,0.6,13.142,M,-29.745,M,0.0,*52
###2023-12-09 12:55:54.554541$GNGGA,175553.70,4138.0402469,N,07032.3873153,W,1,24,0.6,13.134,M,-29.745,M,0.0,*50
###2023-12-09 12:55:54.754517$GNGGA,175553.90,4138.0402103,N,07032.3873960,W,1,24,0.6,13.126,M,-29.745,M,0.0,*5C
###2023-12-09 12:55:54.955083$GNRMC,175554.10,A,4138.0401874,N,07032.3874788,W,1.22,247.92,091223,,,A*5D
###2023-12-09 12:55:54.957939$GNGGA,175554.10,4138.0401874,N,07032.3874788,W,1,24,0.6,13.141,M,-29.745,M,0.0,*57
###2023-12-09 12:55:54.959821$GPGSA,A,3,03,04,16,26,28,29,31,32,,,,,1.1,0.6,0.9*3B
###2023-12-09 12:55:54.961542$GLGSA,A,3,65,71,72,73,74,75,,,,,,,1.1,0.6,0.9*24
###2023-12-09 12:55:54.963149$GAGSA,A,3,04,19,21,27,,,,,,,,,1.1,0.6,0.9*26
###2023-12-09 12:55:54.964807$GBGSA,A,3,14,24,25,26,33,,,,,,,,1.1,0.6,0.9*2F
###2023-12-09 12:55:54.967150$GPGSV,2,1,08,03,36,265,44,04,30,311,41,16,47,211,47,26,77,209,48*72
###2023-12-09 12:55:54.969483$GPGSV,2,2,08,28,51,068,45,29,25,064,42,31,70,031,47,32,21,139,44*75
###2023-12-09 12:55:54.971833$GLGSV,2,1,06,65,21,328,41,71,44,172,48,72,72,281,45,73,38,040,46*61
###2023-12-09 12:55:54.973583$GLGSV,2,2,06,74,71,327,42,75,30,250,42,,,,,,,,*66
###2023-12-09 12:55:54.975915$GAGSV,1,1,04,04,27,312,41,19,85,242,40,21,84,147,46,27,35,048,44*6D
###2023-12-09 12:55:54.978242$GBGSV,2,1,05,14,46,194,44,24,75,018,48,25,39,260,44,26,28,061,42*61
###2023-12-09 12:55:54.979712$GBGSV,2,2,05,33,59,237,45,,,,,,,,,,,,*55
###2023-12-09 12:55:54.981032$GNVTG,247.92,T,,M,1.22,N,2.27,K,A*2F
###2023-12-09 12:55:54.982687$GNGST,175554.10,18.000,,,,0.078,0.067,0.160*51
###2023-12-09 12:55:54.983978$GNZDA,175554.10,09,12,2023,00,00*77
###2023-12-09 12:55:54.984617$GNEBP,,,,,,M*13
###2023-12-09 12:55:55.154779$GNGGA,175554.30,4138.0401634,N,07032.3875590,W,1,24,0.6,13.152,M,-29.745,M,0.0,*57
###2023-12-09 12:55:55.355366$GNGGA,175554.50,4138.0401397,N,07032.3876370,W,1,24,0.6,13.151,M,-29.745,M,0.0,*55
###2023-12-09 12:55:55.555348$GNGGA,175554.70,4138.0401198,N,07032.3877153,W,1,24,0.6,13.147,M,-29.745,M,0.0,*5F
###2023-12-09 12:55:55.754804$GNGGA,175554.90,4138.0400943,N,07032.3877913,W,1,24,0.6,13.140,M,-29.745,M,0.0,*55
###2023-12-09 12:55:55.955343$GNRMC,175555.10,A,4138.0400748,N,07032.3878681,W,1.07,258.49,091223,,,A*56
###2023-12-09 12:55:55.958211$GNGGA,175555.10,4138.0400748,N,07032.3878681,W,1,24,0.6,13.138,M,-29.745,M,0.0,*5D
###2023-12-09 12:55:55.960086$GPGSA,A,3,03,04,16,26,28,29,31,32,,,,,1.1,0.6,0.9*3B
###2023-12-09 12:55:55.961797$GLGSA,A,3,65,71,72,73,74,75,,,,,,,1.1,0.6,0.9*24
###2023-12-09 12:55:55.963396$GAGSA,A,3,04,19,21,27,,,,,,,,,1.1,0.6,0.9*26
