###2023-12-09 13:29:21.002510$GNRMC,182920.10,A,4138.0472421,N,07032.4166526,W,0.56,307.01,091223,,,A*54
###2023-12-09 13:29:21.005399$GNGGA,182920.10,4138.0472421,N,07032.4166526,W,1,24,0.6,12.847,M,-29.745,M,0.0,*5D
###2023-12-09 13:29:21.007213$GPGSA,A,3,03,04,16,26,28,29,31,,,,,,1.1,0.6,0.9*3A
###2023-12-09 13:29:21.008931$GLGSA,A,3,65,71,72,73,74,75,,,,,,,1.1,0.6,0.9*24
###2023-12-09 13:29:21.010508$GAGSA,A,3,04,19,21,27,,,,,,,,,1.1,0.6,0.9*26
###2023-12-09 13:29:21.012223$GBGSA,A,3,14,24,25,26,33,35,,,,,,,1.1,0.6,0.9*29
###2023-12-09 13:29:21.014534$GPGSV,2,1,07,03,28,248,44,04,44,309,46,16,64,220,46,26,87,041,48*73
###2023-12-09 13:29:21.016574$GPGSV,2,2,07,28,40,082,43,29,22,049,37,31,61,061,46,,,,*4F
###2023-12-09 13:29:21.018903$GLGSV,2,1,06,65,36,321,44,71,25,175,42,72,65,225,46,73,24,050,41*61
###2023-12-09 13:29:21.020645$GLGSV,2,2,06,74,61,010,43,75,42,268,48,,,,,,,,*65
###2023-12-09 13:29:21.022972$GAGSV,1,1,04,04,38,311,44,19,74,183,41,21,79,049,46,27,24,049,36*6D
###2023-12-09 13:29:21.025291$GBGSV,2,1,06,14,31,190,41,24,64,043,47,25,49,274,46,26,17,069,41*65
###2023-12-09 13:29:21.027039$GBGSV,2,2,06,33,48,219,46,35,16,058,42,,,,,,,,*63
###2023-12-09 13:29:21.028358$GNVTG,307.01,T,,M,0.56,N,1.04,K,A*20
###2023-12-09 13:29:21.029997$GNGST,182920.10,18.000,,,,0.100,0.070,0.170*5F
###2023-12-09 13:29:21.031291$GNZDA,182920.10,09,12,2023,00,00*70
###2023-12-09 13:29:21.031927$GNEBP,,,,,,M*13
###2023-12-09 13:29:21.201428$GNGGA,182920.30,4138.0472218,N,07032.4166262,W,1,24,0.6,12.825,M,-29.745,M,0.0,*50
###2023-12-09 13:29:21.392223$GNGGA,182920.50,4138.0472350,N,07032.4166484,W,1,24,0.6,12.823,M,-29.745,M,0.0,*53
###2023-12-09 13:29:21.591363$GNGGA,182920.70,4138.0472722,N,07032.4167171,W,1,24,0.6,12.828,M,-29.745,M,0.0,*55
###2023-12-09 13:29:21.792610$GNGGA,182920.90,4138.0472834,N,07032.4167419,W,1,24,0.6,12.819,M,-29.745,M,0.0,*5A
###2023-12-09 13:29:21.993502$GNRMC,182921.10,A,4138.0472605,N,07032.4167025,W,0.74,307.29,091223,,,A*5C
###2023-12-09 13:29:21.996372$GNGGA,182921.10,4138.0472605,N,07032.4167025,W,1,24,0.6,12.816,M,-29.745,M,0.0,*5B
###2023-12-09 13:29:21.998162$GPGSA,A,3,03,04,16,26,28,29,31,,,,,,1.1,0.6,0.9*3A
###2023-12-09 13:29:21.999878$GLGSA,A,3,65,71,72,73,74,75,,,,,,,1.1,0.6,0.9*24
###2023-12-09 13:29:22.001461$GAGSA,A,3,04,19,21,27,,,,,,,,,1.1,0.6,0.9*26
###2023-12-09 13:29:22.003180$GBGSA,A,3,14,24,25,26,33,35,,,,,,,1.1,0.6,0.9*29
###2023-12-09 13:29:22.005504$GPGSV,2,1,07,03,28,248,43,04,44,309,44,16,64,220,46,26,87,041,48*76
###2023-12-09 13:29:22.007543$GPGSV,2,2,07,28,40,082,43,29,22,049,38,31,61,061,45,,,,*43
###2023-12-09 13:29:22.009861$GLGSV,2,1,06,65,36,321,43,71,25,175,42,72,65,225,47,73,24,050,42*64
###2023-12-09 13:29:22.011606$GLGSV,2,2,06,74,61,010,42,75,42,268,47,,,,,,,,*6B
###2023-12-09 13:29:22.013920$GAGSV,1,1,04,04,38,311,44,19,74,183,41,21,79,049,45,27,24,049,38*60
###2023-12-09 13:29:22.016247$GBGSV,2,1,06,14,31,190,42,24,64,043,48,25,49,274,46,26,17,069,42*6A
###2023-12-09 13:29:22.017988$GBGSV,2,2,06,33,48,219,46,35,16,058,42,,,,,,,,*63
###2023-12-09 13:29:22.019313$GNVTG,307.29,T,,M,0.74,N,1.37,K,A*2A
###2023-12-09 13:29:22.020960$GNGST,182921.10,18.000,,,,0.100,0.070,0.170*5E
###2023-12-09 13:29:22.022250$GNZDA,182921.10,09,12,2023,00,00*71
###2023-12-09 13:29:22.022896$GNEBP,,,,,,M*13
###2023-12-09 13:29:22.191292$GNGGA,182921.30,4138.0472557,N,07032.4166956,W,1,24,0.6,12.800,M,-29.745,M,0.0,*56
###2023-12-09 13:29:22.392960$GNGGA,182921.50,4138.0472890,N,07032.4167588,W,1,24,0.6,12.814,M,-29.745,M,0.0,*5D
###2023-12-09 13:29:22.590530$GNGGA,182921.70,4138.0473148,N,07032.4168173,W,1,24,0.6,12.784,M,-29.745,M,0.0,*5B
###2023-12-09 13:29:22.791520$GNGGA,182921.90,4138.0473085,N,07032.4168003,W,1,24,0.6,12.803,M,-29.745,M,0.0,*53
###2023-12-09 13:29:22.997267$GNRMC,182922.10,A,4138.0472968,N,07032.4167759,W,0.04,300.23,091223,,,A*5D
###2023-12-09 13:29:23.000145$GNGGA,182922.10,4138.0472968,N,07032.4167759,W,1,24,0.6,12.805,M,-29.745,M,0.0,*52
###2023-12-09 13:29:23.001933$GPGSA,A,3,03,04,16,26,28,29,31,,,,,,1.1,0.6,0.9*3A
###2023-12-09 13:29:23.003660$GLGSA,A,3,65,71,72,73,74,75,,,,,,,1.1,0.6,0.9*24
###2023-12-09 13:29:23.005244$GAGSA,A,3,04,19,21,27,,,,,,,,,1.1,0.6,0.9*26
###2023-12-09 13:29:23.006967$GBGSA,A,3,14,24,25,26,33,35,,,,,,,1.1,0.6,0.9*29
###2023-12-09 13:29:23.009295$GPGSV,2,1,07,03,28,248,42,04,44,309,45,16,64,220,46,26,87,041,48*76
###2023-12-09 13:29:23.011354$GPGSV,2,2,07,28,40,082,45,29,22,049,39,31,61,061,46,,,,*47
###2023-12-09 13:29:23.013702$GLGSV,2,1,06,65,36,321,43,71,25,175,43,72,65,225,47,73,24,050,42*65
###2023-12-09 13:29:23.015466$GLGSV,2,2,06,74,61,010,41,75,42,268,46,,,,,,,,*69
###2023-12-09 13:29:23.017795$GAGSV,1,1,04,04,38,311,44,19,74,183,41,21,79,049,46,27,24,049,40*6C
###2023-12-09 13:29:23.020142$GBGSV,2,1,06,14,31,190,42,24,64,043,48,25,49,274,46,26,17,069,42*6A
###2023-12-09 13:29:23.021890$GBGSV,2,2,06,33,48,219,46,35,16,058,42,,,,,,,,*63
###2023-12-09 13:29:23.023225$GNVTG,300.23,T,,M,0.04,N,0.07,K,A*22
###2023-12-09 13:29:23.024872$GNGST,182922.10,18.000,,,,0.100,0.070,0.170*5D
###2023-12-09 13:29:23.026159$GNZDA,182922.10,09,12,2023,00,00*72
###2023-12-09 13:29:23.026809$GNEBP,,,,,,M*13
###2023-12-09 13:29:23.192569$GNGGA,182922.30,4138.0473060,N,07032.4167988,W,1,24,0.6,12.792,M,-29.745,M,0.0,*53
###2023-12-09 13:29:23.391441$GNGGA,182922.50,4138.0473286,N,07032.4168526,W,1,24,0.6,12.785,M,-29.745,M,0.0,*5E
###2023-12-09 13:29:23.591755$GNGGA,182922.70,4138.0473448,N,07032.4168912,W,1,24,0.6,12.790,M,-29.745,M,0.0,*57
###2023-12-09 13:29:23.791384$GNGGA,182922.90,4138.0473422,N,07032.4168840,W,1,24,0.6,12.811,M,-29.745,M,0.0,*55
###2023-12-09 13:29:23.995089$GNRMC,182923.10,A,4138.0473358,N,07032.4168641,W,0.16,300.23,091223,,,A*50
###2023-12-09 13:29:23.997946$GNGGA,182923.10,4138.0473358,N,07032.4168641,W,1,24,0.6,12.796,M,-29.745,M,0.0,*59
###2023-12-09 13:29:23.999751$GPGSA,A,3,03,04,16,26,28,29,31,,,,,,1.1,0.6,0.9*3A
###2023-12-09 13:29:24.001464$GLGSA,A,3,65,71,72,73,74,75,,,,,,,1.1,0.6,0.9*24
###2023-12-09 13:29:24.003050$GAGSA,A,3,04,19,21,27,,,,,,,,,1.1,0.6,0.9*26
###2023-12-09 13:29:24.004760$GBGSA,A,3,14,24,25,26,33,35,,,,,,,1.1,0.6,0.9*29
###2023-12-09 13:29:24.007094$GPGSV,2,1,07,03,28,248,42,04,44,309,44,16,64,220,45,26,87,041,47*7B
###2023-12-09 13:29:24.009135$GPGSV,2,2,07,28,40,082,44,29,22,049,39,31,61,061,46,,,,*46
###2023-12-09 13:29:24.011476$GLGSV,2,1,06,65,36,321,43,71,25,175,43,72,65,225,46,73,24,050,40*66
###2023-12-09 13:29:24.013221$GLGSV,2,2,06,74,61,010,42,75,42,268,46,,,,,,,,*6A
###2023-12-09 13:29:24.015552$GAGSV,1,1,04,04,38,311,44,19,74,183,41,21,79,049,46,27,24,049,38*63
###2023-12-09 13:29:24.017878$GBGSV,2,1,06,14,31,190,44,24,64,043,47,25,49,274,45,26,17,069,42*60
###2023-12-09 13:29:24.019632$GBGSV,2,2,06,33,48,219,46,35,16,058,42,,,,,,,,*63
###2023-12-09 13:29:24.020953$GNVTG,300.23,T,,M,0.16,N,0.29,K,A*2D
###2023-12-09 13:29:24.022605$GNGST,182923.10,18.000,,,,0.100,0.070,0.170*5C
###2023-12-09 13:29:24.023892$GNZDA,182923.10,09,12,2023,00,00*73
###2023-12-09 13:29:24.024530$GNEBP,,,,,,M*13
###2023-12-09 13:29:24.192150$GNGGA,182923.30,4138.0473421,N,07032.4168766,W,1,24,0.6,12.776,M,-29.745,M,0.0,*58
###2023-12-09 13:29:24.391322$GNGGA,182923.50,4138.0473642,N,07032.4169363,W,1,24,0.6,12.784,M,-29.745,M,0.0,*54
###2023-12-09 13:29:24.590589$GNGGA,182923.70,4138.0473843,N,07032.4169849,W,1,24,0.6,12.792,M,-29.745,M,0.0,*5D
###2023-12-09 13:29:24.793479$GNGGA,182923.90,4138.0473833,N,07032.4169784,W,1,24,0.6,12.818,M,-29.745,M,0.0,*57
###2023-12-09 13:29:24.995965$GNRMC,182924.10,A,4138.0473788,N,07032.4169546,W,0.16,299.98,091223,,,A*5A
###2023-12-09 13:29:24.998823$GNGGA,182924.10,4138.0473788,N,07032.4169546,W,1,24,0.6,12.797,M,-29.745,M,0.0,*53
###2023-12-09 13:29:25.000606$GPGSA,A,3,03,04,16,26,28,29,31,,,,,,1.1,0.6,0.9*3A
###2023-12-09 13:29:25.002312$GLGSA,A,3,65,71,72,73,74,75,,,,,,,1.1,0.6,0.9*24
###2023-12-09 13:29:25.003899$GAGSA,A,3,04,19,21,27,,,,,,,,,1.1,0.6,0.9*26
###2023-12-09 13:29:25.005601$GBGSA,A,3,14,24,25,26,33,35,,,,,,,1.1,0.6,0.9*29
###2023-12-09 13:29:25.007937$GPGSV,2,1,07,03,28,248,41,04,44,309,45,16,64,220,46,26,87,041,47*7A
###2023-12-09 13:29:25.010220$GPGSV,2,2,07,28,40,082,45,29,22,049,41,31,61,061,46,,,,*48
###2023-12-09 13:29:25.012585$GLGSV,2,1,06,65,36,321,42,71,25,175,44,72,65,225,46,73,24,050,42*62
###2023-12-09 13:29:25.014345$GLGSV,2,2,06,74,61,010,41,75,42,268,46,,,,,,,,*69
###2023-12-09 13:29:25.016679$GAGSV,1,1,04,04,38,311,43,19,74,183,41,21,79,049,45,27,24,049,39*66
###2023-12-09 13:29:25.019014$GBGSV,2,1,06,14,31,190,43,24,64,043,48,25,49,274,46,26,17,069,42*6B
###2023-12-09 13:29:25.020754$GBGSV,2,2,06,33,48,219,47,35,16,058,42,,,,,,,,*62
###2023-12-09 13:29:25.022068$GNVTG,299.98,T,,M,0.16,N,0.29,K,A*2C
###2023-12-09 13:29:25.023712$GNGST,182924.10,18.000,,,,0.100,0.070,0.170*5B
###2023-12-09 13:29:25.024998$GNZDA,182924.10,09,12,2023,00,00*74
