###2023-12-09 13:02:35.977653$GBGSA,A,3,14,24,25,26,33,,,,,,,,1.1,0.6,0.9*2F
###2023-12-09 13:02:35.980033$GPGSV,2,1,08,03,35,261,42,04,33,311,42,16,50,212,46,26,80,210,48*77
###2023-12-09 13:02:35.982366$GPGSV,2,2,08,28,49,070,45,29,25,061,41,31,69,038,47,32,19,140,44*77
###2023-12-09 13:02:35.984711$GLGSV,2,1,06,65,24,327,39,71,41,173,47,72,73,269,45,73,36,041,43*62
###2023-12-09 13:02:35.986455$GLGSV,2,2,06,74,70,337,42,75,32,253,42,,,,,,,,*67
###2023-12-09 13:02:35.988796$GAGSV,1,1,04,04,29,312,40,19,84,213,40,21,86,114,46,27,32,048,41*61
###2023-12-09 13:02:35.991144$GBGSV,2,1,05,14,43,193,44,24,73,026,48,25,41,263,44,26,26,063,41*6B
###2023-12-09 13:02:35.992593$GBGSV,2,2,05,33,57,233,46,,,,,,,,,,,,*5C
###2023-12-09 13:02:35.993915$GNVTG,275.79,T,,M,3.48,N,6.44,K,A*24
###2023-12-09 13:02:35.995572$GNGST,180235.10,18.000,,,,0.081,0.070,0.160*5B
###2023-12-09 13:02:35.996865$GNZDA,180235.10,09,12,2023,00,00*7D
###2023-12-09 13:02:35.997504$GNEBP,,,,,,M*13
###2023-12-09 13:02:36.164273$GNGGA,180235.30,4138.0468782,N,07032.3337699,W,1,24,0.6,13.289,M,-29.744,M,0.0,*5D
###2023-12-09 13:02:36.364850$GNGGA,180235.50,4138.0468771,N,07032.3340253,W,1,24,0.6,13.293,M,-29.744,M,0.0,*5E
###2023-12-09 13:02:36.565342$GNGGA,180235.70,4138.0468684,N,07032.3342806,W,1,24,0.6,13.292,M,-29.744,M,0.0,*5E
###2023-12-09 13:02:36.771806$GNGGA,180235.90,4138.0468515,N,07032.3345332,W,1,24,0.6,13.287,M,-29.744,M,0.0,*54
###2023-12-09 13:02:36.967217$GNRMC,180236.10,A,4138.0468301,N,07032.3347826,W,3.36,263.11,091223,,,A*58
###2023-12-09 13:02:36.970095$GNGGA,180236.10,4138.0468301,N,07032.3347826,W,1,24,0.6,13.287,M,-29.744,M,0.0,*50
###2023-12-09 13:02:36.972001$GPGSA,A,3,03,04,16,26,28,29,31,32,,,,,1.1,0.6,0.9*3B
###2023-12-09 13:02:36.973727$GLGSA,A,3,65,71,72,73,74,75,,,,,,,1.1,0.6,0.9*24
###2023-12-09 13:02:36.975320$GAGSA,A,3,04,19,21,27,,,,,,,,,1.1,0.6,0.9*26
###2023-12-09 13:02:36.976964$GBGSA,A,3,14,24,25,26,33,,,,,,,,1.1,0.6,0.9*2F
###2023-12-09 13:02:36.979290$GPGSV,2,1,08,03,35,261,43,04,33,311,42,16,50,212,45,26,80,210,48*75
###2023-12-09 13:02:36.981617$GPGSV,2,2,08,28,49,070,45,29,25,061,42,31,69,038,48,32,19,140,44*7B
###2023-12-09 13:02:36.983955$GLGSV,2,1,06,65,24,327,41,71,41,173,47,72,73,269,45,73,36,041,44*6A
###2023-12-09 13:02:36.985705$GLGSV,2,2,06,74,70,337,42,75,32,253,44,,,,,,,,*61
###2023-12-09 13:02:36.988040$GAGSV,1,1,04,04,29,312,40,19,84,213,40,21,86,114,46,27,32,048,42*62
###2023-12-09 13:02:36.990364$GBGSV,2,1,05,14,43,193,44,24,73,026,48,25,41,263,45,26,26,063,41*6A
###2023-12-09 13:02:36.991832$GBGSV,2,2,05,33,57,231,46,,,,,,,,,,,,*5E
###2023-12-09 13:02:36.993156$GNVTG,263.11,T,,M,3.36,N,6.23,K,A*25
###2023-12-09 13:02:36.994810$GNGST,180236.10,18.000,,,,0.081,0.069,0.160*50
###2023-12-09 13:02:36.996102$GNZDA,180236.10,09,12,2023,00,00*7E
###2023-12-09 13:02:36.996739$GNEBP,,,,,,M*13
###2023-12-09 13:02:37.164441$GNGGA,180236.30,4138.0468036,N,07032.3350299,W,1,24,0.6,13.289,M,-29.744,M,0.0,*53
###2023-12-09 13:02:37.365384$GNGGA,180236.50,4138.0467750,N,07032.3352721,W,1,24,0.6,13.295,M,-29.744,M,0.0,*54
###2023-12-09 13:02:37.565353$GNGGA,180236.70,4138.0467475,N,07032.3355149,W,1,24,0.6,13.292,M,-29.744,M,0.0,*5A
###2023-12-09 13:02:37.765558$GNGGA,180236.90,4138.0467258,N,07032.3357603,W,1,24,0.6,13.291,M,-29.744,M,0.0,*55
###2023-12-09 13:02:37.968296$GNRMC,180237.10,A,4138.0467165,N,07032.3360080,W,3.38,269.89,091223,,,A*52
###2023-12-09 13:02:37.971169$GNGGA,180237.10,4138.0467165,N,07032.3360080,W,1,24,0.6,13.291,M,-29.744,M,0.0,*58
###2023-12-09 13:02:37.973029$GPGSA,A,3,03,04,16,26,28,29,31,32,,,,,1.1,0.6,0.9*3B
###2023-12-09 13:02:37.974758$GLGSA,A,3,65,71,72,73,74,75,,,,,,,1.1,0.6,0.9*24
###2023-12-09 13:02:37.976344$GAGSA,A,3,04,19,21,27,,,,,,,,,1.1,0.6,0.9*26
###2023-12-09 13:02:37.977989$GBGSA,A,3,14,24,25,26,33,,,,,,,,1.1,0.6,0.9*2F
###2023-12-09 13:02:37.980332$GPGSV,2,1,08,03,35,261,43,04,33,311,42,16,50,212,46,26,80,210,48*76
###2023-12-09 13:02:37.982673$GPGSV,2,2,08,28,49,070,45,29,25,061,42,31,69,038,47,32,19,140,43*73
###2023-12-09 13:02:37.985000$GLGSV,2,1,06,65,24,327,39,71,41,173,47,72,73,269,45,73,36,041,43*62
###2023-12-09 13:02:37.986759$GLGSV,2,2,06,74,70,337,42,75,32,253,43,,,,,,,,*66
###2023-12-09 13:02:37.989092$GAGSV,1,1,04,04,29,312,40,19,84,213,40,21,86,114,46,27,32,048,42*62
###2023-12-09 13:02:37.991432$GBGSV,2,1,05,14,43,193,44,24,73,026,48,25,41,263,43,26,26,063,42*6F
###2023-12-09 13:02:37.992890$GBGSV,2,2,05,33,57,231,46,,,,,,,,,,,,*5E
###2023-12-09 13:02:37.994215$GNVTG,269.89,T,,M,3.38,N,6.26,K,A*25
###2023-12-09 13:02:37.995875$GNGST,180237.10,18.000,,,,0.081,0.069,0.160*51
###2023-12-09 13:02:37.997168$GNZDA,180237.10,09,12,2023,00,00*7F
###2023-12-09 13:02:37.997807$GNEBP,,,,,,M*13
###2023-12-09 13:02:38.164496$GNGGA,180237.30,4138.0467127,N,07032.3362599,W,1,24,0.6,13.291,M,-29.744,M,0.0,*53
###2023-12-09 13:02:38.365299$GNGGA,180237.50,4138.0467082,N,07032.3365130,W,1,24,0.6,13.292,M,-29.744,M,0.0,*58
###2023-12-09 13:02:38.565779$GNGGA,180237.70,4138.0467103,N,07032.3367679,W,1,24,0.6,13.293,M,-29.744,M,0.0,*5B
###2023-12-09 13:02:38.766166$GNGGA,180237.90,4138.0467138,N,07032.3370214,W,1,24,0.6,13.293,M,-29.744,M,0.0,*54
###2023-12-09 13:02:38.968644$GNRMC,180238.10,A,4138.0467174,N,07032.3372750,W,3.40,271.34,091223,,,A*54
###2023-12-09 13:02:38.971551$GNGGA,180238.10,4138.0467174,N,07032.3372750,W,1,24,0.6,13.288,M,-29.744,M,0.0,*56
###2023-12-09 13:02:38.973417$GPGSA,A,3,03,04,16,26,28,29,31,32,,,,,1.1,0.6,0.9*3B
###2023-12-09 13:02:38.975155$GLGSA,A,3,65,71,72,73,74,75,,,,,,,1.1,0.6,0.9*24
###2023-12-09 13:02:38.976747$GAGSA,A,3,04,19,21,27,,,,,,,,,1.1,0.6,0.9*26
###2023-12-09 13:02:38.978403$GBGSA,A,3,14,24,25,26,33,,,,,,,,1.1,0.6,0.9*2F
###2023-12-09 13:02:38.980761$GPGSV,2,1,08,03,35,261,42,04,33,311,41,16,50,212,47,26,80,210,48*75
###2023-12-09 13:02:38.983115$GPGSV,2,2,08,28,49,070,45,29,25,061,41,31,69,038,47,32,19,140,43*70
###2023-12-09 13:02:38.985450$GLGSV,2,1,06,65,25,327,39,71,41,173,47,72,73,269,45,73,36,041,44*64
###2023-12-09 13:02:38.987204$GLGSV,2,2,06,74,70,337,42,75,32,253,41,,,,,,,,*64
###2023-12-09 13:02:38.989530$GAGSV,1,1,04,04,29,312,40,19,84,213,40,21,86,114,46,27,32,048,41*61
###2023-12-09 13:02:38.991870$GBGSV,2,1,05,14,43,193,44,24,73,026,48,25,41,263,44,26,26,063,41*6B
###2023-12-09 13:02:38.993333$GBGSV,2,2,05,33,57,231,47,,,,,,,,,,,,*5F
###2023-12-09 13:02:38.994674$GNVTG,271.34,T,,M,3.40,N,6.30,K,A*22
###2023-12-09 13:02:38.996325$GNGST,180238.10,18.000,,,,0.081,0.069,0.160*5E
###2023-12-09 13:02:38.997621$GNZDA,180238.10,09,12,2023,00,00*70
###2023-12-09 13:02:38.998262$GNEBP,,,,,,M*13
###2023-12-09 13:02:39.167612$GNGGA,180238.30,4138.0467253,N,07032.3375282,W,1,24,0.6,13.297,M,-29.744,M,0.0,*51
###2023-12-09 13:02:39.364779$GNGGA,180238.50,4138.0467375,N,07032.3377835,W,1,24,0.6,13.303,M,-29.744,M,0.0,*5A
###2023-12-09 13:02:39.565485$GNGGA,180238.70,4138.0467470,N,07032.3380390,W,1,24,0.6,13.304,M,-29.744,M,0.0,*51
###2023-12-09 13:02:39.765433$GNGGA,180238.90,4138.0467563,N,07032.3382977,W,1,24,0.6,13.306,M,-29.744,M,0.0,*5F
###2023-12-09 13:02:39.965010$GNRMC,180239.10,A,4138.0467589,N,07032.3385608,W,3.50,269.19,091223,,,A*50
###2023-12-09 13:02:39.967862$GNGGA,180239.10,4138.0467589,N,07032.3385608,W,1,24,0.6,13.306,M,-29.744,M,0.0,*52
###2023-12-09 13:02:39.969716$GPGSA,A,3,03,04,16,26,28,29,31,32,,,,,1.1,0.6,0.9*3B
###2023-12-09 13:02:39.971438$GLGSA,A,3,65,71,72,73,74,75,,,,,,,1.1,0.6,0.9*24
###2023-12-09 13:02:39.973019$GAGSA,A,3,04,19,21,27,,,,,,,,,1.1,0.6,0.9*26
###2023-12-09 13:02:39.974677$GBGSA,A,3,14,24,25,26,33,,,,,,,,1.1,0.6,0.9*2F
###2023-12-09 13:02:39.977010$GPGSV,2,1,08,03,35,261,42,04,33,311,42,16,50,212,46,26,80,210,48*77
###2023-12-09 13:02:39.979351$GPGSV,2,2,08,28,49,070,46,29,25,061,42,31,69,038,47,32,19,140,45*76
###2023-12-09 13:02:39.981683$GLGSV,2,1,06,65,25,327,41,71,41,173,47,72,73,269,45,73,36,041,44*6B
###2023-12-09 13:02:39.983445$GLGSV,2,2,06,74,70,337,42,75,32,253,43,,,,,,,,*66
###2023-12-09 13:02:39.985773$GAGSV,1,1,04,04,29,312,40,19,84,213,40,21,86,114,45,27,32,048,40*63
###2023-12-09 13:02:39.988118$GBGSV,2,1,05,14,43,193,44,24,73,026,48,25,41,263,45,26,26,063,41*6A
###2023-12-09 13:02:39.989825$GBGSV,2,2,05,33,57,231,47,,,,,,,,,,,,*5F
###2023-12-09 13:02:39.991167$GNVTG,269.19,T,,M,3.50,N,6.48,K,A*2A
###2023-12-09 13:02:39.992821$GNGST,180239.10,18.000,,,,0.081,0.069,0.160*5F
###2023-12-09 13:02:39.994111$GNZDA,180239.10,09,12,2023,00,00*71
###2023-12-09 13:02:39.994758$GNEBP,,,,,,M*13
###2023-12-09 13:02:40.162516$GNGGA,180239.30,4138.0467570,N,07032.3388282,W,1,24,0.6,13.301,M,-29.744,M,0.0,*5A
###2023-12-09 13:02:40.364344$GNGGA,180239.50,4138.0467513,N,07032.3390950,W,1,24,0.6,13.304,M,-29.744,M,0.0,*51
###2023-12-09 13:02:40.565173$GNGGA,180239.70,4138.0467331,N,07032.3393606,W,1,24,0.6,13.295,M,-29.744,M,0.0,*53
###2023-12-09 13:02:40.763539$GNGGA,180239.90,4138.0467053,N,07032.3396226,W,1,24,0.6,13.286,M,-29.744,M,0.0,*5B
