###2023-12-09 12:55:36.964750$GAGSA,A,3,04,19,21,27,,,,,,,,,1.1,0.6,0.9*26
###2023-12-09 12:55:36.966423$GBGSA,A,3,14,24,25,26,33,,,,,,,,1.1,0.6,0.9*2F
###2023-12-09 12:55:36.968793$GPGSV,2,1,08,03,36,265,41,04,30,311,40,16,47,211,43,26,77,209,47*7D
###2023-12-09 12:55:36.971157$GPGSV,2,2,08,28,51,068,45,29,25,064,43,31,70,029,48,32,22,138,45*71
###2023-12-09 12:55:36.973494$GLGSV,2,1,06,65,21,328,40,71,44,172,46,72,72,281,45,73,38,040,46*6E
###2023-12-09 12:55:36.975257$GLGSV,2,2,06,74,71,327,42,75,30,250,40,,,,,,,,*64
###2023-12-09 12:55:36.977588$GAGSV,1,1,04,04,27,312,40,19,85,242,40,21,84,147,46,27,35,048,43*6B
###2023-12-09 12:55:36.979943$GBGSV,2,1,05,14,46,194,42,24,75,018,47,25,39,260,43,26,28,061,42*6F
###2023-12-09 12:55:36.981400$GBGSV,2,2,05,33,59,237,44,,,,,,,,,,,,*54
###2023-12-09 12:55:36.982732$GNVTG,219.40,T,,M,2.33,N,4.32,K,A*2A
###2023-12-09 12:55:36.984381$GNGST,175536.10,18.000,,,,0.077,0.067,0.160*5A
###2023-12-09 12:55:36.985668$GNZDA,175536.10,09,12,2023,00,00*73
###2023-12-09 12:55:36.986305$GNEBP,,,,,,M*13
###2023-12-09 12:55:37.155844$GNGGA,175536.30,4138.0480252,N,07032.3926022,W,1,24,0.6,13.034,M,-29.745,M,0.0,*54
###2023-12-09 12:55:37.356942$GNGGA,175536.50,4138.0479150,N,07032.3927329,W,1,24,0.6,13.041,M,-29.745,M,0.0,*5E
###2023-12-09 12:55:37.556480$GNGGA,175536.70,4138.0477959,N,07032.3928167,W,1,24,0.6,13.048,M,-29.745,M,0.0,*5D
###2023-12-09 12:55:37.755784$GNGGA,175536.90,4138.0476749,N,07032.3928869,W,1,24,0.6,13.064,M,-29.745,M,0.0,*54
###2023-12-09 12:55:37.956616$GNRMC,175537.10,A,4138.0475503,N,07032.3929764,W,2.60,207.10,091223,,,A*56
###2023-12-09 12:55:37.959502$GNGGA,175537.10,4138.0475503,N,07032.3929764,W,1,24,0.6,13.070,M,-29.745,M,0.0,*54
###2023-12-09 12:55:37.961364$GPGSA,A,3,03,04,16,26,28,29,31,32,,,,,1.1,0.6,0.9*3B
###2023-12-09 12:55:37.963110$GLGSA,A,3,65,71,72,73,74,75,,,,,,,1.1,0.6,0.9*24
###2023-12-09 12:55:37.964697$GAGSA,A,3,04,19,21,27,,,,,,,,,1.1,0.6,0.9*26
###2023-12-09 12:55:37.966347$GBGSA,A,3,14,24,25,26,33,,,,,,,,1.1,0.6,0.9*2F
###2023-12-09 12:55:37.968698$GPGSV,2,1,08,03,36,265,42,04,30,311,42,16,47,211,43,26,77,209,47*7C
###2023-12-09 12:55:37.971051$GPGSV,2,2,08,28,51,068,46,29,25,064,42,31,70,031,48,32,22,138,45*7A
###2023-12-09 12:55:37.973391$GLGSV,2,1,06,65,21,328,39,71,44,172,46,72,72,281,45,73,38,040,46*60
###2023-12-09 12:55:37.975147$GLGSV,2,2,06,74,71,327,42,75,30,250,43,,,,,,,,*67
###2023-12-09 12:55:37.977472$GAGSV,1,1,04,04,27,312,40,19,85,242,40,21,84,147,45,27,35,048,42*69
###2023-12-09 12:55:37.979812$GBGSV,2,1,05,14,46,194,42,24,75,018,48,25,39,260,44,26,28,061,42*67
###2023-12-09 12:55:37.981265$GBGSV,2,2,05,33,59,237,46,,,,,,,,,,,,*56
###2023-12-09 12:55:37.982599$GNVTG,207.10,T,,M,2.60,N,4.82,K,A*2D
###2023-12-09 12:55:37.984244$GNGST,175537.10,18.000,,,,0.077,0.067,0.160*5B
###2023-12-09 12:55:37.985533$GNZDA,175537.10,09,12,2023,00,00*72
###2023-12-09 12:55:37.986171$GNEBP,,,,,,M*13
###2023-12-09 12:55:38.155700$GNGGA,175537.30,4138.0474201,N,07032.3930523,W,1,24,0.6,13.053,M,-29.745,M,0.0,*5A
###2023-12-09 12:55:38.356869$GNGGA,175537.50,4138.0472911,N,07032.3931113,W,1,24,0.6,13.050,M,-29.745,M,0.0,*55
###2023-12-09 12:55:38.556863$GNGGA,175537.70,4138.0471578,N,07032.3931868,W,1,24,0.6,13.076,M,-29.745,M,0.0,*56
###2023-12-09 12:55:38.755429$GNGGA,175537.90,4138.0470205,N,07032.3932497,W,1,24,0.6,13.087,M,-29.745,M,0.0,*55
###2023-12-09 12:55:38.958309$GNRMC,175538.10,A,4138.0468847,N,07032.3932670,W,2.45,174.47,091223,,,A*54
###2023-12-09 12:55:38.961207$GNGGA,175538.10,4138.0468847,N,07032.3932670,W,1,24,0.6,13.070,M,-29.745,M,0.0,*54
###2023-12-09 12:55:38.963079$GPGSA,A,3,03,04,16,26,28,29,31,32,,,,,1.1,0.6,0.9*3B
###2023-12-09 12:55:38.964795$GLGSA,A,3,65,71,72,73,74,75,,,,,,,1.1,0.6,0.9*24
###2023-12-09 12:55:38.966377$GAGSA,A,3,04,19,21,27,,,,,,,,,1.1,0.6,0.9*26
###2023-12-09 12:55:38.968036$GBGSA,A,3,14,24,25,26,33,,,,,,,,1.1,0.6,0.9*2F
###2023-12-09 12:55:38.970355$GPGSV,2,1,08,03,36,265,43,04,30,311,42,16,47,211,45,26,77,209,47*7B
###2023-12-09 12:55:38.972696$GPGSV,2,2,08,28,51,068,44,29,25,064,43,31,70,031,48,32,21,139,41*7F
###2023-12-09 12:55:38.975044$GLGSV,2,1,06,65,21,328,40,71,44,172,43,72,72,281,46,73,38,040,45*6B
###2023-12-09 12:55:38.976800$GLGSV,2,2,06,74,71,327,43,75,30,250,44,,,,,,,,*61
###2023-12-09 12:55:38.979123$GAGSV,1,1,04,04,27,312,40,19,85,242,40,21,84,147,45,27,35,048,42*69
###2023-12-09 12:55:38.981450$GBGSV,2,1,05,14,46,194,42,24,75,018,49,25,39,260,45,26,28,061,43*66
###2023-12-09 12:55:38.982912$GBGSV,2,2,05,33,59,237,47,,,,,,,,,,,,*57
###2023-12-09 12:55:38.984232$GNVTG,174.47,T,,M,2.45,N,4.54,K,A*24
###2023-12-09 12:55:38.985873$GNGST,175538.10,18.000,,,,0.078,0.067,0.160*5B
###2023-12-09 12:55:38.987168$GNZDA,175538.10,09,12,2023,00,00*7D
###2023-12-09 12:55:38.987803$GNEBP,,,,,,M*13
###2023-12-09 12:55:39.156768$GNGGA,175538.30,4138.0467480,N,07032.3932639,W,1,24,0.6,13.061,M,-29.745,M,0.0,*53
###2023-12-09 12:55:39.355766$GNGGA,175538.50,4138.0466077,N,07032.3933001,W,1,24,0.6,13.088,M,-29.745,M,0.0,*53
###2023-12-09 12:55:39.555966$GNGGA,175538.70,4138.0464577,N,07032.3933408,W,1,24,0.6,13.089,M,-29.745,M,0.0,*5A
###2023-12-09 12:55:39.756824$GNGGA,175538.90,4138.0463179,N,07032.3933280,W,1,24,0.6,13.081,M,-29.745,M,0.0,*57
###2023-12-09 12:55:39.955387$GNRMC,175539.10,A,4138.0461924,N,07032.3932862,W,2.43,168.19,091223,,,A*55
###2023-12-09 12:55:39.958269$GNGGA,175539.10,4138.0461924,N,07032.3932862,W,1,24,0.6,13.082,M,-29.745,M,0.0,*58
###2023-12-09 12:55:39.960141$GPGSA,A,3,03,04,16,26,28,29,31,32,,,,,1.1,0.6,0.9*3B
###2023-12-09 12:55:39.961849$GLGSA,A,3,65,71,72,73,74,75,,,,,,,1.1,0.6,0.9*24
###2023-12-09 12:55:39.963449$GAGSA,A,3,04,19,21,27,,,,,,,,,1.1,0.6,0.9*26
###2023-12-09 12:55:39.965100$GBGSA,A,3,14,24,25,26,33,,,,,,,,1.1,0.6,0.9*2F
###2023-12-09 12:55:39.967433$GPGSV,2,1,08,03,36,265,45,04,30,311,42,16,47,211,44,26,77,209,48*73
###2023-12-09 12:55:39.969759$GPGSV,2,2,08,28,51,068,45,29,25,064,44,31,70,031,46,32,21,139,42*74
###2023-12-09 12:55:39.972105$GLGSV,2,1,06,65,21,328,42,71,44,172,43,72,72,281,45,73,38,040,45*6A
###2023-12-09 12:55:39.973852$GLGSV,2,2,06,74,71,327,43,75,30,250,44,,,,,,,,*61
###2023-12-09 12:55:39.976188$GAGSV,1,1,04,04,27,312,40,19,85,242,40,21,84,147,45,27,35,048,42*69
###2023-12-09 12:55:39.978510$GBGSV,2,1,05,14,46,194,43,24,75,018,48,25,39,260,46,26,28,061,45*63
###2023-12-09 12:55:39.979970$GBGSV,2,2,05,33,59,237,47,,,,,,,,,,,,*57
###2023-12-09 12:55:39.981291$GNVTG,168.19,T,,M,2.43,N,4.50,K,A*20
###2023-12-09 12:55:39.982950$GNGST,175539.10,18.000,,,,0.079,0.068,0.160*54
###2023-12-09 12:55:39.984242$GNZDA,175539.10,09,12,2023,00,00*7C
###2023-12-09 12:55:39.984881$GNEBP,,,,,,M*13
###2023-12-09 12:55:40.153920$GNGGA,175539.30,4138.0460503,N,07032.3932609,W,1,24,0.6,13.086,M,-29.745,M,0.0,*55
###2023-12-09 12:55:40.354796$GNGGA,175539.50,4138.0459062,N,07032.3932475,W,1,24,0.6,13.082,M,-29.745,M,0.0,*56
###2023-12-09 12:55:40.553817$GNGGA,175539.70,4138.0457696,N,07032.3932180,W,1,24,0.6,13.089,M,-29.745,M,0.0,*53
###2023-12-09 12:55:40.755088$GNGGA,175539.90,4138.0456347,N,07032.3931596,W,1,24,0.6,13.091,M,-29.745,M,0.0,*5C
###2023-12-09 12:55:40.955269$GNRMC,175540.10,A,4138.0455117,N,07032.3930868,W,2.25,155.95,091223,,,A*56
###2023-12-09 12:55:40.958125$GNGGA,175540.10,4138.0455117,N,07032.3930868,W,1,24,0.6,13.073,M,-29.745,M,0.0,*5F
###2023-12-09 12:55:40.959996$GPGSA,A,3,03,04,16,26,28,29,31,32,,,,,1.1,0.6,0.9*3B
###2023-12-09 12:55:40.961707$GLGSA,A,3,65,71,72,73,74,75,,,,,,,1.1,0.6,0.9*24
###2023-12-09 12:55:40.963301$GAGSA,A,3,04,19,21,27,,,,,,,,,1.1,0.6,0.9*26
###2023-12-09 12:55:40.964944$GBGSA,A,3,14,24,25,26,33,,,,,,,,1.1,0.6,0.9*2F
###2023-12-09 12:55:40.967278$GPGSV,2,1,08,03,36,265,44,04,30,311,41,16,47,211,45,26,77,209,48*70
###2023-12-09 12:55:40.969596$GPGSV,2,2,08,28,51,068,46,29,25,064,45,31,70,031,46,32,21,139,41*75
###2023-12-09 12:55:40.971939$GLGSV,2,1,06,65,21,328,42,71,44,172,45,72,72,281,46,73,38,040,47*6D
###2023-12-09 12:55:40.973679$GLGSV,2,2,06,74,71,327,43,75,30,250,45,,,,,,,,*60
###2023-12-09 12:55:40.976018$GAGSV,1,1,04,04,27,312,40,19,85,242,40,21,84,147,45,27,35,048,43*68
###2023-12-09 12:55:40.978614$GBGSV,2,1,05,14,46,194,44,24,75,018,48,25,39,260,46,26,28,061,47*66
###2023-12-09 12:55:40.980126$GBGSV,2,2,05,33,59,237,49,,,,,,,,,,,,*59
###2023-12-09 12:55:40.981468$GNVTG,155.95,T,,M,2.25,N,4.18,K,A*26
###2023-12-09 12:55:40.983146$GNGST,175540.10,18.000,,,,0.079,0.067,0.160*55
###2023-12-09 12:55:40.984452$GNZDA,175540.10,09,12,2023,00,00*72
###2023-12-09 12:55:40.985094$GNEBP,,,,,,M*13
###2023-12-09 12:55:41.153715$GNGGA,175540.30,4138.0453940,N,07032.3930221,W,1,24,0.6,13.076,M,-29.745,M,0.0,*53
###2023-12-09 12:55:41.354657$GNGGA,175540.50,4138.0452528,N,07032.3929655,W,1,24,0.6,13.094,M,-29.745,M,0.0,*55
###2023-12-09 12:55:41.554737$GNGGA,175540.70,4138.0451236,N,07032.3928880,W,1,24,0.6,13.070,M,-29.745,M,0.0,*51
