###2023-12-09 13:25:46.021010$GNZDA,182545.10,09,12,2023,00,00*7F
###2023-12-09 13:25:46.021674$GNEBP,,,,,,M*13
###2023-12-09 13:25:46.188564$GNGGA,182545.30,4138.0390418,N,07032.3451246,W,1,24,0.6,13.183,M,-29.744,M,0.0,*57
###2023-12-09 13:25:46.388019$GNGGA,182545.50,4138.0392436,N,07032.3451956,W,1,24,0.6,13.179,M,-29.744,M,0.0,*50
###2023-12-09 13:25:46.589033$GNGGA,182545.70,4138.0394446,N,07032.3452525,W,1,24,0.6,13.167,M,-29.744,M,0.0,*57
###2023-12-09 13:25:46.788873$GNGGA,182545.90,4138.0396477,N,07032.3452828,W,1,24,0.6,13.159,M,-29.744,M,0.0,*54
###2023-12-09 13:25:46.994536$GNRMC,182546.10,A,4138.0398475,N,07032.3453065,W,3.56,353.77,091223,,,A*5F
###2023-12-09 13:25:46.997416$GNGGA,182546.10,4138.0398475,N,07032.3453065,W,1,24,0.6,13.146,M,-29.744,M,0.0,*5D
###2023-12-09 13:25:46.999222$GPGSA,A,3,03,04,16,26,28,29,31,,,,,,1.1,0.6,0.9*3A
###2023-12-09 13:25:47.000934$GLGSA,A,3,65,71,72,73,74,75,,,,,,,1.1,0.6,0.9*24
###2023-12-09 13:25:47.002512$GAGSA,A,3,04,19,21,27,,,,,,,,,1.1,0.6,0.9*26
###2023-12-09 13:25:47.004245$GBGSA,A,3,14,24,25,26,33,35,,,,,,,1.1,0.6,0.9*29
###2023-12-09 13:25:47.006560$GPGSV,2,1,07,03,29,250,43,04,43,309,44,16,62,219,46,26,88,044,47*70
###2023-12-09 13:25:47.008602$GPGSV,2,2,07,28,41,081,44,29,22,050,43,31,62,060,46,,,,*43
###2023-12-09 13:25:47.010950$GLGSV,2,1,06,65,34,322,42,71,27,175,45,72,67,229,47,73,26,049,43*64
###2023-12-09 13:25:47.012702$GLGSV,2,2,06,74,63,006,41,75,40,266,47,,,,,,,,*61
###2023-12-09 13:25:47.015044$GAGSV,1,1,04,04,37,311,44,19,76,185,41,21,80,051,46,27,26,049,42*68
###2023-12-09 13:25:47.017377$GBGSV,2,1,06,14,33,190,43,24,66,041,47,25,48,272,45,26,19,068,42*6D
###2023-12-09 13:25:47.019129$GBGSV,2,2,06,33,49,220,46,35,16,060,42,,,,,,,,*63
###2023-12-09 13:25:47.020455$GNVTG,353.77,T,,M,3.56,N,6.59,K,A*2C
###2023-12-09 13:25:47.022102$GNGST,182546.10,18.000,,,,0.099,0.070,0.160*53
###2023-12-09 13:25:47.023402$GNZDA,182546.10,09,12,2023,00,00*7C
###2023-12-09 13:25:47.024044$GNEBP,,,,,,M*13
###2023-12-09 13:25:47.189757$GNGGA,182546.30,4138.0400424,N,07032.3453392,W,1,24,0.6,13.133,M,-29.744,M,0.0,*54
###2023-12-09 13:25:47.390949$GNGGA,182546.50,4138.0402329,N,07032.3453728,W,1,24,0.6,13.137,M,-29.744,M,0.0,*5B
###2023-12-09 13:25:47.590873$GNGGA,182546.70,4138.0404289,N,07032.3453862,W,1,24,0.6,13.141,M,-29.744,M,0.0,*54
###2023-12-09 13:25:47.788860$GNGGA,182546.90,4138.0406272,N,07032.3453842,W,1,24,0.6,13.127,M,-29.744,M,0.0,*5E
###2023-12-09 13:25:47.993168$GNRMC,182547.10,A,4138.0408189,N,07032.3454025,W,3.40,351.39,091223,,,A*5A
###2023-12-09 13:25:47.996064$GNGGA,182547.10,4138.0408189,N,07032.3454025,W,1,24,0.6,13.111,M,-29.744,M,0.0,*55
###2023-12-09 13:25:47.997857$GPGSA,A,3,03,04,16,26,28,29,31,,,,,,1.1,0.6,0.9*3A
###2023-12-09 13:25:47.999591$GLGSA,A,3,65,71,72,73,74,75,,,,,,,1.1,0.6,0.9*24
###2023-12-09 13:25:48.001175$GAGSA,A,3,04,19,21,27,,,,,,,,,1.1,0.6,0.9*26
###2023-12-09 13:25:48.002898$GBGSA,A,3,14,24,25,26,33,35,,,,,,,1.1,0.6,0.9*29
###2023-12-09 13:25:48.005263$GPGSV,2,1,07,03,29,250,42,04,43,309,44,16,62,219,47,26,88,044,48*7F
###2023-12-09 13:25:48.007320$GPGSV,2,2,07,28,41,081,44,29,22,050,42,31,62,060,46,,,,*42
###2023-12-09 13:25:48.009650$GLGSV,2,1,06,65,34,322,42,71,27,175,43,72,67,229,46,73,26,049,43*63
###2023-12-09 13:25:48.011407$GLGSV,2,2,06,74,63,006,41,75,40,266,47,,,,,,,,*61
###2023-12-09 13:25:48.013728$GAGSV,1,1,04,04,37,311,44,19,76,185,41,21,80,051,45,27,26,049,40*69
###2023-12-09 13:25:48.016072$GBGSV,2,1,06,14,33,190,43,24,66,041,48,25,48,272,47,26,19,068,44*66
###2023-12-09 13:25:48.017823$GBGSV,2,2,06,33,49,220,47,35,16,060,44,,,,,,,,*64
###2023-12-09 13:25:48.019156$GNVTG,351.39,T,,M,3.40,N,6.30,K,A*2C
###2023-12-09 13:25:48.020806$GNGST,182547.10,18.000,,,,0.099,0.070,0.160*52
###2023-12-09 13:25:48.022095$GNZDA,182547.10,09,12,2023,00,00*7D
###2023-12-09 13:25:48.022743$GNEBP,,,,,,M*13
###2023-12-09 13:25:48.190618$GNGGA,182547.30,4138.0410074,N,07032.3454452,W,1,24,0.6,13.116,M,-29.744,M,0.0,*5E
###2023-12-09 13:25:48.389862$GNGGA,182547.50,4138.0411974,N,07032.3454698,W,1,24,0.6,13.112,M,-29.744,M,0.0,*50
###2023-12-09 13:25:48.596831$GNGGA,182547.70,4138.0413889,N,07032.3454798,W,1,24,0.6,13.098,M,-29.744,M,0.0,*51
###2023-12-09 13:25:48.790742$GNGGA,182547.90,4138.0415750,N,07032.3454926,W,1,24,0.6,13.093,M,-29.744,M,0.0,*52
###2023-12-09 13:25:48.997049$GNRMC,182548.10,A,4138.0417614,N,07032.3455270,W,3.42,352.75,091223,,,A*52
###2023-12-09 13:25:48.999927$GNGGA,182548.10,4138.0417614,N,07032.3455270,W,1,24,0.6,13.090,M,-29.744,M,0.0,*5C
###2023-12-09 13:25:49.001731$GPGSA,A,3,03,04,16,26,28,29,31,,,,,,1.1,0.6,0.9*3A
###2023-12-09 13:25:49.003458$GLGSA,A,3,65,71,72,73,74,75,,,,,,,1.1,0.6,0.9*24
###2023-12-09 13:25:49.005040$GAGSA,A,3,04,19,21,27,,,,,,,,,1.1,0.6,0.9*26
###2023-12-09 13:25:49.006761$GBGSA,A,3,14,24,25,26,33,35,,,,,,,1.1,0.6,0.9*29
###2023-12-09 13:25:49.009085$GPGSV,2,1,07,03,29,250,41,04,43,309,44,16,62,219,46,26,88,044,48*7D
###2023-12-09 13:25:49.011134$GPGSV,2,2,07,28,41,081,45,29,22,050,40,31,62,060,46,,,,*41
###2023-12-09 13:25:49.013492$GLGSV,2,1,06,65,34,322,42,71,27,175,42,72,67,229,47,73,26,049,42*62
###2023-12-09 13:25:49.015248$GLGSV,2,2,06,74,63,006,41,75,40,266,47,,,,,,,,*61
###2023-12-09 13:25:49.017575$GAGSV,1,1,04,04,37,311,43,19,76,185,41,21,80,051,45,27,26,049,40*6E
###2023-12-09 13:25:49.019915$GBGSV,2,1,06,14,33,190,44,24,66,041,48,25,48,272,47,26,19,068,44*61
###2023-12-09 13:25:49.021663$GBGSV,2,2,06,33,49,220,47,35,16,060,43,,,,,,,,*63
###2023-12-09 13:25:49.023006$GNVTG,352.75,T,,M,3.42,N,6.34,K,A*21
###2023-12-09 13:25:49.024649$GNGST,182548.10,18.000,,,,0.099,0.070,0.160*5D
###2023-12-09 13:25:49.025934$GNZDA,182548.10,09,12,2023,00,00*72
###2023-12-09 13:25:49.026578$GNEBP,,,,,,M*13
###2023-12-09 13:25:49.191276$GNGGA,182548.30,4138.0419490,N,07032.3455475,W,1,24,0.6,13.078,M,-29.744,M,0.0,*5B
###2023-12-09 13:25:49.389868$GNGGA,182548.50,4138.0421349,N,07032.3455551,W,1,24,0.6,13.075,M,-29.744,M,0.0,*5F
###2023-12-09 13:25:49.590468$GNGGA,182548.70,4138.0423200,N,07032.3455621,W,1,24,0.6,13.072,M,-29.744,M,0.0,*50
###2023-12-09 13:25:49.789625$GNGGA,182548.90,4138.0425123,N,07032.3455705,W,1,24,0.6,13.067,M,-29.744,M,0.0,*59
###2023-12-09 13:25:49.994049$GNRMC,182549.10,A,4138.0427119,N,07032.3455826,W,3.60,359.12,091223,,,A*59
###2023-12-09 13:25:49.996944$GNGGA,182549.10,4138.0427119,N,07032.3455826,W,1,24,0.6,13.059,M,-29.744,M,0.0,*58
###2023-12-09 13:25:49.998759$GPGSA,A,3,03,04,16,26,28,29,31,,,,,,1.1,0.6,0.9*3A
###2023-12-09 13:25:50.000468$GLGSA,A,3,65,71,72,73,74,75,,,,,,,1.1,0.6,0.9*24
###2023-12-09 13:25:50.002041$GAGSA,A,3,04,19,21,27,,,,,,,,,1.1,0.6,0.9*26
###2023-12-09 13:25:50.003767$GBGSA,A,3,14,24,25,26,33,35,,,,,,,1.1,0.6,0.9*29
###2023-12-09 13:25:50.006092$GPGSV,2,1,07,03,29,250,41,04,43,309,46,16,62,219,46,26,88,044,48*7F
###2023-12-09 13:25:50.008141$GPGSV,2,2,07,28,41,081,43,29,22,050,41,31,62,060,46,,,,*46
###2023-12-09 13:25:50.010469$GLGSV,2,1,06,65,34,322,42,71,27,175,41,72,67,229,47,73,26,049,40*63
###2023-12-09 13:25:50.012223$GLGSV,2,2,06,74,63,006,41,75,40,266,47,,,,,,,,*61
###2023-12-09 13:25:50.014546$GAGSV,1,1,04,04,37,311,44,19,76,185,41,21,80,051,45,27,26,049,40*69
###2023-12-09 13:25:50.016889$GBGSV,2,1,06,14,33,190,43,24,66,041,47,25,48,272,48,26,19,068,42*60
###2023-12-09 13:25:50.018638$GBGSV,2,2,06,33,49,220,47,35,16,060,41,,,,,,,,*61
###2023-12-09 13:25:50.019957$GNVTG,359.12,T,,M,3.60,N,6.66,K,A*2C
###2023-12-09 13:25:50.021595$GNGST,182549.10,18.000,,,,0.100,0.070,0.160*5D
###2023-12-09 13:25:50.022922$GNZDA,182549.10,09,12,2023,00,00*73
###2023-12-09 13:25:50.023563$GNEBP,,,,,,M*13
###2023-12-09 13:25:50.190517$GNGGA,182549.30,4138.0429145,N,07032.3455716,W,1,24,0.6,13.067,M,-29.744,M,0.0,*5C
###2023-12-09 13:25:50.389777$GNGGA,182549.50,4138.0431184,N,07032.3455323,W,1,24,0.6,13.069,M,-29.744,M,0.0,*52
###2023-12-09 13:25:50.590220$GNGGA,182549.70,4138.0433275,N,07032.3455052,W,1,24,0.6,13.056,M,-29.744,M,0.0,*56
###2023-12-09 13:25:50.789821$GNGGA,182549.90,4138.0435394,N,07032.3454958,W,1,24,0.6,13.048,M,-29.744,M,0.0,*5D
###2023-12-09 13:25:50.994308$GNRMC,182550.10,A,4138.0437537,N,07032.3454604,W,3.93,12.90,091223,,,A*6D
###2023-12-09 13:25:50.997440$GNGGA,182550.10,4138.0437537,N,07032.3454604,W,1,24,0.6,13.048,M,-29.744,M,0.0,*56
###2023-12-09 13:25:50.999255$GPGSA,A,3,03,04,16,26,28,29,31,,,,,,1.1,0.6,0.9*3A
###2023-12-09 13:25:51.000973$GLGSA,A,3,65,71,72,73,74,75,,,,,,,1.1,0.6,0.9*24
###2023-12-09 13:25:51.002558$GAGSA,A,3,04,19,21,27,,,,,,,,,1.1,0.6,0.9*26
###2023-12-09 13:25:51.004284$GBGSA,A,3,14,24,25,26,33,35,,,,,,,1.1,0.6,0.9*29
###2023-12-09 13:25:51.006616$GPGSV,2,1,07,03,29,250,42,04,43,309,44,16,62,219,46,26,88,044,48*7E
###2023-12-09 13:25:51.008648$GPGSV,2,2,07,28,41,081,43,29,22,050,41,31,62,060,45,,,,*45
###2023-12-09 13:25:51.010977$GLGSV,2,1,06,65,34,322,42,71,27,175,41,72,67,229,47,73,26,049,40*63
###2023-12-09 13:25:51.012722$GLGSV,2,2,06,74,63,006,41,75,40,266,48,,,,,,,,*6E
