###2023-12-09 13:04:48.994232$GBGSV,2,2,05,33,56,230,48,,,,,,,,,,,,*50
###2023-12-09 13:04:48.995570$GNVTG,90.57,T,,M,3.52,N,6.52,K,A*1D
###2023-12-09 13:04:48.997228$GNGST,180448.10,18.000,,,,0.080,0.066,0.160*51
###2023-12-09 13:04:48.998529$GNZDA,180448.10,09,12,2023,00,00*71
###2023-12-09 13:04:48.999187$GNEBP,,,,,,M*13
###2023-12-09 13:04:49.166690$GNGGA,180448.30,4138.0581767,N,07032.2987885,W,1,24,0.6,13.234,M,-29.743,M,0.0,*5E
###2023-12-09 13:04:49.367455$GNGGA,180448.50,4138.0581651,N,07032.2985383,W,1,24,0.6,13.220,M,-29.743,M,0.0,*56
###2023-12-09 13:04:49.566505$GNGGA,180448.70,4138.0581876,N,07032.2982845,W,1,24,0.6,13.252,M,-29.743,M,0.0,*5C
###2023-12-09 13:04:49.768612$GNGGA,180448.90,4138.0581775,N,07032.2980165,W,1,24,0.6,13.247,M,-29.743,M,0.0,*53
###2023-12-09 13:04:49.968798$GNRMC,180449.10,A,4138.0581557,N,07032.2977541,W,3.60,94.22,091223,,,A*68
###2023-12-09 13:04:49.971692$GNGGA,180449.10,4138.0581557,N,07032.2977541,W,1,24,0.6,13.218,M,-29.743,M,0.0,*58
###2023-12-09 13:04:49.973558$GPGSA,A,3,03,04,16,26,28,29,31,32,,,,,1.1,0.6,0.9*3B
###2023-12-09 13:04:49.975287$GLGSA,A,3,65,71,72,73,74,75,,,,,,,1.1,0.6,0.9*24
###2023-12-09 13:04:49.976869$GAGSA,A,3,04,19,21,27,,,,,,,,,1.1,0.6,0.9*26
###2023-12-09 13:04:49.978518$GBGSA,A,3,14,24,25,26,33,,,,,,,,1.1,0.6,0.9*2F
###2023-12-09 13:04:49.980850$GPGSV,2,1,08,03,34,260,46,04,33,311,42,16,51,213,48,26,81,210,48*7C
###2023-12-09 13:04:49.983190$GPGSV,2,2,08,28,48,071,45,29,25,060,41,31,68,040,47,32,18,140,44*79
###2023-12-09 13:04:49.985517$GLGSV,2,1,06,65,26,327,41,71,39,173,47,72,73,261,46,73,34,043,43*6B
###2023-12-09 13:04:49.987274$GLGSV,2,2,06,74,69,343,43,75,33,255,47,,,,,,,,*6F
###2023-12-09 13:04:49.989596$GAGSV,1,1,04,04,30,312,39,19,83,207,41,21,86,104,46,27,32,048,43*67
###2023-12-09 13:04:49.991933$GBGSV,2,1,05,14,42,192,46,24,72,028,48,25,42,263,47,26,25,063,42*66
###2023-12-09 13:04:49.993393$GBGSV,2,2,05,33,56,230,49,,,,,,,,,,,,*51
###2023-12-09 13:04:49.994691$GNVTG,94.22,T,,M,3.60,N,6.66,K,A*1D
###2023-12-09 13:04:49.996333$GNGST,180449.10,18.000,,,,0.080,0.066,0.160*50
###2023-12-09 13:04:49.997621$GNZDA,180449.10,09,12,2023,00,00*70
###2023-12-09 13:04:49.998257$GNEBP,,,,,,M*13
###2023-12-09 13:04:50.166579$GNGGA,180449.30,4138.0581586,N,07032.2974935,W,1,24,0.6,13.220,M,-29.743,M,0.0,*51
###2023-12-09 13:04:50.372628$GNGGA,180449.50,4138.0581859,N,07032.2972361,W,1,24,0.6,13.234,M,-29.743,M,0.0,*50
###2023-12-09 13:04:50.567477$GNGGA,180449.70,4138.0581898,N,07032.2969633,W,1,24,0.6,13.239,M,-29.743,M,0.0,*5A
###2023-12-09 13:04:50.773853$GNGGA,180449.90,4138.0581693,N,07032.2966934,W,1,24,0.6,13.222,M,-29.743,M,0.0,*5C
###2023-12-09 13:04:50.969985$GNRMC,180450.10,A,4138.0581858,N,07032.2964340,W,3.58,76.67,091223,,,A*61
###2023-12-09 13:04:50.972873$GNGGA,180450.10,4138.0581858,N,07032.2964340,W,1,24,0.6,13.230,M,-29.743,M,0.0,*5D
###2023-12-09 13:04:50.974747$GPGSA,A,3,03,04,16,26,28,29,31,32,,,,,1.1,0.6,0.9*3B
###2023-12-09 13:04:50.976469$GLGSA,A,3,65,71,72,73,74,75,,,,,,,1.1,0.6,0.9*24
###2023-12-09 13:04:50.978053$GAGSA,A,3,04,19,21,27,,,,,,,,,1.1,0.6,0.9*26
###2023-12-09 13:04:50.979717$GBGSA,A,3,14,24,25,26,33,,,,,,,,1.1,0.6,0.9*2F
###2023-12-09 13:04:50.982044$GPGSV,2,1,08,03,34,260,45,04,33,311,42,16,51,213,48,26,81,210,48*7F
###2023-12-09 13:04:50.984388$GPGSV,2,2,08,28,48,071,41,29,25,060,40,31,68,040,46,32,18,140,44*7D
###2023-12-09 13:04:50.986733$GLGSV,2,1,06,65,26,327,40,71,39,173,47,72,73,261,46,73,34,043,44*6D
###2023-12-09 13:04:50.988484$GLGSV,2,2,06,74,69,343,43,75,33,255,47,,,,,,,,*6F
###2023-12-09 13:04:50.990810$GAGSV,1,1,04,04,30,312,39,19,83,207,41,21,86,104,46,27,32,048,42*66
###2023-12-09 13:04:50.993141$GBGSV,2,1,05,14,42,192,47,24,72,028,48,25,42,263,47,26,25,063,42*67
###2023-12-09 13:04:50.994615$GBGSV,2,2,05,33,56,230,48,,,,,,,,,,,,*50
###2023-12-09 13:04:50.995917$GNVTG,76.67,T,,M,3.58,N,6.62,K,A*1F
###2023-12-09 13:04:50.997570$GNGST,180450.10,18.000,,,,0.080,0.066,0.160*58
###2023-12-09 13:04:50.998872$GNZDA,180450.10,09,12,2023,00,00*78
###2023-12-09 13:04:50.999516$GNEBP,,,,,,M*13
###2023-12-09 13:04:51.171743$GNGGA,180450.30,4138.0582226,N,07032.2961699,W,1,24,0.6,13.225,M,-29.743,M,0.0,*5F
###2023-12-09 13:04:51.366637$GNGGA,180450.50,4138.0582257,N,07032.2959100,W,1,24,0.6,13.196,M,-29.743,M,0.0,*58
###2023-12-09 13:04:51.566380$GNGGA,180450.70,4138.0582413,N,07032.2956576,W,1,24,0.6,13.240,M,-29.743,M,0.0,*5E
###2023-12-09 13:04:51.767697$GNGGA,180450.90,4138.0582602,N,07032.2953932,W,1,24,0.6,13.249,M,-29.743,M,0.0,*52
###2023-12-09 13:04:51.969521$GNRMC,180451.10,A,4138.0582492,N,07032.2951325,W,3.48,93.84,091223,,,A*6B
###2023-12-09 13:04:51.972378$GNGGA,180451.10,4138.0582492,N,07032.2951325,W,1,24,0.6,13.212,M,-29.743,M,0.0,*50
###2023-12-09 13:04:51.974232$GPGSA,A,3,03,04,16,26,28,29,31,32,,,,,1.1,0.6,0.9*3B
###2023-12-09 13:04:51.975955$GLGSA,A,3,65,71,72,73,74,75,,,,,,,1.1,0.6,0.9*24
###2023-12-09 13:04:51.977527$GAGSA,A,3,04,19,21,27,,,,,,,,,1.1,0.6,0.9*26
###2023-12-09 13:04:51.979174$GBGSA,A,3,14,24,25,26,33,,,,,,,,1.1,0.6,0.9*2F
###2023-12-09 13:04:51.981487$GPGSV,2,1,08,03,34,260,45,04,33,311,41,16,51,213,48,26,81,210,49*7D
###2023-12-09 13:04:51.983823$GPGSV,2,2,08,28,48,071,44,29,25,060,41,31,68,040,46,32,18,140,42*7F
###2023-12-09 13:04:51.986151$GLGSV,2,1,06,65,26,327,40,71,39,173,47,72,73,261,47,73,34,043,43*6B
###2023-12-09 13:04:51.987907$GLGSV,2,2,06,74,69,343,43,75,33,255,47,,,,,,,,*6F
###2023-12-09 13:04:51.990218$GAGSV,1,1,04,04,30,312,41,19,83,207,41,21,86,104,46,27,32,048,43*68
###2023-12-09 13:04:51.992552$GBGSV,2,1,05,14,42,192,46,24,72,028,48,25,42,263,47,26,25,063,42*66
###2023-12-09 13:04:51.994000$GBGSV,2,2,05,33,56,230,49,,,,,,,,,,,,*51
###2023-12-09 13:04:51.995299$GNVTG,93.84,T,,M,3.48,N,6.44,K,A*1C
###2023-12-09 13:04:51.996944$GNGST,180451.10,18.000,,,,0.080,0.066,0.160*59
###2023-12-09 13:04:51.998229$GNZDA,180451.10,09,12,2023,00,00*79
###2023-12-09 13:04:51.998878$GNEBP,,,,,,M*13
###2023-12-09 13:04:52.166595$GNGGA,180451.30,4138.0582518,N,07032.2948806,W,1,24,0.6,13.219,M,-29.743,M,0.0,*58
###2023-12-09 13:04:52.367061$GNGGA,180451.50,4138.0582615,N,07032.2946270,W,1,24,0.6,13.240,M,-29.743,M,0.0,*59
###2023-12-09 13:04:52.567509$GNGGA,180451.70,4138.0582354,N,07032.2943654,W,1,24,0.6,13.235,M,-29.743,M,0.0,*5E
###2023-12-09 13:04:52.777804$GNGGA,180451.90,4138.0581913,N,07032.2941133,W,1,24,0.6,13.215,M,-29.743,M,0.0,*5C
###2023-12-09 13:04:52.970299$GNRMC,180452.10,A,4138.0581734,N,07032.2938664,W,3.36,89.61,091223,,,A*62
###2023-12-09 13:04:52.973203$GNGGA,180452.10,4138.0581734,N,07032.2938664,W,1,24,0.6,13.237,M,-29.743,M,0.0,*57
###2023-12-09 13:04:52.975081$GPGSA,A,3,03,04,16,26,28,29,31,32,,,,,1.1,0.6,0.9*3B
###2023-12-09 13:04:52.976805$GLGSA,A,3,65,71,72,73,74,75,,,,,,,1.1,0.6,0.9*24
###2023-12-09 13:04:52.978397$GAGSA,A,3,04,19,21,27,,,,,,,,,1.1,0.6,0.9*26
###2023-12-09 13:04:52.980065$GBGSA,A,3,14,24,25,26,33,,,,,,,,1.1,0.6,0.9*2F
###2023-12-09 13:04:52.982405$GPGSV,2,1,08,03,34,260,45,04,33,311,42,16,51,213,48,26,81,210,49*7E
###2023-12-09 13:04:52.984770$GPGSV,2,2,08,28,48,071,44,29,25,060,42,31,68,040,46,32,18,140,42*7C
###2023-12-09 13:04:52.987127$GLGSV,2,1,06,65,26,327,39,71,39,173,46,72,73,261,46,73,34,043,44*62
###2023-12-09 13:04:52.988887$GLGSV,2,2,06,74,69,343,42,75,33,255,46,,,,,,,,*6F
###2023-12-09 13:04:52.991239$GAGSV,1,1,04,04,30,312,41,19,83,207,41,21,86,104,46,27,32,048,43*68
###2023-12-09 13:04:52.993580$GBGSV,2,1,05,14,42,192,45,24,72,028,48,25,42,263,47,26,25,063,42*65
###2023-12-09 13:04:52.995050$GBGSV,2,2,05,33,56,230,49,,,,,,,,,,,,*51
###2023-12-09 13:04:52.996349$GNVTG,89.61,T,,M,3.36,N,6.23,K,A*14
###2023-12-09 13:04:52.998001$GNGST,180452.10,18.000,,,,0.080,0.066,0.160*5A
###2023-12-09 13:04:52.999305$GNZDA,180452.10,09,12,2023,00,00*7A
###2023-12-09 13:04:52.999946$GNEBP,,,,,,M*13
###2023-12-09 13:04:53.166432$GNGGA,180452.30,4138.0581729,N,07032.2936016,W,1,24,0.6,13.243,M,-29.743,M,0.0,*57
###2023-12-09 13:04:53.368190$GNGGA,180452.50,4138.0581453,N,07032.2933392,W,1,24,0.6,13.219,M,-29.743,M,0.0,*5A
###2023-12-09 13:04:53.568411$GNGGA,180452.70,4138.0581031,N,07032.2930861,W,1,24,0.6,13.225,M,-29.743,M,0.0,*53
###2023-12-09 13:04:53.767700$GNGGA,180452.90,4138.0580770,N,07032.2928159,W,1,24,0.6,13.239,M,-29.743,M,0.0,*58
###2023-12-09 13:04:53.968722$GNRMC,180453.10,A,4138.0580710,N,07032.2925491,W,3.56,88.19,091223,,,A*68
###2023-12-09 13:04:53.971595$GNGGA,180453.10,4138.0580710,N,07032.2925491,W,1,24,0.6,13.215,M,-29.743,M,0.0,*55
###2023-12-09 13:04:53.973449$GPGSA,A,3,03,04,16,26,28,29,31,32,,,,,1.1,0.6,0.9*3B
###2023-12-09 13:04:53.975175$GLGSA,A,3,65,71,72,73,74,75,,,,,,,1.1,0.6,0.9*24
###2023-12-09 13:04:53.976763$GAGSA,A,3,04,19,21,27,,,,,,,,,1.1,0.6,0.9*26
###2023-12-09 13:04:53.978410$GBGSA,A,3,14,24,25,26,33,,,,,,,,1.1,0.6,0.9*2F
###2023-12-09 13:04:53.980745$GPGSV,2,1,08,03,34,260,45,04,33,311,43,16,51,213,47,26,81,210,48*71
