###2023-12-09 12:52:59.960693$GNGGA,175259.10,4138.0575684,N,07032.3832929,W,1,24,0.6,13.310,M,-29.744,M,0.0,*5E
###2023-12-09 12:52:59.962976$GPGSA,A,3,03,04,16,26,28,29,31,32,,,,,1.1,0.6,0.9*3B
###2023-12-09 12:52:59.965042$GLGSA,A,3,65,71,72,73,74,75,,,,,,,1.1,0.6,0.9*24
###2023-12-09 12:52:59.966965$GAGSA,A,3,04,19,21,27,,,,,,,,,1.1,0.6,0.9*26
###2023-12-09 12:52:59.968939$GBGSA,A,3,14,24,25,26,33,,,,,,,,1.1,0.6,0.9*2F
###2023-12-09 12:52:59.971746$GPGSV,2,1,08,03,37,267,40,04,29,311,37,16,45,210,43,26,75,209,45*74
###2023-12-09 12:52:59.974538$GPGSV,2,2,08,28,52,066,43,29,26,065,40,31,71,026,46,32,23,138,40*7F
###2023-12-09 12:52:59.977363$GLGSV,2,1,06,65,20,328,39,71,45,172,45,72,72,285,43,73,39,039,46*6E
###2023-12-09 12:52:59.979466$GLGSV,2,2,06,74,71,324,40,75,29,249,43,,,,,,,,*66
###2023-12-09 12:52:59.982253$GAGSV,1,1,04,04,26,312,38,19,85,252,40,21,84,154,45,27,36,048,44*61
###2023-12-09 12:52:59.985064$GBGSV,2,1,05,14,47,194,43,24,76,016,47,25,38,259,42,26,29,061,42*69
###2023-12-09 12:52:59.986827$GBGSV,2,2,05,33,60,238,46,,,,,,,,,,,,*53
###2023-12-09 12:52:59.988409$GNVTG,213.21,T,,M,0.70,N,1.30,K,A*25
###2023-12-09 12:52:59.990382$GNGST,175259.10,18.000,,,,0.076,0.066,0.160*54
###2023-12-09 12:52:59.991944$GNZDA,175259.10,09,12,2023,00,00*7D
###2023-12-09 12:52:59.992742$GNEBP,,,,,,M*13
###2023-12-09 12:53:00.154483$GNGGA,175259.30,4138.0575562,N,07032.3833369,W,1,24,0.6,13.312,M,-29.744,M,0.0,*5A
###2023-12-09 12:53:00.355676$GNGGA,175259.50,4138.0575166,N,07032.3833606,W,1,24,0.6,13.306,M,-29.744,M,0.0,*55
###2023-12-09 12:53:00.554030$GNGGA,175259.70,4138.0574892,N,07032.3833958,W,1,24,0.6,13.299,M,-29.744,M,0.0,*57
###2023-12-09 12:53:00.754654$GNGGA,175259.90,4138.0574993,N,07032.3834537,W,1,24,0.6,13.320,M,-29.744,M,0.0,*58
###2023-12-09 12:53:00.956125$GNRMC,175300.10,A,4138.0575165,N,07032.3835100,W,0.66,213.21,091223,,,A*5A
###2023-12-09 12:53:00.958998$GNGGA,175300.10,4138.0575165,N,07032.3835100,W,1,24,0.6,13.318,M,-29.744,M,0.0,*57
###2023-12-09 12:53:00.960857$GPGSA,A,3,03,04,16,26,28,29,31,32,,,,,1.1,0.6,0.9*3B
###2023-12-09 12:53:00.962591$GLGSA,A,3,65,71,72,73,74,75,,,,,,,1.1,0.6,0.9*24
###2023-12-09 12:53:00.964184$GAGSA,A,3,04,19,21,27,,,,,,,,,1.1,0.6,0.9*26
###2023-12-09 12:53:00.965831$GBGSA,A,3,14,24,25,26,33,,,,,,,,1.1,0.6,0.9*2F
###2023-12-09 12:53:00.968182$GPGSV,2,1,08,03,37,267,42,04,29,311,42,16,45,210,44,26,75,209,46*70
###2023-12-09 12:53:00.970516$GPGSV,2,2,08,28,52,066,45,29,26,065,41,31,71,026,48,32,23,138,42*74
###2023-12-09 12:53:00.972868$GLGSV,2,1,06,65,20,328,43,71,45,172,46,72,72,285,45,73,39,039,46*66
###2023-12-09 12:53:00.974633$GLGSV,2,2,06,74,71,324,41,75,29,249,42,,,,,,,,*66
###2023-12-09 12:53:00.976965$GAGSV,1,1,04,04,26,312,40,19,85,252,40,21,84,154,46,27,36,048,45*6C
###2023-12-09 12:53:00.979304$GBGSV,2,1,05,14,47,194,44,24,76,016,49,25,38,259,44,26,29,061,44*60
###2023-12-09 12:53:00.980755$GBGSV,2,2,05,33,60,238,47,,,,,,,,,,,,*52
###2023-12-09 12:53:00.982079$GNVTG,213.21,T,,M,0.66,N,1.22,K,A*21
###2023-12-09 12:53:00.983741$GNGST,175300.10,18.000,,,,0.077,0.067,0.160*59
###2023-12-09 12:53:00.985036$GNZDA,175300.10,09,12,2023,00,00*70
###2023-12-09 12:53:00.985675$GNEBP,,,,,,M*13
###2023-12-09 12:53:01.155866$GNGGA,175300.30,4138.0574899,N,07032.3835415,W,1,24,0.6,13.300,M,-29.744,M,0.0,*56
###2023-12-09 12:53:01.354436$GNGGA,175300.50,4138.0574472,N,07032.3835649,W,1,24,0.6,13.296,M,-29.744,M,0.0,*5C
###2023-12-09 12:53:01.554888$GNGGA,175300.70,4138.0574447,N,07032.3836112,W,1,24,0.6,13.317,M,-29.744,M,0.0,*5A
###2023-12-09 12:53:01.754010$GNGGA,175300.90,4138.0574724,N,07032.3836697,W,1,24,0.6,13.325,M,-29.744,M,0.0,*59
###2023-12-09 12:53:01.955935$GNRMC,175301.10,A,4138.0574760,N,07032.3837184,W,0.60,213.21,091223,,,A*51
###2023-12-09 12:53:01.958811$GNGGA,175301.10,4138.0574760,N,07032.3837184,W,1,24,0.6,13.311,M,-29.744,M,0.0,*53
###2023-12-09 12:53:01.960669$GPGSA,A,3,03,04,16,26,28,29,31,32,,,,,1.1,0.6,0.9*3B
###2023-12-09 12:53:01.962379$GLGSA,A,3,65,71,72,73,74,75,,,,,,,1.1,0.6,0.9*24
###2023-12-09 12:53:01.963977$GAGSA,A,3,04,19,21,27,,,,,,,,,1.1,0.6,0.9*26
###2023-12-09 12:53:01.965624$GBGSA,A,3,14,24,25,26,33,,,,,,,,1.1,0.6,0.9*2F
###2023-12-09 12:53:01.967964$GPGSV,2,1,08,03,37,267,42,04,29,311,42,16,45,210,45,26,75,209,46*71
###2023-12-09 12:53:01.970286$GPGSV,2,2,08,28,52,066,44,29,26,065,42,31,71,026,47,32,23,138,41*7A
###2023-12-09 12:53:01.972615$GLGSV,2,1,06,65,20,328,43,71,45,172,46,72,72,285,46,73,39,039,47*64
###2023-12-09 12:53:01.974353$GLGSV,2,2,06,74,71,324,42,75,29,249,42,,,,,,,,*65
###2023-12-09 12:53:01.976686$GAGSV,1,1,04,04,26,312,42,19,85,252,40,21,84,154,46,27,36,048,44*6F
###2023-12-09 12:53:01.979025$GBGSV,2,1,05,14,47,194,44,24,76,016,48,25,38,259,45,26,29,061,44*60
###2023-12-09 12:53:01.980477$GBGSV,2,2,05,33,60,238,46,,,,,,,,,,,,*53
###2023-12-09 12:53:01.981797$GNVTG,213.21,T,,M,0.60,N,1.12,K,A*24
###2023-12-09 12:53:01.983448$GNGST,175301.10,18.000,,,,0.077,0.067,0.160*58
###2023-12-09 12:53:01.984735$GNZDA,175301.10,09,12,2023,00,00*71
###2023-12-09 12:53:01.985372$GNEBP,,,,,,M*13
###2023-12-09 12:53:02.153178$GNGGA,175301.30,4138.0574360,N,07032.3837434,W,1,24,0.6,13.307,M,-29.744,M,0.0,*5C
###2023-12-09 12:53:02.354091$GNGGA,175301.50,4138.0574039,N,07032.3837717,W,1,24,0.6,13.291,M,-29.744,M,0.0,*59
###2023-12-09 12:53:02.553823$GNGGA,175301.70,4138.0574260,N,07032.3838237,W,1,24,0.6,13.309,M,-29.744,M,0.0,*5D
###2023-12-09 12:53:02.753702$GNGGA,175301.90,4138.0574541,N,07032.3838790,W,1,24,0.6,13.318,M,-29.744,M,0.0,*5F
###2023-12-09 12:53:02.955437$GNRMC,175302.10,A,4138.0574412,N,07032.3839143,W,0.72,310.93,091223,,,A*59
###2023-12-09 12:53:02.958314$GNGGA,175302.10,4138.0574412,N,07032.3839143,W,1,24,0.6,13.320,M,-29.744,M,0.0,*51
###2023-12-09 12:53:02.960191$GPGSA,A,3,03,04,16,26,28,29,31,32,,,,,1.1,0.6,0.9*3B
###2023-12-09 12:53:02.961920$GLGSA,A,3,65,71,72,73,74,75,,,,,,,1.1,0.6,0.9*24
###2023-12-09 12:53:02.963539$GAGSA,A,3,04,19,21,27,,,,,,,,,1.1,0.6,0.9*26
###2023-12-09 12:53:02.965184$GBGSA,A,3,14,24,25,26,33,,,,,,,,1.1,0.6,0.9*2F
###2023-12-09 12:53:02.967533$GPGSV,2,1,08,03,37,267,43,04,29,311,42,16,45,210,44,26,75,209,46*71
###2023-12-09 12:53:02.969867$GPGSV,2,2,08,28,52,066,44,29,26,065,42,31,71,026,47,32,23,138,42*79
###2023-12-09 12:53:02.972222$GLGSV,2,1,06,65,20,328,43,71,45,172,46,72,72,285,46,73,39,039,47*64
###2023-12-09 12:53:02.973970$GLGSV,2,2,06,74,71,324,42,75,29,249,42,,,,,,,,*65
###2023-12-09 12:53:02.976304$GAGSV,1,1,04,04,26,312,41,19,85,252,40,21,84,154,46,27,36,048,45*6D
###2023-12-09 12:53:02.978640$GBGSV,2,1,05,14,47,194,46,24,76,016,49,25,38,259,45,26,29,061,44*63
###2023-12-09 12:53:02.980103$GBGSV,2,2,05,33,60,238,49,,,,,,,,,,,,*5C
###2023-12-09 12:53:02.981426$GNVTG,310.93,T,,M,0.72,N,1.33,K,A*2F
###2023-12-09 12:53:02.983085$GNGST,175302.10,18.000,,,,0.076,0.067,0.160*5A
###2023-12-09 12:53:02.984386$GNZDA,175302.10,09,12,2023,00,00*72
###2023-12-09 12:53:02.985028$GNEBP,,,,,,M*13
###2023-12-09 12:53:03.156031$GNGGA,175302.30,4138.0574007,N,07032.3839367,W,1,24,0.6,13.311,M,-29.744,M,0.0,*55
###2023-12-09 12:53:03.354792$GNGGA,175302.50,4138.0573944,N,07032.3839778,W,1,24,0.6,13.295,M,-29.744,M,0.0,*5D
###2023-12-09 12:53:03.553921$GNGGA,175302.70,4138.0574243,N,07032.3840280,W,1,24,0.6,13.304,M,-29.744,M,0.0,*51
###2023-12-09 12:53:03.754812$GNGGA,175302.90,4138.0574401,N,07032.3840725,W,1,24,0.6,13.304,M,-29.744,M,0.0,*55
###2023-12-09 12:53:03.954255$GNRMC,175303.10,A,4138.0574179,N,07032.3841006,W,0.64,310.93,091223,,,A*58
###2023-12-09 12:53:03.957140$GNGGA,175303.10,4138.0574179,N,07032.3841006,W,1,24,0.6,13.319,M,-29.744,M,0.0,*5D
###2023-12-09 12:53:03.959020$GPGSA,A,3,03,04,16,26,28,29,31,32,,,,,1.1,0.6,0.9*3B
###2023-12-09 12:53:03.960747$GLGSA,A,3,65,71,72,73,74,75,,,,,,,1.1,0.6,0.9*24
###2023-12-09 12:53:03.962343$GAGSA,A,3,04,19,21,27,,,,,,,,,1.1,0.6,0.9*26
###2023-12-09 12:53:03.964006$GBGSA,A,3,14,24,25,26,33,,,,,,,,1.1,0.6,0.9*2F
###2023-12-09 12:53:03.966335$GPGSV,2,1,08,03,37,267,42,04,29,311,42,16,45,210,45,26,75,209,47*70
###2023-12-09 12:53:03.968693$GPGSV,2,2,08,28,52,066,44,29,26,065,42,31,71,026,47,32,23,138,42*79
###2023-12-09 12:53:03.971297$GLGSV,2,1,06,65,20,328,43,71,45,172,46,72,72,285,46,73,39,039,47*64
###2023-12-09 12:53:03.973058$GLGSV,2,2,06,74,71,324,42,75,29,249,43,,,,,,,,*64
###2023-12-09 12:53:03.975399$GAGSV,1,1,04,04,26,312,41,19,85,252,40,21,84,154,46,27,36,048,45*6D
###2023-12-09 12:53:03.977726$GBGSV,2,1,05,14,47,194,45,24,76,016,48,25,38,259,43,26,29,061,43*60
###2023-12-09 12:53:03.979189$GBGSV,2,2,05,33,60,238,46,,,,,,,,,,,,*53
###2023-12-09 12:53:03.980510$GNVTG,310.93,T,,M,0.64,N,1.19,K,A*20
###2023-12-09 12:53:03.982157$GNGST,175303.10,18.000,,,,0.076,0.067,0.160*5B
###2023-12-09 12:53:03.983457$GNZDA,175303.10,09,12,2023,00,00*73
###2023-12-09 12:53:03.984098$GNEBP,,,,,,M*13
