###2023-12-09 13:44:45.028180$GBGSV,1,1,04,12,19,123,42,24,59,051,47,25,54,281,43,35,16,052,40*67
###2023-12-09 13:44:45.029526$GNVTG,243.17,T,,M,0.02,N,0.04,K,A*26
###2023-12-09 13:44:45.031158$GNGST,184444.10,6.900,,,,0.190,0.110,0.290*63
###2023-12-09 13:44:45.032447$GNZDA,184444.10,09,12,2023,00,00*79
###2023-12-09 13:44:45.033089$GNEBP,,,,,,M*13
###2023-12-09 13:44:45.205473$GNGGA,184444.30,4138.0391325,N,07032.4388985,W,1,18,0.8,13.859,M,-29.746,M,0.0,*54
###2023-12-09 13:44:45.398097$GNGGA,184444.50,4138.0391340,N,07032.4388990,W,1,18,0.8,13.858,M,-29.746,M,0.0,*54
###2023-12-09 13:44:45.596394$GNGGA,184444.70,4138.0391363,N,07032.4388982,W,1,18,0.8,13.864,M,-29.746,M,0.0,*5B
###2023-12-09 13:44:45.798939$GNGGA,184444.90,4138.0391398,N,07032.4388981,W,1,18,0.8,13.862,M,-29.746,M,0.0,*54
###2023-12-09 13:44:46.001957$GNRMC,184445.10,A,4138.0391427,N,07032.4388975,W,0.06,243.17,091223,,,A*5B
###2023-12-09 13:44:46.004849$GNGGA,184445.10,4138.0391427,N,07032.4388975,W,1,18,0.8,13.863,M,-29.746,M,0.0,*54
###2023-12-09 13:44:46.006584$GPGSA,A,3,04,16,26,28,29,31,,,,,,,1.3,0.8,1.1*3C
###2023-12-09 13:44:46.008330$GLGSA,A,3,65,72,73,74,75,83,,,,,,,1.3,0.8,1.1*2C
###2023-12-09 13:44:46.009780$GAGSA,A,3,04,27,,,,,,,,,,,1.3,0.8,1.1*28
###2023-12-09 13:44:46.011363$GBGSA,A,3,12,24,25,35,,,,,,,,,1.3,0.8,1.1*2E
###2023-12-09 13:44:46.013684$GPGSV,2,1,06,04,50,305,45,16,71,227,42,26,79,041,40,28,35,088,43*7A
###2023-12-09 13:44:46.015436$GPGSV,2,2,06,29,18,043,42,31,56,072,50,,,,,,,,*7D
###2023-12-09 13:44:46.017752$GLGSV,2,1,06,65,42,313,45,72,57,214,36,73,18,056,44,74,56,021,35*6B
###2023-12-09 13:44:46.019501$GLGSV,2,2,06,75,46,277,45,83,16,043,37,,,,,,,,*6F
###2023-12-09 13:44:46.021232$GAGSV,1,1,02,04,43,308,45,27,19,051,40,,,,,,,,*6E
###2023-12-09 13:44:46.023553$GBGSV,1,1,04,12,19,123,42,24,59,051,47,25,54,281,43,35,16,052,39*69
###2023-12-09 13:44:46.024877$GNVTG,243.17,T,,M,0.06,N,0.11,K,A*26
###2023-12-09 13:44:46.026482$GNGST,184445.10,7.000,,,,0.190,0.110,0.290*6A
###2023-12-09 13:44:46.027776$GNZDA,184445.10,09,12,2023,00,00*78
###2023-12-09 13:44:46.028413$GNEBP,,,,,,M*13
###2023-12-09 13:44:46.198169$GNGGA,184445.30,4138.0391437,N,07032.4388976,W,1,18,0.8,13.865,M,-29.746,M,0.0,*52
###2023-12-09 13:44:46.402060$GNGGA,184445.50,4138.0391450,N,07032.4388970,W,1,18,0.8,13.864,M,-29.746,M,0.0,*52
###2023-12-09 13:44:46.597229$GNGGA,184445.70,4138.0391448,N,07032.4388961,W,1,18,0.8,13.867,M,-29.746,M,0.0,*5A
###2023-12-09 13:44:46.797096$GNGGA,184445.90,4138.0391446,N,07032.4388967,W,1,18,0.8,13.865,M,-29.746,M,0.0,*5E
###2023-12-09 13:44:47.001055$GNRMC,184446.10,A,4138.0391469,N,07032.4388968,W,0.04,243.17,091223,,,A*5C
###2023-12-09 13:44:47.004137$GNGGA,184446.10,4138.0391469,N,07032.4388968,W,1,18,0.8,13.870,M,-29.746,M,0.0,*53
###2023-12-09 13:44:47.005984$GPGSA,A,3,04,16,26,28,29,31,,,,,,,1.3,0.8,1.1*3C
###2023-12-09 13:44:47.007814$GLGSA,A,3,65,72,73,74,75,83,,,,,,,1.3,0.8,1.1*2C
###2023-12-09 13:44:47.009272$GAGSA,A,3,04,27,,,,,,,,,,,1.3,0.8,1.1*28
###2023-12-09 13:44:47.010862$GBGSA,A,3,12,24,25,35,,,,,,,,,1.3,0.8,1.1*2E
###2023-12-09 13:44:47.013180$GPGSV,2,1,06,04,50,305,45,16,71,227,42,26,79,041,40,28,35,088,43*7A
###2023-12-09 13:44:47.014937$GPGSV,2,2,06,29,18,043,42,31,56,072,50,,,,,,,,*7D
###2023-12-09 13:44:47.017263$GLGSV,2,1,06,65,42,313,45,72,57,214,36,73,18,056,44,74,56,022,35*68
###2023-12-09 13:44:47.019019$GLGSV,2,2,06,75,46,277,45,83,16,043,38,,,,,,,,*60
###2023-12-09 13:44:47.020759$GAGSV,1,1,02,04,43,308,45,27,19,051,40,,,,,,,,*6E
###2023-12-09 13:44:47.023106$GBGSV,1,1,04,12,19,123,42,24,59,051,47,25,54,281,43,35,16,052,39*69
###2023-12-09 13:44:47.024432$GNVTG,243.17,T,,M,0.04,N,0.07,K,A*23
###2023-12-09 13:44:47.026043$GNGST,184446.10,7.400,,,,0.190,0.110,0.290*6D
###2023-12-09 13:44:47.027342$GNZDA,184446.10,09,12,2023,00,00*7B
###2023-12-09 13:44:47.027982$GNEBP,,,,,,M*13
###2023-12-09 13:44:47.198208$GNGGA,184446.30,4138.0391467,N,07032.4388976,W,1,18,0.8,13.870,M,-29.746,M,0.0,*50
###2023-12-09 13:44:47.398075$GNGGA,184446.50,4138.0391478,N,07032.4388973,W,1,18,0.8,13.873,M,-29.746,M,0.0,*5E
###2023-12-09 13:44:47.598214$GNGGA,184446.70,4138.0391477,N,07032.4388966,W,1,18,0.8,13.875,M,-29.746,M,0.0,*51
###2023-12-09 13:44:47.798470$GNGGA,184446.90,4138.0391493,N,07032.4388969,W,1,18,0.8,13.876,M,-29.746,M,0.0,*59
###2023-12-09 13:44:48.003580$GNRMC,184447.10,A,4138.0391493,N,07032.4388973,W,0.04,243.17,091223,,,A*52
###2023-12-09 13:44:48.006433$GNGGA,184447.10,4138.0391493,N,07032.4388973,W,1,18,0.8,13.875,M,-29.746,M,0.0,*58
###2023-12-09 13:44:48.008171$GPGSA,A,3,04,16,26,28,29,31,,,,,,,1.3,0.8,1.1*3C
###2023-12-09 13:44:48.009877$GLGSA,A,3,65,72,73,74,75,83,,,,,,,1.3,0.8,1.1*2C
###2023-12-09 13:44:48.011340$GAGSA,A,3,04,27,,,,,,,,,,,1.3,0.8,1.1*28
###2023-12-09 13:44:48.012916$GBGSA,A,3,12,24,25,35,,,,,,,,,1.3,0.8,1.1*2E
###2023-12-09 13:44:48.015247$GPGSV,2,1,06,04,50,305,45,16,71,227,42,26,79,041,40,28,35,088,43*7A
###2023-12-09 13:44:48.016990$GPGSV,2,2,06,29,18,043,42,31,56,072,50,,,,,,,,*7D
###2023-12-09 13:44:48.019356$GLGSV,2,1,06,65,42,313,45,72,57,214,36,73,18,056,44,74,56,022,35*68
###2023-12-09 13:44:48.021112$GLGSV,2,2,06,75,47,279,45,83,16,043,38,,,,,,,,*6F
###2023-12-09 13:44:48.022864$GAGSV,1,1,02,04,43,308,45,27,19,051,40,,,,,,,,*6E
###2023-12-09 13:44:48.025194$GBGSV,1,1,04,12,19,123,42,24,59,051,47,25,54,281,43,35,16,052,39*69
###2023-12-09 13:44:48.026521$GNVTG,243.17,T,,M,0.04,N,0.07,K,A*23
###2023-12-09 13:44:48.028145$GNGST,184447.10,7.500,,,,0.190,0.110,0.290*6D
###2023-12-09 13:44:48.029436$GNZDA,184447.10,09,12,2023,00,00*7A
###2023-12-09 13:44:48.030074$GNEBP,,,,,,M*13
###2023-12-09 13:44:48.199450$GNGGA,184447.30,4138.0391515,N,07032.4388970,W,1,18,0.8,13.881,M,-29.746,M,0.0,*5D
###2023-12-09 13:44:48.398677$GNGGA,184447.50,4138.0391535,N,07032.4388974,W,1,18,0.8,13.883,M,-29.746,M,0.0,*5F
###2023-12-09 13:44:48.600183$GNGGA,184447.70,4138.0391542,N,07032.4388972,W,1,18,0.8,13.883,M,-29.746,M,0.0,*5B
###2023-12-09 13:44:48.799102$GNGGA,184447.90,4138.0391569,N,07032.4388970,W,1,18,0.8,13.888,M,-29.746,M,0.0,*55
###2023-12-09 13:44:49.001461$GNRMC,184448.10,A,4138.0391570,N,07032.4388960,W,0.04,243.17,091223,,,A*53
###2023-12-09 13:44:49.004352$GNGGA,184448.10,4138.0391570,N,07032.4388960,W,1,18,0.8,13.892,M,-29.746,M,0.0,*50
###2023-12-09 13:44:49.006075$GPGSA,A,3,04,16,26,28,29,31,,,,,,,1.3,0.8,1.1*3C
###2023-12-09 13:44:49.007797$GLGSA,A,3,65,72,73,74,75,83,,,,,,,1.3,0.8,1.1*2C
###2023-12-09 13:44:49.009241$GAGSA,A,3,04,27,,,,,,,,,,,1.3,0.8,1.1*28
###2023-12-09 13:44:49.010824$GBGSA,A,3,12,24,25,35,,,,,,,,,1.3,0.8,1.1*2E
###2023-12-09 13:44:49.013138$GPGSV,2,1,06,04,50,305,45,16,71,227,42,26,79,041,40,28,35,088,43*7A
###2023-12-09 13:44:49.014891$GPGSV,2,2,06,29,18,043,42,31,56,072,50,,,,,,,,*7D
###2023-12-09 13:44:49.017216$GLGSV,2,1,06,65,42,313,45,72,57,214,35,73,18,056,44,74,56,022,35*6B
###2023-12-09 13:44:49.018967$GLGSV,2,2,06,75,47,279,46,83,16,043,38,,,,,,,,*6C
###2023-12-09 13:44:49.020703$GAGSV,1,1,02,04,43,308,45,27,19,051,40,,,,,,,,*6E
###2023-12-09 13:44:49.023035$GBGSV,1,1,04,12,19,123,42,24,59,051,47,25,54,281,43,35,16,052,39*69
###2023-12-09 13:44:49.024360$GNVTG,243.17,T,,M,0.04,N,0.07,K,A*23
###2023-12-09 13:44:49.025972$GNGST,184448.10,7.700,,,,0.190,0.110,0.290*60
###2023-12-09 13:44:49.027272$GNZDA,184448.10,09,12,2023,00,00*75
###2023-12-09 13:44:49.027907$GNEBP,,,,,,M*13
###2023-12-09 13:44:49.199323$GNGGA,184448.30,4138.0391555,N,07032.4388963,W,1,18,0.8,13.895,M,-29.746,M,0.0,*51
###2023-12-09 13:44:49.398878$GNGGA,184448.50,4138.0391563,N,07032.4388963,W,1,18,0.8,13.899,M,-29.746,M,0.0,*5E
###2023-12-09 13:44:49.598401$GNGGA,184448.70,4138.0391573,N,07032.4388960,W,1,18,0.8,13.904,M,-29.746,M,0.0,*5B
###2023-12-09 13:44:49.802049$GNGGA,184448.90,4138.0391577,N,07032.4388952,W,1,18,0.8,13.906,M,-29.746,M,0.0,*52
###2023-12-09 13:44:50.003751$GNRMC,184449.10,A,4138.0391592,N,07032.4388949,W,0.00,243.17,091223,,,A*51
###2023-12-09 13:44:50.006632$GNGGA,184449.10,4138.0391592,N,07032.4388949,W,1,18,0.8,13.907,M,-29.746,M,0.0,*5B
###2023-12-09 13:44:50.008364$GPGSA,A,3,04,16,26,28,29,31,,,,,,,1.3,0.8,1.1*3C
###2023-12-09 13:44:50.010330$GLGSA,A,3,65,72,73,74,75,83,,,,,,,1.3,0.8,1.1*2C
###2023-12-09 13:44:50.011807$GAGSA,A,3,04,27,,,,,,,,,,,1.3,0.8,1.1*28
###2023-12-09 13:44:50.013393$GBGSA,A,3,12,24,25,35,,,,,,,,,1.3,0.8,1.1*2E
###2023-12-09 13:44:50.015740$GPGSV,2,1,06,04,50,305,45,16,71,227,42,26,79,041,40,28,35,088,43*7A
###2023-12-09 13:44:50.017487$GPGSV,2,2,06,29,18,043,42,31,56,072,50,,,,,,,,*7D
###2023-12-09 13:44:50.019822$GLGSV,2,1,06,65,42,313,44,72,57,214,35,73,18,056,44,74,56,022,35*6A
###2023-12-09 13:44:50.021561$GLGSV,2,2,06,75,47,279,46,83,16,043,38,,,,,,,,*6C
###2023-12-09 13:44:50.023350$GAGSV,1,1,02,04,43,308,45,27,19,051,39,,,,,,,,*60
