###2023-12-09 13:47:26.037772$GNEBP,,,,,,M*13
###2023-12-09 13:47:26.205409$GNGGA,184725.30,4138.0394733,N,07032.4384987,W,1,18,0.7,15.627,M,-29.746,M,0.0,*56
###2023-12-09 13:47:26.402325$GNGGA,184725.50,4138.0394747,N,07032.4384971,W,1,18,0.7,15.630,M,-29.746,M,0.0,*5C
###2023-12-09 13:47:26.601945$GNGGA,184725.70,4138.0394739,N,07032.4384970,W,1,18,0.7,15.621,M,-29.746,M,0.0,*56
###2023-12-09 13:47:26.801025$GNGGA,184725.90,4138.0394745,N,07032.4384959,W,1,18,0.7,15.622,M,-29.746,M,0.0,*5B
###2023-12-09 13:47:27.003758$GNRMC,184726.10,A,4138.0394723,N,07032.4384947,W,0.04,243.17,091223,,,A*50
###2023-12-09 13:47:27.006629$GNGGA,184726.10,4138.0394723,N,07032.4384947,W,1,18,0.7,15.622,M,-29.746,M,0.0,*5F
###2023-12-09 13:47:27.008352$GPGSA,A,3,04,16,26,28,29,31,,,,,,,1.3,0.7,1.1*33
###2023-12-09 13:47:27.009988$GLGSA,A,3,65,72,73,74,75,,,,,,,,1.3,0.7,1.1*28
###2023-12-09 13:47:27.011513$GAGSA,A,3,04,21,27,,,,,,,,,,1.3,0.7,1.1*24
###2023-12-09 13:47:27.013089$GBGSA,A,3,12,24,25,33,,,,,,,,,1.3,0.7,1.1*27
###2023-12-09 13:47:27.015417$GPGSV,2,1,06,04,51,304,49,16,73,229,40,26,77,041,41,28,34,089,45*71
###2023-12-09 13:47:27.017158$GPGSV,2,2,06,29,18,043,41,31,56,073,50,,,,,,,,*7F
###2023-12-09 13:47:27.019486$GLGSV,2,1,05,65,43,312,44,72,56,213,38,73,17,056,39,74,55,024,38*6F
###2023-12-09 13:47:27.020936$GLGSV,2,2,05,75,47,280,46,,,,,,,,,,,,*59
###2023-12-09 13:47:27.022967$GAGSV,1,1,03,04,43,308,45,21,72,043,40,27,19,051,42,,,,*58
###2023-12-09 13:47:27.025289$GBGSV,1,1,04,12,19,122,42,24,58,052,46,25,54,282,44,33,40,213,35*61
###2023-12-09 13:47:27.026633$GNVTG,243.17,T,,M,0.04,N,0.07,K,A*23
###2023-12-09 13:47:27.028251$GNGST,184726.10,7.400,,,,0.200,0.120,0.320*6B
###2023-12-09 13:47:27.029538$GNZDA,184726.10,09,12,2023,00,00*7E
###2023-12-09 13:47:27.030175$GNEBP,,,,,,M*13
###2023-12-09 13:47:27.209166$GNGGA,184726.30,4138.0394737,N,07032.4384939,W,1,18,0.7,15.622,M,-29.746,M,0.0,*51
###2023-12-09 13:47:27.400967$GNGGA,184726.50,4138.0394733,N,07032.4384931,W,1,18,0.7,15.618,M,-29.746,M,0.0,*52
###2023-12-09 13:47:27.600960$GNGGA,184726.70,4138.0394740,N,07032.4384932,W,1,19,0.7,15.616,M,-29.746,M,0.0,*58
###2023-12-09 13:47:27.803420$GNGGA,184726.90,4138.0394737,N,07032.4384920,W,1,18,0.7,15.617,M,-29.746,M,0.0,*55
###2023-12-09 13:47:28.003899$GNRMC,184727.10,A,4138.0394721,N,07032.4384922,W,0.02,243.17,091223,,,A*56
###2023-12-09 13:47:28.006761$GNGGA,184727.10,4138.0394721,N,07032.4384922,W,1,18,0.7,15.618,M,-29.746,M,0.0,*56
###2023-12-09 13:47:28.008481$GPGSA,A,3,04,16,26,28,29,31,,,,,,,1.3,0.7,1.1*33
###2023-12-09 13:47:28.010122$GLGSA,A,3,65,72,73,74,75,,,,,,,,1.3,0.7,1.1*28
###2023-12-09 13:47:28.011656$GAGSA,A,3,04,21,27,,,,,,,,,,1.3,0.7,1.1*24
###2023-12-09 13:47:28.013231$GBGSA,A,3,12,24,25,33,,,,,,,,,1.3,0.7,1.1*27
###2023-12-09 13:47:28.015565$GPGSV,2,1,06,04,51,304,49,16,73,229,40,26,77,041,41,28,34,089,44*70
###2023-12-09 13:47:28.017309$GPGSV,2,2,06,29,18,043,41,31,56,073,50,,,,,,,,*7F
###2023-12-09 13:47:28.019643$GLGSV,2,1,05,65,43,312,44,72,56,213,39,73,17,056,39,74,55,024,38*6E
###2023-12-09 13:47:28.021096$GLGSV,2,2,05,75,47,280,46,,,,,,,,,,,,*59
###2023-12-09 13:47:28.023157$GAGSV,1,1,03,04,43,308,45,21,72,043,40,27,19,051,42,,,,*58
###2023-12-09 13:47:28.025483$GBGSV,1,1,04,12,19,122,42,24,58,052,46,25,54,282,44,33,40,213,35*61
###2023-12-09 13:47:28.026819$GNVTG,243.17,T,,M,0.02,N,0.04,K,A*26
###2023-12-09 13:47:28.028424$GNGST,184727.10,7.400,,,,0.200,0.120,0.320*6A
###2023-12-09 13:47:28.029701$GNZDA,184727.10,09,12,2023,00,00*7F
###2023-12-09 13:47:28.030336$GNEBP,,,,,,M*13
###2023-12-09 13:47:28.203102$GNGGA,184727.30,4138.0394722,N,07032.4384922,W,1,19,0.7,15.613,M,-29.746,M,0.0,*5D
###2023-12-09 13:47:28.408672$GNGGA,184727.50,4138.0394719,N,07032.4384899,W,1,19,0.7,15.614,M,-29.746,M,0.0,*55
###2023-12-09 13:47:28.601025$GNGGA,184727.70,4138.0394728,N,07032.4384883,W,1,18,0.8,15.612,M,-29.746,M,0.0,*56
###2023-12-09 13:47:28.800675$GNGGA,184727.90,4138.0394728,N,07032.4384881,W,1,18,0.8,15.610,M,-29.746,M,0.0,*58
###2023-12-09 13:47:29.005181$GNRMC,184728.10,A,4138.0394743,N,07032.4384878,W,0.04,243.17,091223,,,A*55
###2023-12-09 13:47:29.008276$GNGGA,184728.10,4138.0394743,N,07032.4384878,W,1,18,0.8,15.603,M,-29.746,M,0.0,*56
###2023-12-09 13:47:29.010136$GPGSA,A,3,04,16,26,28,29,31,,,,,,,1.3,0.8,1.1*3C
###2023-12-09 13:47:29.011915$GLGSA,A,3,65,72,73,74,75,,,,,,,,1.3,0.8,1.1*27
###2023-12-09 13:47:29.013533$GAGSA,A,3,04,21,27,,,,,,,,,,1.3,0.8,1.1*2B
###2023-12-09 13:47:29.015222$GBGSA,A,3,12,24,25,35,,,,,,,,,1.3,0.8,1.1*2E
###2023-12-09 13:47:29.017534$GPGSV,2,1,06,04,51,304,49,16,73,229,40,26,77,041,41,28,33,090,44*7F
###2023-12-09 13:47:29.019293$GPGSV,2,2,06,29,18,043,41,31,56,073,50,,,,,,,,*7F
###2023-12-09 13:47:29.021621$GLGSV,2,1,05,65,43,312,44,72,56,213,39,73,17,056,39,74,55,024,37*61
###2023-12-09 13:47:29.023084$GLGSV,2,2,05,75,47,280,46,,,,,,,,,,,,*59
###2023-12-09 13:47:29.025112$GAGSV,1,1,03,04,43,308,45,21,72,043,40,27,19,051,42,,,,*58
###2023-12-09 13:47:29.027480$GBGSV,1,1,04,12,19,122,42,24,58,052,46,25,54,282,44,35,16,051,35*60
###2023-12-09 13:47:29.028800$GNVTG,243.17,T,,M,0.04,N,0.07,K,A*23
###2023-12-09 13:47:29.030411$GNGST,184728.10,7.600,,,,0.200,0.120,0.320*67
###2023-12-09 13:47:29.031711$GNZDA,184728.10,09,12,2023,00,00*70
###2023-12-09 13:47:29.032349$GNEBP,,,,,,M*13
###2023-12-09 13:47:29.202491$GNGGA,184728.30,4138.0394730,N,07032.4384865,W,1,18,0.8,15.602,M,-29.746,M,0.0,*5D
###2023-12-09 13:47:29.402310$GNGGA,184728.50,4138.0394716,N,07032.4384865,W,1,18,0.8,15.595,M,-29.746,M,0.0,*52
###2023-12-09 13:47:29.601811$GNGGA,184728.70,4138.0394706,N,07032.4384855,W,1,18,0.8,15.592,M,-29.746,M,0.0,*55
###2023-12-09 13:47:29.802231$GNGGA,184728.90,4138.0394689,N,07032.4384856,W,1,18,0.8,15.592,M,-29.746,M,0.0,*5E
###2023-12-09 13:47:30.006291$GNRMC,184729.10,A,4138.0394671,N,07032.4384853,W,0.06,243.17,091223,,,A*5F
###2023-12-09 13:47:30.009180$GNGGA,184729.10,4138.0394671,N,07032.4384853,W,1,18,0.8,15.590,M,-29.746,M,0.0,*57
###2023-12-09 13:47:30.010921$GPGSA,A,3,04,16,26,28,29,31,,,,,,,1.3,0.8,1.1*3C
###2023-12-09 13:47:30.012569$GLGSA,A,3,65,72,73,74,75,,,,,,,,1.3,0.8,1.1*27
###2023-12-09 13:47:30.014090$GAGSA,A,3,04,21,27,,,,,,,,,,1.3,0.8,1.1*2B
###2023-12-09 13:47:30.015682$GBGSA,A,3,12,24,25,35,,,,,,,,,1.3,0.8,1.1*2E
###2023-12-09 13:47:30.018009$GPGSV,2,1,06,04,51,304,49,16,73,229,40,26,77,041,41,28,33,090,44*7F
###2023-12-09 13:47:30.019802$GPGSV,2,2,06,29,17,042,41,31,56,073,50,,,,,,,,*71
###2023-12-09 13:47:30.022134$GLGSV,2,1,05,65,43,312,44,72,56,213,38,73,17,056,40,74,55,024,37*6E
###2023-12-09 13:47:30.023595$GLGSV,2,2,05,75,47,280,46,,,,,,,,,,,,*59
###2023-12-09 13:47:30.025624$GAGSV,1,1,03,04,43,308,45,21,72,043,40,27,19,051,42,,,,*58
###2023-12-09 13:47:30.027957$GBGSV,1,1,04,12,19,122,42,24,58,052,46,25,54,282,44,35,16,051,36*63
###2023-12-09 13:47:30.029280$GNVTG,243.17,T,,M,0.06,N,0.11,K,A*26
###2023-12-09 13:47:30.030905$GNGST,184729.10,7.300,,,,0.200,0.120,0.320*63
###2023-12-09 13:47:30.032192$GNZDA,184729.10,09,12,2023,00,00*71
###2023-12-09 13:47:30.032828$GNEBP,,,,,,M*13
###2023-12-09 13:47:30.203946$GNGGA,184729.30,4138.0394660,N,07032.4384859,W,1,18,0.8,15.585,M,-29.746,M,0.0,*5B
###2023-12-09 13:47:30.404696$GNGGA,184729.50,4138.0394646,N,07032.4384854,W,1,18,0.8,15.583,M,-29.746,M,0.0,*52
###2023-12-09 13:47:30.602318$GNGGA,184729.70,4138.0394629,N,07032.4384857,W,1,18,0.8,15.578,M,-29.746,M,0.0,*5E
###2023-12-09 13:47:30.804606$GNGGA,184729.90,4138.0394601,N,07032.4384854,W,1,18,0.8,15.578,M,-29.746,M,0.0,*59
###2023-12-09 13:47:31.005287$GNRMC,184730.10,A,4138.0394577,N,07032.4384853,W,0.02,243.17,091223,,,A*56
###2023-12-09 13:47:31.008187$GNGGA,184730.10,4138.0394577,N,07032.4384853,W,1,18,0.8,15.576,M,-29.746,M,0.0,*52
###2023-12-09 13:47:31.009926$GPGSA,A,3,04,16,26,28,29,31,,,,,,,1.3,0.8,1.1*3C
###2023-12-09 13:47:31.011591$GLGSA,A,3,65,72,73,74,75,,,,,,,,1.3,0.8,1.1*27
###2023-12-09 13:47:31.013109$GAGSA,A,3,04,21,27,,,,,,,,,,1.3,0.8,1.1*2B
###2023-12-09 13:47:31.014706$GBGSA,A,3,12,24,25,35,,,,,,,,,1.3,0.8,1.1*2E
###2023-12-09 13:47:31.017043$GPGSV,2,1,06,04,51,304,49,16,73,229,40,26,77,041,41,28,33,090,44*7F
###2023-12-09 13:47:31.019041$GPGSV,2,2,06,29,17,042,41,31,56,073,50,,,,,,,,*71
###2023-12-09 13:47:31.021383$GLGSV,2,1,05,65,43,312,44,72,56,213,38,73,17,056,40,74,55,024,37*6E
###2023-12-09 13:47:31.022859$GLGSV,2,2,05,75,47,280,46,,,,,,,,,,,,*59
###2023-12-09 13:47:31.024897$GAGSV,1,1,03,04,43,308,45,21,72,043,40,27,19,051,42,,,,*58
###2023-12-09 13:47:31.027240$GBGSV,1,1,04,12,19,122,42,24,58,052,46,25,54,282,44,35,16,051,35*60
###2023-12-09 13:47:31.028569$GNVTG,243.17,T,,M,0.02,N,0.04,K,A*26
###2023-12-09 13:47:31.030184$GNGST,184730.10,7.700,,,,0.200,0.120,0.320*6F
###2023-12-09 13:47:31.031487$GNZDA,184730.10,09,12,2023,00,00*79
