###2023-12-09 12:52:02.554964$GNGGA,175201.70,4138.0609167,N,07032.3839043,W,1,24,0.6,13.254,M,-29.744,M,0.0,*58
###2023-12-09 12:52:02.753157$GNGGA,175201.90,4138.0609584,N,07032.3839518,W,1,24,0.6,13.249,M,-29.744,M,0.0,*58
###2023-12-09 12:52:02.954544$GNRMC,175202.10,A,4138.0609650,N,07032.3839603,W,0.21,320.27,091223,,,A*5C
###2023-12-09 12:52:02.958052$GNGGA,175202.10,4138.0609650,N,07032.3839603,W,1,24,0.6,13.262,M,-29.744,M,0.0,*59
###2023-12-09 12:52:02.960313$GPGSA,A,3,03,04,16,26,28,29,31,32,,,,,1.1,0.6,0.9*3B
###2023-12-09 12:52:02.962391$GLGSA,A,3,65,71,72,73,74,75,,,,,,,1.1,0.6,0.9*24
###2023-12-09 12:52:02.964327$GAGSA,A,3,04,19,21,27,,,,,,,,,1.1,0.6,0.9*26
###2023-12-09 12:52:02.966323$GBGSA,A,3,14,24,25,26,33,,,,,,,,1.1,0.6,0.9*2F
###2023-12-09 12:52:02.969154$GPGSV,2,1,08,03,37,267,45,04,29,311,45,16,45,210,43,26,75,209,48*79
###2023-12-09 12:52:02.971983$GPGSV,2,2,08,28,52,066,43,29,26,065,39,31,71,026,46,32,23,138,39*7F
###2023-12-09 12:52:02.974813$GLGSV,2,1,06,65,19,329,45,71,47,171,46,72,72,288,46,73,40,038,43*6E
###2023-12-09 12:52:02.976925$GLGSV,2,2,06,74,71,321,44,75,28,248,47,,,,,,,,*63
###2023-12-09 12:52:02.979745$GAGSV,1,1,04,04,26,312,44,19,85,258,40,21,83,157,46,27,36,048,42*61
###2023-12-09 12:52:02.982632$GBGSV,2,1,05,14,48,194,44,24,77,014,48,25,37,258,46,26,29,060,42*66
###2023-12-09 12:52:02.984398$GBGSV,2,2,05,33,60,240,48,,,,,,,,,,,,*52
###2023-12-09 12:52:02.986001$GNVTG,320.27,T,,M,0.21,N,0.40,K,A*20
###2023-12-09 12:52:02.988003$GNGST,175202.10,18.000,,,,0.076,0.068,0.160*54
###2023-12-09 12:52:02.989568$GNZDA,175202.10,09,12,2023,00,00*73
###2023-12-09 12:52:02.990337$GNEBP,,,,,,M*13
###2023-12-09 12:52:03.153689$GNGGA,175202.30,4138.0609548,N,07032.3839465,W,1,24,0.6,13.270,M,-29.744,M,0.0,*50
###2023-12-09 12:52:03.354677$GNGGA,175202.50,4138.0609578,N,07032.3839500,W,1,24,0.6,13.251,M,-29.744,M,0.0,*54
###2023-12-09 12:52:03.553679$GNGGA,175202.70,4138.0609999,N,07032.3839993,W,1,24,0.6,13.258,M,-29.744,M,0.0,*5A
###2023-12-09 12:52:03.754207$GNGGA,175202.90,4138.0610404,N,07032.3840458,W,1,24,0.6,13.248,M,-29.744,M,0.0,*50
###2023-12-09 12:52:03.956161$GNRMC,175203.10,A,4138.0610403,N,07032.3840447,W,0.41,317.57,091223,,,A*58
###2023-12-09 12:52:03.959628$GNGGA,175203.10,4138.0610403,N,07032.3840447,W,1,24,0.6,13.269,M,-29.744,M,0.0,*53
###2023-12-09 12:52:03.961864$GPGSA,A,3,03,04,16,26,28,29,31,32,,,,,1.1,0.6,0.9*3B
###2023-12-09 12:52:03.963951$GLGSA,A,3,65,71,72,73,74,75,,,,,,,1.1,0.6,0.9*24
###2023-12-09 12:52:03.965860$GAGSA,A,3,04,19,21,27,,,,,,,,,1.1,0.6,0.9*26
###2023-12-09 12:52:03.967865$GBGSA,A,3,14,24,25,26,33,,,,,,,,1.1,0.6,0.9*2F
###2023-12-09 12:52:03.970681$GPGSV,2,1,08,03,37,267,44,04,29,311,45,16,45,210,44,26,75,209,48*7F
###2023-12-09 12:52:03.973540$GPGSV,2,2,08,28,52,066,43,29,26,065,39,31,71,026,47,32,23,138,42*72
###2023-12-09 12:52:03.976387$GLGSV,2,1,06,65,19,329,46,71,47,171,46,72,72,288,46,73,40,038,43*6D
###2023-12-09 12:52:03.978502$GLGSV,2,2,06,74,71,321,43,75,28,248,46,,,,,,,,*65
###2023-12-09 12:52:03.981322$GAGSV,1,1,04,04,26,312,44,19,85,258,40,21,83,157,46,27,36,048,42*61
###2023-12-09 12:52:03.984148$GBGSV,2,1,05,14,48,194,43,24,77,014,48,25,37,258,45,26,29,060,40*60
###2023-12-09 12:52:03.985907$GBGSV,2,2,05,33,60,240,47,,,,,,,,,,,,*5D
###2023-12-09 12:52:03.987523$GNVTG,317.57,T,,M,0.41,N,0.76,K,A*20
###2023-12-09 12:52:03.989518$GNGST,175203.10,18.000,,,,0.076,0.068,0.160*55
###2023-12-09 12:52:03.991093$GNZDA,175203.10,09,12,2023,00,00*72
###2023-12-09 12:52:03.991864$GNEBP,,,,,,M*13
###2023-12-09 12:52:04.153743$GNGGA,175203.30,4138.0610268,N,07032.3840273,W,1,24,0.6,13.264,M,-29.744,M,0.0,*56
###2023-12-09 12:52:04.354249$GNGGA,175203.50,4138.0610439,N,07032.3840455,W,1,24,0.6,13.256,M,-29.744,M,0.0,*51
###2023-12-09 12:52:04.554421$GNGGA,175203.70,4138.0610932,N,07032.3841014,W,1,24,0.6,13.256,M,-29.744,M,0.0,*55
###2023-12-09 12:52:04.757276$GNGGA,175203.90,4138.0611208,N,07032.3841327,W,1,24,0.6,13.239,M,-29.744,M,0.0,*52
###2023-12-09 12:52:04.954154$GNRMC,175204.10,A,4138.0611114,N,07032.3841224,W,0.37,320.39,091223,,,A*52
###2023-12-09 12:52:04.957647$GNGGA,175204.10,4138.0611114,N,07032.3841224,W,1,24,0.6,13.268,M,-29.744,M,0.0,*55
###2023-12-09 12:52:04.959913$GPGSA,A,3,03,04,16,26,28,29,31,32,,,,,1.1,0.6,0.9*3B
###2023-12-09 12:52:04.961989$GLGSA,A,3,65,71,72,73,74,75,,,,,,,1.1,0.6,0.9*24
###2023-12-09 12:52:04.963929$GAGSA,A,3,04,19,21,27,,,,,,,,,1.1,0.6,0.9*26
###2023-12-09 12:52:04.965963$GBGSA,A,3,14,24,25,26,33,,,,,,,,1.1,0.6,0.9*2F
###2023-12-09 12:52:04.968811$GPGSV,2,1,08,03,37,267,44,04,29,311,44,16,45,210,44,26,75,209,49*7F
###2023-12-09 12:52:04.971643$GPGSV,2,2,08,28,52,066,44,29,26,065,39,31,71,026,46,32,23,138,44*72
###2023-12-09 12:52:04.974471$GLGSV,2,1,06,65,19,329,44,71,47,171,48,72,72,288,46,73,40,038,43*61
###2023-12-09 12:52:04.976596$GLGSV,2,2,06,74,71,321,43,75,28,248,45,,,,,,,,*66
###2023-12-09 12:52:04.979419$GAGSV,1,1,04,04,26,312,43,19,85,258,40,21,83,157,46,27,36,048,42*66
###2023-12-09 12:52:04.982231$GBGSV,2,1,05,14,48,194,45,24,77,014,48,25,37,258,45,26,29,060,43*65
###2023-12-09 12:52:04.984009$GBGSV,2,2,05,33,60,240,48,,,,,,,,,,,,*52
###2023-12-09 12:52:04.985611$GNVTG,320.39,T,,M,0.37,N,0.68,K,A*22
###2023-12-09 12:52:04.987621$GNGST,175204.10,18.000,,,,0.076,0.068,0.160*52
###2023-12-09 12:52:04.989189$GNZDA,175204.10,09,12,2023,00,00*75
###2023-12-09 12:52:04.989967$GNEBP,,,,,,M*13
###2023-12-09 12:52:05.153946$GNGGA,175204.30,4138.0611044,N,07032.3841161,W,1,24,0.6,13.263,M,-29.744,M,0.0,*5A
###2023-12-09 12:52:05.353632$GNGGA,175204.50,4138.0611330,N,07032.3841463,W,1,24,0.6,13.266,M,-29.744,M,0.0,*5E
###2023-12-09 12:52:05.553522$GNGGA,175204.70,4138.0611769,N,07032.3841965,W,1,24,0.6,13.255,M,-29.744,M,0.0,*5F
###2023-12-09 12:52:05.755746$GNGGA,175204.90,4138.0611913,N,07032.3842159,W,1,24,0.6,13.260,M,-29.744,M,0.0,*50
###2023-12-09 12:52:05.955653$GNRMC,175205.10,A,4138.0611818,N,07032.3842060,W,0.21,319.86,091223,,,A*5E
###2023-12-09 12:52:05.959162$GNGGA,175205.10,4138.0611818,N,07032.3842060,W,1,24,0.6,13.276,M,-29.744,M,0.0,*5F
###2023-12-09 12:52:05.961407$GPGSA,A,3,03,04,16,26,28,29,31,32,,,,,1.1,0.6,0.9*3B
###2023-12-09 12:52:05.963502$GLGSA,A,3,65,71,72,73,74,75,,,,,,,1.1,0.6,0.9*24
###2023-12-09 12:52:05.965418$GAGSA,A,3,04,19,21,27,,,,,,,,,1.1,0.6,0.9*26
###2023-12-09 12:52:05.967443$GBGSA,A,3,14,24,25,26,33,,,,,,,,1.1,0.6,0.9*2F
###2023-12-09 12:52:05.970256$GPGSV,2,1,08,03,37,267,43,04,29,311,43,16,45,210,45,26,75,209,49*7E
###2023-12-09 12:52:05.973081$GPGSV,2,2,08,28,52,066,44,29,26,065,40,31,71,026,47,32,23,138,44*7D
###2023-12-09 12:52:05.975911$GLGSV,2,1,06,65,19,329,44,71,47,171,48,72,72,288,46,73,40,038,43*61
###2023-12-09 12:52:05.978026$GLGSV,2,2,06,74,71,321,43,75,28,248,47,,,,,,,,*64
###2023-12-09 12:52:05.980850$GAGSV,1,1,04,04,26,312,42,19,85,258,40,21,83,157,46,27,36,048,42*67
###2023-12-09 12:52:05.983686$GBGSV,2,1,05,14,48,194,45,24,77,014,49,25,37,258,46,26,29,060,44*60
###2023-12-09 12:52:05.985449$GBGSV,2,2,05,33,60,240,49,,,,,,,,,,,,*53
###2023-12-09 12:52:05.987057$GNVTG,319.86,T,,M,0.21,N,0.40,K,A*21
###2023-12-09 12:52:05.989075$GNGST,175205.10,18.000,,,,0.076,0.068,0.160*53
###2023-12-09 12:52:05.990648$GNZDA,175205.10,09,12,2023,00,00*74
###2023-12-09 12:52:05.991421$GNEBP,,,,,,M*13
###2023-12-09 12:52:06.154260$GNGGA,175205.30,4138.0611829,N,07032.3842064,W,1,24,0.6,13.264,M,-29.744,M,0.0,*58
###2023-12-09 12:52:06.354218$GNGGA,175205.50,4138.0612142,N,07032.3842411,W,1,24,0.6,13.259,M,-29.744,M,0.0,*51
###2023-12-09 12:52:06.555159$GNGGA,175205.70,4138.0612535,N,07032.3842865,W,1,24,0.6,13.249,M,-29.744,M,0.0,*59
###2023-12-09 12:52:06.753623$GNGGA,175205.90,4138.0612612,N,07032.3842991,W,1,24,0.6,13.258,M,-29.744,M,0.0,*5B
###2023-12-09 12:52:06.954356$GNRMC,175206.10,A,4138.0612552,N,07032.3842925,W,0.04,317.75,091223,,,A*50
###2023-12-09 12:52:06.957219$GNGGA,175206.10,4138.0612552,N,07032.3842925,W,1,24,0.6,13.267,M,-29.744,M,0.0,*54
###2023-12-09 12:52:06.959085$GPGSA,A,3,03,04,16,26,28,29,31,32,,,,,1.1,0.6,0.9*3B
###2023-12-09 12:52:06.960793$GLGSA,A,3,65,71,72,73,74,75,,,,,,,1.1,0.6,0.9*24
###2023-12-09 12:52:06.962634$GAGSA,A,3,04,19,21,27,,,,,,,,,1.1,0.6,0.9*26
###2023-12-09 12:52:06.964295$GBGSA,A,3,14,24,25,26,33,,,,,,,,1.1,0.6,0.9*2F
###2023-12-09 12:52:06.966663$GPGSV,2,1,08,03,37,267,43,04,29,311,42,16,45,210,46,26,75,209,48*7D
###2023-12-09 12:52:06.969032$GPGSV,2,2,08,28,52,066,43,29,26,065,40,31,71,026,46,32,23,138,44*7B
###2023-12-09 12:52:06.971394$GLGSV,2,1,06,65,19,329,43,71,47,171,48,72,72,288,46,73,40,038,42*67
###2023-12-09 12:52:06.973152$GLGSV,2,2,06,74,71,321,43,75,28,248,46,,,,,,,,*65
###2023-12-09 12:52:06.975496$GAGSV,1,1,04,04,26,312,42,19,85,258,40,21,83,157,46,27,36,048,43*66
###2023-12-09 12:52:06.977836$GBGSV,2,1,05,14,48,194,46,24,77,014,49,25,37,258,46,26,29,060,43*64
###2023-12-09 12:52:06.979301$GBGSV,2,2,05,33,60,240,48,,,,,,,,,,,,*52
###2023-12-09 12:52:06.980623$GNVTG,317.75,T,,M,0.04,N,0.07,K,A*27
