###2023-12-09 13:38:57.020337$GAGSA,A,3,04,19,21,27,,,,,,,,,1.0,0.6,0.8*26
###2023-12-09 13:38:57.022074$GBGSA,A,3,12,14,24,25,33,35,,,,,,,1.0,0.6,0.8*2E
###2023-12-09 13:38:57.024423$GPGSV,2,1,08,03,25,245,42,04,48,307,46,16,68,224,47,26,82,040,47*7A
###2023-12-09 13:38:57.026776$GPGSV,2,2,08,27,18,172,39,28,37,086,42,29,20,046,39,31,58,068,45*74
###2023-12-09 13:38:57.029102$GLGSV,2,1,06,65,40,316,44,71,20,176,41,72,60,217,47,73,20,054,40*65
###2023-12-09 13:38:57.030856$GLGSV,2,2,06,74,58,018,42,75,45,275,49,,,,,,,,*6C
###2023-12-09 13:38:57.033176$GAGSV,1,1,04,04,41,309,45,19,70,181,41,21,75,045,45,27,21,050,37*62
###2023-12-09 13:38:57.035520$GBGSV,2,1,06,12,17,125,40,14,27,189,40,24,61,048,47,25,52,278,47*6D
###2023-12-09 13:38:57.037257$GBGSV,2,2,06,33,44,215,46,35,16,055,40,,,,,,,,*6C
###2023-12-09 13:38:57.038596$GNVTG,28.96,T,,M,0.86,N,1.58,K,A*14
###2023-12-09 13:38:57.040208$GNGST,183856.10,5.300,,,,0.091,0.068,0.160*60
###2023-12-09 13:38:57.041495$GNZDA,183856.10,09,12,2023,00,00*71
###2023-12-09 13:38:57.042135$GNEBP,,,,,,M*13
###2023-12-09 13:38:57.208186$GNGGA,183856.30,4138.0681731,N,07032.3919905,W,1,25,0.6,13.211,M,-29.744,M,0.0,*50
###2023-12-09 13:38:57.401285$GNGGA,183856.50,4138.0682249,N,07032.3919580,W,1,25,0.6,13.201,M,-29.744,M,0.0,*5F
###2023-12-09 13:38:57.601415$GNGGA,183856.70,4138.0682822,N,07032.3919304,W,1,25,0.6,13.199,M,-29.744,M,0.0,*52
###2023-12-09 13:38:57.803966$GNGGA,183856.90,4138.0683249,N,07032.3918942,W,1,25,0.6,13.208,M,-29.744,M,0.0,*58
###2023-12-09 13:38:58.008391$GNRMC,183857.10,A,4138.0683523,N,07032.3918476,W,0.72,19.13,091223,,,A*60
###2023-12-09 13:38:58.015626$GNGGA,183857.10,4138.0683523,N,07032.3918476,W,1,25,0.6,13.223,M,-29.744,M,0.0,*59
###2023-12-09 13:38:58.017969$GPGSA,A,3,03,04,16,26,27,28,29,31,,,,,1.0,0.6,0.8*3F
###2023-12-09 13:38:58.019679$GLGSA,A,3,65,71,72,73,74,75,,,,,,,1.0,0.6,0.8*24
###2023-12-09 13:38:58.021242$GAGSA,A,3,04,19,21,27,,,,,,,,,1.0,0.6,0.8*26
###2023-12-09 13:38:58.022941$GBGSA,A,3,12,14,24,25,33,35,,,,,,,1.0,0.6,0.8*2E
###2023-12-09 13:38:58.025236$GPGSV,2,1,08,03,25,245,42,04,48,307,46,16,68,224,47,26,82,040,48*75
###2023-12-09 13:38:58.027545$GPGSV,2,2,08,27,18,172,40,28,37,086,42,29,20,046,41,31,58,068,45*75
###2023-12-09 13:38:58.029876$GLGSV,2,1,06,65,40,316,44,71,20,176,40,72,60,217,47,73,20,054,40*64
###2023-12-09 13:38:58.031626$GLGSV,2,2,06,74,58,018,42,75,45,275,49,,,,,,,,*6C
###2023-12-09 13:38:58.033926$GAGSV,1,1,04,04,41,309,44,19,70,181,41,21,75,045,46,27,21,050,39*6E
###2023-12-09 13:38:58.036335$GBGSV,2,1,06,12,17,125,38,14,27,189,40,24,61,048,47,25,52,278,48*6D
###2023-12-09 13:38:58.038093$GBGSV,2,2,06,33,44,215,46,35,16,055,41,,,,,,,,*6D
###2023-12-09 13:38:58.039386$GNVTG,19.13,T,,M,0.72,N,1.33,K,A*1D
###2023-12-09 13:38:58.040977$GNGST,183857.10,5.600,,,,0.091,0.068,0.160*64
###2023-12-09 13:38:58.042248$GNZDA,183857.10,09,12,2023,00,00*70
###2023-12-09 13:38:58.042891$GNEBP,,,,,,M*13
###2023-12-09 13:38:58.203386$GNGGA,183857.30,4138.0683750,N,07032.3918035,W,1,25,0.6,13.231,M,-29.744,M,0.0,*5D
###2023-12-09 13:38:58.402889$GNGGA,183857.50,4138.0684096,N,07032.3917682,W,1,25,0.6,13.226,M,-29.744,M,0.0,*52
###2023-12-09 13:38:58.600406$GNGGA,183857.70,4138.0684596,N,07032.3917444,W,1,25,0.6,13.232,M,-29.744,M,0.0,*58
###2023-12-09 13:38:58.801485$GNGGA,183857.90,4138.0685061,N,07032.3917164,W,1,25,0.6,13.244,M,-29.744,M,0.0,*5C
###2023-12-09 13:38:59.002962$GNRMC,183858.10,A,4138.0685209,N,07032.3916731,W,0.64,21.44,091223,,,A*66
###2023-12-09 13:38:59.005816$GNGGA,183858.10,4138.0685209,N,07032.3916731,W,1,25,0.6,13.256,M,-29.744,M,0.0,*53
###2023-12-09 13:38:59.007692$GPGSA,A,3,03,04,16,26,27,28,29,31,,,,,1.0,0.6,0.8*3F
###2023-12-09 13:38:59.009412$GLGSA,A,3,65,71,72,73,74,75,,,,,,,1.0,0.6,0.8*24
###2023-12-09 13:38:59.011006$GAGSA,A,3,04,19,21,27,,,,,,,,,1.0,0.6,0.8*26
###2023-12-09 13:38:59.012719$GBGSA,A,3,12,14,24,25,33,35,,,,,,,1.0,0.6,0.8*2E
###2023-12-09 13:38:59.015062$GPGSV,2,1,08,03,25,245,41,04,48,307,45,16,68,224,47,26,82,040,48*75
###2023-12-09 13:38:59.017396$GPGSV,2,2,08,27,18,172,38,28,37,086,42,29,20,046,42,31,58,068,45*79
###2023-12-09 13:38:59.019738$GLGSV,2,1,06,65,40,316,44,71,20,176,42,72,60,217,47,73,20,054,41*67
###2023-12-09 13:38:59.021487$GLGSV,2,2,06,74,58,018,42,75,45,275,47,,,,,,,,*62
###2023-12-09 13:38:59.023817$GAGSV,1,1,04,04,41,309,44,19,70,181,41,21,75,045,46,27,21,050,40*60
###2023-12-09 13:38:59.026148$GBGSV,2,1,06,12,17,125,38,14,27,189,39,24,61,048,47,25,52,278,47*6C
###2023-12-09 13:38:59.027911$GBGSV,2,2,06,33,44,215,45,35,16,055,43,,,,,,,,*6C
###2023-12-09 13:38:59.029203$GNVTG,21.44,T,,M,0.64,N,1.19,K,A*1B
###2023-12-09 13:38:59.030858$GNGST,183858.10,6.000,,,,0.091,0.068,0.160*6E
###2023-12-09 13:38:59.032152$GNZDA,183858.10,09,12,2023,00,00*7F
###2023-12-09 13:38:59.032792$GNEBP,,,,,,M*13
###2023-12-09 13:38:59.200869$GNGGA,183858.30,4138.0685239,N,07032.3916297,W,1,25,0.6,13.262,M,-29.744,M,0.0,*5C
###2023-12-09 13:38:59.399766$GNGGA,183858.50,4138.0685561,N,07032.3915939,W,1,25,0.6,13.266,M,-29.744,M,0.0,*58
###2023-12-09 13:38:59.599631$GNGGA,183858.70,4138.0686154,N,07032.3915553,W,1,25,0.6,13.275,M,-29.744,M,0.0,*59
###2023-12-09 13:38:59.798637$GNGGA,183858.90,4138.0686445,N,07032.3914978,W,1,25,0.6,13.269,M,-29.744,M,0.0,*5B
###2023-12-09 13:39:00.003460$GNRMC,183859.10,A,4138.0686382,N,07032.3914265,W,0.99,96.02,091223,,,A*6C
###2023-12-09 13:39:00.006326$GNGGA,183859.10,4138.0686382,N,07032.3914265,W,1,25,0.6,13.296,M,-29.744,M,0.0,*59
###2023-12-09 13:39:00.008192$GPGSA,A,3,03,04,16,26,27,28,29,31,,,,,1.0,0.6,0.8*3F
###2023-12-09 13:39:00.009910$GLGSA,A,3,65,71,72,73,74,75,,,,,,,1.0,0.6,0.8*24
###2023-12-09 13:39:00.011508$GAGSA,A,3,04,19,21,27,,,,,,,,,1.0,0.6,0.8*26
###2023-12-09 13:39:00.013233$GBGSA,A,3,12,14,24,25,33,35,,,,,,,1.0,0.6,0.8*2E
###2023-12-09 13:39:00.015585$GPGSV,2,1,08,03,25,245,41,04,48,307,45,16,68,224,47,26,82,040,48*75
###2023-12-09 13:39:00.017926$GPGSV,2,2,08,27,18,172,41,28,37,086,43,29,20,046,42,31,58,068,46*75
###2023-12-09 13:39:00.020270$GLGSV,2,1,06,65,40,316,43,71,20,176,44,72,60,217,47,73,20,054,41*66
###2023-12-09 13:39:00.022014$GLGSV,2,2,06,74,58,018,42,75,45,275,46,,,,,,,,*63
###2023-12-09 13:39:00.024352$GAGSV,1,1,04,04,41,309,45,19,70,181,41,21,75,045,46,27,21,050,39*6F
###2023-12-09 13:39:00.026705$GBGSV,2,1,06,12,17,125,39,14,27,189,42,24,61,048,48,25,52,278,47*6E
###2023-12-09 13:39:00.028459$GBGSV,2,2,06,33,44,215,47,35,16,055,43,,,,,,,,*6E
###2023-12-09 13:39:00.029751$GNVTG,96.02,T,,M,0.99,N,1.84,K,A*13
###2023-12-09 13:39:00.031379$GNGST,183859.10,5.500,,,,0.091,0.068,0.160*69
###2023-12-09 13:39:00.032675$GNZDA,183859.10,09,12,2023,00,00*7E
###2023-12-09 13:39:00.033314$GNEBP,,,,,,M*13
###2023-12-09 13:39:00.201218$GNGGA,183859.30,4138.0686468,N,07032.3913436,W,1,25,0.6,13.309,M,-29.744,M,0.0,*58
###2023-12-09 13:39:00.402549$GNGGA,183859.50,4138.0686838,N,07032.3912554,W,1,25,0.6,13.317,M,-29.744,M,0.0,*5C
###2023-12-09 13:39:00.599264$GNGGA,183859.70,4138.0687204,N,07032.3911582,W,1,25,0.6,13.305,M,-29.744,M,0.0,*51
###2023-12-09 13:39:00.801102$GNGGA,183859.90,4138.0687398,N,07032.3910409,W,1,25,0.6,13.316,M,-29.744,M,0.0,*5A
###2023-12-09 13:39:01.006037$GNRMC,183900.10,A,4138.0687542,N,07032.3909054,W,1.90,81.26,091223,,,A*6E
###2023-12-09 13:39:01.008902$GNGGA,183900.10,4138.0687542,N,07032.3909054,W,1,25,0.6,13.339,M,-29.744,M,0.0,*57
###2023-12-09 13:39:01.010768$GPGSA,A,3,03,04,16,26,27,28,29,31,,,,,1.0,0.6,0.8*3F
###2023-12-09 13:39:01.012479$GLGSA,A,3,65,71,72,73,74,75,,,,,,,1.0,0.6,0.8*24
###2023-12-09 13:39:01.014060$GAGSA,A,3,04,19,21,27,,,,,,,,,1.0,0.6,0.8*26
###2023-12-09 13:39:01.015783$GBGSA,A,3,12,14,24,25,33,35,,,,,,,1.0,0.6,0.8*2E
###2023-12-09 13:39:01.018102$GPGSV,2,1,08,03,25,245,41,04,48,307,45,16,68,224,47,26,82,040,48*75
###2023-12-09 13:39:01.020434$GPGSV,2,2,08,27,18,172,40,28,37,086,43,29,20,046,40,31,58,068,46*76
###2023-12-09 13:39:01.022767$GLGSV,2,1,06,65,40,316,44,71,20,176,42,72,60,217,46,73,20,054,41*66
###2023-12-09 13:39:01.024511$GLGSV,2,2,06,74,58,018,42,75,45,275,48,,,,,,,,*6D
###2023-12-09 13:39:01.026846$GAGSV,1,1,04,04,41,309,44,19,70,181,41,21,75,045,46,27,21,050,39*6E
###2023-12-09 13:39:01.029443$GBGSV,2,1,06,12,17,125,38,14,27,189,40,24,61,048,46,25,52,278,46*62
###2023-12-09 13:39:01.031205$GBGSV,2,2,06,33,44,215,45,35,16,055,42,,,,,,,,*6D
###2023-12-09 13:39:01.032495$GNVTG,81.26,T,,M,1.90,N,3.53,K,A*13
###2023-12-09 13:39:01.034106$GNGST,183900.10,5.700,,,,0.091,0.068,0.160*66
###2023-12-09 13:39:01.035406$GNZDA,183900.10,09,12,2023,00,00*73
###2023-12-09 13:39:01.036045$GNEBP,,,,,,M*13
###2023-12-09 13:39:01.201445$GNGGA,183900.30,4138.0687793,N,07032.3907656,W,1,25,0.6,13.345,M,-29.744,M,0.0,*5A
###2023-12-09 13:39:01.400080$GNGGA,183900.50,4138.0688186,N,07032.3906179,W,1,25,0.6,13.339,M,-29.744,M,0.0,*51
###2023-12-09 13:39:01.598526$GNGGA,183900.70,4138.0688674,N,07032.3904760,W,1,25,0.6,13.333,M,-29.744,M,0.0,*5F
