###2023-12-09 13:03:42.562956$GNGGA,180341.70,4138.0604793,N,07032.3827162,W,1,24,0.6,13.367,M,-29.744,M,0.0,*5B
###2023-12-09 13:03:42.763212$GNGGA,180341.90,4138.0604793,N,07032.3824787,W,1,24,0.6,13.355,M,-29.744,M,0.0,*5A
###2023-12-09 13:03:42.968510$GNRMC,180342.10,A,4138.0604942,N,07032.3822365,W,3.34,87.17,091223,,,A*67
###2023-12-09 13:03:42.971371$GNGGA,180342.10,4138.0604942,N,07032.3822365,W,1,24,0.6,13.362,M,-29.744,M,0.0,*59
###2023-12-09 13:03:42.973222$GPGSA,A,3,03,04,16,26,28,29,31,32,,,,,1.1,0.6,0.9*3B
###2023-12-09 13:03:42.974944$GLGSA,A,3,65,71,72,73,74,75,,,,,,,1.1,0.6,0.9*24
###2023-12-09 13:03:42.976523$GAGSA,A,3,04,19,21,27,,,,,,,,,1.1,0.6,0.9*26
###2023-12-09 13:03:42.978160$GBGSA,A,3,14,24,25,26,33,,,,,,,,1.1,0.6,0.9*2F
###2023-12-09 13:03:42.980489$GPGSV,2,1,08,03,34,260,44,04,33,311,43,16,51,213,47,26,81,210,48*70
###2023-12-09 13:03:42.982819$GPGSV,2,2,08,28,48,071,43,29,25,060,40,31,68,040,47,32,18,140,42*78
###2023-12-09 13:03:42.985139$GLGSV,2,1,06,65,25,327,40,71,40,173,45,72,73,265,46,73,35,042,44*66
###2023-12-09 13:03:42.986889$GLGSV,2,2,06,74,69,340,43,75,33,254,47,,,,,,,,*6D
###2023-12-09 13:03:42.989209$GAGSV,1,1,04,04,29,312,39,19,84,213,40,21,86,114,45,27,32,048,42*6F
###2023-12-09 13:03:42.991575$GBGSV,2,1,05,14,43,193,46,24,73,026,48,25,41,263,47,26,26,063,41*6A
###2023-12-09 13:03:42.993034$GBGSV,2,2,05,33,57,231,48,,,,,,,,,,,,*50
###2023-12-09 13:03:42.994323$GNVTG,87.17,T,,M,3.34,N,6.19,K,A*10
###2023-12-09 13:03:42.995976$GNGST,180342.10,18.000,,,,0.081,0.067,0.160*5C
###2023-12-09 13:03:42.997266$GNZDA,180342.10,09,12,2023,00,00*7C
###2023-12-09 13:03:42.997905$GNEBP,,,,,,M*13
###2023-12-09 13:03:43.161873$GNGGA,180342.30,4138.0604955,N,07032.3819931,W,1,24,0.6,13.355,M,-29.744,M,0.0,*5A
###2023-12-09 13:03:43.362776$GNGGA,180342.50,4138.0604867,N,07032.3817484,W,1,24,0.6,13.344,M,-29.744,M,0.0,*51
###2023-12-09 13:03:43.563619$GNGGA,180342.70,4138.0604845,N,07032.3815057,W,1,24,0.6,13.355,M,-29.744,M,0.0,*5B
###2023-12-09 13:03:43.767605$GNGGA,180342.90,4138.0604832,N,07032.3812547,W,1,24,0.6,13.346,M,-29.744,M,0.0,*54
###2023-12-09 13:03:43.965918$GNRMC,180343.10,A,4138.0604760,N,07032.3810072,W,3.29,93.24,091223,,,A*65
###2023-12-09 13:03:43.968806$GNGGA,180343.10,4138.0604760,N,07032.3810072,W,1,24,0.6,13.336,M,-29.744,M,0.0,*53
###2023-12-09 13:03:43.970686$GPGSA,A,3,03,04,16,26,28,29,31,32,,,,,1.1,0.6,0.9*3B
###2023-12-09 13:03:43.972416$GLGSA,A,3,65,71,72,73,74,75,,,,,,,1.1,0.6,0.9*24
###2023-12-09 13:03:43.974005$GAGSA,A,3,04,19,21,27,,,,,,,,,1.1,0.6,0.9*26
###2023-12-09 13:03:43.975672$GBGSA,A,3,14,24,25,26,33,,,,,,,,1.1,0.6,0.9*2F
###2023-12-09 13:03:43.978007$GPGSV,2,1,08,03,34,260,45,04,33,311,42,16,51,213,47,26,81,210,48*70
###2023-12-09 13:03:43.980342$GPGSV,2,2,08,28,48,071,43,29,25,060,41,31,68,040,47,32,18,140,41*7A
###2023-12-09 13:03:43.982689$GLGSV,2,1,06,65,25,327,41,71,40,173,45,72,73,265,45,73,35,042,43*63
###2023-12-09 13:03:43.984438$GLGSV,2,2,06,74,69,340,43,75,33,254,48,,,,,,,,*62
###2023-12-09 13:03:43.986760$GAGSV,1,1,04,04,29,312,38,19,84,213,40,21,86,114,45,27,32,048,42*6E
###2023-12-09 13:03:43.989081$GBGSV,2,1,05,14,43,193,45,24,73,026,48,25,41,263,47,26,26,063,41*69
###2023-12-09 13:03:43.990533$GBGSV,2,2,05,33,57,231,48,,,,,,,,,,,,*50
###2023-12-09 13:03:43.991833$GNVTG,93.24,T,,M,3.29,N,6.08,K,A*19
###2023-12-09 13:03:43.993479$GNGST,180343.10,18.000,,,,0.081,0.067,0.160*5D
###2023-12-09 13:03:43.994787$GNZDA,180343.10,09,12,2023,00,00*7D
###2023-12-09 13:03:43.995426$GNEBP,,,,,,M*13
###2023-12-09 13:03:44.163835$GNGGA,180343.30,4138.0604646,N,07032.3807610,W,1,24,0.6,13.344,M,-29.744,M,0.0,*55
###2023-12-09 13:03:44.364487$GNGGA,180343.50,4138.0604497,N,07032.3805112,W,1,24,0.6,13.346,M,-29.744,M,0.0,*58
###2023-12-09 13:03:44.564511$GNGGA,180343.70,4138.0604313,N,07032.3802586,W,1,24,0.6,13.335,M,-29.744,M,0.0,*5B
###2023-12-09 13:03:44.766799$GNGGA,180343.90,4138.0604145,N,07032.3800137,W,1,24,0.6,13.334,M,-29.744,M,0.0,*59
###2023-12-09 13:03:44.973774$GNRMC,180344.10,A,4138.0604000,N,07032.3797657,W,3.46,96.38,091223,,,A*63
###2023-12-09 13:03:44.976652$GNGGA,180344.10,4138.0604000,N,07032.3797657,W,1,24,0.6,13.342,M,-29.744,M,0.0,*57
###2023-12-09 13:03:44.978513$GPGSA,A,3,03,04,16,26,28,29,31,32,,,,,1.1,0.6,0.9*3B
###2023-12-09 13:03:44.980231$GLGSA,A,3,65,71,72,73,74,75,,,,,,,1.1,0.6,0.9*24
###2023-12-09 13:03:44.981805$GAGSA,A,3,04,19,21,27,,,,,,,,,1.1,0.6,0.9*26
###2023-12-09 13:03:44.983460$GBGSA,A,3,14,24,25,26,33,,,,,,,,1.1,0.6,0.9*2F
###2023-12-09 13:03:44.985774$GPGSV,2,1,08,03,34,260,45,04,33,311,42,16,51,213,48,26,81,210,48*7F
###2023-12-09 13:03:44.988107$GPGSV,2,2,08,28,48,071,44,29,25,060,41,31,68,040,46,32,18,140,41*7C
###2023-12-09 13:03:44.990430$GLGSV,2,1,06,65,25,327,40,71,40,173,45,72,73,265,46,73,35,042,44*66
###2023-12-09 13:03:44.992185$GLGSV,2,2,06,74,69,340,42,75,33,254,46,,,,,,,,*6D
###2023-12-09 13:03:44.994505$GAGSV,1,1,04,04,29,312,40,19,84,213,40,21,86,114,45,27,32,048,42*61
###2023-12-09 13:03:44.996836$GBGSV,2,1,05,14,43,193,46,24,73,026,48,25,41,263,47,26,26,063,42*69
###2023-12-09 13:03:44.998282$GBGSV,2,2,05,33,57,231,49,,,,,,,,,,,,*51
###2023-12-09 13:03:44.999576$GNVTG,96.38,T,,M,3.46,N,6.41,K,A*15
###2023-12-09 13:03:45.001209$GNGST,180344.10,18.000,,,,0.081,0.067,0.160*5A
###2023-12-09 13:03:45.002493$GNZDA,180344.10,09,12,2023,00,00*7A
###2023-12-09 13:03:45.003137$GNEBP,,,,,,M*13
###2023-12-09 13:03:45.166866$GNGGA,180344.30,4138.0603728,N,07032.3795143,W,1,24,0.6,13.332,M,-29.744,M,0.0,*58
###2023-12-09 13:03:45.363966$GNGGA,180344.50,4138.0603405,N,07032.3792726,W,1,24,0.6,13.322,M,-29.744,M,0.0,*51
###2023-12-09 13:03:45.564588$GNGGA,180344.70,4138.0603167,N,07032.3790347,W,1,24,0.6,13.333,M,-29.744,M,0.0,*53
###2023-12-09 13:03:45.765018$GNGGA,180344.90,4138.0602899,N,07032.3787870,W,1,24,0.6,13.328,M,-29.744,M,0.0,*57
###2023-12-09 13:03:45.968647$GNRMC,180345.10,A,4138.0602545,N,07032.3785549,W,3.19,99.86,091223,,,A*6F
###2023-12-09 13:03:45.971546$GNGGA,180345.10,4138.0602545,N,07032.3785549,W,1,24,0.6,13.323,M,-29.744,M,0.0,*5C
###2023-12-09 13:03:45.973413$GPGSA,A,3,03,04,16,26,28,29,31,32,,,,,1.1,0.6,0.9*3B
###2023-12-09 13:03:45.975182$GLGSA,A,3,65,71,72,73,74,75,,,,,,,1.1,0.6,0.9*24
###2023-12-09 13:03:45.976764$GAGSA,A,3,04,19,21,27,,,,,,,,,1.1,0.6,0.9*26
###2023-12-09 13:03:45.978413$GBGSA,A,3,14,24,25,26,33,,,,,,,,1.1,0.6,0.9*2F
###2023-12-09 13:03:45.980755$GPGSV,2,1,08,03,34,260,46,04,33,311,41,16,51,213,48,26,81,210,48*7F
###2023-12-09 13:03:45.983100$GPGSV,2,2,08,28,48,071,44,29,25,060,41,31,68,040,47,32,18,140,42*7E
###2023-12-09 13:03:45.985439$GLGSV,2,1,06,65,25,327,40,71,40,173,45,72,73,265,46,73,35,042,45*67
###2023-12-09 13:03:45.987200$GLGSV,2,2,06,74,69,340,43,75,33,254,47,,,,,,,,*6D
###2023-12-09 13:03:45.989539$GAGSV,1,1,04,04,29,312,40,19,84,213,40,21,86,114,46,27,32,048,42*62
###2023-12-09 13:03:45.991884$GBGSV,2,1,05,14,43,193,44,24,73,026,48,25,41,263,46,26,26,063,42*6A
###2023-12-09 13:03:45.993342$GBGSV,2,2,05,33,57,231,48,,,,,,,,,,,,*50
###2023-12-09 13:03:45.994646$GNVTG,99.86,T,,M,3.19,N,5.90,K,A*1A
###2023-12-09 13:03:45.996296$GNGST,180345.10,18.000,,,,0.081,0.067,0.160*5B
###2023-12-09 13:03:45.997589$GNZDA,180345.10,09,12,2023,00,00*7B
###2023-12-09 13:03:45.998230$GNEBP,,,,,,M*13
###2023-12-09 13:03:46.163851$GNGGA,180345.30,4138.0602312,N,07032.3783172,W,1,24,0.6,13.339,M,-29.744,M,0.0,*5B
###2023-12-09 13:03:46.364270$GNGGA,180345.50,4138.0602087,N,07032.3780751,W,1,24,0.6,13.335,M,-29.744,M,0.0,*5A
###2023-12-09 13:03:46.564141$GNGGA,180345.70,4138.0601889,N,07032.3778316,W,1,24,0.6,13.323,M,-29.744,M,0.0,*5A
###2023-12-09 13:03:46.765861$GNGGA,180345.90,4138.0601650,N,07032.3775904,W,1,24,0.6,13.338,M,-29.744,M,0.0,*50
###2023-12-09 13:03:46.967322$GNRMC,180346.10,A,4138.0601466,N,07032.3773444,W,3.46,92.92,091223,,,A*6E
###2023-12-09 13:03:46.970195$GNGGA,180346.10,4138.0601466,N,07032.3773444,W,1,24,0.6,13.349,M,-29.744,M,0.0,*55
###2023-12-09 13:03:46.972064$GPGSA,A,3,03,04,16,26,28,29,31,32,,,,,1.1,0.6,0.9*3B
###2023-12-09 13:03:46.973783$GLGSA,A,3,65,71,72,73,74,75,,,,,,,1.1,0.6,0.9*24
###2023-12-09 13:03:46.975619$GAGSA,A,3,04,19,21,27,,,,,,,,,1.1,0.6,0.9*26
###2023-12-09 13:03:46.977286$GBGSA,A,3,14,24,25,26,33,,,,,,,,1.1,0.6,0.9*2F
###2023-12-09 13:03:46.979632$GPGSV,2,1,08,03,34,260,46,04,33,311,42,16,51,213,47,26,81,210,48*73
###2023-12-09 13:03:46.981968$GPGSV,2,2,08,28,48,071,43,29,25,060,41,31,68,040,47,32,18,140,42*79
###2023-12-09 13:03:46.984309$GLGSV,2,1,06,65,25,327,40,71,40,173,45,72,73,265,46,73,35,042,44*66
###2023-12-09 13:03:46.986054$GLGSV,2,2,06,74,69,340,43,75,33,254,47,,,,,,,,*6D
###2023-12-09 13:03:46.988390$GAGSV,1,1,04,04,29,312,40,19,84,213,40,21,86,114,46,27,32,048,42*62
###2023-12-09 13:03:46.990738$GBGSV,2,1,05,14,43,193,46,24,73,026,48,25,41,263,47,26,26,063,42*69
###2023-12-09 13:03:46.992194$GBGSV,2,2,05,33,57,231,49,,,,,,,,,,,,*51
###2023-12-09 13:03:46.993485$GNVTG,92.92,T,,M,3.46,N,6.41,K,A*11
