###2023-12-09 13:44:20.025938$GAGSV,1,1,03,04,43,308,45,21,73,044,35,27,19,051,40,,,,*5E
###2023-12-09 13:44:20.028309$GBGSV,1,1,04,12,19,123,42,24,60,050,47,25,53,280,45,35,16,053,40*6D
###2023-12-09 13:44:20.029649$GNVTG,243.17,T,,M,0.04,N,0.07,K,A*23
###2023-12-09 13:44:20.031280$GNGST,184419.10,7.600,,,,0.200,0.110,0.300*67
###2023-12-09 13:44:20.032571$GNZDA,184419.10,09,12,2023,00,00*71
###2023-12-09 13:44:20.033209$GNEBP,,,,,,M*13
###2023-12-09 13:44:20.200703$GNGGA,184419.30,4138.0391008,N,07032.4388818,W,1,18,0.8,13.849,M,-29.746,M,0.0,*54
###2023-12-09 13:44:20.400179$GNGGA,184419.50,4138.0391013,N,07032.4388824,W,1,18,0.8,13.845,M,-29.746,M,0.0,*5B
###2023-12-09 13:44:20.599795$GNGGA,184419.70,4138.0391019,N,07032.4388829,W,1,18,0.8,13.843,M,-29.746,M,0.0,*58
###2023-12-09 13:44:20.801546$GNGGA,184419.90,4138.0391035,N,07032.4388841,W,1,18,0.8,13.840,M,-29.746,M,0.0,*55
###2023-12-09 13:44:21.007270$GNRMC,184420.10,A,4138.0391033,N,07032.4388850,W,0.02,243.17,091223,,,A*5B
###2023-12-09 13:44:21.010110$GNGGA,184420.10,4138.0391033,N,07032.4388850,W,1,18,0.8,13.836,M,-29.746,M,0.0,*50
###2023-12-09 13:44:21.011842$GPGSA,A,3,04,16,26,28,29,31,,,,,,,1.3,0.8,1.1*3C
###2023-12-09 13:44:21.013489$GLGSA,A,3,65,73,74,75,83,,,,,,,,1.3,0.8,1.1*29
###2023-12-09 13:44:21.015013$GAGSA,A,3,04,21,27,,,,,,,,,,1.3,0.8,1.1*2B
###2023-12-09 13:44:21.016594$GBGSA,A,3,12,24,25,35,,,,,,,,,1.3,0.8,1.1*2E
###2023-12-09 13:44:21.018932$GPGSV,2,1,06,04,50,305,47,16,71,227,42,26,79,041,42,28,35,088,44*7D
###2023-12-09 13:44:21.020680$GPGSV,2,2,06,29,18,043,43,31,56,072,51,,,,,,,,*7D
###2023-12-09 13:44:21.023015$GLGSV,2,1,05,65,42,314,44,73,19,055,44,74,56,021,35,75,46,277,45*6A
###2023-12-09 13:44:21.024473$GLGSV,2,2,05,83,16,043,37,,,,,,,,,,,,*5F
###2023-12-09 13:44:21.026504$GAGSV,1,1,03,04,43,308,46,21,73,044,36,27,19,051,40,,,,*5E
###2023-12-09 13:44:21.028862$GBGSV,1,1,04,12,19,123,42,24,60,050,47,25,53,280,44,35,16,053,40*6C
###2023-12-09 13:44:21.030192$GNVTG,243.17,T,,M,0.02,N,0.04,K,A*26
###2023-12-09 13:44:21.031816$GNGST,184420.10,8.500,,,,0.200,0.110,0.300*61
###2023-12-09 13:44:21.033107$GNZDA,184420.10,09,12,2023,00,00*7B
###2023-12-09 13:44:21.033747$GNEBP,,,,,,M*13
###2023-12-09 13:44:21.206402$GNGGA,184420.30,4138.0391053,N,07032.4388852,W,1,18,0.8,13.838,M,-29.746,M,0.0,*58
###2023-12-09 13:44:21.400112$GNGGA,184420.50,4138.0391064,N,07032.4388859,W,1,18,0.8,13.833,M,-29.746,M,0.0,*5A
###2023-12-09 13:44:21.598526$GNGGA,184420.70,4138.0391079,N,07032.4388867,W,1,18,0.8,13.830,M,-29.746,M,0.0,*5A
###2023-12-09 13:44:21.799165$GNGGA,184420.90,4138.0391086,N,07032.4388867,W,1,18,0.8,13.827,M,-29.746,M,0.0,*52
###2023-12-09 13:44:22.002319$GNRMC,184421.10,A,4138.0391091,N,07032.4388876,W,0.02,243.17,091223,,,A*56
###2023-12-09 13:44:22.005797$GNGGA,184421.10,4138.0391091,N,07032.4388876,W,1,18,0.8,13.820,M,-29.746,M,0.0,*5A
###2023-12-09 13:44:22.007891$GPGSA,A,3,04,16,26,28,29,31,,,,,,,1.3,0.8,1.1*3C
###2023-12-09 13:44:22.009873$GLGSA,A,3,65,73,74,75,83,,,,,,,,1.3,0.8,1.1*29
###2023-12-09 13:44:22.011712$GAGSA,A,3,04,21,27,,,,,,,,,,1.3,0.8,1.1*2B
###2023-12-09 13:44:22.013609$GBGSA,A,3,12,24,25,35,,,,,,,,,1.3,0.8,1.1*2E
###2023-12-09 13:44:22.016418$GPGSV,2,1,06,04,50,305,48,16,71,227,42,26,79,041,42,28,35,088,44*72
###2023-12-09 13:44:22.018523$GPGSV,2,2,06,29,18,043,45,31,56,072,52,,,,,,,,*78
###2023-12-09 13:44:22.021353$GLGSV,2,1,05,65,42,314,45,73,19,055,45,74,56,021,36,75,46,277,45*69
###2023-12-09 13:44:22.023117$GLGSV,2,2,05,83,16,043,38,,,,,,,,,,,,*50
###2023-12-09 13:44:22.025555$GAGSV,1,1,03,04,43,308,46,21,73,044,36,27,19,051,41,,,,*5F
###2023-12-09 13:44:22.028354$GBGSV,1,1,04,12,19,123,42,24,60,050,48,25,53,280,45,35,16,053,40*62
###2023-12-09 13:44:22.029953$GNVTG,243.17,T,,M,0.02,N,0.04,K,A*26
###2023-12-09 13:44:22.031908$GNGST,184421.10,8.600,,,,0.200,0.110,0.300*63
###2023-12-09 13:44:22.033463$GNZDA,184421.10,09,12,2023,00,00*7A
###2023-12-09 13:44:22.034229$GNEBP,,,,,,M*13
###2023-12-09 13:44:22.199946$GNGGA,184421.30,4138.0391094,N,07032.4388876,W,1,18,0.8,13.818,M,-29.746,M,0.0,*56
###2023-12-09 13:44:22.399234$GNGGA,184421.50,4138.0391079,N,07032.4388883,W,1,18,0.8,13.810,M,-29.746,M,0.0,*51
###2023-12-09 13:44:22.598895$GNGGA,184421.70,4138.0391080,N,07032.4388871,W,1,18,0.8,13.813,M,-29.746,M,0.0,*5B
###2023-12-09 13:44:22.800086$GNGGA,184421.90,4138.0391082,N,07032.4388867,W,1,17,0.8,13.811,M,-29.746,M,0.0,*5D
###2023-12-09 13:44:23.002290$GNRMC,184422.10,A,4138.0391085,N,07032.4388867,W,0.04,243.17,091223,,,A*56
###2023-12-09 13:44:23.005280$GNGGA,184422.10,4138.0391085,N,07032.4388867,W,1,18,0.8,13.816,M,-29.746,M,0.0,*59
###2023-12-09 13:44:23.007032$GPGSA,A,3,04,16,26,28,29,31,,,,,,,1.3,0.8,1.1*3C
###2023-12-09 13:44:23.008682$GLGSA,A,3,65,73,74,75,83,,,,,,,,1.3,0.8,1.1*29
###2023-12-09 13:44:23.010203$GAGSA,A,3,04,21,27,,,,,,,,,,1.3,0.8,1.1*2B
###2023-12-09 13:44:23.011802$GBGSA,A,3,12,24,25,35,,,,,,,,,1.3,0.8,1.1*2E
###2023-12-09 13:44:23.014141$GPGSV,2,1,06,04,50,305,46,16,71,227,40,26,79,041,41,28,35,088,42*7B
###2023-12-09 13:44:23.015903$GPGSV,2,2,06,29,18,043,42,31,56,072,50,,,,,,,,*7D
###2023-12-09 13:44:23.018222$GLGSV,2,1,05,65,42,314,44,73,19,055,44,74,56,021,35,75,46,277,45*6A
###2023-12-09 13:44:23.019692$GLGSV,2,2,05,83,16,043,38,,,,,,,,,,,,*50
###2023-12-09 13:44:23.021730$GAGSV,1,1,03,04,43,308,46,21,73,044,35,27,19,051,40,,,,*5D
###2023-12-09 13:44:23.024072$GBGSV,1,1,04,12,19,123,42,24,60,050,46,25,53,280,44,35,16,053,40*6D
###2023-12-09 13:44:23.025399$GNVTG,243.17,T,,M,0.04,N,0.07,K,A*23
###2023-12-09 13:44:23.027063$GNGST,184422.10,7.600,,,,0.200,0.110,0.300*6F
###2023-12-09 13:44:23.028359$GNZDA,184422.10,09,12,2023,00,00*79
###2023-12-09 13:44:23.029000$GNEBP,,,,,,M*13
###2023-12-09 13:44:23.201153$GNGGA,184422.30,4138.0391067,N,07032.4388865,W,1,18,0.8,13.813,M,-29.746,M,0.0,*50
###2023-12-09 13:44:23.399387$GNGGA,184422.50,4138.0391068,N,07032.4388861,W,1,18,0.8,13.810,M,-29.746,M,0.0,*5E
###2023-12-09 13:44:23.598622$GNGGA,184422.70,4138.0391066,N,07032.4388861,W,1,18,0.8,13.808,M,-29.746,M,0.0,*5B
###2023-12-09 13:44:23.798643$GNGGA,184422.90,4138.0391061,N,07032.4388854,W,1,18,0.8,13.810,M,-29.746,M,0.0,*5D
###2023-12-09 13:44:24.000790$GNRMC,184423.10,A,4138.0391059,N,07032.4388864,W,0.02,243.17,091223,,,A*53
###2023-12-09 13:44:24.003672$GNGGA,184423.10,4138.0391059,N,07032.4388864,W,1,18,0.8,13.806,M,-29.746,M,0.0,*5B
###2023-12-09 13:44:24.005410$GPGSA,A,3,04,16,26,28,29,31,,,,,,,1.3,0.8,1.1*3C
###2023-12-09 13:44:24.007082$GLGSA,A,3,65,73,74,75,83,,,,,,,,1.3,0.8,1.1*29
###2023-12-09 13:44:24.008598$GAGSA,A,3,04,21,27,,,,,,,,,,1.3,0.8,1.1*2B
###2023-12-09 13:44:24.010173$GBGSA,A,3,12,24,25,35,,,,,,,,,1.3,0.8,1.1*2E
###2023-12-09 13:44:24.012505$GPGSV,2,1,06,04,50,305,46,16,71,227,40,26,79,041,40,28,35,088,43*7B
###2023-12-09 13:44:24.014249$GPGSV,2,2,06,29,18,043,42,31,56,072,50,,,,,,,,*7D
###2023-12-09 13:44:24.016576$GLGSV,2,1,05,65,42,314,44,73,19,055,44,74,56,021,35,75,46,277,44*6B
###2023-12-09 13:44:24.018026$GLGSV,2,2,05,83,16,043,37,,,,,,,,,,,,*5F
###2023-12-09 13:44:24.020067$GAGSV,1,1,03,04,43,308,45,21,73,044,35,27,19,051,40,,,,*5E
###2023-12-09 13:44:24.022394$GBGSV,1,1,04,12,19,123,42,24,60,050,46,25,53,280,44,35,16,053,39*63
###2023-12-09 13:44:24.023741$GNVTG,243.17,T,,M,0.02,N,0.04,K,A*26
###2023-12-09 13:44:24.025365$GNGST,184423.10,7.700,,,,0.200,0.110,0.300*6F
###2023-12-09 13:44:24.026668$GNZDA,184423.10,09,12,2023,00,00*78
###2023-12-09 13:44:24.027309$GNEBP,,,,,,M*13
###2023-12-09 13:44:24.200033$GNGGA,184423.30,4138.0391056,N,07032.4388865,W,1,18,0.8,13.804,M,-29.746,M,0.0,*55
###2023-12-09 13:44:24.399347$GNGGA,184423.50,4138.0391059,N,07032.4388862,W,1,18,0.8,13.803,M,-29.746,M,0.0,*5C
###2023-12-09 13:44:24.597966$GNGGA,184423.70,4138.0391044,N,07032.4388857,W,1,18,0.8,13.797,M,-29.746,M,0.0,*56
###2023-12-09 13:44:24.801068$GNGGA,184423.90,4138.0391029,N,07032.4388850,W,1,18,0.8,13.797,M,-29.746,M,0.0,*54
###2023-12-09 13:44:25.004378$GNRMC,184424.10,A,4138.0391014,N,07032.4388853,W,0.04,243.17,091223,,,A*5F
###2023-12-09 13:44:25.007243$GNGGA,184424.10,4138.0391014,N,07032.4388853,W,1,18,0.8,13.796,M,-29.746,M,0.0,*57
###2023-12-09 13:44:25.009220$GPGSA,A,3,04,16,26,28,29,31,,,,,,,1.3,0.8,1.1*3C
###2023-12-09 13:44:25.010893$GLGSA,A,3,65,73,74,75,83,,,,,,,,1.3,0.8,1.1*29
###2023-12-09 13:44:25.012412$GAGSA,A,3,04,21,27,,,,,,,,,,1.3,0.8,1.1*2B
###2023-12-09 13:44:25.013994$GBGSA,A,3,12,24,25,35,,,,,,,,,1.3,0.8,1.1*2E
###2023-12-09 13:44:25.016330$GPGSV,2,1,06,04,50,305,46,16,71,227,39,26,79,041,41,28,35,088,43*74
###2023-12-09 13:44:25.018079$GPGSV,2,2,06,29,18,043,42,31,56,072,50,,,,,,,,*7D
###2023-12-09 13:44:25.020415$GLGSV,2,1,05,65,42,314,44,73,19,055,44,74,56,021,36,75,46,277,44*68
###2023-12-09 13:44:25.021869$GLGSV,2,2,05,83,16,043,37,,,,,,,,,,,,*5F
