###2023-12-09 13:35:18.003802$GLGSA,A,3,65,71,72,73,74,75,,,,,,,1.0,0.6,0.8*24
###2023-12-09 13:35:18.005406$GAGSA,A,3,04,19,21,27,,,,,,,,,1.0,0.6,0.8*26
###2023-12-09 13:35:18.007208$GBGSA,A,3,12,14,24,25,26,33,35,,,,,,1.0,0.6,0.8*2A
###2023-12-09 13:35:18.009531$GPGSV,2,1,08,03,26,246,42,04,47,307,45,16,67,223,46,26,84,040,48*76
###2023-12-09 13:35:18.011875$GPGSV,2,2,08,27,16,172,40,28,38,084,43,29,21,047,39,31,59,066,46*74
###2023-12-09 13:35:18.014201$GLGSV,2,1,06,65,39,318,44,71,22,175,41,72,62,220,46,73,22,052,39*69
###2023-12-09 13:35:18.015966$GLGSV,2,2,06,74,59,015,41,75,44,272,47,,,,,,,,*6B
###2023-12-09 13:35:18.018294$GAGSV,1,1,04,04,40,310,44,19,72,181,41,21,77,046,45,27,22,050,39*64
###2023-12-09 13:35:18.020640$GBGSV,2,1,07,12,15,126,41,14,29,190,41,24,62,046,47,25,51,276,47*6B
###2023-12-09 13:35:18.022683$GBGSV,2,2,07,26,16,071,41,33,45,217,46,35,16,056,40,,,,*5D
###2023-12-09 13:35:18.023971$GNVTG,48.83,T,,M,3.11,N,5.76,K,A*13
###2023-12-09 13:35:18.025573$GNGST,183517.10,5.400,,,,0.100,0.071,0.160*6E
###2023-12-09 13:35:18.026873$GNZDA,183517.10,09,12,2023,00,00*79
###2023-12-09 13:35:18.027511$GNEBP,,,,,,M*13
###2023-12-09 13:35:18.195384$GNGGA,183517.30,4138.0400596,N,07032.4008642,W,1,26,0.6,13.235,M,-29.745,M,0.0,*5A
###2023-12-09 13:35:18.397703$GNGGA,183517.50,4138.0401852,N,07032.4007323,W,1,26,0.6,13.258,M,-29.745,M,0.0,*5E
###2023-12-09 13:35:18.594096$GNGGA,183517.70,4138.0403296,N,07032.4006132,W,1,26,0.6,13.263,M,-29.745,M,0.0,*57
###2023-12-09 13:35:18.795186$GNGGA,183517.90,4138.0404376,N,07032.4004417,W,1,26,0.6,13.231,M,-29.745,M,0.0,*56
###2023-12-09 13:35:18.997537$GNRMC,183518.10,A,4138.0405186,N,07032.4002590,W,2.78,53.13,091223,,,A*6B
###2023-12-09 13:35:19.000448$GNGGA,183518.10,4138.0405186,N,07032.4002590,W,1,26,0.6,13.226,M,-29.745,M,0.0,*53
###2023-12-09 13:35:19.002313$GPGSA,A,3,03,04,16,26,27,28,29,31,,,,,1.0,0.6,0.8*3F
###2023-12-09 13:35:19.004033$GLGSA,A,3,65,71,72,73,74,75,,,,,,,1.0,0.6,0.8*24
###2023-12-09 13:35:19.005606$GAGSA,A,3,04,19,21,27,,,,,,,,,1.0,0.6,0.8*26
###2023-12-09 13:35:19.007396$GBGSA,A,3,12,14,24,25,26,33,35,,,,,,1.0,0.6,0.8*2A
###2023-12-09 13:35:19.009718$GPGSV,2,1,08,03,26,246,42,04,47,307,45,16,67,223,46,26,84,040,48*76
###2023-12-09 13:35:19.012059$GPGSV,2,2,08,27,16,172,42,28,38,084,42,29,21,047,40,31,59,066,45*7A
###2023-12-09 13:35:19.014389$GLGSV,2,1,06,65,39,318,43,71,22,175,44,72,62,220,46,73,22,052,40*65
###2023-12-09 13:35:19.016157$GLGSV,2,2,06,74,59,015,41,75,44,272,45,,,,,,,,*69
###2023-12-09 13:35:19.018489$GAGSV,1,1,04,04,40,310,44,19,72,181,41,21,77,046,45,27,22,050,39*64
###2023-12-09 13:35:19.020824$GBGSV,2,1,07,12,15,126,40,14,29,190,42,24,62,046,47,25,51,276,46*68
###2023-12-09 13:35:19.022877$GBGSV,2,2,07,26,16,071,41,33,45,217,47,35,16,056,40,,,,*5C
###2023-12-09 13:35:19.024174$GNVTG,53.13,T,,M,2.78,N,5.15,K,A*1B
###2023-12-09 13:35:19.025784$GNGST,183518.10,5.400,,,,0.100,0.071,0.160*61
###2023-12-09 13:35:19.027088$GNZDA,183518.10,09,12,2023,00,00*76
###2023-12-09 13:35:19.027726$GNEBP,,,,,,M*13
###2023-12-09 13:35:19.197805$GNGGA,183518.30,4138.0406359,N,07032.4001090,W,1,26,0.6,13.255,M,-29.745,M,0.0,*50
###2023-12-09 13:35:19.394167$GNGGA,183518.50,4138.0407642,N,07032.3999591,W,1,26,0.6,13.233,M,-29.745,M,0.0,*53
###2023-12-09 13:35:19.595169$GNGGA,183518.70,4138.0408470,N,07032.3997815,W,1,26,0.6,13.223,M,-29.745,M,0.0,*53
###2023-12-09 13:35:19.795167$GNGGA,183518.90,4138.0409176,N,07032.3995874,W,1,26,0.6,13.232,M,-29.745,M,0.0,*5A
###2023-12-09 13:35:19.997936$GNRMC,183519.10,A,4138.0409937,N,07032.3993979,W,2.74,57.71,091223,,,A*65
###2023-12-09 13:35:20.000915$GNGGA,183519.10,4138.0409937,N,07032.3993979,W,1,26,0.6,13.212,M,-29.745,M,0.0,*56
###2023-12-09 13:35:20.002789$GPGSA,A,3,03,04,16,26,27,28,29,31,,,,,1.0,0.6,0.8*3F
###2023-12-09 13:35:20.004514$GLGSA,A,3,65,71,72,73,74,75,,,,,,,1.0,0.6,0.8*24
###2023-12-09 13:35:20.006104$GAGSA,A,3,04,19,21,27,,,,,,,,,1.0,0.6,0.8*26
###2023-12-09 13:35:20.007890$GBGSA,A,3,12,14,24,25,26,33,35,,,,,,1.0,0.6,0.8*2A
###2023-12-09 13:35:20.010228$GPGSV,2,1,08,03,26,246,41,04,47,307,45,16,67,223,47,26,84,040,48*74
###2023-12-09 13:35:20.012572$GPGSV,2,2,08,27,16,172,41,28,38,084,42,29,21,047,41,31,59,066,46*7B
###2023-12-09 13:35:20.014923$GLGSV,2,1,06,65,39,318,43,71,22,175,44,72,62,220,46,73,22,052,41*64
###2023-12-09 13:35:20.016681$GLGSV,2,2,06,74,59,015,41,75,44,272,47,,,,,,,,*6B
###2023-12-09 13:35:20.019040$GAGSV,1,1,04,04,40,310,42,19,72,181,41,21,77,046,45,27,22,050,40*6C
###2023-12-09 13:35:20.021406$GBGSV,2,1,07,12,15,126,41,14,29,190,41,24,62,046,47,25,51,276,45*69
###2023-12-09 13:35:20.023469$GBGSV,2,2,07,26,16,071,39,33,45,217,45,35,16,056,40,,,,*51
###2023-12-09 13:35:20.024770$GNVTG,57.71,T,,M,2.74,N,5.08,K,A*1B
###2023-12-09 13:35:20.026391$GNGST,183519.10,5.400,,,,0.097,0.070,0.160*6E
###2023-12-09 13:35:20.027701$GNZDA,183519.10,09,12,2023,00,00*77
###2023-12-09 13:35:20.028342$GNEBP,,,,,,M*13
###2023-12-09 13:35:20.194081$GNGGA,183519.30,4138.0410723,N,07032.3992203,W,1,26,0.6,13.213,M,-29.745,M,0.0,*51
###2023-12-09 13:35:20.397073$GNGGA,183519.50,4138.0411495,N,07032.3990223,W,1,26,0.6,13.207,M,-29.745,M,0.0,*5D
###2023-12-09 13:35:20.595117$GNGGA,183519.70,4138.0411999,N,07032.3988207,W,1,26,0.6,13.187,M,-29.745,M,0.0,*5A
###2023-12-09 13:35:20.796164$GNGGA,183519.90,4138.0412298,N,07032.3986254,W,1,26,0.6,13.201,M,-29.745,M,0.0,*58
###2023-12-09 13:35:21.005753$GNRMC,183520.10,A,4138.0412599,N,07032.3984178,W,2.92,77.70,091223,,,A*69
###2023-12-09 13:35:21.008620$GNGGA,183520.10,4138.0412599,N,07032.3984178,W,1,26,0.6,13.205,M,-29.745,M,0.0,*57
###2023-12-09 13:35:21.010471$GPGSA,A,3,03,04,16,26,27,28,29,31,,,,,1.0,0.6,0.9*3E
###2023-12-09 13:35:21.012193$GLGSA,A,3,65,71,72,73,74,75,,,,,,,1.0,0.6,0.9*25
###2023-12-09 13:35:21.013772$GAGSA,A,3,04,19,21,27,,,,,,,,,1.0,0.6,0.9*27
###2023-12-09 13:35:21.015554$GBGSA,A,3,12,14,24,25,26,33,35,,,,,,1.0,0.6,0.9*2B
###2023-12-09 13:35:21.017878$GPGSV,2,1,08,03,26,246,40,04,47,307,44,16,67,223,47,26,84,040,48*74
###2023-12-09 13:35:21.020219$GPGSV,2,2,08,27,16,172,42,28,38,084,43,29,21,047,43,31,59,066,46*7B
###2023-12-09 13:35:21.022546$GLGSV,2,1,06,65,39,318,43,71,22,175,45,72,62,220,47,73,22,052,41*64
###2023-12-09 13:35:21.024319$GLGSV,2,2,06,74,59,015,41,75,44,272,46,,,,,,,,*6A
###2023-12-09 13:35:21.026668$GAGSV,1,1,04,04,40,310,44,19,72,181,41,21,77,046,46,27,22,050,40*69
###2023-12-09 13:35:21.028984$GBGSV,2,1,07,12,15,126,40,14,29,190,43,24,62,046,48,25,51,276,48*68
###2023-12-09 13:35:21.031039$GBGSV,2,2,07,26,16,071,42,33,45,217,48,35,16,056,42,,,,*52
###2023-12-09 13:35:21.032325$GNVTG,77.70,T,,M,2.92,N,5.40,K,A*1C
###2023-12-09 13:35:21.033932$GNGST,183520.10,5.000,,,,0.096,0.070,0.160*61
###2023-12-09 13:35:21.035266$GNZDA,183520.10,09,12,2023,00,00*7D
###2023-12-09 13:35:21.035905$GNEBP,,,,,,M*13
###2023-12-09 13:35:21.205575$GNGGA,183520.30,4138.0412906,N,07032.3982101,W,1,26,0.6,13.186,M,-29.745,M,0.0,*5F
###2023-12-09 13:35:21.395019$GNGGA,183520.50,4138.0413107,N,07032.3980157,W,1,26,0.6,13.179,M,-29.745,M,0.0,*50
###2023-12-09 13:35:21.594998$GNGGA,183520.70,4138.0413127,N,07032.3978145,W,1,26,0.6,13.204,M,-29.745,M,0.0,*5D
###2023-12-09 13:35:21.795805$GNGGA,183520.90,4138.0412944,N,07032.3976132,W,1,26,0.6,13.193,M,-29.745,M,0.0,*5C
###2023-12-09 13:35:21.998470$GNRMC,183521.10,A,4138.0412728,N,07032.3974297,W,2.47,97.88,091223,,,A*6C
###2023-12-09 13:35:22.001352$GNGGA,183521.10,4138.0412728,N,07032.3974297,W,1,26,0.6,13.190,M,-29.745,M,0.0,*5C
###2023-12-09 13:35:22.003225$GPGSA,A,3,03,04,16,26,27,28,29,31,,,,,1.0,0.6,0.8*3F
###2023-12-09 13:35:22.004944$GLGSA,A,3,65,71,72,73,74,75,,,,,,,1.0,0.6,0.8*24
###2023-12-09 13:35:22.006531$GAGSA,A,3,04,19,21,27,,,,,,,,,1.0,0.6,0.8*26
###2023-12-09 13:35:22.008314$GBGSA,A,3,12,14,24,25,26,33,35,,,,,,1.0,0.6,0.8*2A
###2023-12-09 13:35:22.010659$GPGSV,2,1,08,03,26,246,38,04,47,307,44,16,67,223,47,26,84,040,48*7B
###2023-12-09 13:35:22.013001$GPGSV,2,2,08,27,16,172,41,28,38,084,42,29,21,047,43,31,59,066,45*7A
###2023-12-09 13:35:22.015345$GLGSV,2,1,06,65,39,318,43,71,22,175,43,72,62,220,47,73,22,052,43*60
###2023-12-09 13:35:22.017374$GLGSV,2,2,06,74,59,015,42,75,44,272,47,,,,,,,,*68
###2023-12-09 13:35:22.019756$GAGSV,1,1,04,04,40,310,43,19,72,181,41,21,77,046,46,27,22,050,42*6C
###2023-12-09 13:35:22.022112$GBGSV,2,1,07,12,15,126,40,14,29,190,43,24,62,046,48,25,51,276,46*66
###2023-12-09 13:35:22.024158$GBGSV,2,2,07,26,16,071,42,33,45,217,48,35,16,056,45,,,,*55
###2023-12-09 13:35:22.025457$GNVTG,97.88,T,,M,2.47,N,4.57,K,A*1A
###2023-12-09 13:35:22.027093$GNGST,183521.10,5.100,,,,0.095,0.070,0.160*62
###2023-12-09 13:35:22.028389$GNZDA,183521.10,09,12,2023,00,00*7C
###2023-12-09 13:35:22.029024$GNEBP,,,,,,M*13
###2023-12-09 13:35:22.196386$GNGGA,183521.30,4138.0412497,N,07032.3972375,W,1,26,0.6,13.195,M,-29.745,M,0.0,*57
###2023-12-09 13:35:22.395572$GNGGA,183521.50,4138.0412181,N,07032.3970482,W,1,27,0.6,13.182,M,-29.745,M,0.0,*59
