###2023-12-09 13:32:07.018148$GNGST,183206.10,6.000,,,,0.170,0.098,0.260*6D
###2023-12-09 13:32:07.019496$GNZDA,183206.10,09,12,2023,00,00*7E
###2023-12-09 13:32:07.020154$GNEBP,,,,,,M*13
###2023-12-09 13:32:07.189075$GNGGA,183206.30,4138.0379250,N,07032.4178787,W,1,22,0.8,13.789,M,-29.745,M,0.0,*5F
###2023-12-09 13:32:07.393187$GNGGA,183206.50,4138.0379262,N,07032.4177839,W,1,23,0.8,13.805,M,-29.745,M,0.0,*57
###2023-12-09 13:32:07.590806$GNGGA,183206.70,4138.0379286,N,07032.4176876,W,1,23,0.7,13.811,M,-29.745,M,0.0,*5F
###2023-12-09 13:32:07.792295$GNGGA,183206.90,4138.0379317,N,07032.4175935,W,1,22,0.8,13.819,M,-29.745,M,0.0,*5B
###2023-12-09 13:32:07.994352$GNRMC,183207.10,A,4138.0379308,N,07032.4175034,W,1.17,89.41,091223,,,A*6A
###2023-12-09 13:32:07.997848$GNGGA,183207.10,4138.0379308,N,07032.4175034,W,1,22,0.8,13.820,M,-29.745,M,0.0,*5E
###2023-12-09 13:32:08.000043$GPGSA,A,3,03,04,16,26,28,29,31,,,,,,1.4,0.8,1.1*38
###2023-12-09 13:32:08.002124$GLGSA,A,3,65,72,73,74,75,83,,,,,,,1.4,0.8,1.1*2B
###2023-12-09 13:32:08.004055$GAGSA,A,3,04,19,21,27,,,,,,,,,1.4,0.8,1.1*24
###2023-12-09 13:32:08.006042$GBGSA,A,3,24,25,26,33,35,,,,,,,,1.4,0.8,1.1*2E
###2023-12-09 13:32:08.008870$GPGSV,2,1,07,03,27,247,41,04,45,308,45,16,65,221,47,26,85,040,48*77
###2023-12-09 13:32:08.011381$GPGSV,2,2,07,28,39,084,42,29,21,048,44,31,60,064,46,,,,*44
###2023-12-09 13:32:08.014193$GLGSV,2,1,06,65,37,320,44,72,64,223,45,73,23,051,44,74,61,011,43*61
###2023-12-09 13:32:08.016362$GLGSV,2,2,06,75,42,269,48,83,15,049,36,,,,,,,,*61
###2023-12-09 13:32:08.019198$GAGSV,1,1,04,04,39,310,43,19,73,182,41,21,77,047,45,27,23,050,42*63
###2023-12-09 13:32:08.022008$GBGSV,2,1,05,24,64,044,49,25,50,275,47,26,17,070,43,33,47,218,49*62
###2023-12-09 13:32:08.023773$GBGSV,2,2,05,35,16,058,45,,,,,,,,,,,,*53
###2023-12-09 13:32:08.025332$GNVTG,89.41,T,,M,1.17,N,2.16,K,A*15
###2023-12-09 13:32:08.027281$GNGST,183207.10,6.200,,,,0.170,0.098,0.260*6E
###2023-12-09 13:32:08.028843$GNZDA,183207.10,09,12,2023,00,00*7F
###2023-12-09 13:32:08.029616$GNEBP,,,,,,M*13
###2023-12-09 13:32:08.198093$GNGGA,183207.30,4138.0379268,N,07032.4174139,W,1,22,0.8,13.833,M,-29.745,M,0.0,*54
###2023-12-09 13:32:08.392610$GNGGA,183207.50,4138.0379140,N,07032.4173251,W,1,23,0.7,13.833,M,-29.745,M,0.0,*5F
###2023-12-09 13:32:08.593595$GNGGA,183207.70,4138.0379113,N,07032.4172460,W,1,23,0.7,13.835,M,-29.745,M,0.0,*58
###2023-12-09 13:32:08.793651$GNGGA,183207.90,4138.0379047,N,07032.4171654,W,1,22,0.8,13.835,M,-29.745,M,0.0,*5E
###2023-12-09 13:32:08.997043$GNRMC,183208.10,A,4138.0378918,N,07032.4170837,W,1.13,102.34,091223,,,A*55
###2023-12-09 13:32:09.000517$GNGGA,183208.10,4138.0378918,N,07032.4170837,W,1,22,0.8,13.838,M,-29.745,M,0.0,*5C
###2023-12-09 13:32:09.002702$GPGSA,A,3,03,04,16,26,28,29,31,,,,,,1.4,0.8,1.1*38
###2023-12-09 13:32:09.004778$GLGSA,A,3,65,72,73,74,75,83,,,,,,,1.4,0.8,1.1*2B
###2023-12-09 13:32:09.006704$GAGSA,A,3,04,19,21,27,,,,,,,,,1.4,0.8,1.1*24
###2023-12-09 13:32:09.008737$GBGSA,A,3,24,25,26,33,35,,,,,,,,1.4,0.8,1.1*2E
###2023-12-09 13:32:09.011567$GPGSV,2,1,07,03,27,247,37,04,45,308,45,16,65,221,48,26,85,040,49*78
###2023-12-09 13:32:09.014048$GPGSV,2,2,07,28,39,084,43,29,21,048,45,31,60,064,46,,,,*44
###2023-12-09 13:32:09.016878$GLGSV,2,1,06,65,37,320,42,72,64,223,46,73,23,051,44,74,61,011,42*65
###2023-12-09 13:32:09.018998$GLGSV,2,2,06,75,42,269,47,83,15,049,36,,,,,,,,*6E
###2023-12-09 13:32:09.021819$GAGSV,1,1,04,04,39,310,43,19,73,182,41,21,77,047,46,27,23,050,42*60
###2023-12-09 13:32:09.024639$GBGSV,2,1,05,24,64,044,48,25,50,275,47,26,17,070,44,33,47,218,49*64
###2023-12-09 13:32:09.026400$GBGSV,2,2,05,35,16,058,46,,,,,,,,,,,,*50
###2023-12-09 13:32:09.028008$GNVTG,102.34,T,,M,1.13,N,2.09,K,A*2F
###2023-12-09 13:32:09.029960$GNGST,183208.10,5.900,,,,0.170,0.098,0.250*6A
###2023-12-09 13:32:09.031538$GNZDA,183208.10,09,12,2023,00,00*70
###2023-12-09 13:32:09.032308$GNEBP,,,,,,M*13
###2023-12-09 13:32:09.194860$GNGGA,183208.30,4138.0378836,N,07032.4170116,W,1,22,0.8,13.838,M,-29.745,M,0.0,*59
###2023-12-09 13:32:09.390602$GNGGA,183208.50,4138.0378723,N,07032.4169421,W,1,22,0.8,13.846,M,-29.745,M,0.0,*54
###2023-12-09 13:32:09.592570$GNGGA,183208.70,4138.0378551,N,07032.4168692,W,1,22,0.8,13.846,M,-29.745,M,0.0,*5A
###2023-12-09 13:32:09.790781$GNGGA,183208.90,4138.0378452,N,07032.4168014,W,1,22,0.8,13.856,M,-29.745,M,0.0,*5F
###2023-12-09 13:32:09.991642$GNRMC,183209.10,A,4138.0378356,N,07032.4167325,W,0.97,97.99,091223,,,A*6D
###2023-12-09 13:32:09.995102$GNGGA,183209.10,4138.0378356,N,07032.4167325,W,1,22,0.8,13.859,M,-29.745,M,0.0,*54
###2023-12-09 13:32:09.997267$GPGSA,A,3,03,04,16,26,28,29,31,,,,,,1.4,0.8,1.1*38
###2023-12-09 13:32:09.999351$GLGSA,A,3,65,72,73,74,75,83,,,,,,,1.4,0.8,1.1*2B
###2023-12-09 13:32:10.001288$GAGSA,A,3,04,19,21,27,,,,,,,,,1.4,0.8,1.1*24
###2023-12-09 13:32:10.003297$GBGSA,A,3,24,25,26,33,35,,,,,,,,1.4,0.8,1.1*2E
###2023-12-09 13:32:10.006107$GPGSV,2,1,07,03,27,247,39,04,45,308,44,16,65,221,47,26,85,040,48*79
###2023-12-09 13:32:10.008585$GPGSV,2,2,07,28,39,084,44,29,21,048,45,31,60,064,47,,,,*42
###2023-12-09 13:32:10.011411$GLGSV,2,1,06,65,37,320,43,72,64,223,47,73,23,051,44,74,61,011,42*65
###2023-12-09 13:32:10.013513$GLGSV,2,2,06,75,42,269,46,83,15,049,36,,,,,,,,*6F
###2023-12-09 13:32:10.016340$GAGSV,1,1,04,04,39,310,44,19,73,182,41,21,77,047,46,27,23,050,42*67
###2023-12-09 13:32:10.019157$GBGSV,2,1,05,24,64,044,49,25,50,275,47,26,17,070,45,33,47,218,48*65
###2023-12-09 13:32:10.020906$GBGSV,2,2,05,35,16,058,44,,,,,,,,,,,,*52
###2023-12-09 13:32:10.022466$GNVTG,97.99,T,,M,0.97,N,1.80,K,A*1A
###2023-12-09 13:32:10.024424$GNGST,183209.10,5.800,,,,0.170,0.097,0.250*65
###2023-12-09 13:32:10.025978$GNZDA,183209.10,09,12,2023,00,00*71
###2023-12-09 13:32:10.026755$GNEBP,,,,,,M*13
###2023-12-09 13:32:10.189596$GNGGA,183209.30,4138.0378199,N,07032.4166685,W,1,22,0.8,13.862,M,-29.745,M,0.0,*51
###2023-12-09 13:32:10.388545$GNGGA,183209.50,4138.0377991,N,07032.4166117,W,1,23,0.7,13.862,M,-29.745,M,0.0,*5A
###2023-12-09 13:32:10.588879$GNGGA,183209.70,4138.0377858,N,07032.4165507,W,1,22,0.8,13.868,M,-29.745,M,0.0,*5E
###2023-12-09 13:32:10.787761$GNGGA,183209.90,4138.0377730,N,07032.4164894,W,1,23,0.7,13.859,M,-29.745,M,0.0,*5B
###2023-12-09 13:32:10.990691$GNRMC,183210.10,A,4138.0377570,N,07032.4164294,W,0.78,97.99,091223,,,A*61
###2023-12-09 13:32:10.993553$GNGGA,183210.10,4138.0377570,N,07032.4164294,W,1,23,0.7,13.869,M,-29.745,M,0.0,*54
###2023-12-09 13:32:10.995354$GPGSA,A,3,03,04,16,26,28,29,31,,,,,,1.2,0.7,1.0*30
###2023-12-09 13:32:10.997059$GLGSA,A,3,65,72,73,74,75,83,,,,,,,1.2,0.7,1.0*23
###2023-12-09 13:32:10.998649$GAGSA,A,3,04,19,21,27,,,,,,,,,1.2,0.7,1.0*2C
###2023-12-09 13:32:11.000359$GBGSA,A,3,14,24,25,26,33,35,,,,,,,1.2,0.7,1.0*23
###2023-12-09 13:32:11.002694$GPGSV,2,1,07,03,27,247,38,04,45,308,44,16,65,221,47,26,85,040,48*78
###2023-12-09 13:32:11.004729$GPGSV,2,2,07,28,39,084,45,29,21,048,44,31,60,064,46,,,,*43
###2023-12-09 13:32:11.007058$GLGSV,2,1,06,65,37,320,44,72,64,223,47,73,23,051,47,74,61,011,42*61
###2023-12-09 13:32:11.008802$GLGSV,2,2,06,75,42,269,46,83,15,049,36,,,,,,,,*6F
###2023-12-09 13:32:11.011116$GAGSV,1,1,04,04,39,310,44,19,73,182,41,21,77,047,46,27,23,050,43*66
###2023-12-09 13:32:11.013438$GBGSV,2,1,06,14,30,190,35,24,64,044,50,25,50,275,48,26,17,070,46*6E
###2023-12-09 13:32:11.015189$GBGSV,2,2,06,33,47,218,47,35,16,058,45,,,,,,,,*6B
###2023-12-09 13:32:11.016474$GNVTG,97.99,T,,M,0.78,N,1.44,K,A*13
###2023-12-09 13:32:11.018077$GNGST,183210.10,7.600,,,,0.170,0.097,0.250*61
###2023-12-09 13:32:11.019374$GNZDA,183210.10,09,12,2023,00,00*79
###2023-12-09 13:32:11.020009$GNEBP,,,,,,M*13
###2023-12-09 13:32:11.188460$GNGGA,183210.30,4138.0377387,N,07032.4163798,W,1,22,0.8,13.875,M,-29.745,M,0.0,*55
###2023-12-09 13:32:11.388878$GNGGA,183210.50,4138.0377188,N,07032.4163271,W,1,22,0.8,13.875,M,-29.745,M,0.0,*5C
###2023-12-09 13:32:11.588937$GNGGA,183210.70,4138.0377012,N,07032.4162729,W,1,22,0.8,13.871,M,-29.745,M,0.0,*51
###2023-12-09 13:32:11.790239$GNGGA,183210.90,4138.0376883,N,07032.4162182,W,1,23,0.8,13.876,M,-29.745,M,0.0,*5F
###2023-12-09 13:32:11.992367$GNRMC,183211.10,A,4138.0376718,N,07032.4161756,W,0.66,97.99,091223,,,A*6C
###2023-12-09 13:32:11.995261$GNGGA,183211.10,4138.0376718,N,07032.4161756,W,1,23,0.8,13.877,M,-29.745,M,0.0,*56
###2023-12-09 13:32:11.997070$GPGSA,A,3,03,04,16,26,28,29,31,,,,,,1.2,0.8,0.9*37
###2023-12-09 13:32:11.998802$GLGSA,A,3,65,72,73,74,75,83,,,,,,,1.2,0.8,0.9*24
###2023-12-09 13:32:12.000392$GAGSA,A,3,04,19,21,27,,,,,,,,,1.2,0.8,0.9*2B
###2023-12-09 13:32:12.002045$GBGSA,A,3,24,25,26,33,35,,,,,,,,1.2,0.8,0.9*21
###2023-12-09 13:32:12.004391$GPGSV,2,1,07,03,27,247,38,04,45,308,45,16,65,221,47,26,85,040,49*78
###2023-12-09 13:32:12.006440$GPGSV,2,2,07,28,39,084,45,29,21,048,45,31,60,064,47,,,,*43
###2023-12-09 13:32:12.008782$GLGSV,2,1,06,65,37,320,44,72,64,223,46,73,23,051,46,74,61,011,43*60
