###2023-12-09 12:45:45.980774$GNZDA,174545.10,09,12,2023,00,00*76
###2023-12-09 12:45:45.981576$GNEBP,,,,,,M*13
###2023-12-09 12:45:46.144635$GNGGA,174545.30,4138.0494629,N,07032.3822896,W,1,24,0.6,13.391,M,-29.744,M,0.0,*53
###2023-12-09 12:45:46.344509$GNGGA,174545.50,4138.0495431,N,07032.3824806,W,1,24,0.6,13.392,M,-29.744,M,0.0,*53
###2023-12-09 12:45:46.543477$GNGGA,174545.70,4138.0496072,N,07032.3826657,W,1,24,0.6,13.384,M,-29.744,M,0.0,*5E
###2023-12-09 12:45:46.743955$GNGGA,174545.90,4138.0496637,N,07032.3828404,W,1,24,0.6,13.382,M,-29.744,M,0.0,*5B
###2023-12-09 12:45:46.946499$GNRMC,174546.10,A,4138.0497130,N,07032.3830058,W,2.33,290.68,091223,,,A*5F
###2023-12-09 12:45:46.949387$GNGGA,174546.10,4138.0497130,N,07032.3830058,W,1,24,0.6,13.379,M,-29.744,M,0.0,*51
###2023-12-09 12:45:46.951262$GPGSA,A,3,03,04,16,26,28,29,31,32,,,,,1.1,0.6,0.9*3B
###2023-12-09 12:45:46.952970$GLGSA,A,3,65,71,72,73,74,75,,,,,,,1.1,0.6,0.9*24
###2023-12-09 12:45:46.954549$GAGSA,A,3,04,19,21,27,,,,,,,,,1.1,0.6,0.9*26
###2023-12-09 12:45:46.956215$GBGSA,A,3,14,24,25,26,33,,,,,,,,1.1,0.6,0.9*2F
###2023-12-09 12:45:46.958529$GPGSV,2,1,08,03,37,270,42,04,26,311,40,16,42,209,46,26,72,208,48*7E
###2023-12-09 12:45:46.960874$GPGSV,2,2,08,28,55,061,45,29,26,069,41,31,72,015,48,32,26,136,42*70
###2023-12-09 12:45:46.963220$GLGSV,2,1,06,65,17,329,39,71,50,171,47,72,70,297,45,73,43,037,46*6A
###2023-12-09 12:45:46.964964$GLGSV,2,2,06,74,71,310,42,75,26,245,40,,,,,,,,*63
###2023-12-09 12:45:46.967291$GAGSV,1,1,04,04,24,312,37,19,84,283,40,21,82,167,46,27,38,049,43*6C
###2023-12-09 12:45:46.969615$GBGSV,2,1,05,14,50,195,45,24,78,005,49,25,36,256,42,26,31,059,44*6F
###2023-12-09 12:45:46.971078$GBGSV,2,2,05,33,61,245,47,,,,,,,,,,,,*59
###2023-12-09 12:45:46.972404$GNVTG,290.68,T,,M,2.33,N,4.32,K,A*21
###2023-12-09 12:45:46.974047$GNGST,174546.10,18.000,,,,0.078,0.070,0.160*55
###2023-12-09 12:45:46.975380$GNZDA,174546.10,09,12,2023,00,00*75
###2023-12-09 12:45:46.976022$GNEBP,,,,,,M*13
###2023-12-09 12:45:47.145034$GNGGA,174546.30,4138.0497466,N,07032.3831622,W,1,24,0.6,13.374,M,-29.744,M,0.0,*52
###2023-12-09 12:45:47.345736$GNGGA,174546.50,4138.0497742,N,07032.3833110,W,1,24,0.6,13.374,M,-29.744,M,0.0,*55
###2023-12-09 12:45:47.545783$GNGGA,174546.70,4138.0497973,N,07032.3834533,W,1,24,0.6,13.378,M,-29.744,M,0.0,*55
###2023-12-09 12:45:47.747924$GNGGA,174546.90,4138.0498145,N,07032.3835902,W,1,24,0.6,13.375,M,-29.744,M,0.0,*5B
###2023-12-09 12:45:47.945466$GNRMC,174547.10,A,4138.0498264,N,07032.3837233,W,1.75,274.79,091223,,,A*50
###2023-12-09 12:45:47.948341$GNGGA,174547.10,4138.0498264,N,07032.3837233,W,1,24,0.6,13.378,M,-29.744,M,0.0,*54
###2023-12-09 12:45:47.950202$GPGSA,A,3,03,04,16,26,28,29,31,32,,,,,1.1,0.6,0.9*3B
###2023-12-09 12:45:47.951933$GLGSA,A,3,65,71,72,73,74,75,,,,,,,1.1,0.6,0.9*24
###2023-12-09 12:45:47.953510$GAGSA,A,3,04,19,21,27,,,,,,,,,1.1,0.6,0.9*26
###2023-12-09 12:45:47.955174$GBGSA,A,3,14,24,25,26,33,,,,,,,,1.1,0.6,0.9*2F
###2023-12-09 12:45:47.957497$GPGSV,2,1,08,03,37,270,43,04,26,311,40,16,42,209,46,26,72,208,47*70
###2023-12-09 12:45:47.959826$GPGSV,2,2,08,28,54,062,45,29,26,069,42,31,72,015,47,32,26,136,44*78
###2023-12-09 12:45:47.962146$GLGSV,2,1,06,65,17,329,41,71,50,171,48,72,70,297,45,73,43,037,45*69
###2023-12-09 12:45:47.963897$GLGSV,2,2,06,74,71,310,42,75,26,245,43,,,,,,,,*60
###2023-12-09 12:45:47.966219$GAGSV,1,1,04,04,24,312,39,19,84,283,40,21,82,167,46,27,38,049,44*65
###2023-12-09 12:45:47.968559$GBGSV,2,1,05,14,50,195,45,24,78,005,48,25,36,256,44,26,31,059,43*6F
###2023-12-09 12:45:47.970011$GBGSV,2,2,05,33,61,245,47,,,,,,,,,,,,*59
###2023-12-09 12:45:47.971344$GNVTG,274.79,T,,M,1.75,N,3.24,K,A*2A
###2023-12-09 12:45:47.972992$GNGST,174547.10,18.000,,,,0.078,0.070,0.160*54
###2023-12-09 12:45:47.974284$GNZDA,174547.10,09,12,2023,00,00*74
###2023-12-09 12:45:47.974934$GNEBP,,,,,,M*13
###2023-12-09 12:45:48.146013$GNGGA,174547.30,4138.0498326,N,07032.3838509,W,1,24,0.6,13.372,M,-29.744,M,0.0,*5A
###2023-12-09 12:45:48.345546$GNGGA,174547.50,4138.0498341,N,07032.3839744,W,1,24,0.6,13.372,M,-29.744,M,0.0,*57
###2023-12-09 12:45:48.545658$GNGGA,174547.70,4138.0498314,N,07032.3840947,W,1,24,0.6,13.371,M,-29.744,M,0.0,*55
###2023-12-09 12:45:48.746289$GNGGA,174547.90,4138.0498213,N,07032.3842091,W,1,24,0.6,13.367,M,-29.744,M,0.0,*5A
###2023-12-09 12:45:48.947214$GNRMC,174548.10,A,4138.0498108,N,07032.3843202,W,1.50,264.79,091223,,,A*51
###2023-12-09 12:45:48.950074$GNGGA,174548.10,4138.0498108,N,07032.3843202,W,1,24,0.6,13.370,M,-29.744,M,0.0,*5B
###2023-12-09 12:45:48.951952$GPGSA,A,3,03,04,16,26,28,29,31,32,,,,,1.1,0.6,0.9*3B
###2023-12-09 12:45:48.953672$GLGSA,A,3,65,71,72,73,74,75,,,,,,,1.1,0.6,0.9*24
###2023-12-09 12:45:48.955275$GAGSA,A,3,04,19,21,27,,,,,,,,,1.1,0.6,0.9*26
###2023-12-09 12:45:48.956927$GBGSA,A,3,14,24,25,26,33,,,,,,,,1.1,0.6,0.9*2F
###2023-12-09 12:45:48.959277$GPGSV,2,1,08,03,37,270,42,04,26,311,41,16,42,209,45,26,72,208,47*73
###2023-12-09 12:45:48.961612$GPGSV,2,2,08,28,54,062,45,29,26,068,42,31,72,015,47,32,26,136,43*7E
###2023-12-09 12:45:48.963966$GLGSV,2,1,06,65,17,329,43,71,50,171,47,72,70,297,45,73,43,037,47*66
###2023-12-09 12:45:48.965719$GLGSV,2,2,06,74,71,310,42,75,26,245,43,,,,,,,,*60
###2023-12-09 12:45:48.968063$GAGSV,1,1,04,04,24,312,40,19,84,283,40,21,82,167,46,27,38,049,44*6B
###2023-12-09 12:45:48.970393$GBGSV,2,1,05,14,50,195,45,24,78,005,48,25,36,256,44,26,31,059,44*68
###2023-12-09 12:45:48.971861$GBGSV,2,2,05,33,61,245,46,,,,,,,,,,,,*58
###2023-12-09 12:45:48.973189$GNVTG,264.79,T,,M,1.50,N,2.77,K,A*2B
###2023-12-09 12:45:48.974857$GNGST,174548.10,18.000,,,,0.078,0.070,0.160*5B
###2023-12-09 12:45:48.976153$GNZDA,174548.10,09,12,2023,00,00*7B
###2023-12-09 12:45:48.976791$GNEBP,,,,,,M*13
###2023-12-09 12:45:49.145659$GNGGA,174548.30,4138.0498023,N,07032.3844304,W,1,24,0.6,13.373,M,-29.744,M,0.0,*52
###2023-12-09 12:45:49.347666$GNGGA,174548.50,4138.0497906,N,07032.3845334,W,1,24,0.6,13.371,M,-29.744,M,0.0,*55
###2023-12-09 12:45:49.547702$GNGGA,174548.70,4138.0497657,N,07032.3846192,W,1,24,0.6,13.366,M,-29.744,M,0.0,*57
###2023-12-09 12:45:49.747625$GNGGA,174548.90,4138.0497416,N,07032.3847032,W,1,24,0.6,13.370,M,-29.744,M,0.0,*53
###2023-12-09 12:45:49.947248$GNRMC,174549.10,A,4138.0497341,N,07032.3848014,W,1.44,269.63,091223,,,A*5D
###2023-12-09 12:45:49.950093$GNGGA,174549.10,4138.0497341,N,07032.3848014,W,1,24,0.6,13.388,M,-29.744,M,0.0,*53
###2023-12-09 12:45:49.951954$GPGSA,A,3,03,04,16,26,28,29,31,32,,,,,1.1,0.6,0.9*3B
###2023-12-09 12:45:49.953662$GLGSA,A,3,65,71,72,73,74,75,,,,,,,1.1,0.6,0.9*24
###2023-12-09 12:45:49.955254$GAGSA,A,3,04,19,21,27,,,,,,,,,1.1,0.6,0.9*26
###2023-12-09 12:45:49.956902$GBGSA,A,3,14,24,25,26,33,,,,,,,,1.1,0.6,0.9*2F
###2023-12-09 12:45:49.959244$GPGSV,2,1,08,03,37,270,42,04,26,311,41,16,42,209,44,26,72,208,47*72
###2023-12-09 12:45:49.961571$GPGSV,2,2,08,28,54,062,45,29,26,068,42,31,72,015,47,32,26,136,44*79
###2023-12-09 12:45:49.963919$GLGSV,2,1,06,65,17,329,41,71,50,171,47,72,70,297,45,73,43,037,47*64
###2023-12-09 12:45:49.965663$GLGSV,2,2,06,74,71,310,42,75,26,245,43,,,,,,,,*60
###2023-12-09 12:45:49.967999$GAGSV,1,1,04,04,24,312,41,19,84,283,40,21,82,167,46,27,38,049,44*6A
###2023-12-09 12:45:49.970322$GBGSV,2,1,05,14,50,195,46,24,78,005,48,25,36,256,44,26,31,059,45*6A
###2023-12-09 12:45:49.971783$GBGSV,2,2,05,33,61,245,46,,,,,,,,,,,,*58
###2023-12-09 12:45:49.973108$GNVTG,269.63,T,,M,1.44,N,2.66,K,A*28
###2023-12-09 12:45:49.974766$GNGST,174549.10,18.000,,,,0.077,0.069,0.160*5D
###2023-12-09 12:45:49.976054$GNZDA,174549.10,09,12,2023,00,00*7A
###2023-12-09 12:45:49.976695$GNEBP,,,,,,M*13
###2023-12-09 12:45:50.144918$GNGGA,174549.30,4138.0497273,N,07032.3849050,W,1,24,0.6,13.391,M,-29.744,M,0.0,*58
###2023-12-09 12:45:50.346447$GNGGA,174549.50,4138.0497025,N,07032.3849870,W,1,24,0.6,13.379,M,-29.744,M,0.0,*53
###2023-12-09 12:45:50.546596$GNGGA,174549.70,4138.0496733,N,07032.3850520,W,1,24,0.6,13.379,M,-29.744,M,0.0,*50
###2023-12-09 12:45:50.746060$GNGGA,174549.90,4138.0496508,N,07032.3851249,W,1,24,0.6,13.376,M,-29.744,M,0.0,*52
###2023-12-09 12:45:50.947411$GNRMC,174550.10,A,4138.0496343,N,07032.3852072,W,1.09,252.26,091223,,,A*5D
###2023-12-09 12:45:50.950555$GNGGA,174550.10,4138.0496343,N,07032.3852072,W,1,24,0.6,13.377,M,-29.744,M,0.0,*53
###2023-12-09 12:45:50.952452$GPGSA,A,3,03,04,16,26,28,29,31,32,,,,,1.1,0.6,0.9*3B
###2023-12-09 12:45:50.954216$GLGSA,A,3,65,71,72,73,74,75,,,,,,,1.1,0.6,0.9*24
###2023-12-09 12:45:50.955824$GAGSA,A,3,04,19,21,27,,,,,,,,,1.1,0.6,0.9*26
###2023-12-09 12:45:50.957479$GBGSA,A,3,14,24,25,26,33,,,,,,,,1.1,0.6,0.9*2F
###2023-12-09 12:45:50.959827$GPGSV,2,1,08,03,37,270,42,04,26,311,43,16,42,209,42,26,72,208,47*76
###2023-12-09 12:45:50.962168$GPGSV,2,2,08,28,54,062,45,29,26,068,43,31,72,018,47,32,26,136,45*74
###2023-12-09 12:45:50.964520$GLGSV,2,1,06,65,17,329,41,71,50,171,48,72,70,297,45,73,43,037,47*6B
###2023-12-09 12:45:50.966276$GLGSV,2,2,06,74,71,310,43,75,26,245,42,,,,,,,,*60
