###2023-12-09 12:50:03.348516$GNGGA,175002.50,4138.0666147,N,07032.3926726,W,1,24,0.6,13.551,M,-29.744,M,0.0,*59
###2023-12-09 12:50:03.549626$GNGGA,175002.70,4138.0666439,N,07032.3927105,W,1,24,0.6,13.544,M,-29.744,M,0.0,*55
###2023-12-09 12:50:03.750517$GNGGA,175002.90,4138.0666531,N,07032.3927266,W,1,24,0.6,13.561,M,-29.744,M,0.0,*53
###2023-12-09 12:50:03.949437$GNRMC,175003.10,A,4138.0666592,N,07032.3927281,W,0.17,318.34,091223,,,A*57
###2023-12-09 12:50:03.952326$GNGGA,175003.10,4138.0666592,N,07032.3927281,W,1,24,0.6,13.570,M,-29.744,M,0.0,*5A
###2023-12-09 12:50:03.954190$GPGSA,A,3,03,04,16,26,28,29,31,32,,,,,1.1,0.6,0.9*3B
###2023-12-09 12:50:03.955931$GLGSA,A,3,65,71,72,73,74,75,,,,,,,1.1,0.6,0.9*24
###2023-12-09 12:50:03.957520$GAGSA,A,3,04,19,21,27,,,,,,,,,1.1,0.6,0.9*26
###2023-12-09 12:50:03.959186$GBGSA,A,3,14,24,25,26,33,,,,,,,,1.1,0.6,0.9*2F
###2023-12-09 12:50:03.961519$GPGSV,2,1,08,03,37,268,44,04,28,311,43,16,44,210,46,26,74,208,49*75
###2023-12-09 12:50:03.963872$GPGSV,2,2,08,28,53,065,45,29,26,066,42,31,71,024,47,32,23,138,44*7D
###2023-12-09 12:50:03.966212$GLGSV,2,1,06,65,18,329,43,71,48,171,48,72,71,291,46,73,41,038,42*63
###2023-12-09 12:50:03.967980$GLGSV,2,2,06,74,71,317,43,75,28,247,45,,,,,,,,*6C
###2023-12-09 12:50:03.970319$GAGSV,1,1,04,04,26,312,43,19,85,269,41,21,83,162,46,27,37,048,43*63
###2023-12-09 12:50:03.972678$GBGSV,2,1,05,14,49,195,45,24,77,011,49,25,37,257,45,26,30,060,44*61
###2023-12-09 12:50:03.974140$GBGSV,2,2,05,33,61,241,47,,,,,,,,,,,,*5D
###2023-12-09 12:50:03.975480$GNVTG,318.34,T,,M,0.17,N,0.32,K,A*29
###2023-12-09 12:50:03.977130$GNGST,175003.10,18.000,,,,0.076,0.068,0.160*57
###2023-12-09 12:50:03.978424$GNZDA,175003.10,09,12,2023,00,00*70
###2023-12-09 12:50:03.979077$GNEBP,,,,,,M*13
###2023-12-09 12:50:04.147489$GNGGA,175003.30,4138.0666747,N,07032.3927423,W,1,24,0.6,13.560,M,-29.744,M,0.0,*5D
###2023-12-09 12:50:04.348382$GNGGA,175003.50,4138.0666959,N,07032.3927686,W,1,24,0.6,13.536,M,-29.744,M,0.0,*54
###2023-12-09 12:50:04.548671$GNGGA,175003.70,4138.0667169,N,07032.3927939,W,1,24,0.6,13.526,M,-29.744,M,0.0,*56
###2023-12-09 12:50:04.748917$GNGGA,175003.90,4138.0667328,N,07032.3928132,W,1,24,0.6,13.546,M,-29.744,M,0.0,*55
###2023-12-09 12:50:04.948191$GNRMC,175004.10,A,4138.0667476,N,07032.3928283,W,0.33,318.34,091223,,,A*51
###2023-12-09 12:50:04.951066$GNGGA,175004.10,4138.0667476,N,07032.3928283,W,1,24,0.6,13.575,M,-29.744,M,0.0,*5F
###2023-12-09 12:50:04.952921$GPGSA,A,3,03,04,16,26,28,29,31,32,,,,,1.1,0.6,0.9*3B
###2023-12-09 12:50:04.954655$GLGSA,A,3,65,71,72,73,74,75,,,,,,,1.1,0.6,0.9*24
###2023-12-09 12:50:04.956247$GAGSA,A,3,04,19,21,27,,,,,,,,,1.1,0.6,0.9*26
###2023-12-09 12:50:04.957897$GBGSA,A,3,14,24,25,26,33,,,,,,,,1.1,0.6,0.9*2F
###2023-12-09 12:50:04.960251$GPGSV,2,1,08,03,37,268,45,04,28,311,43,16,44,210,45,26,74,208,49*77
###2023-12-09 12:50:04.962601$GPGSV,2,2,08,28,53,065,44,29,26,066,41,31,71,024,47,32,23,138,43*78
###2023-12-09 12:50:04.964928$GLGSV,2,1,06,65,18,329,44,71,48,171,47,72,71,291,47,73,41,038,43*6B
###2023-12-09 12:50:04.966678$GLGSV,2,2,06,74,71,317,43,75,28,247,46,,,,,,,,*6F
###2023-12-09 12:50:04.969004$GAGSV,1,1,04,04,26,312,43,19,85,269,41,21,83,162,46,27,37,048,43*63
###2023-12-09 12:50:04.971339$GBGSV,2,1,05,14,49,195,44,24,77,011,49,25,37,257,45,26,30,060,44*60
###2023-12-09 12:50:04.972794$GBGSV,2,2,05,33,61,241,47,,,,,,,,,,,,*5D
###2023-12-09 12:50:04.974119$GNVTG,318.34,T,,M,0.33,N,0.61,K,A*29
###2023-12-09 12:50:04.975777$GNGST,175004.10,18.000,,,,0.075,0.067,0.160*5C
###2023-12-09 12:50:04.977067$GNZDA,175004.10,09,12,2023,00,00*77
###2023-12-09 12:50:04.977704$GNEBP,,,,,,M*13
###2023-12-09 12:50:05.147479$GNGGA,175004.30,4138.0667613,N,07032.3928425,W,1,24,0.6,13.578,M,-29.744,M,0.0,*5B
###2023-12-09 12:50:05.348817$GNGGA,175004.50,4138.0667732,N,07032.3928553,W,1,24,0.6,13.552,M,-29.744,M,0.0,*57
###2023-12-09 12:50:05.548670$GNGGA,175004.70,4138.0667901,N,07032.3928770,W,1,24,0.6,13.534,M,-29.744,M,0.0,*58
###2023-12-09 12:50:05.753376$GNGGA,175004.90,4138.0668142,N,07032.3929108,W,1,24,0.6,13.539,M,-29.744,M,0.0,*53
###2023-12-09 12:50:05.950235$GNRMC,175005.10,A,4138.0668371,N,07032.3929399,W,0.35,318.34,091223,,,A*52
###2023-12-09 12:50:05.953133$GNGGA,175005.10,4138.0668371,N,07032.3929399,W,1,24,0.6,13.564,M,-29.744,M,0.0,*5A
###2023-12-09 12:50:05.955029$GPGSA,A,3,03,04,16,26,28,29,31,32,,,,,1.1,0.6,0.9*3B
###2023-12-09 12:50:05.956753$GLGSA,A,3,65,71,72,73,74,75,,,,,,,1.1,0.6,0.9*24
###2023-12-09 12:50:05.958335$GAGSA,A,3,04,19,21,27,,,,,,,,,1.1,0.6,0.9*26
###2023-12-09 12:50:05.959997$GBGSA,A,3,14,24,25,26,33,,,,,,,,1.1,0.6,0.9*2F
###2023-12-09 12:50:05.962323$GPGSV,2,1,08,03,37,268,45,04,28,311,44,16,44,210,44,26,74,208,49*71
###2023-12-09 12:50:05.964665$GPGSV,2,2,08,28,53,065,44,29,26,066,40,31,71,024,47,32,23,138,40*7A
###2023-12-09 12:50:05.967041$GLGSV,2,1,06,65,18,329,45,71,48,171,46,72,71,291,47,73,41,038,43*6B
###2023-12-09 12:50:05.968792$GLGSV,2,2,06,74,71,317,43,75,28,247,47,,,,,,,,*6E
###2023-12-09 12:50:05.971130$GAGSV,1,1,04,04,26,312,44,19,85,269,41,21,83,162,46,27,37,048,43*64
###2023-12-09 12:50:05.973467$GBGSV,2,1,05,14,49,195,45,24,77,011,48,25,37,257,47,26,30,060,43*65
###2023-12-09 12:50:05.974934$GBGSV,2,2,05,33,61,241,48,,,,,,,,,,,,*52
###2023-12-09 12:50:05.976259$GNVTG,318.34,T,,M,0.35,N,0.65,K,A*2B
###2023-12-09 12:50:05.977911$GNGST,175005.10,18.000,,,,0.075,0.067,0.160*5D
###2023-12-09 12:50:05.979219$GNZDA,175005.10,09,12,2023,00,00*76
###2023-12-09 12:50:05.979858$GNEBP,,,,,,M*13
###2023-12-09 12:50:06.149604$GNGGA,175005.30,4138.0668457,N,07032.3929457,W,1,24,0.6,13.580,M,-29.744,M,0.0,*54
###2023-12-09 12:50:06.349848$GNGGA,175005.50,4138.0668481,N,07032.3929490,W,1,24,0.6,13.556,M,-29.744,M,0.0,*59
###2023-12-09 12:50:06.550153$GNGGA,175005.70,4138.0668636,N,07032.3929668,W,1,24,0.6,13.529,M,-29.744,M,0.0,*58
###2023-12-09 12:50:06.749201$GNGGA,175005.90,4138.0668938,N,07032.3930050,W,1,24,0.6,13.523,M,-29.744,M,0.0,*58
###2023-12-09 12:50:06.949672$GNRMC,175006.10,A,4138.0669131,N,07032.3930316,W,0.29,318.34,091223,,,A*54
###2023-12-09 12:50:06.952565$GNGGA,175006.10,4138.0669131,N,07032.3930316,W,1,24,0.6,13.539,M,-29.744,M,0.0,*59
###2023-12-09 12:50:06.954430$GPGSA,A,3,03,04,16,26,28,29,31,32,,,,,1.1,0.6,0.9*3B
###2023-12-09 12:50:06.956171$GLGSA,A,3,65,71,72,73,74,75,,,,,,,1.1,0.6,0.9*24
###2023-12-09 12:50:06.957767$GAGSA,A,3,04,19,21,27,,,,,,,,,1.1,0.6,0.9*26
###2023-12-09 12:50:06.959430$GBGSA,A,3,14,24,25,26,33,,,,,,,,1.1,0.6,0.9*2F
###2023-12-09 12:50:06.961759$GPGSV,2,1,08,03,37,268,46,04,28,311,45,16,44,210,45,26,74,208,48*73
###2023-12-09 12:50:06.964111$GPGSV,2,2,08,28,53,065,44,29,26,066,40,31,71,024,47,32,23,138,39*74
###2023-12-09 12:50:06.966449$GLGSV,2,1,06,65,18,329,45,71,48,171,46,72,71,291,47,73,41,038,44*6C
###2023-12-09 12:50:06.968213$GLGSV,2,2,06,74,71,317,43,75,28,247,46,,,,,,,,*6F
###2023-12-09 12:50:06.970547$GAGSV,1,1,04,04,26,312,44,19,85,269,41,21,83,162,47,27,37,048,43*65
###2023-12-09 12:50:06.972940$GBGSV,2,1,05,14,49,195,45,24,77,011,49,25,37,257,46,26,30,060,42*64
###2023-12-09 12:50:06.974403$GBGSV,2,2,05,33,61,241,48,,,,,,,,,,,,*52
###2023-12-09 12:50:06.975739$GNVTG,318.34,T,,M,0.29,N,0.54,K,A*24
###2023-12-09 12:50:06.977390$GNGST,175006.10,18.000,,,,0.075,0.067,0.160*5E
###2023-12-09 12:50:06.978701$GNZDA,175006.10,09,12,2023,00,00*75
###2023-12-09 12:50:06.979343$GNEBP,,,,,,M*13
###2023-12-09 12:50:07.148270$GNGGA,175006.30,4138.0669178,N,07032.3930325,W,1,24,0.6,13.578,M,-29.744,M,0.0,*53
###2023-12-09 12:50:07.349768$GNGGA,175006.50,4138.0669161,N,07032.3930346,W,1,24,0.6,13.570,M,-29.744,M,0.0,*50
###2023-12-09 12:50:07.549259$GNGGA,175006.70,4138.0669312,N,07032.3930555,W,1,24,0.6,13.535,M,-29.744,M,0.0,*51
###2023-12-09 12:50:07.748720$GNGGA,175006.90,4138.0669638,N,07032.3930948,W,1,24,0.6,13.512,M,-29.744,M,0.0,*57
###2023-12-09 12:50:07.949741$GNRMC,175007.10,A,4138.0669828,N,07032.3931188,W,0.16,318.34,091223,,,A*5C
###2023-12-09 12:50:07.953239$GNGGA,175007.10,4138.0669828,N,07032.3931188,W,1,24,0.6,13.507,M,-29.744,M,0.0,*50
###2023-12-09 12:50:07.955513$GPGSA,A,3,03,04,16,26,28,29,31,32,,,,,1.1,0.6,0.9*3B
###2023-12-09 12:50:07.957900$GLGSA,A,3,65,71,72,73,74,75,,,,,,,1.1,0.6,0.9*24
###2023-12-09 12:50:07.959859$GAGSA,A,3,04,19,21,27,,,,,,,,,1.1,0.6,0.9*26
###2023-12-09 12:50:07.961872$GBGSA,A,3,14,24,25,26,33,,,,,,,,1.1,0.6,0.9*2F
###2023-12-09 12:50:07.964761$GPGSV,2,1,08,03,37,268,45,04,28,311,46,16,44,210,46,26,74,208,49*71
###2023-12-09 12:50:07.967612$GPGSV,2,2,08,28,53,065,44,29,26,066,40,31,71,024,48,32,23,138,42*77
###2023-12-09 12:50:07.970452$GLGSV,2,1,06,65,18,329,46,71,48,171,48,72,71,291,46,73,41,038,43*67
###2023-12-09 12:50:07.972594$GLGSV,2,2,06,74,71,317,44,75,28,247,45,,,,,,,,*6B
###2023-12-09 12:50:07.975436$GAGSV,1,1,04,04,26,312,44,19,85,269,41,21,83,162,47,27,37,048,42*64
###2023-12-09 12:50:07.978266$GBGSV,2,1,05,14,49,195,44,24,77,011,49,25,37,257,47,26,30,060,43*65
###2023-12-09 12:50:07.980050$GBGSV,2,2,05,33,61,241,47,,,,,,,,,,,,*5D
