###2023-12-09 13:10:41.772004$GNGGA,181040.90,4138.0110519,N,07032.2612234,W,1,24,0.7,12.951,M,-29.744,M,0.0,*52
###2023-12-09 13:10:41.972833$GNRMC,181041.10,A,4138.0108630,N,07032.2612635,W,3.46,195.39,091223,,,A*50
###2023-12-09 13:10:41.975703$GNGGA,181041.10,4138.0108630,N,07032.2612635,W,1,24,0.7,12.971,M,-29.744,M,0.0,*5D
###2023-12-09 13:10:41.977501$GPGSA,A,3,03,04,16,26,28,29,31,,,,,,1.2,0.7,1.0*30
###2023-12-09 13:10:41.979237$GLGSA,A,3,65,71,72,73,74,75,,,,,,,1.2,0.7,1.0*2E
###2023-12-09 13:10:41.980826$GAGSA,A,3,04,19,21,27,,,,,,,,,1.2,0.7,1.0*2C
###2023-12-09 13:10:41.982543$GBGSA,A,3,14,24,25,26,33,35,,,,,,,1.2,0.7,1.0*23
###2023-12-09 13:10:41.984888$GPGSV,2,1,07,03,33,257,41,04,36,311,45,16,54,214,44,26,84,210,48*7E
###2023-12-09 13:10:41.986944$GPGSV,2,2,07,28,46,074,45,29,24,057,42,31,67,046,47,,,,*4F
###2023-12-09 13:10:41.989282$GLGSV,2,1,06,65,28,326,43,71,36,173,42,72,72,254,46,73,32,044,43*6A
###2023-12-09 13:10:41.991043$GLGSV,2,2,06,74,68,348,43,75,35,257,45,,,,,,,,*63
###2023-12-09 13:10:41.993361$GAGSV,1,1,04,04,32,312,44,19,81,196,40,21,85,078,46,27,30,048,40*6F
###2023-12-09 13:10:41.995695$GBGSV,2,1,06,14,39,192,42,24,70,032,49,25,44,266,47,26,23,065,44*60
###2023-12-09 13:10:41.997441$GBGSV,2,2,06,33,54,227,46,35,15,065,44,,,,,,,,*68
###2023-12-09 13:10:41.998784$GNVTG,195.39,T,,M,3.46,N,6.41,K,A*26
###2023-12-09 13:10:42.000430$GNGST,181041.10,18.000,,,,0.100,0.071,0.170*53
###2023-12-09 13:10:42.001722$GNZDA,181041.10,09,12,2023,00,00*7D
###2023-12-09 13:10:42.002358$GNEBP,,,,,,M*13
###2023-12-09 13:10:42.173041$GNGGA,181041.30,4138.0106781,N,07032.2613387,W,1,24,0.7,12.991,M,-29.744,M,0.0,*59
###2023-12-09 13:10:42.370309$GNGGA,181041.50,4138.0104862,N,07032.2613855,W,1,24,0.7,12.949,M,-29.744,M,0.0,*5E
###2023-12-09 13:10:42.571130$GNGGA,181041.70,4138.0103094,N,07032.2614751,W,1,24,0.7,12.960,M,-29.744,M,0.0,*5D
###2023-12-09 13:10:42.771016$GNGGA,181041.90,4138.0101322,N,07032.2615676,W,1,24,0.7,12.983,M,-29.744,M,0.0,*57
###2023-12-09 13:10:42.972852$GNRMC,181042.10,A,4138.0099569,N,07032.2616605,W,3.23,205.33,091223,,,A*51
###2023-12-09 13:10:42.975713$GNGGA,181042.10,4138.0099569,N,07032.2616605,W,1,24,0.7,12.963,M,-29.744,M,0.0,*5C
###2023-12-09 13:10:42.977504$GPGSA,A,3,03,04,16,26,28,29,31,,,,,,1.2,0.7,1.0*30
###2023-12-09 13:10:42.979237$GLGSA,A,3,65,71,72,73,74,75,,,,,,,1.2,0.7,1.0*2E
###2023-12-09 13:10:42.980822$GAGSA,A,3,04,19,21,27,,,,,,,,,1.2,0.7,1.0*2C
###2023-12-09 13:10:42.982530$GBGSA,A,3,14,24,25,26,33,35,,,,,,,1.2,0.7,1.0*23
###2023-12-09 13:10:42.984865$GPGSV,2,1,07,03,33,257,43,04,36,311,45,16,54,214,45,26,84,210,48*7D
###2023-12-09 13:10:42.986918$GPGSV,2,2,07,28,46,074,44,29,24,057,43,31,67,046,48,,,,*40
###2023-12-09 13:10:42.989252$GLGSV,2,1,06,65,28,326,42,71,36,173,44,72,72,254,46,73,32,044,46*68
###2023-12-09 13:10:42.991011$GLGSV,2,2,06,74,68,348,43,75,35,257,44,,,,,,,,*62
###2023-12-09 13:10:42.993334$GAGSV,1,1,04,04,32,312,43,19,81,196,40,21,85,078,46,27,30,048,44*6C
###2023-12-09 13:10:42.995679$GBGSV,2,1,06,14,39,192,42,24,70,032,49,25,44,266,45,26,23,065,43*65
###2023-12-09 13:10:42.997442$GBGSV,2,2,06,33,54,227,46,35,15,065,44,,,,,,,,*68
###2023-12-09 13:10:42.998786$GNVTG,205.33,T,,M,3.23,N,5.98,K,A*22
###2023-12-09 13:10:43.000443$GNGST,181042.10,18.000,,,,0.100,0.071,0.170*50
###2023-12-09 13:10:43.001736$GNZDA,181042.10,09,12,2023,00,00*7E
###2023-12-09 13:10:43.002376$GNEBP,,,,,,M*13
###2023-12-09 13:10:43.170278$GNGGA,181042.30,4138.0097948,N,07032.2617829,W,1,24,0.7,12.962,M,-29.744,M,0.0,*5F
###2023-12-09 13:10:43.371498$GNGGA,181042.50,4138.0096369,N,07032.2619201,W,1,24,0.7,12.969,M,-29.744,M,0.0,*54
###2023-12-09 13:10:43.573202$GNGGA,181042.70,4138.0094805,N,07032.2620593,W,1,24,0.7,12.961,M,-29.744,M,0.0,*5B
###2023-12-09 13:10:43.771053$GNGGA,181042.90,4138.0093347,N,07032.2622167,W,1,24,0.7,12.959,M,-29.744,M,0.0,*59
###2023-12-09 13:10:43.975001$GNRMC,181043.10,A,4138.0092004,N,07032.2623903,W,3.44,225.73,091223,,,A*5D
###2023-12-09 13:10:43.977852$GNGGA,181043.10,4138.0092004,N,07032.2623903,W,1,24,0.7,12.962,M,-29.744,M,0.0,*56
###2023-12-09 13:10:43.979655$GPGSA,A,3,03,04,16,26,28,29,31,,,,,,1.2,0.7,1.0*30
###2023-12-09 13:10:43.981374$GLGSA,A,3,65,71,72,73,74,75,,,,,,,1.2,0.7,1.0*2E
###2023-12-09 13:10:43.982966$GAGSA,A,3,04,19,21,27,,,,,,,,,1.2,0.7,1.0*2C
###2023-12-09 13:10:43.984674$GBGSA,A,3,14,24,25,26,33,35,,,,,,,1.2,0.7,1.0*23
###2023-12-09 13:10:43.987012$GPGSV,2,1,07,03,33,257,41,04,36,311,43,16,54,214,44,26,84,210,47*77
###2023-12-09 13:10:43.989054$GPGSV,2,2,07,28,46,074,44,29,24,057,42,31,67,046,46,,,,*4F
###2023-12-09 13:10:43.991392$GLGSV,2,1,06,65,28,326,42,71,35,174,45,72,72,254,46,73,32,044,46*6D
###2023-12-09 13:10:43.993137$GLGSV,2,2,06,74,68,348,43,75,35,257,44,,,,,,,,*62
###2023-12-09 13:10:43.995468$GAGSV,1,1,04,04,32,312,41,19,81,196,39,21,85,078,45,27,30,048,42*65
###2023-12-09 13:10:43.997787$GBGSV,2,1,06,14,39,192,43,24,70,032,49,25,44,266,45,26,23,065,43*64
###2023-12-09 13:10:43.999537$GBGSV,2,2,06,33,54,227,45,35,15,065,44,,,,,,,,*6B
###2023-12-09 13:10:44.000863$GNVTG,225.73,T,,M,3.44,N,6.37,K,A*23
###2023-12-09 13:10:44.002498$GNGST,181043.10,18.000,,,,0.100,0.071,0.170*51
###2023-12-09 13:10:44.003800$GNZDA,181043.10,09,12,2023,00,00*7F
###2023-12-09 13:10:44.004439$GNEBP,,,,,,M*13
###2023-12-09 13:10:44.170167$GNGGA,181043.30,4138.0090692,N,07032.2625698,W,1,24,0.7,12.956,M,-29.744,M,0.0,*53
###2023-12-09 13:10:44.370366$GNGGA,181043.50,4138.0089576,N,07032.2627641,W,1,24,0.7,12.946,M,-29.744,M,0.0,*53
###2023-12-09 13:10:44.571079$GNGGA,181043.70,4138.0088602,N,07032.2629691,W,1,24,0.7,12.956,M,-29.744,M,0.0,*52
###2023-12-09 13:10:44.771446$GNGGA,181043.90,4138.0087647,N,07032.2631775,W,1,24,0.7,12.940,M,-29.744,M,0.0,*57
###2023-12-09 13:10:44.981715$GNRMC,181044.10,A,4138.0086948,N,07032.2633991,W,3.29,250.99,091223,,,A*59
###2023-12-09 13:10:44.984618$GNGGA,181044.10,4138.0086948,N,07032.2633991,W,1,24,0.7,12.944,M,-29.744,M,0.0,*5B
###2023-12-09 13:10:44.986417$GPGSA,A,3,03,04,16,26,28,29,31,,,,,,1.2,0.7,1.0*30
###2023-12-09 13:10:44.988148$GLGSA,A,3,65,71,72,73,74,75,,,,,,,1.2,0.7,1.0*2E
###2023-12-09 13:10:44.989733$GAGSA,A,3,04,19,21,27,,,,,,,,,1.2,0.7,1.0*2C
###2023-12-09 13:10:44.991459$GBGSA,A,3,14,24,25,26,33,35,,,,,,,1.2,0.7,1.0*23
###2023-12-09 13:10:44.993784$GPGSV,2,1,07,03,33,257,41,04,36,311,41,16,54,214,43,26,84,210,46*73
###2023-12-09 13:10:44.995835$GPGSV,2,2,07,28,46,074,42,29,24,057,41,31,67,046,45,,,,*49
###2023-12-09 13:10:44.998161$GLGSV,2,1,06,65,28,326,41,71,35,174,46,72,72,250,45,73,32,044,44*68
###2023-12-09 13:10:44.999919$GLGSV,2,2,06,74,68,348,43,75,35,257,44,,,,,,,,*62
###2023-12-09 13:10:45.002245$GAGSV,1,1,04,04,32,312,41,19,81,196,40,21,85,078,45,27,30,048,39*67
###2023-12-09 13:10:45.004590$GBGSV,2,1,06,14,39,192,45,24,70,032,49,25,44,266,43,26,23,065,44*63
###2023-12-09 13:10:45.006342$GBGSV,2,2,06,33,54,227,47,35,15,065,45,,,,,,,,*68
###2023-12-09 13:10:45.007676$GNVTG,250.99,T,,M,3.29,N,6.08,K,A*22
###2023-12-09 13:10:45.009328$GNGST,181044.10,18.000,,,,0.100,0.071,0.170*56
###2023-12-09 13:10:45.010672$GNZDA,181044.10,09,12,2023,00,00*78
###2023-12-09 13:10:45.011319$GNEBP,,,,,,M*13
###2023-12-09 13:10:45.173354$GNGGA,181044.30,4138.0086374,N,07032.2636327,W,1,24,0.7,12.964,M,-29.744,M,0.0,*5C
###2023-12-09 13:10:45.371428$GNGGA,181044.50,4138.0085823,N,07032.2638659,W,1,24,0.7,12.959,M,-29.744,M,0.0,*5C
###2023-12-09 13:10:45.570953$GNGGA,181044.70,4138.0085405,N,07032.2641004,W,1,24,0.7,12.956,M,-29.744,M,0.0,*59
###2023-12-09 13:10:45.771330$GNGGA,181044.90,4138.0084988,N,07032.2643361,W,1,24,0.7,12.947,M,-29.744,M,0.0,*5C
###2023-12-09 13:10:45.978697$GNRMC,181045.10,A,4138.0084755,N,07032.2645721,W,3.19,265.14,091223,,,A*5C
###2023-12-09 13:10:45.981560$GNGGA,181045.10,4138.0084755,N,07032.2645721,W,1,24,0.7,12.946,M,-29.744,M,0.0,*5C
###2023-12-09 13:10:45.983373$GPGSA,A,3,03,04,16,26,28,29,31,,,,,,1.2,0.7,1.0*30
###2023-12-09 13:10:45.985086$GLGSA,A,3,65,71,72,73,74,75,,,,,,,1.2,0.7,1.0*2E
###2023-12-09 13:10:45.986672$GAGSA,A,3,04,19,21,27,,,,,,,,,1.2,0.7,1.0*2C
###2023-12-09 13:10:45.988376$GBGSA,A,3,14,24,25,26,33,35,,,,,,,1.2,0.7,1.0*23
###2023-12-09 13:10:45.990976$GPGSV,2,1,07,03,33,257,41,04,36,311,42,16,54,214,45,26,84,210,46*76
###2023-12-09 13:10:45.993027$GPGSV,2,2,07,28,46,074,44,29,24,057,38,31,67,046,46,,,,*42
###2023-12-09 13:10:45.995369$GLGSV,2,1,06,65,28,326,41,71,35,174,46,72,72,250,45,73,31,045,44*6A
###2023-12-09 13:10:45.997116$GLGSV,2,2,06,74,68,348,42,75,35,257,42,,,,,,,,*65
###2023-12-09 13:10:45.999449$GAGSV,1,1,04,04,32,312,41,19,81,196,40,21,85,078,45,27,30,048,41*68
###2023-12-09 13:10:46.001772$GBGSV,2,1,06,14,39,192,44,24,70,032,49,25,44,266,44,26,23,065,42*63
###2023-12-09 13:10:46.003528$GBGSV,2,2,06,33,54,227,48,35,15,065,44,,,,,,,,*66
###2023-12-09 13:10:46.004854$GNVTG,265.14,T,,M,3.19,N,5.90,K,A*20
###2023-12-09 13:10:46.006496$GNGST,181045.10,18.000,,,,0.099,0.072,0.170*55
