###2023-12-09 12:51:52.969957$GLGSV,2,1,06,65,19,329,45,71,47,171,48,72,72,288,46,73,40,038,44*67
###2023-12-09 12:51:52.971759$GLGSV,2,2,06,74,71,321,43,75,28,248,47,,,,,,,,*64
###2023-12-09 12:51:52.974103$GAGSV,1,1,04,04,26,312,44,19,85,258,41,21,83,157,47,27,36,048,42*61
###2023-12-09 12:51:52.976462$GBGSV,2,1,05,14,48,194,46,24,77,014,49,25,37,258,47,26,29,060,43*65
###2023-12-09 12:51:52.977913$GBGSV,2,2,05,33,60,240,49,,,,,,,,,,,,*53
###2023-12-09 12:51:52.979246$GNVTG,331.21,T,,M,0.21,N,0.40,K,A*26
###2023-12-09 12:51:52.980896$GNGST,175152.10,18.000,,,,0.076,0.067,0.160*5D
###2023-12-09 12:51:52.982187$GNZDA,175152.10,09,12,2023,00,00*75
###2023-12-09 12:51:52.982845$GNEBP,,,,,,M*13
###2023-12-09 12:51:53.153236$GNGGA,175152.30,4138.0600196,N,07032.3830924,W,1,24,0.6,13.278,M,-29.744,M,0.0,*51
###2023-12-09 12:51:53.352772$GNGGA,175152.50,4138.0600409,N,07032.3831069,W,1,24,0.6,13.273,M,-29.744,M,0.0,*5E
###2023-12-09 12:51:53.552902$GNGGA,175152.70,4138.0600677,N,07032.3831276,W,1,24,0.6,13.256,M,-29.744,M,0.0,*5C
###2023-12-09 12:51:53.753040$GNGGA,175152.90,4138.0600957,N,07032.3831512,W,1,24,0.6,13.240,M,-29.744,M,0.0,*5D
###2023-12-09 12:51:53.954363$GNRMC,175153.10,A,4138.0601155,N,07032.3831646,W,0.27,331.21,091223,,,A*58
###2023-12-09 12:51:53.957247$GNGGA,175153.10,4138.0601155,N,07032.3831646,W,1,24,0.6,13.243,M,-29.744,M,0.0,*5E
###2023-12-09 12:51:53.959123$GPGSA,A,3,03,04,16,26,28,29,31,32,,,,,1.1,0.6,0.9*3B
###2023-12-09 12:51:53.960840$GLGSA,A,3,65,71,72,73,74,75,,,,,,,1.1,0.6,0.9*24
###2023-12-09 12:51:53.962424$GAGSA,A,3,04,19,21,27,,,,,,,,,1.1,0.6,0.9*26
###2023-12-09 12:51:53.964088$GBGSA,A,3,14,24,25,26,33,,,,,,,,1.1,0.6,0.9*2F
###2023-12-09 12:51:53.966429$GPGSV,2,1,08,03,37,267,42,04,29,311,42,16,45,210,44,26,75,209,47*71
###2023-12-09 12:51:53.968790$GPGSV,2,2,08,28,52,066,42,29,26,065,37,31,71,026,45,32,23,138,42*7F
###2023-12-09 12:51:53.971138$GLGSV,2,1,06,65,19,329,44,71,47,171,48,72,72,288,46,73,40,038,44*66
###2023-12-09 12:51:53.972890$GLGSV,2,2,06,74,71,321,43,75,28,248,46,,,,,,,,*65
###2023-12-09 12:51:53.975231$GAGSV,1,1,04,04,26,312,42,19,85,258,39,21,83,157,45,27,36,048,41*69
###2023-12-09 12:51:53.977559$GBGSV,2,1,05,14,48,194,45,24,77,014,48,25,37,258,46,26,29,060,43*66
###2023-12-09 12:51:53.979024$GBGSV,2,2,05,33,60,240,48,,,,,,,,,,,,*52
###2023-12-09 12:51:53.980346$GNVTG,331.21,T,,M,0.27,N,0.50,K,A*21
###2023-12-09 12:51:53.981990$GNGST,175153.10,18.000,,,,0.075,0.067,0.160*5F
###2023-12-09 12:51:53.983294$GNZDA,175153.10,09,12,2023,00,00*74
###2023-12-09 12:51:53.983936$GNEBP,,,,,,M*13
###2023-12-09 12:51:54.156200$GNGGA,175153.30,4138.0601293,N,07032.3831723,W,1,24,0.6,13.257,M,-29.744,M,0.0,*52
###2023-12-09 12:51:54.354359$GNGGA,175153.50,4138.0601488,N,07032.3831869,W,1,24,0.6,13.269,M,-29.744,M,0.0,*54
###2023-12-09 12:51:54.554889$GNGGA,175153.70,4138.0601764,N,07032.3832078,W,1,24,0.6,13.264,M,-29.744,M,0.0,*51
###2023-12-09 12:51:54.753644$GNGGA,175153.90,4138.0601988,N,07032.3832235,W,1,24,0.6,13.248,M,-29.744,M,0.0,*56
###2023-12-09 12:51:54.954276$GNRMC,175154.10,A,4138.0602173,N,07032.3832346,W,0.29,331.21,091223,,,A*50
###2023-12-09 12:51:54.957776$GNGGA,175154.10,4138.0602173,N,07032.3832346,W,1,24,0.6,13.243,M,-29.744,M,0.0,*58
###2023-12-09 12:51:54.960051$GPGSA,A,3,03,04,16,26,28,29,31,32,,,,,1.1,0.6,0.9*3B
###2023-12-09 12:51:54.962150$GLGSA,A,3,65,71,72,73,74,75,,,,,,,1.1,0.6,0.9*24
###2023-12-09 12:51:54.964144$GAGSA,A,3,04,19,21,27,,,,,,,,,1.1,0.6,0.9*26
###2023-12-09 12:51:54.966145$GBGSA,A,3,14,24,25,26,33,,,,,,,,1.1,0.6,0.9*2F
###2023-12-09 12:51:54.968982$GPGSV,2,1,08,03,37,267,42,04,29,311,42,16,45,210,45,26,75,209,47*70
###2023-12-09 12:51:54.971829$GPGSV,2,2,08,28,52,066,43,29,26,065,39,31,71,026,45,32,23,138,43*71
###2023-12-09 12:51:54.974678$GLGSV,2,1,06,65,19,329,44,71,47,171,48,72,72,288,46,73,40,038,43*61
###2023-12-09 12:51:54.976794$GLGSV,2,2,06,74,71,321,43,75,28,248,46,,,,,,,,*65
###2023-12-09 12:51:54.979631$GAGSV,1,1,04,04,26,312,42,19,85,258,40,21,83,157,46,27,36,048,42*67
###2023-12-09 12:51:54.982469$GBGSV,2,1,05,14,48,194,46,24,77,014,49,25,37,258,46,26,29,060,44*63
###2023-12-09 12:51:54.984245$GBGSV,2,2,05,33,60,240,48,,,,,,,,,,,,*52
###2023-12-09 12:51:54.985846$GNVTG,331.21,T,,M,0.29,N,0.54,K,A*2B
###2023-12-09 12:51:54.987838$GNGST,175154.10,18.000,,,,0.076,0.067,0.160*5B
###2023-12-09 12:51:54.989407$GNZDA,175154.10,09,12,2023,00,00*73
###2023-12-09 12:51:54.990185$GNEBP,,,,,,M*13
###2023-12-09 12:51:55.152844$GNGGA,175154.30,4138.0602331,N,07032.3832456,W,1,24,0.6,13.246,M,-29.744,M,0.0,*5D
###2023-12-09 12:51:55.353787$GNGGA,175154.50,4138.0602528,N,07032.3832613,W,1,24,0.6,13.249,M,-29.744,M,0.0,*59
###2023-12-09 12:51:55.552862$GNGGA,175154.70,4138.0602781,N,07032.3832835,W,1,24,0.6,13.249,M,-29.744,M,0.0,*50
###2023-12-09 12:51:55.752882$GNGGA,175154.90,4138.0603021,N,07032.3833010,W,1,24,0.6,13.246,M,-29.744,M,0.0,*53
###2023-12-09 12:51:55.954629$GNRMC,175155.10,A,4138.0603214,N,07032.3833091,W,0.29,331.21,091223,,,A*5A
###2023-12-09 12:51:55.957527$GNGGA,175155.10,4138.0603214,N,07032.3833091,W,1,24,0.6,13.237,M,-29.744,M,0.0,*51
###2023-12-09 12:51:55.959412$GPGSA,A,3,03,04,16,26,28,29,31,32,,,,,1.1,0.6,0.9*3B
###2023-12-09 12:51:55.961121$GLGSA,A,3,65,71,72,73,74,75,,,,,,,1.1,0.6,0.9*24
###2023-12-09 12:51:55.962722$GAGSA,A,3,04,19,21,27,,,,,,,,,1.1,0.6,0.9*26
###2023-12-09 12:51:55.964367$GBGSA,A,3,14,24,25,26,33,,,,,,,,1.1,0.6,0.9*2F
###2023-12-09 12:51:55.966696$GPGSV,2,1,08,03,37,267,43,04,29,311,43,16,45,210,45,26,75,209,48*7F
###2023-12-09 12:51:55.969030$GPGSV,2,2,08,28,52,066,43,29,26,065,40,31,71,026,47,32,23,138,43*7D
###2023-12-09 12:51:55.971374$GLGSV,2,1,06,65,19,329,44,71,47,171,48,72,72,288,46,73,40,038,43*61
###2023-12-09 12:51:55.973121$GLGSV,2,2,06,74,71,321,43,75,28,248,45,,,,,,,,*66
###2023-12-09 12:51:55.975454$GAGSV,1,1,04,04,26,312,41,19,85,258,40,21,83,157,46,27,36,048,41*67
###2023-12-09 12:51:55.977779$GBGSV,2,1,05,14,48,194,44,24,77,014,47,25,37,258,44,26,29,060,42*6B
###2023-12-09 12:51:55.979237$GBGSV,2,2,05,33,60,240,46,,,,,,,,,,,,*5C
###2023-12-09 12:51:55.980562$GNVTG,331.21,T,,M,0.29,N,0.54,K,A*2B
###2023-12-09 12:51:55.982208$GNGST,175155.10,18.000,,,,0.076,0.067,0.160*5A
###2023-12-09 12:51:55.983508$GNZDA,175155.10,09,12,2023,00,00*72
###2023-12-09 12:51:55.984147$GNEBP,,,,,,M*13
###2023-12-09 12:51:56.153113$GNGGA,175155.30,4138.0603350,N,07032.3833187,W,1,24,0.6,13.222,M,-29.744,M,0.0,*50
###2023-12-09 12:51:56.352830$GNGGA,175155.50,4138.0603525,N,07032.3833360,W,1,24,0.6,13.213,M,-29.744,M,0.0,*5B
###2023-12-09 12:51:56.552794$GNGGA,175155.70,4138.0603788,N,07032.3833607,W,1,24,0.6,13.216,M,-29.744,M,0.0,*5D
###2023-12-09 12:51:56.755952$GNGGA,175155.90,4138.0604062,N,07032.3833831,W,1,24,0.6,13.226,M,-29.744,M,0.0,*5F
###2023-12-09 12:51:56.957935$GNRMC,175156.10,A,4138.0604217,N,07032.3833913,W,0.16,331.21,091223,,,A*52
###2023-12-09 12:51:56.960811$GNGGA,175156.10,4138.0604217,N,07032.3833913,W,1,24,0.6,13.228,M,-29.744,M,0.0,*5B
###2023-12-09 12:51:56.962680$GPGSA,A,3,03,04,16,26,28,29,31,32,,,,,1.1,0.6,0.9*3B
###2023-12-09 12:51:56.964394$GLGSA,A,3,65,71,72,73,74,75,,,,,,,1.1,0.6,0.9*24
###2023-12-09 12:51:56.965974$GAGSA,A,3,04,19,21,27,,,,,,,,,1.1,0.6,0.9*26
###2023-12-09 12:51:56.967634$GBGSA,A,3,14,24,25,26,33,,,,,,,,1.1,0.6,0.9*2F
###2023-12-09 12:51:56.969955$GPGSV,2,1,08,03,37,267,44,04,29,311,45,16,45,210,45,26,75,209,48*7E
###2023-12-09 12:51:56.972299$GPGSV,2,2,08,28,52,066,44,29,26,065,40,31,71,026,47,32,23,138,43*7A
###2023-12-09 12:51:56.974631$GLGSV,2,1,06,65,19,329,43,71,47,171,47,72,72,288,46,73,40,038,44*6E
###2023-12-09 12:51:56.976369$GLGSV,2,2,06,74,71,321,43,75,28,248,47,,,,,,,,*64
###2023-12-09 12:51:56.978693$GAGSV,1,1,04,04,26,312,42,19,85,258,41,21,83,157,46,27,36,048,42*66
###2023-12-09 12:51:56.981019$GBGSV,2,1,05,14,48,194,44,24,77,014,48,25,37,258,45,26,29,060,43*64
###2023-12-09 12:51:56.982469$GBGSV,2,2,05,33,60,240,47,,,,,,,,,,,,*5D
###2023-12-09 12:51:56.983800$GNVTG,331.21,T,,M,0.16,N,0.29,K,A*2D
###2023-12-09 12:51:56.985442$GNGST,175156.10,18.000,,,,0.076,0.067,0.160*59
###2023-12-09 12:51:56.986985$GNZDA,175156.10,09,12,2023,00,00*71
###2023-12-09 12:51:56.987636$GNEBP,,,,,,M*13
###2023-12-09 12:51:57.153331$GNGGA,175156.30,4138.0604286,N,07032.3833962,W,1,24,0.6,13.213,M,-29.744,M,0.0,*5F
###2023-12-09 12:51:57.352738$GNGGA,175156.50,4138.0604471,N,07032.3834144,W,1,24,0.6,13.203,M,-29.744,M,0.0,*5D
###2023-12-09 12:51:57.553150$GNGGA,175156.70,4138.0604851,N,07032.3834510,W,1,24,0.6,13.206,M,-29.744,M,0.0,*51
###2023-12-09 12:51:57.753204$GNGGA,175156.90,4138.0605121,N,07032.3834774,W,1,24,0.6,13.210,M,-29.744,M,0.0,*57
###2023-12-09 12:51:57.955657$GNRMC,175157.10,A,4138.0605144,N,07032.3834778,W,0.08,331.21,091223,,,A*5C
###2023-12-09 12:51:57.958525$GNGGA,175157.10,4138.0605144,N,07032.3834778,W,1,24,0.6,13.217,M,-29.744,M,0.0,*56
###2023-12-09 12:51:57.960397$GPGSA,A,3,03,04,16,26,28,29,31,32,,,,,1.1,0.6,0.9*3B
