###2023-12-09 13:25:17.997776$GLGSA,A,3,65,71,72,73,74,75,,,,,,,1.1,0.6,0.9*24
###2023-12-09 13:25:17.999411$GAGSA,A,3,04,19,21,27,,,,,,,,,1.1,0.6,0.9*26
###2023-12-09 13:25:18.001132$GBGSA,A,3,14,24,25,26,33,35,,,,,,,1.1,0.6,0.9*29
###2023-12-09 13:25:18.003528$GPGSV,2,1,07,03,29,250,43,04,43,309,44,16,62,219,46,26,89,050,48*7B
###2023-12-09 13:25:18.005576$GPGSV,2,2,07,28,41,080,44,29,22,051,44,31,63,058,47,,,,*4F
###2023-12-09 13:25:18.007915$GLGSV,2,1,06,65,34,322,45,71,27,175,41,72,67,229,46,73,26,049,44*61
###2023-12-09 13:25:18.009661$GLGSV,2,2,06,74,63,006,43,75,40,266,46,,,,,,,,*62
###2023-12-09 13:25:18.011986$GAGSV,1,1,04,04,37,311,45,19,76,185,40,21,80,051,46,27,26,049,42*68
###2023-12-09 13:25:18.014305$GBGSV,2,1,06,14,33,190,42,24,66,041,48,25,48,272,46,26,19,068,44*66
###2023-12-09 13:25:18.016073$GBGSV,2,2,06,33,49,220,47,35,16,060,45,,,,,,,,*65
###2023-12-09 13:25:18.017401$GNVTG,149.67,T,,M,3.36,N,6.23,K,A*2F
###2023-12-09 13:25:18.019061$GNGST,182517.10,18.000,,,,0.099,0.068,0.160*5E
###2023-12-09 13:25:18.020354$GNZDA,182517.10,09,12,2023,00,00*78
###2023-12-09 13:25:18.020993$GNEBP,,,,,,M*13
###2023-12-09 13:25:18.188719$GNGGA,182517.30,4138.0297613,N,07032.3491027,W,1,24,0.6,13.313,M,-29.745,M,0.0,*5C
###2023-12-09 13:25:18.388163$GNGGA,182517.50,4138.0295933,N,07032.3489612,W,1,24,0.6,13.310,M,-29.745,M,0.0,*5F
###2023-12-09 13:25:18.586871$GNGGA,182517.70,4138.0294402,N,07032.3488181,W,1,24,0.6,13.280,M,-29.745,M,0.0,*57
###2023-12-09 13:25:18.787310$GNGGA,182517.90,4138.0292698,N,07032.3486906,W,1,24,0.6,13.319,M,-29.745,M,0.0,*56
###2023-12-09 13:25:18.999969$GNRMC,182518.10,A,4138.0290948,N,07032.3485660,W,3.50,147.36,091223,,,A*52
###2023-12-09 13:25:19.002840$GNGGA,182518.10,4138.0290948,N,07032.3485660,W,1,24,0.6,13.320,M,-29.745,M,0.0,*57
###2023-12-09 13:25:19.004632$GPGSA,A,3,03,04,16,26,28,29,31,,,,,,1.1,0.6,0.9*3A
###2023-12-09 13:25:19.006345$GLGSA,A,3,65,71,72,73,74,75,,,,,,,1.1,0.6,0.9*24
###2023-12-09 13:25:19.007941$GAGSA,A,3,04,19,21,27,,,,,,,,,1.1,0.6,0.9*26
###2023-12-09 13:25:19.009661$GBGSA,A,3,14,24,25,26,33,35,,,,,,,1.1,0.6,0.9*29
###2023-12-09 13:25:19.011994$GPGSV,2,1,07,03,29,250,44,04,43,309,44,16,62,219,46,26,89,050,48*7C
###2023-12-09 13:25:19.014035$GPGSV,2,2,07,28,41,080,44,29,22,051,43,31,63,058,47,,,,*48
###2023-12-09 13:25:19.016372$GLGSV,2,1,06,65,34,322,45,71,27,175,42,72,67,229,47,73,26,049,44*63
###2023-12-09 13:25:19.018109$GLGSV,2,2,06,74,63,006,43,75,40,266,47,,,,,,,,*63
###2023-12-09 13:25:19.020454$GAGSV,1,1,04,04,37,311,45,19,76,185,40,21,80,051,46,27,26,049,42*68
###2023-12-09 13:25:19.022792$GBGSV,2,1,06,14,33,190,41,24,66,041,47,25,48,272,47,26,19,068,43*6C
###2023-12-09 13:25:19.024538$GBGSV,2,2,06,33,49,220,46,35,16,060,43,,,,,,,,*62
###2023-12-09 13:25:19.025864$GNVTG,147.36,T,,M,3.50,N,6.48,K,A*28
###2023-12-09 13:25:19.027589$GNGST,182518.10,18.000,,,,0.100,0.068,0.160*50
###2023-12-09 13:25:19.028888$GNZDA,182518.10,09,12,2023,00,00*77
###2023-12-09 13:25:19.029530$GNEBP,,,,,,M*13
###2023-12-09 13:25:19.188896$GNGGA,182518.30,4138.0289389,N,07032.3484184,W,1,24,0.6,13.305,M,-29.745,M,0.0,*51
###2023-12-09 13:25:19.388513$GNGGA,182518.50,4138.0287783,N,07032.3482699,W,1,24,0.6,13.315,M,-29.745,M,0.0,*5B
###2023-12-09 13:25:19.588095$GNGGA,182518.70,4138.0286072,N,07032.3481379,W,1,24,0.6,13.323,M,-29.745,M,0.0,*5C
###2023-12-09 13:25:19.788354$GNGGA,182518.90,4138.0284373,N,07032.3479937,W,1,24,0.6,13.314,M,-29.745,M,0.0,*51
###2023-12-09 13:25:19.992894$GNRMC,182519.10,A,4138.0282780,N,07032.3478466,W,3.50,147.31,091223,,,A*5B
###2023-12-09 13:25:19.995764$GNGGA,182519.10,4138.0282780,N,07032.3478466,W,1,24,0.6,13.303,M,-29.745,M,0.0,*58
###2023-12-09 13:25:19.997563$GPGSA,A,3,03,04,16,26,28,29,31,,,,,,1.1,0.6,0.9*3A
###2023-12-09 13:25:19.999292$GLGSA,A,3,65,71,72,73,74,75,,,,,,,1.1,0.6,0.9*24
###2023-12-09 13:25:20.000872$GAGSA,A,3,04,19,21,27,,,,,,,,,1.1,0.6,0.9*26
###2023-12-09 13:25:20.002594$GBGSA,A,3,14,24,25,26,33,35,,,,,,,1.1,0.6,0.9*29
###2023-12-09 13:25:20.004930$GPGSV,2,1,07,03,29,250,43,04,43,309,44,16,62,219,46,26,89,050,48*7B
###2023-12-09 13:25:20.006974$GPGSV,2,2,07,28,41,080,44,29,22,051,43,31,63,058,47,,,,*48
###2023-12-09 13:25:20.009300$GLGSV,2,1,06,65,34,322,45,71,27,175,43,72,67,229,46,73,26,049,44*63
###2023-12-09 13:25:20.011049$GLGSV,2,2,06,74,63,006,43,75,40,266,48,,,,,,,,*6C
###2023-12-09 13:25:20.013361$GAGSV,1,1,04,04,37,311,45,19,76,185,40,21,80,051,46,27,26,049,42*68
###2023-12-09 13:25:20.015707$GBGSV,2,1,06,14,33,190,43,24,66,041,48,25,48,272,48,26,19,068,45*68
###2023-12-09 13:25:20.017452$GBGSV,2,2,06,33,49,220,48,35,16,060,44,,,,,,,,*6B
###2023-12-09 13:25:20.018785$GNVTG,147.31,T,,M,3.50,N,6.48,K,A*2F
###2023-12-09 13:25:20.020429$GNGST,182519.10,18.000,,,,0.099,0.068,0.160*50
###2023-12-09 13:25:20.021715$GNZDA,182519.10,09,12,2023,00,00*76
###2023-12-09 13:25:20.022351$GNEBP,,,,,,M*13
###2023-12-09 13:25:20.188791$GNGGA,182519.30,4138.0281129,N,07032.3477000,W,1,24,0.6,13.323,M,-29.745,M,0.0,*55
###2023-12-09 13:25:20.388558$GNGGA,182519.50,4138.0279437,N,07032.3475592,W,1,24,0.6,13.314,M,-29.745,M,0.0,*56
###2023-12-09 13:25:20.589041$GNGGA,182519.70,4138.0277764,N,07032.3474343,W,1,24,0.6,13.320,M,-29.745,M,0.0,*53
###2023-12-09 13:25:20.789205$GNGGA,182519.90,4138.0276108,N,07032.3472944,W,1,24,0.6,13.315,M,-29.745,M,0.0,*5D
###2023-12-09 13:25:21.003686$GNRMC,182520.10,A,4138.0274437,N,07032.3471614,W,3.44,151.33,091223,,,A*59
###2023-12-09 13:25:21.006571$GNGGA,182520.10,4138.0274437,N,07032.3471614,W,1,24,0.6,13.309,M,-29.745,M,0.0,*50
###2023-12-09 13:25:21.008365$GPGSA,A,3,03,04,16,26,28,29,31,,,,,,1.1,0.6,0.9*3A
###2023-12-09 13:25:21.010079$GLGSA,A,3,65,71,72,73,74,75,,,,,,,1.1,0.6,0.9*24
###2023-12-09 13:25:21.011674$GAGSA,A,3,04,19,21,27,,,,,,,,,1.1,0.6,0.9*26
###2023-12-09 13:25:21.013388$GBGSA,A,3,14,24,25,26,33,35,,,,,,,1.1,0.6,0.9*29
###2023-12-09 13:25:21.015727$GPGSV,2,1,07,03,29,250,43,04,43,309,45,16,62,219,46,26,89,050,48*7A
###2023-12-09 13:25:21.017766$GPGSV,2,2,07,28,41,080,45,29,22,051,44,31,63,058,47,,,,*4E
###2023-12-09 13:25:21.020107$GLGSV,2,1,06,65,34,322,44,71,27,175,43,72,67,229,46,73,26,049,44*62
###2023-12-09 13:25:21.021858$GLGSV,2,2,06,74,63,006,43,75,40,266,47,,,,,,,,*63
###2023-12-09 13:25:21.024191$GAGSV,1,1,04,04,37,311,45,19,76,185,41,21,80,051,47,27,26,049,42*68
###2023-12-09 13:25:21.026515$GBGSV,2,1,06,14,33,190,43,24,66,041,49,25,48,272,48,26,19,068,46*6A
###2023-12-09 13:25:21.028287$GBGSV,2,2,06,33,49,220,48,35,16,060,45,,,,,,,,*6A
###2023-12-09 13:25:21.029611$GNVTG,151.33,T,,M,3.44,N,6.37,K,A*27
###2023-12-09 13:25:21.031274$GNGST,182520.10,18.000,,,,0.099,0.068,0.160*5A
###2023-12-09 13:25:21.032564$GNZDA,182520.10,09,12,2023,00,00*7C
###2023-12-09 13:25:21.033202$GNEBP,,,,,,M*13
###2023-12-09 13:25:21.195861$GNGGA,182520.30,4138.0272772,N,07032.3470348,W,1,24,0.6,13.308,M,-29.745,M,0.0,*5A
###2023-12-09 13:25:21.389659$GNGGA,182520.50,4138.0271064,N,07032.3469050,W,1,24,0.6,13.317,M,-29.745,M,0.0,*53
###2023-12-09 13:25:21.588917$GNGGA,182520.70,4138.0269409,N,07032.3467577,W,1,24,0.6,13.302,M,-29.745,M,0.0,*5D
###2023-12-09 13:25:21.789265$GNGGA,182520.90,4138.0267826,N,07032.3466081,W,1,24,0.6,13.303,M,-29.745,M,0.0,*50
###2023-12-09 13:25:21.991896$GNRMC,182521.10,A,4138.0266151,N,07032.3464624,W,3.73,146.45,091223,,,A*5A
###2023-12-09 13:25:21.994767$GNGGA,182521.10,4138.0266151,N,07032.3464624,W,1,24,0.6,13.316,M,-29.745,M,0.0,*5E
###2023-12-09 13:25:21.996566$GPGSA,A,3,03,04,16,26,28,29,31,,,,,,1.1,0.6,0.9*3A
###2023-12-09 13:25:21.998282$GLGSA,A,3,65,71,72,73,74,75,,,,,,,1.1,0.6,0.9*24
###2023-12-09 13:25:21.999880$GAGSA,A,3,04,19,21,27,,,,,,,,,1.1,0.6,0.9*26
###2023-12-09 13:25:22.001593$GBGSA,A,3,14,24,25,26,33,35,,,,,,,1.1,0.6,0.9*29
###2023-12-09 13:25:22.003936$GPGSV,2,1,07,03,29,250,42,04,43,309,45,16,62,219,46,26,89,050,48*7B
###2023-12-09 13:25:22.005981$GPGSV,2,2,07,28,41,080,45,29,22,051,45,31,63,058,47,,,,*4F
###2023-12-09 13:25:22.008325$GLGSV,2,1,06,65,34,322,44,71,27,175,43,72,67,229,47,73,26,049,45*62
###2023-12-09 13:25:22.010071$GLGSV,2,2,06,74,63,006,43,75,40,266,47,,,,,,,,*63
###2023-12-09 13:25:22.012701$GAGSV,1,1,04,04,37,311,44,19,76,185,41,21,80,051,47,27,26,049,43*68
###2023-12-09 13:25:22.015092$GBGSV,2,1,06,14,33,190,41,24,66,041,50,25,48,272,48,26,19,068,45*63
###2023-12-09 13:25:22.016860$GBGSV,2,2,06,33,49,220,48,35,16,060,45,,,,,,,,*6A
###2023-12-09 13:25:22.018196$GNVTG,146.45,T,,M,3.73,N,6.91,K,A*28
###2023-12-09 13:25:22.019860$GNGST,182521.10,18.000,,,,0.099,0.068,0.160*5B
###2023-12-09 13:25:22.021157$GNZDA,182521.10,09,12,2023,00,00*7D
###2023-12-09 13:25:22.021800$GNEBP,,,,,,M*13
###2023-12-09 13:25:22.190855$GNGGA,182521.30,4138.0264578,N,07032.3463032,W,1,24,0.6,13.297,M,-29.745,M,0.0,*5F
###2023-12-09 13:25:22.389441$GNGGA,182521.50,4138.0263105,N,07032.3461295,W,1,24,0.6,13.305,M,-29.745,M,0.0,*57
