###2023-12-09 12:53:46.981862$GNGST,175346.10,18.000,,,,0.075,0.066,0.150*5B
###2023-12-09 12:53:46.983205$GNZDA,175346.10,09,12,2023,00,00*72
###2023-12-09 12:53:46.983855$GNEBP,,,,,,M*13
###2023-12-09 12:53:47.152054$GNGGA,175346.30,4138.0594699,N,07032.3900442,W,1,24,0.6,13.465,M,-29.744,M,0.0,*55
###2023-12-09 12:53:47.352832$GNGGA,175346.50,4138.0594945,N,07032.3901075,W,1,24,0.6,13.487,M,-29.744,M,0.0,*50
###2023-12-09 12:53:47.552832$GNGGA,175346.70,4138.0595089,N,07032.3901493,W,1,24,0.6,13.495,M,-29.744,M,0.0,*55
###2023-12-09 12:53:47.753871$GNGGA,175346.90,4138.0595087,N,07032.3901542,W,1,24,0.6,13.509,M,-29.744,M,0.0,*5C
###2023-12-09 12:53:47.954349$GNRMC,175347.10,A,4138.0595075,N,07032.3901561,W,0.23,298.83,091223,,,A*58
###2023-12-09 12:53:47.957237$GNGGA,175347.10,4138.0595075,N,07032.3901561,W,1,24,0.6,13.494,M,-29.744,M,0.0,*5C
###2023-12-09 12:53:47.959108$GPGSA,A,3,03,04,16,26,28,29,31,32,,,,,1.1,0.6,0.9*3B
###2023-12-09 12:53:47.960831$GLGSA,A,3,65,71,72,73,74,75,,,,,,,1.1,0.6,0.9*24
###2023-12-09 12:53:47.962414$GAGSA,A,3,04,19,21,27,,,,,,,,,1.1,0.6,0.9*26
###2023-12-09 12:53:47.964089$GBGSA,A,3,14,24,25,26,33,,,,,,,,1.1,0.6,0.9*2F
###2023-12-09 12:53:47.966417$GPGSV,2,1,08,03,36,266,43,04,29,311,43,16,46,211,45,26,76,209,48*7E
###2023-12-09 12:53:47.968770$GPGSV,2,2,08,28,52,067,46,29,25,064,45,31,70,029,49,32,22,138,46*7A
###2023-12-09 12:53:47.971119$GLGSV,2,1,06,65,20,328,40,71,45,172,47,72,72,285,46,73,39,039,47*66
###2023-12-09 12:53:47.972867$GLGSV,2,2,06,74,71,324,43,75,29,249,41,,,,,,,,*67
###2023-12-09 12:53:47.975205$GAGSV,1,1,04,04,26,312,41,19,85,252,40,21,84,154,46,27,36,048,45*6D
###2023-12-09 12:53:47.977547$GBGSV,2,1,05,14,47,194,44,24,76,016,48,25,38,259,44,26,29,061,44*61
###2023-12-09 12:53:47.979018$GBGSV,2,2,05,33,60,238,46,,,,,,,,,,,,*53
###2023-12-09 12:53:47.980341$GNVTG,298.83,T,,M,0.23,N,0.43,K,A*2D
###2023-12-09 12:53:47.981986$GNGST,175347.10,18.000,,,,0.075,0.066,0.150*5A
###2023-12-09 12:53:47.983289$GNZDA,175347.10,09,12,2023,00,00*73
###2023-12-09 12:53:47.983927$GNEBP,,,,,,M*13
###2023-12-09 12:53:48.153049$GNGGA,175347.30,4138.0595203,N,07032.3901894,W,1,24,0.6,13.485,M,-29.744,M,0.0,*5A
###2023-12-09 12:53:48.354758$GNGGA,175347.50,4138.0595419,N,07032.3902442,W,1,24,0.6,13.484,M,-29.744,M,0.0,*54
###2023-12-09 12:53:48.553789$GNGGA,175347.70,4138.0595547,N,07032.3902855,W,1,24,0.6,13.489,M,-29.744,M,0.0,*5B
###2023-12-09 12:53:48.753855$GNGGA,175347.90,4138.0595569,N,07032.3903000,W,1,24,0.6,13.500,M,-29.744,M,0.0,*50
###2023-12-09 12:53:48.954472$GNRMC,175348.10,A,4138.0595574,N,07032.3903071,W,0.16,298.83,091223,,,A*53
###2023-12-09 12:53:48.957355$GNGGA,175348.10,4138.0595574,N,07032.3903071,W,1,24,0.6,13.505,M,-29.744,M,0.0,*58
###2023-12-09 12:53:48.959217$GPGSA,A,3,03,04,16,26,28,29,31,32,,,,,1.1,0.6,0.9*3B
###2023-12-09 12:53:48.960925$GLGSA,A,3,65,71,72,73,74,75,,,,,,,1.1,0.6,0.9*24
###2023-12-09 12:53:48.962506$GAGSA,A,3,04,19,21,27,,,,,,,,,1.1,0.6,0.9*26
###2023-12-09 12:53:48.964155$GBGSA,A,3,14,24,25,26,33,,,,,,,,1.1,0.6,0.9*2F
###2023-12-09 12:53:48.966474$GPGSV,2,1,08,03,36,266,44,04,29,311,42,16,46,211,43,26,76,209,48*7E
###2023-12-09 12:53:48.968810$GPGSV,2,2,08,28,52,067,45,29,25,064,43,31,70,029,48,32,22,138,44*7C
###2023-12-09 12:53:48.971143$GLGSV,2,1,06,65,20,328,42,71,45,172,47,72,72,285,46,73,39,039,47*64
###2023-12-09 12:53:48.972882$GLGSV,2,2,06,74,71,324,43,75,29,249,42,,,,,,,,*64
###2023-12-09 12:53:48.975207$GAGSV,1,1,04,04,26,312,42,19,85,252,40,21,84,154,46,27,36,048,45*6E
###2023-12-09 12:53:48.977524$GBGSV,2,1,05,14,47,194,44,24,76,016,49,25,38,259,45,26,29,061,44*61
###2023-12-09 12:53:48.978980$GBGSV,2,2,05,33,60,238,47,,,,,,,,,,,,*52
###2023-12-09 12:53:48.980301$GNVTG,298.83,T,,M,0.16,N,0.29,K,A*27
###2023-12-09 12:53:48.981945$GNGST,175348.10,18.000,,,,0.075,0.065,0.150*56
###2023-12-09 12:53:48.983246$GNZDA,175348.10,09,12,2023,00,00*7C
###2023-12-09 12:53:48.983882$GNEBP,,,,,,M*13
###2023-12-09 12:53:49.153144$GNGGA,175348.30,4138.0595662,N,07032.3903339,W,1,24,0.6,13.499,M,-29.744,M,0.0,*55
###2023-12-09 12:53:49.353807$GNGGA,175348.50,4138.0595866,N,07032.3903849,W,1,24,0.6,13.500,M,-29.744,M,0.0,*54
###2023-12-09 12:53:49.554840$GNGGA,175348.70,4138.0596015,N,07032.3904280,W,1,24,0.6,13.497,M,-29.744,M,0.0,*5E
###2023-12-09 12:53:49.753892$GNGGA,175348.90,4138.0596013,N,07032.3904407,W,1,24,0.6,13.500,M,-29.744,M,0.0,*50
###2023-12-09 12:53:49.955228$GNRMC,175349.10,A,4138.0596021,N,07032.3904527,W,0.35,298.83,091223,,,A*54
###2023-12-09 12:53:49.958063$GNGGA,175349.10,4138.0596021,N,07032.3904527,W,1,24,0.6,13.511,M,-29.744,M,0.0,*5B
###2023-12-09 12:53:49.959926$GPGSA,A,3,03,04,16,26,28,29,31,32,,,,,1.1,0.6,0.9*3B
###2023-12-09 12:53:49.961631$GLGSA,A,3,65,71,72,73,74,75,,,,,,,1.1,0.6,0.9*24
###2023-12-09 12:53:49.963216$GAGSA,A,3,04,19,21,27,,,,,,,,,1.1,0.6,0.9*26
###2023-12-09 12:53:49.964853$GBGSA,A,3,14,24,25,26,33,,,,,,,,1.1,0.6,0.9*2F
###2023-12-09 12:53:49.967184$GPGSV,2,1,08,03,36,266,43,04,29,311,43,16,46,211,43,26,76,209,47*77
###2023-12-09 12:53:49.969511$GPGSV,2,2,08,28,52,067,45,29,25,064,44,31,70,029,47,32,22,138,45*75
###2023-12-09 12:53:49.971853$GLGSV,2,1,06,65,20,328,41,71,45,172,47,72,72,285,45,73,39,039,47*64
###2023-12-09 12:53:49.973596$GLGSV,2,2,06,74,71,324,43,75,29,249,43,,,,,,,,*65
###2023-12-09 12:53:49.975931$GAGSV,1,1,04,04,26,312,42,19,85,252,41,21,84,154,46,27,36,048,45*6F
###2023-12-09 12:53:49.978253$GBGSV,2,1,05,14,47,194,45,24,76,016,49,25,38,259,45,26,29,061,44*60
###2023-12-09 12:53:49.979717$GBGSV,2,2,05,33,60,238,47,,,,,,,,,,,,*52
###2023-12-09 12:53:49.981043$GNVTG,298.83,T,,M,0.35,N,0.65,K,A*2E
###2023-12-09 12:53:49.982697$GNGST,175349.10,18.000,,,,0.075,0.065,0.150*57
###2023-12-09 12:53:49.983984$GNZDA,175349.10,09,12,2023,00,00*7D
###2023-12-09 12:53:49.984618$GNEBP,,,,,,M*13
###2023-12-09 12:53:50.153958$GNGGA,175349.30,4138.0596189,N,07032.3904923,W,1,24,0.6,13.523,M,-29.744,M,0.0,*53
###2023-12-09 12:53:50.353869$GNGGA,175349.50,4138.0596422,N,07032.3905424,W,1,24,0.6,13.515,M,-29.744,M,0.0,*5F
###2023-12-09 12:53:50.553830$GNGGA,175349.70,4138.0596473,N,07032.3905655,W,1,24,0.6,13.502,M,-29.744,M,0.0,*5B
###2023-12-09 12:53:50.755036$GNGGA,175349.90,4138.0596447,N,07032.3905697,W,1,24,0.6,13.496,M,-29.744,M,0.0,*50
###2023-12-09 12:53:50.956778$GNRMC,175350.10,A,4138.0596568,N,07032.3906024,W,0.82,298.83,091223,,,A*5C
###2023-12-09 12:53:50.959666$GNGGA,175350.10,4138.0596568,N,07032.3906024,W,1,24,0.6,13.512,M,-29.744,M,0.0,*5C
###2023-12-09 12:53:50.961530$GPGSA,A,3,03,04,16,26,28,29,31,32,,,,,1.1,0.6,0.9*3B
###2023-12-09 12:53:50.963262$GLGSA,A,3,65,71,72,73,74,75,,,,,,,1.1,0.6,0.9*24
###2023-12-09 12:53:50.964859$GAGSA,A,3,04,19,21,27,,,,,,,,,1.1,0.6,0.9*26
###2023-12-09 12:53:50.966515$GBGSA,A,3,14,24,25,26,33,,,,,,,,1.1,0.6,0.9*2F
###2023-12-09 12:53:50.968864$GPGSV,2,1,08,03,36,266,43,04,29,311,41,16,46,211,43,26,76,209,47*75
###2023-12-09 12:53:50.971216$GPGSV,2,2,08,28,52,067,45,29,25,064,44,31,70,029,47,32,22,138,45*75
###2023-12-09 12:53:50.973558$GLGSV,2,1,06,65,20,328,41,71,45,172,47,72,72,285,45,73,39,039,47*64
###2023-12-09 12:53:50.975315$GLGSV,2,2,06,74,71,324,43,75,29,249,41,,,,,,,,*67
###2023-12-09 12:53:50.977638$GAGSV,1,1,04,04,26,312,40,19,85,252,40,21,84,154,46,27,36,048,44*6D
###2023-12-09 12:53:50.979984$GBGSV,2,1,05,14,47,194,45,24,76,016,49,25,38,259,45,26,29,061,45*61
###2023-12-09 12:53:50.981442$GBGSV,2,2,05,33,60,238,47,,,,,,,,,,,,*52
###2023-12-09 12:53:50.982775$GNVTG,298.83,T,,M,0.82,N,1.51,K,A*24
###2023-12-09 12:53:50.984422$GNGST,175350.10,18.000,,,,0.075,0.066,0.150*5C
###2023-12-09 12:53:50.985712$GNZDA,175350.10,09,12,2023,00,00*75
###2023-12-09 12:53:50.986351$GNEBP,,,,,,M*13
###2023-12-09 12:53:51.152971$GNGGA,175350.30,4138.0596838,N,07032.3906636,W,1,24,0.6,13.529,M,-29.744,M,0.0,*5B
###2023-12-09 12:53:51.355140$GNGGA,175350.50,4138.0596954,N,07032.3906948,W,1,24,0.6,13.520,M,-29.744,M,0.0,*59
###2023-12-09 12:53:51.553865$GNGGA,175350.70,4138.0596886,N,07032.3906894,W,1,24,0.6,13.497,M,-29.744,M,0.0,*58
###2023-12-09 12:53:51.753833$GNGGA,175350.90,4138.0596957,N,07032.3907095,W,1,24,0.6,13.496,M,-29.744,M,0.0,*52
###2023-12-09 12:53:51.956401$GNRMC,175351.10,A,4138.0597242,N,07032.3907756,W,1.15,300.73,091223,,,A*50
###2023-12-09 12:53:51.959292$GNGGA,175351.10,4138.0597242,N,07032.3907756,W,1,24,0.6,13.523,M,-29.744,M,0.0,*52
###2023-12-09 12:53:51.961162$GPGSA,A,3,03,04,16,26,28,29,31,32,,,,,1.1,0.6,0.9*3B
###2023-12-09 12:53:51.962889$GLGSA,A,3,65,71,72,73,74,75,,,,,,,1.1,0.6,0.9*24
###2023-12-09 12:53:51.964472$GAGSA,A,3,04,19,21,27,,,,,,,,,1.1,0.6,0.9*26
###2023-12-09 12:53:51.966122$GBGSA,A,3,14,24,25,26,33,,,,,,,,1.1,0.6,0.9*2F
###2023-12-09 12:53:51.968468$GPGSV,2,1,08,03,36,266,43,04,29,311,42,16,46,211,44,26,76,209,47*71
###2023-12-09 12:53:51.970816$GPGSV,2,2,08,28,52,067,45,29,25,064,43,31,70,029,47,32,22,138,44*73
###2023-12-09 12:53:51.973162$GLGSV,2,1,06,65,20,328,41,71,45,172,47,72,72,285,45,73,39,039,47*64
