###2023-12-09 13:37:07.030352$GNGST,183706.10,5.600,,,,0.090,0.068,0.150*6D
###2023-12-09 13:37:07.031693$GNZDA,183706.10,09,12,2023,00,00*7B
###2023-12-09 13:37:07.032340$GNEBP,,,,,,M*13
###2023-12-09 13:37:07.202020$GNGGA,183706.30,4138.0338486,N,07032.3946335,W,1,25,0.6,13.434,M,-29.745,M,0.0,*51
###2023-12-09 13:37:07.396630$GNGGA,183706.50,4138.0337625,N,07032.3945335,W,1,26,0.6,13.424,M,-29.745,M,0.0,*52
###2023-12-09 13:37:07.596484$GNGGA,183706.70,4138.0336750,N,07032.3944420,W,1,26,0.6,13.422,M,-29.745,M,0.0,*56
###2023-12-09 13:37:07.798739$GNGGA,183706.90,4138.0335831,N,07032.3943670,W,1,26,0.6,13.427,M,-29.745,M,0.0,*56
###2023-12-09 13:37:08.001139$GNRMC,183707.10,A,4138.0334932,N,07032.3942998,W,1.73,151.02,091223,,,A*50
###2023-12-09 13:37:08.004604$GNGGA,183707.10,4138.0334932,N,07032.3942998,W,1,25,0.6,13.427,M,-29.745,M,0.0,*57
###2023-12-09 13:37:08.006876$GPGSA,A,3,03,04,16,26,27,28,29,31,,,,,1.0,0.6,0.8*3F
###2023-12-09 13:37:08.008940$GLGSA,A,3,65,71,72,73,74,75,,,,,,,1.0,0.6,0.8*24
###2023-12-09 13:37:08.010864$GAGSA,A,3,04,19,21,27,,,,,,,,,1.0,0.6,0.8*26
###2023-12-09 13:37:08.012933$GBGSA,A,3,12,14,24,25,33,35,,,,,,,1.0,0.6,0.8*2E
###2023-12-09 13:37:08.015749$GPGSV,2,1,08,03,25,245,41,04,48,307,45,16,67,223,46,26,83,040,48*7D
###2023-12-09 13:37:08.018574$GPGSV,2,2,08,27,17,172,39,28,37,085,43,29,20,046,41,31,59,067,46*7B
###2023-12-09 13:37:08.021388$GLGSV,2,1,06,65,39,317,44,71,21,175,42,72,61,219,46,73,21,053,44*67
###2023-12-09 13:37:08.023534$GLGSV,2,2,06,74,59,016,43,75,44,273,49,,,,,,,,*65
###2023-12-09 13:37:08.026323$GAGSV,1,1,04,04,40,309,45,19,71,181,40,21,76,045,46,27,22,050,41*61
###2023-12-09 13:37:08.029138$GBGSV,2,1,06,12,16,125,41,14,28,189,41,24,62,047,48,25,52,277,48*60
###2023-12-09 13:37:08.031263$GBGSV,2,2,06,33,44,216,46,35,16,055,44,,,,,,,,*6B
###2023-12-09 13:37:08.032858$GNVTG,151.02,T,,M,1.73,N,3.20,K,A*20
###2023-12-09 13:37:08.034809$GNGST,183707.10,5.300,,,,0.090,0.068,0.150*69
###2023-12-09 13:37:08.036363$GNZDA,183707.10,09,12,2023,00,00*7A
###2023-12-09 13:37:08.037135$GNEBP,,,,,,M*13
###2023-12-09 13:37:08.196521$GNGGA,183707.30,4138.0334068,N,07032.3942303,W,1,25,0.6,13.430,M,-29.745,M,0.0,*5D
###2023-12-09 13:37:08.396061$GNGGA,183707.50,4138.0333246,N,07032.3941533,W,1,25,0.6,13.421,M,-29.745,M,0.0,*54
###2023-12-09 13:37:08.597045$GNGGA,183707.70,4138.0332448,N,07032.3940872,W,1,25,0.6,13.410,M,-29.745,M,0.0,*54
###2023-12-09 13:37:08.797523$GNGGA,183707.90,4138.0331592,N,07032.3940359,W,1,26,0.6,13.425,M,-29.745,M,0.0,*58
###2023-12-09 13:37:09.014186$GNRMC,183708.10,A,4138.0330749,N,07032.3939938,W,1.46,155.17,091223,,,A*59
###2023-12-09 13:37:09.017077$GNGGA,183708.10,4138.0330749,N,07032.3939938,W,1,26,0.6,13.430,M,-29.745,M,0.0,*5D
###2023-12-09 13:37:09.018950$GPGSA,A,3,03,04,16,26,27,28,29,31,,,,,1.0,0.6,0.8*3F
###2023-12-09 13:37:09.020722$GLGSA,A,3,65,71,72,73,74,75,83,,,,,,1.0,0.6,0.8*2F
###2023-12-09 13:37:09.022299$GAGSA,A,3,04,19,21,27,,,,,,,,,1.0,0.6,0.8*26
###2023-12-09 13:37:09.024026$GBGSA,A,3,12,14,24,25,33,35,,,,,,,1.0,0.6,0.8*2E
###2023-12-09 13:37:09.026347$GPGSV,2,1,08,03,25,245,41,04,48,307,46,16,67,223,47,26,83,040,49*7E
###2023-12-09 13:37:09.028693$GPGSV,2,2,08,27,17,172,37,28,37,085,44,29,20,046,42,31,59,067,47*70
###2023-12-09 13:37:09.031027$GLGSV,2,1,07,65,39,317,44,71,21,175,42,72,61,219,46,73,21,053,42*60
###2023-12-09 13:37:09.033053$GLGSV,2,2,07,74,59,016,43,75,44,273,49,83,15,046,35,,,,*5F
###2023-12-09 13:37:09.035375$GAGSV,1,1,04,04,40,309,45,19,71,181,40,21,76,045,47,27,22,050,41*60
###2023-12-09 13:37:09.037694$GBGSV,2,1,06,12,16,125,40,14,28,189,40,24,62,047,48,25,52,277,49*61
###2023-12-09 13:37:09.039445$GBGSV,2,2,06,33,44,216,45,35,16,055,42,,,,,,,,*6E
###2023-12-09 13:37:09.040767$GNVTG,155.17,T,,M,1.46,N,2.70,K,A*22
###2023-12-09 13:37:09.042379$GNGST,183708.10,5.800,,,,0.090,0.068,0.150*6D
###2023-12-09 13:37:09.043717$GNZDA,183708.10,09,12,2023,00,00*75
###2023-12-09 13:37:09.044358$GNEBP,,,,,,M*13
###2023-12-09 13:37:09.206725$GNGGA,183708.30,4138.0329981,N,07032.3939410,W,1,25,0.6,13.420,M,-29.745,M,0.0,*58
###2023-12-09 13:37:09.397769$GNGGA,183708.50,4138.0329219,N,07032.3938878,W,1,25,0.6,13.410,M,-29.745,M,0.0,*54
###2023-12-09 13:37:09.597872$GNGGA,183708.70,4138.0328418,N,07032.3938439,W,1,26,0.6,13.408,M,-29.745,M,0.0,*53
###2023-12-09 13:37:09.799891$GNGGA,183708.90,4138.0327663,N,07032.3938147,W,1,25,0.6,13.421,M,-29.745,M,0.0,*58
###2023-12-09 13:37:10.000475$GNRMC,183709.10,A,4138.0326926,N,07032.3938011,W,1.38,173.36,091223,,,A*55
###2023-12-09 13:37:10.003343$GNGGA,183709.10,4138.0326926,N,07032.3938011,W,1,24,0.6,13.431,M,-29.745,M,0.0,*5C
###2023-12-09 13:37:10.005192$GPGSA,A,3,03,04,16,26,27,28,29,31,,,,,1.1,0.6,0.9*3F
###2023-12-09 13:37:10.006917$GLGSA,A,3,65,71,72,73,74,75,,,,,,,1.1,0.6,0.9*24
###2023-12-09 13:37:10.008489$GAGSA,A,3,04,19,21,27,,,,,,,,,1.1,0.6,0.9*26
###2023-12-09 13:37:10.010189$GBGSA,A,3,12,14,24,25,33,35,,,,,,,1.1,0.6,0.9*2E
###2023-12-09 13:37:10.012515$GPGSV,2,1,08,03,25,245,39,04,48,307,47,16,67,223,46,26,83,040,49*71
###2023-12-09 13:37:10.014846$GPGSV,2,2,08,27,17,172,37,28,37,085,45,29,20,046,42,31,59,067,46*70
###2023-12-09 13:37:10.017168$GLGSV,2,1,06,65,39,317,44,71,21,175,41,72,61,219,46,73,21,053,41*61
###2023-12-09 13:37:10.018916$GLGSV,2,2,06,74,59,016,43,75,44,273,48,,,,,,,,*64
###2023-12-09 13:37:10.021240$GAGSV,1,1,04,04,40,309,45,19,71,181,40,21,76,045,46,27,22,050,41*61
###2023-12-09 13:37:10.023578$GBGSV,2,1,06,12,16,125,42,14,28,189,41,24,62,047,47,25,52,277,47*63
###2023-12-09 13:37:10.025312$GBGSV,2,2,06,33,44,216,45,35,16,055,44,,,,,,,,*68
###2023-12-09 13:37:10.026640$GNVTG,173.36,T,,M,1.38,N,2.56,K,A*28
###2023-12-09 13:37:10.028250$GNGST,183709.10,5.500,,,,0.091,0.068,0.150*60
###2023-12-09 13:37:10.029531$GNZDA,183709.10,09,12,2023,00,00*74
###2023-12-09 13:37:10.030165$GNEBP,,,,,,M*13
###2023-12-09 13:37:10.195457$GNGGA,183709.30,4138.0326175,N,07032.3937754,W,1,24,0.6,13.419,M,-29.745,M,0.0,*53
###2023-12-09 13:37:10.396024$GNGGA,183709.50,4138.0325473,N,07032.3937337,W,1,24,0.6,13.388,M,-29.745,M,0.0,*5B
###2023-12-09 13:37:10.595161$GNGGA,183709.70,4138.0324851,N,07032.3937147,W,1,24,0.6,13.391,M,-29.745,M,0.0,*59
###2023-12-09 13:37:10.795328$GNGGA,183709.90,4138.0324183,N,07032.3937465,W,1,24,0.6,13.438,M,-29.745,M,0.0,*50
###2023-12-09 13:37:10.998643$GNRMC,183710.10,A,4138.0323523,N,07032.3937527,W,1.22,156.86,091223,,,A*59
###2023-12-09 13:37:11.001487$GNGGA,183710.10,4138.0323523,N,07032.3937527,W,1,24,0.6,13.438,M,-29.745,M,0.0,*5E
###2023-12-09 13:37:11.003359$GPGSA,A,3,03,04,16,26,27,28,29,31,,,,,1.1,0.6,0.9*3F
###2023-12-09 13:37:11.005068$GLGSA,A,3,65,71,72,73,74,75,,,,,,,1.1,0.6,0.9*24
###2023-12-09 13:37:11.006654$GAGSA,A,3,04,19,21,27,,,,,,,,,1.1,0.6,0.9*26
###2023-12-09 13:37:11.008359$GBGSA,A,3,12,14,24,25,33,35,,,,,,,1.1,0.6,0.9*2E
###2023-12-09 13:37:11.010687$GPGSV,2,1,08,03,25,245,39,04,48,307,47,16,67,223,46,26,83,040,48*70
###2023-12-09 13:37:11.013007$GPGSV,2,2,08,27,17,172,39,28,37,085,44,29,20,046,41,31,59,067,48*72
###2023-12-09 13:37:11.015339$GLGSV,2,1,06,65,39,317,44,71,21,175,41,72,61,219,46,73,21,053,38*6F
###2023-12-09 13:37:11.017075$GLGSV,2,2,06,74,59,016,43,75,44,273,48,,,,,,,,*64
###2023-12-09 13:37:11.019397$GAGSV,1,1,04,04,40,309,46,19,71,181,40,21,76,045,45,27,22,050,38*6F
###2023-12-09 13:37:11.021709$GBGSV,2,1,06,12,16,125,42,14,28,189,43,24,62,047,49,25,52,277,49*61
###2023-12-09 13:37:11.023458$GBGSV,2,2,06,33,44,216,47,35,16,055,43,,,,,,,,*6D
###2023-12-09 13:37:11.024772$GNVTG,156.86,T,,M,1.22,N,2.27,K,A*29
###2023-12-09 13:37:11.026371$GNGST,183710.10,5.400,,,,0.090,0.068,0.150*68
###2023-12-09 13:37:11.027667$GNZDA,183710.10,09,12,2023,00,00*7C
###2023-12-09 13:37:11.028303$GNEBP,,,,,,M*13
###2023-12-09 13:37:11.194518$GNGGA,183710.30,4138.0322909,N,07032.3937025,W,1,25,0.6,13.373,M,-29.745,M,0.0,*57
###2023-12-09 13:37:11.394056$GNGGA,183710.50,4138.0322313,N,07032.3936955,W,1,25,0.6,13.365,M,-29.745,M,0.0,*58
###2023-12-09 13:37:11.594163$GNGGA,183710.70,4138.0321756,N,07032.3937526,W,1,25,0.6,13.434,M,-29.745,M,0.0,*56
###2023-12-09 13:37:11.792817$GNGGA,183710.90,4138.0321260,N,07032.3937808,W,1,25,0.6,13.436,M,-29.745,M,0.0,*5B
###2023-12-09 13:37:11.997113$GNRMC,183711.10,A,4138.0320685,N,07032.3937492,W,1.30,150.57,091223,,,A*52
###2023-12-09 13:37:11.999985$GNGGA,183711.10,4138.0320685,N,07032.3937492,W,1,25,0.6,13.396,M,-29.745,M,0.0,*5E
###2023-12-09 13:37:12.001844$GPGSA,A,3,03,04,16,26,27,28,29,31,,,,,1.1,0.6,0.9*3F
###2023-12-09 13:37:12.003640$GLGSA,A,3,65,71,72,73,74,75,83,,,,,,1.1,0.6,0.9*2F
###2023-12-09 13:37:12.005220$GAGSA,A,3,04,19,21,27,,,,,,,,,1.1,0.6,0.9*26
###2023-12-09 13:37:12.006941$GBGSA,A,3,12,14,24,25,33,35,,,,,,,1.1,0.6,0.9*2E
###2023-12-09 13:37:12.009266$GPGSV,2,1,08,03,25,245,35,04,48,307,46,16,67,223,47,26,83,040,49*7D
###2023-12-09 13:37:12.011600$GPGSV,2,2,08,27,17,172,42,28,37,085,46,29,20,046,43,31,59,067,48*7E
###2023-12-09 13:37:12.013925$GLGSV,2,1,07,65,39,317,47,71,21,175,42,72,61,219,48,73,21,053,46*69
