###2023-12-09 12:29:33.931638$GAGSA,A,3,21,27,,,,,,,,,,,1.5,0.8,1.3*2B
###2023-12-09 12:29:33.933467$GBGSA,A,3,14,25,26,33,,,,,,,,,1.5,0.8,1.3*28
###2023-12-09 12:29:33.936020$GPGSV,2,1,07,03,39,280,38,16,34,206,44,26,63,206,43,28,60,052,45*79
###2023-12-09 12:29:33.938265$GPGSV,2,2,07,29,25,077,43,31,73,351,46,32,33,132,47,,,,*44
###2023-12-09 12:29:33.940936$GLGSV,1,1,04,71,60,168,48,72,63,314,44,73,50,032,44,75,20,239,35*6A
###2023-12-09 12:29:33.942795$GAGSV,1,1,02,21,75,179,38,27,43,050,45,,,,,,,,*69
###2023-12-09 12:29:33.945172$GBGSV,1,1,04,14,57,199,46,25,31,251,38,26,37,056,45,33,64,260,39*6D
###2023-12-09 12:29:33.946358$GNVTG,,T,,M,0.06,N,0.11,K,A*3B
###2023-12-09 12:29:33.948112$GNGST,172933.10,31.000,,,,0.110,0.130,0.300*58
###2023-12-09 12:29:33.949478$GNZDA,172933.10,09,12,2023,00,00*7D
###2023-12-09 12:29:33.950166$GNEBP,,,,,,M*13
###2023-12-09 12:29:34.121292$GNGGA,172933.30,4138.0384902,N,07032.4368594,W,1,17,0.8,12.684,M,-29.746,M,0.0,*59
###2023-12-09 12:29:34.322346$GNGGA,172933.50,4138.0384865,N,07032.4368537,W,1,17,0.8,12.682,M,-29.746,M,0.0,*50
###2023-12-09 12:29:34.522709$GNGGA,172933.70,4138.0384822,N,07032.4368437,W,1,17,0.8,12.694,M,-29.746,M,0.0,*57
###2023-12-09 12:29:34.721335$GNGGA,172933.90,4138.0384799,N,07032.4368381,W,1,17,0.8,12.695,M,-29.746,M,0.0,*5D
###2023-12-09 12:29:34.927546$GNRMC,172934.10,A,4138.0384768,N,07032.4368315,W,0.02,,091223,,,A*4E
###2023-12-09 12:29:34.930481$GNGGA,172934.10,4138.0384768,N,07032.4368315,W,1,17,0.8,12.701,M,-29.746,M,0.0,*5D
###2023-12-09 12:29:34.932381$GPGSA,A,3,03,16,26,28,29,31,32,,,,,,1.5,0.8,1.3*3E
###2023-12-09 12:29:34.934211$GLGSA,A,3,71,72,73,75,,,,,,,,,1.5,0.8,1.3*25
###2023-12-09 12:29:34.935734$GAGSA,A,3,21,27,,,,,,,,,,,1.5,0.8,1.3*2B
###2023-12-09 12:29:34.937353$GBGSA,A,3,14,25,26,33,,,,,,,,,1.5,0.8,1.3*28
###2023-12-09 12:29:34.939743$GPGSV,2,1,07,03,39,280,39,16,34,206,44,26,63,206,43,28,60,052,45*78
###2023-12-09 12:29:34.941817$GPGSV,2,2,07,29,25,077,44,31,73,351,45,32,33,132,47,,,,*40
###2023-12-09 12:29:34.944385$GLGSV,1,1,04,71,60,168,48,72,63,314,44,73,50,032,44,75,20,239,36*69
###2023-12-09 12:29:34.946177$GAGSV,1,1,02,21,75,179,38,27,43,050,44,,,,,,,,*68
###2023-12-09 12:29:34.949147$GBGSV,1,1,04,14,57,199,46,25,31,251,38,26,37,056,45,33,64,260,39*6D
###2023-12-09 12:29:34.950351$GNVTG,,T,,M,0.02,N,0.04,K,A*3B
###2023-12-09 12:29:34.952057$GNGST,172934.10,31.000,,,,0.110,0.130,0.300*5F
###2023-12-09 12:29:34.953390$GNZDA,172934.10,09,12,2023,00,00*7A
###2023-12-09 12:29:34.954068$GNEBP,,,,,,M*13
###2023-12-09 12:29:35.122326$GNGGA,172934.30,4138.0384738,N,07032.4368245,W,1,17,0.8,12.705,M,-29.746,M,0.0,*5A
###2023-12-09 12:29:35.323446$GNGGA,172934.50,4138.0384705,N,07032.4368183,W,1,17,0.8,12.710,M,-29.746,M,0.0,*5F
###2023-12-09 12:29:35.521249$GNGGA,172934.70,4138.0384672,N,07032.4368119,W,1,17,0.8,12.707,M,-29.746,M,0.0,*59
###2023-12-09 12:29:35.721417$GNGGA,172934.90,4138.0384645,N,07032.4368052,W,1,17,0.8,12.708,M,-29.746,M,0.0,*52
###2023-12-09 12:29:35.922755$GNRMC,172935.10,A,4138.0384620,N,07032.4367995,W,0.00,,091223,,,A*4D
###2023-12-09 12:29:35.925722$GNGGA,172935.10,4138.0384620,N,07032.4367995,W,1,17,0.8,12.711,M,-29.746,M,0.0,*5D
###2023-12-09 12:29:35.927586$GPGSA,A,3,03,16,26,28,29,31,32,,,,,,1.5,0.8,1.3*3E
###2023-12-09 12:29:35.929213$GLGSA,A,3,71,72,73,75,,,,,,,,,1.5,0.8,1.3*25
###2023-12-09 12:29:35.930717$GAGSA,A,3,21,27,,,,,,,,,,,1.5,0.8,1.3*2B
###2023-12-09 12:29:35.932327$GBGSA,A,3,14,25,26,33,,,,,,,,,1.5,0.8,1.3*28
###2023-12-09 12:29:35.934695$GPGSV,2,1,07,03,39,280,39,16,34,206,44,26,64,206,43,28,60,052,45*7F
###2023-12-09 12:29:35.936771$GPGSV,2,2,07,29,25,077,44,31,73,351,45,32,33,132,48,,,,*4F
###2023-12-09 12:29:35.939146$GLGSV,1,1,04,71,60,168,48,72,63,314,44,73,50,032,44,75,20,239,37*68
###2023-12-09 12:29:35.940935$GAGSV,1,1,02,21,75,179,38,27,43,050,44,,,,,,,,*68
###2023-12-09 12:29:35.943309$GBGSV,1,1,04,14,57,199,45,25,31,251,37,26,37,056,45,33,64,260,38*60
###2023-12-09 12:29:35.944473$GNVTG,,T,,M,0.00,N,0.00,K,A*3D
###2023-12-09 12:29:35.946152$GNGST,172935.10,31.000,,,,0.110,0.130,0.300*5E
###2023-12-09 12:29:35.947516$GNZDA,172935.10,09,12,2023,00,00*7B
###2023-12-09 12:29:35.948217$GNEBP,,,,,,M*13
###2023-12-09 12:29:36.123382$GNGGA,172935.30,4138.0384593,N,07032.4367937,W,1,17,0.8,12.712,M,-29.746,M,0.0,*5F
###2023-12-09 12:29:36.321239$GNGGA,172935.50,4138.0384567,N,07032.4367880,W,1,17,0.8,12.715,M,-29.746,M,0.0,*58
###2023-12-09 12:29:36.522498$GNGGA,172935.70,4138.0384538,N,07032.4367834,W,1,17,0.8,12.711,M,-29.746,M,0.0,*5B
###2023-12-09 12:29:36.721403$GNGGA,172935.90,4138.0384517,N,07032.4367777,W,1,17,0.8,12.713,M,-29.746,M,0.0,*52
###2023-12-09 12:29:36.923496$GNRMC,172936.10,A,4138.0384486,N,07032.4367730,W,0.06,,091223,,,A*47
###2023-12-09 12:29:36.926390$GNGGA,172936.10,4138.0384486,N,07032.4367730,W,1,17,0.8,12.712,M,-29.746,M,0.0,*52
###2023-12-09 12:29:36.928232$GPGSA,A,3,03,16,26,28,29,31,32,,,,,,1.5,0.8,1.3*3E
###2023-12-09 12:29:36.929846$GLGSA,A,3,71,72,73,75,,,,,,,,,1.5,0.8,1.3*25
###2023-12-09 12:29:36.931343$GAGSA,A,3,21,27,,,,,,,,,,,1.5,0.8,1.3*2B
###2023-12-09 12:29:36.932948$GBGSA,A,3,14,25,26,33,,,,,,,,,1.5,0.8,1.3*28
###2023-12-09 12:29:36.935315$GPGSV,2,1,07,03,39,280,39,16,34,206,44,26,64,206,43,28,60,052,45*7F
###2023-12-09 12:29:36.937376$GPGSV,2,2,07,29,25,077,44,31,73,351,45,32,33,132,48,,,,*4F
###2023-12-09 12:29:36.939745$GLGSV,1,1,04,71,60,168,48,72,63,314,43,73,50,032,44,75,20,239,37*6F
###2023-12-09 12:29:36.941520$GAGSV,1,1,02,21,75,179,38,27,43,050,44,,,,,,,,*68
###2023-12-09 12:29:36.943876$GBGSV,1,1,04,14,57,199,46,25,31,251,38,26,37,056,46,33,64,260,39*6E
###2023-12-09 12:29:36.945029$GNVTG,,T,,M,0.06,N,0.11,K,A*3B
###2023-12-09 12:29:36.946750$GNGST,172936.10,31.000,,,,0.110,0.130,0.300*5D
###2023-12-09 12:29:36.948103$GNZDA,172936.10,09,12,2023,00,00*78
###2023-12-09 12:29:36.948772$GNEBP,,,,,,M*13
###2023-12-09 12:29:37.122129$GNGGA,172936.30,4138.0384464,N,07032.4367678,W,1,18,0.8,12.715,M,-29.746,M,0.0,*59
###2023-12-09 12:29:37.322099$GNGGA,172936.50,4138.0384444,N,07032.4367634,W,1,18,0.8,12.718,M,-29.746,M,0.0,*58
###2023-12-09 12:29:37.522774$GNGGA,172936.70,4138.0384421,N,07032.4367600,W,1,18,0.8,12.718,M,-29.746,M,0.0,*5E
###2023-12-09 12:29:37.720269$GNGGA,172936.90,4138.0384410,N,07032.4367543,W,1,17,0.8,12.725,M,-29.746,M,0.0,*57
###2023-12-09 12:29:37.926091$GNRMC,172937.10,A,4138.0384394,N,07032.4367502,W,0.02,,091223,,,A*45
###2023-12-09 12:29:37.929190$GNGGA,172937.10,4138.0384394,N,07032.4367502,W,1,19,0.7,12.728,M,-29.746,M,0.0,*5C
###2023-12-09 12:29:37.931104$GPGSA,A,3,03,04,16,26,28,29,31,32,,,,,1.3,0.7,1.1*31
###2023-12-09 12:29:37.932718$GLGSA,A,3,71,72,73,75,,,,,,,,,1.3,0.7,1.1*2E
###2023-12-09 12:29:37.934183$GAGSA,A,3,21,27,,,,,,,,,,,1.3,0.7,1.1*20
###2023-12-09 12:29:37.935792$GBGSA,A,3,14,25,26,33,,,,,,,,,1.3,0.7,1.1*23
###2023-12-09 12:29:37.938139$GPGSV,2,1,08,03,39,280,39,04,20,310,35,16,34,206,44,26,64,206,44*7F
###2023-12-09 12:29:37.940502$GPGSV,2,2,08,28,60,053,45,29,25,077,44,31,73,351,45,32,33,132,48*7B
###2023-12-09 12:29:37.942866$GLGSV,1,1,04,71,60,168,48,72,63,314,43,73,50,032,44,75,20,239,38*60
###2023-12-09 12:29:37.944641$GAGSV,1,1,02,21,75,179,38,27,43,050,45,,,,,,,,*69
###2023-12-09 12:29:37.947016$GBGSV,1,1,04,14,57,199,46,25,31,251,38,26,37,056,46,33,64,260,39*6E
###2023-12-09 12:29:37.948185$GNVTG,,T,,M,0.02,N,0.04,K,A*3B
###2023-12-09 12:29:37.949856$GNGST,172937.10,30.000,,,,0.110,0.130,0.300*5D
###2023-12-09 12:29:37.951195$GNZDA,172937.10,09,12,2023,00,00*79
###2023-12-09 12:29:37.951858$GNEBP,,,,,,M*13
###2023-12-09 12:29:38.122389$GNGGA,172937.30,4138.0384437,N,07032.4367610,W,1,19,0.7,12.698,M,-29.746,M,0.0,*5A
###2023-12-09 12:29:38.323182$GNGGA,172937.50,4138.0384530,N,07032.4367835,W,1,19,0.7,12.632,M,-29.746,M,0.0,*53
###2023-12-09 12:29:38.523257$GNGGA,172937.70,4138.0384610,N,07032.4368019,W,1,19,0.7,12.580,M,-29.746,M,0.0,*53
###2023-12-09 12:29:38.720209$GNGGA,172937.90,4138.0384673,N,07032.4368175,W,1,19,0.7,12.531,M,-29.746,M,0.0,*59
###2023-12-09 12:29:38.925432$GNRMC,172938.10,A,4138.0384732,N,07032.4368328,W,0.06,,091223,,,A*47
###2023-12-09 12:29:38.928772$GNGGA,172938.10,4138.0384732,N,07032.4368328,W,1,18,0.7,12.484,M,-29.746,M,0.0,*5E
###2023-12-09 12:29:38.930690$GPGSA,A,3,03,04,16,26,28,29,31,32,,,,,1.4,0.7,1.2*35
###2023-12-09 12:29:38.932317$GLGSA,A,3,71,72,73,75,,,,,,,,,1.4,0.7,1.2*2A
###2023-12-09 12:29:38.933794$GAGSA,A,3,21,27,,,,,,,,,,,1.4,0.7,1.2*24
###2023-12-09 12:29:38.935409$GBGSA,A,3,14,25,26,33,,,,,,,,,1.4,0.7,1.2*27
###2023-12-09 12:29:38.937749$GPGSV,2,1,08,03,39,280,40,04,20,310,35,16,34,206,44,26,64,206,44*71
###2023-12-09 12:29:38.940118$GPGSV,2,2,08,28,60,053,45,29,25,076,44,31,73,351,45,32,33,132,48*7A
###2023-12-09 12:29:38.942468$GLGSV,1,1,04,71,60,168,48,72,63,314,43,73,50,032,44,75,20,239,38*60
