###2023-12-09 12:51:38.957507$GPGSA,A,3,03,04,16,26,28,29,31,32,,,,,1.1,0.6,0.9*3B
###2023-12-09 12:51:38.959258$GLGSA,A,3,65,71,72,73,74,75,,,,,,,1.1,0.6,0.9*24
###2023-12-09 12:51:38.960844$GAGSA,A,3,04,19,21,27,,,,,,,,,1.1,0.6,0.9*26
###2023-12-09 12:51:38.962494$GBGSA,A,3,14,24,25,26,33,,,,,,,,1.1,0.6,0.9*2F
###2023-12-09 12:51:38.964855$GPGSV,2,1,08,03,37,267,45,04,29,311,40,16,45,210,46,26,75,209,48*79
###2023-12-09 12:51:38.967228$GPGSV,2,2,08,28,52,066,44,29,26,066,41,31,71,024,46,32,23,138,44*7C
###2023-12-09 12:51:38.969565$GLGSV,2,1,06,65,19,329,39,71,47,171,49,72,72,288,47,73,40,038,45*6D
###2023-12-09 12:51:38.971325$GLGSV,2,2,06,74,71,321,42,75,28,248,45,,,,,,,,*67
###2023-12-09 12:51:38.973647$GAGSV,1,1,04,04,26,312,40,19,85,258,40,21,83,157,46,27,36,048,42*65
###2023-12-09 12:51:38.975990$GBGSV,2,1,05,14,48,194,47,24,77,014,48,25,37,258,48,26,29,060,44*6D
###2023-12-09 12:51:38.977449$GBGSV,2,2,05,33,60,240,48,,,,,,,,,,,,*52
###2023-12-09 12:51:38.978781$GNVTG,336.29,T,,M,1.15,N,2.12,K,A*2A
###2023-12-09 12:51:38.980429$GNGST,175138.10,18.000,,,,0.077,0.067,0.160*50
###2023-12-09 12:51:38.981716$GNZDA,175138.10,09,12,2023,00,00*79
###2023-12-09 12:51:38.982352$GNEBP,,,,,,M*13
###2023-12-09 12:51:39.153403$GNGGA,175138.30,4138.0586099,N,07032.3820814,W,1,24,0.6,13.385,M,-29.744,M,0.0,*5E
###2023-12-09 12:51:39.352135$GNGGA,175138.50,4138.0586148,N,07032.3820844,W,1,24,0.6,13.398,M,-29.744,M,0.0,*5C
###2023-12-09 12:51:39.552839$GNGGA,175138.70,4138.0586118,N,07032.3820834,W,1,24,0.6,13.426,M,-29.744,M,0.0,*5E
###2023-12-09 12:51:39.754819$GNGGA,175138.90,4138.0586287,N,07032.3820942,W,1,24,0.6,13.419,M,-29.744,M,0.0,*59
###2023-12-09 12:51:39.952300$GNRMC,175139.10,A,4138.0586606,N,07032.3821153,W,0.74,336.29,091223,,,A*52
###2023-12-09 12:51:39.955180$GNGGA,175139.10,4138.0586606,N,07032.3821153,W,1,24,0.6,13.405,M,-29.744,M,0.0,*59
###2023-12-09 12:51:39.957038$GPGSA,A,3,03,04,16,26,28,29,31,32,,,,,1.1,0.6,0.9*3B
###2023-12-09 12:51:39.958762$GLGSA,A,3,65,71,72,73,74,75,,,,,,,1.1,0.6,0.9*24
###2023-12-09 12:51:39.960345$GAGSA,A,3,04,19,21,27,,,,,,,,,1.1,0.6,0.9*26
###2023-12-09 12:51:39.961983$GBGSA,A,3,14,24,25,26,33,,,,,,,,1.1,0.6,0.9*2F
###2023-12-09 12:51:39.964314$GPGSV,2,1,08,03,37,267,44,04,29,311,41,16,45,210,46,26,75,209,48*79
###2023-12-09 12:51:39.966668$GPGSV,2,2,08,28,52,066,44,29,26,065,40,31,71,024,47,32,23,138,44*7F
###2023-12-09 12:51:39.969003$GLGSV,2,1,06,65,19,329,41,71,47,171,48,72,72,288,47,73,40,038,45*63
###2023-12-09 12:51:39.970760$GLGSV,2,2,06,74,71,321,42,75,28,248,44,,,,,,,,*66
###2023-12-09 12:51:39.973085$GAGSV,1,1,04,04,26,312,41,19,85,258,40,21,83,157,46,27,36,048,40*66
###2023-12-09 12:51:39.975420$GBGSV,2,1,05,14,48,194,47,24,77,014,48,25,37,258,47,26,29,060,43*65
###2023-12-09 12:51:39.976876$GBGSV,2,2,05,33,60,240,47,,,,,,,,,,,,*5D
###2023-12-09 12:51:39.978194$GNVTG,336.29,T,,M,0.74,N,1.37,K,A*28
###2023-12-09 12:51:39.979850$GNGST,175139.10,18.000,,,,0.077,0.067,0.160*51
###2023-12-09 12:51:39.981144$GNZDA,175139.10,09,12,2023,00,00*78
###2023-12-09 12:51:39.981782$GNEBP,,,,,,M*13
###2023-12-09 12:51:40.149797$GNGGA,175139.30,4138.0586979,N,07032.3821427,W,1,24,0.6,13.400,M,-29.744,M,0.0,*5F
###2023-12-09 12:51:40.350398$GNGGA,175139.50,4138.0587178,N,07032.3821597,W,1,24,0.6,13.412,M,-29.744,M,0.0,*58
###2023-12-09 12:51:40.550601$GNGGA,175139.70,4138.0587204,N,07032.3821626,W,1,24,0.6,13.423,M,-29.744,M,0.0,*59
###2023-12-09 12:51:40.749527$GNGGA,175139.90,4138.0587324,N,07032.3821675,W,1,24,0.6,13.407,M,-29.744,M,0.0,*54
###2023-12-09 12:51:40.950206$GNRMC,175140.10,A,4138.0587645,N,07032.3821873,W,0.76,336.29,091223,,,A*53
###2023-12-09 12:51:40.953091$GNGGA,175140.10,4138.0587645,N,07032.3821873,W,1,24,0.6,13.394,M,-29.744,M,0.0,*55
###2023-12-09 12:51:40.954979$GPGSA,A,3,03,04,16,26,28,29,31,32,,,,,1.1,0.6,0.9*3B
###2023-12-09 12:51:40.956695$GLGSA,A,3,65,71,72,73,74,75,,,,,,,1.1,0.6,0.9*24
###2023-12-09 12:51:40.958278$GAGSA,A,3,04,19,21,27,,,,,,,,,1.1,0.6,0.9*26
###2023-12-09 12:51:40.959952$GBGSA,A,3,14,24,25,26,33,,,,,,,,1.1,0.6,0.9*2F
###2023-12-09 12:51:40.962278$GPGSV,2,1,08,03,37,267,45,04,29,311,41,16,45,210,46,26,75,209,48*78
###2023-12-09 12:51:40.964631$GPGSV,2,2,08,28,52,066,44,29,26,065,41,31,71,024,47,32,23,138,43*79
###2023-12-09 12:51:40.966980$GLGSV,2,1,06,65,19,329,40,71,47,171,48,72,72,288,47,73,40,038,45*62
###2023-12-09 12:51:40.968732$GLGSV,2,2,06,74,71,321,43,75,28,248,43,,,,,,,,*60
###2023-12-09 12:51:40.971100$GAGSV,1,1,04,04,26,312,40,19,85,258,40,21,83,157,46,27,36,048,41*66
###2023-12-09 12:51:40.973437$GBGSV,2,1,05,14,48,194,46,24,77,014,48,25,37,258,46,26,29,060,43*65
###2023-12-09 12:51:40.974908$GBGSV,2,2,05,33,60,240,47,,,,,,,,,,,,*5D
###2023-12-09 12:51:40.976236$GNVTG,336.29,T,,M,0.76,N,1.40,K,A*2A
###2023-12-09 12:51:40.977891$GNGST,175140.10,18.000,,,,0.076,0.067,0.160*5E
###2023-12-09 12:51:40.979196$GNZDA,175140.10,09,12,2023,00,00*76
###2023-12-09 12:51:40.979838$GNEBP,,,,,,M*13
###2023-12-09 12:51:41.149687$GNGGA,175140.30,4138.0587973,N,07032.3822088,W,1,24,0.6,13.386,M,-29.744,M,0.0,*51
###2023-12-09 12:51:41.350382$GNGGA,175140.50,4138.0588184,N,07032.3822273,W,1,24,0.6,13.401,M,-29.744,M,0.0,*56
###2023-12-09 12:51:41.551560$GNGGA,175140.70,4138.0588395,N,07032.3822419,W,1,24,0.6,13.427,M,-29.744,M,0.0,*58
###2023-12-09 12:51:41.750296$GNGGA,175140.90,4138.0588606,N,07032.3822560,W,1,24,0.6,13.422,M,-29.744,M,0.0,*53
###2023-12-09 12:51:41.952296$GNRMC,175141.10,A,4138.0588708,N,07032.3822640,W,0.17,336.29,091223,,,A*5F
###2023-12-09 12:51:41.955195$GNGGA,175141.10,4138.0588708,N,07032.3822640,W,1,24,0.6,13.382,M,-29.744,M,0.0,*59
###2023-12-09 12:51:41.957052$GPGSA,A,3,03,04,16,26,28,29,31,32,,,,,1.1,0.6,0.9*3B
###2023-12-09 12:51:41.958787$GLGSA,A,3,65,71,72,73,74,75,,,,,,,1.1,0.6,0.9*24
###2023-12-09 12:51:41.960368$GAGSA,A,3,04,19,21,27,,,,,,,,,1.1,0.6,0.9*26
###2023-12-09 12:51:41.962012$GBGSA,A,3,14,24,25,26,33,,,,,,,,1.1,0.6,0.9*2F
###2023-12-09 12:51:41.964393$GPGSV,2,1,08,03,37,267,44,04,29,311,42,16,45,210,45,26,75,209,48*79
###2023-12-09 12:51:41.966750$GPGSV,2,2,08,28,52,066,44,29,26,065,42,31,71,026,46,32,23,138,43*79
###2023-12-09 12:51:41.969084$GLGSV,2,1,06,65,19,329,40,71,47,171,48,72,72,288,47,73,40,038,46*61
###2023-12-09 12:51:41.970857$GLGSV,2,2,06,74,71,321,42,75,28,248,44,,,,,,,,*66
###2023-12-09 12:51:41.973185$GAGSV,1,1,04,04,26,312,41,19,85,258,40,21,83,157,46,27,36,048,41*67
###2023-12-09 12:51:41.975527$GBGSV,2,1,05,14,48,194,47,24,77,014,49,25,37,258,47,26,29,060,44*63
###2023-12-09 12:51:41.976983$GBGSV,2,2,05,33,60,240,47,,,,,,,,,,,,*5D
###2023-12-09 12:51:41.978304$GNVTG,336.29,T,,M,0.17,N,0.32,K,A*29
###2023-12-09 12:51:41.979959$GNGST,175141.10,18.000,,,,0.076,0.067,0.160*5F
###2023-12-09 12:51:41.981247$GNZDA,175141.10,09,12,2023,00,00*77
###2023-12-09 12:51:41.981881$GNEBP,,,,,,M*13
###2023-12-09 12:51:42.151664$GNGGA,175141.30,4138.0588900,N,07032.3822759,W,1,24,0.6,13.365,M,-29.744,M,0.0,*5D
###2023-12-09 12:51:42.351347$GNGGA,175141.50,4138.0589313,N,07032.3823020,W,1,24,0.6,13.383,M,-29.744,M,0.0,*52
###2023-12-09 12:51:42.550246$GNGGA,175141.70,4138.0589653,N,07032.3823258,W,1,24,0.6,13.397,M,-29.744,M,0.0,*59
###2023-12-09 12:51:42.751370$GNGGA,175141.90,4138.0589666,N,07032.3823254,W,1,24,0.6,13.406,M,-29.744,M,0.0,*52
###2023-12-09 12:51:42.953478$GNRMC,175142.10,A,4138.0589625,N,07032.3823282,W,0.14,336.29,091223,,,A*5B
###2023-12-09 12:51:42.956368$GNGGA,175142.10,4138.0589625,N,07032.3823282,W,1,24,0.6,13.383,M,-29.744,M,0.0,*5F
###2023-12-09 12:51:42.958238$GPGSA,A,3,03,04,16,26,28,29,31,32,,,,,1.1,0.6,0.9*3B
###2023-12-09 12:51:42.959972$GLGSA,A,3,65,71,72,73,74,75,,,,,,,1.1,0.6,0.9*24
###2023-12-09 12:51:42.961559$GAGSA,A,3,04,19,21,27,,,,,,,,,1.1,0.6,0.9*26
###2023-12-09 12:51:42.963231$GBGSA,A,3,14,24,25,26,33,,,,,,,,1.1,0.6,0.9*2F
###2023-12-09 12:51:42.965563$GPGSV,2,1,08,03,37,267,45,04,29,311,41,16,45,210,47,26,75,209,49*78
###2023-12-09 12:51:42.967912$GPGSV,2,2,08,28,52,066,45,29,26,065,41,31,71,026,45,32,23,138,43*78
###2023-12-09 12:51:42.970252$GLGSV,2,1,06,65,19,329,38,71,47,171,48,72,72,288,47,73,40,038,46*6E
###2023-12-09 12:51:42.972256$GLGSV,2,2,06,74,71,321,42,75,28,248,45,,,,,,,,*67
###2023-12-09 12:51:42.974617$GAGSV,1,1,04,04,26,312,41,19,85,258,40,21,83,157,46,27,36,048,41*67
###2023-12-09 12:51:42.976962$GBGSV,2,1,05,14,48,194,46,24,77,014,47,25,37,258,46,26,29,060,43*6A
###2023-12-09 12:51:42.978425$GBGSV,2,2,05,33,60,240,46,,,,,,,,,,,,*5C
###2023-12-09 12:51:42.979766$GNVTG,336.29,T,,M,0.14,N,0.25,K,A*2C
###2023-12-09 12:51:42.981420$GNGST,175142.10,18.000,,,,0.077,0.067,0.160*5D
###2023-12-09 12:51:42.982731$GNZDA,175142.10,09,12,2023,00,00*74
###2023-12-09 12:51:42.983370$GNEBP,,,,,,M*13
###2023-12-09 12:51:43.149516$GNGGA,175142.30,4138.0589914,N,07032.3823502,W,1,24,0.6,13.372,M,-29.744,M,0.0,*51
