###2023-12-09 12:34:10.941813$GAGSA,A,3,04,19,21,27,,,,,,,,,1.2,0.7,1.0*2C
###2023-12-09 12:34:10.943508$GBGSA,A,3,14,24,25,26,33,,,,,,,,1.2,0.7,1.0*25
###2023-12-09 12:34:10.945842$GPGSV,2,1,08,03,39,277,44,04,22,311,43,16,36,207,45,26,65,206,48*70
###2023-12-09 12:34:10.948202$GPGSV,2,2,08,28,58,055,44,29,25,075,39,31,73,358,47,32,31,134,43*7B
###2023-12-09 12:34:10.950543$GLGSV,2,1,05,71,57,169,49,72,65,310,47,73,48,033,46,74,71,290,43*60
###2023-12-09 12:34:10.952021$GLGSV,2,2,05,75,22,241,39,,,,,,,,,,,,*5F
###2023-12-09 12:34:10.954342$GAGSV,1,1,04,04,20,311,41,19,81,304,41,21,77,177,46,27,42,050,43*6E
###2023-12-09 12:34:10.956691$GBGSV,2,1,05,14,55,198,47,24,81,343,50,25,32,252,47,26,35,057,45*64
###2023-12-09 12:34:10.958140$GBGSV,2,2,05,33,63,255,48,,,,,,,,,,,,*55
###2023-12-09 12:34:10.959448$GNVTG,84.40,T,,M,0.52,N,0.97,K,A*12
###2023-12-09 12:34:10.961094$GNGST,173410.10,19.000,,,,0.082,0.074,0.180*5E
###2023-12-09 12:34:10.962380$GNZDA,173410.10,09,12,2023,00,00*70
###2023-12-09 12:34:10.963040$GNEBP,,,,,,M*13
###2023-12-09 12:34:11.130667$GNGGA,173410.30,4138.0459916,N,07032.4238794,W,1,22,0.7,12.596,M,-29.745,M,0.0,*5A
###2023-12-09 12:34:11.331902$GNGGA,173410.50,4138.0459888,N,07032.4238469,W,1,22,0.7,12.597,M,-29.745,M,0.0,*5A
###2023-12-09 12:34:11.531914$GNGGA,173410.70,4138.0459849,N,07032.4238213,W,1,22,0.7,12.598,M,-29.745,M,0.0,*51
###2023-12-09 12:34:11.730037$GNGGA,173410.90,4138.0460004,N,07032.4237964,W,1,22,0.7,12.605,M,-29.745,M,0.0,*57
###2023-12-09 12:34:11.931317$GNRMC,173411.10,A,4138.0460228,N,07032.4237716,W,0.47,84.40,091223,,,A*62
###2023-12-09 12:34:11.934197$GNGGA,173411.10,4138.0460228,N,07032.4237716,W,1,22,0.7,12.612,M,-29.745,M,0.0,*5F
###2023-12-09 12:34:11.936078$GPGSA,A,3,03,04,16,26,28,29,31,32,,,,,1.2,0.7,1.0*31
###2023-12-09 12:34:11.937739$GLGSA,A,3,71,72,73,74,75,,,,,,,,1.2,0.7,1.0*2D
###2023-12-09 12:34:11.939337$GAGSA,A,3,04,19,21,27,,,,,,,,,1.2,0.7,1.0*2C
###2023-12-09 12:34:11.940983$GBGSA,A,3,14,24,25,26,33,,,,,,,,1.2,0.7,1.0*25
###2023-12-09 12:34:11.943374$GPGSV,2,1,08,03,39,277,45,04,22,311,41,16,36,207,43,26,65,206,48*75
###2023-12-09 12:34:11.945710$GPGSV,2,2,08,28,58,055,44,29,25,075,40,31,73,358,47,32,31,134,43*75
###2023-12-09 12:34:11.948099$GLGSV,2,1,05,71,57,169,48,72,65,310,46,73,48,033,46,74,71,290,43*60
###2023-12-09 12:34:11.949573$GLGSV,2,2,05,75,22,241,38,,,,,,,,,,,,*5E
###2023-12-09 12:34:11.951910$GAGSV,1,1,04,04,20,311,40,19,81,304,41,21,77,177,46,27,42,050,43*6F
###2023-12-09 12:34:11.954235$GBGSV,2,1,05,14,55,198,46,24,81,343,49,25,32,252,45,26,35,057,43*69
###2023-12-09 12:34:11.955704$GBGSV,2,2,05,33,63,255,48,,,,,,,,,,,,*55
###2023-12-09 12:34:11.956998$GNVTG,84.40,T,,M,0.47,N,0.86,K,A*16
###2023-12-09 12:34:11.958661$GNGST,173411.10,19.000,,,,0.082,0.074,0.180*5F
###2023-12-09 12:34:11.959953$GNZDA,173411.10,09,12,2023,00,00*71
###2023-12-09 12:34:11.960593$GNEBP,,,,,,M*13
###2023-12-09 12:34:12.131748$GNGGA,173411.30,4138.0460238,N,07032.4237439,W,1,22,0.7,12.621,M,-29.745,M,0.0,*52
###2023-12-09 12:34:12.330619$GNGGA,173411.50,4138.0460173,N,07032.4237157,W,1,22,0.7,12.624,M,-29.745,M,0.0,*50
###2023-12-09 12:34:12.529916$GNGGA,173411.70,4138.0460274,N,07032.4236899,W,1,22,0.7,12.632,M,-29.745,M,0.0,*5B
###2023-12-09 12:34:12.730145$GNGGA,173411.90,4138.0460503,N,07032.4236695,W,1,22,0.7,12.643,M,-29.745,M,0.0,*56
###2023-12-09 12:34:12.932787$GNRMC,173412.10,A,4138.0460584,N,07032.4236480,W,0.33,84.40,091223,,,A*6E
###2023-12-09 12:34:12.935656$GNGGA,173412.10,4138.0460584,N,07032.4236480,W,1,22,0.7,12.650,M,-29.745,M,0.0,*56
###2023-12-09 12:34:12.937509$GPGSA,A,3,03,04,16,26,28,29,31,32,,,,,1.2,0.7,1.0*31
###2023-12-09 12:34:12.939168$GLGSA,A,3,71,72,73,74,75,,,,,,,,1.2,0.7,1.0*2D
###2023-12-09 12:34:12.940753$GAGSA,A,3,04,19,21,27,,,,,,,,,1.2,0.7,1.0*2C
###2023-12-09 12:34:12.942393$GBGSA,A,3,14,24,25,26,33,,,,,,,,1.2,0.7,1.0*25
###2023-12-09 12:34:12.944730$GPGSV,2,1,08,03,39,277,45,04,22,311,42,16,36,207,45,26,65,206,47*7F
###2023-12-09 12:34:12.947105$GPGSV,2,2,08,28,58,055,44,29,25,075,40,31,73,358,47,32,31,134,43*75
###2023-12-09 12:34:12.949479$GLGSV,2,1,05,71,57,169,48,72,65,310,48,73,48,033,47,74,71,290,43*6F
###2023-12-09 12:34:12.950964$GLGSV,2,2,05,75,22,241,39,,,,,,,,,,,,*5F
###2023-12-09 12:34:12.953294$GAGSV,1,1,04,04,20,311,39,19,81,304,41,21,77,177,47,27,42,050,44*67
###2023-12-09 12:34:12.955647$GBGSV,2,1,05,14,55,198,46,24,81,343,49,25,32,252,46,26,35,057,45*6C
###2023-12-09 12:34:12.957105$GBGSV,2,2,05,33,63,255,48,,,,,,,,,,,,*55
###2023-12-09 12:34:12.958394$GNVTG,84.40,T,,M,0.33,N,0.61,K,A*1C
###2023-12-09 12:34:12.960050$GNGST,173412.10,19.000,,,,0.082,0.074,0.180*5C
###2023-12-09 12:34:12.961347$GNZDA,173412.10,09,12,2023,00,00*72
###2023-12-09 12:34:12.961987$GNEBP,,,,,,M*13
###2023-12-09 12:34:13.130467$GNGGA,173412.30,4138.0460540,N,07032.4236173,W,1,22,0.7,12.661,M,-29.745,M,0.0,*57
###2023-12-09 12:34:13.331924$GNGGA,173412.50,4138.0460556,N,07032.4235879,W,1,22,0.7,12.667,M,-29.745,M,0.0,*50
###2023-12-09 12:34:13.530848$GNGGA,173412.70,4138.0460707,N,07032.4235739,W,1,22,0.7,12.672,M,-29.745,M,0.0,*5B
###2023-12-09 12:34:13.729586$GNGGA,173412.90,4138.0460908,N,07032.4235549,W,1,22,0.7,12.681,M,-29.745,M,0.0,*5D
###2023-12-09 12:34:13.932720$GNRMC,173413.10,A,4138.0460930,N,07032.4235271,W,0.43,84.40,091223,,,A*60
###2023-12-09 12:34:13.935600$GNGGA,173413.10,4138.0460930,N,07032.4235271,W,1,22,0.7,12.686,M,-29.745,M,0.0,*54
###2023-12-09 12:34:13.937463$GPGSA,A,3,03,04,16,26,28,29,31,32,,,,,1.2,0.7,1.0*31
###2023-12-09 12:34:13.939128$GLGSA,A,3,71,72,73,74,75,,,,,,,,1.2,0.7,1.0*2D
###2023-12-09 12:34:13.940712$GAGSA,A,3,04,19,21,27,,,,,,,,,1.2,0.7,1.0*2C
###2023-12-09 12:34:13.942357$GBGSA,A,3,14,24,25,26,33,,,,,,,,1.2,0.7,1.0*25
###2023-12-09 12:34:13.944702$GPGSV,2,1,08,03,39,277,45,04,22,311,43,16,36,207,44,26,65,206,47*7F
###2023-12-09 12:34:13.947060$GPGSV,2,2,08,28,58,055,45,29,25,075,39,31,73,358,48,32,31,134,43*75
###2023-12-09 12:34:13.949422$GLGSV,2,1,05,71,57,169,49,72,65,310,46,73,48,033,46,74,71,290,43*61
###2023-12-09 12:34:13.950908$GLGSV,2,2,05,75,22,241,41,,,,,,,,,,,,*50
###2023-12-09 12:34:13.953242$GAGSV,1,1,04,04,20,311,42,19,81,304,41,21,77,177,47,27,42,050,44*6B
###2023-12-09 12:34:13.955590$GBGSV,2,1,05,14,55,198,45,24,81,343,49,25,32,252,46,26,35,057,44*6E
###2023-12-09 12:34:13.957046$GBGSV,2,2,05,33,63,255,48,,,,,,,,,,,,*55
###2023-12-09 12:34:13.958336$GNVTG,84.40,T,,M,0.43,N,0.79,K,A*12
###2023-12-09 12:34:13.960004$GNGST,173413.10,19.000,,,,0.083,0.075,0.180*5D
###2023-12-09 12:34:13.961302$GNZDA,173413.10,09,12,2023,00,00*73
###2023-12-09 12:34:13.961938$GNEBP,,,,,,M*13
###2023-12-09 12:34:14.132706$GNGGA,173413.30,4138.0460868,N,07032.4234991,W,1,22,0.7,12.699,M,-29.745,M,0.0,*50
###2023-12-09 12:34:14.330589$GNGGA,173413.50,4138.0460934,N,07032.4234801,W,1,22,0.7,12.708,M,-29.745,M,0.0,*5F
###2023-12-09 12:34:14.533763$GNGGA,173413.70,4138.0461139,N,07032.4234626,W,1,22,0.7,12.716,M,-29.745,M,0.0,*5D
###2023-12-09 12:34:14.729996$GNGGA,173413.90,4138.0461253,N,07032.4234420,W,1,22,0.7,12.718,M,-29.745,M,0.0,*56
###2023-12-09 12:34:14.935036$GNRMC,173414.10,A,4138.0461226,N,07032.4234178,W,0.35,84.40,091223,,,A*60
###2023-12-09 12:34:14.937910$GNGGA,173414.10,4138.0461226,N,07032.4234178,W,1,22,0.7,12.730,M,-29.745,M,0.0,*59
###2023-12-09 12:34:14.939778$GPGSA,A,3,03,04,16,26,28,29,31,32,,,,,1.2,0.7,1.0*31
###2023-12-09 12:34:14.941430$GLGSA,A,3,71,72,73,74,75,,,,,,,,1.2,0.7,1.0*2D
###2023-12-09 12:34:14.943024$GAGSA,A,3,04,19,21,27,,,,,,,,,1.2,0.7,1.0*2C
###2023-12-09 12:34:14.944666$GBGSA,A,3,14,24,25,26,33,,,,,,,,1.2,0.7,1.0*25
###2023-12-09 12:34:14.947014$GPGSV,2,1,08,03,39,277,45,04,22,311,42,16,36,207,44,26,65,206,49*70
###2023-12-09 12:34:14.949359$GPGSV,2,2,08,28,58,055,44,29,25,075,40,31,73,358,48,32,31,134,42*7B
###2023-12-09 12:34:14.951744$GLGSV,2,1,05,71,57,169,48,72,65,310,48,73,48,033,46,74,71,290,42*6F
###2023-12-09 12:34:14.953205$GLGSV,2,2,05,75,22,241,39,,,,,,,,,,,,*5F
###2023-12-09 12:34:14.955542$GAGSV,1,1,04,04,20,311,41,19,81,304,41,21,77,177,47,27,42,050,44*68
###2023-12-09 12:34:14.957882$GBGSV,2,1,05,14,55,198,46,24,81,343,49,25,32,252,47,26,35,057,45*6D
###2023-12-09 12:34:14.959608$GBGSV,2,2,05,33,63,255,47,,,,,,,,,,,,*5A
###2023-12-09 12:34:14.960910$GNVTG,84.40,T,,M,0.35,N,0.65,K,A*1E
###2023-12-09 12:34:14.962560$GNGST,173414.10,19.000,,,,0.083,0.075,0.180*5A
###2023-12-09 12:34:14.963877$GNZDA,173414.10,09,12,2023,00,00*74
###2023-12-09 12:34:14.964518$GNEBP,,,,,,M*13
###2023-12-09 12:34:15.133396$GNGGA,173414.30,4138.0461238,N,07032.4233903,W,1,22,0.7,12.739,M,-29.745,M,0.0,*5E
###2023-12-09 12:34:15.331398$GNGGA,173414.50,4138.0461367,N,07032.4233691,W,1,22,0.7,12.737,M,-29.745,M,0.0,*59
###2023-12-09 12:34:15.531403$GNGGA,173414.70,4138.0461524,N,07032.4233551,W,1,22,0.7,12.738,M,-29.745,M,0.0,*5A
