###2023-12-09 13:36:01.002690$GNRMC,183600.10,A,4138.0466825,N,07032.4131654,W,2.76,302.31,091223,,,A*57
###2023-12-09 13:36:01.005536$GNGGA,183600.10,4138.0466825,N,07032.4131654,W,1,26,0.6,13.218,M,-29.745,M,0.0,*5B
###2023-12-09 13:36:01.007403$GPGSA,A,3,03,04,16,26,27,28,29,31,,,,,1.0,0.6,0.9*3E
###2023-12-09 13:36:01.009113$GLGSA,A,3,65,71,72,73,74,75,,,,,,,1.0,0.6,0.9*25
###2023-12-09 13:36:01.010699$GAGSA,A,3,04,19,21,27,,,,,,,,,1.0,0.6,0.9*27
###2023-12-09 13:36:01.012469$GBGSA,A,3,12,14,24,25,26,33,35,,,,,,1.0,0.6,0.9*2B
###2023-12-09 13:36:01.014817$GPGSV,2,1,08,03,26,246,43,04,47,307,41,16,67,223,46,26,83,040,49*75
###2023-12-09 13:36:01.017158$GPGSV,2,2,08,27,17,172,41,28,37,085,43,29,20,046,42,31,59,067,48*79
###2023-12-09 13:36:01.019503$GLGSV,2,1,06,65,39,318,40,71,22,175,40,72,62,220,45,73,22,052,42*63
###2023-12-09 13:36:01.021248$GLGSV,2,2,06,74,59,015,42,75,44,272,46,,,,,,,,*69
###2023-12-09 13:36:01.023583$GAGSV,1,1,04,04,40,310,41,19,71,181,41,21,76,045,46,27,22,050,41*6C
###2023-12-09 13:36:01.025909$GBGSV,2,1,07,12,15,126,42,14,29,190,42,24,62,046,48,25,51,276,45*66
###2023-12-09 13:36:01.027949$GBGSV,2,2,07,26,16,071,41,33,45,217,47,35,16,056,42,,,,*5E
###2023-12-09 13:36:01.029270$GNVTG,302.31,T,,M,2.76,N,5.11,K,A*26
###2023-12-09 13:36:01.030887$GNGST,183600.10,4.900,,,,0.090,0.068,0.150*64
###2023-12-09 13:36:01.032171$GNZDA,183600.10,09,12,2023,00,00*7C
###2023-12-09 13:36:01.032806$GNEBP,,,,,,M*13
###2023-12-09 13:36:01.203590$GNGGA,183600.30,4138.0467663,N,07032.4133372,W,1,26,0.6,13.219,M,-29.745,M,0.0,*56
###2023-12-09 13:36:01.397892$GNGGA,183600.50,4138.0468555,N,07032.4135086,W,1,26,0.6,13.215,M,-29.745,M,0.0,*5B
###2023-12-09 13:36:01.596162$GNGGA,183600.70,4138.0469485,N,07032.4136751,W,1,26,0.6,13.216,M,-29.745,M,0.0,*59
###2023-12-09 13:36:01.798246$GNGGA,183600.90,4138.0470475,N,07032.4138386,W,1,26,0.6,13.215,M,-29.745,M,0.0,*53
###2023-12-09 13:36:02.000651$GNRMC,183601.10,A,4138.0471512,N,07032.4139924,W,2.80,311.88,091223,,,A*50
###2023-12-09 13:36:02.003512$GNGGA,183601.10,4138.0471512,N,07032.4139924,W,1,26,0.6,13.220,M,-29.745,M,0.0,*5E
###2023-12-09 13:36:02.005374$GPGSA,A,3,03,04,16,26,27,28,29,31,,,,,1.0,0.6,0.9*3E
###2023-12-09 13:36:02.007106$GLGSA,A,3,65,71,72,73,74,75,,,,,,,1.0,0.6,0.9*25
###2023-12-09 13:36:02.008686$GAGSA,A,3,04,19,21,27,,,,,,,,,1.0,0.6,0.9*27
###2023-12-09 13:36:02.010459$GBGSA,A,3,12,14,24,25,26,33,35,,,,,,1.0,0.6,0.9*2B
###2023-12-09 13:36:02.012800$GPGSV,2,1,08,03,26,246,42,04,47,307,43,16,67,223,46,26,83,040,49*76
###2023-12-09 13:36:02.015144$GPGSV,2,2,08,27,17,172,41,28,37,085,43,29,20,046,42,31,59,067,47*76
###2023-12-09 13:36:02.017482$GLGSV,2,1,06,65,39,318,40,71,22,175,44,72,62,220,45,73,22,052,43*66
###2023-12-09 13:36:02.019234$GLGSV,2,2,06,74,59,015,41,75,44,272,47,,,,,,,,*6B
###2023-12-09 13:36:02.021560$GAGSV,1,1,04,04,40,310,41,19,71,181,41,21,76,045,46,27,22,050,39*63
###2023-12-09 13:36:02.023895$GBGSV,2,1,07,12,15,126,43,14,29,190,41,24,62,046,50,25,51,276,46*6E
###2023-12-09 13:36:02.025929$GBGSV,2,2,07,26,16,071,42,33,45,217,48,35,16,056,42,,,,*52
###2023-12-09 13:36:02.027266$GNVTG,311.88,T,,M,2.80,N,5.18,K,A*26
###2023-12-09 13:36:02.028880$GNGST,183601.10,5.600,,,,0.089,0.068,0.150*63
###2023-12-09 13:36:02.030168$GNZDA,183601.10,09,12,2023,00,00*7D
###2023-12-09 13:36:02.030818$GNEBP,,,,,,M*13
###2023-12-09 13:36:02.199083$GNGGA,183601.30,4138.0472595,N,07032.4141446,W,1,26,0.6,13.223,M,-29.745,M,0.0,*55
###2023-12-09 13:36:02.398158$GNGGA,183601.50,4138.0473725,N,07032.4142967,W,1,26,0.6,13.222,M,-29.745,M,0.0,*57
###2023-12-09 13:36:02.598314$GNGGA,183601.70,4138.0474831,N,07032.4144482,W,1,26,0.6,13.222,M,-29.745,M,0.0,*58
###2023-12-09 13:36:02.802121$GNGGA,183601.90,4138.0475933,N,07032.4146041,W,1,26,0.6,13.215,M,-29.745,M,0.0,*59
###2023-12-09 13:36:03.005361$GNRMC,183602.10,A,4138.0477101,N,07032.4147527,W,2.94,319.25,091223,,,A*5F
###2023-12-09 13:36:03.008868$GNGGA,183602.10,4138.0477101,N,07032.4147527,W,1,26,0.6,13.213,M,-29.745,M,0.0,*5B
###2023-12-09 13:36:03.011132$GPGSA,A,3,03,04,16,26,27,28,29,31,,,,,1.0,0.6,0.8*3F
###2023-12-09 13:36:03.013198$GLGSA,A,3,65,71,72,73,74,75,,,,,,,1.0,0.6,0.8*24
###2023-12-09 13:36:03.015122$GAGSA,A,3,04,19,21,27,,,,,,,,,1.0,0.6,0.8*26
###2023-12-09 13:36:03.017260$GBGSA,A,3,12,14,24,25,26,33,35,,,,,,1.0,0.6,0.8*2A
###2023-12-09 13:36:03.020084$GPGSV,2,1,08,03,26,246,43,04,47,307,44,16,67,223,46,26,83,040,48*71
###2023-12-09 13:36:03.022916$GPGSV,2,2,08,27,17,172,42,28,37,085,44,29,20,046,41,31,59,067,47*71
###2023-12-09 13:36:03.025761$GLGSV,2,1,06,65,39,318,39,71,22,175,45,72,62,220,45,73,22,052,43*69
###2023-12-09 13:36:03.027883$GLGSV,2,2,06,74,59,015,41,75,44,272,47,,,,,,,,*6B
###2023-12-09 13:36:03.030716$GAGSV,1,1,04,04,40,310,42,19,71,181,41,21,76,045,46,27,22,050,42*6C
###2023-12-09 13:36:03.033540$GBGSV,2,1,07,12,15,126,42,14,29,190,39,24,62,046,48,25,51,276,46*69
###2023-12-09 13:36:03.036011$GBGSV,2,2,07,26,16,071,40,33,45,217,48,35,16,056,41,,,,*53
###2023-12-09 13:36:03.037615$GNVTG,319.25,T,,M,2.94,N,5.44,K,A*25
###2023-12-09 13:36:03.039584$GNGST,183602.10,5.600,,,,0.089,0.067,0.150*6F
###2023-12-09 13:36:03.041144$GNZDA,183602.10,09,12,2023,00,00*7E
###2023-12-09 13:36:03.041916$GNEBP,,,,,,M*13
###2023-12-09 13:36:03.206413$GNGGA,183602.30,4138.0478386,N,07032.4148910,W,1,26,0.6,13.212,M,-29.745,M,0.0,*5D
###2023-12-09 13:36:03.397703$GNGGA,183602.50,4138.0479732,N,07032.4150164,W,1,26,0.6,13.217,M,-29.745,M,0.0,*56
###2023-12-09 13:36:03.598709$GNGGA,183602.70,4138.0481160,N,07032.4151315,W,1,26,0.6,13.221,M,-29.745,M,0.0,*52
###2023-12-09 13:36:03.800843$GNGGA,183602.90,4138.0482665,N,07032.4152350,W,1,26,0.6,13.214,M,-29.745,M,0.0,*59
###2023-12-09 13:36:04.002395$GNRMC,183603.10,A,4138.0484226,N,07032.4153265,W,3.15,337.00,091223,,,A*53
###2023-12-09 13:36:04.005863$GNGGA,183603.10,4138.0484226,N,07032.4153265,W,1,26,0.6,13.215,M,-29.745,M,0.0,*52
###2023-12-09 13:36:04.008106$GPGSA,A,3,03,04,16,26,27,28,29,31,,,,,1.0,0.6,0.8*3F
###2023-12-09 13:36:04.010157$GLGSA,A,3,65,71,72,73,74,75,,,,,,,1.0,0.6,0.8*24
###2023-12-09 13:36:04.012073$GAGSA,A,3,04,19,21,27,,,,,,,,,1.0,0.6,0.8*26
###2023-12-09 13:36:04.014206$GBGSA,A,3,12,14,24,25,26,33,35,,,,,,1.0,0.6,0.8*2A
###2023-12-09 13:36:04.017009$GPGSV,2,1,08,03,26,246,42,04,47,307,45,16,67,223,46,26,83,040,48*71
###2023-12-09 13:36:04.019845$GPGSV,2,2,08,27,17,172,44,28,37,085,44,29,20,046,40,31,59,067,47*76
###2023-12-09 13:36:04.022675$GLGSV,2,1,06,65,39,318,42,71,22,175,44,72,62,220,46,73,22,052,41*65
###2023-12-09 13:36:04.024775$GLGSV,2,2,06,74,59,015,41,75,44,272,46,,,,,,,,*6A
###2023-12-09 13:36:04.027584$GAGSV,1,1,04,04,40,310,44,19,71,181,41,21,76,045,46,27,22,050,39*66
###2023-12-09 13:36:04.030386$GBGSV,2,1,07,12,15,126,39,14,29,190,42,24,62,046,47,25,51,276,46*66
###2023-12-09 13:36:04.032849$GBGSV,2,2,07,26,16,071,39,33,45,217,46,35,16,056,40,,,,*52
###2023-12-09 13:36:04.034440$GNVTG,337.00,T,,M,3.15,N,5.83,K,A*2D
###2023-12-09 13:36:04.036390$GNGST,183603.10,5.800,,,,0.088,0.067,0.150*61
###2023-12-09 13:36:04.037948$GNZDA,183603.10,09,12,2023,00,00*7F
###2023-12-09 13:36:04.038726$GNEBP,,,,,,M*13
###2023-12-09 13:36:04.198850$GNGGA,183603.30,4138.0485840,N,07032.4154072,W,1,26,0.6,13.221,M,-29.745,M,0.0,*5F
###2023-12-09 13:36:04.402289$GNGGA,183603.50,4138.0487487,N,07032.4154855,W,1,26,0.6,13.223,M,-29.745,M,0.0,*53
###2023-12-09 13:36:04.598411$GNGGA,183603.70,4138.0489158,N,07032.4155561,W,1,26,0.6,13.216,M,-29.745,M,0.0,*55
###2023-12-09 13:36:04.799184$GNGGA,183603.90,4138.0490833,N,07032.4156247,W,1,26,0.6,13.211,M,-29.745,M,0.0,*50
###2023-12-09 13:36:05.003339$GNRMC,183604.10,A,4138.0492489,N,07032.4156959,W,3.07,342.25,091223,,,A*57
###2023-12-09 13:36:05.006805$GNGGA,183604.10,4138.0492489,N,07032.4156959,W,1,26,0.6,13.209,M,-29.745,M,0.0,*5D
###2023-12-09 13:36:05.009038$GPGSA,A,3,03,04,16,26,27,28,29,31,,,,,1.0,0.6,0.8*3F
###2023-12-09 13:36:05.011178$GLGSA,A,3,65,71,72,73,74,75,,,,,,,1.0,0.6,0.8*24
###2023-12-09 13:36:05.013097$GAGSA,A,3,04,19,21,27,,,,,,,,,1.0,0.6,0.8*26
###2023-12-09 13:36:05.015246$GBGSA,A,3,12,14,24,25,26,33,35,,,,,,1.0,0.6,0.8*2A
###2023-12-09 13:36:05.018340$GPGSV,2,1,08,03,26,246,44,04,47,307,46,16,67,223,46,26,83,040,48*74
###2023-12-09 13:36:05.021181$GPGSV,2,2,08,27,17,172,44,28,37,085,45,29,20,046,41,31,59,067,47*76
###2023-12-09 13:36:05.024000$GLGSV,2,1,06,65,39,318,41,71,22,175,45,72,62,220,46,73,22,052,41*67
###2023-12-09 13:36:05.026104$GLGSV,2,2,06,74,59,015,41,75,44,272,46,,,,,,,,*6A
###2023-12-09 13:36:05.028928$GAGSV,1,1,04,04,40,310,44,19,71,181,41,21,76,045,45,27,22,050,39*65
###2023-12-09 13:36:05.031745$GBGSV,2,1,07,12,15,126,39,14,29,190,42,24,62,046,48,25,51,276,48*67
###2023-12-09 13:36:05.034195$GBGSV,2,2,07,26,16,071,41,33,45,217,48,35,16,056,41,,,,*52
###2023-12-09 13:36:05.035805$GNVTG,342.25,T,,M,3.07,N,5.69,K,A*2F
###2023-12-09 13:36:05.037755$GNGST,183604.10,5.900,,,,0.088,0.067,0.150*67
###2023-12-09 13:36:05.039326$GNZDA,183604.10,09,12,2023,00,00*78
