###2023-12-09 12:37:40.937449$GNRMC,173740.10,A,4138.0627210,N,07032.3821387,W,0.29,275.06,091223,,,A*5F
###2023-12-09 12:37:40.940961$GNGGA,173740.10,4138.0627210,N,07032.3821387,W,1,23,0.7,13.440,M,-29.744,M,0.0,*50
###2023-12-09 12:37:40.943240$GPGSA,A,3,03,04,16,26,28,29,31,32,,,,,1.2,0.7,1.0*31
###2023-12-09 12:37:40.945252$GLGSA,A,3,71,72,73,74,75,,,,,,,,1.2,0.7,1.0*2D
###2023-12-09 12:37:40.947202$GAGSA,A,3,04,19,21,27,,,,,,,,,1.2,0.7,1.0*2C
###2023-12-09 12:37:40.949218$GBGSA,A,3,14,24,25,26,33,,,,,,,,1.2,0.7,1.0*25
###2023-12-09 12:37:40.952063$GPGSV,2,1,08,03,38,275,44,04,23,311,41,16,37,207,42,26,67,207,47*7A
###2023-12-09 12:37:40.954917$GPGSV,2,2,08,28,57,057,44,29,25,073,41,31,73,004,48,32,29,134,43*73
###2023-12-09 12:37:40.957742$GLGSV,2,1,05,71,55,169,45,72,67,307,47,73,46,034,47,74,71,296,43*64
###2023-12-09 12:37:40.959532$GLGSV,2,2,05,75,23,242,41,,,,,,,,,,,,*52
###2023-12-09 12:37:40.962345$GAGSV,1,1,04,04,21,311,41,19,82,299,41,21,78,175,46,27,41,049,43*6F
###2023-12-09 12:37:40.965184$GBGSV,2,1,05,14,54,197,45,24,80,351,49,25,33,253,45,26,34,058,43*68
###2023-12-09 12:37:40.966993$GBGSV,2,2,05,33,63,252,49,,,,,,,,,,,,*53
###2023-12-09 12:37:40.968608$GNVTG,275.06,T,,M,0.29,N,0.54,K,A*2F
###2023-12-09 12:37:40.970617$GNGST,173740.10,19.000,,,,0.082,0.071,0.170*52
###2023-12-09 12:37:40.972186$GNZDA,173740.10,09,12,2023,00,00*76
###2023-12-09 12:37:40.972957$GNEBP,,,,,,M*13
###2023-12-09 12:37:41.137224$GNGGA,173740.30,4138.0627153,N,07032.3821407,W,1,23,0.7,13.429,M,-29.744,M,0.0,*56
###2023-12-09 12:37:41.336748$GNGGA,173740.50,4138.0627208,N,07032.3822054,W,1,23,0.7,13.445,M,-29.744,M,0.0,*56
###2023-12-09 12:37:41.536896$GNGGA,173740.70,4138.0627262,N,07032.3822878,W,1,23,0.7,13.453,M,-29.744,M,0.0,*59
###2023-12-09 12:37:41.740963$GNGGA,173740.90,4138.0627229,N,07032.3823175,W,1,23,0.7,13.451,M,-29.744,M,0.0,*5F
###2023-12-09 12:37:41.937126$GNRMC,173741.10,A,4138.0627163,N,07032.3823001,W,0.19,276.36,091223,,,A*55
###2023-12-09 12:37:41.940600$GNGGA,173741.10,4138.0627163,N,07032.3823001,W,1,23,0.7,13.446,M,-29.744,M,0.0,*5F
###2023-12-09 12:37:41.942851$GPGSA,A,3,03,04,16,26,28,29,31,32,,,,,1.2,0.7,1.0*31
###2023-12-09 12:37:41.944836$GLGSA,A,3,71,72,73,74,75,,,,,,,,1.2,0.7,1.0*2D
###2023-12-09 12:37:41.946809$GAGSA,A,3,04,19,21,27,,,,,,,,,1.2,0.7,1.0*2C
###2023-12-09 12:37:41.948818$GBGSA,A,3,14,24,25,26,33,,,,,,,,1.2,0.7,1.0*25
###2023-12-09 12:37:41.951646$GPGSV,2,1,08,03,38,275,44,04,23,311,39,16,37,207,42,26,67,207,46*74
###2023-12-09 12:37:41.954440$GPGSV,2,2,08,28,57,057,45,29,25,073,44,31,73,004,48,32,29,134,44*70
###2023-12-09 12:37:41.957277$GLGSV,2,1,05,71,55,169,47,72,67,307,47,73,46,034,47,74,71,296,43*66
###2023-12-09 12:37:41.959088$GLGSV,2,2,05,75,23,242,40,,,,,,,,,,,,*53
###2023-12-09 12:37:41.961890$GAGSV,1,1,04,04,21,311,39,19,82,299,41,21,78,175,45,27,41,049,43*63
###2023-12-09 12:37:41.964721$GBGSV,2,1,05,14,54,197,44,24,80,351,48,25,33,253,43,26,34,058,43*6E
###2023-12-09 12:37:41.966483$GBGSV,2,2,05,33,63,252,48,,,,,,,,,,,,*52
###2023-12-09 12:37:41.968096$GNVTG,276.36,T,,M,0.19,N,0.36,K,A*28
###2023-12-09 12:37:41.970091$GNGST,173741.10,19.000,,,,0.082,0.072,0.170*50
###2023-12-09 12:37:41.971666$GNZDA,173741.10,09,12,2023,00,00*77
###2023-12-09 12:37:41.972444$GNEBP,,,,,,M*13
###2023-12-09 12:37:42.137679$GNGGA,173741.30,4138.0627156,N,07032.3823244,W,1,23,0.7,13.445,M,-29.744,M,0.0,*5B
###2023-12-09 12:37:42.336679$GNGGA,173741.50,4138.0627235,N,07032.3824093,W,1,23,0.7,13.469,M,-29.744,M,0.0,*5A
###2023-12-09 12:37:42.537850$GNGGA,173741.70,4138.0627278,N,07032.3824819,W,1,23,0.7,13.461,M,-29.744,M,0.0,*53
###2023-12-09 12:37:42.736854$GNGGA,173741.90,4138.0627227,N,07032.3824873,W,1,23,0.7,13.457,M,-29.744,M,0.0,*5E
###2023-12-09 12:37:42.938336$GNRMC,173742.10,A,4138.0627179,N,07032.3824754,W,0.14,278.24,091223,,,A*5D
###2023-12-09 12:37:42.941790$GNGGA,173742.10,4138.0627179,N,07032.3824754,W,1,23,0.7,13.446,M,-29.744,M,0.0,*57
###2023-12-09 12:37:42.944038$GPGSA,A,3,03,04,16,26,28,29,31,32,,,,,1.2,0.7,1.0*31
###2023-12-09 12:37:42.946023$GLGSA,A,3,71,72,73,74,75,,,,,,,,1.2,0.7,1.0*2D
###2023-12-09 12:37:42.947957$GAGSA,A,3,04,19,21,27,,,,,,,,,1.2,0.7,1.0*2C
###2023-12-09 12:37:42.949963$GBGSA,A,3,14,24,25,26,33,,,,,,,,1.2,0.7,1.0*25
###2023-12-09 12:37:42.952796$GPGSV,2,1,08,03,38,275,44,04,23,311,38,16,37,207,43,26,67,207,46*74
###2023-12-09 12:37:42.955640$GPGSV,2,2,08,28,57,057,45,29,25,073,44,31,73,004,47,32,29,134,45*7E
###2023-12-09 12:37:42.958455$GLGSV,2,1,05,71,55,169,47,72,67,307,47,73,46,034,48,74,71,296,43*69
###2023-12-09 12:37:42.960231$GLGSV,2,2,05,75,23,242,40,,,,,,,,,,,,*53
###2023-12-09 12:37:42.963050$GAGSV,1,1,04,04,21,311,39,19,82,299,41,21,78,175,46,27,41,049,45*66
###2023-12-09 12:37:42.965866$GBGSV,2,1,05,14,54,197,44,24,80,351,48,25,33,253,43,26,34,058,44*69
###2023-12-09 12:37:42.967674$GBGSV,2,2,05,33,63,252,47,,,,,,,,,,,,*5D
###2023-12-09 12:37:42.969276$GNVTG,278.24,T,,M,0.14,N,0.25,K,A*2A
###2023-12-09 12:37:42.971277$GNGST,173742.10,19.000,,,,0.083,0.072,0.170*52
###2023-12-09 12:37:42.972842$GNZDA,173742.10,09,12,2023,00,00*74
###2023-12-09 12:37:42.973612$GNEBP,,,,,,M*13
###2023-12-09 12:37:43.137116$GNGGA,173742.30,4138.0627220,N,07032.3825256,W,1,23,0.7,13.459,M,-29.744,M,0.0,*52
###2023-12-09 12:37:43.337340$GNGGA,173742.50,4138.0627297,N,07032.3826167,W,1,23,0.7,13.473,M,-29.744,M,0.0,*52
###2023-12-09 12:37:43.536942$GNGGA,173742.70,4138.0627278,N,07032.3826620,W,1,23,0.7,13.468,M,-29.744,M,0.0,*5F
###2023-12-09 12:37:43.736981$GNGGA,173742.90,4138.0627219,N,07032.3826455,W,1,23,0.7,13.460,M,-29.744,M,0.0,*5E
###2023-12-09 12:37:43.936937$GNRMC,173743.10,A,4138.0627195,N,07032.3826508,W,0.64,276.86,091223,,,A*56
###2023-12-09 12:37:43.939841$GNGGA,173743.10,4138.0627195,N,07032.3826508,W,1,23,0.7,13.447,M,-29.744,M,0.0,*5C
###2023-12-09 12:37:43.941715$GPGSA,A,3,03,04,16,26,28,29,31,32,,,,,1.2,0.7,1.0*31
###2023-12-09 12:37:43.943394$GLGSA,A,3,71,72,73,74,75,,,,,,,,1.2,0.7,1.0*2D
###2023-12-09 12:37:43.944979$GAGSA,A,3,04,19,21,27,,,,,,,,,1.2,0.7,1.0*2C
###2023-12-09 12:37:43.946662$GBGSA,A,3,14,24,25,26,33,,,,,,,,1.2,0.7,1.0*25
###2023-12-09 12:37:43.949017$GPGSV,2,1,08,03,38,275,44,04,23,311,38,16,37,207,44,26,67,207,47*72
###2023-12-09 12:37:43.951365$GPGSV,2,2,08,28,57,057,46,29,25,073,44,31,73,004,47,32,29,134,46*7E
###2023-12-09 12:37:43.953692$GLGSV,2,1,05,71,55,169,46,72,67,307,46,73,46,034,47,74,71,296,43*66
###2023-12-09 12:37:43.955171$GLGSV,2,2,05,75,23,242,40,,,,,,,,,,,,*53
###2023-12-09 12:37:43.957508$GAGSV,1,1,04,04,21,311,37,19,82,299,41,21,78,175,46,27,41,049,45*68
###2023-12-09 12:37:43.959862$GBGSV,2,1,05,14,54,197,44,24,80,351,49,25,33,253,44,26,34,058,45*6E
###2023-12-09 12:37:43.961326$GBGSV,2,2,05,33,63,252,48,,,,,,,,,,,,*52
###2023-12-09 12:37:43.962661$GNVTG,276.86,T,,M,0.64,N,1.19,K,A*25
###2023-12-09 12:37:43.964310$GNGST,173743.10,19.000,,,,0.083,0.072,0.170*53
###2023-12-09 12:37:43.965603$GNZDA,173743.10,09,12,2023,00,00*75
###2023-12-09 12:37:43.966238$GNEBP,,,,,,M*13
###2023-12-09 12:37:44.135444$GNGGA,173743.30,4138.0627239,N,07032.3827247,W,1,23,0.7,13.472,M,-29.744,M,0.0,*50
###2023-12-09 12:37:44.336781$GNGGA,173743.50,4138.0627300,N,07032.3828051,W,1,23,0.7,13.477,M,-29.744,M,0.0,*52
###2023-12-09 12:37:44.537394$GNGGA,173743.70,4138.0627250,N,07032.3828170,W,1,23,0.7,13.470,M,-29.744,M,0.0,*51
###2023-12-09 12:37:44.740261$GNGGA,173743.90,4138.0627176,N,07032.3827926,W,1,23,0.7,13.460,M,-29.744,M,0.0,*5D
###2023-12-09 12:37:44.944631$GNRMC,173744.10,A,4138.0627166,N,07032.3828272,W,0.95,279.40,091223,,,A*52
###2023-12-09 12:37:44.947525$GNGGA,173744.10,4138.0627166,N,07032.3828272,W,1,23,0.7,13.457,M,-29.744,M,0.0,*52
###2023-12-09 12:37:44.949399$GPGSA,A,3,03,04,16,26,28,29,31,32,,,,,1.2,0.7,1.0*31
###2023-12-09 12:37:44.951070$GLGSA,A,3,71,72,73,74,75,,,,,,,,1.2,0.7,1.0*2D
###2023-12-09 12:37:44.952656$GAGSA,A,3,04,19,21,27,,,,,,,,,1.2,0.7,1.0*2C
###2023-12-09 12:37:44.954299$GBGSA,A,3,14,24,25,26,33,,,,,,,,1.2,0.7,1.0*25
###2023-12-09 12:37:44.956643$GPGSV,2,1,08,03,38,275,43,04,23,311,37,16,37,207,43,26,67,207,46*7C
###2023-12-09 12:37:44.959233$GPGSV,2,2,08,28,57,057,46,29,25,073,44,31,73,004,47,32,29,134,45*7D
###2023-12-09 12:37:44.961591$GLGSV,2,1,05,71,55,169,47,72,67,307,46,73,46,034,47,74,71,296,42*66
###2023-12-09 12:37:44.963072$GLGSV,2,2,05,75,23,242,40,,,,,,,,,,,,*53
###2023-12-09 12:37:44.965412$GAGSV,1,1,04,04,21,311,37,19,82,299,41,21,78,175,46,27,41,049,45*68
###2023-12-09 12:37:44.967773$GBGSV,2,1,05,14,54,197,44,24,80,351,48,25,33,253,43,26,34,058,45*68
###2023-12-09 12:37:44.969237$GBGSV,2,2,05,33,63,252,48,,,,,,,,,,,,*52
###2023-12-09 12:37:44.970574$GNVTG,279.40,T,,M,0.95,N,1.76,K,A*27
###2023-12-09 12:37:44.972228$GNGST,173744.10,19.000,,,,0.083,0.072,0.170*54
###2023-12-09 12:37:44.973526$GNZDA,173744.10,09,12,2023,00,00*72
