###2023-12-09 12:31:28.955309$GNVTG,95.64,T,,M,0.43,N,0.79,K,A*14
###2023-12-09 12:31:28.957122$GNGST,173128.10,20.000,,,,0.120,0.100,0.250*5F
###2023-12-09 12:31:28.958535$GNZDA,173128.10,09,12,2023,00,00*7E
###2023-12-09 12:31:28.959219$GNEBP,,,,,,M*13
###2023-12-09 12:31:29.127256$GNGGA,173128.30,4138.0394796,N,07032.4263702,W,1,21,0.7,13.829,M,-29.745,M,0.0,*5E
###2023-12-09 12:31:29.326780$GNGGA,173128.50,4138.0394971,N,07032.4263659,W,1,21,0.7,13.834,M,-29.745,M,0.0,*5C
###2023-12-09 12:31:29.527150$GNGGA,173128.70,4138.0394990,N,07032.4263218,W,1,21,0.7,13.820,M,-29.745,M,0.0,*55
###2023-12-09 12:31:29.725177$GNGGA,173128.90,4138.0395024,N,07032.4262878,W,1,21,0.7,13.818,M,-29.745,M,0.0,*5A
###2023-12-09 12:31:29.926987$GNRMC,173129.10,A,4138.0395240,N,07032.4262910,W,0.49,95.64,091223,,,A*6F
###2023-12-09 12:31:29.929877$GNGGA,173129.10,4138.0395240,N,07032.4262910,W,1,21,0.7,13.825,M,-29.745,M,0.0,*52
###2023-12-09 12:31:29.931712$GPGSA,A,3,03,04,26,28,29,31,32,,,,,,1.2,0.7,1.0*36
###2023-12-09 12:31:29.933377$GLGSA,A,3,71,72,73,74,75,,,,,,,,1.2,0.7,1.0*2D
###2023-12-09 12:31:29.934999$GAGSA,A,3,04,19,21,27,,,,,,,,,1.2,0.7,1.0*2C
###2023-12-09 12:31:29.936598$GBGSA,A,3,14,25,26,33,,,,,,,,,1.2,0.7,1.0*23
###2023-12-09 12:31:29.938966$GPGSV,2,1,07,03,39,279,43,04,20,310,35,26,65,206,48,28,59,054,46*77
###2023-12-09 12:31:29.941035$GPGSV,2,2,07,29,25,075,41,31,73,356,46,32,31,133,47,,,,*40
###2023-12-09 12:31:29.943401$GLGSV,2,1,05,71,59,168,48,72,64,313,46,73,50,032,46,74,70,284,44*66
###2023-12-09 12:31:29.944871$GLGSV,2,2,05,75,20,239,35,,,,,,,,,,,,*5E
###2023-12-09 12:31:29.947236$GAGSV,1,1,04,04,20,311,38,19,80,306,41,21,76,178,46,27,43,050,42*6D
###2023-12-09 12:31:29.949610$GBGSV,1,1,04,14,57,199,44,25,31,251,40,26,36,056,45,33,63,258,48*6B
###2023-12-09 12:31:29.950942$GNVTG,95.64,T,,M,0.49,N,0.90,K,A*19
###2023-12-09 12:31:29.952601$GNGST,173129.10,19.000,,,,0.120,0.100,0.250*54
###2023-12-09 12:31:29.953902$GNZDA,173129.10,09,12,2023,00,00*7F
###2023-12-09 12:31:29.954548$GNEBP,,,,,,M*13
###2023-12-09 12:31:30.127801$GNGGA,173129.30,4138.0395441,N,07032.4262964,W,1,21,0.7,13.819,M,-29.745,M,0.0,*5B
###2023-12-09 12:31:30.327795$GNGGA,173129.50,4138.0395490,N,07032.4262629,W,1,21,0.7,13.805,M,-29.745,M,0.0,*5A
###2023-12-09 12:31:30.526738$GNGGA,173129.70,4138.0395525,N,07032.4262214,W,1,21,0.7,13.798,M,-29.745,M,0.0,*56
###2023-12-09 12:31:30.727575$GNGGA,173129.90,4138.0395699,N,07032.4262177,W,1,21,0.7,13.817,M,-29.745,M,0.0,*52
###2023-12-09 12:31:30.931765$GNRMC,173130.10,A,4138.0395944,N,07032.4262332,W,0.39,95.64,091223,,,A*65
###2023-12-09 12:31:30.934848$GNGGA,173130.10,4138.0395944,N,07032.4262332,W,1,22,0.7,13.811,M,-29.745,M,0.0,*5B
###2023-12-09 12:31:30.936890$GPGSA,A,3,03,04,16,26,28,29,31,32,,,,,1.2,0.7,1.0*31
###2023-12-09 12:31:30.938746$GLGSA,A,3,71,72,73,74,75,,,,,,,,1.2,0.7,1.0*2D
###2023-12-09 12:31:30.940513$GAGSA,A,3,04,19,21,27,,,,,,,,,1.2,0.7,1.0*2C
###2023-12-09 12:31:30.942264$GBGSA,A,3,14,25,26,33,,,,,,,,,1.2,0.7,1.0*23
###2023-12-09 12:31:30.944781$GPGSV,2,1,08,03,39,279,45,04,20,310,36,16,35,207,35,26,65,206,48*7A
###2023-12-09 12:31:30.947307$GPGSV,2,2,08,28,59,054,44,29,25,075,39,31,73,356,46,32,31,133,45*75
###2023-12-09 12:31:30.949849$GLGSV,2,1,05,71,59,168,48,72,64,313,46,73,50,032,46,74,70,284,43*61
###2023-12-09 12:31:30.951460$GLGSV,2,2,05,75,20,239,39,,,,,,,,,,,,*52
###2023-12-09 12:31:30.953895$GAGSV,1,1,04,04,20,311,38,19,80,306,41,21,76,178,45,27,43,050,42*6E
###2023-12-09 12:31:30.956354$GBGSV,1,1,04,14,57,199,46,25,31,251,40,26,36,056,44,33,63,258,48*68
###2023-12-09 12:31:30.957761$GNVTG,95.64,T,,M,0.39,N,0.72,K,A*12
###2023-12-09 12:31:30.959524$GNGST,173130.10,19.000,,,,0.120,0.097,0.240*52
###2023-12-09 12:31:30.960927$GNZDA,173130.10,09,12,2023,00,00*77
###2023-12-09 12:31:30.961674$GNEBP,,,,,,M*13
###2023-12-09 12:31:31.128289$GNGGA,173130.30,4138.0396054,N,07032.4262159,W,1,21,0.7,13.806,M,-29.745,M,0.0,*58
###2023-12-09 12:31:31.327791$GNGGA,173130.50,4138.0396066,N,07032.4261722,W,1,21,0.7,13.792,M,-29.745,M,0.0,*54
###2023-12-09 12:31:31.532319$GNGGA,173130.70,4138.0396174,N,07032.4261486,W,1,21,0.7,13.783,M,-29.745,M,0.0,*59
###2023-12-09 12:31:31.727071$GNGGA,173130.90,4138.0396388,N,07032.4261626,W,1,22,0.7,13.783,M,-29.745,M,0.0,*5D
###2023-12-09 12:31:31.927959$GNRMC,173131.10,A,4138.0396548,N,07032.4261733,W,0.27,95.64,091223,,,A*6E
###2023-12-09 12:31:31.931061$GNGGA,173131.10,4138.0396548,N,07032.4261733,W,1,22,0.7,13.789,M,-29.745,M,0.0,*51
###2023-12-09 12:31:31.932942$GPGSA,A,3,03,04,16,26,28,29,31,32,,,,,1.2,0.7,1.0*31
###2023-12-09 12:31:31.934622$GLGSA,A,3,71,72,73,74,75,,,,,,,,1.2,0.7,1.0*2D
###2023-12-09 12:31:31.936225$GAGSA,A,3,04,19,21,27,,,,,,,,,1.2,0.7,1.0*2C
###2023-12-09 12:31:31.937809$GBGSA,A,3,14,25,26,33,,,,,,,,,1.2,0.7,1.0*23
###2023-12-09 12:31:31.940153$GPGSV,2,1,08,03,39,279,45,04,20,310,40,16,35,207,38,26,65,206,48*76
###2023-12-09 12:31:31.942492$GPGSV,2,2,08,28,59,054,43,29,25,075,38,31,73,356,47,32,31,133,41*76
###2023-12-09 12:31:31.944860$GLGSV,2,1,05,71,59,168,48,72,64,313,47,73,50,032,45,74,70,284,44*64
###2023-12-09 12:31:31.946353$GLGSV,2,2,05,75,20,239,39,,,,,,,,,,,,*52
###2023-12-09 12:31:31.948764$GAGSV,1,1,04,04,20,311,40,19,80,306,41,21,76,178,46,27,43,050,42*62
###2023-12-09 12:31:31.951178$GBGSV,1,1,04,14,57,199,46,25,31,251,40,26,36,056,44,33,63,258,50*61
###2023-12-09 12:31:31.952496$GNVTG,95.64,T,,M,0.27,N,0.50,K,A*1D
###2023-12-09 12:31:31.954170$GNGST,173131.10,19.000,,,,0.110,0.093,0.240*54
###2023-12-09 12:31:31.955506$GNZDA,173131.10,09,12,2023,00,00*76
###2023-12-09 12:31:31.956163$GNEBP,,,,,,M*13
###2023-12-09 12:31:32.127600$GNGGA,173131.30,4138.0396586,N,07032.4261299,W,1,22,0.7,13.790,M,-29.745,M,0.0,*5C
###2023-12-09 12:31:32.332137$GNGGA,173131.50,4138.0396603,N,07032.4260810,W,1,22,0.7,13.769,M,-29.745,M,0.0,*58
###2023-12-09 12:31:32.527687$GNGGA,173131.70,4138.0396806,N,07032.4260923,W,1,22,0.7,13.788,M,-29.745,M,0.0,*5F
###2023-12-09 12:31:32.726988$GNGGA,173131.90,4138.0397046,N,07032.4261265,W,1,22,0.7,13.787,M,-29.745,M,0.0,*5B
###2023-12-09 12:31:32.933168$GNRMC,173132.10,A,4138.0397116,N,07032.4261002,W,0.68,95.64,091223,,,A*6D
###2023-12-09 12:31:32.936271$GNGGA,173132.10,4138.0397116,N,07032.4261002,W,1,22,0.7,13.778,M,-29.745,M,0.0,*57
###2023-12-09 12:31:32.938325$GPGSA,A,3,03,04,16,26,28,29,31,32,,,,,1.2,0.7,1.0*31
###2023-12-09 12:31:32.940169$GLGSA,A,3,71,72,73,74,75,,,,,,,,1.2,0.7,1.0*2D
###2023-12-09 12:31:32.941936$GAGSA,A,3,04,19,21,27,,,,,,,,,1.2,0.7,1.0*2C
###2023-12-09 12:31:32.943723$GBGSA,A,3,14,25,26,33,,,,,,,,,1.2,0.7,1.0*23
###2023-12-09 12:31:32.946233$GPGSV,2,1,08,03,39,279,45,04,20,310,38,16,35,207,39,26,65,206,47*77
###2023-12-09 12:31:32.948805$GPGSV,2,2,08,28,59,054,42,29,25,075,39,31,73,356,46,32,31,133,43*75
###2023-12-09 12:31:32.951347$GLGSV,2,1,05,71,59,168,48,72,64,313,47,73,50,032,45,74,70,284,44*64
###2023-12-09 12:31:32.952990$GLGSV,2,2,05,75,20,239,39,,,,,,,,,,,,*52
###2023-12-09 12:31:32.955461$GAGSV,1,1,04,04,20,311,40,19,80,306,41,21,76,178,45,27,43,050,41*62
###2023-12-09 12:31:32.957923$GBGSV,1,1,04,14,57,199,44,25,31,251,39,26,36,056,43,33,63,258,47*6C
###2023-12-09 12:31:32.959347$GNVTG,95.64,T,,M,0.68,N,1.26,K,A*16
###2023-12-09 12:31:32.961112$GNGST,173132.10,19.000,,,,0.110,0.091,0.230*52
###2023-12-09 12:31:32.962512$GNZDA,173132.10,09,12,2023,00,00*75
###2023-12-09 12:31:32.963271$GNEBP,,,,,,M*13
###2023-12-09 12:31:33.128591$GNGGA,173132.30,4138.0397161,N,07032.4260531,W,1,21,0.7,13.774,M,-29.745,M,0.0,*5E
###2023-12-09 12:31:33.326717$GNGGA,173132.50,4138.0397289,N,07032.4260444,W,1,21,0.7,13.777,M,-29.745,M,0.0,*5D
###2023-12-09 12:31:33.527728$GNGGA,173132.70,4138.0397480,N,07032.4260732,W,1,22,0.7,13.768,M,-29.745,M,0.0,*5F
###2023-12-09 12:31:33.727000$GNGGA,173132.90,4138.0397628,N,07032.4260866,W,1,22,0.7,13.774,M,-29.745,M,0.0,*52
###2023-12-09 12:31:33.928674$GNRMC,173133.10,A,4138.0397697,N,07032.4260500,W,0.68,95.64,091223,,,A*64
###2023-12-09 12:31:33.931740$GNGGA,173133.10,4138.0397697,N,07032.4260500,W,1,22,0.7,13.800,M,-29.745,M,0.0,*5E
###2023-12-09 12:31:33.933778$GPGSA,A,3,03,04,16,26,28,29,31,32,,,,,1.2,0.7,1.0*31
###2023-12-09 12:31:33.935904$GLGSA,A,3,71,72,73,74,75,,,,,,,,1.2,0.7,1.0*2D
###2023-12-09 12:31:33.937674$GAGSA,A,3,04,19,21,27,,,,,,,,,1.2,0.7,1.0*2C
###2023-12-09 12:31:33.939449$GBGSA,A,3,14,25,26,33,,,,,,,,,1.2,0.7,1.0*23
###2023-12-09 12:31:33.941948$GPGSV,2,1,08,03,39,279,45,04,20,310,41,16,35,207,39,26,65,206,47*79
###2023-12-09 12:31:33.944468$GPGSV,2,2,08,28,59,054,43,29,25,075,42,31,73,356,46,32,31,133,44*7F
###2023-12-09 12:31:33.946993$GLGSV,2,1,05,71,59,168,46,72,64,313,46,73,50,032,45,74,70,284,43*6C
###2023-12-09 12:31:33.948662$GLGSV,2,2,05,75,20,239,40,,,,,,,,,,,,*5C
###2023-12-09 12:31:33.951184$GAGSV,1,1,04,04,20,311,40,19,80,306,41,21,76,178,47,27,43,050,42*63
###2023-12-09 12:31:33.953646$GBGSV,1,1,04,14,57,199,46,25,31,251,41,26,36,056,43,33,63,258,49*6F
