###2023-12-09 13:09:39.977845$GNGGA,180939.10,4138.0719776,N,07032.2577778,W,1,25,0.6,13.343,M,-29.742,M,0.0,*5B
###2023-12-09 13:09:39.980135$GPGSA,A,3,03,04,16,26,28,29,31,32,,,,,1.1,0.6,0.9*3B
###2023-12-09 13:09:39.982215$GLGSA,A,3,65,71,72,73,74,75,,,,,,,1.1,0.6,0.9*24
###2023-12-09 13:09:39.984149$GAGSA,A,3,04,19,21,27,,,,,,,,,1.1,0.6,0.9*26
###2023-12-09 13:09:39.986222$GBGSA,A,3,14,24,25,26,33,35,,,,,,,1.1,0.6,0.9*29
###2023-12-09 13:09:39.989062$GPGSV,2,1,08,03,33,257,43,04,36,311,44,16,54,214,45,26,84,210,48*73
###2023-12-09 13:09:39.991900$GPGSV,2,2,08,28,46,074,45,29,24,057,42,31,67,046,48,32,15,141,41*7B
###2023-12-09 13:09:39.994722$GLGSV,2,1,06,65,27,326,43,71,36,173,43,72,72,254,46,73,32,044,44*63
###2023-12-09 13:09:39.996837$GLGSV,2,2,06,74,68,348,43,75,35,257,46,,,,,,,,*60
###2023-12-09 13:09:39.999655$GAGSV,1,1,04,04,31,312,43,19,82,199,40,21,85,085,46,27,31,048,42*66
###2023-12-09 13:09:40.002497$GBGSV,2,1,06,14,40,192,43,24,71,031,50,25,43,265,49,26,24,064,44*69
###2023-12-09 13:09:40.004620$GBGSV,2,2,06,33,55,228,49,35,15,066,45,,,,,,,,*6B
###2023-12-09 13:09:40.006212$GNVTG,180.26,T,,M,3.56,N,6.59,K,A*24
###2023-12-09 13:09:40.008214$GNGST,180939.10,18.000,,,,0.084,0.064,0.150*5F
###2023-12-09 13:09:40.009770$GNZDA,180939.10,09,12,2023,00,00*7A
###2023-12-09 13:09:40.010539$GNEBP,,,,,,M*13
###2023-12-09 13:09:40.169722$GNGGA,180939.30,4138.0717833,N,07032.2577879,W,1,25,0.6,13.332,M,-29.742,M,0.0,*51
###2023-12-09 13:09:40.370192$GNGGA,180939.50,4138.0715878,N,07032.2578025,W,1,25,0.6,13.348,M,-29.742,M,0.0,*59
###2023-12-09 13:09:40.569875$GNGGA,180939.70,4138.0713871,N,07032.2578142,W,1,25,0.6,13.340,M,-29.742,M,0.0,*5C
###2023-12-09 13:09:40.768863$GNGGA,180939.90,4138.0711935,N,07032.2578233,W,1,25,0.6,13.320,M,-29.742,M,0.0,*52
###2023-12-09 13:09:40.972214$GNRMC,180940.10,A,4138.0710005,N,07032.2578496,W,3.65,188.13,091223,,,A*57
###2023-12-09 13:09:40.975096$GNGGA,180940.10,4138.0710005,N,07032.2578496,W,1,25,0.6,13.341,M,-29.742,M,0.0,*51
###2023-12-09 13:09:40.976951$GPGSA,A,3,03,04,16,26,28,29,31,32,,,,,1.1,0.6,0.9*3B
###2023-12-09 13:09:40.978667$GLGSA,A,3,65,71,72,73,74,75,,,,,,,1.1,0.6,0.9*24
###2023-12-09 13:09:40.980242$GAGSA,A,3,04,19,21,27,,,,,,,,,1.1,0.6,0.9*26
###2023-12-09 13:09:40.981944$GBGSA,A,3,14,24,25,26,33,35,,,,,,,1.1,0.6,0.9*29
###2023-12-09 13:09:40.984291$GPGSV,2,1,08,03,33,257,43,04,36,311,44,16,54,214,45,26,84,210,48*73
###2023-12-09 13:09:40.986637$GPGSV,2,2,08,28,46,074,45,29,24,057,43,31,67,046,47,32,15,141,41*75
###2023-12-09 13:09:40.988969$GLGSV,2,1,06,65,27,326,42,71,36,173,42,72,72,254,46,73,32,044,45*62
###2023-12-09 13:09:40.990743$GLGSV,2,2,06,74,68,348,43,75,35,257,46,,,,,,,,*60
###2023-12-09 13:09:40.993064$GAGSV,1,1,04,04,31,312,43,19,82,199,40,21,85,085,46,27,31,048,41*65
###2023-12-09 13:09:40.995396$GBGSV,2,1,06,14,40,192,42,24,71,031,49,25,43,265,48,26,24,064,45*60
###2023-12-09 13:09:40.997139$GBGSV,2,2,06,33,55,228,48,35,15,066,45,,,,,,,,*6A
###2023-12-09 13:09:40.998459$GNVTG,188.13,T,,M,3.65,N,6.77,K,A*26
###2023-12-09 13:09:41.000105$GNGST,180940.10,18.000,,,,0.084,0.064,0.150*51
###2023-12-09 13:09:41.001390$GNZDA,180940.10,09,12,2023,00,00*74
###2023-12-09 13:09:41.002023$GNEBP,,,,,,M*13
###2023-12-09 13:09:41.168501$GNGGA,180940.30,4138.0708052,N,07032.2578814,W,1,25,0.6,13.341,M,-29.742,M,0.0,*5E
###2023-12-09 13:09:41.369264$GNGGA,180940.50,4138.0706086,N,07032.2578914,W,1,25,0.6,13.320,M,-29.742,M,0.0,*59
###2023-12-09 13:09:41.570299$GNGGA,180940.70,4138.0704131,N,07032.2579177,W,1,25,0.6,13.326,M,-29.742,M,0.0,*5E
###2023-12-09 13:09:41.769738$GNGGA,180940.90,4138.0702212,N,07032.2579695,W,1,25,0.6,13.348,M,-29.742,M,0.0,*57
###2023-12-09 13:09:41.970868$GNRMC,180941.10,A,4138.0700259,N,07032.2580075,W,3.54,184.19,091223,,,A*56
###2023-12-09 13:09:41.973728$GNGGA,180941.10,4138.0700259,N,07032.2580075,W,1,25,0.6,13.332,M,-29.742,M,0.0,*50
###2023-12-09 13:09:41.975584$GPGSA,A,3,03,04,16,26,28,29,31,32,,,,,1.1,0.6,0.9*3B
###2023-12-09 13:09:41.977291$GLGSA,A,3,65,71,72,73,74,75,,,,,,,1.1,0.6,0.9*24
###2023-12-09 13:09:41.978881$GAGSA,A,3,04,19,21,27,,,,,,,,,1.1,0.6,0.9*26
###2023-12-09 13:09:41.980589$GBGSA,A,3,14,24,25,26,33,35,,,,,,,1.1,0.6,0.9*29
###2023-12-09 13:09:41.982919$GPGSV,2,1,08,03,33,257,42,04,36,311,44,16,54,214,45,26,84,210,48*72
###2023-12-09 13:09:41.985280$GPGSV,2,2,08,28,46,074,45,29,24,057,40,31,67,046,47,32,15,141,42*75
###2023-12-09 13:09:41.987618$GLGSV,2,1,06,65,27,326,42,71,36,173,42,72,72,254,46,73,32,044,44*63
###2023-12-09 13:09:41.989358$GLGSV,2,2,06,74,68,348,43,75,35,257,45,,,,,,,,*63
###2023-12-09 13:09:41.991690$GAGSV,1,1,04,04,31,312,43,19,82,199,40,21,85,085,46,27,31,048,40*64
###2023-12-09 13:09:41.994015$GBGSV,2,1,06,14,40,192,43,24,71,031,50,25,43,265,48,26,24,064,44*68
###2023-12-09 13:09:41.995763$GBGSV,2,2,06,33,55,228,48,35,15,066,45,,,,,,,,*6A
###2023-12-09 13:09:41.997087$GNVTG,184.19,T,,M,3.54,N,6.55,K,A*22
###2023-12-09 13:09:41.998746$GNGST,180941.10,18.000,,,,0.084,0.064,0.150*50
###2023-12-09 13:09:42.000035$GNZDA,180941.10,09,12,2023,00,00*75
###2023-12-09 13:09:42.000674$GNEBP,,,,,,M*13
###2023-12-09 13:09:42.169422$GNGGA,180941.30,4138.0698293,N,07032.2580280,W,1,25,0.6,13.311,M,-29.742,M,0.0,*5D
###2023-12-09 13:09:42.369602$GNGGA,180941.50,4138.0696378,N,07032.2580650,W,1,25,0.6,13.322,M,-29.742,M,0.0,*58
###2023-12-09 13:09:42.569524$GNGGA,180941.70,4138.0694451,N,07032.2581260,W,1,25,0.6,13.338,M,-29.742,M,0.0,*59
###2023-12-09 13:09:42.770291$GNGGA,180941.90,4138.0692461,N,07032.2581638,W,1,25,0.6,13.308,M,-29.742,M,0.0,*58
###2023-12-09 13:09:42.971097$GNRMC,180942.10,A,4138.0690605,N,07032.2581891,W,3.46,187.80,091223,,,A*53
###2023-12-09 13:09:42.973942$GNGGA,180942.10,4138.0690605,N,07032.2581891,W,1,25,0.6,13.309,M,-29.742,M,0.0,*5D
###2023-12-09 13:09:42.975809$GPGSA,A,3,03,04,16,26,28,29,31,32,,,,,1.1,0.6,0.9*3B
###2023-12-09 13:09:42.977525$GLGSA,A,3,65,71,72,73,74,75,,,,,,,1.1,0.6,0.9*24
###2023-12-09 13:09:42.979123$GAGSA,A,3,04,19,21,27,,,,,,,,,1.1,0.6,0.9*26
###2023-12-09 13:09:42.980832$GBGSA,A,3,14,24,25,26,33,35,,,,,,,1.1,0.6,0.9*29
###2023-12-09 13:09:42.983172$GPGSV,2,1,08,03,33,257,42,04,36,311,44,16,54,214,44,26,84,210,48*73
###2023-12-09 13:09:42.985513$GPGSV,2,2,08,28,46,074,45,29,24,057,44,31,67,046,47,32,15,141,42*71
###2023-12-09 13:09:42.987857$GLGSV,2,1,06,65,27,326,42,71,36,173,42,72,72,254,46,73,32,044,44*63
###2023-12-09 13:09:42.989609$GLGSV,2,2,06,74,68,348,43,75,35,257,45,,,,,,,,*63
###2023-12-09 13:09:42.991954$GAGSV,1,1,04,04,31,312,43,19,82,199,40,21,85,085,46,27,31,048,40*64
###2023-12-09 13:09:42.994288$GBGSV,2,1,06,14,40,192,43,24,71,031,50,25,43,265,46,26,24,064,46*64
###2023-12-09 13:09:42.996053$GBGSV,2,2,06,33,55,228,47,35,15,066,45,,,,,,,,*65
###2023-12-09 13:09:42.997379$GNVTG,187.80,T,,M,3.46,N,6.41,K,A*27
###2023-12-09 13:09:42.999036$GNGST,180942.10,18.000,,,,0.084,0.064,0.150*53
###2023-12-09 13:09:43.000329$GNZDA,180942.10,09,12,2023,00,00*76
###2023-12-09 13:09:43.000968$GNEBP,,,,,,M*13
###2023-12-09 13:09:43.168627$GNGGA,180942.30,4138.0688650,N,07032.2582373,W,1,25,0.6,13.326,M,-29.742,M,0.0,*5F
###2023-12-09 13:09:43.369575$GNGGA,180942.50,4138.0686778,N,07032.2582793,W,1,25,0.6,13.303,M,-29.742,M,0.0,*51
###2023-12-09 13:09:43.570541$GNGGA,180942.70,4138.0684890,N,07032.2583192,W,1,25,0.6,13.320,M,-29.742,M,0.0,*5F
###2023-12-09 13:09:43.769578$GNGGA,180942.90,4138.0682938,N,07032.2583416,W,1,25,0.6,13.301,M,-29.742,M,0.0,*5E
###2023-12-09 13:09:43.972114$GNRMC,180943.10,A,4138.0681104,N,07032.2583700,W,3.34,188.09,091223,,,A*5A
###2023-12-09 13:09:43.975008$GNGGA,180943.10,4138.0681104,N,07032.2583700,W,1,25,0.6,13.296,M,-29.742,M,0.0,*58
###2023-12-09 13:09:43.976869$GPGSA,A,3,03,04,16,26,28,29,31,32,,,,,1.1,0.6,0.9*3B
###2023-12-09 13:09:43.978595$GLGSA,A,3,65,71,72,73,74,75,,,,,,,1.1,0.6,0.9*24
###2023-12-09 13:09:43.980181$GAGSA,A,3,04,19,21,27,,,,,,,,,1.1,0.6,0.9*26
###2023-12-09 13:09:43.981891$GBGSA,A,3,14,24,25,26,33,35,,,,,,,1.1,0.6,0.9*29
###2023-12-09 13:09:43.984279$GPGSV,2,1,08,03,33,257,43,04,36,311,44,16,54,214,45,26,84,210,48*73
###2023-12-09 13:09:43.986637$GPGSV,2,2,08,28,46,074,45,29,24,057,44,31,67,046,47,32,15,141,41*72
###2023-12-09 13:09:43.989235$GLGSV,2,1,06,65,27,326,43,71,36,173,42,72,72,254,45,73,32,044,45*60
###2023-12-09 13:09:43.991013$GLGSV,2,2,06,74,68,348,43,75,35,257,46,,,,,,,,*60
###2023-12-09 13:09:43.993351$GAGSV,1,1,04,04,31,312,42,19,82,199,40,21,85,085,45,27,31,048,42*64
###2023-12-09 13:09:43.995699$GBGSV,2,1,06,14,40,192,42,24,71,031,49,25,43,265,46,26,24,064,45*6E
###2023-12-09 13:09:43.997453$GBGSV,2,2,06,33,55,228,47,35,15,066,44,,,,,,,,*64
###2023-12-09 13:09:43.998791$GNVTG,188.09,T,,M,3.34,N,6.19,K,A*21
###2023-12-09 13:09:44.000446$GNGST,180943.10,18.000,,,,0.084,0.064,0.150*52
###2023-12-09 13:09:44.001741$GNZDA,180943.10,09,12,2023,00,00*77
###2023-12-09 13:09:44.002380$GNEBP,,,,,,M*13
