###2023-12-09 13:02:25.996111$GNZDA,180225.10,09,12,2023,00,00*7C
###2023-12-09 13:02:25.996774$GNEBP,,,,,,M*13
###2023-12-09 13:02:26.164618$GNGGA,180225.30,4138.0463238,N,07032.3210447,W,1,24,0.6,13.419,M,-29.744,M,0.0,*59
###2023-12-09 13:02:26.365527$GNGGA,180225.50,4138.0462809,N,07032.3213145,W,1,24,0.6,13.422,M,-29.744,M,0.0,*5A
###2023-12-09 13:02:26.565641$GNGGA,180225.70,4138.0462485,N,07032.3215848,W,1,24,0.6,13.428,M,-29.744,M,0.0,*58
###2023-12-09 13:02:26.767113$GNGGA,180225.90,4138.0462230,N,07032.3218535,W,1,24,0.6,13.429,M,-29.744,M,0.0,*55
###2023-12-09 13:02:26.967313$GNRMC,180226.10,A,4138.0462039,N,07032.3221186,W,3.56,264.99,091223,,,A*58
###2023-12-09 13:02:26.970182$GNGGA,180226.10,4138.0462039,N,07032.3221186,W,1,24,0.6,13.416,M,-29.744,M,0.0,*5F
###2023-12-09 13:02:26.972063$GPGSA,A,3,03,04,16,26,28,29,31,32,,,,,1.1,0.6,0.9*3B
###2023-12-09 13:02:26.973778$GLGSA,A,3,65,71,72,73,74,75,,,,,,,1.1,0.6,0.9*24
###2023-12-09 13:02:26.975373$GAGSA,A,3,04,19,21,27,,,,,,,,,1.1,0.6,0.9*26
###2023-12-09 13:02:26.977025$GBGSA,A,3,14,24,25,26,33,,,,,,,,1.1,0.6,0.9*2F
###2023-12-09 13:02:26.979365$GPGSV,2,1,08,03,35,261,42,04,33,311,42,16,50,212,47,26,80,210,47*79
###2023-12-09 13:02:26.981701$GPGSV,2,2,08,28,49,070,45,29,25,061,42,31,69,038,47,32,19,140,43*73
###2023-12-09 13:02:26.984052$GLGSV,2,1,06,65,24,327,40,71,41,173,46,72,73,269,45,73,36,041,45*6B
###2023-12-09 13:02:26.985797$GLGSV,2,2,06,74,70,337,42,75,32,253,42,,,,,,,,*67
###2023-12-09 13:02:26.988132$GAGSV,1,1,04,04,29,312,40,19,84,213,40,21,86,114,46,27,32,048,42*62
###2023-12-09 13:02:26.990461$GBGSV,2,1,05,14,43,193,44,24,74,024,49,25,41,262,45,26,26,063,43*6D
###2023-12-09 13:02:26.991929$GBGSV,2,2,05,33,57,233,48,,,,,,,,,,,,*52
###2023-12-09 13:02:26.993250$GNVTG,264.99,T,,M,3.56,N,6.59,K,A*29
###2023-12-09 13:02:26.994914$GNGST,180226.10,18.000,,,,0.082,0.069,0.160*52
###2023-12-09 13:02:26.996209$GNZDA,180226.10,09,12,2023,00,00*7F
###2023-12-09 13:02:26.996854$GNEBP,,,,,,M*13
###2023-12-09 13:02:27.167125$GNGGA,180226.30,4138.0461934,N,07032.3223795,W,1,24,0.6,13.406,M,-29.744,M,0.0,*5D
###2023-12-09 13:02:27.364947$GNGGA,180226.50,4138.0461913,N,07032.3226320,W,1,24,0.6,13.408,M,-29.744,M,0.0,*5F
###2023-12-09 13:02:27.565486$GNGGA,180226.70,4138.0462096,N,07032.3228756,W,1,24,0.6,13.429,M,-29.744,M,0.0,*52
###2023-12-09 13:02:27.765634$GNGGA,180226.90,4138.0462535,N,07032.3231154,W,1,24,0.6,13.446,M,-29.744,M,0.0,*55
###2023-12-09 13:02:27.968457$GNRMC,180227.10,A,4138.0463020,N,07032.3233579,W,3.40,283.42,091223,,,A*5F
###2023-12-09 13:02:27.971328$GNGGA,180227.10,4138.0463020,N,07032.3233579,W,1,24,0.6,13.447,M,-29.744,M,0.0,*54
###2023-12-09 13:02:27.973198$GPGSA,A,3,03,04,16,26,28,29,31,32,,,,,1.1,0.6,0.9*3B
###2023-12-09 13:02:27.974933$GLGSA,A,3,65,71,72,73,74,75,,,,,,,1.1,0.6,0.9*24
###2023-12-09 13:02:27.976525$GAGSA,A,3,04,19,21,27,,,,,,,,,1.1,0.6,0.9*26
###2023-12-09 13:02:27.978178$GBGSA,A,3,14,24,25,26,33,,,,,,,,1.1,0.6,0.9*2F
###2023-12-09 13:02:27.980531$GPGSV,2,1,08,03,35,261,41,04,33,311,42,16,50,212,45,26,80,210,48*77
###2023-12-09 13:02:27.982895$GPGSV,2,2,08,28,49,070,46,29,25,061,42,31,69,038,47,32,19,140,43*70
###2023-12-09 13:02:27.985242$GLGSV,2,1,06,65,24,327,39,71,41,173,46,72,73,269,46,73,36,041,45*66
###2023-12-09 13:02:27.987013$GLGSV,2,2,06,74,70,337,42,75,32,253,42,,,,,,,,*67
###2023-12-09 13:02:27.989360$GAGSV,1,1,04,04,29,312,40,19,84,213,40,21,86,114,46,27,32,048,42*62
###2023-12-09 13:02:27.991717$GBGSV,2,1,05,14,43,193,45,24,74,024,49,25,41,262,45,26,26,063,43*6C
###2023-12-09 13:02:27.993180$GBGSV,2,2,05,33,57,233,48,,,,,,,,,,,,*52
###2023-12-09 13:02:27.994508$GNVTG,283.42,T,,M,3.40,N,6.30,K,A*2E
###2023-12-09 13:02:27.996180$GNGST,180227.10,18.000,,,,0.082,0.070,0.160*5B
###2023-12-09 13:02:27.997484$GNZDA,180227.10,09,12,2023,00,00*7E
###2023-12-09 13:02:27.998127$GNEBP,,,,,,M*13
###2023-12-09 13:02:28.163587$GNGGA,180227.30,4138.0463385,N,07032.3236090,W,1,24,0.6,13.444,M,-29.744,M,0.0,*5E
###2023-12-09 13:02:28.364071$GNGGA,180227.50,4138.0463695,N,07032.3238623,W,1,24,0.6,13.436,M,-29.744,M,0.0,*59
###2023-12-09 13:02:28.564325$GNGGA,180227.70,4138.0464128,N,07032.3241167,W,1,24,0.6,13.431,M,-29.744,M,0.0,*53
###2023-12-09 13:02:28.765037$GNGGA,180227.90,4138.0464645,N,07032.3243686,W,1,24,0.6,13.432,M,-29.744,M,0.0,*58
###2023-12-09 13:02:28.966580$GNRMC,180228.10,A,4138.0465065,N,07032.3246243,W,3.52,280.47,091223,,,A*5E
###2023-12-09 13:02:28.969458$GNGGA,180228.10,4138.0465065,N,07032.3246243,W,1,24,0.6,13.423,M,-29.744,M,0.0,*52
###2023-12-09 13:02:28.971339$GPGSA,A,3,03,04,16,26,28,29,31,32,,,,,1.1,0.6,0.9*3B
###2023-12-09 13:02:28.973056$GLGSA,A,3,65,71,72,73,74,75,,,,,,,1.1,0.6,0.9*24
###2023-12-09 13:02:28.974653$GAGSA,A,3,04,19,21,27,,,,,,,,,1.1,0.6,0.9*26
###2023-12-09 13:02:28.976303$GBGSA,A,3,14,24,25,26,33,,,,,,,,1.1,0.6,0.9*2F
###2023-12-09 13:02:28.978645$GPGSV,2,1,08,03,35,261,41,04,33,311,40,16,50,212,45,26,80,210,48*75
###2023-12-09 13:02:28.980999$GPGSV,2,2,08,28,49,070,45,29,25,061,42,31,69,038,47,32,19,140,44*74
###2023-12-09 13:02:28.983353$GLGSV,2,1,06,65,24,327,40,71,41,173,47,72,73,269,45,73,36,041,46*69
###2023-12-09 13:02:28.985110$GLGSV,2,2,06,74,70,337,42,75,32,253,41,,,,,,,,*64
###2023-12-09 13:02:28.987456$GAGSV,1,1,04,04,29,312,39,19,84,213,40,21,86,114,46,27,32,048,42*6C
###2023-12-09 13:02:28.989790$GBGSV,2,1,05,14,43,193,45,24,74,024,49,25,41,262,44,26,26,063,43*6D
###2023-12-09 13:02:28.991260$GBGSV,2,2,05,33,57,233,48,,,,,,,,,,,,*52
###2023-12-09 13:02:28.992590$GNVTG,280.47,T,,M,3.52,N,6.52,K,A*2F
###2023-12-09 13:02:28.994252$GNGST,180228.10,18.000,,,,0.082,0.070,0.160*54
###2023-12-09 13:02:28.995563$GNZDA,180228.10,09,12,2023,00,00*71
###2023-12-09 13:02:28.996209$GNEBP,,,,,,M*13
###2023-12-09 13:02:29.163489$GNGGA,180228.30,4138.0465418,N,07032.3248795,W,1,24,0.6,13.427,M,-29.744,M,0.0,*5A
###2023-12-09 13:02:29.364949$GNGGA,180228.50,4138.0465837,N,07032.3251367,W,1,24,0.6,13.426,M,-29.744,M,0.0,*5D
###2023-12-09 13:02:29.565760$GNGGA,180228.70,4138.0466280,N,07032.3253955,W,1,24,0.6,13.419,M,-29.744,M,0.0,*5F
###2023-12-09 13:02:29.766030$GNGGA,180228.90,4138.0466653,N,07032.3256564,W,1,24,0.6,13.416,M,-29.744,M,0.0,*5F
###2023-12-09 13:02:29.967556$GNRMC,180229.10,A,4138.0466946,N,07032.3259216,W,3.62,278.91,091223,,,A*55
###2023-12-09 13:02:29.970412$GNGGA,180229.10,4138.0466946,N,07032.3259216,W,1,24,0.6,13.415,M,-29.744,M,0.0,*53
###2023-12-09 13:02:29.972280$GPGSA,A,3,03,04,16,26,28,29,31,32,,,,,1.1,0.6,0.9*3B
###2023-12-09 13:02:29.973988$GLGSA,A,3,65,71,72,73,74,75,,,,,,,1.1,0.6,0.9*24
###2023-12-09 13:02:29.975579$GAGSA,A,3,04,19,21,27,,,,,,,,,1.1,0.6,0.9*26
###2023-12-09 13:02:29.977232$GBGSA,A,3,14,24,25,26,33,,,,,,,,1.1,0.6,0.9*2F
###2023-12-09 13:02:29.979571$GPGSV,2,1,08,03,35,261,42,04,33,311,42,16,50,212,46,26,80,210,48*77
###2023-12-09 13:02:29.981900$GPGSV,2,2,08,28,49,070,45,29,25,061,41,31,69,038,47,32,19,140,44*77
###2023-12-09 13:02:29.984236$GLGSV,2,1,06,65,24,327,40,71,41,173,46,72,73,269,45,73,36,041,44*6A
###2023-12-09 13:02:29.985978$GLGSV,2,2,06,74,70,337,42,75,32,253,41,,,,,,,,*64
###2023-12-09 13:02:29.988325$GAGSV,1,1,04,04,29,312,39,19,84,213,40,21,86,114,46,27,32,048,41*6F
###2023-12-09 13:02:29.990665$GBGSV,2,1,05,14,43,193,45,24,73,026,48,25,41,262,43,26,26,063,41*6C
###2023-12-09 13:02:29.992120$GBGSV,2,2,05,33,57,233,47,,,,,,,,,,,,*5D
###2023-12-09 13:02:29.993442$GNVTG,278.91,T,,M,3.62,N,6.70,K,A*20
###2023-12-09 13:02:29.995106$GNGST,180229.10,18.000,,,,0.081,0.070,0.160*56
###2023-12-09 13:02:29.996398$GNZDA,180229.10,09,12,2023,00,00*70
###2023-12-09 13:02:29.997034$GNEBP,,,,,,M*13
###2023-12-09 13:02:30.164618$GNGGA,180229.30,4138.0467245,N,07032.3261857,W,1,24,0.6,13.409,M,-29.744,M,0.0,*51
###2023-12-09 13:02:30.365626$GNGGA,180229.50,4138.0467516,N,07032.3264461,W,1,24,0.6,13.403,M,-29.744,M,0.0,*50
###2023-12-09 13:02:30.565481$GNGGA,180229.70,4138.0467631,N,07032.3267064,W,1,24,0.6,13.392,M,-29.744,M,0.0,*59
###2023-12-09 13:02:30.769786$GNGGA,180229.90,4138.0467655,N,07032.3269652,W,1,24,0.6,13.380,M,-29.744,M,0.0,*5B
###2023-12-09 13:02:30.966808$GNRMC,180230.10,A,4138.0467762,N,07032.3272244,W,3.52,273.67,091223,,,A*5B
###2023-12-09 13:02:30.969937$GNGGA,180230.10,4138.0467762,N,07032.3272244,W,1,24,0.6,13.387,M,-29.744,M,0.0,*50
###2023-12-09 13:02:30.971834$GPGSA,A,3,03,04,16,26,28,29,31,32,,,,,1.1,0.6,0.9*3B
###2023-12-09 13:02:30.973565$GLGSA,A,3,65,71,72,73,74,75,,,,,,,1.1,0.6,0.9*24
###2023-12-09 13:02:30.975172$GAGSA,A,3,04,19,21,27,,,,,,,,,1.1,0.6,0.9*26
###2023-12-09 13:02:30.976830$GBGSA,A,3,14,24,25,26,33,,,,,,,,1.1,0.6,0.9*2F
###2023-12-09 13:02:30.979190$GPGSV,2,1,08,03,35,261,43,04,33,311,42,16,50,212,46,26,80,210,48*76
###2023-12-09 13:02:30.981538$GPGSV,2,2,08,28,49,070,45,29,25,061,42,31,69,038,47,32,19,140,44*74
###2023-12-09 13:02:30.983891$GLGSV,2,1,06,65,24,327,40,71,41,173,47,72,73,269,45,73,36,041,44*6B
###2023-12-09 13:02:30.985642$GLGSV,2,2,06,74,70,337,42,75,32,253,42,,,,,,,,*67
