###2023-12-09 13:10:08.001156$GNVTG,182.44,T,,M,3.48,N,6.44,K,A*21
###2023-12-09 13:10:08.002857$GNGST,181007.10,18.000,,,,0.091,0.067,0.160*5E
###2023-12-09 13:10:08.004156$GNZDA,181007.10,09,12,2023,00,00*7F
###2023-12-09 13:10:08.004798$GNEBP,,,,,,M*13
###2023-12-09 13:10:08.170501$GNGGA,181007.30,4138.0445806,N,07032.2596185,W,1,24,0.7,13.203,M,-29.743,M,0.0,*51
###2023-12-09 13:10:08.372368$GNGGA,181007.50,4138.0443862,N,07032.2596066,W,1,24,0.7,13.203,M,-29.743,M,0.0,*5F
###2023-12-09 13:10:08.573065$GNGGA,181007.70,4138.0441867,N,07032.2596110,W,1,24,0.7,13.200,M,-29.743,M,0.0,*59
###2023-12-09 13:10:08.772120$GNGGA,181007.90,4138.0439909,N,07032.2596174,W,1,24,0.7,13.200,M,-29.743,M,0.0,*53
###2023-12-09 13:10:08.982620$GNRMC,181008.10,A,4138.0437937,N,07032.2595939,W,3.54,172.79,091223,,,A*5D
###2023-12-09 13:10:08.985474$GNGGA,181008.10,4138.0437937,N,07032.2595939,W,1,24,0.7,13.186,M,-29.743,M,0.0,*58
###2023-12-09 13:10:08.987276$GPGSA,A,3,03,04,16,26,28,29,31,,,,,,1.2,0.7,1.0*30
###2023-12-09 13:10:08.988980$GLGSA,A,3,65,71,72,73,74,75,,,,,,,1.2,0.7,1.0*2E
###2023-12-09 13:10:08.990553$GAGSA,A,3,04,19,21,27,,,,,,,,,1.2,0.7,1.0*2C
###2023-12-09 13:10:08.992273$GBGSA,A,3,14,24,25,26,33,35,,,,,,,1.2,0.7,1.0*23
###2023-12-09 13:10:08.994644$GPGSV,2,1,07,03,33,257,43,04,36,311,45,16,54,214,46,26,84,210,48*7E
###2023-12-09 13:10:08.996682$GPGSV,2,2,07,28,46,074,45,29,24,057,42,31,67,046,48,,,,*40
###2023-12-09 13:10:08.999014$GLGSV,2,1,06,65,27,326,43,71,36,173,42,72,72,254,46,73,32,044,45*63
###2023-12-09 13:10:09.000754$GLGSV,2,2,06,74,68,348,43,75,35,257,46,,,,,,,,*60
###2023-12-09 13:10:09.003075$GAGSV,1,1,04,04,32,312,43,19,81,196,40,21,85,078,46,27,30,048,41*69
###2023-12-09 13:10:09.005394$GBGSV,2,1,06,14,40,192,41,24,71,031,49,25,43,265,47,26,24,064,42*6B
###2023-12-09 13:10:09.007139$GBGSV,2,2,06,33,55,228,48,35,15,066,43,,,,,,,,*6C
###2023-12-09 13:10:09.008453$GNVTG,172.79,T,,M,3.54,N,6.55,K,A*2D
###2023-12-09 13:10:09.010086$GNGST,181008.10,18.000,,,,0.092,0.068,0.160*5D
###2023-12-09 13:10:09.011383$GNZDA,181008.10,09,12,2023,00,00*70
###2023-12-09 13:10:09.012018$GNEBP,,,,,,M*13
###2023-12-09 13:10:09.172959$GNGGA,181008.30,4138.0435975,N,07032.2595714,W,1,24,0.7,13.175,M,-29.743,M,0.0,*53
###2023-12-09 13:10:09.371211$GNGGA,181008.50,4138.0433964,N,07032.2595750,W,1,24,0.7,13.182,M,-29.743,M,0.0,*5B
###2023-12-09 13:10:09.571107$GNGGA,181008.70,4138.0431974,N,07032.2595743,W,1,24,0.7,13.172,M,-29.743,M,0.0,*57
###2023-12-09 13:10:09.772682$GNGGA,181008.90,4138.0429995,N,07032.2595731,W,1,24,0.7,13.173,M,-29.743,M,0.0,*5B
###2023-12-09 13:10:09.970297$GNRMC,181009.10,A,4138.0427950,N,07032.2595647,W,3.52,182.58,091223,,,A*50
###2023-12-09 13:10:09.973170$GNGGA,181009.10,4138.0427950,N,07032.2595647,W,1,24,0.7,13.153,M,-29.743,M,0.0,*57
###2023-12-09 13:10:09.974977$GPGSA,A,3,03,04,16,26,28,29,31,,,,,,1.2,0.7,1.0*30
###2023-12-09 13:10:09.976691$GLGSA,A,3,65,71,72,73,74,75,,,,,,,1.2,0.7,1.0*2E
###2023-12-09 13:10:09.978270$GAGSA,A,3,04,19,21,27,,,,,,,,,1.2,0.7,1.0*2C
###2023-12-09 13:10:09.980000$GBGSA,A,3,14,24,25,26,33,35,,,,,,,1.2,0.7,1.0*23
###2023-12-09 13:10:09.982318$GPGSV,2,1,07,03,33,257,43,04,36,311,45,16,54,214,45,26,84,210,48*7D
###2023-12-09 13:10:09.984365$GPGSV,2,2,07,28,46,074,46,29,24,057,43,31,67,046,47,,,,*4D
###2023-12-09 13:10:09.986740$GLGSV,2,1,06,65,27,326,43,71,36,173,42,72,72,254,46,73,32,044,45*63
###2023-12-09 13:10:09.988487$GLGSV,2,2,06,74,68,348,43,75,35,257,45,,,,,,,,*63
###2023-12-09 13:10:09.990811$GAGSV,1,1,04,04,32,312,43,19,81,196,40,21,85,078,46,27,30,048,42*6A
###2023-12-09 13:10:09.993119$GBGSV,2,1,06,14,40,192,42,24,71,031,49,25,43,265,47,26,24,064,44*6E
###2023-12-09 13:10:09.994880$GBGSV,2,2,06,33,55,228,47,35,15,066,44,,,,,,,,*64
###2023-12-09 13:10:09.996199$GNVTG,182.58,T,,M,3.52,N,6.52,K,A*20
###2023-12-09 13:10:09.997840$GNGST,181009.10,18.000,,,,0.093,0.068,0.160*5D
###2023-12-09 13:10:09.999138$GNZDA,181009.10,09,12,2023,00,00*71
###2023-12-09 13:10:09.999776$GNEBP,,,,,,M*13
###2023-12-09 13:10:10.168108$GNGGA,181009.30,4138.0425933,N,07032.2595881,W,1,24,0.7,13.154,M,-29.743,M,0.0,*51
###2023-12-09 13:10:10.369356$GNGGA,181009.50,4138.0423898,N,07032.2596188,W,1,24,0.7,13.155,M,-29.743,M,0.0,*53
###2023-12-09 13:10:10.570213$GNGGA,181009.70,4138.0421889,N,07032.2596302,W,1,24,0.7,13.128,M,-29.743,M,0.0,*59
###2023-12-09 13:10:10.769187$GNGGA,181009.90,4138.0419895,N,07032.2596386,W,1,24,0.7,13.128,M,-29.743,M,0.0,*5D
###2023-12-09 13:10:10.972406$GNRMC,181010.10,A,4138.0417890,N,07032.2596673,W,3.54,186.70,091223,,,A*5A
###2023-12-09 13:10:10.975287$GNGGA,181010.10,4138.0417890,N,07032.2596673,W,1,24,0.7,13.119,M,-29.743,M,0.0,*5B
###2023-12-09 13:10:10.977083$GPGSA,A,3,03,04,16,26,28,29,31,,,,,,1.2,0.7,1.0*30
###2023-12-09 13:10:10.978814$GLGSA,A,3,65,71,72,73,74,75,,,,,,,1.2,0.7,1.0*2E
###2023-12-09 13:10:10.980398$GAGSA,A,3,04,19,21,27,,,,,,,,,1.2,0.7,1.0*2C
###2023-12-09 13:10:10.982105$GBGSA,A,3,14,24,25,26,33,35,,,,,,,1.2,0.7,1.0*23
###2023-12-09 13:10:10.984452$GPGSV,2,1,07,03,33,257,42,04,36,311,44,16,54,214,45,26,84,210,48*7D
###2023-12-09 13:10:10.986495$GPGSV,2,2,07,28,46,074,45,29,24,057,43,31,67,046,48,,,,*41
###2023-12-09 13:10:10.988840$GLGSV,2,1,06,65,27,326,42,71,36,173,42,72,72,254,45,73,32,044,44*60
###2023-12-09 13:10:10.990604$GLGSV,2,2,06,74,68,348,43,75,35,257,45,,,,,,,,*63
###2023-12-09 13:10:10.992925$GAGSV,1,1,04,04,32,312,42,19,81,196,40,21,85,078,46,27,30,048,41*68
###2023-12-09 13:10:10.995268$GBGSV,2,1,06,14,40,192,41,24,71,031,49,25,43,265,46,26,24,064,44*6C
###2023-12-09 13:10:10.997014$GBGSV,2,2,06,33,55,228,47,35,15,066,44,,,,,,,,*64
###2023-12-09 13:10:10.998335$GNVTG,186.70,T,,M,3.54,N,6.55,K,A*2F
###2023-12-09 13:10:10.999996$GNGST,181010.10,18.000,,,,0.094,0.068,0.160*52
###2023-12-09 13:10:11.001281$GNZDA,181010.10,09,12,2023,00,00*79
###2023-12-09 13:10:11.001917$GNEBP,,,,,,M*13
###2023-12-09 13:10:11.168911$GNGGA,181010.30,4138.0415898,N,07032.2596943,W,1,24,0.7,13.109,M,-29.743,M,0.0,*5E
###2023-12-09 13:10:11.369650$GNGGA,181010.50,4138.0413902,N,07032.2597111,W,1,24,0.7,13.100,M,-29.743,M,0.0,*5B
###2023-12-09 13:10:11.569942$GNGGA,181010.70,4138.0411956,N,07032.2597167,W,1,24,0.7,13.094,M,-29.743,M,0.0,*57
###2023-12-09 13:10:11.771103$GNGGA,181010.90,4138.0409913,N,07032.2597318,W,1,24,0.7,13.092,M,-29.743,M,0.0,*5D
###2023-12-09 13:10:11.972340$GNRMC,181011.10,A,4138.0407918,N,07032.2597417,W,3.60,180.07,091223,,,A*5B
###2023-12-09 13:10:11.975206$GNGGA,181011.10,4138.0407918,N,07032.2597417,W,1,24,0.7,13.078,M,-29.743,M,0.0,*5D
###2023-12-09 13:10:11.976998$GPGSA,A,3,03,04,16,26,28,29,31,,,,,,1.2,0.7,1.0*30
###2023-12-09 13:10:11.978725$GLGSA,A,3,65,71,72,73,74,75,,,,,,,1.2,0.7,1.0*2E
###2023-12-09 13:10:11.980311$GAGSA,A,3,04,19,21,27,,,,,,,,,1.2,0.7,1.0*2C
###2023-12-09 13:10:11.982025$GBGSA,A,3,14,24,25,26,33,35,,,,,,,1.2,0.7,1.0*23
###2023-12-09 13:10:11.984362$GPGSV,2,1,07,03,33,257,43,04,36,311,45,16,54,214,46,26,84,210,48*7E
###2023-12-09 13:10:11.986397$GPGSV,2,2,07,28,46,074,45,29,24,057,42,31,67,046,47,,,,*4F
###2023-12-09 13:10:11.988746$GLGSV,2,1,06,65,27,326,43,71,36,173,42,72,72,254,45,73,32,044,45*60
###2023-12-09 13:10:11.990518$GLGSV,2,2,06,74,68,348,43,75,35,257,46,,,,,,,,*60
###2023-12-09 13:10:11.992872$GAGSV,1,1,04,04,32,312,43,19,81,196,40,21,85,078,46,27,30,048,42*6A
###2023-12-09 13:10:11.995226$GBGSV,2,1,06,14,40,192,43,24,71,031,51,25,43,265,49,26,24,064,44*68
###2023-12-09 13:10:11.996977$GBGSV,2,2,06,33,55,228,49,35,15,066,45,,,,,,,,*6B
###2023-12-09 13:10:11.998300$GNVTG,180.07,T,,M,3.60,N,6.66,K,A*2E
###2023-12-09 13:10:11.999969$GNGST,181011.10,18.000,,,,0.094,0.069,0.160*52
###2023-12-09 13:10:12.001261$GNZDA,181011.10,09,12,2023,00,00*78
###2023-12-09 13:10:12.001899$GNEBP,,,,,,M*13
###2023-12-09 13:10:12.170048$GNGGA,181011.30,4138.0405868,N,07032.2597358,W,1,24,0.7,13.068,M,-29.743,M,0.0,*56
###2023-12-09 13:10:12.370743$GNGGA,181011.50,4138.0403877,N,07032.2597330,W,1,24,0.7,13.057,M,-29.743,M,0.0,*5A
###2023-12-09 13:10:12.568959$GNGGA,181011.70,4138.0401858,N,07032.2597373,W,1,24,0.7,13.056,M,-29.743,M,0.0,*51
###2023-12-09 13:10:12.769955$GNGGA,181011.90,4138.0399818,N,07032.2597453,W,1,24,0.7,13.036,M,-29.743,M,0.0,*5E
###2023-12-09 13:10:12.971376$GNRMC,181012.10,A,4138.0397817,N,07032.2597481,W,3.58,182.73,091223,,,A*5D
###2023-12-09 13:10:12.974245$GNGGA,181012.10,4138.0397817,N,07032.2597481,W,1,24,0.7,13.023,M,-29.743,M,0.0,*5F
###2023-12-09 13:10:12.976053$GPGSA,A,3,03,04,16,26,28,29,31,,,,,,1.2,0.7,1.0*30
###2023-12-09 13:10:12.977775$GLGSA,A,3,65,71,72,73,74,75,,,,,,,1.2,0.7,1.0*2E
###2023-12-09 13:10:12.979375$GAGSA,A,3,04,19,21,27,,,,,,,,,1.2,0.7,1.0*2C
###2023-12-09 13:10:12.981083$GBGSA,A,3,14,24,25,26,33,35,,,,,,,1.2,0.7,1.0*23
###2023-12-09 13:10:12.983429$GPGSV,2,1,07,03,33,257,42,04,36,311,45,16,54,214,46,26,84,210,48*7F
###2023-12-09 13:10:12.985462$GPGSV,2,2,07,28,46,074,45,29,24,057,43,31,67,046,48,,,,*41
