###2023-12-09 13:37:55.011550$GPGSV,2,1,07,04,48,307,45,16,68,224,48,26,82,040,48,27,18,172,41*7A
###2023-12-09 13:37:55.013603$GPGSV,2,2,07,28,37,086,43,29,20,046,37,31,58,068,46,,,,*45
###2023-12-09 13:37:55.015938$GLGSV,2,1,06,65,39,317,44,71,21,175,43,72,61,219,47,73,21,053,38*6C
###2023-12-09 13:37:55.017712$GLGSV,2,2,06,74,59,016,41,75,44,273,47,,,,,,,,*69
###2023-12-09 13:37:55.020033$GAGSV,1,1,04,04,41,309,45,19,71,181,42,21,76,045,46,27,22,050,38*6C
###2023-12-09 13:37:55.022338$GBGSV,2,1,06,12,16,125,40,14,28,189,37,24,62,047,47,25,52,277,48*6F
###2023-12-09 13:37:55.024089$GBGSV,2,2,06,33,44,216,47,35,16,055,41,,,,,,,,*6F
###2023-12-09 13:37:55.025374$GNVTG,92.87,T,,M,0.64,N,1.19,K,A*1C
###2023-12-09 13:37:55.026996$GNGST,183754.10,5.600,,,,0.120,0.097,0.220*64
###2023-12-09 13:37:55.028270$GNZDA,183754.10,09,12,2023,00,00*7C
###2023-12-09 13:37:55.028900$GNEBP,,,,,,M*13
###2023-12-09 13:37:55.199016$GNGGA,183754.30,4138.0271846,N,07032.3935585,W,1,23,0.6,13.377,M,-29.745,M,0.0,*55
###2023-12-09 13:37:55.397614$GNGGA,183754.50,4138.0271985,N,07032.3935142,W,1,23,0.6,13.380,M,-29.745,M,0.0,*5A
###2023-12-09 13:37:55.596000$GNGGA,183754.70,4138.0271859,N,07032.3934513,W,1,23,0.6,13.362,M,-29.745,M,0.0,*55
###2023-12-09 13:37:55.796766$GNGGA,183754.90,4138.0272039,N,07032.3934161,W,1,23,0.6,13.362,M,-29.745,M,0.0,*57
###2023-12-09 13:37:55.999592$GNRMC,183755.10,A,4138.0272403,N,07032.3934046,W,0.52,92.87,091223,,,A*61
###2023-12-09 13:37:56.002436$GNGGA,183755.10,4138.0272403,N,07032.3934046,W,1,23,0.6,13.375,M,-29.745,M,0.0,*51
###2023-12-09 13:37:56.004228$GPGSA,A,3,04,16,26,27,28,29,31,,,,,,1.1,0.6,1.0*34
###2023-12-09 13:37:56.005923$GLGSA,A,3,65,71,72,73,74,75,,,,,,,1.1,0.6,1.0*2C
###2023-12-09 13:37:56.007504$GAGSA,A,3,04,19,21,27,,,,,,,,,1.1,0.6,1.0*2E
###2023-12-09 13:37:56.009198$GBGSA,A,3,12,14,24,25,33,35,,,,,,,1.1,0.6,1.0*26
###2023-12-09 13:37:56.011551$GPGSV,2,1,07,04,48,307,46,16,68,224,48,26,82,040,48,27,18,172,41*79
###2023-12-09 13:37:56.013568$GPGSV,2,2,07,28,37,086,43,29,20,046,39,31,58,068,46,,,,*4B
###2023-12-09 13:37:56.015880$GLGSV,2,1,06,65,39,317,43,71,21,175,42,72,61,219,46,73,21,053,40*64
###2023-12-09 13:37:56.017613$GLGSV,2,2,06,74,59,016,40,75,44,273,48,,,,,,,,*67
###2023-12-09 13:37:56.019928$GAGSV,1,1,04,04,41,309,45,19,71,181,42,21,76,045,45,27,22,050,37*60
###2023-12-09 13:37:56.022245$GBGSV,2,1,06,12,16,125,40,14,28,189,38,24,62,047,48,25,52,277,47*60
###2023-12-09 13:37:56.023993$GBGSV,2,2,06,33,44,216,47,35,16,055,42,,,,,,,,*6C
###2023-12-09 13:37:56.025278$GNVTG,92.87,T,,M,0.52,N,0.97,K,A*1E
###2023-12-09 13:37:56.026894$GNGST,183755.10,5.800,,,,0.120,0.097,0.220*6B
###2023-12-09 13:37:56.028177$GNZDA,183755.10,09,12,2023,00,00*7D
###2023-12-09 13:37:56.028812$GNEBP,,,,,,M*13
###2023-12-09 13:37:56.199092$GNGGA,183755.30,4138.0272582,N,07032.3933815,W,1,23,0.6,13.367,M,-29.745,M,0.0,*51
###2023-12-09 13:37:56.396033$GNGGA,183755.50,4138.0272603,N,07032.3933253,W,1,23,0.6,13.368,M,-29.745,M,0.0,*5A
###2023-12-09 13:37:56.596114$GNGGA,183755.70,4138.0272678,N,07032.3932735,W,1,23,0.6,13.364,M,-29.745,M,0.0,*5C
###2023-12-09 13:37:56.796205$GNGGA,183755.90,4138.0272924,N,07032.3932599,W,1,23,0.6,13.366,M,-29.745,M,0.0,*52
###2023-12-09 13:37:57.006179$GNRMC,183756.10,A,4138.0273212,N,07032.3932610,W,0.43,92.87,091223,,,A*66
###2023-12-09 13:37:57.009053$GNGGA,183756.10,4138.0273212,N,07032.3932610,W,1,23,0.6,13.364,M,-29.745,M,0.0,*56
###2023-12-09 13:37:57.010849$GPGSA,A,3,04,16,26,27,28,29,31,,,,,,1.1,0.6,1.0*34
###2023-12-09 13:37:57.012552$GLGSA,A,3,65,71,72,73,74,75,,,,,,,1.1,0.6,1.0*2C
###2023-12-09 13:37:57.014124$GAGSA,A,3,04,19,21,27,,,,,,,,,1.1,0.6,1.0*2E
###2023-12-09 13:37:57.015839$GBGSA,A,3,12,14,24,25,33,35,,,,,,,1.1,0.6,1.0*26
###2023-12-09 13:37:57.018186$GPGSV,2,1,07,04,48,307,45,16,68,224,46,26,82,040,48,27,18,172,41*74
###2023-12-09 13:37:57.020230$GPGSV,2,2,07,28,37,086,42,29,20,046,38,31,58,068,44,,,,*49
###2023-12-09 13:37:57.022548$GLGSV,2,1,06,65,39,317,42,71,21,175,42,72,61,219,46,73,21,053,38*6A
###2023-12-09 13:37:57.024300$GLGSV,2,2,06,74,59,016,40,75,44,273,48,,,,,,,,*67
###2023-12-09 13:37:57.026632$GAGSV,1,1,04,04,41,309,46,19,71,181,42,21,76,045,46,27,22,050,38*6F
###2023-12-09 13:37:57.028958$GBGSV,2,1,06,12,16,125,39,14,28,189,40,24,62,047,46,25,52,277,48*60
###2023-12-09 13:37:57.030708$GBGSV,2,2,06,33,44,216,46,35,16,055,42,,,,,,,,*6D
###2023-12-09 13:37:57.031994$GNVTG,92.87,T,,M,0.43,N,0.79,K,A*1E
###2023-12-09 13:37:57.033606$GNGST,183756.10,5.800,,,,0.120,0.097,0.220*68
###2023-12-09 13:37:57.034901$GNZDA,183756.10,09,12,2023,00,00*7E
###2023-12-09 13:37:57.035534$GNEBP,,,,,,M*13
###2023-12-09 13:37:57.207061$GNGGA,183756.30,4138.0273395,N,07032.3932320,W,1,23,0.6,13.377,M,-29.745,M,0.0,*5E
###2023-12-09 13:37:57.397684$GNGGA,183756.50,4138.0273467,N,07032.3931734,W,1,24,0.6,13.373,M,-29.745,M,0.0,*53
###2023-12-09 13:37:57.597645$GNGGA,183756.70,4138.0273531,N,07032.3931334,W,1,23,0.6,13.354,M,-29.745,M,0.0,*55
###2023-12-09 13:37:57.799862$GNGGA,183756.90,4138.0273831,N,07032.3931356,W,1,23,0.6,13.361,M,-29.745,M,0.0,*54
###2023-12-09 13:37:58.001593$GNRMC,183757.10,A,4138.0274159,N,07032.3931491,W,0.39,92.87,091223,,,A*69
###2023-12-09 13:37:58.005063$GNGGA,183757.10,4138.0274159,N,07032.3931491,W,1,22,0.6,13.376,M,-29.745,M,0.0,*56
###2023-12-09 13:37:58.007231$GPGSA,A,3,04,16,26,27,28,29,31,,,,,,1.1,0.6,1.0*34
###2023-12-09 13:37:58.009291$GLGSA,A,3,65,71,72,73,74,75,,,,,,,1.1,0.6,1.0*2C
###2023-12-09 13:37:58.011241$GAGSA,A,3,04,19,21,27,,,,,,,,,1.1,0.6,1.0*2E
###2023-12-09 13:37:58.013230$GBGSA,A,3,14,24,25,33,35,,,,,,,,1.1,0.6,1.0*25
###2023-12-09 13:37:58.016054$GPGSV,2,1,07,04,48,307,48,16,68,224,47,26,82,040,48,27,18,172,42*7B
###2023-12-09 13:37:58.018518$GPGSV,2,2,07,28,37,086,42,29,20,046,40,31,58,068,46,,,,*44
###2023-12-09 13:37:58.021324$GLGSV,2,1,06,65,39,317,43,71,21,175,42,72,61,219,45,73,21,053,38*68
###2023-12-09 13:37:58.023439$GLGSV,2,2,06,74,59,016,41,75,44,273,49,,,,,,,,*67
###2023-12-09 13:37:58.026231$GAGSV,1,1,04,04,41,309,46,19,71,181,42,21,76,045,46,27,22,050,39*6E
###2023-12-09 13:37:58.029039$GBGSV,2,1,05,14,28,189,40,24,62,047,46,25,52,277,49,33,44,216,46*6D
###2023-12-09 13:37:58.030799$GBGSV,2,2,05,35,16,055,42,,,,,,,,,,,,*59
###2023-12-09 13:37:58.032342$GNVTG,92.87,T,,M,0.39,N,0.72,K,A*18
###2023-12-09 13:37:58.034284$GNGST,183757.10,5.300,,,,0.120,0.098,0.220*6D
###2023-12-09 13:37:58.035849$GNZDA,183757.10,09,12,2023,00,00*7F
###2023-12-09 13:37:58.036616$GNEBP,,,,,,M*13
###2023-12-09 13:37:58.201438$GNGGA,183757.30,4138.0274278,N,07032.3931087,W,1,22,0.6,13.393,M,-29.745,M,0.0,*5C
###2023-12-09 13:37:58.398483$GNGGA,183757.50,4138.0274270,N,07032.3930341,W,1,23,0.6,13.369,M,-29.745,M,0.0,*5E
###2023-12-09 13:37:58.597167$GNGGA,183757.70,4138.0274471,N,07032.3930201,W,1,24,0.6,13.363,M,-29.745,M,0.0,*53
###2023-12-09 13:37:58.797913$GNGGA,183757.90,4138.0274905,N,07032.3930704,W,1,24,0.6,13.391,M,-29.745,M,0.0,*5E
###2023-12-09 13:37:59.002151$GNRMC,183758.10,A,4138.0275111,N,07032.3930617,W,0.82,318.41,091223,,,A*5D
###2023-12-09 13:37:59.005619$GNGGA,183758.10,4138.0275111,N,07032.3930617,W,1,22,0.6,13.394,M,-29.745,M,0.0,*55
###2023-12-09 13:37:59.007788$GPGSA,A,3,04,16,26,27,28,29,31,,,,,,1.1,0.6,1.0*34
###2023-12-09 13:37:59.009851$GLGSA,A,3,65,71,72,73,74,75,,,,,,,1.1,0.6,1.0*2C
###2023-12-09 13:37:59.011760$GAGSA,A,3,04,19,21,27,,,,,,,,,1.1,0.6,1.0*2E
###2023-12-09 13:37:59.013748$GBGSA,A,3,14,24,25,33,35,,,,,,,,1.1,0.6,1.0*25
###2023-12-09 13:37:59.016556$GPGSV,2,1,07,04,48,307,46,16,68,224,46,26,82,040,48,27,18,172,40*76
###2023-12-09 13:37:59.019023$GPGSV,2,2,07,28,37,086,42,29,20,046,41,31,58,068,44,,,,*47
###2023-12-09 13:37:59.021831$GLGSV,2,1,06,65,39,317,44,71,21,175,42,72,61,219,45,73,21,053,41*61
###2023-12-09 13:37:59.023954$GLGSV,2,2,06,74,59,016,41,75,44,273,50,,,,,,,,*6F
###2023-12-09 13:37:59.026761$GAGSV,1,1,04,04,41,309,46,19,70,181,42,21,76,045,46,27,22,050,39*6F
###2023-12-09 13:37:59.029555$GBGSV,2,1,05,14,28,189,40,24,62,047,47,25,52,277,48,33,44,216,46*6D
###2023-12-09 13:37:59.031334$GBGSV,2,2,05,35,16,055,42,,,,,,,,,,,,*59
###2023-12-09 13:37:59.033233$GNVTG,318.41,T,,M,0.82,N,1.51,K,A*23
###2023-12-09 13:37:59.035251$GNGST,183758.10,5.600,,,,0.120,0.098,0.220*67
###2023-12-09 13:37:59.036820$GNZDA,183758.10,09,12,2023,00,00*70
###2023-12-09 13:37:59.037600$GNEBP,,,,,,M*13
###2023-12-09 13:37:59.199879$GNGGA,183758.30,4138.0275112,N,07032.3929880,W,1,23,0.6,13.398,M,-29.745,M,0.0,*51
###2023-12-09 13:37:59.398084$GNGGA,183758.50,4138.0275264,N,07032.3929570,W,1,23,0.6,13.404,M,-29.745,M,0.0,*55
###2023-12-09 13:37:59.597618$GNGGA,183758.70,4138.0275637,N,07032.3929907,W,1,23,0.6,13.412,M,-29.745,M,0.0,*5E
###2023-12-09 13:37:59.798942$GNGGA,183758.90,4138.0275893,N,07032.3930042,W,1,23,0.6,13.385,M,-29.745,M,0.0,*59
###2023-12-09 13:38:00.000463$GNRMC,183759.10,A,4138.0275985,N,07032.3929675,W,0.64,89.92,091223,,,A*68
