###2023-12-09 13:26:29.018361$GBGSV,2,2,06,33,49,220,47,35,16,060,43,,,,,,,,*63
###2023-12-09 13:26:29.019738$GNVTG,281.71,T,,M,2.90,N,5.36,K,A*25
###2023-12-09 13:26:29.021391$GNGST,182628.10,18.000,,,,0.099,0.072,0.170*5B
###2023-12-09 13:26:29.022701$GNZDA,182628.10,09,12,2023,00,00*77
###2023-12-09 13:26:29.023344$GNEBP,,,,,,M*13
###2023-12-09 13:26:29.187762$GNGGA,182628.30,4138.0792204,N,07032.3463533,W,1,24,0.6,13.101,M,-29.743,M,0.0,*5B
###2023-12-09 13:26:29.387934$GNGGA,182628.50,4138.0792276,N,07032.3465554,W,1,24,0.6,13.110,M,-29.743,M,0.0,*5F
###2023-12-09 13:26:29.588694$GNGGA,182628.70,4138.0792345,N,07032.3467588,W,1,24,0.6,13.123,M,-29.743,M,0.0,*5F
###2023-12-09 13:26:29.794461$GNGGA,182628.90,4138.0792458,N,07032.3469690,W,1,24,0.6,13.136,M,-29.743,M,0.0,*5A
###2023-12-09 13:26:29.992733$GNRMC,182629.10,A,4138.0792472,N,07032.3471822,W,2.90,266.50,091223,,,A*5E
###2023-12-09 13:26:29.995605$GNGGA,182629.10,4138.0792472,N,07032.3471822,W,1,24,0.6,13.145,M,-29.743,M,0.0,*51
###2023-12-09 13:26:29.997397$GPGSA,A,3,03,04,16,26,28,29,31,,,,,,1.1,0.6,0.9*3A
###2023-12-09 13:26:29.999123$GLGSA,A,3,65,71,72,73,74,75,,,,,,,1.1,0.6,0.9*24
###2023-12-09 13:26:30.000704$GAGSA,A,3,04,19,21,27,,,,,,,,,1.1,0.6,0.9*26
###2023-12-09 13:26:30.002420$GBGSA,A,3,14,24,25,26,33,35,,,,,,,1.1,0.6,0.9*29
###2023-12-09 13:26:30.004769$GPGSV,2,1,07,03,29,250,42,04,43,309,44,16,62,219,46,26,88,044,48*7E
###2023-12-09 13:26:30.006830$GPGSV,2,2,07,28,41,081,45,29,22,050,42,31,62,060,46,,,,*43
###2023-12-09 13:26:30.009157$GLGSV,2,1,06,65,34,322,43,71,27,175,46,72,67,229,45,73,26,049,43*64
###2023-12-09 13:26:30.010914$GLGSV,2,2,06,74,63,006,42,75,40,266,43,,,,,,,,*66
###2023-12-09 13:26:30.013245$GAGSV,1,1,04,04,37,311,42,19,75,184,40,21,80,050,46,27,25,049,40*6D
###2023-12-09 13:26:30.015592$GBGSV,2,1,06,14,32,190,41,24,65,042,48,25,49,273,44,26,19,068,44*66
###2023-12-09 13:26:30.017348$GBGSV,2,2,06,33,49,220,46,35,16,060,44,,,,,,,,*65
###2023-12-09 13:26:30.018688$GNVTG,266.50,T,,M,2.90,N,5.36,K,A*2F
###2023-12-09 13:26:30.020341$GNGST,182629.10,18.000,,,,0.098,0.072,0.170*5B
###2023-12-09 13:26:30.021635$GNZDA,182629.10,09,12,2023,00,00*76
###2023-12-09 13:26:30.022273$GNEBP,,,,,,M*13
###2023-12-09 13:26:30.189703$GNGGA,182629.30,4138.0792298,N,07032.3473975,W,1,24,0.6,13.143,M,-29.743,M,0.0,*56
###2023-12-09 13:26:30.390600$GNGGA,182629.50,4138.0792005,N,07032.3476138,W,1,24,0.6,13.144,M,-29.743,M,0.0,*55
###2023-12-09 13:26:30.588648$GNGGA,182629.70,4138.0791762,N,07032.3478423,W,1,24,0.6,13.159,M,-29.743,M,0.0,*5F
###2023-12-09 13:26:30.788862$GNGGA,182629.90,4138.0791423,N,07032.3480692,W,1,24,0.6,13.173,M,-29.743,M,0.0,*50
###2023-12-09 13:26:30.990717$GNRMC,182630.10,A,4138.0790881,N,07032.3482774,W,2.94,245.98,091223,,,A*55
###2023-12-09 13:26:30.993587$GNGGA,182630.10,4138.0790881,N,07032.3482774,W,1,24,0.6,13.174,M,-29.743,M,0.0,*59
###2023-12-09 13:26:30.995396$GPGSA,A,3,03,04,16,26,28,29,31,,,,,,1.1,0.6,0.9*3A
###2023-12-09 13:26:30.997108$GLGSA,A,3,65,71,72,73,74,75,,,,,,,1.1,0.6,0.9*24
###2023-12-09 13:26:30.998697$GAGSA,A,3,04,19,21,27,,,,,,,,,1.1,0.6,0.9*26
###2023-12-09 13:26:31.000401$GBGSA,A,3,14,24,25,26,33,35,,,,,,,1.1,0.6,0.9*29
###2023-12-09 13:26:31.002736$GPGSV,2,1,07,03,29,250,40,04,43,309,45,16,62,219,46,26,88,044,48*7D
###2023-12-09 13:26:31.004773$GPGSV,2,2,07,28,41,081,44,29,22,050,42,31,62,060,46,,,,*42
###2023-12-09 13:26:31.007102$GLGSV,2,1,06,65,34,322,43,71,27,175,44,72,67,229,45,73,26,049,42*67
###2023-12-09 13:26:31.008845$GLGSV,2,2,06,74,63,006,43,75,40,266,46,,,,,,,,*62
###2023-12-09 13:26:31.011176$GAGSV,1,1,04,04,37,311,43,19,75,184,40,21,80,050,45,27,25,049,40*6F
###2023-12-09 13:26:31.013503$GBGSV,2,1,06,14,32,190,42,24,65,042,47,25,49,273,46,26,18,069,43*6F
###2023-12-09 13:26:31.015264$GBGSV,2,2,06,33,49,220,45,35,16,060,44,,,,,,,,*66
###2023-12-09 13:26:31.016590$GNVTG,245.98,T,,M,2.94,N,5.44,K,A*2B
###2023-12-09 13:26:31.018232$GNGST,182630.10,18.000,,,,0.098,0.072,0.170*53
###2023-12-09 13:26:31.019535$GNZDA,182630.10,09,12,2023,00,00*7E
###2023-12-09 13:26:31.020174$GNEBP,,,,,,M*13
###2023-12-09 13:26:31.192891$GNGGA,182630.30,4138.0790165,N,07032.3484605,W,1,24,0.6,13.174,M,-29.743,M,0.0,*59
###2023-12-09 13:26:31.387619$GNGGA,182630.50,4138.0789452,N,07032.3486393,W,1,24,0.6,13.169,M,-29.743,M,0.0,*52
###2023-12-09 13:26:31.588752$GNGGA,182630.70,4138.0788796,N,07032.3488202,W,1,24,0.6,13.173,M,-29.743,M,0.0,*56
###2023-12-09 13:26:31.788495$GNGGA,182630.90,4138.0788034,N,07032.3489846,W,1,24,0.6,13.168,M,-29.743,M,0.0,*56
###2023-12-09 13:26:31.992662$GNRMC,182631.10,A,4138.0787152,N,07032.3491302,W,2.59,232.48,091223,,,A*5E
###2023-12-09 13:26:31.996148$GNGGA,182631.10,4138.0787152,N,07032.3491302,W,1,24,0.6,13.181,M,-29.743,M,0.0,*54
###2023-12-09 13:26:31.998315$GPGSA,A,3,03,04,16,26,28,29,31,,,,,,1.1,0.6,0.9*3A
###2023-12-09 13:26:32.000401$GLGSA,A,3,65,71,72,73,74,75,,,,,,,1.1,0.6,0.9*24
###2023-12-09 13:26:32.002318$GAGSA,A,3,04,19,21,27,,,,,,,,,1.1,0.6,0.9*26
###2023-12-09 13:26:32.004399$GBGSA,A,3,14,24,25,26,33,35,,,,,,,1.1,0.6,0.9*29
###2023-12-09 13:26:32.007215$GPGSV,2,1,07,03,29,250,40,04,43,309,44,16,62,219,46,26,88,044,48*7C
###2023-12-09 13:26:32.009707$GPGSV,2,2,07,28,41,081,43,29,22,050,43,31,62,060,47,,,,*45
###2023-12-09 13:26:32.012571$GLGSV,2,1,06,65,34,322,43,71,27,175,44,72,67,229,45,73,26,049,43*66
###2023-12-09 13:26:32.014689$GLGSV,2,2,06,74,63,006,43,75,40,266,46,,,,,,,,*62
###2023-12-09 13:26:32.017494$GAGSV,1,1,04,04,37,311,42,19,75,184,40,21,80,050,46,27,25,049,40*6D
###2023-12-09 13:26:32.020322$GBGSV,2,1,06,14,32,190,42,24,65,042,47,25,49,273,46,26,18,069,43*6F
###2023-12-09 13:26:32.022431$GBGSV,2,2,06,33,49,220,46,35,16,060,43,,,,,,,,*62
###2023-12-09 13:26:32.024037$GNVTG,232.48,T,,M,2.59,N,4.79,K,A*28
###2023-12-09 13:26:32.026014$GNGST,182631.10,18.000,,,,0.098,0.072,0.160*53
###2023-12-09 13:26:32.027581$GNZDA,182631.10,09,12,2023,00,00*7F
###2023-12-09 13:26:32.028353$GNEBP,,,,,,M*13
###2023-12-09 13:26:32.188283$GNGGA,182631.30,4138.0786440,N,07032.3492978,W,1,24,0.6,13.223,M,-29.743,M,0.0,*5E
###2023-12-09 13:26:32.387705$GNGGA,182631.50,4138.0785825,N,07032.3494891,W,1,24,0.6,13.241,M,-29.743,M,0.0,*50
###2023-12-09 13:26:32.588434$GNGGA,182631.70,4138.0784982,N,07032.3496532,W,1,24,0.6,13.207,M,-29.743,M,0.0,*5B
###2023-12-09 13:26:32.787606$GNGGA,182631.90,4138.0783923,N,07032.3497850,W,1,24,0.6,13.171,M,-29.743,M,0.0,*53
###2023-12-09 13:26:32.999649$GNRMC,182632.10,A,4138.0783009,N,07032.3499457,W,2.84,242.63,091223,,,A*57
###2023-12-09 13:26:33.003159$GNGGA,182632.10,4138.0783009,N,07032.3499457,W,1,24,0.6,13.180,M,-29.743,M,0.0,*52
###2023-12-09 13:26:33.005327$GPGSA,A,3,03,04,16,26,28,29,31,,,,,,1.1,0.6,0.9*3A
###2023-12-09 13:26:33.007413$GLGSA,A,3,65,71,72,73,74,75,,,,,,,1.1,0.6,0.9*24
###2023-12-09 13:26:33.009320$GAGSA,A,3,04,19,21,27,,,,,,,,,1.1,0.6,0.9*26
###2023-12-09 13:26:33.011396$GBGSA,A,3,14,24,25,26,33,35,,,,,,,1.1,0.6,0.9*29
###2023-12-09 13:26:33.014202$GPGSV,2,1,07,03,29,250,39,04,43,309,43,16,62,219,45,26,88,044,48*76
###2023-12-09 13:26:33.016664$GPGSV,2,2,07,28,41,081,44,29,22,050,42,31,62,060,47,,,,*43
###2023-12-09 13:26:33.019485$GLGSV,2,1,06,65,34,322,42,71,27,175,45,72,67,229,45,73,26,049,42*67
###2023-12-09 13:26:33.021588$GLGSV,2,2,06,74,63,006,43,75,40,266,44,,,,,,,,*60
###2023-12-09 13:26:33.024388$GAGSV,1,1,04,04,37,311,42,19,75,184,40,21,80,050,46,27,25,049,40*6D
###2023-12-09 13:26:33.027213$GBGSV,2,1,06,14,32,190,43,24,65,042,48,25,49,273,45,26,18,069,44*65
###2023-12-09 13:26:33.029315$GBGSV,2,2,06,33,49,220,46,35,16,060,44,,,,,,,,*65
###2023-12-09 13:26:33.030933$GNVTG,242.63,T,,M,2.84,N,5.26,K,A*2D
###2023-12-09 13:26:33.032960$GNGST,182632.10,18.000,,,,0.098,0.072,0.160*50
###2023-12-09 13:26:33.034518$GNZDA,182632.10,09,12,2023,00,00*7C
###2023-12-09 13:26:33.035304$GNEBP,,,,,,M*13
###2023-12-09 13:26:33.191629$GNGGA,182632.30,4138.0782372,N,07032.3501327,W,1,24,0.6,13.219,M,-29.743,M,0.0,*5D
###2023-12-09 13:26:33.387568$GNGGA,182632.50,4138.0781632,N,07032.3503060,W,1,24,0.6,13.236,M,-29.743,M,0.0,*56
###2023-12-09 13:26:33.587084$GNGGA,182632.70,4138.0780647,N,07032.3504551,W,1,24,0.6,13.210,M,-29.743,M,0.0,*53
###2023-12-09 13:26:33.788307$GNGGA,182632.90,4138.0779712,N,07032.3506189,W,1,24,0.6,13.172,M,-29.743,M,0.0,*5E
###2023-12-09 13:26:33.992052$GNRMC,182633.10,A,4138.0779117,N,07032.3508118,W,2.86,250.51,091223,,,A*5A
###2023-12-09 13:26:33.995565$GNGGA,182633.10,4138.0779117,N,07032.3508118,W,1,24,0.6,13.196,M,-29.743,M,0.0,*58
###2023-12-09 13:26:33.997724$GPGSA,A,3,03,04,16,26,28,29,31,,,,,,1.1,0.6,0.9*3A
###2023-12-09 13:26:33.999815$GLGSA,A,3,65,71,72,73,74,75,,,,,,,1.1,0.6,0.9*24
###2023-12-09 13:26:34.001735$GAGSA,A,3,04,19,21,27,,,,,,,,,1.1,0.6,0.9*26
###2023-12-09 13:26:34.003816$GBGSA,A,3,14,24,25,26,33,35,,,,,,,1.1,0.6,0.9*29
###2023-12-09 13:26:34.006627$GPGSV,2,1,07,03,29,250,41,04,43,309,44,16,62,219,45,26,88,044,48*7E
