###2023-12-09 13:45:30.018048$GPGSV,2,1,06,04,51,304,44,16,72,228,43,26,78,041,40,28,34,089,45*71
###2023-12-09 13:45:30.019846$GPGSV,2,2,06,29,18,043,43,31,56,072,50,,,,,,,,*7C
###2023-12-09 13:45:30.022187$GLGSV,2,1,06,65,42,313,45,72,57,214,38,73,18,056,44,74,56,022,38*6B
###2023-12-09 13:45:30.023951$GLGSV,2,2,06,75,47,279,47,83,16,042,37,,,,,,,,*63
###2023-12-09 13:45:30.025992$GAGSV,1,1,03,04,43,308,44,21,73,044,37,27,19,051,42,,,,*5F
###2023-12-09 13:45:30.028338$GBGSV,1,1,04,12,19,123,42,24,59,051,47,25,54,281,41,35,16,052,35*67
###2023-12-09 13:45:30.029672$GNVTG,243.17,T,,M,0.04,N,0.07,K,A*23
###2023-12-09 13:45:30.031308$GNGST,184529.10,8.000,,,,0.190,0.120,0.310*64
###2023-12-09 13:45:30.032607$GNZDA,184529.10,09,12,2023,00,00*73
###2023-12-09 13:45:30.033245$GNEBP,,,,,,M*13
###2023-12-09 13:45:30.203716$GNGGA,184529.30,4138.0393152,N,07032.4388681,W,1,18,0.8,14.347,M,-29.746,M,0.0,*56
###2023-12-09 13:45:30.400741$GNGGA,184529.50,4138.0393146,N,07032.4388691,W,1,18,0.8,14.346,M,-29.746,M,0.0,*55
###2023-12-09 13:45:30.600428$GNGGA,184529.70,4138.0393144,N,07032.4388690,W,1,18,0.8,14.351,M,-29.746,M,0.0,*52
###2023-12-09 13:45:30.802059$GNGGA,184529.90,4138.0393132,N,07032.4388689,W,1,18,0.8,14.354,M,-29.746,M,0.0,*50
###2023-12-09 13:45:31.005532$GNRMC,184530.10,A,4138.0393134,N,07032.4388695,W,0.00,243.17,091223,,,A*5A
###2023-12-09 13:45:31.008417$GNGGA,184530.10,4138.0393134,N,07032.4388695,W,1,18,0.8,14.357,M,-29.746,M,0.0,*58
###2023-12-09 13:45:31.010134$GPGSA,A,3,04,16,26,28,29,31,,,,,,,1.3,0.8,1.1*3C
###2023-12-09 13:45:31.011856$GLGSA,A,3,65,72,73,74,75,83,,,,,,,1.3,0.8,1.1*2C
###2023-12-09 13:45:31.013373$GAGSA,A,3,04,21,27,,,,,,,,,,1.3,0.8,1.1*2B
###2023-12-09 13:45:31.014896$GBGSA,A,3,12,24,25,,,,,,,,,,1.3,0.8,1.1*28
###2023-12-09 13:45:31.017221$GPGSV,2,1,06,04,51,304,44,16,72,228,44,26,78,041,40,28,34,089,44*77
###2023-12-09 13:45:31.018970$GPGSV,2,2,06,29,18,043,43,31,56,072,50,,,,,,,,*7C
###2023-12-09 13:45:31.021291$GLGSV,2,1,06,65,42,313,45,72,57,214,37,73,18,056,44,74,56,022,38*64
###2023-12-09 13:45:31.023045$GLGSV,2,2,06,75,47,279,47,83,16,042,37,,,,,,,,*63
###2023-12-09 13:45:31.025078$GAGSV,1,1,03,04,43,308,44,21,73,044,38,27,19,051,42,,,,*50
###2023-12-09 13:45:31.027118$GBGSV,1,1,03,12,19,123,42,24,59,051,47,25,54,281,41,,,,*50
###2023-12-09 13:45:31.028443$GNVTG,243.17,T,,M,0.00,N,0.00,K,A*20
###2023-12-09 13:45:31.030052$GNGST,184530.10,7.500,,,,0.200,0.120,0.310*6C
###2023-12-09 13:45:31.031351$GNZDA,184530.10,09,12,2023,00,00*7B
###2023-12-09 13:45:31.031991$GNEBP,,,,,,M*13
###2023-12-09 13:45:31.202589$GNGGA,184530.30,4138.0393123,N,07032.4388709,W,1,18,0.8,14.354,M,-29.746,M,0.0,*5B
###2023-12-09 13:45:31.406251$GNGGA,184530.50,4138.0393125,N,07032.4388715,W,1,18,0.8,14.353,M,-29.746,M,0.0,*51
###2023-12-09 13:45:31.600327$GNGGA,184530.70,4138.0393132,N,07032.4388721,W,1,18,0.8,14.349,M,-29.746,M,0.0,*59
###2023-12-09 13:45:31.800793$GNGGA,184530.90,4138.0393128,N,07032.4388731,W,1,18,0.8,14.353,M,-29.746,M,0.0,*56
###2023-12-09 13:45:32.006061$GNRMC,184531.10,A,4138.0393129,N,07032.4388729,W,0.00,243.17,091223,,,A*51
###2023-12-09 13:45:32.009143$GNGGA,184531.10,4138.0393129,N,07032.4388729,W,1,18,0.8,14.355,M,-29.746,M,0.0,*51
###2023-12-09 13:45:32.010976$GPGSA,A,3,04,16,26,28,29,31,,,,,,,1.3,0.8,1.1*3C
###2023-12-09 13:45:32.012686$GLGSA,A,3,65,72,73,74,75,83,,,,,,,1.3,0.8,1.1*2C
###2023-12-09 13:45:32.014199$GAGSA,A,3,04,21,27,,,,,,,,,,1.3,0.8,1.1*2B
###2023-12-09 13:45:32.015724$GBGSA,A,3,12,24,25,,,,,,,,,,1.3,0.8,1.1*28
###2023-12-09 13:45:32.018050$GPGSV,2,1,06,04,51,304,44,16,72,228,44,26,78,041,39,28,34,089,45*78
###2023-12-09 13:45:32.019815$GPGSV,2,2,06,29,18,043,43,31,56,073,50,,,,,,,,*7D
###2023-12-09 13:45:32.022136$GLGSV,2,1,06,65,42,313,45,72,57,214,37,73,18,056,43,74,56,022,37*6C
###2023-12-09 13:45:32.023887$GLGSV,2,2,06,75,47,279,47,83,16,042,37,,,,,,,,*63
###2023-12-09 13:45:32.025918$GAGSV,1,1,03,04,43,308,44,21,73,044,38,27,19,051,42,,,,*50
###2023-12-09 13:45:32.027959$GBGSV,1,1,03,12,19,123,42,24,59,051,46,25,54,281,40,,,,*50
###2023-12-09 13:45:32.029283$GNVTG,243.17,T,,M,0.00,N,0.00,K,A*20
###2023-12-09 13:45:32.030934$GNGST,184531.10,7.800,,,,0.200,0.120,0.310*60
###2023-12-09 13:45:32.032224$GNZDA,184531.10,09,12,2023,00,00*7A
###2023-12-09 13:45:32.032863$GNEBP,,,,,,M*13
###2023-12-09 13:45:32.201275$GNGGA,184531.30,4138.0393120,N,07032.4388730,W,1,18,0.8,14.356,M,-29.746,M,0.0,*51
###2023-12-09 13:45:32.403379$GNGGA,184531.50,4138.0393122,N,07032.4388751,W,1,18,0.8,14.355,M,-29.746,M,0.0,*51
###2023-12-09 13:45:32.601696$GNGGA,184531.70,4138.0393122,N,07032.4388769,W,1,18,0.8,14.356,M,-29.746,M,0.0,*5B
###2023-12-09 13:45:32.804225$GNGGA,184531.90,4138.0393120,N,07032.4388770,W,1,19,0.8,14.357,M,-29.746,M,0.0,*5F
###2023-12-09 13:45:33.007810$GNRMC,184532.10,A,4138.0393111,N,07032.4388785,W,0.04,243.17,091223,,,A*5B
###2023-12-09 13:45:33.010671$GNGGA,184532.10,4138.0393111,N,07032.4388785,W,1,19,0.8,14.359,M,-29.746,M,0.0,*52
###2023-12-09 13:45:33.012391$GPGSA,A,3,04,16,26,28,29,31,,,,,,,1.3,0.8,1.1*3C
###2023-12-09 13:45:33.014106$GLGSA,A,3,65,72,73,74,75,83,,,,,,,1.3,0.8,1.1*2C
###2023-12-09 13:45:33.015634$GAGSA,A,3,04,21,27,,,,,,,,,,1.3,0.8,1.1*2B
###2023-12-09 13:45:33.017212$GBGSA,A,3,12,24,25,35,,,,,,,,,1.3,0.8,1.1*2E
###2023-12-09 13:45:33.019557$GPGSV,2,1,06,04,51,304,44,16,72,228,44,26,78,041,39,28,34,089,45*78
###2023-12-09 13:45:33.021294$GPGSV,2,2,06,29,18,043,43,31,56,073,50,,,,,,,,*7D
###2023-12-09 13:45:33.023634$GLGSV,2,1,06,65,42,313,45,72,57,214,37,73,18,056,43,74,56,022,37*6C
###2023-12-09 13:45:33.025380$GLGSV,2,2,06,75,47,279,47,83,16,042,37,,,,,,,,*63
###2023-12-09 13:45:33.027456$GAGSV,1,1,03,04,43,308,44,21,73,044,37,27,19,051,42,,,,*5F
###2023-12-09 13:45:33.029782$GBGSV,1,1,04,12,19,123,42,24,59,051,46,25,54,281,41,35,16,052,35*66
###2023-12-09 13:45:33.031119$GNVTG,243.17,T,,M,0.04,N,0.07,K,A*23
###2023-12-09 13:45:33.032735$GNGST,184532.10,8.000,,,,0.200,0.120,0.310*64
###2023-12-09 13:45:33.034027$GNZDA,184532.10,09,12,2023,00,00*79
###2023-12-09 13:45:33.034676$GNEBP,,,,,,M*13
###2023-12-09 13:45:33.208129$GNGGA,184532.30,4138.0393117,N,07032.4388796,W,1,19,0.8,14.362,M,-29.746,M,0.0,*5C
###2023-12-09 13:45:33.402083$GNGGA,184532.50,4138.0393118,N,07032.4388803,W,1,19,0.8,14.364,M,-29.746,M,0.0,*50
###2023-12-09 13:45:33.600715$GNGGA,184532.70,4138.0393119,N,07032.4388814,W,1,19,0.8,14.362,M,-29.746,M,0.0,*53
###2023-12-09 13:45:33.802620$GNGGA,184532.90,4138.0393128,N,07032.4388823,W,1,19,0.8,14.362,M,-29.746,M,0.0,*5B
###2023-12-09 13:45:34.002889$GNRMC,184533.10,A,4138.0393135,N,07032.4388841,W,0.04,243.17,091223,,,A*5B
###2023-12-09 13:45:34.005741$GNGGA,184533.10,4138.0393135,N,07032.4388841,W,1,19,0.8,14.360,M,-29.746,M,0.0,*58
###2023-12-09 13:45:34.007479$GPGSA,A,3,04,16,26,28,29,31,,,,,,,1.3,0.8,1.1*3C
###2023-12-09 13:45:34.009188$GLGSA,A,3,65,72,73,74,75,83,,,,,,,1.3,0.8,1.1*2C
###2023-12-09 13:45:34.010715$GAGSA,A,3,04,21,27,,,,,,,,,,1.3,0.8,1.1*2B
###2023-12-09 13:45:34.012296$GBGSA,A,3,12,24,25,35,,,,,,,,,1.3,0.8,1.1*2E
###2023-12-09 13:45:34.014638$GPGSV,2,1,06,04,51,304,44,16,72,228,44,26,78,041,38,28,34,089,44*78
###2023-12-09 13:45:34.016386$GPGSV,2,2,06,29,18,043,43,31,56,073,49,,,,,,,,*75
###2023-12-09 13:45:34.018726$GLGSV,2,1,06,65,42,313,45,72,57,214,37,73,18,056,44,74,56,022,37*6B
###2023-12-09 13:45:34.020470$GLGSV,2,2,06,75,47,279,47,83,16,042,37,,,,,,,,*63
###2023-12-09 13:45:34.022505$GAGSV,1,1,03,04,43,308,44,21,73,044,38,27,19,051,42,,,,*50
###2023-12-09 13:45:34.024843$GBGSV,1,1,04,12,19,123,42,24,59,051,46,25,54,281,41,35,16,052,35*66
###2023-12-09 13:45:34.026171$GNVTG,243.17,T,,M,0.04,N,0.07,K,A*23
###2023-12-09 13:45:34.027805$GNGST,184533.10,7.800,,,,0.200,0.120,0.320*61
###2023-12-09 13:45:34.029101$GNZDA,184533.10,09,12,2023,00,00*78
###2023-12-09 13:45:34.029741$GNEBP,,,,,,M*13
###2023-12-09 13:45:34.202353$GNGGA,184533.30,4138.0393137,N,07032.4388853,W,1,19,0.8,14.359,M,-29.746,M,0.0,*51
###2023-12-09 13:45:34.402404$GNGGA,184533.50,4138.0393128,N,07032.4388866,W,1,19,0.8,14.357,M,-29.746,M,0.0,*51
###2023-12-09 13:45:34.601239$GNGGA,184533.70,4138.0393136,N,07032.4388879,W,1,19,0.8,14.354,M,-29.746,M,0.0,*51
###2023-12-09 13:45:34.801672$GNGGA,184533.90,4138.0393128,N,07032.4388896,W,1,19,0.8,14.353,M,-29.746,M,0.0,*56
###2023-12-09 13:45:35.005374$GNRMC,184534.10,A,4138.0393128,N,07032.4388909,W,0.02,243.17,091223,,,A*5B
###2023-12-09 13:45:35.008259$GNGGA,184534.10,4138.0393128,N,07032.4388909,W,1,19,0.8,14.353,M,-29.746,M,0.0,*5E
###2023-12-09 13:45:35.009981$GPGSA,A,3,04,16,26,28,29,31,,,,,,,1.3,0.8,1.1*3C
###2023-12-09 13:45:35.011704$GLGSA,A,3,65,72,73,74,75,83,,,,,,,1.3,0.8,1.1*2C
###2023-12-09 13:45:35.013218$GAGSA,A,3,04,21,27,,,,,,,,,,1.3,0.8,1.1*2B
###2023-12-09 13:45:35.014807$GBGSA,A,3,12,24,25,35,,,,,,,,,1.3,0.8,1.1*2E
