###2023-12-09 13:37:12.016373$GLGSV,2,2,07,74,59,016,44,75,44,273,49,83,15,046,37,,,,*5A
###2023-12-09 13:37:12.018739$GAGSV,1,1,04,04,40,309,45,19,71,181,40,21,76,045,46,27,22,050,40*60
###2023-12-09 13:37:12.021078$GBGSV,2,1,06,12,16,125,42,14,28,189,40,24,62,047,48,25,52,277,47*6D
###2023-12-09 13:37:12.022848$GBGSV,2,2,06,33,44,216,44,35,16,055,43,,,,,,,,*6E
###2023-12-09 13:37:12.024175$GNVTG,150.57,T,,M,1.30,N,2.41,K,A*20
###2023-12-09 13:37:12.025793$GNGST,183711.10,6.400,,,,0.090,0.069,0.150*6B
###2023-12-09 13:37:12.027109$GNZDA,183711.10,09,12,2023,00,00*7D
###2023-12-09 13:37:12.027751$GNEBP,,,,,,M*13
###2023-12-09 13:37:12.195503$GNGGA,183711.30,4138.0320107,N,07032.3937301,W,1,25,0.6,13.374,M,-29.745,M,0.0,*50
###2023-12-09 13:37:12.395456$GNGGA,183711.50,4138.0319632,N,07032.3937797,W,1,24,0.6,13.412,M,-29.745,M,0.0,*50
###2023-12-09 13:37:12.593587$GNGGA,183711.70,4138.0319218,N,07032.3938282,W,1,24,0.6,13.428,M,-29.745,M,0.0,*59
###2023-12-09 13:37:12.795482$GNGGA,183711.90,4138.0318747,N,07032.3938379,W,1,24,0.6,13.421,M,-29.745,M,0.0,*55
###2023-12-09 13:37:12.998428$GNRMC,183712.10,A,4138.0318181,N,07032.3938148,W,1.07,162.23,091223,,,A*52
###2023-12-09 13:37:13.001314$GNGGA,183712.10,4138.0318181,N,07032.3938148,W,1,24,0.6,13.397,M,-29.745,M,0.0,*58
###2023-12-09 13:37:13.003135$GPGSA,A,3,04,16,26,27,28,29,31,,,,,,1.1,0.6,1.0*34
###2023-12-09 13:37:13.004927$GLGSA,A,3,65,71,72,73,74,75,83,,,,,,1.1,0.6,1.0*27
###2023-12-09 13:37:13.006514$GAGSA,A,3,04,19,21,27,,,,,,,,,1.1,0.6,1.0*2E
###2023-12-09 13:37:13.008242$GBGSA,A,3,12,14,24,25,33,35,,,,,,,1.1,0.6,1.0*26
###2023-12-09 13:37:13.010586$GPGSV,2,1,07,04,48,307,45,16,67,223,45,26,83,040,48,27,17,172,41*71
###2023-12-09 13:37:13.012632$GPGSV,2,2,07,28,37,085,44,29,20,046,43,31,59,067,47,,,,*4D
###2023-12-09 13:37:13.014979$GLGSV,2,1,07,65,39,317,45,71,21,175,42,72,61,219,46,73,21,053,46*65
###2023-12-09 13:37:13.017031$GLGSV,2,2,07,74,59,016,44,75,44,273,48,83,15,046,36,,,,*5A
###2023-12-09 13:37:13.019374$GAGSV,1,1,04,04,40,309,45,19,71,181,40,21,76,045,46,27,22,050,41*61
###2023-12-09 13:37:13.021715$GBGSV,2,1,06,12,16,125,42,14,28,189,42,24,62,047,48,25,52,277,47*6F
###2023-12-09 13:37:13.023468$GBGSV,2,2,06,33,44,216,45,35,16,055,44,,,,,,,,*68
###2023-12-09 13:37:13.024794$GNVTG,162.23,T,,M,1.07,N,1.98,K,A*21
###2023-12-09 13:37:13.026405$GNGST,183712.10,6.200,,,,0.089,0.069,0.150*66
###2023-12-09 13:37:13.027705$GNZDA,183712.10,09,12,2023,00,00*7E
###2023-12-09 13:37:13.028341$GNEBP,,,,,,M*13
###2023-12-09 13:37:13.198264$GNGGA,183712.30,4138.0317695,N,07032.3938259,W,1,24,0.6,13.382,M,-29.745,M,0.0,*50
###2023-12-09 13:37:13.397134$GNGGA,183712.50,4138.0317370,N,07032.3938897,W,1,24,0.6,13.419,M,-29.745,M,0.0,*55
###2023-12-09 13:37:13.593007$GNGGA,183712.70,4138.0317027,N,07032.3939389,W,1,24,0.6,13.431,M,-29.745,M,0.0,*59
###2023-12-09 13:37:13.794166$GNGGA,183712.90,4138.0316553,N,07032.3939384,W,1,24,0.6,13.413,M,-29.745,M,0.0,*5D
###2023-12-09 13:37:13.998005$GNRMC,183713.10,A,4138.0315972,N,07032.3939282,W,0.93,169.74,091223,,,A*5B
###2023-12-09 13:37:14.000875$GNGGA,183713.10,4138.0315972,N,07032.3939282,W,1,24,0.6,13.375,M,-29.745,M,0.0,*58
###2023-12-09 13:37:14.002681$GPGSA,A,3,04,16,26,27,28,29,31,,,,,,1.1,0.6,1.0*34
###2023-12-09 13:37:14.004459$GLGSA,A,3,65,71,72,73,74,75,83,,,,,,1.1,0.6,1.0*27
###2023-12-09 13:37:14.006040$GAGSA,A,3,04,19,21,27,,,,,,,,,1.1,0.6,1.0*2E
###2023-12-09 13:37:14.007766$GBGSA,A,3,12,14,24,25,33,35,,,,,,,1.1,0.6,1.0*26
###2023-12-09 13:37:14.010091$GPGSV,2,1,07,04,48,307,45,16,67,223,46,26,83,040,49,27,17,172,41*73
###2023-12-09 13:37:14.012137$GPGSV,2,2,07,28,37,085,45,29,20,046,43,31,59,067,48,,,,*43
###2023-12-09 13:37:14.014456$GLGSV,2,1,07,65,39,317,44,71,21,175,44,72,61,219,46,73,21,053,46*62
###2023-12-09 13:37:14.016504$GLGSV,2,2,07,74,59,016,42,75,44,273,46,83,15,046,37,,,,*53
###2023-12-09 13:37:14.018838$GAGSV,1,1,04,04,40,309,44,19,71,181,40,21,76,045,46,27,22,050,41*60
###2023-12-09 13:37:14.021150$GBGSV,2,1,06,12,16,125,44,14,28,189,42,24,62,047,48,25,52,277,46*68
###2023-12-09 13:37:14.022900$GBGSV,2,2,06,33,44,216,45,35,16,055,44,,,,,,,,*68
###2023-12-09 13:37:14.024216$GNVTG,169.74,T,,M,0.93,N,1.73,K,A*21
###2023-12-09 13:37:14.025821$GNGST,183713.10,6.100,,,,0.089,0.070,0.160*6F
###2023-12-09 13:37:14.027122$GNZDA,183713.10,09,12,2023,00,00*7F
###2023-12-09 13:37:14.027760$GNEBP,,,,,,M*13
###2023-12-09 13:37:14.197022$GNGGA,183713.30,4138.0315613,N,07032.3939689,W,1,24,0.6,13.391,M,-29.745,M,0.0,*57
###2023-12-09 13:37:14.393947$GNGGA,183713.50,4138.0315488,N,07032.3940571,W,1,24,0.6,13.433,M,-29.745,M,0.0,*54
###2023-12-09 13:37:14.595067$GNGGA,183713.70,4138.0315221,N,07032.3940991,W,1,24,0.6,13.419,M,-29.745,M,0.0,*59
###2023-12-09 13:37:14.795221$GNGGA,183713.90,4138.0314621,N,07032.3940749,W,1,24,0.6,13.373,M,-29.745,M,0.0,*52
###2023-12-09 13:37:14.998599$GNRMC,183714.10,A,4138.0314204,N,07032.3941019,W,1.07,259.54,091223,,,A*56
###2023-12-09 13:37:15.001464$GNGGA,183714.10,4138.0314204,N,07032.3941019,W,1,24,0.6,13.372,M,-29.745,M,0.0,*5C
###2023-12-09 13:37:15.003265$GPGSA,A,3,04,16,26,27,28,29,31,,,,,,1.1,0.6,1.0*34
###2023-12-09 13:37:15.005031$GLGSA,A,3,65,71,72,73,74,75,83,,,,,,1.1,0.6,1.0*27
###2023-12-09 13:37:15.006630$GAGSA,A,3,04,19,21,27,,,,,,,,,1.1,0.6,1.0*2E
###2023-12-09 13:37:15.008348$GBGSA,A,3,12,14,24,25,33,35,,,,,,,1.1,0.6,1.0*26
###2023-12-09 13:37:15.010692$GPGSV,2,1,07,04,48,307,43,16,67,223,46,26,83,040,48,27,17,172,44*71
###2023-12-09 13:37:15.012734$GPGSV,2,2,07,28,37,085,44,29,20,046,43,31,59,067,47,,,,*4D
###2023-12-09 13:37:15.015068$GLGSV,2,1,07,65,39,317,43,71,21,175,46,72,61,219,46,73,21,053,45*64
###2023-12-09 13:37:15.017107$GLGSV,2,2,07,74,59,016,42,75,44,273,44,83,15,046,36,,,,*50
###2023-12-09 13:37:15.019437$GAGSV,1,1,04,04,40,309,43,19,71,181,40,21,76,045,46,27,22,050,42*64
###2023-12-09 13:37:15.021759$GBGSV,2,1,06,12,16,125,44,14,28,189,40,24,62,047,48,25,52,277,44*68
###2023-12-09 13:37:15.023513$GBGSV,2,2,06,33,44,216,44,35,16,055,44,,,,,,,,*69
###2023-12-09 13:37:15.024836$GNVTG,259.54,T,,M,1.07,N,1.98,K,A*2A
###2023-12-09 13:37:15.026449$GNGST,183714.10,5.900,,,,0.088,0.070,0.160*62
###2023-12-09 13:37:15.027753$GNZDA,183714.10,09,12,2023,00,00*78
###2023-12-09 13:37:15.028391$GNEBP,,,,,,M*13
###2023-12-09 13:37:15.199390$GNGGA,183714.30,4138.0314221,N,07032.3942021,W,1,24,0.6,13.434,M,-29.745,M,0.0,*54
###2023-12-09 13:37:15.394056$GNGGA,183714.50,4138.0314092,N,07032.3942653,W,1,26,0.6,13.410,M,-29.745,M,0.0,*5F
###2023-12-09 13:37:15.594501$GNGGA,183714.70,4138.0313547,N,07032.3942537,W,1,26,0.6,13.403,M,-29.745,M,0.0,*54
###2023-12-09 13:37:15.796086$GNGGA,183714.90,4138.0313065,N,07032.3942599,W,1,25,0.6,13.381,M,-29.745,M,0.0,*55
###2023-12-09 13:37:16.001116$GNRMC,183715.10,A,4138.0312990,N,07032.3943330,W,1.22,272.10,091223,,,A*53
###2023-12-09 13:37:16.003997$GNGGA,183715.10,4138.0312990,N,07032.3943330,W,1,25,0.6,13.418,M,-29.745,M,0.0,*5D
###2023-12-09 13:37:16.005849$GPGSA,A,3,03,04,16,26,27,28,29,31,,,,,1.1,0.6,0.9*3F
###2023-12-09 13:37:16.007639$GLGSA,A,3,65,71,72,73,74,75,83,,,,,,1.1,0.6,0.9*2F
###2023-12-09 13:37:16.009222$GAGSA,A,3,04,19,21,27,,,,,,,,,1.1,0.6,0.9*26
###2023-12-09 13:37:16.010953$GBGSA,A,3,12,14,24,25,33,35,,,,,,,1.1,0.6,0.9*2E
###2023-12-09 13:37:16.013277$GPGSV,2,1,08,03,25,245,35,04,48,307,44,16,67,223,45,26,83,040,49*7D
###2023-12-09 13:37:16.015628$GPGSV,2,2,08,27,17,172,44,28,37,085,44,29,20,046,42,31,59,067,47*74
###2023-12-09 13:37:16.017965$GLGSV,2,1,07,65,39,317,44,71,21,175,47,72,61,219,46,73,21,053,44*63
###2023-12-09 13:37:16.020010$GLGSV,2,2,07,74,59,016,43,75,44,273,46,83,15,046,36,,,,*53
###2023-12-09 13:37:16.022325$GAGSV,1,1,04,04,40,309,43,19,71,181,41,21,76,045,46,27,22,050,41*66
###2023-12-09 13:37:16.024668$GBGSV,2,1,06,12,16,125,45,14,28,189,41,24,62,047,48,25,52,277,46*6A
###2023-12-09 13:37:16.026418$GBGSV,2,2,06,33,44,216,44,35,16,055,44,,,,,,,,*69
###2023-12-09 13:37:16.027754$GNVTG,272.10,T,,M,1.22,N,2.27,K,A*23
###2023-12-09 13:37:16.029361$GNGST,183715.10,6.100,,,,0.088,0.071,0.160*69
###2023-12-09 13:37:16.030656$GNZDA,183715.10,09,12,2023,00,00*79
###2023-12-09 13:37:16.031527$GNEBP,,,,,,M*13
###2023-12-09 13:37:16.199747$GNGGA,183715.30,4138.0312967,N,07032.3944150,W,1,25,0.6,13.414,M,-29.745,M,0.0,*58
###2023-12-09 13:37:16.396728$GNGGA,183715.50,4138.0312618,N,07032.3944375,W,1,26,0.6,13.416,M,-29.745,M,0.0,*5D
###2023-12-09 13:37:16.596756$GNGGA,183715.70,4138.0312073,N,07032.3944253,W,1,24,0.6,13.403,M,-29.745,M,0.0,*57
###2023-12-09 13:37:16.796180$GNGGA,183715.90,4138.0311818,N,07032.3944624,W,1,24,0.6,13.392,M,-29.745,M,0.0,*54
###2023-12-09 13:37:17.001623$GNRMC,183716.10,A,4138.0311812,N,07032.3945470,W,1.17,271.98,091223,,,A*58
###2023-12-09 13:37:17.004501$GNGGA,183716.10,4138.0311812,N,07032.3945470,W,1,24,0.6,13.434,M,-29.745,M,0.0,*5C
###2023-12-09 13:37:17.006286$GPGSA,A,3,04,16,26,27,28,29,31,,,,,,1.1,0.6,1.0*34
###2023-12-09 13:37:17.008073$GLGSA,A,3,65,71,72,73,74,75,83,,,,,,1.1,0.6,1.0*27
