###2023-12-09 12:23:23.444688$GPGSV,2,1,08,03,39,283,45,16,31,206,41,25,16,045,42,26,61,205,44*74
###2023-12-09 12:23:23.447107$GPGSV,2,2,08,28,62,049,40,29,24,079,45,31,73,343,37,32,35,131,47*75
###2023-12-09 12:23:23.449487$GLGSV,1,1,04,71,63,167,47,72,60,317,39,73,53,030,48,75,18,236,42*6A
###2023-12-09 12:23:23.451279$GAGSV,1,1,02,21,73,180,46,27,45,051,46,,,,,,,,*64
###2023-12-09 12:23:23.453632$GBGSV,1,1,04,14,60,201,44,25,29,249,40,26,39,055,46,33,64,266,41*61
###2023-12-09 12:23:23.454818$GNVTG,,T,,M,0.02,N,0.04,K,A*3B
###2023-12-09 12:23:23.456481$GNGST,172320.10,31.000,,,,0.110,0.099,0.250*56
###2023-12-09 12:23:23.457784$GNZDA,172320.10,09,12,2023,00,00*75
###2023-12-09 12:23:23.458434$GNEBP,,,,,,M*13
###2023-12-09 12:23:23.461276$GNGGA,172320.30,4138.0384581,N,07032.4360148,W,1,18,0.8,22.096,M,-29.746,M,0.0,*52
###2023-12-09 12:23:23.464137$GNGGA,172320.50,4138.0384632,N,07032.4360125,W,1,18,0.8,22.136,M,-29.746,M,0.0,*5F
###2023-12-09 12:23:23.467004$GNGGA,172320.70,4138.0384691,N,07032.4360100,W,1,18,0.8,22.167,M,-29.746,M,0.0,*57
###2023-12-09 12:23:23.469853$GNGGA,172320.90,4138.0384745,N,07032.4360078,W,1,18,0.8,22.201,M,-29.746,M,0.0,*5C
###2023-12-09 12:23:23.472266$GNRMC,172321.10,A,4138.0384810,N,07032.4360062,W,0.02,,091223,,,A*4B
###2023-12-09 12:23:23.475137$GNGGA,172321.10,4138.0384810,N,07032.4360062,W,1,18,0.8,22.237,M,-29.746,M,0.0,*54
###2023-12-09 12:23:23.477042$GPGSA,A,3,03,16,25,26,28,29,31,32,,,,,1.4,0.8,1.1*3A
###2023-12-09 12:23:23.478669$GLGSA,A,3,71,72,73,75,,,,,,,,,1.4,0.8,1.1*26
###2023-12-09 12:23:23.480143$GAGSA,A,3,21,27,,,,,,,,,,,1.4,0.8,1.1*28
###2023-12-09 12:23:23.481754$GBGSA,A,3,14,25,26,33,,,,,,,,,1.4,0.8,1.1*2B
###2023-12-09 12:23:23.484138$GPGSV,2,1,08,03,39,283,45,16,31,206,41,25,16,045,42,26,61,205,44*74
###2023-12-09 12:23:23.486500$GPGSV,2,2,08,28,62,049,40,29,24,079,44,31,73,343,37,32,35,131,47*74
###2023-12-09 12:23:23.488882$GLGSV,1,1,04,71,63,167,47,72,60,317,39,73,53,030,48,75,18,236,42*6A
###2023-12-09 12:23:23.490674$GAGSV,1,1,02,21,73,180,47,27,45,051,46,,,,,,,,*65
###2023-12-09 12:23:23.493013$GBGSV,1,1,04,14,60,201,44,25,29,249,41,26,39,055,46,33,64,266,41*60
###2023-12-09 12:23:23.494156$GNVTG,,T,,M,0.02,N,0.04,K,A*3B
###2023-12-09 12:23:23.495821$GNGST,172321.10,31.000,,,,0.110,0.098,0.240*57
###2023-12-09 12:23:23.497128$GNZDA,172321.10,09,12,2023,00,00*74
###2023-12-09 12:23:23.497785$GNEBP,,,,,,M*13
###2023-12-09 12:23:23.500608$GNGGA,172321.30,4138.0384857,N,07032.4360042,W,1,18,0.8,22.270,M,-29.746,M,0.0,*54
###2023-12-09 12:23:23.503463$GNGGA,172321.50,4138.0384905,N,07032.4360025,W,1,18,0.8,22.310,M,-29.746,M,0.0,*52
###2023-12-09 12:23:23.506299$GNGGA,172321.70,4138.0384944,N,07032.4360005,W,1,18,0.8,22.339,M,-29.746,M,0.0,*5C
###2023-12-09 12:23:23.509149$GNGGA,172321.90,4138.0384982,N,07032.4359975,W,1,18,0.8,22.372,M,-29.746,M,0.0,*53
###2023-12-09 12:23:23.511547$GNRMC,172322.10,A,4138.0385014,N,07032.4359957,W,0.02,,091223,,,A*40
###2023-12-09 12:23:23.514381$GNGGA,172322.10,4138.0385014,N,07032.4359957,W,1,18,0.8,22.403,M,-29.746,M,0.0,*5E
###2023-12-09 12:23:23.516307$GPGSA,A,3,03,16,25,26,28,29,31,32,,,,,1.4,0.8,1.1*3A
###2023-12-09 12:23:23.517961$GLGSA,A,3,71,72,73,75,,,,,,,,,1.4,0.8,1.1*26
###2023-12-09 12:23:23.519490$GAGSA,A,3,21,27,,,,,,,,,,,1.4,0.8,1.1*28
###2023-12-09 12:23:23.521124$GBGSA,A,3,14,25,26,33,,,,,,,,,1.4,0.8,1.1*2B
###2023-12-09 12:23:23.523509$GPGSV,2,1,08,03,39,283,45,16,31,206,41,25,16,045,42,26,61,205,44*74
###2023-12-09 12:23:23.525862$GPGSV,2,2,08,28,62,049,40,29,24,079,44,31,73,343,37,32,35,131,47*74
###2023-12-09 12:23:23.528252$GLGSV,1,1,04,71,63,167,47,72,60,317,39,73,53,030,48,75,18,236,42*6A
###2023-12-09 12:23:23.530036$GAGSV,1,1,02,21,73,180,47,27,45,051,46,,,,,,,,*65
###2023-12-09 12:23:23.532422$GBGSV,1,1,04,14,60,201,44,25,29,249,40,26,39,055,46,33,64,266,41*61
###2023-12-09 12:23:23.533588$GNVTG,,T,,M,0.02,N,0.04,K,A*3B
###2023-12-09 12:23:23.535304$GNGST,172322.10,31.000,,,,0.100,0.098,0.240*55
###2023-12-09 12:23:23.536900$GNZDA,172322.10,09,12,2023,00,00*77
###2023-12-09 12:23:23.537836$GNEBP,,,,,,M*13
###2023-12-09 12:23:23.540966$GNGGA,172322.30,4138.0385049,N,07032.4359926,W,1,18,0.8,22.436,M,-29.746,M,0.0,*54
###2023-12-09 12:23:23.544126$GNGGA,172322.50,4138.0385090,N,07032.4359903,W,1,18,0.8,22.466,M,-29.746,M,0.0,*54
###2023-12-09 12:23:23.547162$GNGGA,172322.70,4138.0385134,N,07032.4359871,W,1,18,0.8,22.499,M,-29.746,M,0.0,*5D
###2023-12-09 12:23:23.711500$GNGGA,172322.90,4138.0385178,N,07032.4359851,W,1,18,0.8,22.526,M,-29.746,M,0.0,*5C
###2023-12-09 12:23:23.914578$GNRMC,172323.10,A,4138.0385225,N,07032.4359821,W,0.02,,091223,,,A*41
###2023-12-09 12:23:23.917463$GNGGA,172323.10,4138.0385225,N,07032.4359821,W,1,18,0.8,22.560,M,-29.746,M,0.0,*5B
###2023-12-09 12:23:23.919360$GPGSA,A,3,03,16,25,26,28,29,31,32,,,,,1.4,0.8,1.1*3A
###2023-12-09 12:23:23.920966$GLGSA,A,3,71,72,73,75,,,,,,,,,1.4,0.8,1.1*26
###2023-12-09 12:23:23.922450$GAGSA,A,3,21,27,,,,,,,,,,,1.4,0.8,1.1*28
###2023-12-09 12:23:23.924080$GBGSA,A,3,14,25,26,33,,,,,,,,,1.4,0.8,1.1*2B
###2023-12-09 12:23:23.926422$GPGSV,2,1,08,03,39,283,44,16,31,206,41,25,16,045,42,26,61,205,44*75
###2023-12-09 12:23:23.928791$GPGSV,2,2,08,28,62,049,40,29,24,079,45,31,73,343,38,32,35,131,47*7A
###2023-12-09 12:23:23.931167$GLGSV,1,1,04,71,63,167,47,72,61,317,38,73,53,030,47,75,18,236,42*65
###2023-12-09 12:23:23.932934$GAGSV,1,1,02,21,73,180,47,27,45,051,46,,,,,,,,*65
###2023-12-09 12:23:23.935287$GBGSV,1,1,04,14,60,201,44,25,29,249,41,26,39,055,45,33,64,266,41*63
###2023-12-09 12:23:23.936438$GNVTG,,T,,M,0.02,N,0.04,K,A*3B
###2023-12-09 12:23:23.938095$GNGST,172323.10,31.000,,,,0.100,0.098,0.240*54
###2023-12-09 12:23:23.939415$GNZDA,172323.10,09,12,2023,00,00*76
###2023-12-09 12:23:23.940077$GNEBP,,,,,,M*13
###2023-12-09 12:23:24.113227$GNGGA,172323.30,4138.0385274,N,07032.4359796,W,1,18,0.8,22.590,M,-29.746,M,0.0,*51
###2023-12-09 12:23:24.313279$GNGGA,172323.50,4138.0385321,N,07032.4359767,W,1,18,0.8,22.616,M,-29.746,M,0.0,*55
###2023-12-09 12:23:24.512872$GNGGA,172323.70,4138.0385352,N,07032.4359731,W,1,18,0.8,22.647,M,-29.746,M,0.0,*54
###2023-12-09 12:23:24.715121$GNGGA,172323.90,4138.0385383,N,07032.4359690,W,1,18,0.8,22.671,M,-29.746,M,0.0,*59
###2023-12-09 12:23:24.917169$GNRMC,172324.10,A,4138.0385410,N,07032.4359664,W,0.00,,091223,,,A*4B
###2023-12-09 12:23:24.920270$GNGGA,172324.10,4138.0385410,N,07032.4359664,W,1,18,0.8,22.694,M,-29.746,M,0.0,*5B
###2023-12-09 12:23:24.922321$GPGSA,A,3,03,16,25,26,28,29,31,32,,,,,1.4,0.8,1.1*3A
###2023-12-09 12:23:24.924098$GLGSA,A,3,71,72,73,75,,,,,,,,,1.4,0.8,1.1*26
###2023-12-09 12:23:24.925729$GAGSA,A,3,21,27,,,,,,,,,,,1.4,0.8,1.1*28
###2023-12-09 12:23:24.927497$GBGSA,A,3,14,25,26,33,,,,,,,,,1.4,0.8,1.1*2B
###2023-12-09 12:23:24.930010$GPGSV,2,1,08,03,39,283,44,16,31,206,42,25,16,045,42,26,61,205,44*76
###2023-12-09 12:23:24.932531$GPGSV,2,2,08,28,62,049,40,29,24,079,45,31,73,343,38,32,35,131,47*7A
###2023-12-09 12:23:24.935049$GLGSV,1,1,04,71,63,167,46,72,61,317,38,73,53,030,47,75,18,236,42*64
###2023-12-09 12:23:24.936987$GAGSV,1,1,02,21,73,180,47,27,45,051,45,,,,,,,,*66
###2023-12-09 12:23:24.939505$GBGSV,1,1,04,14,60,201,44,25,29,249,41,26,39,055,46,33,64,266,41*60
###2023-12-09 12:23:24.940822$GNVTG,,T,,M,0.00,N,0.00,K,A*3D
###2023-12-09 12:23:24.942655$GNGST,172324.10,31.000,,,,0.100,0.098,0.230*54
###2023-12-09 12:23:24.944117$GNZDA,172324.10,09,12,2023,00,00*71
###2023-12-09 12:23:24.944917$GNEBP,,,,,,M*13
###2023-12-09 12:23:25.113215$GNGGA,172324.30,4138.0385448,N,07032.4359631,W,1,18,0.8,22.714,M,-29.746,M,0.0,*5D
###2023-12-09 12:23:25.314243$GNGGA,172324.50,4138.0385498,N,07032.4359608,W,1,18,0.8,22.733,M,-29.746,M,0.0,*59
###2023-12-09 12:23:25.513114$GNGGA,172324.70,4138.0385534,N,07032.4359585,W,1,18,0.8,22.756,M,-29.746,M,0.0,*59
###2023-12-09 12:23:25.713467$GNGGA,172324.90,4138.0385567,N,07032.4359579,W,1,18,0.8,22.775,M,-29.746,M,0.0,*53
###2023-12-09 12:23:25.914958$GNRMC,172325.10,A,4138.0385602,N,07032.4359561,W,0.02,,091223,,,A*4F
###2023-12-09 12:23:25.918044$GNGGA,172325.10,4138.0385602,N,07032.4359561,W,1,18,0.8,22.792,M,-29.746,M,0.0,*5A
###2023-12-09 12:23:25.920376$GPGSA,A,3,03,16,25,26,28,29,31,32,,,,,1.4,0.8,1.1*3A
###2023-12-09 12:23:25.922164$GLGSA,A,3,71,72,73,75,,,,,,,,,1.4,0.8,1.1*26
###2023-12-09 12:23:25.923809$GAGSA,A,3,21,27,,,,,,,,,,,1.4,0.8,1.1*28
###2023-12-09 12:23:25.925554$GBGSA,A,3,14,25,26,33,,,,,,,,,1.4,0.8,1.1*2B
###2023-12-09 12:23:25.928073$GPGSV,2,1,08,03,39,283,44,16,31,206,42,25,16,045,42,26,61,205,44*76
###2023-12-09 12:23:25.930597$GPGSV,2,2,08,28,62,049,41,29,24,079,45,31,73,343,38,32,35,131,48*74
###2023-12-09 12:23:25.933130$GLGSV,1,1,04,71,63,167,46,72,61,317,38,73,53,030,47,75,18,236,42*64
###2023-12-09 12:23:25.935076$GAGSV,1,1,02,21,73,180,47,27,45,051,45,,,,,,,,*66
###2023-12-09 12:23:25.937572$GBGSV,1,1,04,14,60,201,44,25,29,249,41,26,39,055,46,33,64,266,41*60
