###2023-12-09 13:00:22.562847$GNGGA,180021.70,4138.0254879,N,07032.3181411,W,1,24,0.6,13.206,M,-29.744,M,0.0,*56
###2023-12-09 13:00:22.762063$GNGGA,180021.90,4138.0254715,N,07032.3179992,W,1,24,0.6,13.226,M,-29.744,M,0.0,*5E
###2023-12-09 13:00:22.966134$GNRMC,180022.10,A,4138.0254391,N,07032.3178592,W,1.89,111.78,091223,,,A*5C
###2023-12-09 13:00:22.969017$GNGGA,180022.10,4138.0254391,N,07032.3178592,W,1,24,0.6,13.215,M,-29.744,M,0.0,*50
###2023-12-09 13:00:22.970896$GPGSA,A,3,03,04,16,26,28,29,31,32,,,,,1.1,0.6,0.9*3B
###2023-12-09 13:00:22.972616$GLGSA,A,3,65,71,72,73,74,75,,,,,,,1.1,0.6,0.9*24
###2023-12-09 13:00:22.974194$GAGSA,A,3,04,19,21,27,,,,,,,,,1.1,0.6,0.9*26
###2023-12-09 13:00:22.975848$GBGSA,A,3,14,24,25,26,33,,,,,,,,1.1,0.6,0.9*2F
###2023-12-09 13:00:22.978170$GPGSV,2,1,08,03,35,262,42,04,32,311,43,16,49,212,46,26,79,210,48*7A
###2023-12-09 13:00:22.980510$GPGSV,2,2,08,28,49,070,45,29,25,061,44,31,69,036,47,32,19,140,41*79
###2023-12-09 13:00:22.982845$GLGSV,2,1,06,65,24,327,43,71,41,173,45,72,73,271,46,73,36,041,45*61
###2023-12-09 13:00:22.984585$GLGSV,2,2,06,74,70,336,42,75,32,252,43,,,,,,,,*66
###2023-12-09 13:00:22.986911$GAGSV,1,1,04,04,29,312,43,19,84,219,40,21,86,124,46,27,33,048,42*69
###2023-12-09 13:00:22.989234$GBGSV,2,1,05,14,43,193,44,24,74,024,48,25,40,262,44,26,26,063,45*6A
###2023-12-09 13:00:22.990730$GBGSV,2,2,05,33,57,233,48,,,,,,,,,,,,*52
###2023-12-09 13:00:22.992052$GNVTG,111.78,T,,M,1.89,N,3.49,K,A*23
###2023-12-09 13:00:22.993700$GNGST,180022.10,18.000,,,,0.081,0.068,0.160*56
###2023-12-09 13:00:22.995004$GNZDA,180022.10,09,12,2023,00,00*79
###2023-12-09 13:00:22.995642$GNEBP,,,,,,M*13
###2023-12-09 13:00:23.161995$GNGGA,180022.30,4138.0253997,N,07032.3177374,W,1,24,0.6,13.206,M,-29.744,M,0.0,*5A
###2023-12-09 13:00:23.363037$GNGGA,180022.50,4138.0253690,N,07032.3175984,W,1,24,0.6,13.228,M,-29.744,M,0.0,*5F
###2023-12-09 13:00:23.563784$GNGGA,180022.70,4138.0253308,N,07032.3174405,W,1,24,0.6,13.232,M,-29.744,M,0.0,*57
###2023-12-09 13:00:23.764909$GNGGA,180022.90,4138.0252891,N,07032.3172896,W,1,24,0.6,13.217,M,-29.744,M,0.0,*54
###2023-12-09 13:00:23.966901$GNRMC,180023.10,A,4138.0252570,N,07032.3171402,W,2.24,102.44,091223,,,A*5A
###2023-12-09 13:00:23.969752$GNGGA,180023.10,4138.0252570,N,07032.3171402,W,1,24,0.6,13.226,M,-29.744,M,0.0,*5F
###2023-12-09 13:00:23.971616$GPGSA,A,3,03,04,16,26,28,29,31,32,,,,,1.1,0.6,0.9*3B
###2023-12-09 13:00:23.973330$GLGSA,A,3,65,71,72,73,74,75,,,,,,,1.1,0.6,0.9*24
###2023-12-09 13:00:23.974920$GAGSA,A,3,04,19,21,27,,,,,,,,,1.1,0.6,0.9*26
###2023-12-09 13:00:23.976571$GBGSA,A,3,14,24,25,26,33,,,,,,,,1.1,0.6,0.9*2F
###2023-12-09 13:00:23.978923$GPGSV,2,1,08,03,35,262,44,04,32,311,43,16,49,212,47,26,79,210,48*7D
###2023-12-09 13:00:23.981257$GPGSV,2,2,08,28,49,070,45,29,25,061,43,31,69,036,47,32,19,140,41*7E
###2023-12-09 13:00:23.983600$GLGSV,2,1,06,65,24,327,41,71,41,173,45,72,73,271,46,73,36,041,45*63
###2023-12-09 13:00:23.985345$GLGSV,2,2,06,74,70,336,42,75,32,252,45,,,,,,,,*60
###2023-12-09 13:00:23.987689$GAGSV,1,1,04,04,29,312,41,19,84,219,40,21,86,124,45,27,33,048,42*68
###2023-12-09 13:00:23.990015$GBGSV,2,1,05,14,43,193,43,24,74,024,49,25,40,262,45,26,26,063,44*6C
###2023-12-09 13:00:23.991478$GBGSV,2,2,05,33,57,233,49,,,,,,,,,,,,*53
###2023-12-09 13:00:23.992799$GNVTG,102.44,T,,M,2.24,N,4.14,K,A*25
###2023-12-09 13:00:23.994445$GNGST,180023.10,18.000,,,,0.081,0.068,0.160*57
###2023-12-09 13:00:23.995751$GNZDA,180023.10,09,12,2023,00,00*78
###2023-12-09 13:00:23.996390$GNEBP,,,,,,M*13
###2023-12-09 13:00:24.163031$GNGGA,180023.30,4138.0252248,N,07032.3169686,W,1,24,0.6,13.235,M,-29.744,M,0.0,*54
###2023-12-09 13:00:24.363420$GNGGA,180023.50,4138.0251816,N,07032.3167947,W,1,24,0.6,13.221,M,-29.744,M,0.0,*59
###2023-12-09 13:00:24.565184$GNGGA,180023.70,4138.0251560,N,07032.3166322,W,1,24,0.6,13.220,M,-29.744,M,0.0,*5E
###2023-12-09 13:00:24.764208$GNGGA,180023.90,4138.0251431,N,07032.3164540,W,1,24,0.6,13.244,M,-29.744,M,0.0,*57
###2023-12-09 13:00:24.965131$GNRMC,180024.10,A,4138.0251186,N,07032.3162661,W,2.64,103.91,091223,,,A*5B
###2023-12-09 13:00:24.968003$GNGGA,180024.10,4138.0251186,N,07032.3162661,W,1,24,0.6,13.229,M,-29.744,M,0.0,*5C
###2023-12-09 13:00:24.969863$GPGSA,A,3,03,04,16,26,28,29,31,32,,,,,1.1,0.6,0.9*3B
###2023-12-09 13:00:24.971601$GLGSA,A,3,65,71,72,73,74,75,,,,,,,1.1,0.6,0.9*24
###2023-12-09 13:00:24.973192$GAGSA,A,3,04,19,21,27,,,,,,,,,1.1,0.6,0.9*26
###2023-12-09 13:00:24.974852$GBGSA,A,3,14,24,25,26,33,,,,,,,,1.1,0.6,0.9*2F
###2023-12-09 13:00:24.977184$GPGSV,2,1,08,03,35,262,44,04,32,311,40,16,49,212,47,26,79,210,48*7E
###2023-12-09 13:00:24.979534$GPGSV,2,2,08,28,49,070,44,29,25,061,42,31,69,036,47,32,19,140,41*7E
###2023-12-09 13:00:24.981884$GLGSV,2,1,06,65,24,327,40,71,41,173,46,72,73,271,47,73,36,041,45*60
###2023-12-09 13:00:24.983644$GLGSV,2,2,06,74,70,336,42,75,32,252,46,,,,,,,,*63
###2023-12-09 13:00:24.985979$GAGSV,1,1,04,04,29,312,40,19,84,219,40,21,86,122,46,27,33,048,43*6D
###2023-12-09 13:00:24.988340$GBGSV,2,1,05,14,43,193,46,24,74,024,48,25,40,262,47,26,26,063,43*6D
###2023-12-09 13:00:24.989803$GBGSV,2,2,05,33,57,233,48,,,,,,,,,,,,*52
###2023-12-09 13:00:24.991146$GNVTG,103.91,T,,M,2.64,N,4.90,K,A*24
###2023-12-09 13:00:24.992797$GNGST,180024.10,18.000,,,,0.080,0.068,0.160*51
###2023-12-09 13:00:24.994087$GNZDA,180024.10,09,12,2023,00,00*7F
###2023-12-09 13:00:24.994739$GNEBP,,,,,,M*13
###2023-12-09 13:00:25.163006$GNGGA,180024.30,4138.0250955,N,07032.3160860,W,1,24,0.6,13.209,M,-29.744,M,0.0,*56
###2023-12-09 13:00:25.364012$GNGGA,180024.50,4138.0250948,N,07032.3159058,W,1,24,0.6,13.245,M,-29.744,M,0.0,*5D
###2023-12-09 13:00:25.563833$GNGGA,180024.70,4138.0250938,N,07032.3157074,W,1,24,0.6,13.241,M,-29.744,M,0.0,*5C
###2023-12-09 13:00:25.764089$GNGGA,180024.90,4138.0250707,N,07032.3155139,W,1,24,0.6,13.219,M,-29.744,M,0.0,*57
###2023-12-09 13:00:25.965265$GNRMC,180025.10,A,4138.0250526,N,07032.3153297,W,2.62,95.14,091223,,,A*6F
###2023-12-09 13:00:25.968158$GNGGA,180025.10,4138.0250526,N,07032.3153297,W,1,24,0.6,13.219,M,-29.744,M,0.0,*5E
###2023-12-09 13:00:25.970025$GPGSA,A,3,03,04,16,26,28,29,31,32,,,,,1.1,0.6,0.9*3B
###2023-12-09 13:00:25.971758$GLGSA,A,3,65,71,72,73,74,75,,,,,,,1.1,0.6,0.9*24
###2023-12-09 13:00:25.973351$GAGSA,A,3,04,19,21,27,,,,,,,,,1.1,0.6,0.9*26
###2023-12-09 13:00:25.975012$GBGSA,A,3,14,24,25,26,33,,,,,,,,1.1,0.6,0.9*2F
###2023-12-09 13:00:25.977342$GPGSV,2,1,08,03,35,262,44,04,32,311,42,16,49,212,48,26,79,210,48*73
###2023-12-09 13:00:25.979691$GPGSV,2,2,08,28,49,070,45,29,25,061,42,31,69,036,46,32,19,140,41*7E
###2023-12-09 13:00:25.982029$GLGSV,2,1,06,65,24,327,40,71,41,173,46,72,73,271,47,73,36,041,45*60
###2023-12-09 13:00:25.983810$GLGSV,2,2,06,74,70,336,42,75,32,252,46,,,,,,,,*63
###2023-12-09 13:00:25.986154$GAGSV,1,1,04,04,29,312,40,19,84,219,40,21,86,122,46,27,33,048,42*6C
###2023-12-09 13:00:25.988513$GBGSV,2,1,05,14,43,193,46,24,74,024,49,25,40,262,47,26,26,063,44*6B
###2023-12-09 13:00:25.989979$GBGSV,2,2,05,33,57,233,49,,,,,,,,,,,,*53
###2023-12-09 13:00:25.991291$GNVTG,95.14,T,,M,2.62,N,4.86,K,A*16
###2023-12-09 13:00:25.992946$GNGST,180025.10,18.000,,,,0.080,0.067,0.160*5F
###2023-12-09 13:00:25.994245$GNZDA,180025.10,09,12,2023,00,00*7E
###2023-12-09 13:00:25.994898$GNEBP,,,,,,M*13
###2023-12-09 13:00:26.164008$GNGGA,180025.30,4138.0250476,N,07032.3151308,W,1,24,0.6,13.250,M,-29.744,M,0.0,*50
###2023-12-09 13:00:26.364777$GNGGA,180025.50,4138.0250327,N,07032.3149286,W,1,24,0.6,13.242,M,-29.744,M,0.0,*58
###2023-12-09 13:00:26.565129$GNGGA,180025.70,4138.0249977,N,07032.3147386,W,1,24,0.6,13.233,M,-29.744,M,0.0,*54
###2023-12-09 13:00:26.764219$GNGGA,180025.90,4138.0249531,N,07032.3145528,W,1,24,0.6,13.247,M,-29.744,M,0.0,*57
###2023-12-09 13:00:26.966219$GNRMC,180026.10,A,4138.0249109,N,07032.3143562,W,2.84,108.18,091223,,,A*50
###2023-12-09 13:00:26.969134$GNGGA,180026.10,4138.0249109,N,07032.3143562,W,1,24,0.6,13.252,M,-29.744,M,0.0,*5F
###2023-12-09 13:00:26.971017$GPGSA,A,3,03,04,16,26,28,29,31,32,,,,,1.1,0.6,0.9*3B
###2023-12-09 13:00:26.972742$GLGSA,A,3,65,71,72,73,74,75,,,,,,,1.1,0.6,0.9*24
###2023-12-09 13:00:26.974573$GAGSA,A,3,04,19,21,27,,,,,,,,,1.1,0.6,0.9*26
###2023-12-09 13:00:26.976242$GBGSA,A,3,14,24,25,26,33,,,,,,,,1.1,0.6,0.9*2F
###2023-12-09 13:00:26.978583$GPGSV,2,1,08,03,35,262,43,04,32,311,43,16,49,212,47,26,79,210,48*7A
###2023-12-09 13:00:26.980943$GPGSV,2,2,08,28,49,070,45,29,25,061,44,31,69,036,47,32,19,140,41*79
###2023-12-09 13:00:26.983300$GLGSV,2,1,06,65,24,327,42,71,41,173,46,72,73,271,46,73,36,041,44*62
###2023-12-09 13:00:26.985041$GLGSV,2,2,06,74,70,336,42,75,32,252,44,,,,,,,,*61
###2023-12-09 13:00:26.987420$GAGSV,1,1,04,04,29,312,42,19,84,219,40,21,86,122,46,27,33,048,43*6F
###2023-12-09 13:00:26.989773$GBGSV,2,1,05,14,43,193,46,24,74,024,49,25,40,262,46,26,26,063,45*6B
###2023-12-09 13:00:26.991250$GBGSV,2,2,05,33,57,233,49,,,,,,,,,,,,*53
###2023-12-09 13:00:26.992577$GNVTG,108.18,T,,M,2.84,N,5.26,K,A*2C
