###2023-12-09 13:17:16.990797$GAGSA,A,3,04,19,21,27,,,,,,,,,1.2,0.7,1.0*2C
###2023-12-09 13:17:16.992536$GBGSA,A,3,14,24,25,26,33,35,,,,,,,1.2,0.7,1.0*23
###2023-12-09 13:17:16.994894$GPGSV,2,1,07,03,31,253,43,04,39,310,44,16,58,216,46,26,87,208,47*7C
###2023-12-09 13:17:16.996942$GPGSV,2,2,07,28,44,077,44,29,24,054,41,31,65,052,47,,,,*48
###2023-12-09 13:17:16.999301$GLGSV,2,1,06,65,31,324,44,71,32,174,43,72,70,240,45,73,29,047,44*6F
###2023-12-09 13:17:17.001061$GLGSV,2,2,06,74,65,358,44,75,38,261,47,,,,,,,,*62
###2023-12-09 13:17:17.003409$GAGSV,1,1,04,04,34,312,43,19,79,190,40,21,83,062,46,27,28,049,40*6A
###2023-12-09 13:17:17.005733$GBGSV,2,1,06,14,36,191,41,24,68,036,49,25,45,268,48,26,21,066,43*64
###2023-12-09 13:17:17.007487$GBGSV,2,2,06,33,52,224,47,35,16,063,44,,,,,,,,*69
###2023-12-09 13:17:17.008807$GNVTG,176.84,T,,M,3.56,N,6.59,K,A*25
###2023-12-09 13:17:17.010443$GNGST,181716.10,18.000,,,,0.100,0.069,0.170*5F
###2023-12-09 13:17:17.011736$GNZDA,181716.10,09,12,2023,00,00*78
###2023-12-09 13:17:17.012374$GNEBP,,,,,,M*13
###2023-12-09 13:17:17.178203$GNGGA,181716.30,4138.0633669,N,07032.2927198,W,1,24,0.7,13.020,M,-29.743,M,0.0,*5B
###2023-12-09 13:17:17.378340$GNGGA,181716.50,4138.0631738,N,07032.2927085,W,1,24,0.7,13.011,M,-29.743,M,0.0,*55
###2023-12-09 13:17:17.579183$GNGGA,181716.70,4138.0629877,N,07032.2927140,W,1,24,0.7,13.017,M,-29.743,M,0.0,*54
###2023-12-09 13:17:17.779165$GNGGA,181716.90,4138.0627946,N,07032.2927436,W,1,24,0.7,13.020,M,-29.743,M,0.0,*57
###2023-12-09 13:17:17.981784$GNRMC,181717.10,A,4138.0626036,N,07032.2927673,W,3.17,187.13,091223,,,A*5B
###2023-12-09 13:17:17.984666$GNGGA,181717.10,4138.0626036,N,07032.2927673,W,1,24,0.7,12.986,M,-29.743,M,0.0,*56
###2023-12-09 13:17:17.986462$GPGSA,A,3,03,04,16,26,28,29,31,,,,,,1.2,0.7,1.0*30
###2023-12-09 13:17:17.988193$GLGSA,A,3,65,71,72,73,74,75,,,,,,,1.2,0.7,1.0*2E
###2023-12-09 13:17:17.989781$GAGSA,A,3,04,19,21,27,,,,,,,,,1.2,0.7,1.0*2C
###2023-12-09 13:17:17.991505$GBGSA,A,3,14,24,25,26,33,35,,,,,,,1.2,0.7,1.0*23
###2023-12-09 13:17:17.993836$GPGSV,2,1,07,03,31,253,42,04,39,310,45,16,58,216,46,26,87,208,48*73
###2023-12-09 13:17:17.995884$GPGSV,2,2,07,28,44,077,46,29,24,054,41,31,65,052,47,,,,*4A
###2023-12-09 13:17:17.998216$GLGSV,2,1,06,65,31,324,42,71,32,174,42,72,70,240,46,73,29,047,42*6D
###2023-12-09 13:17:17.999978$GLGSV,2,2,06,74,65,358,43,75,38,261,47,,,,,,,,*65
###2023-12-09 13:17:18.002313$GAGSV,1,1,04,04,34,312,44,19,79,190,40,21,83,062,46,27,28,049,40*6D
###2023-12-09 13:17:18.004655$GBGSV,2,1,06,14,36,191,41,24,68,036,48,25,45,268,46,26,21,066,43*6B
###2023-12-09 13:17:18.006412$GBGSV,2,2,06,33,52,224,46,35,16,063,43,,,,,,,,*6F
###2023-12-09 13:17:18.007752$GNVTG,187.13,T,,M,3.17,N,5.87,K,A*20
###2023-12-09 13:17:18.009407$GNGST,181717.10,18.000,,,,0.100,0.069,0.170*5E
###2023-12-09 13:17:18.010714$GNZDA,181717.10,09,12,2023,00,00*79
###2023-12-09 13:17:18.011357$GNEBP,,,,,,M*13
###2023-12-09 13:17:18.178772$GNGGA,181717.30,4138.0624251,N,07032.2928138,W,1,24,0.7,13.007,M,-29.743,M,0.0,*53
###2023-12-09 13:17:18.378490$GNGGA,181717.50,4138.0622322,N,07032.2928643,W,1,24,0.7,13.004,M,-29.743,M,0.0,*5E
###2023-12-09 13:17:18.580607$GNGGA,181717.70,4138.0620493,N,07032.2928996,W,1,24,0.7,12.959,M,-29.743,M,0.0,*54
###2023-12-09 13:17:18.779591$GNGGA,181717.90,4138.0618675,N,07032.2929596,W,1,24,0.7,12.987,M,-29.743,M,0.0,*55
###2023-12-09 13:17:18.984864$GNRMC,181718.10,A,4138.0616770,N,07032.2930238,W,3.38,189.37,091223,,,A*5A
###2023-12-09 13:17:18.987733$GNGGA,181718.10,4138.0616770,N,07032.2930238,W,1,24,0.7,12.975,M,-29.743,M,0.0,*5E
###2023-12-09 13:17:18.989527$GPGSA,A,3,03,04,16,26,28,29,31,,,,,,1.2,0.7,1.0*30
###2023-12-09 13:17:18.991252$GLGSA,A,3,65,71,72,73,74,75,,,,,,,1.2,0.7,1.0*2E
###2023-12-09 13:17:18.992839$GAGSA,A,3,04,19,21,27,,,,,,,,,1.2,0.7,1.0*2C
###2023-12-09 13:17:18.994549$GBGSA,A,3,14,24,25,26,33,35,,,,,,,1.2,0.7,1.0*23
###2023-12-09 13:17:18.996891$GPGSV,2,1,07,03,31,253,43,04,39,310,44,16,58,216,47,26,87,208,48*72
###2023-12-09 13:17:18.998943$GPGSV,2,2,07,28,44,077,45,29,24,054,42,31,65,052,47,,,,*4A
###2023-12-09 13:17:19.001274$GLGSV,2,1,06,65,31,324,43,71,32,174,44,72,70,240,46,73,29,047,43*6B
###2023-12-09 13:17:19.003029$GLGSV,2,2,06,74,65,358,43,75,38,261,46,,,,,,,,*64
###2023-12-09 13:17:19.005340$GAGSV,1,1,04,04,34,312,44,19,79,190,40,21,83,062,46,27,28,049,40*6D
###2023-12-09 13:17:19.007669$GBGSV,2,1,06,14,36,191,41,24,68,036,48,25,45,268,47,26,21,066,44*6D
###2023-12-09 13:17:19.009416$GBGSV,2,2,06,33,52,224,47,35,16,063,44,,,,,,,,*69
###2023-12-09 13:17:19.010748$GNVTG,189.37,T,,M,3.38,N,6.26,K,A*2D
###2023-12-09 13:17:19.012389$GNGST,181718.10,18.000,,,,0.100,0.070,0.170*59
###2023-12-09 13:17:19.013678$GNZDA,181718.10,09,12,2023,00,00*76
###2023-12-09 13:17:19.014322$GNEBP,,,,,,M*13
###2023-12-09 13:17:19.178403$GNGGA,181718.30,4138.0614895,N,07032.2930539,W,1,24,0.7,12.952,M,-29.743,M,0.0,*59
###2023-12-09 13:17:19.378535$GNGGA,181718.50,4138.0613034,N,07032.2930877,W,1,24,0.7,12.961,M,-29.743,M,0.0,*5C
###2023-12-09 13:17:19.580583$GNGGA,181718.70,4138.0611096,N,07032.2931279,W,1,24,0.7,12.960,M,-29.743,M,0.0,*50
###2023-12-09 13:17:19.779666$GNGGA,181718.90,4138.0609178,N,07032.2931519,W,1,24,0.7,12.942,M,-29.743,M,0.0,*57
###2023-12-09 13:17:19.984731$GNRMC,181719.10,A,4138.0607292,N,07032.2931683,W,3.52,184.27,091223,,,A*57
###2023-12-09 13:17:19.987615$GNGGA,181719.10,4138.0607292,N,07032.2931683,W,1,24,0.7,12.956,M,-29.743,M,0.0,*52
###2023-12-09 13:17:19.989410$GPGSA,A,3,03,04,16,26,28,29,31,,,,,,1.2,0.7,1.0*30
###2023-12-09 13:17:19.991139$GLGSA,A,3,65,71,72,73,74,75,,,,,,,1.2,0.7,1.0*2E
###2023-12-09 13:17:19.992721$GAGSA,A,3,04,19,21,27,,,,,,,,,1.2,0.7,1.0*2C
###2023-12-09 13:17:19.994425$GBGSA,A,3,14,24,25,26,33,35,,,,,,,1.2,0.7,1.0*23
###2023-12-09 13:17:19.996753$GPGSV,2,1,07,03,31,253,42,04,39,310,44,16,58,216,46,26,87,208,48*72
###2023-12-09 13:17:19.998804$GPGSV,2,2,07,28,44,077,46,29,24,054,43,31,65,052,47,,,,*48
###2023-12-09 13:17:20.001177$GLGSV,2,1,06,65,31,324,43,71,32,174,42,72,70,240,45,73,29,047,44*69
###2023-12-09 13:17:20.002940$GLGSV,2,2,06,74,65,358,43,75,38,261,46,,,,,,,,*64
###2023-12-09 13:17:20.005261$GAGSV,1,1,04,04,34,312,43,19,79,190,40,21,83,062,46,27,28,049,41*6B
###2023-12-09 13:17:20.007597$GBGSV,2,1,06,14,36,191,40,24,68,036,48,25,45,268,47,26,21,066,44*6C
###2023-12-09 13:17:20.009347$GBGSV,2,2,06,33,52,224,46,35,16,063,43,,,,,,,,*6F
###2023-12-09 13:17:20.010682$GNVTG,184.27,T,,M,3.52,N,6.52,K,A*2E
###2023-12-09 13:17:20.012328$GNGST,181719.10,18.000,,,,0.100,0.070,0.170*58
###2023-12-09 13:17:20.013620$GNZDA,181719.10,09,12,2023,00,00*77
###2023-12-09 13:17:20.014261$GNEBP,,,,,,M*13
###2023-12-09 13:17:20.177467$GNGGA,181719.30,4138.0605327,N,07032.2931752,W,1,24,0.7,12.945,M,-29.743,M,0.0,*52
###2023-12-09 13:17:20.377486$GNGGA,181719.50,4138.0603461,N,07032.2931587,W,1,24,0.7,12.931,M,-29.743,M,0.0,*5E
###2023-12-09 13:17:20.585423$GNGGA,181719.70,4138.0601543,N,07032.2931486,W,1,24,0.7,12.955,M,-29.743,M,0.0,*5D
###2023-12-09 13:17:20.779999$GNGGA,181719.90,4138.0599625,N,07032.2931272,W,1,24,0.7,12.952,M,-29.743,M,0.0,*58
###2023-12-09 13:17:20.990048$GNRMC,181720.10,A,4138.0597773,N,07032.2930861,W,3.40,168.95,091223,,,A*56
###2023-12-09 13:17:20.993544$GNGGA,181720.10,4138.0597773,N,07032.2930861,W,1,24,0.7,12.941,M,-29.743,M,0.0,*5D
###2023-12-09 13:17:20.995727$GPGSA,A,3,03,04,16,26,28,29,31,,,,,,1.2,0.7,1.0*30
###2023-12-09 13:17:20.997791$GLGSA,A,3,65,71,72,73,74,75,,,,,,,1.2,0.7,1.0*2E
###2023-12-09 13:17:20.999705$GAGSA,A,3,04,19,21,27,,,,,,,,,1.2,0.7,1.0*2C
###2023-12-09 13:17:21.001770$GBGSA,A,3,14,24,25,26,33,35,,,,,,,1.2,0.7,1.0*23
###2023-12-09 13:17:21.004581$GPGSV,2,1,07,03,31,253,42,04,39,310,45,16,58,216,47,26,87,208,48*72
###2023-12-09 13:17:21.007041$GPGSV,2,2,07,28,44,077,45,29,24,054,42,31,65,052,47,,,,*4A
###2023-12-09 13:17:21.009846$GLGSV,2,1,06,65,31,324,44,71,32,174,43,72,70,240,46,73,29,047,42*6A
###2023-12-09 13:17:21.011957$GLGSV,2,2,06,74,65,358,43,75,38,261,47,,,,,,,,*65
###2023-12-09 13:17:21.014762$GAGSV,1,1,04,04,34,312,43,19,79,190,40,21,83,062,46,27,28,049,40*6A
###2023-12-09 13:17:21.017852$GBGSV,2,1,06,14,36,191,42,24,68,036,48,25,45,268,49,26,21,066,42*66
###2023-12-09 13:17:21.019981$GBGSV,2,2,06,33,52,224,48,35,16,063,42,,,,,,,,*60
###2023-12-09 13:17:21.021585$GNVTG,168.95,T,,M,3.40,N,6.30,K,A*22
###2023-12-09 13:17:21.023625$GNGST,181720.10,18.000,,,,0.100,0.070,0.170*52
###2023-12-09 13:17:21.025219$GNZDA,181720.10,09,12,2023,00,00*7D
###2023-12-09 13:17:21.025991$GNEBP,,,,,,M*13
###2023-12-09 13:17:21.183640$GNGGA,181720.30,4138.0595864,N,07032.2930468,W,1,24,0.7,12.938,M,-29.743,M,0.0,*5F
###2023-12-09 13:17:21.378383$GNGGA,181720.50,4138.0593958,N,07032.2930348,W,1,24,0.7,12.940,M,-29.743,M,0.0,*5B
###2023-12-09 13:17:21.578309$GNGGA,181720.70,4138.0592008,N,07032.2930359,W,1,24,0.7,12.938,M,-29.743,M,0.0,*5B
