###2023-12-09 13:46:18.032659$GBGSV,2,1,05,12,19,123,42,24,59,051,47,25,54,281,41,33,41,214,39*6D
###2023-12-09 13:46:18.034444$GBGSV,2,2,05,35,16,052,39,,,,,,,,,,,,*52
###2023-12-09 13:46:18.036072$GNVTG,243.17,T,,M,0.06,N,0.11,K,A*26
###2023-12-09 13:46:18.038027$GNGST,184617.10,6.600,,,,0.190,0.120,0.310*62
###2023-12-09 13:46:18.039610$GNZDA,184617.10,09,12,2023,00,00*7D
###2023-12-09 13:46:18.040391$GNEBP,,,,,,M*13
###2023-12-09 13:46:18.204784$GNGGA,184617.30,4138.0394815,N,07032.4388215,W,1,19,0.7,15.444,M,-29.746,M,0.0,*57
###2023-12-09 13:46:18.403730$GNGGA,184617.50,4138.0394811,N,07032.4388203,W,1,19,0.7,15.447,M,-29.746,M,0.0,*51
###2023-12-09 13:46:18.602129$GNGGA,184617.70,4138.0394814,N,07032.4388190,W,1,19,0.7,15.450,M,-29.746,M,0.0,*59
###2023-12-09 13:46:18.803366$GNGGA,184617.90,4138.0394822,N,07032.4388178,W,1,19,0.7,15.452,M,-29.746,M,0.0,*56
###2023-12-09 13:46:19.005868$GNRMC,184618.10,A,4138.0394821,N,07032.4388168,W,0.04,243.17,091223,,,A*58
###2023-12-09 13:46:19.009328$GNGGA,184618.10,4138.0394821,N,07032.4388168,W,1,19,0.7,15.454,M,-29.746,M,0.0,*55
###2023-12-09 13:46:19.011416$GPGSA,A,3,04,16,26,28,29,31,,,,,,,1.3,0.7,1.1*33
###2023-12-09 13:46:19.013395$GLGSA,A,3,65,72,73,75,83,,,,,,,,1.3,0.7,1.1*20
###2023-12-09 13:46:19.015235$GAGSA,A,3,04,21,27,,,,,,,,,,1.3,0.7,1.1*24
###2023-12-09 13:46:19.017224$GBGSA,A,3,12,24,25,33,35,,,,,,,,1.3,0.7,1.1*21
###2023-12-09 13:46:19.020037$GPGSV,2,1,06,04,51,304,46,16,72,228,42,26,78,041,41,28,34,089,46*70
###2023-12-09 13:46:19.022170$GPGSV,2,2,06,29,18,043,43,31,56,073,50,,,,,,,,*7D
###2023-12-09 13:46:19.024991$GLGSV,2,1,05,65,42,313,45,72,57,214,38,73,18,056,41,75,47,279,46*69
###2023-12-09 13:46:19.026787$GLGSV,2,2,05,83,16,042,35,,,,,,,,,,,,*5C
###2023-12-09 13:46:19.029237$GAGSV,1,1,03,04,43,308,45,21,72,043,40,27,19,051,43,,,,*59
###2023-12-09 13:46:19.032049$GBGSV,2,1,05,12,19,123,42,24,59,051,47,25,54,281,41,33,41,214,38*6C
###2023-12-09 13:46:19.033798$GBGSV,2,2,05,35,16,052,39,,,,,,,,,,,,*52
###2023-12-09 13:46:19.035405$GNVTG,243.17,T,,M,0.04,N,0.07,K,A*23
###2023-12-09 13:46:19.037348$GNGST,184618.10,7.000,,,,0.190,0.120,0.310*6A
###2023-12-09 13:46:19.038917$GNZDA,184618.10,09,12,2023,00,00*72
###2023-12-09 13:46:19.039686$GNEBP,,,,,,M*13
###2023-12-09 13:46:19.204639$GNGGA,184618.30,4138.0394834,N,07032.4388144,W,1,19,0.7,15.458,M,-29.746,M,0.0,*51
###2023-12-09 13:46:19.404272$GNGGA,184618.50,4138.0394860,N,07032.4388126,W,1,19,0.7,15.464,M,-29.746,M,0.0,*5D
###2023-12-09 13:46:19.602270$GNGGA,184618.70,4138.0394880,N,07032.4388117,W,1,19,0.7,15.468,M,-29.746,M,0.0,*5F
###2023-12-09 13:46:19.802402$GNGGA,184618.90,4138.0394891,N,07032.4388103,W,1,19,0.7,15.472,M,-29.746,M,0.0,*5F
###2023-12-09 13:46:20.009144$GNRMC,184619.10,A,4138.0394905,N,07032.4388078,W,0.04,243.17,091223,,,A*5E
###2023-12-09 13:46:20.012009$GNGGA,184619.10,4138.0394905,N,07032.4388078,W,1,19,0.7,15.478,M,-29.746,M,0.0,*5D
###2023-12-09 13:46:20.013740$GPGSA,A,3,04,16,26,28,29,31,,,,,,,1.3,0.7,1.1*33
###2023-12-09 13:46:20.015393$GLGSA,A,3,65,72,73,75,83,,,,,,,,1.3,0.7,1.1*20
###2023-12-09 13:46:20.016905$GAGSA,A,3,04,21,27,,,,,,,,,,1.3,0.7,1.1*24
###2023-12-09 13:46:20.018536$GBGSA,A,3,12,24,25,33,35,,,,,,,,1.3,0.7,1.1*21
###2023-12-09 13:46:20.020851$GPGSV,2,1,06,04,51,304,46,16,72,228,42,26,78,041,40,28,34,089,46*71
###2023-12-09 13:46:20.022594$GPGSV,2,2,06,29,18,043,43,31,56,073,49,,,,,,,,*75
###2023-12-09 13:46:20.024902$GLGSV,2,1,05,65,42,313,45,72,57,214,39,73,18,056,41,75,47,279,46*68
###2023-12-09 13:46:20.026345$GLGSV,2,2,05,83,16,042,35,,,,,,,,,,,,*5C
###2023-12-09 13:46:20.028364$GAGSV,1,1,03,04,43,308,45,21,72,043,40,27,19,051,43,,,,*59
###2023-12-09 13:46:20.030677$GBGSV,2,1,05,12,19,122,42,24,59,051,47,25,54,281,41,33,41,214,39*6C
###2023-12-09 13:46:20.032121$GBGSV,2,2,05,35,16,052,38,,,,,,,,,,,,*53
###2023-12-09 13:46:20.033424$GNVTG,243.17,T,,M,0.04,N,0.07,K,A*23
###2023-12-09 13:46:20.035030$GNGST,184619.10,6.600,,,,0.190,0.120,0.310*6C
###2023-12-09 13:46:20.036307$GNZDA,184619.10,09,12,2023,00,00*73
###2023-12-09 13:46:20.036938$GNEBP,,,,,,M*13
###2023-12-09 13:46:20.205313$GNGGA,184619.30,4138.0394941,N,07032.4388051,W,1,19,0.7,15.488,M,-29.746,M,0.0,*5B
###2023-12-09 13:46:20.404420$GNGGA,184619.50,4138.0394949,N,07032.4388048,W,1,19,0.7,15.491,M,-29.746,M,0.0,*55
###2023-12-09 13:46:20.603589$GNGGA,184619.70,4138.0394989,N,07032.4388021,W,1,19,0.7,15.495,M,-29.746,M,0.0,*50
###2023-12-09 13:46:20.802546$GNGGA,184619.90,4138.0395024,N,07032.4387996,W,1,19,0.7,15.499,M,-29.746,M,0.0,*57
###2023-12-09 13:46:21.010697$GNRMC,184620.10,A,4138.0395060,N,07032.4387977,W,0.02,243.17,091223,,,A*50
###2023-12-09 13:46:21.013553$GNGGA,184620.10,4138.0395060,N,07032.4387977,W,1,19,0.7,15.502,M,-29.746,M,0.0,*59
###2023-12-09 13:46:21.015283$GPGSA,A,3,04,16,26,28,29,31,,,,,,,1.3,0.7,1.1*33
###2023-12-09 13:46:21.016929$GLGSA,A,3,65,72,73,75,83,,,,,,,,1.3,0.7,1.1*20
###2023-12-09 13:46:21.018438$GAGSA,A,3,04,21,27,,,,,,,,,,1.3,0.7,1.1*24
###2023-12-09 13:46:21.020095$GBGSA,A,3,12,24,25,33,35,,,,,,,,1.3,0.7,1.1*21
###2023-12-09 13:46:21.022411$GPGSV,2,1,06,04,51,304,46,16,72,228,42,26,78,041,41,28,34,089,46*70
###2023-12-09 13:46:21.024165$GPGSV,2,2,06,29,18,043,43,31,56,073,50,,,,,,,,*7D
###2023-12-09 13:46:21.026486$GLGSV,2,1,05,65,42,313,45,72,57,214,39,73,18,056,41,75,47,279,46*68
###2023-12-09 13:46:21.027946$GLGSV,2,2,05,83,16,042,35,,,,,,,,,,,,*5C
###2023-12-09 13:46:21.029966$GAGSV,1,1,03,04,43,308,45,21,72,043,40,27,19,051,42,,,,*58
###2023-12-09 13:46:21.032292$GBGSV,2,1,05,12,19,122,42,24,59,051,47,25,54,281,41,33,41,214,39*6C
###2023-12-09 13:46:21.033736$GBGSV,2,2,05,35,16,052,38,,,,,,,,,,,,*53
###2023-12-09 13:46:21.035060$GNVTG,243.17,T,,M,0.02,N,0.04,K,A*26
###2023-12-09 13:46:21.036674$GNGST,184620.10,6.700,,,,0.180,0.120,0.310*66
###2023-12-09 13:46:21.037961$GNZDA,184620.10,09,12,2023,00,00*79
###2023-12-09 13:46:21.038609$GNEBP,,,,,,M*13
###2023-12-09 13:46:21.210234$GNGGA,184620.30,4138.0395086,N,07032.4387953,W,1,19,0.7,15.506,M,-29.746,M,0.0,*51
###2023-12-09 13:46:21.407097$GNGGA,184620.50,4138.0395107,N,07032.4387925,W,1,19,0.7,15.514,M,-29.746,M,0.0,*5D
###2023-12-09 13:46:21.604336$GNGGA,184620.70,4138.0395116,N,07032.4387911,W,1,19,0.7,15.515,M,-29.746,M,0.0,*59
###2023-12-09 13:46:21.806065$GNGGA,184620.90,4138.0395110,N,07032.4387892,W,1,19,0.7,15.522,M,-29.746,M,0.0,*5F
###2023-12-09 13:46:22.009316$GNRMC,184621.10,A,4138.0395091,N,07032.4387881,W,0.00,243.17,091223,,,A*55
###2023-12-09 13:46:22.012180$GNGGA,184621.10,4138.0395091,N,07032.4387881,W,1,19,0.7,15.525,M,-29.746,M,0.0,*5B
###2023-12-09 13:46:22.013898$GPGSA,A,3,04,16,26,28,29,31,,,,,,,1.3,0.7,1.1*33
###2023-12-09 13:46:22.015551$GLGSA,A,3,65,72,73,75,83,,,,,,,,1.3,0.7,1.1*20
###2023-12-09 13:46:22.017059$GAGSA,A,3,04,21,27,,,,,,,,,,1.3,0.7,1.1*24
###2023-12-09 13:46:22.018705$GBGSA,A,3,12,24,25,33,35,,,,,,,,1.3,0.7,1.1*21
###2023-12-09 13:46:22.021023$GPGSV,2,1,06,04,51,304,46,16,72,228,42,26,78,041,40,28,34,089,46*71
###2023-12-09 13:46:22.022764$GPGSV,2,2,06,29,18,043,43,31,56,073,49,,,,,,,,*75
###2023-12-09 13:46:22.025077$GLGSV,2,1,05,65,42,313,44,72,57,214,38,73,18,056,41,75,47,279,45*6B
###2023-12-09 13:46:22.026525$GLGSV,2,2,05,83,16,042,35,,,,,,,,,,,,*5C
###2023-12-09 13:46:22.028552$GAGSV,1,1,03,04,43,308,45,21,72,043,40,27,19,051,42,,,,*58
###2023-12-09 13:46:22.030885$GBGSV,2,1,05,12,19,122,42,24,59,051,47,25,54,281,41,33,41,214,38*6D
###2023-12-09 13:46:22.032329$GBGSV,2,2,05,35,16,052,38,,,,,,,,,,,,*53
###2023-12-09 13:46:22.033638$GNVTG,243.17,T,,M,0.00,N,0.00,K,A*20
###2023-12-09 13:46:22.035250$GNGST,184621.10,6.600,,,,0.180,0.120,0.310*66
###2023-12-09 13:46:22.036533$GNZDA,184621.10,09,12,2023,00,00*78
###2023-12-09 13:46:22.037167$GNEBP,,,,,,M*13
###2023-12-09 13:46:22.206541$GNGGA,184621.30,4138.0395097,N,07032.4387874,W,1,19,0.7,15.528,M,-29.746,M,0.0,*58
###2023-12-09 13:46:22.407078$GNGGA,184621.50,4138.0395098,N,07032.4387856,W,1,19,0.7,15.529,M,-29.746,M,0.0,*50
###2023-12-09 13:46:22.604341$GNGGA,184621.70,4138.0395091,N,07032.4387844,W,1,19,0.7,15.534,M,-29.746,M,0.0,*54
###2023-12-09 13:46:22.806514$GNGGA,184621.90,4138.0395088,N,07032.4387838,W,1,19,0.7,15.537,M,-29.746,M,0.0,*5A
###2023-12-09 13:46:23.008872$GNRMC,184622.10,A,4138.0395087,N,07032.4387827,W,0.06,243.17,091223,,,A*5B
###2023-12-09 13:46:23.011957$GNGGA,184622.10,4138.0395087,N,07032.4387827,W,1,19,0.7,15.542,M,-29.746,M,0.0,*52
###2023-12-09 13:46:23.013811$GPGSA,A,3,04,16,26,28,29,31,,,,,,,1.3,0.7,1.1*33
###2023-12-09 13:46:23.015572$GLGSA,A,3,65,72,73,75,83,,,,,,,,1.3,0.7,1.1*20
###2023-12-09 13:46:23.017092$GAGSA,A,3,04,21,27,,,,,,,,,,1.3,0.7,1.1*24
###2023-12-09 13:46:23.018744$GBGSA,A,3,12,24,25,33,35,,,,,,,,1.3,0.7,1.1*21
