###2023-12-09 13:04:39.972207$GNGGA,180439.10,4138.0580646,N,07032.3101025,W,1,24,0.6,13.270,M,-29.743,M,0.0,*5C
###2023-12-09 13:04:39.974079$GPGSA,A,3,03,04,16,26,28,29,31,32,,,,,1.1,0.6,0.9*3B
###2023-12-09 13:04:39.975823$GLGSA,A,3,65,71,72,73,74,75,,,,,,,1.1,0.6,0.9*24
###2023-12-09 13:04:39.977412$GAGSA,A,3,04,19,21,27,,,,,,,,,1.1,0.6,0.9*26
###2023-12-09 13:04:39.979071$GBGSA,A,3,14,24,25,26,33,,,,,,,,1.1,0.6,0.9*2F
###2023-12-09 13:04:39.981396$GPGSV,2,1,08,03,34,260,44,04,33,311,44,16,51,213,45,26,81,210,48*75
###2023-12-09 13:04:39.983749$GPGSV,2,2,08,28,48,071,42,29,25,060,41,31,68,040,47,32,18,140,40*7A
###2023-12-09 13:04:39.986084$GLGSV,2,1,06,65,26,327,42,71,40,173,45,72,73,265,46,73,35,042,45*66
###2023-12-09 13:04:39.987854$GLGSV,2,2,06,74,69,340,42,75,33,254,47,,,,,,,,*6C
###2023-12-09 13:04:39.990191$GAGSV,1,1,04,04,30,312,41,19,83,207,40,21,86,104,46,27,32,048,42*68
###2023-12-09 13:04:39.992543$GBGSV,2,1,05,14,42,192,45,24,72,028,48,25,42,263,46,26,25,063,42*64
###2023-12-09 13:04:39.994004$GBGSV,2,2,05,33,56,230,47,,,,,,,,,,,,*5F
###2023-12-09 13:04:39.995322$GNVTG,86.56,T,,M,3.34,N,6.19,K,A*14
###2023-12-09 13:04:39.996975$GNGST,180439.10,18.000,,,,0.083,0.068,0.160*5A
###2023-12-09 13:04:39.998270$GNZDA,180439.10,09,12,2023,00,00*77
###2023-12-09 13:04:39.998922$GNEBP,,,,,,M*13
###2023-12-09 13:04:40.164188$GNGGA,180439.30,4138.0580679,N,07032.3098603,W,1,24,0.6,13.259,M,-29.743,M,0.0,*5A
###2023-12-09 13:04:40.367080$GNGGA,180439.50,4138.0580844,N,07032.3096290,W,1,24,0.6,13.254,M,-29.743,M,0.0,*51
###2023-12-09 13:04:40.564444$GNGGA,180439.70,4138.0581380,N,07032.3093974,W,1,24,0.6,13.273,M,-29.743,M,0.0,*50
###2023-12-09 13:04:40.764462$GNGGA,180439.90,4138.0581679,N,07032.3091575,W,1,24,0.6,13.265,M,-29.743,M,0.0,*55
###2023-12-09 13:04:40.966590$GNRMC,180440.10,A,4138.0581444,N,07032.3089191,W,3.32,103.69,091223,,,A*55
###2023-12-09 13:04:40.969467$GNGGA,180440.10,4138.0581444,N,07032.3089191,W,1,24,0.6,13.261,M,-29.743,M,0.0,*5C
###2023-12-09 13:04:40.971338$GPGSA,A,3,03,04,16,26,28,29,31,32,,,,,1.1,0.6,0.9*3B
###2023-12-09 13:04:40.973059$GLGSA,A,3,65,71,72,73,74,75,,,,,,,1.1,0.6,0.9*24
###2023-12-09 13:04:40.974664$GAGSA,A,3,04,19,21,27,,,,,,,,,1.1,0.6,0.9*26
###2023-12-09 13:04:40.976320$GBGSA,A,3,14,24,25,26,33,,,,,,,,1.1,0.6,0.9*2F
###2023-12-09 13:04:40.978672$GPGSV,2,1,08,03,34,260,44,04,33,311,40,16,51,213,47,26,81,210,48*73
###2023-12-09 13:04:40.981020$GPGSV,2,2,08,28,48,071,45,29,25,060,41,31,68,040,47,32,18,140,40*7D
###2023-12-09 13:04:40.983375$GLGSV,2,1,06,65,26,327,39,71,40,173,45,72,73,265,46,73,35,042,45*6A
###2023-12-09 13:04:40.985134$GLGSV,2,2,06,74,69,340,43,75,33,254,46,,,,,,,,*6C
###2023-12-09 13:04:40.987481$GAGSV,1,1,04,04,30,312,41,19,83,207,40,21,86,104,46,27,32,048,43*69
###2023-12-09 13:04:40.989823$GBGSV,2,1,05,14,42,192,44,24,72,028,47,25,42,263,45,26,25,063,41*6A
###2023-12-09 13:04:40.991294$GBGSV,2,2,05,33,56,230,47,,,,,,,,,,,,*5F
###2023-12-09 13:04:40.992622$GNVTG,103.69,T,,M,3.32,N,6.16,K,A*2D
###2023-12-09 13:04:40.994273$GNGST,180440.10,18.000,,,,0.083,0.068,0.160*54
###2023-12-09 13:04:40.995580$GNZDA,180440.10,09,12,2023,00,00*79
###2023-12-09 13:04:40.996223$GNEBP,,,,,,M*13
###2023-12-09 13:04:41.164711$GNGGA,180440.30,4138.0581165,N,07032.3086899,W,1,24,0.6,13.267,M,-29.743,M,0.0,*50
###2023-12-09 13:04:41.364785$GNGGA,180440.50,4138.0581255,N,07032.3084513,W,1,24,0.6,13.277,M,-29.743,M,0.0,*5A
###2023-12-09 13:04:41.565431$GNGGA,180440.70,4138.0581327,N,07032.3082094,W,1,24,0.6,13.267,M,-29.743,M,0.0,*51
###2023-12-09 13:04:41.768042$GNGGA,180440.90,4138.0580926,N,07032.3079665,W,1,24,0.6,13.274,M,-29.743,M,0.0,*5B
###2023-12-09 13:04:41.967757$GNRMC,180441.10,A,4138.0580418,N,07032.3077212,W,3.36,101.84,091223,,,A*50
###2023-12-09 13:04:41.970638$GNGGA,180441.10,4138.0580418,N,07032.3077212,W,1,24,0.6,13.271,M,-29.743,M,0.0,*5D
###2023-12-09 13:04:41.972495$GPGSA,A,3,03,04,16,26,28,29,31,32,,,,,1.1,0.6,0.9*3B
###2023-12-09 13:04:41.974204$GLGSA,A,3,65,71,72,73,74,75,,,,,,,1.1,0.6,0.9*24
###2023-12-09 13:04:41.975801$GAGSA,A,3,04,19,21,27,,,,,,,,,1.1,0.6,0.9*26
###2023-12-09 13:04:41.977446$GBGSA,A,3,14,24,25,26,33,,,,,,,,1.1,0.6,0.9*2F
###2023-12-09 13:04:41.979782$GPGSV,2,1,08,03,34,260,44,04,33,311,42,16,51,213,47,26,81,210,47*7E
###2023-12-09 13:04:41.982112$GPGSV,2,2,08,28,48,071,44,29,25,060,41,31,68,040,46,32,18,140,40*7D
###2023-12-09 13:04:41.984456$GLGSV,2,1,06,65,26,327,39,71,40,173,46,72,73,265,46,73,35,042,45*69
###2023-12-09 13:04:41.986193$GLGSV,2,2,06,74,69,340,42,75,33,254,47,,,,,,,,*6C
###2023-12-09 13:04:41.988524$GAGSV,1,1,04,04,30,312,41,19,83,207,40,21,86,104,46,27,32,048,42*68
###2023-12-09 13:04:41.990867$GBGSV,2,1,05,14,42,192,45,24,72,028,48,25,42,263,47,26,25,063,41*66
###2023-12-09 13:04:41.992323$GBGSV,2,2,05,33,56,230,48,,,,,,,,,,,,*50
###2023-12-09 13:04:41.993644$GNVTG,101.84,T,,M,3.36,N,6.23,K,A*2E
###2023-12-09 13:04:41.995299$GNGST,180441.10,18.000,,,,0.083,0.068,0.160*55
###2023-12-09 13:04:41.996588$GNZDA,180441.10,09,12,2023,00,00*78
###2023-12-09 13:04:41.997224$GNEBP,,,,,,M*13
###2023-12-09 13:04:42.166115$GNGGA,180441.30,4138.0580343,N,07032.3074798,W,1,24,0.6,13.283,M,-29.743,M,0.0,*5F
###2023-12-09 13:04:42.366054$GNGGA,180441.50,4138.0580399,N,07032.3072260,W,1,24,0.6,13.285,M,-29.743,M,0.0,*5C
###2023-12-09 13:04:42.567170$GNGGA,180441.70,4138.0580080,N,07032.3069708,W,1,24,0.6,13.268,M,-29.743,M,0.0,*57
###2023-12-09 13:04:42.766283$GNGGA,180441.90,4138.0579822,N,07032.3067256,W,1,24,0.6,13.283,M,-29.743,M,0.0,*5A
###2023-12-09 13:04:42.968497$GNRMC,180442.10,A,4138.0579764,N,07032.3064725,W,3.52,91.46,091223,,,A*6A
###2023-12-09 13:04:42.971983$GNGGA,180442.10,4138.0579764,N,07032.3064725,W,1,24,0.6,13.300,M,-29.743,M,0.0,*54
###2023-12-09 13:04:42.974241$GPGSA,A,3,03,04,16,26,28,29,31,32,,,,,1.1,0.6,0.9*3B
###2023-12-09 13:04:42.976348$GLGSA,A,3,65,71,72,73,74,75,,,,,,,1.1,0.6,0.9*24
###2023-12-09 13:04:42.978277$GAGSA,A,3,04,19,21,27,,,,,,,,,1.1,0.6,0.9*26
###2023-12-09 13:04:42.980289$GBGSA,A,3,14,24,25,26,33,,,,,,,,1.1,0.6,0.9*2F
###2023-12-09 13:04:42.983136$GPGSV,2,1,08,03,34,260,44,04,33,311,42,16,51,213,47,26,81,210,48*71
###2023-12-09 13:04:42.985964$GPGSV,2,2,08,28,48,071,43,29,25,060,40,31,68,040,46,32,18,140,42*79
###2023-12-09 13:04:42.988836$GLGSV,2,1,06,65,26,327,40,71,40,173,45,72,73,265,46,73,35,042,45*64
###2023-12-09 13:04:42.990974$GLGSV,2,2,06,74,69,340,43,75,33,254,48,,,,,,,,*62
###2023-12-09 13:04:42.993795$GAGSV,1,1,04,04,30,312,40,19,83,207,40,21,86,104,45,27,32,048,42*6A
###2023-12-09 13:04:42.996633$GBGSV,2,1,05,14,42,192,45,24,72,028,47,25,42,263,46,26,25,063,41*68
###2023-12-09 13:04:42.998398$GBGSV,2,2,05,33,56,230,47,,,,,,,,,,,,*5F
###2023-12-09 13:04:42.999975$GNVTG,91.46,T,,M,3.52,N,6.52,K,A*1C
###2023-12-09 13:04:43.001975$GNGST,180442.10,18.000,,,,0.083,0.068,0.160*56
###2023-12-09 13:04:43.003563$GNZDA,180442.10,09,12,2023,00,00*7B
###2023-12-09 13:04:43.004345$GNEBP,,,,,,M*13
###2023-12-09 13:04:43.165168$GNGGA,180442.30,4138.0579728,N,07032.3062139,W,1,24,0.6,13.268,M,-29.743,M,0.0,*5C
###2023-12-09 13:04:43.365705$GNGGA,180442.50,4138.0579710,N,07032.3059649,W,1,24,0.6,13.247,M,-29.743,M,0.0,*54
###2023-12-09 13:04:43.565930$GNGGA,180442.70,4138.0579858,N,07032.3057217,W,1,24,0.6,13.286,M,-29.743,M,0.0,*59
###2023-12-09 13:04:43.771077$GNGGA,180442.90,4138.0579999,N,07032.3054627,W,1,24,0.6,13.313,M,-29.743,M,0.0,*52
###2023-12-09 13:04:43.967256$GNRMC,180443.10,A,4138.0579896,N,07032.3052101,W,3.23,91.19,091223,,,A*60
###2023-12-09 13:04:43.970715$GNGGA,180443.10,4138.0579896,N,07032.3052101,W,1,24,0.6,13.241,M,-29.743,M,0.0,*56
###2023-12-09 13:04:43.972947$GPGSA,A,3,03,04,16,26,28,29,31,32,,,,,1.1,0.6,0.9*3B
###2023-12-09 13:04:43.975019$GLGSA,A,3,65,71,72,73,74,75,,,,,,,1.1,0.6,0.9*24
###2023-12-09 13:04:43.976918$GAGSA,A,3,04,19,21,27,,,,,,,,,1.1,0.6,0.9*26
###2023-12-09 13:04:43.978948$GBGSA,A,3,14,24,25,26,33,,,,,,,,1.1,0.6,0.9*2F
###2023-12-09 13:04:43.981759$GPGSV,2,1,08,03,34,260,46,04,33,311,41,16,51,213,49,26,81,210,49*7F
###2023-12-09 13:04:43.984581$GPGSV,2,2,08,28,48,071,44,29,25,060,41,31,68,040,47,32,18,140,45*79
###2023-12-09 13:04:43.987706$GLGSV,2,1,06,65,26,327,38,71,39,173,48,72,73,265,47,73,35,042,44*68
###2023-12-09 13:04:43.989834$GLGSV,2,2,06,74,69,340,41,75,33,254,48,,,,,,,,*60
###2023-12-09 13:04:43.992654$GAGSV,1,1,04,04,30,312,39,19,83,207,41,21,86,104,46,27,32,048,43*67
###2023-12-09 13:04:43.995478$GBGSV,2,1,05,14,42,192,46,24,72,028,46,25,42,263,46,26,25,063,41*6A
###2023-12-09 13:04:43.997235$GBGSV,2,2,05,33,56,230,47,,,,,,,,,,,,*5F
###2023-12-09 13:04:43.998809$GNVTG,91.19,T,,M,3.23,N,5.98,K,A*15
###2023-12-09 13:04:44.000809$GNGST,180443.10,19.000,,,,0.082,0.068,0.160*57
###2023-12-09 13:04:44.002368$GNZDA,180443.10,09,12,2023,00,00*7A
###2023-12-09 13:04:44.003164$GNEBP,,,,,,M*13
