###2023-12-09 13:36:53.018154$GLGSV,2,1,06,65,39,317,43,71,21,175,38,72,61,219,44,73,21,053,42*69
###2023-12-09 13:36:53.019948$GLGSV,2,2,06,74,59,016,42,75,44,273,46,,,,,,,,*6B
###2023-12-09 13:36:53.022283$GAGSV,1,1,04,04,40,310,44,19,71,181,40,21,76,045,46,27,22,050,40*69
###2023-12-09 13:36:53.024628$GBGSV,2,1,06,12,16,125,42,14,28,189,41,24,62,047,48,25,52,277,48*63
###2023-12-09 13:36:53.026376$GBGSV,2,2,06,33,44,216,46,35,16,055,43,,,,,,,,*6C
###2023-12-09 13:36:53.027712$GNVTG,178.21,T,,M,1.98,N,3.67,K,A*2C
###2023-12-09 13:36:53.029322$GNGST,183652.10,5.400,,,,0.091,0.068,0.150*6E
###2023-12-09 13:36:53.030628$GNZDA,183652.10,09,12,2023,00,00*7B
###2023-12-09 13:36:53.031268$GNEBP,,,,,,M*13
###2023-12-09 13:36:53.198500$GNGGA,183652.30,4138.0421496,N,07032.4022379,W,1,25,0.6,13.418,M,-29.745,M,0.0,*55
###2023-12-09 13:36:53.397105$GNGGA,183652.50,4138.0420132,N,07032.4022719,W,1,25,0.6,13.430,M,-29.745,M,0.0,*51
###2023-12-09 13:36:53.597268$GNGGA,183652.70,4138.0418710,N,07032.4022888,W,1,25,0.6,13.411,M,-29.745,M,0.0,*5A
###2023-12-09 13:36:53.796668$GNGGA,183652.90,4138.0417435,N,07032.4022673,W,1,25,0.6,13.400,M,-29.745,M,0.0,*55
###2023-12-09 13:36:54.004818$GNRMC,183653.10,A,4138.0416076,N,07032.4022438,W,2.64,175.67,091223,,,A*51
###2023-12-09 13:36:54.007697$GNGGA,183653.10,4138.0416076,N,07032.4022438,W,1,25,0.6,13.410,M,-29.745,M,0.0,*52
###2023-12-09 13:36:54.009544$GPGSA,A,3,03,04,16,26,27,28,29,31,,,,,1.0,0.6,0.8*3F
###2023-12-09 13:36:54.011265$GLGSA,A,3,65,71,72,73,74,75,,,,,,,1.0,0.6,0.8*24
###2023-12-09 13:36:54.012841$GAGSA,A,3,04,19,21,27,,,,,,,,,1.0,0.6,0.8*26
###2023-12-09 13:36:54.014554$GBGSA,A,3,12,14,24,25,33,35,,,,,,,1.0,0.6,0.8*2E
###2023-12-09 13:36:54.016890$GPGSV,2,1,08,03,26,246,42,04,47,307,45,16,67,223,45,26,83,040,48*72
###2023-12-09 13:36:54.019227$GPGSV,2,2,08,27,17,172,41,28,37,085,43,29,20,046,43,31,59,067,47*77
###2023-12-09 13:36:54.021556$GLGSV,2,1,06,65,39,317,43,71,21,175,38,72,61,219,44,73,21,053,42*69
###2023-12-09 13:36:54.023310$GLGSV,2,2,06,74,59,016,42,75,44,273,48,,,,,,,,*65
###2023-12-09 13:36:54.025633$GAGSV,1,1,04,04,40,309,43,19,71,181,40,21,76,045,46,27,22,050,41*67
###2023-12-09 13:36:54.027972$GBGSV,2,1,06,12,16,125,39,14,28,189,38,24,62,047,47,25,52,277,48*6E
###2023-12-09 13:36:54.029725$GBGSV,2,2,06,33,44,216,45,35,16,055,42,,,,,,,,*6E
###2023-12-09 13:36:54.031059$GNVTG,175.67,T,,M,2.64,N,4.90,K,A*2C
###2023-12-09 13:36:54.032674$GNGST,183653.10,5.300,,,,0.091,0.068,0.150*68
###2023-12-09 13:36:54.033963$GNZDA,183653.10,09,12,2023,00,00*7A
###2023-12-09 13:36:54.034610$GNEBP,,,,,,M*13
###2023-12-09 13:36:54.198686$GNGGA,183653.30,4138.0414606,N,07032.4022279,W,1,25,0.6,13.403,M,-29.745,M,0.0,*52
###2023-12-09 13:36:54.397742$GNGGA,183653.50,4138.0413172,N,07032.4021950,W,1,25,0.6,13.388,M,-29.745,M,0.0,*50
###2023-12-09 13:36:54.597745$GNGGA,183653.70,4138.0411768,N,07032.4021441,W,1,25,0.6,13.390,M,-29.745,M,0.0,*59
###2023-12-09 13:36:54.799488$GNGGA,183653.90,4138.0410348,N,07032.4020848,W,1,25,0.6,13.393,M,-29.745,M,0.0,*57
###2023-12-09 13:36:55.001572$GNRMC,183654.10,A,4138.0408969,N,07032.4020135,W,2.64,157.28,091223,,,A*5F
###2023-12-09 13:36:55.004456$GNGGA,183654.10,4138.0408969,N,07032.4020135,W,1,25,0.6,13.380,M,-29.745,M,0.0,*59
###2023-12-09 13:36:55.006322$GPGSA,A,3,03,04,16,26,27,28,29,31,,,,,1.0,0.6,0.8*3F
###2023-12-09 13:36:55.008045$GLGSA,A,3,65,71,72,73,74,75,,,,,,,1.0,0.6,0.8*24
###2023-12-09 13:36:55.009636$GAGSA,A,3,04,19,21,27,,,,,,,,,1.0,0.6,0.8*26
###2023-12-09 13:36:55.011348$GBGSA,A,3,12,14,24,25,33,35,,,,,,,1.0,0.6,0.8*2E
###2023-12-09 13:36:55.013657$GPGSV,2,1,08,03,26,246,43,04,47,307,46,16,67,223,46,26,83,040,48*73
###2023-12-09 13:36:55.016001$GPGSV,2,2,08,27,17,172,42,28,37,085,44,29,20,046,43,31,59,067,47*73
###2023-12-09 13:36:55.018327$GLGSV,2,1,06,65,39,317,43,71,21,175,39,72,61,219,45,73,21,053,43*68
###2023-12-09 13:36:55.020088$GLGSV,2,2,06,74,59,016,43,75,44,273,47,,,,,,,,*6B
###2023-12-09 13:36:55.022418$GAGSV,1,1,04,04,40,309,44,19,71,181,40,21,76,045,46,27,22,050,42*63
###2023-12-09 13:36:55.024756$GBGSV,2,1,06,12,16,125,39,14,28,189,40,24,62,047,48,25,52,277,47*61
###2023-12-09 13:36:55.026507$GBGSV,2,2,06,33,44,216,46,35,16,055,44,,,,,,,,*6B
###2023-12-09 13:36:55.027880$GNVTG,157.28,T,,M,2.64,N,4.90,K,A*27
###2023-12-09 13:36:55.029503$GNGST,183654.10,5.100,,,,0.090,0.068,0.150*6C
###2023-12-09 13:36:55.030808$GNZDA,183654.10,09,12,2023,00,00*7D
###2023-12-09 13:36:55.031451$GNEBP,,,,,,M*13
###2023-12-09 13:36:55.198345$GNGGA,183654.30,4138.0407639,N,07032.4019333,W,1,25,0.6,13.379,M,-29.745,M,0.0,*56
###2023-12-09 13:36:55.400512$GNGGA,183654.50,4138.0406320,N,07032.4018403,W,1,25,0.6,13.374,M,-29.745,M,0.0,*54
###2023-12-09 13:36:55.596068$GNGGA,183654.70,4138.0405085,N,07032.4017456,W,1,25,0.6,13.379,M,-29.745,M,0.0,*5B
###2023-12-09 13:36:55.799653$GNGGA,183654.90,4138.0403841,N,07032.4016412,W,1,25,0.6,13.383,M,-29.745,M,0.0,*57
###2023-12-09 13:36:56.000841$GNRMC,183655.10,A,4138.0402735,N,07032.4015241,W,2.49,137.89,091223,,,A*57
###2023-12-09 13:36:56.003730$GNGGA,183655.10,4138.0402735,N,07032.4015241,W,1,25,0.6,13.376,M,-29.745,M,0.0,*5A
###2023-12-09 13:36:56.005585$GPGSA,A,3,03,04,16,26,27,28,29,31,,,,,1.0,0.6,0.8*3F
###2023-12-09 13:36:56.007320$GLGSA,A,3,65,71,72,73,74,75,,,,,,,1.0,0.6,0.8*24
###2023-12-09 13:36:56.008897$GAGSA,A,3,04,19,21,27,,,,,,,,,1.0,0.6,0.8*26
###2023-12-09 13:36:56.010617$GBGSA,A,3,12,14,24,25,33,35,,,,,,,1.0,0.6,0.8*2E
###2023-12-09 13:36:56.012946$GPGSV,2,1,08,03,26,246,41,04,47,307,44,16,67,223,47,26,83,040,47*7D
###2023-12-09 13:36:56.015277$GPGSV,2,2,08,27,17,172,39,28,37,085,44,29,20,046,44,31,59,067,45*7A
###2023-12-09 13:36:56.017601$GLGSV,2,1,06,65,39,317,43,71,21,175,40,72,61,219,46,73,21,053,44*62
###2023-12-09 13:36:56.019350$GLGSV,2,2,06,74,59,016,41,75,44,273,47,,,,,,,,*69
###2023-12-09 13:36:56.021666$GAGSV,1,1,04,04,40,309,44,19,71,181,40,21,76,045,46,27,22,050,42*63
###2023-12-09 13:36:56.024005$GBGSV,2,1,06,12,16,125,38,14,28,189,40,24,62,047,48,25,52,277,46*61
###2023-12-09 13:36:56.025747$GBGSV,2,2,06,33,44,216,46,35,16,055,43,,,,,,,,*6C
###2023-12-09 13:36:56.027074$GNVTG,137.89,T,,M,2.49,N,4.61,K,A*2B
###2023-12-09 13:36:56.028681$GNGST,183655.10,5.600,,,,0.090,0.068,0.150*6A
###2023-12-09 13:36:56.029972$GNZDA,183655.10,09,12,2023,00,00*7C
###2023-12-09 13:36:56.030620$GNEBP,,,,,,M*13
###2023-12-09 13:36:56.197207$GNGGA,183655.30,4138.0401708,N,07032.4013970,W,1,26,0.6,13.370,M,-29.745,M,0.0,*5F
###2023-12-09 13:36:56.394197$GNGGA,183655.50,4138.0400697,N,07032.4012742,W,1,26,0.6,13.378,M,-29.745,M,0.0,*59
###2023-12-09 13:36:56.595899$GNGGA,183655.70,4138.0399643,N,07032.4011519,W,1,26,0.6,13.383,M,-29.745,M,0.0,*5E
###2023-12-09 13:36:56.795980$GNGGA,183655.90,4138.0398649,N,07032.4010222,W,1,26,0.6,13.377,M,-29.745,M,0.0,*5E
###2023-12-09 13:36:57.005273$GNRMC,183656.10,A,4138.0397772,N,07032.4008921,W,2.39,134.71,091223,,,A*5E
###2023-12-09 13:36:57.008149$GNGGA,183656.10,4138.0397772,N,07032.4008921,W,1,26,0.6,13.376,M,-29.745,M,0.0,*53
###2023-12-09 13:36:57.009991$GPGSA,A,3,03,04,16,26,27,28,29,31,,,,,1.0,0.6,0.8*3F
###2023-12-09 13:36:57.011819$GLGSA,A,3,65,71,72,73,74,75,83,,,,,,1.0,0.6,0.8*2F
###2023-12-09 13:36:57.013399$GAGSA,A,3,04,19,21,27,,,,,,,,,1.0,0.6,0.8*26
###2023-12-09 13:36:57.015122$GBGSA,A,3,12,14,24,25,33,35,,,,,,,1.0,0.6,0.8*2E
###2023-12-09 13:36:57.017439$GPGSV,2,1,08,03,26,246,41,04,47,307,44,16,67,223,46,26,83,040,48*73
###2023-12-09 13:36:57.019769$GPGSV,2,2,08,27,17,172,41,28,37,085,44,29,20,046,43,31,59,067,45*72
###2023-12-09 13:36:57.022090$GLGSV,2,1,07,65,39,317,43,71,21,175,38,72,61,219,46,73,21,053,45*6D
###2023-12-09 13:36:57.024137$GLGSV,2,2,07,74,59,016,41,75,44,273,47,83,15,046,35,,,,*53
###2023-12-09 13:36:57.026459$GAGSV,1,1,04,04,40,309,45,19,71,181,40,21,76,045,46,27,22,050,42*62
###2023-12-09 13:36:57.028789$GBGSV,2,1,06,12,16,125,38,14,28,189,41,24,62,047,48,25,52,277,48*6E
###2023-12-09 13:36:57.030531$GBGSV,2,2,06,33,44,216,47,35,16,055,44,,,,,,,,*6A
###2023-12-09 13:36:57.031863$GNVTG,134.71,T,,M,2.39,N,4.43,K,A*28
###2023-12-09 13:36:57.033472$GNGST,183656.10,5.900,,,,0.090,0.068,0.150*66
###2023-12-09 13:36:57.035025$GNZDA,183656.10,09,12,2023,00,00*7F
###2023-12-09 13:36:57.035676$GNEBP,,,,,,M*13
###2023-12-09 13:36:57.203967$GNGGA,183656.30,4138.0396779,N,07032.4007615,W,1,26,0.6,13.387,M,-29.745,M,0.0,*52
###2023-12-09 13:36:57.393919$GNGGA,183656.50,4138.0395815,N,07032.4006311,W,1,26,0.6,13.385,M,-29.745,M,0.0,*50
###2023-12-09 13:36:57.594045$GNGGA,183656.70,4138.0394871,N,07032.4005033,W,1,26,0.6,13.386,M,-29.745,M,0.0,*52
###2023-12-09 13:36:57.795861$GNGGA,183656.90,4138.0393883,N,07032.4003731,W,1,26,0.6,13.398,M,-29.745,M,0.0,*5A
###2023-12-09 13:36:57.999538$GNRMC,183657.10,A,4138.0392930,N,07032.4002449,W,2.45,136.48,091223,,,A*58
###2023-12-09 13:36:58.002369$GNGGA,183657.10,4138.0392930,N,07032.4002449,W,1,26,0.6,13.391,M,-29.745,M,0.0,*5F
###2023-12-09 13:36:58.004215$GPGSA,A,3,03,04,16,26,27,28,29,31,,,,,1.0,0.6,0.8*3F
