###2023-12-09 13:06:38.976023$GPGSA,A,3,03,04,16,26,28,29,31,32,,,,,1.1,0.6,0.9*3B
###2023-12-09 13:06:38.977771$GLGSA,A,3,65,71,72,73,74,75,,,,,,,1.1,0.6,0.9*24
###2023-12-09 13:06:38.979389$GAGSA,A,3,04,19,21,27,,,,,,,,,1.1,0.6,0.9*26
###2023-12-09 13:06:38.981117$GBGSA,A,3,14,24,25,26,33,35,,,,,,,1.1,0.6,0.9*29
###2023-12-09 13:06:38.983480$GPGSV,2,1,08,03,34,259,43,04,34,311,42,16,52,213,46,26,82,210,48*7A
###2023-12-09 13:06:38.985828$GPGSV,2,2,08,28,48,072,46,29,25,059,42,31,68,042,47,32,17,141,44*7C
###2023-12-09 13:06:38.988187$GLGSV,2,1,06,65,26,326,41,71,39,173,46,72,73,261,45,73,34,043,44*6F
###2023-12-09 13:06:38.989936$GLGSV,2,2,06,74,69,343,43,75,33,255,44,,,,,,,,*6C
###2023-12-09 13:06:38.992292$GAGSV,1,1,04,04,31,312,41,19,83,203,40,21,85,092,46,27,31,048,41*60
###2023-12-09 13:06:38.994652$GBGSV,2,1,06,14,41,192,44,24,72,029,49,25,42,264,43,26,24,064,43*60
###2023-12-09 13:06:38.996408$GBGSV,2,2,06,33,56,229,47,35,15,067,45,,,,,,,,*66
###2023-12-09 13:06:38.997737$GNVTG,261.27,T,,M,3.58,N,6.62,K,A*2F
###2023-12-09 13:06:38.999414$GNGST,180638.10,18.000,,,,0.081,0.067,0.150*57
###2023-12-09 13:06:39.000706$GNZDA,180638.10,09,12,2023,00,00*74
###2023-12-09 13:06:39.001345$GNEBP,,,,,,M*13
###2023-12-09 13:06:39.170347$GNGGA,180638.30,4138.0716060,N,07032.3271417,W,1,25,0.6,12.962,M,-29.743,M,0.0,*5B
###2023-12-09 13:06:39.369906$GNGGA,180638.50,4138.0715884,N,07032.3274097,W,1,25,0.6,12.957,M,-29.743,M,0.0,*53
###2023-12-09 13:06:39.568164$GNGGA,180638.70,4138.0715567,N,07032.3276731,W,1,25,0.6,12.963,M,-29.743,M,0.0,*5F
###2023-12-09 13:06:39.769344$GNGGA,180638.90,4138.0715335,N,07032.3279368,W,1,25,0.6,12.975,M,-29.743,M,0.0,*50
###2023-12-09 13:06:39.968584$GNRMC,180639.10,A,4138.0715260,N,07032.3282017,W,3.60,268.17,091223,,,A*50
###2023-12-09 13:06:39.971468$GNGGA,180639.10,4138.0715260,N,07032.3282017,W,1,25,0.6,12.979,M,-29.743,M,0.0,*5B
###2023-12-09 13:06:39.973330$GPGSA,A,3,03,04,16,26,28,29,31,32,,,,,1.1,0.6,0.9*3B
###2023-12-09 13:06:39.975062$GLGSA,A,3,65,71,72,73,74,75,,,,,,,1.1,0.6,0.9*24
###2023-12-09 13:06:39.976646$GAGSA,A,3,04,19,21,27,,,,,,,,,1.1,0.6,0.9*26
###2023-12-09 13:06:39.978360$GBGSA,A,3,14,24,25,26,33,35,,,,,,,1.1,0.6,0.9*29
###2023-12-09 13:06:39.980702$GPGSV,2,1,08,03,34,259,43,04,34,311,43,16,52,213,47,26,82,210,48*7A
###2023-12-09 13:06:39.983058$GPGSV,2,2,08,28,48,072,45,29,25,059,42,31,68,042,47,32,17,141,44*7F
###2023-12-09 13:06:39.985399$GLGSV,2,1,06,65,26,326,40,71,39,173,46,72,73,261,45,73,34,043,44*6E
###2023-12-09 13:06:39.987161$GLGSV,2,2,06,74,69,343,42,75,33,255,43,,,,,,,,*6A
###2023-12-09 13:06:39.989501$GAGSV,1,1,04,04,31,312,40,19,83,203,40,21,85,092,45,27,31,048,41*62
###2023-12-09 13:06:39.991873$GBGSV,2,1,06,14,41,192,43,24,72,029,48,25,42,264,43,26,24,064,42*67
###2023-12-09 13:06:39.993631$GBGSV,2,2,06,33,56,229,47,35,15,067,44,,,,,,,,*67
###2023-12-09 13:06:39.994973$GNVTG,268.17,T,,M,3.60,N,6.66,K,A*2A
###2023-12-09 13:06:39.996629$GNGST,180639.10,18.000,,,,0.081,0.067,0.150*56
###2023-12-09 13:06:39.997927$GNZDA,180639.10,09,12,2023,00,00*75
###2023-12-09 13:06:39.998578$GNEBP,,,,,,M*13
###2023-12-09 13:06:40.166820$GNGGA,180639.30,4138.0715281,N,07032.3284654,W,1,25,0.6,12.967,M,-29.743,M,0.0,*5E
###2023-12-09 13:06:40.367635$GNGGA,180639.50,4138.0715366,N,07032.3287228,W,1,25,0.6,12.972,M,-29.743,M,0.0,*58
###2023-12-09 13:06:40.568174$GNGGA,180639.70,4138.0715430,N,07032.3289724,W,1,25,0.6,12.970,M,-29.743,M,0.0,*5B
###2023-12-09 13:06:40.766993$GNGGA,180639.90,4138.0715539,N,07032.3292178,W,1,25,0.6,12.959,M,-29.743,M,0.0,*53
###2023-12-09 13:06:40.969551$GNRMC,180640.10,A,4138.0715762,N,07032.3294589,W,3.29,278.99,091223,,,A*56
###2023-12-09 13:06:40.972426$GNGGA,180640.10,4138.0715762,N,07032.3294589,W,1,25,0.6,12.959,M,-29.743,M,0.0,*55
###2023-12-09 13:06:40.974274$GPGSA,A,3,03,04,16,26,28,29,31,32,,,,,1.1,0.6,0.9*3B
###2023-12-09 13:06:40.975998$GLGSA,A,3,65,71,72,73,74,75,,,,,,,1.1,0.6,0.9*24
###2023-12-09 13:06:40.977575$GAGSA,A,3,04,19,21,27,,,,,,,,,1.1,0.6,0.9*26
###2023-12-09 13:06:40.979296$GBGSA,A,3,14,24,25,26,33,35,,,,,,,1.1,0.6,0.9*29
###2023-12-09 13:06:40.981624$GPGSV,2,1,08,03,34,259,42,04,34,311,41,16,52,213,46,26,82,210,48*78
###2023-12-09 13:06:40.983965$GPGSV,2,2,08,28,48,072,45,29,25,059,42,31,68,042,47,32,17,141,43*78
###2023-12-09 13:06:40.986290$GLGSV,2,1,06,65,26,326,39,71,39,173,46,72,73,261,45,73,34,043,44*60
###2023-12-09 13:06:40.988040$GLGSV,2,2,06,74,69,343,42,75,33,255,41,,,,,,,,*68
###2023-12-09 13:06:40.990355$GAGSV,1,1,04,04,31,312,39,19,83,203,40,21,85,092,46,27,31,048,41*6F
###2023-12-09 13:06:40.992693$GBGSV,2,1,06,14,41,192,45,24,72,029,48,25,42,264,43,26,24,064,42*61
###2023-12-09 13:06:40.994446$GBGSV,2,2,06,33,56,229,48,35,15,067,43,,,,,,,,*6F
###2023-12-09 13:06:40.995782$GNVTG,278.99,T,,M,3.29,N,6.08,K,A*28
###2023-12-09 13:06:40.997423$GNGST,180640.10,18.000,,,,0.081,0.067,0.150*58
###2023-12-09 13:06:40.998716$GNZDA,180640.10,09,12,2023,00,00*7B
###2023-12-09 13:06:40.999351$GNEBP,,,,,,M*13
###2023-12-09 13:06:41.167075$GNGGA,180640.30,4138.0716033,N,07032.3297008,W,1,25,0.6,12.966,M,-29.743,M,0.0,*54
###2023-12-09 13:06:41.366693$GNGGA,180640.50,4138.0716200,N,07032.3299399,W,1,25,0.6,12.967,M,-29.743,M,0.0,*54
###2023-12-09 13:06:41.567398$GNGGA,180640.70,4138.0716373,N,07032.3301808,W,1,25,0.6,12.964,M,-29.743,M,0.0,*53
###2023-12-09 13:06:41.767959$GNGGA,180640.90,4138.0716644,N,07032.3304224,W,1,25,0.6,12.973,M,-29.743,M,0.0,*5B
###2023-12-09 13:06:41.968557$GNRMC,180641.10,A,4138.0716977,N,07032.3306697,W,3.34,279.46,091223,,,A*57
###2023-12-09 13:06:41.971427$GNGGA,180641.10,4138.0716977,N,07032.3306697,W,1,25,0.6,12.977,M,-29.743,M,0.0,*57
###2023-12-09 13:06:41.973289$GPGSA,A,3,03,04,16,26,28,29,31,32,,,,,1.1,0.6,0.9*3B
###2023-12-09 13:06:41.975018$GLGSA,A,3,65,71,72,73,74,75,,,,,,,1.1,0.6,0.9*24
###2023-12-09 13:06:41.976603$GAGSA,A,3,04,19,21,27,,,,,,,,,1.1,0.6,0.9*26
###2023-12-09 13:06:41.978315$GBGSA,A,3,14,24,25,26,33,35,,,,,,,1.1,0.6,0.9*29
###2023-12-09 13:06:41.980659$GPGSV,2,1,08,03,34,259,41,04,34,311,42,16,52,213,46,26,82,210,48*78
###2023-12-09 13:06:41.983003$GPGSV,2,2,08,28,48,072,45,29,25,059,41,31,68,042,47,32,17,141,43*7B
###2023-12-09 13:06:41.985337$GLGSV,2,1,06,65,26,326,38,71,39,173,46,72,73,261,45,73,34,043,43*66
###2023-12-09 13:06:41.987095$GLGSV,2,2,06,74,69,343,42,75,33,255,41,,,,,,,,*68
###2023-12-09 13:06:41.989419$GAGSV,1,1,04,04,31,312,39,19,83,203,40,21,85,092,46,27,31,048,41*6F
###2023-12-09 13:06:41.991769$GBGSV,2,1,06,14,41,192,45,24,72,029,49,25,42,264,44,26,24,064,41*64
###2023-12-09 13:06:41.993517$GBGSV,2,2,06,33,56,229,48,35,15,067,44,,,,,,,,*68
###2023-12-09 13:06:41.994851$GNVTG,279.46,T,,M,3.34,N,6.19,K,A*27
###2023-12-09 13:06:41.996501$GNGST,180641.10,18.000,,,,0.081,0.068,0.150*56
###2023-12-09 13:06:41.997789$GNZDA,180641.10,09,12,2023,00,00*7A
###2023-12-09 13:06:41.998428$GNEBP,,,,,,M*13
###2023-12-09 13:06:42.167134$GNGGA,180641.30,4138.0717212,N,07032.3309151,W,1,25,0.6,12.971,M,-29.743,M,0.0,*58
###2023-12-09 13:06:42.367590$GNGGA,180641.50,4138.0717360,N,07032.3311623,W,1,25,0.6,12.963,M,-29.743,M,0.0,*52
###2023-12-09 13:06:42.567048$GNGGA,180641.70,4138.0717612,N,07032.3314109,W,1,25,0.6,12.972,M,-29.743,M,0.0,*5A
###2023-12-09 13:06:42.767444$GNGGA,180641.90,4138.0717890,N,07032.3316553,W,1,25,0.6,12.970,M,-29.743,M,0.0,*5B
###2023-12-09 13:06:42.968482$GNRMC,180642.10,A,4138.0718190,N,07032.3318939,W,3.21,278.45,091223,,,A*59
###2023-12-09 13:06:42.971352$GNGGA,180642.10,4138.0718190,N,07032.3318939,W,1,25,0.6,12.966,M,-29.743,M,0.0,*5F
###2023-12-09 13:06:42.973220$GPGSA,A,3,03,04,16,26,28,29,31,32,,,,,1.1,0.6,0.9*3B
###2023-12-09 13:06:42.974953$GLGSA,A,3,65,71,72,73,74,75,,,,,,,1.1,0.6,0.9*24
###2023-12-09 13:06:42.976547$GAGSA,A,3,04,19,21,27,,,,,,,,,1.1,0.6,0.9*26
###2023-12-09 13:06:42.978268$GBGSA,A,3,14,24,25,26,33,35,,,,,,,1.1,0.6,0.9*29
###2023-12-09 13:06:42.980617$GPGSV,2,1,08,03,34,259,42,04,34,311,41,16,52,213,45,26,82,210,48*7B
###2023-12-09 13:06:42.982972$GPGSV,2,2,08,28,48,072,45,29,25,059,41,31,68,042,48,32,17,141,44*73
###2023-12-09 13:06:42.985322$GLGSV,2,1,06,65,26,326,39,71,39,173,46,72,73,261,45,73,34,043,46*62
###2023-12-09 13:06:42.987343$GLGSV,2,2,06,74,69,343,42,75,33,255,41,,,,,,,,*68
###2023-12-09 13:06:42.989694$GAGSV,1,1,04,04,31,312,39,19,83,203,40,21,85,092,46,27,31,048,41*6F
###2023-12-09 13:06:42.992053$GBGSV,2,1,06,14,41,192,45,24,72,029,49,25,42,264,44,26,24,064,41*64
###2023-12-09 13:06:42.993811$GBGSV,2,2,06,33,56,229,48,35,15,067,44,,,,,,,,*68
###2023-12-09 13:06:42.995154$GNVTG,278.45,T,,M,3.21,N,5.94,K,A*27
###2023-12-09 13:06:42.996815$GNGST,180642.10,18.000,,,,0.081,0.068,0.150*55
###2023-12-09 13:06:42.998111$GNZDA,180642.10,09,12,2023,00,00*79
###2023-12-09 13:06:42.998763$GNEBP,,,,,,M*13
###2023-12-09 13:06:43.166301$GNGGA,180642.30,4138.0718476,N,07032.3321275,W,1,25,0.6,12.962,M,-29.743,M,0.0,*5D
