###2023-12-09 13:41:01.005811$GNRMC,184100.10,A,4138.0265502,N,07032.3892047,W,0.35,243.13,091223,,,A*58
###2023-12-09 13:41:01.008718$GNGGA,184100.10,4138.0265502,N,07032.3892047,W,1,24,0.6,13.378,M,-29.745,M,0.0,*50
###2023-12-09 13:41:01.010514$GPGSA,A,3,04,16,26,27,28,29,31,,,,,,1.2,0.6,1.0*37
###2023-12-09 13:41:01.012310$GLGSA,A,3,65,71,72,73,74,75,83,,,,,,1.2,0.6,1.0*24
###2023-12-09 13:41:01.013894$GAGSA,A,3,04,19,21,27,,,,,,,,,1.2,0.6,1.0*2D
###2023-12-09 13:41:01.015616$GBGSA,A,3,12,14,24,25,33,35,,,,,,,1.2,0.6,1.0*25
###2023-12-09 13:41:01.017936$GPGSV,2,1,07,04,48,306,46,16,69,225,45,26,81,040,49,27,19,172,42*75
###2023-12-09 13:41:01.019988$GPGSV,2,2,07,28,36,087,45,29,19,045,43,31,58,070,48,,,,*4E
###2023-12-09 13:41:01.022314$GLGSV,2,1,07,65,41,315,44,71,19,176,42,72,59,216,46,73,20,054,45*60
###2023-12-09 13:41:01.024365$GLGSV,2,2,07,74,57,019,42,75,45,276,46,83,16,044,36,,,,*56
###2023-12-09 13:41:01.026699$GAGSV,1,1,04,04,41,309,44,19,69,180,41,21,74,044,46,27,20,051,41*68
###2023-12-09 13:41:01.029025$GBGSV,2,1,06,12,17,124,42,14,26,189,39,24,60,049,47,25,53,279,46*60
###2023-12-09 13:41:01.030781$GBGSV,2,2,06,33,43,215,44,35,16,054,44,,,,,,,,*6C
###2023-12-09 13:41:01.032105$GNVTG,243.13,T,,M,0.35,N,0.65,K,A*21
###2023-12-09 13:41:01.033717$GNGST,184100.10,6.400,,,,0.099,0.086,0.190*6E
###2023-12-09 13:41:01.035018$GNZDA,184100.10,09,12,2023,00,00*7C
###2023-12-09 13:41:01.035657$GNEBP,,,,,,M*13
###2023-12-09 13:41:01.207368$GNGGA,184100.30,4138.0265500,N,07032.3892233,W,1,24,0.6,13.357,M,-29.745,M,0.0,*5C
###2023-12-09 13:41:01.404550$GNGGA,184100.50,4138.0265466,N,07032.3892312,W,1,24,0.6,13.366,M,-29.745,M,0.0,*5B
###2023-12-09 13:41:01.599939$GNGGA,184100.70,4138.0265492,N,07032.3892562,W,1,24,0.6,13.401,M,-29.745,M,0.0,*55
###2023-12-09 13:41:01.800626$GNGGA,184100.90,4138.0265552,N,07032.3892889,W,1,24,0.6,13.412,M,-29.745,M,0.0,*5C
###2023-12-09 13:41:02.005025$GNRMC,184101.10,A,4138.0265500,N,07032.3892820,W,0.33,243.13,091223,,,A*54
###2023-12-09 13:41:02.007900$GNGGA,184101.10,4138.0265500,N,07032.3892820,W,1,24,0.6,13.367,M,-29.745,M,0.0,*54
###2023-12-09 13:41:02.009695$GPGSA,A,3,04,16,26,27,28,29,31,,,,,,1.2,0.6,1.0*37
###2023-12-09 13:41:02.011489$GLGSA,A,3,65,71,72,73,74,75,83,,,,,,1.2,0.6,1.0*24
###2023-12-09 13:41:02.013079$GAGSA,A,3,04,19,21,27,,,,,,,,,1.2,0.6,1.0*2D
###2023-12-09 13:41:02.014797$GBGSA,A,3,12,14,24,25,33,35,,,,,,,1.2,0.6,1.0*25
###2023-12-09 13:41:02.017129$GPGSV,2,1,07,04,48,306,46,16,69,225,46,26,81,040,49,27,19,172,41*75
###2023-12-09 13:41:02.019175$GPGSV,2,2,07,28,36,087,45,29,19,045,42,31,58,070,48,,,,*4F
###2023-12-09 13:41:02.021503$GLGSV,2,1,07,65,41,315,45,71,19,176,43,72,59,216,46,73,20,054,45*60
###2023-12-09 13:41:02.023556$GLGSV,2,2,07,74,57,019,43,75,45,276,47,83,16,044,36,,,,*56
###2023-12-09 13:41:02.025890$GAGSV,1,1,04,04,41,309,45,19,69,180,41,21,74,044,46,27,20,051,41*69
###2023-12-09 13:41:02.028231$GBGSV,2,1,06,12,17,124,43,14,26,189,42,24,60,049,49,25,53,279,48*6D
###2023-12-09 13:41:02.029974$GBGSV,2,2,06,33,43,215,45,35,16,054,45,,,,,,,,*6C
###2023-12-09 13:41:02.031304$GNVTG,243.13,T,,M,0.33,N,0.61,K,A*23
###2023-12-09 13:41:02.032916$GNGST,184101.10,6.100,,,,0.100,0.087,0.190*6A
###2023-12-09 13:41:02.034208$GNZDA,184101.10,09,12,2023,00,00*7D
###2023-12-09 13:41:02.034858$GNEBP,,,,,,M*13
###2023-12-09 13:41:02.206965$GNGGA,184101.30,4138.0265423,N,07032.3892757,W,1,24,0.6,13.329,M,-29.745,M,0.0,*53
###2023-12-09 13:41:02.404541$GNGGA,184101.50,4138.0265477,N,07032.3893166,W,1,24,0.6,13.364,M,-29.745,M,0.0,*58
###2023-12-09 13:41:02.601332$GNGGA,184101.70,4138.0265578,N,07032.3893696,W,1,24,0.6,13.375,M,-29.745,M,0.0,*5C
###2023-12-09 13:41:02.802757$GNGGA,184101.90,4138.0265565,N,07032.3893748,W,1,24,0.6,13.379,M,-29.745,M,0.0,*50
###2023-12-09 13:41:03.005662$GNRMC,184102.10,A,4138.0265457,N,07032.3893486,W,0.39,243.13,091223,,,A*5F
###2023-12-09 13:41:03.008566$GNGGA,184102.10,4138.0265457,N,07032.3893486,W,1,24,0.6,13.354,M,-29.745,M,0.0,*55
###2023-12-09 13:41:03.010367$GPGSA,A,3,04,16,26,27,28,29,31,,,,,,1.2,0.6,1.0*37
###2023-12-09 13:41:03.012165$GLGSA,A,3,65,71,72,73,74,75,83,,,,,,1.2,0.6,1.0*24
###2023-12-09 13:41:03.013750$GAGSA,A,3,04,19,21,27,,,,,,,,,1.2,0.6,1.0*2D
###2023-12-09 13:41:03.015475$GBGSA,A,3,12,14,24,25,33,35,,,,,,,1.2,0.6,1.0*25
###2023-12-09 13:41:03.017806$GPGSV,2,1,07,04,48,306,48,16,69,225,47,26,81,040,51,27,19,172,44*76
###2023-12-09 13:41:03.019863$GPGSV,2,2,07,28,36,087,46,29,19,045,45,31,58,070,49,,,,*4A
###2023-12-09 13:41:03.022191$GLGSV,2,1,07,65,41,315,45,71,19,176,44,72,59,216,46,73,20,054,45*67
###2023-12-09 13:41:03.024246$GLGSV,2,2,07,74,57,019,43,75,45,276,46,83,16,044,36,,,,*57
###2023-12-09 13:41:03.026593$GAGSV,1,1,04,04,41,309,47,19,69,180,41,21,74,044,48,27,20,051,43*67
###2023-12-09 13:41:03.028935$GBGSV,2,1,06,12,17,124,43,14,26,189,41,24,60,049,48,25,53,279,47*60
###2023-12-09 13:41:03.030699$GBGSV,2,2,06,33,43,215,46,35,16,054,44,,,,,,,,*6E
###2023-12-09 13:41:03.032023$GNVTG,243.13,T,,M,0.39,N,0.72,K,A*2B
###2023-12-09 13:41:03.033637$GNGST,184102.10,6.700,,,,0.100,0.087,0.190*6F
###2023-12-09 13:41:03.034941$GNZDA,184102.10,09,12,2023,00,00*7E
###2023-12-09 13:41:03.035581$GNEBP,,,,,,M*13
###2023-12-09 13:41:03.207205$GNGGA,184102.30,4138.0265422,N,07032.3893553,W,1,24,0.6,13.331,M,-29.745,M,0.0,*5F
###2023-12-09 13:41:03.401330$GNGGA,184102.50,4138.0265514,N,07032.3894084,W,1,24,0.6,13.354,M,-29.745,M,0.0,*56
###2023-12-09 13:41:03.601025$GNGGA,184102.70,4138.0265593,N,07032.3894510,W,1,24,0.6,13.354,M,-29.745,M,0.0,*53
###2023-12-09 13:41:03.801916$GNGGA,184102.90,4138.0265509,N,07032.3894392,W,1,24,0.6,13.360,M,-29.745,M,0.0,*55
###2023-12-09 13:41:04.004602$GNRMC,184103.10,A,4138.0265386,N,07032.3894185,W,0.14,243.13,091223,,,A*5B
###2023-12-09 13:41:04.007479$GNGGA,184103.10,4138.0265386,N,07032.3894185,W,1,24,0.6,13.347,M,-29.745,M,0.0,*5C
###2023-12-09 13:41:04.009268$GPGSA,A,3,04,16,26,27,28,29,31,,,,,,1.2,0.6,1.0*37
###2023-12-09 13:41:04.011054$GLGSA,A,3,65,71,72,73,74,75,83,,,,,,1.2,0.6,1.0*24
###2023-12-09 13:41:04.012636$GAGSA,A,3,04,19,21,27,,,,,,,,,1.2,0.6,1.0*2D
###2023-12-09 13:41:04.014342$GBGSA,A,3,12,14,24,25,33,35,,,,,,,1.2,0.6,1.0*25
###2023-12-09 13:41:04.016679$GPGSV,2,1,07,04,48,306,46,16,69,225,45,26,81,040,49,27,19,172,42*75
###2023-12-09 13:41:04.018730$GPGSV,2,2,07,28,36,087,44,29,19,045,45,31,58,070,49,,,,*48
###2023-12-09 13:41:04.021059$GLGSV,2,1,07,65,41,315,44,71,19,176,43,72,59,216,45,73,20,054,46*61
###2023-12-09 13:41:04.023105$GLGSV,2,2,07,74,57,019,42,75,45,276,46,83,16,044,36,,,,*56
###2023-12-09 13:41:04.025428$GAGSV,1,1,04,04,41,309,46,19,69,180,41,21,74,044,47,27,20,051,42*68
###2023-12-09 13:41:04.027764$GBGSV,2,1,06,12,17,124,42,14,26,189,42,24,60,049,47,25,53,279,46*6C
###2023-12-09 13:41:04.029506$GBGSV,2,2,06,33,43,215,45,35,16,054,44,,,,,,,,*6D
###2023-12-09 13:41:04.030842$GNVTG,243.13,T,,M,0.14,N,0.25,K,A*26
###2023-12-09 13:41:04.032458$GNGST,184103.10,5.900,,,,0.100,0.088,0.190*6C
###2023-12-09 13:41:04.033746$GNZDA,184103.10,09,12,2023,00,00*7F
###2023-12-09 13:41:04.034383$GNEBP,,,,,,M*13
###2023-12-09 13:41:04.204656$GNGGA,184103.30,4138.0265406,N,07032.3894423,W,1,24,0.6,13.340,M,-29.745,M,0.0,*5F
###2023-12-09 13:41:04.401434$GNGGA,184103.50,4138.0265503,N,07032.3894923,W,1,24,0.6,13.346,M,-29.745,M,0.0,*56
###2023-12-09 13:41:04.599978$GNGGA,184103.70,4138.0265527,N,07032.3895177,W,1,25,0.6,13.342,M,-29.745,M,0.0,*5F
###2023-12-09 13:41:04.800836$GNGGA,184103.90,4138.0265436,N,07032.3894987,W,1,25,0.6,13.344,M,-29.745,M,0.0,*50
###2023-12-09 13:41:05.006517$GNRMC,184104.10,A,4138.0265342,N,07032.3894836,W,0.08,243.13,091223,,,A*58
###2023-12-09 13:41:05.009408$GNGGA,184104.10,4138.0265342,N,07032.3894836,W,1,24,0.6,13.331,M,-29.745,M,0.0,*53
###2023-12-09 13:41:05.011219$GPGSA,A,3,04,16,26,27,28,29,31,,,,,,1.2,0.6,1.0*37
###2023-12-09 13:41:05.013001$GLGSA,A,3,65,71,72,73,74,75,83,,,,,,1.2,0.6,1.0*24
###2023-12-09 13:41:05.014595$GAGSA,A,3,04,19,21,27,,,,,,,,,1.2,0.6,1.0*2D
###2023-12-09 13:41:05.016306$GBGSA,A,3,12,14,24,25,33,35,,,,,,,1.2,0.6,1.0*25
###2023-12-09 13:41:05.018641$GPGSV,2,1,07,04,49,306,47,16,69,225,46,26,81,040,49,27,19,172,43*77
###2023-12-09 13:41:05.020928$GPGSV,2,2,07,28,36,087,44,29,19,045,45,31,58,070,49,,,,*48
###2023-12-09 13:41:05.023288$GLGSV,2,1,07,65,41,315,44,71,19,176,43,72,59,216,46,73,20,054,45*61
###2023-12-09 13:41:05.025339$GLGSV,2,2,07,74,57,019,43,75,45,276,45,83,16,044,36,,,,*54
###2023-12-09 13:41:05.027677$GAGSV,1,1,04,04,41,309,45,19,69,180,41,21,74,044,47,27,20,051,42*6B
###2023-12-09 13:41:05.030008$GBGSV,2,1,06,12,17,124,45,14,26,189,42,24,60,049,49,25,53,279,48*6B
###2023-12-09 13:41:05.031763$GBGSV,2,2,06,33,43,215,46,35,16,054,46,,,,,,,,*6C
###2023-12-09 13:41:05.033082$GNVTG,243.13,T,,M,0.08,N,0.14,K,A*29
###2023-12-09 13:41:05.034702$GNGST,184104.10,6.200,,,,0.100,0.088,0.200*69
###2023-12-09 13:41:05.035992$GNZDA,184104.10,09,12,2023,00,00*78
