###2023-12-09 12:57:44.996808$GNEBP,,,,,,M*13
###2023-12-09 12:57:45.162390$GNGGA,175744.30,4138.0344819,N,07032.3600687,W,1,24,0.6,13.286,M,-29.745,M,0.0,*50
###2023-12-09 12:57:45.358758$GNGGA,175744.50,4138.0344604,N,07032.3598175,W,1,24,0.6,13.293,M,-29.745,M,0.0,*58
###2023-12-09 12:57:45.558130$GNGGA,175744.70,4138.0344381,N,07032.3595579,W,1,24,0.6,13.287,M,-29.745,M,0.0,*52
###2023-12-09 12:57:45.760395$GNGGA,175744.90,4138.0344242,N,07032.3593090,W,1,24,0.6,13.288,M,-29.745,M,0.0,*59
###2023-12-09 12:57:45.962117$GNRMC,175745.10,A,4138.0344299,N,07032.3590567,W,3.52,90.87,091223,,,A*6D
###2023-12-09 12:57:45.964979$GNGGA,175745.10,4138.0344299,N,07032.3590567,W,1,24,0.6,13.295,M,-29.745,M,0.0,*54
###2023-12-09 12:57:45.966844$GPGSA,A,3,03,04,16,26,28,29,31,32,,,,,1.1,0.6,0.9*3B
###2023-12-09 12:57:45.968558$GLGSA,A,3,65,71,72,73,74,75,,,,,,,1.1,0.6,0.9*24
###2023-12-09 12:57:45.970134$GAGSA,A,3,04,19,21,27,,,,,,,,,1.1,0.6,0.9*26
###2023-12-09 12:57:45.971785$GBGSA,A,3,14,24,25,26,33,,,,,,,,1.1,0.6,0.9*2F
###2023-12-09 12:57:45.974096$GPGSV,2,1,08,03,36,264,46,04,31,311,41,16,48,211,47,26,78,209,48*70
###2023-12-09 12:57:45.976432$GPGSV,2,2,08,28,50,069,44,29,25,063,40,31,69,033,47,32,20,139,43*7D
###2023-12-09 12:57:45.978779$GLGSV,2,1,06,65,22,328,41,71,43,172,46,72,73,277,46,73,37,040,45*6C
###2023-12-09 12:57:45.980519$GLGSV,2,2,06,74,70,331,43,75,30,251,45,,,,,,,,*67
###2023-12-09 12:57:45.982858$GAGSV,1,1,04,04,27,312,40,19,85,234,41,21,85,141,46,27,34,048,43*6D
###2023-12-09 12:57:45.985178$GBGSV,2,1,05,14,45,193,47,24,75,020,49,25,39,260,47,26,27,062,42*63
###2023-12-09 12:57:45.986642$GBGSV,2,2,05,33,59,235,48,,,,,,,,,,,,*5A
###2023-12-09 12:57:45.987927$GNVTG,90.87,T,,M,3.52,N,6.52,K,A*10
###2023-12-09 12:57:45.989573$GNGST,175745.10,18.000,,,,0.078,0.067,0.160*53
###2023-12-09 12:57:45.990883$GNZDA,175745.10,09,12,2023,00,00*75
###2023-12-09 12:57:45.991521$GNEBP,,,,,,M*13
###2023-12-09 12:57:46.157213$GNGGA,175745.30,4138.0344239,N,07032.3587998,W,1,24,0.6,13.289,M,-29.745,M,0.0,*5B
###2023-12-09 12:57:46.358750$GNGGA,175745.50,4138.0344268,N,07032.3585515,W,1,24,0.6,13.296,M,-29.745,M,0.0,*5C
###2023-12-09 12:57:46.557344$GNGGA,175745.70,4138.0344368,N,07032.3582971,W,1,24,0.6,13.305,M,-29.745,M,0.0,*5D
###2023-12-09 12:57:46.760194$GNGGA,175745.90,4138.0344379,N,07032.3580412,W,1,24,0.6,13.292,M,-29.745,M,0.0,*56
###2023-12-09 12:57:46.961049$GNRMC,175746.10,A,4138.0344454,N,07032.3577934,W,3.40,87.71,091223,,,A*66
###2023-12-09 12:57:46.963943$GNGGA,175746.10,4138.0344454,N,07032.3577934,W,1,24,0.6,13.299,M,-29.745,M,0.0,*5F
###2023-12-09 12:57:46.965812$GPGSA,A,3,03,04,16,26,28,29,31,32,,,,,1.1,0.6,0.9*3B
###2023-12-09 12:57:46.967546$GLGSA,A,3,65,71,72,73,74,75,,,,,,,1.1,0.6,0.9*24
###2023-12-09 12:57:46.969132$GAGSA,A,3,04,19,21,27,,,,,,,,,1.1,0.6,0.9*26
###2023-12-09 12:57:46.970790$GBGSA,A,3,14,24,25,26,33,,,,,,,,1.1,0.6,0.9*2F
###2023-12-09 12:57:46.973120$GPGSV,2,1,08,03,36,264,47,04,31,311,42,16,48,211,49,26,78,209,50*75
###2023-12-09 12:57:46.975469$GPGSV,2,2,08,28,50,069,45,29,25,063,42,31,69,033,48,32,20,139,44*76
###2023-12-09 12:57:46.977804$GLGSV,2,1,06,65,22,328,40,71,43,172,48,72,73,277,46,73,37,040,45*63
###2023-12-09 12:57:46.979568$GLGSV,2,2,06,74,70,331,43,75,30,251,45,,,,,,,,*67
###2023-12-09 12:57:46.981906$GAGSV,1,1,04,04,27,312,40,19,85,234,41,21,85,141,47,27,34,048,44*6B
###2023-12-09 12:57:46.984259$GBGSV,2,1,05,14,45,193,45,24,75,020,47,25,39,260,46,26,27,062,40*6C
###2023-12-09 12:57:46.985722$GBGSV,2,2,05,33,59,235,46,,,,,,,,,,,,*54
###2023-12-09 12:57:46.987023$GNVTG,87.71,T,,M,3.40,N,6.30,K,A*18
###2023-12-09 12:57:46.988678$GNGST,175746.10,18.000,,,,0.078,0.066,0.160*51
###2023-12-09 12:57:46.989975$GNZDA,175746.10,09,12,2023,00,00*76
###2023-12-09 12:57:46.990627$GNEBP,,,,,,M*13
###2023-12-09 12:57:47.159029$GNGGA,175746.30,4138.0344447,N,07032.3575367,W,1,24,0.6,13.307,M,-29.745,M,0.0,*57
###2023-12-09 12:57:47.358742$GNGGA,175746.50,4138.0344357,N,07032.3572831,W,1,24,0.6,13.296,M,-29.745,M,0.0,*51
###2023-12-09 12:57:47.559740$GNGGA,175746.70,4138.0344319,N,07032.3570357,W,1,24,0.6,13.311,M,-29.745,M,0.0,*5E
###2023-12-09 12:57:47.758957$GNGGA,175746.90,4138.0344153,N,07032.3567773,W,1,24,0.6,13.318,M,-29.745,M,0.0,*51
###2023-12-09 12:57:47.960564$GNRMC,175747.10,A,4138.0343908,N,07032.3565292,W,3.27,94.91,091223,,,A*6D
###2023-12-09 12:57:47.963434$GNGGA,175747.10,4138.0343908,N,07032.3565292,W,1,24,0.6,13.303,M,-29.745,M,0.0,*5B
###2023-12-09 12:57:47.965295$GPGSA,A,3,03,04,16,26,28,29,31,32,,,,,1.1,0.6,0.9*3B
###2023-12-09 12:57:47.967030$GLGSA,A,3,65,71,72,73,74,75,,,,,,,1.1,0.6,0.9*24
###2023-12-09 12:57:47.968613$GAGSA,A,3,04,19,21,27,,,,,,,,,1.1,0.6,0.9*26
###2023-12-09 12:57:47.970256$GBGSA,A,3,14,24,25,26,33,,,,,,,,1.1,0.6,0.9*2F
###2023-12-09 12:57:47.972590$GPGSV,2,1,08,03,36,264,46,04,31,311,41,16,48,211,47,26,78,209,48*70
###2023-12-09 12:57:47.974931$GPGSV,2,2,08,28,50,069,44,29,25,063,42,31,69,033,47,32,20,139,41*7D
###2023-12-09 12:57:47.977251$GLGSV,2,1,06,65,22,328,40,71,43,172,48,72,73,277,47,73,37,040,46*61
###2023-12-09 12:57:47.979007$GLGSV,2,2,06,74,70,331,43,75,30,251,45,,,,,,,,*67
###2023-12-09 12:57:47.981331$GAGSV,1,1,04,04,27,312,40,19,85,234,41,21,85,141,46,27,34,048,43*6D
###2023-12-09 12:57:47.983658$GBGSV,2,1,05,14,45,193,46,24,75,020,48,25,39,260,47,26,27,062,43*62
###2023-12-09 12:57:47.985107$GBGSV,2,2,05,33,59,235,48,,,,,,,,,,,,*5A
###2023-12-09 12:57:47.986392$GNVTG,94.91,T,,M,3.27,N,6.05,K,A*13
###2023-12-09 12:57:47.988051$GNGST,175747.10,18.000,,,,0.078,0.066,0.160*50
###2023-12-09 12:57:47.989338$GNZDA,175747.10,09,12,2023,00,00*77
###2023-12-09 12:57:47.989975$GNEBP,,,,,,M*13
###2023-12-09 12:57:48.159002$GNGGA,175747.30,4138.0343806,N,07032.3562850,W,1,24,0.6,13.313,M,-29.745,M,0.0,*54
###2023-12-09 12:57:48.365360$GNGGA,175747.50,4138.0343596,N,07032.3560378,W,1,24,0.6,13.309,M,-29.745,M,0.0,*5E
###2023-12-09 12:57:48.562810$GNGGA,175747.70,4138.0343428,N,07032.3557949,W,1,24,0.6,13.312,M,-29.745,M,0.0,*5E
###2023-12-09 12:57:48.761412$GNGGA,175747.90,4138.0343257,N,07032.3555513,W,1,24,0.6,13.315,M,-29.745,M,0.0,*58
###2023-12-09 12:57:48.962198$GNRMC,175748.10,A,4138.0343038,N,07032.3553001,W,3.40,98.33,091223,,,A*60
###2023-12-09 12:57:48.965069$GNGGA,175748.10,4138.0343038,N,07032.3553001,W,1,24,0.6,13.312,M,-29.745,M,0.0,*53
###2023-12-09 12:57:48.966934$GPGSA,A,3,03,04,16,26,28,29,31,32,,,,,1.1,0.6,0.9*3B
###2023-12-09 12:57:48.968644$GLGSA,A,3,65,71,72,73,74,75,,,,,,,1.1,0.6,0.9*24
###2023-12-09 12:57:48.970225$GAGSA,A,3,04,19,21,27,,,,,,,,,1.1,0.6,0.9*26
###2023-12-09 12:57:48.971884$GBGSA,A,3,14,24,25,26,33,,,,,,,,1.1,0.6,0.9*2F
###2023-12-09 12:57:48.974207$GPGSV,2,1,08,03,36,264,45,04,31,311,42,16,48,211,47,26,78,209,48*70
###2023-12-09 12:57:48.976552$GPGSV,2,2,08,28,50,069,43,29,25,063,40,31,69,033,47,32,20,139,42*7B
###2023-12-09 12:57:48.978886$GLGSV,2,1,06,65,22,328,41,71,43,172,48,72,73,277,47,73,37,040,45*63
###2023-12-09 12:57:48.980624$GLGSV,2,2,06,74,70,331,43,75,30,251,45,,,,,,,,*67
###2023-12-09 12:57:48.982952$GAGSV,1,1,04,04,27,312,40,19,85,234,40,21,85,141,46,27,34,048,43*6C
###2023-12-09 12:57:48.985277$GBGSV,2,1,05,14,45,193,47,24,75,020,49,25,39,260,47,26,27,062,43*62
###2023-12-09 12:57:48.986736$GBGSV,2,2,05,33,59,235,49,,,,,,,,,,,,*5B
###2023-12-09 12:57:48.988027$GNVTG,98.33,T,,M,3.40,N,6.30,K,A*10
###2023-12-09 12:57:48.989675$GNGST,175748.10,18.000,,,,0.078,0.066,0.160*5F
###2023-12-09 12:57:48.990983$GNZDA,175748.10,09,12,2023,00,00*78
###2023-12-09 12:57:48.991623$GNEBP,,,,,,M*13
###2023-12-09 12:57:49.157951$GNGGA,175748.30,4138.0342890,N,07032.3550619,W,1,24,0.6,13.315,M,-29.745,M,0.0,*51
###2023-12-09 12:57:49.359605$GNGGA,175748.50,4138.0342904,N,07032.3548100,W,1,24,0.6,13.333,M,-29.745,M,0.0,*59
###2023-12-09 12:57:49.558795$GNGGA,175748.70,4138.0342713,N,07032.3545557,W,1,24,0.6,13.310,M,-29.745,M,0.0,*59
###2023-12-09 12:57:49.759001$GNGGA,175748.90,4138.0342759,N,07032.3543175,W,1,24,0.6,13.324,M,-29.745,M,0.0,*5C
###2023-12-09 12:57:49.960624$GNRMC,175749.10,A,4138.0342831,N,07032.3540561,W,3.62,90.72,091223,,,A*6D
###2023-12-09 12:57:49.963743$GNGGA,175749.10,4138.0342831,N,07032.3540561,W,1,24,0.6,13.339,M,-29.745,M,0.0,*5A
###2023-12-09 12:57:49.965605$GPGSA,A,3,03,04,16,26,28,29,31,32,,,,,1.1,0.6,0.9*3B
###2023-12-09 12:57:49.967325$GLGSA,A,3,65,71,72,73,74,75,,,,,,,1.1,0.6,0.9*24
###2023-12-09 12:57:49.968903$GAGSA,A,3,04,19,21,27,,,,,,,,,1.1,0.6,0.9*26
###2023-12-09 12:57:49.970551$GBGSA,A,3,14,24,25,26,33,,,,,,,,1.1,0.6,0.9*2F
###2023-12-09 12:57:49.972897$GPGSV,2,1,08,03,36,264,46,04,31,311,41,16,48,211,46,26,78,209,48*71
###2023-12-09 12:57:49.975244$GPGSV,2,2,08,28,50,069,44,29,25,063,42,31,69,033,47,32,20,139,42*7E
###2023-12-09 12:57:49.977580$GLGSV,2,1,06,65,22,328,41,71,43,172,47,72,73,277,46,73,37,040,45*6D
###2023-12-09 12:57:49.979344$GLGSV,2,2,06,74,70,331,43,75,30,251,46,,,,,,,,*64
###2023-12-09 12:57:49.981673$GAGSV,1,1,04,04,27,312,40,19,85,234,40,21,85,141,46,27,34,048,43*6C
