###2023-12-09 13:39:44.201889$GNGGA,183943.30,4138.0470063,N,07032.3857930,W,1,25,0.6,13.434,M,-29.745,M,0.0,*54
###2023-12-09 13:39:44.400856$GNGGA,183943.50,4138.0468246,N,07032.3857568,W,1,25,0.6,13.439,M,-29.745,M,0.0,*52
###2023-12-09 13:39:44.600653$GNGGA,183943.70,4138.0466470,N,07032.3857244,W,1,25,0.6,13.403,M,-29.745,M,0.0,*5D
###2023-12-09 13:39:44.800824$GNGGA,183943.90,4138.0464760,N,07032.3857644,W,1,25,0.6,13.442,M,-29.745,M,0.0,*52
###2023-12-09 13:39:45.012421$GNRMC,183944.10,A,4138.0462983,N,07032.3858129,W,3.36,182.27,091223,,,A*55
###2023-12-09 13:39:45.015900$GNGGA,183944.10,4138.0462983,N,07032.3858129,W,1,25,0.6,13.464,M,-29.745,M,0.0,*5F
###2023-12-09 13:39:45.018139$GPGSA,A,3,03,04,16,26,27,28,29,31,,,,,1.0,0.6,0.8*3F
###2023-12-09 13:39:45.020217$GLGSA,A,3,65,71,72,73,74,75,,,,,,,1.0,0.6,0.8*24
###2023-12-09 13:39:45.022131$GAGSA,A,3,04,19,21,27,,,,,,,,,1.0,0.6,0.8*26
###2023-12-09 13:39:45.024212$GBGSA,A,3,12,14,24,25,33,35,,,,,,,1.0,0.6,0.8*2E
###2023-12-09 13:39:45.027068$GPGSV,2,1,08,03,25,244,41,04,48,306,45,16,69,225,45,26,81,040,47*7B
###2023-12-09 13:39:45.029875$GPGSV,2,2,08,27,19,172,35,28,36,087,43,29,19,045,40,31,58,070,46*75
###2023-12-09 13:39:45.032682$GLGSV,2,1,06,65,40,316,44,71,20,176,38,72,60,217,45,73,20,054,40*69
###2023-12-09 13:39:45.034789$GLGSV,2,2,06,74,58,018,43,75,45,275,48,,,,,,,,*6C
###2023-12-09 13:39:45.037587$GAGSV,1,1,04,04,41,309,44,19,70,181,40,21,75,045,46,27,21,050,39*6F
###2023-12-09 13:39:45.040393$GBGSV,2,1,06,12,17,125,42,14,27,189,40,24,61,048,48,25,52,278,49*6E
###2023-12-09 13:39:45.042524$GBGSV,2,2,06,33,44,215,45,35,16,055,42,,,,,,,,*6D
###2023-12-09 13:39:45.044176$GNVTG,182.27,T,,M,3.36,N,6.23,K,A*2C
###2023-12-09 13:39:45.046119$GNGST,183944.10,6.200,,,,0.091,0.067,0.150*6C
###2023-12-09 13:39:45.047683$GNZDA,183944.10,09,12,2023,00,00*73
###2023-12-09 13:39:45.048451$GNEBP,,,,,,M*13
###2023-12-09 13:39:45.211584$GNGGA,183944.30,4138.0461208,N,07032.3858051,W,1,26,0.6,13.392,M,-29.745,M,0.0,*55
###2023-12-09 13:39:45.405480$GNGGA,183944.50,4138.0459557,N,07032.3858267,W,1,26,0.6,13.404,M,-29.745,M,0.0,*5A
###2023-12-09 13:39:45.599181$GNGGA,183944.70,4138.0457794,N,07032.3859204,W,1,26,0.6,13.468,M,-29.745,M,0.0,*55
###2023-12-09 13:39:45.800857$GNGGA,183944.90,4138.0456029,N,07032.3859584,W,1,25,0.6,13.423,M,-29.745,M,0.0,*58
###2023-12-09 13:39:46.005042$GNRMC,183945.10,A,4138.0454350,N,07032.3859247,W,2.95,172.95,091223,,,A*51
###2023-12-09 13:39:46.008522$GNGGA,183945.10,4138.0454350,N,07032.3859247,W,1,25,0.6,13.383,M,-29.745,M,0.0,*5B
###2023-12-09 13:39:46.010760$GPGSA,A,3,03,04,16,26,27,28,29,31,,,,,1.0,0.6,0.8*3F
###2023-12-09 13:39:46.012821$GLGSA,A,3,65,71,72,73,74,75,,,,,,,1.0,0.6,0.8*24
###2023-12-09 13:39:46.014732$GAGSA,A,3,04,19,21,27,,,,,,,,,1.0,0.6,0.8*26
###2023-12-09 13:39:46.016801$GBGSA,A,3,12,14,24,25,33,35,,,,,,,1.0,0.6,0.8*2E
###2023-12-09 13:39:46.019619$GPGSV,2,1,08,03,25,244,38,04,48,306,45,16,69,225,45,26,81,040,48*7A
###2023-12-09 13:39:46.022421$GPGSV,2,2,08,27,19,172,38,28,36,087,44,29,19,045,43,31,58,070,47*7D
###2023-12-09 13:39:46.025235$GLGSV,2,1,06,65,40,316,43,71,20,176,40,72,60,217,45,73,20,054,44*65
###2023-12-09 13:39:46.027361$GLGSV,2,2,06,74,58,018,43,75,45,275,47,,,,,,,,*63
###2023-12-09 13:39:46.030159$GAGSV,1,1,04,04,41,309,43,19,70,181,39,21,75,045,46,27,21,050,42*6A
###2023-12-09 13:39:46.032966$GBGSV,2,1,06,12,17,125,43,14,27,189,40,24,61,048,49,25,52,278,48*6F
###2023-12-09 13:39:46.035116$GBGSV,2,2,06,33,44,215,46,35,16,055,45,,,,,,,,*69
###2023-12-09 13:39:46.036705$GNVTG,172.95,T,,M,2.95,N,5.47,K,A*23
###2023-12-09 13:39:46.038659$GNGST,183945.10,5.200,,,,0.092,0.067,0.150*6D
###2023-12-09 13:39:46.040215$GNZDA,183945.10,09,12,2023,00,00*72
###2023-12-09 13:39:46.040981$GNEBP,,,,,,M*13
###2023-12-09 13:39:46.208138$GNGGA,183945.30,4138.0452559,N,07032.3859577,W,1,25,0.6,13.422,M,-29.745,M,0.0,*58
###2023-12-09 13:39:46.404598$GNGGA,183945.50,4138.0450671,N,07032.3860448,W,1,25,0.6,13.437,M,-29.745,M,0.0,*56
###2023-12-09 13:39:46.599241$GNGGA,183945.70,4138.0448906,N,07032.3860525,W,1,25,0.6,13.400,M,-29.745,M,0.0,*5C
###2023-12-09 13:39:46.800990$GNGGA,183945.90,4138.0447228,N,07032.3860093,W,1,25,0.6,13.422,M,-29.745,M,0.0,*52
###2023-12-09 13:39:47.005692$GNRMC,183946.10,A,4138.0445331,N,07032.3860320,W,3.62,189.08,091223,,,A*56
###2023-12-09 13:39:47.009164$GNGGA,183946.10,4138.0445331,N,07032.3860320,W,1,25,0.6,13.444,M,-29.745,M,0.0,*59
###2023-12-09 13:39:47.011427$GPGSA,A,3,03,04,16,26,27,28,29,31,,,,,1.0,0.6,0.8*3F
###2023-12-09 13:39:47.013491$GLGSA,A,3,65,71,72,73,74,75,,,,,,,1.0,0.6,0.8*24
###2023-12-09 13:39:47.015421$GAGSA,A,3,04,19,21,27,,,,,,,,,1.0,0.6,0.8*26
###2023-12-09 13:39:47.017492$GBGSA,A,3,12,14,24,25,33,35,,,,,,,1.0,0.6,0.8*2E
###2023-12-09 13:39:47.020310$GPGSV,2,1,08,03,25,244,40,04,48,306,44,16,69,225,45,26,81,040,48*74
###2023-12-09 13:39:47.023138$GPGSV,2,2,08,27,19,172,38,28,36,087,45,29,19,045,42,31,58,070,47*7D
###2023-12-09 13:39:47.025995$GLGSV,2,1,06,65,40,316,42,71,20,176,39,72,60,217,45,73,20,054,43*6D
###2023-12-09 13:39:47.028138$GLGSV,2,2,06,74,58,018,43,75,45,275,47,,,,,,,,*63
###2023-12-09 13:39:47.030965$GAGSV,1,1,04,04,41,309,43,19,70,181,39,21,75,045,46,27,21,050,40*68
###2023-12-09 13:39:47.033782$GBGSV,2,1,06,12,17,125,42,14,27,189,38,24,61,048,49,25,52,278,48*61
###2023-12-09 13:39:47.035907$GBGSV,2,2,06,33,44,215,46,35,16,055,45,,,,,,,,*69
###2023-12-09 13:39:47.037511$GNVTG,189.08,T,,M,3.62,N,6.70,K,A*2D
###2023-12-09 13:39:47.039474$GNGST,183946.10,5.200,,,,0.092,0.067,0.150*6E
###2023-12-09 13:39:47.041042$GNZDA,183946.10,09,12,2023,00,00*71
###2023-12-09 13:39:47.041814$GNEBP,,,,,,M*13
###2023-12-09 13:39:47.202643$GNGGA,183946.30,4138.0443496,N,07032.3860471,W,1,25,0.6,13.388,M,-29.745,M,0.0,*53
###2023-12-09 13:39:47.400900$GNGGA,183946.50,4138.0441875,N,07032.3860492,W,1,25,0.6,13.406,M,-29.745,M,0.0,*5A
###2023-12-09 13:39:47.600764$GNGGA,183946.70,4138.0440075,N,07032.3860681,W,1,25,0.6,13.465,M,-29.745,M,0.0,*54
###2023-12-09 13:39:47.801645$GNGGA,183946.90,4138.0438323,N,07032.3860612,W,1,25,0.6,13.405,M,-29.745,M,0.0,*59
###2023-12-09 13:39:48.005030$GNRMC,183947.10,A,4138.0436743,N,07032.3860312,W,2.97,180.13,091223,,,A*5B
###2023-12-09 13:39:48.007903$GNGGA,183947.10,4138.0436743,N,07032.3860312,W,1,26,0.6,13.372,M,-29.745,M,0.0,*5D
###2023-12-09 13:39:48.009753$GPGSA,A,3,03,04,16,26,27,28,29,31,,,,,1.0,0.6,0.8*3F
###2023-12-09 13:39:48.011545$GLGSA,A,3,65,71,72,73,74,75,83,,,,,,1.0,0.6,0.8*2F
###2023-12-09 13:39:48.013129$GAGSA,A,3,04,19,21,27,,,,,,,,,1.0,0.6,0.8*26
###2023-12-09 13:39:48.014854$GBGSA,A,3,12,14,24,25,33,35,,,,,,,1.0,0.6,0.8*2E
###2023-12-09 13:39:48.017179$GPGSV,2,1,08,03,25,244,43,04,48,306,45,16,69,225,46,26,81,040,48*75
###2023-12-09 13:39:48.019528$GPGSV,2,2,08,27,19,172,39,28,36,087,45,29,19,045,45,31,58,070,48*74
###2023-12-09 13:39:48.021867$GLGSV,2,1,07,65,40,316,42,71,20,176,42,72,60,217,46,73,20,054,46*66
###2023-12-09 13:39:48.023915$GLGSV,2,2,07,74,58,018,41,75,45,275,48,83,16,045,37,,,,*56
###2023-12-09 13:39:48.026243$GAGSV,1,1,04,04,41,309,43,19,70,181,41,21,75,045,47,27,21,050,44*62
###2023-12-09 13:39:48.028586$GBGSV,2,1,06,12,17,125,42,14,27,189,41,24,61,048,49,25,52,278,48*6F
###2023-12-09 13:39:48.030332$GBGSV,2,2,06,33,44,215,45,35,16,055,45,,,,,,,,*6A
###2023-12-09 13:39:48.031660$GNVTG,180.13,T,,M,2.97,N,5.51,K,A*25
###2023-12-09 13:39:48.033269$GNGST,183947.10,5.400,,,,0.092,0.067,0.150*69
###2023-12-09 13:39:48.034558$GNZDA,183947.10,09,12,2023,00,00*70
###2023-12-09 13:39:48.035208$GNEBP,,,,,,M*13
###2023-12-09 13:39:48.202855$GNGGA,183947.30,4138.0434963,N,07032.3860505,W,1,25,0.6,13.437,M,-29.745,M,0.0,*54
###2023-12-09 13:39:48.400020$GNGGA,183947.50,4138.0433085,N,07032.3860537,W,1,25,0.6,13.437,M,-29.745,M,0.0,*55
###2023-12-09 13:39:48.600546$GNGGA,183947.70,4138.0431342,N,07032.3860074,W,1,25,0.6,13.409,M,-29.745,M,0.0,*52
###2023-12-09 13:39:48.801795$GNGGA,183947.90,4138.0429621,N,07032.3859563,W,1,26,0.6,13.407,M,-29.745,M,0.0,*51
###2023-12-09 13:39:49.004975$GNRMC,183948.10,A,4138.0427724,N,07032.3859588,W,3.52,183.78,091223,,,A*5C
###2023-12-09 13:39:49.008109$GNGGA,183948.10,4138.0427724,N,07032.3859588,W,1,25,0.6,13.442,M,-29.745,M,0.0,*5B
###2023-12-09 13:39:49.009981$GPGSA,A,3,03,04,16,26,27,28,29,31,,,,,1.0,0.6,0.8*3F
###2023-12-09 13:39:49.011712$GLGSA,A,3,65,71,72,73,74,75,,,,,,,1.0,0.6,0.8*24
###2023-12-09 13:39:49.013298$GAGSA,A,3,04,19,21,27,,,,,,,,,1.0,0.6,0.8*26
###2023-12-09 13:39:49.015021$GBGSA,A,3,12,14,24,25,33,35,,,,,,,1.0,0.6,0.8*2E
###2023-12-09 13:39:49.017342$GPGSV,2,1,08,03,25,244,40,04,48,306,45,16,69,225,45,26,81,040,48*75
###2023-12-09 13:39:49.019680$GPGSV,2,2,08,27,19,172,37,28,36,087,45,29,19,045,42,31,58,070,46*73
###2023-12-09 13:39:49.022010$GLGSV,2,1,06,65,40,316,44,71,20,176,41,72,60,217,46,73,20,054,43*67
###2023-12-09 13:39:49.023767$GLGSV,2,2,06,74,58,018,43,75,45,275,48,,,,,,,,*6C
###2023-12-09 13:39:49.026092$GAGSV,1,1,04,04,41,309,44,19,70,181,40,21,75,045,46,27,21,050,41*60
###2023-12-09 13:39:49.028425$GBGSV,2,1,06,12,17,125,42,14,27,189,40,24,61,048,48,25,52,278,49*6E
