###2023-12-09 12:31:48.954280$GAGSV,1,1,04,04,20,311,43,19,80,306,40,21,76,177,46,27,42,050,42*6E
###2023-12-09 12:31:48.956791$GBGSV,1,1,04,14,57,199,44,24,81,338,48,26,36,056,43,33,63,258,48*61
###2023-12-09 12:31:48.958307$GNVTG,320.35,T,,M,0.33,N,0.61,K,A*23
###2023-12-09 12:31:48.960091$GNGST,173148.10,19.000,,,,0.085,0.075,0.180*50
###2023-12-09 12:31:48.961500$GNZDA,173148.10,09,12,2023,00,00*78
###2023-12-09 12:31:48.962250$GNEBP,,,,,,M*13
###2023-12-09 12:31:49.128351$GNGGA,173148.30,4138.0415407,N,07032.4260521,W,1,22,0.7,13.537,M,-29.745,M,0.0,*5C
###2023-12-09 12:31:49.328569$GNGGA,173148.50,4138.0415631,N,07032.4260446,W,1,22,0.7,13.548,M,-29.745,M,0.0,*55
###2023-12-09 12:31:49.528601$GNGGA,173148.70,4138.0415857,N,07032.4260441,W,1,22,0.7,13.532,M,-29.745,M,0.0,*53
###2023-12-09 12:31:49.727776$GNGGA,173148.90,4138.0416066,N,07032.4260491,W,1,22,0.7,13.501,M,-29.745,M,0.0,*59
###2023-12-09 12:31:49.933961$GNRMC,173149.10,A,4138.0416344,N,07032.4260624,W,0.60,320.35,091223,,,A*58
###2023-12-09 12:31:49.937087$GNGGA,173149.10,4138.0416344,N,07032.4260624,W,1,22,0.7,13.494,M,-29.745,M,0.0,*52
###2023-12-09 12:31:49.939176$GPGSA,A,3,03,04,16,26,28,29,31,32,,,,,1.2,0.7,1.0*31
###2023-12-09 12:31:49.941027$GLGSA,A,3,71,72,73,74,75,,,,,,,,1.2,0.7,1.0*2D
###2023-12-09 12:31:49.942758$GAGSA,A,3,04,19,21,27,,,,,,,,,1.2,0.7,1.0*2C
###2023-12-09 12:31:49.944465$GBGSA,A,3,14,24,26,33,,,,,,,,,1.2,0.7,1.0*22
###2023-12-09 12:31:49.946934$GPGSV,2,1,08,03,39,279,46,04,20,310,42,16,35,207,43,26,65,206,49*7A
###2023-12-09 12:31:49.949463$GPGSV,2,2,08,28,59,054,45,29,25,075,41,31,73,356,48,32,31,133,46*76
###2023-12-09 12:31:49.951948$GLGSV,2,1,05,71,59,168,47,72,64,313,46,73,50,032,46,74,70,284,43*6E
###2023-12-09 12:31:49.953530$GLGSV,2,2,05,75,20,239,39,,,,,,,,,,,,*52
###2023-12-09 12:31:49.956002$GAGSV,1,1,04,04,20,311,43,19,80,306,41,21,76,177,47,27,42,050,43*6F
###2023-12-09 12:31:49.958456$GBGSV,1,1,04,14,57,199,46,24,81,338,48,26,36,056,44,33,63,258,48*64
###2023-12-09 12:31:49.959918$GNVTG,320.35,T,,M,0.60,N,1.12,K,A*20
###2023-12-09 12:31:49.961681$GNGST,173149.10,19.000,,,,0.085,0.075,0.180*51
###2023-12-09 12:31:49.963094$GNZDA,173149.10,09,12,2023,00,00*79
###2023-12-09 12:31:49.963845$GNEBP,,,,,,M*13
###2023-12-09 12:31:50.130323$GNGGA,173149.30,4138.0416640,N,07032.4260745,W,1,22,0.7,13.500,M,-29.745,M,0.0,*5B
###2023-12-09 12:31:50.330870$GNGGA,173149.50,4138.0416804,N,07032.4260625,W,1,22,0.7,13.498,M,-29.745,M,0.0,*54
###2023-12-09 12:31:50.529230$GNGGA,173149.70,4138.0416903,N,07032.4260449,W,1,22,0.7,13.469,M,-29.745,M,0.0,*56
###2023-12-09 12:31:50.728415$GNGGA,173149.90,4138.0417125,N,07032.4260527,W,1,22,0.7,13.452,M,-29.745,M,0.0,*54
###2023-12-09 12:31:50.931246$GNRMC,173150.10,A,4138.0417482,N,07032.4260812,W,0.76,320.35,091223,,,A*50
###2023-12-09 12:31:50.935060$GNGGA,173150.10,4138.0417482,N,07032.4260812,W,1,22,0.7,13.446,M,-29.745,M,0.0,*52
###2023-12-09 12:31:50.937553$GPGSA,A,3,03,04,16,26,28,29,31,32,,,,,1.2,0.7,1.0*31
###2023-12-09 12:31:50.939792$GLGSA,A,3,71,72,73,74,75,,,,,,,,1.2,0.7,1.0*2D
###2023-12-09 12:31:50.941953$GAGSA,A,3,04,19,21,27,,,,,,,,,1.2,0.7,1.0*2C
###2023-12-09 12:31:50.944108$GBGSA,A,3,14,24,26,33,,,,,,,,,1.2,0.7,1.0*22
###2023-12-09 12:31:50.947111$GPGSV,2,1,08,03,39,279,46,04,20,310,44,16,35,207,40,26,65,206,49*7F
###2023-12-09 12:31:50.950114$GPGSV,2,2,08,28,59,054,45,29,25,075,42,31,73,356,47,32,31,133,46*7A
###2023-12-09 12:31:50.953080$GLGSV,2,1,05,71,59,168,47,72,64,313,46,73,50,032,46,74,70,284,42*6F
###2023-12-09 12:31:50.955000$GLGSV,2,2,05,75,20,239,40,,,,,,,,,,,,*5C
###2023-12-09 12:31:50.957963$GAGSV,1,1,04,04,20,311,43,19,80,306,40,21,76,177,44,27,42,050,40*6E
###2023-12-09 12:31:50.960948$GBGSV,1,1,04,14,57,199,44,24,81,338,49,26,36,056,44,33,63,258,48*67
###2023-12-09 12:31:50.962703$GNVTG,320.35,T,,M,0.76,N,1.40,K,A*20
###2023-12-09 12:31:50.964828$GNGST,173150.10,19.000,,,,0.084,0.074,0.170*56
###2023-12-09 12:31:50.966515$GNZDA,173150.10,09,12,2023,00,00*71
###2023-12-09 12:31:50.967429$GNEBP,,,,,,M*13
###2023-12-09 12:31:51.133077$GNGGA,173150.30,4138.0417771,N,07032.4260977,W,1,23,0.7,13.446,M,-29.745,M,0.0,*5C
###2023-12-09 12:31:51.330377$GNGGA,173150.50,4138.0417835,N,07032.4260738,W,1,23,0.7,13.449,M,-29.745,M,0.0,*5F
###2023-12-09 12:31:51.530202$GNGGA,173150.70,4138.0417896,N,07032.4260579,W,1,23,0.7,13.424,M,-29.745,M,0.0,*58
###2023-12-09 12:31:51.729344$GNGGA,173150.90,4138.0418202,N,07032.4260774,W,1,23,0.7,13.415,M,-29.745,M,0.0,*53
###2023-12-09 12:31:51.931859$GNRMC,173151.10,A,4138.0418625,N,07032.4261117,W,0.68,320.35,091223,,,A*53
###2023-12-09 12:31:51.935404$GNGGA,173151.10,4138.0418625,N,07032.4261117,W,1,23,0.7,13.407,M,-29.745,M,0.0,*5A
###2023-12-09 12:31:51.937693$GPGSA,A,3,03,04,16,26,28,29,31,32,,,,,1.2,0.7,0.9*39
###2023-12-09 12:31:51.939761$GLGSA,A,3,71,72,73,74,75,,,,,,,,1.2,0.7,0.9*25
###2023-12-09 12:31:51.941729$GAGSA,A,3,04,19,21,27,,,,,,,,,1.2,0.7,0.9*24
###2023-12-09 12:31:51.943758$GBGSA,A,3,14,24,25,26,33,,,,,,,,1.2,0.7,0.9*2D
###2023-12-09 12:31:51.946628$GPGSV,2,1,08,03,39,279,44,04,20,310,44,16,35,207,42,26,65,206,48*7E
###2023-12-09 12:31:51.949531$GPGSV,2,2,08,28,59,054,45,29,25,075,41,31,73,356,48,32,31,133,44*74
###2023-12-09 12:31:51.952402$GLGSV,2,1,05,71,59,168,48,72,64,313,47,73,50,032,47,74,70,284,43*61
###2023-12-09 12:31:51.954182$GLGSV,2,2,05,75,20,239,39,,,,,,,,,,,,*52
###2023-12-09 12:31:51.957015$GAGSV,1,1,04,04,20,311,45,19,80,306,42,21,76,177,46,27,42,050,43*6B
###2023-12-09 12:31:51.959855$GBGSV,2,1,05,14,57,199,44,24,81,338,49,25,31,251,36,26,36,056,46*67
###2023-12-09 12:31:51.961617$GBGSV,2,2,05,33,63,258,49,,,,,,,,,,,,*59
###2023-12-09 12:31:51.963234$GNVTG,320.35,T,,M,0.68,N,1.26,K,A*2F
###2023-12-09 12:31:51.965232$GNGST,173151.10,19.000,,,,0.084,0.074,0.170*57
###2023-12-09 12:31:51.966813$GNZDA,173151.10,09,12,2023,00,00*70
###2023-12-09 12:31:51.967599$GNEBP,,,,,,M*13
###2023-12-09 12:31:52.131032$GNGGA,173151.30,4138.0418782,N,07032.4261097,W,1,22,0.7,13.406,M,-29.745,M,0.0,*5D
###2023-12-09 12:31:52.332538$GNGGA,173151.50,4138.0418787,N,07032.4260838,W,1,22,0.7,13.412,M,-29.745,M,0.0,*57
###2023-12-09 12:31:52.530302$GNGGA,173151.70,4138.0418982,N,07032.4260804,W,1,22,0.7,13.406,M,-29.745,M,0.0,*54
###2023-12-09 12:31:52.729292$GNGGA,173151.90,4138.0419348,N,07032.4261099,W,1,22,0.7,13.399,M,-29.745,M,0.0,*5B
###2023-12-09 12:31:52.932186$GNRMC,173152.10,A,4138.0419624,N,07032.4261266,W,0.31,320.35,091223,,,A*59
###2023-12-09 12:31:52.935674$GNGGA,173152.10,4138.0419624,N,07032.4261266,W,1,22,0.7,13.381,M,-29.745,M,0.0,*54
###2023-12-09 12:31:52.937932$GPGSA,A,3,03,04,16,26,28,29,31,32,,,,,1.2,0.7,1.0*31
###2023-12-09 12:31:52.939970$GLGSA,A,3,71,72,73,74,75,,,,,,,,1.2,0.7,1.0*2D
###2023-12-09 12:31:52.941935$GAGSA,A,3,04,19,21,27,,,,,,,,,1.2,0.7,1.0*2C
###2023-12-09 12:31:52.943881$GBGSA,A,3,14,24,26,33,,,,,,,,,1.2,0.7,1.0*22
###2023-12-09 12:31:52.946729$GPGSV,2,1,08,03,39,279,45,04,20,310,45,16,35,207,43,26,65,206,48*7F
###2023-12-09 12:31:52.949585$GPGSV,2,2,08,28,59,054,44,29,25,075,42,31,73,356,48,32,31,133,44*76
###2023-12-09 12:31:52.952448$GLGSV,2,1,05,71,59,168,48,72,64,313,47,73,50,032,46,74,70,284,43*60
###2023-12-09 12:31:52.954224$GLGSV,2,2,05,75,20,239,38,,,,,,,,,,,,*53
###2023-12-09 12:31:52.957070$GAGSV,1,1,04,04,20,311,45,19,80,306,42,21,76,177,46,27,42,050,41*69
###2023-12-09 12:31:52.959926$GBGSV,1,1,04,14,56,198,44,24,81,338,49,26,36,056,45,33,63,258,48*66
###2023-12-09 12:31:52.961538$GNVTG,320.35,T,,M,0.31,N,0.58,K,A*2B
###2023-12-09 12:31:52.963563$GNGST,173152.10,19.000,,,,0.083,0.074,0.170*53
###2023-12-09 12:31:52.965126$GNZDA,173152.10,09,12,2023,00,00*73
###2023-12-09 12:31:52.965908$GNEBP,,,,,,M*13
###2023-12-09 12:31:53.129857$GNGGA,173152.30,4138.0419717,N,07032.4261121,W,1,22,0.7,13.388,M,-29.745,M,0.0,*5E
###2023-12-09 12:31:53.330128$GNGGA,173152.50,4138.0419814,N,07032.4261012,W,1,22,0.7,13.395,M,-29.745,M,0.0,*59
###2023-12-09 12:31:53.530371$GNGGA,173152.70,4138.0420049,N,07032.4261095,W,1,22,0.7,13.395,M,-29.745,M,0.0,*5E
###2023-12-09 12:31:53.728285$GNGGA,173152.90,4138.0420326,N,07032.4261210,W,1,22,0.7,13.377,M,-29.745,M,0.0,*59
###2023-12-09 12:31:53.929417$GNRMC,173153.10,A,4138.0420514,N,07032.4261248,W,0.23,320.35,091223,,,A*5D
###2023-12-09 12:31:53.932348$GNGGA,173153.10,4138.0420514,N,07032.4261248,W,1,21,0.7,13.366,M,-29.745,M,0.0,*59
###2023-12-09 12:31:53.934231$GPGSA,A,3,03,04,16,26,28,29,31,32,,,,,1.2,0.7,1.0*31
###2023-12-09 12:31:53.935913$GLGSA,A,3,71,72,73,74,75,,,,,,,,1.2,0.7,1.0*2D
###2023-12-09 12:31:53.937504$GAGSA,A,3,04,19,21,27,,,,,,,,,1.2,0.7,1.0*2C
###2023-12-09 12:31:53.939104$GBGSA,A,3,14,24,26,33,,,,,,,,,1.2,0.7,1.0*22
###2023-12-09 12:31:53.941437$GPGSV,2,1,08,03,39,279,45,04,20,310,44,16,35,207,42,26,65,206,48*7F
###2023-12-09 12:31:53.943790$GPGSV,2,2,08,28,59,054,45,29,25,075,41,31,73,356,48,32,31,133,45*75
###2023-12-09 12:31:53.946147$GLGSV,2,1,05,71,59,168,47,72,64,313,47,73,50,032,47,74,70,284,42*6F
