###2023-12-09 13:26:05.031936$GNEBP,,,,,,M*13
###2023-12-09 13:26:05.193016$GNGGA,182604.30,4138.0573005,N,07032.3437325,W,1,24,0.6,12.889,M,-29.744,M,0.0,*54
###2023-12-09 13:26:05.389916$GNGGA,182604.50,4138.0575003,N,07032.3437107,W,1,24,0.6,12.909,M,-29.744,M,0.0,*59
###2023-12-09 13:26:05.591149$GNGGA,182604.70,4138.0577072,N,07032.3437096,W,1,24,0.6,12.929,M,-29.744,M,0.0,*54
###2023-12-09 13:26:05.790190$GNGGA,182604.90,4138.0579187,N,07032.3437018,W,1,24,0.6,12.918,M,-29.744,M,0.0,*5B
###2023-12-09 13:26:05.995669$GNRMC,182605.10,A,4138.0581306,N,07032.3437045,W,3.79,358.99,091223,,,A*50
###2023-12-09 13:26:05.999149$GNGGA,182605.10,4138.0581306,N,07032.3437045,W,1,24,0.6,12.909,M,-29.744,M,0.0,*56
###2023-12-09 13:26:06.001318$GPGSA,A,3,03,04,16,26,28,29,31,,,,,,1.1,0.6,0.9*3A
###2023-12-09 13:26:06.003407$GLGSA,A,3,65,71,72,73,74,75,,,,,,,1.1,0.6,0.9*24
###2023-12-09 13:26:06.005324$GAGSA,A,3,04,19,21,27,,,,,,,,,1.1,0.6,0.9*26
###2023-12-09 13:26:06.007438$GBGSA,A,3,14,24,25,26,33,35,,,,,,,1.1,0.6,0.9*29
###2023-12-09 13:26:06.010252$GPGSV,2,1,07,03,29,250,43,04,43,309,45,16,62,219,47,26,88,044,48*7F
###2023-12-09 13:26:06.012740$GPGSV,2,2,07,28,41,081,43,29,22,050,41,31,62,060,46,,,,*46
###2023-12-09 13:26:06.015571$GLGSV,2,1,06,65,34,322,42,71,27,175,43,72,67,229,46,73,26,049,41*61
###2023-12-09 13:26:06.017683$GLGSV,2,2,06,74,63,006,41,75,40,266,48,,,,,,,,*6E
###2023-12-09 13:26:06.020506$GAGSV,1,1,04,04,37,311,44,19,75,184,41,21,80,050,46,27,25,049,40*6A
###2023-12-09 13:26:06.023329$GBGSV,2,1,06,14,33,190,43,24,66,041,47,25,48,272,48,26,19,068,42*60
###2023-12-09 13:26:06.025439$GBGSV,2,2,06,33,49,220,47,35,16,060,42,,,,,,,,*62
###2023-12-09 13:26:06.027064$GNVTG,358.99,T,,M,3.79,N,7.02,K,A*25
###2023-12-09 13:26:06.029059$GNGST,182605.10,18.000,,,,0.100,0.070,0.170*57
###2023-12-09 13:26:06.030626$GNZDA,182605.10,09,12,2023,00,00*78
###2023-12-09 13:26:06.031396$GNEBP,,,,,,M*13
###2023-12-09 13:26:06.192584$GNGGA,182605.30,4138.0583389,N,07032.3437135,W,1,24,0.6,12.919,M,-29.744,M,0.0,*56
###2023-12-09 13:26:06.390723$GNGGA,182605.50,4138.0585450,N,07032.3437277,W,1,24,0.6,12.929,M,-29.744,M,0.0,*53
###2023-12-09 13:26:06.591797$GNGGA,182605.70,4138.0587488,N,07032.3437426,W,1,24,0.6,12.929,M,-29.744,M,0.0,*54
###2023-12-09 13:26:06.791079$GNGGA,182605.90,4138.0589432,N,07032.3437693,W,1,24,0.6,12.924,M,-29.744,M,0.0,*54
###2023-12-09 13:26:06.995899$GNRMC,182606.10,A,4138.0591313,N,07032.3438090,W,3.44,350.22,091223,,,A*57
###2023-12-09 13:26:06.999407$GNGGA,182606.10,4138.0591313,N,07032.3438090,W,1,24,0.6,12.930,M,-29.744,M,0.0,*5D
###2023-12-09 13:26:07.001578$GPGSA,A,3,03,04,16,26,28,29,31,,,,,,1.1,0.6,0.9*3A
###2023-12-09 13:26:07.003669$GLGSA,A,3,65,71,72,73,74,75,,,,,,,1.1,0.6,0.9*24
###2023-12-09 13:26:07.005586$GAGSA,A,3,04,19,21,27,,,,,,,,,1.1,0.6,0.9*26
###2023-12-09 13:26:07.007659$GBGSA,A,3,14,24,25,26,33,35,,,,,,,1.1,0.6,0.9*29
###2023-12-09 13:26:07.010471$GPGSV,2,1,07,03,29,250,41,04,43,309,45,16,62,219,47,26,88,044,48*7D
###2023-12-09 13:26:07.012943$GPGSV,2,2,07,28,41,081,45,29,22,050,42,31,62,060,47,,,,*42
###2023-12-09 13:26:07.015757$GLGSV,2,1,06,65,34,322,41,71,27,175,43,72,67,229,47,73,26,049,42*60
###2023-12-09 13:26:07.017865$GLGSV,2,2,06,74,63,006,41,75,40,266,46,,,,,,,,*60
###2023-12-09 13:26:07.020670$GAGSV,1,1,04,04,37,311,43,19,75,184,41,21,80,050,46,27,25,049,40*6D
###2023-12-09 13:26:07.023486$GBGSV,2,1,06,14,33,190,43,24,66,041,48,25,48,272,47,26,19,068,44*66
###2023-12-09 13:26:07.025588$GBGSV,2,2,06,33,49,220,47,35,16,060,43,,,,,,,,*63
###2023-12-09 13:26:07.027199$GNVTG,350.22,T,,M,3.44,N,6.37,K,A*24
###2023-12-09 13:26:07.029185$GNGST,182606.10,18.000,,,,0.100,0.070,0.170*54
###2023-12-09 13:26:07.030776$GNZDA,182606.10,09,12,2023,00,00*7B
###2023-12-09 13:26:07.031555$GNEBP,,,,,,M*13
###2023-12-09 13:26:07.191709$GNGGA,182606.30,4138.0593157,N,07032.3438481,W,1,24,0.6,12.929,M,-29.744,M,0.0,*53
###2023-12-09 13:26:07.391067$GNGGA,182606.50,4138.0594953,N,07032.3438784,W,1,24,0.6,12.933,M,-29.744,M,0.0,*53
###2023-12-09 13:26:07.592248$GNGGA,182606.70,4138.0596748,N,07032.3439072,W,1,24,0.6,12.940,M,-29.744,M,0.0,*5C
###2023-12-09 13:26:07.790921$GNGGA,182606.90,4138.0598571,N,07032.3439307,W,1,24,0.6,12.946,M,-29.744,M,0.0,*53
###2023-12-09 13:26:07.994226$GNRMC,182607.10,A,4138.0600422,N,07032.3439384,W,3.38,0.22,091223,,,A*52
###2023-12-09 13:26:07.997118$GNGGA,182607.10,4138.0600422,N,07032.3439384,W,1,24,0.6,12.954,M,-29.743,M,0.0,*50
###2023-12-09 13:26:07.998924$GPGSA,A,3,03,04,16,26,28,29,31,,,,,,1.1,0.6,0.9*3A
###2023-12-09 13:26:08.000638$GLGSA,A,3,65,71,72,73,74,75,,,,,,,1.1,0.6,0.9*24
###2023-12-09 13:26:08.002219$GAGSA,A,3,04,19,21,27,,,,,,,,,1.1,0.6,0.9*26
###2023-12-09 13:26:08.003939$GBGSA,A,3,14,24,25,26,33,35,,,,,,,1.1,0.6,0.9*29
###2023-12-09 13:26:08.006262$GPGSV,2,1,07,03,29,250,41,04,43,309,45,16,62,219,46,26,88,044,48*7C
###2023-12-09 13:26:08.008305$GPGSV,2,2,07,28,41,081,43,29,22,050,40,31,62,060,46,,,,*47
###2023-12-09 13:26:08.010642$GLGSV,2,1,06,65,34,322,43,71,27,175,43,72,67,229,47,73,26,049,40*60
###2023-12-09 13:26:08.012388$GLGSV,2,2,06,74,63,006,41,75,40,266,47,,,,,,,,*61
###2023-12-09 13:26:08.014720$GAGSV,1,1,04,04,37,311,43,19,75,184,41,21,80,050,46,27,25,049,39*63
###2023-12-09 13:26:08.017041$GBGSV,2,1,06,14,33,190,43,24,66,041,47,25,48,272,47,26,19,068,42*6F
###2023-12-09 13:26:08.018821$GBGSV,2,2,06,33,49,220,47,35,16,060,41,,,,,,,,*61
###2023-12-09 13:26:08.020090$GNVTG,0.22,T,,M,3.38,N,6.26,K,A*29
###2023-12-09 13:26:08.021746$GNGST,182607.10,18.000,,,,0.100,0.070,0.170*55
###2023-12-09 13:26:08.023091$GNZDA,182607.10,09,12,2023,00,00*7A
###2023-12-09 13:26:08.023735$GNEBP,,,,,,M*13
###2023-12-09 13:26:08.190316$GNGGA,182607.30,4138.0602320,N,07032.3439280,W,1,24,0.6,12.967,M,-29.743,M,0.0,*50
###2023-12-09 13:26:08.389419$GNGGA,182607.50,4138.0604299,N,07032.3439021,W,1,24,0.6,12.969,M,-29.743,M,0.0,*54
###2023-12-09 13:26:08.593135$GNGGA,182607.70,4138.0606344,N,07032.3438629,W,1,24,0.6,12.968,M,-29.743,M,0.0,*5B
###2023-12-09 13:26:08.790314$GNGGA,182607.90,4138.0608461,N,07032.3438158,W,1,24,0.6,12.976,M,-29.743,M,0.0,*55
###2023-12-09 13:26:09.005179$GNRMC,182608.10,A,4138.0610575,N,07032.3437514,W,3.85,15.63,091223,,,A*69
###2023-12-09 13:26:09.008065$GNGGA,182608.10,4138.0610575,N,07032.3437514,W,1,24,0.6,12.985,M,-29.743,M,0.0,*50
###2023-12-09 13:26:09.009855$GPGSA,A,3,03,04,16,26,28,29,31,,,,,,1.1,0.6,0.9*3A
###2023-12-09 13:26:09.011574$GLGSA,A,3,65,71,72,73,74,75,,,,,,,1.1,0.6,0.9*24
###2023-12-09 13:26:09.013155$GAGSA,A,3,04,19,21,27,,,,,,,,,1.1,0.6,0.9*26
###2023-12-09 13:26:09.014901$GBGSA,A,3,14,24,25,26,33,35,,,,,,,1.1,0.6,0.9*29
###2023-12-09 13:26:09.017214$GPGSV,2,1,07,03,29,250,41,04,43,309,45,16,62,219,47,26,88,044,48*7D
###2023-12-09 13:26:09.019252$GPGSV,2,2,07,28,41,081,41,29,22,050,41,31,62,060,46,,,,*44
###2023-12-09 13:26:09.021563$GLGSV,2,1,06,65,34,322,44,71,27,175,41,72,67,229,47,73,26,049,41*64
###2023-12-09 13:26:09.023318$GLGSV,2,2,06,74,63,006,41,75,40,266,48,,,,,,,,*6E
###2023-12-09 13:26:09.025629$GAGSV,1,1,04,04,37,311,43,19,75,184,41,21,80,050,46,27,25,049,39*63
###2023-12-09 13:26:09.027956$GBGSV,2,1,06,14,33,190,42,24,66,041,48,25,48,272,48,26,19,068,42*6E
###2023-12-09 13:26:09.029692$GBGSV,2,2,06,33,49,220,47,35,16,060,42,,,,,,,,*62
###2023-12-09 13:26:09.030984$GNVTG,15.63,T,,M,3.85,N,7.13,K,A*19
###2023-12-09 13:26:09.032626$GNGST,182608.10,18.000,,,,0.100,0.070,0.170*5A
###2023-12-09 13:26:09.033912$GNZDA,182608.10,09,12,2023,00,00*75
###2023-12-09 13:26:09.034548$GNEBP,,,,,,M*13
###2023-12-09 13:26:09.196470$GNGGA,182608.30,4138.0612578,N,07032.3436570,W,1,24,0.6,12.991,M,-29.743,M,0.0,*5B
###2023-12-09 13:26:09.389152$GNGGA,182608.50,4138.0614541,N,07032.3435439,W,1,24,0.6,12.995,M,-29.743,M,0.0,*5A
###2023-12-09 13:26:09.591208$GNGGA,182608.70,4138.0616475,N,07032.3434352,W,1,24,0.6,12.980,M,-29.743,M,0.0,*53
###2023-12-09 13:26:09.790273$GNGGA,182608.90,4138.0618399,N,07032.3433442,W,1,24,0.6,12.971,M,-29.743,M,0.0,*59
###2023-12-09 13:26:09.992223$GNRMC,182609.10,A,4138.0620287,N,07032.3432413,W,3.65,25.78,091223,,,A*65
###2023-12-09 13:26:09.995326$GNGGA,182609.10,4138.0620287,N,07032.3432413,W,1,24,0.6,12.972,M,-29.743,M,0.0,*53
###2023-12-09 13:26:09.997128$GPGSA,A,3,03,04,16,26,28,29,31,,,,,,1.1,0.6,0.9*3A
###2023-12-09 13:26:09.998860$GLGSA,A,3,65,71,72,73,74,75,,,,,,,1.1,0.6,0.9*24
###2023-12-09 13:26:10.000451$GAGSA,A,3,04,19,21,27,,,,,,,,,1.1,0.6,0.9*26
###2023-12-09 13:26:10.002169$GBGSA,A,3,14,24,25,26,33,35,,,,,,,1.1,0.6,0.9*29
###2023-12-09 13:26:10.004513$GPGSV,2,1,07,03,29,250,40,04,43,309,44,16,62,219,46,26,88,044,48*7C
###2023-12-09 13:26:10.006556$GPGSV,2,2,07,28,41,081,43,29,22,050,41,31,62,060,46,,,,*46
###2023-12-09 13:26:10.008938$GLGSV,2,1,06,65,34,322,43,71,27,175,43,72,67,229,46,73,26,049,41*60
###2023-12-09 13:26:10.010729$GLGSV,2,2,06,74,63,006,41,75,40,266,48,,,,,,,,*6E
###2023-12-09 13:26:10.013054$GAGSV,1,1,04,04,37,311,42,19,75,184,41,21,80,050,45,27,25,049,40*6F
