###2023-12-09 13:03:23.369269$GNGGA,180322.50,4138.0497539,N,07032.3917565,W,1,24,0.6,13.303,M,-29.745,M,0.0,*54
###2023-12-09 13:03:23.567062$GNGGA,180322.70,4138.0498923,N,07032.3918611,W,1,24,0.6,13.303,M,-29.745,M,0.0,*51
###2023-12-09 13:03:23.767370$GNGGA,180322.90,4138.0500319,N,07032.3919616,W,1,24,0.6,13.299,M,-29.745,M,0.0,*58
###2023-12-09 13:03:23.970854$GNRMC,180323.10,A,4138.0501740,N,07032.3920537,W,2.84,336.26,091223,,,A*59
###2023-12-09 13:03:23.973716$GNGGA,180323.10,4138.0501740,N,07032.3920537,W,1,24,0.6,13.299,M,-29.745,M,0.0,*52
###2023-12-09 13:03:23.975593$GPGSA,A,3,03,04,16,26,28,29,31,32,,,,,1.1,0.6,0.9*3B
###2023-12-09 13:03:23.977313$GLGSA,A,3,65,71,72,73,74,75,,,,,,,1.1,0.6,0.9*24
###2023-12-09 13:03:23.978905$GAGSA,A,3,04,19,21,27,,,,,,,,,1.1,0.6,0.9*26
###2023-12-09 13:03:23.980551$GBGSA,A,3,14,24,25,26,33,,,,,,,,1.1,0.6,0.9*2F
###2023-12-09 13:03:23.982888$GPGSV,2,1,08,03,34,260,43,04,33,311,43,16,51,213,46,26,80,210,48*77
###2023-12-09 13:03:23.985226$GPGSV,2,2,08,28,49,070,45,29,25,061,42,31,69,038,47,32,19,140,43*73
###2023-12-09 13:03:23.987580$GLGSV,2,1,06,65,25,327,40,71,40,173,47,72,73,265,46,73,35,042,43*63
###2023-12-09 13:03:23.989331$GLGSV,2,2,06,74,69,340,41,75,33,254,46,,,,,,,,*6E
###2023-12-09 13:03:23.991662$GAGSV,1,1,04,04,29,312,41,19,84,213,41,21,86,114,46,27,32,048,42*62
###2023-12-09 13:03:23.993987$GBGSV,2,1,05,14,43,193,43,24,73,026,48,25,41,263,47,26,26,063,42*6C
###2023-12-09 13:03:23.995449$GBGSV,2,2,05,33,57,231,48,,,,,,,,,,,,*50
###2023-12-09 13:03:23.996773$GNVTG,336.26,T,,M,2.84,N,5.26,K,A*2E
###2023-12-09 13:03:23.998423$GNGST,180323.10,18.000,,,,0.081,0.067,0.160*5B
###2023-12-09 13:03:23.999730$GNZDA,180323.10,09,12,2023,00,00*7B
###2023-12-09 13:03:24.000373$GNEBP,,,,,,M*13
###2023-12-09 13:03:24.165351$GNGGA,180323.30,4138.0503196,N,07032.3921278,W,1,24,0.6,13.298,M,-29.745,M,0.0,*53
###2023-12-09 13:03:24.367719$GNGGA,180323.50,4138.0504670,N,07032.3921748,W,1,24,0.6,13.293,M,-29.745,M,0.0,*50
###2023-12-09 13:03:24.568670$GNGGA,180323.70,4138.0506117,N,07032.3921994,W,1,24,0.6,13.300,M,-29.745,M,0.0,*52
###2023-12-09 13:03:24.767003$GNGGA,180323.90,4138.0507531,N,07032.3922163,W,1,24,0.6,13.298,M,-29.745,M,0.0,*5E
###2023-12-09 13:03:24.968154$GNRMC,180324.10,A,4138.0508907,N,07032.3922311,W,2.49,356.01,091223,,,A*58
###2023-12-09 13:03:24.971607$GNGGA,180324.10,4138.0508907,N,07032.3922311,W,1,24,0.6,13.298,M,-29.745,M,0.0,*50
###2023-12-09 13:03:24.973847$GPGSA,A,3,03,04,16,26,28,29,31,32,,,,,1.1,0.6,0.9*3B
###2023-12-09 13:03:24.975934$GLGSA,A,3,65,71,72,73,74,75,,,,,,,1.1,0.6,0.9*24
###2023-12-09 13:03:24.977844$GAGSA,A,3,04,19,21,27,,,,,,,,,1.1,0.6,0.9*26
###2023-12-09 13:03:24.979845$GBGSA,A,3,14,24,25,26,33,,,,,,,,1.1,0.6,0.9*2F
###2023-12-09 13:03:24.982660$GPGSV,2,1,08,03,34,260,43,04,33,311,43,16,51,213,46,26,80,210,48*77
###2023-12-09 13:03:24.985482$GPGSV,2,2,08,28,49,070,44,29,25,061,41,31,69,038,46,32,19,140,43*70
###2023-12-09 13:03:24.988304$GLGSV,2,1,06,65,25,327,41,71,40,173,47,72,73,265,47,73,35,042,44*64
###2023-12-09 13:03:24.990401$GLGSV,2,2,06,74,69,340,41,75,33,254,45,,,,,,,,*6D
###2023-12-09 13:03:24.993214$GAGSV,1,1,04,04,29,312,42,19,84,213,41,21,86,114,46,27,32,048,41*62
###2023-12-09 13:03:24.996027$GBGSV,2,1,05,14,43,193,45,24,73,026,47,25,41,263,47,26,26,063,41*66
###2023-12-09 13:03:24.997812$GBGSV,2,2,05,33,57,231,48,,,,,,,,,,,,*50
###2023-12-09 13:03:24.999428$GNVTG,356.01,T,,M,2.49,N,4.61,K,A*2E
###2023-12-09 13:03:25.001412$GNGST,180324.10,18.000,,,,0.081,0.067,0.160*5C
###2023-12-09 13:03:25.002974$GNZDA,180324.10,09,12,2023,00,00*7C
###2023-12-09 13:03:25.003744$GNEBP,,,,,,M*13
###2023-12-09 13:03:25.165930$GNGGA,180324.30,4138.0510261,N,07032.3922289,W,1,24,0.6,13.297,M,-29.745,M,0.0,*5F
###2023-12-09 13:03:25.366431$GNGGA,180324.50,4138.0511596,N,07032.3922018,W,1,24,0.6,13.301,M,-29.745,M,0.0,*53
###2023-12-09 13:03:25.566801$GNGGA,180324.70,4138.0512960,N,07032.3921653,W,1,24,0.6,13.306,M,-29.745,M,0.0,*5A
###2023-12-09 13:03:25.769354$GNGGA,180324.90,4138.0514371,N,07032.3921354,W,1,24,0.6,13.318,M,-29.745,M,0.0,*55
###2023-12-09 13:03:25.968835$GNRMC,180325.10,A,4138.0515803,N,07032.3921060,W,2.62,9.12,091223,,,A*54
###2023-12-09 13:03:25.972339$GNGGA,180325.10,4138.0515803,N,07032.3921060,W,1,24,0.6,13.318,M,-29.745,M,0.0,*57
###2023-12-09 13:03:25.974604$GPGSA,A,3,03,04,16,26,28,29,31,32,,,,,1.1,0.6,0.9*3B
###2023-12-09 13:03:25.976669$GLGSA,A,3,65,71,72,73,74,75,,,,,,,1.1,0.6,0.9*24
###2023-12-09 13:03:25.978581$GAGSA,A,3,04,19,21,27,,,,,,,,,1.1,0.6,0.9*26
###2023-12-09 13:03:25.980561$GBGSA,A,3,14,24,25,26,33,,,,,,,,1.1,0.6,0.9*2F
###2023-12-09 13:03:25.983383$GPGSV,2,1,08,03,34,260,44,04,33,311,44,16,51,213,47,26,80,210,48*76
###2023-12-09 13:03:25.986196$GPGSV,2,2,08,28,49,070,43,29,25,061,39,31,69,038,45,32,19,140,41*79
###2023-12-09 13:03:25.989053$GLGSV,2,1,06,65,25,327,42,71,40,173,45,72,73,265,46,73,35,042,43*63
###2023-12-09 13:03:25.991181$GLGSV,2,2,06,74,69,340,42,75,33,254,46,,,,,,,,*6D
###2023-12-09 13:03:25.993993$GAGSV,1,1,04,04,29,312,42,19,84,213,40,21,86,114,46,27,32,048,40*62
###2023-12-09 13:03:25.996811$GBGSV,2,1,05,14,43,193,45,24,73,026,48,25,41,263,46,26,26,063,41*68
###2023-12-09 13:03:25.998579$GBGSV,2,2,05,33,57,231,48,,,,,,,,,,,,*50
###2023-12-09 13:03:26.000096$GNVTG,9.12,T,,M,2.62,N,4.86,K,A*25
###2023-12-09 13:03:26.002076$GNGST,180325.10,18.000,,,,0.081,0.067,0.160*5D
###2023-12-09 13:03:26.003645$GNZDA,180325.10,09,12,2023,00,00*7D
###2023-12-09 13:03:26.004418$GNEBP,,,,,,M*13
###2023-12-09 13:03:26.165897$GNGGA,180325.30,4138.0517164,N,07032.3920570,W,1,24,0.6,13.319,M,-29.745,M,0.0,*5B
###2023-12-09 13:03:26.365967$GNGGA,180325.50,4138.0518450,N,07032.3919846,W,1,24,0.6,13.311,M,-29.745,M,0.0,*5A
###2023-12-09 13:03:26.566482$GNGGA,180325.70,4138.0519738,N,07032.3919155,W,1,24,0.6,13.297,M,-29.744,M,0.0,*51
###2023-12-09 13:03:26.765618$GNGGA,180325.90,4138.0521124,N,07032.3918915,W,1,24,0.6,13.305,M,-29.744,M,0.0,*58
###2023-12-09 13:03:26.967365$GNRMC,180326.10,A,4138.0522524,N,07032.3918638,W,2.59,18.01,091223,,,A*60
###2023-12-09 13:03:26.970210$GNGGA,180326.10,4138.0522524,N,07032.3918638,W,1,24,0.6,13.315,M,-29.744,M,0.0,*55
###2023-12-09 13:03:26.972078$GPGSA,A,3,03,04,16,26,28,29,31,32,,,,,1.1,0.6,0.9*3B
###2023-12-09 13:03:26.973793$GLGSA,A,3,65,71,72,73,74,75,,,,,,,1.1,0.6,0.9*24
###2023-12-09 13:03:26.975385$GAGSA,A,3,04,19,21,27,,,,,,,,,1.1,0.6,0.9*26
###2023-12-09 13:03:26.977027$GBGSA,A,3,14,24,25,26,33,,,,,,,,1.1,0.6,0.9*2F
###2023-12-09 13:03:26.979367$GPGSV,2,1,08,03,34,260,44,04,33,311,44,16,51,213,47,26,80,210,48*76
###2023-12-09 13:03:26.981740$GPGSV,2,2,08,28,49,070,43,29,25,061,39,31,69,038,46,32,19,140,40*7B
###2023-12-09 13:03:26.984086$GLGSV,2,1,06,65,25,327,43,71,40,173,44,72,73,265,46,73,35,042,42*62
###2023-12-09 13:03:26.985829$GLGSV,2,2,06,74,69,340,42,75,33,254,45,,,,,,,,*6E
###2023-12-09 13:03:26.988155$GAGSV,1,1,04,04,29,312,43,19,84,213,40,21,86,114,46,27,32,048,39*6D
###2023-12-09 13:03:26.990477$GBGSV,2,1,05,14,43,193,44,24,73,026,47,25,41,263,48,26,26,063,41*68
###2023-12-09 13:03:26.991936$GBGSV,2,2,05,33,57,231,48,,,,,,,,,,,,*50
###2023-12-09 13:03:26.993226$GNVTG,18.01,T,,M,2.59,N,4.79,K,A*1F
###2023-12-09 13:03:26.994879$GNGST,180326.10,18.000,,,,0.081,0.068,0.160*51
###2023-12-09 13:03:26.996168$GNZDA,180326.10,09,12,2023,00,00*7E
###2023-12-09 13:03:26.996806$GNEBP,,,,,,M*13
###2023-12-09 13:03:27.167371$GNGGA,180326.30,4138.0523873,N,07032.3917802,W,1,24,0.6,13.338,M,-29.744,M,0.0,*5E
###2023-12-09 13:03:27.365710$GNGGA,180326.50,4138.0525237,N,07032.3916906,W,1,24,0.6,13.326,M,-29.744,M,0.0,*5F
###2023-12-09 13:03:27.565360$GNGGA,180326.70,4138.0526640,N,07032.3916428,W,1,24,0.6,13.315,M,-29.744,M,0.0,*5B
###2023-12-09 13:03:27.766435$GNGGA,180326.90,4138.0528065,N,07032.3916253,W,1,24,0.6,13.314,M,-29.744,M,0.0,*51
###2023-12-09 13:03:27.969233$GNRMC,180327.10,A,4138.0529464,N,07032.3915730,W,2.72,22.72,091223,,,A*6F
###2023-12-09 13:03:27.972101$GNGGA,180327.10,4138.0529464,N,07032.3915730,W,1,24,0.6,13.318,M,-29.744,M,0.0,*53
###2023-12-09 13:03:27.973949$GPGSA,A,3,03,04,16,26,28,29,31,32,,,,,1.1,0.6,0.9*3B
###2023-12-09 13:03:27.975913$GLGSA,A,3,65,71,72,73,74,75,,,,,,,1.1,0.6,0.9*24
###2023-12-09 13:03:27.977496$GAGSA,A,3,04,19,21,27,,,,,,,,,1.1,0.6,0.9*26
###2023-12-09 13:03:27.979150$GBGSA,A,3,14,24,25,26,33,,,,,,,,1.1,0.6,0.9*2F
###2023-12-09 13:03:27.981467$GPGSV,2,1,08,03,34,260,45,04,33,311,43,16,51,213,47,26,81,210,48*71
###2023-12-09 13:03:27.983797$GPGSV,2,2,08,28,49,070,43,29,25,061,39,31,69,038,45,32,19,140,42*7A
###2023-12-09 13:03:27.986123$GLGSV,2,1,06,65,25,327,41,71,40,173,45,72,73,265,46,73,35,042,41*62
###2023-12-09 13:03:27.987871$GLGSV,2,2,06,74,69,340,41,75,33,254,45,,,,,,,,*6D
###2023-12-09 13:03:27.990223$GAGSV,1,1,04,04,29,312,43,19,84,213,40,21,86,114,46,27,32,048,39*6D
###2023-12-09 13:03:27.992549$GBGSV,2,1,05,14,43,193,44,24,73,026,48,25,41,263,48,26,26,063,40*66
###2023-12-09 13:03:27.993993$GBGSV,2,2,05,33,57,231,48,,,,,,,,,,,,*50
