###2023-12-09 13:01:57.976036$GLGSA,A,3,65,71,72,73,74,75,,,,,,,1.1,0.6,0.9*24
###2023-12-09 13:01:57.977647$GAGSA,A,3,04,19,21,27,,,,,,,,,1.1,0.6,0.9*26
###2023-12-09 13:01:57.979311$GBGSA,A,3,14,24,25,26,33,,,,,,,,1.1,0.6,0.9*2F
###2023-12-09 13:01:57.981631$GPGSV,2,1,08,03,35,261,41,04,33,311,42,16,50,212,46,26,80,210,47*7B
###2023-12-09 13:01:57.983983$GPGSV,2,2,08,28,49,070,45,29,25,061,42,31,69,038,47,32,19,140,42*72
###2023-12-09 13:01:57.986320$GLGSV,2,1,06,65,24,327,39,71,41,173,46,72,73,269,45,73,36,041,45*65
###2023-12-09 13:01:57.988102$GLGSV,2,2,06,74,70,337,42,75,32,253,40,,,,,,,,*65
###2023-12-09 13:01:57.990427$GAGSV,1,1,04,04,29,312,40,19,84,216,40,21,86,120,45,27,33,048,40*60
###2023-12-09 13:01:57.992784$GBGSV,2,1,05,14,43,193,44,24,74,024,48,25,41,262,43,26,26,063,44*6D
###2023-12-09 13:01:57.994246$GBGSV,2,2,05,33,57,233,48,,,,,,,,,,,,*52
###2023-12-09 13:01:57.995585$GNVTG,281.89,T,,M,3.56,N,6.59,K,A*23
###2023-12-09 13:01:57.997230$GNGST,180157.10,18.000,,,,0.081,0.069,0.160*54
###2023-12-09 13:01:57.998521$GNZDA,180157.10,09,12,2023,00,00*7A
###2023-12-09 13:01:57.999170$GNEBP,,,,,,M*13
###2023-12-09 13:01:58.164238$GNGGA,180157.30,4138.0452377,N,07032.2858476,W,1,24,0.6,13.442,M,-29.743,M,0.0,*5B
###2023-12-09 13:01:58.366301$GNGGA,180157.50,4138.0452718,N,07032.2861084,W,1,24,0.6,13.443,M,-29.743,M,0.0,*52
###2023-12-09 13:01:58.565051$GNGGA,180157.70,4138.0452964,N,07032.2863683,W,1,24,0.6,13.438,M,-29.743,M,0.0,*5A
###2023-12-09 13:01:58.765217$GNGGA,180157.90,4138.0453044,N,07032.2866239,W,1,24,0.6,13.433,M,-29.743,M,0.0,*55
###2023-12-09 13:01:58.967210$GNRMC,180158.10,A,4138.0453013,N,07032.2868694,W,3.27,269.74,091223,,,A*52
###2023-12-09 13:01:58.970072$GNGGA,180158.10,4138.0453013,N,07032.2868694,W,1,24,0.6,13.430,M,-29.743,M,0.0,*5E
###2023-12-09 13:01:58.971954$GPGSA,A,3,03,04,16,26,28,29,31,32,,,,,1.1,0.6,0.9*3B
###2023-12-09 13:01:58.973670$GLGSA,A,3,65,71,72,73,74,75,,,,,,,1.1,0.6,0.9*24
###2023-12-09 13:01:58.975268$GAGSA,A,3,04,19,21,27,,,,,,,,,1.1,0.6,0.9*26
###2023-12-09 13:01:58.976922$GBGSA,A,3,14,24,25,26,33,,,,,,,,1.1,0.6,0.9*2F
###2023-12-09 13:01:58.979258$GPGSV,2,1,08,03,35,261,41,04,33,311,39,16,50,212,44,26,80,210,45*77
###2023-12-09 13:01:58.981600$GPGSV,2,2,08,28,49,070,43,29,25,061,40,31,69,038,46,32,19,140,42*77
###2023-12-09 13:01:58.983959$GLGSV,2,1,06,65,24,327,41,71,41,173,47,72,73,269,45,73,36,041,45*6B
###2023-12-09 13:01:58.985709$GLGSV,2,2,06,74,70,337,42,75,32,253,43,,,,,,,,*66
###2023-12-09 13:01:58.988060$GAGSV,1,1,04,04,29,312,39,19,84,216,39,21,86,120,45,27,33,048,41*61
###2023-12-09 13:01:58.990407$GBGSV,2,1,05,14,43,193,44,24,74,024,48,25,41,262,44,26,26,063,41*6F
###2023-12-09 13:01:58.991882$GBGSV,2,2,05,33,57,233,47,,,,,,,,,,,,*5D
###2023-12-09 13:01:58.993208$GNVTG,269.74,T,,M,3.27,N,6.05,K,A*28
###2023-12-09 13:01:58.994874$GNGST,180158.10,18.000,,,,0.081,0.069,0.160*5B
###2023-12-09 13:01:58.996169$GNZDA,180158.10,09,12,2023,00,00*75
###2023-12-09 13:01:58.996810$GNEBP,,,,,,M*13
###2023-12-09 13:01:59.164232$GNGGA,180158.30,4138.0453041,N,07032.2871102,W,1,24,0.6,13.441,M,-29.743,M,0.0,*5D
###2023-12-09 13:01:59.365183$GNGGA,180158.50,4138.0452979,N,07032.2873481,W,1,24,0.6,13.428,M,-29.743,M,0.0,*5B
###2023-12-09 13:01:59.565031$GNGGA,180158.70,4138.0453106,N,07032.2875888,W,1,24,0.6,13.432,M,-29.743,M,0.0,*50
###2023-12-09 13:01:59.765174$GNGGA,180158.90,4138.0453401,N,07032.2878311,W,1,24,0.6,13.450,M,-29.743,M,0.0,*5E
###2023-12-09 13:01:59.967169$GNRMC,180159.10,A,4138.0453636,N,07032.2880819,W,3.48,275.63,091223,,,A*5D
###2023-12-09 13:01:59.970048$GNGGA,180159.10,4138.0453636,N,07032.2880819,W,1,24,0.6,13.469,M,-29.743,M,0.0,*5F
###2023-12-09 13:01:59.971934$GPGSA,A,3,03,04,16,26,28,29,31,32,,,,,1.1,0.6,0.9*3B
###2023-12-09 13:01:59.973662$GLGSA,A,3,65,71,72,73,74,75,,,,,,,1.1,0.6,0.9*24
###2023-12-09 13:01:59.975269$GAGSA,A,3,04,19,21,27,,,,,,,,,1.1,0.6,0.9*26
###2023-12-09 13:01:59.976931$GBGSA,A,3,14,24,25,26,33,,,,,,,,1.1,0.6,0.9*2F
###2023-12-09 13:01:59.979282$GPGSV,2,1,08,03,35,261,42,04,33,311,41,16,50,212,44,26,80,210,47*79
###2023-12-09 13:01:59.981635$GPGSV,2,2,08,28,49,070,44,29,25,061,40,31,69,038,47,32,19,140,41*72
###2023-12-09 13:01:59.983992$GLGSV,2,1,06,65,24,327,41,71,41,173,46,72,73,269,46,73,36,041,45*69
###2023-12-09 13:01:59.985745$GLGSV,2,2,06,74,70,337,42,75,32,253,42,,,,,,,,*67
###2023-12-09 13:01:59.988099$GAGSV,1,1,04,04,29,312,40,19,84,216,40,21,86,120,46,27,33,048,41*62
###2023-12-09 13:01:59.990439$GBGSV,2,1,05,14,43,193,45,24,74,024,48,25,41,262,43,26,26,063,42*6A
###2023-12-09 13:01:59.991907$GBGSV,2,2,05,33,57,233,47,,,,,,,,,,,,*5D
###2023-12-09 13:01:59.993235$GNVTG,275.63,T,,M,3.48,N,6.44,K,A*2F
###2023-12-09 13:01:59.994898$GNGST,180159.10,18.000,,,,0.082,0.070,0.160*51
###2023-12-09 13:01:59.996197$GNZDA,180159.10,09,12,2023,00,00*74
###2023-12-09 13:01:59.996839$GNEBP,,,,,,M*13
###2023-12-09 13:02:00.164103$GNGGA,180159.30,4138.0453765,N,07032.2883452,W,1,24,0.6,13.483,M,-29.743,M,0.0,*5E
###2023-12-09 13:02:00.364458$GNGGA,180159.50,4138.0453790,N,07032.2886182,W,1,24,0.6,13.483,M,-29.743,M,0.0,*5F
###2023-12-09 13:02:00.564858$GNGGA,180159.70,4138.0453836,N,07032.2888967,W,1,24,0.6,13.477,M,-29.743,M,0.0,*58
###2023-12-09 13:02:00.765195$GNGGA,180159.90,4138.0453897,N,07032.2891753,W,1,24,0.6,13.479,M,-29.743,M,0.0,*52
###2023-12-09 13:02:00.967165$GNRMC,180200.10,A,4138.0453822,N,07032.2894565,W,3.75,266.09,091223,,,A*5A
###2023-12-09 13:02:00.970024$GNGGA,180200.10,4138.0453822,N,07032.2894565,W,1,24,0.6,13.464,M,-29.743,M,0.0,*55
###2023-12-09 13:02:00.971899$GPGSA,A,3,03,04,16,26,28,29,31,32,,,,,1.1,0.6,0.9*3B
###2023-12-09 13:02:00.973616$GLGSA,A,3,65,71,72,73,74,75,,,,,,,1.1,0.6,0.9*24
###2023-12-09 13:02:00.975222$GAGSA,A,3,04,19,21,27,,,,,,,,,1.1,0.6,0.9*26
###2023-12-09 13:02:00.976876$GBGSA,A,3,14,24,25,26,33,,,,,,,,1.1,0.6,0.9*2F
###2023-12-09 13:02:00.979219$GPGSV,2,1,08,03,35,261,42,04,33,311,40,16,50,212,45,26,80,210,47*79
###2023-12-09 13:02:00.981554$GPGSV,2,2,08,28,49,070,44,29,25,061,41,31,69,038,47,32,19,140,43*71
###2023-12-09 13:02:00.983892$GLGSV,2,1,06,65,24,327,41,71,41,173,46,72,73,269,45,73,36,041,45*6A
###2023-12-09 13:02:00.985646$GLGSV,2,2,06,74,70,337,42,75,32,253,42,,,,,,,,*67
###2023-12-09 13:02:00.987996$GAGSV,1,1,04,04,29,312,40,19,84,213,40,21,86,120,46,27,33,048,41*67
###2023-12-09 13:02:00.990336$GBGSV,2,1,05,14,43,193,45,24,74,024,49,25,41,262,44,26,26,063,42*6C
###2023-12-09 13:02:00.991802$GBGSV,2,2,05,33,57,233,48,,,,,,,,,,,,*52
###2023-12-09 13:02:00.993133$GNVTG,266.09,T,,M,3.75,N,6.95,K,A*23
###2023-12-09 13:02:00.994789$GNGST,180200.10,18.000,,,,0.082,0.070,0.160*5E
###2023-12-09 13:02:00.996079$GNZDA,180200.10,09,12,2023,00,00*7B
###2023-12-09 13:02:00.996716$GNEBP,,,,,,M*13
###2023-12-09 13:02:01.164123$GNGGA,180200.30,4138.0453761,N,07032.2897340,W,1,24,0.6,13.467,M,-29.743,M,0.0,*5E
###2023-12-09 13:02:01.364873$GNGGA,180200.50,4138.0453821,N,07032.2900138,W,1,24,0.6,13.493,M,-29.743,M,0.0,*5A
###2023-12-09 13:02:01.565423$GNGGA,180200.70,4138.0454032,N,07032.2902922,W,1,24,0.6,13.513,M,-29.743,M,0.0,*5D
###2023-12-09 13:02:01.765314$GNGGA,180200.90,4138.0454244,N,07032.2905684,W,1,24,0.6,13.518,M,-29.743,M,0.0,*5F
###2023-12-09 13:02:01.967444$GNRMC,180201.10,A,4138.0454308,N,07032.2908448,W,3.69,271.72,091223,,,A*52
###2023-12-09 13:02:01.970296$GNGGA,180201.10,4138.0454308,N,07032.2908448,W,1,24,0.6,13.494,M,-29.743,M,0.0,*55
###2023-12-09 13:02:01.972207$GPGSA,A,3,03,04,16,26,28,29,31,32,,,,,1.1,0.6,0.9*3B
###2023-12-09 13:02:01.973924$GLGSA,A,3,65,71,72,73,74,75,,,,,,,1.1,0.6,0.9*24
###2023-12-09 13:02:01.975526$GAGSA,A,3,04,19,21,27,,,,,,,,,1.1,0.6,0.9*26
###2023-12-09 13:02:01.977165$GBGSA,A,3,14,24,25,26,33,,,,,,,,1.1,0.6,0.9*2F
###2023-12-09 13:02:01.979495$GPGSV,2,1,08,03,35,261,41,04,33,311,39,16,50,212,46,26,80,210,47*77
###2023-12-09 13:02:01.981834$GPGSV,2,2,08,28,49,070,46,29,25,061,42,31,69,038,47,32,19,140,42*71
###2023-12-09 13:02:01.984187$GLGSV,2,1,06,65,24,327,40,71,41,173,46,72,73,269,45,73,36,041,45*6B
###2023-12-09 13:02:01.985946$GLGSV,2,2,06,74,70,337,42,75,32,253,41,,,,,,,,*64
###2023-12-09 13:02:01.988535$GAGSV,1,1,04,04,29,312,40,19,84,213,40,21,86,114,46,27,33,048,41*60
###2023-12-09 13:02:01.990897$GBGSV,2,1,05,14,43,193,44,24,74,024,48,25,41,262,45,26,26,063,41*6E
###2023-12-09 13:02:01.992362$GBGSV,2,2,05,33,57,233,47,,,,,,,,,,,,*5D
###2023-12-09 13:02:01.993687$GNVTG,271.72,T,,M,3.69,N,6.84,K,A*24
###2023-12-09 13:02:01.995345$GNGST,180201.10,18.000,,,,0.082,0.070,0.160*5F
###2023-12-09 13:02:01.996641$GNZDA,180201.10,09,12,2023,00,00*7A
###2023-12-09 13:02:01.997283$GNEBP,,,,,,M*13
###2023-12-09 13:02:02.163917$GNGGA,180201.30,4138.0454581,N,07032.2911160,W,1,24,0.6,13.484,M,-29.743,M,0.0,*56
###2023-12-09 13:02:02.364439$GNGGA,180201.50,4138.0455118,N,07032.2913792,W,1,24,0.6,13.504,M,-29.743,M,0.0,*55
