###2023-12-09 13:09:53.987806$GPGSV,2,2,08,28,46,074,45,29,24,057,43,31,67,046,47,32,15,141,40*74
###2023-12-09 13:09:53.990159$GLGSV,2,1,06,65,27,326,43,71,36,173,43,72,72,254,45,73,32,044,45*61
###2023-12-09 13:09:53.991931$GLGSV,2,2,06,74,68,348,42,75,35,257,46,,,,,,,,*61
###2023-12-09 13:09:53.994253$GAGSV,1,1,04,04,32,312,42,19,82,199,40,21,85,085,46,27,31,048,41*67
###2023-12-09 13:09:53.996592$GBGSV,2,1,06,14,40,192,41,24,71,031,49,25,43,265,47,26,24,064,44*6D
###2023-12-09 13:09:53.998339$GBGSV,2,2,06,33,55,228,48,35,15,066,43,,,,,,,,*6C
###2023-12-09 13:09:53.999684$GNVTG,183.87,T,,M,3.50,N,6.48,K,A*2A
###2023-12-09 13:09:54.001331$GNGST,180953.10,18.000,,,,0.084,0.064,0.150*53
###2023-12-09 13:09:54.002651$GNZDA,180953.10,09,12,2023,00,00*76
###2023-12-09 13:09:54.003294$GNEBP,,,,,,M*13
###2023-12-09 13:09:54.170311$GNGGA,180953.30,4138.0582951,N,07032.2592457,W,1,25,0.6,13.327,M,-29.742,M,0.0,*59
###2023-12-09 13:09:54.370434$GNGGA,180953.50,4138.0581049,N,07032.2592190,W,1,25,0.6,13.325,M,-29.742,M,0.0,*50
###2023-12-09 13:09:54.571295$GNGGA,180953.70,4138.0579078,N,07032.2592056,W,1,25,0.6,13.329,M,-29.742,M,0.0,*50
###2023-12-09 13:09:54.771289$GNGGA,180953.90,4138.0577138,N,07032.2591925,W,1,25,0.6,13.331,M,-29.742,M,0.0,*52
###2023-12-09 13:09:54.974107$GNRMC,180954.10,A,4138.0575174,N,07032.2591765,W,3.50,173.74,091223,,,A*5F
###2023-12-09 13:09:54.977025$GNGGA,180954.10,4138.0575174,N,07032.2591765,W,1,25,0.6,13.335,M,-29.742,M,0.0,*59
###2023-12-09 13:09:54.978916$GPGSA,A,3,03,04,16,26,28,29,31,32,,,,,1.1,0.6,0.9*3B
###2023-12-09 13:09:54.980642$GLGSA,A,3,65,71,72,73,74,75,,,,,,,1.1,0.6,0.9*24
###2023-12-09 13:09:54.982241$GAGSA,A,3,04,19,21,27,,,,,,,,,1.1,0.6,0.9*26
###2023-12-09 13:09:54.983978$GBGSA,A,3,14,24,25,26,33,35,,,,,,,1.1,0.6,0.9*29
###2023-12-09 13:09:54.986313$GPGSV,2,1,08,03,33,257,43,04,36,311,44,16,54,214,46,26,84,210,48*70
###2023-12-09 13:09:54.988668$GPGSV,2,2,08,28,46,074,46,29,24,057,43,31,67,046,47,32,15,141,40*77
###2023-12-09 13:09:54.991012$GLGSV,2,1,06,65,27,326,43,71,36,173,43,72,72,254,46,73,32,044,45*62
###2023-12-09 13:09:54.992763$GLGSV,2,2,06,74,68,348,43,75,35,257,46,,,,,,,,*60
###2023-12-09 13:09:54.995107$GAGSV,1,1,04,04,32,312,42,19,82,199,40,21,85,085,46,27,31,048,42*64
###2023-12-09 13:09:54.997442$GBGSV,2,1,06,14,40,192,42,24,71,031,49,25,43,265,48,26,24,064,44*61
###2023-12-09 13:09:54.999205$GBGSV,2,2,06,33,55,228,48,35,15,066,43,,,,,,,,*6C
###2023-12-09 13:09:55.000533$GNVTG,173.74,T,,M,3.50,N,6.48,K,A*29
###2023-12-09 13:09:55.002185$GNGST,180954.10,18.000,,,,0.084,0.064,0.150*54
###2023-12-09 13:09:55.003496$GNZDA,180954.10,09,12,2023,00,00*71
###2023-12-09 13:09:55.004137$GNEBP,,,,,,M*13
###2023-12-09 13:09:55.170274$GNGGA,180954.30,4138.0573248,N,07032.2591537,W,1,25,0.6,13.343,M,-29.742,M,0.0,*55
###2023-12-09 13:09:55.374736$GNGGA,180954.50,4138.0571266,N,07032.2591322,W,1,25,0.6,13.341,M,-29.742,M,0.0,*5D
###2023-12-09 13:09:55.571244$GNGGA,180954.70,4138.0569298,N,07032.2591141,W,1,25,0.6,13.326,M,-29.742,M,0.0,*51
###2023-12-09 13:09:55.771242$GNGGA,180954.90,4138.0567365,N,07032.2591330,W,1,25,0.6,13.349,M,-29.742,M,0.0,*5F
###2023-12-09 13:09:55.973932$GNRMC,180955.10,A,4138.0565404,N,07032.2591435,W,3.42,179.56,091223,,,A*52
###2023-12-09 13:09:55.976832$GNGGA,180955.10,4138.0565404,N,07032.2591435,W,1,25,0.6,13.355,M,-29.742,M,0.0,*5B
###2023-12-09 13:09:55.978704$GPGSA,A,3,03,04,16,26,28,29,31,32,,,,,1.1,0.6,0.9*3B
###2023-12-09 13:09:55.980410$GLGSA,A,3,65,71,72,73,74,75,,,,,,,1.1,0.6,0.9*24
###2023-12-09 13:09:55.981988$GAGSA,A,3,04,19,21,27,,,,,,,,,1.1,0.6,0.9*26
###2023-12-09 13:09:55.983709$GBGSA,A,3,14,24,25,26,33,35,,,,,,,1.1,0.6,0.9*29
###2023-12-09 13:09:55.986037$GPGSV,2,1,08,03,33,257,42,04,36,311,44,16,54,214,46,26,84,210,48*71
###2023-12-09 13:09:55.988382$GPGSV,2,2,08,28,46,074,45,29,24,057,43,31,67,046,48,32,15,141,40*7B
###2023-12-09 13:09:55.990715$GLGSV,2,1,06,65,27,326,42,71,36,173,42,72,72,254,46,73,32,044,45*62
###2023-12-09 13:09:55.992451$GLGSV,2,2,06,74,68,348,43,75,35,257,46,,,,,,,,*60
###2023-12-09 13:09:55.994781$GAGSV,1,1,04,04,32,312,43,19,82,199,40,21,85,085,46,27,31,048,41*66
###2023-12-09 13:09:55.997110$GBGSV,2,1,06,14,40,192,41,24,71,031,48,25,43,265,47,26,24,064,42*6A
###2023-12-09 13:09:55.998864$GBGSV,2,2,06,33,55,228,47,35,15,066,43,,,,,,,,*63
###2023-12-09 13:09:56.000186$GNVTG,179.56,T,,M,3.42,N,6.34,K,A*2B
###2023-12-09 13:09:56.001827$GNGST,180955.10,18.000,,,,0.084,0.064,0.150*55
###2023-12-09 13:09:56.003133$GNZDA,180955.10,09,12,2023,00,00*70
###2023-12-09 13:09:56.003774$GNEBP,,,,,,M*13
###2023-12-09 13:09:56.171214$GNGGA,180955.30,4138.0563435,N,07032.2591390,W,1,25,0.6,13.342,M,-29.742,M,0.0,*53
###2023-12-09 13:09:56.373452$GNGGA,180955.50,4138.0561450,N,07032.2591384,W,1,25,0.6,13.336,M,-29.742,M,0.0,*52
###2023-12-09 13:09:56.571201$GNGGA,180955.70,4138.0559509,N,07032.2591739,W,1,25,0.6,13.359,M,-29.742,M,0.0,*5D
###2023-12-09 13:09:56.771307$GNGGA,180955.90,4138.0557505,N,07032.2591946,W,1,25,0.6,13.347,M,-29.742,M,0.0,*58
###2023-12-09 13:09:56.981768$GNRMC,180956.10,A,4138.0555571,N,07032.2591969,W,3.42,182.40,091223,,,A*56
###2023-12-09 13:09:56.984664$GNGGA,180956.10,4138.0555571,N,07032.2591969,W,1,25,0.6,13.331,M,-29.742,M,0.0,*5E
###2023-12-09 13:09:56.986523$GPGSA,A,3,03,04,16,26,28,29,31,32,,,,,1.1,0.6,0.9*3B
###2023-12-09 13:09:56.988251$GLGSA,A,3,65,71,72,73,74,75,,,,,,,1.1,0.6,0.9*24
###2023-12-09 13:09:56.989832$GAGSA,A,3,04,19,21,27,,,,,,,,,1.1,0.6,0.9*26
###2023-12-09 13:09:56.991553$GBGSA,A,3,14,24,25,26,33,35,,,,,,,1.1,0.6,0.9*29
###2023-12-09 13:09:56.993883$GPGSV,2,1,08,03,33,257,43,04,36,311,44,16,54,214,44,26,84,210,48*72
###2023-12-09 13:09:56.996224$GPGSV,2,2,08,28,46,074,46,29,24,057,43,31,67,046,47,32,15,141,42*75
###2023-12-09 13:09:56.998556$GLGSV,2,1,06,65,27,326,43,71,36,173,42,72,72,254,45,73,32,044,43*66
###2023-12-09 13:09:57.000313$GLGSV,2,2,06,74,68,348,43,75,35,257,45,,,,,,,,*63
###2023-12-09 13:09:57.002646$GAGSV,1,1,04,04,32,312,42,19,82,199,40,21,85,085,46,27,31,048,41*67
###2023-12-09 13:09:57.004977$GBGSV,2,1,06,14,40,192,42,24,71,031,49,25,43,265,46,26,24,064,44*6F
###2023-12-09 13:09:57.006735$GBGSV,2,2,06,33,55,228,47,35,15,066,44,,,,,,,,*64
###2023-12-09 13:09:57.008061$GNVTG,182.40,T,,M,3.42,N,6.34,K,A*28
###2023-12-09 13:09:57.009706$GNGST,180956.10,18.000,,,,0.084,0.065,0.150*57
###2023-12-09 13:09:57.011036$GNZDA,180956.10,09,12,2023,00,00*73
###2023-12-09 13:09:57.011677$GNEBP,,,,,,M*13
###2023-12-09 13:09:57.176972$GNGGA,180956.30,4138.0553608,N,07032.2592225,W,1,25,0.6,13.354,M,-29.742,M,0.0,*54
###2023-12-09 13:09:57.370450$GNGGA,180956.50,4138.0551630,N,07032.2592504,W,1,25,0.6,13.342,M,-29.742,M,0.0,*58
###2023-12-09 13:09:57.571157$GNGGA,180956.70,4138.0549707,N,07032.2592661,W,1,25,0.6,13.340,M,-29.742,M,0.0,*54
###2023-12-09 13:09:57.771515$GNGGA,180956.90,4138.0547731,N,07032.2592808,W,1,25,0.6,13.345,M,-29.742,M,0.0,*55
###2023-12-09 13:09:57.975057$GNRMC,180957.10,A,4138.0545756,N,07032.2592910,W,3.56,181.48,091223,,,A*52
###2023-12-09 13:09:57.977930$GNGGA,180957.10,4138.0545756,N,07032.2592910,W,1,25,0.6,13.338,M,-29.742,M,0.0,*5D
###2023-12-09 13:09:57.979804$GPGSA,A,3,03,04,16,26,28,29,31,32,,,,,1.1,0.6,0.9*3B
###2023-12-09 13:09:57.981522$GLGSA,A,3,65,71,72,73,74,75,,,,,,,1.1,0.6,0.9*24
###2023-12-09 13:09:57.983120$GAGSA,A,3,04,19,21,27,,,,,,,,,1.1,0.6,0.9*26
###2023-12-09 13:09:57.984838$GBGSA,A,3,14,24,25,26,33,35,,,,,,,1.1,0.6,0.9*29
###2023-12-09 13:09:57.987181$GPGSV,2,1,08,03,33,257,41,04,36,311,44,16,54,214,45,26,84,210,46*7F
###2023-12-09 13:09:57.989514$GPGSV,2,2,08,28,46,074,45,29,24,057,42,31,67,046,47,32,15,141,40*75
###2023-12-09 13:09:57.991854$GLGSV,2,1,06,65,27,326,42,71,36,173,42,72,72,254,46,73,32,044,45*62
###2023-12-09 13:09:57.993602$GLGSV,2,2,06,74,68,348,43,75,35,257,45,,,,,,,,*63
###2023-12-09 13:09:57.995939$GAGSV,1,1,04,04,32,312,42,19,82,199,40,21,85,085,46,27,31,048,42*64
###2023-12-09 13:09:57.998270$GBGSV,2,1,06,14,40,192,42,24,71,031,49,25,43,265,46,26,24,064,44*6F
###2023-12-09 13:09:58.000025$GBGSV,2,2,06,33,55,228,47,35,15,066,44,,,,,,,,*64
###2023-12-09 13:09:58.001594$GNVTG,181.48,T,,M,3.56,N,6.59,K,A*2D
###2023-12-09 13:09:58.003275$GNGST,180957.10,18.000,,,,0.084,0.065,0.150*56
###2023-12-09 13:09:58.004583$GNZDA,180957.10,09,12,2023,00,00*72
###2023-12-09 13:09:58.005226$GNEBP,,,,,,M*13
###2023-12-09 13:09:58.170273$GNGGA,180957.30,4138.0543783,N,07032.2593024,W,1,25,0.6,13.337,M,-29.742,M,0.0,*51
###2023-12-09 13:09:58.371883$GNGGA,180957.50,4138.0541799,N,07032.2593137,W,1,25,0.6,13.339,M,-29.742,M,0.0,*53
###2023-12-09 13:09:58.572163$GNGGA,180957.70,4138.0539856,N,07032.2593274,W,1,25,0.6,13.351,M,-29.742,M,0.0,*58
###2023-12-09 13:09:58.771096$GNGGA,180957.90,4138.0537800,N,07032.2593376,W,1,25,0.6,13.346,M,-29.742,M,0.0,*5E
###2023-12-09 13:09:58.974059$GNRMC,180958.10,A,4138.0535859,N,07032.2593367,W,3.52,180.03,091223,,,A*5B
###2023-12-09 13:09:58.976962$GNGGA,180958.10,4138.0535859,N,07032.2593367,W,1,25,0.6,13.323,M,-29.742,M,0.0,*54
