###2023-12-09 12:58:51.986122$GLGSV,2,2,06,74,70,334,43,75,31,252,46,,,,,,,,*63
###2023-12-09 12:58:51.988504$GAGSV,1,1,04,04,28,312,40,19,85,226,41,21,85,133,47,27,34,048,43*65
###2023-12-09 12:58:51.990861$GBGSV,2,1,05,14,44,193,45,24,74,022,48,25,40,261,46,26,27,062,41*6F
###2023-12-09 12:58:51.992326$GBGSV,2,2,05,33,58,234,48,,,,,,,,,,,,*5A
###2023-12-09 12:58:51.993615$GNVTG,93.02,T,,M,3.50,N,6.48,K,A*17
###2023-12-09 12:58:51.995310$GNGST,175851.10,18.000,,,,0.079,0.067,0.160*58
###2023-12-09 12:58:51.996602$GNZDA,175851.10,09,12,2023,00,00*7F
###2023-12-09 12:58:51.997242$GNEBP,,,,,,M*13
###2023-12-09 12:58:52.162491$GNGGA,175851.30,4138.0324823,N,07032.2745865,W,1,24,0.6,13.144,M,-29.744,M,0.0,*5B
###2023-12-09 12:58:52.364848$GNGGA,175851.50,4138.0325151,N,07032.2743359,W,1,24,0.6,13.198,M,-29.744,M,0.0,*53
###2023-12-09 12:58:52.564874$GNGGA,175851.70,4138.0325211,N,07032.2740676,W,1,24,0.6,13.169,M,-29.744,M,0.0,*53
###2023-12-09 12:58:52.763021$GNGGA,175851.90,4138.0325217,N,07032.2738174,W,1,24,0.6,13.135,M,-29.743,M,0.0,*5F
###2023-12-09 12:58:52.973059$GNRMC,175852.10,A,4138.0325775,N,07032.2735839,W,3.42,69.82,091223,,,A*6C
###2023-12-09 12:58:52.975929$GNGGA,175852.10,4138.0325775,N,07032.2735839,W,1,24,0.6,13.197,M,-29.743,M,0.0,*50
###2023-12-09 12:58:52.977786$GPGSA,A,3,03,04,16,26,28,29,31,32,,,,,1.1,0.6,0.9*3B
###2023-12-09 12:58:52.979511$GLGSA,A,3,65,71,72,73,74,75,,,,,,,1.1,0.6,0.9*24
###2023-12-09 12:58:52.981092$GAGSA,A,3,04,19,21,27,,,,,,,,,1.1,0.6,0.9*26
###2023-12-09 12:58:52.982747$GBGSA,A,3,14,24,25,26,33,,,,,,,,1.1,0.6,0.9*2F
###2023-12-09 12:58:52.985071$GPGSV,2,1,08,03,36,264,45,04,31,311,43,16,48,211,47,26,78,209,48*71
###2023-12-09 12:58:52.987420$GPGSV,2,2,08,28,50,069,41,29,25,063,41,31,69,033,47,32,20,139,40*7A
###2023-12-09 12:58:52.989758$GLGSV,2,1,06,65,23,328,43,71,42,172,47,72,73,273,46,73,37,041,45*6A
###2023-12-09 12:58:52.991516$GLGSV,2,2,06,74,70,334,43,75,31,252,45,,,,,,,,*60
###2023-12-09 12:58:52.993841$GAGSV,1,1,04,04,28,312,41,19,85,226,41,21,85,133,46,27,34,048,43*65
###2023-12-09 12:58:52.996192$GBGSV,2,1,05,14,44,193,45,24,74,022,48,25,40,261,47,26,27,062,44*6B
###2023-12-09 12:58:52.997647$GBGSV,2,2,05,33,58,234,48,,,,,,,,,,,,*5A
###2023-12-09 12:58:52.998944$GNVTG,69.82,T,,M,3.42,N,6.34,K,A*12
###2023-12-09 12:58:53.000593$GNGST,175852.10,18.000,,,,0.079,0.067,0.160*5B
###2023-12-09 12:58:53.001880$GNZDA,175852.10,09,12,2023,00,00*7C
###2023-12-09 12:58:53.002517$GNEBP,,,,,,M*13
###2023-12-09 12:58:53.161755$GNGGA,175852.30,4138.0326008,N,07032.2733186,W,1,24,0.6,13.201,M,-29.743,M,0.0,*5B
###2023-12-09 12:58:53.362817$GNGGA,175852.50,4138.0325685,N,07032.2730636,W,1,24,0.6,13.144,M,-29.743,M,0.0,*50
###2023-12-09 12:58:53.563977$GNGGA,175852.70,4138.0325593,N,07032.2728278,W,1,24,0.6,13.162,M,-29.743,M,0.0,*55
###2023-12-09 12:58:53.764019$GNGGA,175852.90,4138.0325980,N,07032.2725767,W,1,24,0.6,13.202,M,-29.743,M,0.0,*56
###2023-12-09 12:58:53.964858$GNRMC,175853.10,A,4138.0325924,N,07032.2723171,W,3.38,100.73,091223,,,A*58
###2023-12-09 12:58:53.967737$GNGGA,175853.10,4138.0325924,N,07032.2723171,W,1,24,0.6,13.175,M,-29.743,M,0.0,*55
###2023-12-09 12:58:53.969589$GPGSA,A,3,03,04,16,26,28,29,31,32,,,,,1.1,0.6,0.9*3B
###2023-12-09 12:58:53.971316$GLGSA,A,3,65,71,72,73,74,75,,,,,,,1.1,0.6,0.9*24
###2023-12-09 12:58:53.972902$GAGSA,A,3,04,19,21,27,,,,,,,,,1.1,0.6,0.9*26
###2023-12-09 12:58:53.974549$GBGSA,A,3,14,24,25,26,33,,,,,,,,1.1,0.6,0.9*2F
###2023-12-09 12:58:53.976893$GPGSV,2,1,08,03,36,264,44,04,31,311,43,16,48,211,46,26,78,209,48*71
###2023-12-09 12:58:53.979234$GPGSV,2,2,08,28,50,069,45,29,25,063,43,31,69,033,47,32,20,139,41*7D
###2023-12-09 12:58:53.981566$GLGSV,2,1,06,65,23,328,44,71,42,172,45,72,73,273,46,73,37,041,46*6C
###2023-12-09 12:58:53.983318$GLGSV,2,2,06,74,70,334,43,75,31,252,44,,,,,,,,*61
###2023-12-09 12:58:53.985646$GAGSV,1,1,04,04,28,312,42,19,85,226,41,21,85,133,46,27,34,048,44*61
###2023-12-09 12:58:53.987986$GBGSV,2,1,05,14,44,193,45,24,74,022,49,25,40,261,47,26,27,062,44*6A
###2023-12-09 12:58:53.989434$GBGSV,2,2,05,33,58,234,48,,,,,,,,,,,,*5A
###2023-12-09 12:58:53.990765$GNVTG,100.73,T,,M,3.38,N,6.26,K,A*2C
###2023-12-09 12:58:53.992413$GNGST,175853.10,18.000,,,,0.079,0.067,0.160*5A
###2023-12-09 12:58:53.993702$GNZDA,175853.10,09,12,2023,00,00*7D
###2023-12-09 12:58:53.994338$GNEBP,,,,,,M*13
###2023-12-09 12:58:54.162856$GNGGA,175853.30,4138.0325397,N,07032.2720703,W,1,24,0.6,13.169,M,-29.743,M,0.0,*58
###2023-12-09 12:58:54.363541$GNGGA,175853.50,4138.0325002,N,07032.2718203,W,1,24,0.6,13.184,M,-29.743,M,0.0,*5C
###2023-12-09 12:58:54.562682$GNGGA,175853.70,4138.0325026,N,07032.2715623,W,1,24,0.6,13.199,M,-29.743,M,0.0,*5F
###2023-12-09 12:58:54.764036$GNGGA,175853.90,4138.0324801,N,07032.2712928,W,1,24,0.6,13.168,M,-29.743,M,0.0,*50
###2023-12-09 12:58:54.964783$GNRMC,175854.10,A,4138.0324470,N,07032.2710411,W,3.50,96.08,091223,,,A*6D
###2023-12-09 12:58:54.967654$GNGGA,175854.10,4138.0324470,N,07032.2710411,W,1,24,0.6,13.190,M,-29.743,M,0.0,*57
###2023-12-09 12:58:54.969503$GPGSA,A,3,03,04,16,26,28,29,31,32,,,,,1.1,0.6,0.9*3B
###2023-12-09 12:58:54.971226$GLGSA,A,3,65,71,72,73,74,75,,,,,,,1.1,0.6,0.9*24
###2023-12-09 12:58:54.972803$GAGSA,A,3,04,19,21,27,,,,,,,,,1.1,0.6,0.9*26
###2023-12-09 12:58:54.974448$GBGSA,A,3,14,24,25,26,33,,,,,,,,1.1,0.6,0.9*2F
###2023-12-09 12:58:54.976789$GPGSV,2,1,08,03,36,264,44,04,31,311,42,16,48,211,46,26,78,209,48*70
###2023-12-09 12:58:54.979127$GPGSV,2,2,08,28,50,069,44,29,25,063,41,31,69,033,47,32,20,139,41*7E
###2023-12-09 12:58:54.981461$GLGSV,2,1,06,65,23,328,42,71,42,172,46,72,73,273,46,73,37,041,45*6A
###2023-12-09 12:58:54.983215$GLGSV,2,2,06,74,70,334,43,75,31,252,45,,,,,,,,*60
###2023-12-09 12:58:54.985545$GAGSV,1,1,04,04,28,312,41,19,85,226,41,21,85,133,46,27,34,048,42*64
###2023-12-09 12:58:54.987887$GBGSV,2,1,05,14,44,193,45,24,74,022,49,25,40,261,46,26,27,062,43*6C
###2023-12-09 12:58:54.989344$GBGSV,2,2,05,33,58,234,48,,,,,,,,,,,,*5A
###2023-12-09 12:58:54.990648$GNVTG,96.08,T,,M,3.50,N,6.48,K,A*18
###2023-12-09 12:58:54.992297$GNGST,175854.10,18.000,,,,0.079,0.067,0.160*5D
###2023-12-09 12:58:54.993591$GNZDA,175854.10,09,12,2023,00,00*7A
###2023-12-09 12:58:54.994229$GNEBP,,,,,,M*13
###2023-12-09 12:58:55.161950$GNGGA,175854.30,4138.0324200,N,07032.2707741,W,1,24,0.6,13.212,M,-29.743,M,0.0,*5D
###2023-12-09 12:58:55.363644$GNGGA,175854.50,4138.0323945,N,07032.2705031,W,1,24,0.6,13.182,M,-29.743,M,0.0,*5E
###2023-12-09 12:58:55.562733$GNGGA,175854.70,4138.0324267,N,07032.2702458,W,1,24,0.6,13.192,M,-29.743,M,0.0,*5D
###2023-12-09 12:58:55.763266$GNGGA,175854.90,4138.0324264,N,07032.2699719,W,1,24,0.6,13.209,M,-29.743,M,0.0,*54
###2023-12-09 12:58:55.965699$GNRMC,175855.10,A,4138.0324066,N,07032.2696998,W,3.62,91.07,091223,,,A*65
###2023-12-09 12:58:55.968580$GNGGA,175855.10,4138.0324066,N,07032.2696998,W,1,24,0.6,13.212,M,-29.743,M,0.0,*5F
###2023-12-09 12:58:55.970440$GPGSA,A,3,03,04,16,26,28,29,31,32,,,,,1.1,0.6,0.9*3B
###2023-12-09 12:58:55.972168$GLGSA,A,3,65,71,72,73,74,75,,,,,,,1.1,0.6,0.9*24
###2023-12-09 12:58:55.973743$GAGSA,A,3,04,19,21,27,,,,,,,,,1.1,0.6,0.9*26
###2023-12-09 12:58:55.975399$GBGSA,A,3,14,24,25,26,33,,,,,,,,1.1,0.6,0.9*2F
###2023-12-09 12:58:55.977727$GPGSV,2,1,08,03,36,264,45,04,31,311,41,16,48,211,47,26,78,209,48*73
###2023-12-09 12:58:55.980064$GPGSV,2,2,08,28,50,069,43,29,25,063,41,31,69,033,47,32,20,139,42*7A
###2023-12-09 12:58:55.982398$GLGSV,2,1,06,65,23,328,41,71,42,172,47,72,73,273,46,73,37,041,45*68
###2023-12-09 12:58:55.984157$GLGSV,2,2,06,74,70,334,43,75,31,252,46,,,,,,,,*63
###2023-12-09 12:58:55.986480$GAGSV,1,1,04,04,28,312,39,19,85,226,40,21,85,133,46,27,34,048,42*6A
###2023-12-09 12:58:55.988819$GBGSV,2,1,05,14,44,193,46,24,74,022,48,25,40,261,47,26,27,062,42*6E
###2023-12-09 12:58:55.990274$GBGSV,2,2,05,33,58,234,49,,,,,,,,,,,,*5B
###2023-12-09 12:58:55.991571$GNVTG,91.07,T,,M,3.62,N,6.70,K,A*1A
###2023-12-09 12:58:55.993216$GNGST,175855.10,18.000,,,,0.079,0.067,0.160*5C
###2023-12-09 12:58:55.994506$GNZDA,175855.10,09,12,2023,00,00*7B
###2023-12-09 12:58:55.995156$GNEBP,,,,,,M*13
###2023-12-09 12:58:56.163635$GNGGA,175855.30,4138.0324235,N,07032.2694314,W,1,24,0.6,13.225,M,-29.743,M,0.0,*51
###2023-12-09 12:58:56.364515$GNGGA,175855.50,4138.0324498,N,07032.2691656,W,1,24,0.6,13.211,M,-29.743,M,0.0,*57
###2023-12-09 12:58:56.563736$GNGGA,175855.70,4138.0324553,N,07032.2689003,W,1,24,0.6,13.192,M,-29.743,M,0.0,*54
###2023-12-09 12:58:56.763201$GNGGA,175855.90,4138.0324632,N,07032.2686316,W,1,24,0.6,13.209,M,-29.743,M,0.0,*57
###2023-12-09 12:58:56.970671$GNRMC,175856.10,A,4138.0324753,N,07032.2683667,W,3.60,89.65,091223,,,A*63
###2023-12-09 12:58:56.973543$GNGGA,175856.10,4138.0324753,N,07032.2683667,W,1,24,0.6,13.241,M,-29.743,M,0.0,*50
###2023-12-09 12:58:56.975420$GPGSA,A,3,03,04,16,26,28,29,31,32,,,,,1.1,0.6,0.9*3B
###2023-12-09 12:58:56.977145$GLGSA,A,3,65,71,72,73,74,75,,,,,,,1.1,0.6,0.9*24
