###2023-12-09 12:46:57.955171$GLGSA,A,3,65,71,72,73,74,75,,,,,,,1.1,0.6,0.9*24
###2023-12-09 12:46:57.956790$GAGSA,A,3,04,19,21,27,,,,,,,,,1.1,0.6,0.9*26
###2023-12-09 12:46:57.958447$GBGSA,A,3,14,24,25,26,33,,,,,,,,1.1,0.6,0.9*2F
###2023-12-09 12:46:57.960799$GPGSV,2,1,08,03,37,270,42,04,26,311,38,16,42,209,42,26,72,208,47*7A
###2023-12-09 12:46:57.963154$GPGSV,2,2,08,28,54,062,46,29,26,068,45,31,72,018,48,32,25,137,47*7E
###2023-12-09 12:46:57.965493$GLGSV,2,1,06,65,17,329,39,71,50,171,47,72,70,297,46,73,43,037,46*69
###2023-12-09 12:46:57.967257$GLGSV,2,2,06,74,71,310,43,75,26,245,38,,,,,,,,*6D
###2023-12-09 12:46:57.969586$GAGSV,1,1,04,04,24,312,37,19,84,276,41,21,82,165,46,27,38,049,44*62
###2023-12-09 12:46:57.971938$GBGSV,2,1,05,14,50,195,43,24,78,008,48,25,36,257,43,26,31,060,45*6E
###2023-12-09 12:46:57.973398$GBGSV,2,2,05,33,61,243,47,,,,,,,,,,,,*5F
###2023-12-09 12:46:57.974731$GNVTG,279.49,T,,M,0.87,N,1.62,K,A*28
###2023-12-09 12:46:57.976373$GNGST,174657.10,18.000,,,,0.079,0.069,0.160*5F
###2023-12-09 12:46:57.977664$GNZDA,174657.10,09,12,2023,00,00*76
###2023-12-09 12:46:57.978302$GNEBP,,,,,,M*13
###2023-12-09 12:46:58.145640$GNGGA,174657.30,4138.0478296,N,07032.3946881,W,1,24,0.6,13.425,M,-29.745,M,0.0,*5D
###2023-12-09 12:46:58.346106$GNGGA,174657.50,4138.0478385,N,07032.3947449,W,1,24,0.6,13.430,M,-29.745,M,0.0,*55
###2023-12-09 12:46:58.547414$GNGGA,174657.70,4138.0478316,N,07032.3947203,W,1,24,0.6,13.443,M,-29.745,M,0.0,*51
###2023-12-09 12:46:58.745511$GNGGA,174657.90,4138.0478226,N,07032.3946821,W,1,24,0.6,13.405,M,-29.745,M,0.0,*54
###2023-12-09 12:46:58.945773$GNRMC,174658.10,A,4138.0478273,N,07032.3947259,W,1.05,280.83,091223,,,A*56
###2023-12-09 12:46:58.948696$GNGGA,174658.10,4138.0478273,N,07032.3947259,W,1,24,0.6,13.409,M,-29.745,M,0.0,*5B
###2023-12-09 12:46:58.950589$GPGSA,A,3,03,04,16,26,28,29,31,32,,,,,1.1,0.6,0.9*3B
###2023-12-09 12:46:58.952322$GLGSA,A,3,65,71,72,73,74,75,,,,,,,1.1,0.6,0.9*24
###2023-12-09 12:46:58.953915$GAGSA,A,3,04,19,21,27,,,,,,,,,1.1,0.6,0.9*26
###2023-12-09 12:46:58.955589$GBGSA,A,3,14,24,25,26,33,,,,,,,,1.1,0.6,0.9*2F
###2023-12-09 12:46:58.957926$GPGSV,2,1,08,03,37,270,41,04,26,311,38,16,42,209,42,26,72,208,47*79
###2023-12-09 12:46:58.960290$GPGSV,2,2,08,28,54,062,46,29,26,068,44,31,72,018,48,32,25,137,46*7E
###2023-12-09 12:46:58.962634$GLGSV,2,1,06,65,17,329,39,71,50,171,47,72,70,297,46,73,43,037,45*6A
###2023-12-09 12:46:58.964381$GLGSV,2,2,06,74,71,310,42,75,26,245,38,,,,,,,,*6C
###2023-12-09 12:46:58.966707$GAGSV,1,1,04,04,24,312,36,19,84,276,40,21,82,165,46,27,38,049,43*65
###2023-12-09 12:46:58.969023$GBGSV,2,1,05,14,50,195,44,24,78,008,48,25,36,257,43,26,31,060,43*6F
###2023-12-09 12:46:58.970468$GBGSV,2,2,05,33,61,243,46,,,,,,,,,,,,*5E
###2023-12-09 12:46:58.971793$GNVTG,280.83,T,,M,1.05,N,1.94,K,A*2A
###2023-12-09 12:46:58.973439$GNGST,174658.10,18.000,,,,0.079,0.070,0.160*58
###2023-12-09 12:46:58.974741$GNZDA,174658.10,09,12,2023,00,00*79
###2023-12-09 12:46:58.975383$GNEBP,,,,,,M*13
###2023-12-09 12:46:59.146284$GNGGA,174658.30,4138.0478405,N,07032.3948128,W,1,24,0.6,13.437,M,-29.745,M,0.0,*59
###2023-12-09 12:46:59.348143$GNGGA,174658.50,4138.0478459,N,07032.3948545,W,1,24,0.6,13.442,M,-29.745,M,0.0,*5B
###2023-12-09 12:46:59.547073$GNGGA,174658.70,4138.0478320,N,07032.3948272,W,1,24,0.6,13.451,M,-29.745,M,0.0,*51
###2023-12-09 12:46:59.747216$GNGGA,174658.90,4138.0478120,N,07032.3948045,W,1,24,0.6,13.403,M,-29.745,M,0.0,*5C
###2023-12-09 12:46:59.945918$GNRMC,174659.10,A,4138.0477946,N,07032.3948725,W,1.59,263.57,091223,,,A*59
###2023-12-09 12:46:59.948807$GNGGA,174659.10,4138.0477946,N,07032.3948725,W,1,24,0.6,13.418,M,-29.745,M,0.0,*59
###2023-12-09 12:46:59.950691$GPGSA,A,3,03,04,16,26,28,29,31,32,,,,,1.1,0.6,0.9*3B
###2023-12-09 12:46:59.952408$GLGSA,A,3,65,71,72,73,74,75,,,,,,,1.1,0.6,0.9*24
###2023-12-09 12:46:59.953988$GAGSA,A,3,04,19,21,27,,,,,,,,,1.1,0.6,0.9*26
###2023-12-09 12:46:59.955669$GBGSA,A,3,14,24,25,26,33,,,,,,,,1.1,0.6,0.9*2F
###2023-12-09 12:46:59.958029$GPGSV,2,1,08,03,37,270,42,04,26,311,40,16,42,209,43,26,72,208,47*74
###2023-12-09 12:46:59.960389$GPGSV,2,2,08,28,54,062,46,29,26,068,44,31,72,018,48,32,25,137,46*7E
###2023-12-09 12:46:59.962744$GLGSV,2,1,06,65,17,329,38,71,49,171,46,72,70,297,45,73,43,037,46*62
###2023-12-09 12:46:59.964488$GLGSV,2,2,06,74,71,310,42,75,26,245,38,,,,,,,,*6C
###2023-12-09 12:46:59.966840$GAGSV,1,1,04,04,24,312,38,19,84,276,40,21,82,165,46,27,38,049,42*6A
###2023-12-09 12:46:59.969175$GBGSV,2,1,05,14,50,195,45,24,78,008,48,25,36,257,44,26,31,060,44*6E
###2023-12-09 12:46:59.970644$GBGSV,2,2,05,33,61,243,47,,,,,,,,,,,,*5F
###2023-12-09 12:46:59.971971$GNVTG,263.57,T,,M,1.59,N,2.95,K,A*25
###2023-12-09 12:46:59.973621$GNGST,174659.10,18.000,,,,0.079,0.070,0.160*59
###2023-12-09 12:46:59.974956$GNZDA,174659.10,09,12,2023,00,00*78
###2023-12-09 12:46:59.975600$GNEBP,,,,,,M*13
###2023-12-09 12:47:00.145183$GNGGA,174659.30,4138.0477717,N,07032.3949962,W,1,24,0.6,13.447,M,-29.745,M,0.0,*57
###2023-12-09 12:47:00.347294$GNGGA,174659.50,4138.0477186,N,07032.3950515,W,1,24,0.6,13.458,M,-29.745,M,0.0,*55
###2023-12-09 12:47:00.547274$GNGGA,174659.70,4138.0476345,N,07032.3950295,W,1,24,0.6,13.443,M,-29.745,M,0.0,*5E
###2023-12-09 12:47:00.746998$GNGGA,174659.90,4138.0475447,N,07032.3950666,W,1,24,0.6,13.397,M,-29.745,M,0.0,*50
###2023-12-09 12:47:00.947461$GNRMC,174700.10,A,4138.0474693,N,07032.3952073,W,2.51,238.88,091223,,,A*58
###2023-12-09 12:47:00.950314$GNGGA,174700.10,4138.0474693,N,07032.3952073,W,1,24,0.6,13.444,M,-29.745,M,0.0,*56
###2023-12-09 12:47:00.952188$GPGSA,A,3,03,04,16,26,28,29,31,32,,,,,1.1,0.6,0.9*3B
###2023-12-09 12:47:00.953911$GLGSA,A,3,65,71,72,73,74,75,,,,,,,1.1,0.6,0.9*24
###2023-12-09 12:47:00.955520$GAGSA,A,3,04,19,21,27,,,,,,,,,1.1,0.6,0.9*26
###2023-12-09 12:47:00.957175$GBGSA,A,3,14,24,25,26,33,,,,,,,,1.1,0.6,0.9*2F
###2023-12-09 12:47:00.959553$GPGSV,2,1,08,03,37,270,43,04,26,311,43,16,42,209,42,26,72,208,46*76
###2023-12-09 12:47:00.961895$GPGSV,2,2,08,28,54,062,45,29,26,068,43,31,72,018,48,32,25,137,45*79
###2023-12-09 12:47:00.964275$GLGSV,2,1,06,65,17,329,40,71,49,171,46,72,70,294,46,73,43,037,46*6D
###2023-12-09 12:47:00.966028$GLGSV,2,2,06,74,71,310,43,75,26,245,40,,,,,,,,*62
###2023-12-09 12:47:00.968357$GAGSV,1,1,04,04,24,312,41,19,84,276,40,21,82,165,46,27,38,049,43*65
###2023-12-09 12:47:00.970701$GBGSV,2,1,05,14,50,195,45,24,78,008,49,25,36,257,46,26,31,060,43*6A
###2023-12-09 12:47:00.972155$GBGSV,2,2,05,33,61,243,47,,,,,,,,,,,,*5F
###2023-12-09 12:47:00.973481$GNVTG,238.88,T,,M,2.51,N,4.64,K,A*2A
###2023-12-09 12:47:00.975139$GNGST,174700.10,18.000,,,,0.079,0.070,0.160*54
###2023-12-09 12:47:00.976434$GNZDA,174700.10,09,12,2023,00,00*75
###2023-12-09 12:47:00.977074$GNEBP,,,,,,M*13
###2023-12-09 12:47:01.146478$GNGGA,174700.30,4138.0473844,N,07032.3953366,W,1,24,0.6,13.455,M,-29.745,M,0.0,*51
###2023-12-09 12:47:01.346313$GNGGA,174700.50,4138.0472641,N,07032.3953963,W,1,24,0.6,13.472,M,-29.745,M,0.0,*57
###2023-12-09 12:47:01.546222$GNGGA,174700.70,4138.0471207,N,07032.3954461,W,1,24,0.6,13.419,M,-29.745,M,0.0,*55
###2023-12-09 12:47:01.747001$GNGGA,174700.90,4138.0470166,N,07032.3955842,W,1,24,0.6,13.406,M,-29.745,M,0.0,*5C
###2023-12-09 12:47:01.950048$GNRMC,174701.10,A,4138.0469348,N,07032.3957473,W,2.59,236.51,091223,,,A*55
###2023-12-09 12:47:01.952975$GNGGA,174701.10,4138.0469348,N,07032.3957473,W,1,24,0.6,13.448,M,-29.745,M,0.0,*55
###2023-12-09 12:47:01.954849$GPGSA,A,3,03,04,16,26,28,29,31,32,,,,,1.1,0.6,0.9*3B
###2023-12-09 12:47:01.956569$GLGSA,A,3,65,71,72,73,74,75,,,,,,,1.1,0.6,0.9*24
###2023-12-09 12:47:01.958145$GAGSA,A,3,04,19,21,27,,,,,,,,,1.1,0.6,0.9*26
###2023-12-09 12:47:01.959804$GBGSA,A,3,14,24,25,26,33,,,,,,,,1.1,0.6,0.9*2F
###2023-12-09 12:47:01.962130$GPGSV,2,1,08,03,37,270,43,04,26,311,44,16,42,209,44,26,72,208,47*76
###2023-12-09 12:47:01.964474$GPGSV,2,2,08,28,54,062,45,29,26,068,43,31,72,018,48,32,25,137,44*78
###2023-12-09 12:47:01.966820$GLGSV,2,1,06,65,17,329,42,71,49,171,48,72,70,294,45,73,42,037,47*62
###2023-12-09 12:47:01.968570$GLGSV,2,2,06,74,71,310,42,75,26,245,40,,,,,,,,*63
###2023-12-09 12:47:01.971145$GAGSV,1,1,04,04,24,312,43,19,84,276,40,21,82,165,45,27,38,049,44*63
###2023-12-09 12:47:01.973491$GBGSV,2,1,05,14,50,195,46,24,78,008,48,25,36,257,44,26,31,060,44*6D
###2023-12-09 12:47:01.974970$GBGSV,2,2,05,33,61,243,46,,,,,,,,,,,,*5E
###2023-12-09 12:47:01.976300$GNVTG,236.51,T,,M,2.59,N,4.79,K,A*24
###2023-12-09 12:47:01.977954$GNGST,174701.10,18.000,,,,0.079,0.070,0.160*55
###2023-12-09 12:47:01.979260$GNZDA,174701.10,09,12,2023,00,00*74
###2023-12-09 12:47:01.979900$GNEBP,,,,,,M*13
###2023-12-09 12:47:02.146611$GNGGA,174701.30,4138.0468426,N,07032.3958920,W,1,24,0.6,13.456,M,-29.745,M,0.0,*52
###2023-12-09 12:47:02.347616$GNGGA,174701.50,4138.0467163,N,07032.3960101,W,1,24,0.6,13.447,M,-29.745,M,0.0,*5F
