###2023-12-09 12:32:42.966506$GBGSV,2,2,05,33,63,257,48,,,,,,,,,,,,*57
###2023-12-09 12:32:42.968435$GNVTG,316.77,T,,M,0.04,N,0.07,K,A*24
###2023-12-09 12:32:42.970702$GNGST,173242.10,17.000,,,,0.130,0.110,0.230*52
###2023-12-09 12:32:42.972521$GNZDA,173242.10,09,12,2023,00,00*71
###2023-12-09 12:32:42.973540$GNEBP,,,,,,M*13
###2023-12-09 12:32:43.128964$GNGGA,173242.30,4138.0448123,N,07032.4287926,W,1,21,0.7,12.978,M,-29.745,M,0.0,*59
###2023-12-09 12:32:43.330096$GNGGA,173242.50,4138.0448249,N,07032.4288146,W,1,22,0.7,12.966,M,-29.745,M,0.0,*5D
###2023-12-09 12:32:43.529221$GNGGA,173242.70,4138.0448346,N,07032.4288352,W,1,23,0.7,12.961,M,-29.745,M,0.0,*50
###2023-12-09 12:32:43.729283$GNGGA,173242.90,4138.0448353,N,07032.4288386,W,1,23,0.7,12.962,M,-29.745,M,0.0,*50
###2023-12-09 12:32:43.930092$GNRMC,173243.10,A,4138.0448380,N,07032.4288439,W,0.25,316.77,091223,,,A*58
###2023-12-09 12:32:43.933920$GNGGA,173243.10,4138.0448380,N,07032.4288439,W,1,23,0.7,12.973,M,-29.745,M,0.0,*54
###2023-12-09 12:32:43.936249$GPGSA,A,3,03,04,16,26,28,29,31,32,,,,,1.2,0.7,0.9*39
###2023-12-09 12:32:43.938300$GLGSA,A,3,71,72,73,74,75,,,,,,,,1.2,0.7,0.9*25
###2023-12-09 12:32:43.940276$GAGSA,A,3,04,19,21,27,,,,,,,,,1.2,0.7,0.9*24
###2023-12-09 12:32:43.942511$GBGSA,A,3,14,24,25,26,33,,,,,,,,1.2,0.7,0.9*2D
###2023-12-09 12:32:43.945447$GPGSV,2,1,08,03,39,278,43,04,21,310,43,16,36,207,45,26,65,206,48*7A
###2023-12-09 12:32:43.948459$GPGSV,2,2,08,28,59,054,44,29,25,075,39,31,73,356,47,32,31,133,44*75
###2023-12-09 12:32:43.951385$GLGSV,2,1,05,71,58,169,48,72,65,311,47,73,49,033,46,74,71,287,44*6F
###2023-12-09 12:32:43.953217$GLGSV,2,2,05,75,21,240,37,,,,,,,,,,,,*53
###2023-12-09 12:32:43.956097$GAGSV,1,1,04,04,20,311,41,19,80,306,42,21,76,177,46,27,42,050,42*6E
###2023-12-09 12:32:43.959028$GBGSV,2,1,05,14,56,198,45,24,81,339,49,25,32,252,43,26,36,057,42*60
###2023-12-09 12:32:43.960835$GBGSV,2,2,05,33,63,257,48,,,,,,,,,,,,*57
###2023-12-09 12:32:43.962477$GNVTG,316.77,T,,M,0.25,N,0.47,K,A*23
###2023-12-09 12:32:43.964530$GNGST,173243.10,20.000,,,,0.130,0.110,0.230*57
###2023-12-09 12:32:43.966142$GNZDA,173243.10,09,12,2023,00,00*70
###2023-12-09 12:32:43.966981$GNEBP,,,,,,M*13
###2023-12-09 12:32:44.131110$GNGGA,173243.30,4138.0448470,N,07032.4288601,W,1,23,0.7,12.977,M,-29.745,M,0.0,*53
###2023-12-09 12:32:44.329512$GNGGA,173243.50,4138.0448539,N,07032.4288775,W,1,23,0.7,12.966,M,-29.745,M,0.0,*5B
###2023-12-09 12:32:44.531969$GNGGA,173243.70,4138.0448604,N,07032.4288897,W,1,23,0.7,12.963,M,-29.745,M,0.0,*52
###2023-12-09 12:32:44.729540$GNGGA,173243.90,4138.0448678,N,07032.4289057,W,1,22,0.7,12.973,M,-29.745,M,0.0,*52
###2023-12-09 12:32:44.935497$GNRMC,173244.10,A,4138.0448741,N,07032.4289185,W,0.17,316.77,091223,,,A*54
###2023-12-09 12:32:44.939102$GNGGA,173244.10,4138.0448741,N,07032.4289185,W,1,21,0.7,12.979,M,-29.745,M,0.0,*51
###2023-12-09 12:32:44.941418$GPGSA,A,3,03,04,16,26,28,29,31,32,,,,,1.3,0.7,1.1*31
###2023-12-09 12:32:44.943410$GLGSA,A,3,71,72,73,74,,,,,,,,,1.3,0.7,1.1*2F
###2023-12-09 12:32:44.945432$GAGSA,A,3,04,19,21,27,,,,,,,,,1.3,0.7,1.1*2C
###2023-12-09 12:32:44.947576$GBGSA,A,3,14,24,25,26,33,,,,,,,,1.3,0.7,1.1*25
###2023-12-09 12:32:44.950491$GPGSV,2,1,08,03,39,278,44,04,21,310,42,16,36,207,46,26,65,206,46*71
###2023-12-09 12:32:44.953382$GPGSV,2,2,08,28,59,054,43,29,25,075,39,31,73,356,46,32,31,133,46*71
###2023-12-09 12:32:44.956258$GLGSV,1,1,04,71,58,169,47,72,65,311,47,73,49,033,45,74,71,287,43*66
###2023-12-09 12:32:44.959134$GAGSV,1,1,04,04,20,311,41,19,80,306,41,21,76,177,46,27,42,050,42*6D
###2023-12-09 12:32:44.961989$GBGSV,2,1,05,14,56,198,45,24,81,339,48,25,32,252,43,26,36,057,46*65
###2023-12-09 12:32:44.963811$GBGSV,2,2,05,33,63,257,49,,,,,,,,,,,,*56
###2023-12-09 12:32:44.965468$GNVTG,316.77,T,,M,0.17,N,0.32,K,A*20
###2023-12-09 12:32:44.968051$GNGST,173244.10,18.000,,,,0.130,0.110,0.230*5B
###2023-12-09 12:32:44.969714$GNZDA,173244.10,09,12,2023,00,00*77
###2023-12-09 12:32:44.970810$GNEBP,,,,,,M*13
###2023-12-09 12:32:45.134337$GNGGA,173244.30,4138.0448780,N,07032.4289258,W,1,21,0.7,12.965,M,-29.745,M,0.0,*50
###2023-12-09 12:32:45.329177$GNGGA,173244.50,4138.0448815,N,07032.4289380,W,1,21,0.7,12.961,M,-29.745,M,0.0,*55
###2023-12-09 12:32:45.530147$GNGGA,173244.70,4138.0448922,N,07032.4289604,W,1,21,0.7,12.967,M,-29.745,M,0.0,*5D
###2023-12-09 12:32:45.729143$GNGGA,173244.90,4138.0449025,N,07032.4289815,W,1,21,0.7,12.976,M,-29.745,M,0.0,*52
###2023-12-09 12:32:45.934549$GNRMC,173245.10,A,4138.0449060,N,07032.4289906,W,0.08,316.77,091223,,,A*5D
###2023-12-09 12:32:45.938364$GNGGA,173245.10,4138.0449060,N,07032.4289906,W,1,21,0.7,12.979,M,-29.745,M,0.0,*56
###2023-12-09 12:32:45.940697$GPGSA,A,3,03,04,16,26,28,29,31,32,,,,,1.3,0.7,1.1*31
###2023-12-09 12:32:45.942689$GLGSA,A,3,71,72,73,74,,,,,,,,,1.3,0.7,1.1*2F
###2023-12-09 12:32:45.944649$GAGSA,A,3,04,19,21,27,,,,,,,,,1.3,0.7,1.1*2C
###2023-12-09 12:32:45.946713$GBGSA,A,3,14,24,25,26,33,,,,,,,,1.3,0.7,1.1*25
###2023-12-09 12:32:45.949596$GPGSV,2,1,08,03,39,278,45,04,21,310,44,16,36,207,44,26,65,206,48*7A
###2023-12-09 12:32:45.952936$GPGSV,2,2,08,28,59,054,44,29,25,075,38,31,73,356,47,32,31,133,45*75
###2023-12-09 12:32:45.955840$GLGSV,1,1,04,71,58,169,47,72,65,311,46,73,49,033,45,74,71,287,44*60
###2023-12-09 12:32:45.958725$GAGSV,1,1,04,04,20,311,43,19,80,306,41,21,76,177,46,27,42,050,42*6F
###2023-12-09 12:32:45.961584$GBGSV,2,1,05,14,56,198,44,24,81,339,48,25,32,252,44,26,36,057,44*61
###2023-12-09 12:32:45.963410$GBGSV,2,2,05,33,63,257,48,,,,,,,,,,,,*57
###2023-12-09 12:32:45.965056$GNVTG,316.77,T,,M,0.08,N,0.14,K,A*2A
###2023-12-09 12:32:45.967106$GNGST,173245.10,18.000,,,,0.130,0.110,0.230*5A
###2023-12-09 12:32:45.968712$GNZDA,173245.10,09,12,2023,00,00*76
###2023-12-09 12:32:45.969562$GNEBP,,,,,,M*13
###2023-12-09 12:32:46.130165$GNGGA,173245.30,4138.0449057,N,07032.4289893,W,1,21,0.7,12.972,M,-29.745,M,0.0,*56
###2023-12-09 12:32:46.331297$GNGGA,173245.50,4138.0449115,N,07032.4290033,W,1,21,0.7,12.968,M,-29.745,M,0.0,*56
###2023-12-09 12:32:46.531349$GNGGA,173245.70,4138.0449240,N,07032.4290356,W,1,21,0.7,12.970,M,-29.745,M,0.0,*5E
###2023-12-09 12:32:46.729205$GNGGA,173245.90,4138.0449373,N,07032.4290588,W,1,21,0.7,12.969,M,-29.745,M,0.0,*5C
###2023-12-09 12:32:46.933125$GNRMC,173246.10,A,4138.0449370,N,07032.4290558,W,0.16,316.77,091223,,,A*5C
###2023-12-09 12:32:46.936936$GNGGA,173246.10,4138.0449370,N,07032.4290558,W,1,21,0.7,12.974,M,-29.745,M,0.0,*55
###2023-12-09 12:32:46.939484$GPGSA,A,3,03,04,16,26,28,29,31,32,,,,,1.3,0.7,1.1*31
###2023-12-09 12:32:46.941658$GLGSA,A,3,71,72,73,74,,,,,,,,,1.3,0.7,1.1*2F
###2023-12-09 12:32:46.943815$GAGSA,A,3,04,19,21,27,,,,,,,,,1.3,0.7,1.1*2C
###2023-12-09 12:32:46.946045$GBGSA,A,3,14,24,25,26,33,,,,,,,,1.3,0.7,1.1*25
###2023-12-09 12:32:46.949166$GPGSV,2,1,08,03,39,278,44,04,21,310,43,16,36,207,43,26,65,206,46*75
###2023-12-09 12:32:46.952281$GPGSV,2,2,08,28,59,054,45,29,25,075,38,31,73,356,46,32,31,133,44*74
###2023-12-09 12:32:46.955364$GLGSV,1,1,04,71,58,169,47,72,65,311,46,73,49,033,46,74,71,287,43*64
###2023-12-09 12:32:46.958440$GAGSV,1,1,04,04,20,311,41,19,80,306,41,21,76,177,46,27,42,050,42*6D
###2023-12-09 12:32:46.961546$GBGSV,2,1,05,14,56,198,44,24,81,339,48,25,32,252,44,26,36,057,43*66
###2023-12-09 12:32:46.963598$GBGSV,2,2,05,33,63,257,48,,,,,,,,,,,,*57
###2023-12-09 12:32:46.965443$GNVTG,316.77,T,,M,0.16,N,0.29,K,A*2B
###2023-12-09 12:32:46.967687$GNGST,173246.10,18.000,,,,0.120,0.110,0.230*58
###2023-12-09 12:32:46.969476$GNZDA,173246.10,09,12,2023,00,00*75
###2023-12-09 12:32:46.970491$GNEBP,,,,,,M*13
###2023-12-09 12:32:47.131118$GNGGA,173246.30,4138.0449348,N,07032.4290543,W,1,21,0.7,12.978,M,-29.745,M,0.0,*5A
###2023-12-09 12:32:47.331180$GNGGA,173246.50,4138.0449484,N,07032.4290834,W,1,21,0.7,12.983,M,-29.745,M,0.0,*52
###2023-12-09 12:32:47.530928$GNGGA,173246.70,4138.0449662,N,07032.4291218,W,1,22,0.7,12.978,M,-29.745,M,0.0,*58
###2023-12-09 12:32:47.729511$GNGGA,173246.90,4138.0449694,N,07032.4291325,W,1,21,0.7,12.976,M,-29.745,M,0.0,*5D
###2023-12-09 12:32:47.931806$GNRMC,173247.10,A,4138.0449651,N,07032.4291239,W,0.08,316.77,091223,,,A*55
###2023-12-09 12:32:47.935018$GNGGA,173247.10,4138.0449651,N,07032.4291239,W,1,21,0.7,12.979,M,-29.745,M,0.0,*5E
###2023-12-09 12:32:47.936940$GPGSA,A,3,03,04,16,26,28,29,31,32,,,,,1.3,0.7,1.1*31
###2023-12-09 12:32:47.938639$GLGSA,A,3,71,72,73,74,,,,,,,,,1.3,0.7,1.1*2F
###2023-12-09 12:32:47.940268$GAGSA,A,3,04,19,21,27,,,,,,,,,1.3,0.7,1.1*2C
###2023-12-09 12:32:47.941951$GBGSA,A,3,14,24,25,26,33,,,,,,,,1.3,0.7,1.1*25
###2023-12-09 12:32:47.944326$GPGSV,2,1,08,03,39,278,43,04,21,310,42,16,36,207,45,26,65,206,49*7A
###2023-12-09 12:32:47.946723$GPGSV,2,2,08,28,59,054,43,29,25,075,42,31,73,356,47,32,31,133,46*7C
###2023-12-09 12:32:47.949109$GLGSV,1,1,04,71,58,169,48,72,65,311,46,73,49,033,46,74,71,287,43*6B
###2023-12-09 12:32:47.951496$GAGSV,1,1,04,04,20,311,41,19,80,306,41,21,76,177,46,27,42,050,42*6D
