###2023-12-09 13:35:13.016500$GLGSV,2,1,06,65,39,318,43,71,22,175,43,72,62,220,46,73,22,052,41*63
###2023-12-09 13:35:13.018652$GLGSV,2,2,06,74,59,015,42,75,44,272,47,,,,,,,,*68
###2023-12-09 13:35:13.021445$GAGSV,1,1,04,04,40,310,44,19,72,181,41,21,77,046,46,27,22,050,40*69
###2023-12-09 13:35:13.024253$GBGSV,2,1,07,12,15,126,40,14,29,190,40,24,62,046,47,25,51,276,45*69
###2023-12-09 13:35:13.026730$GBGSV,2,2,07,26,16,071,40,33,45,217,46,35,16,056,40,,,,*5C
###2023-12-09 13:35:13.028287$GNVTG,58.29,T,,M,2.95,N,5.47,K,A*1D
###2023-12-09 13:35:13.030213$GNGST,183512.10,5.300,,,,0.100,0.072,0.160*6F
###2023-12-09 13:35:13.031789$GNZDA,183512.10,09,12,2023,00,00*7C
###2023-12-09 13:35:13.032557$GNEBP,,,,,,M*13
###2023-12-09 13:35:13.193818$GNGGA,183512.30,4138.0377421,N,07032.4051992,W,1,26,0.6,13.308,M,-29.745,M,0.0,*54
###2023-12-09 13:35:13.394160$GNGGA,183512.50,4138.0378147,N,07032.4050044,W,1,26,0.6,13.293,M,-29.745,M,0.0,*58
###2023-12-09 13:35:13.594343$GNGGA,183512.70,4138.0378871,N,07032.4048194,W,1,26,0.6,13.302,M,-29.745,M,0.0,*5A
###2023-12-09 13:35:13.795112$GNGGA,183512.90,4138.0379625,N,07032.4046211,W,1,26,0.6,13.312,M,-29.745,M,0.0,*5B
###2023-12-09 13:35:13.998739$GNRMC,183513.10,A,4138.0380262,N,07032.4044246,W,2.78,64.94,091223,,,A*66
###2023-12-09 13:35:14.001597$GNGGA,183513.10,4138.0380262,N,07032.4044246,W,1,26,0.6,13.290,M,-29.745,M,0.0,*58
###2023-12-09 13:35:14.003476$GPGSA,A,3,03,04,16,26,27,28,29,31,,,,,1.0,0.6,0.9*3E
###2023-12-09 13:35:14.005192$GLGSA,A,3,65,71,72,73,74,75,,,,,,,1.0,0.6,0.9*25
###2023-12-09 13:35:14.006798$GAGSA,A,3,04,19,21,27,,,,,,,,,1.0,0.6,0.9*27
###2023-12-09 13:35:14.008589$GBGSA,A,3,12,14,24,25,26,33,35,,,,,,1.0,0.6,0.9*2B
###2023-12-09 13:35:14.010946$GPGSV,2,1,08,03,26,246,42,04,47,307,45,16,66,222,47,26,84,040,48*77
###2023-12-09 13:35:14.013278$GPGSV,2,2,08,27,16,172,35,28,38,084,42,29,21,047,40,31,59,066,45*7A
###2023-12-09 13:35:14.015631$GLGSV,2,1,06,65,39,318,43,71,22,175,44,72,62,220,46,73,22,052,41*64
###2023-12-09 13:35:14.017379$GLGSV,2,2,06,74,59,015,42,75,44,272,47,,,,,,,,*68
###2023-12-09 13:35:14.019718$GAGSV,1,1,04,04,40,310,44,19,72,181,41,21,77,046,45,27,22,050,39*64
###2023-12-09 13:35:14.022047$GBGSV,2,1,07,12,15,126,41,14,29,190,40,24,62,046,48,25,51,276,47*65
###2023-12-09 13:35:14.024105$GBGSV,2,2,07,26,16,071,41,33,45,217,47,35,16,056,42,,,,*5E
###2023-12-09 13:35:14.025393$GNVTG,64.94,T,,M,2.78,N,5.15,K,A*10
###2023-12-09 13:35:14.027022$GNGST,183513.10,5.700,,,,0.100,0.072,0.160*6A
###2023-12-09 13:35:14.028315$GNZDA,183513.10,09,12,2023,00,00*7D
###2023-12-09 13:35:14.028953$GNEBP,,,,,,M*13
###2023-12-09 13:35:14.196249$GNGGA,183513.30,4138.0380962,N,07032.4042400,W,1,26,0.6,13.297,M,-29.745,M,0.0,*54
###2023-12-09 13:35:14.395129$GNGGA,183513.50,4138.0381651,N,07032.4040440,W,1,26,0.6,13.309,M,-29.745,M,0.0,*5C
###2023-12-09 13:35:14.597576$GNGGA,183513.70,4138.0382300,N,07032.4038402,W,1,26,0.6,13.291,M,-29.745,M,0.0,*55
###2023-12-09 13:35:14.793895$GNGGA,183513.90,4138.0382978,N,07032.4036538,W,1,26,0.6,13.290,M,-29.745,M,0.0,*59
###2023-12-09 13:35:14.999100$GNRMC,183514.10,A,4138.0383760,N,07032.4034579,W,3.05,63.74,091223,,,A*6B
###2023-12-09 13:35:15.001975$GNGGA,183514.10,4138.0383760,N,07032.4034579,W,1,26,0.6,13.308,M,-29.745,M,0.0,*57
###2023-12-09 13:35:15.003856$GPGSA,A,3,03,04,16,26,27,28,29,31,,,,,1.0,0.6,0.8*3F
###2023-12-09 13:35:15.005580$GLGSA,A,3,65,71,72,73,74,75,,,,,,,1.0,0.6,0.8*24
###2023-12-09 13:35:15.007187$GAGSA,A,3,04,19,21,27,,,,,,,,,1.0,0.6,0.8*26
###2023-12-09 13:35:15.008977$GBGSA,A,3,12,14,24,25,26,33,35,,,,,,1.0,0.6,0.8*2A
###2023-12-09 13:35:15.011331$GPGSV,2,1,08,03,26,246,41,04,47,307,45,16,66,222,46,26,84,040,47*7A
###2023-12-09 13:35:15.013680$GPGSV,2,2,08,27,16,172,35,28,38,084,42,29,21,047,40,31,59,066,45*7A
###2023-12-09 13:35:15.016032$GLGSV,2,1,06,65,39,318,44,71,22,175,42,72,62,220,47,73,22,052,40*65
###2023-12-09 13:35:15.017784$GLGSV,2,2,06,74,59,015,42,75,44,272,48,,,,,,,,*67
###2023-12-09 13:35:15.020126$GAGSV,1,1,04,04,40,310,44,19,72,181,41,21,77,046,45,27,22,050,39*64
###2023-12-09 13:35:15.022462$GBGSV,2,1,07,12,15,126,40,14,29,190,41,24,62,046,47,25,51,276,47*6A
###2023-12-09 13:35:15.024530$GBGSV,2,2,07,26,16,071,42,33,45,217,47,35,16,056,41,,,,*5E
###2023-12-09 13:35:15.025832$GNVTG,63.74,T,,M,3.05,N,5.65,K,A*15
###2023-12-09 13:35:15.027460$GNGST,183514.10,5.800,,,,0.100,0.072,0.160*62
###2023-12-09 13:35:15.028755$GNZDA,183514.10,09,12,2023,00,00*7A
###2023-12-09 13:35:15.029395$GNEBP,,,,,,M*13
###2023-12-09 13:35:15.202007$GNGGA,183514.30,4138.0384500,N,07032.4032591,W,1,26,0.6,13.289,M,-29.745,M,0.0,*5E
###2023-12-09 13:35:15.394110$GNGGA,183514.50,4138.0385307,N,07032.4030815,W,1,26,0.6,13.296,M,-29.745,M,0.0,*55
###2023-12-09 13:35:15.594305$GNGGA,183514.70,4138.0386175,N,07032.4028876,W,1,26,0.6,13.295,M,-29.745,M,0.0,*5C
###2023-12-09 13:35:15.795262$GNGGA,183514.90,4138.0387004,N,07032.4027043,W,1,26,0.6,13.277,M,-29.745,M,0.0,*59
###2023-12-09 13:35:16.003158$GNRMC,183515.10,A,4138.0388105,N,07032.4025557,W,2.95,49.81,091223,,,A*62
###2023-12-09 13:35:16.006020$GNGGA,183515.10,4138.0388105,N,07032.4025557,W,1,26,0.6,13.296,M,-29.745,M,0.0,*52
###2023-12-09 13:35:16.007884$GPGSA,A,3,03,04,16,26,27,28,29,31,,,,,1.0,0.6,0.9*3E
###2023-12-09 13:35:16.009599$GLGSA,A,3,65,71,72,73,74,75,,,,,,,1.0,0.6,0.9*25
###2023-12-09 13:35:16.011197$GAGSA,A,3,04,19,21,27,,,,,,,,,1.0,0.6,0.9*27
###2023-12-09 13:35:16.012987$GBGSA,A,3,12,14,24,25,26,33,35,,,,,,1.0,0.6,0.9*2B
###2023-12-09 13:35:16.015331$GPGSV,2,1,08,03,26,246,42,04,47,307,45,16,66,222,46,26,84,040,48*76
###2023-12-09 13:35:16.017669$GPGSV,2,2,08,27,16,172,35,28,38,084,43,29,21,047,40,31,59,066,45*7B
###2023-12-09 13:35:16.020020$GLGSV,2,1,06,65,39,318,45,71,22,175,40,72,62,220,46,73,22,052,41*66
###2023-12-09 13:35:16.021767$GLGSV,2,2,06,74,59,015,41,75,44,272,47,,,,,,,,*6B
###2023-12-09 13:35:16.024110$GAGSV,1,1,04,04,40,310,45,19,72,181,41,21,77,046,45,27,22,050,39*65
###2023-12-09 13:35:16.026448$GBGSV,2,1,07,12,15,126,39,14,29,190,41,24,62,046,48,25,51,276,48*64
###2023-12-09 13:35:16.028498$GBGSV,2,2,07,26,16,071,41,33,45,217,46,35,16,056,41,,,,*5C
###2023-12-09 13:35:16.029792$GNVTG,49.81,T,,M,2.95,N,5.47,K,A*1F
###2023-12-09 13:35:16.031450$GNGST,183515.10,5.600,,,,0.100,0.072,0.160*6D
###2023-12-09 13:35:16.032744$GNZDA,183515.10,09,12,2023,00,00*7B
###2023-12-09 13:35:16.033383$GNEBP,,,,,,M*13
###2023-12-09 13:35:16.197234$GNGGA,183515.30,4138.0389063,N,07032.4023737,W,1,26,0.6,13.289,M,-29.745,M,0.0,*5C
###2023-12-09 13:35:16.395635$GNGGA,183515.50,4138.0390077,N,07032.4022108,W,1,26,0.6,13.282,M,-29.745,M,0.0,*57
###2023-12-09 13:35:16.594287$GNGGA,183515.70,4138.0391237,N,07032.4020614,W,1,26,0.6,13.292,M,-29.745,M,0.0,*5B
###2023-12-09 13:35:16.794964$GNGGA,183515.90,4138.0392367,N,07032.4019048,W,1,26,0.6,13.286,M,-29.745,M,0.0,*52
###2023-12-09 13:35:16.999825$GNRMC,183516.10,A,4138.0393502,N,07032.4017546,W,2.92,41.94,091223,,,A*62
###2023-12-09 13:35:17.002695$GNGGA,183516.10,4138.0393502,N,07032.4017546,W,1,26,0.6,13.286,M,-29.745,M,0.0,*58
###2023-12-09 13:35:17.004551$GPGSA,A,3,03,04,16,26,27,28,29,31,,,,,1.0,0.6,0.8*3F
###2023-12-09 13:35:17.006262$GLGSA,A,3,65,71,72,73,74,75,,,,,,,1.0,0.6,0.8*24
###2023-12-09 13:35:17.007860$GAGSA,A,3,04,19,21,27,,,,,,,,,1.0,0.6,0.8*26
###2023-12-09 13:35:17.009636$GBGSA,A,3,12,14,24,25,26,33,35,,,,,,1.0,0.6,0.8*2A
###2023-12-09 13:35:17.011979$GPGSV,2,1,08,03,26,246,42,04,47,307,45,16,67,223,46,26,84,040,47*79
###2023-12-09 13:35:17.014315$GPGSV,2,2,08,27,16,172,38,28,38,084,43,29,21,047,39,31,59,066,45*78
###2023-12-09 13:35:17.016667$GLGSV,2,1,06,65,39,318,44,71,22,175,42,72,62,220,46,73,22,052,41*65
###2023-12-09 13:35:17.018416$GLGSV,2,2,06,74,59,015,41,75,44,272,46,,,,,,,,*6A
###2023-12-09 13:35:17.020758$GAGSV,1,1,04,04,40,310,44,19,72,181,41,21,77,046,45,27,22,050,39*64
###2023-12-09 13:35:17.023105$GBGSV,2,1,07,12,15,126,40,14,29,190,40,24,62,046,46,25,51,276,46*6B
###2023-12-09 13:35:17.025144$GBGSV,2,2,07,26,16,071,41,33,45,217,45,35,16,056,40,,,,*5E
###2023-12-09 13:35:17.026430$GNVTG,41.94,T,,M,2.92,N,5.40,K,A*13
###2023-12-09 13:35:17.028295$GNGST,183516.10,5.100,,,,0.100,0.072,0.160*69
###2023-12-09 13:35:17.029605$GNZDA,183516.10,09,12,2023,00,00*78
###2023-12-09 13:35:17.030249$GNEBP,,,,,,M*13
###2023-12-09 13:35:17.196298$GNGGA,183516.30,4138.0394705,N,07032.4016064,W,1,26,0.6,13.293,M,-29.745,M,0.0,*58
###2023-12-09 13:35:17.393934$GNGGA,183516.50,4138.0395889,N,07032.4014618,W,1,26,0.6,13.280,M,-29.745,M,0.0,*59
###2023-12-09 13:35:17.595150$GNGGA,183516.70,4138.0397094,N,07032.4013163,W,1,26,0.6,13.267,M,-29.745,M,0.0,*58
###2023-12-09 13:35:17.794857$GNGGA,183516.90,4138.0398348,N,07032.4011878,W,1,26,0.6,13.283,M,-29.745,M,0.0,*50
###2023-12-09 13:35:17.996917$GNRMC,183517.10,A,4138.0399587,N,07032.4010383,W,3.11,48.83,091223,,,A*69
###2023-12-09 13:35:17.999795$GNGGA,183517.10,4138.0399587,N,07032.4010383,W,1,26,0.6,13.267,M,-29.745,M,0.0,*59
###2023-12-09 13:35:18.001651$GPGSA,A,3,03,04,16,26,27,28,29,31,,,,,1.0,0.6,0.8*3F
