###2023-12-09 13:06:05.003219$GNEBP,,,,,,M*13
###2023-12-09 13:06:05.166992$GNGGA,180604.30,4138.0709205,N,07032.2854052,W,1,24,0.6,13.413,M,-29.742,M,0.0,*58
###2023-12-09 13:06:05.367860$GNGGA,180604.50,4138.0708650,N,07032.2856474,W,1,24,0.6,13.401,M,-29.742,M,0.0,*5A
###2023-12-09 13:06:05.568900$GNGGA,180604.70,4138.0708226,N,07032.2858990,W,1,24,0.6,13.434,M,-29.742,M,0.0,*52
###2023-12-09 13:06:05.768909$GNGGA,180604.90,4138.0707886,N,07032.2861618,W,1,24,0.6,13.460,M,-29.742,M,0.0,*57
###2023-12-09 13:06:05.971228$GNRMC,180605.10,A,4138.0707431,N,07032.2864205,W,3.60,254.01,091223,,,A*54
###2023-12-09 13:06:05.974080$GNGGA,180605.10,4138.0707431,N,07032.2864205,W,1,24,0.6,13.443,M,-29.742,M,0.0,*52
###2023-12-09 13:06:05.975949$GPGSA,A,3,03,04,16,26,28,29,31,32,,,,,1.1,0.6,0.9*3B
###2023-12-09 13:06:05.977660$GLGSA,A,3,65,71,72,73,74,75,,,,,,,1.1,0.6,0.9*24
###2023-12-09 13:06:05.979252$GAGSA,A,3,04,19,21,27,,,,,,,,,1.1,0.6,0.9*26
###2023-12-09 13:06:05.980887$GBGSA,A,3,14,24,25,26,33,,,,,,,,1.1,0.6,0.9*2F
###2023-12-09 13:06:05.983219$GPGSV,2,1,08,03,34,259,42,04,34,311,44,16,52,213,46,26,82,210,48*7D
###2023-12-09 13:06:05.985556$GPGSV,2,2,08,28,48,072,44,29,25,059,43,31,68,042,47,32,17,141,41*7A
###2023-12-09 13:06:05.987900$GLGSV,2,1,06,65,26,327,42,71,39,173,46,72,73,261,46,73,34,043,45*6F
###2023-12-09 13:06:05.989648$GLGSV,2,2,06,74,69,343,43,75,33,255,43,,,,,,,,*6B
###2023-12-09 13:06:05.991987$GAGSV,1,1,04,04,31,312,43,19,83,203,40,21,85,094,45,27,31,048,42*64
###2023-12-09 13:06:05.994317$GBGSV,2,1,05,14,42,192,43,24,72,028,48,25,42,263,42,26,25,063,41*65
###2023-12-09 13:06:05.995786$GBGSV,2,2,05,33,56,230,46,,,,,,,,,,,,*5E
###2023-12-09 13:06:05.997106$GNVTG,254.01,T,,M,3.60,N,6.66,K,A*22
###2023-12-09 13:06:05.998796$GNGST,180605.10,18.000,,,,0.080,0.068,0.160*54
###2023-12-09 13:06:06.000091$GNZDA,180605.10,09,12,2023,00,00*7A
###2023-12-09 13:06:06.000729$GNEBP,,,,,,M*13
###2023-12-09 13:06:06.168824$GNGGA,180605.30,4138.0706806,N,07032.2866689,W,1,24,0.6,13.409,M,-29.742,M,0.0,*55
###2023-12-09 13:06:06.370011$GNGGA,180605.50,4138.0706264,N,07032.2869208,W,1,24,0.6,13.394,M,-29.742,M,0.0,*5C
###2023-12-09 13:06:06.567824$GNGGA,180605.70,4138.0705825,N,07032.2871759,W,1,24,0.6,13.396,M,-29.742,M,0.0,*58
###2023-12-09 13:06:06.768980$GNGGA,180605.90,4138.0705518,N,07032.2874245,W,1,24,0.6,13.415,M,-29.742,M,0.0,*54
###2023-12-09 13:06:06.970395$GNRMC,180606.10,A,4138.0705204,N,07032.2876657,W,3.36,258.46,091223,,,A*59
###2023-12-09 13:06:06.973278$GNGGA,180606.10,4138.0705204,N,07032.2876657,W,1,24,0.6,13.433,M,-29.742,M,0.0,*54
###2023-12-09 13:06:06.975147$GPGSA,A,3,03,04,16,26,28,29,31,32,,,,,1.1,0.6,0.9*3B
###2023-12-09 13:06:06.976863$GLGSA,A,3,65,71,72,73,74,75,,,,,,,1.1,0.6,0.9*24
###2023-12-09 13:06:06.978434$GAGSA,A,3,04,19,21,27,,,,,,,,,1.1,0.6,0.9*26
###2023-12-09 13:06:06.980088$GBGSA,A,3,14,24,25,26,33,,,,,,,,1.1,0.6,0.9*2F
###2023-12-09 13:06:06.982417$GPGSV,2,1,08,03,34,259,42,04,34,311,42,16,52,213,45,26,82,210,47*77
###2023-12-09 13:06:06.984756$GPGSV,2,2,08,28,48,072,43,29,25,059,41,31,68,042,46,32,17,141,42*7D
###2023-12-09 13:06:06.987094$GLGSV,2,1,06,65,26,327,41,71,39,173,46,72,73,261,45,73,34,043,46*6C
###2023-12-09 13:06:06.988840$GLGSV,2,2,06,74,69,343,43,75,33,255,42,,,,,,,,*6A
###2023-12-09 13:06:06.991169$GAGSV,1,1,04,04,31,312,40,19,83,203,40,21,85,094,46,27,31,048,42*64
###2023-12-09 13:06:06.993496$GBGSV,2,1,05,14,42,192,43,24,72,028,47,25,42,263,43,26,25,063,43*69
###2023-12-09 13:06:06.994995$GBGSV,2,2,05,33,56,230,46,,,,,,,,,,,,*5E
###2023-12-09 13:06:06.996328$GNVTG,258.46,T,,M,3.36,N,6.23,K,A*2F
###2023-12-09 13:06:06.997974$GNGST,180606.10,18.000,,,,0.081,0.068,0.160*56
###2023-12-09 13:06:06.999280$GNZDA,180606.10,09,12,2023,00,00*79
###2023-12-09 13:06:06.999919$GNEBP,,,,,,M*13
###2023-12-09 13:06:07.167020$GNGGA,180606.30,4138.0704934,N,07032.2879097,W,1,24,0.6,13.407,M,-29.742,M,0.0,*5D
###2023-12-09 13:06:07.368498$GNGGA,180606.50,4138.0704913,N,07032.2881552,W,1,24,0.6,13.390,M,-29.742,M,0.0,*5C
###2023-12-09 13:06:07.569986$GNGGA,180606.70,4138.0704957,N,07032.2883932,W,1,24,0.6,13.400,M,-29.742,M,0.0,*58
###2023-12-09 13:06:07.769503$GNGGA,180606.90,4138.0705059,N,07032.2886257,W,1,24,0.6,13.415,M,-29.742,M,0.0,*59
###2023-12-09 13:06:07.971164$GNRMC,180607.10,A,4138.0705420,N,07032.2888498,W,3.07,284.46,091223,,,A*5B
###2023-12-09 13:06:07.974026$GNGGA,180607.10,4138.0705420,N,07032.2888498,W,1,24,0.6,13.408,M,-29.742,M,0.0,*5D
###2023-12-09 13:06:07.975894$GPGSA,A,3,03,04,16,26,28,29,31,32,,,,,1.1,0.6,0.9*3B
###2023-12-09 13:06:07.977609$GLGSA,A,3,65,71,72,73,74,75,,,,,,,1.1,0.6,0.9*24
###2023-12-09 13:06:07.979207$GAGSA,A,3,04,19,21,27,,,,,,,,,1.1,0.6,0.9*26
###2023-12-09 13:06:07.980851$GBGSA,A,3,14,24,25,26,33,,,,,,,,1.1,0.6,0.9*2F
###2023-12-09 13:06:07.983194$GPGSV,2,1,08,03,34,259,40,04,34,311,40,16,52,213,45,26,82,210,47*77
###2023-12-09 13:06:07.985536$GPGSV,2,2,08,28,48,072,44,29,25,059,40,31,68,042,46,32,17,141,43*7A
###2023-12-09 13:06:07.987888$GLGSV,2,1,06,65,26,327,37,71,39,173,47,72,73,261,45,73,34,043,45*6F
###2023-12-09 13:06:07.989649$GLGSV,2,2,06,74,69,343,42,75,33,255,43,,,,,,,,*6A
###2023-12-09 13:06:07.991984$GAGSV,1,1,04,04,31,312,39,19,83,203,40,21,85,094,46,27,31,048,41*69
###2023-12-09 13:06:07.994320$GBGSV,2,1,05,14,42,192,47,24,72,028,49,25,42,263,45,26,25,063,42*64
###2023-12-09 13:06:07.995792$GBGSV,2,2,05,33,56,230,48,,,,,,,,,,,,*50
###2023-12-09 13:06:07.997120$GNVTG,284.46,T,,M,3.07,N,5.69,K,A*21
###2023-12-09 13:06:07.998782$GNGST,180607.10,18.000,,,,0.081,0.069,0.160*56
###2023-12-09 13:06:08.000072$GNZDA,180607.10,09,12,2023,00,00*78
###2023-12-09 13:06:08.000711$GNEBP,,,,,,M*13
###2023-12-09 13:06:08.167989$GNGGA,180607.30,4138.0705858,N,07032.2890685,W,1,24,0.6,13.388,M,-29.742,M,0.0,*54
###2023-12-09 13:06:08.373325$GNGGA,180607.50,4138.0706348,N,07032.2892802,W,1,24,0.6,13.394,M,-29.742,M,0.0,*55
###2023-12-09 13:06:08.567719$GNGGA,180607.70,4138.0706808,N,07032.2894910,W,1,24,0.6,13.397,M,-29.742,M,0.0,*5F
###2023-12-09 13:06:08.768026$GNGGA,180607.90,4138.0707403,N,07032.2896931,W,1,24,0.6,13.398,M,-29.742,M,0.0,*59
###2023-12-09 13:06:08.978276$GNRMC,180608.10,A,4138.0708144,N,07032.2898919,W,3.05,296.23,091223,,,A*59
###2023-12-09 13:06:08.981152$GNGGA,180608.10,4138.0708144,N,07032.2898919,W,1,24,0.6,13.402,M,-29.742,M,0.0,*57
###2023-12-09 13:06:08.983019$GPGSA,A,3,03,04,16,26,28,29,31,32,,,,,1.1,0.6,0.9*3B
###2023-12-09 13:06:08.984734$GLGSA,A,3,65,71,72,73,74,75,,,,,,,1.1,0.6,0.9*24
###2023-12-09 13:06:08.986317$GAGSA,A,3,04,19,21,27,,,,,,,,,1.1,0.6,0.9*26
###2023-12-09 13:06:08.987992$GBGSA,A,3,14,24,25,26,33,,,,,,,,1.1,0.6,0.9*2F
###2023-12-09 13:06:08.990333$GPGSV,2,1,08,03,34,259,43,04,34,311,41,16,52,213,45,26,82,210,48*7A
###2023-12-09 13:06:08.992690$GPGSV,2,2,08,28,48,072,44,29,25,059,40,31,68,042,46,32,17,141,43*7A
###2023-12-09 13:06:08.995040$GLGSV,2,1,06,65,26,327,38,71,39,173,47,72,73,261,45,73,34,043,46*63
###2023-12-09 13:06:08.996793$GLGSV,2,2,06,74,69,343,42,75,33,255,45,,,,,,,,*6C
###2023-12-09 13:06:08.999141$GAGSV,1,1,04,04,31,312,41,19,83,203,40,21,85,094,46,27,31,048,41*66
###2023-12-09 13:06:09.001479$GBGSV,2,1,05,14,42,192,45,24,72,028,48,25,42,263,46,26,25,063,41*67
###2023-12-09 13:06:09.002956$GBGSV,2,2,05,33,56,230,46,,,,,,,,,,,,*5E
###2023-12-09 13:06:09.004284$GNVTG,296.23,T,,M,3.05,N,5.65,K,A*2F
###2023-12-09 13:06:09.005944$GNGST,180608.10,18.000,,,,0.081,0.069,0.160*59
###2023-12-09 13:06:09.007263$GNZDA,180608.10,09,12,2023,00,00*77
###2023-12-09 13:06:09.007917$GNEBP,,,,,,M*13
###2023-12-09 13:06:09.170101$GNGGA,180608.30,4138.0708870,N,07032.2900984,W,1,24,0.6,13.400,M,-29.742,M,0.0,*5D
###2023-12-09 13:06:09.368481$GNGGA,180608.50,4138.0709511,N,07032.2903123,W,1,24,0.6,13.394,M,-29.742,M,0.0,*5C
###2023-12-09 13:06:09.568095$GNGGA,180608.70,4138.0710224,N,07032.2905274,W,1,24,0.6,13.398,M,-29.742,M,0.0,*5C
###2023-12-09 13:06:09.769072$GNGGA,180608.90,4138.0711039,N,07032.2907453,W,1,24,0.6,13.405,M,-29.742,M,0.0,*5F
###2023-12-09 13:06:09.969006$GNRMC,180609.10,A,4138.0711794,N,07032.2909689,W,3.29,291.30,091223,,,A*5F
###2023-12-09 13:06:09.972129$GNGGA,180609.10,4138.0711794,N,07032.2909689,W,1,24,0.6,13.396,M,-29.742,M,0.0,*50
###2023-12-09 13:06:09.974006$GPGSA,A,3,03,04,16,26,28,29,31,32,,,,,1.1,0.6,0.9*3B
###2023-12-09 13:06:09.975735$GLGSA,A,3,65,71,72,73,74,75,,,,,,,1.1,0.6,0.9*24
###2023-12-09 13:06:09.977330$GAGSA,A,3,04,19,21,27,,,,,,,,,1.1,0.6,0.9*26
###2023-12-09 13:06:09.978993$GBGSA,A,3,14,24,25,26,33,,,,,,,,1.1,0.6,0.9*2F
###2023-12-09 13:06:09.981314$GPGSV,2,1,08,03,34,259,42,04,34,311,41,16,52,213,45,26,82,210,48*7B
###2023-12-09 13:06:09.983658$GPGSV,2,2,08,28,48,072,45,29,25,059,41,31,68,042,47,32,17,141,44*7C
###2023-12-09 13:06:09.985990$GLGSV,2,1,06,65,26,327,38,71,39,173,47,72,73,261,46,73,34,043,45*63
###2023-12-09 13:06:09.987751$GLGSV,2,2,06,74,69,343,42,75,33,255,44,,,,,,,,*6D
###2023-12-09 13:06:09.990077$GAGSV,1,1,04,04,31,312,40,19,83,203,40,21,85,094,46,27,31,048,42*64
