###2023-12-09 13:38:23.400168$GNGGA,183822.50,4138.0420882,N,07032.3933942,W,1,25,0.6,13.250,M,-29.745,M,0.0,*54
###2023-12-09 13:38:23.600354$GNGGA,183822.70,4138.0422577,N,07032.3934055,W,1,25,0.6,13.248,M,-29.745,M,0.0,*52
###2023-12-09 13:38:23.798395$GNGGA,183822.90,4138.0424322,N,07032.3934119,W,1,25,0.6,13.253,M,-29.745,M,0.0,*5F
###2023-12-09 13:38:24.002102$GNRMC,183823.10,A,4138.0426069,N,07032.3934297,W,3.11,352.72,091223,,,A*5F
###2023-12-09 13:38:24.005003$GNGGA,183823.10,4138.0426069,N,07032.3934297,W,1,25,0.6,13.248,M,-29.745,M,0.0,*57
###2023-12-09 13:38:24.006882$GPGSA,A,3,03,04,16,26,27,28,29,31,,,,,1.0,0.6,0.8*3F
###2023-12-09 13:38:24.008596$GLGSA,A,3,65,71,72,73,74,75,,,,,,,1.0,0.6,0.8*24
###2023-12-09 13:38:24.010189$GAGSA,A,3,04,19,21,27,,,,,,,,,1.0,0.6,0.8*26
###2023-12-09 13:38:24.011924$GBGSA,A,3,12,14,24,25,33,35,,,,,,,1.0,0.6,0.8*2E
###2023-12-09 13:38:24.014271$GPGSV,2,1,08,03,25,245,40,04,48,307,44,16,68,224,45,26,82,040,47*78
###2023-12-09 13:38:24.016630$GPGSV,2,2,08,27,18,172,43,28,37,086,44,29,20,046,42,31,58,068,47*71
###2023-12-09 13:38:24.018986$GLGSV,2,1,06,65,39,317,42,71,21,175,44,72,61,219,46,73,21,053,43*60
###2023-12-09 13:38:24.020736$GLGSV,2,2,06,74,59,016,41,75,44,273,46,,,,,,,,*68
###2023-12-09 13:38:24.023074$GAGSV,1,1,04,04,41,309,44,19,70,181,42,21,75,045,46,27,21,050,42*61
###2023-12-09 13:38:24.025399$GBGSV,2,1,06,12,17,125,40,14,27,189,41,24,62,047,48,25,52,277,46*61
###2023-12-09 13:38:24.027157$GBGSV,2,2,06,33,44,216,46,35,16,055,44,,,,,,,,*6B
###2023-12-09 13:38:24.028485$GNVTG,352.72,T,,M,3.11,N,5.76,K,A*25
###2023-12-09 13:38:24.030101$GNGST,183823.10,5.900,,,,0.110,0.093,0.210*60
###2023-12-09 13:38:24.031412$GNZDA,183823.10,09,12,2023,00,00*73
###2023-12-09 13:38:24.032052$GNEBP,,,,,,M*13
###2023-12-09 13:38:24.200298$GNGGA,183823.30,4138.0427799,N,07032.3934827,W,1,25,0.6,13.245,M,-29.745,M,0.0,*50
###2023-12-09 13:38:24.399086$GNGGA,183823.50,4138.0429550,N,07032.3935393,W,1,25,0.6,13.244,M,-29.745,M,0.0,*5B
###2023-12-09 13:38:24.598844$GNGGA,183823.70,4138.0431379,N,07032.3935522,W,1,25,0.6,13.231,M,-29.745,M,0.0,*53
###2023-12-09 13:38:24.800931$GNGGA,183823.90,4138.0433185,N,07032.3935512,W,1,25,0.6,13.233,M,-29.745,M,0.0,*5F
###2023-12-09 13:38:25.005322$GNRMC,183824.10,A,4138.0434994,N,07032.3935808,W,3.32,351.19,091223,,,A*52
###2023-12-09 13:38:25.008784$GNGGA,183824.10,4138.0434994,N,07032.3935808,W,1,25,0.6,13.241,M,-29.745,M,0.0,*5C
###2023-12-09 13:38:25.011030$GPGSA,A,3,03,04,16,26,27,28,29,31,,,,,1.0,0.6,0.8*3F
###2023-12-09 13:38:25.013111$GLGSA,A,3,65,71,72,73,74,75,,,,,,,1.0,0.6,0.8*24
###2023-12-09 13:38:25.015045$GAGSA,A,3,04,19,21,27,,,,,,,,,1.0,0.6,0.8*26
###2023-12-09 13:38:25.017106$GBGSA,A,3,12,14,24,25,33,35,,,,,,,1.0,0.6,0.8*2E
###2023-12-09 13:38:25.019930$GPGSV,2,1,08,03,25,245,42,04,48,307,45,16,68,224,46,26,82,040,47*78
###2023-12-09 13:38:25.022750$GPGSV,2,2,08,27,18,172,42,28,37,086,44,29,20,046,39,31,58,068,47*7C
###2023-12-09 13:38:25.025555$GLGSV,2,1,06,65,39,317,42,71,21,175,44,72,61,219,46,73,21,053,40*63
###2023-12-09 13:38:25.027679$GLGSV,2,2,06,74,59,016,41,75,44,273,48,,,,,,,,*66
###2023-12-09 13:38:25.030477$GAGSV,1,1,04,04,41,309,43,19,70,181,41,21,75,045,45,27,21,050,39*6A
###2023-12-09 13:38:25.033300$GBGSV,2,1,06,12,17,125,41,14,27,189,41,24,62,047,48,25,52,277,48*6E
###2023-12-09 13:38:25.035440$GBGSV,2,2,06,33,44,216,48,35,16,055,43,,,,,,,,*62
###2023-12-09 13:38:25.037041$GNVTG,351.19,T,,M,3.32,N,6.16,K,A*2F
###2023-12-09 13:38:25.039001$GNGST,183824.10,5.800,,,,0.110,0.093,0.210*66
###2023-12-09 13:38:25.040545$GNZDA,183824.10,09,12,2023,00,00*74
###2023-12-09 13:38:25.041310$GNEBP,,,,,,M*13
###2023-12-09 13:38:25.200985$GNGGA,183824.30,4138.0436752,N,07032.3936072,W,1,25,0.6,13.232,M,-29.745,M,0.0,*5A
###2023-12-09 13:38:25.401210$GNGGA,183824.50,4138.0438513,N,07032.3935904,W,1,25,0.6,13.217,M,-29.745,M,0.0,*59
###2023-12-09 13:38:25.598824$GNGGA,183824.70,4138.0440199,N,07032.3935568,W,1,25,0.6,13.204,M,-29.745,M,0.0,*56
###2023-12-09 13:38:25.800432$GNGGA,183824.90,4138.0441866,N,07032.3935568,W,1,25,0.6,13.209,M,-29.745,M,0.0,*5D
###2023-12-09 13:38:26.002855$GNRMC,183825.10,A,4138.0443553,N,07032.3935664,W,3.09,0.80,091223,,,A*5F
###2023-12-09 13:38:26.005716$GNGGA,183825.10,4138.0443553,N,07032.3935664,W,1,25,0.6,13.210,M,-29.745,M,0.0,*5A
###2023-12-09 13:38:26.007589$GPGSA,A,3,03,04,16,26,27,28,29,31,,,,,1.0,0.6,0.8*3F
###2023-12-09 13:38:26.009307$GLGSA,A,3,65,71,72,73,74,75,,,,,,,1.0,0.6,0.8*24
###2023-12-09 13:38:26.010901$GAGSA,A,3,04,19,21,27,,,,,,,,,1.0,0.6,0.8*26
###2023-12-09 13:38:26.012606$GBGSA,A,3,12,14,24,25,33,35,,,,,,,1.0,0.6,0.8*2E
###2023-12-09 13:38:26.014938$GPGSV,2,1,08,03,25,245,41,04,48,307,44,16,68,224,46,26,82,040,48*75
###2023-12-09 13:38:26.017273$GPGSV,2,2,08,27,18,172,42,28,37,086,42,29,20,046,39,31,58,068,45*78
###2023-12-09 13:38:26.019611$GLGSV,2,1,06,65,39,317,42,71,21,175,45,72,61,219,47,73,21,053,40*63
###2023-12-09 13:38:26.021358$GLGSV,2,2,06,74,59,016,41,75,44,273,49,,,,,,,,*67
###2023-12-09 13:38:26.023686$GAGSV,1,1,04,04,41,309,44,19,70,181,41,21,75,045,45,27,21,050,38*6C
###2023-12-09 13:38:26.026009$GBGSV,2,1,06,12,17,125,39,14,27,189,40,24,62,047,46,25,52,277,47*61
###2023-12-09 13:38:26.027772$GBGSV,2,2,06,33,44,216,48,35,16,055,40,,,,,,,,*61
###2023-12-09 13:38:26.029041$GNVTG,0.80,T,,M,3.09,N,5.72,K,A*21
###2023-12-09 13:38:26.030669$GNGST,183825.10,5.700,,,,0.110,0.092,0.210*69
###2023-12-09 13:38:26.031961$GNZDA,183825.10,09,12,2023,00,00*75
###2023-12-09 13:38:26.032599$GNEBP,,,,,,M*13
###2023-12-09 13:38:26.200438$GNGGA,183825.30,4138.0445230,N,07032.3935418,W,1,25,0.6,13.211,M,-29.745,M,0.0,*54
###2023-12-09 13:38:26.399647$GNGGA,183825.50,4138.0446908,N,07032.3934918,W,1,25,0.6,13.206,M,-29.745,M,0.0,*5B
###2023-12-09 13:38:26.600998$GNGGA,183825.70,4138.0448552,N,07032.3934667,W,1,25,0.6,13.194,M,-29.745,M,0.0,*5B
###2023-12-09 13:38:26.800851$GNGGA,183825.90,4138.0450163,N,07032.3934760,W,1,25,0.6,13.183,M,-29.745,M,0.0,*5A
###2023-12-09 13:38:27.005883$GNRMC,183826.10,A,4138.0451730,N,07032.3934832,W,2.86,0.83,091223,,,A*51
###2023-12-09 13:38:27.009367$GNGGA,183826.10,4138.0451730,N,07032.3934832,W,1,25,0.6,13.186,M,-29.745,M,0.0,*5D
###2023-12-09 13:38:27.011639$GPGSA,A,3,03,04,16,26,27,28,29,31,,,,,1.0,0.6,0.8*3F
###2023-12-09 13:38:27.013715$GLGSA,A,3,65,71,72,73,74,75,,,,,,,1.0,0.6,0.8*24
###2023-12-09 13:38:27.015632$GAGSA,A,3,04,19,21,27,,,,,,,,,1.0,0.6,0.8*26
###2023-12-09 13:38:27.017706$GBGSA,A,3,12,14,24,25,33,35,,,,,,,1.0,0.6,0.8*2E
###2023-12-09 13:38:27.020564$GPGSV,2,1,08,03,25,245,42,04,48,307,45,16,68,224,46,26,82,040,47*78
###2023-12-09 13:38:27.023397$GPGSV,2,2,08,27,18,172,43,28,37,086,42,29,20,046,39,31,58,068,45*79
###2023-12-09 13:38:27.026212$GLGSV,2,1,06,65,39,317,43,71,21,175,43,72,61,219,47,73,21,053,38*6B
###2023-12-09 13:38:27.028341$GLGSV,2,2,06,74,59,016,41,75,44,273,48,,,,,,,,*66
###2023-12-09 13:38:27.031168$GAGSV,1,1,04,04,41,309,44,19,70,181,41,21,75,045,45,27,21,050,38*6C
###2023-12-09 13:38:27.033985$GBGSV,2,1,06,12,17,125,38,14,27,189,40,24,62,047,47,25,52,277,46*60
###2023-12-09 13:38:27.036110$GBGSV,2,2,06,33,44,216,46,35,16,055,40,,,,,,,,*6F
###2023-12-09 13:38:27.037630$GNVTG,0.83,T,,M,2.86,N,5.29,K,A*2A
###2023-12-09 13:38:27.039593$GNGST,183826.10,6.000,,,,0.110,0.092,0.210*6E
###2023-12-09 13:38:27.041153$GNZDA,183826.10,09,12,2023,00,00*76
###2023-12-09 13:38:27.041921$GNEBP,,,,,,M*13
###2023-12-09 13:38:27.204082$GNGGA,183826.30,4138.0453366,N,07032.3934612,W,1,25,0.6,13.201,M,-29.745,M,0.0,*5A
###2023-12-09 13:38:27.399071$GNGGA,183826.50,4138.0455018,N,07032.3934438,W,1,25,0.6,13.205,M,-29.745,M,0.0,*5E
###2023-12-09 13:38:27.599933$GNGGA,183826.70,4138.0456662,N,07032.3934685,W,1,25,0.6,13.195,M,-29.745,M,0.0,*5A
###2023-12-09 13:38:27.802099$GNGGA,183826.90,4138.0458331,N,07032.3935053,W,1,25,0.6,13.187,M,-29.745,M,0.0,*56
###2023-12-09 13:38:28.005223$GNRMC,183827.10,A,4138.0460057,N,07032.3935095,W,3.19,2.77,091223,,,A*5E
###2023-12-09 13:38:28.008673$GNGGA,183827.10,4138.0460057,N,07032.3935095,W,1,25,0.6,13.179,M,-29.745,M,0.0,*5C
###2023-12-09 13:38:28.011208$GPGSA,A,3,03,04,16,26,27,28,29,31,,,,,1.0,0.6,0.8*3F
###2023-12-09 13:38:28.013323$GLGSA,A,3,65,71,72,73,74,75,,,,,,,1.0,0.6,0.8*24
###2023-12-09 13:38:28.015249$GAGSA,A,3,04,19,21,27,,,,,,,,,1.0,0.6,0.8*26
###2023-12-09 13:38:28.017310$GBGSA,A,3,12,14,24,25,33,35,,,,,,,1.0,0.6,0.8*2E
###2023-12-09 13:38:28.020131$GPGSV,2,1,08,03,25,245,43,04,48,307,44,16,68,224,46,26,82,040,47*78
###2023-12-09 13:38:28.022937$GPGSV,2,2,08,27,18,172,42,28,37,086,43,29,20,046,38,31,58,068,45*78
###2023-12-09 13:38:28.025748$GLGSV,2,1,06,65,39,317,43,71,21,175,44,72,61,219,47,73,21,053,40*63
###2023-12-09 13:38:28.027858$GLGSV,2,2,06,74,59,016,41,75,44,273,48,,,,,,,,*66
###2023-12-09 13:38:28.030700$GAGSV,1,1,04,04,41,309,44,19,70,181,41,21,75,045,45,27,21,050,38*6C
###2023-12-09 13:38:28.033507$GBGSV,2,1,06,12,17,125,40,14,27,189,43,24,62,047,48,25,52,277,48*6D
###2023-12-09 13:38:28.035621$GBGSV,2,2,06,33,44,216,46,35,16,055,41,,,,,,,,*6E
