###2023-12-09 12:46:52.963278$GLGSV,2,1,06,65,17,329,40,71,50,171,47,72,70,297,46,73,43,037,47*66
###2023-12-09 12:46:52.965050$GLGSV,2,2,06,74,71,310,42,75,26,245,40,,,,,,,,*63
###2023-12-09 12:46:52.967407$GAGSV,1,1,04,04,24,312,38,19,84,276,40,21,82,165,45,27,38,049,42*69
###2023-12-09 12:46:52.969744$GBGSV,2,1,05,14,50,195,44,24,78,008,48,25,36,257,44,26,31,060,43*68
###2023-12-09 12:46:52.971216$GBGSV,2,2,05,33,61,243,47,,,,,,,,,,,,*5F
###2023-12-09 12:46:52.972543$GNVTG,277.85,T,,M,0.10,N,0.18,K,A*24
###2023-12-09 12:46:52.974190$GNGST,174652.10,19.000,,,,0.078,0.069,0.160*5A
###2023-12-09 12:46:52.975502$GNZDA,174652.10,09,12,2023,00,00*73
###2023-12-09 12:46:52.976143$GNEBP,,,,,,M*13
###2023-12-09 12:46:53.158254$GNGGA,174652.30,4138.0478005,N,07032.3940706,W,1,24,0.6,13.426,M,-29.745,M,0.0,*55
###2023-12-09 12:46:53.347319$GNGGA,174652.50,4138.0478110,N,07032.3941497,W,1,24,0.6,13.443,M,-29.745,M,0.0,*5F
###2023-12-09 12:46:53.547470$GNGGA,174652.70,4138.0478127,N,07032.3941784,W,1,24,0.6,13.448,M,-29.745,M,0.0,*53
###2023-12-09 12:46:53.747207$GNGGA,174652.90,4138.0478029,N,07032.3941466,W,1,24,0.6,13.444,M,-29.745,M,0.0,*51
###2023-12-09 12:46:53.950029$GNRMC,174653.10,A,4138.0478005,N,07032.3941400,W,0.41,276.80,091223,,,A*59
###2023-12-09 12:46:53.952936$GNGGA,174653.10,4138.0478005,N,07032.3941400,W,1,24,0.6,13.417,M,-29.745,M,0.0,*50
###2023-12-09 12:46:53.954817$GPGSA,A,3,03,04,16,26,28,29,31,32,,,,,1.1,0.6,0.9*3B
###2023-12-09 12:46:53.956538$GLGSA,A,3,65,71,72,73,74,75,,,,,,,1.1,0.6,0.9*24
###2023-12-09 12:46:53.958122$GAGSA,A,3,04,19,21,27,,,,,,,,,1.1,0.6,0.9*26
###2023-12-09 12:46:53.959796$GBGSA,A,3,14,24,25,26,33,,,,,,,,1.1,0.6,0.9*2F
###2023-12-09 12:46:53.962123$GPGSV,2,1,08,03,37,270,43,04,26,311,39,16,42,209,43,26,72,208,47*7B
###2023-12-09 12:46:53.964469$GPGSV,2,2,08,28,54,062,46,29,26,068,44,31,72,018,48,32,25,137,45*7D
###2023-12-09 12:46:53.966816$GLGSV,2,1,06,65,17,329,40,71,50,171,47,72,70,297,46,73,43,037,47*66
###2023-12-09 12:46:53.968573$GLGSV,2,2,06,74,71,310,43,75,26,245,40,,,,,,,,*62
###2023-12-09 12:46:53.970908$GAGSV,1,1,04,04,24,312,37,19,84,276,40,21,82,165,46,27,38,049,44*63
###2023-12-09 12:46:53.973240$GBGSV,2,1,05,14,50,195,44,24,78,008,49,25,36,257,43,26,31,060,44*69
###2023-12-09 12:46:53.974708$GBGSV,2,2,05,33,61,243,47,,,,,,,,,,,,*5F
###2023-12-09 12:46:53.976032$GNVTG,276.80,T,,M,0.41,N,0.76,K,A*2C
###2023-12-09 12:46:53.977676$GNGST,174653.10,18.000,,,,0.079,0.069,0.160*5B
###2023-12-09 12:46:53.978977$GNZDA,174653.10,09,12,2023,00,00*72
###2023-12-09 12:46:53.979616$GNEBP,,,,,,M*13
###2023-12-09 12:46:54.146203$GNGGA,174653.30,4138.0478082,N,07032.3941978,W,1,24,0.6,13.425,M,-29.745,M,0.0,*5E
###2023-12-09 12:46:54.348457$GNGGA,174653.50,4138.0478158,N,07032.3942626,W,1,24,0.6,13.427,M,-29.745,M,0.0,*5B
###2023-12-09 12:46:54.548687$GNGGA,174653.70,4138.0478127,N,07032.3942710,W,1,24,0.6,13.434,M,-29.745,M,0.0,*57
###2023-12-09 12:46:54.747272$GNGGA,174653.90,4138.0478045,N,07032.3942468,W,1,24,0.6,13.430,M,-29.745,M,0.0,*54
###2023-12-09 12:46:54.946621$GNRMC,174654.10,A,4138.0478026,N,07032.3942564,W,0.52,280.63,091223,,,A*59
###2023-12-09 12:46:54.949518$GNGGA,174654.10,4138.0478026,N,07032.3942564,W,1,24,0.6,13.410,M,-29.745,M,0.0,*51
###2023-12-09 12:46:54.951404$GPGSA,A,3,03,04,16,26,28,29,31,32,,,,,1.1,0.6,0.9*3B
###2023-12-09 12:46:54.953129$GLGSA,A,3,65,71,72,73,74,75,,,,,,,1.1,0.6,0.9*24
###2023-12-09 12:46:54.954729$GAGSA,A,3,04,19,21,27,,,,,,,,,1.1,0.6,0.9*26
###2023-12-09 12:46:54.956380$GBGSA,A,3,14,24,25,26,33,,,,,,,,1.1,0.6,0.9*2F
###2023-12-09 12:46:54.958732$GPGSV,2,1,08,03,37,270,42,04,26,311,39,16,42,209,44,26,72,208,47*7D
###2023-12-09 12:46:54.961075$GPGSV,2,2,08,28,54,062,46,29,26,068,44,31,72,018,47,32,25,137,45*72
###2023-12-09 12:46:54.963439$GLGSV,2,1,06,65,17,329,40,71,50,171,46,72,70,297,46,73,43,037,46*66
###2023-12-09 12:46:54.965201$GLGSV,2,2,06,74,71,310,43,75,26,245,40,,,,,,,,*62
###2023-12-09 12:46:54.967549$GAGSV,1,1,04,04,24,312,38,19,84,276,41,21,82,165,46,27,38,049,44*6D
###2023-12-09 12:46:54.969882$GBGSV,2,1,05,14,50,195,44,24,78,008,48,25,36,257,44,26,31,060,43*68
###2023-12-09 12:46:54.971358$GBGSV,2,2,05,33,61,243,47,,,,,,,,,,,,*5F
###2023-12-09 12:46:54.972685$GNVTG,280.63,T,,M,0.52,N,0.97,K,A*25
###2023-12-09 12:46:54.974338$GNGST,174654.10,19.000,,,,0.079,0.069,0.160*5D
###2023-12-09 12:46:54.975645$GNZDA,174654.10,09,12,2023,00,00*75
###2023-12-09 12:46:54.976287$GNEBP,,,,,,M*13
###2023-12-09 12:46:55.145796$GNGGA,174654.30,4138.0478088,N,07032.3943099,W,1,24,0.6,13.424,M,-29.745,M,0.0,*56
###2023-12-09 12:46:55.346163$GNGGA,174654.50,4138.0478155,N,07032.3943652,W,1,24,0.6,13.431,M,-29.745,M,0.0,*54
###2023-12-09 12:46:55.546228$GNGGA,174654.70,4138.0478146,N,07032.3943790,W,1,24,0.6,13.435,M,-29.745,M,0.0,*5F
###2023-12-09 12:46:55.745171$GNGGA,174654.90,4138.0478085,N,07032.3943638,W,1,24,0.6,13.415,M,-29.745,M,0.0,*5E
###2023-12-09 12:46:55.948690$GNRMC,174655.10,A,4138.0478058,N,07032.3943677,W,0.41,280.63,091223,,,A*53
###2023-12-09 12:46:55.951575$GNGGA,174655.10,4138.0478058,N,07032.3943677,W,1,24,0.6,13.395,M,-29.745,M,0.0,*53
###2023-12-09 12:46:55.953440$GPGSA,A,3,03,04,16,26,28,29,31,32,,,,,1.1,0.6,0.9*3B
###2023-12-09 12:46:55.955177$GLGSA,A,3,65,71,72,73,74,75,,,,,,,1.1,0.6,0.9*24
###2023-12-09 12:46:55.956766$GAGSA,A,3,04,19,21,27,,,,,,,,,1.1,0.6,0.9*26
###2023-12-09 12:46:55.958409$GBGSA,A,3,14,24,25,26,33,,,,,,,,1.1,0.6,0.9*2F
###2023-12-09 12:46:55.960748$GPGSV,2,1,08,03,37,270,43,04,26,311,40,16,42,209,43,26,72,208,48*7A
###2023-12-09 12:46:55.963098$GPGSV,2,2,08,28,54,062,46,29,26,068,45,31,72,018,48,32,25,137,46*7F
###2023-12-09 12:46:55.965439$GLGSV,2,1,06,65,17,329,41,71,50,171,46,72,70,297,46,73,43,037,46*67
###2023-12-09 12:46:55.967193$GLGSV,2,2,06,74,71,310,43,75,26,245,40,,,,,,,,*62
###2023-12-09 12:46:55.969521$GAGSV,1,1,04,04,24,312,39,19,84,276,41,21,82,165,46,27,38,049,44*6C
###2023-12-09 12:46:55.971866$GBGSV,2,1,05,14,50,195,44,24,78,008,48,25,36,257,44,26,31,060,44*6F
###2023-12-09 12:46:55.973321$GBGSV,2,2,05,33,61,243,47,,,,,,,,,,,,*5F
###2023-12-09 12:46:55.974651$GNVTG,280.63,T,,M,0.41,N,0.76,K,A*28
###2023-12-09 12:46:55.976295$GNGST,174655.10,18.000,,,,0.079,0.069,0.160*5D
###2023-12-09 12:46:55.977583$GNZDA,174655.10,09,12,2023,00,00*74
###2023-12-09 12:46:55.978218$GNEBP,,,,,,M*13
###2023-12-09 12:46:56.145398$GNGGA,174655.30,4138.0478130,N,07032.3944226,W,1,24,0.6,13.420,M,-29.745,M,0.0,*50
###2023-12-09 12:46:56.346327$GNGGA,174655.50,4138.0478224,N,07032.3944894,W,1,24,0.6,13.430,M,-29.745,M,0.0,*52
###2023-12-09 12:46:56.546255$GNGGA,174655.70,4138.0478205,N,07032.3945020,W,1,24,0.6,13.436,M,-29.745,M,0.0,*53
###2023-12-09 12:46:56.749853$GNGGA,174655.90,4138.0478129,N,07032.3944736,W,1,24,0.6,13.405,M,-29.745,M,0.0,*51
###2023-12-09 12:46:56.953400$GNRMC,174656.10,A,4138.0478091,N,07032.3944809,W,0.56,279.13,091223,,,A*52
###2023-12-09 12:46:56.956315$GNGGA,174656.10,4138.0478091,N,07032.3944809,W,1,24,0.6,13.380,M,-29.745,M,0.0,*51
###2023-12-09 12:46:56.958189$GPGSA,A,3,03,04,16,26,28,29,31,32,,,,,1.1,0.6,0.9*3B
###2023-12-09 12:46:56.959931$GLGSA,A,3,65,71,72,73,74,75,,,,,,,1.1,0.6,0.9*24
###2023-12-09 12:46:56.961521$GAGSA,A,3,04,19,21,27,,,,,,,,,1.1,0.6,0.9*26
###2023-12-09 12:46:56.963191$GBGSA,A,3,14,24,25,26,33,,,,,,,,1.1,0.6,0.9*2F
###2023-12-09 12:46:56.965538$GPGSV,2,1,08,03,37,270,41,04,26,311,39,16,42,209,43,26,72,208,47*79
###2023-12-09 12:46:56.967911$GPGSV,2,2,08,28,54,062,46,29,26,068,45,31,72,018,47,32,25,137,46*70
###2023-12-09 12:46:56.970268$GLGSV,2,1,06,65,17,329,40,71,50,171,47,72,70,297,46,73,43,037,46*67
###2023-12-09 12:46:56.972046$GLGSV,2,2,06,74,71,310,42,75,26,245,38,,,,,,,,*6C
###2023-12-09 12:46:56.974395$GAGSV,1,1,04,04,24,312,39,19,84,276,41,21,82,165,46,27,38,049,43*6B
###2023-12-09 12:46:56.976761$GBGSV,2,1,05,14,50,195,44,24,78,008,48,25,36,257,44,26,31,060,44*6F
###2023-12-09 12:46:56.978227$GBGSV,2,2,05,33,61,243,46,,,,,,,,,,,,*5E
###2023-12-09 12:46:56.979567$GNVTG,279.13,T,,M,0.56,N,1.04,K,A*2B
###2023-12-09 12:46:56.981228$GNGST,174656.10,18.000,,,,0.079,0.069,0.160*5E
###2023-12-09 12:46:56.982797$GNZDA,174656.10,09,12,2023,00,00*77
###2023-12-09 12:46:56.983454$GNEBP,,,,,,M*13
###2023-12-09 12:46:57.146775$GNGGA,174656.30,4138.0478190,N,07032.3945507,W,1,24,0.6,13.418,M,-29.745,M,0.0,*57
###2023-12-09 12:46:57.346170$GNGGA,174656.50,4138.0478289,N,07032.3946218,W,1,24,0.6,13.431,M,-29.745,M,0.0,*5B
###2023-12-09 12:46:57.546103$GNGGA,174656.70,4138.0478257,N,07032.3946213,W,1,24,0.6,13.440,M,-29.745,M,0.0,*57
###2023-12-09 12:46:57.745906$GNGGA,174656.90,4138.0478149,N,07032.3945790,W,1,24,0.6,13.402,M,-29.745,M,0.0,*5E
###2023-12-09 12:46:57.948238$GNRMC,174657.10,A,4138.0478153,N,07032.3946022,W,0.87,279.49,091223,,,A*5C
###2023-12-09 12:46:57.951137$GNGGA,174657.10,4138.0478153,N,07032.3946022,W,1,24,0.6,13.389,M,-29.745,M,0.0,*55
###2023-12-09 12:46:57.953008$GPGSA,A,3,03,04,16,26,28,29,31,32,,,,,1.1,0.6,0.9*3B
