###2023-12-09 13:19:34.997495$GPGSV,2,1,07,03,31,253,42,04,40,310,42,16,59,217,46,26,89,196,48*70
###2023-12-09 13:19:34.999568$GPGSV,2,2,07,28,43,079,44,29,23,053,41,31,64,055,47,,,,*47
###2023-12-09 13:19:35.001900$GLGSV,2,1,06,65,32,324,40,71,31,174,45,72,69,237,46,73,28,047,43*60
###2023-12-09 13:19:35.003571$GLGSV,2,2,06,74,65,,42,75,38,262,45,,,,,,,,*5B
###2023-12-09 13:19:35.005895$GAGSV,1,1,04,04,35,311,41,19,78,188,41,21,82,058,46,27,27,049,41*65
###2023-12-09 13:19:35.008232$GBGSV,2,1,06,14,35,191,45,24,68,038,49,25,46,269,45,26,20,067,42*63
###2023-12-09 13:19:35.009976$GBGSV,2,2,06,33,51,223,46,35,16,062,43,,,,,,,,*6A
###2023-12-09 13:19:35.011314$GNVTG,293.64,T,,M,3.11,N,5.76,K,A*2E
###2023-12-09 13:19:35.012963$GNGST,181934.10,18.000,,,,0.099,0.071,0.170*59
###2023-12-09 13:19:35.014251$GNZDA,181934.10,09,12,2023,00,00*76
###2023-12-09 13:19:35.014911$GNEBP,,,,,,M*13
###2023-12-09 13:19:35.180644$GNGGA,181934.30,4138.0898500,N,07032.3132067,W,1,24,0.7,13.223,M,-29.742,M,0.0,*5A
###2023-12-09 13:19:35.381591$GNGGA,181934.50,4138.0899222,N,07032.3134231,W,1,24,0.7,13.227,M,-29.742,M,0.0,*59
###2023-12-09 13:19:35.582503$GNGGA,181934.70,4138.0899861,N,07032.3136434,W,1,24,0.7,13.234,M,-29.742,M,0.0,*55
###2023-12-09 13:19:35.782488$GNGGA,181934.90,4138.0900334,N,07032.3138692,W,1,24,0.7,13.229,M,-29.742,M,0.0,*5D
###2023-12-09 13:19:35.985128$GNRMC,181935.10,A,4138.0900755,N,07032.3140948,W,3.09,284.82,091223,,,A*54
###2023-12-09 13:19:35.988039$GNGGA,181935.10,4138.0900755,N,07032.3140948,W,1,24,0.7,13.222,M,-29.742,M,0.0,*5B
###2023-12-09 13:19:35.989837$GPGSA,A,3,03,04,16,26,28,29,31,,,,,,1.1,0.7,0.9*3B
###2023-12-09 13:19:35.991576$GLGSA,A,3,65,71,72,73,74,75,,,,,,,1.1,0.7,0.9*25
###2023-12-09 13:19:35.993164$GAGSA,A,3,04,19,21,27,,,,,,,,,1.1,0.7,0.9*27
###2023-12-09 13:19:35.994929$GBGSA,A,3,14,24,25,26,33,35,,,,,,,1.1,0.7,0.9*28
###2023-12-09 13:19:35.997240$GPGSV,2,1,07,03,31,253,41,04,40,310,44,16,59,217,46,26,89,196,49*74
###2023-12-09 13:19:35.999287$GPGSV,2,2,07,28,43,079,45,29,23,053,41,31,64,055,47,,,,*46
###2023-12-09 13:19:36.001609$GLGSV,2,1,06,65,32,324,40,71,31,174,46,72,69,237,46,73,28,047,41*61
###2023-12-09 13:19:36.003260$GLGSV,2,2,06,74,65,,42,75,38,262,43,,,,,,,,*5D
###2023-12-09 13:19:36.005571$GAGSV,1,1,04,04,35,311,41,19,78,188,41,21,82,058,46,27,27,049,40*64
###2023-12-09 13:19:36.007906$GBGSV,2,1,06,14,35,191,43,24,68,038,49,25,46,269,44,26,20,067,42*64
###2023-12-09 13:19:36.009643$GBGSV,2,2,06,33,51,223,48,35,16,062,41,,,,,,,,*66
###2023-12-09 13:19:36.010973$GNVTG,284.82,T,,M,3.09,N,5.72,K,A*2D
###2023-12-09 13:19:36.012614$GNGST,181935.10,18.000,,,,0.098,0.071,0.170*59
###2023-12-09 13:19:36.013903$GNZDA,181935.10,09,12,2023,00,00*77
###2023-12-09 13:19:36.014542$GNEBP,,,,,,M*13
###2023-12-09 13:19:36.181604$GNGGA,181935.30,4138.0901280,N,07032.3143214,W,1,24,0.7,13.233,M,-29.742,M,0.0,*54
###2023-12-09 13:19:36.381629$GNGGA,181935.50,4138.0901747,N,07032.3145498,W,1,24,0.7,13.236,M,-29.742,M,0.0,*5D
###2023-12-09 13:19:36.582458$GNGGA,181935.70,4138.0901995,N,07032.3147819,W,1,24,0.7,13.239,M,-29.742,M,0.0,*56
###2023-12-09 13:19:36.782299$GNGGA,181935.90,4138.0902206,N,07032.3150182,W,1,24,0.7,13.244,M,-29.742,M,0.0,*5D
###2023-12-09 13:19:36.985208$GNRMC,181936.10,A,4138.0902363,N,07032.3152581,W,3.21,273.56,091223,,,A*55
###2023-12-09 13:19:36.988138$GNGGA,181936.10,4138.0902363,N,07032.3152581,W,1,24,0.7,13.236,M,-29.742,M,0.0,*54
###2023-12-09 13:19:36.989944$GPGSA,A,3,03,04,16,26,28,29,31,,,,,,1.1,0.7,0.9*3B
###2023-12-09 13:19:36.991672$GLGSA,A,3,65,71,72,73,74,75,,,,,,,1.1,0.7,0.9*25
###2023-12-09 13:19:36.993261$GAGSA,A,3,04,19,21,27,,,,,,,,,1.1,0.7,0.9*27
###2023-12-09 13:19:36.994998$GBGSA,A,3,14,24,25,26,33,35,,,,,,,1.1,0.7,0.9*28
###2023-12-09 13:19:36.997325$GPGSV,2,1,07,03,31,253,41,04,40,310,43,16,59,217,46,26,89,196,48*72
###2023-12-09 13:19:36.999375$GPGSV,2,2,07,28,43,079,45,29,23,053,41,31,64,055,46,,,,*47
###2023-12-09 13:19:37.001704$GLGSV,2,1,06,65,32,324,42,71,31,174,46,72,69,237,46,73,28,047,43*61
###2023-12-09 13:19:37.003365$GLGSV,2,2,06,74,65,,43,75,38,262,41,,,,,,,,*5E
###2023-12-09 13:19:37.005684$GAGSV,1,1,04,04,35,311,41,19,78,188,40,21,82,058,45,27,27,049,40*66
###2023-12-09 13:19:37.008023$GBGSV,2,1,06,14,35,191,43,24,68,038,48,25,46,269,43,26,20,067,42*62
###2023-12-09 13:19:37.009767$GBGSV,2,2,06,33,51,223,46,35,16,062,43,,,,,,,,*6A
###2023-12-09 13:19:37.011142$GNVTG,273.56,T,,M,3.21,N,5.94,K,A*2E
###2023-12-09 13:19:37.012799$GNGST,181936.10,18.000,,,,0.098,0.072,0.170*59
###2023-12-09 13:19:37.014092$GNZDA,181936.10,09,12,2023,00,00*74
###2023-12-09 13:19:37.014744$GNEBP,,,,,,M*13
###2023-12-09 13:19:37.181758$GNGGA,181936.30,4138.0902495,N,07032.3154986,W,1,24,0.7,13.242,M,-29.742,M,0.0,*56
###2023-12-09 13:19:37.382495$GNGGA,181936.50,4138.0902717,N,07032.3157388,W,1,24,0.7,13.254,M,-29.742,M,0.0,*59
###2023-12-09 13:19:37.582420$GNGGA,181936.70,4138.0902733,N,07032.3159707,W,1,24,0.7,13.251,M,-29.742,M,0.0,*55
###2023-12-09 13:19:37.782357$GNGGA,181936.90,4138.0902516,N,07032.3161894,W,1,24,0.7,13.225,M,-29.742,M,0.0,*53
###2023-12-09 13:19:37.985028$GNRMC,181937.10,A,4138.0902432,N,07032.3164123,W,3.09,271.00,091223,,,A*55
###2023-12-09 13:19:37.987905$GNGGA,181937.10,4138.0902432,N,07032.3164123,W,1,24,0.7,13.216,M,-29.742,M,0.0,*5D
###2023-12-09 13:19:37.989702$GPGSA,A,3,03,04,16,26,28,29,31,,,,,,1.1,0.7,0.9*3B
###2023-12-09 13:19:37.991425$GLGSA,A,3,65,71,72,73,74,75,,,,,,,1.1,0.7,0.9*25
###2023-12-09 13:19:37.992998$GAGSA,A,3,04,19,21,27,,,,,,,,,1.1,0.7,0.9*27
###2023-12-09 13:19:37.994712$GBGSA,A,3,14,24,25,26,33,35,,,,,,,1.1,0.7,0.9*28
###2023-12-09 13:19:37.997035$GPGSV,2,1,07,03,31,253,43,04,40,310,43,16,59,217,46,26,89,196,48*70
###2023-12-09 13:19:37.999087$GPGSV,2,2,07,28,43,079,45,29,23,053,41,31,64,055,46,,,,*47
###2023-12-09 13:19:38.001416$GLGSV,2,1,06,65,32,324,39,71,31,174,46,72,69,237,45,73,28,047,41*6C
###2023-12-09 13:19:38.003079$GLGSV,2,2,06,74,65,,42,75,38,262,43,,,,,,,,*5D
###2023-12-09 13:19:38.005402$GAGSV,1,1,04,04,35,311,41,19,78,188,41,21,82,058,46,27,27,049,39*6A
###2023-12-09 13:19:38.007745$GBGSV,2,1,06,14,35,191,43,24,68,038,47,25,46,269,43,26,20,067,44*6B
###2023-12-09 13:19:38.009489$GBGSV,2,2,06,33,51,223,47,35,16,062,44,,,,,,,,*6C
###2023-12-09 13:19:38.010857$GNVTG,271.00,T,,M,3.09,N,5.72,K,A*2D
###2023-12-09 13:19:38.012501$GNGST,181937.10,18.000,,,,0.098,0.072,0.170*58
###2023-12-09 13:19:38.013789$GNZDA,181937.10,09,12,2023,00,00*75
###2023-12-09 13:19:38.014426$GNEBP,,,,,,M*13
###2023-12-09 13:19:38.185178$GNGGA,181937.30,4138.0902529,N,07032.3166469,W,1,24,0.7,13.236,M,-29.742,M,0.0,*5F
###2023-12-09 13:19:38.382044$GNGGA,181937.50,4138.0902499,N,07032.3168851,W,1,24,0.7,13.248,M,-29.742,M,0.0,*53
###2023-12-09 13:19:38.582322$GNGGA,181937.70,4138.0902142,N,07032.3171155,W,1,24,0.7,13.254,M,-29.742,M,0.0,*5A
###2023-12-09 13:19:38.781284$GNGGA,181937.90,4138.0901619,N,07032.3173366,W,1,24,0.7,13.255,M,-29.742,M,0.0,*5F
###2023-12-09 13:19:38.986181$GNRMC,181938.10,A,4138.0901216,N,07032.3175712,W,3.38,260.19,091223,,,A*57
###2023-12-09 13:19:38.989071$GNGGA,181938.10,4138.0901216,N,07032.3175712,W,1,24,0.7,13.265,M,-29.742,M,0.0,*51
###2023-12-09 13:19:38.990876$GPGSA,A,3,03,04,16,26,28,29,31,,,,,,1.1,0.7,0.9*3B
###2023-12-09 13:19:38.992588$GLGSA,A,3,65,71,72,73,74,75,,,,,,,1.1,0.7,0.9*25
###2023-12-09 13:19:38.994164$GAGSA,A,3,04,19,21,27,,,,,,,,,1.1,0.7,0.9*27
###2023-12-09 13:19:38.995887$GBGSA,A,3,14,24,25,26,33,35,,,,,,,1.1,0.7,0.9*28
###2023-12-09 13:19:38.998209$GPGSV,2,1,07,03,31,253,41,04,40,310,43,16,59,217,45,26,89,196,48*71
###2023-12-09 13:19:39.000267$GPGSV,2,2,07,28,43,079,44,29,23,053,42,31,64,055,46,,,,*45
###2023-12-09 13:19:39.002657$GLGSV,2,1,06,65,32,324,42,71,31,174,45,72,69,237,45,73,28,047,42*60
###2023-12-09 13:19:39.004307$GLGSV,2,2,06,74,65,,42,75,38,262,43,,,,,,,,*5D
###2023-12-09 13:19:39.006646$GAGSV,1,1,04,04,35,311,42,19,78,188,40,21,82,058,46,27,27,049,41*67
###2023-12-09 13:19:39.008967$GBGSV,2,1,06,14,35,191,44,24,68,038,48,25,46,269,45,26,20,067,42*63
###2023-12-09 13:19:39.010751$GBGSV,2,2,06,33,51,223,46,35,16,062,45,,,,,,,,*6C
###2023-12-09 13:19:39.012328$GNVTG,260.19,T,,M,3.38,N,6.26,K,A*25
###2023-12-09 13:19:39.013992$GNGST,181938.10,18.000,,,,0.098,0.072,0.170*57
###2023-12-09 13:19:39.015308$GNZDA,181938.10,09,12,2023,00,00*7A
###2023-12-09 13:19:39.015952$GNEBP,,,,,,M*13
###2023-12-09 13:19:39.185470$GNGGA,181938.30,4138.0900878,N,07032.3178130,W,1,24,0.7,13.267,M,-29.742,M,0.0,*59
###2023-12-09 13:19:39.382435$GNGGA,181938.50,4138.0900209,N,07032.3180183,W,1,24,0.7,13.244,M,-29.742,M,0.0,*5D
###2023-12-09 13:19:39.584079$GNGGA,181938.70,4138.0899199,N,07032.3181884,W,1,24,0.7,13.202,M,-29.742,M,0.0,*59
###2023-12-09 13:19:39.785512$GNGGA,181938.90,4138.0898340,N,07032.3183692,W,1,24,0.7,13.207,M,-29.742,M,0.0,*5E
###2023-12-09 13:19:39.985829$GNRMC,181939.10,A,4138.0897879,N,07032.3186053,W,3.54,258.20,091223,,,A*5E
