###2023-12-09 13:26:24.189859$GNGGA,182623.30,4138.0761458,N,07032.3426489,W,1,24,0.6,13.066,M,-29.743,M,0.0,*52
###2023-12-09 13:26:24.388152$GNGGA,182623.50,4138.0763486,N,07032.3427003,W,1,24,0.6,13.066,M,-29.743,M,0.0,*52
###2023-12-09 13:26:24.588305$GNGGA,182623.70,4138.0765460,N,07032.3427581,W,1,24,0.6,13.065,M,-29.743,M,0.0,*52
###2023-12-09 13:26:24.789066$GNGGA,182623.90,4138.0767414,N,07032.3428111,W,1,24,0.6,13.058,M,-29.743,M,0.0,*51
###2023-12-09 13:26:24.993321$GNRMC,182624.10,A,4138.0769304,N,07032.3428721,W,3.46,345.08,091223,,,A*56
###2023-12-09 13:26:24.996181$GNGGA,182624.10,4138.0769304,N,07032.3428721,W,1,24,0.6,13.060,M,-29.743,M,0.0,*58
###2023-12-09 13:26:24.997966$GPGSA,A,3,03,04,16,26,28,29,31,,,,,,1.1,0.6,0.9*3A
###2023-12-09 13:26:24.999686$GLGSA,A,3,65,71,72,73,74,75,,,,,,,1.1,0.6,0.9*24
###2023-12-09 13:26:25.001273$GAGSA,A,3,04,19,21,27,,,,,,,,,1.1,0.6,0.9*26
###2023-12-09 13:26:25.002996$GBGSA,A,3,14,24,25,26,33,35,,,,,,,1.1,0.6,0.9*29
###2023-12-09 13:26:25.005323$GPGSV,2,1,07,03,29,250,44,04,43,309,43,16,62,219,46,26,88,044,48*7F
###2023-12-09 13:26:25.007372$GPGSV,2,2,07,28,41,081,46,29,22,050,41,31,62,060,46,,,,*43
###2023-12-09 13:26:25.009696$GLGSV,2,1,06,65,34,322,39,71,27,175,46,72,67,229,47,73,26,049,42*6A
###2023-12-09 13:26:25.011451$GLGSV,2,2,06,74,63,006,41,75,40,266,45,,,,,,,,*63
###2023-12-09 13:26:25.013766$GAGSV,1,1,04,04,37,311,41,19,75,184,41,21,80,050,46,27,25,049,39*61
###2023-12-09 13:26:25.016140$GBGSV,2,1,06,14,32,190,41,24,66,041,47,25,48,272,47,26,19,068,42*6C
###2023-12-09 13:26:25.017878$GBGSV,2,2,06,33,49,220,48,35,16,060,41,,,,,,,,*6E
###2023-12-09 13:26:25.019206$GNVTG,345.08,T,,M,3.46,N,6.41,K,A*2B
###2023-12-09 13:26:25.020846$GNGST,182624.10,18.000,,,,0.100,0.070,0.170*54
###2023-12-09 13:26:25.022133$GNZDA,182624.10,09,12,2023,00,00*7B
###2023-12-09 13:26:25.022780$GNEBP,,,,,,M*13
###2023-12-09 13:26:25.189430$GNGGA,182624.30,4138.0771143,N,07032.3429463,W,1,24,0.6,13.065,M,-29.743,M,0.0,*53
###2023-12-09 13:26:25.390090$GNGGA,182624.50,4138.0772914,N,07032.3430267,W,1,24,0.6,13.066,M,-29.743,M,0.0,*55
###2023-12-09 13:26:25.588676$GNGGA,182624.70,4138.0774582,N,07032.3431223,W,1,24,0.6,13.067,M,-29.743,M,0.0,*52
###2023-12-09 13:26:25.789988$GNGGA,182624.90,4138.0776199,N,07032.3432260,W,1,24,0.6,13.064,M,-29.743,M,0.0,*57
###2023-12-09 13:26:25.992872$GNRMC,182625.10,A,4138.0777699,N,07032.3433389,W,3.09,328.69,091223,,,A*52
###2023-12-09 13:26:25.995760$GNGGA,182625.10,4138.0777699,N,07032.3433389,W,1,24,0.6,13.067,M,-29.743,M,0.0,*5C
###2023-12-09 13:26:25.997554$GPGSA,A,3,03,04,16,26,28,29,31,,,,,,1.1,0.6,0.9*3A
###2023-12-09 13:26:25.999280$GLGSA,A,3,65,71,72,73,74,75,,,,,,,1.1,0.6,0.9*24
###2023-12-09 13:26:26.000865$GAGSA,A,3,04,19,21,27,,,,,,,,,1.1,0.6,0.9*26
###2023-12-09 13:26:26.002582$GBGSA,A,3,14,24,25,26,33,35,,,,,,,1.1,0.6,0.9*29
###2023-12-09 13:26:26.004906$GPGSV,2,1,07,03,29,250,42,04,43,309,41,16,62,219,46,26,88,044,47*74
###2023-12-09 13:26:26.006949$GPGSV,2,2,07,28,41,081,44,29,22,050,41,31,62,060,46,,,,*41
###2023-12-09 13:26:26.009307$GLGSV,2,1,06,65,34,322,41,71,27,175,44,72,67,229,46,73,26,049,44*60
###2023-12-09 13:26:26.011064$GLGSV,2,2,06,74,63,006,41,75,40,266,46,,,,,,,,*60
###2023-12-09 13:26:26.013382$GAGSV,1,1,04,04,37,311,41,19,75,184,40,21,80,050,45,27,25,049,40*6D
###2023-12-09 13:26:26.015712$GBGSV,2,1,06,14,32,190,42,24,66,041,49,25,48,272,47,26,19,068,42*61
###2023-12-09 13:26:26.017444$GBGSV,2,2,06,33,49,220,48,35,16,060,41,,,,,,,,*6E
###2023-12-09 13:26:26.018767$GNVTG,328.69,T,,M,3.09,N,5.72,K,A*2F
###2023-12-09 13:26:26.020405$GNGST,182625.10,18.000,,,,0.100,0.070,0.170*55
###2023-12-09 13:26:26.021689$GNZDA,182625.10,09,12,2023,00,00*7A
###2023-12-09 13:26:26.022325$GNEBP,,,,,,M*13
###2023-12-09 13:26:26.189009$GNGGA,182625.30,4138.0779148,N,07032.3434622,W,1,24,0.6,13.068,M,-29.743,M,0.0,*57
###2023-12-09 13:26:26.388018$GNGGA,182625.50,4138.0780561,N,07032.3435943,W,1,24,0.6,13.079,M,-29.743,M,0.0,*51
###2023-12-09 13:26:26.589648$GNGGA,182625.70,4138.0781925,N,07032.3437394,W,1,24,0.6,13.080,M,-29.743,M,0.0,*5A
###2023-12-09 13:26:26.789180$GNGGA,182625.90,4138.0783173,N,07032.3439031,W,1,24,0.6,13.081,M,-29.743,M,0.0,*5E
###2023-12-09 13:26:26.993109$GNRMC,182626.10,A,4138.0784362,N,07032.3440809,W,3.19,310.95,091223,,,A*52
###2023-12-09 13:26:26.995982$GNGGA,182626.10,4138.0784362,N,07032.3440809,W,1,24,0.6,13.077,M,-29.743,M,0.0,*54
###2023-12-09 13:26:26.997759$GPGSA,A,3,03,04,16,26,28,29,31,,,,,,1.1,0.6,0.9*3A
###2023-12-09 13:26:26.999478$GLGSA,A,3,65,71,72,73,74,75,,,,,,,1.1,0.6,0.9*24
###2023-12-09 13:26:27.001088$GAGSA,A,3,04,19,21,27,,,,,,,,,1.1,0.6,0.9*26
###2023-12-09 13:26:27.002804$GBGSA,A,3,14,24,25,26,33,35,,,,,,,1.1,0.6,0.9*29
###2023-12-09 13:26:27.005108$GPGSV,2,1,07,03,29,250,42,04,43,309,41,16,62,219,46,26,88,044,47*74
###2023-12-09 13:26:27.007146$GPGSV,2,2,07,28,41,081,44,29,22,050,41,31,62,060,47,,,,*40
###2023-12-09 13:26:27.009470$GLGSV,2,1,06,65,34,322,41,71,27,175,45,72,67,229,45,73,26,049,43*65
###2023-12-09 13:26:27.011224$GLGSV,2,2,06,74,63,006,42,75,40,266,47,,,,,,,,*62
###2023-12-09 13:26:27.013535$GAGSV,1,1,04,04,37,311,42,19,75,184,40,21,80,050,46,27,25,049,40*6D
###2023-12-09 13:26:27.015867$GBGSV,2,1,06,14,32,190,45,24,66,041,49,25,48,272,47,26,19,068,42*66
###2023-12-09 13:26:27.017605$GBGSV,2,2,06,33,49,220,48,35,16,060,43,,,,,,,,*6C
###2023-12-09 13:26:27.018934$GNVTG,310.95,T,,M,3.19,N,5.90,K,A*2A
###2023-12-09 13:26:27.020574$GNGST,182626.10,18.000,,,,0.099,0.070,0.170*57
###2023-12-09 13:26:27.021853$GNZDA,182626.10,09,12,2023,00,00*79
###2023-12-09 13:26:27.022488$GNEBP,,,,,,M*13
###2023-12-09 13:26:27.191790$GNGGA,182626.30,4138.0785574,N,07032.3442622,W,1,24,0.6,13.085,M,-29.743,M,0.0,*5E
###2023-12-09 13:26:27.387070$GNGGA,182626.50,4138.0786757,N,07032.3444509,W,1,24,0.6,13.094,M,-29.743,M,0.0,*54
###2023-12-09 13:26:27.588934$GNGGA,182626.70,4138.0787740,N,07032.3446552,W,1,24,0.6,13.092,M,-29.743,M,0.0,*5B
###2023-12-09 13:26:27.789051$GNGGA,182626.90,4138.0788562,N,07032.3448668,W,1,24,0.6,13.093,M,-29.743,M,0.0,*5D
###2023-12-09 13:26:27.993258$GNRMC,182627.10,A,4138.0789386,N,07032.3450774,W,3.27,298.12,091223,,,A*53
###2023-12-09 13:26:27.996146$GNGGA,182627.10,4138.0789386,N,07032.3450774,W,1,24,0.6,13.094,M,-29.743,M,0.0,*5B
###2023-12-09 13:26:27.997939$GPGSA,A,3,03,04,16,26,28,29,31,,,,,,1.1,0.6,0.9*3A
###2023-12-09 13:26:27.999669$GLGSA,A,3,65,71,72,73,74,75,,,,,,,1.1,0.6,0.9*24
###2023-12-09 13:26:28.001257$GAGSA,A,3,04,19,21,27,,,,,,,,,1.1,0.6,0.9*26
###2023-12-09 13:26:28.002985$GBGSA,A,3,14,24,25,26,33,35,,,,,,,1.1,0.6,0.9*29
###2023-12-09 13:26:28.005317$GPGSV,2,1,07,03,29,250,39,04,43,309,41,16,62,219,45,26,88,044,48*74
###2023-12-09 13:26:28.007370$GPGSV,2,2,07,28,41,081,44,29,22,050,40,31,62,060,46,,,,*40
###2023-12-09 13:26:28.009704$GLGSV,2,1,06,65,34,322,41,71,27,175,45,72,67,229,45,73,26,049,40*66
###2023-12-09 13:26:28.011460$GLGSV,2,2,06,74,63,006,42,75,40,266,44,,,,,,,,*61
###2023-12-09 13:26:28.013778$GAGSV,1,1,04,04,37,311,40,19,75,184,40,21,80,050,45,27,25,049,39*62
###2023-12-09 13:26:28.016116$GBGSV,2,1,06,14,32,190,44,24,66,041,49,25,48,272,45,26,19,068,41*66
###2023-12-09 13:26:28.017855$GBGSV,2,2,06,33,49,220,48,35,16,060,41,,,,,,,,*6E
###2023-12-09 13:26:28.019188$GNVTG,298.12,T,,M,3.27,N,6.05,K,A*26
###2023-12-09 13:26:28.020836$GNGST,182627.10,18.000,,,,0.099,0.071,0.170*57
###2023-12-09 13:26:28.022123$GNZDA,182627.10,09,12,2023,00,00*78
###2023-12-09 13:26:28.022771$GNEBP,,,,,,M*13
###2023-12-09 13:26:28.189698$GNGGA,182627.30,4138.0790193,N,07032.3452928,W,1,24,0.6,13.094,M,-29.743,M,0.0,*52
###2023-12-09 13:26:28.389836$GNGGA,182627.50,4138.0790823,N,07032.3455093,W,1,24,0.6,13.093,M,-29.743,M,0.0,*5F
###2023-12-09 13:26:28.594744$GNGGA,182627.70,4138.0791252,N,07032.3457259,W,1,24,0.6,13.090,M,-29.743,M,0.0,*55
###2023-12-09 13:26:28.789555$GNGGA,182627.90,4138.0791595,N,07032.3459373,W,1,24,0.6,13.098,M,-29.743,M,0.0,*58
###2023-12-09 13:26:28.993138$GNRMC,182628.10,A,4138.0791958,N,07032.3461477,W,2.90,281.71,091223,,,A*5E
###2023-12-09 13:26:28.996021$GNGGA,182628.10,4138.0791958,N,07032.3461477,W,1,24,0.6,13.100,M,-29.743,M,0.0,*5A
###2023-12-09 13:26:28.998068$GPGSA,A,3,03,04,16,26,28,29,31,,,,,,1.1,0.6,0.9*3A
###2023-12-09 13:26:28.999806$GLGSA,A,3,65,71,72,73,74,75,,,,,,,1.1,0.6,0.9*24
###2023-12-09 13:26:29.001400$GAGSA,A,3,04,19,21,27,,,,,,,,,1.1,0.6,0.9*26
###2023-12-09 13:26:29.003120$GBGSA,A,3,14,24,25,26,33,35,,,,,,,1.1,0.6,0.9*29
###2023-12-09 13:26:29.005448$GPGSV,2,1,07,03,29,250,40,04,43,309,42,16,62,219,45,26,88,044,48*79
###2023-12-09 13:26:29.007512$GPGSV,2,2,07,28,41,081,44,29,22,050,40,31,62,060,46,,,,*40
###2023-12-09 13:26:29.009847$GLGSV,2,1,06,65,34,322,42,71,27,175,46,72,67,229,45,73,26,049,41*67
###2023-12-09 13:26:29.011602$GLGSV,2,2,06,74,63,006,42,75,40,266,42,,,,,,,,*67
###2023-12-09 13:26:29.013913$GAGSV,1,1,04,04,37,311,40,19,75,184,40,21,80,050,45,27,25,049,38*63
###2023-12-09 13:26:29.016238$GBGSV,2,1,06,14,32,190,44,24,65,042,49,25,48,272,43,26,19,068,44*65
