###2023-12-09 13:08:23.370621$GNGGA,180822.50,4138.0833665,N,07032.3004445,W,1,25,0.6,13.128,M,-29.742,M,0.0,*52
###2023-12-09 13:08:23.570055$GNGGA,180822.70,4138.0833541,N,07032.3001691,W,1,25,0.6,13.112,M,-29.742,M,0.0,*52
###2023-12-09 13:08:23.770075$GNGGA,180822.90,4138.0833354,N,07032.2999008,W,1,25,0.6,13.115,M,-29.742,M,0.0,*56
###2023-12-09 13:08:23.972335$GNRMC,180823.10,A,4138.0833529,N,07032.2996361,W,3.67,77.85,091223,,,A*69
###2023-12-09 13:08:23.975190$GNGGA,180823.10,4138.0833529,N,07032.2996361,W,1,25,0.6,13.121,M,-29.742,M,0.0,*57
###2023-12-09 13:08:23.977046$GPGSA,A,3,03,04,16,26,28,29,31,32,,,,,1.1,0.6,0.9*3B
###2023-12-09 13:08:23.978775$GLGSA,A,3,65,71,72,73,74,75,,,,,,,1.1,0.6,0.9*24
###2023-12-09 13:08:23.980356$GAGSA,A,3,04,19,21,27,,,,,,,,,1.1,0.6,0.9*26
###2023-12-09 13:08:23.982063$GBGSA,A,3,14,24,25,26,33,35,,,,,,,1.1,0.6,0.9*29
###2023-12-09 13:08:23.984389$GPGSV,2,1,08,03,34,258,45,04,35,311,43,16,53,214,47,26,83,210,49*7A
###2023-12-09 13:08:23.986723$GPGSV,2,2,08,28,47,073,41,29,25,058,40,31,67,044,46,32,16,141,43*78
###2023-12-09 13:08:23.989044$GLGSV,2,1,06,65,26,326,40,71,37,173,46,72,72,258,46,73,33,043,44*6F
###2023-12-09 13:08:23.990828$GLGSV,2,2,06,74,68,345,43,75,34,256,47,,,,,,,,*6C
###2023-12-09 13:08:23.993152$GAGSV,1,1,04,04,31,312,40,19,82,199,41,21,85,085,46,27,31,048,41*67
###2023-12-09 13:08:23.995491$GBGSV,2,1,06,14,40,192,46,24,72,029,48,25,42,264,47,26,24,064,42*67
###2023-12-09 13:08:23.997244$GBGSV,2,2,06,33,56,229,48,35,15,067,42,,,,,,,,*6E
###2023-12-09 13:08:23.998533$GNVTG,77.85,T,,M,3.67,N,6.80,K,A*12
###2023-12-09 13:08:24.000191$GNGST,180823.10,18.000,,,,0.082,0.065,0.150*52
###2023-12-09 13:08:24.001477$GNZDA,180823.10,09,12,2023,00,00*70
###2023-12-09 13:08:24.002114$GNEBP,,,,,,M*13
###2023-12-09 13:08:24.169134$GNGGA,180823.30,4138.0833892,N,07032.2993668,W,1,25,0.6,13.112,M,-29.742,M,0.0,*51
###2023-12-09 13:08:24.370773$GNGGA,180823.50,4138.0833928,N,07032.2990946,W,1,25,0.6,13.091,M,-29.742,M,0.0,*5D
###2023-12-09 13:08:24.570030$GNGGA,180823.70,4138.0833970,N,07032.2988283,W,1,25,0.6,13.112,M,-29.742,M,0.0,*53
###2023-12-09 13:08:24.770084$GNGGA,180823.90,4138.0834223,N,07032.2985571,W,1,25,0.6,13.139,M,-29.742,M,0.0,*59
###2023-12-09 13:08:24.972725$GNRMC,180824.10,A,4138.0834381,N,07032.2982803,W,3.79,89.01,091223,,,A*65
###2023-12-09 13:08:24.975587$GNGGA,180824.10,4138.0834381,N,07032.2982803,W,1,25,0.6,13.111,M,-29.742,M,0.0,*5A
###2023-12-09 13:08:24.977445$GPGSA,A,3,03,04,16,26,28,29,31,32,,,,,1.1,0.6,0.9*3B
###2023-12-09 13:08:24.979173$GLGSA,A,3,65,71,72,73,74,75,,,,,,,1.1,0.6,0.9*24
###2023-12-09 13:08:24.980759$GAGSA,A,3,04,19,21,27,,,,,,,,,1.1,0.6,0.9*26
###2023-12-09 13:08:24.982469$GBGSA,A,3,14,24,25,26,33,35,,,,,,,1.1,0.6,0.9*29
###2023-12-09 13:08:24.984811$GPGSV,2,1,08,03,34,258,45,04,35,311,43,16,53,214,47,26,83,210,48*7B
###2023-12-09 13:08:24.987150$GPGSV,2,2,08,28,47,073,43,29,25,058,40,31,67,044,46,32,16,141,42*7B
###2023-12-09 13:08:24.989481$GLGSV,2,1,06,65,26,326,40,71,37,173,47,72,72,258,46,73,33,043,44*6E
###2023-12-09 13:08:24.991243$GLGSV,2,2,06,74,68,345,42,75,34,256,48,,,,,,,,*62
###2023-12-09 13:08:24.993570$GAGSV,1,1,04,04,31,312,41,19,82,199,41,21,85,085,46,27,31,048,42*65
###2023-12-09 13:08:24.995924$GBGSV,2,1,06,14,40,192,46,24,72,029,48,25,42,264,47,26,24,064,43*66
###2023-12-09 13:08:24.997679$GBGSV,2,2,06,33,56,229,48,35,15,067,43,,,,,,,,*6F
###2023-12-09 13:08:24.998983$GNVTG,89.01,T,,M,3.79,N,7.02,K,A*1B
###2023-12-09 13:08:25.000633$GNGST,180824.10,18.000,,,,0.082,0.065,0.150*55
###2023-12-09 13:08:25.001923$GNZDA,180824.10,09,12,2023,00,00*77
###2023-12-09 13:08:25.002576$GNEBP,,,,,,M*13
###2023-12-09 13:08:25.169197$GNGGA,180824.30,4138.0834474,N,07032.2980149,W,1,25,0.6,13.081,M,-29.742,M,0.0,*58
###2023-12-09 13:08:25.369840$GNGGA,180824.50,4138.0834875,N,07032.2977583,W,1,25,0.6,13.118,M,-29.742,M,0.0,*58
###2023-12-09 13:08:25.569995$GNGGA,180824.70,4138.0835147,N,07032.2974794,W,1,25,0.6,13.130,M,-29.742,M,0.0,*5E
###2023-12-09 13:08:25.770116$GNGGA,180824.90,4138.0834997,N,07032.2972062,W,1,25,0.6,13.090,M,-29.742,M,0.0,*57
###2023-12-09 13:08:25.973291$GNRMC,180825.10,A,4138.0835053,N,07032.2969476,W,3.58,79.65,091223,,,A*6C
###2023-12-09 13:08:25.976166$GNGGA,180825.10,4138.0835053,N,07032.2969476,W,1,25,0.6,13.111,M,-29.742,M,0.0,*5D
###2023-12-09 13:08:25.978021$GPGSA,A,3,03,04,16,26,28,29,31,32,,,,,1.1,0.6,0.9*3B
###2023-12-09 13:08:25.979742$GLGSA,A,3,65,71,72,73,74,75,,,,,,,1.1,0.6,0.9*24
###2023-12-09 13:08:25.981319$GAGSA,A,3,04,19,21,27,,,,,,,,,1.1,0.6,0.9*26
###2023-12-09 13:08:25.983039$GBGSA,A,3,14,24,25,26,33,35,,,,,,,1.1,0.6,0.9*29
###2023-12-09 13:08:25.985361$GPGSV,2,1,08,03,34,258,44,04,35,311,42,16,53,214,48,26,83,210,48*74
###2023-12-09 13:08:25.987698$GPGSV,2,2,08,28,47,073,42,29,25,058,40,31,67,044,46,32,16,141,43*7B
###2023-12-09 13:08:25.990028$GLGSV,2,1,06,65,26,326,41,71,37,173,46,72,72,258,46,73,33,043,43*69
###2023-12-09 13:08:25.991785$GLGSV,2,2,06,74,68,345,42,75,34,256,47,,,,,,,,*6D
###2023-12-09 13:08:25.994098$GAGSV,1,1,04,04,31,312,40,19,82,199,41,21,85,085,46,27,31,048,42*64
###2023-12-09 13:08:25.996430$GBGSV,2,1,06,14,40,192,45,24,72,029,47,25,42,264,46,26,24,064,42*6A
###2023-12-09 13:08:25.998183$GBGSV,2,2,06,33,56,229,49,35,15,067,41,,,,,,,,*6C
###2023-12-09 13:08:25.999487$GNVTG,79.65,T,,M,3.58,N,6.62,K,A*12
###2023-12-09 13:08:26.001127$GNGST,180825.10,18.000,,,,0.082,0.065,0.150*54
###2023-12-09 13:08:26.002413$GNZDA,180825.10,09,12,2023,00,00*76
###2023-12-09 13:08:26.003063$GNEBP,,,,,,M*13
###2023-12-09 13:08:26.170059$GNGGA,180825.30,4138.0835476,N,07032.2966795,W,1,25,0.6,13.140,M,-29.742,M,0.0,*59
###2023-12-09 13:08:26.369667$GNGGA,180825.50,4138.0835539,N,07032.2964038,W,1,25,0.6,13.100,M,-29.742,M,0.0,*53
###2023-12-09 13:08:26.570004$GNGGA,180825.70,4138.0835499,N,07032.2961471,W,1,25,0.6,13.097,M,-29.742,M,0.0,*59
###2023-12-09 13:08:26.771148$GNGGA,180825.90,4138.0835646,N,07032.2958858,W,1,25,0.6,13.142,M,-29.742,M,0.0,*53
###2023-12-09 13:08:26.971695$GNRMC,180826.10,A,4138.0835743,N,07032.2956136,W,3.65,88.97,091223,,,A*69
###2023-12-09 13:08:26.974540$GNGGA,180826.10,4138.0835743,N,07032.2956136,W,1,25,0.6,13.126,M,-29.742,M,0.0,*51
###2023-12-09 13:08:26.976432$GPGSA,A,3,03,04,16,26,28,29,31,32,,,,,1.1,0.6,0.9*3B
###2023-12-09 13:08:26.978138$GLGSA,A,3,65,71,72,73,74,75,,,,,,,1.1,0.6,0.9*24
###2023-12-09 13:08:26.979740$GAGSA,A,3,04,19,21,27,,,,,,,,,1.1,0.6,0.9*26
###2023-12-09 13:08:26.981452$GBGSA,A,3,14,24,25,26,33,35,,,,,,,1.1,0.6,0.9*29
###2023-12-09 13:08:26.983785$GPGSV,2,1,08,03,34,258,45,04,35,311,43,16,53,214,47,26,83,210,47*74
###2023-12-09 13:08:26.986113$GPGSV,2,2,08,28,47,073,43,29,25,058,40,31,67,044,47,32,16,141,42*7A
###2023-12-09 13:08:26.988456$GLGSV,2,1,06,65,26,326,41,71,37,173,46,72,72,258,46,73,33,043,44*6E
###2023-12-09 13:08:26.990200$GLGSV,2,2,06,74,68,345,42,75,34,256,47,,,,,,,,*6D
###2023-12-09 13:08:26.992532$GAGSV,1,1,04,04,31,312,40,19,82,199,41,21,85,085,45,27,31,048,42*67
###2023-12-09 13:08:26.994876$GBGSV,2,1,06,14,40,192,46,24,72,029,48,25,42,264,47,26,24,064,43*66
###2023-12-09 13:08:26.996625$GBGSV,2,2,06,33,56,229,48,35,15,067,41,,,,,,,,*6D
###2023-12-09 13:08:26.997915$GNVTG,88.97,T,,M,3.65,N,6.77,K,A*1B
###2023-12-09 13:08:26.999574$GNGST,180826.10,18.000,,,,0.082,0.065,0.150*57
###2023-12-09 13:08:27.000875$GNZDA,180826.10,09,12,2023,00,00*75
###2023-12-09 13:08:27.001522$GNEBP,,,,,,M*13
###2023-12-09 13:08:27.172189$GNGGA,180826.30,4138.0835839,N,07032.2953589,W,1,25,0.6,13.111,M,-29.742,M,0.0,*50
###2023-12-09 13:08:27.369561$GNGGA,180826.50,4138.0835942,N,07032.2951004,W,1,25,0.6,13.143,M,-29.742,M,0.0,*5E
###2023-12-09 13:08:27.569960$GNGGA,180826.70,4138.0835931,N,07032.2948309,W,1,25,0.6,13.144,M,-29.742,M,0.0,*59
###2023-12-09 13:08:27.770131$GNGGA,180826.90,4138.0835875,N,07032.2945606,W,1,25,0.6,13.121,M,-29.742,M,0.0,*52
###2023-12-09 13:08:27.972662$GNRMC,180827.10,A,4138.0836036,N,07032.2942996,W,3.52,81.26,091223,,,A*6E
###2023-12-09 13:08:27.975529$GNGGA,180827.10,4138.0836036,N,07032.2942996,W,1,25,0.6,13.129,M,-29.742,M,0.0,*5E
###2023-12-09 13:08:27.977622$GPGSA,A,3,03,04,16,26,28,29,31,32,,,,,1.1,0.6,0.9*3B
###2023-12-09 13:08:27.979359$GLGSA,A,3,65,71,72,73,74,75,,,,,,,1.1,0.6,0.9*24
###2023-12-09 13:08:27.980941$GAGSA,A,3,04,19,21,27,,,,,,,,,1.1,0.6,0.9*26
###2023-12-09 13:08:27.982664$GBGSA,A,3,14,24,25,26,33,35,,,,,,,1.1,0.6,0.9*29
###2023-12-09 13:08:27.984992$GPGSV,2,1,08,03,34,258,45,04,35,311,43,16,53,214,46,26,83,210,48*7A
###2023-12-09 13:08:27.987335$GPGSV,2,2,08,28,47,073,43,29,25,058,40,31,67,044,46,32,16,141,42*7B
###2023-12-09 13:08:27.989668$GLGSV,2,1,06,65,26,326,41,71,37,173,45,72,72,258,46,73,33,043,44*6D
###2023-12-09 13:08:27.991421$GLGSV,2,2,06,74,68,345,43,75,34,256,48,,,,,,,,*63
###2023-12-09 13:08:27.993738$GAGSV,1,1,04,04,31,312,41,19,82,199,41,21,85,085,46,27,31,048,42*65
###2023-12-09 13:08:27.996072$GBGSV,2,1,06,14,40,192,45,24,72,029,48,25,42,264,46,26,24,064,42*65
###2023-12-09 13:08:27.997812$GBGSV,2,2,06,33,56,229,48,35,15,067,43,,,,,,,,*6F
