###2023-12-09 13:46:13.032016$GNEBP,,,,,,M*13
###2023-12-09 13:46:13.200558$GNGGA,184612.30,4138.0394607,N,07032.4388483,W,1,20,0.7,15.281,M,-29.746,M,0.0,*53
###2023-12-09 13:46:13.401159$GNGGA,184612.50,4138.0394605,N,07032.4388465,W,1,20,0.7,15.293,M,-29.746,M,0.0,*5C
###2023-12-09 13:46:13.599370$GNGGA,184612.70,4138.0394601,N,07032.4388453,W,1,20,0.7,15.299,M,-29.746,M,0.0,*55
###2023-12-09 13:46:13.800120$GNGGA,184612.90,4138.0394573,N,07032.4388447,W,1,20,0.7,15.302,M,-29.746,M,0.0,*5B
###2023-12-09 13:46:14.006650$GNRMC,184613.10,A,4138.0394583,N,07032.4388426,W,0.02,243.17,091223,,,A*5F
###2023-12-09 13:46:14.009661$GNGGA,184613.10,4138.0394583,N,07032.4388426,W,1,20,0.7,15.314,M,-29.746,M,0.0,*5D
###2023-12-09 13:46:14.011402$GPGSA,A,3,04,16,26,28,29,31,,,,,,,1.3,0.7,1.1*33
###2023-12-09 13:46:14.013109$GLGSA,A,3,65,72,73,74,75,83,,,,,,,1.3,0.7,1.1*23
###2023-12-09 13:46:14.014638$GAGSA,A,3,04,21,27,,,,,,,,,,1.3,0.7,1.1*24
###2023-12-09 13:46:14.016288$GBGSA,A,3,12,24,25,33,35,,,,,,,,1.3,0.7,1.1*21
###2023-12-09 13:46:14.018620$GPGSV,2,1,06,04,51,304,46,16,72,228,42,26,78,041,40,28,34,089,46*71
###2023-12-09 13:46:14.020368$GPGSV,2,2,06,29,18,043,44,31,56,073,49,,,,,,,,*72
###2023-12-09 13:46:14.022704$GLGSV,2,1,06,65,42,313,45,72,57,214,37,73,18,056,41,74,56,022,35*6C
###2023-12-09 13:46:14.024454$GLGSV,2,2,06,75,47,279,46,83,16,042,36,,,,,,,,*63
###2023-12-09 13:46:14.026480$GAGSV,1,1,03,04,43,308,45,21,72,043,40,27,19,051,43,,,,*59
###2023-12-09 13:46:14.028822$GBGSV,2,1,05,12,19,123,43,24,59,051,47,25,54,281,39,33,41,214,38*62
###2023-12-09 13:46:14.030273$GBGSV,2,2,05,35,16,052,39,,,,,,,,,,,,*52
###2023-12-09 13:46:14.031609$GNVTG,243.17,T,,M,0.02,N,0.04,K,A*26
###2023-12-09 13:46:14.033223$GNGST,184613.10,7.100,,,,0.190,0.120,0.310*60
###2023-12-09 13:46:14.034514$GNZDA,184613.10,09,12,2023,00,00*79
###2023-12-09 13:46:14.035165$GNEBP,,,,,,M*13
###2023-12-09 13:46:14.201084$GNGGA,184613.30,4138.0394581,N,07032.4388425,W,1,20,0.7,15.320,M,-29.746,M,0.0,*59
###2023-12-09 13:46:14.400206$GNGGA,184613.50,4138.0394598,N,07032.4388409,W,1,20,0.7,15.331,M,-29.746,M,0.0,*59
###2023-12-09 13:46:14.600613$GNGGA,184613.70,4138.0394621,N,07032.4388399,W,1,20,0.7,15.338,M,-29.746,M,0.0,*5D
###2023-12-09 13:46:14.799690$GNGGA,184613.90,4138.0394632,N,07032.4388396,W,1,20,0.7,15.343,M,-29.746,M,0.0,*52
###2023-12-09 13:46:15.001768$GNRMC,184614.10,A,4138.0394639,N,07032.4388385,W,0.00,243.17,091223,,,A*56
###2023-12-09 13:46:15.004663$GNGGA,184614.10,4138.0394639,N,07032.4388385,W,1,20,0.7,15.353,M,-29.746,M,0.0,*55
###2023-12-09 13:46:15.006388$GPGSA,A,3,04,16,26,28,29,31,,,,,,,1.3,0.7,1.1*33
###2023-12-09 13:46:15.008115$GLGSA,A,3,65,72,73,74,75,83,,,,,,,1.3,0.7,1.1*23
###2023-12-09 13:46:15.009636$GAGSA,A,3,04,21,27,,,,,,,,,,1.3,0.7,1.1*24
###2023-12-09 13:46:15.011282$GBGSA,A,3,12,24,25,33,35,,,,,,,,1.3,0.7,1.1*21
###2023-12-09 13:46:15.013596$GPGSV,2,1,06,04,51,304,46,16,72,228,42,26,78,041,40,28,34,089,46*71
###2023-12-09 13:46:15.015347$GPGSV,2,2,06,29,18,043,44,31,56,073,49,,,,,,,,*72
###2023-12-09 13:46:15.017656$GLGSV,2,1,06,65,42,313,45,72,57,214,37,73,18,056,41,74,56,022,35*6C
###2023-12-09 13:46:15.019407$GLGSV,2,2,06,75,47,279,46,83,16,042,36,,,,,,,,*63
###2023-12-09 13:46:15.021439$GAGSV,1,1,03,04,43,308,45,21,72,043,40,27,19,051,42,,,,*58
###2023-12-09 13:46:15.023781$GBGSV,2,1,05,12,19,123,42,24,59,051,47,25,54,281,40,33,41,214,38*6D
###2023-12-09 13:46:15.025236$GBGSV,2,2,05,35,16,052,39,,,,,,,,,,,,*52
###2023-12-09 13:46:15.026551$GNVTG,243.17,T,,M,0.00,N,0.00,K,A*20
###2023-12-09 13:46:15.028186$GNGST,184614.10,7.200,,,,0.190,0.120,0.310*64
###2023-12-09 13:46:15.029474$GNZDA,184614.10,09,12,2023,00,00*7E
###2023-12-09 13:46:15.030113$GNEBP,,,,,,M*13
###2023-12-09 13:46:15.210369$GNGGA,184614.30,4138.0394637,N,07032.4388374,W,1,20,0.7,15.359,M,-29.746,M,0.0,*5D
###2023-12-09 13:46:15.402387$GNGGA,184614.50,4138.0394656,N,07032.4388361,W,1,19,0.7,15.364,M,-29.746,M,0.0,*5C
###2023-12-09 13:46:15.599425$GNGGA,184614.70,4138.0394669,N,07032.4388342,W,1,19,0.7,15.370,M,-29.746,M,0.0,*56
###2023-12-09 13:46:15.801271$GNGGA,184614.90,4138.0394685,N,07032.4388334,W,1,19,0.7,15.373,M,-29.746,M,0.0,*58
###2023-12-09 13:46:16.004627$GNRMC,184615.10,A,4138.0394681,N,07032.4388330,W,0.04,243.17,091223,,,A*5E
###2023-12-09 13:46:16.007485$GNGGA,184615.10,4138.0394681,N,07032.4388330,W,1,19,0.7,15.378,M,-29.746,M,0.0,*5A
###2023-12-09 13:46:16.009205$GPGSA,A,3,04,16,26,28,29,31,,,,,,,1.3,0.7,1.1*33
###2023-12-09 13:46:16.010858$GLGSA,A,3,65,72,73,75,83,,,,,,,,1.3,0.7,1.1*20
###2023-12-09 13:46:16.012365$GAGSA,A,3,04,21,27,,,,,,,,,,1.3,0.7,1.1*24
###2023-12-09 13:46:16.014002$GBGSA,A,3,12,24,25,33,35,,,,,,,,1.3,0.7,1.1*21
###2023-12-09 13:46:16.016330$GPGSV,2,1,06,04,51,304,46,16,72,228,42,26,78,041,41,28,34,089,46*70
###2023-12-09 13:46:16.018070$GPGSV,2,2,06,29,18,043,44,31,56,073,49,,,,,,,,*72
###2023-12-09 13:46:16.020403$GLGSV,2,1,05,65,42,313,45,72,57,214,38,73,18,056,41,75,47,279,46*69
###2023-12-09 13:46:16.021855$GLGSV,2,2,05,83,16,042,36,,,,,,,,,,,,*5F
###2023-12-09 13:46:16.023919$GAGSV,1,1,03,04,43,308,45,21,72,043,40,27,19,051,43,,,,*59
###2023-12-09 13:46:16.026233$GBGSV,2,1,05,12,19,123,42,24,59,051,47,25,54,281,40,33,41,214,38*6D
###2023-12-09 13:46:16.027693$GBGSV,2,2,05,35,16,052,40,,,,,,,,,,,,*5C
###2023-12-09 13:46:16.029005$GNVTG,243.17,T,,M,0.04,N,0.07,K,A*23
###2023-12-09 13:46:16.030621$GNGST,184615.10,6.800,,,,0.190,0.120,0.310*6E
###2023-12-09 13:46:16.031908$GNZDA,184615.10,09,12,2023,00,00*7F
###2023-12-09 13:46:16.032545$GNEBP,,,,,,M*13
###2023-12-09 13:46:16.201009$GNGGA,184615.30,4138.0394677,N,07032.4388329,W,1,19,0.7,15.381,M,-29.746,M,0.0,*5F
###2023-12-09 13:46:16.406405$GNGGA,184615.50,4138.0394696,N,07032.4388322,W,1,19,0.7,15.387,M,-29.746,M,0.0,*5B
###2023-12-09 13:46:16.601836$GNGGA,184615.70,4138.0394707,N,07032.4388310,W,1,19,0.7,15.390,M,-29.746,M,0.0,*57
###2023-12-09 13:46:16.799596$GNGGA,184615.90,4138.0394708,N,07032.4388301,W,1,19,0.7,15.398,M,-29.746,M,0.0,*5E
###2023-12-09 13:46:17.003762$GNRMC,184616.10,A,4138.0394707,N,07032.4388302,W,0.02,243.17,091223,,,A*55
###2023-12-09 13:46:17.006836$GNGGA,184616.10,4138.0394707,N,07032.4388302,W,1,19,0.7,15.405,M,-29.746,M,0.0,*5A
###2023-12-09 13:46:17.008688$GPGSA,A,3,04,16,26,28,29,31,,,,,,,1.3,0.7,1.1*33
###2023-12-09 13:46:17.010426$GLGSA,A,3,65,72,73,75,83,,,,,,,,1.3,0.7,1.1*20
###2023-12-09 13:46:17.011964$GAGSA,A,3,04,21,27,,,,,,,,,,1.3,0.7,1.1*24
###2023-12-09 13:46:17.013619$GBGSA,A,3,12,24,25,33,35,,,,,,,,1.3,0.7,1.1*21
###2023-12-09 13:46:17.015964$GPGSV,2,1,06,04,51,304,46,16,72,228,42,26,78,041,41,28,34,089,46*70
###2023-12-09 13:46:17.017717$GPGSV,2,2,06,29,18,043,44,31,56,073,49,,,,,,,,*72
###2023-12-09 13:46:17.020049$GLGSV,2,1,05,65,42,313,45,72,57,214,38,73,18,056,41,75,47,279,46*69
###2023-12-09 13:46:17.021500$GLGSV,2,2,05,83,16,042,36,,,,,,,,,,,,*5F
###2023-12-09 13:46:17.023539$GAGSV,1,1,03,04,43,308,45,21,72,043,40,27,19,051,43,,,,*59
###2023-12-09 13:46:17.025869$GBGSV,2,1,05,12,19,123,42,24,59,051,47,25,54,281,41,33,41,214,38*6C
###2023-12-09 13:46:17.027333$GBGSV,2,2,05,35,16,052,39,,,,,,,,,,,,*52
###2023-12-09 13:46:17.028654$GNVTG,243.17,T,,M,0.02,N,0.04,K,A*26
###2023-12-09 13:46:17.030265$GNGST,184616.10,6.500,,,,0.190,0.120,0.310*60
###2023-12-09 13:46:17.031568$GNZDA,184616.10,09,12,2023,00,00*7C
###2023-12-09 13:46:17.032209$GNEBP,,,,,,M*13
###2023-12-09 13:46:17.201206$GNGGA,184616.30,4138.0394731,N,07032.4388284,W,1,19,0.7,15.411,M,-29.746,M,0.0,*57
###2023-12-09 13:46:17.404864$GNGGA,184616.50,4138.0394740,N,07032.4388282,W,1,19,0.7,15.416,M,-29.746,M,0.0,*56
###2023-12-09 13:46:17.603164$GNGGA,184616.70,4138.0394751,N,07032.4388264,W,1,19,0.7,15.422,M,-29.746,M,0.0,*5B
###2023-12-09 13:46:17.806376$GNGGA,184616.90,4138.0394764,N,07032.4388252,W,1,19,0.7,15.427,M,-29.746,M,0.0,*53
###2023-12-09 13:46:18.005582$GNRMC,184617.10,A,4138.0394781,N,07032.4388242,W,0.06,243.17,091223,,,A*5B
###2023-12-09 13:46:18.009065$GNGGA,184617.10,4138.0394781,N,07032.4388242,W,1,19,0.7,15.435,M,-29.746,M,0.0,*53
###2023-12-09 13:46:18.011168$GPGSA,A,3,04,16,26,28,29,31,,,,,,,1.3,0.7,1.1*33
###2023-12-09 13:46:18.013457$GLGSA,A,3,65,72,73,75,83,,,,,,,,1.3,0.7,1.1*20
###2023-12-09 13:46:18.015326$GAGSA,A,3,04,21,27,,,,,,,,,,1.3,0.7,1.1*24
###2023-12-09 13:46:18.017314$GBGSA,A,3,12,24,25,33,35,,,,,,,,1.3,0.7,1.1*21
###2023-12-09 13:46:18.020151$GPGSV,2,1,06,04,51,304,46,16,72,228,42,26,78,041,41,28,34,089,46*70
###2023-12-09 13:46:18.022259$GPGSV,2,2,06,29,18,043,43,31,56,073,49,,,,,,,,*75
###2023-12-09 13:46:18.025097$GLGSV,2,1,05,65,42,313,45,72,57,214,38,73,18,056,41,75,47,279,46*69
###2023-12-09 13:46:18.026873$GLGSV,2,2,05,83,16,042,36,,,,,,,,,,,,*5F
###2023-12-09 13:46:18.029366$GAGSV,1,1,03,04,43,308,45,21,72,043,40,27,19,051,43,,,,*59
