###2023-12-09 13:21:29.012767$GBGSV,2,2,06,33,51,222,47,35,16,062,42,,,,,,,,*6B
###2023-12-09 13:21:29.014045$GNVTG,3.34,T,,M,3.65,N,6.77,K,A*21
###2023-12-09 13:21:29.015722$GNGST,182128.10,18.000,,,,0.100,0.071,0.170*5E
###2023-12-09 13:21:29.017021$GNZDA,182128.10,09,12,2023,00,00*70
###2023-12-09 13:21:29.017664$GNEBP,,,,,,M*13
###2023-12-09 13:21:29.183476$GNGGA,182128.30,4138.0426294,N,07032.3430302,W,1,24,0.7,13.224,M,-29.744,M,0.0,*59
###2023-12-09 13:21:29.383970$GNGGA,182128.50,4138.0428256,N,07032.3429774,W,1,24,0.7,13.216,M,-29.744,M,0.0,*53
###2023-12-09 13:21:29.584911$GNGGA,182128.70,4138.0430176,N,07032.3429507,W,1,24,0.7,13.211,M,-29.744,M,0.0,*58
###2023-12-09 13:21:29.783962$GNGGA,182128.90,4138.0432038,N,07032.3429470,W,1,24,0.7,13.214,M,-29.744,M,0.0,*5B
###2023-12-09 13:21:29.986502$GNRMC,182129.10,A,4138.0433935,N,07032.3429312,W,3.46,2.91,091223,,,A*5D
###2023-12-09 13:21:29.989416$GNGGA,182129.10,4138.0433935,N,07032.3429312,W,1,24,0.7,13.206,M,-29.744,M,0.0,*57
###2023-12-09 13:21:29.991213$GPGSA,A,3,03,04,16,26,28,29,31,,,,,,1.1,0.7,0.9*3B
###2023-12-09 13:21:29.992932$GLGSA,A,3,65,71,72,73,74,75,,,,,,,1.1,0.7,0.9*25
###2023-12-09 13:21:29.994518$GAGSA,A,3,04,19,21,27,,,,,,,,,1.1,0.7,0.9*27
###2023-12-09 13:21:29.996242$GBGSA,A,3,14,24,25,26,33,35,,,,,,,1.1,0.7,0.9*28
###2023-12-09 13:21:29.998574$GPGSV,2,1,07,03,30,252,43,04,41,310,46,16,60,218,47,26,90,099,48*76
###2023-12-09 13:21:30.000613$GPGSV,2,2,07,28,42,080,45,29,23,052,41,31,64,055,47,,,,*40
###2023-12-09 13:21:30.002964$GLGSV,2,1,06,65,33,323,41,71,30,174,43,72,69,234,46,73,27,048,41*61
###2023-12-09 13:21:30.004713$GLGSV,2,2,06,74,64,002,41,75,39,263,47,,,,,,,,*69
###2023-12-09 13:21:30.007053$GAGSV,1,1,04,04,35,311,43,19,77,186,41,21,81,055,46,27,27,049,38*66
###2023-12-09 13:21:30.009388$GBGSV,2,1,06,14,35,191,44,24,67,039,48,25,47,270,48,26,20,067,43*68
###2023-12-09 13:21:30.011147$GBGSV,2,2,06,33,51,222,48,35,16,062,42,,,,,,,,*64
###2023-12-09 13:21:30.012408$GNVTG,2.91,T,,M,3.46,N,6.41,K,A*2B
###2023-12-09 13:21:30.014063$GNGST,182129.10,18.000,,,,0.100,0.071,0.170*5F
###2023-12-09 13:21:30.015369$GNZDA,182129.10,09,12,2023,00,00*71
###2023-12-09 13:21:30.016013$GNEBP,,,,,,M*13
###2023-12-09 13:21:30.183432$GNGGA,182129.30,4138.0435810,N,07032.3429372,W,1,24,0.7,13.207,M,-29.744,M,0.0,*52
###2023-12-09 13:21:30.383175$GNGGA,182129.50,4138.0437709,N,07032.3429653,W,1,24,0.7,13.216,M,-29.744,M,0.0,*57
###2023-12-09 13:21:30.584535$GNGGA,182129.70,4138.0439680,N,07032.3429879,W,1,24,0.7,13.217,M,-29.744,M,0.0,*5C
###2023-12-09 13:21:30.783994$GNGGA,182129.90,4138.0441693,N,07032.3430137,W,1,24,0.7,13.212,M,-29.744,M,0.0,*51
###2023-12-09 13:21:30.990101$GNRMC,182130.10,A,4138.0443750,N,07032.3430497,W,3.85,351.27,091223,,,A*5A
###2023-12-09 13:21:30.992993$GNGGA,182130.10,4138.0443750,N,07032.3430497,W,1,24,0.7,13.214,M,-29.744,M,0.0,*54
###2023-12-09 13:21:30.994841$GPGSA,A,3,03,04,16,26,28,29,31,,,,,,1.1,0.7,0.9*3B
###2023-12-09 13:21:30.996571$GLGSA,A,3,65,71,72,73,74,75,,,,,,,1.1,0.7,0.9*25
###2023-12-09 13:21:30.998174$GAGSA,A,3,04,19,21,27,,,,,,,,,1.1,0.7,0.9*27
###2023-12-09 13:21:30.999917$GBGSA,A,3,14,24,25,26,33,35,,,,,,,1.1,0.7,0.9*28
###2023-12-09 13:21:31.002265$GPGSV,2,1,07,03,30,252,45,04,41,310,47,16,60,218,48,26,90,099,50*77
###2023-12-09 13:21:31.004336$GPGSV,2,2,07,28,42,080,46,29,23,052,42,31,64,055,47,,,,*40
###2023-12-09 13:21:31.006688$GLGSV,2,1,06,65,33,323,41,71,30,174,44,72,69,234,46,73,27,048,42*65
###2023-12-09 13:21:31.008442$GLGSV,2,2,06,74,64,002,41,75,39,263,47,,,,,,,,*69
###2023-12-09 13:21:31.010782$GAGSV,1,1,04,04,35,311,44,19,77,186,41,21,81,055,47,27,27,049,40*6F
###2023-12-09 13:21:31.013118$GBGSV,2,1,06,14,35,191,44,24,67,039,48,25,47,270,48,26,20,067,43*68
###2023-12-09 13:21:31.014885$GBGSV,2,2,06,33,51,222,47,35,16,062,43,,,,,,,,*6A
###2023-12-09 13:21:31.016213$GNVTG,351.27,T,,M,3.85,N,7.13,K,A*2A
###2023-12-09 13:21:31.017862$GNGST,182130.10,18.000,,,,0.100,0.070,0.170*56
###2023-12-09 13:21:31.019162$GNZDA,182130.10,09,12,2023,00,00*79
###2023-12-09 13:21:31.019802$GNEBP,,,,,,M*13
###2023-12-09 13:21:31.184433$GNGGA,182130.30,4138.0445854,N,07032.3430908,W,1,24,0.7,13.213,M,-29.744,M,0.0,*57
###2023-12-09 13:21:31.386879$GNGGA,182130.50,4138.0447949,N,07032.3431294,W,1,24,0.7,13.205,M,-29.744,M,0.0,*56
###2023-12-09 13:21:31.585218$GNGGA,182130.70,4138.0450038,N,07032.3431496,W,1,24,0.7,13.204,M,-29.744,M,0.0,*58
###2023-12-09 13:21:31.785130$GNGGA,182130.90,4138.0452115,N,07032.3431706,W,1,24,0.7,13.196,M,-29.744,M,0.0,*58
###2023-12-09 13:21:31.990091$GNRMC,182131.10,A,4138.0454116,N,07032.3432038,W,3.62,351.31,091223,,,A*54
###2023-12-09 13:21:31.993586$GNGGA,182131.10,4138.0454116,N,07032.3432038,W,1,24,0.7,13.198,M,-29.744,M,0.0,*53
###2023-12-09 13:21:31.995774$GPGSA,A,3,03,04,16,26,28,29,31,,,,,,1.1,0.7,0.9*3B
###2023-12-09 13:21:31.997843$GLGSA,A,3,65,71,72,73,74,75,,,,,,,1.1,0.7,0.9*25
###2023-12-09 13:21:31.999767$GAGSA,A,3,04,19,21,27,,,,,,,,,1.1,0.7,0.9*27
###2023-12-09 13:21:32.001847$GBGSA,A,3,14,24,25,26,33,35,,,,,,,1.1,0.7,0.9*28
###2023-12-09 13:21:32.004698$GPGSV,2,1,07,03,30,252,44,04,41,310,45,16,60,218,47,26,90,099,48*72
###2023-12-09 13:21:32.007185$GPGSV,2,2,07,28,42,080,45,29,23,052,41,31,63,057,46,,,,*44
###2023-12-09 13:21:32.009992$GLGSV,2,1,06,65,33,323,40,71,30,174,46,72,69,234,46,73,27,048,42*66
###2023-12-09 13:21:32.012102$GLGSV,2,2,06,74,64,002,41,75,39,263,47,,,,,,,,*69
###2023-12-09 13:21:32.014917$GAGSV,1,1,04,04,35,311,43,19,77,186,41,21,81,055,45,27,27,049,41*6B
###2023-12-09 13:21:32.017741$GBGSV,2,1,06,14,35,191,45,24,67,039,48,25,47,270,47,26,20,067,42*67
###2023-12-09 13:21:32.019870$GBGSV,2,2,06,33,51,222,47,35,16,062,43,,,,,,,,*6A
###2023-12-09 13:21:32.021474$GNVTG,351.31,T,,M,3.62,N,6.70,K,A*20
###2023-12-09 13:21:32.023485$GNGST,182131.10,18.000,,,,0.100,0.070,0.170*57
###2023-12-09 13:21:32.025052$GNZDA,182131.10,09,12,2023,00,00*78
###2023-12-09 13:21:32.025824$GNEBP,,,,,,M*13
###2023-12-09 13:21:32.185000$GNGGA,182131.30,4138.0456108,N,07032.3432356,W,1,24,0.7,13.196,M,-29.744,M,0.0,*59
###2023-12-09 13:21:32.384683$GNGGA,182131.50,4138.0458037,N,07032.3432490,W,1,24,0.7,13.188,M,-29.744,M,0.0,*5E
###2023-12-09 13:21:32.585044$GNGGA,182131.70,4138.0459920,N,07032.3432611,W,1,24,0.7,13.187,M,-29.744,M,0.0,*56
###2023-12-09 13:21:32.785587$GNGGA,182131.90,4138.0461778,N,07032.3432898,W,1,24,0.7,13.183,M,-29.744,M,0.0,*5B
###2023-12-09 13:21:32.995362$GNRMC,182132.10,A,4138.0463575,N,07032.3433324,W,3.27,349.09,091223,,,A*5E
###2023-12-09 13:21:32.998870$GNGGA,182132.10,4138.0463575,N,07032.3433324,W,1,24,0.7,13.177,M,-29.744,M,0.0,*5B
###2023-12-09 13:21:33.001050$GPGSA,A,3,03,04,16,26,28,29,31,,,,,,1.1,0.7,0.9*3B
###2023-12-09 13:21:33.003129$GLGSA,A,3,65,71,72,73,74,75,,,,,,,1.1,0.7,0.9*25
###2023-12-09 13:21:33.005049$GAGSA,A,3,04,19,21,27,,,,,,,,,1.1,0.7,0.9*27
###2023-12-09 13:21:33.007135$GBGSA,A,3,14,24,25,26,33,35,,,,,,,1.1,0.7,0.9*28
###2023-12-09 13:21:33.009953$GPGSV,2,1,07,03,30,252,44,04,41,310,44,16,60,218,46,26,90,099,48*72
###2023-12-09 13:21:33.012437$GPGSV,2,2,07,28,42,080,46,29,23,052,43,31,63,057,46,,,,*45
###2023-12-09 13:21:33.015276$GLGSV,2,1,06,65,33,323,40,71,30,174,45,72,69,234,46,73,27,048,42*65
###2023-12-09 13:21:33.017398$GLGSV,2,2,06,74,64,002,41,75,39,263,48,,,,,,,,*66
###2023-12-09 13:21:33.020248$GAGSV,1,1,04,04,35,311,43,19,77,186,41,21,81,055,45,27,27,049,41*6B
###2023-12-09 13:21:33.023102$GBGSV,2,1,06,14,35,191,44,24,67,039,48,25,47,270,47,26,20,067,43*67
###2023-12-09 13:21:33.025213$GBGSV,2,2,06,33,51,222,48,35,16,062,43,,,,,,,,*65
###2023-12-09 13:21:33.026882$GNVTG,349.09,T,,M,3.27,N,6.05,K,A*21
###2023-12-09 13:21:33.028893$GNGST,182132.10,18.000,,,,0.100,0.070,0.170*54
###2023-12-09 13:21:33.030459$GNZDA,182132.10,09,12,2023,00,00*7B
###2023-12-09 13:21:33.031244$GNEBP,,,,,,M*13
###2023-12-09 13:21:33.188029$GNGGA,182132.30,4138.0465365,N,07032.3433691,W,1,24,0.7,13.180,M,-29.744,M,0.0,*5B
###2023-12-09 13:21:33.384819$GNGGA,182132.50,4138.0467194,N,07032.3433934,W,1,24,0.7,13.178,M,-29.744,M,0.0,*54
###2023-12-09 13:21:33.585223$GNGGA,182132.70,4138.0469010,N,07032.3434200,W,1,24,0.7,13.172,M,-29.744,M,0.0,*54
###2023-12-09 13:21:33.784932$GNGGA,182132.90,4138.0470837,N,07032.3434510,W,1,24,0.7,13.166,M,-29.744,M,0.0,*5C
###2023-12-09 13:21:33.995567$GNRMC,182133.10,A,4138.0472693,N,07032.3434720,W,3.38,356.54,091223,,,A*5B
###2023-12-09 13:21:33.998418$GNGGA,182133.10,4138.0472693,N,07032.3434720,W,1,24,0.7,13.158,M,-29.744,M,0.0,*5B
###2023-12-09 13:21:34.000226$GPGSA,A,3,03,04,16,26,28,29,31,,,,,,1.1,0.7,0.9*3B
###2023-12-09 13:21:34.001937$GLGSA,A,3,65,71,72,73,74,75,,,,,,,1.1,0.7,0.9*25
###2023-12-09 13:21:34.003525$GAGSA,A,3,04,19,21,27,,,,,,,,,1.1,0.7,0.9*27
###2023-12-09 13:21:34.005228$GBGSA,A,3,14,24,25,26,33,35,,,,,,,1.1,0.7,0.9*28
###2023-12-09 13:21:34.007588$GPGSV,2,1,07,03,30,252,43,04,41,310,45,16,60,218,47,26,90,099,49*74
