###2023-12-09 12:54:44.154145$GNGGA,175443.30,4138.0586107,N,07032.3971731,W,1,24,0.6,13.174,M,-29.744,M,0.0,*50
###2023-12-09 12:54:44.354770$GNGGA,175443.50,4138.0584696,N,07032.3970644,W,1,24,0.6,13.173,M,-29.744,M,0.0,*5E
###2023-12-09 12:54:44.555048$GNGGA,175443.70,4138.0583394,N,07032.3969402,W,1,24,0.6,13.170,M,-29.744,M,0.0,*57
###2023-12-09 12:54:44.753808$GNGGA,175443.90,4138.0582009,N,07032.3968214,W,1,24,0.6,13.163,M,-29.744,M,0.0,*5D
###2023-12-09 12:54:44.960537$GNRMC,175444.10,A,4138.0580562,N,07032.3967233,W,2.86,155.55,091223,,,A*5F
###2023-12-09 12:54:44.963412$GNGGA,175444.10,4138.0580562,N,07032.3967233,W,1,24,0.6,13.163,M,-29.744,M,0.0,*52
###2023-12-09 12:54:44.965269$GPGSA,A,3,03,04,16,26,28,29,31,32,,,,,1.1,0.6,0.9*3B
###2023-12-09 12:54:44.966990$GLGSA,A,3,65,71,72,73,74,75,,,,,,,1.1,0.6,0.9*24
###2023-12-09 12:54:44.968569$GAGSA,A,3,04,19,21,27,,,,,,,,,1.1,0.6,0.9*26
###2023-12-09 12:54:44.970212$GBGSA,A,3,14,24,25,26,33,,,,,,,,1.1,0.6,0.9*2F
###2023-12-09 12:54:44.972548$GPGSV,2,1,08,03,36,266,44,04,29,311,40,16,46,211,44,26,76,209,47*74
###2023-12-09 12:54:44.974892$GPGSV,2,2,08,28,52,067,46,29,25,064,44,31,70,029,47,32,22,138,41*72
###2023-12-09 12:54:44.977220$GLGSV,2,1,06,65,21,328,43,71,45,172,44,72,72,285,46,73,39,039,45*65
###2023-12-09 12:54:44.978979$GLGSV,2,2,06,74,71,324,43,75,29,249,45,,,,,,,,*63
###2023-12-09 12:54:44.981312$GAGSV,1,1,04,04,27,312,40,19,85,242,40,21,84,147,45,27,35,048,44*6F
###2023-12-09 12:54:44.983649$GBGSV,2,1,05,14,46,194,44,24,75,018,48,25,39,260,47,26,28,061,45*65
###2023-12-09 12:54:44.985096$GBGSV,2,2,05,33,59,237,48,,,,,,,,,,,,*58
###2023-12-09 12:54:44.986416$GNVTG,155.55,T,,M,2.86,N,5.29,K,A*20
###2023-12-09 12:54:44.988075$GNGST,175444.10,18.000,,,,0.080,0.068,0.160*59
###2023-12-09 12:54:44.989371$GNZDA,175444.10,09,12,2023,00,00*77
###2023-12-09 12:54:44.990010$GNEBP,,,,,,M*13
###2023-12-09 12:54:45.153898$GNGGA,175444.30,4138.0579065,N,07032.3966308,W,1,24,0.6,13.181,M,-29.744,M,0.0,*50
###2023-12-09 12:54:45.356158$GNGGA,175444.50,4138.0577592,N,07032.3965220,W,1,24,0.6,13.172,M,-29.744,M,0.0,*51
###2023-12-09 12:54:45.553699$GNGGA,175444.70,4138.0576154,N,07032.3964245,W,1,24,0.6,13.162,M,-29.744,M,0.0,*5F
###2023-12-09 12:54:45.755202$GNGGA,175444.90,4138.0574586,N,07032.3963542,W,1,24,0.6,13.178,M,-29.744,M,0.0,*54
###2023-12-09 12:54:45.955943$GNRMC,175445.10,A,4138.0573014,N,07032.3962900,W,2.82,162.26,091223,,,A*5C
###2023-12-09 12:54:45.958814$GNGGA,175445.10,4138.0573014,N,07032.3962900,W,1,24,0.6,13.166,M,-29.744,M,0.0,*50
###2023-12-09 12:54:45.960663$GPGSA,A,3,03,04,16,26,28,29,31,32,,,,,1.1,0.6,0.9*3B
###2023-12-09 12:54:45.962358$GLGSA,A,3,65,71,72,73,74,75,,,,,,,1.1,0.6,0.9*24
###2023-12-09 12:54:45.963953$GAGSA,A,3,04,19,21,27,,,,,,,,,1.1,0.6,0.9*26
###2023-12-09 12:54:45.965594$GBGSA,A,3,14,24,25,26,33,,,,,,,,1.1,0.6,0.9*2F
###2023-12-09 12:54:45.967945$GPGSV,2,1,08,03,36,266,44,04,29,311,40,16,46,211,44,26,76,209,47*74
###2023-12-09 12:54:45.970274$GPGSV,2,2,08,28,52,067,44,29,25,064,44,31,70,029,47,32,22,138,41*70
###2023-12-09 12:54:45.972621$GLGSV,2,1,06,65,21,328,42,71,45,172,43,72,72,285,46,73,39,039,46*60
###2023-12-09 12:54:45.974370$GLGSV,2,2,06,74,71,324,43,75,29,249,44,,,,,,,,*62
###2023-12-09 12:54:45.976714$GAGSV,1,1,04,04,27,312,39,19,85,242,40,21,84,147,45,27,35,048,43*66
###2023-12-09 12:54:45.979053$GBGSV,2,1,05,14,46,194,44,24,75,018,49,25,39,260,46,26,28,061,45*65
###2023-12-09 12:54:45.980509$GBGSV,2,2,05,33,59,237,48,,,,,,,,,,,,*58
###2023-12-09 12:54:45.981830$GNVTG,162.26,T,,M,2.82,N,5.22,K,A*2F
###2023-12-09 12:54:45.983490$GNGST,175445.10,18.000,,,,0.080,0.068,0.160*58
###2023-12-09 12:54:45.984780$GNZDA,175445.10,09,12,2023,00,00*76
###2023-12-09 12:54:45.985418$GNEBP,,,,,,M*13
###2023-12-09 12:54:46.152903$GNGGA,175445.30,4138.0571484,N,07032.3962358,W,1,24,0.6,13.164,M,-29.744,M,0.0,*58
###2023-12-09 12:54:46.353673$GNGGA,175445.50,4138.0569901,N,07032.3961961,W,1,24,0.6,13.182,M,-29.744,M,0.0,*5C
###2023-12-09 12:54:46.552627$GNGGA,175445.70,4138.0568290,N,07032.3961466,W,1,24,0.6,13.177,M,-29.744,M,0.0,*5C
###2023-12-09 12:54:46.753691$GNGGA,175445.90,4138.0566663,N,07032.3960995,W,1,24,0.6,13.159,M,-29.744,M,0.0,*58
###2023-12-09 12:54:46.957140$GNRMC,175446.10,A,4138.0565052,N,07032.3960804,W,3.07,178.10,091223,,,A*5F
###2023-12-09 12:54:46.960030$GNGGA,175446.10,4138.0565052,N,07032.3960804,W,1,24,0.6,13.176,M,-29.744,M,0.0,*50
###2023-12-09 12:54:46.961892$GPGSA,A,3,03,04,16,26,28,29,31,32,,,,,1.1,0.6,0.9*3B
###2023-12-09 12:54:46.963629$GLGSA,A,3,65,71,72,73,74,75,,,,,,,1.1,0.6,0.9*24
###2023-12-09 12:54:46.965213$GAGSA,A,3,04,19,21,27,,,,,,,,,1.1,0.6,0.9*26
###2023-12-09 12:54:46.966881$GBGSA,A,3,14,24,25,26,33,,,,,,,,1.1,0.6,0.9*2F
###2023-12-09 12:54:46.969217$GPGSV,2,1,08,03,36,266,44,04,29,311,40,16,46,211,44,26,76,209,47*74
###2023-12-09 12:54:46.971577$GPGSV,2,2,08,28,52,067,45,29,25,064,44,31,70,029,47,32,22,138,41*71
###2023-12-09 12:54:46.973922$GLGSV,2,1,06,65,21,328,42,71,45,172,43,72,72,285,46,73,39,039,45*63
###2023-12-09 12:54:46.975687$GLGSV,2,2,06,74,71,324,43,75,29,249,45,,,,,,,,*63
###2023-12-09 12:54:46.978018$GAGSV,1,1,04,04,27,312,39,19,85,242,40,21,84,147,46,27,35,048,43*65
###2023-12-09 12:54:46.980364$GBGSV,2,1,05,14,46,194,43,24,75,018,49,25,39,260,46,26,28,061,45*62
###2023-12-09 12:54:46.981817$GBGSV,2,2,05,33,59,237,48,,,,,,,,,,,,*58
###2023-12-09 12:54:46.983146$GNVTG,178.10,T,,M,3.07,N,5.69,K,A*22
###2023-12-09 12:54:46.984789$GNGST,175446.10,18.000,,,,0.081,0.068,0.160*5A
###2023-12-09 12:54:46.986077$GNZDA,175446.10,09,12,2023,00,00*75
###2023-12-09 12:54:46.986724$GNEBP,,,,,,M*13
###2023-12-09 12:54:47.154906$GNGGA,175446.30,4138.0563306,N,07032.3960566,W,1,24,0.6,13.174,M,-29.744,M,0.0,*5D
###2023-12-09 12:54:47.355709$GNGGA,175446.50,4138.0561714,N,07032.3959964,W,1,24,0.6,13.139,M,-29.744,M,0.0,*53
###2023-12-09 12:54:47.555797$GNGGA,175446.70,4138.0560121,N,07032.3959601,W,1,24,0.6,13.167,M,-29.744,M,0.0,*57
###2023-12-09 12:54:47.755978$GNGGA,175446.90,4138.0558303,N,07032.3959550,W,1,24,0.6,13.192,M,-29.744,M,0.0,*5D
###2023-12-09 12:54:47.958181$GNRMC,175447.10,A,4138.0556673,N,07032.3959053,W,2.88,158.35,091223,,,A*58
###2023-12-09 12:54:47.961071$GNGGA,175447.10,4138.0556673,N,07032.3959053,W,1,24,0.6,13.157,M,-29.744,M,0.0,*57
###2023-12-09 12:54:47.962943$GPGSA,A,3,03,04,16,26,28,29,31,32,,,,,1.1,0.6,0.9*3B
###2023-12-09 12:54:47.964653$GLGSA,A,3,65,71,72,73,74,75,,,,,,,1.1,0.6,0.9*24
###2023-12-09 12:54:47.966238$GAGSA,A,3,04,19,21,27,,,,,,,,,1.1,0.6,0.9*26
###2023-12-09 12:54:47.967896$GBGSA,A,3,14,24,25,26,33,,,,,,,,1.1,0.6,0.9*2F
###2023-12-09 12:54:47.970229$GPGSV,2,1,08,03,36,266,45,04,29,311,42,16,46,211,45,26,76,209,47*76
###2023-12-09 12:54:47.972570$GPGSV,2,2,08,28,52,067,44,29,25,064,43,31,70,029,47,32,22,138,41*77
###2023-12-09 12:54:47.974908$GLGSV,2,1,06,65,21,328,42,71,45,172,45,72,72,285,46,73,39,039,46*66
###2023-12-09 12:54:47.976651$GLGSV,2,2,06,74,71,324,43,75,29,249,46,,,,,,,,*60
###2023-12-09 12:54:47.978988$GAGSV,1,1,04,04,27,312,41,19,85,242,40,21,84,147,46,27,35,048,42*6B
###2023-12-09 12:54:47.981316$GBGSV,2,1,05,14,46,194,44,24,75,018,48,25,39,260,47,26,28,061,44*64
###2023-12-09 12:54:47.982779$GBGSV,2,2,05,33,59,237,48,,,,,,,,,,,,*58
###2023-12-09 12:54:47.984102$GNVTG,158.35,T,,M,2.88,N,5.33,K,A*2E
###2023-12-09 12:54:47.985747$GNGST,175447.10,18.000,,,,0.081,0.067,0.160*54
###2023-12-09 12:54:47.987050$GNZDA,175447.10,09,12,2023,00,00*74
###2023-12-09 12:54:47.987688$GNEBP,,,,,,M*13
###2023-12-09 12:54:48.154852$GNGGA,175447.30,4138.0555151,N,07032.3958277,W,1,24,0.6,13.156,M,-29.744,M,0.0,*55
###2023-12-09 12:54:48.353619$GNGGA,175447.50,4138.0553452,N,07032.3957798,W,1,24,0.6,13.171,M,-29.744,M,0.0,*5D
###2023-12-09 12:54:48.554823$GNGGA,175447.70,4138.0551733,N,07032.3957361,W,1,24,0.6,13.170,M,-29.744,M,0.0,*5A
###2023-12-09 12:54:48.755218$GNGGA,175447.90,4138.0550119,N,07032.3956598,W,1,24,0.6,13.158,M,-29.744,M,0.0,*50
###2023-12-09 12:54:48.956527$GNRMC,175448.10,A,4138.0548621,N,07032.3955643,W,3.05,154.16,091223,,,A*5D
###2023-12-09 12:54:48.959395$GNGGA,175448.10,4138.0548621,N,07032.3955643,W,1,24,0.6,13.150,M,-29.744,M,0.0,*5C
###2023-12-09 12:54:48.961509$GPGSA,A,3,03,04,16,26,28,29,31,32,,,,,1.1,0.6,0.9*3B
###2023-12-09 12:54:48.963258$GLGSA,A,3,65,71,72,73,74,75,,,,,,,1.1,0.6,0.9*24
###2023-12-09 12:54:48.964854$GAGSA,A,3,04,19,21,27,,,,,,,,,1.1,0.6,0.9*26
###2023-12-09 12:54:48.966510$GBGSA,A,3,14,24,25,26,33,,,,,,,,1.1,0.6,0.9*2F
###2023-12-09 12:54:48.968865$GPGSV,2,1,08,03,36,266,44,04,29,311,40,16,46,211,45,26,76,209,48*7A
###2023-12-09 12:54:48.971228$GPGSV,2,2,08,28,52,067,45,29,25,064,44,31,70,029,46,32,22,138,41*70
###2023-12-09 12:54:48.973573$GLGSV,2,1,06,65,21,328,43,71,45,172,45,72,72,285,46,73,39,039,47*66
###2023-12-09 12:54:48.975331$GLGSV,2,2,06,74,71,324,43,75,29,249,45,,,,,,,,*63
###2023-12-09 12:54:48.977661$GAGSV,1,1,04,04,27,312,40,19,85,242,40,21,84,147,45,27,35,048,44*6F
###2023-12-09 12:54:48.980003$GBGSV,2,1,05,14,46,194,43,24,75,018,49,25,39,260,47,26,28,061,45*63
