###2023-12-09 12:30:10.929732$GNGGA,173010.10,4138.0383668,N,07032.4369500,W,1,18,0.7,13.063,M,-29.746,M,0.0,*54
###2023-12-09 12:30:10.931654$GPGSA,A,3,03,04,16,26,28,29,31,32,,,,,1.4,0.7,1.2*35
###2023-12-09 12:30:10.933267$GLGSA,A,3,71,72,73,75,,,,,,,,,1.4,0.7,1.2*2A
###2023-12-09 12:30:10.934760$GAGSA,A,3,21,27,,,,,,,,,,,1.4,0.7,1.2*24
###2023-12-09 12:30:10.936364$GBGSA,A,3,14,25,26,33,,,,,,,,,1.4,0.7,1.2*27
###2023-12-09 12:30:10.938719$GPGSV,2,1,08,03,39,280,40,04,20,310,35,16,34,206,41,26,64,206,44*74
###2023-12-09 12:30:10.941060$GPGSV,2,2,08,28,60,053,45,29,25,076,44,31,73,353,43,32,32,133,48*7E
###2023-12-09 12:30:10.943412$GLGSV,1,1,04,71,59,168,48,72,64,313,43,73,50,032,43,75,20,239,37*62
###2023-12-09 12:30:10.945164$GAGSV,1,1,02,21,76,178,38,27,43,050,43,,,,,,,,*6D
###2023-12-09 12:30:10.947541$GBGSV,1,1,04,14,57,199,44,25,31,251,39,26,37,056,45,33,64,260,35*62
###2023-12-09 12:30:10.948707$GNVTG,,T,,M,0.02,N,0.04,K,A*3B
###2023-12-09 12:30:10.950376$GNGST,173010.10,31.000,,,,0.100,0.098,0.260*54
###2023-12-09 12:30:10.951702$GNZDA,173010.10,09,12,2023,00,00*74
###2023-12-09 12:30:10.952358$GNEBP,,,,,,M*13
###2023-12-09 12:30:11.125304$GNGGA,173010.30,4138.0383648,N,07032.4369472,W,1,18,0.7,13.066,M,-29.746,M,0.0,*55
###2023-12-09 12:30:11.326331$GNGGA,173010.50,4138.0383631,N,07032.4369444,W,1,18,0.7,13.071,M,-29.746,M,0.0,*5E
###2023-12-09 12:30:11.524835$GNGGA,173010.70,4138.0383612,N,07032.4369428,W,1,18,0.7,13.070,M,-29.746,M,0.0,*56
###2023-12-09 12:30:11.722635$GNGGA,173010.90,4138.0383605,N,07032.4369430,W,1,18,0.7,13.066,M,-29.746,M,0.0,*50
###2023-12-09 12:30:11.923970$GNRMC,173011.10,A,4138.0383586,N,07032.4369418,W,0.02,,091223,,,A*4F
###2023-12-09 12:30:11.927078$GNGGA,173011.10,4138.0383586,N,07032.4369418,W,1,18,0.7,13.068,M,-29.746,M,0.0,*55
###2023-12-09 12:30:11.929119$GPGSA,A,3,03,04,16,26,28,29,31,32,,,,,1.4,0.7,1.2*35
###2023-12-09 12:30:11.930888$GLGSA,A,3,71,72,73,75,,,,,,,,,1.4,0.7,1.2*2A
###2023-12-09 12:30:11.932508$GAGSA,A,3,21,27,,,,,,,,,,,1.4,0.7,1.2*24
###2023-12-09 12:30:11.934258$GBGSA,A,3,14,25,26,33,,,,,,,,,1.4,0.7,1.2*27
###2023-12-09 12:30:11.936771$GPGSV,2,1,08,03,39,280,40,04,20,310,35,16,34,206,41,26,64,206,44*74
###2023-12-09 12:30:11.939294$GPGSV,2,2,08,28,60,053,45,29,25,076,43,31,73,353,43,32,32,133,48*79
###2023-12-09 12:30:11.941806$GLGSV,1,1,04,71,59,168,48,72,64,313,43,73,50,032,43,75,20,239,37*62
###2023-12-09 12:30:11.943767$GAGSV,1,1,02,21,76,178,38,27,43,050,44,,,,,,,,*6A
###2023-12-09 12:30:11.946279$GBGSV,1,1,04,14,57,199,44,25,31,251,39,26,37,056,45,33,64,260,35*62
###2023-12-09 12:30:11.947491$GNVTG,,T,,M,0.02,N,0.04,K,A*3B
###2023-12-09 12:30:11.949176$GNGST,173011.10,31.000,,,,0.100,0.099,0.260*54
###2023-12-09 12:30:11.950490$GNZDA,173011.10,09,12,2023,00,00*75
###2023-12-09 12:30:11.951171$GNEBP,,,,,,M*13
###2023-12-09 12:30:12.123697$GNGGA,173011.30,4138.0383571,N,07032.4369394,W,1,18,0.7,13.071,M,-29.746,M,0.0,*54
###2023-12-09 12:30:12.325419$GNGGA,173011.50,4138.0383561,N,07032.4369380,W,1,18,0.7,13.069,M,-29.746,M,0.0,*5F
###2023-12-09 12:30:12.527384$GNGGA,173011.70,4138.0383552,N,07032.4369379,W,1,18,0.7,13.066,M,-29.746,M,0.0,*54
###2023-12-09 12:30:12.724384$GNGGA,173011.90,4138.0383547,N,07032.4369378,W,1,18,0.7,13.069,M,-29.746,M,0.0,*50
###2023-12-09 12:30:12.925859$GNRMC,173012.10,A,4138.0383533,N,07032.4369375,W,0.04,,091223,,,A*48
###2023-12-09 12:30:12.928957$GNGGA,173012.10,4138.0383533,N,07032.4369375,W,1,18,0.7,13.072,M,-29.746,M,0.0,*5F
###2023-12-09 12:30:12.930863$GPGSA,A,3,03,04,16,26,28,29,31,32,,,,,1.4,0.7,1.2*35
###2023-12-09 12:30:12.932475$GLGSA,A,3,71,72,73,75,,,,,,,,,1.4,0.7,1.2*2A
###2023-12-09 12:30:12.933942$GAGSA,A,3,21,27,,,,,,,,,,,1.4,0.7,1.2*24
###2023-12-09 12:30:12.935556$GBGSA,A,3,14,25,26,33,,,,,,,,,1.4,0.7,1.2*27
###2023-12-09 12:30:12.937916$GPGSV,2,1,08,03,39,280,40,04,20,310,35,16,34,206,41,26,64,206,44*74
###2023-12-09 12:30:12.940272$GPGSV,2,2,08,28,60,053,45,29,25,076,43,31,73,353,43,32,32,133,48*79
###2023-12-09 12:30:12.942649$GLGSV,1,1,04,71,59,168,48,72,64,313,43,73,50,032,43,75,20,239,37*62
###2023-12-09 12:30:12.944419$GAGSV,1,1,02,21,76,178,38,27,43,050,44,,,,,,,,*6A
###2023-12-09 12:30:12.946797$GBGSV,1,1,04,14,57,199,44,25,31,251,39,26,37,056,45,33,64,260,35*62
###2023-12-09 12:30:12.947964$GNVTG,,T,,M,0.04,N,0.07,K,A*3E
###2023-12-09 12:30:12.949634$GNGST,173012.10,31.000,,,,0.100,0.099,0.260*57
###2023-12-09 12:30:12.950962$GNZDA,173012.10,09,12,2023,00,00*76
###2023-12-09 12:30:12.951618$GNEBP,,,,,,M*13
###2023-12-09 12:30:13.126702$GNGGA,173012.30,4138.0383525,N,07032.4369370,W,1,17,0.7,13.073,M,-29.746,M,0.0,*51
###2023-12-09 12:30:13.324736$GNGGA,173012.50,4138.0383514,N,07032.4369366,W,1,17,0.7,13.069,M,-29.746,M,0.0,*59
###2023-12-09 12:30:13.524927$GNGGA,173012.70,4138.0383505,N,07032.4369353,W,1,17,0.7,13.074,M,-29.746,M,0.0,*51
###2023-12-09 12:30:13.723788$GNGGA,173012.90,4138.0383492,N,07032.4369359,W,1,17,0.7,13.073,M,-29.746,M,0.0,*5D
###2023-12-09 12:30:13.924664$GNRMC,173013.10,A,4138.0383490,N,07032.4369348,W,0.02,,091223,,,A*49
###2023-12-09 12:30:13.927545$GNGGA,173013.10,4138.0383490,N,07032.4369348,W,1,17,0.7,13.078,M,-29.746,M,0.0,*5D
###2023-12-09 12:30:13.929421$GPGSA,A,3,03,04,16,26,28,29,31,32,,,,,1.4,0.7,1.2*35
###2023-12-09 12:30:13.931037$GLGSA,A,3,71,72,73,75,,,,,,,,,1.4,0.7,1.2*2A
###2023-12-09 12:30:13.932504$GAGSA,A,3,21,27,,,,,,,,,,,1.4,0.7,1.2*24
###2023-12-09 12:30:13.934033$GBGSA,A,3,14,25,26,,,,,,,,,,1.4,0.7,1.2*27
###2023-12-09 12:30:13.936398$GPGSV,2,1,08,03,39,280,40,04,20,310,35,16,34,206,41,26,64,206,44*74
###2023-12-09 12:30:13.938763$GPGSV,2,2,08,28,60,053,45,29,25,076,44,31,73,353,43,32,32,133,48*7E
###2023-12-09 12:30:13.941116$GLGSV,1,1,04,71,59,168,48,72,64,313,43,73,50,032,43,75,20,239,37*62
###2023-12-09 12:30:13.942884$GAGSV,1,1,02,21,76,178,39,27,43,050,44,,,,,,,,*6B
###2023-12-09 12:30:13.944926$GBGSV,1,1,03,14,57,199,44,25,31,251,39,26,37,056,45,,,,*55
###2023-12-09 12:30:13.946066$GNVTG,,T,,M,0.02,N,0.04,K,A*3B
###2023-12-09 12:30:13.947760$GNGST,173013.10,31.000,,,,0.100,0.099,0.260*56
###2023-12-09 12:30:13.949088$GNZDA,173013.10,09,12,2023,00,00*77
###2023-12-09 12:30:13.949745$GNEBP,,,,,,M*13
###2023-12-09 12:30:14.123151$GNGGA,173013.30,4138.0383480,N,07032.4369362,W,1,17,0.7,13.075,M,-29.746,M,0.0,*5B
###2023-12-09 12:30:14.323701$GNGGA,173013.50,4138.0383480,N,07032.4369377,W,1,17,0.7,13.067,M,-29.746,M,0.0,*5A
###2023-12-09 12:30:14.523850$GNGGA,173013.70,4138.0383469,N,07032.4369391,W,1,17,0.7,13.064,M,-29.746,M,0.0,*54
###2023-12-09 12:30:14.722713$GNGGA,173013.90,4138.0383461,N,07032.4369407,W,1,17,0.7,13.057,M,-29.746,M,0.0,*5A
###2023-12-09 12:30:14.925982$GNRMC,173014.10,A,4138.0383451,N,07032.4369417,W,0.06,,091223,,,A*4A
###2023-12-09 12:30:14.929089$GNGGA,173014.10,4138.0383451,N,07032.4369417,W,1,17,0.7,13.051,M,-29.746,M,0.0,*51
###2023-12-09 12:30:14.930998$GPGSA,A,3,03,04,16,26,28,29,31,32,,,,,1.4,0.7,1.2*35
###2023-12-09 12:30:14.932613$GLGSA,A,3,71,72,73,75,,,,,,,,,1.4,0.7,1.2*2A
###2023-12-09 12:30:14.934081$GAGSA,A,3,21,27,,,,,,,,,,,1.4,0.7,1.2*24
###2023-12-09 12:30:14.935626$GBGSA,A,3,14,25,26,,,,,,,,,,1.4,0.7,1.2*27
###2023-12-09 12:30:14.937973$GPGSV,2,1,08,03,39,280,40,04,20,310,35,16,34,206,41,26,64,206,44*74
###2023-12-09 12:30:14.940340$GPGSV,2,2,08,28,60,053,45,29,25,076,44,31,73,353,43,32,32,133,48*7E
###2023-12-09 12:30:14.942709$GLGSV,1,1,04,71,59,168,48,72,64,313,43,73,50,032,43,75,20,239,37*62
###2023-12-09 12:30:14.944461$GAGSV,1,1,02,21,76,178,38,27,43,050,43,,,,,,,,*6D
###2023-12-09 12:30:14.946517$GBGSV,1,1,03,14,57,199,44,25,31,251,39,26,37,056,45,,,,*55
###2023-12-09 12:30:14.947696$GNVTG,,T,,M,0.06,N,0.11,K,A*3B
###2023-12-09 12:30:14.949359$GNGST,173014.10,31.000,,,,0.100,0.100,0.260*50
###2023-12-09 12:30:14.950684$GNZDA,173014.10,09,12,2023,00,00*70
###2023-12-09 12:30:14.951343$GNEBP,,,,,,M*13
###2023-12-09 12:30:15.125534$GNGGA,173014.30,4138.0383452,N,07032.4369446,W,1,17,0.7,13.040,M,-29.746,M,0.0,*54
###2023-12-09 12:30:15.325719$GNGGA,173014.50,4138.0383432,N,07032.4369463,W,1,17,0.7,13.037,M,-29.746,M,0.0,*53
###2023-12-09 12:30:15.523601$GNGGA,173014.70,4138.0383417,N,07032.4369494,W,1,17,0.7,13.024,M,-29.746,M,0.0,*5C
###2023-12-09 12:30:15.725020$GNGGA,173014.90,4138.0383408,N,07032.4369530,W,1,17,0.7,13.015,M,-29.746,M,0.0,*51
###2023-12-09 12:30:15.925437$GNRMC,173015.10,A,4138.0383385,N,07032.4369527,W,0.08,,091223,,,A*49
###2023-12-09 12:30:15.929017$GNGGA,173015.10,4138.0383385,N,07032.4369527,W,1,17,0.7,13.013,M,-29.746,M,0.0,*5A
###2023-12-09 12:30:15.931359$GPGSA,A,3,03,04,16,26,28,29,31,32,,,,,1.4,0.7,1.2*35
###2023-12-09 12:30:15.933332$GLGSA,A,3,71,72,73,75,,,,,,,,,1.4,0.7,1.2*2A
###2023-12-09 12:30:15.935152$GAGSA,A,3,21,27,,,,,,,,,,,1.4,0.7,1.2*24
###2023-12-09 12:30:15.937032$GBGSA,A,3,14,25,26,,,,,,,,,,1.4,0.7,1.2*27
