###2023-12-09 13:02:49.992025$GBGSV,2,1,05,14,43,193,44,24,73,026,49,25,41,263,44,26,26,063,42*69
###2023-12-09 13:02:49.993505$GBGSV,2,2,05,33,57,231,48,,,,,,,,,,,,*50
###2023-12-09 13:02:49.994846$GNVTG,270.65,T,,M,3.62,N,6.70,K,A*23
###2023-12-09 13:02:49.996493$GNGST,180249.10,18.000,,,,0.081,0.069,0.160*58
###2023-12-09 13:02:49.997785$GNZDA,180249.10,09,12,2023,00,00*76
###2023-12-09 13:02:49.998424$GNEBP,,,,,,M*13
###2023-12-09 13:02:50.165196$GNGGA,180249.30,4138.0467315,N,07032.3517712,W,1,24,0.6,13.386,M,-29.744,M,0.0,*5B
###2023-12-09 13:02:50.365590$GNGGA,180249.50,4138.0467378,N,07032.3520286,W,1,24,0.6,13.375,M,-29.744,M,0.0,*56
###2023-12-09 13:02:50.567255$GNGGA,180249.70,4138.0467535,N,07032.3522805,W,1,24,0.6,13.372,M,-29.744,M,0.0,*5F
###2023-12-09 13:02:50.765754$GNGGA,180249.90,4138.0467769,N,07032.3525261,W,1,24,0.6,13.369,M,-29.744,M,0.0,*5F
###2023-12-09 13:02:50.967202$GNRMC,180250.10,A,4138.0468033,N,07032.3527626,W,3.25,278.27,091223,,,A*59
###2023-12-09 13:02:50.970072$GNGGA,180250.10,4138.0468033,N,07032.3527626,W,1,24,0.6,13.378,M,-29.744,M,0.0,*5D
###2023-12-09 13:02:50.971946$GPGSA,A,3,03,04,16,26,28,29,31,32,,,,,1.1,0.6,0.9*3B
###2023-12-09 13:02:50.973663$GLGSA,A,3,65,71,72,73,74,75,,,,,,,1.1,0.6,0.9*24
###2023-12-09 13:02:50.975262$GAGSA,A,3,04,19,21,27,,,,,,,,,1.1,0.6,0.9*26
###2023-12-09 13:02:50.976910$GBGSA,A,3,14,24,25,26,33,,,,,,,,1.1,0.6,0.9*2F
###2023-12-09 13:02:50.979261$GPGSV,2,1,08,03,35,261,42,04,33,311,40,16,50,212,45,26,80,210,48*76
###2023-12-09 13:02:50.981607$GPGSV,2,2,08,28,49,070,45,29,25,061,42,31,69,038,47,32,19,140,43*73
###2023-12-09 13:02:50.983954$GLGSV,2,1,06,65,25,327,38,71,40,173,47,72,73,265,45,73,35,042,46*6A
###2023-12-09 13:02:50.985704$GLGSV,2,2,06,74,69,340,42,75,33,254,42,,,,,,,,*69
###2023-12-09 13:02:50.988053$GAGSV,1,1,04,04,29,312,38,19,84,213,40,21,86,114,46,27,32,048,42*6D
###2023-12-09 13:02:50.990376$GBGSV,2,1,05,14,43,193,45,24,73,026,49,25,41,263,45,26,26,063,42*69
###2023-12-09 13:02:50.991839$GBGSV,2,2,05,33,57,231,48,,,,,,,,,,,,*50
###2023-12-09 13:02:50.993163$GNVTG,278.27,T,,M,3.25,N,6.01,K,A*28
###2023-12-09 13:02:50.994817$GNGST,180250.10,18.000,,,,0.082,0.070,0.160*5B
###2023-12-09 13:02:50.996112$GNZDA,180250.10,09,12,2023,00,00*7E
###2023-12-09 13:02:50.996748$GNEBP,,,,,,M*13
###2023-12-09 13:02:51.167974$GNGGA,180250.30,4138.0468359,N,07032.3529940,W,1,24,0.6,13.386,M,-29.744,M,0.0,*50
###2023-12-09 13:02:51.365921$GNGGA,180250.50,4138.0468749,N,07032.3532246,W,1,24,0.6,13.387,M,-29.744,M,0.0,*55
###2023-12-09 13:02:51.565169$GNGGA,180250.70,4138.0469179,N,07032.3534540,W,1,24,0.6,13.388,M,-29.744,M,0.0,*5B
###2023-12-09 13:02:51.766558$GNGGA,180250.90,4138.0469618,N,07032.3536846,W,1,24,0.6,13.402,M,-29.744,M,0.0,*59
###2023-12-09 13:02:51.968321$GNRMC,180251.10,A,4138.0470015,N,07032.3539189,W,3.27,280.70,091223,,,A*5F
###2023-12-09 13:02:51.971234$GNGGA,180251.10,4138.0470015,N,07032.3539189,W,1,24,0.6,13.400,M,-29.744,M,0.0,*54
###2023-12-09 13:02:51.973100$GPGSA,A,3,03,04,16,26,28,29,31,32,,,,,1.1,0.6,0.9*3B
###2023-12-09 13:02:51.974829$GLGSA,A,3,65,71,72,73,74,75,,,,,,,1.1,0.6,0.9*24
###2023-12-09 13:02:51.976411$GAGSA,A,3,04,19,21,27,,,,,,,,,1.1,0.6,0.9*26
###2023-12-09 13:02:51.978060$GBGSA,A,3,14,24,25,26,33,,,,,,,,1.1,0.6,0.9*2F
###2023-12-09 13:02:51.980404$GPGSV,2,1,08,03,35,261,42,04,33,311,42,16,50,212,46,26,80,210,48*77
###2023-12-09 13:02:51.982765$GPGSV,2,2,08,28,49,070,45,29,25,061,42,31,69,038,47,32,19,140,43*73
###2023-12-09 13:02:51.985099$GLGSV,2,1,06,65,25,327,38,71,40,173,47,72,73,265,46,73,35,042,45*6A
###2023-12-09 13:02:51.986860$GLGSV,2,2,06,74,69,340,42,75,33,254,42,,,,,,,,*69
###2023-12-09 13:02:51.989195$GAGSV,1,1,04,04,29,312,40,19,84,213,40,21,86,114,46,27,32,048,42*62
###2023-12-09 13:02:51.991539$GBGSV,2,1,05,14,43,193,45,24,73,026,48,25,41,263,44,26,26,063,42*69
###2023-12-09 13:02:51.992992$GBGSV,2,2,05,33,57,231,48,,,,,,,,,,,,*50
###2023-12-09 13:02:51.994315$GNVTG,280.70,T,,M,3.27,N,6.05,K,A*2B
###2023-12-09 13:02:51.995976$GNGST,180251.10,18.000,,,,0.082,0.070,0.160*5A
###2023-12-09 13:02:51.997269$GNZDA,180251.10,09,12,2023,00,00*7F
###2023-12-09 13:02:51.997906$GNEBP,,,,,,M*13
###2023-12-09 13:02:52.165772$GNGGA,180251.30,4138.0470352,N,07032.3541586,W,1,24,0.6,13.397,M,-29.744,M,0.0,*5B
###2023-12-09 13:02:52.366561$GNGGA,180251.50,4138.0470707,N,07032.3544037,W,1,24,0.6,13.400,M,-29.744,M,0.0,*5A
###2023-12-09 13:02:52.564989$GNGGA,180251.70,4138.0471066,N,07032.3546567,W,1,24,0.6,13.408,M,-29.744,M,0.0,*53
###2023-12-09 13:02:52.765243$GNGGA,180251.90,4138.0471283,N,07032.3549173,W,1,24,0.6,13.408,M,-29.744,M,0.0,*5A
###2023-12-09 13:02:52.967736$GNRMC,180252.10,A,4138.0471301,N,07032.3551798,W,3.58,267.71,091223,,,A*53
###2023-12-09 13:02:52.970612$GNGGA,180252.10,4138.0471301,N,07032.3551798,W,1,24,0.6,13.407,M,-29.744,M,0.0,*5F
###2023-12-09 13:02:52.972477$GPGSA,A,3,03,04,16,26,28,29,31,32,,,,,1.1,0.6,0.9*3B
###2023-12-09 13:02:52.974187$GLGSA,A,3,65,71,72,73,74,75,,,,,,,1.1,0.6,0.9*24
###2023-12-09 13:02:52.975773$GAGSA,A,3,04,19,21,27,,,,,,,,,1.1,0.6,0.9*26
###2023-12-09 13:02:52.977420$GBGSA,A,3,14,24,25,26,33,,,,,,,,1.1,0.6,0.9*2F
###2023-12-09 13:02:52.979757$GPGSV,2,1,08,03,35,261,43,04,33,311,42,16,50,212,46,26,80,210,48*76
###2023-12-09 13:02:52.982092$GPGSV,2,2,08,28,49,070,45,29,25,061,44,31,69,038,47,32,19,140,44*72
###2023-12-09 13:02:52.984428$GLGSV,2,1,06,65,25,327,41,71,40,173,47,72,73,265,45,73,35,042,45*67
###2023-12-09 13:02:52.986169$GLGSV,2,2,06,74,69,340,42,75,33,254,44,,,,,,,,*6F
###2023-12-09 13:02:52.988508$GAGSV,1,1,04,04,29,312,40,19,84,213,40,21,86,114,46,27,32,048,41*61
###2023-12-09 13:02:52.990842$GBGSV,2,1,05,14,43,193,44,24,73,026,49,25,41,263,44,26,26,063,44*6F
###2023-12-09 13:02:52.992297$GBGSV,2,2,05,33,57,231,48,,,,,,,,,,,,*50
###2023-12-09 13:02:52.993616$GNVTG,267.71,T,,M,3.58,N,6.62,K,A*2A
###2023-12-09 13:02:52.995305$GNGST,180252.10,18.000,,,,0.082,0.070,0.160*59
###2023-12-09 13:02:52.996601$GNZDA,180252.10,09,12,2023,00,00*7C
###2023-12-09 13:02:52.997241$GNEBP,,,,,,M*13
###2023-12-09 13:02:53.165896$GNGGA,180252.30,4138.0471220,N,07032.3554516,W,1,24,0.6,13.405,M,-29.744,M,0.0,*5C
###2023-12-09 13:02:53.365369$GNGGA,180252.50,4138.0471096,N,07032.3557239,W,1,24,0.6,13.406,M,-29.744,M,0.0,*5F
###2023-12-09 13:02:53.566601$GNGGA,180252.70,4138.0470822,N,07032.3559920,W,1,24,0.6,13.399,M,-29.744,M,0.0,*57
###2023-12-09 13:02:53.766645$GNGGA,180252.90,4138.0470342,N,07032.3562521,W,1,24,0.6,13.400,M,-29.744,M,0.0,*56
###2023-12-09 13:02:53.967864$GNRMC,180253.10,A,4138.0469856,N,07032.3565110,W,3.60,257.51,091223,,,A*59
###2023-12-09 13:02:53.970767$GNGGA,180253.10,4138.0469856,N,07032.3565110,W,1,24,0.6,13.392,M,-29.744,M,0.0,*54
###2023-12-09 13:02:53.972634$GPGSA,A,3,03,04,16,26,28,29,31,32,,,,,1.1,0.6,0.9*3B
###2023-12-09 13:02:53.974345$GLGSA,A,3,65,71,72,73,74,75,,,,,,,1.1,0.6,0.9*24
###2023-12-09 13:02:53.975945$GAGSA,A,3,04,19,21,27,,,,,,,,,1.1,0.6,0.9*26
###2023-12-09 13:02:53.977588$GBGSA,A,3,14,24,25,26,33,,,,,,,,1.1,0.6,0.9*2F
###2023-12-09 13:02:53.979927$GPGSV,2,1,08,03,35,261,43,04,33,311,42,16,50,212,46,26,80,210,48*76
###2023-12-09 13:02:53.982256$GPGSV,2,2,08,28,49,070,45,29,25,061,43,31,69,038,47,32,19,140,44*75
###2023-12-09 13:02:53.984592$GLGSV,2,1,06,65,25,327,41,71,40,173,46,72,73,265,45,73,35,042,45*66
###2023-12-09 13:02:53.986330$GLGSV,2,2,06,74,69,340,42,75,33,254,44,,,,,,,,*6F
###2023-12-09 13:02:53.988701$GAGSV,1,1,04,04,29,312,40,19,84,213,40,21,86,114,46,27,32,048,43*63
###2023-12-09 13:02:53.991035$GBGSV,2,1,05,14,43,193,44,24,73,026,49,25,41,263,45,26,26,063,43*69
###2023-12-09 13:02:53.992492$GBGSV,2,2,05,33,57,231,47,,,,,,,,,,,,*5F
###2023-12-09 13:02:53.993811$GNVTG,257.51,T,,M,3.60,N,6.66,K,A*24
###2023-12-09 13:02:53.995467$GNGST,180253.10,18.000,,,,0.081,0.069,0.160*53
###2023-12-09 13:02:53.996756$GNZDA,180253.10,09,12,2023,00,00*7D
###2023-12-09 13:02:53.997392$GNEBP,,,,,,M*13
###2023-12-09 13:02:54.165230$GNGGA,180253.30,4138.0469513,N,07032.3567761,W,1,24,0.6,13.395,M,-29.744,M,0.0,*5F
###2023-12-09 13:02:54.366439$GNGGA,180253.50,4138.0469194,N,07032.3570402,W,1,24,0.6,13.382,M,-29.744,M,0.0,*54
###2023-12-09 13:02:54.565824$GNGGA,180253.70,4138.0468854,N,07032.3573018,W,1,24,0.6,13.382,M,-29.744,M,0.0,*5E
###2023-12-09 13:02:54.769220$GNGGA,180253.90,4138.0468533,N,07032.3575619,W,1,24,0.6,13.387,M,-29.744,M,0.0,*58
###2023-12-09 13:02:54.967277$GNRMC,180254.10,A,4138.0468356,N,07032.3578229,W,3.48,268.11,091223,,,A*53
###2023-12-09 13:02:54.970145$GNGGA,180254.10,4138.0468356,N,07032.3578229,W,1,24,0.6,13.388,M,-29.744,M,0.0,*57
###2023-12-09 13:02:54.972013$GPGSA,A,3,03,04,16,26,28,29,31,32,,,,,1.1,0.6,0.9*3B
###2023-12-09 13:02:54.973734$GLGSA,A,3,65,71,72,73,74,75,,,,,,,1.1,0.6,0.9*24
###2023-12-09 13:02:54.975330$GAGSA,A,3,04,19,21,27,,,,,,,,,1.1,0.6,0.9*26
###2023-12-09 13:02:54.976984$GBGSA,A,3,14,24,25,26,33,,,,,,,,1.1,0.6,0.9*2F
