###2023-12-09 12:49:39.951240$GNGGA,174939.10,4138.0646225,N,07032.3910819,W,1,24,0.6,13.319,M,-29.744,M,0.0,*54
###2023-12-09 12:49:39.953114$GPGSA,A,3,03,04,16,26,28,29,31,32,,,,,1.1,0.6,0.9*3B
###2023-12-09 12:49:39.954848$GLGSA,A,3,65,71,72,73,74,75,,,,,,,1.1,0.6,0.9*24
###2023-12-09 12:49:39.956429$GAGSA,A,3,04,19,21,27,,,,,,,,,1.1,0.6,0.9*26
###2023-12-09 12:49:39.958069$GBGSA,A,3,14,24,25,26,33,,,,,,,,1.1,0.6,0.9*2F
###2023-12-09 12:49:39.960404$GPGSV,2,1,08,03,37,268,45,04,28,311,42,16,44,210,47,26,74,208,49*74
###2023-12-09 12:49:39.962752$GPGSV,2,2,08,28,53,064,44,29,26,067,41,31,71,021,47,32,24,137,45*73
###2023-12-09 12:49:39.965081$GLGSV,2,1,06,65,18,329,38,71,48,171,49,72,71,291,46,73,41,038,45*69
###2023-12-09 12:49:39.966851$GLGSV,2,2,06,74,71,317,41,75,28,247,44,,,,,,,,*6F
###2023-12-09 12:49:39.969167$GAGSV,1,1,04,04,25,312,40,19,85,269,41,21,83,162,46,27,37,048,42*62
###2023-12-09 12:49:39.971503$GBGSV,2,1,05,14,49,195,47,24,77,011,48,25,37,257,47,26,30,060,44*60
###2023-12-09 12:49:39.972960$GBGSV,2,2,05,33,61,241,47,,,,,,,,,,,,*5D
###2023-12-09 12:49:39.974280$GNVTG,340.16,T,,M,0.72,N,1.33,K,A*27
###2023-12-09 12:49:39.975934$GNGST,174939.10,18.000,,,,0.076,0.067,0.160*59
###2023-12-09 12:49:39.977227$GNZDA,174939.10,09,12,2023,00,00*71
###2023-12-09 12:49:39.977866$GNEBP,,,,,,M*13
###2023-12-09 12:49:40.145889$GNGGA,174939.30,4138.0646640,N,07032.3911029,W,1,24,0.6,13.311,M,-29.744,M,0.0,*53
###2023-12-09 12:49:40.347060$GNGGA,174939.50,4138.0646924,N,07032.3911153,W,1,24,0.6,13.313,M,-29.744,M,0.0,*56
###2023-12-09 12:49:40.545721$GNGGA,174939.70,4138.0646884,N,07032.3911112,W,1,24,0.6,13.327,M,-29.744,M,0.0,*5D
###2023-12-09 12:49:40.745518$GNGGA,174939.90,4138.0646880,N,07032.3911120,W,1,24,0.6,13.323,M,-29.744,M,0.0,*52
###2023-12-09 12:49:40.947776$GNRMC,174940.10,A,4138.0647243,N,07032.3911330,W,0.97,340.16,091223,,,A*5B
###2023-12-09 12:49:40.950653$GNGGA,174940.10,4138.0647243,N,07032.3911330,W,1,24,0.6,13.325,M,-29.744,M,0.0,*55
###2023-12-09 12:49:40.952505$GPGSA,A,3,03,04,16,26,28,29,31,32,,,,,1.1,0.6,0.9*3B
###2023-12-09 12:49:40.954217$GLGSA,A,3,65,71,72,73,74,75,,,,,,,1.1,0.6,0.9*24
###2023-12-09 12:49:40.955816$GAGSA,A,3,04,19,21,27,,,,,,,,,1.1,0.6,0.9*26
###2023-12-09 12:49:40.957461$GBGSA,A,3,14,24,25,26,33,,,,,,,,1.1,0.6,0.9*2F
###2023-12-09 12:49:40.959806$GPGSV,2,1,08,03,37,268,45,04,28,311,40,16,44,210,46,26,74,208,48*76
###2023-12-09 12:49:40.962140$GPGSV,2,2,08,28,53,064,44,29,26,067,41,31,71,021,46,32,24,137,43*74
###2023-12-09 12:49:40.964491$GLGSV,2,1,06,65,18,329,39,71,48,171,49,72,71,291,46,73,41,038,45*68
###2023-12-09 12:49:40.966237$GLGSV,2,2,06,74,71,317,42,75,28,247,45,,,,,,,,*6D
###2023-12-09 12:49:40.968581$GAGSV,1,1,04,04,25,312,40,19,85,269,40,21,83,162,46,27,37,048,41*60
###2023-12-09 12:49:40.970925$GBGSV,2,1,05,14,49,195,47,24,77,011,48,25,37,257,47,26,30,060,44*60
###2023-12-09 12:49:40.972379$GBGSV,2,2,05,33,61,241,47,,,,,,,,,,,,*5D
###2023-12-09 12:49:40.973701$GNVTG,340.16,T,,M,0.97,N,1.80,K,A*24
###2023-12-09 12:49:40.975363$GNGST,174940.10,18.000,,,,0.076,0.067,0.160*57
###2023-12-09 12:49:40.976654$GNZDA,174940.10,09,12,2023,00,00*7F
###2023-12-09 12:49:40.977293$GNEBP,,,,,,M*13
###2023-12-09 12:49:41.146754$GNGGA,174940.30,4138.0647745,N,07032.3911567,W,1,24,0.6,13.310,M,-29.744,M,0.0,*56
###2023-12-09 12:49:41.348057$GNGGA,174940.50,4138.0647853,N,07032.3911621,W,1,24,0.6,13.293,M,-29.744,M,0.0,*53
###2023-12-09 12:49:41.548151$GNGGA,174940.70,4138.0647693,N,07032.3911553,W,1,24,0.6,13.291,M,-29.744,M,0.0,*57
###2023-12-09 12:49:41.746703$GNGGA,174940.90,4138.0647859,N,07032.3911647,W,1,24,0.6,13.308,M,-29.744,M,0.0,*56
###2023-12-09 12:49:41.946531$GNRMC,174941.10,A,4138.0648426,N,07032.3911943,W,1.21,337.45,091223,,,A*54
###2023-12-09 12:49:41.949428$GNGGA,174941.10,4138.0648426,N,07032.3911943,W,1,24,0.6,13.322,M,-29.744,M,0.0,*57
###2023-12-09 12:49:41.951325$GPGSA,A,3,03,04,16,26,28,29,31,32,,,,,1.1,0.6,0.9*3B
###2023-12-09 12:49:41.953045$GLGSA,A,3,65,71,72,73,74,75,,,,,,,1.1,0.6,0.9*24
###2023-12-09 12:49:41.954643$GAGSA,A,3,04,19,21,27,,,,,,,,,1.1,0.6,0.9*26
###2023-12-09 12:49:41.956288$GBGSA,A,3,14,24,25,26,33,,,,,,,,1.1,0.6,0.9*2F
###2023-12-09 12:49:41.958625$GPGSV,2,1,08,03,37,268,46,04,28,311,41,16,44,210,45,26,74,208,48*77
###2023-12-09 12:49:41.960950$GPGSV,2,2,08,28,53,065,45,29,26,067,41,31,71,021,48,32,24,137,41*78
###2023-12-09 12:49:41.963290$GLGSV,2,1,06,65,18,329,43,71,48,171,47,72,71,291,46,73,41,038,45*6B
###2023-12-09 12:49:41.965035$GLGSV,2,2,06,74,71,317,43,75,28,247,45,,,,,,,,*6C
###2023-12-09 12:49:41.967369$GAGSV,1,1,04,04,25,312,40,19,85,269,40,21,83,162,46,27,37,048,41*60
###2023-12-09 12:49:41.969694$GBGSV,2,1,05,14,49,195,46,24,77,011,50,25,37,257,47,26,30,060,44*68
###2023-12-09 12:49:41.971160$GBGSV,2,2,05,33,61,241,48,,,,,,,,,,,,*52
###2023-12-09 12:49:41.972474$GNVTG,337.45,T,,M,1.21,N,2.23,K,A*24
###2023-12-09 12:49:41.974115$GNGST,174941.10,18.000,,,,0.076,0.067,0.160*56
###2023-12-09 12:49:41.975411$GNZDA,174941.10,09,12,2023,00,00*7E
###2023-12-09 12:49:41.976046$GNEBP,,,,,,M*13
###2023-12-09 12:49:42.145894$GNGGA,174941.30,4138.0648782,N,07032.3912130,W,1,24,0.6,13.304,M,-29.744,M,0.0,*53
###2023-12-09 12:49:42.346675$GNGGA,174941.50,4138.0648638,N,07032.3912041,W,1,24,0.6,13.291,M,-29.744,M,0.0,*5F
###2023-12-09 12:49:42.546711$GNGGA,174941.70,4138.0648514,N,07032.3912029,W,1,24,0.6,13.266,M,-29.744,M,0.0,*56
###2023-12-09 12:49:42.746635$GNGGA,174941.90,4138.0649010,N,07032.3912266,W,1,24,0.6,13.290,M,-29.744,M,0.0,*58
###2023-12-09 12:49:42.946438$GNRMC,174942.10,A,4138.0649626,N,07032.3912586,W,0.78,338.03,091223,,,A*52
###2023-12-09 12:49:42.949351$GNGGA,174942.10,4138.0649626,N,07032.3912586,W,1,24,0.6,13.291,M,-29.744,M,0.0,*58
###2023-12-09 12:49:42.951257$GPGSA,A,3,03,04,16,26,28,29,31,32,,,,,1.1,0.6,0.9*3B
###2023-12-09 12:49:42.952978$GLGSA,A,3,65,71,72,73,74,75,,,,,,,1.1,0.6,0.9*24
###2023-12-09 12:49:42.954559$GAGSA,A,3,04,19,21,27,,,,,,,,,1.1,0.6,0.9*26
###2023-12-09 12:49:42.956224$GBGSA,A,3,14,24,25,26,33,,,,,,,,1.1,0.6,0.9*2F
###2023-12-09 12:49:42.958545$GPGSV,2,1,08,03,37,268,44,04,28,311,42,16,44,210,44,26,74,208,48*77
###2023-12-09 12:49:42.960890$GPGSV,2,2,08,28,53,065,45,29,26,066,40,31,71,021,48,32,24,137,38*76
###2023-12-09 12:49:42.963241$GLGSV,2,1,06,65,18,329,44,71,48,171,46,72,71,291,46,73,41,038,46*6E
###2023-12-09 12:49:42.964991$GLGSV,2,2,06,74,71,317,42,75,28,247,45,,,,,,,,*6D
###2023-12-09 12:49:42.967327$GAGSV,1,1,04,04,25,312,41,19,85,269,40,21,83,162,45,27,37,048,41*62
###2023-12-09 12:49:42.969663$GBGSV,2,1,05,14,49,195,44,24,77,011,49,25,37,257,47,26,30,060,44*62
###2023-12-09 12:49:42.971126$GBGSV,2,2,05,33,61,241,47,,,,,,,,,,,,*5D
###2023-12-09 12:49:42.972447$GNVTG,338.03,T,,M,0.78,N,1.44,K,A*26
###2023-12-09 12:49:42.974091$GNGST,174942.10,18.000,,,,0.076,0.067,0.160*55
###2023-12-09 12:49:42.975398$GNZDA,174942.10,09,12,2023,00,00*7D
###2023-12-09 12:49:42.976040$GNEBP,,,,,,M*13
###2023-12-09 12:49:43.146811$GNGGA,174942.30,4138.0649696,N,07032.3912624,W,1,24,0.6,13.304,M,-29.744,M,0.0,*57
###2023-12-09 12:49:43.346621$GNGGA,174942.50,4138.0649390,N,07032.3912500,W,1,24,0.6,13.274,M,-29.744,M,0.0,*51
###2023-12-09 12:49:43.546818$GNGGA,174942.70,4138.0649500,N,07032.3912575,W,1,24,0.6,13.244,M,-29.744,M,0.0,*5D
###2023-12-09 12:49:43.747633$GNGGA,174942.90,4138.0650192,N,07032.3912909,W,1,24,0.6,13.256,M,-29.744,M,0.0,*50
###2023-12-09 12:49:43.947188$GNRMC,174943.10,A,4138.0650621,N,07032.3913144,W,0.08,337.17,091223,,,A*5A
###2023-12-09 12:49:43.950695$GNGGA,174943.10,4138.0650621,N,07032.3913144,W,1,24,0.6,13.247,M,-29.744,M,0.0,*56
###2023-12-09 12:49:43.952957$GPGSA,A,3,03,04,16,26,28,29,31,32,,,,,1.1,0.6,0.9*3B
###2023-12-09 12:49:43.955057$GLGSA,A,3,65,71,72,73,74,75,,,,,,,1.1,0.6,0.9*24
###2023-12-09 12:49:43.956976$GAGSA,A,3,04,19,21,27,,,,,,,,,1.1,0.6,0.9*26
###2023-12-09 12:49:43.958983$GBGSA,A,3,14,24,25,26,33,,,,,,,,1.1,0.6,0.9*2F
###2023-12-09 12:49:43.961798$GPGSV,2,1,08,03,37,268,47,04,28,311,43,16,44,210,43,26,74,208,47*7D
###2023-12-09 12:49:43.964649$GPGSV,2,2,08,28,53,065,44,29,26,066,40,31,71,021,47,32,24,137,39*79
###2023-12-09 12:49:43.967765$GLGSV,2,1,06,65,18,329,46,71,48,171,45,72,71,291,47,73,41,038,46*6E
###2023-12-09 12:49:43.969893$GLGSV,2,2,06,74,71,317,43,75,28,247,44,,,,,,,,*6D
###2023-12-09 12:49:43.972719$GAGSV,1,1,04,04,25,312,43,19,85,269,40,21,83,162,46,27,37,048,41*63
###2023-12-09 12:49:43.975542$GBGSV,2,1,05,14,49,195,43,24,77,011,49,25,37,257,47,26,30,060,44*65
###2023-12-09 12:49:43.977301$GBGSV,2,2,05,33,61,241,47,,,,,,,,,,,,*5D
###2023-12-09 12:49:43.978947$GNVTG,337.17,T,,M,0.08,N,0.14,K,A*2F
###2023-12-09 12:49:43.980936$GNGST,174943.10,18.000,,,,0.076,0.067,0.160*54
###2023-12-09 12:49:43.982487$GNZDA,174943.10,09,12,2023,00,00*7C
###2023-12-09 12:49:43.983267$GNEBP,,,,,,M*13
