###2023-12-09 13:02:16.976218$GAGSA,A,3,04,19,21,27,,,,,,,,,1.1,0.6,0.9*26
###2023-12-09 13:02:16.977891$GBGSA,A,3,14,24,25,26,33,,,,,,,,1.1,0.6,0.9*2F
###2023-12-09 13:02:16.980247$GPGSV,2,1,08,03,35,261,42,04,33,311,42,16,50,212,46,26,80,210,48*77
###2023-12-09 13:02:16.982593$GPGSV,2,2,08,28,49,070,46,29,25,061,42,31,69,038,47,32,19,140,43*70
###2023-12-09 13:02:16.984918$GLGSV,2,1,06,65,24,327,39,71,41,173,46,72,73,269,45,73,36,041,44*64
###2023-12-09 13:02:16.986681$GLGSV,2,2,06,74,70,337,42,75,32,253,43,,,,,,,,*66
###2023-12-09 13:02:16.988996$GAGSV,1,1,04,04,29,312,40,19,84,213,40,21,86,114,46,27,33,048,42*63
###2023-12-09 13:02:16.991323$GBGSV,2,1,05,14,43,193,44,24,74,024,49,25,41,262,44,26,26,063,41*6E
###2023-12-09 13:02:16.992774$GBGSV,2,2,05,33,57,233,47,,,,,,,,,,,,*5D
###2023-12-09 13:02:16.994094$GNVTG,272.36,T,,M,3.50,N,6.48,K,A*2D
###2023-12-09 13:02:16.995748$GNGST,180216.10,18.000,,,,0.082,0.070,0.160*59
###2023-12-09 13:02:16.997034$GNZDA,180216.10,09,12,2023,00,00*7C
###2023-12-09 13:02:16.997673$GNEBP,,,,,,M*13
###2023-12-09 13:02:17.163724$GNGGA,180216.30,4138.0462558,N,07032.3094502,W,1,24,0.6,13.473,M,-29.744,M,0.0,*5B
###2023-12-09 13:02:17.364562$GNGGA,180216.50,4138.0462572,N,07032.3097046,W,1,24,0.6,13.471,M,-29.744,M,0.0,*51
###2023-12-09 13:02:17.565642$GNGGA,180216.70,4138.0462548,N,07032.3099606,W,1,24,0.6,13.468,M,-29.744,M,0.0,*5E
###2023-12-09 13:02:17.769687$GNGGA,180216.90,4138.0462360,N,07032.3102116,W,1,24,0.6,13.450,M,-29.744,M,0.0,*52
###2023-12-09 13:02:17.967022$GNRMC,180217.10,A,4138.0462177,N,07032.3104630,W,3.40,266.91,091223,,,A*52
###2023-12-09 13:02:17.969869$GNGGA,180217.10,4138.0462177,N,07032.3104630,W,1,24,0.6,13.449,M,-29.744,M,0.0,*52
###2023-12-09 13:02:17.971736$GPGSA,A,3,03,04,16,26,28,29,31,32,,,,,1.1,0.6,0.9*3B
###2023-12-09 13:02:17.973445$GLGSA,A,3,65,71,72,73,74,75,,,,,,,1.1,0.6,0.9*24
###2023-12-09 13:02:17.975041$GAGSA,A,3,04,19,21,27,,,,,,,,,1.1,0.6,0.9*26
###2023-12-09 13:02:17.976691$GBGSA,A,3,14,24,25,26,33,,,,,,,,1.1,0.6,0.9*2F
###2023-12-09 13:02:17.979030$GPGSV,2,1,08,03,35,261,43,04,33,311,41,16,50,212,46,26,80,210,48*75
###2023-12-09 13:02:17.981363$GPGSV,2,2,08,28,49,070,45,29,25,061,42,31,69,038,47,32,19,140,44*74
###2023-12-09 13:02:17.983697$GLGSV,2,1,06,65,24,327,41,71,41,173,47,72,73,269,45,73,36,041,44*6A
###2023-12-09 13:02:17.985450$GLGSV,2,2,06,74,70,337,42,75,32,253,43,,,,,,,,*66
###2023-12-09 13:02:17.987786$GAGSV,1,1,04,04,29,312,40,19,84,213,40,21,86,114,46,27,33,048,41*60
###2023-12-09 13:02:17.990113$GBGSV,2,1,05,14,43,193,44,24,74,024,48,25,41,262,44,26,26,063,41*6F
###2023-12-09 13:02:17.991585$GBGSV,2,2,05,33,57,233,47,,,,,,,,,,,,*5D
###2023-12-09 13:02:17.992911$GNVTG,266.91,T,,M,3.40,N,6.30,K,A*2B
###2023-12-09 13:02:17.994558$GNGST,180217.10,18.000,,,,0.081,0.070,0.160*5B
###2023-12-09 13:02:17.995863$GNZDA,180217.10,09,12,2023,00,00*7D
###2023-12-09 13:02:17.996500$GNEBP,,,,,,M*13
###2023-12-09 13:02:18.164622$GNGGA,180217.30,4138.0462052,N,07032.3107198,W,1,24,0.6,13.452,M,-29.744,M,0.0,*5A
###2023-12-09 13:02:18.364282$GNGGA,180217.50,4138.0461849,N,07032.3109754,W,1,24,0.6,13.450,M,-29.744,M,0.0,*57
###2023-12-09 13:02:18.564514$GNGGA,180217.70,4138.0461769,N,07032.3112346,W,1,24,0.6,13.454,M,-29.744,M,0.0,*51
###2023-12-09 13:02:18.764855$GNGGA,180217.90,4138.0461719,N,07032.3115006,W,1,24,0.6,13.447,M,-29.744,M,0.0,*5A
###2023-12-09 13:02:18.966803$GNRMC,180218.10,A,4138.0461761,N,07032.3117673,W,3.63,273.77,091223,,,A*57
###2023-12-09 13:02:18.969685$GNGGA,180218.10,4138.0461761,N,07032.3117673,W,1,24,0.6,13.438,M,-29.744,M,0.0,*5C
###2023-12-09 13:02:18.971560$GPGSA,A,3,03,04,16,26,28,29,31,32,,,,,1.1,0.6,0.9*3B
###2023-12-09 13:02:18.973270$GLGSA,A,3,65,71,72,73,74,75,,,,,,,1.1,0.6,0.9*24
###2023-12-09 13:02:18.974856$GAGSA,A,3,04,19,21,27,,,,,,,,,1.1,0.6,0.9*26
###2023-12-09 13:02:18.976500$GBGSA,A,3,14,24,25,26,33,,,,,,,,1.1,0.6,0.9*2F
###2023-12-09 13:02:18.978840$GPGSV,2,1,08,03,35,261,42,04,33,311,42,16,50,212,46,26,80,210,48*77
###2023-12-09 13:02:18.981191$GPGSV,2,2,08,28,49,070,45,29,25,061,41,31,69,038,47,32,19,140,44*77
###2023-12-09 13:02:18.983549$GLGSV,2,1,06,65,24,327,40,71,41,173,46,72,73,269,45,73,36,041,44*6A
###2023-12-09 13:02:18.985308$GLGSV,2,2,06,74,70,337,42,75,32,253,42,,,,,,,,*67
###2023-12-09 13:02:18.987641$GAGSV,1,1,04,04,29,312,40,19,84,213,40,21,86,114,46,27,33,048,41*60
###2023-12-09 13:02:18.989971$GBGSV,2,1,05,14,43,193,44,24,74,024,48,25,41,262,44,26,26,063,41*6F
###2023-12-09 13:02:18.991436$GBGSV,2,2,05,33,57,233,48,,,,,,,,,,,,*52
###2023-12-09 13:02:18.992760$GNVTG,273.77,T,,M,3.63,N,6.73,K,A*21
###2023-12-09 13:02:18.994407$GNGST,180218.10,18.000,,,,0.081,0.070,0.160*54
###2023-12-09 13:02:18.995716$GNZDA,180218.10,09,12,2023,00,00*72
###2023-12-09 13:02:18.996356$GNEBP,,,,,,M*13
###2023-12-09 13:02:19.164301$GNGGA,180218.30,4138.0461944,N,07032.3120398,W,1,24,0.6,13.450,M,-29.744,M,0.0,*5D
###2023-12-09 13:02:19.365026$GNGGA,180218.50,4138.0462152,N,07032.3123158,W,1,24,0.6,13.453,M,-29.744,M,0.0,*59
###2023-12-09 13:02:19.566857$GNGGA,180218.70,4138.0462241,N,07032.3125845,W,1,24,0.6,13.446,M,-29.744,M,0.0,*5D
###2023-12-09 13:02:19.772983$GNGGA,180218.90,4138.0462363,N,07032.3128502,W,1,24,0.6,13.437,M,-29.744,M,0.0,*57
###2023-12-09 13:02:19.971050$GNRMC,180219.10,A,4138.0462539,N,07032.3131140,W,3.52,274.54,091223,,,A*5D
###2023-12-09 13:02:19.973917$GNGGA,180219.10,4138.0462539,N,07032.3131140,W,1,24,0.6,13.417,M,-29.744,M,0.0,*5F
###2023-12-09 13:02:19.975788$GPGSA,A,3,03,04,16,26,28,29,31,32,,,,,1.1,0.6,0.9*3B
###2023-12-09 13:02:19.977513$GLGSA,A,3,65,71,72,73,74,75,,,,,,,1.1,0.6,0.9*24
###2023-12-09 13:02:19.979115$GAGSA,A,3,04,19,21,27,,,,,,,,,1.1,0.6,0.9*26
###2023-12-09 13:02:19.980757$GBGSA,A,3,14,24,25,26,33,,,,,,,,1.1,0.6,0.9*2F
###2023-12-09 13:02:19.983120$GPGSV,2,1,08,03,35,261,43,04,33,311,40,16,50,212,47,26,80,210,48*75
###2023-12-09 13:02:19.985462$GPGSV,2,2,08,28,49,070,45,29,25,061,41,31,69,038,47,32,19,140,43*70
###2023-12-09 13:02:19.987814$GLGSV,2,1,06,65,24,327,39,71,41,173,46,72,73,269,45,73,36,041,44*64
###2023-12-09 13:02:19.989563$GLGSV,2,2,06,74,70,337,42,75,32,253,40,,,,,,,,*65
###2023-12-09 13:02:19.991908$GAGSV,1,1,04,04,29,312,37,19,84,213,40,21,86,114,45,27,33,048,41*63
###2023-12-09 13:02:19.994230$GBGSV,2,1,05,14,43,193,44,24,74,024,48,25,41,262,44,26,26,063,41*6F
###2023-12-09 13:02:19.995690$GBGSV,2,2,05,33,57,233,47,,,,,,,,,,,,*5D
###2023-12-09 13:02:19.997011$GNVTG,274.54,T,,M,3.52,N,6.52,K,A*26
###2023-12-09 13:02:19.998664$GNGST,180219.10,18.000,,,,0.082,0.070,0.160*56
###2023-12-09 13:02:19.999947$GNZDA,180219.10,09,12,2023,00,00*73
###2023-12-09 13:02:20.000582$GNEBP,,,,,,M*13
###2023-12-09 13:02:20.163509$GNGGA,180219.30,4138.0462777,N,07032.3133721,W,1,24,0.6,13.408,M,-29.744,M,0.0,*58
###2023-12-09 13:02:20.364199$GNGGA,180219.50,4138.0463033,N,07032.3136292,W,1,24,0.6,13.419,M,-29.744,M,0.0,*50
###2023-12-09 13:02:20.565723$GNGGA,180219.70,4138.0463211,N,07032.3138807,W,1,24,0.6,13.424,M,-29.744,M,0.0,*56
###2023-12-09 13:02:20.766010$GNGGA,180219.90,4138.0463274,N,07032.3141351,W,1,24,0.6,13.407,M,-29.744,M,0.0,*5C
###2023-12-09 13:02:20.975713$GNRMC,180220.10,A,4138.0463289,N,07032.3143944,W,3.52,272.40,091223,,,A*50
###2023-12-09 13:02:20.978575$GNGGA,180220.10,4138.0463289,N,07032.3143944,W,1,24,0.6,13.394,M,-29.744,M,0.0,*5D
###2023-12-09 13:02:20.980422$GPGSA,A,3,03,04,16,26,28,29,31,32,,,,,1.1,0.6,0.9*3B
###2023-12-09 13:02:20.982124$GLGSA,A,3,65,71,72,73,74,75,,,,,,,1.1,0.6,0.9*24
###2023-12-09 13:02:20.983716$GAGSA,A,3,04,19,21,27,,,,,,,,,1.1,0.6,0.9*26
###2023-12-09 13:02:20.985363$GBGSA,A,3,14,24,25,26,33,,,,,,,,1.1,0.6,0.9*2F
###2023-12-09 13:02:20.987701$GPGSV,2,1,08,03,35,261,43,04,33,311,40,16,50,212,46,26,80,210,48*74
###2023-12-09 13:02:20.990039$GPGSV,2,2,08,28,49,070,45,29,25,061,41,31,69,038,47,32,19,140,44*77
###2023-12-09 13:02:20.992388$GLGSV,2,1,06,65,24,327,39,71,41,173,46,72,73,269,45,73,36,041,43*63
###2023-12-09 13:02:20.994139$GLGSV,2,2,06,74,70,337,42,75,32,253,42,,,,,,,,*67
###2023-12-09 13:02:20.996470$GAGSV,1,1,04,04,29,312,38,19,84,213,40,21,86,114,46,27,33,048,41*6F
###2023-12-09 13:02:20.999082$GBGSV,2,1,05,14,43,193,44,24,74,024,49,25,41,262,44,26,26,063,41*6E
###2023-12-09 13:02:21.000551$GBGSV,2,2,05,33,57,233,47,,,,,,,,,,,,*5D
###2023-12-09 13:02:21.001885$GNVTG,272.40,T,,M,3.52,N,6.52,K,A*25
###2023-12-09 13:02:21.003554$GNGST,180220.10,18.000,,,,0.082,0.070,0.160*5C
###2023-12-09 13:02:21.004851$GNZDA,180220.10,09,12,2023,00,00*79
###2023-12-09 13:02:21.005489$GNEBP,,,,,,M*13
###2023-12-09 13:02:21.169383$GNGGA,180220.30,4138.0463479,N,07032.3146572,W,1,24,0.6,13.400,M,-29.744,M,0.0,*50
###2023-12-09 13:02:21.365096$GNGGA,180220.50,4138.0463723,N,07032.3149260,W,1,24,0.6,13.414,M,-29.744,M,0.0,*54
###2023-12-09 13:02:21.564592$GNGGA,180220.70,4138.0463632,N,07032.3151807,W,1,24,0.6,13.411,M,-29.744,M,0.0,*50
