###2023-12-09 13:43:15.021186$GNZDA,184314.10,09,12,2023,00,00*7B
###2023-12-09 13:43:15.021849$GNEBP,,,,,,M*13
###2023-12-09 13:43:15.194022$GNGGA,184314.30,4138.0392771,N,07032.4369934,W,1,15,2.4,15.764,M,-29.746,M,0.0,*51
###2023-12-09 13:43:15.393646$GNGGA,184314.50,4138.0393195,N,07032.4370715,W,1,17,1.0,15.716,M,-29.746,M,0.0,*5F
###2023-12-09 13:43:15.593214$GNGGA,184314.70,4138.0393869,N,07032.4371509,W,1,17,0.8,15.742,M,-29.746,M,0.0,*51
###2023-12-09 13:43:15.795935$GNGGA,184314.90,4138.0394302,N,07032.4372205,W,1,18,0.8,15.720,M,-29.746,M,0.0,*5D
###2023-12-09 13:43:15.998645$GNRMC,184315.10,A,4138.0394680,N,07032.4372997,W,1.21,295.01,091223,,,A*52
###2023-12-09 13:43:16.001533$GNGGA,184315.10,4138.0394680,N,07032.4372997,W,1,19,0.9,15.740,M,-29.746,M,0.0,*5D
###2023-12-09 13:43:16.003275$GPGSA,A,3,04,16,26,28,29,31,,,,,,,1.6,0.9,1.3*3A
###2023-12-09 13:43:16.004987$GLGSA,A,3,65,72,73,74,75,83,,,,,,,1.6,0.9,1.3*2A
###2023-12-09 13:43:16.006504$GAGSA,A,3,04,21,27,,,,,,,,,,1.6,0.9,1.3*2D
###2023-12-09 13:43:16.008095$GBGSA,A,3,24,25,33,35,,,,,,,,,1.6,0.9,1.3*2B
###2023-12-09 13:43:16.010426$GPGSV,2,1,06,04,50,305,42,16,70,226,35,26,80,041,42,28,35,088,36*7B
###2023-12-09 13:43:16.012181$GPGSV,2,2,06,29,19,044,44,31,57,071,39,,,,,,,,*70
###2023-12-09 13:43:16.014514$GLGSV,2,1,06,65,42,314,43,72,58,215,37,73,19,055,37,74,56,021,46*67
###2023-12-09 13:43:16.016272$GLGSV,2,2,06,75,46,277,46,83,16,043,35,,,,,,,,*6E
###2023-12-09 13:43:16.018310$GAGSV,1,1,03,04,42,308,42,21,74,044,40,27,20,051,39,,,,*59
###2023-12-09 13:43:16.020645$GBGSV,1,1,04,24,60,050,51,25,53,280,48,33,42,214,44,35,16,053,43*68
###2023-12-09 13:43:16.021973$GNVTG,295.01,T,,M,1.21,N,2.23,K,A*2D
###2023-12-09 13:43:16.023601$GNGST,184315.10,7.800,,,,0.200,0.140,0.350*62
###2023-12-09 13:43:16.024889$GNZDA,184315.10,09,12,2023,00,00*7A
###2023-12-09 13:43:16.025528$GNEBP,,,,,,M*13
###2023-12-09 13:43:16.195661$GNGGA,184315.30,4138.0394871,N,07032.4374023,W,1,21,0.7,15.745,M,-29.746,M,0.0,*5F
###2023-12-09 13:43:16.394653$GNGGA,184315.50,4138.0394991,N,07032.4375397,W,1,19,0.8,15.754,M,-29.746,M,0.0,*5F
###2023-12-09 13:43:16.591756$GNGGA,184315.70,4138.0394967,N,07032.4376860,W,1,18,0.8,15.831,M,-29.746,M,0.0,*59
###2023-12-09 13:43:16.793413$GNGGA,184315.90,4138.0394994,N,07032.4378437,W,1,18,0.8,15.857,M,-29.746,M,0.0,*5B
###2023-12-09 13:43:16.995090$GNRMC,184316.10,A,4138.0395094,N,07032.4379874,W,2.24,275.19,091223,,,A*55
###2023-12-09 13:43:16.998143$GNGGA,184316.10,4138.0395094,N,07032.4379874,W,1,19,0.7,15.838,M,-29.746,M,0.0,*55
###2023-12-09 13:43:17.000076$GPGSA,A,3,03,04,09,16,26,29,31,,,,,,1.2,0.7,0.9*3B
###2023-12-09 13:43:17.001837$GLGSA,A,3,65,72,73,74,75,,,,,,,,1.2,0.7,0.9*20
###2023-12-09 13:43:17.003480$GAGSA,A,3,04,21,27,,,,,,,,,,1.2,0.7,0.9*2C
###2023-12-09 13:43:17.005067$GBGSA,A,3,24,25,33,35,,,,,,,,,1.2,0.7,0.9*2A
###2023-12-09 13:43:17.007410$GPGSV,2,1,07,03,23,243,36,04,50,305,47,09,16,316,35,16,71,227,41*74
###2023-12-09 13:43:17.009449$GPGSV,2,2,07,26,80,041,39,29,19,044,37,31,57,071,42,,,,*4A
###2023-12-09 13:43:17.011789$GLGSV,2,1,05,65,42,314,47,72,58,215,35,73,19,055,42,74,56,021,39*68
###2023-12-09 13:43:17.013241$GLGSV,2,2,05,75,46,277,46,,,,,,,,,,,,*50
###2023-12-09 13:43:17.015288$GAGSV,1,1,03,04,42,308,48,21,74,044,40,27,20,051,41,,,,*5C
###2023-12-09 13:43:17.017607$GBGSV,1,1,04,24,60,050,39,25,53,280,47,33,42,214,36,35,16,053,37*6F
###2023-12-09 13:43:17.018951$GNVTG,275.19,T,,M,2.24,N,4.14,K,A*2E
###2023-12-09 13:43:17.020565$GNGST,184316.10,7.200,,,,0.200,0.130,0.350*6C
###2023-12-09 13:43:17.021854$GNZDA,184316.10,09,12,2023,00,00*79
###2023-12-09 13:43:17.022493$GNEBP,,,,,,M*13
###2023-12-09 13:43:17.194260$GNGGA,184316.30,4138.0395132,N,07032.4381334,W,1,17,0.8,15.842,M,-29.746,M,0.0,*5E
###2023-12-09 13:43:17.397500$GNGGA,184316.50,4138.0395010,N,07032.4382264,W,1,16,0.7,15.804,M,-29.746,M,0.0,*52
###2023-12-09 13:43:17.596285$GNGGA,184316.70,4138.0395060,N,07032.4382916,W,1,13,0.8,15.690,M,-29.746,M,0.0,*50
###2023-12-09 13:43:17.799909$GNGGA,184316.90,4138.0394991,N,07032.4383510,W,1,11,0.8,15.621,M,-29.746,M,0.0,*5B
###2023-12-09 13:43:17.998886$GNRMC,184317.10,A,4138.0394986,N,07032.4383756,W,0.27,243.17,091223,,,A*5F
###2023-12-09 13:43:18.002331$GNGGA,184317.10,4138.0394986,N,07032.4383756,W,1,12,0.8,15.548,M,-29.746,M,0.0,*5B
###2023-12-09 13:43:18.004193$GPGSA,A,3,04,16,31,,,,,,,,,,1.7,0.8,1.5*39
###2023-12-09 13:43:18.006027$GLGSA,A,3,65,73,75,,,,,,,,,,1.7,0.8,1.5*21
###2023-12-09 13:43:18.007709$GAGSA,A,3,04,,,,,,,,,,,,1.7,0.8,1.5*2D
###2023-12-09 13:43:18.009681$GBGSA,A,3,12,14,24,25,35,,,,,,,,1.7,0.8,1.5*2B
###2023-12-09 13:43:18.012140$GPGSV,1,1,03,04,50,305,43,16,71,227,40,31,57,071,43,,,,*49
###2023-12-09 13:43:18.014599$GLGSV,1,1,03,65,42,314,43,73,19,055,40,75,46,277,41,,,,*5D
###2023-12-09 13:43:18.016382$GAGSV,1,1,01,04,42,308,44,,,,,,,,,,,,*50
###2023-12-09 13:43:18.019194$GBGSV,2,1,05,12,18,124,41,14,25,189,39,24,60,050,45,25,53,280,47*61
###2023-12-09 13:43:18.020940$GBGSV,2,2,05,35,16,053,41,,,,,,,,,,,,*5C
###2023-12-09 13:43:18.022530$GNVTG,243.17,T,,M,0.27,N,0.50,K,A*20
###2023-12-09 13:43:18.024493$GNGST,184317.10,7.400,,,,0.210,0.140,0.370*6F
###2023-12-09 13:43:18.026048$GNZDA,184317.10,09,12,2023,00,00*78
###2023-12-09 13:43:18.026841$GNEBP,,,,,,M*13
###2023-12-09 13:43:18.198985$GNGGA,184317.30,4138.0394979,N,07032.4383987,W,1,14,0.8,15.473,M,-29.746,M,0.0,*54
###2023-12-09 13:43:18.398988$GNGGA,184317.50,4138.0395070,N,07032.4383985,W,1,15,0.8,15.427,M,-29.746,M,0.0,*51
###2023-12-09 13:43:18.596767$GNGGA,184317.70,4138.0395056,N,07032.4383953,W,1,16,0.7,15.396,M,-29.746,M,0.0,*5D
###2023-12-09 13:43:18.798423$GNGGA,184317.90,4138.0395055,N,07032.4384021,W,1,15,0.8,15.378,M,-29.746,M,0.0,*57
###2023-12-09 13:43:18.999925$GNRMC,184318.10,A,4138.0395016,N,07032.4384086,W,0.02,243.17,091223,,,A*5B
###2023-12-09 13:43:19.003430$GNGGA,184318.10,4138.0395016,N,07032.4384086,W,1,15,0.8,15.359,M,-29.746,M,0.0,*59
###2023-12-09 13:43:19.005362$GPGSA,A,3,04,16,28,31,,,,,,,,,1.6,0.8,1.3*34
###2023-12-09 13:43:19.007283$GLGSA,A,3,65,73,74,75,,,,,,,,,1.6,0.8,1.3*25
###2023-12-09 13:43:19.009055$GAGSA,A,3,04,27,,,,,,,,,,,1.6,0.8,1.3*2F
###2023-12-09 13:43:19.011038$GBGSA,A,3,12,14,24,25,35,,,,,,,,1.6,0.8,1.3*2C
###2023-12-09 13:43:19.013833$GPGSV,1,1,04,04,50,305,48,16,71,227,38,28,35,088,37,31,57,071,40*71
###2023-12-09 13:43:19.016652$GLGSV,1,1,04,65,42,314,44,73,19,055,45,74,56,021,36,75,46,277,40*6F
###2023-12-09 13:43:19.018762$GAGSV,1,1,02,04,42,308,42,27,20,051,42,,,,,,,,*60
###2023-12-09 13:43:19.021563$GBGSV,2,1,05,12,18,124,37,14,25,189,35,24,60,050,43,25,53,280,42*6F
###2023-12-09 13:43:19.023331$GBGSV,2,2,05,35,16,053,42,,,,,,,,,,,,*5F
###2023-12-09 13:43:19.024925$GNVTG,243.17,T,,M,0.02,N,0.04,K,A*26
###2023-12-09 13:43:19.026892$GNGST,184318.10,7.600,,,,0.220,0.140,0.380*6E
###2023-12-09 13:43:19.028450$GNZDA,184318.10,09,12,2023,00,00*77
###2023-12-09 13:43:19.029217$GNEBP,,,,,,M*13
###2023-12-09 13:43:19.198073$GNGGA,184318.30,4138.0395025,N,07032.4384106,W,1,14,0.8,15.371,M,-29.746,M,0.0,*59
###2023-12-09 13:43:19.399171$GNGGA,184318.50,4138.0395103,N,07032.4384155,W,1,18,0.7,15.395,M,-29.746,M,0.0,*55
###2023-12-09 13:43:19.598529$GNGGA,184318.70,4138.0395117,N,07032.4384239,W,1,18,0.8,15.430,M,-29.746,M,0.0,*5C
###2023-12-09 13:43:19.798559$GNGGA,184318.90,4138.0395091,N,07032.4384347,W,1,18,0.8,15.459,M,-29.746,M,0.0,*5A
###2023-12-09 13:43:20.002935$GNRMC,184319.10,A,4138.0395022,N,07032.4384506,W,0.10,243.17,091223,,,A*53
###2023-12-09 13:43:20.006730$GNGGA,184319.10,4138.0395022,N,07032.4384506,W,1,16,0.8,15.479,M,-29.746,M,0.0,*54
###2023-12-09 13:43:20.008986$GPGSA,A,3,04,16,26,28,29,31,,,,,,,1.4,0.8,1.1*3B
###2023-12-09 13:43:20.010834$GLGSA,A,3,65,73,75,,,,,,,,,,1.4,0.8,1.1*26
###2023-12-09 13:43:20.012664$GAGSA,A,3,04,21,27,,,,,,,,,,1.4,0.8,1.1*2C
###2023-12-09 13:43:20.014583$GBGSA,A,3,12,24,25,35,,,,,,,,,1.4,0.8,1.1*29
###2023-12-09 13:43:20.017397$GPGSV,2,1,06,04,50,305,45,16,71,227,39,26,80,041,36,28,35,088,35*70
###2023-12-09 13:43:20.019525$GPGSV,2,2,06,29,19,044,41,31,57,071,44,,,,,,,,*7F
###2023-12-09 13:43:20.022268$GLGSV,1,1,03,65,42,314,45,73,19,055,45,75,46,277,43,,,,*5C
###2023-12-09 13:43:20.024758$GAGSV,1,1,03,04,42,308,45,21,74,044,37,27,20,051,45,,,,*55
###2023-12-09 13:43:20.027595$GBGSV,1,1,04,12,18,124,38,24,60,050,40,25,53,280,45,35,16,053,42*63
###2023-12-09 13:43:20.029206$GNVTG,243.17,T,,M,0.10,N,0.18,K,A*28
###2023-12-09 13:43:20.031163$GNGST,184319.10,6.500,,,,0.220,0.140,0.390*6C
###2023-12-09 13:43:20.032749$GNZDA,184319.10,09,12,2023,00,00*76
###2023-12-09 13:43:20.033529$GNEBP,,,,,,M*13
###2023-12-09 13:43:20.200274$GNGGA,184319.30,4138.0394979,N,07032.4384655,W,1,17,0.8,15.527,M,-29.746,M,0.0,*5E
