###2023-12-09 12:57:59.970002$GNGGA,175759.10,4138.0337246,N,07032.3409139,W,1,24,0.6,13.339,M,-29.744,M,0.0,*57
###2023-12-09 12:57:59.971905$GPGSA,A,3,03,04,16,26,28,29,31,32,,,,,1.1,0.6,0.9*3B
###2023-12-09 12:57:59.973623$GLGSA,A,3,65,71,72,73,74,75,,,,,,,1.1,0.6,0.9*24
###2023-12-09 12:57:59.975218$GAGSA,A,3,04,19,21,27,,,,,,,,,1.1,0.6,0.9*26
###2023-12-09 12:57:59.976865$GBGSA,A,3,14,24,25,26,33,,,,,,,,1.1,0.6,0.9*2F
###2023-12-09 12:57:59.979197$GPGSV,2,1,08,03,36,264,45,04,31,311,41,16,48,211,46,26,78,209,47*7D
###2023-12-09 12:57:59.981517$GPGSV,2,2,08,28,50,069,44,29,25,063,40,31,69,033,47,32,20,139,42*7C
###2023-12-09 12:57:59.983861$GLGSV,2,1,06,65,22,328,41,71,43,172,47,72,73,277,47,73,37,040,45*6C
###2023-12-09 12:57:59.985598$GLGSV,2,2,06,74,70,331,43,75,30,251,46,,,,,,,,*64
###2023-12-09 12:57:59.987922$GAGSV,1,1,04,04,28,312,40,19,85,234,40,21,85,141,45,27,34,048,43*60
###2023-12-09 12:57:59.990234$GBGSV,2,1,05,14,45,193,47,24,75,020,49,25,39,260,47,26,27,062,43*62
###2023-12-09 12:57:59.991692$GBGSV,2,2,05,33,59,235,49,,,,,,,,,,,,*5B
###2023-12-09 12:57:59.992977$GNVTG,96.60,T,,M,3.63,N,6.73,K,A*1E
###2023-12-09 12:57:59.994624$GNGST,175759.10,18.000,,,,0.078,0.066,0.160*5F
###2023-12-09 12:57:59.995911$GNZDA,175759.10,09,12,2023,00,00*78
###2023-12-09 12:57:59.996549$GNEBP,,,,,,M*13
###2023-12-09 12:58:00.161750$GNGGA,175759.30,4138.0337136,N,07032.3406553,W,1,24,0.6,13.329,M,-29.744,M,0.0,*57
###2023-12-09 12:58:00.363316$GNGGA,175759.50,4138.0337268,N,07032.3403967,W,1,24,0.6,13.350,M,-29.744,M,0.0,*59
###2023-12-09 12:58:00.560771$GNGGA,175759.70,4138.0337187,N,07032.3401260,W,1,24,0.6,13.337,M,-29.744,M,0.0,*56
###2023-12-09 12:58:00.764093$GNGGA,175759.90,4138.0337082,N,07032.3398735,W,1,24,0.6,13.325,M,-29.744,M,0.0,*5D
###2023-12-09 12:58:00.962866$GNRMC,175800.10,A,4138.0337196,N,07032.3396196,W,3.60,89.19,091223,,,A*6F
###2023-12-09 12:58:00.965724$GNGGA,175800.10,4138.0337196,N,07032.3396196,W,1,24,0.6,13.351,M,-29.744,M,0.0,*50
###2023-12-09 12:58:00.967588$GPGSA,A,3,03,04,16,26,28,29,31,32,,,,,1.1,0.6,0.9*3B
###2023-12-09 12:58:00.969316$GLGSA,A,3,65,71,72,73,74,75,,,,,,,1.1,0.6,0.9*24
###2023-12-09 12:58:00.970922$GAGSA,A,3,04,19,21,27,,,,,,,,,1.1,0.6,0.9*26
###2023-12-09 12:58:00.972567$GBGSA,A,3,14,24,25,26,33,,,,,,,,1.1,0.6,0.9*2F
###2023-12-09 12:58:00.974900$GPGSV,2,1,08,03,36,264,44,04,31,311,39,16,48,211,45,26,78,209,46*71
###2023-12-09 12:58:00.977225$GPGSV,2,2,08,28,50,069,42,29,25,063,38,31,69,033,45,32,20,139,40*75
###2023-12-09 12:58:00.979558$GLGSV,2,1,06,65,22,328,41,71,43,172,46,72,73,277,46,73,37,040,45*6C
###2023-12-09 12:58:00.981305$GLGSV,2,2,06,74,70,331,43,75,30,251,47,,,,,,,,*65
###2023-12-09 12:58:00.983635$GAGSV,1,1,04,04,28,312,37,19,85,234,40,21,85,141,45,27,34,048,42*61
###2023-12-09 12:58:00.985950$GBGSV,2,1,05,14,45,193,47,24,75,020,49,25,39,260,47,26,27,062,42*63
###2023-12-09 12:58:00.987414$GBGSV,2,2,05,33,59,235,49,,,,,,,,,,,,*5B
###2023-12-09 12:58:00.988704$GNVTG,89.19,T,,M,3.60,N,6.66,K,A*19
###2023-12-09 12:58:00.990351$GNGST,175800.10,18.000,,,,0.079,0.067,0.160*5C
###2023-12-09 12:58:00.991652$GNZDA,175800.10,09,12,2023,00,00*7B
###2023-12-09 12:58:00.992293$GNEBP,,,,,,M*13
###2023-12-09 12:58:01.161082$GNGGA,175800.30,4138.0337152,N,07032.3393572,W,1,24,0.6,13.343,M,-29.744,M,0.0,*52
###2023-12-09 12:58:01.361121$GNGGA,175800.50,4138.0337049,N,07032.3390967,W,1,24,0.6,13.327,M,-29.744,M,0.0,*56
###2023-12-09 12:58:01.563262$GNGGA,175800.70,4138.0336993,N,07032.3388472,W,1,24,0.6,13.338,M,-29.744,M,0.0,*55
###2023-12-09 12:58:01.761001$GNGGA,175800.90,4138.0337000,N,07032.3385881,W,1,24,0.6,13.350,M,-29.744,M,0.0,*5A
###2023-12-09 12:58:01.964031$GNRMC,175801.10,A,4138.0336859,N,07032.3383331,W,3.27,92.86,091223,,,A*61
###2023-12-09 12:58:01.966905$GNGGA,175801.10,4138.0336859,N,07032.3383331,W,1,24,0.6,13.333,M,-29.744,M,0.0,*55
###2023-12-09 12:58:01.968760$GPGSA,A,3,03,04,16,26,28,29,31,32,,,,,1.1,0.6,0.9*3B
###2023-12-09 12:58:01.970473$GLGSA,A,3,65,71,72,73,74,75,,,,,,,1.1,0.6,0.9*24
###2023-12-09 12:58:01.972071$GAGSA,A,3,04,19,21,27,,,,,,,,,1.1,0.6,0.9*26
###2023-12-09 12:58:01.973716$GBGSA,A,3,14,24,25,26,33,,,,,,,,1.1,0.6,0.9*2F
###2023-12-09 12:58:01.976037$GPGSV,2,1,08,03,36,264,45,04,31,311,40,16,48,211,46,26,78,209,48*73
###2023-12-09 12:58:01.978362$GPGSV,2,2,08,28,50,069,43,29,25,063,39,31,69,033,46,32,20,139,42*74
###2023-12-09 12:58:01.980698$GLGSV,2,1,06,65,22,328,41,71,43,172,47,72,73,277,46,73,37,040,45*6D
###2023-12-09 12:58:01.982440$GLGSV,2,2,06,74,70,331,43,75,30,251,46,,,,,,,,*64
###2023-12-09 12:58:01.984771$GAGSV,1,1,04,04,28,312,40,19,85,234,40,21,85,141,46,27,34,048,43*63
###2023-12-09 12:58:01.987110$GBGSV,2,1,05,14,45,193,46,24,75,020,48,25,39,260,48,26,27,062,42*6C
###2023-12-09 12:58:01.988562$GBGSV,2,2,05,33,59,235,49,,,,,,,,,,,,*5B
###2023-12-09 12:58:01.989848$GNVTG,92.86,T,,M,3.27,N,6.05,K,A*13
###2023-12-09 12:58:01.991503$GNGST,175801.10,18.000,,,,0.079,0.068,0.160*52
###2023-12-09 12:58:01.992795$GNZDA,175801.10,09,12,2023,00,00*7A
###2023-12-09 12:58:01.993431$GNEBP,,,,,,M*13
###2023-12-09 12:58:02.159867$GNGGA,175801.30,4138.0336883,N,07032.3380874,W,1,24,0.6,13.345,M,-29.744,M,0.0,*58
###2023-12-09 12:58:02.360755$GNGGA,175801.50,4138.0336867,N,07032.3378300,W,1,24,0.6,13.343,M,-29.744,M,0.0,*5D
###2023-12-09 12:58:02.561883$GNGGA,175801.70,4138.0336750,N,07032.3375786,W,1,24,0.6,13.333,M,-29.744,M,0.0,*54
###2023-12-09 12:58:02.763369$GNGGA,175801.90,4138.0336700,N,07032.3373304,W,1,24,0.6,13.348,M,-29.744,M,0.0,*5B
###2023-12-09 12:58:02.962319$GNRMC,175802.10,A,4138.0336648,N,07032.3370760,W,3.32,92.45,091223,,,A*6B
###2023-12-09 12:58:02.965208$GNGGA,175802.10,4138.0336648,N,07032.3370760,W,1,24,0.6,13.344,M,-29.744,M,0.0,*54
###2023-12-09 12:58:02.967079$GPGSA,A,3,03,04,16,26,28,29,31,32,,,,,1.1,0.6,0.9*3B
###2023-12-09 12:58:02.968793$GLGSA,A,3,65,71,72,73,74,75,,,,,,,1.1,0.6,0.9*24
###2023-12-09 12:58:02.970370$GAGSA,A,3,04,19,21,27,,,,,,,,,1.1,0.6,0.9*26
###2023-12-09 12:58:02.972030$GBGSA,A,3,14,24,25,26,33,,,,,,,,1.1,0.6,0.9*2F
###2023-12-09 12:58:02.974348$GPGSV,2,1,08,03,36,264,47,04,31,311,43,16,48,211,48,26,78,209,49*7D
###2023-12-09 12:58:02.976696$GPGSV,2,2,08,28,50,069,45,29,25,063,40,31,69,033,48,32,20,139,43*73
###2023-12-09 12:58:02.979042$GLGSV,2,1,06,65,22,328,41,71,43,172,46,72,73,277,46,73,37,040,45*6C
###2023-12-09 12:58:02.980787$GLGSV,2,2,06,74,70,331,43,75,30,251,46,,,,,,,,*64
###2023-12-09 12:58:02.983115$GAGSV,1,1,04,04,28,312,42,19,85,226,42,21,85,141,47,27,34,048,44*66
###2023-12-09 12:58:02.985439$GBGSV,2,1,05,14,45,193,46,24,75,020,49,25,39,260,47,26,27,062,41*61
###2023-12-09 12:58:02.986905$GBGSV,2,2,05,33,59,235,48,,,,,,,,,,,,*5A
###2023-12-09 12:58:02.988191$GNVTG,92.45,T,,M,3.32,N,6.16,K,A*1A
###2023-12-09 12:58:02.989834$GNGST,175802.10,18.000,,,,0.079,0.068,0.160*51
###2023-12-09 12:58:02.991133$GNZDA,175802.10,09,12,2023,00,00*79
###2023-12-09 12:58:02.991772$GNEBP,,,,,,M*13
###2023-12-09 12:58:03.162950$GNGGA,175802.30,4138.0336608,N,07032.3368304,W,1,24,0.6,13.344,M,-29.744,M,0.0,*5D
###2023-12-09 12:58:03.361733$GNGGA,175802.50,4138.0336539,N,07032.3365772,W,1,24,0.6,13.346,M,-29.744,M,0.0,*50
###2023-12-09 12:58:03.560843$GNGGA,175802.70,4138.0336475,N,07032.3363284,W,1,24,0.6,13.344,M,-29.744,M,0.0,*53
###2023-12-09 12:58:03.767414$GNGGA,175802.90,4138.0336503,N,07032.3360752,W,1,24,0.6,13.339,M,-29.744,M,0.0,*5A
###2023-12-09 12:58:03.962858$GNRMC,175803.10,A,4138.0336459,N,07032.3358255,W,3.36,90.37,091223,,,A*62
###2023-12-09 12:58:03.965702$GNGGA,175803.10,4138.0336459,N,07032.3358255,W,1,24,0.6,13.345,M,-29.744,M,0.0,*5F
###2023-12-09 12:58:03.967575$GPGSA,A,3,03,04,16,26,28,29,31,32,,,,,1.1,0.6,0.9*3B
###2023-12-09 12:58:03.969297$GLGSA,A,3,65,71,72,73,74,75,,,,,,,1.1,0.6,0.9*24
###2023-12-09 12:58:03.970885$GAGSA,A,3,04,19,21,27,,,,,,,,,1.1,0.6,0.9*26
###2023-12-09 12:58:03.972531$GBGSA,A,3,14,24,25,26,33,,,,,,,,1.1,0.6,0.9*2F
###2023-12-09 12:58:03.974862$GPGSV,2,1,08,03,36,264,47,04,31,311,43,16,48,211,48,26,78,209,50*75
###2023-12-09 12:58:03.977192$GPGSV,2,2,08,28,50,069,45,29,25,063,41,31,69,033,48,32,20,139,43*72
###2023-12-09 12:58:03.979773$GLGSV,2,1,06,65,22,328,42,71,43,172,47,72,73,277,46,73,37,040,45*6E
###2023-12-09 12:58:03.981541$GLGSV,2,2,06,74,70,331,43,75,30,251,46,,,,,,,,*64
###2023-12-09 12:58:03.983885$GAGSV,1,1,04,04,28,312,41,19,85,226,41,21,85,133,47,27,34,048,44*63
###2023-12-09 12:58:03.986218$GBGSV,2,1,05,14,45,193,46,24,75,020,49,25,39,260,46,26,27,062,42*63
###2023-12-09 12:58:03.987688$GBGSV,2,2,05,33,59,235,48,,,,,,,,,,,,*5A
###2023-12-09 12:58:03.988986$GNVTG,90.37,T,,M,3.36,N,6.23,K,A*1F
###2023-12-09 12:58:03.990652$GNGST,175803.10,18.000,,,,0.079,0.067,0.160*5F
###2023-12-09 12:58:03.991951$GNZDA,175803.10,09,12,2023,00,00*78
###2023-12-09 12:58:03.992594$GNEBP,,,,,,M*13
