###2023-12-09 13:23:23.387803$GNGGA,182322.50,4138.0316688,N,07032.3723606,W,1,24,0.7,12.979,M,-29.745,M,0.0,*59
###2023-12-09 13:23:23.588864$GNGGA,182322.70,4138.0317339,N,07032.3725611,W,1,24,0.7,12.980,M,-29.745,M,0.0,*53
###2023-12-09 13:23:23.787918$GNGGA,182322.90,4138.0317911,N,07032.3727650,W,1,24,0.7,12.981,M,-29.745,M,0.0,*5B
###2023-12-09 13:23:23.993951$GNRMC,182323.10,A,4138.0318437,N,07032.3729706,W,2.95,288.66,091223,,,A*51
###2023-12-09 13:23:23.996853$GNGGA,182323.10,4138.0318437,N,07032.3729706,W,1,24,0.7,12.983,M,-29.745,M,0.0,*5A
###2023-12-09 13:23:23.998662$GPGSA,A,3,03,04,16,26,28,29,31,,,,,,1.1,0.7,0.9*3B
###2023-12-09 13:23:24.000375$GLGSA,A,3,65,71,72,73,74,75,,,,,,,1.1,0.7,0.9*25
###2023-12-09 13:23:24.001958$GAGSA,A,3,04,19,21,27,,,,,,,,,1.1,0.7,0.9*27
###2023-12-09 13:23:24.003685$GBGSA,A,3,14,24,25,26,33,35,,,,,,,1.1,0.7,0.9*28
###2023-12-09 13:23:24.006015$GPGSV,2,1,07,03,30,251,40,04,42,310,43,16,61,218,45,26,90,099,48*73
###2023-12-09 13:23:24.008063$GPGSV,2,2,07,28,42,080,45,29,23,052,40,31,63,057,47,,,,*44
###2023-12-09 13:23:24.010393$GLGSV,2,1,06,65,34,323,42,71,29,175,45,72,68,232,45,73,27,049,41*6F
###2023-12-09 13:23:24.012150$GLGSV,2,2,06,74,63,004,42,75,40,265,43,,,,,,,,*67
###2023-12-09 13:23:24.014468$GAGSV,1,1,04,04,36,311,41,19,77,186,41,21,81,054,46,27,26,049,40*68
###2023-12-09 13:23:24.016811$GBGSV,2,1,06,14,34,191,43,24,66,040,48,25,47,271,43,26,19,068,42*6F
###2023-12-09 13:23:24.018558$GBGSV,2,2,06,33,50,221,47,35,16,061,41,,,,,,,,*69
###2023-12-09 13:23:24.019894$GNVTG,288.66,T,,M,2.95,N,5.47,K,A*29
###2023-12-09 13:23:24.021544$GNGST,182323.10,18.000,,,,0.100,0.072,0.170*54
###2023-12-09 13:23:24.022844$GNZDA,182323.10,09,12,2023,00,00*79
###2023-12-09 13:23:24.023486$GNEBP,,,,,,M*13
###2023-12-09 13:23:24.189274$GNGGA,182323.30,4138.0318897,N,07032.3731785,W,1,24,0.7,12.992,M,-29.745,M,0.0,*5C
###2023-12-09 13:23:24.387927$GNGGA,182323.50,4138.0319252,N,07032.3733925,W,1,24,0.7,12.994,M,-29.745,M,0.0,*58
###2023-12-09 13:23:24.587796$GNGGA,182323.70,4138.0319521,N,07032.3736095,W,1,24,0.7,12.994,M,-29.745,M,0.0,*5E
###2023-12-09 13:23:24.788752$GNGGA,182323.90,4138.0319727,N,07032.3738345,W,1,24,0.7,13.007,M,-29.745,M,0.0,*56
###2023-12-09 13:23:24.993244$GNRMC,182324.10,A,4138.0319825,N,07032.3740631,W,3.05,270.06,091223,,,A*5B
###2023-12-09 13:23:24.996134$GNGGA,182324.10,4138.0319825,N,07032.3740631,W,1,24,0.7,13.009,M,-29.745,M,0.0,*53
###2023-12-09 13:23:24.997935$GPGSA,A,3,03,04,16,26,28,29,31,,,,,,1.1,0.7,0.9*3B
###2023-12-09 13:23:24.999670$GLGSA,A,3,65,71,72,73,74,75,,,,,,,1.1,0.7,0.9*25
###2023-12-09 13:23:25.001264$GAGSA,A,3,04,19,21,27,,,,,,,,,1.1,0.7,0.9*27
###2023-12-09 13:23:25.002994$GBGSA,A,3,14,24,25,26,33,35,,,,,,,1.1,0.7,0.9*28
###2023-12-09 13:23:25.005339$GPGSV,2,1,07,03,30,251,42,04,42,310,44,16,61,218,45,26,90,099,48*76
###2023-12-09 13:23:25.007398$GPGSV,2,2,07,28,42,080,45,29,23,052,42,31,63,057,46,,,,*47
###2023-12-09 13:23:25.009734$GLGSV,2,1,06,65,34,323,43,71,29,175,43,72,68,232,46,73,27,049,45*6F
###2023-12-09 13:23:25.011496$GLGSV,2,2,06,74,63,004,42,75,40,265,42,,,,,,,,*66
###2023-12-09 13:23:25.013829$GAGSV,1,1,04,04,36,311,42,19,77,186,41,21,81,054,46,27,26,049,40*6B
###2023-12-09 13:23:25.016175$GBGSV,2,1,06,14,34,191,44,24,66,040,50,25,47,271,46,26,19,068,45*63
###2023-12-09 13:23:25.017931$GBGSV,2,2,06,33,50,221,48,35,16,061,45,,,,,,,,*62
###2023-12-09 13:23:25.019271$GNVTG,270.06,T,,M,3.05,N,5.65,K,A*20
###2023-12-09 13:23:25.020927$GNGST,182324.10,18.000,,,,0.100,0.072,0.160*52
###2023-12-09 13:23:25.022223$GNZDA,182324.10,09,12,2023,00,00*7E
###2023-12-09 13:23:25.022874$GNEBP,,,,,,M*13
###2023-12-09 13:23:25.188266$GNGGA,182324.30,4138.0319734,N,07032.3742912,W,1,24,0.7,13.008,M,-29.745,M,0.0,*53
###2023-12-09 13:23:25.388714$GNGGA,182324.50,4138.0319606,N,07032.3745215,W,1,24,0.7,13.007,M,-29.745,M,0.0,*51
###2023-12-09 13:23:25.589001$GNGGA,182324.70,4138.0319531,N,07032.3747567,W,1,24,0.7,13.004,M,-29.745,M,0.0,*57
###2023-12-09 13:23:25.788093$GNGGA,182324.90,4138.0319494,N,07032.3749931,W,1,24,0.7,13.000,M,-29.745,M,0.0,*52
###2023-12-09 13:23:25.991965$GNRMC,182325.10,A,4138.0319369,N,07032.3752271,W,3.15,264.60,091223,,,A*5E
###2023-12-09 13:23:25.994822$GNGGA,182325.10,4138.0319369,N,07032.3752271,W,1,24,0.7,12.997,M,-29.745,M,0.0,*5D
###2023-12-09 13:23:25.996616$GPGSA,A,3,03,04,16,26,28,29,31,,,,,,1.1,0.7,0.9*3B
###2023-12-09 13:23:25.998333$GLGSA,A,3,65,71,72,73,74,75,,,,,,,1.1,0.7,0.9*25
###2023-12-09 13:23:25.999929$GAGSA,A,3,04,19,21,27,,,,,,,,,1.1,0.7,0.9*27
###2023-12-09 13:23:26.001638$GBGSA,A,3,14,24,25,26,33,35,,,,,,,1.1,0.7,0.9*28
###2023-12-09 13:23:26.003976$GPGSV,2,1,07,03,30,251,41,04,42,310,44,16,61,218,45,26,90,099,48*75
###2023-12-09 13:23:26.006014$GPGSV,2,2,07,28,42,080,45,29,23,052,40,31,63,057,47,,,,*44
###2023-12-09 13:23:26.008343$GLGSV,2,1,06,65,34,323,42,71,29,175,44,72,68,232,46,73,27,049,43*6F
###2023-12-09 13:23:26.010088$GLGSV,2,2,06,74,63,004,43,75,40,265,43,,,,,,,,*66
###2023-12-09 13:23:26.012409$GAGSV,1,1,04,04,36,311,42,19,77,186,41,21,81,054,46,27,26,049,40*6B
###2023-12-09 13:23:26.014738$GBGSV,2,1,06,14,34,191,43,24,66,040,48,25,47,271,44,26,19,068,44*6E
###2023-12-09 13:23:26.016476$GBGSV,2,2,06,33,50,221,47,35,16,061,43,,,,,,,,*6B
###2023-12-09 13:23:26.017795$GNVTG,264.60,T,,M,3.15,N,5.83,K,A*2C
###2023-12-09 13:23:26.019444$GNGST,182325.10,18.000,,,,0.100,0.072,0.160*53
###2023-12-09 13:23:26.020733$GNZDA,182325.10,09,12,2023,00,00*7F
###2023-12-09 13:23:26.021372$GNEBP,,,,,,M*13
###2023-12-09 13:23:26.188608$GNGGA,182325.30,4138.0319233,N,07032.3754590,W,1,24,0.7,12.995,M,-29.745,M,0.0,*5D
###2023-12-09 13:23:26.387022$GNGGA,182325.50,4138.0319178,N,07032.3756935,W,1,24,0.7,12.991,M,-29.745,M,0.0,*52
###2023-12-09 13:23:26.589817$GNGGA,182325.70,4138.0319248,N,07032.3759258,W,1,24,0.7,12.985,M,-29.745,M,0.0,*5A
###2023-12-09 13:23:26.787683$GNGGA,182325.90,4138.0319372,N,07032.3761555,W,1,24,0.7,12.978,M,-29.745,M,0.0,*5F
###2023-12-09 13:23:26.993790$GNRMC,182326.10,A,4138.0319521,N,07032.3763845,W,3.09,275.88,091223,,,A*53
###2023-12-09 13:23:26.996662$GNGGA,182326.10,4138.0319521,N,07032.3763845,W,1,24,0.7,12.972,M,-29.745,M,0.0,*50
###2023-12-09 13:23:26.998446$GPGSA,A,3,03,04,16,26,28,29,31,,,,,,1.1,0.7,0.9*3B
###2023-12-09 13:23:27.000167$GLGSA,A,3,65,71,72,73,74,75,,,,,,,1.1,0.7,0.9*25
###2023-12-09 13:23:27.001747$GAGSA,A,3,04,19,21,27,,,,,,,,,1.1,0.7,0.9*27
###2023-12-09 13:23:27.003464$GBGSA,A,3,14,24,25,26,33,35,,,,,,,1.1,0.7,0.9*28
###2023-12-09 13:23:27.005782$GPGSV,2,1,07,03,30,251,40,04,42,310,43,16,61,218,45,26,89,050,48*7E
###2023-12-09 13:23:27.007823$GPGSV,2,2,07,28,42,080,45,29,23,052,40,31,63,057,47,,,,*44
###2023-12-09 13:23:27.010127$GLGSV,2,1,06,65,34,323,42,71,29,175,44,72,68,232,46,73,27,049,42*6E
###2023-12-09 13:23:27.011876$GLGSV,2,2,06,74,63,004,43,75,40,265,44,,,,,,,,*61
###2023-12-09 13:23:27.014184$GAGSV,1,1,04,04,36,311,41,19,77,186,41,21,81,054,46,27,26,049,40*68
###2023-12-09 13:23:27.016513$GBGSV,2,1,06,14,34,191,44,24,66,040,49,25,47,271,45,26,19,068,42*6F
###2023-12-09 13:23:27.018246$GBGSV,2,2,06,33,50,221,47,35,16,061,41,,,,,,,,*69
###2023-12-09 13:23:27.019573$GNVTG,275.88,T,,M,3.09,N,5.72,K,A*29
###2023-12-09 13:23:27.021212$GNGST,182326.10,18.000,,,,0.100,0.072,0.160*50
###2023-12-09 13:23:27.022494$GNZDA,182326.10,09,12,2023,00,00*7C
###2023-12-09 13:23:27.023143$GNEBP,,,,,,M*13
###2023-12-09 13:23:27.194478$GNGGA,182326.30,4138.0319731,N,07032.3766111,W,1,24,0.7,12.964,M,-29.745,M,0.0,*5B
###2023-12-09 13:23:27.387002$GNGGA,182326.50,4138.0320078,N,07032.3768367,W,1,24,0.7,12.962,M,-29.745,M,0.0,*56
###2023-12-09 13:23:27.588098$GNGGA,182326.70,4138.0320488,N,07032.3770592,W,1,24,0.7,12.964,M,-29.745,M,0.0,*5C
###2023-12-09 13:23:27.789023$GNGGA,182326.90,4138.0320950,N,07032.3772834,W,1,24,0.7,12.962,M,-29.745,M,0.0,*5F
###2023-12-09 13:23:27.994719$GNRMC,182327.10,A,4138.0321515,N,07032.3775101,W,3.19,288.66,091223,,,A*53
###2023-12-09 13:23:27.997573$GNGGA,182327.10,4138.0321515,N,07032.3775101,W,1,24,0.7,12.958,M,-29.745,M,0.0,*5B
###2023-12-09 13:23:27.999379$GPGSA,A,3,03,04,16,26,28,29,31,,,,,,1.1,0.7,0.9*3B
###2023-12-09 13:23:28.001393$GLGSA,A,3,65,71,72,73,74,75,,,,,,,1.1,0.7,0.9*25
###2023-12-09 13:23:28.003026$GAGSA,A,3,04,19,21,27,,,,,,,,,1.1,0.7,0.9*27
###2023-12-09 13:23:28.004759$GBGSA,A,3,14,24,25,26,33,35,,,,,,,1.1,0.7,0.9*28
###2023-12-09 13:23:28.007112$GPGSV,2,1,07,03,30,251,42,04,42,310,42,16,61,218,46,26,89,050,48*7E
###2023-12-09 13:23:28.009150$GPGSV,2,2,07,28,42,080,44,29,23,052,42,31,63,057,47,,,,*47
###2023-12-09 13:23:28.011486$GLGSV,2,1,06,65,34,323,41,71,29,175,42,72,68,232,45,73,27,049,44*6E
###2023-12-09 13:23:28.013228$GLGSV,2,2,06,74,63,004,42,75,40,265,45,,,,,,,,*61
###2023-12-09 13:23:28.015558$GAGSV,1,1,04,04,36,311,42,19,77,186,41,21,81,054,46,27,26,049,42*69
###2023-12-09 13:23:28.017878$GBGSV,2,1,06,14,34,191,44,24,66,040,50,25,47,271,46,26,19,068,44*62
###2023-12-09 13:23:28.019626$GBGSV,2,2,06,33,50,221,48,35,16,061,44,,,,,,,,*63
