###2023-12-09 12:51:19.954667$GNGGA,175119.10,4138.0557906,N,07032.3801595,W,1,24,0.6,13.508,M,-29.744,M,0.0,*58
###2023-12-09 12:51:19.956547$GPGSA,A,3,03,04,16,26,28,29,31,32,,,,,1.1,0.6,0.9*3B
###2023-12-09 12:51:19.958270$GLGSA,A,3,65,71,72,73,74,75,,,,,,,1.1,0.6,0.9*24
###2023-12-09 12:51:19.959887$GAGSA,A,3,04,19,21,27,,,,,,,,,1.1,0.6,0.9*26
###2023-12-09 12:51:19.961532$GBGSA,A,3,14,24,25,26,33,,,,,,,,1.1,0.6,0.9*2F
###2023-12-09 12:51:19.963871$GPGSV,2,1,08,03,37,267,45,04,29,311,41,16,44,210,46,26,74,208,48*79
###2023-12-09 12:51:19.966198$GPGSV,2,2,08,28,53,065,46,29,26,066,43,31,71,024,47,32,23,138,44*7F
###2023-12-09 12:51:19.968564$GLGSV,2,1,06,65,19,329,38,71,47,171,48,72,72,288,45,73,40,038,45*6F
###2023-12-09 12:51:19.970307$GLGSV,2,2,06,74,71,321,42,75,28,248,46,,,,,,,,*64
###2023-12-09 12:51:19.972646$GAGSV,1,1,04,04,26,312,39,19,85,258,40,21,83,157,46,27,36,048,43*6A
###2023-12-09 12:51:19.974980$GBGSV,2,1,05,14,48,194,45,24,77,014,49,25,37,258,47,26,29,060,44*61
###2023-12-09 12:51:19.976434$GBGSV,2,2,05,33,60,240,50,,,,,,,,,,,,*5B
###2023-12-09 12:51:19.977756$GNVTG,316.74,T,,M,1.56,N,2.88,K,A*24
###2023-12-09 12:51:19.979411$GNGST,175119.10,18.000,,,,0.078,0.068,0.160*53
###2023-12-09 12:51:19.980703$GNZDA,175119.10,09,12,2023,00,00*7A
###2023-12-09 12:51:19.981340$GNEBP,,,,,,M*13
###2023-12-09 12:51:20.150330$GNGGA,175119.30,4138.0558491,N,07032.3802351,W,1,24,0.6,13.515,M,-29.744,M,0.0,*57
###2023-12-09 12:51:20.350789$GNGGA,175119.50,4138.0558999,N,07032.3803183,W,1,24,0.6,13.511,M,-29.744,M,0.0,*5C
###2023-12-09 12:51:20.550224$GNGGA,175119.70,4138.0559502,N,07032.3804029,W,1,24,0.6,13.505,M,-29.744,M,0.0,*52
###2023-12-09 12:51:20.750944$GNGGA,175119.90,4138.0560036,N,07032.3804737,W,1,24,0.6,13.497,M,-29.744,M,0.0,*56
###2023-12-09 12:51:20.957287$GNRMC,175120.10,A,4138.0560627,N,07032.3805295,W,1.26,327.17,091223,,,A*55
###2023-12-09 12:51:20.960182$GNGGA,175120.10,4138.0560627,N,07032.3805295,W,1,24,0.6,13.497,M,-29.744,M,0.0,*5E
###2023-12-09 12:51:20.962041$GPGSA,A,3,03,04,16,26,28,29,31,32,,,,,1.1,0.6,0.9*3B
###2023-12-09 12:51:20.963772$GLGSA,A,3,65,71,72,73,74,75,,,,,,,1.1,0.6,0.9*24
###2023-12-09 12:51:20.965360$GAGSA,A,3,04,19,21,27,,,,,,,,,1.1,0.6,0.9*26
###2023-12-09 12:51:20.967022$GBGSA,A,3,14,24,25,26,33,,,,,,,,1.1,0.6,0.9*2F
###2023-12-09 12:51:20.969352$GPGSV,2,1,08,03,37,267,44,04,29,311,41,16,44,210,45,26,74,208,48*7B
###2023-12-09 12:51:20.971696$GPGSV,2,2,08,28,53,065,45,29,26,066,43,31,71,024,47,32,23,138,42*7A
###2023-12-09 12:51:20.974032$GLGSV,2,1,06,65,19,329,38,71,47,171,48,72,72,288,46,73,40,038,46*6F
###2023-12-09 12:51:20.975790$GLGSV,2,2,06,74,71,321,42,75,28,248,46,,,,,,,,*64
###2023-12-09 12:51:20.978120$GAGSV,1,1,04,04,26,312,39,19,85,258,40,21,83,157,46,27,36,048,43*6A
###2023-12-09 12:51:20.980467$GBGSV,2,1,05,14,48,194,46,24,77,014,49,25,37,258,46,26,29,060,45*62
###2023-12-09 12:51:20.981927$GBGSV,2,2,05,33,60,240,49,,,,,,,,,,,,*53
###2023-12-09 12:51:20.983263$GNVTG,327.17,T,,M,1.26,N,2.34,K,A*23
###2023-12-09 12:51:20.984912$GNGST,175120.10,18.000,,,,0.078,0.067,0.160*56
###2023-12-09 12:51:20.986201$GNZDA,175120.10,09,12,2023,00,00*70
###2023-12-09 12:51:20.986850$GNEBP,,,,,,M*13
###2023-12-09 12:51:21.151760$GNGGA,175120.30,4138.0561183,N,07032.3805814,W,1,24,0.6,13.494,M,-29.744,M,0.0,*54
###2023-12-09 12:51:21.350635$GNGGA,175120.50,4138.0561696,N,07032.3806386,W,1,24,0.6,13.479,M,-29.744,M,0.0,*51
###2023-12-09 12:51:21.551792$GNGGA,175120.70,4138.0562169,N,07032.3807008,W,1,24,0.6,13.474,M,-29.744,M,0.0,*5E
###2023-12-09 12:51:21.753223$GNGGA,175120.90,4138.0562661,N,07032.3807548,W,1,24,0.6,13.472,M,-29.744,M,0.0,*58
###2023-12-09 12:51:21.951613$GNRMC,175121.10,A,4138.0563153,N,07032.3807966,W,1.11,330.02,091223,,,A*50
###2023-12-09 12:51:21.954468$GNGGA,175121.10,4138.0563153,N,07032.3807966,W,1,24,0.6,13.477,M,-29.744,M,0.0,*53
###2023-12-09 12:51:21.956336$GPGSA,A,3,03,04,16,26,28,29,31,32,,,,,1.1,0.6,0.9*3B
###2023-12-09 12:51:21.958053$GLGSA,A,3,65,71,72,73,74,75,,,,,,,1.1,0.6,0.9*24
###2023-12-09 12:51:21.959654$GAGSA,A,3,04,19,21,27,,,,,,,,,1.1,0.6,0.9*26
###2023-12-09 12:51:21.961304$GBGSA,A,3,14,24,25,26,33,,,,,,,,1.1,0.6,0.9*2F
###2023-12-09 12:51:21.963678$GPGSV,2,1,08,03,37,267,46,04,29,311,41,16,44,210,46,26,74,208,47*75
###2023-12-09 12:51:21.966020$GPGSV,2,2,08,28,53,065,45,29,26,066,43,31,71,024,47,32,23,138,41*79
###2023-12-09 12:51:21.968370$GLGSV,2,1,06,65,19,329,39,71,47,171,47,72,72,288,45,73,40,038,45*61
###2023-12-09 12:51:21.970127$GLGSV,2,2,06,74,71,321,42,75,28,248,46,,,,,,,,*64
###2023-12-09 12:51:21.972477$GAGSV,1,1,04,04,26,312,39,19,85,258,41,21,83,157,46,27,36,048,42*6A
###2023-12-09 12:51:21.974810$GBGSV,2,1,05,14,48,194,45,24,77,014,49,25,37,258,46,26,29,060,44*60
###2023-12-09 12:51:21.976272$GBGSV,2,2,05,33,60,240,48,,,,,,,,,,,,*52
###2023-12-09 12:51:21.977597$GNVTG,330.02,T,,M,1.11,N,2.05,K,A*27
###2023-12-09 12:51:21.979261$GNGST,175121.10,18.000,,,,0.079,0.067,0.160*56
###2023-12-09 12:51:21.980564$GNZDA,175121.10,09,12,2023,00,00*71
###2023-12-09 12:51:21.981205$GNEBP,,,,,,M*13
###2023-12-09 12:51:22.151071$GNGGA,175121.30,4138.0563655,N,07032.3808340,W,1,24,0.6,13.478,M,-29.744,M,0.0,*5E
###2023-12-09 12:51:22.351748$GNGGA,175121.50,4138.0564162,N,07032.3808709,W,1,24,0.6,13.475,M,-29.744,M,0.0,*58
###2023-12-09 12:51:22.551762$GNGGA,175121.70,4138.0564669,N,07032.3809053,W,1,24,0.6,13.469,M,-29.744,M,0.0,*52
###2023-12-09 12:51:22.756148$GNGGA,175121.90,4138.0565136,N,07032.3809387,W,1,24,0.6,13.465,M,-29.744,M,0.0,*56
###2023-12-09 12:51:22.954458$GNRMC,175122.10,A,4138.0565580,N,07032.3809717,W,0.89,334.14,091223,,,A*5A
###2023-12-09 12:51:22.957351$GNGGA,175122.10,4138.0565580,N,07032.3809717,W,1,24,0.6,13.467,M,-29.744,M,0.0,*5B
###2023-12-09 12:51:22.959239$GPGSA,A,3,03,04,16,26,28,29,31,32,,,,,1.1,0.6,0.9*3B
###2023-12-09 12:51:22.960963$GLGSA,A,3,65,71,72,73,74,75,,,,,,,1.1,0.6,0.9*24
###2023-12-09 12:51:22.962545$GAGSA,A,3,04,19,21,27,,,,,,,,,1.1,0.6,0.9*26
###2023-12-09 12:51:22.964219$GBGSA,A,3,14,24,25,26,33,,,,,,,,1.1,0.6,0.9*2F
###2023-12-09 12:51:22.966550$GPGSV,2,1,08,03,37,267,46,04,29,311,44,16,44,210,47,26,74,208,49*7F
###2023-12-09 12:51:22.968903$GPGSV,2,2,08,28,53,065,46,29,26,066,42,31,71,024,48,32,23,138,43*76
###2023-12-09 12:51:22.971250$GLGSV,2,1,06,65,19,329,39,71,47,171,47,72,72,288,45,73,40,038,46*62
###2023-12-09 12:51:22.973002$GLGSV,2,2,06,74,71,321,42,75,28,248,45,,,,,,,,*67
###2023-12-09 12:51:22.975345$GAGSV,1,1,04,04,26,312,43,19,85,258,41,21,83,157,47,27,36,048,42*66
###2023-12-09 12:51:22.977685$GBGSV,2,1,05,14,48,194,44,24,77,014,48,25,37,258,46,26,29,060,42*66
###2023-12-09 12:51:22.979151$GBGSV,2,2,05,33,60,240,48,,,,,,,,,,,,*52
###2023-12-09 12:51:22.980477$GNVTG,334.14,T,,M,0.89,N,1.66,K,A*22
###2023-12-09 12:51:22.982125$GNGST,175122.10,18.000,,,,0.078,0.067,0.160*54
###2023-12-09 12:51:22.983432$GNZDA,175122.10,09,12,2023,00,00*72
###2023-12-09 12:51:22.984070$GNEBP,,,,,,M*13
###2023-12-09 12:51:23.150189$GNGGA,175122.30,4138.0566024,N,07032.3810070,W,1,24,0.6,13.464,M,-29.744,M,0.0,*5C
###2023-12-09 12:51:23.350978$GNGGA,175122.50,4138.0566454,N,07032.3810390,W,1,24,0.6,13.466,M,-29.744,M,0.0,*56
###2023-12-09 12:51:23.551987$GNGGA,175122.70,4138.0566886,N,07032.3810606,W,1,24,0.6,13.463,M,-29.744,M,0.0,*58
###2023-12-09 12:51:23.752874$GNGGA,175122.90,4138.0567337,N,07032.3810794,W,1,24,0.6,13.463,M,-29.744,M,0.0,*5C
###2023-12-09 12:51:23.952239$GNRMC,175123.10,A,4138.0567760,N,07032.3811087,W,0.89,334.14,091223,,,A*52
###2023-12-09 12:51:23.955121$GNGGA,175123.10,4138.0567760,N,07032.3811087,W,1,24,0.6,13.463,M,-29.744,M,0.0,*57
###2023-12-09 12:51:23.956983$GPGSA,A,3,03,04,16,26,28,29,31,32,,,,,1.1,0.6,0.9*3B
###2023-12-09 12:51:23.958721$GLGSA,A,3,65,71,72,73,74,75,,,,,,,1.1,0.6,0.9*24
###2023-12-09 12:51:23.960311$GAGSA,A,3,04,19,21,27,,,,,,,,,1.1,0.6,0.9*26
###2023-12-09 12:51:23.961959$GBGSA,A,3,14,24,25,26,33,,,,,,,,1.1,0.6,0.9*2F
###2023-12-09 12:51:23.964311$GPGSV,2,1,08,03,37,267,45,04,29,311,43,16,44,210,46,26,74,208,49*7A
###2023-12-09 12:51:23.966660$GPGSV,2,2,08,28,53,065,46,29,26,066,43,31,71,024,47,32,23,138,43*78
###2023-12-09 12:51:23.969238$GLGSV,2,1,06,65,19,329,39,71,47,171,47,72,72,288,46,73,40,038,46*61
###2023-12-09 12:51:23.971019$GLGSV,2,2,06,74,71,321,42,75,28,248,44,,,,,,,,*66
###2023-12-09 12:51:23.973356$GAGSV,1,1,04,04,26,312,42,19,85,258,41,21,83,157,46,27,36,048,42*66
###2023-12-09 12:51:23.975705$GBGSV,2,1,05,14,48,194,44,24,77,014,48,25,37,258,46,26,29,060,43*67
###2023-12-09 12:51:23.977161$GBGSV,2,2,05,33,60,240,46,,,,,,,,,,,,*5C
###2023-12-09 12:51:23.978489$GNVTG,334.14,T,,M,0.89,N,1.66,K,A*22
###2023-12-09 12:51:23.980163$GNGST,175123.10,18.000,,,,0.078,0.066,0.160*54
###2023-12-09 12:51:23.981457$GNZDA,175123.10,09,12,2023,00,00*73
###2023-12-09 12:51:23.982096$GNEBP,,,,,,M*13
