###2023-12-09 12:29:22.962489$GNZDA,172922.10,09,12,2023,00,00*7D
###2023-12-09 12:29:22.963196$GNEBP,,,,,,M*13
###2023-12-09 12:29:23.121468$GNGGA,172922.30,4138.0381717,N,07032.4359831,W,1,17,0.8,15.348,M,-29.746,M,0.0,*54
###2023-12-09 12:29:23.321450$GNGGA,172922.50,4138.0381863,N,07032.4360256,W,1,17,0.8,15.232,M,-29.746,M,0.0,*53
###2023-12-09 12:29:23.522076$GNGGA,172922.70,4138.0382001,N,07032.4360661,W,1,17,0.8,15.123,M,-29.746,M,0.0,*5D
###2023-12-09 12:29:23.719967$GNGGA,172922.90,4138.0382202,N,07032.4361211,W,1,17,0.8,14.978,M,-29.746,M,0.0,*57
###2023-12-09 12:29:23.921560$GNRMC,172923.10,A,4138.0382454,N,07032.4361874,W,0.02,,091223,,,A*47
###2023-12-09 12:29:23.924717$GNGGA,172923.10,4138.0382454,N,07032.4361874,W,1,17,0.8,14.808,M,-29.746,M,0.0,*54
###2023-12-09 12:29:23.926741$GPGSA,A,3,03,16,26,28,29,31,32,,,,,,1.5,0.8,1.3*3E
###2023-12-09 12:29:23.928534$GLGSA,A,3,71,72,73,75,,,,,,,,,1.5,0.8,1.3*25
###2023-12-09 12:29:23.930173$GAGSA,A,3,21,27,,,,,,,,,,,1.5,0.8,1.3*2B
###2023-12-09 12:29:23.931960$GBGSA,A,3,14,25,26,33,,,,,,,,,1.5,0.8,1.3*28
###2023-12-09 12:29:23.934479$GPGSV,2,1,07,03,39,280,40,16,34,206,44,26,63,206,43,28,60,052,45*76
###2023-12-09 12:29:23.936722$GPGSV,2,2,07,29,25,077,43,31,73,351,45,32,33,132,47,,,,*47
###2023-12-09 12:29:23.939312$GLGSV,1,1,04,71,60,168,49,72,63,314,42,73,50,032,46,75,20,239,35*6F
###2023-12-09 12:29:23.941277$GAGSV,1,1,02,21,75,179,37,27,43,050,45,,,,,,,,*66
###2023-12-09 12:29:23.943806$GBGSV,1,1,04,14,57,199,46,25,31,251,37,26,37,056,44,33,64,260,41*6C
###2023-12-09 12:29:23.945129$GNVTG,,T,,M,0.02,N,0.04,K,A*3B
###2023-12-09 12:29:23.946981$GNGST,172923.10,31.000,,,,0.110,0.140,0.320*5C
###2023-12-09 12:29:23.948509$GNZDA,172923.10,09,12,2023,00,00*7C
###2023-12-09 12:29:23.949348$GNEBP,,,,,,M*13
###2023-12-09 12:29:24.122622$GNGGA,172923.30,4138.0382671,N,07032.4362461,W,1,17,0.8,14.653,M,-29.746,M,0.0,*58
###2023-12-09 12:29:24.321403$GNGGA,172923.50,4138.0382873,N,07032.4363020,W,1,18,0.8,14.501,M,-29.746,M,0.0,*59
###2023-12-09 12:29:24.527002$GNGGA,172923.70,4138.0383063,N,07032.4363550,W,1,18,0.8,14.358,M,-29.746,M,0.0,*5B
###2023-12-09 12:29:24.723511$GNGGA,172923.90,4138.0383253,N,07032.4364061,W,1,18,0.8,14.221,M,-29.746,M,0.0,*5B
###2023-12-09 12:29:24.923668$GNRMC,172924.10,A,4138.0383428,N,07032.4364526,W,0.04,,091223,,,A*43
###2023-12-09 12:29:24.926763$GNGGA,172924.10,4138.0383428,N,07032.4364526,W,1,18,0.8,14.092,M,-29.746,M,0.0,*52
###2023-12-09 12:29:24.928777$GPGSA,A,3,03,16,26,28,29,31,32,,,,,,1.5,0.8,1.2*3F
###2023-12-09 12:29:24.930626$GLGSA,A,3,71,72,73,75,,,,,,,,,1.5,0.8,1.2*24
###2023-12-09 12:29:24.932291$GAGSA,A,3,21,27,,,,,,,,,,,1.5,0.8,1.2*2A
###2023-12-09 12:29:24.934055$GBGSA,A,3,14,25,26,33,,,,,,,,,1.5,0.8,1.2*29
###2023-12-09 12:29:24.936587$GPGSV,2,1,07,03,39,280,40,16,34,206,44,26,63,206,43,28,60,052,45*76
###2023-12-09 12:29:24.938844$GPGSV,2,2,07,29,25,077,43,31,73,351,45,32,33,132,47,,,,*47
###2023-12-09 12:29:24.941400$GLGSV,1,1,04,71,60,168,49,72,63,314,42,73,50,032,46,75,20,239,35*6F
###2023-12-09 12:29:24.943359$GAGSV,1,1,02,21,75,179,37,27,43,050,45,,,,,,,,*66
###2023-12-09 12:29:24.945880$GBGSV,1,1,04,14,57,199,46,25,31,251,37,26,37,056,45,33,64,260,41*6D
###2023-12-09 12:29:24.947237$GNVTG,,T,,M,0.04,N,0.07,K,A*3E
###2023-12-09 12:29:24.949110$GNGST,172924.10,31.000,,,,0.110,0.130,0.310*5F
###2023-12-09 12:29:24.950609$GNZDA,172924.10,09,12,2023,00,00*7B
###2023-12-09 12:29:24.951441$GNEBP,,,,,,M*13
###2023-12-09 12:29:25.121737$GNGGA,172924.30,4138.0383594,N,07032.4364976,W,1,18,0.8,13.971,M,-29.746,M,0.0,*5C
###2023-12-09 12:29:25.322436$GNGGA,172924.50,4138.0383831,N,07032.4365564,W,1,18,0.8,13.808,M,-29.746,M,0.0,*59
###2023-12-09 12:29:25.521407$GNGGA,172924.70,4138.0384041,N,07032.4366098,W,1,18,0.8,13.655,M,-29.746,M,0.0,*50
###2023-12-09 12:29:25.721440$GNGGA,172924.90,4138.0384229,N,07032.4366599,W,1,18,0.8,13.520,M,-29.746,M,0.0,*57
###2023-12-09 12:29:25.923512$GNRMC,172925.10,A,4138.0384413,N,07032.4367058,W,0.02,,091223,,,A*44
###2023-12-09 12:29:25.926381$GNGGA,172925.10,4138.0384413,N,07032.4367058,W,1,18,0.8,13.396,M,-29.746,M,0.0,*53
###2023-12-09 12:29:25.928211$GPGSA,A,3,03,16,26,28,29,31,32,,,,,,1.5,0.8,1.2*3F
###2023-12-09 12:29:25.929815$GLGSA,A,3,71,72,73,75,,,,,,,,,1.5,0.8,1.2*24
###2023-12-09 12:29:25.931293$GAGSA,A,3,21,27,,,,,,,,,,,1.5,0.8,1.2*2A
###2023-12-09 12:29:25.932895$GBGSA,A,3,14,25,26,33,,,,,,,,,1.5,0.8,1.2*29
###2023-12-09 12:29:25.935246$GPGSV,2,1,07,03,39,280,40,16,34,206,44,26,63,206,43,28,60,052,45*76
###2023-12-09 12:29:25.937298$GPGSV,2,2,07,29,25,077,43,31,73,351,45,32,33,132,47,,,,*47
###2023-12-09 12:29:25.939656$GLGSV,1,1,04,71,60,168,48,72,63,314,43,73,50,032,46,75,20,239,35*6F
###2023-12-09 12:29:25.941415$GAGSV,1,1,02,21,75,179,37,27,43,050,45,,,,,,,,*66
###2023-12-09 12:29:25.943756$GBGSV,1,1,04,14,57,199,44,25,31,251,37,26,37,056,43,33,64,260,39*66
###2023-12-09 12:29:25.944900$GNVTG,,T,,M,0.02,N,0.04,K,A*3B
###2023-12-09 12:29:25.946553$GNGST,172925.10,31.000,,,,0.110,0.120,0.300*5E
###2023-12-09 12:29:25.947917$GNZDA,172925.10,09,12,2023,00,00*7A
###2023-12-09 12:29:25.948586$GNEBP,,,,,,M*13
###2023-12-09 12:29:26.122685$GNGGA,172925.30,4138.0384575,N,07032.4367504,W,1,18,0.8,13.275,M,-29.746,M,0.0,*50
###2023-12-09 12:29:26.323490$GNGGA,172925.50,4138.0384737,N,07032.4367918,W,1,18,0.8,13.165,M,-29.746,M,0.0,*51
###2023-12-09 12:29:26.522351$GNGGA,172925.70,4138.0384882,N,07032.4368308,W,1,18,0.8,13.058,M,-29.746,M,0.0,*59
###2023-12-09 12:29:26.720450$GNGGA,172925.90,4138.0385017,N,07032.4368646,W,1,18,0.8,12.955,M,-29.746,M,0.0,*58
###2023-12-09 12:29:26.923550$GNRMC,172926.10,A,4138.0385150,N,07032.4368959,W,0.02,,091223,,,A*43
###2023-12-09 12:29:26.926406$GNGGA,172926.10,4138.0385150,N,07032.4368959,W,1,18,0.8,12.864,M,-29.746,M,0.0,*53
###2023-12-09 12:29:26.928231$GPGSA,A,3,03,16,26,28,29,31,32,,,,,,1.5,0.8,1.2*3F
###2023-12-09 12:29:26.929820$GLGSA,A,3,71,72,73,75,,,,,,,,,1.5,0.8,1.2*24
###2023-12-09 12:29:26.931301$GAGSA,A,3,21,27,,,,,,,,,,,1.5,0.8,1.2*2A
###2023-12-09 12:29:26.932891$GBGSA,A,3,14,25,26,33,,,,,,,,,1.5,0.8,1.2*29
###2023-12-09 12:29:26.935239$GPGSV,2,1,07,03,39,280,40,16,34,206,44,26,63,206,43,28,60,052,45*76
###2023-12-09 12:29:26.937294$GPGSV,2,2,07,29,25,077,42,31,73,351,45,32,33,132,47,,,,*46
###2023-12-09 12:29:26.939638$GLGSV,1,1,04,71,60,168,48,72,63,314,43,73,50,032,46,75,20,239,35*6F
###2023-12-09 12:29:26.941392$GAGSV,1,1,02,21,75,179,37,27,43,050,44,,,,,,,,*67
###2023-12-09 12:29:26.943743$GBGSV,1,1,04,14,57,199,46,25,31,251,37,26,37,056,44,33,64,260,40*6D
###2023-12-09 12:29:26.944891$GNVTG,,T,,M,0.02,N,0.04,K,A*3B
###2023-12-09 12:29:26.946579$GNGST,172926.10,31.000,,,,0.110,0.120,0.290*55
###2023-12-09 12:29:26.947941$GNZDA,172926.10,09,12,2023,00,00*79
###2023-12-09 12:29:26.948620$GNEBP,,,,,,M*13
###2023-12-09 12:29:27.123515$GNGGA,172926.30,4138.0385278,N,07032.4369259,W,1,18,0.8,12.771,M,-29.746,M,0.0,*59
###2023-12-09 12:29:27.320378$GNGGA,172926.50,4138.0385386,N,07032.4369548,W,1,17,0.8,12.689,M,-29.746,M,0.0,*51
###2023-12-09 12:29:27.521500$GNGGA,172926.70,4138.0385499,N,07032.4369817,W,1,17,0.8,12.610,M,-29.746,M,0.0,*5D
###2023-12-09 12:29:27.720386$GNGGA,172926.90,4138.0385601,N,07032.4370075,W,1,18,0.8,12.538,M,-29.746,M,0.0,*52
###2023-12-09 12:29:27.921989$GNRMC,172927.10,A,4138.0385680,N,07032.4370282,W,0.06,,091223,,,A*48
###2023-12-09 12:29:27.924887$GNGGA,172927.10,4138.0385680,N,07032.4370282,W,1,18,0.8,12.473,M,-29.746,M,0.0,*56
###2023-12-09 12:29:27.926711$GPGSA,A,3,03,16,26,28,29,31,32,,,,,,1.5,0.8,1.2*3F
###2023-12-09 12:29:27.928308$GLGSA,A,3,71,72,73,75,,,,,,,,,1.5,0.8,1.2*24
###2023-12-09 12:29:27.929765$GAGSA,A,3,21,27,,,,,,,,,,,1.5,0.8,1.2*2A
###2023-12-09 12:29:27.931377$GBGSA,A,3,14,25,26,33,,,,,,,,,1.5,0.8,1.2*29
###2023-12-09 12:29:27.933713$GPGSV,2,1,07,03,39,280,40,16,34,206,44,26,63,206,44,28,60,052,45*71
###2023-12-09 12:29:27.935786$GPGSV,2,2,07,29,25,077,43,31,73,351,45,32,33,132,47,,,,*47
###2023-12-09 12:29:27.938134$GLGSV,1,1,04,71,60,168,48,72,63,314,43,73,50,032,45,75,20,239,35*6C
###2023-12-09 12:29:27.939913$GAGSV,1,1,02,21,75,179,38,27,43,050,45,,,,,,,,*69
###2023-12-09 12:29:27.942515$GBGSV,1,1,04,14,57,199,46,25,31,251,38,26,37,056,44,33,64,260,40*62
###2023-12-09 12:29:27.943687$GNVTG,,T,,M,0.06,N,0.11,K,A*3B
###2023-12-09 12:29:27.945350$GNGST,172927.10,31.000,,,,0.110,0.110,0.290*57
###2023-12-09 12:29:27.946721$GNZDA,172927.10,09,12,2023,00,00*78
###2023-12-09 12:29:27.947395$GNEBP,,,,,,M*13
###2023-12-09 12:29:28.122380$GNGGA,172927.30,4138.0385764,N,07032.4370466,W,1,18,0.8,12.413,M,-29.746,M,0.0,*55
###2023-12-09 12:29:28.323994$GNGGA,172927.50,4138.0385839,N,07032.4370630,W,1,18,0.8,12.360,M,-29.746,M,0.0,*56
###2023-12-09 12:29:28.524071$GNGGA,172927.70,4138.0385901,N,07032.4370781,W,1,18,0.8,12.316,M,-29.746,M,0.0,*54
