###2023-12-09 12:29:49.923096$GNRMC,172949.10,A,4138.0385117,N,07032.4367582,W,0.02,,091223,,,A*4C
###2023-12-09 12:29:49.926038$GNGGA,172949.10,4138.0385117,N,07032.4367582,W,1,18,0.7,12.644,M,-29.746,M,0.0,*5F
###2023-12-09 12:29:49.927982$GPGSA,A,3,03,04,16,26,28,29,31,32,,,,,1.4,0.7,1.2*35
###2023-12-09 12:29:49.929627$GLGSA,A,3,71,72,73,75,,,,,,,,,1.4,0.7,1.2*2A
###2023-12-09 12:29:49.931149$GAGSA,A,3,21,27,,,,,,,,,,,1.4,0.7,1.2*24
###2023-12-09 12:29:49.932778$GBGSA,A,3,14,25,26,33,,,,,,,,,1.4,0.7,1.2*27
###2023-12-09 12:29:49.935171$GPGSV,2,1,08,03,39,280,39,04,20,310,37,16,34,206,43,26,64,206,43*7D
###2023-12-09 12:29:49.937559$GPGSV,2,2,08,28,60,053,45,29,25,076,44,31,73,353,45,32,32,133,49*79
###2023-12-09 12:29:49.939952$GLGSV,1,1,04,71,60,168,48,72,63,314,44,73,50,032,43,75,20,239,36*6E
###2023-12-09 12:29:49.941779$GAGSV,1,1,02,21,75,179,39,27,43,050,44,,,,,,,,*69
###2023-12-09 12:29:49.944168$GBGSV,1,1,04,14,57,199,45,25,31,251,38,26,37,056,45,33,64,260,40*60
###2023-12-09 12:29:49.945342$GNVTG,,T,,M,0.02,N,0.04,K,A*3B
###2023-12-09 12:29:49.947064$GNGST,172949.10,31.000,,,,0.100,0.110,0.280*5F
###2023-12-09 12:29:49.948426$GNZDA,172949.10,09,12,2023,00,00*70
###2023-12-09 12:29:49.949110$GNEBP,,,,,,M*13
###2023-12-09 12:29:50.122951$GNGGA,172949.30,4138.0385160,N,07032.4367703,W,1,18,0.7,12.614,M,-29.746,M,0.0,*53
###2023-12-09 12:29:50.322880$GNGGA,172949.50,4138.0385204,N,07032.4367839,W,1,18,0.7,12.583,M,-29.746,M,0.0,*5F
###2023-12-09 12:29:50.521897$GNGGA,172949.70,4138.0385254,N,07032.4367982,W,1,18,0.7,12.550,M,-29.746,M,0.0,*57
###2023-12-09 12:29:50.721041$GNGGA,172949.90,4138.0385281,N,07032.4368074,W,1,18,0.7,12.527,M,-29.746,M,0.0,*5E
###2023-12-09 12:29:50.925135$GNRMC,172950.10,A,4138.0385304,N,07032.4368168,W,0.04,,091223,,,A*4D
###2023-12-09 12:29:50.928110$GNGGA,172950.10,4138.0385304,N,07032.4368168,W,1,18,0.7,12.504,M,-29.746,M,0.0,*5F
###2023-12-09 12:29:50.930021$GPGSA,A,3,03,04,16,26,28,29,31,32,,,,,1.4,0.7,1.2*35
###2023-12-09 12:29:50.931667$GLGSA,A,3,71,72,73,75,,,,,,,,,1.4,0.7,1.2*2A
###2023-12-09 12:29:50.933208$GAGSA,A,3,21,27,,,,,,,,,,,1.4,0.7,1.2*24
###2023-12-09 12:29:50.934850$GBGSA,A,3,14,25,26,33,,,,,,,,,1.4,0.7,1.2*27
###2023-12-09 12:29:50.937223$GPGSV,2,1,08,03,39,280,40,04,20,310,37,16,34,206,43,26,64,206,43*73
###2023-12-09 12:29:50.939605$GPGSV,2,2,08,28,60,053,45,29,25,076,44,31,73,353,45,32,32,133,48*78
###2023-12-09 12:29:50.941978$GLGSV,1,1,04,71,60,168,48,72,63,314,44,73,50,032,44,75,20,239,36*69
###2023-12-09 12:29:50.943778$GAGSV,1,1,02,21,75,179,39,27,43,050,44,,,,,,,,*69
###2023-12-09 12:29:50.946143$GBGSV,1,1,04,14,57,199,45,25,31,251,38,26,37,056,45,33,64,260,39*6E
###2023-12-09 12:29:50.947346$GNVTG,,T,,M,0.04,N,0.07,K,A*3E
###2023-12-09 12:29:50.949043$GNGST,172950.10,31.000,,,,0.100,0.110,0.270*58
###2023-12-09 12:29:50.950374$GNZDA,172950.10,09,12,2023,00,00*78
###2023-12-09 12:29:50.951070$GNEBP,,,,,,M*13
###2023-12-09 12:29:51.125078$GNGGA,172950.30,4138.0385337,N,07032.4368254,W,1,18,0.7,12.484,M,-29.746,M,0.0,*58
###2023-12-09 12:29:51.322885$GNGGA,172950.50,4138.0385354,N,07032.4368323,W,1,18,0.7,12.475,M,-29.746,M,0.0,*54
###2023-12-09 12:29:51.524683$GNGGA,172950.70,4138.0385372,N,07032.4368379,W,1,18,0.7,12.465,M,-29.746,M,0.0,*5C
###2023-12-09 12:29:51.724092$GNGGA,172950.90,4138.0385390,N,07032.4368446,W,1,18,0.7,12.449,M,-29.746,M,0.0,*5B
###2023-12-09 12:29:51.924351$GNRMC,172951.10,A,4138.0385401,N,07032.4368492,W,0.04,,091223,,,A*4E
###2023-12-09 12:29:51.927244$GNGGA,172951.10,4138.0385401,N,07032.4368492,W,1,18,0.7,12.440,M,-29.746,M,0.0,*5D
###2023-12-09 12:29:51.929126$GPGSA,A,3,03,04,16,26,28,29,31,32,,,,,1.4,0.7,1.2*35
###2023-12-09 12:29:51.930750$GLGSA,A,3,71,72,73,75,,,,,,,,,1.4,0.7,1.2*2A
###2023-12-09 12:29:51.932223$GAGSA,A,3,21,27,,,,,,,,,,,1.4,0.7,1.2*24
###2023-12-09 12:29:51.933831$GBGSA,A,3,14,25,26,33,,,,,,,,,1.4,0.7,1.2*27
###2023-12-09 12:29:51.936193$GPGSV,2,1,08,03,39,280,40,04,20,310,37,16,34,206,43,26,64,206,43*73
###2023-12-09 12:29:51.938548$GPGSV,2,2,08,28,60,053,45,29,25,076,44,31,73,353,45,32,32,133,48*78
###2023-12-09 12:29:51.940911$GLGSV,1,1,04,71,60,168,48,72,63,314,44,73,50,032,43,75,20,239,37*6F
###2023-12-09 12:29:51.942697$GAGSV,1,1,02,21,75,179,40,27,43,050,44,,,,,,,,*67
###2023-12-09 12:29:51.945054$GBGSV,1,1,04,14,57,199,45,25,31,251,39,26,37,056,45,33,64,260,39*6F
###2023-12-09 12:29:51.946203$GNVTG,,T,,M,0.04,N,0.07,K,A*3E
###2023-12-09 12:29:51.947928$GNGST,172951.10,31.000,,,,0.100,0.110,0.270*59
###2023-12-09 12:29:51.949265$GNZDA,172951.10,09,12,2023,00,00*79
###2023-12-09 12:29:51.949926$GNEBP,,,,,,M*13
###2023-12-09 12:29:52.124021$GNGGA,172951.30,4138.0385414,N,07032.4368549,W,1,18,0.7,12.431,M,-29.746,M,0.0,*5A
###2023-12-09 12:29:52.324016$GNGGA,172951.50,4138.0385420,N,07032.4368568,W,1,18,0.7,12.439,M,-29.746,M,0.0,*50
###2023-12-09 12:29:52.522959$GNGGA,172951.70,4138.0385422,N,07032.4368567,W,1,18,0.7,12.452,M,-29.746,M,0.0,*52
###2023-12-09 12:29:52.724323$GNGGA,172951.90,4138.0385424,N,07032.4368551,W,1,18,0.7,12.468,M,-29.746,M,0.0,*56
###2023-12-09 12:29:52.927538$GNRMC,172952.10,A,4138.0385427,N,07032.4368531,W,0.10,,091223,,,A*44
###2023-12-09 12:29:52.931112$GNGGA,172952.10,4138.0385427,N,07032.4368531,W,1,18,0.7,12.484,M,-29.746,M,0.0,*5A
###2023-12-09 12:29:52.933413$GPGSA,A,3,03,04,16,26,28,29,31,32,,,,,1.4,0.7,1.2*35
###2023-12-09 12:29:52.935403$GLGSA,A,3,71,72,73,75,,,,,,,,,1.4,0.7,1.2*2A
###2023-12-09 12:29:52.937195$GAGSA,A,3,21,27,,,,,,,,,,,1.4,0.7,1.2*24
###2023-12-09 12:29:52.939163$GBGSA,A,3,14,25,26,33,,,,,,,,,1.4,0.7,1.2*27
###2023-12-09 12:29:52.942016$GPGSV,2,1,08,03,39,280,39,04,20,310,36,16,34,206,43,26,64,206,43*7C
###2023-12-09 12:29:52.944897$GPGSV,2,2,08,28,60,053,45,29,25,076,44,31,73,353,45,32,32,133,49*79
###2023-12-09 12:29:52.947814$GLGSV,1,1,04,71,60,168,48,72,63,314,44,73,50,032,43,75,20,239,37*6F
###2023-12-09 12:29:52.950031$GAGSV,1,1,02,21,75,179,40,27,43,050,44,,,,,,,,*67
###2023-12-09 12:29:52.952925$GBGSV,1,1,04,14,57,199,44,25,31,251,39,26,37,056,45,33,64,260,39*6E
###2023-12-09 12:29:52.954345$GNVTG,,T,,M,0.10,N,0.18,K,A*35
###2023-12-09 12:29:52.956407$GNGST,172952.10,31.000,,,,0.100,0.110,0.270*5A
###2023-12-09 12:29:52.958016$GNZDA,172952.10,09,12,2023,00,00*7A
###2023-12-09 12:29:52.958844$GNEBP,,,,,,M*13
###2023-12-09 12:29:53.124497$GNGGA,172952.30,4138.0385421,N,07032.4368534,W,1,18,0.7,12.501,M,-29.746,M,0.0,*57
###2023-12-09 12:29:53.325869$GNGGA,172952.50,4138.0385415,N,07032.4368551,W,1,18,0.7,12.515,M,-29.746,M,0.0,*50
###2023-12-09 12:29:53.525432$GNGGA,172952.70,4138.0385407,N,07032.4368552,W,1,18,0.7,12.526,M,-29.746,M,0.0,*52
###2023-12-09 12:29:53.724120$GNGGA,172952.90,4138.0385401,N,07032.4368566,W,1,19,0.7,12.536,M,-29.746,M,0.0,*5D
###2023-12-09 12:29:53.926251$GNRMC,172953.10,A,4138.0385421,N,07032.4368627,W,0.02,,091223,,,A*44
###2023-12-09 12:29:53.929337$GNGGA,172953.10,4138.0385421,N,07032.4368627,W,1,18,0.7,12.531,M,-29.746,M,0.0,*56
###2023-12-09 12:29:53.931408$GPGSA,A,3,03,04,16,26,28,29,31,32,,,,,1.4,0.7,1.2*35
###2023-12-09 12:29:53.933171$GLGSA,A,3,71,72,73,75,,,,,,,,,1.4,0.7,1.2*2A
###2023-12-09 12:29:53.934802$GAGSA,A,3,21,27,,,,,,,,,,,1.4,0.7,1.2*24
###2023-12-09 12:29:53.936552$GBGSA,A,3,14,25,26,33,,,,,,,,,1.4,0.7,1.2*27
###2023-12-09 12:29:53.939055$GPGSV,2,1,08,03,39,280,41,04,20,310,36,16,34,206,43,26,64,206,43*73
###2023-12-09 12:29:53.941552$GPGSV,2,2,08,28,60,053,45,29,25,076,44,31,73,353,45,32,32,133,48*78
###2023-12-09 12:29:53.944073$GLGSV,1,1,04,71,60,168,48,72,63,314,44,73,50,032,43,75,20,239,38*60
###2023-12-09 12:29:53.946003$GAGSV,1,1,02,21,75,179,39,27,43,050,44,,,,,,,,*69
###2023-12-09 12:29:53.948537$GBGSV,1,1,04,14,57,199,45,25,31,251,38,26,37,056,46,33,64,260,39*6D
###2023-12-09 12:29:53.949712$GNVTG,,T,,M,0.02,N,0.04,K,A*3B
###2023-12-09 12:29:53.951403$GNGST,172953.10,31.000,,,,0.100,0.110,0.270*5B
###2023-12-09 12:29:53.952719$GNZDA,172953.10,09,12,2023,00,00*7B
###2023-12-09 12:29:53.953376$GNEBP,,,,,,M*13
###2023-12-09 12:29:54.124163$GNGGA,172953.30,4138.0385434,N,07032.4368683,W,1,18,0.7,12.528,M,-29.746,M,0.0,*56
###2023-12-09 12:29:54.322824$GNGGA,172953.50,4138.0385436,N,07032.4368719,W,1,18,0.7,12.534,M,-29.746,M,0.0,*5D
###2023-12-09 12:29:54.523982$GNGGA,172953.70,4138.0385429,N,07032.4368720,W,1,19,0.7,12.544,M,-29.746,M,0.0,*5D
###2023-12-09 12:29:54.724128$GNGGA,172953.90,4138.0385418,N,07032.4368737,W,1,18,0.7,12.552,M,-29.746,M,0.0,*51
###2023-12-09 12:29:54.927922$GNRMC,172954.10,A,4138.0385401,N,07032.4368734,W,0.06,,091223,,,A*46
###2023-12-09 12:29:54.930786$GNGGA,172954.10,4138.0385401,N,07032.4368734,W,1,18,0.7,12.563,M,-29.746,M,0.0,*57
###2023-12-09 12:29:54.932649$GPGSA,A,3,03,04,16,26,28,29,31,32,,,,,1.4,0.7,1.2*35
###2023-12-09 12:29:54.934238$GLGSA,A,3,71,72,73,75,,,,,,,,,1.4,0.7,1.2*2A
###2023-12-09 12:29:54.935713$GAGSA,A,3,21,27,,,,,,,,,,,1.4,0.7,1.2*24
