###2023-12-09 12:33:41.930489$GNRMC,173341.10,A,4138.0454260,N,07032.4283618,W,0.29,100.99,091223,,,A*5A
###2023-12-09 12:33:41.933980$GNGGA,173341.10,4138.0454260,N,07032.4283618,W,1,21,0.7,12.726,M,-29.745,M,0.0,*53
###2023-12-09 12:33:41.936241$GPGSA,A,3,03,04,16,26,28,29,31,32,,,,,1.3,0.7,1.1*31
###2023-12-09 12:33:41.938164$GLGSA,A,3,71,72,73,74,,,,,,,,,1.3,0.7,1.1*2F
###2023-12-09 12:33:41.940097$GAGSA,A,3,04,19,21,27,,,,,,,,,1.3,0.7,1.1*2C
###2023-12-09 12:33:41.942094$GBGSA,A,3,14,24,25,26,33,,,,,,,,1.3,0.7,1.1*25
###2023-12-09 12:33:41.944927$GPGSV,2,1,08,03,39,278,41,04,21,310,36,16,36,207,42,26,65,206,45*70
###2023-12-09 12:33:41.947776$GPGSV,2,2,08,28,58,055,47,29,25,075,36,31,73,358,46,32,31,134,43*76
###2023-12-09 12:33:41.950631$GLGSV,1,1,04,71,58,169,49,72,65,311,45,73,49,033,47,74,71,287,43*68
###2023-12-09 12:33:41.953465$GAGSV,1,1,04,04,20,311,38,19,81,304,40,21,77,177,46,27,42,050,41*63
###2023-12-09 12:33:41.956312$GBGSV,2,1,05,14,55,198,47,24,81,343,49,25,32,252,43,26,35,057,41*6C
###2023-12-09 12:33:41.958105$GBGSV,2,2,05,33,63,255,52,,,,,,,,,,,,*5E
###2023-12-09 12:33:41.959730$GNVTG,100.99,T,,M,0.29,N,0.54,K,A*28
###2023-12-09 12:33:41.961720$GNGST,173341.10,20.000,,,,0.093,0.083,0.210*55
###2023-12-09 12:33:41.963300$GNZDA,173341.10,09,12,2023,00,00*73
###2023-12-09 12:33:41.964071$GNEBP,,,,,,M*13
###2023-12-09 12:33:42.131475$GNGGA,173341.30,4138.0454278,N,07032.4283684,W,1,21,0.7,12.716,M,-29.745,M,0.0,*5E
###2023-12-09 12:33:42.329733$GNGGA,173341.50,4138.0454331,N,07032.4283729,W,1,22,0.7,12.702,M,-29.745,M,0.0,*54
###2023-12-09 12:33:42.529068$GNGGA,173341.70,4138.0454299,N,07032.4283724,W,1,22,0.7,12.696,M,-29.745,M,0.0,*54
###2023-12-09 12:33:42.730993$GNGGA,173341.90,4138.0454386,N,07032.4283741,W,1,22,0.7,12.686,M,-29.745,M,0.0,*57
###2023-12-09 12:33:42.931913$GNRMC,173342.10,A,4138.0454349,N,07032.4283665,W,0.08,100.99,091223,,,A*5A
###2023-12-09 12:33:42.935404$GNGGA,173342.10,4138.0454349,N,07032.4283665,W,1,22,0.7,12.678,M,-29.745,M,0.0,*59
###2023-12-09 12:33:42.937654$GPGSA,A,3,03,04,16,26,28,29,31,32,,,,,1.2,0.7,1.0*31
###2023-12-09 12:33:42.939667$GLGSA,A,3,71,72,73,74,75,,,,,,,,1.2,0.7,1.0*2D
###2023-12-09 12:33:42.941590$GAGSA,A,3,04,19,21,27,,,,,,,,,1.2,0.7,1.0*2C
###2023-12-09 12:33:42.943603$GBGSA,A,3,14,24,25,26,33,,,,,,,,1.2,0.7,1.0*25
###2023-12-09 12:33:42.946424$GPGSV,2,1,08,03,39,278,42,04,21,310,40,16,36,207,43,26,65,206,49*7F
###2023-12-09 12:33:42.949349$GPGSV,2,2,08,28,58,055,41,29,25,075,38,31,73,358,42,32,31,134,45*7C
###2023-12-09 12:33:42.952218$GLGSV,2,1,05,71,58,169,51,72,65,311,38,73,49,033,44,74,71,287,37*69
###2023-12-09 12:33:42.953988$GLGSV,2,2,05,75,21,240,35,,,,,,,,,,,,*51
###2023-12-09 12:33:42.956818$GAGSV,1,1,04,04,20,311,40,19,81,304,39,21,77,177,45,27,42,050,41*61
###2023-12-09 12:33:42.959675$GBGSV,2,1,05,14,55,198,47,24,81,343,47,25,32,252,43,26,35,057,39*6D
###2023-12-09 12:33:42.961441$GBGSV,2,2,05,33,63,255,48,,,,,,,,,,,,*55
###2023-12-09 12:33:42.963081$GNVTG,100.99,T,,M,0.08,N,0.14,K,A*2F
###2023-12-09 12:33:42.965083$GNGST,173342.10,20.000,,,,0.093,0.083,0.210*56
###2023-12-09 12:33:42.966670$GNZDA,173342.10,09,12,2023,00,00*70
###2023-12-09 12:33:42.967454$GNEBP,,,,,,M*13
###2023-12-09 12:33:43.131484$GNGGA,173342.30,4138.0454384,N,07032.4283648,W,1,22,0.7,12.668,M,-29.745,M,0.0,*54
###2023-12-09 12:33:43.331507$GNGGA,173342.50,4138.0454307,N,07032.4283556,W,1,22,0.7,12.655,M,-29.745,M,0.0,*5B
###2023-12-09 12:33:43.529205$GNGGA,173342.70,4138.0454355,N,07032.4283542,W,1,22,0.7,12.649,M,-29.745,M,0.0,*56
###2023-12-09 12:33:43.729510$GNGGA,173342.90,4138.0454301,N,07032.4283418,W,1,21,0.7,12.644,M,-29.745,M,0.0,*59
###2023-12-09 12:33:43.931353$GNRMC,173343.10,A,4138.0454318,N,07032.4283402,W,0.17,100.99,091223,,,A*52
###2023-12-09 12:33:43.934212$GNGGA,173343.10,4138.0454318,N,07032.4283402,W,1,21,0.7,12.634,M,-29.745,M,0.0,*54
###2023-12-09 12:33:43.936078$GPGSA,A,3,03,04,16,26,28,29,31,32,,,,,1.2,0.7,1.0*31
###2023-12-09 12:33:43.937661$GLGSA,A,3,71,72,73,75,,,,,,,,,1.2,0.7,1.0*2E
###2023-12-09 12:33:43.939249$GAGSA,A,3,04,19,21,27,,,,,,,,,1.2,0.7,1.0*2C
###2023-12-09 12:33:43.940897$GBGSA,A,3,14,24,25,26,33,,,,,,,,1.2,0.7,1.0*25
###2023-12-09 12:33:43.943283$GPGSV,2,1,08,03,39,278,43,04,21,310,42,16,36,207,45,26,65,206,50*72
###2023-12-09 12:33:43.945621$GPGSV,2,2,08,28,58,055,40,29,25,075,41,31,73,358,41,32,31,134,44*71
###2023-12-09 12:33:43.947980$GLGSV,1,1,04,71,58,169,47,72,65,311,35,73,49,033,45,75,21,240,38*60
###2023-12-09 12:33:43.950324$GAGSV,1,1,04,04,20,311,41,19,81,304,37,21,77,177,47,27,42,050,42*6F
###2023-12-09 12:33:43.952675$GBGSV,2,1,05,14,55,198,49,24,81,343,43,25,32,252,43,26,35,057,40*69
###2023-12-09 12:33:43.954137$GBGSV,2,2,05,33,63,255,45,,,,,,,,,,,,*58
###2023-12-09 12:33:43.955475$GNVTG,100.99,T,,M,0.17,N,0.32,K,A*25
###2023-12-09 12:33:43.957129$GNGST,173343.10,20.000,,,,0.092,0.083,0.200*57
###2023-12-09 12:33:43.958424$GNZDA,173343.10,09,12,2023,00,00*71
###2023-12-09 12:33:43.959093$GNEBP,,,,,,M*13
###2023-12-09 12:33:44.130986$GNGGA,173343.30,4138.0454332,N,07032.4283379,W,1,21,0.7,12.630,M,-29.745,M,0.0,*51
###2023-12-09 12:33:44.330741$GNGGA,173343.50,4138.0454326,N,07032.4283331,W,1,21,0.7,12.625,M,-29.745,M,0.0,*5A
###2023-12-09 12:33:44.531468$GNGGA,173343.70,4138.0454266,N,07032.4283318,W,1,21,0.7,12.613,M,-29.745,M,0.0,*53
###2023-12-09 12:33:44.729525$GNGGA,173343.90,4138.0454253,N,07032.4283342,W,1,20,0.7,12.606,M,-29.745,M,0.0,*51
###2023-12-09 12:33:44.934821$GNRMC,173344.10,A,4138.0454303,N,07032.4283420,W,0.14,100.99,091223,,,A*5C
###2023-12-09 12:33:44.937677$GNGGA,173344.10,4138.0454303,N,07032.4283420,W,1,20,0.7,12.580,M,-29.745,M,0.0,*54
###2023-12-09 12:33:44.939537$GPGSA,A,3,03,04,16,26,28,29,31,32,,,,,1.3,0.7,1.1*31
###2023-12-09 12:33:44.941116$GLGSA,A,3,71,72,73,75,,,,,,,,,1.3,0.7,1.1*2E
###2023-12-09 12:33:44.942638$GAGSA,A,3,04,21,27,,,,,,,,,,1.3,0.7,1.1*24
###2023-12-09 12:33:44.944282$GBGSA,A,3,14,24,25,26,33,,,,,,,,1.3,0.7,1.1*25
###2023-12-09 12:33:44.946638$GPGSV,2,1,08,03,39,278,45,04,21,310,42,16,36,207,45,26,65,206,50*74
###2023-12-09 12:33:44.948986$GPGSV,2,2,08,28,58,055,40,29,25,075,42,31,73,358,41,32,31,134,45*73
###2023-12-09 12:33:44.951339$GLGSV,1,1,04,71,58,169,46,72,65,311,37,73,49,033,46,75,21,240,38*60
###2023-12-09 12:33:44.953384$GAGSV,1,1,03,04,20,311,41,21,77,177,46,27,42,050,44,,,,*5D
###2023-12-09 12:33:44.955727$GBGSV,2,1,05,14,55,198,51,24,81,343,42,25,32,252,43,26,35,057,43*62
###2023-12-09 12:33:44.957184$GBGSV,2,2,05,33,63,255,47,,,,,,,,,,,,*5A
###2023-12-09 12:33:44.958507$GNVTG,100.99,T,,M,0.14,N,0.25,K,A*20
###2023-12-09 12:33:44.960170$GNGST,173344.10,20.000,,,,0.091,0.082,0.200*52
###2023-12-09 12:33:44.961465$GNZDA,173344.10,09,12,2023,00,00*76
###2023-12-09 12:33:44.962108$GNEBP,,,,,,M*13
###2023-12-09 12:33:45.131367$GNGGA,173344.30,4138.0454310,N,07032.4283466,W,1,21,0.7,12.590,M,-29.745,M,0.0,*56
###2023-12-09 12:33:45.330557$GNGGA,173344.50,4138.0454325,N,07032.4283432,W,1,22,0.7,12.649,M,-29.745,M,0.0,*53
###2023-12-09 12:33:45.529751$GNGGA,173344.70,4138.0454325,N,07032.4283409,W,1,22,0.7,12.705,M,-29.745,M,0.0,*50
###2023-12-09 12:33:45.729454$GNGGA,173344.90,4138.0454434,N,07032.4283410,W,1,19,0.9,12.708,M,-29.745,M,0.0,*5A
###2023-12-09 12:33:45.932261$GNRMC,173345.10,A,4138.0454382,N,07032.4283349,W,0.10,100.99,091223,,,A*58
###2023-12-09 12:33:45.935127$GNGGA,173345.10,4138.0454382,N,07032.4283349,W,1,19,0.9,12.681,M,-29.745,M,0.0,*52
###2023-12-09 12:33:45.936923$GPGSA,A,3,03,16,26,28,29,31,32,,,,,,1.6,0.9,1.4*3B
###2023-12-09 12:33:45.938506$GLGSA,A,3,71,72,73,74,,,,,,,,,1.6,0.9,1.4*21
###2023-12-09 12:33:45.940034$GAGSA,A,3,19,21,27,,,,,,,,,,1.6,0.9,1.4*26
###2023-12-09 12:33:45.941681$GBGSA,A,3,14,24,25,26,33,,,,,,,,1.6,0.9,1.4*2B
###2023-12-09 12:33:45.944022$GPGSV,2,1,07,03,39,278,43,16,36,207,47,26,65,206,49,28,58,055,49*7E
###2023-12-09 12:33:45.946052$GPGSV,2,2,07,29,25,075,42,31,73,358,47,32,31,134,45,,,,*49
###2023-12-09 12:33:45.948419$GLGSV,1,1,04,71,57,169,49,72,65,311,42,73,49,033,45,74,71,287,41*60
###2023-12-09 12:33:45.950483$GAGSV,1,1,03,19,81,304,41,21,77,177,46,27,42,050,41,,,,*5B
###2023-12-09 12:33:45.953094$GBGSV,2,1,05,14,55,198,45,24,81,343,49,25,32,252,43,26,35,057,43*6C
###2023-12-09 12:33:45.954560$GBGSV,2,2,05,33,63,255,50,,,,,,,,,,,,*5C
###2023-12-09 12:33:45.955909$GNVTG,100.99,T,,M,0.10,N,0.18,K,A*2A
###2023-12-09 12:33:45.957554$GNGST,173345.10,20.000,,,,0.090,0.081,0.200*51
###2023-12-09 12:33:45.958856$GNZDA,173345.10,09,12,2023,00,00*77
###2023-12-09 12:33:45.959497$GNEBP,,,,,,M*13
###2023-12-09 12:33:46.131718$GNGGA,173345.30,4138.0454401,N,07032.4283340,W,1,19,0.9,12.665,M,-29.745,M,0.0,*5F
###2023-12-09 12:33:46.332341$GNGGA,173345.50,4138.0454370,N,07032.4283217,W,1,19,0.9,12.668,M,-29.745,M,0.0,*56
###2023-12-09 12:33:46.531393$GNGGA,173345.70,4138.0454382,N,07032.4283157,W,1,19,0.9,12.653,M,-29.745,M,0.0,*56
