###2023-12-09 13:37:02.597619$GNGGA,183701.70,4138.0362168,N,07032.3981508,W,1,26,0.6,13.426,M,-29.745,M,0.0,*5B
###2023-12-09 13:37:02.796305$GNGGA,183701.90,4138.0360931,N,07032.3980041,W,1,26,0.6,13.416,M,-29.745,M,0.0,*59
###2023-12-09 13:37:03.004484$GNRMC,183702.10,A,4138.0359763,N,07032.3978642,W,3.03,139.69,091223,,,A*53
###2023-12-09 13:37:03.007368$GNGGA,183702.10,4138.0359763,N,07032.3978642,W,1,26,0.6,13.426,M,-29.745,M,0.0,*50
###2023-12-09 13:37:03.009228$GPGSA,A,3,03,04,16,26,27,28,29,31,,,,,1.0,0.6,0.8*3F
###2023-12-09 13:37:03.011026$GLGSA,A,3,65,71,72,73,74,75,83,,,,,,1.0,0.6,0.8*2F
###2023-12-09 13:37:03.012611$GAGSA,A,3,04,19,21,27,,,,,,,,,1.0,0.6,0.8*26
###2023-12-09 13:37:03.014321$GBGSA,A,3,12,14,24,25,33,35,,,,,,,1.0,0.6,0.8*2E
###2023-12-09 13:37:03.016667$GPGSV,2,1,08,03,26,246,42,04,47,307,44,16,67,223,47,26,83,040,48*71
###2023-12-09 13:37:03.019012$GPGSV,2,2,08,27,17,172,38,28,37,085,45,29,20,046,44,31,59,067,46*79
###2023-12-09 13:37:03.021345$GLGSV,2,1,07,65,39,317,43,71,21,175,40,72,61,219,45,73,21,053,46*62
###2023-12-09 13:37:03.023390$GLGSV,2,2,07,74,59,016,43,75,44,273,46,83,15,046,36,,,,*53
###2023-12-09 13:37:03.025726$GAGSV,1,1,04,04,40,309,43,19,71,181,40,21,76,045,45,27,22,050,42*67
###2023-12-09 13:37:03.028111$GBGSV,2,1,06,12,16,125,39,14,28,189,39,24,62,047,48,25,52,277,47*6F
###2023-12-09 13:37:03.029863$GBGSV,2,2,06,33,44,216,46,35,16,055,45,,,,,,,,*6A
###2023-12-09 13:37:03.031197$GNVTG,139.69,T,,M,3.03,N,5.62,K,A*26
###2023-12-09 13:37:03.032818$GNGST,183702.10,6.000,,,,0.089,0.068,0.150*64
###2023-12-09 13:37:03.034106$GNZDA,183702.10,09,12,2023,00,00*7F
###2023-12-09 13:37:03.034756$GNEBP,,,,,,M*13
###2023-12-09 13:37:03.202363$GNGGA,183702.30,4138.0358422,N,07032.3977157,W,1,26,0.6,13.439,M,-29.745,M,0.0,*57
###2023-12-09 13:37:03.396806$GNGGA,183702.50,4138.0357277,N,07032.3975542,W,1,26,0.6,13.430,M,-29.745,M,0.0,*53
###2023-12-09 13:37:03.596533$GNGGA,183702.70,4138.0356325,N,07032.3973836,W,1,26,0.6,13.436,M,-29.745,M,0.0,*58
###2023-12-09 13:37:03.796831$GNGGA,183702.90,4138.0355381,N,07032.3972033,W,1,25,0.6,13.441,M,-29.745,M,0.0,*54
###2023-12-09 13:37:04.001294$GNRMC,183703.10,A,4138.0354414,N,07032.3970241,W,2.97,125.25,091223,,,A*5A
###2023-12-09 13:37:04.004162$GNGGA,183703.10,4138.0354414,N,07032.3970241,W,1,26,0.6,13.436,M,-29.745,M,0.0,*51
###2023-12-09 13:37:04.006018$GPGSA,A,3,03,04,16,26,27,28,29,31,,,,,1.0,0.6,0.8*3F
###2023-12-09 13:37:04.007813$GLGSA,A,3,65,71,72,73,74,75,83,,,,,,1.0,0.6,0.8*2F
###2023-12-09 13:37:04.009384$GAGSA,A,3,04,19,21,27,,,,,,,,,1.0,0.6,0.8*26
###2023-12-09 13:37:04.011101$GBGSA,A,3,12,14,24,25,33,35,,,,,,,1.0,0.6,0.8*2E
###2023-12-09 13:37:04.013420$GPGSV,2,1,08,03,25,245,40,04,47,307,44,16,67,223,47,26,83,040,47*7C
###2023-12-09 13:37:04.015752$GPGSV,2,2,08,27,17,172,38,28,37,085,43,29,20,046,43,31,59,067,46*78
###2023-12-09 13:37:04.018084$GLGSV,2,1,07,65,39,317,43,71,21,175,40,72,61,219,46,73,21,053,44*63
###2023-12-09 13:37:04.020137$GLGSV,2,2,07,74,59,016,42,75,44,273,47,83,15,046,36,,,,*53
###2023-12-09 13:37:04.022467$GAGSV,1,1,04,04,40,309,44,19,71,181,41,21,76,045,46,27,22,050,42*62
###2023-12-09 13:37:04.024806$GBGSV,2,1,06,12,16,125,38,14,28,189,42,24,62,047,48,25,52,277,47*62
###2023-12-09 13:37:04.026569$GBGSV,2,2,06,33,44,216,47,35,16,055,45,,,,,,,,*6B
###2023-12-09 13:37:04.027899$GNVTG,125.25,T,,M,2.97,N,5.51,K,A*2F
###2023-12-09 13:37:04.029509$GNGST,183703.10,6.300,,,,0.090,0.068,0.150*6E
###2023-12-09 13:37:04.030837$GNZDA,183703.10,09,12,2023,00,00*7E
###2023-12-09 13:37:04.031476$GNEBP,,,,,,M*13
###2023-12-09 13:37:04.196915$GNGGA,183703.30,4138.0353466,N,07032.3968406,W,1,26,0.6,13.435,M,-29.745,M,0.0,*5E
###2023-12-09 13:37:04.397089$GNGGA,183703.50,4138.0352583,N,07032.3966541,W,1,26,0.6,13.435,M,-29.745,M,0.0,*5F
###2023-12-09 13:37:04.595943$GNGGA,183703.70,4138.0351666,N,07032.3964665,W,1,26,0.6,13.430,M,-29.745,M,0.0,*54
###2023-12-09 13:37:04.796622$GNGGA,183703.90,4138.0350726,N,07032.3962794,W,1,26,0.6,13.427,M,-29.745,M,0.0,*51
###2023-12-09 13:37:05.000909$GNRMC,183704.10,A,4138.0349785,N,07032.3960950,W,2.95,127.04,091223,,,A*53
###2023-12-09 13:37:05.003783$GNGGA,183704.10,4138.0349785,N,07032.3960950,W,1,26,0.6,13.424,M,-29.745,M,0.0,*58
###2023-12-09 13:37:05.005636$GPGSA,A,3,03,04,16,26,27,28,29,31,,,,,1.0,0.6,0.8*3F
###2023-12-09 13:37:05.007427$GLGSA,A,3,65,71,72,73,74,75,83,,,,,,1.0,0.6,0.8*2F
###2023-12-09 13:37:05.009013$GAGSA,A,3,04,19,21,27,,,,,,,,,1.0,0.6,0.8*26
###2023-12-09 13:37:05.010735$GBGSA,A,3,12,14,24,25,33,35,,,,,,,1.0,0.6,0.8*2E
###2023-12-09 13:37:05.013056$GPGSV,2,1,08,03,25,245,42,04,48,307,45,16,67,223,47,26,83,040,48*7F
###2023-12-09 13:37:05.015396$GPGSV,2,2,08,27,17,172,38,28,37,085,44,29,20,046,43,31,59,067,46*7F
###2023-12-09 13:37:05.017726$GLGSV,2,1,07,65,39,317,44,71,21,175,39,72,61,219,47,73,21,053,45*6A
###2023-12-09 13:37:05.019771$GLGSV,2,2,07,74,59,016,42,75,44,273,47,83,15,046,36,,,,*53
###2023-12-09 13:37:05.022097$GAGSV,1,1,04,04,40,309,45,19,71,181,41,21,76,045,46,27,22,050,43*62
###2023-12-09 13:37:05.024431$GBGSV,2,1,06,12,16,125,38,14,28,189,42,24,62,047,47,25,52,277,47*6D
###2023-12-09 13:37:05.026180$GBGSV,2,2,06,33,44,216,46,35,16,055,44,,,,,,,,*6B
###2023-12-09 13:37:05.027517$GNVTG,127.04,T,,M,2.95,N,5.47,K,A*2B
###2023-12-09 13:37:05.029134$GNGST,183704.10,6.100,,,,0.090,0.068,0.150*6B
###2023-12-09 13:37:05.030427$GNZDA,183704.10,09,12,2023,00,00*79
###2023-12-09 13:37:05.031080$GNEBP,,,,,,M*13
###2023-12-09 13:37:05.198935$GNGGA,183704.30,4138.0348761,N,07032.3959224,W,1,26,0.6,13.425,M,-29.745,M,0.0,*52
###2023-12-09 13:37:05.395709$GNGGA,183704.50,4138.0347738,N,07032.3957467,W,1,26,0.6,13.429,M,-29.745,M,0.0,*54
###2023-12-09 13:37:05.597126$GNGGA,183704.70,4138.0346688,N,07032.3955751,W,1,26,0.6,13.413,M,-29.745,M,0.0,*50
###2023-12-09 13:37:05.796672$GNGGA,183704.90,4138.0345624,N,07032.3954276,W,1,26,0.6,13.418,M,-29.745,M,0.0,*51
###2023-12-09 13:37:06.000479$GNRMC,183705.10,A,4138.0344401,N,07032.3952928,W,2.86,140.48,091223,,,A*55
###2023-12-09 13:37:06.003369$GNGGA,183705.10,4138.0344401,N,07032.3952928,W,1,26,0.6,13.432,M,-29.745,M,0.0,*52
###2023-12-09 13:37:06.005228$GPGSA,A,3,03,04,16,26,27,28,29,31,,,,,1.0,0.6,0.8*3F
###2023-12-09 13:37:06.007013$GLGSA,A,3,65,71,72,73,74,75,83,,,,,,1.0,0.6,0.8*2F
###2023-12-09 13:37:06.008589$GAGSA,A,3,04,19,21,27,,,,,,,,,1.0,0.6,0.8*26
###2023-12-09 13:37:06.010300$GBGSA,A,3,12,14,24,25,33,35,,,,,,,1.0,0.6,0.8*2E
###2023-12-09 13:37:06.012636$GPGSV,2,1,08,03,25,245,42,04,48,307,45,16,67,223,46,26,83,040,48*7E
###2023-12-09 13:37:06.014976$GPGSV,2,2,08,27,17,172,38,28,37,085,46,29,20,046,44,31,59,067,46*7A
###2023-12-09 13:37:06.017301$GLGSV,2,1,07,65,39,317,45,71,21,175,39,72,61,219,45,73,21,053,46*6A
###2023-12-09 13:37:06.019342$GLGSV,2,2,07,74,59,016,43,75,44,273,46,83,15,046,36,,,,*53
###2023-12-09 13:37:06.021669$GAGSV,1,1,04,04,40,309,43,19,71,181,40,21,76,045,46,27,22,050,42*64
###2023-12-09 13:37:06.024011$GBGSV,2,1,06,12,16,125,39,14,28,189,40,24,62,047,48,25,52,277,46*60
###2023-12-09 13:37:06.025755$GBGSV,2,2,06,33,44,216,46,35,16,055,44,,,,,,,,*6B
###2023-12-09 13:37:06.027085$GNVTG,140.48,T,,M,2.86,N,5.29,K,A*28
###2023-12-09 13:37:06.028695$GNGST,183705.10,5.900,,,,0.090,0.068,0.150*61
###2023-12-09 13:37:06.029983$GNZDA,183705.10,09,12,2023,00,00*78
###2023-12-09 13:37:06.030632$GNEBP,,,,,,M*13
###2023-12-09 13:37:06.200546$GNGGA,183705.30,4138.0343338,N,07032.3951638,W,1,25,0.6,13.415,M,-29.745,M,0.0,*51
###2023-12-09 13:37:06.395919$GNGGA,183705.50,4138.0342351,N,07032.3950447,W,1,25,0.6,13.422,M,-29.745,M,0.0,*56
###2023-12-09 13:37:06.597215$GNGGA,183705.70,4138.0341358,N,07032.3949233,W,1,25,0.6,13.427,M,-29.745,M,0.0,*56
###2023-12-09 13:37:06.797911$GNGGA,183705.90,4138.0340427,N,07032.3948164,W,1,25,0.6,13.417,M,-29.745,M,0.0,*55
###2023-12-09 13:37:07.001418$GNRMC,183706.10,A,4138.0339455,N,07032.3947267,W,2.16,145.70,091223,,,A*5E
###2023-12-09 13:37:07.004306$GNGGA,183706.10,4138.0339455,N,07032.3947267,W,1,25,0.6,13.428,M,-29.745,M,0.0,*56
###2023-12-09 13:37:07.006164$GPGSA,A,3,03,04,16,26,27,28,29,31,,,,,1.1,0.6,0.9*3F
###2023-12-09 13:37:07.008206$GLGSA,A,3,65,71,72,73,74,75,83,,,,,,1.1,0.6,0.9*2F
###2023-12-09 13:37:07.009806$GAGSA,A,3,04,19,21,27,,,,,,,,,1.1,0.6,0.9*26
###2023-12-09 13:37:07.011533$GBGSA,A,3,12,14,24,25,33,35,,,,,,,1.1,0.6,0.9*2E
###2023-12-09 13:37:07.013859$GPGSV,2,1,08,03,25,245,41,04,48,307,44,16,67,223,46,26,83,040,48*7C
###2023-12-09 13:37:07.016207$GPGSV,2,2,08,27,17,172,40,28,37,085,44,29,20,046,43,31,59,067,46*70
###2023-12-09 13:37:07.018536$GLGSV,2,1,07,65,39,317,45,71,21,175,40,72,61,219,46,73,21,053,45*64
###2023-12-09 13:37:07.020585$GLGSV,2,2,07,74,59,016,44,75,44,273,48,83,15,046,36,,,,*5A
###2023-12-09 13:37:07.022927$GAGSV,1,1,04,04,40,309,44,19,71,181,41,21,76,045,46,27,22,050,43*63
###2023-12-09 13:37:07.025250$GBGSV,2,1,06,12,16,125,41,14,28,189,39,24,62,047,48,25,52,277,47*60
###2023-12-09 13:37:07.027041$GBGSV,2,2,06,33,44,216,47,35,16,055,45,,,,,,,,*6B
###2023-12-09 13:37:07.028368$GNVTG,145.70,T,,M,2.16,N,4.00,K,A*25
