###2023-12-09 12:26:34.929453$GBGSA,A,3,14,25,26,33,,,,,,,,,1.5,0.8,1.3*28
###2023-12-09 12:26:34.931828$GPGSV,2,1,07,03,39,281,45,16,32,206,43,26,62,205,43,28,61,050,43*74
###2023-12-09 12:26:34.933868$GPGSV,2,2,07,29,24,078,43,31,73,346,40,32,34,132,47,,,,*4D
###2023-12-09 12:26:34.936205$GLGSV,1,1,04,71,61,167,48,72,62,315,45,73,52,031,48,75,19,238,42*63
###2023-12-09 12:26:34.937947$GAGSV,1,1,02,21,74,179,43,27,44,051,46,,,,,,,,*61
###2023-12-09 12:26:34.940285$GBGSV,1,1,04,14,59,200,47,25,30,250,37,26,38,056,48,33,64,263,39*6F
###2023-12-09 12:26:34.941418$GNVTG,,T,,M,0.02,N,0.04,K,A*3B
###2023-12-09 12:26:34.943077$GNGST,172634.10,30.000,,,,0.230,0.220,0.520*56
###2023-12-09 12:26:34.944369$GNZDA,172634.10,09,12,2023,00,00*75
###2023-12-09 12:26:34.945010$GNEBP,,,,,,M*13
###2023-12-09 12:26:35.118953$GNGGA,172634.30,4138.0380175,N,07032.4357392,W,1,17,0.8,8.348,M,-29.746,M,0.0,*6F
###2023-12-09 12:26:35.318985$GNGGA,172634.50,4138.0380172,N,07032.4357381,W,1,17,0.8,8.340,M,-29.746,M,0.0,*64
###2023-12-09 12:26:35.517621$GNGGA,172634.70,4138.0380163,N,07032.4357367,W,1,17,0.8,8.334,M,-29.746,M,0.0,*6D
###2023-12-09 12:26:35.716669$GNGGA,172634.90,4138.0380159,N,07032.4357353,W,1,17,0.8,8.334,M,-29.746,M,0.0,*6D
###2023-12-09 12:26:35.918939$GNRMC,172635.10,A,4138.0380149,N,07032.4357335,W,0.02,,091223,,,A*4F
###2023-12-09 12:26:35.921806$GNGGA,172635.10,4138.0380149,N,07032.4357335,W,1,17,0.8,8.326,M,-29.746,M,0.0,*66
###2023-12-09 12:26:35.923713$GPGSA,A,3,03,16,26,28,29,31,32,,,,,,1.5,0.8,1.3*3E
###2023-12-09 12:26:35.925325$GLGSA,A,3,71,72,73,75,,,,,,,,,1.5,0.8,1.3*25
###2023-12-09 12:26:35.926815$GAGSA,A,3,21,27,,,,,,,,,,,1.5,0.8,1.3*2B
###2023-12-09 12:26:35.928421$GBGSA,A,3,14,25,26,33,,,,,,,,,1.5,0.8,1.3*28
###2023-12-09 12:26:35.930781$GPGSV,2,1,07,03,39,281,44,16,32,206,43,26,62,205,43,28,61,050,43*75
###2023-12-09 12:26:35.932846$GPGSV,2,2,07,29,24,078,43,31,73,346,40,32,34,132,47,,,,*4D
###2023-12-09 12:26:35.935210$GLGSV,1,1,04,71,61,167,48,72,62,315,45,73,52,031,48,75,19,238,42*63
###2023-12-09 12:26:35.936981$GAGSV,1,1,02,21,74,179,43,27,44,051,46,,,,,,,,*61
###2023-12-09 12:26:35.939342$GBGSV,1,1,04,14,59,200,46,25,30,250,36,26,38,056,47,33,64,263,38*61
###2023-12-09 12:26:35.940495$GNVTG,,T,,M,0.02,N,0.04,K,A*3B
###2023-12-09 12:26:35.942159$GNGST,172635.10,30.000,,,,0.230,0.220,0.530*56
###2023-12-09 12:26:35.943487$GNZDA,172635.10,09,12,2023,00,00*74
###2023-12-09 12:26:35.944147$GNEBP,,,,,,M*13
###2023-12-09 12:26:36.117700$GNGGA,172635.30,4138.0380127,N,07032.4357325,W,1,17,0.8,8.328,M,-29.746,M,0.0,*63
###2023-12-09 12:26:36.316580$GNGGA,172635.50,4138.0380115,N,07032.4357319,W,1,17,0.8,8.320,M,-29.746,M,0.0,*63
###2023-12-09 12:26:36.518429$GNGGA,172635.70,4138.0380101,N,07032.4357310,W,1,17,0.8,8.316,M,-29.746,M,0.0,*68
###2023-12-09 12:26:36.716688$GNGGA,172635.90,4138.0380093,N,07032.4357304,W,1,17,0.8,8.307,M,-29.746,M,0.0,*69
###2023-12-09 12:26:36.919283$GNRMC,172636.10,A,4138.0380084,N,07032.4357288,W,0.04,,091223,,,A*4D
###2023-12-09 12:26:36.922180$GNGGA,172636.10,4138.0380084,N,07032.4357288,W,1,17,0.8,8.302,M,-29.746,M,0.0,*64
###2023-12-09 12:26:36.924040$GPGSA,A,3,03,16,26,28,29,31,32,,,,,,1.5,0.8,1.3*3E
###2023-12-09 12:26:36.925676$GLGSA,A,3,71,72,73,75,,,,,,,,,1.5,0.8,1.3*25
###2023-12-09 12:26:36.927193$GAGSA,A,3,21,27,,,,,,,,,,,1.5,0.8,1.3*2B
###2023-12-09 12:26:36.929008$GBGSA,A,3,14,25,26,33,,,,,,,,,1.5,0.8,1.3*28
###2023-12-09 12:26:36.931619$GPGSV,2,1,07,03,39,281,44,16,32,206,43,26,62,205,43,28,61,050,42*74
###2023-12-09 12:26:36.933884$GPGSV,2,2,07,29,24,078,44,31,73,346,40,32,34,132,47,,,,*4A
###2023-12-09 12:26:36.936309$GLGSV,1,1,04,71,61,167,48,72,62,315,45,73,52,031,48,75,19,238,42*63
###2023-12-09 12:26:36.938102$GAGSV,1,1,02,21,74,179,42,27,44,051,45,,,,,,,,*63
###2023-12-09 12:26:36.940484$GBGSV,1,1,04,14,59,200,47,25,30,250,37,26,38,056,48,33,64,263,39*6F
###2023-12-09 12:26:36.941836$GNVTG,,T,,M,0.04,N,0.07,K,A*3E
###2023-12-09 12:26:36.943545$GNGST,172636.10,30.000,,,,0.230,0.220,0.530*55
###2023-12-09 12:26:36.945058$GNZDA,172636.10,09,12,2023,00,00*77
###2023-12-09 12:26:36.945741$GNEBP,,,,,,M*13
###2023-12-09 12:26:37.117728$GNGGA,172636.30,4138.0380083,N,07032.4357286,W,1,17,0.8,8.305,M,-29.746,M,0.0,*68
###2023-12-09 12:26:37.317800$GNGGA,172636.50,4138.0380076,N,07032.4357282,W,1,17,0.8,8.297,M,-29.746,M,0.0,*6A
###2023-12-09 12:26:37.517087$GNGGA,172636.70,4138.0380064,N,07032.4357281,W,1,17,0.8,8.294,M,-29.746,M,0.0,*6B
###2023-12-09 12:26:37.717107$GNGGA,172636.90,4138.0380048,N,07032.4357278,W,1,18,0.8,8.293,M,-29.746,M,0.0,*65
###2023-12-09 12:26:37.917691$GNRMC,172637.10,A,4138.0380044,N,07032.4357261,W,0.02,,091223,,,A*41
###2023-12-09 12:26:37.920815$GNGGA,172637.10,4138.0380044,N,07032.4357261,W,1,18,0.8,8.290,M,-29.746,M,0.0,*6B
###2023-12-09 12:26:37.922846$GPGSA,A,3,03,16,26,28,29,31,32,,,,,,1.4,0.8,1.2*3E
###2023-12-09 12:26:37.924641$GLGSA,A,3,71,72,73,75,,,,,,,,,1.4,0.8,1.2*25
###2023-12-09 12:26:37.926287$GAGSA,A,3,21,27,,,,,,,,,,,1.4,0.8,1.2*2B
###2023-12-09 12:26:37.928123$GBGSA,A,3,14,25,26,33,,,,,,,,,1.4,0.8,1.2*28
###2023-12-09 12:26:37.930656$GPGSV,2,1,07,03,39,281,44,16,33,206,42,26,62,205,42,28,61,050,42*75
###2023-12-09 12:26:37.932885$GPGSV,2,2,07,29,24,078,43,31,73,346,40,32,34,132,46,,,,*4C
###2023-12-09 12:26:37.935421$GLGSV,1,1,04,71,61,167,48,72,62,315,44,73,52,031,48,75,19,238,42*62
###2023-12-09 12:26:37.937369$GAGSV,1,1,02,21,74,179,42,27,44,051,45,,,,,,,,*63
###2023-12-09 12:26:37.939892$GBGSV,1,1,04,14,59,200,46,25,30,250,37,26,38,056,49,33,64,263,39*6F
###2023-12-09 12:26:37.941219$GNVTG,,T,,M,0.02,N,0.04,K,A*3B
###2023-12-09 12:26:37.943070$GNGST,172637.10,30.000,,,,0.230,0.220,0.530*54
###2023-12-09 12:26:37.944550$GNZDA,172637.10,09,12,2023,00,00*76
###2023-12-09 12:26:37.945309$GNEBP,,,,,,M*13
###2023-12-09 12:26:38.118352$GNGGA,172637.30,4138.0380041,N,07032.4357262,W,1,18,0.8,8.283,M,-29.746,M,0.0,*6D
###2023-12-09 12:26:38.319185$GNGGA,172637.50,4138.0380025,N,07032.4357252,W,1,18,0.8,8.277,M,-29.746,M,0.0,*61
###2023-12-09 12:26:38.516845$GNGGA,172637.70,4138.0380009,N,07032.4357239,W,1,18,0.8,8.270,M,-29.746,M,0.0,*67
###2023-12-09 12:26:38.715671$GNGGA,172637.90,4138.0380004,N,07032.4357218,W,1,18,0.8,8.270,M,-29.746,M,0.0,*67
###2023-12-09 12:26:38.917818$GNRMC,172638.10,A,4138.0379988,N,07032.4357197,W,0.06,,091223,,,A*4F
###2023-12-09 12:26:38.920975$GNGGA,172638.10,4138.0379988,N,07032.4357197,W,1,18,0.8,8.262,M,-29.746,M,0.0,*6C
###2023-12-09 12:26:38.922845$GPGSA,A,3,03,16,26,28,29,31,32,,,,,,1.4,0.8,1.2*3E
###2023-12-09 12:26:38.924481$GLGSA,A,3,71,72,73,75,,,,,,,,,1.4,0.8,1.2*25
###2023-12-09 12:26:38.925976$GAGSA,A,3,21,27,,,,,,,,,,,1.4,0.8,1.2*2B
###2023-12-09 12:26:38.927616$GBGSA,A,3,14,25,26,33,,,,,,,,,1.4,0.8,1.2*28
###2023-12-09 12:26:38.929987$GPGSV,2,1,07,03,39,281,44,16,33,206,42,26,62,205,42,28,61,050,42*75
###2023-12-09 12:26:38.932079$GPGSV,2,2,07,29,24,078,43,31,73,346,39,32,34,132,47,,,,*43
###2023-12-09 12:26:38.934445$GLGSV,1,1,04,71,61,167,48,72,62,315,44,73,52,031,48,75,19,238,42*62
###2023-12-09 12:26:38.936252$GAGSV,1,1,02,21,74,179,42,27,44,051,45,,,,,,,,*63
###2023-12-09 12:26:38.938625$GBGSV,1,1,04,14,59,200,46,25,30,250,37,26,38,056,48,33,64,263,38*6F
###2023-12-09 12:26:38.939797$GNVTG,,T,,M,0.06,N,0.11,K,A*3B
###2023-12-09 12:26:38.941473$GNGST,172638.10,30.000,,,,0.230,0.220,0.530*5B
###2023-12-09 12:26:38.942812$GNZDA,172638.10,09,12,2023,00,00*79
###2023-12-09 12:26:38.943464$GNEBP,,,,,,M*13
###2023-12-09 12:26:39.119243$GNGGA,172638.30,4138.0379985,N,07032.4357196,W,1,18,0.8,8.256,M,-29.746,M,0.0,*65
###2023-12-09 12:26:39.318269$GNGGA,172638.50,4138.0379980,N,07032.4357185,W,1,17,0.8,8.250,M,-29.746,M,0.0,*6D
###2023-12-09 12:26:39.517564$GNGGA,172638.70,4138.0379973,N,07032.4357168,W,1,17,0.8,8.247,M,-29.746,M,0.0,*66
###2023-12-09 12:26:39.715591$GNGGA,172638.90,4138.0379976,N,07032.4357175,W,1,17,0.8,8.244,M,-29.746,M,0.0,*62
###2023-12-09 12:26:39.925035$GNRMC,172639.10,A,4138.0379957,N,07032.4357151,W,0.04,,091223,,,A*44
###2023-12-09 12:26:39.928121$GNGGA,172639.10,4138.0379957,N,07032.4357151,W,1,17,0.8,8.240,M,-29.746,M,0.0,*6A
###2023-12-09 12:26:39.930216$GPGSA,A,3,03,16,26,28,29,31,32,,,,,,1.5,0.8,1.3*3E
###2023-12-09 12:26:39.931864$GLGSA,A,3,71,72,73,75,,,,,,,,,1.5,0.8,1.3*25
###2023-12-09 12:26:39.933348$GAGSA,A,3,21,27,,,,,,,,,,,1.5,0.8,1.3*2B
###2023-12-09 12:26:39.934983$GBGSA,A,3,14,25,26,33,,,,,,,,,1.5,0.8,1.3*28
###2023-12-09 12:26:39.937342$GPGSV,2,1,07,03,39,281,44,16,33,206,42,26,62,205,42,28,61,050,42*75
###2023-12-09 12:26:39.939425$GPGSV,2,2,07,29,24,078,42,31,73,346,38,32,34,132,46,,,,*42
###2023-12-09 12:26:39.941778$GLGSV,1,1,04,71,61,167,48,72,62,315,44,73,52,031,48,75,19,238,42*62
###2023-12-09 12:26:39.943558$GAGSV,1,1,02,21,74,179,43,27,44,051,46,,,,,,,,*61
