###2023-12-09 13:23:37.997690$GLGSA,A,3,65,71,72,73,74,75,,,,,,,1.1,0.7,0.9*25
###2023-12-09 13:23:37.999311$GAGSA,A,3,04,19,21,27,,,,,,,,,1.1,0.7,0.9*27
###2023-12-09 13:23:38.001021$GBGSA,A,3,14,24,25,26,33,35,,,,,,,1.1,0.7,0.9*28
###2023-12-09 13:23:38.003401$GPGSV,2,1,07,03,30,251,42,04,42,310,44,16,61,218,47,26,89,050,48*79
###2023-12-09 13:23:38.005444$GPGSV,2,2,07,28,41,080,42,29,22,051,39,31,63,058,46,,,,*42
###2023-12-09 13:23:38.007784$GLGSV,2,1,06,65,34,323,42,71,29,175,41,72,68,232,47,73,27,049,38*67
###2023-12-09 13:23:38.009533$GLGSV,2,2,06,74,63,004,41,75,40,265,48,,,,,,,,*6F
###2023-12-09 13:23:38.011863$GAGSV,1,1,04,04,36,311,43,19,77,186,40,21,81,054,45,27,26,049,38*67
###2023-12-09 13:23:38.014183$GBGSV,2,1,06,14,34,191,42,24,66,040,46,25,47,271,46,26,19,068,38*68
###2023-12-09 13:23:38.015940$GBGSV,2,2,06,33,50,221,46,35,16,061,40,,,,,,,,*69
###2023-12-09 13:23:38.017202$GNVTG,4.63,T,,M,3.50,N,6.48,K,A*2E
###2023-12-09 13:23:38.018864$GNGST,182337.10,18.000,,,,0.100,0.071,0.170*52
###2023-12-09 13:23:38.020146$GNZDA,182337.10,09,12,2023,00,00*7C
###2023-12-09 13:23:38.020782$GNEBP,,,,,,M*13
###2023-12-09 13:23:38.186877$GNGGA,182337.30,4138.0401517,N,07032.3794405,W,1,24,0.7,12.866,M,-29.745,M,0.0,*5D
###2023-12-09 13:23:38.386665$GNGGA,182337.50,4138.0403255,N,07032.3793796,W,1,24,0.7,12.872,M,-29.745,M,0.0,*53
###2023-12-09 13:23:38.588479$GNGGA,182337.70,4138.0404961,N,07032.3793205,W,1,24,0.7,12.867,M,-29.745,M,0.0,*51
###2023-12-09 13:23:38.787531$GNGGA,182337.90,4138.0406596,N,07032.3792394,W,1,24,0.7,12.853,M,-29.745,M,0.0,*56
###2023-12-09 13:23:38.994258$GNRMC,182338.10,A,4138.0408159,N,07032.3791408,W,3.05,24.67,091223,,,A*63
###2023-12-09 13:23:38.997150$GNGGA,182338.10,4138.0408159,N,07032.3791408,W,1,24,0.7,12.843,M,-29.745,M,0.0,*58
###2023-12-09 13:23:38.998964$GPGSA,A,3,03,04,16,26,28,29,31,,,,,,1.1,0.7,0.9*3B
###2023-12-09 13:23:39.000680$GLGSA,A,3,65,71,72,73,74,75,,,,,,,1.1,0.7,0.9*25
###2023-12-09 13:23:39.002253$GAGSA,A,3,04,19,21,27,,,,,,,,,1.1,0.7,0.9*27
###2023-12-09 13:23:39.003978$GBGSA,A,3,14,24,25,26,33,35,,,,,,,1.1,0.7,0.9*28
###2023-12-09 13:23:39.006301$GPGSV,2,1,07,03,30,251,41,04,42,310,43,16,61,218,46,26,89,050,48*7C
###2023-12-09 13:23:39.008341$GPGSV,2,2,07,28,41,080,44,29,22,051,40,31,63,058,46,,,,*4A
###2023-12-09 13:23:39.010686$GLGSV,2,1,06,65,34,323,42,71,29,175,43,72,68,232,47,73,27,049,40*6A
###2023-12-09 13:23:39.012431$GLGSV,2,2,06,74,63,004,41,75,40,265,47,,,,,,,,*60
###2023-12-09 13:23:39.014757$GAGSV,1,1,04,04,36,311,43,19,77,186,41,21,81,054,46,27,26,049,39*64
###2023-12-09 13:23:39.017074$GBGSV,2,1,06,14,34,191,44,24,66,040,48,25,47,271,47,26,19,068,42*6C
###2023-12-09 13:23:39.018824$GBGSV,2,2,06,33,50,221,48,35,16,061,43,,,,,,,,*64
###2023-12-09 13:23:39.020113$GNVTG,24.67,T,,M,3.05,N,5.65,K,A*14
###2023-12-09 13:23:39.021753$GNGST,182338.10,18.000,,,,0.100,0.072,0.170*5E
###2023-12-09 13:23:39.023055$GNZDA,182338.10,09,12,2023,00,00*73
###2023-12-09 13:23:39.023692$GNEBP,,,,,,M*13
###2023-12-09 13:23:39.195843$GNGGA,182338.30,4138.0409724,N,07032.3790494,W,1,24,0.7,12.853,M,-29.745,M,0.0,*52
###2023-12-09 13:23:39.387728$GNGGA,182338.50,4138.0411341,N,07032.3789509,W,1,24,0.7,12.857,M,-29.745,M,0.0,*53
###2023-12-09 13:23:39.588117$GNGGA,182338.70,4138.0413015,N,07032.3788690,W,1,24,0.7,12.863,M,-29.745,M,0.0,*54
###2023-12-09 13:23:39.790302$GNGGA,182338.90,4138.0414765,N,07032.3787819,W,1,24,0.7,12.864,M,-29.745,M,0.0,*5A
###2023-12-09 13:23:39.989351$GNRMC,182339.10,A,4138.0416556,N,07032.3786889,W,3.46,22.41,091223,,,A*60
###2023-12-09 13:23:39.992238$GNGGA,182339.10,4138.0416556,N,07032.3786889,W,1,24,0.7,12.862,M,-29.745,M,0.0,*5D
###2023-12-09 13:23:39.994038$GPGSA,A,3,03,04,16,26,28,29,31,,,,,,1.1,0.7,0.9*3B
###2023-12-09 13:23:39.995765$GLGSA,A,3,65,71,72,73,74,75,,,,,,,1.1,0.7,0.9*25
###2023-12-09 13:23:39.997352$GAGSA,A,3,04,19,21,27,,,,,,,,,1.1,0.7,0.9*27
###2023-12-09 13:23:39.999082$GBGSA,A,3,14,24,25,26,33,35,,,,,,,1.1,0.7,0.9*28
###2023-12-09 13:23:40.001414$GPGSV,2,1,07,03,30,251,41,04,42,310,44,16,61,218,46,26,89,050,47*74
###2023-12-09 13:23:40.003463$GPGSV,2,2,07,28,41,080,43,29,22,051,39,31,63,058,46,,,,*43
###2023-12-09 13:23:40.005790$GLGSV,2,1,06,65,34,323,43,71,29,175,44,72,68,232,47,73,27,049,40*6C
###2023-12-09 13:23:40.007553$GLGSV,2,2,06,74,63,004,41,75,40,265,48,,,,,,,,*6F
###2023-12-09 13:23:40.009871$GAGSV,1,1,04,04,36,311,43,19,77,186,41,21,81,054,46,27,26,049,38*65
###2023-12-09 13:23:40.012214$GBGSV,2,1,06,14,34,191,42,24,66,040,46,25,47,271,46,26,19,068,41*66
###2023-12-09 13:23:40.013956$GBGSV,2,2,06,33,50,221,46,35,16,061,42,,,,,,,,*6B
###2023-12-09 13:23:40.015253$GNVTG,22.41,T,,M,3.46,N,6.41,K,A*14
###2023-12-09 13:23:40.016898$GNGST,182339.10,18.000,,,,0.100,0.072,0.170*5F
###2023-12-09 13:23:40.018184$GNZDA,182339.10,09,12,2023,00,00*72
###2023-12-09 13:23:40.018831$GNEBP,,,,,,M*13
###2023-12-09 13:23:40.184811$GNGGA,182339.30,4138.0418371,N,07032.3785874,W,1,24,0.7,12.854,M,-29.745,M,0.0,*56
###2023-12-09 13:23:40.384627$GNGGA,182339.50,4138.0420152,N,07032.3784757,W,1,24,0.7,12.843,M,-29.745,M,0.0,*51
###2023-12-09 13:23:40.584859$GNGGA,182339.70,4138.0421949,N,07032.3783722,W,1,24,0.7,12.847,M,-29.745,M,0.0,*51
###2023-12-09 13:23:40.786470$GNGGA,182339.90,4138.0423773,N,07032.3782620,W,1,24,0.7,12.844,M,-29.745,M,0.0,*5B
###2023-12-09 13:23:40.990533$GNRMC,182340.10,A,4138.0425556,N,07032.3781647,W,3.44,22.20,091223,,,A*60
###2023-12-09 13:23:40.993419$GNGGA,182340.10,4138.0425556,N,07032.3781647,W,1,24,0.7,12.849,M,-29.745,M,0.0,*51
###2023-12-09 13:23:40.995215$GPGSA,A,3,03,04,16,26,28,29,31,,,,,,1.1,0.7,0.9*3B
###2023-12-09 13:23:40.996921$GLGSA,A,3,65,71,72,73,74,75,,,,,,,1.1,0.7,0.9*25
###2023-12-09 13:23:40.998497$GAGSA,A,3,04,19,21,27,,,,,,,,,1.1,0.7,0.9*27
###2023-12-09 13:23:41.000212$GBGSA,A,3,14,24,25,26,33,35,,,,,,,1.1,0.7,0.9*28
###2023-12-09 13:23:41.002528$GPGSV,2,1,07,03,30,251,41,04,42,310,44,16,61,218,47,26,89,050,48*7A
###2023-12-09 13:23:41.004573$GPGSV,2,2,07,28,41,080,43,29,22,051,39,31,63,058,46,,,,*43
###2023-12-09 13:23:41.006919$GLGSV,2,1,06,65,34,323,42,71,29,175,43,72,68,232,47,73,27,049,40*6A
###2023-12-09 13:23:41.008664$GLGSV,2,2,06,74,63,004,41,75,40,265,48,,,,,,,,*6F
###2023-12-09 13:23:41.010990$GAGSV,1,1,04,04,36,311,43,19,77,186,41,21,81,054,46,27,26,049,39*64
###2023-12-09 13:23:41.013306$GBGSV,2,1,06,14,34,191,43,24,66,040,48,25,47,271,47,26,19,068,41*68
###2023-12-09 13:23:41.015061$GBGSV,2,2,06,33,50,221,47,35,16,061,42,,,,,,,,*6A
###2023-12-09 13:23:41.016347$GNVTG,22.20,T,,M,3.44,N,6.37,K,A*10
###2023-12-09 13:23:41.017984$GNGST,182340.10,18.000,,,,0.100,0.072,0.170*51
###2023-12-09 13:23:41.019287$GNZDA,182340.10,09,12,2023,00,00*7C
###2023-12-09 13:23:41.019926$GNEBP,,,,,,M*13
###2023-12-09 13:23:41.185794$GNGGA,182340.30,4138.0427348,N,07032.3780591,W,1,24,0.7,12.861,M,-29.745,M,0.0,*5B
###2023-12-09 13:23:41.385496$GNGGA,182340.50,4138.0429171,N,07032.3779303,W,1,24,0.7,12.834,M,-29.745,M,0.0,*50
###2023-12-09 13:23:41.586190$GNGGA,182340.70,4138.0430989,N,07032.3778334,W,1,24,0.7,12.817,M,-29.745,M,0.0,*51
###2023-12-09 13:23:41.785319$GNGGA,182340.90,4138.0432888,N,07032.3777692,W,1,24,0.7,12.847,M,-29.745,M,0.0,*5E
###2023-12-09 13:23:41.990218$GNRMC,182341.10,A,4138.0434802,N,07032.3776772,W,3.60,25.61,091223,,,A*66
###2023-12-09 13:23:41.993082$GNGGA,182341.10,4138.0434802,N,07032.3776772,W,1,24,0.7,12.855,M,-29.745,M,0.0,*5E
###2023-12-09 13:23:41.994882$GPGSA,A,3,03,04,16,26,28,29,31,,,,,,1.1,0.7,0.9*3B
###2023-12-09 13:23:41.996589$GLGSA,A,3,65,71,72,73,74,75,,,,,,,1.1,0.7,0.9*25
###2023-12-09 13:23:41.998165$GAGSA,A,3,04,19,21,27,,,,,,,,,1.1,0.7,0.9*27
###2023-12-09 13:23:41.999879$GBGSA,A,3,14,24,25,26,33,35,,,,,,,1.1,0.7,0.9*28
###2023-12-09 13:23:42.002191$GPGSV,2,1,07,03,30,251,42,04,42,310,44,16,61,218,46,26,89,050,48*78
###2023-12-09 13:23:42.004239$GPGSV,2,2,07,28,41,080,42,29,22,051,39,31,63,058,45,,,,*41
###2023-12-09 13:23:42.006574$GLGSV,2,1,06,65,34,323,43,71,29,175,43,72,68,232,47,73,27,049,38*64
###2023-12-09 13:23:42.008324$GLGSV,2,2,06,74,63,004,41,75,40,265,49,,,,,,,,*6E
###2023-12-09 13:23:42.010900$GAGSV,1,1,04,04,36,311,44,19,77,186,41,21,81,054,46,27,26,049,38*62
###2023-12-09 13:23:42.013237$GBGSV,2,1,06,14,34,191,42,24,66,040,47,25,47,271,47,26,19,068,39*69
###2023-12-09 13:23:42.014993$GBGSV,2,2,06,33,50,221,47,35,16,061,41,,,,,,,,*69
###2023-12-09 13:23:42.016281$GNVTG,25.61,T,,M,3.60,N,6.66,K,A*10
###2023-12-09 13:23:42.017925$GNGST,182341.10,18.000,,,,0.100,0.072,0.170*50
###2023-12-09 13:23:42.019255$GNZDA,182341.10,09,12,2023,00,00*7D
###2023-12-09 13:23:42.019897$GNEBP,,,,,,M*13
###2023-12-09 13:23:42.188649$GNGGA,182341.30,4138.0436619,N,07032.3775485,W,1,24,0.7,12.831,M,-29.745,M,0.0,*50
###2023-12-09 13:23:42.385560$GNGGA,182341.50,4138.0438467,N,07032.3774422,W,1,24,0.7,12.810,M,-29.745,M,0.0,*5C
