###2023-12-09 13:43:35.025700$GBGSV,2,1,05,12,18,124,39,14,25,189,35,24,60,050,43,25,53,280,46*65
###2023-12-09 13:43:35.027207$GBGSV,2,2,05,35,16,053,39,,,,,,,,,,,,*53
###2023-12-09 13:43:35.028544$GNVTG,243.17,T,,M,0.04,N,0.07,K,A*23
###2023-12-09 13:43:35.030170$GNGST,184334.10,7.600,,,,0.220,0.120,0.320*6C
###2023-12-09 13:43:35.031481$GNZDA,184334.10,09,12,2023,00,00*79
###2023-12-09 13:43:35.032119$GNEBP,,,,,,M*13
###2023-12-09 13:43:35.199465$GNGGA,184334.30,4138.0392204,N,07032.4385354,W,1,18,0.8,15.200,M,-29.746,M,0.0,*5E
###2023-12-09 13:43:35.399823$GNGGA,184334.50,4138.0392174,N,07032.4385357,W,1,18,0.8,15.194,M,-29.746,M,0.0,*51
###2023-12-09 13:43:35.598878$GNGGA,184334.70,4138.0392149,N,07032.4385369,W,1,18,0.8,15.187,M,-29.746,M,0.0,*52
###2023-12-09 13:43:35.799740$GNGGA,184334.90,4138.0392141,N,07032.4385375,W,1,18,0.8,15.180,M,-29.746,M,0.0,*5E
###2023-12-09 13:43:36.000151$GNRMC,184335.10,A,4138.0392115,N,07032.4385373,W,0.02,243.17,091223,,,A*59
###2023-12-09 13:43:36.003040$GNGGA,184335.10,4138.0392115,N,07032.4385373,W,1,19,0.8,15.182,M,-29.746,M,0.0,*53
###2023-12-09 13:43:36.004773$GPGSA,A,3,04,16,26,28,29,31,,,,,,,1.3,0.8,1.1*3C
###2023-12-09 13:43:36.006424$GLGSA,A,3,65,73,74,75,83,,,,,,,,1.3,0.8,1.1*29
###2023-12-09 13:43:36.007954$GAGSA,A,3,04,21,27,,,,,,,,,,1.3,0.8,1.1*2B
###2023-12-09 13:43:36.009600$GBGSA,A,3,12,14,24,25,35,,,,,,,,1.3,0.8,1.1*2B
###2023-12-09 13:43:36.011938$GPGSV,2,1,06,04,50,305,46,16,71,227,37,26,79,041,42,28,35,088,44*7E
###2023-12-09 13:43:36.013686$GPGSV,2,2,06,29,18,043,43,31,56,072,50,,,,,,,,*7C
###2023-12-09 13:43:36.016028$GLGSV,2,1,05,65,42,314,44,73,19,055,43,74,56,021,35,75,46,277,41*69
###2023-12-09 13:43:36.017485$GLGSV,2,2,05,83,16,043,35,,,,,,,,,,,,*5D
###2023-12-09 13:43:36.019533$GAGSV,1,1,03,04,42,308,44,21,74,044,40,27,20,051,41,,,,*50
###2023-12-09 13:43:36.021863$GBGSV,2,1,05,12,18,124,39,14,25,189,35,24,60,050,43,25,53,280,45*66
###2023-12-09 13:43:36.023331$GBGSV,2,2,05,35,16,053,38,,,,,,,,,,,,*52
###2023-12-09 13:43:36.024654$GNVTG,243.17,T,,M,0.02,N,0.04,K,A*26
###2023-12-09 13:43:36.026271$GNGST,184335.10,7.500,,,,0.220,0.120,0.320*6E
###2023-12-09 13:43:36.027591$GNZDA,184335.10,09,12,2023,00,00*78
###2023-12-09 13:43:36.028233$GNEBP,,,,,,M*13
###2023-12-09 13:43:36.200834$GNGGA,184335.30,4138.0392093,N,07032.4385375,W,1,19,0.8,15.178,M,-29.746,M,0.0,*5D
###2023-12-09 13:43:36.401105$GNGGA,184335.50,4138.0392075,N,07032.4385380,W,1,17,0.8,15.171,M,-29.746,M,0.0,*5E
###2023-12-09 13:43:36.599801$GNGGA,184335.70,4138.0392052,N,07032.4385381,W,1,18,0.8,15.161,M,-29.746,M,0.0,*56
###2023-12-09 13:43:36.801812$GNGGA,184335.90,4138.0392039,N,07032.4385391,W,1,17,0.8,15.150,M,-29.746,M,0.0,*59
###2023-12-09 13:43:37.005248$GNRMC,184336.10,A,4138.0392015,N,07032.4385417,W,0.06,243.17,091223,,,A*5A
###2023-12-09 13:43:37.008150$GNGGA,184336.10,4138.0392015,N,07032.4385417,W,1,17,0.8,15.144,M,-29.746,M,0.0,*50
###2023-12-09 13:43:37.009881$GPGSA,A,3,04,16,26,28,29,31,,,,,,,1.4,0.8,1.1*3B
###2023-12-09 13:43:37.011476$GLGSA,A,3,65,73,75,83,,,,,,,,,1.4,0.8,1.1*2D
###2023-12-09 13:43:37.012986$GAGSA,A,3,04,21,27,,,,,,,,,,1.4,0.8,1.1*2C
###2023-12-09 13:43:37.014560$GBGSA,A,3,12,24,25,35,,,,,,,,,1.4,0.8,1.1*29
###2023-12-09 13:43:37.016895$GPGSV,2,1,06,04,50,305,46,16,71,227,37,26,79,041,42,28,35,088,44*7E
###2023-12-09 13:43:37.018663$GPGSV,2,2,06,29,18,043,43,31,56,072,50,,,,,,,,*7C
###2023-12-09 13:43:37.020995$GLGSV,1,1,04,65,42,314,44,73,19,055,43,75,46,277,42,83,16,043,35*60
###2023-12-09 13:43:37.023043$GAGSV,1,1,03,04,42,308,44,21,74,044,40,27,20,051,41,,,,*50
###2023-12-09 13:43:37.025376$GBGSV,1,1,04,12,18,124,39,24,60,050,43,25,53,280,46,35,16,053,38*6F
###2023-12-09 13:43:37.026718$GNVTG,243.17,T,,M,0.06,N,0.11,K,A*26
###2023-12-09 13:43:37.028336$GNGST,184336.10,7.300,,,,0.220,0.120,0.310*68
###2023-12-09 13:43:37.029629$GNZDA,184336.10,09,12,2023,00,00*7B
###2023-12-09 13:43:37.030268$GNEBP,,,,,,M*13
###2023-12-09 13:43:37.201655$GNGGA,184336.30,4138.0391989,N,07032.4385421,W,1,18,0.8,15.136,M,-29.746,M,0.0,*52
###2023-12-09 13:43:37.400427$GNGGA,184336.50,4138.0391970,N,07032.4385429,W,1,18,0.8,15.129,M,-29.746,M,0.0,*54
###2023-12-09 13:43:37.599761$GNGGA,184336.70,4138.0391941,N,07032.4385448,W,1,18,0.8,15.116,M,-29.746,M,0.0,*5F
###2023-12-09 13:43:37.800131$GNGGA,184336.90,4138.0391929,N,07032.4385451,W,1,18,0.8,15.107,M,-29.746,M,0.0,*57
###2023-12-09 13:43:38.004139$GNRMC,184337.10,A,4138.0391899,N,07032.4385452,W,0.02,243.17,091223,,,A*51
###2023-12-09 13:43:38.007001$GNGGA,184337.10,4138.0391899,N,07032.4385452,W,1,18,0.8,15.101,M,-29.746,M,0.0,*51
###2023-12-09 13:43:38.008717$GPGSA,A,3,04,16,26,28,29,31,,,,,,,1.3,0.8,1.1*3C
###2023-12-09 13:43:38.010300$GLGSA,A,3,65,73,74,75,,,,,,,,,1.3,0.8,1.1*22
###2023-12-09 13:43:38.011828$GAGSA,A,3,04,21,27,,,,,,,,,,1.3,0.8,1.1*2B
###2023-12-09 13:43:38.013473$GBGSA,A,3,12,14,24,25,35,,,,,,,,1.3,0.8,1.1*2B
###2023-12-09 13:43:38.015814$GPGSV,2,1,06,04,50,305,45,16,71,227,36,26,79,041,42,28,35,088,44*7C
###2023-12-09 13:43:38.017557$GPGSV,2,2,06,29,18,043,42,31,56,072,50,,,,,,,,*7D
###2023-12-09 13:43:38.019892$GLGSV,1,1,04,65,42,314,43,73,19,055,43,74,56,021,35,75,46,277,41*6C
###2023-12-09 13:43:38.021932$GAGSV,1,1,03,04,42,308,44,21,74,044,40,27,20,051,41,,,,*50
###2023-12-09 13:43:38.024276$GBGSV,2,1,05,12,18,124,40,14,25,189,35,24,60,050,44,25,53,280,46*6C
###2023-12-09 13:43:38.025729$GBGSV,2,2,05,35,16,053,39,,,,,,,,,,,,*53
###2023-12-09 13:43:38.027061$GNVTG,243.17,T,,M,0.02,N,0.04,K,A*26
###2023-12-09 13:43:38.028675$GNGST,184337.10,7.400,,,,0.220,0.120,0.310*6E
###2023-12-09 13:43:38.029961$GNZDA,184337.10,09,12,2023,00,00*7A
###2023-12-09 13:43:38.030610$GNEBP,,,,,,M*13
###2023-12-09 13:43:38.200576$GNGGA,184337.30,4138.0391891,N,07032.4385464,W,1,18,0.8,15.085,M,-29.746,M,0.0,*53
###2023-12-09 13:43:38.400019$GNGGA,184337.50,4138.0391868,N,07032.4385472,W,1,19,0.8,15.084,M,-29.746,M,0.0,*54
###2023-12-09 13:43:38.600012$GNGGA,184337.70,4138.0391825,N,07032.4385487,W,1,19,0.8,15.077,M,-29.746,M,0.0,*59
###2023-12-09 13:43:38.800982$GNGGA,184337.90,4138.0391813,N,07032.4385502,W,1,19,0.8,15.074,M,-29.746,M,0.0,*5D
###2023-12-09 13:43:39.003205$GNRMC,184338.10,A,4138.0391784,N,07032.4385524,W,0.04,243.17,091223,,,A*5B
###2023-12-09 13:43:39.006071$GNGGA,184338.10,4138.0391784,N,07032.4385524,W,1,19,0.8,15.065,M,-29.746,M,0.0,*5F
###2023-12-09 13:43:39.007807$GPGSA,A,3,04,16,26,28,29,31,,,,,,,1.3,0.8,1.1*3C
###2023-12-09 13:43:39.009464$GLGSA,A,3,65,73,74,75,83,,,,,,,,1.3,0.8,1.1*29
###2023-12-09 13:43:39.011004$GAGSA,A,3,04,21,27,,,,,,,,,,1.3,0.8,1.1*2B
###2023-12-09 13:43:39.012655$GBGSA,A,3,12,14,24,25,35,,,,,,,,1.3,0.8,1.1*2B
###2023-12-09 13:43:39.014991$GPGSV,2,1,06,04,50,305,45,16,71,227,37,26,79,041,42,28,35,088,44*7D
###2023-12-09 13:43:39.016740$GPGSV,2,2,06,29,18,043,42,31,56,072,50,,,,,,,,*7D
###2023-12-09 13:43:39.019081$GLGSV,2,1,05,65,42,314,43,73,19,055,43,74,56,021,35,75,46,277,42*6D
###2023-12-09 13:43:39.020537$GLGSV,2,2,05,83,16,043,35,,,,,,,,,,,,*5D
###2023-12-09 13:43:39.022575$GAGSV,1,1,03,04,42,308,43,21,74,044,39,27,20,051,40,,,,*58
###2023-12-09 13:43:39.024908$GBGSV,2,1,05,12,18,124,39,14,25,189,35,24,60,050,43,25,53,280,45*66
###2023-12-09 13:43:39.026362$GBGSV,2,2,05,35,16,053,37,,,,,,,,,,,,*5D
###2023-12-09 13:43:39.027698$GNVTG,243.17,T,,M,0.04,N,0.07,K,A*23
###2023-12-09 13:43:39.029317$GNGST,184338.10,8.300,,,,0.220,0.120,0.310*69
###2023-12-09 13:43:39.030618$GNZDA,184338.10,09,12,2023,00,00*75
###2023-12-09 13:43:39.031256$GNEBP,,,,,,M*13
###2023-12-09 13:43:39.203688$GNGGA,184338.30,4138.0391763,N,07032.4385549,W,1,19,0.8,15.061,M,-29.746,M,0.0,*5B
###2023-12-09 13:43:39.401711$GNGGA,184338.50,4138.0391740,N,07032.4385564,W,1,19,0.8,15.055,M,-29.746,M,0.0,*54
###2023-12-09 13:43:39.598696$GNGGA,184338.70,4138.0391723,N,07032.4385579,W,1,19,0.8,15.049,M,-29.746,M,0.0,*52
###2023-12-09 13:43:39.799404$GNGGA,184338.90,4138.0391703,N,07032.4385580,W,1,19,0.8,15.044,M,-29.746,M,0.0,*55
###2023-12-09 13:43:40.000737$GNRMC,184339.10,A,4138.0391670,N,07032.4385588,W,0.10,243.17,091223,,,A*53
###2023-12-09 13:43:40.003866$GNGGA,184339.10,4138.0391670,N,07032.4385588,W,1,19,0.8,15.040,M,-29.746,M,0.0,*55
###2023-12-09 13:43:40.005605$GPGSA,A,3,04,16,26,28,29,31,,,,,,,1.3,0.8,1.1*3C
###2023-12-09 13:43:40.007269$GLGSA,A,3,65,73,74,75,83,,,,,,,,1.3,0.8,1.1*29
###2023-12-09 13:43:40.008793$GAGSA,A,3,04,21,27,,,,,,,,,,1.3,0.8,1.1*2B
###2023-12-09 13:43:40.010454$GBGSA,A,3,12,14,24,25,35,,,,,,,,1.3,0.8,1.1*2B
###2023-12-09 13:43:40.012802$GPGSV,2,1,06,04,50,305,45,16,71,227,37,26,79,041,42,28,35,088,44*7D
###2023-12-09 13:43:40.014555$GPGSV,2,2,06,29,18,043,42,31,56,072,50,,,,,,,,*7D
###2023-12-09 13:43:40.016894$GLGSV,2,1,05,65,42,314,43,73,19,055,42,74,56,021,36,75,46,277,42*6F
