###2023-12-09 13:21:48.015350$GNVTG,342.93,T,,M,3.40,N,6.30,K,A*2E
###2023-12-09 13:21:48.017032$GNGST,182147.10,18.000,,,,0.100,0.071,0.170*57
###2023-12-09 13:21:48.018335$GNZDA,182147.10,09,12,2023,00,00*79
###2023-12-09 13:21:48.018996$GNEBP,,,,,,M*13
###2023-12-09 13:21:48.186583$GNGGA,182147.30,4138.0599310,N,07032.3441473,W,1,24,0.7,13.159,M,-29.744,M,0.0,*56
###2023-12-09 13:21:48.382623$GNGGA,182147.50,4138.0601232,N,07032.3441978,W,1,24,0.7,13.164,M,-29.743,M,0.0,*5C
###2023-12-09 13:21:48.583821$GNGGA,182147.70,4138.0603193,N,07032.3442243,W,1,24,0.7,13.165,M,-29.743,M,0.0,*55
###2023-12-09 13:21:48.785697$GNGGA,182147.90,4138.0605134,N,07032.3442248,W,1,24,0.7,13.169,M,-29.743,M,0.0,*57
###2023-12-09 13:21:48.989487$GNRMC,182148.10,A,4138.0607001,N,07032.3442029,W,3.34,8.99,091223,,,A*50
###2023-12-09 13:21:48.992357$GNGGA,182148.10,4138.0607001,N,07032.3442029,W,1,24,0.7,13.171,M,-29.743,M,0.0,*59
###2023-12-09 13:21:48.994138$GPGSA,A,3,03,04,16,26,28,29,31,,,,,,1.1,0.7,0.9*3B
###2023-12-09 13:21:48.995858$GLGSA,A,3,65,71,72,73,74,75,,,,,,,1.1,0.7,0.9*25
###2023-12-09 13:21:48.997432$GAGSA,A,3,04,19,21,27,,,,,,,,,1.1,0.7,0.9*27
###2023-12-09 13:21:48.999150$GBGSA,A,3,14,24,25,26,33,35,,,,,,,1.1,0.7,0.9*28
###2023-12-09 13:21:49.001471$GPGSV,2,1,07,03,30,252,42,04,41,310,44,16,60,218,46,26,90,099,47*7B
###2023-12-09 13:21:49.003512$GPGSV,2,2,07,28,42,080,43,29,23,052,39,31,63,057,46,,,,*4D
###2023-12-09 13:21:49.005829$GLGSV,2,1,06,65,33,323,42,71,30,174,41,72,69,234,46,73,27,048,38*6E
###2023-12-09 13:21:49.007583$GLGSV,2,2,06,74,64,002,41,75,39,263,47,,,,,,,,*69
###2023-12-09 13:21:49.009893$GAGSV,1,1,04,04,36,311,43,19,77,186,40,21,81,055,45,27,27,049,37*68
###2023-12-09 13:21:49.012261$GBGSV,2,1,06,14,35,191,43,24,67,039,47,25,47,270,47,26,20,067,41*6D
###2023-12-09 13:21:49.014006$GBGSV,2,2,06,33,51,222,47,35,16,062,41,,,,,,,,*68
###2023-12-09 13:21:49.015274$GNVTG,8.99,T,,M,3.34,N,6.19,K,A*21
###2023-12-09 13:21:49.016914$GNGST,182148.10,18.000,,,,0.100,0.071,0.170*58
###2023-12-09 13:21:49.018207$GNZDA,182148.10,09,12,2023,00,00*76
###2023-12-09 13:21:49.018865$GNEBP,,,,,,M*13
###2023-12-09 13:21:49.183915$GNGGA,182148.30,4138.0608800,N,07032.3441484,W,1,24,0.7,13.159,M,-29.743,M,0.0,*57
###2023-12-09 13:21:49.384499$GNGGA,182148.50,4138.0610582,N,07032.3440768,W,1,24,0.7,13.139,M,-29.743,M,0.0,*59
###2023-12-09 13:21:49.584885$GNGGA,182148.70,4138.0612393,N,07032.3440233,W,1,24,0.7,13.136,M,-29.743,M,0.0,*5B
###2023-12-09 13:21:49.782623$GNGGA,182148.90,4138.0614263,N,07032.3439755,W,1,24,0.7,13.146,M,-29.743,M,0.0,*51
###2023-12-09 13:21:49.986968$GNRMC,182149.10,A,4138.0616082,N,07032.3438895,W,3.48,24.52,091223,,,A*6A
###2023-12-09 13:21:49.989822$GNGGA,182149.10,4138.0616082,N,07032.3438895,W,1,24,0.7,13.159,M,-29.743,M,0.0,*5B
###2023-12-09 13:21:49.991622$GPGSA,A,3,03,04,16,26,28,29,31,,,,,,1.1,0.7,0.9*3B
###2023-12-09 13:21:49.993330$GLGSA,A,3,65,71,72,73,74,75,,,,,,,1.1,0.7,0.9*25
###2023-12-09 13:21:49.994917$GAGSA,A,3,04,19,21,27,,,,,,,,,1.1,0.7,0.9*27
###2023-12-09 13:21:49.996627$GBGSA,A,3,14,24,25,26,33,35,,,,,,,1.1,0.7,0.9*28
###2023-12-09 13:21:49.998962$GPGSV,2,1,07,03,30,252,42,04,41,310,44,16,60,218,46,26,90,099,48*74
###2023-12-09 13:21:50.000999$GPGSV,2,2,07,28,42,080,42,29,23,052,39,31,63,057,46,,,,*4C
###2023-12-09 13:21:50.003341$GLGSV,2,1,06,65,33,323,43,71,30,174,42,72,69,234,46,73,27,048,40*63
###2023-12-09 13:21:50.005083$GLGSV,2,2,06,74,64,002,41,75,39,263,47,,,,,,,,*69
###2023-12-09 13:21:50.007403$GAGSV,1,1,04,04,36,311,44,19,77,186,41,21,81,055,46,27,27,049,38*62
###2023-12-09 13:21:50.009730$GBGSV,2,1,06,14,35,191,44,24,67,039,49,25,47,270,49,26,20,067,41*6A
###2023-12-09 13:21:50.011487$GBGSV,2,2,06,33,51,222,48,35,16,062,43,,,,,,,,*65
###2023-12-09 13:21:50.012779$GNVTG,24.52,T,,M,3.48,N,6.44,K,A*1B
###2023-12-09 13:21:50.014425$GNGST,182149.10,18.000,,,,0.100,0.071,0.170*59
###2023-12-09 13:21:50.015719$GNZDA,182149.10,09,12,2023,00,00*77
###2023-12-09 13:21:50.016357$GNEBP,,,,,,M*13
###2023-12-09 13:21:50.182234$GNGGA,182149.30,4138.0617847,N,07032.3437831,W,1,24,0.7,13.157,M,-29.743,M,0.0,*56
###2023-12-09 13:21:50.381735$GNGGA,182149.50,4138.0619655,N,07032.3436926,W,1,24,0.7,13.142,M,-29.743,M,0.0,*51
###2023-12-09 13:21:50.586391$GNGGA,182149.70,4138.0621527,N,07032.3436152,W,1,24,0.7,13.129,M,-29.743,M,0.0,*58
###2023-12-09 13:21:50.784756$GNGGA,182149.90,4138.0623376,N,07032.3435165,W,1,24,0.7,13.111,M,-29.743,M,0.0,*5A
###2023-12-09 13:21:50.989335$GNRMC,182150.10,A,4138.0625182,N,07032.3434064,W,3.48,24.19,091223,,,A*66
###2023-12-09 13:21:50.992207$GNGGA,182150.10,4138.0625182,N,07032.3434064,W,1,24,0.7,13.114,M,-29.743,M,0.0,*51
###2023-12-09 13:21:50.994001$GPGSA,A,3,03,04,16,26,28,29,31,,,,,,1.1,0.7,0.9*3B
###2023-12-09 13:21:50.995724$GLGSA,A,3,65,71,72,73,74,75,,,,,,,1.1,0.7,0.9*25
###2023-12-09 13:21:50.997305$GAGSA,A,3,04,19,21,27,,,,,,,,,1.1,0.7,0.9*27
###2023-12-09 13:21:50.999024$GBGSA,A,3,14,24,25,26,33,35,,,,,,,1.1,0.7,0.9*28
###2023-12-09 13:21:51.001346$GPGSV,2,1,07,03,30,252,40,04,41,310,44,16,60,218,46,26,90,099,48*76
###2023-12-09 13:21:51.003389$GPGSV,2,2,07,28,42,080,42,29,23,052,39,31,63,057,45,,,,*4F
###2023-12-09 13:21:51.005703$GLGSV,2,1,06,65,33,323,43,71,30,174,43,72,69,234,47,73,27,048,40*63
###2023-12-09 13:21:51.007455$GLGSV,2,2,06,74,64,002,41,75,39,263,47,,,,,,,,*69
###2023-12-09 13:21:51.009768$GAGSV,1,1,04,04,36,311,43,19,77,186,41,21,81,055,46,27,27,049,38*65
###2023-12-09 13:21:51.012099$GBGSV,2,1,06,14,35,191,43,24,67,039,47,25,47,270,48,26,20,067,40*63
###2023-12-09 13:21:51.013848$GBGSV,2,2,06,33,51,222,47,35,16,062,41,,,,,,,,*68
###2023-12-09 13:21:51.015149$GNVTG,24.19,T,,M,3.48,N,6.44,K,A*14
###2023-12-09 13:21:51.016797$GNGST,182150.10,18.000,,,,0.100,0.071,0.170*51
###2023-12-09 13:21:51.018081$GNZDA,182150.10,09,12,2023,00,00*7F
###2023-12-09 13:21:51.018727$GNEBP,,,,,,M*13
###2023-12-09 13:21:51.187027$GNGGA,182150.30,4138.0627046,N,07032.3433088,W,1,24,0.7,13.141,M,-29.743,M,0.0,*5D
###2023-12-09 13:21:51.384384$GNGGA,182150.50,4138.0628931,N,07032.3432170,W,1,24,0.7,13.139,M,-29.743,M,0.0,*55
###2023-12-09 13:21:51.584787$GNGGA,182150.70,4138.0630706,N,07032.3431040,W,1,24,0.7,13.106,M,-29.743,M,0.0,*59
###2023-12-09 13:21:51.785656$GNGGA,182150.90,4138.0632424,N,07032.3429923,W,1,24,0.7,13.078,M,-29.743,M,0.0,*5B
###2023-12-09 13:21:51.987409$GNRMC,182151.10,A,4138.0634140,N,07032.3429162,W,3.23,17.99,091223,,,A*67
###2023-12-09 13:21:51.990342$GNGGA,182151.10,4138.0634140,N,07032.3429162,W,1,24,0.7,13.080,M,-29.743,M,0.0,*59
###2023-12-09 13:21:51.992156$GPGSA,A,3,03,04,16,26,28,29,31,,,,,,1.1,0.7,0.9*3B
###2023-12-09 13:21:51.993879$GLGSA,A,3,65,71,72,73,74,75,,,,,,,1.1,0.7,0.9*25
###2023-12-09 13:21:51.995476$GAGSA,A,3,04,19,21,27,,,,,,,,,1.1,0.7,0.9*27
###2023-12-09 13:21:51.997192$GBGSA,A,3,14,24,25,26,33,35,,,,,,,1.1,0.7,0.9*28
###2023-12-09 13:21:51.999531$GPGSV,2,1,07,03,30,252,41,04,41,310,44,16,60,218,46,26,90,099,48*77
###2023-12-09 13:21:52.001571$GPGSV,2,2,07,28,42,080,43,29,23,052,39,31,63,057,46,,,,*4D
###2023-12-09 13:21:52.003922$GLGSV,2,1,06,65,33,323,42,71,30,174,44,72,69,234,47,73,27,048,40*65
###2023-12-09 13:21:52.005684$GLGSV,2,2,06,74,64,002,41,75,39,263,46,,,,,,,,*68
###2023-12-09 13:21:52.008027$GAGSV,1,1,04,04,36,311,43,19,77,186,41,21,81,055,46,27,27,049,38*65
###2023-12-09 13:21:52.010355$GBGSV,2,1,06,14,35,191,44,24,67,039,48,25,47,270,47,26,20,067,41*65
###2023-12-09 13:21:52.012115$GBGSV,2,2,06,33,51,222,47,35,16,062,42,,,,,,,,*6B
###2023-12-09 13:21:52.013409$GNVTG,17.99,T,,M,3.23,N,5.98,K,A*13
###2023-12-09 13:21:52.015069$GNGST,182151.10,18.000,,,,0.100,0.072,0.170*53
###2023-12-09 13:21:52.016362$GNZDA,182151.10,09,12,2023,00,00*7E
###2023-12-09 13:21:52.017001$GNEBP,,,,,,M*13
###2023-12-09 13:21:52.185128$GNGGA,182151.30,4138.0635810,N,07032.3428365,W,1,24,0.7,13.083,M,-29.743,M,0.0,*51
###2023-12-09 13:21:52.384768$GNGGA,182151.50,4138.0637529,N,07032.3427473,W,1,24,0.7,13.084,M,-29.743,M,0.0,*5A
###2023-12-09 13:21:52.584131$GNGGA,182151.70,4138.0639291,N,07032.3426741,W,1,24,0.7,13.080,M,-29.743,M,0.0,*55
###2023-12-09 13:21:52.784592$GNGGA,182151.90,4138.0641196,N,07032.3426288,W,1,24,0.7,13.079,M,-29.743,M,0.0,*56
###2023-12-09 13:21:52.990513$GNRMC,182152.10,A,4138.0643143,N,07032.3425715,W,3.56,14.80,091223,,,A*64
###2023-12-09 13:21:52.993397$GNGGA,182152.10,4138.0643143,N,07032.3425715,W,1,24,0.7,13.070,M,-29.743,M,0.0,*5C
###2023-12-09 13:21:52.995206$GPGSA,A,3,03,04,16,26,28,29,31,,,,,,1.1,0.7,0.9*3B
###2023-12-09 13:21:52.996917$GLGSA,A,3,65,71,72,73,74,75,,,,,,,1.1,0.7,0.9*25
###2023-12-09 13:21:52.998496$GAGSA,A,3,04,19,21,27,,,,,,,,,1.1,0.7,0.9*27
###2023-12-09 13:21:53.000215$GBGSA,A,3,14,24,25,26,33,35,,,,,,,1.1,0.7,0.9*28
###2023-12-09 13:21:53.002539$GPGSV,2,1,07,03,30,252,43,04,41,310,45,16,60,218,46,26,90,099,48*74
###2023-12-09 13:21:53.004591$GPGSV,2,2,07,28,42,080,43,29,23,052,39,31,63,057,45,,,,*4E
