###2023-12-09 13:31:24.189330$GNGGA,183123.30,4138.0354021,N,07032.4206612,W,1,21,0.9,13.304,M,-29.746,M,0.0,*57
###2023-12-09 13:31:24.386982$GNGGA,183123.50,4138.0353979,N,07032.4207752,W,1,21,0.9,13.301,M,-29.746,M,0.0,*53
###2023-12-09 13:31:24.589297$GNGGA,183123.70,4138.0353984,N,07032.4208909,W,1,20,0.9,13.294,M,-29.746,M,0.0,*50
###2023-12-09 13:31:24.788211$GNGGA,183123.90,4138.0354051,N,07032.4210072,W,1,20,0.9,13.294,M,-29.746,M,0.0,*54
###2023-12-09 13:31:24.988366$GNRMC,183124.10,A,4138.0354100,N,07032.4211208,W,1.52,271.18,091223,,,A*59
###2023-12-09 13:31:24.991246$GNGGA,183124.10,4138.0354100,N,07032.4211208,W,1,20,0.9,13.286,M,-29.746,M,0.0,*53
###2023-12-09 13:31:24.992976$GPGSA,A,3,04,16,26,28,29,31,,,,,,,1.6,0.9,1.3*3A
###2023-12-09 13:31:24.994645$GLGSA,A,3,65,72,73,74,75,,,,,,,,1.6,0.9,1.3*21
###2023-12-09 13:31:24.996243$GAGSA,A,3,04,19,21,27,,,,,,,,,1.6,0.9,1.3*25
###2023-12-09 13:31:24.997896$GBGSA,A,3,24,25,26,33,35,,,,,,,,1.6,0.9,1.3*2F
###2023-12-09 13:31:25.000251$GPGSV,2,1,06,04,45,308,43,16,65,221,46,26,86,041,48,28,39,083,45*7B
###2023-12-09 13:31:25.002004$GPGSV,2,2,06,29,21,049,42,31,61,063,47,,,,,,,,*7F
###2023-12-09 13:31:25.004351$GLGSV,2,1,05,65,37,320,42,72,64,223,45,73,23,051,39,74,61,011,43*6E
###2023-12-09 13:31:25.005816$GLGSV,2,2,05,75,42,269,43,,,,,,,,,,,,*5E
###2023-12-09 13:31:25.008164$GAGSV,1,1,04,04,39,310,40,19,73,182,40,21,78,047,46,27,23,050,40*6F
###2023-12-09 13:31:25.010491$GBGSV,2,1,05,24,64,044,49,25,50,275,46,26,17,070,42,33,47,218,48*63
###2023-12-09 13:31:25.011963$GBGSV,2,2,05,35,16,058,43,,,,,,,,,,,,*55
###2023-12-09 13:31:25.013287$GNVTG,271.18,T,,M,1.52,N,2.81,K,A*23
###2023-12-09 13:31:25.014948$GNGST,183124.10,5.700,,,,0.130,0.083,0.210*63
###2023-12-09 13:31:25.016251$GNZDA,183124.10,09,12,2023,00,00*7D
###2023-12-09 13:31:25.016895$GNEBP,,,,,,M*13
###2023-12-09 13:31:25.187828$GNGGA,183124.30,4138.0354170,N,07032.4212380,W,1,20,0.9,13.285,M,-29.746,M,0.0,*57
###2023-12-09 13:31:25.388995$GNGGA,183124.50,4138.0354256,N,07032.4213550,W,1,20,0.9,13.282,M,-29.746,M,0.0,*5B
###2023-12-09 13:31:25.589712$GNGGA,183124.70,4138.0354375,N,07032.4214710,W,1,20,0.9,13.278,M,-29.746,M,0.0,*5D
###2023-12-09 13:31:25.788465$GNGGA,183124.90,4138.0354516,N,07032.4215854,W,1,20,0.9,13.281,M,-29.746,M,0.0,*58
###2023-12-09 13:31:25.991374$GNRMC,183125.10,A,4138.0354640,N,07032.4216971,W,1.48,280.97,091223,,,A*5B
###2023-12-09 13:31:25.994333$GNGGA,183125.10,4138.0354640,N,07032.4216971,W,1,20,0.9,13.277,M,-29.746,M,0.0,*5D
###2023-12-09 13:31:25.996071$GPGSA,A,3,04,16,26,28,29,31,,,,,,,1.6,0.9,1.3*3A
###2023-12-09 13:31:25.997720$GLGSA,A,3,65,72,73,74,75,,,,,,,,1.6,0.9,1.3*21
###2023-12-09 13:31:25.999319$GAGSA,A,3,04,19,21,27,,,,,,,,,1.6,0.9,1.3*25
###2023-12-09 13:31:26.000978$GBGSA,A,3,24,25,26,33,35,,,,,,,,1.6,0.9,1.3*2F
###2023-12-09 13:31:26.003316$GPGSV,2,1,06,04,45,308,44,16,65,221,46,26,86,041,48,28,39,083,45*7C
###2023-12-09 13:31:26.005065$GPGSV,2,2,06,29,21,049,41,31,61,063,47,,,,,,,,*7C
###2023-12-09 13:31:26.007402$GLGSV,2,1,05,65,37,320,42,72,64,223,46,73,23,051,42,74,61,011,43*61
###2023-12-09 13:31:26.008851$GLGSV,2,2,05,75,42,269,45,,,,,,,,,,,,*58
###2023-12-09 13:31:26.011184$GAGSV,1,1,04,04,39,310,41,19,73,182,41,21,78,047,46,27,23,050,40*6F
###2023-12-09 13:31:26.013503$GBGSV,2,1,05,24,64,044,49,25,50,275,45,26,17,070,43,33,47,218,48*61
###2023-12-09 13:31:26.014966$GBGSV,2,2,05,35,16,058,42,,,,,,,,,,,,*54
###2023-12-09 13:31:26.016284$GNVTG,280.97,T,,M,1.48,N,2.74,K,A*2B
###2023-12-09 13:31:26.017893$GNGST,183125.10,5.100,,,,0.140,0.083,0.210*63
###2023-12-09 13:31:26.019186$GNZDA,183125.10,09,12,2023,00,00*7C
###2023-12-09 13:31:26.019826$GNEBP,,,,,,M*13
###2023-12-09 13:31:26.189813$GNGGA,183125.30,4138.0354750,N,07032.4218171,W,1,21,0.9,13.270,M,-29.746,M,0.0,*5F
###2023-12-09 13:31:26.387752$GNGGA,183125.50,4138.0354920,N,07032.4219350,W,1,20,0.9,13.281,M,-29.746,M,0.0,*5F
###2023-12-09 13:31:26.588191$GNGGA,183125.70,4138.0355106,N,07032.4220549,W,1,20,0.9,13.277,M,-29.746,M,0.0,*5D
###2023-12-09 13:31:26.785872$GNGGA,183125.90,4138.0355230,N,07032.4221780,W,1,20,0.9,13.273,M,-29.746,M,0.0,*57
###2023-12-09 13:31:26.988345$GNRMC,183126.10,A,4138.0355369,N,07032.4223016,W,1.67,276.80,091223,,,A*5B
###2023-12-09 13:31:26.991224$GNGGA,183126.10,4138.0355369,N,07032.4223016,W,1,20,0.9,13.272,M,-29.746,M,0.0,*5A
###2023-12-09 13:31:26.992953$GPGSA,A,3,04,16,26,28,29,31,,,,,,,1.6,0.9,1.3*3A
###2023-12-09 13:31:26.994678$GLGSA,A,3,65,72,73,74,75,,,,,,,,1.6,0.9,1.3*21
###2023-12-09 13:31:26.996271$GAGSA,A,3,04,19,21,27,,,,,,,,,1.6,0.9,1.3*25
###2023-12-09 13:31:26.997915$GBGSA,A,3,24,25,26,33,35,,,,,,,,1.6,0.9,1.3*2F
###2023-12-09 13:31:27.000252$GPGSV,2,1,06,04,45,308,43,16,65,221,45,26,85,040,48,28,39,083,46*79
###2023-12-09 13:31:27.002010$GPGSV,2,2,06,29,21,049,41,31,61,063,47,,,,,,,,*7C
###2023-12-09 13:31:27.004354$GLGSV,2,1,05,65,37,320,42,72,64,223,46,73,23,051,41,74,61,011,43*62
###2023-12-09 13:31:27.005806$GLGSV,2,2,05,75,42,269,44,,,,,,,,,,,,*59
###2023-12-09 13:31:27.008168$GAGSV,1,1,04,04,39,310,42,19,73,182,41,21,78,047,46,27,23,050,39*62
###2023-12-09 13:31:27.010482$GBGSV,2,1,05,24,64,044,49,25,50,275,45,26,17,070,43,33,47,218,48*61
###2023-12-09 13:31:27.011955$GBGSV,2,2,05,35,16,058,41,,,,,,,,,,,,*57
###2023-12-09 13:31:27.013284$GNVTG,276.80,T,,M,1.67,N,3.10,K,A*2A
###2023-12-09 13:31:27.014907$GNGST,183126.10,5.700,,,,0.140,0.084,0.210*61
###2023-12-09 13:31:27.016199$GNZDA,183126.10,09,12,2023,00,00*7F
###2023-12-09 13:31:27.016837$GNEBP,,,,,,M*13
###2023-12-09 13:31:27.187995$GNGGA,183126.30,4138.0355472,N,07032.4224251,W,1,20,1.0,13.263,M,-29.746,M,0.0,*5B
###2023-12-09 13:31:27.384745$GNGGA,183126.50,4138.0355577,N,07032.4225515,W,1,20,1.0,13.257,M,-29.746,M,0.0,*58
###2023-12-09 13:31:27.584023$GNGGA,183126.70,4138.0355718,N,07032.4226757,W,1,20,1.0,13.259,M,-29.746,M,0.0,*58
###2023-12-09 13:31:27.786392$GNGGA,183126.90,4138.0355835,N,07032.4228001,W,1,21,0.8,13.261,M,-29.746,M,0.0,*5F
###2023-12-09 13:31:27.987792$GNRMC,183127.10,A,4138.0355890,N,07032.4229219,W,1.67,272.15,091223,,,A*58
###2023-12-09 13:31:27.990666$GNGGA,183127.10,4138.0355890,N,07032.4229219,W,1,20,1.0,13.261,M,-29.746,M,0.0,*5B
###2023-12-09 13:31:27.992395$GPGSA,A,3,04,16,26,28,29,31,,,,,,,1.6,1.0,1.3*32
###2023-12-09 13:31:27.994044$GLGSA,A,3,65,72,73,74,75,,,,,,,,1.6,1.0,1.3*29
###2023-12-09 13:31:27.995643$GAGSA,A,3,04,19,21,27,,,,,,,,,1.6,1.0,1.3*2D
###2023-12-09 13:31:27.997293$GBGSA,A,3,24,25,26,33,35,,,,,,,,1.6,1.0,1.3*27
###2023-12-09 13:31:27.999640$GPGSV,2,1,06,04,45,308,43,16,65,221,46,26,85,040,48,28,39,083,46*7A
###2023-12-09 13:31:28.001395$GPGSV,2,2,06,29,21,049,40,31,61,063,47,,,,,,,,*7D
###2023-12-09 13:31:28.003745$GLGSV,2,1,05,65,37,320,43,72,64,223,46,73,23,051,40,74,61,011,44*65
###2023-12-09 13:31:28.005211$GLGSV,2,2,05,75,42,269,43,,,,,,,,,,,,*5E
###2023-12-09 13:31:28.007561$GAGSV,1,1,04,04,39,310,43,19,73,182,41,21,78,047,47,27,23,050,39*62
###2023-12-09 13:31:28.009886$GBGSV,2,1,05,24,64,044,49,25,50,275,46,26,17,070,43,33,47,218,48*62
###2023-12-09 13:31:28.011355$GBGSV,2,2,05,35,16,058,43,,,,,,,,,,,,*55
###2023-12-09 13:31:28.012679$GNVTG,272.15,T,,M,1.67,N,3.10,K,A*22
###2023-12-09 13:31:28.014293$GNGST,183127.10,5.600,,,,0.140,0.086,0.210*63
###2023-12-09 13:31:28.015595$GNZDA,183127.10,09,12,2023,00,00*7E
###2023-12-09 13:31:28.016234$GNEBP,,,,,,M*13
###2023-12-09 13:31:28.185687$GNGGA,183127.30,4138.0355978,N,07032.4230406,W,1,20,1.0,13.254,M,-29.746,M,0.0,*58
###2023-12-09 13:31:28.386017$GNGGA,183127.50,4138.0356031,N,07032.4231556,W,1,21,1.0,13.248,M,-29.746,M,0.0,*50
###2023-12-09 13:31:28.585968$GNGGA,183127.70,4138.0356135,N,07032.4232697,W,1,21,1.0,13.249,M,-29.746,M,0.0,*5B
###2023-12-09 13:31:28.788385$GNGGA,183127.90,4138.0356145,N,07032.4233827,W,1,21,1.0,13.244,M,-29.746,M,0.0,*5B
###2023-12-09 13:31:28.992180$GNRMC,183128.10,A,4138.0356142,N,07032.4234940,W,1.42,264.59,091223,,,A*51
###2023-12-09 13:31:28.995054$GNGGA,183128.10,4138.0356142,N,07032.4234940,W,1,20,1.0,13.241,M,-29.746,M,0.0,*58
###2023-12-09 13:31:28.996786$GPGSA,A,3,04,16,26,28,29,31,,,,,,,1.6,1.0,1.3*32
###2023-12-09 13:31:28.998687$GLGSA,A,3,65,72,73,74,75,,,,,,,,1.6,1.0,1.3*29
###2023-12-09 13:31:29.000289$GAGSA,A,3,04,19,21,27,,,,,,,,,1.6,1.0,1.3*2D
###2023-12-09 13:31:29.001949$GBGSA,A,3,24,25,26,33,35,,,,,,,,1.6,1.0,1.3*27
###2023-12-09 13:31:29.004303$GPGSV,2,1,06,04,45,308,44,16,65,221,46,26,85,040,48,28,39,084,46*7A
###2023-12-09 13:31:29.006055$GPGSV,2,2,06,29,21,049,41,31,61,063,46,,,,,,,,*7D
###2023-12-09 13:31:29.008400$GLGSV,2,1,05,65,37,320,42,72,64,223,45,73,23,051,40,74,61,011,42*61
###2023-12-09 13:31:29.009872$GLGSV,2,2,05,75,42,269,43,,,,,,,,,,,,*5E
###2023-12-09 13:31:29.012253$GAGSV,1,1,04,04,39,310,42,19,73,182,41,21,78,047,46,27,23,050,39*62
###2023-12-09 13:31:29.014605$GBGSV,2,1,05,24,64,044,50,25,50,275,46,26,17,070,45,33,47,218,48*6C
