###2023-12-09 12:51:28.977620$GBGSV,2,2,05,33,60,240,47,,,,,,,,,,,,*5D
###2023-12-09 12:51:28.978993$GNVTG,317.58,T,,M,1.26,N,2.34,K,A*2B
###2023-12-09 12:51:28.980657$GNGST,175128.10,18.000,,,,0.077,0.067,0.160*51
###2023-12-09 12:51:28.981958$GNZDA,175128.10,09,12,2023,00,00*78
###2023-12-09 12:51:28.982618$GNEBP,,,,,,M*13
###2023-12-09 12:51:29.151890$GNGGA,175128.30,4138.0576543,N,07032.3815474,W,1,24,0.6,13.390,M,-29.744,M,0.0,*5A
###2023-12-09 12:51:29.359315$GNGGA,175128.50,4138.0576609,N,07032.3815294,W,1,24,0.6,13.403,M,-29.744,M,0.0,*54
###2023-12-09 12:51:29.551801$GNGGA,175128.70,4138.0576600,N,07032.3814967,W,1,24,0.6,13.394,M,-29.744,M,0.0,*50
###2023-12-09 12:51:29.751815$GNGGA,175128.90,4138.0576826,N,07032.3815040,W,1,24,0.6,13.379,M,-29.744,M,0.0,*5A
###2023-12-09 12:51:29.952489$GNRMC,175129.10,A,4138.0577313,N,07032.3815570,W,1.19,319.32,091223,,,A*53
###2023-12-09 12:51:29.955398$GNGGA,175129.10,4138.0577313,N,07032.3815570,W,1,24,0.6,13.376,M,-29.744,M,0.0,*56
###2023-12-09 12:51:29.957251$GPGSA,A,3,03,04,16,26,28,29,31,32,,,,,1.1,0.6,0.9*3B
###2023-12-09 12:51:29.958975$GLGSA,A,3,65,71,72,73,74,75,,,,,,,1.1,0.6,0.9*24
###2023-12-09 12:51:29.960561$GAGSA,A,3,04,19,21,27,,,,,,,,,1.1,0.6,0.9*26
###2023-12-09 12:51:29.962208$GBGSA,A,3,14,24,25,26,33,,,,,,,,1.1,0.6,0.9*2F
###2023-12-09 12:51:29.964542$GPGSV,2,1,08,03,37,267,41,04,29,311,42,16,45,210,45,26,74,208,47*73
###2023-12-09 12:51:29.966886$GPGSV,2,2,08,28,53,065,43,29,26,066,41,31,71,024,45,32,23,138,41*7F
###2023-12-09 12:51:29.969207$GLGSV,2,1,06,65,19,329,45,71,47,171,48,72,72,288,47,73,40,038,42*60
###2023-12-09 12:51:29.971025$GLGSV,2,2,06,74,71,321,42,75,28,248,45,,,,,,,,*67
###2023-12-09 12:51:29.973352$GAGSV,1,1,04,04,26,312,41,19,85,258,40,21,83,157,45,27,36,048,42*67
###2023-12-09 12:51:29.975679$GBGSV,2,1,05,14,48,194,45,24,77,014,48,25,37,258,44,26,29,060,43*64
###2023-12-09 12:51:29.977126$GBGSV,2,2,05,33,60,240,47,,,,,,,,,,,,*5D
###2023-12-09 12:51:29.978440$GNVTG,319.32,T,,M,1.19,N,2.20,K,A*20
###2023-12-09 12:51:29.980090$GNGST,175129.10,18.000,,,,0.077,0.067,0.160*50
###2023-12-09 12:51:29.981377$GNZDA,175129.10,09,12,2023,00,00*79
###2023-12-09 12:51:29.982010$GNEBP,,,,,,M*13
###2023-12-09 12:51:30.150933$GNGGA,175129.30,4138.0577638,N,07032.3815876,W,1,24,0.6,13.367,M,-29.744,M,0.0,*53
###2023-12-09 12:51:30.351844$GNGGA,175129.50,4138.0577628,N,07032.3815636,W,1,24,0.6,13.392,M,-29.744,M,0.0,*54
###2023-12-09 12:51:30.551780$GNGGA,175129.70,4138.0577657,N,07032.3815414,W,1,24,0.6,13.377,M,-29.744,M,0.0,*57
###2023-12-09 12:51:30.755057$GNGGA,175129.90,4138.0577965,N,07032.3815633,W,1,24,0.6,13.370,M,-29.744,M,0.0,*57
###2023-12-09 12:51:30.953080$GNRMC,175130.10,A,4138.0578439,N,07032.3816081,W,0.89,323.83,091223,,,A*58
###2023-12-09 12:51:30.955947$GNGGA,175130.10,4138.0578439,N,07032.3816081,W,1,24,0.6,13.354,M,-29.744,M,0.0,*56
###2023-12-09 12:51:30.957813$GPGSA,A,3,03,04,16,26,28,29,31,32,,,,,1.1,0.6,0.9*3B
###2023-12-09 12:51:30.959544$GLGSA,A,3,65,71,72,73,74,75,,,,,,,1.1,0.6,0.9*24
###2023-12-09 12:51:30.961120$GAGSA,A,3,04,19,21,27,,,,,,,,,1.1,0.6,0.9*26
###2023-12-09 12:51:30.962849$GBGSA,A,3,14,24,25,26,33,,,,,,,,1.1,0.6,0.9*2F
###2023-12-09 12:51:30.965184$GPGSV,2,1,08,03,37,267,43,04,29,311,44,16,45,210,46,26,74,208,48*7B
###2023-12-09 12:51:30.967535$GPGSV,2,2,08,28,53,065,43,29,26,066,40,31,71,024,46,32,23,138,43*7F
###2023-12-09 12:51:30.969861$GLGSV,2,1,06,65,19,329,45,71,47,171,47,72,72,288,47,73,40,038,42*6F
###2023-12-09 12:51:30.971624$GLGSV,2,2,06,74,71,321,43,75,28,248,46,,,,,,,,*65
###2023-12-09 12:51:30.973952$GAGSV,1,1,04,04,26,312,42,19,85,258,40,21,83,157,47,27,36,048,42*66
###2023-12-09 12:51:30.976312$GBGSV,2,1,05,14,48,194,45,24,77,014,48,25,37,258,45,26,29,060,43*65
###2023-12-09 12:51:30.977776$GBGSV,2,2,05,33,60,240,48,,,,,,,,,,,,*52
###2023-12-09 12:51:30.979119$GNVTG,323.83,T,,M,0.89,N,1.66,K,A*2A
###2023-12-09 12:51:30.980766$GNGST,175130.10,18.000,,,,0.077,0.068,0.160*57
###2023-12-09 12:51:30.982056$GNZDA,175130.10,09,12,2023,00,00*71
###2023-12-09 12:51:30.982706$GNEBP,,,,,,M*13
###2023-12-09 12:51:31.150920$GNGGA,175130.30,4138.0578637,N,07032.3816212,W,1,24,0.6,13.351,M,-29.744,M,0.0,*55
###2023-12-09 12:51:31.351700$GNGGA,175130.50,4138.0578607,N,07032.3815979,W,1,24,0.6,13.387,M,-29.744,M,0.0,*5E
###2023-12-09 12:51:31.552765$GNGGA,175130.70,4138.0578709,N,07032.3815944,W,1,24,0.6,13.383,M,-29.744,M,0.0,*59
###2023-12-09 12:51:31.751809$GNGGA,175130.90,4138.0579086,N,07032.3816257,W,1,24,0.6,13.371,M,-29.744,M,0.0,*51
###2023-12-09 12:51:31.953382$GNRMC,175131.10,A,4138.0579484,N,07032.3816567,W,0.51,323.83,091223,,,A*56
###2023-12-09 12:51:31.956261$GNGGA,175131.10,4138.0579484,N,07032.3816567,W,1,24,0.6,13.345,M,-29.744,M,0.0,*5D
###2023-12-09 12:51:31.958116$GPGSA,A,3,03,04,16,26,28,29,31,32,,,,,1.1,0.6,0.9*3B
###2023-12-09 12:51:31.959852$GLGSA,A,3,65,71,72,73,74,75,,,,,,,1.1,0.6,0.9*24
###2023-12-09 12:51:31.961439$GAGSA,A,3,04,19,21,27,,,,,,,,,1.1,0.6,0.9*26
###2023-12-09 12:51:31.963101$GBGSA,A,3,14,24,25,26,33,,,,,,,,1.1,0.6,0.9*2F
###2023-12-09 12:51:31.965442$GPGSV,2,1,08,03,37,267,42,04,29,311,43,16,45,210,45,26,74,208,48*7E
###2023-12-09 12:51:31.967799$GPGSV,2,2,08,28,53,065,43,29,26,066,40,31,71,024,46,32,23,138,43*7F
###2023-12-09 12:51:31.970133$GLGSV,2,1,06,65,19,329,44,71,47,171,48,72,72,288,45,73,40,038,43*62
###2023-12-09 12:51:31.971902$GLGSV,2,2,06,74,71,321,42,75,28,248,46,,,,,,,,*64
###2023-12-09 12:51:31.974239$GAGSV,1,1,04,04,26,312,43,19,85,258,40,21,83,157,46,27,36,048,42*66
###2023-12-09 12:51:31.976582$GBGSV,2,1,05,14,48,194,45,24,77,014,49,25,37,258,46,26,29,060,44*60
###2023-12-09 12:51:31.978037$GBGSV,2,2,05,33,60,240,48,,,,,,,,,,,,*52
###2023-12-09 12:51:31.979372$GNVTG,323.83,T,,M,0.51,N,0.94,K,A*23
###2023-12-09 12:51:31.981027$GNGST,175131.10,18.000,,,,0.077,0.068,0.160*56
###2023-12-09 12:51:31.982316$GNZDA,175131.10,09,12,2023,00,00*70
###2023-12-09 12:51:31.982970$GNEBP,,,,,,M*13
###2023-12-09 12:51:32.150861$GNGGA,175131.30,4138.0579604,N,07032.3816594,W,1,24,0.6,13.344,M,-29.744,M,0.0,*58
###2023-12-09 12:51:32.351607$GNGGA,175131.50,4138.0579613,N,07032.3816431,W,1,24,0.6,13.358,M,-29.744,M,0.0,*5B
###2023-12-09 12:51:32.551613$GNGGA,175131.70,4138.0579740,N,07032.3816455,W,1,24,0.6,13.355,M,-29.744,M,0.0,*51
###2023-12-09 12:51:32.751684$GNGGA,175131.90,4138.0580060,N,07032.3816740,W,1,24,0.6,13.357,M,-29.744,M,0.0,*59
###2023-12-09 12:51:32.957352$GNRMC,175132.10,A,4138.0580452,N,07032.3817057,W,0.70,323.83,091223,,,A*5C
###2023-12-09 12:51:32.960243$GNGGA,175132.10,4138.0580452,N,07032.3817057,W,1,24,0.6,13.356,M,-29.744,M,0.0,*56
###2023-12-09 12:51:32.962142$GPGSA,A,3,03,04,16,26,28,29,31,32,,,,,1.1,0.6,0.9*3B
###2023-12-09 12:51:32.963895$GLGSA,A,3,65,71,72,73,74,75,,,,,,,1.1,0.6,0.9*24
###2023-12-09 12:51:32.965486$GAGSA,A,3,04,19,21,27,,,,,,,,,1.1,0.6,0.9*26
###2023-12-09 12:51:32.967148$GBGSA,A,3,14,24,25,26,33,,,,,,,,1.1,0.6,0.9*2F
###2023-12-09 12:51:32.969484$GPGSV,2,1,08,03,37,267,42,04,29,311,43,16,45,210,44,26,74,208,48*7F
###2023-12-09 12:51:32.971824$GPGSV,2,2,08,28,53,065,43,29,26,066,38,31,71,024,46,32,23,138,42*71
###2023-12-09 12:51:32.974161$GLGSV,2,1,06,65,19,329,45,71,47,171,46,72,72,288,46,73,40,038,43*6E
###2023-12-09 12:51:32.975914$GLGSV,2,2,06,74,71,321,43,75,28,248,47,,,,,,,,*64
###2023-12-09 12:51:32.978246$GAGSV,1,1,04,04,26,312,43,19,85,258,40,21,83,157,46,27,36,048,42*66
###2023-12-09 12:51:32.980589$GBGSV,2,1,05,14,48,194,44,24,77,014,48,25,37,258,45,26,29,060,42*65
###2023-12-09 12:51:32.982049$GBGSV,2,2,05,33,60,240,46,,,,,,,,,,,,*5C
###2023-12-09 12:51:32.983381$GNVTG,323.83,T,,M,0.70,N,1.30,K,A*2F
###2023-12-09 12:51:32.985026$GNGST,175132.10,18.000,,,,0.077,0.068,0.160*55
###2023-12-09 12:51:32.986317$GNZDA,175132.10,09,12,2023,00,00*73
###2023-12-09 12:51:32.986968$GNEBP,,,,,,M*13
###2023-12-09 12:51:33.151763$GNGGA,175132.30,4138.0580615,N,07032.3817080,W,1,24,0.6,13.361,M,-29.744,M,0.0,*5B
###2023-12-09 12:51:33.352605$GNGGA,175132.50,4138.0580511,N,07032.3816925,W,1,24,0.6,13.356,M,-29.744,M,0.0,*59
###2023-12-09 12:51:33.551712$GNGGA,175132.70,4138.0580580,N,07032.3816992,W,1,24,0.6,13.341,M,-29.744,M,0.0,*59
###2023-12-09 12:51:33.752738$GNGGA,175132.90,4138.0581046,N,07032.3817379,W,1,24,0.6,13.356,M,-29.744,M,0.0,*51
###2023-12-09 12:51:33.953011$GNRMC,175133.10,A,4138.0581385,N,07032.3817659,W,0.23,329.36,091223,,,A*5B
###2023-12-09 12:51:33.955963$GNGGA,175133.10,4138.0581385,N,07032.3817659,W,1,24,0.6,13.356,M,-29.744,M,0.0,*53
###2023-12-09 12:51:33.957837$GPGSA,A,3,03,04,16,26,28,29,31,32,,,,,1.1,0.6,0.9*3B
###2023-12-09 12:51:33.959586$GLGSA,A,3,65,71,72,73,74,75,,,,,,,1.1,0.6,0.9*24
###2023-12-09 12:51:33.961187$GAGSA,A,3,04,19,21,27,,,,,,,,,1.1,0.6,0.9*26
###2023-12-09 12:51:33.962863$GBGSA,A,3,14,24,25,26,33,,,,,,,,1.1,0.6,0.9*2F
###2023-12-09 12:51:33.965208$GPGSV,2,1,08,03,37,267,44,04,29,311,43,16,45,210,43,26,74,208,47*71
