###2023-12-09 13:14:49.005946$GBGSV,2,2,06,33,53,225,48,35,16,064,44,,,,,,,,*61
###2023-12-09 13:14:49.007317$GNVTG,139.39,T,,M,3.54,N,6.55,K,A*26
###2023-12-09 13:14:49.008969$GNGST,181448.10,18.000,,,,0.097,0.069,0.160*59
###2023-12-09 13:14:49.010265$GNZDA,181448.10,09,12,2023,00,00*70
###2023-12-09 13:14:49.010922$GNEBP,,,,,,M*13
###2023-12-09 13:14:49.176193$GNGGA,181448.30,4138.0308520,N,07032.2995172,W,1,24,0.7,12.932,M,-29.744,M,0.0,*51
###2023-12-09 13:14:49.377553$GNGGA,181448.50,4138.0307043,N,07032.2993490,W,1,24,0.7,12.938,M,-29.744,M,0.0,*5D
###2023-12-09 13:14:49.577276$GNGGA,181448.70,4138.0305565,N,07032.2991651,W,1,24,0.7,12.944,M,-29.744,M,0.0,*5A
###2023-12-09 13:14:49.777325$GNGGA,181448.90,4138.0304235,N,07032.2989763,W,1,24,0.7,12.940,M,-29.744,M,0.0,*5A
###2023-12-09 13:14:49.979459$GNRMC,181449.10,A,4138.0302895,N,07032.2987884,W,3.56,134.44,091223,,,A*52
###2023-12-09 13:14:49.982319$GNGGA,181449.10,4138.0302895,N,07032.2987884,W,1,24,0.7,12.948,M,-29.744,M,0.0,*55
###2023-12-09 13:14:49.984121$GPGSA,A,3,03,04,16,26,28,29,31,,,,,,1.2,0.7,1.0*30
###2023-12-09 13:14:49.985834$GLGSA,A,3,65,71,72,73,74,75,,,,,,,1.2,0.7,1.0*2E
###2023-12-09 13:14:49.987425$GAGSA,A,3,04,19,21,27,,,,,,,,,1.2,0.7,1.0*2C
###2023-12-09 13:14:49.989135$GBGSA,A,3,14,24,25,26,33,35,,,,,,,1.2,0.7,1.0*23
###2023-12-09 13:14:49.991473$GPGSV,2,1,07,03,32,255,44,04,38,311,45,16,56,215,47,26,86,209,48*7C
###2023-12-09 13:14:49.993512$GPGSV,2,2,07,28,45,076,45,29,24,055,45,31,65,050,47,,,,*4E
###2023-12-09 13:14:49.995852$GLGSV,2,1,06,65,30,325,44,71,33,174,43,72,71,243,47,73,30,046,46*65
###2023-12-09 13:14:49.997598$GLGSV,2,2,06,74,66,355,43,75,37,260,47,,,,,,,,*65
###2023-12-09 13:14:49.999938$GAGSV,1,1,04,04,33,312,44,19,80,192,40,21,84,066,46,27,29,048,44*69
###2023-12-09 13:14:50.002274$GBGSV,2,1,06,14,37,191,42,24,69,035,48,25,45,267,46,26,22,066,44*60
###2023-12-09 13:14:50.004033$GBGSV,2,2,06,33,53,225,48,35,16,064,44,,,,,,,,*61
###2023-12-09 13:14:50.005359$GNVTG,134.44,T,,M,3.56,N,6.59,K,A*2F
###2023-12-09 13:14:50.007018$GNGST,181449.10,18.000,,,,0.097,0.069,0.160*58
###2023-12-09 13:14:50.008313$GNZDA,181449.10,09,12,2023,00,00*71
###2023-12-09 13:14:50.008953$GNEBP,,,,,,M*13
###2023-12-09 13:14:50.176289$GNGGA,181449.30,4138.0301434,N,07032.2986035,W,1,24,0.7,12.941,M,-29.744,M,0.0,*59
###2023-12-09 13:14:50.378042$GNGGA,181449.50,4138.0299958,N,07032.2984380,W,1,24,0.7,12.931,M,-29.744,M,0.0,*50
###2023-12-09 13:14:50.579407$GNGGA,181449.70,4138.0298515,N,07032.2982625,W,1,24,0.7,12.949,M,-29.744,M,0.0,*55
###2023-12-09 13:14:50.776268$GNGGA,181449.90,4138.0296991,N,07032.2980940,W,1,24,0.7,12.933,M,-29.744,M,0.0,*56
###2023-12-09 13:14:50.985683$GNRMC,181450.10,A,4138.0295415,N,07032.2979512,W,3.50,147.77,091223,,,A*50
###2023-12-09 13:14:50.988580$GNGGA,181450.10,4138.0295415,N,07032.2979512,W,1,24,0.7,12.934,M,-29.744,M,0.0,*5E
###2023-12-09 13:14:50.990371$GPGSA,A,3,03,04,16,26,28,29,31,,,,,,1.2,0.7,1.0*30
###2023-12-09 13:14:50.992104$GLGSA,A,3,65,71,72,73,74,75,,,,,,,1.2,0.7,1.0*2E
###2023-12-09 13:14:50.993689$GAGSA,A,3,04,19,21,27,,,,,,,,,1.2,0.7,1.0*2C
###2023-12-09 13:14:50.995415$GBGSA,A,3,14,24,25,26,33,35,,,,,,,1.2,0.7,1.0*23
###2023-12-09 13:14:50.997741$GPGSV,2,1,07,03,32,255,44,04,38,311,46,16,56,215,46,26,86,209,49*7F
###2023-12-09 13:14:50.999800$GPGSV,2,2,07,28,45,076,44,29,24,055,44,31,65,050,47,,,,*4E
###2023-12-09 13:14:51.002132$GLGSV,2,1,06,65,30,325,44,71,33,174,42,72,71,243,47,73,30,046,45*67
###2023-12-09 13:14:51.003896$GLGSV,2,2,06,74,66,355,43,75,37,260,47,,,,,,,,*65
###2023-12-09 13:14:51.006221$GAGSV,1,1,04,04,33,312,44,19,80,192,40,21,84,066,47,27,29,048,43*6F
###2023-12-09 13:14:51.008567$GBGSV,2,1,06,14,37,191,42,24,69,035,49,25,45,267,47,26,22,066,45*61
###2023-12-09 13:14:51.010315$GBGSV,2,2,06,33,53,225,48,35,16,064,45,,,,,,,,*60
###2023-12-09 13:14:51.011649$GNVTG,147.77,T,,M,3.50,N,6.48,K,A*2D
###2023-12-09 13:14:51.013289$GNGST,181450.10,18.000,,,,0.097,0.069,0.160*50
###2023-12-09 13:14:51.014584$GNZDA,181450.10,09,12,2023,00,00*79
###2023-12-09 13:14:51.015221$GNEBP,,,,,,M*13
###2023-12-09 13:14:51.179398$GNGGA,181450.30,4138.0293792,N,07032.2978097,W,1,24,0.7,12.953,M,-29.744,M,0.0,*5E
###2023-12-09 13:14:51.376406$GNGGA,181450.50,4138.0292178,N,07032.2976633,W,1,24,0.7,12.931,M,-29.744,M,0.0,*59
###2023-12-09 13:14:51.579476$GNGGA,181450.70,4138.0290603,N,07032.2975260,W,1,24,0.7,12.929,M,-29.744,M,0.0,*5A
###2023-12-09 13:14:51.778285$GNGGA,181450.90,4138.0289023,N,07032.2973830,W,1,24,0.7,12.944,M,-29.744,M,0.0,*5A
###2023-12-09 13:14:51.982778$GNRMC,181451.10,A,4138.0287383,N,07032.2972450,W,3.40,144.32,091223,,,A*55
###2023-12-09 13:14:51.985649$GNGGA,181451.10,4138.0287383,N,07032.2972450,W,1,24,0.7,12.932,M,-29.744,M,0.0,*5E
###2023-12-09 13:14:51.987461$GPGSA,A,3,03,04,16,26,28,29,31,,,,,,1.2,0.7,1.0*30
###2023-12-09 13:14:51.989175$GLGSA,A,3,65,71,72,73,74,75,,,,,,,1.2,0.7,1.0*2E
###2023-12-09 13:14:51.990769$GAGSA,A,3,04,19,21,27,,,,,,,,,1.2,0.7,1.0*2C
###2023-12-09 13:14:51.992485$GBGSA,A,3,14,24,25,26,33,35,,,,,,,1.2,0.7,1.0*23
###2023-12-09 13:14:51.994823$GPGSV,2,1,07,03,32,255,42,04,38,311,43,16,56,215,44,26,86,209,46*71
###2023-12-09 13:14:51.996863$GPGSV,2,2,07,28,45,076,43,29,24,055,43,31,65,050,45,,,,*4C
###2023-12-09 13:14:51.999205$GLGSV,2,1,06,65,30,325,44,71,33,174,43,72,71,243,47,73,30,046,45*66
###2023-12-09 13:14:52.000957$GLGSV,2,2,06,74,66,355,43,75,37,260,47,,,,,,,,*65
###2023-12-09 13:14:52.003296$GAGSV,1,1,04,04,33,312,43,19,80,192,39,21,84,066,45,27,29,048,42*65
###2023-12-09 13:14:52.005634$GBGSV,2,1,06,14,37,191,42,24,69,035,50,25,45,267,47,26,22,066,45*69
###2023-12-09 13:14:52.007392$GBGSV,2,2,06,33,53,225,49,35,16,064,45,,,,,,,,*61
###2023-12-09 13:14:52.008713$GNVTG,144.32,T,,M,3.40,N,6.30,K,A*21
###2023-12-09 13:14:52.010355$GNGST,181451.10,18.000,,,,0.097,0.069,0.160*51
###2023-12-09 13:14:52.011654$GNZDA,181451.10,09,12,2023,00,00*78
###2023-12-09 13:14:52.012294$GNEBP,,,,,,M*13
###2023-12-09 13:14:52.176830$GNGGA,181451.30,4138.0285915,N,07032.2970932,W,1,24,0.7,12.925,M,-29.744,M,0.0,*56
###2023-12-09 13:14:52.376641$GNGGA,181451.50,4138.0284389,N,07032.2969377,W,1,24,0.7,12.943,M,-29.744,M,0.0,*5D
###2023-12-09 13:14:52.577401$GNGGA,181451.70,4138.0282821,N,07032.2967806,W,1,24,0.7,12.930,M,-29.744,M,0.0,*57
###2023-12-09 13:14:52.778109$GNGGA,181451.90,4138.0281351,N,07032.2966204,W,1,24,0.7,12.930,M,-29.744,M,0.0,*5F
###2023-12-09 13:14:52.980587$GNRMC,181452.10,A,4138.0279876,N,07032.2964474,W,3.52,141.14,091223,,,A*55
###2023-12-09 13:14:52.983461$GNGGA,181452.10,4138.0279876,N,07032.2964474,W,1,24,0.7,12.940,M,-29.744,M,0.0,*59
###2023-12-09 13:14:52.985256$GPGSA,A,3,03,04,16,26,28,29,31,,,,,,1.2,0.7,1.0*30
###2023-12-09 13:14:52.986982$GLGSA,A,3,65,71,72,73,74,75,,,,,,,1.2,0.7,1.0*2E
###2023-12-09 13:14:52.988562$GAGSA,A,3,04,19,21,27,,,,,,,,,1.2,0.7,1.0*2C
###2023-12-09 13:14:52.990271$GBGSA,A,3,14,24,25,26,33,35,,,,,,,1.2,0.7,1.0*23
###2023-12-09 13:14:52.992601$GPGSV,2,1,07,03,32,255,42,04,38,311,44,16,56,215,45,26,86,209,46*77
###2023-12-09 13:14:52.994642$GPGSV,2,2,07,28,45,076,44,29,24,055,44,31,65,050,46,,,,*4F
###2023-12-09 13:14:52.996963$GLGSV,2,1,06,65,30,325,44,71,33,174,44,72,71,243,47,73,30,046,45*61
###2023-12-09 13:14:52.998710$GLGSV,2,2,06,74,66,355,43,75,37,260,47,,,,,,,,*65
###2023-12-09 13:14:53.001024$GAGSV,1,1,04,04,33,312,44,19,80,192,40,21,84,066,46,27,29,048,42*6F
###2023-12-09 13:14:53.003366$GBGSV,2,1,06,14,37,191,42,24,69,035,48,25,45,267,46,26,22,066,44*60
###2023-12-09 13:14:53.005121$GBGSV,2,2,06,33,53,225,48,35,16,064,43,,,,,,,,*66
###2023-12-09 13:14:53.006449$GNVTG,141.14,T,,M,3.52,N,6.52,K,A*27
###2023-12-09 13:14:53.008118$GNGST,181452.10,18.000,,,,0.097,0.069,0.160*52
###2023-12-09 13:14:53.009409$GNZDA,181452.10,09,12,2023,00,00*7B
###2023-12-09 13:14:53.010048$GNEBP,,,,,,M*13
###2023-12-09 13:14:53.176182$GNGGA,181452.30,4138.0278424,N,07032.2962796,W,1,24,0.7,12.926,M,-29.744,M,0.0,*58
###2023-12-09 13:14:53.376509$GNGGA,181452.50,4138.0277002,N,07032.2961049,W,1,24,0.7,12.934,M,-29.744,M,0.0,*54
###2023-12-09 13:14:53.577268$GNGGA,181452.70,4138.0275547,N,07032.2959400,W,1,24,0.7,12.933,M,-29.744,M,0.0,*55
###2023-12-09 13:14:53.777230$GNGGA,181452.90,4138.0274117,N,07032.2957660,W,1,24,0.7,12.934,M,-29.744,M,0.0,*56
###2023-12-09 13:14:53.980933$GNRMC,181453.10,A,4138.0272650,N,07032.2955978,W,3.38,139.66,091223,,,A*50
###2023-12-09 13:14:53.983828$GNGGA,181453.10,4138.0272650,N,07032.2955978,W,1,24,0.7,12.928,M,-29.744,M,0.0,*54
###2023-12-09 13:14:53.985630$GPGSA,A,3,03,04,16,26,28,29,31,,,,,,1.2,0.7,1.0*30
###2023-12-09 13:14:53.987364$GLGSA,A,3,65,71,72,73,74,75,,,,,,,1.2,0.7,1.0*2E
###2023-12-09 13:14:53.988957$GAGSA,A,3,04,19,21,27,,,,,,,,,1.2,0.7,1.0*2C
###2023-12-09 13:14:53.990688$GBGSA,A,3,14,24,25,26,33,35,,,,,,,1.2,0.7,1.0*23
###2023-12-09 13:14:53.993032$GPGSV,2,1,07,03,32,255,43,04,38,311,44,16,56,215,45,26,86,209,47*77
