###2023-12-09 13:35:03.395425$GNGGA,183502.50,4138.0394872,N,07032.4139830,W,1,26,0.6,13.345,M,-29.745,M,0.0,*5B
###2023-12-09 13:35:03.595719$GNGGA,183502.70,4138.0394361,N,07032.4138410,W,1,26,0.6,13.343,M,-29.745,M,0.0,*59
###2023-12-09 13:35:03.795606$GNGGA,183502.90,4138.0393907,N,07032.4136976,W,1,26,0.6,13.345,M,-29.745,M,0.0,*5F
###2023-12-09 13:35:03.997165$GNRMC,183503.10,A,4138.0393462,N,07032.4135479,W,2.22,112.31,091223,,,A*5E
###2023-12-09 13:35:04.000047$GNGGA,183503.10,4138.0393462,N,07032.4135479,W,1,25,0.6,13.349,M,-29.745,M,0.0,*56
###2023-12-09 13:35:04.001830$GPGSA,A,3,03,04,16,26,28,29,31,,,,,,1.1,0.6,0.9*3A
###2023-12-09 13:35:04.003617$GLGSA,A,3,65,71,72,73,74,75,83,,,,,,1.1,0.6,0.9*2F
###2023-12-09 13:35:04.005196$GAGSA,A,3,04,19,21,27,,,,,,,,,1.1,0.6,0.9*26
###2023-12-09 13:35:04.006975$GBGSA,A,3,12,14,24,25,26,33,35,,,,,,1.1,0.6,0.9*2A
###2023-12-09 13:35:04.009286$GPGSV,2,1,07,03,26,246,41,04,46,308,44,16,66,222,46,26,84,040,48*75
###2023-12-09 13:35:04.011326$GPGSV,2,2,07,28,38,084,43,29,21,047,43,31,59,066,46,,,,*44
###2023-12-09 13:35:04.013654$GLGSV,2,1,07,65,39,318,44,71,22,175,36,72,62,220,46,73,22,052,43*65
###2023-12-09 13:35:04.015693$GLGSV,2,2,07,74,59,015,42,75,44,272,47,83,15,047,35,,,,*53
###2023-12-09 13:35:04.017999$GAGSV,1,1,04,04,40,310,44,19,72,181,41,21,77,046,46,27,22,050,42*6B
###2023-12-09 13:35:04.020330$GBGSV,2,1,07,12,15,126,39,14,29,190,39,24,62,046,47,25,51,276,47*6B
###2023-12-09 13:35:04.022354$GBGSV,2,2,07,26,16,071,42,33,45,217,48,35,16,056,44,,,,*54
###2023-12-09 13:35:04.023685$GNVTG,112.31,T,,M,2.22,N,4.10,K,A*24
###2023-12-09 13:35:04.025290$GNGST,183503.10,6.500,,,,0.100,0.069,0.160*60
###2023-12-09 13:35:04.026589$GNZDA,183503.10,09,12,2023,00,00*7C
###2023-12-09 13:35:04.027229$GNEBP,,,,,,M*13
###2023-12-09 13:35:04.194130$GNGGA,183503.30,4138.0392966,N,07032.4133953,W,1,25,0.6,13.346,M,-29.745,M,0.0,*50
###2023-12-09 13:35:04.392458$GNGGA,183503.50,4138.0392460,N,07032.4132472,W,1,25,0.6,13.347,M,-29.745,M,0.0,*53
###2023-12-09 13:35:04.592426$GNGGA,183503.70,4138.0391917,N,07032.4130957,W,1,25,0.6,13.351,M,-29.745,M,0.0,*50
###2023-12-09 13:35:04.793108$GNGGA,183503.90,4138.0391373,N,07032.4129383,W,1,25,0.6,13.338,M,-29.745,M,0.0,*52
###2023-12-09 13:35:04.997510$GNRMC,183504.10,A,4138.0390849,N,07032.4127856,W,2.22,117.89,091223,,,A*5B
###2023-12-09 13:35:05.001003$GNGGA,183504.10,4138.0390849,N,07032.4127856,W,1,25,0.6,13.338,M,-29.745,M,0.0,*53
###2023-12-09 13:35:05.003177$GPGSA,A,3,03,04,16,26,28,29,31,,,,,,1.1,0.6,0.9*3A
###2023-12-09 13:35:05.005316$GLGSA,A,3,65,71,72,73,74,75,83,,,,,,1.1,0.6,0.9*2F
###2023-12-09 13:35:05.007230$GAGSA,A,3,04,19,21,27,,,,,,,,,1.1,0.6,0.9*26
###2023-12-09 13:35:05.009361$GBGSA,A,3,12,14,24,25,26,33,35,,,,,,1.1,0.6,0.9*2A
###2023-12-09 13:35:05.012170$GPGSV,2,1,07,03,26,246,42,04,47,307,44,16,66,222,47,26,84,040,48*79
###2023-12-09 13:35:05.014631$GPGSV,2,2,07,28,38,084,44,29,21,047,44,31,59,066,46,,,,*44
###2023-12-09 13:35:05.017435$GLGSV,2,1,07,65,39,318,43,71,22,175,38,72,62,220,47,73,22,052,44*6A
###2023-12-09 13:35:05.019902$GLGSV,2,2,07,74,59,015,42,75,44,272,46,83,15,047,35,,,,*52
###2023-12-09 13:35:05.022761$GAGSV,1,1,04,04,40,310,44,19,72,181,41,21,77,046,46,27,22,050,42*6B
###2023-12-09 13:35:05.025563$GBGSV,2,1,07,12,15,126,39,14,29,190,38,24,62,046,48,25,51,276,47*65
###2023-12-09 13:35:05.028033$GBGSV,2,2,07,26,16,071,44,33,45,217,47,35,16,056,44,,,,*5D
###2023-12-09 13:35:05.029624$GNVTG,117.89,T,,M,2.22,N,4.10,K,A*22
###2023-12-09 13:35:05.031586$GNGST,183504.10,5.800,,,,0.100,0.069,0.160*69
###2023-12-09 13:35:05.033143$GNZDA,183504.10,09,12,2023,00,00*7B
###2023-12-09 13:35:05.033914$GNEBP,,,,,,M*13
###2023-12-09 13:35:05.194692$GNGGA,183504.30,4138.0390164,N,07032.4126361,W,1,25,0.6,13.341,M,-29.745,M,0.0,*57
###2023-12-09 13:35:05.394272$GNGGA,183504.50,4138.0389466,N,07032.4124826,W,1,25,0.6,13.334,M,-29.745,M,0.0,*56
###2023-12-09 13:35:05.593613$GNGGA,183504.70,4138.0388736,N,07032.4123367,W,1,25,0.6,13.327,M,-29.745,M,0.0,*58
###2023-12-09 13:35:05.793060$GNGGA,183504.90,4138.0387887,N,07032.4121915,W,1,25,0.6,13.333,M,-29.745,M,0.0,*54
###2023-12-09 13:35:05.994994$GNRMC,183505.10,A,4138.0387008,N,07032.4120479,W,2.53,130.26,091223,,,A*51
###2023-12-09 13:35:05.997852$GNGGA,183505.10,4138.0387008,N,07032.4120479,W,1,25,0.6,13.332,M,-29.745,M,0.0,*55
###2023-12-09 13:35:05.999653$GPGSA,A,3,03,04,16,26,28,29,31,,,,,,1.1,0.6,0.9*3A
###2023-12-09 13:35:06.001430$GLGSA,A,3,65,71,72,73,74,75,83,,,,,,1.1,0.6,0.9*2F
###2023-12-09 13:35:06.003021$GAGSA,A,3,04,19,21,27,,,,,,,,,1.1,0.6,0.9*26
###2023-12-09 13:35:06.004798$GBGSA,A,3,12,14,24,25,26,33,35,,,,,,1.1,0.6,0.9*2A
###2023-12-09 13:35:06.007127$GPGSV,2,1,07,03,26,246,40,04,47,307,44,16,66,222,47,26,84,040,48*7B
###2023-12-09 13:35:06.009159$GPGSV,2,2,07,28,38,084,44,29,21,047,45,31,59,066,46,,,,*45
###2023-12-09 13:35:06.011491$GLGSV,2,1,07,65,39,318,44,71,22,175,36,72,62,220,47,73,22,052,45*62
###2023-12-09 13:35:06.013532$GLGSV,2,2,07,74,59,015,42,75,44,272,46,83,15,047,36,,,,*51
###2023-12-09 13:35:06.015873$GAGSV,1,1,04,04,40,310,44,19,72,181,41,21,77,046,46,27,22,050,42*6B
###2023-12-09 13:35:06.018193$GBGSV,2,1,07,12,15,126,39,14,29,190,36,24,62,046,49,25,51,276,46*6B
###2023-12-09 13:35:06.020238$GBGSV,2,2,07,26,16,071,45,33,45,217,46,35,16,056,44,,,,*5D
###2023-12-09 13:35:06.021562$GNVTG,130.26,T,,M,2.53,N,4.68,K,A*2B
###2023-12-09 13:35:06.023187$GNGST,183505.10,9.200,,,,0.100,0.069,0.160*6E
###2023-12-09 13:35:06.024478$GNZDA,183505.10,09,12,2023,00,00*7A
###2023-12-09 13:35:06.025115$GNEBP,,,,,,M*13
###2023-12-09 13:35:06.194728$GNGGA,183505.30,4138.0386096,N,07032.4119093,W,1,25,0.6,13.336,M,-29.745,M,0.0,*5F
###2023-12-09 13:35:06.393568$GNGGA,183505.50,4138.0385084,N,07032.4117643,W,1,26,0.6,13.338,M,-29.745,M,0.0,*51
###2023-12-09 13:35:06.593358$GNGGA,183505.70,4138.0384126,N,07032.4116216,W,1,26,0.6,13.334,M,-29.745,M,0.0,*52
###2023-12-09 13:35:06.795586$GNGGA,183505.90,4138.0383074,N,07032.4114797,W,1,25,0.6,13.342,M,-29.745,M,0.0,*51
###2023-12-09 13:35:06.996782$GNRMC,183506.10,A,4138.0382046,N,07032.4113331,W,2.68,131.09,091223,,,A*52
###2023-12-09 13:35:06.999648$GNGGA,183506.10,4138.0382046,N,07032.4113331,W,1,25,0.6,13.331,M,-29.745,M,0.0,*51
###2023-12-09 13:35:07.001427$GPGSA,A,3,03,04,16,26,28,29,31,,,,,,1.1,0.6,0.9*3A
###2023-12-09 13:35:07.003206$GLGSA,A,3,65,71,72,73,74,75,83,,,,,,1.1,0.6,0.9*2F
###2023-12-09 13:35:07.004780$GAGSA,A,3,04,19,21,27,,,,,,,,,1.1,0.6,0.9*26
###2023-12-09 13:35:07.006599$GBGSA,A,3,12,14,24,25,26,33,35,,,,,,1.1,0.6,0.9*2A
###2023-12-09 13:35:07.008931$GPGSV,2,1,07,03,26,246,36,04,47,307,44,16,66,222,46,26,84,040,48*7B
###2023-12-09 13:35:07.010984$GPGSV,2,2,07,28,38,084,45,29,21,047,44,31,59,066,46,,,,*45
###2023-12-09 13:35:07.013311$GLGSV,2,1,07,65,39,318,43,71,22,175,40,72,62,220,46,73,22,052,45*65
###2023-12-09 13:35:07.015358$GLGSV,2,2,07,74,59,015,42,75,44,272,46,83,15,047,36,,,,*51
###2023-12-09 13:35:07.017689$GAGSV,1,1,04,04,40,310,44,19,72,181,40,21,77,046,46,27,22,050,43*6B
###2023-12-09 13:35:07.020024$GBGSV,2,1,07,12,15,126,39,14,29,190,38,24,62,046,49,25,51,276,47*64
###2023-12-09 13:35:07.022056$GBGSV,2,2,07,26,16,071,45,33,45,217,46,35,16,056,44,,,,*5D
###2023-12-09 13:35:07.023385$GNVTG,131.09,T,,M,2.68,N,4.97,K,A*2F
###2023-12-09 13:35:07.024992$GNGST,183506.10,7.500,,,,0.100,0.070,0.160*6C
###2023-12-09 13:35:07.026273$GNZDA,183506.10,09,12,2023,00,00*79
###2023-12-09 13:35:07.026920$GNEBP,,,,,,M*13
###2023-12-09 13:35:07.196346$GNGGA,183506.30,4138.0381040,N,07032.4111863,W,1,25,0.6,13.337,M,-29.745,M,0.0,*5E
###2023-12-09 13:35:07.394851$GNGGA,183506.50,4138.0379936,N,07032.4110358,W,1,26,0.6,13.348,M,-29.745,M,0.0,*5E
###2023-12-09 13:35:07.592477$GNGGA,183506.70,4138.0378912,N,07032.4108773,W,1,26,0.6,13.345,M,-29.745,M,0.0,*52
###2023-12-09 13:35:07.794088$GNGGA,183506.90,4138.0377966,N,07032.4107150,W,1,25,0.6,13.345,M,-29.745,M,0.0,*5B
###2023-12-09 13:35:07.998025$GNRMC,183507.10,A,4138.0376950,N,07032.4105454,W,2.97,128.41,091223,,,A*51
###2023-12-09 13:35:08.000929$GNGGA,183507.10,4138.0376950,N,07032.4105454,W,1,26,0.6,13.347,M,-29.745,M,0.0,*54
###2023-12-09 13:35:08.002994$GPGSA,A,3,03,04,16,26,28,29,31,,,,,,1.0,0.6,0.9*3B
###2023-12-09 13:35:08.004773$GLGSA,A,3,65,71,72,73,74,75,83,,,,,,1.0,0.6,0.9*2E
###2023-12-09 13:35:08.006345$GAGSA,A,3,04,19,21,27,,,,,,,,,1.0,0.6,0.9*27
###2023-12-09 13:35:08.008128$GBGSA,A,3,12,14,24,25,26,33,35,,,,,,1.0,0.6,0.9*2B
###2023-12-09 13:35:08.010443$GPGSV,2,1,07,03,26,246,35,04,47,307,45,16,66,222,45,26,84,040,48*7A
###2023-12-09 13:35:08.012481$GPGSV,2,2,07,28,38,084,43,29,21,047,44,31,59,066,46,,,,*43
###2023-12-09 13:35:08.014798$GLGSV,2,1,07,65,39,318,44,71,22,175,38,72,62,220,46,73,22,052,44*6C
###2023-12-09 13:35:08.016817$GLGSV,2,2,07,74,59,015,42,75,44,272,47,83,15,047,36,,,,*50
###2023-12-09 13:35:08.019145$GAGSV,1,1,04,04,40,310,43,19,72,181,41,21,77,046,46,27,22,050,42*6C
###2023-12-09 13:35:08.021466$GBGSV,2,1,07,12,15,126,37,14,29,190,39,24,62,046,48,25,51,276,46*6B
###2023-12-09 13:35:08.023498$GBGSV,2,2,07,26,16,071,44,33,45,217,48,35,16,056,45,,,,*53
