###2023-12-09 12:39:24.969582$GNEBP,,,,,,M*13
###2023-12-09 12:39:25.139967$GNGGA,173924.30,4138.0536481,N,07032.3762626,W,1,23,0.7,13.607,M,-29.744,M,0.0,*54
###2023-12-09 12:39:25.339922$GNGGA,173924.50,4138.0536504,N,07032.3762594,W,1,23,0.7,13.574,M,-29.744,M,0.0,*53
###2023-12-09 12:39:25.540341$GNGGA,173924.70,4138.0536655,N,07032.3763228,W,1,23,0.7,13.596,M,-29.744,M,0.0,*5B
###2023-12-09 12:39:25.739473$GNGGA,173924.90,4138.0536812,N,07032.3763883,W,1,23,0.7,13.593,M,-29.744,M,0.0,*56
###2023-12-09 12:39:25.941809$GNRMC,173925.10,A,4138.0536796,N,07032.3763915,W,0.43,288.50,091223,,,A*5F
###2023-12-09 12:39:25.944683$GNGGA,173925.10,4138.0536796,N,07032.3763915,W,1,23,0.7,13.616,M,-29.744,M,0.0,*5C
###2023-12-09 12:39:25.946557$GPGSA,A,3,03,04,16,26,28,29,31,32,,,,,1.2,0.7,1.0*31
###2023-12-09 12:39:25.948258$GLGSA,A,3,71,72,73,74,75,,,,,,,,1.2,0.7,1.0*2D
###2023-12-09 12:39:25.949842$GAGSA,A,3,04,19,21,27,,,,,,,,,1.2,0.7,1.0*2C
###2023-12-09 12:39:25.951515$GBGSA,A,3,14,24,25,26,33,,,,,,,,1.2,0.7,1.0*25
###2023-12-09 12:39:25.953843$GPGSV,2,1,08,03,38,275,47,04,23,311,45,16,38,208,42,26,68,207,47*72
###2023-12-09 12:39:25.956184$GPGSV,2,2,08,28,57,058,44,29,25,072,41,31,73,007,48,32,28,135,43*7E
###2023-12-09 12:39:25.958513$GLGSV,2,1,05,71,54,170,46,72,68,305,47,73,45,035,46,74,71,299,42*6E
###2023-12-09 12:39:25.959986$GLGSV,2,2,05,75,24,243,42,,,,,,,,,,,,*57
###2023-12-09 12:39:25.962319$GAGSV,1,1,04,04,22,311,44,19,82,296,40,21,79,174,45,27,40,049,43*65
###2023-12-09 12:39:25.964671$GBGSV,2,1,05,14,53,197,44,24,80,355,46,25,34,254,44,26,33,058,42*62
###2023-12-09 12:39:25.966131$GBGSV,2,2,05,33,62,250,46,,,,,,,,,,,,*5F
###2023-12-09 12:39:25.967467$GNVTG,288.50,T,,M,0.43,N,0.79,K,A*2D
###2023-12-09 12:39:25.969124$GNGST,173925.10,18.000,,,,0.083,0.072,0.170*5C
###2023-12-09 12:39:25.970421$GNZDA,173925.10,09,12,2023,00,00*7B
###2023-12-09 12:39:25.971161$GNEBP,,,,,,M*13
###2023-12-09 12:39:26.140811$GNGGA,173925.30,4138.0536708,N,07032.3763504,W,1,23,0.7,13.594,M,-29.744,M,0.0,*5C
###2023-12-09 12:39:26.340901$GNGGA,173925.50,4138.0536768,N,07032.3763644,W,1,23,0.7,13.571,M,-29.744,M,0.0,*50
###2023-12-09 12:39:26.540209$GNGGA,173925.70,4138.0536925,N,07032.3764382,W,1,23,0.7,13.596,M,-29.744,M,0.0,*54
###2023-12-09 12:39:26.739387$GNGGA,173925.90,4138.0537017,N,07032.3764822,W,1,23,0.7,13.600,M,-29.744,M,0.0,*5E
###2023-12-09 12:39:26.940902$GNRMC,173926.10,A,4138.0536966,N,07032.3764552,W,0.60,283.25,091223,,,A*5D
###2023-12-09 12:39:26.943813$GNGGA,173926.10,4138.0536966,N,07032.3764552,W,1,23,0.7,13.611,M,-29.744,M,0.0,*51
###2023-12-09 12:39:26.945674$GPGSA,A,3,03,04,16,26,28,29,31,32,,,,,1.2,0.7,1.0*31
###2023-12-09 12:39:26.947377$GLGSA,A,3,71,72,73,74,75,,,,,,,,1.2,0.7,1.0*2D
###2023-12-09 12:39:26.948990$GAGSA,A,3,04,19,21,27,,,,,,,,,1.2,0.7,1.0*2C
###2023-12-09 12:39:26.950663$GBGSA,A,3,14,24,25,26,33,,,,,,,,1.2,0.7,1.0*25
###2023-12-09 12:39:26.952998$GPGSV,2,1,08,03,38,275,46,04,23,311,44,16,38,208,42,26,68,207,47*72
###2023-12-09 12:39:26.955343$GPGSV,2,2,08,28,57,058,45,29,25,072,41,31,73,007,48,32,28,135,45*79
###2023-12-09 12:39:26.957670$GLGSV,2,1,05,71,54,170,46,72,68,305,47,73,45,035,46,74,71,299,43*6F
###2023-12-09 12:39:26.959146$GLGSV,2,2,05,75,24,243,40,,,,,,,,,,,,*55
###2023-12-09 12:39:26.961470$GAGSV,1,1,04,04,22,311,42,19,82,296,40,21,79,174,45,27,40,049,43*63
###2023-12-09 12:39:26.963810$GBGSV,2,1,05,14,53,197,44,24,80,355,48,25,34,254,45,26,33,058,44*6B
###2023-12-09 12:39:26.965263$GBGSV,2,2,05,33,62,250,48,,,,,,,,,,,,*51
###2023-12-09 12:39:26.966597$GNVTG,283.25,T,,M,0.60,N,1.12,K,A*29
###2023-12-09 12:39:26.968245$GNGST,173926.10,19.000,,,,0.082,0.071,0.170*5C
###2023-12-09 12:39:26.969535$GNZDA,173926.10,09,12,2023,00,00*78
###2023-12-09 12:39:26.970174$GNEBP,,,,,,M*13
###2023-12-09 12:39:27.140589$GNGGA,173926.30,4138.0536922,N,07032.3764354,W,1,23,0.7,13.595,M,-29.744,M,0.0,*5C
###2023-12-09 12:39:27.340898$GNGGA,173926.50,4138.0537038,N,07032.3764802,W,1,23,0.7,13.599,M,-29.744,M,0.0,*5D
###2023-12-09 12:39:27.541251$GNGGA,173926.70,4138.0537173,N,07032.3765353,W,1,23,0.7,13.587,M,-29.744,M,0.0,*50
###2023-12-09 12:39:27.739376$GNGGA,173926.90,4138.0537204,N,07032.3765456,W,1,23,0.7,13.583,M,-29.744,M,0.0,*5B
###2023-12-09 12:39:27.940830$GNRMC,173927.10,A,4138.0537174,N,07032.3765367,W,0.06,283.25,091223,,,A*57
###2023-12-09 12:39:27.943665$GNGGA,173927.10,4138.0537174,N,07032.3765367,W,1,23,0.7,13.603,M,-29.744,M,0.0,*58
###2023-12-09 12:39:27.945509$GPGSA,A,3,03,04,16,26,28,29,31,32,,,,,1.2,0.7,1.0*31
###2023-12-09 12:39:27.947173$GLGSA,A,3,71,72,73,74,75,,,,,,,,1.2,0.7,1.0*2D
###2023-12-09 12:39:27.948762$GAGSA,A,3,04,19,21,27,,,,,,,,,1.2,0.7,1.0*2C
###2023-12-09 12:39:27.950397$GBGSA,A,3,14,24,25,26,33,,,,,,,,1.2,0.7,1.0*25
###2023-12-09 12:39:27.952730$GPGSV,2,1,08,03,38,275,45,04,23,311,43,16,38,208,43,26,68,207,47*77
###2023-12-09 12:39:27.955075$GPGSV,2,2,08,28,57,058,45,29,25,072,42,31,73,007,48,32,28,135,44*7B
###2023-12-09 12:39:27.957397$GLGSV,2,1,05,71,54,170,47,72,68,305,47,73,45,035,47,74,71,299,43*6F
###2023-12-09 12:39:27.958866$GLGSV,2,2,05,75,24,243,40,,,,,,,,,,,,*55
###2023-12-09 12:39:27.961189$GAGSV,1,1,04,04,22,311,40,19,82,296,41,21,79,174,45,27,40,049,42*61
###2023-12-09 12:39:27.963514$GBGSV,2,1,05,14,53,197,45,24,80,355,48,25,34,254,44,26,33,058,43*6C
###2023-12-09 12:39:27.964962$GBGSV,2,2,05,33,62,250,48,,,,,,,,,,,,*51
###2023-12-09 12:39:27.966312$GNVTG,283.25,T,,M,0.06,N,0.11,K,A*2B
###2023-12-09 12:39:27.967971$GNGST,173927.10,19.000,,,,0.082,0.071,0.170*5D
###2023-12-09 12:39:27.969256$GNZDA,173927.10,09,12,2023,00,00*79
###2023-12-09 12:39:27.969891$GNEBP,,,,,,M*13
###2023-12-09 12:39:28.139570$GNGGA,173927.30,4138.0537251,N,07032.3765543,W,1,23,0.7,13.604,M,-29.744,M,0.0,*59
###2023-12-09 12:39:28.339861$GNGGA,173927.50,4138.0537345,N,07032.3765839,W,1,23,0.7,13.577,M,-29.744,M,0.0,*5C
###2023-12-09 12:39:28.540232$GNGGA,173927.70,4138.0537389,N,07032.3765999,W,1,23,0.7,13.556,M,-29.744,M,0.0,*56
###2023-12-09 12:39:28.739455$GNGGA,173927.90,4138.0537433,N,07032.3766211,W,1,23,0.7,13.575,M,-29.744,M,0.0,*57
###2023-12-09 12:39:28.940787$GNRMC,173928.10,A,4138.0537518,N,07032.3766520,W,0.51,283.25,091223,,,A*52
###2023-12-09 12:39:28.943671$GNGGA,173928.10,4138.0537518,N,07032.3766520,W,1,23,0.7,13.612,M,-29.744,M,0.0,*5F
###2023-12-09 12:39:28.945513$GPGSA,A,3,03,04,16,26,28,29,31,32,,,,,1.2,0.7,1.0*31
###2023-12-09 12:39:28.947176$GLGSA,A,3,71,72,73,74,75,,,,,,,,1.2,0.7,1.0*2D
###2023-12-09 12:39:28.948755$GAGSA,A,3,04,19,21,27,,,,,,,,,1.2,0.7,1.0*2C
###2023-12-09 12:39:28.950388$GBGSA,A,3,14,24,25,26,33,,,,,,,,1.2,0.7,1.0*25
###2023-12-09 12:39:28.952713$GPGSV,2,1,08,03,38,275,46,04,23,311,44,16,38,208,43,26,68,207,47*73
###2023-12-09 12:39:28.955058$GPGSV,2,2,08,28,57,058,45,29,25,072,42,31,73,007,48,32,28,135,45*7A
###2023-12-09 12:39:28.957384$GLGSV,2,1,05,71,54,170,47,72,68,305,47,73,45,035,46,74,71,299,43*6E
###2023-12-09 12:39:28.958856$GLGSV,2,2,05,75,24,243,40,,,,,,,,,,,,*55
###2023-12-09 12:39:28.961174$GAGSV,1,1,04,04,22,311,42,19,82,296,41,21,79,174,46,27,40,049,43*61
###2023-12-09 12:39:28.963513$GBGSV,2,1,05,14,53,197,45,24,80,355,49,25,34,254,46,26,33,058,43*6F
###2023-12-09 12:39:28.964966$GBGSV,2,2,05,33,62,250,48,,,,,,,,,,,,*51
###2023-12-09 12:39:28.966286$GNVTG,283.25,T,,M,0.51,N,0.94,K,A*24
###2023-12-09 12:39:28.967949$GNGST,173928.10,19.000,,,,0.082,0.071,0.170*52
###2023-12-09 12:39:28.969244$GNZDA,173928.10,09,12,2023,00,00*76
###2023-12-09 12:39:28.969889$GNEBP,,,,,,M*13
###2023-12-09 12:39:29.142000$GNGGA,173928.30,4138.0537605,N,07032.3766713,W,1,23,0.7,13.601,M,-29.744,M,0.0,*52
###2023-12-09 12:39:29.341050$GNGGA,173928.50,4138.0537630,N,07032.3766655,W,1,23,0.7,13.556,M,-29.744,M,0.0,*50
###2023-12-09 12:39:29.540063$GNGGA,173928.70,4138.0537634,N,07032.3766695,W,1,23,0.7,13.532,M,-29.744,M,0.0,*58
###2023-12-09 12:39:29.740380$GNGGA,173928.90,4138.0537753,N,07032.3767168,W,1,23,0.7,13.569,M,-29.744,M,0.0,*5C
###2023-12-09 12:39:29.939772$GNRMC,173929.10,A,4138.0537915,N,07032.3767687,W,0.45,283.25,091223,,,A*58
###2023-12-09 12:39:29.942644$GNGGA,173929.10,4138.0537915,N,07032.3767687,W,1,23,0.7,13.589,M,-29.744,M,0.0,*51
###2023-12-09 12:39:29.944755$GPGSA,A,3,03,04,16,26,28,29,31,32,,,,,1.2,0.7,1.0*31
###2023-12-09 12:39:29.946420$GLGSA,A,3,71,72,73,74,75,,,,,,,,1.2,0.7,1.0*2D
###2023-12-09 12:39:29.948051$GAGSA,A,3,04,19,21,27,,,,,,,,,1.2,0.7,1.0*2C
###2023-12-09 12:39:29.949709$GBGSA,A,3,14,24,25,26,33,,,,,,,,1.2,0.7,1.0*25
###2023-12-09 12:39:29.952051$GPGSV,2,1,08,03,38,275,47,04,23,311,45,16,38,208,44,26,68,207,47*74
###2023-12-09 12:39:29.954391$GPGSV,2,2,08,28,57,058,45,29,25,072,42,31,73,007,48,32,28,135,44*7B
###2023-12-09 12:39:29.956745$GLGSV,2,1,05,71,54,170,45,72,68,305,48,73,45,035,46,74,71,299,43*63
###2023-12-09 12:39:29.958202$GLGSV,2,2,05,75,24,243,42,,,,,,,,,,,,*57
###2023-12-09 12:39:29.960543$GAGSV,1,1,04,04,22,311,44,19,82,296,41,21,79,174,45,27,40,049,43*64
