###2023-12-09 13:45:25.016524$GPGSV,2,1,06,04,51,304,45,16,72,228,44,26,79,041,41,28,34,089,44*76
###2023-12-09 13:45:25.018292$GPGSV,2,2,06,29,18,043,44,31,56,072,49,,,,,,,,*73
###2023-12-09 13:45:25.020635$GLGSV,2,1,06,65,42,313,46,72,57,214,37,73,18,056,44,74,56,022,38*67
###2023-12-09 13:45:25.022373$GLGSV,2,2,06,75,47,279,46,83,16,042,38,,,,,,,,*6D
###2023-12-09 13:45:25.024402$GAGSV,1,1,03,04,43,308,44,21,73,044,36,27,19,051,42,,,,*5E
###2023-12-09 13:45:25.026729$GBGSV,1,1,04,12,19,123,42,24,59,051,47,25,54,281,40,35,16,052,37*64
###2023-12-09 13:45:25.028055$GNVTG,243.17,T,,M,0.02,N,0.04,K,A*26
###2023-12-09 13:45:25.029666$GNGST,184524.10,7.300,,,,0.190,0.120,0.310*65
###2023-12-09 13:45:25.030971$GNZDA,184524.10,09,12,2023,00,00*7E
###2023-12-09 13:45:25.031608$GNEBP,,,,,,M*13
###2023-12-09 13:45:25.203798$GNGGA,184524.30,4138.0393146,N,07032.4388632,W,1,19,0.8,14.303,M,-29.746,M,0.0,*57
###2023-12-09 13:45:25.407326$GNGGA,184524.50,4138.0393151,N,07032.4388639,W,1,19,0.8,14.304,M,-29.746,M,0.0,*5B
###2023-12-09 13:45:25.602616$GNGGA,184524.70,4138.0393157,N,07032.4388638,W,1,19,0.8,14.306,M,-29.746,M,0.0,*5C
###2023-12-09 13:45:25.801886$GNGGA,184524.90,4138.0393140,N,07032.4388651,W,1,19,0.8,14.303,M,-29.746,M,0.0,*5E
###2023-12-09 13:45:26.007785$GNRMC,184525.10,A,4138.0393143,N,07032.4388648,W,0.02,243.17,091223,,,A*5C
###2023-12-09 13:45:26.010662$GNGGA,184525.10,4138.0393143,N,07032.4388648,W,1,19,0.8,14.311,M,-29.746,M,0.0,*5F
###2023-12-09 13:45:26.012386$GPGSA,A,3,04,16,26,28,29,31,,,,,,,1.3,0.8,1.1*3C
###2023-12-09 13:45:26.014098$GLGSA,A,3,65,72,73,74,75,83,,,,,,,1.3,0.8,1.1*2C
###2023-12-09 13:45:26.015634$GAGSA,A,3,04,21,27,,,,,,,,,,1.3,0.8,1.1*2B
###2023-12-09 13:45:26.017217$GBGSA,A,3,12,24,25,35,,,,,,,,,1.3,0.8,1.1*2E
###2023-12-09 13:45:26.019561$GPGSV,2,1,06,04,51,304,45,16,72,228,44,26,79,041,40,28,34,089,44*77
###2023-12-09 13:45:26.021310$GPGSV,2,2,06,29,18,043,43,31,56,072,50,,,,,,,,*7C
###2023-12-09 13:45:26.023653$GLGSV,2,1,06,65,42,313,46,72,57,214,37,73,18,056,44,74,56,022,38*67
###2023-12-09 13:45:26.025409$GLGSV,2,2,06,75,47,279,47,83,16,042,38,,,,,,,,*6C
###2023-12-09 13:45:26.027457$GAGSV,1,1,03,04,43,308,44,21,73,044,37,27,19,051,42,,,,*5F
###2023-12-09 13:45:26.029780$GBGSV,1,1,04,12,19,123,42,24,59,051,47,25,54,281,41,35,16,052,37*65
###2023-12-09 13:45:26.031117$GNVTG,243.17,T,,M,0.02,N,0.04,K,A*26
###2023-12-09 13:45:26.032731$GNGST,184525.10,7.600,,,,0.190,0.120,0.310*61
###2023-12-09 13:45:26.034021$GNZDA,184525.10,09,12,2023,00,00*7F
###2023-12-09 13:45:26.034666$GNEBP,,,,,,M*13
###2023-12-09 13:45:26.203688$GNGGA,184525.30,4138.0393138,N,07032.4388652,W,1,19,0.8,14.313,M,-29.746,M,0.0,*58
###2023-12-09 13:45:26.403274$GNGGA,184525.50,4138.0393122,N,07032.4388659,W,1,19,0.8,14.309,M,-29.746,M,0.0,*55
###2023-12-09 13:45:26.602710$GNGGA,184525.70,4138.0393130,N,07032.4388659,W,1,19,0.8,14.312,M,-29.746,M,0.0,*5E
###2023-12-09 13:45:26.801643$GNGGA,184525.90,4138.0393135,N,07032.4388653,W,1,19,0.8,14.316,M,-29.746,M,0.0,*5B
###2023-12-09 13:45:27.005056$GNRMC,184526.10,A,4138.0393114,N,07032.4388653,W,0.02,243.17,091223,,,A*57
###2023-12-09 13:45:27.007912$GNGGA,184526.10,4138.0393114,N,07032.4388653,W,1,19,0.8,14.314,M,-29.746,M,0.0,*51
###2023-12-09 13:45:27.009628$GPGSA,A,3,04,16,26,28,29,31,,,,,,,1.3,0.8,1.1*3C
###2023-12-09 13:45:27.011335$GLGSA,A,3,65,72,73,74,75,83,,,,,,,1.3,0.8,1.1*2C
###2023-12-09 13:45:27.012843$GAGSA,A,3,04,21,27,,,,,,,,,,1.3,0.8,1.1*2B
###2023-12-09 13:45:27.014415$GBGSA,A,3,12,24,25,35,,,,,,,,,1.3,0.8,1.1*2E
###2023-12-09 13:45:27.016731$GPGSV,2,1,06,04,51,304,45,16,72,228,44,26,78,041,40,28,34,089,44*76
###2023-12-09 13:45:27.018469$GPGSV,2,2,06,29,18,043,43,31,56,072,50,,,,,,,,*7C
###2023-12-09 13:45:27.020793$GLGSV,2,1,06,65,42,313,46,72,57,214,37,73,18,056,45,74,56,022,38*66
###2023-12-09 13:45:27.022532$GLGSV,2,2,06,75,47,279,47,83,16,042,37,,,,,,,,*63
###2023-12-09 13:45:27.024566$GAGSV,1,1,03,04,43,308,44,21,73,044,37,27,19,051,42,,,,*5F
###2023-12-09 13:45:27.026891$GBGSV,1,1,04,12,19,123,42,24,59,051,46,25,54,281,41,35,16,052,36*65
###2023-12-09 13:45:27.028214$GNVTG,243.17,T,,M,0.02,N,0.04,K,A*26
###2023-12-09 13:45:27.029819$GNGST,184526.10,7.900,,,,0.190,0.120,0.310*6D
###2023-12-09 13:45:27.031116$GNZDA,184526.10,09,12,2023,00,00*7C
###2023-12-09 13:45:27.031754$GNEBP,,,,,,M*13
###2023-12-09 13:45:27.206813$GNGGA,184526.30,4138.0393117,N,07032.4388647,W,1,19,0.8,14.320,M,-29.746,M,0.0,*52
###2023-12-09 13:45:27.404632$GNGGA,184526.50,4138.0393122,N,07032.4388658,W,1,19,0.8,14.322,M,-29.746,M,0.0,*5E
###2023-12-09 13:45:27.600425$GNGGA,184526.70,4138.0393128,N,07032.4388663,W,1,19,0.8,14.322,M,-29.746,M,0.0,*5E
###2023-12-09 13:45:27.801760$GNGGA,184526.90,4138.0393138,N,07032.4388666,W,1,19,0.8,14.322,M,-29.746,M,0.0,*54
###2023-12-09 13:45:28.004264$GNRMC,184527.10,A,4138.0393131,N,07032.4388652,W,0.06,243.17,091223,,,A*54
###2023-12-09 13:45:28.007133$GNGGA,184527.10,4138.0393131,N,07032.4388652,W,1,19,0.8,14.326,M,-29.746,M,0.0,*57
###2023-12-09 13:45:28.008858$GPGSA,A,3,04,16,26,28,29,31,,,,,,,1.3,0.8,1.1*3C
###2023-12-09 13:45:28.010581$GLGSA,A,3,65,72,73,74,75,83,,,,,,,1.3,0.8,1.1*2C
###2023-12-09 13:45:28.012098$GAGSA,A,3,04,21,27,,,,,,,,,,1.3,0.8,1.1*2B
###2023-12-09 13:45:28.013675$GBGSA,A,3,12,24,25,35,,,,,,,,,1.3,0.8,1.1*2E
###2023-12-09 13:45:28.016009$GPGSV,2,1,06,04,51,304,44,16,72,228,44,26,78,041,40,28,34,089,44*77
###2023-12-09 13:45:28.017761$GPGSV,2,2,06,29,18,043,43,31,56,072,50,,,,,,,,*7C
###2023-12-09 13:45:28.020096$GLGSV,2,1,06,65,42,313,45,72,57,214,37,73,18,056,45,74,56,022,38*65
###2023-12-09 13:45:28.021844$GLGSV,2,2,06,75,47,279,47,83,16,042,38,,,,,,,,*6C
###2023-12-09 13:45:28.023894$GAGSV,1,1,03,04,43,308,44,21,73,044,37,27,19,051,42,,,,*5F
###2023-12-09 13:45:28.026216$GBGSV,1,1,04,12,19,123,42,24,59,051,46,25,54,281,41,35,16,052,36*65
###2023-12-09 13:45:28.027552$GNVTG,243.17,T,,M,0.06,N,0.11,K,A*26
###2023-12-09 13:45:28.029168$GNGST,184527.10,7.600,,,,0.190,0.120,0.310*63
###2023-12-09 13:45:28.030456$GNZDA,184527.10,09,12,2023,00,00*7D
###2023-12-09 13:45:28.031107$GNEBP,,,,,,M*13
###2023-12-09 13:45:28.203274$GNGGA,184527.30,4138.0393123,N,07032.4388648,W,1,19,0.8,14.328,M,-29.746,M,0.0,*53
###2023-12-09 13:45:28.402777$GNGGA,184527.50,4138.0393125,N,07032.4388657,W,1,19,0.8,14.325,M,-29.746,M,0.0,*50
###2023-12-09 13:45:28.601044$GNGGA,184527.70,4138.0393122,N,07032.4388659,W,1,19,0.8,14.331,M,-29.746,M,0.0,*5E
###2023-12-09 13:45:28.806220$GNGGA,184527.90,4138.0393122,N,07032.4388668,W,1,19,0.8,14.331,M,-29.746,M,0.0,*52
###2023-12-09 13:45:29.006180$GNRMC,184528.10,A,4138.0393138,N,07032.4388666,W,0.02,243.17,091223,,,A*51
###2023-12-09 13:45:29.009684$GNGGA,184528.10,4138.0393138,N,07032.4388666,W,1,19,0.8,14.336,M,-29.746,M,0.0,*57
###2023-12-09 13:45:29.011781$GPGSA,A,3,04,16,26,28,29,31,,,,,,,1.3,0.8,1.1*3C
###2023-12-09 13:45:29.013856$GLGSA,A,3,65,72,73,74,75,83,,,,,,,1.3,0.8,1.1*2C
###2023-12-09 13:45:29.015714$GAGSA,A,3,04,21,27,,,,,,,,,,1.3,0.8,1.1*2B
###2023-12-09 13:45:29.017624$GBGSA,A,3,12,24,25,35,,,,,,,,,1.3,0.8,1.1*2E
###2023-12-09 13:45:29.020439$GPGSV,2,1,06,04,51,304,44,16,72,228,44,26,78,041,40,28,34,089,44*77
###2023-12-09 13:45:29.022548$GPGSV,2,2,06,29,18,043,43,31,56,072,50,,,,,,,,*7C
###2023-12-09 13:45:29.025372$GLGSV,2,1,06,65,42,313,45,72,57,214,38,73,18,056,45,74,56,022,38*6A
###2023-12-09 13:45:29.027480$GLGSV,2,2,06,75,47,279,47,83,16,042,38,,,,,,,,*6C
###2023-12-09 13:45:29.029921$GAGSV,1,1,03,04,43,308,44,21,73,044,37,27,19,051,42,,,,*5F
###2023-12-09 13:45:29.032741$GBGSV,1,1,04,12,19,123,42,24,59,051,46,25,54,281,41,35,16,052,35*66
###2023-12-09 13:45:29.034378$GNVTG,243.17,T,,M,0.02,N,0.04,K,A*26
###2023-12-09 13:45:29.036342$GNGST,184528.10,7.800,,,,0.190,0.120,0.310*62
###2023-12-09 13:45:29.037903$GNZDA,184528.10,09,12,2023,00,00*72
###2023-12-09 13:45:29.038681$GNEBP,,,,,,M*13
###2023-12-09 13:45:29.203029$GNGGA,184528.30,4138.0393132,N,07032.4388672,W,1,19,0.8,14.340,M,-29.746,M,0.0,*5B
###2023-12-09 13:45:29.402785$GNGGA,184528.50,4138.0393131,N,07032.4388678,W,1,19,0.8,14.338,M,-29.746,M,0.0,*5B
###2023-12-09 13:45:29.601278$GNGGA,184528.70,4138.0393149,N,07032.4388678,W,1,19,0.8,14.343,M,-29.746,M,0.0,*5A
###2023-12-09 13:45:29.802485$GNGGA,184528.90,4138.0393159,N,07032.4388677,W,1,19,0.8,14.347,M,-29.746,M,0.0,*5E
###2023-12-09 13:45:30.005847$GNRMC,184529.10,A,4138.0393154,N,07032.4388676,W,0.04,243.17,091223,,,A*5D
###2023-12-09 13:45:30.008762$GNGGA,184529.10,4138.0393154,N,07032.4388676,W,1,19,0.8,14.344,M,-29.746,M,0.0,*58
###2023-12-09 13:45:30.010499$GPGSA,A,3,04,16,26,28,29,31,,,,,,,1.3,0.8,1.1*3C
###2023-12-09 13:45:30.012227$GLGSA,A,3,65,72,73,74,75,83,,,,,,,1.3,0.8,1.1*2C
###2023-12-09 13:45:30.013744$GAGSA,A,3,04,21,27,,,,,,,,,,1.3,0.8,1.1*2B
###2023-12-09 13:45:30.015336$GBGSA,A,3,12,24,25,35,,,,,,,,,1.3,0.8,1.1*2E
