###2023-12-09 13:37:50.023733$GBGSV,2,1,06,12,16,125,40,14,28,189,36,24,62,047,48,25,52,277,47*6E
###2023-12-09 13:37:50.025502$GBGSV,2,2,06,33,44,216,48,35,16,055,45,,,,,,,,*64
###2023-12-09 13:37:50.026844$GNVTG,117.24,T,,M,1.63,N,3.02,K,A*27
###2023-12-09 13:37:50.028465$GNGST,183749.10,6.500,,,,0.120,0.096,0.220*69
###2023-12-09 13:37:50.029753$GNZDA,183749.10,09,12,2023,00,00*70
###2023-12-09 13:37:50.030390$GNEBP,,,,,,M*13
###2023-12-09 13:37:50.197092$GNGGA,183749.30,4138.0272214,N,07032.3954492,W,1,24,0.6,13.324,M,-29.745,M,0.0,*56
###2023-12-09 13:37:50.395645$GNGGA,183749.50,4138.0271944,N,07032.3953439,W,1,24,0.6,13.326,M,-29.745,M,0.0,*59
###2023-12-09 13:37:50.595823$GNGGA,183749.70,4138.0271758,N,07032.3952358,W,1,24,0.6,13.327,M,-29.745,M,0.0,*58
###2023-12-09 13:37:50.796194$GNGGA,183749.90,4138.0271503,N,07032.3951297,W,1,24,0.6,13.332,M,-29.745,M,0.0,*5F
###2023-12-09 13:37:50.999966$GNRMC,183750.10,A,4138.0271239,N,07032.3950300,W,1.36,109.94,091223,,,A*59
###2023-12-09 13:37:51.003464$GNGGA,183750.10,4138.0271239,N,07032.3950300,W,1,24,0.6,13.334,M,-29.745,M,0.0,*59
###2023-12-09 13:37:51.005643$GPGSA,A,3,04,16,26,27,28,29,31,,,,,,1.1,0.6,1.0*34
###2023-12-09 13:37:51.007814$GLGSA,A,3,65,71,72,73,74,75,83,,,,,,1.1,0.6,1.0*27
###2023-12-09 13:37:51.009738$GAGSA,A,3,04,19,21,27,,,,,,,,,1.1,0.6,1.0*2E
###2023-12-09 13:37:51.011817$GBGSA,A,3,12,14,24,25,33,35,,,,,,,1.1,0.6,1.0*26
###2023-12-09 13:37:51.014650$GPGSV,2,1,07,04,48,307,45,16,68,224,47,26,82,040,48,27,18,172,41*75
###2023-12-09 13:37:51.017145$GPGSV,2,2,07,28,37,086,43,29,20,046,43,31,58,068,45,,,,*45
###2023-12-09 13:37:51.019976$GLGSV,2,1,07,65,39,317,43,71,21,175,45,72,61,219,46,73,21,053,41*63
###2023-12-09 13:37:51.022440$GLGSV,2,2,07,74,59,016,41,75,44,273,47,83,15,046,35,,,,*53
###2023-12-09 13:37:51.025279$GAGSV,1,1,04,04,41,309,44,19,71,181,41,21,76,045,46,27,22,050,40*61
###2023-12-09 13:37:51.028120$GBGSV,2,1,06,12,16,125,40,14,28,189,37,24,62,047,48,25,52,277,47*6F
###2023-12-09 13:37:51.030231$GBGSV,2,2,06,33,44,216,47,35,16,055,43,,,,,,,,*6D
###2023-12-09 13:37:51.031854$GNVTG,109.94,T,,M,1.36,N,2.52,K,A*27
###2023-12-09 13:37:51.033813$GNGST,183750.10,6.600,,,,0.120,0.096,0.220*62
###2023-12-09 13:37:51.035393$GNZDA,183750.10,09,12,2023,00,00*78
###2023-12-09 13:37:51.036168$GNEBP,,,,,,M*13
###2023-12-09 13:37:51.201132$GNGGA,183750.30,4138.0271022,N,07032.3949352,W,1,24,0.6,13.343,M,-29.745,M,0.0,*5C
###2023-12-09 13:37:51.395154$GNGGA,183750.50,4138.0270951,N,07032.3948353,W,1,24,0.6,13.347,M,-29.745,M,0.0,*52
###2023-12-09 13:37:51.595948$GNGGA,183750.70,4138.0270874,N,07032.3947412,W,1,24,0.6,13.343,M,-29.745,M,0.0,*5F
###2023-12-09 13:37:51.797453$GNGGA,183750.90,4138.0270724,N,07032.3946553,W,1,23,0.6,13.341,M,-29.745,M,0.0,*5B
###2023-12-09 13:37:52.002078$GNRMC,183751.10,A,4138.0270654,N,07032.3945630,W,1.30,92.47,091223,,,A*6F
###2023-12-09 13:37:52.004963$GNGGA,183751.10,4138.0270654,N,07032.3945630,W,1,23,0.6,13.351,M,-29.745,M,0.0,*50
###2023-12-09 13:37:52.006762$GPGSA,A,3,04,16,26,27,28,29,31,,,,,,1.2,0.6,1.0*37
###2023-12-09 13:37:52.008474$GLGSA,A,3,65,71,72,73,74,75,,,,,,,1.2,0.6,1.0*2F
###2023-12-09 13:37:52.010052$GAGSA,A,3,04,19,21,27,,,,,,,,,1.2,0.6,1.0*2D
###2023-12-09 13:37:52.011787$GBGSA,A,3,12,14,24,25,33,35,,,,,,,1.2,0.6,1.0*25
###2023-12-09 13:37:52.014109$GPGSV,2,1,07,04,48,307,45,16,68,224,47,26,82,040,48,27,18,172,37*74
###2023-12-09 13:37:52.016152$GPGSV,2,2,07,28,37,086,42,29,20,046,40,31,58,068,45,,,,*47
###2023-12-09 13:37:52.018483$GLGSV,2,1,06,65,39,317,44,71,21,175,46,72,61,219,47,73,21,053,42*64
###2023-12-09 13:37:52.020237$GLGSV,2,2,06,74,59,016,42,75,44,273,48,,,,,,,,*65
###2023-12-09 13:37:52.022560$GAGSV,1,1,04,04,41,309,43,19,71,181,42,21,76,045,46,27,22,050,39*6B
###2023-12-09 13:37:52.024898$GBGSV,2,1,06,12,16,125,39,14,28,189,37,24,62,047,47,25,52,277,45*6C
###2023-12-09 13:37:52.026659$GBGSV,2,2,06,33,44,216,46,35,16,055,42,,,,,,,,*6D
###2023-12-09 13:37:52.027950$GNVTG,92.47,T,,M,1.30,N,2.41,K,A*1E
###2023-12-09 13:37:52.029574$GNGST,183751.10,6.400,,,,0.120,0.096,0.220*61
###2023-12-09 13:37:52.030904$GNZDA,183751.10,09,12,2023,00,00*79
###2023-12-09 13:37:52.031550$GNEBP,,,,,,M*13
###2023-12-09 13:37:52.201011$GNGGA,183751.30,4138.0270650,N,07032.3944750,W,1,23,0.6,13.354,M,-29.745,M,0.0,*55
###2023-12-09 13:37:52.400248$GNGGA,183751.50,4138.0270605,N,07032.3943981,W,1,23,0.6,13.344,M,-29.745,M,0.0,*57
###2023-12-09 13:37:52.598469$GNGGA,183751.70,4138.0270624,N,07032.3943201,W,1,23,0.6,13.347,M,-29.745,M,0.0,*56
###2023-12-09 13:37:52.798951$GNGGA,183751.90,4138.0270656,N,07032.3942425,W,1,23,0.6,13.358,M,-29.745,M,0.0,*52
###2023-12-09 13:37:52.999505$GNRMC,183752.10,A,4138.0270648,N,07032.3941631,W,1.09,100.18,091223,,,A*5E
###2023-12-09 13:37:53.002601$GNGGA,183752.10,4138.0270648,N,07032.3941631,W,1,23,0.6,13.359,M,-29.745,M,0.0,*53
###2023-12-09 13:37:53.004490$GPGSA,A,3,04,16,26,27,28,29,31,,,,,,1.1,0.6,1.0*34
###2023-12-09 13:37:53.006214$GLGSA,A,3,65,71,72,73,74,75,,,,,,,1.1,0.6,1.0*2C
###2023-12-09 13:37:53.007810$GAGSA,A,3,04,19,21,27,,,,,,,,,1.1,0.6,1.0*2E
###2023-12-09 13:37:53.009523$GBGSA,A,3,12,14,24,25,33,35,,,,,,,1.1,0.6,1.0*26
###2023-12-09 13:37:53.011877$GPGSV,2,1,07,04,48,307,44,16,68,224,47,26,82,040,49,27,18,172,39*7A
###2023-12-09 13:37:53.013917$GPGSV,2,2,07,28,37,086,42,29,20,046,41,31,58,068,45,,,,*46
###2023-12-09 13:37:53.016263$GLGSV,2,1,06,65,39,317,44,71,21,175,45,72,61,219,46,73,21,053,41*65
###2023-12-09 13:37:53.018026$GLGSV,2,2,06,74,59,016,42,75,44,273,46,,,,,,,,*6B
###2023-12-09 13:37:53.020363$GAGSV,1,1,04,04,41,309,44,19,71,181,42,21,76,045,46,27,22,050,40*62
###2023-12-09 13:37:53.022712$GBGSV,2,1,06,12,16,125,41,14,28,189,36,24,62,047,48,25,52,277,47*6F
###2023-12-09 13:37:53.024462$GBGSV,2,2,06,33,44,216,47,35,16,055,42,,,,,,,,*6C
###2023-12-09 13:37:53.025788$GNVTG,100.18,T,,M,1.09,N,2.02,K,A*23
###2023-12-09 13:37:53.027408$GNGST,183752.10,6.300,,,,0.120,0.097,0.220*64
###2023-12-09 13:37:53.028701$GNZDA,183752.10,09,12,2023,00,00*7A
###2023-12-09 13:37:53.029339$GNEBP,,,,,,M*13
###2023-12-09 13:37:53.195979$GNGGA,183752.30,4138.0270646,N,07032.3940865,W,1,23,0.6,13.353,M,-29.745,M,0.0,*5B
###2023-12-09 13:37:53.395998$GNGGA,183752.50,4138.0270741,N,07032.3940248,W,1,23,0.6,13.353,M,-29.745,M,0.0,*5E
###2023-12-09 13:37:53.596066$GNGGA,183752.70,4138.0270857,N,07032.3939606,W,1,23,0.6,13.363,M,-29.745,M,0.0,*57
###2023-12-09 13:37:53.797360$GNGGA,183752.90,4138.0270938,N,07032.3938890,W,1,23,0.6,13.368,M,-29.745,M,0.0,*5A
###2023-12-09 13:37:54.000421$GNRMC,183753.10,A,4138.0270918,N,07032.3938188,W,0.86,86.38,091223,,,A*65
###2023-12-09 13:37:54.003295$GNGGA,183753.10,4138.0270918,N,07032.3938188,W,1,23,0.6,13.352,M,-29.745,M,0.0,*58
###2023-12-09 13:37:54.005084$GPGSA,A,3,04,16,26,27,28,29,31,,,,,,1.1,0.6,1.0*34
###2023-12-09 13:37:54.006810$GLGSA,A,3,65,71,72,73,74,75,,,,,,,1.1,0.6,1.0*2C
###2023-12-09 13:37:54.008390$GAGSA,A,3,04,19,21,27,,,,,,,,,1.1,0.6,1.0*2E
###2023-12-09 13:37:54.010099$GBGSA,A,3,12,14,24,25,33,35,,,,,,,1.1,0.6,1.0*26
###2023-12-09 13:37:54.012427$GPGSV,2,1,07,04,48,307,45,16,68,224,47,26,82,040,48,27,18,172,41*75
###2023-12-09 13:37:54.014463$GPGSV,2,2,07,28,37,086,43,29,20,046,41,31,58,068,46,,,,*44
###2023-12-09 13:37:54.016790$GLGSV,2,1,06,65,39,317,44,71,21,175,44,72,61,219,46,73,21,053,40*65
###2023-12-09 13:37:54.018529$GLGSV,2,2,06,74,59,016,42,75,44,273,47,,,,,,,,*6A
###2023-12-09 13:37:54.020849$GAGSV,1,1,04,04,41,309,43,19,71,181,41,21,76,045,46,27,22,050,39*68
###2023-12-09 13:37:54.023181$GBGSV,2,1,06,12,16,125,40,14,28,189,36,24,62,047,46,25,52,277,46*61
###2023-12-09 13:37:54.024921$GBGSV,2,2,06,33,44,216,46,35,16,055,41,,,,,,,,*6E
###2023-12-09 13:37:54.026240$GNVTG,86.38,T,,M,0.86,N,1.58,K,A*14
###2023-12-09 13:37:54.027869$GNGST,183753.10,6.000,,,,0.120,0.097,0.220*66
###2023-12-09 13:37:54.029155$GNZDA,183753.10,09,12,2023,00,00*7B
###2023-12-09 13:37:54.029790$GNEBP,,,,,,M*13
###2023-12-09 13:37:54.199872$GNGGA,183753.30,4138.0270993,N,07032.3937731,W,1,23,0.6,13.355,M,-29.745,M,0.0,*55
###2023-12-09 13:37:54.397138$GNGGA,183753.50,4138.0271285,N,07032.3937322,W,1,23,0.6,13.373,M,-29.745,M,0.0,*5C
###2023-12-09 13:37:54.595892$GNGGA,183753.70,4138.0271419,N,07032.3936737,W,1,23,0.6,13.385,M,-29.745,M,0.0,*55
###2023-12-09 13:37:54.796795$GNGGA,183753.90,4138.0271322,N,07032.3936127,W,1,23,0.6,13.364,M,-29.745,M,0.0,*5C
###2023-12-09 13:37:54.998159$GNRMC,183754.10,A,4138.0271439,N,07032.3935765,W,0.64,92.87,091223,,,A*68
###2023-12-09 13:37:55.001040$GNGGA,183754.10,4138.0271439,N,07032.3935765,W,1,23,0.6,13.357,M,-29.745,M,0.0,*5D
###2023-12-09 13:37:55.002832$GPGSA,A,3,04,16,26,27,28,29,31,,,,,,1.2,0.6,1.0*37
###2023-12-09 13:37:55.004539$GLGSA,A,3,65,71,72,73,74,75,,,,,,,1.2,0.6,1.0*2F
###2023-12-09 13:37:55.006109$GAGSA,A,3,04,19,21,27,,,,,,,,,1.2,0.6,1.0*2D
###2023-12-09 13:37:55.007816$GBGSA,A,3,12,14,24,25,33,35,,,,,,,1.2,0.6,1.0*25
