###2023-12-09 12:46:19.950217$GNGGA,174619.10,4138.0481979,N,07032.3898362,W,1,24,0.6,13.268,M,-29.745,M,0.0,*52
###2023-12-09 12:46:19.952113$GPGSA,A,3,03,04,16,26,28,29,31,32,,,,,1.1,0.6,0.9*3B
###2023-12-09 12:46:19.953844$GLGSA,A,3,65,71,72,73,74,75,,,,,,,1.1,0.6,0.9*24
###2023-12-09 12:46:19.955455$GAGSA,A,3,04,19,21,27,,,,,,,,,1.1,0.6,0.9*26
###2023-12-09 12:46:19.957106$GBGSA,A,3,14,24,25,26,33,,,,,,,,1.1,0.6,0.9*2F
###2023-12-09 12:46:19.959448$GPGSV,2,1,08,03,37,270,44,04,26,311,42,16,42,209,43,26,72,208,47*70
###2023-12-09 12:46:19.961782$GPGSV,2,2,08,28,54,062,45,29,26,068,41,31,72,018,48,32,25,137,43*7D
###2023-12-09 12:46:19.964131$GLGSV,2,1,06,65,17,329,39,71,50,171,46,72,70,297,47,73,43,037,46*69
###2023-12-09 12:46:19.965877$GLGSV,2,2,06,74,71,310,43,75,26,245,41,,,,,,,,*63
###2023-12-09 12:46:19.968225$GAGSV,1,1,04,04,24,312,40,19,84,276,41,21,82,165,46,27,38,049,43*65
###2023-12-09 12:46:19.970560$GBGSV,2,1,05,14,50,195,45,24,78,005,48,25,36,256,44,26,31,059,43*6F
###2023-12-09 12:46:19.972036$GBGSV,2,2,05,33,61,245,47,,,,,,,,,,,,*59
###2023-12-09 12:46:19.973368$GNVTG,266.23,T,,M,0.17,N,0.32,K,A*27
###2023-12-09 12:46:19.975046$GNGST,174619.10,18.000,,,,0.078,0.069,0.160*54
###2023-12-09 12:46:19.976344$GNZDA,174619.10,09,12,2023,00,00*7C
###2023-12-09 12:46:19.976986$GNEBP,,,,,,M*13
###2023-12-09 12:46:20.146468$GNGGA,174619.30,4138.0481900,N,07032.3898418,W,1,24,0.6,13.250,M,-29.745,M,0.0,*5F
###2023-12-09 12:46:20.346765$GNGGA,174619.50,4138.0481869,N,07032.3898823,W,1,24,0.6,13.246,M,-29.745,M,0.0,*54
###2023-12-09 12:46:20.546098$GNGGA,174619.70,4138.0481871,N,07032.3899421,W,1,24,0.6,13.253,M,-29.745,M,0.0,*54
###2023-12-09 12:46:20.744362$GNGGA,174619.90,4138.0481836,N,07032.3899809,W,1,24,0.6,13.265,M,-29.745,M,0.0,*5A
###2023-12-09 12:46:20.952658$GNRMC,174620.10,A,4138.0481758,N,07032.3899857,W,0.16,266.23,091223,,,A*54
###2023-12-09 12:46:20.955550$GNGGA,174620.10,4138.0481758,N,07032.3899857,W,1,24,0.6,13.266,M,-29.745,M,0.0,*57
###2023-12-09 12:46:20.957417$GPGSA,A,3,03,04,16,26,28,29,31,32,,,,,1.1,0.6,0.9*3B
###2023-12-09 12:46:20.959151$GLGSA,A,3,65,71,72,73,74,75,,,,,,,1.1,0.6,0.9*24
###2023-12-09 12:46:20.960729$GAGSA,A,3,04,19,21,27,,,,,,,,,1.1,0.6,0.9*26
###2023-12-09 12:46:20.962367$GBGSA,A,3,14,24,25,26,33,,,,,,,,1.1,0.6,0.9*2F
###2023-12-09 12:46:20.964720$GPGSV,2,1,08,03,37,270,44,04,26,311,43,16,42,209,42,26,72,208,46*71
###2023-12-09 12:46:20.967060$GPGSV,2,2,08,28,54,062,45,29,26,068,41,31,72,018,47,32,25,137,43*72
###2023-12-09 12:46:20.969383$GLGSV,2,1,06,65,17,329,39,71,50,171,44,72,70,297,46,73,43,037,45*69
###2023-12-09 12:46:20.971133$GLGSV,2,2,06,74,71,310,42,75,26,245,41,,,,,,,,*62
###2023-12-09 12:46:20.973441$GAGSV,1,1,04,04,24,312,41,19,84,276,41,21,82,165,45,27,38,049,43*67
###2023-12-09 12:46:20.975783$GBGSV,2,1,05,14,50,195,43,24,78,005,48,25,36,256,43,26,31,059,41*6C
###2023-12-09 12:46:20.977235$GBGSV,2,2,05,33,61,245,47,,,,,,,,,,,,*59
###2023-12-09 12:46:20.978556$GNVTG,266.23,T,,M,0.16,N,0.29,K,A*2C
###2023-12-09 12:46:20.980283$GNGST,174620.10,18.000,,,,0.079,0.070,0.160*57
###2023-12-09 12:46:20.981578$GNZDA,174620.10,09,12,2023,00,00*76
###2023-12-09 12:46:20.982216$GNEBP,,,,,,M*13
###2023-12-09 12:46:21.146592$GNGGA,174620.30,4138.0481689,N,07032.3899916,W,1,24,0.6,13.257,M,-29.745,M,0.0,*5E
###2023-12-09 12:46:21.346817$GNGGA,174620.50,4138.0481674,N,07032.3900397,W,1,24,0.6,13.255,M,-29.745,M,0.0,*5A
###2023-12-09 12:46:21.547357$GNGGA,174620.70,4138.0481656,N,07032.3901037,W,1,24,0.6,13.257,M,-29.745,M,0.0,*52
###2023-12-09 12:46:21.749211$GNGGA,174620.90,4138.0481596,N,07032.3901298,W,1,24,0.6,13.251,M,-29.745,M,0.0,*52
###2023-12-09 12:46:21.946672$GNRMC,174621.10,A,4138.0481505,N,07032.3901315,W,0.16,266.23,091223,,,A*52
###2023-12-09 12:46:21.949561$GNGGA,174621.10,4138.0481505,N,07032.3901315,W,1,24,0.6,13.257,M,-29.745,M,0.0,*53
###2023-12-09 12:46:21.951465$GPGSA,A,3,03,04,16,26,28,29,31,32,,,,,1.1,0.6,0.9*3B
###2023-12-09 12:46:21.953186$GLGSA,A,3,65,71,72,73,74,75,,,,,,,1.1,0.6,0.9*24
###2023-12-09 12:46:21.954789$GAGSA,A,3,04,19,21,27,,,,,,,,,1.1,0.6,0.9*26
###2023-12-09 12:46:21.956441$GBGSA,A,3,14,24,25,26,33,,,,,,,,1.1,0.6,0.9*2F
###2023-12-09 12:46:21.958793$GPGSV,2,1,08,03,37,270,45,04,26,311,43,16,42,209,44,26,72,208,49*79
###2023-12-09 12:46:21.961137$GPGSV,2,2,08,28,54,062,46,29,26,068,43,31,72,018,49,32,25,137,45*7B
###2023-12-09 12:46:21.963489$GLGSV,2,1,06,65,17,329,40,71,50,171,46,72,70,297,46,73,43,037,46*66
###2023-12-09 12:46:21.965282$GLGSV,2,2,06,74,71,310,42,75,26,245,40,,,,,,,,*63
###2023-12-09 12:46:21.967625$GAGSV,1,1,04,04,24,312,40,19,84,276,42,21,82,165,47,27,38,049,43*67
###2023-12-09 12:46:21.969954$GBGSV,2,1,05,14,50,195,44,24,78,005,48,25,36,256,44,26,31,059,43*6E
###2023-12-09 12:46:21.971427$GBGSV,2,2,05,33,61,245,48,,,,,,,,,,,,*56
###2023-12-09 12:46:21.972759$GNVTG,266.23,T,,M,0.16,N,0.29,K,A*2C
###2023-12-09 12:46:21.974421$GNGST,174621.10,18.000,,,,0.079,0.070,0.160*56
###2023-12-09 12:46:21.975728$GNZDA,174621.10,09,12,2023,00,00*77
###2023-12-09 12:46:21.976368$GNEBP,,,,,,M*13
###2023-12-09 12:46:22.148727$GNGGA,174621.30,4138.0481471,N,07032.3901646,W,1,24,0.6,13.265,M,-29.745,M,0.0,*51
###2023-12-09 12:46:22.347264$GNGGA,174621.50,4138.0481457,N,07032.3902202,W,1,24,0.6,13.264,M,-29.745,M,0.0,*55
###2023-12-09 12:46:22.546842$GNGGA,174621.70,4138.0481428,N,07032.3902534,W,1,24,0.6,13.249,M,-29.745,M,0.0,*52
###2023-12-09 12:46:22.746511$GNGGA,174621.90,4138.0481351,N,07032.3902673,W,1,24,0.6,13.248,M,-29.745,M,0.0,*54
###2023-12-09 12:46:22.948101$GNRMC,174622.10,A,4138.0481310,N,07032.3903001,W,0.62,266.23,091223,,,A*54
###2023-12-09 12:46:22.951019$GNGGA,174622.10,4138.0481310,N,07032.3903001,W,1,24,0.6,13.265,M,-29.745,M,0.0,*57
###2023-12-09 12:46:22.952890$GPGSA,A,3,03,04,16,26,28,29,31,32,,,,,1.1,0.6,0.9*3B
###2023-12-09 12:46:22.954639$GLGSA,A,3,65,71,72,73,74,75,,,,,,,1.1,0.6,0.9*24
###2023-12-09 12:46:22.956240$GAGSA,A,3,04,19,21,27,,,,,,,,,1.1,0.6,0.9*26
###2023-12-09 12:46:22.957899$GBGSA,A,3,14,24,25,26,33,,,,,,,,1.1,0.6,0.9*2F
###2023-12-09 12:46:22.960262$GPGSV,2,1,08,03,37,270,44,04,26,311,42,16,42,209,44,26,72,208,47*77
###2023-12-09 12:46:22.962627$GPGSV,2,2,08,28,54,062,46,29,26,068,42,31,72,018,48,32,25,137,45*7B
###2023-12-09 12:46:22.964966$GLGSV,2,1,06,65,17,329,38,71,50,171,46,72,70,297,46,73,43,037,46*69
###2023-12-09 12:46:22.966742$GLGSV,2,2,06,74,71,310,43,75,26,245,40,,,,,,,,*62
###2023-12-09 12:46:22.969080$GAGSV,1,1,04,04,24,312,39,19,84,276,41,21,82,165,46,27,38,049,43*6B
###2023-12-09 12:46:22.971430$GBGSV,2,1,05,14,50,195,44,24,78,005,49,25,36,256,44,26,31,059,43*6F
###2023-12-09 12:46:22.972893$GBGSV,2,2,05,33,61,245,48,,,,,,,,,,,,*56
###2023-12-09 12:46:22.974224$GNVTG,266.23,T,,M,0.62,N,1.15,K,A*21
###2023-12-09 12:46:22.975891$GNGST,174622.10,18.000,,,,0.079,0.069,0.160*5D
###2023-12-09 12:46:22.977185$GNZDA,174622.10,09,12,2023,00,00*74
###2023-12-09 12:46:22.977827$GNEBP,,,,,,M*13
###2023-12-09 12:46:23.148169$GNGGA,174622.30,4138.0481290,N,07032.3903511,W,1,24,0.6,13.278,M,-29.745,M,0.0,*54
###2023-12-09 12:46:23.346815$GNGGA,174622.50,4138.0481259,N,07032.3903782,W,1,24,0.6,13.263,M,-29.745,M,0.0,*55
###2023-12-09 12:46:23.546271$GNGGA,174622.70,4138.0481166,N,07032.3903801,W,1,24,0.6,13.252,M,-29.745,M,0.0,*5E
###2023-12-09 12:46:23.748459$GNGGA,174622.90,4138.0481115,N,07032.3904135,W,1,24,0.6,13.265,M,-29.745,M,0.0,*59
###2023-12-09 12:46:23.945729$GNRMC,174623.10,A,4138.0481100,N,07032.3904761,W,0.86,266.23,091223,,,A*5A
###2023-12-09 12:46:23.948617$GNGGA,174623.10,4138.0481100,N,07032.3904761,W,1,24,0.6,13.274,M,-29.745,M,0.0,*53
###2023-12-09 12:46:23.950492$GPGSA,A,3,03,04,16,26,28,29,31,32,,,,,1.1,0.6,0.9*3B
###2023-12-09 12:46:23.952220$GLGSA,A,3,65,71,72,73,74,75,,,,,,,1.1,0.6,0.9*24
###2023-12-09 12:46:23.953793$GAGSA,A,3,04,19,21,27,,,,,,,,,1.1,0.6,0.9*26
###2023-12-09 12:46:23.955447$GBGSA,A,3,14,24,25,26,33,,,,,,,,1.1,0.6,0.9*2F
###2023-12-09 12:46:23.957759$GPGSV,2,1,08,03,37,270,44,04,26,311,41,16,42,209,43,26,72,208,47*73
###2023-12-09 12:46:23.960082$GPGSV,2,2,08,28,54,062,45,29,26,068,42,31,72,018,48,32,25,137,44*79
###2023-12-09 12:46:23.962668$GLGSV,2,1,06,65,17,329,39,71,50,171,46,72,70,297,46,73,43,037,46*68
###2023-12-09 12:46:23.964422$GLGSV,2,2,06,74,71,310,42,75,26,245,41,,,,,,,,*62
###2023-12-09 12:46:23.966757$GAGSV,1,1,04,04,24,312,39,19,84,276,41,21,82,165,46,27,38,049,43*6B
###2023-12-09 12:46:23.969081$GBGSV,2,1,05,14,50,195,45,24,78,005,49,25,36,256,45,26,31,059,43*6F
###2023-12-09 12:46:23.970527$GBGSV,2,2,05,33,61,245,48,,,,,,,,,,,,*56
###2023-12-09 12:46:23.971855$GNVTG,266.23,T,,M,0.86,N,1.58,K,A*22
###2023-12-09 12:46:23.973503$GNGST,174623.10,18.000,,,,0.078,0.069,0.160*5D
###2023-12-09 12:46:23.974814$GNZDA,174623.10,09,12,2023,00,00*75
###2023-12-09 12:46:23.975453$GNEBP,,,,,,M*13
