###2023-12-09 13:23:47.019838$GNGST,182346.10,18.000,,,,0.100,0.071,0.170*54
###2023-12-09 13:23:47.021161$GNZDA,182346.10,09,12,2023,00,00*7A
###2023-12-09 13:23:47.021812$GNEBP,,,,,,M*13
###2023-12-09 13:23:47.185780$GNGGA,182346.30,4138.0484089,N,07032.3774563,W,1,24,0.7,12.780,M,-29.744,M,0.0,*5D
###2023-12-09 13:23:47.386255$GNGGA,182346.50,4138.0485880,N,07032.3775029,W,1,24,0.7,12.776,M,-29.744,M,0.0,*58
###2023-12-09 13:23:47.588734$GNGGA,182346.70,4138.0487676,N,07032.3775224,W,1,24,0.7,12.771,M,-29.744,M,0.0,*57
###2023-12-09 13:23:47.788454$GNGGA,182346.90,4138.0489474,N,07032.3775234,W,1,24,0.7,12.764,M,-29.744,M,0.0,*52
###2023-12-09 13:23:47.991250$GNRMC,182347.10,A,4138.0491307,N,07032.3775326,W,3.32,356.23,091223,,,A*51
###2023-12-09 13:23:47.994133$GNGGA,182347.10,4138.0491307,N,07032.3775326,W,1,24,0.7,12.758,M,-29.744,M,0.0,*5C
###2023-12-09 13:23:47.995949$GPGSA,A,3,03,04,16,26,28,29,31,,,,,,1.1,0.7,0.9*3B
###2023-12-09 13:23:47.997664$GLGSA,A,3,65,71,72,73,74,75,,,,,,,1.1,0.7,0.9*25
###2023-12-09 13:23:47.999267$GAGSA,A,3,04,19,21,27,,,,,,,,,1.1,0.7,0.9*27
###2023-12-09 13:23:48.000984$GBGSA,A,3,14,24,25,26,33,35,,,,,,,1.1,0.7,0.9*28
###2023-12-09 13:23:48.003329$GPGSV,2,1,07,03,30,251,41,04,42,310,44,16,61,218,47,26,89,050,48*7A
###2023-12-09 13:23:48.005372$GPGSV,2,2,07,28,41,080,45,29,22,051,41,31,63,058,46,,,,*4A
###2023-12-09 13:23:48.007710$GLGSV,2,1,06,65,34,323,42,71,29,175,44,72,68,232,47,73,27,049,41*6C
###2023-12-09 13:23:48.009457$GLGSV,2,2,06,74,63,004,41,75,40,265,46,,,,,,,,*61
###2023-12-09 13:23:48.011796$GAGSV,1,1,04,04,36,311,42,19,77,186,41,21,81,054,46,27,26,049,39*65
###2023-12-09 13:23:48.014129$GBGSV,2,1,06,14,34,191,43,24,66,040,48,25,47,271,47,26,19,068,43*6A
###2023-12-09 13:23:48.015890$GBGSV,2,2,06,33,50,221,47,35,16,061,44,,,,,,,,*6C
###2023-12-09 13:23:48.017211$GNVTG,356.23,T,,M,3.32,N,6.16,K,A*21
###2023-12-09 13:23:48.018872$GNGST,182347.10,18.000,,,,0.100,0.071,0.170*55
###2023-12-09 13:23:48.020163$GNZDA,182347.10,09,12,2023,00,00*7B
###2023-12-09 13:23:48.020801$GNEBP,,,,,,M*13
###2023-12-09 13:23:48.188655$GNGGA,182347.30,4138.0493162,N,07032.3775506,W,1,24,0.7,12.756,M,-29.744,M,0.0,*57
###2023-12-09 13:23:48.386381$GNGGA,182347.50,4138.0495087,N,07032.3775400,W,1,24,0.7,12.766,M,-29.744,M,0.0,*59
###2023-12-09 13:23:48.586429$GNGGA,182347.70,4138.0497040,N,07032.3775042,W,1,24,0.7,12.781,M,-29.744,M,0.0,*59
###2023-12-09 13:23:48.788588$GNGGA,182347.90,4138.0499026,N,07032.3774733,W,1,24,0.7,12.790,M,-29.744,M,0.0,*59
###2023-12-09 13:23:48.991207$GNRMC,182348.10,A,4138.0501014,N,07032.3774278,W,3.63,12.07,091223,,,A*6D
###2023-12-09 13:23:48.994068$GNGGA,182348.10,4138.0501014,N,07032.3774278,W,1,24,0.7,12.774,M,-29.744,M,0.0,*5F
###2023-12-09 13:23:48.995869$GPGSA,A,3,03,04,16,26,28,29,31,,,,,,1.1,0.7,0.9*3B
###2023-12-09 13:23:48.997585$GLGSA,A,3,65,71,72,73,74,75,,,,,,,1.1,0.7,0.9*25
###2023-12-09 13:23:48.999175$GAGSA,A,3,04,19,21,27,,,,,,,,,1.1,0.7,0.9*27
###2023-12-09 13:23:49.000883$GBGSA,A,3,14,24,25,26,33,35,,,,,,,1.1,0.7,0.9*28
###2023-12-09 13:23:49.003213$GPGSV,2,1,07,03,30,251,42,04,42,310,44,16,61,218,46,26,89,050,48*78
###2023-12-09 13:23:49.005248$GPGSV,2,2,07,28,41,080,43,29,22,051,38,31,63,058,45,,,,*41
###2023-12-09 13:23:49.007580$GLGSV,2,1,06,65,34,323,42,71,29,175,44,72,68,232,47,73,27,049,38*62
###2023-12-09 13:23:49.009322$GLGSV,2,2,06,74,63,004,41,75,40,265,47,,,,,,,,*60
###2023-12-09 13:23:49.011658$GAGSV,1,1,04,04,36,311,43,19,77,186,41,21,81,054,45,27,26,049,36*68
###2023-12-09 13:23:49.013981$GBGSV,2,1,06,14,34,191,45,24,66,040,48,25,47,271,48,26,19,068,43*63
###2023-12-09 13:23:49.015736$GBGSV,2,2,06,33,50,221,47,35,16,061,42,,,,,,,,*6A
###2023-12-09 13:23:49.017023$GNVTG,12.07,T,,M,3.63,N,6.73,K,A*13
###2023-12-09 13:23:49.018670$GNGST,182348.10,18.000,,,,0.100,0.071,0.170*5A
###2023-12-09 13:23:49.019956$GNZDA,182348.10,09,12,2023,00,00*74
###2023-12-09 13:23:49.020589$GNEBP,,,,,,M*13
###2023-12-09 13:23:49.187508$GNGGA,182348.30,4138.0502953,N,07032.3773787,W,1,24,0.7,12.748,M,-29.744,M,0.0,*59
###2023-12-09 13:23:49.387246$GNGGA,182348.50,4138.0504837,N,07032.3773540,W,1,24,0.7,12.737,M,-29.744,M,0.0,*5B
###2023-12-09 13:23:49.587598$GNGGA,182348.70,4138.0506703,N,07032.3773217,W,1,24,0.7,12.739,M,-29.744,M,0.0,*58
###2023-12-09 13:23:49.787237$GNGGA,182348.90,4138.0508558,N,07032.3772802,W,1,24,0.7,12.738,M,-29.744,M,0.0,*5A
###2023-12-09 13:23:49.991203$GNRMC,182349.10,A,4138.0510417,N,07032.3772635,W,3.40,0.01,091223,,,A*54
###2023-12-09 13:23:49.994057$GNGGA,182349.10,4138.0510417,N,07032.3772635,W,1,24,0.7,12.749,M,-29.744,M,0.0,*5C
###2023-12-09 13:23:49.995867$GPGSA,A,3,03,04,16,26,28,29,31,,,,,,1.1,0.7,0.9*3B
###2023-12-09 13:23:49.997581$GLGSA,A,3,65,71,72,73,74,75,,,,,,,1.1,0.7,0.9*25
###2023-12-09 13:23:49.999177$GAGSA,A,3,04,19,21,27,,,,,,,,,1.1,0.7,0.9*27
###2023-12-09 13:23:50.000889$GBGSA,A,3,14,24,25,26,33,35,,,,,,,1.1,0.7,0.9*28
###2023-12-09 13:23:50.003223$GPGSV,2,1,07,03,30,251,43,04,42,310,45,16,61,218,46,26,89,050,48*78
###2023-12-09 13:23:50.005256$GPGSV,2,2,07,28,41,080,44,29,22,051,41,31,63,058,46,,,,*4B
###2023-12-09 13:23:50.007588$GLGSV,2,1,06,65,34,323,42,71,29,175,43,72,68,232,47,73,27,049,41*6B
###2023-12-09 13:23:50.009327$GLGSV,2,2,06,74,63,004,41,75,40,265,48,,,,,,,,*6F
###2023-12-09 13:23:50.011652$GAGSV,1,1,04,04,36,311,43,19,77,186,41,21,81,054,45,27,26,049,39*67
###2023-12-09 13:23:50.013975$GBGSV,2,1,06,14,34,191,43,24,66,040,48,25,47,271,48,26,19,068,43*65
###2023-12-09 13:23:50.015732$GBGSV,2,2,06,33,50,221,48,35,16,061,44,,,,,,,,*63
###2023-12-09 13:23:50.016994$GNVTG,0.01,T,,M,3.40,N,6.30,K,A*20
###2023-12-09 13:23:50.018641$GNGST,182349.10,18.000,,,,0.100,0.071,0.170*5B
###2023-12-09 13:23:50.019931$GNZDA,182349.10,09,12,2023,00,00*75
###2023-12-09 13:23:50.020571$GNEBP,,,,,,M*13
###2023-12-09 13:23:50.186963$GNGGA,182349.30,4138.0512350,N,07032.3772749,W,1,24,0.7,12.763,M,-29.744,M,0.0,*5A
###2023-12-09 13:23:50.386296$GNGGA,182349.50,4138.0514339,N,07032.3772936,W,1,24,0.7,12.759,M,-29.744,M,0.0,*5A
###2023-12-09 13:23:50.590056$GNGGA,182349.70,4138.0516354,N,07032.3772854,W,1,24,0.7,12.746,M,-29.744,M,0.0,*5A
###2023-12-09 13:23:50.788998$GNGGA,182349.90,4138.0518357,N,07032.3772613,W,1,24,0.7,12.734,M,-29.744,M,0.0,*51
###2023-12-09 13:23:50.991157$GNRMC,182350.10,A,4138.0520273,N,07032.3772737,W,3.34,352.93,091223,,,A*54
###2023-12-09 13:23:50.994038$GNGGA,182350.10,4138.0520273,N,07032.3772737,W,1,24,0.7,12.718,M,-29.744,M,0.0,*54
###2023-12-09 13:23:50.995866$GPGSA,A,3,03,04,16,26,28,29,31,,,,,,1.1,0.7,0.9*3B
###2023-12-09 13:23:50.997604$GLGSA,A,3,65,71,72,73,74,75,,,,,,,1.1,0.7,0.9*25
###2023-12-09 13:23:50.999213$GAGSA,A,3,04,19,21,27,,,,,,,,,1.1,0.7,0.9*27
###2023-12-09 13:23:51.000932$GBGSA,A,3,14,24,25,26,33,35,,,,,,,1.1,0.7,0.9*28
###2023-12-09 13:23:51.003285$GPGSV,2,1,07,03,30,251,43,04,42,310,44,16,61,218,47,26,89,050,48*78
###2023-12-09 13:23:51.005337$GPGSV,2,2,07,28,41,080,45,29,22,051,41,31,63,058,46,,,,*4A
###2023-12-09 13:23:51.007690$GLGSV,2,1,06,65,34,323,41,71,29,175,43,72,68,232,46,73,27,049,42*6A
###2023-12-09 13:23:51.009447$GLGSV,2,2,06,74,63,004,41,75,40,265,47,,,,,,,,*60
###2023-12-09 13:23:51.011797$GAGSV,1,1,04,04,36,311,42,19,77,186,41,21,81,054,45,27,26,049,39*66
###2023-12-09 13:23:51.014127$GBGSV,2,1,06,14,34,191,43,24,66,040,48,25,47,271,47,26,19,068,44*6D
###2023-12-09 13:23:51.015895$GBGSV,2,2,06,33,50,221,47,35,16,061,44,,,,,,,,*6C
###2023-12-09 13:23:51.017231$GNVTG,352.93,T,,M,3.34,N,6.19,K,A*27
###2023-12-09 13:23:51.018939$GNGST,182350.10,18.000,,,,0.100,0.071,0.170*53
###2023-12-09 13:23:51.020243$GNZDA,182350.10,09,12,2023,00,00*7D
###2023-12-09 13:23:51.020889$GNEBP,,,,,,M*13
###2023-12-09 13:23:51.195084$GNGGA,182350.30,4138.0522090,N,07032.3773085,W,1,24,0.7,12.708,M,-29.744,M,0.0,*55
###2023-12-09 13:23:51.386239$GNGGA,182350.50,4138.0523893,N,07032.3773229,W,1,24,0.7,12.707,M,-29.744,M,0.0,*52
###2023-12-09 13:23:51.586867$GNGGA,182350.70,4138.0525686,N,07032.3773414,W,1,24,0.7,12.712,M,-29.744,M,0.0,*50
###2023-12-09 13:23:51.788138$GNGGA,182350.90,4138.0527445,N,07032.3773904,W,1,24,0.7,12.717,M,-29.744,M,0.0,*58
###2023-12-09 13:23:51.990217$GNRMC,182351.10,A,4138.0529259,N,07032.3774464,W,3.40,348.35,091223,,,A*53
###2023-12-09 13:23:51.993109$GNGGA,182351.10,4138.0529259,N,07032.3774464,W,1,24,0.7,12.714,M,-29.744,M,0.0,*5B
###2023-12-09 13:23:51.994931$GPGSA,A,3,03,04,16,26,28,29,31,,,,,,1.1,0.7,0.9*3B
###2023-12-09 13:23:51.996648$GLGSA,A,3,65,71,72,73,74,75,,,,,,,1.1,0.7,0.9*25
###2023-12-09 13:23:51.998226$GAGSA,A,3,04,19,21,27,,,,,,,,,1.1,0.7,0.9*27
###2023-12-09 13:23:51.999953$GBGSA,A,3,14,24,25,26,33,35,,,,,,,1.1,0.7,0.9*28
###2023-12-09 13:23:52.002272$GPGSV,2,1,07,03,30,251,43,04,42,310,44,16,61,218,46,26,89,050,48*79
###2023-12-09 13:23:52.004319$GPGSV,2,2,07,28,41,080,45,29,22,051,41,31,63,058,47,,,,*4B
###2023-12-09 13:23:52.006655$GLGSV,2,1,06,65,34,323,43,71,29,175,43,72,68,232,46,73,27,049,40*6A
