###2023-12-09 12:47:25.978160$GNZDA,174725.10,09,12,2023,00,00*72
###2023-12-09 12:47:25.978845$GNEBP,,,,,,M*13
###2023-12-09 12:47:26.148523$GNGGA,174725.30,4138.0502023,N,07032.3990009,W,1,24,0.6,13.353,M,-29.745,M,0.0,*5C
###2023-12-09 12:47:26.346444$GNGGA,174725.50,4138.0501997,N,07032.3989938,W,1,24,0.6,13.349,M,-29.745,M,0.0,*57
###2023-12-09 12:47:26.546515$GNGGA,174725.70,4138.0502131,N,07032.3989856,W,1,24,0.6,13.350,M,-29.745,M,0.0,*53
###2023-12-09 12:47:26.746340$GNGGA,174725.90,4138.0502352,N,07032.3989745,W,1,24,0.6,13.347,M,-29.745,M,0.0,*51
###2023-12-09 12:47:26.946243$GNRMC,174726.10,A,4138.0502465,N,07032.3989668,W,0.08,7.86,091223,,,A*53
###2023-12-09 12:47:26.949155$GNGGA,174726.10,4138.0502465,N,07032.3989668,W,1,24,0.6,13.345,M,-29.745,M,0.0,*55
###2023-12-09 12:47:26.951042$GPGSA,A,3,03,04,16,26,28,29,31,32,,,,,1.1,0.6,0.9*3B
###2023-12-09 12:47:26.952764$GLGSA,A,3,65,71,72,73,74,75,,,,,,,1.1,0.6,0.9*24
###2023-12-09 12:47:26.954349$GAGSA,A,3,04,19,21,27,,,,,,,,,1.1,0.6,0.9*26
###2023-12-09 12:47:26.956012$GBGSA,A,3,14,24,25,26,33,,,,,,,,1.1,0.6,0.9*2F
###2023-12-09 12:47:26.958342$GPGSV,2,1,08,03,37,269,45,04,27,311,41,16,42,209,46,26,72,208,48*71
###2023-12-09 12:47:26.960695$GPGSV,2,2,08,28,54,062,45,29,26,068,41,31,72,018,48,32,25,137,39*70
###2023-12-09 12:47:26.963047$GLGSV,2,1,06,65,17,329,41,71,49,171,46,72,70,294,47,73,42,037,47*6D
###2023-12-09 12:47:26.964797$GLGSV,2,2,06,74,71,314,43,75,27,246,43,,,,,,,,*67
###2023-12-09 12:47:26.967154$GAGSV,1,1,04,04,24,312,40,19,84,276,40,21,82,165,46,27,38,049,44*63
###2023-12-09 12:47:26.969503$GBGSV,2,1,05,14,50,195,45,24,78,008,48,25,36,257,44,26,31,060,42*68
###2023-12-09 12:47:26.970976$GBGSV,2,2,05,33,61,243,47,,,,,,,,,,,,*5F
###2023-12-09 12:47:26.972235$GNVTG,7.86,T,,M,0.08,N,0.14,K,A*27
###2023-12-09 12:47:26.973890$GNGST,174726.10,18.000,,,,0.079,0.070,0.160*50
###2023-12-09 12:47:26.975200$GNZDA,174726.10,09,12,2023,00,00*71
###2023-12-09 12:47:26.975840$GNEBP,,,,,,M*13
###2023-12-09 12:47:27.146091$GNGGA,174726.30,4138.0502438,N,07032.3989639,W,1,24,0.6,13.350,M,-29.745,M,0.0,*5F
###2023-12-09 12:47:27.347886$GNGGA,174726.50,4138.0502496,N,07032.3989601,W,1,24,0.6,13.349,M,-29.745,M,0.0,*5E
###2023-12-09 12:47:27.546985$GNGGA,174726.70,4138.0502720,N,07032.3989538,W,1,24,0.6,13.349,M,-29.745,M,0.0,*5B
###2023-12-09 12:47:27.746521$GNGGA,174726.90,4138.0502911,N,07032.3989474,W,1,24,0.6,13.339,M,-29.745,M,0.0,*57
###2023-12-09 12:47:27.947384$GNRMC,174727.10,A,4138.0502925,N,07032.3989459,W,0.04,7.86,091223,,,A*57
###2023-12-09 12:47:27.950245$GNGGA,174727.10,4138.0502925,N,07032.3989459,W,1,24,0.6,13.337,M,-29.745,M,0.0,*58
###2023-12-09 12:47:27.952121$GPGSA,A,3,03,04,16,26,28,29,31,32,,,,,1.1,0.6,0.9*3B
###2023-12-09 12:47:27.953848$GLGSA,A,3,65,71,72,73,74,75,,,,,,,1.1,0.6,0.9*24
###2023-12-09 12:47:27.955455$GAGSA,A,3,04,19,21,27,,,,,,,,,1.1,0.6,0.9*26
###2023-12-09 12:47:27.957109$GBGSA,A,3,14,24,25,26,33,,,,,,,,1.1,0.6,0.9*2F
###2023-12-09 12:47:27.959463$GPGSV,2,1,08,03,37,269,45,04,27,311,41,16,42,209,46,26,72,208,48*71
###2023-12-09 12:47:27.961808$GPGSV,2,2,08,28,54,062,44,29,26,068,40,31,72,018,48,32,25,137,39*70
###2023-12-09 12:47:27.964163$GLGSV,2,1,06,65,17,329,41,71,49,171,45,72,70,294,47,73,42,037,47*6E
###2023-12-09 12:47:27.965918$GLGSV,2,2,06,74,71,314,43,75,27,246,44,,,,,,,,*60
###2023-12-09 12:47:27.968272$GAGSV,1,1,04,04,24,312,40,19,84,276,41,21,82,165,46,27,38,049,45*63
###2023-12-09 12:47:27.970638$GBGSV,2,1,05,14,50,195,46,24,78,008,49,25,36,257,45,26,31,060,44*6D
###2023-12-09 12:47:27.972100$GBGSV,2,2,05,33,61,243,49,,,,,,,,,,,,*51
###2023-12-09 12:47:27.973363$GNVTG,7.86,T,,M,0.04,N,0.07,K,A*29
###2023-12-09 12:47:27.975027$GNGST,174727.10,18.000,,,,0.079,0.070,0.160*51
###2023-12-09 12:47:27.976322$GNZDA,174727.10,09,12,2023,00,00*70
###2023-12-09 12:47:27.976963$GNEBP,,,,,,M*13
###2023-12-09 12:47:28.147314$GNGGA,174727.30,4138.0502919,N,07032.3989411,W,1,24,0.6,13.338,M,-29.745,M,0.0,*56
###2023-12-09 12:47:28.346419$GNGGA,174727.50,4138.0503074,N,07032.3989333,W,1,24,0.6,13.340,M,-29.745,M,0.0,*5B
###2023-12-09 12:47:28.546759$GNGGA,174727.70,4138.0503307,N,07032.3989291,W,1,24,0.6,13.337,M,-29.745,M,0.0,*57
###2023-12-09 12:47:28.745401$GNGGA,174727.90,4138.0503369,N,07032.3989251,W,1,24,0.6,13.327,M,-29.745,M,0.0,*5C
###2023-12-09 12:47:28.949329$GNRMC,174728.10,A,4138.0503363,N,07032.3989241,W,0.04,7.86,091223,,,A*5E
###2023-12-09 12:47:28.952239$GNGGA,174728.10,4138.0503363,N,07032.3989241,W,1,24,0.6,13.324,M,-29.745,M,0.0,*53
###2023-12-09 12:47:28.954097$GPGSA,A,3,03,04,16,26,28,29,31,32,,,,,1.1,0.6,0.9*3B
###2023-12-09 12:47:28.955834$GLGSA,A,3,65,71,72,73,74,75,,,,,,,1.1,0.6,0.9*24
###2023-12-09 12:47:28.957426$GAGSA,A,3,04,19,21,27,,,,,,,,,1.1,0.6,0.9*26
###2023-12-09 12:47:28.959096$GBGSA,A,3,14,24,25,26,33,,,,,,,,1.1,0.6,0.9*2F
###2023-12-09 12:47:28.961441$GPGSV,2,1,08,03,37,269,45,04,27,311,41,16,42,209,46,26,72,208,48*71
###2023-12-09 12:47:28.963803$GPGSV,2,2,08,28,54,062,45,29,26,068,40,31,72,018,47,32,25,137,40*70
###2023-12-09 12:47:28.966146$GLGSV,2,1,06,65,17,329,41,71,49,171,46,72,70,294,47,73,42,037,47*6D
###2023-12-09 12:47:28.967911$GLGSV,2,2,06,74,71,314,43,75,27,246,43,,,,,,,,*67
###2023-12-09 12:47:28.970244$GAGSV,1,1,04,04,24,312,41,19,84,276,41,21,82,165,46,27,38,049,45*62
###2023-12-09 12:47:28.972587$GBGSV,2,1,05,14,50,195,46,24,78,008,48,25,36,257,46,26,31,060,43*68
###2023-12-09 12:47:28.974043$GBGSV,2,2,05,33,61,243,48,,,,,,,,,,,,*50
###2023-12-09 12:47:28.975321$GNVTG,7.86,T,,M,0.04,N,0.07,K,A*29
###2023-12-09 12:47:28.977010$GNGST,174728.10,18.000,,,,0.079,0.070,0.160*5E
###2023-12-09 12:47:28.978306$GNZDA,174728.10,09,12,2023,00,00*7F
###2023-12-09 12:47:28.978957$GNEBP,,,,,,M*13
###2023-12-09 12:47:29.148988$GNGGA,174728.30,4138.0503476,N,07032.3989197,W,1,24,0.6,13.327,M,-29.745,M,0.0,*59
###2023-12-09 12:47:29.346332$GNGGA,174728.50,4138.0503679,N,07032.3989127,W,1,24,0.6,13.323,M,-29.745,M,0.0,*5D
###2023-12-09 12:47:29.546355$GNGGA,174728.70,4138.0503813,N,07032.3989111,W,1,24,0.6,13.318,M,-29.745,M,0.0,*50
###2023-12-09 12:47:29.746265$GNGGA,174728.90,4138.0503848,N,07032.3989130,W,1,24,0.6,13.316,M,-29.745,M,0.0,*5D
###2023-12-09 12:47:29.949055$GNRMC,174729.10,A,4138.0503909,N,07032.3989115,W,0.19,7.86,091223,,,A*57
###2023-12-09 12:47:29.951952$GNGGA,174729.10,4138.0503909,N,07032.3989115,W,1,24,0.6,13.312,M,-29.745,M,0.0,*53
###2023-12-09 12:47:29.953807$GPGSA,A,3,03,04,16,26,28,29,31,32,,,,,1.1,0.6,0.9*3B
###2023-12-09 12:47:29.955539$GLGSA,A,3,65,71,72,73,74,75,,,,,,,1.1,0.6,0.9*24
###2023-12-09 12:47:29.957124$GAGSA,A,3,04,19,21,27,,,,,,,,,1.1,0.6,0.9*26
###2023-12-09 12:47:29.958789$GBGSA,A,3,14,24,25,26,33,,,,,,,,1.1,0.6,0.9*2F
###2023-12-09 12:47:29.961113$GPGSV,2,1,08,03,37,269,45,04,27,311,41,16,42,209,46,26,72,208,48*71
###2023-12-09 12:47:29.963454$GPGSV,2,2,08,28,54,062,44,29,26,068,41,31,72,018,47,32,25,137,40*70
###2023-12-09 12:47:29.965783$GLGSV,2,1,06,65,17,329,41,71,49,171,47,72,70,294,47,73,42,037,46*6D
###2023-12-09 12:47:29.967549$GLGSV,2,2,06,74,71,314,43,75,27,246,44,,,,,,,,*60
###2023-12-09 12:47:29.969916$GAGSV,1,1,04,04,24,312,41,19,84,276,41,21,82,165,47,27,38,049,45*63
###2023-12-09 12:47:29.972268$GBGSV,2,1,05,14,50,195,47,24,78,008,49,25,36,257,46,26,31,060,44*6F
###2023-12-09 12:47:29.973724$GBGSV,2,2,05,33,61,243,49,,,,,,,,,,,,*51
###2023-12-09 12:47:29.975001$GNVTG,7.86,T,,M,0.19,N,0.36,K,A*27
###2023-12-09 12:47:29.976646$GNGST,174729.10,18.000,,,,0.078,0.069,0.160*56
###2023-12-09 12:47:29.977935$GNZDA,174729.10,09,12,2023,00,00*7E
###2023-12-09 12:47:29.978581$GNEBP,,,,,,M*13
###2023-12-09 12:47:30.146123$GNGGA,174729.30,4138.0504045,N,07032.3989063,W,1,24,0.6,13.313,M,-29.745,M,0.0,*56
###2023-12-09 12:47:30.346750$GNGGA,174729.50,4138.0504237,N,07032.3989069,W,1,24,0.6,13.315,M,-29.745,M,0.0,*5B
###2023-12-09 12:47:30.546361$GNGGA,174729.70,4138.0504341,N,07032.3989064,W,1,24,0.6,13.314,M,-29.745,M,0.0,*55
###2023-12-09 12:47:30.747926$GNGGA,174729.90,4138.0504359,N,07032.3989064,W,1,24,0.6,13.309,M,-29.745,M,0.0,*5E
###2023-12-09 12:47:30.946006$GNRMC,174730.10,A,4138.0504416,N,07032.3989044,W,0.19,7.86,091223,,,A*5E
###2023-12-09 12:47:30.949174$GNGGA,174730.10,4138.0504416,N,07032.3989044,W,1,24,0.6,13.305,M,-29.745,M,0.0,*5C
###2023-12-09 12:47:30.951080$GPGSA,A,3,03,04,16,26,28,29,31,32,,,,,1.1,0.6,0.9*3B
###2023-12-09 12:47:30.952797$GLGSA,A,3,65,71,72,73,74,75,,,,,,,1.1,0.6,0.9*24
###2023-12-09 12:47:30.954370$GAGSA,A,3,04,19,21,27,,,,,,,,,1.1,0.6,0.9*26
###2023-12-09 12:47:30.956033$GBGSA,A,3,14,24,25,26,33,,,,,,,,1.1,0.6,0.9*2F
###2023-12-09 12:47:30.958364$GPGSV,2,1,08,03,37,269,46,04,27,311,42,16,42,209,47,26,72,208,48*70
###2023-12-09 12:47:30.960703$GPGSV,2,2,08,28,54,062,45,29,26,068,41,31,72,018,48,32,25,137,40*7E
###2023-12-09 12:47:30.963045$GLGSV,2,1,06,65,17,329,41,71,49,171,47,72,70,294,47,73,42,037,47*6C
###2023-12-09 12:47:30.964775$GLGSV,2,2,06,74,71,314,43,75,27,246,44,,,,,,,,*60
