###2023-12-09 12:30:41.949437$GNGST,173041.10,31.000,,,,0.100,0.100,0.260*50
###2023-12-09 12:30:41.950815$GNZDA,173041.10,09,12,2023,00,00*70
###2023-12-09 12:30:41.951478$GNEBP,,,,,,M*13
###2023-12-09 12:30:42.126094$GNGGA,173041.30,4138.0381302,N,07032.4366604,W,1,17,0.8,14.475,M,-29.746,M,0.0,*55
###2023-12-09 12:30:42.326131$GNGGA,173041.50,4138.0381299,N,07032.4366556,W,1,17,0.8,14.490,M,-29.746,M,0.0,*5F
###2023-12-09 12:30:42.524943$GNGGA,173041.70,4138.0381296,N,07032.4366503,W,1,17,0.8,14.514,M,-29.746,M,0.0,*5F
###2023-12-09 12:30:42.724030$GNGGA,173041.90,4138.0381296,N,07032.4366467,W,1,17,0.8,14.535,M,-29.746,M,0.0,*51
###2023-12-09 12:30:42.926181$GNRMC,173042.10,A,4138.0381300,N,07032.4366418,W,0.02,,091223,,,A*4C
###2023-12-09 12:30:42.929349$GNGGA,173042.10,4138.0381300,N,07032.4366418,W,1,17,0.8,14.551,M,-29.746,M,0.0,*5E
###2023-12-09 12:30:42.931447$GPGSA,A,3,03,04,16,26,28,29,31,32,,,,,1.4,0.8,1.2*3A
###2023-12-09 12:30:42.933236$GLGSA,A,3,71,72,73,75,,,,,,,,,1.4,0.8,1.2*25
###2023-12-09 12:30:42.934908$GAGSA,A,3,21,27,,,,,,,,,,,1.4,0.8,1.2*2B
###2023-12-09 12:30:42.936664$GBGSA,A,3,14,26,33,,,,,,,,,,1.4,0.8,1.2*2F
###2023-12-09 12:30:42.939207$GPGSV,2,1,08,03,39,280,40,04,20,310,35,16,34,206,39,26,64,206,45*7A
###2023-12-09 12:30:42.941739$GPGSV,2,2,08,28,60,053,43,29,25,076,42,31,73,353,42,32,32,133,48*7F
###2023-12-09 12:30:42.944285$GLGSV,1,1,04,71,59,168,49,72,64,313,40,73,50,032,45,75,20,239,41*67
###2023-12-09 12:30:42.946230$GAGSV,1,1,02,21,76,178,39,27,43,050,44,,,,,,,,*6B
###2023-12-09 12:30:42.948363$GBGSV,1,1,03,14,57,199,44,26,36,056,44,33,63,258,38,,,,*5D
###2023-12-09 12:30:42.949557$GNVTG,,T,,M,0.02,N,0.04,K,A*3B
###2023-12-09 12:30:42.951276$GNGST,173042.10,31.000,,,,0.100,0.100,0.260*53
###2023-12-09 12:30:42.952615$GNZDA,173042.10,09,12,2023,00,00*73
###2023-12-09 12:30:42.953295$GNEBP,,,,,,M*13
###2023-12-09 12:30:43.124498$GNGGA,173042.30,4138.0381293,N,07032.4366370,W,1,17,0.8,14.572,M,-29.746,M,0.0,*5F
###2023-12-09 12:30:43.325032$GNGGA,173042.50,4138.0381302,N,07032.4366335,W,1,17,0.8,14.591,M,-29.746,M,0.0,*5C
###2023-12-09 12:30:43.524309$GNGGA,173042.70,4138.0381325,N,07032.4366284,W,1,17,0.8,14.613,M,-29.746,M,0.0,*59
###2023-12-09 12:30:43.723160$GNGGA,173042.90,4138.0381333,N,07032.4366242,W,1,17,0.8,14.625,M,-29.746,M,0.0,*5F
###2023-12-09 12:30:43.929506$GNRMC,173043.10,A,4138.0381341,N,07032.4366188,W,0.02,,091223,,,A*44
###2023-12-09 12:30:43.932429$GNGGA,173043.10,4138.0381341,N,07032.4366188,W,1,17,0.8,14.640,M,-29.746,M,0.0,*55
###2023-12-09 12:30:43.934314$GPGSA,A,3,03,04,16,26,28,29,31,32,,,,,1.4,0.8,1.2*3A
###2023-12-09 12:30:43.935941$GLGSA,A,3,71,72,73,75,,,,,,,,,1.4,0.8,1.2*25
###2023-12-09 12:30:43.937410$GAGSA,A,3,21,27,,,,,,,,,,,1.4,0.8,1.2*2B
###2023-12-09 12:30:43.938958$GBGSA,A,3,14,26,33,,,,,,,,,,1.4,0.8,1.2*2F
###2023-12-09 12:30:43.941303$GPGSV,2,1,08,03,39,280,40,04,20,310,35,16,34,206,38,26,64,206,45*7B
###2023-12-09 12:30:43.943671$GPGSV,2,2,08,28,60,053,43,29,25,076,42,31,73,353,42,32,32,133,48*7F
###2023-12-09 12:30:43.946020$GLGSV,1,1,04,71,59,168,49,72,64,313,40,73,50,032,45,75,20,239,41*67
###2023-12-09 12:30:43.947842$GAGSV,1,1,02,21,76,178,39,27,43,050,44,,,,,,,,*6B
###2023-12-09 12:30:43.949920$GBGSV,1,1,03,14,57,199,44,26,36,056,44,33,63,258,38,,,,*5D
###2023-12-09 12:30:43.951108$GNVTG,,T,,M,0.02,N,0.04,K,A*3B
###2023-12-09 12:30:43.952790$GNGST,173043.10,31.000,,,,0.100,0.100,0.260*52
###2023-12-09 12:30:43.954101$GNZDA,173043.10,09,12,2023,00,00*72
###2023-12-09 12:30:43.954780$GNEBP,,,,,,M*13
###2023-12-09 12:30:44.124940$GNGGA,173043.30,4138.0381359,N,07032.4366149,W,1,17,0.8,14.652,M,-29.746,M,0.0,*50
###2023-12-09 12:30:44.323953$GNGGA,173043.50,4138.0381365,N,07032.4366112,W,1,17,0.8,14.669,M,-29.746,M,0.0,*5F
###2023-12-09 12:30:44.525145$GNGGA,173043.70,4138.0381377,N,07032.4366064,W,1,17,0.8,14.680,M,-29.746,M,0.0,*59
###2023-12-09 12:30:44.723002$GNGGA,173043.90,4138.0381394,N,07032.4366026,W,1,17,0.8,14.697,M,-29.746,M,0.0,*5A
###2023-12-09 12:30:44.931972$GNRMC,173044.10,A,4138.0381405,N,07032.4365992,W,0.02,,091223,,,A*44
###2023-12-09 12:30:44.934864$GNGGA,173044.10,4138.0381405,N,07032.4365992,W,1,17,0.8,14.708,M,-29.746,M,0.0,*58
###2023-12-09 12:30:44.936754$GPGSA,A,3,03,04,16,26,28,29,31,32,,,,,1.4,0.8,1.2*3A
###2023-12-09 12:30:44.938362$GLGSA,A,3,71,72,73,75,,,,,,,,,1.4,0.8,1.2*25
###2023-12-09 12:30:44.939856$GAGSA,A,3,21,27,,,,,,,,,,,1.4,0.8,1.2*2B
###2023-12-09 12:30:44.941389$GBGSA,A,3,14,26,33,,,,,,,,,,1.4,0.8,1.2*2F
###2023-12-09 12:30:44.943743$GPGSV,2,1,08,03,39,280,40,04,20,310,36,16,34,206,39,26,64,206,45*79
###2023-12-09 12:30:44.946094$GPGSV,2,2,08,28,60,053,43,29,25,076,42,31,73,353,42,32,32,133,48*7F
###2023-12-09 12:30:44.948474$GLGSV,1,1,04,71,59,168,49,72,64,313,40,73,50,032,46,75,20,239,41*64
###2023-12-09 12:30:44.950260$GAGSV,1,1,02,21,76,178,40,27,43,050,45,,,,,,,,*64
###2023-12-09 12:30:44.952341$GBGSV,1,1,03,14,57,199,44,26,36,056,44,33,63,258,37,,,,*52
###2023-12-09 12:30:44.953496$GNVTG,,T,,M,0.02,N,0.04,K,A*3B
###2023-12-09 12:30:44.955181$GNGST,173044.10,31.000,,,,0.100,0.100,0.260*55
###2023-12-09 12:30:44.956491$GNZDA,173044.10,09,12,2023,00,00*75
###2023-12-09 12:30:44.957145$GNEBP,,,,,,M*13
###2023-12-09 12:30:45.125861$GNGGA,173044.30,4138.0381421,N,07032.4365965,W,1,17,0.8,14.721,M,-29.746,M,0.0,*5F
###2023-12-09 12:30:45.324986$GNGGA,173044.50,4138.0381443,N,07032.4365926,W,1,17,0.8,14.733,M,-29.746,M,0.0,*59
###2023-12-09 12:30:45.524008$GNGGA,173044.70,4138.0381468,N,07032.4365907,W,1,17,0.8,14.744,M,-29.746,M,0.0,*51
###2023-12-09 12:30:45.728284$GNGGA,173044.90,4138.0381501,N,07032.4365887,W,1,17,0.8,14.754,M,-29.746,M,0.0,*59
###2023-12-09 12:30:45.923618$GNRMC,173045.10,A,4138.0381536,N,07032.4365877,W,0.02,,091223,,,A*4E
###2023-12-09 12:30:45.926720$GNGGA,173045.10,4138.0381536,N,07032.4365877,W,1,17,0.8,14.761,M,-29.746,M,0.0,*5D
###2023-12-09 12:30:45.928767$GPGSA,A,3,03,04,16,26,28,29,31,32,,,,,1.4,0.8,1.2*3A
###2023-12-09 12:30:45.930542$GLGSA,A,3,71,72,73,75,,,,,,,,,1.4,0.8,1.2*25
###2023-12-09 12:30:45.932183$GAGSA,A,3,21,27,,,,,,,,,,,1.4,0.8,1.2*2B
###2023-12-09 12:30:45.933873$GBGSA,A,3,14,26,33,,,,,,,,,,1.4,0.8,1.2*2F
###2023-12-09 12:30:45.936381$GPGSV,2,1,08,03,39,280,41,04,20,310,35,16,34,206,39,26,64,206,45*7B
###2023-12-09 12:30:45.938900$GPGSV,2,2,08,28,60,053,43,29,25,076,43,31,73,353,41,32,32,133,48*7D
###2023-12-09 12:30:45.941399$GLGSV,1,1,04,71,59,168,48,72,64,313,40,73,50,032,46,75,20,239,41*65
###2023-12-09 12:30:45.943339$GAGSV,1,1,02,21,76,178,39,27,43,050,44,,,,,,,,*6B
###2023-12-09 12:30:45.945549$GBGSV,1,1,03,14,57,199,44,26,36,056,44,33,63,258,37,,,,*52
###2023-12-09 12:30:45.946879$GNVTG,,T,,M,0.02,N,0.04,K,A*3B
###2023-12-09 12:30:45.948730$GNGST,173045.10,31.000,,,,0.100,0.100,0.260*54
###2023-12-09 12:30:45.950190$GNZDA,173045.10,09,12,2023,00,00*74
###2023-12-09 12:30:45.951004$GNEBP,,,,,,M*13
###2023-12-09 12:30:46.124554$GNGGA,173045.30,4138.0381541,N,07032.4365853,W,1,17,0.8,14.772,M,-29.746,M,0.0,*5B
###2023-12-09 12:30:46.324901$GNGGA,173045.50,4138.0381560,N,07032.4365821,W,1,17,0.8,14.781,M,-29.746,M,0.0,*57
###2023-12-09 12:30:46.524095$GNGGA,173045.70,4138.0381575,N,07032.4365816,W,1,17,0.8,14.785,M,-29.746,M,0.0,*51
###2023-12-09 12:30:46.723966$GNGGA,173045.90,4138.0381586,N,07032.4365785,W,1,17,0.8,14.797,M,-29.746,M,0.0,*55
###2023-12-09 12:30:46.927442$GNRMC,173046.10,A,4138.0381603,N,07032.4365755,W,0.06,,091223,,,A*43
###2023-12-09 12:30:46.930367$GNGGA,173046.10,4138.0381603,N,07032.4365755,W,1,17,0.8,14.805,M,-29.746,M,0.0,*59
###2023-12-09 12:30:46.932306$GPGSA,A,3,03,04,16,26,28,29,31,32,,,,,1.4,0.8,1.2*3A
###2023-12-09 12:30:46.933946$GLGSA,A,3,71,72,73,75,,,,,,,,,1.4,0.8,1.2*25
###2023-12-09 12:30:46.935468$GAGSA,A,3,21,27,,,,,,,,,,,1.4,0.8,1.2*2B
###2023-12-09 12:30:46.937032$GBGSA,A,3,14,26,33,,,,,,,,,,1.4,0.8,1.2*2F
###2023-12-09 12:30:46.939422$GPGSV,2,1,08,03,39,280,41,04,20,310,36,16,34,206,39,26,64,206,45*78
###2023-12-09 12:30:46.941818$GPGSV,2,2,08,28,60,053,44,29,25,076,43,31,73,353,42,32,32,133,49*78
###2023-12-09 12:30:46.944229$GLGSV,1,1,04,71,59,168,48,72,64,313,40,73,50,032,46,75,20,239,41*65
###2023-12-09 12:30:46.946524$GAGSV,1,1,02,21,76,178,40,27,43,050,45,,,,,,,,*64
###2023-12-09 12:30:46.948652$GBGSV,1,1,03,14,57,199,44,26,36,056,45,33,63,258,37,,,,*53
###2023-12-09 12:30:46.949848$GNVTG,,T,,M,0.06,N,0.11,K,A*3B
###2023-12-09 12:30:46.951556$GNGST,173046.10,31.000,,,,0.100,0.099,0.250*55
###2023-12-09 12:30:46.952932$GNZDA,173046.10,09,12,2023,00,00*77
###2023-12-09 12:30:46.953621$GNEBP,,,,,,M*13
###2023-12-09 12:30:47.125012$GNGGA,173046.30,4138.0381627,N,07032.4365712,W,1,17,0.8,14.817,M,-29.746,M,0.0,*5D
###2023-12-09 12:30:47.324986$GNGGA,173046.50,4138.0381653,N,07032.4365692,W,1,17,0.8,14.821,M,-29.746,M,0.0,*54
