###2023-12-09 13:44:35.020393$GAGSV,1,1,02,04,43,308,45,27,19,051,41,,,,,,,,*6F
###2023-12-09 13:44:35.022758$GBGSV,1,1,04,12,19,123,42,24,59,051,47,25,54,281,43,35,16,053,40*66
###2023-12-09 13:44:35.024089$GNVTG,243.17,T,,M,0.02,N,0.04,K,A*26
###2023-12-09 13:44:35.025697$GNGST,184434.10,7.000,,,,0.200,0.110,0.300*6E
###2023-12-09 13:44:35.027002$GNZDA,184434.10,09,12,2023,00,00*7E
###2023-12-09 13:44:35.027642$GNEBP,,,,,,M*13
###2023-12-09 13:44:35.199469$GNGGA,184434.30,4138.0390653,N,07032.4389041,W,1,17,0.8,13.762,M,-29.746,M,0.0,*5E
###2023-12-09 13:44:35.398310$GNGGA,184434.50,4138.0390651,N,07032.4389038,W,1,16,0.8,13.766,M,-29.746,M,0.0,*51
###2023-12-09 13:44:35.598320$GNGGA,184434.70,4138.0390632,N,07032.4389048,W,1,16,0.8,13.768,M,-29.746,M,0.0,*5F
###2023-12-09 13:44:35.799824$GNGGA,184434.90,4138.0390616,N,07032.4389048,W,1,16,0.8,13.769,M,-29.746,M,0.0,*56
###2023-12-09 13:44:36.002602$GNRMC,184435.10,A,4138.0390601,N,07032.4389060,W,0.00,243.17,091223,,,A*51
###2023-12-09 13:44:36.005488$GNGGA,184435.10,4138.0390601,N,07032.4389060,W,1,16,0.8,13.766,M,-29.746,M,0.0,*5C
###2023-12-09 13:44:36.007232$GPGSA,A,3,04,16,26,28,29,31,,,,,,,1.4,0.8,1.1*3B
###2023-12-09 13:44:36.008818$GLGSA,A,3,65,73,75,83,,,,,,,,,1.4,0.8,1.1*2D
###2023-12-09 13:44:36.010270$GAGSA,A,3,04,27,,,,,,,,,,,1.4,0.8,1.1*2F
###2023-12-09 13:44:36.011867$GBGSA,A,3,12,24,25,35,,,,,,,,,1.4,0.8,1.1*29
###2023-12-09 13:44:36.014201$GPGSV,2,1,06,04,50,305,46,16,71,227,41,26,79,041,40,28,35,088,42*7B
###2023-12-09 13:44:36.015968$GPGSV,2,2,06,29,18,043,42,31,56,072,50,,,,,,,,*7D
###2023-12-09 13:44:36.018308$GLGSV,1,1,04,65,42,314,44,73,19,055,44,75,46,277,45,83,16,043,36*63
###2023-12-09 13:44:36.020075$GAGSV,1,1,02,04,43,308,45,27,19,051,41,,,,,,,,*6F
###2023-12-09 13:44:36.022419$GBGSV,1,1,04,12,19,123,42,24,59,051,47,25,54,281,43,35,16,053,41*67
###2023-12-09 13:44:36.023769$GNVTG,243.17,T,,M,0.00,N,0.00,K,A*20
###2023-12-09 13:44:36.025385$GNGST,184435.10,6.500,,,,0.200,0.110,0.300*6B
###2023-12-09 13:44:36.026689$GNZDA,184435.10,09,12,2023,00,00*7F
###2023-12-09 13:44:36.027333$GNEBP,,,,,,M*13
###2023-12-09 13:44:36.200828$GNGGA,184435.30,4138.0390600,N,07032.4389060,W,1,16,0.8,13.772,M,-29.746,M,0.0,*5A
###2023-12-09 13:44:36.406779$GNGGA,184435.50,4138.0390588,N,07032.4389057,W,1,16,0.8,13.773,M,-29.746,M,0.0,*5A
###2023-12-09 13:44:36.598219$GNGGA,184435.70,4138.0390590,N,07032.4389056,W,1,16,0.8,13.777,M,-29.746,M,0.0,*54
###2023-12-09 13:44:36.800063$GNGGA,184435.90,4138.0390583,N,07032.4389066,W,1,17,0.8,13.773,M,-29.746,M,0.0,*5E
###2023-12-09 13:44:37.000765$GNRMC,184436.10,A,4138.0390588,N,07032.4389063,W,0.02,243.17,091223,,,A*51
###2023-12-09 13:44:37.003661$GNGGA,184436.10,4138.0390588,N,07032.4389063,W,1,17,0.8,13.776,M,-29.746,M,0.0,*5E
###2023-12-09 13:44:37.005393$GPGSA,A,3,04,16,26,28,29,31,,,,,,,1.3,0.8,1.1*3C
###2023-12-09 13:44:37.007059$GLGSA,A,3,65,73,74,75,83,,,,,,,,1.3,0.8,1.1*29
###2023-12-09 13:44:37.008518$GAGSA,A,3,04,27,,,,,,,,,,,1.3,0.8,1.1*28
###2023-12-09 13:44:37.010098$GBGSA,A,3,12,24,25,35,,,,,,,,,1.3,0.8,1.1*2E
###2023-12-09 13:44:37.012445$GPGSV,2,1,06,04,50,305,46,16,71,227,42,26,79,041,40,28,35,088,42*78
###2023-12-09 13:44:37.014195$GPGSV,2,2,06,29,18,043,43,31,56,072,50,,,,,,,,*7C
###2023-12-09 13:44:37.016529$GLGSV,2,1,05,65,42,314,44,73,19,055,44,74,56,021,35,75,46,277,46*69
###2023-12-09 13:44:37.017985$GLGSV,2,2,05,83,16,043,36,,,,,,,,,,,,*5E
###2023-12-09 13:44:37.019769$GAGSV,1,1,02,04,43,308,45,27,19,051,41,,,,,,,,*6F
###2023-12-09 13:44:37.022082$GBGSV,1,1,04,12,19,123,42,24,59,051,47,25,54,281,43,35,16,052,40*67
###2023-12-09 13:44:37.023415$GNVTG,243.17,T,,M,0.02,N,0.04,K,A*26
###2023-12-09 13:44:37.025027$GNGST,184436.10,7.200,,,,0.200,0.110,0.300*6E
###2023-12-09 13:44:37.026312$GNZDA,184436.10,09,12,2023,00,00*7C
###2023-12-09 13:44:37.026958$GNEBP,,,,,,M*13
###2023-12-09 13:44:37.199448$GNGGA,184436.30,4138.0390599,N,07032.4389060,W,1,18,0.8,13.780,M,-29.746,M,0.0,*59
###2023-12-09 13:44:37.398123$GNGGA,184436.50,4138.0390603,N,07032.4389070,W,1,18,0.8,13.778,M,-29.746,M,0.0,*59
###2023-12-09 13:44:37.598381$GNGGA,184436.70,4138.0390607,N,07032.4389088,W,1,18,0.8,13.775,M,-29.746,M,0.0,*55
###2023-12-09 13:44:37.800638$GNGGA,184436.90,4138.0390613,N,07032.4389070,W,1,18,0.8,13.777,M,-29.746,M,0.0,*5B
###2023-12-09 13:44:38.002912$GNRMC,184437.10,A,4138.0390627,N,07032.4389062,W,0.02,243.17,091223,,,A*57
###2023-12-09 13:44:38.005811$GNGGA,184437.10,4138.0390627,N,07032.4389062,W,1,18,0.8,13.782,M,-29.746,M,0.0,*5C
###2023-12-09 13:44:38.007577$GPGSA,A,3,04,16,26,28,29,31,,,,,,,1.3,0.8,1.1*3C
###2023-12-09 13:44:38.009292$GLGSA,A,3,65,72,73,74,75,83,,,,,,,1.3,0.8,1.1*2C
###2023-12-09 13:44:38.010758$GAGSA,A,3,04,27,,,,,,,,,,,1.3,0.8,1.1*28
###2023-12-09 13:44:38.012343$GBGSA,A,3,12,24,25,35,,,,,,,,,1.3,0.8,1.1*2E
###2023-12-09 13:44:38.014669$GPGSV,2,1,06,04,50,305,46,16,71,227,42,26,79,041,40,28,35,088,43*79
###2023-12-09 13:44:38.016421$GPGSV,2,2,06,29,18,043,42,31,56,072,50,,,,,,,,*7D
###2023-12-09 13:44:38.018761$GLGSV,2,1,06,65,42,313,44,72,58,215,35,73,19,055,44,74,56,021,36*66
###2023-12-09 13:44:38.020499$GLGSV,2,2,06,75,46,277,45,83,16,043,37,,,,,,,,*6F
###2023-12-09 13:44:38.022239$GAGSV,1,1,02,04,43,308,45,27,19,051,40,,,,,,,,*6E
###2023-12-09 13:44:38.024572$GBGSV,1,1,04,12,19,123,42,24,59,051,47,25,54,281,43,35,16,052,40*67
###2023-12-09 13:44:38.025897$GNVTG,243.17,T,,M,0.02,N,0.04,K,A*26
###2023-12-09 13:44:38.027519$GNGST,184437.10,7.200,,,,0.200,0.110,0.300*6F
###2023-12-09 13:44:38.028804$GNZDA,184437.10,09,12,2023,00,00*7D
###2023-12-09 13:44:38.029441$GNEBP,,,,,,M*13
###2023-12-09 13:44:38.198381$GNGGA,184437.30,4138.0390629,N,07032.4389058,W,1,18,0.8,13.784,M,-29.746,M,0.0,*5F
###2023-12-09 13:44:38.398663$GNGGA,184437.50,4138.0390639,N,07032.4389048,W,1,18,0.8,13.789,M,-29.746,M,0.0,*54
###2023-12-09 13:44:38.599142$GNGGA,184437.70,4138.0390645,N,07032.4389054,W,1,18,0.8,13.788,M,-29.746,M,0.0,*51
###2023-12-09 13:44:38.802621$GNGGA,184437.90,4138.0390664,N,07032.4389044,W,1,18,0.8,13.793,M,-29.746,M,0.0,*57
###2023-12-09 13:44:39.002665$GNRMC,184438.10,A,4138.0390667,N,07032.4389046,W,0.04,243.17,091223,,,A*5C
###2023-12-09 13:44:39.005532$GNGGA,184438.10,4138.0390667,N,07032.4389046,W,1,18,0.8,13.793,M,-29.746,M,0.0,*51
###2023-12-09 13:44:39.007270$GPGSA,A,3,04,16,26,28,29,31,,,,,,,1.3,0.8,1.1*3C
###2023-12-09 13:44:39.008977$GLGSA,A,3,65,72,73,74,75,83,,,,,,,1.3,0.8,1.1*2C
###2023-12-09 13:44:39.010423$GAGSA,A,3,04,27,,,,,,,,,,,1.3,0.8,1.1*28
###2023-12-09 13:44:39.012009$GBGSA,A,3,12,24,25,35,,,,,,,,,1.3,0.8,1.1*2E
###2023-12-09 13:44:39.014329$GPGSV,2,1,06,04,50,305,46,16,71,227,42,26,79,041,40,28,35,088,43*79
###2023-12-09 13:44:39.016091$GPGSV,2,2,06,29,18,043,42,31,56,072,50,,,,,,,,*7D
###2023-12-09 13:44:39.018415$GLGSV,2,1,06,65,42,313,44,72,58,215,35,73,19,055,44,74,56,021,36*66
###2023-12-09 13:44:39.020173$GLGSV,2,2,06,75,46,277,45,83,16,043,37,,,,,,,,*6F
###2023-12-09 13:44:39.021907$GAGSV,1,1,02,04,43,308,45,27,19,051,40,,,,,,,,*6E
###2023-12-09 13:44:39.024231$GBGSV,1,1,04,12,19,123,42,24,59,051,47,25,54,281,43,35,16,052,40*67
###2023-12-09 13:44:39.025557$GNVTG,243.17,T,,M,0.04,N,0.07,K,A*23
###2023-12-09 13:44:39.027182$GNGST,184438.10,7.400,,,,0.200,0.110,0.300*66
###2023-12-09 13:44:39.028474$GNZDA,184438.10,09,12,2023,00,00*72
###2023-12-09 13:44:39.029108$GNEBP,,,,,,M*13
###2023-12-09 13:44:39.203921$GNGGA,184438.30,4138.0390686,N,07032.4389046,W,1,18,0.8,13.795,M,-29.746,M,0.0,*5A
###2023-12-09 13:44:39.399694$GNGGA,184438.50,4138.0390705,N,07032.4389039,W,1,18,0.8,13.796,M,-29.746,M,0.0,*5D
###2023-12-09 13:44:39.600324$GNGGA,184438.70,4138.0390737,N,07032.4389034,W,1,18,0.8,13.797,M,-29.746,M,0.0,*52
###2023-12-09 13:44:39.799955$GNGGA,184438.90,4138.0390759,N,07032.4389024,W,1,18,0.8,13.797,M,-29.746,M,0.0,*55
###2023-12-09 13:44:40.000816$GNRMC,184439.10,A,4138.0390790,N,07032.4389014,W,0.02,243.17,091223,,,A*55
###2023-12-09 13:44:40.003688$GNGGA,184439.10,4138.0390790,N,07032.4389014,W,1,18,0.8,13.804,M,-29.746,M,0.0,*5F
###2023-12-09 13:44:40.005425$GPGSA,A,3,04,16,26,28,29,31,,,,,,,1.3,0.8,1.1*3C
###2023-12-09 13:44:40.007409$GLGSA,A,3,65,72,73,74,75,83,,,,,,,1.3,0.8,1.1*2C
###2023-12-09 13:44:40.008880$GAGSA,A,3,04,27,,,,,,,,,,,1.3,0.8,1.1*28
###2023-12-09 13:44:40.010457$GBGSA,A,3,12,24,25,35,,,,,,,,,1.3,0.8,1.1*2E
###2023-12-09 13:44:40.012799$GPGSV,2,1,06,04,50,305,46,16,71,227,42,26,79,041,40,28,35,088,43*79
###2023-12-09 13:44:40.014544$GPGSV,2,2,06,29,18,043,42,31,56,072,50,,,,,,,,*7D
###2023-12-09 13:44:40.016882$GLGSV,2,1,06,65,42,313,44,72,58,215,36,73,19,055,44,74,56,021,36*65
###2023-12-09 13:44:40.018639$GLGSV,2,2,06,75,46,277,46,83,16,043,37,,,,,,,,*6C
###2023-12-09 13:44:40.020378$GAGSV,1,1,02,04,43,308,45,27,19,051,40,,,,,,,,*6E
