###2023-12-09 13:00:07.992890$GNVTG,262.74,T,,M,3.46,N,6.41,K,A*24
###2023-12-09 13:00:07.994588$GNGST,180007.10,18.000,,,,0.081,0.070,0.160*58
###2023-12-09 13:00:07.995892$GNZDA,180007.10,09,12,2023,00,00*7E
###2023-12-09 13:00:07.996533$GNEBP,,,,,,M*13
###2023-12-09 13:00:08.164403$GNGGA,180007.30,4138.0207578,N,07032.3118166,W,1,24,0.6,13.037,M,-29.744,M,0.0,*59
###2023-12-09 13:00:08.364285$GNGGA,180007.50,4138.0207456,N,07032.3120806,W,1,24,0.6,13.016,M,-29.745,M,0.0,*54
###2023-12-09 13:00:08.565289$GNGGA,180007.70,4138.0207487,N,07032.3123504,W,1,24,0.6,13.024,M,-29.745,M,0.0,*57
###2023-12-09 13:00:08.766220$GNGGA,180007.90,4138.0207457,N,07032.3126188,W,1,24,0.6,13.042,M,-29.745,M,0.0,*51
###2023-12-09 13:00:08.974177$GNRMC,180008.10,A,4138.0207203,N,07032.3128855,W,3.65,260.58,091223,,,A*5C
###2023-12-09 13:00:08.977059$GNGGA,180008.10,4138.0207203,N,07032.3128855,W,1,24,0.6,13.049,M,-29.745,M,0.0,*5D
###2023-12-09 13:00:08.978924$GPGSA,A,3,03,04,16,26,28,29,31,32,,,,,1.1,0.6,0.9*3B
###2023-12-09 13:00:08.980637$GLGSA,A,3,65,71,72,73,74,75,,,,,,,1.1,0.6,0.9*24
###2023-12-09 13:00:08.982212$GAGSA,A,3,04,19,21,27,,,,,,,,,1.1,0.6,0.9*26
###2023-12-09 13:00:08.983872$GBGSA,A,3,14,24,25,26,33,,,,,,,,1.1,0.6,0.9*2F
###2023-12-09 13:00:08.986203$GPGSV,2,1,08,03,35,262,43,04,32,311,42,16,49,212,45,26,79,210,48*79
###2023-12-09 13:00:08.988542$GPGSV,2,2,08,28,49,070,45,29,25,061,42,31,69,036,47,32,19,140,42*7C
###2023-12-09 13:00:08.990885$GLGSV,2,1,06,65,23,328,41,71,42,172,46,72,73,273,45,73,37,041,45*6A
###2023-12-09 13:00:08.992631$GLGSV,2,2,06,74,70,334,43,75,31,252,42,,,,,,,,*67
###2023-12-09 13:00:08.994970$GAGSV,1,1,04,04,29,312,40,19,84,219,40,21,86,124,45,27,33,048,43*68
###2023-12-09 13:00:08.997294$GBGSV,2,1,05,14,44,193,44,24,74,022,48,25,40,261,43,26,27,062,43*69
###2023-12-09 13:00:08.998760$GBGSV,2,2,05,33,58,234,47,,,,,,,,,,,,*55
###2023-12-09 13:00:09.000081$GNVTG,260.58,T,,M,3.65,N,6.77,K,A*2C
###2023-12-09 13:00:09.001724$GNGST,180008.10,18.000,,,,0.081,0.069,0.160*5F
###2023-12-09 13:00:09.003029$GNZDA,180008.10,09,12,2023,00,00*71
###2023-12-09 13:00:09.003669$GNEBP,,,,,,M*13
###2023-12-09 13:00:09.166324$GNGGA,180008.30,4138.0207015,N,07032.3131589,W,1,24,0.6,13.035,M,-29.745,M,0.0,*55
###2023-12-09 13:00:09.365102$GNGGA,180008.50,4138.0207236,N,07032.3134346,W,1,24,0.6,13.042,M,-29.745,M,0.0,*50
###2023-12-09 13:00:09.564485$GNGGA,180008.70,4138.0207535,N,07032.3137110,W,1,24,0.6,13.056,M,-29.745,M,0.0,*51
###2023-12-09 13:00:09.765395$GNGGA,180008.90,4138.0207584,N,07032.3139786,W,1,24,0.6,13.037,M,-29.745,M,0.0,*55
###2023-12-09 13:00:09.966215$GNRMC,180009.10,A,4138.0207626,N,07032.3142442,W,3.54,273.67,091223,,,A*54
###2023-12-09 13:00:09.969091$GNGGA,180009.10,4138.0207626,N,07032.3142442,W,1,24,0.6,13.029,M,-29.745,M,0.0,*5F
###2023-12-09 13:00:09.970960$GPGSA,A,3,03,04,16,26,28,29,31,32,,,,,1.1,0.6,0.9*3B
###2023-12-09 13:00:09.972680$GLGSA,A,3,65,71,72,73,74,75,,,,,,,1.1,0.6,0.9*24
###2023-12-09 13:00:09.974264$GAGSA,A,3,04,19,21,27,,,,,,,,,1.1,0.6,0.9*26
###2023-12-09 13:00:09.975929$GBGSA,A,3,14,24,25,26,33,,,,,,,,1.1,0.6,0.9*2F
###2023-12-09 13:00:09.978256$GPGSV,2,1,08,03,35,262,42,04,32,311,40,16,49,212,46,26,79,210,47*76
###2023-12-09 13:00:09.980607$GPGSV,2,2,08,28,49,070,44,29,25,061,40,31,69,036,46,32,19,140,43*7F
###2023-12-09 13:00:09.982956$GLGSV,2,1,06,65,24,327,39,71,41,173,46,72,73,271,45,73,36,041,45*6C
###2023-12-09 13:00:09.984702$GLGSV,2,2,06,74,70,336,42,75,32,252,42,,,,,,,,*67
###2023-12-09 13:00:09.987046$GAGSV,1,1,04,04,29,312,38,19,84,219,40,21,86,124,46,27,33,048,42*65
###2023-12-09 13:00:09.989375$GBGSV,2,1,05,14,44,193,45,24,74,022,49,25,40,261,44,26,27,062,42*6F
###2023-12-09 13:00:09.990845$GBGSV,2,2,05,33,58,234,48,,,,,,,,,,,,*5A
###2023-12-09 13:00:09.992168$GNVTG,273.67,T,,M,3.54,N,6.55,K,A*20
###2023-12-09 13:00:09.993818$GNGST,180009.10,18.000,,,,0.081,0.070,0.160*56
###2023-12-09 13:00:09.995124$GNZDA,180009.10,09,12,2023,00,00*70
###2023-12-09 13:00:09.995763$GNEBP,,,,,,M*13
###2023-12-09 13:00:10.161926$GNGGA,180009.30,4138.0207974,N,07032.3145093,W,1,24,0.6,13.045,M,-29.745,M,0.0,*50
###2023-12-09 13:00:10.364236$GNGGA,180009.50,4138.0208466,N,07032.3147715,W,1,24,0.6,13.062,M,-29.745,M,0.0,*59
###2023-12-09 13:00:10.563328$GNGGA,180009.70,4138.0208724,N,07032.3150328,W,1,24,0.6,13.063,M,-29.745,M,0.0,*53
###2023-12-09 13:00:10.768133$GNGGA,180009.90,4138.0208746,N,07032.3152892,W,1,24,0.6,13.062,M,-29.745,M,0.0,*50
###2023-12-09 13:00:10.965210$GNRMC,180010.10,A,4138.0208779,N,07032.3155444,W,3.46,272.01,091223,,,A*5A
###2023-12-09 13:00:10.968176$GNGGA,180010.10,4138.0208779,N,07032.3155444,W,1,24,0.6,13.053,M,-29.745,M,0.0,*5E
###2023-12-09 13:00:10.970046$GPGSA,A,3,03,04,16,26,28,29,31,32,,,,,1.1,0.6,0.9*3B
###2023-12-09 13:00:10.971771$GLGSA,A,3,65,71,72,73,74,75,,,,,,,1.1,0.6,0.9*24
###2023-12-09 13:00:10.973359$GAGSA,A,3,04,19,21,27,,,,,,,,,1.1,0.6,0.9*26
###2023-12-09 13:00:10.975015$GBGSA,A,3,14,24,25,26,33,,,,,,,,1.1,0.6,0.9*2F
###2023-12-09 13:00:10.977340$GPGSV,2,1,08,03,35,262,42,04,32,311,40,16,49,212,46,26,79,210,47*76
###2023-12-09 13:00:10.979674$GPGSV,2,2,08,28,49,070,45,29,25,061,41,31,69,036,47,32,19,140,43*7E
###2023-12-09 13:00:10.981994$GLGSV,2,1,06,65,24,327,39,71,41,173,48,72,73,271,45,73,36,041,45*62
###2023-12-09 13:00:10.983748$GLGSV,2,2,06,74,70,336,42,75,32,252,42,,,,,,,,*67
###2023-12-09 13:00:10.986069$GAGSV,1,1,04,04,29,312,38,19,84,219,40,21,86,124,46,27,33,048,42*65
###2023-12-09 13:00:10.988402$GBGSV,2,1,05,14,44,193,44,24,74,022,48,25,40,261,44,26,27,062,42*6F
###2023-12-09 13:00:10.989848$GBGSV,2,2,05,33,58,234,47,,,,,,,,,,,,*55
###2023-12-09 13:00:10.991177$GNVTG,272.01,T,,M,3.46,N,6.41,K,A*27
###2023-12-09 13:00:10.992827$GNGST,180010.10,18.000,,,,0.081,0.070,0.160*5E
###2023-12-09 13:00:10.994120$GNZDA,180010.10,09,12,2023,00,00*78
###2023-12-09 13:00:10.994766$GNEBP,,,,,,M*13
###2023-12-09 13:00:11.163335$GNGGA,180010.30,4138.0208967,N,07032.3157991,W,1,24,0.6,13.038,M,-29.745,M,0.0,*57
###2023-12-09 13:00:11.363075$GNGGA,180010.50,4138.0209208,N,07032.3160456,W,1,24,0.6,13.035,M,-29.745,M,0.0,*5D
###2023-12-09 13:00:11.563112$GNGGA,180010.70,4138.0209372,N,07032.3162914,W,1,24,0.6,13.045,M,-29.745,M,0.0,*5D
###2023-12-09 13:00:11.765387$GNGGA,180010.90,4138.0209571,N,07032.3165398,W,1,24,0.6,13.055,M,-29.745,M,0.0,*5E
###2023-12-09 13:00:11.965651$GNRMC,180011.10,A,4138.0209978,N,07032.3167880,W,3.48,285.68,091223,,,A*59
###2023-12-09 13:00:11.969108$GNGGA,180011.10,4138.0209978,N,07032.3167880,W,1,24,0.6,13.064,M,-29.745,M,0.0,*50
###2023-12-09 13:00:11.971358$GPGSA,A,3,03,04,16,26,28,29,31,32,,,,,1.1,0.6,0.9*3B
###2023-12-09 13:00:11.973436$GLGSA,A,3,65,71,72,73,74,75,,,,,,,1.1,0.6,0.9*24
###2023-12-09 13:00:11.975391$GAGSA,A,3,04,19,21,27,,,,,,,,,1.1,0.6,0.9*26
###2023-12-09 13:00:11.977372$GBGSA,A,3,14,24,25,26,33,,,,,,,,1.1,0.6,0.9*2F
###2023-12-09 13:00:11.980182$GPGSV,2,1,08,03,35,262,40,04,32,311,41,16,49,212,45,26,79,210,48*79
###2023-12-09 13:00:11.983017$GPGSV,2,2,08,28,49,070,45,29,25,061,41,31,69,036,47,32,19,140,43*7E
###2023-12-09 13:00:11.985811$GLGSV,2,1,06,65,24,327,38,71,41,173,47,72,73,271,45,73,36,041,45*6C
###2023-12-09 13:00:11.987925$GLGSV,2,2,06,74,70,336,42,75,32,252,42,,,,,,,,*67
###2023-12-09 13:00:11.990726$GAGSV,1,1,04,04,29,312,39,19,84,219,40,21,86,124,46,27,33,048,42*64
###2023-12-09 13:00:11.993512$GBGSV,2,1,05,14,44,193,45,24,74,022,49,25,40,261,45,26,27,062,43*6F
###2023-12-09 13:00:11.995273$GBGSV,2,2,05,33,58,234,48,,,,,,,,,,,,*5A
###2023-12-09 13:00:11.996864$GNVTG,285.68,T,,M,3.48,N,6.44,K,A*2B
###2023-12-09 13:00:11.998901$GNGST,180011.10,18.000,,,,0.081,0.070,0.160*5F
###2023-12-09 13:00:12.000457$GNZDA,180011.10,09,12,2023,00,00*79
###2023-12-09 13:00:12.001222$GNEBP,,,,,,M*13
###2023-12-09 13:00:12.163541$GNGGA,180011.30,4138.0210557,N,07032.3170358,W,1,24,0.6,13.067,M,-29.745,M,0.0,*50
###2023-12-09 13:00:12.363866$GNGGA,180011.50,4138.0211092,N,07032.3172854,W,1,24,0.6,13.059,M,-29.745,M,0.0,*53
###2023-12-09 13:00:12.563807$GNGGA,180011.70,4138.0211575,N,07032.3175346,W,1,24,0.6,13.043,M,-29.745,M,0.0,*59
###2023-12-09 13:00:12.763854$GNGGA,180011.90,4138.0212189,N,07032.3177737,W,1,24,0.6,13.049,M,-29.745,M,0.0,*59
###2023-12-09 13:00:12.965212$GNRMC,180012.10,A,4138.0212987,N,07032.3180020,W,3.34,296.55,091223,,,A*5C
###2023-12-09 13:00:12.968701$GNGGA,180012.10,4138.0212987,N,07032.3180020,W,1,24,0.6,13.064,M,-29.745,M,0.0,*52
###2023-12-09 13:00:12.970952$GPGSA,A,3,03,04,16,26,28,29,31,32,,,,,1.1,0.6,0.9*3B
###2023-12-09 13:00:12.973019$GLGSA,A,3,65,71,72,73,74,75,,,,,,,1.1,0.6,0.9*24
###2023-12-09 13:00:12.974931$GAGSA,A,3,04,19,21,27,,,,,,,,,1.1,0.6,0.9*26
###2023-12-09 13:00:12.976914$GBGSA,A,3,14,24,25,26,33,,,,,,,,1.1,0.6,0.9*2F
###2023-12-09 13:00:12.979722$GPGSV,2,1,08,03,35,262,43,04,32,311,42,16,49,212,47,26,79,210,48*7B
###2023-12-09 13:00:12.982520$GPGSV,2,2,08,28,49,070,45,29,25,061,41,31,69,036,47,32,19,140,43*7E
