###2023-12-09 12:38:08.970217$GBGSV,2,2,05,33,63,252,47,,,,,,,,,,,,*5D
###2023-12-09 12:38:08.971590$GNVTG,280.52,T,,M,0.06,N,0.11,K,A*28
###2023-12-09 12:38:08.973244$GNGST,173808.10,18.000,,,,0.083,0.072,0.170*52
###2023-12-09 12:38:08.974538$GNZDA,173808.10,09,12,2023,00,00*75
###2023-12-09 12:38:08.975198$GNEBP,,,,,,M*13
###2023-12-09 12:38:09.139422$GNGGA,173808.30,4138.0631482,N,07032.3873071,W,1,23,0.7,13.484,M,-29.744,M,0.0,*5E
###2023-12-09 12:38:09.339270$GNGGA,173808.50,4138.0631472,N,07032.3872994,W,1,23,0.7,13.469,M,-29.744,M,0.0,*57
###2023-12-09 12:38:09.539790$GNGGA,173808.70,4138.0631576,N,07032.3873492,W,1,23,0.7,13.454,M,-29.744,M,0.0,*54
###2023-12-09 12:38:09.738832$GNGGA,173808.90,4138.0631677,N,07032.3874124,W,1,23,0.7,13.450,M,-29.744,M,0.0,*53
###2023-12-09 12:38:09.937264$GNRMC,173809.10,A,4138.0631686,N,07032.3874382,W,0.10,280.52,091223,,,A*55
###2023-12-09 12:38:09.940134$GNGGA,173809.10,4138.0631686,N,07032.3874382,W,1,23,0.7,13.451,M,-29.744,M,0.0,*5B
###2023-12-09 12:38:09.941993$GPGSA,A,3,03,04,16,26,28,29,31,32,,,,,1.2,0.7,1.0*31
###2023-12-09 12:38:09.943658$GLGSA,A,3,71,72,73,74,75,,,,,,,,1.2,0.7,1.0*2D
###2023-12-09 12:38:09.945244$GAGSA,A,3,04,19,21,27,,,,,,,,,1.2,0.7,1.0*2C
###2023-12-09 12:38:09.946909$GBGSA,A,3,14,24,25,26,33,,,,,,,,1.2,0.7,1.0*25
###2023-12-09 12:38:09.949250$GPGSV,2,1,08,03,38,275,45,04,23,311,43,16,38,208,42,26,68,207,46*77
###2023-12-09 12:38:09.951605$GPGSV,2,2,08,28,57,058,43,29,25,072,41,31,73,007,47,32,28,135,44*71
###2023-12-09 12:38:09.953937$GLGSV,2,1,05,71,55,169,46,72,67,307,46,73,46,034,46,74,71,296,43*67
###2023-12-09 12:38:09.955404$GLGSV,2,2,05,75,23,242,41,,,,,,,,,,,,*52
###2023-12-09 12:38:09.957733$GAGSV,1,1,04,04,21,311,42,19,82,299,41,21,78,175,44,27,41,049,43*6E
###2023-12-09 12:38:09.960078$GBGSV,2,1,05,14,54,197,45,24,80,351,49,25,33,253,45,26,34,058,44*6F
###2023-12-09 12:38:09.961530$GBGSV,2,2,05,33,63,252,49,,,,,,,,,,,,*53
###2023-12-09 12:38:09.962867$GNVTG,280.52,T,,M,0.10,N,0.18,K,A*26
###2023-12-09 12:38:09.964522$GNGST,173809.10,19.000,,,,0.083,0.072,0.170*52
###2023-12-09 12:38:09.965812$GNZDA,173809.10,09,12,2023,00,00*74
###2023-12-09 12:38:09.966449$GNEBP,,,,,,M*13
###2023-12-09 12:38:10.136924$GNGGA,173809.30,4138.0631632,N,07032.3874378,W,1,23,0.7,13.473,M,-29.744,M,0.0,*53
###2023-12-09 12:38:10.337736$GNGGA,173809.50,4138.0631545,N,07032.3874649,W,1,23,0.7,13.479,M,-29.744,M,0.0,*5B
###2023-12-09 12:38:10.537553$GNGGA,173809.70,4138.0631372,N,07032.3875193,W,1,23,0.7,13.470,M,-29.744,M,0.0,*53
###2023-12-09 12:38:10.735600$GNGGA,173809.90,4138.0631028,N,07032.3875712,W,1,23,0.7,13.451,M,-29.744,M,0.0,*5D
###2023-12-09 12:38:10.938247$GNRMC,173810.10,A,4138.0630522,N,07032.3876215,W,1.30,219.60,091223,,,A*5E
###2023-12-09 12:38:10.941141$GNGGA,173810.10,4138.0630522,N,07032.3876215,W,1,23,0.7,13.458,M,-29.744,M,0.0,*5B
###2023-12-09 12:38:10.943008$GPGSA,A,3,03,04,16,26,28,29,31,32,,,,,1.2,0.7,1.0*31
###2023-12-09 12:38:10.944660$GLGSA,A,3,71,72,73,74,75,,,,,,,,1.2,0.7,1.0*2D
###2023-12-09 12:38:10.946242$GAGSA,A,3,04,19,21,27,,,,,,,,,1.2,0.7,1.0*2C
###2023-12-09 12:38:10.947913$GBGSA,A,3,14,24,25,26,33,,,,,,,,1.2,0.7,1.0*25
###2023-12-09 12:38:10.950250$GPGSV,2,1,08,03,38,275,44,04,23,311,41,16,38,208,44,26,68,207,46*72
###2023-12-09 12:38:10.952599$GPGSV,2,2,08,28,57,058,46,29,25,072,44,31,73,007,47,32,28,135,45*70
###2023-12-09 12:38:10.954941$GLGSV,2,1,05,71,55,169,46,72,67,307,46,73,46,034,47,74,71,296,43*66
###2023-12-09 12:38:10.956391$GLGSV,2,2,05,75,23,242,39,,,,,,,,,,,,*5D
###2023-12-09 12:38:10.958728$GAGSV,1,1,04,04,21,311,39,19,82,299,40,21,78,175,45,27,41,049,44*65
###2023-12-09 12:38:10.961051$GBGSV,2,1,05,14,54,197,44,24,80,351,49,25,33,253,44,26,34,058,44*6F
###2023-12-09 12:38:10.962500$GBGSV,2,2,05,33,63,252,47,,,,,,,,,,,,*5D
###2023-12-09 12:38:10.963826$GNVTG,219.60,T,,M,1.30,N,2.41,K,A*2A
###2023-12-09 12:38:10.965471$GNGST,173810.10,19.000,,,,0.083,0.072,0.170*5A
###2023-12-09 12:38:10.966769$GNZDA,173810.10,09,12,2023,00,00*7C
###2023-12-09 12:38:10.967408$GNEBP,,,,,,M*13
###2023-12-09 12:38:11.136930$GNGGA,173810.30,4138.0629913,N,07032.3876950,W,1,23,0.7,13.481,M,-29.744,M,0.0,*51
###2023-12-09 12:38:11.337515$GNGGA,173810.50,4138.0629123,N,07032.3877759,W,1,23,0.7,13.486,M,-29.744,M,0.0,*5D
###2023-12-09 12:38:11.539052$GNGGA,173810.70,4138.0628255,N,07032.3878190,W,1,23,0.7,13.470,M,-29.744,M,0.0,*59
###2023-12-09 12:38:11.737712$GNGGA,173810.90,4138.0627339,N,07032.3878595,W,1,23,0.7,13.485,M,-29.744,M,0.0,*58
###2023-12-09 12:38:11.939405$GNRMC,173811.10,A,4138.0626276,N,07032.3879356,W,2.33,208.51,091223,,,A*55
###2023-12-09 12:38:11.942261$GNGGA,173811.10,4138.0626276,N,07032.3879356,W,1,23,0.7,13.504,M,-29.744,M,0.0,*5A
###2023-12-09 12:38:11.944141$GPGSA,A,3,03,04,16,26,28,29,31,32,,,,,1.2,0.7,1.0*31
###2023-12-09 12:38:11.945798$GLGSA,A,3,71,72,73,74,75,,,,,,,,1.2,0.7,1.0*2D
###2023-12-09 12:38:11.947411$GAGSA,A,3,04,19,21,27,,,,,,,,,1.2,0.7,1.0*2C
###2023-12-09 12:38:11.949077$GBGSA,A,3,14,24,25,26,33,,,,,,,,1.2,0.7,1.0*25
###2023-12-09 12:38:11.951417$GPGSV,2,1,08,03,38,275,44,04,23,311,40,16,38,208,42,26,68,207,46*75
###2023-12-09 12:38:11.953751$GPGSV,2,2,08,28,57,058,46,29,25,072,44,31,73,007,47,32,28,135,45*70
###2023-12-09 12:38:11.956110$GLGSV,2,1,05,71,55,169,47,72,67,307,46,73,46,034,48,74,71,296,43*68
###2023-12-09 12:38:11.957569$GLGSV,2,2,05,75,23,242,43,,,,,,,,,,,,*50
###2023-12-09 12:38:11.959911$GAGSV,1,1,04,04,21,311,39,19,82,299,40,21,78,175,45,27,41,049,44*65
###2023-12-09 12:38:11.962243$GBGSV,2,1,05,14,54,197,44,24,80,351,48,25,33,253,44,26,34,058,46*6C
###2023-12-09 12:38:11.963716$GBGSV,2,2,05,33,63,252,48,,,,,,,,,,,,*52
###2023-12-09 12:38:11.965045$GNVTG,208.51,T,,M,2.33,N,4.32,K,A*2A
###2023-12-09 12:38:11.966707$GNGST,173811.10,19.000,,,,0.083,0.072,0.170*5B
###2023-12-09 12:38:11.968002$GNZDA,173811.10,09,12,2023,00,00*7D
###2023-12-09 12:38:11.968642$GNEBP,,,,,,M*13
###2023-12-09 12:38:12.139394$GNGGA,173811.30,4138.0625101,N,07032.3879921,W,1,23,0.7,13.487,M,-29.744,M,0.0,*58
###2023-12-09 12:38:12.340482$GNGGA,173811.50,4138.0623990,N,07032.3880100,W,1,23,0.7,13.480,M,-29.744,M,0.0,*52
###2023-12-09 12:38:12.537629$GNGGA,173811.70,4138.0622778,N,07032.3880299,W,1,23,0.7,13.501,M,-29.744,M,0.0,*52
###2023-12-09 12:38:12.737667$GNGGA,173811.90,4138.0621401,N,07032.3880575,W,1,23,0.7,13.499,M,-29.744,M,0.0,*57
###2023-12-09 12:38:12.944365$GNRMC,173812.10,A,4138.0620073,N,07032.3880719,W,2.33,182.87,091223,,,A*54
###2023-12-09 12:38:12.947235$GNGGA,173812.10,4138.0620073,N,07032.3880719,W,1,23,0.7,13.489,M,-29.744,M,0.0,*55
###2023-12-09 12:38:12.949109$GPGSA,A,3,03,04,16,26,28,29,31,32,,,,,1.2,0.7,1.0*31
###2023-12-09 12:38:12.950776$GLGSA,A,3,71,72,73,74,75,,,,,,,,1.2,0.7,1.0*2D
###2023-12-09 12:38:12.952364$GAGSA,A,3,04,19,21,27,,,,,,,,,1.2,0.7,1.0*2C
###2023-12-09 12:38:12.954016$GBGSA,A,3,14,24,25,26,33,,,,,,,,1.2,0.7,1.0*25
###2023-12-09 12:38:12.956378$GPGSV,2,1,08,03,38,275,45,04,23,311,39,16,38,208,44,26,68,207,46*7C
###2023-12-09 12:38:12.958735$GPGSV,2,2,08,28,57,058,45,29,25,072,44,31,73,007,47,32,28,135,42*74
###2023-12-09 12:38:12.961072$GLGSV,2,1,05,71,55,169,46,72,67,307,46,73,46,034,47,74,71,296,43*66
###2023-12-09 12:38:12.962530$GLGSV,2,2,05,75,23,242,44,,,,,,,,,,,,*57
###2023-12-09 12:38:12.964867$GAGSV,1,1,04,04,21,311,39,19,82,299,40,21,78,175,45,27,41,049,43*62
###2023-12-09 12:38:12.967254$GBGSV,2,1,05,14,54,197,44,24,80,351,48,25,33,253,44,26,34,058,45*6F
###2023-12-09 12:38:12.968716$GBGSV,2,2,05,33,63,252,48,,,,,,,,,,,,*52
###2023-12-09 12:38:12.970045$GNVTG,182.87,T,,M,2.33,N,4.32,K,A*20
###2023-12-09 12:38:12.971711$GNGST,173812.10,19.000,,,,0.083,0.072,0.170*58
###2023-12-09 12:38:12.973007$GNZDA,173812.10,09,12,2023,00,00*7E
###2023-12-09 12:38:12.973646$GNEBP,,,,,,M*13
###2023-12-09 12:38:13.136335$GNGGA,173812.30,4138.0618699,N,07032.3880721,W,1,23,0.7,13.508,M,-29.744,M,0.0,*5D
###2023-12-09 12:38:13.338731$GNGGA,173812.50,4138.0617240,N,07032.3880515,W,1,23,0.7,13.504,M,-29.744,M,0.0,*5D
###2023-12-09 12:38:13.538607$GNGGA,173812.70,4138.0615864,N,07032.3880120,W,1,23,0.7,13.494,M,-29.744,M,0.0,*5B
###2023-12-09 12:38:13.736725$GNGGA,173812.90,4138.0614474,N,07032.3879765,W,1,23,0.7,13.519,M,-29.744,M,0.0,*5C
###2023-12-09 12:38:13.939149$GNRMC,173813.10,A,4138.0612908,N,07032.3879385,W,2.84,164.41,091223,,,A*58
###2023-12-09 12:38:13.942034$GNGGA,173813.10,4138.0612908,N,07032.3879385,W,1,23,0.7,13.528,M,-29.744,M,0.0,*5D
###2023-12-09 12:38:13.943909$GPGSA,A,3,03,04,16,26,28,29,31,32,,,,,1.2,0.7,1.0*31
###2023-12-09 12:38:13.945567$GLGSA,A,3,71,72,73,74,75,,,,,,,,1.2,0.7,1.0*2D
###2023-12-09 12:38:13.947183$GAGSA,A,3,04,19,21,27,,,,,,,,,1.2,0.7,1.0*2C
###2023-12-09 12:38:13.948853$GBGSA,A,3,14,24,25,26,33,,,,,,,,1.2,0.7,1.0*25
###2023-12-09 12:38:13.951202$GPGSV,2,1,08,03,38,275,45,04,23,311,40,16,38,208,44,26,68,207,48*7C
