###2023-12-09 13:10:31.991736$GLGSV,2,2,06,74,68,348,43,75,35,257,46,,,,,,,,*60
###2023-12-09 13:10:31.994091$GAGSV,1,1,04,04,32,312,43,19,81,196,40,21,85,078,46,27,30,048,41*69
###2023-12-09 13:10:31.996439$GBGSV,2,1,06,14,39,192,42,24,70,032,49,25,44,266,47,26,23,065,43*67
###2023-12-09 13:10:31.998185$GBGSV,2,2,06,33,55,228,47,35,15,066,44,,,,,,,,*64
###2023-12-09 13:10:31.999526$GNVTG,183.89,T,,M,3.65,N,6.77,K,A*2E
###2023-12-09 13:10:32.001172$GNGST,181031.10,18.000,,,,0.099,0.071,0.170*55
###2023-12-09 13:10:32.002459$GNZDA,181031.10,09,12,2023,00,00*7A
###2023-12-09 13:10:32.003113$GNEBP,,,,,,M*13
###2023-12-09 13:10:32.169504$GNGGA,181031.30,4138.0205165,N,07032.2606979,W,1,24,0.7,12.931,M,-29.744,M,0.0,*57
###2023-12-09 13:10:32.368770$GNGGA,181031.50,4138.0203200,N,07032.2606967,W,1,24,0.7,12.928,M,-29.744,M,0.0,*50
###2023-12-09 13:10:32.570543$GNGGA,181031.70,4138.0201234,N,07032.2607183,W,1,24,0.7,12.944,M,-29.744,M,0.0,*5E
###2023-12-09 13:10:32.770518$GNGGA,181031.90,4138.0199281,N,07032.2607315,W,1,24,0.7,12.942,M,-29.744,M,0.0,*57
###2023-12-09 13:10:32.976856$GNRMC,181032.10,A,4138.0197327,N,07032.2607431,W,3.50,180.40,091223,,,A*5E
###2023-12-09 13:10:32.979738$GNGGA,181032.10,4138.0197327,N,07032.2607431,W,1,24,0.7,12.918,M,-29.744,M,0.0,*51
###2023-12-09 13:10:32.981540$GPGSA,A,3,03,04,16,26,28,29,31,,,,,,1.2,0.7,1.0*30
###2023-12-09 13:10:32.983275$GLGSA,A,3,65,71,72,73,74,75,,,,,,,1.2,0.7,1.0*2E
###2023-12-09 13:10:32.984871$GAGSA,A,3,04,19,21,27,,,,,,,,,1.2,0.7,1.0*2C
###2023-12-09 13:10:32.986604$GBGSA,A,3,14,24,25,26,33,35,,,,,,,1.2,0.7,1.0*23
###2023-12-09 13:10:32.988946$GPGSV,2,1,07,03,33,257,42,04,36,311,45,16,54,214,45,26,84,210,48*7C
###2023-12-09 13:10:32.991003$GPGSV,2,2,07,28,46,074,46,29,24,057,43,31,67,046,48,,,,*42
###2023-12-09 13:10:32.993338$GLGSV,2,1,06,65,27,326,42,71,36,173,43,72,72,254,46,73,32,044,45*63
###2023-12-09 13:10:32.995099$GLGSV,2,2,06,74,68,348,43,75,35,257,45,,,,,,,,*63
###2023-12-09 13:10:32.997431$GAGSV,1,1,04,04,32,312,42,19,81,196,40,21,85,078,46,27,30,048,41*68
###2023-12-09 13:10:32.999785$GBGSV,2,1,06,14,39,192,43,24,70,032,49,25,44,266,46,26,23,065,43*67
###2023-12-09 13:10:33.001538$GBGSV,2,2,06,33,55,228,47,35,15,066,45,,,,,,,,*65
###2023-12-09 13:10:33.002877$GNVTG,180.40,T,,M,3.50,N,6.48,K,A*22
###2023-12-09 13:10:33.004528$GNGST,181032.10,18.000,,,,0.100,0.071,0.170*57
###2023-12-09 13:10:33.005822$GNZDA,181032.10,09,12,2023,00,00*79
###2023-12-09 13:10:33.006463$GNEBP,,,,,,M*13
###2023-12-09 13:10:33.172647$GNGGA,181032.30,4138.0195383,N,07032.2607609,W,1,24,0.7,12.928,M,-29.744,M,0.0,*55
###2023-12-09 13:10:33.369513$GNGGA,181032.50,4138.0193380,N,07032.2607897,W,1,24,0.7,12.946,M,-29.744,M,0.0,*57
###2023-12-09 13:10:33.569544$GNGGA,181032.70,4138.0191403,N,07032.2607945,W,1,24,0.7,12.932,M,-29.744,M,0.0,*56
###2023-12-09 13:10:33.771189$GNGGA,181032.90,4138.0189418,N,07032.2607815,W,1,24,0.7,12.923,M,-29.744,M,0.0,*5F
###2023-12-09 13:10:33.973336$GNRMC,181033.10,A,4138.0187419,N,07032.2607846,W,3.60,182.74,091223,,,A*5E
###2023-12-09 13:10:33.976216$GNGGA,181033.10,4138.0187419,N,07032.2607846,W,1,24,0.7,12.932,M,-29.744,M,0.0,*5F
###2023-12-09 13:10:33.978007$GPGSA,A,3,03,04,16,26,28,29,31,,,,,,1.2,0.7,1.0*30
###2023-12-09 13:10:33.979731$GLGSA,A,3,65,71,72,73,74,75,,,,,,,1.2,0.7,1.0*2E
###2023-12-09 13:10:33.981311$GAGSA,A,3,04,19,21,27,,,,,,,,,1.2,0.7,1.0*2C
###2023-12-09 13:10:33.983033$GBGSA,A,3,14,24,25,26,33,35,,,,,,,1.2,0.7,1.0*23
###2023-12-09 13:10:33.985361$GPGSV,2,1,07,03,33,257,41,04,36,311,44,16,54,214,45,26,84,210,47*71
###2023-12-09 13:10:33.987412$GPGSV,2,2,07,28,46,074,46,29,24,057,43,31,67,046,47,,,,*4D
###2023-12-09 13:10:33.989741$GLGSV,2,1,06,65,27,326,43,71,36,173,43,72,72,254,46,73,32,044,44*63
###2023-12-09 13:10:33.991502$GLGSV,2,2,06,74,68,348,43,75,35,257,45,,,,,,,,*63
###2023-12-09 13:10:33.993821$GAGSV,1,1,04,04,32,312,41,19,81,196,40,21,85,078,46,27,30,048,41*6B
###2023-12-09 13:10:33.996161$GBGSV,2,1,06,14,39,192,42,24,70,032,49,25,44,266,46,26,23,065,45*60
###2023-12-09 13:10:33.997907$GBGSV,2,2,06,33,55,228,47,35,15,066,44,,,,,,,,*64
###2023-12-09 13:10:33.999242$GNVTG,182.74,T,,M,3.60,N,6.66,K,A*28
###2023-12-09 13:10:34.000889$GNGST,181033.10,18.000,,,,0.100,0.071,0.170*56
###2023-12-09 13:10:34.002181$GNZDA,181033.10,09,12,2023,00,00*78
###2023-12-09 13:10:34.002832$GNEBP,,,,,,M*13
###2023-12-09 13:10:34.169376$GNGGA,181033.30,4138.0185382,N,07032.2607981,W,1,24,0.7,12.934,M,-29.744,M,0.0,*56
###2023-12-09 13:10:34.370609$GNGGA,181033.50,4138.0183399,N,07032.2608064,W,1,24,0.7,12.944,M,-29.744,M,0.0,*56
###2023-12-09 13:10:34.571107$GNGGA,181033.70,4138.0181361,N,07032.2607910,W,1,24,0.7,12.925,M,-29.744,M,0.0,*53
###2023-12-09 13:10:34.770354$GNGGA,181033.90,4138.0179364,N,07032.2607852,W,1,24,0.7,12.920,M,-29.744,M,0.0,*5D
###2023-12-09 13:10:34.974601$GNRMC,181034.10,A,4138.0177355,N,07032.2608150,W,3.77,187.00,091223,,,A*58
###2023-12-09 13:10:34.977483$GNGGA,181034.10,4138.0177355,N,07032.2608150,W,1,24,0.7,12.947,M,-29.744,M,0.0,*5B
###2023-12-09 13:10:34.979298$GPGSA,A,3,03,04,16,26,28,29,31,,,,,,1.2,0.7,1.0*30
###2023-12-09 13:10:34.981017$GLGSA,A,3,65,71,72,73,74,75,,,,,,,1.2,0.7,1.0*2E
###2023-12-09 13:10:34.982608$GAGSA,A,3,04,19,21,27,,,,,,,,,1.2,0.7,1.0*2C
###2023-12-09 13:10:34.984321$GBGSA,A,3,14,24,25,26,33,35,,,,,,,1.2,0.7,1.0*23
###2023-12-09 13:10:34.986660$GPGSV,2,1,07,03,33,257,42,04,36,311,45,16,54,214,45,26,84,210,47*73
###2023-12-09 13:10:34.988701$GPGSV,2,2,07,28,46,074,45,29,24,057,41,31,67,046,47,,,,*4C
###2023-12-09 13:10:34.991037$GLGSV,2,1,06,65,27,326,43,71,36,173,42,72,72,254,46,73,32,044,44*62
###2023-12-09 13:10:34.992787$GLGSV,2,2,06,74,68,348,43,75,35,257,45,,,,,,,,*63
###2023-12-09 13:10:34.995120$GAGSV,1,1,04,04,32,312,43,19,81,196,40,21,85,078,46,27,30,048,41*69
###2023-12-09 13:10:34.997444$GBGSV,2,1,06,14,39,192,42,24,70,032,48,25,44,266,46,26,23,065,44*60
###2023-12-09 13:10:34.999197$GBGSV,2,2,06,33,55,228,46,35,15,066,44,,,,,,,,*65
###2023-12-09 13:10:35.000520$GNVTG,187.00,T,,M,3.77,N,6.98,K,A*29
###2023-12-09 13:10:35.002168$GNGST,181034.10,18.000,,,,0.100,0.071,0.170*51
###2023-12-09 13:10:35.003468$GNZDA,181034.10,09,12,2023,00,00*7F
###2023-12-09 13:10:35.004109$GNEBP,,,,,,M*13
###2023-12-09 13:10:35.169339$GNGGA,181034.30,4138.0175334,N,07032.2608332,W,1,24,0.7,12.932,M,-29.744,M,0.0,*58
###2023-12-09 13:10:35.369499$GNGGA,181034.50,4138.0173379,N,07032.2608362,W,1,24,0.7,12.919,M,-29.744,M,0.0,*5D
###2023-12-09 13:10:35.570954$GNGGA,181034.70,4138.0171383,N,07032.2608629,W,1,24,0.7,12.934,M,-29.744,M,0.0,*5D
###2023-12-09 13:10:35.771137$GNGGA,181034.90,4138.0169437,N,07032.2608958,W,1,24,0.7,12.939,M,-29.744,M,0.0,*56
###2023-12-09 13:10:35.973562$GNRMC,181035.10,A,4138.0167426,N,07032.2609170,W,3.60,181.74,091223,,,A*5B
###2023-12-09 13:10:35.976446$GNGGA,181035.10,4138.0167426,N,07032.2609170,W,1,24,0.7,12.931,M,-29.744,M,0.0,*5A
###2023-12-09 13:10:35.978241$GPGSA,A,3,03,04,16,26,28,29,31,,,,,,1.2,0.7,1.0*30
###2023-12-09 13:10:35.979964$GLGSA,A,3,65,71,72,73,74,75,,,,,,,1.2,0.7,1.0*2E
###2023-12-09 13:10:35.981548$GAGSA,A,3,04,19,21,27,,,,,,,,,1.2,0.7,1.0*2C
###2023-12-09 13:10:35.983265$GBGSA,A,3,14,24,25,26,33,35,,,,,,,1.2,0.7,1.0*23
###2023-12-09 13:10:35.985584$GPGSV,2,1,07,03,33,257,42,04,36,311,45,16,54,214,45,26,84,210,47*73
###2023-12-09 13:10:35.987629$GPGSV,2,2,07,28,46,074,45,29,24,057,42,31,67,046,47,,,,*4F
###2023-12-09 13:10:35.989957$GLGSV,2,1,06,65,27,326,42,71,36,173,42,72,72,254,46,73,32,044,43*64
###2023-12-09 13:10:35.991712$GLGSV,2,2,06,74,68,348,43,75,35,257,45,,,,,,,,*63
###2023-12-09 13:10:35.994027$GAGSV,1,1,04,04,32,312,43,19,81,196,40,21,85,078,46,27,30,048,40*68
###2023-12-09 13:10:35.996361$GBGSV,2,1,06,14,39,192,41,24,70,032,49,25,44,266,47,26,23,065,44*63
###2023-12-09 13:10:35.998108$GBGSV,2,2,06,33,54,227,47,35,15,066,44,,,,,,,,*6A
###2023-12-09 13:10:35.999440$GNVTG,181.74,T,,M,3.60,N,6.66,K,A*2B
###2023-12-09 13:10:36.001079$GNGST,181035.10,18.000,,,,0.100,0.071,0.170*50
###2023-12-09 13:10:36.002363$GNZDA,181035.10,09,12,2023,00,00*7E
###2023-12-09 13:10:36.003010$GNEBP,,,,,,M*13
###2023-12-09 13:10:36.170377$GNGGA,181035.30,4138.0165498,N,07032.2609229,W,1,24,0.7,12.928,M,-29.744,M,0.0,*58
###2023-12-09 13:10:36.370638$GNGGA,181035.50,4138.0163581,N,07032.2609489,W,1,24,0.7,12.952,M,-29.744,M,0.0,*50
###2023-12-09 13:10:36.570201$GNGGA,181035.70,4138.0161589,N,07032.2609679,W,1,24,0.7,12.925,M,-29.744,M,0.0,*55
###2023-12-09 13:10:36.770883$GNGGA,181035.90,4138.0159701,N,07032.2609696,W,1,24,0.7,12.926,M,-29.744,M,0.0,*50
###2023-12-09 13:10:36.972314$GNRMC,181036.10,A,4138.0157712,N,07032.2609724,W,3.56,180.61,091223,,,A*58
###2023-12-09 13:10:36.975211$GNGGA,181036.10,4138.0157712,N,07032.2609724,W,1,24,0.7,12.946,M,-29.744,M,0.0,*59
###2023-12-09 13:10:36.977000$GPGSA,A,3,03,04,16,26,28,29,31,,,,,,1.2,0.7,1.0*30
###2023-12-09 13:10:36.978723$GLGSA,A,3,65,71,72,73,74,75,,,,,,,1.2,0.7,1.0*2E
