###2023-12-09 12:34:39.936385$GNGGA,173439.10,4138.0471902,N,07032.4222730,W,1,23,0.7,13.072,M,-29.745,M,0.0,*56
###2023-12-09 12:34:39.938262$GPGSA,A,3,03,04,16,26,28,29,31,32,,,,,1.2,0.7,1.0*31
###2023-12-09 12:34:39.939933$GLGSA,A,3,71,72,73,74,75,,,,,,,,1.2,0.7,1.0*2D
###2023-12-09 12:34:39.941518$GAGSA,A,3,04,19,21,27,,,,,,,,,1.2,0.7,1.0*2C
###2023-12-09 12:34:39.943182$GBGSA,A,3,14,24,25,26,33,,,,,,,,1.2,0.7,1.0*25
###2023-12-09 12:34:39.945515$GPGSV,2,1,08,03,39,277,44,04,22,311,41,16,37,207,43,26,66,206,48*76
###2023-12-09 12:34:39.947886$GPGSV,2,2,08,28,58,056,45,29,25,074,40,31,73,001,48,32,30,134,43*77
###2023-12-09 12:34:39.950250$GLGSV,2,1,05,71,57,169,48,72,65,310,47,73,48,033,46,74,71,290,44*66
###2023-12-09 12:34:39.951725$GLGSV,2,2,05,75,22,241,37,,,,,,,,,,,,*51
###2023-12-09 12:34:39.954063$GAGSV,1,1,04,04,20,311,42,19,81,304,41,21,77,177,46,27,42,050,44*6A
###2023-12-09 12:34:39.956436$GBGSV,2,1,05,14,55,198,47,24,81,343,48,25,32,252,46,26,35,057,44*6D
###2023-12-09 12:34:39.957900$GBGSV,2,2,05,33,63,255,47,,,,,,,,,,,,*5A
###2023-12-09 12:34:39.959214$GNVTG,84.40,T,,M,0.37,N,0.68,K,A*11
###2023-12-09 12:34:39.960866$GNGST,173439.10,19.000,,,,0.088,0.079,0.190*53
###2023-12-09 12:34:39.962164$GNZDA,173439.10,09,12,2023,00,00*7B
###2023-12-09 12:34:39.962816$GNEBP,,,,,,M*13
###2023-12-09 12:34:40.133906$GNGGA,173439.30,4138.0472028,N,07032.4222804,W,1,23,0.7,13.070,M,-29.745,M,0.0,*5C
###2023-12-09 12:34:40.333537$GNGGA,173439.50,4138.0472010,N,07032.4222835,W,1,23,0.7,13.068,M,-29.745,M,0.0,*5A
###2023-12-09 12:34:40.533848$GNGGA,173439.70,4138.0471941,N,07032.4222793,W,1,23,0.7,13.070,M,-29.745,M,0.0,*5C
###2023-12-09 12:34:40.731782$GNGGA,173439.90,4138.0471974,N,07032.4222804,W,1,23,0.7,13.077,M,-29.745,M,0.0,*52
###2023-12-09 12:34:40.935335$GNRMC,173440.10,A,4138.0472080,N,07032.4222880,W,0.23,84.40,091223,,,A*63
###2023-12-09 12:34:40.938184$GNGGA,173440.10,4138.0472080,N,07032.4222880,W,1,23,0.7,13.073,M,-29.745,M,0.0,*5D
###2023-12-09 12:34:40.940054$GPGSA,A,3,03,04,16,26,28,29,31,32,,,,,1.2,0.7,1.0*31
###2023-12-09 12:34:40.941714$GLGSA,A,3,71,72,73,74,75,,,,,,,,1.2,0.7,1.0*2D
###2023-12-09 12:34:40.943315$GAGSA,A,3,04,19,21,27,,,,,,,,,1.2,0.7,1.0*2C
###2023-12-09 12:34:40.944971$GBGSA,A,3,14,24,25,26,33,,,,,,,,1.2,0.7,1.0*25
###2023-12-09 12:34:40.947340$GPGSV,2,1,08,03,39,277,44,04,22,311,41,16,37,207,44,26,66,206,48*71
###2023-12-09 12:34:40.949711$GPGSV,2,2,08,28,58,056,45,29,25,074,40,31,73,001,48,32,30,134,43*77
###2023-12-09 12:34:40.952095$GLGSV,2,1,05,71,57,169,48,72,65,310,48,73,48,033,46,74,71,290,43*6E
###2023-12-09 12:34:40.953566$GLGSV,2,2,05,75,22,241,37,,,,,,,,,,,,*51
###2023-12-09 12:34:40.955926$GAGSV,1,1,04,04,20,311,41,19,81,304,40,21,77,177,46,27,42,050,44*68
###2023-12-09 12:34:40.958276$GBGSV,2,1,05,14,55,198,45,24,81,343,49,25,32,252,46,26,35,057,43*69
###2023-12-09 12:34:40.959762$GBGSV,2,2,05,33,63,255,47,,,,,,,,,,,,*5A
###2023-12-09 12:34:40.961064$GNVTG,84.40,T,,M,0.23,N,0.43,K,A*1D
###2023-12-09 12:34:40.962732$GNGST,173440.10,19.000,,,,0.087,0.077,0.180*5D
###2023-12-09 12:34:40.964031$GNZDA,173440.10,09,12,2023,00,00*75
###2023-12-09 12:34:40.964673$GNEBP,,,,,,M*13
###2023-12-09 12:34:41.133423$GNGGA,173440.30,4138.0472130,N,07032.4222944,W,1,23,0.7,13.069,M,-29.745,M,0.0,*57
###2023-12-09 12:34:41.333917$GNGGA,173440.50,4138.0472105,N,07032.4222965,W,1,23,0.7,13.068,M,-29.745,M,0.0,*55
###2023-12-09 12:34:41.533276$GNGGA,173440.70,4138.0472078,N,07032.4222969,W,1,23,0.7,13.070,M,-29.745,M,0.0,*59
###2023-12-09 12:34:41.732645$GNGGA,173440.90,4138.0472104,N,07032.4223012,W,1,23,0.7,13.071,M,-29.745,M,0.0,*58
###2023-12-09 12:34:41.934176$GNRMC,173441.10,A,4138.0472168,N,07032.4223078,W,0.12,84.40,091223,,,A*69
###2023-12-09 12:34:41.937070$GNGGA,173441.10,4138.0472168,N,07032.4223078,W,1,23,0.7,13.062,M,-29.745,M,0.0,*55
###2023-12-09 12:34:41.938951$GPGSA,A,3,03,04,16,26,28,29,31,32,,,,,1.2,0.7,1.0*31
###2023-12-09 12:34:41.940612$GLGSA,A,3,71,72,73,74,75,,,,,,,,1.2,0.7,1.0*2D
###2023-12-09 12:34:41.942198$GAGSA,A,3,04,19,21,27,,,,,,,,,1.2,0.7,1.0*2C
###2023-12-09 12:34:41.943858$GBGSA,A,3,14,24,25,26,33,,,,,,,,1.2,0.7,1.0*25
###2023-12-09 12:34:41.946190$GPGSV,2,1,08,03,39,277,44,04,22,311,41,16,37,207,45,26,66,206,48*70
###2023-12-09 12:34:41.948551$GPGSV,2,2,08,28,58,056,45,29,25,074,40,31,73,001,48,32,30,134,43*77
###2023-12-09 12:34:41.950920$GLGSV,2,1,05,71,57,169,47,72,65,310,47,73,48,033,47,74,71,290,43*6F
###2023-12-09 12:34:41.952384$GLGSV,2,2,05,75,22,241,38,,,,,,,,,,,,*5E
###2023-12-09 12:34:41.954739$GAGSV,1,1,04,04,20,311,40,19,81,304,40,21,77,177,45,27,42,050,44*6A
###2023-12-09 12:34:41.957079$GBGSV,2,1,05,14,55,198,45,24,81,343,49,25,32,252,45,26,35,057,44*6D
###2023-12-09 12:34:41.958538$GBGSV,2,2,05,33,63,255,48,,,,,,,,,,,,*55
###2023-12-09 12:34:41.959842$GNVTG,84.40,T,,M,0.12,N,0.22,K,A*18
###2023-12-09 12:34:41.961490$GNGST,173441.10,19.000,,,,0.086,0.076,0.180*5C
###2023-12-09 12:34:41.962791$GNZDA,173441.10,09,12,2023,00,00*74
###2023-12-09 12:34:41.963432$GNEBP,,,,,,M*13
###2023-12-09 12:34:42.133028$GNGGA,173441.30,4138.0472221,N,07032.4223141,W,1,23,0.7,13.058,M,-29.745,M,0.0,*5B
###2023-12-09 12:34:42.332308$GNGGA,173441.50,4138.0472228,N,07032.4223156,W,1,23,0.7,13.062,M,-29.745,M,0.0,*5B
###2023-12-09 12:34:42.533609$GNGGA,173441.70,4138.0472212,N,07032.4223199,W,1,23,0.7,13.063,M,-29.745,M,0.0,*52
###2023-12-09 12:34:42.732477$GNGGA,173441.90,4138.0472240,N,07032.4223264,W,1,23,0.7,13.059,M,-29.745,M,0.0,*53
###2023-12-09 12:34:42.935179$GNRMC,173442.10,A,4138.0472338,N,07032.4223361,W,0.25,84.40,091223,,,A*62
###2023-12-09 12:34:42.938035$GNGGA,173442.10,4138.0472338,N,07032.4223361,W,1,23,0.7,13.054,M,-29.745,M,0.0,*5F
###2023-12-09 12:34:42.939913$GPGSA,A,3,03,04,16,26,28,29,31,32,,,,,1.2,0.7,1.0*31
###2023-12-09 12:34:42.941568$GLGSA,A,3,71,72,73,74,75,,,,,,,,1.2,0.7,1.0*2D
###2023-12-09 12:34:42.943164$GAGSA,A,3,04,19,21,27,,,,,,,,,1.2,0.7,1.0*2C
###2023-12-09 12:34:42.944810$GBGSA,A,3,14,24,25,26,33,,,,,,,,1.2,0.7,1.0*25
###2023-12-09 12:34:42.947168$GPGSV,2,1,08,03,39,277,45,04,22,311,41,16,37,207,46,26,66,206,48*72
###2023-12-09 12:34:42.949514$GPGSV,2,2,08,28,58,056,44,29,25,074,42,31,73,001,47,32,30,134,43*7B
###2023-12-09 12:34:42.951858$GLGSV,2,1,05,71,57,169,46,72,65,310,47,73,48,033,47,74,71,290,44*69
###2023-12-09 12:34:42.953313$GLGSV,2,2,05,75,22,241,40,,,,,,,,,,,,*51
###2023-12-09 12:34:42.955647$GAGSV,1,1,04,04,20,311,41,19,81,304,40,21,77,177,46,27,42,050,44*68
###2023-12-09 12:34:42.957981$GBGSV,2,1,05,14,55,198,46,24,81,343,49,25,32,252,44,26,35,057,44*6F
###2023-12-09 12:34:42.959493$GBGSV,2,2,05,33,63,255,47,,,,,,,,,,,,*5A
###2023-12-09 12:34:42.960794$GNVTG,84.40,T,,M,0.25,N,0.47,K,A*1F
###2023-12-09 12:34:42.962447$GNGST,173442.10,19.000,,,,0.085,0.076,0.180*5C
###2023-12-09 12:34:42.963758$GNZDA,173442.10,09,12,2023,00,00*77
###2023-12-09 12:34:42.964404$GNEBP,,,,,,M*13
###2023-12-09 12:34:43.132963$GNGGA,173442.30,4138.0472418,N,07032.4223415,W,1,23,0.7,13.051,M,-29.745,M,0.0,*59
###2023-12-09 12:34:43.333358$GNGGA,173442.50,4138.0472436,N,07032.4223448,W,1,23,0.7,13.058,M,-29.745,M,0.0,*52
###2023-12-09 12:34:43.533710$GNGGA,173442.70,4138.0472429,N,07032.4223487,W,1,23,0.7,13.058,M,-29.745,M,0.0,*5D
###2023-12-09 12:34:43.732952$GNGGA,173442.90,4138.0472480,N,07032.4223577,W,1,23,0.7,13.052,M,-29.745,M,0.0,*54
###2023-12-09 12:34:43.934260$GNRMC,173443.10,A,4138.0472598,N,07032.4223687,W,0.31,84.40,091223,,,A*67
###2023-12-09 12:34:43.937136$GNGGA,173443.10,4138.0472598,N,07032.4223687,W,1,23,0.7,13.046,M,-29.745,M,0.0,*5C
###2023-12-09 12:34:43.939013$GPGSA,A,3,03,04,16,26,28,29,31,32,,,,,1.2,0.7,1.0*31
###2023-12-09 12:34:43.940663$GLGSA,A,3,71,72,73,74,75,,,,,,,,1.2,0.7,1.0*2D
###2023-12-09 12:34:43.942246$GAGSA,A,3,04,19,21,27,,,,,,,,,1.2,0.7,1.0*2C
###2023-12-09 12:34:43.943906$GBGSA,A,3,14,24,25,26,33,,,,,,,,1.2,0.7,1.0*25
###2023-12-09 12:34:43.946231$GPGSV,2,1,08,03,39,277,45,04,22,311,41,16,37,207,46,26,66,206,48*72
###2023-12-09 12:34:43.948596$GPGSV,2,2,08,28,58,056,44,29,25,074,40,31,73,001,48,32,30,134,43*76
###2023-12-09 12:34:43.950969$GLGSV,2,1,05,71,57,169,48,72,65,310,46,73,48,033,47,74,71,290,44*66
###2023-12-09 12:34:43.952682$GLGSV,2,2,05,75,22,241,39,,,,,,,,,,,,*5F
###2023-12-09 12:34:43.955031$GAGSV,1,1,04,04,20,311,40,19,81,304,40,21,77,177,46,27,42,050,44*69
###2023-12-09 12:34:43.957359$GBGSV,2,1,05,14,55,198,46,24,81,343,48,25,32,252,45,26,35,057,43*68
###2023-12-09 12:34:43.958825$GBGSV,2,2,05,33,63,255,48,,,,,,,,,,,,*55
###2023-12-09 12:34:43.960114$GNVTG,84.40,T,,M,0.31,N,0.58,K,A*14
###2023-12-09 12:34:43.961759$GNGST,173443.10,19.000,,,,0.084,0.075,0.180*5F
###2023-12-09 12:34:43.963071$GNZDA,173443.10,09,12,2023,00,00*76
###2023-12-09 12:34:43.963713$GNEBP,,,,,,M*13
