###2023-12-09 13:19:15.999417$GBGSA,A,3,14,24,25,26,33,35,,,,,,,1.1,0.7,0.9*28
###2023-12-09 13:19:16.002264$GPGSV,2,1,07,03,31,253,43,04,40,310,44,16,58,216,46,26,88,205,48*7F
###2023-12-09 13:19:16.004754$GPGSV,2,2,07,28,43,078,45,29,23,053,41,31,64,053,46,,,,*40
###2023-12-09 13:19:16.007618$GLGSV,2,1,06,65,32,324,41,71,31,174,45,72,69,237,47,73,28,047,41*62
###2023-12-09 13:19:16.009618$GLGSV,2,2,06,74,65,,41,75,38,262,47,,,,,,,,*5A
###2023-12-09 13:19:16.012455$GAGSV,1,1,04,04,35,311,43,19,78,188,41,21,82,058,46,27,27,049,39*68
###2023-12-09 13:19:16.015272$GBGSV,2,1,06,14,35,191,43,24,68,038,46,25,46,269,45,26,20,067,42*6A
###2023-12-09 13:19:16.017374$GBGSV,2,2,06,33,51,223,46,35,16,062,43,,,,,,,,*6A
###2023-12-09 13:19:16.018903$GNVTG,0.19,T,,M,3.56,N,6.59,K,A*21
###2023-12-09 13:19:16.020900$GNGST,181915.10,18.000,,,,0.099,0.071,0.170*5A
###2023-12-09 13:19:16.022448$GNZDA,181915.10,09,12,2023,00,00*75
###2023-12-09 13:19:16.023232$GNEBP,,,,,,M*13
###2023-12-09 13:19:16.182808$GNGGA,181915.30,4138.0720851,N,07032.3101602,W,1,24,0.7,13.257,M,-29.743,M,0.0,*5B
###2023-12-09 13:19:16.382854$GNGGA,181915.50,4138.0722813,N,07032.3101553,W,1,24,0.7,13.260,M,-29.743,M,0.0,*5A
###2023-12-09 13:19:16.583515$GNGGA,181915.70,4138.0724814,N,07032.3101461,W,1,24,0.7,13.260,M,-29.743,M,0.0,*59
###2023-12-09 13:19:16.783516$GNGGA,181915.90,4138.0726827,N,07032.3101506,W,1,24,0.7,13.255,M,-29.743,M,0.0,*53
###2023-12-09 13:19:16.988913$GNRMC,181916.10,A,4138.0728856,N,07032.3101591,W,3.62,359.81,091223,,,A*5F
###2023-12-09 13:19:16.992370$GNGGA,181916.10,4138.0728856,N,07032.3101591,W,1,24,0.7,13.252,M,-29.743,M,0.0,*59
###2023-12-09 13:19:16.994537$GPGSA,A,3,03,04,16,26,28,29,31,,,,,,1.1,0.7,0.9*3B
###2023-12-09 13:19:16.996622$GLGSA,A,3,65,71,72,73,74,75,,,,,,,1.1,0.7,0.9*25
###2023-12-09 13:19:16.998532$GAGSA,A,3,04,19,21,27,,,,,,,,,1.1,0.7,0.9*27
###2023-12-09 13:19:17.000621$GBGSA,A,3,14,24,25,26,33,35,,,,,,,1.1,0.7,0.9*28
###2023-12-09 13:19:17.003457$GPGSV,2,1,07,03,31,253,42,04,40,310,44,16,59,217,46,26,88,205,48*7E
###2023-12-09 13:19:17.005933$GPGSV,2,2,07,28,43,078,44,29,23,053,39,31,64,053,46,,,,*4E
###2023-12-09 13:19:17.008773$GLGSV,2,1,06,65,32,324,42,71,31,174,45,72,69,237,47,73,28,047,39*6E
###2023-12-09 13:19:17.010803$GLGSV,2,2,06,74,65,,41,75,38,262,46,,,,,,,,*5B
###2023-12-09 13:19:17.013616$GAGSV,1,1,04,04,35,311,43,19,78,188,41,21,82,058,46,27,27,049,37*66
###2023-12-09 13:19:17.016445$GBGSV,2,1,06,14,35,191,44,24,68,038,47,25,46,269,47,26,20,067,42*6E
###2023-12-09 13:19:17.018604$GBGSV,2,2,06,33,51,223,46,35,16,062,41,,,,,,,,*68
###2023-12-09 13:19:17.020206$GNVTG,359.81,T,,M,3.62,N,6.70,K,A*23
###2023-12-09 13:19:17.022201$GNGST,181916.10,18.000,,,,0.099,0.071,0.170*59
###2023-12-09 13:19:17.023773$GNZDA,181916.10,09,12,2023,00,00*76
###2023-12-09 13:19:17.024544$GNEBP,,,,,,M*13
###2023-12-09 13:19:17.183019$GNGGA,181916.30,4138.0730871,N,07032.3101434,W,1,24,0.7,13.245,M,-29.743,M,0.0,*5F
###2023-12-09 13:19:17.383337$GNGGA,181916.50,4138.0732876,N,07032.3101088,W,1,24,0.7,13.231,M,-29.743,M,0.0,*5C
###2023-12-09 13:19:17.584661$GNGGA,181916.70,4138.0734844,N,07032.3100724,W,1,24,0.7,13.214,M,-29.742,M,0.0,*5F
###2023-12-09 13:19:17.784331$GNGGA,181916.90,4138.0736772,N,07032.3100698,W,1,24,0.7,13.223,M,-29.742,M,0.0,*5B
###2023-12-09 13:19:17.986510$GNRMC,181917.10,A,4138.0738729,N,07032.3100618,W,3.58,5.27,091223,,,A*54
###2023-12-09 13:19:17.989401$GNGGA,181917.10,4138.0738729,N,07032.3100618,W,1,24,0.7,13.227,M,-29.742,M,0.0,*5E
###2023-12-09 13:19:17.991216$GPGSA,A,3,03,04,16,26,28,29,31,,,,,,1.1,0.7,0.9*3B
###2023-12-09 13:19:17.992936$GLGSA,A,3,65,71,72,73,74,75,,,,,,,1.1,0.7,0.9*25
###2023-12-09 13:19:17.994521$GAGSA,A,3,04,19,21,27,,,,,,,,,1.1,0.7,0.9*27
###2023-12-09 13:19:17.996245$GBGSA,A,3,14,24,25,26,33,35,,,,,,,1.1,0.7,0.9*28
###2023-12-09 13:19:17.998596$GPGSV,2,1,07,03,31,253,43,04,40,310,45,16,59,217,46,26,88,205,48*7E
###2023-12-09 13:19:18.000652$GPGSV,2,2,07,28,43,078,43,29,23,053,39,31,64,053,46,,,,*49
###2023-12-09 13:19:18.002998$GLGSV,2,1,06,65,32,324,42,71,31,174,45,72,69,237,47,73,28,047,39*6E
###2023-12-09 13:19:18.004649$GLGSV,2,2,06,74,65,,41,75,38,262,46,,,,,,,,*5B
###2023-12-09 13:19:18.006978$GAGSV,1,1,04,04,35,311,43,19,78,188,41,21,82,058,46,27,27,049,37*66
###2023-12-09 13:19:18.009304$GBGSV,2,1,06,14,35,191,45,24,68,038,48,25,46,269,49,26,20,067,42*6E
###2023-12-09 13:19:18.011057$GBGSV,2,2,06,33,51,223,48,35,16,062,42,,,,,,,,*65
###2023-12-09 13:19:18.012310$GNVTG,5.27,T,,M,3.58,N,6.62,K,A*2F
###2023-12-09 13:19:18.013956$GNGST,181917.10,18.000,,,,0.099,0.071,0.170*58
###2023-12-09 13:19:18.015254$GNZDA,181917.10,09,12,2023,00,00*77
###2023-12-09 13:19:18.015891$GNEBP,,,,,,M*13
###2023-12-09 13:19:18.183794$GNGGA,181917.30,4138.0740678,N,07032.3100216,W,1,24,0.7,13.216,M,-29.742,M,0.0,*5E
###2023-12-09 13:19:18.382536$GNGGA,181917.50,4138.0742613,N,07032.3099954,W,1,24,0.7,13.202,M,-29.742,M,0.0,*5E
###2023-12-09 13:19:18.583289$GNGGA,181917.70,4138.0744488,N,07032.3100096,W,1,24,0.7,13.203,M,-29.742,M,0.0,*5D
###2023-12-09 13:19:18.783358$GNGGA,181917.90,4138.0746343,N,07032.3100293,W,1,24,0.7,13.206,M,-29.742,M,0.0,*53
###2023-12-09 13:19:18.985887$GNRMC,181918.10,A,4138.0748206,N,07032.3100171,W,3.42,4.68,091223,,,A*5D
###2023-12-09 13:19:18.989351$GNGGA,181918.10,4138.0748206,N,07032.3100171,W,1,24,0.7,13.205,M,-29.742,M,0.0,*56
###2023-12-09 13:19:18.991530$GPGSA,A,3,03,04,16,26,28,29,31,,,,,,1.1,0.7,0.9*3B
###2023-12-09 13:19:18.993606$GLGSA,A,3,65,71,72,73,74,75,,,,,,,1.1,0.7,0.9*25
###2023-12-09 13:19:18.995534$GAGSA,A,3,04,19,21,27,,,,,,,,,1.1,0.7,0.9*27
###2023-12-09 13:19:18.997604$GBGSA,A,3,14,24,25,26,33,35,,,,,,,1.1,0.7,0.9*28
###2023-12-09 13:19:19.000419$GPGSV,2,1,07,03,31,253,43,04,40,310,44,16,59,217,46,26,88,205,48*7F
###2023-12-09 13:19:19.002919$GPGSV,2,2,07,28,43,078,44,29,23,053,40,31,64,053,46,,,,*40
###2023-12-09 13:19:19.005735$GLGSV,2,1,06,65,32,324,41,71,31,174,44,72,69,237,47,73,28,047,39*6C
###2023-12-09 13:19:19.007742$GLGSV,2,2,06,74,65,,41,75,38,262,46,,,,,,,,*5B
###2023-12-09 13:19:19.010551$GAGSV,1,1,04,04,35,311,43,19,78,188,41,21,82,058,45,27,27,049,39*6B
###2023-12-09 13:19:19.013376$GBGSV,2,1,06,14,35,191,45,24,68,038,48,25,46,269,47,26,20,067,42*60
###2023-12-09 13:19:19.015502$GBGSV,2,2,06,33,51,223,48,35,16,062,42,,,,,,,,*65
###2023-12-09 13:19:19.017024$GNVTG,4.68,T,,M,3.42,N,6.34,K,A*2D
###2023-12-09 13:19:19.019023$GNGST,181918.10,18.000,,,,0.099,0.071,0.170*57
###2023-12-09 13:19:19.020584$GNZDA,181918.10,09,12,2023,00,00*78
###2023-12-09 13:19:19.021353$GNEBP,,,,,,M*13
###2023-12-09 13:19:19.182652$GNGGA,181918.30,4138.0750093,N,07032.3099942,W,1,24,0.7,13.207,M,-29.742,M,0.0,*58
###2023-12-09 13:19:19.382441$GNGGA,181918.50,4138.0751962,N,07032.3099913,W,1,24,0.7,13.201,M,-29.742,M,0.0,*5A
###2023-12-09 13:19:19.583294$GNGGA,181918.70,4138.0753849,N,07032.3100052,W,1,24,0.7,13.198,M,-29.742,M,0.0,*5C
###2023-12-09 13:19:19.783308$GNGGA,181918.90,4138.0755765,N,07032.3099875,W,1,24,0.7,13.197,M,-29.742,M,0.0,*56
###2023-12-09 13:19:19.986778$GNRMC,181919.10,A,4138.0757695,N,07032.3099357,W,3.54,10.43,091223,,,A*60
###2023-12-09 13:19:19.990215$GNGGA,181919.10,4138.0757695,N,07032.3099357,W,1,24,0.7,13.198,M,-29.742,M,0.0,*57
###2023-12-09 13:19:19.992405$GPGSA,A,3,03,04,16,26,28,29,31,,,,,,1.1,0.7,0.9*3B
###2023-12-09 13:19:19.994507$GLGSA,A,3,65,71,72,73,74,75,,,,,,,1.1,0.7,0.9*25
###2023-12-09 13:19:19.996432$GAGSA,A,3,04,19,21,27,,,,,,,,,1.1,0.7,0.9*27
###2023-12-09 13:19:19.998489$GBGSA,A,3,14,24,25,26,33,35,,,,,,,1.1,0.7,0.9*28
###2023-12-09 13:19:20.001320$GPGSV,2,1,07,03,31,253,42,04,40,310,45,16,59,217,46,26,88,205,48*7F
###2023-12-09 13:19:20.003790$GPGSV,2,2,07,28,43,078,44,29,23,053,39,31,64,053,46,,,,*4E
###2023-12-09 13:19:20.006626$GLGSV,2,1,06,65,32,324,42,71,31,174,43,72,69,237,47,73,28,047,40*66
###2023-12-09 13:19:20.008618$GLGSV,2,2,06,74,65,,41,75,38,262,47,,,,,,,,*5A
###2023-12-09 13:19:20.011443$GAGSV,1,1,04,04,35,311,42,19,78,188,41,21,82,058,46,27,27,049,38*68
###2023-12-09 13:19:20.014254$GBGSV,2,1,06,14,35,191,45,24,68,038,48,25,46,269,47,26,20,067,43*61
###2023-12-09 13:19:20.016668$GBGSV,2,2,06,33,51,223,48,35,16,062,43,,,,,,,,*64
###2023-12-09 13:19:20.018241$GNVTG,10.43,T,,M,3.54,N,6.55,K,A*11
###2023-12-09 13:19:20.020252$GNGST,181919.10,18.000,,,,0.099,0.071,0.170*56
###2023-12-09 13:19:20.021814$GNZDA,181919.10,09,12,2023,00,00*79
###2023-12-09 13:19:20.022595$GNEBP,,,,,,M*13
###2023-12-09 13:19:20.182629$GNGGA,181919.30,4138.0759615,N,07032.3099032,W,1,24,0.7,13.203,M,-29.742,M,0.0,*52
###2023-12-09 13:19:20.382479$GNGGA,181919.50,4138.0761559,N,07032.3098906,W,1,24,0.7,13.203,M,-29.742,M,0.0,*5B
###2023-12-09 13:19:20.583742$GNGGA,181919.70,4138.0763508,N,07032.3098642,W,1,24,0.7,13.197,M,-29.742,M,0.0,*5E
###2023-12-09 13:19:20.783664$GNGGA,181919.90,4138.0765473,N,07032.3098192,W,1,24,0.7,13.197,M,-29.742,M,0.0,*51
