###2023-12-09 13:29:58.997654$GPGSA,A,3,04,16,26,28,29,31,,,,,,,1.3,0.8,1.0*3D
###2023-12-09 13:29:58.999354$GLGSA,A,3,65,72,73,74,75,,,,,,,,1.3,0.8,1.0*26
###2023-12-09 13:29:59.000945$GAGSA,A,3,04,19,21,27,,,,,,,,,1.3,0.8,1.0*22
###2023-12-09 13:29:59.002609$GBGSA,A,3,24,25,26,33,35,,,,,,,,1.3,0.8,1.0*28
###2023-12-09 13:29:59.004944$GPGSV,2,1,06,04,44,309,45,16,64,220,44,26,86,041,47,28,39,083,44*71
###2023-12-09 13:29:59.006714$GPGSV,2,2,06,29,21,049,43,31,61,063,47,,,,,,,,*7E
###2023-12-09 13:29:59.009040$GLGSV,2,1,05,65,36,321,42,72,65,225,45,73,24,050,45,74,61,010,42*64
###2023-12-09 13:29:59.010497$GLGSV,2,2,05,75,42,268,43,,,,,,,,,,,,*5F
###2023-12-09 13:29:59.012857$GAGSV,1,1,04,04,38,310,44,19,74,182,40,21,79,049,46,27,24,049,42*6F
###2023-12-09 13:29:59.015203$GBGSV,2,1,05,24,64,043,48,25,49,274,46,26,17,069,44,33,48,219,45*61
###2023-12-09 13:29:59.016660$GBGSV,2,2,05,35,16,058,44,,,,,,,,,,,,*52
###2023-12-09 13:29:59.017980$GNVTG,206.79,T,,M,2.14,N,3.96,K,A*22
###2023-12-09 13:29:59.019605$GNGST,182958.10,5.400,,,,0.130,0.077,0.190*62
###2023-12-09 13:29:59.020897$GNZDA,182958.10,09,12,2023,00,00*7F
###2023-12-09 13:29:59.021534$GNEBP,,,,,,M*13
###2023-12-09 13:29:59.195782$GNGGA,182958.30,4138.0397257,N,07032.4286292,W,1,22,0.7,13.108,M,-29.745,M,0.0,*5A
###2023-12-09 13:29:59.389641$GNGGA,182958.50,4138.0396209,N,07032.4287185,W,1,20,0.9,13.109,M,-29.746,M,0.0,*5C
###2023-12-09 13:29:59.588847$GNGGA,182958.70,4138.0395118,N,07032.4287577,W,1,21,0.8,13.095,M,-29.746,M,0.0,*53
###2023-12-09 13:29:59.788073$GNGGA,182958.90,4138.0394005,N,07032.4287882,W,1,21,0.8,13.075,M,-29.746,M,0.0,*58
###2023-12-09 13:29:59.992061$GNRMC,182959.10,A,4138.0392926,N,07032.4288574,W,2.25,210.09,091223,,,A*54
###2023-12-09 13:29:59.994943$GNGGA,182959.10,4138.0392926,N,07032.4288574,W,1,21,0.7,13.094,M,-29.746,M,0.0,*54
###2023-12-09 13:29:59.996674$GPGSA,A,3,04,16,26,28,29,31,,,,,,,1.3,0.7,1.1*33
###2023-12-09 13:29:59.998384$GLGSA,A,3,65,71,72,73,74,75,,,,,,,1.3,0.7,1.1*2E
###2023-12-09 13:29:59.999978$GAGSA,A,3,04,19,21,27,,,,,,,,,1.3,0.7,1.1*2C
###2023-12-09 13:30:00.001625$GBGSA,A,3,24,25,26,33,35,,,,,,,,1.3,0.7,1.1*26
###2023-12-09 13:30:00.003960$GPGSV,2,1,06,04,44,309,44,16,64,220,45,26,86,041,48,28,39,083,46*7C
###2023-12-09 13:30:00.005710$GPGSV,2,2,06,29,21,049,43,31,61,063,47,,,,,,,,*7E
###2023-12-09 13:30:00.008052$GLGSV,2,1,06,65,36,321,42,71,25,175,36,72,65,225,44,73,24,050,45*62
###2023-12-09 13:30:00.009797$GLGSV,2,2,06,74,61,010,42,75,42,268,40,,,,,,,,*6C
###2023-12-09 13:30:00.012135$GAGSV,1,1,04,04,38,310,42,19,74,182,40,21,78,048,45,27,24,049,42*6A
###2023-12-09 13:30:00.014465$GBGSV,2,1,05,24,64,043,50,25,49,274,46,26,17,069,46,33,48,219,45*6A
###2023-12-09 13:30:00.015929$GBGSV,2,2,05,35,16,058,44,,,,,,,,,,,,*52
###2023-12-09 13:30:00.017252$GNVTG,210.09,T,,M,2.25,N,4.18,K,A*21
###2023-12-09 13:30:00.018871$GNGST,182959.10,5.800,,,,0.130,0.078,0.190*60
###2023-12-09 13:30:00.020163$GNZDA,182959.10,09,12,2023,00,00*7E
###2023-12-09 13:30:00.020799$GNEBP,,,,,,M*13
###2023-12-09 13:30:00.189070$GNGGA,182959.30,4138.0391826,N,07032.4289404,W,1,21,0.8,13.103,M,-29.746,M,0.0,*53
###2023-12-09 13:30:00.387422$GNGGA,182959.50,4138.0390652,N,07032.4289856,W,1,21,0.8,13.099,M,-29.746,M,0.0,*50
###2023-12-09 13:30:00.588658$GNGGA,182959.70,4138.0389570,N,07032.4290008,W,1,20,0.8,13.105,M,-29.746,M,0.0,*57
###2023-12-09 13:30:00.789466$GNGGA,182959.90,4138.0388428,N,07032.4290248,W,1,20,0.8,13.090,M,-29.746,M,0.0,*5F
###2023-12-09 13:30:00.999151$GNRMC,183000.10,A,4138.0387290,N,07032.4290524,W,2.10,190.60,091223,,,A*5C
###2023-12-09 13:30:01.002012$GNGGA,183000.10,4138.0387290,N,07032.4290524,W,1,20,0.8,13.079,M,-29.746,M,0.0,*53
###2023-12-09 13:30:01.003770$GPGSA,A,3,04,16,26,28,29,31,,,,,,,1.4,0.8,1.1*3B
###2023-12-09 13:30:01.005415$GLGSA,A,3,65,72,73,74,75,,,,,,,,1.4,0.8,1.1*20
###2023-12-09 13:30:01.007009$GAGSA,A,3,04,19,21,27,,,,,,,,,1.4,0.8,1.1*24
###2023-12-09 13:30:01.008657$GBGSA,A,3,24,25,26,33,35,,,,,,,,1.4,0.8,1.1*2E
###2023-12-09 13:30:01.010988$GPGSV,2,1,06,04,44,309,44,16,64,220,44,26,86,041,47,28,39,083,45*71
###2023-12-09 13:30:01.012734$GPGSV,2,2,06,29,21,049,41,31,61,063,46,,,,,,,,*7D
###2023-12-09 13:30:01.015064$GLGSV,2,1,05,65,36,321,40,72,65,225,44,73,24,050,43,74,61,010,42*61
###2023-12-09 13:30:01.016520$GLGSV,2,2,05,75,42,268,38,,,,,,,,,,,,*53
###2023-12-09 13:30:01.018849$GAGSV,1,1,04,04,38,310,43,19,74,182,40,21,78,048,46,27,24,049,41*6B
###2023-12-09 13:30:01.021171$GBGSV,2,1,05,24,64,043,48,25,49,274,45,26,17,069,43,33,48,219,45*65
###2023-12-09 13:30:01.022632$GBGSV,2,2,05,35,16,058,45,,,,,,,,,,,,*53
###2023-12-09 13:30:01.023948$GNVTG,190.60,T,,M,2.10,N,3.89,K,A*2C
###2023-12-09 13:30:01.025589$GNGST,183000.10,20.000,,,,0.130,0.080,0.200*56
###2023-12-09 13:30:01.026888$GNZDA,183000.10,09,12,2023,00,00*7A
###2023-12-09 13:30:01.027529$GNEBP,,,,,,M*13
###2023-12-09 13:30:01.189351$GNGGA,183000.30,4138.0386169,N,07032.4290752,W,1,21,0.8,13.082,M,-29.746,M,0.0,*53
###2023-12-09 13:30:01.389787$GNGGA,183000.50,4138.0385029,N,07032.4291070,W,1,21,0.9,13.104,M,-29.746,M,0.0,*5B
###2023-12-09 13:30:01.588763$GNGGA,183000.70,4138.0383876,N,07032.4291261,W,1,20,0.9,13.120,M,-29.746,M,0.0,*58
###2023-12-09 13:30:01.789435$GNGGA,183000.90,4138.0382851,N,07032.4291009,W,1,21,0.7,13.098,M,-29.746,M,0.0,*53
###2023-12-09 13:30:01.992415$GNRMC,183001.10,A,4138.0381890,N,07032.4290705,W,2.06,177.70,091223,,,A*5F
###2023-12-09 13:30:01.995284$GNGGA,183001.10,4138.0381890,N,07032.4290705,W,1,21,0.9,13.078,M,-29.746,M,0.0,*5E
###2023-12-09 13:30:01.997080$GPGSA,A,3,03,04,16,26,28,29,31,,,,,,1.4,0.9,1.1*39
###2023-12-09 13:30:01.998738$GLGSA,A,3,65,72,73,74,75,,,,,,,,1.4,0.9,1.1*21
###2023-12-09 13:30:02.000316$GAGSA,A,3,04,19,21,27,,,,,,,,,1.4,0.9,1.1*25
###2023-12-09 13:30:02.001957$GBGSA,A,3,24,25,26,33,35,,,,,,,,1.4,0.9,1.1*2F
###2023-12-09 13:30:02.004295$GPGSV,2,1,07,03,28,248,36,04,44,309,44,16,64,220,46,26,86,041,49*74
###2023-12-09 13:30:02.006338$GPGSV,2,2,07,28,39,083,46,29,21,049,44,31,61,063,47,,,,*41
###2023-12-09 13:30:02.008678$GLGSV,2,1,05,65,36,321,43,72,65,225,45,73,24,050,45,74,61,010,43*64
###2023-12-09 13:30:02.010141$GLGSV,2,2,05,75,42,268,41,,,,,,,,,,,,*5D
###2023-12-09 13:30:02.012477$GAGSV,1,1,04,04,38,310,42,19,74,182,40,21,78,048,46,27,24,049,43*68
###2023-12-09 13:30:02.014816$GBGSV,2,1,05,24,64,043,48,25,49,274,45,26,17,069,46,33,48,219,46*63
###2023-12-09 13:30:02.016273$GBGSV,2,2,05,35,16,058,46,,,,,,,,,,,,*50
###2023-12-09 13:30:02.017589$GNVTG,177.70,T,,M,2.06,N,3.82,K,A*28
###2023-12-09 13:30:02.019210$GNGST,183001.10,5.500,,,,0.130,0.082,0.200*67
###2023-12-09 13:30:02.020502$GNZDA,183001.10,09,12,2023,00,00*7B
###2023-12-09 13:30:02.021137$GNEBP,,,,,,M*13
###2023-12-09 13:30:02.190286$GNGGA,183001.30,4138.0380686,N,07032.4290911,W,1,21,0.9,13.107,M,-29.746,M,0.0,*56
###2023-12-09 13:30:02.389071$GNGGA,183001.50,4138.0379516,N,07032.4291152,W,1,21,0.9,13.107,M,-29.746,M,0.0,*52
###2023-12-09 13:30:02.591650$GNGGA,183001.70,4138.0378523,N,07032.4290780,W,1,22,0.7,13.099,M,-29.746,M,0.0,*54
###2023-12-09 13:30:02.790404$GNGGA,183001.90,4138.0377633,N,07032.4290108,W,1,21,0.9,13.085,M,-29.746,M,0.0,*51
###2023-12-09 13:30:02.992403$GNRMC,183002.10,A,4138.0376584,N,07032.4289807,W,1.94,177.78,091223,,,A*59
###2023-12-09 13:30:02.995273$GNGGA,183002.10,4138.0376584,N,07032.4289807,W,1,21,0.9,13.083,M,-29.746,M,0.0,*5C
###2023-12-09 13:30:02.997067$GPGSA,A,3,03,04,16,26,28,29,31,,,,,,1.4,0.9,1.1*39
###2023-12-09 13:30:02.998729$GLGSA,A,3,65,72,73,74,75,,,,,,,,1.4,0.9,1.1*21
###2023-12-09 13:30:03.000317$GAGSA,A,3,04,19,21,27,,,,,,,,,1.4,0.9,1.1*25
###2023-12-09 13:30:03.001968$GBGSA,A,3,24,25,26,33,35,,,,,,,,1.4,0.9,1.1*2F
###2023-12-09 13:30:03.004304$GPGSV,2,1,07,03,28,248,40,04,44,309,43,16,64,220,45,26,86,041,48*70
###2023-12-09 13:30:03.006345$GPGSV,2,2,07,28,39,083,44,29,21,049,45,31,61,063,48,,,,*4D
###2023-12-09 13:30:03.008690$GLGSV,2,1,05,65,36,321,44,72,65,225,44,73,24,050,46,74,61,010,43*61
###2023-12-09 13:30:03.010147$GLGSV,2,2,05,75,42,268,39,,,,,,,,,,,,*52
###2023-12-09 13:30:03.012492$GAGSV,1,1,04,04,38,310,42,19,74,182,40,21,78,048,47,27,24,049,43*69
###2023-12-09 13:30:03.015104$GBGSV,2,1,05,24,64,043,48,25,49,274,44,26,17,069,46,33,48,219,44*60
###2023-12-09 13:30:03.016578$GBGSV,2,2,05,35,16,058,45,,,,,,,,,,,,*53
###2023-12-09 13:30:03.017907$GNVTG,177.78,T,,M,1.94,N,3.60,K,A*24
###2023-12-09 13:30:03.019542$GNGST,183002.10,4.500,,,,0.140,0.083,0.210*62
###2023-12-09 13:30:03.020841$GNZDA,183002.10,09,12,2023,00,00*78
###2023-12-09 13:30:03.021482$GNEBP,,,,,,M*13
###2023-12-09 13:30:03.193702$GNGGA,183002.30,4138.0375465,N,07032.4289844,W,1,21,1.0,13.092,M,-29.746,M,0.0,*5C
