###2023-12-09 13:21:10.010545$GBGSV,2,1,06,14,35,191,43,24,67,039,49,25,47,270,46,26,20,067,42*61
###2023-12-09 13:21:10.012338$GBGSV,2,2,06,33,51,222,48,35,16,062,43,,,,,,,,*65
###2023-12-09 13:21:10.013662$GNVTG,304.67,T,,M,3.29,N,6.08,K,A*23
###2023-12-09 13:21:10.015324$GNGST,182109.10,18.000,,,,0.100,0.073,0.170*5F
###2023-12-09 13:21:10.016617$GNZDA,182109.10,09,12,2023,00,00*73
###2023-12-09 13:21:10.017253$GNEBP,,,,,,M*13
###2023-12-09 13:21:10.183042$GNGGA,182109.30,4138.0258980,N,07032.3445774,W,1,24,0.7,13.003,M,-29.745,M,0.0,*5A
###2023-12-09 13:21:10.382771$GNGGA,182109.50,4138.0260120,N,07032.3447660,W,1,24,0.7,13.004,M,-29.745,M,0.0,*54
###2023-12-09 13:21:10.582764$GNGGA,182109.70,4138.0261339,N,07032.3449477,W,1,24,0.7,13.016,M,-29.745,M,0.0,*54
###2023-12-09 13:21:10.784096$GNGGA,182109.90,4138.0262618,N,07032.3451232,W,1,24,0.7,13.025,M,-29.745,M,0.0,*51
###2023-12-09 13:21:10.987277$GNRMC,182110.10,A,4138.0263949,N,07032.3452915,W,3.32,317.87,091223,,,A*5D
###2023-12-09 13:21:10.990156$GNGGA,182110.10,4138.0263949,N,07032.3452915,W,1,24,0.7,13.036,M,-29.745,M,0.0,*54
###2023-12-09 13:21:10.991970$GPGSA,A,3,03,04,16,26,28,29,31,,,,,,1.1,0.7,0.9*3B
###2023-12-09 13:21:10.993687$GLGSA,A,3,65,71,72,73,74,75,,,,,,,1.1,0.7,0.9*25
###2023-12-09 13:21:10.995284$GAGSA,A,3,04,19,21,27,,,,,,,,,1.1,0.7,0.9*27
###2023-12-09 13:21:10.996990$GBGSA,A,3,14,24,25,26,33,35,,,,,,,1.1,0.7,0.9*28
###2023-12-09 13:21:10.999325$GPGSV,2,1,07,03,30,252,42,04,41,310,41,16,59,217,44,26,89,196,48*70
###2023-12-09 13:21:11.001361$GPGSV,2,2,07,28,43,079,45,29,23,053,43,31,64,055,47,,,,*44
###2023-12-09 13:21:11.003703$GLGSV,2,1,06,65,33,323,41,71,30,174,44,72,69,234,45,73,27,048,43*67
###2023-12-09 13:21:11.005449$GLGSV,2,2,06,74,64,002,42,75,39,263,47,,,,,,,,*6A
###2023-12-09 13:21:11.007785$GAGSV,1,1,04,04,35,311,42,19,77,186,41,21,81,055,46,27,27,049,42*6A
###2023-12-09 13:21:11.010101$GBGSV,2,1,06,14,35,191,41,24,67,039,49,25,47,270,47,26,20,067,43*63
###2023-12-09 13:21:11.011854$GBGSV,2,2,06,33,51,222,48,35,16,062,42,,,,,,,,*64
###2023-12-09 13:21:11.013169$GNVTG,317.87,T,,M,3.32,N,6.16,K,A*2A
###2023-12-09 13:21:11.014819$GNGST,182110.10,18.000,,,,0.100,0.072,0.170*56
###2023-12-09 13:21:11.016109$GNZDA,182110.10,09,12,2023,00,00*7B
###2023-12-09 13:21:11.016746$GNEBP,,,,,,M*13
###2023-12-09 13:21:11.182915$GNGGA,182110.30,4138.0265334,N,07032.3454526,W,1,24,0.7,13.042,M,-29.745,M,0.0,*59
###2023-12-09 13:21:11.383329$GNGGA,182110.50,4138.0266782,N,07032.3455997,W,1,24,0.7,13.048,M,-29.745,M,0.0,*58
###2023-12-09 13:21:11.583736$GNGGA,182110.70,4138.0268289,N,07032.3457306,W,1,24,0.7,13.055,M,-29.745,M,0.0,*56
###2023-12-09 13:21:11.783308$GNGGA,182110.90,4138.0269781,N,07032.3458555,W,1,24,0.7,13.058,M,-29.745,M,0.0,*56
###2023-12-09 13:21:11.988193$GNRMC,182111.10,A,4138.0271296,N,07032.3459720,W,3.11,332.19,091223,,,A*54
###2023-12-09 13:21:11.991654$GNGGA,182111.10,4138.0271296,N,07032.3459720,W,1,24,0.7,13.069,M,-29.745,M,0.0,*56
###2023-12-09 13:21:11.993815$GPGSA,A,3,03,04,16,26,28,29,31,,,,,,1.1,0.7,0.9*3B
###2023-12-09 13:21:11.995900$GLGSA,A,3,65,71,72,73,74,75,,,,,,,1.1,0.7,0.9*25
###2023-12-09 13:21:11.997807$GAGSA,A,3,04,19,21,27,,,,,,,,,1.1,0.7,0.9*27
###2023-12-09 13:21:11.999878$GBGSA,A,3,14,24,25,26,33,35,,,,,,,1.1,0.7,0.9*28
###2023-12-09 13:21:12.002728$GPGSV,2,1,07,03,30,252,44,04,41,310,43,16,59,217,46,26,89,196,48*76
###2023-12-09 13:21:12.005184$GPGSV,2,2,07,28,43,079,46,29,23,053,43,31,64,055,47,,,,*47
###2023-12-09 13:21:12.008006$GLGSV,2,1,06,65,33,323,40,71,30,174,45,72,69,234,45,73,27,048,43*67
###2023-12-09 13:21:12.010113$GLGSV,2,2,06,74,64,002,42,75,39,263,45,,,,,,,,*68
###2023-12-09 13:21:12.012927$GAGSV,1,1,04,04,35,311,40,19,77,186,41,21,81,055,46,27,27,049,41*6B
###2023-12-09 13:21:12.015738$GBGSV,2,1,06,14,35,191,40,24,67,039,47,25,47,270,45,26,20,067,43*6E
###2023-12-09 13:21:12.017833$GBGSV,2,2,06,33,51,222,46,35,16,062,43,,,,,,,,*6B
###2023-12-09 13:21:12.019435$GNVTG,332.19,T,,M,3.11,N,5.76,K,A*2E
###2023-12-09 13:21:12.021419$GNGST,182111.10,18.000,,,,0.100,0.072,0.170*57
###2023-12-09 13:21:12.022989$GNZDA,182111.10,09,12,2023,00,00*7A
###2023-12-09 13:21:12.023787$GNEBP,,,,,,M*13
###2023-12-09 13:21:12.183097$GNGGA,182111.30,4138.0272861,N,07032.3460743,W,1,24,0.7,13.079,M,-29.745,M,0.0,*5B
###2023-12-09 13:21:12.381530$GNGGA,182111.50,4138.0274472,N,07032.3461648,W,1,24,0.7,13.084,M,-29.745,M,0.0,*5C
###2023-12-09 13:21:12.583172$GNGGA,182111.70,4138.0276107,N,07032.3462466,W,1,24,0.7,13.091,M,-29.745,M,0.0,*52
###2023-12-09 13:21:12.783655$GNGGA,182111.90,4138.0277793,N,07032.3463212,W,1,24,0.7,13.101,M,-29.745,M,0.0,*5A
###2023-12-09 13:21:12.988225$GNRMC,182112.10,A,4138.0279535,N,07032.3463817,W,3.21,347.79,091223,,,A*54
###2023-12-09 13:21:12.991113$GNGGA,182112.10,4138.0279535,N,07032.3463817,W,1,24,0.7,13.107,M,-29.745,M,0.0,*58
###2023-12-09 13:21:12.992909$GPGSA,A,3,03,04,16,26,28,29,31,,,,,,1.1,0.7,0.9*3B
###2023-12-09 13:21:12.994642$GLGSA,A,3,65,71,72,73,74,75,,,,,,,1.1,0.7,0.9*25
###2023-12-09 13:21:12.996230$GAGSA,A,3,04,19,21,27,,,,,,,,,1.1,0.7,0.9*27
###2023-12-09 13:21:12.997947$GBGSA,A,3,14,24,25,26,33,35,,,,,,,1.1,0.7,0.9*28
###2023-12-09 13:21:13.000293$GPGSV,2,1,07,03,30,252,43,04,41,310,45,16,59,217,47,26,89,196,48*76
###2023-12-09 13:21:13.002335$GPGSV,2,2,07,28,43,079,43,29,23,053,41,31,64,055,47,,,,*40
###2023-12-09 13:21:13.004685$GLGSV,2,1,06,65,33,323,41,71,30,174,43,72,69,234,46,73,27,048,41*61
###2023-12-09 13:21:13.006439$GLGSV,2,2,06,74,64,002,41,75,39,263,47,,,,,,,,*69
###2023-12-09 13:21:13.008782$GAGSV,1,1,04,04,35,311,43,19,77,186,41,21,81,055,45,27,27,049,40*6A
###2023-12-09 13:21:13.011125$GBGSV,2,1,06,14,35,191,44,24,67,039,48,25,47,270,47,26,20,067,41*65
###2023-12-09 13:21:13.012879$GBGSV,2,2,06,33,51,222,47,35,16,062,42,,,,,,,,*6B
###2023-12-09 13:21:13.014208$GNVTG,347.79,T,,M,3.21,N,5.94,K,A*25
###2023-12-09 13:21:13.015872$GNGST,182112.10,18.000,,,,0.100,0.072,0.170*54
###2023-12-09 13:21:13.017172$GNZDA,182112.10,09,12,2023,00,00*79
###2023-12-09 13:21:13.017813$GNEBP,,,,,,M*13
###2023-12-09 13:21:13.184617$GNGGA,182112.30,4138.0281296,N,07032.3464190,W,1,24,0.7,13.116,M,-29.745,M,0.0,*52
###2023-12-09 13:21:13.384153$GNGGA,182112.50,4138.0283052,N,07032.3464481,W,1,24,0.7,13.130,M,-29.745,M,0.0,*5D
###2023-12-09 13:21:13.583563$GNGGA,182112.70,4138.0284841,N,07032.3464642,W,1,24,0.7,13.141,M,-29.745,M,0.0,*59
###2023-12-09 13:21:13.784897$GNGGA,182112.90,4138.0286598,N,07032.3464484,W,1,24,0.7,13.135,M,-29.745,M,0.0,*57
###2023-12-09 13:21:13.987914$GNRMC,182113.10,A,4138.0288315,N,07032.3464159,W,3.07,8.80,091223,,,A*51
###2023-12-09 13:21:13.990791$GNGGA,182113.10,4138.0288315,N,07032.3464159,W,1,24,0.7,13.140,M,-29.745,M,0.0,*54
###2023-12-09 13:21:13.992583$GPGSA,A,3,03,04,16,26,28,29,31,,,,,,1.1,0.7,0.9*3B
###2023-12-09 13:21:13.994294$GLGSA,A,3,65,71,72,73,74,75,,,,,,,1.1,0.7,0.9*25
###2023-12-09 13:21:13.995894$GAGSA,A,3,04,19,21,27,,,,,,,,,1.1,0.7,0.9*27
###2023-12-09 13:21:13.997598$GBGSA,A,3,14,24,25,26,33,35,,,,,,,1.1,0.7,0.9*28
###2023-12-09 13:21:13.999933$GPGSV,2,1,07,03,30,252,42,04,41,310,43,16,59,217,46,26,89,196,48*70
###2023-12-09 13:21:14.001966$GPGSV,2,2,07,28,43,079,43,29,23,053,40,31,64,055,46,,,,*40
###2023-12-09 13:21:14.004303$GLGSV,2,1,06,65,33,323,42,71,30,174,42,72,69,234,46,73,27,048,40*62
###2023-12-09 13:21:14.006047$GLGSV,2,2,06,74,64,002,41,75,39,263,47,,,,,,,,*69
###2023-12-09 13:21:14.008379$GAGSV,1,1,04,04,35,311,43,19,77,186,41,21,81,055,46,27,27,049,38*66
###2023-12-09 13:21:14.010707$GBGSV,2,1,06,14,35,191,43,24,67,039,47,25,47,270,47,26,20,067,41*6D
###2023-12-09 13:21:14.012445$GBGSV,2,2,06,33,51,222,46,35,16,062,42,,,,,,,,*6A
###2023-12-09 13:21:14.013692$GNVTG,8.80,T,,M,3.07,N,5.69,K,A*2D
###2023-12-09 13:21:14.015371$GNGST,182113.10,18.000,,,,0.100,0.072,0.170*55
###2023-12-09 13:21:14.016661$GNZDA,182113.10,09,12,2023,00,00*78
###2023-12-09 13:21:14.017297$GNEBP,,,,,,M*13
###2023-12-09 13:21:14.182865$GNGGA,182113.30,4138.0290018,N,07032.3463743,W,1,24,0.7,13.145,M,-29.745,M,0.0,*5E
###2023-12-09 13:21:14.381448$GNGGA,182113.50,4138.0291633,N,07032.3463092,W,1,24,0.7,13.148,M,-29.745,M,0.0,*50
###2023-12-09 13:21:14.583692$GNGGA,182113.70,4138.0293169,N,07032.3462224,W,1,24,0.7,13.165,M,-29.745,M,0.0,*59
###2023-12-09 13:21:14.783467$GNGGA,182113.90,4138.0294696,N,07032.3461285,W,1,24,0.7,13.170,M,-29.745,M,0.0,*5B
###2023-12-09 13:21:14.988971$GNRMC,182114.10,A,4138.0296207,N,07032.3460334,W,2.95,25.55,091223,,,A*6B
###2023-12-09 13:21:14.991857$GNGGA,182114.10,4138.0296207,N,07032.3460334,W,1,24,0.7,13.164,M,-29.745,M,0.0,*55
###2023-12-09 13:21:14.993655$GPGSA,A,3,03,04,16,26,28,29,31,,,,,,1.1,0.7,0.9*3B
###2023-12-09 13:21:14.995384$GLGSA,A,3,65,71,72,73,74,75,,,,,,,1.1,0.7,0.9*25
###2023-12-09 13:21:14.996965$GAGSA,A,3,04,19,21,27,,,,,,,,,1.1,0.7,0.9*27
###2023-12-09 13:21:14.998686$GBGSA,A,3,14,24,25,26,33,35,,,,,,,1.1,0.7,0.9*28
