###2023-12-09 12:49:01.747357$GNGGA,174900.90,4138.0601231,N,07032.3903242,W,1,24,0.6,13.492,M,-29.744,M,0.0,*52
###2023-12-09 12:49:01.948325$GNRMC,174901.10,A,4138.0601472,N,07032.3903156,W,0.54,25.48,091223,,,A*6D
###2023-12-09 12:49:01.951210$GNGGA,174901.10,4138.0601472,N,07032.3903156,W,1,24,0.6,13.487,M,-29.744,M,0.0,*58
###2023-12-09 12:49:01.953078$GPGSA,A,3,03,04,16,26,28,29,31,32,,,,,1.1,0.6,0.9*3B
###2023-12-09 12:49:01.954803$GLGSA,A,3,65,71,72,73,74,75,,,,,,,1.1,0.6,0.9*24
###2023-12-09 12:49:01.956386$GAGSA,A,3,04,19,21,27,,,,,,,,,1.1,0.6,0.9*26
###2023-12-09 12:49:01.958021$GBGSA,A,3,14,24,25,26,33,,,,,,,,1.1,0.6,0.9*2F
###2023-12-09 12:49:01.960358$GPGSV,2,1,08,03,37,269,46,04,27,311,41,16,43,209,46,26,73,208,48*72
###2023-12-09 12:49:01.962703$GPGSV,2,2,08,28,53,064,45,29,26,067,42,31,71,021,47,32,24,137,41*75
###2023-12-09 12:49:01.965037$GLGSV,2,1,06,65,18,329,42,71,48,171,47,72,71,291,47,73,41,038,46*68
###2023-12-09 12:49:01.966787$GLGSV,2,2,06,74,71,317,43,75,28,247,44,,,,,,,,*6D
###2023-12-09 12:49:01.969113$GAGSV,1,1,04,04,25,312,39,19,85,269,40,21,83,162,46,27,37,048,44*6B
###2023-12-09 12:49:01.971464$GBGSV,2,1,05,14,49,195,46,24,77,011,48,25,37,257,46,26,30,060,42*66
###2023-12-09 12:49:01.972930$GBGSV,2,2,05,33,61,241,47,,,,,,,,,,,,*5D
###2023-12-09 12:49:01.974223$GNVTG,25.48,T,,M,0.54,N,1.01,K,A*19
###2023-12-09 12:49:01.975924$GNGST,174901.10,18.000,,,,0.077,0.068,0.160*5C
###2023-12-09 12:49:01.977223$GNZDA,174901.10,09,12,2023,00,00*7A
###2023-12-09 12:49:01.977862$GNEBP,,,,,,M*13
###2023-12-09 12:49:02.146807$GNGGA,174901.30,4138.0601788,N,07032.3903087,W,1,24,0.6,13.481,M,-29.744,M,0.0,*57
###2023-12-09 12:49:02.347522$GNGGA,174901.50,4138.0602085,N,07032.3903021,W,1,24,0.6,13.481,M,-29.744,M,0.0,*54
###2023-12-09 12:49:02.547857$GNGGA,174901.70,4138.0602294,N,07032.3902935,W,1,24,0.6,13.486,M,-29.744,M,0.0,*5E
###2023-12-09 12:49:02.749967$GNGGA,174901.90,4138.0602472,N,07032.3902817,W,1,24,0.6,13.493,M,-29.744,M,0.0,*5B
###2023-12-09 12:49:02.950558$GNRMC,174902.10,A,4138.0602724,N,07032.3902729,W,0.62,25.48,091223,,,A*67
###2023-12-09 12:49:02.954049$GNGGA,174902.10,4138.0602724,N,07032.3902729,W,1,24,0.6,13.491,M,-29.744,M,0.0,*50
###2023-12-09 12:49:02.956319$GPGSA,A,3,03,04,16,26,28,29,31,32,,,,,1.1,0.6,0.9*3B
###2023-12-09 12:49:02.958389$GLGSA,A,3,65,71,72,73,74,75,,,,,,,1.1,0.6,0.9*24
###2023-12-09 12:49:02.960315$GAGSA,A,3,04,19,21,27,,,,,,,,,1.1,0.6,0.9*26
###2023-12-09 12:49:02.962298$GBGSA,A,3,14,24,25,26,33,,,,,,,,1.1,0.6,0.9*2F
###2023-12-09 12:49:02.965172$GPGSV,2,1,08,03,37,269,46,04,27,311,41,16,43,209,46,26,73,208,48*72
###2023-12-09 12:49:02.968056$GPGSV,2,2,08,28,53,064,44,29,26,067,41,31,71,021,47,32,24,137,41*77
###2023-12-09 12:49:02.970890$GLGSV,2,1,06,65,18,329,42,71,48,171,47,72,71,291,47,73,41,038,45*6B
###2023-12-09 12:49:02.973007$GLGSV,2,2,06,74,71,317,43,75,28,247,44,,,,,,,,*6D
###2023-12-09 12:49:02.975835$GAGSV,1,1,04,04,25,312,40,19,85,269,41,21,83,162,46,27,37,048,43*63
###2023-12-09 12:49:02.978681$GBGSV,2,1,05,14,49,195,46,24,77,011,48,25,37,257,46,26,30,060,42*66
###2023-12-09 12:49:02.980446$GBGSV,2,2,05,33,61,241,48,,,,,,,,,,,,*52
###2023-12-09 12:49:02.982011$GNVTG,25.48,T,,M,0.62,N,1.15,K,A*19
###2023-12-09 12:49:02.984026$GNGST,174902.10,18.000,,,,0.077,0.068,0.160*5F
###2023-12-09 12:49:02.985594$GNZDA,174902.10,09,12,2023,00,00*79
###2023-12-09 12:49:02.986368$GNEBP,,,,,,M*13
###2023-12-09 12:49:03.147321$GNGGA,174902.30,4138.0603057,N,07032.3902676,W,1,24,0.6,13.487,M,-29.744,M,0.0,*5C
###2023-12-09 12:49:03.348371$GNGGA,174902.50,4138.0603344,N,07032.3902628,W,1,24,0.6,13.481,M,-29.744,M,0.0,*56
###2023-12-09 12:49:03.548156$GNGGA,174902.70,4138.0603563,N,07032.3902516,W,1,24,0.6,13.484,M,-29.744,M,0.0,*5C
###2023-12-09 12:49:03.747755$GNGGA,174902.90,4138.0603767,N,07032.3902399,W,1,24,0.6,13.486,M,-29.744,M,0.0,*57
###2023-12-09 12:49:03.947184$GNRMC,174903.10,A,4138.0604041,N,07032.3902328,W,0.58,25.48,091223,,,A*68
###2023-12-09 12:49:03.950039$GNGGA,174903.10,4138.0604041,N,07032.3902328,W,1,24,0.6,13.478,M,-29.744,M,0.0,*51
###2023-12-09 12:49:03.951909$GPGSA,A,3,03,04,16,26,28,29,31,32,,,,,1.1,0.6,0.9*3B
###2023-12-09 12:49:03.953621$GLGSA,A,3,65,71,72,73,74,75,,,,,,,1.1,0.6,0.9*24
###2023-12-09 12:49:03.955220$GAGSA,A,3,04,19,21,27,,,,,,,,,1.1,0.6,0.9*26
###2023-12-09 12:49:03.956863$GBGSA,A,3,14,24,25,26,33,,,,,,,,1.1,0.6,0.9*2F
###2023-12-09 12:49:03.959224$GPGSV,2,1,08,03,37,269,46,04,27,311,41,16,43,209,47,26,73,208,48*73
###2023-12-09 12:49:03.961545$GPGSV,2,2,08,28,53,064,45,29,26,067,43,31,71,021,47,32,24,137,41*74
###2023-12-09 12:49:03.963887$GLGSV,2,1,06,65,18,329,42,71,48,171,47,72,71,291,47,73,41,038,45*6B
###2023-12-09 12:49:03.965629$GLGSV,2,2,06,74,71,317,43,75,28,247,44,,,,,,,,*6D
###2023-12-09 12:49:03.967970$GAGSV,1,1,04,04,25,312,40,19,85,269,41,21,83,162,46,27,37,048,44*64
###2023-12-09 12:49:03.970297$GBGSV,2,1,05,14,49,195,46,24,77,011,49,25,37,257,45,26,30,060,42*64
###2023-12-09 12:49:03.971776$GBGSV,2,2,05,33,61,241,48,,,,,,,,,,,,*52
###2023-12-09 12:49:03.973064$GNVTG,25.48,T,,M,0.58,N,1.08,K,A*1C
###2023-12-09 12:49:03.974721$GNGST,174903.10,18.000,,,,0.077,0.068,0.160*5E
###2023-12-09 12:49:03.976015$GNZDA,174903.10,09,12,2023,00,00*78
###2023-12-09 12:49:03.976657$GNEBP,,,,,,M*13
###2023-12-09 12:49:04.147177$GNGGA,174903.30,4138.0604368,N,07032.3902290,W,1,24,0.6,13.475,M,-29.744,M,0.0,*54
###2023-12-09 12:49:04.347510$GNGGA,174903.50,4138.0604657,N,07032.3902279,W,1,24,0.6,13.476,M,-29.744,M,0.0,*5F
###2023-12-09 12:49:04.548612$GNGGA,174903.70,4138.0604911,N,07032.3902210,W,1,24,0.6,13.479,M,-29.744,M,0.0,*50
###2023-12-09 12:49:04.749760$GNGGA,174903.90,4138.0605138,N,07032.3902114,W,1,24,0.6,13.475,M,-29.744,M,0.0,*57
###2023-12-09 12:49:04.947771$GNRMC,174904.10,A,4138.0605370,N,07032.3902019,W,0.43,25.48,091223,,,A*64
###2023-12-09 12:49:04.951249$GNGGA,174904.10,4138.0605370,N,07032.3902019,W,1,24,0.6,13.456,M,-29.744,M,0.0,*5B
###2023-12-09 12:49:04.953523$GPGSA,A,3,03,04,16,26,28,29,31,32,,,,,1.1,0.6,0.9*3B
###2023-12-09 12:49:04.955609$GLGSA,A,3,65,71,72,73,74,75,,,,,,,1.1,0.6,0.9*24
###2023-12-09 12:49:04.957515$GAGSA,A,3,04,19,21,27,,,,,,,,,1.1,0.6,0.9*26
###2023-12-09 12:49:04.959508$GBGSA,A,3,14,24,25,26,33,,,,,,,,1.1,0.6,0.9*2F
###2023-12-09 12:49:04.962322$GPGSV,2,1,08,03,37,269,46,04,27,311,41,16,43,209,46,26,73,208,48*72
###2023-12-09 12:49:04.965154$GPGSV,2,2,08,28,53,064,45,29,26,067,42,31,71,021,47,32,24,137,41*75
###2023-12-09 12:49:04.967984$GLGSV,2,1,06,65,18,329,42,71,48,171,47,72,71,291,47,73,41,038,47*69
###2023-12-09 12:49:04.970110$GLGSV,2,2,06,74,71,317,43,75,28,247,44,,,,,,,,*6D
###2023-12-09 12:49:04.972974$GAGSV,1,1,04,04,25,312,42,19,85,269,41,21,83,162,46,27,37,048,44*66
###2023-12-09 12:49:04.975805$GBGSV,2,1,05,14,49,195,46,24,77,011,49,25,37,257,46,26,30,060,43*66
###2023-12-09 12:49:04.977566$GBGSV,2,2,05,33,61,241,48,,,,,,,,,,,,*52
###2023-12-09 12:49:04.979181$GNVTG,25.48,T,,M,0.43,N,0.79,K,A*11
###2023-12-09 12:49:04.981173$GNGST,174904.10,18.000,,,,0.077,0.068,0.160*59
###2023-12-09 12:49:04.982753$GNZDA,174904.10,09,12,2023,00,00*7F
###2023-12-09 12:49:04.983575$GNEBP,,,,,,M*13
###2023-12-09 12:49:05.147283$GNGGA,174904.30,4138.0605630,N,07032.3901989,W,1,24,0.6,13.448,M,-29.744,M,0.0,*54
###2023-12-09 12:49:05.348007$GNGGA,174904.50,4138.0605957,N,07032.3901987,W,1,24,0.6,13.453,M,-29.744,M,0.0,*58
###2023-12-09 12:49:05.548020$GNGGA,174904.70,4138.0606312,N,07032.3901959,W,1,24,0.6,13.470,M,-29.744,M,0.0,*50
###2023-12-09 12:49:05.747966$GNGGA,174904.90,4138.0606553,N,07032.3901881,W,1,24,0.6,13.477,M,-29.744,M,0.0,*5E
###2023-12-09 12:49:05.947811$GNRMC,174905.10,A,4138.0606703,N,07032.3901821,W,0.29,25.48,091223,,,A*6A
###2023-12-09 12:49:05.951278$GNGGA,174905.10,4138.0606703,N,07032.3901821,W,1,24,0.6,13.456,M,-29.744,M,0.0,*59
###2023-12-09 12:49:05.953518$GPGSA,A,3,03,04,16,26,28,29,31,32,,,,,1.1,0.6,0.9*3B
###2023-12-09 12:49:05.955606$GLGSA,A,3,65,71,72,73,74,75,,,,,,,1.1,0.6,0.9*24
###2023-12-09 12:49:05.957513$GAGSA,A,3,04,19,21,27,,,,,,,,,1.1,0.6,0.9*26
###2023-12-09 12:49:05.959524$GBGSA,A,3,14,24,25,26,33,,,,,,,,1.1,0.6,0.9*2F
###2023-12-09 12:49:05.962643$GPGSV,2,1,08,03,37,269,45,04,27,311,41,16,43,209,47,26,73,208,48*70
###2023-12-09 12:49:05.965462$GPGSV,2,2,08,28,53,064,45,29,26,067,41,31,71,021,47,32,24,137,41*76
###2023-12-09 12:49:05.968291$GLGSV,2,1,06,65,18,329,41,71,48,171,48,72,71,291,47,73,41,038,46*64
###2023-12-09 12:49:05.970394$GLGSV,2,2,06,74,71,317,43,75,28,247,44,,,,,,,,*6D
###2023-12-09 12:49:05.973212$GAGSV,1,1,04,04,25,312,40,19,85,269,41,21,83,162,46,27,37,048,44*64
###2023-12-09 12:49:05.976065$GBGSV,2,1,05,14,49,195,46,24,77,011,48,25,37,257,46,26,30,060,42*66
###2023-12-09 12:49:05.977824$GBGSV,2,2,05,33,61,241,47,,,,,,,,,,,,*5D
###2023-12-09 12:49:05.979391$GNVTG,25.48,T,,M,0.29,N,0.54,K,A*12
###2023-12-09 12:49:05.981376$GNGST,174905.10,18.000,,,,0.077,0.067,0.160*57
