###2023-12-09 12:40:31.960199$GLGSV,2,2,05,75,24,243,42,,,,,,,,,,,,*57
###2023-12-09 12:40:31.962544$GAGSV,1,1,04,04,23,311,43,19,83,293,40,21,80,172,45,27,40,049,44*60
###2023-12-09 12:40:31.964896$GBGSV,2,1,05,14,53,197,45,24,80,355,48,25,34,254,43,26,33,058,45*6D
###2023-12-09 12:40:31.966348$GBGSV,2,2,05,33,62,250,47,,,,,,,,,,,,*5E
###2023-12-09 12:40:31.967683$GNVTG,313.71,T,,M,0.76,N,1.40,K,A*20
###2023-12-09 12:40:31.969321$GNGST,174031.10,18.000,,,,0.079,0.071,0.170*51
###2023-12-09 12:40:31.970677$GNZDA,174031.10,09,12,2023,00,00*70
###2023-12-09 12:40:31.971322$GNEBP,,,,,,M*13
###2023-12-09 12:40:32.141259$GNGGA,174031.30,4138.0582465,N,07032.3845681,W,1,23,0.7,13.659,M,-29.744,M,0.0,*57
###2023-12-09 12:40:32.341743$GNGGA,174031.50,4138.0582413,N,07032.3845546,W,1,23,0.7,13.675,M,-29.744,M,0.0,*56
###2023-12-09 12:40:32.543123$GNGGA,174031.70,4138.0582421,N,07032.3845536,W,1,22,0.7,13.617,M,-29.744,M,0.0,*57
###2023-12-09 12:40:32.741303$GNGGA,174031.90,4138.0582684,N,07032.3845978,W,1,23,0.7,13.616,M,-29.744,M,0.0,*52
###2023-12-09 12:40:32.947533$GNRMC,174032.10,A,4138.0583053,N,07032.3846545,W,0.78,311.39,091223,,,A*50
###2023-12-09 12:40:32.950406$GNGGA,174032.10,4138.0583053,N,07032.3846545,W,1,23,0.7,13.628,M,-29.744,M,0.0,*58
###2023-12-09 12:40:32.952284$GPGSA,A,3,03,04,16,26,28,29,31,32,,,,,1.2,0.7,1.0*31
###2023-12-09 12:40:32.953939$GLGSA,A,3,71,72,73,74,75,,,,,,,,1.2,0.7,1.0*2D
###2023-12-09 12:40:32.955536$GAGSA,A,3,04,19,21,27,,,,,,,,,1.2,0.7,1.0*2C
###2023-12-09 12:40:32.957187$GBGSA,A,3,14,24,25,26,33,,,,,,,,1.2,0.7,1.0*25
###2023-12-09 12:40:32.959524$GPGSV,2,1,08,03,38,274,43,04,24,311,44,16,39,208,42,26,69,207,47*71
###2023-12-09 12:40:32.961862$GPGSV,2,2,08,28,56,059,44,29,25,071,42,31,73,010,48,32,28,135,44*7F
###2023-12-09 12:40:32.964255$GLGSV,2,1,05,71,54,170,48,72,68,305,46,73,45,035,47,74,71,299,43*61
###2023-12-09 12:40:32.965719$GLGSV,2,2,05,75,24,243,41,,,,,,,,,,,,*54
###2023-12-09 12:40:32.968052$GAGSV,1,1,04,04,23,311,43,19,83,293,40,21,80,172,45,27,40,049,44*60
###2023-12-09 12:40:32.970385$GBGSV,2,1,05,14,53,197,44,24,80,355,48,25,34,254,43,26,33,058,46*6F
###2023-12-09 12:40:32.971856$GBGSV,2,2,05,33,62,250,47,,,,,,,,,,,,*5E
###2023-12-09 12:40:32.973181$GNVTG,311.39,T,,M,0.78,N,1.44,K,A*24
###2023-12-09 12:40:32.974846$GNGST,174032.10,18.000,,,,0.080,0.071,0.170*54
###2023-12-09 12:40:32.976138$GNZDA,174032.10,09,12,2023,00,00*73
###2023-12-09 12:40:32.976774$GNEBP,,,,,,M*13
###2023-12-09 12:40:33.142272$GNGGA,174032.30,4138.0583169,N,07032.3846702,W,1,23,0.7,13.644,M,-29.744,M,0.0,*59
###2023-12-09 12:40:33.342299$GNGGA,174032.50,4138.0583035,N,07032.3846500,W,1,23,0.7,13.645,M,-29.744,M,0.0,*56
###2023-12-09 12:40:33.542101$GNGGA,174032.70,4138.0583065,N,07032.3846522,W,1,23,0.7,13.617,M,-29.744,M,0.0,*56
###2023-12-09 12:40:33.741140$GNGGA,174032.90,4138.0583430,N,07032.3847064,W,1,23,0.7,13.636,M,-29.744,M,0.0,*59
###2023-12-09 12:40:33.941681$GNRMC,174033.10,A,4138.0583784,N,07032.3847640,W,0.56,311.96,091223,,,A*52
###2023-12-09 12:40:33.944582$GNGGA,174033.10,4138.0583784,N,07032.3847640,W,1,23,0.7,13.622,M,-29.744,M,0.0,*59
###2023-12-09 12:40:33.946465$GPGSA,A,3,03,04,16,26,28,29,31,32,,,,,1.2,0.7,1.0*31
###2023-12-09 12:40:33.948151$GLGSA,A,3,71,72,73,74,75,,,,,,,,1.2,0.7,1.0*2D
###2023-12-09 12:40:33.949739$GAGSA,A,3,04,19,21,27,,,,,,,,,1.2,0.7,1.0*2C
###2023-12-09 12:40:33.951404$GBGSA,A,3,14,24,25,26,33,,,,,,,,1.2,0.7,1.0*25
###2023-12-09 12:40:33.953740$GPGSV,2,1,08,03,38,274,45,04,24,311,44,16,39,208,43,26,69,207,46*77
###2023-12-09 12:40:33.956098$GPGSV,2,2,08,28,56,059,44,29,25,071,41,31,73,010,47,32,28,135,44*73
###2023-12-09 12:40:33.958434$GLGSV,2,1,05,71,54,170,47,72,68,305,45,73,45,035,47,74,71,299,43*6D
###2023-12-09 12:40:33.959909$GLGSV,2,2,05,75,24,243,42,,,,,,,,,,,,*57
###2023-12-09 12:40:33.962239$GAGSV,1,1,04,04,23,311,43,19,83,293,40,21,80,172,45,27,40,049,45*61
###2023-12-09 12:40:33.964584$GBGSV,2,1,05,14,53,197,44,24,80,355,48,25,34,254,42,26,33,058,45*6D
###2023-12-09 12:40:33.966043$GBGSV,2,2,05,33,62,250,47,,,,,,,,,,,,*5E
###2023-12-09 12:40:33.967381$GNVTG,311.96,T,,M,0.56,N,1.04,K,A*29
###2023-12-09 12:40:33.969027$GNGST,174033.10,19.000,,,,0.079,0.071,0.170*52
###2023-12-09 12:40:33.970320$GNZDA,174033.10,09,12,2023,00,00*72
###2023-12-09 12:40:33.970971$GNEBP,,,,,,M*13
###2023-12-09 12:40:34.141719$GNGGA,174033.30,4138.0583742,N,07032.3847768,W,1,23,0.7,13.622,M,-29.744,M,0.0,*5A
###2023-12-09 12:40:34.341652$GNGGA,174033.50,4138.0583426,N,07032.3847793,W,1,23,0.7,13.620,M,-29.744,M,0.0,*5B
###2023-12-09 12:40:34.543333$GNGGA,174033.70,4138.0583313,N,07032.3848355,W,1,23,0.7,13.610,M,-29.744,M,0.0,*5A
###2023-12-09 12:40:34.742001$GNGGA,174033.90,4138.0583370,N,07032.3849463,W,1,23,0.7,13.623,M,-29.744,M,0.0,*52
###2023-12-09 12:40:34.943272$GNRMC,174034.10,A,4138.0583244,N,07032.3850596,W,1.44,246.84,091223,,,A*50
###2023-12-09 12:40:34.946116$GNGGA,174034.10,4138.0583244,N,07032.3850596,W,1,23,0.7,13.605,M,-29.744,M,0.0,*5C
###2023-12-09 12:40:34.948018$GPGSA,A,3,03,04,16,26,28,29,31,32,,,,,1.2,0.7,1.0*31
###2023-12-09 12:40:34.949699$GLGSA,A,3,71,72,73,74,75,,,,,,,,1.2,0.7,1.0*2D
###2023-12-09 12:40:34.951305$GAGSA,A,3,04,19,21,27,,,,,,,,,1.2,0.7,1.0*2C
###2023-12-09 12:40:34.952962$GBGSA,A,3,14,24,25,26,33,,,,,,,,1.2,0.7,1.0*25
###2023-12-09 12:40:34.955315$GPGSV,2,1,08,03,38,274,44,04,24,311,43,16,39,208,43,26,69,207,47*70
###2023-12-09 12:40:34.957652$GPGSV,2,2,08,28,56,059,44,29,25,071,42,31,73,010,47,32,28,135,44*70
###2023-12-09 12:40:34.960000$GLGSV,2,1,05,71,54,170,46,72,68,305,46,73,45,035,47,74,71,299,43*6F
###2023-12-09 12:40:34.961461$GLGSV,2,2,05,75,24,243,41,,,,,,,,,,,,*54
###2023-12-09 12:40:34.963810$GAGSV,1,1,04,04,23,311,42,19,83,293,40,21,80,172,46,27,40,049,45*63
###2023-12-09 12:40:34.966154$GBGSV,2,1,05,14,53,197,44,24,80,355,48,25,34,254,43,26,33,058,45*6C
###2023-12-09 12:40:34.967634$GBGSV,2,2,05,33,62,250,47,,,,,,,,,,,,*5E
###2023-12-09 12:40:34.968958$GNVTG,246.84,T,,M,1.44,N,2.66,K,A*2C
###2023-12-09 12:40:34.970623$GNGST,174034.10,18.000,,,,0.079,0.071,0.170*54
###2023-12-09 12:40:34.971925$GNZDA,174034.10,09,12,2023,00,00*75
###2023-12-09 12:40:34.972562$GNEBP,,,,,,M*13
###2023-12-09 12:40:35.140426$GNGGA,174034.30,4138.0582756,N,07032.3851434,W,1,23,0.7,13.609,M,-29.744,M,0.0,*5D
###2023-12-09 12:40:35.342441$GNGGA,174034.50,4138.0582134,N,07032.3852239,W,1,23,0.7,13.602,M,-29.744,M,0.0,*5A
###2023-12-09 12:40:35.542610$GNGGA,174034.70,4138.0581625,N,07032.3853365,W,1,23,0.7,13.595,M,-29.744,M,0.0,*58
###2023-12-09 12:40:35.741792$GNGGA,174034.90,4138.0581132,N,07032.3854774,W,1,23,0.7,13.601,M,-29.744,M,0.0,*5A
###2023-12-09 12:40:35.942149$GNRMC,174035.10,A,4138.0580425,N,07032.3856025,W,1.98,222.82,091223,,,A*5D
###2023-12-09 12:40:35.945644$GNGGA,174035.10,4138.0580425,N,07032.3856025,W,1,23,0.7,13.589,M,-29.744,M,0.0,*53
###2023-12-09 12:40:35.947956$GPGSA,A,3,03,04,16,26,28,29,31,32,,,,,1.2,0.7,1.0*31
###2023-12-09 12:40:35.949983$GLGSA,A,3,71,72,73,74,75,,,,,,,,1.2,0.7,1.0*2D
###2023-12-09 12:40:35.951927$GAGSA,A,3,04,19,21,27,,,,,,,,,1.2,0.7,1.0*2C
###2023-12-09 12:40:35.953916$GBGSA,A,3,14,24,25,26,33,,,,,,,,1.2,0.7,1.0*25
###2023-12-09 12:40:35.956856$GPGSV,2,1,08,03,38,274,44,04,24,311,44,16,39,208,41,26,69,207,46*74
###2023-12-09 12:40:35.959718$GPGSV,2,2,08,28,56,059,43,29,25,071,41,31,73,010,47,32,28,135,44*74
###2023-12-09 12:40:35.962542$GLGSV,2,1,05,71,54,170,46,72,68,305,46,73,45,035,47,74,71,299,43*6F
###2023-12-09 12:40:35.964342$GLGSV,2,2,05,75,24,243,42,,,,,,,,,,,,*57
###2023-12-09 12:40:35.967164$GAGSV,1,1,04,04,23,311,42,19,83,293,40,21,80,172,45,27,40,049,43*66
###2023-12-09 12:40:35.969972$GBGSV,2,1,05,14,53,197,44,24,80,355,47,25,34,254,44,26,33,058,43*62
###2023-12-09 12:40:35.971742$GBGSV,2,2,05,33,62,250,47,,,,,,,,,,,,*5E
###2023-12-09 12:40:35.973350$GNVTG,222.82,T,,M,1.98,N,3.67,K,A*29
###2023-12-09 12:40:35.975360$GNGST,174035.10,19.000,,,,0.080,0.071,0.170*52
###2023-12-09 12:40:35.976930$GNZDA,174035.10,09,12,2023,00,00*74
###2023-12-09 12:40:35.977710$GNEBP,,,,,,M*13
###2023-12-09 12:40:36.146049$GNGGA,174035.30,4138.0579490,N,07032.3856920,W,1,23,0.7,13.583,M,-29.744,M,0.0,*5F
###2023-12-09 12:40:36.341712$GNGGA,174035.50,4138.0578528,N,07032.3857788,W,1,23,0.7,13.579,M,-29.744,M,0.0,*52
###2023-12-09 12:40:36.544434$GNGGA,174035.70,4138.0577583,N,07032.3859035,W,1,23,0.7,13.594,M,-29.744,M,0.0,*52
###2023-12-09 12:40:36.742608$GNGGA,174035.90,4138.0576488,N,07032.3860273,W,1,23,0.7,13.580,M,-29.744,M,0.0,*58
###2023-12-09 12:40:36.941795$GNRMC,174036.10,A,4138.0575270,N,07032.3861000,W,2.29,198.23,091223,,,A*51
###2023-12-09 12:40:36.944666$GNGGA,174036.10,4138.0575270,N,07032.3861000,W,1,23,0.7,13.557,M,-29.744,M,0.0,*5C
###2023-12-09 12:40:36.947087$GPGSA,A,3,03,04,16,26,28,29,31,32,,,,,1.2,0.7,1.0*31
###2023-12-09 12:40:36.948787$GLGSA,A,3,71,72,73,74,75,,,,,,,,1.2,0.7,1.0*2D
