###2023-12-09 12:56:14.968078$GPGSV,2,1,08,03,36,265,45,04,30,311,42,16,47,211,47,26,77,209,48*70
###2023-12-09 12:56:14.970431$GPGSV,2,2,08,28,51,068,45,29,25,064,41,31,70,031,48,32,21,139,41*7C
###2023-12-09 12:56:14.972790$GLGSV,2,1,06,65,21,328,43,71,44,172,46,72,72,281,47,73,38,040,46*6F
###2023-12-09 12:56:14.974543$GLGSV,2,2,06,74,71,327,43,75,30,250,46,,,,,,,,*63
###2023-12-09 12:56:14.976886$GAGSV,1,1,04,04,27,312,41,19,85,234,41,21,85,141,47,27,34,048,43*6D
###2023-12-09 12:56:14.979230$GBGSV,2,1,05,14,46,194,45,24,75,018,49,25,39,260,46,26,28,061,42*63
###2023-12-09 12:56:14.980686$GBGSV,2,2,05,33,59,237,47,,,,,,,,,,,,*57
###2023-12-09 12:56:14.982003$GNVTG,352.98,T,,M,0.29,N,0.54,K,A*2C
###2023-12-09 12:56:14.983663$GNGST,175614.10,18.000,,,,0.076,0.065,0.150*59
###2023-12-09 12:56:14.984952$GNZDA,175614.10,09,12,2023,00,00*70
###2023-12-09 12:56:14.985591$GNEBP,,,,,,M*13
###2023-12-09 12:56:15.154050$GNGGA,175614.30,4138.0432725,N,07032.3894206,W,1,24,0.6,13.294,M,-29.745,M,0.0,*5F
###2023-12-09 12:56:15.355365$GNGGA,175614.50,4138.0432749,N,07032.3894132,W,1,24,0.6,13.296,M,-29.745,M,0.0,*55
###2023-12-09 12:56:15.554067$GNGGA,175614.70,4138.0432976,N,07032.3894096,W,1,24,0.6,13.296,M,-29.745,M,0.0,*5A
###2023-12-09 12:56:15.755166$GNGGA,175614.90,4138.0433349,N,07032.3894066,W,1,24,0.6,13.302,M,-29.745,M,0.0,*50
###2023-12-09 12:56:15.955214$GNRMC,175615.10,A,4138.0433556,N,07032.3894002,W,0.17,352.98,091223,,,A*54
###2023-12-09 12:56:15.958064$GNGGA,175615.10,4138.0433556,N,07032.3894002,W,1,24,0.6,13.310,M,-29.745,M,0.0,*50
###2023-12-09 12:56:15.959973$GPGSA,A,3,03,04,16,26,28,29,31,32,,,,,1.1,0.6,0.9*3B
###2023-12-09 12:56:15.961685$GLGSA,A,3,65,71,72,73,74,75,,,,,,,1.1,0.6,0.9*24
###2023-12-09 12:56:15.963285$GAGSA,A,3,04,19,21,27,,,,,,,,,1.1,0.6,0.9*26
###2023-12-09 12:56:15.964929$GBGSA,A,3,14,24,25,26,33,,,,,,,,1.1,0.6,0.9*2F
###2023-12-09 12:56:15.967268$GPGSV,2,1,08,03,36,265,46,04,30,311,42,16,47,211,46,26,77,209,48*72
###2023-12-09 12:56:15.969603$GPGSV,2,2,08,28,51,068,45,29,25,064,42,31,70,031,47,32,21,139,40*71
###2023-12-09 12:56:15.971938$GLGSV,2,1,06,65,21,328,44,71,44,172,47,72,72,281,47,73,38,040,46*69
###2023-12-09 12:56:15.973679$GLGSV,2,2,06,74,71,327,43,75,30,250,45,,,,,,,,*60
###2023-12-09 12:56:15.976004$GAGSV,1,1,04,04,27,312,40,19,85,234,41,21,85,141,47,27,34,048,43*6C
###2023-12-09 12:56:15.978323$GBGSV,2,1,05,14,46,194,45,24,75,018,49,25,39,260,46,26,28,061,42*63
###2023-12-09 12:56:15.979784$GBGSV,2,2,05,33,59,237,48,,,,,,,,,,,,*58
###2023-12-09 12:56:15.981101$GNVTG,352.98,T,,M,0.17,N,0.32,K,A*21
###2023-12-09 12:56:15.982753$GNGST,175615.10,18.000,,,,0.076,0.065,0.150*58
###2023-12-09 12:56:15.984044$GNZDA,175615.10,09,12,2023,00,00*71
###2023-12-09 12:56:15.984683$GNEBP,,,,,,M*13
###2023-12-09 12:56:16.153966$GNGGA,175615.30,4138.0433553,N,07032.3893900,W,1,24,0.6,13.315,M,-29.745,M,0.0,*5E
###2023-12-09 12:56:16.354828$GNGGA,175615.50,4138.0433604,N,07032.3893817,W,1,24,0.6,13.315,M,-29.745,M,0.0,*5E
###2023-12-09 12:56:16.554854$GNGGA,175615.70,4138.0433875,N,07032.3893760,W,1,24,0.6,13.315,M,-29.745,M,0.0,*5B
###2023-12-09 12:56:16.758316$GNGGA,175615.90,4138.0434243,N,07032.3893722,W,1,24,0.6,13.316,M,-29.745,M,0.0,*58
###2023-12-09 12:56:16.956685$GNRMC,175616.10,A,4138.0434410,N,07032.3893640,W,0.12,352.98,091223,,,A*51
###2023-12-09 12:56:16.959566$GNGGA,175616.10,4138.0434410,N,07032.3893640,W,1,24,0.6,13.326,M,-29.745,M,0.0,*55
###2023-12-09 12:56:16.961424$GPGSA,A,3,03,04,16,26,28,29,31,32,,,,,1.1,0.6,0.9*3B
###2023-12-09 12:56:16.963150$GLGSA,A,3,65,71,72,73,74,75,,,,,,,1.1,0.6,0.9*24
###2023-12-09 12:56:16.964730$GAGSA,A,3,04,19,21,27,,,,,,,,,1.1,0.6,0.9*26
###2023-12-09 12:56:16.966368$GBGSA,A,3,14,24,25,26,33,,,,,,,,1.1,0.6,0.9*2F
###2023-12-09 12:56:16.968694$GPGSV,2,1,08,03,36,265,45,04,30,311,42,16,47,211,46,26,77,209,49*70
###2023-12-09 12:56:16.971018$GPGSV,2,2,08,28,51,068,45,29,25,064,42,31,70,031,48,32,21,139,40*7E
###2023-12-09 12:56:16.973332$GLGSV,2,1,06,65,21,328,44,71,44,172,46,72,72,281,47,73,38,040,46*68
###2023-12-09 12:56:16.975081$GLGSV,2,2,06,74,71,327,43,75,30,250,45,,,,,,,,*60
###2023-12-09 12:56:16.977393$GAGSV,1,1,04,04,27,312,41,19,85,234,41,21,85,141,46,27,34,048,43*6C
###2023-12-09 12:56:16.979722$GBGSV,2,1,05,14,46,194,45,24,75,018,49,25,39,260,45,26,28,061,42*60
###2023-12-09 12:56:16.981173$GBGSV,2,2,05,33,59,237,47,,,,,,,,,,,,*57
###2023-12-09 12:56:16.982491$GNVTG,352.98,T,,M,0.12,N,0.22,K,A*25
###2023-12-09 12:56:16.984146$GNGST,175616.10,18.000,,,,0.076,0.065,0.150*5B
###2023-12-09 12:56:16.985433$GNZDA,175616.10,09,12,2023,00,00*72
###2023-12-09 12:56:16.986070$GNEBP,,,,,,M*13
###2023-12-09 12:56:17.155958$GNGGA,175616.30,4138.0434379,N,07032.3893515,W,1,24,0.6,13.333,M,-29.745,M,0.0,*58
###2023-12-09 12:56:17.356062$GNGGA,175616.50,4138.0434433,N,07032.3893439,W,1,24,0.6,13.331,M,-29.745,M,0.0,*5A
###2023-12-09 12:56:17.556922$GNGGA,175616.70,4138.0434747,N,07032.3893408,W,1,24,0.6,13.332,M,-29.745,M,0.0,*59
###2023-12-09 12:56:17.755925$GNGGA,175616.90,4138.0435117,N,07032.3893381,W,1,24,0.6,13.336,M,-29.745,M,0.0,*57
###2023-12-09 12:56:17.956581$GNRMC,175617.10,A,4138.0435203,N,07032.3893270,W,0.19,352.98,091223,,,A*59
###2023-12-09 12:56:17.959454$GNGGA,175617.10,4138.0435203,N,07032.3893270,W,1,24,0.6,13.344,M,-29.745,M,0.0,*52
###2023-12-09 12:56:17.961317$GPGSA,A,3,03,04,16,26,28,29,31,32,,,,,1.1,0.6,0.9*3B
###2023-12-09 12:56:17.963049$GLGSA,A,3,65,71,72,73,74,75,,,,,,,1.1,0.6,0.9*24
###2023-12-09 12:56:17.964629$GAGSA,A,3,04,19,21,27,,,,,,,,,1.1,0.6,0.9*26
###2023-12-09 12:56:17.966270$GBGSA,A,3,14,24,25,26,33,,,,,,,,1.1,0.6,0.9*2F
###2023-12-09 12:56:17.968610$GPGSV,2,1,08,03,36,265,46,04,30,311,42,16,47,211,45,26,77,209,48*71
###2023-12-09 12:56:17.970981$GPGSV,2,2,08,28,51,068,45,29,25,064,42,31,70,031,48,32,21,139,40*7E
###2023-12-09 12:56:17.973324$GLGSV,2,1,06,65,21,328,44,71,44,172,45,72,72,281,47,73,38,040,46*6B
###2023-12-09 12:56:17.975087$GLGSV,2,2,06,74,71,327,43,75,30,250,45,,,,,,,,*60
###2023-12-09 12:56:17.977420$GAGSV,1,1,04,04,27,312,41,19,85,234,41,21,85,141,46,27,34,048,43*6C
###2023-12-09 12:56:17.979766$GBGSV,2,1,05,14,46,194,45,24,75,018,49,25,39,260,46,26,28,061,42*63
###2023-12-09 12:56:17.981225$GBGSV,2,2,05,33,59,237,47,,,,,,,,,,,,*57
###2023-12-09 12:56:17.982541$GNVTG,352.98,T,,M,0.19,N,0.36,K,A*2B
###2023-12-09 12:56:17.984201$GNGST,175617.10,18.000,,,,0.076,0.065,0.150*5A
###2023-12-09 12:56:17.985495$GNZDA,175617.10,09,12,2023,00,00*73
###2023-12-09 12:56:17.986132$GNEBP,,,,,,M*13
###2023-12-09 12:56:18.156180$GNGGA,175617.30,4138.0435137,N,07032.3893162,W,1,24,0.6,13.346,M,-29.745,M,0.0,*56
###2023-12-09 12:56:18.355902$GNGGA,175617.50,4138.0435244,N,07032.3893127,W,1,24,0.6,13.340,M,-29.745,M,0.0,*50
###2023-12-09 12:56:18.555911$GNGGA,175617.70,4138.0435639,N,07032.3893111,W,1,24,0.6,13.345,M,-29.745,M,0.0,*5C
###2023-12-09 12:56:18.758005$GNGGA,175617.90,4138.0435941,N,07032.3893064,W,1,24,0.6,13.343,M,-29.745,M,0.0,*57
###2023-12-09 12:56:18.956569$GNRMC,175618.10,A,4138.0435951,N,07032.3892982,W,0.27,352.98,091223,,,A*50
###2023-12-09 12:56:18.959478$GNGGA,175618.10,4138.0435951,N,07032.3892982,W,1,24,0.6,13.355,M,-29.745,M,0.0,*56
###2023-12-09 12:56:18.961329$GPGSA,A,3,03,04,16,26,28,29,31,32,,,,,1.1,0.6,0.9*3B
###2023-12-09 12:56:18.963059$GLGSA,A,3,65,71,72,73,74,75,,,,,,,1.1,0.6,0.9*24
###2023-12-09 12:56:18.964638$GAGSA,A,3,04,19,21,27,,,,,,,,,1.1,0.6,0.9*26
###2023-12-09 12:56:18.966277$GBGSA,A,3,14,24,25,26,33,,,,,,,,1.1,0.6,0.9*2F
###2023-12-09 12:56:18.968647$GPGSV,2,1,08,03,36,265,46,04,30,311,42,16,47,211,46,26,77,209,49*73
###2023-12-09 12:56:18.970998$GPGSV,2,2,08,28,51,068,45,29,25,064,41,31,70,031,48,32,21,139,42*7F
###2023-12-09 12:56:18.973332$GLGSV,2,1,06,65,21,328,44,71,44,172,45,72,72,281,47,73,38,040,46*6B
###2023-12-09 12:56:18.975084$GLGSV,2,2,06,74,71,327,43,75,30,250,46,,,,,,,,*63
###2023-12-09 12:56:18.977402$GAGSV,1,1,04,04,27,312,40,19,85,234,41,21,85,141,47,27,34,048,44*6B
###2023-12-09 12:56:18.979743$GBGSV,2,1,05,14,46,194,45,24,75,018,49,25,39,260,45,26,28,061,42*60
###2023-12-09 12:56:18.981193$GBGSV,2,2,05,33,59,237,47,,,,,,,,,,,,*57
###2023-12-09 12:56:18.982777$GNVTG,352.98,T,,M,0.27,N,0.50,K,A*26
###2023-12-09 12:56:18.984440$GNGST,175618.10,18.000,,,,0.076,0.065,0.150*55
###2023-12-09 12:56:18.985734$GNZDA,175618.10,09,12,2023,00,00*7C
###2023-12-09 12:56:18.986375$GNEBP,,,,,,M*13
###2023-12-09 12:56:19.156563$GNGGA,175618.30,4138.0435896,N,07032.3892896,W,1,24,0.6,13.358,M,-29.745,M,0.0,*57
###2023-12-09 12:56:19.355854$GNGGA,175618.50,4138.0436098,N,07032.3892857,W,1,24,0.6,13.354,M,-29.745,M,0.0,*55
###2023-12-09 12:56:19.555895$GNGGA,175618.70,4138.0436505,N,07032.3892857,W,1,24,0.6,13.355,M,-29.745,M,0.0,*57
###2023-12-09 12:56:19.757218$GNGGA,175618.90,4138.0436731,N,07032.3892803,W,1,24,0.6,13.354,M,-29.745,M,0.0,*5C
###2023-12-09 12:56:19.957362$GNRMC,175619.10,A,4138.0436664,N,07032.3892671,W,0.29,352.98,091223,,,A*56
