###2023-12-09 12:54:05.983704$GNZDA,175405.10,09,12,2023,00,00*72
###2023-12-09 12:54:05.984364$GNEBP,,,,,,M*13
###2023-12-09 12:54:06.153580$GNGGA,175405.30,4138.0603813,N,07032.3928194,W,1,24,0.6,13.553,M,-29.744,M,0.0,*54
###2023-12-09 12:54:06.354582$GNGGA,175405.50,4138.0603895,N,07032.3928451,W,1,24,0.6,13.555,M,-29.744,M,0.0,*56
###2023-12-09 12:54:06.553418$GNGGA,175405.70,4138.0604194,N,07032.3929204,W,1,24,0.6,13.579,M,-29.744,M,0.0,*52
###2023-12-09 12:54:06.754418$GNGGA,175405.90,4138.0604365,N,07032.3929660,W,1,24,0.6,13.579,M,-29.744,M,0.0,*56
###2023-12-09 12:54:06.954939$GNRMC,175406.10,A,4138.0604258,N,07032.3929519,W,0.51,299.39,091223,,,A*5C
###2023-12-09 12:54:06.957790$GNGGA,175406.10,4138.0604258,N,07032.3929519,W,1,24,0.6,13.580,M,-29.744,M,0.0,*59
###2023-12-09 12:54:06.959662$GPGSA,A,3,03,04,16,26,28,29,31,32,,,,,1.1,0.6,0.9*3B
###2023-12-09 12:54:06.961375$GLGSA,A,3,65,71,72,73,74,75,,,,,,,1.1,0.6,0.9*24
###2023-12-09 12:54:06.962971$GAGSA,A,3,04,19,21,27,,,,,,,,,1.1,0.6,0.9*26
###2023-12-09 12:54:06.964614$GBGSA,A,3,14,24,25,26,33,,,,,,,,1.1,0.6,0.9*2F
###2023-12-09 12:54:06.966948$GPGSV,2,1,08,03,36,266,44,04,29,311,45,16,46,211,43,26,76,209,47*76
###2023-12-09 12:54:06.969272$GPGSV,2,2,08,28,52,067,45,29,25,064,42,31,70,029,48,32,22,138,43*7A
###2023-12-09 12:54:06.971600$GLGSV,2,1,06,65,20,328,43,71,45,172,46,72,72,285,45,73,39,039,47*67
###2023-12-09 12:54:06.973335$GLGSV,2,2,06,74,71,324,43,75,29,249,44,,,,,,,,*62
###2023-12-09 12:54:06.975661$GAGSV,1,1,04,04,27,312,44,19,85,242,40,21,84,154,46,27,36,048,44*69
###2023-12-09 12:54:06.977982$GBGSV,2,1,05,14,47,194,45,24,76,016,49,25,38,259,46,26,29,061,43*64
###2023-12-09 12:54:06.979445$GBGSV,2,2,05,33,60,238,47,,,,,,,,,,,,*52
###2023-12-09 12:54:06.980764$GNVTG,299.39,T,,M,0.51,N,0.94,K,A*22
###2023-12-09 12:54:06.982407$GNGST,175406.10,18.000,,,,0.077,0.068,0.160*57
###2023-12-09 12:54:06.983710$GNZDA,175406.10,09,12,2023,00,00*71
###2023-12-09 12:54:06.984348$GNEBP,,,,,,M*13
###2023-12-09 12:54:07.152775$GNGGA,175406.30,4138.0604149,N,07032.3929330,W,1,24,0.6,13.553,M,-29.744,M,0.0,*5B
###2023-12-09 12:54:07.356503$GNGGA,175406.50,4138.0604333,N,07032.3929795,W,1,24,0.6,13.575,M,-29.744,M,0.0,*5D
###2023-12-09 12:54:07.555804$GNGGA,175406.70,4138.0604619,N,07032.3930556,W,1,24,0.6,13.597,M,-29.744,M,0.0,*5B
###2023-12-09 12:54:07.760413$GNGGA,175406.90,4138.0604645,N,07032.3930757,W,1,24,0.6,13.596,M,-29.744,M,0.0,*5E
###2023-12-09 12:54:07.955776$GNRMC,175407.10,A,4138.0604520,N,07032.3930476,W,0.45,295.08,091223,,,A*5E
###2023-12-09 12:54:07.958652$GNGGA,175407.10,4138.0604520,N,07032.3930476,W,1,24,0.6,13.595,M,-29.744,M,0.0,*54
###2023-12-09 12:54:07.960514$GPGSA,A,3,03,04,16,26,28,29,31,32,,,,,1.1,0.6,0.9*3B
###2023-12-09 12:54:07.962229$GLGSA,A,3,65,71,72,73,74,75,,,,,,,1.1,0.6,0.9*24
###2023-12-09 12:54:07.963828$GAGSA,A,3,04,19,21,27,,,,,,,,,1.1,0.6,0.9*26
###2023-12-09 12:54:07.965479$GBGSA,A,3,14,24,25,26,33,,,,,,,,1.1,0.6,0.9*2F
###2023-12-09 12:54:07.967834$GPGSV,2,1,08,03,36,266,43,04,29,311,43,16,46,211,43,26,76,209,47*77
###2023-12-09 12:54:07.970175$GPGSV,2,2,08,28,52,067,45,29,25,064,43,31,70,029,48,32,22,138,45*7D
###2023-12-09 12:54:07.972529$GLGSV,2,1,06,65,20,328,40,71,45,172,46,72,72,285,45,73,39,039,47*64
###2023-12-09 12:54:07.974278$GLGSV,2,2,06,74,71,324,43,75,29,249,41,,,,,,,,*67
###2023-12-09 12:54:07.976636$GAGSV,1,1,04,04,27,312,42,19,85,242,40,21,84,148,46,27,36,048,44*62
###2023-12-09 12:54:07.978992$GBGSV,2,1,05,14,47,194,44,24,76,016,49,25,38,259,45,26,29,061,45*60
###2023-12-09 12:54:07.980454$GBGSV,2,2,05,33,60,238,47,,,,,,,,,,,,*52
###2023-12-09 12:54:07.981781$GNVTG,295.08,T,,M,0.45,N,0.83,K,A*2F
###2023-12-09 12:54:07.983449$GNGST,175407.10,18.000,,,,0.077,0.067,0.160*59
###2023-12-09 12:54:07.984746$GNZDA,175407.10,09,12,2023,00,00*70
###2023-12-09 12:54:07.985386$GNEBP,,,,,,M*13
###2023-12-09 12:54:08.153612$GNGGA,175407.30,4138.0604545,N,07032.3930566,W,1,24,0.6,13.591,M,-29.744,M,0.0,*51
###2023-12-09 12:54:08.356376$GNGGA,175407.50,4138.0604786,N,07032.3931237,W,1,24,0.6,13.613,M,-29.744,M,0.0,*51
###2023-12-09 12:54:08.554426$GNGGA,175407.70,4138.0604943,N,07032.3931718,W,1,24,0.6,13.605,M,-29.744,M,0.0,*5B
###2023-12-09 12:54:08.754626$GNGGA,175407.90,4138.0604879,N,07032.3931655,W,1,24,0.6,13.612,M,-29.744,M,0.0,*53
###2023-12-09 12:54:08.960882$GNRMC,175408.10,A,4138.0604854,N,07032.3931587,W,0.27,293.85,091223,,,A*56
###2023-12-09 12:54:08.963772$GNGGA,175408.10,4138.0604854,N,07032.3931587,W,1,24,0.6,13.622,M,-29.744,M,0.0,*54
###2023-12-09 12:54:08.965625$GPGSA,A,3,03,04,16,26,28,29,31,32,,,,,1.1,0.6,0.9*3B
###2023-12-09 12:54:08.967352$GLGSA,A,3,65,71,72,73,74,75,,,,,,,1.1,0.6,0.9*24
###2023-12-09 12:54:08.968939$GAGSA,A,3,04,19,21,27,,,,,,,,,1.1,0.6,0.9*26
###2023-12-09 12:54:08.970590$GBGSA,A,3,14,24,25,26,33,,,,,,,,1.1,0.6,0.9*2F
###2023-12-09 12:54:08.972926$GPGSV,2,1,08,03,36,266,44,04,29,311,42,16,46,211,44,26,76,209,47*76
###2023-12-09 12:54:08.975269$GPGSV,2,2,08,28,52,067,46,29,25,064,42,31,70,029,48,32,22,138,46*7C
###2023-12-09 12:54:08.977591$GLGSV,2,1,06,65,20,328,40,71,45,172,47,72,72,285,45,73,39,039,47*65
###2023-12-09 12:54:08.979343$GLGSV,2,2,06,74,71,324,43,75,29,249,41,,,,,,,,*67
###2023-12-09 12:54:08.981665$GAGSV,1,1,04,04,27,312,42,19,85,242,40,21,84,148,46,27,36,048,44*62
###2023-12-09 12:54:08.983998$GBGSV,2,1,05,14,47,194,45,24,76,016,50,25,38,259,46,26,29,061,45*6A
###2023-12-09 12:54:08.985454$GBGSV,2,2,05,33,60,238,47,,,,,,,,,,,,*52
###2023-12-09 12:54:08.986782$GNVTG,293.85,T,,M,0.27,N,0.50,K,A*26
###2023-12-09 12:54:08.988423$GNGST,175408.10,18.000,,,,0.076,0.067,0.160*57
###2023-12-09 12:54:08.989710$GNZDA,175408.10,09,12,2023,00,00*7F
###2023-12-09 12:54:08.990350$GNEBP,,,,,,M*13
###2023-12-09 12:54:09.156485$GNGGA,175408.30,4138.0604999,N,07032.3931988,W,1,24,0.6,13.634,M,-29.744,M,0.0,*52
###2023-12-09 12:54:09.356147$GNGGA,175408.50,4138.0605169,N,07032.3932473,W,1,24,0.6,13.631,M,-29.744,M,0.0,*5D
###2023-12-09 12:54:09.555117$GNGGA,175408.70,4138.0605234,N,07032.3932726,W,1,24,0.6,13.627,M,-29.744,M,0.0,*50
###2023-12-09 12:54:09.755709$GNGGA,175408.90,4138.0605252,N,07032.3932803,W,1,24,0.6,13.643,M,-29.744,M,0.0,*54
###2023-12-09 12:54:09.954057$GNRMC,175409.10,A,4138.0605267,N,07032.3932903,W,0.23,293.85,091223,,,A*5B
###2023-12-09 12:54:09.956943$GNGGA,175409.10,4138.0605267,N,07032.3932903,W,1,24,0.6,13.642,M,-29.744,M,0.0,*5B
###2023-12-09 12:54:09.958814$GPGSA,A,3,03,04,16,26,28,29,31,32,,,,,1.1,0.6,0.9*3B
###2023-12-09 12:54:09.960524$GLGSA,A,3,65,71,72,73,74,75,,,,,,,1.1,0.6,0.9*24
###2023-12-09 12:54:09.962100$GAGSA,A,3,04,19,21,27,,,,,,,,,1.1,0.6,0.9*26
###2023-12-09 12:54:09.963756$GBGSA,A,3,14,24,25,26,33,,,,,,,,1.1,0.6,0.9*2F
###2023-12-09 12:54:09.966076$GPGSV,2,1,08,03,36,266,44,04,29,311,42,16,46,211,44,26,76,209,47*76
###2023-12-09 12:54:09.968412$GPGSV,2,2,08,28,52,067,45,29,25,064,43,31,70,029,48,32,22,138,46*7E
###2023-12-09 12:54:09.970746$GLGSV,2,1,06,65,20,328,41,71,45,172,46,72,72,285,46,73,39,039,47*66
###2023-12-09 12:54:09.972485$GLGSV,2,2,06,74,71,324,42,75,29,249,41,,,,,,,,*66
###2023-12-09 12:54:09.974803$GAGSV,1,1,04,04,27,312,42,19,85,242,40,21,84,148,46,27,36,048,44*62
###2023-12-09 12:54:09.977124$GBGSV,2,1,05,14,47,194,43,24,76,016,48,25,38,259,45,26,29,061,43*60
###2023-12-09 12:54:09.978582$GBGSV,2,2,05,33,60,238,47,,,,,,,,,,,,*52
###2023-12-09 12:54:09.979901$GNVTG,293.85,T,,M,0.23,N,0.43,K,A*20
###2023-12-09 12:54:09.981548$GNGST,175409.10,18.000,,,,0.076,0.067,0.160*56
###2023-12-09 12:54:09.982846$GNZDA,175409.10,09,12,2023,00,00*7E
###2023-12-09 12:54:09.983483$GNEBP,,,,,,M*13
###2023-12-09 12:54:10.151631$GNGGA,175409.30,4138.0605332,N,07032.3933156,W,1,24,0.6,13.640,M,-29.744,M,0.0,*53
###2023-12-09 12:54:10.353746$GNGGA,175409.50,4138.0605486,N,07032.3933599,W,1,24,0.6,13.652,M,-29.744,M,0.0,*59
###2023-12-09 12:54:10.551300$GNGGA,175409.70,4138.0605642,N,07032.3933997,W,1,24,0.6,13.665,M,-29.744,M,0.0,*57
###2023-12-09 12:54:10.751631$GNGGA,175409.90,4138.0605676,N,07032.3934088,W,1,24,0.6,13.649,M,-29.744,M,0.0,*50
###2023-12-09 12:54:10.954456$GNRMC,175410.10,A,4138.0605601,N,07032.3934029,W,0.12,293.85,091223,,,A*52
###2023-12-09 12:54:10.957592$GNGGA,175410.10,4138.0605601,N,07032.3934029,W,1,24,0.6,13.630,M,-29.744,M,0.0,*55
###2023-12-09 12:54:10.959473$GPGSA,A,3,03,04,16,26,28,29,31,32,,,,,1.1,0.6,0.9*3B
###2023-12-09 12:54:10.961184$GLGSA,A,3,65,71,72,73,74,75,,,,,,,1.1,0.6,0.9*24
###2023-12-09 12:54:10.962775$GAGSA,A,3,04,19,21,27,,,,,,,,,1.1,0.6,0.9*26
###2023-12-09 12:54:10.964418$GBGSA,A,3,14,24,25,26,33,,,,,,,,1.1,0.6,0.9*2F
###2023-12-09 12:54:10.966761$GPGSV,2,1,08,03,36,266,44,04,29,311,41,16,46,211,43,26,76,209,47*72
###2023-12-09 12:54:10.969091$GPGSV,2,2,08,28,52,067,46,29,25,064,44,31,70,029,48,32,22,138,45*79
###2023-12-09 12:54:10.971432$GLGSV,2,1,06,65,20,328,40,71,45,172,47,72,72,285,46,73,39,039,47*66
###2023-12-09 12:54:10.973174$GLGSV,2,2,06,74,71,324,43,75,29,249,40,,,,,,,,*66
