###2023-12-09 12:38:56.954629$GAGSA,A,3,04,19,21,27,,,,,,,,,1.2,0.7,1.0*2C
###2023-12-09 12:38:56.956303$GBGSA,A,3,14,24,25,26,33,,,,,,,,1.2,0.7,1.0*25
###2023-12-09 12:38:56.958669$GPGSV,2,1,08,03,38,275,42,04,23,311,39,16,38,208,44,26,68,207,46*7B
###2023-12-09 12:38:56.961016$GPGSV,2,2,08,28,57,058,44,29,25,072,43,31,73,007,47,32,28,135,45*75
###2023-12-09 12:38:56.963374$GLGSV,2,1,05,71,55,169,48,72,67,307,45,73,46,034,47,74,71,296,43*6B
###2023-12-09 12:38:56.964840$GLGSV,2,2,05,75,23,242,41,,,,,,,,,,,,*52
###2023-12-09 12:38:56.967197$GAGSV,1,1,04,04,22,311,38,19,82,296,40,21,79,174,45,27,40,049,44*69
###2023-12-09 12:38:56.969527$GBGSV,2,1,05,14,53,197,45,24,80,355,48,25,33,253,44,26,34,058,46*6E
###2023-12-09 12:38:56.970998$GBGSV,2,2,05,33,63,252,47,,,,,,,,,,,,*5D
###2023-12-09 12:38:56.972327$GNVTG,238.28,T,,M,1.26,N,2.34,K,A*20
###2023-12-09 12:38:56.973984$GNGST,173856.10,19.000,,,,0.081,0.070,0.170*58
###2023-12-09 12:38:56.975290$GNZDA,173856.10,09,12,2023,00,00*7E
###2023-12-09 12:38:56.975930$GNEBP,,,,,,M*13
###2023-12-09 12:38:57.138109$GNGGA,173856.30,4138.0537054,N,07032.3698101,W,1,23,0.7,13.660,M,-29.744,M,0.0,*5A
###2023-12-09 12:38:57.339389$GNGGA,173856.50,4138.0536919,N,07032.3699141,W,1,23,0.7,13.679,M,-29.744,M,0.0,*50
###2023-12-09 12:38:57.539730$GNGGA,173856.70,4138.0536679,N,07032.3700046,W,1,23,0.7,13.668,M,-29.744,M,0.0,*5C
###2023-12-09 12:38:57.737996$GNGGA,173856.90,4138.0536222,N,07032.3700792,W,1,23,0.7,13.631,M,-29.744,M,0.0,*5A
###2023-12-09 12:38:57.937311$GNRMC,173857.10,A,4138.0535817,N,07032.3701615,W,1.30,249.17,091223,,,A*5E
###2023-12-09 12:38:57.940184$GNGGA,173857.10,4138.0535817,N,07032.3701615,W,1,23,0.7,13.608,M,-29.744,M,0.0,*59
###2023-12-09 12:38:57.942037$GPGSA,A,3,03,04,16,26,28,29,31,32,,,,,1.2,0.7,1.0*31
###2023-12-09 12:38:57.943703$GLGSA,A,3,71,72,73,74,75,,,,,,,,1.2,0.7,1.0*2D
###2023-12-09 12:38:57.945278$GAGSA,A,3,04,19,21,27,,,,,,,,,1.2,0.7,1.0*2C
###2023-12-09 12:38:57.946965$GBGSA,A,3,14,24,25,26,33,,,,,,,,1.2,0.7,1.0*25
###2023-12-09 12:38:57.949323$GPGSV,2,1,08,03,38,275,41,04,23,311,39,16,38,208,45,26,68,207,47*78
###2023-12-09 12:38:57.951685$GPGSV,2,2,08,28,57,058,44,29,25,072,42,31,73,007,47,32,28,135,45*74
###2023-12-09 12:38:57.954015$GLGSV,2,1,05,71,55,169,49,72,67,307,46,73,46,034,45,74,71,296,42*6A
###2023-12-09 12:38:57.955483$GLGSV,2,2,05,75,23,242,41,,,,,,,,,,,,*52
###2023-12-09 12:38:57.957812$GAGSV,1,1,04,04,22,311,39,19,82,296,40,21,79,174,46,27,40,049,44*6B
###2023-12-09 12:38:57.960147$GBGSV,2,1,05,14,53,197,46,24,80,355,49,25,34,254,45,26,34,058,45*6E
###2023-12-09 12:38:57.961602$GBGSV,2,2,05,33,63,252,47,,,,,,,,,,,,*5D
###2023-12-09 12:38:57.962940$GNVTG,249.17,T,,M,1.30,N,2.41,K,A*2F
###2023-12-09 12:38:57.964591$GNGST,173857.10,19.000,,,,0.081,0.070,0.170*59
###2023-12-09 12:38:57.965878$GNZDA,173857.10,09,12,2023,00,00*7F
###2023-12-09 12:38:57.966513$GNEBP,,,,,,M*13
###2023-12-09 12:38:58.139548$GNGGA,173857.30,4138.0535769,N,07032.3702618,W,1,23,0.7,13.629,M,-29.744,M,0.0,*50
###2023-12-09 12:38:58.338890$GNGGA,173857.50,4138.0535826,N,07032.3703664,W,1,23,0.7,13.644,M,-29.744,M,0.0,*53
###2023-12-09 12:38:58.538919$GNGGA,173857.70,4138.0535617,N,07032.3704559,W,1,23,0.7,13.641,M,-29.744,M,0.0,*52
###2023-12-09 12:38:58.737903$GNGGA,173857.90,4138.0535226,N,07032.3705359,W,1,23,0.7,13.614,M,-29.744,M,0.0,*5D
###2023-12-09 12:38:58.940493$GNRMC,173858.10,A,4138.0535057,N,07032.3706282,W,1.36,272.17,091223,,,A*5E
###2023-12-09 12:38:58.943351$GNGGA,173858.10,4138.0535057,N,07032.3706282,W,1,23,0.7,13.596,M,-29.744,M,0.0,*53
###2023-12-09 12:38:58.945206$GPGSA,A,3,03,04,16,26,28,29,31,32,,,,,1.2,0.7,1.0*31
###2023-12-09 12:38:58.946882$GLGSA,A,3,71,72,73,74,75,,,,,,,,1.2,0.7,1.0*2D
###2023-12-09 12:38:58.948483$GAGSA,A,3,04,19,21,27,,,,,,,,,1.2,0.7,1.0*2C
###2023-12-09 12:38:58.950132$GBGSA,A,3,14,24,25,26,33,,,,,,,,1.2,0.7,1.0*25
###2023-12-09 12:38:58.952487$GPGSV,2,1,08,03,38,275,41,04,23,311,38,16,38,208,45,26,68,207,46*78
###2023-12-09 12:38:58.954843$GPGSV,2,2,08,28,57,058,44,29,25,072,41,31,73,007,46,32,28,135,44*77
###2023-12-09 12:38:58.957191$GLGSV,2,1,05,71,55,169,49,72,67,307,46,73,46,034,46,74,71,296,42*69
###2023-12-09 12:38:58.958682$GLGSV,2,2,05,75,23,242,42,,,,,,,,,,,,*51
###2023-12-09 12:38:58.961018$GAGSV,1,1,04,04,22,311,39,19,82,296,40,21,79,174,46,27,40,049,43*6C
###2023-12-09 12:38:58.963361$GBGSV,2,1,05,14,53,197,46,24,80,355,48,25,34,254,44,26,33,058,44*68
###2023-12-09 12:38:58.964816$GBGSV,2,2,05,33,63,252,47,,,,,,,,,,,,*5D
###2023-12-09 12:38:58.966140$GNVTG,272.17,T,,M,1.36,N,2.52,K,A*23
###2023-12-09 12:38:58.967801$GNGST,173858.10,19.000,,,,0.081,0.070,0.170*56
###2023-12-09 12:38:58.969090$GNZDA,173858.10,09,12,2023,00,00*70
###2023-12-09 12:38:58.969730$GNEBP,,,,,,M*13
###2023-12-09 12:38:59.139473$GNGGA,173858.30,4138.0535177,N,07032.3707261,W,1,23,0.7,13.593,M,-29.744,M,0.0,*5B
###2023-12-09 12:38:59.339502$GNGGA,173858.50,4138.0535149,N,07032.3708104,W,1,23,0.7,13.587,M,-29.744,M,0.0,*5A
###2023-12-09 12:38:59.542689$GNGGA,173858.70,4138.0534893,N,07032.3708848,W,1,23,0.7,13.591,M,-29.744,M,0.0,*51
###2023-12-09 12:38:59.740071$GNGGA,173858.90,4138.0534715,N,07032.3709631,W,1,23,0.7,13.594,M,-29.744,M,0.0,*5A
###2023-12-09 12:38:59.940183$GNRMC,173859.10,A,4138.0534806,N,07032.3710547,W,1.34,283.95,091223,,,A*5D
###2023-12-09 12:38:59.943055$GNGGA,173859.10,4138.0534806,N,07032.3710547,W,1,23,0.7,13.595,M,-29.744,M,0.0,*55
###2023-12-09 12:38:59.944914$GPGSA,A,3,03,04,16,26,28,29,31,32,,,,,1.2,0.7,1.0*31
###2023-12-09 12:38:59.946585$GLGSA,A,3,71,72,73,74,75,,,,,,,,1.2,0.7,1.0*2D
###2023-12-09 12:38:59.948197$GAGSA,A,3,04,19,21,27,,,,,,,,,1.2,0.7,1.0*2C
###2023-12-09 12:38:59.949852$GBGSA,A,3,14,24,25,26,33,,,,,,,,1.2,0.7,1.0*25
###2023-12-09 12:38:59.952209$GPGSV,2,1,08,03,38,275,41,04,23,311,39,16,38,208,45,26,68,207,46*79
###2023-12-09 12:38:59.954556$GPGSV,2,2,08,28,57,058,44,29,25,072,41,31,73,007,47,32,28,135,43*71
###2023-12-09 12:38:59.956939$GLGSV,2,1,05,71,55,169,48,72,67,307,46,73,46,034,47,74,71,296,42*69
###2023-12-09 12:38:59.958441$GLGSV,2,2,05,75,23,242,43,,,,,,,,,,,,*50
###2023-12-09 12:38:59.960828$GAGSV,1,1,04,04,22,311,39,19,82,296,40,21,79,174,46,27,40,049,43*6C
###2023-12-09 12:38:59.963191$GBGSV,2,1,05,14,53,197,46,24,80,355,48,25,34,254,45,26,33,058,44*69
###2023-12-09 12:38:59.964651$GBGSV,2,2,05,33,63,252,47,,,,,,,,,,,,*5D
###2023-12-09 12:38:59.965977$GNVTG,283.95,T,,M,1.34,N,2.48,K,A*2E
###2023-12-09 12:38:59.967646$GNGST,173859.10,18.000,,,,0.081,0.071,0.170*57
###2023-12-09 12:38:59.968940$GNZDA,173859.10,09,12,2023,00,00*71
###2023-12-09 12:38:59.969576$GNEBP,,,,,,M*13
###2023-12-09 12:39:00.139952$GNGGA,173859.30,4138.0534933,N,07032.3711482,W,1,23,0.7,13.590,M,-29.744,M,0.0,*5C
###2023-12-09 12:39:00.339321$GNGGA,173859.50,4138.0534873,N,07032.3712292,W,1,23,0.7,13.580,M,-29.744,M,0.0,*5A
###2023-12-09 12:39:00.542529$GNGGA,173859.70,4138.0534655,N,07032.3712973,W,1,23,0.7,13.570,M,-29.744,M,0.0,*59
###2023-12-09 12:39:00.738742$GNGGA,173859.90,4138.0534510,N,07032.3713661,W,1,23,0.7,13.563,M,-29.744,M,0.0,*5A
###2023-12-09 12:39:00.941993$GNRMC,173900.10,A,4138.0534670,N,07032.3714487,W,1.32,288.46,091223,,,A*55
###2023-12-09 12:39:00.944876$GNGGA,173900.10,4138.0534670,N,07032.3714487,W,1,23,0.7,13.580,M,-29.744,M,0.0,*5A
###2023-12-09 12:39:00.946764$GPGSA,A,3,03,04,16,26,28,29,31,32,,,,,1.2,0.7,1.0*31
###2023-12-09 12:39:00.948427$GLGSA,A,3,71,72,73,74,75,,,,,,,,1.2,0.7,1.0*2D
###2023-12-09 12:39:00.950012$GAGSA,A,3,04,19,21,27,,,,,,,,,1.2,0.7,1.0*2C
###2023-12-09 12:39:00.951680$GBGSA,A,3,14,24,25,26,33,,,,,,,,1.2,0.7,1.0*25
###2023-12-09 12:39:00.954017$GPGSV,2,1,08,03,38,275,42,04,23,311,40,16,38,208,45,26,68,207,47*75
###2023-12-09 12:39:00.956362$GPGSV,2,2,08,28,57,058,45,29,25,072,43,31,73,007,47,32,28,135,43*72
###2023-12-09 12:39:00.958715$GLGSV,2,1,05,71,55,169,48,72,67,307,46,73,46,034,46,74,71,296,42*68
###2023-12-09 12:39:00.960168$GLGSV,2,2,05,75,23,242,42,,,,,,,,,,,,*51
###2023-12-09 12:39:00.962493$GAGSV,1,1,04,04,22,311,40,19,82,296,40,21,79,174,46,27,40,049,43*62
###2023-12-09 12:39:00.964850$GBGSV,2,1,05,14,53,197,45,24,80,355,48,25,34,254,45,26,33,058,43*6D
###2023-12-09 12:39:00.966580$GBGSV,2,2,05,33,63,252,47,,,,,,,,,,,,*5D
###2023-12-09 12:39:00.967923$GNVTG,288.46,T,,M,1.32,N,2.45,K,A*20
###2023-12-09 12:39:00.969578$GNGST,173900.10,18.000,,,,0.081,0.071,0.170*5A
###2023-12-09 12:39:00.970889$GNZDA,173900.10,09,12,2023,00,00*7C
###2023-12-09 12:39:00.971535$GNEBP,,,,,,M*13
###2023-12-09 12:39:01.140299$GNGGA,173900.30,4138.0534875,N,07032.3715419,W,1,23,0.7,13.601,M,-29.744,M,0.0,*5F
###2023-12-09 12:39:01.339324$GNGGA,173900.50,4138.0534924,N,07032.3716264,W,1,23,0.7,13.604,M,-29.744,M,0.0,*56
###2023-12-09 12:39:01.538547$GNGGA,173900.70,4138.0534779,N,07032.3716906,W,1,23,0.7,13.593,M,-29.744,M,0.0,*50
