###2023-12-09 13:29:06.025224$GNZDA,182905.10,09,12,2023,00,00*77
###2023-12-09 13:29:06.025888$GNEBP,,,,,,M*13
###2023-12-09 13:29:06.192619$GNGGA,182905.30,4138.0466130,N,07032.4160634,W,1,24,0.6,13.144,M,-29.745,M,0.0,*55
###2023-12-09 13:29:06.391755$GNGGA,182905.50,4138.0466260,N,07032.4160762,W,1,24,0.6,13.119,M,-29.745,M,0.0,*5F
###2023-12-09 13:29:06.591366$GNGGA,182905.70,4138.0466584,N,07032.4161152,W,1,24,0.6,13.112,M,-29.745,M,0.0,*5F
###2023-12-09 13:29:06.792837$GNGGA,182905.90,4138.0466777,N,07032.4161369,W,1,24,0.6,13.105,M,-29.745,M,0.0,*53
###2023-12-09 13:29:06.997099$GNRMC,182906.10,A,4138.0466744,N,07032.4161171,W,0.47,25.74,091223,,,A*65
###2023-12-09 13:29:06.999969$GNGGA,182906.10,4138.0466744,N,07032.4161171,W,1,24,0.6,13.108,M,-29.745,M,0.0,*5E
###2023-12-09 13:29:07.001757$GPGSA,A,3,03,04,16,26,28,29,31,,,,,,1.1,0.6,0.9*3A
###2023-12-09 13:29:07.003497$GLGSA,A,3,65,71,72,73,74,75,,,,,,,1.1,0.6,0.9*24
###2023-12-09 13:29:07.005077$GAGSA,A,3,04,19,21,27,,,,,,,,,1.1,0.6,0.9*26
###2023-12-09 13:29:07.006798$GBGSA,A,3,14,24,25,26,33,35,,,,,,,1.1,0.6,0.9*29
###2023-12-09 13:29:07.009126$GPGSV,2,1,07,03,28,248,44,04,44,309,45,16,63,220,46,26,87,041,47*78
###2023-12-09 13:29:07.011172$GPGSV,2,2,07,28,40,082,43,29,22,049,38,31,61,061,46,,,,*40
###2023-12-09 13:29:07.013496$GLGSV,2,1,06,65,36,321,45,71,25,175,42,72,65,225,46,73,24,050,39*6F
###2023-12-09 13:29:07.015252$GLGSV,2,2,06,74,61,010,41,75,42,268,48,,,,,,,,*67
###2023-12-09 13:29:07.017570$GAGSV,1,1,04,04,38,311,45,19,74,183,42,21,79,049,46,27,24,049,37*6E
###2023-12-09 13:29:07.019912$GBGSV,2,1,06,14,31,190,41,24,64,043,47,25,49,274,48,26,17,069,42*68
###2023-12-09 13:29:07.021661$GBGSV,2,2,06,33,48,219,46,35,16,058,42,,,,,,,,*63
###2023-12-09 13:29:07.022960$GNVTG,25.74,T,,M,0.47,N,0.86,K,A*1A
###2023-12-09 13:29:07.024607$GNGST,182906.10,18.000,,,,0.100,0.071,0.170*5A
###2023-12-09 13:29:07.025896$GNZDA,182906.10,09,12,2023,00,00*74
###2023-12-09 13:29:07.026532$GNEBP,,,,,,M*13
###2023-12-09 13:29:07.192581$GNGGA,182906.30,4138.0466652,N,07032.4160981,W,1,24,0.6,13.088,M,-29.745,M,0.0,*55
###2023-12-09 13:29:07.393464$GNGGA,182906.50,4138.0466834,N,07032.4161221,W,1,24,0.6,13.078,M,-29.745,M,0.0,*52
###2023-12-09 13:29:07.590353$GNGGA,182906.70,4138.0467201,N,07032.4161694,W,1,24,0.6,13.075,M,-29.745,M,0.0,*5A
###2023-12-09 13:29:07.791603$GNGGA,182906.90,4138.0467288,N,07032.4161737,W,1,24,0.6,13.067,M,-29.745,M,0.0,*5E
###2023-12-09 13:29:07.996600$GNRMC,182907.10,A,4138.0467118,N,07032.4161433,W,0.49,314.92,091223,,,A*5E
###2023-12-09 13:29:07.999496$GNGGA,182907.10,4138.0467118,N,07032.4161433,W,1,24,0.6,13.063,M,-29.745,M,0.0,*5E
###2023-12-09 13:29:08.001293$GPGSA,A,3,03,04,16,26,28,29,31,,,,,,1.1,0.6,0.9*3A
###2023-12-09 13:29:08.003022$GLGSA,A,3,65,71,72,73,74,75,,,,,,,1.1,0.6,0.9*24
###2023-12-09 13:29:08.004611$GAGSA,A,3,04,19,21,27,,,,,,,,,1.1,0.6,0.9*26
###2023-12-09 13:29:08.006331$GBGSA,A,3,14,24,25,26,33,35,,,,,,,1.1,0.6,0.9*29
###2023-12-09 13:29:08.008675$GPGSV,2,1,07,03,28,248,44,04,44,309,45,16,63,220,46,26,87,041,48*77
###2023-12-09 13:29:08.010724$GPGSV,2,2,07,28,40,082,43,29,22,049,39,31,61,061,46,,,,*41
###2023-12-09 13:29:08.013057$GLGSV,2,1,06,65,36,321,44,71,25,175,41,72,65,225,47,73,24,050,41*63
###2023-12-09 13:29:08.014825$GLGSV,2,2,06,74,61,010,42,75,42,268,48,,,,,,,,*64
###2023-12-09 13:29:08.017157$GAGSV,1,1,04,04,38,311,45,19,74,183,41,21,79,049,46,27,24,049,38*62
###2023-12-09 13:29:08.019499$GBGSV,2,1,06,14,31,190,41,24,64,043,47,25,49,274,48,26,17,069,43*69
###2023-12-09 13:29:08.021246$GBGSV,2,2,06,33,48,219,47,35,16,058,42,,,,,,,,*62
###2023-12-09 13:29:08.022579$GNVTG,314.92,T,,M,0.49,N,0.90,K,A*2A
###2023-12-09 13:29:08.024230$GNGST,182907.10,18.000,,,,0.100,0.070,0.170*5A
###2023-12-09 13:29:08.025518$GNZDA,182907.10,09,12,2023,00,00*75
###2023-12-09 13:29:08.026157$GNEBP,,,,,,M*13
###2023-12-09 13:29:08.192560$GNGGA,182907.30,4138.0467137,N,07032.4161401,W,1,24,0.6,13.059,M,-29.745,M,0.0,*59
###2023-12-09 13:29:08.390677$GNGGA,182907.50,4138.0467472,N,07032.4161813,W,1,24,0.6,13.058,M,-29.745,M,0.0,*55
###2023-12-09 13:29:08.591291$GNGGA,182907.70,4138.0467726,N,07032.4162098,W,1,24,0.6,13.037,M,-29.745,M,0.0,*54
###2023-12-09 13:29:08.790751$GNGGA,182907.90,4138.0467625,N,07032.4161886,W,1,24,0.6,13.033,M,-29.745,M,0.0,*58
###2023-12-09 13:29:09.001317$GNRMC,182908.10,A,4138.0467561,N,07032.4161734,W,0.14,314.92,091223,,,A*57
###2023-12-09 13:29:09.004219$GNGGA,182908.10,4138.0467561,N,07032.4161734,W,1,24,0.6,13.034,M,-29.745,M,0.0,*5D
###2023-12-09 13:29:09.006023$GPGSA,A,3,03,04,16,26,28,29,31,,,,,,1.1,0.6,0.9*3A
###2023-12-09 13:29:09.007760$GLGSA,A,3,65,71,72,73,74,75,,,,,,,1.1,0.6,0.9*24
###2023-12-09 13:29:09.009351$GAGSA,A,3,04,19,21,27,,,,,,,,,1.1,0.6,0.9*26
###2023-12-09 13:29:09.011080$GBGSA,A,3,14,24,25,26,33,35,,,,,,,1.1,0.6,0.9*29
###2023-12-09 13:29:09.013405$GPGSV,2,1,07,03,28,248,44,04,44,309,44,16,63,220,46,26,87,041,48*76
###2023-12-09 13:29:09.015453$GPGSV,2,2,07,28,40,082,43,29,22,049,39,31,61,061,46,,,,*41
###2023-12-09 13:29:09.017783$GLGSV,2,1,06,65,36,321,44,71,25,175,43,72,65,225,48,73,24,050,41*6E
###2023-12-09 13:29:09.019545$GLGSV,2,2,06,74,61,010,42,75,42,268,46,,,,,,,,*6A
###2023-12-09 13:29:09.021871$GAGSV,1,1,04,04,38,311,46,19,74,183,41,21,79,049,46,27,24,049,39*60
###2023-12-09 13:29:09.024204$GBGSV,2,1,06,14,31,190,43,24,64,043,48,25,49,274,48,26,17,069,42*65
###2023-12-09 13:29:09.025953$GBGSV,2,2,06,33,48,219,47,35,16,058,43,,,,,,,,*63
###2023-12-09 13:29:09.027285$GNVTG,314.92,T,,M,0.14,N,0.25,K,A*2C
###2023-12-09 13:29:09.028934$GNGST,182908.10,18.000,,,,0.100,0.070,0.170*55
###2023-12-09 13:29:09.030224$GNZDA,182908.10,09,12,2023,00,00*7A
###2023-12-09 13:29:09.030874$GNEBP,,,,,,M*13
###2023-12-09 13:29:09.199471$GNGGA,182908.30,4138.0467822,N,07032.4162018,W,1,24,0.6,13.038,M,-29.745,M,0.0,*53
###2023-12-09 13:29:09.389760$GNGGA,182908.50,4138.0468093,N,07032.4162316,W,1,24,0.6,13.005,M,-29.745,M,0.0,*5B
###2023-12-09 13:29:09.590842$GNGGA,182908.70,4138.0468098,N,07032.4162276,W,1,24,0.6,12.992,M,-29.745,M,0.0,*53
###2023-12-09 13:29:09.792651$GNGGA,182908.90,4138.0468055,N,07032.4162154,W,1,24,0.6,12.995,M,-29.745,M,0.0,*58
###2023-12-09 13:29:09.992525$GNRMC,182909.10,A,4138.0468210,N,07032.4162258,W,0.52,314.92,091223,,,A*56
###2023-12-09 13:29:09.995404$GNGGA,182909.10,4138.0468210,N,07032.4162258,W,1,24,0.6,13.004,M,-29.745,M,0.0,*5D
###2023-12-09 13:29:09.997193$GPGSA,A,3,03,04,16,26,28,29,31,,,,,,1.1,0.6,0.9*3A
###2023-12-09 13:29:09.998909$GLGSA,A,3,65,71,72,73,74,75,,,,,,,1.1,0.6,0.9*24
###2023-12-09 13:29:10.000489$GAGSA,A,3,04,19,21,27,,,,,,,,,1.1,0.6,0.9*26
###2023-12-09 13:29:10.002195$GBGSA,A,3,14,24,25,26,33,35,,,,,,,1.1,0.6,0.9*29
###2023-12-09 13:29:10.004538$GPGSV,2,1,07,03,28,248,44,04,44,309,45,16,63,220,47,26,87,041,48*76
###2023-12-09 13:29:10.006590$GPGSV,2,2,07,28,40,082,44,29,22,049,40,31,61,061,47,,,,*49
###2023-12-09 13:29:10.008908$GLGSV,2,1,06,65,36,321,43,71,25,175,43,72,65,225,47,73,24,050,42*65
###2023-12-09 13:29:10.010657$GLGSV,2,2,06,74,61,010,42,75,42,268,48,,,,,,,,*64
###2023-12-09 13:29:10.012971$GAGSV,1,1,04,04,38,311,45,19,74,183,42,21,79,049,46,27,24,049,39*60
###2023-12-09 13:29:10.015333$GBGSV,2,1,06,14,31,190,42,24,64,043,48,25,49,274,46,26,17,069,42*6A
###2023-12-09 13:29:10.017078$GBGSV,2,2,06,33,48,219,47,35,16,058,42,,,,,,,,*62
###2023-12-09 13:29:10.018399$GNVTG,314.92,T,,M,0.52,N,0.97,K,A*27
###2023-12-09 13:29:10.020053$GNGST,182909.10,18.000,,,,0.100,0.070,0.170*54
###2023-12-09 13:29:10.021344$GNZDA,182909.10,09,12,2023,00,00*7B
###2023-12-09 13:29:10.021981$GNEBP,,,,,,M*13
###2023-12-09 13:29:10.189256$GNGGA,182909.30,4138.0468437,N,07032.4162511,W,1,24,0.6,12.995,M,-29.745,M,0.0,*56
###2023-12-09 13:29:10.388719$GNGGA,182909.50,4138.0468509,N,07032.4162531,W,1,24,0.6,12.973,M,-29.745,M,0.0,*56
###2023-12-09 13:29:10.590909$GNGGA,182909.70,4138.0468468,N,07032.4162430,W,1,24,0.6,12.967,M,-29.745,M,0.0,*57
###2023-12-09 13:29:10.789800$GNGGA,182909.90,4138.0468595,N,07032.4162556,W,1,24,0.6,12.984,M,-29.745,M,0.0,*56
###2023-12-09 13:29:11.001167$GNRMC,182910.10,A,4138.0468836,N,07032.4162791,W,0.39,314.92,091223,,,A*5D
###2023-12-09 13:29:11.004318$GNGGA,182910.10,4138.0468836,N,07032.4162791,W,1,24,0.6,12.987,M,-29.745,M,0.0,*58
###2023-12-09 13:29:11.006130$GPGSA,A,3,03,04,16,26,28,29,31,,,,,,1.1,0.6,0.9*3A
###2023-12-09 13:29:11.007863$GLGSA,A,3,65,71,72,73,74,75,,,,,,,1.1,0.6,0.9*24
###2023-12-09 13:29:11.009448$GAGSA,A,3,04,19,21,27,,,,,,,,,1.1,0.6,0.9*26
###2023-12-09 13:29:11.011175$GBGSA,A,3,14,24,25,26,33,35,,,,,,,1.1,0.6,0.9*29
###2023-12-09 13:29:11.013502$GPGSV,2,1,07,03,28,248,42,04,44,309,43,16,63,220,46,26,87,041,47*78
###2023-12-09 13:29:11.015558$GPGSV,2,2,07,28,40,082,41,29,22,049,39,31,61,061,45,,,,*40
###2023-12-09 13:29:11.017894$GLGSV,2,1,06,65,36,321,44,71,25,175,42,72,65,225,47,73,24,050,41*60
###2023-12-09 13:29:11.019655$GLGSV,2,2,06,74,61,010,42,75,42,268,48,,,,,,,,*64
