###2023-12-09 13:31:10.014728$GBGSV,2,1,06,14,30,190,37,24,64,044,48,25,50,275,47,26,17,070,41*6D
###2023-12-09 13:31:10.016505$GBGSV,2,2,06,33,47,218,47,35,16,058,40,,,,,,,,*6E
###2023-12-09 13:31:10.017832$GNVTG,336.16,T,,M,2.33,N,4.32,K,A*25
###2023-12-09 13:31:10.019503$GNGST,183109.10,18.000,,,,0.130,0.080,0.210*54
###2023-12-09 13:31:10.020807$GNZDA,183109.10,09,12,2023,00,00*72
###2023-12-09 13:31:10.021447$GNEBP,,,,,,M*13
###2023-12-09 13:31:10.191176$GNGGA,183109.30,4138.0357309,N,07032.4099066,W,1,24,0.6,13.229,M,-29.745,M,0.0,*53
###2023-12-09 13:31:10.388920$GNGGA,183109.50,4138.0358346,N,07032.4099893,W,1,24,0.6,13.210,M,-29.745,M,0.0,*59
###2023-12-09 13:31:10.588207$GNGGA,183109.70,4138.0359402,N,07032.4100730,W,1,24,0.6,13.210,M,-29.745,M,0.0,*5A
###2023-12-09 13:31:10.788496$GNGGA,183109.90,4138.0360375,N,07032.4101660,W,1,24,0.7,13.203,M,-29.745,M,0.0,*5F
###2023-12-09 13:31:10.991816$GNRMC,183110.10,A,4138.0361245,N,07032.4102655,W,2.10,319.62,091223,,,A*50
###2023-12-09 13:31:10.994682$GNGGA,183110.10,4138.0361245,N,07032.4102655,W,1,24,0.7,13.201,M,-29.745,M,0.0,*5B
###2023-12-09 13:31:10.996472$GPGSA,A,3,03,04,16,26,28,29,31,,,,,,1.1,0.7,0.9*3B
###2023-12-09 13:31:10.998243$GLGSA,A,3,65,71,72,73,74,75,83,,,,,,1.1,0.7,0.9*2E
###2023-12-09 13:31:10.999829$GAGSA,A,3,04,19,21,27,,,,,,,,,1.1,0.7,0.9*27
###2023-12-09 13:31:11.001542$GBGSA,A,3,14,24,25,26,33,35,,,,,,,1.1,0.7,0.9*28
###2023-12-09 13:31:11.003883$GPGSV,2,1,07,03,27,247,42,04,45,308,41,16,64,220,46,26,86,041,48*73
###2023-12-09 13:31:11.005920$GPGSV,2,2,07,28,39,083,45,29,21,049,43,31,61,063,48,,,,*4A
###2023-12-09 13:31:11.008262$GLGSV,2,1,07,65,37,320,39,71,24,175,42,72,64,223,44,73,23,051,44*6D
###2023-12-09 13:31:11.010301$GLGSV,2,2,07,74,61,011,41,75,42,269,45,83,15,049,35,,,,*5F
###2023-12-09 13:31:11.012634$GAGSV,1,1,04,04,39,310,41,19,73,182,41,21,78,047,46,27,23,050,42*6D
###2023-12-09 13:31:11.014964$GBGSV,2,1,06,14,30,190,42,24,64,044,49,25,50,275,46,26,17,070,42*6C
###2023-12-09 13:31:11.016702$GBGSV,2,2,06,33,47,218,48,35,16,058,43,,,,,,,,*62
###2023-12-09 13:31:11.018019$GNVTG,319.62,T,,M,2.10,N,3.89,K,A*2D
###2023-12-09 13:31:11.019668$GNGST,183110.10,18.000,,,,0.130,0.078,0.200*5A
###2023-12-09 13:31:11.020957$GNZDA,183110.10,09,12,2023,00,00*7A
###2023-12-09 13:31:11.021594$GNEBP,,,,,,M*13
###2023-12-09 13:31:11.189223$GNGGA,183110.30,4138.0362127,N,07032.4103695,W,1,25,0.6,13.196,M,-29.745,M,0.0,*5D
###2023-12-09 13:31:11.387984$GNGGA,183110.50,4138.0362960,N,07032.4104837,W,1,24,0.7,13.191,M,-29.745,M,0.0,*56
###2023-12-09 13:31:11.595324$GNGGA,183110.70,4138.0363724,N,07032.4106050,W,1,23,0.7,13.193,M,-29.745,M,0.0,*55
###2023-12-09 13:31:11.789170$GNGGA,183110.90,4138.0364520,N,07032.4107335,W,1,24,0.6,13.203,M,-29.745,M,0.0,*57
###2023-12-09 13:31:11.995127$GNRMC,183111.10,A,4138.0365310,N,07032.4108677,W,2.35,306.95,091223,,,A*5F
###2023-12-09 13:31:11.997985$GNGGA,183111.10,4138.0365310,N,07032.4108677,W,1,24,0.6,13.209,M,-29.745,M,0.0,*5C
###2023-12-09 13:31:11.999790$GPGSA,A,3,03,04,16,26,28,29,31,,,,,,1.1,0.6,0.9*3A
###2023-12-09 13:31:12.001505$GLGSA,A,3,65,71,72,73,74,75,,,,,,,1.1,0.6,0.9*24
###2023-12-09 13:31:12.003101$GAGSA,A,3,04,19,21,27,,,,,,,,,1.1,0.6,0.9*26
###2023-12-09 13:31:12.004811$GBGSA,A,3,14,24,25,26,33,35,,,,,,,1.1,0.6,0.9*29
###2023-12-09 13:31:12.007141$GPGSV,2,1,07,03,27,247,40,04,45,308,42,16,64,220,47,26,86,041,48*73
###2023-12-09 13:31:12.009180$GPGSV,2,2,07,28,39,083,44,29,21,049,41,31,61,063,47,,,,*46
###2023-12-09 13:31:12.011522$GLGSV,2,1,06,65,37,320,41,71,24,175,43,72,64,223,46,73,23,051,43*67
###2023-12-09 13:31:12.013269$GLGSV,2,2,06,74,61,011,43,75,42,269,45,,,,,,,,*68
###2023-12-09 13:31:12.015607$GAGSV,1,1,04,04,39,310,40,19,73,182,41,21,78,047,46,27,23,050,40*6E
###2023-12-09 13:31:12.017941$GBGSV,2,1,06,14,30,190,40,24,64,044,49,25,50,275,46,26,17,070,42*6E
###2023-12-09 13:31:12.019740$GBGSV,2,2,06,33,47,218,47,35,16,058,43,,,,,,,,*6D
###2023-12-09 13:31:12.021071$GNVTG,306.95,T,,M,2.35,N,4.36,K,A*2F
###2023-12-09 13:31:12.022731$GNGST,183111.10,19.000,,,,0.130,0.078,0.200*5A
###2023-12-09 13:31:12.024029$GNZDA,183111.10,09,12,2023,00,00*7B
###2023-12-09 13:31:12.024669$GNEBP,,,,,,M*13
###2023-12-09 13:31:12.190852$GNGGA,183111.30,4138.0365981,N,07032.4110125,W,1,24,0.6,13.204,M,-29.745,M,0.0,*58
###2023-12-09 13:31:12.388951$GNGGA,183111.50,4138.0366641,N,07032.4111698,W,1,24,0.6,13.204,M,-29.745,M,0.0,*5E
###2023-12-09 13:31:12.588152$GNGGA,183111.70,4138.0367282,N,07032.4113251,W,1,24,0.6,13.204,M,-29.745,M,0.0,*55
###2023-12-09 13:31:12.790081$GNGGA,183111.90,4138.0367915,N,07032.4114853,W,1,24,0.6,13.205,M,-29.745,M,0.0,*50
###2023-12-09 13:31:12.993041$GNRMC,183112.10,A,4138.0368510,N,07032.4116503,W,2.31,293.18,091223,,,A*54
###2023-12-09 13:31:12.995908$GNGGA,183112.10,4138.0368510,N,07032.4116503,W,1,24,0.6,13.205,M,-29.745,M,0.0,*57
###2023-12-09 13:31:12.997700$GPGSA,A,3,03,04,16,26,28,29,31,,,,,,1.1,0.6,0.9*3A
###2023-12-09 13:31:12.999417$GLGSA,A,3,65,71,72,73,74,75,,,,,,,1.1,0.6,0.9*24
###2023-12-09 13:31:13.000992$GAGSA,A,3,04,19,21,27,,,,,,,,,1.1,0.6,0.9*26
###2023-12-09 13:31:13.002705$GBGSA,A,3,14,24,25,26,33,35,,,,,,,1.1,0.6,0.9*29
###2023-12-09 13:31:13.005013$GPGSV,2,1,07,03,27,247,39,04,45,308,43,16,64,220,46,26,86,041,48*7D
###2023-12-09 13:31:13.007051$GPGSV,2,2,07,28,39,083,44,29,21,049,41,31,61,063,47,,,,*46
###2023-12-09 13:31:13.009363$GLGSV,2,1,06,65,37,320,40,71,24,175,45,72,64,223,46,73,23,051,42*61
###2023-12-09 13:31:13.011114$GLGSV,2,2,06,74,61,011,43,75,42,269,44,,,,,,,,*69
###2023-12-09 13:31:13.013432$GAGSV,1,1,04,04,39,310,42,19,73,182,40,21,78,047,45,27,23,050,40*6E
###2023-12-09 13:31:13.015757$GBGSV,2,1,06,14,30,190,41,24,64,044,48,25,50,275,45,26,17,070,41*6E
###2023-12-09 13:31:13.017494$GBGSV,2,2,06,33,47,218,48,35,16,058,43,,,,,,,,*62
###2023-12-09 13:31:13.018820$GNVTG,293.18,T,,M,2.31,N,4.28,K,A*2C
###2023-12-09 13:31:13.020460$GNGST,183112.10,18.000,,,,0.120,0.078,0.200*59
###2023-12-09 13:31:13.021748$GNZDA,183112.10,09,12,2023,00,00*78
###2023-12-09 13:31:13.022384$GNEBP,,,,,,M*13
###2023-12-09 13:31:13.196191$GNGGA,183112.30,4138.0369005,N,07032.4118155,W,1,24,0.6,13.213,M,-29.745,M,0.0,*5B
###2023-12-09 13:31:13.389108$GNGGA,183112.50,4138.0369449,N,07032.4119870,W,1,24,0.6,13.202,M,-29.745,M,0.0,*5E
###2023-12-09 13:31:13.588286$GNGGA,183112.70,4138.0369901,N,07032.4121561,W,1,23,0.7,13.208,M,-29.745,M,0.0,*57
###2023-12-09 13:31:13.788776$GNGGA,183112.90,4138.0370344,N,07032.4123221,W,1,24,0.6,13.205,M,-29.745,M,0.0,*50
###2023-12-09 13:31:13.990863$GNRMC,183113.10,A,4138.0370689,N,07032.4124871,W,2.24,283.99,091223,,,A*5A
###2023-12-09 13:31:13.993857$GNGGA,183113.10,4138.0370689,N,07032.4124871,W,1,23,0.7,13.210,M,-29.745,M,0.0,*57
###2023-12-09 13:31:13.995668$GPGSA,A,3,03,04,16,26,28,29,31,,,,,,1.2,0.7,1.0*30
###2023-12-09 13:31:13.997383$GLGSA,A,3,65,71,72,73,74,75,,,,,,,1.2,0.7,1.0*2E
###2023-12-09 13:31:13.998977$GAGSA,A,3,04,19,21,27,,,,,,,,,1.2,0.7,1.0*2C
###2023-12-09 13:31:14.000684$GBGSA,A,3,14,24,25,26,33,35,,,,,,,1.2,0.7,1.0*23
###2023-12-09 13:31:14.003051$GPGSV,2,1,07,03,27,247,35,04,45,308,44,16,64,220,46,26,86,041,48*76
###2023-12-09 13:31:14.005098$GPGSV,2,2,07,28,39,083,46,29,21,049,41,31,61,063,47,,,,*44
###2023-12-09 13:31:14.007435$GLGSV,2,1,06,65,37,320,42,71,24,175,44,72,64,223,46,73,23,051,41*61
###2023-12-09 13:31:14.009182$GLGSV,2,2,06,74,61,011,43,75,42,269,42,,,,,,,,*6F
###2023-12-09 13:31:14.011510$GAGSV,1,1,04,04,39,310,42,19,73,182,40,21,78,047,46,27,23,050,38*62
###2023-12-09 13:31:14.013830$GBGSV,2,1,06,14,30,190,38,24,64,044,49,25,50,275,43,26,17,070,44*62
###2023-12-09 13:31:14.015584$GBGSV,2,2,06,33,47,218,47,35,16,058,41,,,,,,,,*6F
###2023-12-09 13:31:14.016903$GNVTG,283.99,T,,M,2.24,N,4.14,K,A*2F
###2023-12-09 13:31:14.018547$GNGST,183113.10,19.000,,,,0.120,0.078,0.200*59
###2023-12-09 13:31:14.019844$GNZDA,183113.10,09,12,2023,00,00*79
###2023-12-09 13:31:14.020479$GNEBP,,,,,,M*13
###2023-12-09 13:31:14.188733$GNGGA,183113.30,4138.0370938,N,07032.4126500,W,1,22,0.7,13.211,M,-29.745,M,0.0,*59
###2023-12-09 13:31:14.387255$GNGGA,183113.50,4138.0371156,N,07032.4128129,W,1,22,0.7,13.210,M,-29.745,M,0.0,*5E
###2023-12-09 13:31:14.588891$GNGGA,183113.70,4138.0371360,N,07032.4129745,W,1,23,0.7,13.210,M,-29.745,M,0.0,*57
###2023-12-09 13:31:14.789078$GNGGA,183113.90,4138.0371525,N,07032.4131388,W,1,23,0.7,13.208,M,-29.745,M,0.0,*5B
###2023-12-09 13:31:14.991843$GNRMC,183114.10,A,4138.0371654,N,07032.4133059,W,2.27,272.83,091223,,,A*5E
###2023-12-09 13:31:14.994710$GNGGA,183114.10,4138.0371654,N,07032.4133059,W,1,23,0.7,13.214,M,-29.745,M,0.0,*51
###2023-12-09 13:31:14.996500$GPGSA,A,3,03,04,16,26,28,29,31,,,,,,1.2,0.7,1.0*30
###2023-12-09 13:31:14.998212$GLGSA,A,3,65,71,72,73,74,75,,,,,,,1.2,0.7,1.0*2E
###2023-12-09 13:31:14.999803$GAGSA,A,3,04,19,21,27,,,,,,,,,1.2,0.7,1.0*2C
###2023-12-09 13:31:15.001512$GBGSA,A,3,14,24,25,26,33,35,,,,,,,1.2,0.7,1.0*23
