###2023-12-09 12:53:18.960137$GPGSA,A,3,03,04,16,26,28,29,31,32,,,,,1.1,0.6,0.9*3B
###2023-12-09 12:53:18.961875$GLGSA,A,3,65,71,72,73,74,75,,,,,,,1.1,0.6,0.9*24
###2023-12-09 12:53:18.963478$GAGSA,A,3,04,19,21,27,,,,,,,,,1.1,0.6,0.9*26
###2023-12-09 12:53:18.965124$GBGSA,A,3,14,24,25,26,33,,,,,,,,1.1,0.6,0.9*2F
###2023-12-09 12:53:18.967463$GPGSV,2,1,08,03,36,266,45,04,29,311,44,16,45,210,44,26,75,209,47*70
###2023-12-09 12:53:18.969790$GPGSV,2,2,08,28,52,066,44,29,26,065,43,31,71,026,48,32,23,138,42*77
###2023-12-09 12:53:18.972142$GLGSV,2,1,06,65,20,328,43,71,45,172,45,72,72,285,46,73,39,039,47*67
###2023-12-09 12:53:18.973886$GLGSV,2,2,06,74,71,324,43,75,29,249,42,,,,,,,,*64
###2023-12-09 12:53:18.976223$GAGSV,1,1,04,04,26,312,42,19,85,252,40,21,84,154,45,27,36,048,45*6D
###2023-12-09 12:53:18.978539$GBGSV,2,1,05,14,47,194,45,24,76,016,48,25,38,259,46,26,29,061,43*65
###2023-12-09 12:53:18.980003$GBGSV,2,2,05,33,60,238,47,,,,,,,,,,,,*52
###2023-12-09 12:53:18.981321$GNVTG,302.00,T,,M,0.62,N,1.15,K,A*23
###2023-12-09 12:53:18.982974$GNGST,175318.10,18.000,,,,0.076,0.067,0.160*51
###2023-12-09 12:53:18.984258$GNZDA,175318.10,09,12,2023,00,00*79
###2023-12-09 12:53:18.984890$GNEBP,,,,,,M*13
###2023-12-09 12:53:19.152586$GNGGA,175318.30,4138.0579728,N,07032.3863523,W,1,24,0.6,13.321,M,-29.744,M,0.0,*53
###2023-12-09 12:53:19.354381$GNGGA,175318.50,4138.0579648,N,07032.3863444,W,1,24,0.6,13.312,M,-29.744,M,0.0,*52
###2023-12-09 12:53:19.554449$GNGGA,175318.70,4138.0579689,N,07032.3863565,W,1,24,0.6,13.287,M,-29.744,M,0.0,*52
###2023-12-09 12:53:19.753417$GNGGA,175318.90,4138.0579936,N,07032.3864099,W,1,24,0.6,13.292,M,-29.744,M,0.0,*52
###2023-12-09 12:53:19.955073$GNRMC,175319.10,A,4138.0580203,N,07032.3864666,W,0.64,301.85,091223,,,A*56
###2023-12-09 12:53:19.957931$GNGGA,175319.10,4138.0580203,N,07032.3864666,W,1,24,0.6,13.298,M,-29.744,M,0.0,*5C
###2023-12-09 12:53:19.959805$GPGSA,A,3,03,04,16,26,28,29,31,32,,,,,1.1,0.6,0.9*3B
###2023-12-09 12:53:19.961521$GLGSA,A,3,65,71,72,73,74,75,,,,,,,1.1,0.6,0.9*24
###2023-12-09 12:53:19.963129$GAGSA,A,3,04,19,21,27,,,,,,,,,1.1,0.6,0.9*26
###2023-12-09 12:53:19.964783$GBGSA,A,3,14,24,25,26,33,,,,,,,,1.1,0.6,0.9*2F
###2023-12-09 12:53:19.967132$GPGSV,2,1,08,03,36,266,43,04,29,311,44,16,45,210,44,26,75,209,47*76
###2023-12-09 12:53:19.969466$GPGSV,2,2,08,28,52,066,44,29,26,065,43,31,71,026,48,32,23,138,42*77
###2023-12-09 12:53:19.971804$GLGSV,2,1,06,65,20,328,44,71,45,172,46,72,72,285,46,73,39,039,48*6C
###2023-12-09 12:53:19.973552$GLGSV,2,2,06,74,71,324,43,75,29,249,42,,,,,,,,*64
###2023-12-09 12:53:19.975894$GAGSV,1,1,04,04,26,312,42,19,85,252,40,21,84,154,46,27,36,048,45*6E
###2023-12-09 12:53:19.978229$GBGSV,2,1,05,14,47,194,44,24,76,016,47,25,38,259,44,26,29,061,43*69
###2023-12-09 12:53:19.979699$GBGSV,2,2,05,33,60,238,47,,,,,,,,,,,,*52
###2023-12-09 12:53:19.981026$GNVTG,301.85,T,,M,0.64,N,1.19,K,A*27
###2023-12-09 12:53:19.982686$GNGST,175319.10,18.000,,,,0.076,0.067,0.160*50
###2023-12-09 12:53:19.983981$GNZDA,175319.10,09,12,2023,00,00*78
###2023-12-09 12:53:19.984620$GNEBP,,,,,,M*13
###2023-12-09 12:53:20.152635$GNGGA,175319.30,4138.0580268,N,07032.3864823,W,1,24,0.6,13.306,M,-29.744,M,0.0,*5A
###2023-12-09 12:53:20.353422$GNGGA,175319.50,4138.0580193,N,07032.3864772,W,1,24,0.6,13.297,M,-29.744,M,0.0,*59
###2023-12-09 12:53:20.554014$GNGGA,175319.70,4138.0580239,N,07032.3864889,W,1,24,0.6,13.274,M,-29.744,M,0.0,*5E
###2023-12-09 12:53:20.754370$GNGGA,175319.90,4138.0580475,N,07032.3865376,W,1,24,0.6,13.286,M,-29.744,M,0.0,*59
###2023-12-09 12:53:20.960408$GNRMC,175320.10,A,4138.0580724,N,07032.3865916,W,0.66,303.35,091223,,,A*5E
###2023-12-09 12:53:20.963293$GNGGA,175320.10,4138.0580724,N,07032.3865916,W,1,24,0.6,13.293,M,-29.744,M,0.0,*54
###2023-12-09 12:53:20.965163$GPGSA,A,3,03,04,16,26,28,29,31,32,,,,,1.1,0.6,0.9*3B
###2023-12-09 12:53:20.966896$GLGSA,A,3,65,71,72,73,74,75,,,,,,,1.1,0.6,0.9*24
###2023-12-09 12:53:20.968482$GAGSA,A,3,04,19,21,27,,,,,,,,,1.1,0.6,0.9*26
###2023-12-09 12:53:20.970139$GBGSA,A,3,14,24,25,26,33,,,,,,,,1.1,0.6,0.9*2F
###2023-12-09 12:53:20.972489$GPGSV,2,1,08,03,36,266,45,04,29,311,43,16,45,210,43,26,75,209,47*70
###2023-12-09 12:53:20.974844$GPGSV,2,2,08,28,52,066,44,29,26,065,43,31,71,026,48,32,23,138,43*76
###2023-12-09 12:53:20.977178$GLGSV,2,1,06,65,20,328,45,71,45,172,46,72,72,285,46,73,39,039,47*62
###2023-12-09 12:53:20.978966$GLGSV,2,2,06,74,71,324,43,75,29,249,42,,,,,,,,*64
###2023-12-09 12:53:20.981299$GAGSV,1,1,04,04,26,312,42,19,85,252,40,21,84,154,46,27,36,048,45*6E
###2023-12-09 12:53:20.983643$GBGSV,2,1,05,14,47,194,44,24,76,016,48,25,38,259,45,26,29,061,44*60
###2023-12-09 12:53:20.985103$GBGSV,2,2,05,33,60,238,46,,,,,,,,,,,,*53
###2023-12-09 12:53:20.986428$GNVTG,303.35,T,,M,0.66,N,1.22,K,A*24
###2023-12-09 12:53:20.988093$GNGST,175320.10,18.000,,,,0.076,0.067,0.160*5A
###2023-12-09 12:53:20.989387$GNZDA,175320.10,09,12,2023,00,00*72
###2023-12-09 12:53:20.990028$GNEBP,,,,,,M*13
###2023-12-09 12:53:21.153606$GNGGA,175320.30,4138.0580797,N,07032.3866147,W,1,24,0.6,13.302,M,-29.744,M,0.0,*58
###2023-12-09 12:53:21.354423$GNGGA,175320.50,4138.0580754,N,07032.3866100,W,1,24,0.6,13.291,M,-29.744,M,0.0,*59
###2023-12-09 12:53:21.553526$GNGGA,175320.70,4138.0580796,N,07032.3866207,W,1,24,0.6,13.271,M,-29.744,M,0.0,*5F
###2023-12-09 12:53:21.754509$GNGGA,175320.90,4138.0581026,N,07032.3866727,W,1,24,0.6,13.283,M,-29.744,M,0.0,*56
###2023-12-09 12:53:21.953794$GNRMC,175321.10,A,4138.0581274,N,07032.3867260,W,0.58,303.35,091223,,,A*5B
###2023-12-09 12:53:21.956668$GNGGA,175321.10,4138.0581274,N,07032.3867260,W,1,24,0.6,13.290,M,-29.744,M,0.0,*5F
###2023-12-09 12:53:21.958529$GPGSA,A,3,03,04,16,26,28,29,31,32,,,,,1.1,0.6,0.9*3B
###2023-12-09 12:53:21.960265$GLGSA,A,3,65,71,72,73,74,75,,,,,,,1.1,0.6,0.9*24
###2023-12-09 12:53:21.961843$GAGSA,A,3,04,19,21,27,,,,,,,,,1.1,0.6,0.9*26
###2023-12-09 12:53:21.963495$GBGSA,A,3,14,24,25,26,33,,,,,,,,1.1,0.6,0.9*2F
###2023-12-09 12:53:21.965822$GPGSV,2,1,08,03,36,266,45,04,29,311,43,16,45,210,45,26,75,209,47*76
###2023-12-09 12:53:21.968161$GPGSV,2,2,08,28,52,066,44,29,26,065,43,31,71,026,48,32,23,138,43*76
###2023-12-09 12:53:21.970486$GLGSV,2,1,06,65,20,328,44,71,45,172,46,72,72,285,46,73,39,039,47*63
###2023-12-09 12:53:21.972239$GLGSV,2,2,06,74,71,324,43,75,29,249,41,,,,,,,,*67
###2023-12-09 12:53:21.974572$GAGSV,1,1,04,04,26,312,43,19,85,252,40,21,84,154,46,27,36,048,45*6F
###2023-12-09 12:53:21.976901$GBGSV,2,1,05,14,47,194,45,24,76,016,48,25,38,259,45,26,29,061,43*66
###2023-12-09 12:53:21.978351$GBGSV,2,2,05,33,60,238,47,,,,,,,,,,,,*52
###2023-12-09 12:53:21.979682$GNVTG,303.35,T,,M,0.58,N,1.08,K,A*21
###2023-12-09 12:53:21.981327$GNGST,175321.10,18.000,,,,0.076,0.067,0.160*5B
###2023-12-09 12:53:21.982624$GNZDA,175321.10,09,12,2023,00,00*73
###2023-12-09 12:53:21.983262$GNEBP,,,,,,M*13
###2023-12-09 12:53:22.155483$GNGGA,175321.30,4138.0581334,N,07032.3867402,W,1,24,0.6,13.290,M,-29.744,M,0.0,*5A
###2023-12-09 12:53:22.354348$GNGGA,175321.50,4138.0581312,N,07032.3867337,W,1,24,0.6,13.291,M,-29.744,M,0.0,*58
###2023-12-09 12:53:22.554365$GNGGA,175321.70,4138.0581397,N,07032.3867554,W,1,24,0.6,13.292,M,-29.744,M,0.0,*57
###2023-12-09 12:53:22.753554$GNGGA,175321.90,4138.0581625,N,07032.3868035,W,1,24,0.6,13.296,M,-29.744,M,0.0,*5C
###2023-12-09 12:53:22.954006$GNRMC,175322.10,A,4138.0581825,N,07032.3868449,W,0.41,303.35,091223,,,A*5C
###2023-12-09 12:53:22.956883$GNGGA,175322.10,4138.0581825,N,07032.3868449,W,1,24,0.6,13.293,M,-29.744,M,0.0,*53
###2023-12-09 12:53:22.958771$GPGSA,A,3,03,04,16,26,28,29,31,32,,,,,1.1,0.6,0.9*3B
###2023-12-09 12:53:22.960482$GLGSA,A,3,65,71,72,73,74,75,,,,,,,1.1,0.6,0.9*24
###2023-12-09 12:53:22.962058$GAGSA,A,3,04,19,21,27,,,,,,,,,1.1,0.6,0.9*26
###2023-12-09 12:53:22.963715$GBGSA,A,3,14,24,25,26,33,,,,,,,,1.1,0.6,0.9*2F
###2023-12-09 12:53:22.966038$GPGSV,2,1,08,03,36,266,45,04,29,311,43,16,45,210,44,26,75,209,47*77
###2023-12-09 12:53:22.968376$GPGSV,2,2,08,28,52,066,45,29,26,065,43,31,71,026,48,32,23,138,43*77
###2023-12-09 12:53:22.970711$GLGSV,2,1,06,65,20,328,44,71,45,172,46,72,72,285,46,73,39,039,48*6C
###2023-12-09 12:53:22.972693$GLGSV,2,2,06,74,71,324,43,75,29,249,42,,,,,,,,*64
###2023-12-09 12:53:22.975057$GAGSV,1,1,04,04,26,312,43,19,85,252,40,21,84,154,46,27,36,048,45*6F
###2023-12-09 12:53:22.977393$GBGSV,2,1,05,14,47,194,46,24,76,016,49,25,38,259,46,26,29,061,44*60
###2023-12-09 12:53:22.978865$GBGSV,2,2,05,33,60,238,47,,,,,,,,,,,,*52
###2023-12-09 12:53:22.980190$GNVTG,303.35,T,,M,0.41,N,0.76,K,A*21
###2023-12-09 12:53:22.981839$GNGST,175322.10,18.000,,,,0.075,0.066,0.160*5A
###2023-12-09 12:53:22.983141$GNZDA,175322.10,09,12,2023,00,00*70
###2023-12-09 12:53:22.983780$GNEBP,,,,,,M*13
###2023-12-09 12:53:23.153565$GNGGA,175322.30,4138.0581886,N,07032.3868604,W,1,24,0.6,13.305,M,-29.744,M,0.0,*5D
