###2023-12-09 12:49:53.963000$GPGSV,2,2,08,28,53,065,43,29,26,066,38,31,71,024,46,32,23,138,40*73
###2023-12-09 12:49:53.965357$GLGSV,2,1,06,65,18,329,45,71,48,171,47,72,71,291,46,73,41,038,43*6B
###2023-12-09 12:49:53.967124$GLGSV,2,2,06,74,71,317,43,75,28,247,46,,,,,,,,*6F
###2023-12-09 12:49:53.969460$GAGSV,1,1,04,04,25,312,44,19,85,269,40,21,83,162,46,27,37,048,42*67
###2023-12-09 12:49:53.971851$GBGSV,2,1,05,14,49,195,43,24,77,011,47,25,37,257,45,26,30,060,40*6D
###2023-12-09 12:49:53.973315$GBGSV,2,2,05,33,61,241,46,,,,,,,,,,,,*5C
###2023-12-09 12:49:53.974657$GNVTG,326.92,T,,M,0.02,N,0.04,K,A*29
###2023-12-09 12:49:53.976307$GNGST,174953.10,18.000,,,,0.076,0.068,0.160*5A
###2023-12-09 12:49:53.977597$GNZDA,174953.10,09,12,2023,00,00*7D
###2023-12-09 12:49:53.978235$GNEBP,,,,,,M*13
###2023-12-09 12:49:54.148795$GNGGA,174953.30,4138.0658804,N,07032.3918971,W,1,24,0.6,13.406,M,-29.744,M,0.0,*52
###2023-12-09 12:49:54.351371$GNGGA,174953.50,4138.0658726,N,07032.3918909,W,1,24,0.6,13.382,M,-29.744,M,0.0,*5F
###2023-12-09 12:49:54.550328$GNGGA,174953.70,4138.0659107,N,07032.3919275,W,1,24,0.6,13.393,M,-29.744,M,0.0,*58
###2023-12-09 12:49:54.753212$GNGGA,174953.90,4138.0659574,N,07032.3919762,W,1,24,0.6,13.386,M,-29.744,M,0.0,*51
###2023-12-09 12:49:54.949606$GNRMC,174954.10,A,4138.0659640,N,07032.3919790,W,0.25,322.76,091223,,,A*5B
###2023-12-09 12:49:54.953084$GNGGA,174954.10,4138.0659640,N,07032.3919790,W,1,24,0.6,13.410,M,-29.744,M,0.0,*5F
###2023-12-09 12:49:54.955344$GPGSA,A,3,03,04,16,26,28,29,31,32,,,,,1.1,0.6,0.9*3B
###2023-12-09 12:49:54.957423$GLGSA,A,3,65,71,72,73,74,75,,,,,,,1.1,0.6,0.9*24
###2023-12-09 12:49:54.959350$GAGSA,A,3,04,19,21,27,,,,,,,,,1.1,0.6,0.9*26
###2023-12-09 12:49:54.961337$GBGSA,A,3,14,24,25,26,33,,,,,,,,1.1,0.6,0.9*2F
###2023-12-09 12:49:54.964171$GPGSV,2,1,08,03,37,268,45,04,28,311,44,16,44,210,42,26,74,208,48*76
###2023-12-09 12:49:54.967006$GPGSV,2,2,08,28,53,065,42,29,26,066,39,31,71,024,47,32,23,138,41*73
###2023-12-09 12:49:54.969831$GLGSV,2,1,06,65,18,329,46,71,48,171,47,72,71,291,47,73,41,038,45*6F
###2023-12-09 12:49:54.972042$GLGSV,2,2,06,74,71,317,43,75,28,247,45,,,,,,,,*6C
###2023-12-09 12:49:54.974867$GAGSV,1,1,04,04,25,312,44,19,85,269,40,21,83,162,45,27,37,048,42*64
###2023-12-09 12:49:54.977685$GBGSV,2,1,05,14,49,195,43,24,77,011,47,25,37,257,46,26,30,060,42*6C
###2023-12-09 12:49:54.979469$GBGSV,2,2,05,33,61,241,47,,,,,,,,,,,,*5D
###2023-12-09 12:49:54.981061$GNVTG,322.76,T,,M,0.25,N,0.47,K,A*25
###2023-12-09 12:49:54.983066$GNGST,174954.10,18.000,,,,0.076,0.068,0.160*5D
###2023-12-09 12:49:54.984633$GNZDA,174954.10,09,12,2023,00,00*7A
###2023-12-09 12:49:54.985416$GNEBP,,,,,,M*13
###2023-12-09 12:49:55.149364$GNGGA,174954.30,4138.0659538,N,07032.3919624,W,1,24,0.6,13.427,M,-29.744,M,0.0,*5B
###2023-12-09 12:49:55.350328$GNGGA,174954.50,4138.0659621,N,07032.3919713,W,1,24,0.6,13.400,M,-29.744,M,0.0,*56
###2023-12-09 12:49:55.549547$GNGGA,174954.70,4138.0660017,N,07032.3920141,W,1,24,0.6,13.391,M,-29.744,M,0.0,*59
###2023-12-09 12:49:55.748819$GNGGA,174954.90,4138.0660314,N,07032.3920466,W,1,24,0.6,13.381,M,-29.744,M,0.0,*56
###2023-12-09 12:49:55.949489$GNRMC,174955.10,A,4138.0660358,N,07032.3920467,W,0.17,321.51,091223,,,A*5A
###2023-12-09 12:49:55.952375$GNGGA,174955.10,4138.0660358,N,07032.3920467,W,1,24,0.6,13.415,M,-29.744,M,0.0,*5C
###2023-12-09 12:49:55.954231$GPGSA,A,3,03,04,16,26,28,29,31,32,,,,,1.1,0.6,0.9*3B
###2023-12-09 12:49:55.955973$GLGSA,A,3,65,71,72,73,74,75,,,,,,,1.1,0.6,0.9*24
###2023-12-09 12:49:55.957557$GAGSA,A,3,04,19,21,27,,,,,,,,,1.1,0.6,0.9*26
###2023-12-09 12:49:55.959213$GBGSA,A,3,14,24,25,26,33,,,,,,,,1.1,0.6,0.9*2F
###2023-12-09 12:49:55.961534$GPGSV,2,1,08,03,37,268,45,04,28,311,45,16,44,210,43,26,74,208,48*76
###2023-12-09 12:49:55.963875$GPGSV,2,2,08,28,53,065,43,29,26,066,39,31,71,024,47,32,23,138,41*72
###2023-12-09 12:49:55.966212$GLGSV,2,1,06,65,18,329,45,71,48,171,46,72,71,291,46,73,41,038,44*6D
###2023-12-09 12:49:55.967973$GLGSV,2,2,06,74,71,317,43,75,28,247,46,,,,,,,,*6F
###2023-12-09 12:49:55.970280$GAGSV,1,1,04,04,25,312,44,19,85,269,40,21,83,162,46,27,37,048,42*67
###2023-12-09 12:49:55.972605$GBGSV,2,1,05,14,49,195,43,24,77,011,48,25,37,257,45,26,30,060,43*61
###2023-12-09 12:49:55.974059$GBGSV,2,2,05,33,61,241,47,,,,,,,,,,,,*5D
###2023-12-09 12:49:55.975383$GNVTG,321.51,T,,M,0.17,N,0.32,K,A*20
###2023-12-09 12:49:55.977019$GNGST,174955.10,18.000,,,,0.077,0.069,0.160*5C
###2023-12-09 12:49:55.978304$GNZDA,174955.10,09,12,2023,00,00*7B
###2023-12-09 12:49:55.978951$GNEBP,,,,,,M*13
###2023-12-09 12:49:56.149570$GNGGA,174955.30,4138.0660356,N,07032.3920409,W,1,24,0.6,13.435,M,-29.744,M,0.0,*5A
###2023-12-09 12:49:56.349702$GNGGA,174955.50,4138.0660458,N,07032.3920495,W,1,24,0.6,13.410,M,-29.744,M,0.0,*57
###2023-12-09 12:49:56.548321$GNGGA,174955.70,4138.0660735,N,07032.3920780,W,1,24,0.6,13.401,M,-29.744,M,0.0,*5A
###2023-12-09 12:49:56.749959$GNGGA,174955.90,4138.0661066,N,07032.3921161,W,1,24,0.6,13.408,M,-29.744,M,0.0,*55
###2023-12-09 12:49:56.956983$GNRMC,174956.10,A,4138.0661186,N,07032.3921276,W,0.08,321.51,091223,,,A*50
###2023-12-09 12:49:56.959862$GNGGA,174956.10,4138.0661186,N,07032.3921276,W,1,24,0.6,13.428,M,-29.744,M,0.0,*56
###2023-12-09 12:49:56.961714$GPGSA,A,3,03,04,16,26,28,29,31,32,,,,,1.1,0.6,0.9*3B
###2023-12-09 12:49:56.963432$GLGSA,A,3,65,71,72,73,74,75,,,,,,,1.1,0.6,0.9*24
###2023-12-09 12:49:56.965008$GAGSA,A,3,04,19,21,27,,,,,,,,,1.1,0.6,0.9*26
###2023-12-09 12:49:56.966659$GBGSA,A,3,14,24,25,26,33,,,,,,,,1.1,0.6,0.9*2F
###2023-12-09 12:49:56.968981$GPGSV,2,1,08,03,37,268,43,04,28,311,43,16,44,210,42,26,74,208,47*78
###2023-12-09 12:49:56.971321$GPGSV,2,2,08,28,53,065,42,29,26,066,39,31,71,024,46,32,23,138,39*7D
###2023-12-09 12:49:56.973656$GLGSV,2,1,06,65,18,329,46,71,48,171,47,72,71,291,46,73,41,038,43*68
###2023-12-09 12:49:56.975415$GLGSV,2,2,06,74,71,317,44,75,28,247,46,,,,,,,,*68
###2023-12-09 12:49:56.977732$GAGSV,1,1,04,04,25,312,44,19,85,269,40,21,83,162,46,27,37,048,42*67
###2023-12-09 12:49:56.980070$GBGSV,2,1,05,14,49,195,42,24,77,011,49,25,37,257,46,26,30,060,43*62
###2023-12-09 12:49:56.981531$GBGSV,2,2,05,33,61,241,47,,,,,,,,,,,,*5D
###2023-12-09 12:49:56.982868$GNVTG,321.51,T,,M,0.08,N,0.14,K,A*2A
###2023-12-09 12:49:56.984521$GNGST,174956.10,18.000,,,,0.077,0.069,0.160*5F
###2023-12-09 12:49:56.985814$GNZDA,174956.10,09,12,2023,00,00*78
###2023-12-09 12:49:56.986450$GNEBP,,,,,,M*13
###2023-12-09 12:49:57.151152$GNGGA,174956.30,4138.0661124,N,07032.3921167,W,1,24,0.6,13.440,M,-29.744,M,0.0,*51
###2023-12-09 12:49:57.354191$GNGGA,174956.50,4138.0661175,N,07032.3921200,W,1,24,0.6,13.422,M,-29.744,M,0.0,*55
###2023-12-09 12:49:57.548655$GNGGA,174956.70,4138.0661544,N,07032.3921603,W,1,24,0.6,13.428,M,-29.744,M,0.0,*5C
###2023-12-09 12:49:57.756009$GNGGA,174956.90,4138.0661898,N,07032.3921989,W,1,24,0.6,13.420,M,-29.744,M,0.0,*5B
###2023-12-09 12:49:57.948733$GNRMC,174957.10,A,4138.0661885,N,07032.3921989,W,0.29,319.78,091223,,,A*53
###2023-12-09 12:49:57.952223$GNGGA,174957.10,4138.0661885,N,07032.3921989,W,1,24,0.6,13.445,M,-29.744,M,0.0,*5D
###2023-12-09 12:49:57.954473$GPGSA,A,3,03,04,16,26,28,29,31,32,,,,,1.1,0.6,0.9*3B
###2023-12-09 12:49:57.956571$GLGSA,A,3,65,71,72,73,74,75,,,,,,,1.1,0.6,0.9*24
###2023-12-09 12:49:57.958483$GAGSA,A,3,04,19,21,27,,,,,,,,,1.1,0.6,0.9*26
###2023-12-09 12:49:57.960492$GBGSA,A,3,14,24,25,26,33,,,,,,,,1.1,0.6,0.9*2F
###2023-12-09 12:49:57.963351$GPGSV,2,1,08,03,37,268,44,04,28,311,44,16,44,210,43,26,74,208,48*76
###2023-12-09 12:49:57.966192$GPGSV,2,2,08,28,53,065,43,29,26,066,40,31,71,024,47,32,23,138,43*7E
###2023-12-09 12:49:57.969041$GLGSV,2,1,06,65,18,329,45,71,48,171,47,72,71,291,46,73,41,038,43*6B
###2023-12-09 12:49:57.971216$GLGSV,2,2,06,74,71,317,44,75,28,247,45,,,,,,,,*6B
###2023-12-09 12:49:57.974044$GAGSV,1,1,04,04,25,312,44,19,85,269,41,21,83,162,46,27,37,048,43*67
###2023-12-09 12:49:57.976885$GBGSV,2,1,05,14,49,195,45,24,77,011,49,25,37,257,46,26,30,060,44*62
###2023-12-09 12:49:57.978672$GBGSV,2,2,05,33,61,241,48,,,,,,,,,,,,*52
###2023-12-09 12:49:57.980278$GNVTG,319.78,T,,M,0.29,N,0.54,K,A*2D
###2023-12-09 12:49:57.982581$GNGST,174957.10,18.000,,,,0.077,0.069,0.160*5E
###2023-12-09 12:49:57.984176$GNZDA,174957.10,09,12,2023,00,00*79
###2023-12-09 12:49:57.984952$GNEBP,,,,,,M*13
###2023-12-09 12:49:58.147854$GNGGA,174957.30,4138.0661794,N,07032.3921898,W,1,24,0.6,13.463,M,-29.744,M,0.0,*55
###2023-12-09 12:49:58.348432$GNGGA,174957.50,4138.0661983,N,07032.3922083,W,1,24,0.6,13.469,M,-29.744,M,0.0,*50
###2023-12-09 12:49:58.547442$GNGGA,174957.70,4138.0662395,N,07032.3922531,W,1,24,0.6,13.467,M,-29.744,M,0.0,*5E
###2023-12-09 12:49:58.747898$GNGGA,174957.90,4138.0662635,N,07032.3922831,W,1,24,0.6,13.465,M,-29.744,M,0.0,*50
###2023-12-09 12:49:58.949342$GNRMC,174958.10,A,4138.0662600,N,07032.3922812,W,0.19,320.70,091223,,,A*5D
###2023-12-09 12:49:58.952263$GNGGA,174958.10,4138.0662600,N,07032.3922812,W,1,24,0.6,13.485,M,-29.744,M,0.0,*5E
