###2023-12-09 13:07:45.009589$GNEBP,,,,,,M*13
###2023-12-09 13:07:45.169978$GNGGA,180744.30,4138.0751464,N,07032.3505139,W,1,25,0.6,13.451,M,-29.743,M,0.0,*53
###2023-12-09 13:07:45.368320$GNGGA,180744.50,4138.0752261,N,07032.3502686,W,1,25,0.6,13.450,M,-29.743,M,0.0,*50
###2023-12-09 13:07:45.568043$GNGGA,180744.70,4138.0753005,N,07032.3500160,W,1,25,0.6,13.468,M,-29.743,M,0.0,*55
###2023-12-09 13:07:45.768097$GNGGA,180744.90,4138.0753606,N,07032.3497556,W,1,25,0.6,13.467,M,-29.743,M,0.0,*5F
###2023-12-09 13:07:45.975520$GNRMC,180745.10,A,4138.0754121,N,07032.3494966,W,3.58,74.85,091223,,,A*68
###2023-12-09 13:07:45.978378$GNGGA,180745.10,4138.0754121,N,07032.3494966,W,1,25,0.6,13.456,M,-29.743,M,0.0,*5D
###2023-12-09 13:07:45.980251$GPGSA,A,3,03,04,16,26,28,29,31,32,,,,,1.1,0.6,0.9*3B
###2023-12-09 13:07:45.981965$GLGSA,A,3,65,71,72,73,74,75,,,,,,,1.1,0.6,0.9*24
###2023-12-09 13:07:45.983558$GAGSA,A,3,04,19,21,27,,,,,,,,,1.1,0.6,0.9*26
###2023-12-09 13:07:45.985268$GBGSA,A,3,14,24,25,26,33,35,,,,,,,1.1,0.6,0.9*29
###2023-12-09 13:07:45.987609$GPGSV,2,1,08,03,34,258,44,04,35,311,43,16,53,214,47,26,83,210,48*7A
###2023-12-09 13:07:45.989936$GPGSV,2,2,08,28,47,073,42,29,25,058,42,31,67,044,46,32,16,141,42*78
###2023-12-09 13:07:45.992284$GLGSV,2,1,06,65,26,326,42,71,37,173,46,72,72,258,46,73,33,043,43*6A
###2023-12-09 13:07:45.994036$GLGSV,2,2,06,74,68,345,42,75,34,256,48,,,,,,,,*62
###2023-12-09 13:07:45.996374$GAGSV,1,1,04,04,31,312,41,19,83,203,41,21,85,092,46,27,31,048,39*6E
###2023-12-09 13:07:45.998717$GBGSV,2,1,06,14,41,192,46,24,72,029,47,25,42,264,46,26,24,064,42*68
###2023-12-09 13:07:46.000462$GBGSV,2,2,06,33,56,229,47,35,15,067,42,,,,,,,,*61
###2023-12-09 13:07:46.001750$GNVTG,74.85,T,,M,3.58,N,6.62,K,A*11
###2023-12-09 13:07:46.003414$GNGST,180745.10,18.000,,,,0.081,0.065,0.150*5E
###2023-12-09 13:07:46.004720$GNZDA,180745.10,09,12,2023,00,00*7F
###2023-12-09 13:07:46.005360$GNEBP,,,,,,M*13
###2023-12-09 13:07:46.167011$GNGGA,180745.30,4138.0754660,N,07032.3492426,W,1,25,0.6,13.469,M,-29.743,M,0.0,*5E
###2023-12-09 13:07:46.367266$GNGGA,180745.50,4138.0755202,N,07032.3489867,W,1,25,0.6,13.476,M,-29.743,M,0.0,*54
###2023-12-09 13:07:46.569203$GNGGA,180745.70,4138.0755564,N,07032.3487220,W,1,25,0.6,13.475,M,-29.743,M,0.0,*55
###2023-12-09 13:07:46.767972$GNGGA,180745.90,4138.0755916,N,07032.3484677,W,1,25,0.6,13.479,M,-29.743,M,0.0,*5B
###2023-12-09 13:07:46.971601$GNRMC,180746.10,A,4138.0756430,N,07032.3482105,W,3.71,76.54,091223,,,A*63
###2023-12-09 13:07:46.974455$GNGGA,180746.10,4138.0756430,N,07032.3482105,W,1,25,0.6,13.497,M,-29.743,M,0.0,*5E
###2023-12-09 13:07:46.976322$GPGSA,A,3,03,04,16,26,28,29,31,32,,,,,1.1,0.6,0.9*3B
###2023-12-09 13:07:46.978034$GLGSA,A,3,65,71,72,73,74,75,,,,,,,1.1,0.6,0.9*24
###2023-12-09 13:07:46.979622$GAGSA,A,3,04,19,21,27,,,,,,,,,1.1,0.6,0.9*26
###2023-12-09 13:07:46.981329$GBGSA,A,3,14,24,25,26,33,35,,,,,,,1.1,0.6,0.9*29
###2023-12-09 13:07:46.983655$GPGSV,2,1,08,03,34,258,45,04,35,311,43,16,53,214,47,26,83,210,49*7A
###2023-12-09 13:07:46.985973$GPGSV,2,2,08,28,47,073,42,29,25,058,42,31,67,044,46,32,16,141,42*78
###2023-12-09 13:07:46.988304$GLGSV,2,1,06,65,26,326,42,71,37,173,47,72,72,258,46,73,33,043,42*6A
###2023-12-09 13:07:46.990043$GLGSV,2,2,06,74,68,345,42,75,34,256,48,,,,,,,,*62
###2023-12-09 13:07:46.992369$GAGSV,1,1,04,04,31,312,41,19,83,203,41,21,85,092,46,27,31,048,40*60
###2023-12-09 13:07:46.994694$GBGSV,2,1,06,14,41,192,46,24,72,029,48,25,42,264,46,26,24,064,42*67
###2023-12-09 13:07:46.996436$GBGSV,2,2,06,33,56,229,48,35,15,067,41,,,,,,,,*6D
###2023-12-09 13:07:46.997717$GNVTG,76.54,T,,M,3.71,N,6.88,K,A*10
###2023-12-09 13:07:46.999367$GNGST,180746.10,18.000,,,,0.081,0.065,0.150*5D
###2023-12-09 13:07:47.000653$GNZDA,180746.10,09,12,2023,00,00*7C
###2023-12-09 13:07:47.001292$GNEBP,,,,,,M*13
###2023-12-09 13:07:47.168879$GNGGA,180746.30,4138.0756918,N,07032.3479522,W,1,25,0.6,13.484,M,-29.743,M,0.0,*5C
###2023-12-09 13:07:47.369146$GNGGA,180746.50,4138.0757451,N,07032.3477024,W,1,25,0.6,13.492,M,-29.743,M,0.0,*51
###2023-12-09 13:07:47.569922$GNGGA,180746.70,4138.0757978,N,07032.3474428,W,1,25,0.6,13.505,M,-29.743,M,0.0,*51
###2023-12-09 13:07:47.769029$GNGGA,180746.90,4138.0758424,N,07032.3471734,W,1,25,0.6,13.485,M,-29.743,M,0.0,*56
###2023-12-09 13:07:47.971506$GNRMC,180747.10,A,4138.0759086,N,07032.3469174,W,3.62,66.02,091223,,,A*67
###2023-12-09 13:07:47.974355$GNGGA,180747.10,4138.0759086,N,07032.3469174,W,1,25,0.6,13.477,M,-29.743,M,0.0,*54
###2023-12-09 13:07:47.976211$GPGSA,A,3,03,04,16,26,28,29,31,32,,,,,1.1,0.6,0.9*3B
###2023-12-09 13:07:47.977920$GLGSA,A,3,65,71,72,73,74,75,,,,,,,1.1,0.6,0.9*24
###2023-12-09 13:07:47.979501$GAGSA,A,3,04,19,21,27,,,,,,,,,1.1,0.6,0.9*26
###2023-12-09 13:07:47.981199$GBGSA,A,3,14,24,25,26,33,35,,,,,,,1.1,0.6,0.9*29
###2023-12-09 13:07:47.983520$GPGSV,2,1,08,03,34,258,45,04,35,311,43,16,53,214,46,26,83,210,48*7A
###2023-12-09 13:07:47.985838$GPGSV,2,2,08,28,47,073,41,29,25,058,41,31,67,044,46,32,16,141,43*79
###2023-12-09 13:07:47.988163$GLGSV,2,1,06,65,26,326,41,71,37,173,47,72,72,258,47,73,33,043,41*6B
###2023-12-09 13:07:47.989895$GLGSV,2,2,06,74,68,345,42,75,34,256,48,,,,,,,,*62
###2023-12-09 13:07:47.992221$GAGSV,1,1,04,04,31,312,42,19,83,203,40,21,85,092,45,27,31,048,39*6F
###2023-12-09 13:07:47.994542$GBGSV,2,1,06,14,41,192,46,24,72,029,48,25,42,264,47,26,24,064,43*67
###2023-12-09 13:07:47.996283$GBGSV,2,2,06,33,56,229,48,35,15,067,41,,,,,,,,*6D
###2023-12-09 13:07:47.997566$GNVTG,66.02,T,,M,3.62,N,6.70,K,A*17
###2023-12-09 13:07:47.999209$GNGST,180747.10,18.000,,,,0.081,0.065,0.150*5C
###2023-12-09 13:07:48.000490$GNZDA,180747.10,09,12,2023,00,00*7D
###2023-12-09 13:07:48.001123$GNEBP,,,,,,M*13
###2023-12-09 13:07:48.168907$GNGGA,180747.30,4138.0759968,N,07032.3466760,W,1,25,0.6,13.499,M,-29.743,M,0.0,*53
###2023-12-09 13:07:48.369522$GNGGA,180747.50,4138.0760679,N,07032.3464150,W,1,25,0.6,13.504,M,-29.743,M,0.0,*52
###2023-12-09 13:07:48.570052$GNGGA,180747.70,4138.0761148,N,07032.3461437,W,1,25,0.6,13.480,M,-29.743,M,0.0,*58
###2023-12-09 13:07:48.769921$GNGGA,180747.90,4138.0761819,N,07032.3458946,W,1,25,0.6,13.496,M,-29.743,M,0.0,*5D
###2023-12-09 13:07:48.972562$GNRMC,180748.10,A,4138.0762705,N,07032.3456468,W,3.73,68.12,091223,,,A*67
###2023-12-09 13:07:48.975426$GNGGA,180748.10,4138.0762705,N,07032.3456468,W,1,25,0.6,13.519,M,-29.743,M,0.0,*52
###2023-12-09 13:07:48.977279$GPGSA,A,3,03,04,16,26,28,29,31,32,,,,,1.1,0.6,0.9*3B
###2023-12-09 13:07:48.979003$GLGSA,A,3,65,71,72,73,74,75,,,,,,,1.1,0.6,0.9*24
###2023-12-09 13:07:48.980583$GAGSA,A,3,04,19,21,27,,,,,,,,,1.1,0.6,0.9*26
###2023-12-09 13:07:48.982292$GBGSA,A,3,14,24,25,26,33,35,,,,,,,1.1,0.6,0.9*29
###2023-12-09 13:07:48.984629$GPGSV,2,1,08,03,34,258,43,04,35,311,43,16,53,214,45,26,83,210,47*70
###2023-12-09 13:07:48.986970$GPGSV,2,2,08,28,47,073,40,29,25,058,40,31,67,044,45,32,16,141,39*77
###2023-12-09 13:07:48.989297$GLGSV,2,1,06,65,26,326,43,71,37,173,46,72,72,258,46,73,33,043,41*69
###2023-12-09 13:07:48.991051$GLGSV,2,2,06,74,68,345,42,75,34,256,48,,,,,,,,*62
###2023-12-09 13:07:48.993373$GAGSV,1,1,04,04,31,312,40,19,83,203,40,21,85,092,45,27,31,048,39*6D
###2023-12-09 13:07:48.995716$GBGSV,2,1,06,14,41,192,44,24,72,029,48,25,42,264,46,26,24,064,42*65
###2023-12-09 13:07:48.997454$GBGSV,2,2,06,33,56,229,48,35,15,067,41,,,,,,,,*6D
###2023-12-09 13:07:48.998749$GNVTG,68.12,T,,M,3.73,N,6.91,K,A*17
###2023-12-09 13:07:49.000391$GNGST,180748.10,18.000,,,,0.081,0.066,0.150*50
###2023-12-09 13:07:49.001677$GNZDA,180748.10,09,12,2023,00,00*72
###2023-12-09 13:07:49.002312$GNEBP,,,,,,M*13
###2023-12-09 13:07:49.168894$GNGGA,180748.30,4138.0763199,N,07032.3453740,W,1,25,0.6,13.485,M,-29.743,M,0.0,*5A
###2023-12-09 13:07:49.369543$GNGGA,180748.50,4138.0763481,N,07032.3451071,W,1,25,0.6,13.469,M,-29.743,M,0.0,*55
###2023-12-09 13:07:49.569066$GNGGA,180748.70,4138.0764232,N,07032.3448645,W,1,25,0.6,13.519,M,-29.743,M,0.0,*51
###2023-12-09 13:07:49.769884$GNGGA,180748.90,4138.0765041,N,07032.3446092,W,1,25,0.6,13.535,M,-29.743,M,0.0,*54
###2023-12-09 13:07:49.975384$GNRMC,180749.10,A,4138.0765232,N,07032.3443301,W,3.48,89.52,091223,,,A*6F
###2023-12-09 13:07:49.978510$GNGGA,180749.10,4138.0765232,N,07032.3443301,W,1,25,0.6,13.475,M,-29.743,M,0.0,*52
###2023-12-09 13:07:49.980394$GPGSA,A,3,03,04,16,26,28,29,31,32,,,,,1.1,0.6,0.9*3B
###2023-12-09 13:07:49.982115$GLGSA,A,3,65,71,72,73,74,75,,,,,,,1.1,0.6,0.9*24
###2023-12-09 13:07:49.983712$GAGSA,A,3,04,19,21,27,,,,,,,,,1.1,0.6,0.9*26
###2023-12-09 13:07:49.985427$GBGSA,A,3,14,24,25,26,33,35,,,,,,,1.1,0.6,0.9*29
###2023-12-09 13:07:49.987769$GPGSV,2,1,08,03,34,258,44,04,35,311,40,16,53,214,46,26,83,210,48*78
###2023-12-09 13:07:49.990095$GPGSV,2,2,08,28,47,073,43,29,25,058,39,31,67,044,46,32,16,141,40*77
###2023-12-09 13:07:49.992438$GLGSV,2,1,06,65,26,326,42,71,37,173,47,72,72,258,46,73,33,043,44*6C
###2023-12-09 13:07:49.994187$GLGSV,2,2,06,74,68,345,42,75,34,256,47,,,,,,,,*6D
###2023-12-09 13:07:49.996526$GAGSV,1,1,04,04,31,312,40,19,83,203,40,21,85,092,45,27,31,048,41*62
