###2023-12-09 13:25:13.012272$GLGSV,2,1,06,65,34,322,45,71,27,175,42,72,67,229,46,73,26,049,45*63
###2023-12-09 13:25:13.014036$GLGSV,2,2,06,74,63,006,43,75,40,266,47,,,,,,,,*63
###2023-12-09 13:25:13.016380$GAGSV,1,1,04,04,37,311,44,19,76,185,40,21,80,051,45,27,26,049,42*6A
###2023-12-09 13:25:13.018718$GBGSV,2,1,06,14,33,190,43,24,66,041,48,25,48,272,48,26,19,068,44*69
###2023-12-09 13:25:13.020463$GBGSV,2,2,06,33,49,220,48,35,16,060,44,,,,,,,,*6B
###2023-12-09 13:25:13.021786$GNVTG,143.92,T,,M,3.54,N,6.55,K,A*2A
###2023-12-09 13:25:13.023441$GNGST,182512.10,18.000,,,,0.098,0.067,0.160*55
###2023-12-09 13:25:13.024728$GNZDA,182512.10,09,12,2023,00,00*7D
###2023-12-09 13:25:13.025365$GNEBP,,,,,,M*13
###2023-12-09 13:25:13.186827$GNGGA,182512.30,4138.0339533,N,07032.3526145,W,1,24,0.6,13.270,M,-29.745,M,0.0,*51
###2023-12-09 13:25:13.388160$GNGGA,182512.50,4138.0337848,N,07032.3524699,W,1,24,0.6,13.258,M,-29.745,M,0.0,*56
###2023-12-09 13:25:13.590989$GNGGA,182512.70,4138.0336149,N,07032.3523234,W,1,24,0.6,13.259,M,-29.745,M,0.0,*58
###2023-12-09 13:25:13.788188$GNGGA,182512.90,4138.0334504,N,07032.3521703,W,1,24,0.6,13.256,M,-29.745,M,0.0,*55
###2023-12-09 13:25:13.992625$GNRMC,182513.10,A,4138.0332838,N,07032.3520320,W,3.69,148.76,091223,,,A*58
###2023-12-09 13:25:13.996100$GNGGA,182513.10,4138.0332838,N,07032.3520320,W,1,24,0.6,13.271,M,-29.745,M,0.0,*59
###2023-12-09 13:25:13.998273$GPGSA,A,3,03,04,16,26,28,29,31,,,,,,1.1,0.6,0.9*3A
###2023-12-09 13:25:14.000361$GLGSA,A,3,65,71,72,73,74,75,,,,,,,1.1,0.6,0.9*24
###2023-12-09 13:25:14.002269$GAGSA,A,3,04,19,21,27,,,,,,,,,1.1,0.6,0.9*26
###2023-12-09 13:25:14.004371$GBGSA,A,3,14,24,25,26,33,35,,,,,,,1.1,0.6,0.9*29
###2023-12-09 13:25:14.007209$GPGSV,2,1,07,03,29,250,42,04,43,309,43,16,61,218,45,26,89,050,48*7C
###2023-12-09 13:25:14.009674$GPGSV,2,2,07,28,41,080,44,29,22,051,43,31,63,058,47,,,,*48
###2023-12-09 13:25:14.012485$GLGSV,2,1,06,65,34,322,44,71,27,175,42,72,67,229,46,73,26,049,45*62
###2023-12-09 13:25:14.014598$GLGSV,2,2,06,74,63,006,43,75,40,266,48,,,,,,,,*6C
###2023-12-09 13:25:14.017397$GAGSV,1,1,04,04,37,311,44,19,76,185,40,21,80,051,46,27,26,049,42*69
###2023-12-09 13:25:14.020254$GBGSV,2,1,06,14,33,190,42,24,66,041,49,25,48,272,47,26,19,068,45*67
###2023-12-09 13:25:14.022369$GBGSV,2,2,06,33,49,220,47,35,16,060,45,,,,,,,,*65
###2023-12-09 13:25:14.023986$GNVTG,148.76,T,,M,3.69,N,6.84,K,A*29
###2023-12-09 13:25:14.025965$GNGST,182513.10,18.000,,,,0.098,0.067,0.160*54
###2023-12-09 13:25:14.027534$GNZDA,182513.10,09,12,2023,00,00*7C
###2023-12-09 13:25:14.028315$GNEBP,,,,,,M*13
###2023-12-09 13:25:14.189206$GNGGA,182513.30,4138.0331132,N,07032.3518868,W,1,24,0.6,13.275,M,-29.745,M,0.0,*53
###2023-12-09 13:25:14.387089$GNGGA,182513.50,4138.0329525,N,07032.3517397,W,1,24,0.6,13.264,M,-29.745,M,0.0,*5A
###2023-12-09 13:25:14.588868$GNGGA,182513.70,4138.0327849,N,07032.3516009,W,1,24,0.6,13.288,M,-29.745,M,0.0,*56
###2023-12-09 13:25:14.788219$GNGGA,182513.90,4138.0326181,N,07032.3514545,W,1,24,0.6,13.276,M,-29.745,M,0.0,*5A
###2023-12-09 13:25:14.993388$GNRMC,182514.10,A,4138.0324546,N,07032.3513048,W,3.63,144.63,091223,,,A*53
###2023-12-09 13:25:14.996868$GNGGA,182514.10,4138.0324546,N,07032.3513048,W,1,24,0.6,13.273,M,-29.745,M,0.0,*52
###2023-12-09 13:25:14.999040$GPGSA,A,3,03,04,16,26,28,29,31,,,,,,1.1,0.6,0.9*3A
###2023-12-09 13:25:15.001105$GLGSA,A,3,65,71,72,73,74,75,,,,,,,1.1,0.6,0.9*24
###2023-12-09 13:25:15.003023$GAGSA,A,3,04,19,21,27,,,,,,,,,1.1,0.6,0.9*26
###2023-12-09 13:25:15.005088$GBGSA,A,3,14,24,25,26,33,35,,,,,,,1.1,0.6,0.9*29
###2023-12-09 13:25:15.007915$GPGSV,2,1,07,03,29,250,42,04,43,309,44,16,61,218,46,26,89,050,48*78
###2023-12-09 13:25:15.010372$GPGSV,2,2,07,28,41,080,44,29,22,051,43,31,63,058,47,,,,*48
###2023-12-09 13:25:15.013228$GLGSV,2,1,06,65,34,322,44,71,27,175,42,72,67,229,46,73,26,049,44*63
###2023-12-09 13:25:15.015356$GLGSV,2,2,06,74,63,006,43,75,40,266,47,,,,,,,,*63
###2023-12-09 13:25:15.018155$GAGSV,1,1,04,04,37,311,44,19,76,185,41,21,80,051,47,27,26,049,42*69
###2023-12-09 13:25:15.020965$GBGSV,2,1,06,14,33,190,42,24,66,041,48,25,48,272,47,26,19,068,43*60
###2023-12-09 13:25:15.023074$GBGSV,2,2,06,33,49,220,47,35,16,060,44,,,,,,,,*64
###2023-12-09 13:25:15.024670$GNVTG,144.63,T,,M,3.63,N,6.73,K,A*23
###2023-12-09 13:25:15.026667$GNGST,182514.10,18.000,,,,0.099,0.068,0.160*5D
###2023-12-09 13:25:15.028218$GNZDA,182514.10,09,12,2023,00,00*7B
###2023-12-09 13:25:15.028995$GNEBP,,,,,,M*13
###2023-12-09 13:25:15.191630$GNGGA,182514.30,4138.0322917,N,07032.3511570,W,1,24,0.6,13.283,M,-29.745,M,0.0,*5D
###2023-12-09 13:25:15.387835$GNGGA,182514.50,4138.0321208,N,07032.3510146,W,1,24,0.6,13.286,M,-29.745,M,0.0,*58
###2023-12-09 13:25:15.588870$GNGGA,182514.70,4138.0319524,N,07032.3508706,W,1,24,0.6,13.283,M,-29.745,M,0.0,*56
###2023-12-09 13:25:15.790417$GNGGA,182514.90,4138.0317871,N,07032.3507260,W,1,24,0.6,13.287,M,-29.745,M,0.0,*55
###2023-12-09 13:25:15.993912$GNRMC,182515.10,A,4138.0316155,N,07032.3505826,W,3.60,148.36,091223,,,A*5D
###2023-12-09 13:25:15.997394$GNGGA,182515.10,4138.0316155,N,07032.3505826,W,1,24,0.6,13.287,M,-29.745,M,0.0,*58
###2023-12-09 13:25:15.999575$GPGSA,A,3,03,04,16,26,28,29,31,,,,,,1.1,0.6,0.9*3A
###2023-12-09 13:25:16.001644$GLGSA,A,3,65,71,72,73,74,75,,,,,,,1.1,0.6,0.9*24
###2023-12-09 13:25:16.003571$GAGSA,A,3,04,19,21,27,,,,,,,,,1.1,0.6,0.9*26
###2023-12-09 13:25:16.005643$GBGSA,A,3,14,24,25,26,33,35,,,,,,,1.1,0.6,0.9*29
###2023-12-09 13:25:16.008458$GPGSV,2,1,07,03,29,250,41,04,43,309,44,16,61,218,46,26,89,050,48*7B
###2023-12-09 13:25:16.010917$GPGSV,2,2,07,28,41,080,44,29,22,051,44,31,63,058,47,,,,*4F
###2023-12-09 13:25:16.013715$GLGSV,2,1,06,65,34,322,45,71,27,175,42,72,67,229,46,73,26,049,44*62
###2023-12-09 13:25:16.015827$GLGSV,2,2,06,74,63,006,43,75,40,266,47,,,,,,,,*63
###2023-12-09 13:25:16.018634$GAGSV,1,1,04,04,37,311,44,19,76,185,41,21,80,051,47,27,26,049,42*69
###2023-12-09 13:25:16.021463$GBGSV,2,1,06,14,33,190,42,24,66,041,48,25,48,272,46,26,19,068,45*67
###2023-12-09 13:25:16.023592$GBGSV,2,2,06,33,49,220,47,35,16,060,44,,,,,,,,*64
###2023-12-09 13:25:16.025181$GNVTG,148.36,T,,M,3.60,N,6.66,K,A*28
###2023-12-09 13:25:16.027172$GNGST,182515.10,18.000,,,,0.099,0.068,0.160*5C
###2023-12-09 13:25:16.028723$GNZDA,182515.10,09,12,2023,00,00*7A
###2023-12-09 13:25:16.029500$GNEBP,,,,,,M*13
###2023-12-09 13:25:16.188931$GNGGA,182515.30,4138.0314456,N,07032.3504491,W,1,24,0.6,13.290,M,-29.745,M,0.0,*59
###2023-12-09 13:25:16.388467$GNGGA,182515.50,4138.0312728,N,07032.3503177,W,1,24,0.6,13.304,M,-29.745,M,0.0,*55
###2023-12-09 13:25:16.589393$GNGGA,182515.70,4138.0311042,N,07032.3501809,W,1,24,0.6,13.293,M,-29.745,M,0.0,*52
###2023-12-09 13:25:16.788826$GNGGA,182515.90,4138.0309394,N,07032.3500451,W,1,24,0.6,13.289,M,-29.745,M,0.0,*56
###2023-12-09 13:25:16.993569$GNRMC,182516.10,A,4138.0307667,N,07032.3499117,W,3.56,150.77,091223,,,A*5E
###2023-12-09 13:25:16.997046$GNGGA,182516.10,4138.0307667,N,07032.3499117,W,1,24,0.6,13.302,M,-29.745,M,0.0,*5E
###2023-12-09 13:25:16.999222$GPGSA,A,3,03,04,16,26,28,29,31,,,,,,1.1,0.6,0.9*3A
###2023-12-09 13:25:17.001285$GLGSA,A,3,65,71,72,73,74,75,,,,,,,1.1,0.6,0.9*24
###2023-12-09 13:25:17.003203$GAGSA,A,3,04,19,21,27,,,,,,,,,1.1,0.6,0.9*26
###2023-12-09 13:25:17.005257$GBGSA,A,3,14,24,25,26,33,35,,,,,,,1.1,0.6,0.9*29
###2023-12-09 13:25:17.008081$GPGSV,2,1,07,03,29,250,42,04,43,309,44,16,62,219,45,26,89,050,48*79
###2023-12-09 13:25:17.010530$GPGSV,2,2,07,28,41,080,44,29,22,051,44,31,63,058,47,,,,*4F
###2023-12-09 13:25:17.013378$GLGSV,2,1,06,65,34,322,45,71,27,175,43,72,67,229,46,73,26,049,45*62
###2023-12-09 13:25:17.015502$GLGSV,2,2,06,74,63,006,43,75,40,266,47,,,,,,,,*63
###2023-12-09 13:25:17.018298$GAGSV,1,1,04,04,37,311,44,19,76,185,40,21,80,051,47,27,26,049,42*68
###2023-12-09 13:25:17.021111$GBGSV,2,1,06,14,33,190,42,24,66,041,47,25,48,272,46,26,19,068,44*69
###2023-12-09 13:25:17.023238$GBGSV,2,2,06,33,49,220,46,35,16,060,44,,,,,,,,*65
###2023-12-09 13:25:17.024829$GNVTG,150.77,T,,M,3.56,N,6.59,K,A*2D
###2023-12-09 13:25:17.026819$GNGST,182516.10,18.000,,,,0.099,0.068,0.160*5F
###2023-12-09 13:25:17.028671$GNZDA,182516.10,09,12,2023,00,00*79
###2023-12-09 13:25:17.029461$GNEBP,,,,,,M*13
###2023-12-09 13:25:17.188150$GNGGA,182516.30,4138.0305964,N,07032.3497812,W,1,24,0.6,13.304,M,-29.745,M,0.0,*56
###2023-12-09 13:25:17.389759$GNGGA,182516.50,4138.0304273,N,07032.3496396,W,1,24,0.6,13.309,M,-29.745,M,0.0,*57
###2023-12-09 13:25:17.588900$GNGGA,182516.70,4138.0302654,N,07032.3494978,W,1,24,0.6,13.299,M,-29.745,M,0.0,*52
###2023-12-09 13:25:17.788478$GNGGA,182516.90,4138.0300948,N,07032.3493604,W,1,24,0.6,13.309,M,-29.745,M,0.0,*57
###2023-12-09 13:25:17.991024$GNRMC,182517.10,A,4138.0299255,N,07032.3492277,W,3.36,149.67,091223,,,A*5D
###2023-12-09 13:25:17.993876$GNGGA,182517.10,4138.0299255,N,07032.3492277,W,1,24,0.6,13.294,M,-29.745,M,0.0,*5C
###2023-12-09 13:25:17.995679$GPGSA,A,3,03,04,16,26,28,29,31,,,,,,1.1,0.6,0.9*3A
