###2023-12-09 13:39:40.008708$GNGGA,183939.10,4138.0505939,N,07032.3857679,W,1,25,0.6,13.463,M,-29.744,M,0.0,*5F
###2023-12-09 13:39:40.010599$GPGSA,A,3,03,04,16,26,27,28,29,31,,,,,1.0,0.6,0.8*3F
###2023-12-09 13:39:40.012316$GLGSA,A,3,65,71,72,73,74,75,,,,,,,1.0,0.6,0.8*24
###2023-12-09 13:39:40.013898$GAGSA,A,3,04,19,21,27,,,,,,,,,1.0,0.6,0.8*26
###2023-12-09 13:39:40.015627$GBGSA,A,3,12,14,24,25,33,35,,,,,,,1.0,0.6,0.8*2E
###2023-12-09 13:39:40.017938$GPGSV,2,1,08,03,25,244,42,04,48,306,45,16,69,225,45,26,81,040,48*77
###2023-12-09 13:39:40.020282$GPGSV,2,2,08,27,19,172,39,28,36,087,45,29,19,045,42,31,58,070,46*7D
###2023-12-09 13:39:40.022611$GLGSV,2,1,06,65,40,316,44,71,20,176,41,72,60,217,45,73,20,054,42*65
###2023-12-09 13:39:40.024352$GLGSV,2,2,06,74,58,018,43,75,45,275,48,,,,,,,,*6C
###2023-12-09 13:39:40.026670$GAGSV,1,1,04,04,41,309,45,19,70,181,40,21,75,045,46,27,21,050,40*60
###2023-12-09 13:39:40.028994$GBGSV,2,1,06,12,17,125,41,14,27,189,40,24,61,048,48,25,52,278,48*6C
###2023-12-09 13:39:40.030743$GBGSV,2,2,06,33,44,215,44,35,16,055,45,,,,,,,,*6B
###2023-12-09 13:39:40.032063$GNVTG,171.81,T,,M,3.15,N,5.83,K,A*24
###2023-12-09 13:39:40.033714$GNGST,183939.10,5.400,,,,0.090,0.066,0.150*63
###2023-12-09 13:39:40.035031$GNZDA,183939.10,09,12,2023,00,00*79
###2023-12-09 13:39:40.035671$GNEBP,,,,,,M*13
###2023-12-09 13:39:40.200828$GNGGA,183939.30,4138.0504151,N,07032.3857504,W,1,25,0.6,13.463,M,-29.744,M,0.0,*53
###2023-12-09 13:39:40.403597$GNGGA,183939.50,4138.0502368,N,07032.3857483,W,1,25,0.6,13.452,M,-29.744,M,0.0,*57
###2023-12-09 13:39:40.600505$GNGGA,183939.70,4138.0500628,N,07032.3857364,W,1,25,0.6,13.466,M,-29.744,M,0.0,*5F
###2023-12-09 13:39:40.800964$GNGGA,183939.90,4138.0498875,N,07032.3857232,W,1,25,0.6,13.481,M,-29.744,M,0.0,*5C
###2023-12-09 13:39:41.005024$GNRMC,183940.10,A,4138.0497127,N,07032.3857058,W,3.05,175.45,091223,,,A*59
###2023-12-09 13:39:41.008492$GNGGA,183940.10,4138.0497127,N,07032.3857058,W,1,25,0.6,13.462,M,-29.744,M,0.0,*58
###2023-12-09 13:39:41.010746$GPGSA,A,3,03,04,16,26,27,28,29,31,,,,,1.0,0.6,0.8*3F
###2023-12-09 13:39:41.012807$GLGSA,A,3,65,71,72,73,74,75,,,,,,,1.0,0.6,0.8*24
###2023-12-09 13:39:41.014726$GAGSA,A,3,04,19,21,27,,,,,,,,,1.0,0.6,0.8*26
###2023-12-09 13:39:41.016782$GBGSA,A,3,12,14,24,25,33,35,,,,,,,1.0,0.6,0.8*2E
###2023-12-09 13:39:41.019591$GPGSV,2,1,08,03,25,244,42,04,48,306,44,16,69,225,45,26,81,040,48*76
###2023-12-09 13:39:41.022397$GPGSV,2,2,08,27,19,172,39,28,36,087,44,29,19,045,42,31,58,070,46*7C
###2023-12-09 13:39:41.025247$GLGSV,2,1,06,65,40,316,44,71,20,176,41,72,60,217,46,73,20,054,43*67
###2023-12-09 13:39:41.027378$GLGSV,2,2,06,74,58,018,43,75,45,275,48,,,,,,,,*6C
###2023-12-09 13:39:41.030185$GAGSV,1,1,04,04,41,309,44,19,70,181,40,21,75,045,46,27,21,050,41*60
###2023-12-09 13:39:41.033004$GBGSV,2,1,06,12,17,125,43,14,27,189,40,24,61,048,48,25,52,278,48*6E
###2023-12-09 13:39:41.035120$GBGSV,2,2,06,33,44,215,46,35,16,055,44,,,,,,,,*68
###2023-12-09 13:39:41.036709$GNVTG,175.45,T,,M,3.05,N,5.65,K,A*21
###2023-12-09 13:39:41.038665$GNGST,183940.10,5.300,,,,0.090,0.066,0.150*6A
###2023-12-09 13:39:41.040226$GNZDA,183940.10,09,12,2023,00,00*77
###2023-12-09 13:39:41.040993$GNEBP,,,,,,M*13
###2023-12-09 13:39:41.201746$GNGGA,183940.30,4138.0495371,N,07032.3857090,W,1,25,0.6,13.452,M,-29.744,M,0.0,*5E
###2023-12-09 13:39:41.400391$GNGGA,183940.50,4138.0493549,N,07032.3857253,W,1,25,0.6,13.460,M,-29.745,M,0.0,*5E
###2023-12-09 13:39:41.601957$GNGGA,183940.70,4138.0491916,N,07032.3857333,W,1,25,0.6,13.458,M,-29.745,M,0.0,*54
###2023-12-09 13:39:41.801343$GNGGA,183940.90,4138.0490169,N,07032.3857472,W,1,25,0.6,13.473,M,-29.745,M,0.0,*50
###2023-12-09 13:39:42.004763$GNRMC,183941.10,A,4138.0488441,N,07032.3857410,W,2.92,176.29,091223,,,A*5D
###2023-12-09 13:39:42.008217$GNGGA,183941.10,4138.0488441,N,07032.3857410,W,1,25,0.6,13.413,M,-29.745,M,0.0,*5D
###2023-12-09 13:39:42.010445$GPGSA,A,3,03,04,16,26,27,28,29,31,,,,,1.0,0.6,0.8*3F
###2023-12-09 13:39:42.012514$GLGSA,A,3,65,71,72,73,74,75,,,,,,,1.0,0.6,0.8*24
###2023-12-09 13:39:42.014404$GAGSA,A,3,04,19,21,27,,,,,,,,,1.0,0.6,0.8*26
###2023-12-09 13:39:42.016479$GBGSA,A,3,12,14,24,25,33,35,,,,,,,1.0,0.6,0.8*2E
###2023-12-09 13:39:42.019337$GPGSV,2,1,08,03,25,244,39,04,48,306,44,16,69,225,46,26,81,040,48*79
###2023-12-09 13:39:42.022148$GPGSV,2,2,08,27,19,172,38,28,36,087,44,29,19,045,41,31,58,070,46*7E
###2023-12-09 13:39:42.024982$GLGSV,2,1,06,65,40,316,43,71,20,176,41,72,60,217,45,73,20,054,44*64
###2023-12-09 13:39:42.027113$GLGSV,2,2,06,74,58,018,43,75,45,275,48,,,,,,,,*6C
###2023-12-09 13:39:42.029923$GAGSV,1,1,04,04,41,309,44,19,70,181,40,21,75,045,46,27,21,050,41*60
###2023-12-09 13:39:42.032743$GBGSV,2,1,06,12,17,125,43,14,27,189,41,24,61,048,49,25,52,278,48*6E
###2023-12-09 13:39:42.034870$GBGSV,2,2,06,33,44,215,45,35,16,055,45,,,,,,,,*6A
###2023-12-09 13:39:42.036471$GNVTG,176.29,T,,M,2.92,N,5.40,K,A*20
###2023-12-09 13:39:42.038413$GNGST,183941.10,5.600,,,,0.090,0.066,0.150*6E
###2023-12-09 13:39:42.039980$GNZDA,183941.10,09,12,2023,00,00*76
###2023-12-09 13:39:42.040757$GNEBP,,,,,,M*13
###2023-12-09 13:39:42.202104$GNGGA,183941.30,4138.0486884,N,07032.3857561,W,1,25,0.6,13.430,M,-29.745,M,0.0,*52
###2023-12-09 13:39:42.402477$GNGGA,183941.50,4138.0485127,N,07032.3858198,W,1,25,0.6,13.492,M,-29.745,M,0.0,*52
###2023-12-09 13:39:42.600303$GNGGA,183941.70,4138.0483381,N,07032.3858340,W,1,25,0.6,13.437,M,-29.745,M,0.0,*50
###2023-12-09 13:39:42.801519$GNGGA,183941.90,4138.0481973,N,07032.3857893,W,1,26,0.6,13.391,M,-29.745,M,0.0,*59
###2023-12-09 13:39:43.003768$GNRMC,183942.10,A,4138.0480261,N,07032.3858204,W,3.36,196.12,091223,,,A*57
###2023-12-09 13:39:43.007227$GNGGA,183942.10,4138.0480261,N,07032.3858204,W,1,26,0.6,13.456,M,-29.745,M,0.0,*5C
###2023-12-09 13:39:43.009463$GPGSA,A,3,03,04,16,26,27,28,29,31,,,,,1.0,0.6,0.8*3F
###2023-12-09 13:39:43.011614$GLGSA,A,3,65,71,72,73,74,75,83,,,,,,1.0,0.6,0.8*2F
###2023-12-09 13:39:43.013517$GAGSA,A,3,04,19,21,27,,,,,,,,,1.0,0.6,0.8*26
###2023-12-09 13:39:43.015577$GBGSA,A,3,12,14,24,25,33,35,,,,,,,1.0,0.6,0.8*2E
###2023-12-09 13:39:43.018370$GPGSV,2,1,08,03,25,244,39,04,48,306,45,16,69,225,46,26,81,040,48*78
###2023-12-09 13:39:43.021182$GPGSV,2,2,08,27,19,172,39,28,36,087,44,29,19,045,43,31,58,070,48*73
###2023-12-09 13:39:43.023993$GLGSV,2,1,07,65,40,316,44,71,20,176,39,72,60,217,45,73,20,054,43*6A
###2023-12-09 13:39:43.026461$GLGSV,2,2,07,74,58,018,43,75,45,275,48,83,16,045,36,,,,*55
###2023-12-09 13:39:43.029313$GAGSV,1,1,04,04,41,309,43,19,70,181,40,21,75,045,46,27,21,050,42*64
###2023-12-09 13:39:43.032125$GBGSV,2,1,06,12,17,125,42,14,27,189,39,24,61,048,49,25,52,278,47*6F
###2023-12-09 13:39:43.034226$GBGSV,2,2,06,33,44,215,44,35,16,055,44,,,,,,,,*6A
###2023-12-09 13:39:43.035832$GNVTG,196.12,T,,M,3.36,N,6.23,K,A*2F
###2023-12-09 13:39:43.037766$GNGST,183942.10,5.600,,,,0.091,0.066,0.150*6C
###2023-12-09 13:39:43.039331$GNZDA,183942.10,09,12,2023,00,00*75
###2023-12-09 13:39:43.040099$GNEBP,,,,,,M*13
###2023-12-09 13:39:43.201713$GNGGA,183942.30,4138.0478490,N,07032.3858657,W,1,25,0.6,13.443,M,-29.745,M,0.0,*54
###2023-12-09 13:39:43.400900$GNGGA,183942.50,4138.0476934,N,07032.3858459,W,1,25,0.6,13.430,M,-29.745,M,0.0,*57
###2023-12-09 13:39:43.600219$GNGGA,183942.70,4138.0475345,N,07032.3858031,W,1,26,0.6,13.447,M,-29.745,M,0.0,*53
###2023-12-09 13:39:43.800748$GNGGA,183942.90,4138.0473587,N,07032.3857895,W,1,26,0.6,13.431,M,-29.745,M,0.0,*5B
###2023-12-09 13:39:44.003612$GNRMC,183943.10,A,4138.0471789,N,07032.3857983,W,3.21,181.99,091223,,,A*53
###2023-12-09 13:39:44.007076$GNGGA,183943.10,4138.0471789,N,07032.3857983,W,1,25,0.6,13.427,M,-29.745,M,0.0,*5E
###2023-12-09 13:39:44.009327$GPGSA,A,3,03,04,16,26,27,28,29,31,,,,,1.0,0.6,0.8*3F
###2023-12-09 13:39:44.011417$GLGSA,A,3,65,71,72,73,74,75,,,,,,,1.0,0.6,0.8*24
###2023-12-09 13:39:44.013327$GAGSA,A,3,04,19,21,27,,,,,,,,,1.0,0.6,0.8*26
###2023-12-09 13:39:44.015409$GBGSA,A,3,12,14,24,25,33,35,,,,,,,1.0,0.6,0.8*2E
###2023-12-09 13:39:44.018242$GPGSV,2,1,08,03,25,244,41,04,48,306,44,16,69,225,44,26,81,040,47*7B
###2023-12-09 13:39:44.021361$GPGSV,2,2,08,27,19,172,39,28,36,087,44,29,19,045,41,31,58,070,45*7C
###2023-12-09 13:39:44.024206$GLGSV,2,1,06,65,40,316,43,71,20,176,42,72,60,217,45,73,20,054,43*60
###2023-12-09 13:39:44.026318$GLGSV,2,2,06,74,58,018,43,75,45,275,48,,,,,,,,*6C
###2023-12-09 13:39:44.029151$GAGSV,1,1,04,04,41,309,44,19,70,181,40,21,75,045,46,27,21,050,40*61
###2023-12-09 13:39:44.031964$GBGSV,2,1,06,12,17,125,42,14,27,189,42,24,61,048,49,25,52,278,50*65
###2023-12-09 13:39:44.034065$GBGSV,2,2,06,33,44,215,47,35,16,055,44,,,,,,,,*69
###2023-12-09 13:39:44.035670$GNVTG,181.99,T,,M,3.21,N,5.94,K,A*23
###2023-12-09 13:39:44.037616$GNGST,183943.10,5.300,,,,0.091,0.067,0.150*69
###2023-12-09 13:39:44.039182$GNZDA,183943.10,09,12,2023,00,00*74
###2023-12-09 13:39:44.039950$GNEBP,,,,,,M*13
