###2023-12-09 12:47:16.954883$GAGSA,A,3,04,19,21,27,,,,,,,,,1.1,0.6,0.9*26
###2023-12-09 12:47:16.956555$GBGSA,A,3,14,24,25,26,33,,,,,,,,1.1,0.6,0.9*2F
###2023-12-09 12:47:16.958901$GPGSV,2,1,08,03,37,270,44,04,26,311,42,16,42,209,45,26,72,208,48*79
###2023-12-09 12:47:16.961233$GPGSV,2,2,08,28,54,062,44,29,26,068,40,31,72,018,45,32,25,137,42*71
###2023-12-09 12:47:16.963578$GLGSV,2,1,06,65,17,329,41,71,49,171,48,72,70,294,47,73,42,037,46*62
###2023-12-09 12:47:16.965321$GLGSV,2,2,06,74,71,314,42,75,27,246,45,,,,,,,,*60
###2023-12-09 12:47:16.967651$GAGSV,1,1,04,04,24,312,42,19,84,276,41,21,82,165,47,27,38,049,43*66
###2023-12-09 12:47:16.969972$GBGSV,2,1,05,14,50,195,46,24,78,008,47,25,36,257,46,26,31,060,43*67
###2023-12-09 12:47:16.971436$GBGSV,2,2,05,33,61,243,47,,,,,,,,,,,,*5F
###2023-12-09 12:47:16.972690$GNVTG,7.86,T,,M,0.33,N,0.61,K,A*2D
###2023-12-09 12:47:16.974329$GNGST,174716.10,18.000,,,,0.078,0.070,0.160*52
###2023-12-09 12:47:16.975635$GNZDA,174716.10,09,12,2023,00,00*72
###2023-12-09 12:47:16.976286$GNEBP,,,,,,M*13
###2023-12-09 12:47:17.146257$GNGGA,174716.30,4138.0495477,N,07032.3996822,W,1,24,0.6,13.395,M,-29.745,M,0.0,*5B
###2023-12-09 12:47:17.346832$GNGGA,174716.50,4138.0495973,N,07032.3996691,W,1,24,0.6,13.390,M,-29.745,M,0.0,*57
###2023-12-09 12:47:17.546117$GNGGA,174716.70,4138.0496262,N,07032.3996476,W,1,24,0.6,13.378,M,-29.745,M,0.0,*50
###2023-12-09 12:47:17.746631$GNGGA,174716.90,4138.0496180,N,07032.3996151,W,1,24,0.6,13.387,M,-29.745,M,0.0,*51
###2023-12-09 12:47:17.951707$GNRMC,174717.10,A,4138.0496181,N,07032.3995900,W,0.47,7.86,091223,,,A*55
###2023-12-09 12:47:17.954596$GNGGA,174717.10,4138.0496181,N,07032.3995900,W,1,24,0.6,13.382,M,-29.745,M,0.0,*53
###2023-12-09 12:47:17.956459$GPGSA,A,3,03,04,16,26,28,29,31,32,,,,,1.1,0.6,0.9*3B
###2023-12-09 12:47:17.958186$GLGSA,A,3,65,71,72,73,74,75,,,,,,,1.1,0.6,0.9*24
###2023-12-09 12:47:17.959791$GAGSA,A,3,04,19,21,27,,,,,,,,,1.1,0.6,0.9*26
###2023-12-09 12:47:17.961442$GBGSA,A,3,14,24,25,26,33,,,,,,,,1.1,0.6,0.9*2F
###2023-12-09 12:47:17.963779$GPGSV,2,1,08,03,37,270,44,04,26,311,39,16,42,209,47,26,72,208,47*78
###2023-12-09 12:47:17.966113$GPGSV,2,2,08,28,54,062,44,29,26,068,40,31,72,018,46,32,25,137,42*72
###2023-12-09 12:47:17.968469$GLGSV,2,1,06,65,17,329,41,71,49,171,48,72,70,294,46,73,42,037,46*63
###2023-12-09 12:47:17.970220$GLGSV,2,2,06,74,71,314,42,75,27,246,45,,,,,,,,*60
###2023-12-09 12:47:17.972624$GAGSV,1,1,04,04,24,312,40,19,84,276,40,21,82,165,47,27,38,049,43*65
###2023-12-09 12:47:17.974978$GBGSV,2,1,05,14,50,195,47,24,78,008,48,25,36,257,46,26,31,060,43*69
###2023-12-09 12:47:17.976444$GBGSV,2,2,05,33,61,243,48,,,,,,,,,,,,*50
###2023-12-09 12:47:17.977706$GNVTG,7.86,T,,M,0.47,N,0.86,K,A*27
###2023-12-09 12:47:17.979374$GNGST,174717.10,18.000,,,,0.078,0.070,0.160*53
###2023-12-09 12:47:17.980676$GNZDA,174717.10,09,12,2023,00,00*73
###2023-12-09 12:47:17.981327$GNEBP,,,,,,M*13
###2023-12-09 12:47:18.145835$GNGGA,174717.30,4138.0496563,N,07032.3995748,W,1,24,0.6,13.380,M,-29.745,M,0.0,*59
###2023-12-09 12:47:18.345734$GNGGA,174717.50,4138.0496997,N,07032.3995610,W,1,24,0.6,13.373,M,-29.745,M,0.0,*58
###2023-12-09 12:47:18.547126$GNGGA,174717.70,4138.0497102,N,07032.3995373,W,1,24,0.6,13.366,M,-29.745,M,0.0,*5B
###2023-12-09 12:47:18.747650$GNGGA,174717.90,4138.0496995,N,07032.3995129,W,1,24,0.6,13.365,M,-29.745,M,0.0,*5C
###2023-12-09 12:47:18.946423$GNRMC,174718.10,A,4138.0497154,N,07032.3994938,W,0.62,7.86,091223,,,A*5E
###2023-12-09 12:47:18.949332$GNGGA,174718.10,4138.0497154,N,07032.3994938,W,1,24,0.6,13.368,M,-29.745,M,0.0,*5B
###2023-12-09 12:47:18.951209$GPGSA,A,3,03,04,16,26,28,29,31,32,,,,,1.1,0.6,0.9*3B
###2023-12-09 12:47:18.952927$GLGSA,A,3,65,71,72,73,74,75,,,,,,,1.1,0.6,0.9*24
###2023-12-09 12:47:18.954508$GAGSA,A,3,04,19,21,27,,,,,,,,,1.1,0.6,0.9*26
###2023-12-09 12:47:18.956169$GBGSA,A,3,14,24,25,26,33,,,,,,,,1.1,0.6,0.9*2F
###2023-12-09 12:47:18.958502$GPGSV,2,1,08,03,37,270,45,04,26,311,39,16,42,209,47,26,72,208,47*79
###2023-12-09 12:47:18.960834$GPGSV,2,2,08,28,54,062,43,29,26,068,40,31,72,018,45,32,25,137,43*77
###2023-12-09 12:47:18.963179$GLGSV,2,1,06,65,17,329,40,71,49,171,49,72,70,294,46,73,42,037,46*63
###2023-12-09 12:47:18.964927$GLGSV,2,2,06,74,71,314,42,75,27,246,45,,,,,,,,*60
###2023-12-09 12:47:18.967265$GAGSV,1,1,04,04,24,312,40,19,84,276,41,21,82,165,47,27,38,049,43*64
###2023-12-09 12:47:18.969602$GBGSV,2,1,05,14,50,195,46,24,78,008,48,25,36,257,46,26,31,060,43*68
###2023-12-09 12:47:18.971107$GBGSV,2,2,05,33,61,243,48,,,,,,,,,,,,*50
###2023-12-09 12:47:18.972369$GNVTG,7.86,T,,M,0.62,N,1.15,K,A*2B
###2023-12-09 12:47:18.974018$GNGST,174718.10,18.000,,,,0.078,0.069,0.160*54
###2023-12-09 12:47:18.975321$GNZDA,174718.10,09,12,2023,00,00*7C
###2023-12-09 12:47:18.975998$GNEBP,,,,,,M*13
###2023-12-09 12:47:19.145039$GNGGA,174718.30,4138.0497558,N,07032.3994791,W,1,24,0.6,13.368,M,-29.745,M,0.0,*5C
###2023-12-09 12:47:19.347051$GNGGA,174718.50,4138.0497849,N,07032.3994647,W,1,24,0.6,13.357,M,-29.745,M,0.0,*51
###2023-12-09 12:47:19.546711$GNGGA,174718.70,4138.0497822,N,07032.3994447,W,1,24,0.6,13.360,M,-29.745,M,0.0,*58
###2023-12-09 12:47:19.745470$GNGGA,174718.90,4138.0497822,N,07032.3994235,W,1,24,0.6,13.354,M,-29.745,M,0.0,*52
###2023-12-09 12:47:19.949076$GNRMC,174719.10,A,4138.0498096,N,07032.3994065,W,0.70,7.86,091223,,,A*5D
###2023-12-09 12:47:19.951971$GNGGA,174719.10,4138.0498096,N,07032.3994065,W,1,24,0.6,13.352,M,-29.745,M,0.0,*52
###2023-12-09 12:47:19.953832$GPGSA,A,3,03,04,16,26,28,29,31,32,,,,,1.1,0.6,0.9*3B
###2023-12-09 12:47:19.955561$GLGSA,A,3,65,71,72,73,74,75,,,,,,,1.1,0.6,0.9*24
###2023-12-09 12:47:19.957144$GAGSA,A,3,04,19,21,27,,,,,,,,,1.1,0.6,0.9*26
###2023-12-09 12:47:19.958808$GBGSA,A,3,14,24,25,26,33,,,,,,,,1.1,0.6,0.9*2F
###2023-12-09 12:47:19.961139$GPGSV,2,1,08,03,37,269,46,04,26,311,39,16,42,209,47,26,72,208,48*7D
###2023-12-09 12:47:19.963502$GPGSV,2,2,08,28,54,062,44,29,26,068,41,31,72,018,47,32,25,137,43*73
###2023-12-09 12:47:19.965838$GLGSV,2,1,06,65,17,329,42,71,49,171,48,72,70,294,47,73,42,037,46*61
###2023-12-09 12:47:19.967598$GLGSV,2,2,06,74,71,314,42,75,27,246,44,,,,,,,,*61
###2023-12-09 12:47:19.969934$GAGSV,1,1,04,04,24,312,40,19,84,276,41,21,82,165,47,27,38,049,44*63
###2023-12-09 12:47:19.972286$GBGSV,2,1,05,14,50,195,47,24,78,008,49,25,36,257,47,26,31,060,43*69
###2023-12-09 12:47:19.973747$GBGSV,2,2,05,33,61,243,48,,,,,,,,,,,,*50
###2023-12-09 12:47:19.975019$GNVTG,7.86,T,,M,0.70,N,1.30,K,A*2F
###2023-12-09 12:47:19.976668$GNGST,174719.10,18.000,,,,0.078,0.070,0.160*5D
###2023-12-09 12:47:19.977959$GNZDA,174719.10,09,12,2023,00,00*7D
###2023-12-09 12:47:19.978611$GNEBP,,,,,,M*13
###2023-12-09 12:47:20.144981$GNGGA,174719.30,4138.0498453,N,07032.3993939,W,1,24,0.6,13.338,M,-29.745,M,0.0,*56
###2023-12-09 12:47:20.346873$GNGGA,174719.50,4138.0498590,N,07032.3993771,W,1,24,0.6,13.341,M,-29.745,M,0.0,*52
###2023-12-09 12:47:20.546659$GNGGA,174719.70,4138.0498527,N,07032.3993543,W,1,24,0.6,13.343,M,-29.745,M,0.0,*5D
###2023-12-09 12:47:20.745470$GNGGA,174719.90,4138.0498617,N,07032.3993349,W,1,24,0.6,13.338,M,-29.745,M,0.0,*53
###2023-12-09 12:47:20.953233$GNRMC,174720.10,A,4138.0498924,N,07032.3993203,W,0.66,7.86,091223,,,A*55
###2023-12-09 12:47:20.956111$GNGGA,174720.10,4138.0498924,N,07032.3993203,W,1,24,0.6,13.326,M,-29.745,M,0.0,*5E
###2023-12-09 12:47:20.957963$GPGSA,A,3,03,04,16,26,28,29,31,32,,,,,1.1,0.6,0.9*3B
###2023-12-09 12:47:20.959699$GLGSA,A,3,65,71,72,73,74,75,,,,,,,1.1,0.6,0.9*24
###2023-12-09 12:47:20.961281$GAGSA,A,3,04,19,21,27,,,,,,,,,1.1,0.6,0.9*26
###2023-12-09 12:47:20.962938$GBGSA,A,3,14,24,25,26,33,,,,,,,,1.1,0.6,0.9*2F
###2023-12-09 12:47:20.965257$GPGSV,2,1,08,03,37,269,46,04,27,311,37,16,42,209,46,26,72,208,48*73
###2023-12-09 12:47:20.967589$GPGSV,2,2,08,28,54,062,45,29,26,068,42,31,72,018,47,32,25,137,42*70
###2023-12-09 12:47:20.969914$GLGSV,2,1,06,65,17,329,40,71,49,171,47,72,70,294,47,73,42,037,46*6C
###2023-12-09 12:47:20.971671$GLGSV,2,2,06,74,71,314,42,75,27,246,44,,,,,,,,*61
###2023-12-09 12:47:20.973990$GAGSV,1,1,04,04,24,312,40,19,84,276,41,21,82,165,46,27,38,049,44*62
###2023-12-09 12:47:20.976583$GBGSV,2,1,05,14,50,195,47,24,78,008,49,25,36,257,46,26,31,060,42*69
###2023-12-09 12:47:20.978061$GBGSV,2,2,05,33,61,243,48,,,,,,,,,,,,*50
###2023-12-09 12:47:20.979338$GNVTG,7.86,T,,M,0.66,N,1.22,K,A*2B
###2023-12-09 12:47:20.980987$GNGST,174720.10,18.000,,,,0.079,0.070,0.160*56
###2023-12-09 12:47:20.982276$GNZDA,174720.10,09,12,2023,00,00*77
###2023-12-09 12:47:20.982927$GNEBP,,,,,,M*13
###2023-12-09 12:47:21.145861$GNGGA,174720.30,4138.0499184,N,07032.3993070,W,1,24,0.6,13.316,M,-29.745,M,0.0,*5A
###2023-12-09 12:47:21.346551$GNGGA,174720.50,4138.0499240,N,07032.3992909,W,1,24,0.6,13.325,M,-29.745,M,0.0,*51
###2023-12-09 12:47:21.545705$GNGGA,174720.70,4138.0499230,N,07032.3992726,W,1,24,0.6,13.333,M,-29.745,M,0.0,*50
