###2023-12-09 13:43:55.004876$GNRMC,184354.10,A,4138.0390756,N,07032.4386654,W,0.02,243.17,091223,,,A*5E
###2023-12-09 13:43:55.007774$GNGGA,184354.10,4138.0390756,N,07032.4386654,W,1,18,0.8,14.630,M,-29.746,M,0.0,*5A
###2023-12-09 13:43:55.009513$GPGSA,A,3,04,16,26,28,29,31,,,,,,,1.3,0.8,1.1*3C
###2023-12-09 13:43:55.011217$GLGSA,A,3,65,73,74,75,83,,,,,,,,1.3,0.8,1.1*29
###2023-12-09 13:43:55.012743$GAGSA,A,3,04,21,27,,,,,,,,,,1.3,0.8,1.1*2B
###2023-12-09 13:43:55.014324$GBGSA,A,3,12,24,25,35,,,,,,,,,1.3,0.8,1.1*2E
###2023-12-09 13:43:55.016664$GPGSV,2,1,06,04,50,305,44,16,71,227,38,26,79,041,41,28,35,088,43*77
###2023-12-09 13:43:55.018405$GPGSV,2,2,06,29,18,043,41,31,56,072,49,,,,,,,,*76
###2023-12-09 13:43:55.020740$GLGSV,2,1,05,65,42,314,43,73,19,055,43,74,56,021,35,75,46,277,42*6D
###2023-12-09 13:43:55.022193$GLGSV,2,2,05,83,16,043,35,,,,,,,,,,,,*5D
###2023-12-09 13:43:55.024239$GAGSV,1,1,03,04,43,308,43,21,74,044,38,27,20,051,40,,,,*58
###2023-12-09 13:43:55.026589$GBGSV,1,1,04,12,18,124,40,24,60,050,44,25,53,280,45,35,16,053,35*68
###2023-12-09 13:43:55.028008$GNVTG,243.17,T,,M,0.02,N,0.04,K,A*26
###2023-12-09 13:43:55.029644$GNGST,184354.10,7.400,,,,0.220,0.120,0.310*6B
###2023-12-09 13:43:55.030956$GNZDA,184354.10,09,12,2023,00,00*7F
###2023-12-09 13:43:55.031599$GNEBP,,,,,,M*13
###2023-12-09 13:43:55.201393$GNGGA,184354.30,4138.0390757,N,07032.4386678,W,1,18,0.8,14.620,M,-29.746,M,0.0,*56
###2023-12-09 13:43:55.402950$GNGGA,184354.50,4138.0390755,N,07032.4386701,W,1,18,0.8,14.613,M,-29.746,M,0.0,*5D
###2023-12-09 13:43:55.601090$GNGGA,184354.70,4138.0390758,N,07032.4386722,W,1,18,0.8,14.607,M,-29.746,M,0.0,*56
###2023-12-09 13:43:55.799754$GNGGA,184354.90,4138.0390768,N,07032.4386742,W,1,18,0.8,14.603,M,-29.746,M,0.0,*59
###2023-12-09 13:43:56.006001$GNRMC,184355.10,A,4138.0390764,N,07032.4386769,W,0.00,243.17,091223,,,A*53
###2023-12-09 13:43:56.008912$GNGGA,184355.10,4138.0390764,N,07032.4386769,W,1,18,0.8,14.594,M,-29.746,M,0.0,*58
###2023-12-09 13:43:56.010666$GPGSA,A,3,04,16,26,28,29,31,,,,,,,1.3,0.8,1.1*3C
###2023-12-09 13:43:56.012325$GLGSA,A,3,65,73,74,75,83,,,,,,,,1.3,0.8,1.1*29
###2023-12-09 13:43:56.013847$GAGSA,A,3,04,21,27,,,,,,,,,,1.3,0.8,1.1*2B
###2023-12-09 13:43:56.015450$GBGSA,A,3,12,24,25,35,,,,,,,,,1.3,0.8,1.1*2E
###2023-12-09 13:43:56.017793$GPGSV,2,1,06,04,50,305,44,16,71,227,39,26,79,041,41,28,35,088,43*76
###2023-12-09 13:43:56.019561$GPGSV,2,2,06,29,18,043,42,31,56,072,50,,,,,,,,*7D
###2023-12-09 13:43:56.021913$GLGSV,2,1,05,65,42,314,43,73,19,055,44,74,56,021,35,75,46,277,43*6B
###2023-12-09 13:43:56.023385$GLGSV,2,2,05,83,16,043,35,,,,,,,,,,,,*5D
###2023-12-09 13:43:56.025428$GAGSV,1,1,03,04,43,308,43,21,74,044,39,27,20,051,40,,,,*59
###2023-12-09 13:43:56.027777$GBGSV,1,1,04,12,18,124,41,24,60,050,44,25,53,280,46,35,16,053,37*68
###2023-12-09 13:43:56.029107$GNVTG,243.17,T,,M,0.00,N,0.00,K,A*20
###2023-12-09 13:43:56.030743$GNGST,184355.10,7.400,,,,0.220,0.120,0.310*6A
###2023-12-09 13:43:56.032046$GNZDA,184355.10,09,12,2023,00,00*7E
###2023-12-09 13:43:56.032686$GNEBP,,,,,,M*13
###2023-12-09 13:43:56.205263$GNGGA,184355.30,4138.0390762,N,07032.4386786,W,1,18,0.8,14.588,M,-29.746,M,0.0,*50
###2023-12-09 13:43:56.402546$GNGGA,184355.50,4138.0390750,N,07032.4386818,W,1,18,0.8,14.580,M,-29.746,M,0.0,*57
###2023-12-09 13:43:56.600000$GNGGA,184355.70,4138.0390746,N,07032.4386839,W,1,18,0.8,14.574,M,-29.746,M,0.0,*5A
###2023-12-09 13:43:56.799236$GNGGA,184355.90,4138.0390740,N,07032.4386845,W,1,18,0.8,14.569,M,-29.746,M,0.0,*55
###2023-12-09 13:43:57.007836$GNRMC,184356.10,A,4138.0390742,N,07032.4386870,W,0.04,243.17,091223,,,A*57
###2023-12-09 13:43:57.011340$GNGGA,184356.10,4138.0390742,N,07032.4386870,W,1,18,0.8,14.563,M,-29.746,M,0.0,*50
###2023-12-09 13:43:57.013433$GPGSA,A,3,04,16,26,28,29,31,,,,,,,1.3,0.8,1.1*3C
###2023-12-09 13:43:57.015432$GLGSA,A,3,65,73,74,75,83,,,,,,,,1.3,0.8,1.1*29
###2023-12-09 13:43:57.017267$GAGSA,A,3,04,21,27,,,,,,,,,,1.3,0.8,1.1*2B
###2023-12-09 13:43:57.019176$GBGSA,A,3,12,24,25,35,,,,,,,,,1.3,0.8,1.1*2E
###2023-12-09 13:43:57.021973$GPGSV,2,1,06,04,50,305,44,16,71,227,39,26,79,041,41,28,35,088,43*76
###2023-12-09 13:43:57.024079$GPGSV,2,2,06,29,18,043,42,31,56,072,50,,,,,,,,*7D
###2023-12-09 13:43:57.026904$GLGSV,2,1,05,65,42,314,43,73,19,055,44,74,56,021,35,75,46,277,43*6B
###2023-12-09 13:43:57.028642$GLGSV,2,2,05,83,16,043,36,,,,,,,,,,,,*5E
###2023-12-09 13:43:57.031093$GAGSV,1,1,03,04,43,308,44,21,74,044,39,27,20,051,40,,,,*5E
###2023-12-09 13:43:57.033885$GBGSV,1,1,04,12,18,124,40,24,60,050,44,25,53,280,45,35,16,053,36*6B
###2023-12-09 13:43:57.035518$GNVTG,243.17,T,,M,0.04,N,0.07,K,A*23
###2023-12-09 13:43:57.037473$GNGST,184356.10,7.200,,,,0.220,0.120,0.310*6F
###2023-12-09 13:43:57.039046$GNZDA,184356.10,09,12,2023,00,00*7D
###2023-12-09 13:43:57.039816$GNEBP,,,,,,M*13
###2023-12-09 13:43:57.207296$GNGGA,184356.30,4138.0390746,N,07032.4386896,W,1,18,0.8,14.557,M,-29.746,M,0.0,*59
###2023-12-09 13:43:57.400422$GNGGA,184356.50,4138.0390741,N,07032.4386913,W,1,18,0.8,14.549,M,-29.746,M,0.0,*5B
###2023-12-09 13:43:57.598971$GNGGA,184356.70,4138.0390744,N,07032.4386938,W,1,18,0.8,14.539,M,-29.746,M,0.0,*52
###2023-12-09 13:43:57.801712$GNGGA,184356.90,4138.0390738,N,07032.4386954,W,1,18,0.8,14.536,M,-29.746,M,0.0,*52
###2023-12-09 13:43:58.003804$GNRMC,184357.10,A,4138.0390722,N,07032.4386969,W,0.02,243.17,091223,,,A*5F
###2023-12-09 13:43:58.007256$GNGGA,184357.10,4138.0390722,N,07032.4386969,W,1,17,0.8,14.535,M,-29.746,M,0.0,*52
###2023-12-09 13:43:58.009338$GPGSA,A,3,04,16,26,28,29,31,,,,,,,1.4,0.8,1.1*3B
###2023-12-09 13:43:58.011262$GLGSA,A,3,65,73,75,83,,,,,,,,,1.4,0.8,1.1*2D
###2023-12-09 13:43:58.013085$GAGSA,A,3,04,21,27,,,,,,,,,,1.4,0.8,1.1*2C
###2023-12-09 13:43:58.015002$GBGSA,A,3,12,24,25,35,,,,,,,,,1.4,0.8,1.1*29
###2023-12-09 13:43:58.017796$GPGSV,2,1,06,04,50,305,46,16,71,227,41,26,79,041,43,28,35,088,44*7E
###2023-12-09 13:43:58.019922$GPGSV,2,2,06,29,18,043,44,31,56,072,51,,,,,,,,*7A
###2023-12-09 13:43:58.022776$GLGSV,1,1,04,65,42,314,43,73,19,055,43,75,46,277,43,83,16,043,36*65
###2023-12-09 13:43:58.025241$GAGSV,1,1,03,04,43,308,44,21,74,044,38,27,20,051,40,,,,*5F
###2023-12-09 13:43:58.028062$GBGSV,1,1,04,12,18,124,41,24,60,050,44,25,53,280,46,35,16,053,36*69
###2023-12-09 13:43:58.029666$GNVTG,243.17,T,,M,0.02,N,0.04,K,A*26
###2023-12-09 13:43:58.031623$GNGST,184357.10,7.400,,,,0.210,0.120,0.310*6B
###2023-12-09 13:43:58.033178$GNZDA,184357.10,09,12,2023,00,00*7C
###2023-12-09 13:43:58.033955$GNEBP,,,,,,M*13
###2023-12-09 13:43:58.199915$GNGGA,184357.30,4138.0390714,N,07032.4386998,W,1,18,0.8,14.528,M,-29.746,M,0.0,*58
###2023-12-09 13:43:58.400700$GNGGA,184357.50,4138.0390715,N,07032.4386998,W,1,18,0.8,14.526,M,-29.746,M,0.0,*51
###2023-12-09 13:43:58.598121$GNGGA,184357.70,4138.0390727,N,07032.4387027,W,1,17,0.8,14.515,M,-29.746,M,0.0,*51
###2023-12-09 13:43:58.798902$GNGGA,184357.90,4138.0390726,N,07032.4387036,W,1,18,0.8,14.510,M,-29.746,M,0.0,*54
###2023-12-09 13:43:59.005679$GNRMC,184358.10,A,4138.0390716,N,07032.4387050,W,0.02,243.17,091223,,,A*55
###2023-12-09 13:43:59.008567$GNGGA,184358.10,4138.0390716,N,07032.4387050,W,1,17,0.8,14.504,M,-29.746,M,0.0,*5A
###2023-12-09 13:43:59.010291$GPGSA,A,3,04,16,26,28,29,31,,,,,,,1.4,0.8,1.1*3B
###2023-12-09 13:43:59.011889$GLGSA,A,3,65,73,75,83,,,,,,,,,1.4,0.8,1.1*2D
###2023-12-09 13:43:59.013409$GAGSA,A,3,04,21,27,,,,,,,,,,1.4,0.8,1.1*2C
###2023-12-09 13:43:59.014999$GBGSA,A,3,12,24,25,35,,,,,,,,,1.4,0.8,1.1*29
###2023-12-09 13:43:59.017330$GPGSV,2,1,06,04,50,305,45,16,71,227,40,26,79,041,41,28,35,088,43*79
###2023-12-09 13:43:59.019090$GPGSV,2,2,06,29,18,043,42,31,56,072,51,,,,,,,,*7C
###2023-12-09 13:43:59.021415$GLGSV,1,1,04,65,42,314,43,73,19,055,44,75,46,277,43,83,16,043,35*61
###2023-12-09 13:43:59.023461$GAGSV,1,1,03,04,43,308,44,21,74,044,38,27,20,051,41,,,,*5E
###2023-12-09 13:43:59.025789$GBGSV,1,1,04,12,18,124,41,24,60,050,44,25,53,280,45,35,16,053,37*6B
###2023-12-09 13:43:59.027127$GNVTG,243.17,T,,M,0.02,N,0.04,K,A*26
###2023-12-09 13:43:59.028742$GNGST,184358.10,7.300,,,,0.210,0.120,0.310*63
###2023-12-09 13:43:59.030298$GNZDA,184358.10,09,12,2023,00,00*73
###2023-12-09 13:43:59.030964$GNEBP,,,,,,M*13
###2023-12-09 13:43:59.200332$GNGGA,184358.30,4138.0390706,N,07032.4387088,W,1,17,0.8,14.496,M,-29.746,M,0.0,*56
###2023-12-09 13:43:59.399883$GNGGA,184358.50,4138.0390716,N,07032.4387113,W,1,17,0.8,14.495,M,-29.746,M,0.0,*51
###2023-12-09 13:43:59.599501$GNGGA,184358.70,4138.0390711,N,07032.4387134,W,1,17,0.8,14.486,M,-29.746,M,0.0,*53
###2023-12-09 13:43:59.799651$GNGGA,184358.90,4138.0390699,N,07032.4387165,W,1,17,0.8,14.479,M,-29.746,M,0.0,*58
###2023-12-09 13:44:00.003525$GNRMC,184359.10,A,4138.0390690,N,07032.4387190,W,0.04,243.17,091223,,,A*50
###2023-12-09 13:44:00.006382$GNGGA,184359.10,4138.0390690,N,07032.4387190,W,1,17,0.8,14.470,M,-29.746,M,0.0,*5B
