###2023-12-09 12:49:20.954994$GNRMC,174920.10,A,4138.0625628,N,07032.3903324,W,0.35,345.45,091223,,,A*5D
###2023-12-09 12:49:20.957876$GNGGA,174920.10,4138.0625628,N,07032.3903324,W,1,24,0.6,13.478,M,-29.744,M,0.0,*57
###2023-12-09 12:49:20.959770$GPGSA,A,3,03,04,16,26,28,29,31,32,,,,,1.1,0.6,0.9*3B
###2023-12-09 12:49:20.961490$GLGSA,A,3,65,71,72,73,74,75,,,,,,,1.1,0.6,0.9*24
###2023-12-09 12:49:20.963093$GAGSA,A,3,04,19,21,27,,,,,,,,,1.1,0.6,0.9*26
###2023-12-09 12:49:20.964745$GBGSA,A,3,14,24,25,26,33,,,,,,,,1.1,0.6,0.9*2F
###2023-12-09 12:49:20.967085$GPGSV,2,1,08,03,37,268,45,04,28,311,43,16,43,209,47,26,73,208,49*7D
###2023-12-09 12:49:20.969416$GPGSV,2,2,08,28,53,064,45,29,26,067,41,31,71,021,47,32,24,137,41*76
###2023-12-09 12:49:20.971760$GLGSV,2,1,06,65,18,329,43,71,48,171,47,72,71,291,47,73,41,038,46*69
###2023-12-09 12:49:20.973512$GLGSV,2,2,06,74,71,317,43,75,28,247,44,,,,,,,,*6D
###2023-12-09 12:49:20.975857$GAGSV,1,1,04,04,25,312,42,19,85,269,41,21,83,162,46,27,37,048,43*61
###2023-12-09 12:49:20.978191$GBGSV,2,1,05,14,49,195,46,24,77,011,49,25,37,257,48,26,30,060,43*68
###2023-12-09 12:49:20.979658$GBGSV,2,2,05,33,61,241,48,,,,,,,,,,,,*52
###2023-12-09 12:49:20.980983$GNVTG,345.45,T,,M,0.35,N,0.65,K,A*25
###2023-12-09 12:49:20.982643$GNGST,174920.10,18.000,,,,0.075,0.066,0.160*53
###2023-12-09 12:49:20.983938$GNZDA,174920.10,09,12,2023,00,00*79
###2023-12-09 12:49:20.984579$GNEBP,,,,,,M*13
###2023-12-09 12:49:21.148371$GNGGA,174920.30,4138.0625796,N,07032.3903344,W,1,24,0.6,13.482,M,-29.744,M,0.0,*52
###2023-12-09 12:49:21.348094$GNGGA,174920.50,4138.0625994,N,07032.3903386,W,1,24,0.6,13.484,M,-29.744,M,0.0,*50
###2023-12-09 12:49:21.547211$GNGGA,174920.70,4138.0626264,N,07032.3903456,W,1,24,0.6,13.488,M,-29.744,M,0.0,*53
###2023-12-09 12:49:21.746993$GNGGA,174920.90,4138.0626545,N,07032.3903539,W,1,24,0.6,13.488,M,-29.744,M,0.0,*51
###2023-12-09 12:49:21.948040$GNRMC,174921.10,A,4138.0626723,N,07032.3903542,W,0.27,345.45,091223,,,A*50
###2023-12-09 12:49:21.950923$GNGGA,174921.10,4138.0626723,N,07032.3903542,W,1,24,0.6,13.488,M,-29.744,M,0.0,*56
###2023-12-09 12:49:21.952786$GPGSA,A,3,03,04,16,26,28,29,31,32,,,,,1.1,0.6,0.9*3B
###2023-12-09 12:49:21.954505$GLGSA,A,3,65,71,72,73,74,75,,,,,,,1.1,0.6,0.9*24
###2023-12-09 12:49:21.956112$GAGSA,A,3,04,19,21,27,,,,,,,,,1.1,0.6,0.9*26
###2023-12-09 12:49:21.957764$GBGSA,A,3,14,24,25,26,33,,,,,,,,1.1,0.6,0.9*2F
###2023-12-09 12:49:21.960107$GPGSV,2,1,08,03,37,268,45,04,28,311,41,16,43,209,45,26,73,208,47*73
###2023-12-09 12:49:21.962450$GPGSV,2,2,08,28,53,064,44,29,26,067,42,31,71,021,47,32,24,137,42*77
###2023-12-09 12:49:21.964814$GLGSV,2,1,06,65,18,329,43,71,48,171,47,72,71,291,46,73,41,038,46*68
###2023-12-09 12:49:21.966580$GLGSV,2,2,06,74,71,317,43,75,28,247,43,,,,,,,,*6A
###2023-12-09 12:49:21.968920$GAGSV,1,1,04,04,25,312,41,19,85,269,40,21,83,162,46,27,37,048,42*62
###2023-12-09 12:49:21.971269$GBGSV,2,1,05,14,49,195,46,24,77,011,49,25,37,257,47,26,30,060,43*67
###2023-12-09 12:49:21.972732$GBGSV,2,2,05,33,61,241,48,,,,,,,,,,,,*52
###2023-12-09 12:49:21.974058$GNVTG,345.45,T,,M,0.27,N,0.50,K,A*20
###2023-12-09 12:49:21.975730$GNGST,174921.10,18.000,,,,0.075,0.066,0.160*52
###2023-12-09 12:49:21.977025$GNZDA,174921.10,09,12,2023,00,00*78
###2023-12-09 12:49:21.977669$GNEBP,,,,,,M*13
###2023-12-09 12:49:22.147742$GNGGA,174921.30,4138.0626828,N,07032.3903525,W,1,24,0.6,13.487,M,-29.744,M,0.0,*5E
###2023-12-09 12:49:22.348395$GNGGA,174921.50,4138.0627018,N,07032.3903593,W,1,24,0.6,13.486,M,-29.744,M,0.0,*5E
###2023-12-09 12:49:22.548304$GNGGA,174921.70,4138.0627343,N,07032.3903731,W,1,24,0.6,13.497,M,-29.744,M,0.0,*5B
###2023-12-09 12:49:22.748212$GNGGA,174921.90,4138.0627629,N,07032.3903824,W,1,24,0.6,13.501,M,-29.744,M,0.0,*59
###2023-12-09 12:49:22.947982$GNRMC,174922.10,A,4138.0627687,N,07032.3903811,W,0.10,345.45,091223,,,A*52
###2023-12-09 12:49:22.950846$GNGGA,174922.10,4138.0627687,N,07032.3903811,W,1,24,0.6,13.500,M,-29.744,M,0.0,*51
###2023-12-09 12:49:22.952704$GPGSA,A,3,03,04,16,26,28,29,31,32,,,,,1.1,0.6,0.9*3B
###2023-12-09 12:49:22.954419$GLGSA,A,3,65,71,72,73,74,75,,,,,,,1.1,0.6,0.9*24
###2023-12-09 12:49:22.956024$GAGSA,A,3,04,19,21,27,,,,,,,,,1.1,0.6,0.9*26
###2023-12-09 12:49:22.957675$GBGSA,A,3,14,24,25,26,33,,,,,,,,1.1,0.6,0.9*2F
###2023-12-09 12:49:22.960019$GPGSV,2,1,08,03,37,268,45,04,28,311,40,16,43,209,45,26,73,208,47*72
###2023-12-09 12:49:22.962365$GPGSV,2,2,08,28,53,064,44,29,26,067,41,31,71,021,46,32,24,137,42*75
###2023-12-09 12:49:22.964826$GLGSV,2,1,06,65,18,329,42,71,48,171,47,72,71,291,47,73,41,038,45*6B
###2023-12-09 12:49:22.966600$GLGSV,2,2,06,74,71,317,43,75,28,247,43,,,,,,,,*6A
###2023-12-09 12:49:22.968940$GAGSV,1,1,04,04,25,312,40,19,85,269,40,21,83,162,45,27,37,048,42*60
###2023-12-09 12:49:22.971286$GBGSV,2,1,05,14,49,195,46,24,77,011,49,25,37,257,47,26,30,060,44*60
###2023-12-09 12:49:22.972744$GBGSV,2,2,05,33,61,241,47,,,,,,,,,,,,*5D
###2023-12-09 12:49:22.974075$GNVTG,345.45,T,,M,0.10,N,0.18,K,A*28
###2023-12-09 12:49:22.975756$GNGST,174922.10,18.000,,,,0.075,0.066,0.160*51
###2023-12-09 12:49:22.977053$GNZDA,174922.10,09,12,2023,00,00*7B
###2023-12-09 12:49:22.977694$GNEBP,,,,,,M*13
###2023-12-09 12:49:23.147701$GNGGA,174922.30,4138.0627699,N,07032.3903788,W,1,24,0.6,13.488,M,-29.744,M,0.0,*52
###2023-12-09 12:49:23.348219$GNGGA,174922.50,4138.0627975,N,07032.3903897,W,1,24,0.6,13.493,M,-29.744,M,0.0,*52
###2023-12-09 12:49:23.549136$GNGGA,174922.70,4138.0628464,N,07032.3904097,W,1,24,0.6,13.502,M,-29.744,M,0.0,*54
###2023-12-09 12:49:23.748152$GNGGA,174922.90,4138.0628637,N,07032.3904146,W,1,24,0.6,13.503,M,-29.744,M,0.0,*52
###2023-12-09 12:49:23.948301$GNRMC,174923.10,A,4138.0628538,N,07032.3904056,W,0.19,342.33,091223,,,A*58
###2023-12-09 12:49:23.951176$GNGGA,174923.10,4138.0628538,N,07032.3904056,W,1,24,0.6,13.504,M,-29.744,M,0.0,*50
###2023-12-09 12:49:23.953032$GPGSA,A,3,03,04,16,26,28,29,31,32,,,,,1.1,0.6,0.9*3B
###2023-12-09 12:49:23.954756$GLGSA,A,3,65,71,72,73,74,75,,,,,,,1.1,0.6,0.9*24
###2023-12-09 12:49:23.956337$GAGSA,A,3,04,19,21,27,,,,,,,,,1.1,0.6,0.9*26
###2023-12-09 12:49:23.957973$GBGSA,A,3,14,24,25,26,33,,,,,,,,1.1,0.6,0.9*2F
###2023-12-09 12:49:23.960306$GPGSV,2,1,08,03,37,268,44,04,28,311,40,16,43,209,45,26,73,208,48*7C
###2023-12-09 12:49:23.962702$GPGSV,2,2,08,28,53,064,44,29,26,067,41,31,71,021,46,32,24,137,42*75
###2023-12-09 12:49:23.965035$GLGSV,2,1,06,65,18,329,41,71,48,171,47,72,71,291,47,73,41,038,44*69
###2023-12-09 12:49:23.966791$GLGSV,2,2,06,74,71,317,43,75,28,247,45,,,,,,,,*6C
###2023-12-09 12:49:23.969116$GAGSV,1,1,04,04,25,312,39,19,85,269,40,21,83,162,46,27,37,048,41*6E
###2023-12-09 12:49:23.971454$GBGSV,2,1,05,14,49,195,46,24,77,011,48,25,37,257,47,26,30,060,45*60
###2023-12-09 12:49:23.972905$GBGSV,2,2,05,33,61,241,47,,,,,,,,,,,,*5D
###2023-12-09 12:49:23.974229$GNVTG,342.33,T,,M,0.19,N,0.36,K,A*2B
###2023-12-09 12:49:23.975876$GNGST,174923.10,18.000,,,,0.076,0.066,0.160*53
###2023-12-09 12:49:23.977159$GNZDA,174923.10,09,12,2023,00,00*7A
###2023-12-09 12:49:23.977792$GNEBP,,,,,,M*13
###2023-12-09 12:49:24.147486$GNGGA,174923.30,4138.0628595,N,07032.3904083,W,1,24,0.6,13.491,M,-29.744,M,0.0,*50
###2023-12-09 12:49:24.349439$GNGGA,174923.50,4138.0629029,N,07032.3904255,W,1,24,0.6,13.494,M,-29.744,M,0.0,*59
###2023-12-09 12:49:24.549384$GNGGA,174923.70,4138.0629455,N,07032.3904430,W,1,24,0.6,13.491,M,-29.744,M,0.0,*54
###2023-12-09 12:49:24.749283$GNGGA,174923.90,4138.0629473,N,07032.3904424,W,1,24,0.6,13.512,M,-29.744,M,0.0,*51
###2023-12-09 12:49:24.948531$GNRMC,174924.10,A,4138.0629390,N,07032.3904349,W,0.02,343.23,091223,,,A*5D
###2023-12-09 12:49:24.951413$GNGGA,174924.10,4138.0629390,N,07032.3904349,W,1,24,0.6,13.520,M,-29.744,M,0.0,*59
###2023-12-09 12:49:24.953309$GPGSA,A,3,03,04,16,26,28,29,31,32,,,,,1.1,0.6,0.9*3B
###2023-12-09 12:49:24.955040$GLGSA,A,3,65,71,72,73,74,75,,,,,,,1.1,0.6,0.9*24
###2023-12-09 12:49:24.956621$GAGSA,A,3,04,19,21,27,,,,,,,,,1.1,0.6,0.9*26
###2023-12-09 12:49:24.958260$GBGSA,A,3,14,24,25,26,33,,,,,,,,1.1,0.6,0.9*2F
###2023-12-09 12:49:24.960594$GPGSV,2,1,08,03,37,268,45,04,28,311,41,16,43,209,46,26,73,208,48*7F
###2023-12-09 12:49:24.964228$GPGSV,2,2,08,28,53,064,44,29,26,067,40,31,71,021,46,32,24,137,41*77
###2023-12-09 12:49:24.966609$GLGSV,2,1,06,65,18,329,41,71,48,171,48,72,71,291,46,73,41,038,46*65
###2023-12-09 12:49:24.968367$GLGSV,2,2,06,74,71,317,43,75,28,247,45,,,,,,,,*6C
###2023-12-09 12:49:24.970719$GAGSV,1,1,04,04,25,312,39,19,85,269,40,21,83,162,46,27,37,048,40*6F
###2023-12-09 12:49:24.973063$GBGSV,2,1,05,14,49,195,46,24,77,011,48,25,37,257,46,26,30,060,42*66
###2023-12-09 12:49:24.974523$GBGSV,2,2,05,33,61,241,46,,,,,,,,,,,,*5C
###2023-12-09 12:49:24.975856$GNVTG,343.23,T,,M,0.02,N,0.04,K,A*20
###2023-12-09 12:49:24.977509$GNGST,174924.10,18.000,,,,0.076,0.067,0.160*55
###2023-12-09 12:49:24.978813$GNZDA,174924.10,09,12,2023,00,00*7D
