###2023-12-09 12:52:11.973716$GLGSV,2,2,06,74,71,321,43,75,28,248,45,,,,,,,,*66
###2023-12-09 12:52:11.976104$GAGSV,1,1,04,04,26,312,41,19,85,252,40,21,84,154,46,27,36,048,42*6A
###2023-12-09 12:52:11.978436$GBGSV,2,1,05,14,48,194,46,24,77,014,48,25,37,258,45,26,29,060,43*66
###2023-12-09 12:52:11.979917$GBGSV,2,2,05,33,60,240,47,,,,,,,,,,,,*5D
###2023-12-09 12:52:11.981247$GNVTG,318.50,T,,M,0.70,N,1.30,K,A*29
###2023-12-09 12:52:11.982918$GNGST,175211.10,18.000,,,,0.075,0.067,0.160*5A
###2023-12-09 12:52:11.984215$GNZDA,175211.10,09,12,2023,00,00*71
###2023-12-09 12:52:11.984858$GNEBP,,,,,,M*13
###2023-12-09 12:52:12.150920$GNGGA,175211.30,4138.0616657,N,07032.3848027,W,1,24,0.6,13.242,M,-29.744,M,0.0,*54
###2023-12-09 12:52:12.351700$GNGGA,175211.50,4138.0616904,N,07032.3848364,W,1,24,0.6,13.236,M,-29.744,M,0.0,*5C
###2023-12-09 12:52:12.551982$GNGGA,175211.70,4138.0616913,N,07032.3848370,W,1,24,0.6,13.238,M,-29.744,M,0.0,*53
###2023-12-09 12:52:12.751879$GNGGA,175211.90,4138.0616902,N,07032.3848369,W,1,24,0.6,13.225,M,-29.744,M,0.0,*59
###2023-12-09 12:52:12.952479$GNRMC,175212.10,A,4138.0617064,N,07032.3848613,W,0.72,318.50,091223,,,A*59
###2023-12-09 12:52:12.955364$GNGGA,175212.10,4138.0617064,N,07032.3848613,W,1,24,0.6,13.221,M,-29.744,M,0.0,*56
###2023-12-09 12:52:12.957217$GPGSA,A,3,03,04,16,26,28,29,31,32,,,,,1.1,0.6,0.9*3B
###2023-12-09 12:52:12.958947$GLGSA,A,3,65,71,72,73,74,75,,,,,,,1.1,0.6,0.9*24
###2023-12-09 12:52:12.960527$GAGSA,A,3,04,19,21,27,,,,,,,,,1.1,0.6,0.9*26
###2023-12-09 12:52:12.962164$GBGSA,A,3,14,24,25,26,33,,,,,,,,1.1,0.6,0.9*2F
###2023-12-09 12:52:12.964505$GPGSV,2,1,08,03,37,267,43,04,29,311,42,16,45,210,47,26,75,209,49*7D
###2023-12-09 12:52:12.966850$GPGSV,2,2,08,28,52,066,44,29,26,065,41,31,71,026,46,32,23,138,46*7F
###2023-12-09 12:52:12.969192$GLGSV,2,1,06,65,19,329,42,71,47,171,49,72,72,288,46,73,40,038,42*67
###2023-12-09 12:52:12.970945$GLGSV,2,2,06,74,71,321,42,75,28,248,46,,,,,,,,*64
###2023-12-09 12:52:12.973258$GAGSV,1,1,04,04,26,312,42,19,85,252,40,21,84,154,46,27,36,048,42*69
###2023-12-09 12:52:12.975593$GBGSV,2,1,05,14,48,194,45,24,77,014,47,25,37,258,44,26,29,060,43*6B
###2023-12-09 12:52:12.977045$GBGSV,2,2,05,33,60,240,46,,,,,,,,,,,,*5C
###2023-12-09 12:52:12.978363$GNVTG,318.50,T,,M,0.72,N,1.33,K,A*28
###2023-12-09 12:52:12.980018$GNGST,175212.10,18.000,,,,0.075,0.066,0.160*58
###2023-12-09 12:52:12.981308$GNZDA,175212.10,09,12,2023,00,00*72
###2023-12-09 12:52:12.981950$GNEBP,,,,,,M*13
###2023-12-09 12:52:13.151047$GNGGA,175212.30,4138.0617379,N,07032.3849047,W,1,24,0.6,13.219,M,-29.744,M,0.0,*56
###2023-12-09 12:52:13.352878$GNGGA,175212.50,4138.0617592,N,07032.3849353,W,1,24,0.6,13.231,M,-29.744,M,0.0,*5F
###2023-12-09 12:52:13.551964$GNGGA,175212.70,4138.0617610,N,07032.3849393,W,1,24,0.6,13.248,M,-29.744,M,0.0,*56
###2023-12-09 12:52:13.752224$GNGGA,175212.90,4138.0617605,N,07032.3849370,W,1,24,0.6,13.233,M,-29.744,M,0.0,*5D
###2023-12-09 12:52:13.953653$GNRMC,175213.10,A,4138.0617760,N,07032.3849590,W,0.76,318.50,091223,,,A*56
###2023-12-09 12:52:13.956543$GNGGA,175213.10,4138.0617760,N,07032.3849590,W,1,24,0.6,13.215,M,-29.744,M,0.0,*5A
###2023-12-09 12:52:13.958404$GPGSA,A,3,03,04,16,26,28,29,31,32,,,,,1.1,0.6,0.9*3B
###2023-12-09 12:52:13.960149$GLGSA,A,3,65,71,72,73,74,75,,,,,,,1.1,0.6,0.9*24
###2023-12-09 12:52:13.961739$GAGSA,A,3,04,19,21,27,,,,,,,,,1.1,0.6,0.9*26
###2023-12-09 12:52:13.963404$GBGSA,A,3,14,24,25,26,33,,,,,,,,1.1,0.6,0.9*2F
###2023-12-09 12:52:13.965734$GPGSV,2,1,08,03,37,267,42,04,29,311,42,16,45,210,47,26,75,209,49*7C
###2023-12-09 12:52:13.968092$GPGSV,2,2,08,28,52,066,45,29,26,065,41,31,71,026,46,32,23,138,46*7E
###2023-12-09 12:52:13.970422$GLGSV,2,1,06,65,19,329,42,71,47,171,50,72,72,288,46,73,40,038,41*6C
###2023-12-09 12:52:13.972191$GLGSV,2,2,06,74,71,321,42,75,28,248,44,,,,,,,,*66
###2023-12-09 12:52:13.974518$GAGSV,1,1,04,04,26,312,41,19,85,252,40,21,84,154,46,27,36,048,42*6A
###2023-12-09 12:52:13.976857$GBGSV,2,1,05,14,48,194,46,24,77,014,47,25,37,258,44,26,29,060,44*6F
###2023-12-09 12:52:13.978315$GBGSV,2,2,05,33,60,240,46,,,,,,,,,,,,*5C
###2023-12-09 12:52:13.979646$GNVTG,318.50,T,,M,0.76,N,1.40,K,A*28
###2023-12-09 12:52:13.981294$GNGST,175213.10,18.000,,,,0.075,0.067,0.160*58
###2023-12-09 12:52:13.982594$GNZDA,175213.10,09,12,2023,00,00*73
###2023-12-09 12:52:13.983233$GNEBP,,,,,,M*13
###2023-12-09 12:52:14.152181$GNGGA,175213.30,4138.0618097,N,07032.3850060,W,1,24,0.6,13.205,M,-29.744,M,0.0,*5B
###2023-12-09 12:52:14.351787$GNGGA,175213.50,4138.0618284,N,07032.3850351,W,1,24,0.6,13.204,M,-29.744,M,0.0,*5D
###2023-12-09 12:52:14.551860$GNGGA,175213.70,4138.0618265,N,07032.3850335,W,1,24,0.6,13.233,M,-29.744,M,0.0,*56
###2023-12-09 12:52:14.751771$GNGGA,175213.90,4138.0618273,N,07032.3850380,W,1,24,0.6,13.232,M,-29.744,M,0.0,*50
###2023-12-09 12:52:14.951659$GNRMC,175214.10,A,4138.0618451,N,07032.3850649,W,0.72,318.50,091223,,,A*54
###2023-12-09 12:52:14.954522$GNGGA,175214.10,4138.0618451,N,07032.3850649,W,1,24,0.6,13.215,M,-29.744,M,0.0,*5C
###2023-12-09 12:52:14.956392$GPGSA,A,3,03,04,16,26,28,29,31,32,,,,,1.1,0.6,0.9*3B
###2023-12-09 12:52:14.958117$GLGSA,A,3,65,71,72,73,74,75,,,,,,,1.1,0.6,0.9*24
###2023-12-09 12:52:14.959723$GAGSA,A,3,04,19,21,27,,,,,,,,,1.1,0.6,0.9*26
###2023-12-09 12:52:14.961377$GBGSA,A,3,14,24,25,26,33,,,,,,,,1.1,0.6,0.9*2F
###2023-12-09 12:52:14.963762$GPGSV,2,1,08,03,37,267,42,04,29,311,42,16,45,210,46,26,75,209,48*7C
###2023-12-09 12:52:14.966111$GPGSV,2,2,08,28,52,066,45,29,26,065,41,31,71,026,46,32,23,138,46*7E
###2023-12-09 12:52:14.968503$GLGSV,2,1,06,65,19,329,43,71,47,171,49,72,72,288,46,73,40,038,43*67
###2023-12-09 12:52:14.970269$GLGSV,2,2,06,74,71,321,43,75,28,248,45,,,,,,,,*66
###2023-12-09 12:52:14.972624$GAGSV,1,1,04,04,26,312,41,19,85,252,40,21,84,154,46,27,36,048,42*6A
###2023-12-09 12:52:14.974966$GBGSV,2,1,05,14,48,194,46,24,77,014,47,25,37,258,45,26,29,060,44*6E
###2023-12-09 12:52:14.976420$GBGSV,2,2,05,33,60,240,47,,,,,,,,,,,,*5D
###2023-12-09 12:52:14.977745$GNVTG,318.50,T,,M,0.72,N,1.33,K,A*28
###2023-12-09 12:52:14.979406$GNGST,175214.10,18.000,,,,0.076,0.067,0.160*5C
###2023-12-09 12:52:14.980695$GNZDA,175214.10,09,12,2023,00,00*74
###2023-12-09 12:52:14.981330$GNEBP,,,,,,M*13
###2023-12-09 12:52:15.152043$GNGGA,175214.30,4138.0618758,N,07032.3851054,W,1,24,0.6,13.200,M,-29.744,M,0.0,*5B
###2023-12-09 12:52:15.351718$GNGGA,175214.50,4138.0618952,N,07032.3851323,W,1,24,0.6,13.204,M,-29.744,M,0.0,*5E
###2023-12-09 12:52:15.552894$GNGGA,175214.70,4138.0618960,N,07032.3851379,W,1,24,0.6,13.226,M,-29.744,M,0.0,*52
###2023-12-09 12:52:15.760532$GNGGA,175214.90,4138.0618974,N,07032.3851381,W,1,24,0.6,13.224,M,-29.744,M,0.0,*5C
###2023-12-09 12:52:15.954010$GNRMC,175215.10,A,4138.0619142,N,07032.3851590,W,0.66,318.50,091223,,,A*50
###2023-12-09 12:52:15.956883$GNGGA,175215.10,4138.0619142,N,07032.3851590,W,1,24,0.6,13.222,M,-29.744,M,0.0,*59
###2023-12-09 12:52:15.958752$GPGSA,A,3,03,04,16,26,28,29,31,32,,,,,1.1,0.6,0.9*3B
###2023-12-09 12:52:15.960471$GLGSA,A,3,65,71,72,73,74,75,,,,,,,1.1,0.6,0.9*24
###2023-12-09 12:52:15.962053$GAGSA,A,3,04,19,21,27,,,,,,,,,1.1,0.6,0.9*26
###2023-12-09 12:52:15.963718$GBGSA,A,3,14,24,25,26,33,,,,,,,,1.1,0.6,0.9*2F
###2023-12-09 12:52:15.966051$GPGSV,2,1,08,03,37,267,42,04,29,311,43,16,45,210,47,26,75,209,49*7D
###2023-12-09 12:52:15.968408$GPGSV,2,2,08,28,52,066,45,29,26,065,41,31,71,026,47,32,23,138,45*7C
###2023-12-09 12:52:15.970752$GLGSV,2,1,06,65,19,329,42,71,47,171,48,72,72,288,46,73,40,038,41*65
###2023-12-09 12:52:15.972508$GLGSV,2,2,06,74,71,321,42,75,28,248,46,,,,,,,,*64
###2023-12-09 12:52:15.974841$GAGSV,1,1,04,04,26,312,41,19,85,252,40,21,84,154,46,27,36,048,42*6A
###2023-12-09 12:52:15.977171$GBGSV,2,1,05,14,48,194,46,24,77,014,48,25,37,258,45,26,29,060,44*61
###2023-12-09 12:52:15.978638$GBGSV,2,2,05,33,60,240,47,,,,,,,,,,,,*5D
###2023-12-09 12:52:15.979963$GNVTG,318.50,T,,M,0.66,N,1.22,K,A*2D
###2023-12-09 12:52:15.981611$GNGST,175215.10,18.000,,,,0.075,0.067,0.160*5E
###2023-12-09 12:52:15.982915$GNZDA,175215.10,09,12,2023,00,00*75
###2023-12-09 12:52:15.983555$GNEBP,,,,,,M*13
###2023-12-09 12:52:16.152601$GNGGA,175215.30,4138.0619440,N,07032.3852026,W,1,24,0.6,13.219,M,-29.744,M,0.0,*5F
###2023-12-09 12:52:16.353676$GNGGA,175215.50,4138.0619615,N,07032.3852304,W,1,24,0.6,13.207,M,-29.744,M,0.0,*57
###2023-12-09 12:52:16.553374$GNGGA,175215.70,4138.0619647,N,07032.3852310,W,1,24,0.6,13.222,M,-29.744,M,0.0,*50
###2023-12-09 12:52:16.752654$GNGGA,175215.90,4138.0619701,N,07032.3852393,W,1,24,0.6,13.225,M,-29.744,M,0.0,*51
###2023-12-09 12:52:16.954995$GNRMC,175216.10,A,4138.0619861,N,07032.3852644,W,0.54,318.50,091223,,,A*53
###2023-12-09 12:52:16.958461$GNGGA,175216.10,4138.0619861,N,07032.3852644,W,1,24,0.6,13.215,M,-29.744,M,0.0,*5F
###2023-12-09 12:52:16.960728$GPGSA,A,3,03,04,16,26,28,29,31,32,,,,,1.1,0.6,0.9*3B
###2023-12-09 12:52:16.962813$GLGSA,A,3,65,71,72,73,74,75,,,,,,,1.1,0.6,0.9*24
