###2023-12-09 13:14:34.992195$GPGSV,2,1,07,03,32,255,43,04,38,311,44,16,56,215,47,26,86,209,48*7A
###2023-12-09 13:14:34.994256$GPGSV,2,2,07,28,45,076,43,29,24,055,41,31,65,050,46,,,,*4D
###2023-12-09 13:14:34.996605$GLGSV,2,1,06,65,29,325,41,71,34,174,45,72,71,246,46,73,31,045,43*6A
###2023-12-09 13:14:34.998363$GLGSV,2,2,06,74,66,353,43,75,36,259,48,,,,,,,,*67
###2023-12-09 13:14:35.000706$GAGSV,1,1,04,04,33,312,41,19,80,192,41,21,84,066,46,27,29,048,42*6B
###2023-12-09 13:14:35.003051$GBGSV,2,1,06,14,37,191,45,24,69,035,47,25,45,267,46,26,22,066,41*6D
###2023-12-09 13:14:35.004799$GBGSV,2,2,06,33,53,226,48,35,15,065,43,,,,,,,,*67
###2023-12-09 13:14:35.006088$GNVTG,84.57,T,,M,3.40,N,6.30,K,A*1F
###2023-12-09 13:14:35.007753$GNGST,181434.10,18.000,,,,0.098,0.071,0.170*55
###2023-12-09 13:14:35.009045$GNZDA,181434.10,09,12,2023,00,00*7B
###2023-12-09 13:14:35.009684$GNEBP,,,,,,M*13
###2023-12-09 13:14:35.175478$GNGGA,181434.30,4138.0363971,N,07032.3146757,W,1,24,0.7,13.086,M,-29.744,M,0.0,*5E
###2023-12-09 13:14:35.375692$GNGGA,181434.50,4138.0363908,N,07032.3144107,W,1,24,0.7,13.050,M,-29.744,M,0.0,*5C
###2023-12-09 13:14:35.576450$GNGGA,181434.70,4138.0363828,N,07032.3141638,W,1,24,0.7,13.064,M,-29.744,M,0.0,*54
###2023-12-09 13:14:35.776444$GNGGA,181434.90,4138.0363919,N,07032.3139070,W,1,24,0.7,13.092,M,-29.744,M,0.0,*55
###2023-12-09 13:14:35.978873$GNRMC,181435.10,A,4138.0363816,N,07032.3136499,W,3.36,95.07,091223,,,A*6D
###2023-12-09 13:14:35.981715$GNGGA,181435.10,4138.0363816,N,07032.3136499,W,1,24,0.7,13.079,M,-29.744,M,0.0,*5B
###2023-12-09 13:14:35.983516$GPGSA,A,3,03,04,16,26,28,29,31,,,,,,1.2,0.7,1.0*30
###2023-12-09 13:14:35.985227$GLGSA,A,3,65,71,72,73,74,75,,,,,,,1.2,0.7,1.0*2E
###2023-12-09 13:14:35.986817$GAGSA,A,3,04,19,21,27,,,,,,,,,1.2,0.7,1.0*2C
###2023-12-09 13:14:35.988523$GBGSA,A,3,14,24,25,26,33,35,,,,,,,1.2,0.7,1.0*23
###2023-12-09 13:14:35.990847$GPGSV,2,1,07,03,32,255,46,04,38,311,44,16,56,215,47,26,86,209,48*7F
###2023-12-09 13:14:35.992882$GPGSV,2,2,07,28,45,076,43,29,24,055,42,31,65,050,47,,,,*4F
###2023-12-09 13:14:35.995220$GLGSV,2,1,06,65,29,325,40,71,34,174,45,72,71,246,47,73,31,045,44*6D
###2023-12-09 13:14:35.996959$GLGSV,2,2,06,74,66,353,42,75,36,259,48,,,,,,,,*66
###2023-12-09 13:14:35.999298$GAGSV,1,1,04,04,33,312,43,19,80,192,41,21,84,066,47,27,29,048,42*68
###2023-12-09 13:14:36.001619$GBGSV,2,1,06,14,37,191,46,24,69,035,50,25,45,267,47,26,22,066,43*6B
###2023-12-09 13:14:36.003368$GBGSV,2,2,06,33,53,225,49,35,15,065,43,,,,,,,,*65
###2023-12-09 13:14:36.004656$GNVTG,95.07,T,,M,3.36,N,6.23,K,A*19
###2023-12-09 13:14:36.006300$GNGST,181435.10,18.000,,,,0.098,0.071,0.170*54
###2023-12-09 13:14:36.007600$GNZDA,181435.10,09,12,2023,00,00*7A
###2023-12-09 13:14:36.008236$GNEBP,,,,,,M*13
###2023-12-09 13:14:36.175472$GNGGA,181435.30,4138.0363733,N,07032.3133973,W,1,24,0.7,13.076,M,-29.744,M,0.0,*52
###2023-12-09 13:14:36.376204$GNGGA,181435.50,4138.0363756,N,07032.3131418,W,1,24,0.7,13.089,M,-29.744,M,0.0,*55
###2023-12-09 13:14:36.576418$GNGGA,181435.70,4138.0363616,N,07032.3128817,W,1,24,0.7,13.081,M,-29.744,M,0.0,*51
###2023-12-09 13:14:36.776416$GNGGA,181435.90,4138.0363500,N,07032.3126269,W,1,24,0.7,13.083,M,-29.744,M,0.0,*54
###2023-12-09 13:14:36.980609$GNRMC,181436.10,A,4138.0363504,N,07032.3123693,W,3.40,88.14,091223,,,A*63
###2023-12-09 13:14:36.983493$GNGGA,181436.10,4138.0363504,N,07032.3123693,W,1,24,0.7,13.093,M,-29.744,M,0.0,*5E
###2023-12-09 13:14:36.985290$GPGSA,A,3,03,04,16,26,28,29,31,,,,,,1.2,0.7,1.0*30
###2023-12-09 13:14:36.987008$GLGSA,A,3,65,71,72,73,74,75,,,,,,,1.2,0.7,1.0*2E
###2023-12-09 13:14:36.988581$GAGSA,A,3,04,19,21,27,,,,,,,,,1.2,0.7,1.0*2C
###2023-12-09 13:14:36.990284$GBGSA,A,3,14,24,25,26,33,35,,,,,,,1.2,0.7,1.0*23
###2023-12-09 13:14:36.992614$GPGSV,2,1,07,03,32,255,45,04,38,311,45,16,56,215,48,26,86,209,49*73
###2023-12-09 13:14:36.994649$GPGSV,2,2,07,28,45,076,43,29,24,055,42,31,65,050,47,,,,*4F
###2023-12-09 13:14:36.996974$GLGSV,2,1,06,65,29,325,40,71,34,174,45,72,71,246,46,73,31,045,44*6C
###2023-12-09 13:14:36.998730$GLGSV,2,2,06,74,66,353,43,75,36,259,48,,,,,,,,*67
###2023-12-09 13:14:37.001051$GAGSV,1,1,04,04,33,312,43,19,80,192,42,21,84,066,46,27,29,048,43*6B
###2023-12-09 13:14:37.003387$GBGSV,2,1,06,14,37,191,44,24,69,035,48,25,45,267,46,26,22,066,41*63
###2023-12-09 13:14:37.005130$GBGSV,2,2,06,33,53,225,47,35,16,064,42,,,,,,,,*68
###2023-12-09 13:14:37.006417$GNVTG,88.14,T,,M,3.40,N,6.30,K,A*14
###2023-12-09 13:14:37.008080$GNGST,181436.10,18.000,,,,0.097,0.070,0.170*59
###2023-12-09 13:14:37.009371$GNZDA,181436.10,09,12,2023,00,00*79
###2023-12-09 13:14:37.010005$GNEBP,,,,,,M*13
###2023-12-09 13:14:37.175445$GNGGA,181436.30,4138.0363552,N,07032.3121126,W,1,24,0.7,13.096,M,-29.744,M,0.0,*51
###2023-12-09 13:14:37.376865$GNGGA,181436.50,4138.0363584,N,07032.3118484,W,1,24,0.7,13.098,M,-29.744,M,0.0,*55
###2023-12-09 13:14:37.577436$GNGGA,181436.70,4138.0363619,N,07032.3115902,W,1,24,0.7,13.102,M,-29.744,M,0.0,*5C
###2023-12-09 13:14:37.777422$GNGGA,181436.90,4138.0363648,N,07032.3113265,W,1,24,0.7,13.111,M,-29.744,M,0.0,*58
###2023-12-09 13:14:37.980996$GNRMC,181437.10,A,4138.0363705,N,07032.3110546,W,3.62,85.37,091223,,,A*66
###2023-12-09 13:14:37.983866$GNGGA,181437.10,4138.0363705,N,07032.3110546,W,1,24,0.7,13.091,M,-29.744,M,0.0,*55
###2023-12-09 13:14:37.985660$GPGSA,A,3,03,04,16,26,28,29,31,,,,,,1.2,0.7,1.0*30
###2023-12-09 13:14:37.987384$GLGSA,A,3,65,71,72,73,74,75,,,,,,,1.2,0.7,1.0*2E
###2023-12-09 13:14:37.988956$GAGSA,A,3,04,19,21,27,,,,,,,,,1.2,0.7,1.0*2C
###2023-12-09 13:14:37.990675$GBGSA,A,3,14,24,25,26,33,35,,,,,,,1.2,0.7,1.0*23
###2023-12-09 13:14:37.992997$GPGSV,2,1,07,03,32,255,45,04,38,311,45,16,56,215,48,26,86,209,49*73
###2023-12-09 13:14:37.995043$GPGSV,2,2,07,28,45,076,43,29,24,055,42,31,65,050,47,,,,*4F
###2023-12-09 13:14:37.997359$GLGSV,2,1,06,65,30,325,40,71,34,174,46,72,71,246,47,73,31,045,44*66
###2023-12-09 13:14:37.999107$GLGSV,2,2,06,74,66,353,43,75,36,259,48,,,,,,,,*67
###2023-12-09 13:14:38.001431$GAGSV,1,1,04,04,33,312,42,19,80,192,42,21,84,066,46,27,29,048,43*6A
###2023-12-09 13:14:38.003765$GBGSV,2,1,06,14,37,191,46,24,69,035,48,25,45,267,47,26,22,066,42*63
###2023-12-09 13:14:38.005501$GBGSV,2,2,06,33,53,225,47,35,16,064,42,,,,,,,,*68
###2023-12-09 13:14:38.006798$GNVTG,85.37,T,,M,3.62,N,6.70,K,A*1C
###2023-12-09 13:14:38.008433$GNGST,181437.10,18.000,,,,0.097,0.070,0.170*58
###2023-12-09 13:14:38.009716$GNZDA,181437.10,09,12,2023,00,00*78
###2023-12-09 13:14:38.010350$GNEBP,,,,,,M*13
###2023-12-09 13:14:38.177579$GNGGA,181437.30,4138.0363935,N,07032.3107988,W,1,24,0.7,13.092,M,-29.744,M,0.0,*51
###2023-12-09 13:14:38.376480$GNGGA,181437.50,4138.0364160,N,07032.3105370,W,1,24,0.7,13.121,M,-29.744,M,0.0,*5E
###2023-12-09 13:14:38.578824$GNGGA,181437.70,4138.0364101,N,07032.3102668,W,1,24,0.7,13.107,M,-29.744,M,0.0,*54
###2023-12-09 13:14:38.778649$GNGGA,181437.90,4138.0363969,N,07032.3100114,W,1,24,0.7,13.088,M,-29.744,M,0.0,*53
###2023-12-09 13:14:38.982379$GNRMC,181438.10,A,4138.0364068,N,07032.3097537,W,3.60,84.91,091223,,,A*65
###2023-12-09 13:14:38.985267$GNGGA,181438.10,4138.0364068,N,07032.3097537,W,1,24,0.7,13.108,M,-29.744,M,0.0,*58
###2023-12-09 13:14:38.987091$GPGSA,A,3,03,04,16,26,28,29,31,,,,,,1.2,0.7,1.0*30
###2023-12-09 13:14:38.988819$GLGSA,A,3,65,71,72,73,74,75,,,,,,,1.2,0.7,1.0*2E
###2023-12-09 13:14:38.990398$GAGSA,A,3,04,19,21,27,,,,,,,,,1.2,0.7,1.0*2C
###2023-12-09 13:14:38.992119$GBGSA,A,3,14,24,25,26,33,35,,,,,,,1.2,0.7,1.0*23
###2023-12-09 13:14:38.994442$GPGSV,2,1,07,03,32,255,45,04,38,311,44,16,56,215,49,26,86,209,50*7B
###2023-12-09 13:14:38.996499$GPGSV,2,2,07,28,45,076,44,29,24,055,43,31,65,050,47,,,,*49
###2023-12-09 13:14:38.998835$GLGSV,2,1,06,65,30,325,40,71,34,174,46,72,71,246,47,73,31,045,44*66
###2023-12-09 13:14:39.000578$GLGSV,2,2,06,74,66,353,42,75,36,259,48,,,,,,,,*66
###2023-12-09 13:14:39.002906$GAGSV,1,1,04,04,33,312,42,19,80,192,41,21,84,066,46,27,29,048,42*68
###2023-12-09 13:14:39.005237$GBGSV,2,1,06,14,37,191,44,24,69,035,48,25,45,267,47,26,22,066,40*63
###2023-12-09 13:14:39.007018$GBGSV,2,2,06,33,53,225,48,35,16,064,41,,,,,,,,*64
###2023-12-09 13:14:39.008557$GNVTG,84.91,T,,M,3.60,N,6.66,K,A*14
###2023-12-09 13:14:39.010211$GNGST,181438.10,18.000,,,,0.097,0.070,0.170*57
###2023-12-09 13:14:39.011515$GNZDA,181438.10,09,12,2023,00,00*77
###2023-12-09 13:14:39.012154$GNEBP,,,,,,M*13
###2023-12-09 13:14:39.180340$GNGGA,181438.30,4138.0364043,N,07032.3094908,W,1,24,0.7,13.102,M,-29.744,M,0.0,*5A
###2023-12-09 13:14:39.377633$GNGGA,181438.50,4138.0363695,N,07032.3092447,W,1,24,0.7,13.104,M,-29.744,M,0.0,*50
###2023-12-09 13:14:39.577640$GNGGA,181438.70,4138.0363246,N,07032.3090047,W,1,24,0.7,13.119,M,-29.744,M,0.0,*52
###2023-12-09 13:14:39.777531$GNGGA,181438.90,4138.0362813,N,07032.3087593,W,1,24,0.7,13.124,M,-29.744,M,0.0,*53
###2023-12-09 13:14:39.977804$GNRMC,181439.10,A,4138.0362338,N,07032.3085156,W,3.36,103.52,091223,,,A*56
