###2023-12-09 12:31:33.955468$GNVTG,95.64,T,,M,0.68,N,1.26,K,A*16
###2023-12-09 12:31:33.957260$GNGST,173133.10,19.000,,,,0.110,0.088,0.220*5A
###2023-12-09 12:31:33.958694$GNZDA,173133.10,09,12,2023,00,00*74
###2023-12-09 12:31:33.959449$GNEBP,,,,,,M*13
###2023-12-09 12:31:34.128224$GNGGA,173133.30,4138.0397734,N,07032.4260114,W,1,22,0.7,13.789,M,-29.745,M,0.0,*5B
###2023-12-09 12:31:34.330075$GNGGA,173133.50,4138.0397875,N,07032.4260185,W,1,22,0.7,13.782,M,-29.745,M,0.0,*54
###2023-12-09 12:31:34.529892$GNGGA,173133.70,4138.0398049,N,07032.4260569,W,1,22,0.7,13.779,M,-29.745,M,0.0,*5C
###2023-12-09 12:31:34.732044$GNGGA,173133.90,4138.0398154,N,07032.4260626,W,1,22,0.7,13.774,M,-29.745,M,0.0,*5A
###2023-12-09 12:31:34.932312$GNRMC,173134.10,A,4138.0398215,N,07032.4260165,W,0.82,95.64,091223,,,A*61
###2023-12-09 12:31:34.935215$GNGGA,173134.10,4138.0398215,N,07032.4260165,W,1,22,0.7,13.788,M,-29.745,M,0.0,*50
###2023-12-09 12:31:34.937098$GPGSA,A,3,03,04,16,26,28,29,31,32,,,,,1.2,0.7,1.0*31
###2023-12-09 12:31:34.938784$GLGSA,A,3,71,72,73,74,75,,,,,,,,1.2,0.7,1.0*2D
###2023-12-09 12:31:34.940385$GAGSA,A,3,04,19,21,27,,,,,,,,,1.2,0.7,1.0*2C
###2023-12-09 12:31:34.941985$GBGSA,A,3,14,25,26,33,,,,,,,,,1.2,0.7,1.0*23
###2023-12-09 12:31:34.944350$GPGSV,2,1,08,03,39,279,46,04,20,310,38,16,35,207,40,26,65,206,47*7A
###2023-12-09 12:31:34.946728$GPGSV,2,2,08,28,59,054,44,29,25,075,43,31,73,356,46,32,31,133,45*78
###2023-12-09 12:31:34.949095$GLGSV,2,1,05,71,59,168,47,72,64,313,45,73,50,032,46,74,70,284,43*6D
###2023-12-09 12:31:34.950583$GLGSV,2,2,05,75,20,239,41,,,,,,,,,,,,*5D
###2023-12-09 12:31:34.952928$GAGSV,1,1,04,04,20,311,42,19,80,306,41,21,76,178,45,27,43,050,43*62
###2023-12-09 12:31:34.955334$GBGSV,1,1,04,14,57,199,46,25,31,251,40,26,36,056,45,33,63,258,48*69
###2023-12-09 12:31:34.956655$GNVTG,95.64,T,,M,0.82,N,1.51,K,A*12
###2023-12-09 12:31:34.958321$GNGST,173134.10,19.000,,,,0.110,0.085,0.220*50
###2023-12-09 12:31:34.959642$GNZDA,173134.10,09,12,2023,00,00*73
###2023-12-09 12:31:34.960293$GNEBP,,,,,,M*13
###2023-12-09 12:31:35.128639$GNGGA,173134.30,4138.0398262,N,07032.4259852,W,1,22,0.7,13.749,M,-29.745,M,0.0,*58
###2023-12-09 12:31:35.329868$GNGGA,173134.50,4138.0398407,N,07032.4260210,W,1,22,0.7,13.763,M,-29.745,M,0.0,*55
###2023-12-09 12:31:35.529841$GNGGA,173134.70,4138.0398601,N,07032.4260681,W,1,22,0.7,13.748,M,-29.745,M,0.0,*56
###2023-12-09 12:31:35.728981$GNGGA,173134.90,4138.0398663,N,07032.4260393,W,1,22,0.7,13.754,M,-29.745,M,0.0,*57
###2023-12-09 12:31:35.930349$GNRMC,173135.10,A,4138.0398701,N,07032.4259865,W,0.51,95.64,091223,,,A*6D
###2023-12-09 12:31:35.933443$GNGGA,173135.10,4138.0398701,N,07032.4259865,W,1,22,0.7,13.747,M,-29.745,M,0.0,*51
###2023-12-09 12:31:35.935507$GPGSA,A,3,03,04,16,26,28,29,31,32,,,,,1.2,0.7,1.0*31
###2023-12-09 12:31:35.937329$GLGSA,A,3,71,72,73,74,75,,,,,,,,1.2,0.7,1.0*2D
###2023-12-09 12:31:35.939095$GAGSA,A,3,04,19,21,27,,,,,,,,,1.2,0.7,1.0*2C
###2023-12-09 12:31:35.940850$GBGSA,A,3,14,25,26,33,,,,,,,,,1.2,0.7,1.0*23
###2023-12-09 12:31:35.943359$GPGSV,2,1,08,03,39,279,46,04,20,310,38,16,35,207,38,26,65,206,48*7A
###2023-12-09 12:31:35.945866$GPGSV,2,2,08,28,59,054,44,29,25,075,42,31,73,356,47,32,31,133,46*7B
###2023-12-09 12:31:35.948390$GLGSV,2,1,05,71,59,168,48,72,64,313,45,73,50,032,46,74,70,284,43*62
###2023-12-09 12:31:35.950056$GLGSV,2,2,05,75,20,239,40,,,,,,,,,,,,*5C
###2023-12-09 12:31:35.952575$GAGSV,1,1,04,04,20,311,42,19,80,306,41,21,76,178,48,27,43,050,45*69
###2023-12-09 12:31:35.955095$GBGSV,1,1,04,14,57,199,45,25,31,251,38,26,36,056,43,33,63,258,47*6C
###2023-12-09 12:31:35.956570$GNVTG,95.64,T,,M,0.51,N,0.94,K,A*14
###2023-12-09 12:31:35.958347$GNGST,173135.10,19.000,,,,0.100,0.084,0.210*52
###2023-12-09 12:31:35.959856$GNZDA,173135.10,09,12,2023,00,00*72
###2023-12-09 12:31:35.960620$GNEBP,,,,,,M*13
###2023-12-09 12:31:36.129846$GNGGA,173135.30,4138.0398846,N,07032.4259974,W,1,22,0.7,13.750,M,-29.745,M,0.0,*58
###2023-12-09 12:31:36.329885$GNGGA,173135.50,4138.0399074,N,07032.4260590,W,1,22,0.7,13.748,M,-29.745,M,0.0,*53
###2023-12-09 12:31:36.529830$GNGGA,173135.70,4138.0399201,N,07032.4260661,W,1,22,0.7,13.732,M,-29.745,M,0.0,*51
###2023-12-09 12:31:36.729063$GNGGA,173135.90,4138.0399254,N,07032.4260077,W,1,22,0.7,13.748,M,-29.745,M,0.0,*53
###2023-12-09 12:31:36.931940$GNRMC,173136.10,A,4138.0399339,N,07032.4259852,W,0.45,297.77,091223,,,A*53
###2023-12-09 12:31:36.934988$GNGGA,173136.10,4138.0399339,N,07032.4259852,W,1,22,0.7,13.754,M,-29.745,M,0.0,*5A
###2023-12-09 12:31:36.937022$GPGSA,A,3,03,04,16,26,28,29,31,32,,,,,1.2,0.7,1.0*31
###2023-12-09 12:31:36.938845$GLGSA,A,3,71,72,73,74,75,,,,,,,,1.2,0.7,1.0*2D
###2023-12-09 12:31:36.940592$GAGSA,A,3,04,19,21,27,,,,,,,,,1.2,0.7,1.0*2C
###2023-12-09 12:31:36.942343$GBGSA,A,3,14,25,26,33,,,,,,,,,1.2,0.7,1.0*23
###2023-12-09 12:31:36.944838$GPGSV,2,1,08,03,39,279,46,04,20,310,40,16,35,207,38,26,65,206,47*7A
###2023-12-09 12:31:36.947370$GPGSV,2,2,08,28,59,054,45,29,25,075,44,31,73,356,47,32,31,133,46*7C
###2023-12-09 12:31:36.949941$GLGSV,2,1,05,71,59,168,49,72,64,313,45,73,50,032,47,74,70,284,42*63
###2023-12-09 12:31:36.951593$GLGSV,2,2,05,75,20,239,36,,,,,,,,,,,,*5D
###2023-12-09 12:31:36.954092$GAGSV,1,1,04,04,20,311,41,19,80,306,40,21,76,178,45,27,43,050,45*66
###2023-12-09 12:31:36.956612$GBGSV,1,1,04,14,57,199,45,25,31,251,37,26,36,056,44,33,63,258,47*64
###2023-12-09 12:31:36.958113$GNVTG,297.77,T,,M,0.45,N,0.83,K,A*25
###2023-12-09 12:31:36.959895$GNGST,173136.10,19.000,,,,0.100,0.082,0.210*57
###2023-12-09 12:31:36.961298$GNZDA,173136.10,09,12,2023,00,00*71
###2023-12-09 12:31:36.962043$GNEBP,,,,,,M*13
###2023-12-09 12:31:37.129838$GNGGA,173136.30,4138.0399560,N,07032.4260495,W,1,22,0.7,13.776,M,-29.745,M,0.0,*5F
###2023-12-09 12:31:37.329805$GNGGA,173136.50,4138.0399749,N,07032.4260849,W,1,22,0.7,13.752,M,-29.745,M,0.0,*5B
###2023-12-09 12:31:37.529799$GNGGA,173136.70,4138.0399799,N,07032.4260368,W,1,22,0.7,13.745,M,-29.745,M,0.0,*5A
###2023-12-09 12:31:37.727947$GNGGA,173136.90,4138.0399926,N,07032.4260129,W,1,22,0.7,13.757,M,-29.745,M,0.0,*5A
###2023-12-09 12:31:37.930315$GNRMC,173137.10,A,4138.0400125,N,07032.4260572,W,0.97,292.24,091223,,,A*53
###2023-12-09 12:31:37.933238$GNGGA,173137.10,4138.0400125,N,07032.4260572,W,1,20,0.7,13.778,M,-29.745,M,0.0,*5A
###2023-12-09 12:31:37.935149$GPGSA,A,3,03,04,16,26,28,29,31,32,,,,,1.3,0.7,1.1*31
###2023-12-09 12:31:37.936757$GLGSA,A,3,71,72,73,74,,,,,,,,,1.3,0.7,1.1*2F
###2023-12-09 12:31:37.938358$GAGSA,A,3,04,19,21,27,,,,,,,,,1.3,0.7,1.1*2C
###2023-12-09 12:31:37.939970$GBGSA,A,3,14,25,26,33,,,,,,,,,1.3,0.7,1.1*23
###2023-12-09 12:31:37.942306$GPGSV,2,1,08,03,39,279,45,04,20,310,40,16,35,207,38,26,65,206,47*79
###2023-12-09 12:31:37.944664$GPGSV,2,2,08,28,59,054,46,29,25,075,42,31,73,356,47,32,31,133,45*7A
###2023-12-09 12:31:37.947038$GLGSV,1,1,04,71,59,168,48,72,64,313,46,73,50,032,46,74,70,284,42*62
###2023-12-09 12:31:37.949405$GAGSV,1,1,04,04,20,311,41,19,80,306,40,21,76,178,46,27,43,050,44*64
###2023-12-09 12:31:37.951773$GBGSV,1,1,04,14,57,199,45,25,31,251,38,26,36,056,44,33,63,258,47*6B
###2023-12-09 12:31:37.953117$GNVTG,292.24,T,,M,0.97,N,1.80,K,A*2B
###2023-12-09 12:31:37.954797$GNGST,173137.10,20.000,,,,0.100,0.081,0.200*5E
###2023-12-09 12:31:37.956104$GNZDA,173137.10,09,12,2023,00,00*70
###2023-12-09 12:31:37.956753$GNEBP,,,,,,M*13
###2023-12-09 12:31:38.131014$GNGGA,173137.30,4138.0400349,N,07032.4260950,W,1,22,0.7,13.761,M,-29.745,M,0.0,*56
###2023-12-09 12:31:38.329839$GNGGA,173137.50,4138.0400478,N,07032.4260740,W,1,22,0.7,13.767,M,-29.745,M,0.0,*5C
###2023-12-09 12:31:38.529858$GNGGA,173137.70,4138.0400583,N,07032.4260398,W,1,21,0.7,13.775,M,-29.745,M,0.0,*5A
###2023-12-09 12:31:38.727940$GNGGA,173137.90,4138.0400781,N,07032.4260525,W,1,21,0.7,13.786,M,-29.745,M,0.0,*58
###2023-12-09 12:31:38.931327$GNRMC,173138.10,A,4138.0401035,N,07032.4260950,W,0.60,292.24,091223,,,A*59
###2023-12-09 12:31:38.934401$GNGGA,173138.10,4138.0401035,N,07032.4260950,W,1,21,0.7,13.776,M,-29.745,M,0.0,*57
###2023-12-09 12:31:38.936466$GPGSA,A,3,03,04,16,26,28,29,31,32,,,,,1.2,0.7,1.0*31
###2023-12-09 12:31:38.938576$GLGSA,A,3,71,72,73,74,75,,,,,,,,1.2,0.7,1.0*2D
###2023-12-09 12:31:38.940376$GAGSA,A,3,04,19,21,27,,,,,,,,,1.2,0.7,1.0*2C
###2023-12-09 12:31:38.941928$GBGSA,A,3,14,26,33,,,,,,,,,,1.2,0.7,1.0*24
###2023-12-09 12:31:38.944300$GPGSV,2,1,08,03,39,279,45,04,20,310,41,16,35,207,40,26,65,206,48*78
###2023-12-09 12:31:38.946695$GPGSV,2,2,08,28,59,054,46,29,25,075,41,31,73,356,48,32,31,133,44*77
###2023-12-09 12:31:38.949099$GLGSV,2,1,05,71,59,168,48,72,64,313,46,73,50,032,47,74,70,284,43*60
###2023-12-09 12:31:38.950618$GLGSV,2,2,05,75,20,239,40,,,,,,,,,,,,*5C
###2023-12-09 12:31:38.952967$GAGSV,1,1,04,04,20,311,41,19,80,306,40,21,76,178,46,27,43,050,42*62
###2023-12-09 12:31:38.955085$GBGSV,1,1,03,14,57,199,45,26,36,056,43,33,63,258,48,,,,*5C
###2023-12-09 12:31:38.956430$GNVTG,292.24,T,,M,0.60,N,1.12,K,A*28
