###2023-12-09 13:04:44.163888$GNGGA,180443.30,4138.0580265,N,07032.3049844,W,1,24,0.6,13.247,M,-29.743,M,0.0,*50
###2023-12-09 13:04:44.365083$GNGGA,180443.50,4138.0580891,N,07032.3047460,W,1,24,0.6,13.268,M,-29.743,M,0.0,*5E
###2023-12-09 13:04:44.565350$GNGGA,180443.70,4138.0581108,N,07032.3045123,W,1,24,0.6,13.257,M,-29.743,M,0.0,*58
###2023-12-09 13:04:44.765688$GNGGA,180443.90,4138.0581116,N,07032.3042755,W,1,24,0.6,13.287,M,-29.743,M,0.0,*54
###2023-12-09 13:04:44.976846$GNRMC,180444.10,A,4138.0581136,N,07032.3040248,W,3.32,88.90,091223,,,A*67
###2023-12-09 13:04:44.979738$GNGGA,180444.10,4138.0581136,N,07032.3040248,W,1,24,0.6,13.272,M,-29.743,M,0.0,*58
###2023-12-09 13:04:44.981603$GPGSA,A,3,03,04,16,26,28,29,31,32,,,,,1.1,0.6,0.9*3B
###2023-12-09 13:04:44.983339$GLGSA,A,3,65,71,72,73,74,75,,,,,,,1.1,0.6,0.9*24
###2023-12-09 13:04:44.984931$GAGSA,A,3,04,19,21,27,,,,,,,,,1.1,0.6,0.9*26
###2023-12-09 13:04:44.986594$GBGSA,A,3,14,24,25,26,33,,,,,,,,1.1,0.6,0.9*2F
###2023-12-09 13:04:44.988924$GPGSV,2,1,08,03,34,260,46,04,33,311,40,16,51,213,48,26,81,210,49*7F
###2023-12-09 13:04:44.991273$GPGSV,2,2,08,28,48,071,44,29,25,060,41,31,68,040,46,32,18,140,43*7E
###2023-12-09 13:04:44.993606$GLGSV,2,1,06,65,26,327,40,71,39,173,47,72,73,261,46,73,35,042,44*6D
###2023-12-09 13:04:44.995361$GLGSV,2,2,06,74,69,340,42,75,33,254,48,,,,,,,,*63
###2023-12-09 13:04:44.997686$GAGSV,1,1,04,04,30,312,39,19,83,207,40,21,86,104,46,27,32,048,42*67
###2023-12-09 13:04:45.000032$GBGSV,2,1,05,14,42,192,47,24,72,028,47,25,42,263,46,26,25,063,41*6A
###2023-12-09 13:04:45.001492$GBGSV,2,2,05,33,56,230,49,,,,,,,,,,,,*51
###2023-12-09 13:04:45.002834$GNVTG,88.90,T,,M,3.32,N,6.16,K,A*19
###2023-12-09 13:04:45.004492$GNGST,180444.10,18.000,,,,0.082,0.067,0.160*5E
###2023-12-09 13:04:45.005791$GNZDA,180444.10,09,12,2023,00,00*7D
###2023-12-09 13:04:45.006432$GNEBP,,,,,,M*13
###2023-12-09 13:04:45.168826$GNGGA,180444.30,4138.0581313,N,07032.3037961,W,1,24,0.6,13.247,M,-29.743,M,0.0,*59
###2023-12-09 13:04:45.366481$GNGGA,180444.50,4138.0581564,N,07032.3035611,W,1,24,0.6,13.267,M,-29.743,M,0.0,*51
###2023-12-09 13:04:45.566525$GNGGA,180444.70,4138.0581401,N,07032.3033121,W,1,24,0.6,13.248,M,-29.743,M,0.0,*5E
###2023-12-09 13:04:45.766697$GNGGA,180444.90,4138.0581253,N,07032.3030828,W,1,24,0.6,13.256,M,-29.743,M,0.0,*5D
###2023-12-09 13:04:45.967788$GNRMC,180445.10,A,4138.0581349,N,07032.3028391,W,3.50,87.03,091223,,,A*66
###2023-12-09 13:04:45.970663$GNGGA,180445.10,4138.0581349,N,07032.3028391,W,1,24,0.6,13.286,M,-29.743,M,0.0,*53
###2023-12-09 13:04:45.972531$GPGSA,A,3,03,04,16,26,28,29,31,32,,,,,1.1,0.6,0.9*3B
###2023-12-09 13:04:45.974240$GLGSA,A,3,65,71,72,73,74,75,,,,,,,1.1,0.6,0.9*24
###2023-12-09 13:04:45.975823$GAGSA,A,3,04,19,21,27,,,,,,,,,1.1,0.6,0.9*26
###2023-12-09 13:04:45.977457$GBGSA,A,3,14,24,25,26,33,,,,,,,,1.1,0.6,0.9*2F
###2023-12-09 13:04:45.979781$GPGSV,2,1,08,03,34,260,45,04,33,311,43,16,51,213,48,26,81,210,48*7E
###2023-12-09 13:04:45.982103$GPGSV,2,2,08,28,48,071,44,29,25,060,42,31,68,040,47,32,18,140,42*7D
###2023-12-09 13:04:45.984436$GLGSV,2,1,06,65,26,327,41,71,39,173,46,72,73,261,46,73,34,043,44*6D
###2023-12-09 13:04:45.986173$GLGSV,2,2,06,74,69,340,43,75,33,254,47,,,,,,,,*6D
###2023-12-09 13:04:45.988496$GAGSV,1,1,04,04,30,312,41,19,83,207,40,21,86,104,46,27,32,048,43*69
###2023-12-09 13:04:45.990835$GBGSV,2,1,05,14,42,192,46,24,72,028,49,25,42,263,47,26,25,063,44*61
###2023-12-09 13:04:45.992283$GBGSV,2,2,05,33,56,230,49,,,,,,,,,,,,*51
###2023-12-09 13:04:45.993566$GNVTG,87.03,T,,M,3.50,N,6.48,K,A*13
###2023-12-09 13:04:45.995286$GNGST,180445.10,18.000,,,,0.081,0.067,0.160*5C
###2023-12-09 13:04:45.996583$GNZDA,180445.10,09,12,2023,00,00*7C
###2023-12-09 13:04:45.997219$GNEBP,,,,,,M*13
###2023-12-09 13:04:46.166277$GNGGA,180445.30,4138.0581267,N,07032.3025803,W,1,24,0.6,13.240,M,-29.743,M,0.0,*5B
###2023-12-09 13:04:46.366214$GNGGA,180445.50,4138.0581299,N,07032.3023435,W,1,24,0.6,13.230,M,-29.743,M,0.0,*54
###2023-12-09 13:04:46.566441$GNGGA,180445.70,4138.0581571,N,07032.3020985,W,1,24,0.6,13.273,M,-29.743,M,0.0,*55
###2023-12-09 13:04:46.769300$GNGGA,180445.90,4138.0581391,N,07032.3018345,W,1,24,0.6,13.249,M,-29.743,M,0.0,*57
###2023-12-09 13:04:46.970818$GNRMC,180446.10,A,4138.0581384,N,07032.3015908,W,3.29,78.88,091223,,,A*6D
###2023-12-09 13:04:46.973673$GNGGA,180446.10,4138.0581384,N,07032.3015908,W,1,24,0.6,13.234,M,-29.743,M,0.0,*5C
###2023-12-09 13:04:46.975534$GPGSA,A,3,03,04,16,26,28,29,31,32,,,,,1.1,0.6,0.9*3B
###2023-12-09 13:04:46.977238$GLGSA,A,3,65,71,72,73,74,75,,,,,,,1.1,0.6,0.9*24
###2023-12-09 13:04:46.978820$GAGSA,A,3,04,19,21,27,,,,,,,,,1.1,0.6,0.9*26
###2023-12-09 13:04:46.980455$GBGSA,A,3,14,24,25,26,33,,,,,,,,1.1,0.6,0.9*2F
###2023-12-09 13:04:46.982781$GPGSV,2,1,08,03,34,260,46,04,33,311,42,16,51,213,48,26,81,210,49*7D
###2023-12-09 13:04:46.985109$GPGSV,2,2,08,28,48,071,44,29,25,060,41,31,68,040,47,32,18,140,44*78
###2023-12-09 13:04:46.987473$GLGSV,2,1,06,65,26,327,40,71,39,173,47,72,73,261,46,73,34,043,44*6D
###2023-12-09 13:04:46.989218$GLGSV,2,2,06,74,69,343,43,75,33,254,47,,,,,,,,*6E
###2023-12-09 13:04:46.991545$GAGSV,1,1,04,04,30,312,40,19,83,207,40,21,86,104,46,27,32,048,42*69
###2023-12-09 13:04:46.993865$GBGSV,2,1,05,14,42,192,47,24,72,028,48,25,42,263,47,26,25,063,42*67
###2023-12-09 13:04:46.995357$GBGSV,2,2,05,33,56,230,48,,,,,,,,,,,,*50
###2023-12-09 13:04:46.996648$GNVTG,78.88,T,,M,3.29,N,6.08,K,A*1A
###2023-12-09 13:04:46.998292$GNGST,180446.10,18.000,,,,0.081,0.066,0.160*5E
###2023-12-09 13:04:46.999593$GNZDA,180446.10,09,12,2023,00,00*7F
###2023-12-09 13:04:47.000230$GNEBP,,,,,,M*13
###2023-12-09 13:04:47.166665$GNGGA,180446.30,4138.0581809,N,07032.3013438,W,1,24,0.6,13.270,M,-29.743,M,0.0,*58
###2023-12-09 13:04:47.367239$GNGGA,180446.50,4138.0581865,N,07032.3010791,W,1,24,0.6,13.235,M,-29.743,M,0.0,*56
###2023-12-09 13:04:47.566463$GNGGA,180446.70,4138.0581840,N,07032.3008351,W,1,24,0.6,13.230,M,-29.743,M,0.0,*57
###2023-12-09 13:04:47.767075$GNGGA,180446.90,4138.0582099,N,07032.3005837,W,1,24,0.6,13.273,M,-29.743,M,0.0,*57
###2023-12-09 13:04:47.974312$GNRMC,180447.10,A,4138.0582129,N,07032.3003206,W,3.46,92.69,091223,,,A*6A
###2023-12-09 13:04:47.977207$GNGGA,180447.10,4138.0582129,N,07032.3003206,W,1,24,0.6,13.243,M,-29.743,M,0.0,*59
###2023-12-09 13:04:47.979109$GPGSA,A,3,03,04,16,26,28,29,31,32,,,,,1.1,0.6,0.9*3B
###2023-12-09 13:04:47.980832$GLGSA,A,3,65,71,72,73,74,75,,,,,,,1.1,0.6,0.9*24
###2023-12-09 13:04:47.982411$GAGSA,A,3,04,19,21,27,,,,,,,,,1.1,0.6,0.9*26
###2023-12-09 13:04:47.984063$GBGSA,A,3,14,24,25,26,33,,,,,,,,1.1,0.6,0.9*2F
###2023-12-09 13:04:47.986386$GPGSV,2,1,08,03,34,260,46,04,33,311,42,16,51,213,48,26,81,210,49*7D
###2023-12-09 13:04:47.988728$GPGSV,2,2,08,28,48,071,44,29,25,060,42,31,68,040,48,32,18,140,43*73
###2023-12-09 13:04:47.991064$GLGSV,2,1,06,65,26,327,40,71,39,173,47,72,73,261,47,73,34,043,44*6C
###2023-12-09 13:04:47.992799$GLGSV,2,2,06,74,69,343,43,75,33,255,48,,,,,,,,*60
###2023-12-09 13:04:47.995123$GAGSV,1,1,04,04,30,312,41,19,83,207,41,21,86,104,46,27,32,048,43*68
###2023-12-09 13:04:47.997447$GBGSV,2,1,05,14,42,192,46,24,72,028,48,25,42,263,46,26,25,063,43*66
###2023-12-09 13:04:47.998907$GBGSV,2,2,05,33,56,230,48,,,,,,,,,,,,*50
###2023-12-09 13:04:48.000196$GNVTG,92.69,T,,M,3.46,N,6.41,K,A*15
###2023-12-09 13:04:48.001839$GNGST,180447.10,18.000,,,,0.081,0.066,0.160*5F
###2023-12-09 13:04:48.003136$GNZDA,180447.10,09,12,2023,00,00*7E
###2023-12-09 13:04:48.003776$GNEBP,,,,,,M*13
###2023-12-09 13:04:48.166668$GNGGA,180447.30,4138.0582075,N,07032.3000713,W,1,24,0.6,13.228,M,-29.743,M,0.0,*5C
###2023-12-09 13:04:48.367557$GNGGA,180447.50,4138.0582138,N,07032.2998188,W,1,24,0.6,13.256,M,-29.743,M,0.0,*56
###2023-12-09 13:04:48.567713$GNGGA,180447.70,4138.0582034,N,07032.2995544,W,1,24,0.6,13.238,M,-29.743,M,0.0,*58
###2023-12-09 13:04:48.768293$GNGGA,180447.90,4138.0581959,N,07032.2993040,W,1,24,0.6,13.233,M,-29.743,M,0.0,*5B
###2023-12-09 13:04:48.968945$GNRMC,180448.10,A,4138.0582015,N,07032.2990537,W,3.52,90.57,091223,,,A*66
###2023-12-09 13:04:48.971847$GNGGA,180448.10,4138.0582015,N,07032.2990537,W,1,24,0.6,13.259,M,-29.743,M,0.0,*54
###2023-12-09 13:04:48.973973$GPGSA,A,3,03,04,16,26,28,29,31,32,,,,,1.1,0.6,0.9*3B
###2023-12-09 13:04:48.975720$GLGSA,A,3,65,71,72,73,74,75,,,,,,,1.1,0.6,0.9*24
###2023-12-09 13:04:48.977305$GAGSA,A,3,04,19,21,27,,,,,,,,,1.1,0.6,0.9*26
###2023-12-09 13:04:48.978965$GBGSA,A,3,14,24,25,26,33,,,,,,,,1.1,0.6,0.9*2F
###2023-12-09 13:04:48.981294$GPGSV,2,1,08,03,34,260,46,04,33,311,43,16,51,213,48,26,81,210,49*7C
###2023-12-09 13:04:48.983642$GPGSV,2,2,08,28,48,071,44,29,25,060,42,31,68,040,47,32,18,140,42*7D
###2023-12-09 13:04:48.985976$GLGSV,2,1,06,65,26,327,41,71,39,173,46,72,73,261,46,73,34,043,44*6D
###2023-12-09 13:04:48.987732$GLGSV,2,2,06,74,69,343,43,75,33,255,47,,,,,,,,*6F
###2023-12-09 13:04:48.990065$GAGSV,1,1,04,04,30,312,40,19,83,207,41,21,86,104,46,27,32,048,42*68
###2023-12-09 13:04:48.992407$GBGSV,2,1,05,14,42,192,46,24,72,028,49,25,42,263,46,26,25,063,43*67
