###2023-12-09 13:21:05.017290$GNEBP,,,,,,M*13
###2023-12-09 13:21:05.197040$GNGGA,182104.30,4138.0244442,N,07032.3387027,W,1,24,0.7,12.876,M,-29.745,M,0.0,*5A
###2023-12-09 13:21:05.386649$GNGGA,182104.50,4138.0245284,N,07032.3389022,W,1,24,0.7,12.881,M,-29.745,M,0.0,*52
###2023-12-09 13:21:05.583244$GNGGA,182104.70,4138.0246089,N,07032.3391063,W,1,24,0.7,12.888,M,-29.745,M,0.0,*59
###2023-12-09 13:21:05.785592$GNGGA,182104.90,4138.0246830,N,07032.3393198,W,1,24,0.7,12.897,M,-29.745,M,0.0,*54
###2023-12-09 13:21:05.987612$GNRMC,182105.10,A,4138.0247462,N,07032.3395421,W,3.23,287.79,091223,,,A*54
###2023-12-09 13:21:05.991073$GNGGA,182105.10,4138.0247462,N,07032.3395421,W,1,24,0.7,12.899,M,-29.745,M,0.0,*58
###2023-12-09 13:21:05.993230$GPGSA,A,3,03,04,16,26,28,29,31,,,,,,1.1,0.7,0.9*3B
###2023-12-09 13:21:05.995306$GLGSA,A,3,65,71,72,73,74,75,,,,,,,1.1,0.7,0.9*25
###2023-12-09 13:21:05.997214$GAGSA,A,3,04,19,21,27,,,,,,,,,1.1,0.7,0.9*27
###2023-12-09 13:21:05.999289$GBGSA,A,3,14,24,25,26,33,35,,,,,,,1.1,0.7,0.9*28
###2023-12-09 13:21:06.002112$GPGSV,2,1,07,03,30,252,40,04,41,310,43,16,59,217,46,26,89,196,48*72
###2023-12-09 13:21:06.004597$GPGSV,2,2,07,28,43,079,45,29,23,053,41,31,64,055,47,,,,*46
###2023-12-09 13:21:06.007408$GLGSV,2,1,06,65,33,323,42,71,30,174,45,72,69,234,45,73,27,048,42*64
###2023-12-09 13:21:06.009511$GLGSV,2,2,06,74,64,002,42,75,39,263,44,,,,,,,,*69
###2023-12-09 13:21:06.012329$GAGSV,1,1,04,04,35,311,42,19,77,186,41,21,81,055,46,27,27,049,41*69
###2023-12-09 13:21:06.015146$GBGSV,2,1,06,14,35,191,44,24,67,039,49,25,47,270,44,26,20,067,42*64
###2023-12-09 13:21:06.017245$GBGSV,2,2,06,33,51,222,48,35,16,062,41,,,,,,,,*67
###2023-12-09 13:21:06.018848$GNVTG,287.79,T,,M,3.23,N,5.98,K,A*26
###2023-12-09 13:21:06.020826$GNGST,182105.10,18.000,,,,0.099,0.072,0.170*53
###2023-12-09 13:21:06.022373$GNZDA,182105.10,09,12,2023,00,00*7F
###2023-12-09 13:21:06.023163$GNEBP,,,,,,M*13
###2023-12-09 13:21:06.184140$GNGGA,182105.30,4138.0248030,N,07032.3397688,W,1,24,0.7,12.907,M,-29.745,M,0.0,*53
###2023-12-09 13:21:06.383766$GNGGA,182105.50,4138.0248577,N,07032.3400020,W,1,24,0.7,12.914,M,-29.745,M,0.0,*5C
###2023-12-09 13:21:06.583681$GNGGA,182105.70,4138.0249009,N,07032.3402399,W,1,24,0.7,12.920,M,-29.745,M,0.0,*57
###2023-12-09 13:21:06.785600$GNGGA,182105.90,4138.0249275,N,07032.3404825,W,1,24,0.7,12.926,M,-29.745,M,0.0,*5C
###2023-12-09 13:21:06.989054$GNRMC,182106.10,A,4138.0249518,N,07032.3407300,W,3.40,278.06,091223,,,A*50
###2023-12-09 13:21:06.992514$GNGGA,182106.10,4138.0249518,N,07032.3407300,W,1,24,0.7,12.926,M,-29.745,M,0.0,*54
###2023-12-09 13:21:06.994718$GPGSA,A,3,03,04,16,26,28,29,31,,,,,,1.1,0.7,0.9*3B
###2023-12-09 13:21:06.996783$GLGSA,A,3,65,71,72,73,74,75,,,,,,,1.1,0.7,0.9*25
###2023-12-09 13:21:06.998697$GAGSA,A,3,04,19,21,27,,,,,,,,,1.1,0.7,0.9*27
###2023-12-09 13:21:07.000764$GBGSA,A,3,14,24,25,26,33,35,,,,,,,1.1,0.7,0.9*28
###2023-12-09 13:21:07.003596$GPGSV,2,1,07,03,30,252,41,04,41,310,43,16,59,217,45,26,89,196,48*70
###2023-12-09 13:21:07.006051$GPGSV,2,2,07,28,43,079,45,29,23,053,40,31,64,055,47,,,,*47
###2023-12-09 13:21:07.008867$GLGSV,2,1,06,65,33,323,41,71,30,174,45,72,69,234,45,73,27,048,41*64
###2023-12-09 13:21:07.010980$GLGSV,2,2,06,74,64,002,43,75,39,263,43,,,,,,,,*6F
###2023-12-09 13:21:07.013773$GAGSV,1,1,04,04,35,311,43,19,77,186,41,21,81,055,46,27,27,049,39*67
###2023-12-09 13:21:07.016581$GBGSV,2,1,06,14,35,191,42,24,67,039,48,25,47,270,43,26,20,067,41*67
###2023-12-09 13:21:07.018704$GBGSV,2,2,06,33,51,222,46,35,16,062,41,,,,,,,,*69
###2023-12-09 13:21:07.020304$GNVTG,278.06,T,,M,3.40,N,6.30,K,A*2A
###2023-12-09 13:21:07.022280$GNGST,182106.10,18.000,,,,0.100,0.072,0.170*51
###2023-12-09 13:21:07.023847$GNZDA,182106.10,09,12,2023,00,00*7C
###2023-12-09 13:21:07.024618$GNEBP,,,,,,M*13
###2023-12-09 13:21:07.183097$GNGGA,182106.30,4138.0249829,N,07032.3409807,W,1,24,0.7,12.930,M,-29.745,M,0.0,*5C
###2023-12-09 13:21:07.383961$GNGGA,182106.50,4138.0250190,N,07032.3412353,W,1,24,0.7,12.933,M,-29.745,M,0.0,*5A
###2023-12-09 13:21:07.583321$GNGGA,182106.70,4138.0250437,N,07032.3414915,W,1,24,0.7,12.929,M,-29.745,M,0.0,*55
###2023-12-09 13:21:07.783557$GNGGA,182106.90,4138.0250664,N,07032.3417525,W,1,24,0.7,12.936,M,-29.745,M,0.0,*5D
###2023-12-09 13:21:08.000452$GNRMC,182107.10,A,4138.0250997,N,07032.3420121,W,3.65,282.62,091223,,,A*56
###2023-12-09 13:21:08.003331$GNGGA,182107.10,4138.0250997,N,07032.3420121,W,1,24,0.7,12.941,M,-29.745,M,0.0,*53
###2023-12-09 13:21:08.005126$GPGSA,A,3,03,04,16,26,28,29,31,,,,,,1.1,0.7,0.9*3B
###2023-12-09 13:21:08.006854$GLGSA,A,3,65,71,72,73,74,75,,,,,,,1.1,0.7,0.9*25
###2023-12-09 13:21:08.008432$GAGSA,A,3,04,19,21,27,,,,,,,,,1.1,0.7,0.9*27
###2023-12-09 13:21:08.010138$GBGSA,A,3,14,24,25,26,33,35,,,,,,,1.1,0.7,0.9*28
###2023-12-09 13:21:08.012478$GPGSV,2,1,07,03,30,252,41,04,41,310,42,16,59,217,45,26,89,196,48*71
###2023-12-09 13:21:08.014520$GPGSV,2,2,07,28,43,079,45,29,23,053,40,31,64,055,47,,,,*47
###2023-12-09 13:21:08.016861$GLGSV,2,1,06,65,33,323,41,71,30,174,44,72,69,234,46,73,27,048,42*65
###2023-12-09 13:21:08.018617$GLGSV,2,2,06,74,64,002,43,75,39,263,44,,,,,,,,*68
###2023-12-09 13:21:08.020947$GAGSV,1,1,04,04,35,311,42,19,77,186,40,21,81,055,46,27,27,049,40*69
###2023-12-09 13:21:08.023288$GBGSV,2,1,06,14,35,191,44,24,67,039,49,25,47,270,46,26,20,067,42*66
###2023-12-09 13:21:08.025039$GBGSV,2,2,06,33,51,222,47,35,16,062,42,,,,,,,,*6B
###2023-12-09 13:21:08.026367$GNVTG,282.62,T,,M,3.65,N,6.77,K,A*29
###2023-12-09 13:21:08.028032$GNGST,182107.10,18.000,,,,0.100,0.073,0.170*51
###2023-12-09 13:21:08.029321$GNZDA,182107.10,09,12,2023,00,00*7D
###2023-12-09 13:21:08.029959$GNEBP,,,,,,M*13
###2023-12-09 13:21:08.183995$GNGGA,182107.30,4138.0251444,N,07032.3422702,W,1,24,0.7,12.948,M,-29.745,M,0.0,*5F
###2023-12-09 13:21:08.382749$GNGGA,182107.50,4138.0251930,N,07032.3425276,W,1,24,0.7,12.953,M,-29.745,M,0.0,*5C
###2023-12-09 13:21:08.586951$GNGGA,182107.70,4138.0252421,N,07032.3427827,W,1,24,0.7,12.961,M,-29.745,M,0.0,*5D
###2023-12-09 13:21:08.783468$GNGGA,182107.90,4138.0252931,N,07032.3430341,W,1,24,0.7,12.961,M,-29.745,M,0.0,*52
###2023-12-09 13:21:08.994071$GNRMC,182108.10,A,4138.0253578,N,07032.3432768,W,3.44,291.48,091223,,,A*56
###2023-12-09 13:21:08.996961$GNGGA,182108.10,4138.0253578,N,07032.3432768,W,1,24,0.7,12.963,M,-29.745,M,0.0,*5A
###2023-12-09 13:21:08.998775$GPGSA,A,3,03,04,16,26,28,29,31,,,,,,1.1,0.7,0.9*3B
###2023-12-09 13:21:09.000490$GLGSA,A,3,65,71,72,73,74,75,,,,,,,1.1,0.7,0.9*25
###2023-12-09 13:21:09.002067$GAGSA,A,3,04,19,21,27,,,,,,,,,1.1,0.7,0.9*27
###2023-12-09 13:21:09.003787$GBGSA,A,3,14,24,25,26,33,35,,,,,,,1.1,0.7,0.9*28
###2023-12-09 13:21:09.006108$GPGSV,2,1,07,03,30,252,42,04,41,310,42,16,59,217,45,26,89,196,48*72
###2023-12-09 13:21:09.008149$GPGSV,2,2,07,28,43,079,44,29,23,053,42,31,64,055,47,,,,*44
###2023-12-09 13:21:09.010472$GLGSV,2,1,06,65,33,323,41,71,30,174,44,72,69,234,45,73,27,048,44*60
###2023-12-09 13:21:09.012231$GLGSV,2,2,06,74,64,002,42,75,39,263,46,,,,,,,,*6B
###2023-12-09 13:21:09.014560$GAGSV,1,1,04,04,35,311,42,19,77,186,40,21,81,055,46,27,27,049,41*68
###2023-12-09 13:21:09.016889$GBGSV,2,1,06,14,35,191,44,24,67,039,49,25,47,270,47,26,20,067,42*67
###2023-12-09 13:21:09.018643$GBGSV,2,2,06,33,51,222,47,35,16,062,42,,,,,,,,*6B
###2023-12-09 13:21:09.019963$GNVTG,291.48,T,,M,3.44,N,6.37,K,A*24
###2023-12-09 13:21:09.021600$GNGST,182108.10,18.000,,,,0.100,0.073,0.170*5E
###2023-12-09 13:21:09.022898$GNZDA,182108.10,09,12,2023,00,00*72
###2023-12-09 13:21:09.023538$GNEBP,,,,,,M*13
###2023-12-09 13:21:09.185012$GNGGA,182108.30,4138.0254317,N,07032.3435132,W,1,24,0.7,12.968,M,-29.745,M,0.0,*55
###2023-12-09 13:21:09.382833$GNGGA,182108.50,4138.0255102,N,07032.3437411,W,1,24,0.7,12.975,M,-29.745,M,0.0,*5E
###2023-12-09 13:21:09.583718$GNGGA,182108.70,4138.0255936,N,07032.3439628,W,1,24,0.7,12.979,M,-29.745,M,0.0,*59
###2023-12-09 13:21:09.783658$GNGGA,182108.90,4138.0256864,N,07032.3441760,W,1,24,0.7,12.984,M,-29.745,M,0.0,*52
###2023-12-09 13:21:09.987152$GNRMC,182109.10,A,4138.0257877,N,07032.3443811,W,3.29,304.67,091223,,,A*5D
###2023-12-09 13:21:09.990240$GNGGA,182109.10,4138.0257877,N,07032.3443811,W,1,24,0.7,12.993,M,-29.745,M,0.0,*55
###2023-12-09 13:21:09.992054$GPGSA,A,3,03,04,16,26,28,29,31,,,,,,1.1,0.7,0.9*3B
###2023-12-09 13:21:09.993767$GLGSA,A,3,65,71,72,73,74,75,,,,,,,1.1,0.7,0.9*25
###2023-12-09 13:21:09.995366$GAGSA,A,3,04,19,21,27,,,,,,,,,1.1,0.7,0.9*27
###2023-12-09 13:21:09.997077$GBGSA,A,3,14,24,25,26,33,35,,,,,,,1.1,0.7,0.9*28
###2023-12-09 13:21:09.999405$GPGSV,2,1,07,03,30,252,43,04,41,310,42,16,59,217,47,26,89,196,48*71
###2023-12-09 13:21:10.001446$GPGSV,2,2,07,28,43,079,45,29,23,053,43,31,64,055,47,,,,*44
###2023-12-09 13:21:10.003776$GLGSV,2,1,06,65,33,323,41,71,30,174,43,72,69,234,45,73,27,048,44*67
###2023-12-09 13:21:10.005516$GLGSV,2,2,06,74,64,002,42,75,39,263,45,,,,,,,,*68
###2023-12-09 13:21:10.007842$GAGSV,1,1,04,04,35,311,42,19,77,186,40,21,81,055,46,27,27,049,42*6B
