###2023-12-09 13:27:21.790979$GNGGA,182720.90,4138.0562678,N,07032.4023916,W,1,24,0.6,13.100,M,-29.744,M,0.0,*50
###2023-12-09 13:27:21.993370$GNRMC,182721.10,A,4138.0561305,N,07032.4025990,W,3.77,231.74,091223,,,A*58
###2023-12-09 13:27:21.996259$GNGGA,182721.10,4138.0561305,N,07032.4025990,W,1,24,0.6,13.092,M,-29.744,M,0.0,*57
###2023-12-09 13:27:21.998062$GPGSA,A,3,03,04,16,26,28,29,31,,,,,,1.1,0.6,0.9*3A
###2023-12-09 13:27:21.999802$GLGSA,A,3,65,71,72,73,74,75,,,,,,,1.1,0.6,0.9*24
###2023-12-09 13:27:22.001394$GAGSA,A,3,04,19,21,27,,,,,,,,,1.1,0.6,0.9*26
###2023-12-09 13:27:22.003120$GBGSA,A,3,14,24,25,26,33,35,,,,,,,1.1,0.6,0.9*29
###2023-12-09 13:27:22.005455$GPGSV,2,1,07,03,28,249,39,04,43,309,44,16,63,220,45,26,88,044,48*73
###2023-12-09 13:27:22.007513$GPGSV,2,2,07,28,41,081,45,29,22,050,42,31,62,060,46,,,,*43
###2023-12-09 13:27:22.009836$GLGSV,2,1,06,65,35,321,44,71,26,175,44,72,66,227,45,73,25,050,44*61
###2023-12-09 13:27:22.011595$GLGSV,2,2,06,74,62,008,43,75,41,267,45,,,,,,,,*6E
###2023-12-09 13:27:22.013925$GAGSV,1,1,04,04,37,311,42,19,75,184,40,21,80,050,46,27,25,049,40*6D
###2023-12-09 13:27:22.016262$GBGSV,2,1,06,14,32,190,41,24,65,042,49,25,49,273,46,26,18,069,44*65
###2023-12-09 13:27:22.018007$GBGSV,2,2,06,33,48,220,45,35,16,059,45,,,,,,,,*6C
###2023-12-09 13:27:22.019348$GNVTG,231.74,T,,M,3.77,N,6.98,K,A*24
###2023-12-09 13:27:22.020991$GNGST,182721.10,18.000,,,,0.100,0.071,0.160*50
###2023-12-09 13:27:22.022279$GNZDA,182721.10,09,12,2023,00,00*7F
###2023-12-09 13:27:22.022931$GNEBP,,,,,,M*13
###2023-12-09 13:27:22.189099$GNGGA,182721.30,4138.0559967,N,07032.4028150,W,1,24,0.6,13.104,M,-29.745,M,0.0,*56
###2023-12-09 13:27:22.388097$GNGGA,182721.50,4138.0558471,N,07032.4030142,W,1,24,0.6,13.098,M,-29.745,M,0.0,*55
###2023-12-09 13:27:22.589349$GNGGA,182721.70,4138.0556962,N,07032.4032090,W,1,24,0.6,13.098,M,-29.745,M,0.0,*5A
###2023-12-09 13:27:22.789764$GNGGA,182721.90,4138.0555573,N,07032.4034210,W,1,24,0.6,13.098,M,-29.745,M,0.0,*57
###2023-12-09 13:27:22.994220$GNRMC,182722.10,A,4138.0554364,N,07032.4036503,W,3.77,239.40,091223,,,A*51
###2023-12-09 13:27:22.997112$GNGGA,182722.10,4138.0554364,N,07032.4036503,W,1,24,0.6,13.097,M,-29.745,M,0.0,*55
###2023-12-09 13:27:22.998925$GPGSA,A,3,03,04,16,26,28,29,31,,,,,,1.1,0.6,0.9*3A
###2023-12-09 13:27:23.000646$GLGSA,A,3,65,71,72,73,74,75,,,,,,,1.1,0.6,0.9*24
###2023-12-09 13:27:23.002229$GAGSA,A,3,04,19,21,27,,,,,,,,,1.1,0.6,0.9*26
###2023-12-09 13:27:23.003950$GBGSA,A,3,14,24,25,26,33,35,,,,,,,1.1,0.6,0.9*29
###2023-12-09 13:27:23.006287$GPGSV,2,1,07,03,28,249,42,04,43,309,44,16,63,220,45,26,88,044,48*7F
###2023-12-09 13:27:23.008346$GPGSV,2,2,07,28,41,081,44,29,22,050,43,31,62,060,47,,,,*42
###2023-12-09 13:27:23.010703$GLGSV,2,1,06,65,35,321,41,71,26,175,45,72,66,227,44,73,25,050,42*62
###2023-12-09 13:27:23.012461$GLGSV,2,2,06,74,62,008,43,75,41,267,44,,,,,,,,*6F
###2023-12-09 13:27:23.014806$GAGSV,1,1,04,04,37,311,41,19,75,184,40,21,80,050,46,27,25,049,40*6E
###2023-12-09 13:27:23.017141$GBGSV,2,1,06,14,32,190,43,24,65,042,48,25,49,273,45,26,18,069,43*62
###2023-12-09 13:27:23.018902$GBGSV,2,2,06,33,48,220,45,35,16,059,44,,,,,,,,*6D
###2023-12-09 13:27:23.020234$GNVTG,239.40,T,,M,3.77,N,6.98,K,A*2B
###2023-12-09 13:27:23.021891$GNGST,182722.10,18.000,,,,0.100,0.071,0.160*53
###2023-12-09 13:27:23.023236$GNZDA,182722.10,09,12,2023,00,00*7C
###2023-12-09 13:27:23.023877$GNEBP,,,,,,M*13
###2023-12-09 13:27:23.188643$GNGGA,182722.30,4138.0553294,N,07032.4038862,W,1,24,0.6,13.107,M,-29.745,M,0.0,*52
###2023-12-09 13:27:23.388937$GNGGA,182722.50,4138.0552232,N,07032.4041148,W,1,24,0.6,13.103,M,-29.745,M,0.0,*52
###2023-12-09 13:27:23.590401$GNGGA,182722.70,4138.0551239,N,07032.4043413,W,1,24,0.6,13.084,M,-29.745,M,0.0,*5F
###2023-12-09 13:27:23.789992$GNGGA,182722.90,4138.0550416,N,07032.4045728,W,1,24,0.6,13.071,M,-29.745,M,0.0,*5C
###2023-12-09 13:27:23.994871$GNRMC,182723.10,A,4138.0549653,N,07032.4047960,W,3.27,245.57,091223,,,A*5A
###2023-12-09 13:27:23.997739$GNGGA,182723.10,4138.0549653,N,07032.4047960,W,1,24,0.6,13.059,M,-29.745,M,0.0,*54
###2023-12-09 13:27:23.999543$GPGSA,A,3,03,04,16,26,28,29,31,,,,,,1.1,0.6,0.9*3A
###2023-12-09 13:27:24.001265$GLGSA,A,3,65,71,72,73,74,75,,,,,,,1.1,0.6,0.9*24
###2023-12-09 13:27:24.002863$GAGSA,A,3,04,19,21,27,,,,,,,,,1.1,0.6,0.9*26
###2023-12-09 13:27:24.004580$GBGSA,A,3,14,24,25,26,33,35,,,,,,,1.1,0.6,0.9*29
###2023-12-09 13:27:24.006931$GPGSV,2,1,07,03,28,249,40,04,43,309,43,16,63,220,46,26,88,044,48*79
###2023-12-09 13:27:24.008978$GPGSV,2,2,07,28,41,081,45,29,22,050,43,31,62,060,47,,,,*43
###2023-12-09 13:27:24.011324$GLGSV,2,1,06,65,35,321,41,71,26,175,45,72,66,227,45,73,25,050,41*60
###2023-12-09 13:27:24.013083$GLGSV,2,2,06,74,62,008,43,75,41,267,45,,,,,,,,*6E
###2023-12-09 13:27:24.015424$GAGSV,1,1,04,04,37,311,41,19,75,184,40,21,80,050,46,27,25,049,40*6E
###2023-12-09 13:27:24.017768$GBGSV,2,1,06,14,32,190,42,24,65,042,48,25,49,273,45,26,18,069,44*64
###2023-12-09 13:27:24.019546$GBGSV,2,2,06,33,48,220,46,35,16,059,45,,,,,,,,*6F
###2023-12-09 13:27:24.020915$GNVTG,245.57,T,,M,3.27,N,6.05,K,A*27
###2023-12-09 13:27:24.022654$GNGST,182723.10,18.000,,,,0.100,0.071,0.160*52
###2023-12-09 13:27:24.023964$GNZDA,182723.10,09,12,2023,00,00*7D
###2023-12-09 13:27:24.024605$GNEBP,,,,,,M*13
###2023-12-09 13:27:24.190940$GNGGA,182723.30,4138.0548972,N,07032.4050161,W,1,24,0.6,13.060,M,-29.745,M,0.0,*5E
###2023-12-09 13:27:24.387824$GNGGA,182723.50,4138.0548401,N,07032.4052423,W,1,24,0.6,13.071,M,-29.745,M,0.0,*50
###2023-12-09 13:27:24.588870$GNGGA,182723.70,4138.0547849,N,07032.4054774,W,1,24,0.6,13.074,M,-29.745,M,0.0,*5F
###2023-12-09 13:27:24.788610$GNGGA,182723.90,4138.0547203,N,07032.4057167,W,1,24,0.6,13.072,M,-29.745,M,0.0,*54
###2023-12-09 13:27:24.992422$GNRMC,182724.10,A,4138.0546435,N,07032.4059586,W,3.56,245.88,091223,,,A*5F
###2023-12-09 13:27:24.995299$GNGGA,182724.10,4138.0546435,N,07032.4059586,W,1,24,0.6,13.069,M,-29.745,M,0.0,*56
###2023-12-09 13:27:24.997102$GPGSA,A,3,03,04,16,26,28,29,31,,,,,,1.1,0.6,0.9*3A
###2023-12-09 13:27:24.998832$GLGSA,A,3,65,71,72,73,74,75,,,,,,,1.1,0.6,0.9*24
###2023-12-09 13:27:25.000418$GAGSA,A,3,04,19,21,27,,,,,,,,,1.1,0.6,0.9*26
###2023-12-09 13:27:25.002132$GBGSA,A,3,14,24,25,26,33,35,,,,,,,1.1,0.6,0.9*29
###2023-12-09 13:27:25.004482$GPGSV,2,1,07,03,28,249,41,04,43,309,44,16,63,220,46,26,88,044,48*7F
###2023-12-09 13:27:25.006529$GPGSV,2,2,07,28,41,081,43,29,22,050,45,31,62,060,46,,,,*42
###2023-12-09 13:27:25.008877$GLGSV,2,1,06,65,35,321,43,71,26,175,44,72,66,227,45,73,25,050,44*66
###2023-12-09 13:27:25.010669$GLGSV,2,2,06,74,62,008,43,75,41,267,46,,,,,,,,*6D
###2023-12-09 13:27:25.013005$GAGSV,1,1,04,04,37,311,43,19,75,184,40,21,80,050,46,27,25,049,41*6D
###2023-12-09 13:27:25.015345$GBGSV,2,1,06,14,32,190,42,24,65,042,47,25,49,273,43,26,18,069,43*6A
###2023-12-09 13:27:25.017094$GBGSV,2,2,06,33,48,220,46,35,16,059,44,,,,,,,,*6E
###2023-12-09 13:27:25.018418$GNVTG,245.88,T,,M,3.56,N,6.59,K,A*2A
###2023-12-09 13:27:25.020072$GNGST,182724.10,18.000,,,,0.100,0.071,0.160*55
###2023-12-09 13:27:25.021362$GNZDA,182724.10,09,12,2023,00,00*7A
###2023-12-09 13:27:25.022002$GNEBP,,,,,,M*13
###2023-12-09 13:27:25.188695$GNGGA,182724.30,4138.0545597,N,07032.4062044,W,1,24,0.6,13.069,M,-29.745,M,0.0,*5D
###2023-12-09 13:27:25.388959$GNGGA,182724.50,4138.0544628,N,07032.4064450,W,1,24,0.6,13.062,M,-29.745,M,0.0,*51
###2023-12-09 13:27:25.588453$GNGGA,182724.70,4138.0543506,N,07032.4066755,W,1,24,0.6,13.051,M,-29.745,M,0.0,*5F
###2023-12-09 13:27:25.788809$GNGGA,182724.90,4138.0542321,N,07032.4069047,W,1,24,0.6,13.049,M,-29.745,M,0.0,*51
###2023-12-09 13:27:25.994076$GNRMC,182725.10,A,4138.0541082,N,07032.4071326,W,3.77,231.19,091223,,,A*5F
###2023-12-09 13:27:25.996962$GNGGA,182725.10,4138.0541082,N,07032.4071326,W,1,24,0.6,13.055,M,-29.745,M,0.0,*51
###2023-12-09 13:27:25.998763$GPGSA,A,3,03,04,16,26,28,29,31,,,,,,1.1,0.6,0.9*3A
###2023-12-09 13:27:26.000481$GLGSA,A,3,65,71,72,73,74,75,,,,,,,1.1,0.6,0.9*24
###2023-12-09 13:27:26.002061$GAGSA,A,3,04,19,21,27,,,,,,,,,1.1,0.6,0.9*26
###2023-12-09 13:27:26.003780$GBGSA,A,3,14,24,25,26,33,35,,,,,,,1.1,0.6,0.9*29
###2023-12-09 13:27:26.006347$GPGSV,2,1,07,03,28,249,41,04,43,309,44,16,63,220,45,26,88,044,48*7C
###2023-12-09 13:27:26.008408$GPGSV,2,2,07,28,41,081,45,29,22,050,43,31,62,060,47,,,,*43
###2023-12-09 13:27:26.010745$GLGSV,2,1,06,65,35,321,44,71,26,175,44,72,66,227,45,73,25,050,45*60
###2023-12-09 13:27:26.012489$GLGSV,2,2,06,74,62,008,43,75,41,267,46,,,,,,,,*6D
###2023-12-09 13:27:26.014823$GAGSV,1,1,04,04,37,311,42,19,75,184,40,21,80,050,46,27,25,049,40*6D
###2023-12-09 13:27:26.017142$GBGSV,2,1,06,14,32,190,41,24,65,042,48,25,49,273,44,26,18,069,44*66
###2023-12-09 13:27:26.018894$GBGSV,2,2,06,33,48,220,44,35,16,059,45,,,,,,,,*6D
###2023-12-09 13:27:26.020215$GNVTG,231.19,T,,M,3.77,N,6.98,K,A*2F
###2023-12-09 13:27:26.021853$GNGST,182725.10,18.000,,,,0.100,0.071,0.160*54
