###2023-12-09 13:35:41.794560$GNGGA,183540.90,4138.0349592,N,07032.4042419,W,1,24,0.6,13.280,M,-29.745,M,0.0,*52
###2023-12-09 13:35:41.998223$GNRMC,183541.10,A,4138.0350508,N,07032.4043459,W,2.02,321.03,091223,,,A*59
###2023-12-09 13:35:42.001113$GNGGA,183541.10,4138.0350508,N,07032.4043459,W,1,24,0.6,13.284,M,-29.745,M,0.0,*51
###2023-12-09 13:35:42.002925$GPGSA,A,3,03,04,16,26,28,29,31,,,,,,1.1,0.6,0.9*3A
###2023-12-09 13:35:42.004641$GLGSA,A,3,65,71,72,73,74,75,,,,,,,1.1,0.6,0.9*24
###2023-12-09 13:35:42.006226$GAGSA,A,3,04,19,21,27,,,,,,,,,1.1,0.6,0.9*26
###2023-12-09 13:35:42.008005$GBGSA,A,3,12,14,24,25,26,33,35,,,,,,1.1,0.6,0.9*2A
###2023-12-09 13:35:42.010324$GPGSV,2,1,07,03,26,246,43,04,47,307,44,16,67,223,46,26,83,040,47*71
###2023-12-09 13:35:42.012365$GPGSV,2,2,07,28,37,085,44,29,20,046,41,31,59,067,46,,,,*4E
###2023-12-09 13:35:42.014695$GLGSV,2,1,06,65,39,318,41,71,22,175,41,72,62,220,46,73,22,052,43*61
###2023-12-09 13:35:42.016439$GLGSV,2,2,06,74,59,015,41,75,44,272,47,,,,,,,,*6B
###2023-12-09 13:35:42.018769$GAGSV,1,1,04,04,40,310,43,19,72,181,41,21,77,046,46,27,22,050,41*6F
###2023-12-09 13:35:42.021097$GBGSV,2,1,07,12,15,126,40,14,29,190,43,24,62,046,48,25,51,276,47*67
###2023-12-09 13:35:42.023136$GBGSV,2,2,07,26,16,071,42,33,45,217,47,35,16,056,42,,,,*5D
###2023-12-09 13:35:42.024465$GNVTG,321.03,T,,M,2.02,N,3.74,K,A*20
###2023-12-09 13:35:42.026072$GNGST,183541.10,5.300,,,,0.092,0.071,0.160*60
###2023-12-09 13:35:42.027371$GNZDA,183541.10,09,12,2023,00,00*7A
###2023-12-09 13:35:42.028010$GNEBP,,,,,,M*13
###2023-12-09 13:35:42.198663$GNGGA,183541.30,4138.0351429,N,07032.4044309,W,1,25,0.6,13.279,M,-29.745,M,0.0,*56
###2023-12-09 13:35:42.394537$GNGGA,183541.50,4138.0352401,N,07032.4044967,W,1,25,0.6,13.290,M,-29.745,M,0.0,*5C
###2023-12-09 13:35:42.595342$GNGGA,183541.70,4138.0353397,N,07032.4045563,W,1,25,0.6,13.300,M,-29.745,M,0.0,*56
###2023-12-09 13:35:42.796394$GNGGA,183541.90,4138.0354368,N,07032.4046108,W,1,26,0.6,13.292,M,-29.745,M,0.0,*5C
###2023-12-09 13:35:42.998720$GNRMC,183542.10,A,4138.0355355,N,07032.4046649,W,1.96,339.81,091223,,,A*5A
###2023-12-09 13:35:43.002147$GNGGA,183542.10,4138.0355355,N,07032.4046649,W,1,25,0.6,13.288,M,-29.745,M,0.0,*52
###2023-12-09 13:35:43.004316$GPGSA,A,3,03,04,16,26,28,29,31,,,,,,1.1,0.6,0.9*3A
###2023-12-09 13:35:43.006387$GLGSA,A,3,65,71,72,73,74,75,,,,,,,1.1,0.6,0.9*24
###2023-12-09 13:35:43.008337$GAGSA,A,3,04,19,21,27,,,,,,,,,1.1,0.6,0.9*26
###2023-12-09 13:35:43.010483$GBGSA,A,3,12,14,24,25,26,33,35,,,,,,1.1,0.6,0.9*2A
###2023-12-09 13:35:43.013295$GPGSV,2,1,07,03,26,246,42,04,47,307,45,16,67,223,46,26,83,040,48*7E
###2023-12-09 13:35:43.015765$GPGSV,2,2,07,28,37,085,45,29,20,046,40,31,59,067,47,,,,*4F
###2023-12-09 13:35:43.018576$GLGSV,2,1,06,65,39,318,43,71,22,175,40,72,62,220,46,73,22,052,41*60
###2023-12-09 13:35:43.020697$GLGSV,2,2,06,74,59,015,41,75,44,272,47,,,,,,,,*6B
###2023-12-09 13:35:43.023536$GAGSV,1,1,04,04,40,310,44,19,72,181,42,21,77,046,46,27,22,050,39*64
###2023-12-09 13:35:43.026350$GBGSV,2,1,07,12,15,126,40,14,29,190,39,24,62,046,47,25,51,276,46*64
###2023-12-09 13:35:43.028823$GBGSV,2,2,07,26,16,071,41,33,45,217,46,35,16,056,42,,,,*5F
###2023-12-09 13:35:43.030422$GNVTG,339.81,T,,M,1.96,N,3.64,K,A*2C
###2023-12-09 13:35:43.032382$GNGST,183542.10,5.400,,,,0.093,0.071,0.160*65
###2023-12-09 13:35:43.033941$GNZDA,183542.10,09,12,2023,00,00*79
###2023-12-09 13:35:43.034722$GNEBP,,,,,,M*13
###2023-12-09 13:35:43.195909$GNGGA,183542.30,4138.0356363,N,07032.4047071,W,1,25,0.6,13.287,M,-29.745,M,0.0,*55
###2023-12-09 13:35:43.394554$GNGGA,183542.50,4138.0357386,N,07032.4047420,W,1,25,0.6,13.287,M,-29.745,M,0.0,*59
###2023-12-09 13:35:43.593641$GNGGA,183542.70,4138.0358439,N,07032.4047641,W,1,25,0.6,13.283,M,-29.745,M,0.0,*56
###2023-12-09 13:35:43.795592$GNGGA,183542.90,4138.0359482,N,07032.4047888,W,1,25,0.6,13.288,M,-29.745,M,0.0,*59
###2023-12-09 13:35:43.999263$GNRMC,183543.10,A,4138.0360506,N,07032.4048213,W,1.85,350.45,091223,,,A*5D
###2023-12-09 13:35:44.002153$GNGGA,183543.10,4138.0360506,N,07032.4048213,W,1,25,0.6,13.281,M,-29.745,M,0.0,*59
###2023-12-09 13:35:44.003954$GPGSA,A,3,03,04,16,26,28,29,31,,,,,,1.1,0.6,0.9*3A
###2023-12-09 13:35:44.005669$GLGSA,A,3,65,71,72,73,74,75,,,,,,,1.1,0.6,0.9*24
###2023-12-09 13:35:44.007261$GAGSA,A,3,04,19,21,27,,,,,,,,,1.1,0.6,0.9*26
###2023-12-09 13:35:44.009040$GBGSA,A,3,12,14,24,25,26,33,35,,,,,,1.1,0.6,0.9*2A
###2023-12-09 13:35:44.011369$GPGSV,2,1,07,03,26,246,41,04,47,307,46,16,67,223,47,26,83,040,48*7F
###2023-12-09 13:35:44.013396$GPGSV,2,2,07,28,37,085,45,29,20,046,40,31,59,067,46,,,,*4E
###2023-12-09 13:35:44.015714$GLGSV,2,1,06,65,39,318,43,71,22,175,40,72,62,220,47,73,22,052,40*60
###2023-12-09 13:35:44.017451$GLGSV,2,2,06,74,59,015,42,75,44,272,47,,,,,,,,*68
###2023-12-09 13:35:44.019776$GAGSV,1,1,04,04,40,310,44,19,72,181,42,21,77,046,45,27,22,050,39*67
###2023-12-09 13:35:44.022102$GBGSV,2,1,07,12,15,126,40,14,29,190,41,24,62,046,47,25,51,276,47*6A
###2023-12-09 13:35:44.024144$GBGSV,2,2,07,26,16,071,40,33,45,217,47,35,16,056,42,,,,*5F
###2023-12-09 13:35:44.025466$GNVTG,350.45,T,,M,1.85,N,3.42,K,A*2D
###2023-12-09 13:35:44.027082$GNGST,183543.10,5.800,,,,0.094,0.071,0.160*6F
###2023-12-09 13:35:44.028375$GNZDA,183543.10,09,12,2023,00,00*78
###2023-12-09 13:35:44.029013$GNEBP,,,,,,M*13
###2023-12-09 13:35:44.194328$GNGGA,183543.30,4138.0361558,N,07032.4048403,W,1,25,0.6,13.273,M,-29.745,M,0.0,*5B
###2023-12-09 13:35:44.393460$GNGGA,183543.50,4138.0362605,N,07032.4048497,W,1,26,0.6,13.265,M,-29.745,M,0.0,*5C
###2023-12-09 13:35:44.593813$GNGGA,183543.70,4138.0363664,N,07032.4048700,W,1,26,0.6,13.273,M,-29.745,M,0.0,*52
###2023-12-09 13:35:44.793520$GNGGA,183543.90,4138.0364737,N,07032.4048878,W,1,26,0.6,13.263,M,-29.745,M,0.0,*5D
###2023-12-09 13:35:45.006010$GNRMC,183544.10,A,4138.0365826,N,07032.4048884,W,1.89,2.29,091223,,,A*56
###2023-12-09 13:35:45.008882$GNGGA,183544.10,4138.0365826,N,07032.4048884,W,1,26,0.6,13.249,M,-29.745,M,0.0,*57
###2023-12-09 13:35:45.010741$GPGSA,A,3,03,04,16,26,27,28,29,31,,,,,1.0,0.6,0.9*3E
###2023-12-09 13:35:45.012451$GLGSA,A,3,65,71,72,73,74,75,,,,,,,1.0,0.6,0.9*25
###2023-12-09 13:35:45.014027$GAGSA,A,3,04,19,21,27,,,,,,,,,1.0,0.6,0.9*27
###2023-12-09 13:35:45.015802$GBGSA,A,3,12,14,24,25,26,33,35,,,,,,1.0,0.6,0.9*2B
###2023-12-09 13:35:45.018116$GPGSV,2,1,08,03,26,246,43,04,47,307,46,16,67,223,46,26,83,040,48*73
###2023-12-09 13:35:45.020451$GPGSV,2,2,08,27,17,172,37,28,37,085,44,29,20,046,40,31,59,067,46*73
###2023-12-09 13:35:45.022788$GLGSV,2,1,06,65,39,318,43,71,22,175,41,72,62,220,47,73,22,052,41*60
###2023-12-09 13:35:45.024531$GLGSV,2,2,06,74,59,015,42,75,44,272,47,,,,,,,,*68
###2023-12-09 13:35:45.026879$GAGSV,1,1,04,04,40,310,44,19,72,181,42,21,77,046,46,27,22,050,39*64
###2023-12-09 13:35:45.029221$GBGSV,2,1,07,12,15,126,41,14,29,190,40,24,62,046,48,25,51,276,47*65
###2023-12-09 13:35:45.031273$GBGSV,2,2,07,26,16,071,41,33,45,217,46,35,16,056,43,,,,*5E
###2023-12-09 13:35:45.032538$GNVTG,2.29,T,,M,1.89,N,3.49,K,A*24
###2023-12-09 13:35:45.034146$GNGST,183544.10,5.600,,,,0.095,0.070,0.160*66
###2023-12-09 13:35:45.035442$GNZDA,183544.10,09,12,2023,00,00*7F
###2023-12-09 13:35:45.036082$GNEBP,,,,,,M*13
###2023-12-09 13:35:45.205678$GNGGA,183544.30,4138.0366937,N,07032.4048931,W,1,26,0.6,13.244,M,-29.745,M,0.0,*55
###2023-12-09 13:35:45.394449$GNGGA,183544.50,4138.0368037,N,07032.4049152,W,1,26,0.6,13.242,M,-29.745,M,0.0,*5E
###2023-12-09 13:35:45.595564$GNGGA,183544.70,4138.0369170,N,07032.4049414,W,1,26,0.6,13.249,M,-29.745,M,0.0,*53
###2023-12-09 13:35:45.796448$GNGGA,183544.90,4138.0370329,N,07032.4049435,W,1,26,0.6,13.244,M,-29.745,M,0.0,*55
###2023-12-09 13:35:46.000044$GNRMC,183545.10,A,4138.0371513,N,07032.4049393,W,2.10,359.38,091223,,,A*5B
###2023-12-09 13:35:46.002923$GNGGA,183545.10,4138.0371513,N,07032.4049393,W,1,26,0.6,13.228,M,-29.745,M,0.0,*53
###2023-12-09 13:35:46.004776$GPGSA,A,3,03,04,16,26,27,28,29,31,,,,,1.0,0.6,0.9*3E
###2023-12-09 13:35:46.006488$GLGSA,A,3,65,71,72,73,74,75,,,,,,,1.0,0.6,0.9*25
###2023-12-09 13:35:46.008082$GAGSA,A,3,04,19,21,27,,,,,,,,,1.0,0.6,0.9*27
###2023-12-09 13:35:46.010099$GBGSA,A,3,12,14,24,25,26,33,35,,,,,,1.0,0.6,0.9*2B
###2023-12-09 13:35:46.012449$GPGSV,2,1,08,03,26,246,42,04,47,307,45,16,67,223,45,26,83,040,47*7D
###2023-12-09 13:35:46.014783$GPGSV,2,2,08,27,17,172,39,28,37,085,45,29,20,046,41,31,59,067,47*7C
###2023-12-09 13:35:46.017112$GLGSV,2,1,06,65,39,318,43,71,22,175,40,72,62,220,47,73,22,052,42*62
###2023-12-09 13:35:46.018860$GLGSV,2,2,06,74,59,015,42,75,44,272,46,,,,,,,,*69
###2023-12-09 13:35:46.021190$GAGSV,1,1,04,04,40,310,44,19,72,181,42,21,77,046,46,27,22,050,40*6A
###2023-12-09 13:35:46.023528$GBGSV,2,1,07,12,15,126,40,14,29,190,43,24,62,046,48,25,51,276,47*67
###2023-12-09 13:35:46.025568$GBGSV,2,2,07,26,16,071,44,33,45,217,47,35,16,056,43,,,,*5A
###2023-12-09 13:35:46.026903$GNVTG,359.38,T,,M,2.10,N,3.89,K,A*26
###2023-12-09 13:35:46.028520$GNGST,183545.10,5.800,,,,0.095,0.070,0.160*69
