###2023-12-09 12:34:24.956694$GAGSV,1,1,04,04,20,311,42,19,81,304,41,21,77,177,47,27,42,050,43*6C
###2023-12-09 12:34:24.959055$GBGSV,2,1,05,14,55,198,45,24,81,343,48,25,32,252,46,26,35,057,43*68
###2023-12-09 12:34:24.960511$GBGSV,2,2,05,33,63,255,47,,,,,,,,,,,,*5A
###2023-12-09 12:34:24.961793$GNVTG,84.40,T,,M,0.47,N,0.86,K,A*16
###2023-12-09 12:34:24.963446$GNGST,173424.10,17.000,,,,0.093,0.085,0.200*52
###2023-12-09 12:34:24.964729$GNZDA,173424.10,09,12,2023,00,00*77
###2023-12-09 12:34:24.965361$GNEBP,,,,,,M*13
###2023-12-09 12:34:25.133833$GNGGA,173424.30,4138.0466099,N,07032.4226474,W,1,23,0.7,12.813,M,-29.745,M,0.0,*5C
###2023-12-09 12:34:25.335173$GNGGA,173424.50,4138.0466085,N,07032.4226323,W,1,23,0.7,12.824,M,-29.745,M,0.0,*56
###2023-12-09 12:34:25.534253$GNGGA,173424.70,4138.0466137,N,07032.4226166,W,1,23,0.7,12.827,M,-29.745,M,0.0,*5C
###2023-12-09 12:34:25.732370$GNGGA,173424.90,4138.0466336,N,07032.4226109,W,1,23,0.7,12.827,M,-29.745,M,0.0,*58
###2023-12-09 12:34:25.933580$GNRMC,173425.10,A,4138.0466512,N,07032.4226078,W,0.23,84.40,091223,,,A*60
###2023-12-09 12:34:25.936478$GNGGA,173425.10,4138.0466512,N,07032.4226078,W,1,23,0.7,12.826,M,-29.745,M,0.0,*57
###2023-12-09 12:34:25.938338$GPGSA,A,3,03,04,16,26,28,29,31,32,,,,,1.2,0.7,1.0*31
###2023-12-09 12:34:25.940082$GLGSA,A,3,71,72,73,74,75,,,,,,,,1.2,0.7,1.0*2D
###2023-12-09 12:34:25.941671$GAGSA,A,3,04,19,21,27,,,,,,,,,1.2,0.7,1.0*2C
###2023-12-09 12:34:25.943337$GBGSA,A,3,14,24,25,26,33,,,,,,,,1.2,0.7,1.0*25
###2023-12-09 12:34:25.945662$GPGSV,2,1,08,03,39,277,43,04,22,311,42,16,37,207,44,26,65,206,49*77
###2023-12-09 12:34:25.948039$GPGSV,2,2,08,28,58,055,44,29,25,075,40,31,73,358,48,32,31,134,43*7A
###2023-12-09 12:34:25.950397$GLGSV,2,1,05,71,57,169,47,72,65,310,47,73,48,033,46,74,71,290,43*6E
###2023-12-09 12:34:25.951879$GLGSV,2,2,05,75,22,241,38,,,,,,,,,,,,*5E
###2023-12-09 12:34:25.954210$GAGSV,1,1,04,04,20,311,43,19,81,304,41,21,77,177,46,27,42,050,43*6C
###2023-12-09 12:34:25.956567$GBGSV,2,1,05,14,55,198,45,24,81,343,49,25,32,252,45,26,35,057,44*6D
###2023-12-09 12:34:25.958023$GBGSV,2,2,05,33,63,255,47,,,,,,,,,,,,*5A
###2023-12-09 12:34:25.959336$GNVTG,84.40,T,,M,0.23,N,0.43,K,A*1D
###2023-12-09 12:34:25.960989$GNGST,173425.10,17.000,,,,0.094,0.086,0.200*57
###2023-12-09 12:34:25.962283$GNZDA,173425.10,09,12,2023,00,00*76
###2023-12-09 12:34:25.962935$GNEBP,,,,,,M*13
###2023-12-09 12:34:26.143277$GNGGA,173425.30,4138.0466586,N,07032.4225981,W,1,23,0.7,12.827,M,-29.745,M,0.0,*55
###2023-12-09 12:34:26.331547$GNGGA,173425.50,4138.0466625,N,07032.4225841,W,1,23,0.7,12.831,M,-29.745,M,0.0,*53
###2023-12-09 12:34:26.534969$GNGGA,173425.70,4138.0466733,N,07032.4225724,W,1,23,0.7,12.834,M,-29.745,M,0.0,*5E
###2023-12-09 12:34:26.731697$GNGGA,173425.90,4138.0466894,N,07032.4225653,W,1,23,0.7,12.831,M,-29.745,M,0.0,*56
###2023-12-09 12:34:26.934978$GNRMC,173426.10,A,4138.0466998,N,07032.4225571,W,0.19,84.40,091223,,,A*6B
###2023-12-09 12:34:26.938449$GNGGA,173426.10,4138.0466998,N,07032.4225571,W,1,23,0.7,12.833,M,-29.745,M,0.0,*51
###2023-12-09 12:34:26.940719$GPGSA,A,3,03,04,16,26,28,29,31,32,,,,,1.2,0.7,1.0*31
###2023-12-09 12:34:26.942727$GLGSA,A,3,71,72,73,74,75,,,,,,,,1.2,0.7,1.0*2D
###2023-12-09 12:34:26.944639$GAGSA,A,3,04,19,21,27,,,,,,,,,1.2,0.7,1.0*2C
###2023-12-09 12:34:26.946652$GBGSA,A,3,14,24,25,26,33,,,,,,,,1.2,0.7,1.0*25
###2023-12-09 12:34:26.949490$GPGSV,2,1,08,03,39,277,44,04,22,311,42,16,37,207,45,26,65,206,48*70
###2023-12-09 12:34:26.952358$GPGSV,2,2,08,28,58,055,45,29,25,075,40,31,73,358,47,32,31,134,42*75
###2023-12-09 12:34:26.955208$GLGSV,2,1,05,71,57,169,48,72,65,310,47,73,48,033,46,74,71,290,43*61
###2023-12-09 12:34:26.956964$GLGSV,2,2,05,75,22,241,38,,,,,,,,,,,,*5E
###2023-12-09 12:34:26.959784$GAGSV,1,1,04,04,20,311,41,19,81,304,41,21,77,177,47,27,42,050,43*6F
###2023-12-09 12:34:26.962604$GBGSV,2,1,05,14,55,198,46,24,81,343,49,25,32,252,46,26,35,057,44*6D
###2023-12-09 12:34:26.964379$GBGSV,2,2,05,33,63,255,48,,,,,,,,,,,,*55
###2023-12-09 12:34:26.965953$GNVTG,84.40,T,,M,0.19,N,0.36,K,A*16
###2023-12-09 12:34:26.967970$GNGST,173426.10,18.000,,,,0.095,0.087,0.200*5B
###2023-12-09 12:34:26.969536$GNZDA,173426.10,09,12,2023,00,00*75
###2023-12-09 12:34:26.970305$GNEBP,,,,,,M*13
###2023-12-09 12:34:27.135210$GNGGA,173426.30,4138.0467072,N,07032.4225472,W,1,23,0.7,12.835,M,-29.745,M,0.0,*5B
###2023-12-09 12:34:27.333262$GNGGA,173426.50,4138.0467153,N,07032.4225350,W,1,23,0.7,12.838,M,-29.745,M,0.0,*55
###2023-12-09 12:34:27.533499$GNGGA,173426.70,4138.0467242,N,07032.4225265,W,1,23,0.7,12.835,M,-29.745,M,0.0,*5E
###2023-12-09 12:34:27.732693$GNGGA,173426.90,4138.0467361,N,07032.4225186,W,1,23,0.7,12.835,M,-29.745,M,0.0,*5E
###2023-12-09 12:34:27.932017$GNRMC,173427.10,A,4138.0467471,N,07032.4225089,W,0.23,84.40,091223,,,A*6A
###2023-12-09 12:34:27.935471$GNGGA,173427.10,4138.0467471,N,07032.4225089,W,1,23,0.7,12.833,M,-29.745,M,0.0,*59
###2023-12-09 12:34:27.937712$GPGSA,A,3,03,04,16,26,28,29,31,32,,,,,1.2,0.7,1.0*31
###2023-12-09 12:34:27.939729$GLGSA,A,3,71,72,73,74,75,,,,,,,,1.2,0.7,1.0*2D
###2023-12-09 12:34:27.941642$GAGSA,A,3,04,19,21,27,,,,,,,,,1.2,0.7,1.0*2C
###2023-12-09 12:34:27.943631$GBGSA,A,3,14,24,25,26,33,,,,,,,,1.2,0.7,1.0*25
###2023-12-09 12:34:27.946475$GPGSV,2,1,08,03,39,277,43,04,22,311,42,16,37,207,45,26,65,206,48*77
###2023-12-09 12:34:27.949349$GPGSV,2,2,08,28,58,055,45,29,25,075,39,31,73,358,47,32,31,134,43*7A
###2023-12-09 12:34:27.952190$GLGSV,2,1,05,71,57,169,48,72,65,310,47,73,48,033,46,74,71,290,43*61
###2023-12-09 12:34:27.953951$GLGSV,2,2,05,75,22,241,39,,,,,,,,,,,,*5F
###2023-12-09 12:34:27.956785$GAGSV,1,1,04,04,20,311,41,19,81,304,41,21,77,177,46,27,42,050,43*6E
###2023-12-09 12:34:27.959617$GBGSV,2,1,05,14,55,198,45,24,81,343,48,25,32,252,46,26,35,057,43*68
###2023-12-09 12:34:27.961370$GBGSV,2,2,05,33,63,255,47,,,,,,,,,,,,*5A
###2023-12-09 12:34:27.962937$GNVTG,84.40,T,,M,0.23,N,0.43,K,A*1D
###2023-12-09 12:34:27.964932$GNGST,173427.10,17.000,,,,0.097,0.088,0.200*58
###2023-12-09 12:34:27.966484$GNZDA,173427.10,09,12,2023,00,00*74
###2023-12-09 12:34:27.967274$GNEBP,,,,,,M*13
###2023-12-09 12:34:28.133340$GNGGA,173427.30,4138.0467568,N,07032.4224984,W,1,23,0.7,12.832,M,-29.745,M,0.0,*56
###2023-12-09 12:34:28.332785$GNGGA,173427.50,4138.0467639,N,07032.4224879,W,1,23,0.7,12.831,M,-29.745,M,0.0,*57
###2023-12-09 12:34:28.531682$GNGGA,173427.70,4138.0467716,N,07032.4224804,W,1,23,0.7,12.833,M,-29.745,M,0.0,*51
###2023-12-09 12:34:28.731163$GNGGA,173427.90,4138.0467838,N,07032.4224741,W,1,23,0.7,12.834,M,-29.745,M,0.0,*55
###2023-12-09 12:34:28.936040$GNRMC,173428.10,A,4138.0467980,N,07032.4224640,W,0.25,84.40,091223,,,A*62
###2023-12-09 12:34:28.938926$GNGGA,173428.10,4138.0467980,N,07032.4224640,W,1,23,0.7,12.833,M,-29.745,M,0.0,*57
###2023-12-09 12:34:28.940789$GPGSA,A,3,03,04,16,26,28,29,31,32,,,,,1.2,0.7,1.0*31
###2023-12-09 12:34:28.942442$GLGSA,A,3,71,72,73,74,75,,,,,,,,1.2,0.7,1.0*2D
###2023-12-09 12:34:28.944044$GAGSA,A,3,04,19,21,27,,,,,,,,,1.2,0.7,1.0*2C
###2023-12-09 12:34:28.945693$GBGSA,A,3,14,24,25,26,33,,,,,,,,1.2,0.7,1.0*25
###2023-12-09 12:34:28.948091$GPGSV,2,1,08,03,39,277,43,04,22,311,42,16,37,207,44,26,66,206,47*7A
###2023-12-09 12:34:28.950464$GPGSV,2,2,08,28,58,055,44,29,25,075,39,31,73,358,47,32,31,134,43*7B
###2023-12-09 12:34:28.952810$GLGSV,2,1,05,71,57,169,48,72,65,310,47,73,48,033,48,74,71,290,43*6F
###2023-12-09 12:34:28.954272$GLGSV,2,2,05,75,22,241,35,,,,,,,,,,,,*53
###2023-12-09 12:34:28.956621$GAGSV,1,1,04,04,20,311,39,19,81,304,41,21,77,177,46,27,42,050,43*61
###2023-12-09 12:34:28.958980$GBGSV,2,1,05,14,55,198,47,24,81,343,50,25,32,252,48,26,35,057,44*6A
###2023-12-09 12:34:28.960443$GBGSV,2,2,05,33,63,255,48,,,,,,,,,,,,*55
###2023-12-09 12:34:28.961733$GNVTG,84.40,T,,M,0.25,N,0.47,K,A*1F
###2023-12-09 12:34:28.963400$GNGST,173428.10,17.000,,,,0.098,0.089,0.210*58
###2023-12-09 12:34:28.964693$GNZDA,173428.10,09,12,2023,00,00*7B
###2023-12-09 12:34:28.965333$GNEBP,,,,,,M*13
###2023-12-09 12:34:29.132325$GNGGA,173428.30,4138.0468066,N,07032.4224534,W,1,23,0.7,12.835,M,-29.745,M,0.0,*5D
###2023-12-09 12:34:29.333766$GNGGA,173428.50,4138.0468100,N,07032.4224434,W,1,23,0.7,12.837,M,-29.745,M,0.0,*59
###2023-12-09 12:34:29.542594$GNGGA,173428.70,4138.0468183,N,07032.4224383,W,1,23,0.7,12.832,M,-29.745,M,0.0,*5E
###2023-12-09 12:34:29.731543$GNGGA,173428.90,4138.0468345,N,07032.4224335,W,1,23,0.7,12.833,M,-29.745,M,0.0,*54
###2023-12-09 12:34:29.936735$GNRMC,173429.10,A,4138.0468500,N,07032.4224274,W,0.23,84.40,091223,,,A*6D
###2023-12-09 12:34:29.939603$GNGGA,173429.10,4138.0468500,N,07032.4224274,W,1,22,0.7,12.841,M,-29.745,M,0.0,*5A
###2023-12-09 12:34:29.941461$GPGSA,A,3,03,04,16,26,28,29,31,32,,,,,1.2,0.7,1.0*31
###2023-12-09 12:34:29.943065$GLGSA,A,3,71,72,73,74,,,,,,,,,1.2,0.7,1.0*2F
###2023-12-09 12:34:29.944655$GAGSA,A,3,04,19,21,27,,,,,,,,,1.2,0.7,1.0*2C
