###2023-12-09 13:02:11.984596$GLGSV,2,2,06,74,70,337,42,75,32,253,42,,,,,,,,*67
###2023-12-09 13:02:11.987064$GAGSV,1,1,04,04,29,312,39,19,84,213,40,21,86,114,46,27,33,048,41*6E
###2023-12-09 13:02:11.989404$GBGSV,2,1,05,14,43,193,45,24,74,024,48,25,41,262,45,26,26,063,42*6C
###2023-12-09 13:02:11.990883$GBGSV,2,2,05,33,57,233,47,,,,,,,,,,,,*5D
###2023-12-09 13:02:11.992215$GNVTG,280.50,T,,M,3.54,N,6.55,K,A*28
###2023-12-09 13:02:11.993863$GNGST,180211.10,18.000,,,,0.082,0.070,0.160*5E
###2023-12-09 13:02:11.995171$GNZDA,180211.10,09,12,2023,00,00*7B
###2023-12-09 13:02:11.995813$GNEBP,,,,,,M*13
###2023-12-09 13:02:12.163457$GNGGA,180211.30,4138.0463309,N,07032.3032438,W,1,24,0.6,13.460,M,-29.743,M,0.0,*5E
###2023-12-09 13:02:12.364052$GNGGA,180211.50,4138.0463637,N,07032.3035013,W,1,24,0.6,13.461,M,-29.743,M,0.0,*5B
###2023-12-09 13:02:12.564756$GNGGA,180211.70,4138.0463646,N,07032.3037535,W,1,24,0.6,13.460,M,-29.743,M,0.0,*5D
###2023-12-09 13:02:12.769305$GNGGA,180211.90,4138.0463566,N,07032.3040038,W,1,24,0.6,13.453,M,-29.743,M,0.0,*5A
###2023-12-09 13:02:12.964790$GNRMC,180212.10,A,4138.0463632,N,07032.3042605,W,3.50,273.67,091223,,,A*59
###2023-12-09 13:02:12.967671$GNGGA,180212.10,4138.0463632,N,07032.3042605,W,1,24,0.6,13.459,M,-29.743,M,0.0,*53
###2023-12-09 13:02:12.969543$GPGSA,A,3,03,04,16,26,28,29,31,32,,,,,1.1,0.6,0.9*3B
###2023-12-09 13:02:12.971284$GLGSA,A,3,65,71,72,73,74,75,,,,,,,1.1,0.6,0.9*24
###2023-12-09 13:02:12.972868$GAGSA,A,3,04,19,21,27,,,,,,,,,1.1,0.6,0.9*26
###2023-12-09 13:02:12.974520$GBGSA,A,3,14,24,25,26,33,,,,,,,,1.1,0.6,0.9*2F
###2023-12-09 13:02:12.976871$GPGSV,2,1,08,03,35,261,43,04,33,311,41,16,50,212,47,26,80,210,48*74
###2023-12-09 13:02:12.979237$GPGSV,2,2,08,28,49,070,45,29,25,061,43,31,69,038,47,32,19,140,44*75
###2023-12-09 13:02:12.981598$GLGSV,2,1,06,65,24,327,40,71,41,173,46,72,73,269,45,73,36,041,44*6A
###2023-12-09 13:02:12.983372$GLGSV,2,2,06,74,70,337,42,75,32,253,43,,,,,,,,*66
###2023-12-09 13:02:12.985716$GAGSV,1,1,04,04,29,312,40,19,84,213,40,21,86,114,46,27,33,048,41*60
###2023-12-09 13:02:12.988083$GBGSV,2,1,05,14,43,193,44,24,74,024,48,25,41,262,44,26,26,063,41*6F
###2023-12-09 13:02:12.989551$GBGSV,2,2,05,33,57,233,46,,,,,,,,,,,,*5C
###2023-12-09 13:02:12.990887$GNVTG,273.67,T,,M,3.50,N,6.48,K,A*28
###2023-12-09 13:02:12.992544$GNGST,180212.10,18.000,,,,0.081,0.070,0.160*5E
###2023-12-09 13:02:12.993841$GNZDA,180212.10,09,12,2023,00,00*78
###2023-12-09 13:02:12.994480$GNEBP,,,,,,M*13
###2023-12-09 13:02:13.162634$GNGGA,180212.30,4138.0463754,N,07032.3045213,W,1,24,0.6,13.477,M,-29.743,M,0.0,*58
###2023-12-09 13:02:13.364990$GNGGA,180212.50,4138.0463604,N,07032.3047771,W,1,24,0.6,13.480,M,-29.743,M,0.0,*51
###2023-12-09 13:02:13.563435$GNGGA,180212.70,4138.0463086,N,07032.3050112,W,1,24,0.6,13.461,M,-29.743,M,0.0,*55
###2023-12-09 13:02:13.763520$GNGGA,180212.90,4138.0462726,N,07032.3052506,W,1,24,0.6,13.470,M,-29.743,M,0.0,*54
###2023-12-09 13:02:13.964507$GNRMC,180213.10,A,4138.0462621,N,07032.3055103,W,3.52,264.03,091223,,,A*5A
###2023-12-09 13:02:13.967396$GNGGA,180213.10,4138.0462621,N,07032.3055103,W,1,24,0.6,13.481,M,-29.743,M,0.0,*53
###2023-12-09 13:02:13.969253$GPGSA,A,3,03,04,16,26,28,29,31,32,,,,,1.1,0.6,0.9*3B
###2023-12-09 13:02:13.970986$GLGSA,A,3,65,71,72,73,74,75,,,,,,,1.1,0.6,0.9*24
###2023-12-09 13:02:13.972575$GAGSA,A,3,04,19,21,27,,,,,,,,,1.1,0.6,0.9*26
###2023-12-09 13:02:13.974221$GBGSA,A,3,14,24,25,26,33,,,,,,,,1.1,0.6,0.9*2F
###2023-12-09 13:02:13.976569$GPGSV,2,1,08,03,35,261,42,04,33,311,41,16,50,212,46,26,80,210,47*7B
###2023-12-09 13:02:13.978920$GPGSV,2,2,08,28,49,070,45,29,25,061,41,31,69,038,47,32,19,140,43*70
###2023-12-09 13:02:13.981247$GLGSV,2,1,06,65,24,327,42,71,41,173,47,72,73,269,45,73,36,041,45*68
###2023-12-09 13:02:13.983021$GLGSV,2,2,06,74,70,337,42,75,32,253,43,,,,,,,,*66
###2023-12-09 13:02:13.985353$GAGSV,1,1,04,04,29,312,40,19,84,213,40,21,86,114,46,27,33,048,42*63
###2023-12-09 13:02:13.987700$GBGSV,2,1,05,14,43,193,45,24,74,024,48,25,41,262,44,26,26,063,42*6D
###2023-12-09 13:02:13.989155$GBGSV,2,2,05,33,57,233,47,,,,,,,,,,,,*5D
###2023-12-09 13:02:13.990480$GNVTG,264.03,T,,M,3.52,N,6.52,K,A*25
###2023-12-09 13:02:13.992145$GNGST,180213.10,18.000,,,,0.081,0.070,0.160*5F
###2023-12-09 13:02:13.993443$GNZDA,180213.10,09,12,2023,00,00*79
###2023-12-09 13:02:13.994080$GNEBP,,,,,,M*13
###2023-12-09 13:02:14.162531$GNGGA,180213.30,4138.0462287,N,07032.3057558,W,1,24,0.6,13.463,M,-29.743,M,0.0,*5D
###2023-12-09 13:02:14.361951$GNGGA,180213.50,4138.0461754,N,07032.3059924,W,1,24,0.6,13.473,M,-29.743,M,0.0,*5B
###2023-12-09 13:02:14.567377$GNGGA,180213.70,4138.0461367,N,07032.3062400,W,1,24,0.6,13.490,M,-29.743,M,0.0,*53
###2023-12-09 13:02:14.762493$GNGGA,180213.90,4138.0461298,N,07032.3064940,W,1,24,0.6,13.498,M,-29.743,M,0.0,*5B
###2023-12-09 13:02:14.964760$GNRMC,180214.10,A,4138.0461230,N,07032.3067407,W,3.27,260.42,091223,,,A*59
###2023-12-09 13:02:14.967646$GNGGA,180214.10,4138.0461230,N,07032.3067407,W,1,24,0.6,13.494,M,-29.743,M,0.0,*57
###2023-12-09 13:02:14.969514$GPGSA,A,3,03,04,16,26,28,29,31,32,,,,,1.1,0.6,0.9*3B
###2023-12-09 13:02:14.971252$GLGSA,A,3,65,71,72,73,74,75,,,,,,,1.1,0.6,0.9*24
###2023-12-09 13:02:14.972846$GAGSA,A,3,04,19,21,27,,,,,,,,,1.1,0.6,0.9*26
###2023-12-09 13:02:14.974504$GBGSA,A,3,14,24,25,26,33,,,,,,,,1.1,0.6,0.9*2F
###2023-12-09 13:02:14.976862$GPGSV,2,1,08,03,35,261,43,04,33,311,42,16,50,212,46,26,80,210,47*79
###2023-12-09 13:02:14.979228$GPGSV,2,2,08,28,49,070,45,29,25,061,42,31,69,038,47,32,19,140,43*73
###2023-12-09 13:02:14.981576$GLGSV,2,1,06,65,24,327,40,71,41,173,46,72,73,269,45,73,36,041,45*6B
###2023-12-09 13:02:14.983354$GLGSV,2,2,06,74,70,337,42,75,32,253,42,,,,,,,,*67
###2023-12-09 13:02:14.985704$GAGSV,1,1,04,04,29,312,41,19,84,213,40,21,86,114,46,27,33,048,41*61
###2023-12-09 13:02:14.988070$GBGSV,2,1,05,14,43,193,44,24,74,024,48,25,41,262,43,26,26,063,42*6B
###2023-12-09 13:02:14.989536$GBGSV,2,2,05,33,57,233,47,,,,,,,,,,,,*5D
###2023-12-09 13:02:14.990877$GNVTG,260.42,T,,M,3.27,N,6.05,K,A*24
###2023-12-09 13:02:14.992538$GNGST,180214.10,18.000,,,,0.081,0.069,0.160*50
###2023-12-09 13:02:14.993835$GNZDA,180214.10,09,12,2023,00,00*7E
###2023-12-09 13:02:14.994477$GNEBP,,,,,,M*13
###2023-12-09 13:02:15.165911$GNGGA,180214.30,4138.0460917,N,07032.3069837,W,1,24,0.6,13.459,M,-29.743,M,0.0,*5A
###2023-12-09 13:02:15.362996$GNGGA,180214.50,4138.0460881,N,07032.3072251,W,1,24,0.6,13.455,M,-29.743,M,0.0,*5E
###2023-12-09 13:02:15.563386$GNGGA,180214.70,4138.0461081,N,07032.3074598,W,1,24,0.6,13.480,M,-29.743,M,0.0,*59
###2023-12-09 13:02:15.763778$GNGGA,180214.90,4138.0461331,N,07032.3076938,W,1,24,0.6,13.493,M,-29.743,M,0.0,*59
###2023-12-09 13:02:15.966787$GNRMC,180215.10,A,4138.0461608,N,07032.3079298,W,3.23,277.83,091223,,,A*57
###2023-12-09 13:02:15.969659$GNGGA,180215.10,4138.0461608,N,07032.3079298,W,1,24,0.6,13.501,M,-29.743,M,0.0,*5B
###2023-12-09 13:02:15.971557$GPGSA,A,3,03,04,16,26,28,29,31,32,,,,,1.1,0.6,0.9*3B
###2023-12-09 13:02:15.973282$GLGSA,A,3,65,71,72,73,74,75,,,,,,,1.1,0.6,0.9*24
###2023-12-09 13:02:15.974883$GAGSA,A,3,04,19,21,27,,,,,,,,,1.1,0.6,0.9*26
###2023-12-09 13:02:15.976530$GBGSA,A,3,14,24,25,26,33,,,,,,,,1.1,0.6,0.9*2F
###2023-12-09 13:02:15.978857$GPGSV,2,1,08,03,35,261,41,04,33,311,42,16,50,212,46,26,80,210,47*7B
###2023-12-09 13:02:15.981177$GPGSV,2,2,08,28,49,070,46,29,25,061,42,31,69,038,47,32,19,140,43*70
###2023-12-09 13:02:15.983519$GLGSV,2,1,06,65,24,327,39,71,41,173,46,72,73,269,46,73,36,041,45*66
###2023-12-09 13:02:15.985270$GLGSV,2,2,06,74,70,337,42,75,32,253,42,,,,,,,,*67
###2023-12-09 13:02:15.987609$GAGSV,1,1,04,04,29,312,40,19,84,213,40,21,86,114,46,27,33,048,41*60
###2023-12-09 13:02:15.989938$GBGSV,2,1,05,14,43,193,45,24,74,024,49,25,41,262,44,26,26,063,41*6F
###2023-12-09 13:02:15.991400$GBGSV,2,2,05,33,57,233,48,,,,,,,,,,,,*52
###2023-12-09 13:02:15.992721$GNVTG,277.83,T,,M,3.23,N,5.98,K,A*2C
###2023-12-09 13:02:15.994367$GNGST,180215.10,18.000,,,,0.081,0.070,0.160*59
###2023-12-09 13:02:15.995669$GNZDA,180215.10,09,12,2023,00,00*7F
###2023-12-09 13:02:15.996307$GNEBP,,,,,,M*13
###2023-12-09 13:02:16.161602$GNGGA,180215.30,4138.0461805,N,07032.3081732,W,1,24,0.6,13.500,M,-29.743,M,0.0,*59
###2023-12-09 13:02:16.363444$GNGGA,180215.50,4138.0461980,N,07032.3084252,W,1,24,0.6,13.489,M,-29.743,M,0.0,*55
###2023-12-09 13:02:16.562658$GNGGA,180215.70,4138.0462203,N,07032.3086801,W,1,24,0.6,13.478,M,-29.743,M,0.0,*54
###2023-12-09 13:02:16.764494$GNGGA,180215.90,4138.0462386,N,07032.3089346,W,1,24,0.6,13.478,M,-29.743,M,0.0,*51
###2023-12-09 13:02:16.967770$GNRMC,180216.10,A,4138.0462499,N,07032.3091920,W,3.50,272.36,091223,,,A*5C
###2023-12-09 13:02:16.970646$GNGGA,180216.10,4138.0462499,N,07032.3091920,W,1,24,0.6,13.476,M,-29.744,M,0.0,*59
###2023-12-09 13:02:16.972496$GPGSA,A,3,03,04,16,26,28,29,31,32,,,,,1.1,0.6,0.9*3B
###2023-12-09 13:02:16.974214$GLGSA,A,3,65,71,72,73,74,75,,,,,,,1.1,0.6,0.9*24
