###2023-12-09 13:05:31.989315$GLGSV,2,2,06,74,69,343,42,75,33,255,45,,,,,,,,*6C
###2023-12-09 13:05:31.991686$GAGSV,1,1,04,04,30,312,42,19,83,207,41,21,86,104,46,27,32,048,42*6A
###2023-12-09 13:05:31.994012$GBGSV,2,1,05,14,42,192,44,24,72,028,48,25,42,263,46,26,25,063,43*64
###2023-12-09 13:05:31.995487$GBGSV,2,2,05,33,56,230,47,,,,,,,,,,,,*5F
###2023-12-09 13:05:31.996809$GNVTG,330.07,T,,M,2.29,N,4.25,K,A*2E
###2023-12-09 13:05:31.998445$GNGST,180531.10,18.000,,,,0.082,0.067,0.160*5D
###2023-12-09 13:05:31.999749$GNZDA,180531.10,09,12,2023,00,00*7E
###2023-12-09 13:05:32.000388$GNEBP,,,,,,M*13
###2023-12-09 13:05:32.167751$GNGGA,180531.30,4138.0635726,N,07032.2521659,W,1,24,0.6,13.544,M,-29.742,M,0.0,*56
###2023-12-09 13:05:32.367682$GNGGA,180531.50,4138.0636837,N,07032.2522484,W,1,24,0.6,13.540,M,-29.742,M,0.0,*59
###2023-12-09 13:05:32.567696$GNGGA,180531.70,4138.0637919,N,07032.2523308,W,1,24,0.6,13.534,M,-29.742,M,0.0,*56
###2023-12-09 13:05:32.767829$GNGGA,180531.90,4138.0638971,N,07032.2524150,W,1,24,0.6,13.533,M,-29.742,M,0.0,*56
###2023-12-09 13:05:32.977020$GNRMC,180532.10,A,4138.0639997,N,07032.2525061,W,2.27,326.08,091223,,,A*59
###2023-12-09 13:05:32.979886$GNGGA,180532.10,4138.0639997,N,07032.2525061,W,1,24,0.6,13.531,M,-29.742,M,0.0,*54
###2023-12-09 13:05:32.981737$GPGSA,A,3,03,04,16,26,28,29,31,32,,,,,1.1,0.6,0.9*3B
###2023-12-09 13:05:32.983459$GLGSA,A,3,65,71,72,73,74,75,,,,,,,1.1,0.6,0.9*24
###2023-12-09 13:05:32.985037$GAGSA,A,3,04,19,21,27,,,,,,,,,1.1,0.6,0.9*26
###2023-12-09 13:05:32.986687$GBGSA,A,3,14,24,25,26,33,,,,,,,,1.1,0.6,0.9*2F
###2023-12-09 13:05:32.989001$GPGSV,2,1,08,03,34,259,44,04,34,311,43,16,52,213,46,26,82,210,48*7C
###2023-12-09 13:05:32.991345$GPGSV,2,2,08,28,48,072,47,29,25,059,43,31,68,042,48,32,17,141,44*73
###2023-12-09 13:05:32.993680$GLGSV,2,1,06,65,26,327,40,71,39,173,45,72,73,261,46,73,34,043,44*6F
###2023-12-09 13:05:32.995430$GLGSV,2,2,06,74,69,343,42,75,33,255,46,,,,,,,,*6F
###2023-12-09 13:05:32.997753$GAGSV,1,1,04,04,30,312,42,19,83,207,40,21,86,104,46,27,32,048,42*6B
###2023-12-09 13:05:33.000087$GBGSV,2,1,05,14,42,192,44,24,72,028,49,25,42,263,46,26,25,063,43*65
###2023-12-09 13:05:33.001537$GBGSV,2,2,05,33,56,230,48,,,,,,,,,,,,*50
###2023-12-09 13:05:33.002865$GNVTG,326.08,T,,M,2.27,N,4.21,K,A*2C
###2023-12-09 13:05:33.004507$GNGST,180532.10,18.000,,,,0.082,0.067,0.160*5E
###2023-12-09 13:05:33.005795$GNZDA,180532.10,09,12,2023,00,00*7D
###2023-12-09 13:05:33.006430$GNEBP,,,,,,M*13
###2023-12-09 13:05:33.168649$GNGGA,180532.30,4138.0641021,N,07032.2526029,W,1,24,0.6,13.530,M,-29.742,M,0.0,*53
###2023-12-09 13:05:33.368352$GNGGA,180532.50,4138.0642052,N,07032.2527055,W,1,24,0.6,13.529,M,-29.742,M,0.0,*50
###2023-12-09 13:05:33.568287$GNGGA,180532.70,4138.0643079,N,07032.2528158,W,1,24,0.6,13.528,M,-29.742,M,0.0,*58
###2023-12-09 13:05:33.768292$GNGGA,180532.90,4138.0644051,N,07032.2529397,W,1,24,0.6,13.519,M,-29.742,M,0.0,*59
###2023-12-09 13:05:33.970545$GNRMC,180533.10,A,4138.0645021,N,07032.2530684,W,2.51,316.31,091223,,,A*56
###2023-12-09 13:05:33.974027$GNGGA,180533.10,4138.0645021,N,07032.2530684,W,1,24,0.6,13.512,M,-29.742,M,0.0,*52
###2023-12-09 13:05:33.976281$GPGSA,A,3,03,04,16,26,28,29,31,32,,,,,1.1,0.6,0.9*3B
###2023-12-09 13:05:33.978357$GLGSA,A,3,65,71,72,73,74,75,,,,,,,1.1,0.6,0.9*24
###2023-12-09 13:05:33.980287$GAGSA,A,3,04,19,21,27,,,,,,,,,1.1,0.6,0.9*26
###2023-12-09 13:05:33.982277$GBGSA,A,3,14,24,25,26,33,,,,,,,,1.1,0.6,0.9*2F
###2023-12-09 13:05:33.985104$GPGSV,2,1,08,03,34,259,44,04,34,311,42,16,52,213,45,26,82,210,48*7E
###2023-12-09 13:05:33.987932$GPGSV,2,2,08,28,48,072,46,29,25,059,43,31,68,042,48,32,17,141,44*72
###2023-12-09 13:05:33.990768$GLGSV,2,1,06,65,26,327,40,71,39,173,46,72,73,261,46,73,34,043,45*6D
###2023-12-09 13:05:33.992873$GLGSV,2,2,06,74,69,343,42,75,33,255,45,,,,,,,,*6C
###2023-12-09 13:05:33.995694$GAGSV,1,1,04,04,30,312,42,19,83,207,40,21,86,104,46,27,32,048,42*6B
###2023-12-09 13:05:33.998534$GBGSV,2,1,05,14,42,192,45,24,72,028,49,25,42,263,47,26,25,063,43*65
###2023-12-09 13:05:34.000303$GBGSV,2,2,05,33,56,230,48,,,,,,,,,,,,*50
###2023-12-09 13:05:34.001903$GNVTG,316.31,T,,M,2.51,N,4.64,K,A*25
###2023-12-09 13:05:34.003910$GNGST,180533.10,18.000,,,,0.081,0.066,0.160*5D
###2023-12-09 13:05:34.005467$GNZDA,180533.10,09,12,2023,00,00*7C
###2023-12-09 13:05:34.006233$GNEBP,,,,,,M*13
###2023-12-09 13:05:34.167235$GNGGA,180533.30,4138.0646078,N,07032.2531928,W,1,24,0.6,13.520,M,-29.742,M,0.0,*56
###2023-12-09 13:05:34.367170$GNGGA,180533.50,4138.0647188,N,07032.2533120,W,1,24,0.6,13.527,M,-29.742,M,0.0,*5A
###2023-12-09 13:05:34.567669$GNGGA,180533.70,4138.0648347,N,07032.2534287,W,1,24,0.6,13.523,M,-29.742,M,0.0,*5B
###2023-12-09 13:05:34.767624$GNGGA,180533.90,4138.0649560,N,07032.2535455,W,1,24,0.6,13.520,M,-29.742,M,0.0,*5C
###2023-12-09 13:05:34.969985$GNRMC,180534.10,A,4138.0650829,N,07032.2536589,W,2.76,327.75,091223,,,A*5A
###2023-12-09 13:05:34.972863$GNGGA,180534.10,4138.0650829,N,07032.2536589,W,1,24,0.6,13.516,M,-29.742,M,0.0,*5D
###2023-12-09 13:05:34.974725$GPGSA,A,3,03,04,16,26,28,29,31,32,,,,,1.1,0.6,0.9*3B
###2023-12-09 13:05:34.976437$GLGSA,A,3,65,71,72,73,74,75,,,,,,,1.1,0.6,0.9*24
###2023-12-09 13:05:34.978019$GAGSA,A,3,04,19,21,27,,,,,,,,,1.1,0.6,0.9*26
###2023-12-09 13:05:34.979670$GBGSA,A,3,14,24,25,26,33,,,,,,,,1.1,0.6,0.9*2F
###2023-12-09 13:05:34.981982$GPGSV,2,1,08,03,34,259,44,04,34,311,41,16,52,213,46,26,82,210,48*7E
###2023-12-09 13:05:34.984311$GPGSV,2,2,08,28,48,072,45,29,25,059,43,31,68,042,47,32,17,141,45*7F
###2023-12-09 13:05:34.986648$GLGSV,2,1,06,65,26,327,40,71,39,173,45,72,73,261,45,73,34,043,44*6C
###2023-12-09 13:05:34.988384$GLGSV,2,2,06,74,69,343,42,75,33,255,45,,,,,,,,*6C
###2023-12-09 13:05:34.990711$GAGSV,1,1,04,04,30,312,40,19,83,207,40,21,86,104,46,27,32,048,42*69
###2023-12-09 13:05:34.993036$GBGSV,2,1,05,14,42,192,45,24,72,028,49,25,42,263,47,26,25,063,44*62
###2023-12-09 13:05:34.994485$GBGSV,2,2,05,33,56,230,48,,,,,,,,,,,,*50
###2023-12-09 13:05:34.995812$GNVTG,327.75,T,,M,2.76,N,5.11,K,A*21
###2023-12-09 13:05:34.997454$GNGST,180534.10,18.000,,,,0.081,0.066,0.160*5A
###2023-12-09 13:05:34.998748$GNZDA,180534.10,09,12,2023,00,00*7B
###2023-12-09 13:05:34.999382$GNEBP,,,,,,M*13
###2023-12-09 13:05:35.167501$GNGGA,180534.30,4138.0652158,N,07032.2537656,W,1,24,0.6,13.513,M,-29.742,M,0.0,*57
###2023-12-09 13:05:35.367122$GNGGA,180534.50,4138.0653571,N,07032.2538608,W,1,24,0.6,13.513,M,-29.742,M,0.0,*5B
###2023-12-09 13:05:35.567481$GNGGA,180534.70,4138.0655054,N,07032.2539457,W,1,24,0.6,13.517,M,-29.742,M,0.0,*50
###2023-12-09 13:05:35.768550$GNGGA,180534.90,4138.0656554,N,07032.2540277,W,1,24,0.6,13.516,M,-29.742,M,0.0,*53
###2023-12-09 13:05:35.968960$GNRMC,180535.10,A,4138.0658101,N,07032.2541047,W,3.01,342.00,091223,,,A*57
###2023-12-09 13:05:35.971836$GNGGA,180535.10,4138.0658101,N,07032.2541047,W,1,24,0.6,13.515,M,-29.742,M,0.0,*53
###2023-12-09 13:05:35.973700$GPGSA,A,3,03,04,16,26,28,29,31,32,,,,,1.1,0.6,0.9*3B
###2023-12-09 13:05:35.975435$GLGSA,A,3,65,71,72,73,74,75,,,,,,,1.1,0.6,0.9*24
###2023-12-09 13:05:35.977025$GAGSA,A,3,04,19,21,27,,,,,,,,,1.1,0.6,0.9*26
###2023-12-09 13:05:35.978688$GBGSA,A,3,14,24,25,26,33,,,,,,,,1.1,0.6,0.9*2F
###2023-12-09 13:05:35.981027$GPGSV,2,1,08,03,34,259,44,04,34,311,41,16,52,213,47,26,82,210,48*7F
###2023-12-09 13:05:35.983370$GPGSV,2,2,08,28,48,072,45,29,25,059,42,31,68,042,47,32,17,141,45*7E
###2023-12-09 13:05:35.985714$GLGSV,2,1,06,65,26,327,41,71,39,173,46,72,73,261,46,73,34,043,44*6D
###2023-12-09 13:05:35.987476$GLGSV,2,2,06,74,69,343,41,75,33,255,46,,,,,,,,*6C
###2023-12-09 13:05:35.989804$GAGSV,1,1,04,04,30,312,40,19,83,207,41,21,86,104,46,27,32,048,41*6B
###2023-12-09 13:05:35.992145$GBGSV,2,1,05,14,42,192,43,24,72,028,48,25,42,263,47,26,25,063,44*65
###2023-12-09 13:05:35.993601$GBGSV,2,2,05,33,56,230,48,,,,,,,,,,,,*50
###2023-12-09 13:05:35.994935$GNVTG,342.00,T,,M,3.01,N,5.58,K,A*2C
###2023-12-09 13:05:35.996589$GNGST,180535.10,18.000,,,,0.081,0.066,0.160*5B
###2023-12-09 13:05:35.997885$GNZDA,180535.10,09,12,2023,00,00*7A
###2023-12-09 13:05:35.998524$GNEBP,,,,,,M*13
###2023-12-09 13:05:36.167593$GNGGA,180535.30,4138.0659703,N,07032.2541729,W,1,24,0.6,13.514,M,-29.742,M,0.0,*5A
###2023-12-09 13:05:36.367082$GNGGA,180535.50,4138.0661352,N,07032.2542368,W,1,24,0.6,13.516,M,-29.742,M,0.0,*57
###2023-12-09 13:05:36.567599$GNGGA,180535.70,4138.0663005,N,07032.2543078,W,1,24,0.6,13.511,M,-29.742,M,0.0,*52
###2023-12-09 13:05:36.767026$GNGGA,180535.90,4138.0664654,N,07032.2543861,W,1,24,0.6,13.512,M,-29.742,M,0.0,*5A
###2023-12-09 13:05:36.969277$GNRMC,180536.10,A,4138.0666327,N,07032.2544593,W,3.19,342.97,091223,,,A*51
###2023-12-09 13:05:36.972172$GNGGA,180536.10,4138.0666327,N,07032.2544593,W,1,24,0.6,13.513,M,-29.742,M,0.0,*54
###2023-12-09 13:05:36.974031$GPGSA,A,3,03,04,16,26,28,29,31,32,,,,,1.1,0.6,0.9*3B
###2023-12-09 13:05:36.975758$GLGSA,A,3,65,71,72,73,74,75,,,,,,,1.1,0.6,0.9*24
