###2023-12-09 13:16:29.008953$GBGSV,2,2,06,33,53,225,47,35,16,064,43,,,,,,,,*69
###2023-12-09 13:16:29.010233$GNVTG,3.05,T,,M,3.83,N,7.09,K,A*23
###2023-12-09 13:16:29.011916$GNGST,181628.10,18.000,,,,0.097,0.070,0.170*54
###2023-12-09 13:16:29.013215$GNZDA,181628.10,09,12,2023,00,00*74
###2023-12-09 13:16:29.013856$GNEBP,,,,,,M*13
###2023-12-09 13:16:29.180349$GNGGA,181628.30,4138.0798055,N,07032.2754053,W,1,24,0.7,13.207,M,-29.742,M,0.0,*54
###2023-12-09 13:16:29.378464$GNGGA,181628.50,4138.0800234,N,07032.2753858,W,1,24,0.7,13.204,M,-29.742,M,0.0,*5E
###2023-12-09 13:16:29.579371$GNGGA,181628.70,4138.0802495,N,07032.2753796,W,1,24,0.7,13.200,M,-29.742,M,0.0,*5A
###2023-12-09 13:16:29.779623$GNGGA,181628.90,4138.0804773,N,07032.2753655,W,1,24,0.7,13.185,M,-29.742,M,0.0,*59
###2023-12-09 13:16:29.982309$GNRMC,181629.10,A,4138.0807022,N,07032.2753326,W,4.06,6.57,091223,,,A*58
###2023-12-09 13:16:29.985195$GNGGA,181629.10,4138.0807022,N,07032.2753326,W,1,24,0.7,13.186,M,-29.742,M,0.0,*52
###2023-12-09 13:16:29.986994$GPGSA,A,3,03,04,16,26,28,29,31,,,,,,1.2,0.7,1.0*30
###2023-12-09 13:16:29.988698$GLGSA,A,3,65,71,72,73,74,75,,,,,,,1.2,0.7,1.0*2E
###2023-12-09 13:16:29.990266$GAGSA,A,3,04,19,21,27,,,,,,,,,1.2,0.7,1.0*2C
###2023-12-09 13:16:29.991985$GBGSA,A,3,14,24,25,26,33,35,,,,,,,1.2,0.7,1.0*23
###2023-12-09 13:16:29.994298$GPGSV,2,1,07,03,32,254,43,04,38,311,45,16,57,216,46,26,87,208,49*78
###2023-12-09 13:16:29.996337$GPGSV,2,2,07,28,44,077,44,29,24,054,41,31,65,052,46,,,,*49
###2023-12-09 13:16:29.998664$GLGSV,2,1,06,65,30,325,42,71,33,174,46,72,71,243,46,73,30,046,41*60
###2023-12-09 13:16:30.000404$GLGSV,2,2,06,74,66,355,41,75,37,260,47,,,,,,,,*67
###2023-12-09 13:16:30.002729$GAGSV,1,1,04,04,34,312,43,19,79,190,41,21,83,062,46,27,28,049,39*65
###2023-12-09 13:16:30.005050$GBGSV,2,1,06,14,36,191,45,24,68,036,48,25,45,268,48,26,22,066,44*65
###2023-12-09 13:16:30.006827$GBGSV,2,2,06,33,53,225,47,35,16,064,42,,,,,,,,*68
###2023-12-09 13:16:30.008081$GNVTG,6.57,T,,M,4.06,N,7.52,K,A*25
###2023-12-09 13:16:30.009711$GNGST,181629.10,18.000,,,,0.097,0.069,0.170*5D
###2023-12-09 13:16:30.011003$GNZDA,181629.10,09,12,2023,00,00*75
###2023-12-09 13:16:30.011634$GNEBP,,,,,,M*13
###2023-12-09 13:16:30.178555$GNGGA,181629.30,4138.0809265,N,07032.2752910,W,1,24,0.7,13.187,M,-29.742,M,0.0,*50
###2023-12-09 13:16:30.380160$GNGGA,181629.50,4138.0811451,N,07032.2752427,W,1,24,0.7,13.173,M,-29.742,M,0.0,*5C
###2023-12-09 13:16:30.580521$GNGGA,181629.70,4138.0813555,N,07032.2751957,W,1,24,0.7,13.155,M,-29.742,M,0.0,*54
###2023-12-09 13:16:30.779483$GNGGA,181629.90,4138.0815613,N,07032.2751537,W,1,24,0.7,13.154,M,-29.742,M,0.0,*56
###2023-12-09 13:16:30.983637$GNRMC,181630.10,A,4138.0817630,N,07032.2751146,W,3.58,8.77,091223,,,A*52
###2023-12-09 13:16:30.986495$GNGGA,181630.10,4138.0817630,N,07032.2751146,W,1,24,0.7,13.154,M,-29.742,M,0.0,*57
###2023-12-09 13:16:30.988293$GPGSA,A,3,03,04,16,26,28,29,31,,,,,,1.2,0.7,1.0*30
###2023-12-09 13:16:30.990010$GLGSA,A,3,65,71,72,73,74,75,,,,,,,1.2,0.7,1.0*2E
###2023-12-09 13:16:30.991601$GAGSA,A,3,04,19,21,27,,,,,,,,,1.2,0.7,1.0*2C
###2023-12-09 13:16:30.993312$GBGSA,A,3,14,24,25,26,33,35,,,,,,,1.2,0.7,1.0*23
###2023-12-09 13:16:30.995642$GPGSV,2,1,07,03,32,254,43,04,38,311,43,16,57,216,46,26,87,208,49*7E
###2023-12-09 13:16:30.997682$GPGSV,2,2,07,28,44,077,45,29,24,054,41,31,65,052,46,,,,*48
###2023-12-09 13:16:31.000030$GLGSV,2,1,06,65,30,325,42,71,33,174,46,72,71,243,46,73,30,046,42*63
###2023-12-09 13:16:31.001775$GLGSV,2,2,06,74,66,355,41,75,37,260,46,,,,,,,,*66
###2023-12-09 13:16:31.004118$GAGSV,1,1,04,04,34,312,42,19,79,190,41,21,83,062,45,27,28,049,39*67
###2023-12-09 13:16:31.006471$GBGSV,2,1,06,14,36,191,45,24,68,036,48,25,45,268,47,26,21,066,44*69
###2023-12-09 13:16:31.008228$GBGSV,2,2,06,33,53,225,47,35,16,064,43,,,,,,,,*69
###2023-12-09 13:16:31.009480$GNVTG,8.77,T,,M,3.58,N,6.62,K,A*27
###2023-12-09 13:16:31.011134$GNGST,181630.10,18.000,,,,0.097,0.069,0.170*55
###2023-12-09 13:16:31.012427$GNZDA,181630.10,09,12,2023,00,00*7D
###2023-12-09 13:16:31.013066$GNEBP,,,,,,M*13
###2023-12-09 13:16:31.179020$GNGGA,181630.30,4138.0819621,N,07032.2750766,W,1,24,0.7,13.154,M,-29.742,M,0.0,*5E
###2023-12-09 13:16:31.379296$GNGGA,181630.50,4138.0821614,N,07032.2750375,W,1,24,0.7,13.157,M,-29.742,M,0.0,*50
###2023-12-09 13:16:31.578207$GNGGA,181630.70,4138.0823637,N,07032.2749997,W,1,24,0.7,13.154,M,-29.742,M,0.0,*5C
###2023-12-09 13:16:31.778192$GNGGA,181630.90,4138.0825685,N,07032.2749654,W,1,24,0.7,13.148,M,-29.742,M,0.0,*50
###2023-12-09 13:16:31.988090$GNRMC,181631.10,A,4138.0827759,N,07032.2749269,W,3.75,9.37,091223,,,A*53
###2023-12-09 13:16:31.990953$GNGGA,181631.10,4138.0827759,N,07032.2749269,W,1,24,0.7,13.146,M,-29.742,M,0.0,*5F
###2023-12-09 13:16:31.992749$GPGSA,A,3,03,04,16,26,28,29,31,,,,,,1.2,0.7,1.0*30
###2023-12-09 13:16:31.994459$GLGSA,A,3,65,71,72,73,74,75,,,,,,,1.2,0.7,1.0*2E
###2023-12-09 13:16:31.996052$GAGSA,A,3,04,19,21,27,,,,,,,,,1.2,0.7,1.0*2C
###2023-12-09 13:16:31.997767$GBGSA,A,3,14,24,25,26,33,35,,,,,,,1.2,0.7,1.0*23
###2023-12-09 13:16:32.000104$GPGSV,2,1,07,03,32,254,43,04,38,311,45,16,57,216,46,26,87,208,49*78
###2023-12-09 13:16:32.002142$GPGSV,2,2,07,28,44,077,44,29,24,054,41,31,65,052,46,,,,*49
###2023-12-09 13:16:32.004479$GLGSV,2,1,06,65,30,325,41,71,33,174,46,72,71,243,46,73,30,046,40*62
###2023-12-09 13:16:32.006223$GLGSV,2,2,06,74,66,355,40,75,37,260,47,,,,,,,,*66
###2023-12-09 13:16:32.008555$GAGSV,1,1,04,04,34,312,42,19,79,190,40,21,83,062,46,27,28,049,39*65
###2023-12-09 13:16:32.010887$GBGSV,2,1,06,14,36,191,45,24,68,036,48,25,45,268,48,26,21,066,42*60
###2023-12-09 13:16:32.012627$GBGSV,2,2,06,33,53,225,48,35,16,064,43,,,,,,,,*66
###2023-12-09 13:16:32.013881$GNVTG,9.37,T,,M,3.75,N,6.95,K,A*25
###2023-12-09 13:16:32.015532$GNGST,181631.10,18.000,,,,0.097,0.069,0.170*54
###2023-12-09 13:16:32.016820$GNZDA,181631.10,09,12,2023,00,00*7C
###2023-12-09 13:16:32.017455$GNEBP,,,,,,M*13
###2023-12-09 13:16:32.178452$GNGGA,181631.30,4138.0829822,N,07032.2748722,W,1,24,0.7,13.141,M,-29.742,M,0.0,*5C
###2023-12-09 13:16:32.377958$GNGGA,181631.50,4138.0831895,N,07032.2748126,W,1,24,0.7,13.131,M,-29.742,M,0.0,*5A
###2023-12-09 13:16:32.580384$GNGGA,181631.70,4138.0833985,N,07032.2747738,W,1,24,0.7,13.119,M,-29.742,M,0.0,*56
###2023-12-09 13:16:32.779910$GNGGA,181631.90,4138.0836094,N,07032.2747432,W,1,24,0.7,13.118,M,-29.742,M,0.0,*5C
###2023-12-09 13:16:32.988681$GNRMC,181632.10,A,4138.0838179,N,07032.2746913,W,3.87,11.94,091223,,,A*6E
###2023-12-09 13:16:32.991569$GNGGA,181632.10,4138.0838179,N,07032.2746913,W,1,24,0.7,13.115,M,-29.742,M,0.0,*59
###2023-12-09 13:16:32.993361$GPGSA,A,3,03,04,16,26,28,29,31,,,,,,1.2,0.7,1.0*30
###2023-12-09 13:16:32.995090$GLGSA,A,3,65,71,72,73,74,75,,,,,,,1.2,0.7,1.0*2E
###2023-12-09 13:16:32.996680$GAGSA,A,3,04,19,21,27,,,,,,,,,1.2,0.7,1.0*2C
###2023-12-09 13:16:32.998393$GBGSA,A,3,14,24,25,26,33,35,,,,,,,1.2,0.7,1.0*23
###2023-12-09 13:16:33.000728$GPGSV,2,1,07,03,32,254,43,04,38,311,44,16,57,216,46,26,87,208,48*78
###2023-12-09 13:16:33.002780$GPGSV,2,2,07,28,44,077,44,29,24,054,42,31,65,052,46,,,,*4A
###2023-12-09 13:16:33.005108$GLGSV,2,1,06,65,30,325,43,71,33,174,46,72,71,243,46,73,30,046,41*61
###2023-12-09 13:16:33.006871$GLGSV,2,2,06,74,66,355,41,75,37,260,47,,,,,,,,*67
###2023-12-09 13:16:33.009206$GAGSV,1,1,04,04,34,312,42,19,79,190,41,21,83,062,46,27,28,049,39*64
###2023-12-09 13:16:33.011543$GBGSV,2,1,06,14,36,191,45,24,68,036,48,25,45,268,48,26,21,066,43*61
###2023-12-09 13:16:33.013284$GBGSV,2,2,06,33,53,225,48,35,16,064,42,,,,,,,,*67
###2023-12-09 13:16:33.014587$GNVTG,11.94,T,,M,3.87,N,7.16,K,A*12
###2023-12-09 13:16:33.016250$GNGST,181632.10,18.000,,,,0.097,0.069,0.170*57
###2023-12-09 13:16:33.017548$GNZDA,181632.10,09,12,2023,00,00*7F
###2023-12-09 13:16:33.018183$GNEBP,,,,,,M*13
###2023-12-09 13:16:33.181382$GNGGA,181632.30,4138.0840284,N,07032.2746370,W,1,24,0.7,13.116,M,-29.742,M,0.0,*59
###2023-12-09 13:16:33.378360$GNGGA,181632.50,4138.0842396,N,07032.2746142,W,1,24,0.7,13.110,M,-29.742,M,0.0,*5A
###2023-12-09 13:16:33.580580$GNGGA,181632.70,4138.0844512,N,07032.2746037,W,1,24,0.7,13.112,M,-29.742,M,0.0,*55
###2023-12-09 13:16:33.779684$GNGGA,181632.90,4138.0846594,N,07032.2745767,W,1,24,0.7,13.107,M,-29.742,M,0.0,*52
###2023-12-09 13:16:33.989185$GNRMC,181633.10,A,4138.0848654,N,07032.2745473,W,3.63,2.73,091223,,,A*59
###2023-12-09 13:16:33.992067$GNGGA,181633.10,4138.0848654,N,07032.2745473,W,1,24,0.7,13.097,M,-29.742,M,0.0,*54
###2023-12-09 13:16:33.993865$GPGSA,A,3,03,04,16,26,28,29,31,,,,,,1.2,0.7,1.0*30
###2023-12-09 13:16:33.995595$GLGSA,A,3,65,71,72,73,74,75,,,,,,,1.2,0.7,1.0*2E
###2023-12-09 13:16:33.997177$GAGSA,A,3,04,19,21,27,,,,,,,,,1.2,0.7,1.0*2C
###2023-12-09 13:16:33.998902$GBGSA,A,3,14,24,25,26,33,35,,,,,,,1.2,0.7,1.0*23
###2023-12-09 13:16:34.001229$GPGSV,2,1,07,03,32,254,44,04,38,311,44,16,57,216,47,26,87,208,48*7E
