###2023-12-09 13:45:05.024930$GBGSV,1,1,04,12,19,123,43,24,59,051,48,25,54,281,41,35,16,052,38*64
###2023-12-09 13:45:05.026283$GNVTG,243.17,T,,M,0.02,N,0.04,K,A*26
###2023-12-09 13:45:05.027916$GNGST,184504.10,7.700,,,,0.190,0.110,0.300*61
###2023-12-09 13:45:05.029212$GNZDA,184504.10,09,12,2023,00,00*7C
###2023-12-09 13:45:05.029849$GNEBP,,,,,,M*13
###2023-12-09 13:45:05.200776$GNGGA,184504.30,4138.0392716,N,07032.4388798,W,1,18,0.8,14.039,M,-29.746,M,0.0,*5D
###2023-12-09 13:45:05.403923$GNGGA,184504.50,4138.0392727,N,07032.4388790,W,1,18,0.8,14.042,M,-29.746,M,0.0,*5D
###2023-12-09 13:45:05.601439$GNGGA,184504.70,4138.0392742,N,07032.4388792,W,1,18,0.8,14.046,M,-29.746,M,0.0,*5A
###2023-12-09 13:45:05.803555$GNGGA,184504.90,4138.0392756,N,07032.4388793,W,1,18,0.8,14.051,M,-29.746,M,0.0,*56
###2023-12-09 13:45:06.005279$GNRMC,184505.10,A,4138.0392758,N,07032.4388793,W,0.02,243.17,091223,,,A*54
###2023-12-09 13:45:06.008800$GNGGA,184505.10,4138.0392758,N,07032.4388793,W,1,18,0.8,14.053,M,-29.746,M,0.0,*53
###2023-12-09 13:45:06.010902$GPGSA,A,3,04,16,26,28,29,31,,,,,,,1.3,0.8,1.1*3C
###2023-12-09 13:45:06.012974$GLGSA,A,3,65,72,73,74,75,83,,,,,,,1.3,0.8,1.1*2C
###2023-12-09 13:45:06.014744$GAGSA,A,3,04,27,,,,,,,,,,,1.3,0.8,1.1*28
###2023-12-09 13:45:06.016654$GBGSA,A,3,12,24,25,35,,,,,,,,,1.3,0.8,1.1*2E
###2023-12-09 13:45:06.019481$GPGSV,2,1,06,04,51,304,46,16,71,227,43,26,79,041,38,28,34,089,46*72
###2023-12-09 13:45:06.021602$GPGSV,2,2,06,29,18,043,43,31,56,072,49,,,,,,,,*74
###2023-12-09 13:45:06.024418$GLGSV,2,1,06,65,42,313,45,72,57,214,35,73,18,056,43,74,56,022,38*61
###2023-12-09 13:45:06.026524$GLGSV,2,2,06,75,47,279,45,83,16,042,37,,,,,,,,*61
###2023-12-09 13:45:06.028642$GAGSV,1,1,02,04,43,308,44,27,19,051,41,,,,,,,,*6E
###2023-12-09 13:45:06.031465$GBGSV,1,1,04,12,19,123,41,24,59,051,48,25,54,281,40,35,16,052,37*68
###2023-12-09 13:45:06.033070$GNVTG,243.17,T,,M,0.02,N,0.04,K,A*26
###2023-12-09 13:45:06.035073$GNGST,184505.10,7.700,,,,0.190,0.110,0.300*60
###2023-12-09 13:45:06.036636$GNZDA,184505.10,09,12,2023,00,00*7D
###2023-12-09 13:45:06.037408$GNEBP,,,,,,M*13
###2023-12-09 13:45:06.201422$GNGGA,184505.30,4138.0392772,N,07032.4388795,W,1,18,0.8,14.058,M,-29.746,M,0.0,*54
###2023-12-09 13:45:06.401467$GNGGA,184505.50,4138.0392782,N,07032.4388782,W,1,18,0.8,14.062,M,-29.746,M,0.0,*52
###2023-12-09 13:45:06.599403$GNGGA,184505.70,4138.0392805,N,07032.4388786,W,1,19,0.8,14.067,M,-29.746,M,0.0,*50
###2023-12-09 13:45:06.800976$GNGGA,184505.90,4138.0392811,N,07032.4388793,W,1,19,0.8,14.069,M,-29.746,M,0.0,*51
###2023-12-09 13:45:07.006429$GNRMC,184506.10,A,4138.0392828,N,07032.4388780,W,0.04,243.17,091223,,,A*5B
###2023-12-09 13:45:07.009899$GNGGA,184506.10,4138.0392828,N,07032.4388780,W,1,18,0.8,14.076,M,-29.746,M,0.0,*5D
###2023-12-09 13:45:07.012012$GPGSA,A,3,04,16,26,28,29,31,,,,,,,1.3,0.8,1.1*3C
###2023-12-09 13:45:07.014084$GLGSA,A,3,65,72,73,74,75,83,,,,,,,1.3,0.8,1.1*2C
###2023-12-09 13:45:07.015852$GAGSA,A,3,04,27,,,,,,,,,,,1.3,0.8,1.1*28
###2023-12-09 13:45:07.017767$GBGSA,A,3,12,24,25,35,,,,,,,,,1.3,0.8,1.1*2E
###2023-12-09 13:45:07.020586$GPGSV,2,1,06,04,51,304,46,16,71,227,44,26,79,041,40,28,34,089,45*79
###2023-12-09 13:45:07.022705$GPGSV,2,2,06,29,18,043,43,31,56,072,49,,,,,,,,*74
###2023-12-09 13:45:07.025516$GLGSV,2,1,06,65,42,313,45,72,57,214,35,73,18,056,43,74,56,022,37*6E
###2023-12-09 13:45:07.027648$GLGSV,2,2,06,75,47,279,45,83,16,042,37,,,,,,,,*61
###2023-12-09 13:45:07.029749$GAGSV,1,1,02,04,43,308,44,27,19,051,41,,,,,,,,*6E
###2023-12-09 13:45:07.032599$GBGSV,1,1,04,12,19,123,42,24,59,051,48,25,54,281,40,35,16,052,38*64
###2023-12-09 13:45:07.034208$GNVTG,243.17,T,,M,0.04,N,0.07,K,A*23
###2023-12-09 13:45:07.036184$GNGST,184506.10,7.500,,,,0.190,0.110,0.300*61
###2023-12-09 13:45:07.037743$GNZDA,184506.10,09,12,2023,00,00*7E
###2023-12-09 13:45:07.038516$GNEBP,,,,,,M*13
###2023-12-09 13:45:07.202043$GNGGA,184506.30,4138.0392834,N,07032.4388775,W,1,18,0.8,14.085,M,-29.746,M,0.0,*54
###2023-12-09 13:45:07.402924$GNGGA,184506.50,4138.0392843,N,07032.4388772,W,1,18,0.8,14.087,M,-29.746,M,0.0,*57
###2023-12-09 13:45:07.601494$GNGGA,184506.70,4138.0392849,N,07032.4388763,W,1,17,0.8,14.097,M,-29.746,M,0.0,*51
###2023-12-09 13:45:07.817720$GNGGA,184506.90,4138.0392852,N,07032.4388760,W,1,18,0.8,14.105,M,-29.746,M,0.0,*53
###2023-12-09 13:45:08.006074$GNRMC,184507.10,A,4138.0392872,N,07032.4388754,W,0.04,243.17,091223,,,A*5C
###2023-12-09 13:45:08.009371$GNGGA,184507.10,4138.0392872,N,07032.4388754,W,1,18,0.8,14.113,M,-29.746,M,0.0,*58
###2023-12-09 13:45:08.011118$GPGSA,A,3,04,16,26,28,29,31,,,,,,,1.3,0.8,1.1*3C
###2023-12-09 13:45:08.012851$GLGSA,A,3,65,72,73,74,75,83,,,,,,,1.3,0.8,1.1*2C
###2023-12-09 13:45:08.014307$GAGSA,A,3,04,27,,,,,,,,,,,1.3,0.8,1.1*28
###2023-12-09 13:45:08.015909$GBGSA,A,3,12,24,25,35,,,,,,,,,1.3,0.8,1.1*2E
###2023-12-09 13:45:08.018246$GPGSV,2,1,06,04,51,304,47,16,71,227,43,26,79,041,40,28,34,089,46*7C
###2023-12-09 13:45:08.020007$GPGSV,2,2,06,29,18,043,43,31,56,072,49,,,,,,,,*74
###2023-12-09 13:45:08.022335$GLGSV,2,1,06,65,42,313,45,72,57,214,35,73,18,056,42,74,56,022,36*6E
###2023-12-09 13:45:08.024097$GLGSV,2,2,06,75,47,279,46,83,16,042,37,,,,,,,,*62
###2023-12-09 13:45:08.025836$GAGSV,1,1,02,04,43,308,44,27,19,051,40,,,,,,,,*6F
###2023-12-09 13:45:08.028176$GBGSV,1,1,04,12,19,123,42,24,59,051,48,25,54,281,40,35,16,052,37*6B
###2023-12-09 13:45:08.029498$GNVTG,243.17,T,,M,0.04,N,0.07,K,A*23
###2023-12-09 13:45:08.031120$GNGST,184507.10,7.400,,,,0.190,0.110,0.300*61
###2023-12-09 13:45:08.032404$GNZDA,184507.10,09,12,2023,00,00*7F
###2023-12-09 13:45:08.033040$GNEBP,,,,,,M*13
###2023-12-09 13:45:08.201453$GNGGA,184507.30,4138.0392885,N,07032.4388752,W,1,19,0.8,14.117,M,-29.746,M,0.0,*51
###2023-12-09 13:45:08.400023$GNGGA,184507.50,4138.0392886,N,07032.4388752,W,1,17,0.8,14.117,M,-29.746,M,0.0,*5A
###2023-12-09 13:45:08.600706$GNGGA,184507.70,4138.0392889,N,07032.4388740,W,1,17,0.8,14.120,M,-29.746,M,0.0,*50
###2023-12-09 13:45:08.799206$GNGGA,184507.90,4138.0392890,N,07032.4388741,W,1,17,0.8,14.126,M,-29.746,M,0.0,*51
###2023-12-09 13:45:09.007273$GNRMC,184508.10,A,4138.0392891,N,07032.4388741,W,0.04,243.17,091223,,,A*5A
###2023-12-09 13:45:09.010134$GNGGA,184508.10,4138.0392891,N,07032.4388741,W,1,17,0.8,14.127,M,-29.746,M,0.0,*56
###2023-12-09 13:45:09.011861$GPGSA,A,3,04,16,26,28,29,31,,,,,,,1.3,0.8,1.1*3C
###2023-12-09 13:45:09.013496$GLGSA,A,3,65,73,74,75,83,,,,,,,,1.3,0.8,1.1*29
###2023-12-09 13:45:09.014958$GAGSA,A,3,04,27,,,,,,,,,,,1.3,0.8,1.1*28
###2023-12-09 13:45:09.016569$GBGSA,A,3,12,24,25,35,,,,,,,,,1.3,0.8,1.1*2E
###2023-12-09 13:45:09.018895$GPGSV,2,1,06,04,51,304,47,16,71,227,43,26,79,041,40,28,34,089,46*7C
###2023-12-09 13:45:09.020634$GPGSV,2,2,06,29,18,043,43,31,56,072,49,,,,,,,,*74
###2023-12-09 13:45:09.022959$GLGSV,2,1,05,65,42,313,44,73,18,056,42,74,56,022,36,75,47,279,45*66
###2023-12-09 13:45:09.024406$GLGSV,2,2,05,83,16,042,37,,,,,,,,,,,,*5E
###2023-12-09 13:45:09.026135$GAGSV,1,1,02,04,43,308,43,27,19,051,38,,,,,,,,*67
###2023-12-09 13:45:09.028468$GBGSV,1,1,04,12,19,123,42,24,59,051,48,25,54,281,40,35,16,052,39*65
###2023-12-09 13:45:09.029788$GNVTG,243.17,T,,M,0.04,N,0.07,K,A*23
###2023-12-09 13:45:09.031406$GNGST,184508.10,6.900,,,,0.190,0.110,0.300*62
###2023-12-09 13:45:09.032689$GNZDA,184508.10,09,12,2023,00,00*70
###2023-12-09 13:45:09.033324$GNEBP,,,,,,M*13
###2023-12-09 13:45:09.210891$GNGGA,184508.30,4138.0392882,N,07032.4388742,W,1,17,0.8,14.127,M,-29.746,M,0.0,*55
###2023-12-09 13:45:09.401514$GNGGA,184508.50,4138.0392880,N,07032.4388738,W,1,17,0.8,14.133,M,-29.746,M,0.0,*59
###2023-12-09 13:45:09.599776$GNGGA,184508.70,4138.0392878,N,07032.4388737,W,1,17,0.8,14.134,M,-29.746,M,0.0,*54
###2023-12-09 13:45:09.800426$GNGGA,184508.90,4138.0392882,N,07032.4388741,W,1,18,0.8,14.133,M,-29.746,M,0.0,*56
###2023-12-09 13:45:10.003329$GNRMC,184509.10,A,4138.0392900,N,07032.4388741,W,0.04,243.17,091223,,,A*52
###2023-12-09 13:45:10.006189$GNGGA,184509.10,4138.0392900,N,07032.4388741,W,1,18,0.8,14.135,M,-29.746,M,0.0,*52
###2023-12-09 13:45:10.007932$GPGSA,A,3,04,16,26,28,29,31,,,,,,,1.3,0.8,1.1*3C
###2023-12-09 13:45:10.009818$GLGSA,A,3,65,73,74,75,83,,,,,,,,1.3,0.8,1.1*29
###2023-12-09 13:45:10.011366$GAGSA,A,3,04,21,27,,,,,,,,,,1.3,0.8,1.1*2B
###2023-12-09 13:45:10.012956$GBGSA,A,3,12,24,25,35,,,,,,,,,1.3,0.8,1.1*2E
###2023-12-09 13:45:10.015290$GPGSV,2,1,06,04,51,304,47,16,71,227,43,26,79,041,41,28,34,089,45*7E
###2023-12-09 13:45:10.017042$GPGSV,2,2,06,29,18,043,43,31,56,072,49,,,,,,,,*74
###2023-12-09 13:45:10.019382$GLGSV,2,1,05,65,42,313,45,73,18,056,43,74,56,022,35,75,47,279,46*66
###2023-12-09 13:45:10.020830$GLGSV,2,2,05,83,16,042,38,,,,,,,,,,,,*51
###2023-12-09 13:45:10.022899$GAGSV,1,1,03,04,43,308,45,21,73,044,35,27,19,051,41,,,,*5F
