###2023-12-09 12:32:18.950349$GLGSV,1,1,04,71,58,169,48,72,65,311,46,73,49,033,46,74,71,287,43*6B
###2023-12-09 12:32:18.952756$GAGSV,1,1,04,04,20,311,43,19,80,306,41,21,76,177,46,27,42,050,40*6D
###2023-12-09 12:32:18.955144$GBGSV,2,1,05,14,56,198,44,24,81,339,48,25,32,252,45,26,36,057,45*61
###2023-12-09 12:32:18.956626$GBGSV,2,2,05,33,63,257,48,,,,,,,,,,,,*57
###2023-12-09 12:32:18.957961$GNVTG,320.35,T,,M,0.60,N,1.12,K,A*20
###2023-12-09 12:32:18.959644$GNGST,173218.10,20.000,,,,0.081,0.074,0.170*56
###2023-12-09 12:32:18.960953$GNZDA,173218.10,09,12,2023,00,00*7E
###2023-12-09 12:32:18.961607$GNEBP,,,,,,M*13
###2023-12-09 12:32:19.129893$GNGGA,173218.30,4138.0439490,N,07032.4273527,W,1,21,0.7,13.071,M,-29.745,M,0.0,*5A
###2023-12-09 12:32:19.330037$GNGGA,173218.50,4138.0439617,N,07032.4273642,W,1,21,0.7,13.073,M,-29.745,M,0.0,*53
###2023-12-09 12:32:19.530052$GNGGA,173218.70,4138.0439733,N,07032.4273700,W,1,21,0.7,13.077,M,-29.745,M,0.0,*55
###2023-12-09 12:32:19.729758$GNGGA,173218.90,4138.0439869,N,07032.4273807,W,1,21,0.7,13.079,M,-29.745,M,0.0,*5D
###2023-12-09 12:32:19.932528$GNRMC,173219.10,A,4138.0440052,N,07032.4274008,W,0.49,320.35,091223,,,A*5F
###2023-12-09 12:32:19.935609$GNGGA,173219.10,4138.0440052,N,07032.4274008,W,1,21,0.7,13.080,M,-29.745,M,0.0,*5C
###2023-12-09 12:32:19.937660$GPGSA,A,3,03,04,16,26,28,29,31,32,,,,,1.3,0.7,1.1*31
###2023-12-09 12:32:19.939439$GLGSA,A,3,71,72,73,74,,,,,,,,,1.3,0.7,1.1*2F
###2023-12-09 12:32:19.941185$GAGSA,A,3,04,19,21,27,,,,,,,,,1.3,0.7,1.1*2C
###2023-12-09 12:32:19.943006$GBGSA,A,3,14,24,25,26,33,,,,,,,,1.3,0.7,1.1*25
###2023-12-09 12:32:19.945499$GPGSV,2,1,08,03,39,279,45,04,20,310,44,16,35,207,44,26,65,206,48*79
###2023-12-09 12:32:19.948016$GPGSV,2,2,08,28,59,054,44,29,25,075,40,31,73,356,47,32,31,133,46*79
###2023-12-09 12:32:19.950545$GLGSV,1,1,04,71,58,169,49,72,65,311,47,73,49,033,46,74,71,287,43*6B
###2023-12-09 12:32:19.953059$GAGSV,1,1,04,04,20,311,44,19,80,306,40,21,76,177,46,27,42,050,42*69
###2023-12-09 12:32:19.955535$GBGSV,2,1,05,14,56,198,44,24,81,339,48,25,32,252,44,26,36,057,45*60
###2023-12-09 12:32:19.957103$GBGSV,2,2,05,33,63,257,48,,,,,,,,,,,,*57
###2023-12-09 12:32:19.958525$GNVTG,320.35,T,,M,0.49,N,0.90,K,A*20
###2023-12-09 12:32:19.960295$GNGST,173219.10,20.000,,,,0.081,0.074,0.170*57
###2023-12-09 12:32:19.961695$GNZDA,173219.10,09,12,2023,00,00*7F
###2023-12-09 12:32:19.962443$GNEBP,,,,,,M*13
###2023-12-09 12:32:20.131285$GNGGA,173219.30,4138.0440248,N,07032.4274268,W,1,21,0.7,13.092,M,-29.745,M,0.0,*50
###2023-12-09 12:32:20.329904$GNGGA,173219.50,4138.0440416,N,07032.4274405,W,1,21,0.7,13.097,M,-29.745,M,0.0,*53
###2023-12-09 12:32:20.529949$GNGGA,173219.70,4138.0440494,N,07032.4274427,W,1,21,0.7,13.098,M,-29.745,M,0.0,*54
###2023-12-09 12:32:20.729225$GNGGA,173219.90,4138.0440588,N,07032.4274501,W,1,21,0.7,13.095,M,-29.745,M,0.0,*5E
###2023-12-09 12:32:20.938852$GNRMC,173220.10,A,4138.0440798,N,07032.4274768,W,0.62,320.35,091223,,,A*5C
###2023-12-09 12:32:20.941739$GNGGA,173220.10,4138.0440798,N,07032.4274768,W,1,22,0.7,13.098,M,-29.745,M,0.0,*5C
###2023-12-09 12:32:20.943649$GPGSA,A,3,03,04,16,26,28,29,31,32,,,,,1.2,0.7,1.0*31
###2023-12-09 12:32:20.945329$GLGSA,A,3,71,72,73,74,75,,,,,,,,1.2,0.7,1.0*2D
###2023-12-09 12:32:20.946974$GAGSA,A,3,04,19,21,27,,,,,,,,,1.2,0.7,1.0*2C
###2023-12-09 12:32:20.948673$GBGSA,A,3,14,24,25,26,33,,,,,,,,1.2,0.7,1.0*25
###2023-12-09 12:32:20.951051$GPGSV,2,1,08,03,39,279,44,04,20,310,44,16,35,207,44,26,65,206,47*77
###2023-12-09 12:32:20.953409$GPGSV,2,2,08,28,59,054,44,29,25,075,40,31,73,356,47,32,31,133,46*79
###2023-12-09 12:32:20.955782$GLGSV,2,1,05,71,58,169,48,72,65,311,46,73,49,033,45,74,71,287,42*6B
###2023-12-09 12:32:20.957258$GLGSV,2,2,05,75,21,240,35,,,,,,,,,,,,*51
###2023-12-09 12:32:20.959619$GAGSV,1,1,04,04,20,311,44,19,80,306,41,21,76,177,45,27,42,050,42*6B
###2023-12-09 12:32:20.961974$GBGSV,2,1,05,14,56,198,44,24,81,339,48,25,32,252,45,26,36,057,44*60
###2023-12-09 12:32:20.963460$GBGSV,2,2,05,33,63,257,48,,,,,,,,,,,,*57
###2023-12-09 12:32:20.964796$GNVTG,320.35,T,,M,0.62,N,1.15,K,A*25
###2023-12-09 12:32:20.966450$GNGST,173220.10,19.000,,,,0.081,0.074,0.170*57
###2023-12-09 12:32:20.967762$GNZDA,173220.10,09,12,2023,00,00*75
###2023-12-09 12:32:20.968411$GNEBP,,,,,,M*13
###2023-12-09 12:32:21.132027$GNGGA,173220.30,4138.0441020,N,07032.4275051,W,1,21,0.7,13.099,M,-29.745,M,0.0,*55
###2023-12-09 12:32:21.330332$GNGGA,173220.50,4138.0441134,N,07032.4275158,W,1,21,0.7,13.112,M,-29.745,M,0.0,*5D
###2023-12-09 12:32:21.530152$GNGGA,173220.70,4138.0441171,N,07032.4275133,W,1,21,0.7,13.113,M,-29.745,M,0.0,*52
###2023-12-09 12:32:21.729654$GNGGA,173220.90,4138.0441249,N,07032.4275202,W,1,21,0.7,13.105,M,-29.745,M,0.0,*52
###2023-12-09 12:32:21.929929$GNRMC,173221.10,A,4138.0441473,N,07032.4275505,W,0.74,320.35,091223,,,A*55
###2023-12-09 12:32:21.933037$GNGGA,173221.10,4138.0441473,N,07032.4275505,W,1,21,0.7,13.097,M,-29.745,M,0.0,*5E
###2023-12-09 12:32:21.935096$GPGSA,A,3,03,04,16,26,28,29,31,32,,,,,1.3,0.7,1.1*31
###2023-12-09 12:32:21.936854$GLGSA,A,3,71,72,73,74,,,,,,,,,1.3,0.7,1.1*2F
###2023-12-09 12:32:21.938613$GAGSA,A,3,04,19,21,27,,,,,,,,,1.3,0.7,1.1*2C
###2023-12-09 12:32:21.940424$GBGSA,A,3,14,24,25,26,33,,,,,,,,1.3,0.7,1.1*25
###2023-12-09 12:32:21.942928$GPGSV,2,1,08,03,39,279,43,04,20,310,44,16,35,207,44,26,65,206,46*71
###2023-12-09 12:32:21.945421$GPGSV,2,2,08,28,59,054,44,29,25,075,41,31,73,356,47,32,31,133,47*79
###2023-12-09 12:32:21.947938$GLGSV,1,1,04,71,58,169,48,72,65,311,46,73,49,033,45,74,71,287,44*6F
###2023-12-09 12:32:21.950467$GAGSV,1,1,04,04,20,311,42,19,80,306,40,21,76,177,46,27,42,050,41*6C
###2023-12-09 12:32:21.952985$GBGSV,2,1,05,14,56,198,46,24,81,339,49,25,32,252,46,26,36,057,45*61
###2023-12-09 12:32:21.954638$GBGSV,2,2,05,33,63,257,50,,,,,,,,,,,,*5E
###2023-12-09 12:32:21.956122$GNVTG,320.35,T,,M,0.74,N,1.37,K,A*22
###2023-12-09 12:32:21.957880$GNGST,173221.10,19.000,,,,0.082,0.074,0.170*55
###2023-12-09 12:32:21.959291$GNZDA,173221.10,09,12,2023,00,00*74
###2023-12-09 12:32:21.960036$GNEBP,,,,,,M*13
###2023-12-09 12:32:22.130801$GNGGA,173221.30,4138.0441743,N,07032.4275879,W,1,21,0.7,13.109,M,-29.745,M,0.0,*5C
###2023-12-09 12:32:22.332366$GNGGA,173221.50,4138.0441839,N,07032.4275966,W,1,22,0.7,13.121,M,-29.745,M,0.0,*5E
###2023-12-09 12:32:22.537403$GNGGA,173221.70,4138.0441782,N,07032.4275837,W,1,22,0.7,13.111,M,-29.745,M,0.0,*55
###2023-12-09 12:32:22.732487$GNGGA,173221.90,4138.0441845,N,07032.4275934,W,1,22,0.7,13.093,M,-29.745,M,0.0,*56
###2023-12-09 12:32:22.931911$GNRMC,173222.10,A,4138.0442160,N,07032.4276376,W,1.01,314.26,091223,,,A*55
###2023-12-09 12:32:22.934798$GNGGA,173222.10,4138.0442160,N,07032.4276376,W,1,21,0.7,13.101,M,-29.745,M,0.0,*56
###2023-12-09 12:32:22.936683$GPGSA,A,3,03,04,16,26,28,29,31,32,,,,,1.3,0.7,1.1*31
###2023-12-09 12:32:22.938290$GLGSA,A,3,71,72,73,74,,,,,,,,,1.3,0.7,1.1*2F
###2023-12-09 12:32:22.939907$GAGSA,A,3,04,19,21,27,,,,,,,,,1.3,0.7,1.1*2C
###2023-12-09 12:32:22.941573$GBGSA,A,3,14,24,25,26,33,,,,,,,,1.3,0.7,1.1*25
###2023-12-09 12:32:22.943932$GPGSV,2,1,08,03,39,279,43,04,20,310,45,16,35,207,44,26,65,206,47*71
###2023-12-09 12:32:22.946291$GPGSV,2,2,08,28,59,054,45,29,25,075,42,31,73,356,47,32,31,133,45*79
###2023-12-09 12:32:22.948672$GLGSV,1,1,04,71,58,169,48,72,65,311,47,73,49,033,45,74,71,287,43*69
###2023-12-09 12:32:22.951056$GAGSV,1,1,04,04,20,311,43,19,80,306,41,21,76,177,46,27,42,050,42*6F
###2023-12-09 12:32:22.953405$GBGSV,2,1,05,14,56,198,45,24,81,339,49,25,32,252,46,26,36,057,46*61
###2023-12-09 12:32:22.954892$GBGSV,2,2,05,33,63,257,49,,,,,,,,,,,,*56
###2023-12-09 12:32:22.956231$GNVTG,314.26,T,,M,1.01,N,1.87,K,A*2F
###2023-12-09 12:32:22.957888$GNGST,173222.10,19.000,,,,0.082,0.074,0.170*56
###2023-12-09 12:32:22.959206$GNZDA,173222.10,09,12,2023,00,00*77
###2023-12-09 12:32:22.959854$GNEBP,,,,,,M*13
###2023-12-09 12:32:23.129577$GNGGA,173222.30,4138.0442432,N,07032.4276751,W,1,21,0.7,13.106,M,-29.745,M,0.0,*50
###2023-12-09 12:32:23.329846$GNGGA,173222.50,4138.0442408,N,07032.4276686,W,1,21,0.7,13.135,M,-29.745,M,0.0,*54
###2023-12-09 12:32:23.535766$GNGGA,173222.70,4138.0442313,N,07032.4276571,W,1,21,0.7,13.122,M,-29.745,M,0.0,*56
###2023-12-09 12:32:23.728706$GNGGA,173222.90,4138.0442464,N,07032.4276802,W,1,21,0.7,13.116,M,-29.745,M,0.0,*51
###2023-12-09 12:32:23.929792$GNRMC,173223.10,A,4138.0442821,N,07032.4277320,W,0.89,314.32,091223,,,A*5E
###2023-12-09 12:32:23.932702$GNGGA,173223.10,4138.0442821,N,07032.4277320,W,1,22,0.7,13.111,M,-29.745,M,0.0,*5B
###2023-12-09 12:32:23.934594$GPGSA,A,3,03,04,16,26,28,29,31,32,,,,,1.2,0.7,1.0*31
###2023-12-09 12:32:23.936265$GLGSA,A,3,71,72,73,74,75,,,,,,,,1.2,0.7,1.0*2D
###2023-12-09 12:32:23.937870$GAGSA,A,3,04,19,21,27,,,,,,,,,1.2,0.7,1.0*2C
###2023-12-09 12:32:23.939555$GBGSA,A,3,14,24,25,26,33,,,,,,,,1.2,0.7,1.0*25
###2023-12-09 12:32:23.941907$GPGSV,2,1,08,03,39,279,43,04,20,310,45,16,35,207,44,26,65,206,47*71
