###2023-12-09 12:42:06.972198$GNGST,174206.10,18.000,,,,0.077,0.070,0.160*59
###2023-12-09 12:42:06.973516$GNZDA,174206.10,09,12,2023,00,00*76
###2023-12-09 12:42:06.974161$GNEBP,,,,,,M*13
###2023-12-09 12:42:07.142544$GNGGA,174206.30,4138.0662042,N,07032.3769988,W,1,24,0.6,13.430,M,-29.744,M,0.0,*51
###2023-12-09 12:42:07.342796$GNGGA,174206.50,4138.0662020,N,07032.3770031,W,1,24,0.6,13.432,M,-29.744,M,0.0,*52
###2023-12-09 12:42:07.544219$GNGGA,174206.70,4138.0662279,N,07032.3770429,W,1,23,0.7,13.429,M,-29.744,M,0.0,*5F
###2023-12-09 12:42:07.742474$GNGGA,174206.90,4138.0662595,N,07032.3770915,W,1,24,0.6,13.417,M,-29.744,M,0.0,*5D
###2023-12-09 12:42:07.943571$GNRMC,174207.10,A,4138.0662687,N,07032.3771137,W,0.08,313.00,091223,,,A*52
###2023-12-09 12:42:07.946442$GNGGA,174207.10,4138.0662687,N,07032.3771137,W,1,24,0.6,13.416,M,-29.744,M,0.0,*5C
###2023-12-09 12:42:07.948341$GPGSA,A,3,03,04,16,26,28,29,31,32,,,,,1.1,0.6,0.9*3B
###2023-12-09 12:42:07.950064$GLGSA,A,3,65,71,72,73,74,75,,,,,,,1.1,0.6,0.9*24
###2023-12-09 12:42:07.951666$GAGSA,A,3,04,19,21,27,,,,,,,,,1.1,0.6,0.9*26
###2023-12-09 12:42:07.953316$GBGSA,A,3,14,24,25,26,33,,,,,,,,1.1,0.6,0.9*2F
###2023-12-09 12:42:07.955665$GPGSV,2,1,08,03,38,272,44,04,25,311,42,16,40,208,44,26,70,207,47*77
###2023-12-09 12:42:07.958012$GPGSV,2,2,08,28,55,060,43,29,25,070,39,31,72,013,46,32,27,136,43*7B
###2023-12-09 12:42:07.960360$GLGSV,2,1,06,65,15,329,37,71,52,170,47,72,68,302,47,73,44,035,46*66
###2023-12-09 12:42:07.962113$GLGSV,2,2,06,74,71,303,43,75,25,244,45,,,,,,,,*67
###2023-12-09 12:42:07.964459$GAGSV,1,1,04,04,23,311,43,19,83,289,40,21,80,172,46,27,39,049,41*63
###2023-12-09 12:42:07.966807$GBGSV,2,1,05,14,52,196,44,24,79,359,48,25,34,255,45,26,33,058,44*60
###2023-12-09 12:42:07.968270$GBGSV,2,2,05,33,62,248,47,,,,,,,,,,,,*57
###2023-12-09 12:42:07.969594$GNVTG,313.00,T,,M,0.08,N,0.14,K,A*2F
###2023-12-09 12:42:07.971253$GNGST,174207.10,18.000,,,,0.077,0.070,0.160*58
###2023-12-09 12:42:07.972547$GNZDA,174207.10,09,12,2023,00,00*77
###2023-12-09 12:42:07.973187$GNEBP,,,,,,M*13
###2023-12-09 12:42:08.142390$GNGGA,174207.30,4138.0662657,N,07032.3771173,W,1,24,0.6,13.426,M,-29.744,M,0.0,*50
###2023-12-09 12:42:08.342729$GNGGA,174207.50,4138.0662732,N,07032.3771333,W,1,24,0.6,13.424,M,-29.744,M,0.0,*50
###2023-12-09 12:42:08.543188$GNGGA,174207.70,4138.0663017,N,07032.3771757,W,1,24,0.6,13.415,M,-29.744,M,0.0,*57
###2023-12-09 12:42:08.743212$GNGGA,174207.90,4138.0663247,N,07032.3772138,W,1,24,0.6,13.406,M,-29.744,M,0.0,*50
###2023-12-09 12:42:08.949695$GNRMC,174208.10,A,4138.0663297,N,07032.3772302,W,0.12,313.00,091223,,,A*55
###2023-12-09 12:42:08.952565$GNGGA,174208.10,4138.0663297,N,07032.3772302,W,1,24,0.6,13.414,M,-29.744,M,0.0,*52
###2023-12-09 12:42:08.954419$GPGSA,A,3,03,04,16,26,28,29,31,32,,,,,1.1,0.6,0.9*3B
###2023-12-09 12:42:08.956156$GLGSA,A,3,65,71,72,73,74,75,,,,,,,1.1,0.6,0.9*24
###2023-12-09 12:42:08.957735$GAGSA,A,3,04,19,21,27,,,,,,,,,1.1,0.6,0.9*26
###2023-12-09 12:42:08.959394$GBGSA,A,3,14,24,25,26,33,,,,,,,,1.1,0.6,0.9*2F
###2023-12-09 12:42:08.961726$GPGSV,2,1,08,03,38,272,44,04,25,311,42,16,40,208,44,26,70,207,48*78
###2023-12-09 12:42:08.964076$GPGSV,2,2,08,28,55,060,43,29,25,070,39,31,72,013,47,32,27,136,44*7D
###2023-12-09 12:42:08.966410$GLGSV,2,1,06,65,15,329,37,71,52,170,48,72,68,302,47,73,44,035,45*6A
###2023-12-09 12:42:08.968172$GLGSV,2,2,06,74,71,303,43,75,25,244,46,,,,,,,,*64
###2023-12-09 12:42:08.970495$GAGSV,1,1,04,04,23,311,42,19,83,289,40,21,80,172,46,27,39,049,42*61
###2023-12-09 12:42:08.972834$GBGSV,2,1,05,14,52,196,45,24,79,359,49,25,34,255,44,26,33,058,45*60
###2023-12-09 12:42:08.974290$GBGSV,2,2,05,33,62,248,48,,,,,,,,,,,,*58
###2023-12-09 12:42:08.975632$GNVTG,313.00,T,,M,0.12,N,0.22,K,A*21
###2023-12-09 12:42:08.977283$GNGST,174208.10,18.000,,,,0.077,0.070,0.160*57
###2023-12-09 12:42:08.978591$GNZDA,174208.10,09,12,2023,00,00*78
###2023-12-09 12:42:08.979233$GNEBP,,,,,,M*13
###2023-12-09 12:42:09.142979$GNGGA,174208.30,4138.0663313,N,07032.3772386,W,1,24,0.6,13.421,M,-29.744,M,0.0,*57
###2023-12-09 12:42:09.343758$GNGGA,174208.50,4138.0663481,N,07032.3772673,W,1,24,0.6,13.417,M,-29.744,M,0.0,*57
###2023-12-09 12:42:09.544136$GNGGA,174208.70,4138.0663766,N,07032.3773091,W,1,24,0.6,13.405,M,-29.744,M,0.0,*57
###2023-12-09 12:42:09.742927$GNGGA,174208.90,4138.0663909,N,07032.3773324,W,1,24,0.6,13.395,M,-29.744,M,0.0,*5D
###2023-12-09 12:42:09.941553$GNRMC,174209.10,A,4138.0663918,N,07032.3773379,W,0.08,313.00,091223,,,A*5E
###2023-12-09 12:42:09.944412$GNGGA,174209.10,4138.0663918,N,07032.3773379,W,1,24,0.6,13.397,M,-29.744,M,0.0,*5E
###2023-12-09 12:42:09.946269$GPGSA,A,3,03,04,16,26,28,29,31,32,,,,,1.1,0.6,0.9*3B
###2023-12-09 12:42:09.948022$GLGSA,A,3,65,71,72,73,74,75,,,,,,,1.1,0.6,0.9*24
###2023-12-09 12:42:09.949609$GAGSA,A,3,04,19,21,27,,,,,,,,,1.1,0.6,0.9*26
###2023-12-09 12:42:09.951273$GBGSA,A,3,14,24,25,26,33,,,,,,,,1.1,0.6,0.9*2F
###2023-12-09 12:42:09.953589$GPGSV,2,1,08,03,38,272,44,04,25,311,41,16,40,208,45,26,70,207,48*7A
###2023-12-09 12:42:09.955941$GPGSV,2,2,08,28,55,060,44,29,25,070,40,31,72,013,46,32,27,136,44*75
###2023-12-09 12:42:09.958271$GLGSV,2,1,06,65,15,329,37,71,52,170,48,72,68,302,47,73,44,035,44*6B
###2023-12-09 12:42:09.960034$GLGSV,2,2,06,74,71,303,43,75,25,244,44,,,,,,,,*66
###2023-12-09 12:42:09.962362$GAGSV,1,1,04,04,23,311,41,19,83,289,41,21,80,172,46,27,39,049,41*60
###2023-12-09 12:42:09.964714$GBGSV,2,1,05,14,52,196,45,24,79,359,47,25,34,255,44,26,33,058,44*6F
###2023-12-09 12:42:09.966175$GBGSV,2,2,05,33,62,248,46,,,,,,,,,,,,*56
###2023-12-09 12:42:09.967512$GNVTG,313.00,T,,M,0.08,N,0.14,K,A*2F
###2023-12-09 12:42:09.969160$GNGST,174209.10,18.000,,,,0.078,0.070,0.160*59
###2023-12-09 12:42:09.970452$GNZDA,174209.10,09,12,2023,00,00*79
###2023-12-09 12:42:09.971107$GNEBP,,,,,,M*13
###2023-12-09 12:42:10.140340$GNGGA,174209.30,4138.0664151,N,07032.3773547,W,1,24,0.6,13.407,M,-29.744,M,0.0,*5B
###2023-12-09 12:42:10.340765$GNGGA,174209.50,4138.0664588,N,07032.3773771,W,1,24,0.6,13.403,M,-29.744,M,0.0,*5E
###2023-12-09 12:42:10.540119$GNGGA,174209.70,4138.0664952,N,07032.3773648,W,1,24,0.6,13.389,M,-29.744,M,0.0,*59
###2023-12-09 12:42:10.740242$GNGGA,174209.90,4138.0665196,N,07032.3773169,W,1,24,0.6,13.383,M,-29.744,M,0.0,*58
###2023-12-09 12:42:10.942154$GNRMC,174210.10,A,4138.0665700,N,07032.3772648,W,1.34,28.77,091223,,,A*64
###2023-12-09 12:42:10.945046$GNGGA,174210.10,4138.0665700,N,07032.3772648,W,1,24,0.6,13.391,M,-29.744,M,0.0,*57
###2023-12-09 12:42:10.946936$GPGSA,A,3,03,04,16,26,28,29,31,32,,,,,1.1,0.6,0.9*3B
###2023-12-09 12:42:10.948678$GLGSA,A,3,65,71,72,73,74,75,,,,,,,1.1,0.6,0.9*24
###2023-12-09 12:42:10.950273$GAGSA,A,3,04,19,21,27,,,,,,,,,1.1,0.6,0.9*26
###2023-12-09 12:42:10.951947$GBGSA,A,3,14,24,25,26,33,,,,,,,,1.1,0.6,0.9*2F
###2023-12-09 12:42:10.954287$GPGSV,2,1,08,03,38,272,44,04,25,311,43,16,40,208,45,26,70,207,49*79
###2023-12-09 12:42:10.956650$GPGSV,2,2,08,28,55,060,44,29,25,070,40,31,72,013,46,32,27,136,44*75
###2023-12-09 12:42:10.959016$GLGSV,2,1,06,65,15,329,37,71,52,170,48,72,68,302,46,73,44,035,44*6A
###2023-12-09 12:42:10.960763$GLGSV,2,2,06,74,71,303,42,75,25,244,44,,,,,,,,*67
###2023-12-09 12:42:10.963102$GAGSV,1,1,04,04,23,311,42,19,83,289,40,21,80,172,45,27,39,049,41*61
###2023-12-09 12:42:10.965436$GBGSV,2,1,05,14,52,196,45,24,79,359,47,25,34,255,44,26,33,058,44*6F
###2023-12-09 12:42:10.966911$GBGSV,2,2,05,33,62,248,47,,,,,,,,,,,,*57
###2023-12-09 12:42:10.968212$GNVTG,28.77,T,,M,1.34,N,2.48,K,A*11
###2023-12-09 12:42:10.969860$GNGST,174210.10,18.000,,,,0.078,0.070,0.160*51
###2023-12-09 12:42:10.971168$GNZDA,174210.10,09,12,2023,00,00*71
###2023-12-09 12:42:10.971811$GNEBP,,,,,,M*13
###2023-12-09 12:42:11.141634$GNGGA,174210.30,4138.0666474,N,07032.3772215,W,1,24,0.6,13.393,M,-29.744,M,0.0,*58
###2023-12-09 12:42:11.341759$GNGGA,174210.50,4138.0667343,N,07032.3771641,W,1,24,0.6,13.375,M,-29.744,M,0.0,*52
###2023-12-09 12:42:11.544310$GNGGA,174210.70,4138.0668127,N,07032.3770774,W,1,24,0.6,13.362,M,-29.744,M,0.0,*5F
###2023-12-09 12:42:11.741058$GNGGA,174210.90,4138.0668971,N,07032.3769769,W,1,24,0.6,13.374,M,-29.744,M,0.0,*59
###2023-12-09 12:42:11.942128$GNRMC,174211.10,A,4138.0669909,N,07032.3768710,W,2.25,40.87,091223,,,A*6B
###2023-12-09 12:42:11.944998$GNGGA,174211.10,4138.0669909,N,07032.3768710,W,1,24,0.6,13.367,M,-29.744,M,0.0,*53
###2023-12-09 12:42:11.946883$GPGSA,A,3,03,04,16,26,28,29,31,32,,,,,1.1,0.6,0.9*3B
###2023-12-09 12:42:11.948619$GLGSA,A,3,65,71,72,73,74,75,,,,,,,1.1,0.6,0.9*24
###2023-12-09 12:42:11.950206$GAGSA,A,3,04,19,21,27,,,,,,,,,1.1,0.6,0.9*26
###2023-12-09 12:42:11.951869$GBGSA,A,3,14,24,25,26,33,,,,,,,,1.1,0.6,0.9*2F
###2023-12-09 12:42:11.954196$GPGSV,2,1,08,03,38,272,44,04,25,311,41,16,40,208,45,26,70,207,48*7A
###2023-12-09 12:42:11.956544$GPGSV,2,2,08,28,55,060,44,29,25,070,40,31,72,013,47,32,27,136,44*74
###2023-12-09 12:42:11.958937$GLGSV,2,1,06,65,15,329,40,71,52,170,48,72,68,302,46,73,44,035,44*6A
