###2023-12-09 13:33:42.592878$GNGGA,183341.70,4138.0520628,N,07032.4158755,W,1,27,0.6,13.581,M,-29.745,M,0.0,*54
###2023-12-09 13:33:42.795222$GNGGA,183341.90,4138.0518880,N,07032.4158495,W,1,27,0.6,13.571,M,-29.745,M,0.0,*5D
###2023-12-09 13:33:42.997991$GNRMC,183342.10,A,4138.0517224,N,07032.4157955,W,3.01,166.18,091223,,,A*5C
###2023-12-09 13:33:43.000889$GNGGA,183342.10,4138.0517224,N,07032.4157955,W,1,27,0.6,13.554,M,-29.745,M,0.0,*54
###2023-12-09 13:33:43.002763$GPGSA,A,3,03,04,16,26,27,28,29,31,,,,,1.0,0.6,0.8*3F
###2023-12-09 13:33:43.004549$GLGSA,A,3,65,71,72,73,74,75,83,,,,,,1.0,0.6,0.8*2F
###2023-12-09 13:33:43.006137$GAGSA,A,3,04,19,21,27,,,,,,,,,1.0,0.6,0.8*26
###2023-12-09 13:33:43.007937$GBGSA,A,3,12,14,24,25,26,33,35,,,,,,1.0,0.6,0.8*2A
###2023-12-09 13:33:43.010274$GPGSV,2,1,08,03,27,247,41,04,46,308,45,16,66,222,46,26,84,040,47*74
###2023-12-09 13:33:43.012630$GPGSV,2,2,08,27,16,172,40,28,38,084,44,29,21,047,44,31,59,066,46*79
###2023-12-09 13:33:43.014980$GLGSV,2,1,07,65,38,319,43,71,23,175,41,72,63,222,45,73,23,052,43*62
###2023-12-09 13:33:43.017025$GLGSV,2,2,07,74,60,013,43,75,43,271,48,83,15,048,35,,,,*5A
###2023-12-09 13:33:43.019371$GAGSV,1,1,04,04,39,310,41,19,73,182,40,21,77,047,46,27,23,050,42*63
###2023-12-09 13:33:43.021707$GBGSV,2,1,07,12,15,126,40,14,29,190,40,24,63,045,48,25,50,275,48*6B
###2023-12-09 13:33:43.023762$GBGSV,2,2,07,26,16,070,44,33,46,217,45,35,16,057,43,,,,*5B
###2023-12-09 13:33:43.025093$GNVTG,166.18,T,,M,3.01,N,5.58,K,A*21
###2023-12-09 13:33:43.026718$GNGST,183342.10,5.400,,,,0.088,0.067,0.150*6D
###2023-12-09 13:33:43.028012$GNZDA,183342.10,09,12,2023,00,00*7F
###2023-12-09 13:33:43.028649$GNEBP,,,,,,M*13
###2023-12-09 13:33:43.193986$GNGGA,183342.30,4138.0515523,N,07032.4157518,W,1,27,0.6,13.571,M,-29.745,M,0.0,*56
###2023-12-09 13:33:43.393122$GNGGA,183342.50,4138.0513748,N,07032.4157217,W,1,27,0.6,13.577,M,-29.745,M,0.0,*57
###2023-12-09 13:33:43.593129$GNGGA,183342.70,4138.0512037,N,07032.4156871,W,1,27,0.6,13.569,M,-29.745,M,0.0,*5F
###2023-12-09 13:33:43.793006$GNGGA,183342.90,4138.0510288,N,07032.4156382,W,1,27,0.6,13.566,M,-29.745,M,0.0,*5D
###2023-12-09 13:33:43.997903$GNRMC,183343.10,A,4138.0508601,N,07032.4155908,W,3.17,169.78,091223,,,A*54
###2023-12-09 13:33:44.000797$GNGGA,183343.10,4138.0508601,N,07032.4155908,W,1,27,0.6,13.558,M,-29.745,M,0.0,*5E
###2023-12-09 13:33:44.002670$GPGSA,A,3,03,04,16,26,27,28,29,31,,,,,1.0,0.6,0.8*3F
###2023-12-09 13:33:44.004451$GLGSA,A,3,65,71,72,73,74,75,83,,,,,,1.0,0.6,0.8*2F
###2023-12-09 13:33:44.006035$GAGSA,A,3,04,19,21,27,,,,,,,,,1.0,0.6,0.8*26
###2023-12-09 13:33:44.007827$GBGSA,A,3,12,14,24,25,26,33,35,,,,,,1.0,0.6,0.8*2A
###2023-12-09 13:33:44.010158$GPGSV,2,1,08,03,27,247,42,04,46,308,45,16,66,222,46,26,84,040,48*78
###2023-12-09 13:33:44.012507$GPGSV,2,2,08,27,16,172,40,28,38,084,44,29,21,047,44,31,59,066,46*79
###2023-12-09 13:33:44.014854$GLGSV,2,1,07,65,38,319,43,71,23,175,41,72,63,222,45,73,23,052,43*62
###2023-12-09 13:33:44.016895$GLGSV,2,2,07,74,60,013,43,75,43,271,48,83,15,048,35,,,,*5A
###2023-12-09 13:33:44.019228$GAGSV,1,1,04,04,39,310,43,19,73,182,40,21,77,047,46,27,23,050,42*61
###2023-12-09 13:33:44.021560$GBGSV,2,1,07,12,15,126,40,14,29,190,41,24,63,045,47,25,50,275,47*6A
###2023-12-09 13:33:44.023607$GBGSV,2,2,07,26,16,070,45,33,46,217,45,35,16,057,42,,,,*5B
###2023-12-09 13:33:44.024936$GNVTG,169.78,T,,M,3.17,N,5.87,K,A*2D
###2023-12-09 13:33:44.026546$GNGST,183343.10,5.500,,,,0.088,0.067,0.150*6D
###2023-12-09 13:33:44.027850$GNZDA,183343.10,09,12,2023,00,00*7E
###2023-12-09 13:33:44.028487$GNEBP,,,,,,M*13
###2023-12-09 13:33:44.193833$GNGGA,183343.30,4138.0506829,N,07032.4155588,W,1,27,0.6,13.584,M,-29.745,M,0.0,*53
###2023-12-09 13:33:44.391934$GNGGA,183343.50,4138.0505044,N,07032.4155160,W,1,27,0.6,13.567,M,-29.745,M,0.0,*5A
###2023-12-09 13:33:44.594845$GNGGA,183343.70,4138.0503392,N,07032.4154496,W,1,27,0.6,13.552,M,-29.745,M,0.0,*5D
###2023-12-09 13:33:44.791953$GNGGA,183343.90,4138.0501668,N,07032.4154000,W,1,27,0.6,13.580,M,-29.745,M,0.0,*55
###2023-12-09 13:33:45.003535$GNRMC,183344.10,A,4138.0499851,N,07032.4153549,W,3.17,163.99,091223,,,A*5B
###2023-12-09 13:33:45.006404$GNGGA,183344.10,4138.0499851,N,07032.4153549,W,1,26,0.6,13.575,M,-29.745,M,0.0,*5A
###2023-12-09 13:33:45.008276$GPGSA,A,3,03,04,16,26,27,28,29,31,,,,,1.0,0.6,0.8*3F
###2023-12-09 13:33:45.009998$GLGSA,A,3,65,71,72,73,74,75,,,,,,,1.0,0.6,0.8*24
###2023-12-09 13:33:45.011594$GAGSA,A,3,04,19,21,27,,,,,,,,,1.0,0.6,0.8*26
###2023-12-09 13:33:45.013374$GBGSA,A,3,12,14,24,25,26,33,35,,,,,,1.0,0.6,0.8*2A
###2023-12-09 13:33:45.015706$GPGSV,2,1,08,03,27,247,43,04,46,308,43,16,66,222,46,26,84,040,47*70
###2023-12-09 13:33:45.018037$GPGSV,2,2,08,27,16,172,40,28,38,084,44,29,21,047,42,31,59,066,46*7F
###2023-12-09 13:33:45.020383$GLGSV,2,1,06,65,38,319,44,71,23,175,41,72,63,222,46,73,23,052,42*66
###2023-12-09 13:33:45.022127$GLGSV,2,2,06,74,60,013,43,75,43,271,48,,,,,,,,*6E
###2023-12-09 13:33:45.024463$GAGSV,1,1,04,04,39,310,42,19,73,182,40,21,77,047,45,27,23,050,40*61
###2023-12-09 13:33:45.026798$GBGSV,2,1,07,12,15,126,39,14,29,190,39,24,63,045,47,25,50,275,48*64
###2023-12-09 13:33:45.028835$GBGSV,2,2,07,26,16,070,44,33,46,217,46,35,16,057,42,,,,*59
###2023-12-09 13:33:45.030157$GNVTG,163.99,T,,M,3.17,N,5.87,K,A*28
###2023-12-09 13:33:45.031780$GNGST,183344.10,5.000,,,,0.087,0.067,0.150*60
###2023-12-09 13:33:45.033071$GNZDA,183344.10,09,12,2023,00,00*79
###2023-12-09 13:33:45.033708$GNEBP,,,,,,M*13
###2023-12-09 13:33:45.201870$GNGGA,183344.30,4138.0498242,N,07032.4152907,W,1,26,0.6,13.555,M,-29.745,M,0.0,*54
###2023-12-09 13:33:45.392827$GNGGA,183344.50,4138.0496551,N,07032.4152308,W,1,26,0.6,13.588,M,-29.745,M,0.0,*5C
###2023-12-09 13:33:45.593092$GNGGA,183344.70,4138.0494781,N,07032.4151681,W,1,26,0.6,13.571,M,-29.745,M,0.0,*52
###2023-12-09 13:33:45.793685$GNGGA,183344.90,4138.0493139,N,07032.4151016,W,1,26,0.6,13.543,M,-29.745,M,0.0,*57
###2023-12-09 13:33:45.997805$GNRMC,183345.10,A,4138.0491428,N,07032.4150640,W,3.29,173.68,091223,,,A*5B
###2023-12-09 13:33:46.000689$GNGGA,183345.10,4138.0491428,N,07032.4150640,W,1,26,0.6,13.586,M,-29.745,M,0.0,*54
###2023-12-09 13:33:46.002549$GPGSA,A,3,03,04,16,26,27,28,29,31,,,,,1.0,0.6,0.8*3F
###2023-12-09 13:33:46.004286$GLGSA,A,3,65,71,72,73,74,75,,,,,,,1.0,0.6,0.8*24
###2023-12-09 13:33:46.005863$GAGSA,A,3,04,19,21,27,,,,,,,,,1.0,0.6,0.8*26
###2023-12-09 13:33:46.007652$GBGSA,A,3,12,14,24,25,26,33,35,,,,,,1.0,0.6,0.8*2A
###2023-12-09 13:33:46.009976$GPGSV,2,1,08,03,27,247,41,04,46,308,45,16,66,222,46,26,84,040,47*74
###2023-12-09 13:33:46.012311$GPGSV,2,2,08,27,16,172,38,28,38,084,44,29,21,047,42,31,59,066,45*73
###2023-12-09 13:33:46.014656$GLGSV,2,1,06,65,38,319,43,71,23,175,42,72,63,222,45,73,23,052,42*61
###2023-12-09 13:33:46.016408$GLGSV,2,2,06,74,60,013,43,75,43,271,47,,,,,,,,*61
###2023-12-09 13:33:46.018738$GAGSV,1,1,04,04,39,310,44,19,73,182,40,21,77,047,45,27,23,050,42*65
###2023-12-09 13:33:46.021070$GBGSV,2,1,07,12,15,126,41,14,29,190,41,24,63,045,49,25,50,275,49*6B
###2023-12-09 13:33:46.023112$GBGSV,2,2,07,26,16,070,45,33,46,217,47,35,16,057,44,,,,*5F
###2023-12-09 13:33:46.024441$GNVTG,173.68,T,,M,3.29,N,6.08,K,A*2E
###2023-12-09 13:33:46.026052$GNGST,183345.10,5.200,,,,0.088,0.067,0.150*6C
###2023-12-09 13:33:46.027382$GNZDA,183345.10,09,12,2023,00,00*78
###2023-12-09 13:33:46.028025$GNEBP,,,,,,M*13
###2023-12-09 13:33:46.193712$GNGGA,183345.30,4138.0489652,N,07032.4150175,W,1,26,0.6,13.585,M,-29.745,M,0.0,*52
###2023-12-09 13:33:46.393061$GNGGA,183345.50,4138.0487951,N,07032.4149646,W,1,26,0.6,13.544,M,-29.745,M,0.0,*54
###2023-12-09 13:33:46.592122$GNGGA,183345.70,4138.0486237,N,07032.4149455,W,1,26,0.6,13.564,M,-29.745,M,0.0,*5E
###2023-12-09 13:33:46.792716$GNGGA,183345.90,4138.0484454,N,07032.4149285,W,1,26,0.6,13.577,M,-29.745,M,0.0,*58
###2023-12-09 13:33:46.997607$GNRMC,183346.10,A,4138.0482717,N,07032.4149146,W,3.05,178.60,091223,,,A*51
###2023-12-09 13:33:47.000492$GNGGA,183346.10,4138.0482717,N,07032.4149146,W,1,26,0.6,13.559,M,-29.745,M,0.0,*51
###2023-12-09 13:33:47.002351$GPGSA,A,3,03,04,16,26,27,28,29,31,,,,,1.0,0.6,0.8*3F
###2023-12-09 13:33:47.004323$GLGSA,A,3,65,71,72,73,74,75,,,,,,,1.0,0.6,0.8*24
###2023-12-09 13:33:47.005921$GAGSA,A,3,04,19,21,27,,,,,,,,,1.0,0.6,0.8*26
###2023-12-09 13:33:47.007714$GBGSA,A,3,12,14,24,25,26,33,35,,,,,,1.0,0.6,0.8*2A
###2023-12-09 13:33:47.010040$GPGSV,2,1,08,03,27,247,41,04,46,308,45,16,66,222,46,26,84,040,48*7B
###2023-12-09 13:33:47.012378$GPGSV,2,2,08,27,16,172,38,28,38,084,45,29,21,047,42,31,59,066,46*71
###2023-12-09 13:33:47.014712$GLGSV,2,1,06,65,38,319,43,71,23,175,41,72,63,222,45,73,23,052,41*61
###2023-12-09 13:33:47.016450$GLGSV,2,2,06,74,60,013,43,75,43,271,47,,,,,,,,*61
###2023-12-09 13:33:47.018783$GAGSV,1,1,04,04,39,310,45,19,73,182,40,21,77,047,45,27,23,050,40*66
###2023-12-09 13:33:47.021106$GBGSV,2,1,07,12,15,126,43,14,29,190,42,24,63,045,50,25,50,275,48*63
###2023-12-09 13:33:47.023145$GBGSV,2,2,07,26,16,070,44,33,46,217,47,35,16,057,44,,,,*5E
###2023-12-09 13:33:47.024468$GNVTG,178.60,T,,M,3.05,N,5.65,K,A*2B
