###2023-12-09 13:29:39.995061$GNGGA,182939.10,4138.0514162,N,07032.4217324,W,1,24,0.6,12.820,M,-29.745,M,0.0,*56
###2023-12-09 13:29:39.996875$GPGSA,A,3,03,04,16,26,28,29,31,,,,,,1.1,0.6,0.9*3A
###2023-12-09 13:29:39.998603$GLGSA,A,3,65,71,72,73,74,75,,,,,,,1.1,0.6,0.9*24
###2023-12-09 13:29:40.000186$GAGSA,A,3,04,19,21,27,,,,,,,,,1.1,0.6,0.9*26
###2023-12-09 13:29:40.001892$GBGSA,A,3,14,24,25,26,33,35,,,,,,,1.1,0.6,0.9*29
###2023-12-09 13:29:40.004227$GPGSV,2,1,07,03,28,248,39,04,44,309,44,16,64,220,45,26,86,041,48*79
###2023-12-09 13:29:40.006259$GPGSV,2,2,07,28,39,083,45,29,21,049,42,31,61,063,47,,,,*44
###2023-12-09 13:29:40.008609$GLGSV,2,1,06,65,36,321,43,71,25,175,42,72,65,225,44,73,24,050,42*67
###2023-12-09 13:29:40.010352$GLGSV,2,2,06,74,61,010,43,75,42,268,45,,,,,,,,*68
###2023-12-09 13:29:40.012692$GAGSV,1,1,04,04,38,311,43,19,74,183,41,21,79,049,46,27,24,049,40*6B
###2023-12-09 13:29:40.015020$GBGSV,2,1,06,14,31,190,43,24,64,043,48,25,49,274,45,26,17,069,44*6E
###2023-12-09 13:29:40.016765$GBGSV,2,2,06,33,48,219,46,35,16,058,45,,,,,,,,*64
###2023-12-09 13:29:40.018085$GNVTG,258.08,T,,M,1.75,N,3.24,K,A*22
###2023-12-09 13:29:40.019737$GNGST,182939.10,18.000,,,,0.100,0.072,0.160*54
###2023-12-09 13:29:40.021020$GNZDA,182939.10,09,12,2023,00,00*78
###2023-12-09 13:29:40.021658$GNEBP,,,,,,M*13
###2023-12-09 13:29:40.188794$GNGGA,182939.30,4138.0513919,N,07032.4218541,W,1,24,0.6,12.817,M,-29.745,M,0.0,*59
###2023-12-09 13:29:40.389182$GNGGA,182939.50,4138.0513627,N,07032.4219721,W,1,24,0.6,12.818,M,-29.745,M,0.0,*57
###2023-12-09 13:29:40.589627$GNGGA,182939.70,4138.0513341,N,07032.4220943,W,1,24,0.6,12.820,M,-29.745,M,0.0,*5B
###2023-12-09 13:29:40.788901$GNGGA,182939.90,4138.0513069,N,07032.4222313,W,1,24,0.6,12.836,M,-29.745,M,0.0,*56
###2023-12-09 13:29:40.994083$GNRMC,182940.10,A,4138.0512766,N,07032.4223797,W,2.12,254.48,091223,,,A*57
###2023-12-09 13:29:40.996977$GNGGA,182940.10,4138.0512766,N,07032.4223797,W,1,24,0.6,12.853,M,-29.745,M,0.0,*53
###2023-12-09 13:29:40.998782$GPGSA,A,3,03,04,16,26,28,29,31,,,,,,1.1,0.6,0.9*3A
###2023-12-09 13:29:41.000501$GLGSA,A,3,65,71,72,73,74,75,,,,,,,1.1,0.6,0.9*24
###2023-12-09 13:29:41.002080$GAGSA,A,3,04,19,21,27,,,,,,,,,1.1,0.6,0.9*26
###2023-12-09 13:29:41.003801$GBGSA,A,3,14,24,25,26,33,35,,,,,,,1.1,0.6,0.9*29
###2023-12-09 13:29:41.006116$GPGSV,2,1,07,03,28,248,43,04,44,309,45,16,64,220,45,26,86,041,47*7A
###2023-12-09 13:29:41.008155$GPGSV,2,2,07,28,39,083,43,29,21,049,43,31,61,063,46,,,,*42
###2023-12-09 13:29:41.010489$GLGSV,2,1,06,65,36,321,45,71,25,175,43,72,65,225,45,73,24,050,43*60
###2023-12-09 13:29:41.012242$GLGSV,2,2,06,74,61,010,43,75,42,268,46,,,,,,,,*6B
###2023-12-09 13:29:41.014560$GAGSV,1,1,04,04,38,311,44,19,74,183,40,21,79,049,46,27,24,049,41*6C
###2023-12-09 13:29:41.016895$GBGSV,2,1,06,14,31,190,42,24,64,043,47,25,49,274,46,26,17,069,43*64
###2023-12-09 13:29:41.018653$GBGSV,2,2,06,33,48,219,46,35,16,058,44,,,,,,,,*65
###2023-12-09 13:29:41.019976$GNVTG,254.48,T,,M,2.12,N,3.92,K,A*25
###2023-12-09 13:29:41.021617$GNGST,182940.10,18.000,,,,0.100,0.072,0.160*5A
###2023-12-09 13:29:41.022911$GNZDA,182940.10,09,12,2023,00,00*76
###2023-12-09 13:29:41.023547$GNEBP,,,,,,M*13
###2023-12-09 13:29:41.189927$GNGGA,182940.30,4138.0512354,N,07032.4225276,W,1,24,0.6,12.860,M,-29.745,M,0.0,*58
###2023-12-09 13:29:41.389003$GNGGA,182940.50,4138.0511832,N,07032.4226615,W,1,24,0.6,12.860,M,-29.745,M,0.0,*54
###2023-12-09 13:29:41.589414$GNGGA,182940.70,4138.0511206,N,07032.4227692,W,1,24,0.6,12.845,M,-29.745,M,0.0,*52
###2023-12-09 13:29:41.788875$GNGGA,182940.90,4138.0510569,N,07032.4228772,W,1,24,0.6,12.831,M,-29.745,M,0.0,*50
###2023-12-09 13:29:41.993784$GNRMC,182941.10,A,4138.0510022,N,07032.4229974,W,2.00,241.77,091223,,,A*51
###2023-12-09 13:29:41.996668$GNGGA,182941.10,4138.0510022,N,07032.4229974,W,1,24,0.6,12.843,M,-29.745,M,0.0,*5F
###2023-12-09 13:29:41.998469$GPGSA,A,3,03,04,16,26,28,29,31,,,,,,1.1,0.6,0.9*3A
###2023-12-09 13:29:42.000200$GLGSA,A,3,65,71,72,73,74,75,,,,,,,1.1,0.6,0.9*24
###2023-12-09 13:29:42.001774$GAGSA,A,3,04,19,21,27,,,,,,,,,1.1,0.6,0.9*26
###2023-12-09 13:29:42.003497$GBGSA,A,3,14,24,25,26,33,35,,,,,,,1.1,0.6,0.9*29
###2023-12-09 13:29:42.005825$GPGSV,2,1,07,03,28,248,39,04,44,309,45,16,64,220,46,26,86,041,48*7B
###2023-12-09 13:29:42.007877$GPGSV,2,2,07,28,39,083,44,29,21,049,43,31,61,063,46,,,,*45
###2023-12-09 13:29:42.010200$GLGSV,2,1,06,65,36,321,43,71,25,175,43,72,65,225,45,73,24,050,44*61
###2023-12-09 13:29:42.011960$GLGSV,2,2,06,74,61,010,42,75,42,268,45,,,,,,,,*69
###2023-12-09 13:29:42.014293$GAGSV,1,1,04,04,38,311,42,19,74,183,40,21,79,049,46,27,24,049,41*6A
###2023-12-09 13:29:42.016646$GBGSV,2,1,06,14,31,190,40,24,64,043,47,25,49,274,45,26,17,069,43*65
###2023-12-09 13:29:42.018400$GBGSV,2,2,06,33,48,219,44,35,16,058,44,,,,,,,,*67
###2023-12-09 13:29:42.019739$GNVTG,241.77,T,,M,2.00,N,3.71,K,A*23
###2023-12-09 13:29:42.021380$GNGST,182941.10,18.000,,,,0.100,0.072,0.160*5B
###2023-12-09 13:29:42.022678$GNZDA,182941.10,09,12,2023,00,00*77
###2023-12-09 13:29:42.023323$GNEBP,,,,,,M*13
###2023-12-09 13:29:42.189850$GNGGA,182941.30,4138.0509425,N,07032.4231239,W,1,24,0.6,12.857,M,-29.745,M,0.0,*58
###2023-12-09 13:29:42.388914$GNGGA,182941.50,4138.0508692,N,07032.4232411,W,1,24,0.6,12.877,M,-29.745,M,0.0,*5C
###2023-12-09 13:29:42.588794$GNGGA,182941.70,4138.0507912,N,07032.4233480,W,1,24,0.6,12.895,M,-29.745,M,0.0,*53
###2023-12-09 13:29:42.790014$GNGGA,182941.90,4138.0507036,N,07032.4234515,W,1,24,0.6,12.901,M,-29.745,M,0.0,*54
###2023-12-09 13:29:42.994680$GNRMC,182942.10,A,4138.0506115,N,07032.4235517,W,2.14,216.68,091223,,,A*5D
###2023-12-09 13:29:42.997524$GNGGA,182942.10,4138.0506115,N,07032.4235517,W,1,24,0.6,12.877,M,-29.745,M,0.0,*5D
###2023-12-09 13:29:42.999316$GPGSA,A,3,03,04,16,26,28,29,31,,,,,,1.1,0.6,0.9*3A
###2023-12-09 13:29:43.001020$GLGSA,A,3,65,71,72,73,74,75,,,,,,,1.1,0.6,0.9*24
###2023-12-09 13:29:43.002610$GAGSA,A,3,04,19,21,27,,,,,,,,,1.1,0.6,0.9*26
###2023-12-09 13:29:43.004318$GBGSA,A,3,14,24,25,26,33,35,,,,,,,1.1,0.6,0.9*29
###2023-12-09 13:29:43.006648$GPGSV,2,1,07,03,28,248,41,04,44,309,45,16,64,220,45,26,86,041,48*77
###2023-12-09 13:29:43.008682$GPGSV,2,2,07,28,39,083,45,29,21,049,43,31,61,063,48,,,,*4A
###2023-12-09 13:29:43.011014$GLGSV,2,1,06,65,36,321,41,71,25,175,40,72,65,225,44,73,24,050,44*61
###2023-12-09 13:29:43.012754$GLGSV,2,2,06,74,61,010,42,75,42,268,45,,,,,,,,*69
###2023-12-09 13:29:43.015084$GAGSV,1,1,04,04,38,311,43,19,74,183,40,21,79,049,46,27,24,049,41*6B
###2023-12-09 13:29:43.017410$GBGSV,2,1,06,14,31,190,42,24,64,043,48,25,49,274,46,26,17,069,44*6C
###2023-12-09 13:29:43.019158$GBGSV,2,2,06,33,48,219,45,35,16,058,45,,,,,,,,*67
###2023-12-09 13:29:43.020478$GNVTG,216.68,T,,M,2.14,N,3.96,K,A*23
###2023-12-09 13:29:43.022120$GNGST,182942.10,18.000,,,,0.100,0.072,0.160*58
###2023-12-09 13:29:43.023419$GNZDA,182942.10,09,12,2023,00,00*74
###2023-12-09 13:29:43.024057$GNEBP,,,,,,M*13
###2023-12-09 13:29:43.189669$GNGGA,182942.30,4138.0505125,N,07032.4236382,W,1,24,0.6,12.862,M,-29.745,M,0.0,*52
###2023-12-09 13:29:43.388894$GNGGA,182942.50,4138.0504081,N,07032.4237300,W,1,24,0.6,12.878,M,-29.745,M,0.0,*5A
###2023-12-09 13:29:43.586510$GNGGA,182942.70,4138.0503043,N,07032.4238330,W,1,24,0.6,12.902,M,-29.745,M,0.0,*51
###2023-12-09 13:29:43.788853$GNGGA,182942.90,4138.0501986,N,07032.4239248,W,1,24,0.6,12.914,M,-29.745,M,0.0,*55
###2023-12-09 13:29:43.993654$GNRMC,182943.10,A,4138.0500832,N,07032.4239649,W,2.08,186.10,091223,,,A*5A
###2023-12-09 13:29:43.996529$GNGGA,182943.10,4138.0500832,N,07032.4239649,W,1,24,0.6,12.894,M,-29.745,M,0.0,*5F
###2023-12-09 13:29:43.998319$GPGSA,A,3,03,04,16,26,28,29,31,,,,,,1.1,0.6,0.9*3A
###2023-12-09 13:29:44.000041$GLGSA,A,3,65,71,72,73,74,75,,,,,,,1.1,0.6,0.9*24
###2023-12-09 13:29:44.001620$GAGSA,A,3,04,19,21,27,,,,,,,,,1.1,0.6,0.9*26
###2023-12-09 13:29:44.003342$GBGSA,A,3,14,24,25,26,33,35,,,,,,,1.1,0.6,0.9*29
###2023-12-09 13:29:44.005673$GPGSV,2,1,07,03,28,248,42,04,44,309,46,16,64,220,45,26,86,041,48*77
###2023-12-09 13:29:44.007726$GPGSV,2,2,07,28,39,083,46,29,21,049,42,31,61,063,47,,,,*47
###2023-12-09 13:29:44.010302$GLGSV,2,1,06,65,36,321,43,71,25,175,42,72,65,225,44,73,24,050,43*66
###2023-12-09 13:29:44.012072$GLGSV,2,2,06,74,61,010,42,75,42,268,46,,,,,,,,*6A
###2023-12-09 13:29:44.014403$GAGSV,1,1,04,04,38,311,44,19,74,183,40,21,79,049,46,27,24,049,39*63
###2023-12-09 13:29:44.016756$GBGSV,2,1,06,14,31,190,41,24,64,043,49,25,49,274,46,26,17,069,44*6E
###2023-12-09 13:29:44.018501$GBGSV,2,2,06,33,48,219,46,35,16,058,44,,,,,,,,*65
###2023-12-09 13:29:44.019838$GNVTG,186.10,T,,M,2.08,N,3.85,K,A*29
###2023-12-09 13:29:44.021481$GNGST,182943.10,18.000,,,,0.100,0.071,0.160*5A
###2023-12-09 13:29:44.022781$GNZDA,182943.10,09,12,2023,00,00*75
###2023-12-09 13:29:44.023423$GNEBP,,,,,,M*13
