###2023-12-09 13:26:00.995157$GNRMC,182600.10,A,4138.0533642,N,07032.3435939,W,3.17,345.27,091223,,,A*58
###2023-12-09 13:26:00.998056$GNGGA,182600.10,4138.0533642,N,07032.3435939,W,1,24,0.6,12.929,M,-29.744,M,0.0,*5D
###2023-12-09 13:26:00.999861$GPGSA,A,3,03,04,16,26,28,29,31,,,,,,1.1,0.6,0.9*3A
###2023-12-09 13:26:01.001577$GLGSA,A,3,65,71,72,73,74,75,,,,,,,1.1,0.6,0.9*24
###2023-12-09 13:26:01.003171$GAGSA,A,3,04,19,21,27,,,,,,,,,1.1,0.6,0.9*26
###2023-12-09 13:26:01.004877$GBGSA,A,3,14,24,25,26,33,35,,,,,,,1.1,0.6,0.9*29
###2023-12-09 13:26:01.007212$GPGSV,2,1,07,03,29,250,43,04,43,309,43,16,62,219,45,26,88,044,48*7B
###2023-12-09 13:26:01.009242$GPGSV,2,2,07,28,41,081,47,29,22,050,42,31,62,060,46,,,,*41
###2023-12-09 13:26:01.011579$GLGSV,2,1,06,65,34,322,39,71,27,175,45,72,67,229,46,73,26,049,43*69
###2023-12-09 13:26:01.013329$GLGSV,2,2,06,74,63,006,41,75,40,266,46,,,,,,,,*60
###2023-12-09 13:26:01.015659$GAGSV,1,1,04,04,37,311,42,19,75,184,41,21,80,050,45,27,26,049,40*6C
###2023-12-09 13:26:01.017984$GBGSV,2,1,06,14,33,190,41,24,66,041,48,25,48,272,46,26,19,068,44*65
###2023-12-09 13:26:01.019734$GBGSV,2,2,06,33,49,220,47,35,16,060,44,,,,,,,,*64
###2023-12-09 13:26:01.021057$GNVTG,345.27,T,,M,3.17,N,5.87,K,A*2B
###2023-12-09 13:26:01.022709$GNGST,182600.10,18.000,,,,0.100,0.070,0.170*52
###2023-12-09 13:26:01.024000$GNZDA,182600.10,09,12,2023,00,00*7D
###2023-12-09 13:26:01.024639$GNEBP,,,,,,M*13
###2023-12-09 13:26:01.191181$GNGGA,182600.30,4138.0535335,N,07032.3436677,W,1,24,0.6,12.927,M,-29.744,M,0.0,*54
###2023-12-09 13:26:01.390732$GNGGA,182600.50,4138.0536999,N,07032.3437516,W,1,24,0.6,12.925,M,-29.744,M,0.0,*5A
###2023-12-09 13:26:01.591505$GNGGA,182600.70,4138.0538733,N,07032.3438245,W,1,24,0.6,12.924,M,-29.744,M,0.0,*57
###2023-12-09 13:26:01.790362$GNGGA,182600.90,4138.0540537,N,07032.3438786,W,1,24,0.6,12.925,M,-29.744,M,0.0,*5B
###2023-12-09 13:26:01.993799$GNRMC,182601.10,A,4138.0542352,N,07032.3439268,W,3.30,346.90,091223,,,A*52
###2023-12-09 13:26:01.996684$GNGGA,182601.10,4138.0542352,N,07032.3439268,W,1,24,0.6,12.922,M,-29.744,M,0.0,*56
###2023-12-09 13:26:01.998482$GPGSA,A,3,03,04,16,26,28,29,31,,,,,,1.1,0.6,0.9*3A
###2023-12-09 13:26:02.000210$GLGSA,A,3,65,71,72,73,74,75,,,,,,,1.1,0.6,0.9*24
###2023-12-09 13:26:02.001790$GAGSA,A,3,04,19,21,27,,,,,,,,,1.1,0.6,0.9*26
###2023-12-09 13:26:02.003510$GBGSA,A,3,14,24,25,26,33,35,,,,,,,1.1,0.6,0.9*29
###2023-12-09 13:26:02.005827$GPGSV,2,1,07,03,29,250,42,04,43,309,44,16,62,219,47,26,88,044,48*7F
###2023-12-09 13:26:02.007867$GPGSV,2,2,07,28,41,081,46,29,22,050,42,31,62,060,47,,,,*41
###2023-12-09 13:26:02.010193$GLGSV,2,1,06,65,34,322,40,71,27,175,44,72,67,229,45,73,26,049,42*64
###2023-12-09 13:26:02.011959$GLGSV,2,2,06,74,63,006,41,75,40,266,47,,,,,,,,*61
###2023-12-09 13:26:02.014277$GAGSV,1,1,04,04,37,311,43,19,75,184,41,21,80,050,45,27,26,049,39*63
###2023-12-09 13:26:02.016623$GBGSV,2,1,06,14,33,190,43,24,66,041,49,25,48,272,47,26,19,068,46*65
###2023-12-09 13:26:02.018366$GBGSV,2,2,06,33,49,220,48,35,16,060,44,,,,,,,,*6B
###2023-12-09 13:26:02.019701$GNVTG,346.90,T,,M,3.30,N,6.12,K,A*2E
###2023-12-09 13:26:02.021349$GNGST,182601.10,18.000,,,,0.100,0.070,0.170*53
###2023-12-09 13:26:02.022655$GNZDA,182601.10,09,12,2023,00,00*7C
###2023-12-09 13:26:02.023300$GNEBP,,,,,,M*13
###2023-12-09 13:26:02.189976$GNGGA,182601.30,4138.0544149,N,07032.3439960,W,1,24,0.6,12.919,M,-29.744,M,0.0,*51
###2023-12-09 13:26:02.389503$GNGGA,182601.50,4138.0545994,N,07032.3440576,W,1,24,0.6,12.916,M,-29.744,M,0.0,*54
###2023-12-09 13:26:02.591260$GNGGA,182601.70,4138.0547883,N,07032.3440898,W,1,24,0.6,12.907,M,-29.744,M,0.0,*5E
###2023-12-09 13:26:02.790419$GNGGA,182601.90,4138.0549787,N,07032.3441069,W,1,24,0.6,12.903,M,-29.744,M,0.0,*56
###2023-12-09 13:26:02.994037$GNRMC,182602.10,A,4138.0551700,N,07032.3441246,W,3.42,354.91,091223,,,A*54
###2023-12-09 13:26:02.996958$GNGGA,182602.10,4138.0551700,N,07032.3441246,W,1,24,0.6,12.911,M,-29.744,M,0.0,*57
###2023-12-09 13:26:02.998763$GPGSA,A,3,03,04,16,26,28,29,31,,,,,,1.1,0.6,0.9*3A
###2023-12-09 13:26:03.000484$GLGSA,A,3,65,71,72,73,74,75,,,,,,,1.1,0.6,0.9*24
###2023-12-09 13:26:03.002063$GAGSA,A,3,04,19,21,27,,,,,,,,,1.1,0.6,0.9*26
###2023-12-09 13:26:03.003781$GBGSA,A,3,14,24,25,26,33,35,,,,,,,1.1,0.6,0.9*29
###2023-12-09 13:26:03.006102$GPGSV,2,1,07,03,29,250,41,04,43,309,44,16,62,219,46,26,88,044,48*7D
###2023-12-09 13:26:03.008152$GPGSV,2,2,07,28,41,081,45,29,22,050,41,31,62,060,46,,,,*40
###2023-12-09 13:26:03.010474$GLGSV,2,1,06,65,34,322,42,71,27,175,43,72,67,229,46,73,26,049,40*60
###2023-12-09 13:26:03.012234$GLGSV,2,2,06,74,63,006,41,75,40,266,46,,,,,,,,*60
###2023-12-09 13:26:03.014552$GAGSV,1,1,04,04,37,311,43,19,75,184,41,21,80,050,45,27,26,049,39*63
###2023-12-09 13:26:03.016892$GBGSV,2,1,06,14,33,190,43,24,66,041,47,25,48,272,46,26,19,068,43*6F
###2023-12-09 13:26:03.018645$GBGSV,2,2,06,33,49,220,46,35,16,060,43,,,,,,,,*62
###2023-12-09 13:26:03.019968$GNVTG,354.91,T,,M,3.42,N,6.34,K,A*2D
###2023-12-09 13:26:03.021614$GNGST,182602.10,18.000,,,,0.100,0.070,0.170*50
###2023-12-09 13:26:03.022913$GNZDA,182602.10,09,12,2023,00,00*7F
###2023-12-09 13:26:03.023550$GNEBP,,,,,,M*13
###2023-12-09 13:26:03.192935$GNGGA,182602.30,4138.0553641,N,07032.3441477,W,1,24,0.6,12.914,M,-29.744,M,0.0,*52
###2023-12-09 13:26:03.389987$GNGGA,182602.50,4138.0555595,N,07032.3441522,W,1,24,0.6,12.905,M,-29.744,M,0.0,*59
###2023-12-09 13:26:03.589726$GNGGA,182602.70,4138.0557526,N,07032.3441104,W,1,24,0.6,12.906,M,-29.744,M,0.0,*52
###2023-12-09 13:26:03.790822$GNGGA,182602.90,4138.0559418,N,07032.3440498,W,1,24,0.6,12.907,M,-29.744,M,0.0,*5E
###2023-12-09 13:26:03.993756$GNRMC,182603.10,A,4138.0561310,N,07032.3440117,W,3.52,5.99,091223,,,A*5B
###2023-12-09 13:26:03.996649$GNGGA,182603.10,4138.0561310,N,07032.3440117,W,1,24,0.6,12.915,M,-29.744,M,0.0,*52
###2023-12-09 13:26:03.998443$GPGSA,A,3,03,04,16,26,28,29,31,,,,,,1.1,0.6,0.9*3A
###2023-12-09 13:26:04.000173$GLGSA,A,3,65,71,72,73,74,75,,,,,,,1.1,0.6,0.9*24
###2023-12-09 13:26:04.001755$GAGSA,A,3,04,19,21,27,,,,,,,,,1.1,0.6,0.9*26
###2023-12-09 13:26:04.003475$GBGSA,A,3,14,24,25,26,33,35,,,,,,,1.1,0.6,0.9*29
###2023-12-09 13:26:04.005805$GPGSV,2,1,07,03,29,250,42,04,43,309,45,16,62,219,47,26,88,044,47*71
###2023-12-09 13:26:04.007855$GPGSV,2,2,07,28,41,081,44,29,22,050,39,31,62,060,46,,,,*4E
###2023-12-09 13:26:04.010190$GLGSV,2,1,06,65,34,322,42,71,27,175,42,72,67,229,46,73,26,049,40*61
###2023-12-09 13:26:04.011953$GLGSV,2,2,06,74,63,006,41,75,40,266,46,,,,,,,,*60
###2023-12-09 13:26:04.014281$GAGSV,1,1,04,04,37,311,42,19,75,184,40,21,80,050,45,27,25,049,37*6E
###2023-12-09 13:26:04.016623$GBGSV,2,1,06,14,33,190,42,24,66,041,47,25,48,272,46,26,19,068,42*6F
###2023-12-09 13:26:04.018374$GBGSV,2,2,06,33,49,220,46,35,16,060,40,,,,,,,,*61
###2023-12-09 13:26:04.019643$GNVTG,5.99,T,,M,3.52,N,6.52,K,A*23
###2023-12-09 13:26:04.021288$GNGST,182603.10,18.000,,,,0.100,0.070,0.170*51
###2023-12-09 13:26:04.022585$GNZDA,182603.10,09,12,2023,00,00*7E
###2023-12-09 13:26:04.023227$GNEBP,,,,,,M*13
###2023-12-09 13:26:04.195972$GNGGA,182603.30,4138.0563263,N,07032.3439723,W,1,24,0.6,12.909,M,-29.744,M,0.0,*55
###2023-12-09 13:26:04.390027$GNGGA,182603.50,4138.0565201,N,07032.3439032,W,1,24,0.6,12.900,M,-29.744,M,0.0,*5F
###2023-12-09 13:26:04.590266$GNGGA,182603.70,4138.0567120,N,07032.3438415,W,1,24,0.6,12.904,M,-29.744,M,0.0,*5B
###2023-12-09 13:26:04.791140$GNGGA,182603.90,4138.0569062,N,07032.3437943,W,1,24,0.6,12.900,M,-29.744,M,0.0,*59
###2023-12-09 13:26:04.995665$GNRMC,182604.10,A,4138.0571022,N,07032.3437685,W,3.56,6.16,091223,,,A*53
###2023-12-09 13:26:04.999144$GNGGA,182604.10,4138.0571022,N,07032.3437685,W,1,24,0.6,12.890,M,-29.744,M,0.0,*56
###2023-12-09 13:26:05.001310$GPGSA,A,3,03,04,16,26,28,29,31,,,,,,1.1,0.6,0.9*3A
###2023-12-09 13:26:05.003386$GLGSA,A,3,65,71,72,73,74,75,,,,,,,1.1,0.6,0.9*24
###2023-12-09 13:26:05.005292$GAGSA,A,3,04,19,21,27,,,,,,,,,1.1,0.6,0.9*26
###2023-12-09 13:26:05.007375$GBGSA,A,3,14,24,25,26,33,35,,,,,,,1.1,0.6,0.9*29
###2023-12-09 13:26:05.010164$GPGSV,2,1,07,03,29,250,42,04,43,309,45,16,62,219,47,26,88,044,48*7E
###2023-12-09 13:26:05.012917$GPGSV,2,2,07,28,41,081,44,29,22,050,39,31,62,060,46,,,,*4E
###2023-12-09 13:26:05.015787$GLGSV,2,1,06,65,34,322,42,71,27,175,43,72,67,229,46,73,26,049,39*6E
###2023-12-09 13:26:05.017912$GLGSV,2,2,06,74,63,006,41,75,40,266,47,,,,,,,,*61
###2023-12-09 13:26:05.020749$GAGSV,1,1,04,04,37,311,43,19,75,184,41,21,80,050,46,27,25,049,38*62
###2023-12-09 13:26:05.023565$GBGSV,2,1,06,14,33,190,43,24,66,041,47,25,48,272,47,26,19,068,41*6C
###2023-12-09 13:26:05.025673$GBGSV,2,2,06,33,49,220,47,35,16,060,41,,,,,,,,*61
###2023-12-09 13:26:05.027198$GNVTG,6.16,T,,M,3.56,N,6.59,K,A*28
###2023-12-09 13:26:05.029172$GNGST,182604.10,18.000,,,,0.100,0.070,0.170*56
###2023-12-09 13:26:05.030734$GNZDA,182604.10,09,12,2023,00,00*79
