###2023-12-09 13:31:29.016433$GBGSV,2,2,05,35,16,058,43,,,,,,,,,,,,*55
###2023-12-09 13:31:29.017782$GNVTG,264.59,T,,M,1.42,N,2.63,K,A*2F
###2023-12-09 13:31:29.019424$GNGST,183128.10,5.500,,,,0.140,0.087,0.210*6E
###2023-12-09 13:31:29.020726$GNZDA,183128.10,09,12,2023,00,00*71
###2023-12-09 13:31:29.021370$GNEBP,,,,,,M*13
###2023-12-09 13:31:29.189031$GNGGA,183128.30,4138.0356151,N,07032.4236064,W,1,20,1.0,13.238,M,-29.746,M,0.0,*5B
###2023-12-09 13:31:29.385656$GNGGA,183128.50,4138.0356199,N,07032.4237155,W,1,20,1.0,13.239,M,-29.746,M,0.0,*5A
###2023-12-09 13:31:29.587199$GNGGA,183128.70,4138.0356221,N,07032.4238246,W,1,21,1.0,13.235,M,-29.746,M,0.0,*5B
###2023-12-09 13:31:29.786881$GNGGA,183128.90,4138.0356159,N,07032.4239281,W,1,21,0.8,13.229,M,-29.746,M,0.0,*57
###2023-12-09 13:31:29.989827$GNRMC,183129.10,A,4138.0356142,N,07032.4240310,W,1.40,270.35,091223,,,A*51
###2023-12-09 13:31:29.992725$GNGGA,183129.10,4138.0356142,N,07032.4240310,W,1,20,0.8,13.226,M,-29.746,M,0.0,*5D
###2023-12-09 13:31:29.994462$GPGSA,A,3,04,16,26,28,29,31,,,,,,,1.4,0.8,1.1*3B
###2023-12-09 13:31:29.996125$GLGSA,A,3,65,72,73,74,75,,,,,,,,1.4,0.8,1.1*20
###2023-12-09 13:31:29.997704$GAGSA,A,3,04,19,21,27,,,,,,,,,1.4,0.8,1.1*24
###2023-12-09 13:31:29.999352$GBGSA,A,3,24,25,26,33,35,,,,,,,,1.4,0.8,1.1*2E
###2023-12-09 13:31:30.001670$GPGSV,2,1,06,04,45,308,44,16,65,221,46,26,85,040,49,28,39,084,46*7B
###2023-12-09 13:31:30.003420$GPGSV,2,2,06,29,21,048,40,31,61,063,46,,,,,,,,*7D
###2023-12-09 13:31:30.005734$GLGSV,2,1,05,65,37,320,42,72,64,223,46,73,23,051,41,74,61,011,42*63
###2023-12-09 13:31:30.007191$GLGSV,2,2,05,75,42,269,43,,,,,,,,,,,,*5E
###2023-12-09 13:31:30.009503$GAGSV,1,1,04,04,39,310,41,19,73,182,41,21,78,047,47,27,23,050,40*6E
###2023-12-09 13:31:30.011824$GBGSV,2,1,05,24,64,044,50,25,50,275,46,26,17,070,44,33,47,218,48*6D
###2023-12-09 13:31:30.013282$GBGSV,2,2,05,35,16,058,44,,,,,,,,,,,,*52
###2023-12-09 13:31:30.014613$GNVTG,270.35,T,,M,1.40,N,2.59,K,A*2B
###2023-12-09 13:31:30.016263$GNGST,183129.10,20.000,,,,0.140,0.088,0.220*51
###2023-12-09 13:31:30.017551$GNZDA,183129.10,09,12,2023,00,00*70
###2023-12-09 13:31:30.018186$GNEBP,,,,,,M*13
###2023-12-09 13:31:30.188730$GNGGA,183129.30,4138.0356169,N,07032.4241312,W,1,21,0.8,13.211,M,-29.746,M,0.0,*50
###2023-12-09 13:31:30.389104$GNGGA,183129.50,4138.0356209,N,07032.4242282,W,1,22,0.9,13.210,M,-29.746,M,0.0,*5B
###2023-12-09 13:31:30.587652$GNGGA,183129.70,4138.0356192,N,07032.4243242,W,1,21,1.0,13.210,M,-29.746,M,0.0,*5E
###2023-12-09 13:31:30.789576$GNGGA,183129.90,4138.0356126,N,07032.4244189,W,1,21,1.0,13.200,M,-29.746,M,0.0,*5D
###2023-12-09 13:31:30.991212$GNRMC,183130.10,A,4138.0356090,N,07032.4245117,W,1.26,266.53,091223,,,A*50
###2023-12-09 13:31:30.994058$GNGGA,183130.10,4138.0356090,N,07032.4245117,W,1,21,1.0,13.202,M,-29.746,M,0.0,*55
###2023-12-09 13:31:30.995895$GPGSA,A,3,03,04,16,26,28,29,31,,,,,,1.6,1.0,1.3*31
###2023-12-09 13:31:30.997546$GLGSA,A,3,65,72,73,74,75,,,,,,,,1.6,1.0,1.3*29
###2023-12-09 13:31:30.999141$GAGSA,A,3,04,19,21,27,,,,,,,,,1.6,1.0,1.3*2D
###2023-12-09 13:31:31.000783$GBGSA,A,3,24,25,26,33,35,,,,,,,,1.6,1.0,1.3*27
###2023-12-09 13:31:31.003119$GPGSV,2,1,07,03,27,247,39,04,45,308,42,16,65,221,46,26,85,040,49*7F
###2023-12-09 13:31:31.005160$GPGSV,2,2,07,28,39,084,46,29,21,048,40,31,61,063,46,,,,*42
###2023-12-09 13:31:31.007503$GLGSV,2,1,05,65,37,320,42,72,64,223,45,73,23,051,41,74,61,011,42*60
###2023-12-09 13:31:31.008963$GLGSV,2,2,05,75,42,269,43,,,,,,,,,,,,*5E
###2023-12-09 13:31:31.011305$GAGSV,1,1,04,04,39,310,41,19,73,182,41,21,78,047,46,27,23,050,40*6F
###2023-12-09 13:31:31.013632$GBGSV,2,1,05,24,64,044,47,25,50,275,45,26,17,070,43,33,47,218,45*62
###2023-12-09 13:31:31.015093$GBGSV,2,2,05,35,16,058,42,,,,,,,,,,,,*54
###2023-12-09 13:31:31.016423$GNVTG,266.53,T,,M,1.26,N,2.34,K,A*27
###2023-12-09 13:31:31.018049$GNGST,183130.10,4.700,,,,0.140,0.089,0.220*69
###2023-12-09 13:31:31.019361$GNZDA,183130.10,09,12,2023,00,00*78
###2023-12-09 13:31:31.020010$GNEBP,,,,,,M*13
###2023-12-09 13:31:31.192162$GNGGA,183130.30,4138.0356098,N,07032.4246073,W,1,21,1.0,13.194,M,-29.746,M,0.0,*53
###2023-12-09 13:31:31.390498$GNGGA,183130.50,4138.0356079,N,07032.4247012,W,1,22,0.8,13.199,M,-29.746,M,0.0,*5B
###2023-12-09 13:31:31.588300$GNGGA,183130.70,4138.0356049,N,07032.4247898,W,1,23,0.8,13.199,M,-29.746,M,0.0,*51
###2023-12-09 13:31:31.790292$GNGGA,183130.90,4138.0355968,N,07032.4248759,W,1,23,0.8,13.200,M,-29.746,M,0.0,*58
###2023-12-09 13:31:31.992445$GNRMC,183131.10,A,4138.0355898,N,07032.4249595,W,1.21,268.57,091223,,,A*5D
###2023-12-09 13:31:31.995308$GNGGA,183131.10,4138.0355898,N,07032.4249595,W,1,22,0.8,13.206,M,-29.746,M,0.0,*5B
###2023-12-09 13:31:31.997028$GPGSA,A,3,04,16,26,28,29,31,,,,,,,1.3,0.8,1.1*3C
###2023-12-09 13:31:31.998817$GLGSA,A,3,65,71,72,73,74,75,83,,,,,,1.3,0.8,1.1*2A
###2023-12-09 13:31:32.000397$GAGSA,A,3,04,19,21,27,,,,,,,,,1.3,0.8,1.1*23
###2023-12-09 13:31:32.002041$GBGSA,A,3,24,25,26,33,35,,,,,,,,1.3,0.8,1.1*29
###2023-12-09 13:31:32.004371$GPGSV,2,1,06,04,45,308,44,16,65,221,46,26,85,040,48,28,39,084,46*7A
###2023-12-09 13:31:32.006114$GPGSV,2,2,06,29,21,048,39,31,60,064,46,,,,,,,,*75
###2023-12-09 13:31:32.008445$GLGSV,2,1,07,65,37,320,43,71,24,175,37,72,64,223,46,73,23,051,43*67
###2023-12-09 13:31:32.010485$GLGSV,2,2,07,74,61,011,42,75,42,269,43,83,15,049,35,,,,*5A
###2023-12-09 13:31:32.012821$GAGSV,1,1,04,04,39,310,43,19,73,182,41,21,78,047,47,27,23,050,40*6C
###2023-12-09 13:31:32.015159$GBGSV,2,1,05,24,64,044,48,25,50,275,46,26,17,070,43,33,47,218,46*6D
###2023-12-09 13:31:32.016611$GBGSV,2,2,05,35,16,058,43,,,,,,,,,,,,*55
###2023-12-09 13:31:32.017935$GNVTG,268.57,T,,M,1.21,N,2.23,K,A*2C
###2023-12-09 13:31:32.019570$GNGST,183131.10,5.800,,,,0.140,0.090,0.220*6E
###2023-12-09 13:31:32.020865$GNZDA,183131.10,09,12,2023,00,00*79
###2023-12-09 13:31:32.021502$GNEBP,,,,,,M*13
###2023-12-09 13:31:32.187510$GNGGA,183131.30,4138.0355872,N,07032.4250456,W,1,21,1.0,13.197,M,-29.746,M,0.0,*5A
###2023-12-09 13:31:32.387422$GNGGA,183131.50,4138.0355807,N,07032.4251317,W,1,22,0.8,13.186,M,-29.746,M,0.0,*57
###2023-12-09 13:31:32.588839$GNGGA,183131.70,4138.0355689,N,07032.4252121,W,1,22,0.8,13.187,M,-29.746,M,0.0,*58
###2023-12-09 13:31:32.788376$GNGGA,183131.90,4138.0355624,N,07032.4252949,W,1,22,0.8,13.184,M,-29.746,M,0.0,*54
###2023-12-09 13:31:32.995053$GNRMC,183132.10,A,4138.0355550,N,07032.4253770,W,1.13,269.25,091223,,,A*50
###2023-12-09 13:31:32.997926$GNGGA,183132.10,4138.0355550,N,07032.4253770,W,1,21,0.8,13.188,M,-29.746,M,0.0,*55
###2023-12-09 13:31:32.999668$GPGSA,A,3,04,16,26,28,29,31,,,,,,,1.3,0.8,1.1*3C
###2023-12-09 13:31:33.001319$GLGSA,A,3,65,72,73,74,75,,,,,,,,1.3,0.8,1.1*27
###2023-12-09 13:31:33.002920$GAGSA,A,3,04,19,21,27,,,,,,,,,1.3,0.8,1.1*23
###2023-12-09 13:31:33.004636$GBGSA,A,3,14,24,25,26,33,35,,,,,,,1.3,0.8,1.1*2C
###2023-12-09 13:31:33.006987$GPGSV,2,1,06,04,45,308,44,16,65,221,46,26,85,040,49,28,39,084,45*78
###2023-12-09 13:31:33.008729$GPGSV,2,2,06,29,21,048,41,31,60,064,46,,,,,,,,*7A
###2023-12-09 13:31:33.011094$GLGSV,2,1,05,65,37,320,42,72,64,223,45,73,23,051,42,74,61,011,43*62
###2023-12-09 13:31:33.012544$GLGSV,2,2,05,75,42,269,42,,,,,,,,,,,,*5F
###2023-12-09 13:31:33.014871$GAGSV,1,1,04,04,39,310,43,19,73,182,40,21,78,047,47,27,23,050,40*6D
###2023-12-09 13:31:33.017186$GBGSV,2,1,06,14,30,190,35,24,64,044,48,25,50,275,47,26,17,070,45*6B
###2023-12-09 13:31:33.018942$GBGSV,2,2,06,33,47,218,44,35,16,058,44,,,,,,,,*69
###2023-12-09 13:31:33.020278$GNVTG,269.25,T,,M,1.13,N,2.09,K,A*21
###2023-12-09 13:31:33.021909$GNGST,183132.10,6.600,,,,0.150,0.091,0.220*60
###2023-12-09 13:31:33.023214$GNZDA,183132.10,09,12,2023,00,00*7A
###2023-12-09 13:31:33.023861$GNEBP,,,,,,M*13
###2023-12-09 13:31:33.207273$GNGGA,183132.30,4138.0355547,N,07032.4254569,W,1,22,1.0,13.186,M,-29.746,M,0.0,*58
###2023-12-09 13:31:33.388475$GNGGA,183132.50,4138.0355447,N,07032.4255338,W,1,22,1.0,13.190,M,-29.746,M,0.0,*5B
###2023-12-09 13:31:33.588879$GNGGA,183132.70,4138.0355322,N,07032.4256060,W,1,21,1.0,13.188,M,-29.746,M,0.0,*5A
###2023-12-09 13:31:33.789867$GNGGA,183132.90,4138.0355211,N,07032.4256807,W,1,21,1.0,13.178,M,-29.746,M,0.0,*53
###2023-12-09 13:31:33.990499$GNRMC,183133.10,A,4138.0355160,N,07032.4257563,W,0.99,264.48,091223,,,A*57
###2023-12-09 13:31:33.993390$GNGGA,183133.10,4138.0355160,N,07032.4257563,W,1,21,1.0,13.191,M,-29.746,M,0.0,*56
###2023-12-09 13:31:33.995145$GPGSA,A,3,04,16,26,28,29,31,,,,,,,1.6,1.0,1.2*33
###2023-12-09 13:31:33.996866$GLGSA,A,3,65,72,73,74,75,83,,,,,,,1.6,1.0,1.2*23
###2023-12-09 13:31:33.998459$GAGSA,A,3,04,19,21,27,,,,,,,,,1.6,1.0,1.2*2C
###2023-12-09 13:31:34.000126$GBGSA,A,3,24,25,26,33,35,,,,,,,,1.6,1.0,1.2*26
###2023-12-09 13:31:34.002467$GPGSV,2,1,06,04,45,308,44,16,65,221,46,26,85,040,48,28,39,084,46*7A
