###2023-12-09 13:14:06.008180$GNZDA,181405.10,09,12,2023,00,00*79
###2023-12-09 13:14:06.008847$GNEBP,,,,,,M*13
###2023-12-09 13:14:06.174097$GNGGA,181405.30,4138.0457743,N,07032.3043085,W,1,24,0.7,13.071,M,-29.743,M,0.0,*50
###2023-12-09 13:14:06.375224$GNGGA,181405.50,4138.0457984,N,07032.3046076,W,1,24,0.7,13.084,M,-29.743,M,0.0,*50
###2023-12-09 13:14:06.576419$GNGGA,181405.70,4138.0458306,N,07032.3049071,W,1,24,0.7,13.098,M,-29.743,M,0.0,*58
###2023-12-09 13:14:06.776040$GNGGA,181405.90,4138.0458593,N,07032.3052074,W,1,24,0.7,13.098,M,-29.743,M,0.0,*53
###2023-12-09 13:14:06.979385$GNRMC,181406.10,A,4138.0458576,N,07032.3054988,W,3.95,267.19,091223,,,A*58
###2023-12-09 13:14:06.982232$GNGGA,181406.10,4138.0458576,N,07032.3054988,W,1,24,0.7,13.085,M,-29.743,M,0.0,*53
###2023-12-09 13:14:06.984035$GPGSA,A,3,03,04,16,26,28,29,31,,,,,,1.2,0.7,1.0*30
###2023-12-09 13:14:06.985745$GLGSA,A,3,65,71,72,73,74,75,,,,,,,1.2,0.7,1.0*2E
###2023-12-09 13:14:06.987330$GAGSA,A,3,04,19,21,27,,,,,,,,,1.2,0.7,1.0*2C
###2023-12-09 13:14:06.989034$GBGSA,A,3,14,24,25,26,33,35,,,,,,,1.2,0.7,1.0*23
###2023-12-09 13:14:06.991360$GPGSV,2,1,07,03,32,255,42,04,38,311,42,16,56,215,46,26,86,209,48*7C
###2023-12-09 13:14:06.993390$GPGSV,2,2,07,28,45,076,46,29,24,055,41,31,65,050,47,,,,*49
###2023-12-09 13:14:06.995720$GLGSV,2,1,06,65,29,325,40,71,34,174,47,72,71,246,44,73,31,045,43*6B
###2023-12-09 13:14:06.997462$GLGSV,2,2,06,74,66,353,42,75,36,259,42,,,,,,,,*6C
###2023-12-09 13:14:06.999793$GAGSV,1,1,04,04,33,312,41,19,80,192,40,21,84,066,46,27,29,048,40*68
###2023-12-09 13:14:07.002113$GBGSV,2,1,06,14,38,192,43,24,70,034,47,25,44,267,43,26,22,065,41*69
###2023-12-09 13:14:07.003871$GBGSV,2,2,06,33,53,226,44,35,15,065,43,,,,,,,,*6B
###2023-12-09 13:14:07.005196$GNVTG,267.19,T,,M,3.95,N,7.31,K,A*22
###2023-12-09 13:14:07.006854$GNGST,181406.10,18.000,,,,0.097,0.074,0.170*5E
###2023-12-09 13:14:07.008148$GNZDA,181406.10,09,12,2023,00,00*7A
###2023-12-09 13:14:07.008788$GNEBP,,,,,,M*13
###2023-12-09 13:14:07.175184$GNGGA,181406.30,4138.0458498,N,07032.3057863,W,1,24,0.7,13.064,M,-29.743,M,0.0,*58
###2023-12-09 13:14:07.375920$GNGGA,181406.50,4138.0458568,N,07032.3060709,W,1,24,0.7,13.067,M,-29.743,M,0.0,*54
###2023-12-09 13:14:07.575654$GNGGA,181406.70,4138.0458700,N,07032.3063540,W,1,24,0.7,13.085,M,-29.743,M,0.0,*5A
###2023-12-09 13:14:07.776065$GNGGA,181406.90,4138.0458696,N,07032.3066296,W,1,24,0.7,13.101,M,-29.743,M,0.0,*5E
###2023-12-09 13:14:07.978503$GNRMC,181407.10,A,4138.0458555,N,07032.3068960,W,3.62,265.95,091223,,,A*5F
###2023-12-09 13:14:07.981387$GNGGA,181407.10,4138.0458555,N,07032.3068960,W,1,24,0.7,13.105,M,-29.743,M,0.0,*53
###2023-12-09 13:14:07.983188$GPGSA,A,3,03,04,16,26,28,29,31,,,,,,1.2,0.7,1.0*30
###2023-12-09 13:14:07.984905$GLGSA,A,3,65,71,72,73,74,75,,,,,,,1.2,0.7,1.0*2E
###2023-12-09 13:14:07.986487$GAGSA,A,3,04,19,21,27,,,,,,,,,1.2,0.7,1.0*2C
###2023-12-09 13:14:07.988210$GBGSA,A,3,14,24,25,26,33,35,,,,,,,1.2,0.7,1.0*23
###2023-12-09 13:14:07.990533$GPGSV,2,1,07,03,32,255,41,04,38,311,43,16,56,215,45,26,86,209,48*7D
###2023-12-09 13:14:07.992582$GPGSV,2,2,07,28,45,076,45,29,24,055,41,31,65,050,47,,,,*4A
###2023-12-09 13:14:07.994926$GLGSV,2,1,06,65,29,325,41,71,34,174,46,72,71,246,44,73,31,045,44*6C
###2023-12-09 13:14:07.996668$GLGSV,2,2,06,74,66,353,42,75,36,259,43,,,,,,,,*6D
###2023-12-09 13:14:07.998999$GAGSV,1,1,04,04,33,312,41,19,80,192,40,21,84,066,46,27,29,048,42*6A
###2023-12-09 13:14:08.001331$GBGSV,2,1,06,14,38,192,44,24,70,034,49,25,44,267,44,26,22,065,42*64
###2023-12-09 13:14:08.003090$GBGSV,2,2,06,33,53,226,47,35,15,065,45,,,,,,,,*6E
###2023-12-09 13:14:08.004418$GNVTG,265.95,T,,M,3.62,N,6.70,K,A*28
###2023-12-09 13:14:08.006071$GNGST,181407.10,18.000,,,,0.097,0.074,0.170*5F
###2023-12-09 13:14:08.007371$GNZDA,181407.10,09,12,2023,00,00*7B
###2023-12-09 13:14:08.008010$GNEBP,,,,,,M*13
###2023-12-09 13:14:08.174754$GNGGA,181407.30,4138.0458489,N,07032.3071651,W,1,24,0.7,13.096,M,-29.743,M,0.0,*5F
###2023-12-09 13:14:08.375194$GNGGA,181407.50,4138.0458532,N,07032.3074336,W,1,24,0.7,13.087,M,-29.743,M,0.0,*59
###2023-12-09 13:14:08.577033$GNGGA,181407.70,4138.0458611,N,07032.3076955,W,1,24,0.7,13.096,M,-29.743,M,0.0,*54
###2023-12-09 13:14:08.776415$GNGGA,181407.90,4138.0458564,N,07032.3079490,W,1,24,0.7,13.104,M,-29.743,M,0.0,*5A
###2023-12-09 13:14:08.987797$GNRMC,181408.10,A,4138.0458502,N,07032.3081980,W,3.36,268.66,091223,,,A*5B
###2023-12-09 13:14:08.990672$GNGGA,181408.10,4138.0458502,N,07032.3081980,W,1,24,0.7,13.105,M,-29.744,M,0.0,*50
###2023-12-09 13:14:08.992466$GPGSA,A,3,03,04,16,26,28,29,31,,,,,,1.2,0.7,1.0*30
###2023-12-09 13:14:08.994181$GLGSA,A,3,65,71,72,73,74,75,,,,,,,1.2,0.7,1.0*2E
###2023-12-09 13:14:08.995785$GAGSA,A,3,04,19,21,27,,,,,,,,,1.2,0.7,1.0*2C
###2023-12-09 13:14:08.997501$GBGSA,A,3,14,24,25,26,33,35,,,,,,,1.2,0.7,1.0*23
###2023-12-09 13:14:08.999841$GPGSV,2,1,07,03,32,255,42,04,38,311,42,16,56,215,46,26,86,209,48*7C
###2023-12-09 13:14:09.001880$GPGSV,2,2,07,28,45,076,45,29,24,055,40,31,65,050,48,,,,*44
###2023-12-09 13:14:09.004222$GLGSV,2,1,06,65,29,325,40,71,34,174,46,72,71,246,44,73,31,045,43*6A
###2023-12-09 13:14:09.005974$GLGSV,2,2,06,74,66,353,42,75,36,259,43,,,,,,,,*6D
###2023-12-09 13:14:09.008313$GAGSV,1,1,04,04,33,312,40,19,80,192,40,21,84,066,46,27,29,048,42*6B
###2023-12-09 13:14:09.010661$GBGSV,2,1,06,14,38,192,44,24,70,034,49,25,44,267,43,26,22,065,43*62
###2023-12-09 13:14:09.012413$GBGSV,2,2,06,33,53,226,47,35,15,065,44,,,,,,,,*6F
###2023-12-09 13:14:09.013741$GNVTG,268.66,T,,M,3.36,N,6.23,K,A*2E
###2023-12-09 13:14:09.015426$GNGST,181408.10,18.000,,,,0.097,0.074,0.170*50
###2023-12-09 13:14:09.016725$GNZDA,181408.10,09,12,2023,00,00*74
###2023-12-09 13:14:09.017365$GNEBP,,,,,,M*13
###2023-12-09 13:14:09.178089$GNGGA,181408.30,4138.0458491,N,07032.3084447,W,1,24,0.7,13.096,M,-29.744,M,0.0,*51
###2023-12-09 13:14:09.374276$GNGGA,181408.50,4138.0458509,N,07032.3086994,W,1,24,0.7,13.095,M,-29.744,M,0.0,*55
###2023-12-09 13:14:09.576118$GNGGA,181408.70,4138.0458565,N,07032.3089583,W,1,24,0.7,13.113,M,-29.744,M,0.0,*57
###2023-12-09 13:14:09.777348$GNGGA,181408.90,4138.0458547,N,07032.3092208,W,1,24,0.7,13.128,M,-29.744,M,0.0,*5F
###2023-12-09 13:14:09.977541$GNRMC,181409.10,A,4138.0458345,N,07032.3094814,W,3.56,260.33,091223,,,A*59
###2023-12-09 13:14:09.980404$GNGGA,181409.10,4138.0458345,N,07032.3094814,W,1,24,0.7,13.120,M,-29.744,M,0.0,*5B
###2023-12-09 13:14:09.982194$GPGSA,A,3,03,04,16,26,28,29,31,,,,,,1.2,0.7,1.0*30
###2023-12-09 13:14:09.983916$GLGSA,A,3,65,71,72,73,74,75,,,,,,,1.2,0.7,1.0*2E
###2023-12-09 13:14:09.985501$GAGSA,A,3,04,19,21,27,,,,,,,,,1.2,0.7,1.0*2C
###2023-12-09 13:14:09.987217$GBGSA,A,3,14,24,25,26,33,35,,,,,,,1.2,0.7,1.0*23
###2023-12-09 13:14:09.989537$GPGSV,2,1,07,03,32,255,43,04,38,311,43,16,56,215,46,26,86,209,47*73
###2023-12-09 13:14:09.991577$GPGSV,2,2,07,28,45,076,44,29,24,055,40,31,65,050,48,,,,*45
###2023-12-09 13:14:09.993893$GLGSV,2,1,06,65,29,325,41,71,34,174,45,72,71,246,44,73,31,045,44*6F
###2023-12-09 13:14:09.995672$GLGSV,2,2,06,74,66,353,43,75,36,259,43,,,,,,,,*6C
###2023-12-09 13:14:09.997978$GAGSV,1,1,04,04,33,312,42,19,80,192,40,21,84,066,46,27,29,048,41*6A
###2023-12-09 13:14:10.000305$GBGSV,2,1,06,14,38,192,43,24,70,034,48,25,44,267,43,26,22,065,44*63
###2023-12-09 13:14:10.002048$GBGSV,2,2,06,33,53,226,46,35,15,065,44,,,,,,,,*6E
###2023-12-09 13:14:10.003376$GNVTG,260.33,T,,M,3.56,N,6.59,K,A*2D
###2023-12-09 13:14:10.005013$GNGST,181409.10,18.000,,,,0.098,0.074,0.170*5E
###2023-12-09 13:14:10.006297$GNZDA,181409.10,09,12,2023,00,00*75
###2023-12-09 13:14:10.006944$GNEBP,,,,,,M*13
###2023-12-09 13:14:10.172986$GNGGA,181409.30,4138.0458076,N,07032.3097440,W,1,24,0.7,13.098,M,-29.744,M,0.0,*56
###2023-12-09 13:14:10.373944$GNGGA,181409.50,4138.0458001,N,07032.3100145,W,1,24,0.7,13.100,M,-29.744,M,0.0,*5F
###2023-12-09 13:14:10.573744$GNGGA,181409.70,4138.0457989,N,07032.3102848,W,1,24,0.7,13.117,M,-29.744,M,0.0,*5B
###2023-12-09 13:14:10.773987$GNGGA,181409.90,4138.0457809,N,07032.3105527,W,1,24,0.7,13.134,M,-29.744,M,0.0,*5E
###2023-12-09 13:14:10.977698$GNRMC,181410.10,A,4138.0457570,N,07032.3108237,W,3.77,264.62,091223,,,A*52
###2023-12-09 13:14:10.980844$GNGGA,181410.10,4138.0457570,N,07032.3108237,W,1,24,0.7,13.134,M,-29.744,M,0.0,*56
###2023-12-09 13:14:10.982661$GPGSA,A,3,03,04,16,26,28,29,31,,,,,,1.2,0.7,1.0*30
###2023-12-09 13:14:10.984376$GLGSA,A,3,65,71,72,73,74,75,,,,,,,1.2,0.7,1.0*2E
###2023-12-09 13:14:10.985959$GAGSA,A,3,04,19,21,27,,,,,,,,,1.2,0.7,1.0*2C
###2023-12-09 13:14:10.987684$GBGSA,A,3,14,24,25,26,33,35,,,,,,,1.2,0.7,1.0*23
###2023-12-09 13:14:10.989998$GPGSV,2,1,07,03,32,255,42,04,38,311,43,16,56,215,46,26,86,209,48*7D
###2023-12-09 13:14:10.992044$GPGSV,2,2,07,28,45,076,46,29,24,055,41,31,65,050,47,,,,*49
###2023-12-09 13:14:10.994369$GLGSV,2,1,06,65,29,325,41,71,34,174,46,72,71,246,45,73,31,045,44*6D
###2023-12-09 13:14:10.996121$GLGSV,2,2,06,74,66,353,43,75,36,259,42,,,,,,,,*6D
