###2023-12-09 13:06:57.980080$GLGSA,A,3,65,71,72,73,74,75,,,,,,,1.1,0.6,0.9*24
###2023-12-09 13:06:57.981689$GAGSA,A,3,04,19,21,27,,,,,,,,,1.1,0.6,0.9*26
###2023-12-09 13:06:57.983423$GBGSA,A,3,14,24,25,26,33,35,,,,,,,1.1,0.6,0.9*29
###2023-12-09 13:06:57.985755$GPGSV,2,1,08,03,34,259,43,04,34,311,43,16,52,213,47,26,82,210,48*7A
###2023-12-09 13:06:57.988101$GPGSV,2,2,08,28,48,072,45,29,25,059,41,31,68,042,48,32,17,141,44*73
###2023-12-09 13:06:57.990415$GLGSV,2,1,06,65,26,326,41,71,37,173,47,72,72,258,45,73,33,043,44*6C
###2023-12-09 13:06:57.992166$GLGSV,2,2,06,74,68,345,42,75,34,256,43,,,,,,,,*69
###2023-12-09 13:06:57.994489$GAGSV,1,1,04,04,31,312,40,19,83,203,40,21,85,092,46,27,31,048,41*61
###2023-12-09 13:06:57.996824$GBGSV,2,1,06,14,41,192,43,24,72,029,47,25,42,264,42,26,24,064,41*6A
###2023-12-09 13:06:57.998575$GBGSV,2,2,06,33,56,229,46,35,15,067,44,,,,,,,,*66
###2023-12-09 13:06:57.999895$GNVTG,267.38,T,,M,3.44,N,6.37,K,A*2A
###2023-12-09 13:06:58.001532$GNGST,180657.10,18.000,,,,0.080,0.067,0.150*5F
###2023-12-09 13:06:58.002858$GNZDA,180657.10,09,12,2023,00,00*7D
###2023-12-09 13:06:58.003500$GNEBP,,,,,,M*13
###2023-12-09 13:06:58.168018$GNGGA,180657.30,4138.0720219,N,07032.3502215,W,1,25,0.6,12.914,M,-29.743,M,0.0,*5D
###2023-12-09 13:06:58.368453$GNGGA,180657.50,4138.0720210,N,07032.3504821,W,1,25,0.6,12.920,M,-29.743,M,0.0,*5E
###2023-12-09 13:06:58.569881$GNGGA,180657.70,4138.0720239,N,07032.3507477,W,1,25,0.6,12.928,M,-29.743,M,0.0,*53
###2023-12-09 13:06:58.768863$GNGGA,180657.90,4138.0720162,N,07032.3510151,W,1,25,0.6,12.924,M,-29.743,M,0.0,*5B
###2023-12-09 13:06:58.976405$GNRMC,180658.10,A,4138.0720095,N,07032.3512856,W,3.69,269.75,091223,,,A*56
###2023-12-09 13:06:58.979263$GNGGA,180658.10,4138.0720095,N,07032.3512856,W,1,25,0.6,12.926,M,-29.743,M,0.0,*5B
###2023-12-09 13:06:58.981109$GPGSA,A,3,03,04,16,26,28,29,31,32,,,,,1.1,0.6,0.9*3B
###2023-12-09 13:06:58.982830$GLGSA,A,3,65,71,72,73,74,75,,,,,,,1.1,0.6,0.9*24
###2023-12-09 13:06:58.984407$GAGSA,A,3,04,19,21,27,,,,,,,,,1.1,0.6,0.9*26
###2023-12-09 13:06:58.986110$GBGSA,A,3,14,24,25,26,33,35,,,,,,,1.1,0.6,0.9*29
###2023-12-09 13:06:58.988440$GPGSV,2,1,08,03,34,259,41,04,34,311,43,16,52,213,47,26,82,210,48*78
###2023-12-09 13:06:58.990777$GPGSV,2,2,08,28,48,072,46,29,25,059,42,31,68,042,48,32,17,141,43*74
###2023-12-09 13:06:58.993102$GLGSV,2,1,06,65,26,326,40,71,37,173,46,72,72,258,45,73,33,043,44*6C
###2023-12-09 13:06:58.994854$GLGSV,2,2,06,74,68,345,42,75,34,256,41,,,,,,,,*6B
###2023-12-09 13:06:58.997168$GAGSV,1,1,04,04,31,312,41,19,83,203,40,21,85,092,46,27,31,048,41*60
###2023-12-09 13:06:58.999506$GBGSV,2,1,06,14,41,192,44,24,72,029,48,25,42,264,44,26,24,064,42*67
###2023-12-09 13:06:59.001248$GBGSV,2,2,06,33,56,229,48,35,15,067,43,,,,,,,,*6F
###2023-12-09 13:06:59.002580$GNVTG,269.75,T,,M,3.69,N,6.84,K,A*2A
###2023-12-09 13:06:59.004228$GNGST,180658.10,18.000,,,,0.080,0.067,0.150*50
###2023-12-09 13:06:59.005518$GNZDA,180658.10,09,12,2023,00,00*72
###2023-12-09 13:06:59.006156$GNEBP,,,,,,M*13
###2023-12-09 13:06:59.167924$GNGGA,180658.30,4138.0720187,N,07032.3515591,W,1,25,0.6,12.936,M,-29.743,M,0.0,*5B
###2023-12-09 13:06:59.369499$GNGGA,180658.50,4138.0720350,N,07032.3518323,W,1,25,0.6,12.933,M,-29.743,M,0.0,*52
###2023-12-09 13:06:59.568782$GNGGA,180658.70,4138.0720510,N,07032.3520983,W,1,25,0.6,12.926,M,-29.743,M,0.0,*5D
###2023-12-09 13:06:59.769986$GNGGA,180658.90,4138.0720690,N,07032.3523598,W,1,25,0.6,12.923,M,-29.743,M,0.0,*58
###2023-12-09 13:06:59.970729$GNRMC,180659.10,A,4138.0720903,N,07032.3526180,W,3.52,278.02,091223,,,A*5C
###2023-12-09 13:06:59.973583$GNGGA,180659.10,4138.0720903,N,07032.3526180,W,1,25,0.6,12.923,M,-29.743,M,0.0,*5C
###2023-12-09 13:06:59.975448$GPGSA,A,3,03,04,16,26,28,29,31,32,,,,,1.1,0.6,0.9*3B
###2023-12-09 13:06:59.977155$GLGSA,A,3,65,71,72,73,74,75,,,,,,,1.1,0.6,0.9*24
###2023-12-09 13:06:59.978741$GAGSA,A,3,04,19,21,27,,,,,,,,,1.1,0.6,0.9*26
###2023-12-09 13:06:59.980446$GBGSA,A,3,14,24,25,26,33,35,,,,,,,1.1,0.6,0.9*29
###2023-12-09 13:06:59.982779$GPGSV,2,1,08,03,34,259,41,04,34,311,40,16,52,213,46,26,82,210,48*7A
###2023-12-09 13:06:59.985100$GPGSV,2,2,08,28,48,072,45,29,25,059,41,31,68,042,47,32,17,141,43*7B
###2023-12-09 13:06:59.987452$GLGSV,2,1,06,65,26,326,40,71,37,173,45,72,72,258,45,73,33,043,44*6F
###2023-12-09 13:06:59.989211$GLGSV,2,2,06,74,68,345,42,75,34,256,41,,,,,,,,*6B
###2023-12-09 13:06:59.991538$GAGSV,1,1,04,04,31,312,40,19,83,203,40,21,85,092,46,27,31,048,41*61
###2023-12-09 13:06:59.993851$GBGSV,2,1,06,14,41,192,45,24,72,029,49,25,42,264,44,26,24,064,42*67
###2023-12-09 13:06:59.995595$GBGSV,2,2,06,33,56,229,48,35,15,067,43,,,,,,,,*6F
###2023-12-09 13:06:59.996918$GNVTG,278.02,T,,M,3.52,N,6.52,K,A*29
###2023-12-09 13:06:59.998570$GNGST,180659.10,18.000,,,,0.081,0.067,0.150*50
###2023-12-09 13:06:59.999855$GNZDA,180659.10,09,12,2023,00,00*73
###2023-12-09 13:07:00.000488$GNEBP,,,,,,M*13
###2023-12-09 13:07:00.168815$GNGGA,180659.30,4138.0721184,N,07032.3528687,W,1,25,0.6,12.926,M,-29.743,M,0.0,*53
###2023-12-09 13:07:00.369492$GNGGA,180659.50,4138.0721518,N,07032.3531150,W,1,25,0.6,12.930,M,-29.743,M,0.0,*56
###2023-12-09 13:07:00.572442$GNGGA,180659.70,4138.0721880,N,07032.3533575,W,1,25,0.6,12.934,M,-29.743,M,0.0,*5D
###2023-12-09 13:07:00.768755$GNGGA,180659.90,4138.0722302,N,07032.3535968,W,1,25,0.6,12.939,M,-29.743,M,0.0,*5A
###2023-12-09 13:07:00.973558$GNRMC,180700.10,A,4138.0722731,N,07032.3538338,W,3.34,284.23,091223,,,A*52
###2023-12-09 13:07:00.976437$GNGGA,180700.10,4138.0722731,N,07032.3538338,W,1,25,0.6,12.943,M,-29.743,M,0.0,*54
###2023-12-09 13:07:00.978291$GPGSA,A,3,03,04,16,26,28,29,31,32,,,,,1.1,0.6,0.9*3B
###2023-12-09 13:07:00.980013$GLGSA,A,3,65,71,72,73,74,75,,,,,,,1.1,0.6,0.9*24
###2023-12-09 13:07:00.981600$GAGSA,A,3,04,19,21,27,,,,,,,,,1.1,0.6,0.9*26
###2023-12-09 13:07:00.983330$GBGSA,A,3,14,24,25,26,33,35,,,,,,,1.1,0.6,0.9*29
###2023-12-09 13:07:00.985659$GPGSV,2,1,08,03,34,259,40,04,34,311,41,16,52,213,46,26,82,210,48*7A
###2023-12-09 13:07:00.988004$GPGSV,2,2,08,28,48,072,45,29,25,059,41,31,68,042,47,32,17,141,43*7B
###2023-12-09 13:07:00.990339$GLGSV,2,1,06,65,26,326,39,71,37,173,46,72,72,258,45,73,33,043,45*63
###2023-12-09 13:07:00.992099$GLGSV,2,2,06,74,68,345,42,75,34,256,41,,,,,,,,*6B
###2023-12-09 13:07:00.994421$GAGSV,1,1,04,04,31,312,40,19,83,203,40,21,85,092,46,27,31,048,42*62
###2023-12-09 13:07:00.996768$GBGSV,2,1,06,14,41,192,45,24,72,029,48,25,42,264,44,26,24,064,41*65
###2023-12-09 13:07:00.998513$GBGSV,2,2,06,33,56,229,48,35,15,067,42,,,,,,,,*6E
###2023-12-09 13:07:00.999851$GNVTG,284.23,T,,M,3.34,N,6.19,K,A*26
###2023-12-09 13:07:01.001502$GNGST,180700.10,18.000,,,,0.081,0.068,0.150*52
###2023-12-09 13:07:01.002829$GNZDA,180700.10,09,12,2023,00,00*7E
###2023-12-09 13:07:01.003472$GNEBP,,,,,,M*13
###2023-12-09 13:07:01.167855$GNGGA,180700.30,4138.0723167,N,07032.3540720,W,1,25,0.6,12.944,M,-29.743,M,0.0,*57
###2023-12-09 13:07:01.368857$GNGGA,180700.50,4138.0723617,N,07032.3543084,W,1,25,0.6,12.943,M,-29.743,M,0.0,*5C
###2023-12-09 13:07:01.569845$GNGGA,180700.70,4138.0724017,N,07032.3545407,W,1,25,0.6,12.942,M,-29.743,M,0.0,*57
###2023-12-09 13:07:01.768911$GNGGA,180700.90,4138.0724322,N,07032.3547718,W,1,25,0.6,12.932,M,-29.743,M,0.0,*54
###2023-12-09 13:07:01.971706$GNRMC,180701.10,A,4138.0724621,N,07032.3550027,W,3.21,279.97,091223,,,A*5F
###2023-12-09 13:07:01.974558$GNGGA,180701.10,4138.0724621,N,07032.3550027,W,1,25,0.6,12.926,M,-29.743,M,0.0,*53
###2023-12-09 13:07:01.976412$GPGSA,A,3,03,04,16,26,28,29,31,32,,,,,1.1,0.6,0.9*3B
###2023-12-09 13:07:01.978118$GLGSA,A,3,65,71,72,73,74,75,,,,,,,1.1,0.6,0.9*24
###2023-12-09 13:07:01.979705$GAGSA,A,3,04,19,21,27,,,,,,,,,1.1,0.6,0.9*26
###2023-12-09 13:07:01.981407$GBGSA,A,3,14,24,25,26,33,35,,,,,,,1.1,0.6,0.9*29
###2023-12-09 13:07:01.983743$GPGSV,2,1,08,03,34,259,41,04,34,311,40,16,52,213,45,26,82,210,47*76
###2023-12-09 13:07:01.986061$GPGSV,2,2,08,28,48,072,45,29,25,059,41,31,68,042,47,32,17,141,43*7B
###2023-12-09 13:07:01.988389$GLGSV,2,1,06,65,26,326,39,71,37,173,46,72,72,258,45,73,33,043,44*62
###2023-12-09 13:07:01.990132$GLGSV,2,2,06,74,68,345,42,75,34,256,41,,,,,,,,*6B
###2023-12-09 13:07:01.992711$GAGSV,1,1,04,04,31,312,38,19,83,203,40,21,85,092,46,27,31,048,40*6F
###2023-12-09 13:07:01.995046$GBGSV,2,1,06,14,41,192,45,24,72,029,48,25,42,264,44,26,24,064,40*64
###2023-12-09 13:07:01.996785$GBGSV,2,2,06,33,56,229,48,35,15,067,42,,,,,,,,*6E
###2023-12-09 13:07:01.998103$GNVTG,279.97,T,,M,3.21,N,5.94,K,A*29
###2023-12-09 13:07:01.999749$GNGST,180701.10,18.000,,,,0.081,0.068,0.150*53
###2023-12-09 13:07:02.001037$GNZDA,180701.10,09,12,2023,00,00*7F
###2023-12-09 13:07:02.001674$GNEBP,,,,,,M*13
###2023-12-09 13:07:02.168844$GNGGA,180701.30,4138.0724968,N,07032.3552325,W,1,25,0.6,12.927,M,-29.743,M,0.0,*51
###2023-12-09 13:07:02.368508$GNGGA,180701.50,4138.0725378,N,07032.3554686,W,1,25,0.6,12.937,M,-29.743,M,0.0,*56
