###2023-12-09 12:38:13.953904$GPGSV,2,2,08,28,57,058,46,29,25,072,43,31,73,007,47,32,28,135,42*70
###2023-12-09 12:38:13.956284$GLGSV,2,1,05,71,55,169,47,72,67,307,47,73,46,034,47,74,71,296,43*66
###2023-12-09 12:38:13.957744$GLGSV,2,2,05,75,23,242,45,,,,,,,,,,,,*56
###2023-12-09 12:38:13.960083$GAGSV,1,1,04,04,21,311,39,19,82,299,39,21,78,175,45,27,41,049,44*6B
###2023-12-09 12:38:13.962406$GBGSV,2,1,05,14,54,197,43,24,80,351,48,25,33,253,45,26,34,058,45*69
###2023-12-09 12:38:13.963881$GBGSV,2,2,05,33,63,252,49,,,,,,,,,,,,*53
###2023-12-09 12:38:13.965209$GNVTG,164.41,T,,M,2.84,N,5.26,K,A*2A
###2023-12-09 12:38:13.966871$GNGST,173813.10,19.000,,,,0.084,0.071,0.170*5D
###2023-12-09 12:38:13.968164$GNZDA,173813.10,09,12,2023,00,00*7F
###2023-12-09 12:38:13.968799$GNEBP,,,,,,M*13
###2023-12-09 12:38:14.139520$GNGGA,173813.30,4138.0611489,N,07032.3878756,W,1,23,0.7,13.520,M,-29.744,M,0.0,*5B
###2023-12-09 12:38:14.338410$GNGGA,173813.50,4138.0610195,N,07032.3877835,W,1,23,0.7,13.532,M,-29.744,M,0.0,*52
###2023-12-09 12:38:14.539697$GNGGA,173813.70,4138.0608835,N,07032.3876867,W,1,23,0.7,13.539,M,-29.744,M,0.0,*57
###2023-12-09 12:38:14.736759$GNGGA,173813.90,4138.0607425,N,07032.3875898,W,1,23,0.7,13.538,M,-29.744,M,0.0,*59
###2023-12-09 12:38:14.939077$GNRMC,173814.10,A,4138.0606076,N,07032.3874821,W,2.70,145.59,091223,,,A*53
###2023-12-09 12:38:14.941929$GNGGA,173814.10,4138.0606076,N,07032.3874821,W,1,23,0.7,13.543,M,-29.744,M,0.0,*5A
###2023-12-09 12:38:14.943797$GPGSA,A,3,03,04,16,26,28,29,31,32,,,,,1.2,0.7,1.0*31
###2023-12-09 12:38:14.945444$GLGSA,A,3,71,72,73,74,75,,,,,,,,1.2,0.7,1.0*2D
###2023-12-09 12:38:14.947066$GAGSA,A,3,04,19,21,27,,,,,,,,,1.2,0.7,1.0*2C
###2023-12-09 12:38:14.948741$GBGSA,A,3,14,24,25,26,33,,,,,,,,1.2,0.7,1.0*25
###2023-12-09 12:38:14.951077$GPGSV,2,1,08,03,38,275,44,04,23,311,42,16,38,208,44,26,68,207,47*70
###2023-12-09 12:38:14.953404$GPGSV,2,2,08,28,57,058,45,29,25,072,43,31,73,007,47,32,28,135,43*72
###2023-12-09 12:38:14.955753$GLGSV,2,1,05,71,55,169,47,72,67,307,47,73,46,034,46,74,71,296,43*67
###2023-12-09 12:38:14.957203$GLGSV,2,2,05,75,23,242,44,,,,,,,,,,,,*57
###2023-12-09 12:38:14.959535$GAGSV,1,1,04,04,21,311,41,19,82,299,40,21,78,175,46,27,41,049,44*69
###2023-12-09 12:38:14.961856$GBGSV,2,1,05,14,54,197,44,24,80,351,47,25,33,253,44,26,34,058,44*61
###2023-12-09 12:38:14.963323$GBGSV,2,2,05,33,63,252,48,,,,,,,,,,,,*52
###2023-12-09 12:38:14.964642$GNVTG,145.59,T,,M,2.70,N,5.00,K,A*2F
###2023-12-09 12:38:14.966290$GNGST,173814.10,19.000,,,,0.083,0.071,0.170*5D
###2023-12-09 12:38:14.967589$GNZDA,173814.10,09,12,2023,00,00*78
###2023-12-09 12:38:14.968228$GNEBP,,,,,,M*13
###2023-12-09 12:38:15.137790$GNGGA,173814.30,4138.0604845,N,07032.3873543,W,1,23,0.7,13.554,M,-29.744,M,0.0,*5A
###2023-12-09 12:38:15.338226$GNGGA,173814.50,4138.0603679,N,07032.3872061,W,1,23,0.7,13.547,M,-29.744,M,0.0,*5C
###2023-12-09 12:38:15.541205$GNGGA,173814.70,4138.0602635,N,07032.3870630,W,1,23,0.7,13.537,M,-29.744,M,0.0,*50
###2023-12-09 12:38:15.737537$GNGGA,173814.90,4138.0601524,N,07032.3869163,W,1,23,0.7,13.563,M,-29.744,M,0.0,*56
###2023-12-09 12:38:15.941952$GNRMC,173815.10,A,4138.0600405,N,07032.3867560,W,2.94,127.72,091223,,,A*59
###2023-12-09 12:38:15.944833$GNGGA,173815.10,4138.0600405,N,07032.3867560,W,1,23,0.7,13.558,M,-29.744,M,0.0,*5D
###2023-12-09 12:38:15.946713$GPGSA,A,3,03,04,16,26,28,29,31,32,,,,,1.2,0.7,1.0*31
###2023-12-09 12:38:15.948381$GLGSA,A,3,71,72,73,74,75,,,,,,,,1.2,0.7,1.0*2D
###2023-12-09 12:38:15.949964$GAGSA,A,3,04,19,21,27,,,,,,,,,1.2,0.7,1.0*2C
###2023-12-09 12:38:15.951626$GBGSA,A,3,14,24,25,26,33,,,,,,,,1.2,0.7,1.0*25
###2023-12-09 12:38:15.953960$GPGSV,2,1,08,03,38,275,45,04,23,311,41,16,38,208,45,26,68,207,48*7C
###2023-12-09 12:38:15.956315$GPGSV,2,2,08,28,57,058,44,29,25,072,43,31,73,007,47,32,28,135,42*72
###2023-12-09 12:38:15.958661$GLGSV,2,1,05,71,55,169,46,72,67,307,47,73,46,034,46,74,71,296,43*66
###2023-12-09 12:38:15.960115$GLGSV,2,2,05,75,23,242,43,,,,,,,,,,,,*50
###2023-12-09 12:38:15.962441$GAGSV,1,1,04,04,21,311,40,19,82,299,40,21,78,175,45,27,41,049,43*6C
###2023-12-09 12:38:15.964794$GBGSV,2,1,05,14,54,197,45,24,80,351,48,25,33,253,44,26,34,058,45*6E
###2023-12-09 12:38:15.966250$GBGSV,2,2,05,33,63,252,49,,,,,,,,,,,,*53
###2023-12-09 12:38:15.967589$GNVTG,127.72,T,,M,2.94,N,5.44,K,A*28
###2023-12-09 12:38:15.969242$GNGST,173815.10,18.000,,,,0.083,0.071,0.170*5D
###2023-12-09 12:38:15.970536$GNZDA,173815.10,09,12,2023,00,00*79
###2023-12-09 12:38:15.971212$GNEBP,,,,,,M*13
###2023-12-09 12:38:16.138228$GNGGA,173815.30,4138.0599619,N,07032.3865846,W,1,23,0.7,13.539,M,-29.744,M,0.0,*5F
###2023-12-09 12:38:16.338405$GNGGA,173815.50,4138.0598952,N,07032.3864047,W,1,23,0.7,13.551,M,-29.744,M,0.0,*5E
###2023-12-09 12:38:16.538454$GNGGA,173815.70,4138.0598107,N,07032.3862163,W,1,23,0.7,13.546,M,-29.744,M,0.0,*53
###2023-12-09 12:38:16.737648$GNGGA,173815.90,4138.0597467,N,07032.3860269,W,1,23,0.7,13.536,M,-29.744,M,0.0,*5D
###2023-12-09 12:38:16.940082$GNRMC,173816.10,A,4138.0596983,N,07032.3858267,W,2.92,107.24,091223,,,A*5E
###2023-12-09 12:38:16.942951$GNGGA,173816.10,4138.0596983,N,07032.3858267,W,1,23,0.7,13.550,M,-29.744,M,0.0,*55
###2023-12-09 12:38:16.944809$GPGSA,A,3,03,04,16,26,28,29,31,32,,,,,1.2,0.7,1.0*31
###2023-12-09 12:38:16.946480$GLGSA,A,3,71,72,73,74,75,,,,,,,,1.2,0.7,1.0*2D
###2023-12-09 12:38:16.948099$GAGSA,A,3,04,19,21,27,,,,,,,,,1.2,0.7,1.0*2C
###2023-12-09 12:38:16.949750$GBGSA,A,3,14,24,25,26,33,,,,,,,,1.2,0.7,1.0*25
###2023-12-09 12:38:16.952091$GPGSV,2,1,08,03,38,275,45,04,23,311,42,16,38,208,46,26,68,207,48*7C
###2023-12-09 12:38:16.954427$GPGSV,2,2,08,28,57,058,45,29,25,072,40,31,73,007,46,32,28,135,42*71
###2023-12-09 12:38:16.956768$GLGSV,2,1,05,71,55,169,47,72,67,307,47,73,46,034,46,74,71,296,43*67
###2023-12-09 12:38:16.958219$GLGSV,2,2,05,75,23,242,43,,,,,,,,,,,,*50
###2023-12-09 12:38:16.960555$GAGSV,1,1,04,04,21,311,41,19,82,299,40,21,78,175,46,27,41,049,44*69
###2023-12-09 12:38:16.962931$GBGSV,2,1,05,14,54,197,46,24,80,351,49,25,33,253,44,26,34,058,45*6C
###2023-12-09 12:38:16.964387$GBGSV,2,2,05,33,63,252,48,,,,,,,,,,,,*52
###2023-12-09 12:38:16.965711$GNVTG,107.24,T,,M,2.92,N,5.40,K,A*2B
###2023-12-09 12:38:16.967372$GNGST,173816.10,18.000,,,,0.082,0.070,0.170*5E
###2023-12-09 12:38:16.968667$GNZDA,173816.10,09,12,2023,00,00*7A
###2023-12-09 12:38:16.969303$GNEBP,,,,,,M*13
###2023-12-09 12:38:17.138909$GNGGA,173816.30,4138.0596546,N,07032.3856230,W,1,23,0.7,13.544,M,-29.744,M,0.0,*5B
###2023-12-09 12:38:17.338119$GNGGA,173816.50,4138.0596270,N,07032.3854206,W,1,23,0.7,13.537,M,-29.744,M,0.0,*5C
###2023-12-09 12:38:17.538419$GNGGA,173816.70,4138.0596022,N,07032.3852137,W,1,23,0.7,13.534,M,-29.744,M,0.0,*5F
###2023-12-09 12:38:17.737661$GNGGA,173816.90,4138.0595796,N,07032.3850050,W,1,23,0.7,13.528,M,-29.744,M,0.0,*55
###2023-12-09 12:38:17.939090$GNRMC,173817.10,A,4138.0595569,N,07032.3848006,W,2.86,98.66,091223,,,A*64
###2023-12-09 12:38:17.941924$GNGGA,173817.10,4138.0595569,N,07032.3848006,W,1,23,0.7,13.528,M,-29.744,M,0.0,*54
###2023-12-09 12:38:17.943778$GPGSA,A,3,03,04,16,26,28,29,31,32,,,,,1.2,0.7,1.0*31
###2023-12-09 12:38:17.945421$GLGSA,A,3,71,72,73,74,75,,,,,,,,1.2,0.7,1.0*2D
###2023-12-09 12:38:17.947023$GAGSA,A,3,04,19,21,27,,,,,,,,,1.2,0.7,1.0*2C
###2023-12-09 12:38:17.948673$GBGSA,A,3,14,24,25,26,33,,,,,,,,1.2,0.7,1.0*25
###2023-12-09 12:38:17.951004$GPGSV,2,1,08,03,38,275,45,04,23,311,42,16,38,208,46,26,68,207,48*7C
###2023-12-09 12:38:17.953329$GPGSV,2,2,08,28,57,058,44,29,25,072,40,31,73,007,47,32,28,135,40*73
###2023-12-09 12:38:17.955666$GLGSV,2,1,05,71,55,169,47,72,67,307,47,73,46,034,46,74,71,296,43*67
###2023-12-09 12:38:17.957116$GLGSV,2,2,05,75,23,242,42,,,,,,,,,,,,*51
###2023-12-09 12:38:17.959454$GAGSV,1,1,04,04,21,311,41,19,82,299,40,21,78,175,46,27,41,049,44*69
###2023-12-09 12:38:17.961781$GBGSV,2,1,05,14,54,197,46,24,80,351,48,25,33,253,46,26,34,058,45*6F
###2023-12-09 12:38:17.963251$GBGSV,2,2,05,33,63,252,49,,,,,,,,,,,,*53
###2023-12-09 12:38:17.964535$GNVTG,98.66,T,,M,2.86,N,5.29,K,A*10
###2023-12-09 12:38:17.966180$GNGST,173817.10,18.000,,,,0.082,0.070,0.170*5F
###2023-12-09 12:38:17.967730$GNZDA,173817.10,09,12,2023,00,00*7B
###2023-12-09 12:38:17.968379$GNEBP,,,,,,M*13
###2023-12-09 12:38:18.138783$GNGGA,173817.30,4138.0595319,N,07032.3845888,W,1,23,0.7,13.519,M,-29.744,M,0.0,*56
###2023-12-09 12:38:18.338278$GNGGA,173817.50,4138.0595082,N,07032.3843846,W,1,23,0.7,13.507,M,-29.744,M,0.0,*5A
###2023-12-09 12:38:18.539548$GNGGA,173817.70,4138.0594921,N,07032.3841827,W,1,23,0.7,13.518,M,-29.744,M,0.0,*52
###2023-12-09 12:38:18.738848$GNGGA,173817.90,4138.0594624,N,07032.3839772,W,1,23,0.7,13.508,M,-29.744,M,0.0,*57
###2023-12-09 12:38:18.941093$GNRMC,173818.10,A,4138.0594261,N,07032.3837854,W,2.49,104.46,091223,,,A*57
###2023-12-09 12:38:18.943943$GNGGA,173818.10,4138.0594261,N,07032.3837854,W,1,23,0.7,13.498,M,-29.744,M,0.0,*58
