###2023-12-09 12:47:11.968064$GLGSV,2,2,06,74,71,314,42,75,27,246,45,,,,,,,,*60
###2023-12-09 12:47:11.970936$GAGSV,1,1,04,04,24,312,43,19,84,276,40,21,82,165,46,27,38,049,42*66
###2023-12-09 12:47:11.973780$GBGSV,2,1,05,14,50,195,44,24,78,008,48,25,36,257,45,26,31,060,42*68
###2023-12-09 12:47:11.975572$GBGSV,2,2,05,33,61,243,48,,,,,,,,,,,,*50
###2023-12-09 12:47:11.977139$GNVTG,42.17,T,,M,1.21,N,2.23,K,A*12
###2023-12-09 12:47:11.979146$GNGST,174711.10,18.000,,,,0.079,0.070,0.160*54
###2023-12-09 12:47:11.980701$GNZDA,174711.10,09,12,2023,00,00*75
###2023-12-09 12:47:11.981478$GNEBP,,,,,,M*13
###2023-12-09 12:47:12.144780$GNGGA,174711.30,4138.0485979,N,07032.4003537,W,1,24,0.6,13.410,M,-29.745,M,0.0,*5F
###2023-12-09 12:47:12.345648$GNGGA,174711.50,4138.0486545,N,07032.4003242,W,1,24,0.6,13.404,M,-29.745,M,0.0,*59
###2023-12-09 12:47:12.544953$GNGGA,174711.70,4138.0487266,N,07032.4003213,W,1,24,0.6,13.397,M,-29.745,M,0.0,*55
###2023-12-09 12:47:12.744868$GNGGA,174711.90,4138.0487887,N,07032.4003035,W,1,24,0.6,13.393,M,-29.745,M,0.0,*5C
###2023-12-09 12:47:12.944786$GNRMC,174712.10,A,4138.0488306,N,07032.4002579,W,1.03,44.00,091223,,,A*68
###2023-12-09 12:47:12.947686$GNGGA,174712.10,4138.0488306,N,07032.4002579,W,1,24,0.6,13.411,M,-29.745,M,0.0,*5B
###2023-12-09 12:47:12.949560$GPGSA,A,3,03,04,16,26,28,29,31,32,,,,,1.1,0.6,0.9*3B
###2023-12-09 12:47:12.951292$GLGSA,A,3,65,71,72,73,74,75,,,,,,,1.1,0.6,0.9*24
###2023-12-09 12:47:12.952885$GAGSA,A,3,04,19,21,27,,,,,,,,,1.1,0.6,0.9*26
###2023-12-09 12:47:12.954531$GBGSA,A,3,14,24,25,26,33,,,,,,,,1.1,0.6,0.9*2F
###2023-12-09 12:47:12.956870$GPGSV,2,1,08,03,37,270,43,04,26,311,43,16,42,209,44,26,72,208,48*7E
###2023-12-09 12:47:12.959231$GPGSV,2,2,08,28,54,062,43,29,26,068,38,31,72,018,46,32,25,137,41*79
###2023-12-09 12:47:12.961575$GLGSV,2,1,06,65,17,329,44,71,49,171,48,72,70,294,46,73,42,037,43*63
###2023-12-09 12:47:12.963345$GLGSV,2,2,06,74,71,314,43,75,27,246,45,,,,,,,,*61
###2023-12-09 12:47:12.965678$GAGSV,1,1,04,04,24,312,43,19,84,276,40,21,82,165,46,27,38,049,42*66
###2023-12-09 12:47:12.968026$GBGSV,2,1,05,14,50,195,44,24,78,008,48,25,36,257,44,26,31,060,43*68
###2023-12-09 12:47:12.969482$GBGSV,2,2,05,33,61,243,47,,,,,,,,,,,,*5F
###2023-12-09 12:47:12.970793$GNVTG,44.00,T,,M,1.03,N,1.91,K,A*18
###2023-12-09 12:47:12.972444$GNGST,174712.10,18.000,,,,0.078,0.070,0.160*56
###2023-12-09 12:47:12.973737$GNZDA,174712.10,09,12,2023,00,00*76
###2023-12-09 12:47:12.974376$GNEBP,,,,,,M*13
###2023-12-09 12:47:13.143970$GNGGA,174712.30,4138.0488712,N,07032.4002127,W,1,24,0.6,13.417,M,-29.745,M,0.0,*51
###2023-12-09 12:47:13.345009$GNGGA,174712.50,4138.0489234,N,07032.4001820,W,1,24,0.6,13.410,M,-29.745,M,0.0,*5D
###2023-12-09 12:47:13.544983$GNGGA,174712.70,4138.0489822,N,07032.4001680,W,1,24,0.6,13.399,M,-29.745,M,0.0,*50
###2023-12-09 12:47:13.746193$GNGGA,174712.90,4138.0490352,N,07032.4001459,W,1,24,0.6,13.394,M,-29.745,M,0.0,*51
###2023-12-09 12:47:13.944501$GNRMC,174713.10,A,4138.0490700,N,07032.4001049,W,0.86,18.27,091223,,,A*67
###2023-12-09 12:47:13.947384$GNGGA,174713.10,4138.0490700,N,07032.4001049,W,1,24,0.6,13.405,M,-29.745,M,0.0,*51
###2023-12-09 12:47:13.949259$GPGSA,A,3,03,04,16,26,28,29,31,32,,,,,1.1,0.6,0.9*3B
###2023-12-09 12:47:13.950995$GLGSA,A,3,65,71,72,73,74,75,,,,,,,1.1,0.6,0.9*24
###2023-12-09 12:47:13.952587$GAGSA,A,3,04,19,21,27,,,,,,,,,1.1,0.6,0.9*26
###2023-12-09 12:47:13.954231$GBGSA,A,3,14,24,25,26,33,,,,,,,,1.1,0.6,0.9*2F
###2023-12-09 12:47:13.956577$GPGSV,2,1,08,03,37,270,43,04,26,311,43,16,42,209,44,26,72,208,48*7E
###2023-12-09 12:47:13.958939$GPGSV,2,2,08,28,54,062,43,29,26,068,38,31,72,018,46,32,25,137,44*7C
###2023-12-09 12:47:13.961277$GLGSV,2,1,06,65,17,329,45,71,49,171,48,72,70,294,46,73,42,037,45*64
###2023-12-09 12:47:13.963042$GLGSV,2,2,06,74,71,314,43,75,27,246,44,,,,,,,,*60
###2023-12-09 12:47:13.965372$GAGSV,1,1,04,04,24,312,42,19,84,276,41,21,82,165,46,27,38,049,42*66
###2023-12-09 12:47:13.967730$GBGSV,2,1,05,14,50,195,45,24,78,008,49,25,36,257,46,26,31,060,44*6D
###2023-12-09 12:47:13.969197$GBGSV,2,2,05,33,61,243,48,,,,,,,,,,,,*50
###2023-12-09 12:47:13.970489$GNVTG,18.27,T,,M,0.86,N,1.58,K,A*1D
###2023-12-09 12:47:13.972155$GNGST,174713.10,18.000,,,,0.078,0.070,0.160*57
###2023-12-09 12:47:13.973450$GNZDA,174713.10,09,12,2023,00,00*77
###2023-12-09 12:47:13.974089$GNEBP,,,,,,M*13
###2023-12-09 12:47:14.144852$GNGGA,174713.30,4138.0491009,N,07032.4000624,W,1,24,0.6,13.410,M,-29.745,M,0.0,*54
###2023-12-09 12:47:14.345962$GNGGA,174713.50,4138.0491422,N,07032.4000346,W,1,24,0.6,13.407,M,-29.745,M,0.0,*58
###2023-12-09 12:47:14.544991$GNGGA,174713.70,4138.0491937,N,07032.4000209,W,1,24,0.6,13.405,M,-29.745,M,0.0,*5B
###2023-12-09 12:47:14.743727$GNGGA,174713.90,4138.0492392,N,07032.3999969,W,1,24,0.6,13.409,M,-29.745,M,0.0,*5C
###2023-12-09 12:47:14.944460$GNRMC,174714.10,A,4138.0492627,N,07032.3999548,W,0.62,9.79,091223,,,A*5C
###2023-12-09 12:47:14.947355$GNGGA,174714.10,4138.0492627,N,07032.3999548,W,1,24,0.6,13.412,M,-29.745,M,0.0,*5D
###2023-12-09 12:47:14.949234$GPGSA,A,3,03,04,16,26,28,29,31,32,,,,,1.1,0.6,0.9*3B
###2023-12-09 12:47:14.950970$GLGSA,A,3,65,71,72,73,74,75,,,,,,,1.1,0.6,0.9*24
###2023-12-09 12:47:14.952559$GAGSA,A,3,04,19,21,27,,,,,,,,,1.1,0.6,0.9*26
###2023-12-09 12:47:14.954218$GBGSA,A,3,14,24,25,26,33,,,,,,,,1.1,0.6,0.9*2F
###2023-12-09 12:47:14.956576$GPGSV,2,1,08,03,37,270,44,04,26,311,41,16,42,209,45,26,72,208,48*7A
###2023-12-09 12:47:14.958935$GPGSV,2,2,08,28,54,062,44,29,26,068,39,31,72,018,46,32,25,137,43*7D
###2023-12-09 12:47:14.961268$GLGSV,2,1,06,65,17,329,44,71,49,171,48,72,70,294,46,73,42,037,46*66
###2023-12-09 12:47:14.963114$GLGSV,2,2,06,74,71,314,43,75,27,246,45,,,,,,,,*61
###2023-12-09 12:47:14.965454$GAGSV,1,1,04,04,24,312,41,19,84,276,40,21,82,165,46,27,38,049,40*66
###2023-12-09 12:47:14.967817$GBGSV,2,1,05,14,50,195,45,24,78,008,49,25,36,257,46,26,31,060,44*6D
###2023-12-09 12:47:14.969283$GBGSV,2,2,05,33,61,243,47,,,,,,,,,,,,*5F
###2023-12-09 12:47:14.970544$GNVTG,9.79,T,,M,0.62,N,1.15,K,A*25
###2023-12-09 12:47:14.972215$GNGST,174714.10,18.000,,,,0.078,0.070,0.160*50
###2023-12-09 12:47:14.973504$GNZDA,174714.10,09,12,2023,00,00*70
###2023-12-09 12:47:14.974143$GNEBP,,,,,,M*13
###2023-12-09 12:47:15.143974$GNGGA,174714.30,4138.0492817,N,07032.3999211,W,1,24,0.6,13.405,M,-29.745,M,0.0,*5F
###2023-12-09 12:47:15.344670$GNGGA,174714.50,4138.0493226,N,07032.3999045,W,1,24,0.6,13.408,M,-29.745,M,0.0,*5E
###2023-12-09 12:47:15.544796$GNGGA,174714.70,4138.0493739,N,07032.3998895,W,1,24,0.6,13.414,M,-29.745,M,0.0,*5E
###2023-12-09 12:47:15.744569$GNGGA,174714.90,4138.0494034,N,07032.3998565,W,1,24,0.6,13.403,M,-29.745,M,0.0,*59
###2023-12-09 12:47:15.944443$GNRMC,174715.10,A,4138.0494145,N,07032.3998199,W,0.49,9.85,091223,,,A*5B
###2023-12-09 12:47:15.947330$GNGGA,174715.10,4138.0494145,N,07032.3998199,W,1,24,0.6,13.406,M,-29.745,M,0.0,*55
###2023-12-09 12:47:15.949208$GPGSA,A,3,03,04,16,26,28,29,31,32,,,,,1.1,0.6,0.9*3B
###2023-12-09 12:47:15.950946$GLGSA,A,3,65,71,72,73,74,75,,,,,,,1.1,0.6,0.9*24
###2023-12-09 12:47:15.952530$GAGSA,A,3,04,19,21,27,,,,,,,,,1.1,0.6,0.9*26
###2023-12-09 12:47:15.954178$GBGSA,A,3,14,24,25,26,33,,,,,,,,1.1,0.6,0.9*2F
###2023-12-09 12:47:15.956600$GPGSV,2,1,08,03,37,270,44,04,26,311,43,16,42,209,44,26,72,208,48*79
###2023-12-09 12:47:15.958955$GPGSV,2,2,08,28,54,062,44,29,26,068,40,31,72,018,46,32,25,137,42*72
###2023-12-09 12:47:15.961299$GLGSV,2,1,06,65,17,329,41,71,49,171,47,72,70,294,47,73,42,037,45*6E
###2023-12-09 12:47:15.963067$GLGSV,2,2,06,74,71,314,43,75,27,246,45,,,,,,,,*61
###2023-12-09 12:47:15.965397$GAGSV,1,1,04,04,24,312,42,19,84,276,41,21,82,165,46,27,38,049,42*66
###2023-12-09 12:47:15.967742$GBGSV,2,1,05,14,50,195,46,24,78,008,49,25,36,257,46,26,31,060,44*6E
###2023-12-09 12:47:15.969201$GBGSV,2,2,05,33,61,243,47,,,,,,,,,,,,*5F
###2023-12-09 12:47:15.970453$GNVTG,9.85,T,,M,0.49,N,0.90,K,A*23
###2023-12-09 12:47:15.972116$GNGST,174715.10,18.000,,,,0.078,0.070,0.160*51
###2023-12-09 12:47:15.973423$GNZDA,174715.10,09,12,2023,00,00*71
###2023-12-09 12:47:15.974061$GNEBP,,,,,,M*13
###2023-12-09 12:47:16.144295$GNGGA,174715.30,4138.0494277,N,07032.3997932,W,1,24,0.6,13.394,M,-29.745,M,0.0,*5F
###2023-12-09 12:47:16.344696$GNGGA,174715.50,4138.0494702,N,07032.3997797,W,1,24,0.6,13.396,M,-29.745,M,0.0,*5D
###2023-12-09 12:47:16.544142$GNGGA,174715.70,4138.0495176,N,07032.3997637,W,1,24,0.6,13.403,M,-29.745,M,0.0,*5B
###2023-12-09 12:47:16.744517$GNGGA,174715.90,4138.0495291,N,07032.3997335,W,1,24,0.6,13.400,M,-29.745,M,0.0,*5B
###2023-12-09 12:47:16.946358$GNRMC,174716.10,A,4138.0495234,N,07032.3997031,W,0.33,7.86,091223,,,A*50
###2023-12-09 12:47:16.949260$GNGGA,174716.10,4138.0495234,N,07032.3997031,W,1,24,0.6,13.398,M,-29.745,M,0.0,*5E
###2023-12-09 12:47:16.951154$GPGSA,A,3,03,04,16,26,28,29,31,32,,,,,1.1,0.6,0.9*3B
###2023-12-09 12:47:16.952879$GLGSA,A,3,65,71,72,73,74,75,,,,,,,1.1,0.6,0.9*24
