###2023-12-09 13:27:07.021325$GNGST,182706.10,18.000,,,,0.100,0.072,0.170*57
###2023-12-09 13:27:07.022702$GNZDA,182706.10,09,12,2023,00,00*7A
###2023-12-09 13:27:07.023353$GNEBP,,,,,,M*13
###2023-12-09 13:27:07.189993$GNGGA,182706.30,4138.0663443,N,07032.3884913,W,1,24,0.6,13.303,M,-29.744,M,0.0,*50
###2023-12-09 13:27:07.388960$GNGGA,182706.50,4138.0661953,N,07032.3886575,W,1,24,0.6,13.326,M,-29.744,M,0.0,*51
###2023-12-09 13:27:07.589700$GNGGA,182706.70,4138.0660374,N,07032.3887930,W,1,24,0.6,13.291,M,-29.744,M,0.0,*5C
###2023-12-09 13:27:07.790286$GNGGA,182706.90,4138.0658838,N,07032.3889275,W,1,24,0.6,13.286,M,-29.744,M,0.0,*58
###2023-12-09 13:27:07.993371$GNRMC,182707.10,A,4138.0657274,N,07032.3890792,W,3.50,215.35,091223,,,A*56
###2023-12-09 13:27:07.996263$GNGGA,182707.10,4138.0657274,N,07032.3890792,W,1,24,0.6,13.298,M,-29.744,M,0.0,*57
###2023-12-09 13:27:07.998061$GPGSA,A,3,03,04,16,26,28,29,31,,,,,,1.1,0.6,0.9*3A
###2023-12-09 13:27:07.999791$GLGSA,A,3,65,71,72,73,74,75,,,,,,,1.1,0.6,0.9*24
###2023-12-09 13:27:08.001376$GAGSA,A,3,04,19,21,27,,,,,,,,,1.1,0.6,0.9*26
###2023-12-09 13:27:08.003098$GBGSA,A,3,14,24,25,26,33,35,,,,,,,1.1,0.6,0.9*29
###2023-12-09 13:27:08.005421$GPGSV,2,1,07,03,28,249,40,04,43,309,45,16,62,219,45,26,88,044,48*77
###2023-12-09 13:27:08.007465$GPGSV,2,2,07,28,41,081,45,29,22,050,44,31,62,060,47,,,,*44
###2023-12-09 13:27:08.009780$GLGSV,2,1,06,65,35,321,43,71,26,175,42,72,66,227,46,73,25,050,45*62
###2023-12-09 13:27:08.011531$GLGSV,2,2,06,74,62,008,42,75,41,267,46,,,,,,,,*6C
###2023-12-09 13:27:08.013836$GAGSV,1,1,04,04,37,311,44,19,75,184,40,21,80,050,46,27,25,049,43*68
###2023-12-09 13:27:08.016157$GBGSV,2,1,06,14,32,190,40,24,65,042,48,25,49,273,45,26,18,069,44*66
###2023-12-09 13:27:08.017896$GBGSV,2,2,06,33,48,220,44,35,16,059,44,,,,,,,,*6C
###2023-12-09 13:27:08.019231$GNVTG,215.35,T,,M,3.50,N,6.48,K,A*2F
###2023-12-09 13:27:08.020873$GNGST,182707.10,18.000,,,,0.100,0.072,0.170*56
###2023-12-09 13:27:08.022159$GNZDA,182707.10,09,12,2023,00,00*7B
###2023-12-09 13:27:08.022808$GNEBP,,,,,,M*13
###2023-12-09 13:27:08.189173$GNGGA,182707.30,4138.0655701,N,07032.3892161,W,1,24,0.6,13.279,M,-29.744,M,0.0,*57
###2023-12-09 13:27:08.392814$GNGGA,182707.50,4138.0654137,N,07032.3893502,W,1,24,0.6,13.305,M,-29.744,M,0.0,*59
###2023-12-09 13:27:08.588676$GNGGA,182707.70,4138.0652478,N,07032.3894878,W,1,24,0.6,13.320,M,-29.744,M,0.0,*53
###2023-12-09 13:27:08.788445$GNGGA,182707.90,4138.0650802,N,07032.3896196,W,1,24,0.6,13.294,M,-29.744,M,0.0,*5B
###2023-12-09 13:27:09.000423$GNRMC,182708.10,A,4138.0649150,N,07032.3897616,W,3.54,213.51,091223,,,A*59
###2023-12-09 13:27:09.003305$GNGGA,182708.10,4138.0649150,N,07032.3897616,W,1,24,0.6,13.288,M,-29.744,M,0.0,*59
###2023-12-09 13:27:09.005105$GPGSA,A,3,03,04,16,26,28,29,31,,,,,,1.1,0.6,0.9*3A
###2023-12-09 13:27:09.006831$GLGSA,A,3,65,71,72,73,74,75,,,,,,,1.1,0.6,0.9*24
###2023-12-09 13:27:09.008415$GAGSA,A,3,04,19,21,27,,,,,,,,,1.1,0.6,0.9*26
###2023-12-09 13:27:09.010118$GBGSA,A,3,14,24,25,26,33,35,,,,,,,1.1,0.6,0.9*29
###2023-12-09 13:27:09.012458$GPGSV,2,1,07,03,28,249,38,04,43,309,46,16,62,219,45,26,88,044,48*7B
###2023-12-09 13:27:09.014509$GPGSV,2,2,07,28,41,081,45,29,22,050,44,31,62,060,47,,,,*44
###2023-12-09 13:27:09.016865$GLGSV,2,1,06,65,35,321,43,71,26,175,42,72,66,227,46,73,25,050,45*62
###2023-12-09 13:27:09.018624$GLGSV,2,2,06,74,62,008,43,75,41,267,46,,,,,,,,*6D
###2023-12-09 13:27:09.020946$GAGSV,1,1,04,04,37,311,44,19,75,184,40,21,80,050,46,27,25,049,41*6A
###2023-12-09 13:27:09.023287$GBGSV,2,1,06,14,32,190,40,24,65,042,48,25,49,273,45,26,18,069,44*66
###2023-12-09 13:27:09.025032$GBGSV,2,2,06,33,48,220,44,35,16,059,44,,,,,,,,*6C
###2023-12-09 13:27:09.026352$GNVTG,213.51,T,,M,3.54,N,6.55,K,A*23
###2023-12-09 13:27:09.028005$GNGST,182708.10,18.000,,,,0.100,0.072,0.170*59
###2023-12-09 13:27:09.029297$GNZDA,182708.10,09,12,2023,00,00*74
###2023-12-09 13:27:09.029933$GNEBP,,,,,,M*13
###2023-12-09 13:27:09.193527$GNGGA,182708.30,4138.0647491,N,07032.3899096,W,1,24,0.6,13.283,M,-29.744,M,0.0,*56
###2023-12-09 13:27:09.389070$GNGGA,182708.50,4138.0645828,N,07032.3900591,W,1,24,0.6,13.284,M,-29.744,M,0.0,*58
###2023-12-09 13:27:09.589438$GNGGA,182708.70,4138.0644127,N,07032.3901989,W,1,24,0.6,13.274,M,-29.744,M,0.0,*56
###2023-12-09 13:27:09.791412$GNGGA,182708.90,4138.0642526,N,07032.3903528,W,1,24,0.6,13.293,M,-29.744,M,0.0,*57
###2023-12-09 13:27:09.991301$GNRMC,182709.10,A,4138.0641046,N,07032.3905321,W,3.63,221.06,091223,,,A*5A
###2023-12-09 13:27:09.994168$GNGGA,182709.10,4138.0641046,N,07032.3905321,W,1,24,0.6,13.306,M,-29.744,M,0.0,*5A
###2023-12-09 13:27:09.995972$GPGSA,A,3,03,04,16,26,28,29,31,,,,,,1.1,0.6,0.9*3A
###2023-12-09 13:27:09.997683$GLGSA,A,3,65,71,72,73,74,75,,,,,,,1.1,0.6,0.9*24
###2023-12-09 13:27:09.999271$GAGSA,A,3,04,19,21,27,,,,,,,,,1.1,0.6,0.9*26
###2023-12-09 13:27:10.000968$GBGSA,A,3,14,24,25,26,33,35,,,,,,,1.1,0.6,0.9*29
###2023-12-09 13:27:10.003299$GPGSV,2,1,07,03,28,249,40,04,43,309,45,16,62,219,46,26,88,044,48*74
###2023-12-09 13:27:10.005323$GPGSV,2,2,07,28,41,081,44,29,22,050,43,31,62,060,47,,,,*42
###2023-12-09 13:27:10.007662$GLGSV,2,1,06,65,35,321,44,71,26,175,43,72,66,227,46,73,25,050,45*64
###2023-12-09 13:27:10.009402$GLGSV,2,2,06,74,62,008,43,75,41,267,46,,,,,,,,*6D
###2023-12-09 13:27:10.011737$GAGSV,1,1,04,04,37,311,44,19,75,184,40,21,80,050,46,27,25,049,41*6A
###2023-12-09 13:27:10.014060$GBGSV,2,1,06,14,32,190,41,24,65,042,49,25,49,273,46,26,18,069,44*65
###2023-12-09 13:27:10.015809$GBGSV,2,2,06,33,48,220,44,35,16,059,44,,,,,,,,*6C
###2023-12-09 13:27:10.017128$GNVTG,221.06,T,,M,3.63,N,6.73,K,A*20
###2023-12-09 13:27:10.018782$GNGST,182709.10,18.000,,,,0.100,0.072,0.170*58
###2023-12-09 13:27:10.020065$GNZDA,182709.10,09,12,2023,00,00*75
###2023-12-09 13:27:10.020699$GNEBP,,,,,,M*13
###2023-12-09 13:27:10.187163$GNGGA,182709.30,4138.0639507,N,07032.3906972,W,1,24,0.6,13.290,M,-29.744,M,0.0,*56
###2023-12-09 13:27:10.386739$GNGGA,182709.50,4138.0637901,N,07032.3908451,W,1,24,0.6,13.266,M,-29.744,M,0.0,*5F
###2023-12-09 13:27:10.586390$GNGGA,182709.70,4138.0636329,N,07032.3910032,W,1,24,0.6,13.268,M,-29.744,M,0.0,*5A
###2023-12-09 13:27:10.786794$GNGGA,182709.90,4138.0634880,N,07032.3911962,W,1,24,0.6,13.302,M,-29.744,M,0.0,*5E
###2023-12-09 13:27:10.992927$GNRMC,182710.10,A,4138.0633372,N,07032.3913847,W,3.62,218.69,091223,,,A*5D
###2023-12-09 13:27:10.995792$GNGGA,182710.10,4138.0633372,N,07032.3913847,W,1,24,0.6,13.315,M,-29.744,M,0.0,*5D
###2023-12-09 13:27:10.997588$GPGSA,A,3,03,04,16,26,28,29,31,,,,,,1.1,0.6,0.9*3A
###2023-12-09 13:27:10.999324$GLGSA,A,3,65,71,72,73,74,75,,,,,,,1.1,0.6,0.9*24
###2023-12-09 13:27:11.000914$GAGSA,A,3,04,19,21,27,,,,,,,,,1.1,0.6,0.9*26
###2023-12-09 13:27:11.002637$GBGSA,A,3,14,24,25,26,33,35,,,,,,,1.1,0.6,0.9*29
###2023-12-09 13:27:11.004965$GPGSV,2,1,07,03,28,249,40,04,43,309,46,16,62,219,46,26,88,044,47*78
###2023-12-09 13:27:11.007017$GPGSV,2,2,07,28,41,081,44,29,22,050,42,31,62,060,46,,,,*42
###2023-12-09 13:27:11.009350$GLGSV,2,1,06,65,35,321,45,71,26,175,43,72,66,227,46,73,25,050,44*64
###2023-12-09 13:27:11.011099$GLGSV,2,2,06,74,62,008,43,75,41,267,47,,,,,,,,*6C
###2023-12-09 13:27:11.013416$GAGSV,1,1,04,04,37,311,45,19,75,184,40,21,80,050,45,27,25,049,41*68
###2023-12-09 13:27:11.015753$GBGSV,2,1,06,14,32,190,41,24,65,042,48,25,49,273,47,26,18,069,43*62
###2023-12-09 13:27:11.017498$GBGSV,2,2,06,33,48,220,45,35,16,059,43,,,,,,,,*6A
###2023-12-09 13:27:11.018826$GNVTG,218.69,T,,M,3.62,N,6.70,K,A*21
###2023-12-09 13:27:11.020470$GNGST,182710.10,18.000,,,,0.100,0.072,0.170*50
###2023-12-09 13:27:11.021759$GNZDA,182710.10,09,12,2023,00,00*7D
###2023-12-09 13:27:11.022397$GNEBP,,,,,,M*13
###2023-12-09 13:27:11.188914$GNGGA,182710.30,4138.0631691,N,07032.3915334,W,1,24,0.6,13.292,M,-29.744,M,0.0,*52
###2023-12-09 13:27:11.387287$GNGGA,182710.50,4138.0630027,N,07032.3916943,W,1,24,0.6,13.277,M,-29.744,M,0.0,*5C
###2023-12-09 13:27:11.587522$GNGGA,182710.70,4138.0628557,N,07032.3918909,W,1,24,0.6,13.282,M,-29.744,M,0.0,*5F
###2023-12-09 13:27:11.787921$GNGGA,182710.90,4138.0627132,N,07032.3920714,W,1,24,0.6,13.277,M,-29.744,M,0.0,*5A
###2023-12-09 13:27:11.992718$GNRMC,182711.10,A,4138.0625566,N,07032.3922194,W,3.48,212.71,091223,,,A*56
###2023-12-09 13:27:11.995616$GNGGA,182711.10,4138.0625566,N,07032.3922194,W,1,24,0.6,13.269,M,-29.744,M,0.0,*57
###2023-12-09 13:27:11.997420$GPGSA,A,3,03,04,16,26,28,29,31,,,,,,1.1,0.6,0.9*3A
###2023-12-09 13:27:11.999147$GLGSA,A,3,65,71,72,73,74,75,,,,,,,1.1,0.6,0.9*24
###2023-12-09 13:27:12.000730$GAGSA,A,3,04,19,21,27,,,,,,,,,1.1,0.6,0.9*26
###2023-12-09 13:27:12.002442$GBGSA,A,3,14,24,25,26,33,35,,,,,,,1.1,0.6,0.9*29
###2023-12-09 13:27:12.004769$GPGSV,2,1,07,03,28,249,40,04,43,309,45,16,62,219,45,26,88,044,48*77
###2023-12-09 13:27:12.006820$GPGSV,2,2,07,28,41,081,45,29,22,050,43,31,62,060,46,,,,*42
###2023-12-09 13:27:12.009144$GLGSV,2,1,06,65,35,321,44,71,26,175,43,72,66,227,45,73,25,050,44*66
