###2023-12-09 13:12:02.574709$GNGGA,181201.70,4138.0408227,N,07032.3077165,W,1,24,0.7,12.889,M,-29.744,M,0.0,*5A
###2023-12-09 13:12:02.774801$GNGGA,181201.90,4138.0408808,N,07032.3079925,W,1,24,0.7,12.890,M,-29.744,M,0.0,*59
###2023-12-09 13:12:02.976288$GNRMC,181202.10,A,4138.0409412,N,07032.3082653,W,3.81,287.51,091223,,,A*58
###2023-12-09 13:12:02.979156$GNGGA,181202.10,4138.0409412,N,07032.3082653,W,1,24,0.7,12.885,M,-29.744,M,0.0,*5A
###2023-12-09 13:12:02.980953$GPGSA,A,3,03,04,16,26,28,29,31,,,,,,1.2,0.7,1.0*30
###2023-12-09 13:12:02.982690$GLGSA,A,3,65,71,72,73,74,75,,,,,,,1.2,0.7,1.0*2E
###2023-12-09 13:12:02.984280$GAGSA,A,3,04,19,21,27,,,,,,,,,1.2,0.7,1.0*2C
###2023-12-09 13:12:02.985992$GBGSA,A,3,14,24,25,26,33,35,,,,,,,1.2,0.7,1.0*23
###2023-12-09 13:12:02.988330$GPGSV,2,1,07,03,33,256,41,04,37,311,41,16,55,215,47,26,85,210,48*78
###2023-12-09 13:12:02.990376$GPGSV,2,2,07,28,46,075,44,29,24,056,40,31,66,048,48,,,,*4C
###2023-12-09 13:12:02.992709$GLGSV,2,1,06,65,28,326,38,71,35,174,47,72,72,250,45,73,31,045,44*65
###2023-12-09 13:12:02.994449$GLGSV,2,2,06,74,67,351,42,75,36,258,43,,,,,,,,*6F
###2023-12-09 13:12:02.996785$GAGSV,1,1,04,04,33,312,40,19,81,194,40,21,84,071,46,27,30,048,41*61
###2023-12-09 13:12:02.999128$GBGSV,2,1,06,14,39,192,45,24,70,033,49,25,44,266,45,26,23,065,42*62
###2023-12-09 13:12:03.000877$GBGSV,2,2,06,33,54,227,48,35,15,065,42,,,,,,,,*60
###2023-12-09 13:12:03.002199$GNVTG,287.51,T,,M,3.81,N,7.06,K,A*21
###2023-12-09 13:12:03.003850$GNGST,181202.10,18.000,,,,0.097,0.074,0.170*5C
###2023-12-09 13:12:03.005136$GNZDA,181202.10,09,12,2023,00,00*78
###2023-12-09 13:12:03.005774$GNEBP,,,,,,M*13
###2023-12-09 13:12:03.175788$GNGGA,181202.30,4138.0410181,N,07032.3085308,W,1,24,0.7,12.886,M,-29.744,M,0.0,*50
###2023-12-09 13:12:03.372929$GNGGA,181202.50,4138.0411053,N,07032.3087917,W,1,24,0.7,12.889,M,-29.744,M,0.0,*50
###2023-12-09 13:12:03.573784$GNGGA,181202.70,4138.0411862,N,07032.3090527,W,1,24,0.7,12.891,M,-29.744,M,0.0,*58
###2023-12-09 13:12:03.773940$GNGGA,181202.90,4138.0412588,N,07032.3093190,W,1,24,0.7,12.888,M,-29.744,M,0.0,*5F
###2023-12-09 13:12:03.976930$GNRMC,181203.10,A,4138.0413358,N,07032.3095832,W,3.79,293.34,091223,,,A*55
###2023-12-09 13:12:03.979800$GNGGA,181203.10,4138.0413358,N,07032.3095832,W,1,24,0.7,12.885,M,-29.744,M,0.0,*56
###2023-12-09 13:12:03.981596$GPGSA,A,3,03,04,16,26,28,29,31,,,,,,1.2,0.7,1.0*30
###2023-12-09 13:12:03.983336$GLGSA,A,3,65,71,72,73,74,75,,,,,,,1.2,0.7,1.0*2E
###2023-12-09 13:12:03.984939$GAGSA,A,3,04,19,21,27,,,,,,,,,1.2,0.7,1.0*2C
###2023-12-09 13:12:03.986670$GBGSA,A,3,14,24,25,26,33,35,,,,,,,1.2,0.7,1.0*23
###2023-12-09 13:12:03.989003$GPGSV,2,1,07,03,33,256,41,04,37,311,42,16,55,215,46,26,85,210,48*7A
###2023-12-09 13:12:03.991067$GPGSV,2,2,07,28,46,075,45,29,24,056,41,31,66,048,47,,,,*43
###2023-12-09 13:12:03.993401$GLGSV,2,1,06,65,28,326,38,71,35,174,46,72,72,250,45,73,31,045,44*64
###2023-12-09 13:12:03.995167$GLGSV,2,2,06,74,67,351,41,75,36,258,44,,,,,,,,*6B
###2023-12-09 13:12:03.997493$GAGSV,1,1,04,04,33,312,40,19,81,194,40,21,84,071,46,27,29,048,42*6A
###2023-12-09 13:12:03.999836$GBGSV,2,1,06,14,39,192,45,24,70,033,49,25,44,266,45,26,23,065,42*62
###2023-12-09 13:12:04.001586$GBGSV,2,2,06,33,54,227,48,35,15,065,43,,,,,,,,*61
###2023-12-09 13:12:04.002922$GNVTG,293.34,T,,M,3.79,N,7.02,K,A*24
###2023-12-09 13:12:04.004568$GNGST,181203.10,18.000,,,,0.096,0.074,0.170*5C
###2023-12-09 13:12:04.005857$GNZDA,181203.10,09,12,2023,00,00*79
###2023-12-09 13:12:04.006493$GNEBP,,,,,,M*13
###2023-12-09 13:12:04.171647$GNGGA,181203.30,4138.0414250,N,07032.3098427,W,1,24,0.7,12.890,M,-29.744,M,0.0,*5B
###2023-12-09 13:12:04.372848$GNGGA,181203.50,4138.0415200,N,07032.3101012,W,1,24,0.7,12.891,M,-29.744,M,0.0,*5B
###2023-12-09 13:12:04.574291$GNGGA,181203.70,4138.0416100,N,07032.3103611,W,1,24,0.7,12.888,M,-29.744,M,0.0,*56
###2023-12-09 13:12:04.772577$GNGGA,181203.90,4138.0416962,N,07032.3106244,W,1,24,0.7,12.889,M,-29.744,M,0.0,*54
###2023-12-09 13:12:04.976349$GNRMC,181204.10,A,4138.0417875,N,07032.3108908,W,3.93,294.26,091223,,,A*5F
###2023-12-09 13:12:04.979237$GNGGA,181204.10,4138.0417875,N,07032.3108908,W,1,24,0.7,12.888,M,-29.744,M,0.0,*51
###2023-12-09 13:12:04.981029$GPGSA,A,3,03,04,16,26,28,29,31,,,,,,1.2,0.7,1.0*30
###2023-12-09 13:12:04.982757$GLGSA,A,3,65,71,72,73,74,75,,,,,,,1.2,0.7,1.0*2E
###2023-12-09 13:12:04.984342$GAGSA,A,3,04,19,21,27,,,,,,,,,1.2,0.7,1.0*2C
###2023-12-09 13:12:04.986051$GBGSA,A,3,14,24,25,26,33,35,,,,,,,1.2,0.7,1.0*23
###2023-12-09 13:12:04.988393$GPGSV,2,1,07,03,33,256,41,04,37,311,42,16,55,215,46,26,85,210,48*7A
###2023-12-09 13:12:04.990440$GPGSV,2,2,07,28,46,075,45,29,24,056,42,31,66,048,47,,,,*40
###2023-12-09 13:12:04.992780$GLGSV,2,1,06,65,28,326,38,71,35,174,46,72,72,250,45,73,31,045,44*64
###2023-12-09 13:12:04.994534$GLGSV,2,2,06,74,67,351,41,75,36,258,44,,,,,,,,*6B
###2023-12-09 13:12:04.996877$GAGSV,1,1,04,04,33,312,41,19,81,194,40,21,84,071,46,27,29,048,42*6B
###2023-12-09 13:12:04.999221$GBGSV,2,1,06,14,39,192,44,24,70,033,48,25,44,266,45,26,23,065,41*61
###2023-12-09 13:12:05.000970$GBGSV,2,2,06,33,54,227,47,35,15,065,42,,,,,,,,*6F
###2023-12-09 13:12:05.002296$GNVTG,294.26,T,,M,3.93,N,7.27,K,A*23
###2023-12-09 13:12:05.003963$GNGST,181204.10,18.000,,,,0.096,0.074,0.170*5B
###2023-12-09 13:12:05.005257$GNZDA,181204.10,09,12,2023,00,00*7E
###2023-12-09 13:12:05.005895$GNEBP,,,,,,M*13
###2023-12-09 13:12:05.171640$GNGGA,181204.30,4138.0418791,N,07032.3111597,W,1,24,0.7,12.884,M,-29.744,M,0.0,*57
###2023-12-09 13:12:05.372634$GNGGA,181204.50,4138.0419667,N,07032.3114358,W,1,24,0.7,12.883,M,-29.744,M,0.0,*5F
###2023-12-09 13:12:05.577327$GNGGA,181204.70,4138.0420464,N,07032.3117119,W,1,24,0.7,12.887,M,-29.744,M,0.0,*56
###2023-12-09 13:12:05.775024$GNGGA,181204.90,4138.0421110,N,07032.3119914,W,1,24,0.7,12.883,M,-29.744,M,0.0,*50
###2023-12-09 13:12:05.976563$GNRMC,181205.10,A,4138.0421754,N,07032.3122662,W,3.79,289.96,091223,,,A*5F
###2023-12-09 13:12:05.979449$GNGGA,181205.10,4138.0421754,N,07032.3122662,W,1,24,0.7,12.875,M,-29.744,M,0.0,*50
###2023-12-09 13:12:05.981249$GPGSA,A,3,03,04,16,26,28,29,31,,,,,,1.2,0.7,1.0*30
###2023-12-09 13:12:05.982986$GLGSA,A,3,65,71,72,73,74,75,,,,,,,1.2,0.7,1.0*2E
###2023-12-09 13:12:05.984580$GAGSA,A,3,04,19,21,27,,,,,,,,,1.2,0.7,1.0*2C
###2023-12-09 13:12:05.986306$GBGSA,A,3,14,24,25,26,33,35,,,,,,,1.2,0.7,1.0*23
###2023-12-09 13:12:05.988658$GPGSV,2,1,07,03,33,256,42,04,37,311,42,16,55,215,46,26,85,210,48*79
###2023-12-09 13:12:05.990727$GPGSV,2,2,07,28,46,075,45,29,24,056,42,31,66,048,48,,,,*4F
###2023-12-09 13:12:05.993068$GLGSV,2,1,06,65,28,326,39,71,35,174,45,72,72,250,45,73,31,045,45*67
###2023-12-09 13:12:05.994837$GLGSV,2,2,06,74,67,351,42,75,36,258,45,,,,,,,,*69
###2023-12-09 13:12:05.997166$GAGSV,1,1,04,04,33,312,40,19,81,194,40,21,84,071,46,27,29,048,42*6A
###2023-12-09 13:12:05.999517$GBGSV,2,1,06,14,39,192,45,24,70,033,49,25,44,266,46,26,23,065,42*61
###2023-12-09 13:12:06.001269$GBGSV,2,2,06,33,54,227,47,35,15,065,42,,,,,,,,*6F
###2023-12-09 13:12:06.002609$GNVTG,289.96,T,,M,3.79,N,7.02,K,A*27
###2023-12-09 13:12:06.004269$GNGST,181205.10,18.000,,,,0.096,0.074,0.170*5A
###2023-12-09 13:12:06.005569$GNZDA,181205.10,09,12,2023,00,00*7F
###2023-12-09 13:12:06.006210$GNEBP,,,,,,M*13
###2023-12-09 13:12:06.173336$GNGGA,181205.30,4138.0422544,N,07032.3125271,W,1,24,0.7,12.878,M,-29.744,M,0.0,*5E
###2023-12-09 13:12:06.372707$GNGGA,181205.50,4138.0423410,N,07032.3127765,W,1,24,0.7,12.878,M,-29.744,M,0.0,*5B
###2023-12-09 13:12:06.573841$GNGGA,181205.70,4138.0424278,N,07032.3130017,W,1,24,0.7,12.875,M,-29.744,M,0.0,*5F
###2023-12-09 13:12:06.774971$GNGGA,181205.90,4138.0425169,N,07032.3132053,W,1,24,0.7,12.877,M,-29.744,M,0.0,*53
###2023-12-09 13:12:06.976499$GNRMC,181206.10,A,4138.0425996,N,07032.3133974,W,2.92,300.44,091223,,,A*5B
###2023-12-09 13:12:06.979373$GNGGA,181206.10,4138.0425996,N,07032.3133974,W,1,24,0.7,12.878,M,-29.744,M,0.0,*52
###2023-12-09 13:12:06.981167$GPGSA,A,3,03,04,16,26,28,29,31,,,,,,1.2,0.7,1.0*30
###2023-12-09 13:12:06.982893$GLGSA,A,3,65,71,72,73,74,75,,,,,,,1.2,0.7,1.0*2E
###2023-12-09 13:12:06.984742$GAGSA,A,3,04,19,21,27,,,,,,,,,1.2,0.7,1.0*2C
###2023-12-09 13:12:06.986467$GBGSA,A,3,14,24,25,26,33,35,,,,,,,1.2,0.7,1.0*23
###2023-12-09 13:12:06.988813$GPGSV,2,1,07,03,33,256,43,04,37,311,42,16,55,215,46,26,85,210,48*78
###2023-12-09 13:12:06.990869$GPGSV,2,2,07,28,46,075,44,29,24,056,41,31,66,048,47,,,,*42
###2023-12-09 13:12:06.993209$GLGSV,2,1,06,65,28,326,38,71,35,174,45,72,72,250,46,73,31,045,46*66
###2023-12-09 13:12:06.994982$GLGSV,2,2,06,74,67,351,42,75,36,258,46,,,,,,,,*6A
###2023-12-09 13:12:06.997325$GAGSV,1,1,04,04,33,312,42,19,81,194,40,21,84,071,46,27,29,048,42*68
###2023-12-09 13:12:06.999677$GBGSV,2,1,06,14,39,192,46,24,70,033,49,25,44,266,47,26,23,065,42*63
###2023-12-09 13:12:07.001427$GBGSV,2,2,06,33,54,227,47,35,15,065,43,,,,,,,,*6E
###2023-12-09 13:12:07.002767$GNVTG,300.44,T,,M,2.92,N,5.40,K,A*28
