###2023-12-09 13:31:48.014020$GNVTG,99.64,T,,M,0.39,N,0.72,K,A*1E
###2023-12-09 13:31:48.015692$GNGST,183147.10,6.700,,,,0.180,0.100,0.260*63
###2023-12-09 13:31:48.016993$GNZDA,183147.10,09,12,2023,00,00*78
###2023-12-09 13:31:48.017635$GNEBP,,,,,,M*13
###2023-12-09 13:31:48.189110$GNGGA,183147.30,4138.0349001,N,07032.4259709,W,1,21,0.9,13.489,M,-29.746,M,0.0,*58
###2023-12-09 13:31:48.385014$GNGGA,183147.50,4138.0348893,N,07032.4259511,W,1,20,0.9,13.505,M,-29.746,M,0.0,*53
###2023-12-09 13:31:48.585117$GNGGA,183147.70,4138.0348722,N,07032.4259460,W,1,21,0.9,13.523,M,-29.746,M,0.0,*56
###2023-12-09 13:31:48.791813$GNGGA,183147.90,4138.0348533,N,07032.4259368,W,1,21,0.9,13.514,M,-29.746,M,0.0,*51
###2023-12-09 13:31:48.989281$GNRMC,183148.10,A,4138.0348421,N,07032.4259242,W,0.29,99.64,091223,,,A*68
###2023-12-09 13:31:48.992172$GNGGA,183148.10,4138.0348421,N,07032.4259242,W,1,20,0.9,13.524,M,-29.746,M,0.0,*5F
###2023-12-09 13:31:48.993899$GPGSA,A,3,04,16,26,28,29,31,,,,,,,1.6,0.9,1.2*3B
###2023-12-09 13:31:48.995560$GLGSA,A,3,65,72,73,74,75,,,,,,,,1.6,0.9,1.2*20
###2023-12-09 13:31:48.997136$GAGSA,A,3,04,19,21,27,,,,,,,,,1.6,0.9,1.2*24
###2023-12-09 13:31:48.998796$GBGSA,A,3,24,25,26,33,35,,,,,,,,1.6,0.9,1.2*2E
###2023-12-09 13:31:49.001116$GPGSV,2,1,06,04,45,308,45,16,65,221,47,26,85,040,49,28,39,084,45*78
###2023-12-09 13:31:49.002871$GPGSV,2,2,06,29,21,048,43,31,60,064,47,,,,,,,,*79
###2023-12-09 13:31:49.005198$GLGSV,2,1,05,65,37,320,39,72,64,223,46,73,23,051,42,74,61,011,41*6F
###2023-12-09 13:31:49.006662$GLGSV,2,2,05,75,42,269,45,,,,,,,,,,,,*58
###2023-12-09 13:31:49.009012$GAGSV,1,1,04,04,39,310,43,19,73,182,42,21,78,047,47,27,23,050,41*6E
###2023-12-09 13:31:49.011412$GBGSV,2,1,05,24,64,044,46,25,50,275,47,26,17,070,42,33,47,218,37*65
###2023-12-09 13:31:49.012868$GBGSV,2,2,05,35,16,058,41,,,,,,,,,,,,*57
###2023-12-09 13:31:49.014153$GNVTG,99.64,T,,M,0.29,N,0.54,K,A*1B
###2023-12-09 13:31:49.015771$GNGST,183148.10,6.100,,,,0.190,0.100,0.260*6B
###2023-12-09 13:31:49.017057$GNZDA,183148.10,09,12,2023,00,00*77
###2023-12-09 13:31:49.017692$GNEBP,,,,,,M*13
###2023-12-09 13:31:49.192607$GNGGA,183148.30,4138.0348261,N,07032.4259128,W,1,20,0.9,13.546,M,-29.746,M,0.0,*54
###2023-12-09 13:31:49.387452$GNGGA,183148.50,4138.0348105,N,07032.4258974,W,1,20,0.9,13.550,M,-29.746,M,0.0,*54
###2023-12-09 13:31:49.586991$GNGGA,183148.70,4138.0347917,N,07032.4258875,W,1,20,0.9,13.536,M,-29.746,M,0.0,*52
###2023-12-09 13:31:49.789590$GNGGA,183148.90,4138.0347732,N,07032.4258862,W,1,20,0.9,13.530,M,-29.746,M,0.0,*55
###2023-12-09 13:31:49.990356$GNRMC,183149.10,A,4138.0347553,N,07032.4258788,W,0.45,99.64,091223,,,A*6A
###2023-12-09 13:31:49.993352$GNGGA,183149.10,4138.0347553,N,07032.4258788,W,1,20,0.9,13.531,M,-29.746,M,0.0,*53
###2023-12-09 13:31:49.995096$GPGSA,A,3,04,16,26,28,29,31,,,,,,,1.6,0.9,1.2*3B
###2023-12-09 13:31:49.996743$GLGSA,A,3,65,72,73,74,75,,,,,,,,1.6,0.9,1.2*20
###2023-12-09 13:31:49.998325$GAGSA,A,3,04,19,21,27,,,,,,,,,1.6,0.9,1.2*24
###2023-12-09 13:31:50.000009$GBGSA,A,3,24,25,26,33,35,,,,,,,,1.6,0.9,1.2*2E
###2023-12-09 13:31:50.002339$GPGSV,2,1,06,04,45,308,46,16,65,221,47,26,85,040,48,28,39,084,46*79
###2023-12-09 13:31:50.004090$GPGSV,2,2,06,29,21,048,42,31,60,064,47,,,,,,,,*78
###2023-12-09 13:31:50.006422$GLGSV,2,1,05,65,37,320,39,72,64,223,47,73,23,051,44,74,61,011,41*68
###2023-12-09 13:31:50.007887$GLGSV,2,2,05,75,42,269,47,,,,,,,,,,,,*5A
###2023-12-09 13:31:50.010201$GAGSV,1,1,04,04,39,310,45,19,73,182,42,21,78,047,46,27,23,050,39*66
###2023-12-09 13:31:50.012534$GBGSV,2,1,05,24,64,044,51,25,50,275,47,26,17,070,45,33,47,218,43*67
###2023-12-09 13:31:50.013980$GBGSV,2,2,05,35,16,058,44,,,,,,,,,,,,*52
###2023-12-09 13:31:50.015277$GNVTG,99.64,T,,M,0.45,N,0.83,K,A*1B
###2023-12-09 13:31:50.016888$GNGST,183149.10,6.300,,,,0.190,0.100,0.260*68
###2023-12-09 13:31:50.018176$GNZDA,183149.10,09,12,2023,00,00*76
###2023-12-09 13:31:50.018824$GNEBP,,,,,,M*13
###2023-12-09 13:31:50.187522$GNGGA,183149.30,4138.0347379,N,07032.4258658,W,1,21,0.8,13.531,M,-29.746,M,0.0,*53
###2023-12-09 13:31:50.386901$GNGGA,183149.50,4138.0347222,N,07032.4258568,W,1,20,0.9,13.539,M,-29.746,M,0.0,*52
###2023-12-09 13:31:50.587473$GNGGA,183149.70,4138.0347081,N,07032.4258481,W,1,20,0.9,13.540,M,-29.746,M,0.0,*53
###2023-12-09 13:31:50.787568$GNGGA,183149.90,4138.0346891,N,07032.4258473,W,1,20,0.9,13.542,M,-29.746,M,0.0,*5A
###2023-12-09 13:31:50.990375$GNRMC,183150.10,A,4138.0346734,N,07032.4258409,W,0.37,99.64,091223,,,A*6F
###2023-12-09 13:31:50.993286$GNGGA,183150.10,4138.0346734,N,07032.4258409,W,1,20,0.9,13.534,M,-29.746,M,0.0,*56
###2023-12-09 13:31:50.995060$GPGSA,A,3,04,16,26,28,29,31,,,,,,,1.6,0.9,1.2*3B
###2023-12-09 13:31:50.996714$GLGSA,A,3,65,72,73,74,75,,,,,,,,1.6,0.9,1.2*20
###2023-12-09 13:31:50.998289$GAGSA,A,3,04,19,21,27,,,,,,,,,1.6,0.9,1.2*24
###2023-12-09 13:31:50.999944$GBGSA,A,3,24,25,26,33,35,,,,,,,,1.6,0.9,1.2*2E
###2023-12-09 13:31:51.002269$GPGSV,2,1,06,04,45,308,47,16,65,221,47,26,85,040,48,28,39,084,45*7B
###2023-12-09 13:31:51.004026$GPGSV,2,2,06,29,21,048,42,31,60,064,47,,,,,,,,*78
###2023-12-09 13:31:51.006340$GLGSV,2,1,05,65,37,320,42,72,64,223,47,73,23,051,40,74,61,011,41*60
###2023-12-09 13:31:51.007798$GLGSV,2,2,05,75,42,269,46,,,,,,,,,,,,*5B
###2023-12-09 13:31:51.010111$GAGSV,1,1,04,04,39,310,45,19,73,182,43,21,78,047,46,27,23,050,41*68
###2023-12-09 13:31:51.012443$GBGSV,2,1,05,24,64,044,48,25,50,275,46,26,17,070,42,33,47,218,41*6B
###2023-12-09 13:31:51.013893$GBGSV,2,2,05,35,16,058,41,,,,,,,,,,,,*57
###2023-12-09 13:31:51.015219$GNVTG,99.64,T,,M,0.37,N,0.68,K,A*1B
###2023-12-09 13:31:51.016829$GNGST,183150.10,5.600,,,,0.190,0.100,0.260*66
###2023-12-09 13:31:51.018109$GNZDA,183150.10,09,12,2023,00,00*7E
###2023-12-09 13:31:51.018756$GNEBP,,,,,,M*13
###2023-12-09 13:31:51.196252$GNGGA,183150.30,4138.0346588,N,07032.4258197,W,1,20,0.9,13.527,M,-29.746,M,0.0,*51
###2023-12-09 13:31:51.386308$GNGGA,183150.50,4138.0346435,N,07032.4258223,W,1,20,0.9,13.546,M,-29.746,M,0.0,*5B
###2023-12-09 13:31:51.586855$GNGGA,183150.70,4138.0346255,N,07032.4258355,W,1,20,0.9,13.548,M,-29.746,M,0.0,*57
###2023-12-09 13:31:51.787412$GNGGA,183150.90,4138.0346119,N,07032.4258203,W,1,20,0.9,13.535,M,-29.746,M,0.0,*5A
###2023-12-09 13:31:51.988663$GNRMC,183151.10,A,4138.0345980,N,07032.4257983,W,0.31,99.64,091223,,,A*6A
###2023-12-09 13:31:51.991521$GNGGA,183151.10,4138.0345980,N,07032.4257983,W,1,20,0.9,13.529,M,-29.746,M,0.0,*59
###2023-12-09 13:31:51.993246$GPGSA,A,3,04,16,26,28,29,31,,,,,,,1.6,0.9,1.2*3B
###2023-12-09 13:31:51.994919$GLGSA,A,3,65,72,73,74,75,,,,,,,,1.6,0.9,1.2*20
###2023-12-09 13:31:51.996504$GAGSA,A,3,04,19,21,27,,,,,,,,,1.6,0.9,1.2*24
###2023-12-09 13:31:51.998150$GBGSA,A,3,24,25,26,33,35,,,,,,,,1.6,0.9,1.2*2E
###2023-12-09 13:31:52.000486$GPGSV,2,1,06,04,45,308,46,16,65,221,47,26,85,040,48,28,39,084,46*79
###2023-12-09 13:31:52.002234$GPGSV,2,2,06,29,21,048,44,31,60,064,48,,,,,,,,*71
###2023-12-09 13:31:52.004579$GLGSV,2,1,05,65,37,320,42,72,64,223,45,73,23,051,41,74,61,011,42*60
###2023-12-09 13:31:52.006039$GLGSV,2,2,05,75,42,269,45,,,,,,,,,,,,*58
###2023-12-09 13:31:52.008378$GAGSV,1,1,04,04,39,310,44,19,73,182,41,21,78,047,46,27,23,050,41*6B
###2023-12-09 13:31:52.010726$GBGSV,2,1,05,24,64,044,47,25,50,275,47,26,17,070,44,33,47,218,41*63
###2023-12-09 13:31:52.012184$GBGSV,2,2,05,35,16,058,44,,,,,,,,,,,,*52
###2023-12-09 13:31:52.013471$GNVTG,99.64,T,,M,0.31,N,0.58,K,A*1E
###2023-12-09 13:31:52.015107$GNGST,183151.10,5.700,,,,0.190,0.100,0.260*66
###2023-12-09 13:31:52.016436$GNZDA,183151.10,09,12,2023,00,00*7F
###2023-12-09 13:31:52.017077$GNEBP,,,,,,M*13
###2023-12-09 13:31:52.186130$GNGGA,183151.30,4138.0345806,N,07032.4258115,W,1,21,0.8,13.546,M,-29.746,M,0.0,*55
###2023-12-09 13:31:52.385500$GNGGA,183151.50,4138.0345620,N,07032.4258318,W,1,21,0.8,13.546,M,-29.746,M,0.0,*56
###2023-12-09 13:31:52.587598$GNGGA,183151.70,4138.0345467,N,07032.4258149,W,1,21,0.8,13.529,M,-29.746,M,0.0,*5A
###2023-12-09 13:31:52.788265$GNGGA,183151.90,4138.0345334,N,07032.4257944,W,1,21,0.8,13.532,M,-29.746,M,0.0,*55
###2023-12-09 13:31:52.989821$GNRMC,183152.10,A,4138.0345170,N,07032.4258059,W,0.47,99.64,091223,,,A*6E
###2023-12-09 13:31:52.993731$GNGGA,183152.10,4138.0345170,N,07032.4258059,W,1,21,0.8,13.542,M,-29.746,M,0.0,*51
###2023-12-09 13:31:52.995845$GPGSA,A,3,04,16,26,28,29,31,,,,,,,1.4,0.8,1.1*3B
###2023-12-09 13:31:52.997843$GLGSA,A,3,65,72,73,74,75,,,,,,,,1.4,0.8,1.1*20
###2023-12-09 13:31:52.999767$GAGSA,A,3,04,19,21,27,,,,,,,,,1.4,0.8,1.1*24
###2023-12-09 13:31:53.001827$GBGSA,A,3,14,24,25,26,33,35,,,,,,,1.4,0.8,1.1*2B
###2023-12-09 13:31:53.004646$GPGSV,2,1,06,04,45,308,45,16,65,221,47,26,85,040,49,28,39,084,46*7B
###2023-12-09 13:31:53.006757$GPGSV,2,2,06,29,21,048,43,31,60,064,48,,,,,,,,*76
