###2023-12-09 13:01:29.004926$GBGSV,2,2,05,33,57,233,49,,,,,,,,,,,,*53
###2023-12-09 13:01:29.006536$GNVTG,294.06,T,,M,2.45,N,4.54,K,A*2C
###2023-12-09 13:01:29.008529$GNGST,180128.10,18.000,,,,0.080,0.067,0.160*53
###2023-12-09 13:01:29.010073$GNZDA,180128.10,09,12,2023,00,00*72
###2023-12-09 13:01:29.010860$GNEBP,,,,,,M*13
###2023-12-09 13:01:29.168048$GNGGA,180128.30,4138.0521041,N,07032.2571549,W,1,24,0.6,13.534,M,-29.743,M,0.0,*5B
###2023-12-09 13:01:29.364541$GNGGA,180128.50,4138.0521465,N,07032.2573268,W,1,24,0.6,13.514,M,-29.743,M,0.0,*5B
###2023-12-09 13:01:29.565440$GNGGA,180128.70,4138.0521555,N,07032.2574966,W,1,24,0.6,13.480,M,-29.743,M,0.0,*55
###2023-12-09 13:01:29.764768$GNGGA,180128.90,4138.0521732,N,07032.2576674,W,1,24,0.6,13.480,M,-29.743,M,0.0,*56
###2023-12-09 13:01:29.967031$GNRMC,180129.10,A,4138.0522261,N,07032.2578466,W,2.72,294.56,091223,,,A*54
###2023-12-09 13:01:29.969880$GNGGA,180129.10,4138.0522261,N,07032.2578466,W,1,24,0.6,13.511,M,-29.743,M,0.0,*59
###2023-12-09 13:01:29.971749$GPGSA,A,3,03,04,16,26,28,29,31,32,,,,,1.1,0.6,0.9*3B
###2023-12-09 13:01:29.973456$GLGSA,A,3,65,71,72,73,74,75,,,,,,,1.1,0.6,0.9*24
###2023-12-09 13:01:29.975049$GAGSA,A,3,04,19,21,27,,,,,,,,,1.1,0.6,0.9*26
###2023-12-09 13:01:29.976689$GBGSA,A,3,14,24,25,26,33,,,,,,,,1.1,0.6,0.9*2F
###2023-12-09 13:01:29.979023$GPGSV,2,1,08,03,35,261,43,04,33,311,42,16,50,212,46,26,80,210,48*76
###2023-12-09 13:01:29.981348$GPGSV,2,2,08,28,49,070,45,29,25,061,41,31,69,036,47,32,19,140,43*7E
###2023-12-09 13:01:29.983688$GLGSV,2,1,06,65,24,327,41,71,41,173,47,72,73,269,46,73,36,041,46*6B
###2023-12-09 13:01:29.985438$GLGSV,2,2,06,74,70,337,42,75,32,253,42,,,,,,,,*67
###2023-12-09 13:01:29.987774$GAGSV,1,1,04,04,29,312,40,19,84,216,40,21,86,120,46,27,33,048,43*60
###2023-12-09 13:01:29.990094$GBGSV,2,1,05,14,43,193,45,24,74,024,49,25,41,262,44,26,26,063,41*6F
###2023-12-09 13:01:29.991559$GBGSV,2,2,05,33,57,233,47,,,,,,,,,,,,*5D
###2023-12-09 13:01:29.992879$GNVTG,294.56,T,,M,2.72,N,5.04,K,A*29
###2023-12-09 13:01:29.994521$GNGST,180129.10,18.000,,,,0.080,0.067,0.160*52
###2023-12-09 13:01:29.995828$GNZDA,180129.10,09,12,2023,00,00*73
###2023-12-09 13:01:29.996468$GNEBP,,,,,,M*13
###2023-12-09 13:01:30.163705$GNGGA,180129.30,4138.0522634,N,07032.2580278,W,1,24,0.6,13.513,M,-29.743,M,0.0,*53
###2023-12-09 13:01:30.364191$GNGGA,180129.50,4138.0522415,N,07032.2581923,W,1,24,0.6,13.493,M,-29.743,M,0.0,*59
###2023-12-09 13:01:30.565109$GNGGA,180129.70,4138.0522151,N,07032.2583507,W,1,24,0.6,13.469,M,-29.743,M,0.0,*53
###2023-12-09 13:01:30.765378$GNGGA,180129.90,4138.0522379,N,07032.2585377,W,1,24,0.6,13.485,M,-29.743,M,0.0,*50
###2023-12-09 13:01:30.968185$GNRMC,180130.10,A,4138.0522596,N,07032.2587289,W,2.45,269.72,091223,,,A*54
###2023-12-09 13:01:30.971655$GNGGA,180130.10,4138.0522596,N,07032.2587289,W,1,24,0.6,13.484,M,-29.743,M,0.0,*54
###2023-12-09 13:01:30.973929$GPGSA,A,3,03,04,16,26,28,29,31,32,,,,,1.1,0.6,0.9*3B
###2023-12-09 13:01:30.976023$GLGSA,A,3,65,71,72,73,74,75,,,,,,,1.1,0.6,0.9*24
###2023-12-09 13:01:30.977933$GAGSA,A,3,04,19,21,27,,,,,,,,,1.1,0.6,0.9*26
###2023-12-09 13:01:30.979924$GBGSA,A,3,14,24,25,26,33,,,,,,,,1.1,0.6,0.9*2F
###2023-12-09 13:01:30.982740$GPGSV,2,1,08,03,35,261,43,04,33,311,42,16,50,212,45,26,80,210,47*7A
###2023-12-09 13:01:30.985557$GPGSV,2,2,08,28,49,070,45,29,25,061,42,31,69,036,47,32,19,140,41*7F
###2023-12-09 13:01:30.988410$GLGSV,2,1,06,65,24,327,42,71,41,173,45,72,73,269,45,73,36,041,47*68
###2023-12-09 13:01:30.990529$GLGSV,2,2,06,74,70,337,43,75,32,253,44,,,,,,,,*60
###2023-12-09 13:01:30.993369$GAGSV,1,1,04,04,29,312,40,19,84,216,40,21,86,120,46,27,33,048,44*67
###2023-12-09 13:01:30.996194$GBGSV,2,1,05,14,43,193,45,24,74,024,49,25,41,262,45,26,26,063,44*6B
###2023-12-09 13:01:30.997946$GBGSV,2,2,05,33,57,233,47,,,,,,,,,,,,*5D
###2023-12-09 13:01:30.999550$GNVTG,269.72,T,,M,2.45,N,4.54,K,A*2D
###2023-12-09 13:01:31.001535$GNGST,180130.10,18.000,,,,0.080,0.067,0.160*5A
###2023-12-09 13:01:31.003103$GNZDA,180130.10,09,12,2023,00,00*7B
###2023-12-09 13:01:31.003877$GNEBP,,,,,,M*13
###2023-12-09 13:01:31.164235$GNGGA,180130.30,4138.0522332,N,07032.2588964,W,1,24,0.6,13.481,M,-29.743,M,0.0,*5C
###2023-12-09 13:01:31.365789$GNGGA,180130.50,4138.0521830,N,07032.2590490,W,1,24,0.6,13.471,M,-29.743,M,0.0,*50
###2023-12-09 13:01:31.565581$GNGGA,180130.70,4138.0521512,N,07032.2592173,W,1,24,0.6,13.466,M,-29.743,M,0.0,*53
###2023-12-09 13:01:31.766028$GNGGA,180130.90,4138.0521376,N,07032.2594129,W,1,24,0.6,13.486,M,-29.743,M,0.0,*5E
###2023-12-09 13:01:31.967494$GNRMC,180131.10,A,4138.0521148,N,07032.2596058,W,2.47,253.77,091223,,,A*51
###2023-12-09 13:01:31.970976$GNGGA,180131.10,4138.0521148,N,07032.2596058,W,1,24,0.6,13.484,M,-29.743,M,0.0,*5F
###2023-12-09 13:01:31.973223$GPGSA,A,3,03,04,16,26,28,29,31,32,,,,,1.1,0.6,0.9*3B
###2023-12-09 13:01:31.975313$GLGSA,A,3,65,71,72,73,74,75,,,,,,,1.1,0.6,0.9*24
###2023-12-09 13:01:31.977221$GAGSA,A,3,04,19,21,27,,,,,,,,,1.1,0.6,0.9*26
###2023-12-09 13:01:31.979231$GBGSA,A,3,14,24,25,26,33,,,,,,,,1.1,0.6,0.9*2F
###2023-12-09 13:01:31.982069$GPGSV,2,1,08,03,35,261,40,04,33,311,43,16,50,212,44,26,80,210,46*78
###2023-12-09 13:01:31.984898$GPGSV,2,2,08,28,49,070,44,29,25,061,41,31,69,036,47,32,19,140,42*7E
###2023-12-09 13:01:31.987734$GLGSV,2,1,06,65,24,327,43,71,41,173,46,72,73,269,45,73,36,041,47*6A
###2023-12-09 13:01:31.989837$GLGSV,2,2,06,74,70,337,43,75,32,253,43,,,,,,,,*67
###2023-12-09 13:01:31.992662$GAGSV,1,1,04,04,29,312,42,19,84,216,40,21,86,120,46,27,33,048,43*62
###2023-12-09 13:01:31.995476$GBGSV,2,1,05,14,43,193,45,24,74,024,48,25,41,262,44,26,26,063,42*6D
###2023-12-09 13:01:31.997259$GBGSV,2,2,05,33,57,233,46,,,,,,,,,,,,*5C
###2023-12-09 13:01:31.998907$GNVTG,253.77,T,,M,2.47,N,4.57,K,A*20
###2023-12-09 13:01:32.000895$GNGST,180131.10,18.000,,,,0.080,0.068,0.160*54
###2023-12-09 13:01:32.002446$GNZDA,180131.10,09,12,2023,00,00*7A
###2023-12-09 13:01:32.003238$GNEBP,,,,,,M*13
###2023-12-09 13:01:32.165278$GNGGA,180131.30,4138.0520574,N,07032.2597602,W,1,24,0.6,13.477,M,-29.743,M,0.0,*53
###2023-12-09 13:01:32.364691$GNGGA,180131.50,4138.0519735,N,07032.2598845,W,1,24,0.6,13.443,M,-29.743,M,0.0,*5D
###2023-12-09 13:01:32.566051$GNGGA,180131.70,4138.0519117,N,07032.2600325,W,1,24,0.6,13.448,M,-29.743,M,0.0,*5D
###2023-12-09 13:01:32.765421$GNGGA,180131.90,4138.0518795,N,07032.2602290,W,1,24,0.6,13.486,M,-29.743,M,0.0,*51
###2023-12-09 13:01:32.974009$GNRMC,180132.10,A,4138.0518147,N,07032.2604035,W,2.43,229.07,091223,,,A*5A
###2023-12-09 13:01:32.977508$GNGGA,180132.10,4138.0518147,N,07032.2604035,W,1,24,0.6,13.468,M,-29.743,M,0.0,*58
###2023-12-09 13:01:32.979772$GPGSA,A,3,03,04,16,26,28,29,31,32,,,,,1.1,0.6,0.9*3B
###2023-12-09 13:01:32.981853$GLGSA,A,3,65,71,72,73,74,75,,,,,,,1.1,0.6,0.9*24
###2023-12-09 13:01:32.983778$GAGSA,A,3,04,19,21,27,,,,,,,,,1.1,0.6,0.9*26
###2023-12-09 13:01:32.985774$GBGSA,A,3,14,24,25,26,33,,,,,,,,1.1,0.6,0.9*2F
###2023-12-09 13:01:32.988593$GPGSV,2,1,08,03,35,261,42,04,33,311,44,16,50,212,44,26,80,210,47*7C
###2023-12-09 13:01:32.991432$GPGSV,2,2,08,28,49,070,43,29,25,061,41,31,69,036,46,32,19,140,39*74
###2023-12-09 13:01:32.994251$GLGSV,2,1,06,65,24,327,45,71,41,173,45,72,73,269,45,73,36,041,47*6F
###2023-12-09 13:01:32.996364$GLGSV,2,2,06,74,70,337,43,75,32,253,42,,,,,,,,*66
###2023-12-09 13:01:32.999192$GAGSV,1,1,04,04,29,312,43,19,84,216,39,21,86,120,44,27,33,048,43*6F
###2023-12-09 13:01:33.002011$GBGSV,2,1,05,14,43,193,44,24,74,024,47,25,41,262,45,26,26,063,42*62
###2023-12-09 13:01:33.003783$GBGSV,2,2,05,33,57,233,46,,,,,,,,,,,,*5C
###2023-12-09 13:01:33.005417$GNVTG,229.07,T,,M,2.43,N,4.50,K,A*29
###2023-12-09 13:01:33.007420$GNGST,180132.10,18.000,,,,0.080,0.068,0.160*57
###2023-12-09 13:01:33.008985$GNZDA,180132.10,09,12,2023,00,00*79
###2023-12-09 13:01:33.009754$GNEBP,,,,,,M*13
###2023-12-09 13:01:33.167369$GNGGA,180132.30,4138.0517229,N,07032.2605163,W,1,24,0.6,13.457,M,-29.743,M,0.0,*51
###2023-12-09 13:01:33.364070$GNGGA,180132.50,4138.0516405,N,07032.2606537,W,1,24,0.6,13.469,M,-29.743,M,0.0,*55
###2023-12-09 13:01:33.564651$GNGGA,180132.70,4138.0515714,N,07032.2608386,W,1,24,0.6,13.461,M,-29.743,M,0.0,*5D
###2023-12-09 13:01:33.764851$GNGGA,180132.90,4138.0514946,N,07032.2609907,W,1,24,0.6,13.445,M,-29.743,M,0.0,*5F
###2023-12-09 13:01:33.967668$GNRMC,180133.10,A,4138.0514161,N,07032.2611337,W,2.49,233.18,091223,,,A*59
###2023-12-09 13:01:33.970548$GNGGA,180133.10,4138.0514161,N,07032.2611337,W,1,24,0.6,13.475,M,-29.743,M,0.0,*58
###2023-12-09 13:01:33.972421$GPGSA,A,3,03,04,16,26,28,29,31,32,,,,,1.1,0.6,0.9*3B
###2023-12-09 13:01:33.974141$GLGSA,A,3,65,71,72,73,74,75,,,,,,,1.1,0.6,0.9*24
###2023-12-09 13:01:33.975742$GAGSA,A,3,04,19,21,27,,,,,,,,,1.1,0.6,0.9*26
###2023-12-09 13:01:33.977395$GBGSA,A,3,14,24,25,26,33,,,,,,,,1.1,0.6,0.9*2F
###2023-12-09 13:01:33.979746$GPGSV,2,1,08,03,35,261,42,04,33,311,42,16,50,212,44,26,80,210,47*7A
