###2023-12-09 13:07:54.985463$GPGSV,2,1,08,03,34,258,45,04,35,311,44,16,53,214,46,26,83,210,48*7D
###2023-12-09 13:07:54.987843$GPGSV,2,2,08,28,47,073,43,29,25,058,42,31,67,044,46,32,16,141,40*7B
###2023-12-09 13:07:54.990173$GLGSV,2,1,06,65,26,326,43,71,37,173,46,72,72,258,46,73,33,043,44*6C
###2023-12-09 13:07:54.991941$GLGSV,2,2,06,74,68,345,43,75,34,256,47,,,,,,,,*6C
###2023-12-09 13:07:54.994256$GAGSV,1,1,04,04,31,312,41,19,83,203,41,21,85,092,46,27,31,048,40*60
###2023-12-09 13:07:54.996594$GBGSV,2,1,06,14,41,192,44,24,72,029,48,25,42,264,45,26,24,064,43*67
###2023-12-09 13:07:54.998334$GBGSV,2,2,06,33,56,229,47,35,15,067,42,,,,,,,,*61
###2023-12-09 13:07:54.999650$GNVTG,80.18,T,,M,3.56,N,6.59,K,A*18
###2023-12-09 13:07:55.001295$GNGST,180754.10,18.000,,,,0.081,0.065,0.150*5E
###2023-12-09 13:07:55.002591$GNZDA,180754.10,09,12,2023,00,00*7F
###2023-12-09 13:07:55.003228$GNEBP,,,,,,M*13
###2023-12-09 13:07:55.169113$GNGGA,180754.30,4138.0776246,N,07032.3376387,W,1,25,0.6,13.576,M,-29.743,M,0.0,*50
###2023-12-09 13:07:55.369448$GNGGA,180754.50,4138.0776590,N,07032.3373700,W,1,25,0.6,13.535,M,-29.743,M,0.0,*53
###2023-12-09 13:07:55.570703$GNGGA,180754.70,4138.0777323,N,07032.3371295,W,1,25,0.6,13.551,M,-29.743,M,0.0,*57
###2023-12-09 13:07:55.768437$GNGGA,180754.90,4138.0778034,N,07032.3368771,W,1,25,0.6,13.585,M,-29.743,M,0.0,*5D
###2023-12-09 13:07:55.971130$GNRMC,180755.10,A,4138.0778116,N,07032.3365917,W,3.93,95.95,091223,,,A*65
###2023-12-09 13:07:55.974005$GNGGA,180755.10,4138.0778116,N,07032.3365917,W,1,25,0.6,13.569,M,-29.743,M,0.0,*54
###2023-12-09 13:07:55.975883$GPGSA,A,3,03,04,16,26,28,29,31,32,,,,,1.1,0.6,0.9*3B
###2023-12-09 13:07:55.977598$GLGSA,A,3,65,71,72,73,74,75,,,,,,,1.1,0.6,0.9*24
###2023-12-09 13:07:55.979201$GAGSA,A,3,04,19,21,27,,,,,,,,,1.1,0.6,0.9*26
###2023-12-09 13:07:55.980912$GBGSA,A,3,14,24,25,26,33,35,,,,,,,1.1,0.6,0.9*29
###2023-12-09 13:07:55.983252$GPGSV,2,1,08,03,34,258,45,04,35,311,42,16,53,214,47,26,83,210,48*7A
###2023-12-09 13:07:55.985598$GPGSV,2,2,08,28,47,073,43,29,25,058,41,31,67,044,47,32,16,141,42*7B
###2023-12-09 13:07:55.987946$GLGSV,2,1,06,65,26,326,41,71,37,173,47,72,72,258,46,73,33,043,44*6F
###2023-12-09 13:07:55.989699$GLGSV,2,2,06,74,68,345,42,75,34,256,47,,,,,,,,*6D
###2023-12-09 13:07:55.992042$GAGSV,1,1,04,04,31,312,41,19,83,203,41,21,85,092,46,27,31,048,40*60
###2023-12-09 13:07:55.994374$GBGSV,2,1,06,14,41,192,45,24,72,029,48,25,42,264,46,26,24,064,43*65
###2023-12-09 13:07:55.996127$GBGSV,2,2,06,33,56,229,48,35,15,067,42,,,,,,,,*6E
###2023-12-09 13:07:55.997422$GNVTG,95.95,T,,M,3.93,N,7.27,K,A*18
###2023-12-09 13:07:55.999086$GNGST,180755.10,18.000,,,,0.082,0.065,0.150*5C
###2023-12-09 13:07:56.000387$GNZDA,180755.10,09,12,2023,00,00*7E
###2023-12-09 13:07:56.001026$GNEBP,,,,,,M*13
###2023-12-09 13:07:56.167665$GNGGA,180755.30,4138.0778034,N,07032.3363186,W,1,25,0.6,13.504,M,-29.743,M,0.0,*5A
###2023-12-09 13:07:56.368187$GNGGA,180755.50,4138.0778865,N,07032.3360798,W,1,25,0.6,13.549,M,-29.743,M,0.0,*53
###2023-12-09 13:07:56.568359$GNGGA,180755.70,4138.0779681,N,07032.3358241,W,1,25,0.6,13.545,M,-29.743,M,0.0,*52
###2023-12-09 13:07:56.767428$GNGGA,180755.90,4138.0779751,N,07032.3355358,W,1,25,0.6,13.532,M,-29.743,M,0.0,*54
###2023-12-09 13:07:56.977004$GNRMC,180756.10,A,4138.0779549,N,07032.3352543,W,3.58,86.93,091223,,,A*63
###2023-12-09 13:07:56.979879$GNGGA,180756.10,4138.0779549,N,07032.3352543,W,1,25,0.6,13.495,M,-29.743,M,0.0,*53
###2023-12-09 13:07:56.981737$GPGSA,A,3,03,04,16,26,28,29,31,32,,,,,1.1,0.6,0.9*3B
###2023-12-09 13:07:56.983469$GLGSA,A,3,65,71,72,73,74,75,,,,,,,1.1,0.6,0.9*24
###2023-12-09 13:07:56.985059$GAGSA,A,3,04,19,21,27,,,,,,,,,1.1,0.6,0.9*26
###2023-12-09 13:07:56.986792$GBGSA,A,3,14,24,25,26,33,35,,,,,,,1.1,0.6,0.9*29
###2023-12-09 13:07:56.989127$GPGSV,2,1,08,03,34,258,45,04,35,311,40,16,53,214,48,26,83,210,48*77
###2023-12-09 13:07:56.991478$GPGSV,2,2,08,28,47,073,43,29,25,058,40,31,67,044,46,32,16,141,43*7A
###2023-12-09 13:07:56.993822$GLGSV,2,1,06,65,26,326,40,71,37,173,47,72,72,258,46,73,33,043,44*6E
###2023-12-09 13:07:56.995596$GLGSV,2,2,06,74,68,345,41,75,34,256,47,,,,,,,,*6E
###2023-12-09 13:07:56.997934$GAGSV,1,1,04,04,31,312,39,19,83,203,40,21,85,092,46,27,31,048,41*6F
###2023-12-09 13:07:57.000296$GBGSV,2,1,06,14,41,192,47,24,72,029,47,25,42,264,47,26,24,064,42*68
###2023-12-09 13:07:57.002057$GBGSV,2,2,06,33,56,229,48,35,15,067,42,,,,,,,,*6E
###2023-12-09 13:07:57.003364$GNVTG,86.93,T,,M,3.58,N,6.62,K,A*1B
###2023-12-09 13:07:57.005027$GNGST,180756.10,18.000,,,,0.082,0.066,0.150*5C
###2023-12-09 13:07:57.006330$GNZDA,180756.10,09,12,2023,00,00*7D
###2023-12-09 13:07:57.006984$GNEBP,,,,,,M*13
###2023-12-09 13:07:57.170863$GNGGA,180756.30,4138.0780269,N,07032.3350038,W,1,25,0.6,13.535,M,-29.743,M,0.0,*52
###2023-12-09 13:07:57.374493$GNGGA,180756.50,4138.0781315,N,07032.3347497,W,1,25,0.6,13.530,M,-29.743,M,0.0,*5D
###2023-12-09 13:07:57.568421$GNGGA,180756.70,4138.0781563,N,07032.3344754,W,1,25,0.6,13.488,M,-29.743,M,0.0,*55
###2023-12-09 13:07:57.768421$GNGGA,180756.90,4138.0781523,N,07032.3341964,W,1,25,0.6,13.479,M,-29.743,M,0.0,*59
###2023-12-09 13:07:57.971735$GNRMC,180757.10,A,4138.0781999,N,07032.3339325,W,3.56,63.98,091223,,,A*61
###2023-12-09 13:07:57.974592$GNGGA,180757.10,4138.0781999,N,07032.3339325,W,1,25,0.6,13.468,M,-29.743,M,0.0,*5D
###2023-12-09 13:07:57.976451$GPGSA,A,3,03,04,16,26,28,29,31,32,,,,,1.1,0.6,0.9*3B
###2023-12-09 13:07:57.978170$GLGSA,A,3,65,71,72,73,74,75,,,,,,,1.1,0.6,0.9*24
###2023-12-09 13:07:57.979758$GAGSA,A,3,04,19,21,27,,,,,,,,,1.1,0.6,0.9*26
###2023-12-09 13:07:57.981464$GBGSA,A,3,14,24,25,26,33,35,,,,,,,1.1,0.6,0.9*29
###2023-12-09 13:07:57.983796$GPGSV,2,1,08,03,34,258,45,04,35,311,42,16,53,214,48,26,83,210,48*75
###2023-12-09 13:07:57.986116$GPGSV,2,2,08,28,47,073,42,29,25,058,40,31,67,044,45,32,16,141,44*7F
###2023-12-09 13:07:57.988451$GLGSV,2,1,06,65,26,326,39,71,37,173,47,72,72,258,46,73,33,043,43*67
###2023-12-09 13:07:57.990195$GLGSV,2,2,06,74,68,345,42,75,34,256,47,,,,,,,,*6D
###2023-12-09 13:07:57.992525$GAGSV,1,1,04,04,31,312,41,19,83,203,41,21,85,092,45,27,31,048,40*63
###2023-12-09 13:07:57.994853$GBGSV,2,1,06,14,41,192,47,24,72,029,47,25,42,264,47,26,24,064,41*6B
###2023-12-09 13:07:57.996588$GBGSV,2,2,06,33,56,229,48,35,15,067,40,,,,,,,,*6C
###2023-12-09 13:07:57.997867$GNVTG,63.98,T,,M,3.56,N,6.59,K,A*1D
###2023-12-09 13:07:57.999551$GNGST,180757.10,18.000,,,,0.082,0.066,0.150*5D
###2023-12-09 13:07:58.000842$GNZDA,180757.10,09,12,2023,00,00*7C
###2023-12-09 13:07:58.001479$GNEBP,,,,,,M*13
###2023-12-09 13:07:58.169042$GNGGA,180757.30,4138.0782985,N,07032.3337044,W,1,25,0.6,13.466,M,-29.743,M,0.0,*55
###2023-12-09 13:07:58.368874$GNGGA,180757.50,4138.0783591,N,07032.3334451,W,1,25,0.6,13.467,M,-29.743,M,0.0,*59
###2023-12-09 13:07:58.571463$GNGGA,180757.70,4138.0783708,N,07032.3331668,W,1,25,0.6,13.443,M,-29.743,M,0.0,*52
###2023-12-09 13:07:58.769795$GNGGA,180757.90,4138.0784157,N,07032.3329103,W,1,25,0.6,13.449,M,-29.743,M,0.0,*5E
###2023-12-09 13:07:58.974969$GNRMC,180758.10,A,4138.0785130,N,07032.3326595,W,3.73,63.65,091223,,,A*67
###2023-12-09 13:07:58.977821$GNGGA,180758.10,4138.0785130,N,07032.3326595,W,1,25,0.6,13.461,M,-29.743,M,0.0,*57
###2023-12-09 13:07:58.979691$GPGSA,A,3,03,04,16,26,28,29,31,32,,,,,1.1,0.6,0.9*3B
###2023-12-09 13:07:58.981413$GLGSA,A,3,65,71,72,73,74,75,,,,,,,1.1,0.6,0.9*24
###2023-12-09 13:07:58.983010$GAGSA,A,3,04,19,21,27,,,,,,,,,1.1,0.6,0.9*26
###2023-12-09 13:07:58.984723$GBGSA,A,3,14,24,25,26,33,35,,,,,,,1.1,0.6,0.9*29
###2023-12-09 13:07:58.987067$GPGSV,2,1,08,03,34,258,45,04,35,311,43,16,53,214,47,26,83,210,49*7A
###2023-12-09 13:07:58.989393$GPGSV,2,2,08,28,47,073,43,29,25,058,41,31,67,044,47,32,16,141,42*7B
###2023-12-09 13:07:58.991733$GLGSV,2,1,06,65,26,326,41,71,37,173,46,72,72,258,47,73,33,043,44*6F
###2023-12-09 13:07:58.993477$GLGSV,2,2,06,74,68,345,42,75,34,256,48,,,,,,,,*62
###2023-12-09 13:07:58.995807$GAGSV,1,1,04,04,31,312,41,19,82,199,41,21,85,092,46,27,31,048,41*60
###2023-12-09 13:07:58.998134$GBGSV,2,1,06,14,41,192,46,24,72,029,48,25,42,264,46,26,24,064,41*64
###2023-12-09 13:07:59.000123$GBGSV,2,2,06,33,56,229,48,35,15,067,42,,,,,,,,*6E
###2023-12-09 13:07:59.001430$GNVTG,63.65,T,,M,3.73,N,6.91,K,A*1C
###2023-12-09 13:07:59.003088$GNGST,180758.10,18.000,,,,0.083,0.066,0.150*53
###2023-12-09 13:07:59.004382$GNZDA,180758.10,09,12,2023,00,00*73
###2023-12-09 13:07:59.005022$GNEBP,,,,,,M*13
###2023-12-09 13:07:59.170203$GNGGA,180758.30,4138.0785688,N,07032.3324013,W,1,25,0.6,13.422,M,-29.743,M,0.0,*5F
###2023-12-09 13:07:59.375844$GNGGA,180758.50,4138.0785782,N,07032.3321284,W,1,25,0.6,13.433,M,-29.743,M,0.0,*5B
###2023-12-09 13:07:59.569617$GNGGA,180758.70,4138.0785932,N,07032.3318549,W,1,25,0.6,13.415,M,-29.743,M,0.0,*54
###2023-12-09 13:07:59.769817$GNGGA,180758.90,4138.0786481,N,07032.3315945,W,1,25,0.6,13.414,M,-29.743,M,0.0,*50
###2023-12-09 13:07:59.972755$GNRMC,180759.10,A,4138.0786951,N,07032.3313326,W,3.71,83.49,091223,,,A*60
