###2023-12-09 12:35:41.732045$GNGGA,173540.90,4138.0517838,N,07032.4183638,W,1,23,0.7,13.291,M,-29.745,M,0.0,*56
###2023-12-09 12:35:41.934155$GNRMC,173541.10,A,4138.0517558,N,07032.4181942,W,2.33,100.48,091223,,,A*52
###2023-12-09 12:35:41.937936$GNGGA,173541.10,4138.0517558,N,07032.4181942,W,1,23,0.7,13.286,M,-29.745,M,0.0,*52
###2023-12-09 12:35:41.940395$GPGSA,A,3,03,04,16,26,28,29,31,32,,,,,1.2,0.7,1.0*31
###2023-12-09 12:35:41.942533$GLGSA,A,3,71,72,73,74,75,,,,,,,,1.2,0.7,1.0*2D
###2023-12-09 12:35:41.944602$GAGSA,A,3,04,19,21,27,,,,,,,,,1.2,0.7,1.0*2C
###2023-12-09 12:35:41.946770$GBGSA,A,3,14,24,25,26,33,,,,,,,,1.2,0.7,1.0*25
###2023-12-09 12:35:41.949792$GPGSV,2,1,08,03,39,277,44,04,22,311,40,16,37,207,44,26,66,206,48*70
###2023-12-09 12:35:41.952776$GPGSV,2,2,08,28,58,056,44,29,25,074,41,31,73,001,47,32,30,134,41*7A
###2023-12-09 12:35:41.955767$GLGSV,2,1,05,71,56,169,47,72,66,308,47,73,47,034,46,74,71,293,43*6E
###2023-12-09 12:35:41.957660$GLGSV,2,2,05,75,22,241,41,,,,,,,,,,,,*50
###2023-12-09 12:35:41.960618$GAGSV,1,1,04,04,21,311,40,19,81,302,40,21,78,176,46,27,41,049,43*6C
###2023-12-09 12:35:41.963578$GBGSV,2,1,05,14,55,197,43,24,80,347,47,25,33,253,42,26,35,057,44*68
###2023-12-09 12:35:41.965465$GBGSV,2,2,05,33,63,253,47,,,,,,,,,,,,*5C
###2023-12-09 12:35:41.967112$GNVTG,100.48,T,,M,2.33,N,4.32,K,A*29
###2023-12-09 12:35:41.969117$GNGST,173541.10,18.000,,,,0.082,0.072,0.170*53
###2023-12-09 12:35:41.970696$GNZDA,173541.10,09,12,2023,00,00*75
###2023-12-09 12:35:41.971474$GNEBP,,,,,,M*13
###2023-12-09 12:35:42.133694$GNGGA,173541.30,4138.0517208,N,07032.4180208,W,1,23,0.7,13.273,M,-29.745,M,0.0,*5C
###2023-12-09 12:35:42.333740$GNGGA,173541.50,4138.0516806,N,07032.4178597,W,1,23,0.7,13.265,M,-29.745,M,0.0,*5E
###2023-12-09 12:35:42.534996$GNGGA,173541.70,4138.0516266,N,07032.4177022,W,1,23,0.7,13.272,M,-29.745,M,0.0,*52
###2023-12-09 12:35:42.733890$GNGGA,173541.90,4138.0515723,N,07032.4175420,W,1,23,0.7,13.267,M,-29.745,M,0.0,*5B
###2023-12-09 12:35:42.934540$GNRMC,173542.10,A,4138.0515241,N,07032.4173833,W,2.35,115.16,091223,,,A*5F
###2023-12-09 12:35:42.938284$GNGGA,173542.10,4138.0515241,N,07032.4173833,W,1,23,0.7,13.253,M,-29.745,M,0.0,*5E
###2023-12-09 12:35:42.940807$GPGSA,A,3,03,04,16,26,28,29,31,32,,,,,1.2,0.7,1.0*31
###2023-12-09 12:35:42.943095$GLGSA,A,3,71,72,73,74,75,,,,,,,,1.2,0.7,1.0*2D
###2023-12-09 12:35:42.945241$GAGSA,A,3,04,19,21,27,,,,,,,,,1.2,0.7,1.0*2C
###2023-12-09 12:35:42.947421$GBGSA,A,3,14,24,25,26,33,,,,,,,,1.2,0.7,1.0*25
###2023-12-09 12:35:42.950434$GPGSV,2,1,08,03,39,277,44,04,22,311,40,16,37,207,43,26,66,206,47*78
###2023-12-09 12:35:42.953416$GPGSV,2,2,08,28,58,056,43,29,25,074,43,31,73,001,47,32,30,134,43*7D
###2023-12-09 12:35:42.956381$GLGSV,2,1,05,71,56,169,46,72,66,308,46,73,47,034,47,74,71,293,43*6F
###2023-12-09 12:35:42.958275$GLGSV,2,2,05,75,22,241,44,,,,,,,,,,,,*55
###2023-12-09 12:35:42.961236$GAGSV,1,1,04,04,21,311,42,19,81,302,40,21,78,176,45,27,41,049,43*6D
###2023-12-09 12:35:42.964249$GBGSV,2,1,05,14,55,197,44,24,80,347,48,25,33,253,42,26,35,057,45*61
###2023-12-09 12:35:42.966139$GBGSV,2,2,05,33,63,253,48,,,,,,,,,,,,*53
###2023-12-09 12:35:42.967879$GNVTG,115.16,T,,M,2.35,N,4.36,K,A*24
###2023-12-09 12:35:42.969998$GNGST,173542.10,18.000,,,,0.082,0.072,0.170*50
###2023-12-09 12:35:42.971702$GNZDA,173542.10,09,12,2023,00,00*76
###2023-12-09 12:35:42.972609$GNEBP,,,,,,M*13
###2023-12-09 12:35:43.133742$GNGGA,173542.30,4138.0514602,N,07032.4172264,W,1,23,0.7,13.252,M,-29.745,M,0.0,*56
###2023-12-09 12:35:43.334681$GNGGA,173542.50,4138.0513927,N,07032.4170795,W,1,23,0.7,13.243,M,-29.745,M,0.0,*56
###2023-12-09 12:35:43.533025$GNGGA,173542.70,4138.0513191,N,07032.4169404,W,1,23,0.7,13.249,M,-29.745,M,0.0,*58
###2023-12-09 12:35:43.732966$GNGGA,173542.90,4138.0512341,N,07032.4167989,W,1,23,0.7,13.246,M,-29.745,M,0.0,*51
###2023-12-09 12:35:43.934596$GNRMC,173543.10,A,4138.0511608,N,07032.4166573,W,2.27,127.23,091223,,,A*5A
###2023-12-09 12:35:43.938044$GNGGA,173543.10,4138.0511608,N,07032.4166573,W,1,23,0.7,13.229,M,-29.745,M,0.0,*52
###2023-12-09 12:35:43.940298$GPGSA,A,3,03,04,16,26,28,29,31,32,,,,,1.2,0.7,1.0*31
###2023-12-09 12:35:43.942281$GLGSA,A,3,71,72,73,74,75,,,,,,,,1.2,0.7,1.0*2D
###2023-12-09 12:35:43.944209$GAGSA,A,3,04,19,21,27,,,,,,,,,1.2,0.7,1.0*2C
###2023-12-09 12:35:43.946199$GBGSA,A,3,14,24,25,26,33,,,,,,,,1.2,0.7,1.0*25
###2023-12-09 12:35:43.949060$GPGSV,2,1,08,03,39,277,42,04,22,311,41,16,37,207,44,26,66,206,47*78
###2023-12-09 12:35:43.951925$GPGSV,2,2,08,28,58,056,45,29,25,074,43,31,73,001,46,32,30,134,43*7A
###2023-12-09 12:35:43.954762$GLGSV,2,1,05,71,56,169,46,72,66,308,46,73,47,034,47,74,71,293,43*6F
###2023-12-09 12:35:43.956529$GLGSV,2,2,05,75,22,241,44,,,,,,,,,,,,*55
###2023-12-09 12:35:43.959344$GAGSV,1,1,04,04,21,311,42,19,81,302,40,21,78,176,46,27,41,049,45*68
###2023-12-09 12:35:43.962148$GBGSV,2,1,05,14,55,197,44,24,80,347,48,25,33,253,45,26,35,057,45*66
###2023-12-09 12:35:43.963919$GBGSV,2,2,05,33,63,253,47,,,,,,,,,,,,*5C
###2023-12-09 12:35:43.965517$GNVTG,127.23,T,,M,2.27,N,4.21,K,A*26
###2023-12-09 12:35:43.967571$GNGST,173543.10,19.000,,,,0.082,0.072,0.170*50
###2023-12-09 12:35:43.969136$GNZDA,173543.10,09,12,2023,00,00*77
###2023-12-09 12:35:43.969907$GNEBP,,,,,,M*13
###2023-12-09 12:35:44.135174$GNGGA,173543.30,4138.0510736,N,07032.4165257,W,1,23,0.7,13.243,M,-29.745,M,0.0,*53
###2023-12-09 12:35:44.335307$GNGGA,173543.50,4138.0509771,N,07032.4163970,W,1,23,0.7,13.240,M,-29.745,M,0.0,*55
###2023-12-09 12:35:44.537528$GNGGA,173543.70,4138.0508856,N,07032.4162700,W,1,23,0.7,13.231,M,-29.745,M,0.0,*52
###2023-12-09 12:35:44.732314$GNGGA,173543.90,4138.0507879,N,07032.4161462,W,1,23,0.7,13.229,M,-29.745,M,0.0,*53
###2023-12-09 12:35:44.937025$GNRMC,173544.10,A,4138.0506865,N,07032.4160232,W,2.41,137.31,091223,,,A*58
###2023-12-09 12:35:44.939908$GNGGA,173544.10,4138.0506865,N,07032.4160232,W,1,23,0.7,13.228,M,-29.745,M,0.0,*53
###2023-12-09 12:35:44.941781$GPGSA,A,3,03,04,16,26,28,29,31,32,,,,,1.2,0.7,1.0*31
###2023-12-09 12:35:44.943456$GLGSA,A,3,71,72,73,74,75,,,,,,,,1.2,0.7,1.0*2D
###2023-12-09 12:35:44.945048$GAGSA,A,3,04,19,21,27,,,,,,,,,1.2,0.7,1.0*2C
###2023-12-09 12:35:44.946724$GBGSA,A,3,14,24,25,26,33,,,,,,,,1.2,0.7,1.0*25
###2023-12-09 12:35:44.949079$GPGSV,2,1,08,03,39,277,44,04,22,311,42,16,37,207,43,26,66,206,47*7A
###2023-12-09 12:35:44.951441$GPGSV,2,2,08,28,58,056,45,29,25,074,43,31,73,001,46,32,30,134,44*7D
###2023-12-09 12:35:44.953788$GLGSV,2,1,05,71,56,169,46,72,66,308,46,73,47,034,47,74,71,293,43*6F
###2023-12-09 12:35:44.955276$GLGSV,2,2,05,75,22,241,44,,,,,,,,,,,,*55
###2023-12-09 12:35:44.957623$GAGSV,1,1,04,04,21,311,39,19,81,302,40,21,78,176,46,27,41,049,44*65
###2023-12-09 12:35:44.959985$GBGSV,2,1,05,14,55,197,45,24,80,347,48,25,33,253,45,26,35,057,46*64
###2023-12-09 12:35:44.961452$GBGSV,2,2,05,33,63,253,48,,,,,,,,,,,,*53
###2023-12-09 12:35:44.962803$GNVTG,137.31,T,,M,2.41,N,4.46,K,A*25
###2023-12-09 12:35:44.964465$GNGST,173544.10,18.000,,,,0.082,0.072,0.170*56
###2023-12-09 12:35:44.965767$GNZDA,173544.10,09,12,2023,00,00*70
###2023-12-09 12:35:44.966414$GNEBP,,,,,,M*13
###2023-12-09 12:35:45.134101$GNGGA,173544.30,4138.0505832,N,07032.4159016,W,1,23,0.7,13.230,M,-29.745,M,0.0,*57
###2023-12-09 12:35:45.332186$GNGGA,173544.50,4138.0504738,N,07032.4157890,W,1,23,0.7,13.231,M,-29.745,M,0.0,*5C
###2023-12-09 12:35:45.535198$GNGGA,173544.70,4138.0503615,N,07032.4156739,W,1,23,0.7,13.222,M,-29.745,M,0.0,*58
###2023-12-09 12:35:45.733394$GNGGA,173544.90,4138.0502500,N,07032.4155662,W,1,23,0.7,13.229,M,-29.745,M,0.0,*57
###2023-12-09 12:35:45.934603$GNRMC,173545.10,A,4138.0501365,N,07032.4154610,W,2.45,147.61,091223,,,A*50
###2023-12-09 12:35:45.937490$GNGGA,173545.10,4138.0501365,N,07032.4154610,W,1,23,0.7,13.231,M,-29.745,M,0.0,*55
###2023-12-09 12:35:45.939380$GPGSA,A,3,03,04,16,26,28,29,31,32,,,,,1.2,0.7,1.0*31
###2023-12-09 12:35:45.941044$GLGSA,A,3,71,72,73,74,75,,,,,,,,1.2,0.7,1.0*2D
###2023-12-09 12:35:45.942654$GAGSA,A,3,04,19,21,27,,,,,,,,,1.2,0.7,1.0*2C
###2023-12-09 12:35:45.944328$GBGSA,A,3,14,24,25,26,33,,,,,,,,1.2,0.7,1.0*25
###2023-12-09 12:35:45.946969$GPGSV,2,1,08,03,39,277,45,04,22,311,40,16,37,207,43,26,66,206,47*79
###2023-12-09 12:35:45.949342$GPGSV,2,2,08,28,58,056,45,29,25,074,44,31,73,001,46,32,30,134,43*7D
###2023-12-09 12:35:45.951714$GLGSV,2,1,05,71,56,169,47,72,66,308,47,73,47,034,47,74,71,293,43*6F
###2023-12-09 12:35:45.953187$GLGSV,2,2,05,75,22,241,44,,,,,,,,,,,,*55
###2023-12-09 12:35:45.955537$GAGSV,1,1,04,04,21,311,40,19,81,302,40,21,78,176,46,27,41,049,44*6B
###2023-12-09 12:35:45.957871$GBGSV,2,1,05,14,55,197,44,24,80,347,49,25,33,253,45,26,35,057,46*64
###2023-12-09 12:35:45.959352$GBGSV,2,2,05,33,63,253,49,,,,,,,,,,,,*52
###2023-12-09 12:35:45.960687$GNVTG,147.61,T,,M,2.45,N,4.54,K,A*20
###2023-12-09 12:35:45.962342$GNGST,173545.10,18.000,,,,0.082,0.071,0.170*54
