###2023-12-09 12:49:10.967851$GAGSV,1,1,04,04,25,312,41,19,85,269,40,21,83,162,46,27,37,048,43*63
###2023-12-09 12:49:10.970216$GBGSV,2,1,05,14,49,195,47,24,77,011,48,25,37,257,47,26,30,060,43*67
###2023-12-09 12:49:10.971712$GBGSV,2,2,05,33,61,241,47,,,,,,,,,,,,*5D
###2023-12-09 12:49:10.973048$GNVTG,354.16,T,,M,0.31,N,0.58,K,A*29
###2023-12-09 12:49:10.974718$GNGST,174910.10,18.000,,,,0.077,0.067,0.160*53
###2023-12-09 12:49:10.976018$GNZDA,174910.10,09,12,2023,00,00*7A
###2023-12-09 12:49:10.976660$GNEBP,,,,,,M*13
###2023-12-09 12:49:11.146659$GNGGA,174910.30,4138.0613068,N,07032.3901378,W,1,24,0.6,13.409,M,-29.744,M,0.0,*5C
###2023-12-09 12:49:11.346238$GNGGA,174910.50,4138.0613600,N,07032.3901523,W,1,24,0.6,13.414,M,-29.744,M,0.0,*56
###2023-12-09 12:49:11.547319$GNGGA,174910.70,4138.0613935,N,07032.3901562,W,1,24,0.6,13.434,M,-29.744,M,0.0,*5A
###2023-12-09 12:49:11.746191$GNGGA,174910.90,4138.0613962,N,07032.3901448,W,1,24,0.6,13.451,M,-29.744,M,0.0,*5C
###2023-12-09 12:49:11.946143$GNRMC,174911.10,A,4138.0613991,N,07032.3901396,W,0.35,348.64,091223,,,A*52
###2023-12-09 12:49:11.949041$GNGGA,174911.10,4138.0613991,N,07032.3901396,W,1,24,0.6,13.430,M,-29.744,M,0.0,*5A
###2023-12-09 12:49:11.950931$GPGSA,A,3,03,04,16,26,28,29,31,32,,,,,1.1,0.6,0.9*3B
###2023-12-09 12:49:11.952650$GLGSA,A,3,65,71,72,73,74,75,,,,,,,1.1,0.6,0.9*24
###2023-12-09 12:49:11.954228$GAGSA,A,3,04,19,21,27,,,,,,,,,1.1,0.6,0.9*26
###2023-12-09 12:49:11.955893$GBGSA,A,3,14,24,25,26,33,,,,,,,,1.1,0.6,0.9*2F
###2023-12-09 12:49:11.958215$GPGSV,2,1,08,03,37,269,45,04,27,311,41,16,43,209,46,26,73,208,48*71
###2023-12-09 12:49:11.960557$GPGSV,2,2,08,28,53,064,44,29,26,067,41,31,71,021,46,32,24,137,44*73
###2023-12-09 12:49:11.962894$GLGSV,2,1,06,65,18,329,40,71,48,171,50,72,71,291,46,73,41,038,46*6D
###2023-12-09 12:49:11.964644$GLGSV,2,2,06,74,71,317,42,75,28,247,45,,,,,,,,*6D
###2023-12-09 12:49:11.966974$GAGSV,1,1,04,04,25,312,41,19,85,269,41,21,83,162,46,27,37,048,43*62
###2023-12-09 12:49:11.969302$GBGSV,2,1,05,14,49,195,47,24,77,011,48,25,37,257,47,26,30,060,44*60
###2023-12-09 12:49:11.970762$GBGSV,2,2,05,33,61,241,47,,,,,,,,,,,,*5D
###2023-12-09 12:49:11.972089$GNVTG,348.64,T,,M,0.35,N,0.65,K,A*2B
###2023-12-09 12:49:11.973729$GNGST,174911.10,18.000,,,,0.076,0.067,0.160*53
###2023-12-09 12:49:11.975028$GNZDA,174911.10,09,12,2023,00,00*7B
###2023-12-09 12:49:11.975664$GNEBP,,,,,,M*13
###2023-12-09 12:49:12.146550$GNGGA,174911.30,4138.0614390,N,07032.3901482,W,1,24,0.6,13.418,M,-29.744,M,0.0,*5C
###2023-12-09 12:49:12.347595$GNGGA,174911.50,4138.0614973,N,07032.3901655,W,1,24,0.6,13.425,M,-29.744,M,0.0,*5B
###2023-12-09 12:49:12.546671$GNGGA,174911.70,4138.0615243,N,07032.3901691,W,1,24,0.6,13.450,M,-29.744,M,0.0,*5A
###2023-12-09 12:49:12.747571$GNGGA,174911.90,4138.0615222,N,07032.3901561,W,1,24,0.6,13.480,M,-29.744,M,0.0,*52
###2023-12-09 12:49:12.948777$GNRMC,174912.10,A,4138.0615321,N,07032.3901503,W,0.49,347.45,091223,,,A*5B
###2023-12-09 12:49:12.951669$GNGGA,174912.10,4138.0615321,N,07032.3901503,W,1,24,0.6,13.462,M,-29.744,M,0.0,*53
###2023-12-09 12:49:12.953540$GPGSA,A,3,03,04,16,26,28,29,31,32,,,,,1.1,0.6,0.9*3B
###2023-12-09 12:49:12.955275$GLGSA,A,3,65,71,72,73,74,75,,,,,,,1.1,0.6,0.9*24
###2023-12-09 12:49:12.956874$GAGSA,A,3,04,19,21,27,,,,,,,,,1.1,0.6,0.9*26
###2023-12-09 12:49:12.958524$GBGSA,A,3,14,24,25,26,33,,,,,,,,1.1,0.6,0.9*2F
###2023-12-09 12:49:12.960880$GPGSV,2,1,08,03,37,269,47,04,27,311,42,16,43,209,48,26,73,208,49*7F
###2023-12-09 12:49:12.963239$GPGSV,2,2,08,28,53,064,45,29,26,067,42,31,71,021,47,32,24,137,45*71
###2023-12-09 12:49:12.965576$GLGSV,2,1,06,65,18,329,39,71,48,171,49,72,71,291,46,73,41,038,46*6B
###2023-12-09 12:49:12.967368$GLGSV,2,2,06,74,71,317,42,75,28,247,45,,,,,,,,*6D
###2023-12-09 12:49:12.969704$GAGSV,1,1,04,04,25,312,42,19,85,269,41,21,83,162,47,27,37,048,42*61
###2023-12-09 12:49:12.972057$GBGSV,2,1,05,14,49,195,46,24,77,011,47,25,37,257,46,26,30,060,43*68
###2023-12-09 12:49:12.973515$GBGSV,2,2,05,33,61,241,47,,,,,,,,,,,,*5D
###2023-12-09 12:49:12.974850$GNVTG,347.45,T,,M,0.49,N,0.90,K,A*26
###2023-12-09 12:49:12.976501$GNGST,174912.10,18.000,,,,0.076,0.067,0.160*50
###2023-12-09 12:49:12.977796$GNZDA,174912.10,09,12,2023,00,00*78
###2023-12-09 12:49:12.978436$GNEBP,,,,,,M*13
###2023-12-09 12:49:13.147425$GNGGA,174912.30,4138.0615751,N,07032.3901595,W,1,24,0.6,13.445,M,-29.744,M,0.0,*58
###2023-12-09 12:49:13.347233$GNGGA,174912.50,4138.0616266,N,07032.3901753,W,1,24,0.6,13.438,M,-29.744,M,0.0,*5E
###2023-12-09 12:49:13.545332$GNGGA,174912.70,4138.0616463,N,07032.3901762,W,1,24,0.6,13.458,M,-29.744,M,0.0,*5B
###2023-12-09 12:49:13.746129$GNGGA,174912.90,4138.0616541,N,07032.3901675,W,1,24,0.6,13.491,M,-29.744,M,0.0,*56
###2023-12-09 12:49:13.946082$GNRMC,174913.10,A,4138.0616783,N,07032.3901685,W,0.58,345.45,091223,,,A*5A
###2023-12-09 12:49:13.948986$GNGGA,174913.10,4138.0616783,N,07032.3901685,W,1,24,0.6,13.492,M,-29.744,M,0.0,*5F
###2023-12-09 12:49:13.950889$GPGSA,A,3,03,04,16,26,28,29,31,32,,,,,1.1,0.6,0.9*3B
###2023-12-09 12:49:13.952608$GLGSA,A,3,65,71,72,73,74,75,,,,,,,1.1,0.6,0.9*24
###2023-12-09 12:49:13.954189$GAGSA,A,3,04,19,21,27,,,,,,,,,1.1,0.6,0.9*26
###2023-12-09 12:49:13.955859$GBGSA,A,3,14,24,25,26,33,,,,,,,,1.1,0.6,0.9*2F
###2023-12-09 12:49:13.958194$GPGSV,2,1,08,03,37,269,45,04,27,311,42,16,43,209,47,26,73,208,48*73
###2023-12-09 12:49:13.960582$GPGSV,2,2,08,28,53,064,45,29,26,067,41,31,71,021,48,32,24,137,43*7B
###2023-12-09 12:49:13.962945$GLGSV,2,1,06,65,18,329,43,71,48,171,48,72,71,291,46,73,41,038,46*67
###2023-12-09 12:49:13.964701$GLGSV,2,2,06,74,71,317,43,75,28,247,45,,,,,,,,*6C
###2023-12-09 12:49:13.967062$GAGSV,1,1,04,04,25,312,41,19,85,269,40,21,83,162,46,27,37,048,41*61
###2023-12-09 12:49:13.969398$GBGSV,2,1,05,14,49,195,47,24,77,011,49,25,37,257,48,26,30,060,45*6F
###2023-12-09 12:49:13.970872$GBGSV,2,2,05,33,61,241,48,,,,,,,,,,,,*52
###2023-12-09 12:49:13.972202$GNVTG,345.45,T,,M,0.58,N,1.08,K,A*24
###2023-12-09 12:49:13.973856$GNGST,174913.10,18.000,,,,0.076,0.067,0.160*51
###2023-12-09 12:49:13.975168$GNZDA,174913.10,09,12,2023,00,00*79
###2023-12-09 12:49:13.975811$GNEBP,,,,,,M*13
###2023-12-09 12:49:14.145523$GNGGA,174913.30,4138.0617128,N,07032.3901765,W,1,24,0.6,13.470,M,-29.744,M,0.0,*58
###2023-12-09 12:49:14.346262$GNGGA,174913.50,4138.0617456,N,07032.3901825,W,1,24,0.6,13.448,M,-29.744,M,0.0,*52
###2023-12-09 12:49:14.546219$GNGGA,174913.70,4138.0617711,N,07032.3901856,W,1,24,0.6,13.457,M,-29.744,M,0.0,*5A
###2023-12-09 12:49:14.747156$GNGGA,174913.90,4138.0617938,N,07032.3901853,W,1,24,0.6,13.486,M,-29.744,M,0.0,*58
###2023-12-09 12:49:14.948204$GNRMC,174914.10,A,4138.0618187,N,07032.3901843,W,0.41,345.45,091223,,,A*5D
###2023-12-09 12:49:14.951098$GNGGA,174914.10,4138.0618187,N,07032.3901843,W,1,24,0.6,13.505,M,-29.744,M,0.0,*5F
###2023-12-09 12:49:14.952963$GPGSA,A,3,03,04,16,26,28,29,31,32,,,,,1.1,0.6,0.9*3B
###2023-12-09 12:49:14.954692$GLGSA,A,3,65,71,72,73,74,75,,,,,,,1.1,0.6,0.9*24
###2023-12-09 12:49:14.956282$GAGSA,A,3,04,19,21,27,,,,,,,,,1.1,0.6,0.9*26
###2023-12-09 12:49:14.957928$GBGSA,A,3,14,24,25,26,33,,,,,,,,1.1,0.6,0.9*2F
###2023-12-09 12:49:14.960273$GPGSV,2,1,08,03,37,269,45,04,27,311,42,16,43,209,46,26,73,208,48*72
###2023-12-09 12:49:14.962608$GPGSV,2,2,08,28,53,064,44,29,26,067,40,31,71,021,47,32,24,137,41*76
###2023-12-09 12:49:14.964950$GLGSV,2,1,06,65,18,329,45,71,48,171,46,72,71,291,47,73,41,038,46*6E
###2023-12-09 12:49:14.966710$GLGSV,2,2,06,74,71,317,43,75,28,247,45,,,,,,,,*6C
###2023-12-09 12:49:14.969046$GAGSV,1,1,04,04,25,312,43,19,85,269,41,21,83,162,46,27,37,048,41*62
###2023-12-09 12:49:14.971394$GBGSV,2,1,05,14,49,195,45,24,77,011,48,25,37,257,46,26,30,060,44*63
###2023-12-09 12:49:14.972853$GBGSV,2,2,05,33,61,241,47,,,,,,,,,,,,*5D
###2023-12-09 12:49:14.974179$GNVTG,345.45,T,,M,0.41,N,0.76,K,A*24
###2023-12-09 12:49:14.975840$GNGST,174914.10,18.000,,,,0.075,0.066,0.160*54
###2023-12-09 12:49:14.977137$GNZDA,174914.10,09,12,2023,00,00*7E
###2023-12-09 12:49:14.977777$GNEBP,,,,,,M*13
###2023-12-09 12:49:15.146555$GNGGA,174914.30,4138.0618370,N,07032.3901859,W,1,24,0.6,13.487,M,-29.744,M,0.0,*57
###2023-12-09 12:49:15.346285$GNGGA,174914.50,4138.0618573,N,07032.3901892,W,1,24,0.6,13.472,M,-29.744,M,0.0,*59
###2023-12-09 12:49:15.546246$GNGGA,174914.70,4138.0618968,N,07032.3901982,W,1,24,0.6,13.474,M,-29.744,M,0.0,*5B
###2023-12-09 12:49:15.744985$GNGGA,174914.90,4138.0619349,N,07032.3902082,W,1,24,0.6,13.478,M,-29.744,M,0.0,*5B
###2023-12-09 12:49:15.946082$GNRMC,174915.10,A,4138.0619478,N,07032.3902072,W,0.10,345.45,091223,,,A*55
###2023-12-09 12:49:15.948992$GNGGA,174915.10,4138.0619478,N,07032.3902072,W,1,24,0.6,13.487,M,-29.744,M,0.0,*58
###2023-12-09 12:49:15.950891$GPGSA,A,3,03,04,16,26,28,29,31,32,,,,,1.1,0.6,0.9*3B
###2023-12-09 12:49:15.952614$GLGSA,A,3,65,71,72,73,74,75,,,,,,,1.1,0.6,0.9*24
###2023-12-09 12:49:15.954200$GAGSA,A,3,04,19,21,27,,,,,,,,,1.1,0.6,0.9*26
