###2023-12-09 13:35:46.030165$GNZDA,183545.10,09,12,2023,00,00*7E
###2023-12-09 13:35:46.030850$GNEBP,,,,,,M*13
###2023-12-09 13:35:46.196588$GNGGA,183545.30,4138.0372631,N,07032.4049549,W,1,26,0.6,13.222,M,-29.745,M,0.0,*5A
###2023-12-09 13:35:46.395595$GNGGA,183545.50,4138.0373709,N,07032.4049968,W,1,26,0.6,13.221,M,-29.745,M,0.0,*5B
###2023-12-09 13:35:46.596393$GNGGA,183545.70,4138.0374820,N,07032.4050257,W,1,26,0.6,13.225,M,-29.745,M,0.0,*51
###2023-12-09 13:35:46.796025$GNGGA,183545.90,4138.0376004,N,07032.4050360,W,1,26,0.6,13.223,M,-29.745,M,0.0,*50
###2023-12-09 13:35:47.002810$GNRMC,183546.10,A,4138.0377232,N,07032.4050590,W,2.06,350.27,091223,,,A*57
###2023-12-09 13:35:47.005668$GNGGA,183546.10,4138.0377232,N,07032.4050590,W,1,26,0.6,13.222,M,-29.745,M,0.0,*55
###2023-12-09 13:35:47.007531$GPGSA,A,3,03,04,16,26,27,28,29,31,,,,,1.0,0.6,0.9*3E
###2023-12-09 13:35:47.009238$GLGSA,A,3,65,71,72,73,74,75,,,,,,,1.0,0.6,0.9*25
###2023-12-09 13:35:47.010829$GAGSA,A,3,04,19,21,27,,,,,,,,,1.0,0.6,0.9*27
###2023-12-09 13:35:47.012603$GBGSA,A,3,12,14,24,25,26,33,35,,,,,,1.0,0.6,0.9*2B
###2023-12-09 13:35:47.014938$GPGSV,2,1,08,03,26,246,43,04,47,307,45,16,67,223,45,26,83,040,48*73
###2023-12-09 13:35:47.017267$GPGSV,2,2,08,27,17,172,39,28,37,085,45,29,20,046,42,31,59,067,47*7F
###2023-12-09 13:35:47.019606$GLGSV,2,1,06,65,39,318,42,71,22,175,43,72,62,220,46,73,22,052,42*61
###2023-12-09 13:35:47.021354$GLGSV,2,2,06,74,59,015,41,75,44,272,46,,,,,,,,*6A
###2023-12-09 13:35:47.023684$GAGSV,1,1,04,04,40,310,44,19,72,181,42,21,77,046,46,27,22,050,40*6A
###2023-12-09 13:35:47.026050$GBGSV,2,1,07,12,15,126,39,14,29,190,40,24,62,046,48,25,51,276,45*68
###2023-12-09 13:35:47.028096$GBGSV,2,2,07,26,16,071,43,33,45,217,46,35,16,056,42,,,,*5D
###2023-12-09 13:35:47.029423$GNVTG,350.27,T,,M,2.06,N,3.82,K,A*2D
###2023-12-09 13:35:47.031053$GNGST,183546.10,5.600,,,,0.095,0.070,0.160*64
###2023-12-09 13:35:47.032342$GNZDA,183546.10,09,12,2023,00,00*7D
###2023-12-09 13:35:47.032979$GNEBP,,,,,,M*13
###2023-12-09 13:35:47.198864$GNGGA,183546.30,4138.0378446,N,07032.4050985,W,1,26,0.6,13.222,M,-29.745,M,0.0,*55
###2023-12-09 13:35:47.395494$GNGGA,183546.50,4138.0379641,N,07032.4051488,W,1,26,0.6,13.221,M,-29.745,M,0.0,*55
###2023-12-09 13:35:47.595616$GNGGA,183546.70,4138.0380879,N,07032.4051945,W,1,26,0.6,13.228,M,-29.745,M,0.0,*51
###2023-12-09 13:35:47.796032$GNGGA,183546.90,4138.0382143,N,07032.4052225,W,1,26,0.6,13.233,M,-29.745,M,0.0,*59
###2023-12-09 13:35:48.000063$GNRMC,183547.10,A,4138.0383381,N,07032.4052681,W,2.20,339.56,091223,,,A*58
###2023-12-09 13:35:48.002924$GNGGA,183547.10,4138.0383381,N,07032.4052681,W,1,27,0.6,13.225,M,-29.745,M,0.0,*51
###2023-12-09 13:35:48.004777$GPGSA,A,3,03,04,16,26,27,28,29,31,,,,,1.0,0.6,0.8*3F
###2023-12-09 13:35:48.006550$GLGSA,A,3,65,71,72,73,74,75,83,,,,,,1.0,0.6,0.8*2F
###2023-12-09 13:35:48.008138$GAGSA,A,3,04,19,21,27,,,,,,,,,1.0,0.6,0.8*26
###2023-12-09 13:35:48.009902$GBGSA,A,3,12,14,24,25,26,33,35,,,,,,1.0,0.6,0.8*2A
###2023-12-09 13:35:48.012231$GPGSV,2,1,08,03,26,246,44,04,47,307,44,16,67,223,45,26,83,040,48*75
###2023-12-09 13:35:48.014551$GPGSV,2,2,08,27,17,172,39,28,37,085,45,29,20,046,44,31,59,067,47*79
###2023-12-09 13:35:48.016921$GLGSV,2,1,07,65,39,318,40,71,22,175,43,72,62,220,45,73,22,052,45*66
###2023-12-09 13:35:48.018996$GLGSV,2,2,07,74,59,015,40,75,44,272,47,83,15,047,36,,,,*52
###2023-12-09 13:35:48.021315$GAGSV,1,1,04,04,40,310,42,19,72,181,42,21,77,046,46,27,22,050,42*6E
###2023-12-09 13:35:48.023642$GBGSV,2,1,07,12,15,126,42,14,29,190,40,24,62,046,49,25,51,276,47*67
###2023-12-09 13:35:48.025673$GBGSV,2,2,07,26,16,071,42,33,45,217,47,35,16,056,44,,,,*5B
###2023-12-09 13:35:48.027007$GNVTG,339.56,T,,M,2.20,N,4.07,K,A*2A
###2023-12-09 13:35:48.028618$GNGST,183547.10,6.000,,,,0.094,0.069,0.160*69
###2023-12-09 13:35:48.029903$GNZDA,183547.10,09,12,2023,00,00*7C
###2023-12-09 13:35:48.030538$GNEBP,,,,,,M*13
###2023-12-09 13:35:48.197559$GNGGA,183547.30,4138.0384497,N,07032.4053350,W,1,27,0.6,13.232,M,-29.745,M,0.0,*5A
###2023-12-09 13:35:48.396498$GNGGA,183547.50,4138.0385629,N,07032.4054074,W,1,27,0.6,13.247,M,-29.745,M,0.0,*5A
###2023-12-09 13:35:48.596985$GNGGA,183547.70,4138.0386806,N,07032.4054794,W,1,27,0.6,13.249,M,-29.745,M,0.0,*5F
###2023-12-09 13:35:48.796521$GNGGA,183547.90,4138.0387962,N,07032.4055597,W,1,27,0.6,13.243,M,-29.745,M,0.0,*59
###2023-12-09 13:35:49.000168$GNRMC,183548.10,A,4138.0389110,N,07032.4056591,W,2.31,324.00,091223,,,A*5E
###2023-12-09 13:35:49.003063$GNGGA,183548.10,4138.0389110,N,07032.4056591,W,1,27,0.6,13.245,M,-29.745,M,0.0,*5E
###2023-12-09 13:35:49.004929$GPGSA,A,3,03,04,16,26,27,28,29,31,,,,,1.0,0.6,0.8*3F
###2023-12-09 13:35:49.006721$GLGSA,A,3,65,71,72,73,74,75,83,,,,,,1.0,0.6,0.8*2F
###2023-12-09 13:35:49.008300$GAGSA,A,3,04,19,21,27,,,,,,,,,1.0,0.6,0.8*26
###2023-12-09 13:35:49.010076$GBGSA,A,3,12,14,24,25,26,33,35,,,,,,1.0,0.6,0.8*2A
###2023-12-09 13:35:49.012414$GPGSV,2,1,08,03,26,246,45,04,47,307,42,16,67,223,46,26,83,040,48*71
###2023-12-09 13:35:49.014762$GPGSV,2,2,08,27,17,172,36,28,37,085,44,29,20,046,43,31,59,067,48*7F
###2023-12-09 13:35:49.017100$GLGSV,2,1,07,65,39,318,38,71,22,175,43,72,62,220,47,73,22,052,44*6A
###2023-12-09 13:35:49.019148$GLGSV,2,2,07,74,59,015,42,75,44,272,46,83,15,047,35,,,,*52
###2023-12-09 13:35:49.021474$GAGSV,1,1,04,04,40,310,39,19,72,181,41,21,77,046,46,27,22,050,41*62
###2023-12-09 13:35:49.023805$GBGSV,2,1,07,12,15,126,42,14,29,190,40,24,62,046,49,25,51,276,47*67
###2023-12-09 13:35:49.025842$GBGSV,2,2,07,26,16,071,42,33,45,217,47,35,16,056,41,,,,*5E
###2023-12-09 13:35:49.027176$GNVTG,324.00,T,,M,2.31,N,4.28,K,A*28
###2023-12-09 13:35:49.028787$GNGST,183548.10,6.700,,,,0.095,0.069,0.160*60
###2023-12-09 13:35:49.030074$GNZDA,183548.10,09,12,2023,00,00*73
###2023-12-09 13:35:49.030723$GNEBP,,,,,,M*13
###2023-12-09 13:35:49.198290$GNGGA,183548.30,4138.0390212,N,07032.4057657,W,1,27,0.6,13.242,M,-29.745,M,0.0,*5A
###2023-12-09 13:35:49.398905$GNGGA,183548.50,4138.0391368,N,07032.4058707,W,1,27,0.6,13.244,M,-29.745,M,0.0,*5C
###2023-12-09 13:35:49.596551$GNGGA,183548.70,4138.0392520,N,07032.4059807,W,1,26,0.6,13.240,M,-29.745,M,0.0,*5C
###2023-12-09 13:35:49.797305$GNGGA,183548.90,4138.0393573,N,07032.4061030,W,1,27,0.6,13.249,M,-29.745,M,0.0,*5A
###2023-12-09 13:35:50.000069$GNRMC,183549.10,A,4138.0394568,N,07032.4062360,W,2.55,315.08,091223,,,A*5F
###2023-12-09 13:35:50.002922$GNGGA,183549.10,4138.0394568,N,07032.4062360,W,1,26,0.6,13.248,M,-29.745,M,0.0,*5B
###2023-12-09 13:35:50.004775$GPGSA,A,3,03,04,16,26,27,28,29,31,,,,,1.0,0.6,0.9*3E
###2023-12-09 13:35:50.006474$GLGSA,A,3,65,71,72,73,74,75,,,,,,,1.0,0.6,0.9*25
###2023-12-09 13:35:50.008064$GAGSA,A,3,04,19,21,27,,,,,,,,,1.0,0.6,0.9*27
###2023-12-09 13:35:50.009824$GBGSA,A,3,12,14,24,25,26,33,35,,,,,,1.0,0.6,0.9*2B
###2023-12-09 13:35:50.012147$GPGSV,2,1,08,03,26,246,44,04,47,307,42,16,67,223,46,26,83,040,48*70
###2023-12-09 13:35:50.014462$GPGSV,2,2,08,27,17,172,38,28,37,085,44,29,20,046,41,31,59,067,47*7C
###2023-12-09 13:35:50.016793$GLGSV,2,1,06,65,39,318,40,71,22,175,43,72,62,220,46,73,22,052,44*65
###2023-12-09 13:35:50.018525$GLGSV,2,2,06,74,59,015,41,75,44,272,46,,,,,,,,*6A
###2023-12-09 13:35:50.020846$GAGSV,1,1,04,04,40,310,41,19,72,181,41,21,77,046,47,27,22,050,41*6C
###2023-12-09 13:35:50.023176$GBGSV,2,1,07,12,15,126,42,14,29,190,42,24,62,046,48,25,51,276,46*65
###2023-12-09 13:35:50.025198$GBGSV,2,2,07,26,16,071,42,33,45,217,48,35,16,056,41,,,,*51
###2023-12-09 13:35:50.026521$GNVTG,315.08,T,,M,2.55,N,4.72,K,A*2F
###2023-12-09 13:35:50.028135$GNGST,183549.10,5.300,,,,0.095,0.069,0.160*66
###2023-12-09 13:35:50.029414$GNZDA,183549.10,09,12,2023,00,00*72
###2023-12-09 13:35:50.030048$GNEBP,,,,,,M*13
###2023-12-09 13:35:50.197338$GNGGA,183549.30,4138.0395632,N,07032.4063670,W,1,25,0.6,13.244,M,-29.745,M,0.0,*5E
###2023-12-09 13:35:50.398110$GNGGA,183549.50,4138.0396750,N,07032.4064892,W,1,26,0.6,13.242,M,-29.745,M,0.0,*5E
###2023-12-09 13:35:50.598378$GNGGA,183549.70,4138.0397823,N,07032.4066136,W,1,27,0.6,13.244,M,-29.745,M,0.0,*54
###2023-12-09 13:35:50.797922$GNGGA,183549.90,4138.0398849,N,07032.4067473,W,1,26,0.6,13.246,M,-29.745,M,0.0,*5F
###2023-12-09 13:35:51.003381$GNRMC,183550.10,A,4138.0399855,N,07032.4068857,W,2.55,314.87,091223,,,A*5A
###2023-12-09 13:35:51.006891$GNGGA,183550.10,4138.0399855,N,07032.4068857,W,1,26,0.6,13.242,M,-29.745,M,0.0,*52
###2023-12-09 13:35:51.009078$GPGSA,A,3,03,04,16,26,28,29,31,,,,,,1.0,0.6,0.9*3B
###2023-12-09 13:35:51.011251$GLGSA,A,3,65,71,72,73,74,75,83,,,,,,1.0,0.6,0.9*2E
###2023-12-09 13:35:51.013171$GAGSA,A,3,04,19,21,27,,,,,,,,,1.0,0.6,0.9*27
###2023-12-09 13:35:51.015328$GBGSA,A,3,12,14,24,25,26,33,35,,,,,,1.0,0.6,0.9*2B
###2023-12-09 13:35:51.018153$GPGSV,2,1,07,03,26,246,44,04,47,307,42,16,67,223,45,26,83,040,48*7C
###2023-12-09 13:35:51.020642$GPGSV,2,2,07,28,37,085,44,29,20,046,43,31,59,067,47,,,,*4D
###2023-12-09 13:35:51.023471$GLGSV,2,1,07,65,39,318,40,71,22,175,44,72,62,220,46,73,22,052,44*63
###2023-12-09 13:35:51.025960$GLGSV,2,2,07,74,59,015,42,75,44,272,47,83,15,047,35,,,,*53
