###2023-12-09 13:01:19.971465$GNGGA,180119.10,4138.0460466,N,07032.2555183,W,1,24,0.6,13.432,M,-29.743,M,0.0,*5D
###2023-12-09 13:01:19.973351$GPGSA,A,3,03,04,16,26,28,29,31,32,,,,,1.1,0.6,0.9*3B
###2023-12-09 13:01:19.975091$GLGSA,A,3,65,71,72,73,74,75,,,,,,,1.1,0.6,0.9*24
###2023-12-09 13:01:19.976691$GAGSA,A,3,04,19,21,27,,,,,,,,,1.1,0.6,0.9*26
###2023-12-09 13:01:19.978347$GBGSA,A,3,14,24,25,26,33,,,,,,,,1.1,0.6,0.9*2F
###2023-12-09 13:01:19.980693$GPGSV,2,1,08,03,35,261,43,04,33,311,42,16,50,212,46,26,79,210,48*70
###2023-12-09 13:01:19.983039$GPGSV,2,2,08,28,49,070,43,29,25,061,39,31,69,036,46,32,19,140,42*77
###2023-12-09 13:01:19.985375$GLGSV,2,1,06,65,24,327,42,71,41,173,47,72,73,269,46,73,36,041,44*6A
###2023-12-09 13:01:19.987137$GLGSV,2,2,06,74,70,337,42,75,32,253,44,,,,,,,,*61
###2023-12-09 13:01:19.989459$GAGSV,1,1,04,04,29,312,43,19,84,216,41,21,86,120,46,27,33,048,42*63
###2023-12-09 13:01:19.991800$GBGSV,2,1,05,14,43,193,45,24,74,024,48,25,41,262,46,26,26,063,41*6C
###2023-12-09 13:01:19.993260$GBGSV,2,2,05,33,57,233,46,,,,,,,,,,,,*5C
###2023-12-09 13:01:19.994550$GNVTG,32.36,T,,M,3.21,N,5.94,K,A*1F
###2023-12-09 13:01:19.996220$GNGST,180119.10,18.000,,,,0.081,0.069,0.160*5E
###2023-12-09 13:01:19.997509$GNZDA,180119.10,09,12,2023,00,00*70
###2023-12-09 13:01:19.998147$GNEBP,,,,,,M*13
###2023-12-09 13:01:20.165560$GNGGA,180119.30,4138.0462027,N,07032.2554103,W,1,24,0.6,13.450,M,-29.743,M,0.0,*51
###2023-12-09 13:01:20.365486$GNGGA,180119.50,4138.0463632,N,07032.2553058,W,1,24,0.6,13.443,M,-29.743,M,0.0,*5E
###2023-12-09 13:01:20.567576$GNGGA,180119.70,4138.0465163,N,07032.2551745,W,1,24,0.6,13.423,M,-29.743,M,0.0,*56
###2023-12-09 13:01:20.768237$GNGGA,180119.90,4138.0466760,N,07032.2550498,W,1,24,0.6,13.420,M,-29.743,M,0.0,*5F
###2023-12-09 13:01:20.974244$GNRMC,180120.10,A,4138.0468497,N,07032.2549549,W,3.42,20.40,091223,,,A*6B
###2023-12-09 13:01:20.977764$GNGGA,180120.10,4138.0468497,N,07032.2549549,W,1,24,0.6,13.436,M,-29.743,M,0.0,*5A
###2023-12-09 13:01:20.980027$GPGSA,A,3,03,04,16,26,28,29,31,32,,,,,1.1,0.6,0.9*3B
###2023-12-09 13:01:20.982116$GLGSA,A,3,65,71,72,73,74,75,,,,,,,1.1,0.6,0.9*24
###2023-12-09 13:01:20.984055$GAGSA,A,3,04,19,21,27,,,,,,,,,1.1,0.6,0.9*26
###2023-12-09 13:01:20.986060$GBGSA,A,3,14,24,25,26,33,,,,,,,,1.1,0.6,0.9*2F
###2023-12-09 13:01:20.988885$GPGSV,2,1,08,03,35,261,42,04,33,311,42,16,50,212,46,26,79,210,47*7E
###2023-12-09 13:01:20.991728$GPGSV,2,2,08,28,49,070,44,29,25,061,40,31,69,036,46,32,19,140,42*7E
###2023-12-09 13:01:20.994551$GLGSV,2,1,06,65,24,327,42,71,41,173,47,72,73,269,46,73,36,041,44*6A
###2023-12-09 13:01:20.996682$GLGSV,2,2,06,74,70,337,42,75,32,253,44,,,,,,,,*61
###2023-12-09 13:01:20.999514$GAGSV,1,1,04,04,29,312,42,19,84,216,41,21,86,120,46,27,33,048,41*61
###2023-12-09 13:01:21.002342$GBGSV,2,1,05,14,43,193,45,24,74,024,48,25,41,262,46,26,26,063,42*6F
###2023-12-09 13:01:21.004144$GBGSV,2,2,05,33,57,233,48,,,,,,,,,,,,*52
###2023-12-09 13:01:21.005711$GNVTG,20.40,T,,M,3.42,N,6.34,K,A*11
###2023-12-09 13:01:21.007719$GNGST,180120.10,18.000,,,,0.081,0.069,0.160*54
###2023-12-09 13:01:21.009285$GNZDA,180120.10,09,12,2023,00,00*7A
###2023-12-09 13:01:21.010057$GNEBP,,,,,,M*13
###2023-12-09 13:01:21.168497$GNGGA,180120.30,4138.0470273,N,07032.2548707,W,1,24,0.6,13.438,M,-29.743,M,0.0,*5A
###2023-12-09 13:01:21.365652$GNGGA,180120.50,4138.0472034,N,07032.2547776,W,1,24,0.6,13.440,M,-29.743,M,0.0,*59
###2023-12-09 13:01:21.565382$GNGGA,180120.70,4138.0473826,N,07032.2546736,W,1,24,0.6,13.428,M,-29.743,M,0.0,*5A
###2023-12-09 13:01:21.766738$GNGGA,180120.90,4138.0475601,N,07032.2545917,W,1,24,0.6,13.408,M,-29.743,M,0.0,*55
###2023-12-09 13:01:21.967877$GNRMC,180121.10,A,4138.0477352,N,07032.2545416,W,3.27,11.53,091223,,,A*6E
###2023-12-09 13:01:21.970743$GNGGA,180121.10,4138.0477352,N,07032.2545416,W,1,24,0.6,13.405,M,-29.743,M,0.0,*5C
###2023-12-09 13:01:21.972599$GPGSA,A,3,03,04,16,26,28,29,31,32,,,,,1.1,0.6,0.9*3B
###2023-12-09 13:01:21.974314$GLGSA,A,3,65,71,72,73,74,75,,,,,,,1.1,0.6,0.9*24
###2023-12-09 13:01:21.975906$GAGSA,A,3,04,19,21,27,,,,,,,,,1.1,0.6,0.9*26
###2023-12-09 13:01:21.977549$GBGSA,A,3,14,24,25,26,33,,,,,,,,1.1,0.6,0.9*2F
###2023-12-09 13:01:21.979875$GPGSV,2,1,08,03,35,261,44,04,33,311,43,16,50,212,47,26,79,210,49*76
###2023-12-09 13:01:21.982194$GPGSV,2,2,08,28,49,070,44,29,25,061,41,31,69,036,46,32,19,140,42*7F
###2023-12-09 13:01:21.984531$GLGSV,2,1,06,65,24,327,41,71,41,173,48,72,73,269,46,73,36,041,43*61
###2023-12-09 13:01:21.986282$GLGSV,2,2,06,74,70,337,42,75,32,253,46,,,,,,,,*63
###2023-12-09 13:01:21.988608$GAGSV,1,1,04,04,29,312,41,19,84,216,41,21,86,120,46,27,33,048,41*62
###2023-12-09 13:01:21.990942$GBGSV,2,1,05,14,43,193,45,24,74,024,48,25,41,262,47,26,26,063,42*6E
###2023-12-09 13:01:21.992394$GBGSV,2,2,05,33,57,233,49,,,,,,,,,,,,*53
###2023-12-09 13:01:21.993681$GNVTG,11.53,T,,M,3.27,N,6.05,K,A*10
###2023-12-09 13:01:21.995329$GNGST,180121.10,18.000,,,,0.081,0.069,0.160*55
###2023-12-09 13:01:21.996650$GNZDA,180121.10,09,12,2023,00,00*7B
###2023-12-09 13:01:21.997289$GNEBP,,,,,,M*13
###2023-12-09 13:01:22.163946$GNGGA,180121.30,4138.0479065,N,07032.2544837,W,1,24,0.6,13.410,M,-29.743,M,0.0,*5D
###2023-12-09 13:01:22.365423$GNGGA,180121.50,4138.0480761,N,07032.2544349,W,1,24,0.6,13.413,M,-29.743,M,0.0,*5F
###2023-12-09 13:01:22.564694$GNGGA,180121.70,4138.0482445,N,07032.2544019,W,1,24,0.6,13.422,M,-29.743,M,0.0,*5E
###2023-12-09 13:01:22.765922$GNGGA,180121.90,4138.0484115,N,07032.2543772,W,1,24,0.6,13.420,M,-29.743,M,0.0,*59
###2023-12-09 13:01:22.966770$GNRMC,180122.10,A,4138.0485756,N,07032.2543708,W,2.95,0.55,091223,,,A*54
###2023-12-09 13:01:22.969642$GNGGA,180122.10,4138.0485756,N,07032.2543708,W,1,24,0.6,13.420,M,-29.743,M,0.0,*5F
###2023-12-09 13:01:22.971512$GPGSA,A,3,03,04,16,26,28,29,31,32,,,,,1.1,0.6,0.9*3B
###2023-12-09 13:01:22.973234$GLGSA,A,3,65,71,72,73,74,75,,,,,,,1.1,0.6,0.9*24
###2023-12-09 13:01:22.974835$GAGSA,A,3,04,19,21,27,,,,,,,,,1.1,0.6,0.9*26
###2023-12-09 13:01:22.976485$GBGSA,A,3,14,24,25,26,33,,,,,,,,1.1,0.6,0.9*2F
###2023-12-09 13:01:22.978838$GPGSV,2,1,08,03,35,261,44,04,33,311,43,16,50,212,46,26,79,210,49*77
###2023-12-09 13:01:22.981178$GPGSV,2,2,08,28,49,070,45,29,25,061,43,31,69,036,46,32,19,140,42*7C
###2023-12-09 13:01:22.983528$GLGSV,2,1,06,65,24,327,37,71,41,173,47,72,73,269,45,73,36,041,44*6B
###2023-12-09 13:01:22.985278$GLGSV,2,2,06,74,70,337,42,75,32,253,46,,,,,,,,*63
###2023-12-09 13:01:22.987615$GAGSV,1,1,04,04,29,312,43,19,84,216,41,21,86,120,46,27,33,048,42*63
###2023-12-09 13:01:22.989984$GBGSV,2,1,05,14,43,193,44,24,74,024,47,25,41,262,46,26,26,063,42*61
###2023-12-09 13:01:22.991460$GBGSV,2,2,05,33,57,233,47,,,,,,,,,,,,*5D
###2023-12-09 13:01:22.992724$GNVTG,0.55,T,,M,2.95,N,5.47,K,A*2B
###2023-12-09 13:01:22.994381$GNGST,180122.10,18.000,,,,0.081,0.068,0.160*57
###2023-12-09 13:01:22.995689$GNZDA,180122.10,09,12,2023,00,00*78
###2023-12-09 13:01:22.996332$GNEBP,,,,,,M*13
###2023-12-09 13:01:23.163798$GNGGA,180122.30,4138.0487382,N,07032.2543713,W,1,24,0.6,13.430,M,-29.743,M,0.0,*59
###2023-12-09 13:01:23.364315$GNGGA,180122.50,4138.0489036,N,07032.2543647,W,1,24,0.6,13.440,M,-29.743,M,0.0,*5A
###2023-12-09 13:01:23.564738$GNGGA,180122.70,4138.0490669,N,07032.2543718,W,1,24,0.6,13.444,M,-29.743,M,0.0,*53
###2023-12-09 13:01:23.765085$GNGGA,180122.90,4138.0492276,N,07032.2543957,W,1,24,0.6,13.449,M,-29.743,M,0.0,*5D
###2023-12-09 13:01:23.968019$GNRMC,180123.10,A,4138.0493857,N,07032.2544219,W,2.84,354.19,091223,,,A*54
###2023-12-09 13:01:23.970906$GNGGA,180123.10,4138.0493857,N,07032.2544219,W,1,24,0.6,13.452,M,-29.743,M,0.0,*50
###2023-12-09 13:01:23.972762$GPGSA,A,3,03,04,16,26,28,29,31,32,,,,,1.1,0.6,0.9*3B
###2023-12-09 13:01:23.974479$GLGSA,A,3,65,71,72,73,74,75,,,,,,,1.1,0.6,0.9*24
###2023-12-09 13:01:23.976077$GAGSA,A,3,04,19,21,27,,,,,,,,,1.1,0.6,0.9*26
###2023-12-09 13:01:23.977726$GBGSA,A,3,14,24,25,26,33,,,,,,,,1.1,0.6,0.9*2F
###2023-12-09 13:01:23.980065$GPGSV,2,1,08,03,35,261,45,04,33,311,43,16,50,212,46,26,79,210,48*77
###2023-12-09 13:01:23.982424$GPGSV,2,2,08,28,49,070,45,29,25,061,43,31,69,036,47,32,19,140,43*7C
###2023-12-09 13:01:23.985007$GLGSV,2,1,06,65,24,327,39,71,41,173,47,72,73,269,45,73,36,041,44*65
###2023-12-09 13:01:23.986818$GLGSV,2,2,06,74,70,337,42,75,32,253,46,,,,,,,,*63
###2023-12-09 13:01:23.989160$GAGSV,1,1,04,04,29,312,41,19,84,216,41,21,86,120,46,27,33,048,42*61
###2023-12-09 13:01:23.991497$GBGSV,2,1,05,14,43,193,44,24,74,024,48,25,41,262,46,26,26,063,43*6F
###2023-12-09 13:01:23.992952$GBGSV,2,2,05,33,57,233,48,,,,,,,,,,,,*52
###2023-12-09 13:01:23.994273$GNVTG,354.19,T,,M,2.84,N,5.26,K,A*26
###2023-12-09 13:01:23.995943$GNGST,180123.10,18.000,,,,0.081,0.068,0.160*56
###2023-12-09 13:01:23.997235$GNZDA,180123.10,09,12,2023,00,00*79
###2023-12-09 13:01:23.997868$GNEBP,,,,,,M*13
