###2023-12-09 13:27:02.588528$GNGGA,182701.70,4138.0701262,N,07032.3860860,W,1,24,0.6,13.347,M,-29.744,M,0.0,*5C
###2023-12-09 13:27:02.789401$GNGGA,182701.90,4138.0699567,N,07032.3862032,W,1,24,0.6,13.304,M,-29.744,M,0.0,*5A
###2023-12-09 13:27:02.994171$GNRMC,182702.10,A,4138.0697785,N,07032.3862413,W,3.17,191.46,091223,,,A*5B
###2023-12-09 13:27:02.997049$GNGGA,182702.10,4138.0697785,N,07032.3862413,W,1,24,0.6,13.295,M,-29.744,M,0.0,*5F
###2023-12-09 13:27:02.998854$GPGSA,A,3,03,04,16,26,28,29,31,,,,,,1.1,0.6,0.9*3A
###2023-12-09 13:27:03.000559$GLGSA,A,3,65,71,72,73,74,75,,,,,,,1.1,0.6,0.9*24
###2023-12-09 13:27:03.002132$GAGSA,A,3,04,19,21,27,,,,,,,,,1.1,0.6,0.9*26
###2023-12-09 13:27:03.003847$GBGSA,A,3,14,24,25,26,33,35,,,,,,,1.1,0.6,0.9*29
###2023-12-09 13:27:03.006163$GPGSV,2,1,07,03,29,250,39,04,43,309,45,16,62,219,44,26,88,044,47*7E
###2023-12-09 13:27:03.008202$GPGSV,2,2,07,28,41,081,45,29,22,050,43,31,62,060,46,,,,*42
###2023-12-09 13:27:03.010514$GLGSV,2,1,06,65,35,321,44,71,26,175,42,72,66,227,45,73,25,050,45*66
###2023-12-09 13:27:03.012261$GLGSV,2,2,06,74,62,008,42,75,41,267,46,,,,,,,,*6C
###2023-12-09 13:27:03.014570$GAGSV,1,1,04,04,37,311,43,19,75,184,39,21,80,050,46,27,25,049,42*60
###2023-12-09 13:27:03.016898$GBGSV,2,1,06,14,32,190,42,24,65,042,49,25,49,273,47,26,18,069,45*66
###2023-12-09 13:27:03.018674$GBGSV,2,2,06,33,48,220,46,35,16,059,43,,,,,,,,*69
###2023-12-09 13:27:03.019995$GNVTG,191.46,T,,M,3.17,N,5.87,K,A*27
###2023-12-09 13:27:03.021624$GNGST,182702.10,18.000,,,,0.100,0.073,0.160*53
###2023-12-09 13:27:03.022912$GNZDA,182702.10,09,12,2023,00,00*7E
###2023-12-09 13:27:03.023545$GNEBP,,,,,,M*13
###2023-12-09 13:27:03.192199$GNGGA,182702.30,4138.0696122,N,07032.3863588,W,1,24,0.6,13.354,M,-29.744,M,0.0,*59
###2023-12-09 13:27:03.387259$GNGGA,182702.50,4138.0694556,N,07032.3865191,W,1,24,0.6,13.363,M,-29.744,M,0.0,*54
###2023-12-09 13:27:03.588491$GNGGA,182702.70,4138.0692828,N,07032.3865922,W,1,24,0.6,13.326,M,-29.744,M,0.0,*55
###2023-12-09 13:27:03.788932$GNGGA,182702.90,4138.0691034,N,07032.3866172,W,1,24,0.6,13.287,M,-29.744,M,0.0,*59
###2023-12-09 13:27:03.997288$GNRMC,182703.10,A,4138.0689335,N,07032.3867105,W,3.48,212.22,091223,,,A*5D
###2023-12-09 13:27:04.000164$GNGGA,182703.10,4138.0689335,N,07032.3867105,W,1,24,0.6,13.311,M,-29.744,M,0.0,*54
###2023-12-09 13:27:04.001954$GPGSA,A,3,03,04,16,26,28,29,31,,,,,,1.1,0.6,0.9*3A
###2023-12-09 13:27:04.003676$GLGSA,A,3,65,71,72,73,74,75,,,,,,,1.1,0.6,0.9*24
###2023-12-09 13:27:04.005258$GAGSA,A,3,04,19,21,27,,,,,,,,,1.1,0.6,0.9*26
###2023-12-09 13:27:04.006983$GBGSA,A,3,14,24,25,26,33,35,,,,,,,1.1,0.6,0.9*29
###2023-12-09 13:27:04.009309$GPGSV,2,1,07,03,28,249,39,04,43,309,44,16,62,219,45,26,88,044,47*77
###2023-12-09 13:27:04.011364$GPGSV,2,2,07,28,41,081,44,29,22,050,45,31,62,060,47,,,,*44
###2023-12-09 13:27:04.013695$GLGSV,2,1,06,65,35,321,43,71,26,175,41,72,66,227,45,73,25,050,46*61
###2023-12-09 13:27:04.015451$GLGSV,2,2,06,74,62,008,42,75,41,267,46,,,,,,,,*6C
###2023-12-09 13:27:04.017775$GAGSV,1,1,04,04,37,311,42,19,75,184,39,21,80,050,46,27,25,049,42*61
###2023-12-09 13:27:04.020123$GBGSV,2,1,06,14,32,190,42,24,65,042,49,25,49,273,46,26,18,069,45*67
###2023-12-09 13:27:04.021860$GBGSV,2,2,06,33,48,220,45,35,16,059,45,,,,,,,,*6C
###2023-12-09 13:27:04.023191$GNVTG,212.22,T,,M,3.48,N,6.44,K,A*2B
###2023-12-09 13:27:04.024838$GNGST,182703.10,18.000,,,,0.100,0.073,0.160*52
###2023-12-09 13:27:04.026126$GNZDA,182703.10,09,12,2023,00,00*7F
###2023-12-09 13:27:04.026773$GNEBP,,,,,,M*13
###2023-12-09 13:27:04.188992$GNGGA,182703.30,4138.0687715,N,07032.3868403,W,1,24,0.6,13.331,M,-29.744,M,0.0,*50
###2023-12-09 13:27:04.388334$GNGGA,182703.50,4138.0686059,N,07032.3869222,W,1,24,0.6,13.324,M,-29.744,M,0.0,*58
###2023-12-09 13:27:04.593195$GNGGA,182703.70,4138.0684297,N,07032.3869688,W,1,24,0.6,13.312,M,-29.744,M,0.0,*59
###2023-12-09 13:27:04.789339$GNGGA,182703.90,4138.0682581,N,07032.3870489,W,1,24,0.6,13.287,M,-29.744,M,0.0,*57
###2023-12-09 13:27:04.999786$GNRMC,182704.10,A,4138.0680988,N,07032.3871713,W,3.32,214.04,091223,,,A*56
###2023-12-09 13:27:05.002649$GNGGA,182704.10,4138.0680988,N,07032.3871713,W,1,24,0.6,13.295,M,-29.744,M,0.0,*5D
###2023-12-09 13:27:05.004444$GPGSA,A,3,03,04,16,26,28,29,31,,,,,,1.1,0.6,0.9*3A
###2023-12-09 13:27:05.006150$GLGSA,A,3,65,71,72,73,74,75,,,,,,,1.1,0.6,0.9*24
###2023-12-09 13:27:05.007740$GAGSA,A,3,04,19,21,27,,,,,,,,,1.1,0.6,0.9*26
###2023-12-09 13:27:05.009451$GBGSA,A,3,14,24,25,26,33,35,,,,,,,1.1,0.6,0.9*29
###2023-12-09 13:27:05.011792$GPGSV,2,1,07,03,28,249,40,04,43,309,46,16,62,219,45,26,88,044,48*74
###2023-12-09 13:27:05.013821$GPGSV,2,2,07,28,41,081,44,29,22,050,42,31,62,060,47,,,,*43
###2023-12-09 13:27:05.016149$GLGSV,2,1,06,65,35,321,43,71,26,175,41,72,66,227,45,73,25,050,46*61
###2023-12-09 13:27:05.017893$GLGSV,2,2,06,74,62,008,42,75,41,267,46,,,,,,,,*6C
###2023-12-09 13:27:05.020221$GAGSV,1,1,04,04,37,311,44,19,75,184,40,21,80,050,46,27,25,049,43*68
###2023-12-09 13:27:05.022538$GBGSV,2,1,06,14,32,190,41,24,65,042,48,25,49,273,46,26,18,069,42*62
###2023-12-09 13:27:05.024289$GBGSV,2,2,06,33,48,220,44,35,16,059,42,,,,,,,,*6A
###2023-12-09 13:27:05.025610$GNVTG,214.04,T,,M,3.32,N,6.16,K,A*23
###2023-12-09 13:27:05.027268$GNGST,182704.10,18.000,,,,0.100,0.073,0.170*54
###2023-12-09 13:27:05.028559$GNZDA,182704.10,09,12,2023,00,00*78
###2023-12-09 13:27:05.029198$GNEBP,,,,,,M*13
###2023-12-09 13:27:05.188248$GNGGA,182704.30,4138.0679403,N,07032.3872919,W,1,24,0.6,13.323,M,-29.744,M,0.0,*5C
###2023-12-09 13:27:05.388134$GNGGA,182704.50,4138.0677704,N,07032.3873722,W,1,24,0.6,13.321,M,-29.744,M,0.0,*55
###2023-12-09 13:27:05.589031$GNGGA,182704.70,4138.0675932,N,07032.3874320,W,1,24,0.6,13.257,M,-29.744,M,0.0,*5F
###2023-12-09 13:27:05.789347$GNGGA,182704.90,4138.0674395,N,07032.3875580,W,1,24,0.6,13.269,M,-29.744,M,0.0,*57
###2023-12-09 13:27:05.991819$GNRMC,182705.10,A,4138.0672955,N,07032.3877238,W,3.38,217.55,091223,,,A*5D
###2023-12-09 13:27:05.994707$GNGGA,182705.10,4138.0672955,N,07032.3877238,W,1,24,0.6,13.323,M,-29.744,M,0.0,*57
###2023-12-09 13:27:05.996508$GPGSA,A,3,03,04,16,26,28,29,31,,,,,,1.1,0.6,0.9*3A
###2023-12-09 13:27:05.998220$GLGSA,A,3,65,71,72,73,74,75,,,,,,,1.1,0.6,0.9*24
###2023-12-09 13:27:05.999815$GAGSA,A,3,04,19,21,27,,,,,,,,,1.1,0.6,0.9*26
###2023-12-09 13:27:06.001529$GBGSA,A,3,14,24,25,26,33,35,,,,,,,1.1,0.6,0.9*29
###2023-12-09 13:27:06.003861$GPGSV,2,1,07,03,28,249,40,04,43,309,46,16,62,219,46,26,88,044,47*78
###2023-12-09 13:27:06.005898$GPGSV,2,2,07,28,41,081,44,29,22,050,42,31,62,060,46,,,,*42
###2023-12-09 13:27:06.008226$GLGSV,2,1,06,65,35,321,46,71,26,175,42,72,66,227,45,73,25,050,44*65
###2023-12-09 13:27:06.009968$GLGSV,2,2,06,74,62,008,43,75,41,267,47,,,,,,,,*6C
###2023-12-09 13:27:06.012300$GAGSV,1,1,04,04,37,311,45,19,75,184,40,21,80,050,46,27,25,049,41*6B
###2023-12-09 13:27:06.014627$GBGSV,2,1,06,14,32,190,39,24,65,042,47,25,49,273,47,26,18,069,42*63
###2023-12-09 13:27:06.016371$GBGSV,2,2,06,33,48,220,44,35,16,059,43,,,,,,,,*6B
###2023-12-09 13:27:06.017691$GNVTG,217.55,T,,M,3.38,N,6.26,K,A*2D
###2023-12-09 13:27:06.019345$GNGST,182705.10,18.000,,,,0.100,0.072,0.160*55
###2023-12-09 13:27:06.020637$GNZDA,182705.10,09,12,2023,00,00*79
###2023-12-09 13:27:06.021274$GNEBP,,,,,,M*13
###2023-12-09 13:27:06.190015$GNGGA,182705.30,4138.0671322,N,07032.3878379,W,1,24,0.6,13.312,M,-29.744,M,0.0,*55
###2023-12-09 13:27:06.388290$GNGGA,182705.50,4138.0669652,N,07032.3879230,W,1,24,0.6,13.284,M,-29.744,M,0.0,*5B
###2023-12-09 13:27:06.588471$GNGGA,182705.70,4138.0668134,N,07032.3880701,W,1,24,0.6,13.308,M,-29.744,M,0.0,*5B
###2023-12-09 13:27:06.790838$GNGGA,182705.90,4138.0666631,N,07032.3882361,W,1,24,0.6,13.307,M,-29.744,M,0.0,*56
###2023-12-09 13:27:06.993083$GNRMC,182706.10,A,4138.0665010,N,07032.3883589,W,3.21,208.43,091223,,,A*57
###2023-12-09 13:27:06.995974$GNGGA,182706.10,4138.0665010,N,07032.3883589,W,1,24,0.6,13.271,M,-29.744,M,0.0,*5A
###2023-12-09 13:27:06.997773$GPGSA,A,3,03,04,16,26,28,29,31,,,,,,1.1,0.6,0.9*3A
###2023-12-09 13:27:06.999514$GLGSA,A,3,65,71,72,73,74,75,,,,,,,1.1,0.6,0.9*24
###2023-12-09 13:27:07.001348$GAGSA,A,3,04,19,21,27,,,,,,,,,1.1,0.6,0.9*26
###2023-12-09 13:27:07.003095$GBGSA,A,3,14,24,25,26,33,35,,,,,,,1.1,0.6,0.9*29
###2023-12-09 13:27:07.005429$GPGSV,2,1,07,03,28,249,40,04,43,309,46,16,62,219,45,26,88,044,48*74
###2023-12-09 13:27:07.007480$GPGSV,2,2,07,28,41,081,43,29,22,050,43,31,62,060,47,,,,*45
###2023-12-09 13:27:07.009801$GLGSV,2,1,06,65,35,321,44,71,26,175,42,72,66,227,46,73,25,050,45*65
###2023-12-09 13:27:07.011559$GLGSV,2,2,06,74,62,008,42,75,41,267,47,,,,,,,,*6D
###2023-12-09 13:27:07.013883$GAGSV,1,1,04,04,37,311,45,19,75,184,40,21,80,050,46,27,25,049,41*6B
###2023-12-09 13:27:07.016223$GBGSV,2,1,06,14,32,190,40,24,65,042,48,25,49,273,46,26,18,069,43*62
###2023-12-09 13:27:07.017972$GBGSV,2,2,06,33,48,220,45,35,16,059,42,,,,,,,,*6B
###2023-12-09 13:27:07.019311$GNVTG,208.43,T,,M,3.21,N,5.94,K,A*26
