###2023-12-09 13:17:55.002792$GPGSV,2,1,07,03,31,253,43,04,39,310,45,16,58,216,46,26,88,205,48*70
###2023-12-09 13:17:55.004853$GPGSV,2,2,07,28,43,078,44,29,23,053,40,31,64,053,47,,,,*41
###2023-12-09 13:17:55.007192$GLGSV,2,1,06,65,31,324,42,71,32,174,42,72,70,240,45,73,29,047,41*6D
###2023-12-09 13:17:55.008940$GLGSV,2,2,06,74,65,358,43,75,38,261,47,,,,,,,,*65
###2023-12-09 13:17:55.011277$GAGSV,1,1,04,04,34,311,43,19,78,188,40,21,83,062,46,27,28,049,38*6E
###2023-12-09 13:17:55.013600$GBGSV,2,1,06,14,36,191,45,24,68,036,51,25,45,268,49,26,21,066,45*6E
###2023-12-09 13:17:55.015356$GBGSV,2,2,06,33,52,224,50,35,16,063,45,,,,,,,,*6E
###2023-12-09 13:17:55.016679$GNVTG,178.78,T,,M,3.56,N,6.59,K,A*28
###2023-12-09 13:17:55.018328$GNGST,181754.10,18.000,,,,0.100,0.069,0.170*59
###2023-12-09 13:17:55.019645$GNZDA,181754.10,09,12,2023,00,00*7E
###2023-12-09 13:17:55.020284$GNEBP,,,,,,M*13
###2023-12-09 13:17:55.180873$GNGGA,181754.30,4138.0269858,N,07032.2943746,W,1,24,0.7,12.785,M,-29.744,M,0.0,*53
###2023-12-09 13:17:55.381813$GNGGA,181754.50,4138.0267978,N,07032.2944304,W,1,24,0.7,12.834,M,-29.744,M,0.0,*58
###2023-12-09 13:17:55.582415$GNGGA,181754.70,4138.0265988,N,07032.2944792,W,1,24,0.7,12.808,M,-29.744,M,0.0,*53
###2023-12-09 13:17:55.781375$GNGGA,181754.90,4138.0264135,N,07032.2944614,W,1,24,0.7,12.761,M,-29.744,M,0.0,*5D
###2023-12-09 13:17:55.986709$GNRMC,181755.10,A,4138.0262275,N,07032.2944789,W,3.67,192.80,091223,,,A*54
###2023-12-09 13:17:55.989573$GNGGA,181755.10,4138.0262275,N,07032.2944789,W,1,24,0.7,12.808,M,-29.744,M,0.0,*50
###2023-12-09 13:17:55.991375$GPGSA,A,3,03,04,16,26,28,29,31,,,,,,1.2,0.7,0.9*38
###2023-12-09 13:17:55.993076$GLGSA,A,3,65,71,72,73,74,75,,,,,,,1.2,0.7,0.9*26
###2023-12-09 13:17:55.994659$GAGSA,A,3,04,19,21,27,,,,,,,,,1.2,0.7,0.9*24
###2023-12-09 13:17:55.996365$GBGSA,A,3,14,24,25,26,33,35,,,,,,,1.2,0.7,0.9*2B
###2023-12-09 13:17:55.998691$GPGSV,2,1,07,03,31,253,41,04,39,310,44,16,58,216,45,26,88,205,48*70
###2023-12-09 13:17:56.000722$GPGSV,2,2,07,28,43,078,46,29,23,053,43,31,64,053,48,,,,*4F
###2023-12-09 13:17:56.003047$GLGSV,2,1,06,65,31,324,43,71,32,174,43,72,70,240,45,73,29,047,44*68
###2023-12-09 13:17:56.004793$GLGSV,2,2,06,74,65,358,43,75,38,261,46,,,,,,,,*64
###2023-12-09 13:17:56.007114$GAGSV,1,1,04,04,34,311,43,19,78,188,40,21,83,062,46,27,28,049,42*63
###2023-12-09 13:17:56.009434$GBGSV,2,1,06,14,36,191,43,24,68,036,49,25,45,268,46,26,21,066,46*6D
###2023-12-09 13:17:56.011185$GBGSV,2,2,06,33,52,224,46,35,16,063,46,,,,,,,,*6A
###2023-12-09 13:17:56.012509$GNVTG,192.80,T,,M,3.67,N,6.80,K,A*2D
###2023-12-09 13:17:56.014152$GNGST,181755.10,18.000,,,,0.100,0.069,0.160*59
###2023-12-09 13:17:56.015452$GNZDA,181755.10,09,12,2023,00,00*7F
###2023-12-09 13:17:56.016089$GNEBP,,,,,,M*13
###2023-12-09 13:17:56.180730$GNGGA,181755.30,4138.0260246,N,07032.2945262,W,1,24,0.7,12.811,M,-29.744,M,0.0,*59
###2023-12-09 13:17:56.380624$GNGGA,181755.50,4138.0258378,N,07032.2945063,W,1,24,0.7,12.772,M,-29.744,M,0.0,*51
###2023-12-09 13:17:56.582269$GNGGA,181755.70,4138.0256535,N,07032.2944618,W,1,24,0.7,12.790,M,-29.744,M,0.0,*55
###2023-12-09 13:17:56.781575$GNGGA,181755.90,4138.0254592,N,07032.2944538,W,1,24,0.7,12.804,M,-29.744,M,0.0,*57
###2023-12-09 13:17:56.995466$GNRMC,181756.10,A,4138.0252671,N,07032.2944419,W,3.46,172.88,091223,,,A*5B
###2023-12-09 13:17:56.998324$GNGGA,181756.10,4138.0252671,N,07032.2944419,W,1,24,0.7,12.795,M,-29.744,M,0.0,*51
###2023-12-09 13:17:57.000121$GPGSA,A,3,03,04,16,26,28,29,31,,,,,,1.2,0.7,0.9*38
###2023-12-09 13:17:57.001823$GLGSA,A,3,65,71,72,73,74,75,,,,,,,1.2,0.7,0.9*26
###2023-12-09 13:17:57.003412$GAGSA,A,3,04,19,21,27,,,,,,,,,1.2,0.7,0.9*24
###2023-12-09 13:17:57.005122$GBGSA,A,3,14,24,25,26,33,35,,,,,,,1.2,0.7,0.9*2B
###2023-12-09 13:17:57.007456$GPGSV,2,1,07,03,31,253,44,04,39,310,45,16,58,216,46,26,88,205,48*77
###2023-12-09 13:17:57.009493$GPGSV,2,2,07,28,43,078,46,29,23,053,42,31,64,053,47,,,,*41
###2023-12-09 13:17:57.011829$GLGSV,2,1,06,65,31,324,44,71,32,174,43,72,70,240,45,73,29,047,42*69
###2023-12-09 13:17:57.013577$GLGSV,2,2,06,74,65,358,43,75,38,261,47,,,,,,,,*65
###2023-12-09 13:17:57.015904$GAGSV,1,1,04,04,34,311,44,19,78,188,40,21,83,062,46,27,28,049,40*66
###2023-12-09 13:17:57.018227$GBGSV,2,1,06,14,36,191,41,24,68,036,49,25,45,268,49,26,21,066,43*65
###2023-12-09 13:17:57.019974$GBGSV,2,2,06,33,52,224,49,35,16,063,43,,,,,,,,*60
###2023-12-09 13:17:57.021297$GNVTG,172.88,T,,M,3.46,N,6.41,K,A*25
###2023-12-09 13:17:57.022953$GNGST,181756.10,18.000,,,,0.100,0.069,0.160*5A
###2023-12-09 13:17:57.024241$GNZDA,181756.10,09,12,2023,00,00*7C
###2023-12-09 13:17:57.024879$GNEBP,,,,,,M*13
###2023-12-09 13:17:57.184671$GNGGA,181756.30,4138.0250827,N,07032.2943862,W,1,24,0.7,12.785,M,-29.744,M,0.0,*5A
###2023-12-09 13:17:57.381615$GNGGA,181756.50,4138.0249012,N,07032.2943305,W,1,24,0.7,12.792,M,-29.744,M,0.0,*56
###2023-12-09 13:17:57.582518$GNGGA,181756.70,4138.0247068,N,07032.2943131,W,1,24,0.7,12.800,M,-29.744,M,0.0,*56
###2023-12-09 13:17:57.782356$GNGGA,181756.90,4138.0245148,N,07032.2942928,W,1,24,0.7,12.788,M,-29.744,M,0.0,*57
###2023-12-09 13:17:57.987465$GNRMC,181757.10,A,4138.0243292,N,07032.2942695,W,3.34,175.24,091223,,,A*57
###2023-12-09 13:17:57.990319$GNGGA,181757.10,4138.0243292,N,07032.2942695,W,1,24,0.7,12.787,M,-29.744,M,0.0,*5A
###2023-12-09 13:17:57.992118$GPGSA,A,3,03,04,16,26,28,29,31,,,,,,1.2,0.7,0.9*38
###2023-12-09 13:17:57.993831$GLGSA,A,3,65,71,72,73,74,75,,,,,,,1.2,0.7,0.9*26
###2023-12-09 13:17:57.995422$GAGSA,A,3,04,19,21,27,,,,,,,,,1.2,0.7,0.9*24
###2023-12-09 13:17:57.997137$GBGSA,A,3,14,24,25,26,33,35,,,,,,,1.2,0.7,0.9*2B
###2023-12-09 13:17:57.999471$GPGSV,2,1,07,03,31,253,42,04,39,310,46,16,58,216,46,26,88,205,48*72
###2023-12-09 13:17:58.001501$GPGSV,2,2,07,28,43,078,45,29,23,053,41,31,64,053,46,,,,*40
###2023-12-09 13:17:58.003830$GLGSV,2,1,06,65,31,324,43,71,32,174,42,72,70,240,46,73,29,047,43*6D
###2023-12-09 13:17:58.005570$GLGSV,2,2,06,74,65,358,43,75,38,261,47,,,,,,,,*65
###2023-12-09 13:17:58.007888$GAGSV,1,1,04,04,34,311,43,19,78,188,40,21,83,062,46,27,28,049,40*61
###2023-12-09 13:17:58.010205$GBGSV,2,1,06,14,36,191,42,24,68,036,48,25,45,268,48,26,21,066,42*67
###2023-12-09 13:17:58.011959$GBGSV,2,2,06,33,52,224,47,35,16,063,44,,,,,,,,*69
###2023-12-09 13:17:58.013283$GNVTG,175.24,T,,M,3.34,N,6.19,K,A*2C
###2023-12-09 13:17:58.014937$GNGST,181757.10,18.000,,,,0.100,0.069,0.160*5B
###2023-12-09 13:17:58.016225$GNZDA,181757.10,09,12,2023,00,00*7D
###2023-12-09 13:17:58.016863$GNEBP,,,,,,M*13
###2023-12-09 13:17:58.182611$GNGGA,181757.30,4138.0241356,N,07032.2942476,W,1,24,0.7,12.793,M,-29.744,M,0.0,*59
###2023-12-09 13:17:58.382638$GNGGA,181757.50,4138.0239397,N,07032.2942433,W,1,24,0.7,12.772,M,-29.744,M,0.0,*53
###2023-12-09 13:17:58.582506$GNGGA,181757.70,4138.0237518,N,07032.2942876,W,1,24,0.7,12.797,M,-29.744,M,0.0,*58
###2023-12-09 13:17:58.781459$GNGGA,181757.90,4138.0235594,N,07032.2943182,W,1,24,0.7,12.792,M,-29.744,M,0.0,*56
###2023-12-09 13:17:58.986532$GNRMC,181758.10,A,4138.0233661,N,07032.2943240,W,3.62,181.58,091223,,,A*59
###2023-12-09 13:17:58.989437$GNGGA,181758.10,4138.0233661,N,07032.2943240,W,1,24,0.7,12.771,M,-29.744,M,0.0,*5E
###2023-12-09 13:17:58.991253$GPGSA,A,3,03,04,16,26,28,29,31,,,,,,1.2,0.7,0.9*38
###2023-12-09 13:17:58.992975$GLGSA,A,3,65,71,72,73,74,75,,,,,,,1.2,0.7,0.9*26
###2023-12-09 13:17:58.994573$GAGSA,A,3,04,19,21,27,,,,,,,,,1.2,0.7,0.9*24
###2023-12-09 13:17:58.996294$GBGSA,A,3,14,24,25,26,33,35,,,,,,,1.2,0.7,0.9*2B
###2023-12-09 13:17:58.998635$GPGSV,2,1,07,03,31,253,42,04,39,310,44,16,58,216,45,26,88,205,48*73
###2023-12-09 13:17:59.000678$GPGSV,2,2,07,28,43,078,45,29,23,053,43,31,64,053,47,,,,*43
###2023-12-09 13:17:59.003010$GLGSV,2,1,06,65,31,324,42,71,32,174,41,72,70,240,46,73,29,047,43*6F
###2023-12-09 13:17:59.004755$GLGSV,2,2,06,74,65,358,43,75,38,261,46,,,,,,,,*64
###2023-12-09 13:17:59.007086$GAGSV,1,1,04,04,34,311,42,19,78,188,40,21,83,062,46,27,28,049,40*60
###2023-12-09 13:17:59.009408$GBGSV,2,1,06,14,36,191,43,24,68,036,50,25,45,268,47,26,21,066,46*64
###2023-12-09 13:17:59.011160$GBGSV,2,2,06,33,52,224,47,35,16,063,46,,,,,,,,*6B
###2023-12-09 13:17:59.012724$GNVTG,181.58,T,,M,3.62,N,6.70,K,A*20
###2023-12-09 13:17:59.014382$GNGST,181758.10,18.000,,,,0.100,0.069,0.160*54
###2023-12-09 13:17:59.015694$GNZDA,181758.10,09,12,2023,00,00*72
###2023-12-09 13:17:59.016342$GNEBP,,,,,,M*13
###2023-12-09 13:17:59.182657$GNGGA,181758.30,4138.0231714,N,07032.2943492,W,1,24,0.7,12.772,M,-29.744,M,0.0,*57
###2023-12-09 13:17:59.382265$GNGGA,181758.50,4138.0229748,N,07032.2943963,W,1,24,0.7,12.774,M,-29.744,M,0.0,*54
###2023-12-09 13:17:59.583798$GNGGA,181758.70,4138.0227786,N,07032.2944134,W,1,24,0.7,12.756,M,-29.744,M,0.0,*57
###2023-12-09 13:17:59.782999$GNGGA,181758.90,4138.0225863,N,07032.2944127,W,1,24,0.7,12.763,M,-29.744,M,0.0,*5B
###2023-12-09 13:17:59.988344$GNRMC,181759.10,A,4138.0223913,N,07032.2944251,W,3.58,183.04,091223,,,A*56
