###2023-12-09 13:00:03.364868$GNGGA,180002.50,4138.0206390,N,07032.3056767,W,1,24,0.6,12.957,M,-29.744,M,0.0,*59
###2023-12-09 13:00:03.565192$GNGGA,180002.70,4138.0206286,N,07032.3059216,W,1,24,0.6,12.990,M,-29.744,M,0.0,*5A
###2023-12-09 13:00:03.765259$GNGGA,180002.90,4138.0206091,N,07032.3061682,W,1,24,0.6,13.008,M,-29.744,M,0.0,*5B
###2023-12-09 13:00:03.966957$GNRMC,180003.10,A,4138.0205858,N,07032.3064206,W,3.42,265.97,091223,,,A*57
###2023-12-09 13:00:03.970417$GNGGA,180003.10,4138.0205858,N,07032.3064206,W,1,24,0.6,12.966,M,-29.744,M,0.0,*51
###2023-12-09 13:00:03.972664$GPGSA,A,3,03,04,16,26,28,29,31,32,,,,,1.1,0.6,0.9*3B
###2023-12-09 13:00:03.974745$GLGSA,A,3,65,71,72,73,74,75,,,,,,,1.1,0.6,0.9*24
###2023-12-09 13:00:03.976647$GAGSA,A,3,04,19,21,27,,,,,,,,,1.1,0.6,0.9*26
###2023-12-09 13:00:03.978643$GBGSA,A,3,14,24,25,26,33,,,,,,,,1.1,0.6,0.9*2F
###2023-12-09 13:00:03.981451$GPGSV,2,1,08,03,35,262,43,04,32,311,40,16,49,212,47,26,79,210,48*79
###2023-12-09 13:00:03.984271$GPGSV,2,2,08,28,49,070,45,29,25,061,41,31,69,036,47,32,19,140,45*78
###2023-12-09 13:00:03.987105$GLGSV,2,1,06,65,23,328,38,71,42,172,48,72,73,273,45,73,37,041,43*6C
###2023-12-09 13:00:03.989228$GLGSV,2,2,06,74,70,334,42,75,31,252,44,,,,,,,,*60
###2023-12-09 13:00:03.992077$GAGSV,1,1,04,04,29,312,39,19,84,219,40,21,86,124,46,27,34,048,41*60
###2023-12-09 13:00:03.994894$GBGSV,2,1,05,14,44,193,46,24,74,022,48,25,40,261,44,26,27,062,42*6D
###2023-12-09 13:00:03.996645$GBGSV,2,2,05,33,58,234,47,,,,,,,,,,,,*55
###2023-12-09 13:00:03.998240$GNVTG,265.97,T,,M,3.42,N,6.34,K,A*28
###2023-12-09 13:00:04.000241$GNGST,180003.10,18.000,,,,0.081,0.070,0.160*5C
###2023-12-09 13:00:04.001801$GNZDA,180003.10,09,12,2023,00,00*7A
###2023-12-09 13:00:04.002583$GNEBP,,,,,,M*13
###2023-12-09 13:00:04.163659$GNGGA,180003.30,4138.0205907,N,07032.3066816,W,1,24,0.6,12.966,M,-29.744,M,0.0,*51
###2023-12-09 13:00:04.364896$GNGGA,180003.50,4138.0206053,N,07032.3069477,W,1,24,0.6,12.995,M,-29.744,M,0.0,*54
###2023-12-09 13:00:04.564732$GNGGA,180003.70,4138.0205945,N,07032.3072068,W,1,24,0.6,13.018,M,-29.744,M,0.0,*56
###2023-12-09 13:00:04.763535$GNGGA,180003.90,4138.0205710,N,07032.3074643,W,1,24,0.6,13.014,M,-29.744,M,0.0,*53
###2023-12-09 13:00:04.971710$GNRMC,180004.10,A,4138.0205712,N,07032.3077343,W,3.71,274.17,091223,,,A*5B
###2023-12-09 13:00:04.974610$GNGGA,180004.10,4138.0205712,N,07032.3077343,W,1,24,0.6,12.996,M,-29.744,M,0.0,*5A
###2023-12-09 13:00:04.976480$GPGSA,A,3,03,04,16,26,28,29,31,32,,,,,1.1,0.6,0.9*3B
###2023-12-09 13:00:04.978207$GLGSA,A,3,65,71,72,73,74,75,,,,,,,1.1,0.6,0.9*24
###2023-12-09 13:00:04.979812$GAGSA,A,3,04,19,21,27,,,,,,,,,1.1,0.6,0.9*26
###2023-12-09 13:00:04.981470$GBGSA,A,3,14,24,25,26,33,,,,,,,,1.1,0.6,0.9*2F
###2023-12-09 13:00:04.983816$GPGSV,2,1,08,03,35,262,43,04,32,311,41,16,49,212,47,26,79,210,48*78
###2023-12-09 13:00:04.986163$GPGSV,2,2,08,28,49,070,45,29,25,061,41,31,69,036,47,32,19,140,44*79
###2023-12-09 13:00:04.988511$GLGSV,2,1,06,65,23,328,38,71,42,172,48,72,73,273,45,73,37,041,44*6B
###2023-12-09 13:00:04.990266$GLGSV,2,2,06,74,70,334,41,75,31,252,42,,,,,,,,*65
###2023-12-09 13:00:04.992614$GAGSV,1,1,04,04,29,312,40,19,84,219,40,21,86,124,46,27,34,048,42*6D
###2023-12-09 13:00:04.994962$GBGSV,2,1,05,14,44,193,45,24,74,022,48,25,40,261,43,26,27,062,41*6A
###2023-12-09 13:00:04.996419$GBGSV,2,2,05,33,58,234,47,,,,,,,,,,,,*55
###2023-12-09 13:00:04.997747$GNVTG,274.17,T,,M,3.71,N,6.88,K,A*27
###2023-12-09 13:00:04.999413$GNGST,180004.10,18.000,,,,0.081,0.070,0.160*5B
###2023-12-09 13:00:05.000713$GNZDA,180004.10,09,12,2023,00,00*7D
###2023-12-09 13:00:05.001354$GNEBP,,,,,,M*13
###2023-12-09 13:00:05.163356$GNGGA,180004.30,4138.0205907,N,07032.3080057,W,1,24,0.6,13.001,M,-29.744,M,0.0,*5A
###2023-12-09 13:00:05.365344$GNGGA,180004.50,4138.0205985,N,07032.3082704,W,1,24,0.6,13.009,M,-29.744,M,0.0,*5D
###2023-12-09 13:00:05.565294$GNGGA,180004.70,4138.0205877,N,07032.3085304,W,1,24,0.6,13.007,M,-29.744,M,0.0,*5E
###2023-12-09 13:00:05.764862$GNGGA,180004.90,4138.0205915,N,07032.3087887,W,1,24,0.6,13.007,M,-29.744,M,0.0,*57
###2023-12-09 13:00:05.966432$GNRMC,180005.10,A,4138.0206255,N,07032.3090433,W,3.44,281.49,091223,,,A*51
###2023-12-09 13:00:05.969339$GNGGA,180005.10,4138.0206255,N,07032.3090433,W,1,24,0.6,13.017,M,-29.744,M,0.0,*56
###2023-12-09 13:00:05.971229$GPGSA,A,3,03,04,16,26,28,29,31,32,,,,,1.1,0.6,0.9*3B
###2023-12-09 13:00:05.972948$GLGSA,A,3,65,71,72,73,74,75,,,,,,,1.1,0.6,0.9*24
###2023-12-09 13:00:05.974532$GAGSA,A,3,04,19,21,27,,,,,,,,,1.1,0.6,0.9*26
###2023-12-09 13:00:05.976227$GBGSA,A,3,14,24,25,26,33,,,,,,,,1.1,0.6,0.9*2F
###2023-12-09 13:00:05.978554$GPGSV,2,1,08,03,35,262,41,04,32,311,40,16,49,212,46,26,79,210,48*7A
###2023-12-09 13:00:05.980926$GPGSV,2,2,08,28,49,070,45,29,25,061,41,31,69,036,47,32,19,140,44*79
###2023-12-09 13:00:05.983267$GLGSV,2,1,06,65,23,328,39,71,42,172,47,72,73,273,45,73,37,041,44*65
###2023-12-09 13:00:05.985013$GLGSV,2,2,06,74,70,334,42,75,31,252,41,,,,,,,,*65
###2023-12-09 13:00:05.987350$GAGSV,1,1,04,04,29,312,38,19,84,219,40,21,86,124,46,27,34,048,41*61
###2023-12-09 13:00:05.989682$GBGSV,2,1,05,14,44,193,46,24,74,022,49,25,40,261,43,26,27,062,42*6B
###2023-12-09 13:00:05.991146$GBGSV,2,2,05,33,58,234,47,,,,,,,,,,,,*55
###2023-12-09 13:00:05.992465$GNVTG,281.49,T,,M,3.44,N,6.37,K,A*24
###2023-12-09 13:00:05.994110$GNGST,180005.10,18.000,,,,0.081,0.070,0.160*5A
###2023-12-09 13:00:05.995410$GNZDA,180005.10,09,12,2023,00,00*7C
###2023-12-09 13:00:05.996047$GNEBP,,,,,,M*13
###2023-12-09 13:00:06.164509$GNGGA,180005.30,4138.0206592,N,07032.3092930,W,1,24,0.6,13.023,M,-29.744,M,0.0,*53
###2023-12-09 13:00:06.366272$GNGGA,180005.50,4138.0206669,N,07032.3095425,W,1,24,0.6,13.015,M,-29.744,M,0.0,*59
###2023-12-09 13:00:06.565264$GNGGA,180005.70,4138.0206807,N,07032.3097907,W,1,24,0.6,13.016,M,-29.744,M,0.0,*51
###2023-12-09 13:00:06.767029$GNGGA,180005.90,4138.0207213,N,07032.3100401,W,1,24,0.6,13.032,M,-29.744,M,0.0,*53
###2023-12-09 13:00:06.967946$GNRMC,180006.10,A,4138.0207516,N,07032.3102884,W,3.38,274.41,091223,,,A*50
###2023-12-09 13:00:06.970808$GNGGA,180006.10,4138.0207516,N,07032.3102884,W,1,24,0.6,13.030,M,-29.744,M,0.0,*5B
###2023-12-09 13:00:06.972661$GPGSA,A,3,03,04,16,26,28,29,31,32,,,,,1.1,0.6,0.9*3B
###2023-12-09 13:00:06.974368$GLGSA,A,3,65,71,72,73,74,75,,,,,,,1.1,0.6,0.9*24
###2023-12-09 13:00:06.975955$GAGSA,A,3,04,19,21,27,,,,,,,,,1.1,0.6,0.9*26
###2023-12-09 13:00:06.977593$GBGSA,A,3,14,24,25,26,33,,,,,,,,1.1,0.6,0.9*2F
###2023-12-09 13:00:06.979922$GPGSV,2,1,08,03,35,262,42,04,32,311,41,16,49,212,45,26,79,210,48*7B
###2023-12-09 13:00:06.982247$GPGSV,2,2,08,28,49,070,45,29,25,061,42,31,69,036,47,32,19,140,44*7A
###2023-12-09 13:00:06.984589$GLGSV,2,1,06,65,23,328,39,71,42,172,46,72,73,273,45,73,37,041,45*65
###2023-12-09 13:00:06.986333$GLGSV,2,2,06,74,70,334,42,75,31,252,42,,,,,,,,*66
###2023-12-09 13:00:06.988662$GAGSV,1,1,04,04,29,312,39,19,84,219,40,21,86,124,46,27,33,048,42*64
###2023-12-09 13:00:06.990999$GBGSV,2,1,05,14,44,193,45,24,74,022,49,25,40,261,44,26,27,062,43*6E
###2023-12-09 13:00:06.992447$GBGSV,2,2,05,33,58,234,48,,,,,,,,,,,,*5A
###2023-12-09 13:00:06.993770$GNVTG,274.41,T,,M,3.38,N,6.26,K,A*2D
###2023-12-09 13:00:06.995423$GNGST,180006.10,18.000,,,,0.081,0.070,0.160*59
###2023-12-09 13:00:06.996712$GNZDA,180006.10,09,12,2023,00,00*7F
###2023-12-09 13:00:06.997351$GNEBP,,,,,,M*13
###2023-12-09 13:00:07.165295$GNGGA,180006.30,4138.0207539,N,07032.3105349,W,1,24,0.6,13.024,M,-29.744,M,0.0,*5C
###2023-12-09 13:00:07.366474$GNGGA,180006.50,4138.0207489,N,07032.3107847,W,1,24,0.6,13.010,M,-29.744,M,0.0,*50
###2023-12-09 13:00:07.565530$GNGGA,180006.70,4138.0207690,N,07032.3110415,W,1,24,0.6,13.030,M,-29.744,M,0.0,*57
###2023-12-09 13:00:07.764490$GNGGA,180006.90,4138.0207937,N,07032.3113041,W,1,24,0.6,13.049,M,-29.744,M,0.0,*53
###2023-12-09 13:00:07.966329$GNRMC,180007.10,A,4138.0207856,N,07032.3115613,W,3.46,262.74,091223,,,A*56
###2023-12-09 13:00:07.969228$GNGGA,180007.10,4138.0207856,N,07032.3115613,W,1,24,0.6,13.054,M,-29.744,M,0.0,*57
###2023-12-09 13:00:07.971097$GPGSA,A,3,03,04,16,26,28,29,31,32,,,,,1.1,0.6,0.9*3B
###2023-12-09 13:00:07.973077$GLGSA,A,3,65,71,72,73,74,75,,,,,,,1.1,0.6,0.9*24
###2023-12-09 13:00:07.974688$GAGSA,A,3,04,19,21,27,,,,,,,,,1.1,0.6,0.9*26
###2023-12-09 13:00:07.976345$GBGSA,A,3,14,24,25,26,33,,,,,,,,1.1,0.6,0.9*2F
###2023-12-09 13:00:07.978679$GPGSV,2,1,08,03,35,262,43,04,32,311,41,16,49,212,46,26,79,210,47*76
###2023-12-09 13:00:07.981010$GPGSV,2,2,08,28,49,070,45,29,25,061,42,31,69,036,47,32,19,140,43*7D
###2023-12-09 13:00:07.983342$GLGSV,2,1,06,65,23,328,41,71,42,172,46,72,73,273,45,73,37,041,46*69
###2023-12-09 13:00:07.985082$GLGSV,2,2,06,74,70,334,43,75,31,252,43,,,,,,,,*66
###2023-12-09 13:00:07.987408$GAGSV,1,1,04,04,29,312,40,19,84,219,40,21,86,124,45,27,33,048,43*68
###2023-12-09 13:00:07.989728$GBGSV,2,1,05,14,44,193,43,24,74,022,49,25,40,261,44,26,27,062,42*69
###2023-12-09 13:00:07.991187$GBGSV,2,2,05,33,58,234,47,,,,,,,,,,,,*55
