###2023-12-09 12:45:41.743234$GNGGA,174540.90,4138.0458852,N,07032.3814789,W,1,24,0.6,13.475,M,-29.745,M,0.0,*56
###2023-12-09 12:45:41.944424$GNRMC,174541.10,A,4138.0460697,N,07032.3814174,W,3.52,12.55,091223,,,A*63
###2023-12-09 12:45:41.947337$GNGGA,174541.10,4138.0460697,N,07032.3814174,W,1,24,0.6,13.475,M,-29.745,M,0.0,*57
###2023-12-09 12:45:41.949229$GPGSA,A,3,03,04,16,26,28,29,31,32,,,,,1.1,0.6,0.9*3B
###2023-12-09 12:45:41.950971$GLGSA,A,3,65,71,72,73,74,75,,,,,,,1.1,0.6,0.9*24
###2023-12-09 12:45:41.952554$GAGSA,A,3,04,19,21,27,,,,,,,,,1.1,0.6,0.9*26
###2023-12-09 12:45:41.954190$GBGSA,A,3,14,24,25,26,33,,,,,,,,1.1,0.6,0.9*2F
###2023-12-09 12:45:41.956539$GPGSV,2,1,08,03,37,270,46,04,26,311,42,16,42,209,45,26,71,208,48*78
###2023-12-09 12:45:41.958889$GPGSV,2,2,08,28,55,061,44,29,26,069,42,31,72,015,46,32,26,136,43*7D
###2023-12-09 12:45:41.961224$GLGSV,2,1,06,65,17,329,42,71,50,171,47,72,70,297,46,73,43,037,45*66
###2023-12-09 12:45:41.962976$GLGSV,2,2,06,74,71,310,42,75,26,245,42,,,,,,,,*61
###2023-12-09 12:45:41.965297$GAGSV,1,1,04,04,24,312,42,19,84,283,41,21,82,167,46,27,38,049,42*6E
###2023-12-09 12:45:41.967640$GBGSV,2,1,05,14,50,195,44,24,78,005,47,25,36,256,44,26,31,059,42*60
###2023-12-09 12:45:41.969096$GBGSV,2,2,05,33,61,245,47,,,,,,,,,,,,*59
###2023-12-09 12:45:41.970381$GNVTG,12.55,T,,M,3.52,N,6.52,K,A*15
###2023-12-09 12:45:41.972043$GNGST,174541.10,18.000,,,,0.077,0.069,0.160*55
###2023-12-09 12:45:41.973342$GNZDA,174541.10,09,12,2023,00,00*72
###2023-12-09 12:45:41.973981$GNEBP,,,,,,M*13
###2023-12-09 12:45:42.144163$GNGGA,174541.30,4138.0462600,N,07032.3813552,W,1,24,0.6,13.478,M,-29.745,M,0.0,*53
###2023-12-09 12:45:42.344683$GNGGA,174541.50,4138.0464519,N,07032.3812645,W,1,24,0.6,13.480,M,-29.745,M,0.0,*5B
###2023-12-09 12:45:42.546048$GNGGA,174541.70,4138.0466430,N,07032.3811804,W,1,24,0.6,13.469,M,-29.745,M,0.0,*5E
###2023-12-09 12:45:42.744607$GNGGA,174541.90,4138.0468332,N,07032.3811305,W,1,24,0.6,13.469,M,-29.745,M,0.0,*51
###2023-12-09 12:45:42.944262$GNRMC,174542.10,A,4138.0470199,N,07032.3810992,W,3.30,5.95,091223,,,A*52
###2023-12-09 12:45:42.947133$GNGGA,174542.10,4138.0470199,N,07032.3810992,W,1,24,0.6,13.464,M,-29.745,M,0.0,*58
###2023-12-09 12:45:42.949022$GPGSA,A,3,03,04,16,26,28,29,31,32,,,,,1.1,0.6,0.9*3B
###2023-12-09 12:45:42.950763$GLGSA,A,3,65,71,72,73,74,75,,,,,,,1.1,0.6,0.9*24
###2023-12-09 12:45:42.952352$GAGSA,A,3,04,19,21,27,,,,,,,,,1.1,0.6,0.9*26
###2023-12-09 12:45:42.953999$GBGSA,A,3,14,24,25,26,33,,,,,,,,1.1,0.6,0.9*2F
###2023-12-09 12:45:42.956336$GPGSV,2,1,08,03,37,270,45,04,26,311,43,16,42,209,46,26,71,208,48*79
###2023-12-09 12:45:42.958693$GPGSV,2,2,08,28,55,061,44,29,26,069,40,31,72,015,46,32,26,136,41*7D
###2023-12-09 12:45:42.961026$GLGSV,2,1,06,65,17,329,39,71,50,171,47,72,70,297,46,73,43,037,44*6B
###2023-12-09 12:45:42.962783$GLGSV,2,2,06,74,71,310,42,75,26,245,45,,,,,,,,*66
###2023-12-09 12:45:42.965108$GAGSV,1,1,04,04,24,312,42,19,84,283,40,21,82,167,46,27,38,049,41*6C
###2023-12-09 12:45:42.967449$GBGSV,2,1,05,14,50,195,44,24,78,005,48,25,36,256,46,26,31,059,43*6C
###2023-12-09 12:45:42.968900$GBGSV,2,2,05,33,61,245,48,,,,,,,,,,,,*56
###2023-12-09 12:45:42.970157$GNVTG,5.95,T,,M,3.30,N,6.12,K,A*2F
###2023-12-09 12:45:42.971814$GNGST,174542.10,18.000,,,,0.077,0.069,0.160*56
###2023-12-09 12:45:42.973101$GNZDA,174542.10,09,12,2023,00,00*71
###2023-12-09 12:45:42.973740$GNEBP,,,,,,M*13
###2023-12-09 12:45:43.143935$GNGGA,174542.30,4138.0472010,N,07032.3810642,W,1,24,0.6,13.462,M,-29.745,M,0.0,*5C
###2023-12-09 12:45:43.344495$GNGGA,174542.50,4138.0473844,N,07032.3810203,W,1,24,0.6,13.457,M,-29.745,M,0.0,*55
###2023-12-09 12:45:43.543892$GNGGA,174542.70,4138.0475605,N,07032.3810050,W,1,24,0.6,13.442,M,-29.745,M,0.0,*5A
###2023-12-09 12:45:43.743004$GNGGA,174542.90,4138.0477262,N,07032.3810250,W,1,24,0.6,13.443,M,-29.744,M,0.0,*51
###2023-12-09 12:45:43.943886$GNRMC,174543.10,A,4138.0478923,N,07032.3810486,W,3.15,355.11,091223,,,A*57
###2023-12-09 12:45:43.947396$GNGGA,174543.10,4138.0478923,N,07032.3810486,W,1,24,0.6,13.452,M,-29.744,M,0.0,*54
###2023-12-09 12:45:43.949665$GPGSA,A,3,03,04,16,26,28,29,31,32,,,,,1.1,0.6,0.9*3B
###2023-12-09 12:45:43.951765$GLGSA,A,3,65,71,72,73,74,75,,,,,,,1.1,0.6,0.9*24
###2023-12-09 12:45:43.953680$GAGSA,A,3,04,19,21,27,,,,,,,,,1.1,0.6,0.9*26
###2023-12-09 12:45:43.955687$GBGSA,A,3,14,24,25,26,33,,,,,,,,1.1,0.6,0.9*2F
###2023-12-09 12:45:43.958503$GPGSV,2,1,08,03,37,270,44,04,26,311,39,16,42,209,45,26,71,208,48*76
###2023-12-09 12:45:43.961376$GPGSV,2,2,08,28,55,061,44,29,26,069,43,31,72,015,46,32,26,136,41*7E
###2023-12-09 12:45:43.964209$GLGSV,2,1,06,65,17,329,38,71,50,171,48,72,70,297,46,73,43,037,45*64
###2023-12-09 12:45:43.966327$GLGSV,2,2,06,74,71,310,42,75,26,245,46,,,,,,,,*65
###2023-12-09 12:45:43.969154$GAGSV,1,1,04,04,24,312,37,19,84,283,40,21,82,167,46,27,38,049,41*6E
###2023-12-09 12:45:43.971987$GBGSV,2,1,05,14,50,195,46,24,78,005,49,25,36,256,46,26,31,059,44*68
###2023-12-09 12:45:43.973744$GBGSV,2,2,05,33,61,245,48,,,,,,,,,,,,*56
###2023-12-09 12:45:43.975356$GNVTG,355.11,T,,M,3.15,N,5.83,K,A*29
###2023-12-09 12:45:43.977342$GNGST,174543.10,18.000,,,,0.077,0.069,0.160*57
###2023-12-09 12:45:43.978914$GNZDA,174543.10,09,12,2023,00,00*70
###2023-12-09 12:45:43.979691$GNEBP,,,,,,M*13
###2023-12-09 12:45:44.147931$GNGGA,174543.30,4138.0480632,N,07032.3810726,W,1,24,0.6,13.452,M,-29.744,M,0.0,*57
###2023-12-09 12:45:44.344416$GNGGA,174543.50,4138.0482279,N,07032.3811240,W,1,24,0.6,13.448,M,-29.744,M,0.0,*57
###2023-12-09 12:45:44.544479$GNGGA,174543.70,4138.0483935,N,07032.3811893,W,1,24,0.6,13.444,M,-29.744,M,0.0,*5F
###2023-12-09 12:45:44.742986$GNGGA,174543.90,4138.0485534,N,07032.3812689,W,1,24,0.6,13.425,M,-29.744,M,0.0,*5B
###2023-12-09 12:45:44.953196$GNRMC,174544.10,A,4138.0487080,N,07032.3813704,W,3.07,333.47,091223,,,A*5A
###2023-12-09 12:45:44.956080$GNGGA,174544.10,4138.0487080,N,07032.3813704,W,1,24,0.6,13.417,M,-29.744,M,0.0,*58
###2023-12-09 12:45:44.957952$GPGSA,A,3,03,04,16,26,28,29,31,32,,,,,1.1,0.6,0.9*3B
###2023-12-09 12:45:44.959699$GLGSA,A,3,65,71,72,73,74,75,,,,,,,1.1,0.6,0.9*24
###2023-12-09 12:45:44.961288$GAGSA,A,3,04,19,21,27,,,,,,,,,1.1,0.6,0.9*26
###2023-12-09 12:45:44.962953$GBGSA,A,3,14,24,25,26,33,,,,,,,,1.1,0.6,0.9*2F
###2023-12-09 12:45:44.965281$GPGSV,2,1,08,03,37,270,44,04,26,311,40,16,42,209,46,26,71,208,48*7B
###2023-12-09 12:45:44.967634$GPGSV,2,2,08,28,55,061,46,29,26,069,42,31,72,015,46,32,26,136,43*7F
###2023-12-09 12:45:44.969971$GLGSV,2,1,06,65,17,329,38,71,50,171,48,72,70,297,46,73,43,037,45*64
###2023-12-09 12:45:44.971756$GLGSV,2,2,06,74,71,310,42,75,26,245,45,,,,,,,,*66
###2023-12-09 12:45:44.974097$GAGSV,1,1,04,04,24,312,40,19,84,283,40,21,82,167,46,27,38,049,43*6C
###2023-12-09 12:45:44.976445$GBGSV,2,1,05,14,50,195,45,24,78,005,48,25,36,256,45,26,31,059,43*6E
###2023-12-09 12:45:44.977904$GBGSV,2,2,05,33,61,245,47,,,,,,,,,,,,*59
###2023-12-09 12:45:44.979242$GNVTG,333.47,T,,M,3.07,N,5.69,K,A*2D
###2023-12-09 12:45:44.980887$GNGST,174544.10,18.000,,,,0.078,0.069,0.160*5F
###2023-12-09 12:45:44.982181$GNZDA,174544.10,09,12,2023,00,00*77
###2023-12-09 12:45:44.982831$GNEBP,,,,,,M*13
###2023-12-09 12:45:45.144400$GNGGA,174544.30,4138.0488628,N,07032.3814782,W,1,24,0.6,13.420,M,-29.744,M,0.0,*5C
###2023-12-09 12:45:45.344311$GNGGA,174544.50,4138.0490058,N,07032.3816075,W,1,24,0.6,13.407,M,-29.744,M,0.0,*5A
###2023-12-09 12:45:45.544671$GNGGA,174544.70,4138.0491369,N,07032.3817586,W,1,24,0.6,13.402,M,-29.744,M,0.0,*55
###2023-12-09 12:45:45.745653$GNGGA,174544.90,4138.0492558,N,07032.3819226,W,1,24,0.6,13.393,M,-29.744,M,0.0,*50
###2023-12-09 12:45:45.944944$GNRMC,174545.10,A,4138.0493657,N,07032.3821024,W,3.09,307.49,091223,,,A*51
###2023-12-09 12:45:45.948442$GNGGA,174545.10,4138.0493657,N,07032.3821024,W,1,24,0.6,13.392,M,-29.744,M,0.0,*5E
###2023-12-09 12:45:45.950727$GPGSA,A,3,03,04,16,26,28,29,31,32,,,,,1.1,0.6,0.9*3B
###2023-12-09 12:45:45.952800$GLGSA,A,3,65,71,72,73,74,75,,,,,,,1.1,0.6,0.9*24
###2023-12-09 12:45:45.954731$GAGSA,A,3,04,19,21,27,,,,,,,,,1.1,0.6,0.9*26
###2023-12-09 12:45:45.956721$GBGSA,A,3,14,24,25,26,33,,,,,,,,1.1,0.6,0.9*2F
###2023-12-09 12:45:45.959859$GPGSV,2,1,08,03,37,270,42,04,26,311,40,16,42,209,47,26,72,208,48*7F
###2023-12-09 12:45:45.962746$GPGSV,2,2,08,28,55,061,46,29,26,069,41,31,72,015,47,32,26,136,44*7A
###2023-12-09 12:45:45.965573$GLGSV,2,1,06,65,17,329,39,71,50,171,49,72,70,297,45,73,43,037,47*65
###2023-12-09 12:45:45.967704$GLGSV,2,2,06,74,71,310,42,75,26,245,45,,,,,,,,*66
###2023-12-09 12:45:45.970508$GAGSV,1,1,04,04,24,312,38,19,84,283,40,21,82,167,46,27,38,049,44*64
###2023-12-09 12:45:45.973350$GBGSV,2,1,05,14,50,195,45,24,78,005,49,25,36,256,45,26,31,059,43*6F
###2023-12-09 12:45:45.975121$GBGSV,2,2,05,33,61,245,48,,,,,,,,,,,,*56
###2023-12-09 12:45:45.976728$GNVTG,307.49,T,,M,3.09,N,5.72,K,A*20
###2023-12-09 12:45:45.978742$GNGST,174545.10,18.000,,,,0.078,0.069,0.160*5E
