###2023-12-09 13:16:57.990008$GLGSA,A,3,65,71,72,73,74,75,,,,,,,1.2,0.7,1.0*2E
###2023-12-09 13:16:57.991634$GAGSA,A,3,04,19,21,27,,,,,,,,,1.2,0.7,1.0*2C
###2023-12-09 13:16:57.993352$GBGSA,A,3,14,24,25,26,33,35,,,,,,,1.2,0.7,1.0*23
###2023-12-09 13:16:57.995697$GPGSV,2,1,07,03,32,254,43,04,38,311,45,16,57,216,46,26,87,208,48*79
###2023-12-09 13:16:57.997735$GPGSV,2,2,07,28,44,077,45,29,24,054,41,31,65,052,47,,,,*49
###2023-12-09 13:16:58.000071$GLGSV,2,1,06,65,31,324,44,71,32,174,43,72,70,240,46,73,29,047,43*6B
###2023-12-09 13:16:58.001811$GLGSV,2,2,06,74,65,358,43,75,38,261,47,,,,,,,,*65
###2023-12-09 13:16:58.004152$GAGSV,1,1,04,04,34,312,44,19,79,190,40,21,83,062,46,27,28,049,40*6D
###2023-12-09 13:16:58.006471$GBGSV,2,1,06,14,36,191,42,24,68,036,49,25,45,268,49,26,21,066,43*66
###2023-12-09 13:16:58.008241$GBGSV,2,2,06,33,52,224,48,35,16,063,43,,,,,,,,*61
###2023-12-09 13:16:58.009567$GNVTG,169.45,T,,M,3.50,N,6.48,K,A*20
###2023-12-09 13:16:58.011236$GNGST,181657.10,18.000,,,,0.100,0.072,0.170*51
###2023-12-09 13:16:58.012524$GNZDA,181657.10,09,12,2023,00,00*7C
###2023-12-09 13:16:58.013165$GNEBP,,,,,,M*13
###2023-12-09 13:16:58.186261$GNGGA,181657.30,4138.0815799,N,07032.2930938,W,1,24,0.7,13.201,M,-29.742,M,0.0,*5F
###2023-12-09 13:16:58.377968$GNGGA,181657.50,4138.0813959,N,07032.2930901,W,1,24,0.7,13.225,M,-29.742,M,0.0,*51
###2023-12-09 13:16:58.577867$GNGGA,181657.70,4138.0812000,N,07032.2930984,W,1,24,0.7,13.238,M,-29.742,M,0.0,*56
###2023-12-09 13:16:58.777753$GNGGA,181657.90,4138.0810143,N,07032.2930728,W,1,24,0.7,13.199,M,-29.742,M,0.0,*5C
###2023-12-09 13:16:58.987873$GNRMC,181658.10,A,4138.0808349,N,07032.2930780,W,3.32,186.77,091223,,,A*57
###2023-12-09 13:16:58.990772$GNGGA,181658.10,4138.0808349,N,07032.2930780,W,1,24,0.7,13.223,M,-29.742,M,0.0,*5A
###2023-12-09 13:16:58.992566$GPGSA,A,3,03,04,16,26,28,29,31,,,,,,1.2,0.7,1.0*30
###2023-12-09 13:16:58.994273$GLGSA,A,3,65,71,72,73,74,75,,,,,,,1.2,0.7,1.0*2E
###2023-12-09 13:16:58.995863$GAGSA,A,3,04,19,21,27,,,,,,,,,1.2,0.7,1.0*2C
###2023-12-09 13:16:58.997579$GBGSA,A,3,14,24,25,26,33,35,,,,,,,1.2,0.7,1.0*23
###2023-12-09 13:16:58.999915$GPGSV,2,1,07,03,32,254,42,04,38,311,45,16,57,216,46,26,87,208,49*79
###2023-12-09 13:16:59.001963$GPGSV,2,2,07,28,44,077,45,29,24,054,43,31,65,052,47,,,,*4B
###2023-12-09 13:16:59.004304$GLGSV,2,1,06,65,31,324,42,71,32,174,43,72,70,240,45,73,29,047,43*6E
###2023-12-09 13:16:59.006062$GLGSV,2,2,06,74,65,358,43,75,38,261,46,,,,,,,,*64
###2023-12-09 13:16:59.008399$GAGSV,1,1,04,04,34,312,43,19,79,190,40,21,83,062,46,27,28,049,41*6B
###2023-12-09 13:16:59.010747$GBGSV,2,1,06,14,36,191,43,24,68,036,50,25,45,268,47,26,21,066,45*67
###2023-12-09 13:16:59.012496$GBGSV,2,2,06,33,52,224,47,35,16,063,44,,,,,,,,*69
###2023-12-09 13:16:59.013823$GNVTG,186.77,T,,M,3.32,N,6.16,K,A*2F
###2023-12-09 13:16:59.015483$GNGST,181658.10,18.000,,,,0.100,0.071,0.170*5D
###2023-12-09 13:16:59.016777$GNZDA,181658.10,09,12,2023,00,00*73
###2023-12-09 13:16:59.017419$GNEBP,,,,,,M*13
###2023-12-09 13:16:59.177878$GNGGA,181658.30,4138.0806473,N,07032.2931012,W,1,24,0.7,13.239,M,-29.742,M,0.0,*5E
###2023-12-09 13:16:59.376764$GNGGA,181658.50,4138.0804684,N,07032.2931168,W,1,24,0.7,13.207,M,-29.742,M,0.0,*51
###2023-12-09 13:16:59.578750$GNGGA,181658.70,4138.0802917,N,07032.2931433,W,1,24,0.7,13.226,M,-29.742,M,0.0,*58
###2023-12-09 13:16:59.779003$GNGGA,181658.90,4138.0801038,N,07032.2931664,W,1,24,0.7,13.224,M,-29.742,M,0.0,*53
###2023-12-09 13:16:59.982243$GNRMC,181659.10,A,4138.0799257,N,07032.2931827,W,3.23,183.02,091223,,,A*5B
###2023-12-09 13:16:59.985126$GNGGA,181659.10,4138.0799257,N,07032.2931827,W,1,24,0.7,13.210,M,-29.742,M,0.0,*51
###2023-12-09 13:16:59.986929$GPGSA,A,3,03,04,16,26,28,29,31,,,,,,1.2,0.7,1.0*30
###2023-12-09 13:16:59.988642$GLGSA,A,3,65,71,72,73,74,75,,,,,,,1.2,0.7,1.0*2E
###2023-12-09 13:16:59.990229$GAGSA,A,3,04,19,21,27,,,,,,,,,1.2,0.7,1.0*2C
###2023-12-09 13:16:59.991953$GBGSA,A,3,14,24,25,26,33,35,,,,,,,1.2,0.7,1.0*23
###2023-12-09 13:16:59.994285$GPGSV,2,1,07,03,32,254,42,04,38,311,44,16,57,216,46,26,87,208,47*76
###2023-12-09 13:16:59.996335$GPGSV,2,2,07,28,44,077,45,29,24,054,42,31,65,052,47,,,,*4A
###2023-12-09 13:16:59.998683$GLGSV,2,1,06,65,31,324,42,71,32,174,42,72,70,240,45,73,29,047,43*6F
###2023-12-09 13:17:00.000429$GLGSV,2,2,06,74,65,358,43,75,38,261,46,,,,,,,,*64
###2023-12-09 13:17:00.002763$GAGSV,1,1,04,04,34,312,44,19,79,190,40,21,83,062,46,27,28,049,40*6D
###2023-12-09 13:17:00.005095$GBGSV,2,1,06,14,36,191,41,24,68,036,49,25,45,268,46,26,21,066,43*6A
###2023-12-09 13:17:00.006881$GBGSV,2,2,06,33,52,224,46,35,16,063,44,,,,,,,,*68
###2023-12-09 13:17:00.008202$GNVTG,183.02,T,,M,3.23,N,5.98,K,A*2D
###2023-12-09 13:17:00.009849$GNGST,181659.10,18.000,,,,0.100,0.071,0.170*5C
###2023-12-09 13:17:00.011150$GNZDA,181659.10,09,12,2023,00,00*72
###2023-12-09 13:17:00.011788$GNEBP,,,,,,M*13
###2023-12-09 13:17:00.178043$GNGGA,181659.30,4138.0797441,N,07032.2932071,W,1,24,0.7,13.238,M,-29.742,M,0.0,*5E
###2023-12-09 13:17:00.376747$GNGGA,181659.50,4138.0795561,N,07032.2932285,W,1,24,0.7,13.222,M,-29.742,M,0.0,*5B
###2023-12-09 13:17:00.577600$GNGGA,181659.70,4138.0793714,N,07032.2932200,W,1,24,0.7,13.200,M,-29.742,M,0.0,*52
###2023-12-09 13:17:00.779414$GNGGA,181659.90,4138.0791873,N,07032.2932391,W,1,24,0.7,13.229,M,-29.742,M,0.0,*52
###2023-12-09 13:17:00.983954$GNRMC,181700.10,A,4138.0789963,N,07032.2932589,W,3.48,179.90,091223,,,A*52
###2023-12-09 13:17:00.987419$GNGGA,181700.10,4138.0789963,N,07032.2932589,W,1,24,0.7,13.234,M,-29.742,M,0.0,*5D
###2023-12-09 13:17:00.989588$GPGSA,A,3,03,04,16,26,28,29,31,,,,,,1.2,0.7,1.0*30
###2023-12-09 13:17:00.991714$GLGSA,A,3,65,71,72,73,74,75,,,,,,,1.2,0.7,1.0*2E
###2023-12-09 13:17:00.993632$GAGSA,A,3,04,19,21,27,,,,,,,,,1.2,0.7,1.0*2C
###2023-12-09 13:17:00.995697$GBGSA,A,3,14,24,25,26,33,35,,,,,,,1.2,0.7,1.0*23
###2023-12-09 13:17:00.998494$GPGSV,2,1,07,03,32,254,42,04,38,311,44,16,57,216,46,26,87,208,47*76
###2023-12-09 13:17:01.000963$GPGSV,2,2,07,28,44,077,44,29,24,054,41,31,65,052,47,,,,*48
###2023-12-09 13:17:01.003789$GLGSV,2,1,06,65,31,324,43,71,32,174,42,72,70,240,46,73,29,047,44*6A
###2023-12-09 13:17:01.005890$GLGSV,2,2,06,74,65,358,43,75,38,261,47,,,,,,,,*65
###2023-12-09 13:17:01.008704$GAGSV,1,1,04,04,34,312,43,19,79,190,39,21,83,062,46,27,28,049,40*64
###2023-12-09 13:17:01.011510$GBGSV,2,1,06,14,36,191,41,24,68,036,49,25,45,268,48,26,21,066,43*64
###2023-12-09 13:17:01.013600$GBGSV,2,2,06,33,52,224,48,35,16,063,43,,,,,,,,*61
###2023-12-09 13:17:01.015200$GNVTG,179.90,T,,M,3.48,N,6.44,K,A*2C
###2023-12-09 13:17:01.017174$GNGST,181700.10,18.000,,,,0.100,0.071,0.170*51
###2023-12-09 13:17:01.018733$GNZDA,181700.10,09,12,2023,00,00*7F
###2023-12-09 13:17:01.019499$GNEBP,,,,,,M*13
###2023-12-09 13:17:01.177491$GNGGA,181700.30,4138.0788063,N,07032.2932403,W,1,24,0.7,13.207,M,-29.742,M,0.0,*54
###2023-12-09 13:17:01.377814$GNGGA,181700.50,4138.0786218,N,07032.2932233,W,1,24,0.7,13.207,M,-29.742,M,0.0,*57
###2023-12-09 13:17:01.578874$GNGGA,181700.70,4138.0784272,N,07032.2932256,W,1,24,0.7,13.219,M,-29.742,M,0.0,*57
###2023-12-09 13:17:01.777841$GNGGA,181700.90,4138.0782340,N,07032.2932240,W,1,24,0.7,13.190,M,-29.742,M,0.0,*5A
###2023-12-09 13:17:01.981016$GNRMC,181701.10,A,4138.0780470,N,07032.2932130,W,3.46,178.30,091223,,,A*56
###2023-12-09 13:17:01.983888$GNGGA,181701.10,4138.0780470,N,07032.2932130,W,1,24,0.7,13.210,M,-29.742,M,0.0,*5A
###2023-12-09 13:17:01.985682$GPGSA,A,3,03,04,16,26,28,29,31,,,,,,1.2,0.7,1.0*30
###2023-12-09 13:17:01.987412$GLGSA,A,3,65,71,72,73,74,75,,,,,,,1.2,0.7,1.0*2E
###2023-12-09 13:17:01.989002$GAGSA,A,3,04,19,21,27,,,,,,,,,1.2,0.7,1.0*2C
###2023-12-09 13:17:01.990726$GBGSA,A,3,14,24,25,26,33,35,,,,,,,1.2,0.7,1.0*23
###2023-12-09 13:17:01.993046$GPGSV,2,1,07,03,32,254,42,04,38,311,46,16,57,216,47,26,87,208,49*7B
###2023-12-09 13:17:01.995085$GPGSV,2,2,07,28,44,077,46,29,24,054,44,31,65,052,47,,,,*4F
###2023-12-09 13:17:01.997414$GLGSV,2,1,06,65,31,324,43,71,32,174,42,72,70,240,46,73,29,047,44*6A
###2023-12-09 13:17:01.999165$GLGSV,2,2,06,74,65,358,44,75,38,261,47,,,,,,,,*62
###2023-12-09 13:17:02.001742$GAGSV,1,1,04,04,34,312,44,19,79,190,41,21,83,062,48,27,28,049,42*60
###2023-12-09 13:17:02.004099$GBGSV,2,1,06,14,36,191,42,24,68,036,49,25,45,268,48,26,21,066,43*67
###2023-12-09 13:17:02.005855$GBGSV,2,2,06,33,52,224,47,35,16,063,43,,,,,,,,*6E
###2023-12-09 13:17:02.007193$GNVTG,178.30,T,,M,3.46,N,6.41,K,A*2C
###2023-12-09 13:17:02.008831$GNGST,181701.10,18.000,,,,0.100,0.071,0.170*50
###2023-12-09 13:17:02.010119$GNZDA,181701.10,09,12,2023,00,00*7E
###2023-12-09 13:17:02.010768$GNEBP,,,,,,M*13
###2023-12-09 13:17:02.177696$GNGGA,181701.30,4138.0778522,N,07032.2932059,W,1,24,0.7,13.209,M,-29.742,M,0.0,*5F
###2023-12-09 13:17:02.377936$GNGGA,181701.50,4138.0776646,N,07032.2931894,W,1,24,0.7,13.178,M,-29.742,M,0.0,*59
