###2023-12-09 13:01:38.972689$GPGSA,A,3,03,04,16,26,28,29,31,32,,,,,1.1,0.6,0.9*3B
###2023-12-09 13:01:38.974424$GLGSA,A,3,65,71,72,73,74,75,,,,,,,1.1,0.6,0.9*24
###2023-12-09 13:01:38.976041$GAGSA,A,3,04,19,21,27,,,,,,,,,1.1,0.6,0.9*26
###2023-12-09 13:01:38.977698$GBGSA,A,3,14,24,25,26,33,,,,,,,,1.1,0.6,0.9*2F
###2023-12-09 13:01:38.980047$GPGSV,2,1,08,03,35,261,42,04,33,311,44,16,50,212,45,26,80,210,47*7D
###2023-12-09 13:01:38.982383$GPGSV,2,2,08,28,49,070,44,29,25,061,43,31,69,038,47,32,19,140,43*73
###2023-12-09 13:01:38.984732$GLGSV,2,1,06,65,24,327,42,71,41,173,45,72,73,269,46,73,36,041,46*6A
###2023-12-09 13:01:38.986488$GLGSV,2,2,06,74,70,337,43,75,32,253,43,,,,,,,,*67
###2023-12-09 13:01:38.988848$GAGSV,1,1,04,04,29,312,42,19,84,216,39,21,86,120,46,27,33,048,43*6C
###2023-12-09 13:01:38.991205$GBGSV,2,1,05,14,43,193,42,24,74,024,48,25,41,262,45,26,26,063,45*6C
###2023-12-09 13:01:38.992675$GBGSV,2,2,05,33,57,233,46,,,,,,,,,,,,*5C
###2023-12-09 13:01:38.994004$GNVTG,221.71,T,,M,3.40,N,6.30,K,A*26
###2023-12-09 13:01:38.995683$GNGST,180138.10,19.000,,,,0.080,0.068,0.160*5C
###2023-12-09 13:01:38.996987$GNZDA,180138.10,09,12,2023,00,00*73
###2023-12-09 13:01:38.997628$GNEBP,,,,,,M*13
###2023-12-09 13:01:39.167708$GNGGA,180138.30,4138.0486316,N,07032.2654102,W,1,24,0.6,13.420,M,-29.743,M,0.0,*5C
###2023-12-09 13:01:39.365347$GNGGA,180138.50,4138.0484915,N,07032.2655499,W,1,24,0.6,13.419,M,-29.743,M,0.0,*5D
###2023-12-09 13:01:39.565388$GNGGA,180138.70,4138.0483432,N,07032.2657015,W,1,24,0.6,13.413,M,-29.743,M,0.0,*58
###2023-12-09 13:01:39.765545$GNGGA,180138.90,4138.0481944,N,07032.2658414,W,1,24,0.6,13.395,M,-29.743,M,0.0,*5B
###2023-12-09 13:01:39.966498$GNRMC,180139.10,A,4138.0480545,N,07032.2659865,W,3.29,216.22,091223,,,A*54
###2023-12-09 13:01:39.969398$GNGGA,180139.10,4138.0480545,N,07032.2659865,W,1,24,0.6,13.418,M,-29.743,M,0.0,*57
###2023-12-09 13:01:39.971268$GPGSA,A,3,03,04,16,26,28,29,31,32,,,,,1.1,0.6,0.9*3B
###2023-12-09 13:01:39.972978$GLGSA,A,3,65,71,72,73,74,75,,,,,,,1.1,0.6,0.9*24
###2023-12-09 13:01:39.974553$GAGSA,A,3,04,19,21,27,,,,,,,,,1.1,0.6,0.9*26
###2023-12-09 13:01:39.976207$GBGSA,A,3,14,24,25,26,33,,,,,,,,1.1,0.6,0.9*2F
###2023-12-09 13:01:39.978531$GPGSV,2,1,08,03,35,261,42,04,33,311,44,16,50,212,43,26,80,210,47*7B
###2023-12-09 13:01:39.980865$GPGSV,2,2,08,28,49,070,45,29,25,061,44,31,69,038,47,32,19,140,43*75
###2023-12-09 13:01:39.983196$GLGSV,2,1,06,65,24,327,42,71,41,173,46,72,73,269,45,73,36,041,47*6B
###2023-12-09 13:01:39.984942$GLGSV,2,2,06,74,70,337,43,75,32,253,44,,,,,,,,*60
###2023-12-09 13:01:39.987279$GAGSV,1,1,04,04,29,312,42,19,84,216,40,21,86,120,46,27,33,048,43*62
###2023-12-09 13:01:39.989597$GBGSV,2,1,05,14,43,193,43,24,74,024,49,25,41,262,44,26,26,063,45*6D
###2023-12-09 13:01:39.991057$GBGSV,2,2,05,33,57,233,46,,,,,,,,,,,,*5C
###2023-12-09 13:01:39.992378$GNVTG,216.22,T,,M,3.29,N,6.08,K,A*20
###2023-12-09 13:01:39.994027$GNGST,180139.10,18.000,,,,0.080,0.068,0.160*5C
###2023-12-09 13:01:39.995323$GNZDA,180139.10,09,12,2023,00,00*72
###2023-12-09 13:01:39.995961$GNEBP,,,,,,M*13
###2023-12-09 13:01:40.162287$GNGGA,180139.30,4138.0478977,N,07032.2661321,W,1,24,0.6,13.409,M,-29.743,M,0.0,*5F
###2023-12-09 13:01:40.362686$GNGGA,180139.50,4138.0477449,N,07032.2662761,W,1,24,0.6,13.379,M,-29.743,M,0.0,*55
###2023-12-09 13:01:40.561941$GNGGA,180139.70,4138.0476067,N,07032.2664468,W,1,24,0.6,13.399,M,-29.743,M,0.0,*5C
###2023-12-09 13:01:40.763295$GNGGA,180139.90,4138.0474622,N,07032.2666242,W,1,24,0.6,13.408,M,-29.743,M,0.0,*54
###2023-12-09 13:01:40.965621$GNRMC,180140.10,A,4138.0473039,N,07032.2667692,W,3.44,211.95,091223,,,A*53
###2023-12-09 13:01:40.968503$GNGGA,180140.10,4138.0473039,N,07032.2667692,W,1,24,0.6,13.366,M,-29.743,M,0.0,*5E
###2023-12-09 13:01:40.970356$GPGSA,A,3,03,04,16,26,28,29,31,32,,,,,1.1,0.6,0.9*3B
###2023-12-09 13:01:40.972073$GLGSA,A,3,65,71,72,73,74,75,,,,,,,1.1,0.6,0.9*24
###2023-12-09 13:01:40.973649$GAGSA,A,3,04,19,21,27,,,,,,,,,1.1,0.6,0.9*26
###2023-12-09 13:01:40.975303$GBGSA,A,3,14,24,25,26,33,,,,,,,,1.1,0.6,0.9*2F
###2023-12-09 13:01:40.977621$GPGSV,2,1,08,03,35,261,42,04,33,311,43,16,50,212,43,26,80,210,47*7C
###2023-12-09 13:01:40.979954$GPGSV,2,2,08,28,49,070,45,29,25,061,43,31,69,038,47,32,19,140,44*75
###2023-12-09 13:01:40.982275$GLGSV,2,1,06,65,24,327,42,71,41,173,46,72,73,269,46,73,36,041,47*68
###2023-12-09 13:01:40.984016$GLGSV,2,2,06,74,70,337,43,75,32,253,44,,,,,,,,*60
###2023-12-09 13:01:40.986332$GAGSV,1,1,04,04,29,312,42,19,84,216,40,21,86,120,46,27,33,048,44*65
###2023-12-09 13:01:40.988662$GBGSV,2,1,05,14,43,193,43,24,74,024,49,25,41,262,44,26,26,063,44*6C
###2023-12-09 13:01:40.990116$GBGSV,2,2,05,33,57,233,47,,,,,,,,,,,,*5D
###2023-12-09 13:01:40.991449$GNVTG,211.95,T,,M,3.44,N,6.37,K,A*2C
###2023-12-09 13:01:40.993100$GNGST,180140.10,18.000,,,,0.080,0.068,0.160*52
###2023-12-09 13:01:40.994395$GNZDA,180140.10,09,12,2023,00,00*7C
###2023-12-09 13:01:40.995041$GNEBP,,,,,,M*13
###2023-12-09 13:01:41.162243$GNGGA,180140.30,4138.0471470,N,07032.2669177,W,1,24,0.6,13.353,M,-29.743,M,0.0,*53
###2023-12-09 13:01:41.362954$GNGGA,180140.50,4138.0470072,N,07032.2670967,W,1,24,0.6,13.368,M,-29.743,M,0.0,*5B
###2023-12-09 13:01:41.563020$GNGGA,180140.70,4138.0468661,N,07032.2672723,W,1,24,0.6,13.376,M,-29.743,M,0.0,*57
###2023-12-09 13:01:41.763159$GNGGA,180140.90,4138.0467019,N,07032.2674119,W,1,24,0.6,13.341,M,-29.743,M,0.0,*52
###2023-12-09 13:01:41.965221$GNRMC,180141.10,A,4138.0465518,N,07032.2675692,W,3.48,226.54,091223,,,A*55
###2023-12-09 13:01:41.968099$GNGGA,180141.10,4138.0465518,N,07032.2675692,W,1,24,0.6,13.323,M,-29.743,M,0.0,*5C
###2023-12-09 13:01:41.969959$GPGSA,A,3,03,04,16,26,28,29,31,32,,,,,1.1,0.6,0.9*3B
###2023-12-09 13:01:41.971688$GLGSA,A,3,65,71,72,73,74,75,,,,,,,1.1,0.6,0.9*24
###2023-12-09 13:01:41.973270$GAGSA,A,3,04,19,21,27,,,,,,,,,1.1,0.6,0.9*26
###2023-12-09 13:01:41.974928$GBGSA,A,3,14,24,25,26,33,,,,,,,,1.1,0.6,0.9*2F
###2023-12-09 13:01:41.977249$GPGSV,2,1,08,03,35,261,42,04,33,311,42,16,50,212,44,26,80,210,47*7A
###2023-12-09 13:01:41.979585$GPGSV,2,2,08,28,49,070,44,29,25,061,44,31,69,038,47,32,19,140,44*73
###2023-12-09 13:01:41.981906$GLGSV,2,1,06,65,24,327,41,71,41,173,45,72,73,269,46,73,36,041,47*68
###2023-12-09 13:01:41.983657$GLGSV,2,2,06,74,70,337,43,75,32,253,43,,,,,,,,*67
###2023-12-09 13:01:41.985969$GAGSV,1,1,04,04,29,312,41,19,84,216,40,21,86,120,46,27,33,048,44*66
###2023-12-09 13:01:41.988305$GBGSV,2,1,05,14,43,193,43,24,74,024,49,25,41,262,44,26,26,063,45*6D
###2023-12-09 13:01:41.989758$GBGSV,2,2,05,33,57,233,45,,,,,,,,,,,,*5F
###2023-12-09 13:01:41.991084$GNVTG,226.54,T,,M,3.48,N,6.44,K,A*2D
###2023-12-09 13:01:41.992723$GNGST,180141.10,18.000,,,,0.079,0.068,0.160*55
###2023-12-09 13:01:41.994008$GNZDA,180141.10,09,12,2023,00,00*7D
###2023-12-09 13:01:41.994652$GNEBP,,,,,,M*13
###2023-12-09 13:01:42.162124$GNGGA,180141.30,4138.0464258,N,07032.2677682,W,1,24,0.6,13.347,M,-29.743,M,0.0,*5D
###2023-12-09 13:01:42.364152$GNGGA,180141.50,4138.0463038,N,07032.2679663,W,1,24,0.6,13.352,M,-29.743,M,0.0,*5D
###2023-12-09 13:01:42.564119$GNGGA,180141.70,4138.0461656,N,07032.2681453,W,1,24,0.6,13.331,M,-29.743,M,0.0,*50
###2023-12-09 13:01:42.764031$GNGGA,180141.90,4138.0460418,N,07032.2683288,W,1,24,0.6,13.317,M,-29.743,M,0.0,*51
###2023-12-09 13:01:42.967229$GNRMC,180142.10,A,4138.0459487,N,07032.2685482,W,3.36,240.99,091223,,,A*5A
###2023-12-09 13:01:42.970749$GNGGA,180142.10,4138.0459487,N,07032.2685482,W,1,24,0.6,13.341,M,-29.743,M,0.0,*5F
###2023-12-09 13:01:42.973016$GPGSA,A,3,03,04,16,26,28,29,31,32,,,,,1.1,0.6,0.9*3B
###2023-12-09 13:01:42.975157$GLGSA,A,3,65,71,72,73,74,75,,,,,,,1.1,0.6,0.9*24
###2023-12-09 13:01:42.977081$GAGSA,A,3,04,19,21,27,,,,,,,,,1.1,0.6,0.9*26
###2023-12-09 13:01:42.979080$GBGSA,A,3,14,24,25,26,33,,,,,,,,1.1,0.6,0.9*2F
###2023-12-09 13:01:42.981915$GPGSV,2,1,08,03,35,261,42,04,33,311,41,16,50,212,44,26,80,210,47*79
###2023-12-09 13:01:42.984767$GPGSV,2,2,08,28,49,070,45,29,25,061,42,31,69,038,47,32,19,140,44*74
###2023-12-09 13:01:42.987593$GLGSV,2,1,06,65,24,327,41,71,41,173,47,72,73,269,45,73,36,041,47*69
###2023-12-09 13:01:42.990045$GLGSV,2,2,06,74,70,337,43,75,32,253,44,,,,,,,,*60
###2023-12-09 13:01:42.992891$GAGSV,1,1,04,04,29,312,40,19,84,216,40,21,86,120,46,27,33,048,43*60
###2023-12-09 13:01:42.995730$GBGSV,2,1,05,14,43,193,45,24,74,024,50,25,41,262,45,26,26,063,44*63
###2023-12-09 13:01:42.997490$GBGSV,2,2,05,33,57,233,47,,,,,,,,,,,,*5D
###2023-12-09 13:01:42.999101$GNVTG,240.99,T,,M,3.36,N,6.23,K,A*24
###2023-12-09 13:01:43.001088$GNGST,180142.10,18.000,,,,0.079,0.068,0.160*56
###2023-12-09 13:01:43.002707$GNZDA,180142.10,09,12,2023,00,00*7E
###2023-12-09 13:01:43.003479$GNEBP,,,,,,M*13
###2023-12-09 13:01:43.165371$GNGGA,180142.30,4138.0458542,N,07032.2687560,W,1,24,0.6,13.318,M,-29.743,M,0.0,*57
