###2023-12-09 12:30:31.930516$GPGSA,A,3,03,04,16,26,28,29,31,32,,,,,1.4,0.7,1.2*35
###2023-12-09 12:30:31.932205$GLGSA,A,3,71,72,73,75,,,,,,,,,1.4,0.7,1.2*2A
###2023-12-09 12:30:31.933705$GAGSA,A,3,21,27,,,,,,,,,,,1.4,0.7,1.2*24
###2023-12-09 12:30:31.935350$GBGSA,A,3,14,25,26,33,,,,,,,,,1.4,0.7,1.2*27
###2023-12-09 12:30:31.937719$GPGSV,2,1,08,03,39,280,40,04,20,310,36,16,34,206,39,26,64,206,44*78
###2023-12-09 12:30:31.940101$GPGSV,2,2,08,28,60,053,44,29,25,076,44,31,73,353,42,32,32,133,48*7E
###2023-12-09 12:30:31.942467$GLGSV,1,1,04,71,59,168,49,72,64,313,41,73,50,032,45,75,20,239,39*69
###2023-12-09 12:30:31.944321$GAGSV,1,1,02,21,76,178,39,27,43,050,45,,,,,,,,*6A
###2023-12-09 12:30:31.946737$GBGSV,1,1,04,14,57,199,44,25,31,251,38,26,36,056,45,33,63,258,35*6E
###2023-12-09 12:30:31.947933$GNVTG,,T,,M,0.02,N,0.04,K,A*3B
###2023-12-09 12:30:31.949616$GNGST,173031.10,31.000,,,,0.100,0.110,0.270*57
###2023-12-09 12:30:31.950972$GNZDA,173031.10,09,12,2023,00,00*77
###2023-12-09 12:30:31.951654$GNEBP,,,,,,M*13
###2023-12-09 12:30:32.124359$GNGGA,173031.30,4138.0382094,N,07032.4367829,W,1,18,0.7,13.683,M,-29.746,M,0.0,*51
###2023-12-09 12:30:32.324342$GNGGA,173031.50,4138.0382058,N,07032.4367782,W,1,18,0.7,13.709,M,-29.746,M,0.0,*5A
###2023-12-09 12:30:32.525760$GNGGA,173031.70,4138.0382020,N,07032.4367732,W,1,18,0.7,13.730,M,-29.746,M,0.0,*56
###2023-12-09 12:30:32.723960$GNGGA,173031.90,4138.0381978,N,07032.4367683,W,1,18,0.7,13.759,M,-29.746,M,0.0,*5B
###2023-12-09 12:30:32.933195$GNRMC,173032.10,A,4138.0381947,N,07032.4367663,W,0.00,,091223,,,A*4F
###2023-12-09 12:30:32.936360$GNGGA,173032.10,4138.0381947,N,07032.4367663,W,1,18,0.7,13.778,M,-29.746,M,0.0,*51
###2023-12-09 12:30:32.938431$GPGSA,A,3,03,04,16,26,28,29,31,32,,,,,1.4,0.7,1.2*35
###2023-12-09 12:30:32.940241$GLGSA,A,3,71,72,73,75,,,,,,,,,1.4,0.7,1.2*2A
###2023-12-09 12:30:32.941897$GAGSA,A,3,21,27,,,,,,,,,,,1.4,0.7,1.2*24
###2023-12-09 12:30:32.943680$GBGSA,A,3,14,25,26,33,,,,,,,,,1.4,0.7,1.2*27
###2023-12-09 12:30:32.946212$GPGSV,2,1,08,03,39,280,40,04,20,310,36,16,34,206,39,26,64,206,44*78
###2023-12-09 12:30:32.948635$GPGSV,2,2,08,28,60,053,44,29,25,076,44,31,73,353,42,32,32,133,48*7E
###2023-12-09 12:30:32.951043$GLGSV,1,1,04,71,59,168,48,72,64,313,40,73,50,032,45,75,20,239,39*69
###2023-12-09 12:30:32.952836$GAGSV,1,1,02,21,76,178,39,27,43,050,45,,,,,,,,*6A
###2023-12-09 12:30:32.955217$GBGSV,1,1,04,14,57,199,44,25,31,251,37,26,36,056,45,33,63,258,35*61
###2023-12-09 12:30:32.956398$GNVTG,,T,,M,0.00,N,0.00,K,A*3D
###2023-12-09 12:30:32.958085$GNGST,173032.10,31.000,,,,0.100,0.110,0.270*54
###2023-12-09 12:30:32.959440$GNZDA,173032.10,09,12,2023,00,00*74
###2023-12-09 12:30:32.960121$GNEBP,,,,,,M*13
###2023-12-09 12:30:33.128530$GNGGA,173032.30,4138.0381934,N,07032.4367627,W,1,18,0.7,13.802,M,-29.746,M,0.0,*55
###2023-12-09 12:30:33.327847$GNGGA,173032.50,4138.0381918,N,07032.4367588,W,1,18,0.7,13.823,M,-29.746,M,0.0,*58
###2023-12-09 12:30:33.526274$GNGGA,173032.70,4138.0381914,N,07032.4367560,W,1,18,0.7,13.835,M,-29.746,M,0.0,*57
###2023-12-09 12:30:33.726095$GNGGA,173032.90,4138.0381904,N,07032.4367526,W,1,18,0.7,13.846,M,-29.746,M,0.0,*5E
###2023-12-09 12:30:33.926072$GNRMC,173033.10,A,4138.0381890,N,07032.4367494,W,0.02,,091223,,,A*4D
###2023-12-09 12:30:33.929236$GNGGA,173033.10,4138.0381890,N,07032.4367494,W,1,18,0.7,13.861,M,-29.746,M,0.0,*56
###2023-12-09 12:30:33.931172$GPGSA,A,3,03,04,16,26,28,29,31,32,,,,,1.4,0.7,1.2*35
###2023-12-09 12:30:33.932805$GLGSA,A,3,71,72,73,75,,,,,,,,,1.4,0.7,1.2*2A
###2023-12-09 12:30:33.934294$GAGSA,A,3,21,27,,,,,,,,,,,1.4,0.7,1.2*24
###2023-12-09 12:30:33.935926$GBGSA,A,3,14,25,26,33,,,,,,,,,1.4,0.7,1.2*27
###2023-12-09 12:30:33.938297$GPGSV,2,1,08,03,39,280,40,04,20,310,36,16,34,206,38,26,64,206,44*79
###2023-12-09 12:30:33.940696$GPGSV,2,2,08,28,60,053,45,29,25,076,44,31,73,353,42,32,32,133,48*7F
###2023-12-09 12:30:33.943074$GLGSV,1,1,04,71,59,168,48,72,64,313,40,73,50,032,45,75,20,239,39*69
###2023-12-09 12:30:33.944870$GAGSV,1,1,02,21,76,178,39,27,43,050,45,,,,,,,,*6A
###2023-12-09 12:30:33.947275$GBGSV,1,1,04,14,57,199,44,25,31,251,37,26,36,056,45,33,63,258,36*62
###2023-12-09 12:30:33.948470$GNVTG,,T,,M,0.02,N,0.04,K,A*3B
###2023-12-09 12:30:33.950158$GNGST,173033.10,31.000,,,,0.100,0.110,0.270*55
###2023-12-09 12:30:33.951526$GNZDA,173033.10,09,12,2023,00,00*75
###2023-12-09 12:30:33.952212$GNEBP,,,,,,M*13
###2023-12-09 12:30:34.126183$GNGGA,173033.30,4138.0381884,N,07032.4367462,W,1,18,0.7,13.879,M,-29.746,M,0.0,*51
###2023-12-09 12:30:34.326203$GNGGA,173033.50,4138.0381867,N,07032.4367434,W,1,18,0.7,13.886,M,-29.746,M,0.0,*59
###2023-12-09 12:30:34.525882$GNGGA,173033.70,4138.0381836,N,07032.4367390,W,1,18,0.7,13.893,M,-29.746,M,0.0,*52
###2023-12-09 12:30:34.724991$GNGGA,173033.90,4138.0381822,N,07032.4367356,W,1,18,0.7,13.907,M,-29.746,M,0.0,*5F
###2023-12-09 12:30:34.927683$GNRMC,173034.10,A,4138.0381808,N,07032.4367331,W,0.08,,091223,,,A*49
###2023-12-09 12:30:34.930558$GNGGA,173034.10,4138.0381808,N,07032.4367331,W,1,18,0.7,13.926,M,-29.746,M,0.0,*5A
###2023-12-09 12:30:34.932436$GPGSA,A,3,03,04,16,26,28,29,31,32,,,,,1.4,0.7,1.2*35
###2023-12-09 12:30:34.934023$GLGSA,A,3,71,72,73,75,,,,,,,,,1.4,0.7,1.2*2A
###2023-12-09 12:30:34.935487$GAGSA,A,3,21,27,,,,,,,,,,,1.4,0.7,1.2*24
###2023-12-09 12:30:34.937064$GBGSA,A,3,14,25,26,33,,,,,,,,,1.4,0.7,1.2*27
###2023-12-09 12:30:34.939387$GPGSV,2,1,08,03,39,280,40,04,20,310,37,16,34,206,38,26,64,206,44*78
###2023-12-09 12:30:34.941727$GPGSV,2,2,08,28,60,053,44,29,25,076,44,31,73,353,42,32,32,133,48*7E
###2023-12-09 12:30:34.944063$GLGSV,1,1,04,71,59,168,48,72,64,313,40,73,50,032,44,75,20,239,39*68
###2023-12-09 12:30:34.945812$GAGSV,1,1,02,21,76,178,39,27,43,050,45,,,,,,,,*6A
###2023-12-09 12:30:34.948168$GBGSV,1,1,04,14,57,199,44,25,31,251,36,26,36,056,44,33,63,258,36*62
###2023-12-09 12:30:34.949320$GNVTG,,T,,M,0.08,N,0.14,K,A*30
###2023-12-09 12:30:34.950981$GNGST,173034.10,31.000,,,,0.100,0.110,0.270*52
###2023-12-09 12:30:34.952321$GNZDA,173034.10,09,12,2023,00,00*72
###2023-12-09 12:30:34.952973$GNEBP,,,,,,M*13
###2023-12-09 12:30:35.127868$GNGGA,173034.30,4138.0381789,N,07032.4367282,W,1,18,0.7,13.943,M,-29.746,M,0.0,*54
###2023-12-09 12:30:35.326164$GNGGA,173034.50,4138.0381787,N,07032.4367268,W,1,18,0.7,13.957,M,-29.746,M,0.0,*5D
###2023-12-09 12:30:35.526810$GNGGA,173034.70,4138.0381783,N,07032.4367226,W,1,18,0.7,13.982,M,-29.746,M,0.0,*59
###2023-12-09 12:30:35.724797$GNGGA,173034.90,4138.0381772,N,07032.4367217,W,1,18,0.7,13.999,M,-29.746,M,0.0,*51
###2023-12-09 12:30:35.926273$GNRMC,173035.10,A,4138.0381756,N,07032.4367214,W,0.04,,091223,,,A*46
###2023-12-09 12:30:35.929952$GNGGA,173035.10,4138.0381756,N,07032.4367214,W,1,18,0.7,14.010,M,-29.746,M,0.0,*52
###2023-12-09 12:30:35.932235$GPGSA,A,3,03,04,16,26,28,29,31,32,,,,,1.4,0.7,1.2*35
###2023-12-09 12:30:35.934157$GLGSA,A,3,71,72,73,75,,,,,,,,,1.4,0.7,1.2*2A
###2023-12-09 12:30:35.935933$GAGSA,A,3,21,27,,,,,,,,,,,1.4,0.7,1.2*24
###2023-12-09 12:30:35.937847$GBGSA,A,3,14,25,26,33,,,,,,,,,1.4,0.7,1.2*27
###2023-12-09 12:30:35.940676$GPGSV,2,1,08,03,39,280,40,04,20,310,37,16,34,206,38,26,64,206,44*78
###2023-12-09 12:30:35.943546$GPGSV,2,2,08,28,60,053,44,29,25,076,44,31,73,353,42,32,32,133,48*7E
###2023-12-09 12:30:35.946412$GLGSV,1,1,04,71,59,168,48,72,64,313,40,73,50,032,44,75,20,239,39*68
###2023-12-09 12:30:35.948611$GAGSV,1,1,02,21,76,178,39,27,43,050,45,,,,,,,,*6A
###2023-12-09 12:30:35.951483$GBGSV,1,1,04,14,57,199,44,25,31,251,36,26,36,056,44,33,63,258,36*62
###2023-12-09 12:30:35.952873$GNVTG,,T,,M,0.04,N,0.07,K,A*3E
###2023-12-09 12:30:35.954889$GNGST,173035.10,31.000,,,,0.100,0.110,0.270*53
###2023-12-09 12:30:35.956465$GNZDA,173035.10,09,12,2023,00,00*73
###2023-12-09 12:30:35.957248$GNEBP,,,,,,M*13
###2023-12-09 12:30:36.127404$GNGGA,173035.30,4138.0381741,N,07032.4367188,W,1,18,0.7,14.022,M,-29.746,M,0.0,*51
###2023-12-09 12:30:36.326808$GNGGA,173035.50,4138.0381728,N,07032.4367178,W,1,18,0.7,14.029,M,-29.746,M,0.0,*5C
###2023-12-09 12:30:36.528795$GNGGA,173035.70,4138.0381705,N,07032.4367171,W,1,18,0.7,14.034,M,-29.746,M,0.0,*54
###2023-12-09 12:30:36.726270$GNGGA,173035.90,4138.0381697,N,07032.4367162,W,1,18,0.7,14.048,M,-29.746,M,0.0,*59
###2023-12-09 12:30:36.927991$GNRMC,173036.10,A,4138.0381677,N,07032.4367153,W,0.00,,091223,,,A*43
###2023-12-09 12:30:36.931477$GNGGA,173036.10,4138.0381677,N,07032.4367153,W,1,18,0.7,14.053,M,-29.746,M,0.0,*54
###2023-12-09 12:30:36.933731$GPGSA,A,3,03,04,16,26,28,29,31,32,,,,,1.4,0.7,1.2*35
###2023-12-09 12:30:36.935662$GLGSA,A,3,71,72,73,75,,,,,,,,,1.4,0.7,1.2*2A
###2023-12-09 12:30:36.937428$GAGSA,A,3,21,27,,,,,,,,,,,1.4,0.7,1.2*24
###2023-12-09 12:30:36.939351$GBGSA,A,3,14,25,26,33,,,,,,,,,1.4,0.7,1.2*27
###2023-12-09 12:30:36.942146$GPGSV,2,1,08,03,39,280,40,04,20,310,37,16,34,206,39,26,64,206,44*79
