###2023-12-09 12:56:38.963288$GPGSA,A,3,03,04,16,26,28,29,31,32,,,,,1.1,0.6,0.9*3B
###2023-12-09 12:56:38.965035$GLGSA,A,3,65,71,72,73,74,75,,,,,,,1.1,0.6,0.9*24
###2023-12-09 12:56:38.966642$GAGSA,A,3,04,19,21,27,,,,,,,,,1.1,0.6,0.9*26
###2023-12-09 12:56:38.968298$GBGSA,A,3,14,24,25,26,33,,,,,,,,1.1,0.6,0.9*2F
###2023-12-09 12:56:38.970652$GPGSV,2,1,08,03,36,265,44,04,30,311,42,16,47,211,46,26,77,209,48*70
###2023-12-09 12:56:38.973001$GPGSV,2,2,08,28,51,068,44,29,25,064,40,31,70,031,46,32,21,139,43*70
###2023-12-09 12:56:38.975365$GLGSV,2,1,06,65,21,328,43,71,44,172,49,72,72,281,47,73,38,040,42*64
###2023-12-09 12:56:38.977126$GLGSV,2,2,06,74,71,327,43,75,30,250,45,,,,,,,,*60
###2023-12-09 12:56:38.979475$GAGSV,1,1,04,04,27,312,42,19,85,234,41,21,85,141,47,27,34,048,42*6F
###2023-12-09 12:56:38.981823$GBGSV,2,1,05,14,45,193,46,24,75,020,48,25,39,260,46,26,27,062,42*62
###2023-12-09 12:56:38.983307$GBGSV,2,2,05,33,59,237,47,,,,,,,,,,,,*57
###2023-12-09 12:56:38.984648$GNVTG,335.49,T,,M,0.99,N,1.84,K,A*26
###2023-12-09 12:56:38.986311$GNGST,175638.10,18.000,,,,0.075,0.065,0.150*54
###2023-12-09 12:56:38.987632$GNZDA,175638.10,09,12,2023,00,00*7E
###2023-12-09 12:56:38.988277$GNEBP,,,,,,M*13
###2023-12-09 12:56:39.158537$GNGGA,175638.30,4138.0455525,N,07032.3895636,W,1,24,0.6,13.468,M,-29.745,M,0.0,*51
###2023-12-09 12:56:39.358159$GNGGA,175638.50,4138.0455435,N,07032.3895523,W,1,24,0.6,13.497,M,-29.745,M,0.0,*50
###2023-12-09 12:56:39.558360$GNGGA,175638.70,4138.0455370,N,07032.3895425,W,1,24,0.6,13.490,M,-29.745,M,0.0,*54
###2023-12-09 12:56:39.758104$GNGGA,175638.90,4138.0455603,N,07032.3895574,W,1,24,0.6,13.489,M,-29.745,M,0.0,*56
###2023-12-09 12:56:39.955225$GNRMC,175639.10,A,4138.0456017,N,07032.3895875,W,0.74,335.49,091223,,,A*58
###2023-12-09 12:56:39.958084$GNGGA,175639.10,4138.0456017,N,07032.3895875,W,1,24,0.6,13.486,M,-29.745,M,0.0,*5C
###2023-12-09 12:56:39.959968$GPGSA,A,3,03,04,16,26,28,29,31,32,,,,,1.1,0.6,0.9*3B
###2023-12-09 12:56:39.961687$GLGSA,A,3,65,71,72,73,74,75,,,,,,,1.1,0.6,0.9*24
###2023-12-09 12:56:39.963285$GAGSA,A,3,04,19,21,27,,,,,,,,,1.1,0.6,0.9*26
###2023-12-09 12:56:39.964938$GBGSA,A,3,14,24,25,26,33,,,,,,,,1.1,0.6,0.9*2F
###2023-12-09 12:56:39.967277$GPGSV,2,1,08,03,36,265,45,04,30,311,42,16,47,211,46,26,77,209,48*71
###2023-12-09 12:56:39.969610$GPGSV,2,2,08,28,51,068,43,29,25,064,40,31,70,031,47,32,21,139,42*77
###2023-12-09 12:56:39.971946$GLGSV,2,1,06,65,21,328,44,71,44,172,48,72,72,281,47,73,38,040,44*64
###2023-12-09 12:56:39.973685$GLGSV,2,2,06,74,71,327,43,75,30,250,46,,,,,,,,*63
###2023-12-09 12:56:39.976022$GAGSV,1,1,04,04,27,312,43,19,85,234,40,21,85,141,46,27,34,048,42*6E
###2023-12-09 12:56:39.978351$GBGSV,2,1,05,14,45,193,45,24,75,020,48,25,39,260,46,26,27,062,42*61
###2023-12-09 12:56:39.979816$GBGSV,2,2,05,33,59,235,47,,,,,,,,,,,,*55
###2023-12-09 12:56:39.981137$GNVTG,335.49,T,,M,0.74,N,1.37,K,A*2D
###2023-12-09 12:56:39.982789$GNGST,175639.10,18.000,,,,0.075,0.065,0.150*55
###2023-12-09 12:56:39.984085$GNZDA,175639.10,09,12,2023,00,00*7F
###2023-12-09 12:56:39.984730$GNEBP,,,,,,M*13
###2023-12-09 12:56:40.154629$GNGGA,175639.30,4138.0456193,N,07032.3895986,W,1,24,0.6,13.489,M,-29.745,M,0.0,*51
###2023-12-09 12:56:40.357613$GNGGA,175639.50,4138.0456098,N,07032.3895839,W,1,24,0.6,13.514,M,-29.745,M,0.0,*5D
###2023-12-09 12:56:40.556438$GNGGA,175639.70,4138.0456061,N,07032.3895770,W,1,24,0.6,13.510,M,-29.745,M,0.0,*5F
###2023-12-09 12:56:40.755367$GNGGA,175639.90,4138.0456336,N,07032.3895973,W,1,24,0.6,13.510,M,-29.745,M,0.0,*5D
###2023-12-09 12:56:40.956222$GNRMC,175640.10,A,4138.0456743,N,07032.3896259,W,0.64,335.49,091223,,,A*56
###2023-12-09 12:56:40.959118$GNGGA,175640.10,4138.0456743,N,07032.3896259,W,1,24,0.6,13.507,M,-29.745,M,0.0,*5B
###2023-12-09 12:56:40.960982$GPGSA,A,3,03,04,16,26,28,29,31,32,,,,,1.1,0.6,0.9*3B
###2023-12-09 12:56:40.962715$GLGSA,A,3,65,71,72,73,74,75,,,,,,,1.1,0.6,0.9*24
###2023-12-09 12:56:40.964296$GAGSA,A,3,04,19,21,27,,,,,,,,,1.1,0.6,0.9*26
###2023-12-09 12:56:40.965939$GBGSA,A,3,14,24,25,26,33,,,,,,,,1.1,0.6,0.9*2F
###2023-12-09 12:56:40.968293$GPGSV,2,1,08,03,36,265,44,04,30,311,43,16,47,211,45,26,77,209,48*72
###2023-12-09 12:56:40.970639$GPGSV,2,2,08,28,51,068,43,29,25,064,38,31,70,031,46,32,21,139,40*7B
###2023-12-09 12:56:40.972973$GLGSV,2,1,06,65,21,328,45,71,44,172,48,72,72,281,47,73,38,040,43*62
###2023-12-09 12:56:40.974763$GLGSV,2,2,06,74,71,327,43,75,30,250,45,,,,,,,,*60
###2023-12-09 12:56:40.977090$GAGSV,1,1,04,04,27,312,43,19,85,234,40,21,85,141,46,27,34,048,41*6D
###2023-12-09 12:56:40.979424$GBGSV,2,1,05,14,45,193,45,24,75,020,48,25,39,260,46,26,27,062,42*61
###2023-12-09 12:56:40.980879$GBGSV,2,2,05,33,59,235,47,,,,,,,,,,,,*55
###2023-12-09 12:56:40.982198$GNVTG,335.49,T,,M,0.64,N,1.19,K,A*20
###2023-12-09 12:56:40.983854$GNGST,175640.10,18.000,,,,0.075,0.065,0.150*5B
###2023-12-09 12:56:40.985141$GNZDA,175640.10,09,12,2023,00,00*71
###2023-12-09 12:56:40.985778$GNEBP,,,,,,M*13
###2023-12-09 12:56:41.155623$GNGGA,175640.30,4138.0456856,N,07032.3896303,W,1,24,0.6,13.515,M,-29.745,M,0.0,*5F
###2023-12-09 12:56:41.356393$GNGGA,175640.50,4138.0456706,N,07032.3896108,W,1,24,0.6,13.528,M,-29.745,M,0.0,*54
###2023-12-09 12:56:41.556626$GNGGA,175640.70,4138.0456674,N,07032.3896092,W,1,24,0.6,13.511,M,-29.745,M,0.0,*5A
###2023-12-09 12:56:41.757933$GNGGA,175640.90,4138.0457057,N,07032.3896383,W,1,24,0.6,13.524,M,-29.745,M,0.0,*57
###2023-12-09 12:56:41.957112$GNRMC,175641.10,A,4138.0457461,N,07032.3896654,W,0.45,330.02,091223,,,A*55
###2023-12-09 12:56:41.959987$GNGGA,175641.10,4138.0457461,N,07032.3896654,W,1,24,0.6,13.518,M,-29.745,M,0.0,*5F
###2023-12-09 12:56:41.961847$GPGSA,A,3,03,04,16,26,28,29,31,32,,,,,1.1,0.6,0.9*3B
###2023-12-09 12:56:41.963577$GLGSA,A,3,65,71,72,73,74,75,,,,,,,1.1,0.6,0.9*24
###2023-12-09 12:56:41.965163$GAGSA,A,3,04,19,21,27,,,,,,,,,1.1,0.6,0.9*26
###2023-12-09 12:56:41.966815$GBGSA,A,3,14,24,25,26,33,,,,,,,,1.1,0.6,0.9*2F
###2023-12-09 12:56:41.969148$GPGSV,2,1,08,03,36,265,44,04,30,311,44,16,47,211,46,26,77,209,48*76
###2023-12-09 12:56:41.971489$GPGSV,2,2,08,28,51,068,44,29,25,064,39,31,70,031,47,32,21,139,39*72
###2023-12-09 12:56:41.973812$GLGSV,2,1,06,65,22,328,45,71,44,172,46,72,72,281,47,73,38,040,42*6E
###2023-12-09 12:56:41.975570$GLGSV,2,2,06,74,71,327,43,75,30,250,46,,,,,,,,*63
###2023-12-09 12:56:41.977900$GAGSV,1,1,04,04,27,312,44,19,85,234,41,21,85,141,47,27,34,048,41*6A
###2023-12-09 12:56:41.980241$GBGSV,2,1,05,14,45,193,45,24,75,020,48,25,39,260,46,26,27,062,42*61
###2023-12-09 12:56:41.981699$GBGSV,2,2,05,33,59,235,48,,,,,,,,,,,,*5A
###2023-12-09 12:56:41.983032$GNVTG,330.02,T,,M,0.45,N,0.83,K,A*2B
###2023-12-09 12:56:41.984679$GNGST,175641.10,18.000,,,,0.075,0.066,0.150*59
###2023-12-09 12:56:41.985971$GNZDA,175641.10,09,12,2023,00,00*70
###2023-12-09 12:56:41.986623$GNEBP,,,,,,M*13
###2023-12-09 12:56:42.155624$GNGGA,175641.30,4138.0457419,N,07032.3896563,W,1,24,0.6,13.536,M,-29.745,M,0.0,*59
###2023-12-09 12:56:42.359236$GNGGA,175641.50,4138.0457224,N,07032.3896412,W,1,24,0.6,13.535,M,-29.745,M,0.0,*53
###2023-12-09 12:56:42.556462$GNGGA,175641.70,4138.0457410,N,07032.3896530,W,1,24,0.6,13.538,M,-29.745,M,0.0,*5C
###2023-12-09 12:56:42.757126$GNGGA,175641.90,4138.0457867,N,07032.3896863,W,1,24,0.6,13.543,M,-29.745,M,0.0,*59
###2023-12-09 12:56:42.957418$GNRMC,175642.10,A,4138.0458102,N,07032.3897020,W,0.08,332.29,091223,,,A*5F
###2023-12-09 12:56:42.960301$GNGGA,175642.10,4138.0458102,N,07032.3897020,W,1,24,0.6,13.539,M,-29.745,M,0.0,*54
###2023-12-09 12:56:42.962163$GPGSA,A,3,03,04,16,26,28,29,31,32,,,,,1.1,0.6,0.9*3B
###2023-12-09 12:56:42.963899$GLGSA,A,3,65,71,72,73,74,75,,,,,,,1.1,0.6,0.9*24
###2023-12-09 12:56:42.965483$GAGSA,A,3,04,19,21,27,,,,,,,,,1.1,0.6,0.9*26
###2023-12-09 12:56:42.967138$GBGSA,A,3,14,24,25,26,33,,,,,,,,1.1,0.6,0.9*2F
###2023-12-09 12:56:42.969455$GPGSV,2,1,08,03,36,265,45,04,30,311,45,16,47,211,44,26,77,209,48*74
###2023-12-09 12:56:42.971795$GPGSV,2,2,08,28,51,068,44,29,25,064,39,31,70,031,46,32,21,139,40*7D
###2023-12-09 12:56:42.974119$GLGSV,2,1,06,65,22,328,44,71,44,172,46,72,72,281,47,73,38,040,44*69
###2023-12-09 12:56:42.976122$GLGSV,2,2,06,74,71,327,43,75,30,250,46,,,,,,,,*63
###2023-12-09 12:56:42.978457$GAGSV,1,1,04,04,27,312,44,19,85,234,41,21,85,141,46,27,34,048,41*6B
###2023-12-09 12:56:42.980803$GBGSV,2,1,05,14,45,193,42,24,75,020,48,25,39,260,45,26,27,062,41*66
###2023-12-09 12:56:42.982258$GBGSV,2,2,05,33,59,235,47,,,,,,,,,,,,*55
###2023-12-09 12:56:42.983592$GNVTG,332.29,T,,M,0.08,N,0.14,K,A*27
###2023-12-09 12:56:42.985236$GNGST,175642.10,18.000,,,,0.075,0.066,0.150*5A
###2023-12-09 12:56:42.986523$GNZDA,175642.10,09,12,2023,00,00*73
###2023-12-09 12:56:42.987169$GNEBP,,,,,,M*13
###2023-12-09 12:56:43.155603$GNGGA,175642.30,4138.0457954,N,07032.3896885,W,1,24,0.6,13.564,M,-29.745,M,0.0,*5C
