###2023-12-09 12:33:02.941185$GPGSA,A,3,03,04,16,26,28,29,31,32,,,,,1.2,0.7,1.0*31
###2023-12-09 12:33:02.943281$GLGSA,A,3,71,72,73,74,75,,,,,,,,1.2,0.7,1.0*2D
###2023-12-09 12:33:02.945244$GAGSA,A,3,04,19,21,27,,,,,,,,,1.2,0.7,1.0*2C
###2023-12-09 12:33:02.947307$GBGSA,A,3,14,24,25,26,33,,,,,,,,1.2,0.7,1.0*25
###2023-12-09 12:33:02.950200$GPGSV,2,1,08,03,39,278,43,04,21,310,43,16,36,207,45,26,65,206,48*7A
###2023-12-09 12:33:02.953091$GPGSV,2,2,08,28,58,055,44,29,25,075,39,31,73,358,47,32,31,134,44*7C
###2023-12-09 12:33:02.955986$GLGSV,2,1,05,71,58,169,48,72,65,311,47,73,49,033,45,74,71,287,43*6B
###2023-12-09 12:33:02.957800$GLGSV,2,2,05,75,21,240,40,,,,,,,,,,,,*53
###2023-12-09 12:33:02.960682$GAGSV,1,1,04,04,20,311,42,19,80,306,42,21,76,177,47,27,42,050,42*6C
###2023-12-09 12:33:02.963608$GBGSV,2,1,05,14,56,198,44,24,81,339,49,25,32,252,43,26,36,057,43*60
###2023-12-09 12:33:02.965416$GBGSV,2,2,05,33,63,257,49,,,,,,,,,,,,*56
###2023-12-09 12:33:02.967071$GNVTG,316.77,T,,M,0.58,N,1.08,K,A*23
###2023-12-09 12:33:02.969115$GNGST,173302.10,17.000,,,,0.120,0.100,0.240*50
###2023-12-09 12:33:02.970712$GNZDA,173302.10,09,12,2023,00,00*74
###2023-12-09 12:33:02.971494$GNEBP,,,,,,M*13
###2023-12-09 12:33:03.134726$GNGGA,173302.30,4138.0453794,N,07032.4306460,W,1,22,0.7,12.959,M,-29.745,M,0.0,*5B
###2023-12-09 12:33:03.332948$GNGGA,173302.50,4138.0453734,N,07032.4306253,W,1,22,0.7,12.960,M,-29.745,M,0.0,*5B
###2023-12-09 12:33:03.532886$GNGGA,173302.70,4138.0453712,N,07032.4306276,W,1,22,0.7,12.949,M,-29.745,M,0.0,*51
###2023-12-09 12:33:03.730344$GNGGA,173302.90,4138.0453834,N,07032.4306730,W,1,22,0.7,12.951,M,-29.745,M,0.0,*5A
###2023-12-09 12:33:03.933128$GNRMC,173303.10,A,4138.0453963,N,07032.4307163,W,0.31,316.77,091223,,,A*59
###2023-12-09 12:33:03.936024$GNGGA,173303.10,4138.0453963,N,07032.4307163,W,1,22,0.7,12.932,M,-29.745,M,0.0,*54
###2023-12-09 12:33:03.937902$GPGSA,A,3,03,04,16,26,28,29,31,32,,,,,1.2,0.7,1.0*31
###2023-12-09 12:33:03.939591$GLGSA,A,3,71,72,73,74,75,,,,,,,,1.2,0.7,1.0*2D
###2023-12-09 12:33:03.941193$GAGSA,A,3,04,19,21,27,,,,,,,,,1.2,0.7,1.0*2C
###2023-12-09 12:33:03.942872$GBGSA,A,3,14,24,25,26,33,,,,,,,,1.2,0.7,1.0*25
###2023-12-09 12:33:03.945208$GPGSV,2,1,08,03,39,278,38,04,21,310,44,16,36,207,45,26,65,206,48*71
###2023-12-09 12:33:03.947612$GPGSV,2,2,08,28,58,055,45,29,25,075,40,31,73,358,47,32,31,134,45*72
###2023-12-09 12:33:03.949996$GLGSV,2,1,05,71,58,169,46,72,65,311,46,73,49,033,46,74,71,287,43*67
###2023-12-09 12:33:03.951504$GLGSV,2,2,05,75,21,240,40,,,,,,,,,,,,*53
###2023-12-09 12:33:03.953859$GAGSV,1,1,04,04,20,311,42,19,80,306,41,21,76,177,46,27,42,050,42*6E
###2023-12-09 12:33:03.956232$GBGSV,2,1,05,14,56,198,44,24,81,339,49,25,32,252,44,26,36,057,43*67
###2023-12-09 12:33:03.957710$GBGSV,2,2,05,33,63,257,48,,,,,,,,,,,,*57
###2023-12-09 12:33:03.959079$GNVTG,316.77,T,,M,0.31,N,0.58,K,A*28
###2023-12-09 12:33:03.960745$GNGST,173303.10,18.000,,,,0.120,0.100,0.240*5E
###2023-12-09 12:33:03.962053$GNZDA,173303.10,09,12,2023,00,00*75
###2023-12-09 12:33:03.962725$GNEBP,,,,,,M*13
###2023-12-09 12:33:04.132223$GNGGA,173303.30,4138.0453927,N,07032.4307163,W,1,22,0.7,12.953,M,-29.745,M,0.0,*51
###2023-12-09 12:33:04.333774$GNGGA,173303.50,4138.0453877,N,07032.4307061,W,1,22,0.7,12.964,M,-29.745,M,0.0,*54
###2023-12-09 12:33:04.534484$GNGGA,173303.70,4138.0453944,N,07032.4307275,W,1,22,0.7,12.957,M,-29.745,M,0.0,*50
###2023-12-09 12:33:04.732936$GNGGA,173303.90,4138.0454043,N,07032.4307690,W,1,22,0.7,12.955,M,-29.745,M,0.0,*5A
###2023-12-09 12:33:04.940139$GNRMC,173304.10,A,4138.0454090,N,07032.4307985,W,0.27,316.77,091223,,,A*5B
###2023-12-09 12:33:04.943223$GNGGA,173304.10,4138.0454090,N,07032.4307985,W,1,23,0.7,12.940,M,-29.745,M,0.0,*55
###2023-12-09 12:33:04.945117$GPGSA,A,3,03,04,16,26,28,29,31,32,,,,,1.2,0.7,1.0*31
###2023-12-09 12:33:04.946818$GLGSA,A,3,71,72,73,74,75,,,,,,,,1.2,0.7,1.0*2D
###2023-12-09 12:33:04.948428$GAGSA,A,3,04,19,21,27,,,,,,,,,1.2,0.7,1.0*2C
###2023-12-09 12:33:04.950091$GBGSA,A,3,14,24,25,26,33,,,,,,,,1.2,0.7,1.0*25
###2023-12-09 12:33:04.952457$GPGSV,2,1,08,03,39,278,40,04,21,310,42,16,36,207,45,26,65,206,47*77
###2023-12-09 12:33:04.954831$GPGSV,2,2,08,28,58,055,44,29,25,075,40,31,73,358,46,32,31,134,45*72
###2023-12-09 12:33:04.957191$GLGSV,2,1,05,71,58,169,45,72,65,311,48,73,49,033,46,74,71,287,43*6A
###2023-12-09 12:33:04.958674$GLGSV,2,2,05,75,21,240,38,,,,,,,,,,,,*5C
###2023-12-09 12:33:04.961005$GAGSV,1,1,04,04,20,311,43,19,80,306,41,21,76,177,47,27,42,050,43*6F
###2023-12-09 12:33:04.963410$GBGSV,2,1,05,14,56,198,46,24,81,339,48,25,32,252,44,26,36,057,43*64
###2023-12-09 12:33:04.964890$GBGSV,2,2,05,33,63,257,49,,,,,,,,,,,,*56
###2023-12-09 12:33:04.966230$GNVTG,316.77,T,,M,0.27,N,0.50,K,A*27
###2023-12-09 12:33:04.967905$GNGST,173304.10,17.000,,,,0.120,0.100,0.240*56
###2023-12-09 12:33:04.969210$GNZDA,173304.10,09,12,2023,00,00*72
###2023-12-09 12:33:04.969864$GNEBP,,,,,,M*13
###2023-12-09 12:33:05.132829$GNGGA,173304.30,4138.0454095,N,07032.4308026,W,1,23,0.7,12.951,M,-29.745,M,0.0,*5D
###2023-12-09 12:33:05.332622$GNGGA,173304.50,4138.0454100,N,07032.4307993,W,1,23,0.7,12.966,M,-29.745,M,0.0,*5A
###2023-12-09 12:33:05.530448$GNGGA,173304.70,4138.0454137,N,07032.4308099,W,1,23,0.7,12.963,M,-29.745,M,0.0,*55
###2023-12-09 12:33:05.729559$GNGGA,173304.90,4138.0454209,N,07032.4308384,W,1,23,0.7,12.951,M,-29.745,M,0.0,*5B
###2023-12-09 12:33:05.930779$GNRMC,173305.10,A,4138.0454286,N,07032.4308756,W,0.45,316.77,091223,,,A*54
###2023-12-09 12:33:05.933879$GNGGA,173305.10,4138.0454286,N,07032.4308756,W,1,23,0.7,12.950,M,-29.745,M,0.0,*5F
###2023-12-09 12:33:05.935951$GPGSA,A,3,03,04,16,26,28,29,31,32,,,,,1.2,0.7,1.0*31
###2023-12-09 12:33:05.937793$GLGSA,A,3,71,72,73,74,75,,,,,,,,1.2,0.7,1.0*2D
###2023-12-09 12:33:05.939565$GAGSA,A,3,04,19,21,27,,,,,,,,,1.2,0.7,1.0*2C
###2023-12-09 12:33:05.941387$GBGSA,A,3,14,24,25,26,33,,,,,,,,1.2,0.7,1.0*25
###2023-12-09 12:33:05.943906$GPGSV,2,1,08,03,39,278,42,04,21,310,43,16,36,207,45,26,65,206,48*7B
###2023-12-09 12:33:05.946422$GPGSV,2,2,08,28,58,055,44,29,25,075,40,31,73,358,47,32,31,134,44*72
###2023-12-09 12:33:05.948984$GLGSV,2,1,05,71,58,169,47,72,65,311,47,73,49,033,45,74,71,287,43*64
###2023-12-09 12:33:05.950639$GLGSV,2,2,05,75,21,240,38,,,,,,,,,,,,*5C
###2023-12-09 12:33:05.953135$GAGSV,1,1,04,04,20,311,42,19,80,306,41,21,76,177,46,27,42,050,42*6E
###2023-12-09 12:33:05.955696$GBGSV,2,1,05,14,56,198,45,24,81,339,48,25,32,252,44,26,36,057,43*67
###2023-12-09 12:33:05.957346$GBGSV,2,2,05,33,63,257,49,,,,,,,,,,,,*56
###2023-12-09 12:33:05.958847$GNVTG,316.77,T,,M,0.45,N,0.83,K,A*2D
###2023-12-09 12:33:05.960672$GNGST,173305.10,17.000,,,,0.120,0.100,0.230*50
###2023-12-09 12:33:05.962145$GNZDA,173305.10,09,12,2023,00,00*73
###2023-12-09 12:33:05.962976$GNEBP,,,,,,M*13
###2023-12-09 12:33:06.132198$GNGGA,173305.30,4138.0454335,N,07032.4308909,W,1,23,0.7,12.957,M,-29.745,M,0.0,*57
###2023-12-09 12:33:06.332148$GNGGA,173305.50,4138.0454311,N,07032.4308799,W,1,23,0.7,12.958,M,-29.745,M,0.0,*5F
###2023-12-09 12:33:06.531352$GNGGA,173305.70,4138.0454305,N,07032.4308813,W,1,23,0.7,12.955,M,-29.745,M,0.0,*58
###2023-12-09 12:33:06.731282$GNGGA,173305.90,4138.0454394,N,07032.4309154,W,1,23,0.7,12.954,M,-29.745,M,0.0,*54
###2023-12-09 12:33:06.934118$GNRMC,173306.10,A,4138.0454478,N,07032.4309550,W,0.45,316.77,091223,,,A*55
###2023-12-09 12:33:06.937204$GNGGA,173306.10,4138.0454478,N,07032.4309550,W,1,23,0.7,12.945,M,-29.745,M,0.0,*5A
###2023-12-09 12:33:06.939278$GPGSA,A,3,03,04,16,26,28,29,31,32,,,,,1.2,0.7,1.0*31
###2023-12-09 12:33:06.941111$GLGSA,A,3,71,72,73,74,75,,,,,,,,1.2,0.7,1.0*2D
###2023-12-09 12:33:06.942889$GAGSA,A,3,04,19,21,27,,,,,,,,,1.2,0.7,1.0*2C
###2023-12-09 12:33:06.944703$GBGSA,A,3,14,24,25,26,33,,,,,,,,1.2,0.7,1.0*25
###2023-12-09 12:33:06.947216$GPGSV,2,1,08,03,39,278,43,04,21,310,43,16,36,207,46,26,65,206,48*79
###2023-12-09 12:33:06.949774$GPGSV,2,2,08,28,58,055,44,29,25,075,42,31,73,358,46,32,31,134,43*76
###2023-12-09 12:33:06.952331$GLGSV,2,1,05,71,58,169,47,72,65,311,46,73,49,033,44,74,71,287,43*64
###2023-12-09 12:33:06.953969$GLGSV,2,2,05,75,21,240,39,,,,,,,,,,,,*5D
###2023-12-09 12:33:06.956764$GAGSV,1,1,04,04,20,311,42,19,80,306,40,21,76,177,46,27,42,050,41*6C
###2023-12-09 12:33:06.959356$GBGSV,2,1,05,14,56,198,45,24,81,339,49,25,32,252,46,26,36,057,43*64
###2023-12-09 12:33:06.961010$GBGSV,2,2,05,33,63,257,47,,,,,,,,,,,,*58
###2023-12-09 12:33:06.962503$GNVTG,316.77,T,,M,0.45,N,0.83,K,A*2D
###2023-12-09 12:33:06.964334$GNGST,173306.10,17.000,,,,0.110,0.100,0.230*50
###2023-12-09 12:33:06.965802$GNZDA,173306.10,09,12,2023,00,00*70
###2023-12-09 12:33:06.966617$GNEBP,,,,,,M*13
###2023-12-09 12:33:07.133284$GNGGA,173306.30,4138.0454503,N,07032.4309604,W,1,23,0.7,12.947,M,-29.745,M,0.0,*55
