###2023-12-09 12:49:29.972494$GBGSV,2,1,05,14,49,195,47,24,77,011,48,25,37,257,47,26,30,060,45*61
###2023-12-09 12:49:29.973992$GBGSV,2,2,05,33,61,241,47,,,,,,,,,,,,*5D
###2023-12-09 12:49:29.975346$GNVTG,343.23,T,,M,0.72,N,1.33,K,A*22
###2023-12-09 12:49:29.977001$GNGST,174929.10,18.000,,,,0.076,0.068,0.160*57
###2023-12-09 12:49:29.978290$GNZDA,174929.10,09,12,2023,00,00*70
###2023-12-09 12:49:29.978944$GNEBP,,,,,,M*13
###2023-12-09 12:49:30.149254$GNGGA,174929.30,4138.0635403,N,07032.3906290,W,1,24,0.6,13.438,M,-29.744,M,0.0,*59
###2023-12-09 12:49:30.348321$GNGGA,174929.50,4138.0635801,N,07032.3906536,W,1,24,0.6,13.444,M,-29.744,M,0.0,*51
###2023-12-09 12:49:30.547973$GNGGA,174929.70,4138.0635844,N,07032.3906457,W,1,24,0.6,13.462,M,-29.744,M,0.0,*50
###2023-12-09 12:49:30.754598$GNGGA,174929.90,4138.0635803,N,07032.3906324,W,1,24,0.6,13.432,M,-29.744,M,0.0,*5B
###2023-12-09 12:49:30.947711$GNRMC,174930.10,A,4138.0636064,N,07032.3906443,W,0.99,337.34,091223,,,A*56
###2023-12-09 12:49:30.950556$GNGGA,174930.10,4138.0636064,N,07032.3906443,W,1,24,0.6,13.412,M,-29.744,M,0.0,*55
###2023-12-09 12:49:30.952421$GPGSA,A,3,03,04,16,26,28,29,31,32,,,,,1.1,0.6,0.9*3B
###2023-12-09 12:49:30.954131$GLGSA,A,3,65,71,72,73,74,75,,,,,,,1.1,0.6,0.9*24
###2023-12-09 12:49:30.955725$GAGSA,A,3,04,19,21,27,,,,,,,,,1.1,0.6,0.9*26
###2023-12-09 12:49:30.957364$GBGSA,A,3,14,24,25,26,33,,,,,,,,1.1,0.6,0.9*2F
###2023-12-09 12:49:30.959693$GPGSV,2,1,08,03,37,268,44,04,28,311,39,16,44,210,48,26,73,208,48*70
###2023-12-09 12:49:30.962030$GPGSV,2,2,08,28,53,064,44,29,26,067,41,31,71,021,46,32,24,137,46*71
###2023-12-09 12:49:30.964382$GLGSV,2,1,06,65,18,329,40,71,48,171,49,72,71,291,45,73,41,038,45*65
###2023-12-09 12:49:30.966128$GLGSV,2,2,06,74,71,317,42,75,28,247,43,,,,,,,,*6B
###2023-12-09 12:49:30.968473$GAGSV,1,1,04,04,25,312,39,19,85,269,40,21,83,162,46,27,37,048,41*6E
###2023-12-09 12:49:30.970817$GBGSV,2,1,05,14,49,195,46,24,77,011,47,25,37,257,47,26,30,060,44*6E
###2023-12-09 12:49:30.972269$GBGSV,2,2,05,33,61,241,47,,,,,,,,,,,,*5D
###2023-12-09 12:49:30.973596$GNVTG,337.34,T,,M,0.99,N,1.84,K,A*2E
###2023-12-09 12:49:30.975250$GNGST,174930.10,18.000,,,,0.077,0.068,0.160*5E
###2023-12-09 12:49:30.976539$GNZDA,174930.10,09,12,2023,00,00*78
###2023-12-09 12:49:30.977176$GNEBP,,,,,,M*13
###2023-12-09 12:49:31.147649$GNGGA,174930.30,4138.0636635,N,07032.3906777,W,1,24,0.6,13.408,M,-29.744,M,0.0,*5A
###2023-12-09 12:49:31.347989$GNGGA,174930.50,4138.0636949,N,07032.3906958,W,1,24,0.6,13.405,M,-29.744,M,0.0,*56
###2023-12-09 12:49:31.547991$GNGGA,174930.70,4138.0636917,N,07032.3906813,W,1,24,0.6,13.447,M,-29.744,M,0.0,*57
###2023-12-09 12:49:31.747858$GNGGA,174930.90,4138.0636888,N,07032.3906696,W,1,24,0.6,13.432,M,-29.744,M,0.0,*5F
###2023-12-09 12:49:31.947729$GNRMC,174931.10,A,4138.0637205,N,07032.3906878,W,1.05,334.15,091223,,,A*53
###2023-12-09 12:49:31.950612$GNGGA,174931.10,4138.0637205,N,07032.3906878,W,1,24,0.6,13.414,M,-29.744,M,0.0,*52
###2023-12-09 12:49:31.952471$GPGSA,A,3,03,04,16,26,28,29,31,32,,,,,1.1,0.6,0.9*3B
###2023-12-09 12:49:31.954176$GLGSA,A,3,65,71,72,73,74,75,,,,,,,1.1,0.6,0.9*24
###2023-12-09 12:49:31.955777$GAGSA,A,3,04,19,21,27,,,,,,,,,1.1,0.6,0.9*26
###2023-12-09 12:49:31.957429$GBGSA,A,3,14,24,25,26,33,,,,,,,,1.1,0.6,0.9*2F
###2023-12-09 12:49:31.959772$GPGSV,2,1,08,03,37,268,43,04,28,311,40,16,44,210,46,26,73,208,47*78
###2023-12-09 12:49:31.962097$GPGSV,2,2,08,28,53,064,44,29,26,067,40,31,71,021,45,32,24,137,45*70
###2023-12-09 12:49:31.964424$GLGSV,2,1,06,65,18,329,39,71,48,171,48,72,71,291,45,73,41,038,45*6A
###2023-12-09 12:49:31.966164$GLGSV,2,2,06,74,71,317,41,75,28,247,44,,,,,,,,*6F
###2023-12-09 12:49:31.968491$GAGSV,1,1,04,04,25,312,37,19,85,269,39,21,83,162,46,27,37,048,41*6E
###2023-12-09 12:49:31.970834$GBGSV,2,1,05,14,49,195,46,24,77,011,47,25,37,257,47,26,30,060,44*6E
###2023-12-09 12:49:31.972284$GBGSV,2,2,05,33,61,241,47,,,,,,,,,,,,*5D
###2023-12-09 12:49:31.973596$GNVTG,334.15,T,,M,1.05,N,1.94,K,A*2B
###2023-12-09 12:49:31.975248$GNGST,174931.10,18.000,,,,0.077,0.068,0.160*5F
###2023-12-09 12:49:31.976537$GNZDA,174931.10,09,12,2023,00,00*79
###2023-12-09 12:49:31.977171$GNEBP,,,,,,M*13
###2023-12-09 12:49:32.147607$GNGGA,174931.30,4138.0637776,N,07032.3907206,W,1,24,0.6,13.402,M,-29.744,M,0.0,*54
###2023-12-09 12:49:32.348488$GNGGA,174931.50,4138.0638026,N,07032.3907313,W,1,24,0.6,13.390,M,-29.744,M,0.0,*56
###2023-12-09 12:49:32.547962$GNGGA,174931.70,4138.0637945,N,07032.3907160,W,1,24,0.6,13.414,M,-29.744,M,0.0,*5A
###2023-12-09 12:49:32.747869$GNGGA,174931.90,4138.0638029,N,07032.3907153,W,1,24,0.6,13.416,M,-29.744,M,0.0,*5A
###2023-12-09 12:49:32.955631$GNRMC,174932.10,A,4138.0638430,N,07032.3907362,W,0.95,340.16,091223,,,A*56
###2023-12-09 12:49:32.958496$GNGGA,174932.10,4138.0638430,N,07032.3907362,W,1,24,0.6,13.407,M,-29.744,M,0.0,*5D
###2023-12-09 12:49:32.960375$GPGSA,A,3,03,04,16,26,28,29,31,32,,,,,1.1,0.6,0.9*3B
###2023-12-09 12:49:32.962086$GLGSA,A,3,65,71,72,73,74,75,,,,,,,1.1,0.6,0.9*24
###2023-12-09 12:49:32.963674$GAGSA,A,3,04,19,21,27,,,,,,,,,1.1,0.6,0.9*26
###2023-12-09 12:49:32.965318$GBGSA,A,3,14,24,25,26,33,,,,,,,,1.1,0.6,0.9*2F
###2023-12-09 12:49:32.967656$GPGSV,2,1,08,03,37,268,43,04,28,311,41,16,44,210,47,26,73,208,48*77
###2023-12-09 12:49:32.969999$GPGSV,2,2,08,28,53,064,44,29,26,067,41,31,71,021,46,32,24,137,45*72
###2023-12-09 12:49:32.972343$GLGSV,2,1,06,65,18,329,41,71,48,171,48,72,71,291,45,73,41,038,45*65
###2023-12-09 12:49:32.974095$GLGSV,2,2,06,74,71,317,42,75,28,247,45,,,,,,,,*6D
###2023-12-09 12:49:32.976438$GAGSV,1,1,04,04,25,312,39,19,85,269,40,21,83,162,46,27,37,048,41*6E
###2023-12-09 12:49:32.978794$GBGSV,2,1,05,14,49,195,46,24,77,011,48,25,37,257,47,26,30,060,44*61
###2023-12-09 12:49:32.980257$GBGSV,2,2,05,33,61,241,47,,,,,,,,,,,,*5D
###2023-12-09 12:49:32.981583$GNVTG,340.16,T,,M,0.95,N,1.76,K,A*2F
###2023-12-09 12:49:32.983240$GNGST,174932.10,18.000,,,,0.077,0.068,0.160*5C
###2023-12-09 12:49:32.984537$GNZDA,174932.10,09,12,2023,00,00*7A
###2023-12-09 12:49:32.985176$GNEBP,,,,,,M*13
###2023-12-09 12:49:33.149961$GNGGA,174932.30,4138.0638882,N,07032.3907633,W,1,24,0.6,13.386,M,-29.744,M,0.0,*55
###2023-12-09 12:49:33.348473$GNGGA,174932.50,4138.0639047,N,07032.3907688,W,1,24,0.6,13.376,M,-29.744,M,0.0,*5C
###2023-12-09 12:49:33.548886$GNGGA,174932.70,4138.0639060,N,07032.3907644,W,1,24,0.6,13.389,M,-29.744,M,0.0,*5B
###2023-12-09 12:49:33.748423$GNGGA,174932.90,4138.0639281,N,07032.3907740,W,1,24,0.6,13.399,M,-29.744,M,0.0,*5C
###2023-12-09 12:49:33.948324$GNRMC,174933.10,A,4138.0639707,N,07032.3907988,W,0.80,340.16,091223,,,A*5B
###2023-12-09 12:49:33.951787$GNGGA,174933.10,4138.0639707,N,07032.3907988,W,1,24,0.6,13.400,M,-29.744,M,0.0,*53
###2023-12-09 12:49:33.954024$GPGSA,A,3,03,04,16,26,28,29,31,32,,,,,1.1,0.6,0.9*3B
###2023-12-09 12:49:33.956114$GLGSA,A,3,65,71,72,73,74,75,,,,,,,1.1,0.6,0.9*24
###2023-12-09 12:49:33.958031$GAGSA,A,3,04,19,21,27,,,,,,,,,1.1,0.6,0.9*26
###2023-12-09 12:49:33.960042$GBGSA,A,3,14,24,25,26,33,,,,,,,,1.1,0.6,0.9*2F
###2023-12-09 12:49:33.962850$GPGSV,2,1,08,03,37,268,42,04,28,311,40,16,44,210,45,26,73,208,47*7A
###2023-12-09 12:49:33.965659$GPGSV,2,2,08,28,53,064,43,29,26,067,39,31,71,021,45,32,24,137,42*7E
###2023-12-09 12:49:33.968484$GLGSV,2,1,06,65,18,329,42,71,48,171,47,72,71,291,46,73,41,038,45*6A
###2023-12-09 12:49:33.970607$GLGSV,2,2,06,74,71,317,43,75,28,247,45,,,,,,,,*6C
###2023-12-09 12:49:33.973418$GAGSV,1,1,04,04,25,312,40,19,85,269,39,21,83,162,45,27,37,048,40*6C
###2023-12-09 12:49:33.976252$GBGSV,2,1,05,14,49,195,46,24,77,011,49,25,37,257,47,26,30,060,45*61
###2023-12-09 12:49:33.978039$GBGSV,2,2,05,33,61,241,48,,,,,,,,,,,,*52
###2023-12-09 12:49:33.979690$GNVTG,340.16,T,,M,0.80,N,1.48,K,A*26
###2023-12-09 12:49:33.981681$GNGST,174933.10,18.000,,,,0.077,0.068,0.160*5D
###2023-12-09 12:49:33.983244$GNZDA,174933.10,09,12,2023,00,00*7B
###2023-12-09 12:49:33.984013$GNEBP,,,,,,M*13
###2023-12-09 12:49:34.147868$GNGGA,174933.30,4138.0640029,N,07032.3908156,W,1,24,0.6,13.383,M,-29.744,M,0.0,*5C
###2023-12-09 12:49:34.348472$GNGGA,174933.50,4138.0640140,N,07032.3908180,W,1,24,0.6,13.375,M,-29.744,M,0.0,*56
###2023-12-09 12:49:34.548810$GNGGA,174933.70,4138.0640256,N,07032.3908201,W,1,24,0.6,13.374,M,-29.744,M,0.0,*5B
###2023-12-09 12:49:34.748376$GNGGA,174933.90,4138.0640565,N,07032.3908354,W,1,24,0.6,13.373,M,-29.744,M,0.0,*54
###2023-12-09 12:49:34.950184$GNRMC,174934.10,A,4138.0640951,N,07032.3908553,W,0.56,340.16,091223,,,A*51
###2023-12-09 12:49:34.953663$GNGGA,174934.10,4138.0640951,N,07032.3908553,W,1,24,0.6,13.373,M,-29.744,M,0.0,*51
###2023-12-09 12:49:34.955941$GPGSA,A,3,03,04,16,26,28,29,31,32,,,,,1.1,0.6,0.9*3B
###2023-12-09 12:49:34.958008$GLGSA,A,3,65,71,72,73,74,75,,,,,,,1.1,0.6,0.9*24
###2023-12-09 12:49:34.959939$GAGSA,A,3,04,19,21,27,,,,,,,,,1.1,0.6,0.9*26
###2023-12-09 12:49:34.961932$GBGSA,A,3,14,24,25,26,33,,,,,,,,1.1,0.6,0.9*2F
