###2023-12-09 13:02:59.970306$GNGGA,180259.10,4138.0473281,N,07032.3639142,W,1,24,0.6,13.371,M,-29.744,M,0.0,*55
###2023-12-09 13:02:59.972222$GPGSA,A,3,03,04,16,26,28,29,31,32,,,,,1.1,0.6,0.9*3B
###2023-12-09 13:02:59.973940$GLGSA,A,3,65,71,72,73,74,75,,,,,,,1.1,0.6,0.9*24
###2023-12-09 13:02:59.975546$GAGSA,A,3,04,19,21,27,,,,,,,,,1.1,0.6,0.9*26
###2023-12-09 13:02:59.977195$GBGSA,A,3,14,24,25,26,33,,,,,,,,1.1,0.6,0.9*2F
###2023-12-09 13:02:59.979535$GPGSV,2,1,08,03,35,261,43,04,33,311,42,16,50,212,46,26,80,210,48*76
###2023-12-09 13:02:59.981871$GPGSV,2,2,08,28,49,070,45,29,25,061,41,31,69,038,48,32,19,140,44*78
###2023-12-09 13:02:59.984219$GLGSV,2,1,06,65,25,327,41,71,40,173,47,72,73,265,45,73,35,042,45*67
###2023-12-09 13:02:59.985964$GLGSV,2,2,06,74,69,340,42,75,33,254,44,,,,,,,,*6F
###2023-12-09 13:02:59.988307$GAGSV,1,1,04,04,29,312,39,19,84,213,40,21,86,114,46,27,32,048,42*6C
###2023-12-09 13:02:59.990659$GBGSV,2,1,05,14,43,193,44,24,73,026,48,25,41,263,43,26,26,063,42*6F
###2023-12-09 13:02:59.992117$GBGSV,2,2,05,33,57,231,47,,,,,,,,,,,,*5F
###2023-12-09 13:02:59.993438$GNVTG,261.64,T,,M,3.36,N,6.23,K,A*25
###2023-12-09 13:02:59.995097$GNGST,180259.10,18.000,,,,0.081,0.070,0.160*51
###2023-12-09 13:02:59.996388$GNZDA,180259.10,09,12,2023,00,00*77
###2023-12-09 13:02:59.997028$GNEBP,,,,,,M*13
###2023-12-09 13:03:00.163650$GNGGA,180259.30,4138.0472982,N,07032.3641622,W,1,24,0.6,13.371,M,-29.744,M,0.0,*50
###2023-12-09 13:03:00.364112$GNGGA,180259.50,4138.0472670,N,07032.3644177,W,1,24,0.6,13.377,M,-29.744,M,0.0,*50
###2023-12-09 13:03:00.564478$GNGGA,180259.70,4138.0472418,N,07032.3646799,W,1,24,0.6,13.381,M,-29.744,M,0.0,*53
###2023-12-09 13:03:00.765508$GNGGA,180259.90,4138.0472192,N,07032.3649461,W,1,24,0.6,13.383,M,-29.744,M,0.0,*53
###2023-12-09 13:03:00.965763$GNRMC,180300.10,A,4138.0471971,N,07032.3652125,W,3.63,263.27,091223,,,A*57
###2023-12-09 13:03:00.968667$GNGGA,180300.10,4138.0471971,N,07032.3652125,W,1,24,0.6,13.388,M,-29.744,M,0.0,*54
###2023-12-09 13:03:00.970534$GPGSA,A,3,03,04,16,26,28,29,31,32,,,,,1.1,0.6,0.9*3B
###2023-12-09 13:03:00.972269$GLGSA,A,3,65,71,72,73,74,75,,,,,,,1.1,0.6,0.9*24
###2023-12-09 13:03:00.973863$GAGSA,A,3,04,19,21,27,,,,,,,,,1.1,0.6,0.9*26
###2023-12-09 13:03:00.975524$GBGSA,A,3,14,24,25,26,33,,,,,,,,1.1,0.6,0.9*2F
###2023-12-09 13:03:00.977859$GPGSV,2,1,08,03,35,261,43,04,33,311,42,16,50,212,46,26,80,210,48*76
###2023-12-09 13:03:00.980205$GPGSV,2,2,08,28,49,070,46,29,25,061,42,31,69,038,47,32,19,140,44*77
###2023-12-09 13:03:00.982543$GLGSV,2,1,06,65,25,327,41,71,40,173,46,72,73,265,45,73,35,042,45*66
###2023-12-09 13:03:00.984306$GLGSV,2,2,06,74,69,340,42,75,33,254,43,,,,,,,,*68
###2023-12-09 13:03:00.986652$GAGSV,1,1,04,04,29,312,40,19,84,213,40,21,86,114,46,27,32,048,42*62
###2023-12-09 13:03:00.988984$GBGSV,2,1,05,14,43,193,44,24,73,026,48,25,41,263,45,26,26,063,42*69
###2023-12-09 13:03:00.990443$GBGSV,2,2,05,33,57,231,47,,,,,,,,,,,,*5F
###2023-12-09 13:03:00.991776$GNVTG,263.27,T,,M,3.63,N,6.73,K,A*25
###2023-12-09 13:03:00.993423$GNGST,180300.10,18.000,,,,0.081,0.070,0.160*5C
###2023-12-09 13:03:00.994729$GNZDA,180300.10,09,12,2023,00,00*7A
###2023-12-09 13:03:00.995368$GNEBP,,,,,,M*13
###2023-12-09 13:03:01.163744$GNGGA,180300.30,4138.0471737,N,07032.3654770,W,1,24,0.6,13.390,M,-29.744,M,0.0,*53
###2023-12-09 13:03:01.364365$GNGGA,180300.50,4138.0471536,N,07032.3657403,W,1,24,0.6,13.390,M,-29.744,M,0.0,*52
###2023-12-09 13:03:01.563479$GNGGA,180300.70,4138.0471482,N,07032.3660003,W,1,24,0.6,13.387,M,-29.744,M,0.0,*58
###2023-12-09 13:03:01.765221$GNGGA,180300.90,4138.0471519,N,07032.3662577,W,1,24,0.6,13.396,M,-29.744,M,0.0,*51
###2023-12-09 13:03:01.971633$GNRMC,180301.10,A,4138.0471622,N,07032.3665107,W,3.34,274.26,091223,,,A*5E
###2023-12-09 13:03:01.974492$GNGGA,180301.10,4138.0471622,N,07032.3665107,W,1,24,0.6,13.396,M,-29.744,M,0.0,*57
###2023-12-09 13:03:01.976356$GPGSA,A,3,03,04,16,26,28,29,31,32,,,,,1.1,0.6,0.9*3B
###2023-12-09 13:03:01.978068$GLGSA,A,3,65,71,72,73,74,75,,,,,,,1.1,0.6,0.9*24
###2023-12-09 13:03:01.979666$GAGSA,A,3,04,19,21,27,,,,,,,,,1.1,0.6,0.9*26
###2023-12-09 13:03:01.981314$GBGSA,A,3,14,24,25,26,33,,,,,,,,1.1,0.6,0.9*2F
###2023-12-09 13:03:01.983653$GPGSV,2,1,08,03,35,261,40,04,33,311,41,16,50,212,46,26,80,210,48*76
###2023-12-09 13:03:01.985992$GPGSV,2,2,08,28,49,070,45,29,25,061,41,31,69,038,48,32,19,140,43*7F
###2023-12-09 13:03:01.988351$GLGSV,2,1,06,65,25,327,39,71,40,173,47,72,73,265,45,73,35,042,45*68
###2023-12-09 13:03:01.990101$GLGSV,2,2,06,74,69,340,42,75,33,254,40,,,,,,,,*6B
###2023-12-09 13:03:01.992444$GAGSV,1,1,04,04,29,312,38,19,84,213,40,21,86,114,46,27,32,048,41*6E
###2023-12-09 13:03:01.994788$GBGSV,2,1,05,14,43,193,45,24,73,026,48,25,41,263,44,26,26,063,41*6A
###2023-12-09 13:03:01.996245$GBGSV,2,2,05,33,57,231,48,,,,,,,,,,,,*50
###2023-12-09 13:03:01.997568$GNVTG,274.26,T,,M,3.34,N,6.19,K,A*2C
###2023-12-09 13:03:01.999230$GNGST,180301.10,18.000,,,,0.081,0.070,0.160*5D
###2023-12-09 13:03:02.000523$GNZDA,180301.10,09,12,2023,00,00*7B
###2023-12-09 13:03:02.001159$GNEBP,,,,,,M*13
###2023-12-09 13:03:02.164953$GNGGA,180301.30,4138.0471816,N,07032.3667571,W,1,24,0.6,13.400,M,-29.744,M,0.0,*53
###2023-12-09 13:03:02.364314$GNGGA,180301.50,4138.0472049,N,07032.3670044,W,1,24,0.6,13.400,M,-29.744,M,0.0,*51
###2023-12-09 13:03:02.565695$GNGGA,180301.70,4138.0472288,N,07032.3672514,W,1,24,0.6,13.398,M,-29.744,M,0.0,*58
###2023-12-09 13:03:02.766142$GNGGA,180301.90,4138.0472532,N,07032.3674975,W,1,24,0.6,13.402,M,-29.744,M,0.0,*59
###2023-12-09 13:03:02.966776$GNRMC,180302.10,A,4138.0472773,N,07032.3677423,W,3.36,278.73,091223,,,A*55
###2023-12-09 13:03:02.969622$GNGGA,180302.10,4138.0472773,N,07032.3677423,W,1,24,0.6,13.408,M,-29.744,M,0.0,*52
###2023-12-09 13:03:02.971483$GPGSA,A,3,03,04,16,26,28,29,31,32,,,,,1.1,0.6,0.9*3B
###2023-12-09 13:03:02.973189$GLGSA,A,3,65,71,72,73,74,75,,,,,,,1.1,0.6,0.9*24
###2023-12-09 13:03:02.974783$GAGSA,A,3,04,19,21,27,,,,,,,,,1.1,0.6,0.9*26
###2023-12-09 13:03:02.976419$GBGSA,A,3,14,24,25,26,33,,,,,,,,1.1,0.6,0.9*2F
###2023-12-09 13:03:02.978747$GPGSV,2,1,08,03,35,261,41,04,33,311,41,16,50,212,46,26,80,210,48*77
###2023-12-09 13:03:02.981072$GPGSV,2,2,08,28,49,070,45,29,25,061,41,31,69,038,47,32,19,140,43*70
###2023-12-09 13:03:02.983403$GLGSV,2,1,06,65,25,327,39,71,40,173,47,72,73,265,45,73,35,042,45*68
###2023-12-09 13:03:02.985144$GLGSV,2,2,06,74,69,340,42,75,33,254,40,,,,,,,,*6B
###2023-12-09 13:03:02.987471$GAGSV,1,1,04,04,29,312,38,19,84,213,40,21,86,114,46,27,32,048,41*6E
###2023-12-09 13:03:02.989786$GBGSV,2,1,05,14,43,193,45,24,73,026,48,25,41,263,44,26,26,063,41*6A
###2023-12-09 13:03:02.991244$GBGSV,2,2,05,33,57,231,48,,,,,,,,,,,,*50
###2023-12-09 13:03:02.992558$GNVTG,278.73,T,,M,3.36,N,6.23,K,A*2B
###2023-12-09 13:03:02.994195$GNGST,180302.10,18.000,,,,0.082,0.070,0.160*5D
###2023-12-09 13:03:02.995487$GNZDA,180302.10,09,12,2023,00,00*78
###2023-12-09 13:03:02.996119$GNEBP,,,,,,M*13
###2023-12-09 13:03:03.166711$GNGGA,180302.30,4138.0473061,N,07032.3679880,W,1,24,0.6,13.411,M,-29.744,M,0.0,*56
###2023-12-09 13:03:03.363923$GNGGA,180302.50,4138.0473316,N,07032.3682349,W,1,24,0.6,13.412,M,-29.744,M,0.0,*5A
###2023-12-09 13:03:03.566107$GNGGA,180302.70,4138.0473536,N,07032.3684806,W,1,24,0.6,13.412,M,-29.744,M,0.0,*5A
###2023-12-09 13:03:03.769225$GNGGA,180302.90,4138.0473756,N,07032.3687269,W,1,24,0.6,13.415,M,-29.744,M,0.0,*57
###2023-12-09 13:03:03.968865$GNRMC,180303.10,A,4138.0474039,N,07032.3689734,W,3.30,278.46,091223,,,A*5F
###2023-12-09 13:03:03.971743$GNGGA,180303.10,4138.0474039,N,07032.3689734,W,1,24,0.6,13.418,M,-29.744,M,0.0,*59
###2023-12-09 13:03:03.973599$GPGSA,A,3,03,04,16,26,28,29,31,32,,,,,1.1,0.6,0.9*3B
###2023-12-09 13:03:03.975331$GLGSA,A,3,65,71,72,73,74,75,,,,,,,1.1,0.6,0.9*24
###2023-12-09 13:03:03.976920$GAGSA,A,3,04,19,21,27,,,,,,,,,1.1,0.6,0.9*26
###2023-12-09 13:03:03.978573$GBGSA,A,3,14,24,25,26,33,,,,,,,,1.1,0.6,0.9*2F
###2023-12-09 13:03:03.980914$GPGSV,2,1,08,03,35,261,42,04,33,311,41,16,50,212,46,26,80,210,48*74
###2023-12-09 13:03:03.983262$GPGSV,2,2,08,28,49,070,45,29,25,061,41,31,69,038,47,32,19,140,43*70
###2023-12-09 13:03:03.985883$GLGSV,2,1,06,65,25,327,39,71,40,173,47,72,73,265,45,73,35,042,45*68
###2023-12-09 13:03:03.987692$GLGSV,2,2,06,74,69,340,42,75,33,254,41,,,,,,,,*6A
###2023-12-09 13:03:03.990036$GAGSV,1,1,04,04,29,312,38,19,84,213,40,21,86,114,46,27,32,048,41*6E
###2023-12-09 13:03:03.992387$GBGSV,2,1,05,14,43,193,44,24,73,026,47,25,41,263,44,26,26,063,41*64
###2023-12-09 13:03:03.993846$GBGSV,2,2,05,33,57,231,47,,,,,,,,,,,,*5F
###2023-12-09 13:03:03.995182$GNVTG,278.46,T,,M,3.30,N,6.12,K,A*29
###2023-12-09 13:03:03.996824$GNGST,180303.10,18.000,,,,0.082,0.070,0.160*5C
###2023-12-09 13:03:03.998111$GNZDA,180303.10,09,12,2023,00,00*79
###2023-12-09 13:03:03.998760$GNEBP,,,,,,M*13
