###2023-12-09 12:36:38.944121$GPGSA,A,3,03,04,16,26,28,29,31,32,,,,,1.2,0.7,1.0*31
###2023-12-09 12:36:38.945786$GLGSA,A,3,71,72,73,74,75,,,,,,,,1.2,0.7,1.0*2D
###2023-12-09 12:36:38.947418$GAGSA,A,3,04,19,21,27,,,,,,,,,1.2,0.7,1.0*2C
###2023-12-09 12:36:38.949092$GBGSA,A,3,14,24,25,26,33,,,,,,,,1.2,0.7,1.0*25
###2023-12-09 12:36:38.951431$GPGSV,2,1,08,03,38,276,43,04,22,311,42,16,37,207,44,26,67,207,48*75
###2023-12-09 12:36:38.953771$GPGSV,2,2,08,28,57,057,44,29,25,073,41,31,73,004,47,32,29,134,43*7C
###2023-12-09 12:36:38.956118$GLGSV,2,1,05,71,56,169,47,72,66,308,47,73,47,034,45,74,71,293,43*6D
###2023-12-09 12:36:38.957571$GLGSV,2,2,05,75,22,241,45,,,,,,,,,,,,*54
###2023-12-09 12:36:38.959902$GAGSV,1,1,04,04,21,311,41,19,82,300,41,21,78,175,46,27,41,049,43*6E
###2023-12-09 12:36:38.962219$GBGSV,2,1,05,14,55,197,46,24,80,348,48,25,33,253,45,26,35,057,43*6D
###2023-12-09 12:36:38.963740$GBGSV,2,2,05,33,63,253,47,,,,,,,,,,,,*5C
###2023-12-09 12:36:38.965034$GNVTG,74.21,T,,M,3.42,N,6.34,K,A*17
###2023-12-09 12:36:38.966697$GNGST,173638.10,18.000,,,,0.080,0.070,0.160*5F
###2023-12-09 12:36:38.967994$GNZDA,173638.10,09,12,2023,00,00*78
###2023-12-09 12:36:38.968632$GNEBP,,,,,,M*13
###2023-12-09 12:36:39.138443$GNGGA,173638.30,4138.0459000,N,07032.3728090,W,1,23,0.7,13.113,M,-29.744,M,0.0,*54
###2023-12-09 12:36:39.338234$GNGGA,173638.50,4138.0459743,N,07032.3725882,W,1,23,0.7,13.120,M,-29.744,M,0.0,*54
###2023-12-09 12:36:39.538920$GNGGA,173638.70,4138.0460431,N,07032.3723548,W,1,23,0.7,13.118,M,-29.744,M,0.0,*5C
###2023-12-09 12:36:39.737995$GNGGA,173638.90,4138.0460808,N,07032.3721121,W,1,23,0.7,13.095,M,-29.744,M,0.0,*59
###2023-12-09 12:36:39.936679$GNRMC,173639.10,A,4138.0461167,N,07032.3718769,W,3.21,78.41,091223,,,A*65
###2023-12-09 12:36:39.940173$GNGGA,173639.10,4138.0461167,N,07032.3718769,W,1,23,0.7,13.106,M,-29.744,M,0.0,*5A
###2023-12-09 12:36:39.942424$GPGSA,A,3,03,04,16,26,28,29,31,32,,,,,1.2,0.7,1.0*31
###2023-12-09 12:36:39.944446$GLGSA,A,3,71,72,73,74,75,,,,,,,,1.2,0.7,1.0*2D
###2023-12-09 12:36:39.946377$GAGSA,A,3,04,19,21,27,,,,,,,,,1.2,0.7,1.0*2C
###2023-12-09 12:36:39.948432$GBGSA,A,3,14,24,25,26,33,,,,,,,,1.2,0.7,1.0*25
###2023-12-09 12:36:39.951292$GPGSV,2,1,08,03,38,276,45,04,22,311,41,16,37,207,46,26,67,207,48*72
###2023-12-09 12:36:39.954148$GPGSV,2,2,08,28,57,057,44,29,25,073,42,31,73,004,47,32,29,134,42*7E
###2023-12-09 12:36:39.956996$GLGSV,2,1,05,71,56,169,48,72,66,308,47,73,47,034,46,74,71,293,43*61
###2023-12-09 12:36:39.958783$GLGSV,2,2,05,75,22,241,43,,,,,,,,,,,,*52
###2023-12-09 12:36:39.961621$GAGSV,1,1,04,04,21,311,40,19,82,300,40,21,78,175,46,27,41,049,44*69
###2023-12-09 12:36:39.964463$GBGSV,2,1,05,14,55,197,46,24,80,348,48,25,33,253,45,26,35,057,43*6D
###2023-12-09 12:36:39.966219$GBGSV,2,2,05,33,63,253,47,,,,,,,,,,,,*5C
###2023-12-09 12:36:39.967804$GNVTG,78.41,T,,M,3.21,N,5.94,K,A*11
###2023-12-09 12:36:39.969795$GNGST,173639.10,18.000,,,,0.080,0.070,0.160*5E
###2023-12-09 12:36:39.971381$GNZDA,173639.10,09,12,2023,00,00*79
###2023-12-09 12:36:39.972153$GNEBP,,,,,,M*13
###2023-12-09 12:36:40.137625$GNGGA,173639.30,4138.0461532,N,07032.3716328,W,1,23,0.7,13.111,M,-29.744,M,0.0,*55
###2023-12-09 12:36:40.338128$GNGGA,173639.50,4138.0461881,N,07032.3713853,W,1,23,0.7,13.093,M,-29.744,M,0.0,*5F
###2023-12-09 12:36:40.538732$GNGGA,173639.70,4138.0462237,N,07032.3711423,W,1,23,0.7,13.097,M,-29.744,M,0.0,*54
###2023-12-09 12:36:40.739687$GNGGA,173639.90,4138.0462520,N,07032.3708856,W,1,23,0.7,13.102,M,-29.744,M,0.0,*50
###2023-12-09 12:36:40.937781$GNRMC,173640.10,A,4138.0462817,N,07032.3706286,W,3.38,77.01,091223,,,A*6E
###2023-12-09 12:36:40.940640$GNGGA,173640.10,4138.0462817,N,07032.3706286,W,1,23,0.7,13.082,M,-29.744,M,0.0,*5F
###2023-12-09 12:36:40.942480$GPGSA,A,3,03,04,16,26,28,29,31,32,,,,,1.2,0.7,1.0*31
###2023-12-09 12:36:40.944131$GLGSA,A,3,71,72,73,74,75,,,,,,,,1.2,0.7,1.0*2D
###2023-12-09 12:36:40.945702$GAGSA,A,3,04,19,21,27,,,,,,,,,1.2,0.7,1.0*2C
###2023-12-09 12:36:40.947403$GBGSA,A,3,14,24,25,26,33,,,,,,,,1.2,0.7,1.0*25
###2023-12-09 12:36:40.949729$GPGSV,2,1,08,03,38,276,44,04,22,311,40,16,37,207,45,26,67,207,48*71
###2023-12-09 12:36:40.952062$GPGSV,2,2,08,28,57,057,44,29,25,073,41,31,73,004,47,32,29,134,42*7D
###2023-12-09 12:36:40.954377$GLGSV,2,1,05,71,56,169,47,72,66,308,47,73,47,034,46,74,71,293,43*6E
###2023-12-09 12:36:40.955838$GLGSV,2,2,05,75,22,241,43,,,,,,,,,,,,*52
###2023-12-09 12:36:40.958152$GAGSV,1,1,04,04,21,311,40,19,82,300,41,21,78,175,46,27,41,049,43*6F
###2023-12-09 12:36:40.960475$GBGSV,2,1,05,14,55,197,47,24,80,348,49,25,33,253,46,26,35,057,43*6E
###2023-12-09 12:36:40.961928$GBGSV,2,2,05,33,63,253,48,,,,,,,,,,,,*53
###2023-12-09 12:36:40.963242$GNVTG,77.01,T,,M,3.38,N,6.26,K,A*18
###2023-12-09 12:36:40.964887$GNGST,173640.10,19.000,,,,0.080,0.070,0.160*51
###2023-12-09 12:36:40.966171$GNZDA,173640.10,09,12,2023,00,00*77
###2023-12-09 12:36:40.966822$GNEBP,,,,,,M*13
###2023-12-09 12:36:41.136380$GNGGA,173640.30,4138.0463323,N,07032.3703879,W,1,23,0.7,13.092,M,-29.744,M,0.0,*5E
###2023-12-09 12:36:41.337544$GNGGA,173640.50,4138.0463763,N,07032.3701346,W,1,23,0.7,13.099,M,-29.744,M,0.0,*56
###2023-12-09 12:36:41.540268$GNGGA,173640.70,4138.0464189,N,07032.3698819,W,1,23,0.7,13.076,M,-29.744,M,0.0,*50
###2023-12-09 12:36:41.735302$GNGGA,173640.90,4138.0464750,N,07032.3696453,W,1,23,0.7,13.082,M,-29.744,M,0.0,*5B
###2023-12-09 12:36:41.939306$GNRMC,173641.10,A,4138.0465393,N,07032.3694073,W,3.46,71.22,091223,,,A*63
###2023-12-09 12:36:41.942151$GNGGA,173641.10,4138.0465393,N,07032.3694073,W,1,23,0.7,13.098,M,-29.744,M,0.0,*57
###2023-12-09 12:36:41.944020$GPGSA,A,3,03,04,16,26,28,29,31,32,,,,,1.2,0.7,1.0*31
###2023-12-09 12:36:41.945671$GLGSA,A,3,71,72,73,74,75,,,,,,,,1.2,0.7,1.0*2D
###2023-12-09 12:36:41.947272$GAGSA,A,3,04,19,21,27,,,,,,,,,1.2,0.7,1.0*2C
###2023-12-09 12:36:41.948936$GBGSA,A,3,14,24,25,26,33,,,,,,,,1.2,0.7,1.0*25
###2023-12-09 12:36:41.951280$GPGSV,2,1,08,03,38,276,43,04,22,311,42,16,37,207,45,26,67,207,48*74
###2023-12-09 12:36:41.953607$GPGSV,2,2,08,28,57,057,44,29,25,073,41,31,73,004,46,32,29,134,42*7C
###2023-12-09 12:36:41.955940$GLGSV,2,1,05,71,56,169,47,72,66,308,47,73,47,034,46,74,71,293,43*6E
###2023-12-09 12:36:41.957390$GLGSV,2,2,05,75,22,241,42,,,,,,,,,,,,*53
###2023-12-09 12:36:41.959718$GAGSV,1,1,04,04,21,311,42,19,82,300,41,21,78,175,46,27,41,049,42*6C
###2023-12-09 12:36:41.962046$GBGSV,2,1,05,14,55,197,46,24,80,348,48,25,33,253,46,26,35,057,43*6E
###2023-12-09 12:36:41.963512$GBGSV,2,2,05,33,63,253,48,,,,,,,,,,,,*53
###2023-12-09 12:36:41.964804$GNVTG,71.22,T,,M,3.46,N,6.41,K,A*17
###2023-12-09 12:36:41.966455$GNGST,173641.10,18.000,,,,0.080,0.070,0.160*51
###2023-12-09 12:36:41.967750$GNZDA,173641.10,09,12,2023,00,00*76
###2023-12-09 12:36:41.968390$GNEBP,,,,,,M*13
###2023-12-09 12:36:42.136802$GNGGA,173641.30,4138.0465968,N,07032.3691654,W,1,23,0.7,13.083,M,-29.744,M,0.0,*57
###2023-12-09 12:36:42.336188$GNGGA,173641.50,4138.0466611,N,07032.3689362,W,1,23,0.7,13.075,M,-29.744,M,0.0,*53
###2023-12-09 12:36:42.536489$GNGGA,173641.70,4138.0467420,N,07032.3687170,W,1,23,0.7,13.092,M,-29.744,M,0.0,*56
###2023-12-09 12:36:42.735529$GNGGA,173641.90,4138.0468194,N,07032.3684876,W,1,23,0.7,13.094,M,-29.744,M,0.0,*57
###2023-12-09 12:36:42.937403$GNRMC,173642.10,A,4138.0468791,N,07032.3682526,W,3.25,73.71,091223,,,A*68
###2023-12-09 12:36:42.940290$GNGGA,173642.10,4138.0468791,N,07032.3682526,W,1,23,0.7,13.079,M,-29.744,M,0.0,*52
###2023-12-09 12:36:42.942149$GPGSA,A,3,03,04,16,26,28,29,31,32,,,,,1.2,0.7,1.0*31
###2023-12-09 12:36:42.943811$GLGSA,A,3,71,72,73,74,75,,,,,,,,1.2,0.7,1.0*2D
###2023-12-09 12:36:42.945395$GAGSA,A,3,04,19,21,27,,,,,,,,,1.2,0.7,1.0*2C
###2023-12-09 12:36:42.947064$GBGSA,A,3,14,24,25,26,33,,,,,,,,1.2,0.7,1.0*25
###2023-12-09 12:36:42.949405$GPGSV,2,1,08,03,38,276,42,04,22,311,42,16,37,207,45,26,67,207,47*7A
###2023-12-09 12:36:42.951745$GPGSV,2,2,08,28,57,057,44,29,25,073,41,31,73,004,47,32,29,134,42*7D
###2023-12-09 12:36:42.954070$GLGSV,2,1,05,71,56,169,48,72,66,308,47,73,47,034,46,74,71,293,43*61
###2023-12-09 12:36:42.955551$GLGSV,2,2,05,75,22,241,44,,,,,,,,,,,,*55
###2023-12-09 12:36:42.958130$GAGSV,1,1,04,04,21,311,41,19,82,300,41,21,78,175,46,27,41,049,42*6F
###2023-12-09 12:36:42.960489$GBGSV,2,1,05,14,55,197,46,24,80,348,49,25,33,253,46,26,35,057,44*68
###2023-12-09 12:36:42.961957$GBGSV,2,2,05,33,63,253,48,,,,,,,,,,,,*53
###2023-12-09 12:36:42.963340$GNVTG,73.71,T,,M,3.25,N,6.01,K,A*12
###2023-12-09 12:36:42.965003$GNGST,173642.10,18.000,,,,0.080,0.070,0.160*52
###2023-12-09 12:36:42.966300$GNZDA,173642.10,09,12,2023,00,00*75
###2023-12-09 12:36:42.966952$GNEBP,,,,,,M*13
###2023-12-09 12:36:43.135705$GNGGA,173642.30,4138.0469413,N,07032.3680243,W,1,23,0.7,13.081,M,-29.744,M,0.0,*59
