###2023-12-09 13:13:42.577241$GNGGA,181341.70,4138.0445061,N,07032.2725400,W,1,24,0.7,12.805,M,-29.743,M,0.0,*52
###2023-12-09 13:13:42.774549$GNGGA,181341.90,4138.0444809,N,07032.2727745,W,1,24,0.7,12.791,M,-29.743,M,0.0,*59
###2023-12-09 13:13:42.977793$GNRMC,181342.10,A,4138.0444882,N,07032.2730399,W,3.67,273.67,091223,,,A*5B
###2023-12-09 13:13:42.980684$GNGGA,181342.10,4138.0444882,N,07032.2730399,W,1,24,0.7,12.825,M,-29.743,M,0.0,*52
###2023-12-09 13:13:42.982478$GPGSA,A,3,03,04,16,26,28,29,31,,,,,,1.2,0.7,1.0*30
###2023-12-09 13:13:42.984205$GLGSA,A,3,65,71,72,73,74,75,,,,,,,1.2,0.7,1.0*2E
###2023-12-09 13:13:42.985790$GAGSA,A,3,04,19,21,27,,,,,,,,,1.2,0.7,1.0*2C
###2023-12-09 13:13:42.987508$GBGSA,A,3,14,24,25,26,33,35,,,,,,,1.2,0.7,1.0*23
###2023-12-09 13:13:42.989835$GPGSV,2,1,07,03,32,255,42,04,38,311,44,16,56,215,46,26,86,209,48*7A
###2023-12-09 13:13:42.991884$GPGSV,2,2,07,28,45,076,45,29,24,055,43,31,65,050,47,,,,*48
###2023-12-09 13:13:42.994212$GLGSV,2,1,06,65,29,325,41,71,34,174,46,72,71,246,46,73,31,045,45*6F
###2023-12-09 13:13:42.995971$GLGSV,2,2,06,74,66,353,43,75,36,259,43,,,,,,,,*6C
###2023-12-09 13:13:42.998301$GAGSV,1,1,04,04,33,312,41,19,81,194,40,21,84,070,46,27,29,048,41*69
###2023-12-09 13:13:43.000642$GBGSV,2,1,06,14,38,192,43,24,70,034,48,25,44,267,43,26,22,065,42*65
###2023-12-09 13:13:43.002393$GBGSV,2,2,06,33,53,226,46,35,15,065,44,,,,,,,,*6E
###2023-12-09 13:13:43.003725$GNVTG,273.67,T,,M,3.67,N,6.80,K,A*28
###2023-12-09 13:13:43.005375$GNGST,181342.10,18.000,,,,0.096,0.071,0.170*5D
###2023-12-09 13:13:43.006680$GNZDA,181342.10,09,12,2023,00,00*7D
###2023-12-09 13:13:43.007320$GNEBP,,,,,,M*13
###2023-12-09 13:13:43.173563$GNGGA,181342.30,4138.0444860,N,07032.2733010,W,1,24,0.7,12.833,M,-29.743,M,0.0,*5A
###2023-12-09 13:13:43.374898$GNGGA,181342.50,4138.0444392,N,07032.2735419,W,1,24,0.7,12.836,M,-29.743,M,0.0,*54
###2023-12-09 13:13:43.575654$GNGGA,181342.70,4138.0443653,N,07032.2737755,W,1,24,0.7,12.804,M,-29.743,M,0.0,*51
###2023-12-09 13:13:43.775675$GNGGA,181342.90,4138.0443241,N,07032.2740301,W,1,24,0.7,12.805,M,-29.743,M,0.0,*5C
###2023-12-09 13:13:43.977734$GNRMC,181343.10,A,4138.0443160,N,07032.2742985,W,3.54,265.54,091223,,,A*5D
###2023-12-09 13:13:43.980626$GNGGA,181343.10,4138.0443160,N,07032.2742985,W,1,24,0.7,12.829,M,-29.743,M,0.0,*5F
###2023-12-09 13:13:43.982423$GPGSA,A,3,03,04,16,26,28,29,31,,,,,,1.2,0.7,1.0*30
###2023-12-09 13:13:43.984152$GLGSA,A,3,65,71,72,73,74,75,,,,,,,1.2,0.7,1.0*2E
###2023-12-09 13:13:43.985740$GAGSA,A,3,04,19,21,27,,,,,,,,,1.2,0.7,1.0*2C
###2023-12-09 13:13:43.987470$GBGSA,A,3,14,24,25,26,33,35,,,,,,,1.2,0.7,1.0*23
###2023-12-09 13:13:43.989798$GPGSV,2,1,07,03,32,255,42,04,38,311,42,16,56,215,46,26,86,209,47*73
###2023-12-09 13:13:43.991853$GPGSV,2,2,07,28,45,076,44,29,24,055,42,31,65,050,47,,,,*48
###2023-12-09 13:13:43.994187$GLGSV,2,1,06,65,29,325,42,71,34,174,46,72,71,246,45,73,31,045,45*6F
###2023-12-09 13:13:43.995948$GLGSV,2,2,06,74,66,353,42,75,36,259,43,,,,,,,,*6D
###2023-12-09 13:13:43.998273$GAGSV,1,1,04,04,33,312,40,19,81,194,40,21,84,070,46,27,29,048,42*6B
###2023-12-09 13:13:44.000617$GBGSV,2,1,06,14,38,192,44,24,70,034,48,25,44,267,43,26,22,065,43*63
###2023-12-09 13:13:44.002362$GBGSV,2,2,06,33,53,226,46,35,15,065,45,,,,,,,,*6F
###2023-12-09 13:13:44.003700$GNVTG,265.54,T,,M,3.54,N,6.55,K,A*27
###2023-12-09 13:13:44.005355$GNGST,181343.10,18.000,,,,0.096,0.071,0.170*5C
###2023-12-09 13:13:44.006661$GNZDA,181343.10,09,12,2023,00,00*7C
###2023-12-09 13:13:44.007302$GNEBP,,,,,,M*13
###2023-12-09 13:13:44.173527$GNGGA,181343.30,4138.0442806,N,07032.2745460,W,1,24,0.7,12.832,M,-29.743,M,0.0,*5E
###2023-12-09 13:13:44.373884$GNGGA,181343.50,4138.0442207,N,07032.2747850,W,1,24,0.7,12.819,M,-29.743,M,0.0,*57
###2023-12-09 13:13:44.575646$GNGGA,181343.70,4138.0441893,N,07032.2750319,W,1,24,0.7,12.799,M,-29.743,M,0.0,*56
###2023-12-09 13:13:44.775505$GNGGA,181343.90,4138.0441993,N,07032.2752854,W,1,24,0.7,12.815,M,-29.743,M,0.0,*52
###2023-12-09 13:13:44.985059$GNRMC,181344.10,A,4138.0442184,N,07032.2755412,W,3.38,272.93,091223,,,A*53
###2023-12-09 13:13:44.987940$GNGGA,181344.10,4138.0442184,N,07032.2755412,W,1,24,0.7,12.828,M,-29.743,M,0.0,*57
###2023-12-09 13:13:44.989734$GPGSA,A,3,03,04,16,26,28,29,31,,,,,,1.2,0.7,1.0*30
###2023-12-09 13:13:44.991463$GLGSA,A,3,65,71,72,73,74,75,,,,,,,1.2,0.7,1.0*2E
###2023-12-09 13:13:44.993052$GAGSA,A,3,04,19,21,27,,,,,,,,,1.2,0.7,1.0*2C
###2023-12-09 13:13:44.994782$GBGSA,A,3,14,24,25,26,33,35,,,,,,,1.2,0.7,1.0*23
###2023-12-09 13:13:44.997113$GPGSV,2,1,07,03,32,255,42,04,38,311,43,16,56,215,46,26,86,209,48*7D
###2023-12-09 13:13:44.999163$GPGSV,2,2,07,28,45,076,45,29,24,055,41,31,65,050,48,,,,*45
###2023-12-09 13:13:45.001489$GLGSV,2,1,06,65,29,325,41,71,34,174,46,72,71,246,46,73,31,045,43*69
###2023-12-09 13:13:45.003247$GLGSV,2,2,06,74,66,353,42,75,36,259,43,,,,,,,,*6D
###2023-12-09 13:13:45.005585$GAGSV,1,1,04,04,33,312,42,19,81,194,40,21,84,070,46,27,29,048,41*6A
###2023-12-09 13:13:45.007934$GBGSV,2,1,06,14,38,192,44,24,70,034,49,25,44,267,44,26,22,065,43*65
###2023-12-09 13:13:45.009678$GBGSV,2,2,06,33,53,226,48,35,15,065,44,,,,,,,,*60
###2023-12-09 13:13:45.011016$GNVTG,272.93,T,,M,3.38,N,6.26,K,A*24
###2023-12-09 13:13:45.012666$GNGST,181344.10,18.000,,,,0.096,0.072,0.170*58
###2023-12-09 13:13:45.013952$GNZDA,181344.10,09,12,2023,00,00*7B
###2023-12-09 13:13:45.014600$GNEBP,,,,,,M*13
###2023-12-09 13:13:45.176700$GNGGA,181344.30,4138.0442205,N,07032.2757916,W,1,24,0.7,12.856,M,-29.743,M,0.0,*5D
###2023-12-09 13:13:45.377192$GNGGA,181344.50,4138.0442099,N,07032.2760452,W,1,24,0.7,12.866,M,-29.743,M,0.0,*56
###2023-12-09 13:13:45.575720$GNGGA,181344.70,4138.0442001,N,07032.2763039,W,1,24,0.7,12.822,M,-29.743,M,0.0,*5F
###2023-12-09 13:13:45.774513$GNGGA,181344.90,4138.0442160,N,07032.2765655,W,1,24,0.7,12.823,M,-29.743,M,0.0,*5C
###2023-12-09 13:13:45.978283$GNRMC,181345.10,A,4138.0442517,N,07032.2768261,W,3.56,277.87,091223,,,A*58
###2023-12-09 13:13:45.981182$GNGGA,181345.10,4138.0442517,N,07032.2768261,W,1,24,0.7,12.860,M,-29.743,M,0.0,*58
###2023-12-09 13:13:45.982987$GPGSA,A,3,03,04,16,26,28,29,31,,,,,,1.2,0.7,1.0*30
###2023-12-09 13:13:45.984703$GLGSA,A,3,65,71,72,73,74,75,,,,,,,1.2,0.7,1.0*2E
###2023-12-09 13:13:45.986285$GAGSA,A,3,04,19,21,27,,,,,,,,,1.2,0.7,1.0*2C
###2023-12-09 13:13:45.988014$GBGSA,A,3,14,24,25,26,33,35,,,,,,,1.2,0.7,1.0*23
###2023-12-09 13:13:45.990357$GPGSV,2,1,07,03,32,255,42,04,38,311,43,16,56,215,46,26,86,209,48*7D
###2023-12-09 13:13:45.992415$GPGSV,2,2,07,28,45,076,45,29,24,055,42,31,65,050,48,,,,*46
###2023-12-09 13:13:45.994760$GLGSV,2,1,06,65,29,325,41,71,34,174,46,72,71,246,45,73,31,045,44*6D
###2023-12-09 13:13:45.996519$GLGSV,2,2,06,74,66,353,43,75,36,259,42,,,,,,,,*6D
###2023-12-09 13:13:45.998871$GAGSV,1,1,04,04,33,312,42,19,81,194,40,21,84,070,46,27,29,048,41*6A
###2023-12-09 13:13:46.001212$GBGSV,2,1,06,14,38,192,44,24,70,034,50,25,44,267,44,26,22,065,43*6D
###2023-12-09 13:13:46.002978$GBGSV,2,2,06,33,53,226,48,35,15,065,46,,,,,,,,*62
###2023-12-09 13:13:46.004310$GNVTG,277.87,T,,M,3.56,N,6.59,K,A*24
###2023-12-09 13:13:46.005961$GNGST,181345.10,18.000,,,,0.096,0.072,0.170*59
###2023-12-09 13:13:46.007271$GNZDA,181345.10,09,12,2023,00,00*7A
###2023-12-09 13:13:46.007914$GNEBP,,,,,,M*13
###2023-12-09 13:13:46.174152$GNGGA,181345.30,4138.0442513,N,07032.2770805,W,1,24,0.7,12.869,M,-29.743,M,0.0,*56
###2023-12-09 13:13:46.374515$GNGGA,181345.50,4138.0442229,N,07032.2773299,W,1,24,0.7,12.845,M,-29.743,M,0.0,*5C
###2023-12-09 13:13:46.575739$GNGGA,181345.70,4138.0442309,N,07032.2775891,W,1,24,0.7,12.856,M,-29.743,M,0.0,*5B
###2023-12-09 13:13:46.776088$GNGGA,181345.90,4138.0442662,N,07032.2778519,W,1,24,0.7,12.881,M,-29.743,M,0.0,*57
###2023-12-09 13:13:46.978814$GNRMC,181346.10,A,4138.0442695,N,07032.2781114,W,3.52,262.96,091223,,,A*54
###2023-12-09 13:13:46.981666$GNGGA,181346.10,4138.0442695,N,07032.2781114,W,1,24,0.7,12.876,M,-29.743,M,0.0,*53
###2023-12-09 13:13:46.983476$GPGSA,A,3,03,04,16,26,28,29,31,,,,,,1.2,0.7,1.0*30
###2023-12-09 13:13:46.985185$GLGSA,A,3,65,71,72,73,74,75,,,,,,,1.2,0.7,1.0*2E
###2023-12-09 13:13:46.987028$GAGSA,A,3,04,19,21,27,,,,,,,,,1.2,0.7,1.0*2C
###2023-12-09 13:13:46.988746$GBGSA,A,3,14,24,25,26,33,35,,,,,,,1.2,0.7,1.0*23
###2023-12-09 13:13:46.991084$GPGSV,2,1,07,03,32,255,42,04,38,311,43,16,56,215,46,26,86,209,48*7D
###2023-12-09 13:13:46.993126$GPGSV,2,2,07,28,45,076,46,29,24,055,42,31,65,050,47,,,,*4A
###2023-12-09 13:13:46.995467$GLGSV,2,1,06,65,29,325,42,71,34,174,46,72,71,246,45,73,31,045,44*6E
###2023-12-09 13:13:46.997208$GLGSV,2,2,06,74,66,353,43,75,36,259,42,,,,,,,,*6D
###2023-12-09 13:13:46.999529$GAGSV,1,1,04,04,33,312,41,19,81,194,40,21,84,070,46,27,29,048,41*69
###2023-12-09 13:13:47.001844$GBGSV,2,1,06,14,38,192,43,24,70,034,48,25,44,267,43,26,22,065,42*65
###2023-12-09 13:13:47.003587$GBGSV,2,2,06,33,53,226,47,35,15,065,43,,,,,,,,*68
###2023-12-09 13:13:47.004904$GNVTG,262.96,T,,M,3.52,N,6.52,K,A*2F
