###2023-12-09 13:37:31.024615$GAGSV,1,1,04,04,40,309,46,19,71,181,41,21,76,045,46,27,22,050,42*60
###2023-12-09 13:37:31.026976$GBGSV,2,1,06,12,16,125,41,14,28,189,41,24,62,047,47,25,52,277,48*6F
###2023-12-09 13:37:31.028729$GBGSV,2,2,06,33,44,216,45,35,16,055,44,,,,,,,,*68
###2023-12-09 13:37:31.030057$GNVTG,270.75,T,,M,0.33,N,0.61,K,A*23
###2023-12-09 13:37:31.031692$GNGST,183730.10,6.300,,,,0.096,0.082,0.180*61
###2023-12-09 13:37:31.032986$GNZDA,183730.10,09,12,2023,00,00*7E
###2023-12-09 13:37:31.033624$GNEBP,,,,,,M*13
###2023-12-09 13:37:31.200010$GNGGA,183730.30,4138.0300726,N,07032.3965736,W,1,24,0.6,13.375,M,-29.745,M,0.0,*53
###2023-12-09 13:37:31.397610$GNGGA,183730.50,4138.0300569,N,07032.3965735,W,1,24,0.6,13.356,M,-29.745,M,0.0,*5E
###2023-12-09 13:37:31.596404$GNGGA,183730.70,4138.0300459,N,07032.3965940,W,1,24,0.6,13.354,M,-29.745,M,0.0,*50
###2023-12-09 13:37:31.797130$GNGGA,183730.90,4138.0300430,N,07032.3966403,W,1,24,0.6,13.372,M,-29.745,M,0.0,*5C
###2023-12-09 13:37:32.000624$GNRMC,183731.10,A,4138.0300358,N,07032.3966747,W,0.31,270.75,091223,,,A*59
###2023-12-09 13:37:32.003485$GNGGA,183731.10,4138.0300358,N,07032.3966747,W,1,24,0.6,13.383,M,-29.745,M,0.0,*51
###2023-12-09 13:37:32.005273$GPGSA,A,3,04,16,26,27,28,29,31,,,,,,1.1,0.6,1.0*34
###2023-12-09 13:37:32.007059$GLGSA,A,3,65,71,72,73,74,75,83,,,,,,1.1,0.6,1.0*27
###2023-12-09 13:37:32.008635$GAGSA,A,3,04,19,21,27,,,,,,,,,1.1,0.6,1.0*2E
###2023-12-09 13:37:32.010339$GBGSA,A,3,12,14,24,25,33,35,,,,,,,1.1,0.6,1.0*26
###2023-12-09 13:37:32.012669$GPGSV,2,1,07,04,48,307,49,16,68,224,48,26,82,040,50,27,18,172,42*7C
###2023-12-09 13:37:32.014732$GPGSV,2,2,07,28,37,086,46,29,20,046,43,31,58,068,49,,,,*4C
###2023-12-09 13:37:32.017067$GLGSV,2,1,07,65,39,317,45,71,21,175,39,72,61,219,46,73,21,053,43*6C
###2023-12-09 13:37:32.019131$GLGSV,2,2,07,74,59,016,44,75,44,273,48,83,15,046,36,,,,*5A
###2023-12-09 13:37:32.021470$GAGSV,1,1,04,04,40,309,47,19,71,181,41,21,76,045,47,27,22,050,41*63
###2023-12-09 13:37:32.023821$GBGSV,2,1,06,12,16,125,42,14,28,189,42,24,62,047,49,25,52,277,50*68
###2023-12-09 13:37:32.025572$GBGSV,2,2,06,33,44,216,46,35,16,055,45,,,,,,,,*6A
###2023-12-09 13:37:32.026910$GNVTG,270.75,T,,M,0.31,N,0.58,K,A*2B
###2023-12-09 13:37:32.028530$GNGST,183731.10,6.600,,,,0.097,0.083,0.180*65
###2023-12-09 13:37:32.029820$GNZDA,183731.10,09,12,2023,00,00*7F
###2023-12-09 13:37:32.030456$GNEBP,,,,,,M*13
###2023-12-09 13:37:32.197337$GNGGA,183731.30,4138.0300198,N,07032.3966650,W,1,24,0.6,13.368,M,-29.745,M,0.0,*5F
###2023-12-09 13:37:32.398901$GNGGA,183731.50,4138.0300065,N,07032.3966599,W,1,24,0.6,13.350,M,-29.745,M,0.0,*57
###2023-12-09 13:37:32.596511$GNGGA,183731.70,4138.0300030,N,07032.3967101,W,1,24,0.6,13.378,M,-29.745,M,0.0,*5B
###2023-12-09 13:37:32.796099$GNGGA,183731.90,4138.0300002,N,07032.3967662,W,1,24,0.6,13.384,M,-29.745,M,0.0,*55
###2023-12-09 13:37:33.005610$GNRMC,183732.10,A,4138.0299872,N,07032.3967645,W,0.49,270.75,091223,,,A*55
###2023-12-09 13:37:33.008494$GNGGA,183732.10,4138.0299872,N,07032.3967645,W,1,24,0.6,13.370,M,-29.745,M,0.0,*5E
###2023-12-09 13:37:33.010287$GPGSA,A,3,04,16,26,27,28,29,31,,,,,,1.1,0.6,1.0*34
###2023-12-09 13:37:33.012074$GLGSA,A,3,65,71,72,73,74,75,83,,,,,,1.1,0.6,1.0*27
###2023-12-09 13:37:33.013649$GAGSA,A,3,04,19,21,27,,,,,,,,,1.1,0.6,1.0*2E
###2023-12-09 13:37:33.015366$GBGSA,A,3,12,14,24,25,33,35,,,,,,,1.1,0.6,1.0*26
###2023-12-09 13:37:33.017680$GPGSV,2,1,07,04,48,307,48,16,68,224,46,26,82,040,49,27,18,172,41*78
###2023-12-09 13:37:33.019725$GPGSV,2,2,07,28,37,086,45,29,20,046,44,31,58,068,48,,,,*49
###2023-12-09 13:37:33.022047$GLGSV,2,1,07,65,39,317,45,71,21,175,38,72,61,219,46,73,21,053,44*6A
###2023-12-09 13:37:33.024090$GLGSV,2,2,07,74,59,016,44,75,44,273,48,83,15,046,36,,,,*5A
###2023-12-09 13:37:33.026411$GAGSV,1,1,04,04,40,309,46,19,71,181,41,21,76,045,47,27,22,050,41*62
###2023-12-09 13:37:33.028746$GBGSV,2,1,06,12,16,125,40,14,28,189,41,24,62,047,47,25,52,277,48*6E
###2023-12-09 13:37:33.030482$GBGSV,2,2,06,33,44,216,43,35,16,055,43,,,,,,,,*69
###2023-12-09 13:37:33.031814$GNVTG,270.75,T,,M,0.49,N,0.90,K,A*20
###2023-12-09 13:37:33.033430$GNGST,183732.10,6.000,,,,0.098,0.084,0.180*68
###2023-12-09 13:37:33.034760$GNZDA,183732.10,09,12,2023,00,00*7C
###2023-12-09 13:37:33.035401$GNEBP,,,,,,M*13
###2023-12-09 13:37:33.205386$GNGGA,183732.30,4138.0299708,N,07032.3967430,W,1,24,0.6,13.358,M,-29.745,M,0.0,*54
###2023-12-09 13:37:33.394362$GNGGA,183732.50,4138.0299637,N,07032.3967756,W,1,24,0.6,13.379,M,-29.745,M,0.0,*5F
###2023-12-09 13:37:33.595520$GNGGA,183732.70,4138.0299634,N,07032.3968398,W,1,24,0.6,13.392,M,-29.745,M,0.0,*52
###2023-12-09 13:37:33.796103$GNGGA,183732.90,4138.0299543,N,07032.3968611,W,1,24,0.6,13.380,M,-29.745,M,0.0,*58
###2023-12-09 13:37:34.000824$GNRMC,183733.10,A,4138.0299381,N,07032.3968354,W,0.51,270.75,091223,,,A*50
###2023-12-09 13:37:34.003693$GNGGA,183733.10,4138.0299381,N,07032.3968354,W,1,24,0.6,13.363,M,-29.745,M,0.0,*50
###2023-12-09 13:37:34.005489$GPGSA,A,3,04,16,26,27,28,29,31,,,,,,1.1,0.6,1.0*34
###2023-12-09 13:37:34.007278$GLGSA,A,3,65,71,72,73,74,75,83,,,,,,1.1,0.6,1.0*27
###2023-12-09 13:37:34.008859$GAGSA,A,3,04,19,21,27,,,,,,,,,1.1,0.6,1.0*2E
###2023-12-09 13:37:34.010577$GBGSA,A,3,12,14,24,25,33,35,,,,,,,1.1,0.6,1.0*26
###2023-12-09 13:37:34.012906$GPGSV,2,1,07,04,48,307,45,16,68,224,44,26,82,040,47,27,18,172,40*78
###2023-12-09 13:37:34.014955$GPGSV,2,2,07,28,37,086,44,29,20,046,42,31,58,068,47,,,,*41
###2023-12-09 13:37:34.017285$GLGSV,2,1,07,65,39,317,45,71,21,175,36,72,61,219,46,73,21,053,45*65
###2023-12-09 13:37:34.019334$GLGSV,2,2,07,74,59,016,43,75,44,273,47,83,15,046,36,,,,*52
###2023-12-09 13:37:34.021662$GAGSV,1,1,04,04,40,309,44,19,71,181,40,21,76,045,46,27,22,050,41*60
###2023-12-09 13:37:34.023993$GBGSV,2,1,06,12,16,125,43,14,28,189,41,24,62,047,47,25,52,277,46*63
###2023-12-09 13:37:34.025741$GBGSV,2,2,06,33,44,216,45,35,16,055,44,,,,,,,,*68
###2023-12-09 13:37:34.027075$GNVTG,270.75,T,,M,0.51,N,0.94,K,A*2D
###2023-12-09 13:37:34.028690$GNGST,183733.10,6.200,,,,0.100,0.085,0.180*6A
###2023-12-09 13:37:34.029978$GNZDA,183733.10,09,12,2023,00,00*7D
###2023-12-09 13:37:34.030626$GNEBP,,,,,,M*13
###2023-12-09 13:37:34.196547$GNGGA,183733.30,4138.0299256,N,07032.3968350,W,1,24,0.6,13.363,M,-29.745,M,0.0,*5D
###2023-12-09 13:37:34.396625$GNGGA,183733.50,4138.0299217,N,07032.3968900,W,1,24,0.6,13.383,M,-29.745,M,0.0,*5F
###2023-12-09 13:37:34.596440$GNGGA,183733.70,4138.0299178,N,07032.3969355,W,1,23,0.6,13.389,M,-29.745,M,0.0,*51
###2023-12-09 13:37:34.797165$GNGGA,183733.90,4138.0299060,N,07032.3969336,W,1,24,0.6,13.383,M,-29.745,M,0.0,*5F
###2023-12-09 13:37:34.999743$GNRMC,183734.10,A,4138.0298899,N,07032.3969079,W,0.31,270.75,091223,,,A*5F
###2023-12-09 13:37:35.002618$GNGGA,183734.10,4138.0298899,N,07032.3969079,W,1,24,0.6,13.362,M,-29.745,M,0.0,*58
###2023-12-09 13:37:35.004408$GPGSA,A,3,04,16,26,27,28,29,31,,,,,,1.1,0.6,1.0*34
###2023-12-09 13:37:35.006180$GLGSA,A,3,65,71,72,73,74,75,83,,,,,,1.1,0.6,1.0*27
###2023-12-09 13:37:35.007771$GAGSA,A,3,04,19,21,27,,,,,,,,,1.1,0.6,1.0*2E
###2023-12-09 13:37:35.009470$GBGSA,A,3,12,14,24,25,33,35,,,,,,,1.1,0.6,1.0*26
###2023-12-09 13:37:35.011789$GPGSV,2,1,07,04,48,307,45,16,68,224,45,26,82,040,48,27,18,172,41*77
###2023-12-09 13:37:35.013815$GPGSV,2,2,07,28,37,086,44,29,20,046,43,31,58,068,47,,,,*40
###2023-12-09 13:37:35.016147$GLGSV,2,1,07,65,39,317,43,71,21,175,38,72,61,219,45,73,21,053,45*6E
###2023-12-09 13:37:35.018182$GLGSV,2,2,07,74,59,016,43,75,44,273,45,83,15,046,36,,,,*50
###2023-12-09 13:37:35.020513$GAGSV,1,1,04,04,40,309,43,19,71,181,40,21,76,045,46,27,22,050,41*67
###2023-12-09 13:37:35.022842$GBGSV,2,1,06,12,16,125,43,14,28,189,41,24,62,047,48,25,52,277,46*6C
###2023-12-09 13:37:35.024587$GBGSV,2,2,06,33,44,216,46,35,16,055,46,,,,,,,,*69
###2023-12-09 13:37:35.025908$GNVTG,270.75,T,,M,0.31,N,0.58,K,A*2B
###2023-12-09 13:37:35.027527$GNGST,183734.10,5.900,,,,0.100,0.086,0.190*67
###2023-12-09 13:37:35.028811$GNZDA,183734.10,09,12,2023,00,00*7A
###2023-12-09 13:37:35.029448$GNEBP,,,,,,M*13
###2023-12-09 13:37:35.196373$GNGGA,183734.30,4138.0298815,N,07032.3969210,W,1,24,0.6,13.351,M,-29.745,M,0.0,*53
###2023-12-09 13:37:35.397428$GNGGA,183734.50,4138.0298763,N,07032.3969763,W,1,24,0.6,13.370,M,-29.745,M,0.0,*59
###2023-12-09 13:37:35.597324$GNGGA,183734.70,4138.0298682,N,07032.3970139,W,1,24,0.6,13.385,M,-29.745,M,0.0,*5E
###2023-12-09 13:37:35.797986$GNGGA,183734.90,4138.0298581,N,07032.3970091,W,1,24,0.6,13.392,M,-29.745,M,0.0,*55
###2023-12-09 13:37:36.000724$GNRMC,183735.10,A,4138.0298466,N,07032.3969819,W,0.33,270.75,091223,,,A*5E
###2023-12-09 13:37:36.003611$GNGGA,183735.10,4138.0298466,N,07032.3969819,W,1,24,0.6,13.351,M,-29.745,M,0.0,*5B
###2023-12-09 13:37:36.005411$GPGSA,A,3,04,16,26,27,28,29,31,,,,,,1.1,0.6,1.0*34
###2023-12-09 13:37:36.007205$GLGSA,A,3,65,71,72,73,74,75,83,,,,,,1.1,0.6,1.0*27
###2023-12-09 13:37:36.008788$GAGSA,A,3,04,19,21,27,,,,,,,,,1.1,0.6,1.0*2E
