###2023-12-09 13:40:03.401396$GNGGA,184002.50,4138.0307745,N,07032.3865453,W,1,25,0.6,13.418,M,-29.745,M,0.0,*5A
###2023-12-09 13:40:03.599429$GNGGA,184002.70,4138.0306833,N,07032.3865377,W,1,25,0.6,13.391,M,-29.745,M,0.0,*50
###2023-12-09 13:40:03.801643$GNGGA,184002.90,4138.0306017,N,07032.3865003,W,1,26,0.6,13.382,M,-29.745,M,0.0,*51
###2023-12-09 13:40:04.003890$GNRMC,184003.10,A,4138.0305111,N,07032.3865431,W,2.04,210.33,091223,,,A*52
###2023-12-09 13:40:04.006771$GNGGA,184003.10,4138.0305111,N,07032.3865431,W,1,26,0.6,13.424,M,-29.745,M,0.0,*52
###2023-12-09 13:40:04.008630$GPGSA,A,3,03,04,16,26,27,28,29,31,,,,,1.0,0.6,0.8*3F
###2023-12-09 13:40:04.010410$GLGSA,A,3,65,71,72,73,74,75,83,,,,,,1.0,0.6,0.8*2F
###2023-12-09 13:40:04.012009$GAGSA,A,3,04,19,21,27,,,,,,,,,1.0,0.6,0.8*26
###2023-12-09 13:40:04.013725$GBGSA,A,3,12,14,24,25,33,35,,,,,,,1.0,0.6,0.8*2E
###2023-12-09 13:40:04.016068$GPGSV,2,1,08,03,25,244,40,04,48,306,45,16,69,225,46,26,81,040,49*77
###2023-12-09 13:40:04.018428$GPGSV,2,2,08,27,19,172,39,28,36,087,45,29,19,045,43,31,58,070,47*7D
###2023-12-09 13:40:04.020813$GLGSV,2,1,07,65,40,316,44,71,20,176,42,72,60,217,46,73,20,054,45*63
###2023-12-09 13:40:04.022893$GLGSV,2,2,07,74,58,018,44,75,45,275,48,83,16,045,35,,,,*51
###2023-12-09 13:40:04.025228$GAGSV,1,1,04,04,41,309,44,19,69,180,40,21,74,044,47,27,21,050,41*68
###2023-12-09 13:40:04.027574$GBGSV,2,1,06,12,17,125,43,14,27,189,39,24,61,048,48,25,52,278,47*6F
###2023-12-09 13:40:04.029326$GBGSV,2,2,06,33,44,215,45,35,16,055,45,,,,,,,,*6A
###2023-12-09 13:40:04.030663$GNVTG,210.33,T,,M,2.04,N,3.78,K,A*2A
###2023-12-09 13:40:04.032283$GNGST,184003.10,5.900,,,,0.089,0.066,0.150*61
###2023-12-09 13:40:04.033580$GNZDA,184003.10,09,12,2023,00,00*7E
###2023-12-09 13:40:04.034219$GNEBP,,,,,,M*13
###2023-12-09 13:40:04.202835$GNGGA,184003.30,4138.0304217,N,07032.3865950,W,1,26,0.6,13.425,M,-29.745,M,0.0,*5F
###2023-12-09 13:40:04.400805$GNGGA,184003.50,4138.0303442,N,07032.3865769,W,1,26,0.6,13.386,M,-29.745,M,0.0,*52
###2023-12-09 13:40:04.599988$GNGGA,184003.70,4138.0302668,N,07032.3865638,W,1,25,0.6,13.395,M,-29.745,M,0.0,*5F
###2023-12-09 13:40:04.800745$GNGGA,184003.90,4138.0301847,N,07032.3866094,W,1,25,0.6,13.428,M,-29.745,M,0.0,*53
###2023-12-09 13:40:05.003952$GNRMC,184004.10,A,4138.0301109,N,07032.3866406,W,1.30,181.27,091223,,,A*55
###2023-12-09 13:40:05.006832$GNGGA,184004.10,4138.0301109,N,07032.3866406,W,1,25,0.6,13.410,M,-29.745,M,0.0,*5B
###2023-12-09 13:40:05.008687$GPGSA,A,3,03,04,16,26,27,28,29,31,,,,,1.1,0.6,0.9*3F
###2023-12-09 13:40:05.010495$GLGSA,A,3,65,71,72,73,74,75,83,,,,,,1.1,0.6,0.9*2F
###2023-12-09 13:40:05.012096$GAGSA,A,3,04,19,21,27,,,,,,,,,1.1,0.6,0.9*26
###2023-12-09 13:40:05.013811$GBGSA,A,3,12,14,24,25,33,35,,,,,,,1.1,0.6,0.9*2E
###2023-12-09 13:40:05.016145$GPGSV,2,1,08,03,25,244,43,04,48,306,46,16,69,225,47,26,81,040,48*77
###2023-12-09 13:40:05.018480$GPGSV,2,2,08,27,19,172,39,28,36,087,45,29,19,045,41,31,58,070,46*7E
###2023-12-09 13:40:05.020825$GLGSV,2,1,07,65,40,316,45,71,20,176,42,72,60,217,47,73,20,054,42*64
###2023-12-09 13:40:05.022899$GLGSV,2,2,07,74,58,018,44,75,45,275,48,83,16,045,35,,,,*51
###2023-12-09 13:40:05.025227$GAGSV,1,1,04,04,41,309,45,19,69,180,40,21,74,044,47,27,21,050,38*67
###2023-12-09 13:40:05.027562$GBGSV,2,1,06,12,17,125,41,14,27,189,40,24,61,048,48,25,52,278,49*6D
###2023-12-09 13:40:05.029305$GBGSV,2,2,06,33,44,215,47,35,16,055,44,,,,,,,,*69
###2023-12-09 13:40:05.030635$GNVTG,181.27,T,,M,1.30,N,2.41,K,A*2B
###2023-12-09 13:40:05.032245$GNGST,184004.10,5.900,,,,0.089,0.066,0.150*66
###2023-12-09 13:40:05.033530$GNZDA,184004.10,09,12,2023,00,00*79
###2023-12-09 13:40:05.034166$GNEBP,,,,,,M*13
###2023-12-09 13:40:05.201331$GNGGA,184004.30,4138.0300419,N,07032.3866305,W,1,26,0.6,13.394,M,-29.745,M,0.0,*50
###2023-12-09 13:40:05.400497$GNGGA,184004.50,4138.0299659,N,07032.3866313,W,1,26,0.6,13.412,M,-29.745,M,0.0,*5F
###2023-12-09 13:40:05.600479$GNGGA,184004.70,4138.0298951,N,07032.3866579,W,1,26,0.6,13.412,M,-29.745,M,0.0,*51
###2023-12-09 13:40:05.800796$GNGGA,184004.90,4138.0298277,N,07032.3866823,W,1,26,0.6,13.411,M,-29.745,M,0.0,*51
###2023-12-09 13:40:06.004072$GNRMC,184005.10,A,4138.0297572,N,07032.3867024,W,1.34,185.19,091223,,,A*5A
###2023-12-09 13:40:06.006961$GNGGA,184005.10,4138.0297572,N,07032.3867024,W,1,26,0.6,13.417,M,-29.745,M,0.0,*5D
###2023-12-09 13:40:06.008824$GPGSA,A,3,03,04,16,26,27,28,29,31,,,,,1.0,0.6,0.8*3F
###2023-12-09 13:40:06.010619$GLGSA,A,3,65,71,72,73,74,75,83,,,,,,1.0,0.6,0.8*2F
###2023-12-09 13:40:06.012208$GAGSA,A,3,04,19,21,27,,,,,,,,,1.0,0.6,0.8*26
###2023-12-09 13:40:06.013921$GBGSA,A,3,12,14,24,25,33,35,,,,,,,1.0,0.6,0.8*2E
###2023-12-09 13:40:06.016271$GPGSV,2,1,08,03,25,244,42,04,48,306,47,16,69,225,46,26,81,040,49*77
###2023-12-09 13:40:06.018618$GPGSV,2,2,08,27,19,172,37,28,36,087,45,29,19,045,42,31,58,070,47*72
###2023-12-09 13:40:06.020960$GLGSV,2,1,07,65,40,316,45,71,20,176,40,72,60,217,46,73,20,054,42*67
###2023-12-09 13:40:06.023027$GLGSV,2,2,07,74,58,018,44,75,45,275,48,83,16,045,35,,,,*51
###2023-12-09 13:40:06.025370$GAGSV,1,1,04,04,41,309,45,19,69,180,41,21,74,044,46,27,21,050,40*68
###2023-12-09 13:40:06.027729$GBGSV,2,1,06,12,17,125,42,14,27,189,42,24,61,048,49,25,52,278,48*6C
###2023-12-09 13:40:06.029488$GBGSV,2,2,06,33,44,215,47,35,16,055,45,,,,,,,,*68
###2023-12-09 13:40:06.030825$GNVTG,185.19,T,,M,1.34,N,2.48,K,A*2F
###2023-12-09 13:40:06.032442$GNGST,184005.10,6.300,,,,0.089,0.066,0.150*6E
###2023-12-09 13:40:06.033739$GNZDA,184005.10,09,12,2023,00,00*78
###2023-12-09 13:40:06.034379$GNEBP,,,,,,M*13
###2023-12-09 13:40:06.205663$GNGGA,184005.30,4138.0296894,N,07032.3866964,W,1,26,0.6,13.401,M,-29.745,M,0.0,*50
###2023-12-09 13:40:06.400904$GNGGA,184005.50,4138.0296300,N,07032.3866967,W,1,26,0.6,13.382,M,-29.745,M,0.0,*5F
###2023-12-09 13:40:06.600906$GNGGA,184005.70,4138.0295643,N,07032.3867401,W,1,26,0.6,13.412,M,-29.745,M,0.0,*5E
###2023-12-09 13:40:06.802297$GNGGA,184005.90,4138.0294994,N,07032.3867854,W,1,26,0.6,13.428,M,-29.745,M,0.0,*51
###2023-12-09 13:40:07.005379$GNRMC,184006.10,A,4138.0294396,N,07032.3867782,W,1.01,154.55,091223,,,A*5F
###2023-12-09 13:40:07.008281$GNGGA,184006.10,4138.0294396,N,07032.3867782,W,1,26,0.6,13.393,M,-29.745,M,0.0,*51
###2023-12-09 13:40:07.010145$GPGSA,A,3,03,04,16,26,27,28,29,31,,,,,1.0,0.6,0.8*3F
###2023-12-09 13:40:07.011946$GLGSA,A,3,65,71,72,73,74,75,83,,,,,,1.0,0.6,0.8*2F
###2023-12-09 13:40:07.013535$GAGSA,A,3,04,19,21,27,,,,,,,,,1.0,0.6,0.8*26
###2023-12-09 13:40:07.015265$GBGSA,A,3,12,14,24,25,33,35,,,,,,,1.0,0.6,0.8*2E
###2023-12-09 13:40:07.017600$GPGSV,2,1,08,03,25,244,40,04,48,306,45,16,69,225,45,26,81,040,48*75
###2023-12-09 13:40:07.019948$GPGSV,2,2,08,27,19,172,38,28,36,087,44,29,19,045,41,31,58,070,45*7D
###2023-12-09 13:40:07.022287$GLGSV,2,1,07,65,40,316,44,71,20,176,40,72,60,217,47,73,20,054,42*67
###2023-12-09 13:40:07.024342$GLGSV,2,2,07,74,58,018,44,75,45,275,49,83,16,045,35,,,,*50
###2023-12-09 13:40:07.026700$GAGSV,1,1,04,04,41,309,45,19,69,180,40,21,74,044,47,27,21,050,38*67
###2023-12-09 13:40:07.029036$GBGSV,2,1,06,12,17,125,42,14,27,189,43,24,61,048,49,25,52,278,49*6C
###2023-12-09 13:40:07.030795$GBGSV,2,2,06,33,44,215,48,35,16,055,45,,,,,,,,*67
###2023-12-09 13:40:07.032125$GNVTG,154.55,T,,M,1.01,N,1.87,K,A*2D
###2023-12-09 13:40:07.033743$GNGST,184006.10,6.200,,,,0.090,0.066,0.150*64
###2023-12-09 13:40:07.035078$GNZDA,184006.10,09,12,2023,00,00*7B
###2023-12-09 13:40:07.035723$GNEBP,,,,,,M*13
###2023-12-09 13:40:07.203439$GNGGA,184006.30,4138.0293903,N,07032.3867519,W,1,26,0.6,13.360,M,-29.745,M,0.0,*5E
###2023-12-09 13:40:07.408187$GNGGA,184006.50,4138.0293313,N,07032.3867860,W,1,26,0.6,13.395,M,-29.745,M,0.0,*5A
###2023-12-09 13:40:07.600892$GNGGA,184006.70,4138.0292680,N,07032.3868629,W,1,25,0.6,13.425,M,-29.745,M,0.0,*55
###2023-12-09 13:40:07.800861$GNGGA,184006.90,4138.0292140,N,07032.3868704,W,1,25,0.6,13.402,M,-29.745,M,0.0,*5B
###2023-12-09 13:40:08.003704$GNRMC,184007.10,A,4138.0291749,N,07032.3868146,W,0.97,125.35,091223,,,A*52
###2023-12-09 13:40:08.006579$GNGGA,184007.10,4138.0291749,N,07032.3868146,W,1,26,0.6,13.348,M,-29.745,M,0.0,*54
###2023-12-09 13:40:08.008676$GPGSA,A,3,03,04,16,26,27,28,29,31,,,,,1.0,0.6,0.8*3F
###2023-12-09 13:40:08.010465$GLGSA,A,3,65,71,72,73,74,75,83,,,,,,1.0,0.6,0.8*2F
###2023-12-09 13:40:08.012059$GAGSA,A,3,04,19,21,27,,,,,,,,,1.0,0.6,0.8*26
###2023-12-09 13:40:08.013767$GBGSA,A,3,12,14,24,25,33,35,,,,,,,1.0,0.6,0.8*2E
###2023-12-09 13:40:08.016098$GPGSV,2,1,08,03,25,244,39,04,48,306,45,16,69,225,45,26,81,040,48*7B
###2023-12-09 13:40:08.018421$GPGSV,2,2,08,27,19,172,37,28,36,087,46,29,19,045,44,31,58,070,47*77
###2023-12-09 13:40:08.020758$GLGSV,2,1,07,65,40,316,42,71,20,176,40,72,60,217,47,73,20,054,45*66
###2023-12-09 13:40:08.022834$GLGSV,2,2,07,74,58,018,44,75,45,275,48,83,16,045,36,,,,*52
###2023-12-09 13:40:08.025169$GAGSV,1,1,04,04,41,309,43,19,69,180,41,21,74,044,47,27,21,050,42*6D
###2023-12-09 13:40:08.027510$GBGSV,2,1,06,12,17,125,42,14,27,189,39,24,61,048,48,25,52,278,47*6E
###2023-12-09 13:40:08.029259$GBGSV,2,2,06,33,44,215,45,35,16,055,44,,,,,,,,*6B
