###2023-12-09 13:26:15.009122$GPGSV,2,1,07,03,29,250,44,04,43,309,45,16,62,219,47,26,88,044,47*77
###2023-12-09 13:26:15.011627$GPGSV,2,2,07,28,41,081,43,29,22,050,39,31,62,060,46,,,,*49
###2023-12-09 13:26:15.014454$GLGSV,2,1,06,65,34,322,41,71,27,175,45,72,67,229,47,73,26,049,41*65
###2023-12-09 13:26:15.016627$GLGSV,2,2,06,74,63,006,41,75,40,266,47,,,,,,,,*61
###2023-12-09 13:26:15.019468$GAGSV,1,1,04,04,37,311,43,19,75,184,41,21,80,050,46,27,25,049,40*6D
###2023-12-09 13:26:15.022282$GBGSV,2,1,06,14,33,190,42,24,66,041,47,25,48,272,46,26,19,068,40*6D
###2023-12-09 13:26:15.024405$GBGSV,2,2,06,33,49,220,47,35,16,060,39,,,,,,,,*6E
###2023-12-09 13:26:15.026004$GNVTG,359.22,T,,M,3.62,N,6.70,K,A*2A
###2023-12-09 13:26:15.028013$GNGST,182614.10,18.000,,,,0.100,0.070,0.170*57
###2023-12-09 13:26:15.029577$GNZDA,182614.10,09,12,2023,00,00*78
###2023-12-09 13:26:15.030356$GNEBP,,,,,,M*13
###2023-12-09 13:26:15.192307$GNGGA,182614.30,4138.0671682,N,07032.3420840,W,1,24,0.6,12.917,M,-29.743,M,0.0,*52
###2023-12-09 13:26:15.388806$GNGGA,182614.50,4138.0673653,N,07032.3421101,W,1,24,0.6,12.913,M,-29.743,M,0.0,*53
###2023-12-09 13:26:15.588824$GNGGA,182614.70,4138.0675522,N,07032.3421620,W,1,24,0.6,12.901,M,-29.743,M,0.0,*55
###2023-12-09 13:26:15.790117$GNGGA,182614.90,4138.0677340,N,07032.3422186,W,1,24,0.6,12.908,M,-29.743,M,0.0,*5A
###2023-12-09 13:26:15.992399$GNRMC,182615.10,A,4138.0679172,N,07032.3422683,W,3.34,346.68,091223,,,A*54
###2023-12-09 13:26:15.995290$GNGGA,182615.10,4138.0679172,N,07032.3422683,W,1,24,0.6,12.911,M,-29.743,M,0.0,*54
###2023-12-09 13:26:15.997085$GPGSA,A,3,03,04,16,26,28,29,31,,,,,,1.1,0.6,0.9*3A
###2023-12-09 13:26:15.998814$GLGSA,A,3,65,71,72,73,74,75,,,,,,,1.1,0.6,0.9*24
###2023-12-09 13:26:16.000405$GAGSA,A,3,04,19,21,27,,,,,,,,,1.1,0.6,0.9*26
###2023-12-09 13:26:16.002125$GBGSA,A,3,14,24,25,26,33,35,,,,,,,1.1,0.6,0.9*29
###2023-12-09 13:26:16.004474$GPGSV,2,1,07,03,29,250,44,04,43,309,44,16,62,219,46,26,88,044,47*77
###2023-12-09 13:26:16.006523$GPGSV,2,2,07,28,41,081,45,29,22,050,42,31,62,060,47,,,,*42
###2023-12-09 13:26:16.008867$GLGSV,2,1,06,65,34,322,39,71,27,175,45,72,67,229,46,73,26,049,43*69
###2023-12-09 13:26:16.010666$GLGSV,2,2,06,74,63,006,41,75,40,266,47,,,,,,,,*61
###2023-12-09 13:26:16.012999$GAGSV,1,1,04,04,37,311,42,19,75,184,41,21,80,050,46,27,25,049,41*6D
###2023-12-09 13:26:16.015345$GBGSV,2,1,06,14,33,190,41,24,66,041,47,25,48,272,45,26,19,068,43*6E
###2023-12-09 13:26:16.017097$GBGSV,2,2,06,33,49,220,47,35,16,060,42,,,,,,,,*62
###2023-12-09 13:26:16.018421$GNVTG,346.68,T,,M,3.34,N,6.19,K,A*26
###2023-12-09 13:26:16.020086$GNGST,182615.10,18.000,,,,0.100,0.070,0.170*56
###2023-12-09 13:26:16.021382$GNZDA,182615.10,09,12,2023,00,00*79
###2023-12-09 13:26:16.022024$GNEBP,,,,,,M*13
###2023-12-09 13:26:16.190639$GNGGA,182615.30,4138.0680959,N,07032.3423386,W,1,24,0.6,12.909,M,-29.743,M,0.0,*59
###2023-12-09 13:26:16.389819$GNGGA,182615.50,4138.0682679,N,07032.3424323,W,1,24,0.6,12.916,M,-29.743,M,0.0,*56
###2023-12-09 13:26:16.588915$GNGGA,182615.70,4138.0684463,N,07032.3425190,W,1,24,0.6,12.921,M,-29.743,M,0.0,*54
###2023-12-09 13:26:16.790880$GNGGA,182615.90,4138.0686332,N,07032.3425806,W,1,24,0.6,12.927,M,-29.743,M,0.0,*5B
###2023-12-09 13:26:16.995225$GNRMC,182616.10,A,4138.0688235,N,07032.3426473,W,3.60,343.65,091223,,,A*59
###2023-12-09 13:26:16.998722$GNGGA,182616.10,4138.0688235,N,07032.3426473,W,1,24,0.6,12.934,M,-29.743,M,0.0,*57
###2023-12-09 13:26:17.000919$GPGSA,A,3,03,04,16,26,28,29,31,,,,,,1.1,0.6,0.9*3A
###2023-12-09 13:26:17.003008$GLGSA,A,3,65,71,72,73,74,75,,,,,,,1.1,0.6,0.9*24
###2023-12-09 13:26:17.004928$GAGSA,A,3,04,19,21,27,,,,,,,,,1.1,0.6,0.9*26
###2023-12-09 13:26:17.007019$GBGSA,A,3,14,24,25,26,33,35,,,,,,,1.1,0.6,0.9*29
###2023-12-09 13:26:17.009833$GPGSV,2,1,07,03,29,250,42,04,43,309,44,16,62,219,46,26,88,044,48*7E
###2023-12-09 13:26:17.012309$GPGSV,2,2,07,28,41,081,45,29,22,050,42,31,62,060,47,,,,*42
###2023-12-09 13:26:17.015140$GLGSV,2,1,06,65,34,322,41,71,27,175,44,72,67,229,46,73,26,049,43*67
###2023-12-09 13:26:17.017246$GLGSV,2,2,06,74,63,006,41,75,40,266,47,,,,,,,,*61
###2023-12-09 13:26:17.020071$GAGSV,1,1,04,04,37,311,44,19,75,184,41,21,80,050,46,27,25,049,41*6B
###2023-12-09 13:26:17.022889$GBGSV,2,1,06,14,33,190,44,24,66,041,48,25,48,272,46,26,19,068,43*67
###2023-12-09 13:26:17.024994$GBGSV,2,2,06,33,49,220,47,35,16,060,41,,,,,,,,*61
###2023-12-09 13:26:17.026634$GNVTG,343.65,T,,M,3.60,N,6.66,K,A*27
###2023-12-09 13:26:17.028633$GNGST,182616.10,18.000,,,,0.100,0.070,0.170*55
###2023-12-09 13:26:17.030198$GNZDA,182616.10,09,12,2023,00,00*7A
###2023-12-09 13:26:17.030979$GNEBP,,,,,,M*13
###2023-12-09 13:26:17.190729$GNGGA,182616.30,4138.0690135,N,07032.3427273,W,1,24,0.6,12.944,M,-29.743,M,0.0,*5F
###2023-12-09 13:26:17.387852$GNGGA,182616.50,4138.0692099,N,07032.3428016,W,1,24,0.6,12.942,M,-29.743,M,0.0,*54
###2023-12-09 13:26:17.589049$GNGGA,182616.70,4138.0694068,N,07032.3428384,W,1,24,0.6,12.950,M,-29.743,M,0.0,*55
###2023-12-09 13:26:17.788650$GNGGA,182616.90,4138.0696029,N,07032.3428414,W,1,24,0.6,12.960,M,-29.743,M,0.0,*51
###2023-12-09 13:26:17.992423$GNRMC,182617.10,A,4138.0697933,N,07032.3428228,W,3.40,4.48,091223,,,A*50
###2023-12-09 13:26:17.995893$GNGGA,182617.10,4138.0697933,N,07032.3428228,W,1,24,0.6,12.952,M,-29.743,M,0.0,*53
###2023-12-09 13:26:17.998067$GPGSA,A,3,03,04,16,26,28,29,31,,,,,,1.1,0.6,0.9*3A
###2023-12-09 13:26:18.000169$GLGSA,A,3,65,71,72,73,74,75,,,,,,,1.1,0.6,0.9*24
###2023-12-09 13:26:18.002073$GAGSA,A,3,04,19,21,27,,,,,,,,,1.1,0.6,0.9*26
###2023-12-09 13:26:18.004154$GBGSA,A,3,14,24,25,26,33,35,,,,,,,1.1,0.6,0.9*29
###2023-12-09 13:26:18.006976$GPGSV,2,1,07,03,29,250,42,04,43,309,45,16,62,219,46,26,88,044,48*7F
###2023-12-09 13:26:18.009434$GPGSV,2,2,07,28,41,081,45,29,22,050,39,31,62,060,46,,,,*4F
###2023-12-09 13:26:18.012260$GLGSV,2,1,06,65,34,322,42,71,27,175,42,72,67,229,46,73,26,049,40*61
###2023-12-09 13:26:18.014362$GLGSV,2,2,06,74,63,006,41,75,40,266,46,,,,,,,,*60
###2023-12-09 13:26:18.017203$GAGSV,1,1,04,04,37,311,43,19,75,184,41,21,80,050,46,27,25,049,38*62
###2023-12-09 13:26:18.020038$GBGSV,2,1,06,14,33,190,43,24,66,041,47,25,48,272,47,26,19,068,44*69
###2023-12-09 13:26:18.022147$GBGSV,2,2,06,33,49,220,47,35,16,060,42,,,,,,,,*62
###2023-12-09 13:26:18.023719$GNVTG,4.48,T,,M,3.40,N,6.30,K,A*29
###2023-12-09 13:26:18.025714$GNGST,182617.10,18.000,,,,0.100,0.070,0.170*54
###2023-12-09 13:26:18.027283$GNZDA,182617.10,09,12,2023,00,00*7B
###2023-12-09 13:26:18.028051$GNEBP,,,,,,M*13
###2023-12-09 13:26:18.190153$GNGGA,182617.30,4138.0699813,N,07032.3428030,W,1,24,0.6,12.954,M,-29.743,M,0.0,*51
###2023-12-09 13:26:18.390558$GNGGA,182617.50,4138.0701679,N,07032.3427808,W,1,24,0.6,12.967,M,-29.743,M,0.0,*59
###2023-12-09 13:26:18.590465$GNGGA,182617.70,4138.0703529,N,07032.3427353,W,1,24,0.6,12.983,M,-29.743,M,0.0,*50
###2023-12-09 13:26:18.790814$GNGGA,182617.90,4138.0705402,N,07032.3426599,W,1,24,0.6,12.965,M,-29.743,M,0.0,*59
###2023-12-09 13:26:18.994626$GNRMC,182618.10,A,4138.0707269,N,07032.3426037,W,3.46,6.00,091223,,,A*59
###2023-12-09 13:26:18.998074$GNGGA,182618.10,4138.0707269,N,07032.3426037,W,1,24,0.6,12.961,M,-29.743,M,0.0,*52
###2023-12-09 13:26:19.000250$GPGSA,A,3,03,04,16,26,28,29,31,,,,,,1.1,0.6,0.9*3A
###2023-12-09 13:26:19.002323$GLGSA,A,3,65,71,72,73,74,75,,,,,,,1.1,0.6,0.9*24
###2023-12-09 13:26:19.004248$GAGSA,A,3,04,19,21,27,,,,,,,,,1.1,0.6,0.9*26
###2023-12-09 13:26:19.006307$GBGSA,A,3,14,24,25,26,33,35,,,,,,,1.1,0.6,0.9*29
###2023-12-09 13:26:19.009136$GPGSV,2,1,07,03,29,250,42,04,43,309,44,16,62,219,46,26,88,044,48*7E
###2023-12-09 13:26:19.011623$GPGSV,2,2,07,28,41,081,45,29,22,050,40,31,62,060,46,,,,*41
###2023-12-09 13:26:19.014446$GLGSV,2,1,06,65,34,322,42,71,27,175,42,72,67,229,47,73,26,049,41*61
###2023-12-09 13:26:19.016616$GLGSV,2,2,06,74,63,006,41,75,40,266,46,,,,,,,,*60
###2023-12-09 13:26:19.019480$GAGSV,1,1,04,04,37,311,42,19,75,184,41,21,80,050,45,27,25,049,39*61
###2023-12-09 13:26:19.022296$GBGSV,2,1,06,14,33,190,42,24,66,041,47,25,48,272,47,26,19,068,44*68
###2023-12-09 13:26:19.024412$GBGSV,2,2,06,33,49,220,46,35,16,060,42,,,,,,,,*63
###2023-12-09 13:26:19.026221$GNVTG,6.00,T,,M,3.46,N,6.41,K,A*27
###2023-12-09 13:26:19.028234$GNGST,182618.10,18.000,,,,0.100,0.070,0.170*5B
###2023-12-09 13:26:19.029802$GNZDA,182618.10,09,12,2023,00,00*74
###2023-12-09 13:26:19.030594$GNEBP,,,,,,M*13
###2023-12-09 13:26:19.190545$GNGGA,182618.30,4138.0709193,N,07032.3425850,W,1,24,0.6,12.980,M,-29.743,M,0.0,*5D
###2023-12-09 13:26:19.387711$GNGGA,182618.50,4138.0711191,N,07032.3425439,W,1,24,0.6,12.984,M,-29.743,M,0.0,*57
###2023-12-09 13:26:19.587488$GNGGA,182618.70,4138.0713183,N,07032.3424739,W,1,24,0.6,12.988,M,-29.743,M,0.0,*5A
###2023-12-09 13:26:19.789235$GNGGA,182618.90,4138.0715209,N,07032.3424085,W,1,24,0.6,12.991,M,-29.743,M,0.0,*5B
###2023-12-09 13:26:19.992562$GNRMC,182619.10,A,4138.0717263,N,07032.3423791,W,3.73,1.13,091223,,,A*5E
