###2023-12-09 13:47:56.037779$GNEBP,,,,,,M*13
###2023-12-09 13:47:56.208683$GNGGA,184755.30,4138.0391299,N,07032.4383494,W,1,18,0.8,15.713,M,-29.746,M,0.0,*50
###2023-12-09 13:47:56.407470$GNGGA,184755.50,4138.0391291,N,07032.4383486,W,1,17,0.8,15.702,M,-29.746,M,0.0,*52
###2023-12-09 13:47:56.606103$GNGGA,184755.70,4138.0391287,N,07032.4383487,W,1,17,0.8,15.694,M,-29.746,M,0.0,*58
###2023-12-09 13:47:56.805678$GNGGA,184755.90,4138.0391283,N,07032.4383467,W,1,17,0.8,15.689,M,-29.746,M,0.0,*50
###2023-12-09 13:47:57.009866$GNRMC,184756.10,A,4138.0391284,N,07032.4383445,W,0.08,243.17,091223,,,A*5E
###2023-12-09 13:47:57.012752$GNGGA,184756.10,4138.0391284,N,07032.4383445,W,1,17,0.8,15.686,M,-29.746,M,0.0,*53
###2023-12-09 13:47:57.014477$GPGSA,A,3,04,16,26,28,29,31,,,,,,,1.3,0.8,1.1*3C
###2023-12-09 13:47:57.016075$GLGSA,A,3,65,73,74,75,,,,,,,,,1.3,0.8,1.1*22
###2023-12-09 13:47:57.017592$GAGSA,A,3,04,21,27,,,,,,,,,,1.3,0.8,1.1*2B
###2023-12-09 13:47:57.019179$GBGSA,A,3,12,24,25,35,,,,,,,,,1.3,0.8,1.1*2E
###2023-12-09 13:47:57.021499$GPGSV,2,1,06,04,51,304,49,16,73,229,40,26,77,041,44,28,33,090,44*7A
###2023-12-09 13:47:57.023245$GPGSV,2,2,06,29,17,042,41,31,55,075,50,,,,,,,,*74
###2023-12-09 13:47:57.025559$GLGSV,1,1,04,65,43,312,44,73,17,056,42,74,55,024,35,75,47,280,47*69
###2023-12-09 13:47:57.027600$GAGSV,1,1,03,04,44,307,45,21,72,043,39,27,19,051,40,,,,*5C
###2023-12-09 13:47:57.029923$GBGSV,1,1,04,12,19,122,40,24,58,052,46,25,54,282,45,35,16,051,38*6E
###2023-12-09 13:47:57.031254$GNVTG,243.17,T,,M,0.08,N,0.14,K,A*2D
###2023-12-09 13:47:57.032859$GNGST,184756.10,7.600,,,,0.210,0.120,0.320*6F
###2023-12-09 13:47:57.034141$GNZDA,184756.10,09,12,2023,00,00*79
###2023-12-09 13:47:57.034788$GNEBP,,,,,,M*13
###2023-12-09 13:47:57.214659$GNGGA,184756.30,4138.0391266,N,07032.4383424,W,1,17,0.8,15.682,M,-29.746,M,0.0,*5E
###2023-12-09 13:47:57.408178$GNGGA,184756.50,4138.0391245,N,07032.4383411,W,1,17,0.8,15.679,M,-29.746,M,0.0,*5B
###2023-12-09 13:47:57.606128$GNGGA,184756.70,4138.0391217,N,07032.4383405,W,1,17,0.8,15.671,M,-29.746,M,0.0,*53
###2023-12-09 13:47:57.806954$GNGGA,184756.90,4138.0391202,N,07032.4383389,W,1,17,0.8,15.669,M,-29.746,M,0.0,*53
###2023-12-09 13:47:58.008632$GNRMC,184757.10,A,4138.0391194,N,07032.4383378,W,0.06,243.17,091223,,,A*5A
###2023-12-09 13:47:58.011486$GNGGA,184757.10,4138.0391194,N,07032.4383378,W,1,17,0.8,15.663,M,-29.746,M,0.0,*52
###2023-12-09 13:47:58.013203$GPGSA,A,3,04,16,26,28,29,31,,,,,,,1.3,0.8,1.1*3C
###2023-12-09 13:47:58.014788$GLGSA,A,3,65,73,74,75,,,,,,,,,1.3,0.8,1.1*22
###2023-12-09 13:47:58.016293$GAGSA,A,3,04,21,27,,,,,,,,,,1.3,0.8,1.1*2B
###2023-12-09 13:47:58.017860$GBGSA,A,3,12,24,25,35,,,,,,,,,1.3,0.8,1.1*2E
###2023-12-09 13:47:58.020175$GPGSV,2,1,06,04,51,304,49,16,73,229,41,26,77,041,44,28,33,090,44*7B
###2023-12-09 13:47:58.021910$GPGSV,2,2,06,29,17,042,41,31,55,075,50,,,,,,,,*74
###2023-12-09 13:47:58.024227$GLGSV,1,1,04,65,43,312,45,73,17,056,43,74,55,024,35,75,47,280,47*69
###2023-12-09 13:47:58.026248$GAGSV,1,1,03,04,44,307,45,21,72,043,40,27,19,051,39,,,,*5C
###2023-12-09 13:47:58.028575$GBGSV,1,1,04,12,19,122,40,24,58,052,46,25,54,282,45,35,16,051,38*6E
###2023-12-09 13:47:58.029896$GNVTG,243.17,T,,M,0.06,N,0.11,K,A*26
###2023-12-09 13:47:58.031547$GNGST,184757.10,7.300,,,,0.210,0.120,0.320*6B
###2023-12-09 13:47:58.032836$GNZDA,184757.10,09,12,2023,00,00*78
###2023-12-09 13:47:58.033471$GNEBP,,,,,,M*13
###2023-12-09 13:47:58.206454$GNGGA,184757.30,4138.0391184,N,07032.4383371,W,1,17,0.8,15.652,M,-29.746,M,0.0,*5A
###2023-12-09 13:47:58.406141$GNGGA,184757.50,4138.0391169,N,07032.4383354,W,1,17,0.8,15.645,M,-29.746,M,0.0,*5E
###2023-12-09 13:47:58.607168$GNGGA,184757.70,4138.0391177,N,07032.4383343,W,1,17,0.8,15.639,M,-29.746,M,0.0,*5E
###2023-12-09 13:47:58.806265$GNGGA,184757.90,4138.0391148,N,07032.4383335,W,1,17,0.8,15.634,M,-29.746,M,0.0,*50
###2023-12-09 13:47:59.009178$GNRMC,184758.10,A,4138.0391139,N,07032.4383323,W,0.06,243.17,091223,,,A*5C
###2023-12-09 13:47:59.012250$GNGGA,184758.10,4138.0391139,N,07032.4383323,W,1,17,0.8,15.631,M,-29.746,M,0.0,*53
###2023-12-09 13:47:59.014101$GPGSA,A,3,04,16,26,28,29,31,,,,,,,1.3,0.8,1.1*3C
###2023-12-09 13:47:59.015794$GLGSA,A,3,65,73,74,75,,,,,,,,,1.3,0.8,1.1*22
###2023-12-09 13:47:59.017316$GAGSA,A,3,04,21,27,,,,,,,,,,1.3,0.8,1.1*2B
###2023-12-09 13:47:59.018903$GBGSA,A,3,12,24,25,35,,,,,,,,,1.3,0.8,1.1*2E
###2023-12-09 13:47:59.021238$GPGSV,2,1,06,04,51,304,49,16,73,229,41,26,77,041,44,28,33,090,44*7B
###2023-12-09 13:47:59.022999$GPGSV,2,2,06,29,17,042,41,31,55,075,50,,,,,,,,*74
###2023-12-09 13:47:59.025318$GLGSV,1,1,04,65,43,312,44,73,17,056,43,74,55,024,35,75,47,280,47*68
###2023-12-09 13:47:59.027372$GAGSV,1,1,03,04,44,307,45,21,72,043,40,27,19,051,39,,,,*5C
###2023-12-09 13:47:59.029708$GBGSV,1,1,04,12,19,122,40,24,58,052,46,25,54,282,45,35,16,051,38*6E
###2023-12-09 13:47:59.031055$GNVTG,243.17,T,,M,0.06,N,0.11,K,A*26
###2023-12-09 13:47:59.032670$GNGST,184758.10,7.100,,,,0.210,0.120,0.320*66
###2023-12-09 13:47:59.033960$GNZDA,184758.10,09,12,2023,00,00*77
###2023-12-09 13:47:59.034610$GNEBP,,,,,,M*13
###2023-12-09 13:47:59.206679$GNGGA,184758.30,4138.0391136,N,07032.4383306,W,1,17,0.8,15.628,M,-29.746,M,0.0,*51
###2023-12-09 13:47:59.406146$GNGGA,184758.50,4138.0391131,N,07032.4383302,W,1,17,0.8,15.622,M,-29.746,M,0.0,*5E
###2023-12-09 13:47:59.606036$GNGGA,184758.70,4138.0391125,N,07032.4383294,W,1,17,0.8,15.612,M,-29.746,M,0.0,*54
###2023-12-09 13:47:59.805620$GNGGA,184758.90,4138.0391121,N,07032.4383278,W,1,17,0.8,15.612,M,-29.746,M,0.0,*5C
###2023-12-09 13:48:00.009726$GNRMC,184759.10,A,4138.0391127,N,07032.4383275,W,0.02,243.17,091223,,,A*54
###2023-12-09 13:48:00.012605$GNGGA,184759.10,4138.0391127,N,07032.4383275,W,1,17,0.8,15.610,M,-29.746,M,0.0,*5C
###2023-12-09 13:48:00.014334$GPGSA,A,3,04,16,26,28,29,31,,,,,,,1.3,0.8,1.1*3C
###2023-12-09 13:48:00.015933$GLGSA,A,3,65,73,74,75,,,,,,,,,1.3,0.8,1.1*22
###2023-12-09 13:48:00.017453$GAGSA,A,3,04,21,27,,,,,,,,,,1.3,0.8,1.1*2B
###2023-12-09 13:48:00.019079$GBGSA,A,3,12,24,25,35,,,,,,,,,1.3,0.8,1.1*2E
###2023-12-09 13:48:00.021406$GPGSV,2,1,06,04,51,304,49,16,73,229,41,26,77,041,45,28,33,090,44*7A
###2023-12-09 13:48:00.023169$GPGSV,2,2,06,29,17,042,41,31,55,075,49,,,,,,,,*7C
###2023-12-09 13:48:00.025495$GLGSV,1,1,04,65,43,312,44,73,17,056,43,74,55,024,35,75,47,280,48*67
###2023-12-09 13:48:00.027545$GAGSV,1,1,03,04,44,307,45,21,72,043,39,27,19,051,39,,,,*52
###2023-12-09 13:48:00.029874$GBGSV,1,1,04,12,19,122,40,24,58,052,46,25,54,282,45,35,16,051,37*61
###2023-12-09 13:48:00.031213$GNVTG,243.17,T,,M,0.02,N,0.04,K,A*26
###2023-12-09 13:48:00.032835$GNGST,184759.10,7.100,,,,0.210,0.120,0.320*67
###2023-12-09 13:48:00.034126$GNZDA,184759.10,09,12,2023,00,00*76
###2023-12-09 13:48:00.034775$GNEBP,,,,,,M*13
###2023-12-09 13:48:00.208832$GNGGA,184759.30,4138.0391108,N,07032.4383270,W,1,17,0.8,15.600,M,-29.746,M,0.0,*57
###2023-12-09 13:48:00.408577$GNGGA,184759.50,4138.0391109,N,07032.4383265,W,1,17,0.8,15.599,M,-29.746,M,0.0,*57
###2023-12-09 13:48:00.606322$GNGGA,184759.70,4138.0391092,N,07032.4383267,W,1,17,0.8,15.595,M,-29.746,M,0.0,*58
###2023-12-09 13:48:00.807048$GNGGA,184759.90,4138.0391092,N,07032.4383256,W,1,17,0.8,15.595,M,-29.746,M,0.0,*54
###2023-12-09 13:48:01.008540$GNRMC,184800.10,A,4138.0391082,N,07032.4383254,W,0.02,243.17,091223,,,A*5A
###2023-12-09 13:48:01.011416$GNGGA,184800.10,4138.0391082,N,07032.4383254,W,1,17,0.8,15.591,M,-29.746,M,0.0,*58
###2023-12-09 13:48:01.013142$GPGSA,A,3,04,16,26,28,29,31,,,,,,,1.3,0.8,1.1*3C
###2023-12-09 13:48:01.014738$GLGSA,A,3,65,73,74,75,,,,,,,,,1.3,0.8,1.1*22
###2023-12-09 13:48:01.016249$GAGSA,A,3,04,21,27,,,,,,,,,,1.3,0.8,1.1*2B
###2023-12-09 13:48:01.017824$GBGSA,A,3,12,24,25,35,,,,,,,,,1.3,0.8,1.1*2E
###2023-12-09 13:48:01.020151$GPGSV,2,1,06,04,51,304,49,16,73,229,41,26,77,041,44,28,33,090,45*7A
###2023-12-09 13:48:01.021887$GPGSV,2,2,06,29,17,042,41,31,55,075,49,,,,,,,,*7C
###2023-12-09 13:48:01.024215$GLGSV,1,1,04,65,43,312,44,73,17,056,44,74,55,024,36,75,47,280,47*6C
###2023-12-09 13:48:01.026241$GAGSV,1,1,03,04,44,307,45,21,72,043,39,27,19,051,39,,,,*52
###2023-12-09 13:48:01.028820$GBGSV,1,1,04,12,19,122,40,24,58,052,45,25,54,282,44,35,16,051,37*63
###2023-12-09 13:48:01.030158$GNVTG,243.17,T,,M,0.02,N,0.04,K,A*26
###2023-12-09 13:48:01.031779$GNGST,184800.10,7.000,,,,0.210,0.120,0.320*65
###2023-12-09 13:48:01.033068$GNZDA,184800.10,09,12,2023,00,00*75
###2023-12-09 13:48:01.033706$GNEBP,,,,,,M*13
###2023-12-09 13:48:01.207803$GNGGA,184800.30,4138.0391077,N,07032.4383252,W,1,17,0.8,15.590,M,-29.746,M,0.0,*57
###2023-12-09 13:48:01.407173$GNGGA,184800.50,4138.0391078,N,07032.4383245,W,1,17,0.8,15.584,M,-29.746,M,0.0,*5D
###2023-12-09 13:48:01.605344$GNGGA,184800.70,4138.0391086,N,07032.4383229,W,1,17,0.8,15.581,M,-29.746,M,0.0,*51
###2023-12-09 13:48:01.806747$GNGGA,184800.90,4138.0391071,N,07032.4383236,W,1,17,0.8,15.573,M,-29.746,M,0.0,*54
