###2023-12-09 12:42:35.953010$GBGSA,A,3,14,24,25,26,33,,,,,,,,1.1,0.6,0.9*2F
###2023-12-09 12:42:35.955400$GPGSV,2,1,08,03,38,272,44,04,25,311,42,16,40,208,42,26,70,207,46*70
###2023-12-09 12:42:35.957749$GPGSV,2,2,08,28,55,060,45,29,25,070,40,31,72,013,48,32,27,136,43*7D
###2023-12-09 12:42:35.960102$GLGSV,2,1,06,65,15,329,40,71,52,170,46,72,68,302,47,73,44,035,45*64
###2023-12-09 12:42:35.961853$GLGSV,2,2,06,74,71,303,43,75,25,244,40,,,,,,,,*62
###2023-12-09 12:42:35.964202$GAGSV,1,1,04,04,23,311,41,19,84,288,40,21,81,170,46,27,39,049,43*66
###2023-12-09 12:42:35.966544$GBGSV,2,1,05,14,52,196,45,24,79,359,48,25,34,255,44,26,33,058,44*60
###2023-12-09 12:42:35.968024$GBGSV,2,2,05,33,62,248,48,,,,,,,,,,,,*58
###2023-12-09 12:42:35.969351$GNVTG,197.67,T,,M,3.30,N,6.12,K,A*28
###2023-12-09 12:42:35.971026$GNGST,174235.10,18.000,,,,0.079,0.070,0.160*57
###2023-12-09 12:42:35.972326$GNZDA,174235.10,09,12,2023,00,00*76
###2023-12-09 12:42:35.972970$GNEBP,,,,,,M*13
###2023-12-09 12:42:36.142932$GNGGA,174235.30,4138.0562504,N,07032.3839675,W,1,24,0.6,13.362,M,-29.744,M,0.0,*52
###2023-12-09 12:42:36.343016$GNGGA,174235.50,4138.0560918,N,07032.3840744,W,1,24,0.6,13.372,M,-29.744,M,0.0,*5B
###2023-12-09 12:42:36.543857$GNGGA,174235.70,4138.0559377,N,07032.3842387,W,1,24,0.6,13.411,M,-29.744,M,0.0,*5B
###2023-12-09 12:42:36.743544$GNGGA,174235.90,4138.0557700,N,07032.3843478,W,1,24,0.6,13.384,M,-29.744,M,0.0,*52
###2023-12-09 12:42:36.943541$GNRMC,174236.10,A,4138.0555909,N,07032.3843893,W,3.27,190.46,091223,,,A*52
###2023-12-09 12:42:36.946417$GNGGA,174236.10,4138.0555909,N,07032.3843893,W,1,24,0.6,13.368,M,-29.744,M,0.0,*57
###2023-12-09 12:42:36.948364$GPGSA,A,3,03,04,16,26,28,29,31,32,,,,,1.1,0.6,0.9*3B
###2023-12-09 12:42:36.950116$GLGSA,A,3,65,71,72,73,74,75,,,,,,,1.1,0.6,0.9*24
###2023-12-09 12:42:36.951730$GAGSA,A,3,04,19,21,27,,,,,,,,,1.1,0.6,0.9*26
###2023-12-09 12:42:36.953380$GBGSA,A,3,14,24,25,26,33,,,,,,,,1.1,0.6,0.9*2F
###2023-12-09 12:42:36.955732$GPGSV,2,1,08,03,38,272,43,04,25,311,41,16,40,208,43,26,70,207,47*74
###2023-12-09 12:42:36.958067$GPGSV,2,2,08,28,55,060,46,29,25,070,43,31,72,013,47,32,27,136,44*75
###2023-12-09 12:42:36.960413$GLGSV,2,1,06,65,15,329,40,71,52,170,46,72,68,302,47,73,44,035,47*66
###2023-12-09 12:42:36.962162$GLGSV,2,2,06,74,71,303,43,75,25,244,39,,,,,,,,*6C
###2023-12-09 12:42:36.964509$GAGSV,1,1,04,04,23,311,39,19,84,288,40,21,81,170,46,27,39,049,43*69
###2023-12-09 12:42:36.966858$GBGSV,2,1,05,14,52,196,43,24,79,359,49,25,34,255,44,26,33,058,43*60
###2023-12-09 12:42:36.968327$GBGSV,2,2,05,33,62,248,48,,,,,,,,,,,,*58
###2023-12-09 12:42:36.969657$GNVTG,190.46,T,,M,3.27,N,6.05,K,A*2C
###2023-12-09 12:42:36.971330$GNGST,174236.10,18.000,,,,0.079,0.070,0.160*54
###2023-12-09 12:42:36.972626$GNZDA,174236.10,09,12,2023,00,00*75
###2023-12-09 12:42:36.973270$GNEBP,,,,,,M*13
###2023-12-09 12:42:37.141496$GNGGA,174236.30,4138.0554189,N,07032.3844700,W,1,24,0.6,13.371,M,-29.744,M,0.0,*5E
###2023-12-09 12:42:37.343124$GNGGA,174236.50,4138.0552447,N,07032.3846009,W,1,24,0.6,13.381,M,-29.744,M,0.0,*5A
###2023-12-09 12:42:37.541379$GNGGA,174236.70,4138.0550665,N,07032.3846895,W,1,24,0.6,13.357,M,-29.744,M,0.0,*5E
###2023-12-09 12:42:37.741695$GNGGA,174236.90,4138.0548942,N,07032.3847339,W,1,24,0.6,13.382,M,-29.744,M,0.0,*57
###2023-12-09 12:42:37.943114$GNRMC,174237.10,A,4138.0547168,N,07032.3848023,W,3.44,194.20,091223,,,A*56
###2023-12-09 12:42:37.945966$GNGGA,174237.10,4138.0547168,N,07032.3848023,W,1,24,0.6,13.399,M,-29.744,M,0.0,*5C
###2023-12-09 12:42:37.947846$GPGSA,A,3,03,04,16,26,28,29,31,32,,,,,1.1,0.6,0.9*3B
###2023-12-09 12:42:37.949577$GLGSA,A,3,65,71,72,73,74,75,,,,,,,1.1,0.6,0.9*24
###2023-12-09 12:42:37.951184$GAGSA,A,3,04,19,21,27,,,,,,,,,1.1,0.6,0.9*26
###2023-12-09 12:42:37.952837$GBGSA,A,3,14,24,25,26,33,,,,,,,,1.1,0.6,0.9*2F
###2023-12-09 12:42:37.955183$GPGSV,2,1,08,03,38,272,44,04,25,311,38,16,40,208,43,26,70,207,47*7D
###2023-12-09 12:42:37.957524$GPGSV,2,2,08,28,55,060,45,29,25,070,41,31,72,013,47,32,27,136,44*74
###2023-12-09 12:42:37.959874$GLGSV,2,1,06,65,15,329,41,71,52,170,46,72,68,302,47,73,44,035,47*67
###2023-12-09 12:42:37.961627$GLGSV,2,2,06,74,71,303,43,75,25,244,41,,,,,,,,*63
###2023-12-09 12:42:37.963978$GAGSV,1,1,04,04,23,311,38,19,84,288,40,21,81,170,45,27,39,049,43*6B
###2023-12-09 12:42:37.966315$GBGSV,2,1,05,14,52,196,44,24,79,359,48,25,34,255,43,26,33,058,46*64
###2023-12-09 12:42:37.967791$GBGSV,2,2,05,33,62,248,48,,,,,,,,,,,,*58
###2023-12-09 12:42:37.969121$GNVTG,194.20,T,,M,3.44,N,6.37,K,A*2C
###2023-12-09 12:42:37.970784$GNGST,174237.10,18.000,,,,0.079,0.070,0.160*55
###2023-12-09 12:42:37.972085$GNZDA,174237.10,09,12,2023,00,00*74
###2023-12-09 12:42:37.972727$GNEBP,,,,,,M*13
###2023-12-09 12:42:38.142939$GNGGA,174237.30,4138.0545398,N,07032.3848481,W,1,24,0.6,13.338,M,-29.744,M,0.0,*56
###2023-12-09 12:42:38.342218$GNGGA,174237.50,4138.0543755,N,07032.3849146,W,1,24,0.6,13.348,M,-29.744,M,0.0,*5B
###2023-12-09 12:42:38.549788$GNGGA,174237.70,4138.0542024,N,07032.3850086,W,1,24,0.6,13.395,M,-29.744,M,0.0,*5C
###2023-12-09 12:42:38.741540$GNGGA,174237.90,4138.0540238,N,07032.3850370,W,1,24,0.6,13.353,M,-29.744,M,0.0,*5F
###2023-12-09 12:42:38.944038$GNRMC,174238.10,A,4138.0538575,N,07032.3850447,W,3.07,190.22,091223,,,A*57
###2023-12-09 12:42:38.946934$GNGGA,174238.10,4138.0538575,N,07032.3850447,W,1,24,0.6,13.320,M,-29.744,M,0.0,*5E
###2023-12-09 12:42:38.948806$GPGSA,A,3,03,04,16,26,28,29,31,32,,,,,1.1,0.6,0.9*3B
###2023-12-09 12:42:38.950528$GLGSA,A,3,65,71,72,73,74,75,,,,,,,1.1,0.6,0.9*24
###2023-12-09 12:42:38.952127$GAGSA,A,3,04,19,21,27,,,,,,,,,1.1,0.6,0.9*26
###2023-12-09 12:42:38.953781$GBGSA,A,3,14,24,25,26,33,,,,,,,,1.1,0.6,0.9*2F
###2023-12-09 12:42:38.956139$GPGSV,2,1,08,03,38,272,44,04,25,311,40,16,40,208,43,26,70,207,47*72
###2023-12-09 12:42:38.958483$GPGSV,2,2,08,28,55,060,45,29,25,070,45,31,72,013,47,32,27,136,45*71
###2023-12-09 12:42:38.960838$GLGSV,2,1,06,65,15,329,41,71,52,170,46,72,68,302,46,73,44,035,46*67
###2023-12-09 12:42:38.962637$GLGSV,2,2,06,74,71,303,42,75,25,244,41,,,,,,,,*62
###2023-12-09 12:42:38.964974$GAGSV,1,1,04,04,23,311,39,19,84,288,40,21,81,170,45,27,39,049,42*6B
###2023-12-09 12:42:38.967325$GBGSV,2,1,05,14,52,196,44,24,79,359,48,25,34,255,42,26,33,058,46*65
###2023-12-09 12:42:38.968779$GBGSV,2,2,05,33,62,248,48,,,,,,,,,,,,*58
###2023-12-09 12:42:38.970102$GNVTG,190.22,T,,M,3.07,N,5.69,K,A*25
###2023-12-09 12:42:38.971764$GNGST,174238.10,18.000,,,,0.079,0.070,0.160*5A
###2023-12-09 12:42:38.973055$GNZDA,174238.10,09,12,2023,00,00*7B
###2023-12-09 12:42:38.973692$GNEBP,,,,,,M*13
###2023-12-09 12:42:39.142320$GNGGA,174238.30,4138.0536829,N,07032.3851250,W,1,24,0.6,13.354,M,-29.744,M,0.0,*54
###2023-12-09 12:42:39.342522$GNGGA,174238.50,4138.0535046,N,07032.3852015,W,1,24,0.6,13.337,M,-29.744,M,0.0,*55
###2023-12-09 12:42:39.556286$GNGGA,174238.70,4138.0533344,N,07032.3852458,W,1,24,0.6,13.339,M,-29.744,M,0.0,*53
###2023-12-09 12:42:39.755313$GNGGA,174238.90,4138.0531481,N,07032.3852794,W,1,24,0.6,13.338,M,-29.744,M,0.0,*53
###2023-12-09 12:42:39.941469$GNRMC,174239.10,A,4138.0529695,N,07032.3853529,W,3.36,200.73,091223,,,A*5D
###2023-12-09 12:42:39.944328$GNGGA,174239.10,4138.0529695,N,07032.3853529,W,1,24,0.6,13.319,M,-29.744,M,0.0,*52
###2023-12-09 12:42:39.946183$GPGSA,A,3,03,04,16,26,28,29,31,32,,,,,1.1,0.6,0.9*3B
###2023-12-09 12:42:39.947949$GLGSA,A,3,65,71,72,73,74,75,,,,,,,1.1,0.6,0.9*24
###2023-12-09 12:42:39.949563$GAGSA,A,3,04,19,21,27,,,,,,,,,1.1,0.6,0.9*26
###2023-12-09 12:42:39.951239$GBGSA,A,3,14,24,25,26,33,,,,,,,,1.1,0.6,0.9*2F
###2023-12-09 12:42:39.953577$GPGSV,2,1,08,03,38,272,43,04,25,311,40,16,40,208,43,26,70,207,46*74
###2023-12-09 12:42:39.955964$GPGSV,2,2,08,28,55,060,45,29,25,070,43,31,72,013,47,32,27,136,46*74
###2023-12-09 12:42:39.958306$GLGSV,2,1,06,65,15,329,41,71,52,170,46,72,68,302,46,73,44,035,46*67
###2023-12-09 12:42:39.960065$GLGSV,2,2,06,74,71,303,43,75,25,244,40,,,,,,,,*62
###2023-12-09 12:42:39.962397$GAGSV,1,1,04,04,23,311,40,19,84,288,41,21,81,170,46,27,39,049,44*61
###2023-12-09 12:42:39.964740$GBGSV,2,1,05,14,52,196,44,24,79,359,49,25,34,255,44,26,33,058,44*60
###2023-12-09 12:42:39.966466$GBGSV,2,2,05,33,62,248,48,,,,,,,,,,,,*58
###2023-12-09 12:42:39.967829$GNVTG,200.73,T,,M,3.36,N,6.23,K,A*24
###2023-12-09 12:42:39.969501$GNGST,174239.10,18.000,,,,0.079,0.070,0.160*5B
###2023-12-09 12:42:39.970817$GNZDA,174239.10,09,12,2023,00,00*7A
###2023-12-09 12:42:39.971462$GNEBP,,,,,,M*13
###2023-12-09 12:42:40.140316$GNGGA,174239.30,4138.0528032,N,07032.3854570,W,1,24,0.6,13.333,M,-29.744,M,0.0,*59
###2023-12-09 12:42:40.342102$GNGGA,174239.50,4138.0526266,N,07032.3855488,W,1,24,0.6,13.350,M,-29.744,M,0.0,*50
###2023-12-09 12:42:40.541476$GNGGA,174239.70,4138.0524402,N,07032.3856004,W,1,24,0.6,13.306,M,-29.744,M,0.0,*54
###2023-12-09 12:42:40.740811$GNGGA,174239.90,4138.0522686,N,07032.3856889,W,1,24,0.6,13.304,M,-29.744,M,0.0,*5D
