###2023-12-09 12:56:43.358266$GNGGA,175642.50,4138.0457893,N,07032.3896812,W,1,24,0.6,13.559,M,-29.745,M,0.0,*50
###2023-12-09 12:56:43.556776$GNGGA,175642.70,4138.0458178,N,07032.3896976,W,1,24,0.6,13.553,M,-29.745,M,0.0,*58
###2023-12-09 12:56:43.762423$GNGGA,175642.90,4138.0458586,N,07032.3897292,W,1,24,0.6,13.548,M,-29.745,M,0.0,*59
###2023-12-09 12:56:43.959040$GNRMC,175643.10,A,4138.0458693,N,07032.3897368,W,0.16,332.29,091223,,,A*51
###2023-12-09 12:56:43.961920$GNGGA,175643.10,4138.0458693,N,07032.3897368,W,1,24,0.6,13.556,M,-29.745,M,0.0,*5C
###2023-12-09 12:56:43.963817$GPGSA,A,3,03,04,16,26,28,29,31,32,,,,,1.1,0.6,0.9*3B
###2023-12-09 12:56:43.965538$GLGSA,A,3,65,71,72,73,74,75,,,,,,,1.1,0.6,0.9*24
###2023-12-09 12:56:43.967145$GAGSA,A,3,04,19,21,27,,,,,,,,,1.1,0.6,0.9*26
###2023-12-09 12:56:43.968798$GBGSA,A,3,14,24,25,26,33,,,,,,,,1.1,0.6,0.9*2F
###2023-12-09 12:56:43.971157$GPGSV,2,1,08,03,36,265,43,04,30,311,45,16,47,211,43,26,77,209,47*7A
###2023-12-09 12:56:43.973495$GPGSV,2,2,08,28,51,068,43,29,25,064,39,31,70,031,45,32,21,139,39*77
###2023-12-09 12:56:43.975842$GLGSV,2,1,06,65,22,328,45,71,44,172,46,72,72,281,46,73,38,040,44*69
###2023-12-09 12:56:43.977581$GLGSV,2,2,06,74,71,327,43,75,30,250,46,,,,,,,,*63
###2023-12-09 12:56:43.979916$GAGSV,1,1,04,04,27,312,44,19,85,234,40,21,85,141,46,27,34,048,41*6A
###2023-12-09 12:56:43.982257$GBGSV,2,1,05,14,45,193,44,24,75,020,48,25,39,260,46,26,27,062,40*62
###2023-12-09 12:56:43.983722$GBGSV,2,2,05,33,59,235,48,,,,,,,,,,,,*5A
###2023-12-09 12:56:43.985041$GNVTG,332.29,T,,M,0.16,N,0.29,K,A*26
###2023-12-09 12:56:43.986693$GNGST,175643.10,18.000,,,,0.076,0.066,0.160*5B
###2023-12-09 12:56:43.987979$GNZDA,175643.10,09,12,2023,00,00*72
###2023-12-09 12:56:43.988616$GNEBP,,,,,,M*13
###2023-12-09 12:56:44.157141$GNGGA,175643.30,4138.0458591,N,07032.3897228,W,1,24,0.6,13.582,M,-29.745,M,0.0,*53
###2023-12-09 12:56:44.358522$GNGGA,175643.50,4138.0458627,N,07032.3897201,W,1,24,0.6,13.571,M,-29.745,M,0.0,*5C
###2023-12-09 12:56:44.557363$GNGGA,175643.70,4138.0458896,N,07032.3897420,W,1,24,0.6,13.566,M,-29.745,M,0.0,*59
###2023-12-09 12:56:44.760137$GNGGA,175643.90,4138.0459224,N,07032.3897708,W,1,24,0.6,13.563,M,-29.745,M,0.0,*59
###2023-12-09 12:56:44.963286$GNRMC,175644.10,A,4138.0459357,N,07032.3897787,W,0.12,332.29,091223,,,A*5B
###2023-12-09 12:56:44.966156$GNGGA,175644.10,4138.0459357,N,07032.3897787,W,1,24,0.6,13.581,M,-29.745,M,0.0,*58
###2023-12-09 12:56:44.968022$GPGSA,A,3,03,04,16,26,28,29,31,32,,,,,1.1,0.6,0.9*3B
###2023-12-09 12:56:44.969749$GLGSA,A,3,65,71,72,73,74,75,,,,,,,1.1,0.6,0.9*24
###2023-12-09 12:56:44.971345$GAGSA,A,3,04,19,21,27,,,,,,,,,1.1,0.6,0.9*26
###2023-12-09 12:56:44.972989$GBGSA,A,3,14,24,25,26,33,,,,,,,,1.1,0.6,0.9*2F
###2023-12-09 12:56:44.975338$GPGSV,2,1,08,03,36,265,44,04,30,311,44,16,47,211,44,26,77,209,48*74
###2023-12-09 12:56:44.977681$GPGSV,2,2,08,28,51,068,43,29,25,064,39,31,70,031,47,32,21,139,40*7B
###2023-12-09 12:56:44.980034$GLGSV,2,1,06,65,22,328,44,71,44,172,46,72,72,281,47,73,38,040,43*6E
###2023-12-09 12:56:44.981781$GLGSV,2,2,06,74,71,327,43,75,30,250,46,,,,,,,,*63
###2023-12-09 12:56:44.984125$GAGSV,1,1,04,04,27,312,43,19,85,234,40,21,85,141,46,27,34,048,41*6D
###2023-12-09 12:56:44.986460$GBGSV,2,1,05,14,45,193,44,24,75,020,48,25,39,260,45,26,27,062,40*61
###2023-12-09 12:56:44.987932$GBGSV,2,2,05,33,59,235,46,,,,,,,,,,,,*54
###2023-12-09 12:56:44.989262$GNVTG,332.29,T,,M,0.12,N,0.22,K,A*29
###2023-12-09 12:56:44.990925$GNGST,175644.10,18.000,,,,0.076,0.066,0.160*5C
###2023-12-09 12:56:44.992219$GNZDA,175644.10,09,12,2023,00,00*75
###2023-12-09 12:56:44.992857$GNEBP,,,,,,M*13
###2023-12-09 12:56:45.157483$GNGGA,175644.30,4138.0459239,N,07032.3897645,W,1,24,0.6,13.594,M,-29.745,M,0.0,*58
###2023-12-09 12:56:45.356319$GNGGA,175644.50,4138.0459248,N,07032.3897630,W,1,24,0.6,13.573,M,-29.745,M,0.0,*53
###2023-12-09 12:56:45.556375$GNGGA,175644.70,4138.0459591,N,07032.3897885,W,1,24,0.6,13.572,M,-29.745,M,0.0,*53
###2023-12-09 12:56:45.770262$GNGGA,175644.90,4138.0459929,N,07032.3898169,W,1,24,0.6,13.566,M,-29.745,M,0.0,*53
###2023-12-09 12:56:45.958936$GNRMC,175645.10,A,4138.0459933,N,07032.3898214,W,0.19,332.29,091223,,,A*59
###2023-12-09 12:56:45.961819$GNGGA,175645.10,4138.0459933,N,07032.3898214,W,1,24,0.6,13.585,M,-29.745,M,0.0,*55
###2023-12-09 12:56:45.963724$GPGSA,A,3,03,04,16,26,28,29,31,32,,,,,1.1,0.6,0.9*3B
###2023-12-09 12:56:45.965444$GLGSA,A,3,65,71,72,73,74,75,,,,,,,1.1,0.6,0.9*24
###2023-12-09 12:56:45.967039$GAGSA,A,3,04,19,21,27,,,,,,,,,1.1,0.6,0.9*26
###2023-12-09 12:56:45.968687$GBGSA,A,3,14,24,25,26,33,,,,,,,,1.1,0.6,0.9*2F
###2023-12-09 12:56:45.971028$GPGSV,2,1,08,03,36,265,44,04,30,311,45,16,47,211,45,26,77,209,48*74
###2023-12-09 12:56:45.973362$GPGSV,2,2,08,28,51,068,43,29,25,064,39,31,70,031,46,32,21,139,41*7B
###2023-12-09 12:56:45.975706$GLGSV,2,1,06,65,22,328,45,71,44,172,46,72,72,281,46,73,38,040,43*6E
###2023-12-09 12:56:45.977453$GLGSV,2,2,06,74,71,327,43,75,30,250,46,,,,,,,,*63
###2023-12-09 12:56:45.979798$GAGSV,1,1,04,04,27,312,44,19,85,234,41,21,85,141,46,27,34,048,42*68
###2023-12-09 12:56:45.982123$GBGSV,2,1,05,14,45,193,44,24,75,020,48,25,39,260,46,26,27,062,41*63
###2023-12-09 12:56:45.983587$GBGSV,2,2,05,33,59,235,47,,,,,,,,,,,,*55
###2023-12-09 12:56:45.984908$GNVTG,332.29,T,,M,0.19,N,0.36,K,A*27
###2023-12-09 12:56:45.986555$GNGST,175645.10,18.000,,,,0.076,0.066,0.160*5D
###2023-12-09 12:56:45.987858$GNZDA,175645.10,09,12,2023,00,00*74
###2023-12-09 12:56:45.988497$GNEBP,,,,,,M*13
###2023-12-09 12:56:46.156166$GNGGA,175645.30,4138.0459879,N,07032.3898090,W,1,24,0.6,13.600,M,-29.745,M,0.0,*58
###2023-12-09 12:56:46.358239$GNGGA,175645.50,4138.0459974,N,07032.3898138,W,1,24,0.6,13.591,M,-29.745,M,0.0,*5A
###2023-12-09 12:56:46.556356$GNGGA,175645.70,4138.0460263,N,07032.3898425,W,1,24,0.6,13.584,M,-29.745,M,0.0,*52
###2023-12-09 12:56:46.756446$GNGGA,175645.90,4138.0460545,N,07032.3898682,W,1,24,0.6,13.579,M,-29.745,M,0.0,*52
###2023-12-09 12:56:46.957812$GNRMC,175646.10,A,4138.0460593,N,07032.3898680,W,0.27,332.29,091223,,,A*52
###2023-12-09 12:56:46.960692$GNGGA,175646.10,4138.0460593,N,07032.3898680,W,1,24,0.6,13.601,M,-29.745,M,0.0,*5C
###2023-12-09 12:56:46.962548$GPGSA,A,3,03,04,16,26,28,29,31,32,,,,,1.1,0.6,0.9*3B
###2023-12-09 12:56:46.964283$GLGSA,A,3,65,71,72,73,74,75,,,,,,,1.1,0.6,0.9*24
###2023-12-09 12:56:46.965859$GAGSA,A,3,04,19,21,27,,,,,,,,,1.1,0.6,0.9*26
###2023-12-09 12:56:46.967509$GBGSA,A,3,14,24,25,26,33,,,,,,,,1.1,0.6,0.9*2F
###2023-12-09 12:56:46.969830$GPGSV,2,1,08,03,36,265,44,04,30,311,44,16,47,211,45,26,77,209,48*75
###2023-12-09 12:56:46.972175$GPGSV,2,2,08,28,51,068,43,29,25,064,39,31,70,031,47,32,21,139,42*79
###2023-12-09 12:56:46.974507$GLGSV,2,1,06,65,22,328,45,71,44,172,47,72,72,281,47,73,38,040,42*6F
###2023-12-09 12:56:46.976263$GLGSV,2,2,06,74,71,327,43,75,30,250,46,,,,,,,,*63
###2023-12-09 12:56:46.978606$GAGSV,1,1,04,04,27,312,43,19,85,234,41,21,85,141,47,27,34,048,42*6E
###2023-12-09 12:56:46.980928$GBGSV,2,1,05,14,45,193,44,24,75,020,48,25,39,260,46,26,27,062,42*60
###2023-12-09 12:56:46.982385$GBGSV,2,2,05,33,59,235,48,,,,,,,,,,,,*5A
###2023-12-09 12:56:46.983713$GNVTG,332.29,T,,M,0.27,N,0.50,K,A*2A
###2023-12-09 12:56:46.985358$GNGST,175646.10,18.000,,,,0.076,0.066,0.160*5E
###2023-12-09 12:56:46.986665$GNZDA,175646.10,09,12,2023,00,00*77
###2023-12-09 12:56:46.987305$GNEBP,,,,,,M*13
###2023-12-09 12:56:47.156493$GNGGA,175646.30,4138.0460554,N,07032.3898575,W,1,24,0.6,13.613,M,-29.745,M,0.0,*5F
###2023-12-09 12:56:47.358596$GNGGA,175646.50,4138.0460713,N,07032.3898710,W,1,24,0.6,13.615,M,-29.745,M,0.0,*5F
###2023-12-09 12:56:47.557355$GNGGA,175646.70,4138.0461061,N,07032.3898995,W,1,24,0.6,13.607,M,-29.745,M,0.0,*5E
###2023-12-09 12:56:47.758128$GNGGA,175646.90,4138.0461234,N,07032.3899147,W,1,24,0.6,13.596,M,-29.745,M,0.0,*5F
###2023-12-09 12:56:47.959798$GNRMC,175647.10,A,4138.0461252,N,07032.3899135,W,0.10,332.29,091223,,,A*54
###2023-12-09 12:56:47.962667$GNGGA,175647.10,4138.0461252,N,07032.3899135,W,1,24,0.6,13.612,M,-29.745,M,0.0,*5C
###2023-12-09 12:56:47.964525$GPGSA,A,3,03,04,16,26,28,29,31,32,,,,,1.1,0.6,0.9*3B
###2023-12-09 12:56:47.966484$GLGSA,A,3,65,71,72,73,74,75,,,,,,,1.1,0.6,0.9*24
###2023-12-09 12:56:47.968096$GAGSA,A,3,04,19,21,27,,,,,,,,,1.1,0.6,0.9*26
###2023-12-09 12:56:47.969751$GBGSA,A,3,14,24,25,26,33,,,,,,,,1.1,0.6,0.9*2F
###2023-12-09 12:56:47.972094$GPGSV,2,1,08,03,36,265,44,04,30,311,44,16,47,211,45,26,77,209,48*75
###2023-12-09 12:56:47.974423$GPGSV,2,2,08,28,51,068,43,29,25,064,39,31,70,031,46,32,21,139,42*78
###2023-12-09 12:56:47.976761$GLGSV,2,1,06,65,22,328,44,71,43,172,47,72,72,281,46,73,38,040,42*68
###2023-12-09 12:56:47.978508$GLGSV,2,2,06,74,71,327,43,75,30,250,46,,,,,,,,*63
###2023-12-09 12:56:47.980851$GAGSV,1,1,04,04,27,312,43,19,85,234,40,21,85,141,46,27,34,048,42*6E
###2023-12-09 12:56:47.983194$GBGSV,2,1,05,14,45,193,44,24,75,020,48,25,39,260,45,26,27,062,40*61
###2023-12-09 12:56:47.984646$GBGSV,2,2,05,33,59,235,46,,,,,,,,,,,,*54
