###2023-12-09 13:14:44.174347$GNGGA,181443.30,4138.0342666,N,07032.3039151,W,1,24,0.7,13.015,M,-29.744,M,0.0,*57
###2023-12-09 13:14:44.375306$GNGGA,181443.50,4138.0341370,N,07032.3037380,W,1,24,0.7,13.010,M,-29.744,M,0.0,*55
###2023-12-09 13:14:44.575913$GNGGA,181443.70,4138.0340040,N,07032.3035659,W,1,24,0.7,12.996,M,-29.744,M,0.0,*53
###2023-12-09 13:14:44.776999$GNGGA,181443.90,4138.0338663,N,07032.3033950,W,1,24,0.7,12.998,M,-29.744,M,0.0,*5B
###2023-12-09 13:14:44.988055$GNRMC,181444.10,A,4138.0337306,N,07032.3032178,W,3.50,133.35,091223,,,A*53
###2023-12-09 13:14:44.991522$GNGGA,181444.10,4138.0337306,N,07032.3032178,W,1,24,0.7,12.991,M,-29.744,M,0.0,*57
###2023-12-09 13:14:44.993688$GPGSA,A,3,03,04,16,26,28,29,31,,,,,,1.2,0.7,1.0*30
###2023-12-09 13:14:44.995773$GLGSA,A,3,65,71,72,73,74,75,,,,,,,1.2,0.7,1.0*2E
###2023-12-09 13:14:44.997711$GAGSA,A,3,04,19,21,27,,,,,,,,,1.2,0.7,1.0*2C
###2023-12-09 13:14:44.999803$GBGSA,A,3,14,24,25,26,33,35,,,,,,,1.2,0.7,1.0*23
###2023-12-09 13:14:45.002658$GPGSV,2,1,07,03,32,255,44,04,38,311,45,16,56,215,47,26,86,209,48*7C
###2023-12-09 13:14:45.005131$GPGSV,2,2,07,28,45,076,45,29,24,055,44,31,65,050,47,,,,*4F
###2023-12-09 13:14:45.007955$GLGSV,2,1,06,65,30,325,44,71,33,174,43,72,71,243,46,73,31,045,46*66
###2023-12-09 13:14:45.010059$GLGSV,2,2,06,74,66,353,43,75,36,259,47,,,,,,,,*68
###2023-12-09 13:14:45.012938$GAGSV,1,1,04,04,33,312,45,19,80,192,40,21,84,066,46,27,29,048,44*68
###2023-12-09 13:14:45.015750$GBGSV,2,1,06,14,37,191,42,24,69,035,49,25,45,267,47,26,22,066,45*61
###2023-12-09 13:14:45.017854$GBGSV,2,2,06,33,53,225,48,35,16,064,45,,,,,,,,*60
###2023-12-09 13:14:45.019458$GNVTG,133.35,T,,M,3.50,N,6.48,K,A*28
###2023-12-09 13:14:45.021436$GNGST,181444.10,18.000,,,,0.096,0.069,0.170*55
###2023-12-09 13:14:45.023001$GNZDA,181444.10,09,12,2023,00,00*7C
###2023-12-09 13:14:45.023770$GNEBP,,,,,,M*13
###2023-12-09 13:14:45.177572$GNGGA,181444.30,4138.0335931,N,07032.3030420,W,1,24,0.7,12.985,M,-29.744,M,0.0,*56
###2023-12-09 13:14:45.376307$GNGGA,181444.50,4138.0334628,N,07032.3028626,W,1,24,0.7,12.982,M,-29.744,M,0.0,*5C
###2023-12-09 13:14:45.576102$GNGGA,181444.70,4138.0333367,N,07032.3026604,W,1,24,0.7,12.975,M,-29.744,M,0.0,*51
###2023-12-09 13:14:45.774538$GNGGA,181444.90,4138.0332099,N,07032.3024751,W,1,24,0.7,12.963,M,-29.744,M,0.0,*58
###2023-12-09 13:14:45.984706$GNRMC,181445.10,A,4138.0330891,N,07032.3022723,W,3.67,127.32,091223,,,A*5F
###2023-12-09 13:14:45.987569$GNGGA,181445.10,4138.0330891,N,07032.3022723,W,1,24,0.7,12.984,M,-29.744,M,0.0,*59
###2023-12-09 13:14:45.989354$GPGSA,A,3,03,04,16,26,28,29,31,,,,,,1.2,0.7,1.0*30
###2023-12-09 13:14:45.991072$GLGSA,A,3,65,71,72,73,74,75,,,,,,,1.2,0.7,1.0*2E
###2023-12-09 13:14:45.992649$GAGSA,A,3,04,19,21,27,,,,,,,,,1.2,0.7,1.0*2C
###2023-12-09 13:14:45.994354$GBGSA,A,3,14,24,25,26,33,35,,,,,,,1.2,0.7,1.0*23
###2023-12-09 13:14:45.996687$GPGSV,2,1,07,03,32,255,45,04,38,311,45,16,56,215,48,26,86,209,48*72
###2023-12-09 13:14:45.998735$GPGSV,2,2,07,28,45,076,44,29,24,055,44,31,65,050,47,,,,*4E
###2023-12-09 13:14:46.001064$GLGSV,2,1,06,65,30,325,43,71,33,174,43,72,71,243,46,73,30,046,45*60
###2023-12-09 13:14:46.002826$GLGSV,2,2,06,74,66,353,43,75,36,259,46,,,,,,,,*69
###2023-12-09 13:14:46.005157$GAGSV,1,1,04,04,33,312,44,19,80,192,40,21,84,066,46,27,29,048,43*6E
###2023-12-09 13:14:46.007507$GBGSV,2,1,06,14,37,191,42,24,69,035,48,25,45,267,47,26,22,066,43*66
###2023-12-09 13:14:46.009254$GBGSV,2,2,06,33,53,225,48,35,16,064,43,,,,,,,,*66
###2023-12-09 13:14:46.010591$GNVTG,127.32,T,,M,3.67,N,6.80,K,A*2A
###2023-12-09 13:14:46.012247$GNGST,181445.10,18.000,,,,0.096,0.069,0.170*54
###2023-12-09 13:14:46.013543$GNZDA,181445.10,09,12,2023,00,00*7D
###2023-12-09 13:14:46.014183$GNEBP,,,,,,M*13
###2023-12-09 13:14:46.174990$GNGGA,181445.30,4138.0329674,N,07032.3020637,W,1,24,0.7,12.961,M,-29.744,M,0.0,*5B
###2023-12-09 13:14:46.375144$GNGGA,181445.50,4138.0328598,N,07032.3018635,W,1,24,0.7,12.952,M,-29.744,M,0.0,*54
###2023-12-09 13:14:46.576831$GNGGA,181445.70,4138.0327421,N,07032.3016568,W,1,24,0.7,12.972,M,-29.744,M,0.0,*5D
###2023-12-09 13:14:46.775801$GNGGA,181445.90,4138.0326191,N,07032.3014594,W,1,24,0.7,12.948,M,-29.744,M,0.0,*54
###2023-12-09 13:14:46.980424$GNRMC,181446.10,A,4138.0324885,N,07032.3012728,W,3.54,131.91,091223,,,A*5A
###2023-12-09 13:14:46.983901$GNGGA,181446.10,4138.0324885,N,07032.3012728,W,1,24,0.7,12.950,M,-29.744,M,0.0,*5B
###2023-12-09 13:14:46.986056$GPGSA,A,3,03,04,16,26,28,29,31,,,,,,1.2,0.7,1.0*30
###2023-12-09 13:14:46.988143$GLGSA,A,3,65,71,72,73,74,75,,,,,,,1.2,0.7,1.0*2E
###2023-12-09 13:14:46.990062$GAGSA,A,3,04,19,21,27,,,,,,,,,1.2,0.7,1.0*2C
###2023-12-09 13:14:46.992142$GBGSA,A,3,14,24,25,26,33,35,,,,,,,1.2,0.7,1.0*23
###2023-12-09 13:14:46.994997$GPGSV,2,1,07,03,32,255,44,04,38,311,46,16,56,215,47,26,86,209,48*7F
###2023-12-09 13:14:46.997459$GPGSV,2,2,07,28,45,076,45,29,24,055,45,31,65,050,47,,,,*4E
###2023-12-09 13:14:47.000307$GLGSV,2,1,06,65,30,325,44,71,33,174,44,72,71,243,47,73,30,046,44*60
###2023-12-09 13:14:47.002425$GLGSV,2,2,06,74,66,355,43,75,36,259,47,,,,,,,,*6E
###2023-12-09 13:14:47.005236$GAGSV,1,1,04,04,33,312,44,19,80,192,40,21,84,066,46,27,29,048,43*6E
###2023-12-09 13:14:47.008060$GBGSV,2,1,06,14,37,191,41,24,69,035,48,25,45,267,47,26,22,066,44*62
###2023-12-09 13:14:47.010173$GBGSV,2,2,06,33,53,225,48,35,16,064,43,,,,,,,,*66
###2023-12-09 13:14:47.011783$GNVTG,131.91,T,,M,3.54,N,6.55,K,A*2C
###2023-12-09 13:14:47.013766$GNGST,181446.10,18.000,,,,0.096,0.069,0.170*57
###2023-12-09 13:14:47.015335$GNZDA,181446.10,09,12,2023,00,00*7E
###2023-12-09 13:14:47.016110$GNEBP,,,,,,M*13
###2023-12-09 13:14:47.175902$GNGGA,181446.30,4138.0323610,N,07032.3010805,W,1,24,0.7,12.942,M,-29.744,M,0.0,*5D
###2023-12-09 13:14:47.377216$GNGGA,181446.50,4138.0322209,N,07032.3009091,W,1,24,0.7,12.944,M,-29.744,M,0.0,*5D
###2023-12-09 13:14:47.578060$GNGGA,181446.70,4138.0320724,N,07032.3007518,W,1,24,0.7,12.940,M,-29.744,M,0.0,*59
###2023-12-09 13:14:47.777377$GNGGA,181446.90,4138.0319226,N,07032.3006041,W,1,24,0.7,12.938,M,-29.744,M,0.0,*5D
###2023-12-09 13:14:47.979485$GNRMC,181447.10,A,4138.0317751,N,07032.3004496,W,3.46,141.05,091223,,,A*55
###2023-12-09 13:14:47.982327$GNGGA,181447.10,4138.0317751,N,07032.3004496,W,1,24,0.7,12.932,M,-29.744,M,0.0,*59
###2023-12-09 13:14:47.984126$GPGSA,A,3,03,04,16,26,28,29,31,,,,,,1.2,0.7,1.0*30
###2023-12-09 13:14:47.985838$GLGSA,A,3,65,71,72,73,74,75,,,,,,,1.2,0.7,1.0*2E
###2023-12-09 13:14:47.987438$GAGSA,A,3,04,19,21,27,,,,,,,,,1.2,0.7,1.0*2C
###2023-12-09 13:14:47.989148$GBGSA,A,3,14,24,25,26,33,35,,,,,,,1.2,0.7,1.0*23
###2023-12-09 13:14:47.991521$GPGSV,2,1,07,03,32,255,44,04,38,311,45,16,56,215,47,26,86,209,48*7C
###2023-12-09 13:14:47.993555$GPGSV,2,2,07,28,45,076,45,29,24,055,45,31,65,050,47,,,,*4E
###2023-12-09 13:14:47.995889$GLGSV,2,1,06,65,30,325,44,71,33,174,44,72,71,243,47,73,30,046,45*61
###2023-12-09 13:14:47.997631$GLGSV,2,2,06,74,66,355,43,75,37,260,47,,,,,,,,*65
###2023-12-09 13:14:47.999960$GAGSV,1,1,04,04,33,312,44,19,80,192,40,21,84,066,46,27,29,048,43*6E
###2023-12-09 13:14:48.002282$GBGSV,2,1,06,14,37,191,42,24,69,035,48,25,45,267,46,26,22,066,45*61
###2023-12-09 13:14:48.004037$GBGSV,2,2,06,33,53,225,48,35,16,064,45,,,,,,,,*60
###2023-12-09 13:14:48.005358$GNVTG,141.05,T,,M,3.46,N,6.41,K,A*20
###2023-12-09 13:14:48.007012$GNGST,181447.10,18.000,,,,0.096,0.069,0.170*56
###2023-12-09 13:14:48.008298$GNZDA,181447.10,09,12,2023,00,00*7F
###2023-12-09 13:14:48.008933$GNEBP,,,,,,M*13
###2023-12-09 13:14:48.176337$GNGGA,181447.30,4138.0316221,N,07032.3002964,W,1,24,0.7,12.924,M,-29.744,M,0.0,*59
###2023-12-09 13:14:48.376578$GNGGA,181447.50,4138.0314665,N,07032.3001526,W,1,24,0.7,12.928,M,-29.744,M,0.0,*5C
###2023-12-09 13:14:48.577402$GNGGA,181447.70,4138.0313047,N,07032.3000064,W,1,24,0.7,12.937,M,-29.744,M,0.0,*53
###2023-12-09 13:14:48.777195$GNGGA,181447.90,4138.0311528,N,07032.2998511,W,1,24,0.7,12.930,M,-29.744,M,0.0,*5A
###2023-12-09 13:14:48.980684$GNRMC,181448.10,A,4138.0310043,N,07032.2996831,W,3.54,139.39,091223,,,A*58
###2023-12-09 13:14:48.983565$GNGGA,181448.10,4138.0310043,N,07032.2996831,W,1,24,0.7,12.940,M,-29.744,M,0.0,*52
###2023-12-09 13:14:48.985620$GPGSA,A,3,03,04,16,26,28,29,31,,,,,,1.2,0.7,1.0*30
###2023-12-09 13:14:48.987367$GLGSA,A,3,65,71,72,73,74,75,,,,,,,1.2,0.7,1.0*2E
###2023-12-09 13:14:48.988958$GAGSA,A,3,04,19,21,27,,,,,,,,,1.2,0.7,1.0*2C
###2023-12-09 13:14:48.990689$GBGSA,A,3,14,24,25,26,33,35,,,,,,,1.2,0.7,1.0*23
###2023-12-09 13:14:48.993019$GPGSV,2,1,07,03,32,255,44,04,38,311,45,16,56,215,47,26,86,209,49*7D
###2023-12-09 13:14:48.995072$GPGSV,2,2,07,28,45,076,46,29,24,055,45,31,65,050,48,,,,*42
###2023-12-09 13:14:48.997395$GLGSV,2,1,06,65,30,325,44,71,33,174,44,72,71,243,47,73,30,046,46*62
###2023-12-09 13:14:48.999154$GLGSV,2,2,06,74,66,355,43,75,37,260,46,,,,,,,,*64
###2023-12-09 13:14:49.001486$GAGSV,1,1,04,04,33,312,44,19,80,192,40,21,84,066,46,27,29,048,44*69
###2023-12-09 13:14:49.003836$GBGSV,2,1,06,14,37,191,42,24,69,035,49,25,45,267,47,26,22,066,45*61
