###2023-12-09 13:48:22.033889$GNVTG,243.17,T,,M,0.02,N,0.04,K,A*26
###2023-12-09 13:48:22.035547$GNGST,184821.10,7.400,,,,0.210,0.120,0.320*62
###2023-12-09 13:48:22.036845$GNZDA,184821.10,09,12,2023,00,00*76
###2023-12-09 13:48:22.037487$GNEBP,,,,,,M*13
###2023-12-09 13:48:22.206630$GNGGA,184821.30,4138.0389829,N,07032.4382996,W,1,18,0.7,15.159,M,-29.746,M,0.0,*5D
###2023-12-09 13:48:22.407730$GNGGA,184821.50,4138.0389820,N,07032.4382985,W,1,18,0.7,15.157,M,-29.746,M,0.0,*5E
###2023-12-09 13:48:22.606293$GNGGA,184821.70,4138.0389834,N,07032.4382968,W,1,18,0.7,15.154,M,-29.746,M,0.0,*59
###2023-12-09 13:48:22.805553$GNGGA,184821.90,4138.0389826,N,07032.4382957,W,1,18,0.7,15.152,M,-29.746,M,0.0,*5E
###2023-12-09 13:48:23.010397$GNRMC,184822.10,A,4138.0389842,N,07032.4382949,W,0.02,243.17,091223,,,A*51
###2023-12-09 13:48:23.013267$GNGGA,184822.10,4138.0389842,N,07032.4382949,W,1,18,0.7,15.156,M,-29.746,M,0.0,*5C
###2023-12-09 13:48:23.014999$GPGSA,A,3,04,16,26,28,29,31,,,,,,,1.2,0.7,1.1*32
###2023-12-09 13:48:23.016585$GLGSA,A,3,65,73,74,75,,,,,,,,,1.2,0.7,1.1*2C
###2023-12-09 13:48:23.018095$GAGSA,A,3,04,21,27,,,,,,,,,,1.2,0.7,1.1*25
###2023-12-09 13:48:23.019744$GBGSA,A,3,12,24,25,33,35,,,,,,,,1.2,0.7,1.1*20
###2023-12-09 13:48:23.022060$GPGSV,2,1,06,04,51,304,49,16,73,229,40,26,77,041,44,28,33,090,42*7C
###2023-12-09 13:48:23.023814$GPGSV,2,2,06,29,17,042,43,31,55,075,49,,,,,,,,*7E
###2023-12-09 13:48:23.026124$GLGSV,1,1,04,65,43,312,44,73,17,056,43,74,55,024,35,75,47,280,48*67
###2023-12-09 13:48:23.028192$GAGSV,1,1,03,04,44,307,44,21,72,043,40,27,18,051,40,,,,*52
###2023-12-09 13:48:23.030515$GBGSV,2,1,05,12,20,122,40,24,58,052,46,25,54,282,46,33,40,213,36*6A
###2023-12-09 13:48:23.031976$GBGSV,2,2,05,35,16,051,38,,,,,,,,,,,,*50
###2023-12-09 13:48:23.033294$GNVTG,243.17,T,,M,0.02,N,0.04,K,A*26
###2023-12-09 13:48:23.034910$GNGST,184822.10,7.200,,,,0.210,0.120,0.320*67
###2023-12-09 13:48:23.036197$GNZDA,184822.10,09,12,2023,00,00*75
###2023-12-09 13:48:23.036833$GNEBP,,,,,,M*13
###2023-12-09 13:48:23.205673$GNGGA,184822.30,4138.0389834,N,07032.4382943,W,1,18,0.7,15.151,M,-29.746,M,0.0,*52
###2023-12-09 13:48:23.406503$GNGGA,184822.50,4138.0389830,N,07032.4382932,W,1,17,0.7,15.145,M,-29.746,M,0.0,*5C
###2023-12-09 13:48:23.608322$GNGGA,184822.70,4138.0389831,N,07032.4382913,W,1,17,0.7,15.149,M,-29.746,M,0.0,*50
###2023-12-09 13:48:23.805294$GNGGA,184822.90,4138.0389819,N,07032.4382912,W,1,17,0.7,15.141,M,-29.746,M,0.0,*5D
###2023-12-09 13:48:24.009184$GNRMC,184823.10,A,4138.0389810,N,07032.4382907,W,0.06,243.17,091223,,,A*59
###2023-12-09 13:48:24.012059$GNGGA,184823.10,4138.0389810,N,07032.4382907,W,1,17,0.7,15.139,M,-29.746,M,0.0,*56
###2023-12-09 13:48:24.013785$GPGSA,A,3,04,16,26,28,29,31,,,,,,,1.3,0.7,1.1*33
###2023-12-09 13:48:24.015318$GLGSA,A,3,65,73,75,,,,,,,,,,1.3,0.7,1.1*2E
###2023-12-09 13:48:24.016834$GAGSA,A,3,04,21,27,,,,,,,,,,1.3,0.7,1.1*24
###2023-12-09 13:48:24.018475$GBGSA,A,3,12,24,25,33,35,,,,,,,,1.3,0.7,1.1*21
###2023-12-09 13:48:24.020827$GPGSV,2,1,06,04,51,304,48,16,73,229,40,26,77,041,44,28,33,090,42*7D
###2023-12-09 13:48:24.022600$GPGSV,2,2,06,29,17,042,43,31,55,075,49,,,,,,,,*7E
###2023-12-09 13:48:24.024642$GLGSV,1,1,03,65,43,312,43,73,17,056,43,75,47,280,48,,,,*54
###2023-12-09 13:48:24.026692$GAGSV,1,1,03,04,44,307,44,21,72,043,40,27,18,051,39,,,,*5C
###2023-12-09 13:48:24.029022$GBGSV,2,1,05,12,20,122,41,24,58,052,45,25,54,282,47,33,40,213,37*68
###2023-12-09 13:48:24.030476$GBGSV,2,2,05,35,16,051,38,,,,,,,,,,,,*50
###2023-12-09 13:48:24.031812$GNVTG,243.17,T,,M,0.06,N,0.11,K,A*26
###2023-12-09 13:48:24.033429$GNGST,184823.10,6.800,,,,0.210,0.120,0.320*6D
###2023-12-09 13:48:24.034731$GNZDA,184823.10,09,12,2023,00,00*74
###2023-12-09 13:48:24.035373$GNEBP,,,,,,M*13
###2023-12-09 13:48:24.207834$GNGGA,184823.30,4138.0389807,N,07032.4382903,W,1,17,0.7,15.137,M,-29.746,M,0.0,*58
###2023-12-09 13:48:24.406420$GNGGA,184823.50,4138.0389817,N,07032.4382888,W,1,17,0.7,15.138,M,-29.746,M,0.0,*52
###2023-12-09 13:48:24.605770$GNGGA,184823.70,4138.0389808,N,07032.4382897,W,1,17,0.7,15.134,M,-29.746,M,0.0,*5C
###2023-12-09 13:48:24.806313$GNGGA,184823.90,4138.0389821,N,07032.4382888,W,1,17,0.7,15.130,M,-29.746,M,0.0,*53
###2023-12-09 13:48:25.010265$GNRMC,184824.10,A,4138.0389811,N,07032.4382870,W,0.04,243.17,091223,,,A*5C
###2023-12-09 13:48:25.013155$GNGGA,184824.10,4138.0389811,N,07032.4382870,W,1,17,0.7,15.128,M,-29.746,M,0.0,*51
###2023-12-09 13:48:25.014890$GPGSA,A,3,04,16,26,28,29,31,,,,,,,1.3,0.7,1.1*33
###2023-12-09 13:48:25.016410$GLGSA,A,3,65,73,75,,,,,,,,,,1.3,0.7,1.1*2E
###2023-12-09 13:48:25.017918$GAGSA,A,3,04,21,27,,,,,,,,,,1.3,0.7,1.1*24
###2023-12-09 13:48:25.019567$GBGSA,A,3,12,24,25,33,35,,,,,,,,1.3,0.7,1.1*21
###2023-12-09 13:48:25.021882$GPGSV,2,1,06,04,51,304,48,16,73,229,40,26,77,041,44,28,33,090,42*7D
###2023-12-09 13:48:25.023628$GPGSV,2,2,06,29,17,042,42,31,55,075,49,,,,,,,,*7F
###2023-12-09 13:48:25.025645$GLGSV,1,1,03,65,43,312,44,73,17,056,44,75,47,280,48,,,,*54
###2023-12-09 13:48:25.027692$GAGSV,1,1,03,04,44,307,44,21,71,043,40,27,18,051,40,,,,*51
###2023-12-09 13:48:25.030002$GBGSV,2,1,05,12,20,122,41,24,58,052,46,25,54,282,47,33,40,213,38*64
###2023-12-09 13:48:25.031466$GBGSV,2,2,05,35,16,051,38,,,,,,,,,,,,*50
###2023-12-09 13:48:25.032785$GNVTG,243.17,T,,M,0.04,N,0.07,K,A*23
###2023-12-09 13:48:25.034394$GNGST,184824.10,6.800,,,,0.210,0.120,0.320*6A
###2023-12-09 13:48:25.035687$GNZDA,184824.10,09,12,2023,00,00*73
###2023-12-09 13:48:25.036321$GNEBP,,,,,,M*13
###2023-12-09 13:48:25.206649$GNGGA,184824.30,4138.0389807,N,07032.4382861,W,1,17,0.7,15.128,M,-29.746,M,0.0,*54
###2023-12-09 13:48:25.412540$GNGGA,184824.50,4138.0389803,N,07032.4382856,W,1,17,0.7,15.125,M,-29.746,M,0.0,*5F
###2023-12-09 13:48:25.605724$GNGGA,184824.70,4138.0389798,N,07032.4382855,W,1,17,0.7,15.118,M,-29.746,M,0.0,*5D
###2023-12-09 13:48:25.807211$GNGGA,184824.90,4138.0389779,N,07032.4382850,W,1,17,0.7,15.114,M,-29.746,M,0.0,*55
###2023-12-09 13:48:26.012416$GNRMC,184825.10,A,4138.0389780,N,07032.4382831,W,0.06,243.17,091223,,,A*5D
###2023-12-09 13:48:26.015279$GNGGA,184825.10,4138.0389780,N,07032.4382831,W,1,17,0.7,15.116,M,-29.746,M,0.0,*5F
###2023-12-09 13:48:26.016991$GPGSA,A,3,04,16,26,28,29,31,,,,,,,1.3,0.7,1.1*33
###2023-12-09 13:48:26.018503$GLGSA,A,3,65,73,75,,,,,,,,,,1.3,0.7,1.1*2E
###2023-12-09 13:48:26.020028$GAGSA,A,3,04,21,27,,,,,,,,,,1.3,0.7,1.1*24
###2023-12-09 13:48:26.021663$GBGSA,A,3,12,24,25,33,35,,,,,,,,1.3,0.7,1.1*21
###2023-12-09 13:48:26.023993$GPGSV,2,1,06,04,51,304,48,16,73,229,40,26,77,041,43,28,33,090,42*7A
###2023-12-09 13:48:26.025734$GPGSV,2,2,06,29,17,042,43,31,55,075,49,,,,,,,,*7E
###2023-12-09 13:48:26.027773$GLGSV,1,1,03,65,43,312,44,73,17,056,43,75,47,280,48,,,,*53
###2023-12-09 13:48:26.029797$GAGSV,1,1,03,04,44,307,44,21,71,043,40,27,18,051,40,,,,*51
###2023-12-09 13:48:26.032124$GBGSV,2,1,05,12,20,122,41,24,58,052,45,25,54,282,47,33,40,213,37*68
###2023-12-09 13:48:26.033572$GBGSV,2,2,05,35,16,051,38,,,,,,,,,,,,*50
###2023-12-09 13:48:26.034909$GNVTG,243.17,T,,M,0.06,N,0.11,K,A*26
###2023-12-09 13:48:26.036514$GNGST,184825.10,6.700,,,,0.210,0.120,0.320*64
###2023-12-09 13:48:26.037799$GNZDA,184825.10,09,12,2023,00,00*72
###2023-12-09 13:48:26.038432$GNEBP,,,,,,M*13
###2023-12-09 13:48:26.211232$GNGGA,184825.30,4138.0389771,N,07032.4382825,W,1,17,0.7,15.113,M,-29.746,M,0.0,*53
###2023-12-09 13:48:26.408926$GNGGA,184825.50,4138.0389758,N,07032.4382813,W,1,17,0.7,15.112,M,-29.746,M,0.0,*5A
###2023-12-09 13:48:26.606876$GNGGA,184825.70,4138.0389762,N,07032.4382807,W,1,17,0.7,15.109,M,-29.746,M,0.0,*5E
###2023-12-09 13:48:26.807538$GNGGA,184825.90,4138.0389755,N,07032.4382808,W,1,17,0.7,15.106,M,-29.746,M,0.0,*54
###2023-12-09 13:48:27.011604$GNRMC,184826.10,A,4138.0389752,N,07032.4382813,W,0.02,243.17,091223,,,A*55
###2023-12-09 13:48:27.014464$GNGGA,184826.10,4138.0389752,N,07032.4382813,W,1,17,0.7,15.098,M,-29.746,M,0.0,*54
###2023-12-09 13:48:27.016201$GPGSA,A,3,04,16,26,28,29,31,,,,,,,1.3,0.7,1.1*33
###2023-12-09 13:48:27.017719$GLGSA,A,3,65,73,75,,,,,,,,,,1.3,0.7,1.1*2E
###2023-12-09 13:48:27.019245$GAGSA,A,3,04,21,27,,,,,,,,,,1.3,0.7,1.1*24
###2023-12-09 13:48:27.022089$GBGSA,A,3,12,24,25,33,35,,,,,,,,1.3,0.7,1.1*21
###2023-12-09 13:48:27.024452$GPGSV,2,1,06,04,51,304,48,16,73,229,40,26,77,041,44,28,33,090,42*7D
###2023-12-09 13:48:27.026212$GPGSV,2,2,06,29,17,042,42,31,55,075,49,,,,,,,,*7F
###2023-12-09 13:48:27.028351$GLGSV,1,1,03,65,43,312,44,73,17,056,43,75,47,280,48,,,,*53
###2023-12-09 13:48:27.030393$GAGSV,1,1,03,04,44,307,44,21,71,043,40,27,18,051,40,,,,*51
###2023-12-09 13:48:27.032748$GBGSV,2,1,05,12,20,122,40,24,58,052,45,25,54,282,47,33,40,213,38*66
###2023-12-09 13:48:27.034206$GBGSV,2,2,05,35,16,051,38,,,,,,,,,,,,*50
