###2023-12-09 12:42:40.941990$GNRMC,174240.10,A,4138.0520921,N,07032.3858223,W,3.67,205.27,091223,,,A*5C
###2023-12-09 12:42:40.944875$GNGGA,174240.10,4138.0520921,N,07032.3858223,W,1,24,0.6,13.324,M,-29.744,M,0.0,*5D
###2023-12-09 12:42:40.946761$GPGSA,A,3,03,04,16,26,28,29,31,32,,,,,1.1,0.6,0.9*3B
###2023-12-09 12:42:40.948517$GLGSA,A,3,65,71,72,73,74,75,,,,,,,1.1,0.6,0.9*24
###2023-12-09 12:42:40.950115$GAGSA,A,3,04,19,21,27,,,,,,,,,1.1,0.6,0.9*26
###2023-12-09 12:42:40.951781$GBGSA,A,3,14,24,25,26,33,,,,,,,,1.1,0.6,0.9*2F
###2023-12-09 12:42:40.954093$GPGSV,2,1,08,03,38,272,45,04,25,311,41,16,40,208,43,26,70,207,47*72
###2023-12-09 12:42:40.956425$GPGSV,2,2,08,28,55,060,45,29,25,070,40,31,72,013,48,32,27,136,43*7D
###2023-12-09 12:42:40.958773$GLGSV,2,1,06,65,15,329,41,71,52,170,46,72,68,302,46,73,44,035,46*67
###2023-12-09 12:42:40.960521$GLGSV,2,2,06,74,71,303,42,75,25,244,42,,,,,,,,*61
###2023-12-09 12:42:40.962862$GAGSV,1,1,04,04,23,311,40,19,84,288,41,21,81,170,45,27,39,049,44*62
###2023-12-09 12:42:40.965187$GBGSV,2,1,05,14,52,196,45,24,79,359,48,25,34,255,43,26,33,058,43*60
###2023-12-09 12:42:40.966652$GBGSV,2,2,05,33,62,248,48,,,,,,,,,,,,*58
###2023-12-09 12:42:40.967978$GNVTG,205.27,T,,M,3.67,N,6.80,K,A*2D
###2023-12-09 12:42:40.969624$GNGST,174240.10,18.000,,,,0.079,0.070,0.160*55
###2023-12-09 12:42:40.970933$GNZDA,174240.10,09,12,2023,00,00*74
###2023-12-09 12:42:40.971571$GNEBP,,,,,,M*13
###2023-12-09 12:42:41.140812$GNGGA,174240.30,4138.0519173,N,07032.3859101,W,1,24,0.6,13.306,M,-29.744,M,0.0,*58
###2023-12-09 12:42:41.341164$GNGGA,174240.50,4138.0517419,N,07032.3859809,W,1,24,0.6,13.320,M,-29.744,M,0.0,*5C
###2023-12-09 12:42:41.542357$GNGGA,174240.70,4138.0515584,N,07032.3860522,W,1,24,0.6,13.293,M,-29.744,M,0.0,*5E
###2023-12-09 12:42:41.740569$GNGGA,174240.90,4138.0513843,N,07032.3861298,W,1,24,0.6,13.266,M,-29.744,M,0.0,*5D
###2023-12-09 12:42:41.940849$GNRMC,174241.10,A,4138.0512173,N,07032.3862601,W,3.69,207.40,091223,,,A*53
###2023-12-09 12:42:41.943749$GNGGA,174241.10,4138.0512173,N,07032.3862601,W,1,24,0.6,13.319,M,-29.744,M,0.0,*51
###2023-12-09 12:42:41.945618$GPGSA,A,3,03,04,16,26,28,29,31,32,,,,,1.1,0.6,0.9*3B
###2023-12-09 12:42:41.947375$GLGSA,A,3,65,71,72,73,74,75,,,,,,,1.1,0.6,0.9*24
###2023-12-09 12:42:41.948980$GAGSA,A,3,04,19,21,27,,,,,,,,,1.1,0.6,0.9*26
###2023-12-09 12:42:41.950651$GBGSA,A,3,14,24,25,26,33,,,,,,,,1.1,0.6,0.9*2F
###2023-12-09 12:42:41.953000$GPGSV,2,1,08,03,38,272,44,04,25,311,43,16,40,208,43,26,70,207,46*70
###2023-12-09 12:42:41.955364$GPGSV,2,2,08,28,55,060,45,29,25,070,42,31,72,013,47,32,27,136,43*70
###2023-12-09 12:42:41.957714$GLGSV,2,1,06,65,15,329,42,71,52,170,45,72,68,302,46,73,44,035,47*66
###2023-12-09 12:42:41.959498$GLGSV,2,2,06,74,71,303,43,75,25,244,41,,,,,,,,*63
###2023-12-09 12:42:41.961845$GAGSV,1,1,04,04,23,311,41,19,84,288,41,21,81,170,45,27,39,049,43*64
###2023-12-09 12:42:41.964217$GBGSV,2,1,05,14,52,196,43,24,79,359,48,25,34,255,44,26,33,058,42*60
###2023-12-09 12:42:41.965686$GBGSV,2,2,05,33,62,248,47,,,,,,,,,,,,*57
###2023-12-09 12:42:41.967032$GNVTG,207.40,T,,M,3.69,N,6.84,K,A*24
###2023-12-09 12:42:41.968696$GNGST,174241.10,18.000,,,,0.079,0.070,0.160*54
###2023-12-09 12:42:41.969999$GNZDA,174241.10,09,12,2023,00,00*75
###2023-12-09 12:42:41.970652$GNEBP,,,,,,M*13
###2023-12-09 12:42:42.144478$GNGGA,174241.30,4138.0510347,N,07032.3863408,W,1,24,0.6,13.316,M,-29.744,M,0.0,*51
###2023-12-09 12:42:42.341976$GNGGA,174241.50,4138.0508558,N,07032.3863606,W,1,24,0.6,13.282,M,-29.744,M,0.0,*56
###2023-12-09 12:42:42.544788$GNGGA,174241.70,4138.0506750,N,07032.3864201,W,1,24,0.6,13.286,M,-29.744,M,0.0,*50
###2023-12-09 12:42:42.742719$GNGGA,174241.90,4138.0504916,N,07032.3865250,W,1,24,0.6,13.299,M,-29.744,M,0.0,*5B
###2023-12-09 12:42:42.945422$GNRMC,174242.10,A,4138.0503028,N,07032.3865846,W,3.29,186.08,091223,,,A*57
###2023-12-09 12:42:42.948304$GNGGA,174242.10,4138.0503028,N,07032.3865846,W,1,24,0.6,13.283,M,-29.744,M,0.0,*55
###2023-12-09 12:42:42.950172$GPGSA,A,3,03,04,16,26,28,29,31,32,,,,,1.1,0.6,0.9*3B
###2023-12-09 12:42:42.951901$GLGSA,A,3,65,71,72,73,74,75,,,,,,,1.1,0.6,0.9*24
###2023-12-09 12:42:42.953475$GAGSA,A,3,04,19,21,27,,,,,,,,,1.1,0.6,0.9*26
###2023-12-09 12:42:42.955132$GBGSA,A,3,14,24,25,26,33,,,,,,,,1.1,0.6,0.9*2F
###2023-12-09 12:42:42.957445$GPGSV,2,1,08,03,38,272,45,04,25,311,42,16,40,208,43,26,70,207,47*71
###2023-12-09 12:42:42.959778$GPGSV,2,2,08,28,55,060,44,29,25,070,42,31,72,013,47,32,27,136,43*71
###2023-12-09 12:42:42.962098$GLGSV,2,1,06,65,15,329,41,71,52,170,45,72,68,302,46,73,44,035,46*64
###2023-12-09 12:42:42.963859$GLGSV,2,2,06,74,71,303,43,75,25,244,43,,,,,,,,*61
###2023-12-09 12:42:42.966181$GAGSV,1,1,04,04,23,311,42,19,84,288,40,21,81,170,46,27,39,049,42*64
###2023-12-09 12:42:42.968557$GBGSV,2,1,05,14,52,196,44,24,79,359,49,25,34,255,45,26,33,058,42*67
###2023-12-09 12:42:42.970011$GBGSV,2,2,05,33,62,248,48,,,,,,,,,,,,*58
###2023-12-09 12:42:42.971348$GNVTG,186.08,T,,M,3.29,N,6.08,K,A*22
###2023-12-09 12:42:42.973005$GNGST,174242.10,18.000,,,,0.079,0.070,0.160*57
###2023-12-09 12:42:42.974299$GNZDA,174242.10,09,12,2023,00,00*76
###2023-12-09 12:42:42.974947$GNEBP,,,,,,M*13
###2023-12-09 12:42:43.140383$GNGGA,174242.30,4138.0501205,N,07032.3866036,W,1,24,0.6,13.289,M,-29.744,M,0.0,*5E
###2023-12-09 12:42:43.343507$GNGGA,174242.50,4138.0499343,N,07032.3866660,W,1,24,0.6,13.307,M,-29.744,M,0.0,*59
###2023-12-09 12:42:43.541318$GNGGA,174242.70,4138.0497444,N,07032.3867462,W,1,24,0.6,13.284,M,-29.745,M,0.0,*5F
###2023-12-09 12:42:43.740508$GNGGA,174242.90,4138.0495727,N,07032.3868284,W,1,24,0.6,13.287,M,-29.745,M,0.0,*57
###2023-12-09 12:42:43.941937$GNRMC,174243.10,A,4138.0493909,N,07032.3869012,W,3.56,190.96,091223,,,A*59
###2023-12-09 12:42:43.944820$GNGGA,174243.10,4138.0493909,N,07032.3869012,W,1,24,0.6,13.311,M,-29.745,M,0.0,*58
###2023-12-09 12:42:43.946688$GPGSA,A,3,03,04,16,26,28,29,31,32,,,,,1.1,0.6,0.9*3B
###2023-12-09 12:42:43.948425$GLGSA,A,3,65,71,72,73,74,75,,,,,,,1.1,0.6,0.9*24
###2023-12-09 12:42:43.950011$GAGSA,A,3,04,19,21,27,,,,,,,,,1.1,0.6,0.9*26
###2023-12-09 12:42:43.951676$GBGSA,A,3,14,24,25,26,33,,,,,,,,1.1,0.6,0.9*2F
###2023-12-09 12:42:43.954001$GPGSV,2,1,08,03,38,272,44,04,25,311,42,16,40,208,43,26,70,207,47*70
###2023-12-09 12:42:43.956347$GPGSV,2,2,08,28,55,060,45,29,25,070,41,31,72,013,48,32,27,136,43*7C
###2023-12-09 12:42:43.958694$GLGSV,2,1,06,65,15,329,41,71,52,170,46,72,68,302,47,73,44,035,46*66
###2023-12-09 12:42:43.960440$GLGSV,2,2,06,74,71,303,43,75,25,244,42,,,,,,,,*60
###2023-12-09 12:42:43.962780$GAGSV,1,1,04,04,23,311,40,19,84,288,41,21,81,170,45,27,39,049,43*65
###2023-12-09 12:42:43.965109$GBGSV,2,1,05,14,51,196,44,24,79,359,48,25,34,255,44,26,33,058,43*65
###2023-12-09 12:42:43.966558$GBGSV,2,2,05,33,62,248,47,,,,,,,,,,,,*57
###2023-12-09 12:42:43.967902$GNVTG,190.96,T,,M,3.56,N,6.59,K,A*2E
###2023-12-09 12:42:43.969552$GNGST,174243.10,18.000,,,,0.079,0.070,0.160*56
###2023-12-09 12:42:43.970851$GNZDA,174243.10,09,12,2023,00,00*77
###2023-12-09 12:42:43.971491$GNEBP,,,,,,M*13
###2023-12-09 12:42:44.141369$GNGGA,174243.30,4138.0492025,N,07032.3869528,W,1,24,0.6,13.264,M,-29.745,M,0.0,*53
###2023-12-09 12:42:44.341945$GNGGA,174243.50,4138.0490359,N,07032.3870587,W,1,24,0.6,13.280,M,-29.745,M,0.0,*58
###2023-12-09 12:42:44.541216$GNGGA,174243.70,4138.0488641,N,07032.3871871,W,1,24,0.6,13.322,M,-29.745,M,0.0,*53
###2023-12-09 12:42:44.740451$GNGGA,174243.90,4138.0486767,N,07032.3872541,W,1,24,0.6,13.276,M,-29.745,M,0.0,*5B
###2023-12-09 12:42:44.950527$GNRMC,174244.10,A,4138.0484967,N,07032.3873135,W,3.40,202.64,091223,,,A*5D
###2023-12-09 12:42:44.953418$GNGGA,174244.10,4138.0484967,N,07032.3873135,W,1,24,0.6,13.263,M,-29.745,M,0.0,*5A
###2023-12-09 12:42:44.955329$GPGSA,A,3,03,04,16,26,28,29,31,32,,,,,1.1,0.6,0.9*3B
###2023-12-09 12:42:44.957049$GLGSA,A,3,65,71,72,73,74,75,,,,,,,1.1,0.6,0.9*24
###2023-12-09 12:42:44.958645$GAGSA,A,3,04,19,21,27,,,,,,,,,1.1,0.6,0.9*26
###2023-12-09 12:42:44.960295$GBGSA,A,3,14,24,25,26,33,,,,,,,,1.1,0.6,0.9*2F
###2023-12-09 12:42:44.962630$GPGSV,2,1,08,03,38,272,43,04,25,311,39,16,40,208,43,26,70,207,46*7A
###2023-12-09 12:42:44.965212$GPGSV,2,2,08,28,55,060,46,29,25,070,44,31,72,013,48,32,27,136,45*7C
###2023-12-09 12:42:44.967587$GLGSV,2,1,06,65,15,329,39,71,52,170,47,72,68,302,46,73,44,035,46*69
###2023-12-09 12:42:44.969345$GLGSV,2,2,06,74,71,303,43,75,25,244,39,,,,,,,,*6C
###2023-12-09 12:42:44.971699$GAGSV,1,1,04,04,23,311,39,19,84,288,41,21,81,170,46,27,39,049,43*68
###2023-12-09 12:42:44.974022$GBGSV,2,1,05,14,51,196,43,24,79,359,49,25,34,255,42,26,33,058,43*65
###2023-12-09 12:42:44.975484$GBGSV,2,2,05,33,62,248,46,,,,,,,,,,,,*56
###2023-12-09 12:42:44.976797$GNVTG,202.64,T,,M,3.40,N,6.30,K,A*23
###2023-12-09 12:42:44.978434$GNGST,174244.10,18.000,,,,0.079,0.070,0.160*51
###2023-12-09 12:42:44.979732$GNZDA,174244.10,09,12,2023,00,00*70
