###2023-12-09 12:49:58.954532$GPGSA,A,3,03,04,16,26,28,29,31,32,,,,,1.1,0.6,0.9*3B
###2023-12-09 12:49:58.956317$GLGSA,A,3,65,71,72,73,74,75,,,,,,,1.1,0.6,0.9*24
###2023-12-09 12:49:58.957928$GAGSA,A,3,04,19,21,27,,,,,,,,,1.1,0.6,0.9*26
###2023-12-09 12:49:58.959615$GBGSA,A,3,14,24,25,26,33,,,,,,,,1.1,0.6,0.9*2F
###2023-12-09 12:49:58.961973$GPGSV,2,1,08,03,37,268,43,04,28,311,44,16,44,210,45,26,74,208,48*77
###2023-12-09 12:49:58.964340$GPGSV,2,2,08,28,53,065,43,29,26,066,39,31,71,024,46,32,23,138,43*71
###2023-12-09 12:49:58.966736$GLGSV,2,1,06,65,18,329,45,71,48,171,48,72,71,291,46,73,41,038,43*64
###2023-12-09 12:49:58.968503$GLGSV,2,2,06,74,71,317,43,75,28,247,45,,,,,,,,*6C
###2023-12-09 12:49:58.970854$GAGSV,1,1,04,04,25,312,43,19,85,269,40,21,83,162,46,27,37,048,42*60
###2023-12-09 12:49:58.973197$GBGSV,2,1,05,14,49,195,45,24,77,011,49,25,37,257,47,26,30,060,44*63
###2023-12-09 12:49:58.974679$GBGSV,2,2,05,33,61,241,48,,,,,,,,,,,,*52
###2023-12-09 12:49:58.976002$GNVTG,320.70,T,,M,0.19,N,0.36,K,A*28
###2023-12-09 12:49:58.977650$GNGST,174958.10,18.000,,,,0.076,0.068,0.160*51
###2023-12-09 12:49:58.978958$GNZDA,174958.10,09,12,2023,00,00*76
###2023-12-09 12:49:58.979595$GNEBP,,,,,,M*13
###2023-12-09 12:49:59.147710$GNGGA,174958.30,4138.0662601,N,07032.3922768,W,1,24,0.6,13.491,M,-29.744,M,0.0,*5A
###2023-12-09 12:49:59.348353$GNGGA,174958.50,4138.0662808,N,07032.3923005,W,1,24,0.6,13.486,M,-29.744,M,0.0,*50
###2023-12-09 12:49:59.548440$GNGGA,174958.70,4138.0663161,N,07032.3923408,W,1,24,0.6,13.490,M,-29.744,M,0.0,*5B
###2023-12-09 12:49:59.748377$GNGGA,174958.90,4138.0663385,N,07032.3923683,W,1,24,0.6,13.497,M,-29.744,M,0.0,*5B
###2023-12-09 12:49:59.948342$GNRMC,174959.10,A,4138.0663385,N,07032.3923660,W,0.17,320.70,091223,,,A*51
###2023-12-09 12:49:59.951243$GNGGA,174959.10,4138.0663385,N,07032.3923660,W,1,24,0.6,13.517,M,-29.744,M,0.0,*56
###2023-12-09 12:49:59.953114$GPGSA,A,3,03,04,16,26,28,29,31,32,,,,,1.1,0.6,0.9*3B
###2023-12-09 12:49:59.954849$GLGSA,A,3,65,71,72,73,74,75,,,,,,,1.1,0.6,0.9*24
###2023-12-09 12:49:59.956440$GAGSA,A,3,04,19,21,27,,,,,,,,,1.1,0.6,0.9*26
###2023-12-09 12:49:59.958088$GBGSA,A,3,14,24,25,26,33,,,,,,,,1.1,0.6,0.9*2F
###2023-12-09 12:49:59.960438$GPGSV,2,1,08,03,37,268,43,04,28,311,43,16,44,210,46,26,74,208,48*73
###2023-12-09 12:49:59.962799$GPGSV,2,2,08,28,53,065,43,29,26,066,39,31,71,024,46,32,23,138,42*70
###2023-12-09 12:49:59.965142$GLGSV,2,1,06,65,18,329,44,71,48,171,49,72,71,291,46,73,41,038,43*64
###2023-12-09 12:49:59.966911$GLGSV,2,2,06,74,71,317,43,75,28,247,47,,,,,,,,*6E
###2023-12-09 12:49:59.969245$GAGSV,1,1,04,04,25,312,42,19,85,269,40,21,83,162,45,27,37,048,42*62
###2023-12-09 12:49:59.971599$GBGSV,2,1,05,14,49,195,45,24,77,011,48,25,37,257,45,26,30,060,43*67
###2023-12-09 12:49:59.973061$GBGSV,2,2,05,33,61,241,48,,,,,,,,,,,,*52
###2023-12-09 12:49:59.974387$GNVTG,320.70,T,,M,0.17,N,0.32,K,A*22
###2023-12-09 12:49:59.976057$GNGST,174959.10,18.000,,,,0.076,0.068,0.160*50
###2023-12-09 12:49:59.977353$GNZDA,174959.10,09,12,2023,00,00*77
###2023-12-09 12:49:59.977993$GNEBP,,,,,,M*13
###2023-12-09 12:50:00.148013$GNGGA,174959.30,4138.0663381,N,07032.3923610,W,1,24,0.6,13.513,M,-29.744,M,0.0,*53
###2023-12-09 12:50:00.349642$GNGGA,174959.50,4138.0663617,N,07032.3923913,W,1,24,0.6,13.512,M,-29.744,M,0.0,*52
###2023-12-09 12:50:00.549579$GNGGA,174959.70,4138.0664020,N,07032.3924413,W,1,24,0.6,13.518,M,-29.744,M,0.0,*55
###2023-12-09 12:50:00.748285$GNGGA,174959.90,4138.0664215,N,07032.3924646,W,1,24,0.6,13.528,M,-29.744,M,0.0,*5E
###2023-12-09 12:50:00.948875$GNRMC,175000.10,A,4138.0664204,N,07032.3924564,W,0.27,319.36,091223,,,A*51
###2023-12-09 12:50:00.951756$GNGGA,175000.10,4138.0664204,N,07032.3924564,W,1,24,0.6,13.552,M,-29.744,M,0.0,*5C
###2023-12-09 12:50:00.953613$GPGSA,A,3,03,04,16,26,28,29,31,32,,,,,1.1,0.6,0.9*3B
###2023-12-09 12:50:00.955346$GLGSA,A,3,65,71,72,73,74,75,,,,,,,1.1,0.6,0.9*24
###2023-12-09 12:50:00.956934$GAGSA,A,3,04,19,21,27,,,,,,,,,1.1,0.6,0.9*26
###2023-12-09 12:50:00.958597$GBGSA,A,3,14,24,25,26,33,,,,,,,,1.1,0.6,0.9*2F
###2023-12-09 12:50:00.960934$GPGSV,2,1,08,03,37,268,44,04,28,311,44,16,44,210,45,26,74,208,48*70
###2023-12-09 12:50:00.963288$GPGSV,2,2,08,28,53,065,44,29,26,066,41,31,71,024,46,32,23,138,43*79
###2023-12-09 12:50:00.965628$GLGSV,2,1,06,65,18,329,44,71,48,171,49,72,71,291,46,73,41,038,43*64
###2023-12-09 12:50:00.967391$GLGSV,2,2,06,74,71,317,43,75,28,247,46,,,,,,,,*6F
###2023-12-09 12:50:00.969726$GAGSV,1,1,04,04,26,312,44,19,85,269,40,21,83,162,46,27,37,048,42*64
###2023-12-09 12:50:00.972073$GBGSV,2,1,05,14,49,195,44,24,77,011,47,25,37,257,46,26,30,060,43*6A
###2023-12-09 12:50:00.973532$GBGSV,2,2,05,33,61,241,47,,,,,,,,,,,,*5D
###2023-12-09 12:50:00.974874$GNVTG,319.36,T,,M,0.27,N,0.50,K,A*2D
###2023-12-09 12:50:00.976532$GNGST,175000.10,18.000,,,,0.076,0.069,0.160*55
###2023-12-09 12:50:00.977831$GNZDA,175000.10,09,12,2023,00,00*73
###2023-12-09 12:50:00.978471$GNEBP,,,,,,M*13
###2023-12-09 12:50:01.148523$GNGGA,175000.30,4138.0664177,N,07032.3924506,W,1,24,0.6,13.533,M,-29.744,M,0.0,*5A
###2023-12-09 12:50:01.349503$GNGGA,175000.50,4138.0664431,N,07032.3924834,W,1,24,0.6,13.532,M,-29.744,M,0.0,*56
###2023-12-09 12:50:01.548270$GNGGA,175000.70,4138.0664841,N,07032.3925336,W,1,24,0.6,13.523,M,-29.744,M,0.0,*57
###2023-12-09 12:50:01.747357$GNGGA,175000.90,4138.0665012,N,07032.3925516,W,1,24,0.6,13.534,M,-29.744,M,0.0,*54
###2023-12-09 12:50:01.948381$GNRMC,175001.10,A,4138.0664955,N,07032.3925400,W,0.21,318.60,091223,,,A*59
###2023-12-09 12:50:01.951248$GNGGA,175001.10,4138.0664955,N,07032.3925400,W,1,24,0.6,13.563,M,-29.744,M,0.0,*52
###2023-12-09 12:50:01.953100$GPGSA,A,3,03,04,16,26,28,29,31,32,,,,,1.1,0.6,0.9*3B
###2023-12-09 12:50:01.954829$GLGSA,A,3,65,71,72,73,74,75,,,,,,,1.1,0.6,0.9*24
###2023-12-09 12:50:01.956407$GAGSA,A,3,04,19,21,27,,,,,,,,,1.1,0.6,0.9*26
###2023-12-09 12:50:01.958049$GBGSA,A,3,14,24,25,26,33,,,,,,,,1.1,0.6,0.9*2F
###2023-12-09 12:50:01.960382$GPGSV,2,1,08,03,37,268,43,04,28,311,43,16,44,210,46,26,74,208,49*72
###2023-12-09 12:50:01.962725$GPGSV,2,2,08,28,53,065,44,29,26,066,41,31,71,024,47,32,23,138,44*7F
###2023-12-09 12:50:01.965054$GLGSV,2,1,06,65,18,329,44,71,48,171,49,72,71,291,47,73,41,038,43*65
###2023-12-09 12:50:01.966810$GLGSV,2,2,06,74,71,317,43,75,28,247,46,,,,,,,,*6F
###2023-12-09 12:50:01.969132$GAGSV,1,1,04,04,26,312,43,19,85,269,40,21,83,162,46,27,37,048,42*63
###2023-12-09 12:50:01.971470$GBGSV,2,1,05,14,49,195,46,24,77,011,49,25,37,257,46,26,30,060,45*60
###2023-12-09 12:50:01.972928$GBGSV,2,2,05,33,61,241,48,,,,,,,,,,,,*52
###2023-12-09 12:50:01.974247$GNVTG,318.60,T,,M,0.21,N,0.40,K,A*28
###2023-12-09 12:50:01.975897$GNGST,175001.10,18.000,,,,0.076,0.068,0.160*55
###2023-12-09 12:50:01.977187$GNZDA,175001.10,09,12,2023,00,00*72
###2023-12-09 12:50:01.977822$GNEBP,,,,,,M*13
###2023-12-09 12:50:02.147608$GNGGA,175001.30,4138.0664982,N,07032.3925436,W,1,24,0.6,13.550,M,-29.744,M,0.0,*5F
###2023-12-09 12:50:02.348584$GNGGA,175001.50,4138.0665312,N,07032.3925803,W,1,24,0.6,13.540,M,-29.744,M,0.0,*50
###2023-12-09 12:50:02.548498$GNGGA,175001.70,4138.0665681,N,07032.3926254,W,1,24,0.6,13.523,M,-29.744,M,0.0,*53
###2023-12-09 12:50:02.751799$GNGGA,175001.90,4138.0665770,N,07032.3926376,W,1,24,0.6,13.544,M,-29.744,M,0.0,*52
###2023-12-09 12:50:02.948744$GNRMC,175002.10,A,4138.0665715,N,07032.3926290,W,0.06,318.34,091223,,,A*59
###2023-12-09 12:50:02.951608$GNGGA,175002.10,4138.0665715,N,07032.3926290,W,1,24,0.6,13.564,M,-29.744,M,0.0,*51
###2023-12-09 12:50:02.953457$GPGSA,A,3,03,04,16,26,28,29,31,32,,,,,1.1,0.6,0.9*3B
###2023-12-09 12:50:02.955181$GLGSA,A,3,65,71,72,73,74,75,,,,,,,1.1,0.6,0.9*24
###2023-12-09 12:50:02.956757$GAGSA,A,3,04,19,21,27,,,,,,,,,1.1,0.6,0.9*26
###2023-12-09 12:50:02.958389$GBGSA,A,3,14,24,25,26,33,,,,,,,,1.1,0.6,0.9*2F
###2023-12-09 12:50:02.960715$GPGSV,2,1,08,03,37,268,45,04,28,311,43,16,44,210,47,26,74,208,50*7D
###2023-12-09 12:50:02.963050$GPGSV,2,2,08,28,53,065,45,29,26,066,42,31,71,024,48,32,23,138,46*70
###2023-12-09 12:50:02.965372$GLGSV,2,1,06,65,18,329,44,71,48,171,48,72,71,291,46,73,41,038,45*63
###2023-12-09 12:50:02.967391$GLGSV,2,2,06,74,71,317,43,75,28,247,46,,,,,,,,*6F
###2023-12-09 12:50:02.969735$GAGSV,1,1,04,04,26,312,43,19,85,269,42,21,83,162,47,27,37,048,43*61
###2023-12-09 12:50:02.972075$GBGSV,2,1,05,14,49,195,44,24,77,011,48,25,37,257,45,26,30,060,44*61
###2023-12-09 12:50:02.973528$GBGSV,2,2,05,33,61,241,47,,,,,,,,,,,,*5D
###2023-12-09 12:50:02.974857$GNVTG,318.34,T,,M,0.06,N,0.11,K,A*28
###2023-12-09 12:50:02.976504$GNGST,175002.10,18.000,,,,0.076,0.068,0.160*56
###2023-12-09 12:50:02.977793$GNZDA,175002.10,09,12,2023,00,00*71
###2023-12-09 12:50:02.978428$GNEBP,,,,,,M*13
###2023-12-09 12:50:03.147619$GNGGA,175002.30,4138.0665814,N,07032.3926373,W,1,24,0.6,13.555,M,-29.744,M,0.0,*53
