###2023-12-09 13:38:28.037589$GNVTG,2.77,T,,M,3.19,N,5.90,K,A*26
###2023-12-09 13:38:28.039602$GNGST,183827.10,6.200,,,,0.110,0.092,0.210*6D
###2023-12-09 13:38:28.041167$GNZDA,183827.10,09,12,2023,00,00*77
###2023-12-09 13:38:28.041941$GNEBP,,,,,,M*13
###2023-12-09 13:38:28.207676$GNGGA,183827.30,4138.0461809,N,07032.3935005,W,1,25,0.6,13.181,M,-29.745,M,0.0,*52
###2023-12-09 13:38:28.402276$GNGGA,183827.50,4138.0463546,N,07032.3935121,W,1,25,0.6,13.190,M,-29.745,M,0.0,*57
###2023-12-09 13:38:28.602599$GNGGA,183827.70,4138.0465299,N,07032.3935252,W,1,25,0.6,13.178,M,-29.745,M,0.0,*57
###2023-12-09 13:38:28.802800$GNGGA,183827.90,4138.0467027,N,07032.3935405,W,1,25,0.6,13.177,M,-29.745,M,0.0,*57
###2023-12-09 13:38:29.007312$GNRMC,183828.10,A,4138.0468798,N,07032.3935468,W,3.21,359.15,091223,,,A*59
###2023-12-09 13:38:29.010843$GNGGA,183828.10,4138.0468798,N,07032.3935468,W,1,25,0.6,13.176,M,-29.745,M,0.0,*56
###2023-12-09 13:38:29.013094$GPGSA,A,3,03,04,16,26,27,28,29,31,,,,,1.0,0.6,0.8*3F
###2023-12-09 13:38:29.015180$GLGSA,A,3,65,71,72,73,74,75,,,,,,,1.0,0.6,0.8*24
###2023-12-09 13:38:29.017089$GAGSA,A,3,04,19,21,27,,,,,,,,,1.0,0.6,0.8*26
###2023-12-09 13:38:29.019154$GBGSA,A,3,12,14,24,25,33,35,,,,,,,1.0,0.6,0.8*2E
###2023-12-09 13:38:29.021988$GPGSV,2,1,08,03,25,245,43,04,48,307,45,16,68,224,46,26,82,040,47*79
###2023-12-09 13:38:29.024810$GPGSV,2,2,08,27,18,172,43,28,37,086,43,29,20,046,39,31,58,068,46*7B
###2023-12-09 13:38:29.027632$GLGSV,2,1,06,65,39,317,42,71,21,175,43,72,61,219,47,73,21,053,41*64
###2023-12-09 13:38:29.029742$GLGSV,2,2,06,74,59,016,41,75,44,273,48,,,,,,,,*66
###2023-12-09 13:38:29.032564$GAGSV,1,1,04,04,41,309,44,19,70,181,41,21,75,045,45,27,21,050,38*6C
###2023-12-09 13:38:29.035401$GBGSV,2,1,06,12,17,125,40,14,27,189,41,24,61,048,47,25,52,277,47*63
###2023-12-09 13:38:29.037510$GBGSV,2,2,06,33,44,216,46,35,16,055,41,,,,,,,,*6E
###2023-12-09 13:38:29.039121$GNVTG,359.15,T,,M,3.21,N,5.94,K,A*20
###2023-12-09 13:38:29.041075$GNGST,183828.10,5.800,,,,0.110,0.088,0.200*61
###2023-12-09 13:38:29.042646$GNZDA,183828.10,09,12,2023,00,00*78
###2023-12-09 13:38:29.043418$GNEBP,,,,,,M*13
###2023-12-09 13:38:29.204520$GNGGA,183828.30,4138.0470555,N,07032.3935469,W,1,25,0.6,13.180,M,-29.745,M,0.0,*56
###2023-12-09 13:38:29.403699$GNGGA,183828.50,4138.0472313,N,07032.3935477,W,1,25,0.6,13.179,M,-29.745,M,0.0,*5F
###2023-12-09 13:38:29.601166$GNGGA,183828.70,4138.0474069,N,07032.3935434,W,1,25,0.6,13.170,M,-29.745,M,0.0,*5B
###2023-12-09 13:38:29.802521$GNGGA,183828.90,4138.0475784,N,07032.3935374,W,1,25,0.6,13.163,M,-29.745,M,0.0,*51
###2023-12-09 13:38:30.004708$GNRMC,183829.10,A,4138.0477443,N,07032.3935344,W,3.01,1.37,091223,,,A*56
###2023-12-09 13:38:30.007587$GNGGA,183829.10,4138.0477443,N,07032.3935344,W,1,25,0.6,13.161,M,-29.745,M,0.0,*53
###2023-12-09 13:38:30.009435$GPGSA,A,3,03,04,16,26,27,28,29,31,,,,,1.0,0.6,0.8*3F
###2023-12-09 13:38:30.011163$GLGSA,A,3,65,71,72,73,74,75,,,,,,,1.0,0.6,0.8*24
###2023-12-09 13:38:30.012739$GAGSA,A,3,04,19,21,27,,,,,,,,,1.0,0.6,0.8*26
###2023-12-09 13:38:30.014442$GBGSA,A,3,12,14,24,25,33,35,,,,,,,1.0,0.6,0.8*2E
###2023-12-09 13:38:30.016775$GPGSV,2,1,08,03,25,245,42,04,48,307,45,16,68,224,45,26,82,040,47*7B
###2023-12-09 13:38:30.019110$GPGSV,2,2,08,27,18,172,43,28,37,086,44,29,20,046,39,31,58,068,46*7C
###2023-12-09 13:38:30.021435$GLGSV,2,1,06,65,39,317,42,71,21,175,45,72,61,219,47,73,21,053,40*63
###2023-12-09 13:38:30.023182$GLGSV,2,2,06,74,59,016,41,75,44,273,48,,,,,,,,*66
###2023-12-09 13:38:30.025502$GAGSV,1,1,04,04,41,309,43,19,70,181,41,21,75,045,45,27,21,050,38*6B
###2023-12-09 13:38:30.027828$GBGSV,2,1,06,12,17,125,41,14,27,189,41,24,61,048,47,25,52,278,47*6D
###2023-12-09 13:38:30.029564$GBGSV,2,2,06,33,44,216,46,35,16,055,43,,,,,,,,*6C
###2023-12-09 13:38:30.030826$GNVTG,1.37,T,,M,3.01,N,5.58,K,A*2C
###2023-12-09 13:38:30.032427$GNGST,183829.10,6.100,,,,0.100,0.084,0.200*67
###2023-12-09 13:38:30.033709$GNZDA,183829.10,09,12,2023,00,00*79
###2023-12-09 13:38:30.034344$GNEBP,,,,,,M*13
###2023-12-09 13:38:30.207408$GNGGA,183829.30,4138.0479093,N,07032.3935283,W,1,25,0.6,13.154,M,-29.745,M,0.0,*5A
###2023-12-09 13:38:30.401858$GNGGA,183829.50,4138.0480745,N,07032.3935270,W,1,25,0.6,13.152,M,-29.745,M,0.0,*5C
###2023-12-09 13:38:30.600217$GNGGA,183829.70,4138.0482409,N,07032.3935312,W,1,25,0.6,13.168,M,-29.745,M,0.0,*5B
###2023-12-09 13:38:30.801230$GNGGA,183829.90,4138.0484112,N,07032.3935324,W,1,25,0.6,13.179,M,-29.745,M,0.0,*59
###2023-12-09 13:38:31.002804$GNRMC,183830.10,A,4138.0485853,N,07032.3935234,W,3.25,3.81,091223,,,A*51
###2023-12-09 13:38:31.005647$GNGGA,183830.10,4138.0485853,N,07032.3935234,W,1,25,0.6,13.171,M,-29.745,M,0.0,*5C
###2023-12-09 13:38:31.007511$GPGSA,A,3,03,04,16,26,27,28,29,31,,,,,1.0,0.6,0.8*3F
###2023-12-09 13:38:31.009225$GLGSA,A,3,65,71,72,73,74,75,,,,,,,1.0,0.6,0.8*24
###2023-12-09 13:38:31.010813$GAGSA,A,3,04,19,21,27,,,,,,,,,1.0,0.6,0.8*26
###2023-12-09 13:38:31.012518$GBGSA,A,3,12,14,24,25,33,35,,,,,,,1.0,0.6,0.8*2E
###2023-12-09 13:38:31.014845$GPGSV,2,1,08,03,25,245,42,04,48,307,45,16,68,224,46,26,82,040,48*77
###2023-12-09 13:38:31.017170$GPGSV,2,2,08,27,18,172,43,28,37,086,44,29,20,046,39,31,58,068,47*7D
###2023-12-09 13:38:31.019503$GLGSV,2,1,06,65,39,317,43,71,21,175,43,72,61,219,47,73,21,053,40*64
###2023-12-09 13:38:31.021244$GLGSV,2,2,06,74,59,016,41,75,44,273,48,,,,,,,,*66
###2023-12-09 13:38:31.023580$GAGSV,1,1,04,04,41,309,44,19,70,181,41,21,75,045,45,27,21,050,38*6C
###2023-12-09 13:38:31.025907$GBGSV,2,1,06,12,17,125,40,14,27,189,40,24,61,048,47,25,52,278,47*6D
###2023-12-09 13:38:31.027696$GBGSV,2,2,06,33,44,216,46,35,16,055,41,,,,,,,,*6E
###2023-12-09 13:38:31.028957$GNVTG,3.81,T,,M,3.25,N,6.01,K,A*2A
###2023-12-09 13:38:31.030602$GNGST,183830.10,5.800,,,,0.100,0.081,0.190*6A
###2023-12-09 13:38:31.031894$GNZDA,183830.10,09,12,2023,00,00*71
###2023-12-09 13:38:31.032532$GNEBP,,,,,,M*13
###2023-12-09 13:38:31.205149$GNGGA,183830.30,4138.0487622,N,07032.3935097,W,1,25,0.6,13.155,M,-29.745,M,0.0,*59
###2023-12-09 13:38:31.401167$GNGGA,183830.50,4138.0489371,N,07032.3935193,W,1,25,0.6,13.155,M,-29.745,M,0.0,*57
###2023-12-09 13:38:31.600980$GNGGA,183830.70,4138.0491123,N,07032.3935377,W,1,25,0.6,13.167,M,-29.745,M,0.0,*50
###2023-12-09 13:38:31.800071$GNGGA,183830.90,4138.0492921,N,07032.3935273,W,1,25,0.6,13.171,M,-29.745,M,0.0,*55
###2023-12-09 13:38:32.003745$GNRMC,183831.10,A,4138.0494676,N,07032.3935018,W,3.27,4.26,091223,,,A*5D
###2023-12-09 13:38:32.006609$GNGGA,183831.10,4138.0494676,N,07032.3935018,W,1,25,0.6,13.168,M,-29.745,M,0.0,*50
###2023-12-09 13:38:32.008462$GPGSA,A,3,03,04,16,26,27,28,29,31,,,,,1.0,0.6,0.8*3F
###2023-12-09 13:38:32.010169$GLGSA,A,3,65,71,72,73,74,75,,,,,,,1.0,0.6,0.8*24
###2023-12-09 13:38:32.011768$GAGSA,A,3,04,19,21,27,,,,,,,,,1.0,0.6,0.8*26
###2023-12-09 13:38:32.013479$GBGSA,A,3,12,14,24,25,33,35,,,,,,,1.0,0.6,0.8*2E
###2023-12-09 13:38:32.015813$GPGSV,2,1,08,03,25,245,42,04,48,307,44,16,68,224,46,26,82,040,47*79
###2023-12-09 13:38:32.018147$GPGSV,2,2,08,27,18,172,43,28,37,086,44,29,20,046,39,31,58,068,46*7C
###2023-12-09 13:38:32.020490$GLGSV,2,1,06,65,39,317,42,71,21,175,42,72,61,219,47,73,21,053,41*65
###2023-12-09 13:38:32.022234$GLGSV,2,2,06,74,59,016,41,75,44,273,48,,,,,,,,*66
###2023-12-09 13:38:32.024560$GAGSV,1,1,04,04,41,309,43,19,70,181,41,21,75,045,45,27,21,050,38*6B
###2023-12-09 13:38:32.026901$GBGSV,2,1,06,12,17,125,41,14,27,189,41,24,61,048,47,25,52,278,47*6D
###2023-12-09 13:38:32.028644$GBGSV,2,2,06,33,44,216,47,35,16,055,42,,,,,,,,*6C
###2023-12-09 13:38:32.029903$GNVTG,4.26,T,,M,3.27,N,6.05,K,A*26
###2023-12-09 13:38:32.031526$GNGST,183831.10,5.700,,,,0.100,0.079,0.190*63
###2023-12-09 13:38:32.032814$GNZDA,183831.10,09,12,2023,00,00*70
###2023-12-09 13:38:32.033448$GNEBP,,,,,,M*13
###2023-12-09 13:38:32.201430$GNGGA,183831.30,4138.0496428,N,07032.3934987,W,1,25,0.6,13.162,M,-29.745,M,0.0,*5D
###2023-12-09 13:38:32.400269$GNGGA,183831.50,4138.0498122,N,07032.3935165,W,1,25,0.6,13.157,M,-29.745,M,0.0,*59
###2023-12-09 13:38:32.600303$GNGGA,183831.70,4138.0499760,N,07032.3935333,W,1,25,0.6,13.162,M,-29.745,M,0.0,*5D
###2023-12-09 13:38:32.799155$GNGGA,183831.90,4138.0501423,N,07032.3935108,W,1,25,0.6,13.166,M,-29.745,M,0.0,*59
###2023-12-09 13:38:33.015569$GNRMC,183832.10,A,4138.0503082,N,07032.3934745,W,2.94,1.33,091223,,,A*5A
###2023-12-09 13:38:33.018437$GNGGA,183832.10,4138.0503082,N,07032.3934745,W,1,25,0.6,13.151,M,-29.745,M,0.0,*55
###2023-12-09 13:38:33.020340$GPGSA,A,3,03,04,16,26,27,28,29,31,,,,,1.0,0.6,0.8*3F
###2023-12-09 13:38:33.022054$GLGSA,A,3,65,71,72,73,74,75,,,,,,,1.0,0.6,0.8*24
###2023-12-09 13:38:33.023651$GAGSA,A,3,04,19,21,27,,,,,,,,,1.0,0.6,0.8*26
###2023-12-09 13:38:33.025359$GBGSA,A,3,12,14,24,25,33,35,,,,,,,1.0,0.6,0.8*2E
###2023-12-09 13:38:33.027694$GPGSV,2,1,08,03,25,245,41,04,48,307,44,16,68,224,45,26,82,040,47*79
###2023-12-09 13:38:33.030020$GPGSV,2,2,08,27,18,172,43,28,37,086,45,29,20,046,41,31,58,068,47*73
