###2023-12-09 12:24:44.116372$GNGGA,172443.30,4138.0391806,N,07032.4366511,W,1,18,0.8,11.378,M,-29.746,M,0.0,*5B
###2023-12-09 12:24:44.316681$GNGGA,172443.50,4138.0391784,N,07032.4366494,W,1,18,0.8,11.364,M,-29.746,M,0.0,*59
###2023-12-09 12:24:44.515712$GNGGA,172443.70,4138.0391777,N,07032.4366488,W,1,18,0.8,11.354,M,-29.746,M,0.0,*59
###2023-12-09 12:24:44.715601$GNGGA,172443.90,4138.0391764,N,07032.4366479,W,1,18,0.8,11.344,M,-29.746,M,0.0,*5A
###2023-12-09 12:24:44.924572$GNRMC,172444.10,A,4138.0391759,N,07032.4366469,W,0.02,,091223,,,A*40
###2023-12-09 12:24:44.928411$GNGGA,172444.10,4138.0391759,N,07032.4366469,W,1,18,0.8,11.340,M,-29.746,M,0.0,*5E
###2023-12-09 12:24:44.930666$GPGSA,A,3,03,16,25,26,28,29,32,,,,,,1.3,0.8,1.1*3F
###2023-12-09 12:24:44.932644$GLGSA,A,3,71,72,73,75,,,,,,,,,1.3,0.8,1.1*21
###2023-12-09 12:24:44.934771$GAGSA,A,3,04,21,27,,,,,,,,,,1.3,0.8,1.1*2B
###2023-12-09 12:24:44.936744$GBGSA,A,3,14,25,26,33,,,,,,,,,1.3,0.8,1.1*2C
###2023-12-09 12:24:44.939618$GPGSV,2,1,07,03,39,283,43,16,32,206,43,25,16,045,41,26,61,205,45*7E
###2023-12-09 12:24:44.942391$GPGSV,2,2,07,28,61,050,42,29,24,079,45,32,34,131,47,,,,*44
###2023-12-09 12:24:44.945494$GLGSV,1,1,04,71,63,167,46,72,61,317,38,73,53,030,47,75,18,237,41*66
###2023-12-09 12:24:44.948059$GAGSV,1,1,03,04,18,310,36,21,74,180,46,27,45,051,46,,,,*58
###2023-12-09 12:24:44.950972$GBGSV,1,1,04,14,60,201,44,25,29,249,40,26,39,055,48,33,64,265,40*6D
###2023-12-09 12:24:44.952394$GNVTG,,T,,M,0.02,N,0.04,K,A*3B
###2023-12-09 12:24:44.954431$GNGST,172444.10,32.000,,,,0.100,0.098,0.220*57
###2023-12-09 12:24:44.956058$GNZDA,172444.10,09,12,2023,00,00*70
###2023-12-09 12:24:44.956880$GNEBP,,,,,,M*13
###2023-12-09 12:24:45.117413$GNGGA,172444.30,4138.0391752,N,07032.4366476,W,1,18,0.8,11.329,M,-29.746,M,0.0,*56
###2023-12-09 12:24:45.316480$GNGGA,172444.50,4138.0391751,N,07032.4366476,W,1,18,0.8,11.317,M,-29.746,M,0.0,*5E
###2023-12-09 12:24:45.516264$GNGGA,172444.70,4138.0391740,N,07032.4366483,W,1,18,0.8,11.302,M,-29.746,M,0.0,*52
###2023-12-09 12:24:45.715511$GNGGA,172444.90,4138.0391726,N,07032.4366481,W,1,18,0.8,11.293,M,-29.746,M,0.0,*57
###2023-12-09 12:24:45.915939$GNRMC,172445.10,A,4138.0391731,N,07032.4366536,W,0.16,,091223,,,A*41
###2023-12-09 12:24:45.919491$GNGGA,172445.10,4138.0391731,N,07032.4366536,W,1,18,0.8,11.275,M,-29.746,M,0.0,*5D
###2023-12-09 12:24:45.921718$GPGSA,A,3,03,16,25,26,28,29,32,,,,,,1.3,0.8,1.1*3F
###2023-12-09 12:24:45.923700$GLGSA,A,3,71,72,73,75,,,,,,,,,1.3,0.8,1.1*21
###2023-12-09 12:24:45.925574$GAGSA,A,3,04,21,27,,,,,,,,,,1.3,0.8,1.1*2B
###2023-12-09 12:24:45.927546$GBGSA,A,3,14,25,26,33,,,,,,,,,1.3,0.8,1.1*2C
###2023-12-09 12:24:45.930399$GPGSV,2,1,07,03,39,283,44,16,32,206,43,25,16,045,41,26,61,205,44*78
###2023-12-09 12:24:45.932925$GPGSV,2,2,07,28,61,050,42,29,24,079,46,32,34,131,48,,,,*48
###2023-12-09 12:24:45.935833$GLGSV,1,1,04,71,63,167,46,72,61,317,38,73,53,030,47,75,18,237,41*66
###2023-12-09 12:24:45.938359$GAGSV,1,1,03,04,18,310,36,21,74,180,46,27,45,051,46,,,,*58
###2023-12-09 12:24:45.941259$GBGSV,1,1,04,14,60,201,44,25,29,249,40,26,39,055,48,33,64,265,40*6D
###2023-12-09 12:24:45.942695$GNVTG,,T,,M,0.16,N,0.29,K,A*31
###2023-12-09 12:24:45.944735$GNGST,172445.10,32.000,,,,0.100,0.098,0.220*56
###2023-12-09 12:24:45.946349$GNZDA,172445.10,09,12,2023,00,00*71
###2023-12-09 12:24:45.947223$GNEBP,,,,,,M*13
###2023-12-09 12:24:46.116064$GNGGA,172445.30,4138.0391725,N,07032.4366535,W,1,18,0.8,11.268,M,-29.746,M,0.0,*55
###2023-12-09 12:24:46.317824$GNGGA,172445.50,4138.0391725,N,07032.4366547,W,1,18,0.8,11.255,M,-29.746,M,0.0,*58
###2023-12-09 12:24:46.516221$GNGGA,172445.70,4138.0391714,N,07032.4366540,W,1,18,0.8,11.244,M,-29.746,M,0.0,*5F
###2023-12-09 12:24:46.714903$GNGGA,172445.90,4138.0391712,N,07032.4366545,W,1,18,0.8,11.236,M,-29.746,M,0.0,*57
###2023-12-09 12:24:46.919743$GNRMC,172446.10,A,4138.0391712,N,07032.4366550,W,0.02,,091223,,,A*46
###2023-12-09 12:24:46.922647$GNGGA,172446.10,4138.0391712,N,07032.4366550,W,1,18,0.8,11.221,M,-29.746,M,0.0,*5E
###2023-12-09 12:24:46.924465$GPGSA,A,3,03,16,25,26,28,29,32,,,,,,1.3,0.8,1.1*3F
###2023-12-09 12:24:46.926067$GLGSA,A,3,71,72,73,75,,,,,,,,,1.3,0.8,1.1*21
###2023-12-09 12:24:46.927620$GAGSA,A,3,04,21,27,,,,,,,,,,1.3,0.8,1.1*2B
###2023-12-09 12:24:46.929222$GBGSA,A,3,14,25,26,33,,,,,,,,,1.3,0.8,1.1*2C
###2023-12-09 12:24:46.931578$GPGSV,2,1,07,03,39,283,44,16,32,206,41,25,16,045,41,26,61,205,45*7B
###2023-12-09 12:24:46.933633$GPGSV,2,2,07,28,61,050,42,29,24,079,45,32,34,131,46,,,,*45
###2023-12-09 12:24:46.935994$GLGSV,1,1,04,71,63,167,46,72,61,317,38,73,53,030,47,75,18,237,40*67
###2023-12-09 12:24:46.938057$GAGSV,1,1,03,04,18,310,37,21,74,180,46,27,45,051,47,,,,*58
###2023-12-09 12:24:46.940419$GBGSV,1,1,04,14,60,201,44,25,29,249,40,26,39,055,48,33,64,265,40*6D
###2023-12-09 12:24:46.941569$GNVTG,,T,,M,0.02,N,0.04,K,A*3B
###2023-12-09 12:24:46.943239$GNGST,172446.10,32.000,,,,0.100,0.098,0.220*55
###2023-12-09 12:24:46.944544$GNZDA,172446.10,09,12,2023,00,00*72
###2023-12-09 12:24:46.945195$GNEBP,,,,,,M*13
###2023-12-09 12:24:47.117644$GNGGA,172446.30,4138.0391704,N,07032.4366550,W,1,18,0.8,11.215,M,-29.746,M,0.0,*5C
###2023-12-09 12:24:47.317845$GNGGA,172446.50,4138.0391687,N,07032.4366531,W,1,18,0.8,11.207,M,-29.746,M,0.0,*54
###2023-12-09 12:24:47.525006$GNGGA,172446.70,4138.0391678,N,07032.4366532,W,1,18,0.8,11.206,M,-29.746,M,0.0,*54
###2023-12-09 12:24:47.717020$GNGGA,172446.90,4138.0391672,N,07032.4366524,W,1,18,0.8,11.197,M,-29.746,M,0.0,*5C
###2023-12-09 12:24:47.917929$GNRMC,172447.10,A,4138.0391664,N,07032.4366509,W,0.02,,091223,,,A*4B
###2023-12-09 12:24:47.921117$GNGGA,172447.10,4138.0391664,N,07032.4366509,W,1,18,0.8,11.188,M,-29.746,M,0.0,*53
###2023-12-09 12:24:47.923169$GPGSA,A,3,03,16,25,26,28,29,32,,,,,,1.3,0.8,1.1*3F
###2023-12-09 12:24:47.924968$GLGSA,A,3,71,72,73,75,,,,,,,,,1.3,0.8,1.1*21
###2023-12-09 12:24:47.926698$GAGSA,A,3,04,21,27,,,,,,,,,,1.3,0.8,1.1*2B
###2023-12-09 12:24:47.928495$GBGSA,A,3,14,25,26,33,,,,,,,,,1.3,0.8,1.1*2C
###2023-12-09 12:24:47.931033$GPGSV,2,1,07,03,39,283,44,16,32,206,43,25,16,045,41,26,61,205,45*79
###2023-12-09 12:24:47.933268$GPGSV,2,2,07,28,61,050,42,29,24,079,45,32,34,131,46,,,,*45
###2023-12-09 12:24:47.935805$GLGSV,1,1,04,71,63,167,46,72,61,317,38,73,53,030,48,75,18,237,40*68
###2023-12-09 12:24:47.938044$GAGSV,1,1,03,04,18,310,37,21,74,180,46,27,45,051,46,,,,*59
###2023-12-09 12:24:47.940567$GBGSV,1,1,04,14,60,201,44,25,29,249,40,26,39,055,48,33,64,265,40*6D
###2023-12-09 12:24:47.941892$GNVTG,,T,,M,0.02,N,0.04,K,A*3B
###2023-12-09 12:24:47.943730$GNGST,172447.10,32.000,,,,0.100,0.097,0.220*5B
###2023-12-09 12:24:47.945387$GNZDA,172447.10,09,12,2023,00,00*73
###2023-12-09 12:24:47.946232$GNEBP,,,,,,M*13
###2023-12-09 12:24:48.118419$GNGGA,172447.30,4138.0391648,N,07032.4366505,W,1,19,0.8,11.173,M,-29.746,M,0.0,*56
###2023-12-09 12:24:48.318282$GNGGA,172447.50,4138.0391644,N,07032.4366494,W,1,19,0.8,11.162,M,-29.746,M,0.0,*55
###2023-12-09 12:24:48.518546$GNGGA,172447.70,4138.0391640,N,07032.4366490,W,1,19,0.8,11.146,M,-29.746,M,0.0,*51
###2023-12-09 12:24:48.716880$GNGGA,172447.90,4138.0391647,N,07032.4366491,W,1,19,0.8,11.140,M,-29.746,M,0.0,*5F
###2023-12-09 12:24:48.920099$GNRMC,172448.10,A,4138.0391646,N,07032.4366478,W,0.00,,091223,,,A*41
###2023-12-09 12:24:48.923176$GNGGA,172448.10,4138.0391646,N,07032.4366478,W,1,18,0.8,11.128,M,-29.746,M,0.0,*51
###2023-12-09 12:24:48.925148$GPGSA,A,3,03,16,25,26,28,29,32,,,,,,1.3,0.8,1.1*3F
###2023-12-09 12:24:48.926779$GLGSA,A,3,71,72,73,75,,,,,,,,,1.3,0.8,1.1*21
###2023-12-09 12:24:48.928325$GAGSA,A,3,04,21,27,,,,,,,,,,1.3,0.8,1.1*2B
###2023-12-09 12:24:48.929923$GBGSA,A,3,14,25,26,33,,,,,,,,,1.3,0.8,1.1*2C
###2023-12-09 12:24:48.932280$GPGSV,2,1,07,03,39,283,44,16,32,206,42,25,16,045,41,26,61,205,46*7B
###2023-12-09 12:24:48.934334$GPGSV,2,2,07,28,61,050,42,29,24,079,46,32,34,131,46,,,,*46
###2023-12-09 12:24:48.936700$GLGSV,1,1,04,71,63,167,46,72,61,317,37,73,53,030,48,75,18,237,40*67
###2023-12-09 12:24:48.938791$GAGSV,1,1,03,04,18,310,36,21,74,180,46,27,45,051,47,,,,*59
###2023-12-09 12:24:48.941417$GBGSV,1,1,04,14,60,201,45,25,29,249,40,26,39,055,48,33,64,265,40*6C
###2023-12-09 12:24:48.942603$GNVTG,,T,,M,0.00,N,0.00,K,A*3D
###2023-12-09 12:24:48.944284$GNGST,172448.10,32.000,,,,0.100,0.097,0.220*54
###2023-12-09 12:24:48.945597$GNZDA,172448.10,09,12,2023,00,00*7C
###2023-12-09 12:24:48.946272$GNEBP,,,,,,M*13
###2023-12-09 12:24:49.118910$GNGGA,172448.30,4138.0391638,N,07032.4366472,W,1,18,0.8,11.123,M,-29.746,M,0.0,*5B
###2023-12-09 12:24:49.317845$GNGGA,172448.50,4138.0391627,N,07032.4366471,W,1,18,0.8,11.108,M,-29.746,M,0.0,*59
###2023-12-09 12:24:49.517230$GNGGA,172448.70,4138.0391623,N,07032.4366457,W,1,18,0.8,11.105,M,-29.746,M,0.0,*56
###2023-12-09 12:24:49.718337$GNGGA,172448.90,4138.0391622,N,07032.4366450,W,1,18,0.8,11.094,M,-29.746,M,0.0,*57
###2023-12-09 12:24:49.918557$GNRMC,172449.10,A,4138.0391622,N,07032.4366449,W,0.02,,091223,,,A*42
