###2023-12-09 13:11:29.002592$GBGSV,2,2,06,33,54,227,48,35,15,065,42,,,,,,,,*60
###2023-12-09 13:11:29.003910$GNVTG,14.70,T,,M,3.46,N,6.41,K,A*13
###2023-12-09 13:11:29.005560$GNGST,181128.10,18.000,,,,0.097,0.071,0.170*52
###2023-12-09 13:11:29.006905$GNZDA,181128.10,09,12,2023,00,00*73
###2023-12-09 13:11:29.007551$GNEBP,,,,,,M*13
###2023-12-09 13:11:29.171316$GNGGA,181128.30,4138.0392075,N,07032.2724877,W,1,24,0.7,12.848,M,-29.743,M,0.0,*57
###2023-12-09 13:11:29.372672$GNGGA,181128.50,4138.0393873,N,07032.2724999,W,1,24,0.7,12.856,M,-29.743,M,0.0,*50
###2023-12-09 13:11:29.575580$GNGGA,181128.70,4138.0395665,N,07032.2725196,W,1,24,0.7,12.849,M,-29.743,M,0.0,*55
###2023-12-09 13:11:29.777695$GNGGA,181128.90,4138.0397470,N,07032.2725079,W,1,24,0.7,12.844,M,-29.743,M,0.0,*52
###2023-12-09 13:11:29.982378$GNRMC,181129.10,A,4138.0399307,N,07032.2724971,W,3.27,357.96,091223,,,A*51
###2023-12-09 13:11:29.985283$GNGGA,181129.10,4138.0399307,N,07032.2724971,W,1,24,0.7,12.842,M,-29.743,M,0.0,*54
###2023-12-09 13:11:29.987087$GPGSA,A,3,03,04,16,26,28,29,31,,,,,,1.2,0.7,1.0*30
###2023-12-09 13:11:29.988797$GLGSA,A,3,65,71,72,73,74,75,,,,,,,1.2,0.7,1.0*2E
###2023-12-09 13:11:29.990385$GAGSA,A,3,04,19,21,27,,,,,,,,,1.2,0.7,1.0*2C
###2023-12-09 13:11:29.992113$GBGSA,A,3,14,24,25,26,33,35,,,,,,,1.2,0.7,1.0*23
###2023-12-09 13:11:29.994437$GPGSV,2,1,07,03,33,256,44,04,37,311,45,16,55,215,46,26,85,210,48*78
###2023-12-09 13:11:29.996474$GPGSV,2,2,07,28,46,075,45,29,24,056,42,31,67,046,47,,,,*4F
###2023-12-09 13:11:29.998809$GLGSV,2,1,06,65,28,326,36,71,35,174,46,72,72,250,45,73,31,045,44*6A
###2023-12-09 13:11:30.000554$GLGSV,2,2,06,74,67,351,41,75,36,258,47,,,,,,,,*68
###2023-12-09 13:11:30.002886$GAGSV,1,1,04,04,32,312,42,19,81,195,40,21,84,075,46,27,30,048,41*67
###2023-12-09 13:11:30.005209$GBGSV,2,1,06,14,39,192,43,24,70,032,47,25,44,266,47,26,23,065,43*68
###2023-12-09 13:11:30.006997$GBGSV,2,2,06,33,54,227,47,35,15,065,42,,,,,,,,*6F
###2023-12-09 13:11:30.008324$GNVTG,357.96,T,,M,3.27,N,6.05,K,A*28
###2023-12-09 13:11:30.009970$GNGST,181129.10,18.000,,,,0.097,0.071,0.170*53
###2023-12-09 13:11:30.011269$GNZDA,181129.10,09,12,2023,00,00*72
###2023-12-09 13:11:30.011906$GNEBP,,,,,,M*13
###2023-12-09 13:11:30.173488$GNGGA,181129.30,4138.0401084,N,07032.2725275,W,1,24,0.7,12.841,M,-29.743,M,0.0,*55
###2023-12-09 13:11:30.372443$GNGGA,181129.50,4138.0402842,N,07032.2725707,W,1,24,0.7,12.832,M,-29.743,M,0.0,*56
###2023-12-09 13:11:30.572255$GNGGA,181129.70,4138.0404604,N,07032.2726039,W,1,24,0.7,12.828,M,-29.743,M,0.0,*5C
###2023-12-09 13:11:30.773375$GNGGA,181129.90,4138.0406379,N,07032.2726396,W,1,24,0.7,12.832,M,-29.743,M,0.0,*52
###2023-12-09 13:11:30.974067$GNRMC,181130.10,A,4138.0408123,N,07032.2726960,W,3.15,343.57,091223,,,A*59
###2023-12-09 13:11:30.976945$GNGGA,181130.10,4138.0408123,N,07032.2726960,W,1,24,0.7,12.826,M,-29.743,M,0.0,*57
###2023-12-09 13:11:30.978762$GPGSA,A,3,03,04,16,26,28,29,31,,,,,,1.2,0.7,1.0*30
###2023-12-09 13:11:30.980480$GLGSA,A,3,65,71,72,73,74,75,,,,,,,1.2,0.7,1.0*2E
###2023-12-09 13:11:30.982068$GAGSA,A,3,04,19,21,27,,,,,,,,,1.2,0.7,1.0*2C
###2023-12-09 13:11:30.983801$GBGSA,A,3,14,24,25,26,33,35,,,,,,,1.2,0.7,1.0*23
###2023-12-09 13:11:30.986138$GPGSV,2,1,07,03,33,256,43,04,37,311,40,16,55,215,46,26,85,210,47*75
###2023-12-09 13:11:30.988197$GPGSV,2,2,07,28,46,075,45,29,24,056,42,31,67,046,46,,,,*4E
###2023-12-09 13:11:30.990532$GLGSV,2,1,06,65,28,326,40,71,35,174,46,72,72,250,46,73,31,045,44*68
###2023-12-09 13:11:30.992295$GLGSV,2,2,06,74,67,351,41,75,36,258,47,,,,,,,,*68
###2023-12-09 13:11:30.994633$GAGSV,1,1,04,04,32,312,40,19,81,195,40,21,84,075,46,27,30,048,41*65
###2023-12-09 13:11:30.996962$GBGSV,2,1,06,14,39,192,42,24,70,032,48,25,44,266,46,26,23,065,43*67
###2023-12-09 13:11:30.998715$GBGSV,2,2,06,33,54,227,47,35,15,065,43,,,,,,,,*6E
###2023-12-09 13:11:31.000038$GNVTG,343.57,T,,M,3.15,N,5.83,K,A*2C
###2023-12-09 13:11:31.001682$GNGST,181130.10,18.000,,,,0.097,0.072,0.170*58
###2023-12-09 13:11:31.002985$GNZDA,181130.10,09,12,2023,00,00*7A
###2023-12-09 13:11:31.003625$GNEBP,,,,,,M*13
###2023-12-09 13:11:31.171345$GNGGA,181130.30,4138.0409781,N,07032.2727697,W,1,24,0.7,12.817,M,-29.743,M,0.0,*5E
###2023-12-09 13:11:31.372570$GNGGA,181130.50,4138.0411407,N,07032.2728505,W,1,24,0.7,12.816,M,-29.743,M,0.0,*5A
###2023-12-09 13:11:31.574778$GNGGA,181130.70,4138.0413048,N,07032.2729269,W,1,24,0.7,12.809,M,-29.743,M,0.0,*57
###2023-12-09 13:11:31.773719$GNGGA,181130.90,4138.0414654,N,07032.2730063,W,1,24,0.7,12.799,M,-29.743,M,0.0,*53
###2023-12-09 13:11:31.976603$GNRMC,181131.10,A,4138.0416154,N,07032.2731074,W,2.99,330.12,091223,,,A*5D
###2023-12-09 13:11:31.979487$GNGGA,181131.10,4138.0416154,N,07032.2731074,W,1,24,0.7,12.794,M,-29.743,M,0.0,*55
###2023-12-09 13:11:31.981285$GPGSA,A,3,03,04,16,26,28,29,31,,,,,,1.2,0.7,1.0*30
###2023-12-09 13:11:31.983020$GLGSA,A,3,65,71,72,73,74,75,,,,,,,1.2,0.7,1.0*2E
###2023-12-09 13:11:31.984609$GAGSA,A,3,04,19,21,27,,,,,,,,,1.2,0.7,1.0*2C
###2023-12-09 13:11:31.986323$GBGSA,A,3,14,24,25,26,33,35,,,,,,,1.2,0.7,1.0*23
###2023-12-09 13:11:31.988673$GPGSV,2,1,07,03,33,256,42,04,37,311,40,16,55,215,44,26,85,210,47*76
###2023-12-09 13:11:31.990738$GPGSV,2,2,07,28,46,075,45,29,24,056,42,31,66,048,46,,,,*41
###2023-12-09 13:11:31.993058$GLGSV,2,1,06,65,28,326,41,71,35,174,45,72,72,250,45,73,31,045,44*69
###2023-12-09 13:11:31.994820$GLGSV,2,2,06,74,67,351,42,75,36,258,45,,,,,,,,*69
###2023-12-09 13:11:31.997153$GAGSV,1,1,04,04,32,312,39,19,81,195,40,21,84,075,45,27,30,048,41*68
###2023-12-09 13:11:31.999495$GBGSV,2,1,06,14,39,192,42,24,70,032,48,25,44,266,46,26,23,065,43*67
###2023-12-09 13:11:32.001257$GBGSV,2,2,06,33,54,227,47,35,15,065,42,,,,,,,,*6F
###2023-12-09 13:11:32.002594$GNVTG,330.12,T,,M,2.99,N,5.54,K,A*26
###2023-12-09 13:11:32.004249$GNGST,181131.10,18.000,,,,0.097,0.072,0.170*59
###2023-12-09 13:11:32.005547$GNZDA,181131.10,09,12,2023,00,00*7B
###2023-12-09 13:11:32.006186$GNEBP,,,,,,M*13
###2023-12-09 13:11:32.177504$GNGGA,181131.30,4138.0417574,N,07032.2732188,W,1,24,0.7,12.788,M,-29.743,M,0.0,*5C
###2023-12-09 13:11:32.373230$GNGGA,181131.50,4138.0418980,N,07032.2733327,W,1,24,0.7,12.783,M,-29.743,M,0.0,*5F
###2023-12-09 13:11:32.574044$GNGGA,181131.70,4138.0420404,N,07032.2734492,W,1,24,0.7,12.775,M,-29.743,M,0.0,*50
###2023-12-09 13:11:32.774012$GNGGA,181131.90,4138.0421772,N,07032.2735758,W,1,24,0.7,12.772,M,-29.743,M,0.0,*5E
###2023-12-09 13:11:32.984023$GNRMC,181132.10,A,4138.0423035,N,07032.2737173,W,2.97,318.01,091223,,,A*58
###2023-12-09 13:11:32.987520$GNGGA,181132.10,4138.0423035,N,07032.2737173,W,1,24,0.7,12.772,M,-29.743,M,0.0,*5E
###2023-12-09 13:11:32.989689$GPGSA,A,3,03,04,16,26,28,29,31,,,,,,1.2,0.7,1.0*30
###2023-12-09 13:11:32.991774$GLGSA,A,3,65,71,72,73,74,75,,,,,,,1.2,0.7,1.0*2E
###2023-12-09 13:11:32.993691$GAGSA,A,3,04,19,21,27,,,,,,,,,1.2,0.7,1.0*2C
###2023-12-09 13:11:32.995773$GBGSA,A,3,14,24,25,26,33,35,,,,,,,1.2,0.7,1.0*23
###2023-12-09 13:11:32.998597$GPGSV,2,1,07,03,33,256,42,04,37,311,42,16,55,215,45,26,85,210,48*7A
###2023-12-09 13:11:33.001113$GPGSV,2,2,07,28,46,075,45,29,24,056,43,31,66,048,47,,,,*41
###2023-12-09 13:11:33.003946$GLGSV,2,1,06,65,28,326,40,71,35,174,43,72,72,250,44,73,31,045,45*6E
###2023-12-09 13:11:33.006061$GLGSV,2,2,06,74,67,351,42,75,36,258,46,,,,,,,,*6A
###2023-12-09 13:11:33.008889$GAGSV,1,1,04,04,32,312,41,19,81,195,40,21,84,075,45,27,30,048,42*64
###2023-12-09 13:11:33.011724$GBGSV,2,1,06,14,39,192,43,24,70,032,49,25,44,266,47,26,23,065,42*67
###2023-12-09 13:11:33.013832$GBGSV,2,2,06,33,54,227,48,35,15,065,42,,,,,,,,*60
###2023-12-09 13:11:33.015461$GNVTG,318.01,T,,M,2.97,N,5.51,K,A*25
###2023-12-09 13:11:33.017463$GNGST,181132.10,18.000,,,,0.098,0.072,0.170*55
###2023-12-09 13:11:33.019029$GNZDA,181132.10,09,12,2023,00,00*78
###2023-12-09 13:11:33.019802$GNEBP,,,,,,M*13
###2023-12-09 13:11:33.175370$GNGGA,181132.30,4138.0424269,N,07032.2738673,W,1,24,0.7,12.770,M,-29.743,M,0.0,*5A
###2023-12-09 13:11:33.374009$GNGGA,181132.50,4138.0425519,N,07032.2740206,W,1,24,0.7,12.764,M,-29.743,M,0.0,*51
###2023-12-09 13:11:33.573139$GNGGA,181132.70,4138.0426746,N,07032.2741790,W,1,24,0.7,12.764,M,-29.743,M,0.0,*53
###2023-12-09 13:11:33.773722$GNGGA,181132.90,4138.0427871,N,07032.2743473,W,1,24,0.7,12.766,M,-29.743,M,0.0,*59
###2023-12-09 13:11:33.977316$GNRMC,181133.10,A,4138.0428898,N,07032.2745226,W,2.99,306.00,091223,,,A*5B
###2023-12-09 13:11:33.980201$GNGGA,181133.10,4138.0428898,N,07032.2745226,W,1,24,0.7,12.758,M,-29.743,M,0.0,*55
###2023-12-09 13:11:33.981995$GPGSA,A,3,03,04,16,26,28,29,31,,,,,,1.2,0.7,1.0*30
###2023-12-09 13:11:33.983719$GLGSA,A,3,65,71,72,73,74,75,,,,,,,1.2,0.7,1.0*2E
###2023-12-09 13:11:33.985303$GAGSA,A,3,04,19,21,27,,,,,,,,,1.2,0.7,1.0*2C
###2023-12-09 13:11:33.987023$GBGSA,A,3,14,24,25,26,33,35,,,,,,,1.2,0.7,1.0*23
###2023-12-09 13:11:33.989353$GPGSV,2,1,07,03,33,256,43,04,37,311,42,16,55,215,46,26,85,210,47*77
