###2023-12-09 13:14:58.986878$GPGSA,A,3,03,04,16,26,28,29,31,,,,,,1.2,0.7,1.0*30
###2023-12-09 13:14:58.988621$GLGSA,A,3,65,71,72,73,74,75,,,,,,,1.2,0.7,1.0*2E
###2023-12-09 13:14:58.990212$GAGSA,A,3,04,19,21,27,,,,,,,,,1.2,0.7,1.0*2C
###2023-12-09 13:14:58.991934$GBGSA,A,3,14,24,25,26,33,35,,,,,,,1.2,0.7,1.0*23
###2023-12-09 13:14:58.994251$GPGSV,2,1,07,03,32,255,43,04,38,311,45,16,56,215,46,26,86,209,48*7A
###2023-12-09 13:14:58.996346$GPGSV,2,2,07,28,45,076,45,29,24,055,45,31,65,050,47,,,,*4E
###2023-12-09 13:14:58.998692$GLGSV,2,1,06,65,30,325,44,71,33,174,43,72,71,243,47,73,30,046,46*65
###2023-12-09 13:14:59.000442$GLGSV,2,2,06,74,66,355,43,75,37,260,47,,,,,,,,*65
###2023-12-09 13:14:59.002774$GAGSV,1,1,04,04,33,312,44,19,80,192,40,21,84,066,46,27,29,048,44*69
###2023-12-09 13:14:59.005096$GBGSV,2,1,06,14,37,191,42,24,69,035,49,25,45,267,46,26,22,066,44*61
###2023-12-09 13:14:59.006889$GBGSV,2,2,06,33,53,225,48,35,16,064,44,,,,,,,,*61
###2023-12-09 13:14:59.008209$GNVTG,139.17,T,,M,3.46,N,6.41,K,A*2C
###2023-12-09 13:14:59.009847$GNGST,181458.10,18.000,,,,0.097,0.069,0.160*58
###2023-12-09 13:14:59.011137$GNZDA,181458.10,09,12,2023,00,00*71
###2023-12-09 13:14:59.011774$GNEBP,,,,,,M*13
###2023-12-09 13:14:59.178131$GNGGA,181458.30,4138.0234837,N,07032.2914005,W,1,24,0.7,12.920,M,-29.744,M,0.0,*5E
###2023-12-09 13:14:59.378100$GNGGA,181458.50,4138.0233358,N,07032.2912242,W,1,24,0.7,12.915,M,-29.744,M,0.0,*5C
###2023-12-09 13:14:59.579729$GNGGA,181458.70,4138.0231887,N,07032.2910519,W,1,24,0.7,12.906,M,-29.744,M,0.0,*5C
###2023-12-09 13:14:59.778788$GNGGA,181458.90,4138.0230451,N,07032.2908743,W,1,24,0.7,12.912,M,-29.744,M,0.0,*55
###2023-12-09 13:14:59.982331$GNRMC,181459.10,A,4138.0228945,N,07032.2906968,W,3.58,139.22,091223,,,A*5F
###2023-12-09 13:14:59.985827$GNGGA,181459.10,4138.0228945,N,07032.2906968,W,1,24,0.7,12.913,M,-29.744,M,0.0,*55
###2023-12-09 13:14:59.988036$GPGSA,A,3,03,04,16,26,28,29,31,,,,,,1.2,0.7,1.0*30
###2023-12-09 13:14:59.990115$GLGSA,A,3,65,71,72,73,74,75,,,,,,,1.2,0.7,1.0*2E
###2023-12-09 13:14:59.992062$GAGSA,A,3,04,19,21,27,,,,,,,,,1.2,0.7,1.0*2C
###2023-12-09 13:14:59.994136$GBGSA,A,3,14,24,25,26,33,35,,,,,,,1.2,0.7,1.0*23
###2023-12-09 13:14:59.996969$GPGSV,2,1,07,03,32,255,44,04,38,311,45,16,56,215,46,26,86,209,48*7D
###2023-12-09 13:14:59.999439$GPGSV,2,2,07,28,45,076,45,29,24,055,45,31,65,050,47,,,,*4E
###2023-12-09 13:15:00.002261$GLGSV,2,1,06,65,30,325,44,71,33,174,43,72,71,243,47,73,30,046,45*66
###2023-12-09 13:15:00.004380$GLGSV,2,2,06,74,66,355,43,75,37,260,47,,,,,,,,*65
###2023-12-09 13:15:00.007137$GAGSV,1,1,04,04,33,312,44,19,80,192,40,21,84,066,46,27,29,048,44*69
###2023-12-09 13:15:00.009473$GBGSV,2,1,06,14,37,191,42,24,69,035,48,25,45,267,46,26,22,066,44*60
###2023-12-09 13:15:00.011232$GBGSV,2,2,06,33,53,225,48,35,16,064,44,,,,,,,,*61
###2023-12-09 13:15:00.012549$GNVTG,139.22,T,,M,3.58,N,6.62,K,A*24
###2023-12-09 13:15:00.014196$GNGST,181459.10,18.000,,,,0.097,0.069,0.160*59
###2023-12-09 13:15:00.015499$GNZDA,181459.10,09,12,2023,00,00*70
###2023-12-09 13:15:00.016137$GNEBP,,,,,,M*13
###2023-12-09 13:15:00.178051$GNGGA,181459.30,4138.0227469,N,07032.2905227,W,1,24,0.7,12.895,M,-29.744,M,0.0,*57
###2023-12-09 13:15:00.378470$GNGGA,181459.50,4138.0226024,N,07032.2903456,W,1,24,0.7,12.914,M,-29.744,M,0.0,*53
###2023-12-09 13:15:00.578098$GNGGA,181459.70,4138.0224498,N,07032.2901711,W,1,24,0.7,12.912,M,-29.744,M,0.0,*54
###2023-12-09 13:15:00.779172$GNGGA,181459.90,4138.0223050,N,07032.2899971,W,1,24,0.7,12.903,M,-29.744,M,0.0,*55
###2023-12-09 13:15:00.983552$GNRMC,181500.10,A,4138.0221546,N,07032.2898197,W,3.67,137.52,091223,,,A*5F
###2023-12-09 13:15:00.986424$GNGGA,181500.10,4138.0221546,N,07032.2898197,W,1,24,0.7,12.911,M,-29.744,M,0.0,*52
###2023-12-09 13:15:00.988235$GPGSA,A,3,03,04,16,26,28,29,31,,,,,,1.2,0.7,1.0*30
###2023-12-09 13:15:00.989952$GLGSA,A,3,65,71,72,73,74,75,,,,,,,1.2,0.7,1.0*2E
###2023-12-09 13:15:00.991549$GAGSA,A,3,04,19,21,27,,,,,,,,,1.2,0.7,1.0*2C
###2023-12-09 13:15:00.993265$GBGSA,A,3,14,24,25,26,33,35,,,,,,,1.2,0.7,1.0*23
###2023-12-09 13:15:00.995603$GPGSV,2,1,07,03,32,255,45,04,38,311,46,16,56,215,47,26,86,209,49*7F
###2023-12-09 13:15:00.997647$GPGSV,2,2,07,28,45,076,47,29,24,055,46,31,65,050,48,,,,*40
###2023-12-09 13:15:01.000027$GLGSV,2,1,06,65,30,325,44,71,33,174,43,72,71,243,47,73,30,046,45*66
###2023-12-09 13:15:01.001780$GLGSV,2,2,06,74,66,355,43,75,37,260,47,,,,,,,,*65
###2023-12-09 13:15:01.004117$GAGSV,1,1,04,04,33,312,46,19,80,192,41,21,84,066,47,27,29,048,44*6B
###2023-12-09 13:15:01.006448$GBGSV,2,1,06,14,37,191,42,24,69,035,49,25,45,267,47,26,22,066,45*61
###2023-12-09 13:15:01.008205$GBGSV,2,2,06,33,53,225,48,35,16,064,44,,,,,,,,*61
###2023-12-09 13:15:01.009534$GNVTG,137.52,T,,M,3.67,N,6.80,K,A*2D
###2023-12-09 13:15:01.011216$GNGST,181500.10,18.000,,,,0.097,0.068,0.160*55
###2023-12-09 13:15:01.012511$GNZDA,181500.10,09,12,2023,00,00*7D
###2023-12-09 13:15:01.013150$GNEBP,,,,,,M*13
###2023-12-09 13:15:01.178292$GNGGA,181500.30,4138.0220040,N,07032.2896469,W,1,24,0.7,12.899,M,-29.744,M,0.0,*59
###2023-12-09 13:15:01.379188$GNGGA,181500.50,4138.0218528,N,07032.2894795,W,1,24,0.7,12.904,M,-29.744,M,0.0,*58
###2023-12-09 13:15:01.578069$GNGGA,181500.70,4138.0217026,N,07032.2893098,W,1,24,0.7,12.916,M,-29.744,M,0.0,*50
###2023-12-09 13:15:01.778167$GNGGA,181500.90,4138.0215553,N,07032.2891385,W,1,24,0.7,12.904,M,-29.744,M,0.0,*55
###2023-12-09 13:15:01.981587$GNRMC,181501.10,A,4138.0214053,N,07032.2889722,W,3.54,139.09,091223,,,A*51
###2023-12-09 13:15:01.984463$GNGGA,181501.10,4138.0214053,N,07032.2889722,W,1,24,0.7,12.900,M,-29.744,M,0.0,*5C
###2023-12-09 13:15:01.986250$GPGSA,A,3,03,04,16,26,28,29,31,,,,,,1.2,0.7,1.0*30
###2023-12-09 13:15:01.987969$GLGSA,A,3,65,71,72,73,74,75,,,,,,,1.2,0.7,1.0*2E
###2023-12-09 13:15:01.989549$GAGSA,A,3,04,19,21,27,,,,,,,,,1.2,0.7,1.0*2C
###2023-12-09 13:15:01.991305$GBGSA,A,3,14,24,25,26,33,35,,,,,,,1.2,0.7,1.0*23
###2023-12-09 13:15:01.993631$GPGSV,2,1,07,03,32,255,44,04,38,311,46,16,56,215,47,26,86,209,49*7E
###2023-12-09 13:15:01.995690$GPGSV,2,2,07,28,45,076,46,29,24,055,46,31,65,050,48,,,,*41
###2023-12-09 13:15:01.998018$GLGSV,2,1,06,65,30,325,44,71,33,174,42,72,71,243,47,73,30,046,45*67
###2023-12-09 13:15:01.999772$GLGSV,2,2,06,74,66,355,43,75,37,260,47,,,,,,,,*65
###2023-12-09 13:15:02.002090$GAGSV,1,1,04,04,33,312,44,19,80,192,40,21,84,066,46,27,29,048,44*69
###2023-12-09 13:15:02.004426$GBGSV,2,1,06,14,37,191,43,24,69,035,50,25,45,267,47,26,22,066,46*6B
###2023-12-09 13:15:02.006175$GBGSV,2,2,06,33,53,225,49,35,16,064,45,,,,,,,,*61
###2023-12-09 13:15:02.007512$GNVTG,139.09,T,,M,3.54,N,6.55,K,A*25
###2023-12-09 13:15:02.009160$GNGST,181501.10,18.000,,,,0.097,0.068,0.160*54
###2023-12-09 13:15:02.010449$GNZDA,181501.10,09,12,2023,00,00*7C
###2023-12-09 13:15:02.011100$GNEBP,,,,,,M*13
###2023-12-09 13:15:02.178015$GNGGA,181501.30,4138.0212595,N,07032.2888035,W,1,24,0.7,12.900,M,-29.744,M,0.0,*57
###2023-12-09 13:15:02.377417$GNGGA,181501.50,4138.0211047,N,07032.2886425,W,1,24,0.7,12.912,M,-29.744,M,0.0,*50
###2023-12-09 13:15:02.579027$GNGGA,181501.70,4138.0209565,N,07032.2884743,W,1,24,0.7,12.900,M,-29.744,M,0.0,*5C
###2023-12-09 13:15:02.780321$GNGGA,181501.90,4138.0208149,N,07032.2883036,W,1,24,0.7,12.904,M,-29.744,M,0.0,*5F
###2023-12-09 13:15:02.981541$GNRMC,181502.10,A,4138.0206613,N,07032.2881392,W,3.67,141.98,091223,,,A*53
###2023-12-09 13:15:02.984419$GNGGA,181502.10,4138.0206613,N,07032.2881392,W,1,24,0.7,12.916,M,-29.744,M,0.0,*5E
###2023-12-09 13:15:02.986210$GPGSA,A,3,03,04,16,26,28,29,31,,,,,,1.2,0.7,1.0*30
###2023-12-09 13:15:02.987935$GLGSA,A,3,65,71,72,73,74,75,,,,,,,1.2,0.7,1.0*2E
###2023-12-09 13:15:02.989519$GAGSA,A,3,04,19,21,27,,,,,,,,,1.2,0.7,1.0*2C
###2023-12-09 13:15:02.991244$GBGSA,A,3,14,24,25,26,33,35,,,,,,,1.2,0.7,1.0*23
###2023-12-09 13:15:02.993573$GPGSV,2,1,07,03,32,255,44,04,38,311,46,16,56,215,47,26,86,209,48*7F
###2023-12-09 13:15:02.995629$GPGSV,2,2,07,28,45,076,46,29,24,055,46,31,65,050,48,,,,*41
###2023-12-09 13:15:02.997962$GLGSV,2,1,06,65,30,325,43,71,33,174,44,72,71,243,47,73,30,046,46*65
###2023-12-09 13:15:03.000001$GLGSV,2,2,06,74,66,355,43,75,37,260,47,,,,,,,,*65
###2023-12-09 13:15:03.002345$GAGSV,1,1,04,04,33,312,44,19,80,192,40,21,84,066,45,27,29,048,45*6B
###2023-12-09 13:15:03.004690$GBGSV,2,1,06,14,37,191,42,24,69,035,49,25,45,267,46,26,22,066,44*61
###2023-12-09 13:15:03.006429$GBGSV,2,2,06,33,53,225,48,35,16,064,44,,,,,,,,*61
###2023-12-09 13:15:03.007755$GNVTG,141.98,T,,M,3.67,N,6.80,K,A*2A
###2023-12-09 13:15:03.009406$GNGST,181502.10,18.000,,,,0.097,0.068,0.160*57
###2023-12-09 13:15:03.010709$GNZDA,181502.10,09,12,2023,00,00*7F
###2023-12-09 13:15:03.011348$GNEBP,,,,,,M*13
###2023-12-09 13:15:03.180277$GNGGA,181502.30,4138.0205110,N,07032.2879727,W,1,24,0.7,12.905,M,-29.744,M,0.0,*54
