###2023-12-09 12:38:51.957088$GLGSV,2,2,05,75,23,242,41,,,,,,,,,,,,*52
###2023-12-09 12:38:51.959453$GAGSV,1,1,04,04,22,311,42,19,82,296,41,21,79,174,46,27,40,049,45*67
###2023-12-09 12:38:51.961781$GBGSV,2,1,05,14,53,197,45,24,80,351,48,25,33,253,43,26,34,058,45*6E
###2023-12-09 12:38:51.963248$GBGSV,2,2,05,33,63,252,47,,,,,,,,,,,,*5D
###2023-12-09 12:38:51.964571$GNVTG,296.46,T,,M,0.31,N,0.58,K,A*23
###2023-12-09 12:38:51.966213$GNGST,173851.10,18.000,,,,0.082,0.071,0.170*5C
###2023-12-09 12:38:51.967515$GNZDA,173851.10,09,12,2023,00,00*79
###2023-12-09 12:38:51.968150$GNEBP,,,,,,M*13
###2023-12-09 12:38:52.139699$GNGGA,173851.30,4138.0539145,N,07032.3686169,W,1,23,0.7,13.762,M,-29.744,M,0.0,*50
###2023-12-09 12:38:52.339516$GNGGA,173851.50,4138.0539361,N,07032.3686722,W,1,23,0.7,13.776,M,-29.744,M,0.0,*5E
###2023-12-09 12:38:52.538049$GNGGA,173851.70,4138.0539573,N,07032.3687308,W,1,23,0.7,13.770,M,-29.744,M,0.0,*52
###2023-12-09 12:38:52.738002$GNGGA,173851.90,4138.0539537,N,07032.3687489,W,1,23,0.7,13.754,M,-29.744,M,0.0,*54
###2023-12-09 12:38:52.939390$GNRMC,173852.10,A,4138.0539414,N,07032.3687495,W,0.21,298.50,091223,,,A*53
###2023-12-09 12:38:52.942234$GNGGA,173852.10,4138.0539414,N,07032.3687495,W,1,23,0.7,13.756,M,-29.744,M,0.0,*50
###2023-12-09 12:38:52.944093$GPGSA,A,3,03,04,16,26,28,29,31,32,,,,,1.2,0.7,1.0*31
###2023-12-09 12:38:52.945733$GLGSA,A,3,71,72,73,74,75,,,,,,,,1.2,0.7,1.0*2D
###2023-12-09 12:38:52.947332$GAGSA,A,3,04,19,21,27,,,,,,,,,1.2,0.7,1.0*2C
###2023-12-09 12:38:52.948992$GBGSA,A,3,14,24,25,26,33,,,,,,,,1.2,0.7,1.0*25
###2023-12-09 12:38:52.951336$GPGSV,2,1,08,03,38,275,44,04,23,311,42,16,38,208,42,26,68,207,47*76
###2023-12-09 12:38:52.953671$GPGSV,2,2,08,28,57,058,45,29,25,072,43,31,73,007,48,32,28,135,45*7B
###2023-12-09 12:38:52.956024$GLGSV,2,1,05,71,55,169,48,72,67,307,47,73,46,034,47,74,71,296,43*69
###2023-12-09 12:38:52.957486$GLGSV,2,2,05,75,23,242,39,,,,,,,,,,,,*5D
###2023-12-09 12:38:52.959832$GAGSV,1,1,04,04,22,311,42,19,82,296,41,21,79,174,46,27,40,049,44*66
###2023-12-09 12:38:52.962154$GBGSV,2,1,05,14,53,197,46,24,80,351,49,25,33,253,43,26,34,058,46*6F
###2023-12-09 12:38:52.963622$GBGSV,2,2,05,33,63,252,48,,,,,,,,,,,,*52
###2023-12-09 12:38:52.964943$GNVTG,298.50,T,,M,0.21,N,0.40,K,A*22
###2023-12-09 12:38:52.966602$GNGST,173852.10,19.000,,,,0.081,0.070,0.170*5C
###2023-12-09 12:38:52.967900$GNZDA,173852.10,09,12,2023,00,00*7A
###2023-12-09 12:38:52.968540$GNEBP,,,,,,M*13
###2023-12-09 12:38:53.138607$GNGGA,173852.30,4138.0539512,N,07032.3687882,W,1,23,0.7,13.771,M,-29.744,M,0.0,*5A
###2023-12-09 12:38:53.338342$GNGGA,173852.50,4138.0539744,N,07032.3688488,W,1,23,0.7,13.774,M,-29.744,M,0.0,*51
###2023-12-09 12:38:53.539059$GNGGA,173852.70,4138.0539811,N,07032.3688826,W,1,23,0.7,13.755,M,-29.744,M,0.0,*57
###2023-12-09 12:38:53.737902$GNGGA,173852.90,4138.0539734,N,07032.3688910,W,1,23,0.7,13.755,M,-29.744,M,0.0,*55
###2023-12-09 12:38:53.941549$GNRMC,173853.10,A,4138.0539718,N,07032.3689141,W,0.58,297.49,091223,,,A*56
###2023-12-09 12:38:53.944417$GNGGA,173853.10,4138.0539718,N,07032.3689141,W,1,23,0.7,13.756,M,-29.744,M,0.0,*5C
###2023-12-09 12:38:53.946282$GPGSA,A,3,03,04,16,26,28,29,31,32,,,,,1.2,0.7,1.0*31
###2023-12-09 12:38:53.947965$GLGSA,A,3,71,72,73,74,75,,,,,,,,1.2,0.7,1.0*2D
###2023-12-09 12:38:53.949561$GAGSA,A,3,04,19,21,27,,,,,,,,,1.2,0.7,1.0*2C
###2023-12-09 12:38:53.951226$GBGSA,A,3,14,24,25,26,33,,,,,,,,1.2,0.7,1.0*25
###2023-12-09 12:38:53.953557$GPGSV,2,1,08,03,38,275,43,04,23,311,41,16,38,208,42,26,68,207,47*72
###2023-12-09 12:38:53.955899$GPGSV,2,2,08,28,57,058,45,29,25,072,43,31,73,007,48,32,28,135,45*7B
###2023-12-09 12:38:53.958240$GLGSV,2,1,05,71,55,169,48,72,67,307,46,73,46,034,46,74,71,296,43*69
###2023-12-09 12:38:53.959712$GLGSV,2,2,05,75,23,242,39,,,,,,,,,,,,*5D
###2023-12-09 12:38:53.962042$GAGSV,1,1,04,04,22,311,40,19,82,296,40,21,79,174,45,27,40,049,44*66
###2023-12-09 12:38:53.964384$GBGSV,2,1,05,14,53,197,44,24,80,351,48,25,33,253,42,26,34,058,45*6E
###2023-12-09 12:38:53.965837$GBGSV,2,2,05,33,63,252,47,,,,,,,,,,,,*5D
###2023-12-09 12:38:53.967175$GNVTG,297.49,T,,M,0.58,N,1.08,K,A*26
###2023-12-09 12:38:53.968826$GNGST,173853.10,19.000,,,,0.081,0.070,0.170*5D
###2023-12-09 12:38:53.970116$GNZDA,173853.10,09,12,2023,00,00*7B
###2023-12-09 12:38:53.970825$GNEBP,,,,,,M*13
###2023-12-09 12:38:54.138582$GNGGA,173853.30,4138.0539828,N,07032.3689637,W,1,23,0.7,13.760,M,-29.744,M,0.0,*51
###2023-12-09 12:38:54.338654$GNGGA,173853.50,4138.0539898,N,07032.3690139,W,1,23,0.7,13.752,M,-29.744,M,0.0,*5C
###2023-12-09 12:38:54.538797$GNGGA,173853.70,4138.0539849,N,07032.3690450,W,1,23,0.7,13.744,M,-29.744,M,0.0,*5F
###2023-12-09 12:38:54.737991$GNGGA,173853.90,4138.0539697,N,07032.3690636,W,1,23,0.7,13.739,M,-29.744,M,0.0,*54
###2023-12-09 12:38:54.941364$GNRMC,173854.10,A,4138.0539587,N,07032.3690959,W,0.66,297.49,091223,,,A*51
###2023-12-09 12:38:54.944255$GNGGA,173854.10,4138.0539587,N,07032.3690959,W,1,23,0.7,13.735,M,-29.744,M,0.0,*53
###2023-12-09 12:38:54.946118$GPGSA,A,3,03,04,16,26,28,29,31,32,,,,,1.2,0.7,1.0*31
###2023-12-09 12:38:54.947806$GLGSA,A,3,71,72,73,74,75,,,,,,,,1.2,0.7,1.0*2D
###2023-12-09 12:38:54.949413$GAGSA,A,3,04,19,21,27,,,,,,,,,1.2,0.7,1.0*2C
###2023-12-09 12:38:54.951077$GBGSA,A,3,14,24,25,26,33,,,,,,,,1.2,0.7,1.0*25
###2023-12-09 12:38:54.953418$GPGSV,2,1,08,03,38,275,43,04,23,311,41,16,38,208,42,26,68,207,47*72
###2023-12-09 12:38:54.955771$GPGSV,2,2,08,28,57,058,45,29,25,072,44,31,73,007,48,32,28,135,45*7C
###2023-12-09 12:38:54.958112$GLGSV,2,1,05,71,55,169,48,72,67,307,46,73,46,034,46,74,71,296,43*69
###2023-12-09 12:38:54.959591$GLGSV,2,2,05,75,23,242,40,,,,,,,,,,,,*53
###2023-12-09 12:38:54.961921$GAGSV,1,1,04,04,22,311,40,19,82,296,40,21,79,174,45,27,40,049,44*66
###2023-12-09 12:38:54.964277$GBGSV,2,1,05,14,53,197,45,24,80,351,48,25,33,253,42,26,34,058,46*6C
###2023-12-09 12:38:54.965738$GBGSV,2,2,05,33,63,252,46,,,,,,,,,,,,*5C
###2023-12-09 12:38:54.967080$GNVTG,297.49,T,,M,0.66,N,1.22,K,A*23
###2023-12-09 12:38:54.968739$GNGST,173854.10,18.000,,,,0.081,0.070,0.170*5B
###2023-12-09 12:38:54.970043$GNZDA,173854.10,09,12,2023,00,00*7C
###2023-12-09 12:38:54.970695$GNEBP,,,,,,M*13
###2023-12-09 12:38:55.138405$GNGGA,173854.30,4138.0539576,N,07032.3691566,W,1,23,0.7,13.746,M,-29.744,M,0.0,*5A
###2023-12-09 12:38:55.338481$GNGGA,173854.50,4138.0539519,N,07032.3692223,W,1,23,0.7,13.736,M,-29.744,M,0.0,*57
###2023-12-09 12:38:55.538814$GNGGA,173854.70,4138.0539273,N,07032.3692620,W,1,23,0.7,13.722,M,-29.744,M,0.0,*5C
###2023-12-09 12:38:55.743469$GNGGA,173854.90,4138.0538969,N,07032.3692997,W,1,23,0.7,13.716,M,-29.744,M,0.0,*57
###2023-12-09 12:38:55.939396$GNRMC,173855.10,A,4138.0538760,N,07032.3693664,W,1.09,252.64,091223,,,A*56
###2023-12-09 12:38:55.942283$GNGGA,173855.10,4138.0538760,N,07032.3693664,W,1,23,0.7,13.712,M,-29.744,M,0.0,*5F
###2023-12-09 12:38:55.944158$GPGSA,A,3,03,04,16,26,28,29,31,32,,,,,1.2,0.7,1.0*31
###2023-12-09 12:38:55.945815$GLGSA,A,3,71,72,73,74,75,,,,,,,,1.2,0.7,1.0*2D
###2023-12-09 12:38:55.947424$GAGSA,A,3,04,19,21,27,,,,,,,,,1.2,0.7,1.0*2C
###2023-12-09 12:38:55.949089$GBGSA,A,3,14,24,25,26,33,,,,,,,,1.2,0.7,1.0*25
###2023-12-09 12:38:55.951441$GPGSV,2,1,08,03,38,275,43,04,23,311,42,16,38,208,42,26,68,207,47*71
###2023-12-09 12:38:55.953775$GPGSV,2,2,08,28,57,058,45,29,25,072,44,31,73,007,47,32,28,135,45*73
###2023-12-09 12:38:55.956124$GLGSV,2,1,05,71,55,169,48,72,67,307,46,73,46,034,46,74,71,296,43*69
###2023-12-09 12:38:55.957587$GLGSV,2,2,05,75,23,242,41,,,,,,,,,,,,*52
###2023-12-09 12:38:55.959941$GAGSV,1,1,04,04,22,311,41,19,82,296,40,21,79,174,45,27,40,049,44*67
###2023-12-09 12:38:55.962281$GBGSV,2,1,05,14,53,197,44,24,80,351,48,25,33,253,42,26,34,058,46*6D
###2023-12-09 12:38:55.963756$GBGSV,2,2,05,33,63,252,46,,,,,,,,,,,,*5C
###2023-12-09 12:38:55.965089$GNVTG,252.64,T,,M,1.09,N,2.02,K,A*2C
###2023-12-09 12:38:55.966761$GNGST,173855.10,19.000,,,,0.081,0.070,0.170*5B
###2023-12-09 12:38:55.968059$GNZDA,173855.10,09,12,2023,00,00*7D
###2023-12-09 12:38:55.968702$GNEBP,,,,,,M*13
###2023-12-09 12:38:56.137624$GNGGA,173855.30,4138.0538568,N,07032.3694385,W,1,23,0.7,13.699,M,-29.744,M,0.0,*58
###2023-12-09 12:38:56.339372$GNGGA,173855.50,4138.0538358,N,07032.3695071,W,1,23,0.7,13.696,M,-29.744,M,0.0,*5D
###2023-12-09 12:38:56.538954$GNGGA,173855.70,4138.0538065,N,07032.3695762,W,1,23,0.7,13.705,M,-29.744,M,0.0,*5C
###2023-12-09 12:38:56.737944$GNGGA,173855.90,4138.0537686,N,07032.3696480,W,1,23,0.7,13.684,M,-29.744,M,0.0,*52
###2023-12-09 12:38:56.946217$GNRMC,173856.10,A,4138.0537306,N,07032.3697202,W,1.26,238.28,091223,,,A*57
###2023-12-09 12:38:56.949120$GNGGA,173856.10,4138.0537306,N,07032.3697202,W,1,23,0.7,13.653,M,-29.744,M,0.0,*53
###2023-12-09 12:38:56.950999$GPGSA,A,3,03,04,16,26,28,29,31,32,,,,,1.2,0.7,1.0*31
###2023-12-09 12:38:56.952644$GLGSA,A,3,71,72,73,74,75,,,,,,,,1.2,0.7,1.0*2D
