###2023-12-09 12:25:41.942066$GNGST,172541.10,30.000,,,,0.230,0.220,0.470*53
###2023-12-09 12:25:41.943537$GNZDA,172541.10,09,12,2023,00,00*74
###2023-12-09 12:25:41.944301$GNEBP,,,,,,M*13
###2023-12-09 12:25:42.116810$GNGGA,172541.30,4138.0384792,N,07032.4361930,W,1,18,0.8,10.223,M,-29.746,M,0.0,*58
###2023-12-09 12:25:42.317086$GNGGA,172541.50,4138.0384768,N,07032.4361909,W,1,18,0.8,10.222,M,-29.746,M,0.0,*50
###2023-12-09 12:25:42.516213$GNGGA,172541.70,4138.0384748,N,07032.4361888,W,1,18,0.8,10.216,M,-29.746,M,0.0,*5F
###2023-12-09 12:25:42.715781$GNGGA,172541.90,4138.0384722,N,07032.4361860,W,1,18,0.8,10.214,M,-29.746,M,0.0,*59
###2023-12-09 12:25:42.918621$GNRMC,172542.10,A,4138.0384692,N,07032.4361838,W,0.02,,091223,,,A*4A
###2023-12-09 12:25:42.921695$GNGGA,172542.10,4138.0384692,N,07032.4361838,W,1,18,0.8,10.209,M,-29.746,M,0.0,*59
###2023-12-09 12:25:42.923760$GPGSA,A,3,03,16,25,26,28,29,31,32,,,,,1.4,0.8,1.1*3A
###2023-12-09 12:25:42.925538$GLGSA,A,3,71,72,73,75,,,,,,,,,1.4,0.8,1.1*26
###2023-12-09 12:25:42.927177$GAGSA,A,3,21,27,,,,,,,,,,,1.4,0.8,1.1*28
###2023-12-09 12:25:42.928927$GBGSA,A,3,14,25,26,33,,,,,,,,,1.4,0.8,1.1*2B
###2023-12-09 12:25:42.931437$GPGSV,2,1,08,03,39,282,44,16,32,206,40,25,15,045,39,26,62,205,45*7B
###2023-12-09 12:25:42.933822$GPGSV,2,2,08,28,61,050,43,29,24,078,43,31,73,346,37,32,34,132,47*7D
###2023-12-09 12:25:42.936194$GLGSV,1,1,04,71,62,167,45,72,61,316,42,73,52,030,48,75,18,237,43*64
###2023-12-09 12:25:42.937962$GAGSV,1,1,02,21,74,180,44,27,45,051,46,,,,,,,,*61
###2023-12-09 12:25:42.940325$GBGSV,1,1,04,14,59,200,45,25,29,249,38,26,38,055,48,33,64,264,39*66
###2023-12-09 12:25:42.941475$GNVTG,,T,,M,0.02,N,0.04,K,A*3B
###2023-12-09 12:25:42.943160$GNGST,172542.10,29.000,,,,0.230,0.220,0.480*57
###2023-12-09 12:25:42.944475$GNZDA,172542.10,09,12,2023,00,00*77
###2023-12-09 12:25:42.945129$GNEBP,,,,,,M*13
###2023-12-09 12:25:43.115693$GNGGA,172542.30,4138.0384668,N,07032.4361831,W,1,18,0.8,10.201,M,-29.746,M,0.0,*5F
###2023-12-09 12:25:43.316832$GNGGA,172542.50,4138.0384650,N,07032.4361823,W,1,18,0.8,10.197,M,-29.746,M,0.0,*5D
###2023-12-09 12:25:43.515765$GNGGA,172542.70,4138.0384631,N,07032.4361818,W,1,18,0.8,10.191,M,-29.746,M,0.0,*56
###2023-12-09 12:25:43.714701$GNGGA,172542.90,4138.0384595,N,07032.4361796,W,1,18,0.8,10.185,M,-29.746,M,0.0,*59
###2023-12-09 12:25:43.917016$GNRMC,172543.10,A,4138.0384572,N,07032.4361779,W,0.02,,091223,,,A*4C
###2023-12-09 12:25:43.920130$GNGGA,172543.10,4138.0384572,N,07032.4361779,W,1,18,0.8,10.181,M,-29.746,M,0.0,*5C
###2023-12-09 12:25:43.922020$GPGSA,A,3,03,16,25,26,28,29,31,32,,,,,1.4,0.8,1.1*3A
###2023-12-09 12:25:43.923644$GLGSA,A,3,71,72,73,75,,,,,,,,,1.4,0.8,1.1*26
###2023-12-09 12:25:43.925114$GAGSA,A,3,21,27,,,,,,,,,,,1.4,0.8,1.1*28
###2023-12-09 12:25:43.926734$GBGSA,A,3,14,25,26,33,,,,,,,,,1.4,0.8,1.1*2B
###2023-12-09 12:25:43.929090$GPGSV,2,1,08,03,39,282,45,16,32,206,40,25,15,045,39,26,62,205,45*7A
###2023-12-09 12:25:43.931460$GPGSV,2,2,08,28,61,050,43,29,24,078,43,31,73,346,38,32,34,132,46*73
###2023-12-09 12:25:43.933813$GLGSV,1,1,04,71,62,167,45,72,61,316,42,73,52,030,48,75,18,237,43*64
###2023-12-09 12:25:43.935592$GAGSV,1,1,02,21,74,180,44,27,45,051,46,,,,,,,,*61
###2023-12-09 12:25:43.937943$GBGSV,1,1,04,14,59,200,45,25,29,249,39,26,38,055,48,33,64,264,39*67
###2023-12-09 12:25:43.939113$GNVTG,,T,,M,0.02,N,0.04,K,A*3B
###2023-12-09 12:25:43.940786$GNGST,172543.10,29.000,,,,0.230,0.220,0.480*56
###2023-12-09 12:25:43.942087$GNZDA,172543.10,09,12,2023,00,00*76
###2023-12-09 12:25:43.942749$GNEBP,,,,,,M*13
###2023-12-09 12:25:44.115520$GNGGA,172543.30,4138.0384557,N,07032.4361764,W,1,18,0.8,10.175,M,-29.746,M,0.0,*5E
###2023-12-09 12:25:44.315608$GNGGA,172543.50,4138.0384539,N,07032.4361751,W,1,18,0.8,10.170,M,-29.746,M,0.0,*53
###2023-12-09 12:25:44.515457$GNGGA,172543.70,4138.0384514,N,07032.4361736,W,1,18,0.8,10.166,M,-29.746,M,0.0,*58
###2023-12-09 12:25:44.714687$GNGGA,172543.90,4138.0384483,N,07032.4361702,W,1,18,0.8,10.161,M,-29.746,M,0.0,*59
###2023-12-09 12:25:44.920608$GNRMC,172544.10,A,4138.0384458,N,07032.4361687,W,0.02,,091223,,,A*42
###2023-12-09 12:25:44.923498$GNGGA,172544.10,4138.0384458,N,07032.4361687,W,1,18,0.8,10.153,M,-29.746,M,0.0,*5D
###2023-12-09 12:25:44.925373$GPGSA,A,3,03,16,25,26,28,29,31,32,,,,,1.4,0.8,1.1*3A
###2023-12-09 12:25:44.926985$GLGSA,A,3,71,72,73,75,,,,,,,,,1.4,0.8,1.1*26
###2023-12-09 12:25:44.928451$GAGSA,A,3,21,27,,,,,,,,,,,1.4,0.8,1.1*28
###2023-12-09 12:25:44.930046$GBGSA,A,3,14,25,26,33,,,,,,,,,1.4,0.8,1.1*2B
###2023-12-09 12:25:44.932407$GPGSV,2,1,08,03,39,282,45,16,32,206,40,25,15,045,38,26,62,205,45*7B
###2023-12-09 12:25:44.934766$GPGSV,2,2,08,28,61,050,43,29,24,078,42,31,73,346,37,32,34,132,47*7C
###2023-12-09 12:25:44.937119$GLGSV,1,1,04,71,62,167,45,72,61,316,42,73,52,030,48,75,18,237,43*64
###2023-12-09 12:25:44.938892$GAGSV,1,1,02,21,74,180,45,27,45,051,46,,,,,,,,*60
###2023-12-09 12:25:44.941243$GBGSV,1,1,04,14,59,200,44,25,29,249,39,26,38,055,48,33,64,264,39*66
###2023-12-09 12:25:44.942402$GNVTG,,T,,M,0.02,N,0.04,K,A*3B
###2023-12-09 12:25:44.944076$GNGST,172544.10,29.000,,,,0.230,0.220,0.480*51
###2023-12-09 12:25:44.945390$GNZDA,172544.10,09,12,2023,00,00*71
###2023-12-09 12:25:44.946050$GNEBP,,,,,,M*13
###2023-12-09 12:25:45.117571$GNGGA,172544.30,4138.0384437,N,07032.4361661,W,1,18,0.8,10.150,M,-29.746,M,0.0,*5D
###2023-12-09 12:25:45.316598$GNGGA,172544.50,4138.0384418,N,07032.4361655,W,1,18,0.8,10.147,M,-29.746,M,0.0,*57
###2023-12-09 12:25:45.515731$GNGGA,172544.70,4138.0384389,N,07032.4361635,W,1,18,0.8,10.141,M,-29.746,M,0.0,*5A
###2023-12-09 12:25:45.715616$GNGGA,172544.90,4138.0384363,N,07032.4361611,W,1,18,0.8,10.138,M,-29.746,M,0.0,*58
###2023-12-09 12:25:45.916732$GNRMC,172545.10,A,4138.0384344,N,07032.4361581,W,0.04,,091223,,,A*4A
###2023-12-09 12:25:45.919611$GNGGA,172545.10,4138.0384344,N,07032.4361581,W,1,18,0.8,10.133,M,-29.746,M,0.0,*55
###2023-12-09 12:25:45.921491$GPGSA,A,3,03,16,25,26,28,29,31,32,,,,,1.4,0.8,1.1*3A
###2023-12-09 12:25:45.923109$GLGSA,A,3,71,72,73,75,,,,,,,,,1.4,0.8,1.1*26
###2023-12-09 12:25:45.924584$GAGSA,A,3,21,27,,,,,,,,,,,1.4,0.8,1.1*28
###2023-12-09 12:25:45.926187$GBGSA,A,3,14,25,26,33,,,,,,,,,1.4,0.8,1.1*2B
###2023-12-09 12:25:45.928554$GPGSV,2,1,08,03,39,282,44,16,32,206,40,25,15,045,38,26,62,205,45*7A
###2023-12-09 12:25:45.930922$GPGSV,2,2,08,28,61,050,43,29,24,078,44,31,73,346,38,32,34,132,47*75
###2023-12-09 12:25:45.933279$GLGSV,1,1,04,71,62,167,45,72,61,316,42,73,52,030,48,75,18,237,43*64
###2023-12-09 12:25:45.935061$GAGSV,1,1,02,21,74,180,45,27,45,051,46,,,,,,,,*60
###2023-12-09 12:25:45.937403$GBGSV,1,1,04,14,59,200,45,25,29,249,40,26,38,055,49,33,64,264,40*66
###2023-12-09 12:25:45.938557$GNVTG,,T,,M,0.04,N,0.07,K,A*3E
###2023-12-09 12:25:45.940276$GNGST,172545.10,29.000,,,,0.230,0.220,0.480*50
###2023-12-09 12:25:45.941579$GNZDA,172545.10,09,12,2023,00,00*70
###2023-12-09 12:25:45.942229$GNEBP,,,,,,M*13
###2023-12-09 12:25:46.116863$GNGGA,172545.30,4138.0384324,N,07032.4361560,W,1,18,0.8,10.126,M,-29.746,M,0.0,*5A
###2023-12-09 12:25:46.316651$GNGGA,172545.50,4138.0384297,N,07032.4361539,W,1,18,0.8,10.122,M,-29.746,M,0.0,*5D
###2023-12-09 12:25:46.516951$GNGGA,172545.70,4138.0384271,N,07032.4361513,W,1,18,0.8,10.119,M,-29.746,M,0.0,*57
###2023-12-09 12:25:46.715656$GNGGA,172545.90,4138.0384240,N,07032.4361480,W,1,18,0.8,10.112,M,-29.746,M,0.0,*5B
###2023-12-09 12:25:46.919298$GNRMC,172546.10,A,4138.0384214,N,07032.4361457,W,0.06,,091223,,,A*45
###2023-12-09 12:25:46.922165$GNGGA,172546.10,4138.0384214,N,07032.4361457,W,1,18,0.8,10.102,M,-29.746,M,0.0,*5A
###2023-12-09 12:25:46.924054$GPGSA,A,3,03,16,25,26,28,29,31,32,,,,,1.4,0.8,1.1*3A
###2023-12-09 12:25:46.925658$GLGSA,A,3,71,72,73,75,,,,,,,,,1.4,0.8,1.1*26
###2023-12-09 12:25:46.927147$GAGSA,A,3,21,27,,,,,,,,,,,1.4,0.8,1.1*28
###2023-12-09 12:25:46.928748$GBGSA,A,3,14,25,26,33,,,,,,,,,1.4,0.8,1.1*2B
###2023-12-09 12:25:46.931106$GPGSV,2,1,08,03,39,282,44,16,32,206,40,25,15,045,39,26,62,205,45*7B
###2023-12-09 12:25:46.933473$GPGSV,2,2,08,28,61,050,43,29,24,078,43,31,73,346,38,32,34,132,47*72
###2023-12-09 12:25:46.936085$GLGSV,1,1,04,71,62,167,46,72,61,316,42,73,52,030,48,75,18,237,43*67
###2023-12-09 12:25:46.937857$GAGSV,1,1,02,21,74,180,45,27,45,051,46,,,,,,,,*60
###2023-12-09 12:25:46.940222$GBGSV,1,1,04,14,59,200,45,25,29,249,40,26,38,055,49,33,64,264,40*66
###2023-12-09 12:25:46.941379$GNVTG,,T,,M,0.06,N,0.11,K,A*3B
###2023-12-09 12:25:46.943053$GNGST,172546.10,29.000,,,,0.230,0.220,0.480*53
###2023-12-09 12:25:46.944358$GNZDA,172546.10,09,12,2023,00,00*73
###2023-12-09 12:25:46.945019$GNEBP,,,,,,M*13
###2023-12-09 12:25:47.117525$GNGGA,172546.30,4138.0384174,N,07032.4361435,W,1,18,0.8,10.092,M,-29.746,M,0.0,*51
###2023-12-09 12:25:47.317635$GNGGA,172546.50,4138.0384144,N,07032.4361412,W,1,18,0.8,10.089,M,-29.746,M,0.0,*5B
