###2023-12-09 13:47:51.035047$GNEBP,,,,,,M*13
###2023-12-09 13:47:51.211718$GNGGA,184750.30,4138.0391454,N,07032.4383774,W,1,18,0.8,15.766,M,-29.746,M,0.0,*5D
###2023-12-09 13:47:51.406371$GNGGA,184750.50,4138.0391436,N,07032.4383770,W,1,18,0.8,15.764,M,-29.746,M,0.0,*59
###2023-12-09 13:47:51.605027$GNGGA,184750.70,4138.0391415,N,07032.4383767,W,1,18,0.8,15.761,M,-29.746,M,0.0,*59
###2023-12-09 13:47:51.806179$GNGGA,184750.90,4138.0391416,N,07032.4383757,W,1,18,0.8,15.765,M,-29.746,M,0.0,*53
###2023-12-09 13:47:52.010147$GNRMC,184751.10,A,4138.0391400,N,07032.4383744,W,0.00,243.17,091223,,,A*59
###2023-12-09 13:47:52.013043$GNGGA,184751.10,4138.0391400,N,07032.4383744,W,1,18,0.8,15.769,M,-29.746,M,0.0,*53
###2023-12-09 13:47:52.014790$GPGSA,A,3,04,16,26,28,29,31,,,,,,,1.3,0.8,1.1*3C
###2023-12-09 13:47:52.016437$GLGSA,A,3,65,72,73,74,75,,,,,,,,1.3,0.8,1.1*27
###2023-12-09 13:47:52.017954$GAGSA,A,3,04,21,27,,,,,,,,,,1.3,0.8,1.1*2B
###2023-12-09 13:47:52.019554$GBGSA,A,3,12,24,25,35,,,,,,,,,1.3,0.8,1.1*2E
###2023-12-09 13:47:52.021889$GPGSV,2,1,06,04,51,304,49,16,73,229,40,26,77,041,44,28,33,090,44*7A
###2023-12-09 13:47:52.023657$GPGSV,2,2,06,29,17,042,42,31,55,075,50,,,,,,,,*77
###2023-12-09 13:47:52.025985$GLGSV,2,1,05,65,43,312,44,72,56,213,36,73,17,056,41,74,55,024,37*61
###2023-12-09 13:47:52.027456$GLGSV,2,2,05,75,47,280,47,,,,,,,,,,,,*58
###2023-12-09 13:47:52.029498$GAGSV,1,1,03,04,44,307,45,21,72,043,39,27,19,051,40,,,,*5C
###2023-12-09 13:47:52.031853$GBGSV,1,1,04,12,19,122,40,24,58,052,46,25,54,282,44,35,16,051,36*61
###2023-12-09 13:47:52.033180$GNVTG,243.17,T,,M,0.00,N,0.00,K,A*20
###2023-12-09 13:47:52.034816$GNGST,184751.10,7.500,,,,0.210,0.120,0.320*6B
###2023-12-09 13:47:52.036117$GNZDA,184751.10,09,12,2023,00,00*7E
###2023-12-09 13:47:52.036760$GNEBP,,,,,,M*13
###2023-12-09 13:47:52.209864$GNGGA,184751.30,4138.0391394,N,07032.4383746,W,1,18,0.8,15.762,M,-29.746,M,0.0,*52
###2023-12-09 13:47:52.406343$GNGGA,184751.50,4138.0391394,N,07032.4383733,W,1,18,0.8,15.763,M,-29.746,M,0.0,*57
###2023-12-09 13:47:52.606183$GNGGA,184751.70,4138.0391386,N,07032.4383719,W,1,18,0.8,15.760,M,-29.746,M,0.0,*5D
###2023-12-09 13:47:52.806975$GNGGA,184751.90,4138.0391380,N,07032.4383714,W,1,18,0.8,15.763,M,-29.746,M,0.0,*5B
###2023-12-09 13:47:53.009290$GNRMC,184752.10,A,4138.0391359,N,07032.4383704,W,0.02,243.17,091223,,,A*57
###2023-12-09 13:47:53.012182$GNGGA,184752.10,4138.0391359,N,07032.4383704,W,1,18,0.8,15.763,M,-29.746,M,0.0,*55
###2023-12-09 13:47:53.013926$GPGSA,A,3,04,16,26,28,29,31,,,,,,,1.3,0.8,1.1*3C
###2023-12-09 13:47:53.015591$GLGSA,A,3,65,72,73,74,75,,,,,,,,1.3,0.8,1.1*27
###2023-12-09 13:47:53.017107$GAGSA,A,3,04,21,27,,,,,,,,,,1.3,0.8,1.1*2B
###2023-12-09 13:47:53.018697$GBGSA,A,3,12,24,25,35,,,,,,,,,1.3,0.8,1.1*2E
###2023-12-09 13:47:53.021027$GPGSV,2,1,06,04,51,304,49,16,73,229,40,26,77,041,44,28,33,090,43*7D
###2023-12-09 13:47:53.022793$GPGSV,2,2,06,29,17,042,41,31,55,075,50,,,,,,,,*74
###2023-12-09 13:47:53.025126$GLGSV,2,1,05,65,43,312,44,72,56,213,35,73,17,056,41,74,55,024,37*62
###2023-12-09 13:47:53.026590$GLGSV,2,2,05,75,47,280,47,,,,,,,,,,,,*58
###2023-12-09 13:47:53.028626$GAGSV,1,1,03,04,44,307,46,21,72,043,39,27,19,051,40,,,,*5F
###2023-12-09 13:47:53.030969$GBGSV,1,1,04,12,19,122,40,24,58,052,46,25,54,282,44,35,16,051,36*61
###2023-12-09 13:47:53.032300$GNVTG,243.17,T,,M,0.02,N,0.04,K,A*26
###2023-12-09 13:47:53.033919$GNGST,184752.10,7.800,,,,0.210,0.120,0.320*65
###2023-12-09 13:47:53.035226$GNZDA,184752.10,09,12,2023,00,00*7D
###2023-12-09 13:47:53.035865$GNEBP,,,,,,M*13
###2023-12-09 13:47:53.207628$GNGGA,184752.30,4138.0391341,N,07032.4383701,W,1,18,0.8,15.760,M,-29.746,M,0.0,*58
###2023-12-09 13:47:53.407320$GNGGA,184752.50,4138.0391314,N,07032.4383696,W,1,18,0.8,15.755,M,-29.746,M,0.0,*57
###2023-12-09 13:47:53.606149$GNGGA,184752.70,4138.0391312,N,07032.4383675,W,1,18,0.8,15.753,M,-29.746,M,0.0,*58
###2023-12-09 13:47:53.806394$GNGGA,184752.90,4138.0391307,N,07032.4383658,W,1,18,0.8,15.755,M,-29.746,M,0.0,*5B
###2023-12-09 13:47:54.010272$GNRMC,184753.10,A,4138.0391312,N,07032.4383658,W,0.00,243.17,091223,,,A*53
###2023-12-09 13:47:54.013175$GNGGA,184753.10,4138.0391312,N,07032.4383658,W,1,18,0.8,15.753,M,-29.746,M,0.0,*50
###2023-12-09 13:47:54.014914$GPGSA,A,3,04,16,26,28,29,31,,,,,,,1.3,0.8,1.1*3C
###2023-12-09 13:47:54.016564$GLGSA,A,3,65,72,73,74,75,,,,,,,,1.3,0.8,1.1*27
###2023-12-09 13:47:54.018080$GAGSA,A,3,04,21,27,,,,,,,,,,1.3,0.8,1.1*2B
###2023-12-09 13:47:54.019669$GBGSA,A,3,12,24,25,35,,,,,,,,,1.3,0.8,1.1*2E
###2023-12-09 13:47:54.021989$GPGSV,2,1,06,04,51,304,49,16,73,229,40,26,77,041,44,28,33,090,44*7A
###2023-12-09 13:47:54.023748$GPGSV,2,2,06,29,17,042,40,31,55,075,50,,,,,,,,*75
###2023-12-09 13:47:54.026081$GLGSV,2,1,05,65,43,312,44,72,56,213,35,73,17,056,41,74,55,024,37*62
###2023-12-09 13:47:54.027550$GLGSV,2,2,05,75,47,280,47,,,,,,,,,,,,*58
###2023-12-09 13:47:54.029580$GAGSV,1,1,03,04,44,307,46,21,72,043,39,27,19,051,40,,,,*5F
###2023-12-09 13:47:54.031919$GBGSV,1,1,04,12,19,122,40,24,58,052,46,25,54,282,44,35,16,051,37*60
###2023-12-09 13:47:54.033249$GNVTG,243.17,T,,M,0.00,N,0.00,K,A*20
###2023-12-09 13:47:54.034872$GNGST,184753.10,7.600,,,,0.210,0.120,0.320*6A
###2023-12-09 13:47:54.036167$GNZDA,184753.10,09,12,2023,00,00*7C
###2023-12-09 13:47:54.036809$GNEBP,,,,,,M*13
###2023-12-09 13:47:54.207523$GNGGA,184753.30,4138.0391315,N,07032.4383644,W,1,18,0.8,15.749,M,-29.746,M,0.0,*53
###2023-12-09 13:47:54.406022$GNGGA,184753.50,4138.0391313,N,07032.4383631,W,1,18,0.8,15.743,M,-29.746,M,0.0,*5B
###2023-12-09 13:47:54.605327$GNGGA,184753.70,4138.0391295,N,07032.4383621,W,1,18,0.8,15.738,M,-29.746,M,0.0,*5B
###2023-12-09 13:47:54.806788$GNGGA,184753.90,4138.0391304,N,07032.4383604,W,1,18,0.8,15.732,M,-29.746,M,0.0,*51
###2023-12-09 13:47:55.008580$GNRMC,184754.10,A,4138.0391294,N,07032.4383592,W,0.06,243.17,091223,,,A*58
###2023-12-09 13:47:55.011461$GNGGA,184754.10,4138.0391294,N,07032.4383592,W,1,18,0.8,15.729,M,-29.746,M,0.0,*50
###2023-12-09 13:47:55.013193$GPGSA,A,3,04,16,26,28,29,31,,,,,,,1.3,0.8,1.1*3C
###2023-12-09 13:47:55.014854$GLGSA,A,3,65,72,73,74,75,,,,,,,,1.3,0.8,1.1*27
###2023-12-09 13:47:55.016376$GAGSA,A,3,04,21,27,,,,,,,,,,1.3,0.8,1.1*2B
###2023-12-09 13:47:55.017954$GBGSA,A,3,12,24,25,35,,,,,,,,,1.3,0.8,1.1*2E
###2023-12-09 13:47:55.020290$GPGSV,2,1,06,04,51,304,49,16,73,229,40,26,77,041,44,28,33,090,44*7A
###2023-12-09 13:47:55.022036$GPGSV,2,2,06,29,17,042,39,31,55,075,50,,,,,,,,*7B
###2023-12-09 13:47:55.024374$GLGSV,2,1,05,65,43,312,44,72,56,213,35,73,17,056,41,74,55,024,36*63
###2023-12-09 13:47:55.025831$GLGSV,2,2,05,75,47,280,47,,,,,,,,,,,,*58
###2023-12-09 13:47:55.027874$GAGSV,1,1,03,04,44,307,45,21,72,043,39,27,19,051,40,,,,*5C
###2023-12-09 13:47:55.030212$GBGSV,1,1,04,12,19,122,40,24,58,052,46,25,54,282,45,35,16,051,37*61
###2023-12-09 13:47:55.031554$GNVTG,243.17,T,,M,0.06,N,0.11,K,A*26
###2023-12-09 13:47:55.033172$GNGST,184754.10,7.700,,,,0.210,0.120,0.320*6C
###2023-12-09 13:47:55.034459$GNZDA,184754.10,09,12,2023,00,00*7B
###2023-12-09 13:47:55.035110$GNEBP,,,,,,M*13
###2023-12-09 13:47:55.208828$GNGGA,184754.30,4138.0391284,N,07032.4383581,W,1,18,0.8,15.720,M,-29.746,M,0.0,*58
###2023-12-09 13:47:55.409021$GNGGA,184754.50,4138.0391292,N,07032.4383560,W,1,18,0.8,15.718,M,-29.746,M,0.0,*5D
###2023-12-09 13:47:55.606720$GNGGA,184754.70,4138.0391290,N,07032.4383549,W,1,18,0.8,15.717,M,-29.746,M,0.0,*59
###2023-12-09 13:47:55.807244$GNGGA,184754.90,4138.0391294,N,07032.4383533,W,1,18,0.8,15.716,M,-29.746,M,0.0,*5F
###2023-12-09 13:47:56.010532$GNRMC,184755.10,A,4138.0391301,N,07032.4383513,W,0.04,243.17,091223,,,A*5F
###2023-12-09 13:47:56.013413$GNGGA,184755.10,4138.0391301,N,07032.4383513,W,1,18,0.8,15.719,M,-29.746,M,0.0,*56
###2023-12-09 13:47:56.015147$GPGSA,A,3,04,16,26,28,29,31,,,,,,,1.3,0.8,1.1*3C
###2023-12-09 13:47:56.016795$GLGSA,A,3,65,72,73,74,75,,,,,,,,1.3,0.8,1.1*27
###2023-12-09 13:47:56.018312$GAGSA,A,3,04,21,27,,,,,,,,,,1.3,0.8,1.1*2B
###2023-12-09 13:47:56.019945$GBGSA,A,3,12,24,25,35,,,,,,,,,1.3,0.8,1.1*2E
###2023-12-09 13:47:56.022286$GPGSV,2,1,06,04,51,304,49,16,73,229,40,26,77,041,44,28,33,090,43*7D
###2023-12-09 13:47:56.024314$GPGSV,2,2,06,29,17,042,40,31,55,075,50,,,,,,,,*75
###2023-12-09 13:47:56.026667$GLGSV,2,1,05,65,43,312,44,72,56,213,35,73,17,056,42,74,55,024,36*60
###2023-12-09 13:47:56.028128$GLGSV,2,2,05,75,47,280,47,,,,,,,,,,,,*58
###2023-12-09 13:47:56.030156$GAGSV,1,1,03,04,44,307,45,21,72,043,40,27,19,051,40,,,,*52
###2023-12-09 13:47:56.032492$GBGSV,1,1,04,12,19,122,40,24,58,052,46,25,54,282,45,35,16,051,37*61
###2023-12-09 13:47:56.033830$GNVTG,243.17,T,,M,0.04,N,0.07,K,A*23
###2023-12-09 13:47:56.035473$GNGST,184755.10,7.800,,,,0.210,0.120,0.320*62
###2023-12-09 13:47:56.036775$GNZDA,184755.10,09,12,2023,00,00*7A
