###2023-12-09 12:27:11.925607$GPGSA,A,3,03,04,16,26,28,29,31,32,,,,,1.4,0.7,1.1*36
###2023-12-09 12:27:11.927286$GLGSA,A,3,71,72,73,75,,,,,,,,,1.4,0.7,1.1*29
###2023-12-09 12:27:11.928786$GAGSA,A,3,21,27,,,,,,,,,,,1.4,0.7,1.1*27
###2023-12-09 12:27:11.930406$GBGSA,A,3,14,25,26,33,,,,,,,,,1.4,0.7,1.1*24
###2023-12-09 12:27:11.932804$GPGSV,2,1,08,03,39,281,42,04,19,310,35,16,33,206,44,26,62,205,40*7E
###2023-12-09 12:27:11.935204$GPGSV,2,2,08,28,60,051,42,29,24,078,41,31,73,348,42,32,33,132,47*75
###2023-12-09 12:27:11.937599$GLGSV,1,1,04,71,61,167,47,72,62,315,44,73,52,031,48,75,19,238,42*6D
###2023-12-09 12:27:11.939406$GAGSV,1,1,02,21,74,179,41,27,44,051,46,,,,,,,,*63
###2023-12-09 12:27:11.941777$GBGSV,1,1,04,14,59,200,45,25,30,250,37,26,38,056,48,33,64,263,36*62
###2023-12-09 12:27:11.942986$GNVTG,,T,,M,0.02,N,0.04,K,A*3B
###2023-12-09 12:27:11.944679$GNGST,172711.10,31.000,,,,0.150,0.120,0.330*50
###2023-12-09 12:27:11.946057$GNZDA,172711.10,09,12,2023,00,00*73
###2023-12-09 12:27:11.947081$GNEBP,,,,,,M*13
###2023-12-09 12:27:12.118984$GNGGA,172711.30,4138.0387849,N,07032.4362202,W,1,18,0.7,6.128,M,-29.746,M,0.0,*6C
###2023-12-09 12:27:12.317924$GNGGA,172711.50,4138.0387941,N,07032.4362292,W,1,17,0.8,6.110,M,-29.746,M,0.0,*61
###2023-12-09 12:27:12.518083$GNGGA,172711.70,4138.0388025,N,07032.4362365,W,1,17,0.8,6.093,M,-29.746,M,0.0,*64
###2023-12-09 12:27:12.718043$GNGGA,172711.90,4138.0388102,N,07032.4362424,W,1,17,0.8,6.078,M,-29.746,M,0.0,*69
###2023-12-09 12:27:12.920682$GNRMC,172712.10,A,4138.0388172,N,07032.4362483,W,0.02,,091223,,,A*47
###2023-12-09 12:27:12.923549$GNGGA,172712.10,4138.0388172,N,07032.4362483,W,1,17,0.8,6.075,M,-29.746,M,0.0,*65
###2023-12-09 12:27:12.925365$GPGSA,A,3,03,16,26,28,29,31,32,,,,,,1.5,0.8,1.3*3E
###2023-12-09 12:27:12.926989$GLGSA,A,3,71,72,73,75,,,,,,,,,1.5,0.8,1.3*25
###2023-12-09 12:27:12.928466$GAGSA,A,3,21,27,,,,,,,,,,,1.5,0.8,1.3*2B
###2023-12-09 12:27:12.930061$GBGSA,A,3,14,25,26,33,,,,,,,,,1.5,0.8,1.3*28
###2023-12-09 12:27:12.932419$GPGSV,2,1,07,03,39,281,41,16,33,206,44,26,62,205,40,28,60,051,42*74
###2023-12-09 12:27:12.934487$GPGSV,2,2,07,29,24,078,41,31,73,348,41,32,33,132,47,,,,*47
###2023-12-09 12:27:12.936858$GLGSV,1,1,04,71,61,167,46,72,62,315,44,73,52,031,48,75,19,238,42*6C
###2023-12-09 12:27:12.938645$GAGSV,1,1,02,21,74,179,40,27,44,051,46,,,,,,,,*62
###2023-12-09 12:27:12.940994$GBGSV,1,1,04,14,59,200,46,25,30,250,37,26,38,056,48,33,64,263,36*61
###2023-12-09 12:27:12.942147$GNVTG,,T,,M,0.02,N,0.04,K,A*3B
###2023-12-09 12:27:12.943840$GNGST,172712.10,32.000,,,,0.140,0.120,0.320*50
###2023-12-09 12:27:12.945158$GNZDA,172712.10,09,12,2023,00,00*70
###2023-12-09 12:27:12.945812$GNEBP,,,,,,M*13
###2023-12-09 12:27:13.118560$GNGGA,172712.30,4138.0388247,N,07032.4362550,W,1,17,0.8,6.064,M,-29.746,M,0.0,*6D
###2023-12-09 12:27:13.318870$GNGGA,172712.50,4138.0388317,N,07032.4362608,W,1,17,0.8,6.053,M,-29.746,M,0.0,*65
###2023-12-09 12:27:13.519927$GNGGA,172712.70,4138.0388395,N,07032.4362663,W,1,18,0.8,6.045,M,-29.746,M,0.0,*68
###2023-12-09 12:27:13.717986$GNGGA,172712.90,4138.0388448,N,07032.4362702,W,1,18,0.7,6.042,M,-29.746,M,0.0,*6F
###2023-12-09 12:27:13.919436$GNRMC,172713.10,A,4138.0388505,N,07032.4362752,W,0.04,,091223,,,A*4B
###2023-12-09 12:27:13.922347$GNGGA,172713.10,4138.0388505,N,07032.4362752,W,1,18,0.7,6.031,M,-29.746,M,0.0,*6F
###2023-12-09 12:27:13.924323$GPGSA,A,3,03,04,16,26,28,29,31,32,,,,,1.4,0.7,1.1*36
###2023-12-09 12:27:13.925964$GLGSA,A,3,71,72,73,75,,,,,,,,,1.4,0.7,1.1*29
###2023-12-09 12:27:13.927486$GAGSA,A,3,21,27,,,,,,,,,,,1.4,0.7,1.1*27
###2023-12-09 12:27:13.929119$GBGSA,A,3,14,25,26,33,,,,,,,,,1.4,0.7,1.1*24
###2023-12-09 12:27:13.931510$GPGSV,2,1,08,03,39,281,40,04,19,310,35,16,33,206,44,26,62,205,40*7C
###2023-12-09 12:27:13.933900$GPGSV,2,2,08,28,60,051,42,29,24,078,40,31,73,348,41,32,33,132,47*77
###2023-12-09 12:27:13.936300$GLGSV,1,1,04,71,61,167,47,72,62,315,44,73,52,031,49,75,19,238,42*6C
###2023-12-09 12:27:13.938102$GAGSV,1,1,02,21,74,179,40,27,44,051,46,,,,,,,,*62
###2023-12-09 12:27:13.940513$GBGSV,1,1,04,14,59,200,46,25,30,250,37,26,38,056,48,33,64,263,36*61
###2023-12-09 12:27:13.941688$GNVTG,,T,,M,0.04,N,0.07,K,A*3E
###2023-12-09 12:27:13.943394$GNGST,172713.10,31.000,,,,0.140,0.110,0.310*52
###2023-12-09 12:27:13.944735$GNZDA,172713.10,09,12,2023,00,00*71
###2023-12-09 12:27:13.945452$GNEBP,,,,,,M*13
###2023-12-09 12:27:14.120427$GNGGA,172713.30,4138.0388551,N,07032.4362796,W,1,17,0.8,6.026,M,-29.746,M,0.0,*62
###2023-12-09 12:27:14.318956$GNGGA,172713.50,4138.0388598,N,07032.4362855,W,1,17,0.8,6.018,M,-29.746,M,0.0,*6C
###2023-12-09 12:27:14.518947$GNGGA,172713.70,4138.0388654,N,07032.4362897,W,1,17,0.8,6.011,M,-29.746,M,0.0,*6A
###2023-12-09 12:27:14.719748$GNGGA,172713.90,4138.0388698,N,07032.4362942,W,1,17,0.8,6.007,M,-29.746,M,0.0,*6A
###2023-12-09 12:27:14.920539$GNRMC,172714.10,A,4138.0388757,N,07032.4362991,W,0.04,,091223,,,A*48
###2023-12-09 12:27:14.923391$GNGGA,172714.10,4138.0388757,N,07032.4362991,W,1,17,0.8,6.006,M,-29.746,M,0.0,*68
###2023-12-09 12:27:14.925196$GPGSA,A,3,03,16,26,28,29,31,32,,,,,,1.5,0.8,1.3*3E
###2023-12-09 12:27:14.926807$GLGSA,A,3,71,72,73,75,,,,,,,,,1.5,0.8,1.3*25
###2023-12-09 12:27:14.928265$GAGSA,A,3,21,27,,,,,,,,,,,1.5,0.8,1.3*2B
###2023-12-09 12:27:14.929856$GBGSA,A,3,14,25,26,33,,,,,,,,,1.5,0.8,1.3*28
###2023-12-09 12:27:14.932300$GPGSV,2,1,07,03,39,281,40,16,33,206,44,26,62,205,40,28,60,051,42*75
###2023-12-09 12:27:14.934371$GPGSV,2,2,07,29,24,078,40,31,73,348,42,32,33,132,46,,,,*44
###2023-12-09 12:27:14.936731$GLGSV,1,1,04,71,61,167,47,72,62,315,44,73,52,031,49,75,19,238,42*6C
###2023-12-09 12:27:14.938483$GAGSV,1,1,02,21,74,179,40,27,44,051,46,,,,,,,,*62
###2023-12-09 12:27:14.940840$GBGSV,1,1,04,14,59,200,46,25,30,250,37,26,38,056,49,33,64,263,36*60
###2023-12-09 12:27:14.941981$GNVTG,,T,,M,0.04,N,0.07,K,A*3E
###2023-12-09 12:27:14.943647$GNGST,172714.10,32.000,,,,0.130,0.110,0.300*50
###2023-12-09 12:27:14.944944$GNZDA,172714.10,09,12,2023,00,00*76
###2023-12-09 12:27:14.945587$GNEBP,,,,,,M*13
###2023-12-09 12:27:15.122673$GNGGA,172714.30,4138.0388790,N,07032.4363017,W,1,17,0.8,5.999,M,-29.746,M,0.0,*6B
###2023-12-09 12:27:15.319780$GNGGA,172714.50,4138.0388833,N,07032.4363041,W,1,17,0.8,6.004,M,-29.746,M,0.0,*66
###2023-12-09 12:27:15.518769$GNGGA,172714.70,4138.0388865,N,07032.4363062,W,1,17,0.8,6.007,M,-29.746,M,0.0,*65
###2023-12-09 12:27:15.719541$GNGGA,172714.90,4138.0388894,N,07032.4363090,W,1,17,0.8,6.008,M,-29.746,M,0.0,*67
###2023-12-09 12:27:15.919255$GNRMC,172715.10,A,4138.0388916,N,07032.4363107,W,0.04,,091223,,,A*44
###2023-12-09 12:27:15.922080$GNGGA,172715.10,4138.0388916,N,07032.4363107,W,1,17,0.8,6.015,M,-29.746,M,0.0,*66
###2023-12-09 12:27:15.923902$GPGSA,A,3,03,16,26,28,29,31,32,,,,,,1.5,0.8,1.3*3E
###2023-12-09 12:27:15.925500$GLGSA,A,3,71,72,73,75,,,,,,,,,1.5,0.8,1.3*25
###2023-12-09 12:27:15.926980$GAGSA,A,3,21,27,,,,,,,,,,,1.5,0.8,1.3*2B
###2023-12-09 12:27:15.928584$GBGSA,A,3,14,25,26,33,,,,,,,,,1.5,0.8,1.3*28
###2023-12-09 12:27:15.930947$GPGSV,2,1,07,03,39,281,40,16,33,206,44,26,62,205,40,28,60,051,42*75
###2023-12-09 12:27:15.933023$GPGSV,2,2,07,29,24,078,41,31,73,348,42,32,33,132,46,,,,*45
###2023-12-09 12:27:15.935401$GLGSV,1,1,04,71,61,167,47,72,62,315,44,73,52,031,49,75,19,238,42*6C
###2023-12-09 12:27:15.937175$GAGSV,1,1,02,21,75,179,40,27,44,051,46,,,,,,,,*63
###2023-12-09 12:27:15.939544$GBGSV,1,1,04,14,59,200,44,25,30,250,36,26,38,056,47,33,64,263,35*6E
###2023-12-09 12:27:15.940699$GNVTG,,T,,M,0.04,N,0.07,K,A*3E
###2023-12-09 12:27:15.942361$GNGST,172715.10,32.000,,,,0.130,0.110,0.290*59
###2023-12-09 12:27:15.943686$GNZDA,172715.10,09,12,2023,00,00*77
###2023-12-09 12:27:15.944348$GNEBP,,,,,,M*13
###2023-12-09 12:27:16.119975$GNGGA,172715.30,4138.0388952,N,07032.4363106,W,1,17,0.8,6.016,M,-29.746,M,0.0,*66
###2023-12-09 12:27:16.319815$GNGGA,172715.50,4138.0389013,N,07032.4363119,W,1,17,0.8,6.017,M,-29.746,M,0.0,*62
###2023-12-09 12:27:16.519037$GNGGA,172715.70,4138.0389055,N,07032.4363122,W,1,17,0.8,6.025,M,-29.746,M,0.0,*6B
###2023-12-09 12:27:16.718486$GNGGA,172715.90,4138.0389103,N,07032.4363116,W,1,17,0.8,6.035,M,-29.746,M,0.0,*61
###2023-12-09 12:27:16.922819$GNRMC,172716.10,A,4138.0389150,N,07032.4363120,W,0.04,,091223,,,A*49
###2023-12-09 12:27:16.925674$GNGGA,172716.10,4138.0389150,N,07032.4363120,W,1,17,0.8,6.043,M,-29.746,M,0.0,*68
###2023-12-09 12:27:16.927527$GPGSA,A,3,03,16,26,28,29,31,32,,,,,,1.5,0.8,1.3*3E
###2023-12-09 12:27:16.929143$GLGSA,A,3,71,72,73,75,,,,,,,,,1.5,0.8,1.3*25
###2023-12-09 12:27:16.930634$GAGSA,A,3,21,27,,,,,,,,,,,1.5,0.8,1.3*2B
###2023-12-09 12:27:16.932231$GBGSA,A,3,14,25,26,33,,,,,,,,,1.5,0.8,1.3*28
###2023-12-09 12:27:16.934580$GPGSV,2,1,07,03,39,281,40,16,33,206,44,26,62,205,40,28,60,051,42*75
