###2023-12-09 12:24:49.921921$GNGGA,172449.10,4138.0391622,N,07032.4366449,W,1,18,0.8,11.080,M,-29.746,M,0.0,*53
###2023-12-09 12:24:49.923809$GPGSA,A,3,03,16,25,26,28,29,32,,,,,,1.3,0.8,1.1*3F
###2023-12-09 12:24:49.925450$GLGSA,A,3,71,72,73,75,,,,,,,,,1.3,0.8,1.1*21
###2023-12-09 12:24:49.927037$GAGSA,A,3,04,21,27,,,,,,,,,,1.3,0.8,1.1*2B
###2023-12-09 12:24:49.928659$GBGSA,A,3,14,25,26,33,,,,,,,,,1.3,0.8,1.1*2C
###2023-12-09 12:24:49.931050$GPGSV,2,1,07,03,39,283,43,16,32,206,42,25,16,045,41,26,61,205,46*7C
###2023-12-09 12:24:49.933126$GPGSV,2,2,07,28,61,050,42,29,24,079,46,32,34,131,46,,,,*46
###2023-12-09 12:24:49.935560$GLGSV,1,1,04,71,63,167,46,72,61,317,37,73,53,030,48,75,18,237,40*67
###2023-12-09 12:24:49.937651$GAGSV,1,1,03,04,18,310,36,21,74,180,46,27,45,051,47,,,,*59
###2023-12-09 12:24:49.940237$GBGSV,1,1,04,14,59,200,44,25,29,249,40,26,39,055,47,33,64,265,40*69
###2023-12-09 12:24:49.941450$GNVTG,,T,,M,0.02,N,0.04,K,A*3B
###2023-12-09 12:24:49.943157$GNGST,172449.10,33.000,,,,0.100,0.097,0.220*54
###2023-12-09 12:24:49.944678$GNZDA,172449.10,09,12,2023,00,00*7D
###2023-12-09 12:24:49.945542$GNEBP,,,,,,M*13
###2023-12-09 12:24:50.117911$GNGGA,172449.30,4138.0391621,N,07032.4366446,W,1,18,0.8,11.070,M,-29.746,M,0.0,*52
###2023-12-09 12:24:50.317929$GNGGA,172449.50,4138.0391619,N,07032.4366437,W,1,18,0.8,11.061,M,-29.746,M,0.0,*59
###2023-12-09 12:24:50.517538$GNGGA,172449.70,4138.0391610,N,07032.4366411,W,1,18,0.8,11.054,M,-29.746,M,0.0,*50
###2023-12-09 12:24:50.716842$GNGGA,172449.90,4138.0391607,N,07032.4366409,W,1,18,0.8,11.044,M,-29.746,M,0.0,*50
###2023-12-09 12:24:50.920445$GNRMC,172450.10,A,4138.0391590,N,07032.4366386,W,0.04,,091223,,,A*42
###2023-12-09 12:24:50.923368$GNGGA,172450.10,4138.0391590,N,07032.4366386,W,1,18,0.8,11.037,M,-29.746,M,0.0,*59
###2023-12-09 12:24:50.925219$GPGSA,A,3,03,16,25,26,28,29,32,,,,,,1.3,0.8,1.1*3F
###2023-12-09 12:24:50.926905$GLGSA,A,3,71,72,73,75,,,,,,,,,1.3,0.8,1.1*21
###2023-12-09 12:24:50.928665$GAGSA,A,3,04,21,27,,,,,,,,,,1.3,0.8,1.1*2B
###2023-12-09 12:24:50.930510$GBGSA,A,3,14,25,26,33,,,,,,,,,1.3,0.8,1.1*2C
###2023-12-09 12:24:50.933258$GPGSV,2,1,07,03,39,283,43,16,32,206,41,25,16,045,40,26,61,205,45*7D
###2023-12-09 12:24:50.935367$GPGSV,2,2,07,28,61,050,42,29,24,079,44,32,34,131,45,,,,*47
###2023-12-09 12:24:50.937748$GLGSV,1,1,04,71,63,167,47,72,61,317,38,73,53,030,48,75,18,237,40*69
###2023-12-09 12:24:50.939844$GAGSV,1,1,03,04,18,310,36,21,74,180,46,27,45,051,47,,,,*59
###2023-12-09 12:24:50.942403$GBGSV,1,1,04,14,59,200,45,25,29,249,40,26,39,055,47,33,64,265,40*68
###2023-12-09 12:24:50.943602$GNVTG,,T,,M,0.04,N,0.07,K,A*3E
###2023-12-09 12:24:50.945292$GNGST,172450.10,33.000,,,,0.100,0.098,0.220*53
###2023-12-09 12:24:50.946871$GNZDA,172450.10,09,12,2023,00,00*75
###2023-12-09 12:24:50.947606$GNEBP,,,,,,M*13
###2023-12-09 12:24:51.118718$GNGGA,172450.30,4138.0391578,N,07032.4366372,W,1,19,0.8,11.034,M,-29.746,M,0.0,*54
###2023-12-09 12:24:51.317801$GNGGA,172450.50,4138.0391571,N,07032.4366363,W,1,19,0.8,11.029,M,-29.746,M,0.0,*57
###2023-12-09 12:24:51.517545$GNGGA,172450.70,4138.0391557,N,07032.4366348,W,1,19,0.8,11.026,M,-29.746,M,0.0,*57
###2023-12-09 12:24:51.716824$GNGGA,172450.90,4138.0391530,N,07032.4366310,W,1,19,0.8,11.024,M,-29.746,M,0.0,*57
###2023-12-09 12:24:51.917713$GNRMC,172451.10,A,4138.0391512,N,07032.4366295,W,0.00,,091223,,,A*4E
###2023-12-09 12:24:51.920819$GNGGA,172451.10,4138.0391512,N,07032.4366295,W,1,19,0.7,11.027,M,-29.746,M,0.0,*5E
###2023-12-09 12:24:51.922814$GPGSA,A,3,03,16,25,26,28,29,32,,,,,,1.2,0.7,1.0*30
###2023-12-09 12:24:51.924648$GLGSA,A,3,71,72,73,74,75,,,,,,,,1.2,0.7,1.0*2D
###2023-12-09 12:24:51.926325$GAGSA,A,3,04,21,27,,,,,,,,,,1.2,0.7,1.0*24
###2023-12-09 12:24:51.928081$GBGSA,A,3,14,25,26,33,,,,,,,,,1.2,0.7,1.0*23
###2023-12-09 12:24:51.930584$GPGSV,2,1,07,03,39,283,43,16,32,206,41,25,16,045,41,26,61,205,44*7D
###2023-12-09 12:24:51.932795$GPGSV,2,2,07,28,61,050,42,29,24,079,45,32,34,131,45,,,,*46
###2023-12-09 12:24:51.935311$GLGSV,2,1,05,71,63,167,47,72,61,317,38,73,53,030,48,74,69,274,35*69
###2023-12-09 12:24:51.936931$GLGSV,2,2,05,75,18,237,40,,,,,,,,,,,,*59
###2023-12-09 12:24:51.939159$GAGSV,1,1,03,04,18,310,36,21,74,180,46,27,45,051,47,,,,*59
###2023-12-09 12:24:51.941648$GBGSV,1,1,04,14,59,200,45,25,29,249,41,26,38,055,47,33,64,265,40*68
###2023-12-09 12:24:51.942964$GNVTG,,T,,M,0.00,N,0.00,K,A*3D
###2023-12-09 12:24:51.944766$GNGST,172451.10,30.000,,,,0.200,0.200,0.290*5A
###2023-12-09 12:24:51.946210$GNZDA,172451.10,09,12,2023,00,00*74
###2023-12-09 12:24:51.946906$GNEBP,,,,,,M*13
###2023-12-09 12:24:52.117502$GNGGA,172451.30,4138.0391490,N,07032.4366286,W,1,19,0.7,11.036,M,-29.746,M,0.0,*55
###2023-12-09 12:24:52.317567$GNGGA,172451.50,4138.0391470,N,07032.4366297,W,1,19,0.7,11.041,M,-29.746,M,0.0,*5D
###2023-12-09 12:24:52.517193$GNGGA,172451.70,4138.0391455,N,07032.4366292,W,1,19,0.7,11.045,M,-29.746,M,0.0,*59
###2023-12-09 12:24:52.716893$GNGGA,172451.90,4138.0391425,N,07032.4366281,W,1,18,0.7,11.050,M,-29.746,M,0.0,*57
###2023-12-09 12:24:52.920389$GNRMC,172452.10,A,4138.0391402,N,07032.4366262,W,0.02,,091223,,,A*47
###2023-12-09 12:24:52.923496$GNGGA,172452.10,4138.0391402,N,07032.4366262,W,1,18,0.7,11.055,M,-29.746,M,0.0,*51
###2023-12-09 12:24:52.925486$GPGSA,A,3,03,16,25,26,28,29,32,,,,,,1.2,0.7,1.0*30
###2023-12-09 12:24:52.927270$GLGSA,A,3,71,72,73,75,,,,,,,,,1.2,0.7,1.0*2E
###2023-12-09 12:24:52.928966$GAGSA,A,3,04,21,27,,,,,,,,,,1.2,0.7,1.0*24
###2023-12-09 12:24:52.930727$GBGSA,A,3,14,25,26,33,,,,,,,,,1.2,0.7,1.0*23
###2023-12-09 12:24:52.933228$GPGSV,2,1,07,03,39,283,43,16,32,206,41,25,16,045,41,26,61,205,45*7C
###2023-12-09 12:24:52.935460$GPGSV,2,2,07,28,61,050,43,29,24,079,45,32,34,131,46,,,,*44
###2023-12-09 12:24:52.937953$GLGSV,1,1,04,71,63,167,47,72,61,317,39,73,53,030,48,75,18,237,39*66
###2023-12-09 12:24:52.940155$GAGSV,1,1,03,04,18,310,36,21,74,180,46,27,45,051,47,,,,*59
###2023-12-09 12:24:52.942659$GBGSV,1,1,04,14,59,200,45,25,29,249,41,26,38,055,48,33,64,264,40*66
###2023-12-09 12:24:52.943970$GNVTG,,T,,M,0.02,N,0.04,K,A*3B
###2023-12-09 12:24:52.945782$GNGST,172452.10,30.000,,,,0.200,0.200,0.290*59
###2023-12-09 12:24:52.947267$GNZDA,172452.10,09,12,2023,00,00*77
###2023-12-09 12:24:52.948115$GNEBP,,,,,,M*13
###2023-12-09 12:24:53.120794$GNGGA,172452.30,4138.0391386,N,07032.4366254,W,1,18,0.7,11.059,M,-29.746,M,0.0,*51
###2023-12-09 12:24:53.317738$GNGGA,172452.50,4138.0391370,N,07032.4366251,W,1,18,0.7,11.060,M,-29.746,M,0.0,*51
###2023-12-09 12:24:53.517550$GNGGA,172452.70,4138.0391353,N,07032.4366255,W,1,18,0.7,11.059,M,-29.746,M,0.0,*5C
###2023-12-09 12:24:53.715702$GNGGA,172452.90,4138.0391324,N,07032.4366245,W,1,18,0.7,11.062,M,-29.746,M,0.0,*5B
###2023-12-09 12:24:53.919199$GNRMC,172453.10,A,4138.0391299,N,07032.4366240,W,0.04,,091223,,,A*44
###2023-12-09 12:24:53.922056$GNGGA,172453.10,4138.0391299,N,07032.4366240,W,1,18,0.7,11.064,M,-29.746,M,0.0,*56
###2023-12-09 12:24:53.923878$GPGSA,A,3,03,16,25,26,28,29,32,,,,,,1.2,0.7,1.0*30
###2023-12-09 12:24:53.925476$GLGSA,A,3,71,72,73,75,,,,,,,,,1.2,0.7,1.0*2E
###2023-12-09 12:24:53.927021$GAGSA,A,3,04,21,27,,,,,,,,,,1.2,0.7,1.0*24
###2023-12-09 12:24:53.928617$GBGSA,A,3,14,25,26,33,,,,,,,,,1.2,0.7,1.0*23
###2023-12-09 12:24:53.930964$GPGSV,2,1,07,03,39,283,43,16,32,206,41,25,16,045,42,26,61,205,45*7F
###2023-12-09 12:24:53.933022$GPGSV,2,2,07,28,61,050,42,29,24,079,45,32,34,131,46,,,,*45
###2023-12-09 12:24:53.935374$GLGSV,1,1,04,71,63,167,46,72,61,317,39,73,53,030,48,75,18,237,39*67
###2023-12-09 12:24:53.937422$GAGSV,1,1,03,04,18,310,36,21,74,180,45,27,45,051,46,,,,*5B
###2023-12-09 12:24:53.939764$GBGSV,1,1,04,14,59,200,44,25,29,249,40,26,38,055,47,33,64,264,39*67
###2023-12-09 12:24:53.940911$GNVTG,,T,,M,0.04,N,0.07,K,A*3E
###2023-12-09 12:24:53.942575$GNGST,172453.10,30.000,,,,0.200,0.200,0.300*50
###2023-12-09 12:24:53.943880$GNZDA,172453.10,09,12,2023,00,00*76
###2023-12-09 12:24:53.944528$GNEBP,,,,,,M*13
###2023-12-09 12:24:54.117562$GNGGA,172453.30,4138.0391272,N,07032.4366229,W,1,19,0.7,11.065,M,-29.746,M,0.0,*5E
###2023-12-09 12:24:54.317622$GNGGA,172453.50,4138.0391247,N,07032.4366227,W,1,19,0.7,11.065,M,-29.746,M,0.0,*50
###2023-12-09 12:24:54.517483$GNGGA,172453.70,4138.0391223,N,07032.4366221,W,1,19,0.7,11.066,M,-29.746,M,0.0,*55
###2023-12-09 12:24:54.716631$GNGGA,172453.90,4138.0391196,N,07032.4366218,W,1,19,0.7,11.065,M,-29.746,M,0.0,*5F
###2023-12-09 12:24:54.920311$GNRMC,172454.10,A,4138.0391170,N,07032.4366207,W,0.00,,091223,,,A*40
###2023-12-09 12:24:54.923403$GNGGA,172454.10,4138.0391170,N,07032.4366207,W,1,19,0.7,11.065,M,-29.746,M,0.0,*56
###2023-12-09 12:24:54.925449$GPGSA,A,3,03,16,25,26,28,29,31,32,,,,,1.2,0.7,1.0*32
###2023-12-09 12:24:54.927234$GLGSA,A,3,71,72,73,75,,,,,,,,,1.2,0.7,1.0*2E
###2023-12-09 12:24:54.928928$GAGSA,A,3,04,21,27,,,,,,,,,,1.2,0.7,1.0*24
