###2023-12-09 13:13:13.989845$GPGSV,2,2,07,28,46,075,42,29,24,056,39,31,66,048,45,,,,*49
###2023-12-09 13:13:13.992204$GLGSV,2,1,06,65,29,325,44,71,34,174,45,72,71,246,47,73,31,045,43*6E
###2023-12-09 13:13:13.993955$GLGSV,2,2,06,74,66,353,42,75,36,259,46,,,,,,,,*68
###2023-12-09 13:13:13.996286$GAGSV,1,1,04,04,33,312,43,19,81,194,40,21,84,070,45,27,29,048,41*68
###2023-12-09 13:13:13.998612$GBGSV,2,1,06,14,38,192,43,24,70,034,47,25,44,267,47,26,22,065,40*6C
###2023-12-09 13:13:14.000354$GBGSV,2,2,06,33,53,226,47,35,15,065,41,,,,,,,,*6A
###2023-12-09 13:13:14.001645$GNVTG,44.56,T,,M,3.75,N,6.95,K,A*1B
###2023-12-09 13:13:14.003299$GNGST,181313.10,18.000,,,,0.098,0.072,0.170*54
###2023-12-09 13:13:14.004586$GNZDA,181313.10,09,12,2023,00,00*79
###2023-12-09 13:13:14.005223$GNEBP,,,,,,M*13
###2023-12-09 13:13:14.172054$GNGGA,181313.30,4138.0472968,N,07032.2521886,W,1,24,0.7,12.822,M,-29.743,M,0.0,*54
###2023-12-09 13:13:14.373078$GNGGA,181313.50,4138.0474603,N,07032.2520391,W,1,24,0.7,12.852,M,-29.743,M,0.0,*5D
###2023-12-09 13:13:14.574130$GNGGA,181313.70,4138.0476246,N,07032.2518973,W,1,24,0.7,12.844,M,-29.743,M,0.0,*52
###2023-12-09 13:13:14.774122$GNGGA,181313.90,4138.0477907,N,07032.2517731,W,1,24,0.7,12.830,M,-29.743,M,0.0,*57
###2023-12-09 13:13:14.975470$GNRMC,181314.10,A,4138.0479549,N,07032.2516579,W,3.42,27.78,091223,,,A*68
###2023-12-09 13:13:14.978329$GNGGA,181314.10,4138.0479549,N,07032.2516579,W,1,24,0.7,12.835,M,-29.743,M,0.0,*5A
###2023-12-09 13:13:14.980137$GPGSA,A,3,03,04,16,26,28,29,31,,,,,,1.2,0.7,1.0*30
###2023-12-09 13:13:14.981856$GLGSA,A,3,65,71,72,73,74,75,,,,,,,1.2,0.7,1.0*2E
###2023-12-09 13:13:14.983450$GAGSA,A,3,04,19,21,27,,,,,,,,,1.2,0.7,1.0*2C
###2023-12-09 13:13:14.985160$GBGSA,A,3,14,24,25,26,33,35,,,,,,,1.2,0.7,1.0*23
###2023-12-09 13:13:14.987503$GPGSV,2,1,07,03,32,255,42,04,38,311,43,16,55,215,46,26,85,210,48*75
###2023-12-09 13:13:14.989545$GPGSV,2,2,07,28,46,075,43,29,24,056,38,31,66,048,46,,,,*4A
###2023-12-09 13:13:14.991888$GLGSV,2,1,06,65,29,325,42,71,34,174,45,72,71,246,46,73,31,045,42*68
###2023-12-09 13:13:14.993642$GLGSV,2,2,06,74,66,353,41,75,36,259,46,,,,,,,,*6B
###2023-12-09 13:13:14.995985$GAGSV,1,1,04,04,33,312,42,19,81,194,41,21,84,070,46,27,29,048,40*6A
###2023-12-09 13:13:14.998315$GBGSV,2,1,06,14,38,192,45,24,70,034,49,25,44,267,48,26,22,065,40*6B
###2023-12-09 13:13:15.000074$GBGSV,2,2,06,33,53,226,48,35,15,065,42,,,,,,,,*66
###2023-12-09 13:13:15.001367$GNVTG,27.78,T,,M,3.42,N,6.34,K,A*1D
###2023-12-09 13:13:15.003028$GNGST,181314.10,18.000,,,,0.098,0.072,0.170*53
###2023-12-09 13:13:15.004323$GNZDA,181314.10,09,12,2023,00,00*7E
###2023-12-09 13:13:15.004963$GNEBP,,,,,,M*13
###2023-12-09 13:13:15.175445$GNGGA,181314.30,4138.0481150,N,07032.2515215,W,1,24,0.7,12.829,M,-29.743,M,0.0,*50
###2023-12-09 13:13:15.375416$GNGGA,181314.50,4138.0482829,N,07032.2514186,W,1,24,0.7,12.827,M,-29.743,M,0.0,*54
###2023-12-09 13:13:15.573024$GNGGA,181314.70,4138.0484612,N,07032.2513593,W,1,24,0.7,12.846,M,-29.743,M,0.0,*56
###2023-12-09 13:13:15.773086$GNGGA,181314.90,4138.0486378,N,07032.2512889,W,1,24,0.7,12.856,M,-29.743,M,0.0,*55
###2023-12-09 13:13:15.980613$GNRMC,181315.10,A,4138.0488054,N,07032.2511761,W,3.42,27.87,091223,,,A*62
###2023-12-09 13:13:15.983480$GNGGA,181315.10,4138.0488054,N,07032.2511761,W,1,24,0.7,12.837,M,-29.743,M,0.0,*52
###2023-12-09 13:13:15.985268$GPGSA,A,3,03,04,16,26,28,29,31,,,,,,1.2,0.7,1.0*30
###2023-12-09 13:13:15.986987$GLGSA,A,3,65,71,72,73,74,75,,,,,,,1.2,0.7,1.0*2E
###2023-12-09 13:13:15.988571$GAGSA,A,3,04,19,21,27,,,,,,,,,1.2,0.7,1.0*2C
###2023-12-09 13:13:15.990279$GBGSA,A,3,14,24,25,26,33,35,,,,,,,1.2,0.7,1.0*23
###2023-12-09 13:13:15.992621$GPGSV,2,1,07,03,32,255,42,04,38,311,44,16,55,215,46,26,85,210,48*72
###2023-12-09 13:13:15.994672$GPGSV,2,2,07,28,46,075,44,29,24,056,38,31,66,048,46,,,,*4D
###2023-12-09 13:13:15.997003$GLGSV,2,1,06,65,29,325,42,71,34,174,47,72,71,246,46,73,31,045,42*6A
###2023-12-09 13:13:15.998760$GLGSV,2,2,06,74,66,353,41,75,36,259,46,,,,,,,,*6B
###2023-12-09 13:13:16.001083$GAGSV,1,1,04,04,33,312,44,19,81,194,41,21,84,070,46,27,29,048,40*6C
###2023-12-09 13:13:16.003423$GBGSV,2,1,06,14,38,192,45,24,70,034,48,25,44,267,48,26,22,065,43*69
###2023-12-09 13:13:16.005170$GBGSV,2,2,06,33,53,226,48,35,15,065,43,,,,,,,,*67
###2023-12-09 13:13:16.006461$GNVTG,27.87,T,,M,3.42,N,6.34,K,A*1D
###2023-12-09 13:13:16.008118$GNGST,181315.10,18.000,,,,0.097,0.072,0.170*5D
###2023-12-09 13:13:16.009403$GNZDA,181315.10,09,12,2023,00,00*7F
###2023-12-09 13:13:16.010042$GNEBP,,,,,,M*13
###2023-12-09 13:13:16.172829$GNGGA,181315.30,4138.0489747,N,07032.2510967,W,1,24,0.7,12.809,M,-29.743,M,0.0,*50
###2023-12-09 13:13:16.373115$GNGGA,181315.50,4138.0491424,N,07032.2510757,W,1,24,0.7,12.823,M,-29.743,M,0.0,*5C
###2023-12-09 13:13:16.574148$GNGGA,181315.70,4138.0493071,N,07032.2510369,W,1,24,0.7,12.840,M,-29.743,M,0.0,*54
###2023-12-09 13:13:16.774145$GNGGA,181315.90,4138.0494755,N,07032.2509824,W,1,24,0.7,12.848,M,-29.743,M,0.0,*5E
###2023-12-09 13:13:16.978839$GNRMC,181316.10,A,4138.0496521,N,07032.2509607,W,3.25,0.22,091223,,,A*5A
###2023-12-09 13:13:16.981709$GNGGA,181316.10,4138.0496521,N,07032.2509607,W,1,24,0.7,12.846,M,-29.743,M,0.0,*57
###2023-12-09 13:13:16.983515$GPGSA,A,3,03,04,16,26,28,29,31,,,,,,1.2,0.7,1.0*30
###2023-12-09 13:13:16.985228$GLGSA,A,3,65,71,72,73,74,75,,,,,,,1.2,0.7,1.0*2E
###2023-12-09 13:13:16.986821$GAGSA,A,3,04,19,21,27,,,,,,,,,1.2,0.7,1.0*2C
###2023-12-09 13:13:16.988532$GBGSA,A,3,14,24,25,26,33,35,,,,,,,1.2,0.7,1.0*23
###2023-12-09 13:13:16.990862$GPGSV,2,1,07,03,32,255,44,04,38,311,44,16,56,215,46,26,85,210,48*77
###2023-12-09 13:13:16.992898$GPGSV,2,2,07,28,46,075,45,29,24,056,42,31,66,048,47,,,,*40
###2023-12-09 13:13:16.995236$GLGSV,2,1,06,65,29,325,41,71,34,174,45,72,71,246,46,73,31,045,43*6A
###2023-12-09 13:13:16.996982$GLGSV,2,2,06,74,66,353,41,75,36,259,46,,,,,,,,*6B
###2023-12-09 13:13:16.999319$GAGSV,1,1,04,04,33,312,43,19,81,194,41,21,84,070,46,27,29,048,40*6B
###2023-12-09 13:13:17.001644$GBGSV,2,1,06,14,38,192,43,24,70,034,47,25,44,267,46,26,22,065,43*6E
###2023-12-09 13:13:17.003395$GBGSV,2,2,06,33,53,226,46,35,15,065,42,,,,,,,,*68
###2023-12-09 13:13:17.004654$GNVTG,0.22,T,,M,3.25,N,6.01,K,A*20
###2023-12-09 13:13:17.006295$GNGST,181316.10,18.000,,,,0.097,0.072,0.170*5E
###2023-12-09 13:13:17.007595$GNZDA,181316.10,09,12,2023,00,00*7C
###2023-12-09 13:13:17.008235$GNEBP,,,,,,M*13
###2023-12-09 13:13:17.173719$GNGGA,181316.30,4138.0498360,N,07032.2509670,W,1,24,0.7,12.845,M,-29.743,M,0.0,*5B
###2023-12-09 13:13:17.373277$GNGGA,181316.50,4138.0500219,N,07032.2509723,W,1,24,0.7,12.839,M,-29.743,M,0.0,*5E
###2023-12-09 13:13:17.575411$GNGGA,181316.70,4138.0502176,N,07032.2509604,W,1,24,0.7,12.840,M,-29.743,M,0.0,*5E
###2023-12-09 13:13:17.775468$GNGGA,181316.90,4138.0504128,N,07032.2509533,W,1,24,0.7,12.830,M,-29.742,M,0.0,*5C
###2023-12-09 13:13:17.980934$GNRMC,181317.10,A,4138.0506064,N,07032.2509805,W,3.50,351.74,091223,,,A*5D
###2023-12-09 13:13:17.983829$GNGGA,181317.10,4138.0506064,N,07032.2509805,W,1,24,0.7,12.830,M,-29.742,M,0.0,*56
###2023-12-09 13:13:17.985611$GPGSA,A,3,03,04,16,26,28,29,31,,,,,,1.2,0.7,1.0*30
###2023-12-09 13:13:17.987322$GLGSA,A,3,65,71,72,73,74,75,,,,,,,1.2,0.7,1.0*2E
###2023-12-09 13:13:17.988891$GAGSA,A,3,04,19,21,27,,,,,,,,,1.2,0.7,1.0*2C
###2023-12-09 13:13:17.990596$GBGSA,A,3,14,24,25,26,33,35,,,,,,,1.2,0.7,1.0*23
###2023-12-09 13:13:17.992897$GPGSV,2,1,07,03,32,255,44,04,38,311,44,16,56,215,47,26,85,210,48*76
###2023-12-09 13:13:17.994942$GPGSV,2,2,07,28,46,075,45,29,24,056,42,31,66,048,46,,,,*41
###2023-12-09 13:13:17.997253$GLGSV,2,1,06,65,29,325,39,71,34,174,46,72,71,246,46,73,31,045,43*66
###2023-12-09 13:13:17.998986$GLGSV,2,2,06,74,66,353,41,75,36,259,46,,,,,,,,*6B
###2023-12-09 13:13:18.001297$GAGSV,1,1,04,04,33,312,43,19,81,194,41,21,84,070,46,27,29,048,40*6B
###2023-12-09 13:13:18.003623$GBGSV,2,1,06,14,38,192,43,24,70,034,47,25,44,267,47,26,22,065,43*6F
###2023-12-09 13:13:18.005363$GBGSV,2,2,06,33,53,226,48,35,15,065,41,,,,,,,,*65
###2023-12-09 13:13:18.006696$GNVTG,351.74,T,,M,3.50,N,6.48,K,A*2B
###2023-12-09 13:13:18.008577$GNGST,181317.10,18.000,,,,0.098,0.072,0.170*50
###2023-12-09 13:13:18.009875$GNZDA,181317.10,09,12,2023,00,00*7D
###2023-12-09 13:13:18.010515$GNEBP,,,,,,M*13
###2023-12-09 13:13:18.175284$GNGGA,181317.30,4138.0507977,N,07032.2510173,W,1,24,0.7,12.826,M,-29.742,M,0.0,*59
###2023-12-09 13:13:18.375142$GNGGA,181317.50,4138.0509892,N,07032.2510559,W,1,24,0.7,12.828,M,-29.742,M,0.0,*59
###2023-12-09 13:13:18.573885$GNGGA,181317.70,4138.0511798,N,07032.2511027,W,1,24,0.7,12.829,M,-29.742,M,0.0,*5B
###2023-12-09 13:13:18.774044$GNGGA,181317.90,4138.0513686,N,07032.2511527,W,1,24,0.7,12.822,M,-29.742,M,0.0,*57
###2023-12-09 13:13:18.977605$GNRMC,181318.10,A,4138.0515465,N,07032.2512235,W,3.29,340.33,091223,,,A*5B
###2023-12-09 13:13:18.980503$GNGGA,181318.10,4138.0515465,N,07032.2512235,W,1,24,0.7,12.817,M,-29.742,M,0.0,*58
