###2023-12-09 12:44:48.972550$GBGSV,2,2,05,33,62,246,47,,,,,,,,,,,,*59
###2023-12-09 12:44:48.973896$GNVTG,278.96,T,,M,2.39,N,4.43,K,A*2A
###2023-12-09 12:44:48.975579$GNGST,174448.10,18.000,,,,0.083,0.072,0.170*5D
###2023-12-09 12:44:48.976876$GNZDA,174448.10,09,12,2023,00,00*7A
###2023-12-09 12:44:48.977516$GNEBP,,,,,,M*13
###2023-12-09 12:44:49.146205$GNGGA,174448.30,4138.0467799,N,07032.3935787,W,1,24,0.6,13.301,M,-29.745,M,0.0,*59
###2023-12-09 12:44:49.345523$GNGGA,174448.50,4138.0467879,N,07032.3937530,W,1,24,0.6,13.295,M,-29.745,M,0.0,*5E
###2023-12-09 12:44:49.545643$GNGGA,174448.70,4138.0467925,N,07032.3939281,W,1,24,0.6,13.293,M,-29.745,M,0.0,*51
###2023-12-09 12:44:49.744545$GNGGA,174448.90,4138.0467953,N,07032.3941046,W,1,24,0.6,13.294,M,-29.745,M,0.0,*5F
###2023-12-09 12:44:49.945526$GNRMC,174449.10,A,4138.0467942,N,07032.3942843,W,2.37,268.22,091223,,,A*58
###2023-12-09 12:44:49.948454$GNGGA,174449.10,4138.0467942,N,07032.3942843,W,1,24,0.6,13.289,M,-29.745,M,0.0,*54
###2023-12-09 12:44:49.950348$GPGSA,A,3,03,04,16,26,28,29,31,32,,,,,1.1,0.6,0.9*3B
###2023-12-09 12:44:49.952088$GLGSA,A,3,65,71,72,73,74,75,,,,,,,1.1,0.6,0.9*24
###2023-12-09 12:44:49.953672$GAGSA,A,3,04,19,21,27,,,,,,,,,1.1,0.6,0.9*26
###2023-12-09 12:44:49.955339$GBGSA,A,3,14,24,25,26,33,,,,,,,,1.1,0.6,0.9*2F
###2023-12-09 12:44:49.957677$GPGSV,2,1,08,03,38,271,42,04,25,311,38,16,41,209,46,26,71,208,46*72
###2023-12-09 12:44:49.960041$GPGSV,2,2,08,28,55,061,45,29,26,069,42,31,72,015,47,32,26,136,43*7D
###2023-12-09 12:44:49.962392$GLGSV,2,1,06,65,16,329,41,71,51,170,47,72,69,300,45,73,44,036,46*65
###2023-12-09 12:44:49.964170$GLGSV,2,2,06,74,71,307,42,75,25,245,42,,,,,,,,*64
###2023-12-09 12:44:49.966523$GAGSV,1,1,04,04,24,312,38,19,84,283,40,21,81,168,46,27,38,049,43*6F
###2023-12-09 12:44:49.968892$GBGSV,2,1,05,14,50,195,45,24,78,005,49,25,36,256,43,26,31,059,44*6E
###2023-12-09 12:44:49.970364$GBGSV,2,2,05,33,62,246,47,,,,,,,,,,,,*59
###2023-12-09 12:44:49.971713$GNVTG,268.22,T,,M,2.37,N,4.39,K,A*27
###2023-12-09 12:44:49.973373$GNGST,174449.10,18.000,,,,0.083,0.072,0.170*5C
###2023-12-09 12:44:49.974688$GNZDA,174449.10,09,12,2023,00,00*7B
###2023-12-09 12:44:49.975332$GNEBP,,,,,,M*13
###2023-12-09 12:44:50.145540$GNGGA,174449.30,4138.0467877,N,07032.3944610,W,1,24,0.6,13.293,M,-29.745,M,0.0,*54
###2023-12-09 12:44:50.345535$GNGGA,174449.50,4138.0467778,N,07032.3946359,W,1,24,0.6,13.290,M,-29.745,M,0.0,*5B
###2023-12-09 12:44:50.545607$GNGGA,174449.70,4138.0467578,N,07032.3948020,W,1,24,0.6,13.280,M,-29.745,M,0.0,*59
###2023-12-09 12:44:50.744170$GNGGA,174449.90,4138.0467318,N,07032.3949586,W,1,24,0.6,13.278,M,-29.745,M,0.0,*58
###2023-12-09 12:44:50.946510$GNRMC,174450.10,A,4138.0467075,N,07032.3951109,W,2.04,258.08,091223,,,A*53
###2023-12-09 12:44:50.949445$GNGGA,174450.10,4138.0467075,N,07032.3951109,W,1,24,0.6,13.284,M,-29.745,M,0.0,*59
###2023-12-09 12:44:50.951334$GPGSA,A,3,03,04,16,26,28,29,31,32,,,,,1.1,0.6,0.9*3B
###2023-12-09 12:44:50.953069$GLGSA,A,3,65,71,72,73,74,75,,,,,,,1.1,0.6,0.9*24
###2023-12-09 12:44:50.954679$GAGSA,A,3,04,19,21,27,,,,,,,,,1.1,0.6,0.9*26
###2023-12-09 12:44:50.956341$GBGSA,A,3,14,24,25,26,33,,,,,,,,1.1,0.6,0.9*2F
###2023-12-09 12:44:50.958699$GPGSV,2,1,08,03,38,271,42,04,25,311,40,16,41,209,45,26,71,208,47*7F
###2023-12-09 12:44:50.961059$GPGSV,2,2,08,28,55,061,45,29,26,069,42,31,72,015,47,32,26,136,43*7D
###2023-12-09 12:44:50.963457$GLGSV,2,1,06,65,16,329,42,71,51,170,46,72,69,300,45,73,44,036,47*66
###2023-12-09 12:44:50.965223$GLGSV,2,2,06,74,71,307,42,75,25,245,41,,,,,,,,*67
###2023-12-09 12:44:50.967590$GAGSV,1,1,04,04,24,312,40,19,84,283,40,21,81,168,46,27,38,049,43*60
###2023-12-09 12:44:50.969942$GBGSV,2,1,05,14,50,195,46,24,78,005,48,25,36,256,45,26,31,059,45*6B
###2023-12-09 12:44:50.971417$GBGSV,2,2,05,33,62,246,47,,,,,,,,,,,,*59
###2023-12-09 12:44:50.972745$GNVTG,258.08,T,,M,2.04,N,3.78,K,A*2E
###2023-12-09 12:44:50.974399$GNGST,174450.10,18.000,,,,0.082,0.072,0.170*55
###2023-12-09 12:44:50.975715$GNZDA,174450.10,09,12,2023,00,00*73
###2023-12-09 12:44:50.976355$GNEBP,,,,,,M*13
###2023-12-09 12:44:51.145680$GNGGA,174450.30,4138.0466821,N,07032.3952556,W,1,24,0.6,13.286,M,-29.745,M,0.0,*5C
###2023-12-09 12:44:51.345476$GNGGA,174450.50,4138.0466437,N,07032.3953873,W,1,24,0.6,13.291,M,-29.745,M,0.0,*5C
###2023-12-09 12:44:51.545586$GNGGA,174450.70,4138.0465964,N,07032.3955127,W,1,24,0.6,13.292,M,-29.745,M,0.0,*5B
###2023-12-09 12:44:51.745090$GNGGA,174450.90,4138.0465549,N,07032.3956462,W,1,24,0.6,13.307,M,-29.745,M,0.0,*5C
###2023-12-09 12:44:51.945457$GNRMC,174451.10,A,4138.0465213,N,07032.3957925,W,2.14,258.42,091223,,,A*5D
###2023-12-09 12:44:51.948337$GNGGA,174451.10,4138.0465213,N,07032.3957925,W,1,24,0.6,13.324,M,-29.745,M,0.0,*53
###2023-12-09 12:44:51.950216$GPGSA,A,3,03,04,16,26,28,29,31,32,,,,,1.1,0.6,0.9*3B
###2023-12-09 12:44:51.951957$GLGSA,A,3,65,71,72,73,74,75,,,,,,,1.1,0.6,0.9*24
###2023-12-09 12:44:51.953550$GAGSA,A,3,04,19,21,27,,,,,,,,,1.1,0.6,0.9*26
###2023-12-09 12:44:51.955216$GBGSA,A,3,14,24,25,26,33,,,,,,,,1.1,0.6,0.9*2F
###2023-12-09 12:44:51.957555$GPGSV,2,1,08,03,38,271,42,04,25,311,41,16,41,209,45,26,71,208,47*7E
###2023-12-09 12:44:51.959915$GPGSV,2,2,08,28,55,061,45,29,26,069,43,31,72,015,48,32,26,136,43*73
###2023-12-09 12:44:51.962261$GLGSV,2,1,06,65,16,329,41,71,51,170,47,72,69,300,46,73,44,036,47*67
###2023-12-09 12:44:51.964027$GLGSV,2,2,06,74,71,307,43,75,25,245,43,,,,,,,,*64
###2023-12-09 12:44:51.966365$GAGSV,1,1,04,04,24,312,41,19,84,283,40,21,81,168,46,27,38,049,44*66
###2023-12-09 12:44:51.968721$GBGSV,2,1,05,14,50,195,45,24,78,005,48,25,36,256,44,26,31,059,44*68
###2023-12-09 12:44:51.970178$GBGSV,2,2,05,33,62,246,47,,,,,,,,,,,,*59
###2023-12-09 12:44:51.971521$GNVTG,258.42,T,,M,2.14,N,3.96,K,A*21
###2023-12-09 12:44:51.973180$GNGST,174451.10,18.000,,,,0.081,0.071,0.170*54
###2023-12-09 12:44:51.974479$GNZDA,174451.10,09,12,2023,00,00*72
###2023-12-09 12:44:51.975133$GNEBP,,,,,,M*13
###2023-12-09 12:44:52.145491$GNGGA,174451.30,4138.0464870,N,07032.3959412,W,1,24,0.6,13.327,M,-29.745,M,0.0,*5B
###2023-12-09 12:44:52.345655$GNGGA,174451.50,4138.0464339,N,07032.3960609,W,1,24,0.6,13.310,M,-29.745,M,0.0,*5D
###2023-12-09 12:44:52.544782$GNGGA,174451.70,4138.0463639,N,07032.3961562,W,1,24,0.6,13.282,M,-29.745,M,0.0,*58
###2023-12-09 12:44:52.745442$GNGGA,174451.90,4138.0463079,N,07032.3962675,W,1,24,0.6,13.288,M,-29.745,M,0.0,*58
###2023-12-09 12:44:52.946995$GNRMC,174452.10,A,4138.0462695,N,07032.3964095,W,2.10,252.01,091223,,,A*58
###2023-12-09 12:44:52.949858$GNGGA,174452.10,4138.0462695,N,07032.3964095,W,1,24,0.6,13.312,M,-29.745,M,0.0,*5A
###2023-12-09 12:44:52.951735$GPGSA,A,3,03,04,16,26,28,29,31,32,,,,,1.1,0.6,0.9*3B
###2023-12-09 12:44:52.953449$GLGSA,A,3,65,71,72,73,74,75,,,,,,,1.1,0.6,0.9*24
###2023-12-09 12:44:52.955050$GAGSA,A,3,04,19,21,27,,,,,,,,,1.1,0.6,0.9*26
###2023-12-09 12:44:52.956695$GBGSA,A,3,14,24,25,26,33,,,,,,,,1.1,0.6,0.9*2F
###2023-12-09 12:44:52.959033$GPGSV,2,1,08,03,38,271,44,04,25,311,43,16,41,209,42,26,71,208,46*7C
###2023-12-09 12:44:52.961367$GPGSV,2,2,08,28,55,061,44,29,26,069,43,31,72,015,47,32,26,136,44*7A
###2023-12-09 12:44:52.963713$GLGSV,2,1,06,65,16,329,41,71,51,170,47,72,69,300,45,73,44,036,46*65
###2023-12-09 12:44:52.965459$GLGSV,2,2,06,74,71,307,43,75,25,245,39,,,,,,,,*69
###2023-12-09 12:44:52.967801$GAGSV,1,1,04,04,24,312,41,19,84,283,40,21,81,168,46,27,38,049,44*66
###2023-12-09 12:44:52.970135$GBGSV,2,1,05,14,50,195,44,24,78,005,48,25,36,256,45,26,31,059,44*68
###2023-12-09 12:44:52.971605$GBGSV,2,2,05,33,62,246,47,,,,,,,,,,,,*59
###2023-12-09 12:44:52.972934$GNVTG,252.01,T,,M,2.10,N,3.89,K,A*26
###2023-12-09 12:44:52.974592$GNGST,174452.10,18.000,,,,0.080,0.071,0.170*56
###2023-12-09 12:44:52.975892$GNZDA,174452.10,09,12,2023,00,00*71
###2023-12-09 12:44:52.976530$GNEBP,,,,,,M*13
###2023-12-09 12:44:53.144700$GNGGA,174452.30,4138.0462245,N,07032.3965362,W,1,24,0.6,13.320,M,-29.745,M,0.0,*5A
###2023-12-09 12:44:53.346120$GNGGA,174452.50,4138.0461545,N,07032.3966179,W,1,24,0.6,13.320,M,-29.745,M,0.0,*53
###2023-12-09 12:44:53.546136$GNGGA,174452.70,4138.0460796,N,07032.3966815,W,1,24,0.6,13.291,M,-29.745,M,0.0,*54
###2023-12-09 12:44:53.745994$GNGGA,174452.90,4138.0460197,N,07032.3967847,W,1,24,0.6,13.280,M,-29.745,M,0.0,*5B
###2023-12-09 12:44:53.945921$GNRMC,174453.10,A,4138.0459672,N,07032.3969149,W,2.02,239.03,091223,,,A*59
###2023-12-09 12:44:53.949435$GNGGA,174453.10,4138.0459672,N,07032.3969149,W,1,24,0.6,13.295,M,-29.745,M,0.0,*59
###2023-12-09 12:44:53.951741$GPGSA,A,3,03,04,16,26,28,29,31,32,,,,,1.1,0.6,0.9*3B
###2023-12-09 12:44:53.953843$GLGSA,A,3,65,71,72,73,74,75,,,,,,,1.1,0.6,0.9*24
###2023-12-09 12:44:53.955802$GAGSA,A,3,04,19,21,27,,,,,,,,,1.1,0.6,0.9*26
###2023-12-09 12:44:53.957799$GBGSA,A,3,14,24,25,26,33,,,,,,,,1.1,0.6,0.9*2F
###2023-12-09 12:44:53.960632$GPGSV,2,1,08,03,38,271,43,04,25,311,44,16,41,209,41,26,71,208,47*7E
