###2023-12-09 13:24:11.013985$GAGSV,1,1,04,04,36,311,40,19,76,185,41,21,80,052,46,27,26,049,42*6E
###2023-12-09 13:24:11.016752$GBGSV,2,1,06,14,34,191,41,24,66,040,48,25,47,271,47,26,19,068,41*6A
###2023-12-09 13:24:11.018784$GBGSV,2,2,06,33,50,221,47,35,16,061,40,,,,,,,,*68
###2023-12-09 13:24:11.020369$GNVTG,328.96,T,,M,3.81,N,7.06,K,A*2E
###2023-12-09 13:24:11.022224$GNGST,182410.10,18.000,,,,0.100,0.071,0.170*50
###2023-12-09 13:24:11.023779$GNZDA,182410.10,09,12,2023,00,00*7E
###2023-12-09 13:24:11.024649$GNEBP,,,,,,M*13
###2023-12-09 13:24:11.185135$GNGGA,182410.30,4138.0718727,N,07032.3789220,W,1,24,0.6,12.922,M,-29.744,M,0.0,*59
###2023-12-09 13:24:11.383963$GNGGA,182410.50,4138.0720524,N,07032.3790709,W,1,24,0.6,12.932,M,-29.744,M,0.0,*52
###2023-12-09 13:24:11.584428$GNGGA,182410.70,4138.0722267,N,07032.3792320,W,1,24,0.6,12.934,M,-29.744,M,0.0,*59
###2023-12-09 13:24:11.784767$GNGGA,182410.90,4138.0723965,N,07032.3793937,W,1,24,0.6,12.939,M,-29.744,M,0.0,*5F
###2023-12-09 13:24:11.987757$GNRMC,182411.10,A,4138.0725663,N,07032.3795586,W,3.67,323.58,091223,,,A*52
###2023-12-09 13:24:11.990708$GNGGA,182411.10,4138.0725663,N,07032.3795586,W,1,24,0.6,12.940,M,-29.744,M,0.0,*57
###2023-12-09 13:24:11.992556$GPGSA,A,3,03,04,16,26,28,29,31,,,,,,1.1,0.6,0.9*3A
###2023-12-09 13:24:11.994317$GLGSA,A,3,65,71,72,73,74,75,,,,,,,1.1,0.6,0.9*24
###2023-12-09 13:24:11.995973$GAGSA,A,3,04,19,21,27,,,,,,,,,1.1,0.6,0.9*26
###2023-12-09 13:24:11.997805$GBGSA,A,3,14,24,25,26,33,35,,,,,,,1.1,0.6,0.9*29
###2023-12-09 13:24:12.000214$GPGSV,2,1,07,03,30,251,43,04,42,310,41,16,61,218,45,26,89,050,48*7F
###2023-12-09 13:24:12.002321$GPGSV,2,2,07,28,41,080,45,29,22,051,41,31,63,058,46,,,,*4A
###2023-12-09 13:24:12.004734$GLGSV,2,1,06,65,34,323,41,71,29,175,44,72,68,232,46,73,27,049,44*6B
###2023-12-09 13:24:12.006530$GLGSV,2,2,06,74,63,004,41,75,40,265,46,,,,,,,,*61
###2023-12-09 13:24:12.008930$GAGSV,1,1,04,04,36,311,40,19,76,185,41,21,80,052,46,27,26,049,42*6E
###2023-12-09 13:24:12.011329$GBGSV,2,1,06,14,34,191,42,24,66,040,48,25,47,271,46,26,19,068,40*69
###2023-12-09 13:24:12.013123$GBGSV,2,2,06,33,50,221,47,35,16,061,41,,,,,,,,*69
###2023-12-09 13:24:12.014489$GNVTG,323.58,T,,M,3.67,N,6.80,K,A*20
###2023-12-09 13:24:12.016193$GNGST,182411.10,18.000,,,,0.100,0.071,0.170*51
###2023-12-09 13:24:12.017535$GNZDA,182411.10,09,12,2023,00,00*7F
###2023-12-09 13:24:12.018219$GNEBP,,,,,,M*13
###2023-12-09 13:24:12.186156$GNGGA,182411.30,4138.0727336,N,07032.3797239,W,1,24,0.6,12.943,M,-29.744,M,0.0,*50
###2023-12-09 13:24:12.382903$GNGGA,182411.50,4138.0728985,N,07032.3798918,W,1,24,0.6,12.944,M,-29.744,M,0.0,*5B
###2023-12-09 13:24:12.584342$GNGGA,182411.70,4138.0730605,N,07032.3800679,W,1,24,0.6,12.949,M,-29.744,M,0.0,*5C
###2023-12-09 13:24:12.784917$GNGGA,182411.90,4138.0732179,N,07032.3802454,W,1,24,0.6,12.948,M,-29.744,M,0.0,*52
###2023-12-09 13:24:12.989931$GNRMC,182412.10,A,4138.0733686,N,07032.3804288,W,3.62,316.84,091223,,,A*51
###2023-12-09 13:24:12.992875$GNGGA,182412.10,4138.0733686,N,07032.3804288,W,1,24,0.6,12.944,M,-29.744,M,0.0,*52
###2023-12-09 13:24:12.994811$GPGSA,A,3,03,04,16,26,28,29,31,,,,,,1.1,0.6,0.9*3A
###2023-12-09 13:24:12.997036$GLGSA,A,3,65,71,72,73,74,75,,,,,,,1.1,0.6,0.9*24
###2023-12-09 13:24:12.999153$GAGSA,A,3,04,19,21,27,,,,,,,,,1.1,0.6,0.9*26
###2023-12-09 13:24:13.001413$GBGSA,A,3,14,24,25,26,33,35,,,,,,,1.1,0.6,0.9*29
###2023-12-09 13:24:13.004457$GPGSV,2,1,07,03,30,251,42,04,42,310,41,16,61,218,47,26,89,050,47*73
###2023-12-09 13:24:13.007194$GPGSV,2,2,07,28,41,080,45,29,22,051,41,31,63,058,46,,,,*4A
###2023-12-09 13:24:13.010201$GLGSV,2,1,06,65,34,323,41,71,29,175,43,72,68,232,45,73,27,049,44*6F
###2023-12-09 13:24:13.012566$GLGSV,2,2,06,74,63,004,41,75,40,265,46,,,,,,,,*61
###2023-12-09 13:24:13.015487$GAGSV,1,1,04,04,36,311,41,19,76,185,41,21,80,052,46,27,26,049,41*6C
###2023-12-09 13:24:13.018468$GBGSV,2,1,06,14,34,191,42,24,66,040,47,25,47,271,46,26,19,068,40*66
###2023-12-09 13:24:13.020847$GBGSV,2,2,06,33,50,221,47,35,16,061,40,,,,,,,,*68
###2023-12-09 13:24:13.022648$GNVTG,316.84,T,,M,3.62,N,6.70,K,A*2D
###2023-12-09 13:24:13.024786$GNGST,182412.10,19.000,,,,0.100,0.071,0.170*53
###2023-12-09 13:24:13.026462$GNZDA,182412.10,09,12,2023,00,00*7C
###2023-12-09 13:24:13.027359$GNEBP,,,,,,M*13
###2023-12-09 13:24:13.186220$GNGGA,182412.30,4138.0735165,N,07032.3806167,W,1,24,0.6,12.939,M,-29.744,M,0.0,*56
###2023-12-09 13:24:13.386079$GNGGA,182412.50,4138.0736565,N,07032.3808080,W,1,24,0.6,12.943,M,-29.744,M,0.0,*5C
###2023-12-09 13:24:13.586924$GNGGA,182412.70,4138.0737874,N,07032.3810039,W,1,24,0.6,12.943,M,-29.744,M,0.0,*59
###2023-12-09 13:24:13.785909$GNGGA,182412.90,4138.0739089,N,07032.3812022,W,1,24,0.6,12.952,M,-29.744,M,0.0,*5B
###2023-12-09 13:24:13.989951$GNRMC,182413.10,A,4138.0740228,N,07032.3814041,W,3.30,305.12,091223,,,A*58
###2023-12-09 13:24:13.993237$GNGGA,182413.10,4138.0740228,N,07032.3814041,W,1,24,0.6,12.952,M,-29.744,M,0.0,*56
###2023-12-09 13:24:13.995302$GPGSA,A,3,03,04,16,26,28,29,31,,,,,,1.1,0.6,0.9*3A
###2023-12-09 13:24:13.997223$GLGSA,A,3,65,71,72,73,74,75,,,,,,,1.1,0.6,0.9*24
###2023-12-09 13:24:13.999050$GAGSA,A,3,04,19,21,27,,,,,,,,,1.1,0.6,0.9*26
###2023-12-09 13:24:14.000878$GBGSA,A,3,14,24,25,26,33,35,,,,,,,1.1,0.6,0.9*29
###2023-12-09 13:24:14.003485$GPGSV,2,1,07,03,30,251,42,04,42,310,42,16,61,218,46,26,89,050,48*7E
###2023-12-09 13:24:14.005712$GPGSV,2,2,07,28,41,080,43,29,22,051,42,31,63,058,47,,,,*4E
###2023-12-09 13:24:14.008240$GLGSV,2,1,06,65,34,323,40,71,29,175,44,72,68,232,45,73,27,049,43*6E
###2023-12-09 13:24:14.010236$GLGSV,2,2,06,74,63,004,41,75,40,265,45,,,,,,,,*62
###2023-12-09 13:24:14.012620$GAGSV,1,1,04,04,36,311,42,19,76,185,41,21,80,052,46,27,26,049,41*6F
###2023-12-09 13:24:14.015249$GBGSV,2,1,06,14,34,191,43,24,66,040,48,25,47,271,46,26,19,068,42*6A
###2023-12-09 13:24:14.017123$GBGSV,2,2,06,33,50,221,46,35,16,061,42,,,,,,,,*6B
###2023-12-09 13:24:14.018628$GNVTG,305.12,T,,M,3.30,N,6.12,K,A*23
###2023-12-09 13:24:14.020436$GNGST,182413.10,18.000,,,,0.100,0.072,0.170*50
###2023-12-09 13:24:14.021845$GNZDA,182413.10,09,12,2023,00,00*7D
###2023-12-09 13:24:14.022539$GNEBP,,,,,,M*13
###2023-12-09 13:24:14.185008$GNGGA,182413.30,4138.0741269,N,07032.3816111,W,1,24,0.6,12.952,M,-29.744,M,0.0,*56
###2023-12-09 13:24:14.385785$GNGGA,182413.50,4138.0742212,N,07032.3818230,W,1,24,0.6,12.960,M,-29.744,M,0.0,*50
###2023-12-09 13:24:14.586134$GNGGA,182413.70,4138.0743079,N,07032.3820403,W,1,24,0.6,12.961,M,-29.744,M,0.0,*50
###2023-12-09 13:24:14.785887$GNGGA,182413.90,4138.0743856,N,07032.3822612,W,1,24,0.6,12.960,M,-29.744,M,0.0,*5A
###2023-12-09 13:24:14.989787$GNRMC,182414.10,A,4138.0744559,N,07032.3824880,W,3.27,291.15,091223,,,A*51
###2023-12-09 13:24:14.992757$GNGGA,182414.10,4138.0744559,N,07032.3824880,W,1,24,0.6,12.962,M,-29.744,M,0.0,*51
###2023-12-09 13:24:14.994690$GPGSA,A,3,03,04,16,26,28,29,31,,,,,,1.1,0.6,0.9*3A
###2023-12-09 13:24:14.996477$GLGSA,A,3,65,71,72,73,74,75,,,,,,,1.1,0.6,0.9*24
###2023-12-09 13:24:14.998103$GAGSA,A,3,04,19,21,27,,,,,,,,,1.1,0.6,0.9*26
###2023-12-09 13:24:14.999903$GBGSA,A,3,14,24,25,26,33,35,,,,,,,1.1,0.6,0.9*29
###2023-12-09 13:24:15.002296$GPGSV,2,1,07,03,30,251,39,04,42,310,42,16,61,218,45,26,89,050,48*71
###2023-12-09 13:24:15.004421$GPGSV,2,2,07,28,41,080,44,29,22,051,40,31,63,058,47,,,,*4B
###2023-12-09 13:24:15.006826$GLGSV,2,1,06,65,34,323,40,71,29,175,45,72,68,232,45,73,27,049,42*6E
###2023-12-09 13:24:15.008617$GLGSV,2,2,06,74,63,004,42,75,40,265,43,,,,,,,,*67
###2023-12-09 13:24:15.011028$GAGSV,1,1,04,04,36,311,41,19,76,185,41,21,80,052,46,27,26,049,39*63
###2023-12-09 13:24:15.013397$GBGSV,2,1,06,14,34,191,44,24,66,040,49,25,47,271,45,26,19,068,41*6C
###2023-12-09 13:24:15.015201$GBGSV,2,2,06,33,50,221,48,35,16,061,42,,,,,,,,*65
###2023-12-09 13:24:15.016563$GNVTG,291.15,T,,M,3.27,N,6.05,K,A*28
###2023-12-09 13:24:15.018236$GNGST,182414.10,18.000,,,,0.100,0.072,0.170*57
###2023-12-09 13:24:15.019590$GNZDA,182414.10,09,12,2023,00,00*7A
###2023-12-09 13:24:15.020263$GNEBP,,,,,,M*13
###2023-12-09 13:24:15.189377$GNGGA,182414.30,4138.0745214,N,07032.3827174,W,1,24,0.6,12.966,M,-29.744,M,0.0,*59
###2023-12-09 13:24:15.385847$GNGGA,182414.50,4138.0745808,N,07032.3829476,W,1,24,0.6,12.966,M,-29.744,M,0.0,*51
###2023-12-09 13:24:15.585897$GNGGA,182414.70,4138.0746303,N,07032.3831828,W,1,24,0.6,12.971,M,-29.744,M,0.0,*58
###2023-12-09 13:24:15.786768$GNGGA,182414.90,4138.0746687,N,07032.3834230,W,1,24,0.6,12.975,M,-29.744,M,0.0,*5D
###2023-12-09 13:24:15.989862$GNRMC,182415.10,A,4138.0747000,N,07032.3836658,W,3.36,280.40,091223,,,A*52
###2023-12-09 13:24:15.992843$GNGGA,182415.10,4138.0747000,N,07032.3836658,W,1,24,0.6,12.978,M,-29.744,M,0.0,*59
###2023-12-09 13:24:15.994737$GPGSA,A,3,03,04,16,26,28,29,31,,,,,,1.1,0.6,0.9*3A
###2023-12-09 13:24:15.996514$GLGSA,A,3,65,71,72,73,74,75,,,,,,,1.1,0.6,0.9*24
###2023-12-09 13:24:15.998133$GAGSA,A,3,04,19,21,27,,,,,,,,,1.1,0.6,0.9*26
