###2023-12-09 12:50:07.982084$GNVTG,318.34,T,,M,0.16,N,0.29,K,A*22
###2023-12-09 12:50:07.984130$GNGST,175007.10,18.000,,,,0.075,0.067,0.160*5F
###2023-12-09 12:50:07.985700$GNZDA,175007.10,09,12,2023,00,00*74
###2023-12-09 12:50:07.986483$GNEBP,,,,,,M*13
###2023-12-09 12:50:08.149535$GNGGA,175007.30,4138.0669815,N,07032.3931198,W,1,24,0.6,13.542,M,-29.744,M,0.0,*5C
###2023-12-09 12:50:08.349822$GNGGA,175007.50,4138.0669810,N,07032.3931182,W,1,24,0.6,13.552,M,-29.744,M,0.0,*55
###2023-12-09 12:50:08.548765$GNGGA,175007.70,4138.0669928,N,07032.3931323,W,1,24,0.6,13.534,M,-29.744,M,0.0,*54
###2023-12-09 12:50:08.748767$GNGGA,175007.90,4138.0670214,N,07032.3931697,W,1,24,0.6,13.526,M,-29.744,M,0.0,*5F
###2023-12-09 12:50:08.956350$GNRMC,175008.10,A,4138.0670488,N,07032.3932054,W,0.39,318.34,091223,,,A*53
###2023-12-09 12:50:08.959817$GNGGA,175008.10,4138.0670488,N,07032.3932054,W,1,24,0.6,13.521,M,-29.744,M,0.0,*56
###2023-12-09 12:50:08.962052$GPGSA,A,3,03,04,16,26,28,29,31,32,,,,,1.1,0.6,0.9*3B
###2023-12-09 12:50:08.964145$GLGSA,A,3,65,71,72,73,74,75,,,,,,,1.1,0.6,0.9*24
###2023-12-09 12:50:08.966059$GAGSA,A,3,04,19,21,27,,,,,,,,,1.1,0.6,0.9*26
###2023-12-09 12:50:08.968066$GBGSA,A,3,14,24,25,26,33,,,,,,,,1.1,0.6,0.9*2F
###2023-12-09 12:50:08.970892$GPGSV,2,1,08,03,37,268,44,04,28,311,45,16,44,210,45,26,74,208,49*70
###2023-12-09 12:50:08.973690$GPGSV,2,2,08,28,53,065,44,29,26,066,40,31,71,024,47,32,23,138,41*7B
###2023-12-09 12:50:08.976503$GLGSV,2,1,06,65,18,329,45,71,48,171,48,72,71,291,46,73,41,038,43*64
###2023-12-09 12:50:08.978608$GLGSV,2,2,06,74,71,317,42,75,28,247,46,,,,,,,,*6E
###2023-12-09 12:50:08.981404$GAGSV,1,1,04,04,26,312,43,19,85,269,41,21,83,162,46,27,37,048,43*63
###2023-12-09 12:50:08.984218$GBGSV,2,1,05,14,49,195,44,24,77,011,48,25,37,257,47,26,30,060,43*64
###2023-12-09 12:50:08.985976$GBGSV,2,2,05,33,61,241,47,,,,,,,,,,,,*5D
###2023-12-09 12:50:08.987579$GNVTG,318.34,T,,M,0.39,N,0.72,K,A*21
###2023-12-09 12:50:08.989596$GNGST,175008.10,18.000,,,,0.075,0.067,0.150*53
###2023-12-09 12:50:08.991169$GNZDA,175008.10,09,12,2023,00,00*7B
###2023-12-09 12:50:08.991940$GNEBP,,,,,,M*13
###2023-12-09 12:50:09.149539$GNGGA,175008.30,4138.0670492,N,07032.3932063,W,1,24,0.6,13.535,M,-29.744,M,0.0,*5E
###2023-12-09 12:50:09.350593$GNGGA,175008.50,4138.0670382,N,07032.3931959,W,1,24,0.6,13.531,M,-29.744,M,0.0,*59
###2023-12-09 12:50:09.550553$GNGGA,175008.70,4138.0670556,N,07032.3932192,W,1,24,0.6,13.538,M,-29.744,M,0.0,*51
###2023-12-09 12:50:09.749169$GNGGA,175008.90,4138.0670986,N,07032.3932683,W,1,24,0.6,13.541,M,-29.744,M,0.0,*57
###2023-12-09 12:50:09.946889$GNRMC,175009.10,A,4138.0671127,N,07032.3932829,W,0.14,318.42,091223,,,A*5F
###2023-12-09 12:50:09.949765$GNGGA,175009.10,4138.0671127,N,07032.3932829,W,1,24,0.6,13.537,M,-29.744,M,0.0,*53
###2023-12-09 12:50:09.951649$GPGSA,A,3,03,04,16,26,28,29,31,32,,,,,1.1,0.6,0.9*3B
###2023-12-09 12:50:09.953370$GLGSA,A,3,65,71,72,73,74,75,,,,,,,1.1,0.6,0.9*24
###2023-12-09 12:50:09.954974$GAGSA,A,3,04,19,21,27,,,,,,,,,1.1,0.6,0.9*26
###2023-12-09 12:50:09.956625$GBGSA,A,3,14,24,25,26,33,,,,,,,,1.1,0.6,0.9*2F
###2023-12-09 12:50:09.958965$GPGSV,2,1,08,03,37,268,44,04,28,311,45,16,44,210,44,26,74,208,48*70
###2023-12-09 12:50:09.961301$GPGSV,2,2,08,28,53,065,44,29,26,066,39,31,71,024,47,32,23,138,42*76
###2023-12-09 12:50:09.963649$GLGSV,2,1,06,65,18,329,45,71,48,171,46,72,71,291,46,73,41,038,45*6C
###2023-12-09 12:50:09.965399$GLGSV,2,2,06,74,71,317,43,75,28,247,44,,,,,,,,*6D
###2023-12-09 12:50:09.967745$GAGSV,1,1,04,04,26,312,43,19,85,269,40,21,83,162,46,27,37,048,42*63
###2023-12-09 12:50:09.970081$GBGSV,2,1,05,14,49,195,44,24,77,011,48,25,37,257,46,26,30,060,43*65
###2023-12-09 12:50:09.971593$GBGSV,2,2,05,33,61,241,47,,,,,,,,,,,,*5D
###2023-12-09 12:50:09.972917$GNVTG,318.42,T,,M,0.14,N,0.25,K,A*2D
###2023-12-09 12:50:09.974571$GNGST,175009.10,18.000,,,,0.075,0.067,0.160*51
###2023-12-09 12:50:09.975863$GNZDA,175009.10,09,12,2023,00,00*7A
###2023-12-09 12:50:09.976501$GNEBP,,,,,,M*13
###2023-12-09 12:50:10.145425$GNGGA,175009.30,4138.0670979,N,07032.3932713,W,1,24,0.6,13.548,M,-29.744,M,0.0,*5D
###2023-12-09 12:50:10.347922$GNGGA,175009.50,4138.0671018,N,07032.3932790,W,1,24,0.6,13.556,M,-29.744,M,0.0,*50
###2023-12-09 12:50:10.548737$GNGGA,175009.70,4138.0671422,N,07032.3933238,W,1,24,0.6,13.574,M,-29.744,M,0.0,*59
###2023-12-09 12:50:10.751753$GNGGA,175009.90,4138.0671700,N,07032.3933559,W,1,24,0.6,13.565,M,-29.744,M,0.0,*54
###2023-12-09 12:50:10.950092$GNRMC,175010.10,A,4138.0671656,N,07032.3933573,W,0.21,321.66,091223,,,A*5F
###2023-12-09 12:50:10.952992$GNGGA,175010.10,4138.0671656,N,07032.3933573,W,1,24,0.6,13.577,M,-29.744,M,0.0,*5D
###2023-12-09 12:50:10.954871$GPGSA,A,3,03,04,16,26,28,29,31,32,,,,,1.1,0.6,0.9*3B
###2023-12-09 12:50:10.956591$GLGSA,A,3,65,71,72,73,74,75,,,,,,,1.1,0.6,0.9*24
###2023-12-09 12:50:10.958173$GAGSA,A,3,04,19,21,27,,,,,,,,,1.1,0.6,0.9*26
###2023-12-09 12:50:10.959841$GBGSA,A,3,14,24,25,26,33,,,,,,,,1.1,0.6,0.9*2F
###2023-12-09 12:50:10.962173$GPGSV,2,1,08,03,37,268,43,04,28,311,43,16,44,210,44,26,74,208,48*71
###2023-12-09 12:50:10.964540$GPGSV,2,2,08,28,53,065,43,29,26,066,39,31,71,024,46,32,23,138,42*70
###2023-12-09 12:50:10.966901$GLGSV,2,1,06,65,18,329,44,71,48,171,48,72,71,291,46,73,41,038,44*62
###2023-12-09 12:50:10.968646$GLGSV,2,2,06,74,71,317,43,75,28,247,45,,,,,,,,*6C
###2023-12-09 12:50:10.970986$GAGSV,1,1,04,04,26,312,42,19,85,260,41,21,83,162,46,27,37,048,43*6B
###2023-12-09 12:50:10.973316$GBGSV,2,1,05,14,49,195,45,24,77,011,48,25,37,257,45,26,30,060,43*67
###2023-12-09 12:50:10.974778$GBGSV,2,2,05,33,61,241,47,,,,,,,,,,,,*5D
###2023-12-09 12:50:10.976100$GNVTG,321.66,T,,M,0.21,N,0.40,K,A*24
###2023-12-09 12:50:10.977745$GNGST,175010.10,18.000,,,,0.075,0.067,0.160*59
###2023-12-09 12:50:10.979050$GNZDA,175010.10,09,12,2023,00,00*72
###2023-12-09 12:50:10.979689$GNEBP,,,,,,M*13
###2023-12-09 12:50:11.146374$GNGGA,175010.30,4138.0671629,N,07032.3933572,W,1,24,0.6,13.585,M,-29.744,M,0.0,*5B
###2023-12-09 12:50:11.347242$GNGGA,175010.50,4138.0671843,N,07032.3933813,W,1,24,0.6,13.591,M,-29.744,M,0.0,*50
###2023-12-09 12:50:11.547781$GNGGA,175010.70,4138.0672144,N,07032.3934175,W,1,24,0.6,13.581,M,-29.744,M,0.0,*50
###2023-12-09 12:50:11.747683$GNGGA,175010.90,4138.0672252,N,07032.3934346,W,1,24,0.6,13.581,M,-29.744,M,0.0,*58
###2023-12-09 12:50:11.947510$GNRMC,175011.10,A,4138.0672175,N,07032.3934281,W,0.16,321.66,091223,,,A*52
###2023-12-09 12:50:11.950972$GNGGA,175011.10,4138.0672175,N,07032.3934281,W,1,24,0.6,13.601,M,-29.744,M,0.0,*56
###2023-12-09 12:50:11.953215$GPGSA,A,3,03,04,16,26,28,29,31,32,,,,,1.1,0.6,0.9*3B
###2023-12-09 12:50:11.955368$GLGSA,A,3,65,71,72,73,74,75,,,,,,,1.1,0.6,0.9*24
###2023-12-09 12:50:11.957284$GAGSA,A,3,04,19,21,27,,,,,,,,,1.1,0.6,0.9*26
###2023-12-09 12:50:11.959291$GBGSA,A,3,14,24,25,26,33,,,,,,,,1.1,0.6,0.9*2F
###2023-12-09 12:50:11.962103$GPGSV,2,1,08,03,37,268,43,04,28,311,43,16,44,210,45,26,74,208,47*7F
###2023-12-09 12:50:11.964958$GPGSV,2,2,08,28,53,065,43,29,26,066,40,31,71,024,46,32,23,138,43*7F
###2023-12-09 12:50:11.967786$GLGSV,2,1,06,65,18,329,42,71,48,171,48,72,71,291,46,73,41,038,43*63
###2023-12-09 12:50:11.969879$GLGSV,2,2,06,74,71,317,43,75,28,247,44,,,,,,,,*6D
###2023-12-09 12:50:11.972698$GAGSV,1,1,04,04,26,312,42,19,85,260,40,21,83,158,46,27,37,048,42*62
###2023-12-09 12:50:11.975513$GBGSV,2,1,05,14,49,195,44,24,77,011,47,25,37,257,45,26,30,060,44*6E
###2023-12-09 12:50:11.977268$GBGSV,2,2,05,33,61,241,47,,,,,,,,,,,,*5D
###2023-12-09 12:50:11.978868$GNVTG,321.66,T,,M,0.16,N,0.29,K,A*2F
###2023-12-09 12:50:11.980847$GNGST,175011.10,18.000,,,,0.075,0.067,0.160*58
###2023-12-09 12:50:11.982399$GNZDA,175011.10,09,12,2023,00,00*73
###2023-12-09 12:50:11.983176$GNEBP,,,,,,M*13
###2023-12-09 12:50:12.149496$GNGGA,175011.30,4138.0672263,N,07032.3934298,W,1,24,0.6,13.615,M,-29.744,M,0.0,*5D
###2023-12-09 12:50:12.348974$GNGGA,175011.50,4138.0672678,N,07032.3934524,W,1,24,0.6,13.624,M,-29.744,M,0.0,*57
###2023-12-09 12:50:12.547478$GNGGA,175011.70,4138.0673131,N,07032.3934508,W,1,24,0.6,13.610,M,-29.744,M,0.0,*57
###2023-12-09 12:50:12.748019$GNGGA,175011.90,4138.0673395,N,07032.3934015,W,1,24,0.6,13.610,M,-29.744,M,0.0,*5C
###2023-12-09 12:50:12.946935$GNRMC,175012.10,A,4138.0673697,N,07032.3933354,W,1.21,45.44,091223,,,A*61
###2023-12-09 12:50:12.949784$GNGGA,175012.10,4138.0673697,N,07032.3933354,W,1,24,0.6,13.609,M,-29.744,M,0.0,*59
###2023-12-09 12:50:12.951658$GPGSA,A,3,03,04,16,26,28,29,31,32,,,,,1.1,0.6,0.9*3B
###2023-12-09 12:50:12.953382$GLGSA,A,3,65,71,72,73,74,75,,,,,,,1.1,0.6,0.9*24
###2023-12-09 12:50:12.954988$GAGSA,A,3,04,19,21,27,,,,,,,,,1.1,0.6,0.9*26
###2023-12-09 12:50:12.956647$GBGSA,A,3,14,24,25,26,33,,,,,,,,1.1,0.6,0.9*2F
###2023-12-09 12:50:12.959005$GPGSV,2,1,08,03,37,268,41,04,28,311,42,16,44,210,46,26,74,208,48*70
###2023-12-09 12:50:12.961342$GPGSV,2,2,08,28,53,065,43,29,26,066,40,31,71,024,46,32,23,138,45*79
