###2023-12-09 12:27:06.320058$GNGGA,172705.50,4138.0378995,N,07032.4355204,W,1,17,1.1,7.627,M,-29.746,M,0.0,*6C
###2023-12-09 12:27:06.521098$GNGGA,172705.70,4138.0379015,N,07032.4354253,W,1,17,1.1,7.553,M,-29.746,M,0.0,*6D
###2023-12-09 12:27:06.719265$GNGGA,172705.90,4138.0378981,N,07032.4353416,W,1,17,1.1,7.497,M,-29.746,M,0.0,*6F
###2023-12-09 12:27:06.921613$GNRMC,172706.10,A,4138.0378934,N,07032.4352678,W,0.06,,091223,,,A*46
###2023-12-09 12:27:06.924648$GNGGA,172706.10,4138.0378934,N,07032.4352678,W,1,17,1.1,7.460,M,-29.746,M,0.0,*69
###2023-12-09 12:27:06.926645$GPGSA,A,3,03,16,26,28,29,31,32,,,,,,1.7,1.1,1.3*34
###2023-12-09 12:27:06.928415$GLGSA,A,3,71,72,73,75,,,,,,,,,1.7,1.1,1.3*2F
###2023-12-09 12:27:06.930034$GAGSA,A,3,21,27,,,,,,,,,,,1.7,1.1,1.3*21
###2023-12-09 12:27:06.931801$GBGSA,A,3,14,25,26,33,,,,,,,,,1.7,1.1,1.3*22
###2023-12-09 12:27:06.934291$GPGSV,2,1,07,03,39,281,41,16,33,206,43,26,62,205,40,28,60,051,42*73
###2023-12-09 12:27:06.936501$GPGSV,2,2,07,29,24,078,42,31,73,348,42,32,33,132,48,,,,*48
###2023-12-09 12:27:06.939019$GLGSV,1,1,04,71,61,167,46,72,62,315,44,73,52,031,48,75,19,238,43*6D
###2023-12-09 12:27:06.940938$GAGSV,1,1,02,21,74,179,42,27,44,051,46,,,,,,,,*60
###2023-12-09 12:27:06.943464$GBGSV,1,1,04,14,59,200,46,25,30,250,38,26,38,056,48,33,64,263,36*6E
###2023-12-09 12:27:06.944770$GNVTG,,T,,M,0.06,N,0.11,K,A*3B
###2023-12-09 12:27:06.946615$GNGST,172706.10,34.000,,,,0.290,0.300,0.540*5D
###2023-12-09 12:27:06.948116$GNZDA,172706.10,09,12,2023,00,00*75
###2023-12-09 12:27:06.948917$GNEBP,,,,,,M*13
###2023-12-09 12:27:07.120101$GNGGA,172706.30,4138.0379650,N,07032.4353425,W,1,17,0.8,7.382,M,-29.746,M,0.0,*6F
###2023-12-09 12:27:07.320143$GNGGA,172706.50,4138.0380837,N,07032.4355061,W,1,17,0.8,7.267,M,-29.746,M,0.0,*68
###2023-12-09 12:27:07.520475$GNGGA,172706.70,4138.0381746,N,07032.4356181,W,1,17,0.8,7.172,M,-29.746,M,0.0,*69
###2023-12-09 12:27:07.721233$GNGGA,172706.90,4138.0382478,N,07032.4356992,W,1,17,0.8,7.094,M,-29.746,M,0.0,*69
###2023-12-09 12:27:07.922431$GNRMC,172707.10,A,4138.0383083,N,07032.4357628,W,0.06,,091223,,,A*46
###2023-12-09 12:27:07.925475$GNGGA,172707.10,4138.0383083,N,07032.4357628,W,1,18,0.7,7.016,M,-29.746,M,0.0,*64
###2023-12-09 12:27:07.927526$GPGSA,A,3,03,04,16,26,28,29,31,32,,,,,1.4,0.7,1.1*36
###2023-12-09 12:27:07.929298$GLGSA,A,3,71,72,73,75,,,,,,,,,1.4,0.7,1.1*29
###2023-12-09 12:27:07.930932$GAGSA,A,3,21,27,,,,,,,,,,,1.4,0.7,1.1*27
###2023-12-09 12:27:07.932676$GBGSA,A,3,14,25,26,33,,,,,,,,,1.4,0.7,1.1*24
###2023-12-09 12:27:07.935172$GPGSV,2,1,08,03,39,281,41,04,19,310,35,16,33,206,43,26,62,205,40*7A
###2023-12-09 12:27:07.937673$GPGSV,2,2,08,28,60,051,42,29,24,078,42,31,73,348,42,32,33,132,47*76
###2023-12-09 12:27:07.940180$GLGSV,1,1,04,71,61,167,46,72,62,315,44,73,52,031,48,75,19,238,43*6D
###2023-12-09 12:27:07.942092$GAGSV,1,1,02,21,74,179,41,27,44,051,46,,,,,,,,*63
###2023-12-09 12:27:07.944615$GBGSV,1,1,04,14,59,200,46,25,30,250,38,26,38,056,48,33,64,263,36*6E
###2023-12-09 12:27:07.945939$GNVTG,,T,,M,0.06,N,0.11,K,A*3B
###2023-12-09 12:27:07.947795$GNGST,172707.10,31.000,,,,0.230,0.210,0.460*50
###2023-12-09 12:27:07.949324$GNZDA,172707.10,09,12,2023,00,00*74
###2023-12-09 12:27:07.950137$GNEBP,,,,,,M*13
###2023-12-09 12:27:08.121367$GNGGA,172707.30,4138.0383595,N,07032.4358155,W,1,18,0.7,6.950,M,-29.746,M,0.0,*6C
###2023-12-09 12:27:08.321421$GNGGA,172707.50,4138.0384044,N,07032.4358580,W,1,18,0.7,6.885,M,-29.746,M,0.0,*61
###2023-12-09 12:27:08.521450$GNGGA,172707.70,4138.0384440,N,07032.4358931,W,1,18,0.7,6.825,M,-29.746,M,0.0,*6F
###2023-12-09 12:27:08.719686$GNGGA,172707.90,4138.0384772,N,07032.4359240,W,1,18,0.7,6.777,M,-29.746,M,0.0,*67
###2023-12-09 12:27:08.927940$GNRMC,172708.10,A,4138.0385081,N,07032.4359497,W,0.04,,091223,,,A*47
###2023-12-09 12:27:08.930974$GNGGA,172708.10,4138.0385081,N,07032.4359497,W,1,18,0.7,6.733,M,-29.746,M,0.0,*66
###2023-12-09 12:27:08.933030$GPGSA,A,3,03,04,16,26,28,29,31,32,,,,,1.4,0.7,1.1*36
###2023-12-09 12:27:08.934808$GLGSA,A,3,71,72,73,75,,,,,,,,,1.4,0.7,1.1*29
###2023-12-09 12:27:08.936428$GAGSA,A,3,21,27,,,,,,,,,,,1.4,0.7,1.1*27
###2023-12-09 12:27:08.938181$GBGSA,A,3,14,25,26,33,,,,,,,,,1.4,0.7,1.1*24
###2023-12-09 12:27:08.940678$GPGSV,2,1,08,03,39,281,42,04,19,310,35,16,33,206,43,26,62,205,40*79
###2023-12-09 12:27:08.943192$GPGSV,2,2,08,28,60,051,42,29,24,078,43,31,73,348,42,32,33,132,47*77
###2023-12-09 12:27:08.945698$GLGSV,1,1,04,71,61,167,47,72,62,315,44,73,52,031,48,75,19,238,43*6C
###2023-12-09 12:27:08.947669$GAGSV,1,1,02,21,74,179,42,27,44,051,46,,,,,,,,*60
###2023-12-09 12:27:08.950201$GBGSV,1,1,04,14,59,200,45,25,30,250,38,26,38,056,48,33,64,263,35*6E
###2023-12-09 12:27:08.951530$GNVTG,,T,,M,0.04,N,0.07,K,A*3E
###2023-12-09 12:27:08.953339$GNGST,172708.10,31.000,,,,0.200,0.170,0.410*5E
###2023-12-09 12:27:08.954810$GNZDA,172708.10,09,12,2023,00,00*7B
###2023-12-09 12:27:08.955618$GNEBP,,,,,,M*13
###2023-12-09 12:27:09.122043$GNGGA,172708.30,4138.0385379,N,07032.4359764,W,1,18,0.7,6.683,M,-29.746,M,0.0,*65
###2023-12-09 12:27:09.320197$GNGGA,172708.50,4138.0385659,N,07032.4360022,W,1,18,0.7,6.630,M,-29.746,M,0.0,*63
###2023-12-09 12:27:09.521341$GNGGA,172708.70,4138.0385904,N,07032.4360243,W,1,18,0.7,6.587,M,-29.746,M,0.0,*6C
###2023-12-09 12:27:09.721600$GNGGA,172708.90,4138.0386146,N,07032.4360455,W,1,18,0.7,6.549,M,-29.746,M,0.0,*6C
###2023-12-09 12:27:09.925680$GNRMC,172709.10,A,4138.0386354,N,07032.4360628,W,0.04,,091223,,,A*42
###2023-12-09 12:27:09.932638$GNGGA,172709.10,4138.0386354,N,07032.4360628,W,1,18,0.7,6.510,M,-29.746,M,0.0,*60
###2023-12-09 12:27:09.934657$GPGSA,A,3,03,04,16,26,28,29,31,32,,,,,1.4,0.7,1.1*36
###2023-12-09 12:27:09.936356$GLGSA,A,3,71,72,73,75,,,,,,,,,1.4,0.7,1.1*29
###2023-12-09 12:27:09.937914$GAGSA,A,3,21,27,,,,,,,,,,,1.4,0.7,1.1*27
###2023-12-09 12:27:09.939637$GBGSA,A,3,14,25,26,33,,,,,,,,,1.4,0.7,1.1*24
###2023-12-09 12:27:09.942126$GPGSV,2,1,08,03,39,281,42,04,19,310,35,16,33,206,44,26,62,205,40*7E
###2023-12-09 12:27:09.944563$GPGSV,2,2,08,28,60,051,42,29,24,078,42,31,73,348,42,32,33,132,47*76
###2023-12-09 12:27:09.946922$GLGSV,1,1,04,71,61,167,46,72,62,315,44,73,52,031,48,75,19,238,43*6D
###2023-12-09 12:27:09.948676$GAGSV,1,1,02,21,74,179,41,27,44,051,46,,,,,,,,*63
###2023-12-09 12:27:09.951033$GBGSV,1,1,04,14,59,200,45,25,30,250,38,26,38,056,48,33,64,263,35*6E
###2023-12-09 12:27:09.952179$GNVTG,,T,,M,0.04,N,0.07,K,A*3E
###2023-12-09 12:27:09.953827$GNGST,172709.10,31.000,,,,0.180,0.150,0.380*58
###2023-12-09 12:27:09.955145$GNZDA,172709.10,09,12,2023,00,00*7A
###2023-12-09 12:27:09.955795$GNEBP,,,,,,M*13
###2023-12-09 12:27:10.119087$GNGGA,172709.30,4138.0386534,N,07032.4360811,W,1,18,0.7,6.475,M,-29.746,M,0.0,*64
###2023-12-09 12:27:10.319967$GNGGA,172709.50,4138.0386724,N,07032.4360995,W,1,18,0.7,6.431,M,-29.746,M,0.0,*6C
###2023-12-09 12:27:10.517999$GNGGA,172709.70,4138.0386882,N,07032.4361181,W,1,18,0.7,6.384,M,-29.746,M,0.0,*68
###2023-12-09 12:27:10.718041$GNGGA,172709.90,4138.0387038,N,07032.4361342,W,1,18,0.7,6.343,M,-29.746,M,0.0,*68
###2023-12-09 12:27:10.921158$GNRMC,172710.10,A,4138.0387177,N,07032.4361495,W,0.06,,091223,,,A*4F
###2023-12-09 12:27:10.924029$GNGGA,172710.10,4138.0387177,N,07032.4361495,W,1,18,0.7,6.296,M,-29.746,M,0.0,*66
###2023-12-09 12:27:10.925904$GPGSA,A,3,03,04,16,26,28,29,31,32,,,,,1.4,0.7,1.1*36
###2023-12-09 12:27:10.927519$GLGSA,A,3,71,72,73,75,,,,,,,,,1.4,0.7,1.1*29
###2023-12-09 12:27:10.928984$GAGSA,A,3,21,27,,,,,,,,,,,1.4,0.7,1.1*27
###2023-12-09 12:27:10.930587$GBGSA,A,3,14,25,26,33,,,,,,,,,1.4,0.7,1.1*24
###2023-12-09 12:27:10.932924$GPGSV,2,1,08,03,39,281,42,04,19,310,35,16,33,206,44,26,62,205,40*7E
###2023-12-09 12:27:10.935278$GPGSV,2,2,08,28,60,051,42,29,24,078,41,31,73,348,42,32,33,132,47*75
###2023-12-09 12:27:10.937617$GLGSV,1,1,04,71,61,167,46,72,62,315,45,73,52,031,48,75,19,238,43*6C
###2023-12-09 12:27:10.939381$GAGSV,1,1,02,21,74,179,41,27,44,051,46,,,,,,,,*63
###2023-12-09 12:27:10.941710$GBGSV,1,1,04,14,59,200,46,25,30,250,38,26,38,056,49,33,64,263,36*6F
###2023-12-09 12:27:10.942869$GNVTG,,T,,M,0.06,N,0.11,K,A*3B
###2023-12-09 12:27:10.944803$GNGST,172710.10,31.000,,,,0.160,0.130,0.350*55
###2023-12-09 12:27:10.946119$GNZDA,172710.10,09,12,2023,00,00*72
###2023-12-09 12:27:10.946810$GNEBP,,,,,,M*13
###2023-12-09 12:27:11.120260$GNGGA,172710.30,4138.0387310,N,07032.4361633,W,1,18,0.7,6.258,M,-29.746,M,0.0,*6B
###2023-12-09 12:27:11.319925$GNGGA,172710.50,4138.0387443,N,07032.4361774,W,1,18,0.7,6.224,M,-29.746,M,0.0,*65
###2023-12-09 12:27:11.520103$GNGGA,172710.70,4138.0387546,N,07032.4361899,W,1,18,0.7,6.200,M,-29.746,M,0.0,*69
###2023-12-09 12:27:11.718605$GNGGA,172710.90,4138.0387651,N,07032.4362020,W,1,18,0.7,6.173,M,-29.746,M,0.0,*6C
###2023-12-09 12:27:11.920345$GNRMC,172711.10,A,4138.0387751,N,07032.4362108,W,0.02,,091223,,,A*4A
###2023-12-09 12:27:11.923284$GNGGA,172711.10,4138.0387751,N,07032.4362108,W,1,18,0.7,6.150,M,-29.746,M,0.0,*6E
