###2023-12-09 12:56:00.957367$GNRMC,175600.10,A,4138.0409598,N,07032.3899936,W,1.79,345.69,091223,,,A*59
###2023-12-09 12:56:00.960822$GNGGA,175600.10,4138.0409598,N,07032.3899936,W,1,24,0.6,13.124,M,-29.745,M,0.0,*59
###2023-12-09 12:56:00.963080$GPGSA,A,3,03,04,16,26,28,29,31,32,,,,,1.1,0.6,0.9*3B
###2023-12-09 12:56:00.965178$GLGSA,A,3,65,71,72,73,74,75,,,,,,,1.1,0.6,0.9*24
###2023-12-09 12:56:00.967106$GAGSA,A,3,04,19,21,27,,,,,,,,,1.1,0.6,0.9*26
###2023-12-09 12:56:00.969089$GBGSA,A,3,14,24,25,26,33,,,,,,,,1.1,0.6,0.9*2F
###2023-12-09 12:56:00.971901$GPGSV,2,1,08,03,36,265,44,04,30,311,42,16,47,211,47,26,77,209,48*71
###2023-12-09 12:56:00.974722$GPGSV,2,2,08,28,51,068,44,29,25,064,40,31,70,031,46,32,21,139,39*7D
###2023-12-09 12:56:00.977532$GLGSV,2,1,06,65,21,328,38,71,44,172,47,72,72,281,45,73,38,040,44*62
###2023-12-09 12:56:00.979650$GLGSV,2,2,06,74,71,327,42,75,30,250,45,,,,,,,,*61
###2023-12-09 12:56:00.982443$GAGSV,1,1,04,04,27,312,42,19,85,242,40,21,84,147,46,27,35,048,41*6B
###2023-12-09 12:56:00.985271$GBGSV,2,1,05,14,46,194,45,24,75,018,48,25,39,260,47,26,28,061,42*63
###2023-12-09 12:56:00.987037$GBGSV,2,2,05,33,59,237,48,,,,,,,,,,,,*58
###2023-12-09 12:56:00.988625$GNVTG,345.69,T,,M,1.79,N,3.31,K,A*20
###2023-12-09 12:56:00.990668$GNGST,175600.10,18.000,,,,0.079,0.067,0.160*52
###2023-12-09 12:56:00.992228$GNZDA,175600.10,09,12,2023,00,00*75
###2023-12-09 12:56:00.992996$GNEBP,,,,,,M*13
###2023-12-09 12:56:01.156009$GNGGA,175600.30,4138.0410473,N,07032.3900126,W,1,24,0.6,13.120,M,-29.745,M,0.0,*5B
###2023-12-09 12:56:01.357832$GNGGA,175600.50,4138.0411306,N,07032.3900236,W,1,24,0.6,13.118,M,-29.745,M,0.0,*50
###2023-12-09 12:56:01.557891$GNGGA,175600.70,4138.0412112,N,07032.3900448,W,1,24,0.6,13.119,M,-29.745,M,0.0,*58
###2023-12-09 12:56:01.758031$GNGGA,175600.90,4138.0412901,N,07032.3900794,W,1,24,0.6,13.123,M,-29.745,M,0.0,*57
###2023-12-09 12:56:01.957599$GNRMC,175601.10,A,4138.0413709,N,07032.3901062,W,1.40,356.32,091223,,,A*57
###2023-12-09 12:56:01.960463$GNGGA,175601.10,4138.0413709,N,07032.3901062,W,1,24,0.6,13.131,M,-29.745,M,0.0,*55
###2023-12-09 12:56:01.962317$GPGSA,A,3,03,04,16,26,28,29,31,32,,,,,1.1,0.6,0.9*3B
###2023-12-09 12:56:01.964044$GLGSA,A,3,65,71,72,73,74,75,,,,,,,1.1,0.6,0.9*24
###2023-12-09 12:56:01.965626$GAGSA,A,3,04,19,21,27,,,,,,,,,1.1,0.6,0.9*26
###2023-12-09 12:56:01.967276$GBGSA,A,3,14,24,25,26,33,,,,,,,,1.1,0.6,0.9*2F
###2023-12-09 12:56:01.969594$GPGSV,2,1,08,03,36,265,45,04,30,311,41,16,47,211,46,26,77,209,47*7D
###2023-12-09 12:56:01.971936$GPGSV,2,2,08,28,51,068,43,29,25,064,38,31,70,031,46,32,21,139,41*7A
###2023-12-09 12:56:01.974268$GLGSV,2,1,06,65,21,328,43,71,44,172,46,72,72,281,46,73,38,040,43*6B
###2023-12-09 12:56:01.976025$GLGSV,2,2,06,74,71,327,42,75,30,250,45,,,,,,,,*61
###2023-12-09 12:56:01.978355$GAGSV,1,1,04,04,27,312,42,19,85,242,40,21,84,147,46,27,35,048,41*6B
###2023-12-09 12:56:01.980695$GBGSV,2,1,05,14,46,194,44,24,75,018,48,25,39,260,45,26,28,061,39*6C
###2023-12-09 12:56:01.982150$GBGSV,2,2,05,33,59,237,47,,,,,,,,,,,,*57
###2023-12-09 12:56:01.983484$GNVTG,356.32,T,,M,1.40,N,2.59,K,A*29
###2023-12-09 12:56:01.985134$GNGST,175601.10,18.000,,,,0.079,0.067,0.160*53
###2023-12-09 12:56:01.986425$GNZDA,175601.10,09,12,2023,00,00*74
###2023-12-09 12:56:01.987076$GNEBP,,,,,,M*13
###2023-12-09 12:56:02.155703$GNGGA,175601.30,4138.0414424,N,07032.3900965,W,1,24,0.6,13.138,M,-29.745,M,0.0,*5A
###2023-12-09 12:56:02.357729$GNGGA,175601.50,4138.0415037,N,07032.3900736,W,1,24,0.6,13.126,M,-29.745,M,0.0,*5C
###2023-12-09 12:56:02.558016$GNGGA,175601.70,4138.0415667,N,07032.3900840,W,1,24,0.6,13.128,M,-29.745,M,0.0,*5D
###2023-12-09 12:56:02.767371$GNGGA,175601.90,4138.0416379,N,07032.3901195,W,1,24,0.6,13.133,M,-29.745,M,0.0,*50
###2023-12-09 12:56:02.956507$GNRMC,175602.10,A,4138.0416998,N,07032.3901190,W,1.09,21.24,091223,,,A*62
###2023-12-09 12:56:02.959993$GNGGA,175602.10,4138.0416998,N,07032.3901190,W,1,24,0.6,13.129,M,-29.745,M,0.0,*50
###2023-12-09 12:56:02.962235$GPGSA,A,3,03,04,16,26,28,29,31,32,,,,,1.1,0.6,0.9*3B
###2023-12-09 12:56:02.964331$GLGSA,A,3,65,71,72,73,74,75,,,,,,,1.1,0.6,0.9*24
###2023-12-09 12:56:02.966249$GAGSA,A,3,04,19,21,27,,,,,,,,,1.1,0.6,0.9*26
###2023-12-09 12:56:02.968250$GBGSA,A,3,14,24,25,26,33,,,,,,,,1.1,0.6,0.9*2F
###2023-12-09 12:56:02.971075$GPGSV,2,1,08,03,36,265,44,04,30,311,43,16,47,211,46,26,77,209,49*70
###2023-12-09 12:56:02.973906$GPGSV,2,2,08,28,51,068,42,29,25,064,39,31,70,031,45,32,21,139,38*77
###2023-12-09 12:56:02.976737$GLGSV,2,1,06,65,21,328,44,71,44,172,46,72,72,281,47,73,38,040,43*6D
###2023-12-09 12:56:02.978863$GLGSV,2,2,06,74,71,327,42,75,30,250,44,,,,,,,,*60
###2023-12-09 12:56:02.981711$GAGSV,1,1,04,04,27,312,43,19,85,242,40,21,84,147,46,27,35,048,41*6A
###2023-12-09 12:56:02.984546$GBGSV,2,1,05,14,46,194,45,24,75,018,48,25,39,260,46,26,28,061,41*61
###2023-12-09 12:56:02.986298$GBGSV,2,2,05,33,59,237,48,,,,,,,,,,,,*58
###2023-12-09 12:56:02.987897$GNVTG,21.24,T,,M,1.09,N,2.02,K,A*1E
###2023-12-09 12:56:02.989895$GNGST,175602.10,18.000,,,,0.079,0.068,0.160*5F
###2023-12-09 12:56:02.991466$GNZDA,175602.10,09,12,2023,00,00*77
###2023-12-09 12:56:02.992239$GNEBP,,,,,,M*13
###2023-12-09 12:56:03.155830$GNGGA,175602.30,4138.0417483,N,07032.3900845,W,1,24,0.6,13.148,M,-29.745,M,0.0,*53
###2023-12-09 12:56:03.356487$GNGGA,175602.50,4138.0417932,N,07032.3900590,W,1,24,0.6,13.144,M,-29.745,M,0.0,*5B
###2023-12-09 12:56:03.556144$GNGGA,175602.70,4138.0418518,N,07032.3900693,W,1,24,0.6,13.149,M,-29.745,M,0.0,*5F
###2023-12-09 12:56:03.764072$GNGGA,175602.90,4138.0419187,N,07032.3900945,W,1,24,0.6,13.141,M,-29.745,M,0.0,*5E
###2023-12-09 12:56:03.956028$GNRMC,175603.10,A,4138.0419633,N,07032.3900755,W,0.87,350.58,091223,,,A*55
###2023-12-09 12:56:03.958903$GNGGA,175603.10,4138.0419633,N,07032.3900755,W,1,24,0.6,13.139,M,-29.745,M,0.0,*5F
###2023-12-09 12:56:03.960757$GPGSA,A,3,03,04,16,26,28,29,31,32,,,,,1.1,0.6,0.9*3B
###2023-12-09 12:56:03.962477$GLGSA,A,3,65,71,72,73,74,75,,,,,,,1.1,0.6,0.9*24
###2023-12-09 12:56:03.964070$GAGSA,A,3,04,19,21,27,,,,,,,,,1.1,0.6,0.9*26
###2023-12-09 12:56:03.965717$GBGSA,A,3,14,24,25,26,33,,,,,,,,1.1,0.6,0.9*2F
###2023-12-09 12:56:03.968058$GPGSV,2,1,08,03,36,265,44,04,30,311,45,16,47,211,45,26,77,209,48*74
###2023-12-09 12:56:03.970382$GPGSV,2,2,08,28,51,068,42,29,25,064,39,31,70,031,46,32,21,139,39*75
###2023-12-09 12:56:03.972731$GLGSV,2,1,06,65,21,328,45,71,44,172,45,72,72,281,46,73,38,040,42*6F
###2023-12-09 12:56:03.974510$GLGSV,2,2,06,74,71,327,42,75,30,250,45,,,,,,,,*61
###2023-12-09 12:56:03.976856$GAGSV,1,1,04,04,27,312,44,19,85,242,41,21,84,147,46,27,35,048,42*6F
###2023-12-09 12:56:03.979191$GBGSV,2,1,05,14,46,194,43,24,75,018,48,25,39,260,45,26,28,061,41*64
###2023-12-09 12:56:03.980644$GBGSV,2,2,05,33,59,237,47,,,,,,,,,,,,*57
###2023-12-09 12:56:03.981966$GNVTG,350.58,T,,M,0.87,N,1.62,K,A*22
###2023-12-09 12:56:03.983622$GNGST,175603.10,18.000,,,,0.079,0.068,0.160*5E
###2023-12-09 12:56:03.984911$GNZDA,175603.10,09,12,2023,00,00*76
###2023-12-09 12:56:03.985549$GNEBP,,,,,,M*13
###2023-12-09 12:56:04.154311$GNGGA,175603.30,4138.0419882,N,07032.3900293,W,1,24,0.6,13.149,M,-29.745,M,0.0,*51
###2023-12-09 12:56:04.356536$GNGGA,175603.50,4138.0420256,N,07032.3900131,W,1,24,0.6,13.155,M,-29.745,M,0.0,*58
###2023-12-09 12:56:04.557009$GNGGA,175603.70,4138.0420893,N,07032.3900353,W,1,24,0.6,13.170,M,-29.745,M,0.0,*58
###2023-12-09 12:56:04.755036$GNGGA,175603.90,4138.0421446,N,07032.3900389,W,1,24,0.6,13.154,M,-29.745,M,0.0,*52
###2023-12-09 12:56:04.956183$GNRMC,175604.10,A,4138.0421670,N,07032.3900024,W,0.58,354.74,091223,,,A*57
###2023-12-09 12:56:04.959055$GNGGA,175604.10,4138.0421670,N,07032.3900024,W,1,24,0.6,13.166,M,-29.745,M,0.0,*5F
###2023-12-09 12:56:04.960907$GPGSA,A,3,03,04,16,26,28,29,31,32,,,,,1.1,0.6,0.9*3B
###2023-12-09 12:56:04.962633$GLGSA,A,3,65,71,72,73,74,75,,,,,,,1.1,0.6,0.9*24
###2023-12-09 12:56:04.964214$GAGSA,A,3,04,19,21,27,,,,,,,,,1.1,0.6,0.9*26
###2023-12-09 12:56:04.965854$GBGSA,A,3,14,24,25,26,33,,,,,,,,1.1,0.6,0.9*2F
###2023-12-09 12:56:04.968224$GPGSV,2,1,08,03,36,265,43,04,30,311,44,16,47,211,45,26,77,209,48*72
###2023-12-09 12:56:04.970813$GPGSV,2,2,08,28,51,068,44,29,25,064,40,31,70,031,46,32,21,139,43*70
###2023-12-09 12:56:04.973169$GLGSV,2,1,06,65,21,328,44,71,44,172,47,72,72,281,46,73,38,040,41*6F
###2023-12-09 12:56:04.974939$GLGSV,2,2,06,74,71,327,43,75,30,250,47,,,,,,,,*62
###2023-12-09 12:56:04.977281$GAGSV,1,1,04,04,27,312,42,19,85,234,40,21,84,147,46,27,35,048,42*69
###2023-12-09 12:56:04.979636$GBGSV,2,1,05,14,46,194,43,24,75,018,48,25,39,260,45,26,28,061,41*64
###2023-12-09 12:56:04.981098$GBGSV,2,2,05,33,59,237,47,,,,,,,,,,,,*57
###2023-12-09 12:56:04.982425$GNVTG,354.74,T,,M,0.58,N,1.08,K,A*26
###2023-12-09 12:56:04.984086$GNGST,175604.10,18.000,,,,0.078,0.068,0.160*58
###2023-12-09 12:56:04.985384$GNZDA,175604.10,09,12,2023,00,00*71
