###2023-12-09 13:00:50.986902$GAGSV,1,1,04,04,29,312,43,19,84,216,40,21,86,120,46,27,33,048,41*61
###2023-12-09 13:00:50.989271$GBGSV,2,1,05,14,43,193,44,24,74,024,48,25,41,262,45,26,26,063,41*6E
###2023-12-09 13:00:50.990755$GBGSV,2,2,05,33,57,233,47,,,,,,,,,,,,*5D
###2023-12-09 13:00:50.992053$GNVTG,59.38,T,,M,3.62,N,6.70,K,A*12
###2023-12-09 13:00:50.993696$GNGST,180050.10,18.000,,,,0.079,0.067,0.160*5B
###2023-12-09 13:00:50.995008$GNZDA,180050.10,09,12,2023,00,00*7C
###2023-12-09 13:00:50.995652$GNEBP,,,,,,M*13
###2023-12-09 13:00:51.165527$GNGGA,180050.30,4138.0327188,N,07032.2879952,W,1,24,0.6,13.435,M,-29.744,M,0.0,*55
###2023-12-09 13:00:51.364006$GNGGA,180050.50,4138.0328167,N,07032.2877681,W,1,24,0.6,13.437,M,-29.744,M,0.0,*50
###2023-12-09 13:00:51.563379$GNGGA,180050.70,4138.0329322,N,07032.2875596,W,1,24,0.6,13.439,M,-29.744,M,0.0,*59
###2023-12-09 13:00:51.764956$GNGGA,180050.90,4138.0330312,N,07032.2873347,W,1,24,0.6,13.409,M,-29.744,M,0.0,*53
###2023-12-09 13:00:51.966420$GNRMC,180051.10,A,4138.0331242,N,07032.2871154,W,3.38,56.84,091223,,,A*63
###2023-12-09 13:00:51.969292$GNGGA,180051.10,4138.0331242,N,07032.2871154,W,1,24,0.6,13.404,M,-29.744,M,0.0,*50
###2023-12-09 13:00:51.971167$GPGSA,A,3,03,04,16,26,28,29,31,32,,,,,1.1,0.6,0.9*3B
###2023-12-09 13:00:51.972889$GLGSA,A,3,65,71,72,73,74,75,,,,,,,1.1,0.6,0.9*24
###2023-12-09 13:00:51.974475$GAGSA,A,3,04,19,21,27,,,,,,,,,1.1,0.6,0.9*26
###2023-12-09 13:00:51.976143$GBGSA,A,3,14,24,25,26,33,,,,,,,,1.1,0.6,0.9*2F
###2023-12-09 13:00:51.978476$GPGSV,2,1,08,03,35,262,44,04,32,311,42,16,49,212,47,26,79,210,48*7C
###2023-12-09 13:00:51.980831$GPGSV,2,2,08,28,49,070,43,29,25,061,41,31,69,036,46,32,19,140,42*78
###2023-12-09 13:00:51.983183$GLGSV,2,1,06,65,24,327,43,71,41,173,48,72,73,269,47,73,36,041,42*63
###2023-12-09 13:00:51.984928$GLGSV,2,2,06,74,70,337,42,75,32,253,47,,,,,,,,*62
###2023-12-09 13:00:51.987307$GAGSV,1,1,04,04,29,312,42,19,84,216,40,21,86,120,46,27,33,048,39*6F
###2023-12-09 13:00:51.989640$GBGSV,2,1,05,14,43,193,45,24,74,024,48,25,41,262,44,26,26,063,42*6D
###2023-12-09 13:00:51.991114$GBGSV,2,2,05,33,57,233,47,,,,,,,,,,,,*5D
###2023-12-09 13:00:51.992413$GNVTG,56.84,T,,M,3.38,N,6.26,K,A*16
###2023-12-09 13:00:51.994058$GNGST,180051.10,18.000,,,,0.078,0.067,0.160*5B
###2023-12-09 13:00:51.995365$GNZDA,180051.10,09,12,2023,00,00*7D
###2023-12-09 13:00:51.996004$GNEBP,,,,,,M*13
###2023-12-09 13:00:52.162469$GNGGA,180051.30,4138.0332336,N,07032.2869044,W,1,24,0.6,13.435,M,-29.744,M,0.0,*58
###2023-12-09 13:00:52.363998$GNGGA,180051.50,4138.0333346,N,07032.2866718,W,1,24,0.6,13.443,M,-29.744,M,0.0,*58
###2023-12-09 13:00:52.564537$GNGGA,180051.70,4138.0334183,N,07032.2864292,W,1,24,0.6,13.431,M,-29.744,M,0.0,*56
###2023-12-09 13:00:52.764762$GNGGA,180051.90,4138.0335096,N,07032.2862002,W,1,24,0.6,13.424,M,-29.744,M,0.0,*55
###2023-12-09 13:00:52.964375$GNRMC,180052.10,A,4138.0336052,N,07032.2859720,W,3.52,62.94,091223,,,A*61
###2023-12-09 13:00:52.967243$GNGGA,180052.10,4138.0336052,N,07032.2859720,W,1,24,0.6,13.414,M,-29.744,M,0.0,*59
###2023-12-09 13:00:52.969102$GPGSA,A,3,03,04,16,26,28,29,31,32,,,,,1.1,0.6,0.9*3B
###2023-12-09 13:00:52.970825$GLGSA,A,3,65,71,72,73,74,75,,,,,,,1.1,0.6,0.9*24
###2023-12-09 13:00:52.972411$GAGSA,A,3,04,19,21,27,,,,,,,,,1.1,0.6,0.9*26
###2023-12-09 13:00:52.974060$GBGSA,A,3,14,24,25,26,33,,,,,,,,1.1,0.6,0.9*2F
###2023-12-09 13:00:52.976402$GPGSV,2,1,08,03,35,262,44,04,32,311,43,16,49,212,46,26,79,210,48*7C
###2023-12-09 13:00:52.978774$GPGSV,2,2,08,28,49,070,42,29,25,061,41,31,69,036,46,32,19,140,44*7F
###2023-12-09 13:00:52.981097$GLGSV,2,1,06,65,24,327,42,71,41,173,49,72,73,269,46,73,36,041,41*61
###2023-12-09 13:00:52.982858$GLGSV,2,2,06,74,70,337,42,75,32,253,48,,,,,,,,*6D
###2023-12-09 13:00:52.985188$GAGSV,1,1,04,04,29,312,41,19,84,216,40,21,86,120,45,27,33,048,40*61
###2023-12-09 13:00:52.987529$GBGSV,2,1,05,14,43,193,45,24,74,024,47,25,41,262,45,26,26,063,41*60
###2023-12-09 13:00:52.988984$GBGSV,2,2,05,33,57,233,47,,,,,,,,,,,,*5D
###2023-12-09 13:00:52.990272$GNVTG,62.94,T,,M,3.52,N,6.52,K,A*1F
###2023-12-09 13:00:52.991934$GNGST,180052.10,18.000,,,,0.079,0.067,0.160*59
###2023-12-09 13:00:52.993228$GNZDA,180052.10,09,12,2023,00,00*7E
###2023-12-09 13:00:52.993869$GNEBP,,,,,,M*13
###2023-12-09 13:00:53.163546$GNGGA,180052.30,4138.0336930,N,07032.2857442,W,1,24,0.6,13.386,M,-29.744,M,0.0,*53
###2023-12-09 13:00:53.363238$GNGGA,180052.50,4138.0337736,N,07032.2855174,W,1,24,0.6,13.386,M,-29.744,M,0.0,*5E
###2023-12-09 13:00:53.564345$GNGGA,180052.70,4138.0338533,N,07032.2852859,W,1,24,0.6,13.405,M,-29.744,M,0.0,*59
###2023-12-09 13:00:53.761699$GNGGA,180052.90,4138.0339381,N,07032.2850506,W,1,24,0.6,13.411,M,-29.744,M,0.0,*59
###2023-12-09 13:00:53.966580$GNRMC,180053.10,A,4138.0340223,N,07032.2848123,W,3.50,62.67,091223,,,A*6E
###2023-12-09 13:00:53.970057$GNGGA,180053.10,4138.0340223,N,07032.2848123,W,1,24,0.6,13.395,M,-29.744,M,0.0,*56
###2023-12-09 13:00:53.972327$GPGSA,A,3,03,04,16,26,28,29,31,32,,,,,1.1,0.6,0.9*3B
###2023-12-09 13:00:53.974406$GLGSA,A,3,65,71,72,73,74,75,,,,,,,1.1,0.6,0.9*24
###2023-12-09 13:00:53.976335$GAGSA,A,3,04,19,21,27,,,,,,,,,1.1,0.6,0.9*26
###2023-12-09 13:00:53.978353$GBGSA,A,3,14,24,25,26,33,,,,,,,,1.1,0.6,0.9*2F
###2023-12-09 13:00:53.981182$GPGSV,2,1,08,03,35,262,44,04,32,311,44,16,49,212,46,26,79,210,48*7B
###2023-12-09 13:00:53.984020$GPGSV,2,2,08,28,49,070,43,29,25,061,41,31,69,036,46,32,19,140,43*79
###2023-12-09 13:00:53.986858$GLGSV,2,1,06,65,24,327,42,71,41,173,48,72,73,269,46,73,36,041,43*62
###2023-12-09 13:00:53.988976$GLGSV,2,2,06,74,70,337,42,75,32,253,46,,,,,,,,*63
###2023-12-09 13:00:53.991845$GAGSV,1,1,04,04,29,312,41,19,84,216,40,21,86,120,46,27,33,048,40*62
###2023-12-09 13:00:53.994704$GBGSV,2,1,05,14,43,193,45,24,74,024,48,25,41,262,45,26,26,063,42*6C
###2023-12-09 13:00:53.996475$GBGSV,2,2,05,33,57,233,47,,,,,,,,,,,,*5D
###2023-12-09 13:00:53.998037$GNVTG,62.67,T,,M,3.50,N,6.48,K,A*1A
###2023-12-09 13:00:54.000041$GNGST,180053.10,18.000,,,,0.079,0.067,0.160*58
###2023-12-09 13:00:54.001607$GNZDA,180053.10,09,12,2023,00,00*7F
###2023-12-09 13:00:54.002388$GNEBP,,,,,,M*13
###2023-12-09 13:00:54.164184$GNGGA,180053.30,4138.0341174,N,07032.2845851,W,1,24,0.6,13.389,M,-29.744,M,0.0,*58
###2023-12-09 13:00:54.364858$GNGGA,180053.50,4138.0342122,N,07032.2843497,W,1,24,0.6,13.387,M,-29.744,M,0.0,*50
###2023-12-09 13:00:54.565180$GNGGA,180053.70,4138.0343011,N,07032.2841248,W,1,24,0.6,13.385,M,-29.744,M,0.0,*56
###2023-12-09 13:00:54.765034$GNGGA,180053.90,4138.0343961,N,07032.2838986,W,1,24,0.6,13.408,M,-29.744,M,0.0,*53
###2023-12-09 13:00:54.967083$GNRMC,180054.10,A,4138.0344825,N,07032.2836536,W,3.58,66.48,091223,,,A*69
###2023-12-09 13:00:54.970580$GNGGA,180054.10,4138.0344825,N,07032.2836536,W,1,24,0.6,13.392,M,-29.744,M,0.0,*57
###2023-12-09 13:00:54.972833$GPGSA,A,3,03,04,16,26,28,29,31,32,,,,,1.1,0.6,0.9*3B
###2023-12-09 13:00:54.974920$GLGSA,A,3,65,71,72,73,74,75,,,,,,,1.1,0.6,0.9*24
###2023-12-09 13:00:54.976832$GAGSA,A,3,04,19,21,27,,,,,,,,,1.1,0.6,0.9*26
###2023-12-09 13:00:54.978846$GBGSA,A,3,14,24,25,26,33,,,,,,,,1.1,0.6,0.9*2F
###2023-12-09 13:00:54.981660$GPGSV,2,1,08,03,35,262,44,04,32,311,43,16,49,212,45,26,79,210,49*7E
###2023-12-09 13:00:54.984494$GPGSV,2,2,08,28,49,070,43,29,25,061,41,31,69,036,46,32,19,140,43*79
###2023-12-09 13:00:54.987320$GLGSV,2,1,06,65,24,327,43,71,41,173,48,72,73,269,46,73,36,041,43*63
###2023-12-09 13:00:54.989433$GLGSV,2,2,06,74,70,337,42,75,32,253,47,,,,,,,,*62
###2023-12-09 13:00:54.992261$GAGSV,1,1,04,04,29,312,42,19,84,216,40,21,86,120,46,27,33,048,41*60
###2023-12-09 13:00:54.995094$GBGSV,2,1,05,14,43,193,45,24,74,024,48,25,41,262,45,26,26,063,42*6C
###2023-12-09 13:00:54.996850$GBGSV,2,2,05,33,57,233,48,,,,,,,,,,,,*52
###2023-12-09 13:00:54.998414$GNVTG,66.48,T,,M,3.58,N,6.62,K,A*13
###2023-12-09 13:00:55.000419$GNGST,180054.10,18.000,,,,0.079,0.067,0.160*5F
###2023-12-09 13:00:55.001990$GNZDA,180054.10,09,12,2023,00,00*78
###2023-12-09 13:00:55.002813$GNEBP,,,,,,M*13
###2023-12-09 13:00:55.162490$GNGGA,180054.30,4138.0345665,N,07032.2834246,W,1,24,0.6,13.371,M,-29.744,M,0.0,*51
###2023-12-09 13:00:55.364081$GNGGA,180054.50,4138.0346712,N,07032.2832035,W,1,24,0.6,13.391,M,-29.744,M,0.0,*5B
###2023-12-09 13:00:55.563228$GNGGA,180054.70,4138.0347597,N,07032.2829677,W,1,24,0.6,13.386,M,-29.744,M,0.0,*5B
###2023-12-09 13:00:55.764118$GNGGA,180054.90,4138.0348494,N,07032.2827474,W,1,24,0.6,13.392,M,-29.744,M,0.0,*52
###2023-12-09 13:00:55.966812$GNRMC,180055.10,A,4138.0349505,N,07032.2825235,W,3.62,60.71,091223,,,A*69
###2023-12-09 13:00:55.970278$GNGGA,180055.10,4138.0349505,N,07032.2825235,W,1,24,0.6,13.420,M,-29.744,M,0.0,*5C
###2023-12-09 13:00:55.972543$GPGSA,A,3,03,04,16,26,28,29,31,32,,,,,1.1,0.6,0.9*3B
###2023-12-09 13:00:55.974633$GLGSA,A,3,65,71,72,73,74,75,,,,,,,1.1,0.6,0.9*24
###2023-12-09 13:00:55.976539$GAGSA,A,3,04,19,21,27,,,,,,,,,1.1,0.6,0.9*26
