###2023-12-09 13:38:19.009037$GPGSA,A,3,03,04,16,26,27,28,29,31,,,,,1.0,0.6,0.8*3F
###2023-12-09 13:38:19.010799$GLGSA,A,3,65,71,72,73,74,75,,,,,,,1.0,0.6,0.8*24
###2023-12-09 13:38:19.012393$GAGSA,A,3,04,19,21,27,,,,,,,,,1.0,0.6,0.8*26
###2023-12-09 13:38:19.014104$GBGSA,A,3,12,14,24,25,33,35,,,,,,,1.0,0.6,0.8*2E
###2023-12-09 13:38:19.016437$GPGSV,2,1,08,03,25,245,43,04,48,307,45,16,68,224,46,26,82,040,48*76
###2023-12-09 13:38:19.018779$GPGSV,2,2,08,27,18,172,44,28,37,086,46,29,20,046,42,31,58,068,47*74
###2023-12-09 13:38:19.021100$GLGSV,2,1,06,65,39,317,43,71,21,175,43,72,61,219,47,73,21,053,41*65
###2023-12-09 13:38:19.022852$GLGSV,2,2,06,74,59,016,41,75,44,273,47,,,,,,,,*69
###2023-12-09 13:38:19.025157$GAGSV,1,1,04,04,41,309,44,19,70,181,42,21,75,045,46,27,21,050,41*62
###2023-12-09 13:38:19.027491$GBGSV,2,1,06,12,16,125,39,14,28,189,41,24,62,047,47,25,52,277,45*6D
###2023-12-09 13:38:19.029229$GBGSV,2,2,06,33,44,216,47,35,16,055,41,,,,,,,,*6F
###2023-12-09 13:38:19.030550$GNVTG,349.22,T,,M,3.03,N,5.62,K,A*2C
###2023-12-09 13:38:19.032175$GNGST,183818.10,6.000,,,,0.110,0.095,0.210*64
###2023-12-09 13:38:19.033468$GNZDA,183818.10,09,12,2023,00,00*7B
###2023-12-09 13:38:19.034105$GNEBP,,,,,,M*13
###2023-12-09 13:38:19.200870$GNGGA,183818.30,4138.0385138,N,07032.3933358,W,1,25,0.6,13.356,M,-29.745,M,0.0,*5D
###2023-12-09 13:38:19.399429$GNGGA,183818.50,4138.0386798,N,07032.3933725,W,1,25,0.6,13.351,M,-29.745,M,0.0,*5D
###2023-12-09 13:38:19.599084$GNGGA,183818.70,4138.0388455,N,07032.3934226,W,1,25,0.6,13.348,M,-29.745,M,0.0,*5A
###2023-12-09 13:38:19.799520$GNGGA,183818.90,4138.0390141,N,07032.3934763,W,1,25,0.6,13.344,M,-29.745,M,0.0,*55
###2023-12-09 13:38:20.003346$GNRMC,183819.10,A,4138.0391878,N,07032.3935204,W,3.23,351.42,091223,,,A*5F
###2023-12-09 13:38:20.006207$GNGGA,183819.10,4138.0391878,N,07032.3935204,W,1,25,0.6,13.341,M,-29.745,M,0.0,*5E
###2023-12-09 13:38:20.008074$GPGSA,A,3,03,04,16,26,27,28,29,31,,,,,1.0,0.6,0.8*3F
###2023-12-09 13:38:20.009783$GLGSA,A,3,65,71,72,73,74,75,,,,,,,1.0,0.6,0.8*24
###2023-12-09 13:38:20.011376$GAGSA,A,3,04,19,21,27,,,,,,,,,1.0,0.6,0.8*26
###2023-12-09 13:38:20.013074$GBGSA,A,3,12,14,24,25,33,35,,,,,,,1.0,0.6,0.8*2E
###2023-12-09 13:38:20.015392$GPGSV,2,1,08,03,25,245,43,04,48,307,45,16,68,224,46,26,82,040,48*76
###2023-12-09 13:38:20.017712$GPGSV,2,2,08,27,18,172,43,28,37,086,44,29,20,046,39,31,58,068,47*7D
###2023-12-09 13:38:20.020042$GLGSV,2,1,06,65,39,317,43,71,21,175,44,72,61,219,48,73,21,053,40*6C
###2023-12-09 13:38:20.021779$GLGSV,2,2,06,74,59,016,41,75,44,273,47,,,,,,,,*69
###2023-12-09 13:38:20.024100$GAGSV,1,1,04,04,41,309,45,19,70,181,41,21,75,045,46,27,21,050,39*6F
###2023-12-09 13:38:20.026414$GBGSV,2,1,06,12,17,125,40,14,28,189,41,24,62,047,47,25,52,277,47*60
###2023-12-09 13:38:20.028195$GBGSV,2,2,06,33,44,216,46,35,16,055,42,,,,,,,,*6D
###2023-12-09 13:38:20.029514$GNVTG,351.42,T,,M,3.23,N,5.98,K,A*24
###2023-12-09 13:38:20.031160$GNGST,183819.10,6.200,,,,0.110,0.094,0.210*66
###2023-12-09 13:38:20.032444$GNZDA,183819.10,09,12,2023,00,00*7A
###2023-12-09 13:38:20.033080$GNEBP,,,,,,M*13
###2023-12-09 13:38:20.198378$GNGGA,183819.30,4138.0393632,N,07032.3935420,W,1,25,0.6,13.336,M,-29.745,M,0.0,*5E
###2023-12-09 13:38:20.398639$GNGGA,183819.50,4138.0395369,N,07032.3935492,W,1,25,0.6,13.329,M,-29.745,M,0.0,*52
###2023-12-09 13:38:20.599519$GNGGA,183819.70,4138.0397093,N,07032.3935562,W,1,25,0.6,13.316,M,-29.745,M,0.0,*56
###2023-12-09 13:38:20.798998$GNGGA,183819.90,4138.0398788,N,07032.3935687,W,1,25,0.6,13.311,M,-29.745,M,0.0,*55
###2023-12-09 13:38:21.009933$GNRMC,183820.10,A,4138.0400455,N,07032.3935655,W,3.05,6.25,091223,,,A*5D
###2023-12-09 13:38:21.012863$GNGGA,183820.10,4138.0400455,N,07032.3935655,W,1,25,0.6,13.308,M,-29.745,M,0.0,*55
###2023-12-09 13:38:21.014739$GPGSA,A,3,03,04,16,26,27,28,29,31,,,,,1.0,0.6,0.8*3F
###2023-12-09 13:38:21.016445$GLGSA,A,3,65,71,72,73,74,75,,,,,,,1.0,0.6,0.8*24
###2023-12-09 13:38:21.018018$GAGSA,A,3,04,19,21,27,,,,,,,,,1.0,0.6,0.8*26
###2023-12-09 13:38:21.019735$GBGSA,A,3,12,14,24,25,33,35,,,,,,,1.0,0.6,0.8*2E
###2023-12-09 13:38:21.022047$GPGSV,2,1,08,03,25,245,43,04,48,307,46,16,68,224,46,26,82,040,48*75
###2023-12-09 13:38:21.024373$GPGSV,2,2,08,27,18,172,43,28,37,086,44,29,20,046,39,31,58,068,46*7C
###2023-12-09 13:38:21.026709$GLGSV,2,1,06,65,39,317,42,71,21,175,45,72,61,219,47,73,21,053,38*6C
###2023-12-09 13:38:21.028449$GLGSV,2,2,06,74,59,016,41,75,44,273,49,,,,,,,,*67
###2023-12-09 13:38:21.030776$GAGSV,1,1,04,04,41,309,44,19,70,181,41,21,75,045,45,27,21,050,36*62
###2023-12-09 13:38:21.033093$GBGSV,2,1,06,12,17,125,39,14,28,189,41,24,62,047,47,25,52,277,49*60
###2023-12-09 13:38:21.034870$GBGSV,2,2,06,33,44,216,47,35,16,055,41,,,,,,,,*6F
###2023-12-09 13:38:21.036127$GNVTG,6.25,T,,M,3.05,N,5.65,K,A*22
###2023-12-09 13:38:21.037741$GNGST,183820.10,5.800,,,,0.110,0.094,0.210*65
###2023-12-09 13:38:21.039039$GNZDA,183820.10,09,12,2023,00,00*70
###2023-12-09 13:38:21.039680$GNEBP,,,,,,M*13
###2023-12-09 13:38:21.206664$GNGGA,183820.30,4138.0402099,N,07032.3935254,W,1,25,0.6,13.304,M,-29.745,M,0.0,*58
###2023-12-09 13:38:21.397521$GNGGA,183820.50,4138.0403733,N,07032.3934921,W,1,25,0.6,13.299,M,-29.745,M,0.0,*55
###2023-12-09 13:38:21.597350$GNGGA,183820.70,4138.0405383,N,07032.3934899,W,1,25,0.6,13.299,M,-29.745,M,0.0,*5C
###2023-12-09 13:38:21.799711$GNGGA,183820.90,4138.0407050,N,07032.3934952,W,1,25,0.6,13.297,M,-29.745,M,0.0,*55
###2023-12-09 13:38:22.002299$GNRMC,183821.10,A,4138.0408750,N,07032.3934554,W,3.15,13.03,091223,,,A*60
###2023-12-09 13:38:22.005189$GNGGA,183821.10,4138.0408750,N,07032.3934554,W,1,25,0.6,13.290,M,-29.745,M,0.0,*59
###2023-12-09 13:38:22.007068$GPGSA,A,3,03,04,16,26,27,28,29,31,,,,,1.0,0.6,0.8*3F
###2023-12-09 13:38:22.008787$GLGSA,A,3,65,71,72,73,74,75,,,,,,,1.0,0.6,0.8*24
###2023-12-09 13:38:22.010375$GAGSA,A,3,04,19,21,27,,,,,,,,,1.0,0.6,0.8*26
###2023-12-09 13:38:22.012103$GBGSA,A,3,12,14,24,25,33,35,,,,,,,1.0,0.6,0.8*2E
###2023-12-09 13:38:22.014436$GPGSV,2,1,08,03,25,245,44,04,48,307,44,16,68,224,46,26,82,040,47*7F
###2023-12-09 13:38:22.016776$GPGSV,2,2,08,27,18,172,42,28,37,086,43,29,20,046,39,31,58,068,46*7A
###2023-12-09 13:38:22.019114$GLGSV,2,1,06,65,39,317,42,71,21,175,44,72,61,219,47,73,21,053,40*62
###2023-12-09 13:38:22.020858$GLGSV,2,2,06,74,59,016,41,75,44,273,49,,,,,,,,*67
###2023-12-09 13:38:22.023189$GAGSV,1,1,04,04,41,309,44,19,70,181,41,21,75,045,45,27,21,050,36*62
###2023-12-09 13:38:22.025515$GBGSV,2,1,06,12,17,125,40,14,27,189,42,24,62,047,46,25,52,277,48*62
###2023-12-09 13:38:22.027268$GBGSV,2,2,06,33,44,216,45,35,16,055,40,,,,,,,,*6C
###2023-12-09 13:38:22.028559$GNVTG,13.03,T,,M,3.15,N,5.83,K,A*1B
###2023-12-09 13:38:22.030169$GNGST,183821.10,6.300,,,,0.110,0.093,0.210*6B
###2023-12-09 13:38:22.031468$GNZDA,183821.10,09,12,2023,00,00*71
###2023-12-09 13:38:22.032105$GNEBP,,,,,,M*13
###2023-12-09 13:38:22.198421$GNGGA,183821.30,4138.0410481,N,07032.3934153,W,1,25,0.6,13.286,M,-29.745,M,0.0,*59
###2023-12-09 13:38:22.397734$GNGGA,183821.50,4138.0412238,N,07032.3934104,W,1,25,0.6,13.287,M,-29.745,M,0.0,*5A
###2023-12-09 13:38:22.597397$GNGGA,183821.70,4138.0413975,N,07032.3934221,W,1,25,0.6,13.283,M,-29.745,M,0.0,*5B
###2023-12-09 13:38:22.799351$GNGGA,183821.90,4138.0415754,N,07032.3934011,W,1,25,0.6,13.265,M,-29.745,M,0.0,*57
###2023-12-09 13:38:23.002235$GNRMC,183822.10,A,4138.0417495,N,07032.3933710,W,3.17,4.37,091223,,,A*51
###2023-12-09 13:38:23.005114$GNGGA,183822.10,4138.0417495,N,07032.3933710,W,1,25,0.6,13.256,M,-29.745,M,0.0,*51
###2023-12-09 13:38:23.006986$GPGSA,A,3,03,04,16,26,27,28,29,31,,,,,1.0,0.6,0.8*3F
###2023-12-09 13:38:23.008695$GLGSA,A,3,65,71,72,73,74,75,,,,,,,1.0,0.6,0.8*24
###2023-12-09 13:38:23.010279$GAGSA,A,3,04,19,21,27,,,,,,,,,1.0,0.6,0.8*26
###2023-12-09 13:38:23.012000$GBGSA,A,3,12,14,24,25,33,35,,,,,,,1.0,0.6,0.8*2E
###2023-12-09 13:38:23.014336$GPGSV,2,1,08,03,25,245,40,04,48,307,45,16,68,224,46,26,82,040,47*7A
###2023-12-09 13:38:23.016679$GPGSV,2,2,08,27,18,172,44,28,37,086,44,29,20,046,39,31,58,068,46*7B
###2023-12-09 13:38:23.019020$GLGSV,2,1,06,65,39,317,43,71,21,175,45,72,61,219,47,73,21,053,41*63
###2023-12-09 13:38:23.021019$GLGSV,2,2,06,74,59,016,41,75,44,273,48,,,,,,,,*66
###2023-12-09 13:38:23.023374$GAGSV,1,1,04,04,41,309,43,19,70,181,41,21,75,045,45,27,21,050,38*6B
###2023-12-09 13:38:23.025696$GBGSV,2,1,06,12,17,125,40,14,27,189,40,24,62,047,47,25,52,277,46*6F
###2023-12-09 13:38:23.027448$GBGSV,2,2,06,33,44,216,46,35,16,055,44,,,,,,,,*6B
###2023-12-09 13:38:23.028702$GNVTG,4.37,T,,M,3.17,N,5.87,K,A*2C
###2023-12-09 13:38:23.030303$GNGST,183822.10,5.900,,,,0.110,0.093,0.210*61
###2023-12-09 13:38:23.031605$GNZDA,183822.10,09,12,2023,00,00*72
###2023-12-09 13:38:23.032245$GNEBP,,,,,,M*13
###2023-12-09 13:38:23.200820$GNGGA,183822.30,4138.0419207,N,07032.3933728,W,1,25,0.6,13.251,M,-29.745,M,0.0,*5C
