###2023-12-09 13:38:33.032740$GLGSV,2,1,06,65,39,317,42,71,21,175,45,72,61,219,47,73,21,053,42*61
###2023-12-09 13:38:33.034509$GLGSV,2,2,06,74,59,016,42,75,44,273,46,,,,,,,,*6B
###2023-12-09 13:38:33.036866$GAGSV,1,1,04,04,41,309,43,19,70,181,41,21,75,045,45,27,21,050,41*65
###2023-12-09 13:38:33.039214$GBGSV,2,1,06,12,17,125,42,14,27,189,41,24,61,048,47,25,52,278,46*6F
###2023-12-09 13:38:33.040966$GBGSV,2,2,06,33,44,216,46,35,16,055,45,,,,,,,,*6A
###2023-12-09 13:38:33.042224$GNVTG,1.33,T,,M,2.94,N,5.44,K,A*28
###2023-12-09 13:38:33.043864$GNGST,183832.10,5.600,,,,0.100,0.077,0.180*6E
###2023-12-09 13:38:33.045160$GNZDA,183832.10,09,12,2023,00,00*73
###2023-12-09 13:38:33.045795$GNEBP,,,,,,M*13
###2023-12-09 13:38:33.206288$GNGGA,183832.30,4138.0504678,N,07032.3935062,W,1,25,0.6,13.166,M,-29.745,M,0.0,*54
###2023-12-09 13:38:33.400145$GNGGA,183832.50,4138.0506323,N,07032.3935418,W,1,25,0.6,13.163,M,-29.745,M,0.0,*57
###2023-12-09 13:38:33.600187$GNGGA,183832.70,4138.0508039,N,07032.3935312,W,1,25,0.6,13.157,M,-29.745,M,0.0,*59
###2023-12-09 13:38:33.802290$GNGGA,183832.90,4138.0509790,N,07032.3935215,W,1,25,0.6,13.183,M,-29.745,M,0.0,*5D
###2023-12-09 13:38:34.004599$GNRMC,183833.10,A,4138.0511576,N,07032.3935370,W,3.29,355.11,091223,,,A*50
###2023-12-09 13:38:34.007469$GNGGA,183833.10,4138.0511576,N,07032.3935370,W,1,25,0.6,13.200,M,-29.745,M,0.0,*5D
###2023-12-09 13:38:34.009321$GPGSA,A,3,03,04,16,26,27,28,29,31,,,,,1.0,0.6,0.8*3F
###2023-12-09 13:38:34.011045$GLGSA,A,3,65,71,72,73,74,75,,,,,,,1.0,0.6,0.8*24
###2023-12-09 13:38:34.012658$GAGSA,A,3,04,19,21,27,,,,,,,,,1.0,0.6,0.8*26
###2023-12-09 13:38:34.014378$GBGSA,A,3,12,14,24,25,33,35,,,,,,,1.0,0.6,0.8*2E
###2023-12-09 13:38:34.016739$GPGSV,2,1,08,03,25,245,42,04,48,307,45,16,68,224,46,26,82,040,47*78
###2023-12-09 13:38:34.019088$GPGSV,2,2,08,27,18,172,43,28,37,086,44,29,20,046,40,31,58,068,46*72
###2023-12-09 13:38:34.021419$GLGSV,2,1,06,65,39,317,43,71,21,175,44,72,61,219,47,73,21,053,40*63
###2023-12-09 13:38:34.023174$GLGSV,2,2,06,74,59,016,41,75,44,273,48,,,,,,,,*66
###2023-12-09 13:38:34.025499$GAGSV,1,1,04,04,41,309,44,19,70,181,41,21,75,045,46,27,21,050,37*60
###2023-12-09 13:38:34.027843$GBGSV,2,1,06,12,17,125,39,14,27,189,40,24,61,048,46,25,52,278,47*62
###2023-12-09 13:38:34.029586$GBGSV,2,2,06,33,44,216,45,35,16,055,40,,,,,,,,*6C
###2023-12-09 13:38:34.030920$GNVTG,355.11,T,,M,3.29,N,6.08,K,A*26
###2023-12-09 13:38:34.032538$GNGST,183833.10,6.200,,,,0.098,0.076,0.180*69
###2023-12-09 13:38:34.033828$GNZDA,183833.10,09,12,2023,00,00*72
###2023-12-09 13:38:34.034464$GNEBP,,,,,,M*13
###2023-12-09 13:38:34.201467$GNGGA,183833.30,4138.0513417,N,07032.3935516,W,1,25,0.6,13.194,M,-29.745,M,0.0,*53
###2023-12-09 13:38:34.402333$GNGGA,183833.50,4138.0515231,N,07032.3935510,W,1,25,0.6,13.192,M,-29.745,M,0.0,*51
###2023-12-09 13:38:34.600082$GNGGA,183833.70,4138.0517037,N,07032.3935381,W,1,25,0.6,13.190,M,-29.745,M,0.0,*59
###2023-12-09 13:38:34.802194$GNGGA,183833.90,4138.0518777,N,07032.3935264,W,1,25,0.6,13.173,M,-29.745,M,0.0,*5C
###2023-12-09 13:38:35.004543$GNRMC,183834.10,A,4138.0520440,N,07032.3935345,W,2.95,355.33,091223,,,A*51
###2023-12-09 13:38:35.007400$GNGGA,183834.10,4138.0520440,N,07032.3935345,W,1,25,0.6,13.176,M,-29.745,M,0.0,*58
###2023-12-09 13:38:35.009246$GPGSA,A,3,03,04,16,26,27,28,29,31,,,,,1.0,0.6,0.8*3F
###2023-12-09 13:38:35.010970$GLGSA,A,3,65,71,72,73,74,75,,,,,,,1.0,0.6,0.8*24
###2023-12-09 13:38:35.012542$GAGSA,A,3,04,19,21,27,,,,,,,,,1.0,0.6,0.8*26
###2023-12-09 13:38:35.014234$GBGSA,A,3,12,14,24,25,33,35,,,,,,,1.0,0.6,0.8*2E
###2023-12-09 13:38:35.016556$GPGSV,2,1,08,03,25,245,41,04,48,307,45,16,68,224,46,26,82,040,47*7B
###2023-12-09 13:38:35.018880$GPGSV,2,2,08,27,18,172,42,28,37,086,44,29,20,046,39,31,58,068,46*7D
###2023-12-09 13:38:35.021196$GLGSV,2,1,06,65,39,317,42,71,21,175,45,72,61,219,46,73,21,053,40*62
###2023-12-09 13:38:35.022945$GLGSV,2,2,06,74,59,016,41,75,44,273,47,,,,,,,,*69
###2023-12-09 13:38:35.025265$GAGSV,1,1,04,04,41,309,44,19,70,181,41,21,75,045,45,27,21,050,38*6C
###2023-12-09 13:38:35.027590$GBGSV,2,1,06,12,17,125,41,14,27,189,41,24,61,048,47,25,52,278,48*62
###2023-12-09 13:38:35.029332$GBGSV,2,2,06,33,44,216,47,35,16,055,43,,,,,,,,*6D
###2023-12-09 13:38:35.030665$GNVTG,355.33,T,,M,2.95,N,5.47,K,A*28
###2023-12-09 13:38:35.032269$GNGST,183834.10,5.900,,,,0.097,0.075,0.180*6A
###2023-12-09 13:38:35.033550$GNZDA,183834.10,09,12,2023,00,00*75
###2023-12-09 13:38:35.034183$GNEBP,,,,,,M*13
###2023-12-09 13:38:35.202203$GNGGA,183834.30,4138.0522077,N,07032.3935339,W,1,25,0.6,13.176,M,-29.745,M,0.0,*53
###2023-12-09 13:38:35.403431$GNGGA,183834.50,4138.0523707,N,07032.3935267,W,1,25,0.6,13.177,M,-29.745,M,0.0,*5F
###2023-12-09 13:38:35.601253$GNGGA,183834.70,4138.0525333,N,07032.3935238,W,1,25,0.6,13.184,M,-29.745,M,0.0,*5E
###2023-12-09 13:38:35.801230$GNGGA,183834.90,4138.0526983,N,07032.3935210,W,1,25,0.6,13.171,M,-29.744,M,0.0,*53
###2023-12-09 13:38:36.005165$GNRMC,183835.10,A,4138.0528666,N,07032.3935177,W,3.01,1.23,091223,,,A*52
###2023-12-09 13:38:36.008058$GNGGA,183835.10,4138.0528666,N,07032.3935177,W,1,25,0.6,13.171,M,-29.744,M,0.0,*52
###2023-12-09 13:38:36.009916$GPGSA,A,3,03,04,16,26,27,28,29,31,,,,,1.0,0.6,0.8*3F
###2023-12-09 13:38:36.011648$GLGSA,A,3,65,71,72,73,74,75,,,,,,,1.0,0.6,0.8*24
###2023-12-09 13:38:36.013228$GAGSA,A,3,04,19,21,27,,,,,,,,,1.0,0.6,0.8*26
###2023-12-09 13:38:36.014948$GBGSA,A,3,12,14,24,25,33,35,,,,,,,1.0,0.6,0.8*2E
###2023-12-09 13:38:36.017277$GPGSV,2,1,08,03,25,245,42,04,48,307,44,16,68,224,46,26,82,040,47*79
###2023-12-09 13:38:36.019624$GPGSV,2,2,08,27,18,172,43,28,37,086,43,29,20,046,39,31,58,068,46*7B
###2023-12-09 13:38:36.021956$GLGSV,2,1,06,65,39,317,43,71,21,175,44,72,61,219,46,73,21,053,40*62
###2023-12-09 13:38:36.023712$GLGSV,2,2,06,74,59,016,41,75,44,273,48,,,,,,,,*66
###2023-12-09 13:38:36.026037$GAGSV,1,1,04,04,41,309,44,19,70,181,41,21,75,045,45,27,21,050,38*6C
###2023-12-09 13:38:36.028415$GBGSV,2,1,06,12,17,125,40,14,27,189,41,24,61,048,47,25,52,278,47*6C
###2023-12-09 13:38:36.030158$GBGSV,2,2,06,33,44,215,45,35,16,055,41,,,,,,,,*6E
###2023-12-09 13:38:36.031425$GNVTG,1.23,T,,M,3.01,N,5.58,K,A*29
###2023-12-09 13:38:36.033026$GNGST,183835.10,5.800,,,,0.096,0.073,0.180*6D
###2023-12-09 13:38:36.034315$GNZDA,183835.10,09,12,2023,00,00*74
###2023-12-09 13:38:36.034963$GNEBP,,,,,,M*13
###2023-12-09 13:38:36.205245$GNGGA,183835.30,4138.0530396,N,07032.3935147,W,1,25,0.6,13.180,M,-29.744,M,0.0,*5E
###2023-12-09 13:38:36.401712$GNGGA,183835.50,4138.0532191,N,07032.3935136,W,1,25,0.6,13.185,M,-29.744,M,0.0,*5C
###2023-12-09 13:38:36.602687$GNGGA,183835.70,4138.0534041,N,07032.3935008,W,1,25,0.6,13.183,M,-29.744,M,0.0,*5E
###2023-12-09 13:38:36.803917$GNGGA,183835.90,4138.0535883,N,07032.3934769,W,1,25,0.6,13.179,M,-29.744,M,0.0,*53
###2023-12-09 13:38:37.006427$GNRMC,183836.10,A,4138.0537747,N,07032.3934552,W,3.30,5.23,091223,,,A*59
###2023-12-09 13:38:37.009926$GNGGA,183836.10,4138.0537747,N,07032.3934552,W,1,25,0.6,13.166,M,-29.744,M,0.0,*59
###2023-12-09 13:38:37.012192$GPGSA,A,3,03,04,16,26,27,28,29,31,,,,,1.0,0.6,0.8*3F
###2023-12-09 13:38:37.014255$GLGSA,A,3,65,71,72,73,74,75,,,,,,,1.0,0.6,0.8*24
###2023-12-09 13:38:37.016186$GAGSA,A,3,04,19,21,27,,,,,,,,,1.0,0.6,0.8*26
###2023-12-09 13:38:37.018252$GBGSA,A,3,12,14,24,25,33,35,,,,,,,1.0,0.6,0.8*2E
###2023-12-09 13:38:37.021062$GPGSV,2,1,08,03,25,245,43,04,48,307,45,16,68,224,46,26,82,040,47*79
###2023-12-09 13:38:37.023887$GPGSV,2,2,08,27,18,172,43,28,37,086,44,29,20,046,39,31,58,068,46*7C
###2023-12-09 13:38:37.026712$GLGSV,2,1,06,65,39,317,43,71,21,175,44,72,61,219,46,73,21,053,39*6C
###2023-12-09 13:38:37.028825$GLGSV,2,2,06,74,59,016,41,75,44,273,48,,,,,,,,*66
###2023-12-09 13:38:37.031644$GAGSV,1,1,04,04,41,309,44,19,70,181,41,21,75,045,46,27,21,050,37*60
###2023-12-09 13:38:37.034451$GBGSV,2,1,06,12,17,125,39,14,27,189,40,24,61,048,46,25,52,278,47*62
###2023-12-09 13:38:37.036593$GBGSV,2,2,06,33,44,215,46,35,16,055,40,,,,,,,,*6C
###2023-12-09 13:38:37.038114$GNVTG,5.23,T,,M,3.30,N,6.12,K,A*22
###2023-12-09 13:38:37.040070$GNGST,183836.10,5.900,,,,0.096,0.073,0.170*60
###2023-12-09 13:38:37.041925$GNZDA,183836.10,09,12,2023,00,00*77
###2023-12-09 13:38:37.042730$GNEBP,,,,,,M*13
###2023-12-09 13:38:37.202944$GNGGA,183836.30,4138.0539531,N,07032.3934366,W,1,25,0.6,13.157,M,-29.744,M,0.0,*55
###2023-12-09 13:38:37.404045$GNGGA,183836.50,4138.0541254,N,07032.3934305,W,1,25,0.6,13.162,M,-29.744,M,0.0,*5B
###2023-12-09 13:38:37.601905$GNGGA,183836.70,4138.0542994,N,07032.3934136,W,1,25,0.6,13.154,M,-29.744,M,0.0,*5A
###2023-12-09 13:38:37.802340$GNGGA,183836.90,4138.0544706,N,07032.3934080,W,1,25,0.6,13.151,M,-29.744,M,0.0,*5E
###2023-12-09 13:38:38.005687$GNRMC,183837.10,A,4138.0546378,N,07032.3934234,W,3.01,354.65,091223,,,A*56
###2023-12-09 13:38:38.009173$GNGGA,183837.10,4138.0546378,N,07032.3934234,W,1,25,0.6,13.149,M,-29.744,M,0.0,*5C
###2023-12-09 13:38:38.011429$GPGSA,A,3,03,04,16,26,27,28,29,31,,,,,1.1,0.6,0.9*3F
