###2023-12-09 12:59:53.980440$GPGSV,2,2,08,28,50,070,46,29,25,062,42,31,69,036,48,32,19,140,42*7B
###2023-12-09 12:59:53.982811$GLGSV,2,1,06,65,23,328,42,71,42,172,46,72,73,273,45,73,37,041,47*6B
###2023-12-09 12:59:53.984565$GLGSV,2,2,06,74,70,334,43,75,31,252,43,,,,,,,,*66
###2023-12-09 12:59:53.986915$GAGSV,1,1,04,04,29,312,40,19,85,226,40,21,85,133,45,27,34,048,43*67
###2023-12-09 12:59:53.989251$GBGSV,2,1,05,14,44,193,44,24,74,022,49,25,40,261,45,26,27,062,43*6E
###2023-12-09 12:59:53.990751$GBGSV,2,2,05,33,58,234,47,,,,,,,,,,,,*55
###2023-12-09 12:59:53.992078$GNVTG,252.06,T,,M,3.54,N,6.55,K,A*24
###2023-12-09 12:59:53.993728$GNGST,175953.10,18.000,,,,0.080,0.069,0.160*53
###2023-12-09 12:59:53.995044$GNZDA,175953.10,09,12,2023,00,00*7C
###2023-12-09 12:59:53.995683$GNEBP,,,,,,M*13
###2023-12-09 12:59:54.162615$GNGGA,175953.30,4138.0205118,N,07032.2941781,W,1,24,0.6,12.884,M,-29.744,M,0.0,*50
###2023-12-09 12:59:54.362436$GNGGA,175953.50,4138.0205001,N,07032.2944451,W,1,24,0.6,12.881,M,-29.744,M,0.0,*51
###2023-12-09 12:59:54.562531$GNGGA,175953.70,4138.0204948,N,07032.2947010,W,1,24,0.6,12.876,M,-29.744,M,0.0,*5C
###2023-12-09 12:59:54.763776$GNGGA,175953.90,4138.0204902,N,07032.2949510,W,1,24,0.6,12.887,M,-29.744,M,0.0,*59
###2023-12-09 12:59:54.965544$GNRMC,175954.10,A,4138.0204887,N,07032.2952005,W,3.38,271.28,091223,,,A*55
###2023-12-09 12:59:54.968434$GNGGA,175954.10,4138.0204887,N,07032.2952005,W,1,24,0.6,12.892,M,-29.744,M,0.0,*55
###2023-12-09 12:59:54.970293$GPGSA,A,3,03,04,16,26,28,29,31,32,,,,,1.1,0.6,0.9*3B
###2023-12-09 12:59:54.972026$GLGSA,A,3,65,71,72,73,74,75,,,,,,,1.1,0.6,0.9*24
###2023-12-09 12:59:54.973614$GAGSA,A,3,04,19,21,27,,,,,,,,,1.1,0.6,0.9*26
###2023-12-09 12:59:54.975280$GBGSA,A,3,14,24,25,26,33,,,,,,,,1.1,0.6,0.9*2F
###2023-12-09 12:59:54.977611$GPGSV,2,1,08,03,35,262,42,04,32,311,42,16,49,212,46,26,79,210,48*7B
###2023-12-09 12:59:54.979965$GPGSV,2,2,08,28,50,070,45,29,25,062,41,31,69,036,47,32,19,140,43*75
###2023-12-09 12:59:54.982337$GLGSV,2,1,06,65,23,328,39,71,42,172,46,72,73,273,45,73,37,041,45*65
###2023-12-09 12:59:54.984097$GLGSV,2,2,06,74,70,334,42,75,31,252,41,,,,,,,,*65
###2023-12-09 12:59:54.986428$GAGSV,1,1,04,04,29,312,39,19,84,219,40,21,85,133,46,27,34,048,41*65
###2023-12-09 12:59:54.988778$GBGSV,2,1,05,14,44,193,44,24,74,022,48,25,40,261,44,26,27,062,41*6C
###2023-12-09 12:59:54.990235$GBGSV,2,2,05,33,58,234,47,,,,,,,,,,,,*55
###2023-12-09 12:59:54.991570$GNVTG,271.28,T,,M,3.38,N,6.26,K,A*27
###2023-12-09 12:59:54.993218$GNGST,175954.10,18.000,,,,0.080,0.069,0.160*54
###2023-12-09 12:59:54.994512$GNZDA,175954.10,09,12,2023,00,00*7B
###2023-12-09 12:59:54.995161$GNEBP,,,,,,M*13
###2023-12-09 12:59:55.162722$GNGGA,175954.30,4138.0205044,N,07032.2954514,W,1,24,0.6,12.893,M,-29.744,M,0.0,*53
###2023-12-09 12:59:55.363427$GNGGA,175954.50,4138.0205404,N,07032.2957001,W,1,24,0.6,12.903,M,-29.744,M,0.0,*5F
###2023-12-09 12:59:55.563524$GNGGA,175954.70,4138.0205591,N,07032.2959485,W,1,24,0.6,12.893,M,-29.744,M,0.0,*5E
###2023-12-09 12:59:55.763762$GNGGA,175954.90,4138.0205673,N,07032.2961923,W,1,24,0.6,12.884,M,-29.744,M,0.0,*53
###2023-12-09 12:59:55.964471$GNRMC,175955.10,A,4138.0205926,N,07032.2964329,W,3.30,281.75,091223,,,A*58
###2023-12-09 12:59:55.967351$GNGGA,175955.10,4138.0205926,N,07032.2964329,W,1,24,0.6,12.887,M,-29.744,M,0.0,*53
###2023-12-09 12:59:55.969210$GPGSA,A,3,03,04,16,26,28,29,31,32,,,,,1.1,0.6,0.9*3B
###2023-12-09 12:59:55.970936$GLGSA,A,3,65,71,72,73,74,75,,,,,,,1.1,0.6,0.9*24
###2023-12-09 12:59:55.972524$GAGSA,A,3,04,19,21,27,,,,,,,,,1.1,0.6,0.9*26
###2023-12-09 12:59:55.974202$GBGSA,A,3,14,24,25,26,33,,,,,,,,1.1,0.6,0.9*2F
###2023-12-09 12:59:55.976542$GPGSV,2,1,08,03,35,262,42,04,32,311,38,16,49,212,46,26,79,210,47*79
###2023-12-09 12:59:55.978885$GPGSV,2,2,08,28,50,070,44,29,25,062,41,31,69,036,47,32,19,140,43*74
###2023-12-09 12:59:55.981215$GLGSV,2,1,06,65,23,328,39,71,42,172,47,72,73,273,45,73,37,041,44*65
###2023-12-09 12:59:55.982963$GLGSV,2,2,06,74,70,334,42,75,31,252,41,,,,,,,,*65
###2023-12-09 12:59:55.985282$GAGSV,1,1,04,04,29,312,37,19,84,219,40,21,85,133,46,27,34,048,41*6B
###2023-12-09 12:59:55.987627$GBGSV,2,1,05,14,44,193,46,24,74,022,48,25,40,261,44,26,27,062,41*6E
###2023-12-09 12:59:55.989077$GBGSV,2,2,05,33,58,234,48,,,,,,,,,,,,*5A
###2023-12-09 12:59:55.990399$GNVTG,281.75,T,,M,3.30,N,6.12,K,A*2F
###2023-12-09 12:59:55.992056$GNGST,175955.10,18.000,,,,0.081,0.069,0.160*54
###2023-12-09 12:59:55.993342$GNZDA,175955.10,09,12,2023,00,00*7A
###2023-12-09 12:59:55.993978$GNEBP,,,,,,M*13
###2023-12-09 12:59:56.161765$GNGGA,175955.30,4138.0206305,N,07032.2966648,W,1,24,0.6,12.891,M,-29.744,M,0.0,*5E
###2023-12-09 12:59:56.363192$GNGGA,175955.50,4138.0206480,N,07032.2968931,W,1,24,0.6,12.875,M,-29.744,M,0.0,*57
###2023-12-09 12:59:56.564801$GNGGA,175955.70,4138.0206568,N,07032.2971201,W,1,24,0.6,12.868,M,-29.744,M,0.0,*5E
###2023-12-09 12:59:56.763792$GNGGA,175955.90,4138.0206942,N,07032.2973469,W,1,24,0.6,12.891,M,-29.744,M,0.0,*58
###2023-12-09 12:59:56.971327$GNRMC,175956.10,A,4138.0207497,N,07032.2975813,W,3.34,286.67,091223,,,A*5C
###2023-12-09 12:59:56.974207$GNGGA,175956.10,4138.0207497,N,07032.2975813,W,1,24,0.6,12.914,M,-29.744,M,0.0,*5C
###2023-12-09 12:59:56.976085$GPGSA,A,3,03,04,16,26,28,29,31,32,,,,,1.1,0.6,0.9*3B
###2023-12-09 12:59:56.977808$GLGSA,A,3,65,71,72,73,74,75,,,,,,,1.1,0.6,0.9*24
###2023-12-09 12:59:56.979410$GAGSA,A,3,04,19,21,27,,,,,,,,,1.1,0.6,0.9*26
###2023-12-09 12:59:56.981060$GBGSA,A,3,14,24,25,26,33,,,,,,,,1.1,0.6,0.9*2F
###2023-12-09 12:59:56.983409$GPGSV,2,1,08,03,35,262,41,04,32,311,41,16,49,212,46,26,79,210,48*7B
###2023-12-09 12:59:56.985752$GPGSV,2,2,08,28,50,070,45,29,25,062,40,31,69,036,47,32,19,140,43*74
###2023-12-09 12:59:56.988105$GLGSV,2,1,06,65,23,328,40,71,42,172,47,72,73,273,46,73,37,041,45*69
###2023-12-09 12:59:56.989854$GLGSV,2,2,06,74,70,334,42,75,31,252,41,,,,,,,,*65
###2023-12-09 12:59:56.992201$GAGSV,1,1,04,04,29,312,39,19,84,219,40,21,85,133,45,27,34,048,41*66
###2023-12-09 12:59:56.994525$GBGSV,2,1,05,14,44,193,44,24,74,022,48,25,40,261,45,26,27,062,41*6D
###2023-12-09 12:59:56.995992$GBGSV,2,2,05,33,58,234,47,,,,,,,,,,,,*55
###2023-12-09 12:59:56.997315$GNVTG,286.67,T,,M,3.34,N,6.19,K,A*24
###2023-12-09 12:59:56.999008$GNGST,175956.10,18.000,,,,0.081,0.070,0.160*5F
###2023-12-09 12:59:57.000307$GNZDA,175956.10,09,12,2023,00,00*79
###2023-12-09 12:59:57.000949$GNEBP,,,,,,M*13
###2023-12-09 12:59:57.164777$GNGGA,175956.30,4138.0207755,N,07032.2978225,W,1,24,0.6,12.918,M,-29.744,M,0.0,*5D
###2023-12-09 12:59:57.363273$GNGGA,175956.50,4138.0207605,N,07032.2980616,W,1,24,0.6,12.901,M,-29.744,M,0.0,*54
###2023-12-09 12:59:57.562519$GNGGA,175956.70,4138.0207566,N,07032.2983138,W,1,24,0.6,12.895,M,-29.744,M,0.0,*54
###2023-12-09 12:59:57.763974$GNGGA,175956.90,4138.0207761,N,07032.2985842,W,1,24,0.6,12.908,M,-29.744,M,0.0,*58
###2023-12-09 12:59:57.967287$GNRMC,175957.10,A,4138.0207681,N,07032.2988464,W,3.44,259.86,091223,,,A*5C
###2023-12-09 12:59:57.970143$GNGGA,175957.10,4138.0207681,N,07032.2988464,W,1,24,0.6,12.912,M,-29.744,M,0.0,*50
###2023-12-09 12:59:57.972015$GPGSA,A,3,03,04,16,26,28,29,31,32,,,,,1.1,0.6,0.9*3B
###2023-12-09 12:59:57.973740$GLGSA,A,3,65,71,72,73,74,75,,,,,,,1.1,0.6,0.9*24
###2023-12-09 12:59:57.975341$GAGSA,A,3,04,19,21,27,,,,,,,,,1.1,0.6,0.9*26
###2023-12-09 12:59:57.976992$GBGSA,A,3,14,24,25,26,33,,,,,,,,1.1,0.6,0.9*2F
###2023-12-09 12:59:57.979333$GPGSV,2,1,08,03,35,262,42,04,32,311,41,16,49,212,45,26,79,210,47*74
###2023-12-09 12:59:57.981674$GPGSV,2,2,08,28,50,070,44,29,25,062,43,31,69,036,47,32,19,140,41*74
###2023-12-09 12:59:57.984025$GLGSV,2,1,06,65,23,328,43,71,42,172,46,72,73,273,45,73,37,041,46*6B
###2023-12-09 12:59:57.985773$GLGSV,2,2,06,74,70,334,43,75,31,252,43,,,,,,,,*66
###2023-12-09 12:59:57.988117$GAGSV,1,1,04,04,29,312,40,19,84,219,40,21,85,133,45,27,34,048,43*6A
###2023-12-09 12:59:57.990488$GBGSV,2,1,05,14,44,193,43,24,74,022,49,25,40,261,43,26,27,062,43*6F
###2023-12-09 12:59:57.991962$GBGSV,2,2,05,33,58,234,48,,,,,,,,,,,,*5A
###2023-12-09 12:59:57.993290$GNVTG,259.86,T,,M,3.44,N,6.37,K,A*22
###2023-12-09 12:59:57.995207$GNGST,175957.10,18.000,,,,0.081,0.070,0.160*5E
###2023-12-09 12:59:57.996515$GNZDA,175957.10,09,12,2023,00,00*78
###2023-12-09 12:59:57.997158$GNEBP,,,,,,M*13
###2023-12-09 12:59:58.162759$GNGGA,175957.30,4138.0207166,N,07032.2990877,W,1,24,0.6,12.918,M,-29.744,M,0.0,*51
###2023-12-09 12:59:58.363537$GNGGA,175957.50,4138.0206520,N,07032.2993211,W,1,24,0.6,12.898,M,-29.744,M,0.0,*50
###2023-12-09 12:59:58.563635$GNGGA,175957.70,4138.0206217,N,07032.2995736,W,1,24,0.6,12.898,M,-29.744,M,0.0,*57
###2023-12-09 12:59:58.765037$GNGGA,175957.90,4138.0206144,N,07032.2998319,W,1,24,0.6,12.914,M,-29.744,M,0.0,*5D
###2023-12-09 12:59:58.966258$GNRMC,175958.10,A,4138.0205731,N,07032.3000692,W,3.30,249.50,091223,,,A*51
###2023-12-09 12:59:58.969142$GNGGA,175958.10,4138.0205731,N,07032.3000692,W,1,24,0.6,12.914,M,-29.744,M,0.0,*52
