###2023-12-09 13:15:51.003759$GAGSV,1,1,04,04,34,312,43,19,80,192,40,21,84,066,46,27,29,048,38*62
###2023-12-09 13:15:51.006104$GBGSV,2,1,06,14,37,191,44,24,69,035,47,25,45,267,47,26,22,066,39*62
###2023-12-09 13:15:51.007874$GBGSV,2,2,06,33,53,225,47,35,16,064,41,,,,,,,,*6B
###2023-12-09 13:15:51.009170$GNVTG,22.82,T,,M,3.97,N,7.34,K,A*14
###2023-12-09 13:15:51.010823$GNGST,181550.10,18.000,,,,0.098,0.072,0.180*5A
###2023-12-09 13:15:51.012114$GNZDA,181550.10,09,12,2023,00,00*78
###2023-12-09 13:15:51.012750$GNEBP,,,,,,M*13
###2023-12-09 13:15:51.180971$GNGGA,181550.30,4138.0414710,N,07032.2769008,W,1,24,0.7,13.205,M,-29.743,M,0.0,*5A
###2023-12-09 13:15:51.379463$GNGGA,181550.50,4138.0416724,N,07032.2768234,W,1,24,0.7,13.202,M,-29.743,M,0.0,*52
###2023-12-09 13:15:51.579276$GNGGA,181550.70,4138.0418764,N,07032.2767913,W,1,24,0.7,13.223,M,-29.743,M,0.0,*58
###2023-12-09 13:15:51.779230$GNGGA,181550.90,4138.0420788,N,07032.2767277,W,1,24,0.7,13.233,M,-29.743,M,0.0,*57
###2023-12-09 13:15:51.981328$GNRMC,181551.10,A,4138.0422799,N,07032.2766317,W,3.89,18.17,091223,,,A*67
###2023-12-09 13:15:51.984204$GNGGA,181551.10,4138.0422799,N,07032.2766317,W,1,24,0.7,13.229,M,-29.743,M,0.0,*51
###2023-12-09 13:15:51.985993$GPGSA,A,3,03,04,16,26,28,29,31,,,,,,1.2,0.7,1.0*30
###2023-12-09 13:15:51.987716$GLGSA,A,3,65,71,72,73,74,75,,,,,,,1.2,0.7,1.0*2E
###2023-12-09 13:15:51.989296$GAGSA,A,3,04,19,21,27,,,,,,,,,1.2,0.7,1.0*2C
###2023-12-09 13:15:51.991017$GBGSA,A,3,14,24,25,26,33,35,,,,,,,1.2,0.7,1.0*23
###2023-12-09 13:15:51.993343$GPGSV,2,1,07,03,32,254,43,04,38,311,44,16,57,216,46,26,87,208,48*78
###2023-12-09 13:15:51.995429$GPGSV,2,2,07,28,44,077,44,29,24,054,40,31,65,052,46,,,,*48
###2023-12-09 13:15:51.997755$GLGSV,2,1,06,65,30,325,42,71,33,174,45,72,71,243,47,73,30,046,40*63
###2023-12-09 13:15:51.999501$GLGSV,2,2,06,74,66,355,41,75,37,260,48,,,,,,,,*68
###2023-12-09 13:15:52.001807$GAGSV,1,1,04,04,34,312,43,19,80,192,41,21,84,066,46,27,29,048,38*63
###2023-12-09 13:15:52.004136$GBGSV,2,1,06,14,37,191,45,24,69,035,48,25,45,267,47,26,22,066,44*66
###2023-12-09 13:15:52.005872$GBGSV,2,2,06,33,53,225,48,35,16,064,43,,,,,,,,*66
###2023-12-09 13:15:52.007170$GNVTG,18.17,T,,M,3.89,N,7.20,K,A*1B
###2023-12-09 13:15:52.008807$GNGST,181551.10,18.000,,,,0.098,0.072,0.180*5B
###2023-12-09 13:15:52.010088$GNZDA,181551.10,09,12,2023,00,00*79
###2023-12-09 13:15:52.010732$GNEBP,,,,,,M*13
###2023-12-09 13:15:52.177977$GNGGA,181551.30,4138.0424839,N,07032.2765645,W,1,24,0.7,13.214,M,-29.743,M,0.0,*5F
###2023-12-09 13:15:52.380478$GNGGA,181551.50,4138.0426862,N,07032.2765459,W,1,24,0.7,13.206,M,-29.743,M,0.0,*59
###2023-12-09 13:15:52.580055$GNGGA,181551.70,4138.0428869,N,07032.2765321,W,1,24,0.7,13.204,M,-29.743,M,0.0,*54
###2023-12-09 13:15:52.779069$GNGGA,181551.90,4138.0430904,N,07032.2764944,W,1,24,0.7,13.214,M,-29.743,M,0.0,*50
###2023-12-09 13:15:52.982936$GNRMC,181552.10,A,4138.0432963,N,07032.2764673,W,3.73,0.58,091223,,,A*5C
###2023-12-09 13:15:52.985806$GNGGA,181552.10,4138.0432963,N,07032.2764673,W,1,24,0.7,13.222,M,-29.743,M,0.0,*56
###2023-12-09 13:15:52.987648$GPGSA,A,3,03,04,16,26,28,29,31,,,,,,1.2,0.7,1.0*30
###2023-12-09 13:15:52.989373$GLGSA,A,3,65,71,72,73,74,75,,,,,,,1.2,0.7,1.0*2E
###2023-12-09 13:15:52.990971$GAGSA,A,3,04,19,21,27,,,,,,,,,1.2,0.7,1.0*2C
###2023-12-09 13:15:52.992684$GBGSA,A,3,14,24,25,26,33,35,,,,,,,1.2,0.7,1.0*23
###2023-12-09 13:15:52.995017$GPGSV,2,1,07,03,32,254,44,04,38,311,44,16,57,216,46,26,87,208,48*7F
###2023-12-09 13:15:52.997051$GPGSV,2,2,07,28,44,077,44,29,24,054,41,31,65,052,46,,,,*49
###2023-12-09 13:15:52.999381$GLGSV,2,1,06,65,30,325,38,71,33,174,46,72,71,243,46,73,30,046,42*6E
###2023-12-09 13:15:53.001110$GLGSV,2,2,06,74,66,355,41,75,37,260,46,,,,,,,,*66
###2023-12-09 13:15:53.003428$GAGSV,1,1,04,04,34,312,43,19,80,192,40,21,84,066,46,27,29,048,41*6C
###2023-12-09 13:15:53.005738$GBGSV,2,1,06,14,37,191,43,24,69,035,47,25,45,267,47,26,22,066,41*6A
###2023-12-09 13:15:53.007476$GBGSV,2,2,06,33,53,225,47,35,16,064,41,,,,,,,,*6B
###2023-12-09 13:15:53.008721$GNVTG,0.58,T,,M,3.73,N,6.91,K,A*27
###2023-12-09 13:15:53.010349$GNGST,181552.10,18.000,,,,0.098,0.072,0.180*58
###2023-12-09 13:15:53.011638$GNZDA,181552.10,09,12,2023,00,00*7A
###2023-12-09 13:15:53.012274$GNEBP,,,,,,M*13
###2023-12-09 13:15:53.179056$GNGGA,181552.30,4138.0435004,N,07032.2764921,W,1,24,0.7,13.234,M,-29.743,M,0.0,*54
###2023-12-09 13:15:53.378232$GNGGA,181552.50,4138.0437049,N,07032.2765430,W,1,24,0.7,13.229,M,-29.743,M,0.0,*59
###2023-12-09 13:15:53.579992$GNGGA,181552.70,4138.0439111,N,07032.2765886,W,1,24,0.7,13.218,M,-29.743,M,0.0,*5A
###2023-12-09 13:15:53.784224$GNGGA,181552.90,4138.0441195,N,07032.2766203,W,1,24,0.7,13.219,M,-29.743,M,0.0,*52
###2023-12-09 13:15:53.983378$GNRMC,181553.10,A,4138.0443301,N,07032.2766565,W,3.89,351.40,091223,,,A*58
###2023-12-09 13:15:53.986205$GNGGA,181553.10,4138.0443301,N,07032.2766565,W,1,24,0.7,13.224,M,-29.743,M,0.0,*5F
###2023-12-09 13:15:53.988002$GPGSA,A,3,03,04,16,26,28,29,31,,,,,,1.2,0.7,1.0*30
###2023-12-09 13:15:53.989702$GLGSA,A,3,65,71,72,73,74,75,,,,,,,1.2,0.7,1.0*2E
###2023-12-09 13:15:53.991292$GAGSA,A,3,04,19,21,27,,,,,,,,,1.2,0.7,1.0*2C
###2023-12-09 13:15:53.993003$GBGSA,A,3,14,24,25,26,33,35,,,,,,,1.2,0.7,1.0*23
###2023-12-09 13:15:53.995342$GPGSV,2,1,07,03,32,254,44,04,38,311,44,16,57,216,46,26,87,208,48*7F
###2023-12-09 13:15:53.997378$GPGSV,2,2,07,28,44,077,44,29,24,054,41,31,65,052,46,,,,*49
###2023-12-09 13:15:53.999708$GLGSV,2,1,06,65,30,325,40,71,33,174,47,72,71,243,46,73,30,046,42*60
###2023-12-09 13:15:54.001448$GLGSV,2,2,06,74,66,355,41,75,37,260,47,,,,,,,,*67
###2023-12-09 13:15:54.003766$GAGSV,1,1,04,04,34,312,43,19,80,192,40,21,84,066,46,27,29,048,40*6D
###2023-12-09 13:15:54.006089$GBGSV,2,1,06,14,37,191,43,24,69,035,47,25,45,267,48,26,22,066,41*65
###2023-12-09 13:15:54.007840$GBGSV,2,2,06,33,53,225,47,35,16,064,42,,,,,,,,*68
###2023-12-09 13:15:54.009156$GNVTG,351.40,T,,M,3.89,N,7.20,K,A*27
###2023-12-09 13:15:54.010808$GNGST,181553.10,18.000,,,,0.098,0.072,0.180*59
###2023-12-09 13:15:54.012097$GNZDA,181553.10,09,12,2023,00,00*7B
###2023-12-09 13:15:54.012735$GNEBP,,,,,,M*13
###2023-12-09 13:15:54.181656$GNGGA,181553.30,4138.0445414,N,07032.2767014,W,1,24,0.7,13.230,M,-29.743,M,0.0,*5F
###2023-12-09 13:15:54.379394$GNGGA,181553.50,4138.0447513,N,07032.2767412,W,1,24,0.7,13.226,M,-29.743,M,0.0,*58
###2023-12-09 13:15:54.579034$GNGGA,181553.70,4138.0449603,N,07032.2767493,W,1,24,0.7,13.221,M,-29.743,M,0.0,*58
###2023-12-09 13:15:54.780243$GNGGA,181553.90,4138.0451668,N,07032.2767379,W,1,24,0.7,13.221,M,-29.743,M,0.0,*51
###2023-12-09 13:15:54.983849$GNRMC,181554.10,A,4138.0453720,N,07032.2767270,W,3.65,4.33,091223,,,A*5E
###2023-12-09 13:15:54.986711$GNGGA,181554.10,4138.0453720,N,07032.2767270,W,1,24,0.7,13.213,M,-29.743,M,0.0,*58
###2023-12-09 13:15:54.988501$GPGSA,A,3,03,04,16,26,28,29,31,,,,,,1.2,0.7,1.0*30
###2023-12-09 13:15:54.990209$GLGSA,A,3,65,71,72,73,74,75,,,,,,,1.2,0.7,1.0*2E
###2023-12-09 13:15:54.991799$GAGSA,A,3,04,19,21,27,,,,,,,,,1.2,0.7,1.0*2C
###2023-12-09 13:15:54.993499$GBGSA,A,3,14,24,25,26,33,35,,,,,,,1.2,0.7,1.0*23
###2023-12-09 13:15:54.995831$GPGSV,2,1,07,03,32,254,43,04,38,311,43,16,57,216,46,26,87,208,48*7F
###2023-12-09 13:15:54.997866$GPGSV,2,2,07,28,44,077,44,29,24,054,40,31,65,052,45,,,,*4B
###2023-12-09 13:15:55.000199$GLGSV,2,1,06,65,30,325,42,71,33,174,46,72,71,243,46,73,30,046,40*61
###2023-12-09 13:15:55.001943$GLGSV,2,2,06,74,66,355,41,75,37,260,46,,,,,,,,*66
###2023-12-09 13:15:55.004305$GAGSV,1,1,04,04,34,312,42,19,80,192,41,21,84,066,46,27,29,048,39*63
###2023-12-09 13:15:55.006634$GBGSV,2,1,06,14,37,191,45,24,69,035,47,25,45,267,47,26,22,066,43*6E
###2023-12-09 13:15:55.008376$GBGSV,2,2,06,33,53,225,47,35,16,064,42,,,,,,,,*68
###2023-12-09 13:15:55.009630$GNVTG,4.33,T,,M,3.65,N,6.77,K,A*21
###2023-12-09 13:15:55.011272$GNGST,181554.10,18.000,,,,0.098,0.072,0.180*5E
###2023-12-09 13:15:55.012556$GNZDA,181554.10,09,12,2023,00,00*7C
###2023-12-09 13:15:55.013190$GNEBP,,,,,,M*13
###2023-12-09 13:15:55.178966$GNGGA,181554.30,4138.0455705,N,07032.2767003,W,1,24,0.7,13.202,M,-29.743,M,0.0,*5D
###2023-12-09 13:15:55.379799$GNGGA,181554.50,4138.0457661,N,07032.2766510,W,1,24,0.7,13.199,M,-29.743,M,0.0,*5D
###2023-12-09 13:15:55.579225$GNGGA,181554.70,4138.0459617,N,07032.2765988,W,1,24,0.7,13.211,M,-29.743,M,0.0,*5D
###2023-12-09 13:15:55.779131$GNGGA,181554.90,4138.0461592,N,07032.2765491,W,1,24,0.7,13.216,M,-29.743,M,0.0,*54
###2023-12-09 13:15:55.983136$GNRMC,181555.10,A,4138.0463613,N,07032.2765036,W,3.69,9.33,091223,,,A*5E
###2023-12-09 13:15:55.986001$GNGGA,181555.10,4138.0463613,N,07032.2765036,W,1,24,0.7,13.214,M,-29.743,M,0.0,*5E
###2023-12-09 13:15:55.987848$GPGSA,A,3,03,04,16,26,28,29,31,,,,,,1.2,0.7,1.0*30
###2023-12-09 13:15:55.989575$GLGSA,A,3,65,71,72,73,74,75,,,,,,,1.2,0.7,1.0*2E
###2023-12-09 13:15:55.991168$GAGSA,A,3,04,19,21,27,,,,,,,,,1.2,0.7,1.0*2C
