###2023-12-09 13:48:12.029765$GBGSV,1,1,04,12,19,122,39,24,58,052,45,25,54,282,46,35,16,051,37*6F
###2023-12-09 13:48:12.031146$GNVTG,243.17,T,,M,0.02,N,0.04,K,A*26
###2023-12-09 13:48:12.032768$GNGST,184811.10,6.600,,,,0.210,0.120,0.320*62
###2023-12-09 13:48:12.034058$GNZDA,184811.10,09,12,2023,00,00*75
###2023-12-09 13:48:12.034719$GNEBP,,,,,,M*13
###2023-12-09 13:48:12.207370$GNGGA,184811.30,4138.0390373,N,07032.4383044,W,1,16,0.8,15.439,M,-29.746,M,0.0,*57
###2023-12-09 13:48:12.411534$GNGGA,184811.50,4138.0390351,N,07032.4383044,W,1,16,0.8,15.435,M,-29.746,M,0.0,*5D
###2023-12-09 13:48:12.604878$GNGGA,184811.70,4138.0390338,N,07032.4383038,W,1,17,0.7,15.434,M,-29.746,M,0.0,*54
###2023-12-09 13:48:12.807414$GNGGA,184811.90,4138.0390313,N,07032.4383030,W,1,16,0.8,15.434,M,-29.746,M,0.0,*55
###2023-12-09 13:48:13.008220$GNRMC,184812.10,A,4138.0390294,N,07032.4383040,W,0.04,243.17,091223,,,A*5C
###2023-12-09 13:48:13.011093$GNGGA,184812.10,4138.0390294,N,07032.4383040,W,1,16,0.8,15.428,M,-29.746,M,0.0,*5A
###2023-12-09 13:48:13.012822$GPGSA,A,3,04,16,26,28,29,31,,,,,,,1.4,0.8,1.1*3B
###2023-12-09 13:48:13.014338$GLGSA,A,3,65,73,75,,,,,,,,,,1.4,0.8,1.1*26
###2023-12-09 13:48:13.015870$GAGSA,A,3,04,21,27,,,,,,,,,,1.4,0.8,1.1*2C
###2023-12-09 13:48:13.017451$GBGSA,A,3,12,24,25,35,,,,,,,,,1.4,0.8,1.1*29
###2023-12-09 13:48:13.019793$GPGSV,2,1,06,04,51,304,48,16,73,229,40,26,77,041,44,28,33,090,42*7D
###2023-12-09 13:48:13.021545$GPGSV,2,2,06,29,17,042,42,31,55,075,49,,,,,,,,*7F
###2023-12-09 13:48:13.023594$GLGSV,1,1,03,65,43,312,44,73,17,056,44,75,47,280,48,,,,*54
###2023-12-09 13:48:13.025635$GAGSV,1,1,03,04,44,307,45,21,72,043,40,27,18,051,39,,,,*5D
###2023-12-09 13:48:13.028002$GBGSV,1,1,04,12,19,122,39,24,58,052,45,25,54,282,45,35,16,051,37*6C
###2023-12-09 13:48:13.029330$GNVTG,243.17,T,,M,0.04,N,0.07,K,A*23
###2023-12-09 13:48:13.030957$GNGST,184812.10,6.400,,,,0.210,0.120,0.320*63
###2023-12-09 13:48:13.032245$GNZDA,184812.10,09,12,2023,00,00*76
###2023-12-09 13:48:13.032879$GNEBP,,,,,,M*13
###2023-12-09 13:48:13.205966$GNGGA,184812.30,4138.0390290,N,07032.4383032,W,1,16,0.8,15.424,M,-29.746,M,0.0,*55
###2023-12-09 13:48:13.406975$GNGGA,184812.50,4138.0390268,N,07032.4383027,W,1,16,0.8,15.418,M,-29.746,M,0.0,*5F
###2023-12-09 13:48:13.605899$GNGGA,184812.70,4138.0390230,N,07032.4383033,W,1,16,0.8,15.411,M,-29.746,M,0.0,*5C
###2023-12-09 13:48:13.805534$GNGGA,184812.90,4138.0390221,N,07032.4383037,W,1,16,0.8,15.408,M,-29.746,M,0.0,*5E
###2023-12-09 13:48:14.008355$GNRMC,184813.10,A,4138.0390197,N,07032.4383030,W,0.04,243.17,091223,,,A*5A
###2023-12-09 13:48:14.011235$GNGGA,184813.10,4138.0390197,N,07032.4383030,W,1,16,0.8,15.405,M,-29.746,M,0.0,*53
###2023-12-09 13:48:14.012972$GPGSA,A,3,04,16,26,28,29,31,,,,,,,1.4,0.8,1.1*3B
###2023-12-09 13:48:14.014490$GLGSA,A,3,65,73,75,,,,,,,,,,1.4,0.8,1.1*26
###2023-12-09 13:48:14.016024$GAGSA,A,3,04,21,27,,,,,,,,,,1.4,0.8,1.1*2C
###2023-12-09 13:48:14.017613$GBGSA,A,3,12,24,25,35,,,,,,,,,1.4,0.8,1.1*29
###2023-12-09 13:48:14.019958$GPGSV,2,1,06,04,51,304,48,16,73,229,40,26,77,041,43,28,33,090,43*7B
###2023-12-09 13:48:14.021708$GPGSV,2,2,06,29,17,042,43,31,55,075,49,,,,,,,,*7E
###2023-12-09 13:48:14.023760$GLGSV,1,1,03,65,43,312,44,73,17,056,43,75,47,280,48,,,,*53
###2023-12-09 13:48:14.025807$GAGSV,1,1,03,04,44,307,45,21,72,043,40,27,18,051,39,,,,*5D
###2023-12-09 13:48:14.028148$GBGSV,1,1,04,12,19,122,40,24,58,052,45,25,54,282,46,35,16,051,38*6E
###2023-12-09 13:48:14.029475$GNVTG,243.17,T,,M,0.04,N,0.07,K,A*23
###2023-12-09 13:48:14.031109$GNGST,184813.10,6.500,,,,0.210,0.120,0.320*63
###2023-12-09 13:48:14.032410$GNZDA,184813.10,09,12,2023,00,00*77
###2023-12-09 13:48:14.033049$GNEBP,,,,,,M*13
###2023-12-09 13:48:14.205885$GNGGA,184813.30,4138.0390175,N,07032.4383035,W,1,16,0.8,15.400,M,-29.746,M,0.0,*5D
###2023-12-09 13:48:14.405644$GNGGA,184813.50,4138.0390158,N,07032.4383035,W,1,17,0.7,15.393,M,-29.746,M,0.0,*57
###2023-12-09 13:48:14.605628$GNGGA,184813.70,4138.0390138,N,07032.4383042,W,1,17,0.7,15.388,M,-29.746,M,0.0,*59
###2023-12-09 13:48:14.806958$GNGGA,184813.90,4138.0390116,N,07032.4383050,W,1,17,0.7,15.383,M,-29.746,M,0.0,*53
###2023-12-09 13:48:15.010950$GNRMC,184814.10,A,4138.0390090,N,07032.4383054,W,0.02,243.17,091223,,,A*5F
###2023-12-09 13:48:15.013811$GNGGA,184814.10,4138.0390090,N,07032.4383054,W,1,17,0.7,15.375,M,-29.746,M,0.0,*5E
###2023-12-09 13:48:15.015548$GPGSA,A,3,04,16,26,28,29,31,,,,,,,1.3,0.7,1.1*33
###2023-12-09 13:48:15.017068$GLGSA,A,3,65,73,75,,,,,,,,,,1.3,0.7,1.1*2E
###2023-12-09 13:48:15.018588$GAGSA,A,3,04,21,27,,,,,,,,,,1.3,0.7,1.1*24
###2023-12-09 13:48:15.020230$GBGSA,A,3,12,24,25,33,35,,,,,,,,1.3,0.7,1.1*21
###2023-12-09 13:48:15.022554$GPGSV,2,1,06,04,51,304,48,16,73,229,40,26,77,041,43,28,33,090,41*79
###2023-12-09 13:48:15.024317$GPGSV,2,2,06,29,17,042,42,31,55,075,49,,,,,,,,*7F
###2023-12-09 13:48:15.026342$GLGSV,1,1,03,65,43,312,43,73,17,056,43,75,47,280,48,,,,*54
###2023-12-09 13:48:15.028382$GAGSV,1,1,03,04,44,307,45,21,72,043,40,27,18,051,39,,,,*5D
###2023-12-09 13:48:15.030712$GBGSV,2,1,05,12,19,122,40,24,58,052,45,25,54,282,46,33,40,213,35*60
###2023-12-09 13:48:15.032166$GBGSV,2,2,05,35,16,051,38,,,,,,,,,,,,*50
###2023-12-09 13:48:15.033479$GNVTG,243.17,T,,M,0.02,N,0.04,K,A*26
###2023-12-09 13:48:15.035097$GNGST,184814.10,6.800,,,,0.210,0.120,0.320*69
###2023-12-09 13:48:15.036381$GNZDA,184814.10,09,12,2023,00,00*70
###2023-12-09 13:48:15.037016$GNEBP,,,,,,M*13
###2023-12-09 13:48:15.212748$GNGGA,184814.30,4138.0390077,N,07032.4383060,W,1,17,0.7,15.364,M,-29.746,M,0.0,*52
###2023-12-09 13:48:15.407087$GNGGA,184814.50,4138.0390086,N,07032.4383057,W,1,17,0.7,15.360,M,-29.746,M,0.0,*5A
###2023-12-09 13:48:15.605482$GNGGA,184814.70,4138.0390089,N,07032.4383054,W,1,17,0.7,15.352,M,-29.746,M,0.0,*55
###2023-12-09 13:48:15.806144$GNGGA,184814.90,4138.0390056,N,07032.4383064,W,1,18,0.7,15.343,M,-29.746,M,0.0,*55
###2023-12-09 13:48:16.007306$GNRMC,184815.10,A,4138.0390040,N,07032.4383066,W,0.02,243.17,091223,,,A*52
###2023-12-09 13:48:16.010164$GNGGA,184815.10,4138.0390040,N,07032.4383066,W,1,18,0.7,15.340,M,-29.746,M,0.0,*5A
###2023-12-09 13:48:16.011904$GPGSA,A,3,04,16,26,28,29,31,,,,,,,1.3,0.7,1.1*33
###2023-12-09 13:48:16.013489$GLGSA,A,3,65,73,74,75,,,,,,,,,1.3,0.7,1.1*2D
###2023-12-09 13:48:16.015031$GAGSA,A,3,04,21,27,,,,,,,,,,1.3,0.7,1.1*24
###2023-12-09 13:48:16.016678$GBGSA,A,3,12,24,25,33,35,,,,,,,,1.3,0.7,1.1*21
###2023-12-09 13:48:16.019023$GPGSV,2,1,06,04,51,304,48,16,73,229,40,26,77,041,42,28,33,090,42*7B
###2023-12-09 13:48:16.020767$GPGSV,2,2,06,29,17,042,43,31,55,075,49,,,,,,,,*7E
###2023-12-09 13:48:16.023105$GLGSV,1,1,04,65,43,312,44,73,17,056,43,74,55,024,35,75,47,280,48*67
###2023-12-09 13:48:16.025145$GAGSV,1,1,03,04,44,307,45,21,72,043,40,27,18,051,40,,,,*53
###2023-12-09 13:48:16.027489$GBGSV,2,1,05,12,19,122,40,24,58,052,45,25,54,282,46,33,40,213,35*60
###2023-12-09 13:48:16.028946$GBGSV,2,2,05,35,16,051,38,,,,,,,,,,,,*50
###2023-12-09 13:48:16.030265$GNVTG,243.17,T,,M,0.02,N,0.04,K,A*26
###2023-12-09 13:48:16.031889$GNGST,184815.10,7.300,,,,0.210,0.120,0.320*62
###2023-12-09 13:48:16.033181$GNZDA,184815.10,09,12,2023,00,00*71
###2023-12-09 13:48:16.033820$GNEBP,,,,,,M*13
###2023-12-09 13:48:16.208375$GNGGA,184815.30,4138.0390019,N,07032.4383073,W,1,18,0.7,15.335,M,-29.746,M,0.0,*52
###2023-12-09 13:48:16.405821$GNGGA,184815.50,4138.0389987,N,07032.4383076,W,1,17,0.8,15.328,M,-29.746,M,0.0,*5B
###2023-12-09 13:48:16.607161$GNGGA,184815.70,4138.0389972,N,07032.4383080,W,1,18,0.7,15.319,M,-29.746,M,0.0,*58
###2023-12-09 13:48:16.804960$GNGGA,184815.90,4138.0389951,N,07032.4383089,W,1,18,0.7,15.312,M,-29.746,M,0.0,*55
###2023-12-09 13:48:17.009320$GNRMC,184816.10,A,4138.0389940,N,07032.4383088,W,0.04,243.17,091223,,,A*56
###2023-12-09 13:48:17.012224$GNGGA,184816.10,4138.0389940,N,07032.4383088,W,1,18,0.7,15.310,M,-29.746,M,0.0,*5D
###2023-12-09 13:48:17.013961$GPGSA,A,3,04,16,26,28,29,31,,,,,,,1.3,0.7,1.1*33
###2023-12-09 13:48:17.015572$GLGSA,A,3,65,73,74,75,,,,,,,,,1.3,0.7,1.1*2D
###2023-12-09 13:48:17.017103$GAGSA,A,3,04,21,27,,,,,,,,,,1.3,0.7,1.1*24
###2023-12-09 13:48:17.019033$GBGSA,A,3,12,24,25,33,35,,,,,,,,1.3,0.7,1.1*21
###2023-12-09 13:48:17.021386$GPGSV,2,1,06,04,51,304,48,16,73,229,41,26,77,041,43,28,33,090,42*7B
###2023-12-09 13:48:17.023158$GPGSV,2,2,06,29,17,042,43,31,55,075,49,,,,,,,,*7E
###2023-12-09 13:48:17.025493$GLGSV,1,1,04,65,43,312,44,73,17,056,43,74,55,024,35,75,47,280,48*67
###2023-12-09 13:48:17.027543$GAGSV,1,1,03,04,44,307,45,21,72,043,40,27,18,051,40,,,,*53
###2023-12-09 13:48:17.029872$GBGSV,2,1,05,12,19,122,41,24,58,052,45,25,54,282,46,33,40,213,35*61
###2023-12-09 13:48:17.031339$GBGSV,2,2,05,35,16,051,38,,,,,,,,,,,,*50
###2023-12-09 13:48:17.032659$GNVTG,243.17,T,,M,0.04,N,0.07,K,A*23
