###2023-12-09 12:41:43.342231$GNGGA,174142.50,4138.0642233,N,07032.3741780,W,1,24,0.6,13.405,M,-29.744,M,0.0,*58
###2023-12-09 12:41:43.542543$GNGGA,174142.70,4138.0642225,N,07032.3741680,W,1,24,0.6,13.413,M,-29.744,M,0.0,*5B
###2023-12-09 12:41:43.741723$GNGGA,174142.90,4138.0642341,N,07032.3741788,W,1,24,0.6,13.403,M,-29.744,M,0.0,*5E
###2023-12-09 12:41:43.943267$GNRMC,174143.10,A,4138.0642753,N,07032.3742242,W,1.21,318.87,091223,,,A*54
###2023-12-09 12:41:43.946121$GNGGA,174143.10,4138.0642753,N,07032.3742242,W,1,24,0.6,13.410,M,-29.744,M,0.0,*52
###2023-12-09 12:41:43.947988$GPGSA,A,3,03,04,16,26,28,29,31,32,,,,,1.1,0.6,0.9*3B
###2023-12-09 12:41:43.949708$GLGSA,A,3,65,71,72,73,74,75,,,,,,,1.1,0.6,0.9*24
###2023-12-09 12:41:43.951301$GAGSA,A,3,04,19,21,27,,,,,,,,,1.1,0.6,0.9*26
###2023-12-09 12:41:43.952933$GBGSA,A,3,14,24,25,26,33,,,,,,,,1.1,0.6,0.9*2F
###2023-12-09 12:41:43.955259$GPGSV,2,1,08,03,38,272,44,04,25,311,42,16,40,208,46,26,69,207,49*73
###2023-12-09 12:41:43.957571$GPGSV,2,2,08,28,56,059,44,29,25,071,41,31,73,010,46,32,28,135,45*73
###2023-12-09 12:41:43.959945$GLGSV,2,1,06,65,15,329,42,71,52,170,48,72,68,302,47,73,44,035,45*68
###2023-12-09 12:41:43.961686$GLGSV,2,2,06,74,71,303,43,75,25,244,44,,,,,,,,*66
###2023-12-09 12:41:43.964021$GAGSV,1,1,04,04,23,311,42,19,83,292,41,21,80,172,46,27,39,049,42*6A
###2023-12-09 12:41:43.966327$GBGSV,2,1,05,14,52,196,45,24,79,359,48,25,34,255,46,26,33,058,45*63
###2023-12-09 12:41:43.967785$GBGSV,2,2,05,33,62,248,48,,,,,,,,,,,,*58
###2023-12-09 12:41:43.969099$GNVTG,318.87,T,,M,1.21,N,2.23,K,A*27
###2023-12-09 12:41:43.970744$GNGST,174143.10,18.000,,,,0.077,0.070,0.160*5B
###2023-12-09 12:41:43.972026$GNZDA,174143.10,09,12,2023,00,00*74
###2023-12-09 12:41:43.972660$GNEBP,,,,,,M*13
###2023-12-09 12:41:44.142833$GNGGA,174143.30,4138.0643155,N,07032.3742706,W,1,24,0.6,13.402,M,-29.744,M,0.0,*57
###2023-12-09 12:41:44.342224$GNGGA,174143.50,4138.0643208,N,07032.3742719,W,1,24,0.6,13.414,M,-29.744,M,0.0,*53
###2023-12-09 12:41:44.544993$GNGGA,174143.70,4138.0643135,N,07032.3742569,W,1,24,0.6,13.406,M,-29.744,M,0.0,*5A
###2023-12-09 12:41:44.742540$GNGGA,174143.90,4138.0643342,N,07032.3742822,W,1,24,0.6,13.402,M,-29.744,M,0.0,*50
###2023-12-09 12:41:44.949016$GNRMC,174144.10,A,4138.0643852,N,07032.3743430,W,1.22,318.91,091223,,,A*5A
###2023-12-09 12:41:44.951935$GNGGA,174144.10,4138.0643852,N,07032.3743430,W,1,24,0.6,13.403,M,-29.744,M,0.0,*5A
###2023-12-09 12:41:44.953814$GPGSA,A,3,03,04,16,26,28,29,31,32,,,,,1.1,0.6,0.9*3B
###2023-12-09 12:41:44.955559$GLGSA,A,3,65,71,72,73,74,75,,,,,,,1.1,0.6,0.9*24
###2023-12-09 12:41:44.957159$GAGSA,A,3,04,19,21,27,,,,,,,,,1.1,0.6,0.9*26
###2023-12-09 12:41:44.958833$GBGSA,A,3,14,24,25,26,33,,,,,,,,1.1,0.6,0.9*2F
###2023-12-09 12:41:44.961167$GPGSV,2,1,08,03,38,272,45,04,25,311,43,16,40,208,44,26,69,207,48*70
###2023-12-09 12:41:44.963533$GPGSV,2,2,08,28,56,059,44,29,25,071,40,31,73,010,47,32,28,135,43*75
###2023-12-09 12:41:44.965870$GLGSV,2,1,06,65,15,329,43,71,52,170,48,72,68,302,46,73,44,035,45*68
###2023-12-09 12:41:44.967628$GLGSV,2,2,06,74,71,303,42,75,25,244,44,,,,,,,,*67
###2023-12-09 12:41:44.969964$GAGSV,1,1,04,04,23,311,43,19,83,292,40,21,80,172,45,27,39,049,40*6B
###2023-12-09 12:41:44.972315$GBGSV,2,1,05,14,52,196,45,24,79,359,48,25,34,255,45,26,33,058,44*61
###2023-12-09 12:41:44.973782$GBGSV,2,2,05,33,62,248,48,,,,,,,,,,,,*58
###2023-12-09 12:41:44.975131$GNVTG,318.91,T,,M,1.22,N,2.27,K,A*27
###2023-12-09 12:41:44.976799$GNGST,174144.10,18.000,,,,0.076,0.070,0.160*5D
###2023-12-09 12:41:44.978105$GNZDA,174144.10,09,12,2023,00,00*73
###2023-12-09 12:41:44.978757$GNEBP,,,,,,M*13
###2023-12-09 12:41:45.141562$GNGGA,174144.30,4138.0644160,N,07032.3743778,W,1,24,0.6,13.402,M,-29.744,M,0.0,*59
###2023-12-09 12:41:45.342390$GNGGA,174144.50,4138.0644105,N,07032.3743660,W,1,24,0.6,13.424,M,-29.744,M,0.0,*50
###2023-12-09 12:41:45.542535$GNGGA,174144.70,4138.0644076,N,07032.3743604,W,1,24,0.6,13.405,M,-29.744,M,0.0,*56
###2023-12-09 12:41:45.744171$GNGGA,174144.90,4138.0644418,N,07032.3744035,W,1,24,0.6,13.411,M,-29.744,M,0.0,*52
###2023-12-09 12:41:45.943235$GNRMC,174145.10,A,4138.0644894,N,07032.3744633,W,0.87,316.05,091223,,,A*5D
###2023-12-09 12:41:45.946099$GNGGA,174145.10,4138.0644894,N,07032.3744633,W,1,24,0.6,13.402,M,-29.744,M,0.0,*51
###2023-12-09 12:41:45.947969$GPGSA,A,3,03,04,16,26,28,29,31,32,,,,,1.1,0.6,0.9*3B
###2023-12-09 12:41:45.949695$GLGSA,A,3,65,71,72,73,74,75,,,,,,,1.1,0.6,0.9*24
###2023-12-09 12:41:45.951295$GAGSA,A,3,04,19,21,27,,,,,,,,,1.1,0.6,0.9*26
###2023-12-09 12:41:45.952941$GBGSA,A,3,14,24,25,26,33,,,,,,,,1.1,0.6,0.9*2F
###2023-12-09 12:41:45.955281$GPGSV,2,1,08,03,38,272,45,04,25,311,44,16,40,208,45,26,69,207,48*76
###2023-12-09 12:41:45.957610$GPGSV,2,2,08,28,56,059,44,29,25,071,40,31,73,010,47,32,28,135,42*74
###2023-12-09 12:41:45.959945$GLGSV,2,1,06,65,15,329,44,71,52,170,47,72,68,302,47,73,44,035,46*62
###2023-12-09 12:41:45.961692$GLGSV,2,2,06,74,71,303,43,75,25,244,45,,,,,,,,*67
###2023-12-09 12:41:45.964030$GAGSV,1,1,04,04,23,311,43,19,83,292,40,21,80,172,46,27,39,049,41*69
###2023-12-09 12:41:45.966361$GBGSV,2,1,05,14,52,196,44,24,79,359,48,25,34,255,45,26,33,058,44*60
###2023-12-09 12:41:45.967836$GBGSV,2,2,05,33,62,248,47,,,,,,,,,,,,*57
###2023-12-09 12:41:45.969162$GNVTG,316.05,T,,M,0.87,N,1.62,K,A*28
###2023-12-09 12:41:45.970830$GNGST,174145.10,18.000,,,,0.077,0.070,0.160*5D
###2023-12-09 12:41:45.972122$GNZDA,174145.10,09,12,2023,00,00*72
###2023-12-09 12:41:45.972759$GNEBP,,,,,,M*13
###2023-12-09 12:41:46.143064$GNGGA,174145.30,4138.0645039,N,07032.3744794,W,1,24,0.6,13.420,M,-29.744,M,0.0,*51
###2023-12-09 12:41:46.342196$GNGGA,174145.50,4138.0644989,N,07032.3744695,W,1,24,0.6,13.445,M,-29.744,M,0.0,*57
###2023-12-09 12:41:46.544761$GNGGA,174145.70,4138.0645117,N,07032.3744798,W,1,24,0.6,13.432,M,-29.744,M,0.0,*57
###2023-12-09 12:41:46.741667$GNGGA,174145.90,4138.0645495,N,07032.3745273,W,1,24,0.6,13.427,M,-29.744,M,0.0,*53
###2023-12-09 12:41:46.944067$GNRMC,174146.10,A,4138.0645816,N,07032.3745706,W,0.54,314.33,091223,,,A*5A
###2023-12-09 12:41:46.946950$GNGGA,174146.10,4138.0645816,N,07032.3745706,W,1,24,0.6,13.414,M,-29.744,M,0.0,*58
###2023-12-09 12:41:46.948830$GPGSA,A,3,03,04,16,26,28,29,31,32,,,,,1.1,0.6,0.9*3B
###2023-12-09 12:41:46.950556$GLGSA,A,3,65,71,72,73,74,75,,,,,,,1.1,0.6,0.9*24
###2023-12-09 12:41:46.952166$GAGSA,A,3,04,19,21,27,,,,,,,,,1.1,0.6,0.9*26
###2023-12-09 12:41:46.953817$GBGSA,A,3,14,24,25,26,33,,,,,,,,1.1,0.6,0.9*2F
###2023-12-09 12:41:46.956174$GPGSV,2,1,08,03,38,272,46,04,25,311,46,16,40,208,46,26,69,207,49*75
###2023-12-09 12:41:46.958520$GPGSV,2,2,08,28,56,059,45,29,25,071,41,31,73,010,48,32,28,135,44*7D
###2023-12-09 12:41:46.960885$GLGSV,2,1,06,65,15,329,43,71,52,170,48,72,68,302,47,73,44,035,45*69
###2023-12-09 12:41:46.962655$GLGSV,2,2,06,74,71,303,43,75,25,244,45,,,,,,,,*67
###2023-12-09 12:41:46.965005$GAGSV,1,1,04,04,23,311,44,19,83,292,41,21,80,172,47,27,39,049,42*6D
###2023-12-09 12:41:46.967358$GBGSV,2,1,05,14,52,196,45,24,79,359,48,25,34,255,45,26,33,058,44*61
###2023-12-09 12:41:46.968824$GBGSV,2,2,05,33,62,248,48,,,,,,,,,,,,*58
###2023-12-09 12:41:46.970153$GNVTG,314.33,T,,M,0.54,N,1.01,K,A*24
###2023-12-09 12:41:46.971822$GNGST,174146.10,18.000,,,,0.076,0.069,0.160*57
###2023-12-09 12:41:46.973122$GNZDA,174146.10,09,12,2023,00,00*71
###2023-12-09 12:41:46.973761$GNEBP,,,,,,M*13
###2023-12-09 12:41:47.142831$GNGGA,174146.30,4138.0645917,N,07032.3745825,W,1,24,0.6,13.438,M,-29.744,M,0.0,*5A
###2023-12-09 12:41:47.343189$GNGGA,174146.50,4138.0645963,N,07032.3745821,W,1,24,0.6,13.462,M,-29.744,M,0.0,*54
###2023-12-09 12:41:47.544551$GNGGA,174146.70,4138.0646134,N,07032.3746010,W,1,24,0.6,13.464,M,-29.744,M,0.0,*50
###2023-12-09 12:41:47.745160$GNGGA,174146.90,4138.0646440,N,07032.3746390,W,1,24,0.6,13.452,M,-29.744,M,0.0,*56
###2023-12-09 12:41:47.943059$GNRMC,174147.10,A,4138.0646709,N,07032.3746735,W,0.45,314.33,091223,,,A*5A
###2023-12-09 12:41:47.945924$GNGGA,174147.10,4138.0646709,N,07032.3746735,W,1,24,0.6,13.434,M,-29.744,M,0.0,*5A
###2023-12-09 12:41:47.947816$GPGSA,A,3,03,04,16,26,28,29,31,32,,,,,1.1,0.6,0.9*3B
###2023-12-09 12:41:47.949799$GLGSA,A,3,65,71,72,73,74,75,,,,,,,1.1,0.6,0.9*24
###2023-12-09 12:41:47.951417$GAGSA,A,3,04,19,21,27,,,,,,,,,1.1,0.6,0.9*26
###2023-12-09 12:41:47.953073$GBGSA,A,3,14,24,25,26,33,,,,,,,,1.1,0.6,0.9*2F
###2023-12-09 12:41:47.955421$GPGSV,2,1,08,03,38,272,44,04,25,311,44,16,40,208,46,26,69,207,49*75
###2023-12-09 12:41:47.957757$GPGSV,2,2,08,28,56,059,44,29,25,071,40,31,73,010,47,32,28,135,44*72
###2023-12-09 12:41:47.960137$GLGSV,2,1,06,65,15,329,42,71,52,170,48,72,68,302,47,73,44,035,45*68
###2023-12-09 12:41:47.961885$GLGSV,2,2,06,74,71,303,43,75,25,244,45,,,,,,,,*67
###2023-12-09 12:41:47.964224$GAGSV,1,1,04,04,23,311,41,19,83,292,41,21,80,172,46,27,39,049,42*69
###2023-12-09 12:41:47.966557$GBGSV,2,1,05,14,52,196,45,24,79,359,48,25,34,255,45,26,33,058,45*60
###2023-12-09 12:41:47.968023$GBGSV,2,2,05,33,62,248,48,,,,,,,,,,,,*58
