###2023-12-09 13:24:59.001178$GPGSA,A,3,03,04,16,26,28,29,31,,,,,,1.1,0.6,0.9*3A
###2023-12-09 13:24:59.003312$GLGSA,A,3,65,71,72,73,74,75,,,,,,,1.1,0.6,0.9*24
###2023-12-09 13:24:59.005238$GAGSA,A,3,04,19,21,27,,,,,,,,,1.1,0.6,0.9*26
###2023-12-09 13:24:59.007334$GBGSA,A,3,14,24,25,26,33,35,,,,,,,1.1,0.6,0.9*29
###2023-12-09 13:24:59.010183$GPGSV,2,1,07,03,30,251,43,04,42,310,45,16,61,218,46,26,89,050,48*78
###2023-12-09 13:24:59.012672$GPGSV,2,2,07,28,41,080,43,29,22,051,42,31,63,058,47,,,,*4E
###2023-12-09 13:24:59.015505$GLGSV,2,1,06,65,34,322,45,71,27,175,41,72,67,229,45,73,26,049,44*62
###2023-12-09 13:24:59.017615$GLGSV,2,2,06,74,63,006,43,75,40,266,48,,,,,,,,*6C
###2023-12-09 13:24:59.020443$GAGSV,1,1,04,04,37,311,44,19,76,185,40,21,80,051,46,27,26,049,42*69
###2023-12-09 13:24:59.023271$GBGSV,2,1,06,14,33,190,41,24,66,041,48,25,48,272,48,26,19,068,45*6A
###2023-12-09 13:24:59.025368$GBGSV,2,2,06,33,49,220,47,35,16,060,44,,,,,,,,*64
###2023-12-09 13:24:59.027011$GNVTG,150.64,T,,M,3.38,N,6.26,K,A*2F
###2023-12-09 13:24:59.029004$GNGST,182458.10,18.000,,,,0.098,0.068,0.160*55
###2023-12-09 13:24:59.030574$GNZDA,182458.10,09,12,2023,00,00*72
###2023-12-09 13:24:59.031345$GNEBP,,,,,,M*13
###2023-12-09 13:24:59.188767$GNGGA,182458.30,4138.0456508,N,07032.3620859,W,1,24,0.6,13.118,M,-29.744,M,0.0,*55
###2023-12-09 13:24:59.389309$GNGGA,182458.50,4138.0454809,N,07032.3619589,W,1,24,0.6,13.109,M,-29.744,M,0.0,*57
###2023-12-09 13:24:59.589948$GNGGA,182458.70,4138.0453157,N,07032.3618438,W,1,24,0.6,13.099,M,-29.744,M,0.0,*52
###2023-12-09 13:24:59.790550$GNGGA,182458.90,4138.0451436,N,07032.3617343,W,1,24,0.6,13.131,M,-29.744,M,0.0,*5B
###2023-12-09 13:24:59.992047$GNRMC,182459.10,A,4138.0449682,N,07032.3616271,W,3.48,152.61,091223,,,A*5E
###2023-12-09 13:24:59.995530$GNGGA,182459.10,4138.0449682,N,07032.3616271,W,1,24,0.6,13.125,M,-29.744,M,0.0,*52
###2023-12-09 13:24:59.997696$GPGSA,A,3,03,04,16,26,28,29,31,,,,,,1.1,0.6,0.9*3A
###2023-12-09 13:24:59.999785$GLGSA,A,3,65,71,72,73,74,75,,,,,,,1.1,0.6,0.9*24
###2023-12-09 13:25:00.001705$GAGSA,A,3,04,19,21,27,,,,,,,,,1.1,0.6,0.9*26
###2023-12-09 13:25:00.003783$GBGSA,A,3,14,24,25,26,33,35,,,,,,,1.1,0.6,0.9*29
###2023-12-09 13:25:00.006617$GPGSV,2,1,07,03,30,251,43,04,42,310,45,16,61,218,47,26,89,050,48*79
###2023-12-09 13:25:00.009086$GPGSV,2,2,07,28,41,080,44,29,22,051,44,31,63,058,47,,,,*4F
###2023-12-09 13:25:00.011920$GLGSV,2,1,06,65,34,322,45,71,27,175,42,72,67,229,46,73,26,049,44*62
###2023-12-09 13:25:00.014041$GLGSV,2,2,06,74,63,006,43,75,40,266,47,,,,,,,,*63
###2023-12-09 13:25:00.016857$GAGSV,1,1,04,04,37,311,44,19,76,185,40,21,80,051,47,27,26,049,42*68
###2023-12-09 13:25:00.019724$GBGSV,2,1,06,14,33,190,42,24,66,041,49,25,48,272,47,26,19,068,45*67
###2023-12-09 13:25:00.021849$GBGSV,2,2,06,33,49,220,47,35,16,060,45,,,,,,,,*65
###2023-12-09 13:25:00.023461$GNVTG,152.61,T,,M,3.48,N,6.44,K,A*2B
###2023-12-09 13:25:00.025462$GNGST,182459.10,18.000,,,,0.098,0.067,0.160*5B
###2023-12-09 13:25:00.027033$GNZDA,182459.10,09,12,2023,00,00*73
###2023-12-09 13:25:00.027812$GNEBP,,,,,,M*13
###2023-12-09 13:25:00.188996$GNGGA,182459.30,4138.0448041,N,07032.3615038,W,1,24,0.6,13.124,M,-29.744,M,0.0,*55
###2023-12-09 13:25:00.389291$GNGGA,182459.50,4138.0446305,N,07032.3613828,W,1,24,0.6,13.131,M,-29.744,M,0.0,*55
###2023-12-09 13:25:00.589292$GNGGA,182459.70,4138.0444603,N,07032.3612582,W,1,24,0.6,13.119,M,-29.744,M,0.0,*50
###2023-12-09 13:25:00.790864$GNGGA,182459.90,4138.0442881,N,07032.3611342,W,1,24,0.6,13.139,M,-29.744,M,0.0,*57
###2023-12-09 13:25:00.994053$GNRMC,182500.10,A,4138.0441173,N,07032.3610062,W,3.63,148.25,091223,,,A*56
###2023-12-09 13:25:00.997518$GNGGA,182500.10,4138.0441173,N,07032.3610062,W,1,24,0.6,13.149,M,-29.744,M,0.0,*52
###2023-12-09 13:25:00.999705$GPGSA,A,3,03,04,16,26,28,29,31,,,,,,1.1,0.6,0.9*3A
###2023-12-09 13:25:01.001780$GLGSA,A,3,65,71,72,73,74,75,,,,,,,1.1,0.6,0.9*24
###2023-12-09 13:25:01.003701$GAGSA,A,3,04,19,21,27,,,,,,,,,1.1,0.6,0.9*26
###2023-12-09 13:25:01.005768$GBGSA,A,3,14,24,25,26,33,35,,,,,,,1.1,0.6,0.9*29
###2023-12-09 13:25:01.008596$GPGSV,2,1,07,03,30,251,43,04,42,310,45,16,61,218,46,26,89,050,48*78
###2023-12-09 13:25:01.011095$GPGSV,2,2,07,28,41,080,45,29,22,051,44,31,63,058,47,,,,*4E
###2023-12-09 13:25:01.013913$GLGSV,2,1,06,65,34,322,44,71,27,175,42,72,67,229,46,73,26,049,45*62
###2023-12-09 13:25:01.016036$GLGSV,2,2,06,74,63,006,43,75,40,266,48,,,,,,,,*6C
###2023-12-09 13:25:01.018854$GAGSV,1,1,04,04,37,311,45,19,76,185,41,21,80,051,46,27,26,049,42*69
###2023-12-09 13:25:01.021663$GBGSV,2,1,06,14,33,190,42,24,66,041,48,25,48,272,47,26,19,068,44*67
###2023-12-09 13:25:01.023776$GBGSV,2,2,06,33,49,220,48,35,16,060,44,,,,,,,,*6B
###2023-12-09 13:25:01.025367$GNVTG,148.25,T,,M,3.63,N,6.73,K,A*2D
###2023-12-09 13:25:01.027405$GNGST,182500.10,18.000,,,,0.099,0.067,0.160*57
###2023-12-09 13:25:01.028972$GNZDA,182500.10,09,12,2023,00,00*7E
###2023-12-09 13:25:01.029743$GNEBP,,,,,,M*13
###2023-12-09 13:25:01.188383$GNGGA,182500.30,4138.0439518,N,07032.3608573,W,1,24,0.6,13.137,M,-29.744,M,0.0,*53
###2023-12-09 13:25:01.390171$GNGGA,182500.50,4138.0437939,N,07032.3607083,W,1,24,0.6,13.137,M,-29.744,M,0.0,*51
###2023-12-09 13:25:01.589272$GNGGA,182500.70,4138.0436238,N,07032.3605715,W,1,24,0.6,13.153,M,-29.744,M,0.0,*50
###2023-12-09 13:25:01.788690$GNGGA,182500.90,4138.0434538,N,07032.3604298,W,1,24,0.6,13.154,M,-29.744,M,0.0,*5D
###2023-12-09 13:25:01.993249$GNRMC,182501.10,A,4138.0432953,N,07032.3602779,W,3.62,143.36,091223,,,A*5F
###2023-12-09 13:25:01.996136$GNGGA,182501.10,4138.0432953,N,07032.3602779,W,1,24,0.6,13.151,M,-29.744,M,0.0,*5A
###2023-12-09 13:25:01.997927$GPGSA,A,3,03,04,16,26,28,29,31,,,,,,1.1,0.6,0.9*3A
###2023-12-09 13:25:01.999655$GLGSA,A,3,65,71,72,73,74,75,,,,,,,1.1,0.6,0.9*24
###2023-12-09 13:25:02.001239$GAGSA,A,3,04,19,21,27,,,,,,,,,1.1,0.6,0.9*26
###2023-12-09 13:25:02.002960$GBGSA,A,3,14,24,25,26,33,35,,,,,,,1.1,0.6,0.9*29
###2023-12-09 13:25:02.005291$GPGSV,2,1,07,03,30,251,43,04,42,310,45,16,61,218,46,26,89,050,48*78
###2023-12-09 13:25:02.007334$GPGSV,2,2,07,28,41,080,44,29,22,051,44,31,63,058,47,,,,*4F
###2023-12-09 13:25:02.009660$GLGSV,2,1,06,65,34,322,45,71,27,175,42,72,67,229,46,73,26,049,44*62
###2023-12-09 13:25:02.011412$GLGSV,2,2,06,74,63,006,43,75,40,266,47,,,,,,,,*63
###2023-12-09 13:25:02.013736$GAGSV,1,1,04,04,37,311,45,19,76,185,41,21,80,051,46,27,26,049,42*69
###2023-12-09 13:25:02.016076$GBGSV,2,1,06,14,33,190,42,24,66,041,48,25,48,272,47,26,19,068,43*60
###2023-12-09 13:25:02.017821$GBGSV,2,2,06,33,49,220,47,35,16,060,44,,,,,,,,*64
###2023-12-09 13:25:02.019152$GNVTG,143.36,T,,M,3.62,N,6.70,K,A*26
###2023-12-09 13:25:02.020796$GNGST,182501.10,18.000,,,,0.099,0.068,0.160*59
###2023-12-09 13:25:02.022086$GNZDA,182501.10,09,12,2023,00,00*7F
###2023-12-09 13:25:02.022734$GNEBP,,,,,,M*13
###2023-12-09 13:25:02.188503$GNGGA,182501.30,4138.0431300,N,07032.3601298,W,1,24,0.6,13.151,M,-29.744,M,0.0,*5E
###2023-12-09 13:25:02.386858$GNGGA,182501.50,4138.0429592,N,07032.3599944,W,1,24,0.6,13.146,M,-29.744,M,0.0,*52
###2023-12-09 13:25:02.590241$GNGGA,182501.70,4138.0427862,N,07032.3598613,W,1,24,0.6,13.159,M,-29.744,M,0.0,*5E
###2023-12-09 13:25:02.787755$GNGGA,182501.90,4138.0426130,N,07032.3597314,W,1,24,0.6,13.156,M,-29.744,M,0.0,*5D
###2023-12-09 13:25:02.994828$GNRMC,182502.10,A,4138.0424421,N,07032.3595952,W,3.62,150.02,091223,,,A*5C
###2023-12-09 13:25:02.997690$GNGGA,182502.10,4138.0424421,N,07032.3595952,W,1,24,0.6,13.159,M,-29.744,M,0.0,*54
###2023-12-09 13:25:02.999493$GPGSA,A,3,03,04,16,26,28,29,31,,,,,,1.1,0.6,0.9*3A
###2023-12-09 13:25:03.001203$GLGSA,A,3,65,71,72,73,74,75,,,,,,,1.1,0.6,0.9*24
###2023-12-09 13:25:03.002788$GAGSA,A,3,04,19,21,27,,,,,,,,,1.1,0.6,0.9*26
###2023-12-09 13:25:03.004499$GBGSA,A,3,14,24,25,26,33,35,,,,,,,1.1,0.6,0.9*29
###2023-12-09 13:25:03.006827$GPGSV,2,1,07,03,30,251,41,04,42,310,43,16,61,218,44,26,89,050,47*71
###2023-12-09 13:25:03.008865$GPGSV,2,2,07,28,41,080,41,29,22,051,41,31,63,058,45,,,,*4D
###2023-12-09 13:25:03.011183$GLGSV,2,1,06,65,34,322,45,71,27,175,41,72,67,229,46,73,26,049,44*61
###2023-12-09 13:25:03.013182$GLGSV,2,2,06,74,63,006,43,75,40,266,47,,,,,,,,*63
###2023-12-09 13:25:03.015532$GAGSV,1,1,04,04,37,311,41,19,76,185,39,21,80,051,44,27,26,049,41*63
###2023-12-09 13:25:03.017870$GBGSV,2,1,06,14,33,190,42,24,66,041,49,25,48,272,49,26,19,068,45*69
###2023-12-09 13:25:03.019629$GBGSV,2,2,06,33,49,220,48,35,16,060,46,,,,,,,,*69
###2023-12-09 13:25:03.020948$GNVTG,150.02,T,,M,3.62,N,6.70,K,A*23
###2023-12-09 13:25:03.022599$GNGST,182502.10,18.000,,,,0.099,0.068,0.160*5A
###2023-12-09 13:25:03.023883$GNZDA,182502.10,09,12,2023,00,00*7C
###2023-12-09 13:25:03.024519$GNEBP,,,,,,M*13
###2023-12-09 13:25:03.192092$GNGGA,182502.30,4138.0422658,N,07032.3594729,W,1,24,0.6,13.160,M,-29.744,M,0.0,*55
