###2023-12-09 13:16:38.987710$GPGSA,A,3,03,04,16,26,28,29,31,,,,,,1.2,0.7,1.0*30
###2023-12-09 13:16:38.989455$GLGSA,A,3,65,71,72,73,74,75,,,,,,,1.2,0.7,1.0*2E
###2023-12-09 13:16:38.991061$GAGSA,A,3,04,19,21,27,,,,,,,,,1.2,0.7,1.0*2C
###2023-12-09 13:16:38.992787$GBGSA,A,3,14,24,25,26,33,35,,,,,,,1.2,0.7,1.0*23
###2023-12-09 13:16:38.995139$GPGSV,2,1,07,03,32,254,43,04,38,311,42,16,57,216,47,26,87,208,48*7F
###2023-12-09 13:16:38.997184$GPGSV,2,2,07,28,44,077,45,29,24,054,42,31,65,052,47,,,,*4A
###2023-12-09 13:16:38.999540$GLGSV,2,1,06,65,31,324,40,71,33,174,45,72,71,243,46,73,30,046,44*64
###2023-12-09 13:16:39.001288$GLGSV,2,2,06,74,66,355,41,75,37,260,46,,,,,,,,*66
###2023-12-09 13:16:39.003642$GAGSV,1,1,04,04,34,312,42,19,79,190,41,21,83,062,46,27,28,049,41*6B
###2023-12-09 13:16:39.005976$GBGSV,2,1,06,14,36,191,44,24,68,036,48,25,45,268,46,26,21,066,43*6E
###2023-12-09 13:16:39.007737$GBGSV,2,2,06,33,52,224,47,35,16,063,41,,,,,,,,*6C
###2023-12-09 13:16:39.009058$GNVTG,314.13,T,,M,3.52,N,6.52,K,A*22
###2023-12-09 13:16:39.010712$GNGST,181638.10,18.000,,,,0.097,0.070,0.170*55
###2023-12-09 13:16:39.012005$GNZDA,181638.10,09,12,2023,00,00*75
###2023-12-09 13:16:39.012642$GNEBP,,,,,,M*13
###2023-12-09 13:16:39.181425$GNGGA,181638.30,4138.0895209,N,07032.2770954,W,1,24,0.7,13.128,M,-29.741,M,0.0,*59
###2023-12-09 13:16:39.379175$GNGGA,181638.50,4138.0896409,N,07032.2772994,W,1,24,0.7,13.130,M,-29.741,M,0.0,*5D
###2023-12-09 13:16:39.578006$GNGGA,181638.70,4138.0897548,N,07032.2775069,W,1,24,0.7,13.134,M,-29.741,M,0.0,*52
###2023-12-09 13:16:39.778100$GNGGA,181638.90,4138.0898604,N,07032.2777208,W,1,24,0.7,13.141,M,-29.741,M,0.0,*5D
###2023-12-09 13:16:39.979218$GNRMC,181639.10,A,4138.0899535,N,07032.2779419,W,3.40,297.61,091223,,,A*54
###2023-12-09 13:16:39.982077$GNGGA,181639.10,4138.0899535,N,07032.2779419,W,1,24,0.7,13.143,M,-29.741,M,0.0,*5E
###2023-12-09 13:16:39.983883$GPGSA,A,3,03,04,16,26,28,29,31,,,,,,1.2,0.7,1.0*30
###2023-12-09 13:16:39.985603$GLGSA,A,3,65,71,72,73,74,75,,,,,,,1.2,0.7,1.0*2E
###2023-12-09 13:16:39.987204$GAGSA,A,3,04,19,21,27,,,,,,,,,1.2,0.7,1.0*2C
###2023-12-09 13:16:39.988922$GBGSA,A,3,14,24,25,26,33,35,,,,,,,1.2,0.7,1.0*23
###2023-12-09 13:16:39.991272$GPGSV,2,1,07,03,32,254,42,04,38,311,42,16,57,216,46,26,87,208,48*7F
###2023-12-09 13:16:39.993313$GPGSV,2,2,07,28,44,077,45,29,24,054,42,31,65,052,48,,,,*45
###2023-12-09 13:16:39.995654$GLGSV,2,1,06,65,31,324,41,71,33,174,45,72,71,243,46,73,30,046,44*65
###2023-12-09 13:16:39.997406$GLGSV,2,2,06,74,66,355,42,75,37,260,45,,,,,,,,*66
###2023-12-09 13:16:39.999745$GAGSV,1,1,04,04,34,312,41,19,79,190,40,21,83,062,46,27,28,049,41*69
###2023-12-09 13:16:40.002079$GBGSV,2,1,06,14,36,191,45,24,68,036,50,25,45,268,46,26,21,066,42*67
###2023-12-09 13:16:40.003841$GBGSV,2,2,06,33,52,224,47,35,16,063,42,,,,,,,,*6F
###2023-12-09 13:16:40.005168$GNVTG,297.61,T,,M,3.40,N,6.30,K,A*2A
###2023-12-09 13:16:40.006823$GNGST,181639.10,18.000,,,,0.097,0.070,0.170*54
###2023-12-09 13:16:40.008114$GNZDA,181639.10,09,12,2023,00,00*74
###2023-12-09 13:16:40.008752$GNEBP,,,,,,M*13
###2023-12-09 13:16:40.175019$GNGGA,181639.30,4138.0900369,N,07032.2781696,W,1,24,0.7,13.143,M,-29.741,M,0.0,*50
###2023-12-09 13:16:40.375922$GNGGA,181639.50,4138.0901124,N,07032.2783961,W,1,24,0.7,13.142,M,-29.741,M,0.0,*58
###2023-12-09 13:16:40.577150$GNGGA,181639.70,4138.0901871,N,07032.2786232,W,1,24,0.7,13.148,M,-29.741,M,0.0,*51
###2023-12-09 13:16:40.776880$GNGGA,181639.90,4138.0902500,N,07032.2788509,W,1,24,0.7,13.143,M,-29.741,M,0.0,*5D
###2023-12-09 13:16:40.979997$GNRMC,181640.10,A,4138.0903039,N,07032.2790736,W,3.13,287.75,091223,,,A*5A
###2023-12-09 13:16:40.982874$GNGGA,181640.10,4138.0903039,N,07032.2790736,W,1,24,0.7,13.150,M,-29.741,M,0.0,*50
###2023-12-09 13:16:40.984669$GPGSA,A,3,03,04,16,26,28,29,31,,,,,,1.2,0.7,1.0*30
###2023-12-09 13:16:40.986380$GLGSA,A,3,65,71,72,73,74,75,,,,,,,1.2,0.7,1.0*2E
###2023-12-09 13:16:40.987977$GAGSA,A,3,04,19,21,27,,,,,,,,,1.2,0.7,1.0*2C
###2023-12-09 13:16:40.989683$GBGSA,A,3,14,24,25,26,33,35,,,,,,,1.2,0.7,1.0*23
###2023-12-09 13:16:40.992011$GPGSV,2,1,07,03,32,254,41,04,38,311,42,16,57,216,46,26,87,208,48*7C
###2023-12-09 13:16:40.994053$GPGSV,2,2,07,28,44,077,45,29,24,054,40,31,65,052,48,,,,*47
###2023-12-09 13:16:40.996388$GLGSV,2,1,06,65,31,324,41,71,33,174,45,72,71,243,46,73,30,046,43*62
###2023-12-09 13:16:40.998139$GLGSV,2,2,06,74,66,355,42,75,37,260,42,,,,,,,,*61
###2023-12-09 13:16:41.000476$GAGSV,1,1,04,04,34,312,41,19,79,190,41,21,83,062,46,27,28,049,41*68
###2023-12-09 13:16:41.002814$GBGSV,2,1,06,14,36,191,44,24,68,036,48,25,45,268,44,26,21,066,40*6F
###2023-12-09 13:16:41.004561$GBGSV,2,2,06,33,52,224,48,35,16,063,40,,,,,,,,*62
###2023-12-09 13:16:41.005886$GNVTG,287.75,T,,M,3.13,N,5.80,K,A*20
###2023-12-09 13:16:41.007545$GNGST,181640.10,18.000,,,,0.097,0.071,0.170*5B
###2023-12-09 13:16:41.008831$GNZDA,181640.10,09,12,2023,00,00*7A
###2023-12-09 13:16:41.009467$GNEBP,,,,,,M*13
###2023-12-09 13:16:41.176387$GNGGA,181640.30,4138.0903584,N,07032.2792947,W,1,24,0.7,13.159,M,-29.741,M,0.0,*52
###2023-12-09 13:16:41.376287$GNGGA,181640.50,4138.0904053,N,07032.2795145,W,1,24,0.7,13.155,M,-29.741,M,0.0,*5D
###2023-12-09 13:16:41.590150$GNGGA,181640.70,4138.0904409,N,07032.2797343,W,1,24,0.7,13.156,M,-29.741,M,0.0,*51
###2023-12-09 13:16:41.777095$GNGGA,181640.90,4138.0904793,N,07032.2799543,W,1,24,0.7,13.161,M,-29.741,M,0.0,*53
###2023-12-09 13:16:41.979149$GNRMC,181641.10,A,4138.0905248,N,07032.2801737,W,3.09,284.01,091223,,,A*54
###2023-12-09 13:16:41.982014$GNGGA,181641.10,4138.0905248,N,07032.2801737,W,1,24,0.7,13.175,M,-29.741,M,0.0,*52
###2023-12-09 13:16:41.983822$GPGSA,A,3,03,04,16,26,28,29,31,,,,,,1.2,0.7,1.0*30
###2023-12-09 13:16:41.985531$GLGSA,A,3,65,71,72,73,74,75,,,,,,,1.2,0.7,1.0*2E
###2023-12-09 13:16:41.987121$GAGSA,A,3,04,19,21,27,,,,,,,,,1.2,0.7,1.0*2C
###2023-12-09 13:16:41.988827$GBGSA,A,3,14,24,25,26,33,35,,,,,,,1.2,0.7,1.0*23
###2023-12-09 13:16:41.991168$GPGSV,2,1,07,03,32,254,41,04,38,311,44,16,57,216,46,26,87,208,48*7A
###2023-12-09 13:16:41.993194$GPGSV,2,2,07,28,44,077,44,29,24,054,40,31,65,052,47,,,,*49
###2023-12-09 13:16:41.995533$GLGSV,2,1,06,65,31,324,41,71,33,174,45,72,71,243,46,73,30,046,42*63
###2023-12-09 13:16:41.997277$GLGSV,2,2,06,74,66,355,43,75,37,260,41,,,,,,,,*63
###2023-12-09 13:16:41.999607$GAGSV,1,1,04,04,34,312,41,19,79,190,41,21,83,062,46,27,28,049,40*69
###2023-12-09 13:16:42.001933$GBGSV,2,1,06,14,36,191,44,24,68,036,48,25,45,268,42,26,21,066,41*68
###2023-12-09 13:16:42.003678$GBGSV,2,2,06,33,52,224,47,35,16,063,42,,,,,,,,*6F
###2023-12-09 13:16:42.004999$GNVTG,284.01,T,,M,3.09,N,5.72,K,A*26
###2023-12-09 13:16:42.006651$GNGST,181641.10,18.000,,,,0.097,0.071,0.170*5A
###2023-12-09 13:16:42.007941$GNZDA,181641.10,09,12,2023,00,00*7B
###2023-12-09 13:16:42.008576$GNEBP,,,,,,M*13
###2023-12-09 13:16:42.176832$GNGGA,181641.30,4138.0905549,N,07032.2804008,W,1,24,0.7,13.177,M,-29.741,M,0.0,*5A
###2023-12-09 13:16:42.379615$GNGGA,181641.50,4138.0905616,N,07032.2806265,W,1,24,0.7,13.169,M,-29.741,M,0.0,*51
###2023-12-09 13:16:42.576703$GNGGA,181641.70,4138.0905713,N,07032.2808576,W,1,24,0.7,13.175,M,-29.741,M,0.0,*51
###2023-12-09 13:16:42.776737$GNGGA,181641.90,4138.0905904,N,07032.2810969,W,1,24,0.7,13.182,M,-29.741,M,0.0,*54
###2023-12-09 13:16:42.980197$GNRMC,181642.10,A,4138.0905847,N,07032.2813332,W,3.09,261.90,091223,,,A*53
###2023-12-09 13:16:42.983079$GNGGA,181642.10,4138.0905847,N,07032.2813332,W,1,24,0.7,13.175,M,-29.741,M,0.0,*56
###2023-12-09 13:16:42.984879$GPGSA,A,3,03,04,16,26,28,29,31,,,,,,1.2,0.7,1.0*30
###2023-12-09 13:16:42.986605$GLGSA,A,3,65,71,72,73,74,75,,,,,,,1.2,0.7,1.0*2E
###2023-12-09 13:16:42.988185$GAGSA,A,3,04,19,21,27,,,,,,,,,1.2,0.7,1.0*2C
###2023-12-09 13:16:42.989885$GBGSA,A,3,14,24,25,26,33,35,,,,,,,1.2,0.7,1.0*23
###2023-12-09 13:16:42.992215$GPGSV,2,1,07,03,32,254,43,04,38,311,43,16,57,216,46,26,87,208,48*7F
###2023-12-09 13:16:42.994243$GPGSV,2,2,07,28,44,077,45,29,24,054,41,31,65,052,47,,,,*49
###2023-12-09 13:16:42.996568$GLGSV,2,1,06,65,31,324,42,71,33,174,46,72,71,243,45,73,30,046,45*67
###2023-12-09 13:16:42.998551$GLGSV,2,2,06,74,66,355,43,75,37,260,43,,,,,,,,*61
###2023-12-09 13:16:43.000893$GAGSV,1,1,04,04,34,312,42,19,79,190,41,21,83,062,46,27,28,049,42*68
###2023-12-09 13:16:43.003235$GBGSV,2,1,06,14,36,191,44,24,68,036,50,25,45,268,44,26,21,066,44*62
###2023-12-09 13:16:43.004986$GBGSV,2,2,06,33,52,224,48,35,16,063,46,,,,,,,,*64
###2023-12-09 13:16:43.006309$GNVTG,261.90,T,,M,3.09,N,5.72,K,A*25
###2023-12-09 13:16:43.007970$GNGST,181642.10,18.000,,,,0.097,0.072,0.170*5A
###2023-12-09 13:16:43.009255$GNZDA,181642.10,09,12,2023,00,00*78
###2023-12-09 13:16:43.009890$GNEBP,,,,,,M*13
###2023-12-09 13:16:43.175769$GNGGA,181642.30,4138.0905491,N,07032.2815524,W,1,24,0.7,13.164,M,-29.741,M,0.0,*54
