###2023-12-09 13:06:14.982761$GPGSV,2,1,08,03,34,259,42,04,34,311,42,16,52,213,46,26,82,210,48*7B
###2023-12-09 13:06:14.985122$GPGSV,2,2,08,28,48,072,45,29,25,059,40,31,68,042,47,32,17,141,44*7D
###2023-12-09 13:06:14.987493$GLGSV,2,1,06,65,26,327,40,71,39,173,46,72,73,261,45,73,34,043,43*68
###2023-12-09 13:06:14.989249$GLGSV,2,2,06,74,69,343,42,75,33,255,42,,,,,,,,*6B
###2023-12-09 13:06:14.991584$GAGSV,1,1,04,04,31,312,40,19,83,203,40,21,85,094,46,27,31,048,42*64
###2023-12-09 13:06:14.993910$GBGSV,2,1,05,14,42,192,44,24,72,028,48,25,42,263,44,26,25,063,42*67
###2023-12-09 13:06:14.995438$GBGSV,2,2,05,33,56,230,47,,,,,,,,,,,,*5F
###2023-12-09 13:06:14.996766$GNVTG,269.08,T,,M,3.38,N,6.26,K,A*2C
###2023-12-09 13:06:14.998412$GNGST,180614.10,18.000,,,,0.081,0.069,0.160*54
###2023-12-09 13:06:14.999721$GNZDA,180614.10,09,12,2023,00,00*7A
###2023-12-09 13:06:15.000359$GNEBP,,,,,,M*13
###2023-12-09 13:06:15.168892$GNGGA,180614.30,4138.0711982,N,07032.2973891,W,1,24,0.6,13.344,M,-29.742,M,0.0,*52
###2023-12-09 13:06:15.367223$GNGGA,180614.50,4138.0711905,N,07032.2976329,W,1,24,0.6,13.332,M,-29.742,M,0.0,*57
###2023-12-09 13:06:15.567935$GNGGA,180614.70,4138.0712017,N,07032.2978651,W,1,24,0.6,13.343,M,-29.742,M,0.0,*5E
###2023-12-09 13:06:15.767021$GNGGA,180614.90,4138.0712194,N,07032.2980942,W,1,24,0.6,13.340,M,-29.742,M,0.0,*53
###2023-12-09 13:06:15.968887$GNRMC,180615.10,A,4138.0712530,N,07032.2983188,W,3.15,286.18,091223,,,A*5A
###2023-12-09 13:06:15.971794$GNGGA,180615.10,4138.0712530,N,07032.2983188,W,1,24,0.6,13.321,M,-29.742,M,0.0,*5A
###2023-12-09 13:06:15.973663$GPGSA,A,3,03,04,16,26,28,29,31,32,,,,,1.1,0.6,0.9*3B
###2023-12-09 13:06:15.975395$GLGSA,A,3,65,71,72,73,74,75,,,,,,,1.1,0.6,0.9*24
###2023-12-09 13:06:15.976981$GAGSA,A,3,04,19,21,27,,,,,,,,,1.1,0.6,0.9*26
###2023-12-09 13:06:15.978641$GBGSA,A,3,14,24,25,26,33,,,,,,,,1.1,0.6,0.9*2F
###2023-12-09 13:06:15.980971$GPGSV,2,1,08,03,34,259,41,04,34,311,41,16,52,213,47,26,82,210,48*7A
###2023-12-09 13:06:15.983321$GPGSV,2,2,08,28,48,072,44,29,25,059,40,31,68,042,47,32,17,141,44*7C
###2023-12-09 13:06:15.985658$GLGSV,2,1,06,65,26,327,37,71,39,173,46,72,73,261,45,73,34,043,45*6E
###2023-12-09 13:06:15.987416$GLGSV,2,2,06,74,69,343,42,75,33,255,42,,,,,,,,*6B
###2023-12-09 13:06:15.989747$GAGSV,1,1,04,04,31,312,38,19,83,203,40,21,85,094,46,27,31,048,42*6B
###2023-12-09 13:06:15.992092$GBGSV,2,1,05,14,42,192,45,24,72,028,48,25,42,263,44,26,25,063,38*6B
###2023-12-09 13:06:15.993541$GBGSV,2,2,05,33,56,230,47,,,,,,,,,,,,*5F
###2023-12-09 13:06:15.994875$GNVTG,286.18,T,,M,3.15,N,5.83,K,A*2F
###2023-12-09 13:06:15.996526$GNGST,180615.10,18.000,,,,0.081,0.069,0.160*55
###2023-12-09 13:06:15.997827$GNZDA,180615.10,09,12,2023,00,00*7B
###2023-12-09 13:06:15.998466$GNEBP,,,,,,M*13
###2023-12-09 13:06:16.167781$GNGGA,180615.30,4138.0713048,N,07032.2985404,W,1,24,0.6,13.332,M,-29.742,M,0.0,*56
###2023-12-09 13:06:16.367178$GNGGA,180615.50,4138.0713548,N,07032.2987702,W,1,24,0.6,13.342,M,-29.742,M,0.0,*55
###2023-12-09 13:06:16.567492$GNGGA,180615.70,4138.0714047,N,07032.2990079,W,1,24,0.6,13.351,M,-29.742,M,0.0,*55
###2023-12-09 13:06:16.766987$GNGGA,180615.90,4138.0714489,N,07032.2992530,W,1,24,0.6,13.347,M,-29.742,M,0.0,*50
###2023-12-09 13:06:16.970269$GNRMC,180616.10,A,4138.0714833,N,07032.2995036,W,3.46,278.29,091223,,,A*57
###2023-12-09 13:06:16.973151$GNGGA,180616.10,4138.0714833,N,07032.2995036,W,1,24,0.6,13.335,M,-29.742,M,0.0,*57
###2023-12-09 13:06:16.975021$GPGSA,A,3,03,04,16,26,28,29,31,32,,,,,1.1,0.6,0.9*3B
###2023-12-09 13:06:16.976732$GLGSA,A,3,65,71,72,73,74,75,,,,,,,1.1,0.6,0.9*24
###2023-12-09 13:06:16.978308$GAGSA,A,3,04,19,21,27,,,,,,,,,1.1,0.6,0.9*26
###2023-12-09 13:06:16.979965$GBGSA,A,3,14,24,25,26,33,,,,,,,,1.1,0.6,0.9*2F
###2023-12-09 13:06:16.982284$GPGSV,2,1,08,03,34,259,42,04,34,311,42,16,52,213,46,26,82,210,48*7B
###2023-12-09 13:06:16.984629$GPGSV,2,2,08,28,48,072,45,29,25,059,41,31,68,042,47,32,17,141,43*7B
###2023-12-09 13:06:16.986976$GLGSV,2,1,06,65,26,327,39,71,39,173,47,72,73,261,45,73,34,043,43*67
###2023-12-09 13:06:16.988720$GLGSV,2,2,06,74,69,343,42,75,33,255,42,,,,,,,,*6B
###2023-12-09 13:06:16.991068$GAGSV,1,1,04,04,31,312,40,19,83,203,40,21,85,094,46,27,31,048,40*66
###2023-12-09 13:06:16.993396$GBGSV,2,1,05,14,42,192,45,24,72,028,48,25,42,263,44,26,25,063,42*66
###2023-12-09 13:06:16.994863$GBGSV,2,2,05,33,56,230,47,,,,,,,,,,,,*5F
###2023-12-09 13:06:16.996183$GNVTG,278.29,T,,M,3.46,N,6.41,K,A*27
###2023-12-09 13:06:16.997827$GNGST,180616.10,18.000,,,,0.082,0.069,0.160*55
###2023-12-09 13:06:16.999132$GNZDA,180616.10,09,12,2023,00,00*78
###2023-12-09 13:06:16.999770$GNEBP,,,,,,M*13
###2023-12-09 13:06:17.168596$GNGGA,180616.30,4138.0715100,N,07032.2997594,W,1,24,0.6,13.327,M,-29.742,M,0.0,*51
###2023-12-09 13:06:17.369371$GNGGA,180616.50,4138.0715355,N,07032.3000179,W,1,24,0.6,13.324,M,-29.742,M,0.0,*57
###2023-12-09 13:06:17.568518$GNGGA,180616.70,4138.0715448,N,07032.3002718,W,1,24,0.6,13.319,M,-29.742,M,0.0,*53
###2023-12-09 13:06:17.767612$GNGGA,180616.90,4138.0715368,N,07032.3005253,W,1,24,0.6,13.308,M,-29.742,M,0.0,*55
###2023-12-09 13:06:17.969320$GNRMC,180617.10,A,4138.0715284,N,07032.3007808,W,3.46,268.17,091223,,,A*5B
###2023-12-09 13:06:17.972189$GNGGA,180617.10,4138.0715284,N,07032.3007808,W,1,24,0.6,13.307,M,-29.742,M,0.0,*56
###2023-12-09 13:06:17.974051$GPGSA,A,3,03,04,16,26,28,29,31,32,,,,,1.1,0.6,0.9*3B
###2023-12-09 13:06:17.975783$GLGSA,A,3,65,71,72,73,74,75,,,,,,,1.1,0.6,0.9*24
###2023-12-09 13:06:17.977362$GAGSA,A,3,04,19,21,27,,,,,,,,,1.1,0.6,0.9*26
###2023-12-09 13:06:17.979022$GBGSA,A,3,14,24,25,26,33,,,,,,,,1.1,0.6,0.9*2F
###2023-12-09 13:06:17.981344$GPGSV,2,1,08,03,34,259,43,04,34,311,42,16,52,213,46,26,82,210,48*7A
###2023-12-09 13:06:17.983683$GPGSV,2,2,08,28,48,072,45,29,25,059,41,31,68,042,47,32,17,141,44*7C
###2023-12-09 13:06:17.986015$GLGSV,2,1,06,65,26,327,40,71,39,173,46,72,73,261,45,73,34,043,44*6F
###2023-12-09 13:06:17.987775$GLGSV,2,2,06,74,69,343,42,75,33,255,43,,,,,,,,*6A
###2023-12-09 13:06:17.990096$GAGSV,1,1,04,04,31,312,40,19,83,203,40,21,85,094,46,27,31,048,41*67
###2023-12-09 13:06:17.992435$GBGSV,2,1,05,14,42,192,44,24,72,028,49,25,42,263,44,26,25,063,42*66
###2023-12-09 13:06:17.993892$GBGSV,2,2,05,33,56,230,47,,,,,,,,,,,,*5F
###2023-12-09 13:06:17.995229$GNVTG,268.17,T,,M,3.46,N,6.41,K,A*2B
###2023-12-09 13:06:17.996878$GNGST,180617.10,18.000,,,,0.082,0.069,0.160*54
###2023-12-09 13:06:17.998166$GNZDA,180617.10,09,12,2023,00,00*79
###2023-12-09 13:06:17.998816$GNEBP,,,,,,M*13
###2023-12-09 13:06:18.167740$GNGGA,180617.30,4138.0715267,N,07032.3010364,W,1,24,0.6,13.310,M,-29.742,M,0.0,*58
###2023-12-09 13:06:18.368662$GNGGA,180617.50,4138.0715244,N,07032.3012905,W,1,24,0.6,13.320,M,-29.742,M,0.0,*53
###2023-12-09 13:06:18.567644$GNGGA,180617.70,4138.0714956,N,07032.3015335,W,1,24,0.6,13.302,M,-29.742,M,0.0,*56
###2023-12-09 13:06:18.768625$GNGGA,180617.90,4138.0714433,N,07032.3017631,W,1,24,0.6,13.271,M,-29.742,M,0.0,*50
###2023-12-09 13:06:18.971155$GNRMC,180618.10,A,4138.0714068,N,07032.3020034,W,3.34,263.95,091223,,,A*53
###2023-12-09 13:06:18.974005$GNGGA,180618.10,4138.0714068,N,07032.3020034,W,1,24,0.6,13.276,M,-29.742,M,0.0,*5D
###2023-12-09 13:06:18.975877$GPGSA,A,3,03,04,16,26,28,29,31,32,,,,,1.1,0.6,0.9*3B
###2023-12-09 13:06:18.977593$GLGSA,A,3,65,71,72,73,74,75,,,,,,,1.1,0.6,0.9*24
###2023-12-09 13:06:18.979199$GAGSA,A,3,04,19,21,27,,,,,,,,,1.1,0.6,0.9*26
###2023-12-09 13:06:18.980855$GBGSA,A,3,14,24,25,26,33,,,,,,,,1.1,0.6,0.9*2F
###2023-12-09 13:06:18.983204$GPGSV,2,1,08,03,34,259,43,04,34,311,42,16,52,213,46,26,82,210,48*7A
###2023-12-09 13:06:18.985542$GPGSV,2,2,08,28,48,072,45,29,25,059,42,31,68,042,47,32,17,141,44*7F
###2023-12-09 13:06:18.987887$GLGSV,2,1,06,65,26,327,41,71,39,173,45,72,73,261,45,73,34,043,44*6D
###2023-12-09 13:06:18.989635$GLGSV,2,2,06,74,69,343,42,75,33,255,44,,,,,,,,*6D
###2023-12-09 13:06:18.991969$GAGSV,1,1,04,04,31,312,40,19,83,203,40,21,85,094,46,27,31,048,41*67
###2023-12-09 13:06:18.994303$GBGSV,2,1,05,14,42,192,46,24,72,028,50,25,42,263,46,26,25,063,43*6F
###2023-12-09 13:06:18.995772$GBGSV,2,2,05,33,56,230,48,,,,,,,,,,,,*50
###2023-12-09 13:06:18.997352$GNVTG,263.95,T,,M,3.34,N,6.19,K,A*22
###2023-12-09 13:06:18.999021$GNGST,180618.10,18.000,,,,0.081,0.069,0.160*58
###2023-12-09 13:06:19.000319$GNZDA,180618.10,09,12,2023,00,00*76
###2023-12-09 13:06:19.000961$GNEBP,,,,,,M*13
###2023-12-09 13:06:19.166782$GNGGA,180618.30,4138.0713868,N,07032.3022544,W,1,24,0.6,13.301,M,-29.742,M,0.0,*51
###2023-12-09 13:06:19.368589$GNGGA,180618.50,4138.0713452,N,07032.3024996,W,1,24,0.6,13.300,M,-29.742,M,0.0,*56
###2023-12-09 13:06:19.567574$GNGGA,180618.70,4138.0712982,N,07032.3027450,W,1,24,0.6,13.288,M,-29.742,M,0.0,*50
###2023-12-09 13:06:19.768870$GNGGA,180618.90,4138.0712664,N,07032.3030085,W,1,24,0.6,13.283,M,-29.742,M,0.0,*58
###2023-12-09 13:06:19.970065$GNRMC,180619.10,A,4138.0712464,N,07032.3032794,W,3.67,264.90,091223,,,A*56
