###2023-12-09 13:04:58.975156$GPGSA,A,3,03,04,16,26,28,29,31,32,,,,,1.1,0.6,0.9*3B
###2023-12-09 13:04:58.976896$GLGSA,A,3,65,71,72,73,74,75,,,,,,,1.1,0.6,0.9*24
###2023-12-09 13:04:58.978484$GAGSA,A,3,04,19,21,27,,,,,,,,,1.1,0.6,0.9*26
###2023-12-09 13:04:58.980152$GBGSA,A,3,14,24,25,26,33,,,,,,,,1.1,0.6,0.9*2F
###2023-12-09 13:04:58.982486$GPGSV,2,1,08,03,34,260,46,04,33,311,44,16,51,213,49,26,81,210,50*72
###2023-12-09 13:04:58.984829$GPGSV,2,2,08,28,48,071,44,29,25,060,42,31,68,040,48,32,18,140,44*74
###2023-12-09 13:04:58.987174$GLGSV,2,1,06,65,26,327,40,71,39,173,47,72,73,261,47,73,34,043,44*6C
###2023-12-09 13:04:58.988925$GLGSV,2,2,06,74,69,343,43,75,33,255,47,,,,,,,,*6F
###2023-12-09 13:04:58.991267$GAGSV,1,1,04,04,30,312,40,19,83,207,42,21,86,104,47,27,32,048,42*6A
###2023-12-09 13:04:58.993602$GBGSV,2,1,05,14,42,192,46,24,72,028,48,25,42,263,47,26,25,063,41*65
###2023-12-09 13:04:58.995083$GBGSV,2,2,05,33,56,230,48,,,,,,,,,,,,*50
###2023-12-09 13:04:58.996374$GNVTG,83.59,T,,M,3.42,N,6.34,K,A*10
###2023-12-09 13:04:58.998016$GNGST,180458.10,18.000,,,,0.081,0.067,0.160*50
###2023-12-09 13:04:58.999311$GNZDA,180458.10,09,12,2023,00,00*70
###2023-12-09 13:04:58.999950$GNEBP,,,,,,M*13
###2023-12-09 13:04:59.166494$GNGGA,180458.30,4138.0579868,N,07032.2860051,W,1,24,0.6,13.264,M,-29.743,M,0.0,*54
###2023-12-09 13:04:59.367371$GNGGA,180458.50,4138.0579922,N,07032.2857544,W,1,24,0.6,13.245,M,-29.743,M,0.0,*5B
###2023-12-09 13:04:59.567395$GNGGA,180458.70,4138.0579911,N,07032.2855038,W,1,24,0.6,13.253,M,-29.743,M,0.0,*52
###2023-12-09 13:04:59.767477$GNGGA,180458.90,4138.0580049,N,07032.2852551,W,1,24,0.6,13.274,M,-29.743,M,0.0,*56
###2023-12-09 13:04:59.970250$GNRMC,180459.10,A,4138.0579972,N,07032.2849947,W,3.60,97.39,091223,,,A*6A
###2023-12-09 13:04:59.973146$GNGGA,180459.10,4138.0579972,N,07032.2849947,W,1,24,0.6,13.267,M,-29.743,M,0.0,*5B
###2023-12-09 13:04:59.975032$GPGSA,A,3,03,04,16,26,28,29,31,32,,,,,1.1,0.6,0.9*3B
###2023-12-09 13:04:59.976747$GLGSA,A,3,65,71,72,73,74,75,,,,,,,1.1,0.6,0.9*24
###2023-12-09 13:04:59.978340$GAGSA,A,3,04,19,21,27,,,,,,,,,1.1,0.6,0.9*26
###2023-12-09 13:04:59.979996$GBGSA,A,3,14,24,25,26,33,,,,,,,,1.1,0.6,0.9*2F
###2023-12-09 13:04:59.982340$GPGSV,2,1,08,03,34,260,46,04,33,311,42,16,51,213,48,26,81,210,49*7D
###2023-12-09 13:04:59.984696$GPGSV,2,2,08,28,48,071,45,29,25,060,43,31,68,040,47,32,18,140,41*7E
###2023-12-09 13:04:59.987058$GLGSV,2,1,06,65,26,327,39,71,39,173,47,72,73,261,47,73,34,043,44*62
###2023-12-09 13:04:59.988815$GLGSV,2,2,06,74,69,343,43,75,33,255,47,,,,,,,,*6F
###2023-12-09 13:04:59.991166$GAGSV,1,1,04,04,30,312,41,19,83,207,41,21,86,104,46,27,32,048,43*68
###2023-12-09 13:04:59.993502$GBGSV,2,1,05,14,42,192,46,24,72,028,48,25,42,263,47,26,25,063,42*66
###2023-12-09 13:04:59.994974$GBGSV,2,2,05,33,56,230,49,,,,,,,,,,,,*51
###2023-12-09 13:04:59.996267$GNVTG,97.39,T,,M,3.60,N,6.66,K,A*14
###2023-12-09 13:04:59.997920$GNGST,180459.10,18.000,,,,0.081,0.067,0.160*51
###2023-12-09 13:04:59.999226$GNZDA,180459.10,09,12,2023,00,00*71
###2023-12-09 13:04:59.999866$GNEBP,,,,,,M*13
###2023-12-09 13:05:00.166472$GNGGA,180459.30,4138.0579780,N,07032.2847470,W,1,24,0.6,13.259,M,-29.743,M,0.0,*50
###2023-12-09 13:05:00.370880$GNGGA,180459.50,4138.0579723,N,07032.2845019,W,1,24,0.6,13.295,M,-29.743,M,0.0,*56
###2023-12-09 13:05:00.567894$GNGGA,180459.70,4138.0579392,N,07032.2842458,W,1,24,0.6,13.305,M,-29.743,M,0.0,*54
###2023-12-09 13:05:00.767633$GNGGA,180459.90,4138.0578960,N,07032.2840010,W,1,24,0.6,13.281,M,-29.743,M,0.0,*5B
###2023-12-09 13:05:00.970114$GNRMC,180500.10,A,4138.0578834,N,07032.2837522,W,3.50,91.76,091223,,,A*6D
###2023-12-09 13:05:00.972989$GNGGA,180500.10,4138.0578834,N,07032.2837522,W,1,24,0.6,13.304,M,-29.743,M,0.0,*56
###2023-12-09 13:05:00.974866$GPGSA,A,3,03,04,16,26,28,29,31,32,,,,,1.1,0.6,0.9*3B
###2023-12-09 13:05:00.976577$GLGSA,A,3,65,71,72,73,74,75,,,,,,,1.1,0.6,0.9*24
###2023-12-09 13:05:00.978152$GAGSA,A,3,04,19,21,27,,,,,,,,,1.1,0.6,0.9*26
###2023-12-09 13:05:00.979807$GBGSA,A,3,14,24,25,26,33,,,,,,,,1.1,0.6,0.9*2F
###2023-12-09 13:05:00.982130$GPGSV,2,1,08,03,34,260,44,04,33,311,43,16,51,213,48,26,81,210,49*7E
###2023-12-09 13:05:00.984469$GPGSV,2,2,08,28,48,071,44,29,25,060,42,31,68,040,47,32,18,140,42*7D
###2023-12-09 13:05:00.986797$GLGSV,2,1,06,65,26,327,40,71,39,173,47,72,73,261,46,73,34,043,44*6D
###2023-12-09 13:05:00.988535$GLGSV,2,2,06,74,69,343,43,75,33,255,46,,,,,,,,*6E
###2023-12-09 13:05:00.990864$GAGSV,1,1,04,04,30,312,41,19,83,207,41,21,86,104,46,27,32,048,43*68
###2023-12-09 13:05:00.993176$GBGSV,2,1,05,14,42,192,46,24,72,028,50,25,42,263,47,26,25,063,43*6E
###2023-12-09 13:05:00.994633$GBGSV,2,2,05,33,56,230,49,,,,,,,,,,,,*51
###2023-12-09 13:05:00.995913$GNVTG,91.76,T,,M,3.50,N,6.48,K,A*16
###2023-12-09 13:05:00.997552$GNGST,180500.10,18.000,,,,0.080,0.066,0.160*5C
###2023-12-09 13:05:00.998851$GNZDA,180500.10,09,12,2023,00,00*7C
###2023-12-09 13:05:00.999487$GNEBP,,,,,,M*13
###2023-12-09 13:05:01.166260$GNGGA,180500.30,4138.0578624,N,07032.2834925,W,1,24,0.6,13.298,M,-29.743,M,0.0,*57
###2023-12-09 13:05:01.366820$GNGGA,180500.50,4138.0578383,N,07032.2832424,W,1,24,0.6,13.300,M,-29.743,M,0.0,*53
###2023-12-09 13:05:01.567244$GNGGA,180500.70,4138.0578237,N,07032.2829854,W,1,24,0.6,13.327,M,-29.743,M,0.0,*5B
###2023-12-09 13:05:01.767533$GNGGA,180500.90,4138.0577854,N,07032.2827191,W,1,24,0.6,13.307,M,-29.743,M,0.0,*59
###2023-12-09 13:05:01.970617$GNRMC,180501.10,A,4138.0577724,N,07032.2824605,W,3.44,85.33,091223,,,A*68
###2023-12-09 13:05:01.973466$GNGGA,180501.10,4138.0577724,N,07032.2824605,W,1,24,0.6,13.289,M,-29.743,M,0.0,*56
###2023-12-09 13:05:01.975336$GPGSA,A,3,03,04,16,26,28,29,31,32,,,,,1.1,0.6,0.9*3B
###2023-12-09 13:05:01.977052$GLGSA,A,3,65,71,72,73,74,75,,,,,,,1.1,0.6,0.9*24
###2023-12-09 13:05:01.978644$GAGSA,A,3,04,19,21,27,,,,,,,,,1.1,0.6,0.9*26
###2023-12-09 13:05:01.980291$GBGSA,A,3,14,24,25,26,33,,,,,,,,1.1,0.6,0.9*2F
###2023-12-09 13:05:01.982618$GPGSV,2,1,08,03,34,260,45,04,33,311,42,16,51,213,48,26,81,210,49*7E
###2023-12-09 13:05:01.984950$GPGSV,2,2,08,28,48,071,44,29,25,060,41,31,68,040,47,32,18,140,43*7F
###2023-12-09 13:05:01.987292$GLGSV,2,1,06,65,26,327,40,71,39,173,46,72,73,261,46,73,34,043,43*6B
###2023-12-09 13:05:01.989040$GLGSV,2,2,06,74,69,343,43,75,33,255,47,,,,,,,,*6F
###2023-12-09 13:05:01.991380$GAGSV,1,1,04,04,30,312,40,19,83,207,41,21,86,104,46,27,32,048,42*68
###2023-12-09 13:05:01.993713$GBGSV,2,1,05,14,42,192,47,24,72,028,49,25,42,263,47,26,25,063,42*66
###2023-12-09 13:05:01.995181$GBGSV,2,2,05,33,56,230,48,,,,,,,,,,,,*50
###2023-12-09 13:05:01.996481$GNVTG,85.33,T,,M,3.44,N,6.37,K,A*1F
###2023-12-09 13:05:01.998135$GNGST,180501.10,18.000,,,,0.080,0.066,0.160*5D
###2023-12-09 13:05:01.999442$GNZDA,180501.10,09,12,2023,00,00*7D
###2023-12-09 13:05:02.000083$GNEBP,,,,,,M*13
###2023-12-09 13:05:02.166768$GNGGA,180501.30,4138.0578007,N,07032.2822108,W,1,24,0.6,13.328,M,-29.743,M,0.0,*5B
###2023-12-09 13:05:02.366922$GNGGA,180501.50,4138.0577956,N,07032.2819457,W,1,24,0.6,13.345,M,-29.743,M,0.0,*53
###2023-12-09 13:05:02.567017$GNGGA,180501.70,4138.0577553,N,07032.2816752,W,1,24,0.6,13.281,M,-29.743,M,0.0,*58
###2023-12-09 13:05:02.769886$GNGGA,180501.90,4138.0577733,N,07032.2814350,W,1,24,0.6,13.299,M,-29.743,M,0.0,*5F
###2023-12-09 13:05:02.969405$GNRMC,180502.10,A,4138.0578313,N,07032.2811875,W,3.65,82.42,091223,,,A*69
###2023-12-09 13:05:02.972294$GNGGA,180502.10,4138.0578313,N,07032.2811875,W,1,24,0.6,13.343,M,-29.743,M,0.0,*52
###2023-12-09 13:05:02.974156$GPGSA,A,3,03,04,16,26,28,29,31,32,,,,,1.1,0.6,0.9*3B
###2023-12-09 13:05:02.975877$GLGSA,A,3,65,71,72,73,74,75,,,,,,,1.1,0.6,0.9*24
###2023-12-09 13:05:02.977457$GAGSA,A,3,04,19,21,27,,,,,,,,,1.1,0.6,0.9*26
###2023-12-09 13:05:02.979116$GBGSA,A,3,14,24,25,26,33,,,,,,,,1.1,0.6,0.9*2F
###2023-12-09 13:05:02.981439$GPGSV,2,1,08,03,34,260,45,04,33,311,45,16,51,213,46,26,81,210,47*79
###2023-12-09 13:05:02.983779$GPGSV,2,2,08,28,48,071,43,29,25,060,41,31,68,040,46,32,18,140,39*74
###2023-12-09 13:05:02.986105$GLGSV,2,1,06,65,26,327,41,71,39,173,45,72,73,261,46,73,34,043,44*6E
###2023-12-09 13:05:02.988127$GLGSV,2,2,06,74,69,343,43,75,33,255,46,,,,,,,,*6E
###2023-12-09 13:05:02.990477$GAGSV,1,1,04,04,30,312,43,19,83,207,40,21,86,104,46,27,32,048,41*69
###2023-12-09 13:05:02.992833$GBGSV,2,1,05,14,42,192,44,24,72,028,49,25,42,263,46,26,25,063,43*65
###2023-12-09 13:05:02.994298$GBGSV,2,2,05,33,56,230,49,,,,,,,,,,,,*51
###2023-12-09 13:05:02.995610$GNVTG,82.42,T,,M,3.65,N,6.77,K,A*19
###2023-12-09 13:05:02.997258$GNGST,180502.10,18.000,,,,0.080,0.066,0.160*5E
###2023-12-09 13:05:02.998549$GNZDA,180502.10,09,12,2023,00,00*7E
###2023-12-09 13:05:02.999203$GNEBP,,,,,,M*13
###2023-12-09 13:05:03.169357$GNGGA,180502.30,4138.0578271,N,07032.2809221,W,1,24,0.6,13.322,M,-29.743,M,0.0,*50
