###2023-12-09 12:54:39.958918$GNGGA,175439.10,4138.0614310,N,07032.3971888,W,1,24,0.6,13.173,M,-29.744,M,0.0,*59
###2023-12-09 12:54:39.960800$GPGSA,A,3,03,04,16,26,28,29,31,32,,,,,1.1,0.6,0.9*3B
###2023-12-09 12:54:39.962509$GLGSA,A,3,65,71,72,73,74,75,,,,,,,1.1,0.6,0.9*24
###2023-12-09 12:54:39.964114$GAGSA,A,3,04,19,21,27,,,,,,,,,1.1,0.6,0.9*26
###2023-12-09 12:54:39.965765$GBGSA,A,3,14,24,25,26,33,,,,,,,,1.1,0.6,0.9*2F
###2023-12-09 12:54:39.968105$GPGSV,2,1,08,03,36,266,42,04,29,311,42,16,46,211,42,26,76,209,47*76
###2023-12-09 12:54:39.970434$GPGSV,2,2,08,28,52,067,45,29,25,064,42,31,70,029,47,32,22,138,45*73
###2023-12-09 12:54:39.972769$GLGSV,2,1,06,65,20,328,38,71,45,172,46,72,72,285,45,73,39,039,46*6A
###2023-12-09 12:54:39.974517$GLGSV,2,2,06,74,71,324,43,75,29,249,41,,,,,,,,*67
###2023-12-09 12:54:39.976864$GAGSV,1,1,04,04,27,312,40,19,85,242,40,21,84,147,46,27,35,048,43*6B
###2023-12-09 12:54:39.979223$GBGSV,2,1,05,14,46,194,43,24,75,018,48,25,39,260,44,26,28,061,43*67
###2023-12-09 12:54:39.980684$GBGSV,2,2,05,33,60,238,46,,,,,,,,,,,,*53
###2023-12-09 12:54:39.982005$GNVTG,216.60,T,,M,1.83,N,3.38,K,A*22
###2023-12-09 12:54:39.983663$GNGST,175439.10,18.000,,,,0.076,0.067,0.160*55
###2023-12-09 12:54:39.984951$GNZDA,175439.10,09,12,2023,00,00*7D
###2023-12-09 12:54:39.985589$GNEBP,,,,,,M*13
###2023-12-09 12:54:40.153917$GNGGA,175439.30,4138.0613507,N,07032.3973046,W,1,24,0.6,13.197,M,-29.744,M,0.0,*5E
###2023-12-09 12:54:40.353843$GNGGA,175439.50,4138.0612568,N,07032.3974352,W,1,24,0.6,13.197,M,-29.744,M,0.0,*51
###2023-12-09 12:54:40.553973$GNGGA,175439.70,4138.0611485,N,07032.3975177,W,1,24,0.6,13.195,M,-29.744,M,0.0,*54
###2023-12-09 12:54:40.752919$GNGGA,175439.90,4138.0610296,N,07032.3975516,W,1,24,0.6,13.198,M,-29.744,M,0.0,*51
###2023-12-09 12:54:40.955472$GNRMC,175440.10,A,4138.0609051,N,07032.3975930,W,2.39,197.93,091223,,,A*57
###2023-12-09 12:54:40.958323$GNGGA,175440.10,4138.0609051,N,07032.3975930,W,1,24,0.6,13.185,M,-29.744,M,0.0,*52
###2023-12-09 12:54:40.960204$GPGSA,A,3,03,04,16,26,28,29,31,32,,,,,1.1,0.6,0.9*3B
###2023-12-09 12:54:40.961919$GLGSA,A,3,65,71,72,73,74,75,,,,,,,1.1,0.6,0.9*24
###2023-12-09 12:54:40.963513$GAGSA,A,3,04,19,21,27,,,,,,,,,1.1,0.6,0.9*26
###2023-12-09 12:54:40.965162$GBGSA,A,3,14,24,25,26,33,,,,,,,,1.1,0.6,0.9*2F
###2023-12-09 12:54:40.967491$GPGSV,2,1,08,03,36,266,43,04,29,311,40,16,46,211,43,26,76,209,47*74
###2023-12-09 12:54:40.969814$GPGSV,2,2,08,28,52,067,46,29,25,064,43,31,70,029,47,32,22,138,44*70
###2023-12-09 12:54:40.972153$GLGSV,2,1,06,65,20,328,40,71,45,172,46,72,72,285,46,73,39,039,47*67
###2023-12-09 12:54:40.973895$GLGSV,2,2,06,74,71,324,42,75,29,249,42,,,,,,,,*65
###2023-12-09 12:54:40.976231$GAGSV,1,1,04,04,27,312,38,19,85,242,40,21,84,147,45,27,35,048,42*66
###2023-12-09 12:54:40.978560$GBGSV,2,1,05,14,46,194,42,24,75,018,48,25,39,260,44,26,28,061,44*61
###2023-12-09 12:54:40.980032$GBGSV,2,2,05,33,60,238,46,,,,,,,,,,,,*53
###2023-12-09 12:54:40.981354$GNVTG,197.93,T,,M,2.39,N,4.43,K,A*2D
###2023-12-09 12:54:40.983010$GNGST,175440.10,18.000,,,,0.077,0.067,0.160*5A
###2023-12-09 12:54:40.984300$GNZDA,175440.10,09,12,2023,00,00*73
###2023-12-09 12:54:40.984940$GNEBP,,,,,,M*13
###2023-12-09 12:54:41.152961$GNGGA,175440.30,4138.0607785,N,07032.3976659,W,1,24,0.6,13.189,M,-29.744,M,0.0,*5F
###2023-12-09 12:54:41.354977$GNGGA,175440.50,4138.0606447,N,07032.3977435,W,1,24,0.6,13.195,M,-29.744,M,0.0,*51
###2023-12-09 12:54:41.555007$GNGGA,175440.70,4138.0605015,N,07032.3977749,W,1,24,0.6,13.199,M,-29.744,M,0.0,*57
###2023-12-09 12:54:41.754931$GNGGA,175440.90,4138.0603631,N,07032.3977771,W,1,24,0.6,13.200,M,-29.744,M,0.0,*57
###2023-12-09 12:54:41.955649$GNRMC,175441.10,A,4138.0602178,N,07032.3977807,W,2.72,181.31,091223,,,A*50
###2023-12-09 12:54:41.958507$GNGGA,175441.10,4138.0602178,N,07032.3977807,W,1,24,0.6,13.192,M,-29.744,M,0.0,*53
###2023-12-09 12:54:41.960381$GPGSA,A,3,03,04,16,26,28,29,31,32,,,,,1.1,0.6,0.9*3B
###2023-12-09 12:54:41.962091$GLGSA,A,3,65,71,72,73,74,75,,,,,,,1.1,0.6,0.9*24
###2023-12-09 12:54:41.963689$GAGSA,A,3,04,19,21,27,,,,,,,,,1.1,0.6,0.9*26
###2023-12-09 12:54:41.965333$GBGSA,A,3,14,24,25,26,33,,,,,,,,1.1,0.6,0.9*2F
###2023-12-09 12:54:41.967665$GPGSV,2,1,08,03,36,266,44,04,29,311,40,16,46,211,43,26,76,209,47*73
###2023-12-09 12:54:41.969995$GPGSV,2,2,08,28,52,067,45,29,25,064,44,31,70,029,47,32,22,138,41*71
###2023-12-09 12:54:41.972332$GLGSV,2,1,06,65,20,328,42,71,45,172,44,72,72,285,46,73,39,039,46*66
###2023-12-09 12:54:41.974079$GLGSV,2,2,06,74,71,324,43,75,29,249,44,,,,,,,,*62
###2023-12-09 12:54:41.976427$GAGSV,1,1,04,04,27,312,39,19,85,242,40,21,84,147,46,27,35,048,43*65
###2023-12-09 12:54:41.978765$GBGSV,2,1,05,14,46,194,43,24,75,018,48,25,39,260,45,26,28,061,45*60
###2023-12-09 12:54:41.980212$GBGSV,2,2,05,33,59,237,47,,,,,,,,,,,,*57
###2023-12-09 12:54:41.981529$GNVTG,181.31,T,,M,2.72,N,5.04,K,A*2F
###2023-12-09 12:54:41.983216$GNGST,175441.10,18.000,,,,0.078,0.068,0.160*5B
###2023-12-09 12:54:41.984512$GNZDA,175441.10,09,12,2023,00,00*72
###2023-12-09 12:54:41.985150$GNEBP,,,,,,M*13
###2023-12-09 12:54:42.153991$GNGGA,175441.30,4138.0600650,N,07032.3977856,W,1,24,0.6,13.181,M,-29.744,M,0.0,*58
###2023-12-09 12:54:42.355402$GNGGA,175441.50,4138.0599130,N,07032.3977982,W,1,24,0.6,13.191,M,-29.744,M,0.0,*55
###2023-12-09 12:54:42.554977$GNGGA,175441.70,4138.0597540,N,07032.3977859,W,1,24,0.6,13.201,M,-29.744,M,0.0,*57
###2023-12-09 12:54:42.754987$GNGGA,175441.90,4138.0596097,N,07032.3977256,W,1,24,0.6,13.180,M,-29.744,M,0.0,*58
###2023-12-09 12:54:42.954457$GNRMC,175442.10,A,4138.0594737,N,07032.3976604,W,2.72,168.41,091223,,,A*5E
###2023-12-09 12:54:42.957335$GNGGA,175442.10,4138.0594737,N,07032.3976604,W,1,24,0.6,13.179,M,-29.744,M,0.0,*58
###2023-12-09 12:54:42.959205$GPGSA,A,3,03,04,16,26,28,29,31,32,,,,,1.1,0.6,0.9*3B
###2023-12-09 12:54:42.960914$GLGSA,A,3,65,71,72,73,74,75,,,,,,,1.1,0.6,0.9*24
###2023-12-09 12:54:42.962492$GAGSA,A,3,04,19,21,27,,,,,,,,,1.1,0.6,0.9*26
###2023-12-09 12:54:42.964143$GBGSA,A,3,14,24,25,26,33,,,,,,,,1.1,0.6,0.9*2F
###2023-12-09 12:54:42.966458$GPGSV,2,1,08,03,36,266,42,04,29,311,41,16,46,211,43,26,76,209,46*75
###2023-12-09 12:54:42.968793$GPGSV,2,2,08,28,52,067,45,29,25,064,43,31,70,029,46,32,22,138,40*76
###2023-12-09 12:54:42.971131$GLGSV,2,1,06,65,20,328,42,71,45,172,44,72,72,285,46,73,39,039,47*67
###2023-12-09 12:54:42.972871$GLGSV,2,2,06,74,71,324,43,75,29,249,44,,,,,,,,*62
###2023-12-09 12:54:42.975208$GAGSV,1,1,04,04,27,312,38,19,85,242,39,21,84,147,45,27,35,048,44*6E
###2023-12-09 12:54:42.977527$GBGSV,2,1,05,14,46,194,41,24,75,018,47,25,39,260,44,26,28,061,45*6C
###2023-12-09 12:54:42.978988$GBGSV,2,2,05,33,59,237,45,,,,,,,,,,,,*55
###2023-12-09 12:54:42.980305$GNVTG,168.41,T,,M,2.72,N,5.04,K,A*2F
###2023-12-09 12:54:42.981944$GNGST,175442.10,18.000,,,,0.079,0.068,0.160*59
###2023-12-09 12:54:42.983240$GNZDA,175442.10,09,12,2023,00,00*71
###2023-12-09 12:54:42.983879$GNEBP,,,,,,M*13
###2023-12-09 12:54:43.154088$GNGGA,175442.30,4138.0593111,N,07032.3976338,W,1,24,0.6,13.204,M,-29.744,M,0.0,*5C
###2023-12-09 12:54:43.355010$GNGGA,175442.50,4138.0591499,N,07032.3975756,W,1,24,0.6,13.182,M,-29.744,M,0.0,*5F
###2023-12-09 12:54:43.553776$GNGGA,175442.70,4138.0590250,N,07032.3974730,W,1,24,0.6,13.176,M,-29.744,M,0.0,*55
###2023-12-09 12:54:43.753857$GNGGA,175442.90,4138.0588941,N,07032.3973652,W,1,24,0.6,13.182,M,-29.744,M,0.0,*50
###2023-12-09 12:54:43.955550$GNRMC,175443.10,A,4138.0587544,N,07032.3972664,W,2.86,152.89,091223,,,A*5F
###2023-12-09 12:54:43.958412$GNGGA,175443.10,4138.0587544,N,07032.3972664,W,1,24,0.6,13.174,M,-29.744,M,0.0,*52
###2023-12-09 12:54:43.960298$GPGSA,A,3,03,04,16,26,28,29,31,32,,,,,1.1,0.6,0.9*3B
###2023-12-09 12:54:43.962012$GLGSA,A,3,65,71,72,73,74,75,,,,,,,1.1,0.6,0.9*24
###2023-12-09 12:54:43.963605$GAGSA,A,3,04,19,21,27,,,,,,,,,1.1,0.6,0.9*26
###2023-12-09 12:54:43.965251$GBGSA,A,3,14,24,25,26,33,,,,,,,,1.1,0.6,0.9*2F
###2023-12-09 12:54:43.967591$GPGSV,2,1,08,03,36,266,42,04,29,311,41,16,46,211,44,26,76,209,47*73
###2023-12-09 12:54:43.969917$GPGSV,2,2,08,28,52,067,44,29,25,064,43,31,70,029,46,32,22,138,40*77
###2023-12-09 12:54:43.972536$GLGSV,2,1,06,65,21,328,42,71,45,172,45,72,72,285,46,73,39,039,46*66
###2023-12-09 12:54:43.974298$GLGSV,2,2,06,74,71,324,43,75,29,249,45,,,,,,,,*63
###2023-12-09 12:54:43.976641$GAGSV,1,1,04,04,27,312,40,19,85,242,40,21,84,147,45,27,35,048,44*6F
###2023-12-09 12:54:43.978987$GBGSV,2,1,05,14,46,194,43,24,75,018,48,25,39,260,46,26,28,061,45*63
###2023-12-09 12:54:43.980446$GBGSV,2,2,05,33,59,237,48,,,,,,,,,,,,*58
###2023-12-09 12:54:43.981765$GNVTG,152.89,T,,M,2.86,N,5.29,K,A*26
###2023-12-09 12:54:43.983422$GNGST,175443.10,18.000,,,,0.080,0.068,0.160*5E
###2023-12-09 12:54:43.984718$GNZDA,175443.10,09,12,2023,00,00*70
###2023-12-09 12:54:43.985355$GNEBP,,,,,,M*13
