###2023-12-09 12:44:15.958401$GBGSA,A,3,14,24,25,26,33,,,,,,,,1.1,0.6,0.9*2F
###2023-12-09 12:44:15.960799$GPGSV,2,1,08,03,38,271,41,04,25,311,39,16,41,209,44,26,71,208,48*7C
###2023-12-09 12:44:15.963160$GPGSV,2,2,08,28,55,061,45,29,26,069,40,31,72,015,47,32,26,136,45*79
###2023-12-09 12:44:15.965494$GLGSV,2,1,06,65,16,329,38,71,51,170,48,72,69,300,45,73,44,036,47*65
###2023-12-09 12:44:15.967258$GLGSV,2,2,06,74,71,307,42,75,25,245,43,,,,,,,,*65
###2023-12-09 12:44:15.969586$GAGSV,1,1,04,04,24,312,38,19,84,288,40,21,81,170,45,27,39,049,44*68
###2023-12-09 12:44:15.971942$GBGSV,2,1,05,14,51,196,46,24,79,002,49,25,35,255,45,26,32,059,43*6B
###2023-12-09 12:44:15.973395$GBGSV,2,2,05,33,62,246,48,,,,,,,,,,,,*56
###2023-12-09 12:44:15.974721$GNVTG,281.97,T,,M,1.71,N,3.17,K,A*24
###2023-12-09 12:44:15.976360$GNGST,174415.10,18.000,,,,0.079,0.070,0.160*53
###2023-12-09 12:44:15.977645$GNZDA,174415.10,09,12,2023,00,00*72
###2023-12-09 12:44:15.978281$GNEBP,,,,,,M*13
###2023-12-09 12:44:16.143557$GNGGA,174415.30,4138.0389640,N,07032.3912527,W,1,24,0.6,13.505,M,-29.745,M,0.0,*5C
###2023-12-09 12:44:16.344383$GNGGA,174415.50,4138.0389759,N,07032.3913846,W,1,24,0.6,13.499,M,-29.745,M,0.0,*5C
###2023-12-09 12:44:16.543301$GNGGA,174415.70,4138.0389979,N,07032.3915173,W,1,24,0.6,13.498,M,-29.745,M,0.0,*5A
###2023-12-09 12:44:16.750100$GNGGA,174415.90,4138.0390346,N,07032.3916430,W,1,24,0.6,13.496,M,-29.745,M,0.0,*55
###2023-12-09 12:44:16.947038$GNRMC,174416.10,A,4138.0390801,N,07032.3917664,W,1.87,295.78,091223,,,A*55
###2023-12-09 12:44:16.949882$GNGGA,174416.10,4138.0390801,N,07032.3917664,W,1,24,0.6,13.497,M,-29.745,M,0.0,*55
###2023-12-09 12:44:16.951748$GPGSA,A,3,03,04,16,26,28,29,31,32,,,,,1.1,0.6,0.9*3B
###2023-12-09 12:44:16.953459$GLGSA,A,3,65,71,72,73,74,75,,,,,,,1.1,0.6,0.9*24
###2023-12-09 12:44:16.955059$GAGSA,A,3,04,19,21,27,,,,,,,,,1.1,0.6,0.9*26
###2023-12-09 12:44:16.956695$GBGSA,A,3,14,24,25,26,33,,,,,,,,1.1,0.6,0.9*2F
###2023-12-09 12:44:16.959022$GPGSV,2,1,08,03,38,271,43,04,25,311,39,16,41,209,45,26,71,208,47*70
###2023-12-09 12:44:16.961351$GPGSV,2,2,08,28,55,061,46,29,26,069,42,31,72,015,46,32,26,136,44*78
###2023-12-09 12:44:16.963690$GLGSV,2,1,06,65,16,329,38,71,51,170,48,72,69,300,46,73,44,036,46*67
###2023-12-09 12:44:16.965428$GLGSV,2,2,06,74,71,307,42,75,25,245,44,,,,,,,,*62
###2023-12-09 12:44:16.967762$GAGSV,1,1,04,04,24,312,38,19,84,288,40,21,81,170,46,27,39,049,45*6A
###2023-12-09 12:44:16.970090$GBGSV,2,1,05,14,51,196,46,24,79,002,49,25,35,255,45,26,32,059,45*6D
###2023-12-09 12:44:16.971552$GBGSV,2,2,05,33,62,246,46,,,,,,,,,,,,*58
###2023-12-09 12:44:16.972871$GNVTG,295.78,T,,M,1.87,N,3.46,K,A*2D
###2023-12-09 12:44:16.974514$GNGST,174416.10,18.000,,,,0.079,0.071,0.160*51
###2023-12-09 12:44:16.975809$GNZDA,174416.10,09,12,2023,00,00*71
###2023-12-09 12:44:16.976444$GNEBP,,,,,,M*13
###2023-12-09 12:44:17.144837$GNGGA,174416.30,4138.0391234,N,07032.3918931,W,1,24,0.6,13.496,M,-29.745,M,0.0,*5B
###2023-12-09 12:44:17.345418$GNGGA,174416.50,4138.0391704,N,07032.3920244,W,1,24,0.6,13.490,M,-29.745,M,0.0,*5F
###2023-12-09 12:44:17.545285$GNGGA,174416.70,4138.0392283,N,07032.3921474,W,1,24,0.6,13.483,M,-29.745,M,0.0,*52
###2023-12-09 12:44:17.743901$GNGGA,174416.90,4138.0392960,N,07032.3922563,W,1,24,0.6,13.490,M,-29.745,M,0.0,*5C
###2023-12-09 12:44:17.944232$GNRMC,174417.10,A,4138.0393678,N,07032.3923585,W,1.85,314.48,091223,,,A*55
###2023-12-09 12:44:17.947158$GNGGA,174417.10,4138.0393678,N,07032.3923585,W,1,24,0.6,13.494,M,-29.745,M,0.0,*5F
###2023-12-09 12:44:17.949033$GPGSA,A,3,03,04,16,26,28,29,31,32,,,,,1.1,0.6,0.9*3B
###2023-12-09 12:44:17.950762$GLGSA,A,3,65,71,72,73,74,75,,,,,,,1.1,0.6,0.9*24
###2023-12-09 12:44:17.952351$GAGSA,A,3,04,19,21,27,,,,,,,,,1.1,0.6,0.9*26
###2023-12-09 12:44:17.954000$GBGSA,A,3,14,24,25,26,33,,,,,,,,1.1,0.6,0.9*2F
###2023-12-09 12:44:17.956347$GPGSV,2,1,08,03,38,271,44,04,25,311,40,16,41,209,45,26,71,208,47*79
###2023-12-09 12:44:17.958710$GPGSV,2,2,08,28,55,061,45,29,26,069,42,31,72,015,46,32,26,136,42*7D
###2023-12-09 12:44:17.961043$GLGSV,2,1,06,65,16,329,38,71,51,170,48,72,69,300,46,73,44,036,46*67
###2023-12-09 12:44:17.962812$GLGSV,2,2,06,74,71,307,42,75,25,245,47,,,,,,,,*61
###2023-12-09 12:44:17.965140$GAGSV,1,1,04,04,24,312,39,19,84,288,40,21,81,170,46,27,39,049,43*6D
###2023-12-09 12:44:17.967487$GBGSV,2,1,05,14,51,196,45,24,79,002,48,25,35,255,45,26,32,059,44*6E
###2023-12-09 12:44:17.968946$GBGSV,2,2,05,33,62,246,49,,,,,,,,,,,,*57
###2023-12-09 12:44:17.970269$GNVTG,314.48,T,,M,1.85,N,3.42,K,A*20
###2023-12-09 12:44:17.971935$GNGST,174417.10,18.000,,,,0.080,0.070,0.160*57
###2023-12-09 12:44:17.973231$GNZDA,174417.10,09,12,2023,00,00*70
###2023-12-09 12:44:17.973871$GNEBP,,,,,,M*13
###2023-12-09 12:44:18.144631$GNGGA,174417.30,4138.0394427,N,07032.3924555,W,1,24,0.6,13.488,M,-29.745,M,0.0,*55
###2023-12-09 12:44:18.344277$GNGGA,174417.50,4138.0395210,N,07032.3925468,W,1,24,0.6,13.490,M,-29.745,M,0.0,*57
###2023-12-09 12:44:18.545289$GNGGA,174417.70,4138.0396021,N,07032.3926326,W,1,24,0.6,13.483,M,-29.745,M,0.0,*5A
###2023-12-09 12:44:18.745125$GNGGA,174417.90,4138.0396920,N,07032.3927046,W,1,24,0.6,13.478,M,-29.745,M,0.0,*5C
###2023-12-09 12:44:18.945995$GNRMC,174418.10,A,4138.0397866,N,07032.3927669,W,1.92,337.38,091223,,,A*5A
###2023-12-09 12:44:18.948901$GNGGA,174418.10,4138.0397866,N,07032.3927669,W,1,24,0.6,13.475,M,-29.745,M,0.0,*5F
###2023-12-09 12:44:18.950800$GPGSA,A,3,03,04,16,26,28,29,31,32,,,,,1.1,0.6,0.9*3B
###2023-12-09 12:44:18.952522$GLGSA,A,3,65,71,72,73,74,75,,,,,,,1.1,0.6,0.9*24
###2023-12-09 12:44:18.954116$GAGSA,A,3,04,19,21,27,,,,,,,,,1.1,0.6,0.9*26
###2023-12-09 12:44:18.955779$GBGSA,A,3,14,24,25,26,33,,,,,,,,1.1,0.6,0.9*2F
###2023-12-09 12:44:18.958117$GPGSV,2,1,08,03,38,271,44,04,25,311,40,16,41,209,45,26,71,208,47*79
###2023-12-09 12:44:18.960450$GPGSV,2,2,08,28,55,061,45,29,26,069,43,31,72,015,46,32,26,136,40*7E
###2023-12-09 12:44:18.962808$GLGSV,2,1,06,65,16,329,39,71,51,170,47,72,69,300,46,73,44,036,45*6A
###2023-12-09 12:44:18.964561$GLGSV,2,2,06,74,71,307,42,75,25,245,45,,,,,,,,*63
###2023-12-09 12:44:18.966912$GAGSV,1,1,04,04,24,312,39,19,84,288,40,21,81,170,46,27,39,049,41*6F
###2023-12-09 12:44:18.969249$GBGSV,2,1,05,14,51,196,44,24,79,002,47,25,35,255,45,26,32,059,42*66
###2023-12-09 12:44:18.970719$GBGSV,2,2,05,33,62,246,46,,,,,,,,,,,,*58
###2023-12-09 12:44:18.972046$GNVTG,337.38,T,,M,1.92,N,3.56,K,A*25
###2023-12-09 12:44:18.973702$GNGST,174418.10,18.000,,,,0.080,0.070,0.160*58
###2023-12-09 12:44:18.975010$GNZDA,174418.10,09,12,2023,00,00*7F
###2023-12-09 12:44:18.975652$GNEBP,,,,,,M*13
###2023-12-09 12:44:19.144977$GNGGA,174418.30,4138.0398846,N,07032.3928241,W,1,24,0.6,13.479,M,-29.745,M,0.0,*5D
###2023-12-09 12:44:19.345674$GNGGA,174418.50,4138.0399872,N,07032.3928769,W,1,24,0.6,13.478,M,-29.745,M,0.0,*53
###2023-12-09 12:44:19.545185$GNGGA,174418.70,4138.0400942,N,07032.3929110,W,1,24,0.6,13.482,M,-29.745,M,0.0,*58
###2023-12-09 12:44:19.744088$GNGGA,174418.90,4138.0401975,N,07032.3929208,W,1,24,0.6,13.482,M,-29.745,M,0.0,*59
###2023-12-09 12:44:19.945047$GNRMC,174419.10,A,4138.0403005,N,07032.3929287,W,1.79,354.73,091223,,,A*59
###2023-12-09 12:44:19.947922$GNGGA,174419.10,4138.0403005,N,07032.3929287,W,1,24,0.6,13.489,M,-29.745,M,0.0,*50
###2023-12-09 12:44:19.949788$GPGSA,A,3,03,04,16,26,28,29,31,32,,,,,1.1,0.6,0.9*3B
###2023-12-09 12:44:19.951519$GLGSA,A,3,65,71,72,73,74,75,,,,,,,1.1,0.6,0.9*24
###2023-12-09 12:44:19.953095$GAGSA,A,3,04,19,21,27,,,,,,,,,1.1,0.6,0.9*26
###2023-12-09 12:44:19.954749$GBGSA,A,3,14,24,25,26,33,,,,,,,,1.1,0.6,0.9*2F
###2023-12-09 12:44:19.957068$GPGSV,2,1,08,03,38,271,44,04,25,311,41,16,41,209,44,26,71,208,47*79
###2023-12-09 12:44:19.959400$GPGSV,2,2,08,28,55,061,44,29,26,069,41,31,72,015,45,32,26,136,43*7D
###2023-12-09 12:44:19.961724$GLGSV,2,1,06,65,16,329,39,71,51,170,47,72,69,300,46,73,44,036,44*6B
###2023-12-09 12:44:19.963477$GLGSV,2,2,06,74,71,307,42,75,25,245,44,,,,,,,,*62
###2023-12-09 12:44:19.965793$GAGSV,1,1,04,04,24,312,41,19,84,283,40,21,81,170,46,27,39,049,42*68
###2023-12-09 12:44:19.968120$GBGSV,2,1,05,14,51,196,45,24,79,002,47,25,35,255,44,26,32,059,43*67
###2023-12-09 12:44:19.969834$GBGSV,2,2,05,33,62,246,47,,,,,,,,,,,,*59
###2023-12-09 12:44:19.971182$GNVTG,354.73,T,,M,1.79,N,3.31,K,A*2B
###2023-12-09 12:44:19.972826$GNGST,174419.10,18.000,,,,0.080,0.071,0.160*58
###2023-12-09 12:44:19.974110$GNZDA,174419.10,09,12,2023,00,00*7E
###2023-12-09 12:44:19.974756$GNEBP,,,,,,M*13
###2023-12-09 12:44:20.145539$GNGGA,174419.30,4138.0404037,N,07032.3929461,W,1,24,0.6,13.481,M,-29.745,M,0.0,*52
###2023-12-09 12:44:20.345140$GNGGA,174419.50,4138.0405105,N,07032.3929645,W,1,24,0.6,13.473,M,-29.745,M,0.0,*5C
###2023-12-09 12:44:20.545210$GNGGA,174419.70,4138.0406189,N,07032.3929543,W,1,24,0.6,13.478,M,-29.745,M,0.0,*57
###2023-12-09 12:44:20.744559$GNGGA,174419.90,4138.0407225,N,07032.3929255,W,1,24,0.6,13.488,M,-29.745,M,0.0,*52
