###2023-12-09 12:59:29.991019$GBGSV,2,1,05,14,44,193,44,24,74,022,49,25,40,261,44,26,27,062,44*68
###2023-12-09 12:59:29.992495$GBGSV,2,2,05,33,58,234,48,,,,,,,,,,,,*5A
###2023-12-09 12:59:29.993827$GNVTG,252.26,T,,M,2.80,N,5.18,K,A*24
###2023-12-09 12:59:29.995490$GNGST,175929.10,18.000,,,,0.079,0.068,0.160*59
###2023-12-09 12:59:29.996780$GNZDA,175929.10,09,12,2023,00,00*71
###2023-12-09 12:59:29.997414$GNEBP,,,,,,M*13
###2023-12-09 12:59:30.164274$GNGGA,175929.30,4138.0191058,N,07032.2647751,W,1,24,0.6,12.914,M,-29.744,M,0.0,*5A
###2023-12-09 12:59:30.365354$GNGGA,175929.50,4138.0190885,N,07032.2649764,W,1,24,0.6,12.907,M,-29.744,M,0.0,*5F
###2023-12-09 12:59:30.566041$GNGGA,175929.70,4138.0191123,N,07032.2651867,W,1,24,0.6,12.938,M,-29.744,M,0.0,*50
###2023-12-09 12:59:30.765733$GNGGA,175929.90,4138.0191153,N,07032.2653926,W,1,24,0.6,12.935,M,-29.744,M,0.0,*52
###2023-12-09 12:59:30.967119$GNRMC,175930.10,A,4138.0190843,N,07032.2655961,W,2.92,255.72,091223,,,A*5A
###2023-12-09 12:59:30.969954$GNGGA,175930.10,4138.0190843,N,07032.2655961,W,1,24,0.6,12.926,M,-29.744,M,0.0,*5C
###2023-12-09 12:59:30.971825$GPGSA,A,3,03,04,16,26,28,29,31,32,,,,,1.1,0.6,0.9*3B
###2023-12-09 12:59:30.973540$GLGSA,A,3,65,71,72,73,74,75,,,,,,,1.1,0.6,0.9*24
###2023-12-09 12:59:30.975136$GAGSA,A,3,04,19,21,27,,,,,,,,,1.1,0.6,0.9*26
###2023-12-09 12:59:30.976785$GBGSA,A,3,14,24,25,26,33,,,,,,,,1.1,0.6,0.9*2F
###2023-12-09 12:59:30.979124$GPGSV,2,1,08,03,35,262,42,04,32,311,42,16,49,212,46,26,79,210,47*74
###2023-12-09 12:59:30.981458$GPGSV,2,2,08,28,50,069,45,29,25,063,42,31,69,033,48,32,20,139,42*70
###2023-12-09 12:59:30.983804$GLGSV,2,1,06,65,23,328,41,71,42,172,47,72,73,273,45,73,37,041,46*68
###2023-12-09 12:59:30.985554$GLGSV,2,2,06,74,70,334,42,75,31,252,42,,,,,,,,*66
###2023-12-09 12:59:30.987893$GAGSV,1,1,04,04,28,312,41,19,85,226,41,21,85,133,46,27,34,048,43*65
###2023-12-09 12:59:30.990225$GBGSV,2,1,05,14,44,193,44,24,74,022,49,25,40,261,43,26,27,062,43*68
###2023-12-09 12:59:30.991692$GBGSV,2,2,05,33,58,234,48,,,,,,,,,,,,*5A
###2023-12-09 12:59:30.993018$GNVTG,255.72,T,,M,2.92,N,5.40,K,A*2C
###2023-12-09 12:59:30.994678$GNGST,175930.10,18.000,,,,0.079,0.068,0.160*51
###2023-12-09 12:59:30.995972$GNZDA,175930.10,09,12,2023,00,00*79
###2023-12-09 12:59:30.996613$GNEBP,,,,,,M*13
###2023-12-09 12:59:31.163843$GNGGA,175930.30,4138.0190516,N,07032.2658136,W,1,24,0.6,12.904,M,-29.744,M,0.0,*54
###2023-12-09 12:59:31.363471$GNGGA,175930.50,4138.0190772,N,07032.2660413,W,1,24,0.6,12.923,M,-29.744,M,0.0,*5E
###2023-12-09 12:59:31.564498$GNGGA,175930.70,4138.0191100,N,07032.2662708,W,1,24,0.6,12.947,M,-29.744,M,0.0,*57
###2023-12-09 12:59:31.765457$GNGGA,175930.90,4138.0190934,N,07032.2664983,W,1,24,0.6,12.917,M,-29.744,M,0.0,*59
###2023-12-09 12:59:31.971670$GNRMC,175931.10,A,4138.0190838,N,07032.2667282,W,3.15,276.34,091223,,,A*5D
###2023-12-09 12:59:31.974530$GNGGA,175931.10,4138.0190838,N,07032.2667282,W,1,24,0.6,12.889,M,-29.744,M,0.0,*52
###2023-12-09 12:59:31.976414$GPGSA,A,3,03,04,16,26,28,29,31,32,,,,,1.1,0.6,0.9*3B
###2023-12-09 12:59:31.978129$GLGSA,A,3,65,71,72,73,74,75,,,,,,,1.1,0.6,0.9*24
###2023-12-09 12:59:31.979726$GAGSA,A,3,04,19,21,27,,,,,,,,,1.1,0.6,0.9*26
###2023-12-09 12:59:31.981368$GBGSA,A,3,14,24,25,26,33,,,,,,,,1.1,0.6,0.9*2F
###2023-12-09 12:59:31.983709$GPGSV,2,1,08,03,35,262,42,04,32,311,40,16,49,212,46,26,79,210,48*79
###2023-12-09 12:59:31.986041$GPGSV,2,2,08,28,50,070,45,29,25,063,41,31,69,033,48,32,20,139,44*7D
###2023-12-09 12:59:31.988377$GLGSV,2,1,06,65,23,328,38,71,42,172,47,72,73,273,45,73,37,041,46*66
###2023-12-09 12:59:31.990124$GLGSV,2,2,06,74,70,334,42,75,31,252,41,,,,,,,,*65
###2023-12-09 12:59:31.992456$GAGSV,1,1,04,04,28,312,39,19,85,226,41,21,85,133,46,27,34,048,41*68
###2023-12-09 12:59:31.994779$GBGSV,2,1,05,14,44,193,45,24,74,022,48,25,40,261,43,26,27,062,40*6B
###2023-12-09 12:59:31.996233$GBGSV,2,2,05,33,58,234,47,,,,,,,,,,,,*55
###2023-12-09 12:59:31.997555$GNVTG,276.34,T,,M,3.15,N,5.83,K,A*2E
###2023-12-09 12:59:31.999210$GNGST,175931.10,18.000,,,,0.079,0.068,0.160*50
###2023-12-09 12:59:32.000500$GNZDA,175931.10,09,12,2023,00,00*78
###2023-12-09 12:59:32.001137$GNEBP,,,,,,M*13
###2023-12-09 12:59:32.163790$GNGGA,175931.30,4138.0191220,N,07032.2669513,W,1,24,0.6,12.904,M,-29.744,M,0.0,*57
###2023-12-09 12:59:32.368109$GNGGA,175931.50,4138.0191651,N,07032.2671690,W,1,24,0.6,12.907,M,-29.744,M,0.0,*51
###2023-12-09 12:59:32.565456$GNGGA,175931.70,4138.0191968,N,07032.2673851,W,1,24,0.6,12.890,M,-29.744,M,0.0,*58
###2023-12-09 12:59:32.765455$GNGGA,175931.90,4138.0192345,N,07032.2676061,W,1,24,0.6,12.882,M,-29.744,M,0.0,*5D
###2023-12-09 12:59:32.972930$GNRMC,175932.10,A,4138.0192917,N,07032.2678201,W,3.17,293.21,091223,,,A*58
###2023-12-09 12:59:32.975825$GNGGA,175932.10,4138.0192917,N,07032.2678201,W,1,24,0.6,12.889,M,-29.744,M,0.0,*5A
###2023-12-09 12:59:32.977678$GPGSA,A,3,03,04,16,26,28,29,31,32,,,,,1.1,0.6,0.9*3B
###2023-12-09 12:59:32.979404$GLGSA,A,3,65,71,72,73,74,75,,,,,,,1.1,0.6,0.9*24
###2023-12-09 12:59:32.980990$GAGSA,A,3,04,19,21,27,,,,,,,,,1.1,0.6,0.9*26
###2023-12-09 12:59:32.982647$GBGSA,A,3,14,24,25,26,33,,,,,,,,1.1,0.6,0.9*2F
###2023-12-09 12:59:32.984980$GPGSV,2,1,08,03,35,262,42,04,32,311,41,16,49,212,46,26,79,210,48*78
###2023-12-09 12:59:32.987326$GPGSV,2,2,08,28,50,070,45,29,25,062,41,31,69,033,47,32,20,139,44*73
###2023-12-09 12:59:32.989653$GLGSV,2,1,06,65,23,328,36,71,42,172,47,72,73,273,45,73,37,041,46*68
###2023-12-09 12:59:32.991412$GLGSV,2,2,06,74,70,334,42,75,31,252,45,,,,,,,,*61
###2023-12-09 12:59:32.993747$GAGSV,1,1,04,04,28,312,39,19,85,226,40,21,85,133,46,27,34,048,42*6A
###2023-12-09 12:59:32.996096$GBGSV,2,1,05,14,44,193,45,24,74,022,49,25,40,261,45,26,27,062,42*6E
###2023-12-09 12:59:32.997550$GBGSV,2,2,05,33,58,234,47,,,,,,,,,,,,*55
###2023-12-09 12:59:32.998888$GNVTG,293.21,T,,M,3.17,N,5.87,K,A*27
###2023-12-09 12:59:33.000543$GNGST,175932.10,18.000,,,,0.080,0.068,0.160*55
###2023-12-09 12:59:33.001841$GNZDA,175932.10,09,12,2023,00,00*7B
###2023-12-09 12:59:33.002480$GNEBP,,,,,,M*13
###2023-12-09 12:59:33.170036$GNGGA,175932.30,4138.0193653,N,07032.2680350,W,1,24,0.6,12.889,M,-29.744,M,0.0,*54
###2023-12-09 12:59:33.365536$GNGGA,175932.50,4138.0194337,N,07032.2682626,W,1,24,0.6,12.884,M,-29.744,M,0.0,*59
###2023-12-09 12:59:33.564087$GNGGA,175932.70,4138.0194892,N,07032.2685023,W,1,24,0.6,12.877,M,-29.744,M,0.0,*57
###2023-12-09 12:59:33.765421$GNGGA,175932.90,4138.0195447,N,07032.2687462,W,1,24,0.6,12.877,M,-29.744,M,0.0,*5F
###2023-12-09 12:59:33.966084$GNRMC,175933.10,A,4138.0196156,N,07032.2689934,W,3.62,291.28,091223,,,A*5A
###2023-12-09 12:59:33.968957$GNGGA,175933.10,4138.0196156,N,07032.2689934,W,1,24,0.6,12.880,M,-29.744,M,0.0,*58
###2023-12-09 12:59:33.970822$GPGSA,A,3,03,04,16,26,28,29,31,32,,,,,1.1,0.6,0.9*3B
###2023-12-09 12:59:33.972531$GLGSA,A,3,65,71,72,73,74,75,,,,,,,1.1,0.6,0.9*24
###2023-12-09 12:59:33.974114$GAGSA,A,3,04,19,21,27,,,,,,,,,1.1,0.6,0.9*26
###2023-12-09 12:59:33.975774$GBGSA,A,3,14,24,25,26,33,,,,,,,,1.1,0.6,0.9*2F
###2023-12-09 12:59:33.978096$GPGSV,2,1,08,03,35,262,42,04,32,311,41,16,49,212,46,26,79,210,48*78
###2023-12-09 12:59:33.980428$GPGSV,2,2,08,28,50,070,45,29,25,062,41,31,69,033,47,32,20,139,44*73
###2023-12-09 12:59:33.982762$GLGSV,2,1,06,65,23,328,38,71,42,172,47,72,73,273,45,73,37,041,46*66
###2023-12-09 12:59:33.984510$GLGSV,2,2,06,74,70,334,42,75,31,252,42,,,,,,,,*66
###2023-12-09 12:59:33.986841$GAGSV,1,1,04,04,28,312,39,19,85,226,40,21,85,133,46,27,34,048,42*6A
###2023-12-09 12:59:33.989169$GBGSV,2,1,05,14,44,193,45,24,74,022,48,25,40,261,44,26,27,062,42*6E
###2023-12-09 12:59:33.990634$GBGSV,2,2,05,33,58,234,47,,,,,,,,,,,,*55
###2023-12-09 12:59:33.991955$GNVTG,291.28,T,,M,3.62,N,6.70,K,A*25
###2023-12-09 12:59:33.993596$GNGST,175933.10,18.000,,,,0.080,0.068,0.160*54
###2023-12-09 12:59:33.994896$GNZDA,175933.10,09,12,2023,00,00*7A
###2023-12-09 12:59:33.995534$GNEBP,,,,,,M*13
###2023-12-09 12:59:34.162924$GNGGA,175933.30,4138.0196809,N,07032.2692414,W,1,24,0.6,12.877,M,-29.744,M,0.0,*54
###2023-12-09 12:59:34.364253$GNGGA,175933.50,4138.0197349,N,07032.2694914,W,1,24,0.6,12.874,M,-29.744,M,0.0,*54
###2023-12-09 12:59:34.564000$GNGGA,175933.70,4138.0197814,N,07032.2697404,W,1,24,0.6,12.863,M,-29.744,M,0.0,*5C
###2023-12-09 12:59:34.764417$GNGGA,175933.90,4138.0198289,N,07032.2699847,W,1,24,0.6,12.860,M,-29.744,M,0.0,*55
###2023-12-09 12:59:34.966688$GNRMC,175934.10,A,4138.0198886,N,07032.2702294,W,3.46,288.78,091223,,,A*5F
###2023-12-09 12:59:34.970165$GNGGA,175934.10,4138.0198886,N,07032.2702294,W,1,24,0.6,12.869,M,-29.744,M,0.0,*51
###2023-12-09 12:59:34.972428$GPGSA,A,3,03,04,16,26,28,29,31,32,,,,,1.1,0.6,0.9*3B
###2023-12-09 12:59:34.974498$GLGSA,A,3,65,71,72,73,74,75,,,,,,,1.1,0.6,0.9*24
###2023-12-09 12:59:34.976412$GAGSA,A,3,04,19,21,27,,,,,,,,,1.1,0.6,0.9*26
###2023-12-09 12:59:34.978398$GBGSA,A,3,14,24,25,26,33,,,,,,,,1.1,0.6,0.9*2F
