###2023-12-09 13:36:15.015196$GPGSV,2,1,08,03,26,246,41,04,47,307,45,16,67,223,46,26,83,040,47*7D
###2023-12-09 13:36:15.017555$GPGSV,2,2,08,27,17,172,41,28,37,085,42,29,20,046,43,31,59,067,45*74
###2023-12-09 13:36:15.019915$GLGSV,2,1,07,65,39,318,41,71,22,175,41,72,62,220,46,73,22,052,44*67
###2023-12-09 13:36:15.021956$GLGSV,2,2,07,74,59,015,42,75,44,272,48,83,15,047,35,,,,*5C
###2023-12-09 13:36:15.024302$GAGSV,1,1,04,04,40,310,43,19,71,181,40,21,76,045,45,27,22,050,41*6C
###2023-12-09 13:36:15.026644$GBGSV,2,1,07,12,15,126,40,14,29,190,41,24,62,046,47,25,51,276,46*6B
###2023-12-09 13:36:15.028678$GBGSV,2,2,07,26,16,071,44,33,45,217,47,35,16,056,45,,,,*5C
###2023-12-09 13:36:15.029969$GNVTG,98.66,T,,M,2.25,N,4.18,K,A*1A
###2023-12-09 13:36:15.031605$GNGST,183614.10,6.100,,,,0.088,0.068,0.150*62
###2023-12-09 13:36:15.032894$GNZDA,183614.10,09,12,2023,00,00*79
###2023-12-09 13:36:15.033530$GNEBP,,,,,,M*13
###2023-12-09 13:36:15.200554$GNGGA,183614.30,4138.0548835,N,07032.4133359,W,1,27,0.6,13.221,M,-29.745,M,0.0,*51
###2023-12-09 13:36:15.394510$GNGGA,183614.50,4138.0548481,N,07032.4132097,W,1,27,0.6,13.224,M,-29.745,M,0.0,*51
###2023-12-09 13:36:15.594115$GNGGA,183614.70,4138.0547987,N,07032.4130849,W,1,26,0.6,13.235,M,-29.745,M,0.0,*5F
###2023-12-09 13:36:15.796270$GNGGA,183614.90,4138.0547479,N,07032.4129590,W,1,26,0.6,13.230,M,-29.745,M,0.0,*59
###2023-12-09 13:36:15.999695$GNRMC,183615.10,A,4138.0547142,N,07032.4128332,W,1.69,112.60,091223,,,A*5E
###2023-12-09 13:36:16.002595$GNGGA,183615.10,4138.0547142,N,07032.4128332,W,1,27,0.6,13.214,M,-29.745,M,0.0,*55
###2023-12-09 13:36:16.004457$GPGSA,A,3,03,04,16,26,27,28,29,31,,,,,1.0,0.6,0.8*3F
###2023-12-09 13:36:16.006244$GLGSA,A,3,65,71,72,73,74,75,83,,,,,,1.0,0.6,0.8*2F
###2023-12-09 13:36:16.007851$GAGSA,A,3,04,19,21,27,,,,,,,,,1.0,0.6,0.8*26
###2023-12-09 13:36:16.009649$GBGSA,A,3,12,14,24,25,26,33,35,,,,,,1.0,0.6,0.8*2A
###2023-12-09 13:36:16.011996$GPGSV,2,1,08,03,26,246,41,04,47,307,44,16,67,223,47,26,83,040,48*72
###2023-12-09 13:36:16.014334$GPGSV,2,2,08,27,17,172,39,28,37,085,45,29,20,046,44,31,59,067,47*79
###2023-12-09 13:36:16.016683$GLGSV,2,1,07,65,39,318,45,71,22,175,41,72,62,220,46,73,22,052,46*61
###2023-12-09 13:36:16.018766$GLGSV,2,2,07,74,59,015,42,75,44,272,47,83,15,047,36,,,,*50
###2023-12-09 13:36:16.021095$GAGSV,1,1,04,04,40,310,45,19,71,181,41,21,76,045,45,27,22,050,43*69
###2023-12-09 13:36:16.023440$GBGSV,2,1,07,12,15,126,40,14,29,190,41,24,62,046,49,25,51,276,47*64
###2023-12-09 13:36:16.025481$GBGSV,2,2,07,26,16,071,45,33,45,217,46,35,16,056,44,,,,*5D
###2023-12-09 13:36:16.026818$GNVTG,112.60,T,,M,1.69,N,3.13,K,A*28
###2023-12-09 13:36:16.028436$GNGST,183615.10,5.700,,,,0.089,0.068,0.150*67
###2023-12-09 13:36:16.029722$GNZDA,183615.10,09,12,2023,00,00*78
###2023-12-09 13:36:16.030361$GNEBP,,,,,,M*13
###2023-12-09 13:36:16.202433$GNGGA,183615.30,4138.0546491,N,07032.4127325,W,1,27,0.6,13.223,M,-29.745,M,0.0,*50
###2023-12-09 13:36:16.395164$GNGGA,183615.50,4138.0545720,N,07032.4126368,W,1,27,0.6,13.241,M,-29.745,M,0.0,*50
###2023-12-09 13:36:16.598739$GNGGA,183615.70,4138.0545104,N,07032.4125441,W,1,27,0.6,13.238,M,-29.745,M,0.0,*53
###2023-12-09 13:36:16.796345$GNGGA,183615.90,4138.0544370,N,07032.4124538,W,1,27,0.6,13.232,M,-29.745,M,0.0,*59
###2023-12-09 13:36:17.000988$GNRMC,183616.10,A,4138.0543545,N,07032.4123673,W,1.83,140.31,091223,,,A*56
###2023-12-09 13:36:17.004488$GNGGA,183616.10,4138.0543545,N,07032.4123673,W,1,27,0.6,13.230,M,-29.745,M,0.0,*5C
###2023-12-09 13:36:17.006748$GPGSA,A,3,03,04,16,26,27,28,29,31,,,,,1.0,0.6,0.8*3F
###2023-12-09 13:36:17.008906$GLGSA,A,3,65,71,72,73,74,75,83,,,,,,1.0,0.6,0.8*2F
###2023-12-09 13:36:17.010834$GAGSA,A,3,04,19,21,27,,,,,,,,,1.0,0.6,0.8*26
###2023-12-09 13:36:17.012992$GBGSA,A,3,12,14,24,25,26,33,35,,,,,,1.0,0.6,0.8*2A
###2023-12-09 13:36:17.015824$GPGSV,2,1,08,03,26,246,42,04,47,307,44,16,67,223,46,26,83,040,47*7F
###2023-12-09 13:36:17.018656$GPGSV,2,2,08,27,17,172,40,28,37,085,45,29,20,046,43,31,59,067,47*70
###2023-12-09 13:36:17.021463$GLGSV,2,1,07,65,39,318,43,71,22,175,39,72,62,220,45,73,22,052,45*68
###2023-12-09 13:36:17.023937$GLGSV,2,2,07,74,59,015,43,75,44,272,47,83,15,047,35,,,,*52
###2023-12-09 13:36:17.026811$GAGSV,1,1,04,04,40,310,45,19,71,181,40,21,76,045,46,27,22,050,42*6A
###2023-12-09 13:36:17.029628$GBGSV,2,1,07,12,15,126,39,14,29,190,38,24,62,046,46,25,51,276,46*6A
###2023-12-09 13:36:17.032107$GBGSV,2,2,07,26,16,071,43,33,45,217,45,35,16,056,45,,,,*59
###2023-12-09 13:36:17.033712$GNVTG,140.31,T,,M,1.83,N,3.38,K,A*26
###2023-12-09 13:36:17.035680$GNGST,183616.10,5.600,,,,0.089,0.067,0.150*6A
###2023-12-09 13:36:17.037235$GNZDA,183616.10,09,12,2023,00,00*7B
###2023-12-09 13:36:17.038012$GNEBP,,,,,,M*13
###2023-12-09 13:36:17.198734$GNGGA,183616.30,4138.0542723,N,07032.4122922,W,1,27,0.6,13.235,M,-29.745,M,0.0,*52
###2023-12-09 13:36:17.398199$GNGGA,183616.50,4138.0541766,N,07032.4122245,W,1,27,0.6,13.241,M,-29.745,M,0.0,*5F
###2023-12-09 13:36:17.597800$GNGGA,183616.70,4138.0540794,N,07032.4121499,W,1,26,0.6,13.230,M,-29.745,M,0.0,*52
###2023-12-09 13:36:17.797232$GNGGA,183616.90,4138.0539892,N,07032.4120698,W,1,26,0.6,13.226,M,-29.745,M,0.0,*5E
###2023-12-09 13:36:18.000845$GNRMC,183617.10,A,4138.0538868,N,07032.4119965,W,2.16,153.17,091223,,,A*51
###2023-12-09 13:36:18.004362$GNGGA,183617.10,4138.0538868,N,07032.4119965,W,1,26,0.6,13.234,M,-29.745,M,0.0,*57
###2023-12-09 13:36:18.006628$GPGSA,A,3,03,04,16,26,27,28,29,31,,,,,1.0,0.6,0.8*3F
###2023-12-09 13:36:18.008711$GLGSA,A,3,65,71,72,73,74,75,,,,,,,1.0,0.6,0.8*24
###2023-12-09 13:36:18.010639$GAGSA,A,3,04,19,21,27,,,,,,,,,1.0,0.6,0.8*26
###2023-12-09 13:36:18.012771$GBGSA,A,3,12,14,24,25,26,33,35,,,,,,1.0,0.6,0.8*2A
###2023-12-09 13:36:18.015577$GPGSV,2,1,08,03,26,246,42,04,47,307,44,16,67,223,46,26,83,040,48*70
###2023-12-09 13:36:18.018392$GPGSV,2,2,08,27,17,172,39,28,37,085,45,29,20,046,43,31,59,067,47*7E
###2023-12-09 13:36:18.021228$GLGSV,2,1,06,65,39,318,44,71,22,175,39,72,62,220,45,73,22,052,45*6E
###2023-12-09 13:36:18.023346$GLGSV,2,2,06,74,59,015,43,75,44,272,47,,,,,,,,*69
###2023-12-09 13:36:18.026155$GAGSV,1,1,04,04,40,310,43,19,71,181,40,21,76,045,46,27,22,050,42*6C
###2023-12-09 13:36:18.028971$GBGSV,2,1,07,12,15,126,40,14,29,190,40,24,62,046,48,25,51,276,46*65
###2023-12-09 13:36:18.031431$GBGSV,2,2,07,26,16,071,44,33,45,217,45,35,16,056,45,,,,*5E
###2023-12-09 13:36:18.033029$GNVTG,153.17,T,,M,2.16,N,4.00,K,A*23
###2023-12-09 13:36:18.035032$GNGST,183617.10,5.100,,,,0.088,0.067,0.150*6D
###2023-12-09 13:36:18.036600$GNZDA,183617.10,09,12,2023,00,00*7A
###2023-12-09 13:36:18.037372$GNEBP,,,,,,M*13
###2023-12-09 13:36:18.198473$GNGGA,183617.30,4138.0537782,N,07032.4119280,W,1,26,0.6,13.233,M,-29.745,M,0.0,*56
###2023-12-09 13:36:18.397361$GNGGA,183617.50,4138.0536729,N,07032.4118600,W,1,26,0.6,13.231,M,-29.745,M,0.0,*5F
###2023-12-09 13:36:18.598787$GNGGA,183617.70,4138.0535632,N,07032.4117847,W,1,26,0.6,13.239,M,-29.745,M,0.0,*5F
###2023-12-09 13:36:18.798679$GNGGA,183617.90,4138.0534599,N,07032.4117047,W,1,26,0.6,13.236,M,-29.745,M,0.0,*55
###2023-12-09 13:36:19.001242$GNRMC,183618.10,A,4138.0533486,N,07032.4116347,W,2.27,156.31,091223,,,A*5F
###2023-12-09 13:36:19.004720$GNGGA,183618.10,4138.0533486,N,07032.4116347,W,1,27,0.6,13.240,M,-29.745,M,0.0,*58
###2023-12-09 13:36:19.006987$GPGSA,A,3,03,04,16,26,27,28,29,31,,,,,1.0,0.6,0.8*3F
###2023-12-09 13:36:19.009142$GLGSA,A,3,65,71,72,73,74,75,83,,,,,,1.0,0.6,0.8*2F
###2023-12-09 13:36:19.011065$GAGSA,A,3,04,19,21,27,,,,,,,,,1.0,0.6,0.8*26
###2023-12-09 13:36:19.013212$GBGSA,A,3,12,14,24,25,26,33,35,,,,,,1.0,0.6,0.8*2A
###2023-12-09 13:36:19.016032$GPGSV,2,1,08,03,26,246,41,04,47,307,44,16,67,223,46,26,83,040,48*73
###2023-12-09 13:36:19.018868$GPGSV,2,2,08,27,17,172,40,28,37,085,44,29,20,046,44,31,59,067,47*76
###2023-12-09 13:36:19.021688$GLGSV,2,1,07,65,39,318,44,71,22,175,38,72,62,220,45,73,22,052,43*68
###2023-12-09 13:36:19.024177$GLGSV,2,2,07,74,59,015,43,75,44,272,47,83,15,047,35,,,,*52
###2023-12-09 13:36:19.027027$GAGSV,1,1,04,04,40,310,44,19,71,181,40,21,76,045,46,27,22,050,43*6A
###2023-12-09 13:36:19.030137$GBGSV,2,1,07,12,15,126,40,14,29,190,40,24,62,046,48,25,51,276,47*64
###2023-12-09 13:36:19.032631$GBGSV,2,2,07,26,16,071,43,33,45,217,45,35,16,056,44,,,,*58
###2023-12-09 13:36:19.034239$GNVTG,156.31,T,,M,2.27,N,4.21,K,A*23
###2023-12-09 13:36:19.036205$GNGST,183618.10,5.500,,,,0.088,0.067,0.150*66
###2023-12-09 13:36:19.037767$GNZDA,183618.10,09,12,2023,00,00*75
###2023-12-09 13:36:19.038538$GNEBP,,,,,,M*13
###2023-12-09 13:36:19.199512$GNGGA,183618.30,4138.0532337,N,07032.4115640,W,1,27,0.6,13.245,M,-29.745,M,0.0,*52
###2023-12-09 13:36:19.395713$GNGGA,183618.50,4138.0531255,N,07032.4114799,W,1,27,0.6,13.241,M,-29.745,M,0.0,*52
###2023-12-09 13:36:19.594612$GNGGA,183618.70,4138.0530174,N,07032.4113913,W,1,27,0.6,13.242,M,-29.745,M,0.0,*59
###2023-12-09 13:36:19.796297$GNGGA,183618.90,4138.0529114,N,07032.4113101,W,1,27,0.6,13.249,M,-29.745,M,0.0,*59
###2023-12-09 13:36:20.000037$GNRMC,183619.10,A,4138.0527969,N,07032.4112194,W,2.37,149.18,091223,,,A*5B
