###2023-12-09 13:10:46.008158$GNZDA,181045.10,09,12,2023,00,00*79
###2023-12-09 13:10:46.008820$GNEBP,,,,,,M*13
###2023-12-09 13:10:46.170924$GNGGA,181045.30,4138.0084643,N,07032.2648041,W,1,24,0.7,12.958,M,-29.744,M,0.0,*5B
###2023-12-09 13:10:46.370962$GNGGA,181045.50,4138.0084600,N,07032.2650406,W,1,24,0.7,12.961,M,-29.744,M,0.0,*5E
###2023-12-09 13:10:46.570866$GNGGA,181045.70,4138.0084645,N,07032.2652734,W,1,24,0.7,12.959,M,-29.744,M,0.0,*56
###2023-12-09 13:10:46.772122$GNGGA,181045.90,4138.0084717,N,07032.2655030,W,1,24,0.7,12.964,M,-29.744,M,0.0,*54
###2023-12-09 13:10:46.976218$GNRMC,181046.10,A,4138.0084865,N,07032.2657300,W,3.01,277.11,091223,,,A*58
###2023-12-09 13:10:46.979107$GNGGA,181046.10,4138.0084865,N,07032.2657300,W,1,24,0.7,12.959,M,-29.744,M,0.0,*59
###2023-12-09 13:10:46.980934$GPGSA,A,3,03,04,16,26,28,29,31,,,,,,1.2,0.7,1.0*30
###2023-12-09 13:10:46.982667$GLGSA,A,3,65,71,72,73,74,75,,,,,,,1.2,0.7,1.0*2E
###2023-12-09 13:10:46.984251$GAGSA,A,3,04,19,21,27,,,,,,,,,1.2,0.7,1.0*2C
###2023-12-09 13:10:46.985965$GBGSA,A,3,14,24,25,26,33,35,,,,,,,1.2,0.7,1.0*23
###2023-12-09 13:10:46.988303$GPGSV,2,1,07,03,33,257,39,04,36,311,41,16,54,214,44,26,84,210,47*7A
###2023-12-09 13:10:46.990340$GPGSV,2,2,07,28,46,074,43,29,24,057,39,31,67,046,46,,,,*44
###2023-12-09 13:10:46.992680$GLGSV,2,1,06,65,28,326,39,71,35,174,46,72,72,250,45,73,31,045,45*64
###2023-12-09 13:10:46.994427$GLGSV,2,2,06,74,67,351,42,75,35,257,44,,,,,,,,*64
###2023-12-09 13:10:46.996767$GAGSV,1,1,04,04,32,312,39,19,81,196,40,21,85,078,46,27,30,048,41*64
###2023-12-09 13:10:46.999106$GBGSV,2,1,06,14,39,192,44,24,70,032,49,25,44,266,44,26,23,065,41*60
###2023-12-09 13:10:47.000847$GBGSV,2,2,06,33,54,227,47,35,15,065,41,,,,,,,,*6C
###2023-12-09 13:10:47.002166$GNVTG,277.11,T,,M,3.01,N,5.58,K,A*2B
###2023-12-09 13:10:47.003819$GNGST,181046.10,18.000,,,,0.099,0.073,0.170*57
###2023-12-09 13:10:47.005108$GNZDA,181046.10,09,12,2023,00,00*7A
###2023-12-09 13:10:47.005746$GNEBP,,,,,,M*13
###2023-12-09 13:10:47.172303$GNGGA,181046.30,4138.0085168,N,07032.2659469,W,1,24,0.7,12.959,M,-29.744,M,0.0,*58
###2023-12-09 13:10:47.371856$GNGGA,181046.50,4138.0085621,N,07032.2661500,W,1,24,0.7,12.967,M,-29.744,M,0.0,*5C
###2023-12-09 13:10:47.573249$GNGGA,181046.70,4138.0086109,N,07032.2663403,W,1,24,0.7,12.978,M,-29.744,M,0.0,*5E
###2023-12-09 13:10:47.772081$GNGGA,181046.90,4138.0086584,N,07032.2665296,W,1,24,0.7,12.963,M,-29.744,M,0.0,*57
###2023-12-09 13:10:47.979005$GNRMC,181047.10,A,4138.0087227,N,07032.2666999,W,2.49,301.19,091223,,,A*5B
###2023-12-09 13:10:47.986077$GNGGA,181047.10,4138.0087227,N,07032.2666999,W,1,24,0.7,12.961,M,-29.744,M,0.0,*54
###2023-12-09 13:10:47.988964$GPGSA,A,3,03,04,16,26,28,29,31,,,,,,1.2,0.7,1.0*30
###2023-12-09 13:10:47.990668$GLGSA,A,3,65,71,72,73,74,75,,,,,,,1.2,0.7,1.0*2E
###2023-12-09 13:10:47.992236$GAGSA,A,3,04,19,21,27,,,,,,,,,1.2,0.7,1.0*2C
###2023-12-09 13:10:47.993927$GBGSA,A,3,14,24,25,26,33,35,,,,,,,1.2,0.7,1.0*23
###2023-12-09 13:10:47.996232$GPGSV,2,1,07,03,33,257,43,04,36,311,42,16,54,214,46,26,84,210,47*76
###2023-12-09 13:10:47.998243$GPGSV,2,2,07,28,46,074,45,29,24,057,41,31,67,046,47,,,,*4C
###2023-12-09 13:10:48.000558$GLGSV,2,1,06,65,28,326,39,71,35,174,46,72,72,250,46,73,31,045,45*67
###2023-12-09 13:10:48.002284$GLGSV,2,2,06,74,67,351,41,75,36,258,45,,,,,,,,*6A
###2023-12-09 13:10:48.004599$GAGSV,1,1,04,04,32,312,41,19,81,196,40,21,85,078,46,27,30,048,41*6B
###2023-12-09 13:10:48.006953$GBGSV,2,1,06,14,39,192,45,24,70,032,49,25,44,266,47,26,23,065,42*61
###2023-12-09 13:10:48.008678$GBGSV,2,2,06,33,54,227,49,35,15,065,43,,,,,,,,*60
###2023-12-09 13:10:48.009985$GNVTG,301.19,T,,M,2.49,N,4.61,K,A*25
###2023-12-09 13:10:48.011626$GNGST,181047.10,18.000,,,,0.098,0.073,0.170*57
###2023-12-09 13:10:48.012905$GNZDA,181047.10,09,12,2023,00,00*7B
###2023-12-09 13:10:48.013538$GNEBP,,,,,,M*13
###2023-12-09 13:10:48.172350$GNGGA,181047.30,4138.0087957,N,07032.2668538,W,1,24,0.7,12.982,M,-29.744,M,0.0,*5E
###2023-12-09 13:10:48.372404$GNGGA,181047.50,4138.0088768,N,07032.2669960,W,1,24,0.7,12.984,M,-29.744,M,0.0,*53
###2023-12-09 13:10:48.570977$GNGGA,181047.70,4138.0089635,N,07032.2671327,W,1,24,0.7,12.981,M,-29.744,M,0.0,*5C
###2023-12-09 13:10:48.771826$GNGGA,181047.90,4138.0090438,N,07032.2672782,W,1,24,0.7,12.971,M,-29.744,M,0.0,*52
###2023-12-09 13:10:48.974038$GNRMC,181048.10,A,4138.0091170,N,07032.2674265,W,2.35,303.65,091223,,,A*5B
###2023-12-09 13:10:48.976908$GNGGA,181048.10,4138.0091170,N,07032.2674265,W,1,24,0.7,12.964,M,-29.744,M,0.0,*53
###2023-12-09 13:10:48.978709$GPGSA,A,3,03,04,16,26,28,29,31,,,,,,1.2,0.7,1.0*30
###2023-12-09 13:10:48.980420$GLGSA,A,3,65,71,72,73,74,75,,,,,,,1.2,0.7,1.0*2E
###2023-12-09 13:10:48.981999$GAGSA,A,3,04,19,21,27,,,,,,,,,1.2,0.7,1.0*2C
###2023-12-09 13:10:48.983724$GBGSA,A,3,14,24,25,26,33,35,,,,,,,1.2,0.7,1.0*23
###2023-12-09 13:10:48.986046$GPGSV,2,1,07,03,33,257,43,04,36,311,42,16,54,214,46,26,84,210,47*76
###2023-12-09 13:10:48.988107$GPGSV,2,2,07,28,46,074,45,29,24,057,43,31,67,046,46,,,,*4F
###2023-12-09 13:10:48.990440$GLGSV,2,1,06,65,28,326,41,71,35,174,45,72,72,250,46,73,31,045,45*6B
###2023-12-09 13:10:48.992200$GLGSV,2,2,06,74,67,351,41,75,36,258,45,,,,,,,,*6A
###2023-12-09 13:10:48.994511$GAGSV,1,1,04,04,32,312,42,19,81,196,40,21,85,078,45,27,30,048,43*69
###2023-12-09 13:10:48.996853$GBGSV,2,1,06,14,39,192,44,24,70,032,48,25,44,266,46,26,23,065,43*61
###2023-12-09 13:10:48.998631$GBGSV,2,2,06,33,54,227,47,35,15,065,41,,,,,,,,*6C
###2023-12-09 13:10:48.999951$GNVTG,303.65,T,,M,2.35,N,4.36,K,A*25
###2023-12-09 13:10:49.001589$GNGST,181048.10,18.000,,,,0.098,0.073,0.170*58
###2023-12-09 13:10:49.002883$GNZDA,181048.10,09,12,2023,00,00*74
###2023-12-09 13:10:49.003522$GNEBP,,,,,,M*13
###2023-12-09 13:10:49.171227$GNGGA,181048.30,4138.0091942,N,07032.2675641,W,1,24,0.7,12.962,M,-29.744,M,0.0,*5D
###2023-12-09 13:10:49.375284$GNGGA,181048.50,4138.0092813,N,07032.2676897,W,1,24,0.7,12.965,M,-29.744,M,0.0,*5C
###2023-12-09 13:10:49.571639$GNGGA,181048.70,4138.0093684,N,07032.2678123,W,1,24,0.7,12.970,M,-29.744,M,0.0,*53
###2023-12-09 13:10:49.772088$GNGGA,181048.90,4138.0094500,N,07032.2679432,W,1,24,0.7,12.967,M,-29.744,M,0.0,*57
###2023-12-09 13:10:49.974982$GNRMC,181049.10,A,4138.0095334,N,07032.2680737,W,2.35,312.86,091223,,,A*58
###2023-12-09 13:10:49.977843$GNGGA,181049.10,4138.0095334,N,07032.2680737,W,1,24,0.7,12.967,M,-29.744,M,0.0,*5E
###2023-12-09 13:10:49.979645$GPGSA,A,3,03,04,16,26,28,29,31,,,,,,1.2,0.7,1.0*30
###2023-12-09 13:10:49.981360$GLGSA,A,3,65,71,72,73,74,75,,,,,,,1.2,0.7,1.0*2E
###2023-12-09 13:10:49.982953$GAGSA,A,3,04,19,21,27,,,,,,,,,1.2,0.7,1.0*2C
###2023-12-09 13:10:49.984662$GBGSA,A,3,14,24,25,26,33,35,,,,,,,1.2,0.7,1.0*23
###2023-12-09 13:10:49.986998$GPGSV,2,1,07,03,33,257,42,04,36,311,42,16,54,214,45,26,84,210,47*74
###2023-12-09 13:10:49.989034$GPGSV,2,2,07,28,46,074,45,29,24,057,43,31,67,046,46,,,,*4F
###2023-12-09 13:10:49.991361$GLGSV,2,1,06,65,28,326,41,71,35,174,46,72,72,250,46,73,31,045,45*68
###2023-12-09 13:10:49.993111$GLGSV,2,2,06,74,67,351,42,75,36,258,45,,,,,,,,*69
###2023-12-09 13:10:49.995447$GAGSV,1,1,04,04,32,312,42,19,81,195,40,21,84,075,45,27,30,048,42*67
###2023-12-09 13:10:49.997774$GBGSV,2,1,06,14,39,192,44,24,70,032,49,25,44,266,47,26,23,065,43*61
###2023-12-09 13:10:49.999527$GBGSV,2,2,06,33,54,227,49,35,15,065,42,,,,,,,,*61
###2023-12-09 13:10:50.000846$GNVTG,312.86,T,,M,2.35,N,4.36,K,A*28
###2023-12-09 13:10:50.002484$GNGST,181049.10,18.000,,,,0.098,0.073,0.170*59
###2023-12-09 13:10:50.003784$GNZDA,181049.10,09,12,2023,00,00*75
###2023-12-09 13:10:50.004423$GNEBP,,,,,,M*13
###2023-12-09 13:10:50.172187$GNGGA,181049.30,4138.0096280,N,07032.2682012,W,1,24,0.7,12.973,M,-29.744,M,0.0,*56
###2023-12-09 13:10:50.371446$GNGGA,181049.50,4138.0097265,N,07032.2683304,W,1,24,0.7,12.975,M,-29.744,M,0.0,*59
###2023-12-09 13:10:50.572148$GNGGA,181049.70,4138.0098241,N,07032.2684648,W,1,24,0.7,12.978,M,-29.744,M,0.0,*55
###2023-12-09 13:10:50.772095$GNGGA,181049.90,4138.0099189,N,07032.2686058,W,1,24,0.7,12.981,M,-29.744,M,0.0,*5E
###2023-12-09 13:10:50.973885$GNRMC,181050.10,A,4138.0100146,N,07032.2687486,W,2.59,312.22,091223,,,A*50
###2023-12-09 13:10:50.977020$GNGGA,181050.10,4138.0100146,N,07032.2687486,W,1,24,0.7,12.977,M,-29.744,M,0.0,*53
###2023-12-09 13:10:50.978839$GPGSA,A,3,03,04,16,26,28,29,31,,,,,,1.2,0.7,1.0*30
###2023-12-09 13:10:50.980554$GLGSA,A,3,65,71,72,73,74,75,,,,,,,1.2,0.7,1.0*2E
###2023-12-09 13:10:50.982142$GAGSA,A,3,04,19,21,27,,,,,,,,,1.2,0.7,1.0*2C
###2023-12-09 13:10:50.983875$GBGSA,A,3,14,24,25,26,33,35,,,,,,,1.2,0.7,1.0*23
###2023-12-09 13:10:50.986212$GPGSV,2,1,07,03,33,257,44,04,36,311,42,16,54,214,46,26,84,210,48*7E
###2023-12-09 13:10:50.988275$GPGSV,2,2,07,28,46,074,45,29,24,057,42,31,67,046,47,,,,*4F
###2023-12-09 13:10:50.990628$GLGSV,2,1,06,65,28,326,41,71,35,174,46,72,72,250,45,73,31,045,45*6B
###2023-12-09 13:10:50.992384$GLGSV,2,2,06,74,67,351,42,75,36,258,45,,,,,,,,*69
