###2023-12-09 12:24:07.715357$GNGGA,172406.90,4138.0393125,N,07032.4360488,W,1,18,0.8,14.186,M,-29.746,M,0.0,*5B
###2023-12-09 12:24:07.917783$GNRMC,172407.10,A,4138.0393112,N,07032.4360502,W,0.06,,091223,,,A*42
###2023-12-09 12:24:07.920918$GNGGA,172407.10,4138.0393112,N,07032.4360502,W,1,18,0.8,14.172,M,-29.746,M,0.0,*5E
###2023-12-09 12:24:07.922783$GPGSA,A,3,03,16,25,26,28,29,32,,,,,,1.3,0.8,1.1*3F
###2023-12-09 12:24:07.924595$GLGSA,A,3,71,72,73,75,,,,,,,,,1.3,0.8,1.1*21
###2023-12-09 12:24:07.926158$GAGSA,A,3,04,21,27,,,,,,,,,,1.3,0.8,1.1*2B
###2023-12-09 12:24:07.927794$GBGSA,A,3,14,25,26,33,,,,,,,,,1.3,0.8,1.1*2C
###2023-12-09 12:24:07.930146$GPGSV,2,1,07,03,39,283,41,16,31,206,44,25,16,045,42,26,61,205,45*7B
###2023-12-09 12:24:07.932285$GPGSV,2,2,07,28,62,049,41,29,24,079,44,32,35,131,46,,,,*4D
###2023-12-09 12:24:07.934674$GLGSV,1,1,04,71,63,167,45,72,61,317,37,73,53,030,48,75,18,237,42*66
###2023-12-09 12:24:07.936955$GAGSV,1,1,03,04,17,310,37,21,73,180,46,27,45,051,46,,,,*51
###2023-12-09 12:24:07.939536$GBGSV,1,1,04,14,60,201,44,25,29,249,41,26,39,055,46,33,64,265,38*6D
###2023-12-09 12:24:07.940722$GNVTG,,T,,M,0.06,N,0.11,K,A*3B
###2023-12-09 12:24:07.942407$GNGST,172407.10,32.000,,,,0.100,0.100,0.230*51
###2023-12-09 12:24:07.943750$GNZDA,172407.10,09,12,2023,00,00*77
###2023-12-09 12:24:07.944429$GNEBP,,,,,,M*13
###2023-12-09 12:24:08.117565$GNGGA,172407.30,4138.0393102,N,07032.4360526,W,1,18,0.8,14.153,M,-29.746,M,0.0,*58
###2023-12-09 12:24:08.317467$GNGGA,172407.50,4138.0393102,N,07032.4360556,W,1,18,0.8,14.131,M,-29.746,M,0.0,*5D
###2023-12-09 12:24:08.516471$GNGGA,172407.70,4138.0393095,N,07032.4360587,W,1,18,0.8,14.110,M,-29.746,M,0.0,*5F
###2023-12-09 12:24:08.713543$GNGGA,172407.90,4138.0393110,N,07032.4360627,W,1,18,0.8,14.096,M,-29.746,M,0.0,*5B
###2023-12-09 12:24:08.924522$GNRMC,172408.10,A,4138.0393096,N,07032.4360650,W,0.04,,091223,,,A*46
###2023-12-09 12:24:08.928077$GNGGA,172408.10,4138.0393096,N,07032.4360650,W,1,18,0.8,14.071,M,-29.746,M,0.0,*5A
###2023-12-09 12:24:08.930300$GPGSA,A,3,03,16,25,26,28,29,32,,,,,,1.3,0.8,1.1*3F
###2023-12-09 12:24:08.932280$GLGSA,A,3,71,72,73,75,,,,,,,,,1.3,0.8,1.1*21
###2023-12-09 12:24:08.934163$GAGSA,A,3,04,21,27,,,,,,,,,,1.3,0.8,1.1*2B
###2023-12-09 12:24:08.936141$GBGSA,A,3,14,25,26,33,,,,,,,,,1.3,0.8,1.1*2C
###2023-12-09 12:24:08.939014$GPGSV,2,1,07,03,39,283,42,16,31,206,43,25,16,045,42,26,61,205,45*7F
###2023-12-09 12:24:08.941512$GPGSV,2,2,07,28,62,049,41,29,24,079,44,32,35,131,45,,,,*4E
###2023-12-09 12:24:08.944377$GLGSV,1,1,04,71,63,167,46,72,61,317,37,73,53,030,48,75,18,237,42*65
###2023-12-09 12:24:08.946911$GAGSV,1,1,03,04,17,310,37,21,73,180,47,27,45,051,46,,,,*50
###2023-12-09 12:24:08.949789$GBGSV,1,1,04,14,60,201,44,25,29,249,41,26,39,055,46,33,64,265,38*6D
###2023-12-09 12:24:08.951233$GNVTG,,T,,M,0.04,N,0.07,K,A*3E
###2023-12-09 12:24:08.953274$GNGST,172408.10,32.000,,,,0.100,0.100,0.230*5E
###2023-12-09 12:24:08.954875$GNZDA,172408.10,09,12,2023,00,00*78
###2023-12-09 12:24:08.955655$GNEBP,,,,,,M*13
###2023-12-09 12:24:09.118102$GNGGA,172408.30,4138.0393093,N,07032.4360684,W,1,18,0.8,14.053,M,-29.746,M,0.0,*54
###2023-12-09 12:24:09.317177$GNGGA,172408.50,4138.0393101,N,07032.4360735,W,1,18,0.8,14.037,M,-29.746,M,0.0,*51
###2023-12-09 12:24:09.516965$GNGGA,172408.70,4138.0393106,N,07032.4360772,W,1,18,0.8,14.019,M,-29.746,M,0.0,*5B
###2023-12-09 12:24:09.716391$GNGGA,172408.90,4138.0393097,N,07032.4360785,W,1,18,0.8,13.999,M,-29.746,M,0.0,*52
###2023-12-09 12:24:09.915321$GNRMC,172409.10,A,4138.0393096,N,07032.4360821,W,0.02,,091223,,,A*49
###2023-12-09 12:24:09.919093$GNGGA,172409.10,4138.0393096,N,07032.4360821,W,1,18,0.8,13.979,M,-29.746,M,0.0,*55
###2023-12-09 12:24:09.921506$GPGSA,A,3,03,16,25,26,28,29,32,,,,,,1.3,0.8,1.1*3F
###2023-12-09 12:24:09.923662$GLGSA,A,3,71,72,73,75,,,,,,,,,1.3,0.8,1.1*21
###2023-12-09 12:24:09.925719$GAGSA,A,3,04,21,27,,,,,,,,,,1.3,0.8,1.1*2B
###2023-12-09 12:24:09.927853$GBGSA,A,3,14,25,26,33,,,,,,,,,1.3,0.8,1.1*2C
###2023-12-09 12:24:09.930935$GPGSV,2,1,07,03,39,283,42,16,31,206,43,25,16,045,42,26,61,205,45*7F
###2023-12-09 12:24:09.933627$GPGSV,2,2,07,28,62,049,41,29,24,079,44,32,35,131,46,,,,*4D
###2023-12-09 12:24:09.936687$GLGSV,1,1,04,71,63,167,46,72,61,317,37,73,53,030,48,75,18,237,42*65
###2023-12-09 12:24:09.939408$GAGSV,1,1,03,04,17,310,37,21,73,180,46,27,45,051,46,,,,*51
###2023-12-09 12:24:09.942452$GBGSV,1,1,04,14,60,201,44,25,29,249,41,26,39,055,46,33,64,265,38*6D
###2023-12-09 12:24:09.944077$GNVTG,,T,,M,0.02,N,0.04,K,A*3B
###2023-12-09 12:24:09.946288$GNGST,172409.10,32.000,,,,0.100,0.100,0.230*5F
###2023-12-09 12:24:09.948192$GNZDA,172409.10,09,12,2023,00,00*79
###2023-12-09 12:24:09.949144$GNEBP,,,,,,M*13
###2023-12-09 12:24:10.114991$GNGGA,172409.30,4138.0393080,N,07032.4360831,W,1,18,0.8,13.964,M,-29.746,M,0.0,*5D
###2023-12-09 12:24:10.315478$GNGGA,172409.50,4138.0393080,N,07032.4360859,W,1,18,0.8,13.945,M,-29.746,M,0.0,*56
###2023-12-09 12:24:10.513592$GNGGA,172409.70,4138.0393075,N,07032.4360880,W,1,18,0.8,13.926,M,-29.746,M,0.0,*5F
###2023-12-09 12:24:10.714167$GNGGA,172409.90,4138.0393075,N,07032.4360896,W,1,18,0.8,13.909,M,-29.746,M,0.0,*5B
###2023-12-09 12:24:10.919155$GNRMC,172410.10,A,4138.0393058,N,07032.4360908,W,0.06,,091223,,,A*4D
###2023-12-09 12:24:10.922697$GNGGA,172410.10,4138.0393058,N,07032.4360908,W,1,18,0.8,13.895,M,-29.746,M,0.0,*56
###2023-12-09 12:24:10.925147$GPGSA,A,3,03,16,25,26,28,29,32,,,,,,1.3,0.8,1.1*3F
###2023-12-09 12:24:10.927142$GLGSA,A,3,71,72,73,75,,,,,,,,,1.3,0.8,1.1*21
###2023-12-09 12:24:10.929024$GAGSA,A,3,04,21,27,,,,,,,,,,1.3,0.8,1.1*2B
###2023-12-09 12:24:10.931167$GBGSA,A,3,14,25,26,33,,,,,,,,,1.3,0.8,1.1*2C
###2023-12-09 12:24:10.934041$GPGSV,2,1,07,03,39,283,42,16,31,206,43,25,16,045,42,26,61,205,45*7F
###2023-12-09 12:24:10.936784$GPGSV,2,2,07,28,62,049,41,29,24,079,45,32,35,131,46,,,,*4C
###2023-12-09 12:24:10.939644$GLGSV,1,1,04,71,63,167,46,72,61,317,37,73,53,030,48,75,18,237,42*65
###2023-12-09 12:24:10.942193$GAGSV,1,1,03,04,17,310,37,21,73,180,46,27,45,051,46,,,,*51
###2023-12-09 12:24:10.945048$GBGSV,1,1,04,14,60,201,46,25,29,249,41,26,39,055,47,33,64,265,39*6F
###2023-12-09 12:24:10.946463$GNVTG,,T,,M,0.06,N,0.11,K,A*3B
###2023-12-09 12:24:10.948578$GNGST,172410.10,32.000,,,,0.100,0.100,0.230*57
###2023-12-09 12:24:10.950426$GNZDA,172410.10,09,12,2023,00,00*71
###2023-12-09 12:24:10.951487$GNEBP,,,,,,M*13
###2023-12-09 12:24:11.115014$GNGGA,172410.30,4138.0393038,N,07032.4360915,W,1,18,0.8,13.876,M,-29.746,M,0.0,*53
###2023-12-09 12:24:11.314499$GNGGA,172410.50,4138.0393023,N,07032.4360934,W,1,18,0.8,13.861,M,-29.746,M,0.0,*5A
###2023-12-09 12:24:11.514262$GNGGA,172410.70,4138.0392999,N,07032.4360953,W,1,18,0.8,13.840,M,-29.746,M,0.0,*53
###2023-12-09 12:24:11.713469$GNGGA,172410.90,4138.0392984,N,07032.4360971,W,1,18,0.8,13.821,M,-29.746,M,0.0,*56
###2023-12-09 12:24:11.914691$GNRMC,172411.10,A,4138.0392961,N,07032.4361000,W,0.02,,091223,,,A*4A
###2023-12-09 12:24:11.917574$GNGGA,172411.10,4138.0392961,N,07032.4361000,W,1,18,0.8,13.799,M,-29.746,M,0.0,*56
###2023-12-09 12:24:11.919404$GPGSA,A,3,03,16,25,26,28,29,32,,,,,,1.3,0.8,1.1*3F
###2023-12-09 12:24:11.921004$GLGSA,A,3,71,72,73,75,,,,,,,,,1.3,0.8,1.1*21
###2023-12-09 12:24:11.922534$GAGSA,A,3,04,21,27,,,,,,,,,,1.3,0.8,1.1*2B
###2023-12-09 12:24:11.924146$GBGSA,A,3,14,25,26,33,,,,,,,,,1.3,0.8,1.1*2C
###2023-12-09 12:24:11.926486$GPGSV,2,1,07,03,39,283,42,16,31,206,43,25,16,045,42,26,61,205,45*7F
###2023-12-09 12:24:11.928556$GPGSV,2,2,07,28,62,049,41,29,24,079,45,32,35,131,46,,,,*4C
###2023-12-09 12:24:11.930910$GLGSV,1,1,04,71,63,167,46,72,61,317,37,73,53,030,47,75,18,237,42*6A
###2023-12-09 12:24:11.932963$GAGSV,1,1,03,04,17,310,37,21,73,180,46,27,45,051,46,,,,*51
###2023-12-09 12:24:11.935313$GBGSV,1,1,04,14,60,201,45,25,29,249,41,26,39,055,47,33,64,265,38*6D
###2023-12-09 12:24:11.936462$GNVTG,,T,,M,0.02,N,0.04,K,A*3B
###2023-12-09 12:24:11.938121$GNGST,172411.10,32.000,,,,0.100,0.100,0.230*56
###2023-12-09 12:24:11.939445$GNZDA,172411.10,09,12,2023,00,00*70
###2023-12-09 12:24:11.940102$GNEBP,,,,,,M*13
###2023-12-09 12:24:12.114411$GNGGA,172411.30,4138.0392937,N,07032.4361014,W,1,18,0.8,13.781,M,-29.746,M,0.0,*5B
###2023-12-09 12:24:12.314603$GNGGA,172411.50,4138.0392913,N,07032.4361021,W,1,18,0.8,13.759,M,-29.746,M,0.0,*58
###2023-12-09 12:24:12.514695$GNGGA,172411.70,4138.0392886,N,07032.4361041,W,1,18,0.8,13.744,M,-29.746,M,0.0,*5D
###2023-12-09 12:24:12.713522$GNGGA,172411.90,4138.0392862,N,07032.4361058,W,1,18,0.8,13.722,M,-29.746,M,0.0,*51
###2023-12-09 12:24:12.917851$GNRMC,172412.10,A,4138.0392838,N,07032.4361079,W,0.04,,091223,,,A*4C
###2023-12-09 12:24:12.920935$GNGGA,172412.10,4138.0392838,N,07032.4361079,W,1,18,0.8,13.699,M,-29.746,M,0.0,*57
###2023-12-09 12:24:12.922942$GPGSA,A,3,03,16,25,26,28,29,32,,,,,,1.3,0.8,1.1*3F
###2023-12-09 12:24:12.924706$GLGSA,A,3,71,72,73,75,,,,,,,,,1.3,0.8,1.1*21
