###2023-12-09 13:28:52.013397$GLGSV,2,2,06,74,61,010,43,75,42,268,45,,,,,,,,*68
###2023-12-09 13:28:52.015760$GAGSV,1,1,04,04,38,311,43,19,74,183,42,21,79,049,45,27,24,049,39*65
###2023-12-09 13:28:52.018098$GBGSV,2,1,06,14,31,190,45,24,64,043,48,25,49,274,47,26,17,069,41*6F
###2023-12-09 13:28:52.019865$GBGSV,2,2,06,33,48,219,49,35,16,058,42,,,,,,,,*6C
###2023-12-09 13:28:52.021158$GNVTG,25.74,T,,M,0.37,N,0.68,K,A*1D
###2023-12-09 13:28:52.022859$GNGST,182851.10,18.000,,,,0.100,0.072,0.170*5A
###2023-12-09 13:28:52.024155$GNZDA,182851.10,09,12,2023,00,00*77
###2023-12-09 13:28:52.024792$GNEBP,,,,,,M*13
###2023-12-09 13:28:52.190781$GNGGA,182851.30,4138.0455546,N,07032.4156985,W,1,24,0.6,13.515,M,-29.745,M,0.0,*50
###2023-12-09 13:28:52.389973$GNGGA,182851.50,4138.0455798,N,07032.4157042,W,1,24,0.6,13.519,M,-29.745,M,0.0,*58
###2023-12-09 13:28:52.590391$GNGGA,182851.70,4138.0455721,N,07032.4156835,W,1,24,0.6,13.516,M,-29.745,M,0.0,*5E
###2023-12-09 13:28:52.790958$GNGGA,182851.90,4138.0455580,N,07032.4156646,W,1,24,0.6,13.500,M,-29.745,M,0.0,*54
###2023-12-09 13:28:52.999119$GNRMC,182852.10,A,4138.0455798,N,07032.4156719,W,0.82,25.74,091223,,,A*61
###2023-12-09 13:28:53.001988$GNGGA,182852.10,4138.0455798,N,07032.4156719,W,1,24,0.6,13.498,M,-29.745,M,0.0,*5F
###2023-12-09 13:28:53.003798$GPGSA,A,3,03,04,16,26,28,29,31,,,,,,1.1,0.6,0.9*3A
###2023-12-09 13:28:53.005515$GLGSA,A,3,65,71,72,73,74,75,,,,,,,1.1,0.6,0.9*24
###2023-12-09 13:28:53.007113$GAGSA,A,3,04,19,21,27,,,,,,,,,1.1,0.6,0.9*26
###2023-12-09 13:28:53.008830$GBGSA,A,3,14,24,25,26,33,35,,,,,,,1.1,0.6,0.9*29
###2023-12-09 13:28:53.011168$GPGSV,2,1,07,03,28,249,41,04,43,309,45,16,63,220,48,26,87,041,48*7A
###2023-12-09 13:28:53.013210$GPGSV,2,2,07,28,40,082,43,29,22,049,39,31,61,061,47,,,,*40
###2023-12-09 13:28:53.015548$GLGSV,2,1,06,65,36,321,43,71,25,175,45,72,65,225,48,73,24,050,40*6E
###2023-12-09 13:28:53.017297$GLGSV,2,2,06,74,61,010,41,75,42,268,46,,,,,,,,*69
###2023-12-09 13:28:53.019631$GAGSV,1,1,04,04,38,311,44,19,74,183,41,21,79,049,45,27,24,049,39*61
###2023-12-09 13:28:53.021959$GBGSV,2,1,06,14,31,190,45,24,64,043,48,25,49,274,47,26,17,069,42*6C
###2023-12-09 13:28:53.023716$GBGSV,2,2,06,33,48,219,48,35,16,058,41,,,,,,,,*6E
###2023-12-09 13:28:53.025005$GNVTG,25.74,T,,M,0.82,N,1.51,K,A*18
###2023-12-09 13:28:53.026659$GNGST,182852.10,18.000,,,,0.100,0.071,0.170*5A
###2023-12-09 13:28:53.027958$GNZDA,182852.10,09,12,2023,00,00*74
###2023-12-09 13:28:53.028597$GNEBP,,,,,,M*13
###2023-12-09 13:28:53.190117$GNGGA,182852.30,4138.0456197,N,07032.4156933,W,1,24,0.6,13.500,M,-29.745,M,0.0,*51
###2023-12-09 13:28:53.389965$GNGGA,182852.50,4138.0456283,N,07032.4156911,W,1,24,0.6,13.499,M,-29.745,M,0.0,*50
###2023-12-09 13:28:53.592453$GNGGA,182852.70,4138.0456096,N,07032.4156619,W,1,24,0.6,13.495,M,-29.745,M,0.0,*5F
###2023-12-09 13:28:53.790934$GNGGA,182852.90,4138.0456087,N,07032.4156518,W,1,24,0.6,13.476,M,-29.745,M,0.0,*5E
###2023-12-09 13:28:53.994729$GNRMC,182853.10,A,4138.0456430,N,07032.4156703,W,0.93,25.74,091223,,,A*69
###2023-12-09 13:28:53.997592$GNGGA,182853.10,4138.0456430,N,07032.4156703,W,1,24,0.6,13.469,M,-29.745,M,0.0,*59
###2023-12-09 13:28:53.999396$GPGSA,A,3,03,04,16,26,28,29,31,,,,,,1.1,0.6,0.9*3A
###2023-12-09 13:28:54.001108$GLGSA,A,3,65,71,72,73,74,75,,,,,,,1.1,0.6,0.9*24
###2023-12-09 13:28:54.002695$GAGSA,A,3,04,19,21,27,,,,,,,,,1.1,0.6,0.9*26
###2023-12-09 13:28:54.004406$GBGSA,A,3,14,24,25,26,33,35,,,,,,,1.1,0.6,0.9*29
###2023-12-09 13:28:54.006738$GPGSV,2,1,07,03,28,249,42,04,43,309,46,16,63,220,50,26,87,041,50*7A
###2023-12-09 13:28:54.008781$GPGSV,2,2,07,28,40,082,43,29,22,049,39,31,61,061,46,,,,*41
###2023-12-09 13:28:54.011109$GLGSV,2,1,06,65,36,321,44,71,25,175,44,72,65,225,47,73,24,050,41*66
###2023-12-09 13:28:54.012854$GLGSV,2,2,06,74,61,010,43,75,42,268,47,,,,,,,,*6A
###2023-12-09 13:28:54.015183$GAGSV,1,1,04,04,38,311,45,19,74,183,42,21,79,049,47,27,24,049,40*6F
###2023-12-09 13:28:54.017502$GBGSV,2,1,06,14,31,190,44,24,64,043,48,25,49,274,47,26,17,069,42*6D
###2023-12-09 13:28:54.019252$GBGSV,2,2,06,33,48,219,47,35,16,058,41,,,,,,,,*61
###2023-12-09 13:28:54.020542$GNVTG,25.74,T,,M,0.93,N,1.73,K,A*18
###2023-12-09 13:28:54.022188$GNGST,182853.10,18.000,,,,0.100,0.071,0.170*5B
###2023-12-09 13:28:54.023493$GNZDA,182853.10,09,12,2023,00,00*75
###2023-12-09 13:28:54.024129$GNEBP,,,,,,M*13
###2023-12-09 13:28:54.190654$GNGGA,182853.30,4138.0456797,N,07032.4156976,W,1,24,0.6,13.466,M,-29.745,M,0.0,*56
###2023-12-09 13:28:54.387909$GNGGA,182853.50,4138.0456779,N,07032.4156848,W,1,24,0.6,13.479,M,-29.745,M,0.0,*52
###2023-12-09 13:28:54.587095$GNGGA,182853.70,4138.0456579,N,07032.4156533,W,1,24,0.6,13.465,M,-29.745,M,0.0,*5E
###2023-12-09 13:28:54.788848$GNGGA,182853.90,4138.0456692,N,07032.4156523,W,1,24,0.6,13.442,M,-29.745,M,0.0,*52
###2023-12-09 13:28:54.994238$GNRMC,182854.10,A,4138.0457118,N,07032.4156861,W,0.97,25.74,091223,,,A*6F
###2023-12-09 13:28:54.997109$GNGGA,182854.10,4138.0457118,N,07032.4156861,W,1,24,0.6,13.436,M,-29.745,M,0.0,*51
###2023-12-09 13:28:54.998914$GPGSA,A,3,03,04,16,26,28,29,31,,,,,,1.1,0.6,0.9*3A
###2023-12-09 13:28:55.000620$GLGSA,A,3,65,71,72,73,74,75,,,,,,,1.1,0.6,0.9*24
###2023-12-09 13:28:55.002204$GAGSA,A,3,04,19,21,27,,,,,,,,,1.1,0.6,0.9*26
###2023-12-09 13:28:55.003927$GBGSA,A,3,14,24,25,26,33,35,,,,,,,1.1,0.6,0.9*29
###2023-12-09 13:28:55.006258$GPGSV,2,1,07,03,28,249,43,04,43,309,47,16,63,220,48,26,87,041,49*7B
###2023-12-09 13:28:55.008312$GPGSV,2,2,07,28,40,082,44,29,22,049,41,31,61,061,46,,,,*49
###2023-12-09 13:28:55.010660$GLGSV,2,1,06,65,36,321,44,71,25,175,42,72,65,225,47,73,24,050,41*60
###2023-12-09 13:28:55.012407$GLGSV,2,2,06,74,61,010,43,75,42,268,47,,,,,,,,*6A
###2023-12-09 13:28:55.014738$GAGSV,1,1,04,04,38,311,44,19,74,183,42,21,79,049,47,27,24,049,39*60
###2023-12-09 13:28:55.017067$GBGSV,2,1,06,14,31,190,42,24,64,043,48,25,49,274,47,26,17,069,42*6B
###2023-12-09 13:28:55.018822$GBGSV,2,2,06,33,48,219,48,35,16,058,41,,,,,,,,*6E
###2023-12-09 13:28:55.020115$GNVTG,25.74,T,,M,0.97,N,1.80,K,A*10
###2023-12-09 13:28:55.021760$GNGST,182854.10,18.000,,,,0.100,0.070,0.160*5C
###2023-12-09 13:28:55.023085$GNZDA,182854.10,09,12,2023,00,00*72
###2023-12-09 13:28:55.023727$GNEBP,,,,,,M*13
###2023-12-09 13:28:55.193926$GNGGA,182854.30,4138.0457383,N,07032.4157068,W,1,24,0.6,13.425,M,-29.745,M,0.0,*51
###2023-12-09 13:28:55.389935$GNGGA,182854.50,4138.0457321,N,07032.4156871,W,1,24,0.6,13.450,M,-29.745,M,0.0,*5C
###2023-12-09 13:28:55.594739$GNGGA,182854.70,4138.0457232,N,07032.4156608,W,1,24,0.6,13.440,M,-29.745,M,0.0,*5C
###2023-12-09 13:28:55.790751$GNGGA,182854.90,4138.0457406,N,07032.4156677,W,1,24,0.6,13.417,M,-29.745,M,0.0,*59
###2023-12-09 13:28:55.994590$GNRMC,182855.10,A,4138.0457826,N,07032.4157002,W,0.87,25.74,091223,,,A*67
###2023-12-09 13:28:55.997458$GNGGA,182855.10,4138.0457826,N,07032.4157002,W,1,24,0.6,13.405,M,-29.745,M,0.0,*58
###2023-12-09 13:28:55.999261$GPGSA,A,3,03,04,16,26,28,29,31,,,,,,1.1,0.6,0.9*3A
###2023-12-09 13:28:56.000982$GLGSA,A,3,65,71,72,73,74,75,,,,,,,1.1,0.6,0.9*24
###2023-12-09 13:28:56.002576$GAGSA,A,3,04,19,21,27,,,,,,,,,1.1,0.6,0.9*26
###2023-12-09 13:28:56.004292$GBGSA,A,3,14,24,25,26,33,35,,,,,,,1.1,0.6,0.9*29
###2023-12-09 13:28:56.006627$GPGSV,2,1,07,03,28,249,44,04,43,309,46,16,63,220,48,26,87,041,49*7D
###2023-12-09 13:28:56.008658$GPGSV,2,2,07,28,40,082,44,29,22,049,41,31,61,061,46,,,,*49
###2023-12-09 13:28:56.010985$GLGSV,2,1,06,65,36,321,44,71,25,175,42,72,65,225,47,73,24,050,41*60
###2023-12-09 13:28:56.012727$GLGSV,2,2,06,74,61,010,43,75,42,268,47,,,,,,,,*6A
###2023-12-09 13:28:56.015057$GAGSV,1,1,04,04,38,311,43,19,74,183,41,21,79,049,46,27,24,049,39*65
###2023-12-09 13:28:56.017377$GBGSV,2,1,06,14,31,190,42,24,64,043,48,25,49,274,48,26,17,069,43*65
###2023-12-09 13:28:56.019124$GBGSV,2,2,06,33,48,219,47,35,16,058,41,,,,,,,,*61
###2023-12-09 13:28:56.020407$GNVTG,25.74,T,,M,0.87,N,1.62,K,A*1D
###2023-12-09 13:28:56.022043$GNGST,182855.10,18.000,,,,0.100,0.070,0.160*5D
###2023-12-09 13:28:56.023340$GNZDA,182855.10,09,12,2023,00,00*73
###2023-12-09 13:28:56.023978$GNEBP,,,,,,M*13
###2023-12-09 13:28:56.190627$GNGGA,182855.30,4138.0458052,N,07032.4157142,W,1,24,0.6,13.399,M,-29.745,M,0.0,*59
###2023-12-09 13:28:56.390686$GNGGA,182855.50,4138.0458028,N,07032.4156931,W,1,24,0.6,13.421,M,-29.745,M,0.0,*5B
###2023-12-09 13:28:56.592485$GNGGA,182855.70,4138.0458030,N,07032.4156767,W,1,24,0.6,13.417,M,-29.745,M,0.0,*58
###2023-12-09 13:28:56.791949$GNGGA,182855.90,4138.0458262,N,07032.4156889,W,1,24,0.6,13.398,M,-29.745,M,0.0,*5C
###2023-12-09 13:28:57.002756$GNRMC,182856.10,A,4138.0458603,N,07032.4157144,W,0.58,25.74,091223,,,A*63
###2023-12-09 13:28:57.005609$GNGGA,182856.10,4138.0458603,N,07032.4157144,W,1,24,0.6,13.377,M,-29.745,M,0.0,*5C
###2023-12-09 13:28:57.007411$GPGSA,A,3,03,04,16,26,28,29,31,,,,,,1.1,0.6,0.9*3A
###2023-12-09 13:28:57.009123$GLGSA,A,3,65,71,72,73,74,75,,,,,,,1.1,0.6,0.9*24
