###2023-12-09 12:35:22.535008$GNGGA,173521.70,4138.0490316,N,07032.4244681,W,1,23,0.7,13.335,M,-29.745,M,0.0,*53
###2023-12-09 12:35:22.733949$GNGGA,173521.90,4138.0490567,N,07032.4245279,W,1,23,0.7,13.338,M,-29.745,M,0.0,*52
###2023-12-09 12:35:22.937188$GNRMC,173522.10,A,4138.0490638,N,07032.4245492,W,0.29,299.82,091223,,,A*5B
###2023-12-09 12:35:22.940069$GNGGA,173522.10,4138.0490638,N,07032.4245492,W,1,23,0.7,13.328,M,-29.745,M,0.0,*52
###2023-12-09 12:35:22.941924$GPGSA,A,3,03,04,16,26,28,29,31,32,,,,,1.2,0.7,1.0*31
###2023-12-09 12:35:22.943583$GLGSA,A,3,71,72,73,74,75,,,,,,,,1.2,0.7,1.0*2D
###2023-12-09 12:35:22.945162$GAGSA,A,3,04,19,21,27,,,,,,,,,1.2,0.7,1.0*2C
###2023-12-09 12:35:22.946837$GBGSA,A,3,14,24,25,26,33,,,,,,,,1.2,0.7,1.0*25
###2023-12-09 12:35:22.949201$GPGSV,2,1,08,03,39,277,47,04,22,311,42,16,37,207,45,26,66,206,48*70
###2023-12-09 12:35:22.951564$GPGSV,2,2,08,28,58,056,43,29,25,074,39,31,73,001,47,32,30,134,43*70
###2023-12-09 12:35:22.953891$GLGSV,2,1,05,71,57,169,47,72,65,310,47,73,48,033,46,74,71,290,43*6E
###2023-12-09 12:35:22.955356$GLGSV,2,2,05,75,22,241,45,,,,,,,,,,,,*54
###2023-12-09 12:35:22.957692$GAGSV,1,1,04,04,21,311,45,19,81,302,40,21,78,176,46,27,41,049,41*6B
###2023-12-09 12:35:22.960042$GBGSV,2,1,05,14,55,197,45,24,80,347,49,25,33,253,45,26,35,057,44*67
###2023-12-09 12:35:22.961500$GBGSV,2,2,05,33,63,253,49,,,,,,,,,,,,*52
###2023-12-09 12:35:22.962843$GNVTG,299.82,T,,M,0.29,N,0.54,K,A*21
###2023-12-09 12:35:22.964498$GNGST,173522.10,18.000,,,,0.080,0.071,0.160*56
###2023-12-09 12:35:22.965786$GNZDA,173522.10,09,12,2023,00,00*70
###2023-12-09 12:35:22.966428$GNEBP,,,,,,M*13
###2023-12-09 12:35:23.136220$GNGGA,173522.30,4138.0490498,N,07032.4245192,W,1,23,0.7,13.349,M,-29.745,M,0.0,*5A
###2023-12-09 12:35:23.335592$GNGGA,173522.50,4138.0490428,N,07032.4245086,W,1,23,0.7,13.360,M,-29.745,M,0.0,*58
###2023-12-09 12:35:23.535505$GNGGA,173522.70,4138.0490601,N,07032.4245533,W,1,23,0.7,13.370,M,-29.745,M,0.0,*59
###2023-12-09 12:35:23.733781$GNGGA,173522.90,4138.0490779,N,07032.4245929,W,1,23,0.7,13.353,M,-29.745,M,0.0,*5F
###2023-12-09 12:35:23.935366$GNRMC,173523.10,A,4138.0490733,N,07032.4245839,W,0.39,299.82,091223,,,A*5C
###2023-12-09 12:35:23.938204$GNGGA,173523.10,4138.0490733,N,07032.4245839,W,1,23,0.7,13.353,M,-29.745,M,0.0,*58
###2023-12-09 12:35:23.940062$GPGSA,A,3,03,04,16,26,28,29,31,32,,,,,1.2,0.7,1.0*31
###2023-12-09 12:35:23.941702$GLGSA,A,3,71,72,73,74,75,,,,,,,,1.2,0.7,1.0*2D
###2023-12-09 12:35:23.943322$GAGSA,A,3,04,19,21,27,,,,,,,,,1.2,0.7,1.0*2C
###2023-12-09 12:35:23.944965$GBGSA,A,3,14,24,25,26,33,,,,,,,,1.2,0.7,1.0*25
###2023-12-09 12:35:23.947309$GPGSV,2,1,08,03,39,277,46,04,22,311,42,16,37,207,45,26,66,206,47*7E
###2023-12-09 12:35:23.949640$GPGSV,2,2,08,28,58,056,43,29,25,074,39,31,73,001,47,32,30,134,43*70
###2023-12-09 12:35:23.951981$GLGSV,2,1,05,71,57,169,48,72,65,310,47,73,48,033,45,74,71,290,43*62
###2023-12-09 12:35:23.953427$GLGSV,2,2,05,75,22,241,46,,,,,,,,,,,,*57
###2023-12-09 12:35:23.955752$GAGSV,1,1,04,04,21,311,45,19,81,302,40,21,78,176,46,27,41,049,41*6B
###2023-12-09 12:35:23.958067$GBGSV,2,1,05,14,55,197,45,24,80,347,48,25,33,253,44,26,35,057,44*67
###2023-12-09 12:35:23.959527$GBGSV,2,2,05,33,63,253,48,,,,,,,,,,,,*53
###2023-12-09 12:35:23.960846$GNVTG,299.82,T,,M,0.39,N,0.72,K,A*24
###2023-12-09 12:35:23.962485$GNGST,173523.10,18.000,,,,0.080,0.071,0.160*57
###2023-12-09 12:35:23.963787$GNZDA,173523.10,09,12,2023,00,00*71
###2023-12-09 12:35:23.964425$GNEBP,,,,,,M*13
###2023-12-09 12:35:24.136177$GNGGA,173523.30,4138.0490614,N,07032.4245671,W,1,23,0.7,13.368,M,-29.745,M,0.0,*54
###2023-12-09 12:35:24.336713$GNGGA,173523.50,4138.0490695,N,07032.4245877,W,1,23,0.7,13.384,M,-29.745,M,0.0,*51
###2023-12-09 12:35:24.534900$GNGGA,173523.70,4138.0490858,N,07032.4246256,W,1,23,0.7,13.380,M,-29.745,M,0.0,*52
###2023-12-09 12:35:24.733870$GNGGA,173523.90,4138.0490880,N,07032.4246355,W,1,23,0.7,13.375,M,-29.745,M,0.0,*51
###2023-12-09 12:35:24.935587$GNRMC,173524.10,A,4138.0490794,N,07032.4246228,W,0.27,299.82,091223,,,A*50
###2023-12-09 12:35:24.938435$GNGGA,173524.10,4138.0490794,N,07032.4246228,W,1,23,0.7,13.376,M,-29.745,M,0.0,*5C
###2023-12-09 12:35:24.940306$GPGSA,A,3,03,04,16,26,28,29,31,32,,,,,1.2,0.7,1.0*31
###2023-12-09 12:35:24.941962$GLGSA,A,3,71,72,73,74,75,,,,,,,,1.2,0.7,1.0*2D
###2023-12-09 12:35:24.943565$GAGSA,A,3,04,19,21,27,,,,,,,,,1.2,0.7,1.0*2C
###2023-12-09 12:35:24.945225$GBGSA,A,3,14,24,25,26,33,,,,,,,,1.2,0.7,1.0*25
###2023-12-09 12:35:24.947609$GPGSV,2,1,08,03,39,277,45,04,22,311,41,16,37,207,45,26,66,206,47*7E
###2023-12-09 12:35:24.949971$GPGSV,2,2,08,28,58,056,44,29,25,074,39,31,73,001,47,32,30,134,44*70
###2023-12-09 12:35:24.952330$GLGSV,2,1,05,71,57,169,48,72,65,310,47,73,48,033,44,74,71,290,43*63
###2023-12-09 12:35:24.953792$GLGSV,2,2,05,75,22,241,46,,,,,,,,,,,,*57
###2023-12-09 12:35:24.956140$GAGSV,1,1,04,04,21,311,44,19,81,302,40,21,78,176,46,27,41,049,41*6A
###2023-12-09 12:35:24.958483$GBGSV,2,1,05,14,55,197,44,24,80,347,47,25,33,253,43,26,35,057,44*6E
###2023-12-09 12:35:24.959964$GBGSV,2,2,05,33,63,253,48,,,,,,,,,,,,*53
###2023-12-09 12:35:24.961292$GNVTG,299.82,T,,M,0.27,N,0.50,K,A*2B
###2023-12-09 12:35:24.962958$GNGST,173524.10,18.000,,,,0.080,0.072,0.160*53
###2023-12-09 12:35:24.964257$GNZDA,173524.10,09,12,2023,00,00*76
###2023-12-09 12:35:24.964899$GNEBP,,,,,,M*13
###2023-12-09 12:35:25.135529$GNGGA,173524.30,4138.0490776,N,07032.4246261,W,1,23,0.7,13.387,M,-29.745,M,0.0,*51
###2023-12-09 12:35:25.335716$GNGGA,173524.50,4138.0490943,N,07032.4246634,W,1,23,0.7,13.398,M,-29.745,M,0.0,*55
###2023-12-09 12:35:25.534254$GNGGA,173524.70,4138.0491022,N,07032.4246854,W,1,23,0.7,13.396,M,-29.745,M,0.0,*5E
###2023-12-09 12:35:25.733881$GNGGA,173524.90,4138.0490929,N,07032.4246730,W,1,23,0.7,13.396,M,-29.745,M,0.0,*5E
###2023-12-09 12:35:25.939111$GNRMC,173525.10,A,4138.0490893,N,07032.4246697,W,0.27,299.82,091223,,,A*59
###2023-12-09 12:35:25.941959$GNGGA,173525.10,4138.0490893,N,07032.4246697,W,1,23,0.7,13.390,M,-29.745,M,0.0,*5D
###2023-12-09 12:35:25.943816$GPGSA,A,3,03,04,16,26,28,29,31,32,,,,,1.2,0.7,1.0*31
###2023-12-09 12:35:25.945452$GLGSA,A,3,71,72,73,74,75,,,,,,,,1.2,0.7,1.0*2D
###2023-12-09 12:35:25.947056$GAGSA,A,3,04,19,21,27,,,,,,,,,1.2,0.7,1.0*2C
###2023-12-09 12:35:25.948715$GBGSA,A,3,14,24,25,26,33,,,,,,,,1.2,0.7,1.0*25
###2023-12-09 12:35:25.951054$GPGSV,2,1,08,03,39,277,44,04,22,311,40,16,37,207,46,26,66,206,48*72
###2023-12-09 12:35:25.953382$GPGSV,2,2,08,28,58,056,44,29,25,074,40,31,73,001,46,32,30,134,47*7C
###2023-12-09 12:35:25.955720$GLGSV,2,1,05,71,57,169,48,72,65,310,46,73,48,033,46,74,71,290,43*60
###2023-12-09 12:35:25.957172$GLGSV,2,2,05,75,22,241,45,,,,,,,,,,,,*54
###2023-12-09 12:35:25.959508$GAGSV,1,1,04,04,21,311,43,19,81,302,40,21,78,176,46,27,41,049,41*6D
###2023-12-09 12:35:25.961832$GBGSV,2,1,05,14,55,197,44,24,80,347,48,25,33,253,43,26,35,057,45*60
###2023-12-09 12:35:25.963297$GBGSV,2,2,05,33,63,253,48,,,,,,,,,,,,*53
###2023-12-09 12:35:25.964613$GNVTG,299.82,T,,M,0.27,N,0.50,K,A*2B
###2023-12-09 12:35:25.966254$GNGST,173525.10,19.000,,,,0.080,0.072,0.160*53
###2023-12-09 12:35:25.967554$GNZDA,173525.10,09,12,2023,00,00*77
###2023-12-09 12:35:25.968192$GNEBP,,,,,,M*13
###2023-12-09 12:35:26.134633$GNGGA,173525.30,4138.0491033,N,07032.4247016,W,1,23,0.7,13.398,M,-29.745,M,0.0,*5A
###2023-12-09 12:35:26.335526$GNGGA,173525.50,4138.0491140,N,07032.4247322,W,1,23,0.7,13.396,M,-29.745,M,0.0,*53
###2023-12-09 12:35:26.535529$GNGGA,173525.70,4138.0491104,N,07032.4247288,W,1,23,0.7,13.396,M,-29.745,M,0.0,*50
###2023-12-09 12:35:26.738831$GNGGA,173525.90,4138.0491037,N,07032.4247181,W,1,23,0.7,13.402,M,-29.745,M,0.0,*5F
###2023-12-09 12:35:26.936444$GNRMC,173526.10,A,4138.0491096,N,07032.4247326,W,0.41,299.82,091223,,,A*58
###2023-12-09 12:35:26.939309$GNGGA,173526.10,4138.0491096,N,07032.4247326,W,1,23,0.7,13.409,M,-29.745,M,0.0,*5B
###2023-12-09 12:35:26.941159$GPGSA,A,3,03,04,16,26,28,29,31,32,,,,,1.2,0.7,1.0*31
###2023-12-09 12:35:26.942814$GLGSA,A,3,71,72,73,74,75,,,,,,,,1.2,0.7,1.0*2D
###2023-12-09 12:35:26.944389$GAGSA,A,3,04,19,21,27,,,,,,,,,1.2,0.7,1.0*2C
###2023-12-09 12:35:26.946289$GBGSA,A,3,14,24,25,26,33,,,,,,,,1.2,0.7,1.0*25
###2023-12-09 12:35:26.948690$GPGSV,2,1,08,03,39,277,45,04,22,311,39,16,37,207,45,26,66,206,48*7E
###2023-12-09 12:35:26.951065$GPGSV,2,2,08,28,58,056,44,29,25,074,40,31,73,001,46,32,30,134,45*7E
###2023-12-09 12:35:26.953390$GLGSV,2,1,05,71,57,169,48,72,65,310,46,73,48,033,46,74,71,290,43*60
###2023-12-09 12:35:26.954859$GLGSV,2,2,05,75,22,241,44,,,,,,,,,,,,*55
###2023-12-09 12:35:26.957184$GAGSV,1,1,04,04,21,311,42,19,81,302,41,21,78,176,46,27,41,049,41*6D
###2023-12-09 12:35:26.959529$GBGSV,2,1,05,14,55,197,44,24,80,347,48,25,33,253,44,26,35,057,44*66
###2023-12-09 12:35:26.960982$GBGSV,2,2,05,33,63,253,48,,,,,,,,,,,,*53
###2023-12-09 12:35:26.962300$GNVTG,299.82,T,,M,0.41,N,0.76,K,A*2F
