###2023-12-09 13:03:09.000682$GBGSV,2,2,05,33,57,231,48,,,,,,,,,,,,*50
###2023-12-09 13:03:09.002047$GNVTG,274.20,T,,M,3.25,N,6.01,K,A*23
###2023-12-09 13:03:09.003727$GNGST,180308.10,18.000,,,,0.082,0.070,0.160*57
###2023-12-09 13:03:09.005030$GNZDA,180308.10,09,12,2023,00,00*72
###2023-12-09 13:03:09.005675$GNEBP,,,,,,M*13
###2023-12-09 13:03:09.166865$GNGGA,180308.30,4138.0473618,N,07032.3753676,W,1,24,0.6,13.482,M,-29.744,M,0.0,*50
###2023-12-09 13:03:09.366266$GNGGA,180308.50,4138.0473814,N,07032.3756188,W,1,24,0.6,13.482,M,-29.744,M,0.0,*57
###2023-12-09 13:03:09.565565$GNGGA,180308.70,4138.0474075,N,07032.3758753,W,1,24,0.6,13.490,M,-29.744,M,0.0,*50
###2023-12-09 13:03:09.765595$GNGGA,180308.90,4138.0474294,N,07032.3761366,W,1,24,0.6,13.495,M,-29.744,M,0.0,*5E
###2023-12-09 13:03:09.969458$GNRMC,180309.10,A,4138.0474357,N,07032.3764005,W,3.62,270.72,091223,,,A*51
###2023-12-09 13:03:09.972926$GNGGA,180309.10,4138.0474357,N,07032.3764005,W,1,24,0.6,13.497,M,-29.744,M,0.0,*58
###2023-12-09 13:03:09.975190$GPGSA,A,3,03,04,16,26,28,29,31,32,,,,,1.1,0.6,0.9*3B
###2023-12-09 13:03:09.977259$GLGSA,A,3,65,71,72,73,74,75,,,,,,,1.1,0.6,0.9*24
###2023-12-09 13:03:09.979192$GAGSA,A,3,04,19,21,27,,,,,,,,,1.1,0.6,0.9*26
###2023-12-09 13:03:09.981181$GBGSA,A,3,14,24,25,26,33,,,,,,,,1.1,0.6,0.9*2F
###2023-12-09 13:03:09.983999$GPGSV,2,1,08,03,34,260,43,04,33,311,41,16,50,212,46,26,80,210,48*75
###2023-12-09 13:03:09.986835$GPGSV,2,2,08,28,49,070,46,29,25,061,42,31,69,038,47,32,19,140,44*77
###2023-12-09 13:03:09.989683$GLGSV,2,1,06,65,25,327,41,71,40,173,45,72,73,265,45,73,35,042,44*64
###2023-12-09 13:03:09.991802$GLGSV,2,2,06,74,69,340,42,75,33,254,43,,,,,,,,*68
###2023-12-09 13:03:09.994634$GAGSV,1,1,04,04,29,312,39,19,84,213,40,21,86,114,46,27,32,048,41*6F
###2023-12-09 13:03:09.997443$GBGSV,2,1,05,14,43,193,44,24,73,026,49,25,41,263,44,26,26,063,43*68
###2023-12-09 13:03:09.999224$GBGSV,2,2,05,33,57,231,48,,,,,,,,,,,,*50
###2023-12-09 13:03:10.000822$GNVTG,270.72,T,,M,3.62,N,6.70,K,A*25
###2023-12-09 13:03:10.002824$GNGST,180309.10,18.000,,,,0.082,0.070,0.160*56
###2023-12-09 13:03:10.004389$GNZDA,180309.10,09,12,2023,00,00*73
###2023-12-09 13:03:10.005159$GNEBP,,,,,,M*13
###2023-12-09 13:03:10.162997$GNGGA,180309.30,4138.0474392,N,07032.3766643,W,1,24,0.6,13.493,M,-29.744,M,0.0,*51
###2023-12-09 13:03:10.364058$GNGGA,180309.50,4138.0474488,N,07032.3769290,W,1,24,0.6,13.497,M,-29.744,M,0.0,*5A
###2023-12-09 13:03:10.563271$GNGGA,180309.70,4138.0474540,N,07032.3771914,W,1,24,0.6,13.499,M,-29.744,M,0.0,*5D
###2023-12-09 13:03:10.764108$GNGGA,180309.90,4138.0474449,N,07032.3774509,W,1,24,0.6,13.492,M,-29.744,M,0.0,*55
###2023-12-09 13:03:10.966151$GNRMC,180310.10,A,4138.0474283,N,07032.3777059,W,3.48,265.67,091223,,,A*52
###2023-12-09 13:03:10.969632$GNGGA,180310.10,4138.0474283,N,07032.3777059,W,1,24,0.6,13.496,M,-29.744,M,0.0,*52
###2023-12-09 13:03:10.971877$GPGSA,A,3,03,04,16,26,28,29,31,32,,,,,1.1,0.6,0.9*3B
###2023-12-09 13:03:10.973949$GLGSA,A,3,65,71,72,73,74,75,,,,,,,1.1,0.6,0.9*24
###2023-12-09 13:03:10.975871$GAGSA,A,3,04,19,21,27,,,,,,,,,1.1,0.6,0.9*26
###2023-12-09 13:03:10.977861$GBGSA,A,3,14,24,25,26,33,,,,,,,,1.1,0.6,0.9*2F
###2023-12-09 13:03:10.980731$GPGSV,2,1,08,03,34,260,43,04,33,311,42,16,50,212,46,26,80,210,48*76
###2023-12-09 13:03:10.983557$GPGSV,2,2,08,28,49,070,46,29,25,061,42,31,69,038,47,32,19,140,44*77
###2023-12-09 13:03:10.986361$GLGSV,2,1,06,65,25,327,41,71,40,173,46,72,73,265,45,73,35,042,45*66
###2023-12-09 13:03:10.988472$GLGSV,2,2,06,74,69,340,42,75,33,254,43,,,,,,,,*68
###2023-12-09 13:03:10.991296$GAGSV,1,1,04,04,29,312,39,19,84,213,40,21,86,114,46,27,32,048,41*6F
###2023-12-09 13:03:10.994093$GBGSV,2,1,05,14,43,193,43,24,73,026,48,25,41,263,44,26,26,063,42*6F
###2023-12-09 13:03:10.995861$GBGSV,2,2,05,33,57,231,46,,,,,,,,,,,,*5E
###2023-12-09 13:03:10.997458$GNVTG,265.67,T,,M,3.48,N,6.44,K,A*2A
###2023-12-09 13:03:10.999497$GNGST,180310.10,18.000,,,,0.082,0.070,0.160*5E
###2023-12-09 13:03:11.001059$GNZDA,180310.10,09,12,2023,00,00*7B
###2023-12-09 13:03:11.001825$GNEBP,,,,,,M*13
###2023-12-09 13:03:11.164056$GNGGA,180310.30,4138.0474126,N,07032.3779597,W,1,24,0.6,13.495,M,-29.744,M,0.0,*56
###2023-12-09 13:03:11.363718$GNGGA,180310.50,4138.0474026,N,07032.3782111,W,1,24,0.6,13.501,M,-29.744,M,0.0,*53
###2023-12-09 13:03:11.564219$GNGGA,180310.70,4138.0473951,N,07032.3784604,W,1,24,0.6,13.515,M,-29.744,M,0.0,*5F
###2023-12-09 13:03:11.764655$GNGGA,180310.90,4138.0473806,N,07032.3787070,W,1,24,0.6,13.511,M,-29.744,M,0.0,*50
###2023-12-09 13:03:11.967120$GNRMC,180311.10,A,4138.0473667,N,07032.3789506,W,3.29,267.49,091223,,,A*5D
###2023-12-09 13:03:11.970595$GNGGA,180311.10,4138.0473667,N,07032.3789506,W,1,24,0.6,13.498,M,-29.744,M,0.0,*5A
###2023-12-09 13:03:11.972830$GPGSA,A,3,03,04,16,26,28,29,31,32,,,,,1.1,0.6,0.9*3B
###2023-12-09 13:03:11.974907$GLGSA,A,3,65,71,72,73,74,75,,,,,,,1.1,0.6,0.9*24
###2023-12-09 13:03:11.976802$GAGSA,A,3,04,19,21,27,,,,,,,,,1.1,0.6,0.9*26
###2023-12-09 13:03:11.978793$GBGSA,A,3,14,24,25,26,33,,,,,,,,1.1,0.6,0.9*2F
###2023-12-09 13:03:11.981582$GPGSV,2,1,08,03,34,260,43,04,33,311,41,16,50,212,46,26,80,210,48*75
###2023-12-09 13:03:11.984398$GPGSV,2,2,08,28,49,070,45,29,25,061,42,31,69,038,47,32,19,140,44*74
###2023-12-09 13:03:11.987220$GLGSV,2,1,06,65,25,327,40,71,40,173,46,72,73,265,45,73,35,042,43*61
###2023-12-09 13:03:11.989352$GLGSV,2,2,06,74,69,340,42,75,33,254,42,,,,,,,,*69
###2023-12-09 13:03:11.992171$GAGSV,1,1,04,04,29,312,40,19,84,213,40,21,86,114,46,27,32,048,41*61
###2023-12-09 13:03:11.994995$GBGSV,2,1,05,14,43,193,45,24,73,026,48,25,41,263,44,26,26,063,42*69
###2023-12-09 13:03:11.996746$GBGSV,2,2,05,33,57,231,47,,,,,,,,,,,,*5F
###2023-12-09 13:03:11.998331$GNVTG,267.49,T,,M,3.29,N,6.08,K,A*2B
###2023-12-09 13:03:12.000331$GNGST,180311.10,18.000,,,,0.082,0.070,0.160*5F
###2023-12-09 13:03:12.001890$GNZDA,180311.10,09,12,2023,00,00*7A
###2023-12-09 13:03:12.002670$GNEBP,,,,,,M*13
###2023-12-09 13:03:12.164110$GNGGA,180311.30,4138.0473634,N,07032.3791906,W,1,24,0.6,13.498,M,-29.744,M,0.0,*5B
###2023-12-09 13:03:12.363827$GNGGA,180311.50,4138.0473696,N,07032.3794265,W,1,24,0.6,13.507,M,-29.744,M,0.0,*59
###2023-12-09 13:03:12.564526$GNGGA,180311.70,4138.0473782,N,07032.3796592,W,1,24,0.6,13.513,M,-29.744,M,0.0,*57
###2023-12-09 13:03:12.764740$GNGGA,180311.90,4138.0473852,N,07032.3798907,W,1,24,0.6,13.514,M,-29.744,M,0.0,*52
###2023-12-09 13:03:12.965634$GNRMC,180312.10,A,4138.0473924,N,07032.3801270,W,3.19,273.60,091223,,,A*52
###2023-12-09 13:03:12.968522$GNGGA,180312.10,4138.0473924,N,07032.3801270,W,1,24,0.6,13.507,M,-29.744,M,0.0,*5F
###2023-12-09 13:03:12.970390$GPGSA,A,3,03,04,16,26,28,29,31,32,,,,,1.1,0.6,0.9*3B
###2023-12-09 13:03:12.972131$GLGSA,A,3,65,71,72,73,74,75,,,,,,,1.1,0.6,0.9*24
###2023-12-09 13:03:12.973717$GAGSA,A,3,04,19,21,27,,,,,,,,,1.1,0.6,0.9*26
###2023-12-09 13:03:12.975374$GBGSA,A,3,14,24,25,26,33,,,,,,,,1.1,0.6,0.9*2F
###2023-12-09 13:03:12.977696$GPGSV,2,1,08,03,34,260,42,04,33,311,42,16,50,212,46,26,80,210,48*77
###2023-12-09 13:03:12.980041$GPGSV,2,2,08,28,49,070,44,29,25,061,40,31,69,038,47,32,19,140,44*77
###2023-12-09 13:03:12.982369$GLGSV,2,1,06,65,25,327,37,71,40,173,47,72,73,265,45,73,35,042,43*60
###2023-12-09 13:03:12.984124$GLGSV,2,2,06,74,69,340,42,75,33,254,42,,,,,,,,*69
###2023-12-09 13:03:12.986451$GAGSV,1,1,04,04,29,312,38,19,84,213,40,21,86,114,46,27,32,048,41*6E
###2023-12-09 13:03:12.988789$GBGSV,2,1,05,14,43,193,44,24,73,026,48,25,41,263,44,26,26,063,41*6B
###2023-12-09 13:03:12.990241$GBGSV,2,2,05,33,57,231,47,,,,,,,,,,,,*5F
###2023-12-09 13:03:12.991579$GNVTG,273.60,T,,M,3.19,N,5.90,K,A*24
###2023-12-09 13:03:12.993219$GNGST,180312.10,18.000,,,,0.083,0.070,0.160*5D
###2023-12-09 13:03:12.994503$GNZDA,180312.10,09,12,2023,00,00*79
###2023-12-09 13:03:12.995152$GNEBP,,,,,,M*13
###2023-12-09 13:03:13.163502$GNGGA,180312.30,4138.0474061,N,07032.3803664,W,1,24,0.6,13.515,M,-29.745,M,0.0,*53
###2023-12-09 13:03:13.364720$GNGGA,180312.50,4138.0474226,N,07032.3806110,W,1,24,0.6,13.516,M,-29.745,M,0.0,*56
###2023-12-09 13:03:13.564220$GNGGA,180312.70,4138.0474283,N,07032.3808607,W,1,24,0.6,13.520,M,-29.745,M,0.0,*51
###2023-12-09 13:03:13.767088$GNGGA,180312.90,4138.0474235,N,07032.3811144,W,1,24,0.6,13.525,M,-29.745,M,0.0,*5F
###2023-12-09 13:03:13.967246$GNRMC,180313.10,A,4138.0474125,N,07032.3813721,W,3.50,266.65,091223,,,A*53
###2023-12-09 13:03:13.970095$GNGGA,180313.10,4138.0474125,N,07032.3813721,W,1,24,0.6,13.526,M,-29.745,M,0.0,*50
###2023-12-09 13:03:13.971999$GPGSA,A,3,03,04,16,26,28,29,31,32,,,,,1.1,0.6,0.9*3B
###2023-12-09 13:03:13.973720$GLGSA,A,3,65,71,72,73,74,75,,,,,,,1.1,0.6,0.9*24
###2023-12-09 13:03:13.975316$GAGSA,A,3,04,19,21,27,,,,,,,,,1.1,0.6,0.9*26
###2023-12-09 13:03:13.976949$GBGSA,A,3,14,24,25,26,33,,,,,,,,1.1,0.6,0.9*2F
###2023-12-09 13:03:13.979277$GPGSV,2,1,08,03,34,260,43,04,33,311,42,16,50,212,45,26,80,210,48*75
