###2023-12-09 12:37:54.952730$GPGSV,2,1,08,03,38,275,41,04,23,311,39,16,38,208,44,26,67,207,47*76
###2023-12-09 12:37:54.955108$GPGSV,2,2,08,28,57,057,46,29,25,073,45,31,73,004,48,32,29,134,47*71
###2023-12-09 12:37:54.957448$GLGSV,2,1,05,71,55,169,48,72,67,307,45,73,46,034,47,74,71,296,42*6A
###2023-12-09 12:37:54.958921$GLGSV,2,2,05,75,23,242,39,,,,,,,,,,,,*5D
###2023-12-09 12:37:54.961241$GAGSV,1,1,04,04,21,311,36,19,82,299,41,21,78,175,46,27,41,049,44*68
###2023-12-09 12:37:54.963593$GBGSV,2,1,05,14,54,197,45,24,80,351,48,25,33,253,42,26,34,058,45*68
###2023-12-09 12:37:54.965050$GBGSV,2,2,05,33,63,252,47,,,,,,,,,,,,*5D
###2023-12-09 12:37:54.966374$GNVTG,286.73,T,,M,0.66,N,1.22,K,A*2A
###2023-12-09 12:37:54.968038$GNGST,173754.10,19.000,,,,0.081,0.070,0.170*55
###2023-12-09 12:37:54.969330$GNZDA,173754.10,09,12,2023,00,00*73
###2023-12-09 12:37:54.969966$GNEBP,,,,,,M*13
###2023-12-09 12:37:55.137271$GNGGA,173754.30,4138.0627828,N,07032.3846881,W,1,23,0.7,13.544,M,-29.744,M,0.0,*5F
###2023-12-09 12:37:55.337976$GNGGA,173754.50,4138.0627968,N,07032.3847698,W,1,23,0.7,13.545,M,-29.744,M,0.0,*5A
###2023-12-09 12:37:55.537924$GNGGA,173754.70,4138.0627977,N,07032.3847962,W,1,23,0.7,13.552,M,-29.744,M,0.0,*5A
###2023-12-09 12:37:55.737156$GNGGA,173754.90,4138.0627907,N,07032.3847934,W,1,23,0.7,13.541,M,-29.744,M,0.0,*52
###2023-12-09 12:37:55.938105$GNRMC,173755.10,A,4138.0627942,N,07032.3848280,W,0.84,282.91,091223,,,A*5F
###2023-12-09 12:37:55.940997$GNGGA,173755.10,4138.0627942,N,07032.3848280,W,1,23,0.7,13.519,M,-29.744,M,0.0,*5C
###2023-12-09 12:37:55.942869$GPGSA,A,3,03,04,16,26,28,29,31,32,,,,,1.2,0.7,1.0*31
###2023-12-09 12:37:55.944520$GLGSA,A,3,71,72,73,74,75,,,,,,,,1.2,0.7,1.0*2D
###2023-12-09 12:37:55.946107$GAGSA,A,3,04,19,21,27,,,,,,,,,1.2,0.7,1.0*2C
###2023-12-09 12:37:55.947796$GBGSA,A,3,14,24,25,26,33,,,,,,,,1.2,0.7,1.0*25
###2023-12-09 12:37:55.950153$GPGSV,2,1,08,03,38,275,42,04,23,311,38,16,38,208,44,26,67,207,47*74
###2023-12-09 12:37:55.952508$GPGSV,2,2,08,28,57,057,46,29,25,073,44,31,73,004,48,32,29,134,46*71
###2023-12-09 12:37:55.954874$GLGSV,2,1,05,71,55,169,46,72,67,307,46,73,46,034,47,74,71,296,42*67
###2023-12-09 12:37:55.956336$GLGSV,2,2,05,75,23,242,39,,,,,,,,,,,,*5D
###2023-12-09 12:37:55.958682$GAGSV,1,1,04,04,21,311,39,19,82,299,41,21,78,175,46,27,41,049,44*67
###2023-12-09 12:37:55.961022$GBGSV,2,1,05,14,54,197,45,24,80,351,47,25,33,253,42,26,34,058,44*66
###2023-12-09 12:37:55.962476$GBGSV,2,2,05,33,63,252,47,,,,,,,,,,,,*5D
###2023-12-09 12:37:55.963820$GNVTG,282.91,T,,M,0.84,N,1.55,K,A*2E
###2023-12-09 12:37:55.965471$GNGST,173755.10,19.000,,,,0.081,0.070,0.170*54
###2023-12-09 12:37:55.966778$GNZDA,173755.10,09,12,2023,00,00*72
###2023-12-09 12:37:55.967419$GNEBP,,,,,,M*13
###2023-12-09 12:37:56.137541$GNGGA,173755.30,4138.0628076,N,07032.3849004,W,1,23,0.7,13.519,M,-29.744,M,0.0,*50
###2023-12-09 12:37:56.337647$GNGGA,173755.50,4138.0628173,N,07032.3849607,W,1,23,0.7,13.510,M,-29.744,M,0.0,*5E
###2023-12-09 12:37:56.537912$GNGGA,173755.70,4138.0628156,N,07032.3849837,W,1,23,0.7,13.514,M,-29.744,M,0.0,*52
###2023-12-09 12:37:56.741124$GNGGA,173755.90,4138.0628175,N,07032.3850119,W,1,23,0.7,13.530,M,-29.744,M,0.0,*56
###2023-12-09 12:37:56.945392$GNRMC,173756.10,A,4138.0628289,N,07032.3850640,W,0.76,284.22,091223,,,A*5D
###2023-12-09 12:37:56.948297$GNGGA,173756.10,4138.0628289,N,07032.3850640,W,1,23,0.7,13.531,M,-29.744,M,0.0,*57
###2023-12-09 12:37:56.950174$GPGSA,A,3,03,04,16,26,28,29,31,32,,,,,1.2,0.7,1.0*31
###2023-12-09 12:37:56.951848$GLGSA,A,3,71,72,73,74,75,,,,,,,,1.2,0.7,1.0*2D
###2023-12-09 12:37:56.953441$GAGSA,A,3,04,19,21,27,,,,,,,,,1.2,0.7,1.0*2C
###2023-12-09 12:37:56.955113$GBGSA,A,3,14,24,25,26,33,,,,,,,,1.2,0.7,1.0*25
###2023-12-09 12:37:56.957453$GPGSV,2,1,08,03,38,275,43,04,23,311,40,16,38,208,44,26,67,207,47*7A
###2023-12-09 12:37:56.959806$GPGSV,2,2,08,28,57,057,45,29,25,073,41,31,73,004,48,32,29,134,44*75
###2023-12-09 12:37:56.962142$GLGSV,2,1,05,71,55,169,46,72,67,307,47,73,46,034,47,74,71,296,43*67
###2023-12-09 12:37:56.963609$GLGSV,2,2,05,75,23,242,38,,,,,,,,,,,,*5C
###2023-12-09 12:37:56.965941$GAGSV,1,1,04,04,21,311,39,19,82,299,41,21,78,175,46,27,41,049,44*67
###2023-12-09 12:37:56.968290$GBGSV,2,1,05,14,54,197,44,24,80,351,48,25,33,253,44,26,34,058,45*6F
###2023-12-09 12:37:56.969752$GBGSV,2,2,05,33,63,252,48,,,,,,,,,,,,*52
###2023-12-09 12:37:56.971089$GNVTG,284.22,T,,M,0.76,N,1.40,K,A*29
###2023-12-09 12:37:56.972737$GNGST,173756.10,19.000,,,,0.081,0.070,0.170*57
###2023-12-09 12:37:56.974030$GNZDA,173756.10,09,12,2023,00,00*71
###2023-12-09 12:37:56.974681$GNEBP,,,,,,M*13
###2023-12-09 12:37:57.137286$GNGGA,173756.30,4138.0628376,N,07032.3851121,W,1,23,0.7,13.511,M,-29.744,M,0.0,*57
###2023-12-09 12:37:57.337762$GNGGA,173756.50,4138.0628408,N,07032.3851453,W,1,23,0.7,13.496,M,-29.744,M,0.0,*51
###2023-12-09 12:37:57.538191$GNGGA,173756.70,4138.0628442,N,07032.3851865,W,1,23,0.7,13.509,M,-29.744,M,0.0,*53
###2023-12-09 12:37:57.738840$GNGGA,173756.90,4138.0628527,N,07032.3852417,W,1,23,0.7,13.529,M,-29.744,M,0.0,*57
###2023-12-09 12:37:57.937496$GNRMC,173757.10,A,4138.0628624,N,07032.3852895,W,0.54,284.22,091223,,,A*5B
###2023-12-09 12:37:57.940385$GNGGA,173757.10,4138.0628624,N,07032.3852895,W,1,23,0.7,13.535,M,-29.744,M,0.0,*55
###2023-12-09 12:37:57.942245$GPGSA,A,3,03,04,16,26,28,29,31,32,,,,,1.2,0.7,1.0*31
###2023-12-09 12:37:57.943914$GLGSA,A,3,71,72,73,74,75,,,,,,,,1.2,0.7,1.0*2D
###2023-12-09 12:37:57.945497$GAGSA,A,3,04,19,21,27,,,,,,,,,1.2,0.7,1.0*2C
###2023-12-09 12:37:57.947159$GBGSA,A,3,14,24,25,26,33,,,,,,,,1.2,0.7,1.0*25
###2023-12-09 12:37:57.949499$GPGSV,2,1,08,03,38,275,46,04,23,311,44,16,38,208,44,26,67,207,47*7B
###2023-12-09 12:37:57.951854$GPGSV,2,2,08,28,57,057,44,29,25,073,42,31,73,004,48,32,29,134,44*77
###2023-12-09 12:37:57.954173$GLGSV,2,1,05,71,55,169,46,72,67,307,47,73,46,034,47,74,71,296,43*67
###2023-12-09 12:37:57.955646$GLGSV,2,2,05,75,23,242,41,,,,,,,,,,,,*52
###2023-12-09 12:37:57.957972$GAGSV,1,1,04,04,21,311,42,19,82,299,41,21,78,175,46,27,41,049,44*6B
###2023-12-09 12:37:57.960312$GBGSV,2,1,05,14,54,197,44,24,80,351,48,25,33,253,45,26,34,058,44*6F
###2023-12-09 12:37:57.961773$GBGSV,2,2,05,33,63,252,48,,,,,,,,,,,,*52
###2023-12-09 12:37:57.963104$GNVTG,284.22,T,,M,0.54,N,1.01,K,A*2C
###2023-12-09 12:37:57.964746$GNGST,173757.10,19.000,,,,0.081,0.070,0.170*56
###2023-12-09 12:37:57.966035$GNZDA,173757.10,09,12,2023,00,00*70
###2023-12-09 12:37:57.966686$GNEBP,,,,,,M*13
###2023-12-09 12:37:58.138031$GNGGA,173757.30,4138.0628684,N,07032.3853206,W,1,23,0.7,13.532,M,-29.744,M,0.0,*5B
###2023-12-09 12:37:58.337632$GNGGA,173757.50,4138.0628712,N,07032.3853432,W,1,23,0.7,13.514,M,-29.744,M,0.0,*56
###2023-12-09 12:37:58.536853$GNGGA,173757.70,4138.0628759,N,07032.3853798,W,1,23,0.7,13.510,M,-29.744,M,0.0,*5C
###2023-12-09 12:37:58.737102$GNGGA,173757.90,4138.0628872,N,07032.3854410,W,1,23,0.7,13.532,M,-29.744,M,0.0,*50
###2023-12-09 12:37:58.938419$GNRMC,173758.10,A,4138.0628988,N,07032.3855041,W,0.74,284.22,091223,,,A*59
###2023-12-09 12:37:58.941293$GNGGA,173758.10,4138.0628988,N,07032.3855041,W,1,23,0.7,13.551,M,-29.744,M,0.0,*57
###2023-12-09 12:37:58.943164$GPGSA,A,3,03,04,16,26,28,29,31,32,,,,,1.2,0.7,1.0*31
###2023-12-09 12:37:58.944806$GLGSA,A,3,71,72,73,74,75,,,,,,,,1.2,0.7,1.0*2D
###2023-12-09 12:37:58.946390$GAGSA,A,3,04,19,21,27,,,,,,,,,1.2,0.7,1.0*2C
###2023-12-09 12:37:58.948069$GBGSA,A,3,14,24,25,26,33,,,,,,,,1.2,0.7,1.0*25
###2023-12-09 12:37:58.950391$GPGSV,2,1,08,03,38,275,46,04,23,311,45,16,38,208,44,26,67,207,47*7A
###2023-12-09 12:37:58.952728$GPGSV,2,2,08,28,57,057,45,29,25,073,41,31,73,004,49,32,29,134,44*74
###2023-12-09 12:37:58.955070$GLGSV,2,1,05,71,55,169,46,72,67,307,47,73,46,034,47,74,71,296,43*67
###2023-12-09 12:37:58.956523$GLGSV,2,2,05,75,23,242,40,,,,,,,,,,,,*53
###2023-12-09 12:37:58.958869$GAGSV,1,1,04,04,21,311,43,19,82,299,41,21,78,175,45,27,41,049,43*6E
###2023-12-09 12:37:58.961202$GBGSV,2,1,05,14,54,197,45,24,80,351,47,25,33,253,46,26,34,058,44*62
###2023-12-09 12:37:58.962676$GBGSV,2,2,05,33,63,252,48,,,,,,,,,,,,*52
###2023-12-09 12:37:58.964252$GNVTG,284.22,T,,M,0.74,N,1.37,K,A*2B
###2023-12-09 12:37:58.965913$GNGST,173758.10,19.000,,,,0.080,0.070,0.170*58
###2023-12-09 12:37:58.967235$GNZDA,173758.10,09,12,2023,00,00*7F
###2023-12-09 12:37:58.967881$GNEBP,,,,,,M*13
###2023-12-09 12:37:59.139217$GNGGA,173758.30,4138.0629057,N,07032.3855410,W,1,23,0.7,13.560,M,-29.744,M,0.0,*5D
###2023-12-09 12:37:59.337582$GNGGA,173758.50,4138.0629034,N,07032.3855471,W,1,23,0.7,13.540,M,-29.744,M,0.0,*5B
###2023-12-09 12:37:59.547720$GNGGA,173758.70,4138.0629009,N,07032.3855644,W,1,23,0.7,13.516,M,-29.744,M,0.0,*50
###2023-12-09 12:37:59.739821$GNGGA,173758.90,4138.0629130,N,07032.3856306,W,1,23,0.7,13.545,M,-29.744,M,0.0,*53
###2023-12-09 12:37:59.938406$GNRMC,173759.10,A,4138.0629312,N,07032.3857148,W,0.95,287.22,091223,,,A*56
