###2023-12-09 13:02:30.988482$GAGSV,1,1,04,04,29,312,40,19,84,213,40,21,86,114,46,27,32,048,41*61
###2023-12-09 13:02:30.990866$GBGSV,2,1,05,14,43,193,44,24,73,026,49,25,41,263,44,26,26,063,43*68
###2023-12-09 13:02:30.992346$GBGSV,2,2,05,33,57,233,47,,,,,,,,,,,,*5D
###2023-12-09 13:02:30.993680$GNVTG,273.67,T,,M,3.52,N,6.52,K,A*21
###2023-12-09 13:02:30.995349$GNGST,180230.10,18.000,,,,0.081,0.070,0.160*5E
###2023-12-09 13:02:30.996646$GNZDA,180230.10,09,12,2023,00,00*78
###2023-12-09 13:02:30.997287$GNEBP,,,,,,M*13
###2023-12-09 13:02:31.164442$GNGGA,180230.30,4138.0467778,N,07032.3274825,W,1,24,0.6,13.376,M,-29.744,M,0.0,*5C
###2023-12-09 13:02:31.365342$GNGGA,180230.50,4138.0467612,N,07032.3277347,W,1,24,0.6,13.372,M,-29.744,M,0.0,*5F
###2023-12-09 13:02:31.565442$GNGGA,180230.70,4138.0467457,N,07032.3279873,W,1,24,0.6,13.381,M,-29.744,M,0.0,*50
###2023-12-09 13:02:31.766382$GNGGA,180230.90,4138.0467239,N,07032.3282394,W,1,24,0.6,13.372,M,-29.744,M,0.0,*5A
###2023-12-09 13:02:31.967567$GNRMC,180231.10,A,4138.0466853,N,07032.3284848,W,3.40,256.64,091223,,,A*5E
###2023-12-09 13:02:31.970425$GNGGA,180231.10,4138.0466853,N,07032.3284848,W,1,24,0.6,13.352,M,-29.744,M,0.0,*5A
###2023-12-09 13:02:31.972305$GPGSA,A,3,03,04,16,26,28,29,31,32,,,,,1.1,0.6,0.9*3B
###2023-12-09 13:02:31.974017$GLGSA,A,3,65,71,72,73,74,75,,,,,,,1.1,0.6,0.9*24
###2023-12-09 13:02:31.975609$GAGSA,A,3,04,19,21,27,,,,,,,,,1.1,0.6,0.9*26
###2023-12-09 13:02:31.977251$GBGSA,A,3,14,24,25,26,33,,,,,,,,1.1,0.6,0.9*2F
###2023-12-09 13:02:31.979584$GPGSV,2,1,08,03,35,261,43,04,33,311,42,16,50,212,45,26,80,210,47*7A
###2023-12-09 13:02:31.981916$GPGSV,2,2,08,28,49,070,45,29,25,061,42,31,69,038,47,32,19,140,43*73
###2023-12-09 13:02:31.984248$GLGSV,2,1,06,65,24,327,41,71,41,173,47,72,73,269,45,73,36,041,45*6B
###2023-12-09 13:02:31.985989$GLGSV,2,2,06,74,70,337,42,75,32,253,43,,,,,,,,*66
###2023-12-09 13:02:31.988330$GAGSV,1,1,04,04,29,312,40,19,84,213,39,21,86,114,45,27,32,048,42*6F
###2023-12-09 13:02:31.990663$GBGSV,2,1,05,14,43,193,44,24,73,026,48,25,41,263,43,26,26,063,41*6C
###2023-12-09 13:02:31.992113$GBGSV,2,2,05,33,57,233,46,,,,,,,,,,,,*5C
###2023-12-09 13:02:31.993431$GNVTG,256.64,T,,M,3.40,N,6.30,K,A*22
###2023-12-09 13:02:31.995085$GNGST,180231.10,18.000,,,,0.081,0.069,0.160*57
###2023-12-09 13:02:31.996371$GNZDA,180231.10,09,12,2023,00,00*79
###2023-12-09 13:02:31.997005$GNEBP,,,,,,M*13
###2023-12-09 13:02:32.165002$GNGGA,180231.30,4138.0466493,N,07032.3287314,W,1,24,0.6,13.348,M,-29.744,M,0.0,*52
###2023-12-09 13:02:32.364409$GNGGA,180231.50,4138.0466263,N,07032.3289846,W,1,24,0.6,13.359,M,-29.744,M,0.0,*5F
###2023-12-09 13:02:32.565344$GNGGA,180231.70,4138.0466028,N,07032.3292381,W,1,24,0.6,13.350,M,-29.744,M,0.0,*53
###2023-12-09 13:02:32.772148$GNGGA,180231.90,4138.0465829,N,07032.3294899,W,1,24,0.6,13.343,M,-29.744,M,0.0,*51
###2023-12-09 13:02:32.974143$GNRMC,180232.10,A,4138.0465667,N,07032.3297460,W,3.44,265.59,091223,,,A*59
###2023-12-09 13:02:32.977021$GNGGA,180232.10,4138.0465667,N,07032.3297460,W,1,24,0.6,13.329,M,-29.744,M,0.0,*5B
###2023-12-09 13:02:32.978889$GPGSA,A,3,03,04,16,26,28,29,31,32,,,,,1.1,0.6,0.9*3B
###2023-12-09 13:02:32.980603$GLGSA,A,3,65,71,72,73,74,75,,,,,,,1.1,0.6,0.9*24
###2023-12-09 13:02:32.982183$GAGSA,A,3,04,19,21,27,,,,,,,,,1.1,0.6,0.9*26
###2023-12-09 13:02:32.983831$GBGSA,A,3,14,24,25,26,33,,,,,,,,1.1,0.6,0.9*2F
###2023-12-09 13:02:32.986147$GPGSV,2,1,08,03,35,261,43,04,33,311,42,16,50,212,47,26,80,210,48*77
###2023-12-09 13:02:32.988478$GPGSV,2,2,08,28,49,070,45,29,25,061,40,31,69,038,47,32,19,140,44*76
###2023-12-09 13:02:32.990816$GLGSV,2,1,06,65,24,327,40,71,41,173,46,72,73,269,45,73,36,041,44*6A
###2023-12-09 13:02:32.992559$GLGSV,2,2,06,74,70,337,42,75,32,253,42,,,,,,,,*67
###2023-12-09 13:02:32.994886$GAGSV,1,1,04,04,29,312,40,19,84,213,40,21,86,114,46,27,32,048,41*61
###2023-12-09 13:02:32.997210$GBGSV,2,1,05,14,43,193,44,24,73,026,48,25,41,263,43,26,26,063,41*6C
###2023-12-09 13:02:32.998668$GBGSV,2,2,05,33,57,233,47,,,,,,,,,,,,*5D
###2023-12-09 13:02:32.999986$GNVTG,265.59,T,,M,3.44,N,6.37,K,A*2F
###2023-12-09 13:02:33.001633$GNGST,180232.10,18.000,,,,0.081,0.069,0.160*54
###2023-12-09 13:02:33.002936$GNZDA,180232.10,09,12,2023,00,00*7A
###2023-12-09 13:02:33.003575$GNEBP,,,,,,M*13
###2023-12-09 13:02:33.167517$GNGGA,180232.30,4138.0465625,N,07032.3300045,W,1,24,0.6,13.314,M,-29.744,M,0.0,*5D
###2023-12-09 13:02:33.365013$GNGGA,180232.50,4138.0465715,N,07032.3302593,W,1,24,0.6,13.316,M,-29.744,M,0.0,*57
###2023-12-09 13:02:33.565423$GNGGA,180232.70,4138.0465841,N,07032.3305148,W,1,24,0.6,13.316,M,-29.744,M,0.0,*5E
###2023-12-09 13:02:33.765744$GNGGA,180232.90,4138.0466011,N,07032.3307677,W,1,24,0.6,13.299,M,-29.744,M,0.0,*51
###2023-12-09 13:02:33.967401$GNRMC,180233.10,A,4138.0466272,N,07032.3310226,W,3.54,280.24,091223,,,A*51
###2023-12-09 13:02:33.970237$GNGGA,180233.10,4138.0466272,N,07032.3310226,W,1,24,0.6,13.300,M,-29.744,M,0.0,*58
###2023-12-09 13:02:33.972095$GPGSA,A,3,03,04,16,26,28,29,31,32,,,,,1.1,0.6,0.9*3B
###2023-12-09 13:02:33.973806$GLGSA,A,3,65,71,72,73,74,75,,,,,,,1.1,0.6,0.9*24
###2023-12-09 13:02:33.975400$GAGSA,A,3,04,19,21,27,,,,,,,,,1.1,0.6,0.9*26
###2023-12-09 13:02:33.977038$GBGSA,A,3,14,24,25,26,33,,,,,,,,1.1,0.6,0.9*2F
###2023-12-09 13:02:33.979368$GPGSV,2,1,08,03,35,261,41,04,33,311,42,16,50,212,46,26,80,210,49*75
###2023-12-09 13:02:33.981697$GPGSV,2,2,08,28,49,070,45,29,25,061,42,31,69,038,47,32,19,140,44*74
###2023-12-09 13:02:33.984027$GLGSV,2,1,06,65,24,327,39,71,41,173,46,72,73,269,45,73,36,041,45*65
###2023-12-09 13:02:33.985769$GLGSV,2,2,06,74,70,337,42,75,32,253,41,,,,,,,,*64
###2023-12-09 13:02:33.988099$GAGSV,1,1,04,04,29,312,39,19,84,213,40,21,86,114,45,27,32,048,40*6D
###2023-12-09 13:02:33.990420$GBGSV,2,1,05,14,43,193,44,24,73,026,48,25,41,263,44,26,26,063,41*6B
###2023-12-09 13:02:33.991886$GBGSV,2,2,05,33,57,233,47,,,,,,,,,,,,*5D
###2023-12-09 13:02:33.993206$GNVTG,280.24,T,,M,3.54,N,6.55,K,A*2B
###2023-12-09 13:02:33.994858$GNGST,180233.10,18.000,,,,0.081,0.069,0.160*55
###2023-12-09 13:02:33.996145$GNZDA,180233.10,09,12,2023,00,00*7B
###2023-12-09 13:02:33.996780$GNEBP,,,,,,M*13
###2023-12-09 13:02:34.164386$GNGGA,180233.30,4138.0466602,N,07032.3312801,W,1,24,0.6,13.301,M,-29.744,M,0.0,*55
###2023-12-09 13:02:34.364835$GNGGA,180233.50,4138.0466899,N,07032.3315371,W,1,24,0.6,13.299,M,-29.744,M,0.0,*54
###2023-12-09 13:02:34.565351$GNGGA,180233.70,4138.0467160,N,07032.3317919,W,1,24,0.6,13.294,M,-29.744,M,0.0,*53
###2023-12-09 13:02:34.769944$GNGGA,180233.90,4138.0467379,N,07032.3320448,W,1,24,0.6,13.284,M,-29.744,M,0.0,*5B
###2023-12-09 13:02:34.967348$GNRMC,180234.10,A,4138.0467626,N,07032.3322929,W,3.34,278.74,091223,,,A*53
###2023-12-09 13:02:34.970205$GNGGA,180234.10,4138.0467626,N,07032.3322929,W,1,24,0.6,13.278,M,-29.744,M,0.0,*50
###2023-12-09 13:02:34.972079$GPGSA,A,3,03,04,16,26,28,29,31,32,,,,,1.1,0.6,0.9*3B
###2023-12-09 13:02:34.973782$GLGSA,A,3,65,71,72,73,74,75,,,,,,,1.1,0.6,0.9*24
###2023-12-09 13:02:34.975377$GAGSA,A,3,04,19,21,27,,,,,,,,,1.1,0.6,0.9*26
###2023-12-09 13:02:34.977021$GBGSA,A,3,14,24,25,26,33,,,,,,,,1.1,0.6,0.9*2F
###2023-12-09 13:02:34.979361$GPGSV,2,1,08,03,35,261,42,04,33,311,40,16,50,212,46,26,80,210,48*75
###2023-12-09 13:02:34.981693$GPGSV,2,2,08,28,49,070,45,29,25,061,41,31,69,038,47,32,19,140,44*77
###2023-12-09 13:02:34.984030$GLGSV,2,1,06,65,24,327,38,71,41,173,47,72,73,269,45,73,36,041,44*64
###2023-12-09 13:02:34.985781$GLGSV,2,2,06,74,70,337,42,75,32,253,42,,,,,,,,*67
###2023-12-09 13:02:34.988123$GAGSV,1,1,04,04,29,312,37,19,84,213,40,21,86,114,46,27,32,048,41*61
###2023-12-09 13:02:34.990446$GBGSV,2,1,05,14,43,193,45,24,73,026,48,25,41,263,44,26,26,063,41*6A
###2023-12-09 13:02:34.991912$GBGSV,2,2,05,33,57,233,47,,,,,,,,,,,,*5D
###2023-12-09 13:02:34.993230$GNVTG,278.74,T,,M,3.34,N,6.19,K,A*27
###2023-12-09 13:02:34.994885$GNGST,180234.10,18.000,,,,0.081,0.070,0.160*5A
###2023-12-09 13:02:34.996175$GNZDA,180234.10,09,12,2023,00,00*7C
###2023-12-09 13:02:34.996814$GNEBP,,,,,,M*13
###2023-12-09 13:02:35.164286$GNGGA,180234.30,4138.0467900,N,07032.3325370,W,1,24,0.6,13.277,M,-29.744,M,0.0,*57
###2023-12-09 13:02:35.368778$GNGGA,180234.50,4138.0468083,N,07032.3327765,W,1,24,0.6,13.271,M,-29.744,M,0.0,*58
###2023-12-09 13:02:35.565344$GNGGA,180234.70,4138.0468249,N,07032.3330168,W,1,24,0.6,13.271,M,-29.744,M,0.0,*53
###2023-12-09 13:02:35.765895$GNGGA,180234.90,4138.0468462,N,07032.3332603,W,1,24,0.6,13.280,M,-29.744,M,0.0,*54
###2023-12-09 13:02:35.967536$GNRMC,180235.10,A,4138.0468668,N,07032.3335133,W,3.48,275.79,091223,,,A*59
###2023-12-09 13:02:35.970407$GNGGA,180235.10,4138.0468668,N,07032.3335133,W,1,24,0.6,13.287,M,-29.744,M,0.0,*51
###2023-12-09 13:02:35.972280$GPGSA,A,3,03,04,16,26,28,29,31,32,,,,,1.1,0.6,0.9*3B
###2023-12-09 13:02:35.974002$GLGSA,A,3,65,71,72,73,74,75,,,,,,,1.1,0.6,0.9*24
###2023-12-09 13:02:35.975604$GAGSA,A,3,04,19,21,27,,,,,,,,,1.1,0.6,0.9*26
