###2023-12-09 13:26:53.011896$GLGSV,2,1,06,65,35,321,41,71,26,175,44,72,66,227,45,73,25,050,39*6E
###2023-12-09 13:26:53.013671$GLGSV,2,2,06,74,62,008,42,75,41,267,44,,,,,,,,*6E
###2023-12-09 13:26:53.016024$GAGSV,1,1,04,04,37,311,41,19,75,184,41,21,80,050,46,27,25,049,38*60
###2023-12-09 13:26:53.018352$GBGSV,2,1,06,14,32,190,43,24,65,042,49,25,49,273,43,26,18,069,43*65
###2023-12-09 13:26:53.020111$GBGSV,2,2,06,33,48,220,48,35,16,059,41,,,,,,,,*65
###2023-12-09 13:26:53.021436$GNVTG,273.79,T,,M,3.48,N,6.44,K,A*22
###2023-12-09 13:26:53.023135$GNGST,182652.10,18.000,,,,0.097,0.071,0.160*5A
###2023-12-09 13:26:53.024433$GNZDA,182652.10,09,12,2023,00,00*7A
###2023-12-09 13:26:53.025072$GNEBP,,,,,,M*13
###2023-12-09 13:26:53.189201$GNGGA,182652.30,4138.0718204,N,07032.3746819,W,1,24,0.6,13.259,M,-29.744,M,0.0,*5C
###2023-12-09 13:26:53.387430$GNGGA,182652.50,4138.0718391,N,07032.3749375,W,1,24,0.6,13.259,M,-29.744,M,0.0,*59
###2023-12-09 13:26:53.589203$GNGGA,182652.70,4138.0718590,N,07032.3751918,W,1,24,0.6,13.262,M,-29.744,M,0.0,*5C
###2023-12-09 13:26:53.789392$GNGGA,182652.90,4138.0718776,N,07032.3754428,W,1,24,0.6,13.260,M,-29.744,M,0.0,*51
###2023-12-09 13:26:53.992185$GNRMC,182653.10,A,4138.0718984,N,07032.3756927,W,3.42,277.69,091223,,,A*53
###2023-12-09 13:26:53.995073$GNGGA,182653.10,4138.0718984,N,07032.3756927,W,1,24,0.6,13.259,M,-29.744,M,0.0,*51
###2023-12-09 13:26:53.996873$GPGSA,A,3,03,04,16,26,28,29,31,,,,,,1.1,0.6,0.9*3A
###2023-12-09 13:26:53.998608$GLGSA,A,3,65,71,72,73,74,75,,,,,,,1.1,0.6,0.9*24
###2023-12-09 13:26:54.000203$GAGSA,A,3,04,19,21,27,,,,,,,,,1.1,0.6,0.9*26
###2023-12-09 13:26:54.001928$GBGSA,A,3,14,24,25,26,33,35,,,,,,,1.1,0.6,0.9*29
###2023-12-09 13:26:54.004275$GPGSV,2,1,07,03,29,250,41,04,43,309,43,16,62,219,46,26,88,044,48*7A
###2023-12-09 13:26:54.006321$GPGSV,2,2,07,28,41,081,45,29,22,050,40,31,62,060,47,,,,*40
###2023-12-09 13:26:54.008660$GLGSV,2,1,06,65,35,321,41,71,26,175,43,72,66,227,46,73,25,050,40*64
###2023-12-09 13:26:54.010407$GLGSV,2,2,06,74,62,008,43,75,41,267,43,,,,,,,,*68
###2023-12-09 13:26:54.012740$GAGSV,1,1,04,04,37,311,41,19,75,184,41,21,80,050,46,27,25,049,40*6F
###2023-12-09 13:26:54.015077$GBGSV,2,1,06,14,32,190,43,24,65,042,48,25,49,273,43,26,18,069,42*65
###2023-12-09 13:26:54.016821$GBGSV,2,2,06,33,48,220,47,35,16,059,40,,,,,,,,*6B
###2023-12-09 13:26:54.018141$GNVTG,277.69,T,,M,3.42,N,6.34,K,A*2A
###2023-12-09 13:26:54.019793$GNGST,182653.10,18.000,,,,0.098,0.072,0.160*57
###2023-12-09 13:26:54.021083$GNZDA,182653.10,09,12,2023,00,00*7B
###2023-12-09 13:26:54.021721$GNEBP,,,,,,M*13
###2023-12-09 13:26:54.189365$GNGGA,182653.30,4138.0719222,N,07032.3759428,W,1,24,0.6,13.268,M,-29.744,M,0.0,*5A
###2023-12-09 13:26:54.386395$GNGGA,182653.50,4138.0719489,N,07032.3761897,W,1,24,0.6,13.270,M,-29.744,M,0.0,*51
###2023-12-09 13:26:54.588185$GNGGA,182653.70,4138.0719746,N,07032.3764379,W,1,24,0.6,13.274,M,-29.744,M,0.0,*59
###2023-12-09 13:26:54.789299$GNGGA,182653.90,4138.0719982,N,07032.3766872,W,1,24,0.6,13.277,M,-29.744,M,0.0,*50
###2023-12-09 13:26:54.992161$GNRMC,182654.10,A,4138.0720278,N,07032.3769340,W,3.34,279.58,091223,,,A*5D
###2023-12-09 13:26:54.995042$GNGGA,182654.10,4138.0720278,N,07032.3769340,W,1,24,0.6,13.278,M,-29.744,M,0.0,*51
###2023-12-09 13:26:54.996840$GPGSA,A,3,03,04,16,26,28,29,31,,,,,,1.1,0.6,0.9*3A
###2023-12-09 13:26:54.998554$GLGSA,A,3,65,71,72,73,74,75,,,,,,,1.1,0.6,0.9*24
###2023-12-09 13:26:55.000150$GAGSA,A,3,04,19,21,27,,,,,,,,,1.1,0.6,0.9*26
###2023-12-09 13:26:55.001865$GBGSA,A,3,14,24,25,26,33,35,,,,,,,1.1,0.6,0.9*29
###2023-12-09 13:26:55.004211$GPGSV,2,1,07,03,29,250,40,04,43,309,44,16,62,219,46,26,88,044,48*7C
###2023-12-09 13:26:55.006251$GPGSV,2,2,07,28,41,081,45,29,22,050,42,31,62,060,47,,,,*42
###2023-12-09 13:26:55.008585$GLGSV,2,1,06,65,35,321,41,71,26,175,45,72,66,227,46,73,25,050,41*63
###2023-12-09 13:26:55.010329$GLGSV,2,2,06,74,62,008,42,75,41,267,43,,,,,,,,*69
###2023-12-09 13:26:55.012664$GAGSV,1,1,04,04,37,311,41,19,75,184,41,21,80,050,46,27,25,049,39*61
###2023-12-09 13:26:55.014998$GBGSV,2,1,06,14,32,190,43,24,65,042,49,25,49,273,43,26,18,069,41*67
###2023-12-09 13:26:55.016743$GBGSV,2,2,06,33,48,220,47,35,16,059,41,,,,,,,,*6A
###2023-12-09 13:26:55.018061$GNVTG,279.58,T,,M,3.34,N,6.19,K,A*28
###2023-12-09 13:26:55.019714$GNGST,182654.10,18.000,,,,0.098,0.072,0.160*50
###2023-12-09 13:26:55.021002$GNZDA,182654.10,09,12,2023,00,00*7C
###2023-12-09 13:26:55.021639$GNEBP,,,,,,M*13
###2023-12-09 13:26:55.188175$GNGGA,182654.30,4138.0720669,N,07032.3771806,W,1,24,0.6,13.276,M,-29.744,M,0.0,*59
###2023-12-09 13:26:55.387470$GNGGA,182654.50,4138.0721100,N,07032.3774212,W,1,24,0.6,13.283,M,-29.744,M,0.0,*56
###2023-12-09 13:26:55.588305$GNGGA,182654.70,4138.0721562,N,07032.3776645,W,1,24,0.6,13.280,M,-29.744,M,0.0,*53
###2023-12-09 13:26:55.787193$GNGGA,182654.90,4138.0722034,N,07032.3779064,W,1,24,0.6,13.284,M,-29.744,M,0.0,*56
###2023-12-09 13:26:55.990995$GNRMC,182655.10,A,4138.0722578,N,07032.3781509,W,3.52,287.80,091223,,,A*50
###2023-12-09 13:26:55.993856$GNGGA,182655.10,4138.0722578,N,07032.3781509,W,1,24,0.6,13.290,M,-29.744,M,0.0,*5E
###2023-12-09 13:26:55.995661$GPGSA,A,3,03,04,16,26,28,29,31,,,,,,1.1,0.6,0.9*3A
###2023-12-09 13:26:55.997379$GLGSA,A,3,65,71,72,73,74,75,,,,,,,1.1,0.6,0.9*24
###2023-12-09 13:26:55.998976$GAGSA,A,3,04,19,21,27,,,,,,,,,1.1,0.6,0.9*26
###2023-12-09 13:26:56.000691$GBGSA,A,3,14,24,25,26,33,35,,,,,,,1.1,0.6,0.9*29
###2023-12-09 13:26:56.003032$GPGSV,2,1,07,03,29,250,40,04,43,309,43,16,62,219,46,26,88,044,48*7B
###2023-12-09 13:26:56.005079$GPGSV,2,2,07,28,41,081,44,29,22,050,41,31,62,060,47,,,,*40
###2023-12-09 13:26:56.007427$GLGSV,2,1,06,65,35,321,41,71,26,175,45,72,66,227,46,73,25,050,41*63
###2023-12-09 13:26:56.009180$GLGSV,2,2,06,74,62,008,41,75,41,267,43,,,,,,,,*6A
###2023-12-09 13:26:56.011521$GAGSV,1,1,04,04,37,311,41,19,75,184,41,21,80,050,46,27,25,049,39*61
###2023-12-09 13:26:56.013861$GBGSV,2,1,06,14,32,190,44,24,65,042,49,25,49,273,44,26,18,069,42*64
###2023-12-09 13:26:56.015622$GBGSV,2,2,06,33,48,220,47,35,16,059,41,,,,,,,,*6A
###2023-12-09 13:26:56.016946$GNVTG,287.80,T,,M,3.52,N,6.52,K,A*23
###2023-12-09 13:26:56.018606$GNGST,182655.10,18.000,,,,0.098,0.073,0.160*50
###2023-12-09 13:26:56.019899$GNZDA,182655.10,09,12,2023,00,00*7D
###2023-12-09 13:26:56.020537$GNEBP,,,,,,M*13
###2023-12-09 13:26:56.188439$GNGGA,182655.30,4138.0723139,N,07032.3784011,W,1,24,0.6,13.293,M,-29.744,M,0.0,*56
###2023-12-09 13:26:56.387333$GNGGA,182655.50,4138.0723611,N,07032.3786552,W,1,24,0.6,13.291,M,-29.744,M,0.0,*5F
###2023-12-09 13:26:56.589708$GNGGA,182655.70,4138.0724026,N,07032.3789126,W,1,24,0.6,13.292,M,-29.744,M,0.0,*53
###2023-12-09 13:26:56.790508$GNGGA,182655.90,4138.0724455,N,07032.3791723,W,1,24,0.6,13.294,M,-29.744,M,0.0,*51
###2023-12-09 13:26:57.000369$GNRMC,182656.10,A,4138.0724847,N,07032.3794385,W,3.60,278.21,091223,,,A*58
###2023-12-09 13:26:57.003255$GNGGA,182656.10,4138.0724847,N,07032.3794385,W,1,24,0.6,13.299,M,-29.744,M,0.0,*55
###2023-12-09 13:26:57.005055$GPGSA,A,3,03,04,16,26,28,29,31,,,,,,1.1,0.6,0.9*3A
###2023-12-09 13:26:57.006786$GLGSA,A,3,65,71,72,73,74,75,,,,,,,1.1,0.6,0.9*24
###2023-12-09 13:26:57.008369$GAGSA,A,3,04,19,21,27,,,,,,,,,1.1,0.6,0.9*26
###2023-12-09 13:26:57.010075$GBGSA,A,3,14,24,25,26,33,35,,,,,,,1.1,0.6,0.9*29
###2023-12-09 13:26:57.012416$GPGSV,2,1,07,03,29,250,40,04,43,309,43,16,62,219,46,26,88,044,48*7B
###2023-12-09 13:26:57.014456$GPGSV,2,2,07,28,41,081,45,29,22,050,40,31,62,060,47,,,,*40
###2023-12-09 13:26:57.016796$GLGSV,2,1,06,65,35,321,41,71,26,175,45,72,66,227,46,73,25,050,41*63
###2023-12-09 13:26:57.018541$GLGSV,2,2,06,74,62,008,42,75,41,267,43,,,,,,,,*69
###2023-12-09 13:26:57.020875$GAGSV,1,1,04,04,37,311,41,19,75,184,41,21,80,050,46,27,25,049,39*61
###2023-12-09 13:26:57.023210$GBGSV,2,1,06,14,32,190,44,24,65,042,49,25,49,273,45,26,18,069,44*63
###2023-12-09 13:26:57.024950$GBGSV,2,2,06,33,48,220,48,35,16,059,42,,,,,,,,*66
###2023-12-09 13:26:57.026265$GNVTG,278.21,T,,M,3.60,N,6.66,K,A*2E
###2023-12-09 13:26:57.027922$GNGST,182656.10,18.000,,,,0.098,0.073,0.160*53
###2023-12-09 13:26:57.029460$GNZDA,182656.10,09,12,2023,00,00*7E
###2023-12-09 13:26:57.030113$GNEBP,,,,,,M*13
###2023-12-09 13:26:57.199820$GNGGA,182656.30,4138.0725078,N,07032.3797016,W,1,24,0.6,13.296,M,-29.744,M,0.0,*57
###2023-12-09 13:26:57.389602$GNGGA,182656.50,4138.0725322,N,07032.3799731,W,1,24,0.6,13.305,M,-29.744,M,0.0,*5A
###2023-12-09 13:26:57.590409$GNGGA,182656.70,4138.0725517,N,07032.3802439,W,1,24,0.6,13.309,M,-29.744,M,0.0,*52
###2023-12-09 13:26:57.790844$GNGGA,182656.90,4138.0725624,N,07032.3805235,W,1,24,0.6,13.311,M,-29.744,M,0.0,*5B
###2023-12-09 13:26:57.992476$GNRMC,182657.10,A,4138.0725638,N,07032.3808118,W,3.91,269.35,091223,,,A*59
###2023-12-09 13:26:57.995362$GNGGA,182657.10,4138.0725638,N,07032.3808118,W,1,24,0.6,13.315,M,-29.744,M,0.0,*5A
###2023-12-09 13:26:57.997163$GPGSA,A,3,03,04,16,26,28,29,31,,,,,,1.1,0.6,0.9*3A
