###2023-12-09 13:36:39.013277$GPGSA,A,3,03,04,16,26,27,28,29,31,,,,,1.0,0.6,0.8*3F
###2023-12-09 13:36:39.015093$GLGSA,A,3,65,71,72,73,74,75,83,,,,,,1.0,0.6,0.8*2F
###2023-12-09 13:36:39.016686$GAGSA,A,3,04,19,21,27,,,,,,,,,1.0,0.6,0.8*26
###2023-12-09 13:36:39.018452$GBGSA,A,3,12,14,24,25,26,33,35,,,,,,1.0,0.6,0.8*2A
###2023-12-09 13:36:39.020768$GPGSV,2,1,08,03,26,246,42,04,47,307,45,16,67,223,47,26,83,040,48*70
###2023-12-09 13:36:39.023100$GPGSV,2,2,08,27,17,172,39,28,37,085,45,29,20,046,45,31,59,067,46*79
###2023-12-09 13:36:39.025426$GLGSV,2,1,07,65,39,317,45,71,22,175,41,72,62,220,46,73,22,052,46*6E
###2023-12-09 13:36:39.027459$GLGSV,2,2,07,74,59,015,44,75,44,272,48,83,15,047,36,,,,*59
###2023-12-09 13:36:39.029810$GAGSV,1,1,04,04,40,310,44,19,71,181,40,21,76,045,46,27,22,050,42*6B
###2023-12-09 13:36:39.032152$GBGSV,2,1,07,12,16,125,40,14,28,189,41,24,62,047,49,25,52,277,47*6E
###2023-12-09 13:36:39.034184$GBGSV,2,2,07,26,15,071,44,33,44,216,47,35,16,055,44,,,,*5D
###2023-12-09 13:36:39.035533$GNVTG,126.95,T,,M,0.80,N,1.48,K,A*2F
###2023-12-09 13:36:39.037136$GNGST,183638.10,5.700,,,,0.085,0.064,0.140*69
###2023-12-09 13:36:39.038415$GNZDA,183638.10,09,12,2023,00,00*77
###2023-12-09 13:36:39.039060$GNEBP,,,,,,M*13
###2023-12-09 13:36:39.201765$GNGGA,183638.30,4138.0444314,N,07032.4015462,W,1,27,0.6,13.514,M,-29.745,M,0.0,*51
###2023-12-09 13:36:39.396435$GNGGA,183638.50,4138.0444084,N,07032.4015140,W,1,27,0.6,13.506,M,-29.745,M,0.0,*5B
###2023-12-09 13:36:39.598507$GNGGA,183638.70,4138.0443847,N,07032.4014802,W,1,27,0.6,13.492,M,-29.745,M,0.0,*5B
###2023-12-09 13:36:39.798992$GNGGA,183638.90,4138.0443565,N,07032.4014494,W,1,27,0.6,13.497,M,-29.745,M,0.0,*5E
###2023-12-09 13:36:40.003115$GNRMC,183639.10,A,4138.0443225,N,07032.4014254,W,0.68,126.95,091223,,,A*55
###2023-12-09 13:36:40.005972$GNGGA,183639.10,4138.0443225,N,07032.4014254,W,1,27,0.6,13.502,M,-29.745,M,0.0,*53
###2023-12-09 13:36:40.007837$GPGSA,A,3,03,04,16,26,27,28,29,31,,,,,1.0,0.6,0.8*3F
###2023-12-09 13:36:40.009614$GLGSA,A,3,65,71,72,73,74,75,83,,,,,,1.0,0.6,0.8*2F
###2023-12-09 13:36:40.011204$GAGSA,A,3,04,19,21,27,,,,,,,,,1.0,0.6,0.8*26
###2023-12-09 13:36:40.012985$GBGSA,A,3,12,14,24,25,26,33,35,,,,,,1.0,0.6,0.8*2A
###2023-12-09 13:36:40.015321$GPGSV,2,1,08,03,26,246,43,04,47,307,44,16,67,223,47,26,83,040,48*70
###2023-12-09 13:36:40.017654$GPGSV,2,2,08,27,17,172,39,28,37,085,46,29,20,046,44,31,59,067,47*7A
###2023-12-09 13:36:40.020023$GLGSV,2,1,07,65,39,317,45,71,22,175,42,72,62,220,46,73,22,052,44*6F
###2023-12-09 13:36:40.022060$GLGSV,2,2,07,74,59,015,44,75,44,272,47,83,15,047,36,,,,*56
###2023-12-09 13:36:40.024388$GAGSV,1,1,04,04,40,310,44,19,71,181,40,21,76,045,46,27,22,050,42*6B
###2023-12-09 13:36:40.026717$GBGSV,2,1,07,12,16,125,39,14,28,189,41,24,62,047,48,25,52,277,47*61
###2023-12-09 13:36:40.028755$GBGSV,2,2,07,26,15,071,44,33,44,216,47,35,16,055,44,,,,*5D
###2023-12-09 13:36:40.030076$GNVTG,126.95,T,,M,0.68,N,1.26,K,A*21
###2023-12-09 13:36:40.031696$GNGST,183639.10,5.700,,,,0.085,0.064,0.140*68
###2023-12-09 13:36:40.032982$GNZDA,183639.10,09,12,2023,00,00*76
###2023-12-09 13:36:40.033617$GNEBP,,,,,,M*13
###2023-12-09 13:36:40.197103$GNGGA,183639.30,4138.0442939,N,07032.4013984,W,1,26,0.6,13.494,M,-29.745,M,0.0,*58
###2023-12-09 13:36:40.397535$GNGGA,183639.50,4138.0442753,N,07032.4013685,W,1,26,0.6,13.485,M,-29.745,M,0.0,*52
###2023-12-09 13:36:40.596384$GNGGA,183639.70,4138.0442485,N,07032.4013474,W,1,27,0.6,13.488,M,-29.745,M,0.0,*58
###2023-12-09 13:36:40.799621$GNGGA,183639.90,4138.0442128,N,07032.4013342,W,1,26,0.6,13.493,M,-29.745,M,0.0,*5D
###2023-12-09 13:36:41.001427$GNRMC,183640.10,A,4138.0441856,N,07032.4013135,W,0.49,126.95,091223,,,A*57
###2023-12-09 13:36:41.004885$GNGGA,183640.10,4138.0441856,N,07032.4013135,W,1,26,0.6,13.487,M,-29.745,M,0.0,*5F
###2023-12-09 13:36:41.007142$GPGSA,A,3,03,04,16,26,27,28,29,31,,,,,1.0,0.6,0.8*3F
###2023-12-09 13:36:41.009219$GLGSA,A,3,65,71,72,73,74,75,,,,,,,1.0,0.6,0.8*24
###2023-12-09 13:36:41.011142$GAGSA,A,3,04,19,21,27,,,,,,,,,1.0,0.6,0.8*26
###2023-12-09 13:36:41.013312$GBGSA,A,3,12,14,24,25,26,33,35,,,,,,1.0,0.6,0.8*2A
###2023-12-09 13:36:41.016137$GPGSV,2,1,08,03,26,246,45,04,47,307,44,16,67,223,47,26,83,040,48*76
###2023-12-09 13:36:41.018967$GPGSV,2,2,08,27,17,172,38,28,37,085,44,29,20,046,42,31,59,067,47*7F
###2023-12-09 13:36:41.021763$GLGSV,2,1,06,65,39,317,44,71,22,175,41,72,62,220,46,73,22,052,45*6D
###2023-12-09 13:36:41.023887$GLGSV,2,2,06,74,59,015,43,75,44,272,48,,,,,,,,*66
###2023-12-09 13:36:41.026738$GAGSV,1,1,04,04,40,310,43,19,71,181,40,21,76,045,46,27,22,050,40*6E
###2023-12-09 13:36:41.029561$GBGSV,2,1,07,12,16,125,40,14,28,189,41,24,62,047,48,25,52,277,48*60
###2023-12-09 13:36:41.032025$GBGSV,2,2,07,26,15,071,43,33,44,216,48,35,16,055,44,,,,*55
###2023-12-09 13:36:41.033626$GNVTG,126.95,T,,M,0.49,N,0.90,K,A*2E
###2023-12-09 13:36:41.035585$GNGST,183640.10,5.500,,,,0.086,0.064,0.140*67
###2023-12-09 13:36:41.037131$GNZDA,183640.10,09,12,2023,00,00*78
###2023-12-09 13:36:41.037894$GNEBP,,,,,,M*13
###2023-12-09 13:36:41.201500$GNGGA,183640.30,4138.0441677,N,07032.4012892,W,1,26,0.6,13.480,M,-29.745,M,0.0,*52
###2023-12-09 13:36:41.399301$GNGGA,183640.50,4138.0441409,N,07032.4012734,W,1,26,0.6,13.481,M,-29.745,M,0.0,*5D
###2023-12-09 13:36:41.598527$GNGGA,183640.70,4138.0441085,N,07032.4012660,W,1,26,0.6,13.486,M,-29.745,M,0.0,*58
###2023-12-09 13:36:41.797308$GNGGA,183640.90,4138.0440830,N,07032.4012549,W,1,27,0.6,13.489,M,-29.745,M,0.0,*57
###2023-12-09 13:36:42.001029$GNRMC,183641.10,A,4138.0440646,N,07032.4012406,W,0.41,126.95,091223,,,A*54
###2023-12-09 13:36:42.003898$GNGGA,183641.10,4138.0440646,N,07032.4012406,W,1,27,0.6,13.475,M,-29.745,M,0.0,*58
###2023-12-09 13:36:42.005754$GPGSA,A,3,03,04,16,26,27,28,29,31,,,,,1.0,0.6,0.8*3F
###2023-12-09 13:36:42.007533$GLGSA,A,3,65,71,72,73,74,75,83,,,,,,1.0,0.6,0.8*2F
###2023-12-09 13:36:42.009105$GAGSA,A,3,04,19,21,27,,,,,,,,,1.0,0.6,0.8*26
###2023-12-09 13:36:42.010877$GBGSA,A,3,12,14,24,25,26,33,35,,,,,,1.0,0.6,0.8*2A
###2023-12-09 13:36:42.013190$GPGSV,2,1,08,03,26,246,43,04,47,307,44,16,67,223,46,26,83,040,48*71
###2023-12-09 13:36:42.015514$GPGSV,2,2,08,27,17,172,38,28,37,085,44,29,20,046,43,31,59,067,47*7E
###2023-12-09 13:36:42.017837$GLGSV,2,1,07,65,39,317,45,71,22,175,40,72,62,220,46,73,22,052,44*6D
###2023-12-09 13:36:42.019873$GLGSV,2,2,07,74,59,015,44,75,44,272,49,83,15,047,35,,,,*5B
###2023-12-09 13:36:42.022179$GAGSV,1,1,04,04,40,310,44,19,71,181,41,21,76,045,47,27,22,050,41*68
###2023-12-09 13:36:42.024516$GBGSV,2,1,07,12,16,125,39,14,28,189,39,24,62,047,47,25,52,277,47*61
###2023-12-09 13:36:42.026548$GBGSV,2,2,07,26,15,071,43,33,44,216,44,35,16,055,43,,,,*5E
###2023-12-09 13:36:42.027880$GNVTG,126.95,T,,M,0.41,N,0.76,K,A*2E
###2023-12-09 13:36:42.029490$GNGST,183641.10,5.700,,,,0.086,0.064,0.140*64
###2023-12-09 13:36:42.030791$GNZDA,183641.10,09,12,2023,00,00*79
###2023-12-09 13:36:42.031432$GNEBP,,,,,,M*13
###2023-12-09 13:36:42.199745$GNGGA,183641.30,4138.0440387,N,07032.4012292,W,1,27,0.6,13.473,M,-29.745,M,0.0,*5F
###2023-12-09 13:36:42.398208$GNGGA,183641.50,4138.0440097,N,07032.4012259,W,1,27,0.6,13.475,M,-29.745,M,0.0,*5A
###2023-12-09 13:36:42.597616$GNGGA,183641.70,4138.0439865,N,07032.4012222,W,1,27,0.6,13.480,M,-29.745,M,0.0,*55
###2023-12-09 13:36:42.798847$GNGGA,183641.90,4138.0439639,N,07032.4012156,W,1,27,0.6,13.477,M,-29.745,M,0.0,*54
###2023-12-09 13:36:43.000341$GNRMC,183642.10,A,4138.0439376,N,07032.4012106,W,0.51,126.95,091223,,,A*5B
###2023-12-09 13:36:43.003216$GNGGA,183642.10,4138.0439376,N,07032.4012106,W,1,27,0.6,13.474,M,-29.745,M,0.0,*57
###2023-12-09 13:36:43.005070$GPGSA,A,3,03,04,16,26,27,28,29,31,,,,,1.0,0.6,0.8*3F
###2023-12-09 13:36:43.006855$GLGSA,A,3,65,71,72,73,74,75,83,,,,,,1.0,0.6,0.8*2F
###2023-12-09 13:36:43.008430$GAGSA,A,3,04,19,21,27,,,,,,,,,1.0,0.6,0.8*26
###2023-12-09 13:36:43.010190$GBGSA,A,3,12,14,24,25,26,33,35,,,,,,1.0,0.6,0.8*2A
###2023-12-09 13:36:43.012520$GPGSV,2,1,08,03,26,246,42,04,47,307,45,16,67,223,47,26,83,040,48*70
###2023-12-09 13:36:43.014853$GPGSV,2,2,08,27,17,172,37,28,37,085,45,29,20,046,43,31,59,067,47*70
###2023-12-09 13:36:43.017426$GLGSV,2,1,07,65,39,317,45,71,22,175,40,72,62,220,46,73,22,052,44*6D
###2023-12-09 13:36:43.019498$GLGSV,2,2,07,74,59,015,44,75,44,272,49,83,15,047,35,,,,*5B
###2023-12-09 13:36:43.021834$GAGSV,1,1,04,04,40,310,44,19,71,181,41,21,76,045,46,27,22,050,42*6A
###2023-12-09 13:36:43.024172$GBGSV,2,1,07,12,16,125,40,14,28,189,40,24,62,047,48,25,52,277,48*61
###2023-12-09 13:36:43.026204$GBGSV,2,2,07,26,15,071,44,33,44,216,45,35,16,055,44,,,,*5F
###2023-12-09 13:36:43.027540$GNVTG,126.95,T,,M,0.51,N,0.94,K,A*23
###2023-12-09 13:36:43.029155$GNGST,183642.10,6.000,,,,0.087,0.064,0.140*62
###2023-12-09 13:36:43.030440$GNZDA,183642.10,09,12,2023,00,00*7A
###2023-12-09 13:36:43.031087$GNEBP,,,,,,M*13
###2023-12-09 13:36:43.198053$GNGGA,183642.30,4138.0439134,N,07032.4012088,W,1,27,0.6,13.474,M,-29.745,M,0.0,*56
