###2023-12-09 13:24:25.018416$GNEBP,,,,,,M*13
###2023-12-09 13:24:25.185049$GNGGA,182424.30,4138.0698841,N,07032.3889918,W,1,24,0.6,13.015,M,-29.744,M,0.0,*5B
###2023-12-09 13:24:25.384806$GNGGA,182424.50,4138.0697221,N,07032.3889065,W,1,24,0.6,13.010,M,-29.744,M,0.0,*58
###2023-12-09 13:24:25.585501$GNGGA,182424.70,4138.0695858,N,07032.3887980,W,1,24,0.6,12.993,M,-29.744,M,0.0,*53
###2023-12-09 13:24:25.785440$GNGGA,182424.90,4138.0694589,N,07032.3886616,W,1,24,0.6,13.012,M,-29.744,M,0.0,*5D
###2023-12-09 13:24:25.988470$GNRMC,182425.10,A,4138.0693353,N,07032.3885222,W,2.84,138.53,091223,,,A*57
###2023-12-09 13:24:25.991346$GNGGA,182425.10,4138.0693353,N,07032.3885222,W,1,24,0.6,13.004,M,-29.744,M,0.0,*55
###2023-12-09 13:24:25.993132$GPGSA,A,3,03,04,16,26,28,29,31,,,,,,1.1,0.6,0.9*3A
###2023-12-09 13:24:25.994859$GLGSA,A,3,65,71,72,73,74,75,,,,,,,1.1,0.6,0.9*24
###2023-12-09 13:24:25.996439$GAGSA,A,3,04,19,21,27,,,,,,,,,1.1,0.6,0.9*26
###2023-12-09 13:24:25.998141$GBGSA,A,3,14,24,25,26,33,35,,,,,,,1.1,0.6,0.9*29
###2023-12-09 13:24:26.000470$GPGSV,2,1,07,03,30,251,41,04,42,310,45,16,61,218,46,26,89,050,48*7A
###2023-12-09 13:24:26.002509$GPGSV,2,2,07,28,41,080,45,29,22,051,43,31,63,058,47,,,,*49
###2023-12-09 13:24:26.004854$GLGSV,2,1,06,65,34,323,44,71,29,175,43,72,68,232,47,73,27,049,45*69
###2023-12-09 13:24:26.006641$GLGSV,2,2,06,74,63,004,43,75,40,265,46,,,,,,,,*63
###2023-12-09 13:24:26.008963$GAGSV,1,1,04,04,36,311,44,19,76,185,40,21,80,051,46,27,26,049,42*68
###2023-12-09 13:24:26.011299$GBGSV,2,1,06,14,33,190,41,24,66,040,49,25,47,271,47,26,19,068,45*69
###2023-12-09 13:24:26.013041$GBGSV,2,2,06,33,50,221,48,35,16,061,45,,,,,,,,*62
###2023-12-09 13:24:26.014359$GNVTG,138.53,T,,M,2.84,N,5.26,K,A*20
###2023-12-09 13:24:26.016019$GNGST,182425.10,18.000,,,,0.100,0.071,0.170*56
###2023-12-09 13:24:26.017311$GNZDA,182425.10,09,12,2023,00,00*78
###2023-12-09 13:24:26.017946$GNEBP,,,,,,M*13
###2023-12-09 13:24:26.184802$GNGGA,182425.30,4138.0692196,N,07032.3883725,W,1,24,0.6,12.997,M,-29.744,M,0.0,*5B
###2023-12-09 13:24:26.384659$GNGGA,182425.50,4138.0690959,N,07032.3882237,W,1,24,0.6,13.009,M,-29.744,M,0.0,*5C
###2023-12-09 13:24:26.585389$GNGGA,182425.70,4138.0689783,N,07032.3880694,W,1,24,0.6,13.014,M,-29.744,M,0.0,*5C
###2023-12-09 13:24:26.784271$GNGGA,182425.90,4138.0688857,N,07032.3878824,W,1,24,0.6,13.012,M,-29.744,M,0.0,*51
###2023-12-09 13:24:26.989245$GNRMC,182426.10,A,4138.0688067,N,07032.3877034,W,2.78,119.45,091223,,,A*55
###2023-12-09 13:24:26.992127$GNGGA,182426.10,4138.0688067,N,07032.3877034,W,1,24,0.6,12.994,M,-29.744,M,0.0,*51
###2023-12-09 13:24:26.993917$GPGSA,A,3,03,04,16,26,28,29,31,,,,,,1.1,0.6,0.9*3A
###2023-12-09 13:24:26.995633$GLGSA,A,3,65,71,72,73,74,75,,,,,,,1.1,0.6,0.9*24
###2023-12-09 13:24:26.997209$GAGSA,A,3,04,19,21,27,,,,,,,,,1.1,0.6,0.9*26
###2023-12-09 13:24:26.998927$GBGSA,A,3,14,24,25,26,33,35,,,,,,,1.1,0.6,0.9*29
###2023-12-09 13:24:27.001242$GPGSV,2,1,07,03,30,251,41,04,42,310,44,16,61,218,46,26,89,050,48*7B
###2023-12-09 13:24:27.003288$GPGSV,2,2,07,28,41,080,44,29,22,051,44,31,63,058,47,,,,*4F
###2023-12-09 13:24:27.005613$GLGSV,2,1,06,65,34,323,44,71,29,175,42,72,68,232,46,73,27,049,45*69
###2023-12-09 13:24:27.007370$GLGSV,2,2,06,74,63,004,43,75,40,265,47,,,,,,,,*62
###2023-12-09 13:24:27.009684$GAGSV,1,1,04,04,36,311,43,19,76,185,40,21,80,051,45,27,26,049,43*6D
###2023-12-09 13:24:27.012014$GBGSV,2,1,06,14,33,190,41,24,66,040,48,25,47,271,47,26,19,068,44*69
###2023-12-09 13:24:27.013761$GBGSV,2,2,06,33,50,221,48,35,16,061,45,,,,,,,,*62
###2023-12-09 13:24:27.015096$GNVTG,119.45,T,,M,2.78,N,5.15,K,A*27
###2023-12-09 13:24:27.016737$GNGST,182426.10,18.000,,,,0.100,0.071,0.160*54
###2023-12-09 13:24:27.018023$GNZDA,182426.10,09,12,2023,00,00*7B
###2023-12-09 13:24:27.018672$GNEBP,,,,,,M*13
###2023-12-09 13:24:27.189108$GNGGA,182426.30,4138.0687231,N,07032.3875197,W,1,24,0.6,13.019,M,-29.744,M,0.0,*5A
###2023-12-09 13:24:27.384528$GNGGA,182426.50,4138.0686268,N,07032.3873260,W,1,24,0.6,13.021,M,-29.744,M,0.0,*57
###2023-12-09 13:24:27.585206$GNGGA,182426.70,4138.0685582,N,07032.3871284,W,1,24,0.6,13.006,M,-29.744,M,0.0,*58
###2023-12-09 13:24:27.786469$GNGGA,182426.90,4138.0685214,N,07032.3869317,W,1,24,0.6,13.024,M,-29.744,M,0.0,*5C
###2023-12-09 13:24:27.990181$GNRMC,182427.10,A,4138.0684803,N,07032.3867179,W,3.01,106.47,091223,,,A*58
###2023-12-09 13:24:27.993075$GNGGA,182427.10,4138.0684803,N,07032.3867179,W,1,24,0.6,13.030,M,-29.744,M,0.0,*59
###2023-12-09 13:24:27.994884$GPGSA,A,3,03,04,16,26,28,29,31,,,,,,1.1,0.6,0.9*3A
###2023-12-09 13:24:27.996593$GLGSA,A,3,65,71,72,73,74,75,,,,,,,1.1,0.6,0.9*24
###2023-12-09 13:24:27.998170$GAGSA,A,3,04,19,21,27,,,,,,,,,1.1,0.6,0.9*26
###2023-12-09 13:24:27.999892$GBGSA,A,3,14,24,25,26,33,35,,,,,,,1.1,0.6,0.9*29
###2023-12-09 13:24:28.002205$GPGSV,2,1,07,03,30,251,42,04,42,310,45,16,61,218,47,26,89,050,48*78
###2023-12-09 13:24:28.004257$GPGSV,2,2,07,28,41,080,44,29,22,051,42,31,63,058,47,,,,*49
###2023-12-09 13:24:28.006607$GLGSV,2,1,06,65,34,323,42,71,29,175,44,72,68,232,46,73,27,049,44*68
###2023-12-09 13:24:28.008348$GLGSV,2,2,06,74,63,004,42,75,40,265,47,,,,,,,,*63
###2023-12-09 13:24:28.010674$GAGSV,1,1,04,04,36,311,43,19,76,185,41,21,80,051,46,27,26,049,41*6D
###2023-12-09 13:24:28.012996$GBGSV,2,1,06,14,33,190,41,24,66,040,47,25,47,271,46,26,19,068,40*63
###2023-12-09 13:24:28.014749$GBGSV,2,2,06,33,50,221,46,35,16,061,41,,,,,,,,*68
###2023-12-09 13:24:28.016073$GNVTG,106.47,T,,M,3.01,N,5.58,K,A*2D
###2023-12-09 13:24:28.017730$GNGST,182427.10,18.000,,,,0.100,0.071,0.170*54
###2023-12-09 13:24:28.019031$GNZDA,182427.10,09,12,2023,00,00*7A
###2023-12-09 13:24:28.019668$GNEBP,,,,,,M*13
###2023-12-09 13:24:28.185187$GNGGA,182427.30,4138.0684318,N,07032.3865198,W,1,24,0.6,13.007,M,-29.744,M,0.0,*53
###2023-12-09 13:24:28.386039$GNGGA,182427.50,4138.0684018,N,07032.3863162,W,1,24,0.6,13.030,M,-29.744,M,0.0,*51
###2023-12-09 13:24:28.584394$GNGGA,182427.70,4138.0683742,N,07032.3860956,W,1,24,0.6,13.025,M,-29.744,M,0.0,*54
###2023-12-09 13:24:28.785358$GNGGA,182427.90,4138.0683463,N,07032.3858925,W,1,24,0.6,13.006,M,-29.744,M,0.0,*54
###2023-12-09 13:24:28.990298$GNRMC,182428.10,A,4138.0683090,N,07032.3856785,W,3.17,104.48,091223,,,A*5F
###2023-12-09 13:24:28.993190$GNGGA,182428.10,4138.0683090,N,07032.3856785,W,1,24,0.6,13.038,M,-29.744,M,0.0,*5C
###2023-12-09 13:24:28.994990$GPGSA,A,3,03,04,16,26,28,29,31,,,,,,1.1,0.6,0.9*3A
###2023-12-09 13:24:28.996700$GLGSA,A,3,65,71,72,73,74,75,,,,,,,1.1,0.6,0.9*24
###2023-12-09 13:24:28.998273$GAGSA,A,3,04,19,21,27,,,,,,,,,1.1,0.6,0.9*26
###2023-12-09 13:24:28.999993$GBGSA,A,3,14,24,25,26,33,35,,,,,,,1.1,0.6,0.9*29
###2023-12-09 13:24:29.002304$GPGSV,2,1,07,03,30,251,43,04,42,310,44,16,61,218,47,26,89,050,48*78
###2023-12-09 13:24:29.004346$GPGSV,2,2,07,28,41,080,44,29,22,051,42,31,63,058,47,,,,*49
###2023-12-09 13:24:29.006678$GLGSV,2,1,06,65,34,323,42,71,29,175,45,72,68,232,47,73,27,049,42*6E
###2023-12-09 13:24:29.008413$GLGSV,2,2,06,74,63,004,42,75,40,265,48,,,,,,,,*6C
###2023-12-09 13:24:29.010737$GAGSV,1,1,04,04,36,311,42,19,76,185,39,21,80,051,45,27,26,049,42*63
###2023-12-09 13:24:29.013052$GBGSV,2,1,06,14,33,190,43,24,66,041,48,25,47,271,47,26,19,068,41*6F
###2023-12-09 13:24:29.014795$GBGSV,2,2,06,33,50,221,49,35,16,061,43,,,,,,,,*65
###2023-12-09 13:24:29.016113$GNVTG,104.48,T,,M,3.17,N,5.87,K,A*25
###2023-12-09 13:24:29.017753$GNGST,182428.10,18.000,,,,0.100,0.071,0.160*5A
###2023-12-09 13:24:29.019047$GNZDA,182428.10,09,12,2023,00,00*75
###2023-12-09 13:24:29.019686$GNEBP,,,,,,M*13
###2023-12-09 13:24:29.186177$GNGGA,182428.30,4138.0682646,N,07032.3854535,W,1,24,0.6,13.025,M,-29.744,M,0.0,*55
###2023-12-09 13:24:29.384353$GNGGA,182428.50,4138.0682242,N,07032.3852390,W,1,24,0.6,13.012,M,-29.744,M,0.0,*58
###2023-12-09 13:24:29.584590$GNGGA,182428.70,4138.0681837,N,07032.3850160,W,1,24,0.6,13.031,M,-29.744,M,0.0,*5F
###2023-12-09 13:24:29.785265$GNGGA,182428.90,4138.0681284,N,07032.3847949,W,1,24,0.6,13.033,M,-29.744,M,0.0,*54
###2023-12-09 13:24:29.989337$GNRMC,182429.10,A,4138.0680487,N,07032.3845812,W,3.05,116.85,091223,,,A*5D
###2023-12-09 13:24:29.992461$GNGGA,182429.10,4138.0680487,N,07032.3845812,W,1,24,0.6,13.027,M,-29.744,M,0.0,*51
###2023-12-09 13:24:29.994260$GPGSA,A,3,03,04,16,26,28,29,31,,,,,,1.1,0.6,0.9*3A
###2023-12-09 13:24:29.995995$GLGSA,A,3,65,71,72,73,74,75,,,,,,,1.1,0.6,0.9*24
###2023-12-09 13:24:29.997571$GAGSA,A,3,04,19,21,27,,,,,,,,,1.1,0.6,0.9*26
###2023-12-09 13:24:29.999290$GBGSA,A,3,14,24,25,26,33,35,,,,,,,1.1,0.6,0.9*29
###2023-12-09 13:24:30.001609$GPGSV,2,1,07,03,30,251,42,04,42,310,42,16,61,218,47,26,89,050,48*7F
###2023-12-09 13:24:30.003648$GPGSV,2,2,07,28,41,080,44,29,22,051,43,31,63,058,47,,,,*48
###2023-12-09 13:24:30.005956$GLGSV,2,1,06,65,34,323,42,71,29,175,42,72,68,232,47,73,27,049,43*68
###2023-12-09 13:24:30.007705$GLGSV,2,2,06,74,63,004,43,75,40,265,47,,,,,,,,*62
###2023-12-09 13:24:30.010007$GAGSV,1,1,04,04,36,311,44,19,76,185,40,21,80,051,45,27,26,049,42*6B
