###2023-12-09 13:23:33.015125$GLGSV,2,1,06,65,34,323,41,71,29,175,43,72,68,232,47,73,27,049,39*67
###2023-12-09 13:23:33.016914$GLGSV,2,2,06,74,63,004,41,75,40,265,47,,,,,,,,*60
###2023-12-09 13:23:33.019271$GAGSV,1,1,04,04,36,311,42,19,77,186,41,21,81,054,46,27,26,049,37*6B
###2023-12-09 13:23:33.021603$GBGSV,2,1,06,14,34,191,42,24,66,040,46,25,47,271,46,26,19,068,41*66
###2023-12-09 13:23:33.023367$GBGSV,2,2,06,33,50,221,46,35,16,061,40,,,,,,,,*69
###2023-12-09 13:23:33.024659$GNVTG,15.23,T,,M,2.99,N,5.54,K,A*10
###2023-12-09 13:23:33.026299$GNGST,182332.10,18.000,,,,0.100,0.072,0.170*54
###2023-12-09 13:23:33.027610$GNZDA,182332.10,09,12,2023,00,00*79
###2023-12-09 13:23:33.028249$GNEBP,,,,,,M*13
###2023-12-09 13:23:33.191927$GNGGA,182332.30,4138.0358497,N,07032.3793473,W,1,24,0.7,12.895,M,-29.745,M,0.0,*50
###2023-12-09 13:23:33.387658$GNGGA,182332.50,4138.0360101,N,07032.3793055,W,1,24,0.7,12.889,M,-29.745,M,0.0,*5A
###2023-12-09 13:23:33.588476$GNGGA,182332.70,4138.0361710,N,07032.3792531,W,1,24,0.7,12.889,M,-29.745,M,0.0,*59
###2023-12-09 13:23:33.788352$GNGGA,182332.90,4138.0363348,N,07032.3791997,W,1,24,0.7,12.890,M,-29.745,M,0.0,*57
###2023-12-09 13:23:33.992410$GNRMC,182333.10,A,4138.0365033,N,07032.3791521,W,3.11,9.49,091223,,,A*55
###2023-12-09 13:23:33.995282$GNGGA,182333.10,4138.0365033,N,07032.3791521,W,1,24,0.7,12.880,M,-29.745,M,0.0,*57
###2023-12-09 13:23:33.997078$GPGSA,A,3,03,04,16,26,28,29,31,,,,,,1.1,0.7,0.9*3B
###2023-12-09 13:23:33.998811$GLGSA,A,3,65,71,72,73,74,75,,,,,,,1.1,0.7,0.9*25
###2023-12-09 13:23:34.000398$GAGSA,A,3,04,19,21,27,,,,,,,,,1.1,0.7,0.9*27
###2023-12-09 13:23:34.002119$GBGSA,A,3,14,24,25,26,33,35,,,,,,,1.1,0.7,0.9*28
###2023-12-09 13:23:34.004506$GPGSV,2,1,07,03,30,251,42,04,42,310,44,16,61,218,46,26,89,050,48*78
###2023-12-09 13:23:34.006574$GPGSV,2,2,07,28,41,080,45,29,22,051,38,31,63,058,46,,,,*44
###2023-12-09 13:23:34.008919$GLGSV,2,1,06,65,34,323,42,71,29,175,43,72,68,232,47,73,27,049,39*64
###2023-12-09 13:23:34.010684$GLGSV,2,2,06,74,63,004,41,75,40,265,47,,,,,,,,*60
###2023-12-09 13:23:34.013021$GAGSV,1,1,04,04,36,311,43,19,77,186,40,21,81,054,45,27,26,049,36*69
###2023-12-09 13:23:34.015374$GBGSV,2,1,06,14,34,191,43,24,66,040,47,25,47,271,46,26,19,068,42*65
###2023-12-09 13:23:34.017129$GBGSV,2,2,06,33,50,221,46,35,16,061,41,,,,,,,,*68
###2023-12-09 13:23:34.018390$GNVTG,9.49,T,,M,3.11,N,5.76,K,A*20
###2023-12-09 13:23:34.020052$GNGST,182333.10,18.000,,,,0.100,0.072,0.170*55
###2023-12-09 13:23:34.021346$GNZDA,182333.10,09,12,2023,00,00*78
###2023-12-09 13:23:34.021987$GNEBP,,,,,,M*13
###2023-12-09 13:23:34.186998$GNGGA,182333.30,4138.0366746,N,07032.3791171,W,1,24,0.7,12.879,M,-29.745,M,0.0,*54
###2023-12-09 13:23:34.387698$GNGGA,182333.50,4138.0368471,N,07032.3790788,W,1,24,0.7,12.888,M,-29.745,M,0.0,*54
###2023-12-09 13:23:34.586345$GNGGA,182333.70,4138.0370220,N,07032.3790327,W,1,24,0.7,12.883,M,-29.745,M,0.0,*57
###2023-12-09 13:23:34.787526$GNGGA,182333.90,4138.0371978,N,07032.3789845,W,1,24,0.7,12.863,M,-29.745,M,0.0,*57
###2023-12-09 13:23:34.992561$GNRMC,182334.10,A,4138.0373694,N,07032.3789639,W,3.11,359.10,091223,,,A*57
###2023-12-09 13:23:34.995441$GNGGA,182334.10,4138.0373694,N,07032.3789639,W,1,24,0.7,12.849,M,-29.745,M,0.0,*5A
###2023-12-09 13:23:34.997234$GPGSA,A,3,03,04,16,26,28,29,31,,,,,,1.1,0.7,0.9*3B
###2023-12-09 13:23:34.998959$GLGSA,A,3,65,71,72,73,74,75,,,,,,,1.1,0.7,0.9*25
###2023-12-09 13:23:35.000547$GAGSA,A,3,04,19,21,27,,,,,,,,,1.1,0.7,0.9*27
###2023-12-09 13:23:35.002257$GBGSA,A,3,14,24,25,26,33,35,,,,,,,1.1,0.7,0.9*28
###2023-12-09 13:23:35.004605$GPGSV,2,1,07,03,30,251,41,04,42,310,44,16,61,218,46,26,89,050,48*7B
###2023-12-09 13:23:35.006666$GPGSV,2,2,07,28,41,080,44,29,22,051,41,31,63,058,46,,,,*4B
###2023-12-09 13:23:35.009000$GLGSV,2,1,06,65,34,323,42,71,29,175,42,72,68,232,47,73,27,049,40*6B
###2023-12-09 13:23:35.010758$GLGSV,2,2,06,74,63,004,41,75,40,265,47,,,,,,,,*60
###2023-12-09 13:23:35.013085$GAGSV,1,1,04,04,36,311,42,19,77,186,40,21,81,054,45,27,26,049,39*67
###2023-12-09 13:23:35.015434$GBGSV,2,1,06,14,34,191,44,24,66,040,47,25,47,271,47,26,19,068,43*62
###2023-12-09 13:23:35.017184$GBGSV,2,2,06,33,50,221,47,35,16,061,43,,,,,,,,*6B
###2023-12-09 13:23:35.018514$GNVTG,359.10,T,,M,3.11,N,5.76,K,A*2A
###2023-12-09 13:23:35.020171$GNGST,182334.10,18.000,,,,0.100,0.072,0.170*52
###2023-12-09 13:23:35.021467$GNZDA,182334.10,09,12,2023,00,00*7F
###2023-12-09 13:23:35.022111$GNEBP,,,,,,M*13
###2023-12-09 13:23:35.188385$GNGGA,182334.30,4138.0375444,N,07032.3789731,W,1,24,0.7,12.861,M,-29.745,M,0.0,*52
###2023-12-09 13:23:35.387797$GNGGA,182334.50,4138.0377241,N,07032.3789446,W,1,24,0.7,12.867,M,-29.745,M,0.0,*50
###2023-12-09 13:23:35.589311$GNGGA,182334.70,4138.0379002,N,07032.3789257,W,1,24,0.7,12.869,M,-29.745,M,0.0,*51
###2023-12-09 13:23:35.787519$GNGGA,182334.90,4138.0380733,N,07032.3789467,W,1,24,0.7,12.874,M,-29.745,M,0.0,*55
###2023-12-09 13:23:35.991650$GNRMC,182335.10,A,4138.0382445,N,07032.3789746,W,3.05,352.47,091223,,,A*53
###2023-12-09 13:23:35.994517$GNGGA,182335.10,4138.0382445,N,07032.3789746,W,1,24,0.7,12.862,M,-29.745,M,0.0,*5B
###2023-12-09 13:23:35.996337$GPGSA,A,3,03,04,16,26,28,29,31,,,,,,1.1,0.7,0.9*3B
###2023-12-09 13:23:35.998061$GLGSA,A,3,65,71,72,73,74,75,,,,,,,1.1,0.7,0.9*25
###2023-12-09 13:23:35.999665$GAGSA,A,3,04,19,21,27,,,,,,,,,1.1,0.7,0.9*27
###2023-12-09 13:23:36.001383$GBGSA,A,3,14,24,25,26,33,35,,,,,,,1.1,0.7,0.9*28
###2023-12-09 13:23:36.003736$GPGSV,2,1,07,03,30,251,43,04,42,310,44,16,61,218,47,26,89,050,48*78
###2023-12-09 13:23:36.005784$GPGSV,2,2,07,28,41,080,45,29,22,051,40,31,63,058,47,,,,*4A
###2023-12-09 13:23:36.008135$GLGSV,2,1,06,65,34,323,39,71,29,175,45,72,68,232,46,73,27,049,41*60
###2023-12-09 13:23:36.009885$GLGSV,2,2,06,74,63,004,41,75,40,265,47,,,,,,,,*60
###2023-12-09 13:23:36.012222$GAGSV,1,1,04,04,36,311,42,19,77,186,40,21,81,054,45,27,26,049,39*67
###2023-12-09 13:23:36.014552$GBGSV,2,1,06,14,34,191,43,24,66,040,48,25,47,271,47,26,19,068,45*6C
###2023-12-09 13:23:36.016305$GBGSV,2,2,06,33,50,221,47,35,16,061,43,,,,,,,,*6B
###2023-12-09 13:23:36.017627$GNVTG,352.47,T,,M,3.05,N,5.65,K,A*24
###2023-12-09 13:23:36.019320$GNGST,182335.10,18.000,,,,0.100,0.072,0.170*53
###2023-12-09 13:23:36.020616$GNZDA,182335.10,09,12,2023,00,00*7E
###2023-12-09 13:23:36.021254$GNEBP,,,,,,M*13
###2023-12-09 13:23:36.190975$GNGGA,182335.30,4138.0384069,N,07032.3790132,W,1,24,0.7,12.859,M,-29.745,M,0.0,*50
###2023-12-09 13:23:36.386746$GNGGA,182335.50,4138.0385677,N,07032.3790583,W,1,24,0.7,12.866,M,-29.745,M,0.0,*5C
###2023-12-09 13:23:36.588432$GNGGA,182335.70,4138.0387273,N,07032.3791097,W,1,24,0.7,12.856,M,-29.745,M,0.0,*5E
###2023-12-09 13:23:36.788576$GNGGA,182335.90,4138.0388799,N,07032.3791885,W,1,24,0.7,12.861,M,-29.745,M,0.0,*51
###2023-12-09 13:23:36.993210$GNRMC,182336.10,A,4138.0390395,N,07032.3792689,W,3.15,341.78,091223,,,A*5E
###2023-12-09 13:23:36.996106$GNGGA,182336.10,4138.0390395,N,07032.3792689,W,1,24,0.7,12.865,M,-29.745,M,0.0,*5E
###2023-12-09 13:23:36.997893$GPGSA,A,3,03,04,16,26,28,29,31,,,,,,1.1,0.7,0.9*3B
###2023-12-09 13:23:36.999624$GLGSA,A,3,65,71,72,73,74,75,,,,,,,1.1,0.7,0.9*25
###2023-12-09 13:23:37.001196$GAGSA,A,3,04,19,21,27,,,,,,,,,1.1,0.7,0.9*27
###2023-12-09 13:23:37.002921$GBGSA,A,3,14,24,25,26,33,35,,,,,,,1.1,0.7,0.9*28
###2023-12-09 13:23:37.005242$GPGSV,2,1,07,03,30,251,43,04,42,310,44,16,61,218,47,26,89,050,48*78
###2023-12-09 13:23:37.007285$GPGSV,2,2,07,28,41,080,45,29,22,051,42,31,63,058,47,,,,*48
###2023-12-09 13:23:37.009607$GLGSV,2,1,06,65,34,323,41,71,29,175,44,72,68,232,46,73,27,049,42*6D
###2023-12-09 13:23:37.011359$GLGSV,2,2,06,74,63,004,41,75,40,265,47,,,,,,,,*60
###2023-12-09 13:23:37.013675$GAGSV,1,1,04,04,36,311,43,19,77,186,40,21,81,054,46,27,26,049,40*6B
###2023-12-09 13:23:37.016007$GBGSV,2,1,06,14,34,191,43,24,66,040,48,25,47,271,46,26,19,068,42*6A
###2023-12-09 13:23:37.017747$GBGSV,2,2,06,33,50,221,47,35,16,061,41,,,,,,,,*69
###2023-12-09 13:23:37.019075$GNVTG,341.78,T,,M,3.15,N,5.83,K,A*23
###2023-12-09 13:23:37.020715$GNGST,182336.10,18.000,,,,0.100,0.072,0.170*50
###2023-12-09 13:23:37.022241$GNZDA,182336.10,09,12,2023,00,00*7D
###2023-12-09 13:23:37.022905$GNEBP,,,,,,M*13
###2023-12-09 13:23:37.187011$GNGGA,182336.30,4138.0392113,N,07032.3793234,W,1,24,0.7,12.869,M,-29.745,M,0.0,*5D
###2023-12-09 13:23:37.387673$GNGGA,182336.50,4138.0393914,N,07032.3793698,W,1,24,0.7,12.877,M,-29.745,M,0.0,*58
###2023-12-09 13:23:37.587266$GNGGA,182336.70,4138.0395791,N,07032.3794259,W,1,24,0.7,12.876,M,-29.745,M,0.0,*50
###2023-12-09 13:23:37.788959$GNGGA,182336.90,4138.0397710,N,07032.3794735,W,1,24,0.7,12.879,M,-29.745,M,0.0,*55
###2023-12-09 13:23:37.990908$GNRMC,182337.10,A,4138.0399670,N,07032.3794798,W,3.50,4.63,091223,,,A*56
###2023-12-09 13:23:37.993781$GNGGA,182337.10,4138.0399670,N,07032.3794798,W,1,24,0.7,12.875,M,-29.745,M,0.0,*5E
###2023-12-09 13:23:37.995595$GPGSA,A,3,03,04,16,26,28,29,31,,,,,,1.1,0.7,0.9*3B
