###2023-12-09 13:39:06.035191$GNZDA,183905.10,09,12,2023,00,00*76
###2023-12-09 13:39:06.035852$GNEBP,,,,,,M*13
###2023-12-09 13:39:06.204154$GNGGA,183905.30,4138.0707978,N,07032.3866774,W,1,25,0.6,13.309,M,-29.744,M,0.0,*52
###2023-12-09 13:39:06.401688$GNGGA,183905.50,4138.0708713,N,07032.3864952,W,1,25,0.6,13.329,M,-29.744,M,0.0,*52
###2023-12-09 13:39:06.601503$GNGGA,183905.70,4138.0708910,N,07032.3862869,W,1,25,0.6,13.332,M,-29.744,M,0.0,*58
###2023-12-09 13:39:06.803563$GNGGA,183905.90,4138.0708696,N,07032.3860954,W,1,26,0.6,13.308,M,-29.744,M,0.0,*50
###2023-12-09 13:39:07.004502$GNRMC,183906.10,A,4138.0708918,N,07032.3859378,W,2.27,60.89,091223,,,A*61
###2023-12-09 13:39:07.007378$GNGGA,183906.10,4138.0708918,N,07032.3859378,W,1,25,0.6,13.322,M,-29.744,M,0.0,*57
###2023-12-09 13:39:07.009238$GPGSA,A,3,03,04,16,26,27,28,29,31,,,,,1.1,0.6,0.9*3F
###2023-12-09 13:39:07.010967$GLGSA,A,3,65,71,72,73,74,75,,,,,,,1.1,0.6,0.9*24
###2023-12-09 13:39:07.012556$GAGSA,A,3,04,19,21,27,,,,,,,,,1.1,0.6,0.9*26
###2023-12-09 13:39:07.014263$GBGSA,A,3,12,14,24,25,33,35,,,,,,,1.1,0.6,0.9*2E
###2023-12-09 13:39:07.016608$GPGSV,2,1,08,03,25,244,43,04,48,306,43,16,68,224,47,26,82,040,47*7E
###2023-12-09 13:39:07.018967$GPGSV,2,2,08,27,18,172,44,28,37,086,42,29,20,046,39,31,58,068,46*7D
###2023-12-09 13:39:07.021315$GLGSV,2,1,06,65,40,316,41,71,20,176,46,72,60,217,47,73,20,054,41*66
###2023-12-09 13:39:07.023074$GLGSV,2,2,06,74,58,018,40,75,45,275,47,,,,,,,,*60
###2023-12-09 13:39:07.025410$GAGSV,1,1,04,04,41,309,42,19,70,181,42,21,75,045,44,27,21,050,39*69
###2023-12-09 13:39:07.027754$GBGSV,2,1,06,12,17,125,41,14,27,189,45,24,61,048,48,25,52,278,46*67
###2023-12-09 13:39:07.029502$GBGSV,2,2,06,33,44,215,48,35,16,055,42,,,,,,,,*60
###2023-12-09 13:39:07.030807$GNVTG,60.89,T,,M,2.27,N,4.21,K,A*14
###2023-12-09 13:39:07.032422$GNGST,183906.10,4.900,,,,0.092,0.068,0.160*6C
###2023-12-09 13:39:07.033710$GNZDA,183906.10,09,12,2023,00,00*75
###2023-12-09 13:39:07.034345$GNEBP,,,,,,M*13
###2023-12-09 13:39:07.204777$GNGGA,183906.30,4138.0709619,N,07032.3857837,W,1,26,0.6,13.350,M,-29.744,M,0.0,*52
###2023-12-09 13:39:07.401616$GNGGA,183906.50,4138.0709847,N,07032.3856191,W,1,26,0.6,13.319,M,-29.744,M,0.0,*58
###2023-12-09 13:39:07.602536$GNGGA,183906.70,4138.0709637,N,07032.3854870,W,1,26,0.6,13.315,M,-29.744,M,0.0,*5B
###2023-12-09 13:39:07.802234$GNGGA,183906.90,4138.0709780,N,07032.3853535,W,1,25,0.6,13.348,M,-29.744,M,0.0,*58
###2023-12-09 13:39:08.006422$GNRMC,183907.10,A,4138.0710235,N,07032.3852140,W,1.94,68.60,091223,,,A*6B
###2023-12-09 13:39:08.009293$GNGGA,183907.10,4138.0710235,N,07032.3852140,W,1,25,0.6,13.340,M,-29.744,M,0.0,*5D
###2023-12-09 13:39:08.011152$GPGSA,A,3,03,04,16,26,27,28,29,31,,,,,1.0,0.6,0.8*3F
###2023-12-09 13:39:08.012859$GLGSA,A,3,65,71,72,73,74,75,,,,,,,1.0,0.6,0.8*24
###2023-12-09 13:39:08.014430$GAGSA,A,3,04,19,21,27,,,,,,,,,1.0,0.6,0.8*26
###2023-12-09 13:39:08.016157$GBGSA,A,3,12,14,24,25,33,35,,,,,,,1.0,0.6,0.8*2E
###2023-12-09 13:39:08.018471$GPGSV,2,1,08,03,25,244,43,04,48,306,47,16,68,224,48,26,82,040,50*73
###2023-12-09 13:39:08.020813$GPGSV,2,2,08,27,18,172,44,28,37,086,44,29,20,046,44,31,58,068,47*70
###2023-12-09 13:39:08.023152$GLGSV,2,1,06,65,40,316,44,71,20,176,43,72,60,217,47,73,20,054,42*65
###2023-12-09 13:39:08.024904$GLGSV,2,2,06,74,58,018,42,75,45,275,47,,,,,,,,*62
###2023-12-09 13:39:08.027234$GAGSV,1,1,04,04,41,309,47,19,70,181,44,21,75,045,48,27,21,050,42*6A
###2023-12-09 13:39:08.029557$GBGSV,2,1,06,12,17,125,39,14,27,189,41,24,61,048,47,25,52,278,48*6D
###2023-12-09 13:39:08.031311$GBGSV,2,2,06,33,44,215,47,35,16,055,43,,,,,,,,*6E
###2023-12-09 13:39:08.032601$GNVTG,68.60,T,,M,1.94,N,3.60,K,A*12
###2023-12-09 13:39:08.034207$GNGST,183907.10,6.000,,,,0.091,0.068,0.160*65
###2023-12-09 13:39:08.035506$GNZDA,183907.10,09,12,2023,00,00*74
###2023-12-09 13:39:08.036141$GNEBP,,,,,,M*13
###2023-12-09 13:39:08.202744$GNGGA,183907.30,4138.0710467,N,07032.3850904,W,1,26,0.6,13.312,M,-29.744,M,0.0,*50
###2023-12-09 13:39:08.401602$GNGGA,183907.50,4138.0710429,N,07032.3849732,W,1,26,0.6,13.327,M,-29.744,M,0.0,*59
###2023-12-09 13:39:08.601581$GNGGA,183907.70,4138.0710430,N,07032.3848503,W,1,26,0.6,13.342,M,-29.744,M,0.0,*51
###2023-12-09 13:39:08.802462$GNGGA,183907.90,4138.0710634,N,07032.3847293,W,1,26,0.6,13.333,M,-29.744,M,0.0,*5E
###2023-12-09 13:39:09.012911$GNRMC,183908.10,A,4138.0710882,N,07032.3846221,W,1.34,70.43,091223,,,A*61
###2023-12-09 13:39:09.015782$GNGGA,183908.10,4138.0710882,N,07032.3846221,W,1,26,0.6,13.316,M,-29.744,M,0.0,*55
###2023-12-09 13:39:09.017638$GPGSA,A,3,03,04,16,26,27,28,29,31,,,,,1.0,0.6,0.8*3F
###2023-12-09 13:39:09.019428$GLGSA,A,3,65,71,72,73,74,75,83,,,,,,1.0,0.6,0.8*2F
###2023-12-09 13:39:09.021012$GAGSA,A,3,04,19,21,27,,,,,,,,,1.0,0.6,0.8*26
###2023-12-09 13:39:09.022741$GBGSA,A,3,12,14,24,25,33,35,,,,,,,1.0,0.6,0.8*2E
###2023-12-09 13:39:09.025065$GPGSV,2,1,08,03,25,244,42,04,48,306,46,16,68,224,47,26,82,040,49*74
###2023-12-09 13:39:09.027411$GPGSV,2,2,08,27,18,172,42,28,37,086,43,29,20,046,45,31,58,068,46*71
###2023-12-09 13:39:09.029741$GLGSV,2,1,07,65,40,316,44,71,20,176,43,72,60,217,47,73,20,054,41*67
###2023-12-09 13:39:09.031788$GLGSV,2,2,07,74,58,018,42,75,45,275,48,83,16,045,35,,,,*57
###2023-12-09 13:39:09.034110$GAGSV,1,1,04,04,41,309,43,19,70,181,43,21,75,045,46,27,21,050,42*67
###2023-12-09 13:39:09.036456$GBGSV,2,1,06,12,17,125,39,14,27,189,41,24,61,048,47,25,52,278,47*62
###2023-12-09 13:39:09.038187$GBGSV,2,2,06,33,44,215,48,35,16,055,43,,,,,,,,*61
###2023-12-09 13:39:09.039488$GNVTG,70.43,T,,M,1.34,N,2.48,K,A*1B
###2023-12-09 13:39:09.041107$GNGST,183908.10,5.600,,,,0.090,0.068,0.160*6E
###2023-12-09 13:39:09.042399$GNZDA,183908.10,09,12,2023,00,00*7B
###2023-12-09 13:39:09.043051$GNEBP,,,,,,M*13
###2023-12-09 13:39:09.209449$GNGGA,183908.30,4138.0711027,N,07032.3845228,W,1,26,0.6,13.318,M,-29.744,M,0.0,*55
###2023-12-09 13:39:09.400699$GNGGA,183908.50,4138.0711030,N,07032.3844122,W,1,26,0.6,13.332,M,-29.744,M,0.0,*55
###2023-12-09 13:39:09.600497$GNGGA,183908.70,4138.0711036,N,07032.3843065,W,1,26,0.6,13.331,M,-29.744,M,0.0,*57
###2023-12-09 13:39:09.802346$GNGGA,183908.90,4138.0711190,N,07032.3842114,W,1,26,0.6,13.316,M,-29.744,M,0.0,*57
###2023-12-09 13:39:10.003820$GNRMC,183909.10,A,4138.0711350,N,07032.3840991,W,1.63,83.13,091223,,,A*68
###2023-12-09 13:39:10.006714$GNGGA,183909.10,4138.0711350,N,07032.3840991,W,1,26,0.6,13.313,M,-29.744,M,0.0,*52
###2023-12-09 13:39:10.008565$GPGSA,A,3,03,04,16,26,27,28,29,31,,,,,1.0,0.6,0.8*3F
###2023-12-09 13:39:10.010345$GLGSA,A,3,65,71,72,73,74,75,83,,,,,,1.0,0.6,0.8*2F
###2023-12-09 13:39:10.011944$GAGSA,A,3,04,19,21,27,,,,,,,,,1.0,0.6,0.8*26
###2023-12-09 13:39:10.013658$GBGSA,A,3,12,14,24,25,33,35,,,,,,,1.0,0.6,0.8*2E
###2023-12-09 13:39:10.015993$GPGSV,2,1,08,03,25,244,40,04,48,306,46,16,68,224,46,26,82,040,48*76
###2023-12-09 13:39:10.018329$GPGSV,2,2,08,27,18,172,41,28,37,086,42,29,20,046,44,31,58,068,46*72
###2023-12-09 13:39:10.020668$GLGSV,2,1,07,65,40,316,44,71,20,176,44,72,60,217,47,73,20,054,43*62
###2023-12-09 13:39:10.022721$GLGSV,2,2,07,74,58,018,42,75,45,275,46,83,16,045,35,,,,*59
###2023-12-09 13:39:10.025050$GAGSV,1,1,04,04,41,309,43,19,70,181,41,21,75,045,45,27,21,050,42*66
###2023-12-09 13:39:10.027386$GBGSV,2,1,06,12,17,125,37,14,27,189,41,24,61,048,46,25,52,278,46*6C
###2023-12-09 13:39:10.029127$GBGSV,2,2,06,33,44,215,47,35,16,055,43,,,,,,,,*6E
###2023-12-09 13:39:10.030420$GNVTG,83.13,T,,M,1.63,N,3.02,K,A*1F
###2023-12-09 13:39:10.032044$GNGST,183909.10,5.900,,,,0.089,0.068,0.160*68
###2023-12-09 13:39:10.033344$GNZDA,183909.10,09,12,2023,00,00*7A
###2023-12-09 13:39:10.033979$GNEBP,,,,,,M*13
###2023-12-09 13:39:10.200440$GNGGA,183909.30,4138.0711373,N,07032.3839674,W,1,26,0.6,13.323,M,-29.744,M,0.0,*58
###2023-12-09 13:39:10.399690$GNGGA,183909.50,4138.0711344,N,07032.3838387,W,1,26,0.6,13.327,M,-29.744,M,0.0,*56
###2023-12-09 13:39:10.598422$GNGGA,183909.70,4138.0711197,N,07032.3837000,W,1,26,0.6,13.329,M,-29.744,M,0.0,*55
###2023-12-09 13:39:10.800323$GNGGA,183909.90,4138.0710952,N,07032.3835544,W,1,26,0.6,13.324,M,-29.744,M,0.0,*51
###2023-12-09 13:39:11.003881$GNRMC,183910.10,A,4138.0710844,N,07032.3834064,W,2.10,95.02,091223,,,A*6F
###2023-12-09 13:39:11.006759$GNGGA,183910.10,4138.0710844,N,07032.3834064,W,1,26,0.6,13.327,M,-29.744,M,0.0,*52
###2023-12-09 13:39:11.008625$GPGSA,A,3,03,04,16,26,27,28,29,31,,,,,1.0,0.6,0.8*3F
###2023-12-09 13:39:11.010402$GLGSA,A,3,65,71,72,73,74,75,83,,,,,,1.0,0.6,0.8*2F
###2023-12-09 13:39:11.012001$GAGSA,A,3,04,19,21,27,,,,,,,,,1.0,0.6,0.8*26
###2023-12-09 13:39:11.013709$GBGSA,A,3,12,14,24,25,33,35,,,,,,,1.0,0.6,0.8*2E
###2023-12-09 13:39:11.016047$GPGSV,2,1,08,03,25,244,41,04,48,306,44,16,68,224,47,26,82,040,48*74
###2023-12-09 13:39:11.018367$GPGSV,2,2,08,27,18,172,41,28,37,086,42,29,20,046,43,31,58,068,46*75
###2023-12-09 13:39:11.020701$GLGSV,2,1,07,65,40,316,42,71,20,176,42,72,60,217,46,73,20,054,44*64
###2023-12-09 13:39:11.022751$GLGSV,2,2,07,74,58,018,43,75,45,275,48,83,16,045,35,,,,*56
