###2023-12-09 13:27:55.002841$GPGSV,2,1,06,04,43,309,44,16,63,220,47,26,87,041,49,28,40,082,45*72
###2023-12-09 13:27:55.004629$GPGSV,2,2,06,29,22,049,43,31,61,061,47,,,,,,,,*7F
###2023-12-09 13:27:55.006978$GLGSV,2,1,06,65,35,321,44,71,26,175,36,72,66,227,45,73,25,050,41*61
###2023-12-09 13:27:55.008728$GLGSV,2,2,06,74,62,008,43,75,41,267,45,,,,,,,,*6E
###2023-12-09 13:27:55.011053$GAGSV,1,1,04,04,38,311,44,19,75,184,40,21,80,050,46,27,25,049,40*64
###2023-12-09 13:27:55.013364$GBGSV,2,1,06,14,32,190,38,24,65,042,50,25,49,273,45,26,18,069,46*62
###2023-12-09 13:27:55.015113$GBGSV,2,2,06,33,48,220,48,35,16,059,46,,,,,,,,*62
###2023-12-09 13:27:55.016433$GNVTG,265.76,T,,M,0.02,N,0.04,K,A*25
###2023-12-09 13:27:55.018043$GNGST,182754.10,5.800,,,,0.130,0.081,0.200*6F
###2023-12-09 13:27:55.019351$GNZDA,182754.10,09,12,2023,00,00*7D
###2023-12-09 13:27:55.019987$GNEBP,,,,,,M*13
###2023-12-09 13:27:55.185161$GNGGA,182754.30,4138.0405501,N,07032.4302825,W,1,22,0.7,13.129,M,-29.745,M,0.0,*58
###2023-12-09 13:27:55.385405$GNGGA,182754.50,4138.0405507,N,07032.4302831,W,1,22,0.7,13.129,M,-29.745,M,0.0,*5D
###2023-12-09 13:27:55.583358$GNGGA,182754.70,4138.0405504,N,07032.4302839,W,1,22,0.7,13.130,M,-29.745,M,0.0,*5C
###2023-12-09 13:27:55.785397$GNGGA,182754.90,4138.0405503,N,07032.4302829,W,1,22,0.7,13.131,M,-29.745,M,0.0,*55
###2023-12-09 13:27:55.992787$GNRMC,182755.10,A,4138.0405491,N,07032.4302816,W,0.04,265.76,091223,,,A*5F
###2023-12-09 13:27:55.995667$GNGGA,182755.10,4138.0405491,N,07032.4302816,W,1,22,0.7,13.136,M,-29.745,M,0.0,*5D
###2023-12-09 13:27:55.997395$GPGSA,A,3,04,16,26,28,29,31,,,,,,,1.2,0.7,1.0*33
###2023-12-09 13:27:55.999115$GLGSA,A,3,65,71,72,73,74,75,,,,,,,1.2,0.7,1.0*2E
###2023-12-09 13:27:56.000691$GAGSA,A,3,04,19,21,27,,,,,,,,,1.2,0.7,1.0*2C
###2023-12-09 13:27:56.002395$GBGSA,A,3,14,24,25,26,33,35,,,,,,,1.2,0.7,1.0*23
###2023-12-09 13:27:56.004739$GPGSV,2,1,06,04,43,309,44,16,63,220,46,26,87,041,49,28,40,082,45*73
###2023-12-09 13:27:56.006485$GPGSV,2,2,06,29,22,049,43,31,61,061,47,,,,,,,,*7F
###2023-12-09 13:27:56.008820$GLGSV,2,1,06,65,35,321,44,71,26,175,36,72,66,227,45,73,25,050,41*61
###2023-12-09 13:27:56.010576$GLGSV,2,2,06,74,62,008,43,75,41,267,45,,,,,,,,*6E
###2023-12-09 13:27:56.012902$GAGSV,1,1,04,04,38,311,44,19,75,184,41,21,80,050,46,27,25,049,40*65
###2023-12-09 13:27:56.015238$GBGSV,2,1,06,14,32,190,37,24,65,042,49,25,49,273,45,26,18,069,45*66
###2023-12-09 13:27:56.016976$GBGSV,2,2,06,33,48,220,46,35,16,059,45,,,,,,,,*6F
###2023-12-09 13:27:56.018296$GNVTG,265.76,T,,M,0.04,N,0.07,K,A*20
###2023-12-09 13:27:56.019924$GNGST,182755.10,7.900,,,,0.130,0.082,0.200*6E
###2023-12-09 13:27:56.021219$GNZDA,182755.10,09,12,2023,00,00*7C
###2023-12-09 13:27:56.021858$GNEBP,,,,,,M*13
###2023-12-09 13:27:56.185544$GNGGA,182755.30,4138.0405478,N,07032.4302810,W,1,22,0.7,13.131,M,-29.745,M,0.0,*59
###2023-12-09 13:27:56.384199$GNGGA,182755.50,4138.0405479,N,07032.4302807,W,1,22,0.7,13.134,M,-29.745,M,0.0,*5D
###2023-12-09 13:27:56.584688$GNGGA,182755.70,4138.0405503,N,07032.4302822,W,1,22,0.7,13.140,M,-29.745,M,0.0,*57
###2023-12-09 13:27:56.785390$GNGGA,182755.90,4138.0405516,N,07032.4302817,W,1,22,0.7,13.142,M,-29.745,M,0.0,*59
###2023-12-09 13:27:56.997397$GNRMC,182756.10,A,4138.0405539,N,07032.4302830,W,0.06,265.76,091223,,,A*59
###2023-12-09 13:27:57.000298$GNGGA,182756.10,4138.0405539,N,07032.4302830,W,1,22,0.7,13.135,M,-29.745,M,0.0,*5A
###2023-12-09 13:27:57.002033$GPGSA,A,3,04,16,26,28,29,31,,,,,,,1.2,0.7,1.0*33
###2023-12-09 13:27:57.003772$GLGSA,A,3,65,71,72,73,74,75,,,,,,,1.2,0.7,1.0*2E
###2023-12-09 13:27:57.005361$GAGSA,A,3,04,19,21,27,,,,,,,,,1.2,0.7,1.0*2C
###2023-12-09 13:27:57.007094$GBGSA,A,3,14,24,25,26,33,35,,,,,,,1.2,0.7,1.0*23
###2023-12-09 13:27:57.009422$GPGSV,2,1,06,04,43,309,44,16,63,220,45,26,87,041,48,28,40,082,45*71
###2023-12-09 13:27:57.011178$GPGSV,2,2,06,29,22,049,42,31,61,061,47,,,,,,,,*7E
###2023-12-09 13:27:57.013506$GLGSV,2,1,06,65,35,321,44,71,26,175,35,72,66,227,45,73,25,050,41*62
###2023-12-09 13:27:57.015262$GLGSV,2,2,06,74,62,008,42,75,41,267,44,,,,,,,,*6E
###2023-12-09 13:27:57.017588$GAGSV,1,1,04,04,38,311,44,19,75,184,41,21,80,050,46,27,25,049,40*65
###2023-12-09 13:27:57.019930$GBGSV,2,1,06,14,32,190,37,24,65,042,48,25,49,273,44,26,18,069,43*60
###2023-12-09 13:27:57.021678$GBGSV,2,2,06,33,48,220,46,35,16,059,44,,,,,,,,*6E
###2023-12-09 13:27:57.023010$GNVTG,265.76,T,,M,0.06,N,0.11,K,A*25
###2023-12-09 13:27:57.024656$GNGST,182756.10,19.000,,,,0.130,0.083,0.200*5A
###2023-12-09 13:27:57.025944$GNZDA,182756.10,09,12,2023,00,00*7F
###2023-12-09 13:27:57.026593$GNEBP,,,,,,M*13
###2023-12-09 13:27:57.188116$GNGGA,182756.30,4138.0405544,N,07032.4302830,W,1,22,0.7,13.132,M,-29.745,M,0.0,*55
###2023-12-09 13:27:57.383074$GNGGA,182756.50,4138.0405561,N,07032.4302844,W,1,22,0.7,13.140,M,-29.745,M,0.0,*52
###2023-12-09 13:27:57.584831$GNGGA,182756.70,4138.0405579,N,07032.4302861,W,1,22,0.7,13.147,M,-29.745,M,0.0,*59
###2023-12-09 13:27:57.785483$GNGGA,182756.90,4138.0405665,N,07032.4302892,W,1,22,0.7,13.148,M,-29.745,M,0.0,*5A
###2023-12-09 13:27:57.989301$GNRMC,182757.10,A,4138.0405716,N,07032.4302915,W,0.10,265.76,091223,,,A*56
###2023-12-09 13:27:57.992176$GNGGA,182757.10,4138.0405716,N,07032.4302915,W,1,21,0.8,13.143,M,-29.745,M,0.0,*5F
###2023-12-09 13:27:57.993904$GPGSA,A,3,04,16,26,28,29,31,,,,,,,1.4,0.8,1.1*3B
###2023-12-09 13:27:57.995565$GLGSA,A,3,65,72,73,74,75,,,,,,,,1.4,0.8,1.1*20
###2023-12-09 13:27:57.997147$GAGSA,A,3,04,19,21,27,,,,,,,,,1.4,0.8,1.1*24
###2023-12-09 13:27:57.998871$GBGSA,A,3,14,24,25,26,33,35,,,,,,,1.4,0.8,1.1*2B
###2023-12-09 13:27:58.001203$GPGSV,2,1,06,04,43,309,44,16,63,220,44,26,87,041,48,28,40,082,45*70
###2023-12-09 13:27:58.002964$GPGSV,2,2,06,29,22,049,43,31,61,061,48,,,,,,,,*70
###2023-12-09 13:27:58.005297$GLGSV,2,1,05,65,35,321,44,72,66,227,45,73,25,050,41,74,62,008,43*6E
###2023-12-09 13:27:58.006758$GLGSV,2,2,05,75,41,267,45,,,,,,,,,,,,*55
###2023-12-09 13:27:58.009076$GAGSV,1,1,04,04,38,311,44,19,75,184,41,21,80,050,46,27,25,049,40*65
###2023-12-09 13:27:58.011406$GBGSV,2,1,06,14,32,190,37,24,65,042,48,25,49,273,45,26,18,069,44*66
###2023-12-09 13:27:58.013154$GBGSV,2,2,06,33,48,220,46,35,16,059,44,,,,,,,,*6E
###2023-12-09 13:27:58.014471$GNVTG,265.76,T,,M,0.10,N,0.18,K,A*2B
###2023-12-09 13:27:58.016091$GNGST,182757.10,5.600,,,,0.130,0.083,0.210*61
###2023-12-09 13:27:58.017377$GNZDA,182757.10,09,12,2023,00,00*7E
###2023-12-09 13:27:58.018011$GNEBP,,,,,,M*13
###2023-12-09 13:27:58.185335$GNGGA,182757.30,4138.0405732,N,07032.4302926,W,1,21,0.7,13.140,M,-29.745,M,0.0,*57
###2023-12-09 13:27:58.384449$GNGGA,182757.50,4138.0405765,N,07032.4302952,W,1,22,0.7,13.148,M,-29.745,M,0.0,*5B
###2023-12-09 13:27:58.584669$GNGGA,182757.70,4138.0405765,N,07032.4302959,W,1,22,0.7,13.158,M,-29.745,M,0.0,*53
###2023-12-09 13:27:58.785602$GNGGA,182757.90,4138.0405834,N,07032.4303010,W,1,22,0.7,13.156,M,-29.745,M,0.0,*5D
###2023-12-09 13:27:58.989634$GNRMC,182758.10,A,4138.0405849,N,07032.4302990,W,0.06,265.76,091223,,,A*56
###2023-12-09 13:27:58.992529$GNGGA,182758.10,4138.0405849,N,07032.4302990,W,1,22,0.7,13.155,M,-29.745,M,0.0,*53
###2023-12-09 13:27:58.994265$GPGSA,A,3,04,16,26,28,29,31,,,,,,,1.2,0.7,1.0*33
###2023-12-09 13:27:58.995988$GLGSA,A,3,65,71,72,73,74,75,,,,,,,1.2,0.7,1.0*2E
###2023-12-09 13:27:58.997573$GAGSA,A,3,04,19,21,27,,,,,,,,,1.2,0.7,1.0*2C
###2023-12-09 13:27:58.999291$GBGSA,A,3,14,24,25,26,33,35,,,,,,,1.2,0.7,1.0*23
###2023-12-09 13:27:59.001612$GPGSV,2,1,06,04,43,309,44,16,63,220,44,26,87,041,48,28,40,082,46*73
###2023-12-09 13:27:59.003370$GPGSV,2,2,06,29,22,049,43,31,61,061,47,,,,,,,,*7F
###2023-12-09 13:27:59.005706$GLGSV,2,1,06,65,35,321,44,71,26,175,37,72,66,227,45,73,25,050,42*63
###2023-12-09 13:27:59.007459$GLGSV,2,2,06,74,62,008,43,75,41,267,45,,,,,,,,*6E
###2023-12-09 13:27:59.009781$GAGSV,1,1,04,04,38,311,44,19,74,183,40,21,80,050,46,27,25,049,40*62
###2023-12-09 13:27:59.012125$GBGSV,2,1,06,14,32,190,39,24,65,042,50,25,49,273,47,26,18,069,46*61
###2023-12-09 13:27:59.013874$GBGSV,2,2,06,33,48,220,47,35,16,059,46,,,,,,,,*6D
###2023-12-09 13:27:59.015215$GNVTG,265.76,T,,M,0.06,N,0.11,K,A*25
###2023-12-09 13:27:59.017076$GNGST,182758.10,6.400,,,,0.130,0.082,0.210*6E
###2023-12-09 13:27:59.018382$GNZDA,182758.10,09,12,2023,00,00*71
###2023-12-09 13:27:59.019040$GNEBP,,,,,,M*13
###2023-12-09 13:27:59.184743$GNGGA,182758.30,4138.0405882,N,07032.4303018,W,1,22,0.7,13.156,M,-29.745,M,0.0,*5D
###2023-12-09 13:27:59.384924$GNGGA,182758.50,4138.0405936,N,07032.4303061,W,1,22,0.7,13.167,M,-29.745,M,0.0,*59
###2023-12-09 13:27:59.586554$GNGGA,182758.70,4138.0405977,N,07032.4303068,W,1,22,0.7,13.173,M,-29.745,M,0.0,*52
###2023-12-09 13:27:59.785856$GNGGA,182758.90,4138.0406113,N,07032.4302942,W,1,22,0.7,13.176,M,-29.745,M,0.0,*50
###2023-12-09 13:27:59.990844$GNRMC,182759.10,A,4138.0406290,N,07032.4302547,W,0.78,265.76,091223,,,A*55
