###2023-12-09 12:54:53.973011$GPGSV,2,2,08,28,52,067,46,29,25,064,45,31,70,029,47,32,22,138,41*73
###2023-12-09 12:54:53.975382$GLGSV,2,1,06,65,21,328,43,71,44,172,44,72,72,281,46,73,38,040,46*6C
###2023-12-09 12:54:53.977136$GLGSV,2,2,06,74,71,327,43,75,30,250,45,,,,,,,,*60
###2023-12-09 12:54:53.979483$GAGSV,1,1,04,04,27,312,40,19,85,242,40,21,84,147,46,27,35,048,43*6B
###2023-12-09 12:54:53.981819$GBGSV,2,1,05,14,46,194,43,24,75,018,48,25,39,260,46,26,28,061,45*63
###2023-12-09 12:54:53.983296$GBGSV,2,2,05,33,59,237,48,,,,,,,,,,,,*58
###2023-12-09 12:54:53.984628$GNVTG,159.79,T,,M,3.17,N,5.87,K,A*2F
###2023-12-09 12:54:53.986279$GNGST,175453.10,18.000,,,,0.081,0.066,0.160*50
###2023-12-09 12:54:53.987586$GNZDA,175453.10,09,12,2023,00,00*71
###2023-12-09 12:54:53.988224$GNEBP,,,,,,M*13
###2023-12-09 12:54:54.155657$GNGGA,175453.30,4138.0507636,N,07032.3928649,W,1,24,0.6,13.194,M,-29.745,M,0.0,*50
###2023-12-09 12:54:54.356246$GNGGA,175453.50,4138.0505832,N,07032.3927902,W,1,24,0.6,13.180,M,-29.745,M,0.0,*54
###2023-12-09 12:54:54.555782$GNGGA,175453.70,4138.0504115,N,07032.3927086,W,1,24,0.6,13.182,M,-29.745,M,0.0,*5C
###2023-12-09 12:54:54.756371$GNGGA,175453.90,4138.0502356,N,07032.3926193,W,1,24,0.6,13.189,M,-29.745,M,0.0,*5E
###2023-12-09 12:54:54.956993$GNRMC,175454.10,A,4138.0500684,N,07032.3925130,W,3.30,152.89,091223,,,A*51
###2023-12-09 12:54:54.959842$GNGGA,175454.10,4138.0500684,N,07032.3925130,W,1,24,0.6,13.177,M,-29.745,M,0.0,*52
###2023-12-09 12:54:54.961698$GPGSA,A,3,03,04,16,26,28,29,31,32,,,,,1.1,0.6,0.9*3B
###2023-12-09 12:54:54.963427$GLGSA,A,3,65,71,72,73,74,75,,,,,,,1.1,0.6,0.9*24
###2023-12-09 12:54:54.965013$GAGSA,A,3,04,19,21,27,,,,,,,,,1.1,0.6,0.9*26
###2023-12-09 12:54:54.966685$GBGSA,A,3,14,24,25,26,33,,,,,,,,1.1,0.6,0.9*2F
###2023-12-09 12:54:54.969000$GPGSV,2,1,08,03,36,266,44,04,29,311,42,16,46,211,45,26,76,209,47*77
###2023-12-09 12:54:54.971328$GPGSV,2,2,08,28,52,067,46,29,25,064,45,31,70,029,47,32,22,138,41*73
###2023-12-09 12:54:54.973648$GLGSV,2,1,06,65,21,328,41,71,44,172,45,72,72,281,45,73,38,040,47*6D
###2023-12-09 12:54:54.975399$GLGSV,2,2,06,74,71,327,43,75,30,250,44,,,,,,,,*61
###2023-12-09 12:54:54.977711$GAGSV,1,1,04,04,27,312,39,19,85,242,40,21,84,147,46,27,35,048,44*62
###2023-12-09 12:54:54.980037$GBGSV,2,1,05,14,46,194,44,24,75,018,49,25,39,260,48,26,28,061,46*68
###2023-12-09 12:54:54.981481$GBGSV,2,2,05,33,59,237,49,,,,,,,,,,,,*59
###2023-12-09 12:54:54.982807$GNVTG,152.89,T,,M,3.30,N,6.12,K,A*21
###2023-12-09 12:54:54.984445$GNGST,175454.10,18.000,,,,0.081,0.066,0.160*57
###2023-12-09 12:54:54.985729$GNZDA,175454.10,09,12,2023,00,00*76
###2023-12-09 12:54:54.986362$GNEBP,,,,,,M*13
###2023-12-09 12:54:55.154778$GNGGA,175454.30,4138.0499052,N,07032.3923975,W,1,24,0.6,13.172,M,-29.745,M,0.0,*56
###2023-12-09 12:54:55.357489$GNGGA,175454.50,4138.0497365,N,07032.3922862,W,1,24,0.6,13.182,M,-29.745,M,0.0,*50
###2023-12-09 12:54:55.554851$GNGGA,175454.70,4138.0495704,N,07032.3921655,W,1,24,0.6,13.182,M,-29.745,M,0.0,*5A
###2023-12-09 12:54:55.755732$GNGGA,175454.90,4138.0494155,N,07032.3920300,W,1,24,0.6,13.184,M,-29.745,M,0.0,*55
###2023-12-09 12:54:55.957063$GNRMC,175455.10,A,4138.0492563,N,07032.3918986,W,3.38,150.10,091223,,,A*51
###2023-12-09 12:54:55.959936$GNGGA,175455.10,4138.0492563,N,07032.3918986,W,1,24,0.6,13.188,M,-29.745,M,0.0,*58
###2023-12-09 12:54:55.961786$GPGSA,A,3,03,04,16,26,28,29,31,32,,,,,1.1,0.6,0.9*3B
###2023-12-09 12:54:55.963504$GLGSA,A,3,65,71,72,73,74,75,,,,,,,1.1,0.6,0.9*24
###2023-12-09 12:54:55.965083$GAGSA,A,3,04,19,21,27,,,,,,,,,1.1,0.6,0.9*26
###2023-12-09 12:54:55.966735$GBGSA,A,3,14,24,25,26,33,,,,,,,,1.1,0.6,0.9*2F
###2023-12-09 12:54:55.969056$GPGSV,2,1,08,03,36,266,44,04,29,311,42,16,46,211,46,26,76,209,48*7B
###2023-12-09 12:54:55.971392$GPGSV,2,2,08,28,52,067,46,29,25,064,44,31,70,029,47,32,22,138,41*72
###2023-12-09 12:54:55.973716$GLGSV,2,1,06,65,21,328,41,71,44,172,45,72,72,281,46,73,38,040,46*6F
###2023-12-09 12:54:55.975465$GLGSV,2,2,06,74,71,327,43,75,30,250,45,,,,,,,,*60
###2023-12-09 12:54:55.977783$GAGSV,1,1,04,04,27,312,40,19,85,242,40,21,84,147,46,27,35,048,44*6C
###2023-12-09 12:54:55.980127$GBGSV,2,1,05,14,46,194,44,24,75,018,48,25,39,260,47,26,28,061,44*64
###2023-12-09 12:54:55.981579$GBGSV,2,2,05,33,59,237,48,,,,,,,,,,,,*58
###2023-12-09 12:54:55.982910$GNVTG,150.10,T,,M,3.38,N,6.26,K,A*2C
###2023-12-09 12:54:55.984558$GNGST,175455.10,18.000,,,,0.080,0.066,0.160*57
###2023-12-09 12:54:55.985843$GNZDA,175455.10,09,12,2023,00,00*77
###2023-12-09 12:54:55.986479$GNEBP,,,,,,M*13
###2023-12-09 12:54:56.155532$GNGGA,175455.30,4138.0490902,N,07032.3917820,W,1,24,0.6,13.193,M,-29.745,M,0.0,*5B
###2023-12-09 12:54:56.355725$GNGGA,175455.50,4138.0489203,N,07032.3916641,W,1,24,0.6,13.190,M,-29.745,M,0.0,*54
###2023-12-09 12:54:56.555739$GNGGA,175455.70,4138.0487575,N,07032.3915566,W,1,24,0.6,13.191,M,-29.745,M,0.0,*5A
###2023-12-09 12:54:56.754671$GNGGA,175455.90,4138.0485810,N,07032.3914592,W,1,24,0.6,13.200,M,-29.745,M,0.0,*59
###2023-12-09 12:54:56.961105$GNRMC,175456.10,A,4138.0484116,N,07032.3913683,W,3.23,162.39,091223,,,A*52
###2023-12-09 12:54:56.963990$GNGGA,175456.10,4138.0484116,N,07032.3913683,W,1,24,0.6,13.183,M,-29.745,M,0.0,*50
###2023-12-09 12:54:56.965847$GPGSA,A,3,03,04,16,26,28,29,31,32,,,,,1.1,0.6,0.9*3B
###2023-12-09 12:54:56.967567$GLGSA,A,3,65,71,72,73,74,75,,,,,,,1.1,0.6,0.9*24
###2023-12-09 12:54:56.969137$GAGSA,A,3,04,19,21,27,,,,,,,,,1.1,0.6,0.9*26
###2023-12-09 12:54:56.970785$GBGSA,A,3,14,24,25,26,33,,,,,,,,1.1,0.6,0.9*2F
###2023-12-09 12:54:56.973102$GPGSV,2,1,08,03,36,266,45,04,29,311,42,16,46,211,44,26,76,209,47*77
###2023-12-09 12:54:56.975432$GPGSV,2,2,08,28,52,067,46,29,25,064,44,31,70,029,47,32,22,138,43*70
###2023-12-09 12:54:56.977752$GLGSV,2,1,06,65,21,328,41,71,44,172,44,72,72,281,46,73,38,040,46*6E
###2023-12-09 12:54:56.979505$GLGSV,2,2,06,74,71,327,43,75,30,250,44,,,,,,,,*61
###2023-12-09 12:54:56.981825$GAGSV,1,1,04,04,27,312,40,19,85,242,40,21,84,147,46,27,35,048,44*6C
###2023-12-09 12:54:56.984159$GBGSV,2,1,05,14,46,194,44,24,75,018,49,25,39,260,46,26,28,061,45*65
###2023-12-09 12:54:56.985609$GBGSV,2,2,05,33,59,237,48,,,,,,,,,,,,*58
###2023-12-09 12:54:56.986932$GNVTG,162.39,T,,M,3.23,N,5.98,K,A*2A
###2023-12-09 12:54:56.988569$GNGST,175456.10,18.000,,,,0.080,0.066,0.160*54
###2023-12-09 12:54:56.989851$GNZDA,175456.10,09,12,2023,00,00*74
###2023-12-09 12:54:56.990485$GNEBP,,,,,,M*13
###2023-12-09 12:54:57.155612$GNGGA,175456.30,4138.0482370,N,07032.3913130,W,1,24,0.6,13.211,M,-29.745,M,0.0,*51
###2023-12-09 12:54:57.355978$GNGGA,175456.50,4138.0480537,N,07032.3912501,W,1,24,0.6,13.213,M,-29.745,M,0.0,*55
###2023-12-09 12:54:57.555231$GNGGA,175456.70,4138.0478836,N,07032.3911801,W,1,24,0.6,13.187,M,-29.745,M,0.0,*5C
###2023-12-09 12:54:57.757753$GNGGA,175456.90,4138.0477081,N,07032.3911308,W,1,24,0.6,13.214,M,-29.745,M,0.0,*52
###2023-12-09 12:54:57.954557$GNRMC,175457.10,A,4138.0475155,N,07032.3910909,W,3.52,166.91,091223,,,A*54
###2023-12-09 12:54:57.957419$GNGGA,175457.10,4138.0475155,N,07032.3910909,W,1,24,0.6,13.225,M,-29.745,M,0.0,*59
###2023-12-09 12:54:57.959294$GPGSA,A,3,03,04,16,26,28,29,31,32,,,,,1.1,0.6,0.9*3B
###2023-12-09 12:54:57.961006$GLGSA,A,3,65,71,72,73,74,75,,,,,,,1.1,0.6,0.9*24
###2023-12-09 12:54:57.962594$GAGSA,A,3,04,19,21,27,,,,,,,,,1.1,0.6,0.9*26
###2023-12-09 12:54:57.964232$GBGSA,A,3,14,24,25,26,33,,,,,,,,1.1,0.6,0.9*2F
###2023-12-09 12:54:57.966542$GPGSV,2,1,08,03,36,266,46,04,29,311,42,16,46,211,45,26,76,209,47*75
###2023-12-09 12:54:57.968880$GPGSV,2,2,08,28,52,067,45,29,25,064,44,31,70,029,47,32,22,138,42*72
###2023-12-09 12:54:57.971209$GLGSV,2,1,06,65,21,328,39,71,44,172,44,72,72,281,46,73,38,040,46*61
###2023-12-09 12:54:57.972949$GLGSV,2,2,06,74,71,327,43,75,30,250,45,,,,,,,,*60
###2023-12-09 12:54:57.975274$GAGSV,1,1,04,04,27,312,42,19,85,242,40,21,84,147,46,27,35,048,43*69
###2023-12-09 12:54:57.977592$GBGSV,2,1,05,14,46,194,44,24,75,018,48,25,39,260,47,26,28,061,45*65
###2023-12-09 12:54:57.979050$GBGSV,2,2,05,33,59,237,48,,,,,,,,,,,,*58
###2023-12-09 12:54:57.980363$GNVTG,166.91,T,,M,3.52,N,6.52,K,A*2F
###2023-12-09 12:54:57.982245$GNGST,175457.10,18.000,,,,0.080,0.066,0.160*55
###2023-12-09 12:54:57.983563$GNZDA,175457.10,09,12,2023,00,00*75
###2023-12-09 12:54:57.984202$GNEBP,,,,,,M*13
###2023-12-09 12:54:58.153709$GNGGA,175457.30,4138.0473417,N,07032.3910205,W,1,24,0.6,13.197,M,-29.745,M,0.0,*53
###2023-12-09 12:54:58.357672$GNGGA,175457.50,4138.0471723,N,07032.3909470,W,1,24,0.6,13.206,M,-29.745,M,0.0,*54
###2023-12-09 12:54:58.555276$GNGGA,175457.70,4138.0469854,N,07032.3908889,W,1,24,0.6,13.221,M,-29.745,M,0.0,*5E
###2023-12-09 12:54:58.754537$GNGGA,175457.90,4138.0468072,N,07032.3908219,W,1,24,0.6,13.202,M,-29.745,M,0.0,*5F
###2023-12-09 12:54:58.955414$GNRMC,175458.10,A,4138.0466403,N,07032.3907431,W,3.38,159.19,091223,,,A*5F
###2023-12-09 12:54:58.958286$GNGGA,175458.10,4138.0466403,N,07032.3907431,W,1,24,0.6,13.215,M,-29.745,M,0.0,*51
