###2023-12-09 13:28:18.993066$GPGSA,A,3,03,04,16,26,28,29,31,,,,,,1.3,0.7,1.0*31
###2023-12-09 13:28:18.994755$GLGSA,A,3,65,72,73,74,75,,,,,,,,1.3,0.7,1.0*29
###2023-12-09 13:28:18.996341$GAGSA,A,3,04,19,21,27,,,,,,,,,1.3,0.7,1.0*2D
###2023-12-09 13:28:18.998046$GBGSA,A,3,14,24,25,26,33,35,,,,,,,1.3,0.7,1.0*22
###2023-12-09 13:28:19.000383$GPGSV,2,1,07,03,28,249,38,04,43,309,45,16,63,220,48,26,87,041,49*75
###2023-12-09 13:28:19.002411$GPGSV,2,2,07,28,40,082,45,29,22,049,44,31,61,061,46,,,,*4D
###2023-12-09 13:28:19.004750$GLGSV,2,1,05,65,35,321,44,72,66,227,46,73,25,050,46,74,62,008,42*6B
###2023-12-09 13:28:19.006204$GLGSV,2,2,05,75,41,267,46,,,,,,,,,,,,*56
###2023-12-09 13:28:19.008581$GAGSV,1,1,04,04,38,311,45,19,74,183,41,21,79,049,46,27,24,049,43*6E
###2023-12-09 13:28:19.010905$GBGSV,2,1,06,14,32,190,36,24,65,042,47,25,49,273,47,26,18,069,44*6A
###2023-12-09 13:28:19.012630$GBGSV,2,2,06,33,48,220,47,35,16,059,44,,,,,,,,*6F
###2023-12-09 13:28:19.013935$GNVTG,151.85,T,,M,1.69,N,3.13,K,A*24
###2023-12-09 13:28:19.015580$GNGST,182818.10,18.000,,,,0.150,0.091,0.230*58
###2023-12-09 13:28:19.016856$GNZDA,182818.10,09,12,2023,00,00*7A
###2023-12-09 13:28:19.017487$GNEBP,,,,,,M*13
###2023-12-09 13:28:19.185581$GNGGA,182818.30,4138.0430172,N,07032.4284273,W,1,23,0.7,13.167,M,-29.745,M,0.0,*54
###2023-12-09 13:28:19.385829$GNGGA,182818.50,4138.0429413,N,07032.4283471,W,1,23,0.7,13.169,M,-29.745,M,0.0,*55
###2023-12-09 13:28:19.589330$GNGGA,182818.70,4138.0428591,N,07032.4282583,W,1,23,0.7,13.172,M,-29.745,M,0.0,*5A
###2023-12-09 13:28:19.786926$GNGGA,182818.90,4138.0427795,N,07032.4281513,W,1,23,0.7,13.160,M,-29.745,M,0.0,*54
###2023-12-09 13:28:19.988856$GNRMC,182819.10,A,4138.0427020,N,07032.4280351,W,2.04,130.37,091223,,,A*51
###2023-12-09 13:28:19.991720$GNGGA,182819.10,4138.0427020,N,07032.4280351,W,1,22,0.7,13.152,M,-29.745,M,0.0,*55
###2023-12-09 13:28:19.993511$GPGSA,A,3,03,04,16,26,28,29,31,,,,,,1.3,0.7,1.0*31
###2023-12-09 13:28:19.995166$GLGSA,A,3,65,72,73,74,75,,,,,,,,1.3,0.7,1.0*29
###2023-12-09 13:28:19.996754$GAGSA,A,3,04,19,21,27,,,,,,,,,1.3,0.7,1.0*2D
###2023-12-09 13:28:19.998466$GBGSA,A,3,14,24,25,26,33,35,,,,,,,1.3,0.7,1.0*22
###2023-12-09 13:28:20.000809$GPGSV,2,1,07,03,28,249,36,04,43,309,46,16,63,220,46,26,87,041,48*77
###2023-12-09 13:28:20.002873$GPGSV,2,2,07,28,40,082,45,29,22,049,44,31,61,061,46,,,,*4D
###2023-12-09 13:28:20.005209$GLGSV,2,1,05,65,35,321,44,72,66,227,46,73,25,050,44,74,62,008,42*69
###2023-12-09 13:28:20.006678$GLGSV,2,2,05,75,41,267,46,,,,,,,,,,,,*56
###2023-12-09 13:28:20.008995$GAGSV,1,1,04,04,38,311,44,19,74,183,41,21,79,049,45,27,24,049,42*6D
###2023-12-09 13:28:20.011333$GBGSV,2,1,06,14,32,190,40,24,65,042,48,25,49,273,47,26,18,069,44*64
###2023-12-09 13:28:20.013073$GBGSV,2,2,06,33,48,220,48,35,16,059,44,,,,,,,,*60
###2023-12-09 13:28:20.014391$GNVTG,130.37,T,,M,2.04,N,3.78,K,A*2F
###2023-12-09 13:28:20.016057$GNGST,182819.10,18.000,,,,0.150,0.091,0.230*59
###2023-12-09 13:28:20.017359$GNZDA,182819.10,09,12,2023,00,00*7B
###2023-12-09 13:28:20.017999$GNEBP,,,,,,M*13
###2023-12-09 13:28:20.186667$GNGGA,182819.30,4138.0426246,N,07032.4279168,W,1,22,0.7,13.163,M,-29.745,M,0.0,*58
###2023-12-09 13:28:20.384659$GNGGA,182819.50,4138.0425538,N,07032.4277783,W,1,21,0.8,13.166,M,-29.745,M,0.0,*57
###2023-12-09 13:28:20.586517$GNGGA,182819.70,4138.0424922,N,07032.4276276,W,1,21,0.8,13.166,M,-29.745,M,0.0,*5D
###2023-12-09 13:28:20.785823$GNGGA,182819.90,4138.0424356,N,07032.4274760,W,1,21,0.8,13.157,M,-29.745,M,0.0,*58
###2023-12-09 13:28:20.995787$GNRMC,182820.10,A,4138.0423809,N,07032.4273139,W,2.51,113.75,091223,,,A*5B
###2023-12-09 13:28:20.998656$GNGGA,182820.10,4138.0423809,N,07032.4273139,W,1,22,0.7,13.164,M,-29.745,M,0.0,*5D
###2023-12-09 13:28:21.000385$GPGSA,A,3,04,16,26,28,29,31,,,,,,,1.2,0.7,1.0*33
###2023-12-09 13:28:21.002031$GLGSA,A,3,65,72,73,74,75,,,,,,,,1.2,0.7,1.0*28
###2023-12-09 13:28:21.003624$GAGSA,A,3,04,19,21,27,,,,,,,,,1.2,0.7,1.0*2C
###2023-12-09 13:28:21.005335$GBGSA,A,3,14,24,25,26,33,35,,,,,,,1.2,0.7,1.0*23
###2023-12-09 13:28:21.007669$GPGSV,2,1,06,04,43,309,45,16,63,220,46,26,87,041,49,28,40,082,42*75
###2023-12-09 13:28:21.009413$GPGSV,2,2,06,29,22,049,44,31,61,061,47,,,,,,,,*78
###2023-12-09 13:28:21.011753$GLGSV,2,1,05,65,35,321,43,72,66,227,46,73,25,050,44,74,62,008,43*6F
###2023-12-09 13:28:21.013204$GLGSV,2,2,05,75,41,267,48,,,,,,,,,,,,*58
###2023-12-09 13:28:21.015535$GAGSV,1,1,04,04,38,311,43,19,74,183,41,21,79,049,46,27,24,049,42*69
###2023-12-09 13:28:21.017862$GBGSV,2,1,06,14,32,190,37,24,65,042,48,25,49,273,46,26,18,069,42*63
###2023-12-09 13:28:21.019616$GBGSV,2,2,06,33,48,220,47,35,16,059,42,,,,,,,,*69
###2023-12-09 13:28:21.020938$GNVTG,113.75,T,,M,2.51,N,4.64,K,A*22
###2023-12-09 13:28:21.022549$GNGST,182820.10,5.200,,,,0.150,0.092,0.230*6E
###2023-12-09 13:28:21.023851$GNZDA,182820.10,09,12,2023,00,00*71
###2023-12-09 13:28:21.024486$GNEBP,,,,,,M*13
###2023-12-09 13:28:21.191716$GNGGA,182820.30,4138.0423258,N,07032.4271375,W,1,22,0.7,13.179,M,-29.745,M,0.0,*55
###2023-12-09 13:28:21.384769$GNGGA,182820.50,4138.0422830,N,07032.4269611,W,1,22,0.7,13.176,M,-29.745,M,0.0,*57
###2023-12-09 13:28:21.586841$GNGGA,182820.70,4138.0422571,N,07032.4267764,W,1,23,0.7,13.184,M,-29.745,M,0.0,*5C
###2023-12-09 13:28:21.786905$GNGGA,182820.90,4138.0422357,N,07032.4265785,W,1,23,0.7,13.186,M,-29.745,M,0.0,*5F
###2023-12-09 13:28:21.987211$GNRMC,182821.10,A,4138.0422104,N,07032.4263817,W,2.60,99.34,091223,,,A*6F
###2023-12-09 13:28:21.990074$GNGGA,182821.10,4138.0422104,N,07032.4263817,W,1,22,0.7,13.179,M,-29.745,M,0.0,*51
###2023-12-09 13:28:21.991819$GPGSA,A,3,04,16,26,28,29,31,,,,,,,1.2,0.7,1.0*33
###2023-12-09 13:28:21.993542$GLGSA,A,3,65,71,72,73,74,75,,,,,,,1.2,0.7,1.0*2E
###2023-12-09 13:28:21.995148$GAGSA,A,3,04,19,21,27,,,,,,,,,1.2,0.7,1.0*2C
###2023-12-09 13:28:21.996871$GBGSA,A,3,14,24,25,26,33,35,,,,,,,1.2,0.7,1.0*23
###2023-12-09 13:28:21.999240$GPGSV,2,1,06,04,43,309,45,16,63,220,47,26,87,041,48,28,40,082,42*75
###2023-12-09 13:28:22.001011$GPGSV,2,2,06,29,22,049,41,31,61,061,46,,,,,,,,*7C
###2023-12-09 13:28:22.003405$GLGSV,2,1,06,65,35,321,42,71,26,175,38,72,66,227,47,73,25,050,40*6A
###2023-12-09 13:28:22.005165$GLGSV,2,2,06,74,62,008,43,75,41,267,47,,,,,,,,*6C
###2023-12-09 13:28:22.007514$GAGSV,1,1,04,04,38,311,44,19,74,183,41,21,79,049,45,27,24,049,40*6F
###2023-12-09 13:28:22.009858$GBGSV,2,1,06,14,31,190,43,24,65,042,49,25,49,273,47,26,18,069,42*63
###2023-12-09 13:28:22.011625$GBGSV,2,2,06,33,48,220,48,35,16,059,44,,,,,,,,*60
###2023-12-09 13:28:22.012920$GNVTG,99.34,T,,M,2.60,N,4.82,K,A*1E
###2023-12-09 13:28:22.014586$GNGST,182821.10,18.000,,,,0.150,0.092,0.240*56
###2023-12-09 13:28:22.015883$GNZDA,182821.10,09,12,2023,00,00*70
###2023-12-09 13:28:22.016525$GNEBP,,,,,,M*13
###2023-12-09 13:28:22.185685$GNGGA,182821.30,4138.0421972,N,07032.4261858,W,1,22,0.7,13.193,M,-29.745,M,0.0,*54
###2023-12-09 13:28:22.385462$GNGGA,182821.50,4138.0421913,N,07032.4259772,W,1,22,0.7,13.191,M,-29.745,M,0.0,*5B
###2023-12-09 13:28:22.583064$GNGGA,182821.70,4138.0421942,N,07032.4257761,W,1,21,0.8,13.166,M,-29.745,M,0.0,*55
###2023-12-09 13:28:22.784990$GNGGA,182821.90,4138.0422070,N,07032.4255904,W,1,22,0.7,13.184,M,-29.745,M,0.0,*5F
###2023-12-09 13:28:22.988581$GNRMC,182822.10,A,4138.0422115,N,07032.4253778,W,2.82,90.76,091223,,,A*6A
###2023-12-09 13:28:22.991456$GNGGA,182822.10,4138.0422115,N,07032.4253778,W,1,22,0.7,13.180,M,-29.745,M,0.0,*51
###2023-12-09 13:28:22.993182$GPGSA,A,3,04,16,26,28,29,31,,,,,,,1.2,0.7,1.0*33
###2023-12-09 13:28:22.994907$GLGSA,A,3,65,71,72,73,74,75,,,,,,,1.2,0.7,1.0*2E
###2023-12-09 13:28:22.996489$GAGSA,A,3,04,19,21,27,,,,,,,,,1.2,0.7,1.0*2C
###2023-12-09 13:28:22.998195$GBGSA,A,3,14,24,25,26,33,35,,,,,,,1.2,0.7,1.0*23
###2023-12-09 13:28:23.000535$GPGSV,2,1,06,04,43,309,45,16,63,220,47,26,87,041,49,28,40,082,43*75
###2023-12-09 13:28:23.002287$GPGSV,2,2,06,29,22,049,41,31,61,061,46,,,,,,,,*7C
###2023-12-09 13:28:23.004633$GLGSV,2,1,06,65,35,321,42,71,26,175,35,72,66,227,46,73,25,050,39*68
###2023-12-09 13:28:23.006383$GLGSV,2,2,06,74,62,008,42,75,41,267,47,,,,,,,,*6D
###2023-12-09 13:28:23.008951$GAGSV,1,1,04,04,38,311,42,19,74,183,41,21,79,049,46,27,24,049,37*6A
###2023-12-09 13:28:23.011325$GBGSV,2,1,06,14,31,190,43,24,65,042,47,25,49,273,45,26,18,069,41*6C
###2023-12-09 13:28:23.013085$GBGSV,2,2,06,33,48,220,48,35,16,059,42,,,,,,,,*66
###2023-12-09 13:28:23.014379$GNVTG,90.76,T,,M,2.82,N,5.22,K,A*16
###2023-12-09 13:28:23.016043$GNGST,182822.10,18.000,,,,0.150,0.093,0.240*54
###2023-12-09 13:28:23.017336$GNZDA,182822.10,09,12,2023,00,00*73
###2023-12-09 13:28:23.017978$GNEBP,,,,,,M*13
###2023-12-09 13:28:23.184793$GNGGA,182822.30,4138.0422211,N,07032.4251879,W,1,23,0.7,13.175,M,-29.745,M,0.0,*53
