###2023-12-09 13:36:43.398503$GNGGA,183642.50,4138.0438884,N,07032.4012121,W,1,27,0.6,13.480,M,-29.745,M,0.0,*5A
###2023-12-09 13:36:43.597495$GNGGA,183642.70,4138.0438622,N,07032.4012193,W,1,27,0.6,13.480,M,-29.745,M,0.0,*53
###2023-12-09 13:36:43.798102$GNGGA,183642.90,4138.0438383,N,07032.4012122,W,1,27,0.6,13.465,M,-29.745,M,0.0,*52
###2023-12-09 13:36:44.002051$GNRMC,183643.10,A,4138.0438165,N,07032.4012066,W,0.41,126.95,091223,,,A*5D
###2023-12-09 13:36:44.004939$GNGGA,183643.10,4138.0438165,N,07032.4012066,W,1,27,0.6,13.456,M,-29.745,M,0.0,*50
###2023-12-09 13:36:44.006810$GPGSA,A,3,03,04,16,26,27,28,29,31,,,,,1.0,0.6,0.8*3F
###2023-12-09 13:36:44.008590$GLGSA,A,3,65,71,72,73,74,75,83,,,,,,1.0,0.6,0.8*2F
###2023-12-09 13:36:44.010169$GAGSA,A,3,04,19,21,27,,,,,,,,,1.0,0.6,0.8*26
###2023-12-09 13:36:44.011952$GBGSA,A,3,12,14,24,25,26,33,35,,,,,,1.0,0.6,0.8*2A
###2023-12-09 13:36:44.014270$GPGSV,2,1,08,03,26,246,41,04,47,307,45,16,67,223,46,26,83,040,48*72
###2023-12-09 13:36:44.016589$GPGSV,2,2,08,27,17,172,37,28,37,085,44,29,20,046,42,31,59,067,46*71
###2023-12-09 13:36:44.018926$GLGSV,2,1,07,65,39,317,44,71,21,175,40,72,62,220,46,73,22,052,44*6F
###2023-12-09 13:36:44.020965$GLGSV,2,2,07,74,59,015,44,75,44,272,49,83,15,047,35,,,,*5B
###2023-12-09 13:36:44.023296$GAGSV,1,1,04,04,40,310,44,19,71,181,41,21,76,045,46,27,22,050,42*6A
###2023-12-09 13:36:44.025621$GBGSV,2,1,07,12,16,125,42,14,28,189,42,24,62,047,49,25,52,277,49*61
###2023-12-09 13:36:44.027663$GBGSV,2,2,07,26,15,071,43,33,44,216,44,35,16,055,44,,,,*59
###2023-12-09 13:36:44.028990$GNVTG,126.95,T,,M,0.41,N,0.76,K,A*2E
###2023-12-09 13:36:44.030613$GNGST,183643.10,5.600,,,,0.087,0.064,0.140*66
###2023-12-09 13:36:44.031906$GNZDA,183643.10,09,12,2023,00,00*7B
###2023-12-09 13:36:44.032543$GNEBP,,,,,,M*13
###2023-12-09 13:36:44.203439$GNGGA,183643.30,4138.0437895,N,07032.4012238,W,1,27,0.6,13.472,M,-29.745,M,0.0,*54
###2023-12-09 13:36:44.398444$GNGGA,183643.50,4138.0437628,N,07032.4012480,W,1,27,0.6,13.487,M,-29.745,M,0.0,*55
###2023-12-09 13:36:44.599736$GNGGA,183643.70,4138.0437390,N,07032.4012428,W,1,27,0.6,13.470,M,-29.745,M,0.0,*5B
###2023-12-09 13:36:44.798903$GNGGA,183643.90,4138.0437172,N,07032.4012269,W,1,27,0.6,13.446,M,-29.745,M,0.0,*5D
###2023-12-09 13:36:45.012440$GNRMC,183644.10,A,4138.0436910,N,07032.4012448,W,0.72,126.95,091223,,,A*56
###2023-12-09 13:36:45.015941$GNGGA,183644.10,4138.0436910,N,07032.4012448,W,1,27,0.6,13.457,M,-29.745,M,0.0,*5A
###2023-12-09 13:36:45.018203$GPGSA,A,3,03,04,16,26,27,28,29,31,,,,,1.0,0.6,0.8*3F
###2023-12-09 13:36:45.020377$GLGSA,A,3,65,71,72,73,74,75,83,,,,,,1.0,0.6,0.8*2F
###2023-12-09 13:36:45.022297$GAGSA,A,3,04,19,21,27,,,,,,,,,1.0,0.6,0.8*26
###2023-12-09 13:36:45.024465$GBGSA,A,3,12,14,24,25,26,33,35,,,,,,1.0,0.6,0.8*2A
###2023-12-09 13:36:45.027289$GPGSV,2,1,08,03,26,246,40,04,47,307,45,16,67,223,45,26,83,040,48*70
###2023-12-09 13:36:45.030139$GPGSV,2,2,08,27,17,172,38,28,37,085,44,29,20,046,41,31,59,067,46*7D
###2023-12-09 13:36:45.032982$GLGSV,2,1,07,65,39,317,44,71,21,175,41,72,61,219,46,73,22,052,42*61
###2023-12-09 13:36:45.035459$GLGSV,2,2,07,74,59,015,43,75,44,272,47,83,15,047,35,,,,*52
###2023-12-09 13:36:45.038282$GAGSV,1,1,04,04,40,310,44,19,71,181,40,21,76,045,46,27,22,050,41*68
###2023-12-09 13:36:45.041116$GBGSV,2,1,07,12,16,125,42,14,28,189,40,24,62,047,48,25,52,277,48*63
###2023-12-09 13:36:45.043597$GBGSV,2,2,07,26,15,071,44,33,44,216,44,35,16,055,44,,,,*5E
###2023-12-09 13:36:45.045201$GNVTG,126.95,T,,M,0.72,N,1.33,K,A*2E
###2023-12-09 13:36:45.047164$GNGST,183644.10,5.600,,,,0.088,0.064,0.140*6E
###2023-12-09 13:36:45.048727$GNZDA,183644.10,09,12,2023,00,00*7C
###2023-12-09 13:36:45.049502$GNEBP,,,,,,M*13
###2023-12-09 13:36:45.209960$GNGGA,183644.30,4138.0436667,N,07032.4012833,W,1,27,0.6,13.474,M,-29.745,M,0.0,*56
###2023-12-09 13:36:45.399466$GNGGA,183644.50,4138.0436433,N,07032.4012977,W,1,27,0.6,13.477,M,-29.745,M,0.0,*51
###2023-12-09 13:36:45.598020$GNGGA,183644.70,4138.0436210,N,07032.4012784,W,1,27,0.6,13.460,M,-29.745,M,0.0,*50
###2023-12-09 13:36:45.797454$GNGGA,183644.90,4138.0435980,N,07032.4012721,W,1,27,0.6,13.447,M,-29.745,M,0.0,*55
###2023-12-09 13:36:46.002426$GNRMC,183645.10,A,4138.0435734,N,07032.4013154,W,0.87,126.95,091223,,,A*5F
###2023-12-09 13:36:46.005910$GNGGA,183645.10,4138.0435734,N,07032.4013154,W,1,27,0.6,13.471,M,-29.745,M,0.0,*5D
###2023-12-09 13:36:46.008168$GPGSA,A,3,03,04,16,26,27,28,29,31,,,,,1.0,0.6,0.8*3F
###2023-12-09 13:36:46.010317$GLGSA,A,3,65,71,72,73,74,75,83,,,,,,1.0,0.6,0.8*2F
###2023-12-09 13:36:46.012251$GAGSA,A,3,04,19,21,27,,,,,,,,,1.0,0.6,0.8*26
###2023-12-09 13:36:46.014403$GBGSA,A,3,12,14,24,25,26,33,35,,,,,,1.0,0.6,0.8*2A
###2023-12-09 13:36:46.017220$GPGSV,2,1,08,03,26,246,38,04,47,307,45,16,67,223,45,26,83,040,47*70
###2023-12-09 13:36:46.020045$GPGSV,2,2,08,27,17,172,38,28,37,085,43,29,20,046,42,31,59,067,46*79
###2023-12-09 13:36:46.022905$GLGSV,2,1,07,65,39,317,45,71,21,175,42,72,61,219,45,73,21,053,44*64
###2023-12-09 13:36:46.025372$GLGSV,2,2,07,74,59,015,43,75,44,272,46,83,15,047,35,,,,*53
###2023-12-09 13:36:46.028182$GAGSV,1,1,04,04,40,310,43,19,71,181,40,21,76,045,45,27,22,050,40*6D
###2023-12-09 13:36:46.030994$GBGSV,2,1,07,12,16,125,43,14,28,189,41,24,62,047,49,25,52,277,48*62
###2023-12-09 13:36:46.033458$GBGSV,2,2,07,26,15,071,44,33,44,216,45,35,16,055,45,,,,*5E
###2023-12-09 13:36:46.035066$GNVTG,126.95,T,,M,0.87,N,1.62,K,A*20
###2023-12-09 13:36:46.037015$GNGST,183645.10,5.900,,,,0.089,0.065,0.140*60
###2023-12-09 13:36:46.038585$GNZDA,183645.10,09,12,2023,00,00*7D
###2023-12-09 13:36:46.039358$GNEBP,,,,,,M*13
###2023-12-09 13:36:46.197566$GNGGA,183645.30,4138.0435525,N,07032.4013588,W,1,27,0.6,13.484,M,-29.745,M,0.0,*52
###2023-12-09 13:36:46.401586$GNGGA,183645.50,4138.0435330,N,07032.4013564,W,1,27,0.6,13.477,M,-29.745,M,0.0,*58
###2023-12-09 13:36:46.597998$GNGGA,183645.70,4138.0435087,N,07032.4013291,W,1,27,0.6,13.456,M,-29.745,M,0.0,*5B
###2023-12-09 13:36:46.799056$GNGGA,183645.90,4138.0434849,N,07032.4013424,W,1,27,0.6,13.468,M,-29.745,M,0.0,*5B
###2023-12-09 13:36:47.003160$GNRMC,183646.10,A,4138.0434685,N,07032.4013996,W,0.84,126.95,091223,,,A*53
###2023-12-09 13:36:47.006088$GNGGA,183646.10,4138.0434685,N,07032.4013996,W,1,27,0.6,13.494,M,-29.745,M,0.0,*59
###2023-12-09 13:36:47.007958$GPGSA,A,3,03,04,16,26,27,28,29,31,,,,,1.0,0.6,0.8*3F
###2023-12-09 13:36:47.009747$GLGSA,A,3,65,71,72,73,74,75,83,,,,,,1.0,0.6,0.8*2F
###2023-12-09 13:36:47.011346$GAGSA,A,3,04,19,21,27,,,,,,,,,1.0,0.6,0.8*26
###2023-12-09 13:36:47.013127$GBGSA,A,3,12,14,24,25,26,33,35,,,,,,1.0,0.6,0.8*2A
###2023-12-09 13:36:47.015478$GPGSV,2,1,08,03,26,246,40,04,47,307,46,16,67,223,45,26,83,040,48*73
###2023-12-09 13:36:47.017817$GPGSV,2,2,08,27,17,172,39,28,37,085,45,29,20,046,43,31,59,067,46*7F
###2023-12-09 13:36:47.020169$GLGSV,2,1,07,65,39,317,45,71,21,175,41,72,61,219,46,73,21,053,43*63
###2023-12-09 13:36:47.022203$GLGSV,2,2,07,74,59,016,43,75,44,272,47,83,15,047,36,,,,*52
###2023-12-09 13:36:47.024546$GAGSV,1,1,04,04,40,310,44,19,71,181,40,21,76,045,46,27,22,050,40*69
###2023-12-09 13:36:47.026893$GBGSV,2,1,07,12,16,125,43,14,28,189,41,24,62,047,49,25,52,277,48*62
###2023-12-09 13:36:47.028936$GBGSV,2,2,07,26,15,071,44,33,44,216,45,35,16,055,45,,,,*5E
###2023-12-09 13:36:47.030263$GNVTG,126.95,T,,M,0.84,N,1.55,K,A*27
###2023-12-09 13:36:47.031894$GNGST,183646.10,5.700,,,,0.089,0.065,0.150*6C
###2023-12-09 13:36:47.033185$GNZDA,183646.10,09,12,2023,00,00*7E
###2023-12-09 13:36:47.033821$GNEBP,,,,,,M*13
###2023-12-09 13:36:47.199351$GNGGA,183646.30,4138.0434518,N,07032.4014347,W,1,27,0.6,13.496,M,-29.745,M,0.0,*5F
###2023-12-09 13:36:47.399508$GNGGA,183646.50,4138.0434286,N,07032.4014185,W,1,27,0.6,13.493,M,-29.745,M,0.0,*50
###2023-12-09 13:36:47.599488$GNGGA,183646.70,4138.0434027,N,07032.4013972,W,1,27,0.6,13.475,M,-29.745,M,0.0,*54
###2023-12-09 13:36:47.801457$GNGGA,183646.90,4138.0433842,N,07032.4014287,W,1,27,0.6,13.484,M,-29.745,M,0.0,*5E
###2023-12-09 13:36:48.002797$GNRMC,183647.10,A,4138.0433725,N,07032.4014857,W,0.76,126.95,091223,,,A*58
###2023-12-09 13:36:48.005664$GNGGA,183647.10,4138.0433725,N,07032.4014857,W,1,27,0.6,13.497,M,-29.745,M,0.0,*5C
###2023-12-09 13:36:48.007784$GPGSA,A,3,03,04,16,26,27,28,29,31,,,,,1.0,0.6,0.8*3F
###2023-12-09 13:36:48.009564$GLGSA,A,3,65,71,72,73,74,75,83,,,,,,1.0,0.6,0.8*2F
###2023-12-09 13:36:48.011164$GAGSA,A,3,04,19,21,27,,,,,,,,,1.0,0.6,0.8*26
###2023-12-09 13:36:48.012933$GBGSA,A,3,12,14,24,25,26,33,35,,,,,,1.0,0.6,0.8*2A
###2023-12-09 13:36:48.015257$GPGSV,2,1,08,03,26,246,39,04,47,307,46,16,67,223,45,26,83,040,47*72
###2023-12-09 13:36:48.017574$GPGSV,2,2,08,27,17,172,38,28,37,085,43,29,20,046,42,31,59,067,47*78
###2023-12-09 13:36:48.019910$GLGSV,2,1,07,65,39,317,46,71,21,175,41,72,61,219,45,73,21,053,44*64
###2023-12-09 13:36:48.021942$GLGSV,2,2,07,74,59,016,43,75,44,273,48,83,15,047,36,,,,*5C
###2023-12-09 13:36:48.024275$GAGSV,1,1,04,04,40,310,45,19,71,181,40,21,76,045,46,27,22,050,40*68
###2023-12-09 13:36:48.026597$GBGSV,2,1,07,12,16,125,41,14,28,189,41,24,62,047,49,25,52,277,48*60
###2023-12-09 13:36:48.028621$GBGSV,2,2,07,26,15,071,44,33,44,216,44,35,16,055,45,,,,*5F
