###2023-12-09 13:04:34.981247$GPGSV,2,1,08,03,34,260,43,04,33,311,42,16,51,213,47,26,81,210,48*76
###2023-12-09 13:04:34.983628$GPGSV,2,2,08,28,48,071,43,29,25,060,43,31,68,040,46,32,18,140,40*78
###2023-12-09 13:04:34.985958$GLGSV,2,1,06,65,25,327,42,71,40,173,45,72,73,265,46,73,35,042,45*65
###2023-12-09 13:04:34.987724$GLGSV,2,2,06,74,69,340,43,75,33,254,46,,,,,,,,*6C
###2023-12-09 13:04:34.990044$GAGSV,1,1,04,04,30,312,41,19,83,207,40,21,86,104,46,27,32,048,42*68
###2023-12-09 13:04:34.992386$GBGSV,2,1,05,14,42,192,44,24,72,028,48,25,42,263,46,26,25,063,42*65
###2023-12-09 13:04:34.993843$GBGSV,2,2,05,33,57,231,48,,,,,,,,,,,,*50
###2023-12-09 13:04:34.995155$GNVTG,84.47,T,,M,3.58,N,6.62,K,A*10
###2023-12-09 13:04:34.996798$GNGST,180434.10,18.000,,,,0.082,0.068,0.160*56
###2023-12-09 13:04:34.998088$GNZDA,180434.10,09,12,2023,00,00*7A
###2023-12-09 13:04:34.998737$GNEBP,,,,,,M*13
###2023-12-09 13:04:35.164879$GNGGA,180434.30,4138.0587410,N,07032.3161682,W,1,24,0.6,13.263,M,-29.743,M,0.0,*5A
###2023-12-09 13:04:35.366559$GNGGA,180434.50,4138.0586843,N,07032.3159326,W,1,24,0.6,13.297,M,-29.743,M,0.0,*5C
###2023-12-09 13:04:35.567920$GNGGA,180434.70,4138.0586329,N,07032.3156916,W,1,24,0.6,13.293,M,-29.743,M,0.0,*5B
###2023-12-09 13:04:35.768279$GNGGA,180434.90,4138.0585987,N,07032.3154446,W,1,24,0.6,13.272,M,-29.743,M,0.0,*5D
###2023-12-09 13:04:35.969929$GNRMC,180435.10,A,4138.0585683,N,07032.3152037,W,3.38,104.13,091223,,,A*50
###2023-12-09 13:04:35.972829$GNGGA,180435.10,4138.0585683,N,07032.3152037,W,1,24,0.6,13.276,M,-29.743,M,0.0,*5F
###2023-12-09 13:04:35.974713$GPGSA,A,3,03,04,16,26,28,29,31,32,,,,,1.1,0.6,0.9*3B
###2023-12-09 13:04:35.976423$GLGSA,A,3,65,71,72,73,74,75,,,,,,,1.1,0.6,0.9*24
###2023-12-09 13:04:35.977998$GAGSA,A,3,04,19,21,27,,,,,,,,,1.1,0.6,0.9*26
###2023-12-09 13:04:35.979648$GBGSA,A,3,14,24,25,26,33,,,,,,,,1.1,0.6,0.9*2F
###2023-12-09 13:04:35.981961$GPGSV,2,1,08,03,34,260,43,04,33,311,44,16,51,213,46,26,81,210,48*71
###2023-12-09 13:04:35.984295$GPGSV,2,2,08,28,48,071,45,29,25,060,44,31,68,040,47,32,18,140,40*78
###2023-12-09 13:04:35.986642$GLGSV,2,1,06,65,25,327,41,71,40,173,44,72,73,265,46,73,35,042,45*67
###2023-12-09 13:04:35.988387$GLGSV,2,2,06,74,69,340,43,75,33,254,44,,,,,,,,*6E
###2023-12-09 13:04:35.990716$GAGSV,1,1,04,04,30,312,43,19,83,207,40,21,86,104,46,27,32,048,43*6B
###2023-12-09 13:04:35.993032$GBGSV,2,1,05,14,42,192,42,24,72,028,48,25,42,263,45,26,25,063,45*67
###2023-12-09 13:04:35.994475$GBGSV,2,2,05,33,56,230,48,,,,,,,,,,,,*50
###2023-12-09 13:04:35.995807$GNVTG,104.13,T,,M,3.38,N,6.26,K,A*2E
###2023-12-09 13:04:35.997441$GNGST,180435.10,18.000,,,,0.082,0.068,0.160*57
###2023-12-09 13:04:35.998763$GNZDA,180435.10,09,12,2023,00,00*7B
###2023-12-09 13:04:35.999407$GNEBP,,,,,,M*13
###2023-12-09 13:04:36.166789$GNGGA,180435.30,4138.0584970,N,07032.3149591,W,1,24,0.6,13.289,M,-29.743,M,0.0,*5C
###2023-12-09 13:04:36.367907$GNGGA,180435.50,4138.0584096,N,07032.3147206,W,1,24,0.6,13.277,M,-29.743,M,0.0,*5D
###2023-12-09 13:04:36.567989$GNGGA,180435.70,4138.0583502,N,07032.3144752,W,1,24,0.6,13.278,M,-29.743,M,0.0,*58
###2023-12-09 13:04:36.766893$GNGGA,180435.90,4138.0583104,N,07032.3142167,W,1,24,0.6,13.277,M,-29.743,M,0.0,*5D
###2023-12-09 13:04:36.968273$GNRMC,180436.10,A,4138.0582485,N,07032.3139571,W,3.69,112.48,091223,,,A*57
###2023-12-09 13:04:36.971190$GNGGA,180436.10,4138.0582485,N,07032.3139571,W,1,24,0.6,13.257,M,-29.743,M,0.0,*56
###2023-12-09 13:04:36.973052$GPGSA,A,3,03,04,16,26,28,29,31,32,,,,,1.1,0.6,0.9*3B
###2023-12-09 13:04:36.974781$GLGSA,A,3,65,71,72,73,74,75,,,,,,,1.1,0.6,0.9*24
###2023-12-09 13:04:36.976362$GAGSA,A,3,04,19,21,27,,,,,,,,,1.1,0.6,0.9*26
###2023-12-09 13:04:36.978010$GBGSA,A,3,14,24,25,26,33,,,,,,,,1.1,0.6,0.9*2F
###2023-12-09 13:04:36.980337$GPGSV,2,1,08,03,34,260,41,04,33,311,42,16,51,213,46,26,81,210,47*7A
###2023-12-09 13:04:36.982676$GPGSV,2,2,08,28,48,071,45,29,25,060,43,31,68,040,47,32,18,140,39*71
###2023-12-09 13:04:36.985005$GLGSV,2,1,06,65,25,327,41,71,40,173,45,72,73,265,46,73,35,042,45*66
###2023-12-09 13:04:36.986760$GLGSV,2,2,06,74,69,340,43,75,33,254,44,,,,,,,,*6E
###2023-12-09 13:04:36.989072$GAGSV,1,1,04,04,30,312,42,19,83,207,40,21,86,104,45,27,32,048,43*69
###2023-12-09 13:04:36.991399$GBGSV,2,1,05,14,42,192,43,24,72,028,48,25,42,263,45,26,25,063,43*60
###2023-12-09 13:04:36.992848$GBGSV,2,2,05,33,56,230,47,,,,,,,,,,,,*5F
###2023-12-09 13:04:36.994167$GNVTG,112.48,T,,M,3.69,N,6.84,K,A*2B
###2023-12-09 13:04:36.995823$GNGST,180436.10,18.000,,,,0.083,0.068,0.160*55
###2023-12-09 13:04:36.997107$GNZDA,180436.10,09,12,2023,00,00*78
###2023-12-09 13:04:36.997745$GNEBP,,,,,,M*13
###2023-12-09 13:04:37.165938$GNGGA,180436.30,4138.0581726,N,07032.3137020,W,1,24,0.6,13.254,M,-29.743,M,0.0,*51
###2023-12-09 13:04:37.366442$GNGGA,180436.50,4138.0581109,N,07032.3134408,W,1,24,0.6,13.258,M,-29.743,M,0.0,*5D
###2023-12-09 13:04:37.566744$GNGGA,180436.70,4138.0580764,N,07032.3131747,W,1,24,0.6,13.257,M,-29.743,M,0.0,*51
###2023-12-09 13:04:37.768335$GNGGA,180436.90,4138.0580460,N,07032.3129043,W,1,24,0.6,13.247,M,-29.743,M,0.0,*53
###2023-12-09 13:04:37.968892$GNRMC,180437.10,A,4138.0580126,N,07032.3126357,W,3.65,101.16,091223,,,A*51
###2023-12-09 13:04:37.971774$GNGGA,180437.10,4138.0580126,N,07032.3126357,W,1,24,0.6,13.250,M,-29.743,M,0.0,*52
###2023-12-09 13:04:37.973637$GPGSA,A,3,03,04,16,26,28,29,31,32,,,,,1.1,0.6,0.9*3B
###2023-12-09 13:04:37.975363$GLGSA,A,3,65,71,72,73,74,75,,,,,,,1.1,0.6,0.9*24
###2023-12-09 13:04:37.976941$GAGSA,A,3,04,19,21,27,,,,,,,,,1.1,0.6,0.9*26
###2023-12-09 13:04:37.978590$GBGSA,A,3,14,24,25,26,33,,,,,,,,1.1,0.6,0.9*2F
###2023-12-09 13:04:37.980931$GPGSV,2,1,08,03,34,260,43,04,33,311,43,16,51,213,47,26,81,210,48*77
###2023-12-09 13:04:37.983279$GPGSV,2,2,08,28,48,071,44,29,25,060,41,31,68,040,47,32,18,140,39*72
###2023-12-09 13:04:37.985610$GLGSV,2,1,06,65,26,327,41,71,40,173,45,72,73,265,46,73,35,042,44*64
###2023-12-09 13:04:37.987364$GLGSV,2,2,06,74,69,340,43,75,33,254,45,,,,,,,,*6F
###2023-12-09 13:04:37.989688$GAGSV,1,1,04,04,30,312,41,19,83,207,40,21,86,104,46,27,32,048,43*69
###2023-12-09 13:04:37.992026$GBGSV,2,1,05,14,42,192,43,24,72,028,49,25,42,263,46,26,25,063,41*60
###2023-12-09 13:04:37.993481$GBGSV,2,2,05,33,56,230,48,,,,,,,,,,,,*50
###2023-12-09 13:04:37.994809$GNVTG,101.16,T,,M,3.65,N,6.77,K,A*22
###2023-12-09 13:04:37.996456$GNGST,180437.10,18.000,,,,0.083,0.068,0.160*54
###2023-12-09 13:04:37.997742$GNZDA,180437.10,09,12,2023,00,00*79
###2023-12-09 13:04:37.998379$GNEBP,,,,,,M*13
###2023-12-09 13:04:38.166643$GNGGA,180437.30,4138.0579660,N,07032.3123686,W,1,24,0.6,13.252,M,-29.743,M,0.0,*5D
###2023-12-09 13:04:38.368076$GNGGA,180437.50,4138.0579424,N,07032.3121049,W,1,24,0.6,13.253,M,-29.743,M,0.0,*5F
###2023-12-09 13:04:38.566530$GNGGA,180437.70,4138.0579480,N,07032.3118427,W,1,24,0.6,13.258,M,-29.743,M,0.0,*5E
###2023-12-09 13:04:38.766538$GNGGA,180437.90,4138.0579399,N,07032.3115778,W,1,24,0.6,13.236,M,-29.743,M,0.0,*53
###2023-12-09 13:04:38.969297$GNRMC,180438.10,A,4138.0579374,N,07032.3113244,W,3.46,88.38,091223,,,A*65
###2023-12-09 13:04:38.972809$GNGGA,180438.10,4138.0579374,N,07032.3113244,W,1,24,0.6,13.257,M,-29.743,M,0.0,*5C
###2023-12-09 13:04:38.975077$GPGSA,A,3,03,04,16,26,28,29,31,32,,,,,1.1,0.6,0.9*3B
###2023-12-09 13:04:38.977143$GLGSA,A,3,65,71,72,73,74,75,,,,,,,1.1,0.6,0.9*24
###2023-12-09 13:04:38.979069$GAGSA,A,3,04,19,21,27,,,,,,,,,1.1,0.6,0.9*26
###2023-12-09 13:04:38.981057$GBGSA,A,3,14,24,25,26,33,,,,,,,,1.1,0.6,0.9*2F
###2023-12-09 13:04:38.983881$GPGSV,2,1,08,03,34,260,44,04,33,311,43,16,51,213,47,26,81,210,48*70
###2023-12-09 13:04:38.986707$GPGSV,2,2,08,28,48,071,42,29,25,060,40,31,68,040,46,32,18,140,41*7B
###2023-12-09 13:04:38.989516$GLGSV,2,1,06,65,26,327,41,71,40,173,45,72,73,265,46,73,35,042,45*65
###2023-12-09 13:04:38.991642$GLGSV,2,2,06,74,69,340,43,75,33,254,47,,,,,,,,*6D
###2023-12-09 13:04:38.994453$GAGSV,1,1,04,04,30,312,41,19,83,207,40,21,86,104,46,27,32,048,42*68
###2023-12-09 13:04:38.997272$GBGSV,2,1,05,14,42,192,44,24,72,028,48,25,42,263,47,26,25,063,43*65
###2023-12-09 13:04:38.999052$GBGSV,2,2,05,33,56,230,48,,,,,,,,,,,,*50
###2023-12-09 13:04:39.000916$GNVTG,88.38,T,,M,3.46,N,6.41,K,A*1A
###2023-12-09 13:04:39.002960$GNGST,180438.10,18.000,,,,0.083,0.068,0.160*5B
###2023-12-09 13:04:39.004525$GNZDA,180438.10,09,12,2023,00,00*76
###2023-12-09 13:04:39.005296$GNEBP,,,,,,M*13
###2023-12-09 13:04:39.169345$GNGGA,180438.30,4138.0579496,N,07032.3110684,W,1,24,0.6,13.282,M,-29.743,M,0.0,*56
###2023-12-09 13:04:39.367901$GNGGA,180438.50,4138.0579591,N,07032.3108152,W,1,24,0.6,13.250,M,-29.743,M,0.0,*5C
###2023-12-09 13:04:39.566639$GNGGA,180438.70,4138.0579898,N,07032.3105752,W,1,24,0.6,13.238,M,-29.743,M,0.0,*5F
###2023-12-09 13:04:39.769918$GNGGA,180438.90,4138.0580347,N,07032.3103421,W,1,24,0.6,13.260,M,-29.743,M,0.0,*52
###2023-12-09 13:04:39.968940$GNRMC,180439.10,A,4138.0580646,N,07032.3101025,W,3.34,86.56,091223,,,A*63
