###2023-12-09 13:09:10.991743$GAGSV,1,1,04,04,31,312,42,19,82,199,40,21,85,085,46,27,31,048,42*67
###2023-12-09 13:09:10.994100$GBGSV,2,1,06,14,40,192,44,24,71,031,48,25,43,265,47,26,24,064,42*6F
###2023-12-09 13:09:10.995891$GBGSV,2,2,06,33,55,228,49,35,15,066,42,,,,,,,,*6C
###2023-12-09 13:09:10.997227$GNVTG,316.05,T,,M,2.74,N,5.08,K,A*2E
###2023-12-09 13:09:10.998895$GNGST,180910.10,18.000,,,,0.082,0.066,0.150*50
###2023-12-09 13:09:11.000189$GNZDA,180910.10,09,12,2023,00,00*71
###2023-12-09 13:09:11.000827$GNEBP,,,,,,M*13
###2023-12-09 13:09:11.168212$GNGGA,180910.30,4138.0905241,N,07032.2536395,W,1,25,0.6,13.120,M,-29.741,M,0.0,*56
###2023-12-09 13:09:11.367857$GNGGA,180910.50,4138.0906437,N,07032.2537831,W,1,25,0.6,13.124,M,-29.741,M,0.0,*54
###2023-12-09 13:09:11.569418$GNGGA,180910.70,4138.0907576,N,07032.2539435,W,1,25,0.6,13.118,M,-29.741,M,0.0,*5A
###2023-12-09 13:09:11.769277$GNGGA,180910.90,4138.0908670,N,07032.2541135,W,1,25,0.6,13.116,M,-29.741,M,0.0,*5A
###2023-12-09 13:09:11.970579$GNRMC,180911.10,A,4138.0909765,N,07032.2542874,W,3.15,310.71,091223,,,A*5D
###2023-12-09 13:09:11.973432$GNGGA,180911.10,4138.0909765,N,07032.2542874,W,1,25,0.6,13.113,M,-29.741,M,0.0,*5D
###2023-12-09 13:09:11.975295$GPGSA,A,3,03,04,16,26,28,29,31,32,,,,,1.1,0.6,0.9*3B
###2023-12-09 13:09:11.977004$GLGSA,A,3,65,71,72,73,74,75,,,,,,,1.1,0.6,0.9*24
###2023-12-09 13:09:11.978591$GAGSA,A,3,04,19,21,27,,,,,,,,,1.1,0.6,0.9*26
###2023-12-09 13:09:11.980297$GBGSA,A,3,14,24,25,26,33,35,,,,,,,1.1,0.6,0.9*29
###2023-12-09 13:09:11.982633$GPGSV,2,1,08,03,33,257,43,04,36,311,42,16,53,214,46,26,83,210,48*76
###2023-12-09 13:09:11.984961$GPGSV,2,2,08,28,47,073,45,29,25,058,41,31,67,044,46,32,16,141,43*7D
###2023-12-09 13:09:11.987305$GLGSV,2,1,06,65,27,326,38,71,36,173,44,72,72,254,46,73,32,044,45*69
###2023-12-09 13:09:11.989050$GLGSV,2,2,06,74,68,348,41,75,35,257,45,,,,,,,,*61
###2023-12-09 13:09:11.991390$GAGSV,1,1,04,04,31,312,41,19,82,199,40,21,85,085,46,27,31,048,42*64
###2023-12-09 13:09:11.993718$GBGSV,2,1,06,14,40,192,45,24,71,031,49,25,43,265,47,26,24,064,41*6C
###2023-12-09 13:09:11.995474$GBGSV,2,2,06,33,55,228,47,35,15,066,41,,,,,,,,*61
###2023-12-09 13:09:11.996797$GNVTG,310.71,T,,M,3.15,N,5.83,K,A*2E
###2023-12-09 13:09:11.998444$GNGST,180911.10,18.000,,,,0.082,0.065,0.150*52
###2023-12-09 13:09:11.999742$GNZDA,180911.10,09,12,2023,00,00*70
###2023-12-09 13:09:12.000380$GNEBP,,,,,,M*13
###2023-12-09 13:09:12.170455$GNGGA,180911.30,4138.0910877,N,07032.2544674,W,1,25,0.6,13.112,M,-29.741,M,0.0,*52
###2023-12-09 13:09:12.368782$GNGGA,180911.50,4138.0911906,N,07032.2546595,W,1,25,0.6,13.107,M,-29.741,M,0.0,*58
###2023-12-09 13:09:12.568939$GNGGA,180911.70,4138.0912770,N,07032.2548633,W,1,25,0.6,13.108,M,-29.741,M,0.0,*58
###2023-12-09 13:09:12.770000$GNGGA,180911.90,4138.0913589,N,07032.2550723,W,1,25,0.6,13.111,M,-29.741,M,0.0,*52
###2023-12-09 13:09:12.972084$GNRMC,180912.10,A,4138.0914379,N,07032.2552873,W,3.25,295.16,091223,,,A*53
###2023-12-09 13:09:12.975596$GNGGA,180912.10,4138.0914379,N,07032.2552873,W,1,25,0.6,13.108,M,-29.741,M,0.0,*57
###2023-12-09 13:09:12.977848$GPGSA,A,3,03,04,16,26,28,29,31,32,,,,,1.1,0.6,0.9*3B
###2023-12-09 13:09:12.979938$GLGSA,A,3,65,71,72,73,74,75,,,,,,,1.1,0.6,0.9*24
###2023-12-09 13:09:12.981857$GAGSA,A,3,04,19,21,27,,,,,,,,,1.1,0.6,0.9*26
###2023-12-09 13:09:12.983943$GBGSA,A,3,14,24,25,26,33,35,,,,,,,1.1,0.6,0.9*29
###2023-12-09 13:09:12.986761$GPGSV,2,1,08,03,33,257,41,04,36,311,41,16,53,214,45,26,83,210,48*74
###2023-12-09 13:09:12.989575$GPGSV,2,2,08,28,47,073,44,29,25,058,41,31,67,044,47,32,16,141,43*7D
###2023-12-09 13:09:12.992459$GLGSV,2,1,06,65,27,326,38,71,36,173,46,72,72,254,46,73,32,044,45*6B
###2023-12-09 13:09:12.994586$GLGSV,2,2,06,74,68,348,42,75,35,257,43,,,,,,,,*64
###2023-12-09 13:09:12.997397$GAGSV,1,1,04,04,31,312,39,19,82,199,41,21,85,085,46,27,31,048,42*6A
###2023-12-09 13:09:13.000220$GBGSV,2,1,06,14,40,192,45,24,71,031,48,25,43,265,45,26,24,064,41*6F
###2023-12-09 13:09:13.002336$GBGSV,2,2,06,33,55,228,47,35,15,066,40,,,,,,,,*60
###2023-12-09 13:09:13.003948$GNVTG,295.16,T,,M,3.25,N,6.01,K,A*29
###2023-12-09 13:09:13.005963$GNGST,180912.10,18.000,,,,0.082,0.066,0.150*52
###2023-12-09 13:09:13.007543$GNZDA,180912.10,09,12,2023,00,00*73
###2023-12-09 13:09:13.008319$GNEBP,,,,,,M*13
###2023-12-09 13:09:13.168529$GNGGA,180912.30,4138.0915049,N,07032.2555078,W,1,25,0.6,13.102,M,-29.741,M,0.0,*5A
###2023-12-09 13:09:13.369310$GNGGA,180912.50,4138.0915633,N,07032.2557310,W,1,25,0.6,13.108,M,-29.741,M,0.0,*52
###2023-12-09 13:09:13.570365$GNGGA,180912.70,4138.0916256,N,07032.2559556,W,1,25,0.6,13.119,M,-29.741,M,0.0,*5E
###2023-12-09 13:09:13.769796$GNGGA,180912.90,4138.0916758,N,07032.2561847,W,1,25,0.6,13.110,M,-29.741,M,0.0,*54
###2023-12-09 13:09:13.972770$GNRMC,180913.10,A,4138.0917063,N,07032.2564136,W,3.15,279.01,091223,,,A*53
###2023-12-09 13:09:13.976214$GNGGA,180913.10,4138.0917063,N,07032.2564136,W,1,25,0.6,13.097,M,-29.741,M,0.0,*57
###2023-12-09 13:09:13.978434$GPGSA,A,3,03,04,16,26,28,29,31,32,,,,,1.1,0.6,0.9*3B
###2023-12-09 13:09:13.980510$GLGSA,A,3,65,71,72,73,74,75,,,,,,,1.1,0.6,0.9*24
###2023-12-09 13:09:13.982402$GAGSA,A,3,04,19,21,27,,,,,,,,,1.1,0.6,0.9*26
###2023-12-09 13:09:13.984460$GBGSA,A,3,14,24,25,26,33,35,,,,,,,1.1,0.6,0.9*29
###2023-12-09 13:09:13.987275$GPGSV,2,1,08,03,33,257,41,04,36,311,42,16,53,214,46,26,83,210,48*74
###2023-12-09 13:09:13.990079$GPGSV,2,2,08,28,47,073,45,29,25,058,40,31,67,044,47,32,16,141,43*7D
###2023-12-09 13:09:13.992942$GLGSV,2,1,06,65,27,326,38,71,36,173,46,72,72,254,45,73,32,044,43*6E
###2023-12-09 13:09:13.995067$GLGSV,2,2,06,74,68,348,42,75,35,257,42,,,,,,,,*65
###2023-12-09 13:09:13.997896$GAGSV,1,1,04,04,31,312,39,19,82,199,40,21,85,085,46,27,31,048,40*69
###2023-12-09 13:09:14.000718$GBGSV,2,1,06,14,40,192,45,24,71,031,48,25,43,265,44,26,24,064,41*6E
###2023-12-09 13:09:14.002838$GBGSV,2,2,06,33,55,228,47,35,15,066,43,,,,,,,,*63
###2023-12-09 13:09:14.004428$GNVTG,279.01,T,,M,3.15,N,5.83,K,A*27
###2023-12-09 13:09:14.006414$GNGST,180913.10,18.000,,,,0.082,0.066,0.150*53
###2023-12-09 13:09:14.007976$GNZDA,180913.10,09,12,2023,00,00*72
###2023-12-09 13:09:14.008744$GNEBP,,,,,,M*13
###2023-12-09 13:09:14.168747$GNGGA,180913.30,4138.0917397,N,07032.2566451,W,1,25,0.6,13.105,M,-29.741,M,0.0,*51
###2023-12-09 13:09:14.368923$GNGGA,180913.50,4138.0917734,N,07032.2568813,W,1,25,0.6,13.107,M,-29.741,M,0.0,*5C
###2023-12-09 13:09:14.569801$GNGGA,180913.70,4138.0917907,N,07032.2571179,W,1,25,0.6,13.108,M,-29.741,M,0.0,*52
###2023-12-09 13:09:14.769929$GNGGA,180913.90,4138.0917961,N,07032.2573589,W,1,25,0.6,13.118,M,-29.741,M,0.0,*54
###2023-12-09 13:09:14.976786$GNRMC,180914.10,A,4138.0918002,N,07032.2576064,W,3.40,271.38,091223,,,A*5B
###2023-12-09 13:09:14.979657$GNGGA,180914.10,4138.0918002,N,07032.2576064,W,1,25,0.6,13.122,M,-29.741,M,0.0,*52
###2023-12-09 13:09:14.981508$GPGSA,A,3,03,04,16,26,28,29,31,32,,,,,1.1,0.6,0.9*3B
###2023-12-09 13:09:14.983228$GLGSA,A,3,65,71,72,73,74,75,,,,,,,1.1,0.6,0.9*24
###2023-12-09 13:09:14.984807$GAGSA,A,3,04,19,21,27,,,,,,,,,1.1,0.6,0.9*26
###2023-12-09 13:09:14.986512$GBGSA,A,3,14,24,25,26,33,35,,,,,,,1.1,0.6,0.9*29
###2023-12-09 13:09:14.988849$GPGSV,2,1,08,03,33,257,44,04,36,311,43,16,53,214,46,26,83,210,48*70
###2023-12-09 13:09:14.991218$GPGSV,2,2,08,28,47,073,45,29,25,058,42,31,67,044,47,32,16,141,44*78
###2023-12-09 13:09:14.993548$GLGSV,2,1,06,65,27,326,40,71,36,173,46,72,72,254,45,73,32,044,44*66
###2023-12-09 13:09:14.995304$GLGSV,2,2,06,74,68,348,43,75,35,257,43,,,,,,,,*65
###2023-12-09 13:09:14.997625$GAGSV,1,1,04,04,31,312,40,19,82,199,40,21,85,085,46,27,31,048,41*66
###2023-12-09 13:09:14.999954$GBGSV,2,1,06,14,40,192,46,24,71,031,50,25,43,265,45,26,24,064,44*60
###2023-12-09 13:09:15.001697$GBGSV,2,2,06,33,55,228,48,35,15,066,46,,,,,,,,*69
###2023-12-09 13:09:15.003031$GNVTG,271.38,T,,M,3.40,N,6.30,K,A*2E
###2023-12-09 13:09:15.004678$GNGST,180914.10,18.000,,,,0.082,0.067,0.150*55
###2023-12-09 13:09:15.005970$GNZDA,180914.10,09,12,2023,00,00*75
###2023-12-09 13:09:15.006621$GNEBP,,,,,,M*13
###2023-12-09 13:09:15.171148$GNGGA,180914.30,4138.0917998,N,07032.2578584,W,1,25,0.6,13.122,M,-29.741,M,0.0,*50
###2023-12-09 13:09:15.369714$GNGGA,180914.50,4138.0917788,N,07032.2581073,W,1,25,0.6,13.116,M,-29.741,M,0.0,*55
###2023-12-09 13:09:15.572131$GNGGA,180914.70,4138.0917464,N,07032.2583525,W,1,25,0.6,13.117,M,-29.741,M,0.0,*53
###2023-12-09 13:09:15.771770$GNGGA,180914.90,4138.0917162,N,07032.2585996,W,1,25,0.6,13.134,M,-29.741,M,0.0,*5D
###2023-12-09 13:09:15.970326$GNRMC,180915.10,A,4138.0916804,N,07032.2588498,W,3.40,254.12,091223,,,A*53
###2023-12-09 13:09:15.973199$GNGGA,180915.10,4138.0916804,N,07032.2588498,W,1,25,0.6,13.134,M,-29.741,M,0.0,*52
###2023-12-09 13:09:15.975055$GPGSA,A,3,03,04,16,26,28,29,31,32,,,,,1.1,0.6,0.9*3B
###2023-12-09 13:09:15.976759$GLGSA,A,3,65,71,72,73,74,75,,,,,,,1.1,0.6,0.9*24
###2023-12-09 13:09:15.978332$GAGSA,A,3,04,19,21,27,,,,,,,,,1.1,0.6,0.9*26
