###2023-12-09 12:35:36.943511$GAGSA,A,3,04,19,21,27,,,,,,,,,1.2,0.7,1.0*2C
###2023-12-09 12:35:36.945173$GBGSA,A,3,14,24,25,26,33,,,,,,,,1.2,0.7,1.0*25
###2023-12-09 12:35:36.947547$GPGSV,2,1,08,03,39,277,43,04,22,311,40,16,37,207,44,26,66,206,47*78
###2023-12-09 12:35:36.949920$GPGSV,2,2,08,28,58,056,44,29,25,074,40,31,73,001,47,32,30,134,43*79
###2023-12-09 12:35:36.952289$GLGSV,2,1,05,71,56,169,47,72,66,308,46,73,47,034,46,74,71,293,42*6E
###2023-12-09 12:35:36.953759$GLGSV,2,2,05,75,22,241,43,,,,,,,,,,,,*52
###2023-12-09 12:35:36.956117$GAGSV,1,1,04,04,21,311,40,19,81,302,41,21,78,176,46,27,41,049,41*6F
###2023-12-09 12:35:36.958456$GBGSV,2,1,05,14,55,197,45,24,80,347,48,25,33,253,44,26,35,057,45*66
###2023-12-09 12:35:36.959933$GBGSV,2,2,05,33,63,253,47,,,,,,,,,,,,*5C
###2023-12-09 12:35:36.961230$GNVTG,61.48,T,,M,2.24,N,4.14,K,A*1D
###2023-12-09 12:35:36.962903$GNGST,173536.10,18.000,,,,0.081,0.072,0.160*51
###2023-12-09 12:35:36.964200$GNZDA,173536.10,09,12,2023,00,00*75
###2023-12-09 12:35:36.964840$GNEBP,,,,,,M*13
###2023-12-09 12:35:37.133561$GNGGA,173536.30,4138.0512588,N,07032.4222211,W,1,23,0.7,13.380,M,-29.745,M,0.0,*58
###2023-12-09 12:35:37.333864$GNGGA,173536.50,4138.0513303,N,07032.4220867,W,1,23,0.7,13.392,M,-29.745,M,0.0,*50
###2023-12-09 12:35:37.534532$GNGGA,173536.70,4138.0513877,N,07032.4219277,W,1,23,0.7,13.389,M,-29.745,M,0.0,*51
###2023-12-09 12:35:37.732643$GNGGA,173536.90,4138.0514304,N,07032.4217715,W,1,23,0.7,13.385,M,-29.745,M,0.0,*54
###2023-12-09 12:35:37.934862$GNRMC,173537.10,A,4138.0514815,N,07032.4216199,W,2.37,61.25,091223,,,A*6E
###2023-12-09 12:35:37.937907$GNGGA,173537.10,4138.0514815,N,07032.4216199,W,1,23,0.7,13.390,M,-29.745,M,0.0,*51
###2023-12-09 12:35:37.939922$GPGSA,A,3,03,04,16,26,28,29,31,32,,,,,1.2,0.7,1.0*31
###2023-12-09 12:35:37.941693$GLGSA,A,3,71,72,73,74,75,,,,,,,,1.2,0.7,1.0*2D
###2023-12-09 12:35:37.943405$GAGSA,A,3,04,19,21,27,,,,,,,,,1.2,0.7,1.0*2C
###2023-12-09 12:35:37.945174$GBGSA,A,3,14,24,25,26,33,,,,,,,,1.2,0.7,1.0*25
###2023-12-09 12:35:37.947693$GPGSV,2,1,08,03,39,277,44,04,22,311,41,16,37,207,44,26,66,206,48*71
###2023-12-09 12:35:37.950073$GPGSV,2,2,08,28,58,056,45,29,25,074,40,31,73,001,47,32,30,134,42*79
###2023-12-09 12:35:37.952444$GLGSV,2,1,05,71,56,169,48,72,66,308,45,73,47,034,46,74,71,293,42*62
###2023-12-09 12:35:37.953913$GLGSV,2,2,05,75,22,241,44,,,,,,,,,,,,*55
###2023-12-09 12:35:37.956273$GAGSV,1,1,04,04,21,311,41,19,81,302,41,21,78,176,46,27,41,049,42*6D
###2023-12-09 12:35:37.958629$GBGSV,2,1,05,14,55,197,46,24,80,347,47,25,33,253,46,26,35,057,43*6E
###2023-12-09 12:35:37.960098$GBGSV,2,2,05,33,63,253,47,,,,,,,,,,,,*5C
###2023-12-09 12:35:37.961398$GNVTG,61.25,T,,M,2.37,N,4.39,K,A*1B
###2023-12-09 12:35:37.963108$GNGST,173537.10,18.000,,,,0.081,0.072,0.160*50
###2023-12-09 12:35:37.964421$GNZDA,173537.10,09,12,2023,00,00*74
###2023-12-09 12:35:37.965073$GNEBP,,,,,,M*13
###2023-12-09 12:35:38.133240$GNGGA,173537.30,4138.0515430,N,07032.4214588,W,1,23,0.7,13.377,M,-29.745,M,0.0,*56
###2023-12-09 12:35:38.335828$GNGGA,173537.50,4138.0515932,N,07032.4213030,W,1,23,0.7,13.363,M,-29.745,M,0.0,*5B
###2023-12-09 12:35:38.535392$GNGGA,173537.70,4138.0516344,N,07032.4211410,W,1,23,0.7,13.372,M,-29.745,M,0.0,*55
###2023-12-09 12:35:38.749279$GNGGA,173537.90,4138.0516700,N,07032.4209677,W,1,23,0.7,13.366,M,-29.745,M,0.0,*50
###2023-12-09 12:35:38.935933$GNRMC,173538.10,A,4138.0517070,N,07032.4208010,W,2.35,72.58,091223,,,A*6C
###2023-12-09 12:35:38.939475$GNGGA,173538.10,4138.0517070,N,07032.4208010,W,1,23,0.7,13.351,M,-29.745,M,0.0,*54
###2023-12-09 12:35:38.941764$GPGSA,A,3,03,04,16,26,28,29,31,32,,,,,1.2,0.7,1.0*31
###2023-12-09 12:35:38.943832$GLGSA,A,3,71,72,73,74,75,,,,,,,,1.2,0.7,1.0*2D
###2023-12-09 12:35:38.945761$GAGSA,A,3,04,19,21,27,,,,,,,,,1.2,0.7,1.0*2C
###2023-12-09 12:35:38.947787$GBGSA,A,3,14,24,25,26,33,,,,,,,,1.2,0.7,1.0*25
###2023-12-09 12:35:38.950641$GPGSV,2,1,08,03,39,277,45,04,22,311,40,16,37,207,45,26,66,206,47*7F
###2023-12-09 12:35:38.953468$GPGSV,2,2,08,28,58,056,44,29,25,074,40,31,73,001,47,32,30,134,42*78
###2023-12-09 12:35:38.956319$GLGSV,2,1,05,71,56,169,47,72,66,308,47,73,47,034,46,74,71,293,42*6F
###2023-12-09 12:35:38.958145$GLGSV,2,2,05,75,22,241,43,,,,,,,,,,,,*52
###2023-12-09 12:35:38.960977$GAGSV,1,1,04,04,21,311,39,19,81,302,40,21,78,176,46,27,41,049,43*62
###2023-12-09 12:35:38.963866$GBGSV,2,1,05,14,55,197,46,24,80,347,49,25,33,253,45,26,35,057,43*63
###2023-12-09 12:35:38.965634$GBGSV,2,2,05,33,63,253,47,,,,,,,,,,,,*5C
###2023-12-09 12:35:38.967223$GNVTG,72.58,T,,M,2.35,N,4.36,K,A*1E
###2023-12-09 12:35:38.969215$GNGST,173538.10,18.000,,,,0.081,0.072,0.160*5F
###2023-12-09 12:35:38.970815$GNZDA,173538.10,09,12,2023,00,00*7B
###2023-12-09 12:35:38.971601$GNEBP,,,,,,M*13
###2023-12-09 12:35:39.135922$GNGGA,173538.30,4138.0517488,N,07032.4206329,W,1,23,0.7,13.344,M,-29.745,M,0.0,*56
###2023-12-09 12:35:39.335858$GNGGA,173538.50,4138.0517836,N,07032.4204616,W,1,23,0.7,13.345,M,-29.745,M,0.0,*53
###2023-12-09 12:35:39.534616$GNGGA,173538.70,4138.0518047,N,07032.4202864,W,1,23,0.7,13.340,M,-29.745,M,0.0,*58
###2023-12-09 12:35:39.738801$GNGGA,173538.90,4138.0518207,N,07032.4201114,W,1,23,0.7,13.329,M,-29.745,M,0.0,*52
###2023-12-09 12:35:39.932242$GNRMC,173539.10,A,4138.0518402,N,07032.4199360,W,2.37,82.77,091223,,,A*6C
###2023-12-09 12:35:39.935106$GNGGA,173539.10,4138.0518402,N,07032.4199360,W,1,23,0.7,13.332,M,-29.745,M,0.0,*51
###2023-12-09 12:35:39.936981$GPGSA,A,3,03,04,16,26,28,29,31,32,,,,,1.2,0.7,1.0*31
###2023-12-09 12:35:39.938656$GLGSA,A,3,71,72,73,74,75,,,,,,,,1.2,0.7,1.0*2D
###2023-12-09 12:35:39.940251$GAGSA,A,3,04,19,21,27,,,,,,,,,1.2,0.7,1.0*2C
###2023-12-09 12:35:39.941909$GBGSA,A,3,14,24,25,26,33,,,,,,,,1.2,0.7,1.0*25
###2023-12-09 12:35:39.944263$GPGSV,2,1,08,03,39,277,44,04,22,311,41,16,37,207,44,26,66,206,47*7E
###2023-12-09 12:35:39.946636$GPGSV,2,2,08,28,58,056,44,29,25,074,41,31,73,001,47,32,30,134,41*7A
###2023-12-09 12:35:39.948995$GLGSV,2,1,05,71,56,169,47,72,66,308,46,73,47,034,47,74,71,293,42*6F
###2023-12-09 12:35:39.950468$GLGSV,2,2,05,75,22,241,42,,,,,,,,,,,,*53
###2023-12-09 12:35:39.952824$GAGSV,1,1,04,04,21,311,40,19,81,302,40,21,78,176,46,27,41,049,44*6B
###2023-12-09 12:35:39.955271$GBGSV,2,1,05,14,55,197,46,24,80,347,48,25,33,253,45,26,35,057,44*65
###2023-12-09 12:35:39.956768$GBGSV,2,2,05,33,63,253,47,,,,,,,,,,,,*5C
###2023-12-09 12:35:39.958079$GNVTG,82.77,T,,M,2.37,N,4.39,K,A*11
###2023-12-09 12:35:39.959768$GNGST,173539.10,18.000,,,,0.082,0.072,0.170*5C
###2023-12-09 12:35:39.961069$GNZDA,173539.10,09,12,2023,00,00*7A
###2023-12-09 12:35:39.961717$GNEBP,,,,,,M*13
###2023-12-09 12:35:40.136019$GNGGA,173539.30,4138.0518577,N,07032.4197590,W,1,23,0.7,13.323,M,-29.745,M,0.0,*57
###2023-12-09 12:35:40.333493$GNGGA,173539.50,4138.0518695,N,07032.4195856,W,1,23,0.7,13.317,M,-29.745,M,0.0,*5C
###2023-12-09 12:35:40.534089$GNGGA,173539.70,4138.0518718,N,07032.4194042,W,1,23,0.7,13.311,M,-29.745,M,0.0,*50
###2023-12-09 12:35:40.733085$GNGGA,173539.90,4138.0518665,N,07032.4192303,W,1,23,0.7,13.306,M,-29.745,M,0.0,*53
###2023-12-09 12:35:40.934746$GNRMC,173540.10,A,4138.0518610,N,07032.4190580,W,2.29,91.92,091223,,,A*64
###2023-12-09 12:35:40.938194$GNGGA,173540.10,4138.0518610,N,07032.4190580,W,1,23,0.7,13.300,M,-29.745,M,0.0,*5E
###2023-12-09 12:35:40.940469$GPGSA,A,3,03,04,16,26,28,29,31,32,,,,,1.2,0.7,1.0*31
###2023-12-09 12:35:40.942461$GLGSA,A,3,71,72,73,74,75,,,,,,,,1.2,0.7,1.0*2D
###2023-12-09 12:35:40.944393$GAGSA,A,3,04,19,21,27,,,,,,,,,1.2,0.7,1.0*2C
###2023-12-09 12:35:40.946391$GBGSA,A,3,14,24,25,26,33,,,,,,,,1.2,0.7,1.0*25
###2023-12-09 12:35:40.949294$GPGSV,2,1,08,03,39,277,44,04,22,311,41,16,37,207,45,26,66,206,47*7F
###2023-12-09 12:35:40.952142$GPGSV,2,2,08,28,58,056,44,29,25,074,39,31,73,001,47,32,30,134,41*75
###2023-12-09 12:35:40.955290$GLGSV,2,1,05,71,56,169,47,72,66,308,47,73,47,034,46,74,71,293,43*6E
###2023-12-09 12:35:40.957071$GLGSV,2,2,05,75,22,241,43,,,,,,,,,,,,*52
###2023-12-09 12:35:40.959947$GAGSV,1,1,04,04,21,311,41,19,81,302,40,21,78,176,46,27,41,049,44*6A
###2023-12-09 12:35:40.962780$GBGSV,2,1,05,14,55,197,46,24,80,347,48,25,33,253,42,26,35,057,44*62
###2023-12-09 12:35:40.964854$GBGSV,2,2,05,33,63,253,47,,,,,,,,,,,,*5C
###2023-12-09 12:35:40.966425$GNVTG,91.92,T,,M,2.29,N,4.25,K,A*1A
###2023-12-09 12:35:40.968443$GNGST,173540.10,18.000,,,,0.082,0.072,0.170*52
###2023-12-09 12:35:40.970015$GNZDA,173540.10,09,12,2023,00,00*74
###2023-12-09 12:35:40.970814$GNEBP,,,,,,M*13
###2023-12-09 12:35:41.133030$GNGGA,173540.30,4138.0518539,N,07032.4188766,W,1,23,0.7,13.300,M,-29.745,M,0.0,*57
###2023-12-09 12:35:41.334458$GNGGA,173540.50,4138.0518410,N,07032.4187041,W,1,23,0.7,13.291,M,-29.745,M,0.0,*5F
###2023-12-09 12:35:41.533559$GNGGA,173540.70,4138.0518159,N,07032.4185335,W,1,23,0.7,13.291,M,-29.745,M,0.0,*57
