###2023-12-09 12:28:09.921990$GNRMC,172809.10,A,4138.0394797,N,07032.4358790,W,0.04,,091223,,,A*4C
###2023-12-09 12:28:09.924855$GNGGA,172809.10,4138.0394797,N,07032.4358790,W,1,18,0.7,8.728,M,-29.746,M,0.0,*69
###2023-12-09 12:28:09.926679$GPGSA,A,3,03,16,26,28,29,31,32,,,,,,1.4,0.7,1.1*32
###2023-12-09 12:28:09.928284$GLGSA,A,3,71,72,73,75,,,,,,,,,1.4,0.7,1.1*29
###2023-12-09 12:28:09.929817$GAGSA,A,3,04,21,27,,,,,,,,,,1.4,0.7,1.1*23
###2023-12-09 12:28:09.931427$GBGSA,A,3,14,25,26,33,,,,,,,,,1.4,0.7,1.1*24
###2023-12-09 12:28:09.933773$GPGSV,2,1,07,03,39,281,38,16,34,206,42,26,63,206,41,28,60,052,42*7B
###2023-12-09 12:28:09.935841$GPGSV,2,2,07,29,24,078,41,31,73,348,43,32,33,132,44,,,,*46
###2023-12-09 12:28:09.938180$GLGSV,1,1,04,71,60,168,46,72,63,315,43,73,51,031,48,75,19,238,42*67
###2023-12-09 12:28:09.940243$GAGSV,1,1,03,04,19,310,35,21,75,179,40,27,44,050,45,,,,*58
###2023-12-09 12:28:09.942597$GBGSV,1,1,04,14,58,200,46,25,30,250,36,26,37,056,48,33,64,261,42*6F
###2023-12-09 12:28:09.943746$GNVTG,,T,,M,0.04,N,0.07,K,A*3E
###2023-12-09 12:28:09.945408$GNGST,172809.10,31.000,,,,0.120,0.130,0.300*53
###2023-12-09 12:28:09.946737$GNZDA,172809.10,09,12,2023,00,00*75
###2023-12-09 12:28:09.947400$GNEBP,,,,,,M*13
###2023-12-09 12:28:10.119877$GNGGA,172809.30,4138.0394830,N,07032.4358801,W,1,18,0.7,8.705,M,-29.746,M,0.0,*61
###2023-12-09 12:28:10.321306$GNGGA,172809.50,4138.0394866,N,07032.4358820,W,1,18,0.7,8.685,M,-29.746,M,0.0,*6E
###2023-12-09 12:28:10.520952$GNGGA,172809.70,4138.0394892,N,07032.4358838,W,1,18,0.7,8.658,M,-29.746,M,0.0,*6E
###2023-12-09 12:28:10.718925$GNGGA,172809.90,4138.0394920,N,07032.4358859,W,1,18,0.7,8.633,M,-29.746,M,0.0,*62
###2023-12-09 12:28:10.921999$GNRMC,172810.10,A,4138.0394940,N,07032.4358893,W,0.06,,091223,,,A*4E
###2023-12-09 12:28:10.924873$GNGGA,172810.10,4138.0394940,N,07032.4358893,W,1,19,0.7,8.606,M,-29.746,M,0.0,*65
###2023-12-09 12:28:10.926712$GPGSA,A,3,03,16,26,28,29,31,32,,,,,,1.3,0.7,1.1*35
###2023-12-09 12:28:10.928323$GLGSA,A,3,71,72,73,75,,,,,,,,,1.3,0.7,1.1*2E
###2023-12-09 12:28:10.929864$GAGSA,A,3,04,21,27,,,,,,,,,,1.3,0.7,1.1*24
###2023-12-09 12:28:10.931479$GBGSA,A,3,14,25,26,33,,,,,,,,,1.3,0.7,1.1*23
###2023-12-09 12:28:10.933816$GPGSV,2,1,07,03,39,281,38,16,34,206,43,26,63,206,41,28,60,052,42*7A
###2023-12-09 12:28:10.935891$GPGSV,2,2,07,29,25,077,42,31,73,348,44,32,33,132,45,,,,*4D
###2023-12-09 12:28:10.938239$GLGSV,1,1,04,71,60,168,46,72,63,315,42,73,51,031,48,75,19,238,42*66
###2023-12-09 12:28:10.940316$GAGSV,1,1,03,04,19,310,35,21,75,179,40,27,44,050,44,,,,*59
###2023-12-09 12:28:10.942695$GBGSV,1,1,04,14,58,200,46,25,30,250,36,26,37,056,49,33,64,261,42*6E
###2023-12-09 12:28:10.943853$GNVTG,,T,,M,0.06,N,0.11,K,A*3B
###2023-12-09 12:28:10.945520$GNGST,172810.10,30.000,,,,0.120,0.130,0.290*52
###2023-12-09 12:28:10.946858$GNZDA,172810.10,09,12,2023,00,00*7D
###2023-12-09 12:28:10.947530$GNEBP,,,,,,M*13
###2023-12-09 12:28:11.120737$GNGGA,172810.30,4138.0394959,N,07032.4358888,W,1,19,0.7,8.586,M,-29.746,M,0.0,*6E
###2023-12-09 12:28:11.320839$GNGGA,172810.50,4138.0394966,N,07032.4358885,W,1,19,0.7,8.559,M,-29.746,M,0.0,*6B
###2023-12-09 12:28:11.520557$GNGGA,172810.70,4138.0394979,N,07032.4358892,W,1,19,0.7,8.530,M,-29.746,M,0.0,*6E
###2023-12-09 12:28:11.717978$GNGGA,172810.90,4138.0394992,N,07032.4358902,W,1,19,0.7,8.507,M,-29.746,M,0.0,*69
###2023-12-09 12:28:11.920708$GNRMC,172811.10,A,4138.0395002,N,07032.4358901,W,0.04,,091223,,,A*49
###2023-12-09 12:28:11.923614$GNGGA,172811.10,4138.0395002,N,07032.4358901,W,1,19,0.7,8.489,M,-29.746,M,0.0,*65
###2023-12-09 12:28:11.925425$GPGSA,A,3,03,16,26,28,29,31,32,,,,,,1.3,0.7,1.1*35
###2023-12-09 12:28:11.927052$GLGSA,A,3,71,72,73,75,,,,,,,,,1.3,0.7,1.1*2E
###2023-12-09 12:28:11.928589$GAGSA,A,3,04,21,27,,,,,,,,,,1.3,0.7,1.1*24
###2023-12-09 12:28:11.930178$GBGSA,A,3,14,25,26,33,,,,,,,,,1.3,0.7,1.1*23
###2023-12-09 12:28:11.932516$GPGSV,2,1,07,03,39,281,39,16,34,206,43,26,63,206,41,28,60,052,42*7B
###2023-12-09 12:28:11.934552$GPGSV,2,2,07,29,25,077,42,31,73,351,44,32,33,132,45,,,,*45
###2023-12-09 12:28:11.936929$GLGSV,1,1,04,71,60,168,46,72,63,315,42,73,51,031,48,75,19,238,42*66
###2023-12-09 12:28:11.939402$GAGSV,1,1,03,04,19,310,35,21,75,179,41,27,44,050,45,,,,*59
###2023-12-09 12:28:11.941763$GBGSV,1,1,04,14,58,200,45,25,30,250,35,26,37,056,48,33,64,261,42*6F
###2023-12-09 12:28:11.942934$GNVTG,,T,,M,0.04,N,0.07,K,A*3E
###2023-12-09 12:28:11.944584$GNGST,172811.10,30.000,,,,0.120,0.130,0.290*53
###2023-12-09 12:28:11.945885$GNZDA,172811.10,09,12,2023,00,00*7C
###2023-12-09 12:28:11.946543$GNEBP,,,,,,M*13
###2023-12-09 12:28:12.120149$GNGGA,172811.30,4138.0395001,N,07032.4358868,W,1,19,0.7,8.474,M,-29.746,M,0.0,*68
###2023-12-09 12:28:12.318701$GNGGA,172811.50,4138.0395001,N,07032.4358852,W,1,19,0.7,8.456,M,-29.746,M,0.0,*67
###2023-12-09 12:28:12.518783$GNGGA,172811.70,4138.0395003,N,07032.4358830,W,1,19,0.7,8.445,M,-29.746,M,0.0,*61
###2023-12-09 12:28:12.717864$GNGGA,172811.90,4138.0395001,N,07032.4358819,W,1,19,0.7,8.435,M,-29.746,M,0.0,*61
###2023-12-09 12:28:12.920888$GNRMC,172812.10,A,4138.0394987,N,07032.4358805,W,0.04,,091223,,,A*4A
###2023-12-09 12:28:12.923929$GNGGA,172812.10,4138.0394987,N,07032.4358805,W,1,19,0.7,8.416,M,-29.746,M,0.0,*60
###2023-12-09 12:28:12.925895$GPGSA,A,3,03,16,26,28,29,31,32,,,,,,1.3,0.7,1.1*35
###2023-12-09 12:28:12.927666$GLGSA,A,3,71,72,73,75,,,,,,,,,1.3,0.7,1.1*2E
###2023-12-09 12:28:12.929355$GAGSA,A,3,04,21,27,,,,,,,,,,1.3,0.7,1.1*24
###2023-12-09 12:28:12.931101$GBGSA,A,3,14,25,26,33,,,,,,,,,1.3,0.7,1.1*23
###2023-12-09 12:28:12.933591$GPGSV,2,1,07,03,39,281,39,16,34,206,43,26,63,206,41,28,60,052,42*7B
###2023-12-09 12:28:12.935819$GPGSV,2,2,07,29,25,077,42,31,73,351,43,32,33,132,45,,,,*42
###2023-12-09 12:28:12.938310$GLGSV,1,1,04,71,60,168,46,72,63,315,42,73,51,031,47,75,19,238,42*69
###2023-12-09 12:28:12.940547$GAGSV,1,1,03,04,19,310,35,21,75,179,41,27,44,050,45,,,,*59
###2023-12-09 12:28:12.943079$GBGSV,1,1,04,14,58,200,44,25,30,250,35,26,37,056,48,33,64,261,41*6D
###2023-12-09 12:28:12.944389$GNVTG,,T,,M,0.04,N,0.07,K,A*3E
###2023-12-09 12:28:12.946197$GNGST,172812.10,30.000,,,,0.120,0.130,0.290*50
###2023-12-09 12:28:12.947707$GNZDA,172812.10,09,12,2023,00,00*7F
###2023-12-09 12:28:12.948525$GNEBP,,,,,,M*13
###2023-12-09 12:28:13.118714$GNGGA,172812.30,4138.0394973,N,07032.4358772,W,1,19,0.7,8.407,M,-29.746,M,0.0,*66
###2023-12-09 12:28:13.319770$GNGGA,172812.50,4138.0394967,N,07032.4358730,W,1,19,0.7,8.397,M,-29.746,M,0.0,*6D
###2023-12-09 12:28:13.518892$GNGGA,172812.70,4138.0394941,N,07032.4358678,W,1,18,0.8,8.383,M,-29.746,M,0.0,*6D
###2023-12-09 12:28:13.720572$GNGGA,172812.90,4138.0394919,N,07032.4358630,W,1,18,0.8,8.372,M,-29.746,M,0.0,*6C
###2023-12-09 12:28:13.919815$GNRMC,172813.10,A,4138.0394912,N,07032.4358596,W,0.04,,091223,,,A*40
###2023-12-09 12:28:13.922874$GNGGA,172813.10,4138.0394912,N,07032.4358596,W,1,18,0.8,8.359,M,-29.746,M,0.0,*68
###2023-12-09 12:28:13.924691$GPGSA,A,3,03,16,26,28,29,31,32,,,,,,1.5,0.8,1.2*3F
###2023-12-09 12:28:13.926295$GLGSA,A,3,71,72,73,75,,,,,,,,,1.5,0.8,1.2*24
###2023-12-09 12:28:13.927822$GAGSA,A,3,21,27,,,,,,,,,,,1.5,0.8,1.2*2A
###2023-12-09 12:28:13.929421$GBGSA,A,3,14,25,26,33,,,,,,,,,1.5,0.8,1.2*29
###2023-12-09 12:28:13.931778$GPGSV,2,1,07,03,39,281,39,16,34,206,43,26,63,206,41,28,60,052,42*7B
###2023-12-09 12:28:13.933839$GPGSV,2,2,07,29,25,077,43,31,73,351,43,32,33,132,44,,,,*42
###2023-12-09 12:28:13.936204$GLGSV,1,1,04,71,60,168,47,72,63,315,42,73,51,031,47,75,19,238,42*68
###2023-12-09 12:28:13.937965$GAGSV,1,1,02,21,75,179,40,27,44,050,44,,,,,,,,*60
###2023-12-09 12:28:13.940316$GBGSV,1,1,04,14,58,200,44,25,30,250,35,26,37,056,47,33,64,261,41*62
###2023-12-09 12:28:13.941460$GNVTG,,T,,M,0.04,N,0.07,K,A*3E
###2023-12-09 12:28:13.943132$GNGST,172813.10,31.000,,,,0.120,0.120,0.290*51
###2023-12-09 12:28:13.944437$GNZDA,172813.10,09,12,2023,00,00*7E
###2023-12-09 12:28:13.945090$GNEBP,,,,,,M*13
###2023-12-09 12:28:14.121231$GNGGA,172813.30,4138.0394904,N,07032.4358552,W,1,17,0.8,8.341,M,-29.746,M,0.0,*63
###2023-12-09 12:28:14.320621$GNGGA,172813.50,4138.0394887,N,07032.4358513,W,1,17,0.8,8.328,M,-29.746,M,0.0,*65
###2023-12-09 12:28:14.526635$GNGGA,172813.70,4138.0394866,N,07032.4358457,W,1,18,0.8,8.315,M,-29.746,M,0.0,*68
###2023-12-09 12:28:14.719468$GNGGA,172813.90,4138.0394848,N,07032.4358416,W,1,17,0.8,8.309,M,-29.746,M,0.0,*6D
###2023-12-09 12:28:14.925572$GNRMC,172814.10,A,4138.0394839,N,07032.4358400,W,0.02,,091223,,,A*47
###2023-12-09 12:28:14.928450$GNGGA,172814.10,4138.0394839,N,07032.4358400,W,1,18,0.8,8.300,M,-29.746,M,0.0,*65
###2023-12-09 12:28:14.930273$GPGSA,A,3,03,16,26,28,29,31,32,,,,,,1.5,0.8,1.2*3F
###2023-12-09 12:28:14.931893$GLGSA,A,3,71,72,73,75,,,,,,,,,1.5,0.8,1.2*24
###2023-12-09 12:28:14.933357$GAGSA,A,3,21,27,,,,,,,,,,,1.5,0.8,1.2*2A
