###2023-12-09 12:53:08.989392$GBGSV,2,2,05,33,60,238,47,,,,,,,,,,,,*52
###2023-12-09 12:53:08.990756$GNVTG,310.93,T,,M,0.33,N,0.61,K,A*2C
###2023-12-09 12:53:08.992409$GNGST,175308.10,18.000,,,,0.076,0.067,0.160*50
###2023-12-09 12:53:08.993702$GNZDA,175308.10,09,12,2023,00,00*78
###2023-12-09 12:53:08.994343$GNEBP,,,,,,M*13
###2023-12-09 12:53:09.155800$GNGGA,175308.30,4138.0575232,N,07032.3849860,W,1,24,0.6,13.324,M,-29.744,M,0.0,*57
###2023-12-09 12:53:09.354362$GNGGA,175308.50,4138.0575466,N,07032.3850343,W,1,24,0.6,13.346,M,-29.744,M,0.0,*50
###2023-12-09 12:53:09.554480$GNGGA,175308.70,4138.0575668,N,07032.3850767,W,1,24,0.6,13.358,M,-29.744,M,0.0,*53
###2023-12-09 12:53:09.755571$GNGGA,175308.90,4138.0575598,N,07032.3850929,W,1,24,0.6,13.355,M,-29.744,M,0.0,*58
###2023-12-09 12:53:09.954514$GNRMC,175309.10,A,4138.0575436,N,07032.3850971,W,0.23,310.93,091223,,,A*57
###2023-12-09 12:53:09.957402$GNGGA,175309.10,4138.0575436,N,07032.3850971,W,1,24,0.6,13.329,M,-29.744,M,0.0,*52
###2023-12-09 12:53:09.959263$GPGSA,A,3,03,04,16,26,28,29,31,32,,,,,1.1,0.6,0.9*3B
###2023-12-09 12:53:09.960976$GLGSA,A,3,65,71,72,73,74,75,,,,,,,1.1,0.6,0.9*24
###2023-12-09 12:53:09.962557$GAGSA,A,3,04,19,21,27,,,,,,,,,1.1,0.6,0.9*26
###2023-12-09 12:53:09.964218$GBGSA,A,3,14,24,25,26,33,,,,,,,,1.1,0.6,0.9*2F
###2023-12-09 12:53:09.966542$GPGSV,2,1,08,03,37,267,42,04,29,311,41,16,45,210,45,26,75,209,48*7C
###2023-12-09 12:53:09.968888$GPGSV,2,2,08,28,52,066,46,29,26,065,43,31,71,026,48,32,23,138,46*71
###2023-12-09 12:53:09.971222$GLGSV,2,1,06,65,20,328,40,71,45,172,48,72,72,285,46,73,39,039,47*69
###2023-12-09 12:53:09.972964$GLGSV,2,2,06,74,71,324,43,75,29,249,42,,,,,,,,*64
###2023-12-09 12:53:09.975290$GAGSV,1,1,04,04,26,312,40,19,85,252,41,21,84,154,46,27,36,048,45*6D
###2023-12-09 12:53:09.977614$GBGSV,2,1,05,14,47,194,45,24,76,016,49,25,38,259,44,26,29,061,44*61
###2023-12-09 12:53:09.979075$GBGSV,2,2,05,33,60,238,47,,,,,,,,,,,,*52
###2023-12-09 12:53:09.980400$GNVTG,310.93,T,,M,0.23,N,0.43,K,A*2D
###2023-12-09 12:53:09.982044$GNGST,175309.10,18.000,,,,0.076,0.067,0.160*51
###2023-12-09 12:53:09.983349$GNZDA,175309.10,09,12,2023,00,00*79
###2023-12-09 12:53:09.983985$GNEBP,,,,,,M*13
###2023-12-09 12:53:10.152090$GNGGA,175309.30,4138.0575586,N,07032.3851337,W,1,24,0.6,13.335,M,-29.744,M,0.0,*5E
###2023-12-09 12:53:10.353465$GNGGA,175309.50,4138.0575888,N,07032.3851898,W,1,24,0.6,13.352,M,-29.744,M,0.0,*54
###2023-12-09 12:53:10.553848$GNGGA,175309.70,4138.0575991,N,07032.3852245,W,1,24,0.6,13.351,M,-29.744,M,0.0,*55
###2023-12-09 12:53:10.752649$GNGGA,175309.90,4138.0575890,N,07032.3852313,W,1,24,0.6,13.354,M,-29.744,M,0.0,*5C
###2023-12-09 12:53:10.955101$GNRMC,175310.10,A,4138.0575844,N,07032.3852422,W,0.37,305.49,091223,,,A*59
###2023-12-09 12:53:10.957964$GNGGA,175310.10,4138.0575844,N,07032.3852422,W,1,24,0.6,13.341,M,-29.744,M,0.0,*54
###2023-12-09 12:53:10.959846$GPGSA,A,3,03,04,16,26,28,29,31,32,,,,,1.1,0.6,0.9*3B
###2023-12-09 12:53:10.961560$GLGSA,A,3,65,71,72,73,74,75,,,,,,,1.1,0.6,0.9*24
###2023-12-09 12:53:10.963161$GAGSA,A,3,04,19,21,27,,,,,,,,,1.1,0.6,0.9*26
###2023-12-09 12:53:10.964803$GBGSA,A,3,14,24,25,26,33,,,,,,,,1.1,0.6,0.9*2F
###2023-12-09 12:53:10.967129$GPGSV,2,1,08,03,37,267,41,04,29,311,43,16,45,210,45,26,75,209,47*72
###2023-12-09 12:53:10.969460$GPGSV,2,2,08,28,52,066,46,29,26,065,44,31,71,026,48,32,23,138,46*76
###2023-12-09 12:53:10.971791$GLGSV,2,1,06,65,20,328,40,71,45,172,49,72,72,285,46,73,39,039,47*68
###2023-12-09 12:53:10.973532$GLGSV,2,2,06,74,71,324,43,75,29,249,42,,,,,,,,*64
###2023-12-09 12:53:10.975854$GAGSV,1,1,04,04,26,312,41,19,85,252,40,21,84,154,47,27,36,048,45*6C
###2023-12-09 12:53:10.978164$GBGSV,2,1,05,14,47,194,46,24,76,016,48,25,38,259,43,26,29,061,44*64
###2023-12-09 12:53:10.979628$GBGSV,2,2,05,33,60,238,46,,,,,,,,,,,,*53
###2023-12-09 12:53:10.980944$GNVTG,305.49,T,,M,0.37,N,0.68,K,A*22
###2023-12-09 12:53:10.982593$GNGST,175310.10,18.000,,,,0.076,0.067,0.160*59
###2023-12-09 12:53:10.983878$GNZDA,175310.10,09,12,2023,00,00*71
###2023-12-09 12:53:10.984515$GNEBP,,,,,,M*13
###2023-12-09 12:53:11.153451$GNGGA,175310.30,4138.0576017,N,07032.3852809,W,1,24,0.6,13.345,M,-29.744,M,0.0,*5A
###2023-12-09 12:53:11.353666$GNGGA,175310.50,4138.0576276,N,07032.3853312,W,1,24,0.6,13.352,M,-29.744,M,0.0,*5F
###2023-12-09 12:53:11.553564$GNGGA,175310.70,4138.0576367,N,07032.3853630,W,1,24,0.6,13.348,M,-29.744,M,0.0,*52
###2023-12-09 12:53:11.752602$GNGGA,175310.90,4138.0576237,N,07032.3853633,W,1,24,0.6,13.340,M,-29.744,M,0.0,*53
###2023-12-09 12:53:11.954058$GNRMC,175311.10,A,4138.0576218,N,07032.3853745,W,0.51,305.49,091223,,,A*5B
###2023-12-09 12:53:11.956933$GNGGA,175311.10,4138.0576218,N,07032.3853745,W,1,24,0.6,13.337,M,-29.744,M,0.0,*57
###2023-12-09 12:53:11.958801$GPGSA,A,3,03,04,16,26,28,29,31,32,,,,,1.1,0.6,0.9*3B
###2023-12-09 12:53:11.960508$GLGSA,A,3,65,71,72,73,74,75,,,,,,,1.1,0.6,0.9*24
###2023-12-09 12:53:11.962084$GAGSA,A,3,04,19,21,27,,,,,,,,,1.1,0.6,0.9*26
###2023-12-09 12:53:11.963739$GBGSA,A,3,14,24,25,26,33,,,,,,,,1.1,0.6,0.9*2F
###2023-12-09 12:53:11.966063$GPGSV,2,1,08,03,36,266,43,04,29,311,42,16,45,210,45,26,75,209,47*71
###2023-12-09 12:53:11.968398$GPGSV,2,2,08,28,52,066,46,29,26,065,45,31,71,026,48,32,23,138,46*77
###2023-12-09 12:53:11.970739$GLGSV,2,1,06,65,20,328,42,71,45,172,48,72,72,285,45,73,39,039,47*68
###2023-12-09 12:53:11.972488$GLGSV,2,2,06,74,71,324,43,75,29,249,42,,,,,,,,*64
###2023-12-09 12:53:11.974820$GAGSV,1,1,04,04,26,312,42,19,85,252,40,21,84,154,47,27,36,048,45*6F
###2023-12-09 12:53:11.977147$GBGSV,2,1,05,14,47,194,46,24,76,016,48,25,38,259,43,26,29,061,44*64
###2023-12-09 12:53:11.978612$GBGSV,2,2,05,33,60,238,46,,,,,,,,,,,,*53
###2023-12-09 12:53:11.979937$GNVTG,305.49,T,,M,0.51,N,0.94,K,A*21
###2023-12-09 12:53:11.981584$GNGST,175311.10,18.000,,,,0.075,0.067,0.160*5B
###2023-12-09 12:53:11.982886$GNZDA,175311.10,09,12,2023,00,00*70
###2023-12-09 12:53:11.983526$GNEBP,,,,,,M*13
###2023-12-09 12:53:12.152903$GNGGA,175311.30,4138.0576467,N,07032.3854251,W,1,24,0.6,13.359,M,-29.744,M,0.0,*54
###2023-12-09 12:53:12.354530$GNGGA,175311.50,4138.0576743,N,07032.3854772,W,1,24,0.6,13.351,M,-29.744,M,0.0,*5B
###2023-12-09 12:53:12.552621$GNGGA,175311.70,4138.0576731,N,07032.3854894,W,1,24,0.6,13.329,M,-29.744,M,0.0,*54
###2023-12-09 12:53:12.753547$GNGGA,175311.90,4138.0576566,N,07032.3854804,W,1,24,0.6,13.314,M,-29.744,M,0.0,*5D
###2023-12-09 12:53:12.954055$GNRMC,175312.10,A,4138.0576652,N,07032.3855059,W,0.89,305.93,091223,,,A*5C
###2023-12-09 12:53:12.956934$GNGGA,175312.10,4138.0576652,N,07032.3855059,W,1,24,0.6,13.330,M,-29.744,M,0.0,*55
###2023-12-09 12:53:12.958804$GPGSA,A,3,03,04,16,26,28,29,31,32,,,,,1.1,0.6,0.9*3B
###2023-12-09 12:53:12.960518$GLGSA,A,3,65,71,72,73,74,75,,,,,,,1.1,0.6,0.9*24
###2023-12-09 12:53:12.962090$GAGSA,A,3,04,19,21,27,,,,,,,,,1.1,0.6,0.9*26
###2023-12-09 12:53:12.963740$GBGSA,A,3,14,24,25,26,33,,,,,,,,1.1,0.6,0.9*2F
###2023-12-09 12:53:12.966048$GPGSV,2,1,08,03,36,266,43,04,29,311,42,16,45,210,45,26,75,209,48*7E
###2023-12-09 12:53:12.968384$GPGSV,2,2,08,28,52,066,47,29,26,065,45,31,71,026,48,32,23,138,46*76
###2023-12-09 12:53:12.970718$GLGSV,2,1,06,65,20,328,41,71,45,172,47,72,72,285,45,73,39,039,47*64
###2023-12-09 12:53:12.972462$GLGSV,2,2,06,74,71,324,43,75,29,249,41,,,,,,,,*67
###2023-12-09 12:53:12.974782$GAGSV,1,1,04,04,26,312,41,19,85,252,40,21,84,154,46,27,36,048,45*6D
###2023-12-09 12:53:12.977104$GBGSV,2,1,05,14,47,194,46,24,76,016,48,25,38,259,44,26,29,061,45*62
###2023-12-09 12:53:12.978553$GBGSV,2,2,05,33,60,238,46,,,,,,,,,,,,*53
###2023-12-09 12:53:12.979887$GNVTG,305.93,T,,M,0.89,N,1.66,K,A*2F
###2023-12-09 12:53:12.981534$GNGST,175312.10,18.000,,,,0.075,0.066,0.160*59
###2023-12-09 12:53:12.982831$GNZDA,175312.10,09,12,2023,00,00*73
###2023-12-09 12:53:12.983469$GNEBP,,,,,,M*13
###2023-12-09 12:53:13.153920$GNGGA,175312.30,4138.0576998,N,07032.3855708,W,1,24,0.6,13.352,M,-29.744,M,0.0,*59
###2023-12-09 12:53:13.354304$GNGGA,175312.50,4138.0577178,N,07032.3856109,W,1,24,0.6,13.344,M,-29.744,M,0.0,*5B
###2023-12-09 12:53:13.553524$GNGGA,175312.70,4138.0577028,N,07032.3855978,W,1,24,0.6,13.326,M,-29.744,M,0.0,*54
###2023-12-09 12:53:13.753194$GNGGA,175312.90,4138.0576935,N,07032.3855983,W,1,24,0.6,13.311,M,-29.744,M,0.0,*5E
###2023-12-09 12:53:13.954189$GNRMC,175313.10,A,4138.0577225,N,07032.3856570,W,1.21,305.30,091223,,,A*5F
###2023-12-09 12:53:13.957062$GNGGA,175313.10,4138.0577225,N,07032.3856570,W,1,24,0.6,13.343,M,-29.744,M,0.0,*58
###2023-12-09 12:53:13.958932$GPGSA,A,3,03,04,16,26,28,29,31,32,,,,,1.1,0.6,0.9*3B
###2023-12-09 12:53:13.960638$GLGSA,A,3,65,71,72,73,74,75,,,,,,,1.1,0.6,0.9*24
###2023-12-09 12:53:13.962206$GAGSA,A,3,04,19,21,27,,,,,,,,,1.1,0.6,0.9*26
###2023-12-09 12:53:13.963855$GBGSA,A,3,14,24,25,26,33,,,,,,,,1.1,0.6,0.9*2F
###2023-12-09 12:53:13.966167$GPGSV,2,1,08,03,36,266,43,04,29,311,42,16,45,210,44,26,75,209,48*7F
