###2023-12-09 13:42:26.797781$GNGGA,184225.90,4138.0394787,N,07032.4269784,W,1,22,0.7,13.596,M,-29.745,M,0.0,*5C
###2023-12-09 13:42:26.999824$GNRMC,184226.10,A,4138.0394756,N,07032.4269615,W,0.27,287.37,091223,,,A*56
###2023-12-09 13:42:27.003324$GNGGA,184226.10,4138.0394756,N,07032.4269615,W,1,21,0.7,13.614,M,-29.745,M,0.0,*58
###2023-12-09 13:42:27.005524$GPGSA,A,3,03,09,16,26,28,29,31,,,,,,1.1,0.7,0.9*36
###2023-12-09 13:42:27.007541$GLGSA,A,3,65,72,73,74,75,,,,,,,,1.1,0.7,0.9*23
###2023-12-09 13:42:27.009383$GAGSA,A,3,19,21,27,,,,,,,,,,1.1,0.7,0.9*23
###2023-12-09 13:42:27.011384$GBGSA,A,3,12,24,25,33,35,,,,,,,,1.1,0.7,0.9*2A
###2023-12-09 13:42:27.014199$GPGSV,2,1,07,03,24,243,38,09,15,317,36,16,70,226,47,26,80,041,48*7B
###2023-12-09 13:42:27.016678$GPGSV,2,2,07,28,35,088,43,29,19,044,39,31,57,071,45,,,,*4B
###2023-12-09 13:42:27.019504$GLGSV,2,1,05,65,41,315,36,72,59,216,51,73,20,054,40,74,57,019,42*63
###2023-12-09 13:42:27.021268$GLGSV,2,2,05,75,45,276,40,,,,,,,,,,,,*54
###2023-12-09 13:42:27.023733$GAGSV,1,1,03,19,69,180,43,21,74,044,47,27,20,051,40,,,,*56
###2023-12-09 13:42:27.026548$GBGSV,2,1,05,12,18,124,42,24,60,049,47,25,53,279,42,33,43,215,41*67
###2023-12-09 13:42:27.028336$GBGSV,2,2,05,35,16,054,42,,,,,,,,,,,,*58
###2023-12-09 13:42:27.029957$GNVTG,287.37,T,,M,0.27,N,0.50,K,A*2A
###2023-12-09 13:42:27.031944$GNGST,184226.10,7.500,,,,0.140,0.110,0.210*69
###2023-12-09 13:42:27.033508$GNZDA,184226.10,09,12,2023,00,00*7B
###2023-12-09 13:42:27.034282$GNEBP,,,,,,M*13
###2023-12-09 13:42:27.205479$GNGGA,184226.30,4138.0394796,N,07032.4269474,W,1,21,0.7,13.643,M,-29.745,M,0.0,*51
###2023-12-09 13:42:27.398273$GNGGA,184226.50,4138.0394811,N,07032.4269366,W,1,20,0.7,13.644,M,-29.745,M,0.0,*55
###2023-12-09 13:42:27.598405$GNGGA,184226.70,4138.0394774,N,07032.4269293,W,1,21,0.7,13.625,M,-29.745,M,0.0,*56
###2023-12-09 13:42:27.799653$GNGGA,184226.90,4138.0394807,N,07032.4269253,W,1,20,0.8,13.633,M,-29.745,M,0.0,*56
###2023-12-09 13:42:28.003649$GNRMC,184227.10,A,4138.0394829,N,07032.4269242,W,0.04,287.37,091223,,,A*57
###2023-12-09 13:42:28.007114$GNGGA,184227.10,4138.0394829,N,07032.4269242,W,1,21,0.7,13.644,M,-29.745,M,0.0,*5D
###2023-12-09 13:42:28.009282$GPGSA,A,3,03,04,16,26,28,29,31,,,,,,1.2,0.7,1.0*30
###2023-12-09 13:42:28.011288$GLGSA,A,3,65,72,73,74,75,,,,,,,,1.2,0.7,1.0*28
###2023-12-09 13:42:28.013196$GAGSA,A,3,04,19,21,27,,,,,,,,,1.2,0.7,1.0*2C
###2023-12-09 13:42:28.015201$GBGSA,A,3,12,24,25,33,35,,,,,,,,1.2,0.7,1.0*21
###2023-12-09 13:42:28.018023$GPGSV,2,1,07,03,24,243,36,04,49,306,40,16,70,226,48,26,80,041,49*7E
###2023-12-09 13:42:28.020500$GPGSV,2,2,07,28,35,088,44,29,19,044,42,31,57,071,47,,,,*42
###2023-12-09 13:42:28.023336$GLGSV,2,1,05,65,41,315,38,72,59,216,49,73,20,054,41,74,57,019,42*65
###2023-12-09 13:42:28.025097$GLGSV,2,2,05,75,45,276,41,,,,,,,,,,,,*55
###2023-12-09 13:42:28.027923$GAGSV,1,1,04,04,42,309,37,19,69,180,42,21,74,044,47,27,20,051,37*6C
###2023-12-09 13:42:28.030826$GBGSV,2,1,05,12,18,124,42,24,60,049,47,25,53,279,46,33,43,215,43*61
###2023-12-09 13:42:28.032592$GBGSV,2,2,05,35,16,054,43,,,,,,,,,,,,*59
###2023-12-09 13:42:28.034191$GNVTG,287.37,T,,M,0.04,N,0.07,K,A*29
###2023-12-09 13:42:28.036154$GNGST,184227.10,6.100,,,,0.140,0.110,0.210*6D
###2023-12-09 13:42:28.037716$GNZDA,184227.10,09,12,2023,00,00*7A
###2023-12-09 13:42:28.038487$GNEBP,,,,,,M*13
###2023-12-09 13:42:28.199152$GNGGA,184227.30,4138.0394800,N,07032.4269219,W,1,21,0.7,13.662,M,-29.745,M,0.0,*5E
###2023-12-09 13:42:28.400672$GNGGA,184227.50,4138.0394747,N,07032.4269150,W,1,21,0.7,13.669,M,-29.745,M,0.0,*51
###2023-12-09 13:42:28.596940$GNGGA,184227.70,4138.0394694,N,07032.4269166,W,1,21,0.7,13.668,M,-29.745,M,0.0,*58
###2023-12-09 13:42:28.798232$GNGGA,184227.90,4138.0394670,N,07032.4269209,W,1,21,0.7,13.669,M,-29.745,M,0.0,*57
###2023-12-09 13:42:29.002721$GNRMC,184228.10,A,4138.0394705,N,07032.4269294,W,0.02,287.37,091223,,,A*54
###2023-12-09 13:42:29.005593$GNGGA,184228.10,4138.0394705,N,07032.4269294,W,1,21,0.7,13.665,M,-29.745,M,0.0,*5B
###2023-12-09 13:42:29.007404$GPGSA,A,3,03,04,16,26,28,29,31,,,,,,1.2,0.7,1.0*30
###2023-12-09 13:42:29.009062$GLGSA,A,3,65,72,73,74,75,,,,,,,,1.2,0.7,1.0*28
###2023-12-09 13:42:29.010661$GAGSA,A,3,04,19,21,27,,,,,,,,,1.2,0.7,1.0*2C
###2023-12-09 13:42:29.012316$GBGSA,A,3,12,24,25,33,35,,,,,,,,1.2,0.7,1.0*21
###2023-12-09 13:42:29.014663$GPGSV,2,1,07,03,24,243,36,04,49,306,40,16,70,226,48,26,80,041,48*7F
###2023-12-09 13:42:29.016718$GPGSV,2,2,07,28,35,088,44,29,19,044,41,31,57,071,47,,,,*41
###2023-12-09 13:42:29.019070$GLGSV,2,1,05,65,41,315,37,72,59,216,49,73,20,054,42,74,57,019,43*68
###2023-12-09 13:42:29.020529$GLGSV,2,2,05,75,45,276,41,,,,,,,,,,,,*55
###2023-12-09 13:42:29.022867$GAGSV,1,1,04,04,42,309,35,19,69,180,42,21,74,044,47,27,20,051,37*6E
###2023-12-09 13:42:29.025206$GBGSV,2,1,05,12,18,124,42,24,60,050,45,25,53,279,44,33,43,215,44*6E
###2023-12-09 13:42:29.026673$GBGSV,2,2,05,35,16,054,43,,,,,,,,,,,,*59
###2023-12-09 13:42:29.027997$GNVTG,287.37,T,,M,0.02,N,0.04,K,A*2C
###2023-12-09 13:42:29.029608$GNGST,184228.10,6.000,,,,0.140,0.110,0.210*63
###2023-12-09 13:42:29.030915$GNZDA,184228.10,09,12,2023,00,00*75
###2023-12-09 13:42:29.031554$GNEBP,,,,,,M*13
###2023-12-09 13:42:29.203716$GNGGA,184228.30,4138.0394752,N,07032.4269438,W,1,21,0.7,13.662,M,-29.745,M,0.0,*5C
###2023-12-09 13:42:29.399242$GNGGA,184228.50,4138.0394818,N,07032.4269607,W,1,21,0.7,13.674,M,-29.745,M,0.0,*52
###2023-12-09 13:42:29.598776$GNGGA,184228.70,4138.0394818,N,07032.4269725,W,1,21,0.7,13.665,M,-29.745,M,0.0,*51
###2023-12-09 13:42:29.798128$GNGGA,184228.90,4138.0394818,N,07032.4269809,W,1,22,0.7,13.647,M,-29.745,M,0.0,*5D
###2023-12-09 13:42:30.000381$GNRMC,184229.10,A,4138.0394811,N,07032.4269879,W,0.10,287.37,091223,,,A*55
###2023-12-09 13:42:30.003265$GNGGA,184229.10,4138.0394811,N,07032.4269879,W,1,22,0.7,13.631,M,-29.745,M,0.0,*5B
###2023-12-09 13:42:30.005128$GPGSA,A,3,03,04,09,16,26,28,29,31,,,,,1.1,0.7,0.9*32
###2023-12-09 13:42:30.006791$GLGSA,A,3,65,72,73,74,75,,,,,,,,1.1,0.7,0.9*23
###2023-12-09 13:42:30.008383$GAGSA,A,3,04,19,21,27,,,,,,,,,1.1,0.7,0.9*27
###2023-12-09 13:42:30.010030$GBGSA,A,3,12,24,25,33,35,,,,,,,,1.1,0.7,0.9*2A
###2023-12-09 13:42:30.012376$GPGSV,2,1,08,03,24,243,36,04,49,306,39,09,15,317,35,16,70,226,48*75
###2023-12-09 13:42:30.014727$GPGSV,2,2,08,26,80,041,49,28,35,088,45,29,19,044,41,31,57,071,48*74
###2023-12-09 13:42:30.017064$GLGSV,2,1,05,65,41,315,37,72,59,216,49,73,20,054,41,74,57,019,42*6A
###2023-12-09 13:42:30.018514$GLGSV,2,2,05,75,45,276,40,,,,,,,,,,,,*54
###2023-12-09 13:42:30.020852$GAGSV,1,1,04,04,42,309,35,19,69,180,42,21,74,044,47,27,20,051,37*6E
###2023-12-09 13:42:30.023196$GBGSV,2,1,05,12,18,124,42,24,60,050,46,25,53,280,43,33,43,215,44*6C
###2023-12-09 13:42:30.024654$GBGSV,2,2,05,35,16,054,42,,,,,,,,,,,,*58
###2023-12-09 13:42:30.025978$GNVTG,287.37,T,,M,0.10,N,0.18,K,A*22
###2023-12-09 13:42:30.027608$GNGST,184229.10,6.900,,,,0.140,0.110,0.210*6B
###2023-12-09 13:42:30.028899$GNZDA,184229.10,09,12,2023,00,00*74
###2023-12-09 13:42:30.029540$GNEBP,,,,,,M*13
###2023-12-09 13:42:30.200246$GNGGA,184229.30,4138.0394850,N,07032.4270004,W,1,22,0.7,13.651,M,-29.745,M,0.0,*50
###2023-12-09 13:42:30.400088$GNGGA,184229.50,4138.0394838,N,07032.4270104,W,1,22,0.7,13.669,M,-29.745,M,0.0,*52
###2023-12-09 13:42:30.597047$GNGGA,184229.70,4138.0394815,N,07032.4270183,W,1,22,0.7,13.658,M,-29.745,M,0.0,*52
###2023-12-09 13:42:30.797900$GNGGA,184229.90,4138.0394826,N,07032.4270221,W,1,21,0.7,13.639,M,-29.745,M,0.0,*53
###2023-12-09 13:42:30.999614$GNRMC,184230.10,A,4138.0394852,N,07032.4270260,W,0.08,287.37,091223,,,A*59
###2023-12-09 13:42:31.002487$GNGGA,184230.10,4138.0394852,N,07032.4270260,W,1,21,0.7,13.636,M,-29.745,M,0.0,*5A
###2023-12-09 13:42:31.004358$GPGSA,A,3,03,04,09,16,26,28,29,31,,,,,1.1,0.7,0.8*33
###2023-12-09 13:42:31.005944$GLGSA,A,3,72,73,74,75,,,,,,,,,1.1,0.7,0.8*21
###2023-12-09 13:42:31.007472$GAGSA,A,3,19,21,27,,,,,,,,,,1.1,0.7,0.8*22
###2023-12-09 13:42:31.009115$GBGSA,A,3,12,24,25,33,35,,,,,,,,1.1,0.7,0.8*2B
###2023-12-09 13:42:31.011444$GPGSV,2,1,08,03,24,243,37,04,49,306,37,09,15,317,35,16,70,226,47*75
###2023-12-09 13:42:31.014026$GPGSV,2,2,08,26,80,041,49,28,35,088,43,29,19,044,42,31,57,071,47*7E
###2023-12-09 13:42:31.016389$GLGSV,1,1,04,72,59,216,49,73,20,054,40,74,57,019,42,75,45,276,39*66
###2023-12-09 13:42:31.018429$GAGSV,1,1,03,19,69,180,42,21,74,044,47,27,20,051,40,,,,*57
###2023-12-09 13:42:31.020757$GBGSV,2,1,05,12,18,124,44,24,60,050,48,25,53,280,41,33,43,215,43*61
###2023-12-09 13:42:31.022207$GBGSV,2,2,05,35,16,054,43,,,,,,,,,,,,*59
###2023-12-09 13:42:31.023546$GNVTG,287.37,T,,M,0.08,N,0.14,K,A*27
###2023-12-09 13:42:31.025163$GNGST,184230.10,6.500,,,,0.140,0.110,0.210*6F
###2023-12-09 13:42:31.026453$GNZDA,184230.10,09,12,2023,00,00*7C
