###2023-12-09 13:07:26.001146$GNZDA,180725.10,09,12,2023,00,00*79
###2023-12-09 13:07:26.001807$GNEBP,,,,,,M*13
###2023-12-09 13:07:26.168376$GNGGA,180725.30,4138.0771345,N,07032.3721055,W,1,25,0.6,13.297,M,-29.743,M,0.0,*51
###2023-12-09 13:07:26.367548$GNGGA,180725.50,4138.0771077,N,07032.3719450,W,1,25,0.6,13.291,M,-29.743,M,0.0,*59
###2023-12-09 13:07:26.567949$GNGGA,180725.70,4138.0770843,N,07032.3717963,W,1,25,0.6,13.274,M,-29.743,M,0.0,*5D
###2023-12-09 13:07:26.768936$GNGGA,180725.90,4138.0770473,N,07032.3716513,W,1,25,0.6,13.296,M,-29.743,M,0.0,*5A
###2023-12-09 13:07:26.969701$GNRMC,180726.10,A,4138.0769791,N,07032.3715049,W,2.39,123.62,091223,,,A*5C
###2023-12-09 13:07:26.972574$GNGGA,180726.10,4138.0769791,N,07032.3715049,W,1,25,0.6,13.315,M,-29.743,M,0.0,*55
###2023-12-09 13:07:26.974433$GPGSA,A,3,03,04,16,26,28,29,31,32,,,,,1.1,0.6,0.9*3B
###2023-12-09 13:07:26.976156$GLGSA,A,3,65,71,72,73,74,75,,,,,,,1.1,0.6,0.9*24
###2023-12-09 13:07:26.977742$GAGSA,A,3,04,19,21,27,,,,,,,,,1.1,0.6,0.9*26
###2023-12-09 13:07:26.979465$GBGSA,A,3,14,24,25,26,33,35,,,,,,,1.1,0.6,0.9*29
###2023-12-09 13:07:26.981791$GPGSV,2,1,08,03,34,258,41,04,35,311,43,16,53,214,46,26,83,210,47*71
###2023-12-09 13:07:26.984136$GPGSV,2,2,08,28,48,072,45,29,25,059,44,31,68,042,46,32,17,141,40*7C
###2023-12-09 13:07:26.986470$GLGSV,2,1,06,65,26,326,44,71,37,173,44,72,72,258,46,73,33,043,46*6B
###2023-12-09 13:07:26.988229$GLGSV,2,2,06,74,68,345,42,75,34,256,43,,,,,,,,*69
###2023-12-09 13:07:26.990571$GAGSV,1,1,04,04,31,312,42,19,83,203,39,21,85,092,45,27,31,048,43*6C
###2023-12-09 13:07:26.992904$GBGSV,2,1,06,14,41,192,43,24,72,029,49,25,42,264,46,26,24,064,45*64
###2023-12-09 13:07:26.994663$GBGSV,2,2,06,33,56,229,48,35,15,067,45,,,,,,,,*69
###2023-12-09 13:07:26.995989$GNVTG,123.62,T,,M,2.39,N,4.43,K,A*2C
###2023-12-09 13:07:26.997641$GNGST,180726.10,18.000,,,,0.083,0.067,0.150*5B
###2023-12-09 13:07:26.998947$GNZDA,180726.10,09,12,2023,00,00*7A
###2023-12-09 13:07:26.999590$GNEBP,,,,,,M*13
###2023-12-09 13:07:27.170389$GNGGA,180726.30,4138.0769127,N,07032.3713706,W,1,25,0.6,13.294,M,-29.743,M,0.0,*5E
###2023-12-09 13:07:27.369049$GNGGA,180726.50,4138.0768553,N,07032.3712397,W,1,25,0.6,13.308,M,-29.743,M,0.0,*57
###2023-12-09 13:07:27.567962$GNGGA,180726.70,4138.0767813,N,07032.3710905,W,1,25,0.6,13.324,M,-29.743,M,0.0,*5E
###2023-12-09 13:07:27.771086$GNGGA,180726.90,4138.0766895,N,07032.3709547,W,1,25,0.6,13.315,M,-29.743,M,0.0,*5F
###2023-12-09 13:07:27.973656$GNRMC,180727.10,A,4138.0765992,N,07032.3708272,W,2.45,133.18,091223,,,A*5D
###2023-12-09 13:07:27.976541$GNGGA,180727.10,4138.0765992,N,07032.3708272,W,1,25,0.6,13.325,M,-29.743,M,0.0,*50
###2023-12-09 13:07:27.978399$GPGSA,A,3,03,04,16,26,28,29,31,32,,,,,1.1,0.6,0.9*3B
###2023-12-09 13:07:27.980134$GLGSA,A,3,65,71,72,73,74,75,,,,,,,1.1,0.6,0.9*24
###2023-12-09 13:07:27.981715$GAGSA,A,3,04,19,21,27,,,,,,,,,1.1,0.6,0.9*26
###2023-12-09 13:07:27.983435$GBGSA,A,3,14,24,25,26,33,35,,,,,,,1.1,0.6,0.9*29
###2023-12-09 13:07:27.985767$GPGSV,2,1,08,03,34,258,43,04,35,311,43,16,53,214,46,26,83,210,48*7C
###2023-12-09 13:07:27.988114$GPGSV,2,2,08,28,48,072,45,29,25,059,44,31,68,042,47,32,17,141,41*7C
###2023-12-09 13:07:27.990455$GLGSV,2,1,06,65,26,326,41,71,37,173,44,72,72,258,46,73,33,043,45*6D
###2023-12-09 13:07:27.992216$GLGSV,2,2,06,74,68,345,43,75,34,256,46,,,,,,,,*6D
###2023-12-09 13:07:27.994545$GAGSV,1,1,04,04,31,312,42,19,83,203,40,21,85,092,46,27,31,048,43*61
###2023-12-09 13:07:27.996905$GBGSV,2,1,06,14,41,192,44,24,72,029,48,25,42,264,46,26,24,064,44*63
###2023-12-09 13:07:27.998665$GBGSV,2,2,06,33,56,229,48,35,15,067,44,,,,,,,,*68
###2023-12-09 13:07:27.999995$GNVTG,133.18,T,,M,2.45,N,4.54,K,A*2D
###2023-12-09 13:07:28.001646$GNGST,180727.10,18.000,,,,0.083,0.067,0.150*5A
###2023-12-09 13:07:28.002949$GNZDA,180727.10,09,12,2023,00,00*7B
###2023-12-09 13:07:28.003589$GNEBP,,,,,,M*13
###2023-12-09 13:07:28.169304$GNGGA,180727.30,4138.0765045,N,07032.3706807,W,1,25,0.6,13.333,M,-29.743,M,0.0,*50
###2023-12-09 13:07:28.368654$GNGGA,180727.50,4138.0764091,N,07032.3705224,W,1,25,0.6,13.314,M,-29.743,M,0.0,*53
###2023-12-09 13:07:28.570661$GNGGA,180727.70,4138.0763164,N,07032.3703741,W,1,25,0.6,13.321,M,-29.743,M,0.0,*5B
###2023-12-09 13:07:28.767941$GNGGA,180727.90,4138.0762057,N,07032.3702197,W,1,25,0.6,13.335,M,-29.743,M,0.0,*5C
###2023-12-09 13:07:28.973989$GNRMC,180728.10,A,4138.0761043,N,07032.3700616,W,2.59,126.93,091223,,,A*57
###2023-12-09 13:07:28.976861$GNGGA,180728.10,4138.0761043,N,07032.3700616,W,1,25,0.6,13.307,M,-29.743,M,0.0,*50
###2023-12-09 13:07:28.978734$GPGSA,A,3,03,04,16,26,28,29,31,32,,,,,1.1,0.6,0.9*3B
###2023-12-09 13:07:28.980453$GLGSA,A,3,65,71,72,73,74,75,,,,,,,1.1,0.6,0.9*24
###2023-12-09 13:07:28.982035$GAGSA,A,3,04,19,21,27,,,,,,,,,1.1,0.6,0.9*26
###2023-12-09 13:07:28.983754$GBGSA,A,3,14,24,25,26,33,35,,,,,,,1.1,0.6,0.9*29
###2023-12-09 13:07:28.986092$GPGSV,2,1,08,03,34,258,43,04,35,311,44,16,53,214,47,26,83,210,48*7A
###2023-12-09 13:07:28.988437$GPGSV,2,2,08,28,47,073,45,29,25,059,43,31,68,042,47,32,17,141,41*75
###2023-12-09 13:07:28.990789$GLGSV,2,1,06,65,26,326,42,71,37,173,45,72,72,258,46,73,33,043,46*6C
###2023-12-09 13:07:28.992535$GLGSV,2,2,06,74,68,345,42,75,34,256,45,,,,,,,,*6F
###2023-12-09 13:07:28.994880$GAGSV,1,1,04,04,31,312,43,19,83,203,40,21,85,092,46,27,31,048,43*60
###2023-12-09 13:07:28.997217$GBGSV,2,1,06,14,41,192,44,24,72,029,49,25,42,264,46,26,24,064,44*62
###2023-12-09 13:07:28.999000$GBGSV,2,2,06,33,56,229,49,35,15,067,45,,,,,,,,*68
###2023-12-09 13:07:29.000323$GNVTG,126.93,T,,M,2.59,N,4.79,K,A*28
###2023-12-09 13:07:29.001968$GNGST,180728.10,18.000,,,,0.082,0.066,0.150*55
###2023-12-09 13:07:29.003270$GNZDA,180728.10,09,12,2023,00,00*74
###2023-12-09 13:07:29.003911$GNEBP,,,,,,M*13
###2023-12-09 13:07:29.169222$GNGGA,180728.30,4138.0760253,N,07032.3698951,W,1,25,0.6,13.319,M,-29.743,M,0.0,*53
###2023-12-09 13:07:29.368502$GNGGA,180728.50,4138.0759246,N,07032.3697158,W,1,25,0.6,13.324,M,-29.743,M,0.0,*5B
###2023-12-09 13:07:29.569231$GNGGA,180728.70,4138.0758343,N,07032.3695467,W,1,25,0.6,13.297,M,-29.743,M,0.0,*5E
###2023-12-09 13:07:29.768090$GNGGA,180728.90,4138.0757612,N,07032.3693554,W,1,25,0.6,13.321,M,-29.743,M,0.0,*55
###2023-12-09 13:07:29.971334$GNRMC,180729.10,A,4138.0756811,N,07032.3691592,W,2.86,115.05,091223,,,A*56
###2023-12-09 13:07:29.974200$GNGGA,180729.10,4138.0756811,N,07032.3691592,W,1,25,0.6,13.306,M,-29.743,M,0.0,*5D
###2023-12-09 13:07:29.976082$GPGSA,A,3,03,04,16,26,28,29,31,32,,,,,1.1,0.6,0.9*3B
###2023-12-09 13:07:29.977804$GLGSA,A,3,65,71,72,73,74,75,,,,,,,1.1,0.6,0.9*24
###2023-12-09 13:07:29.979405$GAGSA,A,3,04,19,21,27,,,,,,,,,1.1,0.6,0.9*26
###2023-12-09 13:07:29.981122$GBGSA,A,3,14,24,25,26,33,35,,,,,,,1.1,0.6,0.9*29
###2023-12-09 13:07:29.983465$GPGSV,2,1,08,03,34,258,43,04,35,311,43,16,53,214,47,26,83,210,47*72
###2023-12-09 13:07:29.985801$GPGSV,2,2,08,28,47,073,43,29,25,058,42,31,68,042,46,32,17,141,41*72
###2023-12-09 13:07:29.988146$GLGSV,2,1,06,65,26,326,41,71,37,173,46,72,72,258,46,73,33,043,44*6E
###2023-12-09 13:07:29.989894$GLGSV,2,2,06,74,68,345,43,75,34,256,45,,,,,,,,*6E
###2023-12-09 13:07:29.992220$GAGSV,1,1,04,04,31,312,43,19,83,203,40,21,85,092,46,27,31,048,42*61
###2023-12-09 13:07:29.994534$GBGSV,2,1,06,14,41,192,46,24,72,029,50,25,42,264,47,26,24,064,44*69
###2023-12-09 13:07:29.996283$GBGSV,2,2,06,33,56,229,50,35,15,067,44,,,,,,,,*61
###2023-12-09 13:07:29.997601$GNVTG,115.05,T,,M,2.86,N,5.29,K,A*21
###2023-12-09 13:07:29.999254$GNGST,180729.10,18.000,,,,0.082,0.066,0.150*54
###2023-12-09 13:07:30.000548$GNZDA,180729.10,09,12,2023,00,00*75
###2023-12-09 13:07:30.001184$GNEBP,,,,,,M*13
###2023-12-09 13:07:30.168318$GNGGA,180729.30,4138.0756203,N,07032.3689645,W,1,25,0.6,13.307,M,-29.743,M,0.0,*57
###2023-12-09 13:07:30.369939$GNGGA,180729.50,4138.0755625,N,07032.3687497,W,1,25,0.6,13.311,M,-29.743,M,0.0,*56
###2023-12-09 13:07:30.569324$GNGGA,180729.70,4138.0755039,N,07032.3685407,W,1,25,0.6,13.293,M,-29.743,M,0.0,*5F
###2023-12-09 13:07:30.769370$GNGGA,180729.90,4138.0754460,N,07032.3683277,W,1,25,0.6,13.304,M,-29.743,M,0.0,*50
###2023-12-09 13:07:30.971716$GNRMC,180730.10,A,4138.0753766,N,07032.3681084,W,3.17,112.15,091223,,,A*58
###2023-12-09 13:07:30.974618$GNGGA,180730.10,4138.0753766,N,07032.3681084,W,1,25,0.6,13.300,M,-29.743,M,0.0,*5A
###2023-12-09 13:07:30.976485$GPGSA,A,3,03,04,16,26,28,29,31,32,,,,,1.1,0.6,0.9*3B
###2023-12-09 13:07:30.978201$GLGSA,A,3,65,71,72,73,74,75,,,,,,,1.1,0.6,0.9*24
###2023-12-09 13:07:30.979791$GAGSA,A,3,04,19,21,27,,,,,,,,,1.1,0.6,0.9*26
###2023-12-09 13:07:30.981499$GBGSA,A,3,14,24,25,26,33,35,,,,,,,1.1,0.6,0.9*29
###2023-12-09 13:07:30.983833$GPGSV,2,1,08,03,34,258,46,04,35,311,44,16,53,214,50,26,83,210,51*71
###2023-12-09 13:07:30.986167$GPGSV,2,2,08,28,47,073,46,29,25,058,44,31,68,042,48,32,17,141,44*7A
###2023-12-09 13:07:30.988503$GLGSV,2,1,06,65,26,326,41,71,37,173,46,72,72,258,46,73,33,043,44*6E
###2023-12-09 13:07:30.990244$GLGSV,2,2,06,74,68,345,43,75,34,256,46,,,,,,,,*6D
