###2023-12-09 13:41:05.036999$GNEBP,,,,,,M*13
###2023-12-09 13:41:05.202699$GNGGA,184104.30,4138.0265389,N,07032.3895175,W,1,24,0.6,13.347,M,-29.745,M,0.0,*58
###2023-12-09 13:41:05.401236$GNGGA,184104.50,4138.0265527,N,07032.3895764,W,1,25,0.6,13.357,M,-29.745,M,0.0,*5A
###2023-12-09 13:41:05.599139$GNGGA,184104.70,4138.0265530,N,07032.3895871,W,1,25,0.6,13.344,M,-29.745,M,0.0,*57
###2023-12-09 13:41:05.799138$GNGGA,184104.90,4138.0265361,N,07032.3895460,W,1,25,0.6,13.320,M,-29.745,M,0.0,*55
###2023-12-09 13:41:06.002337$GNRMC,184105.10,A,4138.0265318,N,07032.3895518,W,0.74,243.13,091223,,,A*5D
###2023-12-09 13:41:06.005205$GNGGA,184105.10,4138.0265318,N,07032.3895518,W,1,25,0.6,13.334,M,-29.745,M,0.0,*59
###2023-12-09 13:41:06.007067$GPGSA,A,3,03,04,16,26,27,28,29,31,,,,,1.2,0.6,1.0*34
###2023-12-09 13:41:06.008830$GLGSA,A,3,65,71,72,73,74,75,83,,,,,,1.2,0.6,1.0*24
###2023-12-09 13:41:06.010402$GAGSA,A,3,04,19,21,27,,,,,,,,,1.2,0.6,1.0*2D
###2023-12-09 13:41:06.012111$GBGSA,A,3,12,14,24,25,33,35,,,,,,,1.2,0.6,1.0*25
###2023-12-09 13:41:06.014421$GPGSV,2,1,08,03,24,243,35,04,49,306,46,16,69,225,45,26,81,040,49*72
###2023-12-09 13:41:06.016746$GPGSV,2,2,08,27,19,172,43,28,36,087,45,29,19,045,44,31,58,070,48*78
###2023-12-09 13:41:06.019071$GLGSV,2,1,07,65,41,315,42,71,19,176,44,72,59,216,46,73,20,054,45*60
###2023-12-09 13:41:06.021100$GLGSV,2,2,07,74,57,019,42,75,45,276,46,83,16,044,35,,,,*55
###2023-12-09 13:41:06.023439$GAGSV,1,1,04,04,41,309,44,19,69,180,41,21,74,044,46,27,20,051,43*6A
###2023-12-09 13:41:06.025764$GBGSV,2,1,06,12,17,124,45,14,26,189,42,24,60,049,48,25,53,279,46*64
###2023-12-09 13:41:06.027515$GBGSV,2,2,06,33,43,215,44,35,16,054,45,,,,,,,,*6D
###2023-12-09 13:41:06.028838$GNVTG,243.13,T,,M,0.74,N,1.37,K,A*22
###2023-12-09 13:41:06.030439$GNGST,184105.10,6.200,,,,0.100,0.088,0.200*68
###2023-12-09 13:41:06.031730$GNZDA,184105.10,09,12,2023,00,00*79
###2023-12-09 13:41:06.032363$GNEBP,,,,,,M*13
###2023-12-09 13:41:06.204145$GNGGA,184105.30,4138.0265524,N,07032.3896238,W,1,25,0.6,13.380,M,-29.745,M,0.0,*5B
###2023-12-09 13:41:06.398076$GNGGA,184105.50,4138.0265661,N,07032.3896765,W,1,25,0.6,13.374,M,-29.745,M,0.0,*59
###2023-12-09 13:41:06.597865$GNGGA,184105.70,4138.0265581,N,07032.3896536,W,1,25,0.6,13.366,M,-29.745,M,0.0,*51
###2023-12-09 13:41:06.800426$GNGGA,184105.90,4138.0265472,N,07032.3896255,W,1,24,0.6,13.319,M,-29.745,M,0.0,*59
###2023-12-09 13:41:07.003235$GNRMC,184106.10,A,4138.0265568,N,07032.3896673,W,1.15,286.68,091223,,,A*51
###2023-12-09 13:41:07.006073$GNGGA,184106.10,4138.0265568,N,07032.3896673,W,1,24,0.6,13.343,M,-29.745,M,0.0,*57
###2023-12-09 13:41:07.007873$GPGSA,A,3,04,16,26,27,28,29,31,,,,,,1.2,0.6,1.0*37
###2023-12-09 13:41:07.009637$GLGSA,A,3,65,71,72,73,74,75,83,,,,,,1.2,0.6,1.0*24
###2023-12-09 13:41:07.011225$GAGSA,A,3,04,19,21,27,,,,,,,,,1.2,0.6,1.0*2D
###2023-12-09 13:41:07.012928$GBGSA,A,3,12,14,24,25,33,35,,,,,,,1.2,0.6,1.0*25
###2023-12-09 13:41:07.015273$GPGSV,2,1,07,04,49,306,45,16,69,225,46,26,81,040,48,27,19,172,44*73
###2023-12-09 13:41:07.017318$GPGSV,2,2,07,28,36,087,45,29,19,045,44,31,58,070,48,,,,*49
###2023-12-09 13:41:07.019647$GLGSV,2,1,07,65,41,315,43,71,19,176,43,72,59,216,45,73,20,054,46*66
###2023-12-09 13:41:07.021691$GLGSV,2,2,07,74,57,019,43,75,45,276,45,83,16,044,36,,,,*54
###2023-12-09 13:41:07.024022$GAGSV,1,1,04,04,41,309,44,19,69,180,41,21,74,044,47,27,20,051,43*6B
###2023-12-09 13:41:07.026344$GBGSV,2,1,06,12,17,124,43,14,26,189,41,24,60,049,47,25,53,279,46*6E
###2023-12-09 13:41:07.028105$GBGSV,2,2,06,33,43,215,44,35,16,054,44,,,,,,,,*6C
###2023-12-09 13:41:07.029430$GNVTG,286.68,T,,M,1.15,N,2.12,K,A*25
###2023-12-09 13:41:07.031054$GNGST,184106.10,5.900,,,,0.100,0.088,0.200*63
###2023-12-09 13:41:07.032348$GNZDA,184106.10,09,12,2023,00,00*7A
###2023-12-09 13:41:07.032985$GNEBP,,,,,,M*13
###2023-12-09 13:41:07.203664$GNGGA,184106.30,4138.0265796,N,07032.3897501,W,1,25,0.6,13.371,M,-29.745,M,0.0,*51
###2023-12-09 13:41:07.401355$GNGGA,184106.50,4138.0265884,N,07032.3897774,W,1,25,0.6,13.380,M,-29.745,M,0.0,*55
###2023-12-09 13:41:07.598775$GNGGA,184106.70,4138.0265787,N,07032.3897465,W,1,25,0.6,13.377,M,-29.745,M,0.0,*50
###2023-12-09 13:41:07.800540$GNGGA,184106.90,4138.0265735,N,07032.3897372,W,1,24,0.6,13.336,M,-29.745,M,0.0,*52
###2023-12-09 13:41:08.005068$GNRMC,184107.10,A,4138.0265891,N,07032.3897946,W,1.19,289.66,091223,,,A*5E
###2023-12-09 13:41:08.007950$GNGGA,184107.10,4138.0265891,N,07032.3897946,W,1,24,0.6,13.358,M,-29.745,M,0.0,*5F
###2023-12-09 13:41:08.009740$GPGSA,A,3,04,16,26,27,28,29,31,,,,,,1.2,0.6,1.0*37
###2023-12-09 13:41:08.011529$GLGSA,A,3,65,71,72,73,74,75,83,,,,,,1.2,0.6,1.0*24
###2023-12-09 13:41:08.013113$GAGSA,A,3,04,19,21,27,,,,,,,,,1.2,0.6,1.0*2D
###2023-12-09 13:41:08.014832$GBGSA,A,3,12,14,24,25,33,35,,,,,,,1.2,0.6,1.0*25
###2023-12-09 13:41:08.017157$GPGSV,2,1,07,04,49,306,44,16,69,225,45,26,81,040,48,27,19,172,43*76
###2023-12-09 13:41:08.019200$GPGSV,2,2,07,28,36,087,45,29,19,045,43,31,58,070,48,,,,*4E
###2023-12-09 13:41:08.021521$GLGSV,2,1,07,65,41,315,43,71,19,176,42,72,59,216,45,73,20,054,46*67
###2023-12-09 13:41:08.023563$GLGSV,2,2,07,74,57,019,43,75,45,276,45,83,16,044,36,,,,*54
###2023-12-09 13:41:08.025888$GAGSV,1,1,04,04,41,309,45,19,69,180,40,21,74,044,46,27,20,051,43*6A
###2023-12-09 13:41:08.028232$GBGSV,2,1,06,12,17,124,44,14,26,189,42,24,60,049,49,25,53,279,47*65
###2023-12-09 13:41:08.029973$GBGSV,2,2,06,33,43,215,45,35,16,054,46,,,,,,,,*6F
###2023-12-09 13:41:08.031308$GNVTG,289.66,T,,M,1.19,N,2.20,K,A*29
###2023-12-09 13:41:08.032917$GNGST,184107.10,6.100,,,,0.100,0.088,0.200*69
###2023-12-09 13:41:08.034204$GNZDA,184107.10,09,12,2023,00,00*7B
###2023-12-09 13:41:08.034852$GNEBP,,,,,,M*13
###2023-12-09 13:41:08.201239$GNGGA,184107.30,4138.0266082,N,07032.3898701,W,1,24,0.6,13.358,M,-29.745,M,0.0,*56
###2023-12-09 13:41:08.399145$GNGGA,184107.50,4138.0266079,N,07032.3898769,W,1,25,0.6,13.368,M,-29.745,M,0.0,*58
###2023-12-09 13:41:08.600015$GNGGA,184107.70,4138.0265962,N,07032.3898455,W,1,24,0.6,13.356,M,-29.745,M,0.0,*5A
###2023-12-09 13:41:08.799370$GNGGA,184107.90,4138.0265979,N,07032.3898578,W,1,24,0.6,13.340,M,-29.745,M,0.0,*57
###2023-12-09 13:41:09.009229$GNRMC,184108.10,A,4138.0266177,N,07032.3899318,W,1.17,290.27,091223,,,A*5F
###2023-12-09 13:41:09.012106$GNGGA,184108.10,4138.0266177,N,07032.3899318,W,1,24,0.6,13.365,M,-29.745,M,0.0,*53
###2023-12-09 13:41:09.013896$GPGSA,A,3,04,16,26,27,28,29,31,,,,,,1.2,0.6,1.0*37
###2023-12-09 13:41:09.015688$GLGSA,A,3,65,71,72,73,74,75,83,,,,,,1.2,0.6,1.0*24
###2023-12-09 13:41:09.017267$GAGSA,A,3,04,19,21,27,,,,,,,,,1.2,0.6,1.0*2D
###2023-12-09 13:41:09.019000$GBGSA,A,3,12,14,24,25,33,35,,,,,,,1.2,0.6,1.0*25
###2023-12-09 13:41:09.021329$GPGSV,2,1,07,04,49,306,44,16,69,225,44,26,81,040,47,27,19,172,40*7B
###2023-12-09 13:41:09.023393$GPGSV,2,2,07,28,36,087,44,29,19,045,42,31,58,070,45,,,,*43
###2023-12-09 13:41:09.025726$GLGSV,2,1,07,65,41,315,44,71,19,176,42,72,59,216,45,73,20,054,46*60
###2023-12-09 13:41:09.027784$GLGSV,2,2,07,74,57,019,43,75,45,276,47,83,16,044,36,,,,*56
###2023-12-09 13:41:09.030116$GAGSV,1,1,04,04,41,309,44,19,69,180,40,21,74,044,46,27,20,051,40*68
###2023-12-09 13:41:09.032463$GBGSV,2,1,06,12,17,124,42,14,26,189,43,24,60,049,48,25,53,279,48*6C
###2023-12-09 13:41:09.034215$GBGSV,2,2,06,33,43,215,44,35,16,054,45,,,,,,,,*6D
###2023-12-09 13:41:09.035553$GNVTG,290.27,T,,M,1.17,N,2.16,K,A*2F
###2023-12-09 13:41:09.037171$GNGST,184108.10,6.100,,,,0.100,0.089,0.200*67
###2023-12-09 13:41:09.038467$GNZDA,184108.10,09,12,2023,00,00*74
###2023-12-09 13:41:09.039121$GNEBP,,,,,,M*13
###2023-12-09 13:41:09.217021$GNGGA,184108.30,4138.0266337,N,07032.3899895,W,1,24,0.6,13.354,M,-29.745,M,0.0,*5B
###2023-12-09 13:41:09.400120$GNGGA,184108.50,4138.0266270,N,07032.3899755,W,1,24,0.6,13.345,M,-29.745,M,0.0,*5C
###2023-12-09 13:41:09.604736$GNGGA,184108.70,4138.0266145,N,07032.3899478,W,1,24,0.6,13.318,M,-29.745,M,0.0,*5F
###2023-12-09 13:41:09.803199$GNGGA,184108.90,4138.0266247,N,07032.3899898,W,1,24,0.6,13.349,M,-29.745,M,0.0,*56
###2023-12-09 13:41:10.003723$GNRMC,184109.10,A,4138.0266496,N,07032.3900792,W,1.17,289.33,091223,,,A*5E
###2023-12-09 13:41:10.006835$GNGGA,184109.10,4138.0266496,N,07032.3900792,W,1,24,0.6,13.363,M,-29.745,M,0.0,*59
###2023-12-09 13:41:10.008648$GPGSA,A,3,04,16,26,27,28,29,31,,,,,,1.2,0.6,1.0*37
###2023-12-09 13:41:10.010433$GLGSA,A,3,65,71,72,73,74,75,83,,,,,,1.2,0.6,1.0*24
###2023-12-09 13:41:10.012041$GAGSA,A,3,04,19,21,27,,,,,,,,,1.2,0.6,1.0*2D
###2023-12-09 13:41:10.013748$GBGSA,A,3,12,14,24,25,33,35,,,,,,,1.2,0.6,1.0*25
###2023-12-09 13:41:10.016093$GPGSV,2,1,07,04,49,306,46,16,69,225,44,26,81,040,47,27,19,172,39*77
###2023-12-09 13:41:10.018140$GPGSV,2,2,07,28,36,087,42,29,19,045,42,31,58,070,46,,,,*46
###2023-12-09 13:41:10.020486$GLGSV,2,1,07,65,41,315,46,71,19,176,40,72,59,216,45,73,20,054,43*65
###2023-12-09 13:41:10.022532$GLGSV,2,2,07,74,57,019,43,75,45,276,48,83,16,044,36,,,,*59
###2023-12-09 13:41:10.024877$GAGSV,1,1,04,04,41,309,46,19,69,180,41,21,74,044,47,27,20,051,40*6A
