###2023-12-09 12:29:17.939927$GLGSV,1,1,04,71,60,168,49,72,63,314,43,73,50,032,47,75,20,239,36*6C
###2023-12-09 12:29:17.941723$GAGSV,1,1,02,21,75,179,38,27,43,050,45,,,,,,,,*69
###2023-12-09 12:29:17.944099$GBGSV,1,1,04,14,57,199,46,25,31,251,36,26,37,056,45,33,64,260,41*6C
###2023-12-09 12:29:17.945253$GNVTG,,T,,M,0.02,N,0.04,K,A*3B
###2023-12-09 12:29:17.946945$GNGST,172917.10,31.000,,,,0.120,0.150,0.340*5F
###2023-12-09 12:29:17.948259$GNZDA,172917.10,09,12,2023,00,00*7B
###2023-12-09 12:29:17.948909$GNEBP,,,,,,M*13
###2023-12-09 12:29:18.122514$GNGGA,172917.30,4138.0381490,N,07032.4357839,W,1,18,0.8,15.796,M,-29.746,M,0.0,*50
###2023-12-09 12:29:18.321744$GNGGA,172917.50,4138.0381476,N,07032.4357855,W,1,18,0.8,15.801,M,-29.746,M,0.0,*55
###2023-12-09 12:29:18.523518$GNGGA,172917.70,4138.0381468,N,07032.4357901,W,1,18,0.8,15.794,M,-29.746,M,0.0,*5B
###2023-12-09 12:29:18.721657$GNGGA,172917.90,4138.0381462,N,07032.4357918,W,1,18,0.8,15.795,M,-29.746,M,0.0,*56
###2023-12-09 12:29:18.923216$GNRMC,172918.10,A,4138.0381452,N,07032.4357933,W,0.04,,091223,,,A*4B
###2023-12-09 12:29:18.926099$GNGGA,172918.10,4138.0381452,N,07032.4357933,W,1,17,0.8,15.796,M,-29.746,M,0.0,*57
###2023-12-09 12:29:18.927958$GPGSA,A,3,03,16,26,28,29,31,32,,,,,,1.5,0.8,1.3*3E
###2023-12-09 12:29:18.929564$GLGSA,A,3,71,72,73,75,,,,,,,,,1.5,0.8,1.3*25
###2023-12-09 12:29:18.931056$GAGSA,A,3,21,27,,,,,,,,,,,1.5,0.8,1.3*2B
###2023-12-09 12:29:18.932671$GBGSA,A,3,14,25,26,33,,,,,,,,,1.5,0.8,1.3*28
###2023-12-09 12:29:18.935123$GPGSV,2,1,07,03,39,280,37,16,34,206,44,26,63,206,42,28,60,052,45*77
###2023-12-09 12:29:18.937200$GPGSV,2,2,07,29,25,077,42,31,73,351,44,32,33,132,47,,,,*47
###2023-12-09 12:29:18.939567$GLGSV,1,1,04,71,60,168,49,72,63,314,44,73,50,032,46,75,20,239,36*6A
###2023-12-09 12:29:18.941336$GAGSV,1,1,02,21,75,179,39,27,43,050,45,,,,,,,,*68
###2023-12-09 12:29:18.943726$GBGSV,1,1,04,14,57,199,46,25,31,251,37,26,37,056,45,33,64,260,41*6D
###2023-12-09 12:29:18.944884$GNVTG,,T,,M,0.04,N,0.07,K,A*3E
###2023-12-09 12:29:18.946559$GNGST,172918.10,31.000,,,,0.120,0.150,0.340*50
###2023-12-09 12:29:18.947913$GNZDA,172918.10,09,12,2023,00,00*74
###2023-12-09 12:29:18.948567$GNEBP,,,,,,M*13
###2023-12-09 12:29:19.122228$GNGGA,172918.30,4138.0381443,N,07032.4357966,W,1,17,0.8,15.793,M,-29.746,M,0.0,*50
###2023-12-09 12:29:19.322460$GNGGA,172918.50,4138.0381428,N,07032.4357990,W,1,17,0.8,15.796,M,-29.746,M,0.0,*57
###2023-12-09 12:29:19.522848$GNGGA,172918.70,4138.0381422,N,07032.4358004,W,1,17,0.8,15.801,M,-29.746,M,0.0,*55
###2023-12-09 12:29:19.720690$GNGGA,172918.90,4138.0381405,N,07032.4358018,W,1,17,0.8,15.802,M,-29.746,M,0.0,*50
###2023-12-09 12:29:19.924932$GNRMC,172919.10,A,4138.0381402,N,07032.4358058,W,0.00,,091223,,,A*40
###2023-12-09 12:29:19.927836$GNGGA,172919.10,4138.0381402,N,07032.4358058,W,1,17,0.8,15.797,M,-29.746,M,0.0,*59
###2023-12-09 12:29:19.929655$GPGSA,A,3,03,16,26,28,29,31,32,,,,,,1.5,0.8,1.3*3E
###2023-12-09 12:29:19.931287$GLGSA,A,3,71,72,73,75,,,,,,,,,1.5,0.8,1.3*25
###2023-12-09 12:29:19.932763$GAGSA,A,3,21,27,,,,,,,,,,,1.5,0.8,1.3*2B
###2023-12-09 12:29:19.934363$GBGSA,A,3,14,25,26,33,,,,,,,,,1.5,0.8,1.3*28
###2023-12-09 12:29:19.936723$GPGSV,2,1,07,03,39,280,37,16,34,206,43,26,63,206,42,28,60,052,45*70
###2023-12-09 12:29:19.938804$GPGSV,2,2,07,29,25,077,43,31,73,351,44,32,33,132,47,,,,*46
###2023-12-09 12:29:19.941154$GLGSV,1,1,04,71,60,168,49,72,63,314,43,73,50,032,46,75,20,239,36*6D
###2023-12-09 12:29:19.942935$GAGSV,1,1,02,21,75,179,38,27,43,050,45,,,,,,,,*69
###2023-12-09 12:29:19.945283$GBGSV,1,1,04,14,57,199,47,25,31,251,37,26,37,056,44,33,64,260,41*6D
###2023-12-09 12:29:19.946436$GNVTG,,T,,M,0.00,N,0.00,K,A*3D
###2023-12-09 12:29:19.948166$GNGST,172919.10,31.000,,,,0.120,0.150,0.340*51
###2023-12-09 12:29:19.949500$GNZDA,172919.10,09,12,2023,00,00*75
###2023-12-09 12:29:19.950161$GNEBP,,,,,,M*13
###2023-12-09 12:29:20.121511$GNGGA,172919.30,4138.0381381,N,07032.4358081,W,1,17,0.8,15.794,M,-29.746,M,0.0,*50
###2023-12-09 12:29:20.322479$GNGGA,172919.50,4138.0381373,N,07032.4358122,W,1,17,0.8,15.786,M,-29.746,M,0.0,*50
###2023-12-09 12:29:20.522543$GNGGA,172919.70,4138.0381379,N,07032.4358192,W,1,17,0.8,15.776,M,-29.746,M,0.0,*5C
###2023-12-09 12:29:20.721851$GNGGA,172919.90,4138.0381383,N,07032.4358256,W,1,17,0.8,15.764,M,-29.746,M,0.0,*5F
###2023-12-09 12:29:20.930334$GNRMC,172920.10,A,4138.0381392,N,07032.4358322,W,0.04,,091223,,,A*4E
###2023-12-09 12:29:20.933233$GNGGA,172920.10,4138.0381392,N,07032.4358322,W,1,17,0.8,15.751,M,-29.746,M,0.0,*59
###2023-12-09 12:29:20.935071$GPGSA,A,3,03,16,26,28,29,31,32,,,,,,1.5,0.8,1.3*3E
###2023-12-09 12:29:20.936680$GLGSA,A,3,71,72,73,75,,,,,,,,,1.5,0.8,1.3*25
###2023-12-09 12:29:20.938147$GAGSA,A,3,21,27,,,,,,,,,,,1.5,0.8,1.3*2B
###2023-12-09 12:29:20.939760$GBGSA,A,3,14,25,26,33,,,,,,,,,1.5,0.8,1.3*28
###2023-12-09 12:29:20.942104$GPGSV,2,1,07,03,39,280,38,16,34,206,43,26,63,206,42,28,60,052,45*7F
###2023-12-09 12:29:20.944179$GPGSV,2,2,07,29,25,077,43,31,73,351,44,32,33,132,47,,,,*46
###2023-12-09 12:29:20.946544$GLGSV,1,1,04,71,60,168,49,72,63,314,43,73,50,032,46,75,20,239,36*6D
###2023-12-09 12:29:20.948349$GAGSV,1,1,02,21,75,179,38,27,43,050,45,,,,,,,,*69
###2023-12-09 12:29:20.950722$GBGSV,1,1,04,14,57,199,46,25,31,251,37,26,37,056,45,33,64,260,41*6D
###2023-12-09 12:29:20.951878$GNVTG,,T,,M,0.04,N,0.07,K,A*3E
###2023-12-09 12:29:20.953548$GNGST,172920.10,31.000,,,,0.120,0.150,0.340*5B
###2023-12-09 12:29:20.954880$GNZDA,172920.10,09,12,2023,00,00*7F
###2023-12-09 12:29:20.955539$GNEBP,,,,,,M*13
###2023-12-09 12:29:21.123711$GNGGA,172920.30,4138.0381392,N,07032.4358376,W,1,17,0.8,15.743,M,-29.746,M,0.0,*59
###2023-12-09 12:29:21.322680$GNGGA,172920.50,4138.0381394,N,07032.4358420,W,1,17,0.8,15.732,M,-29.746,M,0.0,*5B
###2023-12-09 12:29:21.523715$GNGGA,172920.70,4138.0381401,N,07032.4358497,W,1,17,0.8,15.713,M,-29.746,M,0.0,*5D
###2023-12-09 12:29:21.720580$GNGGA,172920.90,4138.0381395,N,07032.4358529,W,1,17,0.8,15.702,M,-29.746,M,0.0,*5D
###2023-12-09 12:29:21.920707$GNRMC,172921.10,A,4138.0381447,N,07032.4358721,W,0.06,,091223,,,A*45
###2023-12-09 12:29:21.923775$GNGGA,172921.10,4138.0381447,N,07032.4358721,W,1,17,0.8,15.652,M,-29.746,M,0.0,*52
###2023-12-09 12:29:21.925752$GPGSA,A,3,03,16,26,28,29,31,32,,,,,,1.5,0.8,1.3*3E
###2023-12-09 12:29:21.927512$GLGSA,A,3,71,72,73,75,,,,,,,,,1.5,0.8,1.3*25
###2023-12-09 12:29:21.929119$GAGSA,A,3,21,27,,,,,,,,,,,1.5,0.8,1.3*2B
###2023-12-09 12:29:21.930863$GBGSA,A,3,14,25,26,33,,,,,,,,,1.5,0.8,1.3*28
###2023-12-09 12:29:21.933355$GPGSV,2,1,07,03,39,280,39,16,34,206,44,26,63,206,42,28,60,052,45*79
###2023-12-09 12:29:21.935582$GPGSV,2,2,07,29,25,077,43,31,73,351,45,32,33,132,46,,,,*46
###2023-12-09 12:29:21.938082$GLGSV,1,1,04,71,60,168,49,72,63,314,42,73,50,032,47,75,20,239,36*6D
###2023-12-09 12:29:21.940009$GAGSV,1,1,02,21,75,179,37,27,43,050,45,,,,,,,,*66
###2023-12-09 12:29:21.942491$GBGSV,1,1,04,14,57,199,46,25,31,251,37,26,37,056,45,33,64,260,41*6D
###2023-12-09 12:29:21.943804$GNVTG,,T,,M,0.06,N,0.11,K,A*3B
###2023-12-09 12:29:21.945576$GNGST,172921.10,31.000,,,,0.120,0.150,0.340*5A
###2023-12-09 12:29:21.946999$GNZDA,172921.10,09,12,2023,00,00*7E
###2023-12-09 12:29:21.947780$GNEBP,,,,,,M*13
###2023-12-09 12:29:22.121353$GNGGA,172921.30,4138.0381488,N,07032.4358901,W,1,17,0.8,15.600,M,-29.746,M,0.0,*58
###2023-12-09 12:29:22.321364$GNGGA,172921.50,4138.0381518,N,07032.4359035,W,1,17,0.8,15.563,M,-29.746,M,0.0,*5F
###2023-12-09 12:29:22.521413$GNGGA,172921.70,4138.0381545,N,07032.4359192,W,1,17,0.8,15.522,M,-29.746,M,0.0,*5C
###2023-12-09 12:29:22.719652$GNGGA,172921.90,4138.0381555,N,07032.4359300,W,1,17,0.8,15.486,M,-29.746,M,0.0,*55
###2023-12-09 12:29:22.936504$GNRMC,172922.10,A,4138.0381607,N,07032.4359486,W,0.06,,091223,,,A*4F
###2023-12-09 12:29:22.939576$GNGGA,172922.10,4138.0381607,N,07032.4359486,W,1,17,0.8,15.435,M,-29.746,M,0.0,*5B
###2023-12-09 12:29:22.941562$GPGSA,A,3,03,16,26,28,29,31,32,,,,,,1.5,0.8,1.3*3E
###2023-12-09 12:29:22.943340$GLGSA,A,3,71,72,73,75,,,,,,,,,1.5,0.8,1.3*25
###2023-12-09 12:29:22.944974$GAGSA,A,3,21,27,,,,,,,,,,,1.5,0.8,1.3*2B
###2023-12-09 12:29:22.947031$GBGSA,A,3,14,25,26,33,,,,,,,,,1.5,0.8,1.3*28
###2023-12-09 12:29:22.949400$GPGSV,2,1,07,03,39,280,40,16,34,206,44,26,63,206,43,28,60,052,45*76
###2023-12-09 12:29:22.951495$GPGSV,2,2,07,29,25,077,43,31,73,351,45,32,33,132,47,,,,*47
###2023-12-09 12:29:22.953849$GLGSV,1,1,04,71,60,168,49,72,63,314,42,73,50,032,46,75,20,239,36*6C
###2023-12-09 12:29:22.955634$GAGSV,1,1,02,21,75,179,38,27,43,050,45,,,,,,,,*69
###2023-12-09 12:29:22.957972$GBGSV,1,1,04,14,57,199,46,25,31,251,37,26,37,056,45,33,64,260,41*6D
###2023-12-09 12:29:22.959142$GNVTG,,T,,M,0.06,N,0.11,K,A*3B
###2023-12-09 12:29:22.960789$GNGST,172922.10,31.000,,,,0.120,0.150,0.330*5E
