###2023-12-09 12:55:22.555756$GNGGA,175521.70,4138.0444114,N,07032.3875370,W,1,24,0.6,13.124,M,-29.745,M,0.0,*5C
###2023-12-09 12:55:22.756016$GNGGA,175521.90,4138.0445271,N,07032.3874182,W,1,24,0.6,13.137,M,-29.745,M,0.0,*5F
###2023-12-09 12:55:22.955569$GNRMC,175522.10,A,4138.0446376,N,07032.3872855,W,2.72,47.55,091223,,,A*60
###2023-12-09 12:55:22.959041$GNGGA,175522.10,4138.0446376,N,07032.3872855,W,1,24,0.6,13.149,M,-29.745,M,0.0,*5D
###2023-12-09 12:55:22.961279$GPGSA,A,3,03,04,16,26,28,29,31,32,,,,,1.1,0.6,0.9*3B
###2023-12-09 12:55:22.963381$GLGSA,A,3,65,71,72,73,74,75,,,,,,,1.1,0.6,0.9*24
###2023-12-09 12:55:22.965296$GAGSA,A,3,04,19,21,27,,,,,,,,,1.1,0.6,0.9*26
###2023-12-09 12:55:22.967292$GBGSA,A,3,14,24,25,26,33,,,,,,,,1.1,0.6,0.9*2F
###2023-12-09 12:55:22.970096$GPGSV,2,1,08,03,36,265,45,04,30,311,44,16,47,211,46,26,76,209,49*77
###2023-12-09 12:55:22.972914$GPGSV,2,2,08,28,52,067,43,29,25,064,39,31,70,029,47,32,22,138,42*7E
###2023-12-09 12:55:22.975730$GLGSV,2,1,06,65,21,328,43,71,44,172,45,72,72,281,46,73,38,040,43*68
###2023-12-09 12:55:22.977835$GLGSV,2,2,06,74,71,327,42,75,30,250,44,,,,,,,,*60
###2023-12-09 12:55:22.980646$GAGSV,1,1,04,04,27,312,42,19,85,242,40,21,84,147,45,27,35,048,42*6B
###2023-12-09 12:55:22.983457$GBGSV,2,1,05,14,46,194,45,24,75,018,49,25,39,260,47,26,28,061,42*62
###2023-12-09 12:55:22.985202$GBGSV,2,2,05,33,59,237,48,,,,,,,,,,,,*58
###2023-12-09 12:55:22.986800$GNVTG,47.55,T,,M,2.72,N,5.04,K,A*16
###2023-12-09 12:55:22.988777$GNGST,175522.10,18.000,,,,0.078,0.067,0.160*50
###2023-12-09 12:55:22.990328$GNZDA,175522.10,09,12,2023,00,00*76
###2023-12-09 12:55:22.991104$GNEBP,,,,,,M*13
###2023-12-09 12:55:23.155072$GNGGA,175522.30,4138.0447455,N,07032.3871367,W,1,24,0.6,13.129,M,-29.745,M,0.0,*57
###2023-12-09 12:55:23.355802$GNGGA,175522.50,4138.0448663,N,07032.3870298,W,1,24,0.6,13.117,M,-29.745,M,0.0,*54
###2023-12-09 12:55:23.556244$GNGGA,175522.70,4138.0449941,N,07032.3869465,W,1,24,0.6,13.133,M,-29.745,M,0.0,*52
###2023-12-09 12:55:23.756114$GNGGA,175522.90,4138.0451149,N,07032.3868490,W,1,24,0.6,13.132,M,-29.745,M,0.0,*5F
###2023-12-09 12:55:23.955641$GNRMC,175523.10,A,4138.0452363,N,07032.3867531,W,2.59,28.06,091223,,,A*6D
###2023-12-09 12:55:23.958491$GNGGA,175523.10,4138.0452363,N,07032.3867531,W,1,24,0.6,13.118,M,-29.745,M,0.0,*52
###2023-12-09 12:55:23.960348$GPGSA,A,3,03,04,16,26,28,29,31,32,,,,,1.1,0.6,0.9*3B
###2023-12-09 12:55:23.962055$GLGSA,A,3,65,71,72,73,74,75,,,,,,,1.1,0.6,0.9*24
###2023-12-09 12:55:23.963647$GAGSA,A,3,04,19,21,27,,,,,,,,,1.1,0.6,0.9*26
###2023-12-09 12:55:23.965286$GBGSA,A,3,14,24,25,26,33,,,,,,,,1.1,0.6,0.9*2F
###2023-12-09 12:55:23.967622$GPGSV,2,1,08,03,36,265,45,04,30,311,43,16,47,211,47,26,76,209,48*70
###2023-12-09 12:55:23.969946$GPGSV,2,2,08,28,52,067,45,29,25,064,40,31,70,029,47,32,22,138,44*70
###2023-12-09 12:55:23.972277$GLGSV,2,1,06,65,21,328,42,71,44,172,47,72,72,281,46,73,38,040,44*6C
###2023-12-09 12:55:23.974019$GLGSV,2,2,06,74,71,327,42,75,30,250,43,,,,,,,,*67
###2023-12-09 12:55:23.976349$GAGSV,1,1,04,04,27,312,42,19,85,242,41,21,84,147,46,27,35,048,41*6A
###2023-12-09 12:55:23.978684$GBGSV,2,1,05,14,46,194,45,24,75,018,48,25,39,260,47,26,28,061,42*63
###2023-12-09 12:55:23.980132$GBGSV,2,2,05,33,59,237,49,,,,,,,,,,,,*59
###2023-12-09 12:55:23.981419$GNVTG,28.06,T,,M,2.59,N,4.79,K,A*1B
###2023-12-09 12:55:23.983104$GNGST,175523.10,18.000,,,,0.078,0.067,0.160*51
###2023-12-09 12:55:23.984398$GNZDA,175523.10,09,12,2023,00,00*77
###2023-12-09 12:55:23.985034$GNEBP,,,,,,M*13
###2023-12-09 12:55:24.156240$GNGGA,175523.30,4138.0453618,N,07032.3866784,W,1,24,0.6,13.100,M,-29.745,M,0.0,*5C
###2023-12-09 12:55:24.355070$GNGGA,175523.50,4138.0454875,N,07032.3866291,W,1,24,0.6,13.114,M,-29.745,M,0.0,*5C
###2023-12-09 12:55:24.555940$GNGGA,175523.70,4138.0456131,N,07032.3865770,W,1,24,0.6,13.130,M,-29.745,M,0.0,*5A
###2023-12-09 12:55:24.757070$GNGGA,175523.90,4138.0457380,N,07032.3865178,W,1,24,0.6,13.120,M,-29.745,M,0.0,*52
###2023-12-09 12:55:24.955441$GNRMC,175524.10,A,4138.0458619,N,07032.3864775,W,2.20,9.62,091223,,,A*56
###2023-12-09 12:55:24.958291$GNGGA,175524.10,4138.0458619,N,07032.3864775,W,1,24,0.6,13.101,M,-29.745,M,0.0,*5E
###2023-12-09 12:55:24.960166$GPGSA,A,3,03,04,16,26,28,29,31,32,,,,,1.1,0.6,0.9*3B
###2023-12-09 12:55:24.961877$GLGSA,A,3,65,71,72,73,74,75,,,,,,,1.1,0.6,0.9*24
###2023-12-09 12:55:24.963466$GAGSA,A,3,04,19,21,27,,,,,,,,,1.1,0.6,0.9*26
###2023-12-09 12:55:24.965111$GBGSA,A,3,14,24,25,26,33,,,,,,,,1.1,0.6,0.9*2F
###2023-12-09 12:55:24.967438$GPGSV,2,1,08,03,36,265,45,04,30,311,44,16,47,211,47,26,76,209,49*76
###2023-12-09 12:55:24.969763$GPGSV,2,2,08,28,52,067,46,29,25,064,43,31,70,029,46,32,22,138,43*76
###2023-12-09 12:55:24.972099$GLGSV,2,1,06,65,21,328,39,71,44,172,47,72,72,281,46,73,38,040,44*60
###2023-12-09 12:55:24.973843$GLGSV,2,2,06,74,71,327,42,75,30,250,44,,,,,,,,*60
###2023-12-09 12:55:24.976175$GAGSV,1,1,04,04,27,312,43,19,85,242,40,21,84,147,46,27,35,048,41*6A
###2023-12-09 12:55:24.978502$GBGSV,2,1,05,14,46,194,45,24,75,018,48,25,39,260,46,26,28,061,43*63
###2023-12-09 12:55:24.979971$GBGSV,2,2,05,33,59,237,48,,,,,,,,,,,,*58
###2023-12-09 12:55:24.981228$GNVTG,9.62,T,,M,2.20,N,4.07,K,A*2D
###2023-12-09 12:55:24.982878$GNGST,175524.10,18.000,,,,0.078,0.067,0.160*56
###2023-12-09 12:55:24.984165$GNZDA,175524.10,09,12,2023,00,00*70
###2023-12-09 12:55:24.984799$GNEBP,,,,,,M*13
###2023-12-09 12:55:25.159128$GNGGA,175524.30,4138.0459799,N,07032.3864540,W,1,24,0.6,13.088,M,-29.745,M,0.0,*50
###2023-12-09 12:55:25.355978$GNGGA,175524.50,4138.0460952,N,07032.3864225,W,1,24,0.6,13.085,M,-29.745,M,0.0,*5C
###2023-12-09 12:55:25.555876$GNGGA,175524.70,4138.0462090,N,07032.3864118,W,1,24,0.6,13.089,M,-29.745,M,0.0,*5A
###2023-12-09 12:55:25.756716$GNGGA,175524.90,4138.0463246,N,07032.3864096,W,1,24,0.6,13.107,M,-29.745,M,0.0,*5C
###2023-12-09 12:55:25.956138$GNRMC,175525.10,A,4138.0464427,N,07032.3864001,W,2.10,2.35,091223,,,A*59
###2023-12-09 12:55:25.959010$GNGGA,175525.10,4138.0464427,N,07032.3864001,W,1,24,0.6,13.103,M,-29.745,M,0.0,*59
###2023-12-09 12:55:25.960866$GPGSA,A,3,03,04,16,26,28,29,31,32,,,,,1.1,0.6,0.9*3B
###2023-12-09 12:55:25.962592$GLGSA,A,3,65,71,72,73,74,75,,,,,,,1.1,0.6,0.9*24
###2023-12-09 12:55:25.964178$GAGSA,A,3,04,19,21,27,,,,,,,,,1.1,0.6,0.9*26
###2023-12-09 12:55:25.965823$GBGSA,A,3,14,24,25,26,33,,,,,,,,1.1,0.6,0.9*2F
###2023-12-09 12:55:25.968155$GPGSV,2,1,08,03,36,265,45,04,30,311,42,16,47,211,46,26,76,209,48*70
###2023-12-09 12:55:25.970491$GPGSV,2,2,08,28,52,067,46,29,25,064,42,31,70,029,46,32,22,138,42*76
###2023-12-09 12:55:25.972832$GLGSV,2,1,06,65,21,328,39,71,44,172,46,72,72,281,45,73,38,040,45*63
###2023-12-09 12:55:25.974590$GLGSV,2,2,06,74,71,327,42,75,30,250,46,,,,,,,,*62
###2023-12-09 12:55:25.976914$GAGSV,1,1,04,04,27,312,40,19,85,242,40,21,84,147,46,27,35,048,42*6A
###2023-12-09 12:55:25.979251$GBGSV,2,1,05,14,46,194,46,24,75,018,49,25,39,260,46,26,28,061,43*61
###2023-12-09 12:55:25.980704$GBGSV,2,2,05,33,59,237,47,,,,,,,,,,,,*57
###2023-12-09 12:55:25.981961$GNVTG,2.35,T,,M,2.10,N,3.89,K,A*26
###2023-12-09 12:55:25.983611$GNGST,175525.10,18.000,,,,0.078,0.066,0.160*56
###2023-12-09 12:55:25.984900$GNZDA,175525.10,09,12,2023,00,00*71
###2023-12-09 12:55:25.985536$GNEBP,,,,,,M*13
###2023-12-09 12:55:26.155232$GNGGA,175525.30,4138.0465560,N,07032.3864081,W,1,24,0.6,13.085,M,-29.745,M,0.0,*5F
###2023-12-09 12:55:26.356718$GNGGA,175525.50,4138.0466656,N,07032.3864280,W,1,24,0.6,13.074,M,-29.745,M,0.0,*51
###2023-12-09 12:55:26.555871$GNGGA,175525.70,4138.0467754,N,07032.3864403,W,1,24,0.6,13.077,M,-29.745,M,0.0,*5F
###2023-12-09 12:55:26.755846$GNGGA,175525.90,4138.0468827,N,07032.3864524,W,1,24,0.6,13.081,M,-29.745,M,0.0,*58
###2023-12-09 12:55:26.955793$GNRMC,175526.10,A,4138.0469877,N,07032.3864715,W,1.83,351.36,091223,,,A*53
###2023-12-09 12:55:26.958696$GNGGA,175526.10,4138.0469877,N,07032.3864715,W,1,24,0.6,13.081,M,-29.745,M,0.0,*57
###2023-12-09 12:55:26.960545$GPGSA,A,3,03,04,16,26,28,29,31,32,,,,,1.1,0.6,0.9*3B
###2023-12-09 12:55:26.962248$GLGSA,A,3,65,71,72,73,74,75,,,,,,,1.1,0.6,0.9*24
###2023-12-09 12:55:26.964128$GAGSA,A,3,04,19,21,27,,,,,,,,,1.1,0.6,0.9*26
###2023-12-09 12:55:26.965784$GBGSA,A,3,14,24,25,26,33,,,,,,,,1.1,0.6,0.9*2F
###2023-12-09 12:55:26.968147$GPGSV,2,1,08,03,36,265,44,04,30,311,40,16,47,211,45,26,76,209,48*70
###2023-12-09 12:55:26.970490$GPGSV,2,2,08,28,52,067,46,29,25,064,42,31,70,029,47,32,22,138,44*71
###2023-12-09 12:55:26.972837$GLGSV,2,1,06,65,21,328,38,71,44,172,46,72,72,281,45,73,38,040,46*61
###2023-12-09 12:55:26.974599$GLGSV,2,2,06,74,71,327,41,75,30,250,45,,,,,,,,*62
###2023-12-09 12:55:26.976933$GAGSV,1,1,04,04,27,312,38,19,85,242,40,21,84,147,47,27,35,048,43*65
###2023-12-09 12:55:26.979276$GBGSV,2,1,05,14,46,194,46,24,75,018,48,25,39,260,47,26,28,061,44*66
###2023-12-09 12:55:26.980737$GBGSV,2,2,05,33,59,237,48,,,,,,,,,,,,*58
###2023-12-09 12:55:26.982056$GNVTG,351.36,T,,M,1.83,N,3.38,K,A*23
