###2023-12-09 13:07:40.971067$GNRMC,180740.10,A,4138.0741246,N,07032.3559245,W,3.38,65.64,091223,,,A*68
###2023-12-09 13:07:40.973939$GNGGA,180740.10,4138.0741246,N,07032.3559245,W,1,25,0.6,13.348,M,-29.743,M,0.0,*5C
###2023-12-09 13:07:40.975818$GPGSA,A,3,03,04,16,26,28,29,31,32,,,,,1.1,0.6,0.9*3B
###2023-12-09 13:07:40.977536$GLGSA,A,3,65,71,72,73,74,75,,,,,,,1.1,0.6,0.9*24
###2023-12-09 13:07:40.979134$GAGSA,A,3,04,19,21,27,,,,,,,,,1.1,0.6,0.9*26
###2023-12-09 13:07:40.980843$GBGSA,A,3,14,24,25,26,33,35,,,,,,,1.1,0.6,0.9*29
###2023-12-09 13:07:40.983191$GPGSV,2,1,08,03,34,258,45,04,35,311,43,16,53,214,47,26,83,210,49*7A
###2023-12-09 13:07:40.985524$GPGSV,2,2,08,28,47,073,42,29,25,058,42,31,67,044,47,32,16,141,42*79
###2023-12-09 13:07:40.987879$GLGSV,2,1,06,65,26,326,42,71,37,173,46,72,72,258,46,73,33,043,43*6A
###2023-12-09 13:07:40.989634$GLGSV,2,2,06,74,68,345,42,75,34,256,48,,,,,,,,*62
###2023-12-09 13:07:40.991983$GAGSV,1,1,04,04,31,312,41,19,83,203,41,21,85,092,46,27,31,048,39*6E
###2023-12-09 13:07:40.994320$GBGSV,2,1,06,14,41,192,45,24,72,029,48,25,42,264,46,26,24,064,42*64
###2023-12-09 13:07:40.996085$GBGSV,2,2,06,33,56,229,48,35,15,067,41,,,,,,,,*6D
###2023-12-09 13:07:40.997384$GNVTG,65.64,T,,M,3.38,N,6.26,K,A*18
###2023-12-09 13:07:40.999050$GNGST,180740.10,18.000,,,,0.080,0.064,0.150*5B
###2023-12-09 13:07:41.000346$GNZDA,180740.10,09,12,2023,00,00*7A
###2023-12-09 13:07:41.000988$GNEBP,,,,,,M*13
###2023-12-09 13:07:41.167944$GNGGA,180740.30,4138.0741975,N,07032.3556883,W,1,25,0.6,13.372,M,-29.743,M,0.0,*53
###2023-12-09 13:07:41.367142$GNGGA,180740.50,4138.0742434,N,07032.3554321,W,1,25,0.6,13.361,M,-29.743,M,0.0,*5D
###2023-12-09 13:07:41.568128$GNGGA,180740.70,4138.0742757,N,07032.3551807,W,1,25,0.6,13.343,M,-29.743,M,0.0,*53
###2023-12-09 13:07:41.768143$GNGGA,180740.90,4138.0743435,N,07032.3549478,W,1,25,0.6,13.385,M,-29.743,M,0.0,*5C
###2023-12-09 13:07:41.969724$GNRMC,180741.10,A,4138.0744055,N,07032.3546981,W,3.60,79.37,091223,,,A*67
###2023-12-09 13:07:41.972621$GNGGA,180741.10,4138.0744055,N,07032.3546981,W,1,25,0.6,13.404,M,-29.743,M,0.0,*5A
###2023-12-09 13:07:41.974489$GPGSA,A,3,03,04,16,26,28,29,31,32,,,,,1.1,0.6,0.9*3B
###2023-12-09 13:07:41.976224$GLGSA,A,3,65,71,72,73,74,75,,,,,,,1.1,0.6,0.9*24
###2023-12-09 13:07:41.977818$GAGSA,A,3,04,19,21,27,,,,,,,,,1.1,0.6,0.9*26
###2023-12-09 13:07:41.979550$GBGSA,A,3,14,24,25,26,33,35,,,,,,,1.1,0.6,0.9*29
###2023-12-09 13:07:41.981886$GPGSV,2,1,08,03,34,258,45,04,35,311,44,16,53,214,46,26,83,210,49*7C
###2023-12-09 13:07:41.984236$GPGSV,2,2,08,28,47,073,42,29,25,058,42,31,67,044,47,32,16,141,38*74
###2023-12-09 13:07:41.986590$GLGSV,2,1,06,65,26,326,42,71,37,173,46,72,72,258,46,73,33,043,45*6C
###2023-12-09 13:07:41.988347$GLGSV,2,2,06,74,68,345,42,75,34,256,48,,,,,,,,*62
###2023-12-09 13:07:41.990689$GAGSV,1,1,04,04,31,312,43,19,83,203,41,21,85,092,46,27,31,048,41*63
###2023-12-09 13:07:41.993032$GBGSV,2,1,06,14,41,192,44,24,72,029,48,25,42,264,45,26,24,064,43*67
###2023-12-09 13:07:41.994799$GBGSV,2,2,06,33,56,229,47,35,15,067,43,,,,,,,,*60
###2023-12-09 13:07:41.996100$GNVTG,79.37,T,,M,3.60,N,6.66,K,A*1A
###2023-12-09 13:07:41.997751$GNGST,180741.10,18.000,,,,0.080,0.065,0.150*5B
###2023-12-09 13:07:41.999056$GNZDA,180741.10,09,12,2023,00,00*7B
###2023-12-09 13:07:41.999698$GNEBP,,,,,,M*13
###2023-12-09 13:07:42.167132$GNGGA,180741.30,4138.0744218,N,07032.3544369,W,1,25,0.6,13.385,M,-29.743,M,0.0,*53
###2023-12-09 13:07:42.367076$GNGGA,180741.50,4138.0744278,N,07032.3541803,W,1,25,0.6,13.383,M,-29.743,M,0.0,*57
###2023-12-09 13:07:42.567666$GNGGA,180741.70,4138.0744837,N,07032.3539299,W,1,25,0.6,13.412,M,-29.743,M,0.0,*5D
###2023-12-09 13:07:42.768207$GNGGA,180741.90,4138.0745302,N,07032.3536687,W,1,25,0.6,13.406,M,-29.743,M,0.0,*5E
###2023-12-09 13:07:42.970935$GNRMC,180742.10,A,4138.0745397,N,07032.3533983,W,3.63,88.41,091223,,,A*64
###2023-12-09 13:07:42.973799$GNGGA,180742.10,4138.0745397,N,07032.3533983,W,1,25,0.6,13.405,M,-29.743,M,0.0,*54
###2023-12-09 13:07:42.975674$GPGSA,A,3,03,04,16,26,28,29,31,32,,,,,1.1,0.6,0.9*3B
###2023-12-09 13:07:42.977394$GLGSA,A,3,65,71,72,73,74,75,,,,,,,1.1,0.6,0.9*24
###2023-12-09 13:07:42.978998$GAGSA,A,3,04,19,21,27,,,,,,,,,1.1,0.6,0.9*26
###2023-12-09 13:07:42.980726$GBGSA,A,3,14,24,25,26,33,35,,,,,,,1.1,0.6,0.9*29
###2023-12-09 13:07:42.983068$GPGSV,2,1,08,03,34,258,45,04,35,311,44,16,53,214,46,26,83,210,49*7C
###2023-12-09 13:07:42.985403$GPGSV,2,2,08,28,47,073,43,29,25,058,43,31,67,044,47,32,16,141,41*7A
###2023-12-09 13:07:42.987751$GLGSV,2,1,06,65,26,326,41,71,37,173,46,72,72,258,46,73,33,043,44*6E
###2023-12-09 13:07:42.989502$GLGSV,2,2,06,74,68,345,43,75,34,256,47,,,,,,,,*6C
###2023-12-09 13:07:42.991852$GAGSV,1,1,04,04,31,312,42,19,83,203,41,21,85,092,46,27,31,048,41*62
###2023-12-09 13:07:42.994198$GBGSV,2,1,06,14,41,192,44,24,72,029,48,25,42,264,46,26,24,064,43*64
###2023-12-09 13:07:42.995961$GBGSV,2,2,06,33,56,229,48,35,15,067,41,,,,,,,,*6D
###2023-12-09 13:07:42.997259$GNVTG,88.41,T,,M,3.63,N,6.73,K,A*12
###2023-12-09 13:07:42.998923$GNGST,180742.10,18.000,,,,0.081,0.065,0.150*59
###2023-12-09 13:07:43.000225$GNZDA,180742.10,09,12,2023,00,00*78
###2023-12-09 13:07:43.000870$GNEBP,,,,,,M*13
###2023-12-09 13:07:43.167347$GNGGA,180742.30,4138.0745550,N,07032.3531256,W,1,25,0.6,13.419,M,-29.743,M,0.0,*57
###2023-12-09 13:07:43.367243$GNGGA,180742.50,4138.0745933,N,07032.3528569,W,1,25,0.6,13.417,M,-29.743,M,0.0,*55
###2023-12-09 13:07:43.567958$GNGGA,180742.70,4138.0746509,N,07032.3525963,W,1,25,0.6,13.416,M,-29.743,M,0.0,*5B
###2023-12-09 13:07:43.769100$GNGGA,180742.90,4138.0746832,N,07032.3523186,W,1,25,0.6,13.416,M,-29.743,M,0.0,*55
###2023-12-09 13:07:43.969945$GNRMC,180743.10,A,4138.0747237,N,07032.3520467,W,3.79,74.80,091223,,,A*6C
###2023-12-09 13:07:43.972855$GNGGA,180743.10,4138.0747237,N,07032.3520467,W,1,25,0.6,13.430,M,-29.743,M,0.0,*5F
###2023-12-09 13:07:43.974740$GPGSA,A,3,03,04,16,26,28,29,31,32,,,,,1.1,0.6,0.9*3B
###2023-12-09 13:07:43.976466$GLGSA,A,3,65,71,72,73,74,75,,,,,,,1.1,0.6,0.9*24
###2023-12-09 13:07:43.978051$GAGSA,A,3,04,19,21,27,,,,,,,,,1.1,0.6,0.9*26
###2023-12-09 13:07:43.979785$GBGSA,A,3,14,24,25,26,33,35,,,,,,,1.1,0.6,0.9*29
###2023-12-09 13:07:43.982124$GPGSV,2,1,08,03,34,258,44,04,35,311,43,16,53,214,47,26,83,210,49*7B
###2023-12-09 13:07:43.984483$GPGSV,2,2,08,28,47,073,41,29,25,058,42,31,67,044,46,32,16,141,42*7B
###2023-12-09 13:07:43.986835$GLGSV,2,1,06,65,26,326,42,71,37,173,46,72,72,258,46,73,33,043,41*68
###2023-12-09 13:07:43.988600$GLGSV,2,2,06,74,68,345,42,75,34,256,46,,,,,,,,*6C
###2023-12-09 13:07:43.990953$GAGSV,1,1,04,04,31,312,41,19,83,203,41,21,85,092,46,27,31,048,40*60
###2023-12-09 13:07:43.993294$GBGSV,2,1,06,14,41,192,44,24,72,029,48,25,42,264,47,26,24,064,41*67
###2023-12-09 13:07:43.995062$GBGSV,2,2,06,33,56,229,48,35,15,067,41,,,,,,,,*6D
###2023-12-09 13:07:43.996358$GNVTG,74.80,T,,M,3.79,N,7.02,K,A*10
###2023-12-09 13:07:43.998009$GNGST,180743.10,18.000,,,,0.081,0.065,0.150*58
###2023-12-09 13:07:43.999314$GNZDA,180743.10,09,12,2023,00,00*79
###2023-12-09 13:07:43.999955$GNEBP,,,,,,M*13
###2023-12-09 13:07:44.173398$GNGGA,180743.30,4138.0747824,N,07032.3517786,W,1,25,0.6,13.442,M,-29.743,M,0.0,*58
###2023-12-09 13:07:44.367750$GNGGA,180743.50,4138.0748545,N,07032.3515232,W,1,25,0.6,13.441,M,-29.743,M,0.0,*50
###2023-12-09 13:07:44.567923$GNGGA,180743.70,4138.0749192,N,07032.3512592,W,1,25,0.6,13.438,M,-29.743,M,0.0,*59
###2023-12-09 13:07:44.768014$GNGGA,180743.90,4138.0749805,N,07032.3510035,W,1,25,0.6,13.437,M,-29.743,M,0.0,*55
###2023-12-09 13:07:44.979193$GNRMC,180744.10,A,4138.0750611,N,07032.3507583,W,3.67,66.34,091223,,,A*60
###2023-12-09 13:07:44.982043$GNGGA,180744.10,4138.0750611,N,07032.3507583,W,1,25,0.6,13.461,M,-29.743,M,0.0,*54
###2023-12-09 13:07:44.983913$GPGSA,A,3,03,04,16,26,28,29,31,32,,,,,1.1,0.6,0.9*3B
###2023-12-09 13:07:44.985624$GLGSA,A,3,65,71,72,73,74,75,,,,,,,1.1,0.6,0.9*24
###2023-12-09 13:07:44.987221$GAGSA,A,3,04,19,21,27,,,,,,,,,1.1,0.6,0.9*26
###2023-12-09 13:07:44.988929$GBGSA,A,3,14,24,25,26,33,35,,,,,,,1.1,0.6,0.9*29
###2023-12-09 13:07:44.991256$GPGSV,2,1,08,03,34,258,44,04,35,311,44,16,53,214,46,26,83,210,48*7C
###2023-12-09 13:07:44.993821$GPGSV,2,2,08,28,47,073,41,29,25,058,41,31,67,044,47,32,16,141,43*78
###2023-12-09 13:07:44.996172$GLGSV,2,1,06,65,26,326,41,71,37,173,48,72,72,258,46,73,33,043,41*65
###2023-12-09 13:07:44.997918$GLGSV,2,2,06,74,68,345,42,75,34,256,48,,,,,,,,*62
###2023-12-09 13:07:45.000249$GAGSV,1,1,04,04,31,312,42,19,83,203,41,21,85,092,45,27,31,048,40*60
###2023-12-09 13:07:45.002578$GBGSV,2,1,06,14,41,192,45,24,72,029,46,25,42,264,45,26,24,064,41*6A
###2023-12-09 13:07:45.004321$GBGSV,2,2,06,33,56,229,46,35,15,067,40,,,,,,,,*62
###2023-12-09 13:07:45.005607$GNVTG,66.34,T,,M,3.67,N,6.80,K,A*18
###2023-12-09 13:07:45.007297$GNGST,180744.10,18.000,,,,0.081,0.065,0.150*5F
###2023-12-09 13:07:45.008594$GNZDA,180744.10,09,12,2023,00,00*7E
