###2023-12-09 13:03:04.165080$GNGGA,180303.30,4138.0474323,N,07032.3692192,W,1,24,0.6,13.426,M,-29.744,M,0.0,*5E
###2023-12-09 13:03:04.365785$GNGGA,180303.50,4138.0474575,N,07032.3694651,W,1,24,0.6,13.424,M,-29.744,M,0.0,*51
###2023-12-09 13:03:04.565762$GNGGA,180303.70,4138.0474756,N,07032.3697103,W,1,24,0.6,13.426,M,-29.744,M,0.0,*51
###2023-12-09 13:03:04.766339$GNGGA,180303.90,4138.0474935,N,07032.3699548,W,1,24,0.6,13.427,M,-29.744,M,0.0,*50
###2023-12-09 13:03:04.966986$GNRMC,180304.10,A,4138.0475143,N,07032.3701978,W,3.25,275.88,091223,,,A*59
###2023-12-09 13:03:04.969833$GNGGA,180304.10,4138.0475143,N,07032.3701978,W,1,24,0.6,13.427,M,-29.744,M,0.0,*58
###2023-12-09 13:03:04.971698$GPGSA,A,3,03,04,16,26,28,29,31,32,,,,,1.1,0.6,0.9*3B
###2023-12-09 13:03:04.973407$GLGSA,A,3,65,71,72,73,74,75,,,,,,,1.1,0.6,0.9*24
###2023-12-09 13:03:04.974992$GAGSA,A,3,04,19,21,27,,,,,,,,,1.1,0.6,0.9*26
###2023-12-09 13:03:04.976627$GBGSA,A,3,14,24,25,26,33,,,,,,,,1.1,0.6,0.9*2F
###2023-12-09 13:03:04.978952$GPGSV,2,1,08,03,34,260,42,04,33,311,41,16,50,212,46,26,80,210,48*74
###2023-12-09 13:03:04.981286$GPGSV,2,2,08,28,49,070,45,29,25,061,40,31,69,038,47,32,19,140,43*71
###2023-12-09 13:03:04.983616$GLGSV,2,1,06,65,25,327,39,71,40,173,46,72,73,265,45,73,35,042,44*68
###2023-12-09 13:03:04.985356$GLGSV,2,2,06,74,69,340,42,75,33,254,42,,,,,,,,*69
###2023-12-09 13:03:04.987688$GAGSV,1,1,04,04,29,312,38,19,84,213,40,21,86,114,46,27,32,048,41*6E
###2023-12-09 13:03:04.989996$GBGSV,2,1,05,14,43,193,46,24,73,026,49,25,41,263,45,26,26,063,42*6A
###2023-12-09 13:03:04.991454$GBGSV,2,2,05,33,57,231,48,,,,,,,,,,,,*50
###2023-12-09 13:03:04.992765$GNVTG,275.88,T,,M,3.25,N,6.01,K,A*20
###2023-12-09 13:03:04.994404$GNGST,180304.10,18.000,,,,0.082,0.070,0.160*5B
###2023-12-09 13:03:04.995699$GNZDA,180304.10,09,12,2023,00,00*7E
###2023-12-09 13:03:04.996335$GNEBP,,,,,,M*13
###2023-12-09 13:03:05.163702$GNGGA,180304.30,4138.0475311,N,07032.3704391,W,1,24,0.6,13.425,M,-29.744,M,0.0,*55
###2023-12-09 13:03:05.365614$GNGGA,180304.50,4138.0475436,N,07032.3706789,W,1,24,0.6,13.425,M,-29.744,M,0.0,*5E
###2023-12-09 13:03:05.565586$GNGGA,180304.70,4138.0475579,N,07032.3709200,W,1,24,0.6,13.428,M,-29.744,M,0.0,*50
###2023-12-09 13:03:05.765936$GNGGA,180304.90,4138.0475749,N,07032.3711623,W,1,24,0.6,13.438,M,-29.744,M,0.0,*52
###2023-12-09 13:03:05.967768$GNRMC,180305.10,A,4138.0475899,N,07032.3714062,W,3.27,272.51,091223,,,A*51
###2023-12-09 13:03:05.970663$GNGGA,180305.10,4138.0475899,N,07032.3714062,W,1,24,0.6,13.445,M,-29.744,M,0.0,*55
###2023-12-09 13:03:05.972525$GPGSA,A,3,03,04,16,26,28,29,31,32,,,,,1.1,0.6,0.9*3B
###2023-12-09 13:03:05.974238$GLGSA,A,3,65,71,72,73,74,75,,,,,,,1.1,0.6,0.9*24
###2023-12-09 13:03:05.975830$GAGSA,A,3,04,19,21,27,,,,,,,,,1.1,0.6,0.9*26
###2023-12-09 13:03:05.977476$GBGSA,A,3,14,24,25,26,33,,,,,,,,1.1,0.6,0.9*2F
###2023-12-09 13:03:05.979814$GPGSV,2,1,08,03,34,260,43,04,33,311,42,16,50,212,46,26,80,210,48*76
###2023-12-09 13:03:05.982142$GPGSV,2,2,08,28,49,070,45,29,25,061,41,31,69,038,47,32,19,140,44*77
###2023-12-09 13:03:05.984481$GLGSV,2,1,06,65,25,327,39,71,40,173,46,72,73,265,45,73,35,042,44*68
###2023-12-09 13:03:05.986229$GLGSV,2,2,06,74,69,340,42,75,33,254,43,,,,,,,,*68
###2023-12-09 13:03:05.988567$GAGSV,1,1,04,04,29,312,40,19,84,213,40,21,86,114,46,27,32,048,41*61
###2023-12-09 13:03:05.990917$GBGSV,2,1,05,14,43,193,45,24,73,026,48,25,41,263,43,26,26,063,41*6D
###2023-12-09 13:03:05.992377$GBGSV,2,2,05,33,57,231,46,,,,,,,,,,,,*5E
###2023-12-09 13:03:05.993702$GNVTG,272.51,T,,M,3.27,N,6.05,K,A*25
###2023-12-09 13:03:05.995361$GNGST,180305.10,18.000,,,,0.082,0.070,0.160*5A
###2023-12-09 13:03:05.996655$GNZDA,180305.10,09,12,2023,00,00*7F
###2023-12-09 13:03:05.997296$GNEBP,,,,,,M*13
###2023-12-09 13:03:06.164696$GNGGA,180305.30,4138.0475908,N,07032.3716511,W,1,24,0.6,13.450,M,-29.744,M,0.0,*59
###2023-12-09 13:03:06.365592$GNGGA,180305.50,4138.0475806,N,07032.3718952,W,1,24,0.6,13.439,M,-29.744,M,0.0,*5A
###2023-12-09 13:03:06.564577$GNGGA,180305.70,4138.0475710,N,07032.3721434,W,1,24,0.6,13.444,M,-29.744,M,0.0,*5D
###2023-12-09 13:03:06.765684$GNGGA,180305.90,4138.0475658,N,07032.3723958,W,1,24,0.6,13.460,M,-29.744,M,0.0,*5D
###2023-12-09 13:03:06.966932$GNRMC,180306.10,A,4138.0475457,N,07032.3726468,W,3.36,258.51,091223,,,A*5B
###2023-12-09 13:03:06.969791$GNGGA,180306.10,4138.0475457,N,07032.3726468,W,1,24,0.6,13.467,M,-29.744,M,0.0,*57
###2023-12-09 13:03:06.971663$GPGSA,A,3,03,04,16,26,28,29,31,32,,,,,1.1,0.6,0.9*3B
###2023-12-09 13:03:06.973384$GLGSA,A,3,65,71,72,73,74,75,,,,,,,1.1,0.6,0.9*24
###2023-12-09 13:03:06.974976$GAGSA,A,3,04,19,21,27,,,,,,,,,1.1,0.6,0.9*26
###2023-12-09 13:03:06.976623$GBGSA,A,3,14,24,25,26,33,,,,,,,,1.1,0.6,0.9*2F
###2023-12-09 13:03:06.978968$GPGSV,2,1,08,03,34,260,43,04,33,311,41,16,50,212,45,26,80,210,48*76
###2023-12-09 13:03:06.981307$GPGSV,2,2,08,28,49,070,45,29,25,061,42,31,69,038,47,32,19,140,44*74
###2023-12-09 13:03:06.983655$GLGSV,2,1,06,65,25,327,41,71,40,173,46,72,73,265,45,73,35,042,45*66
###2023-12-09 13:03:06.985405$GLGSV,2,2,06,74,69,340,42,75,33,254,44,,,,,,,,*6F
###2023-12-09 13:03:06.987778$GAGSV,1,1,04,04,29,312,40,19,84,213,40,21,86,114,46,27,32,048,42*62
###2023-12-09 13:03:06.990118$GBGSV,2,1,05,14,43,193,43,24,73,026,48,25,41,263,43,26,26,063,42*68
###2023-12-09 13:03:06.991588$GBGSV,2,2,05,33,57,231,47,,,,,,,,,,,,*5F
###2023-12-09 13:03:06.992913$GNVTG,258.51,T,,M,3.36,N,6.23,K,A*29
###2023-12-09 13:03:06.994573$GNGST,180306.10,18.000,,,,0.082,0.070,0.160*59
###2023-12-09 13:03:06.995869$GNZDA,180306.10,09,12,2023,00,00*7C
###2023-12-09 13:03:06.996508$GNEBP,,,,,,M*13
###2023-12-09 13:03:07.165611$GNGGA,180306.30,4138.0475004,N,07032.3728900,W,1,24,0.6,13.465,M,-29.744,M,0.0,*58
###2023-12-09 13:03:07.365212$GNGGA,180306.50,4138.0474524,N,07032.3731366,W,1,24,0.6,13.464,M,-29.744,M,0.0,*5B
###2023-12-09 13:03:07.565563$GNGGA,180306.70,4138.0474257,N,07032.3733932,W,1,24,0.6,13.477,M,-29.744,M,0.0,*51
###2023-12-09 13:03:07.767601$GNGGA,180306.90,4138.0474056,N,07032.3736527,W,1,24,0.6,13.492,M,-29.744,M,0.0,*5A
###2023-12-09 13:03:07.967430$GNRMC,180307.10,A,4138.0473678,N,07032.3739040,W,3.48,256.45,091223,,,A*51
###2023-12-09 13:03:07.970290$GNGGA,180307.10,4138.0473678,N,07032.3739040,W,1,24,0.6,13.487,M,-29.744,M,0.0,*51
###2023-12-09 13:03:07.972165$GPGSA,A,3,03,04,16,26,28,29,31,32,,,,,1.1,0.6,0.9*3B
###2023-12-09 13:03:07.973887$GLGSA,A,3,65,71,72,73,74,75,,,,,,,1.1,0.6,0.9*24
###2023-12-09 13:03:07.975485$GAGSA,A,3,04,19,21,27,,,,,,,,,1.1,0.6,0.9*26
###2023-12-09 13:03:07.977138$GBGSA,A,3,14,24,25,26,33,,,,,,,,1.1,0.6,0.9*2F
###2023-12-09 13:03:07.979484$GPGSV,2,1,08,03,34,260,42,04,33,311,43,16,50,212,46,26,80,210,48*76
###2023-12-09 13:03:07.981827$GPGSV,2,2,08,28,49,070,45,29,25,061,42,31,69,038,48,32,19,140,43*7C
###2023-12-09 13:03:07.984176$GLGSV,2,1,06,65,25,327,41,71,40,173,46,72,73,265,45,73,35,042,45*66
###2023-12-09 13:03:07.985925$GLGSV,2,2,06,74,69,340,42,75,33,254,43,,,,,,,,*68
###2023-12-09 13:03:07.988270$GAGSV,1,1,04,04,29,312,40,19,84,213,40,21,86,114,45,27,32,048,42*61
###2023-12-09 13:03:07.990614$GBGSV,2,1,05,14,43,193,44,24,73,026,48,25,41,263,43,26,26,063,42*6F
###2023-12-09 13:03:07.992071$GBGSV,2,2,05,33,57,231,47,,,,,,,,,,,,*5F
###2023-12-09 13:03:07.993396$GNVTG,256.45,T,,M,3.48,N,6.44,K,A*2A
###2023-12-09 13:03:07.995056$GNGST,180307.10,18.000,,,,0.082,0.070,0.160*58
###2023-12-09 13:03:07.996350$GNZDA,180307.10,09,12,2023,00,00*7D
###2023-12-09 13:03:07.996989$GNEBP,,,,,,M*13
###2023-12-09 13:03:08.165479$GNGGA,180307.30,4138.0473297,N,07032.3741531,W,1,24,0.6,13.475,M,-29.744,M,0.0,*57
###2023-12-09 13:03:08.366299$GNGGA,180307.50,4138.0473124,N,07032.3744018,W,1,24,0.6,13.467,M,-29.744,M,0.0,*52
###2023-12-09 13:03:08.566877$GNGGA,180307.70,4138.0473161,N,07032.3746457,W,1,24,0.6,13.469,M,-29.744,M,0.0,*52
###2023-12-09 13:03:08.765002$GNGGA,180307.90,4138.0473304,N,07032.3748851,W,1,24,0.6,13.479,M,-29.744,M,0.0,*58
###2023-12-09 13:03:08.974486$GNRMC,180308.10,A,4138.0473462,N,07032.3751247,W,3.25,274.20,091223,,,A*54
###2023-12-09 13:03:08.977360$GNGGA,180308.10,4138.0473462,N,07032.3751247,W,1,24,0.6,13.481,M,-29.744,M,0.0,*5A
###2023-12-09 13:03:08.979485$GPGSA,A,3,03,04,16,26,28,29,31,32,,,,,1.1,0.6,0.9*3B
###2023-12-09 13:03:08.981214$GLGSA,A,3,65,71,72,73,74,75,,,,,,,1.1,0.6,0.9*24
###2023-12-09 13:03:08.982815$GAGSA,A,3,04,19,21,27,,,,,,,,,1.1,0.6,0.9*26
###2023-12-09 13:03:08.984465$GBGSA,A,3,14,24,25,26,33,,,,,,,,1.1,0.6,0.9*2F
###2023-12-09 13:03:08.986840$GPGSV,2,1,08,03,34,260,41,04,33,311,41,16,50,212,46,26,80,210,48*77
###2023-12-09 13:03:08.989186$GPGSV,2,2,08,28,49,070,45,29,25,061,42,31,69,038,47,32,19,140,44*74
###2023-12-09 13:03:08.991538$GLGSV,2,1,06,65,25,327,39,71,40,173,46,72,73,265,45,73,35,042,44*68
###2023-12-09 13:03:08.993289$GLGSV,2,2,06,74,69,340,42,75,33,254,42,,,,,,,,*69
###2023-12-09 13:03:08.995634$GAGSV,1,1,04,04,29,312,38,19,84,213,40,21,86,114,46,27,32,048,40*6F
###2023-12-09 13:03:08.997971$GBGSV,2,1,05,14,43,193,45,24,73,026,49,25,41,263,44,26,26,063,43*69
