###2023-12-09 13:44:00.008506$GPGSA,A,3,04,16,26,28,29,31,,,,,,,1.4,0.8,1.1*3B
###2023-12-09 13:44:00.010113$GLGSA,A,3,65,73,75,83,,,,,,,,,1.4,0.8,1.1*2D
###2023-12-09 13:44:00.011654$GAGSA,A,3,04,21,27,,,,,,,,,,1.4,0.8,1.1*2C
###2023-12-09 13:44:00.013240$GBGSA,A,3,12,24,25,35,,,,,,,,,1.4,0.8,1.1*29
###2023-12-09 13:44:00.015590$GPGSV,2,1,06,04,50,305,45,16,71,227,40,26,79,041,41,28,35,088,42*78
###2023-12-09 13:44:00.017347$GPGSV,2,2,06,29,18,043,42,31,56,072,51,,,,,,,,*7C
###2023-12-09 13:44:00.019691$GLGSV,1,1,04,65,42,314,43,73,19,055,44,75,46,277,43,83,16,043,36*62
###2023-12-09 13:44:00.021726$GAGSV,1,1,03,04,43,308,44,21,73,044,38,27,20,051,41,,,,*59
###2023-12-09 13:44:00.024065$GBGSV,1,1,04,12,18,124,41,24,60,050,45,25,53,280,45,35,16,053,37*6A
###2023-12-09 13:44:00.025386$GNVTG,243.17,T,,M,0.04,N,0.07,K,A*23
###2023-12-09 13:44:00.027005$GNGST,184359.10,7.300,,,,0.210,0.110,0.310*61
###2023-12-09 13:44:00.028290$GNZDA,184359.10,09,12,2023,00,00*72
###2023-12-09 13:44:00.028926$GNEBP,,,,,,M*13
###2023-12-09 13:44:00.200155$GNGGA,184359.30,4138.0390690,N,07032.4387220,W,1,17,0.8,14.462,M,-29.746,M,0.0,*52
###2023-12-09 13:44:00.400062$GNGGA,184359.50,4138.0390696,N,07032.4387226,W,1,17,0.8,14.458,M,-29.746,M,0.0,*5D
###2023-12-09 13:44:00.598116$GNGGA,184359.70,4138.0390684,N,07032.4387248,W,1,17,0.8,14.450,M,-29.746,M,0.0,*5C
###2023-12-09 13:44:00.798776$GNGGA,184359.90,4138.0390672,N,07032.4387277,W,1,17,0.8,14.445,M,-29.746,M,0.0,*53
###2023-12-09 13:44:01.002530$GNRMC,184400.10,A,4138.0390669,N,07032.4387301,W,0.04,243.17,091223,,,A*57
###2023-12-09 13:44:01.005401$GNGGA,184400.10,4138.0390669,N,07032.4387301,W,1,17,0.8,14.435,M,-29.746,M,0.0,*5D
###2023-12-09 13:44:01.007143$GPGSA,A,3,04,16,26,28,29,31,,,,,,,1.4,0.8,1.1*3B
###2023-12-09 13:44:01.008725$GLGSA,A,3,65,73,75,83,,,,,,,,,1.4,0.8,1.1*2D
###2023-12-09 13:44:01.010238$GAGSA,A,3,04,21,27,,,,,,,,,,1.4,0.8,1.1*2C
###2023-12-09 13:44:01.011831$GBGSA,A,3,12,24,25,35,,,,,,,,,1.4,0.8,1.1*29
###2023-12-09 13:44:01.014154$GPGSV,2,1,06,04,50,305,45,16,71,227,40,26,79,041,41,28,35,088,42*78
###2023-12-09 13:44:01.015910$GPGSV,2,2,06,29,18,043,42,31,56,072,50,,,,,,,,*7D
###2023-12-09 13:44:01.018233$GLGSV,1,1,04,65,42,314,43,73,19,055,44,75,46,277,43,83,16,043,36*62
###2023-12-09 13:44:01.020279$GAGSV,1,1,03,04,43,308,44,21,73,044,38,27,20,051,41,,,,*59
###2023-12-09 13:44:01.022613$GBGSV,1,1,04,12,18,124,41,24,60,050,45,25,53,280,46,35,16,053,36*68
###2023-12-09 13:44:01.023940$GNVTG,243.17,T,,M,0.04,N,0.07,K,A*23
###2023-12-09 13:44:01.025549$GNGST,184400.10,6.500,,,,0.210,0.110,0.310*6D
###2023-12-09 13:44:01.026844$GNZDA,184400.10,09,12,2023,00,00*79
###2023-12-09 13:44:01.027476$GNEBP,,,,,,M*13
###2023-12-09 13:44:01.199418$GNGGA,184400.30,4138.0390649,N,07032.4387331,W,1,18,0.8,14.427,M,-29.746,M,0.0,*52
###2023-12-09 13:44:01.401336$GNGGA,184400.50,4138.0390642,N,07032.4387343,W,1,17,0.8,14.426,M,-29.746,M,0.0,*54
###2023-12-09 13:44:01.600478$GNGGA,184400.70,4138.0390630,N,07032.4387377,W,1,17,0.8,14.416,M,-29.746,M,0.0,*57
###2023-12-09 13:44:01.799166$GNGGA,184400.90,4138.0390624,N,07032.4387395,W,1,17,0.8,14.410,M,-29.746,M,0.0,*56
###2023-12-09 13:44:02.002616$GNRMC,184401.10,A,4138.0390621,N,07032.4387393,W,0.02,243.17,091223,,,A*57
###2023-12-09 13:44:02.005684$GNGGA,184401.10,4138.0390621,N,07032.4387393,W,1,17,0.8,14.405,M,-29.746,M,0.0,*58
###2023-12-09 13:44:02.007516$GPGSA,A,3,04,16,26,28,29,31,,,,,,,1.4,0.8,1.1*3B
###2023-12-09 13:44:02.009095$GLGSA,A,3,65,73,75,83,,,,,,,,,1.4,0.8,1.1*2D
###2023-12-09 13:44:02.010619$GAGSA,A,3,04,21,27,,,,,,,,,,1.4,0.8,1.1*2C
###2023-12-09 13:44:02.012194$GBGSA,A,3,12,24,25,35,,,,,,,,,1.4,0.8,1.1*29
###2023-12-09 13:44:02.014512$GPGSV,2,1,06,04,50,305,43,16,71,227,39,26,79,041,40,28,35,088,41*72
###2023-12-09 13:44:02.016274$GPGSV,2,2,06,29,18,043,40,31,56,072,48,,,,,,,,*76
###2023-12-09 13:44:02.018605$GLGSV,1,1,04,65,42,314,43,73,19,055,44,75,46,277,43,83,16,043,36*62
###2023-12-09 13:44:02.020642$GAGSV,1,1,03,04,43,308,43,21,73,044,37,27,20,051,39,,,,*5E
###2023-12-09 13:44:02.022980$GBGSV,1,1,04,12,18,124,41,24,60,050,45,25,53,280,46,35,16,053,36*68
###2023-12-09 13:44:02.024310$GNVTG,243.17,T,,M,0.02,N,0.04,K,A*26
###2023-12-09 13:44:02.025912$GNGST,184401.10,6.400,,,,0.210,0.110,0.310*6D
###2023-12-09 13:44:02.027208$GNZDA,184401.10,09,12,2023,00,00*78
###2023-12-09 13:44:02.027846$GNEBP,,,,,,M*13
###2023-12-09 13:44:02.198129$GNGGA,184401.30,4138.0390609,N,07032.4387424,W,1,17,0.8,14.397,M,-29.746,M,0.0,*57
###2023-12-09 13:44:02.398834$GNGGA,184401.50,4138.0390609,N,07032.4387437,W,1,17,0.8,14.390,M,-29.746,M,0.0,*54
###2023-12-09 13:44:02.598450$GNGGA,184401.70,4138.0390590,N,07032.4387472,W,1,17,0.8,14.379,M,-29.746,M,0.0,*53
###2023-12-09 13:44:02.798679$GNGGA,184401.90,4138.0390582,N,07032.4387500,W,1,18,0.8,14.369,M,-29.746,M,0.0,*54
###2023-12-09 13:44:03.004890$GNRMC,184402.10,A,4138.0390575,N,07032.4387521,W,0.02,243.17,091223,,,A*59
###2023-12-09 13:44:03.007773$GNGGA,184402.10,4138.0390575,N,07032.4387521,W,1,18,0.8,14.363,M,-29.746,M,0.0,*5E
###2023-12-09 13:44:03.009496$GPGSA,A,3,04,16,26,28,29,31,,,,,,,1.3,0.8,1.1*3C
###2023-12-09 13:44:03.011151$GLGSA,A,3,65,73,74,75,83,,,,,,,,1.3,0.8,1.1*29
###2023-12-09 13:44:03.012666$GAGSA,A,3,04,21,27,,,,,,,,,,1.3,0.8,1.1*2B
###2023-12-09 13:44:03.014236$GBGSA,A,3,12,24,25,35,,,,,,,,,1.3,0.8,1.1*2E
###2023-12-09 13:44:03.016565$GPGSV,2,1,06,04,50,305,43,16,71,227,39,26,79,041,41,28,35,088,41*73
###2023-12-09 13:44:03.018310$GPGSV,2,2,06,29,18,043,40,31,56,072,49,,,,,,,,*77
###2023-12-09 13:44:03.020640$GLGSV,2,1,05,65,42,314,43,73,19,055,44,74,56,021,35,75,46,277,43*6B
###2023-12-09 13:44:03.022088$GLGSV,2,2,05,83,16,043,36,,,,,,,,,,,,*5E
###2023-12-09 13:44:03.024122$GAGSV,1,1,03,04,43,308,44,21,73,044,38,27,20,051,40,,,,*58
###2023-12-09 13:44:03.026438$GBGSV,1,1,04,12,18,124,41,24,60,050,46,25,53,280,46,35,16,053,37*6A
###2023-12-09 13:44:03.027766$GNVTG,243.17,T,,M,0.02,N,0.04,K,A*26
###2023-12-09 13:44:03.029376$GNGST,184402.10,6.800,,,,0.210,0.120,0.310*61
###2023-12-09 13:44:03.030669$GNZDA,184402.10,09,12,2023,00,00*7B
###2023-12-09 13:44:03.031306$GNEBP,,,,,,M*13
###2023-12-09 13:44:03.204624$GNGGA,184402.30,4138.0390557,N,07032.4387545,W,1,18,0.8,14.357,M,-29.746,M,0.0,*59
###2023-12-09 13:44:03.400523$GNGGA,184402.50,4138.0390561,N,07032.4387577,W,1,18,0.8,14.350,M,-29.746,M,0.0,*5C
###2023-12-09 13:44:03.597970$GNGGA,184402.70,4138.0390546,N,07032.4387608,W,1,18,0.8,14.336,M,-29.746,M,0.0,*50
###2023-12-09 13:44:03.800627$GNGGA,184402.90,4138.0390540,N,07032.4387625,W,1,18,0.8,14.331,M,-29.746,M,0.0,*50
###2023-12-09 13:44:04.004454$GNRMC,184403.10,A,4138.0390519,N,07032.4387645,W,0.12,243.17,091223,,,A*52
###2023-12-09 13:44:04.007315$GNGGA,184403.10,4138.0390519,N,07032.4387645,W,1,18,0.8,14.326,M,-29.746,M,0.0,*55
###2023-12-09 13:44:04.009031$GPGSA,A,3,04,16,26,28,29,31,,,,,,,1.3,0.8,1.1*3C
###2023-12-09 13:44:04.010682$GLGSA,A,3,65,73,74,75,83,,,,,,,,1.3,0.8,1.1*29
###2023-12-09 13:44:04.012200$GAGSA,A,3,04,21,27,,,,,,,,,,1.3,0.8,1.1*2B
###2023-12-09 13:44:04.013779$GBGSA,A,3,12,24,25,35,,,,,,,,,1.3,0.8,1.1*2E
###2023-12-09 13:44:04.016111$GPGSV,2,1,06,04,50,305,43,16,71,227,39,26,79,041,41,28,35,088,42*70
###2023-12-09 13:44:04.017857$GPGSV,2,2,06,29,18,043,40,31,56,072,49,,,,,,,,*77
###2023-12-09 13:44:04.020198$GLGSV,2,1,05,65,42,314,43,73,19,055,43,74,56,021,35,75,46,277,43*6C
###2023-12-09 13:44:04.021655$GLGSV,2,2,05,83,16,043,35,,,,,,,,,,,,*5D
###2023-12-09 13:44:04.023712$GAGSV,1,1,03,04,43,308,44,21,73,044,38,27,19,051,40,,,,*52
###2023-12-09 13:44:04.026052$GBGSV,1,1,04,12,18,124,41,24,60,050,45,25,53,280,46,35,16,053,37*69
###2023-12-09 13:44:04.027416$GNVTG,243.17,T,,M,0.12,N,0.22,K,A*23
###2023-12-09 13:44:04.029038$GNGST,184403.10,6.900,,,,0.210,0.120,0.310*61
###2023-12-09 13:44:04.030328$GNZDA,184403.10,09,12,2023,00,00*7A
###2023-12-09 13:44:04.030978$GNEBP,,,,,,M*13
###2023-12-09 13:44:04.200321$GNGGA,184403.30,4138.0390522,N,07032.4387668,W,1,18,0.8,14.317,M,-29.746,M,0.0,*52
###2023-12-09 13:44:04.402313$GNGGA,184403.50,4138.0390510,N,07032.4387683,W,1,18,0.8,14.307,M,-29.746,M,0.0,*51
###2023-12-09 13:44:04.598031$GNGGA,184403.70,4138.0390503,N,07032.4387707,W,1,18,0.8,14.296,M,-29.746,M,0.0,*55
###2023-12-09 13:44:04.797999$GNGGA,184403.90,4138.0390494,N,07032.4387729,W,1,18,0.8,14.286,M,-29.746,M,0.0,*59
###2023-12-09 13:44:05.003074$GNRMC,184404.10,A,4138.0390492,N,07032.4387747,W,0.02,243.17,091223,,,A*55
###2023-12-09 13:44:05.006147$GNGGA,184404.10,4138.0390492,N,07032.4387747,W,1,18,0.8,14.278,M,-29.746,M,0.0,*59
###2023-12-09 13:44:05.008013$GPGSA,A,3,04,16,26,28,29,31,,,,,,,1.3,0.8,1.1*3C
###2023-12-09 13:44:05.009776$GLGSA,A,3,65,73,74,75,83,,,,,,,,1.3,0.8,1.1*29
###2023-12-09 13:44:05.011442$GAGSA,A,3,04,21,27,,,,,,,,,,1.3,0.8,1.1*2B
