###2023-12-09 13:13:18.982712$GPGSA,A,3,03,04,16,26,28,29,31,,,,,,1.2,0.7,1.0*30
###2023-12-09 13:13:18.984450$GLGSA,A,3,65,71,72,73,74,75,,,,,,,1.2,0.7,1.0*2E
###2023-12-09 13:13:18.986043$GAGSA,A,3,04,19,21,27,,,,,,,,,1.2,0.7,1.0*2C
###2023-12-09 13:13:18.987783$GBGSA,A,3,14,24,25,26,33,35,,,,,,,1.2,0.7,1.0*23
###2023-12-09 13:13:18.990111$GPGSV,2,1,07,03,32,255,43,04,38,311,42,16,56,215,47,26,85,210,48*77
###2023-12-09 13:13:18.992167$GPGSV,2,2,07,28,46,075,46,29,24,056,43,31,66,048,47,,,,*42
###2023-12-09 13:13:18.994488$GLGSV,2,1,06,65,29,325,40,71,34,174,46,72,71,246,46,73,31,045,44*6F
###2023-12-09 13:13:18.996253$GLGSV,2,2,06,74,66,353,41,75,36,259,45,,,,,,,,*68
###2023-12-09 13:13:18.998595$GAGSV,1,1,04,04,33,312,40,19,81,194,41,21,84,070,46,27,29,048,41*69
###2023-12-09 13:13:19.000930$GBGSV,2,1,06,14,38,192,42,24,70,034,48,25,44,267,46,26,22,065,43*60
###2023-12-09 13:13:19.002680$GBGSV,2,2,06,33,53,226,47,35,15,065,43,,,,,,,,*68
###2023-12-09 13:13:19.004003$GNVTG,340.33,T,,M,3.29,N,6.08,K,A*22
###2023-12-09 13:13:19.005652$GNGST,181318.10,18.000,,,,0.098,0.072,0.170*5F
###2023-12-09 13:13:19.006968$GNZDA,181318.10,09,12,2023,00,00*72
###2023-12-09 13:13:19.007609$GNEBP,,,,,,M*13
###2023-12-09 13:13:19.173181$GNGGA,181318.30,4138.0517166,N,07032.2513050,W,1,24,0.7,12.810,M,-29.742,M,0.0,*59
###2023-12-09 13:13:19.374294$GNGGA,181318.50,4138.0518856,N,07032.2513798,W,1,24,0.7,12.807,M,-29.742,M,0.0,*5F
###2023-12-09 13:13:19.575018$GNGGA,181318.70,4138.0520482,N,07032.2514619,W,1,24,0.7,12.802,M,-29.742,M,0.0,*59
###2023-12-09 13:13:19.773970$GNGGA,181318.90,4138.0521979,N,07032.2515604,W,1,24,0.7,12.798,M,-29.742,M,0.0,*5E
###2023-12-09 13:13:19.976953$GNRMC,181319.10,A,4138.0523400,N,07032.2516667,W,2.90,330.30,091223,,,A*5C
###2023-12-09 13:13:19.979817$GNGGA,181319.10,4138.0523400,N,07032.2516667,W,1,24,0.7,12.797,M,-29.742,M,0.0,*5F
###2023-12-09 13:13:19.981607$GPGSA,A,3,03,04,16,26,28,29,31,,,,,,1.2,0.7,1.0*30
###2023-12-09 13:13:19.983329$GLGSA,A,3,65,71,72,73,74,75,,,,,,,1.2,0.7,1.0*2E
###2023-12-09 13:13:19.984907$GAGSA,A,3,04,19,21,27,,,,,,,,,1.2,0.7,1.0*2C
###2023-12-09 13:13:19.986622$GBGSA,A,3,14,24,25,26,33,35,,,,,,,1.2,0.7,1.0*23
###2023-12-09 13:13:19.988942$GPGSV,2,1,07,03,32,255,43,04,38,311,41,16,56,215,46,26,85,210,48*75
###2023-12-09 13:13:19.990987$GPGSV,2,2,07,28,46,075,46,29,24,056,42,31,66,048,47,,,,*43
###2023-12-09 13:13:19.993302$GLGSV,2,1,06,65,29,325,41,71,34,174,44,72,71,246,45,73,31,045,44*6F
###2023-12-09 13:13:19.995048$GLGSV,2,2,06,74,66,353,42,75,36,259,45,,,,,,,,*6B
###2023-12-09 13:13:19.997362$GAGSV,1,1,04,04,33,312,42,19,81,194,41,21,84,070,46,27,29,048,41*6B
###2023-12-09 13:13:19.999693$GBGSV,2,1,06,14,38,192,43,24,70,034,49,25,44,267,47,26,22,065,43*61
###2023-12-09 13:13:20.001436$GBGSV,2,2,06,33,53,226,48,35,15,065,43,,,,,,,,*67
###2023-12-09 13:13:20.002764$GNVTG,330.30,T,,M,2.90,N,5.36,K,A*2B
###2023-12-09 13:13:20.004405$GNGST,181319.10,18.000,,,,0.098,0.072,0.170*5E
###2023-12-09 13:13:20.005692$GNZDA,181319.10,09,12,2023,00,00*73
###2023-12-09 13:13:20.006325$GNEBP,,,,,,M*13
###2023-12-09 13:13:20.174635$GNGGA,181319.30,4138.0524784,N,07032.2517734,W,1,24,0.7,12.790,M,-29.742,M,0.0,*54
###2023-12-09 13:13:20.374246$GNGGA,181319.50,4138.0526123,N,07032.2518832,W,1,24,0.7,12.786,M,-29.742,M,0.0,*5A
###2023-12-09 13:13:20.575045$GNGGA,181319.70,4138.0527433,N,07032.2519974,W,1,24,0.7,12.787,M,-29.742,M,0.0,*5E
###2023-12-09 13:13:20.773969$GNGGA,181319.90,4138.0528667,N,07032.2521207,W,1,24,0.7,12.782,M,-29.742,M,0.0,*5D
###2023-12-09 13:13:20.985082$GNRMC,181320.10,A,4138.0529831,N,07032.2522526,W,2.76,318.97,091223,,,A*5C
###2023-12-09 13:13:20.987970$GNGGA,181320.10,4138.0529831,N,07032.2522526,W,1,24,0.7,12.780,M,-29.742,M,0.0,*56
###2023-12-09 13:13:20.989768$GPGSA,A,3,03,04,16,26,28,29,31,,,,,,1.2,0.7,1.0*30
###2023-12-09 13:13:20.991494$GLGSA,A,3,65,71,72,73,74,75,,,,,,,1.2,0.7,1.0*2E
###2023-12-09 13:13:20.993079$GAGSA,A,3,04,19,21,27,,,,,,,,,1.2,0.7,1.0*2C
###2023-12-09 13:13:20.994806$GBGSA,A,3,14,24,25,26,33,35,,,,,,,1.2,0.7,1.0*23
###2023-12-09 13:13:20.997130$GPGSV,2,1,07,03,32,255,43,04,38,311,43,16,56,215,46,26,85,210,48*77
###2023-12-09 13:13:20.999177$GPGSV,2,2,07,28,46,075,45,29,24,056,43,31,66,048,47,,,,*41
###2023-12-09 13:13:21.001500$GLGSV,2,1,06,65,29,325,41,71,34,174,44,72,71,246,46,73,31,045,45*6D
###2023-12-09 13:13:21.003255$GLGSV,2,2,06,74,66,353,42,75,36,259,45,,,,,,,,*6B
###2023-12-09 13:13:21.005581$GAGSV,1,1,04,04,33,312,43,19,81,194,41,21,84,070,46,27,29,048,42*69
###2023-12-09 13:13:21.007914$GBGSV,2,1,06,14,38,192,43,24,70,034,49,25,44,267,47,26,22,065,42*60
###2023-12-09 13:13:21.009652$GBGSV,2,2,06,33,53,226,48,35,15,065,43,,,,,,,,*67
###2023-12-09 13:13:21.010978$GNVTG,318.97,T,,M,2.76,N,5.11,K,A*21
###2023-12-09 13:13:21.012613$GNGST,181320.10,18.000,,,,0.098,0.072,0.170*54
###2023-12-09 13:13:21.013895$GNZDA,181320.10,09,12,2023,00,00*79
###2023-12-09 13:13:21.014532$GNEBP,,,,,,M*13
###2023-12-09 13:13:21.176167$GNGGA,181320.30,4138.0530964,N,07032.2523893,W,1,24,0.7,12.780,M,-29.742,M,0.0,*5F
###2023-12-09 13:13:21.375081$GNGGA,181320.50,4138.0532083,N,07032.2525336,W,1,24,0.7,12.779,M,-29.742,M,0.0,*5F
###2023-12-09 13:13:21.576210$GNGGA,181320.70,4138.0533113,N,07032.2526853,W,1,24,0.7,12.774,M,-29.742,M,0.0,*52
###2023-12-09 13:13:21.776252$GNGGA,181320.90,4138.0534068,N,07032.2528447,W,1,24,0.7,12.770,M,-29.742,M,0.0,*55
###2023-12-09 13:13:21.977215$GNRMC,181321.10,A,4138.0534947,N,07032.2530086,W,2.74,305.62,091223,,,A*59
###2023-12-09 13:13:21.980101$GNGGA,181321.10,4138.0534947,N,07032.2530086,W,1,24,0.7,12.767,M,-29.742,M,0.0,*5E
###2023-12-09 13:13:21.981901$GPGSA,A,3,03,04,16,26,28,29,31,,,,,,1.2,0.7,1.0*30
###2023-12-09 13:13:21.983632$GLGSA,A,3,65,71,72,73,74,75,,,,,,,1.2,0.7,1.0*2E
###2023-12-09 13:13:21.985220$GAGSA,A,3,04,19,21,27,,,,,,,,,1.2,0.7,1.0*2C
###2023-12-09 13:13:21.986945$GBGSA,A,3,14,24,25,26,33,35,,,,,,,1.2,0.7,1.0*23
###2023-12-09 13:13:21.989275$GPGSV,2,1,07,03,32,255,43,04,38,311,43,16,56,215,46,26,85,210,48*77
###2023-12-09 13:13:21.991330$GPGSV,2,2,07,28,46,075,45,29,24,056,42,31,66,048,47,,,,*40
###2023-12-09 13:13:21.993661$GLGSV,2,1,06,65,29,325,40,71,34,174,45,72,71,246,46,73,31,045,45*6D
###2023-12-09 13:13:21.995422$GLGSV,2,2,06,74,66,353,41,75,36,259,45,,,,,,,,*68
###2023-12-09 13:13:21.997747$GAGSV,1,1,04,04,33,312,42,19,81,194,40,21,84,070,46,27,29,048,42*69
###2023-12-09 13:13:22.000090$GBGSV,2,1,06,14,38,192,44,24,70,034,48,25,44,267,46,26,22,065,43*66
###2023-12-09 13:13:22.001836$GBGSV,2,2,06,33,53,226,46,35,15,065,42,,,,,,,,*68
###2023-12-09 13:13:22.003204$GNVTG,305.62,T,,M,2.74,N,5.08,K,A*2D
###2023-12-09 13:13:22.004858$GNGST,181321.10,18.000,,,,0.098,0.071,0.170*56
###2023-12-09 13:13:22.006150$GNZDA,181321.10,09,12,2023,00,00*78
###2023-12-09 13:13:22.006800$GNEBP,,,,,,M*13
###2023-12-09 13:13:22.174079$GNGGA,181321.30,4138.0535779,N,07032.2531768,W,1,24,0.7,12.765,M,-29.742,M,0.0,*5A
###2023-12-09 13:13:22.374357$GNGGA,181321.50,4138.0536493,N,07032.2533499,W,1,24,0.7,12.755,M,-29.742,M,0.0,*54
###2023-12-09 13:13:22.574141$GNGGA,181321.70,4138.0537076,N,07032.2535293,W,1,24,0.7,12.751,M,-29.742,M,0.0,*56
###2023-12-09 13:13:22.774987$GNGGA,181321.90,4138.0537705,N,07032.2537106,W,1,24,0.7,12.752,M,-29.742,M,0.0,*55
###2023-12-09 13:13:22.979158$GNRMC,181322.10,A,4138.0538347,N,07032.2538980,W,2.84,292.82,091223,,,A*55
###2023-12-09 13:13:22.982000$GNGGA,181322.10,4138.0538347,N,07032.2538980,W,1,24,0.7,12.753,M,-29.742,M,0.0,*5B
###2023-12-09 13:13:22.983797$GPGSA,A,3,03,04,16,26,28,29,31,,,,,,1.2,0.7,1.0*30
###2023-12-09 13:13:22.985500$GLGSA,A,3,65,71,72,73,74,75,,,,,,,1.2,0.7,1.0*2E
###2023-12-09 13:13:22.987084$GAGSA,A,3,04,19,21,27,,,,,,,,,1.2,0.7,1.0*2C
###2023-12-09 13:13:22.988785$GBGSA,A,3,14,24,25,26,33,35,,,,,,,1.2,0.7,1.0*23
###2023-12-09 13:13:22.991119$GPGSV,2,1,07,03,32,255,41,04,38,311,43,16,56,215,46,26,85,210,48*75
###2023-12-09 13:13:22.993150$GPGSV,2,2,07,28,46,075,45,29,24,056,41,31,66,048,47,,,,*43
###2023-12-09 13:13:22.995482$GLGSV,2,1,06,65,29,325,40,71,34,174,46,72,71,246,46,73,31,045,44*6F
###2023-12-09 13:13:22.997469$GLGSV,2,2,06,74,66,353,42,75,36,259,44,,,,,,,,*6A
###2023-12-09 13:13:22.999824$GAGSV,1,1,04,04,33,312,41,19,81,194,40,21,84,070,46,27,29,048,41*69
###2023-12-09 13:13:23.002163$GBGSV,2,1,06,14,38,192,44,24,70,034,49,25,44,267,45,26,22,065,41*66
###2023-12-09 13:13:23.003925$GBGSV,2,2,06,33,53,226,47,35,15,065,41,,,,,,,,*6A
###2023-12-09 13:13:23.005250$GNVTG,292.82,T,,M,2.84,N,5.26,K,A*2F
###2023-12-09 13:13:23.006906$GNGST,181322.10,18.000,,,,0.097,0.072,0.170*59
###2023-12-09 13:13:23.008198$GNZDA,181322.10,09,12,2023,00,00*7B
###2023-12-09 13:13:23.008838$GNEBP,,,,,,M*13
###2023-12-09 13:13:23.174854$GNGGA,181322.30,4138.0538832,N,07032.2540969,W,1,24,0.7,12.753,M,-29.742,M,0.0,*58
