###2023-12-09 12:29:59.950350$GBGSV,1,1,04,14,57,199,44,25,31,251,39,26,37,056,45,33,64,260,37*60
###2023-12-09 12:29:59.951725$GNVTG,,T,,M,0.04,N,0.07,K,A*3E
###2023-12-09 12:29:59.953551$GNGST,172959.10,31.000,,,,0.100,0.100,0.260*51
###2023-12-09 12:29:59.955048$GNZDA,172959.10,09,12,2023,00,00*71
###2023-12-09 12:29:59.955863$GNEBP,,,,,,M*13
###2023-12-09 12:30:00.123884$GNGGA,172959.30,4138.0384918,N,07032.4369202,W,1,18,0.7,12.621,M,-29.746,M,0.0,*58
###2023-12-09 12:30:00.323920$GNGGA,172959.50,4138.0384909,N,07032.4369242,W,1,18,0.7,12.617,M,-29.746,M,0.0,*5F
###2023-12-09 12:30:00.522802$GNGGA,172959.70,4138.0384889,N,07032.4369277,W,1,18,0.7,12.614,M,-29.746,M,0.0,*51
###2023-12-09 12:30:00.721872$GNGGA,172959.90,4138.0384863,N,07032.4369307,W,1,18,0.7,12.611,M,-29.746,M,0.0,*58
###2023-12-09 12:30:00.924416$GNRMC,173000.10,A,4138.0384829,N,07032.4369345,W,0.08,,091223,,,A*45
###2023-12-09 12:30:00.927482$GNGGA,173000.10,4138.0384829,N,07032.4369345,W,1,18,0.7,12.611,M,-29.746,M,0.0,*5C
###2023-12-09 12:30:00.929522$GPGSA,A,3,03,04,16,26,28,29,31,32,,,,,1.4,0.7,1.2*35
###2023-12-09 12:30:00.931315$GLGSA,A,3,71,72,73,75,,,,,,,,,1.4,0.7,1.2*2A
###2023-12-09 12:30:00.932939$GAGSA,A,3,21,27,,,,,,,,,,,1.4,0.7,1.2*24
###2023-12-09 12:30:00.934703$GBGSA,A,3,14,25,26,33,,,,,,,,,1.4,0.7,1.2*27
###2023-12-09 12:30:00.937203$GPGSV,2,1,08,03,39,280,40,04,20,310,36,16,34,206,42,26,64,206,45*75
###2023-12-09 12:30:00.939715$GPGSV,2,2,08,28,60,053,44,29,25,076,43,31,73,353,44,32,32,133,48*7F
###2023-12-09 12:30:00.942226$GLGSV,1,1,04,71,60,168,47,72,63,314,44,73,50,032,42,75,20,239,38*6E
###2023-12-09 12:30:00.944159$GAGSV,1,1,02,21,75,179,39,27,43,050,44,,,,,,,,*69
###2023-12-09 12:30:00.946691$GBGSV,1,1,04,14,57,199,44,25,31,251,39,26,37,056,45,33,64,260,37*60
###2023-12-09 12:30:00.948042$GNVTG,,T,,M,0.08,N,0.14,K,A*30
###2023-12-09 12:30:00.949856$GNGST,173000.10,31.000,,,,0.100,0.100,0.260*55
###2023-12-09 12:30:00.951325$GNZDA,173000.10,09,12,2023,00,00*75
###2023-12-09 12:30:00.952124$GNEBP,,,,,,M*13
###2023-12-09 12:30:01.124028$GNGGA,173000.30,4138.0384800,N,07032.4369379,W,1,18,0.7,12.606,M,-29.746,M,0.0,*5C
###2023-12-09 12:30:01.324818$GNGGA,173000.50,4138.0384776,N,07032.4369415,W,1,18,0.7,12.602,M,-29.746,M,0.0,*5D
###2023-12-09 12:30:01.524019$GNGGA,173000.70,4138.0384757,N,07032.4369451,W,1,18,0.7,12.601,M,-29.746,M,0.0,*5F
###2023-12-09 12:30:01.724357$GNGGA,173000.90,4138.0384725,N,07032.4369485,W,1,18,0.7,12.601,M,-29.746,M,0.0,*5D
###2023-12-09 12:30:01.926223$GNRMC,173001.10,A,4138.0384707,N,07032.4369535,W,0.04,,091223,,,A*4A
###2023-12-09 12:30:01.929133$GNGGA,173001.10,4138.0384707,N,07032.4369535,W,1,18,0.7,12.597,M,-29.746,M,0.0,*52
###2023-12-09 12:30:01.931034$GPGSA,A,3,03,04,16,26,28,29,31,32,,,,,1.4,0.7,1.2*35
###2023-12-09 12:30:01.932638$GLGSA,A,3,71,72,73,75,,,,,,,,,1.4,0.7,1.2*2A
###2023-12-09 12:30:01.934108$GAGSA,A,3,21,27,,,,,,,,,,,1.4,0.7,1.2*24
###2023-12-09 12:30:01.935736$GBGSA,A,3,14,25,26,33,,,,,,,,,1.4,0.7,1.2*27
###2023-12-09 12:30:01.938091$GPGSV,2,1,08,03,39,280,41,04,20,310,36,16,34,206,42,26,64,206,45*74
###2023-12-09 12:30:01.940465$GPGSV,2,2,08,28,60,053,45,29,25,076,43,31,73,353,44,32,32,133,48*7E
###2023-12-09 12:30:01.942841$GLGSV,1,1,04,71,60,168,48,72,63,314,44,73,50,032,42,75,20,239,38*61
###2023-12-09 12:30:01.944607$GAGSV,1,1,02,21,75,179,38,27,43,050,44,,,,,,,,*68
###2023-12-09 12:30:01.947001$GBGSV,1,1,04,14,57,199,44,25,31,251,39,26,37,056,45,33,64,260,37*60
###2023-12-09 12:30:01.948176$GNVTG,,T,,M,0.04,N,0.07,K,A*3E
###2023-12-09 12:30:01.949845$GNGST,173001.10,31.000,,,,0.100,0.100,0.260*54
###2023-12-09 12:30:01.951175$GNZDA,173001.10,09,12,2023,00,00*74
###2023-12-09 12:30:01.951833$GNEBP,,,,,,M*13
###2023-12-09 12:30:02.125931$GNGGA,173001.30,4138.0384685,N,07032.4369572,W,1,18,0.7,12.597,M,-29.746,M,0.0,*58
###2023-12-09 12:30:02.325668$GNGGA,173001.50,4138.0384670,N,07032.4369640,W,1,18,0.7,12.586,M,-29.746,M,0.0,*56
###2023-12-09 12:30:02.524982$GNGGA,173001.70,4138.0384660,N,07032.4369682,W,1,18,0.7,12.586,M,-29.746,M,0.0,*5B
###2023-12-09 12:30:02.724130$GNGGA,173001.90,4138.0384638,N,07032.4369721,W,1,18,0.7,12.586,M,-29.746,M,0.0,*50
###2023-12-09 12:30:02.925852$GNRMC,173002.10,A,4138.0384608,N,07032.4369756,W,0.00,,091223,,,A*44
###2023-12-09 12:30:02.928937$GNGGA,173002.10,4138.0384608,N,07032.4369756,W,1,18,0.7,12.590,M,-29.746,M,0.0,*5F
###2023-12-09 12:30:02.930996$GPGSA,A,3,03,04,16,26,28,29,31,32,,,,,1.4,0.7,1.2*35
###2023-12-09 12:30:02.932755$GLGSA,A,3,71,72,73,75,,,,,,,,,1.4,0.7,1.2*2A
###2023-12-09 12:30:02.934381$GAGSA,A,3,21,27,,,,,,,,,,,1.4,0.7,1.2*24
###2023-12-09 12:30:02.936147$GBGSA,A,3,14,25,26,33,,,,,,,,,1.4,0.7,1.2*27
###2023-12-09 12:30:02.938668$GPGSV,2,1,08,03,39,280,41,04,20,310,35,16,34,206,42,26,64,206,45*77
###2023-12-09 12:30:02.941177$GPGSV,2,2,08,28,60,053,44,29,25,076,43,31,73,353,43,32,32,133,48*78
###2023-12-09 12:30:02.943687$GLGSV,1,1,04,71,60,168,48,72,63,314,45,73,50,032,42,75,20,239,38*60
###2023-12-09 12:30:02.945609$GAGSV,1,1,02,21,75,179,38,27,43,050,44,,,,,,,,*68
###2023-12-09 12:30:02.948146$GBGSV,1,1,04,14,57,199,44,25,31,251,39,26,37,056,46,33,64,260,37*63
###2023-12-09 12:30:02.949490$GNVTG,,T,,M,0.00,N,0.00,K,A*3D
###2023-12-09 12:30:02.951344$GNGST,173002.10,31.000,,,,0.100,0.098,0.260*57
###2023-12-09 12:30:02.952823$GNZDA,173002.10,09,12,2023,00,00*77
###2023-12-09 12:30:02.953626$GNEBP,,,,,,M*13
###2023-12-09 12:30:03.125390$GNGGA,173002.30,4138.0384582,N,07032.4369781,W,1,18,0.7,12.592,M,-29.746,M,0.0,*54
###2023-12-09 12:30:03.325257$GNGGA,173002.50,4138.0384548,N,07032.4369809,W,1,18,0.7,12.592,M,-29.746,M,0.0,*5B
###2023-12-09 12:30:03.524995$GNGGA,173002.70,4138.0384514,N,07032.4369825,W,1,18,0.7,12.595,M,-29.746,M,0.0,*59
###2023-12-09 12:30:03.723847$GNGGA,173002.90,4138.0384493,N,07032.4369869,W,1,18,0.7,12.596,M,-29.746,M,0.0,*52
###2023-12-09 12:30:03.925745$GNRMC,173003.10,A,4138.0384460,N,07032.4369885,W,0.04,,091223,,,A*4C
###2023-12-09 12:30:03.929292$GNGGA,173003.10,4138.0384460,N,07032.4369885,W,1,18,0.7,12.595,M,-29.746,M,0.0,*56
###2023-12-09 12:30:03.931617$GPGSA,A,3,03,04,16,26,28,29,31,32,,,,,1.4,0.7,1.2*35
###2023-12-09 12:30:03.933589$GLGSA,A,3,71,72,73,75,,,,,,,,,1.4,0.7,1.2*2A
###2023-12-09 12:30:03.935623$GAGSA,A,3,21,27,,,,,,,,,,,1.4,0.7,1.2*24
###2023-12-09 12:30:03.937592$GBGSA,A,3,14,25,26,33,,,,,,,,,1.4,0.7,1.2*27
###2023-12-09 12:30:03.940468$GPGSV,2,1,08,03,39,280,41,04,20,310,36,16,34,206,42,26,64,206,45*74
###2023-12-09 12:30:03.943379$GPGSV,2,2,08,28,60,053,45,29,25,076,43,31,73,353,43,32,32,133,48*79
###2023-12-09 12:30:03.946240$GLGSV,1,1,04,71,60,168,48,72,63,314,45,73,50,032,42,75,20,239,38*60
###2023-12-09 12:30:03.948465$GAGSV,1,1,02,21,75,179,38,27,43,050,44,,,,,,,,*68
###2023-12-09 12:30:03.951359$GBGSV,1,1,04,14,57,199,44,25,31,251,39,26,37,056,45,33,64,260,37*60
###2023-12-09 12:30:03.952785$GNVTG,,T,,M,0.04,N,0.07,K,A*3E
###2023-12-09 12:30:03.954844$GNGST,173003.10,31.000,,,,0.100,0.098,0.260*56
###2023-12-09 12:30:03.956441$GNZDA,173003.10,09,12,2023,00,00*76
###2023-12-09 12:30:03.957263$GNEBP,,,,,,M*13
###2023-12-09 12:30:04.125455$GNGGA,173003.30,4138.0384430,N,07032.4369881,W,1,18,0.7,12.602,M,-29.746,M,0.0,*58
###2023-12-09 12:30:04.324777$GNGGA,173003.50,4138.0384411,N,07032.4369892,W,1,18,0.7,12.616,M,-29.746,M,0.0,*5A
###2023-12-09 12:30:04.524992$GNGGA,173003.70,4138.0384391,N,07032.4369901,W,1,18,0.7,12.627,M,-29.746,M,0.0,*5E
###2023-12-09 12:30:04.723764$GNGGA,173003.90,4138.0384370,N,07032.4369896,W,1,18,0.7,12.638,M,-29.746,M,0.0,*5E
###2023-12-09 12:30:04.927937$GNRMC,173004.10,A,4138.0384355,N,07032.4369893,W,0.06,,091223,,,A*4F
###2023-12-09 12:30:04.931036$GNGGA,173004.10,4138.0384355,N,07032.4369893,W,1,18,0.7,12.652,M,-29.746,M,0.0,*5F
###2023-12-09 12:30:04.933108$GPGSA,A,3,03,04,16,26,28,29,31,32,,,,,1.4,0.7,1.2*35
###2023-12-09 12:30:04.934925$GLGSA,A,3,71,72,73,75,,,,,,,,,1.4,0.7,1.2*2A
###2023-12-09 12:30:04.936558$GAGSA,A,3,21,27,,,,,,,,,,,1.4,0.7,1.2*24
###2023-12-09 12:30:04.938308$GBGSA,A,3,14,25,26,33,,,,,,,,,1.4,0.7,1.2*27
###2023-12-09 12:30:04.940810$GPGSV,2,1,08,03,39,280,41,04,20,310,36,16,34,206,42,26,64,206,46*77
###2023-12-09 12:30:04.943623$GPGSV,2,2,08,28,60,053,45,29,25,076,44,31,73,353,44,32,32,133,49*78
###2023-12-09 12:30:04.946140$GLGSV,1,1,04,71,60,168,47,72,63,314,44,73,50,032,42,75,20,239,37*61
###2023-12-09 12:30:04.947989$GAGSV,1,1,02,21,75,179,38,27,43,050,44,,,,,,,,*68
###2023-12-09 12:30:04.950358$GBGSV,1,1,04,14,57,199,44,25,31,251,39,26,37,056,45,33,64,260,37*60
###2023-12-09 12:30:04.951545$GNVTG,,T,,M,0.06,N,0.11,K,A*3B
###2023-12-09 12:30:04.953221$GNGST,173004.10,31.000,,,,0.100,0.097,0.260*5E
###2023-12-09 12:30:04.954529$GNZDA,173004.10,09,12,2023,00,00*71
###2023-12-09 12:30:04.955213$GNEBP,,,,,,M*13
