###2023-12-09 12:23:30.943980$GNEBP,,,,,,M*13
###2023-12-09 12:23:31.113159$GNGGA,172330.30,4138.0386070,N,07032.4359213,W,1,19,0.8,23.068,M,-29.746,M,0.0,*5C
###2023-12-09 12:23:31.313142$GNGGA,172330.50,4138.0386072,N,07032.4359186,W,1,19,0.8,23.079,M,-29.746,M,0.0,*57
###2023-12-09 12:23:31.513289$GNGGA,172330.70,4138.0386082,N,07032.4359165,W,1,19,0.8,23.089,M,-29.746,M,0.0,*58
###2023-12-09 12:23:31.712235$GNGGA,172330.90,4138.0386082,N,07032.4359134,W,1,19,0.8,23.102,M,-29.746,M,0.0,*50
###2023-12-09 12:23:31.913431$GNRMC,172331.10,A,4138.0386097,N,07032.4359137,W,0.02,,091223,,,A*44
###2023-12-09 12:23:31.916563$GNGGA,172331.10,4138.0386097,N,07032.4359137,W,1,18,0.8,23.111,M,-29.746,M,0.0,*5D
###2023-12-09 12:23:31.918463$GPGSA,A,3,03,16,25,26,28,29,31,32,,,,,1.4,0.8,1.1*3A
###2023-12-09 12:23:31.920095$GLGSA,A,3,71,72,73,75,,,,,,,,,1.4,0.8,1.1*26
###2023-12-09 12:23:31.921580$GAGSA,A,3,21,27,,,,,,,,,,,1.4,0.8,1.1*28
###2023-12-09 12:23:31.923238$GBGSA,A,3,14,25,26,33,,,,,,,,,1.4,0.8,1.1*2B
###2023-12-09 12:23:31.925601$GPGSV,2,1,08,03,39,283,43,16,31,206,42,25,16,045,42,26,61,205,45*70
###2023-12-09 12:23:31.927976$GPGSV,2,2,08,28,62,049,40,29,24,079,45,31,73,343,37,32,35,131,47*75
###2023-12-09 12:23:31.930348$GLGSV,1,1,04,71,63,167,46,72,61,317,38,73,53,030,47,75,18,236,43*65
###2023-12-09 12:23:31.932145$GAGSV,1,1,02,21,73,180,47,27,45,051,45,,,,,,,,*66
###2023-12-09 12:23:31.934517$GBGSV,1,1,04,14,60,201,44,25,29,249,40,26,39,055,46,33,64,266,40*60
###2023-12-09 12:23:31.935688$GNVTG,,T,,M,0.02,N,0.04,K,A*3B
###2023-12-09 12:23:31.937362$GNGST,172331.10,31.000,,,,0.100,0.097,0.230*5F
###2023-12-09 12:23:31.938694$GNZDA,172331.10,09,12,2023,00,00*75
###2023-12-09 12:23:31.939356$GNEBP,,,,,,M*13
###2023-12-09 12:23:32.113037$GNGGA,172331.30,4138.0386103,N,07032.4359128,W,1,18,0.8,23.123,M,-29.746,M,0.0,*5C
###2023-12-09 12:23:32.313169$GNGGA,172331.50,4138.0386102,N,07032.4359123,W,1,18,0.8,23.133,M,-29.746,M,0.0,*51
###2023-12-09 12:23:32.512997$GNGGA,172331.70,4138.0386108,N,07032.4359117,W,1,18,0.8,23.142,M,-29.746,M,0.0,*58
###2023-12-09 12:23:32.711190$GNGGA,172331.90,4138.0386109,N,07032.4359111,W,1,18,0.8,23.155,M,-29.746,M,0.0,*57
###2023-12-09 12:23:32.918830$GNRMC,172332.10,A,4138.0386105,N,07032.4359114,W,0.02,,091223,,,A*4C
###2023-12-09 12:23:32.922407$GNGGA,172332.10,4138.0386105,N,07032.4359114,W,1,18,0.8,23.160,M,-29.746,M,0.0,*53
###2023-12-09 12:23:32.924735$GPGSA,A,3,03,16,25,26,28,29,31,32,,,,,1.4,0.8,1.1*3A
###2023-12-09 12:23:32.926727$GLGSA,A,3,71,72,73,75,,,,,,,,,1.4,0.8,1.1*26
###2023-12-09 12:23:32.928746$GAGSA,A,3,21,27,,,,,,,,,,,1.4,0.8,1.1*28
###2023-12-09 12:23:32.930935$GBGSA,A,3,14,25,26,33,,,,,,,,,1.4,0.8,1.1*2B
###2023-12-09 12:23:32.933784$GPGSV,2,1,08,03,39,283,43,16,31,206,42,25,16,045,42,26,61,205,44*71
###2023-12-09 12:23:32.936857$GPGSV,2,2,08,28,62,049,40,29,24,079,44,31,73,343,37,32,35,131,47*74
###2023-12-09 12:23:32.939720$GLGSV,1,1,04,71,63,167,47,72,61,317,38,73,53,030,47,75,18,236,43*64
###2023-12-09 12:23:32.942083$GAGSV,1,1,02,21,73,180,47,27,45,051,45,,,,,,,,*66
###2023-12-09 12:23:32.944967$GBGSV,1,1,04,14,60,201,44,25,29,249,40,26,39,055,46,33,64,266,40*60
###2023-12-09 12:23:32.946388$GNVTG,,T,,M,0.02,N,0.04,K,A*3B
###2023-12-09 12:23:32.948759$GNGST,172332.10,31.000,,,,0.100,0.097,0.220*5D
###2023-12-09 12:23:32.950404$GNZDA,172332.10,09,12,2023,00,00*76
###2023-12-09 12:23:32.951256$GNEBP,,,,,,M*13
###2023-12-09 12:23:33.114792$GNGGA,172332.30,4138.0386106,N,07032.4359115,W,1,18,0.8,23.167,M,-29.746,M,0.0,*54
###2023-12-09 12:23:33.313746$GNGGA,172332.50,4138.0386109,N,07032.4359115,W,1,18,0.8,23.176,M,-29.746,M,0.0,*5D
###2023-12-09 12:23:33.522086$GNGGA,172332.70,4138.0386088,N,07032.4359116,W,1,19,0.8,23.165,M,-29.746,M,0.0,*57
###2023-12-09 12:23:33.712342$GNGGA,172332.90,4138.0386069,N,07032.4359126,W,1,18,0.8,23.160,M,-29.746,M,0.0,*51
###2023-12-09 12:23:33.913536$GNRMC,172333.10,A,4138.0386056,N,07032.4359147,W,0.02,,091223,,,A*4C
###2023-12-09 12:23:33.916608$GNGGA,172333.10,4138.0386056,N,07032.4359147,W,1,18,0.8,23.151,M,-29.746,M,0.0,*51
###2023-12-09 12:23:33.918494$GPGSA,A,3,03,16,25,26,28,29,31,32,,,,,1.4,0.8,1.1*3A
###2023-12-09 12:23:33.920115$GLGSA,A,3,71,72,73,75,,,,,,,,,1.4,0.8,1.1*26
###2023-12-09 12:23:33.921590$GAGSA,A,3,21,27,,,,,,,,,,,1.4,0.8,1.1*28
###2023-12-09 12:23:33.923204$GBGSA,A,3,14,25,26,33,,,,,,,,,1.4,0.8,1.1*2B
###2023-12-09 12:23:33.925545$GPGSV,2,1,08,03,39,283,43,16,31,206,42,25,16,045,43,26,61,205,44*70
###2023-12-09 12:23:33.927903$GPGSV,2,2,08,28,62,049,39,29,24,079,44,31,73,343,37,32,35,131,47*7A
###2023-12-09 12:23:33.930259$GLGSV,1,1,04,71,63,167,46,72,61,317,38,73,53,030,47,75,18,236,42*64
###2023-12-09 12:23:33.932030$GAGSV,1,1,02,21,73,180,46,27,45,051,45,,,,,,,,*67
###2023-12-09 12:23:33.934379$GBGSV,1,1,04,14,60,201,44,25,29,249,40,26,39,055,46,33,64,266,40*60
###2023-12-09 12:23:33.935551$GNVTG,,T,,M,0.02,N,0.04,K,A*3B
###2023-12-09 12:23:33.937215$GNGST,172333.10,31.000,,,,0.100,0.098,0.230*52
###2023-12-09 12:23:33.938517$GNZDA,172333.10,09,12,2023,00,00*77
###2023-12-09 12:23:33.939198$GNEBP,,,,,,M*13
###2023-12-09 12:23:34.113927$GNGGA,172333.30,4138.0386034,N,07032.4359164,W,1,19,0.8,23.141,M,-29.746,M,0.0,*56
###2023-12-09 12:23:34.313097$GNGGA,172333.50,4138.0386050,N,07032.4359166,W,1,19,0.8,23.145,M,-29.746,M,0.0,*54
###2023-12-09 12:23:34.512021$GNGGA,172333.70,4138.0386040,N,07032.4359186,W,1,19,0.8,23.137,M,-29.746,M,0.0,*5C
###2023-12-09 12:23:34.715699$GNGGA,172333.90,4138.0386029,N,07032.4359202,W,1,19,0.8,23.127,M,-29.746,M,0.0,*53
###2023-12-09 12:23:34.918826$GNRMC,172334.10,A,4138.0386035,N,07032.4359204,W,0.02,,091223,,,A*4A
###2023-12-09 12:23:34.921710$GNGGA,172334.10,4138.0386035,N,07032.4359204,W,1,19,0.8,23.129,M,-29.746,M,0.0,*59
###2023-12-09 12:23:34.923609$GPGSA,A,3,03,16,25,26,28,29,31,32,,,,,1.4,0.8,1.1*3A
###2023-12-09 12:23:34.925285$GLGSA,A,3,71,72,73,74,75,,,,,,,,1.4,0.8,1.1*25
###2023-12-09 12:23:34.926771$GAGSA,A,3,21,27,,,,,,,,,,,1.4,0.8,1.1*28
###2023-12-09 12:23:34.928367$GBGSA,A,3,14,25,26,33,,,,,,,,,1.4,0.8,1.1*2B
###2023-12-09 12:23:34.930713$GPGSV,2,1,08,03,39,283,43,16,31,206,41,25,16,045,43,26,61,205,44*73
###2023-12-09 12:23:34.933051$GPGSV,2,2,08,28,62,049,40,29,24,079,44,31,73,343,37,32,35,131,47*74
###2023-12-09 12:23:34.935403$GLGSV,2,1,05,71,63,167,46,72,61,317,37,73,53,030,47,74,69,273,35*6F
###2023-12-09 12:23:34.936871$GLGSV,2,2,05,75,18,236,43,,,,,,,,,,,,*5B
###2023-12-09 12:23:34.938636$GAGSV,1,1,02,21,73,180,46,27,45,051,45,,,,,,,,*67
###2023-12-09 12:23:34.940977$GBGSV,1,1,04,14,60,201,44,25,29,249,40,26,39,055,45,33,64,266,39*6D
###2023-12-09 12:23:34.942122$GNVTG,,T,,M,0.02,N,0.04,K,A*3B
###2023-12-09 12:23:34.943797$GNGST,172334.10,30.000,,,,0.100,0.098,0.230*54
###2023-12-09 12:23:34.945099$GNZDA,172334.10,09,12,2023,00,00*70
###2023-12-09 12:23:34.945752$GNEBP,,,,,,M*13
###2023-12-09 12:23:35.114921$GNGGA,172334.30,4138.0386043,N,07032.4359206,W,1,19,0.8,23.130,M,-29.746,M,0.0,*50
###2023-12-09 12:23:35.312119$GNGGA,172334.50,4138.0386021,N,07032.4359200,W,1,19,0.8,23.127,M,-29.746,M,0.0,*52
###2023-12-09 12:23:35.515366$GNGGA,172334.70,4138.0386005,N,07032.4359212,W,1,19,0.8,23.116,M,-29.746,M,0.0,*57
###2023-12-09 12:23:35.712237$GNGGA,172334.90,4138.0385992,N,07032.4359222,W,1,19,0.8,23.107,M,-29.746,M,0.0,*5E
###2023-12-09 12:23:35.913605$GNRMC,172335.10,A,4138.0385976,N,07032.4359237,W,0.02,,091223,,,A*46
###2023-12-09 12:23:35.916710$GNGGA,172335.10,4138.0385976,N,07032.4359237,W,1,19,0.8,23.101,M,-29.746,M,0.0,*5F
###2023-12-09 12:23:35.918767$GPGSA,A,3,03,16,25,26,28,29,31,32,,,,,1.4,0.8,1.1*3A
###2023-12-09 12:23:35.920591$GLGSA,A,3,71,72,73,74,75,,,,,,,,1.4,0.8,1.1*25
###2023-12-09 12:23:35.922240$GAGSA,A,3,21,27,,,,,,,,,,,1.4,0.8,1.1*28
###2023-12-09 12:23:35.924054$GBGSA,A,3,14,25,26,33,,,,,,,,,1.4,0.8,1.1*2B
###2023-12-09 12:23:35.926555$GPGSV,2,1,08,03,39,283,42,16,31,206,42,25,16,045,42,26,61,205,44*70
###2023-12-09 12:23:35.929067$GPGSV,2,2,08,28,62,049,39,29,24,079,44,31,73,343,37,32,35,131,47*7A
###2023-12-09 12:23:35.931604$GLGSV,2,1,05,71,63,167,46,72,61,317,37,73,53,030,47,74,69,273,35*6F
###2023-12-09 12:23:35.933514$GLGSV,2,2,05,75,18,236,42,,,,,,,,,,,,*5A
###2023-12-09 12:23:35.935466$GAGSV,1,1,02,21,73,180,47,27,45,051,46,,,,,,,,*65
###2023-12-09 12:23:35.937974$GBGSV,1,1,04,14,60,201,44,25,29,249,40,26,39,055,46,33,64,266,39*6E
###2023-12-09 12:23:35.939305$GNVTG,,T,,M,0.02,N,0.04,K,A*3B
###2023-12-09 12:23:35.941128$GNGST,172335.10,30.000,,,,0.100,0.098,0.230*55
###2023-12-09 12:23:35.942635$GNZDA,172335.10,09,12,2023,00,00*71
###2023-12-09 12:23:35.943453$GNEBP,,,,,,M*13
###2023-12-09 12:23:36.113140$GNGGA,172335.30,4138.0385955,N,07032.4359249,W,1,19,0.8,23.094,M,-29.746,M,0.0,*58
###2023-12-09 12:23:36.313183$GNGGA,172335.50,4138.0385944,N,07032.4359253,W,1,19,0.8,23.085,M,-29.746,M,0.0,*55
