###2023-12-09 13:12:21.775022$GNGGA,181220.90,4138.0483827,N,07032.3156569,W,1,24,0.7,12.724,M,-29.744,M,0.0,*5C
###2023-12-09 13:12:21.978260$GNRMC,181221.10,A,4138.0483419,N,07032.3155187,W,1.69,117.63,091223,,,A*5A
###2023-12-09 13:12:21.981725$GNGGA,181221.10,4138.0483419,N,07032.3155187,W,1,24,0.7,12.704,M,-29.744,M,0.0,*51
###2023-12-09 13:12:21.983898$GPGSA,A,3,03,04,16,26,28,29,31,,,,,,1.2,0.7,1.0*30
###2023-12-09 13:12:21.985973$GLGSA,A,3,65,71,72,73,74,75,,,,,,,1.2,0.7,1.0*2E
###2023-12-09 13:12:21.987895$GAGSA,A,3,04,19,21,27,,,,,,,,,1.2,0.7,1.0*2C
###2023-12-09 13:12:21.989951$GBGSA,A,3,14,24,25,26,33,35,,,,,,,1.2,0.7,1.0*23
###2023-12-09 13:12:21.992768$GPGSV,2,1,07,03,33,256,41,04,37,311,44,16,55,215,44,26,85,210,48*7E
###2023-12-09 13:12:21.995245$GPGSV,2,2,07,28,46,075,45,29,24,056,44,31,66,048,47,,,,*46
###2023-12-09 13:12:21.998080$GLGSV,2,1,06,65,28,326,43,71,35,174,42,72,72,250,46,73,31,045,45*6E
###2023-12-09 13:12:22.000201$GLGSV,2,2,06,74,67,351,43,75,36,258,43,,,,,,,,*6E
###2023-12-09 13:12:22.003016$GAGSV,1,1,04,04,33,312,42,19,81,194,40,21,84,071,46,27,29,048,44*6E
###2023-12-09 13:12:22.005825$GBGSV,2,1,06,14,38,192,42,24,70,033,49,25,44,266,44,26,23,065,45*62
###2023-12-09 13:12:22.007945$GBGSV,2,2,06,33,54,227,47,35,15,065,46,,,,,,,,*6B
###2023-12-09 13:12:22.009537$GNVTG,117.63,T,,M,1.69,N,3.13,K,A*2E
###2023-12-09 13:12:22.011565$GNGST,181221.10,18.000,,,,0.098,0.072,0.170*54
###2023-12-09 13:12:22.013116$GNZDA,181221.10,09,12,2023,00,00*79
###2023-12-09 13:12:22.013881$GNEBP,,,,,,M*13
###2023-12-09 13:12:22.175995$GNGGA,181221.30,4138.0482920,N,07032.3153973,W,1,24,0.7,12.724,M,-29.744,M,0.0,*52
###2023-12-09 13:12:22.374327$GNGGA,181221.50,4138.0482274,N,07032.3152649,W,1,24,0.7,12.736,M,-29.744,M,0.0,*5A
###2023-12-09 13:12:22.574975$GNGGA,181221.70,4138.0481719,N,07032.3151247,W,1,24,0.7,12.712,M,-29.744,M,0.0,*5A
###2023-12-09 13:12:22.773814$GNGGA,181221.90,4138.0481167,N,07032.3149964,W,1,24,0.7,12.708,M,-29.744,M,0.0,*53
###2023-12-09 13:12:22.978663$GNRMC,181222.10,A,4138.0480257,N,07032.3148902,W,2.29,145.53,091223,,,A*5C
###2023-12-09 13:12:22.981531$GNGGA,181222.10,4138.0480257,N,07032.3148902,W,1,24,0.7,12.730,M,-29.744,M,0.0,*53
###2023-12-09 13:12:22.983343$GPGSA,A,3,03,04,16,26,28,29,31,,,,,,1.2,0.7,1.0*30
###2023-12-09 13:12:22.985060$GLGSA,A,3,65,71,72,73,74,75,,,,,,,1.2,0.7,1.0*2E
###2023-12-09 13:12:22.986650$GAGSA,A,3,04,19,21,27,,,,,,,,,1.2,0.7,1.0*2C
###2023-12-09 13:12:22.988367$GBGSA,A,3,14,24,25,26,33,35,,,,,,,1.2,0.7,1.0*23
###2023-12-09 13:12:22.990702$GPGSV,2,1,07,03,33,256,41,04,37,311,44,16,55,215,45,26,85,210,47*70
###2023-12-09 13:12:22.992738$GPGSV,2,2,07,28,46,075,44,29,24,056,44,31,66,048,46,,,,*46
###2023-12-09 13:12:22.995077$GLGSV,2,1,06,65,28,326,42,71,35,174,42,72,72,250,45,73,31,045,44*6D
###2023-12-09 13:12:22.996827$GLGSV,2,2,06,74,67,351,42,75,36,258,46,,,,,,,,*6A
###2023-12-09 13:12:22.999168$GAGSV,1,1,04,04,33,312,42,19,81,194,40,21,84,071,46,27,29,048,43*69
###2023-12-09 13:12:23.001504$GBGSV,2,1,06,14,38,192,41,24,70,033,48,25,44,266,46,26,23,065,45*62
###2023-12-09 13:12:23.003264$GBGSV,2,2,06,33,54,227,46,35,15,065,44,,,,,,,,*68
###2023-12-09 13:12:23.004592$GNVTG,145.53,T,,M,2.29,N,4.25,K,A*2F
###2023-12-09 13:12:23.006246$GNGST,181222.10,18.000,,,,0.099,0.072,0.170*56
###2023-12-09 13:12:23.007554$GNZDA,181222.10,09,12,2023,00,00*7A
###2023-12-09 13:12:23.008194$GNEBP,,,,,,M*13
###2023-12-09 13:12:23.172228$GNGGA,181222.30,4138.0479225,N,07032.3147955,W,1,24,0.7,12.729,M,-29.744,M,0.0,*57
###2023-12-09 13:12:23.372549$GNGGA,181222.50,4138.0478277,N,07032.3146975,W,1,24,0.7,12.734,M,-29.744,M,0.0,*58
###2023-12-09 13:12:23.574364$GNGGA,181222.70,4138.0477257,N,07032.3145769,W,1,24,0.7,12.735,M,-29.744,M,0.0,*56
###2023-12-09 13:12:23.773188$GNGGA,181222.90,4138.0476174,N,07032.3144707,W,1,24,0.7,12.723,M,-29.744,M,0.0,*55
###2023-12-09 13:12:23.976413$GNRMC,181223.10,A,4138.0474961,N,07032.3143788,W,2.62,152.97,091223,,,A*5E
###2023-12-09 13:12:23.979277$GNGGA,181223.10,4138.0474961,N,07032.3143788,W,1,24,0.7,12.745,M,-29.744,M,0.0,*52
###2023-12-09 13:12:23.981070$GPGSA,A,3,03,04,16,26,28,29,31,,,,,,1.2,0.7,1.0*30
###2023-12-09 13:12:23.982804$GLGSA,A,3,65,71,72,73,74,75,,,,,,,1.2,0.7,1.0*2E
###2023-12-09 13:12:23.984392$GAGSA,A,3,04,19,21,27,,,,,,,,,1.2,0.7,1.0*2C
###2023-12-09 13:12:23.986106$GBGSA,A,3,14,24,25,26,33,35,,,,,,,1.2,0.7,1.0*23
###2023-12-09 13:12:23.988443$GPGSV,2,1,07,03,33,256,43,04,37,311,44,16,55,215,45,26,85,210,48*7D
###2023-12-09 13:12:23.990480$GPGSV,2,2,07,28,46,075,44,29,24,056,44,31,66,048,46,,,,*46
###2023-12-09 13:12:23.992818$GLGSV,2,1,06,65,28,326,42,71,35,174,43,72,72,250,46,73,31,045,45*6E
###2023-12-09 13:12:23.994573$GLGSV,2,2,06,74,67,351,43,75,36,258,47,,,,,,,,*6A
###2023-12-09 13:12:23.996898$GAGSV,1,1,04,04,33,312,42,19,81,194,40,21,84,071,46,27,29,048,43*69
###2023-12-09 13:12:23.999232$GBGSV,2,1,06,14,38,192,43,24,70,033,48,25,44,266,46,26,23,065,45*60
###2023-12-09 13:12:24.000976$GBGSV,2,2,06,33,54,227,47,35,15,065,44,,,,,,,,*69
###2023-12-09 13:12:24.002295$GNVTG,152.97,T,,M,2.62,N,4.86,K,A*27
###2023-12-09 13:12:24.003947$GNGST,181223.10,18.000,,,,0.099,0.072,0.170*57
###2023-12-09 13:12:24.005238$GNZDA,181223.10,09,12,2023,00,00*7B
###2023-12-09 13:12:24.005875$GNEBP,,,,,,M*13
###2023-12-09 13:12:24.172480$GNGGA,181223.30,4138.0473648,N,07032.3142851,W,1,24,0.7,12.740,M,-29.744,M,0.0,*5C
###2023-12-09 13:12:24.372492$GNGGA,181223.50,4138.0472473,N,07032.3141770,W,1,24,0.7,12.737,M,-29.744,M,0.0,*5E
###2023-12-09 13:12:24.574005$GNGGA,181223.70,4138.0471278,N,07032.3140532,W,1,24,0.7,12.736,M,-29.744,M,0.0,*56
###2023-12-09 13:12:24.773257$GNGGA,181223.90,4138.0470019,N,07032.3139428,W,1,24,0.7,12.734,M,-29.744,M,0.0,*5A
###2023-12-09 13:12:24.975411$GNRMC,181224.10,A,4138.0468677,N,07032.3138323,W,2.90,146.66,091223,,,A*53
###2023-12-09 13:12:24.978264$GNGGA,181224.10,4138.0468677,N,07032.3138323,W,1,24,0.7,12.740,M,-29.744,M,0.0,*5C
###2023-12-09 13:12:24.980078$GPGSA,A,3,03,04,16,26,28,29,31,,,,,,1.2,0.7,1.0*30
###2023-12-09 13:12:24.981793$GLGSA,A,3,65,71,72,73,74,75,,,,,,,1.2,0.7,1.0*2E
###2023-12-09 13:12:24.983436$GAGSA,A,3,04,19,21,27,,,,,,,,,1.2,0.7,1.0*2C
###2023-12-09 13:12:24.985164$GBGSA,A,3,14,24,25,26,33,35,,,,,,,1.2,0.7,1.0*23
###2023-12-09 13:12:24.987513$GPGSV,2,1,07,03,33,256,43,04,37,311,44,16,55,215,46,26,85,210,48*7E
###2023-12-09 13:12:24.989545$GPGSV,2,2,07,28,46,075,45,29,24,056,43,31,66,048,47,,,,*41
###2023-12-09 13:12:24.991886$GLGSV,2,1,06,65,28,326,42,71,35,174,43,72,72,250,46,73,31,045,45*6E
###2023-12-09 13:12:24.993639$GLGSV,2,2,06,74,67,351,43,75,36,258,47,,,,,,,,*6A
###2023-12-09 13:12:24.995982$GAGSV,1,1,04,04,33,312,43,19,81,194,40,21,84,070,46,27,29,048,43*69
###2023-12-09 13:12:24.998316$GBGSV,2,1,06,14,38,192,43,24,70,033,49,25,44,266,47,26,23,065,44*61
###2023-12-09 13:12:25.000072$GBGSV,2,2,06,33,54,227,48,35,15,065,45,,,,,,,,*67
###2023-12-09 13:12:25.001397$GNVTG,146.66,T,,M,2.90,N,5.36,K,A*2B
###2023-12-09 13:12:25.003050$GNGST,181224.10,18.000,,,,0.100,0.072,0.170*51
###2023-12-09 13:12:25.004344$GNZDA,181224.10,09,12,2023,00,00*7C
###2023-12-09 13:12:25.004985$GNEBP,,,,,,M*13
###2023-12-09 13:12:25.172457$GNGGA,181224.30,4138.0467393,N,07032.3137067,W,1,24,0.7,12.735,M,-29.744,M,0.0,*50
###2023-12-09 13:12:25.373389$GNGGA,181224.50,4138.0466296,N,07032.3135676,W,1,24,0.7,12.733,M,-29.744,M,0.0,*51
###2023-12-09 13:12:25.574321$GNGGA,181224.70,4138.0465137,N,07032.3134228,W,1,24,0.7,12.745,M,-29.744,M,0.0,*57
###2023-12-09 13:12:25.773159$GNGGA,181224.90,4138.0463869,N,07032.3132828,W,1,24,0.7,12.738,M,-29.744,M,0.0,*5B
###2023-12-09 13:12:25.976944$GNRMC,181225.10,A,4138.0462820,N,07032.3131303,W,2.90,127.92,091223,,,A*53
###2023-12-09 13:12:25.979814$GNGGA,181225.10,4138.0462820,N,07032.3131303,W,1,24,0.7,12.738,M,-29.744,M,0.0,*5F
###2023-12-09 13:12:25.981604$GPGSA,A,3,03,04,16,26,28,29,31,,,,,,1.2,0.7,1.0*30
###2023-12-09 13:12:25.983331$GLGSA,A,3,65,71,72,73,74,75,,,,,,,1.2,0.7,1.0*2E
###2023-12-09 13:12:25.984915$GAGSA,A,3,04,19,21,27,,,,,,,,,1.2,0.7,1.0*2C
###2023-12-09 13:12:25.986632$GBGSA,A,3,14,24,25,26,33,35,,,,,,,1.2,0.7,1.0*23
###2023-12-09 13:12:25.989212$GPGSV,2,1,07,03,33,256,43,04,37,311,44,16,55,215,47,26,85,210,48*7F
###2023-12-09 13:12:25.991284$GPGSV,2,2,07,28,46,075,45,29,24,056,43,31,66,048,47,,,,*41
###2023-12-09 13:12:25.993626$GLGSV,2,1,06,65,28,326,43,71,35,174,43,72,72,250,46,73,31,045,45*6F
###2023-12-09 13:12:25.995391$GLGSV,2,2,06,74,67,351,43,75,36,258,46,,,,,,,,*6B
###2023-12-09 13:12:25.997760$GAGSV,1,1,04,04,33,312,44,19,81,194,40,21,84,070,46,27,29,048,43*6E
###2023-12-09 13:12:26.000121$GBGSV,2,1,06,14,38,192,44,24,70,033,48,25,44,266,46,26,23,065,45*67
###2023-12-09 13:12:26.001875$GBGSV,2,2,06,33,54,227,48,35,15,065,45,,,,,,,,*67
###2023-12-09 13:12:26.003218$GNVTG,127.92,T,,M,2.90,N,5.36,K,A*27
###2023-12-09 13:12:26.004872$GNGST,181225.10,18.000,,,,0.100,0.071,0.170*53
