###2023-12-09 13:29:25.025980$GNEBP,,,,,,M*13
###2023-12-09 13:29:25.192042$GNGGA,182924.30,4138.0473855,N,07032.4169744,W,1,24,0.6,12.768,M,-29.745,M,0.0,*5E
###2023-12-09 13:29:25.391259$GNGGA,182924.50,4138.0474074,N,07032.4170407,W,1,24,0.6,12.764,M,-29.745,M,0.0,*54
###2023-12-09 13:29:25.590468$GNGGA,182924.70,4138.0474250,N,07032.4170848,W,1,24,0.6,12.772,M,-29.745,M,0.0,*52
###2023-12-09 13:29:25.792612$GNGGA,182924.90,4138.0474266,N,07032.4170794,W,1,24,0.6,12.814,M,-29.745,M,0.0,*58
###2023-12-09 13:29:25.996511$GNRMC,182925.10,A,4138.0474229,N,07032.4170637,W,0.14,296.55,091223,,,A*53
###2023-12-09 13:29:25.999386$GNGGA,182925.10,4138.0474229,N,07032.4170637,W,1,24,0.6,12.805,M,-29.745,M,0.0,*52
###2023-12-09 13:29:26.001175$GPGSA,A,3,03,04,16,26,28,29,31,,,,,,1.1,0.6,0.9*3A
###2023-12-09 13:29:26.002901$GLGSA,A,3,65,71,72,73,74,75,,,,,,,1.1,0.6,0.9*24
###2023-12-09 13:29:26.004484$GAGSA,A,3,04,19,21,27,,,,,,,,,1.1,0.6,0.9*26
###2023-12-09 13:29:26.006188$GBGSA,A,3,14,24,25,26,33,35,,,,,,,1.1,0.6,0.9*29
###2023-12-09 13:29:26.008530$GPGSV,2,1,07,03,28,248,39,04,44,309,44,16,64,220,46,26,87,041,48*7B
###2023-12-09 13:29:26.010556$GPGSV,2,2,07,28,40,082,44,29,22,049,41,31,61,061,47,,,,*48
###2023-12-09 13:29:26.012887$GLGSV,2,1,06,65,36,321,43,71,25,175,44,72,65,225,47,73,24,050,41*61
###2023-12-09 13:29:26.014636$GLGSV,2,2,06,74,61,010,41,75,42,268,46,,,,,,,,*69
###2023-12-09 13:29:26.016955$GAGSV,1,1,04,04,38,311,43,19,74,183,41,21,79,049,46,27,24,049,40*6B
###2023-12-09 13:29:26.019280$GBGSV,2,1,06,14,31,190,42,24,64,043,47,25,49,274,46,26,17,069,41*66
###2023-12-09 13:29:26.021019$GBGSV,2,2,06,33,48,219,47,35,16,058,42,,,,,,,,*62
###2023-12-09 13:29:26.022334$GNVTG,296.55,T,,M,0.14,N,0.25,K,A*2C
###2023-12-09 13:29:26.023994$GNGST,182925.10,18.000,,,,0.100,0.070,0.170*5A
###2023-12-09 13:29:26.025281$GNZDA,182925.10,09,12,2023,00,00*75
###2023-12-09 13:29:26.025915$GNEBP,,,,,,M*13
###2023-12-09 13:29:26.193600$GNGGA,182925.30,4138.0474347,N,07032.4170843,W,1,24,0.6,12.774,M,-29.745,M,0.0,*5D
###2023-12-09 13:29:26.392067$GNGGA,182925.50,4138.0474527,N,07032.4171367,W,1,24,0.6,12.754,M,-29.745,M,0.0,*55
###2023-12-09 13:29:26.592927$GNGGA,182925.70,4138.0474657,N,07032.4171784,W,1,24,0.6,12.759,M,-29.745,M,0.0,*57
###2023-12-09 13:29:26.793618$GNGGA,182925.90,4138.0474688,N,07032.4171825,W,1,24,0.6,12.799,M,-29.745,M,0.0,*53
###2023-12-09 13:29:26.994589$GNRMC,182926.10,A,4138.0474739,N,07032.4171835,W,0.23,296.55,091223,,,A*5D
###2023-12-09 13:29:26.997462$GNGGA,182926.10,4138.0474739,N,07032.4171835,W,1,24,0.6,12.816,M,-29.745,M,0.0,*5A
###2023-12-09 13:29:26.999276$GPGSA,A,3,03,04,16,26,28,29,31,,,,,,1.1,0.6,0.9*3A
###2023-12-09 13:29:27.001001$GLGSA,A,3,65,71,72,73,74,75,,,,,,,1.1,0.6,0.9*24
###2023-12-09 13:29:27.002603$GAGSA,A,3,04,19,21,27,,,,,,,,,1.1,0.6,0.9*26
###2023-12-09 13:29:27.004321$GBGSA,A,3,14,24,25,26,33,35,,,,,,,1.1,0.6,0.9*29
###2023-12-09 13:29:27.006672$GPGSV,2,1,07,03,28,248,39,04,44,309,44,16,64,220,47,26,86,041,49*7A
###2023-12-09 13:29:27.008725$GPGSV,2,2,07,28,40,082,43,29,22,049,41,31,61,061,46,,,,*4E
###2023-12-09 13:29:27.011071$GLGSV,2,1,06,65,36,321,43,71,25,175,44,72,65,225,48,73,24,050,41*6E
###2023-12-09 13:29:27.012829$GLGSV,2,2,06,74,61,010,41,75,42,268,46,,,,,,,,*69
###2023-12-09 13:29:27.015209$GAGSV,1,1,04,04,38,311,45,19,74,183,41,21,79,049,46,27,24,049,38*62
###2023-12-09 13:29:27.017555$GBGSV,2,1,06,14,31,190,44,24,64,043,48,25,49,274,47,26,17,069,40*6F
###2023-12-09 13:29:27.019321$GBGSV,2,2,06,33,48,219,46,35,16,058,40,,,,,,,,*61
###2023-12-09 13:29:27.020650$GNVTG,296.55,T,,M,0.23,N,0.43,K,A*28
###2023-12-09 13:29:27.022297$GNGST,182926.10,18.000,,,,0.100,0.070,0.170*59
###2023-12-09 13:29:27.023604$GNZDA,182926.10,09,12,2023,00,00*76
###2023-12-09 13:29:27.024245$GNEBP,,,,,,M*13
###2023-12-09 13:29:27.197104$GNGGA,182926.30,4138.0474826,N,07032.4172011,W,1,24,0.6,12.783,M,-29.745,M,0.0,*57
###2023-12-09 13:29:27.391556$GNGGA,182926.50,4138.0474898,N,07032.4172279,W,1,24,0.6,12.745,M,-29.745,M,0.0,*52
###2023-12-09 13:29:27.592319$GNGGA,182926.70,4138.0475016,N,07032.4172662,W,1,24,0.6,12.743,M,-29.745,M,0.0,*57
###2023-12-09 13:29:27.798837$GNGGA,182926.90,4138.0475137,N,07032.4172967,W,1,24,0.6,12.775,M,-29.745,M,0.0,*54
###2023-12-09 13:29:27.995456$GNRMC,182927.10,A,4138.0475195,N,07032.4173120,W,0.21,296.55,091223,,,A*50
###2023-12-09 13:29:27.998950$GNGGA,182927.10,4138.0475195,N,07032.4173120,W,1,24,0.6,12.816,M,-29.745,M,0.0,*55
###2023-12-09 13:29:28.001129$GPGSA,A,3,03,04,16,26,28,29,31,,,,,,1.1,0.6,0.9*3A
###2023-12-09 13:29:28.003227$GLGSA,A,3,65,71,72,73,74,75,,,,,,,1.1,0.6,0.9*24
###2023-12-09 13:29:28.005183$GAGSA,A,3,04,19,21,27,,,,,,,,,1.1,0.6,0.9*26
###2023-12-09 13:29:28.007273$GBGSA,A,3,14,24,25,26,33,35,,,,,,,1.1,0.6,0.9*29
###2023-12-09 13:29:28.010094$GPGSV,2,1,07,03,28,248,39,04,44,309,45,16,64,220,48,26,86,041,50*7C
###2023-12-09 13:29:28.012579$GPGSV,2,2,07,28,40,082,44,29,22,049,39,31,61,061,45,,,,*45
###2023-12-09 13:29:28.015415$GLGSV,2,1,06,65,36,321,44,71,25,175,44,72,65,225,47,73,24,050,37*67
###2023-12-09 13:29:28.017519$GLGSV,2,2,06,74,61,010,41,75,42,268,48,,,,,,,,*67
###2023-12-09 13:29:28.020352$GAGSV,1,1,04,04,38,311,45,19,74,183,41,21,79,049,46,27,24,049,39*63
###2023-12-09 13:29:28.023171$GBGSV,2,1,06,14,31,190,41,24,64,043,47,25,49,274,48,26,17,069,41*6B
###2023-12-09 13:29:28.025277$GBGSV,2,2,06,33,48,219,47,35,16,058,43,,,,,,,,*63
###2023-12-09 13:29:28.026922$GNVTG,296.55,T,,M,0.21,N,0.40,K,A*29
###2023-12-09 13:29:28.028910$GNGST,182927.10,18.000,,,,0.100,0.070,0.170*58
###2023-12-09 13:29:28.030457$GNZDA,182927.10,09,12,2023,00,00*77
###2023-12-09 13:29:28.031245$GNEBP,,,,,,M*13
###2023-12-09 13:29:28.192534$GNGGA,182927.30,4138.0475223,N,07032.4173155,W,1,24,0.6,12.812,M,-29.745,M,0.0,*5F
###2023-12-09 13:29:28.391949$GNGGA,182927.50,4138.0475248,N,07032.4173122,W,1,24,0.6,12.766,M,-29.745,M,0.0,*58
###2023-12-09 13:29:28.592897$GNGGA,182927.70,4138.0475326,N,07032.4173435,W,1,24,0.6,12.751,M,-29.745,M,0.0,*54
###2023-12-09 13:29:28.790714$GNGGA,182927.90,4138.0475512,N,07032.4174087,W,1,24,0.6,12.772,M,-29.745,M,0.0,*50
###2023-12-09 13:29:28.995407$GNRMC,182928.10,A,4138.0475606,N,07032.4174301,W,0.17,292.96,091223,,,A*5A
###2023-12-09 13:29:28.998912$GNGGA,182928.10,4138.0475606,N,07032.4174301,W,1,24,0.6,12.801,M,-29.745,M,0.0,*57
###2023-12-09 13:29:29.001078$GPGSA,A,3,03,04,16,26,28,29,31,,,,,,1.1,0.6,0.9*3A
###2023-12-09 13:29:29.003165$GLGSA,A,3,65,71,72,73,74,75,,,,,,,1.1,0.6,0.9*24
###2023-12-09 13:29:29.005089$GAGSA,A,3,04,19,21,27,,,,,,,,,1.1,0.6,0.9*26
###2023-12-09 13:29:29.007172$GBGSA,A,3,14,24,25,26,33,35,,,,,,,1.1,0.6,0.9*29
###2023-12-09 13:29:29.009970$GPGSV,2,1,07,03,28,248,39,04,44,309,44,16,64,220,46,26,86,041,47*75
###2023-12-09 13:29:29.012429$GPGSV,2,2,07,28,39,083,40,29,22,049,40,31,61,061,43,,,,*46
###2023-12-09 13:29:29.015246$GLGSV,2,1,06,65,36,321,44,71,25,175,40,72,65,225,47,73,24,050,39*6D
###2023-12-09 13:29:29.017356$GLGSV,2,2,06,74,61,010,40,75,42,268,49,,,,,,,,*67
###2023-12-09 13:29:29.020172$GAGSV,1,1,04,04,38,311,44,19,74,183,41,21,79,049,44,27,24,049,37*6E
###2023-12-09 13:29:29.022985$GBGSV,2,1,06,14,31,190,39,24,64,043,46,25,49,274,48,26,17,069,40*64
###2023-12-09 13:29:29.025089$GBGSV,2,2,06,33,48,219,46,35,16,058,42,,,,,,,,*63
###2023-12-09 13:29:29.026734$GNVTG,292.96,T,,M,0.17,N,0.32,K,A*22
###2023-12-09 13:29:29.028725$GNGST,182928.10,18.000,,,,0.100,0.070,0.170*57
###2023-12-09 13:29:29.030317$GNZDA,182928.10,09,12,2023,00,00*78
###2023-12-09 13:29:29.031109$GNEBP,,,,,,M*13
###2023-12-09 13:29:29.192712$GNGGA,182928.30,4138.0475559,N,07032.4174021,W,1,24,0.6,12.815,M,-29.745,M,0.0,*58
###2023-12-09 13:29:29.391315$GNGGA,182928.50,4138.0475562,N,07032.4173906,W,1,24,0.6,12.786,M,-29.745,M,0.0,*58
###2023-12-09 13:29:29.590421$GNGGA,182928.70,4138.0475701,N,07032.4174393,W,1,24,0.6,12.787,M,-29.745,M,0.0,*5D
###2023-12-09 13:29:29.790834$GNGGA,182928.90,4138.0475905,N,07032.4175032,W,1,24,0.6,12.777,M,-29.745,M,0.0,*5F
###2023-12-09 13:29:29.994913$GNRMC,182929.10,A,4138.0476002,N,07032.4175022,W,0.51,294.42,091223,,,A*54
###2023-12-09 13:29:29.998012$GNGGA,182929.10,4138.0476002,N,07032.4175022,W,1,24,0.6,12.786,M,-29.745,M,0.0,*54
###2023-12-09 13:29:29.999842$GPGSA,A,3,03,04,16,26,28,29,31,,,,,,1.1,0.6,0.9*3A
###2023-12-09 13:29:30.001571$GLGSA,A,3,65,71,72,73,74,75,,,,,,,1.1,0.6,0.9*24
###2023-12-09 13:29:30.003180$GAGSA,A,3,04,19,21,27,,,,,,,,,1.1,0.6,0.9*26
###2023-12-09 13:29:30.004901$GBGSA,A,3,14,24,25,26,33,35,,,,,,,1.1,0.6,0.9*29
###2023-12-09 13:29:30.007255$GPGSV,2,1,07,03,28,248,40,04,44,309,46,16,64,220,46,26,86,041,47*79
###2023-12-09 13:29:30.009320$GPGSV,2,2,07,28,39,083,40,29,21,049,40,31,61,061,45,,,,*43
###2023-12-09 13:29:30.011679$GLGSV,2,1,06,65,36,321,44,71,25,175,40,72,65,225,45,73,24,050,37*61
###2023-12-09 13:29:30.013439$GLGSV,2,2,06,74,61,010,40,75,42,268,50,,,,,,,,*6F
###2023-12-09 13:29:30.015790$GAGSV,1,1,04,04,38,311,43,19,74,183,41,21,79,049,45,27,24,049,36*69
