###2023-12-09 13:04:05.997972$GNZDA,180405.10,09,12,2023,00,00*78
###2023-12-09 13:04:05.998658$GNEBP,,,,,,M*13
###2023-12-09 13:04:06.166533$GNGGA,180405.30,4138.0592454,N,07032.3532424,W,1,24,0.6,13.237,M,-29.744,M,0.0,*56
###2023-12-09 13:04:06.366085$GNGGA,180405.50,4138.0592427,N,07032.3529887,W,1,24,0.6,13.255,M,-29.744,M,0.0,*5F
###2023-12-09 13:04:06.566318$GNGGA,180405.70,4138.0592365,N,07032.3527204,W,1,24,0.6,13.260,M,-29.744,M,0.0,*55
###2023-12-09 13:04:06.766805$GNGGA,180405.90,4138.0592260,N,07032.3524568,W,1,24,0.6,13.230,M,-29.744,M,0.0,*54
###2023-12-09 13:04:06.971871$GNRMC,180406.10,A,4138.0592402,N,07032.3521962,W,3.56,86.02,091223,,,A*67
###2023-12-09 13:04:06.974738$GNGGA,180406.10,4138.0592402,N,07032.3521962,W,1,24,0.6,13.231,M,-29.744,M,0.0,*5F
###2023-12-09 13:04:06.976586$GPGSA,A,3,03,04,16,26,28,29,31,32,,,,,1.1,0.6,0.9*3B
###2023-12-09 13:04:06.978292$GLGSA,A,3,65,71,72,73,74,75,,,,,,,1.1,0.6,0.9*24
###2023-12-09 13:04:06.979876$GAGSA,A,3,04,19,21,27,,,,,,,,,1.1,0.6,0.9*26
###2023-12-09 13:04:06.981515$GBGSA,A,3,14,24,25,26,33,,,,,,,,1.1,0.6,0.9*2F
###2023-12-09 13:04:06.983840$GPGSV,2,1,08,03,34,260,45,04,33,311,43,16,51,213,47,26,81,210,48*71
###2023-12-09 13:04:06.986161$GPGSV,2,2,08,28,48,071,43,29,25,060,40,31,68,040,47,32,18,140,42*78
###2023-12-09 13:04:06.988481$GLGSV,2,1,06,65,25,327,41,71,40,173,45,72,73,265,45,73,35,042,45*65
###2023-12-09 13:04:06.990218$GLGSV,2,2,06,74,69,340,43,75,33,254,47,,,,,,,,*6D
###2023-12-09 13:04:06.992559$GAGSV,1,1,04,04,30,312,41,19,83,207,41,21,86,104,46,27,32,048,43*68
###2023-12-09 13:04:06.994898$GBGSV,2,1,05,14,43,193,46,24,73,026,48,25,41,263,47,26,26,063,41*6A
###2023-12-09 13:04:06.996352$GBGSV,2,2,05,33,57,231,47,,,,,,,,,,,,*5F
###2023-12-09 13:04:06.997636$GNVTG,86.02,T,,M,3.56,N,6.59,K,A*15
###2023-12-09 13:04:06.999294$GNGST,180406.10,18.000,,,,0.080,0.066,0.160*5B
###2023-12-09 13:04:07.000588$GNZDA,180406.10,09,12,2023,00,00*7B
###2023-12-09 13:04:07.001228$GNEBP,,,,,,M*13
###2023-12-09 13:04:07.165465$GNGGA,180406.30,4138.0592593,N,07032.3519368,W,1,24,0.6,13.248,M,-29.744,M,0.0,*51
###2023-12-09 13:04:07.366035$GNGGA,180406.50,4138.0592784,N,07032.3516743,W,1,24,0.6,13.247,M,-29.744,M,0.0,*5E
###2023-12-09 13:04:07.566184$GNGGA,180406.70,4138.0592685,N,07032.3514077,W,1,24,0.6,13.214,M,-29.744,M,0.0,*58
###2023-12-09 13:04:07.766672$GNGGA,180406.90,4138.0593058,N,07032.3511635,W,1,24,0.6,13.229,M,-29.744,M,0.0,*5A
###2023-12-09 13:04:07.969967$GNRMC,180407.10,A,4138.0593728,N,07032.3509192,W,3.48,76.11,091223,,,A*63
###2023-12-09 13:04:07.972856$GNGGA,180407.10,4138.0593728,N,07032.3509192,W,1,24,0.6,13.239,M,-29.744,M,0.0,*51
###2023-12-09 13:04:07.974733$GPGSA,A,3,03,04,16,26,28,29,31,32,,,,,1.1,0.6,0.9*3B
###2023-12-09 13:04:07.976457$GLGSA,A,3,65,71,72,73,74,75,,,,,,,1.1,0.6,0.9*24
###2023-12-09 13:04:07.978043$GAGSA,A,3,04,19,21,27,,,,,,,,,1.1,0.6,0.9*26
###2023-12-09 13:04:07.979704$GBGSA,A,3,14,24,25,26,33,,,,,,,,1.1,0.6,0.9*2F
###2023-12-09 13:04:07.982041$GPGSV,2,1,08,03,34,260,47,04,33,311,45,16,51,213,48,26,81,210,50*73
###2023-12-09 13:04:07.984398$GPGSV,2,2,08,28,48,071,44,29,25,060,42,31,68,040,48,32,18,140,43*73
###2023-12-09 13:04:07.986748$GLGSV,2,1,06,65,25,327,42,71,40,173,45,72,73,265,46,73,35,042,45*65
###2023-12-09 13:04:07.988506$GLGSV,2,2,06,74,69,340,43,75,33,254,47,,,,,,,,*6D
###2023-12-09 13:04:07.990859$GAGSV,1,1,04,04,30,312,41,19,83,207,42,21,86,104,46,27,32,048,43*6B
###2023-12-09 13:04:07.993213$GBGSV,2,1,05,14,43,193,45,24,73,026,49,25,41,263,45,26,26,063,41*6A
###2023-12-09 13:04:07.994686$GBGSV,2,2,05,33,57,231,49,,,,,,,,,,,,*51
###2023-12-09 13:04:07.995980$GNVTG,76.11,T,,M,3.48,N,6.44,K,A*1B
###2023-12-09 13:04:07.997635$GNGST,180407.10,18.000,,,,0.080,0.066,0.160*5A
###2023-12-09 13:04:07.998942$GNZDA,180407.10,09,12,2023,00,00*7A
###2023-12-09 13:04:07.999584$GNEBP,,,,,,M*13
###2023-12-09 13:04:08.165466$GNGGA,180407.30,4138.0593944,N,07032.3506742,W,1,24,0.6,13.215,M,-29.744,M,0.0,*5D
###2023-12-09 13:04:08.365970$GNGGA,180407.50,4138.0593832,N,07032.3504208,W,1,24,0.6,13.195,M,-29.744,M,0.0,*59
###2023-12-09 13:04:08.566376$GNGGA,180407.70,4138.0594128,N,07032.3501780,W,1,24,0.6,13.213,M,-29.744,M,0.0,*53
###2023-12-09 13:04:08.766790$GNGGA,180407.90,4138.0594692,N,07032.3499310,W,1,24,0.6,13.215,M,-29.744,M,0.0,*50
###2023-12-09 13:04:08.978300$GNRMC,180408.10,A,4138.0594651,N,07032.3496706,W,3.38,99.84,091223,,,A*62
###2023-12-09 13:04:08.981173$GNGGA,180408.10,4138.0594651,N,07032.3496706,W,1,24,0.6,13.183,M,-29.744,M,0.0,*58
###2023-12-09 13:04:08.983036$GPGSA,A,3,03,04,16,26,28,29,31,32,,,,,1.1,0.6,0.9*3B
###2023-12-09 13:04:08.984745$GLGSA,A,3,65,71,72,73,74,75,,,,,,,1.1,0.6,0.9*24
###2023-12-09 13:04:08.986323$GAGSA,A,3,04,19,21,27,,,,,,,,,1.1,0.6,0.9*26
###2023-12-09 13:04:08.987980$GBGSA,A,3,14,24,25,26,33,,,,,,,,1.1,0.6,0.9*2F
###2023-12-09 13:04:08.990297$GPGSV,2,1,08,03,34,260,44,04,33,311,44,16,51,213,47,26,81,210,49*76
###2023-12-09 13:04:08.992634$GPGSV,2,2,08,28,48,071,45,29,25,060,42,31,68,040,47,32,18,140,39*70
###2023-12-09 13:04:08.994982$GLGSV,2,1,06,65,25,327,41,71,40,173,45,72,73,265,46,73,35,042,44*67
###2023-12-09 13:04:08.996727$GLGSV,2,2,06,74,69,340,43,75,33,254,46,,,,,,,,*6C
###2023-12-09 13:04:08.999063$GAGSV,1,1,04,04,30,312,42,19,83,207,41,21,86,104,46,27,32,048,44*6C
###2023-12-09 13:04:09.001393$GBGSV,2,1,05,14,43,193,44,24,73,026,48,25,41,263,46,26,26,063,43*6B
###2023-12-09 13:04:09.002857$GBGSV,2,2,05,33,57,231,48,,,,,,,,,,,,*50
###2023-12-09 13:04:09.004147$GNVTG,99.84,T,,M,3.38,N,6.26,K,A*15
###2023-12-09 13:04:09.005787$GNGST,180408.10,18.000,,,,0.080,0.066,0.160*55
###2023-12-09 13:04:09.007083$GNZDA,180408.10,09,12,2023,00,00*75
###2023-12-09 13:04:09.007719$GNEBP,,,,,,M*13
###2023-12-09 13:04:09.168395$GNGGA,180408.30,4138.0594314,N,07032.3494294,W,1,24,0.6,13.186,M,-29.744,M,0.0,*57
###2023-12-09 13:04:09.367475$GNGGA,180408.50,4138.0594361,N,07032.3491816,W,1,24,0.6,13.221,M,-29.744,M,0.0,*58
###2023-12-09 13:04:09.566342$GNGGA,180408.70,4138.0594362,N,07032.3489161,W,1,24,0.6,13.186,M,-29.744,M,0.0,*57
###2023-12-09 13:04:09.767893$GNGGA,180408.90,4138.0594131,N,07032.3486779,W,1,24,0.6,13.170,M,-29.744,M,0.0,*54
###2023-12-09 13:04:09.966708$GNRMC,180409.10,A,4138.0594083,N,07032.3484290,W,3.56,93.20,091223,,,A*6F
###2023-12-09 13:04:09.969562$GNGGA,180409.10,4138.0594083,N,07032.3484290,W,1,24,0.6,13.215,M,-29.744,M,0.0,*55
###2023-12-09 13:04:09.971427$GPGSA,A,3,03,04,16,26,28,29,31,32,,,,,1.1,0.6,0.9*3B
###2023-12-09 13:04:09.973148$GLGSA,A,3,65,71,72,73,74,75,,,,,,,1.1,0.6,0.9*24
###2023-12-09 13:04:09.974747$GAGSA,A,3,04,19,21,27,,,,,,,,,1.1,0.6,0.9*26
###2023-12-09 13:04:09.976402$GBGSA,A,3,14,24,25,26,33,,,,,,,,1.1,0.6,0.9*2F
###2023-12-09 13:04:09.978739$GPGSV,2,1,08,03,34,260,45,04,33,311,43,16,51,213,48,26,81,210,49*7F
###2023-12-09 13:04:09.981086$GPGSV,2,2,08,28,48,071,45,29,25,060,43,31,68,040,48,32,18,140,42*72
###2023-12-09 13:04:09.983435$GLGSV,2,1,06,65,25,327,41,71,40,173,46,72,73,265,46,73,35,042,44*64
###2023-12-09 13:04:09.985184$GLGSV,2,2,06,74,69,340,43,75,33,254,47,,,,,,,,*6D
###2023-12-09 13:04:09.987534$GAGSV,1,1,04,04,30,312,41,19,83,207,41,21,86,104,46,27,32,048,42*69
###2023-12-09 13:04:09.989876$GBGSV,2,1,05,14,43,193,45,24,73,026,48,25,41,263,47,26,26,063,44*6C
###2023-12-09 13:04:09.991349$GBGSV,2,2,05,33,57,231,48,,,,,,,,,,,,*50
###2023-12-09 13:04:09.992645$GNVTG,93.20,T,,M,3.56,N,6.59,K,A*11
###2023-12-09 13:04:09.994299$GNGST,180409.10,18.000,,,,0.080,0.066,0.160*54
###2023-12-09 13:04:09.995611$GNZDA,180409.10,09,12,2023,00,00*74
###2023-12-09 13:04:09.996254$GNEBP,,,,,,M*13
###2023-12-09 13:04:10.164296$GNGGA,180409.30,4138.0593814,N,07032.3481652,W,1,24,0.6,13.193,M,-29.744,M,0.0,*54
###2023-12-09 13:04:10.364814$GNGGA,180409.50,4138.0593681,N,07032.3479195,W,1,24,0.6,13.171,M,-29.744,M,0.0,*57
###2023-12-09 13:04:10.565039$GNGGA,180409.70,4138.0593809,N,07032.3476651,W,1,24,0.6,13.202,M,-29.744,M,0.0,*5C
###2023-12-09 13:04:10.764298$GNGGA,180409.90,4138.0593730,N,07032.3473979,W,1,24,0.6,13.197,M,-29.744,M,0.0,*58
###2023-12-09 13:04:10.967696$GNRMC,180410.10,A,4138.0593559,N,07032.3471381,W,3.56,94.03,091223,,,A*6F
###2023-12-09 13:04:10.970823$GNGGA,180410.10,4138.0593559,N,07032.3471381,W,1,24,0.6,13.180,M,-29.744,M,0.0,*5C
###2023-12-09 13:04:10.972690$GPGSA,A,3,03,04,16,26,28,29,31,32,,,,,1.1,0.6,0.9*3B
###2023-12-09 13:04:10.974407$GLGSA,A,3,65,71,72,73,74,75,,,,,,,1.1,0.6,0.9*24
###2023-12-09 13:04:10.976004$GAGSA,A,3,04,19,21,27,,,,,,,,,1.1,0.6,0.9*26
###2023-12-09 13:04:10.977646$GBGSA,A,3,14,24,25,26,33,,,,,,,,1.1,0.6,0.9*2F
###2023-12-09 13:04:10.979975$GPGSV,2,1,08,03,34,260,47,04,33,311,44,16,51,213,48,26,81,210,49*7A
###2023-12-09 13:04:10.982299$GPGSV,2,2,08,28,48,071,44,29,25,060,41,31,68,040,48,32,18,140,44*77
###2023-12-09 13:04:10.984632$GLGSV,2,1,06,65,25,327,41,71,40,173,47,72,73,265,47,73,35,042,44*64
###2023-12-09 13:04:10.986376$GLGSV,2,2,06,74,69,340,43,75,33,254,47,,,,,,,,*6D
