###2023-12-09 12:47:49.976030$GBGSV,2,1,05,14,50,195,45,24,78,008,49,25,36,257,46,26,31,060,44*6D
###2023-12-09 12:47:49.977821$GBGSV,2,2,05,33,61,243,48,,,,,,,,,,,,*50
###2023-12-09 12:47:49.979451$GNVTG,336.59,T,,M,0.19,N,0.36,K,A*24
###2023-12-09 12:47:49.981454$GNGST,174749.10,18.000,,,,0.076,0.068,0.160*5F
###2023-12-09 12:47:49.983041$GNZDA,174749.10,09,12,2023,00,00*78
###2023-12-09 12:47:49.983825$GNEBP,,,,,,M*13
###2023-12-09 12:47:50.148183$GNGGA,174749.30,4138.0520841,N,07032.3996528,W,1,24,0.6,13.306,M,-29.745,M,0.0,*5A
###2023-12-09 12:47:50.348201$GNGGA,174749.50,4138.0520991,N,07032.3996624,W,1,24,0.6,13.294,M,-29.745,M,0.0,*55
###2023-12-09 12:47:50.548723$GNGGA,174749.70,4138.0521270,N,07032.3996864,W,1,24,0.6,13.292,M,-29.745,M,0.0,*5E
###2023-12-09 12:47:50.746703$GNGGA,174749.90,4138.0521561,N,07032.3997135,W,1,24,0.6,13.300,M,-29.745,M,0.0,*51
###2023-12-09 12:47:50.947434$GNRMC,174750.10,A,4138.0521697,N,07032.3997223,W,0.14,336.59,091223,,,A*56
###2023-12-09 12:47:50.950923$GNGGA,174750.10,4138.0521697,N,07032.3997223,W,1,24,0.6,13.316,M,-29.745,M,0.0,*58
###2023-12-09 12:47:50.953174$GPGSA,A,3,03,04,16,26,28,29,31,32,,,,,1.1,0.6,0.9*3B
###2023-12-09 12:47:50.955268$GLGSA,A,3,65,71,72,73,74,75,,,,,,,1.1,0.6,0.9*24
###2023-12-09 12:47:50.957195$GAGSA,A,3,04,19,21,27,,,,,,,,,1.1,0.6,0.9*26
###2023-12-09 12:47:50.959221$GBGSA,A,3,14,24,25,26,33,,,,,,,,1.1,0.6,0.9*2F
###2023-12-09 12:47:50.962046$GPGSV,2,1,08,03,37,269,44,04,27,311,44,16,43,209,44,26,73,208,48*77
###2023-12-09 12:47:50.964901$GPGSV,2,2,08,28,53,064,43,29,26,067,39,31,71,021,46,32,24,137,42*7D
###2023-12-09 12:47:50.967761$GLGSV,2,1,06,65,17,329,44,71,49,171,47,72,70,294,46,73,42,037,45*6A
###2023-12-09 12:47:50.969889$GLGSV,2,2,06,74,71,314,43,75,27,246,45,,,,,,,,*61
###2023-12-09 12:47:50.972765$GAGSV,1,1,04,04,24,312,43,19,84,276,41,21,82,165,47,27,38,049,42*66
###2023-12-09 12:47:50.975612$GBGSV,2,1,05,14,50,195,43,24,78,008,48,25,36,257,45,26,31,060,41*6C
###2023-12-09 12:47:50.977376$GBGSV,2,2,05,33,61,243,47,,,,,,,,,,,,*5F
###2023-12-09 12:47:50.979029$GNVTG,336.59,T,,M,0.14,N,0.25,K,A*2B
###2023-12-09 12:47:50.981031$GNGST,174750.10,18.000,,,,0.076,0.069,0.160*56
###2023-12-09 12:47:50.982611$GNZDA,174750.10,09,12,2023,00,00*70
###2023-12-09 12:47:50.983382$GNEBP,,,,,,M*13
###2023-12-09 12:47:51.146876$GNGGA,174750.30,4138.0521770,N,07032.3997231,W,1,24,0.6,13.325,M,-29.745,M,0.0,*51
###2023-12-09 12:47:51.349591$GNGGA,174750.50,4138.0521889,N,07032.3997298,W,1,24,0.6,13.307,M,-29.745,M,0.0,*5D
###2023-12-09 12:47:51.547516$GNGGA,174750.70,4138.0522146,N,07032.3997496,W,1,24,0.6,13.304,M,-29.745,M,0.0,*5D
###2023-12-09 12:47:51.746188$GNGGA,174750.90,4138.0522461,N,07032.3997743,W,1,24,0.6,13.306,M,-29.745,M,0.0,*5A
###2023-12-09 12:47:51.947044$GNRMC,174751.10,A,4138.0522650,N,07032.3997902,W,0.16,336.59,091223,,,A*55
###2023-12-09 12:47:51.949911$GNGGA,174751.10,4138.0522650,N,07032.3997902,W,1,24,0.6,13.329,M,-29.745,M,0.0,*55
###2023-12-09 12:47:51.951780$GPGSA,A,3,03,04,16,26,28,29,31,32,,,,,1.1,0.6,0.9*3B
###2023-12-09 12:47:51.953499$GLGSA,A,3,65,71,72,73,74,75,,,,,,,1.1,0.6,0.9*24
###2023-12-09 12:47:51.955098$GAGSA,A,3,04,19,21,27,,,,,,,,,1.1,0.6,0.9*26
###2023-12-09 12:47:51.956746$GBGSA,A,3,14,24,25,26,33,,,,,,,,1.1,0.6,0.9*2F
###2023-12-09 12:47:51.959079$GPGSV,2,1,08,03,37,269,45,04,27,311,44,16,43,209,44,26,73,208,48*76
###2023-12-09 12:47:51.961404$GPGSV,2,2,08,28,53,064,43,29,26,067,38,31,71,021,47,32,24,137,42*7D
###2023-12-09 12:47:51.963776$GLGSV,2,1,06,65,17,329,44,71,49,171,47,72,70,294,47,73,42,037,45*6B
###2023-12-09 12:47:51.965522$GLGSV,2,2,06,74,71,314,44,75,27,246,45,,,,,,,,*66
###2023-12-09 12:47:51.967860$GAGSV,1,1,04,04,24,312,43,19,84,276,41,21,82,165,46,27,38,049,42*67
###2023-12-09 12:47:51.970190$GBGSV,2,1,05,14,50,195,44,24,78,008,48,25,36,257,45,26,31,060,41*6B
###2023-12-09 12:47:51.971662$GBGSV,2,2,05,33,61,243,47,,,,,,,,,,,,*5F
###2023-12-09 12:47:51.972986$GNVTG,336.59,T,,M,0.16,N,0.29,K,A*25
###2023-12-09 12:47:51.974641$GNGST,174751.10,18.000,,,,0.076,0.069,0.160*57
###2023-12-09 12:47:51.975933$GNZDA,174751.10,09,12,2023,00,00*71
###2023-12-09 12:47:51.976578$GNEBP,,,,,,M*13
###2023-12-09 12:47:52.146640$GNGGA,174751.30,4138.0522674,N,07032.3997875,W,1,24,0.6,13.341,M,-29.745,M,0.0,*5E
###2023-12-09 12:47:52.347233$GNGGA,174751.50,4138.0522768,N,07032.3997881,W,1,24,0.6,13.332,M,-29.745,M,0.0,*5B
###2023-12-09 12:47:52.546978$GNGGA,174751.70,4138.0523061,N,07032.3998114,W,1,24,0.6,13.325,M,-29.745,M,0.0,*5A
###2023-12-09 12:47:52.748000$GNGGA,174751.90,4138.0523418,N,07032.3998420,W,1,24,0.6,13.317,M,-29.745,M,0.0,*5D
###2023-12-09 12:47:52.951366$GNRMC,174752.10,A,4138.0523577,N,07032.3998558,W,0.12,336.59,091223,,,A*59
###2023-12-09 12:47:52.954228$GNGGA,174752.10,4138.0523577,N,07032.3998558,W,1,24,0.6,13.325,M,-29.745,M,0.0,*51
###2023-12-09 12:47:52.956107$GPGSA,A,3,03,04,16,26,28,29,31,32,,,,,1.1,0.6,0.9*3B
###2023-12-09 12:47:52.957822$GLGSA,A,3,65,71,72,73,74,75,,,,,,,1.1,0.6,0.9*24
###2023-12-09 12:47:52.959422$GAGSA,A,3,04,19,21,27,,,,,,,,,1.1,0.6,0.9*26
###2023-12-09 12:47:52.961064$GBGSA,A,3,14,24,25,26,33,,,,,,,,1.1,0.6,0.9*2F
###2023-12-09 12:47:52.963406$GPGSV,2,1,08,03,37,269,44,04,27,311,44,16,43,209,45,26,73,208,49*77
###2023-12-09 12:47:52.965742$GPGSV,2,2,08,28,53,064,43,29,26,067,40,31,71,021,47,32,24,137,41*71
###2023-12-09 12:47:52.968093$GLGSV,2,1,06,65,17,329,45,71,49,171,46,72,70,294,46,73,42,037,44*6B
###2023-12-09 12:47:52.969839$GLGSV,2,2,06,74,71,314,44,75,27,246,46,,,,,,,,*65
###2023-12-09 12:47:52.972177$GAGSV,1,1,04,04,24,312,43,19,84,276,41,21,82,165,46,27,38,049,43*66
###2023-12-09 12:47:52.974502$GBGSV,2,1,05,14,50,195,45,24,78,008,49,25,36,257,46,26,31,060,42*6B
###2023-12-09 12:47:52.975967$GBGSV,2,2,05,33,61,243,48,,,,,,,,,,,,*50
###2023-12-09 12:47:52.977290$GNVTG,336.59,T,,M,0.12,N,0.22,K,A*2A
###2023-12-09 12:47:52.978949$GNGST,174752.10,18.000,,,,0.076,0.069,0.160*54
###2023-12-09 12:47:52.980247$GNZDA,174752.10,09,12,2023,00,00*72
###2023-12-09 12:47:52.980887$GNEBP,,,,,,M*13
###2023-12-09 12:47:53.147110$GNGGA,174752.30,4138.0523652,N,07032.3998552,W,1,24,0.6,13.347,M,-29.745,M,0.0,*59
###2023-12-09 12:47:53.348064$GNGGA,174752.50,4138.0523792,N,07032.3998601,W,1,24,0.6,13.352,M,-29.745,M,0.0,*53
###2023-12-09 12:47:53.552753$GNGGA,174752.70,4138.0524015,N,07032.3998782,W,1,24,0.6,13.343,M,-29.745,M,0.0,*54
###2023-12-09 12:47:53.747847$GNGGA,174752.90,4138.0524313,N,07032.3999046,W,1,24,0.6,13.329,M,-29.745,M,0.0,*5D
###2023-12-09 12:47:53.947549$GNRMC,174753.10,A,4138.0524530,N,07032.3999253,W,0.37,336.59,091223,,,A*56
###2023-12-09 12:47:53.950416$GNGGA,174753.10,4138.0524530,N,07032.3999253,W,1,24,0.6,13.336,M,-29.745,M,0.0,*5B
###2023-12-09 12:47:53.952295$GPGSA,A,3,03,04,16,26,28,29,31,32,,,,,1.1,0.6,0.9*3B
###2023-12-09 12:47:53.954017$GLGSA,A,3,65,71,72,73,74,75,,,,,,,1.1,0.6,0.9*24
###2023-12-09 12:47:53.955619$GAGSA,A,3,04,19,21,27,,,,,,,,,1.1,0.6,0.9*26
###2023-12-09 12:47:53.957268$GBGSA,A,3,14,24,25,26,33,,,,,,,,1.1,0.6,0.9*2F
###2023-12-09 12:47:53.959611$GPGSV,2,1,08,03,37,269,44,04,27,311,43,16,43,209,45,26,73,208,49*70
###2023-12-09 12:47:53.961943$GPGSV,2,2,08,28,53,064,43,29,26,067,39,31,71,021,47,32,24,137,43*7D
###2023-12-09 12:47:53.964291$GLGSV,2,1,06,65,17,329,45,71,49,171,48,72,70,294,46,73,42,037,44*65
###2023-12-09 12:47:53.966043$GLGSV,2,2,06,74,71,314,43,75,27,246,46,,,,,,,,*62
###2023-12-09 12:47:53.968399$GAGSV,1,1,04,04,24,312,43,19,84,276,41,21,82,165,47,27,38,049,43*67
###2023-12-09 12:47:53.970752$GBGSV,2,1,05,14,50,195,45,24,78,008,49,25,36,257,45,26,31,060,43*69
###2023-12-09 12:47:53.972212$GBGSV,2,2,05,33,61,243,48,,,,,,,,,,,,*50
###2023-12-09 12:47:53.973539$GNVTG,336.59,T,,M,0.37,N,0.68,K,A*23
###2023-12-09 12:47:53.975206$GNGST,174753.10,18.000,,,,0.076,0.068,0.160*54
###2023-12-09 12:47:53.976505$GNZDA,174753.10,09,12,2023,00,00*73
###2023-12-09 12:47:53.977143$GNEBP,,,,,,M*13
###2023-12-09 12:47:54.147393$GNGGA,174753.30,4138.0524688,N,07032.3999369,W,1,24,0.6,13.367,M,-29.745,M,0.0,*55
###2023-12-09 12:47:54.348169$GNGGA,174753.50,4138.0524876,N,07032.3999476,W,1,24,0.6,13.380,M,-29.745,M,0.0,*5C
###2023-12-09 12:47:54.548070$GNGGA,174753.70,4138.0525036,N,07032.3999581,W,1,24,0.6,13.364,M,-29.745,M,0.0,*50
###2023-12-09 12:47:54.748659$GNGGA,174753.90,4138.0525194,N,07032.3999730,W,1,24,0.6,13.344,M,-29.745,M,0.0,*5D
###2023-12-09 12:47:54.948345$GNRMC,174754.10,A,4138.0525513,N,07032.4000038,W,0.89,336.59,091223,,,A*55
###2023-12-09 12:47:54.951241$GNGGA,174754.10,4138.0525513,N,07032.4000038,W,1,24,0.6,13.353,M,-29.745,M,0.0,*5E
###2023-12-09 12:47:54.953103$GPGSA,A,3,03,04,16,26,28,29,31,32,,,,,1.1,0.6,0.9*3B
###2023-12-09 12:47:54.954839$GLGSA,A,3,65,71,72,73,74,75,,,,,,,1.1,0.6,0.9*24
###2023-12-09 12:47:54.956432$GAGSA,A,3,04,19,21,27,,,,,,,,,1.1,0.6,0.9*26
###2023-12-09 12:47:54.958084$GBGSA,A,3,14,24,25,26,33,,,,,,,,1.1,0.6,0.9*2F
