###2023-12-09 13:29:30.018493$GBGSV,2,1,06,14,31,190,39,24,64,043,47,25,49,274,49,26,17,069,40*64
###2023-12-09 13:29:30.020288$GBGSV,2,2,06,33,48,219,47,35,16,058,42,,,,,,,,*62
###2023-12-09 13:29:30.021617$GNVTG,294.42,T,,M,0.51,N,0.94,K,A*23
###2023-12-09 13:29:30.023280$GNGST,182929.10,18.000,,,,0.100,0.071,0.170*57
###2023-12-09 13:29:30.024566$GNZDA,182929.10,09,12,2023,00,00*79
###2023-12-09 13:29:30.025204$GNEBP,,,,,,M*13
###2023-12-09 13:29:30.192041$GNGGA,182929.30,4138.0476133,N,07032.4174535,W,1,24,0.6,12.813,M,-29.745,M,0.0,*54
###2023-12-09 13:29:30.390103$GNGGA,182929.50,4138.0476492,N,07032.4174309,W,1,24,0.6,12.806,M,-29.745,M,0.0,*51
###2023-12-09 13:29:30.591522$GNGGA,182929.70,4138.0477083,N,07032.4174467,W,1,24,0.6,12.799,M,-29.745,M,0.0,*50
###2023-12-09 13:29:30.791064$GNGGA,182929.90,4138.0477759,N,07032.4174496,W,1,24,0.6,12.786,M,-29.745,M,0.0,*5E
###2023-12-09 13:29:30.995563$GNRMC,182930.10,A,4138.0478500,N,07032.4173854,W,1.92,36.50,091223,,,A*6D
###2023-12-09 13:29:30.998404$GNGGA,182930.10,4138.0478500,N,07032.4173854,W,1,24,0.6,12.793,M,-29.745,M,0.0,*5E
###2023-12-09 13:29:31.000203$GPGSA,A,3,03,04,16,26,28,29,31,,,,,,1.1,0.6,0.9*3A
###2023-12-09 13:29:31.001910$GLGSA,A,3,65,71,72,73,74,75,,,,,,,1.1,0.6,0.9*24
###2023-12-09 13:29:31.003503$GAGSA,A,3,04,19,21,27,,,,,,,,,1.1,0.6,0.9*26
###2023-12-09 13:29:31.005210$GBGSA,A,3,14,24,25,26,33,35,,,,,,,1.1,0.6,0.9*29
###2023-12-09 13:29:31.007542$GPGSV,2,1,07,03,28,248,41,04,44,309,44,16,64,220,46,26,86,041,47*7A
###2023-12-09 13:29:31.009561$GPGSV,2,2,07,28,39,083,42,29,21,049,38,31,61,061,44,,,,*4F
###2023-12-09 13:29:31.011898$GLGSV,2,1,06,65,36,321,42,71,25,175,43,72,65,225,47,73,24,050,37*66
###2023-12-09 13:29:31.013659$GLGSV,2,2,06,74,61,010,42,75,42,268,48,,,,,,,,*64
###2023-12-09 13:29:31.016006$GAGSV,1,1,04,04,38,311,43,19,74,183,41,21,79,049,45,27,24,049,36*69
###2023-12-09 13:29:31.018324$GBGSV,2,1,06,14,31,190,42,24,64,043,48,25,49,274,48,26,17,069,41*67
###2023-12-09 13:29:31.020087$GBGSV,2,2,06,33,48,219,48,35,16,058,41,,,,,,,,*6E
###2023-12-09 13:29:31.021380$GNVTG,36.50,T,,M,1.92,N,3.56,K,A*19
###2023-12-09 13:29:31.023042$GNGST,182930.10,18.000,,,,0.100,0.071,0.170*5F
###2023-12-09 13:29:31.024330$GNZDA,182930.10,09,12,2023,00,00*71
###2023-12-09 13:29:31.024969$GNEBP,,,,,,M*13
###2023-12-09 13:29:31.195442$GNGGA,182930.30,4138.0479433,N,07032.4173096,W,1,24,0.6,12.816,M,-29.745,M,0.0,*58
###2023-12-09 13:29:31.391460$GNGGA,182930.50,4138.0480542,N,07032.4172827,W,1,24,0.6,12.827,M,-29.745,M,0.0,*5E
###2023-12-09 13:29:31.591848$GNGGA,182930.70,4138.0481777,N,07032.4172969,W,1,24,0.6,12.836,M,-29.745,M,0.0,*52
###2023-12-09 13:29:31.791699$GNGGA,182930.90,4138.0483044,N,07032.4172789,W,1,24,0.6,12.814,M,-29.745,M,0.0,*59
###2023-12-09 13:29:31.995889$GNRMC,182931.10,A,4138.0484393,N,07032.4172166,W,2.64,16.72,091223,,,A*62
###2023-12-09 13:29:31.999398$GNGGA,182931.10,4138.0484393,N,07032.4172166,W,1,24,0.6,12.800,M,-29.745,M,0.0,*5C
###2023-12-09 13:29:32.001561$GPGSA,A,3,03,04,16,26,28,29,31,,,,,,1.1,0.6,0.9*3A
###2023-12-09 13:29:32.003649$GLGSA,A,3,65,71,72,73,74,75,,,,,,,1.1,0.6,0.9*24
###2023-12-09 13:29:32.005563$GAGSA,A,3,04,19,21,27,,,,,,,,,1.1,0.6,0.9*26
###2023-12-09 13:29:32.007622$GBGSA,A,3,14,24,25,26,33,35,,,,,,,1.1,0.6,0.9*29
###2023-12-09 13:29:32.010418$GPGSV,2,1,07,03,28,248,42,04,44,309,44,16,64,220,47,26,86,041,47*78
###2023-12-09 13:29:32.012878$GPGSV,2,2,07,28,39,083,43,29,21,049,40,31,61,063,47,,,,*40
###2023-12-09 13:29:32.015713$GLGSV,2,1,06,65,36,321,42,71,25,175,42,72,65,225,47,73,24,050,42*65
###2023-12-09 13:29:32.017830$GLGSV,2,2,06,74,61,010,41,75,42,268,47,,,,,,,,*68
###2023-12-09 13:29:32.020655$GAGSV,1,1,04,04,38,311,44,19,74,183,41,21,79,049,45,27,24,049,39*61
###2023-12-09 13:29:32.023508$GBGSV,2,1,06,14,31,190,42,24,64,043,48,25,49,274,48,26,17,069,44*62
###2023-12-09 13:29:32.025606$GBGSV,2,2,06,33,48,219,48,35,16,058,44,,,,,,,,*6B
###2023-12-09 13:29:32.027174$GNVTG,16.72,T,,M,2.64,N,4.90,K,A*1C
###2023-12-09 13:29:32.029164$GNGST,182931.10,18.000,,,,0.100,0.071,0.170*5E
###2023-12-09 13:29:32.030720$GNZDA,182931.10,09,12,2023,00,00*70
###2023-12-09 13:29:32.031495$GNEBP,,,,,,M*13
###2023-12-09 13:29:32.194671$GNGGA,182931.30,4138.0485750,N,07032.4171948,W,1,24,0.6,12.799,M,-29.745,M,0.0,*5C
###2023-12-09 13:29:32.391215$GNGGA,182931.50,4138.0487075,N,07032.4172225,W,1,24,0.6,12.822,M,-29.745,M,0.0,*54
###2023-12-09 13:29:32.592077$GNGGA,182931.70,4138.0488476,N,07032.4172585,W,1,24,0.6,12.829,M,-29.745,M,0.0,*58
###2023-12-09 13:29:32.791237$GNGGA,182931.90,4138.0489996,N,07032.4172753,W,1,24,0.6,12.830,M,-29.745,M,0.0,*55
###2023-12-09 13:29:33.000779$GNRMC,182932.10,A,4138.0491614,N,07032.4172921,W,3.07,351.92,091223,,,A*5E
###2023-12-09 13:29:33.003634$GNGGA,182932.10,4138.0491614,N,07032.4172921,W,1,24,0.6,12.830,M,-29.745,M,0.0,*59
###2023-12-09 13:29:33.005416$GPGSA,A,3,03,04,16,26,28,29,31,,,,,,1.1,0.6,0.9*3A
###2023-12-09 13:29:33.007129$GLGSA,A,3,65,71,72,73,74,75,,,,,,,1.1,0.6,0.9*24
###2023-12-09 13:29:33.008704$GAGSA,A,3,04,19,21,27,,,,,,,,,1.1,0.6,0.9*26
###2023-12-09 13:29:33.010405$GBGSA,A,3,14,24,25,26,33,35,,,,,,,1.1,0.6,0.9*29
###2023-12-09 13:29:33.012722$GPGSV,2,1,07,03,28,248,43,04,44,309,44,16,64,220,46,26,86,041,48*77
###2023-12-09 13:29:33.014795$GPGSV,2,2,07,28,39,083,45,29,21,049,41,31,61,063,46,,,,*46
###2023-12-09 13:29:33.017118$GLGSV,2,1,06,65,36,321,41,71,25,175,43,72,65,225,46,73,24,050,43*67
###2023-12-09 13:29:33.018873$GLGSV,2,2,06,74,61,010,41,75,42,268,45,,,,,,,,*6A
###2023-12-09 13:29:33.021188$GAGSV,1,1,04,04,38,311,42,19,74,183,41,21,79,049,46,27,24,049,39*64
###2023-12-09 13:29:33.023515$GBGSV,2,1,06,14,31,190,43,24,64,043,48,25,49,274,45,26,17,069,43*69
###2023-12-09 13:29:33.025248$GBGSV,2,2,06,33,48,219,47,35,16,058,40,,,,,,,,*60
###2023-12-09 13:29:33.026561$GNVTG,351.92,T,,M,3.07,N,5.69,K,A*21
###2023-12-09 13:29:33.028217$GNGST,182932.10,18.000,,,,0.100,0.071,0.170*5D
###2023-12-09 13:29:33.029502$GNZDA,182932.10,09,12,2023,00,00*73
###2023-12-09 13:29:33.030135$GNEBP,,,,,,M*13
###2023-12-09 13:29:33.198741$GNGGA,182932.30,4138.0493208,N,07032.4173399,W,1,24,0.6,12.824,M,-29.745,M,0.0,*5D
###2023-12-09 13:29:33.391274$GNGGA,182932.50,4138.0494729,N,07032.4174103,W,1,24,0.6,12.814,M,-29.745,M,0.0,*5F
###2023-12-09 13:29:33.590453$GNGGA,182932.70,4138.0496206,N,07032.4174868,W,1,24,0.6,12.799,M,-29.745,M,0.0,*59
###2023-12-09 13:29:33.792393$GNGGA,182932.90,4138.0497702,N,07032.4175493,W,1,24,0.6,12.798,M,-29.745,M,0.0,*5F
###2023-12-09 13:29:33.995136$GNRMC,182933.10,A,4138.0499137,N,07032.4176219,W,2.74,336.05,091223,,,A*5F
###2023-12-09 13:29:33.997996$GNGGA,182933.10,4138.0499137,N,07032.4176219,W,1,24,0.6,12.797,M,-29.745,M,0.0,*50
###2023-12-09 13:29:33.999814$GPGSA,A,3,03,04,16,26,28,29,31,,,,,,1.1,0.6,0.9*3A
###2023-12-09 13:29:34.001530$GLGSA,A,3,65,71,72,73,74,75,,,,,,,1.1,0.6,0.9*24
###2023-12-09 13:29:34.003122$GAGSA,A,3,04,19,21,27,,,,,,,,,1.1,0.6,0.9*26
###2023-12-09 13:29:34.004834$GBGSA,A,3,14,24,25,26,33,35,,,,,,,1.1,0.6,0.9*29
###2023-12-09 13:29:34.007164$GPGSV,2,1,07,03,28,248,42,04,44,309,42,16,64,220,45,26,86,041,48*73
###2023-12-09 13:29:34.009204$GPGSV,2,2,07,28,39,083,45,29,21,049,42,31,61,063,47,,,,*44
###2023-12-09 13:29:34.011536$GLGSV,2,1,06,65,36,321,41,71,25,175,44,72,65,225,46,73,24,050,44*67
###2023-12-09 13:29:34.013280$GLGSV,2,2,06,74,61,010,41,75,42,268,45,,,,,,,,*6A
###2023-12-09 13:29:34.015613$GAGSV,1,1,04,04,38,311,41,19,74,183,41,21,79,049,46,27,24,049,42*6B
###2023-12-09 13:29:34.017942$GBGSV,2,1,06,14,31,190,41,24,64,043,48,25,49,274,47,26,17,069,41*6B
###2023-12-09 13:29:34.019696$GBGSV,2,2,06,33,48,219,47,35,16,058,42,,,,,,,,*62
###2023-12-09 13:29:34.021022$GNVTG,336.05,T,,M,2.74,N,5.08,K,A*2C
###2023-12-09 13:29:34.022685$GNGST,182933.10,18.000,,,,0.100,0.071,0.170*5C
###2023-12-09 13:29:34.023983$GNZDA,182933.10,09,12,2023,00,00*72
###2023-12-09 13:29:34.024627$GNEBP,,,,,,M*13
###2023-12-09 13:29:34.192037$GNGGA,182933.30,4138.0500415,N,07032.4177138,W,1,24,0.6,12.801,M,-29.745,M,0.0,*57
###2023-12-09 13:29:34.391160$GNGGA,182933.50,4138.0501592,N,07032.4178220,W,1,24,0.6,12.798,M,-29.745,M,0.0,*54
###2023-12-09 13:29:34.590825$GNGGA,182933.70,4138.0502653,N,07032.4179287,W,1,24,0.6,12.796,M,-29.745,M,0.0,*59
###2023-12-09 13:29:34.790949$GNGGA,182933.90,4138.0503753,N,07032.4180359,W,1,24,0.6,12.789,M,-29.745,M,0.0,*5D
###2023-12-09 13:29:34.996677$GNRMC,182934.10,A,4138.0504834,N,07032.4181442,W,2.41,321.43,091223,,,A*55
###2023-12-09 13:29:34.999550$GNGGA,182934.10,4138.0504834,N,07032.4181442,W,1,24,0.6,12.787,M,-29.745,M,0.0,*59
###2023-12-09 13:29:35.001352$GPGSA,A,3,03,04,16,26,28,29,31,,,,,,1.1,0.6,0.9*3A
###2023-12-09 13:29:35.003075$GLGSA,A,3,65,71,72,73,74,75,,,,,,,1.1,0.6,0.9*24
###2023-12-09 13:29:35.004654$GAGSA,A,3,04,19,21,27,,,,,,,,,1.1,0.6,0.9*26
###2023-12-09 13:29:35.006359$GBGSA,A,3,14,24,25,26,33,35,,,,,,,1.1,0.6,0.9*29
