###2023-12-09 12:28:56.944902$GPGSV,2,2,07,29,25,077,43,31,73,351,44,32,33,132,46,,,,*47
###2023-12-09 12:28:56.947371$GLGSV,1,1,04,71,60,168,49,72,63,315,42,73,51,031,46,75,19,238,41*64
###2023-12-09 12:28:56.949194$GAGSV,1,1,02,21,75,179,40,27,43,050,45,,,,,,,,*66
###2023-12-09 12:28:56.951331$GBGSV,1,1,03,14,57,199,46,26,37,056,47,33,64,260,41,,,,*5F
###2023-12-09 12:28:56.952514$GNVTG,,T,,M,0.02,N,0.04,K,A*3B
###2023-12-09 12:28:56.954208$GNGST,172856.10,32.000,,,,0.120,0.130,0.290*52
###2023-12-09 12:28:56.955569$GNZDA,172856.10,09,12,2023,00,00*7F
###2023-12-09 12:28:56.956252$GNEBP,,,,,,M*13
###2023-12-09 12:28:57.125989$GNGGA,172856.30,4138.0386430,N,07032.4361735,W,1,16,0.9,14.348,M,-29.746,M,0.0,*56
###2023-12-09 12:28:57.321837$GNGGA,172856.50,4138.0386373,N,07032.4361721,W,1,16,0.9,14.366,M,-29.746,M,0.0,*59
###2023-12-09 12:28:57.521816$GNGGA,172856.70,4138.0386301,N,07032.4361688,W,1,16,0.9,14.384,M,-29.746,M,0.0,*50
###2023-12-09 12:28:57.721073$GNGGA,172856.90,4138.0386237,N,07032.4361652,W,1,16,0.9,14.404,M,-29.746,M,0.0,*52
###2023-12-09 12:28:57.925345$GNRMC,172857.10,A,4138.0386188,N,07032.4361640,W,0.04,,091223,,,A*4A
###2023-12-09 12:28:57.928499$GNGGA,172857.10,4138.0386188,N,07032.4361640,W,1,16,0.9,14.411,M,-29.746,M,0.0,*5B
###2023-12-09 12:28:57.930504$GPGSA,A,3,03,16,26,28,29,31,32,,,,,,1.6,0.9,1.3*3C
###2023-12-09 12:28:57.932311$GLGSA,A,3,71,72,73,75,,,,,,,,,1.6,0.9,1.3*27
###2023-12-09 12:28:57.933961$GAGSA,A,3,21,27,,,,,,,,,,,1.6,0.9,1.3*29
###2023-12-09 12:28:57.935680$GBGSA,A,3,14,26,33,,,,,,,,,,1.6,0.9,1.3*2D
###2023-12-09 12:28:57.938205$GPGSV,2,1,07,03,39,280,38,16,34,206,45,26,63,206,41,28,60,052,44*7B
###2023-12-09 12:28:57.940449$GPGSV,2,2,07,29,25,077,44,31,73,351,45,32,33,132,46,,,,*41
###2023-12-09 12:28:57.942992$GLGSV,1,1,04,71,60,168,48,72,63,315,42,73,51,031,46,75,19,238,41*65
###2023-12-09 12:28:57.944930$GAGSV,1,1,02,21,75,179,40,27,43,050,46,,,,,,,,*65
###2023-12-09 12:28:57.947164$GBGSV,1,1,03,14,57,199,44,26,37,056,46,33,64,260,40,,,,*5D
###2023-12-09 12:28:57.948536$GNVTG,,T,,M,0.04,N,0.07,K,A*3E
###2023-12-09 12:28:57.950387$GNGST,172857.10,32.000,,,,0.120,0.130,0.290*53
###2023-12-09 12:28:57.951894$GNZDA,172857.10,09,12,2023,00,00*7E
###2023-12-09 12:28:57.952764$GNEBP,,,,,,M*13
###2023-12-09 12:28:58.122958$GNGGA,172857.30,4138.0386123,N,07032.4361604,W,1,16,0.9,14.423,M,-29.746,M,0.0,*59
###2023-12-09 12:28:58.321702$GNGGA,172857.50,4138.0386073,N,07032.4361583,W,1,16,0.9,14.438,M,-29.746,M,0.0,*5D
###2023-12-09 12:28:58.520888$GNGGA,172857.70,4138.0386018,N,07032.4361578,W,1,16,0.9,14.452,M,-29.746,M,0.0,*5A
###2023-12-09 12:28:58.719992$GNGGA,172857.90,4138.0385973,N,07032.4361584,W,1,17,0.8,14.461,M,-29.746,M,0.0,*50
###2023-12-09 12:28:58.922540$GNRMC,172858.10,A,4138.0385915,N,07032.4361570,W,0.06,,091223,,,A*48
###2023-12-09 12:28:58.925708$GNGGA,172858.10,4138.0385915,N,07032.4361570,W,1,17,0.8,14.472,M,-29.746,M,0.0,*5E
###2023-12-09 12:28:58.927752$GPGSA,A,3,03,16,26,28,29,31,32,,,,,,1.4,0.8,1.2*3E
###2023-12-09 12:28:58.929599$GLGSA,A,3,71,72,73,75,,,,,,,,,1.4,0.8,1.2*25
###2023-12-09 12:28:58.931232$GAGSA,A,3,04,21,27,,,,,,,,,,1.4,0.8,1.2*2F
###2023-12-09 12:28:58.932798$GBGSA,A,3,14,26,33,,,,,,,,,,1.4,0.8,1.2*2F
###2023-12-09 12:28:58.935187$GPGSV,2,1,07,03,39,280,38,16,34,206,45,26,63,206,41,28,60,052,44*7B
###2023-12-09 12:28:58.937264$GPGSV,2,2,07,29,25,077,44,31,73,351,45,32,33,132,46,,,,*41
###2023-12-09 12:28:58.939649$GLGSV,1,1,04,71,60,168,48,72,63,315,42,73,51,031,46,75,19,238,41*65
###2023-12-09 12:28:58.941724$GAGSV,1,1,03,04,19,311,35,21,75,179,40,27,43,050,45,,,,*5E
###2023-12-09 12:28:58.943812$GBGSV,1,1,03,14,57,199,45,26,37,056,47,33,64,260,41,,,,*5C
###2023-12-09 12:28:58.944979$GNVTG,,T,,M,0.06,N,0.11,K,A*3B
###2023-12-09 12:28:58.946681$GNGST,172858.10,31.000,,,,0.120,0.130,0.290*5F
###2023-12-09 12:28:58.948030$GNZDA,172858.10,09,12,2023,00,00*71
###2023-12-09 12:28:58.948686$GNEBP,,,,,,M*13
###2023-12-09 12:28:59.122508$GNGGA,172858.30,4138.0385866,N,07032.4361547,W,1,16,0.9,14.483,M,-29.746,M,0.0,*53
###2023-12-09 12:28:59.322933$GNGGA,172858.50,4138.0385809,N,07032.4361527,W,1,16,0.9,14.495,M,-29.746,M,0.0,*5D
###2023-12-09 12:28:59.523258$GNGGA,172858.70,4138.0385742,N,07032.4361475,W,1,16,0.9,14.506,M,-29.746,M,0.0,*52
###2023-12-09 12:28:59.720967$GNGGA,172858.90,4138.0385687,N,07032.4361442,W,1,16,0.9,14.516,M,-29.746,M,0.0,*51
###2023-12-09 12:28:59.922680$GNRMC,172859.10,A,4138.0385625,N,07032.4361400,W,0.04,,091223,,,A*41
###2023-12-09 12:28:59.925781$GNGGA,172859.10,4138.0385625,N,07032.4361400,W,1,16,0.9,14.523,M,-29.746,M,0.0,*50
###2023-12-09 12:28:59.927782$GPGSA,A,3,03,16,26,28,29,31,32,,,,,,1.6,0.9,1.3*3C
###2023-12-09 12:28:59.929550$GLGSA,A,3,71,72,73,75,,,,,,,,,1.6,0.9,1.3*27
###2023-12-09 12:28:59.931186$GAGSA,A,3,21,27,,,,,,,,,,,1.6,0.9,1.3*29
###2023-12-09 12:28:59.932869$GBGSA,A,3,14,26,33,,,,,,,,,,1.6,0.9,1.3*2D
###2023-12-09 12:28:59.935382$GPGSV,2,1,07,03,39,280,37,16,34,206,45,26,63,206,41,28,60,052,44*74
###2023-12-09 12:28:59.937594$GPGSV,2,2,07,29,25,077,43,31,73,351,44,32,33,132,46,,,,*47
###2023-12-09 12:28:59.940099$GLGSV,1,1,04,71,60,168,48,72,63,315,42,73,51,031,45,75,19,238,41*66
###2023-12-09 12:28:59.942018$GAGSV,1,1,02,21,75,179,39,27,43,050,45,,,,,,,,*68
###2023-12-09 12:28:59.944234$GBGSV,1,1,03,14,57,199,45,26,37,056,47,33,64,260,41,,,,*5C
###2023-12-09 12:28:59.945530$GNVTG,,T,,M,0.04,N,0.07,K,A*3E
###2023-12-09 12:28:59.947388$GNGST,172859.10,32.000,,,,0.120,0.130,0.290*5D
###2023-12-09 12:28:59.948912$GNZDA,172859.10,09,12,2023,00,00*70
###2023-12-09 12:28:59.949719$GNEBP,,,,,,M*13
###2023-12-09 12:29:00.123676$GNGGA,172859.30,4138.0385552,N,07032.4361361,W,1,16,0.9,14.536,M,-29.746,M,0.0,*55
###2023-12-09 12:29:00.323149$GNGGA,172859.50,4138.0385496,N,07032.4361336,W,1,16,0.9,14.545,M,-29.746,M,0.0,*5C
###2023-12-09 12:29:00.523547$GNGGA,172859.70,4138.0385429,N,07032.4361285,W,1,16,0.9,14.557,M,-29.746,M,0.0,*50
###2023-12-09 12:29:00.722154$GNGGA,172859.90,4138.0385365,N,07032.4361251,W,1,16,0.9,14.563,M,-29.746,M,0.0,*5F
###2023-12-09 12:29:00.924143$GNRMC,172900.10,A,4138.0385303,N,07032.4361228,W,0.02,,091223,,,A*47
###2023-12-09 12:29:00.927047$GNGGA,172900.10,4138.0385303,N,07032.4361228,W,1,16,0.9,14.567,M,-29.746,M,0.0,*50
###2023-12-09 12:29:00.928869$GPGSA,A,3,03,16,26,28,29,31,32,,,,,,1.6,0.9,1.3*3C
###2023-12-09 12:29:00.930479$GLGSA,A,3,71,72,73,75,,,,,,,,,1.6,0.9,1.3*27
###2023-12-09 12:29:00.931974$GAGSA,A,3,21,27,,,,,,,,,,,1.6,0.9,1.3*29
###2023-12-09 12:29:00.933510$GBGSA,A,3,14,26,33,,,,,,,,,,1.6,0.9,1.3*2D
###2023-12-09 12:29:00.935889$GPGSV,2,1,07,03,39,280,36,16,34,206,45,26,63,206,41,28,60,052,44*75
###2023-12-09 12:29:00.937957$GPGSV,2,2,07,29,25,077,42,31,73,351,44,32,33,132,46,,,,*46
###2023-12-09 12:29:00.940338$GLGSV,1,1,04,71,60,168,47,72,63,315,42,73,51,031,45,75,19,238,40*68
###2023-12-09 12:29:00.942108$GAGSV,1,1,02,21,75,179,39,27,43,050,45,,,,,,,,*68
###2023-12-09 12:29:00.944176$GBGSV,1,1,03,14,57,199,45,26,37,056,46,33,64,260,41,,,,*5D
###2023-12-09 12:29:00.945326$GNVTG,,T,,M,0.02,N,0.04,K,A*3B
###2023-12-09 12:29:00.947032$GNGST,172900.10,32.000,,,,0.120,0.130,0.300*58
###2023-12-09 12:29:00.948364$GNZDA,172900.10,09,12,2023,00,00*7D
###2023-12-09 12:29:00.949027$GNEBP,,,,,,M*13
###2023-12-09 12:29:01.121845$GNGGA,172900.30,4138.0385242,N,07032.4361188,W,1,16,0.9,14.573,M,-29.746,M,0.0,*5A
###2023-12-09 12:29:01.322920$GNGGA,172900.50,4138.0385185,N,07032.4361145,W,1,16,0.9,14.587,M,-29.746,M,0.0,*5E
###2023-12-09 12:29:01.522992$GNGGA,172900.70,4138.0385122,N,07032.4361104,W,1,16,0.9,14.593,M,-29.746,M,0.0,*51
###2023-12-09 12:29:01.721620$GNGGA,172900.90,4138.0385060,N,07032.4361058,W,1,16,0.9,14.603,M,-29.746,M,0.0,*5A
###2023-12-09 12:29:01.924338$GNRMC,172901.10,A,4138.0385003,N,07032.4361014,W,0.04,,091223,,,A*4E
###2023-12-09 12:29:01.927420$GNGGA,172901.10,4138.0385003,N,07032.4361014,W,1,16,0.9,14.611,M,-29.746,M,0.0,*5D
###2023-12-09 12:29:01.929253$GPGSA,A,3,03,16,26,28,29,31,32,,,,,,1.6,0.9,1.3*3C
###2023-12-09 12:29:01.930891$GLGSA,A,3,71,72,73,75,,,,,,,,,1.6,0.9,1.3*27
###2023-12-09 12:29:01.932630$GAGSA,A,3,21,27,,,,,,,,,,,1.6,0.9,1.3*29
###2023-12-09 12:29:01.934177$GBGSA,A,3,14,26,33,,,,,,,,,,1.6,0.9,1.3*2D
###2023-12-09 12:29:01.936551$GPGSV,2,1,07,03,39,280,36,16,34,206,45,26,63,206,41,28,60,052,44*75
###2023-12-09 12:29:01.938635$GPGSV,2,2,07,29,25,077,42,31,73,351,44,32,33,132,47,,,,*47
###2023-12-09 12:29:01.940985$GLGSV,1,1,04,71,60,168,48,72,63,314,42,73,51,031,45,75,19,238,40*66
###2023-12-09 12:29:01.942771$GAGSV,1,1,02,21,75,179,39,27,43,050,45,,,,,,,,*68
###2023-12-09 12:29:01.944822$GBGSV,1,1,03,14,57,199,45,26,37,056,45,33,64,260,40,,,,*5F
###2023-12-09 12:29:01.945967$GNVTG,,T,,M,0.04,N,0.07,K,A*3E
