###2023-12-09 13:38:14.017587$GPGSV,2,2,08,27,18,172,44,28,37,086,46,29,20,046,43,31,58,068,47*75
###2023-12-09 13:38:14.020442$GLGSV,2,1,06,65,39,317,42,71,21,175,44,72,61,219,45,73,21,053,43*63
###2023-12-09 13:38:14.022579$GLGSV,2,2,06,74,59,016,41,75,44,273,46,,,,,,,,*68
###2023-12-09 13:38:14.025406$GAGSV,1,1,04,04,41,309,44,19,70,181,41,21,75,045,46,27,21,050,41*61
###2023-12-09 13:38:14.028234$GBGSV,2,1,06,12,16,125,39,14,28,189,41,24,62,047,48,25,52,277,44*63
###2023-12-09 13:38:14.030334$GBGSV,2,2,06,33,44,216,45,35,16,055,43,,,,,,,,*6F
###2023-12-09 13:38:14.031974$GNVTG,347.32,T,,M,2.99,N,5.54,K,A*24
###2023-12-09 13:38:14.033918$GNGST,183813.10,5.800,,,,0.110,0.097,0.220*65
###2023-12-09 13:38:14.035525$GNZDA,183813.10,09,12,2023,00,00*70
###2023-12-09 13:38:14.036294$GNEBP,,,,,,M*13
###2023-12-09 13:38:14.197179$GNGGA,183813.30,4138.0341762,N,07032.3931106,W,1,25,0.6,13.424,M,-29.745,M,0.0,*5E
###2023-12-09 13:38:14.395343$GNGGA,183813.50,4138.0343430,N,07032.3931733,W,1,25,0.6,13.425,M,-29.745,M,0.0,*5F
###2023-12-09 13:38:14.596197$GNGGA,183813.70,4138.0345197,N,07032.3932127,W,1,25,0.6,13.428,M,-29.745,M,0.0,*5E
###2023-12-09 13:38:14.795643$GNGGA,183813.90,4138.0346988,N,07032.3932222,W,1,25,0.6,13.414,M,-29.745,M,0.0,*5C
###2023-12-09 13:38:15.000858$GNRMC,183814.10,A,4138.0348757,N,07032.3932276,W,3.13,356.31,091223,,,A*56
###2023-12-09 13:38:15.004345$GNGGA,183814.10,4138.0348757,N,07032.3932276,W,1,25,0.6,13.412,M,-29.745,M,0.0,*56
###2023-12-09 13:38:15.006594$GPGSA,A,3,03,04,16,26,27,28,29,31,,,,,1.0,0.6,0.8*3F
###2023-12-09 13:38:15.008659$GLGSA,A,3,65,71,72,73,74,75,,,,,,,1.0,0.6,0.8*24
###2023-12-09 13:38:15.010577$GAGSA,A,3,04,19,21,27,,,,,,,,,1.0,0.6,0.8*26
###2023-12-09 13:38:15.012637$GBGSA,A,3,12,14,24,25,33,35,,,,,,,1.0,0.6,0.8*2E
###2023-12-09 13:38:15.015452$GPGSV,2,1,08,03,25,245,42,04,48,307,45,16,68,224,46,26,82,040,48*77
###2023-12-09 13:38:15.018258$GPGSV,2,2,08,27,18,172,43,28,37,086,44,29,20,046,41,31,58,068,47*72
###2023-12-09 13:38:15.021085$GLGSV,2,1,06,65,39,317,43,71,21,175,44,72,61,219,46,73,21,053,41*63
###2023-12-09 13:38:15.023217$GLGSV,2,2,06,74,59,016,40,75,44,273,48,,,,,,,,*67
###2023-12-09 13:38:15.026026$GAGSV,1,1,04,04,41,309,44,19,70,181,41,21,75,045,45,27,21,050,38*6C
###2023-12-09 13:38:15.028845$GBGSV,2,1,06,12,16,125,39,14,28,189,41,24,62,047,47,25,52,277,47*6F
###2023-12-09 13:38:15.030966$GBGSV,2,2,06,33,44,216,44,35,16,055,41,,,,,,,,*6C
###2023-12-09 13:38:15.032558$GNVTG,356.31,T,,M,3.13,N,5.80,K,A*2D
###2023-12-09 13:38:15.034504$GNGST,183814.10,6.000,,,,0.110,0.096,0.220*68
###2023-12-09 13:38:15.036088$GNZDA,183814.10,09,12,2023,00,00*77
###2023-12-09 13:38:15.036860$GNEBP,,,,,,M*13
###2023-12-09 13:38:15.200355$GNGGA,183814.30,4138.0350524,N,07032.3932459,W,1,25,0.6,13.424,M,-29.745,M,0.0,*55
###2023-12-09 13:38:15.397134$GNGGA,183814.50,4138.0352307,N,07032.3932521,W,1,25,0.6,13.427,M,-29.745,M,0.0,*5B
###2023-12-09 13:38:15.600550$GNGGA,183814.70,4138.0354035,N,07032.3932094,W,1,25,0.6,13.431,M,-29.745,M,0.0,*51
###2023-12-09 13:38:15.797771$GNGGA,183814.90,4138.0355742,N,07032.3931616,W,1,24,0.6,13.430,M,-29.745,M,0.0,*56
###2023-12-09 13:38:16.001186$GNRMC,183815.10,A,4138.0357416,N,07032.3931412,W,3.03,2.49,091223,,,A*54
###2023-12-09 13:38:16.004645$GNGGA,183815.10,4138.0357416,N,07032.3931412,W,1,24,0.6,13.414,M,-29.745,M,0.0,*5F
###2023-12-09 13:38:16.006895$GPGSA,A,3,03,04,16,26,27,28,29,31,,,,,1.1,0.6,0.9*3F
###2023-12-09 13:38:16.008963$GLGSA,A,3,65,71,72,73,74,75,,,,,,,1.1,0.6,0.9*24
###2023-12-09 13:38:16.010883$GAGSA,A,3,04,19,21,27,,,,,,,,,1.1,0.6,0.9*26
###2023-12-09 13:38:16.012941$GBGSA,A,3,12,14,24,25,33,35,,,,,,,1.1,0.6,0.9*2E
###2023-12-09 13:38:16.015750$GPGSV,2,1,08,03,25,245,43,04,48,307,44,16,68,224,46,26,82,040,48*77
###2023-12-09 13:38:16.018560$GPGSV,2,2,08,27,18,172,43,28,37,086,45,29,20,046,39,31,58,068,46*7D
###2023-12-09 13:38:16.021378$GLGSV,2,1,06,65,39,317,42,71,21,175,45,72,61,219,47,73,21,053,41*62
###2023-12-09 13:38:16.023506$GLGSV,2,2,06,74,59,016,41,75,44,273,47,,,,,,,,*69
###2023-12-09 13:38:16.026317$GAGSV,1,1,04,04,41,309,43,19,70,181,41,21,75,045,45,27,21,050,38*6B
###2023-12-09 13:38:16.029177$GBGSV,2,1,06,12,16,125,42,14,28,189,40,24,62,047,48,25,52,277,47*6D
###2023-12-09 13:38:16.031307$GBGSV,2,2,06,33,44,216,46,35,16,055,42,,,,,,,,*6D
###2023-12-09 13:38:16.032820$GNVTG,2.49,T,,M,3.03,N,5.62,K,A*2D
###2023-12-09 13:38:16.034778$GNGST,183815.10,5.500,,,,0.110,0.096,0.220*6F
###2023-12-09 13:38:16.036332$GNZDA,183815.10,09,12,2023,00,00*76
###2023-12-09 13:38:16.037097$GNEBP,,,,,,M*13
###2023-12-09 13:38:16.197801$GNGGA,183815.30,4138.0359068,N,07032.3931320,W,1,25,0.6,13.404,M,-29.745,M,0.0,*58
###2023-12-09 13:38:16.398188$GNGGA,183815.50,4138.0360715,N,07032.3931167,W,1,25,0.6,13.423,M,-29.745,M,0.0,*5D
###2023-12-09 13:38:16.595925$GNGGA,183815.70,4138.0362442,N,07032.3930808,W,1,25,0.6,13.445,M,-29.745,M,0.0,*5D
###2023-12-09 13:38:16.798991$GNGGA,183815.90,4138.0364191,N,07032.3930590,W,1,25,0.6,13.435,M,-29.745,M,0.0,*55
###2023-12-09 13:38:17.002473$GNRMC,183816.10,A,4138.0365919,N,07032.3930580,W,3.05,357.00,091223,,,A*57
###2023-12-09 13:38:17.005348$GNGGA,183816.10,4138.0365919,N,07032.3930580,W,1,25,0.6,13.410,M,-29.745,M,0.0,*51
###2023-12-09 13:38:17.007227$GPGSA,A,3,03,04,16,26,27,28,29,31,,,,,1.0,0.6,0.8*3F
###2023-12-09 13:38:17.008944$GLGSA,A,3,65,71,72,73,74,75,,,,,,,1.0,0.6,0.8*24
###2023-12-09 13:38:17.010529$GAGSA,A,3,04,19,21,27,,,,,,,,,1.0,0.6,0.8*26
###2023-12-09 13:38:17.012239$GBGSA,A,3,12,14,24,25,33,35,,,,,,,1.0,0.6,0.8*2E
###2023-12-09 13:38:17.014572$GPGSV,2,1,08,03,25,245,42,04,48,307,45,16,68,224,46,26,82,040,48*77
###2023-12-09 13:38:17.016904$GPGSV,2,2,08,27,18,172,43,28,37,086,45,29,20,046,41,31,58,068,47*73
###2023-12-09 13:38:17.019237$GLGSV,2,1,06,65,39,317,42,71,21,175,43,72,61,219,46,73,21,053,41*65
###2023-12-09 13:38:17.020983$GLGSV,2,2,06,74,59,016,41,75,44,273,47,,,,,,,,*69
###2023-12-09 13:38:17.023312$GAGSV,1,1,04,04,41,309,44,19,70,181,41,21,75,045,46,27,21,050,40*60
###2023-12-09 13:38:17.025640$GBGSV,2,1,06,12,16,125,42,14,28,189,41,24,62,047,47,25,52,277,47*63
###2023-12-09 13:38:17.027387$GBGSV,2,2,06,33,44,216,46,35,16,055,44,,,,,,,,*6B
###2023-12-09 13:38:17.028705$GNVTG,357.00,T,,M,3.05,N,5.65,K,A*22
###2023-12-09 13:38:17.030316$GNGST,183816.10,5.800,,,,0.110,0.096,0.220*61
###2023-12-09 13:38:17.031612$GNZDA,183816.10,09,12,2023,00,00*75
###2023-12-09 13:38:17.032249$GNEBP,,,,,,M*13
###2023-12-09 13:38:17.199845$GNGGA,183816.30,4138.0367613,N,07032.3930737,W,1,25,0.6,13.391,M,-29.745,M,0.0,*54
###2023-12-09 13:38:17.398522$GNGGA,183816.50,4138.0369354,N,07032.3930605,W,1,25,0.6,13.385,M,-29.745,M,0.0,*5F
###2023-12-09 13:38:17.598496$GNGGA,183816.70,4138.0371113,N,07032.3930538,W,1,25,0.6,13.402,M,-29.745,M,0.0,*50
###2023-12-09 13:38:17.798070$GNGGA,183816.90,4138.0372908,N,07032.3930746,W,1,25,0.6,13.413,M,-29.745,M,0.0,*54
###2023-12-09 13:38:18.001939$GNRMC,183817.10,A,4138.0374719,N,07032.3931107,W,3.38,350.69,091223,,,A*54
###2023-12-09 13:38:18.004813$GNGGA,183817.10,4138.0374719,N,07032.3931107,W,1,25,0.6,13.400,M,-29.745,M,0.0,*55
###2023-12-09 13:38:18.006681$GPGSA,A,3,03,04,16,26,27,28,29,31,,,,,1.1,0.6,0.9*3F
###2023-12-09 13:38:18.008389$GLGSA,A,3,65,71,72,73,74,75,,,,,,,1.1,0.6,0.9*24
###2023-12-09 13:38:18.009970$GAGSA,A,3,04,19,21,27,,,,,,,,,1.1,0.6,0.9*26
###2023-12-09 13:38:18.011724$GBGSA,A,3,12,14,24,25,33,35,,,,,,,1.1,0.6,0.9*2E
###2023-12-09 13:38:18.014049$GPGSV,2,1,08,03,25,245,42,04,48,307,44,16,68,224,46,26,82,040,48*76
###2023-12-09 13:38:18.016384$GPGSV,2,2,08,27,18,172,44,28,37,086,45,29,20,046,41,31,58,068,46*75
###2023-12-09 13:38:18.018710$GLGSV,2,1,06,65,39,317,43,71,21,175,44,72,61,219,47,73,21,053,41*62
###2023-12-09 13:38:18.020450$GLGSV,2,2,06,74,59,016,41,75,44,273,47,,,,,,,,*69
###2023-12-09 13:38:18.022779$GAGSV,1,1,04,04,41,309,44,19,70,181,41,21,75,045,45,27,21,050,40*63
###2023-12-09 13:38:18.025094$GBGSV,2,1,06,12,16,125,41,14,28,189,42,24,62,047,48,25,52,277,47*6C
###2023-12-09 13:38:18.026839$GBGSV,2,2,06,33,44,216,46,35,16,055,43,,,,,,,,*6C
###2023-12-09 13:38:18.028389$GNVTG,350.69,T,,M,3.38,N,6.26,K,A*20
###2023-12-09 13:38:18.029996$GNGST,183817.10,5.900,,,,0.110,0.095,0.210*61
###2023-12-09 13:38:18.031294$GNZDA,183817.10,09,12,2023,00,00*74
###2023-12-09 13:38:18.031931$GNEBP,,,,,,M*13
###2023-12-09 13:38:18.201968$GNGGA,183817.30,4138.0376562,N,07032.3931386,W,1,25,0.6,13.389,M,-29.745,M,0.0,*56
###2023-12-09 13:38:18.397481$GNGGA,183817.50,4138.0378373,N,07032.3931647,W,1,25,0.6,13.379,M,-29.745,M,0.0,*5F
###2023-12-09 13:38:18.598347$GNGGA,183817.70,4138.0380124,N,07032.3932018,W,1,25,0.6,13.376,M,-29.745,M,0.0,*5A
###2023-12-09 13:38:18.802391$GNGGA,183817.90,4138.0381821,N,07032.3932516,W,1,25,0.6,13.364,M,-29.745,M,0.0,*51
###2023-12-09 13:38:19.003964$GNRMC,183818.10,A,4138.0383466,N,07032.3932977,W,3.03,349.22,091223,,,A*5B
###2023-12-09 13:38:19.006814$GNGGA,183818.10,4138.0383466,N,07032.3932977,W,1,25,0.6,13.352,M,-29.745,M,0.0,*55
