###2023-12-09 12:37:49.961020$GBGSV,2,1,05,14,54,197,45,24,80,351,47,25,33,253,44,26,34,058,44*60
###2023-12-09 12:37:49.962506$GBGSV,2,2,05,33,63,252,48,,,,,,,,,,,,*52
###2023-12-09 12:37:49.963851$GNVTG,280.04,T,,M,0.52,N,0.97,K,A*24
###2023-12-09 12:37:49.965514$GNGST,173749.10,19.000,,,,0.083,0.072,0.170*59
###2023-12-09 12:37:49.966822$GNZDA,173749.10,09,12,2023,00,00*7F
###2023-12-09 12:37:49.967464$GNEBP,,,,,,M*13
###2023-12-09 12:37:50.137681$GNGGA,173749.30,4138.0627284,N,07032.3837333,W,1,23,0.7,13.532,M,-29.744,M,0.0,*5A
###2023-12-09 12:37:50.337642$GNGGA,173749.50,4138.0627262,N,07032.3837651,W,1,23,0.7,13.543,M,-29.744,M,0.0,*53
###2023-12-09 12:37:50.538213$GNGGA,173749.70,4138.0627289,N,07032.3838121,W,1,23,0.7,13.571,M,-29.744,M,0.0,*5A
###2023-12-09 12:37:50.738351$GNGGA,173749.90,4138.0627327,N,07032.3838562,W,1,23,0.7,13.581,M,-29.744,M,0.0,*5D
###2023-12-09 12:37:50.938967$GNRMC,173750.10,A,4138.0627291,N,07032.3838713,W,0.08,280.04,091223,,,A*5D
###2023-12-09 12:37:50.941841$GNGGA,173750.10,4138.0627291,N,07032.3838713,W,1,23,0.7,13.566,M,-29.744,M,0.0,*5C
###2023-12-09 12:37:50.943720$GPGSA,A,3,03,04,16,26,28,29,31,32,,,,,1.2,0.7,1.0*31
###2023-12-09 12:37:50.945373$GLGSA,A,3,71,72,73,74,75,,,,,,,,1.2,0.7,1.0*2D
###2023-12-09 12:37:50.946983$GAGSA,A,3,04,19,21,27,,,,,,,,,1.2,0.7,1.0*2C
###2023-12-09 12:37:50.948648$GBGSA,A,3,14,24,25,26,33,,,,,,,,1.2,0.7,1.0*25
###2023-12-09 12:37:50.950982$GPGSV,2,1,08,03,38,275,46,04,23,311,43,16,38,208,45,26,67,207,48*72
###2023-12-09 12:37:50.953306$GPGSV,2,2,08,28,57,057,47,29,25,073,41,31,73,004,50,32,29,134,46*7C
###2023-12-09 12:37:50.955643$GLGSV,2,1,05,71,55,169,47,72,67,307,47,73,46,034,46,74,71,296,43*67
###2023-12-09 12:37:50.957095$GLGSV,2,2,05,75,23,242,41,,,,,,,,,,,,*52
###2023-12-09 12:37:50.959423$GAGSV,1,1,04,04,21,311,42,19,82,299,42,21,78,175,47,27,41,049,44*69
###2023-12-09 12:37:50.961737$GBGSV,2,1,05,14,54,197,44,24,80,351,48,25,33,253,43,26,34,058,43*6E
###2023-12-09 12:37:50.963235$GBGSV,2,2,05,33,63,252,47,,,,,,,,,,,,*5D
###2023-12-09 12:37:50.964556$GNVTG,280.04,T,,M,0.08,N,0.14,K,A*20
###2023-12-09 12:37:50.966197$GNGST,173750.10,19.000,,,,0.083,0.072,0.170*51
###2023-12-09 12:37:50.967494$GNZDA,173750.10,09,12,2023,00,00*77
###2023-12-09 12:37:50.968129$GNEBP,,,,,,M*13
###2023-12-09 12:37:51.138411$GNGGA,173750.30,4138.0627258,N,07032.3838875,W,1,23,0.7,13.552,M,-29.744,M,0.0,*53
###2023-12-09 12:37:51.336573$GNGGA,173750.50,4138.0627311,N,07032.3839412,W,1,23,0.7,13.564,M,-29.744,M,0.0,*50
###2023-12-09 12:37:51.538291$GNGGA,173750.70,4138.0627405,N,07032.3840059,W,1,23,0.7,13.569,M,-29.744,M,0.0,*58
###2023-12-09 12:37:51.741361$GNGGA,173750.90,4138.0627399,N,07032.3840385,W,1,23,0.7,13.577,M,-29.744,M,0.0,*59
###2023-12-09 12:37:51.937539$GNRMC,173751.10,A,4138.0627358,N,07032.3840473,W,0.14,280.04,091223,,,A*5F
###2023-12-09 12:37:51.940412$GNGGA,173751.10,4138.0627358,N,07032.3840473,W,1,23,0.7,13.578,M,-29.744,M,0.0,*5C
###2023-12-09 12:37:51.942269$GPGSA,A,3,03,04,16,26,28,29,31,32,,,,,1.2,0.7,1.0*31
###2023-12-09 12:37:51.943927$GLGSA,A,3,71,72,73,74,75,,,,,,,,1.2,0.7,1.0*2D
###2023-12-09 12:37:51.945512$GAGSA,A,3,04,19,21,27,,,,,,,,,1.2,0.7,1.0*2C
###2023-12-09 12:37:51.947185$GBGSA,A,3,14,24,25,26,33,,,,,,,,1.2,0.7,1.0*25
###2023-12-09 12:37:51.949543$GPGSV,2,1,08,03,38,275,45,04,23,311,41,16,38,208,44,26,67,207,48*72
###2023-12-09 12:37:51.951896$GPGSV,2,2,08,28,57,057,46,29,25,073,42,31,73,004,49,32,29,134,45*75
###2023-12-09 12:37:51.954234$GLGSV,2,1,05,71,55,169,47,72,67,307,47,73,46,034,46,74,71,296,43*67
###2023-12-09 12:37:51.955711$GLGSV,2,2,05,75,23,242,38,,,,,,,,,,,,*5C
###2023-12-09 12:37:51.958050$GAGSV,1,1,04,04,21,311,42,19,82,299,41,21,78,175,46,27,41,049,44*6B
###2023-12-09 12:37:51.960414$GBGSV,2,1,05,14,54,197,45,24,80,351,48,25,33,253,45,26,34,058,44*6E
###2023-12-09 12:37:51.961876$GBGSV,2,2,05,33,63,252,48,,,,,,,,,,,,*52
###2023-12-09 12:37:51.963219$GNVTG,280.04,T,,M,0.14,N,0.25,K,A*2F
###2023-12-09 12:37:51.964869$GNGST,173751.10,19.000,,,,0.082,0.071,0.170*52
###2023-12-09 12:37:51.966160$GNZDA,173751.10,09,12,2023,00,00*76
###2023-12-09 12:37:51.966819$GNEBP,,,,,,M*13
###2023-12-09 12:37:52.137345$GNGGA,173751.30,4138.0627358,N,07032.3840729,W,1,23,0.7,13.564,M,-29.744,M,0.0,*5F
###2023-12-09 12:37:52.338992$GNGGA,173751.50,4138.0627422,N,07032.3841323,W,1,23,0.7,13.575,M,-29.744,M,0.0,*5C
###2023-12-09 12:37:52.539432$GNGGA,173751.70,4138.0627506,N,07032.3841964,W,1,23,0.7,13.574,M,-29.744,M,0.0,*51
###2023-12-09 12:37:52.738427$GNGGA,173751.90,4138.0627473,N,07032.3842216,W,1,23,0.7,13.568,M,-29.744,M,0.0,*5C
###2023-12-09 12:37:52.939230$GNRMC,173752.10,A,4138.0627407,N,07032.3842244,W,0.17,280.04,091223,,,A*52
###2023-12-09 12:37:52.942077$GNGGA,173752.10,4138.0627407,N,07032.3842244,W,1,23,0.7,13.566,M,-29.744,M,0.0,*5D
###2023-12-09 12:37:52.943947$GPGSA,A,3,03,04,16,26,28,29,31,32,,,,,1.2,0.7,1.0*31
###2023-12-09 12:37:52.945599$GLGSA,A,3,71,72,73,74,75,,,,,,,,1.2,0.7,1.0*2D
###2023-12-09 12:37:52.947210$GAGSA,A,3,04,19,21,27,,,,,,,,,1.2,0.7,1.0*2C
###2023-12-09 12:37:52.948870$GBGSA,A,3,14,24,25,26,33,,,,,,,,1.2,0.7,1.0*25
###2023-12-09 12:37:52.951227$GPGSV,2,1,08,03,38,275,45,04,23,311,41,16,38,208,43,26,67,207,47*7A
###2023-12-09 12:37:52.953575$GPGSV,2,2,08,28,57,057,46,29,25,073,42,31,73,004,48,32,29,134,46*77
###2023-12-09 12:37:52.955930$GLGSV,2,1,05,71,55,169,47,72,67,307,47,73,46,034,47,74,71,296,43*66
###2023-12-09 12:37:52.957391$GLGSV,2,2,05,75,23,242,40,,,,,,,,,,,,*53
###2023-12-09 12:37:52.959739$GAGSV,1,1,04,04,21,311,42,19,82,299,41,21,78,175,46,27,41,049,44*6B
###2023-12-09 12:37:52.962080$GBGSV,2,1,05,14,54,197,44,24,80,351,47,25,33,253,44,26,34,058,43*66
###2023-12-09 12:37:52.963553$GBGSV,2,2,05,33,63,252,48,,,,,,,,,,,,*52
###2023-12-09 12:37:52.964880$GNVTG,280.04,T,,M,0.17,N,0.32,K,A*2A
###2023-12-09 12:37:52.966532$GNGST,173752.10,19.000,,,,0.082,0.070,0.170*50
###2023-12-09 12:37:52.967838$GNZDA,173752.10,09,12,2023,00,00*75
###2023-12-09 12:37:52.968482$GNEBP,,,,,,M*13
###2023-12-09 12:37:53.137315$GNGGA,173752.30,4138.0627441,N,07032.3842622,W,1,23,0.7,13.577,M,-29.744,M,0.0,*59
###2023-12-09 12:37:53.338460$GNGGA,173752.50,4138.0627577,N,07032.3843427,W,1,23,0.7,13.591,M,-29.744,M,0.0,*55
###2023-12-09 12:37:53.536960$GNGGA,173752.70,4138.0627639,N,07032.3844020,W,1,23,0.7,13.586,M,-29.744,M,0.0,*5C
###2023-12-09 12:37:53.740213$GNGGA,173752.90,4138.0627578,N,07032.3844055,W,1,23,0.7,13.563,M,-29.744,M,0.0,*5D
###2023-12-09 12:37:53.938819$GNRMC,173753.10,A,4138.0627500,N,07032.3844052,W,0.43,284.82,091223,,,A*5D
###2023-12-09 12:37:53.941684$GNGGA,173753.10,4138.0627500,N,07032.3844052,W,1,23,0.7,13.540,M,-29.744,M,0.0,*5D
###2023-12-09 12:37:53.943563$GPGSA,A,3,03,04,16,26,28,29,31,32,,,,,1.2,0.7,1.0*31
###2023-12-09 12:37:53.945216$GLGSA,A,3,71,72,73,74,75,,,,,,,,1.2,0.7,1.0*2D
###2023-12-09 12:37:53.946830$GAGSA,A,3,04,19,21,27,,,,,,,,,1.2,0.7,1.0*2C
###2023-12-09 12:37:53.948521$GBGSA,A,3,14,24,25,26,33,,,,,,,,1.2,0.7,1.0*25
###2023-12-09 12:37:53.950900$GPGSV,2,1,08,03,38,275,42,04,23,311,39,16,38,208,44,26,67,207,47*75
###2023-12-09 12:37:53.953238$GPGSV,2,2,08,28,57,057,47,29,25,073,43,31,73,004,47,32,29,134,46*78
###2023-12-09 12:37:53.955580$GLGSV,2,1,05,71,55,169,47,72,67,307,45,73,46,034,47,74,71,296,43*64
###2023-12-09 12:37:53.957030$GLGSV,2,2,05,75,23,242,41,,,,,,,,,,,,*52
###2023-12-09 12:37:53.959380$GAGSV,1,1,04,04,21,311,40,19,82,299,41,21,78,175,46,27,41,049,44*69
###2023-12-09 12:37:53.961716$GBGSV,2,1,05,14,54,197,45,24,80,351,48,25,33,253,43,26,34,058,44*68
###2023-12-09 12:37:53.963193$GBGSV,2,2,05,33,63,252,47,,,,,,,,,,,,*5D
###2023-12-09 12:37:53.964521$GNVTG,284.82,T,,M,0.43,N,0.79,K,A*2E
###2023-12-09 12:37:53.966172$GNGST,173753.10,19.000,,,,0.081,0.070,0.170*52
###2023-12-09 12:37:53.967486$GNZDA,173753.10,09,12,2023,00,00*74
###2023-12-09 12:37:53.968128$GNEBP,,,,,,M*13
###2023-12-09 12:37:54.138839$GNGGA,173753.30,4138.0627593,N,07032.3844727,W,1,23,0.7,13.567,M,-29.744,M,0.0,*55
###2023-12-09 12:37:54.339009$GNGGA,173753.50,4138.0627771,N,07032.3845621,W,1,23,0.7,13.583,M,-29.744,M,0.0,*51
###2023-12-09 12:37:54.539342$GNGGA,173753.70,4138.0627819,N,07032.3846036,W,1,23,0.7,13.577,M,-29.744,M,0.0,*5A
###2023-12-09 12:37:54.738058$GNGGA,173753.90,4138.0627728,N,07032.3845945,W,1,23,0.7,13.557,M,-29.744,M,0.0,*55
###2023-12-09 12:37:54.940273$GNRMC,173754.10,A,4138.0627693,N,07032.3846098,W,0.66,286.73,091223,,,A*5C
###2023-12-09 12:37:54.943135$GNGGA,173754.10,4138.0627693,N,07032.3846098,W,1,23,0.7,13.527,M,-29.744,M,0.0,*56
###2023-12-09 12:37:54.944996$GPGSA,A,3,03,04,16,26,28,29,31,32,,,,,1.2,0.7,1.0*31
###2023-12-09 12:37:54.946678$GLGSA,A,3,71,72,73,74,75,,,,,,,,1.2,0.7,1.0*2D
###2023-12-09 12:37:54.948314$GAGSA,A,3,04,19,21,27,,,,,,,,,1.2,0.7,1.0*2C
###2023-12-09 12:37:54.949991$GBGSA,A,3,14,24,25,26,33,,,,,,,,1.2,0.7,1.0*25
