###2023-12-09 13:44:05.013401$GBGSA,A,3,12,24,25,35,,,,,,,,,1.3,0.8,1.1*2E
###2023-12-09 13:44:05.015772$GPGSV,2,1,06,04,50,305,44,16,71,227,40,26,79,041,41,28,35,088,42*79
###2023-12-09 13:44:05.017527$GPGSV,2,2,06,29,18,043,41,31,56,072,50,,,,,,,,*7E
###2023-12-09 13:44:05.019878$GLGSV,2,1,05,65,42,314,43,73,19,055,43,74,56,021,35,75,46,277,43*6C
###2023-12-09 13:44:05.021342$GLGSV,2,2,05,83,16,043,35,,,,,,,,,,,,*5D
###2023-12-09 13:44:05.023393$GAGSV,1,1,03,04,43,308,45,21,73,044,38,27,19,051,40,,,,*53
###2023-12-09 13:44:05.025720$GBGSV,1,1,04,12,18,124,41,24,60,050,45,25,53,280,45,35,16,053,37*6A
###2023-12-09 13:44:05.027066$GNVTG,243.17,T,,M,0.02,N,0.04,K,A*26
###2023-12-09 13:44:05.028680$GNGST,184404.10,7.200,,,,0.210,0.120,0.310*6C
###2023-12-09 13:44:05.029968$GNZDA,184404.10,09,12,2023,00,00*7D
###2023-12-09 13:44:05.030617$GNEBP,,,,,,M*13
###2023-12-09 13:44:05.199683$GNGGA,184404.30,4138.0390488,N,07032.4387773,W,1,18,0.8,14.271,M,-29.746,M,0.0,*5E
###2023-12-09 13:44:05.399332$GNGGA,184404.50,4138.0390465,N,07032.4387791,W,1,18,0.8,14.255,M,-29.746,M,0.0,*51
###2023-12-09 13:44:05.599205$GNGGA,184404.70,4138.0390454,N,07032.4387821,W,1,18,0.8,14.244,M,-29.746,M,0.0,*55
###2023-12-09 13:44:05.800094$GNGGA,184404.90,4138.0390455,N,07032.4387833,W,1,18,0.8,14.236,M,-29.746,M,0.0,*5C
###2023-12-09 13:44:06.004530$GNRMC,184405.10,A,4138.0390441,N,07032.4387865,W,0.06,243.17,091223,,,A*51
###2023-12-09 13:44:06.007414$GNGGA,184405.10,4138.0390441,N,07032.4387865,W,1,18,0.8,14.223,M,-29.746,M,0.0,*57
###2023-12-09 13:44:06.009137$GPGSA,A,3,04,16,26,28,29,31,,,,,,,1.3,0.8,1.1*3C
###2023-12-09 13:44:06.010796$GLGSA,A,3,65,73,74,75,83,,,,,,,,1.3,0.8,1.1*29
###2023-12-09 13:44:06.012315$GAGSA,A,3,04,21,27,,,,,,,,,,1.3,0.8,1.1*2B
###2023-12-09 13:44:06.013896$GBGSA,A,3,12,24,25,35,,,,,,,,,1.3,0.8,1.1*2E
###2023-12-09 13:44:06.016232$GPGSV,2,1,06,04,50,305,44,16,71,227,40,26,79,041,41,28,35,088,42*79
###2023-12-09 13:44:06.017980$GPGSV,2,2,06,29,18,043,41,31,56,072,50,,,,,,,,*7E
###2023-12-09 13:44:06.020319$GLGSV,2,1,05,65,42,314,43,73,19,055,44,74,56,021,35,75,46,277,43*6B
###2023-12-09 13:44:06.021772$GLGSV,2,2,05,83,16,043,35,,,,,,,,,,,,*5D
###2023-12-09 13:44:06.023848$GAGSV,1,1,03,04,43,308,44,21,73,044,37,27,19,051,40,,,,*5D
###2023-12-09 13:44:06.026180$GBGSV,1,1,04,12,18,124,41,24,60,050,45,25,53,280,45,35,16,053,37*6A
###2023-12-09 13:44:06.027521$GNVTG,243.17,T,,M,0.06,N,0.11,K,A*26
###2023-12-09 13:44:06.029138$GNGST,184405.10,7.500,,,,0.210,0.120,0.310*6A
###2023-12-09 13:44:06.030429$GNZDA,184405.10,09,12,2023,00,00*7C
###2023-12-09 13:44:06.031078$GNEBP,,,,,,M*13
###2023-12-09 13:44:06.199881$GNGGA,184405.30,4138.0390457,N,07032.4387873,W,1,18,0.8,14.218,M,-29.746,M,0.0,*5D
###2023-12-09 13:44:06.400271$GNGGA,184405.50,4138.0390468,N,07032.4387899,W,1,18,0.8,14.208,M,-29.746,M,0.0,*52
###2023-12-09 13:44:06.597928$GNGGA,184405.70,4138.0390484,N,07032.4387910,W,1,17,0.8,14.202,M,-29.746,M,0.0,*57
###2023-12-09 13:44:06.797722$GNGGA,184405.90,4138.0390483,N,07032.4387937,W,1,18,0.8,14.192,M,-29.746,M,0.0,*5E
###2023-12-09 13:44:07.003394$GNRMC,184406.10,A,4138.0390480,N,07032.4387948,W,0.02,243.17,091223,,,A*55
###2023-12-09 13:44:07.006245$GNGGA,184406.10,4138.0390480,N,07032.4387948,W,1,17,0.8,14.187,M,-29.746,M,0.0,*55
###2023-12-09 13:44:07.007984$GPGSA,A,3,04,16,26,28,29,31,,,,,,,1.4,0.8,1.1*3B
###2023-12-09 13:44:07.009569$GLGSA,A,3,65,73,75,83,,,,,,,,,1.4,0.8,1.1*2D
###2023-12-09 13:44:07.011099$GAGSA,A,3,04,21,27,,,,,,,,,,1.4,0.8,1.1*2C
###2023-12-09 13:44:07.012681$GBGSA,A,3,12,24,25,35,,,,,,,,,1.4,0.8,1.1*29
###2023-12-09 13:44:07.015017$GPGSV,2,1,06,04,50,305,44,16,71,227,40,26,79,041,41,28,35,088,41*7A
###2023-12-09 13:44:07.016765$GPGSV,2,2,06,29,18,043,41,31,56,072,49,,,,,,,,*76
###2023-12-09 13:44:07.019096$GLGSV,1,1,04,65,42,314,43,73,19,055,44,75,46,277,43,83,16,043,35*61
###2023-12-09 13:44:07.021127$GAGSV,1,1,03,04,43,308,44,21,73,044,37,27,19,051,40,,,,*5D
###2023-12-09 13:44:07.023459$GBGSV,1,1,04,12,18,124,41,24,60,050,46,25,53,280,45,35,16,053,37*69
###2023-12-09 13:44:07.024787$GNVTG,243.17,T,,M,0.02,N,0.04,K,A*26
###2023-12-09 13:44:07.026400$GNGST,184406.10,6.600,,,,0.210,0.120,0.310*6B
###2023-12-09 13:44:07.027706$GNZDA,184406.10,09,12,2023,00,00*7F
###2023-12-09 13:44:07.028344$GNEBP,,,,,,M*13
###2023-12-09 13:44:07.199157$GNGGA,184406.30,4138.0390497,N,07032.4387960,W,1,17,0.8,14.178,M,-29.746,M,0.0,*5B
###2023-12-09 13:44:07.398800$GNGGA,184406.50,4138.0390499,N,07032.4387973,W,1,17,0.8,14.170,M,-29.746,M,0.0,*59
###2023-12-09 13:44:07.597292$GNGGA,184406.70,4138.0390491,N,07032.4387992,W,1,18,0.8,14.162,M,-29.746,M,0.0,*50
###2023-12-09 13:44:07.798782$GNGGA,184406.90,4138.0390495,N,07032.4388012,W,1,18,0.8,14.154,M,-29.746,M,0.0,*51
###2023-12-09 13:44:08.001199$GNRMC,184407.10,A,4138.0390509,N,07032.4388023,W,0.02,243.17,091223,,,A*5F
###2023-12-09 13:44:08.004171$GNGGA,184407.10,4138.0390509,N,07032.4388023,W,1,18,0.8,14.150,M,-29.746,M,0.0,*5A
###2023-12-09 13:44:08.005911$GPGSA,A,3,04,16,26,28,29,31,,,,,,,1.3,0.8,1.1*3C
###2023-12-09 13:44:08.007581$GLGSA,A,3,65,73,74,75,83,,,,,,,,1.3,0.8,1.1*29
###2023-12-09 13:44:08.009105$GAGSA,A,3,04,21,27,,,,,,,,,,1.3,0.8,1.1*2B
###2023-12-09 13:44:08.010696$GBGSA,A,3,12,24,25,35,,,,,,,,,1.3,0.8,1.1*2E
###2023-12-09 13:44:08.013033$GPGSV,2,1,06,04,50,305,45,16,71,227,40,26,79,041,41,28,35,088,42*78
###2023-12-09 13:44:08.014801$GPGSV,2,2,06,29,18,043,41,31,56,072,50,,,,,,,,*7E
###2023-12-09 13:44:08.017143$GLGSV,2,1,05,65,42,314,43,73,19,055,44,74,56,021,35,75,46,277,44*6C
###2023-12-09 13:44:08.018618$GLGSV,2,2,05,83,16,043,36,,,,,,,,,,,,*5E
###2023-12-09 13:44:08.020660$GAGSV,1,1,03,04,43,308,44,21,73,044,37,27,19,051,40,,,,*5D
###2023-12-09 13:44:08.023013$GBGSV,1,1,04,12,18,124,41,24,60,050,46,25,53,280,44,35,16,053,38*67
###2023-12-09 13:44:08.024348$GNVTG,243.17,T,,M,0.02,N,0.04,K,A*26
###2023-12-09 13:44:08.025962$GNGST,184407.10,7.500,,,,0.210,0.120,0.310*68
###2023-12-09 13:44:08.027273$GNZDA,184407.10,09,12,2023,00,00*7E
###2023-12-09 13:44:08.027917$GNEBP,,,,,,M*13
###2023-12-09 13:44:08.199704$GNGGA,184407.30,4138.0390497,N,07032.4388045,W,1,18,0.8,14.145,M,-29.746,M,0.0,*5A
###2023-12-09 13:44:08.399280$GNGGA,184407.50,4138.0390499,N,07032.4388066,W,1,18,0.8,14.144,M,-29.746,M,0.0,*52
###2023-12-09 13:44:08.598258$GNGGA,184407.70,4138.0390497,N,07032.4388084,W,1,18,0.8,14.135,M,-29.746,M,0.0,*54
###2023-12-09 13:44:08.798580$GNGGA,184407.90,4138.0390515,N,07032.4388110,W,1,17,0.8,14.131,M,-29.746,M,0.0,*56
###2023-12-09 13:44:09.007294$GNRMC,184408.10,A,4138.0390504,N,07032.4388132,W,0.02,243.17,091223,,,A*5C
###2023-12-09 13:44:09.010155$GNGGA,184408.10,4138.0390504,N,07032.4388132,W,1,17,0.8,14.122,M,-29.746,M,0.0,*53
###2023-12-09 13:44:09.011936$GPGSA,A,3,04,16,26,28,29,31,,,,,,,1.4,0.8,1.1*3B
###2023-12-09 13:44:09.013531$GLGSA,A,3,65,73,75,83,,,,,,,,,1.4,0.8,1.1*2D
###2023-12-09 13:44:09.015063$GAGSA,A,3,04,21,27,,,,,,,,,,1.4,0.8,1.1*2C
###2023-12-09 13:44:09.016644$GBGSA,A,3,12,24,25,35,,,,,,,,,1.4,0.8,1.1*29
###2023-12-09 13:44:09.018979$GPGSV,2,1,06,04,50,305,45,16,71,227,41,26,79,041,41,28,35,088,43*78
###2023-12-09 13:44:09.020729$GPGSV,2,2,06,29,18,043,42,31,56,072,50,,,,,,,,*7D
###2023-12-09 13:44:09.023071$GLGSV,1,1,04,65,42,314,43,73,19,055,44,75,46,277,44,83,16,043,35*66
###2023-12-09 13:44:09.025123$GAGSV,1,1,03,04,43,308,45,21,73,044,37,27,19,051,40,,,,*5C
###2023-12-09 13:44:09.027492$GBGSV,1,1,04,12,18,124,41,24,60,050,46,25,53,280,45,35,16,053,37*69
###2023-12-09 13:44:09.028825$GNVTG,243.17,T,,M,0.02,N,0.04,K,A*26
###2023-12-09 13:44:09.030440$GNGST,184408.10,7.400,,,,0.210,0.120,0.310*66
###2023-12-09 13:44:09.031741$GNZDA,184408.10,09,12,2023,00,00*71
###2023-12-09 13:44:09.032383$GNEBP,,,,,,M*13
###2023-12-09 13:44:09.207382$GNGGA,184408.30,4138.0390512,N,07032.4388144,W,1,17,0.8,14.121,M,-29.746,M,0.0,*54
###2023-12-09 13:44:09.399240$GNGGA,184408.50,4138.0390503,N,07032.4388168,W,1,17,0.8,14.113,M,-29.746,M,0.0,*5D
###2023-12-09 13:44:09.600752$GNGGA,184408.70,4138.0390516,N,07032.4388172,W,1,17,0.8,14.109,M,-29.746,M,0.0,*5B
###2023-12-09 13:44:09.803319$GNGGA,184408.90,4138.0390522,N,07032.4388186,W,1,17,0.8,14.104,M,-29.746,M,0.0,*54
###2023-12-09 13:44:10.000407$GNRMC,184409.10,A,4138.0390533,N,07032.4388190,W,0.04,243.17,091223,,,A*57
###2023-12-09 13:44:10.003302$GNGGA,184409.10,4138.0390533,N,07032.4388190,W,1,17,0.8,14.099,M,-29.746,M,0.0,*5F
###2023-12-09 13:44:10.005029$GPGSA,A,3,04,16,26,28,29,31,,,,,,,1.4,0.8,1.1*3B
###2023-12-09 13:44:10.006633$GLGSA,A,3,65,73,75,83,,,,,,,,,1.4,0.8,1.1*2D
###2023-12-09 13:44:10.008156$GAGSA,A,3,04,21,27,,,,,,,,,,1.4,0.8,1.1*2C
###2023-12-09 13:44:10.009740$GBGSA,A,3,12,24,25,35,,,,,,,,,1.4,0.8,1.1*29
###2023-12-09 13:44:10.012082$GPGSV,2,1,06,04,50,305,45,16,71,227,40,26,79,041,41,28,35,088,42*78
