###2023-12-09 13:26:19.995859$GNGGA,182619.10,4138.0717263,N,07032.3423791,W,1,24,0.6,12.985,M,-29.743,M,0.0,*5C
###2023-12-09 13:26:19.997672$GPGSA,A,3,03,04,16,26,28,29,31,,,,,,1.1,0.6,0.9*3A
###2023-12-09 13:26:19.999408$GLGSA,A,3,65,71,72,73,74,75,,,,,,,1.1,0.6,0.9*24
###2023-12-09 13:26:20.000990$GAGSA,A,3,04,19,21,27,,,,,,,,,1.1,0.6,0.9*26
###2023-12-09 13:26:20.002726$GBGSA,A,3,14,24,25,26,33,35,,,,,,,1.1,0.6,0.9*29
###2023-12-09 13:26:20.005069$GPGSV,2,1,07,03,29,250,42,04,43,309,44,16,62,219,46,26,88,044,48*7E
###2023-12-09 13:26:20.007134$GPGSV,2,2,07,28,41,081,44,29,22,050,39,31,62,060,46,,,,*4E
###2023-12-09 13:26:20.009469$GLGSV,2,1,06,65,34,322,42,71,27,175,43,72,67,229,47,73,26,049,40*61
###2023-12-09 13:26:20.011251$GLGSV,2,2,06,74,63,006,41,75,40,266,46,,,,,,,,*60
###2023-12-09 13:26:20.013574$GAGSV,1,1,04,04,37,311,43,19,75,184,41,21,80,050,46,27,25,049,38*62
###2023-12-09 13:26:20.015919$GBGSV,2,1,06,14,33,190,44,24,66,041,48,25,48,272,48,26,19,068,43*69
###2023-12-09 13:26:20.017673$GBGSV,2,2,06,33,49,220,47,35,16,060,43,,,,,,,,*63
###2023-12-09 13:26:20.018945$GNVTG,1.13,T,,M,3.73,N,6.91,K,A*29
###2023-12-09 13:26:20.020603$GNGST,182619.10,18.000,,,,0.100,0.070,0.170*5A
###2023-12-09 13:26:20.021898$GNZDA,182619.10,09,12,2023,00,00*75
###2023-12-09 13:26:20.022538$GNEBP,,,,,,M*13
###2023-12-09 13:26:20.187070$GNGGA,182619.30,4138.0719287,N,07032.3423594,W,1,24,0.6,12.982,M,-29.743,M,0.0,*5A
###2023-12-09 13:26:20.388268$GNGGA,182619.50,4138.0721318,N,07032.3423160,W,1,24,0.6,12.988,M,-29.743,M,0.0,*55
###2023-12-09 13:26:20.588843$GNGGA,182619.70,4138.0723347,N,07032.3422632,W,1,24,0.6,12.999,M,-29.743,M,0.0,*5E
###2023-12-09 13:26:20.789096$GNGGA,182619.90,4138.0725346,N,07032.3422384,W,1,24,0.6,12.994,M,-29.743,M,0.0,*52
###2023-12-09 13:26:20.998924$GNRMC,182620.10,A,4138.0727329,N,07032.3422432,W,3.58,357.20,091223,,,A*5A
###2023-12-09 13:26:21.001774$GNGGA,182620.10,4138.0727329,N,07032.3422432,W,1,24,0.6,12.990,M,-29.743,M,0.0,*55
###2023-12-09 13:26:21.003585$GPGSA,A,3,03,04,16,26,28,29,31,,,,,,1.1,0.6,0.9*3A
###2023-12-09 13:26:21.005309$GLGSA,A,3,65,71,72,73,74,75,,,,,,,1.1,0.6,0.9*24
###2023-12-09 13:26:21.006903$GAGSA,A,3,04,19,21,27,,,,,,,,,1.1,0.6,0.9*26
###2023-12-09 13:26:21.008612$GBGSA,A,3,14,24,25,26,33,35,,,,,,,1.1,0.6,0.9*29
###2023-12-09 13:26:21.010948$GPGSV,2,1,07,03,29,250,43,04,43,309,44,16,62,219,47,26,88,044,48*7E
###2023-12-09 13:26:21.012976$GPGSV,2,2,07,28,41,081,43,29,22,050,41,31,62,060,46,,,,*46
###2023-12-09 13:26:21.015306$GLGSV,2,1,06,65,34,322,42,71,27,175,44,72,67,229,46,73,26,049,40*67
###2023-12-09 13:26:21.017045$GLGSV,2,2,06,74,63,006,41,75,40,266,48,,,,,,,,*6E
###2023-12-09 13:26:21.019373$GAGSV,1,1,04,04,37,311,43,19,75,184,41,21,80,050,46,27,25,049,40*6D
###2023-12-09 13:26:21.021690$GBGSV,2,1,06,14,33,190,42,24,66,041,46,25,48,272,47,26,19,068,42*6F
###2023-12-09 13:26:21.023444$GBGSV,2,2,06,33,49,220,46,35,16,060,42,,,,,,,,*63
###2023-12-09 13:26:21.024764$GNVTG,357.20,T,,M,3.58,N,6.62,K,A*2C
###2023-12-09 13:26:21.026408$GNGST,182620.10,18.000,,,,0.100,0.070,0.170*50
###2023-12-09 13:26:21.027706$GNZDA,182620.10,09,12,2023,00,00*7F
###2023-12-09 13:26:21.028347$GNEBP,,,,,,M*13
###2023-12-09 13:26:21.191333$GNGGA,182620.30,4138.0729343,N,07032.3422402,W,1,24,0.6,12.991,M,-29.743,M,0.0,*57
###2023-12-09 13:26:21.387205$GNGGA,182620.50,4138.0731406,N,07032.3422223,W,1,24,0.6,13.008,M,-29.743,M,0.0,*53
###2023-12-09 13:26:21.587753$GNGGA,182620.70,4138.0733500,N,07032.3422241,W,1,24,0.6,13.019,M,-29.743,M,0.0,*50
###2023-12-09 13:26:21.788204$GNGGA,182620.90,4138.0735659,N,07032.3422391,W,1,24,0.6,13.023,M,-29.743,M,0.0,*52
###2023-12-09 13:26:21.991854$GNRMC,182621.10,A,4138.0737831,N,07032.3422522,W,3.89,357.03,091223,,,A*55
###2023-12-09 13:26:21.994716$GNGGA,182621.10,4138.0737831,N,07032.3422522,W,1,24,0.6,13.015,M,-29.743,M,0.0,*52
###2023-12-09 13:26:21.996504$GPGSA,A,3,03,04,16,26,28,29,31,,,,,,1.1,0.6,0.9*3A
###2023-12-09 13:26:21.998207$GLGSA,A,3,65,71,72,73,74,75,,,,,,,1.1,0.6,0.9*24
###2023-12-09 13:26:21.999799$GAGSA,A,3,04,19,21,27,,,,,,,,,1.1,0.6,0.9*26
###2023-12-09 13:26:22.001505$GBGSA,A,3,14,24,25,26,33,35,,,,,,,1.1,0.6,0.9*29
###2023-12-09 13:26:22.003832$GPGSV,2,1,07,03,29,250,43,04,43,309,45,16,62,219,46,26,88,044,48*7E
###2023-12-09 13:26:22.005864$GPGSV,2,2,07,28,41,081,43,29,22,050,41,31,62,060,46,,,,*46
###2023-12-09 13:26:22.008198$GLGSV,2,1,06,65,34,322,42,71,27,175,43,72,67,229,46,73,26,049,42*62
###2023-12-09 13:26:22.009941$GLGSV,2,2,06,74,63,006,41,75,40,266,48,,,,,,,,*6E
###2023-12-09 13:26:22.012260$GAGSV,1,1,04,04,37,311,44,19,75,184,41,21,80,050,46,27,25,049,40*6A
###2023-12-09 13:26:22.014585$GBGSV,2,1,06,14,32,190,43,24,66,041,47,25,48,272,47,26,19,068,40*6C
###2023-12-09 13:26:22.016326$GBGSV,2,2,06,33,49,220,46,35,16,060,41,,,,,,,,*60
###2023-12-09 13:26:22.017640$GNVTG,357.03,T,,M,3.89,N,7.20,K,A*26
###2023-12-09 13:26:22.019285$GNGST,182621.10,18.000,,,,0.100,0.070,0.170*51
###2023-12-09 13:26:22.020571$GNZDA,182621.10,09,12,2023,00,00*7E
###2023-12-09 13:26:22.021205$GNEBP,,,,,,M*13
###2023-12-09 13:26:22.194400$GNGGA,182621.30,4138.0740014,N,07032.3422681,W,1,24,0.6,13.019,M,-29.743,M,0.0,*59
###2023-12-09 13:26:22.392090$GNGGA,182621.50,4138.0742238,N,07032.3422756,W,1,24,0.6,13.027,M,-29.743,M,0.0,*57
###2023-12-09 13:26:22.587652$GNGGA,182621.70,4138.0744414,N,07032.3422987,W,1,24,0.6,13.038,M,-29.743,M,0.0,*57
###2023-12-09 13:26:22.788068$GNGGA,182621.90,4138.0746589,N,07032.3423414,W,1,24,0.6,13.048,M,-29.743,M,0.0,*5F
###2023-12-09 13:26:22.992841$GNRMC,182622.10,A,4138.0748757,N,07032.3423860,W,4.02,351.19,091223,,,A*52
###2023-12-09 13:26:22.995776$GNGGA,182622.10,4138.0748757,N,07032.3423860,W,1,24,0.6,13.047,M,-29.743,M,0.0,*5B
###2023-12-09 13:26:22.997569$GPGSA,A,3,03,04,16,26,28,29,31,,,,,,1.1,0.6,0.9*3A
###2023-12-09 13:26:22.999290$GLGSA,A,3,65,71,72,73,74,75,,,,,,,1.1,0.6,0.9*24
###2023-12-09 13:26:23.000875$GAGSA,A,3,04,19,21,27,,,,,,,,,1.1,0.6,0.9*26
###2023-12-09 13:26:23.002597$GBGSA,A,3,14,24,25,26,33,35,,,,,,,1.1,0.6,0.9*29
###2023-12-09 13:26:23.004911$GPGSV,2,1,07,03,29,250,44,04,43,309,45,16,62,219,47,26,88,044,48*78
###2023-12-09 13:26:23.006951$GPGSV,2,2,07,28,41,081,44,29,22,050,41,31,62,060,46,,,,*41
###2023-12-09 13:26:23.009276$GLGSV,2,1,06,65,34,322,43,71,27,175,44,72,67,229,47,73,26,049,40*67
###2023-12-09 13:26:23.011031$GLGSV,2,2,06,74,63,006,41,75,40,266,48,,,,,,,,*6E
###2023-12-09 13:26:23.013344$GAGSV,1,1,04,04,37,311,43,19,75,184,41,21,80,050,45,27,25,049,40*6E
###2023-12-09 13:26:23.015671$GBGSV,2,1,06,14,32,190,43,24,66,041,47,25,48,272,47,26,19,068,41*6D
###2023-12-09 13:26:23.017416$GBGSV,2,2,06,33,49,220,47,35,16,060,41,,,,,,,,*61
###2023-12-09 13:26:23.018747$GNVTG,351.19,T,,M,4.02,N,7.45,K,A*2C
###2023-12-09 13:26:23.020388$GNGST,182622.10,18.000,,,,0.100,0.070,0.170*52
###2023-12-09 13:26:23.021677$GNZDA,182622.10,09,12,2023,00,00*7D
###2023-12-09 13:26:23.022311$GNEBP,,,,,,M*13
###2023-12-09 13:26:23.191388$GNGGA,182622.30,4138.0750937,N,07032.3424184,W,1,24,0.6,13.048,M,-29.743,M,0.0,*53
###2023-12-09 13:26:23.389128$GNGGA,182622.50,4138.0753095,N,07032.3424569,W,1,24,0.6,13.051,M,-29.743,M,0.0,*58
###2023-12-09 13:26:23.590257$GNGGA,182622.70,4138.0755198,N,07032.3425153,W,1,24,0.6,13.050,M,-29.743,M,0.0,*5D
###2023-12-09 13:26:23.788664$GNGGA,182622.90,4138.0757272,N,07032.3425702,W,1,24,0.6,13.055,M,-29.743,M,0.0,*51
###2023-12-09 13:26:23.993367$GNRMC,182623.10,A,4138.0759384,N,07032.3426110,W,3.75,353.04,091223,,,A*5B
###2023-12-09 13:26:23.996244$GNGGA,182623.10,4138.0759384,N,07032.3426110,W,1,24,0.6,13.063,M,-29.743,M,0.0,*5D
###2023-12-09 13:26:23.998033$GPGSA,A,3,03,04,16,26,28,29,31,,,,,,1.1,0.6,0.9*3A
###2023-12-09 13:26:23.999755$GLGSA,A,3,65,71,72,73,74,75,,,,,,,1.1,0.6,0.9*24
###2023-12-09 13:26:24.001325$GAGSA,A,3,04,19,21,27,,,,,,,,,1.1,0.6,0.9*26
###2023-12-09 13:26:24.003042$GBGSA,A,3,14,24,25,26,33,35,,,,,,,1.1,0.6,0.9*29
###2023-12-09 13:26:24.005353$GPGSV,2,1,07,03,29,250,44,04,43,309,45,16,62,219,47,26,88,044,48*78
###2023-12-09 13:26:24.007389$GPGSV,2,2,07,28,41,081,43,29,22,050,41,31,62,060,46,,,,*46
###2023-12-09 13:26:24.009954$GLGSV,2,1,06,65,34,322,42,71,27,175,45,72,67,229,47,73,26,049,40*67
###2023-12-09 13:26:24.011719$GLGSV,2,2,06,74,63,006,41,75,40,266,48,,,,,,,,*6E
###2023-12-09 13:26:24.014044$GAGSV,1,1,04,04,37,311,43,19,75,184,41,21,80,050,46,27,25,049,40*6D
###2023-12-09 13:26:24.016383$GBGSV,2,1,06,14,32,190,44,24,66,041,49,25,48,272,48,26,19,068,42*68
###2023-12-09 13:26:24.018120$GBGSV,2,2,06,33,49,220,49,35,16,060,41,,,,,,,,*6F
###2023-12-09 13:26:24.019466$GNVTG,353.04,T,,M,3.75,N,6.95,K,A*29
###2023-12-09 13:26:24.021109$GNGST,182623.10,18.000,,,,0.100,0.070,0.170*53
###2023-12-09 13:26:24.022392$GNZDA,182623.10,09,12,2023,00,00*7C
###2023-12-09 13:26:24.023040$GNEBP,,,,,,M*13
