###2023-12-09 12:36:14.947848$GPGSV,2,1,08,03,38,276,45,04,22,311,42,16,37,207,44,26,67,207,47*7C
###2023-12-09 12:36:14.950211$GPGSV,2,2,08,28,58,056,44,29,25,074,41,31,73,001,47,32,30,134,39*75
###2023-12-09 12:36:14.952575$GLGSV,2,1,05,71,56,169,47,72,66,308,47,73,47,034,47,74,71,293,43*6F
###2023-12-09 12:36:14.954036$GLGSV,2,2,05,75,22,241,43,,,,,,,,,,,,*52
###2023-12-09 12:36:14.956378$GAGSV,1,1,04,04,21,311,41,19,82,300,41,21,78,176,46,27,41,049,45*6B
###2023-12-09 12:36:14.958719$GBGSV,2,1,05,14,55,197,46,24,80,348,49,25,33,253,44,26,35,057,45*6B
###2023-12-09 12:36:14.960176$GBGSV,2,2,05,33,63,253,48,,,,,,,,,,,,*53
###2023-12-09 12:36:14.961467$GNVTG,90.38,T,,M,1.17,N,2.16,K,A*13
###2023-12-09 12:36:14.963137$GNGST,173614.10,18.000,,,,0.080,0.070,0.160*51
###2023-12-09 12:36:14.964428$GNZDA,173614.10,09,12,2023,00,00*76
###2023-12-09 12:36:14.965065$GNEBP,,,,,,M*13
###2023-12-09 12:36:15.135114$GNGGA,173614.30,4138.0475676,N,07032.3986269,W,1,23,0.7,13.262,M,-29.745,M,0.0,*59
###2023-12-09 12:36:15.335797$GNGGA,173614.50,4138.0475654,N,07032.3985174,W,1,23,0.7,13.261,M,-29.745,M,0.0,*50
###2023-12-09 12:36:15.534749$GNGGA,173614.70,4138.0475574,N,07032.3983949,W,1,23,0.7,13.263,M,-29.745,M,0.0,*51
###2023-12-09 12:36:15.735005$GNGGA,173614.90,4138.0475529,N,07032.3982525,W,1,23,0.7,13.268,M,-29.745,M,0.0,*5B
###2023-12-09 12:36:15.933351$GNRMC,173615.10,A,4138.0475449,N,07032.3980988,W,2.08,95.87,091223,,,A*6A
###2023-12-09 12:36:15.936246$GNGGA,173615.10,4138.0475449,N,07032.3980988,W,1,23,0.7,13.267,M,-29.745,M,0.0,*53
###2023-12-09 12:36:15.938102$GPGSA,A,3,03,04,16,26,28,29,31,32,,,,,1.2,0.7,1.0*31
###2023-12-09 12:36:15.939771$GLGSA,A,3,71,72,73,74,75,,,,,,,,1.2,0.7,1.0*2D
###2023-12-09 12:36:15.941359$GAGSA,A,3,04,19,21,27,,,,,,,,,1.2,0.7,1.0*2C
###2023-12-09 12:36:15.943023$GBGSA,A,3,14,24,25,26,33,,,,,,,,1.2,0.7,1.0*25
###2023-12-09 12:36:15.945345$GPGSV,2,1,08,03,38,276,45,04,22,311,42,16,37,207,46,26,67,207,47*7E
###2023-12-09 12:36:15.947722$GPGSV,2,2,08,28,57,057,45,29,25,074,41,31,73,001,47,32,30,134,41*75
###2023-12-09 12:36:15.950084$GLGSV,2,1,05,71,56,169,47,72,66,308,47,73,47,034,46,74,71,293,43*6E
###2023-12-09 12:36:15.951564$GLGSV,2,2,05,75,22,241,43,,,,,,,,,,,,*52
###2023-12-09 12:36:15.953890$GAGSV,1,1,04,04,21,311,41,19,82,300,40,21,78,176,46,27,41,049,44*6B
###2023-12-09 12:36:15.956239$GBGSV,2,1,05,14,55,197,45,24,80,348,48,25,33,253,44,26,35,057,45*69
###2023-12-09 12:36:15.957691$GBGSV,2,2,05,33,63,253,48,,,,,,,,,,,,*53
###2023-12-09 12:36:15.958995$GNVTG,95.87,T,,M,2.08,N,3.85,K,A*14
###2023-12-09 12:36:15.960643$GNGST,173615.10,18.000,,,,0.080,0.070,0.160*50
###2023-12-09 12:36:15.961933$GNZDA,173615.10,09,12,2023,00,00*77
###2023-12-09 12:36:15.962585$GNEBP,,,,,,M*13
###2023-12-09 12:36:16.135875$GNGGA,173615.30,4138.0475313,N,07032.3979352,W,1,23,0.7,13.266,M,-29.745,M,0.0,*53
###2023-12-09 12:36:16.335473$GNGGA,173615.50,4138.0475100,N,07032.3977639,W,1,23,0.7,13.267,M,-29.745,M,0.0,*52
###2023-12-09 12:36:16.537313$GNGGA,173615.70,4138.0474752,N,07032.3975930,W,1,23,0.7,13.273,M,-29.745,M,0.0,*51
###2023-12-09 12:36:16.733601$GNGGA,173615.90,4138.0474312,N,07032.3974198,W,1,23,0.7,13.276,M,-29.745,M,0.0,*51
###2023-12-09 12:36:16.937540$GNRMC,173616.10,A,4138.0473794,N,07032.3972481,W,2.43,114.37,091223,,,A*59
###2023-12-09 12:36:16.940430$GNGGA,173616.10,4138.0473794,N,07032.3972481,W,1,23,0.7,13.274,M,-29.745,M,0.0,*5E
###2023-12-09 12:36:16.942293$GPGSA,A,3,03,04,16,26,28,29,31,32,,,,,1.2,0.7,1.0*31
###2023-12-09 12:36:16.943957$GLGSA,A,3,71,72,73,74,75,,,,,,,,1.2,0.7,1.0*2D
###2023-12-09 12:36:16.945538$GAGSA,A,3,04,19,21,27,,,,,,,,,1.2,0.7,1.0*2C
###2023-12-09 12:36:16.947206$GBGSA,A,3,14,24,25,26,33,,,,,,,,1.2,0.7,1.0*25
###2023-12-09 12:36:16.949541$GPGSV,2,1,08,03,38,276,45,04,22,311,42,16,37,207,44,26,67,207,48*73
###2023-12-09 12:36:16.951889$GPGSV,2,2,08,28,57,057,45,29,25,073,43,31,73,001,47,32,30,134,43*72
###2023-12-09 12:36:16.954214$GLGSV,2,1,05,71,56,169,46,72,66,308,47,73,47,034,47,74,71,293,43*6E
###2023-12-09 12:36:16.955681$GLGSV,2,2,05,75,22,241,44,,,,,,,,,,,,*55
###2023-12-09 12:36:16.958011$GAGSV,1,1,04,04,21,311,41,19,82,300,40,21,78,176,46,27,41,049,43*6C
###2023-12-09 12:36:16.960365$GBGSV,2,1,05,14,55,197,45,24,80,348,48,25,33,253,43,26,35,057,44*6F
###2023-12-09 12:36:16.961827$GBGSV,2,2,05,33,63,253,49,,,,,,,,,,,,*52
###2023-12-09 12:36:16.963164$GNVTG,114.37,T,,M,2.43,N,4.50,K,A*27
###2023-12-09 12:36:16.964812$GNGST,173616.10,18.000,,,,0.080,0.070,0.160*53
###2023-12-09 12:36:16.966100$GNZDA,173616.10,09,12,2023,00,00*74
###2023-12-09 12:36:16.966752$GNEBP,,,,,,M*13
###2023-12-09 12:36:17.135164$GNGGA,173616.30,4138.0473198,N,07032.3970801,W,1,23,0.7,13.284,M,-29.745,M,0.0,*5F
###2023-12-09 12:36:17.335516$GNGGA,173616.50,4138.0472481,N,07032.3969082,W,1,23,0.7,13.292,M,-29.745,M,0.0,*59
###2023-12-09 12:36:17.536900$GNGGA,173616.70,4138.0471719,N,07032.3967356,W,1,23,0.7,13.287,M,-29.745,M,0.0,*5A
###2023-12-09 12:36:17.733997$GNGGA,173616.90,4138.0470909,N,07032.3965637,W,1,23,0.7,13.297,M,-29.745,M,0.0,*5B
###2023-12-09 12:36:17.935374$GNRMC,173617.10,A,4138.0470025,N,07032.3963832,W,2.97,122.52,091223,,,A*5D
###2023-12-09 12:36:17.938223$GNGGA,173617.10,4138.0470025,N,07032.3963832,W,1,23,0.7,13.304,M,-29.745,M,0.0,*53
###2023-12-09 12:36:17.940095$GPGSA,A,3,03,04,16,26,28,29,31,32,,,,,1.2,0.7,1.0*31
###2023-12-09 12:36:17.941739$GLGSA,A,3,71,72,73,74,75,,,,,,,,1.2,0.7,1.0*2D
###2023-12-09 12:36:17.943333$GAGSA,A,3,04,19,21,27,,,,,,,,,1.2,0.7,1.0*2C
###2023-12-09 12:36:17.944978$GBGSA,A,3,14,24,25,26,33,,,,,,,,1.2,0.7,1.0*25
###2023-12-09 12:36:17.947323$GPGSV,2,1,08,03,38,276,44,04,22,311,42,16,37,207,45,26,67,207,48*73
###2023-12-09 12:36:17.949662$GPGSV,2,2,08,28,57,057,44,29,25,073,43,31,73,001,47,32,30,134,43*73
###2023-12-09 12:36:17.952002$GLGSV,2,1,05,71,56,169,46,72,66,308,47,73,47,034,47,74,71,293,43*6E
###2023-12-09 12:36:17.953458$GLGSV,2,2,05,75,22,241,44,,,,,,,,,,,,*55
###2023-12-09 12:36:17.955800$GAGSV,1,1,04,04,21,311,39,19,82,300,40,21,78,176,46,27,41,049,43*63
###2023-12-09 12:36:17.958137$GBGSV,2,1,05,14,55,197,45,24,80,348,48,25,33,253,44,26,35,057,44*68
###2023-12-09 12:36:17.959611$GBGSV,2,2,05,33,63,253,49,,,,,,,,,,,,*52
###2023-12-09 12:36:17.960933$GNVTG,122.52,T,,M,2.97,N,5.51,K,A*28
###2023-12-09 12:36:17.962589$GNGST,173617.10,18.000,,,,0.080,0.070,0.160*52
###2023-12-09 12:36:17.963882$GNZDA,173617.10,09,12,2023,00,00*75
###2023-12-09 12:36:17.964520$GNEBP,,,,,,M*13
###2023-12-09 12:36:18.136564$GNGGA,173617.30,4138.0469160,N,07032.3961994,W,1,23,0.7,13.292,M,-29.745,M,0.0,*58
###2023-12-09 12:36:18.335371$GNGGA,173617.50,4138.0468317,N,07032.3960183,W,1,23,0.7,13.295,M,-29.745,M,0.0,*55
###2023-12-09 12:36:18.535802$GNGGA,173617.70,4138.0467388,N,07032.3958268,W,1,23,0.7,13.302,M,-29.745,M,0.0,*5C
###2023-12-09 12:36:18.736000$GNGGA,173617.90,4138.0466538,N,07032.3956363,W,1,23,0.7,13.297,M,-29.745,M,0.0,*57
###2023-12-09 12:36:18.936504$GNRMC,173618.10,A,4138.0465709,N,07032.3954389,W,3.01,119.55,091223,,,A*51
###2023-12-09 12:36:18.939364$GNGGA,173618.10,4138.0465709,N,07032.3954389,W,1,23,0.7,13.298,M,-29.745,M,0.0,*5A
###2023-12-09 12:36:18.941218$GPGSA,A,3,03,04,16,26,28,29,31,32,,,,,1.2,0.7,1.0*31
###2023-12-09 12:36:18.942874$GLGSA,A,3,71,72,73,74,75,,,,,,,,1.2,0.7,1.0*2D
###2023-12-09 12:36:18.944457$GAGSA,A,3,04,19,21,27,,,,,,,,,1.2,0.7,1.0*2C
###2023-12-09 12:36:18.946103$GBGSA,A,3,14,24,25,26,33,,,,,,,,1.2,0.7,1.0*25
###2023-12-09 12:36:18.948462$GPGSV,2,1,08,03,38,276,44,04,22,311,42,16,37,207,44,26,67,207,48*72
###2023-12-09 12:36:18.950827$GPGSV,2,2,08,28,57,057,44,29,25,073,42,31,73,004,47,32,30,134,42*76
###2023-12-09 12:36:18.953161$GLGSV,2,1,05,71,56,169,46,72,66,308,47,73,47,034,47,74,71,293,43*6E
###2023-12-09 12:36:18.954628$GLGSV,2,2,05,75,22,241,43,,,,,,,,,,,,*52
###2023-12-09 12:36:18.956951$GAGSV,1,1,04,04,21,311,41,19,82,300,40,21,78,176,45,27,41,049,43*6F
###2023-12-09 12:36:18.959295$GBGSV,2,1,05,14,55,197,45,24,80,348,47,25,33,253,41,26,35,057,44*62
###2023-12-09 12:36:18.960744$GBGSV,2,2,05,33,63,253,48,,,,,,,,,,,,*53
###2023-12-09 12:36:18.962333$GNVTG,119.55,T,,M,3.01,N,5.58,K,A*20
###2023-12-09 12:36:18.964017$GNGST,173618.10,18.000,,,,0.080,0.070,0.160*5D
###2023-12-09 12:36:18.965317$GNZDA,173618.10,09,12,2023,00,00*7A
###2023-12-09 12:36:18.965959$GNEBP,,,,,,M*13
###2023-12-09 12:36:19.135137$GNGGA,173618.30,4138.0464894,N,07032.3952406,W,1,23,0.7,13.300,M,-29.745,M,0.0,*54
###2023-12-09 12:36:19.336593$GNGGA,173618.50,4138.0464114,N,07032.3950399,W,1,23,0.7,13.301,M,-29.745,M,0.0,*51
###2023-12-09 12:36:19.537844$GNGGA,173618.70,4138.0463393,N,07032.3948345,W,1,23,0.7,13.305,M,-29.745,M,0.0,*55
###2023-12-09 12:36:19.734723$GNGGA,173618.90,4138.0462773,N,07032.3946257,W,1,23,0.7,13.298,M,-29.745,M,0.0,*59
###2023-12-09 12:36:19.936448$GNRMC,173619.10,A,4138.0462162,N,07032.3944119,W,3.05,111.10,091223,,,A*5B
