###2023-12-09 12:43:56.960229$GAGSA,A,3,04,19,21,27,,,,,,,,,1.1,0.6,0.9*26
###2023-12-09 12:43:56.961902$GBGSA,A,3,14,24,25,26,33,,,,,,,,1.1,0.6,0.9*2F
###2023-12-09 12:43:56.964262$GPGSV,2,1,08,03,38,271,47,04,25,311,42,16,41,209,44,26,71,208,47*79
###2023-12-09 12:43:56.966618$GPGSV,2,2,08,28,55,061,44,29,26,069,42,31,72,015,47,32,26,136,42*7D
###2023-12-09 12:43:56.968954$GLGSV,2,1,06,65,16,329,42,71,51,170,46,72,69,300,46,73,44,036,44*66
###2023-12-09 12:43:56.970711$GLGSV,2,2,06,74,71,307,42,75,25,245,45,,,,,,,,*63
###2023-12-09 12:43:56.973044$GAGSV,1,1,04,04,23,312,40,19,84,288,40,21,81,170,45,27,39,049,42*66
###2023-12-09 12:43:56.975366$GBGSV,2,1,05,14,51,196,45,24,79,002,48,25,35,255,46,26,32,059,43*6A
###2023-12-09 12:43:56.976818$GBGSV,2,2,05,33,62,246,48,,,,,,,,,,,,*56
###2023-12-09 12:43:56.978134$GNVTG,168.66,T,,M,2.70,N,5.00,K,A*2C
###2023-12-09 12:43:56.979803$GNGST,174356.10,18.000,,,,0.080,0.071,0.170*55
###2023-12-09 12:43:56.981094$GNZDA,174356.10,09,12,2023,00,00*72
###2023-12-09 12:43:56.981731$GNEBP,,,,,,M*13
###2023-12-09 12:43:57.143938$GNGGA,174356.30,4138.0495146,N,07032.3935995,W,1,24,0.6,13.338,M,-29.745,M,0.0,*5F
###2023-12-09 12:43:57.344634$GNGGA,174356.50,4138.0493533,N,07032.3935864,W,1,24,0.6,13.339,M,-29.745,M,0.0,*57
###2023-12-09 12:43:57.544670$GNGGA,174356.70,4138.0491900,N,07032.3935838,W,1,24,0.6,13.319,M,-29.745,M,0.0,*50
###2023-12-09 12:43:57.744330$GNGGA,174356.90,4138.0490302,N,07032.3935690,W,1,24,0.6,13.335,M,-29.745,M,0.0,*55
###2023-12-09 12:43:57.944468$GNRMC,174357.10,A,4138.0488655,N,07032.3935289,W,3.03,165.89,091223,,,A*5D
###2023-12-09 12:43:57.947334$GNGGA,174357.10,4138.0488655,N,07032.3935289,W,1,24,0.6,13.345,M,-29.745,M,0.0,*59
###2023-12-09 12:43:57.949209$GPGSA,A,3,03,04,16,26,28,29,31,32,,,,,1.1,0.6,0.9*3B
###2023-12-09 12:43:57.950941$GLGSA,A,3,65,71,72,73,74,75,,,,,,,1.1,0.6,0.9*24
###2023-12-09 12:43:57.952526$GAGSA,A,3,04,19,21,27,,,,,,,,,1.1,0.6,0.9*26
###2023-12-09 12:43:57.954172$GBGSA,A,3,14,24,25,26,33,,,,,,,,1.1,0.6,0.9*2F
###2023-12-09 12:43:57.956522$GPGSV,2,1,08,03,38,271,47,04,25,311,42,16,41,209,46,26,71,208,48*74
###2023-12-09 12:43:57.958883$GPGSV,2,2,08,28,55,061,45,29,26,069,43,31,72,015,47,32,26,136,42*7D
###2023-12-09 12:43:57.961220$GLGSV,2,1,06,65,16,329,44,71,51,170,45,72,69,300,46,73,44,036,46*61
###2023-12-09 12:43:57.962987$GLGSV,2,2,06,74,71,307,42,75,25,245,45,,,,,,,,*63
###2023-12-09 12:43:57.965324$GAGSV,1,1,04,04,23,312,40,19,84,288,40,21,81,170,45,27,39,049,44*60
###2023-12-09 12:43:57.967671$GBGSV,2,1,05,14,51,196,44,24,79,002,48,25,35,255,47,26,32,059,45*6C
###2023-12-09 12:43:57.969135$GBGSV,2,2,05,33,62,246,49,,,,,,,,,,,,*57
###2023-12-09 12:43:57.970460$GNVTG,165.89,T,,M,3.03,N,5.62,K,A*21
###2023-12-09 12:43:57.972140$GNGST,174357.10,18.000,,,,0.080,0.070,0.170*55
###2023-12-09 12:43:57.973438$GNZDA,174357.10,09,12,2023,00,00*73
###2023-12-09 12:43:57.974078$GNEBP,,,,,,M*13
###2023-12-09 12:43:58.144383$GNGGA,174357.30,4138.0487130,N,07032.3934626,W,1,24,0.6,13.332,M,-29.745,M,0.0,*50
###2023-12-09 12:43:58.344546$GNGGA,174357.50,4138.0485694,N,07032.3933843,W,1,24,0.6,13.329,M,-29.745,M,0.0,*5D
###2023-12-09 12:43:58.543685$GNGGA,174357.70,4138.0484041,N,07032.3933237,W,1,24,0.6,13.347,M,-29.745,M,0.0,*51
###2023-12-09 12:43:58.742087$GNGGA,174357.90,4138.0482429,N,07032.3932499,W,1,24,0.6,13.345,M,-29.745,M,0.0,*52
###2023-12-09 12:43:58.945499$GNRMC,174358.10,A,4138.0480965,N,07032.3931503,W,3.05,149.90,091223,,,A*57
###2023-12-09 12:43:58.948393$GNGGA,174358.10,4138.0480965,N,07032.3931503,W,1,24,0.6,13.352,M,-29.745,M,0.0,*55
###2023-12-09 12:43:58.950265$GPGSA,A,3,03,04,16,26,28,29,31,32,,,,,1.1,0.6,0.9*3B
###2023-12-09 12:43:58.952004$GLGSA,A,3,65,71,72,73,74,75,,,,,,,1.1,0.6,0.9*24
###2023-12-09 12:43:58.953588$GAGSA,A,3,04,19,21,27,,,,,,,,,1.1,0.6,0.9*26
###2023-12-09 12:43:58.955243$GBGSA,A,3,14,24,25,26,33,,,,,,,,1.1,0.6,0.9*2F
###2023-12-09 12:43:58.957584$GPGSV,2,1,08,03,38,271,45,04,25,311,40,16,41,209,45,26,71,208,47*78
###2023-12-09 12:43:58.959940$GPGSV,2,2,08,28,55,061,45,29,26,069,44,31,72,015,47,32,26,136,42*7A
###2023-12-09 12:43:58.962282$GLGSV,2,1,06,65,16,329,43,71,51,170,46,72,69,300,46,73,44,036,46*65
###2023-12-09 12:43:58.964044$GLGSV,2,2,06,74,71,307,43,75,25,245,45,,,,,,,,*62
###2023-12-09 12:43:58.966371$GAGSV,1,1,04,04,23,312,41,19,84,288,40,21,81,170,45,27,39,049,44*61
###2023-12-09 12:43:58.968715$GBGSV,2,1,05,14,51,196,44,24,79,002,48,25,35,255,47,26,32,059,45*6C
###2023-12-09 12:43:58.970172$GBGSV,2,2,05,33,62,246,49,,,,,,,,,,,,*57
###2023-12-09 12:43:58.971512$GNVTG,149.90,T,,M,3.05,N,5.65,K,A*26
###2023-12-09 12:43:58.973158$GNGST,174358.10,18.000,,,,0.080,0.070,0.160*5B
###2023-12-09 12:43:58.974446$GNZDA,174358.10,09,12,2023,00,00*7C
###2023-12-09 12:43:58.975096$GNEBP,,,,,,M*13
###2023-12-09 12:43:59.144266$GNGGA,174358.30,4138.0479484,N,07032.3930387,W,1,24,0.6,13.352,M,-29.745,M,0.0,*58
###2023-12-09 12:43:59.344567$GNGGA,174358.50,4138.0477991,N,07032.3929309,W,1,24,0.6,13.344,M,-29.745,M,0.0,*50
###2023-12-09 12:43:59.545335$GNGGA,174358.70,4138.0476376,N,07032.3928330,W,1,24,0.6,13.356,M,-29.745,M,0.0,*58
###2023-12-09 12:43:59.743673$GNGGA,174358.90,4138.0474785,N,07032.3927248,W,1,24,0.6,13.351,M,-29.745,M,0.0,*5A
###2023-12-09 12:43:59.943955$GNRMC,174359.10,A,4138.0473393,N,07032.3925955,W,3.05,146.02,091223,,,A*57
###2023-12-09 12:43:59.947431$GNGGA,174359.10,4138.0473393,N,07032.3925955,W,1,24,0.6,13.341,M,-29.745,M,0.0,*53
###2023-12-09 12:43:59.949690$GPGSA,A,3,03,04,16,26,28,29,31,32,,,,,1.1,0.6,0.9*3B
###2023-12-09 12:43:59.951778$GLGSA,A,3,65,71,72,73,74,75,,,,,,,1.1,0.6,0.9*24
###2023-12-09 12:43:59.953723$GAGSA,A,3,04,19,21,27,,,,,,,,,1.1,0.6,0.9*26
###2023-12-09 12:43:59.955785$GBGSA,A,3,14,24,25,26,33,,,,,,,,1.1,0.6,0.9*2F
###2023-12-09 12:43:59.958607$GPGSV,2,1,08,03,38,271,44,04,25,311,41,16,41,209,44,26,71,208,48*76
###2023-12-09 12:43:59.961421$GPGSV,2,2,08,28,55,061,46,29,26,069,44,31,72,015,47,32,26,136,43*78
###2023-12-09 12:43:59.964242$GLGSV,2,1,06,65,16,329,43,71,51,170,46,72,69,300,46,73,44,036,46*65
###2023-12-09 12:43:59.966358$GLGSV,2,2,06,74,71,307,43,75,25,245,45,,,,,,,,*62
###2023-12-09 12:43:59.969176$GAGSV,1,1,04,04,23,312,41,19,84,288,40,21,81,170,45,27,39,049,44*61
###2023-12-09 12:43:59.971987$GBGSV,2,1,05,14,51,196,45,24,79,002,49,25,35,255,46,26,32,059,44*6C
###2023-12-09 12:43:59.973735$GBGSV,2,2,05,33,62,246,49,,,,,,,,,,,,*57
###2023-12-09 12:43:59.975344$GNVTG,146.02,T,,M,3.05,N,5.65,K,A*22
###2023-12-09 12:43:59.977334$GNGST,174359.10,18.000,,,,0.079,0.069,0.160*54
###2023-12-09 12:43:59.978899$GNZDA,174359.10,09,12,2023,00,00*7D
###2023-12-09 12:43:59.979666$GNEBP,,,,,,M*13
###2023-12-09 12:44:00.145010$GNGGA,174359.30,4138.0471903,N,07032.3924761,W,1,24,0.6,13.350,M,-29.745,M,0.0,*58
###2023-12-09 12:44:00.344324$GNGGA,174359.50,4138.0470319,N,07032.3923691,W,1,24,0.6,13.342,M,-29.745,M,0.0,*54
###2023-12-09 12:44:00.545094$GNGGA,174359.70,4138.0468815,N,07032.3922669,W,1,24,0.6,13.347,M,-29.745,M,0.0,*5B
###2023-12-09 12:44:00.744696$GNGGA,174359.90,4138.0467253,N,07032.3921489,W,1,24,0.6,13.349,M,-29.745,M,0.0,*53
###2023-12-09 12:44:00.944971$GNRMC,174400.10,A,4138.0465788,N,07032.3920280,W,3.11,152.71,091223,,,A*57
###2023-12-09 12:44:00.948463$GNGGA,174400.10,4138.0465788,N,07032.3920280,W,1,24,0.6,13.330,M,-29.745,M,0.0,*51
###2023-12-09 12:44:00.950732$GPGSA,A,3,03,04,16,26,28,29,31,32,,,,,1.1,0.6,0.9*3B
###2023-12-09 12:44:00.952804$GLGSA,A,3,65,71,72,73,74,75,,,,,,,1.1,0.6,0.9*24
###2023-12-09 12:44:00.954735$GAGSA,A,3,04,19,21,27,,,,,,,,,1.1,0.6,0.9*26
###2023-12-09 12:44:00.956723$GBGSA,A,3,14,24,25,26,33,,,,,,,,1.1,0.6,0.9*2F
###2023-12-09 12:44:00.959538$GPGSV,2,1,08,03,38,271,45,04,25,311,40,16,41,209,45,26,71,208,48*77
###2023-12-09 12:44:00.962370$GPGSV,2,2,08,28,55,061,46,29,26,069,44,31,72,015,47,32,26,136,41*7A
###2023-12-09 12:44:00.965212$GLGSV,2,1,06,65,16,329,43,71,51,170,46,72,69,300,46,73,44,036,47*64
###2023-12-09 12:44:00.967340$GLGSV,2,2,06,74,71,307,43,75,25,245,44,,,,,,,,*63
###2023-12-09 12:44:00.970151$GAGSV,1,1,04,04,23,312,39,19,84,288,40,21,81,170,45,27,39,049,43*69
###2023-12-09 12:44:00.973266$GBGSV,2,1,05,14,51,196,44,24,79,002,49,25,35,255,45,26,32,059,45*6F
###2023-12-09 12:44:00.975062$GBGSV,2,2,05,33,62,246,48,,,,,,,,,,,,*56
###2023-12-09 12:44:00.976664$GNVTG,152.71,T,,M,3.11,N,5.76,K,A*24
###2023-12-09 12:44:00.978708$GNGST,174400.10,18.000,,,,0.079,0.069,0.160*5F
###2023-12-09 12:44:00.980278$GNZDA,174400.10,09,12,2023,00,00*76
###2023-12-09 12:44:00.981048$GNEBP,,,,,,M*13
###2023-12-09 12:44:01.144911$GNGGA,174400.30,4138.0464196,N,07032.3919275,W,1,24,0.6,13.342,M,-29.745,M,0.0,*5E
###2023-12-09 12:44:01.345344$GNGGA,174400.50,4138.0462599,N,07032.3918298,W,1,24,0.6,13.342,M,-29.745,M,0.0,*57
###2023-12-09 12:44:01.545175$GNGGA,174400.70,4138.0461090,N,07032.3917202,W,1,24,0.6,13.339,M,-29.745,M,0.0,*5A
