###2023-12-09 12:27:32.935320$GLGSA,A,3,71,72,73,75,,,,,,,,,1.4,0.7,1.1*29
###2023-12-09 12:27:32.937358$GAGSA,A,3,04,21,27,,,,,,,,,,1.4,0.7,1.1*23
###2023-12-09 12:27:32.938968$GBGSA,A,3,14,25,26,33,,,,,,,,,1.4,0.7,1.1*24
###2023-12-09 12:27:32.941288$GPGSV,2,1,07,03,39,281,40,16,33,206,45,26,62,205,42,28,60,051,42*76
###2023-12-09 12:27:32.943352$GPGSV,2,2,07,29,24,078,41,31,73,348,42,32,33,132,46,,,,*45
###2023-12-09 12:27:32.945678$GLGSV,1,1,04,71,61,167,46,72,62,315,42,73,52,031,47,75,19,238,40*67
###2023-12-09 12:27:32.947754$GAGSV,1,1,03,04,19,310,35,21,75,179,41,27,44,050,46,,,,*5A
###2023-12-09 12:27:32.950090$GBGSV,1,1,04,14,58,200,45,25,30,250,35,26,37,056,48,33,64,261,41*6C
###2023-12-09 12:27:32.951264$GNVTG,,T,,M,0.04,N,0.07,K,A*3E
###2023-12-09 12:27:32.952913$GNGST,172732.10,31.000,,,,0.110,0.098,0.260*53
###2023-12-09 12:27:32.954202$GNZDA,172732.10,09,12,2023,00,00*72
###2023-12-09 12:27:32.954863$GNEBP,,,,,,M*13
###2023-12-09 12:27:33.120661$GNGGA,172732.30,4138.0391101,N,07032.4363575,W,1,18,0.7,5.781,M,-29.746,M,0.0,*6F
###2023-12-09 12:27:33.320517$GNGGA,172732.50,4138.0391124,N,07032.4363547,W,1,18,0.7,5.779,M,-29.746,M,0.0,*68
###2023-12-09 12:27:33.519444$GNGGA,172732.70,4138.0391155,N,07032.4363538,W,1,18,0.7,5.780,M,-29.746,M,0.0,*62
###2023-12-09 12:27:33.718673$GNGGA,172732.90,4138.0391176,N,07032.4363518,W,1,18,0.7,5.779,M,-29.746,M,0.0,*69
###2023-12-09 12:27:33.919423$GNRMC,172733.10,A,4138.0391203,N,07032.4363485,W,0.06,,091223,,,A*4A
###2023-12-09 12:27:33.922438$GNGGA,172733.10,4138.0391203,N,07032.4363485,W,1,17,0.8,5.785,M,-29.746,M,0.0,*67
###2023-12-09 12:27:33.924426$GPGSA,A,3,03,16,26,28,29,31,32,,,,,,1.5,0.8,1.3*3E
###2023-12-09 12:27:33.926192$GLGSA,A,3,71,72,73,75,,,,,,,,,1.5,0.8,1.3*25
###2023-12-09 12:27:33.927826$GAGSA,A,3,21,27,,,,,,,,,,,1.5,0.8,1.3*2B
###2023-12-09 12:27:33.929575$GBGSA,A,3,14,25,26,33,,,,,,,,,1.5,0.8,1.3*28
###2023-12-09 12:27:33.932077$GPGSV,2,1,07,03,39,281,40,16,33,206,45,26,62,205,41,28,60,051,42*75
###2023-12-09 12:27:33.934281$GPGSV,2,2,07,29,24,078,41,31,73,348,42,32,33,132,47,,,,*44
###2023-12-09 12:27:33.936796$GLGSV,1,1,04,71,61,167,46,72,62,315,42,73,52,031,47,75,19,238,40*67
###2023-12-09 12:27:33.938742$GAGSV,1,1,02,21,75,179,41,27,44,050,47,,,,,,,,*62
###2023-12-09 12:27:33.941238$GBGSV,1,1,04,14,58,200,44,25,30,250,35,26,37,056,48,33,64,261,40*6C
###2023-12-09 12:27:33.942556$GNVTG,,T,,M,0.06,N,0.11,K,A*3B
###2023-12-09 12:27:33.944382$GNGST,172733.10,32.000,,,,0.100,0.097,0.260*5F
###2023-12-09 12:27:33.945829$GNZDA,172733.10,09,12,2023,00,00*73
###2023-12-09 12:27:33.946647$GNEBP,,,,,,M*13
###2023-12-09 12:27:34.119547$GNGGA,172733.30,4138.0391225,N,07032.4363484,W,1,17,0.8,5.776,M,-29.746,M,0.0,*6C
###2023-12-09 12:27:34.319469$GNGGA,172733.50,4138.0391247,N,07032.4363470,W,1,17,0.8,5.774,M,-29.746,M,0.0,*67
###2023-12-09 12:27:34.518552$GNGGA,172733.70,4138.0391271,N,07032.4363461,W,1,17,0.8,5.771,M,-29.746,M,0.0,*65
###2023-12-09 12:27:34.718774$GNGGA,172733.90,4138.0391302,N,07032.4363455,W,1,17,0.8,5.767,M,-29.746,M,0.0,*6E
###2023-12-09 12:27:34.921372$GNRMC,172734.10,A,4138.0391327,N,07032.4363428,W,0.04,,091223,,,A*4F
###2023-12-09 12:27:34.924424$GNGGA,172734.10,4138.0391327,N,07032.4363428,W,1,17,0.8,5.772,M,-29.746,M,0.0,*68
###2023-12-09 12:27:34.926412$GPGSA,A,3,03,16,26,28,29,31,32,,,,,,1.5,0.8,1.3*3E
###2023-12-09 12:27:34.928187$GLGSA,A,3,71,72,73,75,,,,,,,,,1.5,0.8,1.3*25
###2023-12-09 12:27:34.929807$GAGSA,A,3,21,27,,,,,,,,,,,1.5,0.8,1.3*2B
###2023-12-09 12:27:34.931568$GBGSA,A,3,14,25,26,33,,,,,,,,,1.5,0.8,1.3*28
###2023-12-09 12:27:34.934074$GPGSV,2,1,07,03,39,281,40,16,33,206,45,26,62,205,41,28,60,051,42*75
###2023-12-09 12:27:34.936327$GPGSV,2,2,07,29,24,078,41,31,73,348,42,32,33,132,47,,,,*44
###2023-12-09 12:27:34.938853$GLGSV,1,1,04,71,60,168,46,72,62,315,43,73,52,031,47,75,19,238,40*68
###2023-12-09 12:27:34.940787$GAGSV,1,1,02,21,75,179,41,27,44,050,46,,,,,,,,*63
###2023-12-09 12:27:34.943319$GBGSV,1,1,04,14,58,200,46,25,30,250,35,26,37,056,49,33,64,261,41*6E
###2023-12-09 12:27:34.944623$GNVTG,,T,,M,0.04,N,0.07,K,A*3E
###2023-12-09 12:27:34.946410$GNGST,172734.10,32.000,,,,0.100,0.097,0.260*58
###2023-12-09 12:27:34.947783$GNZDA,172734.10,09,12,2023,00,00*74
###2023-12-09 12:27:34.948462$GNEBP,,,,,,M*13
###2023-12-09 12:27:35.121423$GNGGA,172734.30,4138.0391358,N,07032.4363408,W,1,17,0.8,5.769,M,-29.746,M,0.0,*6A
###2023-12-09 12:27:35.320745$GNGGA,172734.50,4138.0391377,N,07032.4363383,W,1,17,0.8,5.768,M,-29.746,M,0.0,*64
###2023-12-09 12:27:35.521441$GNGGA,172734.70,4138.0391398,N,07032.4363369,W,1,17,0.8,5.765,M,-29.746,M,0.0,*6E
###2023-12-09 12:27:35.719896$GNGGA,172734.90,4138.0391416,N,07032.4363354,W,1,17,0.8,5.772,M,-29.746,M,0.0,*69
###2023-12-09 12:27:35.932934$GNRMC,172735.10,A,4138.0391437,N,07032.4363352,W,0.02,,091223,,,A*44
###2023-12-09 12:27:35.935990$GNGGA,172735.10,4138.0391437,N,07032.4363352,W,1,17,0.8,5.769,M,-29.746,M,0.0,*6F
###2023-12-09 12:27:35.937799$GPGSA,A,3,03,16,26,28,29,31,32,,,,,,1.5,0.8,1.3*3E
###2023-12-09 12:27:35.939418$GLGSA,A,3,71,72,73,75,,,,,,,,,1.5,0.8,1.3*25
###2023-12-09 12:27:35.940890$GAGSA,A,3,21,27,,,,,,,,,,,1.5,0.8,1.3*2B
###2023-12-09 12:27:35.942479$GBGSA,A,3,14,25,26,33,,,,,,,,,1.5,0.8,1.3*28
###2023-12-09 12:27:35.944818$GPGSV,2,1,07,03,39,281,39,16,33,206,44,26,62,205,40,28,60,051,41*78
###2023-12-09 12:27:35.946886$GPGSV,2,2,07,29,24,078,39,31,73,348,40,32,33,132,45,,,,*4B
###2023-12-09 12:27:35.949235$GLGSV,1,1,04,71,60,168,46,72,63,315,42,73,52,031,48,75,19,238,40*67
###2023-12-09 12:27:35.951003$GAGSV,1,1,02,21,75,179,41,27,44,050,46,,,,,,,,*63
###2023-12-09 12:27:35.953330$GBGSV,1,1,04,14,58,200,45,25,30,250,35,26,37,056,49,33,64,261,41*6D
###2023-12-09 12:27:35.954472$GNVTG,,T,,M,0.02,N,0.04,K,A*3B
###2023-12-09 12:27:35.956138$GNGST,172735.10,32.000,,,,0.110,0.100,0.260*57
###2023-12-09 12:27:35.957432$GNZDA,172735.10,09,12,2023,00,00*75
###2023-12-09 12:27:35.958073$GNEBP,,,,,,M*13
###2023-12-09 12:27:36.119438$GNGGA,172735.30,4138.0391453,N,07032.4363333,W,1,16,0.9,5.774,M,-29.746,M,0.0,*64
###2023-12-09 12:27:36.319379$GNGGA,172735.50,4138.0391479,N,07032.4363333,W,1,16,0.9,5.761,M,-29.746,M,0.0,*6E
###2023-12-09 12:27:36.520573$GNGGA,172735.70,4138.0391511,N,07032.4363322,W,1,17,0.8,5.754,M,-29.746,M,0.0,*65
###2023-12-09 12:27:36.718447$GNGGA,172735.90,4138.0391533,N,07032.4363280,W,1,17,0.8,5.753,M,-29.746,M,0.0,*65
###2023-12-09 12:27:36.920023$GNRMC,172736.10,A,4138.0391551,N,07032.4363248,W,0.02,,091223,,,A*4C
###2023-12-09 12:27:36.922909$GNGGA,172736.10,4138.0391551,N,07032.4363248,W,1,17,0.8,5.748,M,-29.746,M,0.0,*64
###2023-12-09 12:27:36.924725$GPGSA,A,3,03,16,26,28,29,31,32,,,,,,1.4,0.8,1.2*3E
###2023-12-09 12:27:36.926337$GLGSA,A,3,71,72,73,75,,,,,,,,,1.4,0.8,1.2*25
###2023-12-09 12:27:36.927893$GAGSA,A,3,04,21,27,,,,,,,,,,1.4,0.8,1.2*2F
###2023-12-09 12:27:36.929426$GBGSA,A,3,14,26,33,,,,,,,,,,1.4,0.8,1.2*2F
###2023-12-09 12:27:36.931786$GPGSV,2,1,07,03,39,281,41,16,33,206,45,26,62,205,41,28,60,051,42*74
###2023-12-09 12:27:36.933848$GPGSV,2,2,07,29,24,078,42,31,73,348,42,32,33,132,47,,,,*47
###2023-12-09 12:27:36.936212$GLGSV,1,1,04,71,60,168,46,72,63,315,42,73,51,031,48,75,19,238,40*64
###2023-12-09 12:27:36.938277$GAGSV,1,1,03,04,19,310,35,21,75,179,42,27,44,050,47,,,,*58
###2023-12-09 12:27:36.940358$GBGSV,1,1,03,14,58,200,44,26,37,056,47,33,64,261,39,,,,*5F
###2023-12-09 12:27:36.941520$GNVTG,,T,,M,0.02,N,0.04,K,A*3B
###2023-12-09 12:27:36.943210$GNGST,172736.10,32.000,,,,0.100,0.100,0.260*55
###2023-12-09 12:27:36.944522$GNZDA,172736.10,09,12,2023,00,00*76
###2023-12-09 12:27:36.945172$GNEBP,,,,,,M*13
###2023-12-09 12:27:37.119361$GNGGA,172736.30,4138.0391565,N,07032.4363232,W,1,16,0.9,5.744,M,-29.746,M,0.0,*60
###2023-12-09 12:27:37.319080$GNGGA,172736.50,4138.0391585,N,07032.4363211,W,1,16,0.9,5.738,M,-29.746,M,0.0,*62
###2023-12-09 12:27:37.531101$GNGGA,172736.70,4138.0391610,N,07032.4363184,W,1,16,0.9,5.739,M,-29.746,M,0.0,*61
###2023-12-09 12:27:37.718487$GNGGA,172736.90,4138.0391622,N,07032.4363141,W,1,16,0.9,5.739,M,-29.746,M,0.0,*67
###2023-12-09 12:27:37.918993$GNRMC,172737.10,A,4138.0391637,N,07032.4363130,W,0.02,,091223,,,A*42
###2023-12-09 12:27:37.922075$GNGGA,172737.10,4138.0391637,N,07032.4363130,W,1,17,0.8,5.731,M,-29.746,M,0.0,*64
###2023-12-09 12:27:37.923923$GPGSA,A,3,03,16,26,28,29,31,32,,,,,,1.5,0.8,1.3*3E
###2023-12-09 12:27:37.925529$GLGSA,A,3,71,72,73,75,,,,,,,,,1.5,0.8,1.3*25
###2023-12-09 12:27:37.927009$GAGSA,A,3,21,27,,,,,,,,,,,1.5,0.8,1.3*2B
###2023-12-09 12:27:37.928603$GBGSA,A,3,14,25,26,33,,,,,,,,,1.5,0.8,1.3*28
###2023-12-09 12:27:37.930948$GPGSV,2,1,07,03,39,281,42,16,33,206,45,26,62,205,41,28,60,051,42*77
###2023-12-09 12:27:37.933008$GPGSV,2,2,07,29,24,078,41,31,73,348,42,32,33,132,47,,,,*44
