###2023-12-09 13:18:37.994056$GLGSA,A,3,65,71,72,73,74,75,,,,,,,1.1,0.7,0.9*25
###2023-12-09 13:18:37.995696$GAGSA,A,3,04,19,21,27,,,,,,,,,1.1,0.7,0.9*27
###2023-12-09 13:18:37.997434$GBGSA,A,3,14,24,25,26,33,35,,,,,,,1.1,0.7,0.9*28
###2023-12-09 13:18:37.999782$GPGSV,2,1,07,03,31,253,42,04,39,310,44,16,58,216,46,26,88,205,48*70
###2023-12-09 13:18:38.001838$GPGSV,2,2,07,28,43,078,44,29,23,053,40,31,64,053,46,,,,*40
###2023-12-09 13:18:38.004189$GLGSV,2,1,06,65,32,324,42,71,32,174,47,72,70,240,46,73,29,047,42*6B
###2023-12-09 13:18:38.005937$GLGSV,2,2,06,74,65,358,41,75,38,261,46,,,,,,,,*66
###2023-12-09 13:18:38.008281$GAGSV,1,1,04,04,34,311,44,19,78,188,41,21,82,058,46,27,27,049,40*60
###2023-12-09 13:18:38.010639$GBGSV,2,1,06,14,35,191,45,24,68,038,48,25,46,269,46,26,20,067,43*60
###2023-12-09 13:18:38.012393$GBGSV,2,2,06,33,51,223,47,35,16,062,41,,,,,,,,*69
###2023-12-09 13:18:38.013690$GNVTG,17.86,T,,M,4.08,N,7.56,K,A*13
###2023-12-09 13:18:38.015381$GNGST,181837.10,18.000,,,,0.097,0.070,0.170*54
###2023-12-09 13:18:38.016678$GNZDA,181837.10,09,12,2023,00,00*74
###2023-12-09 13:18:38.017317$GNEBP,,,,,,M*13
###2023-12-09 13:18:38.182576$GNGGA,181837.30,4138.0354562,N,07032.3100099,W,1,24,0.7,13.376,M,-29.744,M,0.0,*50
###2023-12-09 13:18:38.381714$GNGGA,181837.50,4138.0356727,N,07032.3099502,W,1,24,0.7,13.378,M,-29.744,M,0.0,*5F
###2023-12-09 13:18:38.583555$GNGGA,181837.70,4138.0358865,N,07032.3098766,W,1,24,0.7,13.390,M,-29.744,M,0.0,*5D
###2023-12-09 13:18:38.782864$GNGGA,181837.90,4138.0361014,N,07032.3097956,W,1,24,0.7,13.392,M,-29.744,M,0.0,*57
###2023-12-09 13:18:38.992102$GNRMC,181838.10,A,4138.0363153,N,07032.3097539,W,3.79,6.08,091223,,,A*5B
###2023-12-09 13:18:38.994976$GNGGA,181838.10,4138.0363153,N,07032.3097539,W,1,24,0.7,13.389,M,-29.744,M,0.0,*5F
###2023-12-09 13:18:38.996775$GPGSA,A,3,03,04,16,26,28,29,31,,,,,,1.1,0.7,0.9*3B
###2023-12-09 13:18:38.998493$GLGSA,A,3,65,71,72,73,74,75,,,,,,,1.1,0.7,0.9*25
###2023-12-09 13:18:39.000083$GAGSA,A,3,04,19,21,27,,,,,,,,,1.1,0.7,0.9*27
###2023-12-09 13:18:39.001797$GBGSA,A,3,14,24,25,26,33,35,,,,,,,1.1,0.7,0.9*28
###2023-12-09 13:18:39.004137$GPGSV,2,1,07,03,31,253,42,04,39,310,44,16,58,216,47,26,88,205,48*71
###2023-12-09 13:18:39.006186$GPGSV,2,2,07,28,43,078,45,29,23,053,40,31,64,053,46,,,,*41
###2023-12-09 13:18:39.008538$GLGSV,2,1,06,65,32,324,42,71,32,174,46,72,70,240,46,73,29,047,41*69
###2023-12-09 13:18:39.010294$GLGSV,2,2,06,74,65,358,41,75,38,261,46,,,,,,,,*66
###2023-12-09 13:18:39.012632$GAGSV,1,1,04,04,34,311,42,19,78,188,41,21,82,058,46,27,27,049,40*66
###2023-12-09 13:18:39.014986$GBGSV,2,1,06,14,35,191,44,24,68,038,47,25,46,269,47,26,20,067,43*6F
###2023-12-09 13:18:39.016740$GBGSV,2,2,06,33,51,223,47,35,16,062,42,,,,,,,,*6A
###2023-12-09 13:18:39.018006$GNVTG,6.08,T,,M,3.79,N,7.02,K,A*25
###2023-12-09 13:18:39.019666$GNGST,181838.10,18.000,,,,0.097,0.070,0.170*5B
###2023-12-09 13:18:39.020961$GNZDA,181838.10,09,12,2023,00,00*7B
###2023-12-09 13:18:39.021602$GNEBP,,,,,,M*13
###2023-12-09 13:18:39.186064$GNGGA,181838.30,4138.0365254,N,07032.3097272,W,1,24,0.7,13.386,M,-29.744,M,0.0,*58
###2023-12-09 13:18:39.384565$GNGGA,181838.50,4138.0367337,N,07032.3097041,W,1,24,0.7,13.383,M,-29.744,M,0.0,*5F
###2023-12-09 13:18:39.582709$GNGGA,181838.70,4138.0369385,N,07032.3096866,W,1,24,0.7,13.385,M,-29.744,M,0.0,*50
###2023-12-09 13:18:39.783655$GNGGA,181838.90,4138.0371415,N,07032.3096698,W,1,24,0.7,13.386,M,-29.744,M,0.0,*55
###2023-12-09 13:18:39.989899$GNRMC,181839.10,A,4138.0373420,N,07032.3096774,W,3.54,354.61,091223,,,A*54
###2023-12-09 13:18:39.992776$GNGGA,181839.10,4138.0373420,N,07032.3096774,W,1,24,0.7,13.376,M,-29.744,M,0.0,*54
###2023-12-09 13:18:39.994578$GPGSA,A,3,03,04,16,26,28,29,31,,,,,,1.1,0.7,0.9*3B
###2023-12-09 13:18:39.996296$GLGSA,A,3,65,71,72,73,74,75,,,,,,,1.1,0.7,0.9*25
###2023-12-09 13:18:39.997879$GAGSA,A,3,04,19,21,27,,,,,,,,,1.1,0.7,0.9*27
###2023-12-09 13:18:39.999604$GBGSA,A,3,14,24,25,26,33,35,,,,,,,1.1,0.7,0.9*28
###2023-12-09 13:18:40.001936$GPGSV,2,1,07,03,31,253,43,04,39,310,44,16,58,216,46,26,88,205,48*71
###2023-12-09 13:18:40.003997$GPGSV,2,2,07,28,43,078,45,29,23,053,42,31,64,053,46,,,,*43
###2023-12-09 13:18:40.006335$GLGSV,2,1,06,65,32,324,37,71,32,174,46,72,70,240,46,73,29,047,43*69
###2023-12-09 13:18:40.008100$GLGSV,2,2,06,74,65,358,41,75,38,261,47,,,,,,,,*67
###2023-12-09 13:18:40.010430$GAGSV,1,1,04,04,34,311,42,19,78,188,41,21,82,058,46,27,27,049,40*66
###2023-12-09 13:18:40.012782$GBGSV,2,1,06,14,35,191,42,24,68,038,47,25,46,269,46,26,20,067,43*68
###2023-12-09 13:18:40.014535$GBGSV,2,2,06,33,51,223,47,35,16,062,41,,,,,,,,*69
###2023-12-09 13:18:40.015876$GNVTG,354.61,T,,M,3.54,N,6.55,K,A*22
###2023-12-09 13:18:40.017526$GNGST,181839.10,18.000,,,,0.097,0.070,0.170*5A
###2023-12-09 13:18:40.018863$GNZDA,181839.10,09,12,2023,00,00*7A
###2023-12-09 13:18:40.019506$GNEBP,,,,,,M*13
###2023-12-09 13:18:40.180789$GNGGA,181839.30,4138.0375343,N,07032.3097169,W,1,24,0.7,13.376,M,-29.744,M,0.0,*59
###2023-12-09 13:18:40.380700$GNGGA,181839.50,4138.0377303,N,07032.3097449,W,1,24,0.7,13.385,M,-29.744,M,0.0,*52
###2023-12-09 13:18:40.581480$GNGGA,181839.70,4138.0379272,N,07032.3097719,W,1,24,0.7,13.380,M,-29.744,M,0.0,*5A
###2023-12-09 13:18:40.780771$GNGGA,181839.90,4138.0381149,N,07032.3098325,W,1,24,0.7,13.378,M,-29.744,M,0.0,*5B
###2023-12-09 13:18:40.985553$GNRMC,181840.10,A,4138.0383051,N,07032.3099207,W,3.65,342.54,091223,,,A*5A
###2023-12-09 13:18:40.988443$GNGGA,181840.10,4138.0383051,N,07032.3099207,W,1,24,0.7,13.387,M,-29.744,M,0.0,*57
###2023-12-09 13:18:40.990240$GPGSA,A,3,03,04,16,26,28,29,31,,,,,,1.1,0.7,0.9*3B
###2023-12-09 13:18:40.991972$GLGSA,A,3,65,71,72,73,74,75,,,,,,,1.1,0.7,0.9*25
###2023-12-09 13:18:40.993560$GAGSA,A,3,04,19,21,27,,,,,,,,,1.1,0.7,0.9*27
###2023-12-09 13:18:40.995288$GBGSA,A,3,14,24,25,26,33,35,,,,,,,1.1,0.7,0.9*28
###2023-12-09 13:18:40.997616$GPGSV,2,1,07,03,31,253,43,04,39,310,44,16,58,216,46,26,88,205,48*71
###2023-12-09 13:18:40.999673$GPGSV,2,2,07,28,43,078,44,29,23,053,43,31,64,053,47,,,,*42
###2023-12-09 13:18:41.002014$GLGSV,2,1,06,65,32,324,39,71,32,174,45,72,70,240,46,73,29,047,42*65
###2023-12-09 13:18:41.003780$GLGSV,2,2,06,74,65,358,41,75,38,261,47,,,,,,,,*67
###2023-12-09 13:18:41.006106$GAGSV,1,1,04,04,34,311,43,19,78,188,41,21,82,058,46,27,27,049,42*65
###2023-12-09 13:18:41.008454$GBGSV,2,1,06,14,35,191,42,24,68,038,48,25,46,269,47,26,20,067,42*67
###2023-12-09 13:18:41.010203$GBGSV,2,2,06,33,51,223,48,35,16,062,41,,,,,,,,*66
###2023-12-09 13:18:41.011541$GNVTG,342.54,T,,M,3.65,N,6.77,K,A*21
###2023-12-09 13:18:41.013193$GNGST,181840.10,18.000,,,,0.097,0.071,0.170*55
###2023-12-09 13:18:41.014486$GNZDA,181840.10,09,12,2023,00,00*74
###2023-12-09 13:18:41.015137$GNEBP,,,,,,M*13
###2023-12-09 13:18:41.179992$GNGGA,181840.30,4138.0385047,N,07032.3099896,W,1,24,0.7,13.382,M,-29.744,M,0.0,*53
###2023-12-09 13:18:41.380794$GNGGA,181840.50,4138.0387084,N,07032.3100274,W,1,24,0.7,13.382,M,-29.744,M,0.0,*5F
###2023-12-09 13:18:41.582461$GNGGA,181840.70,4138.0389156,N,07032.3100533,W,1,24,0.7,13.377,M,-29.744,M,0.0,*53
###2023-12-09 13:18:41.781594$GNGGA,181840.90,4138.0391233,N,07032.3100734,W,1,24,0.7,13.367,M,-29.744,M,0.0,*50
###2023-12-09 13:18:41.984220$GNRMC,181841.10,A,4138.0393309,N,07032.3100780,W,3.75,2.60,091223,,,A*5E
###2023-12-09 13:18:41.987099$GNGGA,181841.10,4138.0393309,N,07032.3100780,W,1,24,0.7,13.354,M,-29.744,M,0.0,*5C
###2023-12-09 13:18:41.988898$GPGSA,A,3,03,04,16,26,28,29,31,,,,,,1.1,0.7,0.9*3B
###2023-12-09 13:18:41.990626$GLGSA,A,3,65,71,72,73,74,75,,,,,,,1.1,0.7,0.9*25
###2023-12-09 13:18:41.992212$GAGSA,A,3,04,19,21,27,,,,,,,,,1.1,0.7,0.9*27
###2023-12-09 13:18:41.993926$GBGSA,A,3,14,24,25,26,33,35,,,,,,,1.1,0.7,0.9*28
###2023-12-09 13:18:41.996270$GPGSV,2,1,07,03,31,253,43,04,39,310,44,16,58,216,46,26,88,205,48*71
###2023-12-09 13:18:41.998311$GPGSV,2,2,07,28,43,078,44,29,23,053,40,31,64,053,46,,,,*40
###2023-12-09 13:18:42.000662$GLGSV,2,1,06,65,32,324,41,71,32,174,45,72,70,240,46,73,29,047,41*69
###2023-12-09 13:18:42.002418$GLGSV,2,2,06,74,65,358,41,75,38,261,47,,,,,,,,*67
###2023-12-09 13:18:42.005008$GAGSV,1,1,04,04,34,311,43,19,78,188,41,21,82,058,46,27,27,049,39*69
###2023-12-09 13:18:42.007364$GBGSV,2,1,06,14,35,191,44,24,68,038,47,25,46,269,47,26,20,067,42*6E
###2023-12-09 13:18:42.009108$GBGSV,2,2,06,33,51,223,47,35,16,062,41,,,,,,,,*69
###2023-12-09 13:18:42.010366$GNVTG,2.60,T,,M,3.75,N,6.95,K,A*2C
###2023-12-09 13:18:42.012024$GNGST,181841.10,18.000,,,,0.097,0.071,0.170*54
###2023-12-09 13:18:42.013316$GNZDA,181841.10,09,12,2023,00,00*75
###2023-12-09 13:18:42.013955$GNEBP,,,,,,M*13
###2023-12-09 13:18:42.182172$GNGGA,181841.30,4138.0395358,N,07032.3100539,W,1,24,0.7,13.352,M,-29.744,M,0.0,*5A
###2023-12-09 13:18:42.380659$GNGGA,181841.50,4138.0397435,N,07032.3100055,W,1,24,0.7,13.357,M,-29.744,M,0.0,*58
