###2023-12-09 12:23:36.512975$GNGGA,172335.70,4138.0385934,N,07032.4359258,W,1,19,0.8,23.077,M,-29.746,M,0.0,*56
###2023-12-09 12:23:36.712148$GNGGA,172335.90,4138.0385931,N,07032.4359279,W,1,19,0.8,23.071,M,-29.746,M,0.0,*58
###2023-12-09 12:23:36.918688$GNRMC,172336.10,A,4138.0385833,N,07032.4359069,W,0.02,,091223,,,A*4C
###2023-12-09 12:23:36.921731$GNGGA,172336.10,4138.0385833,N,07032.4359069,W,1,18,0.9,23.125,M,-29.746,M,0.0,*53
###2023-12-09 12:23:36.923730$GPGSA,A,3,03,16,26,28,29,31,32,,,,,,1.5,0.9,1.2*3E
###2023-12-09 12:23:36.925565$GLGSA,A,3,71,72,73,74,75,,,,,,,,1.5,0.9,1.2*26
###2023-12-09 12:23:36.927200$GAGSA,A,3,21,27,,,,,,,,,,,1.5,0.9,1.2*2B
###2023-12-09 12:23:36.928951$GBGSA,A,3,14,25,26,33,,,,,,,,,1.5,0.9,1.2*28
###2023-12-09 12:23:36.931477$GPGSV,2,1,07,03,39,283,42,16,31,206,42,26,61,205,44,28,62,049,40*7F
###2023-12-09 12:23:36.933548$GPGSV,2,2,07,29,24,079,44,31,73,343,37,32,35,131,47,,,,*4C
###2023-12-09 12:23:36.935917$GLGSV,2,1,05,71,63,167,46,72,61,317,36,73,53,030,47,74,69,273,35*6E
###2023-12-09 12:23:36.937397$GLGSV,2,2,05,75,18,236,42,,,,,,,,,,,,*5A
###2023-12-09 12:23:36.939178$GAGSV,1,1,02,21,73,180,47,27,45,051,46,,,,,,,,*65
###2023-12-09 12:23:36.941530$GBGSV,1,1,04,14,60,201,44,25,29,249,40,26,39,055,46,33,64,266,39*6E
###2023-12-09 12:23:36.942688$GNVTG,,T,,M,0.02,N,0.04,K,A*3B
###2023-12-09 12:23:36.944348$GNGST,172336.10,32.000,,,,0.170,0.160,0.370*50
###2023-12-09 12:23:36.945660$GNZDA,172336.10,09,12,2023,00,00*72
###2023-12-09 12:23:36.946320$GNEBP,,,,,,M*13
###2023-12-09 12:23:37.113135$GNGGA,172336.30,4138.0385893,N,07032.4358779,W,1,19,0.8,23.081,M,-29.746,M,0.0,*53
###2023-12-09 12:23:37.312984$GNGGA,172336.50,4138.0386120,N,07032.4358583,W,1,19,0.8,22.927,M,-29.746,M,0.0,*54
###2023-12-09 12:23:37.512833$GNGGA,172336.70,4138.0386285,N,07032.4358424,W,1,19,0.8,22.768,M,-29.746,M,0.0,*53
###2023-12-09 12:23:37.712318$GNGGA,172336.90,4138.0386427,N,07032.4358289,W,1,19,0.8,22.604,M,-29.746,M,0.0,*59
###2023-12-09 12:23:37.913424$GNRMC,172337.10,A,4138.0386555,N,07032.4358165,W,0.04,,091223,,,A*49
###2023-12-09 12:23:37.916488$GNGGA,172337.10,4138.0386555,N,07032.4358165,W,1,18,0.8,22.448,M,-29.746,M,0.0,*5E
###2023-12-09 12:23:37.918514$GPGSA,A,3,03,16,25,26,28,29,31,32,,,,,1.4,0.8,1.1*3A
###2023-12-09 12:23:37.920280$GLGSA,A,3,71,72,73,75,,,,,,,,,1.4,0.8,1.1*26
###2023-12-09 12:23:37.921905$GAGSA,A,3,21,27,,,,,,,,,,,1.4,0.8,1.1*28
###2023-12-09 12:23:37.923658$GBGSA,A,3,14,25,26,33,,,,,,,,,1.4,0.8,1.1*2B
###2023-12-09 12:23:37.926152$GPGSV,2,1,08,03,39,283,42,16,31,206,42,25,16,045,42,26,61,205,44*70
###2023-12-09 12:23:37.928673$GPGSV,2,2,08,28,62,049,40,29,24,079,44,31,73,343,37,32,35,131,47*74
###2023-12-09 12:23:37.931191$GLGSV,1,1,04,71,63,167,46,72,61,317,36,73,53,030,47,75,18,236,42*6A
###2023-12-09 12:23:37.933114$GAGSV,1,1,02,21,73,180,47,27,45,051,46,,,,,,,,*65
###2023-12-09 12:23:37.935632$GBGSV,1,1,04,14,60,201,44,25,29,249,40,26,39,055,46,33,64,266,38*6F
###2023-12-09 12:23:37.936945$GNVTG,,T,,M,0.04,N,0.07,K,A*3E
###2023-12-09 12:23:37.938772$GNGST,172337.10,32.000,,,,0.220,0.210,0.490*5A
###2023-12-09 12:23:37.940249$GNZDA,172337.10,09,12,2023,00,00*73
###2023-12-09 12:23:37.941047$GNEBP,,,,,,M*13
###2023-12-09 12:23:38.112106$GNGGA,172337.30,4138.0386683,N,07032.4358063,W,1,18,0.8,22.292,M,-29.746,M,0.0,*52
###2023-12-09 12:23:38.314190$GNGGA,172337.50,4138.0386797,N,07032.4357956,W,1,18,0.8,22.137,M,-29.746,M,0.0,*5C
###2023-12-09 12:23:38.513975$GNGGA,172337.70,4138.0386899,N,07032.4357862,W,1,18,0.8,21.988,M,-29.746,M,0.0,*56
###2023-12-09 12:23:38.712739$GNGGA,172337.90,4138.0386985,N,07032.4357752,W,1,18,0.8,21.841,M,-29.746,M,0.0,*5C
###2023-12-09 12:23:38.916888$GNRMC,172338.10,A,4138.0387073,N,07032.4357658,W,0.08,,091223,,,A*4C
###2023-12-09 12:23:38.919988$GNGGA,172338.10,4138.0387073,N,07032.4357658,W,1,18,0.8,21.694,M,-29.746,M,0.0,*57
###2023-12-09 12:23:38.921877$GPGSA,A,3,03,16,25,26,28,29,31,32,,,,,1.4,0.8,1.1*3A
###2023-12-09 12:23:38.923507$GLGSA,A,3,71,72,73,75,,,,,,,,,1.4,0.8,1.1*26
###2023-12-09 12:23:38.924984$GAGSA,A,3,21,27,,,,,,,,,,,1.4,0.8,1.1*28
###2023-12-09 12:23:38.926604$GBGSA,A,3,14,25,26,33,,,,,,,,,1.4,0.8,1.1*2B
###2023-12-09 12:23:38.928953$GPGSV,2,1,08,03,39,283,42,16,31,206,42,25,16,045,42,26,61,205,44*70
###2023-12-09 12:23:38.931320$GPGSV,2,2,08,28,62,049,40,29,24,079,44,31,73,343,37,32,35,131,47*74
###2023-12-09 12:23:38.933671$GLGSV,1,1,04,71,63,167,46,72,61,317,36,73,53,030,47,75,18,236,42*6A
###2023-12-09 12:23:38.935450$GAGSV,1,1,02,21,73,180,47,27,45,051,46,,,,,,,,*65
###2023-12-09 12:23:38.937797$GBGSV,1,1,04,14,60,201,44,25,29,249,41,26,39,055,46,33,64,266,38*6E
###2023-12-09 12:23:38.938974$GNVTG,,T,,M,0.08,N,0.14,K,A*30
###2023-12-09 12:23:38.940641$GNGST,172338.10,32.000,,,,0.140,0.140,0.320*5A
###2023-12-09 12:23:38.941955$GNZDA,172338.10,09,12,2023,00,00*7C
###2023-12-09 12:23:38.942631$GNEBP,,,,,,M*13
###2023-12-09 12:23:39.114950$GNGGA,172338.30,4138.0387152,N,07032.4357565,W,1,18,0.8,21.556,M,-29.746,M,0.0,*57
###2023-12-09 12:23:39.313993$GNGGA,172338.50,4138.0387226,N,07032.4357498,W,1,19,0.8,21.422,M,-29.746,M,0.0,*51
###2023-12-09 12:23:39.519605$GNGGA,172338.70,4138.0387300,N,07032.4357401,W,1,19,0.8,21.290,M,-29.746,M,0.0,*59
###2023-12-09 12:23:39.715794$GNGGA,172338.90,4138.0387414,N,07032.4357294,W,1,18,0.8,21.193,M,-29.746,M,0.0,*5E
###2023-12-09 12:23:39.913597$GNRMC,172339.10,A,4138.0387525,N,07032.4357197,W,0.02,,091223,,,A*45
###2023-12-09 12:23:39.916697$GNGGA,172339.10,4138.0387525,N,07032.4357197,W,1,18,0.8,21.095,M,-29.746,M,0.0,*53
###2023-12-09 12:23:39.918760$GPGSA,A,3,03,16,25,26,28,29,31,32,,,,,1.4,0.8,1.1*3A
###2023-12-09 12:23:39.920508$GLGSA,A,3,71,72,73,75,,,,,,,,,1.4,0.8,1.1*26
###2023-12-09 12:23:39.922126$GAGSA,A,3,21,27,,,,,,,,,,,1.4,0.8,1.1*28
###2023-12-09 12:23:39.923922$GBGSA,A,3,14,25,26,33,,,,,,,,,1.4,0.8,1.1*2B
###2023-12-09 12:23:39.926436$GPGSV,2,1,08,03,39,283,41,16,31,206,41,25,16,045,41,26,61,205,44*73
###2023-12-09 12:23:39.928950$GPGSV,2,2,08,28,62,049,39,29,24,079,43,31,73,343,37,32,35,131,46*7C
###2023-12-09 12:23:39.931476$GLGSV,1,1,04,71,63,167,46,72,61,317,36,73,53,030,47,75,18,236,42*6A
###2023-12-09 12:23:39.933409$GAGSV,1,1,02,21,73,180,46,27,45,051,45,,,,,,,,*67
###2023-12-09 12:23:39.935908$GBGSV,1,1,04,14,60,201,44,25,29,249,41,26,39,055,46,33,64,266,38*6E
###2023-12-09 12:23:39.937203$GNVTG,,T,,M,0.02,N,0.04,K,A*3B
###2023-12-09 12:23:39.939024$GNGST,172339.10,32.000,,,,0.110,0.100,0.240*5D
###2023-12-09 12:23:39.940487$GNZDA,172339.10,09,12,2023,00,00*7D
###2023-12-09 12:23:39.941303$GNEBP,,,,,,M*13
###2023-12-09 12:23:40.111078$GNGGA,172339.30,4138.0387650,N,07032.4357121,W,1,18,0.8,21.002,M,-29.746,M,0.0,*53
###2023-12-09 12:23:40.312182$GNGGA,172339.50,4138.0387778,N,07032.4357032,W,1,19,0.8,20.908,M,-29.746,M,0.0,*5E
###2023-12-09 12:23:40.510588$GNGGA,172339.70,4138.0387902,N,07032.4356945,W,1,18,0.8,20.814,M,-29.746,M,0.0,*5A
###2023-12-09 12:23:40.711093$GNGGA,172339.90,4138.0388016,N,07032.4356851,W,1,18,0.8,20.727,M,-29.746,M,0.0,*5C
###2023-12-09 12:23:40.915807$GNRMC,172340.10,A,4138.0388132,N,07032.4356769,W,0.02,,091223,,,A*40
###2023-12-09 12:23:40.918820$GNGGA,172340.10,4138.0388132,N,07032.4356769,W,1,18,0.8,20.639,M,-29.746,M,0.0,*57
###2023-12-09 12:23:40.920692$GPGSA,A,3,03,16,25,26,28,29,31,32,,,,,1.4,0.8,1.1*3A
###2023-12-09 12:23:40.922285$GLGSA,A,3,71,72,73,75,,,,,,,,,1.4,0.8,1.1*26
###2023-12-09 12:23:40.923756$GAGSA,A,3,21,27,,,,,,,,,,,1.4,0.8,1.1*28
###2023-12-09 12:23:40.925341$GBGSA,A,3,14,25,26,33,,,,,,,,,1.4,0.8,1.1*2B
###2023-12-09 12:23:40.927686$GPGSV,2,1,08,03,39,283,41,16,31,206,41,25,16,045,41,26,61,205,44*73
###2023-12-09 12:23:40.930013$GPGSV,2,2,08,28,62,049,39,29,24,079,43,31,73,343,36,32,35,131,46*7D
###2023-12-09 12:23:40.932355$GLGSV,1,1,04,71,63,167,46,72,61,317,36,73,53,030,47,75,18,236,42*6A
###2023-12-09 12:23:40.934104$GAGSV,1,1,02,21,73,180,46,27,45,051,45,,,,,,,,*67
###2023-12-09 12:23:40.936450$GBGSV,1,1,04,14,60,201,44,25,29,249,41,26,39,055,46,33,64,266,38*6E
###2023-12-09 12:23:40.937587$GNVTG,,T,,M,0.02,N,0.04,K,A*3B
###2023-12-09 12:23:40.939258$GNGST,172340.10,32.000,,,,0.110,0.100,0.240*53
###2023-12-09 12:23:40.940819$GNZDA,172340.10,09,12,2023,00,00*73
###2023-12-09 12:23:40.941475$GNEBP,,,,,,M*13
###2023-12-09 12:23:41.112703$GNGGA,172340.30,4138.0388248,N,07032.4356668,W,1,18,0.8,20.553,M,-29.746,M,0.0,*54
###2023-12-09 12:23:41.312736$GNGGA,172340.50,4138.0388314,N,07032.4356621,W,1,18,0.8,20.438,M,-29.746,M,0.0,*5B
###2023-12-09 12:23:41.512649$GNGGA,172340.70,4138.0388426,N,07032.4356546,W,1,19,0.8,20.357,M,-29.746,M,0.0,*52
###2023-12-09 12:23:41.711111$GNGGA,172340.90,4138.0388545,N,07032.4356464,W,1,19,0.8,20.279,M,-29.746,M,0.0,*54
###2023-12-09 12:23:41.914386$GNRMC,172341.10,A,4138.0388664,N,07032.4356397,W,0.04,,091223,,,A*46
###2023-12-09 12:23:41.917292$GNGGA,172341.10,4138.0388664,N,07032.4356397,W,1,19,0.8,20.197,M,-29.746,M,0.0,*55
