###2023-12-09 13:14:15.993889$GBGSA,A,3,14,24,25,26,33,35,,,,,,,1.2,0.7,1.0*23
###2023-12-09 13:14:15.996261$GPGSV,2,1,07,03,32,255,42,04,38,311,42,16,56,215,46,26,86,209,48*7C
###2023-12-09 13:14:15.998305$GPGSV,2,2,07,28,45,076,46,29,24,055,41,31,65,050,47,,,,*49
###2023-12-09 13:14:16.000645$GLGSV,2,1,06,65,29,325,41,71,34,174,46,72,71,246,44,73,31,045,43*6B
###2023-12-09 13:14:16.002395$GLGSV,2,2,06,74,66,353,42,75,36,259,42,,,,,,,,*6C
###2023-12-09 13:14:16.004736$GAGSV,1,1,04,04,33,312,40,19,80,192,41,21,84,066,46,27,29,048,41*69
###2023-12-09 13:14:16.007073$GBGSV,2,1,06,14,38,192,43,24,70,034,48,25,44,267,44,26,22,065,44*64
###2023-12-09 13:14:16.008806$GBGSV,2,2,06,33,53,226,46,35,15,065,44,,,,,,,,*6E
###2023-12-09 13:14:16.010124$GNVTG,263.90,T,,M,3.67,N,6.80,K,A*21
###2023-12-09 13:14:16.011777$GNGST,181415.10,18.000,,,,0.098,0.074,0.170*53
###2023-12-09 13:14:16.013061$GNZDA,181415.10,09,12,2023,00,00*78
###2023-12-09 13:14:16.013695$GNEBP,,,,,,M*13
###2023-12-09 13:14:16.175279$GNGGA,181415.30,4138.0459450,N,07032.3181110,W,1,24,0.7,13.176,M,-29.744,M,0.0,*5D
###2023-12-09 13:14:16.374420$GNGGA,181415.50,4138.0459462,N,07032.3183906,W,1,24,0.7,13.184,M,-29.744,M,0.0,*5A
###2023-12-09 13:14:16.574843$GNGGA,181415.70,4138.0459272,N,07032.3186621,W,1,24,0.7,13.176,M,-29.744,M,0.0,*5D
###2023-12-09 13:14:16.774860$GNGGA,181415.90,4138.0459059,N,07032.3189317,W,1,24,0.7,13.186,M,-29.744,M,0.0,*58
###2023-12-09 13:14:16.979187$GNRMC,181416.10,A,4138.0459001,N,07032.3192204,W,3.98,267.49,091223,,,A*51
###2023-12-09 13:14:16.982047$GNGGA,181416.10,4138.0459001,N,07032.3192204,W,1,24,0.7,13.196,M,-29.744,M,0.0,*56
###2023-12-09 13:14:16.983852$GPGSA,A,3,03,04,16,26,28,29,31,,,,,,1.2,0.7,1.0*30
###2023-12-09 13:14:16.985570$GLGSA,A,3,65,71,72,73,74,75,,,,,,,1.2,0.7,1.0*2E
###2023-12-09 13:14:16.987162$GAGSA,A,3,04,19,21,27,,,,,,,,,1.2,0.7,1.0*2C
###2023-12-09 13:14:16.988876$GBGSA,A,3,14,24,25,26,33,35,,,,,,,1.2,0.7,1.0*23
###2023-12-09 13:14:16.991205$GPGSV,2,1,07,03,32,255,42,04,38,311,43,16,56,215,45,26,86,209,48*7E
###2023-12-09 13:14:16.993241$GPGSV,2,2,07,28,45,076,45,29,24,055,42,31,65,050,47,,,,*49
###2023-12-09 13:14:16.995576$GLGSV,2,1,06,65,29,325,41,71,34,174,45,72,71,246,45,73,31,045,44*6E
###2023-12-09 13:14:16.997323$GLGSV,2,2,06,74,66,353,42,75,36,259,43,,,,,,,,*6D
###2023-12-09 13:14:16.999658$GAGSV,1,1,04,04,33,312,42,19,80,192,40,21,84,066,46,27,29,048,41*6A
###2023-12-09 13:14:17.001986$GBGSV,2,1,06,14,38,192,44,24,70,034,49,25,44,267,44,26,22,065,44*62
###2023-12-09 13:14:17.003744$GBGSV,2,2,06,33,53,226,47,35,15,065,45,,,,,,,,*6E
###2023-12-09 13:14:17.005068$GNVTG,267.49,T,,M,3.98,N,7.38,K,A*23
###2023-12-09 13:14:17.006731$GNGST,181416.10,18.000,,,,0.098,0.074,0.170*50
###2023-12-09 13:14:17.008034$GNZDA,181416.10,09,12,2023,00,00*7B
###2023-12-09 13:14:17.008674$GNEBP,,,,,,M*13
###2023-12-09 13:14:17.174835$GNGGA,181416.30,4138.0458695,N,07032.3195044,W,1,24,0.7,13.173,M,-29.744,M,0.0,*54
###2023-12-09 13:14:17.375127$GNGGA,181416.50,4138.0458129,N,07032.3197750,W,1,24,0.7,13.161,M,-29.744,M,0.0,*51
###2023-12-09 13:14:17.575856$GNGGA,181416.70,4138.0457629,N,07032.3200570,W,1,24,0.7,13.163,M,-29.744,M,0.0,*54
###2023-12-09 13:14:17.777119$GNGGA,181416.90,4138.0457071,N,07032.3203417,W,1,24,0.7,13.159,M,-29.744,M,0.0,*5B
###2023-12-09 13:14:17.979207$GNRMC,181417.10,A,4138.0456254,N,07032.3206038,W,3.73,243.26,091223,,,A*54
###2023-12-09 13:14:17.982071$GNGGA,181417.10,4138.0456254,N,07032.3206038,W,1,24,0.7,13.152,M,-29.744,M,0.0,*51
###2023-12-09 13:14:17.983873$GPGSA,A,3,03,04,16,26,28,29,31,,,,,,1.2,0.7,1.0*30
###2023-12-09 13:14:17.985589$GLGSA,A,3,65,71,72,73,74,75,,,,,,,1.2,0.7,1.0*2E
###2023-12-09 13:14:17.987188$GAGSA,A,3,04,19,21,27,,,,,,,,,1.2,0.7,1.0*2C
###2023-12-09 13:14:17.988902$GBGSA,A,3,14,24,25,26,33,35,,,,,,,1.2,0.7,1.0*23
###2023-12-09 13:14:17.991235$GPGSV,2,1,07,03,32,255,41,04,38,311,43,16,56,215,44,26,86,209,47*73
###2023-12-09 13:14:17.993275$GPGSV,2,2,07,28,45,076,44,29,24,055,42,31,65,050,46,,,,*49
###2023-12-09 13:14:17.995609$GLGSV,2,1,06,65,29,325,42,71,34,174,44,72,71,246,44,73,31,045,45*6C
###2023-12-09 13:14:17.997353$GLGSV,2,2,06,74,66,353,42,75,36,259,44,,,,,,,,*6A
###2023-12-09 13:14:17.999681$GAGSV,1,1,04,04,33,312,42,19,80,192,40,21,84,066,45,27,29,048,41*69
###2023-12-09 13:14:18.002006$GBGSV,2,1,06,14,38,192,45,24,70,034,50,25,44,267,46,26,22,065,44*69
###2023-12-09 13:14:18.003756$GBGSV,2,2,06,33,53,226,47,35,15,065,45,,,,,,,,*6E
###2023-12-09 13:14:18.005084$GNVTG,243.26,T,,M,3.73,N,6.91,K,A*2B
###2023-12-09 13:14:18.006774$GNGST,181417.10,18.000,,,,0.098,0.074,0.170*51
###2023-12-09 13:14:18.008066$GNZDA,181417.10,09,12,2023,00,00*7A
###2023-12-09 13:14:18.008705$GNEBP,,,,,,M*13
###2023-12-09 13:14:18.174938$GNGGA,181417.30,4138.0455354,N,07032.3208560,W,1,24,0.7,13.164,M,-29.744,M,0.0,*52
###2023-12-09 13:14:18.375137$GNGGA,181417.50,4138.0454413,N,07032.3211076,W,1,24,0.7,13.151,M,-29.744,M,0.0,*5D
###2023-12-09 13:14:18.577161$GNGGA,181417.70,4138.0453401,N,07032.3213478,W,1,24,0.7,13.129,M,-29.744,M,0.0,*5C
###2023-12-09 13:14:18.774773$GNGGA,181417.90,4138.0452351,N,07032.3215853,W,1,24,0.7,13.125,M,-29.744,M,0.0,*5E
###2023-12-09 13:14:18.979256$GNRMC,181418.10,A,4138.0451343,N,07032.3218262,W,3.75,240.39,091223,,,A*52
###2023-12-09 13:14:18.982113$GNGGA,181418.10,4138.0451343,N,07032.3218262,W,1,24,0.7,13.139,M,-29.744,M,0.0,*51
###2023-12-09 13:14:18.983915$GPGSA,A,3,03,04,16,26,28,29,31,,,,,,1.2,0.7,1.0*30
###2023-12-09 13:14:18.985629$GLGSA,A,3,65,71,72,73,74,75,,,,,,,1.2,0.7,1.0*2E
###2023-12-09 13:14:18.987222$GAGSA,A,3,04,19,21,27,,,,,,,,,1.2,0.7,1.0*2C
###2023-12-09 13:14:18.988937$GBGSA,A,3,14,24,25,26,33,35,,,,,,,1.2,0.7,1.0*23
###2023-12-09 13:14:18.991280$GPGSV,2,1,07,03,32,255,39,04,38,311,42,16,56,215,44,26,86,209,47*7D
###2023-12-09 13:14:18.993322$GPGSV,2,2,07,28,45,076,44,29,24,055,41,31,65,050,46,,,,*4A
###2023-12-09 13:14:18.995665$GLGSV,2,1,06,65,29,325,44,71,34,174,44,72,71,246,45,73,31,045,45*6B
###2023-12-09 13:14:18.997417$GLGSV,2,2,06,74,66,353,42,75,36,259,44,,,,,,,,*6A
###2023-12-09 13:14:18.999748$GAGSV,1,1,04,04,33,312,41,19,80,192,39,21,84,066,45,27,29,048,41*64
###2023-12-09 13:14:19.002075$GBGSV,2,1,06,14,38,192,43,24,70,034,49,25,44,267,45,26,22,065,45*65
###2023-12-09 13:14:19.003827$GBGSV,2,2,06,33,53,226,46,35,15,065,44,,,,,,,,*6E
###2023-12-09 13:14:19.005150$GNVTG,240.39,T,,M,3.75,N,6.95,K,A*24
###2023-12-09 13:14:19.006805$GNGST,181418.10,18.000,,,,0.098,0.074,0.170*5E
###2023-12-09 13:14:19.008094$GNZDA,181418.10,09,12,2023,00,00*75
###2023-12-09 13:14:19.008731$GNEBP,,,,,,M*13
###2023-12-09 13:14:19.174845$GNGGA,181418.30,4138.0450243,N,07032.3220613,W,1,24,0.7,13.140,M,-29.744,M,0.0,*54
###2023-12-09 13:14:19.375135$GNGGA,181418.50,4138.0448944,N,07032.3222650,W,1,24,0.7,13.123,M,-29.744,M,0.0,*57
###2023-12-09 13:14:19.575831$GNGGA,181418.70,4138.0447601,N,07032.3224604,W,1,24,0.7,13.114,M,-29.744,M,0.0,*57
###2023-12-09 13:14:19.775832$GNGGA,181418.90,4138.0446361,N,07032.3226836,W,1,24,0.7,13.132,M,-29.744,M,0.0,*52
###2023-12-09 13:14:19.978992$GNRMC,181419.10,A,4138.0445052,N,07032.3228885,W,3.50,224.00,091223,,,A*5A
###2023-12-09 13:14:19.981838$GNGGA,181419.10,4138.0445052,N,07032.3228885,W,1,24,0.7,13.113,M,-29.744,M,0.0,*5E
###2023-12-09 13:14:19.983631$GPGSA,A,3,03,04,16,26,28,29,31,,,,,,1.2,0.7,1.0*30
###2023-12-09 13:14:19.985342$GLGSA,A,3,65,71,72,73,74,75,,,,,,,1.2,0.7,1.0*2E
###2023-12-09 13:14:19.986932$GAGSA,A,3,04,19,21,27,,,,,,,,,1.2,0.7,1.0*2C
###2023-12-09 13:14:19.988646$GBGSA,A,3,14,24,25,26,33,35,,,,,,,1.2,0.7,1.0*23
###2023-12-09 13:14:19.990977$GPGSV,2,1,07,03,32,255,40,04,38,311,44,16,56,215,45,26,86,209,48*7B
###2023-12-09 13:14:19.993013$GPGSV,2,2,07,28,45,076,45,29,24,055,44,31,65,050,47,,,,*4F
###2023-12-09 13:14:19.995347$GLGSV,2,1,06,65,29,325,43,71,34,174,44,72,71,246,45,73,31,045,45*6C
###2023-12-09 13:14:19.997093$GLGSV,2,2,06,74,66,353,43,75,36,259,45,,,,,,,,*6A
###2023-12-09 13:14:19.999423$GAGSV,1,1,04,04,33,312,43,19,80,192,40,21,84,066,45,27,29,048,42*6B
###2023-12-09 13:14:20.001747$GBGSV,2,1,06,14,38,192,41,24,70,034,48,25,44,267,45,26,22,065,42*61
###2023-12-09 13:14:20.003746$GBGSV,2,2,06,33,53,226,45,35,15,065,44,,,,,,,,*6D
###2023-12-09 13:14:20.005091$GNVTG,224.00,T,,M,3.50,N,6.48,K,A*2B
###2023-12-09 13:14:20.006759$GNGST,181419.10,18.000,,,,0.098,0.074,0.170*5F
###2023-12-09 13:14:20.008058$GNZDA,181419.10,09,12,2023,00,00*74
###2023-12-09 13:14:20.008699$GNEBP,,,,,,M*13
###2023-12-09 13:14:20.175034$GNGGA,181419.30,4138.0443565,N,07032.3230569,W,1,24,0.7,13.109,M,-29.744,M,0.0,*56
###2023-12-09 13:14:20.375845$GNGGA,181419.50,4138.0442005,N,07032.3232184,W,1,24,0.7,13.086,M,-29.744,M,0.0,*51
###2023-12-09 13:14:20.576915$GNGGA,181419.70,4138.0440579,N,07032.3233895,W,1,24,0.7,13.094,M,-29.744,M,0.0,*54
###2023-12-09 13:14:20.775833$GNGGA,181419.90,4138.0439196,N,07032.3235931,W,1,24,0.7,13.123,M,-29.744,M,0.0,*55
