###2023-12-09 12:24:54.931134$GBGSA,A,3,14,25,26,33,,,,,,,,,1.2,0.7,1.0*23
###2023-12-09 12:24:54.933696$GPGSV,2,1,08,03,39,283,43,16,32,206,41,25,16,045,42,26,61,205,45*70
###2023-12-09 12:24:54.936219$GPGSV,2,2,08,28,61,050,43,29,24,079,45,31,73,344,35,32,34,131,46*78
###2023-12-09 12:24:54.938743$GLGSV,1,1,04,71,63,167,46,72,61,317,38,73,53,030,48,75,18,237,39*66
###2023-12-09 12:24:54.940954$GAGSV,1,1,03,04,18,310,36,21,74,180,46,27,45,051,47,,,,*59
###2023-12-09 12:24:54.943485$GBGSV,1,1,04,14,59,200,45,25,29,249,40,26,38,055,47,33,64,264,39*66
###2023-12-09 12:24:54.944798$GNVTG,,T,,M,0.00,N,0.00,K,A*3D
###2023-12-09 12:24:54.946644$GNGST,172454.10,30.000,,,,0.200,0.200,0.300*57
###2023-12-09 12:24:54.948146$GNZDA,172454.10,09,12,2023,00,00*71
###2023-12-09 12:24:54.948965$GNEBP,,,,,,M*13
###2023-12-09 12:24:55.117546$GNGGA,172454.30,4138.0391149,N,07032.4366206,W,1,19,0.7,11.065,M,-29.746,M,0.0,*5F
###2023-12-09 12:24:55.318626$GNGGA,172454.50,4138.0391134,N,07032.4366199,W,1,19,0.7,11.069,M,-29.746,M,0.0,*5A
###2023-12-09 12:24:55.517471$GNGGA,172454.70,4138.0391109,N,07032.4366178,W,1,19,0.7,11.071,M,-29.746,M,0.0,*50
###2023-12-09 12:24:55.721611$GNGGA,172454.90,4138.0391092,N,07032.4366169,W,1,19,0.7,11.070,M,-29.746,M,0.0,*5C
###2023-12-09 12:24:55.917111$GNRMC,172455.10,A,4138.0391074,N,07032.4366153,W,0.02,,091223,,,A*44
###2023-12-09 12:24:55.920216$GNGGA,172455.10,4138.0391074,N,07032.4366153,W,1,19,0.7,11.073,M,-29.746,M,0.0,*57
###2023-12-09 12:24:55.922110$GPGSA,A,3,03,16,25,26,28,29,31,32,,,,,1.2,0.7,1.0*32
###2023-12-09 12:24:55.923740$GLGSA,A,3,71,72,73,75,,,,,,,,,1.2,0.7,1.0*2E
###2023-12-09 12:24:55.925274$GAGSA,A,3,04,21,27,,,,,,,,,,1.2,0.7,1.0*24
###2023-12-09 12:24:55.926889$GBGSA,A,3,14,25,26,33,,,,,,,,,1.2,0.7,1.0*23
###2023-12-09 12:24:55.929241$GPGSV,2,1,08,03,39,283,43,16,32,206,41,25,16,045,41,26,61,205,45*73
###2023-12-09 12:24:55.931621$GPGSV,2,2,08,28,61,050,43,29,24,079,44,31,73,344,35,32,34,131,46*79
###2023-12-09 12:24:55.933973$GLGSV,1,1,04,71,63,167,46,72,61,317,38,73,53,030,48,75,18,237,39*66
###2023-12-09 12:24:55.936049$GAGSV,1,1,03,04,18,310,36,21,74,180,46,27,45,051,47,,,,*59
###2023-12-09 12:24:55.938404$GBGSV,1,1,04,14,59,200,45,25,29,249,40,26,38,055,47,33,64,264,39*66
###2023-12-09 12:24:55.939571$GNVTG,,T,,M,0.02,N,0.04,K,A*3B
###2023-12-09 12:24:55.941242$GNGST,172455.10,30.000,,,,0.200,0.200,0.310*57
###2023-12-09 12:24:55.942552$GNZDA,172455.10,09,12,2023,00,00*70
###2023-12-09 12:24:55.943228$GNEBP,,,,,,M*13
###2023-12-09 12:24:56.118777$GNGGA,172455.30,4138.0391052,N,07032.4366137,W,1,19,0.7,11.074,M,-29.746,M,0.0,*54
###2023-12-09 12:24:56.319114$GNGGA,172455.50,4138.0391023,N,07032.4366128,W,1,19,0.7,11.072,M,-29.746,M,0.0,*5C
###2023-12-09 12:24:56.518659$GNGGA,172455.70,4138.0391005,N,07032.4366125,W,1,19,0.7,11.074,M,-29.746,M,0.0,*51
###2023-12-09 12:24:56.716568$GNGGA,172455.90,4138.0390986,N,07032.4366115,W,1,19,0.7,11.075,M,-29.746,M,0.0,*5E
###2023-12-09 12:24:56.924610$GNRMC,172456.10,A,4138.0390953,N,07032.4366103,W,0.00,,091223,,,A*4D
###2023-12-09 12:24:56.927687$GNGGA,172456.10,4138.0390953,N,07032.4366103,W,1,19,0.7,11.073,M,-29.746,M,0.0,*5C
###2023-12-09 12:24:56.929741$GPGSA,A,3,03,16,25,26,28,29,31,32,,,,,1.2,0.7,1.0*32
###2023-12-09 12:24:56.931525$GLGSA,A,3,71,72,73,75,,,,,,,,,1.2,0.7,1.0*2E
###2023-12-09 12:24:56.933210$GAGSA,A,3,04,21,27,,,,,,,,,,1.2,0.7,1.0*24
###2023-12-09 12:24:56.934975$GBGSA,A,3,14,25,26,33,,,,,,,,,1.2,0.7,1.0*23
###2023-12-09 12:24:56.937479$GPGSV,2,1,08,03,39,283,43,16,32,206,40,25,16,045,41,26,61,205,45*72
###2023-12-09 12:24:56.939991$GPGSV,2,2,08,28,61,050,43,29,24,079,44,31,73,344,36,32,34,131,46*7A
###2023-12-09 12:24:56.942506$GLGSV,1,1,04,71,63,167,46,72,61,317,39,73,53,030,48,75,18,237,39*67
###2023-12-09 12:24:56.944729$GAGSV,1,1,03,04,18,310,36,21,74,180,46,27,45,051,47,,,,*59
###2023-12-09 12:24:56.947257$GBGSV,1,1,04,14,59,200,45,25,29,249,40,26,38,055,47,33,64,264,39*66
###2023-12-09 12:24:56.948640$GNVTG,,T,,M,0.00,N,0.00,K,A*3D
###2023-12-09 12:24:56.950459$GNGST,172456.10,30.000,,,,0.210,0.200,0.310*55
###2023-12-09 12:24:56.951942$GNZDA,172456.10,09,12,2023,00,00*73
###2023-12-09 12:24:56.952751$GNEBP,,,,,,M*13
###2023-12-09 12:24:57.118609$GNGGA,172456.30,4138.0390936,N,07032.4366104,W,1,19,0.7,11.070,M,-29.746,M,0.0,*59
###2023-12-09 12:24:57.316710$GNGGA,172456.50,4138.0390909,N,07032.4366080,W,1,19,0.7,11.070,M,-29.746,M,0.0,*5E
###2023-12-09 12:24:57.517466$GNGGA,172456.70,4138.0390873,N,07032.4366054,W,1,19,0.7,11.068,M,-29.746,M,0.0,*50
###2023-12-09 12:24:57.716767$GNGGA,172456.90,4138.0390842,N,07032.4366046,W,1,19,0.7,11.062,M,-29.746,M,0.0,*55
###2023-12-09 12:24:57.918445$GNRMC,172457.10,A,4138.0390809,N,07032.4366043,W,0.02,,091223,,,A*45
###2023-12-09 12:24:57.921519$GNGGA,172457.10,4138.0390809,N,07032.4366043,W,1,19,0.7,11.061,M,-29.746,M,0.0,*55
###2023-12-09 12:24:57.923570$GPGSA,A,3,03,16,25,26,28,29,31,32,,,,,1.2,0.7,1.0*32
###2023-12-09 12:24:57.925336$GLGSA,A,3,71,72,73,75,,,,,,,,,1.2,0.7,1.0*2E
###2023-12-09 12:24:57.927030$GAGSA,A,3,04,21,27,,,,,,,,,,1.2,0.7,1.0*24
###2023-12-09 12:24:57.928775$GBGSA,A,3,14,25,26,33,,,,,,,,,1.2,0.7,1.0*23
###2023-12-09 12:24:57.931292$GPGSV,2,1,08,03,39,283,44,16,32,206,40,25,16,045,42,26,61,205,45*76
###2023-12-09 12:24:57.933807$GPGSV,2,2,08,28,61,050,43,29,24,079,44,31,73,344,37,32,34,131,46*7B
###2023-12-09 12:24:57.936313$GLGSV,1,1,04,71,63,167,46,72,61,317,39,73,53,030,48,75,18,237,38*66
###2023-12-09 12:24:57.938521$GAGSV,1,1,03,04,18,310,36,21,74,180,46,27,45,051,46,,,,*58
###2023-12-09 12:24:57.941034$GBGSV,1,1,04,14,59,200,45,25,29,249,39,26,38,055,47,33,64,264,39*68
###2023-12-09 12:24:57.942342$GNVTG,,T,,M,0.02,N,0.04,K,A*3B
###2023-12-09 12:24:57.944161$GNGST,172457.10,30.000,,,,0.210,0.200,0.320*57
###2023-12-09 12:24:57.945612$GNZDA,172457.10,09,12,2023,00,00*72
###2023-12-09 12:24:57.946410$GNEBP,,,,,,M*13
###2023-12-09 12:24:58.117581$GNGGA,172457.30,4138.0390782,N,07032.4366028,W,1,19,0.7,11.063,M,-29.746,M,0.0,*54
###2023-12-09 12:24:58.317544$GNGGA,172457.50,4138.0390753,N,07032.4366013,W,1,19,0.7,11.062,M,-29.746,M,0.0,*57
###2023-12-09 12:24:58.518737$GNGGA,172457.70,4138.0390734,N,07032.4366005,W,1,19,0.7,11.058,M,-29.746,M,0.0,*5A
###2023-12-09 12:24:58.716705$GNGGA,172457.90,4138.0390698,N,07032.4365987,W,1,19,0.7,11.056,M,-29.746,M,0.0,*5D
###2023-12-09 12:24:58.925495$GNRMC,172458.10,A,4138.0390664,N,07032.4365973,W,0.04,,091223,,,A*40
###2023-12-09 12:24:58.928600$GNGGA,172458.10,4138.0390664,N,07032.4365973,W,1,19,0.7,11.053,M,-29.746,M,0.0,*57
###2023-12-09 12:24:58.930504$GPGSA,A,3,03,16,25,26,28,29,31,32,,,,,1.2,0.7,1.0*32
###2023-12-09 12:24:58.932184$GLGSA,A,3,71,72,73,75,,,,,,,,,1.2,0.7,1.0*2E
###2023-12-09 12:24:58.933747$GAGSA,A,3,04,21,27,,,,,,,,,,1.2,0.7,1.0*24
###2023-12-09 12:24:58.935388$GBGSA,A,3,14,25,26,33,,,,,,,,,1.2,0.7,1.0*23
###2023-12-09 12:24:58.937732$GPGSV,2,1,08,03,39,283,44,16,32,206,40,25,16,045,42,26,61,205,45*76
###2023-12-09 12:24:58.940105$GPGSV,2,2,08,28,61,050,43,29,24,079,44,31,73,344,37,32,34,131,46*7B
###2023-12-09 12:24:58.942449$GLGSV,1,1,04,71,63,167,46,72,61,317,39,73,53,030,48,75,18,237,38*66
###2023-12-09 12:24:58.944511$GAGSV,1,1,03,04,18,310,36,21,74,180,46,27,45,051,47,,,,*59
###2023-12-09 12:24:58.946893$GBGSV,1,1,04,14,59,200,45,25,29,249,39,26,38,055,47,33,64,264,39*68
###2023-12-09 12:24:58.948060$GNVTG,,T,,M,0.04,N,0.07,K,A*3E
###2023-12-09 12:24:58.949718$GNGST,172458.10,30.000,,,,0.210,0.200,0.320*58
###2023-12-09 12:24:58.951045$GNZDA,172458.10,09,12,2023,00,00*7D
###2023-12-09 12:24:58.951701$GNEBP,,,,,,M*13
###2023-12-09 12:24:59.117564$GNGGA,172458.30,4138.0390630,N,07032.4365958,W,1,19,0.7,11.055,M,-29.746,M,0.0,*5B
###2023-12-09 12:24:59.317599$GNGGA,172458.50,4138.0390598,N,07032.4365942,W,1,19,0.7,11.051,M,-29.746,M,0.0,*53
###2023-12-09 12:24:59.517407$GNGGA,172458.70,4138.0390576,N,07032.4365926,W,1,19,0.7,11.050,M,-29.746,M,0.0,*52
###2023-12-09 12:24:59.716708$GNGGA,172458.90,4138.0390561,N,07032.4365908,W,1,19,0.7,11.053,M,-29.746,M,0.0,*55
###2023-12-09 12:24:59.920544$GNRMC,172459.10,A,4138.0390536,N,07032.4365897,W,0.04,,091223,,,A*4E
###2023-12-09 12:24:59.923765$GNGGA,172459.10,4138.0390536,N,07032.4365897,W,1,19,0.7,11.053,M,-29.746,M,0.0,*59
###2023-12-09 12:24:59.925656$GPGSA,A,3,03,16,25,26,28,29,31,32,,,,,1.2,0.7,1.0*32
###2023-12-09 12:24:59.927286$GLGSA,A,3,71,72,73,75,,,,,,,,,1.2,0.7,1.0*2E
###2023-12-09 12:24:59.928829$GAGSA,A,3,04,21,27,,,,,,,,,,1.2,0.7,1.0*24
###2023-12-09 12:24:59.930425$GBGSA,A,3,14,25,26,33,,,,,,,,,1.2,0.7,1.0*23
###2023-12-09 12:24:59.932777$GPGSV,2,1,08,03,39,283,44,16,32,206,40,25,16,045,42,26,61,205,45*76
###2023-12-09 12:24:59.935132$GPGSV,2,2,08,28,61,050,43,29,24,079,43,31,73,344,38,32,34,131,46*73
###2023-12-09 12:24:59.937460$GLGSV,1,1,04,71,63,167,45,72,61,317,40,73,53,030,48,75,18,237,39*6A
###2023-12-09 12:24:59.939529$GAGSV,1,1,03,04,18,310,36,21,74,180,46,27,45,051,47,,,,*59
