###2023-12-09 13:08:09.005543$GBGSV,2,2,06,33,56,229,48,35,15,067,41,,,,,,,,*6D
###2023-12-09 13:08:09.006893$GNVTG,74.66,T,,M,3.79,N,7.02,K,A*18
###2023-12-09 13:08:09.008546$GNGST,180808.10,18.000,,,,0.083,0.066,0.150*59
###2023-12-09 13:08:09.009844$GNZDA,180808.10,09,12,2023,00,00*79
###2023-12-09 13:08:09.010486$GNEBP,,,,,,M*13
###2023-12-09 13:08:09.171506$GNGGA,180808.30,4138.0804865,N,07032.3191735,W,1,25,0.6,13.265,M,-29.742,M,0.0,*55
###2023-12-09 13:08:09.369487$GNGGA,180808.50,4138.0805577,N,07032.3189210,W,1,25,0.6,13.252,M,-29.742,M,0.0,*53
###2023-12-09 13:08:09.570619$GNGGA,180808.70,4138.0806228,N,07032.3186640,W,1,25,0.6,13.278,M,-29.742,M,0.0,*59
###2023-12-09 13:08:09.769378$GNGGA,180808.90,4138.0806519,N,07032.3183862,W,1,25,0.6,13.283,M,-29.742,M,0.0,*5D
###2023-12-09 13:08:09.969816$GNRMC,180809.10,A,4138.0806640,N,07032.3181173,W,3.44,84.96,091223,,,A*6A
###2023-12-09 13:08:09.972712$GNGGA,180809.10,4138.0806640,N,07032.3181173,W,1,25,0.6,13.253,M,-29.742,M,0.0,*5D
###2023-12-09 13:08:09.974581$GPGSA,A,3,03,04,16,26,28,29,31,32,,,,,1.1,0.6,0.9*3B
###2023-12-09 13:08:09.976306$GLGSA,A,3,65,71,72,73,74,75,,,,,,,1.1,0.6,0.9*24
###2023-12-09 13:08:09.977900$GAGSA,A,3,04,19,21,27,,,,,,,,,1.1,0.6,0.9*26
###2023-12-09 13:08:09.979634$GBGSA,A,3,14,24,25,26,33,35,,,,,,,1.1,0.6,0.9*29
###2023-12-09 13:08:09.981975$GPGSV,2,1,08,03,34,258,44,04,35,311,41,16,53,214,47,26,83,210,48*78
###2023-12-09 13:08:09.984331$GPGSV,2,2,08,28,47,073,43,29,25,058,39,31,67,044,45,32,16,141,42*76
###2023-12-09 13:08:09.986685$GLGSV,2,1,06,65,26,326,40,71,37,173,46,72,72,258,46,73,33,043,44*6F
###2023-12-09 13:08:09.988441$GLGSV,2,2,06,74,68,345,43,75,34,256,48,,,,,,,,*63
###2023-12-09 13:08:09.990784$GAGSV,1,1,04,04,31,312,39,19,82,199,40,21,85,085,45,27,31,048,40*6A
###2023-12-09 13:08:09.993131$GBGSV,2,1,06,14,41,192,46,24,72,029,48,25,42,264,46,26,24,064,41*64
###2023-12-09 13:08:09.994898$GBGSV,2,2,06,33,56,229,48,35,15,067,42,,,,,,,,*6E
###2023-12-09 13:08:09.996198$GNVTG,84.96,T,,M,3.44,N,6.37,K,A*11
###2023-12-09 13:08:09.997849$GNGST,180809.10,18.000,,,,0.083,0.066,0.150*58
###2023-12-09 13:08:09.999153$GNZDA,180809.10,09,12,2023,00,00*78
###2023-12-09 13:08:09.999798$GNEBP,,,,,,M*13
###2023-12-09 13:08:10.167274$GNGGA,180809.30,4138.0807012,N,07032.3178593,W,1,25,0.6,13.267,M,-29.742,M,0.0,*54
###2023-12-09 13:08:10.368004$GNGGA,180809.50,4138.0807473,N,07032.3175878,W,1,25,0.6,13.265,M,-29.742,M,0.0,*56
###2023-12-09 13:08:10.568022$GNGGA,180809.70,4138.0807720,N,07032.3173201,W,1,25,0.6,13.264,M,-29.742,M,0.0,*52
###2023-12-09 13:08:10.768617$GNGGA,180809.90,4138.0807740,N,07032.3170403,W,1,25,0.6,13.285,M,-29.742,M,0.0,*52
###2023-12-09 13:08:10.969976$GNRMC,180810.10,A,4138.0807801,N,07032.3167544,W,3.69,79.59,091223,,,A*6E
###2023-12-09 13:08:10.972872$GNGGA,180810.10,4138.0807801,N,07032.3167544,W,1,25,0.6,13.262,M,-29.742,M,0.0,*55
###2023-12-09 13:08:10.974749$GPGSA,A,3,03,04,16,26,28,29,31,32,,,,,1.1,0.6,0.9*3B
###2023-12-09 13:08:10.976472$GLGSA,A,3,65,71,72,73,74,75,,,,,,,1.1,0.6,0.9*24
###2023-12-09 13:08:10.978056$GAGSA,A,3,04,19,21,27,,,,,,,,,1.1,0.6,0.9*26
###2023-12-09 13:08:10.979780$GBGSA,A,3,14,24,25,26,33,35,,,,,,,1.1,0.6,0.9*29
###2023-12-09 13:08:10.982100$GPGSV,2,1,08,03,34,258,44,04,35,311,41,16,53,214,47,26,83,210,48*78
###2023-12-09 13:08:10.984458$GPGSV,2,2,08,28,47,073,42,29,25,058,40,31,67,044,45,32,16,141,43*78
###2023-12-09 13:08:10.986811$GLGSV,2,1,06,65,26,326,40,71,37,173,47,72,72,258,46,73,33,043,44*6E
###2023-12-09 13:08:10.988567$GLGSV,2,2,06,74,68,345,43,75,34,256,47,,,,,,,,*6C
###2023-12-09 13:08:10.990917$GAGSV,1,1,04,04,31,312,39,19,82,199,41,21,85,085,46,27,31,048,41*69
###2023-12-09 13:08:10.993262$GBGSV,2,1,06,14,41,192,47,24,72,029,47,25,42,264,47,26,24,064,41*6B
###2023-12-09 13:08:10.995031$GBGSV,2,2,06,33,56,229,48,35,15,067,41,,,,,,,,*6D
###2023-12-09 13:08:10.996340$GNVTG,79.59,T,,M,3.69,N,6.84,K,A*17
###2023-12-09 13:08:10.997989$GNGST,180810.10,18.000,,,,0.083,0.066,0.150*50
###2023-12-09 13:08:10.999300$GNZDA,180810.10,09,12,2023,00,00*70
###2023-12-09 13:08:10.999940$GNEBP,,,,,,M*13
###2023-12-09 13:08:11.166588$GNGGA,180810.30,4138.0808479,N,07032.3165009,W,1,25,0.6,13.276,M,-29.742,M,0.0,*50
###2023-12-09 13:08:11.367733$GNGGA,180810.50,4138.0809096,N,07032.3162371,W,1,25,0.6,13.291,M,-29.742,M,0.0,*50
###2023-12-09 13:08:11.568868$GNGGA,180810.70,4138.0809153,N,07032.3159501,W,1,25,0.6,13.258,M,-29.742,M,0.0,*56
###2023-12-09 13:08:11.768603$GNGGA,180810.90,4138.0809535,N,07032.3156870,W,1,25,0.6,13.258,M,-29.742,M,0.0,*58
###2023-12-09 13:08:11.968950$GNRMC,180811.10,A,4138.0810425,N,07032.3154368,W,3.79,63.53,091223,,,A*6B
###2023-12-09 13:08:11.971826$GNGGA,180811.10,4138.0810425,N,07032.3154368,W,1,25,0.6,13.302,M,-29.742,M,0.0,*57
###2023-12-09 13:08:11.973690$GPGSA,A,3,03,04,16,26,28,29,31,32,,,,,1.1,0.6,0.9*3B
###2023-12-09 13:08:11.975426$GLGSA,A,3,65,71,72,73,74,75,,,,,,,1.1,0.6,0.9*24
###2023-12-09 13:08:11.977011$GAGSA,A,3,04,19,21,27,,,,,,,,,1.1,0.6,0.9*26
###2023-12-09 13:08:11.978740$GBGSA,A,3,14,24,25,26,33,35,,,,,,,1.1,0.6,0.9*29
###2023-12-09 13:08:11.981070$GPGSV,2,1,08,03,34,258,45,04,35,311,43,16,53,214,47,26,83,210,48*7B
###2023-12-09 13:08:11.983416$GPGSV,2,2,08,28,47,073,42,29,25,058,41,31,67,044,45,32,16,141,41*7B
###2023-12-09 13:08:11.985744$GLGSV,2,1,06,65,26,326,43,71,37,173,46,72,72,258,46,73,33,043,42*6A
###2023-12-09 13:08:11.987501$GLGSV,2,2,06,74,68,345,42,75,34,256,47,,,,,,,,*6D
###2023-12-09 13:08:11.989827$GAGSV,1,1,04,04,31,312,42,19,82,199,41,21,85,085,46,27,31,048,40*64
###2023-12-09 13:08:11.992160$GBGSV,2,1,06,14,41,192,45,24,72,029,47,25,42,264,46,26,24,064,42*6B
###2023-12-09 13:08:11.993908$GBGSV,2,2,06,33,56,229,48,35,15,067,41,,,,,,,,*6D
###2023-12-09 13:08:11.995213$GNVTG,63.53,T,,M,3.79,N,7.02,K,A*18
###2023-12-09 13:08:11.996857$GNGST,180811.10,18.000,,,,0.083,0.066,0.150*51
###2023-12-09 13:08:11.998146$GNZDA,180811.10,09,12,2023,00,00*71
###2023-12-09 13:08:11.998795$GNEBP,,,,,,M*13
###2023-12-09 13:08:12.167463$GNGGA,180811.30,4138.0811113,N,07032.3151789,W,1,25,0.6,13.304,M,-29.742,M,0.0,*5C
###2023-12-09 13:08:12.372612$GNGGA,180811.50,4138.0811495,N,07032.3149085,W,1,25,0.6,13.283,M,-29.742,M,0.0,*5D
###2023-12-09 13:08:12.567968$GNGGA,180811.70,4138.0811871,N,07032.3146357,W,1,25,0.6,13.257,M,-29.742,M,0.0,*53
###2023-12-09 13:08:12.769746$GNGGA,180811.90,4138.0812644,N,07032.3143944,W,1,25,0.6,13.274,M,-29.742,M,0.0,*5A
###2023-12-09 13:08:12.969790$GNRMC,180812.10,A,4138.0813412,N,07032.3141398,W,3.89,76.07,091223,,,A*6E
###2023-12-09 13:08:12.972669$GNGGA,180812.10,4138.0813412,N,07032.3141398,W,1,25,0.6,13.290,M,-29.742,M,0.0,*52
###2023-12-09 13:08:12.974527$GPGSA,A,3,03,04,16,26,28,29,31,32,,,,,1.1,0.6,0.9*3B
###2023-12-09 13:08:12.976264$GLGSA,A,3,65,71,72,73,74,75,,,,,,,1.1,0.6,0.9*24
###2023-12-09 13:08:12.977859$GAGSA,A,3,04,19,21,27,,,,,,,,,1.1,0.6,0.9*26
###2023-12-09 13:08:12.979595$GBGSA,A,3,14,24,25,26,33,35,,,,,,,1.1,0.6,0.9*29
###2023-12-09 13:08:12.981913$GPGSV,2,1,08,03,34,258,44,04,35,311,43,16,53,214,45,26,83,210,48*78
###2023-12-09 13:08:12.984248$GPGSV,2,2,08,28,47,073,42,29,25,058,41,31,67,044,45,32,16,141,37*7A
###2023-12-09 13:08:12.986583$GLGSV,2,1,06,65,26,326,43,71,37,173,44,72,72,258,46,73,33,043,44*6E
###2023-12-09 13:08:12.988334$GLGSV,2,2,06,74,68,345,43,75,34,256,47,,,,,,,,*6C
###2023-12-09 13:08:12.990677$GAGSV,1,1,04,04,31,312,41,19,82,199,40,21,85,085,45,27,31,048,39*6B
###2023-12-09 13:08:12.993000$GBGSV,2,1,06,14,41,192,43,24,72,029,48,25,42,264,45,26,24,064,43*60
###2023-12-09 13:08:12.994752$GBGSV,2,2,06,33,56,229,47,35,15,067,42,,,,,,,,*61
###2023-12-09 13:08:12.996050$GNVTG,76.07,T,,M,3.89,N,7.20,K,A*12
###2023-12-09 13:08:12.997696$GNGST,180812.10,18.000,,,,0.083,0.066,0.150*52
###2023-12-09 13:08:12.998998$GNZDA,180812.10,09,12,2023,00,00*72
###2023-12-09 13:08:12.999636$GNEBP,,,,,,M*13
###2023-12-09 13:08:13.167287$GNGGA,180812.30,4138.0813684,N,07032.3138660,W,1,25,0.6,13.265,M,-29.742,M,0.0,*5B
###2023-12-09 13:08:13.368000$GNGGA,180812.50,4138.0813922,N,07032.3136118,W,1,25,0.6,13.267,M,-29.742,M,0.0,*5A
###2023-12-09 13:08:13.569273$GNGGA,180812.70,4138.0814507,N,07032.3133575,W,1,25,0.6,13.281,M,-29.742,M,0.0,*56
###2023-12-09 13:08:13.771008$GNGGA,180812.90,4138.0814986,N,07032.3130981,W,1,25,0.6,13.233,M,-29.742,M,0.0,*50
###2023-12-09 13:08:13.973204$GNRMC,180813.10,A,4138.0815437,N,07032.3128510,W,3.46,75.89,091223,,,A*61
###2023-12-09 13:08:13.976096$GNGGA,180813.10,4138.0815437,N,07032.3128510,W,1,25,0.6,13.235,M,-29.742,M,0.0,*54
###2023-12-09 13:08:13.977959$GPGSA,A,3,03,04,16,26,28,29,31,32,,,,,1.1,0.6,0.9*3B
###2023-12-09 13:08:13.979697$GLGSA,A,3,65,71,72,73,74,75,,,,,,,1.1,0.6,0.9*24
###2023-12-09 13:08:13.981285$GAGSA,A,3,04,19,21,27,,,,,,,,,1.1,0.6,0.9*26
###2023-12-09 13:08:13.983010$GBGSA,A,3,14,24,25,26,33,35,,,,,,,1.1,0.6,0.9*29
###2023-12-09 13:08:13.985338$GPGSV,2,1,08,03,34,258,44,04,35,311,44,16,53,214,46,26,83,210,47*73
