###2023-12-09 13:30:13.007069$GLGSV,2,1,05,65,37,320,43,72,65,224,46,73,24,051,42,74,61,011,42*60
###2023-12-09 13:30:13.008552$GLGSV,2,2,05,75,42,268,46,,,,,,,,,,,,*5A
###2023-12-09 13:30:13.010901$GAGSV,1,1,04,04,38,310,43,19,74,182,41,21,78,048,46,27,24,050,42*61
###2023-12-09 13:30:13.013230$GBGSV,2,1,05,24,64,043,48,25,49,274,47,26,17,069,40,33,48,219,44*65
###2023-12-09 13:30:13.014696$GBGSV,2,2,05,35,16,058,42,,,,,,,,,,,,*54
###2023-12-09 13:30:13.016020$GNVTG,107.27,T,,M,2.06,N,3.82,K,A*2D
###2023-12-09 13:30:13.017640$GNGST,183012.10,5.800,,,,0.160,0.092,0.230*6F
###2023-12-09 13:30:13.018958$GNZDA,183012.10,09,12,2023,00,00*79
###2023-12-09 13:30:13.019603$GNEBP,,,,,,M*13
###2023-12-09 13:30:13.187204$GNGGA,183012.30,4138.0347953,N,07032.4248561,W,1,21,0.8,13.165,M,-29.746,M,0.0,*53
###2023-12-09 13:30:13.388338$GNGGA,183012.50,4138.0347774,N,07032.4246867,W,1,21,0.9,13.169,M,-29.746,M,0.0,*56
###2023-12-09 13:30:13.587080$GNGGA,183012.70,4138.0347622,N,07032.4245063,W,1,20,0.9,13.164,M,-29.746,M,0.0,*55
###2023-12-09 13:30:13.786253$GNGGA,183012.90,4138.0347648,N,07032.4243220,W,1,20,0.9,13.183,M,-29.746,M,0.0,*5D
###2023-12-09 13:30:13.986954$GNRMC,183013.10,A,4138.0347672,N,07032.4241242,W,2.80,84.06,091223,,,A*6C
###2023-12-09 13:30:13.989895$GNGGA,183013.10,4138.0347672,N,07032.4241242,W,1,20,0.9,13.193,M,-29.746,M,0.0,*5A
###2023-12-09 13:30:13.991640$GPGSA,A,3,04,16,26,28,29,31,,,,,,,1.6,0.9,1.3*3A
###2023-12-09 13:30:13.993297$GLGSA,A,3,65,72,73,74,75,,,,,,,,1.6,0.9,1.3*21
###2023-12-09 13:30:13.994898$GAGSA,A,3,04,19,21,27,,,,,,,,,1.6,0.9,1.3*25
###2023-12-09 13:30:13.996551$GBGSA,A,3,24,25,26,33,35,,,,,,,,1.6,0.9,1.3*2F
###2023-12-09 13:30:13.998902$GPGSV,2,1,06,04,44,309,45,16,64,220,47,26,86,041,48,28,39,083,43*7A
###2023-12-09 13:30:14.000659$GPGSV,2,2,06,29,21,049,40,31,61,063,46,,,,,,,,*7C
###2023-12-09 13:30:14.003011$GLGSV,2,1,05,65,37,320,42,72,65,224,47,73,24,051,39,74,61,011,41*6F
###2023-12-09 13:30:14.004474$GLGSV,2,2,05,75,42,268,46,,,,,,,,,,,,*5A
###2023-12-09 13:30:14.006826$GAGSV,1,1,04,04,38,310,44,19,74,182,42,21,78,048,47,27,24,050,38*69
###2023-12-09 13:30:14.009171$GBGSV,2,1,05,24,64,043,47,25,49,274,45,26,17,069,41,33,48,219,46*6B
###2023-12-09 13:30:14.010641$GBGSV,2,2,05,35,16,058,42,,,,,,,,,,,,*54
###2023-12-09 13:30:14.011938$GNVTG,84.06,T,,M,2.80,N,5.18,K,A*1F
###2023-12-09 13:30:14.013561$GNGST,183013.10,5.600,,,,0.160,0.093,0.240*66
###2023-12-09 13:30:14.014873$GNZDA,183013.10,09,12,2023,00,00*78
###2023-12-09 13:30:14.015516$GNEBP,,,,,,M*13
###2023-12-09 13:30:14.185086$GNGGA,183013.30,4138.0347765,N,07032.4239218,W,1,20,0.9,13.181,M,-29.746,M,0.0,*5C
###2023-12-09 13:30:14.385569$GNGGA,183013.50,4138.0347913,N,07032.4237125,W,1,20,0.9,13.183,M,-29.746,M,0.0,*54
###2023-12-09 13:30:14.585349$GNGGA,183013.70,4138.0348008,N,07032.4234972,W,1,20,0.9,13.189,M,-29.746,M,0.0,*59
###2023-12-09 13:30:14.784312$GNGGA,183013.90,4138.0348266,N,07032.4232721,W,1,21,0.9,13.188,M,-29.746,M,0.0,*53
###2023-12-09 13:30:14.988858$GNRMC,183014.10,A,4138.0348564,N,07032.4230515,W,2.95,79.80,091223,,,A*6B
###2023-12-09 13:30:14.991730$GNGGA,183014.10,4138.0348564,N,07032.4230515,W,1,21,0.9,13.181,M,-29.746,M,0.0,*57
###2023-12-09 13:30:14.993521$GPGSA,A,3,03,04,16,26,28,29,31,,,,,,1.4,0.9,1.1*39
###2023-12-09 13:30:14.995186$GLGSA,A,3,65,72,73,74,75,,,,,,,,1.4,0.9,1.1*21
###2023-12-09 13:30:14.996773$GAGSA,A,3,04,19,21,27,,,,,,,,,1.4,0.9,1.1*25
###2023-12-09 13:30:14.998420$GBGSA,A,3,24,25,26,33,35,,,,,,,,1.4,0.9,1.1*2F
###2023-12-09 13:30:15.000761$GPGSV,2,1,07,03,28,248,36,04,44,309,44,16,64,220,47,26,86,041,49*75
###2023-12-09 13:30:15.002814$GPGSV,2,2,07,28,39,083,43,29,21,049,40,31,61,063,45,,,,*42
###2023-12-09 13:30:15.005140$GLGSV,2,1,05,65,37,320,42,72,65,224,46,73,24,051,39,74,61,011,42*6D
###2023-12-09 13:30:15.006601$GLGSV,2,2,05,75,42,268,47,,,,,,,,,,,,*5B
###2023-12-09 13:30:15.008916$GAGSV,1,1,04,04,38,310,43,19,74,182,41,21,78,048,46,27,24,050,38*6C
###2023-12-09 13:30:15.011248$GBGSV,2,1,05,24,64,043,47,25,49,274,45,26,17,069,41,33,48,219,47*6A
###2023-12-09 13:30:15.012703$GBGSV,2,2,05,35,16,058,42,,,,,,,,,,,,*54
###2023-12-09 13:30:15.013990$GNVTG,79.80,T,,M,2.95,N,5.47,K,A*1D
###2023-12-09 13:30:15.015623$GNGST,183014.10,5.900,,,,0.160,0.093,0.240*6E
###2023-12-09 13:30:15.016916$GNZDA,183014.10,09,12,2023,00,00*7F
###2023-12-09 13:30:15.017556$GNEBP,,,,,,M*13
###2023-12-09 13:30:15.189070$GNGGA,183014.30,4138.0348875,N,07032.4228283,W,1,20,0.9,13.198,M,-29.746,M,0.0,*50
###2023-12-09 13:30:15.387783$GNGGA,183014.50,4138.0349091,N,07032.4225984,W,1,20,0.9,13.181,M,-29.746,M,0.0,*5C
###2023-12-09 13:30:15.586872$GNGGA,183014.70,4138.0349432,N,07032.4223711,W,1,20,0.9,13.189,M,-29.746,M,0.0,*5F
###2023-12-09 13:30:15.789791$GNGGA,183014.90,4138.0349694,N,07032.4221404,W,1,20,0.9,13.184,M,-29.746,M,0.0,*57
###2023-12-09 13:30:15.989136$GNRMC,183015.10,A,4138.0349922,N,07032.4219007,W,3.25,84.39,091223,,,A*62
###2023-12-09 13:30:15.992619$GNGGA,183015.10,4138.0349922,N,07032.4219007,W,1,20,0.9,13.192,M,-29.746,M,0.0,*57
###2023-12-09 13:30:15.994719$GPGSA,A,3,04,16,26,28,29,31,,,,,,,1.6,0.9,1.3*3A
###2023-12-09 13:30:15.996710$GLGSA,A,3,65,72,73,74,75,,,,,,,,1.6,0.9,1.3*21
###2023-12-09 13:30:15.998629$GAGSA,A,3,04,19,21,27,,,,,,,,,1.6,0.9,1.3*25
###2023-12-09 13:30:16.000610$GBGSA,A,3,24,25,26,33,35,,,,,,,,1.6,0.9,1.3*2F
###2023-12-09 13:30:16.003427$GPGSV,2,1,06,04,44,309,44,16,64,220,46,26,86,041,48,28,39,083,42*7B
###2023-12-09 13:30:16.005543$GPGSV,2,2,06,29,21,049,40,31,61,063,45,,,,,,,,*7F
###2023-12-09 13:30:16.008392$GLGSV,2,1,05,65,37,320,44,72,65,224,47,73,24,051,41,74,61,011,41*66
###2023-12-09 13:30:16.010156$GLGSV,2,2,05,75,42,268,46,,,,,,,,,,,,*5A
###2023-12-09 13:30:16.012969$GAGSV,1,1,04,04,38,310,43,19,74,182,42,21,78,048,46,27,24,050,38*6F
###2023-12-09 13:30:16.015777$GBGSV,2,1,05,24,64,043,48,25,49,274,47,26,17,069,41,33,48,219,46*66
###2023-12-09 13:30:16.017521$GBGSV,2,2,05,35,16,058,43,,,,,,,,,,,,*55
###2023-12-09 13:30:16.019087$GNVTG,84.39,T,,M,3.25,N,6.01,K,A*16
###2023-12-09 13:30:16.021030$GNGST,183015.10,5.400,,,,0.160,0.094,0.240*65
###2023-12-09 13:30:16.022604$GNZDA,183015.10,09,12,2023,00,00*7E
###2023-12-09 13:30:16.023375$GNEBP,,,,,,M*13
###2023-12-09 13:30:16.188697$GNGGA,183015.30,4138.0350149,N,07032.4216615,W,1,20,0.9,13.195,M,-29.746,M,0.0,*55
###2023-12-09 13:30:16.389742$GNGGA,183015.50,4138.0350426,N,07032.4214181,W,1,21,0.9,13.194,M,-29.746,M,0.0,*57
###2023-12-09 13:30:16.588266$GNGGA,183015.70,4138.0350703,N,07032.4211765,W,1,20,0.9,13.192,M,-29.746,M,0.0,*5F
###2023-12-09 13:30:16.789053$GNGGA,183015.90,4138.0350965,N,07032.4209297,W,1,21,0.9,13.202,M,-29.746,M,0.0,*55
###2023-12-09 13:30:16.992611$GNRMC,183016.10,A,4138.0351154,N,07032.4206864,W,3.27,86.14,091223,,,A*6D
###2023-12-09 13:30:16.996085$GNGGA,183016.10,4138.0351154,N,07032.4206864,W,1,21,0.9,13.188,M,-29.746,M,0.0,*5D
###2023-12-09 13:30:16.998254$GPGSA,A,3,03,04,16,26,28,29,31,,,,,,1.4,0.9,1.1*39
###2023-12-09 13:30:17.000258$GLGSA,A,3,65,72,73,74,75,,,,,,,,1.4,0.9,1.1*21
###2023-12-09 13:30:17.002192$GAGSA,A,3,04,19,21,27,,,,,,,,,1.4,0.9,1.1*25
###2023-12-09 13:30:17.004199$GBGSA,A,3,24,25,26,33,35,,,,,,,,1.4,0.9,1.1*2F
###2023-12-09 13:30:17.007017$GPGSV,2,1,07,03,28,248,38,04,44,309,45,16,64,220,47,26,86,041,48*7B
###2023-12-09 13:30:17.009474$GPGSV,2,2,07,28,39,083,43,29,21,049,41,31,61,063,46,,,,*40
###2023-12-09 13:30:17.012302$GLGSV,2,1,05,65,37,320,42,72,65,224,47,73,24,051,41,74,61,011,41*60
###2023-12-09 13:30:17.014044$GLGSV,2,2,05,75,42,268,46,,,,,,,,,,,,*5A
###2023-12-09 13:30:17.016855$GAGSV,1,1,04,04,38,310,44,19,74,182,41,21,78,048,45,27,24,050,38*68
###2023-12-09 13:30:17.019668$GBGSV,2,1,05,24,64,043,48,25,49,274,47,26,17,069,41,33,48,219,47*67
###2023-12-09 13:30:17.021421$GBGSV,2,2,05,35,16,058,43,,,,,,,,,,,,*55
###2023-12-09 13:30:17.022973$GNVTG,86.14,T,,M,3.27,N,6.05,K,A*1D
###2023-12-09 13:30:17.024955$GNGST,183016.10,11.000,,,,0.160,0.095,0.250*57
###2023-12-09 13:30:17.026505$GNZDA,183016.10,09,12,2023,00,00*7D
###2023-12-09 13:30:17.027287$GNEBP,,,,,,M*13
###2023-12-09 13:30:17.190789$GNGGA,183016.30,4138.0351371,N,07032.4204390,W,1,20,0.9,13.204,M,-29.746,M,0.0,*5E
###2023-12-09 13:30:17.390366$GNGGA,183016.50,4138.0351613,N,07032.4201895,W,1,20,0.9,13.195,M,-29.746,M,0.0,*59
###2023-12-09 13:30:17.589583$GNGGA,183016.70,4138.0351919,N,07032.4199607,W,1,20,0.9,13.197,M,-29.746,M,0.0,*5B
###2023-12-09 13:30:17.787682$GNGGA,183016.90,4138.0352119,N,07032.4197300,W,1,20,0.9,13.207,M,-29.746,M,0.0,*58
###2023-12-09 13:30:17.991103$GNRMC,183017.10,A,4138.0352244,N,07032.4195251,W,2.55,84.87,091223,,,A*64
###2023-12-09 13:30:17.994594$GNGGA,183017.10,4138.0352244,N,07032.4195251,W,1,20,0.9,13.192,M,-29.746,M,0.0,*52
###2023-12-09 13:30:17.996699$GPGSA,A,3,04,16,26,28,29,31,,,,,,,1.6,0.9,1.3*3A
