###2023-12-09 13:40:22.601531$GNGGA,184021.70,4138.0272184,N,07032.3874170,W,1,26,0.6,13.422,M,-29.745,M,0.0,*5F
###2023-12-09 13:40:22.802795$GNGGA,184021.90,4138.0272161,N,07032.3873850,W,1,26,0.6,13.400,M,-29.745,M,0.0,*56
###2023-12-09 13:40:23.008522$GNRMC,184022.10,A,4138.0272097,N,07032.3873707,W,0.43,219.26,091223,,,A*52
###2023-12-09 13:40:23.011990$GNGGA,184022.10,4138.0272097,N,07032.3873707,W,1,25,0.6,13.387,M,-29.745,M,0.0,*53
###2023-12-09 13:40:23.014225$GPGSA,A,3,03,04,16,26,27,28,29,31,,,,,1.1,0.6,0.9*3F
###2023-12-09 13:40:23.016384$GLGSA,A,3,65,71,72,73,74,75,83,,,,,,1.1,0.6,0.9*2F
###2023-12-09 13:40:23.018283$GAGSA,A,3,04,19,21,27,,,,,,,,,1.1,0.6,0.9*26
###2023-12-09 13:40:23.020359$GBGSA,A,3,12,14,24,25,33,35,,,,,,,1.1,0.6,0.9*2E
###2023-12-09 13:40:23.023164$GPGSV,2,1,08,03,25,244,37,04,48,306,44,16,69,225,45,26,81,040,48*74
###2023-12-09 13:40:23.025951$GPGSV,2,2,08,27,19,172,38,28,36,087,44,29,19,045,44,31,58,070,48*75
###2023-12-09 13:40:23.028850$GLGSV,2,1,07,65,40,316,43,71,20,176,41,72,60,217,46,73,20,054,45*67
###2023-12-09 13:40:23.031329$GLGSV,2,2,07,74,58,018,42,75,45,275,47,83,16,045,35,,,,*58
###2023-12-09 13:40:23.034131$GAGSV,1,1,04,04,41,309,43,19,69,180,41,21,74,044,46,27,21,050,43*6D
###2023-12-09 13:40:23.036945$GBGSV,2,1,06,12,17,124,40,14,26,189,38,24,61,048,49,25,52,278,47*6C
###2023-12-09 13:40:23.039058$GBGSV,2,2,06,33,44,215,44,35,16,055,45,,,,,,,,*6B
###2023-12-09 13:40:23.040649$GNVTG,219.26,T,,M,0.43,N,0.79,K,A*24
###2023-12-09 13:40:23.042591$GNGST,184022.10,5.800,,,,0.091,0.071,0.160*6F
###2023-12-09 13:40:23.044148$GNZDA,184022.10,09,12,2023,00,00*7D
###2023-12-09 13:40:23.044909$GNEBP,,,,,,M*13
###2023-12-09 13:40:23.203758$GNGGA,184022.30,4138.0271843,N,07032.3874187,W,1,25,0.6,13.415,M,-29.745,M,0.0,*56
###2023-12-09 13:40:23.402827$GNGGA,184022.50,4138.0271595,N,07032.3874676,W,1,26,0.6,13.417,M,-29.745,M,0.0,*5E
###2023-12-09 13:40:23.602718$GNGGA,184022.70,4138.0271536,N,07032.3874524,W,1,25,0.6,13.417,M,-29.745,M,0.0,*52
###2023-12-09 13:40:23.803225$GNGGA,184022.90,4138.0271603,N,07032.3874117,W,1,26,0.6,13.386,M,-29.745,M,0.0,*51
###2023-12-09 13:40:24.005938$GNRMC,184023.10,A,4138.0271452,N,07032.3874283,W,0.91,237.16,091223,,,A*53
###2023-12-09 13:40:24.009447$GNGGA,184023.10,4138.0271452,N,07032.3874283,W,1,25,0.6,13.389,M,-29.745,M,0.0,*5C
###2023-12-09 13:40:24.011720$GPGSA,A,3,03,04,16,26,27,28,29,31,,,,,1.1,0.6,0.9*3F
###2023-12-09 13:40:24.013869$GLGSA,A,3,65,71,72,73,74,75,83,,,,,,1.1,0.6,0.9*2F
###2023-12-09 13:40:24.015798$GAGSA,A,3,04,19,21,27,,,,,,,,,1.1,0.6,0.9*26
###2023-12-09 13:40:24.017870$GBGSA,A,3,12,14,24,25,33,35,,,,,,,1.1,0.6,0.9*2E
###2023-12-09 13:40:24.020687$GPGSV,2,1,08,03,25,244,35,04,48,306,44,16,69,225,45,26,81,040,48*76
###2023-12-09 13:40:24.023528$GPGSV,2,2,08,27,19,172,39,28,36,087,45,29,19,045,45,31,58,070,48*74
###2023-12-09 13:40:24.026345$GLGSV,2,1,07,65,40,316,43,71,20,176,41,72,60,217,45,73,20,054,46*67
###2023-12-09 13:40:24.028820$GLGSV,2,2,07,74,58,018,43,75,45,275,47,83,16,045,36,,,,*5A
###2023-12-09 13:40:24.031644$GAGSV,1,1,04,04,41,309,43,19,69,180,40,21,74,044,46,27,21,050,43*6C
###2023-12-09 13:40:24.034448$GBGSV,2,1,06,12,17,124,41,14,26,189,37,24,61,048,48,25,52,278,46*62
###2023-12-09 13:40:24.036596$GBGSV,2,2,06,33,44,215,45,35,16,055,44,,,,,,,,*6B
###2023-12-09 13:40:24.038198$GNVTG,237.16,T,,M,0.91,N,1.69,K,A*24
###2023-12-09 13:40:24.040159$GNGST,184023.10,5.900,,,,0.091,0.072,0.160*6C
###2023-12-09 13:40:24.041722$GNZDA,184023.10,09,12,2023,00,00*7C
###2023-12-09 13:40:24.042491$GNEBP,,,,,,M*13
###2023-12-09 13:40:24.205657$GNGGA,184023.30,4138.0271136,N,07032.3874891,W,1,26,0.6,13.415,M,-29.745,M,0.0,*51
###2023-12-09 13:40:24.401041$GNGGA,184023.50,4138.0271002,N,07032.3875120,W,1,25,0.6,13.415,M,-29.745,M,0.0,*50
###2023-12-09 13:40:24.601532$GNGGA,184023.70,4138.0271047,N,07032.3874728,W,1,24,0.6,13.403,M,-29.745,M,0.0,*5A
###2023-12-09 13:40:24.802543$GNGGA,184023.90,4138.0271013,N,07032.3874512,W,1,25,0.6,13.381,M,-29.745,M,0.0,*52
###2023-12-09 13:40:25.006160$GNRMC,184024.10,A,4138.0270804,N,07032.3874961,W,0.99,238.84,091223,,,A*51
###2023-12-09 13:40:25.009644$GNGGA,184024.10,4138.0270804,N,07032.3874961,W,1,25,0.6,13.401,M,-29.745,M,0.0,*55
###2023-12-09 13:40:25.011901$GPGSA,A,3,03,04,16,26,27,28,29,31,,,,,1.1,0.6,0.9*3F
###2023-12-09 13:40:25.014055$GLGSA,A,3,65,71,72,73,74,75,83,,,,,,1.1,0.6,0.9*2F
###2023-12-09 13:40:25.015980$GAGSA,A,3,04,19,21,27,,,,,,,,,1.1,0.6,0.9*26
###2023-12-09 13:40:25.018043$GBGSA,A,3,12,14,24,25,33,35,,,,,,,1.1,0.6,0.9*2E
###2023-12-09 13:40:25.020867$GPGSV,2,1,08,03,25,244,35,04,48,306,45,16,69,225,46,26,81,040,49*75
###2023-12-09 13:40:25.023677$GPGSV,2,2,08,27,19,172,39,28,36,087,44,29,19,045,44,31,58,070,48*74
###2023-12-09 13:40:25.026483$GLGSV,2,1,07,65,40,316,43,71,20,176,41,72,60,217,45,73,20,054,44*65
###2023-12-09 13:40:25.028983$GLGSV,2,2,07,74,58,018,43,75,45,275,48,83,16,045,36,,,,*55
###2023-12-09 13:40:25.031803$GAGSV,1,1,04,04,41,309,44,19,69,180,40,21,74,044,46,27,21,050,43*6B
###2023-12-09 13:40:25.034606$GBGSV,2,1,06,12,17,124,41,14,26,189,38,24,61,048,48,25,52,278,47*6C
###2023-12-09 13:40:25.036721$GBGSV,2,2,06,33,44,215,45,35,16,055,44,,,,,,,,*6B
###2023-12-09 13:40:25.038322$GNVTG,238.84,T,,M,0.99,N,1.84,K,A*2B
###2023-12-09 13:40:25.040283$GNGST,184024.10,5.700,,,,0.091,0.072,0.160*65
###2023-12-09 13:40:25.041846$GNZDA,184024.10,09,12,2023,00,00*7B
###2023-12-09 13:40:25.042623$GNEBP,,,,,,M*13
###2023-12-09 13:40:25.202493$GNGGA,184024.30,4138.0270579,N,07032.3875504,W,1,24,0.6,13.399,M,-29.745,M,0.0,*59
###2023-12-09 13:40:25.402682$GNGGA,184024.50,4138.0270496,N,07032.3875437,W,1,24,0.6,13.398,M,-29.745,M,0.0,*5F
###2023-12-09 13:40:25.601498$GNGGA,184024.70,4138.0270552,N,07032.3875025,W,1,24,0.6,13.385,M,-29.745,M,0.0,*5F
###2023-12-09 13:40:25.801555$GNGGA,184024.90,4138.0270495,N,07032.3875049,W,1,25,0.6,13.371,M,-29.745,M,0.0,*5B
###2023-12-09 13:40:26.006366$GNRMC,184025.10,A,4138.0270268,N,07032.3875621,W,0.99,241.73,091223,,,A*5C
###2023-12-09 13:40:26.009247$GNGGA,184025.10,4138.0270268,N,07032.3875621,W,1,25,0.6,13.397,M,-29.745,M,0.0,*56
###2023-12-09 13:40:26.011136$GPGSA,A,3,03,04,16,26,27,28,29,31,,,,,1.1,0.6,0.9*3F
###2023-12-09 13:40:26.012932$GLGSA,A,3,65,71,72,73,74,75,83,,,,,,1.1,0.6,0.9*2F
###2023-12-09 13:40:26.014514$GAGSA,A,3,04,19,21,27,,,,,,,,,1.1,0.6,0.9*26
###2023-12-09 13:40:26.016247$GBGSA,A,3,12,14,24,25,33,35,,,,,,,1.1,0.6,0.9*2E
###2023-12-09 13:40:26.018598$GPGSV,2,1,08,03,25,244,38,04,48,306,45,16,69,225,46,26,81,040,48*79
###2023-12-09 13:40:26.020941$GPGSV,2,2,08,27,19,172,38,28,36,087,45,29,19,045,43,31,58,070,47*7C
###2023-12-09 13:40:26.023291$GLGSV,2,1,07,65,40,316,44,71,20,176,42,72,60,217,45,73,20,054,44*61
###2023-12-09 13:40:26.025341$GLGSV,2,2,07,74,58,018,43,75,45,275,49,83,16,045,36,,,,*54
###2023-12-09 13:40:26.027690$GAGSV,1,1,04,04,41,309,45,19,69,180,41,21,74,044,46,27,21,050,42*6A
###2023-12-09 13:40:26.030036$GBGSV,2,1,06,12,17,124,41,14,26,189,39,24,61,048,48,25,52,278,49*63
###2023-12-09 13:40:26.031811$GBGSV,2,2,06,33,44,215,46,35,16,055,44,,,,,,,,*68
###2023-12-09 13:40:26.033142$GNVTG,241.73,T,,M,0.99,N,1.84,K,A*2D
###2023-12-09 13:40:26.034807$GNGST,184025.10,5.700,,,,0.091,0.072,0.160*64
###2023-12-09 13:40:26.036111$GNZDA,184025.10,09,12,2023,00,00*7A
###2023-12-09 13:40:26.036755$GNEBP,,,,,,M*13
###2023-12-09 13:40:26.201203$GNGGA,184025.30,4138.0270069,N,07032.3876053,W,1,24,0.6,13.400,M,-29.745,M,0.0,*5F
###2023-12-09 13:40:26.401069$GNGGA,184025.50,4138.0270072,N,07032.3875771,W,1,24,0.6,13.400,M,-29.745,M,0.0,*57
###2023-12-09 13:40:26.602503$GNGGA,184025.70,4138.0270173,N,07032.3875384,W,1,25,0.6,13.363,M,-29.745,M,0.0,*58
###2023-12-09 13:40:26.801494$GNGGA,184025.90,4138.0270036,N,07032.3875693,W,1,25,0.6,13.375,M,-29.745,M,0.0,*52
###2023-12-09 13:40:27.007002$GNRMC,184026.10,A,4138.0269774,N,07032.3876380,W,0.84,241.70,091223,,,A*5D
###2023-12-09 13:40:27.009867$GNGGA,184026.10,4138.0269774,N,07032.3876380,W,1,24,0.6,13.399,M,-29.745,M,0.0,*57
###2023-12-09 13:40:27.011736$GPGSA,A,3,03,04,16,26,27,28,29,31,,,,,1.1,0.6,0.9*3F
###2023-12-09 13:40:27.013799$GLGSA,A,3,65,71,72,73,74,75,,,,,,,1.1,0.6,0.9*24
###2023-12-09 13:40:27.015427$GAGSA,A,3,04,19,21,27,,,,,,,,,1.1,0.6,0.9*26
###2023-12-09 13:40:27.017150$GBGSA,A,3,12,14,24,25,33,35,,,,,,,1.1,0.6,0.9*2E
###2023-12-09 13:40:27.019489$GPGSV,2,1,08,03,25,244,38,04,48,306,46,16,69,225,46,26,81,040,48*7A
###2023-12-09 13:40:27.021824$GPGSV,2,2,08,27,19,172,39,28,36,087,44,29,19,045,41,31,58,070,46*7F
###2023-12-09 13:40:27.024175$GLGSV,2,1,06,65,40,316,46,71,20,176,42,72,60,217,46,73,20,054,41*64
###2023-12-09 13:40:27.025926$GLGSV,2,2,06,74,58,018,43,75,45,275,48,,,,,,,,*6C
###2023-12-09 13:40:27.028275$GAGSV,1,1,04,04,41,309,44,19,69,180,40,21,74,044,46,27,21,050,40*68
###2023-12-09 13:40:27.030630$GBGSV,2,1,06,12,17,124,39,14,26,189,39,24,61,048,46,25,52,278,48*63
###2023-12-09 13:40:27.032387$GBGSV,2,2,06,33,44,215,46,35,16,055,41,,,,,,,,*6D
###2023-12-09 13:40:27.033713$GNVTG,241.70,T,,M,0.84,N,1.55,K,A*2E
