###2023-12-09 13:48:17.034655$GNGST,184816.10,7.400,,,,0.210,0.120,0.320*66
###2023-12-09 13:48:17.035970$GNZDA,184816.10,09,12,2023,00,00*72
###2023-12-09 13:48:17.036612$GNEBP,,,,,,M*13
###2023-12-09 13:48:17.211019$GNGGA,184816.30,4138.0389912,N,07032.4383083,W,1,18,0.7,15.301,M,-29.746,M,0.0,*53
###2023-12-09 13:48:17.405671$GNGGA,184816.50,4138.0389888,N,07032.4383086,W,1,18,0.7,15.291,M,-29.746,M,0.0,*5A
###2023-12-09 13:48:17.604955$GNGGA,184816.70,4138.0389857,N,07032.4383086,W,1,18,0.7,15.288,M,-29.746,M,0.0,*52
###2023-12-09 13:48:17.805478$GNGGA,184816.90,4138.0389824,N,07032.4383087,W,1,18,0.7,15.280,M,-29.746,M,0.0,*51
###2023-12-09 13:48:18.008526$GNRMC,184817.10,A,4138.0389820,N,07032.4383078,W,0.02,243.17,091223,,,A*59
###2023-12-09 13:48:18.011408$GNGGA,184817.10,4138.0389820,N,07032.4383078,W,1,18,0.7,15.274,M,-29.746,M,0.0,*57
###2023-12-09 13:48:18.013143$GPGSA,A,3,04,16,26,28,29,31,,,,,,,1.3,0.7,1.1*33
###2023-12-09 13:48:18.014743$GLGSA,A,3,65,73,74,75,,,,,,,,,1.3,0.7,1.1*2D
###2023-12-09 13:48:18.016261$GAGSA,A,3,04,21,27,,,,,,,,,,1.3,0.7,1.1*24
###2023-12-09 13:48:18.017903$GBGSA,A,3,12,24,25,33,35,,,,,,,,1.3,0.7,1.1*21
###2023-12-09 13:48:18.020237$GPGSV,2,1,06,04,51,304,48,16,73,229,41,26,77,041,43,28,33,090,42*7B
###2023-12-09 13:48:18.021978$GPGSV,2,2,06,29,17,042,43,31,55,075,49,,,,,,,,*7E
###2023-12-09 13:48:18.024315$GLGSV,1,1,04,65,43,312,44,73,17,056,44,74,55,024,36,75,47,280,48*63
###2023-12-09 13:48:18.026352$GAGSV,1,1,03,04,44,307,45,21,72,043,40,27,18,051,40,,,,*53
###2023-12-09 13:48:18.028687$GBGSV,2,1,05,12,19,122,41,24,58,052,45,25,54,282,45,33,40,213,35*62
###2023-12-09 13:48:18.030145$GBGSV,2,2,05,35,16,051,37,,,,,,,,,,,,*5F
###2023-12-09 13:48:18.031478$GNVTG,243.17,T,,M,0.02,N,0.04,K,A*26
###2023-12-09 13:48:18.033093$GNGST,184817.10,7.000,,,,0.210,0.120,0.320*63
###2023-12-09 13:48:18.034385$GNZDA,184817.10,09,12,2023,00,00*73
###2023-12-09 13:48:18.035033$GNEBP,,,,,,M*13
###2023-12-09 13:48:18.207613$GNGGA,184817.30,4138.0389811,N,07032.4383087,W,1,18,0.7,15.267,M,-29.746,M,0.0,*55
###2023-12-09 13:48:18.405605$GNGGA,184817.50,4138.0389814,N,07032.4383096,W,1,18,0.7,15.256,M,-29.746,M,0.0,*54
###2023-12-09 13:48:18.609137$GNGGA,184817.70,4138.0389818,N,07032.4383093,W,1,18,0.7,15.257,M,-29.746,M,0.0,*5E
###2023-12-09 13:48:18.805789$GNGGA,184817.90,4138.0389803,N,07032.4383105,W,1,18,0.7,15.250,M,-29.746,M,0.0,*53
###2023-12-09 13:48:19.011401$GNRMC,184818.10,A,4138.0389802,N,07032.4383104,W,0.04,243.17,091223,,,A*5A
###2023-12-09 13:48:19.014253$GNGGA,184818.10,4138.0389802,N,07032.4383104,W,1,19,0.7,15.240,M,-29.746,M,0.0,*54
###2023-12-09 13:48:19.015992$GPGSA,A,3,04,16,26,28,29,31,,,,,,,1.2,0.7,1.0*33
###2023-12-09 13:48:19.017633$GLGSA,A,3,65,72,73,74,75,,,,,,,,1.2,0.7,1.0*28
###2023-12-09 13:48:19.019159$GAGSA,A,3,04,21,27,,,,,,,,,,1.2,0.7,1.0*24
###2023-12-09 13:48:19.020795$GBGSA,A,3,12,24,25,33,35,,,,,,,,1.2,0.7,1.0*21
###2023-12-09 13:48:19.023127$GPGSV,2,1,06,04,51,304,48,16,73,229,40,26,77,041,44,28,33,090,42*7D
###2023-12-09 13:48:19.024874$GPGSV,2,2,06,29,17,042,43,31,55,075,49,,,,,,,,*7E
###2023-12-09 13:48:19.027205$GLGSV,2,1,05,65,43,312,44,72,56,213,36,73,17,056,44,74,55,024,36*65
###2023-12-09 13:48:19.028658$GLGSV,2,2,05,75,47,280,48,,,,,,,,,,,,*57
###2023-12-09 13:48:19.030698$GAGSV,1,1,03,04,44,307,45,21,72,043,40,27,18,051,40,,,,*53
###2023-12-09 13:48:19.033021$GBGSV,2,1,05,12,19,122,41,24,58,052,44,25,54,282,46,33,40,213,35*60
###2023-12-09 13:48:19.034472$GBGSV,2,2,05,35,16,051,38,,,,,,,,,,,,*50
###2023-12-09 13:48:19.035799$GNVTG,243.17,T,,M,0.04,N,0.07,K,A*23
###2023-12-09 13:48:19.037413$GNGST,184818.10,7.500,,,,0.210,0.120,0.320*69
###2023-12-09 13:48:19.038711$GNZDA,184818.10,09,12,2023,00,00*7C
###2023-12-09 13:48:19.039351$GNEBP,,,,,,M*13
###2023-12-09 13:48:19.208133$GNGGA,184818.30,4138.0389820,N,07032.4383108,W,1,19,0.7,15.235,M,-29.746,M,0.0,*58
###2023-12-09 13:48:19.407956$GNGGA,184818.50,4138.0389824,N,07032.4383099,W,1,19,0.7,15.230,M,-29.746,M,0.0,*56
###2023-12-09 13:48:19.604721$GNGGA,184818.70,4138.0389831,N,07032.4383102,W,1,19,0.7,15.223,M,-29.746,M,0.0,*51
###2023-12-09 13:48:19.806491$GNGGA,184818.90,4138.0389827,N,07032.4383101,W,1,18,0.7,15.217,M,-29.746,M,0.0,*5D
###2023-12-09 13:48:20.008529$GNRMC,184819.10,A,4138.0389815,N,07032.4383087,W,0.02,243.17,091223,,,A*51
###2023-12-09 13:48:20.011501$GNGGA,184819.10,4138.0389815,N,07032.4383087,W,1,18,0.7,15.212,M,-29.746,M,0.0,*5F
###2023-12-09 13:48:20.013232$GPGSA,A,3,04,16,26,28,29,31,,,,,,,1.2,0.7,1.1*32
###2023-12-09 13:48:20.014826$GLGSA,A,3,65,73,74,75,,,,,,,,,1.2,0.7,1.1*2C
###2023-12-09 13:48:20.016346$GAGSA,A,3,04,21,27,,,,,,,,,,1.2,0.7,1.1*25
###2023-12-09 13:48:20.017984$GBGSA,A,3,12,24,25,33,35,,,,,,,,1.2,0.7,1.1*20
###2023-12-09 13:48:20.020310$GPGSV,2,1,06,04,51,304,49,16,73,229,41,26,77,041,45,28,33,090,42*7C
###2023-12-09 13:48:20.022061$GPGSV,2,2,06,29,17,042,43,31,55,075,50,,,,,,,,*76
###2023-12-09 13:48:20.024396$GLGSV,1,1,04,65,43,312,44,73,17,056,43,74,55,024,35,75,47,280,49*66
###2023-12-09 13:48:20.026434$GAGSV,1,1,03,04,44,307,45,21,72,043,40,27,18,051,40,,,,*53
###2023-12-09 13:48:20.028773$GBGSV,2,1,05,12,20,122,40,24,58,052,45,25,54,282,46,33,40,213,36*69
###2023-12-09 13:48:20.030231$GBGSV,2,2,05,35,16,051,38,,,,,,,,,,,,*50
###2023-12-09 13:48:20.031564$GNVTG,243.17,T,,M,0.02,N,0.04,K,A*26
###2023-12-09 13:48:20.033181$GNGST,184819.10,7.800,,,,0.210,0.120,0.320*65
###2023-12-09 13:48:20.034471$GNZDA,184819.10,09,12,2023,00,00*7D
###2023-12-09 13:48:20.035123$GNEBP,,,,,,M*13
###2023-12-09 13:48:20.206689$GNGGA,184819.30,4138.0389804,N,07032.4383080,W,1,18,0.7,15.210,M,-29.746,M,0.0,*58
###2023-12-09 13:48:20.405502$GNGGA,184819.50,4138.0389805,N,07032.4383068,W,1,18,0.7,15.212,M,-29.746,M,0.0,*5B
###2023-12-09 13:48:20.605203$GNGGA,184819.70,4138.0389799,N,07032.4383066,W,1,18,0.7,15.200,M,-29.746,M,0.0,*5E
###2023-12-09 13:48:20.809632$GNGGA,184819.90,4138.0389798,N,07032.4383064,W,1,18,0.7,15.188,M,-29.746,M,0.0,*50
###2023-12-09 13:48:21.015936$GNRMC,184820.10,A,4138.0389809,N,07032.4383056,W,0.02,243.17,091223,,,A*5A
###2023-12-09 13:48:21.018806$GNGGA,184820.10,4138.0389809,N,07032.4383056,W,1,18,0.7,15.182,M,-29.746,M,0.0,*5E
###2023-12-09 13:48:21.020527$GPGSA,A,3,04,16,26,28,29,31,,,,,,,1.2,0.7,1.1*32
###2023-12-09 13:48:21.022102$GLGSA,A,3,65,73,74,75,,,,,,,,,1.2,0.7,1.1*2C
###2023-12-09 13:48:21.023627$GAGSA,A,3,04,21,27,,,,,,,,,,1.2,0.7,1.1*25
###2023-12-09 13:48:21.025264$GBGSA,A,3,12,24,25,33,35,,,,,,,,1.2,0.7,1.1*20
###2023-12-09 13:48:21.027593$GPGSV,2,1,06,04,51,304,49,16,73,229,41,26,77,041,45,28,33,090,42*7C
###2023-12-09 13:48:21.029333$GPGSV,2,2,06,29,17,042,43,31,55,075,49,,,,,,,,*7E
###2023-12-09 13:48:21.031675$GLGSV,1,1,04,65,43,312,44,73,17,056,44,74,55,024,36,75,47,280,49*62
###2023-12-09 13:48:21.033712$GAGSV,1,1,03,04,44,307,45,21,72,043,40,27,18,051,40,,,,*53
###2023-12-09 13:48:21.036052$GBGSV,2,1,05,12,20,122,40,24,58,052,45,25,54,282,46,33,40,213,37*68
###2023-12-09 13:48:21.037507$GBGSV,2,2,05,35,16,051,39,,,,,,,,,,,,*51
###2023-12-09 13:48:21.038841$GNVTG,243.17,T,,M,0.02,N,0.04,K,A*26
###2023-12-09 13:48:21.040462$GNGST,184820.10,7.100,,,,0.210,0.120,0.320*66
###2023-12-09 13:48:21.041750$GNZDA,184820.10,09,12,2023,00,00*77
###2023-12-09 13:48:21.042389$GNEBP,,,,,,M*13
###2023-12-09 13:48:21.213799$GNGGA,184820.30,4138.0389825,N,07032.4383036,W,1,18,0.7,15.180,M,-29.746,M,0.0,*56
###2023-12-09 13:48:21.405785$GNGGA,184820.50,4138.0389817,N,07032.4383035,W,1,18,0.7,15.171,M,-29.746,M,0.0,*5C
###2023-12-09 13:48:21.605680$GNGGA,184820.70,4138.0389817,N,07032.4383024,W,1,18,0.7,15.168,M,-29.746,M,0.0,*56
###2023-12-09 13:48:21.806440$GNGGA,184820.90,4138.0389817,N,07032.4383019,W,1,18,0.7,15.162,M,-29.746,M,0.0,*5C
###2023-12-09 13:48:22.010266$GNRMC,184821.10,A,4138.0389820,N,07032.4383011,W,0.02,243.17,091223,,,A*53
###2023-12-09 13:48:22.013135$GNGGA,184821.10,4138.0389820,N,07032.4383011,W,1,18,0.7,15.161,M,-29.746,M,0.0,*5A
###2023-12-09 13:48:22.014871$GPGSA,A,3,04,16,26,28,29,31,,,,,,,1.2,0.7,1.1*32
###2023-12-09 13:48:22.016447$GLGSA,A,3,65,73,74,75,,,,,,,,,1.2,0.7,1.1*2C
###2023-12-09 13:48:22.018244$GAGSA,A,3,04,21,27,,,,,,,,,,1.2,0.7,1.1*25
###2023-12-09 13:48:22.019932$GBGSA,A,3,12,24,25,33,35,,,,,,,,1.2,0.7,1.1*20
###2023-12-09 13:48:22.022280$GPGSV,2,1,06,04,51,304,49,16,73,229,41,26,77,041,45,28,33,090,43*7D
###2023-12-09 13:48:22.024051$GPGSV,2,2,06,29,17,042,43,31,55,075,49,,,,,,,,*7E
###2023-12-09 13:48:22.026370$GLGSV,1,1,04,65,43,312,44,73,17,056,44,74,55,024,35,75,47,280,48*60
###2023-12-09 13:48:22.028413$GAGSV,1,1,03,04,44,307,44,21,72,043,40,27,18,051,40,,,,*52
###2023-12-09 13:48:22.030742$GBGSV,2,1,05,12,20,122,40,24,58,052,45,25,54,282,46,33,40,213,37*68
###2023-12-09 13:48:22.032197$GBGSV,2,2,05,35,16,051,38,,,,,,,,,,,,*50
