###2023-12-09 12:28:46.317854$GNGGA,172845.50,4138.0389646,N,07032.4362077,W,1,17,0.8,13.498,M,-29.746,M,0.0,*51
###2023-12-09 12:28:46.517867$GNGGA,172845.70,4138.0389577,N,07032.4362063,W,1,17,0.8,13.530,M,-29.746,M,0.0,*54
###2023-12-09 12:28:46.717088$GNGGA,172845.90,4138.0389510,N,07032.4362057,W,1,17,0.8,13.559,M,-29.746,M,0.0,*53
###2023-12-09 12:28:46.925333$GNRMC,172846.10,A,4138.0389441,N,07032.4362052,W,0.04,,091223,,,A*43
###2023-12-09 12:28:46.928545$GNGGA,172846.10,4138.0389441,N,07032.4362052,W,1,17,0.8,13.585,M,-29.746,M,0.0,*59
###2023-12-09 12:28:46.930608$GPGSA,A,3,03,16,26,28,29,31,32,,,,,,1.5,0.8,1.3*3E
###2023-12-09 12:28:46.932407$GLGSA,A,3,71,72,73,75,,,,,,,,,1.5,0.8,1.3*25
###2023-12-09 12:28:46.934056$GAGSA,A,3,21,27,,,,,,,,,,,1.5,0.8,1.3*2B
###2023-12-09 12:28:46.935852$GBGSA,A,3,14,25,26,33,,,,,,,,,1.5,0.8,1.3*28
###2023-12-09 12:28:46.938392$GPGSV,2,1,07,03,39,280,37,16,34,206,45,26,63,206,40,28,60,052,44*75
###2023-12-09 12:28:46.940649$GPGSV,2,2,07,29,25,077,42,31,73,351,45,32,33,132,46,,,,*47
###2023-12-09 12:28:46.943192$GLGSV,1,1,04,71,60,168,49,72,63,315,43,73,51,031,47,75,19,238,41*64
###2023-12-09 12:28:46.945136$GAGSV,1,1,02,21,75,179,40,27,43,050,46,,,,,,,,*65
###2023-12-09 12:28:46.947690$GBGSV,1,1,04,14,58,200,45,25,30,250,35,26,37,056,46,33,64,261,40*63
###2023-12-09 12:28:46.949061$GNVTG,,T,,M,0.04,N,0.07,K,A*3E
###2023-12-09 12:28:46.950927$GNGST,172846.10,31.000,,,,0.120,0.130,0.300*58
###2023-12-09 12:28:46.952344$GNZDA,172846.10,09,12,2023,00,00*7E
###2023-12-09 12:28:46.953093$GNEBP,,,,,,M*13
###2023-12-09 12:28:47.121043$GNGGA,172846.30,4138.0389375,N,07032.4362036,W,1,17,0.8,13.616,M,-29.746,M,0.0,*50
###2023-12-09 12:28:47.319070$GNGGA,172846.50,4138.0389306,N,07032.4362014,W,1,17,0.8,13.641,M,-29.746,M,0.0,*50
###2023-12-09 12:28:47.521348$GNGGA,172846.70,4138.0389236,N,07032.4362002,W,1,17,0.8,13.663,M,-29.746,M,0.0,*57
###2023-12-09 12:28:47.718997$GNGGA,172846.90,4138.0389181,N,07032.4362005,W,1,17,0.8,13.680,M,-29.746,M,0.0,*5C
###2023-12-09 12:28:47.919900$GNRMC,172847.10,A,4138.0389115,N,07032.4361999,W,0.00,,091223,,,A*4F
###2023-12-09 12:28:47.923053$GNGGA,172847.10,4138.0389115,N,07032.4361999,W,1,17,0.8,13.699,M,-29.746,M,0.0,*5F
###2023-12-09 12:28:47.925065$GPGSA,A,3,03,16,26,28,29,31,32,,,,,,1.5,0.8,1.3*3E
###2023-12-09 12:28:47.926874$GLGSA,A,3,71,72,73,75,,,,,,,,,1.5,0.8,1.3*25
###2023-12-09 12:28:47.928722$GAGSA,A,3,21,27,,,,,,,,,,,1.5,0.8,1.3*2B
###2023-12-09 12:28:47.930510$GBGSA,A,3,14,25,26,33,,,,,,,,,1.5,0.8,1.3*28
###2023-12-09 12:28:47.933048$GPGSV,2,1,07,03,39,280,37,16,34,206,45,26,63,206,40,28,60,052,44*75
###2023-12-09 12:28:47.935487$GPGSV,2,2,07,29,25,077,43,31,73,351,45,32,33,132,46,,,,*46
###2023-12-09 12:28:47.938036$GLGSV,1,1,04,71,60,168,49,72,63,315,42,73,51,031,47,75,19,238,41*65
###2023-12-09 12:28:47.939990$GAGSV,1,1,02,21,75,179,40,27,43,050,45,,,,,,,,*66
###2023-12-09 12:28:47.942514$GBGSV,1,1,04,14,58,200,45,25,30,250,35,26,37,056,47,33,64,261,40*62
###2023-12-09 12:28:47.943846$GNVTG,,T,,M,0.00,N,0.00,K,A*3D
###2023-12-09 12:28:47.945683$GNGST,172847.10,31.000,,,,0.120,0.130,0.300*59
###2023-12-09 12:28:47.947199$GNZDA,172847.10,09,12,2023,00,00*7F
###2023-12-09 12:28:47.948095$GNEBP,,,,,,M*13
###2023-12-09 12:28:48.121328$GNGGA,172847.30,4138.0389048,N,07032.4361996,W,1,17,0.8,13.714,M,-29.746,M,0.0,*5F
###2023-12-09 12:28:48.321542$GNGGA,172847.50,4138.0388987,N,07032.4361999,W,1,17,0.8,13.726,M,-29.746,M,0.0,*5C
###2023-12-09 12:28:48.519096$GNGGA,172847.70,4138.0388930,N,07032.4361994,W,1,17,0.8,13.742,M,-29.746,M,0.0,*5D
###2023-12-09 12:28:48.719979$GNGGA,172847.90,4138.0388869,N,07032.4361989,W,1,17,0.8,13.761,M,-29.746,M,0.0,*53
###2023-12-09 12:28:48.921797$GNRMC,172848.10,A,4138.0388810,N,07032.4361984,W,0.06,,091223,,,A*47
###2023-12-09 12:28:48.925576$GNGGA,172848.10,4138.0388810,N,07032.4361984,W,1,17,0.8,13.773,M,-29.746,M,0.0,*54
###2023-12-09 12:28:48.928026$GPGSA,A,3,03,16,26,28,29,31,32,,,,,,1.5,0.8,1.3*3E
###2023-12-09 12:28:48.930181$GLGSA,A,3,71,72,73,75,,,,,,,,,1.5,0.8,1.3*25
###2023-12-09 12:28:48.932186$GAGSA,A,3,21,27,,,,,,,,,,,1.5,0.8,1.3*2B
###2023-12-09 12:28:48.934329$GBGSA,A,3,14,25,26,33,,,,,,,,,1.5,0.8,1.3*28
###2023-12-09 12:28:48.937393$GPGSV,2,1,07,03,39,280,37,16,34,206,45,26,63,206,41,28,60,052,44*74
###2023-12-09 12:28:48.940108$GPGSV,2,2,07,29,25,077,44,31,73,351,45,32,33,132,46,,,,*41
###2023-12-09 12:28:48.943175$GLGSV,1,1,04,71,60,168,49,72,63,315,42,73,51,031,47,75,19,238,40*64
###2023-12-09 12:28:48.945547$GAGSV,1,1,02,21,75,179,41,27,43,050,45,,,,,,,,*67
###2023-12-09 12:28:48.948615$GBGSV,1,1,04,14,58,200,46,25,30,250,35,26,37,056,48,33,64,261,40*6E
###2023-12-09 12:28:48.950275$GNVTG,,T,,M,0.06,N,0.11,K,A*3B
###2023-12-09 12:28:48.952516$GNGST,172848.10,31.000,,,,0.120,0.130,0.300*56
###2023-12-09 12:28:48.954232$GNZDA,172848.10,09,12,2023,00,00*70
###2023-12-09 12:28:48.955163$GNEBP,,,,,,M*13
###2023-12-09 12:28:49.119636$GNGGA,172848.30,4138.0388749,N,07032.4361985,W,1,17,0.8,13.792,M,-29.746,M,0.0,*5B
###2023-12-09 12:28:49.321649$GNGGA,172848.50,4138.0388697,N,07032.4361979,W,1,17,0.8,13.802,M,-29.746,M,0.0,*5A
###2023-12-09 12:28:49.520959$GNGGA,172848.70,4138.0388640,N,07032.4361965,W,1,17,0.8,13.818,M,-29.746,M,0.0,*54
###2023-12-09 12:28:49.720841$GNGGA,172848.90,4138.0388579,N,07032.4361967,W,1,17,0.8,13.830,M,-29.746,M,0.0,*5B
###2023-12-09 12:28:49.923469$GNRMC,172849.10,A,4138.0388520,N,07032.4361951,W,0.06,,091223,,,A*40
###2023-12-09 12:28:49.927002$GNGGA,172849.10,4138.0388520,N,07032.4361951,W,1,17,0.8,13.840,M,-29.746,M,0.0,*5C
###2023-12-09 12:28:49.929224$GPGSA,A,3,03,16,26,28,29,31,32,,,,,,1.5,0.8,1.3*3E
###2023-12-09 12:28:49.931195$GLGSA,A,3,71,72,73,75,,,,,,,,,1.5,0.8,1.3*25
###2023-12-09 12:28:49.932984$GAGSA,A,3,21,27,,,,,,,,,,,1.5,0.8,1.3*2B
###2023-12-09 12:28:49.934949$GBGSA,A,3,14,25,26,33,,,,,,,,,1.5,0.8,1.3*28
###2023-12-09 12:28:49.937827$GPGSV,2,1,07,03,39,280,37,16,34,206,45,26,63,206,40,28,60,052,44*75
###2023-12-09 12:28:49.940351$GPGSV,2,2,07,29,25,077,44,31,73,351,45,32,33,132,46,,,,*41
###2023-12-09 12:28:49.943219$GLGSV,1,1,04,71,60,168,49,72,63,315,42,73,51,031,47,75,19,238,40*64
###2023-12-09 12:28:49.945384$GAGSV,1,1,02,21,75,179,40,27,43,050,46,,,,,,,,*65
###2023-12-09 12:28:49.948269$GBGSV,1,1,04,14,57,199,45,25,30,250,35,26,37,056,47,33,64,261,40*6E
###2023-12-09 12:28:49.949706$GNVTG,,T,,M,0.06,N,0.11,K,A*3B
###2023-12-09 12:28:49.951768$GNGST,172849.10,31.000,,,,0.120,0.130,0.300*57
###2023-12-09 12:28:49.953375$GNZDA,172849.10,09,12,2023,00,00*71
###2023-12-09 12:28:49.954166$GNEBP,,,,,,M*13
###2023-12-09 12:28:50.121856$GNGGA,172849.30,4138.0388466,N,07032.4361951,W,1,17,0.8,13.853,M,-29.746,M,0.0,*5F
###2023-12-09 12:28:50.321728$GNGGA,172849.50,4138.0388405,N,07032.4361941,W,1,17,0.8,13.868,M,-29.746,M,0.0,*55
###2023-12-09 12:28:50.521848$GNGGA,172849.70,4138.0388347,N,07032.4361952,W,1,17,0.8,13.882,M,-29.746,M,0.0,*50
###2023-12-09 12:28:50.720896$GNGGA,172849.90,4138.0388287,N,07032.4361955,W,1,17,0.8,13.899,M,-29.746,M,0.0,*5E
###2023-12-09 12:28:50.924480$GNRMC,172850.10,A,4138.0388215,N,07032.4361946,W,0.02,,091223,,,A*4B
###2023-12-09 12:28:50.928230$GNGGA,172850.10,4138.0388215,N,07032.4361946,W,1,17,0.8,13.915,M,-29.746,M,0.0,*52
###2023-12-09 12:28:50.930718$GPGSA,A,3,03,16,26,28,29,31,32,,,,,,1.5,0.8,1.3*3E
###2023-12-09 12:28:50.932920$GLGSA,A,3,71,72,73,75,,,,,,,,,1.5,0.8,1.3*25
###2023-12-09 12:28:50.934933$GAGSA,A,3,21,27,,,,,,,,,,,1.5,0.8,1.3*2B
###2023-12-09 12:28:50.937083$GBGSA,A,3,14,25,26,33,,,,,,,,,1.5,0.8,1.3*28
###2023-12-09 12:28:50.940310$GPGSV,2,1,07,03,39,280,37,16,34,206,45,26,63,206,41,28,60,052,44*74
###2023-12-09 12:28:50.943080$GPGSV,2,2,07,29,25,077,44,31,73,351,45,32,33,132,46,,,,*41
###2023-12-09 12:28:50.945991$GLGSV,1,1,04,71,60,168,49,72,63,315,43,73,51,031,47,75,19,238,40*65
###2023-12-09 12:28:50.948185$GAGSV,1,1,02,21,75,179,40,27,43,050,45,,,,,,,,*66
###2023-12-09 12:28:50.951290$GBGSV,1,1,04,14,57,199,46,25,31,251,35,26,37,056,48,33,64,261,42*60
###2023-12-09 12:28:50.952706$GNVTG,,T,,M,0.02,N,0.04,K,A*3B
###2023-12-09 12:28:50.954793$GNGST,172850.10,31.000,,,,0.120,0.130,0.300*5F
###2023-12-09 12:28:50.956721$GNZDA,172850.10,09,12,2023,00,00*79
###2023-12-09 12:28:50.957757$GNEBP,,,,,,M*13
###2023-12-09 12:28:51.124578$GNGGA,172850.30,4138.0388151,N,07032.4361957,W,1,17,0.8,13.926,M,-29.746,M,0.0,*53
###2023-12-09 12:28:51.321992$GNGGA,172850.50,4138.0388104,N,07032.4361955,W,1,17,0.8,13.940,M,-29.746,M,0.0,*57
###2023-12-09 12:28:51.521632$GNGGA,172850.70,4138.0388046,N,07032.4361954,W,1,17,0.8,13.954,M,-29.746,M,0.0,*56
###2023-12-09 12:28:51.721796$GNGGA,172850.90,4138.0387989,N,07032.4361947,W,1,17,0.8,13.970,M,-29.746,M,0.0,*59
###2023-12-09 12:28:51.921281$GNRMC,172851.10,A,4138.0387936,N,07032.4361943,W,0.02,,091223,,,A*4A
###2023-12-09 12:28:51.925061$GNGGA,172851.10,4138.0387936,N,07032.4361943,W,1,17,0.8,13.985,M,-29.746,M,0.0,*5A
