###2023-12-09 12:57:40.959071$GNRMC,175740.10,A,4138.0346970,N,07032.3652674,W,3.23,94.83,091223,,,A*6C
###2023-12-09 12:57:40.961954$GNGGA,175740.10,4138.0346970,N,07032.3652674,W,1,24,0.6,13.271,M,-29.745,M,0.0,*59
###2023-12-09 12:57:40.963829$GPGSA,A,3,03,04,16,26,28,29,31,32,,,,,1.1,0.6,0.9*3B
###2023-12-09 12:57:40.965545$GLGSA,A,3,65,71,72,73,74,75,,,,,,,1.1,0.6,0.9*24
###2023-12-09 12:57:40.967142$GAGSA,A,3,04,19,21,27,,,,,,,,,1.1,0.6,0.9*26
###2023-12-09 12:57:40.968792$GBGSA,A,3,14,24,25,26,33,,,,,,,,1.1,0.6,0.9*2F
###2023-12-09 12:57:40.971124$GPGSV,2,1,08,03,36,264,45,04,31,311,41,16,48,211,47,26,78,209,48*73
###2023-12-09 12:57:40.973452$GPGSV,2,2,08,28,50,069,44,29,25,063,40,31,69,033,46,32,20,139,41*7E
###2023-12-09 12:57:40.975787$GLGSV,2,1,06,65,22,328,40,71,43,172,47,72,73,277,47,73,37,040,46*6E
###2023-12-09 12:57:40.977534$GLGSV,2,2,06,74,70,331,43,75,30,251,46,,,,,,,,*64
###2023-12-09 12:57:40.979875$GAGSV,1,1,04,04,27,312,40,19,85,234,41,21,85,141,46,27,34,048,43*6D
###2023-12-09 12:57:40.982211$GBGSV,2,1,05,14,45,193,46,24,75,020,48,25,39,260,46,26,27,062,42*62
###2023-12-09 12:57:40.983680$GBGSV,2,2,05,33,59,235,48,,,,,,,,,,,,*5A
###2023-12-09 12:57:40.984972$GNVTG,94.83,T,,M,3.23,N,5.98,K,A*13
###2023-12-09 12:57:40.986627$GNGST,175740.10,18.000,,,,0.079,0.067,0.160*57
###2023-12-09 12:57:40.987922$GNZDA,175740.10,09,12,2023,00,00*70
###2023-12-09 12:57:40.988561$GNEBP,,,,,,M*13
###2023-12-09 12:57:41.157150$GNGGA,175740.30,4138.0346730,N,07032.3650193,W,1,24,0.6,13.278,M,-29.745,M,0.0,*54
###2023-12-09 12:57:41.358252$GNGGA,175740.50,4138.0346453,N,07032.3647717,W,1,24,0.6,13.268,M,-29.745,M,0.0,*59
###2023-12-09 12:57:41.558243$GNGGA,175740.70,4138.0346295,N,07032.3645279,W,1,24,0.6,13.277,M,-29.745,M,0.0,*56
###2023-12-09 12:57:41.758388$GNGGA,175740.90,4138.0346200,N,07032.3642798,W,1,24,0.6,13.281,M,-29.745,M,0.0,*50
###2023-12-09 12:57:41.959720$GNRMC,175741.10,A,4138.0346120,N,07032.3640286,W,3.34,92.85,091223,,,A*6C
###2023-12-09 12:57:41.962617$GNGGA,175741.10,4138.0346120,N,07032.3640286,W,1,24,0.6,13.271,M,-29.745,M,0.0,*5F
###2023-12-09 12:57:41.964494$GPGSA,A,3,03,04,16,26,28,29,31,32,,,,,1.1,0.6,0.9*3B
###2023-12-09 12:57:41.966213$GLGSA,A,3,65,71,72,73,74,75,,,,,,,1.1,0.6,0.9*24
###2023-12-09 12:57:41.967817$GAGSA,A,3,04,19,21,27,,,,,,,,,1.1,0.6,0.9*26
###2023-12-09 12:57:41.969473$GBGSA,A,3,14,24,25,26,33,,,,,,,,1.1,0.6,0.9*2F
###2023-12-09 12:57:41.971820$GPGSV,2,1,08,03,36,264,46,04,31,311,41,16,48,211,47,26,78,209,48*70
###2023-12-09 12:57:41.974157$GPGSV,2,2,08,28,50,069,44,29,25,063,40,31,69,033,47,32,20,139,42*7C
###2023-12-09 12:57:41.976498$GLGSV,2,1,06,65,22,328,41,71,43,172,46,72,73,277,47,73,37,040,45*6D
###2023-12-09 12:57:41.978249$GLGSV,2,2,06,74,70,331,43,75,30,251,46,,,,,,,,*64
###2023-12-09 12:57:41.980597$GAGSV,1,1,04,04,27,312,40,19,85,234,41,21,85,141,46,27,34,048,43*6D
###2023-12-09 12:57:41.982944$GBGSV,2,1,05,14,45,193,46,24,75,020,48,25,39,260,48,26,27,062,41*6F
###2023-12-09 12:57:41.984398$GBGSV,2,2,05,33,59,235,47,,,,,,,,,,,,*55
###2023-12-09 12:57:41.985692$GNVTG,92.85,T,,M,3.34,N,6.19,K,A*1F
###2023-12-09 12:57:41.987350$GNGST,175741.10,18.000,,,,0.079,0.067,0.160*56
###2023-12-09 12:57:41.988642$GNZDA,175741.10,09,12,2023,00,00*71
###2023-12-09 12:57:41.989282$GNEBP,,,,,,M*13
###2023-12-09 12:57:42.158177$GNGGA,175741.30,4138.0346006,N,07032.3637788,W,1,24,0.6,13.272,M,-29.745,M,0.0,*50
###2023-12-09 12:57:42.358553$GNGGA,175741.50,4138.0346031,N,07032.3635305,W,1,24,0.6,13.288,M,-29.745,M,0.0,*54
###2023-12-09 12:57:42.558915$GNGGA,175741.70,4138.0346120,N,07032.3632768,W,1,24,0.6,13.280,M,-29.745,M,0.0,*57
###2023-12-09 12:57:42.759046$GNGGA,175741.90,4138.0346211,N,07032.3630350,W,1,24,0.6,13.276,M,-29.745,M,0.0,*5C
###2023-12-09 12:57:42.958916$GNRMC,175742.10,A,4138.0346239,N,07032.3627864,W,3.46,90.24,091223,,,A*6F
###2023-12-09 12:57:42.961785$GNGGA,175742.10,4138.0346239,N,07032.3627864,W,1,24,0.6,13.280,M,-29.745,M,0.0,*5E
###2023-12-09 12:57:42.963656$GPGSA,A,3,03,04,16,26,28,29,31,32,,,,,1.1,0.6,0.9*3B
###2023-12-09 12:57:42.965371$GLGSA,A,3,65,71,72,73,74,75,,,,,,,1.1,0.6,0.9*24
###2023-12-09 12:57:42.966971$GAGSA,A,3,04,19,21,27,,,,,,,,,1.1,0.6,0.9*26
###2023-12-09 12:57:42.968614$GBGSA,A,3,14,24,25,26,33,,,,,,,,1.1,0.6,0.9*2F
###2023-12-09 12:57:42.970936$GPGSV,2,1,08,03,36,264,46,04,31,311,41,16,48,211,47,26,78,209,48*70
###2023-12-09 12:57:42.973264$GPGSV,2,2,08,28,50,069,44,29,25,063,40,31,69,033,47,32,20,139,43*7D
###2023-12-09 12:57:42.975598$GLGSV,2,1,06,65,22,328,41,71,43,172,46,72,73,277,46,73,37,040,44*6D
###2023-12-09 12:57:42.977335$GLGSV,2,2,06,74,70,331,43,75,30,251,46,,,,,,,,*64
###2023-12-09 12:57:42.979665$GAGSV,1,1,04,04,27,312,39,19,85,234,41,21,85,141,46,27,34,048,43*63
###2023-12-09 12:57:42.981985$GBGSV,2,1,05,14,45,193,47,24,75,020,48,25,39,260,46,26,27,062,42*63
###2023-12-09 12:57:42.983440$GBGSV,2,2,05,33,59,235,48,,,,,,,,,,,,*5A
###2023-12-09 12:57:42.984728$GNVTG,90.24,T,,M,3.46,N,6.41,K,A*1E
###2023-12-09 12:57:42.986365$GNGST,175742.10,18.000,,,,0.079,0.067,0.160*55
###2023-12-09 12:57:42.987663$GNZDA,175742.10,09,12,2023,00,00*72
###2023-12-09 12:57:42.988301$GNEBP,,,,,,M*13
###2023-12-09 12:57:43.158198$GNGGA,175742.30,4138.0346214,N,07032.3625338,W,1,24,0.6,13.270,M,-29.745,M,0.0,*5C
###2023-12-09 12:57:43.358771$GNGGA,175742.50,4138.0346331,N,07032.3622947,W,1,24,0.6,13.278,M,-29.745,M,0.0,*51
###2023-12-09 12:57:43.558796$GNGGA,175742.70,4138.0346412,N,07032.3620439,W,1,24,0.6,13.280,M,-29.745,M,0.0,*54
###2023-12-09 12:57:43.758580$GNGGA,175742.90,4138.0346221,N,07032.3617982,W,1,24,0.6,13.265,M,-29.745,M,0.0,*5E
###2023-12-09 12:57:43.959780$GNRMC,175743.10,A,4138.0346095,N,07032.3615576,W,3.32,93.17,091223,,,A*65
###2023-12-09 12:57:43.962657$GNGGA,175743.10,4138.0346095,N,07032.3615576,W,1,24,0.6,13.276,M,-29.745,M,0.0,*5D
###2023-12-09 12:57:43.964516$GPGSA,A,3,03,04,16,26,28,29,31,32,,,,,1.1,0.6,0.9*3B
###2023-12-09 12:57:43.966227$GLGSA,A,3,65,71,72,73,74,75,,,,,,,1.1,0.6,0.9*24
###2023-12-09 12:57:43.967824$GAGSA,A,3,04,19,21,27,,,,,,,,,1.1,0.6,0.9*26
###2023-12-09 12:57:43.969475$GBGSA,A,3,14,24,25,26,33,,,,,,,,1.1,0.6,0.9*2F
###2023-12-09 12:57:43.971824$GPGSV,2,1,08,03,36,264,46,04,31,311,41,16,48,211,48,26,78,209,48*7F
###2023-12-09 12:57:43.974167$GPGSV,2,2,08,28,50,069,45,29,25,063,41,31,69,033,47,32,20,139,43*7D
###2023-12-09 12:57:43.976521$GLGSV,2,1,06,65,22,328,40,71,43,172,47,72,73,277,47,73,37,040,45*6D
###2023-12-09 12:57:43.978275$GLGSV,2,2,06,74,70,331,42,75,30,251,46,,,,,,,,*65
###2023-12-09 12:57:43.980621$GAGSV,1,1,04,04,27,312,40,19,85,234,41,21,85,141,46,27,34,048,43*6D
###2023-12-09 12:57:43.982965$GBGSV,2,1,05,14,45,193,47,24,75,020,50,25,39,260,48,26,27,062,44*62
###2023-12-09 12:57:43.984427$GBGSV,2,2,05,33,59,235,49,,,,,,,,,,,,*5B
###2023-12-09 12:57:43.985718$GNVTG,93.17,T,,M,3.32,N,6.16,K,A*1C
###2023-12-09 12:57:43.987386$GNGST,175743.10,18.000,,,,0.079,0.067,0.160*54
###2023-12-09 12:57:43.988686$GNZDA,175743.10,09,12,2023,00,00*73
###2023-12-09 12:57:43.989324$GNEBP,,,,,,M*13
###2023-12-09 12:57:44.158028$GNGGA,175743.30,4138.0345983,N,07032.3613062,W,1,24,0.6,13.287,M,-29.745,M,0.0,*5A
###2023-12-09 12:57:44.358101$GNGGA,175743.50,4138.0345825,N,07032.3610638,W,1,24,0.6,13.276,M,-29.745,M,0.0,*55
###2023-12-09 12:57:44.558777$GNGGA,175743.70,4138.0345514,N,07032.3608227,W,1,24,0.6,13.286,M,-29.745,M,0.0,*54
###2023-12-09 12:57:44.758636$GNGGA,175743.90,4138.0345216,N,07032.3605718,W,1,24,0.6,13.289,M,-29.745,M,0.0,*54
###2023-12-09 12:57:44.966705$GNRMC,175744.10,A,4138.0344991,N,07032.3603208,W,3.34,94.67,091223,,,A*62
###2023-12-09 12:57:44.969569$GNGGA,175744.10,4138.0344991,N,07032.3603208,W,1,24,0.6,13.287,M,-29.745,M,0.0,*52
###2023-12-09 12:57:44.971437$GPGSA,A,3,03,04,16,26,28,29,31,32,,,,,1.1,0.6,0.9*3B
###2023-12-09 12:57:44.973158$GLGSA,A,3,65,71,72,73,74,75,,,,,,,1.1,0.6,0.9*24
###2023-12-09 12:57:44.974753$GAGSA,A,3,04,19,21,27,,,,,,,,,1.1,0.6,0.9*26
###2023-12-09 12:57:44.976408$GBGSA,A,3,14,24,25,26,33,,,,,,,,1.1,0.6,0.9*2F
###2023-12-09 12:57:44.978760$GPGSV,2,1,08,03,36,264,46,04,31,311,41,16,48,211,48,26,78,209,48*7F
###2023-12-09 12:57:44.981334$GPGSV,2,2,08,28,50,069,44,29,25,063,41,31,69,033,47,32,20,139,42*7D
###2023-12-09 12:57:44.983690$GLGSV,2,1,06,65,22,328,39,71,43,172,47,72,73,277,46,73,37,040,45*62
###2023-12-09 12:57:44.985441$GLGSV,2,2,06,74,70,331,43,75,30,251,46,,,,,,,,*64
###2023-12-09 12:57:44.987776$GAGSV,1,1,04,04,27,312,40,19,85,234,41,21,85,141,46,27,34,048,43*6D
###2023-12-09 12:57:44.990105$GBGSV,2,1,05,14,45,193,46,24,75,020,49,25,39,260,47,26,27,062,43*63
###2023-12-09 12:57:44.991573$GBGSV,2,2,05,33,59,235,48,,,,,,,,,,,,*5A
###2023-12-09 12:57:44.992869$GNVTG,94.67,T,,M,3.34,N,6.19,K,A*15
###2023-12-09 12:57:44.994513$GNGST,175744.10,18.000,,,,0.079,0.067,0.160*53
###2023-12-09 12:57:44.995816$GNZDA,175744.10,09,12,2023,00,00*74
