###2023-12-09 13:15:27.011905$GNGST,181526.10,18.000,,,,0.097,0.071,0.170*58
###2023-12-09 13:15:27.013225$GNZDA,181526.10,09,12,2023,00,00*79
###2023-12-09 13:15:27.013867$GNEBP,,,,,,M*13
###2023-12-09 13:15:27.181256$GNGGA,181526.30,4138.0197615,N,07032.2709426,W,1,24,0.7,12.891,M,-29.744,M,0.0,*5E
###2023-12-09 13:15:27.379514$GNGGA,181526.50,4138.0198703,N,07032.2711133,W,1,24,0.7,12.897,M,-29.744,M,0.0,*5F
###2023-12-09 13:15:27.580163$GNGGA,181526.70,4138.0199734,N,07032.2712888,W,1,24,0.7,12.895,M,-29.744,M,0.0,*50
###2023-12-09 13:15:27.780249$GNGGA,181526.90,4138.0200797,N,07032.2714631,W,1,24,0.7,12.895,M,-29.744,M,0.0,*5E
###2023-12-09 13:15:27.981801$GNRMC,181527.10,A,4138.0201932,N,07032.2716328,W,3.07,313.31,091223,,,A*5F
###2023-12-09 13:15:27.984694$GNGGA,181527.10,4138.0201932,N,07032.2716328,W,1,24,0.7,12.904,M,-29.744,M,0.0,*51
###2023-12-09 13:15:27.986489$GPGSA,A,3,03,04,16,26,28,29,31,,,,,,1.2,0.7,1.0*30
###2023-12-09 13:15:27.988215$GLGSA,A,3,65,71,72,73,74,75,,,,,,,1.2,0.7,1.0*2E
###2023-12-09 13:15:27.989795$GAGSA,A,3,04,19,21,27,,,,,,,,,1.2,0.7,1.0*2C
###2023-12-09 13:15:27.991526$GBGSA,A,3,14,24,25,26,33,35,,,,,,,1.2,0.7,1.0*23
###2023-12-09 13:15:27.993859$GPGSV,2,1,07,03,32,254,43,04,38,311,42,16,57,216,46,26,87,208,48*7E
###2023-12-09 13:15:27.995914$GPGSV,2,2,07,28,45,076,45,29,24,055,43,31,65,050,47,,,,*48
###2023-12-09 13:15:27.998243$GLGSV,2,1,06,65,30,325,41,71,33,174,44,72,71,243,46,73,30,046,45*65
###2023-12-09 13:15:28.000005$GLGSV,2,2,06,74,66,355,42,75,37,260,45,,,,,,,,*66
###2023-12-09 13:15:28.002327$GAGSV,1,1,04,04,33,312,42,19,80,192,41,21,84,066,46,27,29,048,43*69
###2023-12-09 13:15:28.004676$GBGSV,2,1,06,14,37,191,44,24,69,035,48,25,45,267,47,26,22,066,42*61
###2023-12-09 13:15:28.006427$GBGSV,2,2,06,33,53,225,47,35,16,064,43,,,,,,,,*69
###2023-12-09 13:15:28.007762$GNVTG,313.31,T,,M,3.07,N,5.69,K,A*2E
###2023-12-09 13:15:28.009447$GNGST,181527.10,18.000,,,,0.097,0.071,0.170*59
###2023-12-09 13:15:28.010751$GNZDA,181527.10,09,12,2023,00,00*78
###2023-12-09 13:15:28.011392$GNEBP,,,,,,M*13
###2023-12-09 13:15:28.178533$GNGGA,181527.30,4138.0203072,N,07032.2718012,W,1,24,0.7,12.903,M,-29.744,M,0.0,*5F
###2023-12-09 13:15:28.379510$GNGGA,181527.50,4138.0204227,N,07032.2719713,W,1,24,0.7,12.907,M,-29.744,M,0.0,*5F
###2023-12-09 13:15:28.579781$GNGGA,181527.70,4138.0205434,N,07032.2721407,W,1,24,0.7,12.911,M,-29.744,M,0.0,*52
###2023-12-09 13:15:28.779974$GNGGA,181527.90,4138.0206738,N,07032.2722998,W,1,24,0.7,12.914,M,-29.744,M,0.0,*5D
###2023-12-09 13:15:28.982832$GNRMC,181528.10,A,4138.0208105,N,07032.2724471,W,3.15,322.59,091223,,,A*50
###2023-12-09 13:15:28.985716$GNGGA,181528.10,4138.0208105,N,07032.2724471,W,1,24,0.7,12.921,M,-29.744,M,0.0,*56
###2023-12-09 13:15:28.987531$GPGSA,A,3,03,04,16,26,28,29,31,,,,,,1.2,0.7,1.0*30
###2023-12-09 13:15:28.989248$GLGSA,A,3,65,71,72,73,74,75,,,,,,,1.2,0.7,1.0*2E
###2023-12-09 13:15:28.990840$GAGSA,A,3,04,19,21,27,,,,,,,,,1.2,0.7,1.0*2C
###2023-12-09 13:15:28.992555$GBGSA,A,3,14,24,25,26,33,35,,,,,,,1.2,0.7,1.0*23
###2023-12-09 13:15:28.994890$GPGSV,2,1,07,03,32,254,43,04,38,311,42,16,57,216,46,26,87,208,48*7E
###2023-12-09 13:15:28.996924$GPGSV,2,2,07,28,44,077,46,29,24,055,42,31,65,050,47,,,,*4A
###2023-12-09 13:15:28.999256$GLGSV,2,1,06,65,30,325,41,71,33,174,44,72,71,243,46,73,30,046,43*63
###2023-12-09 13:15:29.001035$GLGSV,2,2,06,74,66,355,42,75,37,260,46,,,,,,,,*65
###2023-12-09 13:15:29.003374$GAGSV,1,1,04,04,33,312,41,19,80,192,41,21,84,066,46,27,29,048,41*68
###2023-12-09 13:15:29.005701$GBGSV,2,1,06,14,37,191,43,24,69,035,48,25,45,267,47,26,22,066,42*66
###2023-12-09 13:15:29.007462$GBGSV,2,2,06,33,53,225,47,35,16,064,42,,,,,,,,*68
###2023-12-09 13:15:29.008790$GNVTG,322.59,T,,M,3.15,N,5.83,K,A*25
###2023-12-09 13:15:29.010436$GNGST,181528.10,18.000,,,,0.097,0.071,0.170*56
###2023-12-09 13:15:29.012181$GNZDA,181528.10,09,12,2023,00,00*77
###2023-12-09 13:15:29.012980$GNEBP,,,,,,M*13
###2023-12-09 13:15:29.178471$GNGGA,181528.30,4138.0209543,N,07032.2725902,W,1,24,0.7,12.925,M,-29.744,M,0.0,*5F
###2023-12-09 13:15:29.378294$GNGGA,181528.50,4138.0211053,N,07032.2727275,W,1,24,0.7,12.929,M,-29.744,M,0.0,*51
###2023-12-09 13:15:29.579446$GNGGA,181528.70,4138.0212643,N,07032.2728572,W,1,24,0.7,12.928,M,-29.744,M,0.0,*59
###2023-12-09 13:15:29.778443$GNGGA,181528.90,4138.0214309,N,07032.2729792,W,1,24,0.7,12.926,M,-29.744,M,0.0,*59
###2023-12-09 13:15:29.980877$GNRMC,181529.10,A,4138.0216026,N,07032.2730994,W,3.54,333.31,091223,,,A*56
###2023-12-09 13:15:29.983759$GNGGA,181529.10,4138.0216026,N,07032.2730994,W,1,24,0.7,12.925,M,-29.744,M,0.0,*5F
###2023-12-09 13:15:29.985556$GPGSA,A,3,03,04,16,26,28,29,31,,,,,,1.2,0.7,1.0*30
###2023-12-09 13:15:29.987301$GLGSA,A,3,65,71,72,73,74,75,,,,,,,1.2,0.7,1.0*2E
###2023-12-09 13:15:29.988903$GAGSA,A,3,04,19,21,27,,,,,,,,,1.2,0.7,1.0*2C
###2023-12-09 13:15:29.990630$GBGSA,A,3,14,24,25,26,33,35,,,,,,,1.2,0.7,1.0*23
###2023-12-09 13:15:29.993006$GPGSV,2,1,07,03,32,254,44,04,38,311,42,16,57,216,46,26,87,208,48*79
###2023-12-09 13:15:29.995070$GPGSV,2,2,07,28,44,077,46,29,24,054,43,31,65,050,47,,,,*4A
###2023-12-09 13:15:29.997410$GLGSV,2,1,06,65,30,325,40,71,33,174,45,72,71,243,45,73,30,046,44*67
###2023-12-09 13:15:29.999167$GLGSV,2,2,06,74,66,355,42,75,37,260,45,,,,,,,,*66
###2023-12-09 13:15:30.001495$GAGSV,1,1,04,04,33,312,39,19,80,192,41,21,84,066,46,27,29,048,41*67
###2023-12-09 13:15:30.003838$GBGSV,2,1,06,14,37,191,43,24,69,035,48,25,45,267,46,26,22,066,43*66
###2023-12-09 13:15:30.005585$GBGSV,2,2,06,33,53,225,47,35,16,064,42,,,,,,,,*68
###2023-12-09 13:15:30.006925$GNVTG,333.31,T,,M,3.54,N,6.55,K,A*26
###2023-12-09 13:15:30.008572$GNGST,181529.10,18.000,,,,0.098,0.071,0.170*58
###2023-12-09 13:15:30.009861$GNZDA,181529.10,09,12,2023,00,00*76
###2023-12-09 13:15:30.010498$GNEBP,,,,,,M*13
###2023-12-09 13:15:30.178513$GNGGA,181529.30,4138.0217770,N,07032.2732188,W,1,24,0.7,12.922,M,-29.744,M,0.0,*58
###2023-12-09 13:15:30.377574$GNGGA,181529.50,4138.0219558,N,07032.2733379,W,1,24,0.7,12.921,M,-29.744,M,0.0,*56
###2023-12-09 13:15:30.578962$GNGGA,181529.70,4138.0221364,N,07032.2734498,W,1,24,0.7,12.925,M,-29.744,M,0.0,*5D
###2023-12-09 13:15:30.779572$GNGGA,181529.90,4138.0223205,N,07032.2735556,W,1,24,0.7,12.931,M,-29.744,M,0.0,*50
###2023-12-09 13:15:30.982508$GNRMC,181530.10,A,4138.0225032,N,07032.2736681,W,3.60,333.57,091223,,,A*51
###2023-12-09 13:15:30.985400$GNGGA,181530.10,4138.0225032,N,07032.2736681,W,1,24,0.7,12.928,M,-29.744,M,0.0,*52
###2023-12-09 13:15:30.987222$GPGSA,A,3,03,04,16,26,28,29,31,,,,,,1.2,0.7,1.0*30
###2023-12-09 13:15:30.988956$GLGSA,A,3,65,71,72,73,74,75,,,,,,,1.2,0.7,1.0*2E
###2023-12-09 13:15:30.990542$GAGSA,A,3,04,19,21,27,,,,,,,,,1.2,0.7,1.0*2C
###2023-12-09 13:15:30.992267$GBGSA,A,3,14,24,25,26,33,35,,,,,,,1.2,0.7,1.0*23
###2023-12-09 13:15:30.994606$GPGSV,2,1,07,03,32,254,44,04,38,311,42,16,57,216,46,26,87,208,48*79
###2023-12-09 13:15:30.996651$GPGSV,2,2,07,28,44,077,46,29,24,054,43,31,65,050,47,,,,*4A
###2023-12-09 13:15:30.998995$GLGSV,2,1,06,65,30,325,40,71,33,174,45,72,71,243,46,73,30,046,44*64
###2023-12-09 13:15:31.000753$GLGSV,2,2,06,74,66,355,42,75,37,260,45,,,,,,,,*66
###2023-12-09 13:15:31.003087$GAGSV,1,1,04,04,33,312,40,19,80,192,41,21,84,066,46,27,29,048,42*6A
###2023-12-09 13:15:31.005420$GBGSV,2,1,06,14,37,191,42,24,69,035,48,25,45,267,46,26,22,066,42*66
###2023-12-09 13:15:31.007181$GBGSV,2,2,06,33,53,225,47,35,16,064,42,,,,,,,,*68
###2023-12-09 13:15:31.008515$GNVTG,333.57,T,,M,3.60,N,6.66,K,A*21
###2023-12-09 13:15:31.010173$GNGST,181530.10,18.000,,,,0.098,0.071,0.170*50
###2023-12-09 13:15:31.011479$GNZDA,181530.10,09,12,2023,00,00*7E
###2023-12-09 13:15:31.012124$GNEBP,,,,,,M*13
###2023-12-09 13:15:31.177513$GNGGA,181530.30,4138.0226827,N,07032.2737880,W,1,24,0.7,12.923,M,-29.744,M,0.0,*5A
###2023-12-09 13:15:31.378880$GNGGA,181530.50,4138.0228623,N,07032.2739035,W,1,24,0.7,12.926,M,-29.744,M,0.0,*55
###2023-12-09 13:15:31.579497$GNGGA,181530.70,4138.0230466,N,07032.2740195,W,1,24,0.7,12.927,M,-29.744,M,0.0,*59
###2023-12-09 13:15:31.780189$GNGGA,181530.90,4138.0232239,N,07032.2741499,W,1,24,0.7,12.925,M,-29.744,M,0.0,*53
###2023-12-09 13:15:31.981863$GNRMC,181531.10,A,4138.0233924,N,07032.2742930,W,3.60,327.56,091223,,,A*5B
###2023-12-09 13:15:31.984764$GNGGA,181531.10,4138.0233924,N,07032.2742930,W,1,24,0.7,12.930,M,-29.744,M,0.0,*55
###2023-12-09 13:15:31.986578$GPGSA,A,3,03,04,16,26,28,29,31,,,,,,1.2,0.7,1.0*30
###2023-12-09 13:15:31.988304$GLGSA,A,3,65,71,72,73,74,75,,,,,,,1.2,0.7,1.0*2E
###2023-12-09 13:15:31.989896$GAGSA,A,3,04,19,21,27,,,,,,,,,1.2,0.7,1.0*2C
###2023-12-09 13:15:31.991624$GBGSA,A,3,14,24,25,26,33,35,,,,,,,1.2,0.7,1.0*23
###2023-12-09 13:15:31.993952$GPGSV,2,1,07,03,32,254,43,04,38,311,41,16,57,216,45,26,87,208,48*7E
###2023-12-09 13:15:31.995998$GPGSV,2,2,07,28,44,077,46,29,24,054,43,31,65,052,47,,,,*48
###2023-12-09 13:15:31.998337$GLGSV,2,1,06,65,30,325,41,71,33,174,44,72,71,243,46,73,30,046,44*64
