###2023-12-09 13:21:34.010021$GPGSV,2,2,07,28,42,080,45,29,23,052,41,31,63,057,47,,,,*45
###2023-12-09 13:21:34.012412$GLGSV,2,1,06,65,33,323,41,71,30,174,45,72,69,234,46,73,27,048,42*64
###2023-12-09 13:21:34.014175$GLGSV,2,2,06,74,64,002,41,75,39,263,47,,,,,,,,*69
###2023-12-09 13:21:34.016525$GAGSV,1,1,04,04,35,311,43,19,77,186,41,21,81,055,46,27,27,049,40*69
###2023-12-09 13:21:34.018873$GBGSV,2,1,06,14,35,191,43,24,67,039,48,25,47,270,47,26,20,067,43*60
###2023-12-09 13:21:34.020631$GBGSV,2,2,06,33,51,222,47,35,16,062,43,,,,,,,,*6A
###2023-12-09 13:21:34.021960$GNVTG,356.54,T,,M,3.38,N,6.26,K,A*28
###2023-12-09 13:21:34.023624$GNGST,182133.10,18.000,,,,0.100,0.070,0.170*55
###2023-12-09 13:21:34.024923$GNZDA,182133.10,09,12,2023,00,00*7A
###2023-12-09 13:21:34.025563$GNEBP,,,,,,M*13
###2023-12-09 13:21:34.188612$GNGGA,182133.30,4138.0474610,N,07032.3434744,W,1,24,0.7,13.164,M,-29.744,M,0.0,*59
###2023-12-09 13:21:34.384158$GNGGA,182133.50,4138.0476574,N,07032.3434710,W,1,24,0.7,13.166,M,-29.744,M,0.0,*5F
###2023-12-09 13:21:34.585208$GNGGA,182133.70,4138.0478618,N,07032.3434759,W,1,24,0.7,13.172,M,-29.744,M,0.0,*52
###2023-12-09 13:21:34.783996$GNGGA,182133.90,4138.0480734,N,07032.3434696,W,1,24,0.7,13.172,M,-29.744,M,0.0,*56
###2023-12-09 13:21:34.988625$GNRMC,182134.10,A,4138.0482873,N,07032.3434386,W,3.93,8.13,091223,,,A*51
###2023-12-09 13:21:34.991499$GNGGA,182134.10,4138.0482873,N,07032.3434386,W,1,24,0.7,13.159,M,-29.744,M,0.0,*5A
###2023-12-09 13:21:34.993294$GPGSA,A,3,03,04,16,26,28,29,31,,,,,,1.1,0.7,0.9*3B
###2023-12-09 13:21:34.995061$GLGSA,A,3,65,71,72,73,74,75,,,,,,,1.1,0.7,0.9*25
###2023-12-09 13:21:34.996644$GAGSA,A,3,04,19,21,27,,,,,,,,,1.1,0.7,0.9*27
###2023-12-09 13:21:34.998351$GBGSA,A,3,14,24,25,26,33,35,,,,,,,1.1,0.7,0.9*28
###2023-12-09 13:21:35.000687$GPGSV,2,1,07,03,30,252,43,04,41,310,44,16,60,218,46,26,90,099,49*74
###2023-12-09 13:21:35.002736$GPGSV,2,2,07,28,42,080,45,29,23,052,41,31,63,057,45,,,,*47
###2023-12-09 13:21:35.005057$GLGSV,2,1,06,65,33,323,41,71,30,174,43,72,69,234,46,73,27,048,40*60
###2023-12-09 13:21:35.006810$GLGSV,2,2,06,74,64,002,41,75,39,263,47,,,,,,,,*69
###2023-12-09 13:21:35.009140$GAGSV,1,1,04,04,35,311,43,19,77,186,40,21,81,055,45,27,27,049,38*64
###2023-12-09 13:21:35.011483$GBGSV,2,1,06,14,35,191,44,24,67,039,48,25,47,270,47,26,20,067,44*60
###2023-12-09 13:21:35.013229$GBGSV,2,2,06,33,51,222,48,35,16,062,43,,,,,,,,*65
###2023-12-09 13:21:35.014488$GNVTG,8.13,T,,M,3.93,N,7.27,K,A*22
###2023-12-09 13:21:35.016148$GNGST,182134.10,18.000,,,,0.100,0.069,0.170*5A
###2023-12-09 13:21:35.017437$GNZDA,182134.10,09,12,2023,00,00*7D
###2023-12-09 13:21:35.018075$GNEBP,,,,,,M*13
###2023-12-09 13:21:35.184525$GNGGA,182134.30,4138.0485013,N,07032.3433983,W,1,24,0.7,13.165,M,-29.744,M,0.0,*56
###2023-12-09 13:21:35.383712$GNGGA,182134.50,4138.0487214,N,07032.3433650,W,1,24,0.7,13.181,M,-29.744,M,0.0,*5C
###2023-12-09 13:21:35.584644$GNGGA,182134.70,4138.0489440,N,07032.3433104,W,1,24,0.7,13.183,M,-29.744,M,0.0,*53
###2023-12-09 13:21:35.784521$GNGGA,182134.90,4138.0491607,N,07032.3432248,W,1,24,0.7,13.181,M,-29.744,M,0.0,*5D
###2023-12-09 13:21:35.987170$GNRMC,182135.10,A,4138.0493715,N,07032.3431315,W,3.98,19.50,091223,,,A*6C
###2023-12-09 13:21:35.990648$GNGGA,182135.10,4138.0493715,N,07032.3431315,W,1,24,0.7,13.181,M,-29.744,M,0.0,*5E
###2023-12-09 13:21:35.992823$GPGSA,A,3,03,04,16,26,28,29,31,,,,,,1.1,0.7,0.9*3B
###2023-12-09 13:21:35.994909$GLGSA,A,3,65,71,72,73,74,75,,,,,,,1.1,0.7,0.9*25
###2023-12-09 13:21:35.996815$GAGSA,A,3,04,19,21,27,,,,,,,,,1.1,0.7,0.9*27
###2023-12-09 13:21:35.998902$GBGSA,A,3,14,24,25,26,33,35,,,,,,,1.1,0.7,0.9*28
###2023-12-09 13:21:36.001707$GPGSV,2,1,07,03,30,252,38,04,41,310,44,16,60,218,45,26,90,099,47*75
###2023-12-09 13:21:36.004193$GPGSV,2,2,07,28,42,080,41,29,23,052,40,31,63,057,44,,,,*43
###2023-12-09 13:21:36.007036$GLGSV,2,1,06,65,33,323,42,71,30,174,43,72,69,234,46,73,27,048,41*62
###2023-12-09 13:21:36.009141$GLGSV,2,2,06,74,64,002,41,75,39,263,47,,,,,,,,*69
###2023-12-09 13:21:36.011959$GAGSV,1,1,04,04,35,311,41,19,77,186,39,21,81,055,45,27,27,049,39*69
###2023-12-09 13:21:36.014788$GBGSV,2,1,06,14,35,191,43,24,67,039,48,25,47,270,49,26,20,067,43*6E
###2023-12-09 13:21:36.016891$GBGSV,2,2,06,33,51,222,47,35,16,062,43,,,,,,,,*6A
###2023-12-09 13:21:36.018449$GNVTG,19.50,T,,M,3.98,N,7.38,K,A*10
###2023-12-09 13:21:36.020486$GNGST,182135.10,18.000,,,,0.100,0.069,0.170*5B
###2023-12-09 13:21:36.022043$GNZDA,182135.10,09,12,2023,00,00*7C
###2023-12-09 13:21:36.022829$GNEBP,,,,,,M*13
###2023-12-09 13:21:36.184331$GNGGA,182135.30,4138.0495740,N,07032.3430242,W,1,24,0.7,13.197,M,-29.744,M,0.0,*5F
###2023-12-09 13:21:36.386214$GNGGA,182135.50,4138.0497614,N,07032.3428853,W,1,24,0.7,13.202,M,-29.744,M,0.0,*57
###2023-12-09 13:21:36.585681$GNGGA,182135.70,4138.0499378,N,07032.3427382,W,1,24,0.7,13.190,M,-29.744,M,0.0,*54
###2023-12-09 13:21:36.785616$GNGGA,182135.90,4138.0501230,N,07032.3426102,W,1,24,0.7,13.198,M,-29.744,M,0.0,*54
###2023-12-09 13:21:36.991741$GNRMC,182136.10,A,4138.0503019,N,07032.3424761,W,3.71,32.84,091223,,,A*68
###2023-12-09 13:21:36.995215$GNGGA,182136.10,4138.0503019,N,07032.3424761,W,1,24,0.7,13.192,M,-29.744,M,0.0,*5F
###2023-12-09 13:21:36.997364$GPGSA,A,3,03,04,16,26,28,29,31,,,,,,1.1,0.7,0.9*3B
###2023-12-09 13:21:36.999443$GLGSA,A,3,65,71,72,73,74,75,,,,,,,1.1,0.7,0.9*25
###2023-12-09 13:21:37.001355$GAGSA,A,3,04,19,21,27,,,,,,,,,1.1,0.7,0.9*27
###2023-12-09 13:21:37.003436$GBGSA,A,3,14,24,25,26,33,35,,,,,,,1.1,0.7,0.9*28
###2023-12-09 13:21:37.006221$GPGSV,2,1,07,03,30,252,39,04,41,310,46,16,60,218,46,26,90,099,47*75
###2023-12-09 13:21:37.008690$GPGSV,2,2,07,28,42,080,42,29,23,052,41,31,63,057,45,,,,*40
###2023-12-09 13:21:37.011531$GLGSV,2,1,06,65,33,323,41,71,30,174,43,72,69,234,47,73,27,048,42*63
###2023-12-09 13:21:37.013638$GLGSV,2,2,06,74,64,002,41,75,39,263,48,,,,,,,,*66
###2023-12-09 13:21:37.016432$GAGSV,1,1,04,04,35,311,45,19,77,186,41,21,81,055,46,27,27,049,40*6F
###2023-12-09 13:21:37.019250$GBGSV,2,1,06,14,35,191,44,24,67,039,48,25,47,270,48,26,20,067,43*68
###2023-12-09 13:21:37.021353$GBGSV,2,2,06,33,51,222,47,35,16,062,42,,,,,,,,*6B
###2023-12-09 13:21:37.022920$GNVTG,32.84,T,,M,3.71,N,6.88,K,A*1D
###2023-12-09 13:21:37.024899$GNGST,182136.10,18.000,,,,0.100,0.070,0.170*50
###2023-12-09 13:21:37.026454$GNZDA,182136.10,09,12,2023,00,00*7F
###2023-12-09 13:21:37.027231$GNEBP,,,,,,M*13
###2023-12-09 13:21:37.185780$GNGGA,182136.30,4138.0504630,N,07032.3423141,W,1,24,0.7,13.206,M,-29.744,M,0.0,*5A
###2023-12-09 13:21:37.384555$GNGGA,182136.50,4138.0506165,N,07032.3421367,W,1,24,0.7,13.207,M,-29.744,M,0.0,*5C
###2023-12-09 13:21:37.583899$GNGGA,182136.70,4138.0507764,N,07032.3419751,W,1,24,0.7,13.195,M,-29.744,M,0.0,*5A
###2023-12-09 13:21:37.783839$GNGGA,182136.90,4138.0509512,N,07032.3418592,W,1,24,0.7,13.198,M,-29.744,M,0.0,*58
###2023-12-09 13:21:37.988412$GNRMC,182137.10,A,4138.0511287,N,07032.3417365,W,3.54,33.05,091223,,,A*60
###2023-12-09 13:21:37.991275$GNGGA,182137.10,4138.0511287,N,07032.3417365,W,1,24,0.7,13.208,M,-29.744,M,0.0,*58
###2023-12-09 13:21:37.993067$GPGSA,A,3,03,04,16,26,28,29,31,,,,,,1.1,0.7,0.9*3B
###2023-12-09 13:21:37.994792$GLGSA,A,3,65,71,72,73,74,75,,,,,,,1.1,0.7,0.9*25
###2023-12-09 13:21:37.996375$GAGSA,A,3,04,19,21,27,,,,,,,,,1.1,0.7,0.9*27
###2023-12-09 13:21:37.998083$GBGSA,A,3,14,24,25,26,33,35,,,,,,,1.1,0.7,0.9*28
###2023-12-09 13:21:38.000426$GPGSV,2,1,07,03,30,252,41,04,41,310,44,16,60,218,45,26,90,099,48*74
###2023-12-09 13:21:38.002468$GPGSV,2,2,07,28,42,080,43,29,23,052,40,31,63,057,45,,,,*40
###2023-12-09 13:21:38.004854$GLGSV,2,1,06,65,33,323,43,71,30,174,44,72,69,234,47,73,27,048,41*65
###2023-12-09 13:21:38.006619$GLGSV,2,2,06,74,64,002,41,75,39,263,47,,,,,,,,*69
###2023-12-09 13:21:38.008944$GAGSV,1,1,04,04,35,311,43,19,77,186,41,21,81,055,45,27,27,049,40*6A
###2023-12-09 13:21:38.011287$GBGSV,2,1,06,14,35,191,42,24,67,039,47,25,47,270,48,26,20,067,40*62
###2023-12-09 13:21:38.013037$GBGSV,2,2,06,33,51,222,47,35,16,062,41,,,,,,,,*68
###2023-12-09 13:21:38.014333$GNVTG,33.05,T,,M,3.54,N,6.55,K,A*12
###2023-12-09 13:21:38.016226$GNGST,182137.10,18.000,,,,0.100,0.070,0.170*51
###2023-12-09 13:21:38.017532$GNZDA,182137.10,09,12,2023,00,00*7E
###2023-12-09 13:21:38.018175$GNEBP,,,,,,M*13
###2023-12-09 13:21:38.185094$GNGGA,182137.30,4138.0512942,N,07032.3415851,W,1,24,0.7,13.212,M,-29.744,M,0.0,*5E
###2023-12-09 13:21:38.384076$GNGGA,182137.50,4138.0514595,N,07032.3414376,W,1,24,0.7,13.208,M,-29.744,M,0.0,*5C
###2023-12-09 13:21:38.584516$GNGGA,182137.70,4138.0516312,N,07032.3413239,W,1,24,0.7,13.188,M,-29.744,M,0.0,*53
###2023-12-09 13:21:38.785108$GNGGA,182137.90,4138.0518090,N,07032.3412450,W,1,24,0.7,13.184,M,-29.744,M,0.0,*5E
###2023-12-09 13:21:38.988417$GNRMC,182138.10,A,4138.0519828,N,07032.3411480,W,3.40,26.93,091223,,,A*6C
###2023-12-09 13:21:38.991303$GNGGA,182138.10,4138.0519828,N,07032.3411480,W,1,24,0.7,13.190,M,-29.744,M,0.0,*58
