###2023-12-09 13:35:32.019915$GLGSV,2,2,07,74,59,015,42,75,44,272,46,83,15,047,36,,,,*51
###2023-12-09 13:35:32.022261$GAGSV,1,1,04,04,40,310,42,19,72,181,40,21,77,046,46,27,22,050,40*6E
###2023-12-09 13:35:32.024610$GBGSV,2,1,07,12,15,126,42,14,29,190,41,24,62,046,47,25,51,276,45*6A
###2023-12-09 13:35:32.026655$GBGSV,2,2,07,26,16,071,44,33,45,217,44,35,16,056,44,,,,*5E
###2023-12-09 13:35:32.027982$GNVTG,240.30,T,,M,2.12,N,3.92,K,A*2F
###2023-12-09 13:35:32.029588$GNGST,183531.10,5.700,,,,0.088,0.069,0.150*62
###2023-12-09 13:35:32.030885$GNZDA,183531.10,09,12,2023,00,00*7D
###2023-12-09 13:35:32.031523$GNEBP,,,,,,M*13
###2023-12-09 13:35:32.197846$GNGGA,183531.30,4138.0381011,N,07032.3973835,W,1,27,0.6,13.123,M,-29.745,M,0.0,*53
###2023-12-09 13:35:32.396383$GNGGA,183531.50,4138.0380259,N,07032.3974892,W,1,27,0.6,13.121,M,-29.745,M,0.0,*52
###2023-12-09 13:35:32.596249$GNGGA,183531.70,4138.0379406,N,07032.3975827,W,1,27,0.6,13.106,M,-29.745,M,0.0,*50
###2023-12-09 13:35:32.795781$GNGGA,183531.90,4138.0378573,N,07032.3976935,W,1,27,0.6,13.102,M,-29.745,M,0.0,*59
###2023-12-09 13:35:33.007829$GNRMC,183532.10,A,4138.0377775,N,07032.3978287,W,2.45,230.30,091223,,,A*51
###2023-12-09 13:35:33.010705$GNGGA,183532.10,4138.0377775,N,07032.3978287,W,1,27,0.6,13.118,M,-29.745,M,0.0,*5E
###2023-12-09 13:35:33.012564$GPGSA,A,3,03,04,16,26,27,28,29,31,,,,,1.0,0.6,0.8*3F
###2023-12-09 13:35:33.014343$GLGSA,A,3,65,71,72,73,74,75,83,,,,,,1.0,0.6,0.8*2F
###2023-12-09 13:35:33.015948$GAGSA,A,3,04,19,21,27,,,,,,,,,1.0,0.6,0.8*26
###2023-12-09 13:35:33.017718$GBGSA,A,3,12,14,24,25,26,33,35,,,,,,1.0,0.6,0.8*2A
###2023-12-09 13:35:33.020053$GPGSV,2,1,08,03,26,246,38,04,47,307,46,16,67,223,46,26,83,040,48*7F
###2023-12-09 13:35:33.022383$GPGSV,2,2,08,27,17,172,40,28,37,085,44,29,20,046,43,31,59,067,47*71
###2023-12-09 13:35:33.024723$GLGSV,2,1,07,65,39,318,44,71,22,175,41,72,62,220,45,73,22,052,45*60
###2023-12-09 13:35:33.026763$GLGSV,2,2,07,74,59,015,41,75,44,272,47,83,15,047,36,,,,*53
###2023-12-09 13:35:33.029087$GAGSV,1,1,04,04,40,310,45,19,72,181,40,21,77,046,46,27,22,050,42*6B
###2023-12-09 13:35:33.031424$GBGSV,2,1,07,12,15,126,42,14,29,190,40,24,62,046,48,25,51,276,47*66
###2023-12-09 13:35:33.033459$GBGSV,2,2,07,26,16,071,44,33,45,217,44,35,16,056,44,,,,*5E
###2023-12-09 13:35:33.034790$GNVTG,230.30,T,,M,2.45,N,4.54,K,A*27
###2023-12-09 13:35:33.036397$GNGST,183532.10,6.200,,,,0.088,0.069,0.150*67
###2023-12-09 13:35:33.037675$GNZDA,183532.10,09,12,2023,00,00*7E
###2023-12-09 13:35:33.038308$GNEBP,,,,,,M*13
###2023-12-09 13:35:33.207351$GNGGA,183532.30,4138.0376832,N,07032.3979521,W,1,27,0.6,13.123,M,-29.745,M,0.0,*53
###2023-12-09 13:35:33.396974$GNGGA,183532.50,4138.0375734,N,07032.3980448,W,1,27,0.6,13.119,M,-29.745,M,0.0,*5E
###2023-12-09 13:35:33.595841$GNGGA,183532.70,4138.0374572,N,07032.3981223,W,1,27,0.6,13.115,M,-29.745,M,0.0,*5B
###2023-12-09 13:35:33.796926$GNGGA,183532.90,4138.0373394,N,07032.3982243,W,1,27,0.6,13.120,M,-29.745,M,0.0,*5F
###2023-12-09 13:35:34.002555$GNRMC,183533.10,A,4138.0372203,N,07032.3983435,W,2.68,214.60,091223,,,A*56
###2023-12-09 13:35:34.005450$GNGGA,183533.10,4138.0372203,N,07032.3983435,W,1,27,0.6,13.131,M,-29.745,M,0.0,*5E
###2023-12-09 13:35:34.007313$GPGSA,A,3,03,04,16,26,27,28,29,31,,,,,1.0,0.6,0.8*3F
###2023-12-09 13:35:34.009085$GLGSA,A,3,65,71,72,73,74,75,83,,,,,,1.0,0.6,0.8*2F
###2023-12-09 13:35:34.010667$GAGSA,A,3,04,19,21,27,,,,,,,,,1.0,0.6,0.8*26
###2023-12-09 13:35:34.012433$GBGSA,A,3,12,14,24,25,26,33,35,,,,,,1.0,0.6,0.8*2A
###2023-12-09 13:35:34.014758$GPGSV,2,1,08,03,26,246,39,04,47,307,46,16,67,223,45,26,83,040,48*7D
###2023-12-09 13:35:34.017080$GPGSV,2,2,08,27,17,172,39,28,37,085,44,29,20,046,43,31,59,067,47*7F
###2023-12-09 13:35:34.019417$GLGSV,2,1,07,65,39,318,44,71,22,175,39,72,62,220,45,73,22,052,44*6E
###2023-12-09 13:35:34.021450$GLGSV,2,2,07,74,59,015,42,75,44,272,46,83,15,047,36,,,,*51
###2023-12-09 13:35:34.023779$GAGSV,1,1,04,04,40,310,45,19,72,181,40,21,77,046,46,27,22,050,42*6B
###2023-12-09 13:35:34.026093$GBGSV,2,1,07,12,15,126,41,14,29,190,41,24,62,046,48,25,51,276,47*64
###2023-12-09 13:35:34.028146$GBGSV,2,2,07,26,16,071,43,33,45,217,44,35,16,056,44,,,,*59
###2023-12-09 13:35:34.029461$GNVTG,214.60,T,,M,2.68,N,4.97,K,A*24
###2023-12-09 13:35:34.031080$GNGST,183533.10,6.000,,,,0.088,0.070,0.150*6C
###2023-12-09 13:35:34.032367$GNZDA,183533.10,09,12,2023,00,00*7F
###2023-12-09 13:35:34.033003$GNEBP,,,,,,M*13
###2023-12-09 13:35:34.196701$GNGGA,183533.30,4138.0370914,N,07032.3984289,W,1,27,0.6,13.136,M,-29.745,M,0.0,*52
###2023-12-09 13:35:34.394925$GNGGA,183533.50,4138.0369521,N,07032.3984822,W,1,27,0.6,13.136,M,-29.745,M,0.0,*5D
###2023-12-09 13:35:34.593821$GNGGA,183533.70,4138.0368118,N,07032.3985432,W,1,26,0.6,13.134,M,-29.745,M,0.0,*5F
###2023-12-09 13:35:34.795896$GNGGA,183533.90,4138.0366699,N,07032.3986271,W,1,27,0.6,13.130,M,-29.745,M,0.0,*56
###2023-12-09 13:35:35.001965$GNRMC,183534.10,A,4138.0365250,N,07032.3987045,W,2.78,200.23,091223,,,A*55
###2023-12-09 13:35:35.004840$GNGGA,183534.10,4138.0365250,N,07032.3987045,W,1,27,0.6,13.126,M,-29.745,M,0.0,*58
###2023-12-09 13:35:35.006701$GPGSA,A,3,03,04,16,26,27,28,29,31,,,,,1.0,0.6,0.8*3F
###2023-12-09 13:35:35.008477$GLGSA,A,3,65,71,72,73,74,75,83,,,,,,1.0,0.6,0.8*2F
###2023-12-09 13:35:35.010052$GAGSA,A,3,04,19,21,27,,,,,,,,,1.0,0.6,0.8*26
###2023-12-09 13:35:35.011826$GBGSA,A,3,12,14,24,25,26,33,35,,,,,,1.0,0.6,0.8*2A
###2023-12-09 13:35:35.014148$GPGSV,2,1,08,03,26,246,41,04,47,307,46,16,67,223,45,26,83,040,48*72
###2023-12-09 13:35:35.016485$GPGSV,2,2,08,27,17,172,40,28,37,085,45,29,20,046,44,31,59,067,48*78
###2023-12-09 13:35:35.018823$GLGSV,2,1,07,65,39,318,44,71,22,175,41,72,62,220,45,73,22,052,44*61
###2023-12-09 13:35:35.020854$GLGSV,2,2,07,74,59,015,42,75,44,272,47,83,15,047,36,,,,*50
###2023-12-09 13:35:35.023193$GAGSV,1,1,04,04,40,310,45,19,72,181,40,21,77,046,46,27,22,050,42*6B
###2023-12-09 13:35:35.025521$GBGSV,2,1,07,12,15,126,40,14,29,190,40,24,62,046,47,25,51,276,46*6A
###2023-12-09 13:35:35.027564$GBGSV,2,2,07,26,16,071,42,33,45,217,43,35,16,056,43,,,,*58
###2023-12-09 13:35:35.028890$GNVTG,200.23,T,,M,2.78,N,5.15,K,A*2C
###2023-12-09 13:35:35.030498$GNGST,183534.10,5.700,,,,0.089,0.069,0.150*66
###2023-12-09 13:35:35.031797$GNZDA,183534.10,09,12,2023,00,00*78
###2023-12-09 13:35:35.032435$GNEBP,,,,,,M*13
###2023-12-09 13:35:35.198844$GNGGA,183534.30,4138.0363805,N,07032.3987737,W,1,27,0.6,13.150,M,-29.745,M,0.0,*55
###2023-12-09 13:35:35.397220$GNGGA,183534.50,4138.0362312,N,07032.3988507,W,1,26,0.6,13.175,M,-29.745,M,0.0,*57
###2023-12-09 13:35:35.597177$GNGGA,183534.70,4138.0360784,N,07032.3989292,W,1,27,0.6,13.151,M,-29.745,M,0.0,*51
###2023-12-09 13:35:35.795617$GNGGA,183534.90,4138.0359321,N,07032.3990224,W,1,27,0.6,13.139,M,-29.745,M,0.0,*55
###2023-12-09 13:35:35.999630$GNRMC,183535.10,A,4138.0357852,N,07032.3991202,W,2.99,205.56,091223,,,A*53
###2023-12-09 13:35:36.002494$GNGGA,183535.10,4138.0357852,N,07032.3991202,W,1,27,0.6,13.161,M,-29.745,M,0.0,*55
###2023-12-09 13:35:36.004367$GPGSA,A,3,03,04,16,26,27,28,29,31,,,,,1.0,0.6,0.8*3F
###2023-12-09 13:35:36.006147$GLGSA,A,3,65,71,72,73,74,75,83,,,,,,1.0,0.6,0.8*2F
###2023-12-09 13:35:36.007745$GAGSA,A,3,04,19,21,27,,,,,,,,,1.0,0.6,0.8*26
###2023-12-09 13:35:36.009521$GBGSA,A,3,12,14,24,25,26,33,35,,,,,,1.0,0.6,0.8*2A
###2023-12-09 13:35:36.011858$GPGSV,2,1,08,03,26,246,37,04,47,307,46,16,67,223,45,26,83,040,47*7C
###2023-12-09 13:35:36.014189$GPGSV,2,2,08,27,17,172,40,28,37,085,43,29,20,046,43,31,59,067,47*76
###2023-12-09 13:35:36.016526$GLGSV,2,1,07,65,39,318,44,71,22,175,41,72,62,220,45,73,22,052,45*60
###2023-12-09 13:35:36.018573$GLGSV,2,2,07,74,59,015,42,75,44,272,47,83,15,047,36,,,,*50
###2023-12-09 13:35:36.020908$GAGSV,1,1,04,04,40,310,45,19,72,181,40,21,77,046,46,27,22,050,42*6B
###2023-12-09 13:35:36.023244$GBGSV,2,1,07,12,15,126,40,14,29,190,40,24,62,046,48,25,51,276,47*64
###2023-12-09 13:35:36.025283$GBGSV,2,2,07,26,16,071,43,33,45,217,43,35,16,056,44,,,,*5E
###2023-12-09 13:35:36.026616$GNVTG,205.56,T,,M,2.99,N,5.54,K,A*21
###2023-12-09 13:35:36.028230$GNGST,183535.10,6.300,,,,0.089,0.070,0.150*68
###2023-12-09 13:35:36.029769$GNZDA,183535.10,09,12,2023,00,00*79
###2023-12-09 13:35:36.030413$GNEBP,,,,,,M*13
###2023-12-09 13:35:36.196795$GNGGA,183535.30,4138.0356354,N,07032.3992174,W,1,26,0.6,13.170,M,-29.745,M,0.0,*5B
###2023-12-09 13:35:36.396382$GNGGA,183535.50,4138.0354938,N,07032.3993288,W,1,26,0.6,13.164,M,-29.745,M,0.0,*5B
###2023-12-09 13:35:36.595859$GNGGA,183535.70,4138.0353584,N,07032.3994550,W,1,26,0.6,13.182,M,-29.745,M,0.0,*58
###2023-12-09 13:35:36.796186$GNGGA,183535.90,4138.0352310,N,07032.3995961,W,1,26,0.6,13.193,M,-29.745,M,0.0,*53
###2023-12-09 13:35:36.998765$GNRMC,183536.10,A,4138.0351094,N,07032.3997383,W,2.88,221.88,091223,,,A*5F
###2023-12-09 13:35:37.001620$GNGGA,183536.10,4138.0351094,N,07032.3997383,W,1,26,0.6,13.196,M,-29.745,M,0.0,*55
###2023-12-09 13:35:37.003486$GPGSA,A,3,03,04,16,26,27,28,29,31,,,,,1.1,0.6,0.9*3F
###2023-12-09 13:35:37.005263$GLGSA,A,3,65,71,72,73,74,75,83,,,,,,1.1,0.6,0.9*2F
