###2023-12-09 13:09:58.979244$GPGSA,A,3,03,04,16,26,28,29,31,32,,,,,1.1,0.6,0.9*3B
###2023-12-09 13:09:58.980984$GLGSA,A,3,65,71,72,73,74,75,,,,,,,1.1,0.6,0.9*24
###2023-12-09 13:09:58.982594$GAGSA,A,3,04,19,21,27,,,,,,,,,1.1,0.6,0.9*26
###2023-12-09 13:09:58.984306$GBGSA,A,3,14,24,25,26,33,35,,,,,,,1.1,0.6,0.9*29
###2023-12-09 13:09:58.986648$GPGSV,2,1,08,03,33,257,41,04,36,311,43,16,54,214,45,26,84,210,47*79
###2023-12-09 13:09:58.988972$GPGSV,2,2,08,28,46,074,45,29,24,057,42,31,67,046,46,32,15,141,40*74
###2023-12-09 13:09:58.991328$GLGSV,2,1,06,65,27,326,42,71,36,173,42,72,72,254,46,73,32,044,45*62
###2023-12-09 13:09:58.993073$GLGSV,2,2,06,74,68,348,43,75,35,257,45,,,,,,,,*63
###2023-12-09 13:09:58.995411$GAGSV,1,1,04,04,32,312,42,19,81,196,39,21,85,085,45,27,31,048,41*66
###2023-12-09 13:09:58.997738$GBGSV,2,1,06,14,40,192,42,24,71,031,49,25,43,265,46,26,24,064,44*6F
###2023-12-09 13:09:58.999487$GBGSV,2,2,06,33,55,228,47,35,15,066,44,,,,,,,,*64
###2023-12-09 13:09:59.000810$GNVTG,180.03,T,,M,3.52,N,6.52,K,A*2C
###2023-12-09 13:09:59.002457$GNGST,180958.10,18.000,,,,0.084,0.065,0.150*59
###2023-12-09 13:09:59.003755$GNZDA,180958.10,09,12,2023,00,00*7D
###2023-12-09 13:09:59.004397$GNEBP,,,,,,M*13
###2023-12-09 13:09:59.170330$GNGGA,180958.30,4138.0533904,N,07032.2593584,W,1,25,0.6,13.348,M,-29.743,M,0.0,*5E
###2023-12-09 13:09:59.370925$GNGGA,180958.50,4138.0531935,N,07032.2593866,W,1,25,0.6,13.342,M,-29.743,M,0.0,*53
###2023-12-09 13:09:59.572580$GNGGA,180958.70,4138.0530035,N,07032.2593878,W,1,25,0.6,13.322,M,-29.743,M,0.0,*50
###2023-12-09 13:09:59.772233$GNGGA,180958.90,4138.0528086,N,07032.2594023,W,1,25,0.6,13.346,M,-29.743,M,0.0,*5C
###2023-12-09 13:09:59.974100$GNRMC,180959.10,A,4138.0526166,N,07032.2594240,W,3.52,183.29,091223,,,A*55
###2023-12-09 13:09:59.976977$GNGGA,180959.10,4138.0526166,N,07032.2594240,W,1,25,0.6,13.345,M,-29.743,M,0.0,*50
###2023-12-09 13:09:59.978839$GPGSA,A,3,03,04,16,26,28,29,31,32,,,,,1.1,0.6,0.9*3B
###2023-12-09 13:09:59.980546$GLGSA,A,3,65,71,72,73,74,75,,,,,,,1.1,0.6,0.9*24
###2023-12-09 13:09:59.982124$GAGSA,A,3,04,19,21,27,,,,,,,,,1.1,0.6,0.9*26
###2023-12-09 13:09:59.983842$GBGSA,A,3,14,24,25,26,33,35,,,,,,,1.1,0.6,0.9*29
###2023-12-09 13:09:59.986163$GPGSV,2,1,08,03,33,257,43,04,36,311,44,16,54,214,46,26,84,210,48*70
###2023-12-09 13:09:59.988506$GPGSV,2,2,08,28,46,074,45,29,24,057,42,31,67,046,48,32,15,141,40*7A
###2023-12-09 13:09:59.990845$GLGSV,2,1,06,65,27,326,43,71,36,173,43,72,72,254,46,73,32,044,45*62
###2023-12-09 13:09:59.992592$GLGSV,2,2,06,74,68,348,43,75,35,257,46,,,,,,,,*60
###2023-12-09 13:09:59.994932$GAGSV,1,1,04,04,32,312,44,19,81,196,40,21,85,078,46,27,31,048,42*6C
###2023-12-09 13:09:59.997256$GBGSV,2,1,06,14,40,192,42,24,71,031,49,25,43,265,47,26,24,064,43*69
###2023-12-09 13:09:59.999006$GBGSV,2,2,06,33,55,228,48,35,15,066,43,,,,,,,,*6C
###2023-12-09 13:10:00.000327$GNVTG,183.29,T,,M,3.52,N,6.52,K,A*27
###2023-12-09 13:10:00.001967$GNGST,180959.10,18.000,,,,0.085,0.065,0.150*59
###2023-12-09 13:10:00.003263$GNZDA,180959.10,09,12,2023,00,00*7C
###2023-12-09 13:10:00.003901$GNEBP,,,,,,M*13
###2023-12-09 13:10:00.172034$GNGGA,180959.30,4138.0524202,N,07032.2594217,W,1,25,0.6,13.326,M,-29.743,M,0.0,*56
###2023-12-09 13:10:00.373004$GNGGA,180959.50,4138.0522285,N,07032.2594064,W,1,25,0.6,13.311,M,-29.743,M,0.0,*5B
###2023-12-09 13:10:00.572816$GNGGA,180959.70,4138.0520340,N,07032.2594283,W,1,25,0.6,13.339,M,-29.743,M,0.0,*52
###2023-12-09 13:10:00.772776$GNGGA,180959.90,4138.0518355,N,07032.2594374,W,1,25,0.6,13.323,M,-29.743,M,0.0,*51
###2023-12-09 13:10:00.974432$GNRMC,181000.10,A,4138.0516503,N,07032.2594072,W,3.38,171.70,091223,,,A*5B
###2023-12-09 13:10:00.977927$GNGGA,181000.10,4138.0516503,N,07032.2594072,W,1,25,0.6,13.318,M,-29.743,M,0.0,*5B
###2023-12-09 13:10:00.980211$GPGSA,A,3,03,04,16,26,28,29,31,32,,,,,1.1,0.6,0.9*3B
###2023-12-09 13:10:00.982289$GLGSA,A,3,65,71,72,73,74,75,,,,,,,1.1,0.6,0.9*24
###2023-12-09 13:10:00.984204$GAGSA,A,3,04,19,21,27,,,,,,,,,1.1,0.6,0.9*26
###2023-12-09 13:10:00.986279$GBGSA,A,3,14,24,25,26,33,35,,,,,,,1.1,0.6,0.9*29
###2023-12-09 13:10:00.989107$GPGSV,2,1,08,03,33,257,43,04,36,311,44,16,54,214,46,26,84,210,48*70
###2023-12-09 13:10:00.991936$GPGSV,2,2,08,28,46,074,45,29,24,057,43,31,67,046,47,32,15,141,40*74
###2023-12-09 13:10:00.994767$GLGSV,2,1,06,65,27,326,42,71,36,173,42,72,72,254,45,73,32,044,44*60
###2023-12-09 13:10:00.996877$GLGSV,2,2,06,74,68,348,43,75,35,257,45,,,,,,,,*63
###2023-12-09 13:10:00.999690$GAGSV,1,1,04,04,32,312,42,19,81,196,40,21,85,078,46,27,31,048,42*6A
###2023-12-09 13:10:01.002495$GBGSV,2,1,06,14,40,192,41,24,71,031,48,25,43,265,47,26,24,064,43*6B
###2023-12-09 13:10:01.004600$GBGSV,2,2,06,33,55,228,47,35,15,066,43,,,,,,,,*63
###2023-12-09 13:10:01.006194$GNVTG,171.70,T,,M,3.38,N,6.26,K,A*29
###2023-12-09 13:10:01.008197$GNGST,181000.10,18.000,,,,0.085,0.065,0.150*5D
###2023-12-09 13:10:01.009782$GNZDA,181000.10,09,12,2023,00,00*78
###2023-12-09 13:10:01.010570$GNEBP,,,,,,M*13
###2023-12-09 13:10:01.171913$GNGGA,181000.30,4138.0514529,N,07032.2593910,W,1,25,0.6,13.324,M,-29.743,M,0.0,*56
###2023-12-09 13:10:01.372308$GNGGA,181000.50,4138.0512621,N,07032.2593788,W,1,25,0.6,13.309,M,-29.743,M,0.0,*5D
###2023-12-09 13:10:01.572685$GNGGA,181000.70,4138.0510677,N,07032.2593624,W,1,25,0.6,13.322,M,-29.743,M,0.0,*50
###2023-12-09 13:10:01.776494$GNGGA,181000.90,4138.0508736,N,07032.2593377,W,1,25,0.6,13.310,M,-29.743,M,0.0,*51
###2023-12-09 13:10:01.974330$GNRMC,181001.10,A,4138.0506847,N,07032.2593179,W,3.54,177.69,091223,,,A*5F
###2023-12-09 13:10:01.977825$GNGGA,181001.10,4138.0506847,N,07032.2593179,W,1,25,0.6,13.313,M,-29.743,M,0.0,*50
###2023-12-09 13:10:01.980075$GPGSA,A,3,03,04,16,26,28,29,31,32,,,,,1.1,0.6,0.9*3B
###2023-12-09 13:10:01.982139$GLGSA,A,3,65,71,72,73,74,75,,,,,,,1.1,0.6,0.9*24
###2023-12-09 13:10:01.984060$GAGSA,A,3,04,19,21,27,,,,,,,,,1.1,0.6,0.9*26
###2023-12-09 13:10:01.986128$GBGSA,A,3,14,24,25,26,33,35,,,,,,,1.1,0.6,0.9*29
###2023-12-09 13:10:01.988944$GPGSV,2,1,08,03,33,257,43,04,36,311,44,16,54,214,45,26,84,210,48*73
###2023-12-09 13:10:01.991762$GPGSV,2,2,08,28,46,074,45,29,24,057,43,31,67,046,47,32,15,141,41*75
###2023-12-09 13:10:01.994579$GLGSV,2,1,06,65,27,326,42,71,36,173,42,72,72,254,46,73,32,044,44*63
###2023-12-09 13:10:01.996689$GLGSV,2,2,06,74,68,348,43,75,35,257,46,,,,,,,,*60
###2023-12-09 13:10:01.999502$GAGSV,1,1,04,04,32,312,41,19,81,196,40,21,85,078,46,27,31,048,41*6A
###2023-12-09 13:10:02.002334$GBGSV,2,1,06,14,40,192,40,24,71,031,48,25,43,265,47,26,24,064,44*6D
###2023-12-09 13:10:02.004468$GBGSV,2,2,06,33,55,228,47,35,15,066,43,,,,,,,,*63
###2023-12-09 13:10:02.006083$GNVTG,177.69,T,,M,3.54,N,6.55,K,A*29
###2023-12-09 13:10:02.008093$GNGST,181001.10,18.000,,,,0.085,0.065,0.150*5C
###2023-12-09 13:10:02.009647$GNZDA,181001.10,09,12,2023,00,00*79
###2023-12-09 13:10:02.010412$GNEBP,,,,,,M*13
###2023-12-09 13:10:02.171753$GNGGA,181001.30,4138.0504882,N,07032.2593128,W,1,25,0.6,13.320,M,-29.743,M,0.0,*5D
###2023-12-09 13:10:02.371938$GNGGA,181001.50,4138.0502922,N,07032.2592974,W,1,25,0.6,13.311,M,-29.743,M,0.0,*54
###2023-12-09 13:10:02.572644$GNGGA,181001.70,4138.0500952,N,07032.2592930,W,1,25,0.6,13.319,M,-29.743,M,0.0,*5B
###2023-12-09 13:10:02.772907$GNGGA,181001.90,4138.0498992,N,07032.2593018,W,1,25,0.6,13.320,M,-29.743,M,0.0,*51
###2023-12-09 13:10:02.973894$GNRMC,181002.10,A,4138.0497003,N,07032.2593017,W,3.60,180.85,091223,,,A*59
###2023-12-09 13:10:02.976809$GNGGA,181002.10,4138.0497003,N,07032.2593017,W,1,25,0.6,13.318,M,-29.743,M,0.0,*50
###2023-12-09 13:10:02.978678$GPGSA,A,3,03,04,16,26,28,29,31,32,,,,,1.1,0.6,0.9*3B
###2023-12-09 13:10:02.980398$GLGSA,A,3,65,71,72,73,74,75,,,,,,,1.1,0.6,0.9*24
###2023-12-09 13:10:02.981988$GAGSA,A,3,04,19,21,27,,,,,,,,,1.1,0.6,0.9*26
###2023-12-09 13:10:02.983708$GBGSA,A,3,14,24,25,26,33,35,,,,,,,1.1,0.6,0.9*29
###2023-12-09 13:10:02.986048$GPGSV,2,1,08,03,33,257,43,04,36,311,45,16,54,214,45,26,84,210,48*72
###2023-12-09 13:10:02.988399$GPGSV,2,2,08,28,46,074,45,29,24,057,42,31,67,046,47,32,15,141,41*74
###2023-12-09 13:10:02.990731$GLGSV,2,1,06,65,27,326,43,71,36,173,42,72,72,254,46,73,32,044,45*63
###2023-12-09 13:10:02.992739$GLGSV,2,2,06,74,68,348,43,75,35,257,46,,,,,,,,*60
###2023-12-09 13:10:02.995095$GAGSV,1,1,04,04,32,312,43,19,81,196,39,21,85,078,46,27,31,048,41*66
###2023-12-09 13:10:02.997441$GBGSV,2,1,06,14,40,192,41,24,71,031,48,25,43,265,47,26,24,064,44*6C
###2023-12-09 13:10:02.999204$GBGSV,2,2,06,33,55,228,47,35,15,066,44,,,,,,,,*64
###2023-12-09 13:10:03.000534$GNVTG,180.85,T,,M,3.60,N,6.66,K,A*24
###2023-12-09 13:10:03.002183$GNGST,181002.10,18.000,,,,0.085,0.065,0.150*5F
###2023-12-09 13:10:03.003491$GNZDA,181002.10,09,12,2023,00,00*7A
###2023-12-09 13:10:03.004132$GNEBP,,,,,,M*13
###2023-12-09 13:10:03.174342$GNGGA,181002.30,4138.0494992,N,07032.2593094,W,1,25,0.6,13.316,M,-29.743,M,0.0,*55
