###2023-12-09 13:44:10.014210$GPGSV,2,2,06,29,18,043,42,31,56,072,50,,,,,,,,*7D
###2023-12-09 13:44:10.016583$GLGSV,1,1,04,65,42,314,43,73,19,055,44,75,46,277,44,83,16,043,35*66
###2023-12-09 13:44:10.018650$GAGSV,1,1,03,04,43,308,45,21,73,044,37,27,19,051,40,,,,*5C
###2023-12-09 13:44:10.020990$GBGSV,1,1,04,12,18,124,41,24,60,050,45,25,53,280,44,35,16,053,38*64
###2023-12-09 13:44:10.022317$GNVTG,243.17,T,,M,0.04,N,0.07,K,A*23
###2023-12-09 13:44:10.023943$GNGST,184409.10,7.100,,,,0.210,0.120,0.310*62
###2023-12-09 13:44:10.025229$GNZDA,184409.10,09,12,2023,00,00*70
###2023-12-09 13:44:10.025865$GNEBP,,,,,,M*13
###2023-12-09 13:44:10.197561$GNGGA,184409.30,4138.0390545,N,07032.4388201,W,1,17,0.8,14.095,M,-29.746,M,0.0,*5B
###2023-12-09 13:44:10.397370$GNGGA,184409.50,4138.0390537,N,07032.4388214,W,1,17,0.8,14.086,M,-29.746,M,0.0,*5E
###2023-12-09 13:44:10.597730$GNGGA,184409.70,4138.0390556,N,07032.4388225,W,1,17,0.8,14.080,M,-29.746,M,0.0,*5F
###2023-12-09 13:44:10.797191$GNGGA,184409.90,4138.0390557,N,07032.4388247,W,1,17,0.8,14.068,M,-29.746,M,0.0,*52
###2023-12-09 13:44:11.000652$GNRMC,184410.10,A,4138.0390569,N,07032.4388273,W,0.02,243.17,091223,,,A*58
###2023-12-09 13:44:11.003731$GNGGA,184410.10,4138.0390569,N,07032.4388273,W,1,17,0.8,14.058,M,-29.746,M,0.0,*5B
###2023-12-09 13:44:11.005586$GPGSA,A,3,04,16,26,28,29,31,,,,,,,1.4,0.8,1.1*3B
###2023-12-09 13:44:11.007299$GLGSA,A,3,65,73,75,83,,,,,,,,,1.4,0.8,1.1*2D
###2023-12-09 13:44:11.008928$GAGSA,A,3,04,21,27,,,,,,,,,,1.4,0.8,1.1*2C
###2023-12-09 13:44:11.010625$GBGSA,A,3,12,24,25,35,,,,,,,,,1.4,0.8,1.1*29
###2023-12-09 13:44:11.012949$GPGSV,2,1,06,04,50,305,45,16,71,227,40,26,79,041,40,28,35,088,42*79
###2023-12-09 13:44:11.014713$GPGSV,2,2,06,29,18,043,42,31,56,072,49,,,,,,,,*75
###2023-12-09 13:44:11.017041$GLGSV,1,1,04,65,42,314,43,73,19,055,44,75,46,277,44,83,16,043,35*66
###2023-12-09 13:44:11.019085$GAGSV,1,1,03,04,43,308,45,21,73,044,37,27,19,051,40,,,,*5C
###2023-12-09 13:44:11.021409$GBGSV,1,1,04,12,18,124,41,24,60,050,45,25,53,280,43,35,16,053,38*63
###2023-12-09 13:44:11.022744$GNVTG,243.17,T,,M,0.02,N,0.04,K,A*26
###2023-12-09 13:44:11.024355$GNGST,184410.10,7.100,,,,0.210,0.120,0.310*6A
###2023-12-09 13:44:11.025642$GNZDA,184410.10,09,12,2023,00,00*78
###2023-12-09 13:44:11.026276$GNEBP,,,,,,M*13
###2023-12-09 13:44:11.197968$GNGGA,184410.30,4138.0390577,N,07032.4388292,W,1,17,0.8,14.050,M,-29.746,M,0.0,*51
###2023-12-09 13:44:11.399411$GNGGA,184410.50,4138.0390593,N,07032.4388307,W,1,17,0.8,14.043,M,-29.746,M,0.0,*52
###2023-12-09 13:44:11.597997$GNGGA,184410.70,4138.0390594,N,07032.4388322,W,1,17,0.8,14.031,M,-29.746,M,0.0,*55
###2023-12-09 13:44:11.799672$GNGGA,184410.90,4138.0390613,N,07032.4388325,W,1,17,0.8,14.022,M,-29.746,M,0.0,*52
###2023-12-09 13:44:12.000758$GNRMC,184411.10,A,4138.0390632,N,07032.4388339,W,0.02,243.17,091223,,,A*5B
###2023-12-09 13:44:12.003637$GNGGA,184411.10,4138.0390632,N,07032.4388339,W,1,17,0.8,14.014,M,-29.746,M,0.0,*50
###2023-12-09 13:44:12.005363$GPGSA,A,3,04,16,26,28,29,31,,,,,,,1.4,0.8,1.1*3B
###2023-12-09 13:44:12.006968$GLGSA,A,3,65,73,75,83,,,,,,,,,1.4,0.8,1.1*2D
###2023-12-09 13:44:12.008494$GAGSA,A,3,04,21,27,,,,,,,,,,1.4,0.8,1.1*2C
###2023-12-09 13:44:12.010080$GBGSA,A,3,12,24,25,35,,,,,,,,,1.4,0.8,1.1*29
###2023-12-09 13:44:12.012420$GPGSV,2,1,06,04,50,305,45,16,71,227,40,26,79,041,40,28,35,088,42*79
###2023-12-09 13:44:12.014176$GPGSV,2,2,06,29,18,043,42,31,56,072,50,,,,,,,,*7D
###2023-12-09 13:44:12.016532$GLGSV,1,1,04,65,42,314,43,73,19,055,44,75,46,277,44,83,16,043,36*65
###2023-12-09 13:44:12.018593$GAGSV,1,1,03,04,43,308,45,21,73,044,37,27,19,051,40,,,,*5C
###2023-12-09 13:44:12.020932$GBGSV,1,1,04,12,18,124,42,24,60,050,47,25,53,280,45,35,16,053,39*65
###2023-12-09 13:44:12.022269$GNVTG,243.17,T,,M,0.02,N,0.04,K,A*26
###2023-12-09 13:44:12.023904$GNGST,184411.10,7.500,,,,0.210,0.120,0.310*6F
###2023-12-09 13:44:12.025200$GNZDA,184411.10,09,12,2023,00,00*79
###2023-12-09 13:44:12.025838$GNEBP,,,,,,M*13
###2023-12-09 13:44:12.199593$GNGGA,184411.30,4138.0390635,N,07032.4388342,W,1,17,0.8,14.003,M,-29.746,M,0.0,*5F
###2023-12-09 13:44:12.398467$GNGGA,184411.50,4138.0390654,N,07032.4388349,W,1,17,0.8,13.990,M,-29.746,M,0.0,*51
###2023-12-09 13:44:12.597199$GNGGA,184411.70,4138.0390668,N,07032.4388358,W,1,17,0.8,13.986,M,-29.746,M,0.0,*5B
###2023-12-09 13:44:12.798780$GNGGA,184411.90,4138.0390695,N,07032.4388363,W,1,18,0.8,13.983,M,-29.746,M,0.0,*55
###2023-12-09 13:44:13.002301$GNRMC,184412.10,A,4138.0390722,N,07032.4388379,W,0.02,243.17,091223,,,A*5C
###2023-12-09 13:44:13.005171$GNGGA,184412.10,4138.0390722,N,07032.4388379,W,1,18,0.8,13.976,M,-29.746,M,0.0,*52
###2023-12-09 13:44:13.006911$GPGSA,A,3,04,16,26,28,29,31,,,,,,,1.3,0.8,1.1*3C
###2023-12-09 13:44:13.008557$GLGSA,A,3,65,73,74,75,83,,,,,,,,1.3,0.8,1.1*29
###2023-12-09 13:44:13.010074$GAGSA,A,3,04,21,27,,,,,,,,,,1.3,0.8,1.1*2B
###2023-12-09 13:44:13.011697$GBGSA,A,3,12,24,25,35,,,,,,,,,1.3,0.8,1.1*2E
###2023-12-09 13:44:13.014019$GPGSV,2,1,06,04,50,305,45,16,71,227,40,26,79,041,40,28,35,088,42*79
###2023-12-09 13:44:13.015776$GPGSV,2,2,06,29,18,043,43,31,56,072,49,,,,,,,,*74
###2023-12-09 13:44:13.018087$GLGSV,2,1,05,65,42,314,44,73,19,055,43,74,56,021,35,75,46,277,44*6C
###2023-12-09 13:44:13.019546$GLGSV,2,2,05,83,16,043,36,,,,,,,,,,,,*5E
###2023-12-09 13:44:13.021576$GAGSV,1,1,03,04,43,308,45,21,73,044,37,27,19,051,40,,,,*5C
###2023-12-09 13:44:13.023907$GBGSV,1,1,04,12,18,124,42,24,60,050,46,25,53,280,45,35,16,053,39*64
###2023-12-09 13:44:13.025234$GNVTG,243.17,T,,M,0.02,N,0.04,K,A*26
###2023-12-09 13:44:13.026856$GNGST,184412.10,7.500,,,,0.210,0.120,0.310*6C
###2023-12-09 13:44:13.028147$GNZDA,184412.10,09,12,2023,00,00*7A
###2023-12-09 13:44:13.028784$GNEBP,,,,,,M*13
###2023-12-09 13:44:13.200492$GNGGA,184412.30,4138.0390728,N,07032.4388387,W,1,18,0.8,13.970,M,-29.746,M,0.0,*5D
###2023-12-09 13:44:13.401627$GNGGA,184412.50,4138.0390724,N,07032.4388400,W,1,18,0.8,13.965,M,-29.746,M,0.0,*5B
###2023-12-09 13:44:13.600279$GNGGA,184412.70,4138.0390736,N,07032.4388420,W,1,18,0.8,13.957,M,-29.746,M,0.0,*59
###2023-12-09 13:44:13.797211$GNGGA,184412.90,4138.0390754,N,07032.4388424,W,1,18,0.8,13.953,M,-29.746,M,0.0,*53
###2023-12-09 13:44:14.005249$GNRMC,184413.10,A,4138.0390761,N,07032.4388433,W,0.06,243.17,091223,,,A*57
###2023-12-09 13:44:14.008219$GNGGA,184413.10,4138.0390761,N,07032.4388433,W,1,18,0.8,13.948,M,-29.746,M,0.0,*50
###2023-12-09 13:44:14.009947$GPGSA,A,3,04,16,26,28,29,31,,,,,,,1.3,0.8,1.1*3C
###2023-12-09 13:44:14.011603$GLGSA,A,3,65,73,74,75,83,,,,,,,,1.3,0.8,1.1*29
###2023-12-09 13:44:14.013117$GAGSA,A,3,04,21,27,,,,,,,,,,1.3,0.8,1.1*2B
###2023-12-09 13:44:14.014700$GBGSA,A,3,12,24,25,35,,,,,,,,,1.3,0.8,1.1*2E
###2023-12-09 13:44:14.017020$GPGSV,2,1,06,04,50,305,46,16,71,227,41,26,79,041,40,28,35,088,43*7A
###2023-12-09 13:44:14.018771$GPGSV,2,2,06,29,18,043,43,31,56,072,50,,,,,,,,*7C
###2023-12-09 13:44:14.021098$GLGSV,2,1,05,65,42,314,44,73,19,055,44,74,56,021,35,75,46,277,43*6C
###2023-12-09 13:44:14.022548$GLGSV,2,2,05,83,16,043,36,,,,,,,,,,,,*5E
###2023-12-09 13:44:14.024578$GAGSV,1,1,03,04,43,308,45,21,73,044,37,27,19,051,40,,,,*5C
###2023-12-09 13:44:14.026904$GBGSV,1,1,04,12,18,124,42,24,60,050,47,25,53,280,44,35,16,053,39*64
###2023-12-09 13:44:14.028233$GNVTG,243.17,T,,M,0.06,N,0.11,K,A*26
###2023-12-09 13:44:14.029842$GNGST,184413.10,8.000,,,,0.210,0.120,0.310*67
###2023-12-09 13:44:14.031137$GNZDA,184413.10,09,12,2023,00,00*7B
###2023-12-09 13:44:14.031777$GNEBP,,,,,,M*13
###2023-12-09 13:44:14.199092$GNGGA,184413.30,4138.0390775,N,07032.4388445,W,1,18,0.8,13.944,M,-29.746,M,0.0,*5A
###2023-12-09 13:44:14.399102$GNGGA,184413.50,4138.0390772,N,07032.4388455,W,1,18,0.8,13.937,M,-29.746,M,0.0,*5E
###2023-12-09 13:44:14.598742$GNGGA,184413.70,4138.0390780,N,07032.4388482,W,1,18,0.8,13.924,M,-29.746,M,0.0,*59
###2023-12-09 13:44:14.798580$GNGGA,184413.90,4138.0390803,N,07032.4388487,W,1,18,0.8,13.926,M,-29.746,M,0.0,*54
###2023-12-09 13:44:15.002876$GNRMC,184414.10,A,4138.0390822,N,07032.4388501,W,0.02,243.17,091223,,,A*5C
###2023-12-09 13:44:15.005739$GNGGA,184414.10,4138.0390822,N,07032.4388501,W,1,18,0.8,13.923,M,-29.746,M,0.0,*52
###2023-12-09 13:44:15.007726$GPGSA,A,3,04,16,26,28,29,31,,,,,,,1.3,0.8,1.1*3C
###2023-12-09 13:44:15.009383$GLGSA,A,3,65,73,74,75,83,,,,,,,,1.3,0.8,1.1*29
###2023-12-09 13:44:15.010910$GAGSA,A,3,04,21,27,,,,,,,,,,1.3,0.8,1.1*2B
###2023-12-09 13:44:15.012485$GBGSA,A,3,12,24,25,35,,,,,,,,,1.3,0.8,1.1*2E
###2023-12-09 13:44:15.014814$GPGSV,2,1,06,04,50,305,46,16,71,227,41,26,79,041,40,28,35,088,43*7A
###2023-12-09 13:44:15.016562$GPGSV,2,2,06,29,18,043,43,31,56,072,50,,,,,,,,*7C
###2023-12-09 13:44:15.018900$GLGSV,2,1,05,65,42,314,44,73,19,055,43,74,56,021,36,75,46,277,43*68
###2023-12-09 13:44:15.020356$GLGSV,2,2,05,83,16,043,36,,,,,,,,,,,,*5E
