###2023-12-09 12:40:55.952473$GBGSA,A,3,14,24,25,26,33,,,,,,,,1.2,0.7,1.0*25
###2023-12-09 12:40:55.954840$GPGSV,2,1,08,03,38,274,46,04,24,311,44,16,39,208,46,26,69,207,50*76
###2023-12-09 12:40:55.957226$GPGSV,2,2,08,28,56,059,45,29,25,071,41,31,73,010,48,32,28,135,45*7C
###2023-12-09 12:40:55.959584$GLGSV,2,1,05,71,54,170,48,72,68,305,47,73,45,035,44,74,71,299,43*63
###2023-12-09 12:40:55.961043$GLGSV,2,2,05,75,24,243,45,,,,,,,,,,,,*50
###2023-12-09 12:40:55.963374$GAGSV,1,1,04,04,23,311,43,19,83,292,41,21,80,172,47,27,39,049,42*6A
###2023-12-09 12:40:55.965696$GBGSV,2,1,05,14,52,196,44,24,79,359,48,25,34,255,44,26,33,058,45*60
###2023-12-09 12:40:55.967162$GBGSV,2,2,05,33,62,250,47,,,,,,,,,,,,*5E
###2023-12-09 12:40:55.968451$GNVTG,30.94,T,,M,1.77,N,3.28,K,A*15
###2023-12-09 12:40:55.970088$GNGST,174055.10,19.000,,,,0.078,0.070,0.160*53
###2023-12-09 12:40:55.971385$GNZDA,174055.10,09,12,2023,00,00*72
###2023-12-09 12:40:55.972024$GNEBP,,,,,,M*13
###2023-12-09 12:40:56.142086$GNGGA,174055.30,4138.0588968,N,07032.3752530,W,1,23,0.7,13.640,M,-29.744,M,0.0,*57
###2023-12-09 12:40:56.342378$GNGGA,174055.50,4138.0589562,N,07032.3751723,W,1,23,0.7,13.640,M,-29.744,M,0.0,*55
###2023-12-09 12:40:56.549973$GNGGA,174055.70,4138.0590119,N,07032.3750872,W,1,23,0.7,13.629,M,-29.744,M,0.0,*52
###2023-12-09 12:40:56.740648$GNGGA,174055.90,4138.0590736,N,07032.3750077,W,1,23,0.7,13.610,M,-29.744,M,0.0,*50
###2023-12-09 12:40:56.948747$GNRMC,174056.10,A,4138.0591428,N,07032.3749531,W,1.48,21.03,091223,,,A*61
###2023-12-09 12:40:56.951629$GNGGA,174056.10,4138.0591428,N,07032.3749531,W,1,23,0.7,13.607,M,-29.744,M,0.0,*5F
###2023-12-09 12:40:56.953495$GPGSA,A,3,03,04,16,26,28,29,31,32,,,,,1.2,0.7,1.0*31
###2023-12-09 12:40:56.955164$GLGSA,A,3,71,72,73,74,75,,,,,,,,1.2,0.7,1.0*2D
###2023-12-09 12:40:56.956745$GAGSA,A,3,04,19,21,27,,,,,,,,,1.2,0.7,1.0*2C
###2023-12-09 12:40:56.958388$GBGSA,A,3,14,24,25,26,33,,,,,,,,1.2,0.7,1.0*25
###2023-12-09 12:40:56.960730$GPGSV,2,1,08,03,38,274,44,04,24,311,42,16,39,208,46,26,69,207,49*7A
###2023-12-09 12:40:56.963081$GPGSV,2,2,08,28,56,059,44,29,25,071,42,31,73,010,48,32,28,135,45*7E
###2023-12-09 12:40:56.965416$GLGSV,2,1,05,71,54,170,48,72,68,305,46,73,45,035,46,74,71,299,43*60
###2023-12-09 12:40:56.966917$GLGSV,2,2,05,75,24,243,45,,,,,,,,,,,,*50
###2023-12-09 12:40:56.969255$GAGSV,1,1,04,04,23,311,41,19,83,292,41,21,80,172,46,27,39,049,41*6A
###2023-12-09 12:40:56.971602$GBGSV,2,1,05,14,52,196,45,24,79,359,48,25,34,255,46,26,33,058,44*62
###2023-12-09 12:40:56.973055$GBGSV,2,2,05,33,62,250,47,,,,,,,,,,,,*5E
###2023-12-09 12:40:56.974351$GNVTG,21.03,T,,M,1.48,N,2.74,K,A*1F
###2023-12-09 12:40:56.976011$GNGST,174056.10,18.000,,,,0.078,0.070,0.160*51
###2023-12-09 12:40:56.977304$GNZDA,174056.10,09,12,2023,00,00*71
###2023-12-09 12:40:56.977947$GNEBP,,,,,,M*13
###2023-12-09 12:40:57.142655$GNGGA,174056.30,4138.0592173,N,07032.3749023,W,1,23,0.7,13.618,M,-29.744,M,0.0,*5D
###2023-12-09 12:40:57.343767$GNGGA,174056.50,4138.0592730,N,07032.3748251,W,1,23,0.7,13.622,M,-29.744,M,0.0,*55
###2023-12-09 12:40:57.543538$GNGGA,174056.70,4138.0593034,N,07032.3747362,W,1,23,0.7,13.594,M,-29.744,M,0.0,*55
###2023-12-09 12:40:57.745059$GNGGA,174056.90,4138.0593501,N,07032.3746715,W,1,23,0.7,13.582,M,-29.744,M,0.0,*5A
###2023-12-09 12:40:57.942242$GNRMC,174057.10,A,4138.0594332,N,07032.3746340,W,1.63,14.60,091223,,,A*6C
###2023-12-09 12:40:57.945108$GNGGA,174057.10,4138.0594332,N,07032.3746340,W,1,23,0.7,13.585,M,-29.744,M,0.0,*51
###2023-12-09 12:40:57.946998$GPGSA,A,3,03,04,16,26,28,29,31,32,,,,,1.2,0.7,1.0*31
###2023-12-09 12:40:57.948671$GLGSA,A,3,71,72,73,74,75,,,,,,,,1.2,0.7,1.0*2D
###2023-12-09 12:40:57.950257$GAGSA,A,3,04,19,21,27,,,,,,,,,1.2,0.7,1.0*2C
###2023-12-09 12:40:57.951929$GBGSA,A,3,14,24,25,26,33,,,,,,,,1.2,0.7,1.0*25
###2023-12-09 12:40:57.954264$GPGSV,2,1,08,03,38,274,44,04,24,311,43,16,39,208,44,26,69,207,48*78
###2023-12-09 12:40:57.956616$GPGSV,2,2,08,28,56,059,44,29,25,071,41,31,73,010,47,32,28,135,45*72
###2023-12-09 12:40:57.958970$GLGSV,2,1,05,71,54,170,48,72,68,305,47,73,45,035,46,74,71,299,42*60
###2023-12-09 12:40:57.960431$GLGSV,2,2,05,75,24,243,44,,,,,,,,,,,,*51
###2023-12-09 12:40:57.962770$GAGSV,1,1,04,04,23,311,41,19,83,292,40,21,80,172,46,27,39,049,40*6A
###2023-12-09 12:40:57.965107$GBGSV,2,1,05,14,52,196,46,24,79,359,48,25,34,255,46,26,33,058,44*61
###2023-12-09 12:40:57.966560$GBGSV,2,2,05,33,62,250,47,,,,,,,,,,,,*5E
###2023-12-09 12:40:57.967901$GNVTG,14.60,T,,M,1.63,N,3.02,K,A*15
###2023-12-09 12:40:57.969551$GNGST,174057.10,18.000,,,,0.078,0.070,0.160*50
###2023-12-09 12:40:57.970856$GNZDA,174057.10,09,12,2023,00,00*70
###2023-12-09 12:40:57.971498$GNEBP,,,,,,M*13
###2023-12-09 12:40:58.141979$GNGGA,174057.30,4138.0595022,N,07032.3745862,W,1,23,0.7,13.587,M,-29.744,M,0.0,*5A
###2023-12-09 12:40:58.342487$GNGGA,174057.50,4138.0595290,N,07032.3745033,W,1,23,0.7,13.617,M,-29.744,M,0.0,*51
###2023-12-09 12:40:58.550888$GNGGA,174057.70,4138.0595418,N,07032.3744164,W,1,23,0.7,13.582,M,-29.744,M,0.0,*58
###2023-12-09 12:40:58.746679$GNGGA,174057.90,4138.0595961,N,07032.3743688,W,1,23,0.7,13.574,M,-29.744,M,0.0,*5E
###2023-12-09 12:40:58.943747$GNRMC,174058.10,A,4138.0596816,N,07032.3743432,W,1.46,16.86,091223,,,A*66
###2023-12-09 12:40:58.947254$GNGGA,174058.10,4138.0596816,N,07032.3743432,W,1,23,0.7,13.571,M,-29.744,M,0.0,*5D
###2023-12-09 12:40:58.949554$GPGSA,A,3,03,04,16,26,28,29,31,32,,,,,1.2,0.7,1.0*31
###2023-12-09 12:40:58.951581$GLGSA,A,3,71,72,73,74,75,,,,,,,,1.2,0.7,1.0*2D
###2023-12-09 12:40:58.953501$GAGSA,A,3,04,19,21,27,,,,,,,,,1.2,0.7,1.0*2C
###2023-12-09 12:40:58.955509$GBGSA,A,3,14,24,25,26,33,,,,,,,,1.2,0.7,1.0*25
###2023-12-09 12:40:58.958322$GPGSV,2,1,08,03,38,274,44,04,24,311,43,16,39,208,44,26,69,207,47*77
###2023-12-09 12:40:58.961152$GPGSV,2,2,08,28,56,059,44,29,25,071,41,31,73,010,46,32,28,135,41*77
###2023-12-09 12:40:58.964043$GLGSV,2,1,05,71,54,170,47,72,68,305,46,73,45,035,45,74,71,299,42*6D
###2023-12-09 12:40:58.965806$GLGSV,2,2,05,75,24,243,44,,,,,,,,,,,,*51
###2023-12-09 12:40:58.968622$GAGSV,1,1,04,04,23,311,43,19,83,292,41,21,80,172,46,27,39,049,41*68
###2023-12-09 12:40:58.971453$GBGSV,2,1,05,14,52,196,45,24,79,359,48,25,34,255,46,26,33,058,44*62
###2023-12-09 12:40:58.973204$GBGSV,2,2,05,33,62,250,47,,,,,,,,,,,,*5E
###2023-12-09 12:40:58.974771$GNVTG,16.86,T,,M,1.46,N,2.70,K,A*1C
###2023-12-09 12:40:58.976754$GNGST,174058.10,18.000,,,,0.078,0.070,0.160*5F
###2023-12-09 12:40:58.978306$GNZDA,174058.10,09,12,2023,00,00*7F
###2023-12-09 12:40:58.979089$GNEBP,,,,,,M*13
###2023-12-09 12:40:59.143610$GNGGA,174058.30,4138.0597263,N,07032.3742908,W,1,23,0.7,13.571,M,-29.744,M,0.0,*53
###2023-12-09 12:40:59.341466$GNGGA,174058.50,4138.0597287,N,07032.3742087,W,1,23,0.7,13.601,M,-29.744,M,0.0,*55
###2023-12-09 12:40:59.542533$GNGGA,174058.70,4138.0597491,N,07032.3741449,W,1,23,0.7,13.589,M,-29.744,M,0.0,*50
###2023-12-09 12:40:59.741730$GNGGA,174058.90,4138.0598125,N,07032.3741062,W,1,23,0.7,13.585,M,-29.744,M,0.0,*5A
###2023-12-09 12:40:59.942169$GNRMC,174059.10,A,4138.0598782,N,07032.3740694,W,1.11,35.85,091223,,,A*66
###2023-12-09 12:40:59.945036$GNGGA,174059.10,4138.0598782,N,07032.3740694,W,1,23,0.7,13.557,M,-29.744,M,0.0,*59
###2023-12-09 12:40:59.946926$GPGSA,A,3,03,04,16,26,28,29,31,32,,,,,1.2,0.7,1.0*31
###2023-12-09 12:40:59.948588$GLGSA,A,3,71,72,73,74,75,,,,,,,,1.2,0.7,1.0*2D
###2023-12-09 12:40:59.950172$GAGSA,A,3,04,19,21,27,,,,,,,,,1.2,0.7,1.0*2C
###2023-12-09 12:40:59.951836$GBGSA,A,3,14,24,25,26,33,,,,,,,,1.2,0.7,1.0*25
###2023-12-09 12:40:59.954157$GPGSV,2,1,08,03,38,274,45,04,24,311,43,16,39,208,44,26,69,207,48*79
###2023-12-09 12:40:59.956494$GPGSV,2,2,08,28,56,059,45,29,25,071,40,31,73,010,48,32,28,135,42*7A
###2023-12-09 12:40:59.958840$GLGSV,2,1,05,71,54,170,48,72,68,305,46,73,45,035,46,74,71,299,42*61
###2023-12-09 12:40:59.960295$GLGSV,2,2,05,75,24,243,43,,,,,,,,,,,,*56
###2023-12-09 12:40:59.962627$GAGSV,1,1,04,04,23,311,43,19,83,292,41,21,80,172,46,27,39,049,42*6B
###2023-12-09 12:40:59.964957$GBGSV,2,1,05,14,52,196,46,24,79,359,48,25,34,255,46,26,33,058,44*61
###2023-12-09 12:40:59.966695$GBGSV,2,2,05,33,62,250,47,,,,,,,,,,,,*5E
###2023-12-09 12:40:59.968006$GNVTG,35.85,T,,M,1.11,N,2.05,K,A*1E
###2023-12-09 12:40:59.969659$GNGST,174059.10,18.000,,,,0.078,0.070,0.160*5E
###2023-12-09 12:40:59.970969$GNZDA,174059.10,09,12,2023,00,00*7E
###2023-12-09 12:40:59.971614$GNEBP,,,,,,M*13
###2023-12-09 12:41:00.142031$GNGGA,174059.30,4138.0599052,N,07032.3740147,W,1,23,0.7,13.576,M,-29.744,M,0.0,*5A
###2023-12-09 12:41:00.344003$GNGGA,174059.50,4138.0599085,N,07032.3739496,W,1,23,0.7,13.598,M,-29.744,M,0.0,*51
###2023-12-09 12:41:00.544407$GNGGA,174059.70,4138.0599277,N,07032.3738943,W,1,23,0.7,13.585,M,-29.744,M,0.0,*54
###2023-12-09 12:41:00.742228$GNGGA,174059.90,4138.0599801,N,07032.3738583,W,1,23,0.7,13.576,M,-29.744,M,0.0,*5D
