###2023-12-09 13:07:30.992971$GAGSV,1,1,04,04,31,312,46,19,83,203,42,21,85,092,48,27,31,048,43*69
###2023-12-09 13:07:30.995388$GBGSV,2,1,06,14,41,192,45,24,72,029,50,25,42,264,47,26,24,064,44*6A
###2023-12-09 13:07:30.997153$GBGSV,2,2,06,33,56,229,50,35,15,067,44,,,,,,,,*61
###2023-12-09 13:07:30.998483$GNVTG,112.15,T,,M,3.17,N,5.87,K,A*2A
###2023-12-09 13:07:31.000150$GNGST,180730.10,18.000,,,,0.082,0.066,0.150*5C
###2023-12-09 13:07:31.001445$GNZDA,180730.10,09,12,2023,00,00*7D
###2023-12-09 13:07:31.002086$GNEBP,,,,,,M*13
###2023-12-09 13:07:31.168297$GNGGA,180730.30,4138.0753111,N,07032.3678952,W,1,25,0.6,13.289,M,-29.743,M,0.0,*5A
###2023-12-09 13:07:31.368598$GNGGA,180730.50,4138.0752440,N,07032.3676760,W,1,25,0.6,13.297,M,-29.743,M,0.0,*52
###2023-12-09 13:07:31.568128$GNGGA,180730.70,4138.0751667,N,07032.3674558,W,1,25,0.6,13.286,M,-29.743,M,0.0,*5F
###2023-12-09 13:07:31.769566$GNGGA,180730.90,4138.0750730,N,07032.3672501,W,1,25,0.6,13.279,M,-29.743,M,0.0,*59
###2023-12-09 13:07:31.972435$GNRMC,180731.10,A,4138.0749739,N,07032.3670516,W,3.38,122.44,091223,,,A*52
###2023-12-09 13:07:31.975325$GNGGA,180731.10,4138.0749739,N,07032.3670516,W,1,25,0.6,13.293,M,-29.743,M,0.0,*51
###2023-12-09 13:07:31.977188$GPGSA,A,3,03,04,16,26,28,29,31,32,,,,,1.1,0.6,0.9*3B
###2023-12-09 13:07:31.978924$GLGSA,A,3,65,71,72,73,74,75,,,,,,,1.1,0.6,0.9*24
###2023-12-09 13:07:31.980513$GAGSA,A,3,04,19,21,27,,,,,,,,,1.1,0.6,0.9*26
###2023-12-09 13:07:31.982229$GBGSA,A,3,14,24,25,26,33,35,,,,,,,1.1,0.6,0.9*29
###2023-12-09 13:07:31.984575$GPGSV,2,1,08,03,34,258,45,04,35,311,46,16,53,214,48,26,83,210,49*70
###2023-12-09 13:07:31.986930$GPGSV,2,2,08,28,47,073,46,29,25,058,45,31,67,044,48,32,17,141,42*74
###2023-12-09 13:07:31.989278$GLGSV,2,1,06,65,26,326,43,71,37,173,43,72,72,258,46,73,33,043,44*69
###2023-12-09 13:07:31.991042$GLGSV,2,2,06,74,68,345,43,75,34,256,46,,,,,,,,*6D
###2023-12-09 13:07:31.993374$GAGSV,1,1,04,04,31,312,43,19,83,203,40,21,85,092,46,27,31,048,42*61
###2023-12-09 13:07:31.995712$GBGSV,2,1,06,14,41,192,43,24,72,029,48,25,42,264,47,26,24,064,45*64
###2023-12-09 13:07:31.997462$GBGSV,2,2,06,33,56,229,49,35,15,067,45,,,,,,,,*68
###2023-12-09 13:07:31.998797$GNVTG,122.44,T,,M,3.38,N,6.26,K,A*28
###2023-12-09 13:07:32.000449$GNGST,180731.10,18.000,,,,0.081,0.065,0.150*5D
###2023-12-09 13:07:32.001739$GNZDA,180731.10,09,12,2023,00,00*7C
###2023-12-09 13:07:32.002377$GNEBP,,,,,,M*13
###2023-12-09 13:07:32.172250$GNGGA,180731.30,4138.0748749,N,07032.3668387,W,1,25,0.6,13.285,M,-29.743,M,0.0,*55
###2023-12-09 13:07:32.368874$GNGGA,180731.50,4138.0747843,N,07032.3666240,W,1,25,0.6,13.268,M,-29.743,M,0.0,*5E
###2023-12-09 13:07:32.569630$GNGGA,180731.70,4138.0746856,N,07032.3664098,W,1,25,0.6,13.277,M,-29.743,M,0.0,*52
###2023-12-09 13:07:32.769383$GNGGA,180731.90,4138.0745835,N,07032.3661946,W,1,25,0.6,13.269,M,-29.743,M,0.0,*5A
###2023-12-09 13:07:32.987602$GNRMC,180732.10,A,4138.0744906,N,07032.3659701,W,3.56,117.47,091223,,,A*5C
###2023-12-09 13:07:32.990464$GNGGA,180732.10,4138.0744906,N,07032.3659701,W,1,25,0.6,13.259,M,-29.743,M,0.0,*54
###2023-12-09 13:07:32.992340$GPGSA,A,3,03,04,16,26,28,29,31,32,,,,,1.1,0.6,0.9*3B
###2023-12-09 13:07:32.994061$GLGSA,A,3,65,71,72,73,74,75,,,,,,,1.1,0.6,0.9*24
###2023-12-09 13:07:32.995666$GAGSA,A,3,04,19,21,27,,,,,,,,,1.1,0.6,0.9*26
###2023-12-09 13:07:32.997382$GBGSA,A,3,14,24,25,26,33,35,,,,,,,1.1,0.6,0.9*29
###2023-12-09 13:07:32.999726$GPGSV,2,1,08,03,34,258,43,04,35,311,43,16,53,214,47,26,83,210,48*7D
###2023-12-09 13:07:33.002065$GPGSV,2,2,08,28,47,073,45,29,25,058,43,31,67,044,46,32,16,141,42*7E
###2023-12-09 13:07:33.004407$GLGSV,2,1,06,65,26,326,41,71,37,173,45,72,72,258,46,73,33,043,44*6D
###2023-12-09 13:07:33.006157$GLGSV,2,2,06,74,68,345,43,75,34,256,45,,,,,,,,*6E
###2023-12-09 13:07:33.008501$GAGSV,1,1,04,04,31,312,42,19,83,203,40,21,85,092,45,27,31,048,42*63
###2023-12-09 13:07:33.010851$GBGSV,2,1,06,14,41,192,44,24,72,029,49,25,42,264,47,26,24,064,44*63
###2023-12-09 13:07:33.012602$GBGSV,2,2,06,33,56,229,49,35,15,067,45,,,,,,,,*68
###2023-12-09 13:07:33.013932$GNVTG,117.47,T,,M,3.56,N,6.59,K,A*2D
###2023-12-09 13:07:33.015625$GNGST,180732.10,18.000,,,,0.080,0.065,0.150*5F
###2023-12-09 13:07:33.016918$GNZDA,180732.10,09,12,2023,00,00*7F
###2023-12-09 13:07:33.017562$GNEBP,,,,,,M*13
###2023-12-09 13:07:33.170318$GNGGA,180732.30,4138.0744020,N,07032.3657452,W,1,25,0.6,13.251,M,-29.743,M,0.0,*58
###2023-12-09 13:07:33.368415$GNGGA,180732.50,4138.0743214,N,07032.3655092,W,1,25,0.6,13.257,M,-29.743,M,0.0,*50
###2023-12-09 13:07:33.569435$GNGGA,180732.70,4138.0742262,N,07032.3652784,W,1,25,0.6,13.236,M,-29.743,M,0.0,*52
###2023-12-09 13:07:33.769417$GNGGA,180732.90,4138.0741510,N,07032.3650442,W,1,25,0.6,13.231,M,-29.743,M,0.0,*51
###2023-12-09 13:07:33.975511$GNRMC,180733.10,A,4138.0740867,N,07032.3647946,W,3.63,109.64,091223,,,A*55
###2023-12-09 13:07:33.978376$GNGGA,180733.10,4138.0740867,N,07032.3647946,W,1,25,0.6,13.238,M,-29.743,M,0.0,*52
###2023-12-09 13:07:33.980256$GPGSA,A,3,03,04,16,26,28,29,31,32,,,,,1.1,0.6,0.9*3B
###2023-12-09 13:07:33.981978$GLGSA,A,3,65,71,72,73,74,75,,,,,,,1.1,0.6,0.9*24
###2023-12-09 13:07:33.983580$GAGSA,A,3,04,19,21,27,,,,,,,,,1.1,0.6,0.9*26
###2023-12-09 13:07:33.985304$GBGSA,A,3,14,24,25,26,33,35,,,,,,,1.1,0.6,0.9*29
###2023-12-09 13:07:33.987649$GPGSV,2,1,08,03,34,258,44,04,35,311,42,16,53,214,48,26,83,210,48*74
###2023-12-09 13:07:33.989990$GPGSV,2,2,08,28,47,073,45,29,25,058,43,31,67,044,47,32,16,141,42*7F
###2023-12-09 13:07:33.992339$GLGSV,2,1,06,65,26,326,41,71,37,173,45,72,72,258,45,73,33,043,44*6E
###2023-12-09 13:07:33.994090$GLGSV,2,2,06,74,68,345,43,75,34,256,47,,,,,,,,*6C
###2023-12-09 13:07:33.996433$GAGSV,1,1,04,04,31,312,41,19,83,203,40,21,85,092,46,27,31,048,42*63
###2023-12-09 13:07:33.998782$GBGSV,2,1,06,14,41,192,44,24,72,029,48,25,42,264,46,26,24,064,44*63
###2023-12-09 13:07:34.000540$GBGSV,2,2,06,33,56,229,48,35,15,067,43,,,,,,,,*6F
###2023-12-09 13:07:34.001863$GNVTG,109.64,T,,M,3.63,N,6.73,K,A*2D
###2023-12-09 13:07:34.003555$GNGST,180733.10,18.000,,,,0.080,0.065,0.150*5E
###2023-12-09 13:07:34.004855$GNZDA,180733.10,09,12,2023,00,00*7E
###2023-12-09 13:07:34.005495$GNEBP,,,,,,M*13
###2023-12-09 13:07:34.168199$GNGGA,180733.30,4138.0740279,N,07032.3645528,W,1,25,0.6,13.227,M,-29.743,M,0.0,*5D
###2023-12-09 13:07:34.368381$GNGGA,180733.50,4138.0739719,N,07032.3643031,W,1,25,0.6,13.223,M,-29.743,M,0.0,*59
###2023-12-09 13:07:34.570148$GNGGA,180733.70,4138.0739142,N,07032.3640508,W,1,25,0.6,13.222,M,-29.743,M,0.0,*5E
###2023-12-09 13:07:34.769454$GNGGA,180733.90,4138.0738723,N,07032.3637972,W,1,25,0.6,13.225,M,-29.743,M,0.0,*56
###2023-12-09 13:07:34.971920$GNRMC,180734.10,A,4138.0738412,N,07032.3635414,W,3.42,96.67,091223,,,A*6B
###2023-12-09 13:07:34.974796$GNGGA,180734.10,4138.0738412,N,07032.3635414,W,1,25,0.6,13.225,M,-29.743,M,0.0,*57
###2023-12-09 13:07:34.976659$GPGSA,A,3,03,04,16,26,28,29,31,32,,,,,1.1,0.6,0.9*3B
###2023-12-09 13:07:34.978375$GLGSA,A,3,65,71,72,73,74,75,,,,,,,1.1,0.6,0.9*24
###2023-12-09 13:07:34.979972$GAGSA,A,3,04,19,21,27,,,,,,,,,1.1,0.6,0.9*26
###2023-12-09 13:07:34.981698$GBGSA,A,3,14,24,25,26,33,35,,,,,,,1.1,0.6,0.9*29
###2023-12-09 13:07:34.984045$GPGSV,2,1,08,03,34,258,43,04,35,311,43,16,53,214,48,26,83,210,49*73
###2023-12-09 13:07:34.986381$GPGSV,2,2,08,28,47,073,44,29,25,058,41,31,67,044,47,32,16,141,42*7C
###2023-12-09 13:07:34.988721$GLGSV,2,1,06,65,26,326,41,71,37,173,46,72,72,258,45,73,33,043,43*6A
###2023-12-09 13:07:34.990470$GLGSV,2,2,06,74,68,345,43,75,34,256,46,,,,,,,,*6D
###2023-12-09 13:07:34.992811$GAGSV,1,1,04,04,31,312,41,19,83,203,41,21,85,092,46,27,31,048,43*63
###2023-12-09 13:07:34.995153$GBGSV,2,1,06,14,41,192,45,24,72,029,48,25,42,264,46,26,24,064,41*67
###2023-12-09 13:07:34.996897$GBGSV,2,2,06,33,56,229,48,35,15,067,43,,,,,,,,*6F
###2023-12-09 13:07:34.998189$GNVTG,96.67,T,,M,3.42,N,6.34,K,A*19
###2023-12-09 13:07:34.999851$GNGST,180734.10,18.000,,,,0.080,0.065,0.150*59
###2023-12-09 13:07:35.001141$GNZDA,180734.10,09,12,2023,00,00*79
###2023-12-09 13:07:35.001775$GNEBP,,,,,,M*13
###2023-12-09 13:07:35.168211$GNGGA,180734.30,4138.0738252,N,07032.3632918,W,1,25,0.6,13.234,M,-29.743,M,0.0,*51
###2023-12-09 13:07:35.368714$GNGGA,180734.50,4138.0738017,N,07032.3630314,W,1,25,0.6,13.223,M,-29.743,M,0.0,*56
###2023-12-09 13:07:35.569343$GNGGA,180734.70,4138.0737855,N,07032.3627878,W,1,25,0.6,13.218,M,-29.743,M,0.0,*5A
###2023-12-09 13:07:35.770159$GNGGA,180734.90,4138.0738015,N,07032.3625409,W,1,25,0.6,13.247,M,-29.743,M,0.0,*55
###2023-12-09 13:07:35.970944$GNRMC,180735.10,A,4138.0738051,N,07032.3622855,W,3.25,88.91,091223,,,A*61
###2023-12-09 13:07:35.973824$GNGGA,180735.10,4138.0738051,N,07032.3622855,W,1,25,0.6,13.231,M,-29.743,M,0.0,*5F
###2023-12-09 13:07:35.975710$GPGSA,A,3,03,04,16,26,28,29,31,32,,,,,1.1,0.6,0.9*3B
###2023-12-09 13:07:35.977435$GLGSA,A,3,65,71,72,73,74,75,,,,,,,1.1,0.6,0.9*24
###2023-12-09 13:07:35.979040$GAGSA,A,3,04,19,21,27,,,,,,,,,1.1,0.6,0.9*26
