###2023-12-09 12:44:10.965787$GAGSV,1,1,04,04,24,312,40,19,84,288,40,21,81,170,46,27,39,049,45*65
###2023-12-09 12:44:10.968164$GBGSV,2,1,05,14,51,196,46,24,79,002,48,25,35,255,44,26,32,059,45*6D
###2023-12-09 12:44:10.969627$GBGSV,2,2,05,33,62,246,47,,,,,,,,,,,,*59
###2023-12-09 12:44:10.970969$GNVTG,225.23,T,,M,1.92,N,3.56,K,A*2D
###2023-12-09 12:44:10.972614$GNGST,174410.10,18.000,,,,0.078,0.068,0.160*5E
###2023-12-09 12:44:10.973905$GNZDA,174410.10,09,12,2023,00,00*77
###2023-12-09 12:44:10.974541$GNEBP,,,,,,M*13
###2023-12-09 12:44:11.141930$GNGGA,174410.30,4138.0395466,N,07032.3884761,W,1,24,0.6,13.495,M,-29.745,M,0.0,*54
###2023-12-09 12:44:11.343699$GNGGA,174410.50,4138.0394983,N,07032.3885901,W,1,24,0.6,13.509,M,-29.745,M,0.0,*58
###2023-12-09 12:44:11.543663$GNGGA,174410.70,4138.0394355,N,07032.3886851,W,1,24,0.6,13.482,M,-29.745,M,0.0,*5E
###2023-12-09 12:44:11.742890$GNGGA,174410.90,4138.0393561,N,07032.3887717,W,1,24,0.6,13.450,M,-29.745,M,0.0,*55
###2023-12-09 12:44:11.942207$GNRMC,174411.10,A,4138.0393029,N,07032.3888788,W,1.75,248.68,091223,,,A*5B
###2023-12-09 12:44:11.945073$GNGGA,174411.10,4138.0393029,N,07032.3888788,W,1,24,0.6,13.480,M,-29.745,M,0.0,*51
###2023-12-09 12:44:11.946954$GPGSA,A,3,03,04,16,26,28,29,31,32,,,,,1.1,0.6,0.9*3B
###2023-12-09 12:44:11.948687$GLGSA,A,3,65,71,72,73,74,75,,,,,,,1.1,0.6,0.9*24
###2023-12-09 12:44:11.950268$GAGSA,A,3,04,19,21,27,,,,,,,,,1.1,0.6,0.9*26
###2023-12-09 12:44:11.951933$GBGSA,A,3,14,24,25,26,33,,,,,,,,1.1,0.6,0.9*2F
###2023-12-09 12:44:11.954263$GPGSV,2,1,08,03,38,271,42,04,25,311,40,16,41,209,45,26,71,208,47*7F
###2023-12-09 12:44:11.956605$GPGSV,2,2,08,28,55,061,45,29,26,069,43,31,72,015,47,32,26,136,45*7A
###2023-12-09 12:44:11.958966$GLGSV,2,1,06,65,16,329,40,71,51,170,47,72,69,300,46,73,44,036,46*67
###2023-12-09 12:44:11.960721$GLGSV,2,2,06,74,71,307,42,75,25,245,42,,,,,,,,*64
###2023-12-09 12:44:11.963070$GAGSV,1,1,04,04,24,312,39,19,84,288,40,21,81,170,46,27,39,049,44*6A
###2023-12-09 12:44:11.965411$GBGSV,2,1,05,14,51,196,46,24,79,002,48,25,35,255,46,26,32,059,45*6F
###2023-12-09 12:44:11.966875$GBGSV,2,2,05,33,62,246,47,,,,,,,,,,,,*59
###2023-12-09 12:44:11.968201$GNVTG,248.68,T,,M,1.75,N,3.24,K,A*25
###2023-12-09 12:44:11.969845$GNGST,174411.10,18.000,,,,0.078,0.068,0.160*5F
###2023-12-09 12:44:11.971149$GNZDA,174411.10,09,12,2023,00,00*76
###2023-12-09 12:44:11.971790$GNEBP,,,,,,M*13
###2023-12-09 12:44:12.143281$GNGGA,174411.30,4138.0392832,N,07032.3890108,W,1,24,0.6,13.525,M,-29.745,M,0.0,*59
###2023-12-09 12:44:12.342224$GNGGA,174411.50,4138.0392549,N,07032.3891314,W,1,24,0.6,13.509,M,-29.745,M,0.0,*5E
###2023-12-09 12:44:12.542339$GNGGA,174411.70,4138.0391939,N,07032.3892269,W,1,24,0.6,13.479,M,-29.745,M,0.0,*5A
###2023-12-09 12:44:12.741870$GNGGA,174411.90,4138.0391347,N,07032.3893234,W,1,24,0.6,13.466,M,-29.745,M,0.0,*50
###2023-12-09 12:44:12.945976$GNRMC,174412.10,A,4138.0391184,N,07032.3894365,W,1.50,266.83,091223,,,A*58
###2023-12-09 12:44:12.948871$GNGGA,174412.10,4138.0391184,N,07032.3894365,W,1,24,0.6,13.489,M,-29.745,M,0.0,*55
###2023-12-09 12:44:12.950776$GPGSA,A,3,03,04,16,26,28,29,31,32,,,,,1.1,0.6,0.9*3B
###2023-12-09 12:44:12.952503$GLGSA,A,3,65,71,72,73,74,75,,,,,,,1.1,0.6,0.9*24
###2023-12-09 12:44:12.954090$GAGSA,A,3,04,19,21,27,,,,,,,,,1.1,0.6,0.9*26
###2023-12-09 12:44:12.955758$GBGSA,A,3,14,24,25,26,33,,,,,,,,1.1,0.6,0.9*2F
###2023-12-09 12:44:12.958090$GPGSV,2,1,08,03,38,271,43,04,25,311,40,16,41,209,46,26,71,208,48*72
###2023-12-09 12:44:12.960439$GPGSV,2,2,08,28,55,061,45,29,26,069,43,31,72,015,47,32,26,136,45*7A
###2023-12-09 12:44:12.962793$GLGSV,2,1,06,65,16,329,39,71,51,170,49,72,69,300,45,73,44,036,45*67
###2023-12-09 12:44:12.964549$GLGSV,2,2,06,74,71,307,42,75,25,245,42,,,,,,,,*64
###2023-12-09 12:44:12.966897$GAGSV,1,1,04,04,24,312,39,19,84,288,40,21,81,170,46,27,39,049,44*6A
###2023-12-09 12:44:12.969234$GBGSV,2,1,05,14,51,196,46,24,79,002,48,25,35,255,45,26,32,059,45*6C
###2023-12-09 12:44:12.970709$GBGSV,2,2,05,33,62,246,47,,,,,,,,,,,,*59
###2023-12-09 12:44:12.972037$GNVTG,266.83,T,,M,1.50,N,2.77,K,A*2C
###2023-12-09 12:44:12.973688$GNGST,174412.10,18.000,,,,0.077,0.068,0.160*53
###2023-12-09 12:44:12.975033$GNZDA,174412.10,09,12,2023,00,00*75
###2023-12-09 12:44:12.975676$GNEBP,,,,,,M*13
###2023-12-09 12:44:13.142965$GNGGA,174412.30,4138.0391099,N,07032.3895461,W,1,24,0.6,13.504,M,-29.745,M,0.0,*5C
###2023-12-09 12:44:13.346610$GNGGA,174412.50,4138.0390820,N,07032.3896489,W,1,24,0.6,13.502,M,-29.745,M,0.0,*52
###2023-12-09 12:44:13.543340$GNGGA,174412.70,4138.0390326,N,07032.3897456,W,1,24,0.6,13.499,M,-29.745,M,0.0,*5D
###2023-12-09 12:44:13.741963$GNGGA,174412.90,4138.0389935,N,07032.3898533,W,1,24,0.6,13.498,M,-29.745,M,0.0,*5F
###2023-12-09 12:44:13.943211$GNRMC,174413.10,A,4138.0389843,N,07032.3899668,W,1.50,270.74,091223,,,A*58
###2023-12-09 12:44:13.946086$GNGGA,174413.10,4138.0389843,N,07032.3899668,W,1,24,0.6,13.497,M,-29.745,M,0.0,*55
###2023-12-09 12:44:13.947970$GPGSA,A,3,03,04,16,26,28,29,31,32,,,,,1.1,0.6,0.9*3B
###2023-12-09 12:44:13.949705$GLGSA,A,3,65,71,72,73,74,75,,,,,,,1.1,0.6,0.9*24
###2023-12-09 12:44:13.951312$GAGSA,A,3,04,19,21,27,,,,,,,,,1.1,0.6,0.9*26
###2023-12-09 12:44:13.952963$GBGSA,A,3,14,24,25,26,33,,,,,,,,1.1,0.6,0.9*2F
###2023-12-09 12:44:13.955313$GPGSV,2,1,08,03,38,271,42,04,25,311,40,16,41,209,47,26,71,208,48*72
###2023-12-09 12:44:13.957660$GPGSV,2,2,08,28,55,061,44,29,26,069,41,31,72,015,47,32,26,136,44*78
###2023-12-09 12:44:13.960018$GLGSV,2,1,06,65,16,329,38,71,51,170,48,72,69,300,46,73,44,036,46*67
###2023-12-09 12:44:13.961764$GLGSV,2,2,06,74,71,307,42,75,25,245,42,,,,,,,,*64
###2023-12-09 12:44:13.964111$GAGSV,1,1,04,04,24,312,38,19,84,288,40,21,81,170,46,27,39,049,43*6C
###2023-12-09 12:44:13.966462$GBGSV,2,1,05,14,51,196,45,24,79,002,49,25,35,255,44,26,32,059,44*6E
###2023-12-09 12:44:13.967950$GBGSV,2,2,05,33,62,246,47,,,,,,,,,,,,*59
###2023-12-09 12:44:13.969275$GNVTG,270.74,T,,M,1.50,N,2.77,K,A*23
###2023-12-09 12:44:13.970944$GNGST,174413.10,18.000,,,,0.077,0.068,0.160*52
###2023-12-09 12:44:13.972242$GNZDA,174413.10,09,12,2023,00,00*74
###2023-12-09 12:44:13.972883$GNEBP,,,,,,M*13
###2023-12-09 12:44:14.142860$GNGGA,174413.30,4138.0389820,N,07032.3900760,W,1,24,0.6,13.503,M,-29.745,M,0.0,*56
###2023-12-09 12:44:14.343404$GNGGA,174413.50,4138.0389619,N,07032.3901787,W,1,24,0.6,13.511,M,-29.745,M,0.0,*5F
###2023-12-09 12:44:14.543564$GNGGA,174413.70,4138.0389328,N,07032.3902811,W,1,24,0.6,13.503,M,-29.745,M,0.0,*5A
###2023-12-09 12:44:14.742322$GNGGA,174413.90,4138.0389246,N,07032.3903890,W,1,24,0.6,13.506,M,-29.745,M,0.0,*50
###2023-12-09 12:44:14.944390$GNRMC,174414.10,A,4138.0389311,N,07032.3905057,W,1.57,273.29,091223,,,A*51
###2023-12-09 12:44:14.947272$GNGGA,174414.10,4138.0389311,N,07032.3905057,W,1,24,0.6,13.511,M,-29.745,M,0.0,*5F
###2023-12-09 12:44:14.949147$GPGSA,A,3,03,04,16,26,28,29,31,32,,,,,1.1,0.6,0.9*3B
###2023-12-09 12:44:14.950880$GLGSA,A,3,65,71,72,73,74,75,,,,,,,1.1,0.6,0.9*24
###2023-12-09 12:44:14.952469$GAGSA,A,3,04,19,21,27,,,,,,,,,1.1,0.6,0.9*26
###2023-12-09 12:44:14.954119$GBGSA,A,3,14,24,25,26,33,,,,,,,,1.1,0.6,0.9*2F
###2023-12-09 12:44:14.956466$GPGSV,2,1,08,03,38,271,41,04,25,311,39,16,41,209,46,26,71,208,47*71
###2023-12-09 12:44:14.958824$GPGSV,2,2,08,28,55,061,45,29,26,069,41,31,72,015,48,32,26,136,40*72
###2023-12-09 12:44:14.961158$GLGSV,2,1,06,65,16,329,40,71,51,170,47,72,69,300,46,73,44,036,47*66
###2023-12-09 12:44:14.962922$GLGSV,2,2,06,74,71,307,42,75,25,245,40,,,,,,,,*66
###2023-12-09 12:44:14.965261$GAGSV,1,1,04,04,24,312,38,19,84,288,40,21,81,170,46,27,39,049,44*6B
###2023-12-09 12:44:14.967609$GBGSV,2,1,05,14,51,196,46,24,79,002,49,25,35,255,42,26,32,059,44*6B
###2023-12-09 12:44:14.969068$GBGSV,2,2,05,33,62,246,47,,,,,,,,,,,,*59
###2023-12-09 12:44:14.970397$GNVTG,273.29,T,,M,1.57,N,2.92,K,A*24
###2023-12-09 12:44:14.972061$GNGST,174414.10,18.000,,,,0.078,0.069,0.160*5B
###2023-12-09 12:44:14.973358$GNZDA,174414.10,09,12,2023,00,00*73
###2023-12-09 12:44:14.973995$GNEBP,,,,,,M*13
###2023-12-09 12:44:15.143484$GNGGA,174414.30,4138.0389287,N,07032.3906243,W,1,24,0.6,13.510,M,-29.745,M,0.0,*56
###2023-12-09 12:44:15.344447$GNGGA,174414.50,4138.0389158,N,07032.3907477,W,1,24,0.6,13.506,M,-29.745,M,0.0,*56
###2023-12-09 12:44:15.544383$GNGGA,174414.70,4138.0389080,N,07032.3908774,W,1,24,0.6,13.506,M,-29.745,M,0.0,*5F
###2023-12-09 12:44:15.743796$GNGGA,174414.90,4138.0389205,N,07032.3910004,W,1,24,0.6,13.507,M,-29.745,M,0.0,*56
###2023-12-09 12:44:15.948324$GNRMC,174415.10,A,4138.0389457,N,07032.3911262,W,1.71,281.97,091223,,,A*58
###2023-12-09 12:44:15.951202$GNGGA,174415.10,4138.0389457,N,07032.3911262,W,1,24,0.6,13.513,M,-29.745,M,0.0,*58
###2023-12-09 12:44:15.953058$GPGSA,A,3,03,04,16,26,28,29,31,32,,,,,1.1,0.6,0.9*3B
###2023-12-09 12:44:15.954791$GLGSA,A,3,65,71,72,73,74,75,,,,,,,1.1,0.6,0.9*24
###2023-12-09 12:44:15.956380$GAGSA,A,3,04,19,21,27,,,,,,,,,1.1,0.6,0.9*26
