###2023-12-09 13:18:14.004058$GPGSV,2,2,07,28,43,078,44,29,23,053,41,31,64,053,46,,,,*41
###2023-12-09 13:18:14.006396$GLGSV,2,1,06,65,31,324,42,71,32,174,44,72,70,240,46,73,29,047,44*6D
###2023-12-09 13:18:14.008153$GLGSV,2,2,06,74,65,358,42,75,38,261,45,,,,,,,,*66
###2023-12-09 13:18:14.010460$GAGSV,1,1,04,04,34,311,41,19,78,188,40,21,82,059,45,27,27,049,41*67
###2023-12-09 13:18:14.012791$GBGSV,2,1,06,14,36,191,43,24,68,036,48,25,45,268,46,26,21,066,41*6B
###2023-12-09 13:18:14.014531$GBGSV,2,2,06,33,52,224,47,35,16,063,42,,,,,,,,*6F
###2023-12-09 13:18:14.015867$GNVTG,317.18,T,,M,2.51,N,4.64,K,A*2F
###2023-12-09 13:18:14.017510$GNGST,181813.10,18.000,,,,0.098,0.071,0.170*5C
###2023-12-09 13:18:14.018845$GNZDA,181813.10,09,12,2023,00,00*72
###2023-12-09 13:18:14.019488$GNEBP,,,,,,M*13
###2023-12-09 13:18:14.181444$GNGGA,181813.30,4138.0165494,N,07032.3017459,W,1,24,0.7,12.985,M,-29.745,M,0.0,*57
###2023-12-09 13:18:14.381315$GNGGA,181813.50,4138.0166445,N,07032.3018923,W,1,24,0.7,12.989,M,-29.745,M,0.0,*5D
###2023-12-09 13:18:14.582053$GNGGA,181813.70,4138.0167408,N,07032.3020447,W,1,24,0.7,12.990,M,-29.745,M,0.0,*5B
###2023-12-09 13:18:14.781217$GNGGA,181813.90,4138.0168419,N,07032.3021980,W,1,24,0.7,12.994,M,-29.745,M,0.0,*59
###2023-12-09 13:18:14.985667$GNRMC,181814.10,A,4138.0169445,N,07032.3023585,W,2.68,306.16,091223,,,A*5A
###2023-12-09 13:18:14.988559$GNGGA,181814.10,4138.0169445,N,07032.3023585,W,1,24,0.7,12.999,M,-29.745,M,0.0,*58
###2023-12-09 13:18:14.990351$GPGSA,A,3,03,04,16,26,28,29,31,,,,,,1.2,0.7,0.9*38
###2023-12-09 13:18:14.992083$GLGSA,A,3,65,71,72,73,74,75,,,,,,,1.2,0.7,0.9*26
###2023-12-09 13:18:14.993675$GAGSA,A,3,04,19,21,27,,,,,,,,,1.2,0.7,0.9*24
###2023-12-09 13:18:14.995400$GBGSA,A,3,14,24,25,26,33,35,,,,,,,1.2,0.7,0.9*2B
###2023-12-09 13:18:14.997728$GPGSV,2,1,07,03,31,253,42,04,39,310,41,16,58,216,46,26,88,205,47*7A
###2023-12-09 13:18:14.999782$GPGSV,2,2,07,28,43,078,45,29,23,053,42,31,64,053,47,,,,*42
###2023-12-09 13:18:15.002110$GLGSV,2,1,06,65,31,324,41,71,32,174,44,72,70,240,46,73,29,047,44*6E
###2023-12-09 13:18:15.003872$GLGSV,2,2,06,74,65,358,41,75,38,261,46,,,,,,,,*66
###2023-12-09 13:18:15.006198$GAGSV,1,1,04,04,34,311,42,19,78,188,40,21,82,059,45,27,27,049,41*64
###2023-12-09 13:18:15.008538$GBGSV,2,1,06,14,36,191,44,24,68,036,48,25,45,268,45,26,21,066,41*6F
###2023-12-09 13:18:15.010281$GBGSV,2,2,06,33,52,224,46,35,16,063,42,,,,,,,,*6E
###2023-12-09 13:18:15.011611$GNVTG,306.16,T,,M,2.68,N,4.97,K,A*27
###2023-12-09 13:18:15.013250$GNGST,181814.10,18.000,,,,0.098,0.071,0.170*5B
###2023-12-09 13:18:15.014535$GNZDA,181814.10,09,12,2023,00,00*75
###2023-12-09 13:18:15.015183$GNEBP,,,,,,M*13
###2023-12-09 13:18:15.182149$GNGGA,181814.30,4138.0170348,N,07032.3025282,W,1,24,0.7,12.999,M,-29.745,M,0.0,*5E
###2023-12-09 13:18:15.381997$GNGGA,181814.50,4138.0171185,N,07032.3027049,W,1,24,0.7,13.000,M,-29.745,M,0.0,*55
###2023-12-09 13:18:15.581870$GNGGA,181814.70,4138.0172038,N,07032.3028854,W,1,24,0.7,13.002,M,-29.744,M,0.0,*5B
###2023-12-09 13:18:15.782627$GNGGA,181814.90,4138.0172857,N,07032.3030698,W,1,24,0.7,13.000,M,-29.744,M,0.0,*51
###2023-12-09 13:18:15.985684$GNRMC,181815.10,A,4138.0173601,N,07032.3032621,W,2.90,295.05,091223,,,A*51
###2023-12-09 13:18:15.989204$GNGGA,181815.10,4138.0173601,N,07032.3032621,W,1,24,0.7,13.004,M,-29.744,M,0.0,*50
###2023-12-09 13:18:15.991414$GPGSA,A,3,03,04,16,26,28,29,31,,,,,,1.2,0.7,0.9*38
###2023-12-09 13:18:15.993493$GLGSA,A,3,65,71,72,73,74,75,,,,,,,1.2,0.7,0.9*26
###2023-12-09 13:18:15.995418$GAGSA,A,3,04,19,21,27,,,,,,,,,1.2,0.7,0.9*24
###2023-12-09 13:18:15.997495$GBGSA,A,3,14,24,25,26,33,35,,,,,,,1.2,0.7,0.9*2B
###2023-12-09 13:18:16.000319$GPGSV,2,1,07,03,31,253,40,04,39,310,41,16,58,216,46,26,88,205,47*78
###2023-12-09 13:18:16.002801$GPGSV,2,2,07,28,43,078,44,29,23,053,40,31,64,053,47,,,,*41
###2023-12-09 13:18:16.005619$GLGSV,2,1,06,65,31,324,41,71,32,174,46,72,70,240,46,73,29,047,44*6C
###2023-12-09 13:18:16.007754$GLGSV,2,2,06,74,65,358,42,75,38,261,44,,,,,,,,*67
###2023-12-09 13:18:16.010574$GAGSV,1,1,04,04,34,311,41,19,78,188,41,21,82,059,46,27,27,049,42*66
###2023-12-09 13:18:16.013397$GBGSV,2,1,06,14,36,191,43,24,68,036,48,25,45,268,44,26,21,066,41*69
###2023-12-09 13:18:16.015510$GBGSV,2,2,06,33,52,224,47,35,16,063,41,,,,,,,,*6C
###2023-12-09 13:18:16.017107$GNVTG,295.05,T,,M,2.90,N,5.36,K,A*23
###2023-12-09 13:18:16.019109$GNGST,181815.10,18.000,,,,0.098,0.071,0.170*5A
###2023-12-09 13:18:16.020689$GNZDA,181815.10,09,12,2023,00,00*74
###2023-12-09 13:18:16.021470$GNEBP,,,,,,M*13
###2023-12-09 13:18:16.180761$GNGGA,181815.30,4138.0174218,N,07032.3034595,W,1,24,0.7,13.007,M,-29.744,M,0.0,*50
###2023-12-09 13:18:16.382121$GNGGA,181815.50,4138.0174760,N,07032.3036629,W,1,24,0.7,13.012,M,-29.745,M,0.0,*5F
###2023-12-09 13:18:16.581595$GNGGA,181815.70,4138.0175203,N,07032.3038766,W,1,24,0.7,13.012,M,-29.745,M,0.0,*58
###2023-12-09 13:18:16.781873$GNGGA,181815.90,4138.0175620,N,07032.3040938,W,1,24,0.7,13.022,M,-29.745,M,0.0,*5A
###2023-12-09 13:18:16.986379$GNRMC,181816.10,A,4138.0176115,N,07032.3043170,W,3.11,283.74,091223,,,A*59
###2023-12-09 13:18:16.989244$GNGGA,181816.10,4138.0176115,N,07032.3043170,W,1,24,0.7,13.036,M,-29.745,M,0.0,*51
###2023-12-09 13:18:16.991032$GPGSA,A,3,03,04,16,26,28,29,31,,,,,,1.2,0.7,0.9*38
###2023-12-09 13:18:16.992731$GLGSA,A,3,65,71,72,73,74,75,,,,,,,1.2,0.7,0.9*26
###2023-12-09 13:18:16.994299$GAGSA,A,3,04,19,21,27,,,,,,,,,1.2,0.7,0.9*24
###2023-12-09 13:18:16.996007$GBGSA,A,3,14,24,25,26,33,35,,,,,,,1.2,0.7,0.9*2B
###2023-12-09 13:18:16.998318$GPGSV,2,1,07,03,31,253,40,04,39,310,42,16,58,216,46,26,88,205,47*7B
###2023-12-09 13:18:17.000349$GPGSV,2,2,07,28,43,078,44,29,23,053,40,31,64,053,47,,,,*41
###2023-12-09 13:18:17.002663$GLGSV,2,1,06,65,31,324,43,71,32,174,45,72,70,240,45,73,29,047,45*6F
###2023-12-09 13:18:17.004407$GLGSV,2,2,06,74,65,358,43,75,38,261,43,,,,,,,,*61
###2023-12-09 13:18:17.006729$GAGSV,1,1,04,04,34,311,42,19,78,188,40,21,82,059,45,27,27,049,42*67
###2023-12-09 13:18:17.009043$GBGSV,2,1,06,14,36,191,44,24,68,036,49,25,45,268,44,26,21,066,43*6D
###2023-12-09 13:18:17.010795$GBGSV,2,2,06,33,52,224,47,35,16,063,44,,,,,,,,*69
###2023-12-09 13:18:17.012112$GNVTG,283.74,T,,M,3.11,N,5.76,K,A*2E
###2023-12-09 13:18:17.013788$GNGST,181816.10,18.000,,,,0.098,0.072,0.170*5A
###2023-12-09 13:18:17.015083$GNZDA,181816.10,09,12,2023,00,00*77
###2023-12-09 13:18:17.015720$GNEBP,,,,,,M*13
###2023-12-09 13:18:17.181143$GNGGA,181816.30,4138.0176316,N,07032.3045373,W,1,24,0.7,13.033,M,-29.745,M,0.0,*50
###2023-12-09 13:18:17.381360$GNGGA,181816.50,4138.0176143,N,07032.3047548,W,1,24,0.7,13.006,M,-29.745,M,0.0,*5E
###2023-12-09 13:18:17.582977$GNGGA,181816.70,4138.0176165,N,07032.3049787,W,1,24,0.7,12.989,M,-29.745,M,0.0,*58
###2023-12-09 13:18:17.782141$GNGGA,181816.90,4138.0176472,N,07032.3052058,W,1,24,0.7,12.999,M,-29.745,M,0.0,*5B
###2023-12-09 13:18:17.986842$GNRMC,181817.10,A,4138.0176683,N,07032.3054338,W,3.07,272.54,091223,,,A*53
###2023-12-09 13:18:17.989707$GNGGA,181817.10,4138.0176683,N,07032.3054338,W,1,24,0.7,13.010,M,-29.745,M,0.0,*54
###2023-12-09 13:18:17.991506$GPGSA,A,3,03,04,16,26,28,29,31,,,,,,1.2,0.7,0.9*38
###2023-12-09 13:18:17.993216$GLGSA,A,3,65,71,72,73,74,75,,,,,,,1.2,0.7,0.9*26
###2023-12-09 13:18:17.994803$GAGSA,A,3,04,19,21,27,,,,,,,,,1.2,0.7,0.9*24
###2023-12-09 13:18:17.996512$GBGSA,A,3,14,24,25,26,33,35,,,,,,,1.2,0.7,0.9*2B
###2023-12-09 13:18:17.998837$GPGSV,2,1,07,03,31,253,41,04,39,310,44,16,58,216,45,26,88,205,48*70
###2023-12-09 13:18:18.000867$GPGSV,2,2,07,28,43,078,45,29,23,053,40,31,64,053,47,,,,*40
###2023-12-09 13:18:18.003202$GLGSV,2,1,06,65,31,324,42,71,32,174,44,72,70,240,45,73,29,047,44*6E
###2023-12-09 13:18:18.004944$GLGSV,2,2,06,74,65,358,42,75,38,261,43,,,,,,,,*60
###2023-12-09 13:18:18.007278$GAGSV,1,1,04,04,34,311,42,19,78,188,40,21,82,059,46,27,27,049,41*67
###2023-12-09 13:18:18.009591$GBGSV,2,1,06,14,36,191,43,24,68,036,49,25,45,268,45,26,21,066,42*6A
###2023-12-09 13:18:18.011340$GBGSV,2,2,06,33,52,224,47,35,16,063,43,,,,,,,,*6E
###2023-12-09 13:18:18.012661$GNVTG,272.54,T,,M,3.07,N,5.69,K,A*2B
###2023-12-09 13:18:18.014532$GNGST,181817.10,18.000,,,,0.098,0.072,0.170*5B
###2023-12-09 13:18:18.015843$GNZDA,181817.10,09,12,2023,00,00*76
###2023-12-09 13:18:18.016484$GNEBP,,,,,,M*13
###2023-12-09 13:18:18.183521$GNGGA,181817.30,4138.0176676,N,07032.3056660,W,1,24,0.7,13.026,M,-29.745,M,0.0,*53
###2023-12-09 13:18:18.382194$GNGGA,181817.50,4138.0176805,N,07032.3059065,W,1,24,0.7,13.022,M,-29.745,M,0.0,*57
###2023-12-09 13:18:18.583165$GNGGA,181817.70,4138.0177218,N,07032.3061509,W,1,24,0.7,13.014,M,-29.745,M,0.0,*53
###2023-12-09 13:18:18.783148$GNGGA,181817.90,4138.0177733,N,07032.3063924,W,1,24,0.7,13.007,M,-29.745,M,0.0,*52
###2023-12-09 13:18:18.986901$GNRMC,181818.10,A,4138.0178196,N,07032.3066311,W,3.29,283.71,091223,,,A*5E
###2023-12-09 13:18:18.989772$GNGGA,181818.10,4138.0178196,N,07032.3066311,W,1,24,0.7,13.010,M,-29.745,M,0.0,*5C
