###2023-12-09 13:11:57.984176$GLGSA,A,3,65,71,72,73,74,75,,,,,,,1.2,0.7,1.0*2E
###2023-12-09 13:11:57.985785$GAGSA,A,3,04,19,21,27,,,,,,,,,1.2,0.7,1.0*2C
###2023-12-09 13:11:57.987519$GBGSA,A,3,14,24,25,26,33,35,,,,,,,1.2,0.7,1.0*23
###2023-12-09 13:11:57.989852$GPGSV,2,1,07,03,33,256,40,04,37,311,43,16,55,215,45,26,85,210,48*79
###2023-12-09 13:11:57.991920$GPGSV,2,2,07,28,46,075,45,29,24,056,42,31,66,048,48,,,,*4F
###2023-12-09 13:11:57.994247$GLGSV,2,1,06,65,28,326,40,71,35,174,44,72,72,250,45,73,31,045,44*69
###2023-12-09 13:11:57.996007$GLGSV,2,2,06,74,67,351,43,75,36,258,42,,,,,,,,*6F
###2023-12-09 13:11:57.998335$GAGSV,1,1,04,04,33,312,41,19,81,194,40,21,84,075,46,27,30,048,41*64
###2023-12-09 13:11:58.000679$GBGSV,2,1,06,14,39,192,44,24,70,033,49,25,44,266,44,26,23,065,41*61
###2023-12-09 13:11:58.002423$GBGSV,2,2,06,33,54,227,47,35,15,065,44,,,,,,,,*69
###2023-12-09 13:11:58.003775$GNVTG,275.28,T,,M,3.54,N,6.55,K,A*2D
###2023-12-09 13:11:58.005428$GNGST,181157.10,18.000,,,,0.097,0.074,0.170*5F
###2023-12-09 13:11:58.006742$GNZDA,181157.10,09,12,2023,00,00*7B
###2023-12-09 13:11:58.007379$GNEBP,,,,,,M*13
###2023-12-09 13:11:58.172797$GNGGA,181157.30,4138.0395720,N,07032.3019790,W,1,24,0.7,12.830,M,-29.744,M,0.0,*59
###2023-12-09 13:11:58.373008$GNGGA,181157.50,4138.0395972,N,07032.3022541,W,1,24,0.7,12.824,M,-29.744,M,0.0,*55
###2023-12-09 13:11:58.573759$GNGGA,181157.70,4138.0396235,N,07032.3025334,W,1,24,0.7,12.813,M,-29.744,M,0.0,*5B
###2023-12-09 13:11:58.773814$GNGGA,181157.90,4138.0396528,N,07032.3028073,W,1,24,0.7,12.819,M,-29.744,M,0.0,*59
###2023-12-09 13:11:58.981883$GNRMC,181158.10,A,4138.0396767,N,07032.3030760,W,3.60,276.74,091223,,,A*5A
###2023-12-09 13:11:58.984775$GNGGA,181158.10,4138.0396767,N,07032.3030760,W,1,24,0.7,12.826,M,-29.744,M,0.0,*57
###2023-12-09 13:11:58.986582$GPGSA,A,3,03,04,16,26,28,29,31,,,,,,1.2,0.7,1.0*30
###2023-12-09 13:11:58.988296$GLGSA,A,3,65,71,72,73,74,75,,,,,,,1.2,0.7,1.0*2E
###2023-12-09 13:11:58.989873$GAGSA,A,3,04,19,21,27,,,,,,,,,1.2,0.7,1.0*2C
###2023-12-09 13:11:58.991601$GBGSA,A,3,14,24,25,26,33,35,,,,,,,1.2,0.7,1.0*23
###2023-12-09 13:11:58.993924$GPGSV,2,1,07,03,33,256,40,04,37,311,42,16,55,215,45,26,85,210,48*78
###2023-12-09 13:11:58.995987$GPGSV,2,2,07,28,46,075,45,29,24,056,41,31,66,048,48,,,,*4C
###2023-12-09 13:11:58.998320$GLGSV,2,1,06,65,28,326,40,71,35,174,45,72,72,250,46,73,31,045,45*6A
###2023-12-09 13:11:59.000080$GLGSV,2,2,06,74,67,351,42,75,36,258,42,,,,,,,,*6E
###2023-12-09 13:11:59.002402$GAGSV,1,1,04,04,33,312,40,19,81,194,40,21,84,075,46,27,30,048,41*65
###2023-12-09 13:11:59.004737$GBGSV,2,1,06,14,39,192,44,24,70,033,49,25,44,266,44,26,23,065,41*61
###2023-12-09 13:11:59.006480$GBGSV,2,2,06,33,54,227,48,35,15,065,41,,,,,,,,*63
###2023-12-09 13:11:59.007811$GNVTG,276.74,T,,M,3.60,N,6.66,K,A*20
###2023-12-09 13:11:59.009455$GNGST,181158.10,18.000,,,,0.097,0.074,0.170*50
###2023-12-09 13:11:59.010754$GNZDA,181158.10,09,12,2023,00,00*74
###2023-12-09 13:11:59.011392$GNEBP,,,,,,M*13
###2023-12-09 13:11:59.172671$GNGGA,181158.30,4138.0397099,N,07032.3033363,W,1,24,0.7,12.822,M,-29.744,M,0.0,*52
###2023-12-09 13:11:59.372825$GNGGA,181158.50,4138.0397631,N,07032.3035874,W,1,24,0.7,12.828,M,-29.744,M,0.0,*51
###2023-12-09 13:11:59.576834$GNGGA,181158.70,4138.0398223,N,07032.3038340,W,1,24,0.7,12.843,M,-29.744,M,0.0,*57
###2023-12-09 13:11:59.772572$GNGGA,181158.90,4138.0398895,N,07032.3040787,W,1,24,0.7,12.849,M,-29.744,M,0.0,*54
###2023-12-09 13:11:59.975713$GNRMC,181159.10,A,4138.0399631,N,07032.3043193,W,3.52,293.09,091223,,,A*58
###2023-12-09 13:11:59.978618$GNGGA,181159.10,4138.0399631,N,07032.3043193,W,1,24,0.7,12.852,M,-29.744,M,0.0,*56
###2023-12-09 13:11:59.980420$GPGSA,A,3,03,04,16,26,28,29,31,,,,,,1.2,0.7,1.0*30
###2023-12-09 13:11:59.982146$GLGSA,A,3,65,71,72,73,74,75,,,,,,,1.2,0.7,1.0*2E
###2023-12-09 13:11:59.983756$GAGSA,A,3,04,19,21,27,,,,,,,,,1.2,0.7,1.0*2C
###2023-12-09 13:11:59.985482$GBGSA,A,3,14,24,25,26,33,35,,,,,,,1.2,0.7,1.0*23
###2023-12-09 13:11:59.987829$GPGSV,2,1,07,03,33,256,43,04,37,311,42,16,55,215,46,26,85,210,48*78
###2023-12-09 13:11:59.989880$GPGSV,2,2,07,28,46,075,45,29,24,056,41,31,66,048,48,,,,*4C
###2023-12-09 13:11:59.992232$GLGSV,2,1,06,65,28,326,39,71,35,174,45,72,72,250,46,73,31,045,45*64
###2023-12-09 13:11:59.993981$GLGSV,2,2,06,74,67,351,42,75,36,258,45,,,,,,,,*69
###2023-12-09 13:11:59.996324$GAGSV,1,1,04,04,33,312,41,19,81,194,40,21,84,071,46,27,30,048,41*60
###2023-12-09 13:11:59.998676$GBGSV,2,1,06,14,39,192,43,24,70,033,48,25,44,266,44,26,23,065,40*66
###2023-12-09 13:12:00.000427$GBGSV,2,2,06,33,54,227,46,35,15,065,40,,,,,,,,*6C
###2023-12-09 13:12:00.001755$GNVTG,293.09,T,,M,3.52,N,6.52,K,A*27
###2023-12-09 13:12:00.003413$GNGST,181159.10,18.000,,,,0.097,0.074,0.170*51
###2023-12-09 13:12:00.004706$GNZDA,181159.10,09,12,2023,00,00*75
###2023-12-09 13:12:00.005342$GNEBP,,,,,,M*13
###2023-12-09 13:12:00.172737$GNGGA,181159.30,4138.0400423,N,07032.3045623,W,1,24,0.7,12.860,M,-29.744,M,0.0,*59
###2023-12-09 13:12:00.372815$GNGGA,181159.50,4138.0401225,N,07032.3048095,W,1,24,0.7,12.864,M,-29.744,M,0.0,*5C
###2023-12-09 13:12:00.573421$GNGGA,181159.70,4138.0402071,N,07032.3050582,W,1,24,0.7,12.868,M,-29.744,M,0.0,*58
###2023-12-09 13:12:00.773844$GNGGA,181159.90,4138.0402893,N,07032.3053095,W,1,24,0.7,12.870,M,-29.744,M,0.0,*5B
###2023-12-09 13:12:00.978173$GNRMC,181200.10,A,4138.0403650,N,07032.3055673,W,3.75,289.95,091223,,,A*51
###2023-12-09 13:12:00.981057$GNGGA,181200.10,4138.0403650,N,07032.3055673,W,1,24,0.7,12.868,M,-29.744,M,0.0,*5D
###2023-12-09 13:12:00.982865$GPGSA,A,3,03,04,16,26,28,29,31,,,,,,1.2,0.7,1.0*30
###2023-12-09 13:12:00.984578$GLGSA,A,3,65,71,72,73,74,75,,,,,,,1.2,0.7,1.0*2E
###2023-12-09 13:12:00.986155$GAGSA,A,3,04,19,21,27,,,,,,,,,1.2,0.7,1.0*2C
###2023-12-09 13:12:00.987885$GBGSA,A,3,14,24,25,26,33,35,,,,,,,1.2,0.7,1.0*23
###2023-12-09 13:12:00.990218$GPGSV,2,1,07,03,33,256,41,04,37,311,42,16,55,215,46,26,85,210,48*7A
###2023-12-09 13:12:00.992276$GPGSV,2,2,07,28,46,075,45,29,24,056,40,31,66,048,48,,,,*4D
###2023-12-09 13:12:00.994621$GLGSV,2,1,06,65,28,326,39,71,35,174,46,72,72,250,45,73,31,045,44*65
###2023-12-09 13:12:00.996373$GLGSV,2,2,06,74,67,351,42,75,36,258,44,,,,,,,,*68
###2023-12-09 13:12:00.998713$GAGSV,1,1,04,04,33,312,40,19,81,194,41,21,84,071,46,27,30,048,41*60
###2023-12-09 13:12:01.001042$GBGSV,2,1,06,14,39,192,44,24,70,033,48,25,44,266,44,26,23,065,41*60
###2023-12-09 13:12:01.002794$GBGSV,2,2,06,33,54,227,47,35,15,065,41,,,,,,,,*6C
###2023-12-09 13:12:01.004117$GNVTG,289.95,T,,M,3.75,N,6.95,K,A*27
###2023-12-09 13:12:01.005759$GNGST,181200.10,18.000,,,,0.097,0.074,0.170*5E
###2023-12-09 13:12:01.007091$GNZDA,181200.10,09,12,2023,00,00*7A
###2023-12-09 13:12:01.007731$GNEBP,,,,,,M*13
###2023-12-09 13:12:01.172838$GNGGA,181200.30,4138.0404315,N,07032.3058265,W,1,24,0.7,12.865,M,-29.744,M,0.0,*5F
###2023-12-09 13:12:01.372943$GNGGA,181200.50,4138.0404902,N,07032.3060864,W,1,24,0.7,12.862,M,-29.744,M,0.0,*52
###2023-12-09 13:12:01.578152$GNGGA,181200.70,4138.0405537,N,07032.3063482,W,1,24,0.7,12.870,M,-29.744,M,0.0,*5F
###2023-12-09 13:12:01.773882$GNGGA,181200.90,4138.0406101,N,07032.3066150,W,1,24,0.7,12.878,M,-29.744,M,0.0,*54
###2023-12-09 13:12:01.976898$GNRMC,181201.10,A,4138.0406521,N,07032.3068892,W,3.73,280.58,091223,,,A*51
###2023-12-09 13:12:01.979764$GNGGA,181201.10,4138.0406521,N,07032.3068892,W,1,24,0.7,12.876,M,-29.744,M,0.0,*5C
###2023-12-09 13:12:01.981557$GPGSA,A,3,03,04,16,26,28,29,31,,,,,,1.2,0.7,1.0*30
###2023-12-09 13:12:01.983281$GLGSA,A,3,65,71,72,73,74,75,,,,,,,1.2,0.7,1.0*2E
###2023-12-09 13:12:01.984864$GAGSA,A,3,04,19,21,27,,,,,,,,,1.2,0.7,1.0*2C
###2023-12-09 13:12:01.986585$GBGSA,A,3,14,24,25,26,33,35,,,,,,,1.2,0.7,1.0*23
###2023-12-09 13:12:01.988913$GPGSV,2,1,07,03,33,256,40,04,37,311,42,16,55,215,45,26,85,210,48*78
###2023-12-09 13:12:01.990969$GPGSV,2,2,07,28,46,075,45,29,24,056,41,31,66,048,48,,,,*4C
###2023-12-09 13:12:01.993304$GLGSV,2,1,06,65,28,326,40,71,35,174,45,72,72,250,45,73,31,045,45*69
###2023-12-09 13:12:01.995063$GLGSV,2,2,06,74,67,351,42,75,36,258,43,,,,,,,,*6F
###2023-12-09 13:12:01.997643$GAGSV,1,1,04,04,33,312,40,19,81,194,40,21,84,071,46,27,30,048,41*61
###2023-12-09 13:12:02.000007$GBGSV,2,1,06,14,39,192,45,24,70,033,49,25,44,266,44,26,23,065,42*63
###2023-12-09 13:12:02.001760$GBGSV,2,2,06,33,54,227,47,35,15,065,42,,,,,,,,*6F
###2023-12-09 13:12:02.003096$GNVTG,280.58,T,,M,3.73,N,6.91,K,A*2D
###2023-12-09 13:12:02.004742$GNGST,181201.10,18.000,,,,0.097,0.074,0.170*5F
###2023-12-09 13:12:02.006035$GNZDA,181201.10,09,12,2023,00,00*7B
###2023-12-09 13:12:02.006685$GNEBP,,,,,,M*13
###2023-12-09 13:12:02.173662$GNGGA,181201.30,4138.0406995,N,07032.3071636,W,1,24,0.7,12.875,M,-29.744,M,0.0,*56
###2023-12-09 13:12:02.372837$GNGGA,181201.50,4138.0407583,N,07032.3074400,W,1,24,0.7,12.884,M,-29.744,M,0.0,*56
