###2023-12-09 13:42:12.015657$GLGSV,2,2,05,75,45,276,49,,,,,,,,,,,,*5D
###2023-12-09 13:42:12.017995$GAGSV,1,1,04,04,42,309,45,19,69,180,42,21,74,044,46,27,20,051,40*68
###2023-12-09 13:42:12.020350$GBGSV,2,1,05,12,17,124,39,24,60,049,47,25,53,279,49,33,43,215,48*66
###2023-12-09 13:42:12.021806$GBGSV,2,2,05,35,16,054,42,,,,,,,,,,,,*58
###2023-12-09 13:42:12.023136$GNVTG,278.70,T,,M,1.11,N,2.05,K,A*2F
###2023-12-09 13:42:12.024750$GNGST,184211.10,5.900,,,,0.130,0.089,0.210*65
###2023-12-09 13:42:12.026039$GNZDA,184211.10,09,12,2023,00,00*7F
###2023-12-09 13:42:12.026697$GNEBP,,,,,,M*13
###2023-12-09 13:42:12.196897$GNGGA,184211.30,4138.0395803,N,07032.4265076,W,1,22,0.9,13.456,M,-29.745,M,0.0,*56
###2023-12-09 13:42:12.398474$GNGGA,184211.50,4138.0395842,N,07032.4264748,W,1,23,0.7,13.473,M,-29.745,M,0.0,*56
###2023-12-09 13:42:12.594474$GNGGA,184211.70,4138.0395901,N,07032.4264535,W,1,23,0.7,13.452,M,-29.745,M,0.0,*59
###2023-12-09 13:42:12.797194$GNGGA,184211.90,4138.0395978,N,07032.4264964,W,1,23,0.7,13.449,M,-29.745,M,0.0,*5B
###2023-12-09 13:42:12.999431$GNRMC,184212.10,A,4138.0396105,N,07032.4265612,W,0.68,287.37,091223,,,A*53
###2023-12-09 13:42:13.002281$GNGGA,184212.10,4138.0396105,N,07032.4265612,W,1,22,0.9,13.442,M,-29.745,M,0.0,*5A
###2023-12-09 13:42:13.004143$GPGSA,A,3,03,04,09,16,26,28,29,31,,,,,1.4,0.9,1.0*31
###2023-12-09 13:42:13.005785$GLGSA,A,3,65,72,73,74,75,,,,,,,,1.4,0.9,1.0*20
###2023-12-09 13:42:13.007371$GAGSA,A,3,04,19,21,27,,,,,,,,,1.4,0.9,1.0*24
###2023-12-09 13:42:13.008950$GBGSA,A,3,24,25,33,35,,,,,,,,,1.4,0.9,1.0*2A
###2023-12-09 13:42:13.011271$GPGSV,2,1,08,03,24,243,37,04,49,306,46,09,15,317,39,16,70,226,47*7F
###2023-12-09 13:42:13.013587$GPGSV,2,2,08,26,80,041,48,28,35,088,43,29,19,044,42,31,57,071,45*7D
###2023-12-09 13:42:13.015907$GLGSV,2,1,05,65,41,315,43,72,59,216,47,73,20,054,39,74,57,019,42*68
###2023-12-09 13:42:13.017360$GLGSV,2,2,05,75,45,276,47,,,,,,,,,,,,*53
###2023-12-09 13:42:13.019689$GAGSV,1,1,04,04,42,309,45,19,69,180,43,21,74,044,45,27,20,051,39*64
###2023-12-09 13:42:13.022015$GBGSV,1,1,04,24,60,049,46,25,53,279,48,33,43,215,46,35,16,054,40*66
###2023-12-09 13:42:13.023352$GNVTG,287.37,T,,M,0.68,N,1.26,K,A*21
###2023-12-09 13:42:13.024960$GNGST,184212.10,5.400,,,,0.130,0.089,0.210*6B
###2023-12-09 13:42:13.026250$GNZDA,184212.10,09,12,2023,00,00*7C
###2023-12-09 13:42:13.026897$GNEBP,,,,,,M*13
###2023-12-09 13:42:13.195749$GNGGA,184212.30,4138.0396218,N,07032.4265735,W,1,22,0.9,13.467,M,-29.745,M,0.0,*54
###2023-12-09 13:42:13.396103$GNGGA,184212.50,4138.0396248,N,07032.4265487,W,1,21,0.8,13.501,M,-29.745,M,0.0,*5E
###2023-12-09 13:42:13.597058$GNGGA,184212.70,4138.0396341,N,07032.4265369,W,1,21,0.8,13.480,M,-29.745,M,0.0,*5B
###2023-12-09 13:42:13.794966$GNGGA,184212.90,4138.0396413,N,07032.4265666,W,1,21,0.8,13.466,M,-29.745,M,0.0,*57
###2023-12-09 13:42:13.999252$GNRMC,184213.10,A,4138.0396507,N,07032.4266278,W,0.86,287.37,091223,,,A*5F
###2023-12-09 13:42:14.002309$GNGGA,184213.10,4138.0396507,N,07032.4266278,W,1,21,0.8,13.468,M,-29.745,M,0.0,*5C
###2023-12-09 13:42:14.004211$GPGSA,A,3,04,09,16,26,28,29,31,,,,,,1.4,0.8,1.1*32
###2023-12-09 13:42:14.005860$GLGSA,A,3,65,72,73,74,75,,,,,,,,1.4,0.8,1.1*20
###2023-12-09 13:42:14.007449$GAGSA,A,3,04,19,21,27,,,,,,,,,1.4,0.8,1.1*24
###2023-12-09 13:42:14.009094$GBGSA,A,3,12,24,25,33,35,,,,,,,,1.4,0.8,1.1*29
###2023-12-09 13:42:14.011428$GPGSV,2,1,07,04,49,306,46,09,15,317,40,16,70,226,47,26,80,041,47*70
###2023-12-09 13:42:14.013468$GPGSV,2,2,07,28,35,088,42,29,19,044,40,31,57,071,46,,,,*47
###2023-12-09 13:42:14.015806$GLGSV,2,1,05,65,41,315,44,72,59,216,47,73,20,054,41,74,57,019,41*63
###2023-12-09 13:42:14.017254$GLGSV,2,2,05,75,45,276,44,,,,,,,,,,,,*50
###2023-12-09 13:42:14.019581$GAGSV,1,1,04,04,42,309,46,19,69,180,42,21,74,044,47,27,20,051,39*64
###2023-12-09 13:42:14.021902$GBGSV,2,1,05,12,17,124,38,24,60,049,46,25,53,279,46,33,43,215,45*64
###2023-12-09 13:42:14.023363$GBGSV,2,2,05,35,16,054,42,,,,,,,,,,,,*58
###2023-12-09 13:42:14.024683$GNVTG,287.37,T,,M,0.86,N,1.58,K,A*28
###2023-12-09 13:42:14.026292$GNGST,184213.10,5.300,,,,0.130,0.089,0.210*6D
###2023-12-09 13:42:14.027587$GNZDA,184213.10,09,12,2023,00,00*7D
###2023-12-09 13:42:14.028223$GNEBP,,,,,,M*13
###2023-12-09 13:42:14.195756$GNGGA,184213.30,4138.0396569,N,07032.4266512,W,1,20,0.9,13.483,M,-29.745,M,0.0,*58
###2023-12-09 13:42:14.396156$GNGGA,184213.50,4138.0396627,N,07032.4266231,W,1,21,0.8,13.514,M,-29.745,M,0.0,*5E
###2023-12-09 13:42:14.596810$GNGGA,184213.70,4138.0396660,N,07032.4266110,W,1,21,0.8,13.504,M,-29.745,M,0.0,*5E
###2023-12-09 13:42:14.795577$GNGGA,184213.90,4138.0396713,N,07032.4266444,W,1,21,0.8,13.495,M,-29.745,M,0.0,*58
###2023-12-09 13:42:14.997148$GNRMC,184214.10,A,4138.0396808,N,07032.4266955,W,0.49,287.37,091223,,,A*5D
###2023-12-09 13:42:15.000018$GNGGA,184214.10,4138.0396808,N,07032.4266955,W,1,21,0.8,13.502,M,-29.745,M,0.0,*50
###2023-12-09 13:42:15.001802$GPGSA,A,3,04,09,16,26,28,29,31,,,,,,1.4,0.8,1.1*32
###2023-12-09 13:42:15.003447$GLGSA,A,3,65,72,73,74,75,,,,,,,,1.4,0.8,1.1*20
###2023-12-09 13:42:15.005021$GAGSA,A,3,04,19,21,27,,,,,,,,,1.4,0.8,1.1*24
###2023-12-09 13:42:15.006666$GBGSA,A,3,12,24,25,33,35,,,,,,,,1.4,0.8,1.1*29
###2023-12-09 13:42:15.008979$GPGSV,2,1,07,04,49,306,46,09,15,317,37,16,70,226,47,26,80,041,49*7E
###2023-12-09 13:42:15.011025$GPGSV,2,2,07,28,35,088,44,29,19,044,43,31,57,071,47,,,,*43
###2023-12-09 13:42:15.013349$GLGSV,2,1,05,65,41,315,44,72,59,216,46,73,20,054,39,74,57,019,40*6C
###2023-12-09 13:42:15.014810$GLGSV,2,2,05,75,45,276,43,,,,,,,,,,,,*57
###2023-12-09 13:42:15.017120$GAGSV,1,1,04,04,42,309,45,19,69,180,43,21,74,044,46,27,20,051,39*67
###2023-12-09 13:42:15.019450$GBGSV,2,1,05,12,17,124,40,24,60,049,48,25,53,279,46,33,43,215,45*65
###2023-12-09 13:42:15.020898$GBGSV,2,2,05,35,16,054,44,,,,,,,,,,,,*5E
###2023-12-09 13:42:15.022213$GNVTG,287.37,T,,M,0.49,N,0.90,K,A*2E
###2023-12-09 13:42:15.023834$GNGST,184214.10,5.500,,,,0.130,0.089,0.210*6C
###2023-12-09 13:42:15.025115$GNZDA,184214.10,09,12,2023,00,00*7A
###2023-12-09 13:42:15.025749$GNEBP,,,,,,M*13
###2023-12-09 13:42:15.199547$GNGGA,184214.30,4138.0396786,N,07032.4267032,W,1,22,0.7,13.532,M,-29.745,M,0.0,*5D
###2023-12-09 13:42:15.394825$GNGGA,184214.50,4138.0396669,N,07032.4267152,W,1,22,0.7,13.532,M,-29.745,M,0.0,*5C
###2023-12-09 13:42:15.594493$GNGGA,184214.70,4138.0396494,N,07032.4267605,W,1,21,0.7,13.516,M,-29.745,M,0.0,*5E
###2023-12-09 13:42:15.798937$GNGGA,184214.90,4138.0396346,N,07032.4268207,W,1,21,0.7,13.535,M,-29.745,M,0.0,*50
###2023-12-09 13:42:15.998071$GNRMC,184215.10,A,4138.0396124,N,07032.4268679,W,0.64,287.37,091223,,,A*5B
###2023-12-09 13:42:16.000956$GNGGA,184215.10,4138.0396124,N,07032.4268679,W,1,20,0.8,13.534,M,-29.745,M,0.0,*5D
###2023-12-09 13:42:16.002705$GPGSA,A,3,04,16,26,28,29,31,,,,,,,1.4,0.8,1.1*3B
###2023-12-09 13:42:16.004362$GLGSA,A,3,65,72,73,74,75,,,,,,,,1.4,0.8,1.1*20
###2023-12-09 13:42:16.005946$GAGSA,A,3,04,19,21,27,,,,,,,,,1.4,0.8,1.1*24
###2023-12-09 13:42:16.007606$GBGSA,A,3,12,24,25,33,35,,,,,,,,1.4,0.8,1.1*29
###2023-12-09 13:42:16.009929$GPGSV,2,1,06,04,49,306,42,16,70,226,46,26,80,041,47,28,35,088,43*73
###2023-12-09 13:42:16.011683$GPGSV,2,2,06,29,19,044,41,31,57,071,47,,,,,,,,*7C
###2023-12-09 13:42:16.014012$GLGSV,2,1,05,65,41,315,40,72,59,216,42,73,20,054,40,74,57,019,43*61
###2023-12-09 13:42:16.015472$GLGSV,2,2,05,75,45,276,36,,,,,,,,,,,,*55
###2023-12-09 13:42:16.017784$GAGSV,1,1,04,04,42,309,40,19,69,180,41,21,74,044,45,27,20,051,38*62
###2023-12-09 13:42:16.020112$GBGSV,2,1,05,12,17,124,42,24,60,049,47,25,53,279,38,33,43,215,45*61
###2023-12-09 13:42:16.021556$GBGSV,2,2,05,35,16,054,45,,,,,,,,,,,,*5F
###2023-12-09 13:42:16.022889$GNVTG,287.37,T,,M,0.64,N,1.19,K,A*21
###2023-12-09 13:42:16.024498$GNGST,184215.10,5.700,,,,0.130,0.089,0.210*6F
###2023-12-09 13:42:16.025783$GNZDA,184215.10,09,12,2023,00,00*7B
###2023-12-09 13:42:16.026422$GNEBP,,,,,,M*13
###2023-12-09 13:42:16.196292$GNGGA,184215.30,4138.0395796,N,07032.4268880,W,1,20,0.8,13.538,M,-29.745,M,0.0,*57
###2023-12-09 13:42:16.396231$GNGGA,184215.50,4138.0395504,N,07032.4269119,W,1,21,0.7,13.528,M,-29.745,M,0.0,*5F
###2023-12-09 13:42:16.593432$GNGGA,184215.70,4138.0395240,N,07032.4269452,W,1,20,0.7,13.542,M,-29.745,M,0.0,*5D
###2023-12-09 13:42:16.794056$GNGGA,184215.90,4138.0395016,N,07032.4269731,W,1,19,0.8,13.559,M,-29.745,M,0.0,*5B
###2023-12-09 13:42:16.997860$GNRMC,184216.10,A,4138.0394784,N,07032.4269786,W,0.25,287.37,091223,,,A*53
###2023-12-09 13:42:17.000745$GNGGA,184216.10,4138.0394784,N,07032.4269786,W,1,21,0.7,13.560,M,-29.745,M,0.0,*5F
###2023-12-09 13:42:17.002535$GPGSA,A,3,04,09,16,26,28,29,31,,,,,,1.1,0.7,0.9*31
###2023-12-09 13:42:17.004197$GLGSA,A,3,65,72,73,74,75,,,,,,,,1.1,0.7,0.9*23
###2023-12-09 13:42:17.005711$GAGSA,A,3,19,21,27,,,,,,,,,,1.1,0.7,0.9*23
