###2023-12-09 13:15:32.000471$GLGSV,2,2,06,74,66,355,42,75,37,260,46,,,,,,,,*65
###2023-12-09 13:15:32.002832$GAGSV,1,1,04,04,33,312,40,19,80,192,41,21,84,066,46,27,29,048,42*6A
###2023-12-09 13:15:32.005163$GBGSV,2,1,06,14,37,191,43,24,69,035,48,25,45,267,47,26,22,066,42*66
###2023-12-09 13:15:32.006926$GBGSV,2,2,06,33,53,225,47,35,16,064,41,,,,,,,,*6B
###2023-12-09 13:15:32.008250$GNVTG,327.56,T,,M,3.60,N,6.66,K,A*25
###2023-12-09 13:15:32.009890$GNGST,181531.10,18.000,,,,0.098,0.071,0.170*51
###2023-12-09 13:15:32.011200$GNZDA,181531.10,09,12,2023,00,00*7F
###2023-12-09 13:15:32.011844$GNEBP,,,,,,M*13
###2023-12-09 13:15:32.177367$GNGGA,181531.30,4138.0235640,N,07032.2744403,W,1,24,0.7,12.926,M,-29.744,M,0.0,*50
###2023-12-09 13:15:32.377719$GNGGA,181531.50,4138.0237297,N,07032.2745900,W,1,24,0.7,12.925,M,-29.744,M,0.0,*56
###2023-12-09 13:15:32.579470$GNGGA,181531.70,4138.0238929,N,07032.2747504,W,1,24,0.7,12.928,M,-29.744,M,0.0,*52
###2023-12-09 13:15:32.779767$GNGGA,181531.90,4138.0240500,N,07032.2749196,W,1,24,0.7,12.922,M,-29.744,M,0.0,*5F
###2023-12-09 13:15:32.988852$GNRMC,181532.10,A,4138.0241988,N,07032.2750988,W,3.58,316.93,091223,,,A*5B
###2023-12-09 13:15:32.991727$GNGGA,181532.10,4138.0241988,N,07032.2750988,W,1,24,0.7,12.918,M,-29.744,M,0.0,*5F
###2023-12-09 13:15:32.993519$GPGSA,A,3,03,04,16,26,28,29,31,,,,,,1.2,0.7,1.0*30
###2023-12-09 13:15:32.995243$GLGSA,A,3,65,71,72,73,74,75,,,,,,,1.2,0.7,1.0*2E
###2023-12-09 13:15:32.996823$GAGSA,A,3,04,19,21,27,,,,,,,,,1.2,0.7,1.0*2C
###2023-12-09 13:15:32.998532$GBGSA,A,3,14,24,25,26,33,35,,,,,,,1.2,0.7,1.0*23
###2023-12-09 13:15:33.000871$GPGSV,2,1,07,03,32,254,42,04,38,311,42,16,57,216,46,26,87,208,48*7F
###2023-12-09 13:15:33.002925$GPGSV,2,2,07,28,44,077,46,29,24,054,42,31,65,052,47,,,,*49
###2023-12-09 13:15:33.005259$GLGSV,2,1,06,65,30,325,41,71,33,174,44,72,71,243,46,73,30,046,45*65
###2023-12-09 13:15:33.007019$GLGSV,2,2,06,74,66,355,42,75,37,260,45,,,,,,,,*66
###2023-12-09 13:15:33.009344$GAGSV,1,1,04,04,33,312,42,19,80,192,41,21,84,066,46,27,29,048,42*68
###2023-12-09 13:15:33.011680$GBGSV,2,1,06,14,37,191,43,24,69,035,48,25,45,267,47,26,22,066,42*66
###2023-12-09 13:15:33.013428$GBGSV,2,2,06,33,53,225,48,35,16,064,41,,,,,,,,*64
###2023-12-09 13:15:33.014759$GNVTG,316.93,T,,M,3.58,N,6.62,K,A*21
###2023-12-09 13:15:33.016407$GNGST,181532.10,18.000,,,,0.098,0.071,0.170*52
###2023-12-09 13:15:33.017691$GNZDA,181532.10,09,12,2023,00,00*7C
###2023-12-09 13:15:33.018330$GNEBP,,,,,,M*13
###2023-12-09 13:15:33.182548$GNGGA,181532.30,4138.0243470,N,07032.2752784,W,1,24,0.7,12.919,M,-29.744,M,0.0,*54
###2023-12-09 13:15:33.380160$GNGGA,181532.50,4138.0244929,N,07032.2754619,W,1,24,0.7,12.924,M,-29.744,M,0.0,*59
###2023-12-09 13:15:33.580523$GNGGA,181532.70,4138.0246278,N,07032.2756557,W,1,24,0.7,12.927,M,-29.744,M,0.0,*5E
###2023-12-09 13:15:33.779542$GNGGA,181532.90,4138.0247550,N,07032.2758590,W,1,24,0.7,12.937,M,-29.744,M,0.0,*58
###2023-12-09 13:15:33.981778$GNRMC,181533.10,A,4138.0248889,N,07032.2760560,W,3.60,314.41,091223,,,A*5C
###2023-12-09 13:15:33.984657$GNGGA,181533.10,4138.0248889,N,07032.2760560,W,1,24,0.7,12.930,M,-29.744,M,0.0,*54
###2023-12-09 13:15:33.986450$GPGSA,A,3,03,04,16,26,28,29,31,,,,,,1.2,0.7,1.0*30
###2023-12-09 13:15:33.988185$GLGSA,A,3,65,71,72,73,74,75,,,,,,,1.2,0.7,1.0*2E
###2023-12-09 13:15:33.989770$GAGSA,A,3,04,19,21,27,,,,,,,,,1.2,0.7,1.0*2C
###2023-12-09 13:15:33.991490$GBGSA,A,3,14,24,25,26,33,35,,,,,,,1.2,0.7,1.0*23
###2023-12-09 13:15:33.993815$GPGSV,2,1,07,03,32,254,43,04,38,311,42,16,57,216,46,26,87,208,48*7E
###2023-12-09 13:15:33.995860$GPGSV,2,2,07,28,44,077,45,29,24,054,43,31,65,052,47,,,,*4B
###2023-12-09 13:15:33.998176$GLGSV,2,1,06,65,30,325,40,71,33,174,44,72,71,243,45,73,30,046,45*67
###2023-12-09 13:15:33.999934$GLGSV,2,2,06,74,66,355,42,75,37,260,45,,,,,,,,*66
###2023-12-09 13:15:34.002266$GAGSV,1,1,04,04,33,312,42,19,80,192,41,21,84,066,46,27,29,048,43*69
###2023-12-09 13:15:34.004611$GBGSV,2,1,06,14,37,191,43,24,69,035,49,25,45,267,47,26,22,066,43*66
###2023-12-09 13:15:34.006362$GBGSV,2,2,06,33,53,225,48,35,16,064,42,,,,,,,,*67
###2023-12-09 13:15:34.007694$GNVTG,314.41,T,,M,3.60,N,6.66,K,A*23
###2023-12-09 13:15:34.009344$GNGST,181533.10,18.000,,,,0.098,0.071,0.170*53
###2023-12-09 13:15:34.010645$GNZDA,181533.10,09,12,2023,00,00*7D
###2023-12-09 13:15:34.011285$GNEBP,,,,,,M*13
###2023-12-09 13:15:34.177924$GNGGA,181533.30,4138.0250299,N,07032.2762359,W,1,24,0.7,12.929,M,-29.744,M,0.0,*52
###2023-12-09 13:15:34.379100$GNGGA,181533.50,4138.0251718,N,07032.2764165,W,1,24,0.7,12.952,M,-29.744,M,0.0,*5E
###2023-12-09 13:15:34.580104$GNGGA,181533.70,4138.0253140,N,07032.2766022,W,1,24,0.7,12.941,M,-29.744,M,0.0,*57
###2023-12-09 13:15:34.778255$GNGGA,181533.90,4138.0254610,N,07032.2767615,W,1,24,0.7,12.952,M,-29.744,M,0.0,*5D
###2023-12-09 13:15:34.982614$GNRMC,181534.10,A,4138.0256165,N,07032.2769170,W,3.56,323.56,091223,,,A*54
###2023-12-09 13:15:34.985478$GNGGA,181534.10,4138.0256165,N,07032.2769170,W,1,24,0.7,12.967,M,-29.744,M,0.0,*59
###2023-12-09 13:15:34.987280$GPGSA,A,3,03,04,16,26,28,29,31,,,,,,1.2,0.7,1.0*30
###2023-12-09 13:15:34.988999$GLGSA,A,3,65,71,72,73,74,75,,,,,,,1.2,0.7,1.0*2E
###2023-12-09 13:15:34.990585$GAGSA,A,3,04,19,21,27,,,,,,,,,1.2,0.7,1.0*2C
###2023-12-09 13:15:34.992308$GBGSA,A,3,14,24,25,26,33,35,,,,,,,1.2,0.7,1.0*23
###2023-12-09 13:15:34.994651$GPGSV,2,1,07,03,32,254,43,04,38,311,41,16,57,216,46,26,87,208,48*7D
###2023-12-09 13:15:34.996694$GPGSV,2,2,07,28,44,077,46,29,24,054,43,31,65,052,47,,,,*48
###2023-12-09 13:15:34.999034$GLGSV,2,1,06,65,30,325,41,71,33,174,44,72,71,243,45,73,30,046,44*67
###2023-12-09 13:15:35.000783$GLGSV,2,2,06,74,66,355,42,75,37,260,45,,,,,,,,*66
###2023-12-09 13:15:35.003124$GAGSV,1,1,04,04,33,312,41,19,80,192,40,21,84,066,46,27,29,048,42*6A
###2023-12-09 13:15:35.005459$GBGSV,2,1,06,14,37,191,42,24,69,035,48,25,45,267,46,26,22,066,44*60
###2023-12-09 13:15:35.007215$GBGSV,2,2,06,33,53,225,46,35,16,064,43,,,,,,,,*68
###2023-12-09 13:15:35.008542$GNVTG,323.56,T,,M,3.56,N,6.59,K,A*28
###2023-12-09 13:15:35.010185$GNGST,181534.10,18.000,,,,0.098,0.071,0.170*54
###2023-12-09 13:15:35.011484$GNZDA,181534.10,09,12,2023,00,00*7A
###2023-12-09 13:15:35.012122$GNEBP,,,,,,M*13
###2023-12-09 13:15:35.178341$GNGGA,181534.30,4138.0257768,N,07032.2770610,W,1,24,0.7,12.960,M,-29.744,M,0.0,*5F
###2023-12-09 13:15:35.377384$GNGGA,181534.50,4138.0259374,N,07032.2771928,W,1,24,0.7,12.975,M,-29.744,M,0.0,*5F
###2023-12-09 13:15:35.579524$GNGGA,181534.70,4138.0261032,N,07032.2773249,W,1,24,0.7,12.989,M,-29.744,M,0.0,*5A
###2023-12-09 13:15:35.778292$GNGGA,181534.90,4138.0262752,N,07032.2774387,W,1,24,0.7,12.987,M,-29.744,M,0.0,*5C
###2023-12-09 13:15:35.982475$GNRMC,181535.10,A,4138.0264503,N,07032.2775328,W,3.40,339.27,091223,,,A*58
###2023-12-09 13:15:35.985970$GNGGA,181535.10,4138.0264503,N,07032.2775328,W,1,24,0.7,12.996,M,-29.744,M,0.0,*51
###2023-12-09 13:15:35.988162$GPGSA,A,3,03,04,16,26,28,29,31,,,,,,1.2,0.7,1.0*30
###2023-12-09 13:15:35.990226$GLGSA,A,3,65,71,72,73,74,75,,,,,,,1.2,0.7,1.0*2E
###2023-12-09 13:15:35.992162$GAGSA,A,3,04,19,21,27,,,,,,,,,1.2,0.7,1.0*2C
###2023-12-09 13:15:35.994256$GBGSA,A,3,14,24,25,26,33,35,,,,,,,1.2,0.7,1.0*23
###2023-12-09 13:15:35.997067$GPGSV,2,1,07,03,32,254,43,04,38,311,44,16,57,216,47,26,87,208,48*79
###2023-12-09 13:15:35.999532$GPGSV,2,2,07,28,44,077,45,29,24,054,42,31,65,052,47,,,,*4A
###2023-12-09 13:15:36.002320$GLGSV,2,1,06,65,30,325,39,71,33,174,46,72,71,243,46,73,30,046,43*6E
###2023-12-09 13:15:36.004437$GLGSV,2,2,06,74,66,355,41,75,37,260,47,,,,,,,,*67
###2023-12-09 13:15:36.007239$GAGSV,1,1,04,04,33,312,41,19,80,192,40,21,84,066,46,27,29,048,41*69
###2023-12-09 13:15:36.010024$GBGSV,2,1,06,14,37,191,43,24,69,035,48,25,45,267,46,26,22,066,44*61
###2023-12-09 13:15:36.012127$GBGSV,2,2,06,33,53,225,48,35,16,064,43,,,,,,,,*66
###2023-12-09 13:15:36.013718$GNVTG,339.27,T,,M,3.40,N,6.30,K,A*2D
###2023-12-09 13:15:36.015741$GNGST,181535.10,18.000,,,,0.098,0.071,0.170*55
###2023-12-09 13:15:36.017301$GNZDA,181535.10,09,12,2023,00,00*7B
###2023-12-09 13:15:36.018069$GNEBP,,,,,,M*13
###2023-12-09 13:15:36.179119$GNGGA,181535.30,4138.0266284,N,07032.2776157,W,1,24,0.7,13.011,M,-29.744,M,0.0,*57
###2023-12-09 13:15:36.380008$GNGGA,181535.50,4138.0268106,N,07032.2776793,W,1,24,0.7,13.007,M,-29.744,M,0.0,*5F
###2023-12-09 13:15:36.579307$GNGGA,181535.70,4138.0269923,N,07032.2777270,W,1,24,0.7,13.010,M,-29.744,M,0.0,*5C
###2023-12-09 13:15:36.778368$GNGGA,181535.90,4138.0271778,N,07032.2777585,W,1,24,0.7,13.027,M,-29.744,M,0.0,*52
###2023-12-09 13:15:36.983028$GNRMC,181536.10,A,4138.0273708,N,07032.2777837,W,3.52,353.53,091223,,,A*5F
###2023-12-09 13:15:36.986534$GNGGA,181536.10,4138.0273708,N,07032.2777837,W,1,24,0.7,13.039,M,-29.744,M,0.0,*57
###2023-12-09 13:15:36.988770$GPGSA,A,3,03,04,16,26,28,29,31,,,,,,1.2,0.7,1.0*30
###2023-12-09 13:15:36.990858$GLGSA,A,3,65,71,72,73,74,75,,,,,,,1.2,0.7,1.0*2E
