###2023-12-09 12:34:05.976931$GLGSV,2,2,05,75,22,241,42,,,,,,,,,,,,*53
###2023-12-09 12:34:05.979299$GAGSV,1,1,04,04,20,311,41,19,81,304,41,21,77,177,46,27,42,050,43*6E
###2023-12-09 12:34:05.981636$GBGSV,2,1,05,14,55,198,46,24,81,343,50,25,32,252,46,26,35,057,44*65
###2023-12-09 12:34:05.983109$GBGSV,2,2,05,33,63,255,48,,,,,,,,,,,,*55
###2023-12-09 12:34:05.984402$GNVTG,84.40,T,,M,0.56,N,1.04,K,A*1D
###2023-12-09 12:34:05.986041$GNGST,173405.10,19.000,,,,0.084,0.075,0.180*5D
###2023-12-09 12:34:05.987347$GNZDA,173405.10,09,12,2023,00,00*74
###2023-12-09 12:34:05.987987$GNEBP,,,,,,M*13
###2023-12-09 12:34:06.137746$GNGGA,173405.30,4138.0457827,N,07032.4247583,W,1,22,0.7,12.442,M,-29.745,M,0.0,*57
###2023-12-09 12:34:06.331983$GNGGA,173405.50,4138.0457892,N,07032.4247162,W,1,22,0.7,12.442,M,-29.745,M,0.0,*54
###2023-12-09 12:34:06.533187$GNGGA,173405.70,4138.0457991,N,07032.4246766,W,1,22,0.7,12.448,M,-29.745,M,0.0,*5D
###2023-12-09 12:34:06.731739$GNGGA,173405.90,4138.0458081,N,07032.4246367,W,1,22,0.7,12.448,M,-29.745,M,0.0,*51
###2023-12-09 12:34:06.934638$GNRMC,173406.10,A,4138.0458163,N,07032.4245983,W,0.56,84.40,091223,,,A*64
###2023-12-09 12:34:06.937516$GNGGA,173406.10,4138.0458163,N,07032.4245983,W,1,22,0.7,12.444,M,-29.745,M,0.0,*58
###2023-12-09 12:34:06.939384$GPGSA,A,3,03,04,16,26,28,29,31,32,,,,,1.2,0.7,1.0*31
###2023-12-09 12:34:06.941036$GLGSA,A,3,71,72,73,74,75,,,,,,,,1.2,0.7,1.0*2D
###2023-12-09 12:34:06.942622$GAGSA,A,3,04,19,21,27,,,,,,,,,1.2,0.7,1.0*2C
###2023-12-09 12:34:06.944261$GBGSA,A,3,14,24,25,26,33,,,,,,,,1.2,0.7,1.0*25
###2023-12-09 12:34:06.946595$GPGSV,2,1,08,03,39,277,43,04,22,311,42,16,36,207,45,26,65,206,49*77
###2023-12-09 12:34:06.948950$GPGSV,2,2,08,28,58,055,45,29,25,075,39,31,73,358,47,32,31,134,44*7D
###2023-12-09 12:34:06.951297$GLGSV,2,1,05,71,57,169,49,72,65,310,46,73,48,033,46,74,71,290,43*61
###2023-12-09 12:34:06.952752$GLGSV,2,2,05,75,22,241,41,,,,,,,,,,,,*50
###2023-12-09 12:34:06.955085$GAGSV,1,1,04,04,20,311,42,19,81,304,41,21,77,177,46,27,42,050,44*6A
###2023-12-09 12:34:06.957405$GBGSV,2,1,05,14,55,198,46,24,81,343,49,25,32,252,46,26,35,057,45*6C
###2023-12-09 12:34:06.958880$GBGSV,2,2,05,33,63,255,47,,,,,,,,,,,,*5A
###2023-12-09 12:34:06.960167$GNVTG,84.40,T,,M,0.56,N,1.04,K,A*1D
###2023-12-09 12:34:06.961808$GNGST,173406.10,19.000,,,,0.084,0.075,0.180*5E
###2023-12-09 12:34:06.963119$GNZDA,173406.10,09,12,2023,00,00*77
###2023-12-09 12:34:06.963760$GNEBP,,,,,,M*13
###2023-12-09 12:34:07.134229$GNGGA,173406.30,4138.0458216,N,07032.4245604,W,1,22,0.7,12.454,M,-29.745,M,0.0,*5A
###2023-12-09 12:34:07.334651$GNGGA,173406.50,4138.0458321,N,07032.4245212,W,1,22,0.7,12.465,M,-29.745,M,0.0,*58
###2023-12-09 12:34:07.539019$GNGGA,173406.70,4138.0458416,N,07032.4244846,W,1,22,0.7,12.474,M,-29.745,M,0.0,*53
###2023-12-09 12:34:07.732671$GNGGA,173406.90,4138.0458482,N,07032.4244450,W,1,22,0.7,12.479,M,-29.745,M,0.0,*56
###2023-12-09 12:34:07.934264$GNRMC,173407.10,A,4138.0458553,N,07032.4244036,W,0.52,84.40,091223,,,A*60
###2023-12-09 12:34:07.937727$GNGGA,173407.10,4138.0458553,N,07032.4244036,W,1,22,0.7,12.483,M,-29.745,M,0.0,*53
###2023-12-09 12:34:07.939972$GPGSA,A,3,03,04,16,26,28,29,31,32,,,,,1.2,0.7,1.0*31
###2023-12-09 12:34:07.941948$GLGSA,A,3,71,72,73,74,75,,,,,,,,1.2,0.7,1.0*2D
###2023-12-09 12:34:07.943862$GAGSA,A,3,04,19,21,27,,,,,,,,,1.2,0.7,1.0*2C
###2023-12-09 12:34:07.945830$GBGSA,A,3,14,24,25,26,33,,,,,,,,1.2,0.7,1.0*25
###2023-12-09 12:34:07.948661$GPGSV,2,1,08,03,39,277,44,04,22,311,41,16,36,207,45,26,65,206,48*72
###2023-12-09 12:34:07.951515$GPGSV,2,2,08,28,58,055,45,29,25,075,40,31,73,358,47,32,31,134,42*75
###2023-12-09 12:34:07.954339$GLGSV,2,1,05,71,57,169,48,72,65,310,47,73,48,033,46,74,71,290,43*61
###2023-12-09 12:34:07.956110$GLGSV,2,2,05,75,22,241,39,,,,,,,,,,,,*5F
###2023-12-09 12:34:07.958965$GAGSV,1,1,04,04,20,311,41,19,81,304,41,21,77,177,47,27,42,050,44*68
###2023-12-09 12:34:07.961787$GBGSV,2,1,05,14,55,198,45,24,81,343,48,25,32,252,46,26,35,057,44*6F
###2023-12-09 12:34:07.963558$GBGSV,2,2,05,33,63,255,47,,,,,,,,,,,,*5A
###2023-12-09 12:34:07.965114$GNVTG,84.40,T,,M,0.52,N,0.97,K,A*12
###2023-12-09 12:34:07.967112$GNGST,173407.10,19.000,,,,0.083,0.075,0.180*58
###2023-12-09 12:34:07.968667$GNZDA,173407.10,09,12,2023,00,00*76
###2023-12-09 12:34:07.969441$GNEBP,,,,,,M*13
###2023-12-09 12:34:08.132070$GNGGA,173407.30,4138.0458636,N,07032.4243687,W,1,22,0.7,12.490,M,-29.745,M,0.0,*58
###2023-12-09 12:34:08.330812$GNGGA,173407.50,4138.0458743,N,07032.4243344,W,1,22,0.7,12.493,M,-29.745,M,0.0,*54
###2023-12-09 12:34:08.533787$GNGGA,173407.70,4138.0458837,N,07032.4242984,W,1,22,0.7,12.501,M,-29.745,M,0.0,*57
###2023-12-09 12:34:08.738131$GNGGA,173407.90,4138.0458894,N,07032.4242609,W,1,22,0.7,12.509,M,-29.745,M,0.0,*52
###2023-12-09 12:34:08.941374$GNRMC,173408.10,A,4138.0458955,N,07032.4242282,W,0.47,84.40,091223,,,A*6A
###2023-12-09 12:34:08.944240$GNGGA,173408.10,4138.0458955,N,07032.4242282,W,1,22,0.7,12.515,M,-29.745,M,0.0,*53
###2023-12-09 12:34:08.946087$GPGSA,A,3,03,04,16,26,28,29,31,32,,,,,1.2,0.7,1.0*31
###2023-12-09 12:34:08.947782$GLGSA,A,3,71,72,73,74,75,,,,,,,,1.2,0.7,1.0*2D
###2023-12-09 12:34:08.949379$GAGSA,A,3,04,19,21,27,,,,,,,,,1.2,0.7,1.0*2C
###2023-12-09 12:34:08.951072$GBGSA,A,3,14,24,25,26,33,,,,,,,,1.2,0.7,1.0*25
###2023-12-09 12:34:08.953399$GPGSV,2,1,08,03,39,277,44,04,22,311,41,16,36,207,46,26,65,206,48*71
###2023-12-09 12:34:08.955754$GPGSV,2,2,08,28,58,055,44,29,25,075,40,31,73,358,47,32,31,134,43*75
###2023-12-09 12:34:08.958094$GLGSV,2,1,05,71,57,169,48,72,65,310,47,73,48,033,46,74,71,290,43*61
###2023-12-09 12:34:08.959558$GLGSV,2,2,05,75,22,241,39,,,,,,,,,,,,*5F
###2023-12-09 12:34:08.961880$GAGSV,1,1,04,04,20,311,40,19,81,304,41,21,77,177,47,27,42,050,44*69
###2023-12-09 12:34:08.964220$GBGSV,2,1,05,14,55,198,44,24,81,343,47,25,32,252,44,26,35,057,43*64
###2023-12-09 12:34:08.965675$GBGSV,2,2,05,33,63,255,46,,,,,,,,,,,,*5B
###2023-12-09 12:34:08.966977$GNVTG,84.40,T,,M,0.47,N,0.86,K,A*16
###2023-12-09 12:34:08.968617$GNGST,173408.10,19.000,,,,0.083,0.074,0.180*56
###2023-12-09 12:34:08.969903$GNZDA,173408.10,09,12,2023,00,00*79
###2023-12-09 12:34:08.970538$GNEBP,,,,,,M*13
###2023-12-09 12:34:09.134666$GNGGA,173408.30,4138.0459047,N,07032.4241954,W,1,22,0.7,12.523,M,-29.745,M,0.0,*5C
###2023-12-09 12:34:09.331858$GNGGA,173408.50,4138.0459172,N,07032.4241607,W,1,22,0.7,12.532,M,-29.745,M,0.0,*54
###2023-12-09 12:34:09.534957$GNGGA,173408.70,4138.0459228,N,07032.4241265,W,1,22,0.7,12.537,M,-29.745,M,0.0,*5F
###2023-12-09 12:34:09.731050$GNGGA,173408.90,4138.0459256,N,07032.4240922,W,1,22,0.7,12.543,M,-29.745,M,0.0,*52
###2023-12-09 12:34:09.929767$GNRMC,173409.10,A,4138.0459344,N,07032.4240623,W,0.45,84.40,091223,,,A*6F
###2023-12-09 12:34:09.932650$GNGGA,173409.10,4138.0459344,N,07032.4240623,W,1,22,0.7,12.551,M,-29.745,M,0.0,*54
###2023-12-09 12:34:09.934496$GPGSA,A,3,03,04,16,26,28,29,31,32,,,,,1.2,0.7,1.0*31
###2023-12-09 12:34:09.936161$GLGSA,A,3,71,72,73,74,75,,,,,,,,1.2,0.7,1.0*2D
###2023-12-09 12:34:09.937748$GAGSA,A,3,04,19,21,27,,,,,,,,,1.2,0.7,1.0*2C
###2023-12-09 12:34:09.939434$GBGSA,A,3,14,24,25,26,33,,,,,,,,1.2,0.7,1.0*25
###2023-12-09 12:34:09.941759$GPGSV,2,1,08,03,39,277,44,04,22,311,41,16,36,207,46,26,65,206,48*71
###2023-12-09 12:34:09.944101$GPGSV,2,2,08,28,58,055,44,29,25,075,40,31,73,358,47,32,31,134,45*73
###2023-12-09 12:34:09.946437$GLGSV,2,1,05,71,57,169,49,72,65,310,46,73,48,033,46,74,71,290,43*61
###2023-12-09 12:34:09.947922$GLGSV,2,2,05,75,22,241,39,,,,,,,,,,,,*5F
###2023-12-09 12:34:09.950240$GAGSV,1,1,04,04,20,311,40,19,81,304,41,21,77,177,47,27,42,050,43*6E
###2023-12-09 12:34:09.952574$GBGSV,2,1,05,14,55,198,46,24,81,343,48,25,32,252,45,26,35,057,43*68
###2023-12-09 12:34:09.954022$GBGSV,2,2,05,33,63,255,48,,,,,,,,,,,,*55
###2023-12-09 12:34:09.955320$GNVTG,84.40,T,,M,0.45,N,0.83,K,A*11
###2023-12-09 12:34:09.956958$GNGST,173409.10,19.000,,,,0.083,0.075,0.180*56
###2023-12-09 12:34:09.958244$GNZDA,173409.10,09,12,2023,00,00*78
###2023-12-09 12:34:09.958894$GNEBP,,,,,,M*13
###2023-12-09 12:34:10.129392$GNGGA,173409.30,4138.0459480,N,07032.4240325,W,1,22,0.7,12.563,M,-29.745,M,0.0,*5B
###2023-12-09 12:34:10.331748$GNGGA,173409.50,4138.0459566,N,07032.4239980,W,1,22,0.7,12.571,M,-29.745,M,0.0,*5C
###2023-12-09 12:34:10.530653$GNGGA,173409.70,4138.0459564,N,07032.4239636,W,1,22,0.7,12.570,M,-29.745,M,0.0,*5F
###2023-12-09 12:34:10.730030$GNGGA,173409.90,4138.0459595,N,07032.4239343,W,1,22,0.7,12.574,M,-29.745,M,0.0,*5C
###2023-12-09 12:34:10.933453$GNRMC,173410.10,A,4138.0459764,N,07032.4239078,W,0.52,84.40,091223,,,A*61
###2023-12-09 12:34:10.936336$GNGGA,173410.10,4138.0459764,N,07032.4239078,W,1,22,0.7,12.586,M,-29.745,M,0.0,*56
###2023-12-09 12:34:10.938198$GPGSA,A,3,03,04,16,26,28,29,31,32,,,,,1.2,0.7,1.0*31
###2023-12-09 12:34:10.939864$GLGSA,A,3,71,72,73,74,75,,,,,,,,1.2,0.7,1.0*2D
