###2023-05-05 12:21:02.600336$GNGGA,162143.20,4120.8184704,N,07038.2338479,W,1,21,0.7,0.080,M,-30.477,M,0.0,*64
###2023-05-05 12:21:04.601880$GNGGA,162145.20,4120.8207448,N,07038.2339491,W,1,20,0.7,0.082,M,-30.477,M,0.0,*65
###2023-05-05 12:21:06.597366$GNGGA,162147.20,4120.8231226,N,07038.2335830,W,1,21,0.7,0.108,M,-30.477,M,0.0,*65
###2023-05-05 12:21:08.600094$GNGGA,162149.20,4120.8257957,N,07038.2332600,W,1,21,0.7,-0.085,M,-30.477,M,0.0,*45
###2023-05-05 12:21:10.601982$GNGGA,162151.20,4120.8287004,N,07038.2334185,W,1,21,0.7,0.156,M,-30.476,M,0.0,*61
###2023-05-05 12:21:12.602757$GNGGA,162153.20,4120.8316123,N,07038.2336653,W,1,21,0.7,0.202,M,-30.476,M,0.0,*62
###2023-05-05 12:21:14.605105$GNGGA,162155.20,4120.8343797,N,07038.2338555,W,1,21,0.7,0.084,M,-30.476,M,0.0,*6A
###2023-05-05 12:21:16.601650$GNGGA,162157.20,4120.8369975,N,07038.2338941,W,1,20,0.7,0.027,M,-30.476,M,0.0,*63
###2023-05-05 12:21:18.597059$GNGGA,162159.20,4120.8395331,N,07038.2337468,W,1,21,0.7,0.086,M,-30.476,M,0.0,*67
###2023-05-05 12:21:20.602740$GNGGA,162201.20,4120.8423226,N,07038.2333693,W,1,21,0.7,0.030,M,-30.476,M,0.0,*6B
###2023-05-05 12:21:22.602728$GNGGA,162203.20,4120.8455090,N,07038.2332649,W,1,21,0.7,0.212,M,-30.476,M,0.0,*63
###2023-05-05 12:21:24.603446$GNGGA,162205.20,4120.8488268,N,07038.2335435,W,1,21,0.7,0.432,M,-30.476,M,0.0,*6A
###2023-05-05 12:21:26.600531$GNGGA,162207.20,4120.8519124,N,07038.2339310,W,1,21,0.7,0.239,M,-30.476,M,0.0,*6B
###2023-05-05 12:21:28.600114$GNGGA,162209.20,4120.8548237,N,07038.2339125,W,1,21,0.7,0.233,M,-30.475,M,0.0,*6D
###2023-05-05 12:21:30.601052$GNGGA,162211.20,4120.8575517,N,07038.2338158,W,1,21,0.7,0.105,M,-30.475,M,0.0,*62
###2023-05-05 12:21:32.594170$GNGGA,162213.20,4120.8603052,N,07038.2336586,W,1,21,0.7,0.094,M,-30.475,M,0.0,*66
###2023-05-05 12:21:34.599866$GNGGA,162215.20,4120.8631172,N,07038.2334611,W,1,21,0.7,-0.081,M,-30.475,M,0.0,*44
###2023-05-05 12:21:36.602542$GNGGA,162217.20,4120.8660976,N,07038.2333599,W,1,21,0.7,-0.050,M,-30.475,M,0.0,*46
###2023-05-05 12:21:38.602276$GNGGA,162219.20,4120.8691764,N,07038.2334352,W,1,21,0.7,0.008,M,-30.475,M,0.0,*6D
###2023-05-05 12:21:40.601178$GNGGA,162221.20,4120.8722389,N,07038.2336582,W,1,21,0.7,0.227,M,-30.475,M,0.0,*6E
###2023-05-05 12:21:42.602110$GNGGA,162223.20,4120.8752617,N,07038.2336938,W,1,21,0.7,0.195,M,-30.475,M,0.0,*6E
###2023-05-05 12:21:44.594455$GNGGA,162225.20,4120.8783597,N,07038.2336551,W,1,21,0.7,0.445,M,-30.475,M,0.0,*64
###2023-05-05 12:21:46.602248$GNGGA,162227.20,4120.8816813,N,07038.2348323,W,1,21,0.7,0.808,M,-30.475,M,0.0,*6B
###2023-05-05 12:21:48.597781$GNGGA,162229.20,4120.8833706,N,07038.2386668,W,1,21,0.7,0.300,M,-30.474,M,0.0,*63
###2023-05-05 12:21:50.601987$GNGGA,162231.20,4120.8817537,N,07038.2425736,W,1,22,0.7,0.132,M,-30.475,M,0.0,*69
###2023-05-05 12:21:52.601855$GNGGA,162233.20,4120.8793264,N,07038.2453923,W,1,22,0.7,0.106,M,-30.475,M,0.0,*65
###2023-05-05 12:21:54.603444$GNGGA,162235.20,4120.8775774,N,07038.2475698,W,1,22,0.7,0.275,M,-30.475,M,0.0,*63
###2023-05-05 12:21:56.603251$GNGGA,162237.20,4120.8751314,N,07038.2481749,W,1,22,0.7,0.058,M,-30.475,M,0.0,*6E
###2023-05-05 12:21:58.599435$GNGGA,162239.20,4120.8727102,N,07038.2476629,W,1,22,0.7,-0.026,M,-30.475,M,0.0,*4F
###2023-05-05 12:22:00.602090$GNGGA,162241.20,4120.8709411,N,07038.2478099,W,1,22,0.7,0.235,M,-30.475,M,0.0,*65
###2023-05-05 12:22:02.599513$GNGGA,162243.20,4120.8692755,N,07038.2482736,W,1,22,0.7,0.564,M,-30.475,M,0.0,*63
###2023-05-05 12:22:04.601097$GNGGA,162245.20,4120.8671943,N,07038.2486750,W,1,22,0.7,0.176,M,-30.475,M,0.0,*62
###2023-05-05 12:22:06.597064$GNGGA,162247.20,4120.8652654,N,07038.2492969,W,1,22,0.7,0.257,M,-30.475,M,0.0,*69
###2023-05-05 12:22:08.602801$GNGGA,162249.20,4120.8630888,N,07038.2488498,W,1,22,0.7,0.149,M,-30.475,M,0.0,*68
###2023-05-05 12:22:10.603750$GNGGA,162251.20,4120.8610414,N,07038.2486455,W,1,22,0.7,0.154,M,-30.475,M,0.0,*69
###2023-05-05 12:22:12.603659$GNGGA,162253.20,4120.8589766,N,07038.2485154,W,1,22,0.7,0.297,M,-30.476,M,0.0,*66
###2023-05-05 12:22:14.601563$GNGGA,162255.20,4120.8568140,N,07038.2482540,W,1,22,0.7,0.113,M,-30.476,M,0.0,*64
###2023-05-05 12:22:16.603617$GNGGA,162257.20,4120.8546776,N,07038.2483054,W,1,22,0.7,0.293,M,-30.476,M,0.0,*63
###2023-05-05 12:22:18.603544$GNGGA,162259.20,4120.8524981,N,07038.2482141,W,1,22,0.7,0.374,M,-30.476,M,0.0,*63
###2023-05-05 12:22:20.600479$GNGGA,162301.20,4120.8504442,N,07038.2483435,W,1,22,0.7,0.149,M,-30.476,M,0.0,*64
###2023-05-05 12:22:22.602405$GNGGA,162303.20,4120.8483019,N,07038.2479583,W,1,22,0.7,0.027,M,-30.476,M,0.0,*62
###2023-05-05 12:22:24.603359$GNGGA,162305.20,4120.8461376,N,07038.2482219,W,1,22,0.7,0.122,M,-30.476,M,0.0,*66
###2023-05-05 12:22:26.603238$GNGGA,162307.20,4120.8440742,N,07038.2482298,W,1,22,0.7,0.386,M,-30.476,M,0.0,*61
###2023-05-05 12:22:28.594983$GNGGA,162309.20,4120.8418914,N,07038.2480721,W,1,22,0.7,0.246,M,-30.476,M,0.0,*67
###2023-05-05 12:22:30.601656$GNGGA,162311.20,4120.8397019,N,07038.2480929,W,1,22,0.7,0.240,M,-30.476,M,0.0,*6A
###2023-05-05 12:22:32.600732$GNGGA,162313.20,4120.8373620,N,07038.2480089,W,1,22,0.7,0.343,M,-30.476,M,0.0,*6F
###2023-05-05 12:22:34.600489$GNGGA,162315.20,4120.8349496,N,07038.2480597,W,1,22,0.7,0.510,M,-30.476,M,0.0,*65
###2023-05-05 12:22:36.604140$GNGGA,162317.20,4120.8328036,N,07038.2482281,W,1,22,0.7,0.521,M,-30.477,M,0.0,*6F
###2023-05-05 12:22:38.601487$GNGGA,162319.20,4120.8305186,N,07038.2481477,W,1,22,0.7,0.328,M,-30.477,M,0.0,*67
###2023-05-05 12:22:40.603990$GNGGA,162321.20,4120.8281574,N,07038.2480070,W,1,22,0.7,0.191,M,-30.477,M,0.0,*6A
###2023-05-05 12:22:42.603994$GNGGA,162323.20,4120.8257816,N,07038.2479698,W,1,22,0.7,0.361,M,-30.477,M,0.0,*61
###2023-05-05 12:22:44.602975$GNGGA,162325.20,4120.8234372,N,07038.2480864,W,1,22,0.7,0.324,M,-30.477,M,0.0,*61
###2023-05-05 12:22:46.604071$GNGGA,162327.20,4120.8211003,N,07038.2479832,W,1,22,0.7,0.447,M,-30.477,M,0.0,*66
###2023-05-05 12:22:48.605009$GNGGA,162329.20,4120.8186785,N,07038.2479113,W,1,22,0.7,0.217,M,-30.477,M,0.0,*65
###2023-05-05 12:22:50.604959$GNGGA,162331.20,4120.8160797,N,07038.2478090,W,1,22,0.7,0.265,M,-30.477,M,0.0,*69
###2023-05-05 12:22:52.605044$GNGGA,162333.20,4120.8135174,N,07038.2479905,W,1,22,0.7,0.564,M,-30.477,M,0.0,*62
###2023-05-05 12:22:54.604843$GNGGA,162335.20,4120.8110469,N,07038.2480680,W,1,22,0.7,0.541,M,-30.477,M,0.0,*69
###2023-05-05 12:22:56.602780$GNGGA,162337.20,4120.8086390,N,07038.2480523,W,1,22,0.7,0.067,M,-30.477,M,0.0,*6F
###2023-05-05 12:22:58.601001$GNGGA,162339.20,4120.8061667,N,07038.2479243,W,1,22,0.7,0.184,M,-30.478,M,0.0,*61
###2023-05-05 12:23:00.603020$GNGGA,162341.20,4120.8039108,N,07038.2480299,W,1,22,0.7,0.395,M,-30.478,M,0.0,*6E
###2023-05-05 12:23:02.601984$GNGGA,162343.20,4120.8014406,N,07038.2478341,W,1,21,0.7,0.239,M,-30.478,M,0.0,*6F
###2023-05-05 12:23:04.602147$GNGGA,162345.20,4120.7987893,N,07038.2476916,W,1,21,0.7,0.054,M,-30.478,M,0.0,*6A
###2023-05-05 12:23:06.605770$GNGGA,162347.20,4120.7964176,N,07038.2481022,W,1,21,0.7,0.970,M,-30.478,M,0.0,*6E
###2023-05-05 12:23:08.604781$GNGGA,162349.20,4120.7940399,N,07038.2479898,W,1,21,0.7,0.296,M,-30.478,M,0.0,*68
###2023-05-05 12:23:10.604489$GNGGA,162351.20,4120.7914610,N,07038.2478480,W,1,21,0.7,0.056,M,-30.478,M,0.0,*6E
###2023-05-05 12:23:12.604380$GNGGA,162353.20,4120.7887553,N,07038.2477976,W,1,21,0.7,0.305,M,-30.478,M,0.0,*6D
###2023-05-05 12:23:14.602407$GNGGA,162355.20,4120.7862787,N,07038.2480922,W,1,21,0.7,0.599,M,-30.478,M,0.0,*61
###2023-05-05 12:23:16.605406$GNGGA,162357.20,4120.7836653,N,07038.2479088,W,1,21,0.7,0.130,M,-30.478,M,0.0,*62
###2023-05-05 12:23:18.605335$GNGGA,162359.20,4120.7809054,N,07038.2479833,W,1,21,0.7,0.154,M,-30.478,M,0.0,*6B
###2023-05-05 12:23:20.598716$GNGGA,162401.20,4120.7783711,N,07038.2481931,W,1,21,0.7,0.499,M,-30.479,M,0.0,*6B
###2023-05-05 12:23:22.605304$GNGGA,162403.20,4120.7758220,N,07038.2481641,W,1,21,0.7,0.618,M,-30.479,M,0.0,*6B
###2023-05-05 12:23:24.599748$GNGGA,162405.20,4120.7732707,N,07038.2480177,W,1,21,0.7,0.353,M,-30.479,M,0.0,*68
###2023-05-05 12:23:26.605270$GNGGA,162407.20,4120.7706661,N,07038.2477832,W,1,21,0.7,0.298,M,-30.479,M,0.0,*6A
###2023-05-05 12:23:28.603627$GNGGA,162409.20,4120.7680364,N,07038.2490105,W,1,21,0.7,0.675,M,-30.479,M,0.0,*68
###2023-05-05 12:23:30.603431$GNGGA,162411.20,4120.7669272,N,07038.2528085,W,1,21,0.7,0.692,M,-30.479,M,0.0,*62
###2023-05-05 12:23:32.601622$GNGGA,162413.20,4120.7673508,N,07038.2566296,W,1,21,0.7,0.311,M,-30.479,M,0.0,*65
###2023-05-05 12:23:34.605724$GNGGA,162415.20,4120.7682865,N,07038.2598612,W,1,21,0.7,0.155,M,-30.479,M,0.0,*60
###2023-05-05 12:23:36.604979$GNGGA,162417.20,4120.7695315,N,07038.2626479,W,1,21,0.7,0.342,M,-30.479,M,0.0,*65
###2023-05-05 12:23:38.605411$GNGGA,162419.20,4120.7719790,N,07038.2635025,W,1,20,0.8,0.342,M,-30.479,M,0.0,*66
###2023-05-05 12:23:40.604871$GNGGA,162421.20,4120.7742302,N,07038.2626226,W,1,20,0.8,0.599,M,-30.479,M,0.0,*6F
###2023-05-05 12:23:42.605967$GNGGA,162423.20,4120.7762104,N,07038.2623414,W,1,20,0.8,0.692,M,-30.479,M,0.0,*61
###2023-05-05 12:23:44.604833$GNGGA,162425.20,4120.7781604,N,07038.2625102,W,1,21,0.7,0.510,M,-30.479,M,0.0,*6E
###2023-05-05 12:23:46.604844$GNGGA,162427.20,4120.7801476,N,07038.2625628,W,1,21,0.7,0.466,M,-30.479,M,0.0,*63
###2023-05-05 12:23:48.606825$GNGGA,162429.20,4120.7821949,N,07038.2624846,W,1,21,0.7,0.277,M,-30.479,M,0.0,*6F
###2023-05-05 12:23:50.602814$GNGGA,162431.20,4120.7843481,N,07038.2625240,W,1,21,0.7,0.178,M,-30.479,M,0.0,*6A
###2023-05-05 12:23:52.605700$GNGGA,162433.20,4120.7865571,N,07038.2625219,W,1,21,0.7,0.351,M,-30.478,M,0.0,*66
###2023-05-05 12:23:54.605656$GNGGA,162435.20,4120.7888475,N,07038.2625299,W,1,21,0.7,0.570,M,-30.478,M,0.0,*6B
###2023-05-05 12:23:56.599068$GNGGA,162437.20,4120.7909535,N,07038.2624906,W,1,21,0.7,0.586,M,-30.478,M,0.0,*61
###2023-05-05 12:23:58.601897$GNGGA,162439.20,4120.7930643,N,07038.2624560,W,1,21,0.7,0.297,M,-30.478,M,0.0,*6C
###2023-05-05 12:24:00.603963$GNGGA,162441.20,4120.7952003,N,07038.2624284,W,1,21,0.7,0.319,M,-30.478,M,0.0,*6F
###2023-05-05 12:24:02.602905$GNGGA,162443.20,4120.7973162,N,07038.2623174,W,1,21,0.7,0.291,M,-30.478,M,0.0,*62
###2023-05-05 12:24:04.602890$GNGGA,162445.20,4120.7995009,N,07038.2622709,W,1,21,0.7,0.250,M,-30.478,M,0.0,*60
###2023-05-05 12:24:06.606415$GNGGA,162447.20,4120.8017069,N,07038.2622916,W,1,21,0.7,0.402,M,-30.478,M,0.0,*69
###2023-05-05 12:24:08.597869$GNGGA,162449.20,4120.8039656,N,07038.2623310,W,1,21,0.7,0.345,M,-30.478,M,0.0,*68
###2023-05-05 12:24:10.605351$GNGGA,162451.20,4120.8063333,N,07038.2623823,W,1,21,0.7,0.442,M,-30.478,M,0.0,*63
###2023-05-05 12:24:12.600744$GNGGA,162453.20,4120.8086754,N,07038.2623412,W,1,21,0.7,0.617,M,-30.478,M,0.0,*63
###2023-05-05 12:24:14.605240$GNGGA,162455.20,4120.8110808,N,07038.2623799,W,1,21,0.7,0.595,M,-30.478,M,0.0,*64
###2023-05-05 12:24:16.606248$GNGGA,162457.20,4120.8134926,N,07038.2623890,W,1,21,0.7,0.447,M,-30.477,M,0.0,*6A
###2023-05-05 12:24:18.607255$GNGGA,162459.20,4120.8158814,N,07038.2624235,W,1,21,0.7,0.378,M,-30.477,M,0.0,*67
###2023-05-05 12:24:20.606246$GNGGA,162501.20,4120.8182356,N,07038.2624316,W,1,21,0.7,0.514,M,-30.477,M,0.0,*6D
