###2023-05-05 14:14:08.729245$GNGGA,181449.20,4120.8845754,N,07038.3435108,W,1,24,0.6,-0.165,M,-30.476,M,0.0,*4D
###2023-05-05 14:14:10.729594$GNGGA,181451.20,4120.8845547,N,07038.3410183,W,1,24,0.6,0.054,M,-30.476,M,0.0,*6E
###2023-05-05 14:14:12.729221$GNGGA,181453.20,4120.8849136,N,07038.3388181,W,1,24,0.6,-0.148,M,-30.476,M,0.0,*47
###2023-05-05 14:14:14.728133$GNGGA,181455.20,4120.8854344,N,07038.3367728,W,1,24,0.6,-0.372,M,-30.476,M,0.0,*45
###2023-05-05 14:14:16.728603$GNGGA,181457.20,4120.8864158,N,07038.3352446,W,1,23,0.6,-0.024,M,-30.476,M,0.0,*41
###2023-05-05 14:14:18.729163$GNGGA,181459.20,4120.8870856,N,07038.3331356,W,1,24,0.6,-0.133,M,-30.476,M,0.0,*4E
###2023-05-05 14:14:20.730084$GNGGA,181501.20,4120.8864887,N,07038.3307948,W,1,24,0.6,-0.076,M,-30.476,M,0.0,*4B
###2023-05-05 14:14:22.728942$GNGGA,181503.20,4120.8865606,N,07038.3283641,W,1,24,0.6,-0.001,M,-30.476,M,0.0,*44
###2023-05-05 14:14:24.729895$GNGGA,181505.20,4120.8876481,N,07038.3262595,W,1,24,0.6,0.366,M,-30.476,M,0.0,*67
###2023-05-05 14:14:26.729908$GNGGA,181507.20,4120.8889445,N,07038.3244293,W,1,24,0.6,0.093,M,-30.476,M,0.0,*61
###2023-05-05 14:14:28.727987$GNGGA,181509.20,4120.8892461,N,07038.3222605,W,1,24,0.6,0.046,M,-30.476,M,0.0,*60
###2023-05-05 14:14:30.728757$GNGGA,181511.20,4120.8892932,N,07038.3201266,W,1,23,0.6,0.132,M,-30.475,M,0.0,*64
###2023-05-05 14:14:32.727902$GNGGA,181513.20,4120.8877836,N,07038.3181082,W,1,23,0.6,0.114,M,-30.476,M,0.0,*6C
###2023-05-05 14:14:34.724107$GNGGA,181515.20,4120.8873796,N,07038.3163218,W,1,24,0.6,0.621,M,-30.475,M,0.0,*63
###2023-05-05 14:14:36.731664$GNGGA,181517.20,4120.8870171,N,07038.3139463,W,1,24,0.6,0.162,M,-30.475,M,0.0,*68
###2023-05-05 14:14:38.730719$GNGGA,181519.20,4120.8861582,N,07038.3111347,W,1,24,0.6,-0.155,M,-30.475,M,0.0,*4C
###2023-05-05 14:14:40.730773$GNGGA,181521.20,4120.8856924,N,07038.3082376,W,1,23,0.6,0.210,M,-30.475,M,0.0,*62
###2023-05-05 14:14:42.730542$GNGGA,181523.20,4120.8864318,N,07038.3056706,W,1,24,0.6,-0.027,M,-30.475,M,0.0,*42
###2023-05-05 14:14:44.730433$GNGGA,181525.20,4120.8875901,N,07038.3034303,W,1,24,0.6,0.600,M,-30.475,M,0.0,*6D
###2023-05-05 14:14:46.731811$GNGGA,181527.20,4120.8883241,N,07038.3011970,W,1,23,0.6,0.094,M,-30.475,M,0.0,*6C
###2023-05-05 14:14:48.731645$GNGGA,181529.20,4120.8871629,N,07038.2989140,W,1,24,0.6,-0.192,M,-30.475,M,0.0,*4A
###2023-05-05 14:14:50.729400$GNGGA,181531.20,4120.8864906,N,07038.2964978,W,1,24,0.6,0.098,M,-30.475,M,0.0,*63
###2023-05-05 14:14:52.724877$GNGGA,181533.20,4120.8857841,N,07038.2942317,W,1,24,0.6,-0.179,M,-30.475,M,0.0,*47
###2023-05-05 14:14:54.731443$GNGGA,181535.20,4120.8866112,N,07038.2923292,W,1,24,0.6,0.171,M,-30.475,M,0.0,*62
###2023-05-05 14:14:56.730329$GNGGA,181537.20,4120.8876049,N,07038.2906428,W,1,23,0.6,-0.156,M,-30.475,M,0.0,*41
###2023-05-05 14:14:58.728495$GNGGA,181539.20,4120.8886065,N,07038.2894046,W,1,23,0.6,-0.125,M,-30.475,M,0.0,*4C
###2023-05-05 14:15:00.729248$GNGGA,181541.20,4120.8900066,N,07038.2880884,W,1,24,0.6,-0.109,M,-30.475,M,0.0,*45
###2023-05-05 14:15:02.729246$GNGGA,181543.20,4120.8910365,N,07038.2862622,W,1,24,0.6,-0.091,M,-30.475,M,0.0,*48
###2023-05-05 14:15:04.729273$GNGGA,181545.20,4120.8913518,N,07038.2838921,W,1,24,0.6,0.201,M,-30.475,M,0.0,*64
###2023-05-05 14:15:06.731434$GNGGA,181547.20,4120.8908499,N,07038.2813405,W,1,23,0.6,-0.054,M,-30.475,M,0.0,*4E
###2023-05-05 14:15:08.730189$GNGGA,181549.20,4120.8894106,N,07038.2788673,W,1,24,0.6,-0.003,M,-30.475,M,0.0,*4C
###2023-05-05 14:15:10.732311$GNGGA,181551.20,4120.8891626,N,07038.2765960,W,1,23,0.6,-0.301,M,-30.475,M,0.0,*4D
###2023-05-05 14:15:12.731345$GNGGA,181553.20,4120.8897521,N,07038.2742752,W,1,24,0.6,-0.226,M,-30.475,M,0.0,*44
###2023-05-05 14:15:14.731328$GNGGA,181555.20,4120.8911020,N,07038.2722217,W,1,24,0.6,0.415,M,-30.475,M,0.0,*60
###2023-05-05 14:15:16.729907$GNGGA,181557.20,4120.8916300,N,07038.2699277,W,1,23,0.6,0.091,M,-30.475,M,0.0,*6C
###2023-05-05 14:15:18.731245$GNGGA,181559.20,4120.8901438,N,07038.2674923,W,1,23,0.6,-0.262,M,-30.475,M,0.0,*42
###2023-05-05 14:15:20.731169$GNGGA,181601.20,4120.8885670,N,07038.2650021,W,1,23,0.6,-0.176,M,-30.475,M,0.0,*44
###2023-05-05 14:15:22.730985$GNGGA,181603.20,4120.8888146,N,07038.2626249,W,1,23,0.6,0.011,M,-30.475,M,0.0,*69
###2023-05-05 14:15:24.731983$GNGGA,181605.20,4120.8908223,N,07038.2604344,W,1,23,0.6,-0.094,M,-30.475,M,0.0,*4A
###2023-05-05 14:15:26.731032$GNGGA,181607.20,4120.8912631,N,07038.2583261,W,1,24,0.6,-0.257,M,-30.474,M,0.0,*45
###2023-05-05 14:15:28.730358$GNGGA,181609.20,4120.8909902,N,07038.2556943,W,1,24,0.6,-0.297,M,-30.474,M,0.0,*41
###2023-05-05 14:15:30.729783$GNGGA,181611.20,4120.8912011,N,07038.2530244,W,1,24,0.6,-0.103,M,-30.474,M,0.0,*4B
###2023-05-05 14:15:32.729863$GNGGA,181613.20,4120.8921366,N,07038.2505332,W,1,24,0.6,-0.196,M,-30.474,M,0.0,*40
###2023-05-05 14:15:34.730806$GNGGA,181615.20,4120.8928965,N,07038.2481081,W,1,23,0.6,0.349,M,-30.474,M,0.0,*6A
###2023-05-05 14:15:36.733004$GNGGA,181617.20,4120.8916435,N,07038.2458647,W,1,23,0.6,-0.218,M,-30.474,M,0.0,*4D
###2023-05-05 14:15:38.732255$GNGGA,181619.20,4120.8904801,N,07038.2438425,W,1,23,0.6,0.170,M,-30.474,M,0.0,*6B
###2023-05-05 14:15:40.730766$GNGGA,181621.20,4120.8899674,N,07038.2415011,W,1,24,0.6,-0.002,M,-30.474,M,0.0,*4B
###2023-05-05 14:15:42.731658$GNGGA,181623.20,4120.8897791,N,07038.2391577,W,1,24,0.6,-0.066,M,-30.474,M,0.0,*41
###2023-05-05 14:15:44.730706$GNGGA,181625.20,4120.8902656,N,07038.2366475,W,1,24,0.6,0.011,M,-30.474,M,0.0,*66
###2023-05-05 14:15:46.731809$GNGGA,181627.20,4120.8909441,N,07038.2346344,W,1,23,0.6,0.027,M,-30.474,M,0.0,*6E
###2023-05-05 14:15:48.731425$GNGGA,181629.20,4120.8921023,N,07038.2325341,W,1,24,0.6,0.077,M,-30.474,M,0.0,*68
###2023-05-05 14:15:50.731406$GNGGA,181631.20,4120.8929754,N,07038.2302870,W,1,23,0.6,0.012,M,-30.474,M,0.0,*66
###2023-05-05 14:15:52.731520$GNGGA,181633.20,4120.8940562,N,07038.2278540,W,1,24,0.6,-0.040,M,-30.474,M,0.0,*43
###2023-05-05 14:15:54.726805$GNGGA,181635.20,4120.8945736,N,07038.2254257,W,1,24,0.6,-0.084,M,-30.474,M,0.0,*44
###2023-05-05 14:15:56.732401$GNGGA,181637.20,4120.8948952,N,07038.2228086,W,1,24,0.6,0.061,M,-30.474,M,0.0,*64
###2023-05-05 14:15:58.730442$GNGGA,181639.20,4120.8954466,N,07038.2203827,W,1,24,0.6,0.423,M,-30.474,M,0.0,*65
###2023-05-05 14:16:00.731628$GNGGA,181641.20,4120.8954667,N,07038.2179782,W,1,24,0.6,0.286,M,-30.474,M,0.0,*6E
###2023-05-05 14:16:02.729138$GNGGA,181643.20,4120.8952771,N,07038.2155872,W,1,24,0.6,0.156,M,-30.474,M,0.0,*6C
###2023-05-05 14:16:04.732389$GNGGA,181645.20,4120.8955043,N,07038.2129978,W,1,24,0.6,0.180,M,-30.474,M,0.0,*60
###2023-05-05 14:16:06.731075$GNGGA,181647.20,4120.8957929,N,07038.2104444,W,1,24,0.6,0.729,M,-30.474,M,0.0,*6D
###2023-05-05 14:16:08.732109$GNGGA,181649.20,4120.8960780,N,07038.2083749,W,1,24,0.6,0.513,M,-30.474,M,0.0,*61
###2023-05-05 14:16:10.732114$GNGGA,181651.20,4120.8955224,N,07038.2061639,W,1,24,0.6,0.209,M,-30.474,M,0.0,*63
###2023-05-05 14:16:12.732421$GNGGA,181653.20,4120.8946814,N,07038.2038569,W,1,24,0.6,0.320,M,-30.474,M,0.0,*6A
###2023-05-05 14:16:14.731985$GNGGA,181655.20,4120.8944116,N,07038.2016950,W,1,24,0.6,0.313,M,-30.474,M,0.0,*6F
###2023-05-05 14:16:16.731943$GNGGA,181657.20,4120.8944380,N,07038.1995695,W,1,24,0.6,0.811,M,-30.474,M,0.0,*6E
###2023-05-05 14:16:18.732883$GNGGA,181659.20,4120.8937752,N,07038.1974866,W,1,24,0.6,0.640,M,-30.474,M,0.0,*68
###2023-05-05 14:16:20.730920$GNGGA,181701.20,4120.8939532,N,07038.1953542,W,1,24,0.6,0.422,M,-30.473,M,0.0,*61
###2023-05-05 14:16:22.732171$GNGGA,181703.20,4120.8940179,N,07038.1931202,W,1,23,0.6,0.268,M,-30.473,M,0.0,*6E
###2023-05-05 14:16:24.732779$GNGGA,181705.20,4120.8930683,N,07038.1910856,W,1,23,0.6,0.527,M,-30.473,M,0.0,*69
###2023-05-05 14:16:26.732891$GNGGA,181707.20,4120.8924683,N,07038.1891164,W,1,24,0.6,0.382,M,-30.473,M,0.0,*60
###2023-05-05 14:16:28.729810$GNGGA,181709.20,4120.8917155,N,07038.1868523,W,1,24,0.6,0.250,M,-30.473,M,0.0,*6D
###2023-05-05 14:16:30.731680$GNGGA,181711.20,4120.8916967,N,07038.1843884,W,1,24,0.6,0.148,M,-30.473,M,0.0,*6F
###2023-05-05 14:16:32.731624$GNGGA,181713.20,4120.8931924,N,07038.1816941,W,1,24,0.6,0.338,M,-30.473,M,0.0,*62
###2023-05-05 14:16:34.731813$GNGGA,181715.20,4120.8938653,N,07038.1786716,W,1,24,0.6,0.025,M,-30.473,M,0.0,*67
###2023-05-05 14:16:36.732579$GNGGA,181717.20,4120.8940968,N,07038.1758017,W,1,24,0.6,0.468,M,-30.473,M,0.0,*65
###2023-05-05 14:16:38.731588$GNGGA,181719.20,4120.8930127,N,07038.1729616,W,1,24,0.6,0.208,M,-30.473,M,0.0,*6E
###2023-05-05 14:16:40.743328$GNGGA,181721.20,4120.8934420,N,07038.1702934,W,1,24,0.6,0.169,M,-30.473,M,0.0,*61
###2023-05-05 14:16:42.733567$GNGGA,181723.20,4120.8949280,N,07038.1678500,W,1,24,0.6,0.098,M,-30.473,M,0.0,*6D
###2023-05-05 14:16:44.733613$GNGGA,181725.20,4120.8962071,N,07038.1652448,W,1,23,0.6,0.196,M,-30.473,M,0.0,*63
###2023-05-05 14:16:46.733616$GNGGA,181727.20,4120.8966133,N,07038.1625364,W,1,24,0.6,0.288,M,-30.473,M,0.0,*60
###2023-05-05 14:16:48.733566$GNGGA,181729.20,4120.8973277,N,07038.1599384,W,1,24,0.6,-0.130,M,-30.473,M,0.0,*4E
###2023-05-05 14:16:50.733464$GNGGA,181731.20,4120.8974956,N,07038.1570297,W,1,24,0.6,-0.110,M,-30.473,M,0.0,*4E
###2023-05-05 14:16:52.734333$GNGGA,181733.20,4120.8979771,N,07038.1543818,W,1,24,0.6,0.136,M,-30.473,M,0.0,*6E
###2023-05-05 14:16:54.734321$GNGGA,181735.20,4120.8977619,N,07038.1519287,W,1,24,0.6,-0.020,M,-30.473,M,0.0,*41
###2023-05-05 14:16:56.732509$GNGGA,181737.20,4120.8978112,N,07038.1489902,W,1,24,0.6,-0.244,M,-30.473,M,0.0,*4E
###2023-05-05 14:16:58.731744$GNGGA,181739.20,4120.8982180,N,07038.1458686,W,1,24,0.6,-0.057,M,-30.473,M,0.0,*41
###2023-05-05 14:17:00.732090$GNGGA,181741.20,4120.8985086,N,07038.1429439,W,1,24,0.6,0.024,M,-30.473,M,0.0,*67
###2023-05-05 14:17:02.732138$GNGGA,181743.20,4120.8983281,N,07038.1397588,W,1,24,0.6,0.079,M,-30.472,M,0.0,*66
###2023-05-05 14:17:04.732152$GNGGA,181745.20,4120.8992737,N,07038.1365219,W,1,24,0.6,0.008,M,-30.472,M,0.0,*6C
###2023-05-05 14:17:06.733101$GNGGA,181747.20,4120.8994497,N,07038.1332699,W,1,24,0.6,0.031,M,-30.472,M,0.0,*65
###2023-05-05 14:17:08.734109$GNGGA,181749.20,4120.8992178,N,07038.1297628,W,1,24,0.6,-0.041,M,-30.472,M,0.0,*47
###2023-05-05 14:17:10.733936$GNGGA,181751.20,4120.8992387,N,07038.1264116,W,1,24,0.6,0.169,M,-30.472,M,0.0,*6C
###2023-05-05 14:17:12.733961$GNGGA,181753.20,4120.8993796,N,07038.1230453,W,1,24,0.6,0.456,M,-30.472,M,0.0,*67
###2023-05-05 14:17:14.732997$GNGGA,181755.20,4120.8995897,N,07038.1195846,W,1,24,0.6,0.348,M,-30.472,M,0.0,*65
###2023-05-05 14:17:16.734475$GNGGA,181757.20,4120.8994101,N,07038.1162096,W,1,24,0.6,0.168,M,-30.472,M,0.0,*6D
###2023-05-05 14:17:18.733795$GNGGA,181759.20,4120.8989126,N,07038.1128268,W,1,24,0.6,0.175,M,-30.472,M,0.0,*6B
###2023-05-05 14:17:20.733881$GNGGA,181801.20,4120.8992289,N,07038.1097949,W,1,24,0.6,0.272,M,-30.472,M,0.0,*6C
###2023-05-05 14:17:22.733781$GNGGA,181803.20,4120.8997849,N,07038.1069098,W,1,24,0.6,0.228,M,-30.472,M,0.0,*66
###2023-05-05 14:17:24.734743$GNGGA,181805.20,4120.9001791,N,07038.1041053,W,1,24,0.6,0.349,M,-30.472,M,0.0,*66
###2023-05-05 14:17:26.734788$GNGGA,181807.20,4120.9004918,N,07038.1008756,W,1,24,0.6,0.234,M,-30.472,M,0.0,*6A
