###2023-05-05 12:11:02.586424$GNGGA,161143.20,4120.9150465,N,07038.2417386,W,1,21,0.7,1.509,M,-30.473,M,0.0,*67
###2023-05-05 12:11:04.591395$GNGGA,161145.20,4120.9150543,N,07038.2417327,W,1,21,0.7,1.435,M,-30.473,M,0.0,*61
###2023-05-05 12:11:06.588224$GNGGA,161147.20,4120.9150615,N,07038.2417296,W,1,21,0.7,1.321,M,-30.473,M,0.0,*6A
###2023-05-05 12:11:08.587417$GNGGA,161149.20,4120.9150562,N,07038.2417194,W,1,21,0.7,1.257,M,-30.473,M,0.0,*66
###2023-05-05 12:11:10.587350$GNGGA,161151.20,4120.9150450,N,07038.2417125,W,1,21,0.7,1.211,M,-30.473,M,0.0,*67
###2023-05-05 12:11:12.588330$GNGGA,161153.20,4120.9150486,N,07038.2417088,W,1,21,0.7,1.174,M,-30.473,M,0.0,*68
###2023-05-05 12:11:14.586208$GNGGA,161155.20,4120.9150622,N,07038.2417134,W,1,21,0.7,1.131,M,-30.473,M,0.0,*65
###2023-05-05 12:11:16.588323$GNGGA,161157.20,4120.9150813,N,07038.2417150,W,1,21,0.7,1.067,M,-30.473,M,0.0,*6B
###2023-05-05 12:11:18.588458$GNGGA,161159.20,4120.9150790,N,07038.2417087,W,1,21,0.7,1.005,M,-30.473,M,0.0,*6E
###2023-05-05 12:11:20.582669$GNGGA,161201.20,4120.9150697,N,07038.2417000,W,1,21,0.7,0.930,M,-30.473,M,0.0,*67
###2023-05-05 12:11:22.588740$GNGGA,161203.20,4120.9150439,N,07038.2417024,W,1,21,0.7,0.926,M,-30.473,M,0.0,*62
###2023-05-05 12:11:24.582672$GNGGA,161205.20,4120.9150399,N,07038.2417072,W,1,21,0.7,0.943,M,-30.473,M,0.0,*69
###2023-05-05 12:11:26.588059$GNGGA,161207.20,4120.9150373,N,07038.2417046,W,1,21,0.7,0.935,M,-30.473,M,0.0,*69
###2023-05-05 12:11:28.585211$GNGGA,161209.20,4120.9150292,N,07038.2417012,W,1,21,0.7,0.946,M,-30.473,M,0.0,*6C
###2023-05-05 12:11:30.586926$GNGGA,161211.20,4120.9150195,N,07038.2416899,W,1,21,0.7,0.949,M,-30.473,M,0.0,*64
###2023-05-05 12:11:32.583913$GNGGA,161213.20,4120.9150045,N,07038.2416846,W,1,21,0.7,0.973,M,-30.473,M,0.0,*61
###2023-05-05 12:11:34.586925$GNGGA,161215.20,4120.9149849,N,07038.2416720,W,1,21,0.7,0.995,M,-30.473,M,0.0,*6C
###2023-05-05 12:11:36.587790$GNGGA,161217.20,4120.9149671,N,07038.2416589,W,1,21,0.7,1.018,M,-30.473,M,0.0,*67
###2023-05-05 12:11:38.582242$GNGGA,161219.20,4120.9149684,N,07038.2416507,W,1,21,0.7,0.986,M,-30.473,M,0.0,*6A
###2023-05-05 12:11:40.587667$GNGGA,161221.20,4120.9149721,N,07038.2416544,W,1,21,0.7,0.907,M,-30.473,M,0.0,*61
###2023-05-05 12:11:42.582193$GNGGA,161223.20,4120.9149756,N,07038.2416597,W,1,21,0.7,0.822,M,-30.473,M,0.0,*6B
###2023-05-05 12:11:44.589024$GNGGA,161225.20,4120.9149711,N,07038.2416499,W,1,21,0.7,0.755,M,-30.473,M,0.0,*6E
###2023-05-05 12:11:46.587739$GNGGA,161227.20,4120.9149624,N,07038.2416533,W,1,21,0.7,0.756,M,-30.473,M,0.0,*69
###2023-05-05 12:11:48.588108$GNGGA,161229.20,4120.9149679,N,07038.2416490,W,1,21,0.7,0.751,M,-30.473,M,0.0,*60
###2023-05-05 12:11:50.587318$GNGGA,161231.20,4120.9149776,N,07038.2416530,W,1,21,0.7,0.741,M,-30.473,M,0.0,*6D
###2023-05-05 12:11:52.587757$GNGGA,161233.20,4120.9149973,N,07038.2416650,W,1,21,0.7,0.719,M,-30.473,M,0.0,*6C
###2023-05-05 12:11:54.587562$GNGGA,161235.20,4120.9150144,N,07038.2416721,W,1,21,0.7,0.662,M,-30.473,M,0.0,*64
###2023-05-05 12:11:56.588532$GNGGA,161237.20,4120.9150261,N,07038.2416729,W,1,21,0.7,0.591,M,-30.473,M,0.0,*65
###2023-05-05 12:11:58.580882$GNGGA,161239.20,4120.9150305,N,07038.2416756,W,1,21,0.7,0.577,M,-30.473,M,0.0,*68
###2023-05-05 12:12:00.588321$GNGGA,161241.20,4120.9150360,N,07038.2416773,W,1,21,0.7,0.567,M,-30.473,M,0.0,*62
###2023-05-05 12:12:02.585343$GNGGA,161243.20,4120.9150432,N,07038.2416809,W,1,21,0.7,0.577,M,-30.473,M,0.0,*63
###2023-05-05 12:12:04.586230$GNGGA,161245.20,4120.9150529,N,07038.2416882,W,1,21,0.7,0.586,M,-30.473,M,0.0,*63
###2023-05-05 12:12:06.588230$GNGGA,161247.20,4120.9150663,N,07038.2416982,W,1,21,0.7,0.537,M,-30.473,M,0.0,*67
###2023-05-05 12:12:08.587309$GNGGA,161249.20,4120.9150715,N,07038.2417040,W,1,21,0.7,0.507,M,-30.473,M,0.0,*6C
###2023-05-05 12:12:10.589335$GNGGA,161251.20,4120.9150895,N,07038.2417043,W,1,21,0.7,0.288,M,-30.473,M,0.0,*61
###2023-05-05 12:12:12.589136$GNGGA,161253.20,4120.9150038,N,07038.2415657,W,1,21,0.7,0.332,M,-30.473,M,0.0,*6D
###2023-05-05 12:12:14.582515$GNGGA,161255.20,4120.9149175,N,07038.2414781,W,1,21,0.7,0.693,M,-30.473,M,0.0,*6E
###2023-05-05 12:12:16.588086$GNGGA,161257.20,4120.9148787,N,07038.2413970,W,1,21,0.7,1.012,M,-30.473,M,0.0,*6F
###2023-05-05 12:12:18.589115$GNGGA,161259.20,4120.9148424,N,07038.2413278,W,1,21,0.7,1.287,M,-30.473,M,0.0,*66
###2023-05-05 12:12:20.589688$GNGGA,161301.20,4120.9148040,N,07038.2412633,W,1,21,0.7,1.529,M,-30.473,M,0.0,*65
###2023-05-05 12:12:22.589243$GNGGA,161303.20,4120.9147756,N,07038.2412144,W,1,21,0.7,1.731,M,-30.473,M,0.0,*64
###2023-05-05 12:12:24.583459$GNGGA,161305.20,4120.9147451,N,07038.2411691,W,1,21,0.7,1.960,M,-30.473,M,0.0,*60
###2023-05-05 12:12:26.587093$GNGGA,161307.20,4120.9147250,N,07038.2411127,W,1,21,0.7,2.152,M,-30.473,M,0.0,*65
###2023-05-05 12:12:28.580255$GNGGA,161309.20,4120.9147114,N,07038.2410684,W,1,21,0.7,2.297,M,-30.473,M,0.0,*6D
###2023-05-05 12:12:30.588853$GNGGA,161311.20,4120.9147337,N,07038.2410864,W,1,21,0.7,2.476,M,-30.473,M,0.0,*6E
###2023-05-05 12:12:32.582219$GNGGA,161313.20,4120.9147462,N,07038.2411088,W,1,21,0.7,2.638,M,-30.473,M,0.0,*68
###2023-05-05 12:12:34.588994$GNGGA,161315.20,4120.9147707,N,07038.2411318,W,1,21,0.7,2.764,M,-30.473,M,0.0,*6C
###2023-05-05 12:12:36.583071$GNGGA,161317.20,4120.9147842,N,07038.2411539,W,1,21,0.7,2.898,M,-30.473,M,0.0,*69
###2023-05-05 12:12:38.588797$GNGGA,161319.20,4120.9147942,N,07038.2411674,W,1,21,0.7,3.023,M,-30.473,M,0.0,*65
###2023-05-05 12:12:40.588625$GNGGA,161321.20,4120.9148064,N,07038.2411723,W,1,21,0.7,3.137,M,-30.473,M,0.0,*6B
###2023-05-05 12:12:42.589478$GNGGA,161323.20,4120.9148143,N,07038.2411750,W,1,21,0.7,3.217,M,-30.473,M,0.0,*68
###2023-05-05 12:12:44.587693$GNGGA,161325.20,4120.9148184,N,07038.2411909,W,1,21,0.7,3.338,M,-30.473,M,0.0,*6B
###2023-05-05 12:12:46.588511$GNGGA,161327.20,4120.9148160,N,07038.2412125,W,1,21,0.7,3.401,M,-30.473,M,0.0,*6B
###2023-05-05 12:12:48.589457$GNGGA,161329.20,4120.9148234,N,07038.2412370,W,1,21,0.7,3.437,M,-30.473,M,0.0,*60
###2023-05-05 12:12:50.582862$GNGGA,161331.20,4120.9148326,N,07038.2412590,W,1,21,0.7,3.512,M,-30.473,M,0.0,*65
###2023-05-05 12:12:52.589480$GNGGA,161333.20,4120.9148421,N,07038.2412726,W,1,21,0.7,3.578,M,-30.473,M,0.0,*64
###2023-05-05 12:12:54.583794$GNGGA,161335.20,4120.9148414,N,07038.2412819,W,1,21,0.7,3.615,M,-30.473,M,0.0,*6F
###2023-05-05 12:12:56.589363$GNGGA,161337.20,4120.9148446,N,07038.2413029,W,1,21,0.7,3.633,M,-30.473,M,0.0,*64
###2023-05-05 12:12:58.587218$GNGGA,161339.20,4120.9148511,N,07038.2413196,W,1,21,0.7,3.661,M,-30.473,M,0.0,*6B
###2023-05-05 12:13:00.588224$GNGGA,161341.20,4120.9148657,N,07038.2413365,W,1,21,0.7,3.674,M,-30.473,M,0.0,*6F
###2023-05-05 12:13:02.588761$GNGGA,161343.20,4120.9148815,N,07038.2413394,W,1,21,0.7,3.695,M,-30.473,M,0.0,*64
###2023-05-05 12:13:04.588092$GNGGA,161345.20,4120.9149034,N,07038.2413346,W,1,21,0.7,3.733,M,-30.473,M,0.0,*6A
###2023-05-05 12:13:06.590063$GNGGA,161347.20,4120.9149106,N,07038.2413317,W,1,21,0.7,3.801,M,-30.473,M,0.0,*62
###2023-05-05 12:13:08.584166$GNGGA,161349.20,4120.9149150,N,07038.2413320,W,1,21,0.7,3.800,M,-30.473,M,0.0,*6A
###2023-05-05 12:13:10.592579$GNGGA,161351.20,4120.9149160,N,07038.2413381,W,1,21,0.7,3.792,M,-30.473,M,0.0,*6F
###2023-05-05 12:13:12.591668$GNGGA,161353.20,4120.9149228,N,07038.2413374,W,1,21,0.7,3.752,M,-30.473,M,0.0,*64
###2023-05-05 12:13:14.590995$GNGGA,161355.20,4120.9149333,N,07038.2413350,W,1,21,0.7,3.749,M,-30.473,M,0.0,*65
###2023-05-05 12:13:16.591589$GNGGA,161357.20,4120.9149407,N,07038.2413209,W,1,21,0.7,3.746,M,-30.473,M,0.0,*65
###2023-05-05 12:13:18.592686$GNGGA,161359.20,4120.9149512,N,07038.2413173,W,1,21,0.7,3.747,M,-30.473,M,0.0,*61
###2023-05-05 12:13:20.588841$GNGGA,161401.20,4120.9149466,N,07038.2413082,W,1,21,0.7,3.752,M,-30.473,M,0.0,*62
###2023-05-05 12:13:22.589772$GNGGA,161403.20,4120.9149433,N,07038.2413085,W,1,21,0.7,3.754,M,-30.473,M,0.0,*61
###2023-05-05 12:13:24.590970$GNGGA,161405.20,4120.9149484,N,07038.2413035,W,1,21,0.7,3.778,M,-30.473,M,0.0,*6E
###2023-05-05 12:13:26.584117$GNGGA,161407.20,4120.9149564,N,07038.2413040,W,1,21,0.7,3.783,M,-30.473,M,0.0,*65
###2023-05-05 12:13:28.588766$GNGGA,161409.20,4120.9149622,N,07038.2413004,W,1,21,0.7,3.766,M,-30.473,M,0.0,*61
###2023-05-05 12:13:30.588656$GNGGA,161411.20,4120.9149666,N,07038.2413055,W,1,21,0.7,3.747,M,-30.473,M,0.0,*6F
###2023-05-05 12:13:32.590699$GNGGA,161413.20,4120.9149552,N,07038.2413046,W,1,20,0.8,3.754,M,-30.473,M,0.0,*67
###2023-05-05 12:13:34.588725$GNGGA,161415.20,4120.9149483,N,07038.2413086,W,1,21,0.7,3.733,M,-30.473,M,0.0,*6F
###2023-05-05 12:13:36.590709$GNGGA,161417.20,4120.9149419,N,07038.2413044,W,1,21,0.7,3.705,M,-30.473,M,0.0,*65
###2023-05-05 12:13:38.587440$GNGGA,161419.20,4120.9149433,N,07038.2412965,W,1,21,0.7,3.687,M,-30.473,M,0.0,*63
###2023-05-05 12:13:40.589506$GNGGA,161421.20,4120.9149516,N,07038.2412963,W,1,21,0.7,3.703,M,-30.473,M,0.0,*65
###2023-05-05 12:13:42.591066$GNGGA,161423.20,4120.9149588,N,07038.2413011,W,1,21,0.7,3.648,M,-30.473,M,0.0,*63
###2023-05-05 12:13:44.585839$GNGGA,161425.20,4120.9149542,N,07038.2413233,W,1,21,0.7,3.610,M,-30.473,M,0.0,*6C
###2023-05-05 12:13:46.589274$GNGGA,161427.20,4120.9149591,N,07038.2413399,W,1,21,0.7,3.596,M,-30.473,M,0.0,*6C
###2023-05-05 12:13:48.590292$GNGGA,161429.20,4120.9149694,N,07038.2413535,W,1,21,0.7,3.605,M,-30.473,M,0.0,*6D
###2023-05-05 12:13:50.589351$GNGGA,161431.20,4120.9149796,N,07038.2413532,W,1,20,0.7,3.602,M,-30.473,M,0.0,*66
###2023-05-05 12:13:52.590181$GNGGA,161433.20,4120.9149799,N,07038.2413470,W,1,21,0.7,3.595,M,-30.473,M,0.0,*60
###2023-05-05 12:13:54.590122$GNGGA,161435.20,4120.9149704,N,07038.2413562,W,1,21,0.7,3.583,M,-30.473,M,0.0,*67
###2023-05-05 12:13:56.588168$GNGGA,161437.20,4120.9149583,N,07038.2413513,W,1,19,0.8,3.568,M,-30.473,M,0.0,*6F
###2023-05-05 12:13:58.587241$GNGGA,161439.20,4120.9149644,N,07038.2413482,W,1,20,0.8,3.533,M,-30.473,M,0.0,*64
###2023-05-05 12:14:00.586993$GNGGA,161441.20,4120.9149683,N,07038.2413471,W,1,20,0.8,3.524,M,-30.473,M,0.0,*6A
###2023-05-05 12:14:02.586976$GNGGA,161443.20,4120.9149798,N,07038.2413446,W,1,18,1.0,3.518,M,-30.473,M,0.0,*6A
###2023-05-05 12:14:04.588971$GNGGA,161445.20,4120.9150011,N,07038.2413290,W,1,19,0.8,3.504,M,-30.473,M,0.0,*6A
###2023-05-05 12:14:06.589912$GNGGA,161447.20,4120.9150069,N,07038.2413191,W,1,19,0.8,3.510,M,-30.473,M,0.0,*60
###2023-05-05 12:14:08.584333$GNGGA,161449.20,4120.9150080,N,07038.2413128,W,1,21,0.7,3.520,M,-30.473,M,0.0,*6C
###2023-05-05 12:14:10.589863$GNGGA,161451.20,4120.9150366,N,07038.2412983,W,1,21,0.7,3.462,M,-30.473,M,0.0,*61
###2023-05-05 12:14:12.593452$GNGGA,161453.20,4120.9151097,N,07038.2412632,W,1,20,0.7,3.286,M,-30.473,M,0.0,*67
###2023-05-05 12:14:14.589824$GNGGA,161455.20,4120.9151500,N,07038.2412412,W,1,20,0.7,3.215,M,-30.473,M,0.0,*60
###2023-05-05 12:14:16.589752$GNGGA,161457.20,4120.9151585,N,07038.2412290,W,1,21,0.7,3.201,M,-30.473,M,0.0,*67
###2023-05-05 12:14:18.590682$GNGGA,161459.20,4120.9151486,N,07038.2412277,W,1,21,0.7,3.191,M,-30.473,M,0.0,*68
###2023-05-05 12:14:20.590682$GNGGA,161501.20,4120.9151379,N,07038.2412357,W,1,21,0.7,3.194,M,-30.473,M,0.0,*65
