###2023-05-05 14:17:28.732034$GNGGA,181809.20,4120.9005501,N,07038.0975548,W,1,24,0.6,0.204,M,-30.472,M,0.0,*6D
###2023-05-05 14:17:30.733650$GNGGA,181811.20,4120.9006532,N,07038.0944139,W,1,24,0.6,0.333,M,-30.472,M,0.0,*62
###2023-05-05 14:17:32.731637$GNGGA,181813.20,4120.9009064,N,07038.0912261,W,1,24,0.6,0.173,M,-30.472,M,0.0,*62
###2023-05-05 14:17:34.732752$GNGGA,181815.20,4120.9006977,N,07038.0879258,W,1,24,0.6,0.024,M,-30.472,M,0.0,*65
###2023-05-05 14:17:36.735576$GNGGA,181817.20,4120.8999002,N,07038.0848166,W,1,24,0.6,0.185,M,-30.472,M,0.0,*64
###2023-05-05 14:17:38.729187$GNGGA,181819.20,4120.8994799,N,07038.0816915,W,1,24,0.6,0.506,M,-30.472,M,0.0,*6A
###2023-05-05 14:17:40.734422$GNGGA,181821.20,4120.8999956,N,07038.0786990,W,1,24,0.6,0.239,M,-30.472,M,0.0,*61
###2023-05-05 14:17:42.734518$GNGGA,181823.20,4120.8992221,N,07038.0756541,W,1,24,0.6,-0.108,M,-30.471,M,0.0,*41
###2023-05-05 14:17:44.735422$GNGGA,181825.20,4120.8991495,N,07038.0724127,W,1,24,0.6,0.034,M,-30.471,M,0.0,*6F
###2023-05-05 14:17:46.734640$GNGGA,181827.20,4120.8990711,N,07038.0692179,W,1,24,0.6,0.057,M,-30.471,M,0.0,*61
###2023-05-05 14:17:48.735690$GNGGA,181829.20,4120.8994230,N,07038.0666531,W,1,24,0.6,0.370,M,-30.471,M,0.0,*68
###2023-05-05 14:17:50.733462$GNGGA,181831.20,4120.9008745,N,07038.0641817,W,1,24,0.6,0.155,M,-30.471,M,0.0,*62
###2023-05-05 14:17:52.738207$GNGGA,181833.20,4120.9017727,N,07038.0614531,W,1,24,0.6,0.117,M,-30.471,M,0.0,*65
###2023-05-05 14:17:54.735363$GNGGA,181835.20,4120.9021990,N,07038.0585848,W,1,24,0.6,-0.097,M,-30.471,M,0.0,*48
###2023-05-05 14:17:56.735409$GNGGA,181837.20,4120.9026055,N,07038.0559078,W,1,24,0.6,0.038,M,-30.471,M,0.0,*6F
###2023-05-05 14:17:58.732139$GNGGA,181839.20,4120.9024813,N,07038.0533729,W,1,24,0.6,0.200,M,-30.471,M,0.0,*6F
###2023-05-05 14:18:00.734126$GNGGA,181841.20,4120.9024275,N,07038.0502700,W,1,23,0.6,0.015,M,-30.471,M,0.0,*62
###2023-05-05 14:18:02.734188$GNGGA,181843.20,4120.9016080,N,07038.0472728,W,1,24,0.6,-0.112,M,-30.471,M,0.0,*49
###2023-05-05 14:18:04.727505$GNGGA,181845.20,4120.9012716,N,07038.0441906,W,1,24,0.6,-0.043,M,-30.471,M,0.0,*44
###2023-05-05 14:18:06.736130$GNGGA,181847.20,4120.9012296,N,07038.0417451,W,1,24,0.6,0.242,M,-30.471,M,0.0,*69
###2023-05-05 14:18:08.734138$GNGGA,181849.20,4120.9005781,N,07038.0392289,W,1,24,0.6,-0.001,M,-30.471,M,0.0,*43
###2023-05-05 14:18:10.736346$GNGGA,181851.20,4120.9003776,N,07038.0365769,W,1,24,0.6,0.091,M,-30.471,M,0.0,*63
###2023-05-05 14:18:12.737013$GNGGA,181853.20,4120.9012188,N,07038.0340471,W,1,24,0.6,0.067,M,-30.471,M,0.0,*62
###2023-05-05 14:18:14.736874$GNGGA,181855.20,4120.9019697,N,07038.0317369,W,1,24,0.6,0.406,M,-30.471,M,0.0,*69
###2023-05-05 14:18:16.737083$GNGGA,181857.20,4120.9011685,N,07038.0291671,W,1,24,0.6,-0.073,M,-30.471,M,0.0,*48
###2023-05-05 14:18:18.730248$GNGGA,181859.20,4120.9002888,N,07038.0265285,W,1,24,0.6,0.528,M,-30.471,M,0.0,*65
###2023-05-05 14:18:20.736761$GNGGA,181901.20,4120.9014185,N,07038.0241482,W,1,24,0.6,0.401,M,-30.471,M,0.0,*67
###2023-05-05 14:18:22.736918$GNGGA,181903.20,4120.9025291,N,07038.0217950,W,1,24,0.6,0.111,M,-30.471,M,0.0,*64
###2023-05-05 14:18:24.737850$GNGGA,181905.20,4120.9027307,N,07038.0189335,W,1,24,0.6,0.002,M,-30.471,M,0.0,*60
###2023-05-05 14:18:26.734743$GNGGA,181907.20,4120.9017687,N,07038.0160202,W,1,23,0.6,0.316,M,-30.471,M,0.0,*6F
###2023-05-05 14:18:28.735167$GNGGA,181909.20,4120.9003065,N,07038.0132609,W,1,24,0.6,0.005,M,-30.471,M,0.0,*60
###2023-05-05 14:18:30.734579$GNGGA,181911.20,4120.9002675,N,07038.0105245,W,1,23,0.6,0.204,M,-30.470,M,0.0,*62
###2023-05-05 14:18:32.730067$GNGGA,181913.20,4120.8991006,N,07038.0082673,W,1,23,0.6,-0.207,M,-30.471,M,0.0,*40
###2023-05-05 14:18:34.736661$GNGGA,181915.20,4120.8969991,N,07038.0073894,W,1,23,0.6,-0.025,M,-30.471,M,0.0,*4D
###2023-05-05 14:18:36.732136$GNGGA,181917.20,4120.8952185,N,07038.0080706,W,1,23,0.6,0.138,M,-30.471,M,0.0,*62
###2023-05-05 14:18:38.736667$GNGGA,181919.20,4120.8942045,N,07038.0105172,W,1,23,0.6,-0.105,M,-30.471,M,0.0,*4A
###2023-05-05 14:18:40.738248$GNGGA,181921.20,4120.8931155,N,07038.0132929,W,1,24,0.6,-0.194,M,-30.471,M,0.0,*48
###2023-05-05 14:18:42.737885$GNGGA,181923.20,4120.8916453,N,07038.0159063,W,1,23,0.6,-0.392,M,-30.471,M,0.0,*45
###2023-05-05 14:18:44.735487$GNGGA,181925.20,4120.8904815,N,07038.0188302,W,1,23,0.6,0.075,M,-30.471,M,0.0,*61
###2023-05-05 14:18:46.740353$GNGGA,181927.20,4120.8892313,N,07038.0222065,W,1,23,0.6,0.209,M,-30.471,M,0.0,*68
###2023-05-05 14:18:48.737700$GNGGA,181929.20,4120.8878448,N,07038.0254166,W,1,24,0.6,-0.295,M,-30.471,M,0.0,*47
###2023-05-05 14:18:50.737705$GNGGA,181931.20,4120.8862706,N,07038.0283994,W,1,24,0.6,-0.394,M,-30.471,M,0.0,*43
###2023-05-05 14:18:52.740136$GNGGA,181933.20,4120.8849898,N,07038.0317480,W,1,23,0.6,-0.362,M,-30.471,M,0.0,*4A
###2023-05-05 14:18:54.737518$GNGGA,181935.20,4120.8834594,N,07038.0349058,W,1,24,0.6,-0.173,M,-30.471,M,0.0,*48
###2023-05-05 14:18:56.738380$GNGGA,181937.20,4120.8820308,N,07038.0378146,W,1,24,0.6,-0.205,M,-30.472,M,0.0,*41
###2023-05-05 14:18:58.737375$GNGGA,181939.20,4120.8802903,N,07038.0406814,W,1,24,0.6,-0.023,M,-30.472,M,0.0,*48
###2023-05-05 14:19:00.736199$GNGGA,181941.20,4120.8794595,N,07038.0440173,W,1,24,0.6,-0.103,M,-30.472,M,0.0,*4D
###2023-05-05 14:19:02.735238$GNGGA,181943.20,4120.8788863,N,07038.0476249,W,1,23,0.6,-0.189,M,-30.472,M,0.0,*4C
###2023-05-05 14:19:04.736346$GNGGA,181945.20,4120.8781327,N,07038.0508304,W,1,24,0.6,-0.264,M,-30.472,M,0.0,*4F
###2023-05-05 14:19:06.737160$GNGGA,181947.20,4120.8766809,N,07038.0538712,W,1,25,0.6,-0.356,M,-30.472,M,0.0,*42
###2023-05-05 14:19:08.738217$GNGGA,181949.20,4120.8751593,N,07038.0567510,W,1,23,0.6,-0.207,M,-30.472,M,0.0,*4F
###2023-05-05 14:19:10.738131$GNGGA,181951.20,4120.8751138,N,07038.0600996,W,1,23,0.6,-0.094,M,-30.472,M,0.0,*4B
###2023-05-05 14:19:12.738790$GNGGA,181953.20,4120.8750488,N,07038.0649159,W,1,23,0.6,-0.298,M,-30.472,M,0.0,*4E
###2023-05-05 14:19:14.738052$GNGGA,181955.20,4120.8736171,N,07038.0699813,W,1,23,0.6,-0.245,M,-30.472,M,0.0,*41
###2023-05-05 14:19:16.737918$GNGGA,181957.20,4120.8719005,N,07038.0747651,W,1,24,0.6,-0.254,M,-30.473,M,0.0,*40
###2023-05-05 14:19:18.737895$GNGGA,181959.20,4120.8715699,N,07038.0792356,W,1,23,0.6,0.243,M,-30.473,M,0.0,*67
###2023-05-05 14:19:20.740532$GNGGA,182001.20,4120.8720865,N,07038.0835850,W,1,23,0.6,-0.236,M,-30.473,M,0.0,*4B
###2023-05-05 14:19:22.741678$GNGGA,182003.20,4120.8718477,N,07038.0882408,W,1,23,0.6,-0.224,M,-30.473,M,0.0,*43
###2023-05-05 14:19:24.738870$GNGGA,182005.20,4120.8712405,N,07038.0932323,W,1,23,0.6,-0.054,M,-30.473,M,0.0,*4B
###2023-05-05 14:19:26.742230$GNGGA,182007.20,4120.8704153,N,07038.0984054,W,1,23,0.6,0.036,M,-30.473,M,0.0,*6F
###2023-05-05 14:19:28.731128$GNGGA,182009.20,4120.8695351,N,07038.1035399,W,1,23,0.6,0.042,M,-30.473,M,0.0,*6B
###2023-05-05 14:19:30.736807$GNGGA,182011.20,4120.8692281,N,07038.1081496,W,1,23,0.6,-0.050,M,-30.473,M,0.0,*40
###2023-05-05 14:19:32.738724$GNGGA,182013.20,4120.8704098,N,07038.1121312,W,1,23,0.6,-0.003,M,-30.473,M,0.0,*40
###2023-05-05 14:19:34.736691$GNGGA,182015.20,4120.8718185,N,07038.1165851,W,1,23,0.6,0.009,M,-30.473,M,0.0,*6D
###2023-05-05 14:19:36.738662$GNGGA,182017.20,4120.8726138,N,07038.1215579,W,1,23,0.6,0.204,M,-30.473,M,0.0,*68
###2023-05-05 14:19:38.736585$GNGGA,182019.20,4120.8732467,N,07038.1266167,W,1,23,0.6,0.383,M,-30.473,M,0.0,*6D
###2023-05-05 14:19:40.739470$GNGGA,182021.20,4120.8729000,N,07038.1318220,W,1,23,0.6,0.139,M,-30.473,M,0.0,*62
###2023-05-05 14:19:42.738320$GNGGA,182023.20,4120.8714508,N,07038.1364697,W,1,23,0.6,0.028,M,-30.473,M,0.0,*61
###2023-05-05 14:19:44.738408$GNGGA,182025.20,4120.8710924,N,07038.1409099,W,1,23,0.6,0.063,M,-30.474,M,0.0,*6D
###2023-05-05 14:19:46.732819$GNGGA,182027.20,4120.8715591,N,07038.1452113,W,1,23,0.6,0.067,M,-30.474,M,0.0,*61
###2023-05-05 14:19:48.738229$GNGGA,182029.20,4120.8722260,N,07038.1499462,W,1,23,0.6,0.302,M,-30.474,M,0.0,*66
###2023-05-05 14:19:50.739277$GNGGA,182031.20,4120.8735994,N,07038.1547072,W,1,23,0.6,0.343,M,-30.474,M,0.0,*6B
###2023-05-05 14:19:52.739344$GNGGA,182033.20,4120.8743712,N,07038.1595879,W,1,23,0.6,0.167,M,-30.474,M,0.0,*60
###2023-05-05 14:19:54.739383$GNGGA,182035.20,4120.8755691,N,07038.1635658,W,1,23,0.6,0.255,M,-30.474,M,0.0,*6D
###2023-05-05 14:19:56.737322$GNGGA,182037.20,4120.8768312,N,07038.1683210,W,1,23,0.6,0.370,M,-30.474,M,0.0,*6C
###2023-05-05 14:19:58.738426$GNGGA,182039.20,4120.8771047,N,07038.1733691,W,1,23,0.6,0.336,M,-30.474,M,0.0,*6C
###2023-05-05 14:20:00.738278$GNGGA,182041.20,4120.8762369,N,07038.1783967,W,1,23,0.6,0.413,M,-30.474,M,0.0,*63
###2023-05-05 14:20:02.738102$GNGGA,182043.20,4120.8764452,N,07038.1830765,W,1,23,0.6,0.236,M,-30.474,M,0.0,*62
###2023-05-05 14:20:04.738067$GNGGA,182045.20,4120.8766462,N,07038.1879794,W,1,23,0.6,0.350,M,-30.474,M,0.0,*67
###2023-05-05 14:20:06.738989$GNGGA,182047.20,4120.8770820,N,07038.1931637,W,1,23,0.6,0.784,M,-30.474,M,0.0,*60
###2023-05-05 14:20:08.743681$GNGGA,182049.20,4120.8773994,N,07038.1976633,W,1,24,0.6,0.467,M,-30.474,M,0.0,*6D
###2023-05-05 14:20:10.738985$GNGGA,182051.20,4120.8783867,N,07038.2013788,W,1,23,0.6,0.195,M,-30.474,M,0.0,*61
###2023-05-05 14:20:12.739627$GNGGA,182053.20,4120.8794053,N,07038.2051694,W,1,23,0.6,0.048,M,-30.474,M,0.0,*61
###2023-05-05 14:20:14.732365$GNGGA,182055.20,4120.8797714,N,07038.2092519,W,1,23,0.6,0.115,M,-30.474,M,0.0,*60
###2023-05-05 14:20:16.740070$GNGGA,182057.20,4120.8794471,N,07038.2139628,W,1,23,0.6,0.403,M,-30.474,M,0.0,*62
###2023-05-05 14:20:18.738812$GNGGA,182059.20,4120.8780577,N,07038.2185368,W,1,23,0.6,0.837,M,-30.474,M,0.0,*63
###2023-05-05 14:20:20.739928$GNGGA,182101.20,4120.8766610,N,07038.2231025,W,1,23,0.6,0.345,M,-30.475,M,0.0,*6C
###2023-05-05 14:20:22.738807$GNGGA,182103.20,4120.8748323,N,07038.2272160,W,1,23,0.6,0.267,M,-30.475,M,0.0,*61
###2023-05-05 14:20:24.740153$GNGGA,182105.20,4120.8749484,N,07038.2313257,W,1,23,0.6,0.564,M,-30.475,M,0.0,*69
###2023-05-05 14:20:26.739707$GNGGA,182107.20,4120.8752775,N,07038.2353172,W,1,23,0.6,0.400,M,-30.475,M,0.0,*6F
###2023-05-05 14:20:28.736638$GNGGA,182109.20,4120.8752305,N,07038.2372609,W,1,23,0.6,0.579,M,-30.475,M,0.0,*65
###2023-05-05 14:20:30.738742$GNGGA,182111.20,4120.8758391,N,07038.2391984,W,1,23,0.6,0.540,M,-30.475,M,0.0,*66
###2023-05-05 14:20:32.730998$GNGGA,182113.20,4120.8757620,N,07038.2405390,W,1,24,0.6,0.405,M,-30.475,M,0.0,*66
###2023-05-05 14:20:34.738261$GNGGA,182115.20,4120.8754761,N,07038.2414147,W,1,24,0.6,0.352,M,-30.475,M,0.0,*6A
###2023-05-05 14:20:36.740658$GNGGA,182117.20,4120.8755075,N,07038.2420244,W,1,23,0.6,0.293,M,-30.475,M,0.0,*67
###2023-05-05 14:20:38.739499$GNGGA,182119.20,4120.8756613,N,07038.2426496,W,1,23,0.6,0.149,M,-30.475,M,0.0,*67
###2023-05-05 14:20:40.739424$GNGGA,182121.20,4120.8760993,N,07038.2433519,W,1,23,0.6,0.469,M,-30.475,M,0.0,*6B
###2023-05-05 14:20:42.740477$GNGGA,182123.20,4120.8764583,N,07038.2441772,W,1,23,0.6,0.261,M,-30.475,M,0.0,*64
###2023-05-05 14:20:44.739974$GNGGA,182125.20,4120.8761170,N,07038.2446092,W,1,23,0.6,0.473,M,-30.475,M,0.0,*64
###2023-05-05 14:20:46.739365$GNGGA,182127.20,4120.8756435,N,07038.2448267,W,1,23,0.6,0.396,M,-30.475,M,0.0,*6C
