###2023-05-05 13:37:38.683798$GNGGA,173819.20,4120.8194478,N,07038.2170198,W,1,24,0.6,0.010,M,-30.477,M,0.0,*62
###2023-05-05 13:37:40.684842$GNGGA,173821.20,4120.8190401,N,07038.2199406,W,1,24,0.6,-0.255,M,-30.477,M,0.0,*48
###2023-05-05 13:37:42.686827$GNGGA,173823.20,4120.8195352,N,07038.2227192,W,1,24,0.6,-0.431,M,-30.477,M,0.0,*44
###2023-05-05 13:37:44.684684$GNGGA,173825.20,4120.8193594,N,07038.2255078,W,1,24,0.6,-0.527,M,-30.477,M,0.0,*4E
###2023-05-05 13:37:46.684721$GNGGA,173827.20,4120.8192629,N,07038.2283957,W,1,24,0.6,-0.420,M,-30.477,M,0.0,*41
###2023-05-05 13:37:48.686574$GNGGA,173829.20,4120.8195144,N,07038.2312009,W,1,24,0.6,0.177,M,-30.477,M,0.0,*65
###2023-05-05 13:37:50.684715$GNGGA,173831.20,4120.8187866,N,07038.2342105,W,1,24,0.6,-0.130,M,-30.477,M,0.0,*40
###2023-05-05 13:37:52.685611$GNGGA,173833.20,4120.8174844,N,07038.2366831,W,1,24,0.6,-0.313,M,-30.477,M,0.0,*45
###2023-05-05 13:37:54.684642$GNGGA,173835.20,4120.8169888,N,07038.2394938,W,1,24,0.6,-0.425,M,-30.477,M,0.0,*48
###2023-05-05 13:37:56.683558$GNGGA,173837.20,4120.8177454,N,07038.2419768,W,1,24,0.6,-0.368,M,-30.477,M,0.0,*4F
###2023-05-05 13:37:58.683192$GNGGA,173839.20,4120.8188981,N,07038.2443907,W,1,24,0.6,0.119,M,-30.477,M,0.0,*65
###2023-05-05 13:38:00.677576$GNGGA,173841.20,4120.8189079,N,07038.2475111,W,1,24,0.6,-0.153,M,-30.477,M,0.0,*4C
###2023-05-05 13:38:02.682602$GNGGA,173843.20,4120.8184411,N,07038.2503434,W,1,24,0.6,-0.146,M,-30.477,M,0.0,*4F
###2023-05-05 13:38:04.683132$GNGGA,173845.20,4120.8187092,N,07038.2530832,W,1,24,0.6,-0.244,M,-30.477,M,0.0,*4E
###2023-05-05 13:38:06.684428$GNGGA,173847.20,4120.8189839,N,07038.2559921,W,1,24,0.6,-0.348,M,-30.477,M,0.0,*4A
###2023-05-05 13:38:08.685393$GNGGA,173849.20,4120.8192448,N,07038.2589059,W,1,24,0.6,-0.062,M,-30.477,M,0.0,*44
###2023-05-05 13:38:10.684157$GNGGA,173851.20,4120.8190423,N,07038.2619252,W,1,24,0.6,-0.135,M,-30.477,M,0.0,*42
###2023-05-05 13:38:12.686333$GNGGA,173853.20,4120.8188401,N,07038.2647106,W,1,24,0.6,-0.255,M,-30.477,M,0.0,*45
###2023-05-05 13:38:14.683219$GNGGA,173855.20,4120.8191451,N,07038.2675787,W,1,24,0.6,-0.090,M,-30.477,M,0.0,*4B
###2023-05-05 13:38:16.685105$GNGGA,173857.20,4120.8193455,N,07038.2704667,W,1,24,0.6,0.030,M,-30.477,M,0.0,*60
###2023-05-05 13:38:18.686205$GNGGA,173859.20,4120.8191997,N,07038.2733712,W,1,24,0.6,-0.049,M,-30.477,M,0.0,*4B
###2023-05-05 13:38:20.684170$GNGGA,173901.20,4120.8193149,N,07038.2762611,W,1,24,0.6,-0.088,M,-30.477,M,0.0,*45
###2023-05-05 13:38:22.683956$GNGGA,173903.20,4120.8192835,N,07038.2789864,W,1,24,0.6,-0.248,M,-30.477,M,0.0,*43
###2023-05-05 13:38:24.685269$GNGGA,173905.20,4120.8192228,N,07038.2819390,W,1,24,0.6,-0.142,M,-30.478,M,0.0,*43
###2023-05-05 13:38:26.685016$GNGGA,173907.20,4120.8192220,N,07038.2847500,W,1,24,0.6,-0.189,M,-30.478,M,0.0,*4A
###2023-05-05 13:38:28.682590$GNGGA,173909.20,4120.8197121,N,07038.2876995,W,1,24,0.6,0.448,M,-30.478,M,0.0,*64
###2023-05-05 13:38:30.683000$GNGGA,173911.20,4120.8192895,N,07038.2908008,W,1,24,0.6,-0.037,M,-30.478,M,0.0,*4A
###2023-05-05 13:38:32.682287$GNGGA,173913.20,4120.8189244,N,07038.2936330,W,1,24,0.6,-0.154,M,-30.478,M,0.0,*45
###2023-05-05 13:38:34.682211$GNGGA,173915.20,4120.8191457,N,07038.2965069,W,1,24,0.6,-0.112,M,-30.478,M,0.0,*45
###2023-05-05 13:38:36.683748$GNGGA,173917.20,4120.8192284,N,07038.2992433,W,1,24,0.6,-0.252,M,-30.478,M,0.0,*48
###2023-05-05 13:38:38.685968$GNGGA,173919.20,4120.8193698,N,07038.3021812,W,1,24,0.6,-0.186,M,-30.478,M,0.0,*4B
###2023-05-05 13:38:40.685643$GNGGA,173921.20,4120.8196844,N,07038.3052706,W,1,24,0.6,0.377,M,-30.478,M,0.0,*65
###2023-05-05 13:38:42.685718$GNGGA,173923.20,4120.8190444,N,07038.3081734,W,1,24,0.6,-0.132,M,-30.478,M,0.0,*4C
###2023-05-05 13:38:44.686769$GNGGA,173925.20,4120.8187245,N,07038.3110609,W,1,24,0.6,-0.165,M,-30.478,M,0.0,*4F
###2023-05-05 13:38:46.683604$GNGGA,173927.20,4120.8190014,N,07038.3136919,W,1,24,0.6,-0.164,M,-30.478,M,0.0,*46
###2023-05-05 13:38:48.685600$GNGGA,173929.20,4120.8191173,N,07038.3165713,W,1,24,0.6,-0.358,M,-30.478,M,0.0,*46
###2023-05-05 13:38:50.682672$GNGGA,173931.20,4120.8192700,N,07038.3196453,W,1,24,0.6,-0.331,M,-30.478,M,0.0,*4A
###2023-05-05 13:38:52.684455$GNGGA,173933.20,4120.8195537,N,07038.3227971,W,1,24,0.6,0.016,M,-30.478,M,0.0,*66
###2023-05-05 13:38:54.683690$GNGGA,173935.20,4120.8188153,N,07038.3256513,W,1,24,0.6,-0.347,M,-30.478,M,0.0,*4E
###2023-05-05 13:38:56.684430$GNGGA,173937.20,4120.8189927,N,07038.3284052,W,1,24,0.6,-0.350,M,-30.478,M,0.0,*4F
###2023-05-05 13:38:58.682110$GNGGA,173939.20,4120.8189893,N,07038.3312979,W,1,24,0.6,-0.339,M,-30.478,M,0.0,*4E
###2023-05-05 13:39:00.684025$GNGGA,173941.20,4120.8191370,N,07038.3341223,W,1,24,0.6,-0.293,M,-30.478,M,0.0,*4D
###2023-05-05 13:39:02.681396$GNGGA,173943.20,4120.8195451,N,07038.3371582,W,1,24,0.6,0.093,M,-30.478,M,0.0,*6F
###2023-05-05 13:39:04.682495$GNGGA,173945.20,4120.8190212,N,07038.3401628,W,1,24,0.6,-0.305,M,-30.478,M,0.0,*4F
###2023-05-05 13:39:06.683681$GNGGA,173947.20,4120.8189925,N,07038.3428355,W,1,24,0.6,-0.449,M,-30.478,M,0.0,*41
###2023-05-05 13:39:08.681448$GNGGA,173949.20,4120.8190665,N,07038.3457430,W,1,24,0.6,-0.522,M,-30.478,M,0.0,*4C
###2023-05-05 13:39:10.684021$GNGGA,173951.20,4120.8191574,N,07038.3486711,W,1,24,0.6,-0.366,M,-30.479,M,0.0,*4C
###2023-05-05 13:39:12.685164$GNGGA,173953.20,4120.8192691,N,07038.3516394,W,1,24,0.6,0.098,M,-30.479,M,0.0,*6B
###2023-05-05 13:39:14.685041$GNGGA,173955.20,4120.8189814,N,07038.3547448,W,1,24,0.6,-0.116,M,-30.479,M,0.0,*4C
###2023-05-05 13:39:16.683134$GNGGA,173957.20,4120.8191478,N,07038.3574760,W,1,24,0.6,-0.363,M,-30.479,M,0.0,*48
###2023-05-05 13:39:18.685930$GNGGA,173959.20,4120.8191104,N,07038.3603518,W,1,24,0.6,-0.371,M,-30.479,M,0.0,*45
###2023-05-05 13:39:20.684862$GNGGA,174001.20,4120.8192878,N,07038.3632551,W,1,24,0.6,-0.249,M,-30.479,M,0.0,*42
###2023-05-05 13:39:22.683830$GNGGA,174003.20,4120.8191287,N,07038.3662849,W,1,23,0.6,-0.281,M,-30.479,M,0.0,*4B
###2023-05-05 13:39:24.683794$GNGGA,174005.20,4120.8191038,N,07038.3691274,W,1,23,0.6,-0.375,M,-30.479,M,0.0,*49
###2023-05-05 13:39:26.682224$GNGGA,174007.20,4120.8190513,N,07038.3719184,W,1,23,0.6,-0.435,M,-30.479,M,0.0,*48
###2023-05-05 13:39:28.681058$GNGGA,174009.20,4120.8190083,N,07038.3748514,W,1,23,0.6,-0.503,M,-30.479,M,0.0,*47
###2023-05-05 13:39:30.682156$GNGGA,174011.20,4120.8190167,N,07038.3778549,W,1,23,0.6,-0.408,M,-30.479,M,0.0,*44
###2023-05-05 13:39:32.683093$GNGGA,174013.20,4120.8199808,N,07038.3809367,W,1,23,0.6,0.574,M,-30.479,M,0.0,*6B
###2023-05-05 13:39:34.682022$GNGGA,174015.20,4120.8196488,N,07038.3836510,W,1,23,0.6,-0.235,M,-30.479,M,0.0,*43
###2023-05-05 13:39:36.683617$GNGGA,174017.20,4120.8183404,N,07038.3861027,W,1,23,0.6,-0.324,M,-30.479,M,0.0,*43
###2023-05-05 13:39:38.683479$GNGGA,174019.20,4120.8176603,N,07038.3886823,W,1,23,0.6,-0.560,M,-30.479,M,0.0,*41
###2023-05-05 13:39:40.685714$GNGGA,174021.20,4120.8179605,N,07038.3913380,W,1,23,0.6,-0.297,M,-30.479,M,0.0,*43
###2023-05-05 13:39:42.684696$GNGGA,174023.20,4120.8195277,N,07038.3938387,W,1,23,0.6,0.292,M,-30.479,M,0.0,*64
###2023-05-05 13:39:44.677786$GNGGA,174025.20,4120.8194081,N,07038.3967511,W,1,23,0.6,-0.366,M,-30.479,M,0.0,*4C
###2023-05-05 13:39:46.684380$GNGGA,174027.20,4120.8191570,N,07038.3996413,W,1,23,0.6,-0.418,M,-30.479,M,0.0,*43
###2023-05-05 13:39:48.683680$GNGGA,174029.20,4120.8190471,N,07038.4024063,W,1,23,0.6,-0.474,M,-30.479,M,0.0,*42
###2023-05-05 13:39:50.685310$GNGGA,174031.20,4120.8197936,N,07038.4049117,W,1,23,0.6,-0.453,M,-30.479,M,0.0,*4E
###2023-05-05 13:39:52.685277$GNGGA,174033.20,4120.8216143,N,07038.4060201,W,1,23,0.6,-0.556,M,-30.479,M,0.0,*47
###2023-05-05 13:39:54.684209$GNGGA,174035.20,4120.8234732,N,07038.4052877,W,1,23,0.6,-0.442,M,-30.479,M,0.0,*4F
###2023-05-05 13:39:56.685257$GNGGA,174037.20,4120.8257255,N,07038.4043732,W,1,23,0.6,-0.137,M,-30.479,M,0.0,*45
###2023-05-05 13:39:58.679606$GNGGA,174039.20,4120.8285201,N,07038.4041627,W,1,23,0.6,-0.070,M,-30.479,M,0.0,*40
###2023-05-05 13:40:00.683468$GNGGA,174041.20,4120.8307522,N,07038.4038774,W,1,23,0.6,-0.154,M,-30.479,M,0.0,*4C
###2023-05-05 13:40:02.683075$GNGGA,174043.20,4120.8320581,N,07038.4021715,W,1,23,0.6,-0.216,M,-30.479,M,0.0,*48
###2023-05-05 13:40:04.683998$GNGGA,174045.20,4120.8325623,N,07038.3996092,W,1,23,0.6,-0.266,M,-30.479,M,0.0,*4D
###2023-05-05 13:40:06.684353$GNGGA,174047.20,4120.8318978,N,07038.3970569,W,1,23,0.6,-0.430,M,-30.479,M,0.0,*4C
###2023-05-05 13:40:08.675770$GNGGA,174049.20,4120.8314132,N,07038.3949677,W,1,21,0.6,-0.408,M,-30.479,M,0.0,*47
###2023-05-05 13:40:10.685962$GNGGA,174051.20,4120.8293235,N,07038.3935287,W,1,23,0.6,-0.272,M,-30.479,M,0.0,*4D
###2023-05-05 13:40:12.684922$GNGGA,174053.20,4120.8277623,N,07038.3908667,W,1,23,0.6,-0.093,M,-30.479,M,0.0,*4F
###2023-05-05 13:40:14.684199$GNGGA,174055.20,4120.8284148,N,07038.3876334,W,1,23,0.6,-0.350,M,-30.479,M,0.0,*48
###2023-05-05 13:40:16.685797$GNGGA,174057.20,4120.8289258,N,07038.3847519,W,1,23,0.6,-0.284,M,-30.479,M,0.0,*46
###2023-05-05 13:40:18.684118$GNGGA,174059.20,4120.8291299,N,07038.3819168,W,1,23,0.6,-0.438,M,-30.479,M,0.0,*44
###2023-05-05 13:40:20.679944$GNGGA,174101.20,4120.8316608,N,07038.3813799,W,1,22,0.6,0.816,M,-30.479,M,0.0,*64
###2023-05-05 13:40:22.680926$GNGGA,174103.20,4120.8358374,N,07038.3819894,W,1,22,0.6,0.828,M,-30.478,M,0.0,*66
###2023-05-05 13:40:24.679016$GNGGA,174105.20,4120.8392505,N,07038.3828874,W,1,21,0.7,0.232,M,-30.478,M,0.0,*69
###2023-05-05 13:40:26.684485$GNGGA,174107.20,4120.8411989,N,07038.3826042,W,1,23,0.6,0.849,M,-30.478,M,0.0,*69
###2023-05-05 13:40:28.683986$GNGGA,174109.20,4120.8423637,N,07038.3817052,W,1,23,0.6,0.986,M,-30.478,M,0.0,*6D
###2023-05-05 13:40:30.683902$GNGGA,174111.20,4120.8421260,N,07038.3792812,W,1,23,0.6,0.118,M,-30.478,M,0.0,*61
###2023-05-05 13:40:32.684493$GNGGA,174113.20,4120.8405922,N,07038.3771446,W,1,23,0.6,0.012,M,-30.478,M,0.0,*63
###2023-05-05 13:40:34.681706$GNGGA,174115.20,4120.8395256,N,07038.3744455,W,1,23,0.6,0.176,M,-30.478,M,0.0,*64
###2023-05-05 13:40:36.685038$GNGGA,174117.20,4120.8378070,N,07038.3718458,W,1,23,0.6,0.231,M,-30.478,M,0.0,*67
###2023-05-05 13:40:38.681932$GNGGA,174119.20,4120.8361786,N,07038.3698396,W,1,20,0.7,0.317,M,-30.478,M,0.0,*64
###2023-05-05 13:40:40.683951$GNGGA,174121.20,4120.8352648,N,07038.3680318,W,1,23,0.6,0.603,M,-30.478,M,0.0,*61
###2023-05-05 13:40:42.685448$GNGGA,174123.20,4120.8336592,N,07038.3660026,W,1,23,0.6,0.527,M,-30.478,M,0.0,*60
###2023-05-05 13:40:44.682027$GNGGA,174125.20,4120.8320581,N,07038.3642497,W,1,23,0.6,0.606,M,-30.478,M,0.0,*6D
###2023-05-05 13:40:46.686045$GNGGA,174127.20,4120.8308334,N,07038.3621924,W,1,23,0.6,0.668,M,-30.478,M,0.0,*65
###2023-05-05 13:40:48.685542$GNGGA,174129.20,4120.8301538,N,07038.3597429,W,1,23,0.6,0.234,M,-30.478,M,0.0,*6B
###2023-05-05 13:40:50.686335$GNGGA,174131.20,4120.8297813,N,07038.3570759,W,1,23,0.6,0.199,M,-30.478,M,0.0,*61
###2023-05-05 13:40:52.685216$GNGGA,174133.20,4120.8294838,N,07038.3542648,W,1,23,0.6,0.013,M,-30.478,M,0.0,*6A
###2023-05-05 13:40:54.685283$GNGGA,174135.20,4120.8294050,N,07038.3513263,W,1,23,0.6,-0.114,M,-30.478,M,0.0,*48
###2023-05-05 13:40:56.685415$GNGGA,174137.20,4120.8295479,N,07038.3482829,W,1,23,0.6,0.204,M,-30.478,M,0.0,*66
