###2023-05-05 13:17:38.659519$GNGGA,171819.20,4120.6502311,N,07038.2524352,W,1,25,0.6,-0.212,M,-30.483,M,0.0,*4B
###2023-05-05 13:17:40.655179$GNGGA,171821.20,4120.6477048,N,07038.2524945,W,1,25,0.6,-0.262,M,-30.484,M,0.0,*40
###2023-05-05 13:17:42.659387$GNGGA,171823.20,4120.6451566,N,07038.2525330,W,1,25,0.6,-0.265,M,-30.484,M,0.0,*41
###2023-05-05 13:17:44.659332$GNGGA,171825.20,4120.6426278,N,07038.2525726,W,1,25,0.6,0.002,M,-30.484,M,0.0,*62
###2023-05-05 13:17:46.659250$GNGGA,171827.20,4120.6401455,N,07038.2526768,W,1,25,0.6,0.157,M,-30.484,M,0.0,*64
###2023-05-05 13:17:48.660323$GNGGA,171829.20,4120.6375584,N,07038.2525364,W,1,25,0.6,-0.495,M,-30.484,M,0.0,*4E
###2023-05-05 13:17:50.659215$GNGGA,171831.20,4120.6349233,N,07038.2526351,W,1,25,0.6,-0.310,M,-30.484,M,0.0,*4C
###2023-05-05 13:17:52.659098$GNGGA,171833.20,4120.6323764,N,07038.2527012,W,1,25,0.6,0.208,M,-30.484,M,0.0,*65
###2023-05-05 13:17:54.660290$GNGGA,171835.20,4120.6300975,N,07038.2526607,W,1,25,0.6,-0.170,M,-30.484,M,0.0,*4E
###2023-05-05 13:17:56.659246$GNGGA,171837.20,4120.6276616,N,07038.2526552,W,1,25,0.6,-0.451,M,-30.484,M,0.0,*43
###2023-05-05 13:17:58.657186$GNGGA,171839.20,4120.6255192,N,07038.2520241,W,1,25,0.6,-0.003,M,-30.484,M,0.0,*47
###2023-05-05 13:18:00.658708$GNGGA,171841.20,4120.6238268,N,07038.2505272,W,1,25,0.6,-0.168,M,-30.484,M,0.0,*4E
###2023-05-05 13:18:02.658078$GNGGA,171843.20,4120.6227093,N,07038.2482256,W,1,24,0.6,-0.281,M,-30.484,M,0.0,*49
###2023-05-05 13:18:04.657760$GNGGA,171845.20,4120.6224841,N,07038.2454494,W,1,24,0.6,-0.335,M,-30.484,M,0.0,*46
###2023-05-05 13:18:06.661019$GNGGA,171847.20,4120.6233994,N,07038.2431790,W,1,24,0.6,-0.260,M,-30.484,M,0.0,*4E
###2023-05-05 13:18:08.660270$GNGGA,171849.20,4120.6249459,N,07038.2410046,W,1,24,0.6,-0.179,M,-30.484,M,0.0,*45
###2023-05-05 13:18:10.660044$GNGGA,171851.20,4120.6265170,N,07038.2381750,W,1,24,0.6,-0.084,M,-30.484,M,0.0,*40
###2023-05-05 13:18:12.660150$GNGGA,171853.20,4120.6271385,N,07038.2345747,W,1,24,0.6,-0.386,M,-30.484,M,0.0,*40
###2023-05-05 13:18:14.659914$GNGGA,171855.20,4120.6271631,N,07038.2313351,W,1,24,0.6,-0.218,M,-30.484,M,0.0,*4A
###2023-05-05 13:18:16.659954$GNGGA,171857.20,4120.6270735,N,07038.2283821,W,1,24,0.6,-0.312,M,-30.484,M,0.0,*43
###2023-05-05 13:18:18.660914$GNGGA,171859.20,4120.6270161,N,07038.2256392,W,1,24,0.6,-0.283,M,-30.484,M,0.0,*48
###2023-05-05 13:18:20.660958$GNGGA,171901.20,4120.6271184,N,07038.2228496,W,1,24,0.6,-0.100,M,-30.484,M,0.0,*4C
###2023-05-05 13:18:22.659889$GNGGA,171903.20,4120.6273329,N,07038.2200811,W,1,24,0.6,0.160,M,-30.484,M,0.0,*6B
###2023-05-05 13:18:24.660648$GNGGA,171905.20,4120.6272195,N,07038.2171453,W,1,24,0.6,-0.270,M,-30.484,M,0.0,*49
###2023-05-05 13:18:26.654098$GNGGA,171907.20,4120.6273224,N,07038.2142317,W,1,24,0.6,-0.427,M,-30.484,M,0.0,*40
###2023-05-05 13:18:28.658403$GNGGA,171909.20,4120.6273493,N,07038.2113458,W,1,23,0.6,-0.173,M,-30.484,M,0.0,*4F
###2023-05-05 13:18:30.661355$GNGGA,171911.20,4120.6274308,N,07038.2084229,W,1,24,0.6,-0.196,M,-30.484,M,0.0,*47
###2023-05-05 13:18:32.659358$GNGGA,171913.20,4120.6273984,N,07038.2054426,W,1,24,0.6,-0.177,M,-30.484,M,0.0,*47
###2023-05-05 13:18:34.662532$GNGGA,171915.20,4120.6273584,N,07038.2024823,W,1,24,0.6,-0.385,M,-30.484,M,0.0,*4C
###2023-05-05 13:18:36.662508$GNGGA,171917.20,4120.6272555,N,07038.1995828,W,1,24,0.6,-0.437,M,-30.484,M,0.0,*46
###2023-05-05 13:18:38.659269$GNGGA,171919.20,4120.6272068,N,07038.1967313,W,1,24,0.6,-0.297,M,-30.483,M,0.0,*46
###2023-05-05 13:18:40.662207$GNGGA,171921.20,4120.6272495,N,07038.1938371,W,1,24,0.6,-0.238,M,-30.483,M,0.0,*40
###2023-05-05 13:18:42.662048$GNGGA,171923.20,4120.6273402,N,07038.1910226,W,1,24,0.6,0.069,M,-30.483,M,0.0,*6F
###2023-05-05 13:18:44.658970$GNGGA,171925.20,4120.6274772,N,07038.1882313,W,1,24,0.6,0.091,M,-30.483,M,0.0,*60
###2023-05-05 13:18:46.662234$GNGGA,171927.20,4120.6274659,N,07038.1854135,W,1,24,0.6,-0.077,M,-30.483,M,0.0,*42
###2023-05-05 13:18:48.657715$GNGGA,171929.20,4120.6276003,N,07038.1824353,W,1,24,0.6,-0.172,M,-30.483,M,0.0,*46
###2023-05-05 13:18:50.661280$GNGGA,171931.20,4120.6275216,N,07038.1795202,W,1,24,0.6,-0.180,M,-30.483,M,0.0,*47
###2023-05-05 13:18:52.663316$GNGGA,171933.20,4120.6275266,N,07038.1766369,W,1,24,0.6,-0.193,M,-30.483,M,0.0,*40
###2023-05-05 13:18:54.663119$GNGGA,171935.20,4120.6274838,N,07038.1737804,W,1,24,0.6,-0.058,M,-30.483,M,0.0,*44
###2023-05-05 13:18:56.661156$GNGGA,171937.20,4120.6282757,N,07038.1711160,W,1,24,0.6,-0.457,M,-30.483,M,0.0,*4D
###2023-05-05 13:18:58.660986$GNGGA,171939.20,4120.6301264,N,07038.1699795,W,1,24,0.6,-0.423,M,-30.483,M,0.0,*42
###2023-05-05 13:19:00.661920$GNGGA,171941.20,4120.6323727,N,07038.1708358,W,1,24,0.6,-0.212,M,-30.483,M,0.0,*47
###2023-05-05 13:19:02.652560$GNGGA,171943.20,4120.6344225,N,07038.1714307,W,1,24,0.6,-0.273,M,-30.483,M,0.0,*43
###2023-05-05 13:19:04.660658$GNGGA,171945.20,4120.6364904,N,07038.1720731,W,1,24,0.6,-0.266,M,-30.483,M,0.0,*4D
###2023-05-05 13:19:06.664006$GNGGA,171947.20,4120.6384824,N,07038.1721922,W,1,24,0.6,-0.105,M,-30.483,M,0.0,*49
###2023-05-05 13:19:08.660984$GNGGA,171949.20,4120.6405045,N,07038.1721523,W,1,24,0.6,-0.269,M,-30.483,M,0.0,*42
###2023-05-05 13:19:10.663022$GNGGA,171951.20,4120.6427121,N,07038.1720774,W,1,24,0.6,-0.484,M,-30.483,M,0.0,*4C
###2023-05-05 13:19:12.661868$GNGGA,171953.20,4120.6450980,N,07038.1720559,W,1,24,0.6,-0.687,M,-30.482,M,0.0,*40
###2023-05-05 13:19:14.660848$GNGGA,171955.20,4120.6476396,N,07038.1720801,W,1,24,0.6,-0.643,M,-30.482,M,0.0,*47
###2023-05-05 13:19:16.661704$GNGGA,171957.20,4120.6502325,N,07038.1724964,W,1,24,0.6,-0.192,M,-30.482,M,0.0,*42
###2023-05-05 13:19:18.656345$GNGGA,171959.20,4120.6526601,N,07038.1726352,W,1,24,0.6,-0.226,M,-30.482,M,0.0,*48
###2023-05-05 13:19:20.660811$GNGGA,172001.20,4120.6550242,N,07038.1727757,W,1,24,0.6,-0.378,M,-30.482,M,0.0,*47
###2023-05-05 13:19:22.661827$GNGGA,172003.20,4120.6574346,N,07038.1728886,W,1,24,0.6,-0.693,M,-30.482,M,0.0,*4A
###2023-05-05 13:19:24.661645$GNGGA,172005.20,4120.6599751,N,07038.1727500,W,1,24,0.6,-0.763,M,-30.482,M,0.0,*4F
###2023-05-05 13:19:26.661518$GNGGA,172007.20,4120.6626341,N,07038.1728340,W,1,24,0.6,-0.632,M,-30.482,M,0.0,*47
###2023-05-05 13:19:28.654667$GNGGA,172009.20,4120.6652677,N,07038.1729783,W,1,24,0.6,-0.494,M,-30.482,M,0.0,*4E
###2023-05-05 13:19:30.660693$GNGGA,172011.20,4120.6678837,N,07038.1731762,W,1,24,0.6,-0.366,M,-30.482,M,0.0,*49
###2023-05-05 13:19:32.660298$GNGGA,172013.20,4120.6705734,N,07038.1733641,W,1,24,0.6,-0.201,M,-30.482,M,0.0,*4E
###2023-05-05 13:19:34.660238$GNGGA,172015.20,4120.6732561,N,07038.1733697,W,1,24,0.6,-0.368,M,-30.481,M,0.0,*48
###2023-05-05 13:19:36.661241$GNGGA,172017.20,4120.6759386,N,07038.1735752,W,1,24,0.6,-0.641,M,-30.481,M,0.0,*48
###2023-05-05 13:19:38.659271$GNGGA,172019.20,4120.6786203,N,07038.1737081,W,1,24,0.6,-0.628,M,-30.481,M,0.0,*4C
###2023-05-05 13:19:40.662455$GNGGA,172021.20,4120.6814282,N,07038.1737265,W,1,24,0.6,-0.419,M,-30.481,M,0.0,*42
###2023-05-05 13:19:42.662361$GNGGA,172023.20,4120.6842320,N,07038.1738196,W,1,24,0.6,-0.392,M,-30.481,M,0.0,*4E
###2023-05-05 13:19:44.662335$GNGGA,172025.20,4120.6870303,N,07038.1739237,W,1,25,0.6,-0.511,M,-30.481,M,0.0,*4D
###2023-05-05 13:19:46.662367$GNGGA,172027.20,4120.6897946,N,07038.1739464,W,1,24,0.6,-0.719,M,-30.481,M,0.0,*46
###2023-05-05 13:19:48.662298$GNGGA,172029.20,4120.6927632,N,07038.1740066,W,1,24,0.6,-0.661,M,-30.481,M,0.0,*48
###2023-05-05 13:19:50.663161$GNGGA,172031.20,4120.6957912,N,07038.1741433,W,1,24,0.6,-0.484,M,-30.481,M,0.0,*47
###2023-05-05 13:19:52.663329$GNGGA,172033.20,4120.6987752,N,07038.1744679,W,1,24,0.6,-0.361,M,-30.480,M,0.0,*46
###2023-05-05 13:19:54.662130$GNGGA,172035.20,4120.7015214,N,07038.1746155,W,1,24,0.6,-0.742,M,-30.480,M,0.0,*4A
###2023-05-05 13:19:56.662272$GNGGA,172037.20,4120.7042580,N,07038.1746798,W,1,24,0.6,-0.775,M,-30.480,M,0.0,*43
###2023-05-05 13:19:58.660791$GNGGA,172039.20,4120.7070428,N,07038.1744863,W,1,24,0.6,-0.660,M,-30.480,M,0.0,*43
###2023-05-05 13:20:00.661451$GNGGA,172041.20,4120.7100037,N,07038.1743480,W,1,24,0.6,-0.572,M,-30.480,M,0.0,*46
###2023-05-05 13:20:02.661755$GNGGA,172043.20,4120.7131906,N,07038.1745835,W,1,24,0.6,-0.380,M,-30.480,M,0.0,*42
###2023-05-05 13:20:04.661835$GNGGA,172045.20,4120.7162793,N,07038.1751008,W,1,24,0.6,-0.328,M,-30.480,M,0.0,*41
###2023-05-05 13:20:06.662851$GNGGA,172047.20,4120.7190978,N,07038.1753370,W,1,24,0.6,-0.369,M,-30.480,M,0.0,*4E
###2023-05-05 13:20:08.657273$GNGGA,172049.20,4120.7217206,N,07038.1753035,W,1,24,0.6,-0.455,M,-30.480,M,0.0,*44
###2023-05-05 13:20:10.662896$GNGGA,172051.20,4120.7244225,N,07038.1750907,W,1,24,0.6,-0.470,M,-30.480,M,0.0,*46
###2023-05-05 13:20:12.662859$GNGGA,172053.20,4120.7274803,N,07038.1750052,W,1,24,0.6,-0.442,M,-30.479,M,0.0,*47
###2023-05-05 13:20:14.662780$GNGGA,172055.20,4120.7306313,N,07038.1752344,W,1,24,0.6,-0.464,M,-30.479,M,0.0,*4D
###2023-05-05 13:20:16.662823$GNGGA,172057.20,4120.7337351,N,07038.1755860,W,1,23,0.6,-0.363,M,-30.479,M,0.0,*46
###2023-05-05 13:20:18.662670$GNGGA,172059.20,4120.7366353,N,07038.1759001,W,1,23,0.6,-0.175,M,-30.479,M,0.0,*48
###2023-05-05 13:20:20.663683$GNGGA,172101.20,4120.7392634,N,07038.1760213,W,1,23,0.6,-0.343,M,-30.479,M,0.0,*47
###2023-05-05 13:20:22.662750$GNGGA,172103.20,4120.7418786,N,07038.1758337,W,1,23,0.6,-0.551,M,-30.479,M,0.0,*41
###2023-05-05 13:20:24.662705$GNGGA,172105.20,4120.7446795,N,07038.1756577,W,1,23,0.6,-0.661,M,-30.479,M,0.0,*42
###2023-05-05 13:20:26.664429$GNGGA,172107.20,4120.7477536,N,07038.1757545,W,1,23,0.6,-0.325,M,-30.479,M,0.0,*4C
###2023-05-05 13:20:28.660659$GNGGA,172109.20,4120.7509332,N,07038.1760415,W,1,23,0.6,-0.271,M,-30.479,M,0.0,*48
###2023-05-05 13:20:30.661615$GNGGA,172111.20,4120.7539083,N,07038.1765596,W,1,23,0.6,-0.069,M,-30.478,M,0.0,*4E
###2023-05-05 13:20:32.659736$GNGGA,172113.20,4120.7565081,N,07038.1768190,W,1,23,0.6,-0.258,M,-30.478,M,0.0,*48
###2023-05-05 13:20:34.661178$GNGGA,172115.20,4120.7589300,N,07038.1766951,W,1,23,0.6,-0.516,M,-30.478,M,0.0,*40
###2023-05-05 13:20:36.663414$GNGGA,172117.20,4120.7615442,N,07038.1763418,W,1,23,0.6,-0.589,M,-30.478,M,0.0,*46
###2023-05-05 13:20:38.663339$GNGGA,172119.20,4120.7641026,N,07038.1755143,W,1,23,0.6,-0.629,M,-30.478,M,0.0,*48
###2023-05-05 13:20:40.664305$GNGGA,172121.20,4120.7653876,N,07038.1732634,W,1,23,0.6,-0.400,M,-30.478,M,0.0,*42
###2023-05-05 13:20:42.664409$GNGGA,172123.20,4120.7655095,N,07038.1705509,W,1,23,0.6,-0.393,M,-30.478,M,0.0,*47
###2023-05-05 13:20:44.663319$GNGGA,172125.20,4120.7653450,N,07038.1668089,W,1,23,0.6,-0.275,M,-30.478,M,0.0,*44
###2023-05-05 13:20:46.662269$GNGGA,172127.20,4120.7654735,N,07038.1623196,W,1,23,0.6,-0.375,M,-30.478,M,0.0,*40
###2023-05-05 13:20:48.663324$GNGGA,172129.20,4120.7659242,N,07038.1578450,W,1,23,0.6,-0.313,M,-30.478,M,0.0,*44
###2023-05-05 13:20:50.662430$GNGGA,172131.20,4120.7663143,N,07038.1539059,W,1,23,0.6,-0.260,M,-30.478,M,0.0,*4B
###2023-05-05 13:20:52.663138$GNGGA,172133.20,4120.7664430,N,07038.1506573,W,1,23,0.6,-0.177,M,-30.478,M,0.0,*4B
###2023-05-05 13:20:54.664175$GNGGA,172135.20,4120.7661679,N,07038.1475924,W,1,23,0.6,-0.377,M,-30.478,M,0.0,*4E
###2023-05-05 13:20:56.663150$GNGGA,172137.20,4120.7659973,N,07038.1444498,W,1,23,0.6,-0.356,M,-30.478,M,0.0,*49
