###2023-05-05 14:10:48.721104$GNGGA,181129.20,4120.8703420,N,07038.3082294,W,1,23,0.6,-0.102,M,-30.476,M,0.0,*4B
###2023-05-05 14:10:50.726573$GNGGA,181131.20,4120.8705720,N,07038.3108173,W,1,23,0.6,0.052,M,-30.476,M,0.0,*67
###2023-05-05 14:10:52.726573$GNGGA,181133.20,4120.8712761,N,07038.3124805,W,1,23,0.6,0.020,M,-30.476,M,0.0,*65
###2023-05-05 14:10:54.726562$GNGGA,181135.20,4120.8724905,N,07038.3133162,W,1,23,0.6,-0.151,M,-30.476,M,0.0,*4E
###2023-05-05 14:10:56.739576$GNGGA,181137.20,4120.8743248,N,07038.3136626,W,1,24,0.6,0.051,M,-30.476,M,0.0,*66
###2023-05-05 14:10:58.724391$GNGGA,181139.20,4120.8763738,N,07038.3138436,W,1,23,0.6,0.135,M,-30.476,M,0.0,*61
###2023-05-05 14:11:00.725445$GNGGA,181141.20,4120.8783443,N,07038.3139101,W,1,23,0.6,0.057,M,-30.476,M,0.0,*6A
###2023-05-05 14:11:02.725414$GNGGA,181143.20,4120.8800022,N,07038.3147432,W,1,23,0.6,0.086,M,-30.476,M,0.0,*6F
###2023-05-05 14:11:04.725324$GNGGA,181145.20,4120.8806258,N,07038.3165734,W,1,23,0.6,0.131,M,-30.476,M,0.0,*68
###2023-05-05 14:11:06.726297$GNGGA,181147.20,4120.8812358,N,07038.3189968,W,1,23,0.6,0.162,M,-30.476,M,0.0,*6D
###2023-05-05 14:11:08.727914$GNGGA,181149.20,4120.8826057,N,07038.3211166,W,1,23,0.6,0.124,M,-30.476,M,0.0,*6E
###2023-05-05 14:11:10.726311$GNGGA,181151.20,4120.8844327,N,07038.3224294,W,1,23,0.6,0.203,M,-30.476,M,0.0,*69
###2023-05-05 14:11:12.726140$GNGGA,181153.20,4120.8865744,N,07038.3236022,W,1,23,0.6,0.195,M,-30.476,M,0.0,*69
###2023-05-05 14:11:14.731781$GNGGA,181155.20,4120.8882182,N,07038.3255023,W,1,23,0.6,0.191,M,-30.476,M,0.0,*6A
###2023-05-05 14:11:16.726258$GNGGA,181157.20,4120.8887600,N,07038.3280926,W,1,24,0.6,0.219,M,-30.476,M,0.0,*60
###2023-05-05 14:11:18.727109$GNGGA,181159.20,4120.8880015,N,07038.3304392,W,1,24,0.6,0.087,M,-30.476,M,0.0,*66
###2023-05-05 14:11:20.727117$GNGGA,181201.20,4120.8862672,N,07038.3315385,W,1,23,0.6,-0.057,M,-30.476,M,0.0,*42
###2023-05-05 14:11:22.727153$GNGGA,181203.20,4120.8839149,N,07038.3324428,W,1,23,0.6,-0.086,M,-30.476,M,0.0,*4F
###2023-05-05 14:11:24.728910$GNGGA,181205.20,4120.8818635,N,07038.3336195,W,1,22,0.6,0.228,M,-30.476,M,0.0,*6C
###2023-05-05 14:11:26.726930$GNGGA,181207.20,4120.8803205,N,07038.3349654,W,1,22,0.6,0.213,M,-30.476,M,0.0,*69
###2023-05-05 14:11:28.724026$GNGGA,181209.20,4120.8779415,N,07038.3356308,W,1,23,0.6,-0.079,M,-30.476,M,0.0,*42
###2023-05-05 14:11:30.725969$GNGGA,181211.20,4120.8756770,N,07038.3363356,W,1,23,0.6,-0.051,M,-30.476,M,0.0,*41
###2023-05-05 14:11:32.725578$GNGGA,181213.20,4120.8731842,N,07038.3366395,W,1,23,0.6,0.072,M,-30.476,M,0.0,*6A
###2023-05-05 14:11:34.725877$GNGGA,181215.20,4120.8710563,N,07038.3373833,W,1,23,0.6,0.170,M,-30.476,M,0.0,*61
###2023-05-05 14:11:36.728755$GNGGA,181217.20,4120.8685032,N,07038.3376853,W,1,23,0.6,0.277,M,-30.477,M,0.0,*69
###2023-05-05 14:11:38.726868$GNGGA,181219.20,4120.8673509,N,07038.3393469,W,1,23,0.6,0.097,M,-30.477,M,0.0,*61
###2023-05-05 14:11:40.726824$GNGGA,181221.20,4120.8671034,N,07038.3414372,W,1,22,0.6,0.055,M,-30.477,M,0.0,*69
###2023-05-05 14:11:42.726551$GNGGA,181223.20,4120.8680824,N,07038.3435858,W,1,22,0.6,0.163,M,-30.477,M,0.0,*68
###2023-05-05 14:11:44.726592$GNGGA,181225.20,4120.8695211,N,07038.3454673,W,1,22,0.6,0.237,M,-30.477,M,0.0,*64
###2023-05-05 14:11:46.727657$GNGGA,181227.20,4120.8706838,N,07038.3475704,W,1,22,0.6,0.078,M,-30.477,M,0.0,*67
###2023-05-05 14:11:48.727527$GNGGA,181229.20,4120.8721380,N,07038.3494482,W,1,22,0.6,0.167,M,-30.477,M,0.0,*69
###2023-05-05 14:11:50.725958$GNGGA,181231.20,4120.8746032,N,07038.3514632,W,1,22,0.6,0.286,M,-30.476,M,0.0,*66
###2023-05-05 14:11:52.727447$GNGGA,181233.20,4120.8767007,N,07038.3526694,W,1,22,0.6,0.201,M,-30.476,M,0.0,*63
###2023-05-05 14:11:54.726413$GNGGA,181235.20,4120.8781156,N,07038.3534464,W,1,22,0.6,0.120,M,-30.476,M,0.0,*66
###2023-05-05 14:11:56.726346$GNGGA,181237.20,4120.8800620,N,07038.3556976,W,1,22,0.6,0.169,M,-30.476,M,0.0,*63
###2023-05-05 14:11:58.725231$GNGGA,181239.20,4120.8812892,N,07038.3580318,W,1,22,0.6,0.091,M,-30.476,M,0.0,*66
###2023-05-05 14:12:00.725325$GNGGA,181241.20,4120.8816783,N,07038.3595694,W,1,22,0.6,0.046,M,-30.476,M,0.0,*6D
###2023-05-05 14:12:02.726241$GNGGA,181243.20,4120.8811788,N,07038.3616476,W,1,22,0.6,0.350,M,-30.476,M,0.0,*61
###2023-05-05 14:12:04.726223$GNGGA,181245.20,4120.8796567,N,07038.3630359,W,1,22,0.6,0.031,M,-30.476,M,0.0,*6E
###2023-05-05 14:12:06.727398$GNGGA,181247.20,4120.8775297,N,07038.3634932,W,1,22,0.6,-0.003,M,-30.477,M,0.0,*47
###2023-05-05 14:12:08.734967$GNGGA,181249.20,4120.8752073,N,07038.3638314,W,1,23,0.6,0.050,M,-30.477,M,0.0,*6C
###2023-05-05 14:12:10.728260$GNGGA,181251.20,4120.8732282,N,07038.3646134,W,1,23,0.6,0.043,M,-30.477,M,0.0,*64
###2023-05-05 14:12:12.728187$GNGGA,181253.20,4120.8710756,N,07038.3651467,W,1,22,0.6,-0.043,M,-30.477,M,0.0,*43
###2023-05-05 14:12:14.727423$GNGGA,181255.20,4120.8693655,N,07038.3664992,W,1,22,0.6,-0.058,M,-30.477,M,0.0,*46
###2023-05-05 14:12:16.727090$GNGGA,181257.20,4120.8679118,N,07038.3679775,W,1,22,0.6,-0.150,M,-30.477,M,0.0,*4C
###2023-05-05 14:12:18.727307$GNGGA,181259.20,4120.8668499,N,07038.3701555,W,1,23,0.6,-0.213,M,-30.477,M,0.0,*45
###2023-05-05 14:12:20.727097$GNGGA,181301.20,4120.8665811,N,07038.3724700,W,1,22,0.6,-0.332,M,-30.477,M,0.0,*4E
###2023-05-05 14:12:22.728184$GNGGA,181303.20,4120.8673071,N,07038.3743930,W,1,22,0.6,-0.023,M,-30.477,M,0.0,*4A
###2023-05-05 14:12:24.726938$GNGGA,181305.20,4120.8702364,N,07038.3757517,W,1,22,0.6,0.025,M,-30.477,M,0.0,*6B
###2023-05-05 14:12:26.726006$GNGGA,181307.20,4120.8729334,N,07038.3763452,W,1,22,0.6,-0.293,M,-30.477,M,0.0,*40
###2023-05-05 14:12:28.727174$GNGGA,181309.20,4120.8743250,N,07038.3768218,W,1,22,0.6,-0.127,M,-30.477,M,0.0,*4E
###2023-05-05 14:12:30.726799$GNGGA,181311.20,4120.8769879,N,07038.3781935,W,1,22,0.6,-0.186,M,-30.477,M,0.0,*46
###2023-05-05 14:12:32.726893$GNGGA,181313.20,4120.8788082,N,07038.3800820,W,1,22,0.6,-0.261,M,-30.477,M,0.0,*4E
###2023-05-05 14:12:34.726812$GNGGA,181315.20,4120.8798624,N,07038.3820922,W,1,22,0.6,-0.151,M,-30.477,M,0.0,*42
###2023-05-05 14:12:36.728835$GNGGA,181317.20,4120.8796951,N,07038.3846448,W,1,22,0.6,-0.089,M,-30.477,M,0.0,*46
###2023-05-05 14:12:38.729119$GNGGA,181319.20,4120.8786078,N,07038.3865276,W,1,23,0.6,-0.125,M,-30.477,M,0.0,*47
###2023-05-05 14:12:40.728633$GNGGA,181321.20,4120.8771927,N,07038.3882872,W,1,22,0.6,0.121,M,-30.477,M,0.0,*68
###2023-05-05 14:12:42.728732$GNGGA,181323.20,4120.8758049,N,07038.3904022,W,1,22,0.6,-0.133,M,-30.477,M,0.0,*4C
###2023-05-05 14:12:44.726649$GNGGA,181325.20,4120.8744805,N,07038.3921336,W,1,22,0.6,-0.245,M,-30.477,M,0.0,*44
###2023-05-05 14:12:46.734174$GNGGA,181327.20,4120.8736121,N,07038.3934721,W,1,23,0.6,-0.131,M,-30.477,M,0.0,*4B
###2023-05-05 14:12:48.727590$GNGGA,181329.20,4120.8726209,N,07038.3953825,W,1,22,0.6,-0.330,M,-30.477,M,0.0,*45
###2023-05-05 14:12:50.728486$GNGGA,181331.20,4120.8710857,N,07038.3966805,W,1,22,0.6,-0.162,M,-30.477,M,0.0,*49
###2023-05-05 14:12:52.724811$GNGGA,181333.20,4120.8703426,N,07038.3986606,W,1,22,0.6,0.206,M,-30.477,M,0.0,*6C
###2023-05-05 14:12:54.729116$GNGGA,181335.20,4120.8696309,N,07038.4006523,W,1,23,0.6,-0.267,M,-30.477,M,0.0,*44
###2023-05-05 14:12:56.727458$GNGGA,181337.20,4120.8680534,N,07038.4021233,W,1,22,0.6,-0.013,M,-30.477,M,0.0,*4A
###2023-05-05 14:12:58.726392$GNGGA,181339.20,4120.8662965,N,07038.4032436,W,1,22,0.6,-0.049,M,-30.478,M,0.0,*41
###2023-05-05 14:13:00.726348$GNGGA,181341.20,4120.8652225,N,07038.4047552,W,1,22,0.6,-0.094,M,-30.478,M,0.0,*43
###2023-05-05 14:13:02.725281$GNGGA,181343.20,4120.8634236,N,07038.4073755,W,1,22,0.6,0.109,M,-30.478,M,0.0,*69
###2023-05-05 14:13:04.727777$GNGGA,181345.20,4120.8628740,N,07038.4105719,W,1,23,0.6,-0.172,M,-30.478,M,0.0,*4E
###2023-05-05 14:13:06.728324$GNGGA,181347.20,4120.8630069,N,07038.4138614,W,1,22,0.6,-0.172,M,-30.478,M,0.0,*4A
###2023-05-05 14:13:08.728260$GNGGA,181349.20,4120.8633516,N,07038.4160520,W,1,22,0.6,-0.137,M,-30.478,M,0.0,*42
###2023-05-05 14:13:10.728203$GNGGA,181351.20,4120.8650685,N,07038.4174703,W,1,22,0.6,0.346,M,-30.478,M,0.0,*68
###2023-05-05 14:13:12.728218$GNGGA,181353.20,4120.8653460,N,07038.4191654,W,1,22,0.6,-0.086,M,-30.478,M,0.0,*4A
###2023-05-05 14:13:14.727151$GNGGA,181355.20,4120.8651175,N,07038.4226169,W,1,22,0.6,0.428,M,-30.478,M,0.0,*64
###2023-05-05 14:13:16.728938$GNGGA,181357.20,4120.8673551,N,07038.4277537,W,1,22,0.6,0.215,M,-30.478,M,0.0,*67
###2023-05-05 14:13:18.729356$GNGGA,181359.20,4120.8695360,N,07038.4314809,W,1,22,0.6,0.100,M,-30.478,M,0.0,*66
###2023-05-05 14:13:20.727135$GNGGA,181401.20,4120.8706601,N,07038.4333320,W,1,22,0.6,-0.014,M,-30.478,M,0.0,*49
###2023-05-05 14:13:22.740827$GNGGA,181403.20,4120.8724038,N,07038.4344530,W,1,22,0.6,-0.027,M,-30.478,M,0.0,*40
###2023-05-05 14:13:24.728835$GNGGA,181405.20,4120.8744798,N,07038.4390546,W,1,22,0.6,0.138,M,-30.478,M,0.0,*67
###2023-05-05 14:13:26.727857$GNGGA,181407.20,4120.8723997,N,07038.4438124,W,1,22,0.6,0.137,M,-30.478,M,0.0,*6F
###2023-05-05 14:13:28.727022$GNGGA,181409.20,4120.8686962,N,07038.4437251,W,1,22,0.6,-0.085,M,-30.478,M,0.0,*4E
###2023-05-05 14:13:30.722177$GNGGA,181411.20,4120.8665624,N,07038.4392350,W,1,22,0.6,0.221,M,-30.478,M,0.0,*6E
###2023-05-05 14:13:32.726673$GNGGA,181413.20,4120.8681805,N,07038.4343106,W,1,22,0.6,0.158,M,-30.478,M,0.0,*6B
###2023-05-05 14:13:34.726691$GNGGA,181415.20,4120.8701762,N,07038.4288015,W,1,22,0.6,0.028,M,-30.478,M,0.0,*69
###2023-05-05 14:13:36.726804$GNGGA,181417.20,4120.8731413,N,07038.4239369,W,1,22,0.6,-0.062,M,-30.478,M,0.0,*4C
###2023-05-05 14:13:38.726647$GNGGA,181419.20,4120.8741915,N,07038.4185487,W,1,22,0.6,0.477,M,-30.477,M,0.0,*6F
###2023-05-05 14:13:40.729579$GNGGA,181421.20,4120.8723888,N,07038.4147782,W,1,22,0.6,-0.180,M,-30.478,M,0.0,*42
###2023-05-05 14:13:42.728491$GNGGA,181423.20,4120.8730801,N,07038.4094300,W,1,22,0.6,0.204,M,-30.477,M,0.0,*6F
###2023-05-05 14:13:44.728756$GNGGA,181425.20,4120.8749674,N,07038.4032197,W,1,23,0.6,-0.153,M,-30.477,M,0.0,*46
###2023-05-05 14:13:46.729568$GNGGA,181427.20,4120.8769926,N,07038.3973803,W,1,23,0.6,-0.032,M,-30.477,M,0.0,*47
###2023-05-05 14:13:48.722908$GNGGA,181429.20,4120.8780444,N,07038.3910383,W,1,22,0.6,-0.094,M,-30.477,M,0.0,*4C
###2023-05-05 14:13:50.728414$GNGGA,181431.20,4120.8797427,N,07038.3846216,W,1,22,0.6,0.264,M,-30.477,M,0.0,*69
###2023-05-05 14:13:52.728309$GNGGA,181433.20,4120.8807324,N,07038.3782015,W,1,22,0.6,0.103,M,-30.477,M,0.0,*6D
###2023-05-05 14:13:54.729318$GNGGA,181435.20,4120.8816624,N,07038.3726597,W,1,23,0.6,0.100,M,-30.477,M,0.0,*6D
###2023-05-05 14:13:56.727478$GNGGA,181437.20,4120.8830783,N,07038.3680972,W,1,22,0.6,-0.002,M,-30.476,M,0.0,*43
###2023-05-05 14:13:58.735770$GNGGA,181439.20,4120.8830743,N,07038.3632708,W,1,23,0.6,-0.084,M,-30.476,M,0.0,*44
###2023-05-05 14:14:00.727143$GNGGA,181441.20,4120.8840584,N,07038.3576336,W,1,23,0.6,0.034,M,-30.476,M,0.0,*69
###2023-05-05 14:14:02.728306$GNGGA,181443.20,4120.8845935,N,07038.3534505,W,1,23,0.6,-0.162,M,-30.476,M,0.0,*47
###2023-05-05 14:14:04.728214$GNGGA,181445.20,4120.8837295,N,07038.3492347,W,1,24,0.6,-0.308,M,-30.476,M,0.0,*41
###2023-05-05 14:14:06.727163$GNGGA,181447.20,4120.8843125,N,07038.3461195,W,1,23,0.6,0.031,M,-30.476,M,0.0,*6A
