###2023-05-05 13:20:58.661827$GNGGA,172139.20,4120.7661070,N,07038.1413408,W,1,24,0.6,-0.086,M,-30.477,M,0.0,*4B
###2023-05-05 13:21:00.662141$GNGGA,172141.20,4120.7661381,N,07038.1383971,W,1,24,0.6,-0.219,M,-30.477,M,0.0,*40
###2023-05-05 13:21:02.662827$GNGGA,172143.20,4120.7662360,N,07038.1354568,W,1,24,0.6,-0.326,M,-30.477,M,0.0,*4D
###2023-05-05 13:21:04.656066$GNGGA,172145.20,4120.7664189,N,07038.1325319,W,1,24,0.6,-0.473,M,-30.477,M,0.0,*49
###2023-05-05 13:21:06.662767$GNGGA,172147.20,4120.7666523,N,07038.1295031,W,1,24,0.6,-0.371,M,-30.477,M,0.0,*4B
###2023-05-05 13:21:08.662850$GNGGA,172149.20,4120.7669095,N,07038.1265394,W,1,24,0.6,-0.263,M,-30.477,M,0.0,*43
###2023-05-05 13:21:10.664133$GNGGA,172151.20,4120.7671016,N,07038.1236192,W,1,24,0.6,-0.108,M,-30.477,M,0.0,*44
###2023-05-05 13:21:12.663851$GNGGA,172153.20,4120.7670535,N,07038.1207643,W,1,24,0.6,-0.520,M,-30.477,M,0.0,*44
###2023-05-05 13:21:14.663809$GNGGA,172155.20,4120.7671490,N,07038.1178710,W,1,24,0.6,-0.505,M,-30.477,M,0.0,*46
###2023-05-05 13:21:16.663905$GNGGA,172157.20,4120.7673391,N,07038.1149693,W,1,24,0.6,-0.280,M,-30.477,M,0.0,*42
###2023-05-05 13:21:18.664779$GNGGA,172159.20,4120.7675013,N,07038.1119894,W,1,24,0.6,-0.323,M,-30.477,M,0.0,*47
###2023-05-05 13:21:20.663701$GNGGA,172201.20,4120.7675939,N,07038.1090467,W,1,24,0.6,-0.495,M,-30.477,M,0.0,*42
###2023-05-05 13:21:22.663781$GNGGA,172203.20,4120.7677193,N,07038.1061757,W,1,24,0.6,-0.449,M,-30.477,M,0.0,*45
###2023-05-05 13:21:24.658917$GNGGA,172205.20,4120.7679216,N,07038.1033689,W,1,24,0.6,-0.266,M,-30.477,M,0.0,*4D
###2023-05-05 13:21:26.663998$GNGGA,172207.20,4120.7680089,N,07038.1005209,W,1,24,0.6,-0.310,M,-30.477,M,0.0,*44
###2023-05-05 13:21:28.661735$GNGGA,172209.20,4120.7667895,N,07038.0982154,W,1,25,0.6,-0.450,M,-30.477,M,0.0,*48
###2023-05-05 13:21:30.663293$GNGGA,172211.20,4120.7646537,N,07038.0972624,W,1,24,0.6,-0.350,M,-30.477,M,0.0,*4E
###2023-05-05 13:21:32.663323$GNGGA,172213.20,4120.7624773,N,07038.0976480,W,1,24,0.6,-0.050,M,-30.477,M,0.0,*41
###2023-05-05 13:21:34.663414$GNGGA,172215.20,4120.7603146,N,07038.0976555,W,1,25,0.6,-0.316,M,-30.477,M,0.0,*4B
###2023-05-05 13:21:36.665557$GNGGA,172217.20,4120.7581894,N,07038.0977744,W,1,24,0.6,-0.372,M,-30.477,M,0.0,*46
###2023-05-05 13:21:38.664479$GNGGA,172219.20,4120.7560454,N,07038.0980184,W,1,25,0.6,-0.282,M,-30.477,M,0.0,*4A
###2023-05-05 13:21:40.664281$GNGGA,172221.20,4120.7539288,N,07038.0979044,W,1,25,0.6,-0.158,M,-30.477,M,0.0,*45
###2023-05-05 13:21:42.665191$GNGGA,172223.20,4120.7517597,N,07038.0978756,W,1,25,0.6,0.048,M,-30.477,M,0.0,*6A
###2023-05-05 13:21:44.664180$GNGGA,172225.20,4120.7494720,N,07038.0978483,W,1,25,0.6,0.031,M,-30.477,M,0.0,*6D
###2023-05-05 13:21:46.665298$GNGGA,172227.20,4120.7470771,N,07038.0979256,W,1,25,0.6,-0.301,M,-30.478,M,0.0,*4C
###2023-05-05 13:21:48.665256$GNGGA,172229.20,4120.7446812,N,07038.0978928,W,1,24,0.6,-0.314,M,-30.478,M,0.0,*4B
###2023-05-05 13:21:50.665679$GNGGA,172231.20,4120.7424091,N,07038.0981531,W,1,25,0.6,0.199,M,-30.478,M,0.0,*6C
###2023-05-05 13:21:52.664095$GNGGA,172233.20,4120.7401303,N,07038.0980538,W,1,25,0.6,-0.124,M,-30.478,M,0.0,*42
###2023-05-05 13:21:54.665822$GNGGA,172235.20,4120.7377034,N,07038.0979535,W,1,25,0.6,-0.406,M,-30.478,M,0.0,*4B
###2023-05-05 13:21:56.665006$GNGGA,172237.20,4120.7353044,N,07038.0978004,W,1,25,0.6,-0.302,M,-30.478,M,0.0,*4D
###2023-05-05 13:21:58.662739$GNGGA,172239.20,4120.7329140,N,07038.0980632,W,1,25,0.6,-0.018,M,-30.478,M,0.0,*47
###2023-05-05 13:22:00.663258$GNGGA,172241.20,4120.7305835,N,07038.0980946,W,1,25,0.6,-0.160,M,-30.478,M,0.0,*4F
###2023-05-05 13:22:02.663904$GNGGA,172243.20,4120.7280763,N,07038.0978657,W,1,25,0.6,-0.301,M,-30.478,M,0.0,*40
###2023-05-05 13:22:04.664733$GNGGA,172245.20,4120.7254896,N,07038.0979491,W,1,25,0.6,-0.155,M,-30.478,M,0.0,*40
###2023-05-05 13:22:06.664640$GNGGA,172247.20,4120.7230595,N,07038.0979538,W,1,25,0.6,-0.057,M,-30.478,M,0.0,*4F
###2023-05-05 13:22:08.664848$GNGGA,172249.20,4120.7205348,N,07038.0977118,W,1,25,0.6,-0.483,M,-30.479,M,0.0,*45
###2023-05-05 13:22:10.664920$GNGGA,172251.20,4120.7179288,N,07038.0980816,W,1,25,0.6,-0.243,M,-30.479,M,0.0,*4C
###2023-05-05 13:22:12.665923$GNGGA,172253.20,4120.7154635,N,07038.0981462,W,1,25,0.6,-0.219,M,-30.479,M,0.0,*42
###2023-05-05 13:22:14.665828$GNGGA,172255.20,4120.7128367,N,07038.0981164,W,1,25,0.6,-0.362,M,-30.479,M,0.0,*43
###2023-05-05 13:22:16.664718$GNGGA,172257.20,4120.7102259,N,07038.0979869,W,1,24,0.6,-0.275,M,-30.479,M,0.0,*40
###2023-05-05 13:22:18.665712$GNGGA,172259.20,4120.7076381,N,07038.0980443,W,1,25,0.6,-0.141,M,-30.479,M,0.0,*4F
###2023-05-05 13:22:20.664588$GNGGA,172301.20,4120.7050357,N,07038.0981341,W,1,24,0.6,-0.356,M,-30.479,M,0.0,*4D
###2023-05-05 13:22:22.666005$GNGGA,172303.20,4120.7023494,N,07038.0980137,W,1,25,0.6,-0.542,M,-30.479,M,0.0,*43
###2023-05-05 13:22:24.665679$GNGGA,172305.20,4120.6997044,N,07038.0980304,W,1,25,0.6,-0.433,M,-30.479,M,0.0,*4E
###2023-05-05 13:22:26.665691$GNGGA,172307.20,4120.6971708,N,07038.0981569,W,1,25,0.6,-0.239,M,-30.479,M,0.0,*4B
###2023-05-05 13:22:28.663572$GNGGA,172309.20,4120.6945963,N,07038.0980275,W,1,25,0.6,-0.234,M,-30.480,M,0.0,*41
###2023-05-05 13:22:30.664139$GNGGA,172311.20,4120.6919824,N,07038.0979085,W,1,25,0.6,-0.393,M,-30.480,M,0.0,*44
###2023-05-05 13:22:32.664082$GNGGA,172313.20,4120.6893550,N,07038.0979819,W,1,25,0.6,-0.278,M,-30.480,M,0.0,*42
###2023-05-05 13:22:34.657880$GNGGA,172315.20,4120.6866426,N,07038.0979391,W,1,25,0.6,-0.345,M,-30.480,M,0.0,*4A
###2023-05-05 13:22:36.666406$GNGGA,172317.20,4120.6840628,N,07038.0981500,W,1,25,0.6,-0.017,M,-30.480,M,0.0,*4D
###2023-05-05 13:22:38.665434$GNGGA,172319.20,4120.6815622,N,07038.0980106,W,1,25,0.6,-0.382,M,-30.480,M,0.0,*45
###2023-05-05 13:22:40.665451$GNGGA,172321.20,4120.6788849,N,07038.0977302,W,1,25,0.6,-0.578,M,-30.480,M,0.0,*4B
###2023-05-05 13:22:42.666312$GNGGA,172323.20,4120.6760522,N,07038.0977971,W,1,25,0.6,-0.175,M,-30.480,M,0.0,*48
###2023-05-05 13:22:44.666108$GNGGA,172325.20,4120.6734461,N,07038.0980996,W,1,25,0.6,0.078,M,-30.480,M,0.0,*69
###2023-05-05 13:22:46.665280$GNGGA,172327.20,4120.6709094,N,07038.0980222,W,1,25,0.6,-0.236,M,-30.480,M,0.0,*4A
###2023-05-05 13:22:48.666119$GNGGA,172329.20,4120.6683763,N,07038.0977798,W,1,25,0.6,-0.418,M,-30.480,M,0.0,*4E
###2023-05-05 13:22:50.666182$GNGGA,172331.20,4120.6656427,N,07038.0979290,W,1,25,0.6,-0.375,M,-30.481,M,0.0,*42
###2023-05-05 13:22:52.666052$GNGGA,172333.20,4120.6630899,N,07038.0980216,W,1,24,0.6,0.053,M,-30.481,M,0.0,*6A
###2023-05-05 13:22:54.666071$GNGGA,172335.20,4120.6606969,N,07038.0980630,W,1,25,0.6,-0.141,M,-30.481,M,0.0,*49
###2023-05-05 13:22:56.665106$GNGGA,172337.20,4120.6581507,N,07038.0978206,W,1,25,0.6,-0.497,M,-30.481,M,0.0,*4B
###2023-05-05 13:22:58.664118$GNGGA,172339.20,4120.6556101,N,07038.0978928,W,1,25,0.6,-0.348,M,-30.481,M,0.0,*4F
###2023-05-05 13:23:00.665047$GNGGA,172341.20,4120.6530487,N,07038.0979582,W,1,25,0.6,-0.096,M,-30.481,M,0.0,*46
###2023-05-05 13:23:02.664624$GNGGA,172343.20,4120.6505288,N,07038.0980863,W,1,25,0.6,-0.234,M,-30.481,M,0.0,*45
###2023-05-05 13:23:04.664560$GNGGA,172345.20,4120.6480344,N,07038.0977527,W,1,24,0.6,-0.243,M,-30.481,M,0.0,*4A
###2023-05-05 13:23:06.667623$GNGGA,172347.20,4120.6455195,N,07038.0982370,W,1,25,0.6,0.023,M,-30.481,M,0.0,*68
###2023-05-05 13:23:08.666827$GNGGA,172349.20,4120.6432860,N,07038.0980636,W,1,25,0.6,-0.229,M,-30.481,M,0.0,*44
###2023-05-05 13:23:10.665711$GNGGA,172351.20,4120.6409010,N,07038.0978612,W,1,24,0.6,-0.290,M,-30.482,M,0.0,*4B
###2023-05-05 13:23:12.662155$GNGGA,172353.20,4120.6383529,N,07038.0978211,W,1,25,0.6,-0.270,M,-30.482,M,0.0,*4B
###2023-05-05 13:23:14.665568$GNGGA,172355.20,4120.6359304,N,07038.0977830,W,1,25,0.6,0.213,M,-30.482,M,0.0,*6D
###2023-05-05 13:23:16.665583$GNGGA,172357.20,4120.6341085,N,07038.0966111,W,1,25,0.6,0.236,M,-30.482,M,0.0,*61
###2023-05-05 13:23:18.667633$GNGGA,172359.20,4120.6329361,N,07038.0944968,W,1,24,0.6,-0.060,M,-30.482,M,0.0,*43
###2023-05-05 13:23:20.666547$GNGGA,172401.20,4120.6328781,N,07038.0920282,W,1,24,0.6,-0.027,M,-30.482,M,0.0,*4C
###2023-05-05 13:23:22.667501$GNGGA,172403.20,4120.6338334,N,07038.0897472,W,1,24,0.6,0.106,M,-30.482,M,0.0,*6E
###2023-05-05 13:23:24.666434$GNGGA,172405.20,4120.6344622,N,07038.0861200,W,1,24,0.6,0.163,M,-30.482,M,0.0,*68
###2023-05-05 13:23:26.666451$GNGGA,172407.20,4120.6344855,N,07038.0823180,W,1,24,0.6,-0.081,M,-30.482,M,0.0,*49
###2023-05-05 13:23:28.664653$GNGGA,172409.20,4120.6344235,N,07038.0789443,W,1,24,0.6,-0.065,M,-30.481,M,0.0,*47
###2023-05-05 13:23:30.665438$GNGGA,172411.20,4120.6344468,N,07038.0759349,W,1,24,0.6,0.033,M,-30.481,M,0.0,*6E
###2023-05-05 13:23:32.664544$GNGGA,172413.20,4120.6345926,N,07038.0729328,W,1,24,0.6,0.170,M,-30.481,M,0.0,*6C
###2023-05-05 13:23:34.665075$GNGGA,172415.20,4120.6345750,N,07038.0700435,W,1,24,0.6,-0.163,M,-30.481,M,0.0,*4A
###2023-05-05 13:23:36.668520$GNGGA,172417.20,4120.6347720,N,07038.0672681,W,1,24,0.6,-0.330,M,-30.481,M,0.0,*40
###2023-05-05 13:23:38.667456$GNGGA,172419.20,4120.6348914,N,07038.0643953,W,1,24,0.6,-0.263,M,-30.481,M,0.0,*4D
###2023-05-05 13:23:40.667343$GNGGA,172421.20,4120.6349981,N,07038.0614946,W,1,24,0.6,-0.097,M,-30.481,M,0.0,*44
###2023-05-05 13:23:42.668141$GNGGA,172423.20,4120.6348897,N,07038.0586266,W,1,24,0.6,0.041,M,-30.481,M,0.0,*66
###2023-05-05 13:23:44.667217$GNGGA,172425.20,4120.6347940,N,07038.0556679,W,1,24,0.6,-0.190,M,-30.481,M,0.0,*43
###2023-05-05 13:23:46.668206$GNGGA,172427.20,4120.6347231,N,07038.0527049,W,1,24,0.6,-0.305,M,-30.481,M,0.0,*41
###2023-05-05 13:23:48.668146$GNGGA,172429.20,4120.6346116,N,07038.0497995,W,1,24,0.6,-0.285,M,-30.481,M,0.0,*43
###2023-05-05 13:23:50.667070$GNGGA,172431.20,4120.6344672,N,07038.0469815,W,1,24,0.6,-0.162,M,-30.481,M,0.0,*4F
###2023-05-05 13:23:52.668157$GNGGA,172433.20,4120.6347022,N,07038.0441494,W,1,24,0.6,-0.187,M,-30.481,M,0.0,*49
###2023-05-05 13:23:54.668014$GNGGA,172435.20,4120.6347118,N,07038.0412678,W,1,24,0.6,-0.339,M,-30.481,M,0.0,*46
###2023-05-05 13:23:56.669096$GNGGA,172437.20,4120.6346793,N,07038.0384272,W,1,24,0.6,-0.308,M,-30.481,M,0.0,*44
###2023-05-05 13:23:58.660070$GNGGA,172439.20,4120.6345503,N,07038.0355611,W,1,24,0.6,-0.333,M,-30.481,M,0.0,*47
###2023-05-05 13:24:00.667388$GNGGA,172441.20,4120.6344946,N,07038.0327961,W,1,24,0.6,-0.338,M,-30.481,M,0.0,*42
###2023-05-05 13:24:02.667027$GNGGA,172443.20,4120.6345411,N,07038.0298692,W,1,24,0.6,-0.385,M,-30.481,M,0.0,*4E
###2023-05-05 13:24:04.668393$GNGGA,172445.20,4120.6346573,N,07038.0270065,W,1,24,0.6,-0.376,M,-30.481,M,0.0,*4A
###2023-05-05 13:24:06.667877$GNGGA,172447.20,4120.6347283,N,07038.0240666,W,1,24,0.6,-0.226,M,-30.481,M,0.0,*43
###2023-05-05 13:24:08.666785$GNGGA,172449.20,4120.6345574,N,07038.0210996,W,1,24,0.6,-0.444,M,-30.481,M,0.0,*47
###2023-05-05 13:24:10.666452$GNGGA,172451.20,4120.6346157,N,07038.0181445,W,1,24,0.6,-0.518,M,-30.481,M,0.0,*48
###2023-05-05 13:24:12.660816$GNGGA,172453.20,4120.6352088,N,07038.0154651,W,1,24,0.6,-0.220,M,-30.481,M,0.0,*4F
###2023-05-05 13:24:14.666371$GNGGA,172455.20,4120.6369499,N,07038.0139297,W,1,24,0.6,-0.174,M,-30.480,M,0.0,*43
###2023-05-05 13:24:16.666785$GNGGA,172457.20,4120.6391560,N,07038.0139064,W,1,24,0.6,-0.367,M,-30.480,M,0.0,*4F
