###2023-05-05 12:47:38.622793$GNGGA,164819.20,4120.8161872,N,07038.1759802,W,1,24,0.6,0.235,M,-30.476,M,0.0,*68
###2023-05-05 12:47:40.622699$GNGGA,164821.20,4120.8137383,N,07038.1760580,W,1,23,0.6,0.199,M,-30.476,M,0.0,*6A
###2023-05-05 12:47:42.624496$GNGGA,164823.20,4120.8111595,N,07038.1760664,W,1,23,0.6,0.363,M,-30.476,M,0.0,*63
###2023-05-05 12:47:44.623502$GNGGA,164825.20,4120.8086762,N,07038.1761720,W,1,24,0.6,0.269,M,-30.476,M,0.0,*6C
###2023-05-05 12:47:46.623361$GNGGA,164827.20,4120.8061223,N,07038.1759669,W,1,24,0.6,0.163,M,-30.476,M,0.0,*69
###2023-05-05 12:47:48.624399$GNGGA,164829.20,4120.8034313,N,07038.1760228,W,1,24,0.6,0.345,M,-30.477,M,0.0,*69
###2023-05-05 12:47:50.623704$GNGGA,164831.20,4120.8010557,N,07038.1762544,W,1,24,0.6,0.300,M,-30.477,M,0.0,*6E
###2023-05-05 12:47:52.623431$GNGGA,164833.20,4120.7984541,N,07038.1760097,W,1,24,0.6,0.027,M,-30.477,M,0.0,*6F
###2023-05-05 12:47:54.625329$GNGGA,164835.20,4120.7957895,N,07038.1759996,W,1,24,0.6,0.392,M,-30.477,M,0.0,*6C
###2023-05-05 12:47:56.624247$GNGGA,164837.20,4120.7932849,N,07038.1761749,W,1,24,0.6,0.439,M,-30.477,M,0.0,*6D
###2023-05-05 12:47:58.621380$GNGGA,164839.20,4120.7908251,N,07038.1761327,W,1,24,0.6,0.126,M,-30.477,M,0.0,*6E
###2023-05-05 12:48:00.623220$GNGGA,164841.20,4120.7882299,N,07038.1759785,W,1,24,0.6,0.218,M,-30.477,M,0.0,*6F
###2023-05-05 12:48:02.623033$GNGGA,164843.20,4120.7856208,N,07038.1760320,W,1,24,0.6,0.310,M,-30.477,M,0.0,*64
###2023-05-05 12:48:04.621833$GNGGA,164845.20,4120.7828733,N,07038.1759964,W,1,24,0.6,0.174,M,-30.477,M,0.0,*66
###2023-05-05 12:48:06.624114$GNGGA,164847.20,4120.7802238,N,07038.1761725,W,1,25,0.5,0.281,M,-30.477,M,0.0,*69
###2023-05-05 12:48:08.623086$GNGGA,164849.20,4120.7777830,N,07038.1762704,W,1,25,0.5,0.309,M,-30.478,M,0.0,*66
###2023-05-05 12:48:10.624167$GNGGA,164851.20,4120.7751989,N,07038.1760921,W,1,25,0.5,0.075,M,-30.478,M,0.0,*6B
###2023-05-05 12:48:12.624966$GNGGA,164853.20,4120.7726056,N,07038.1758515,W,1,25,0.5,0.203,M,-30.478,M,0.0,*61
###2023-05-05 12:48:14.624079$GNGGA,164855.20,4120.7704858,N,07038.1750083,W,1,25,0.5,0.695,M,-30.478,M,0.0,*68
###2023-05-05 12:48:16.624001$GNGGA,164857.20,4120.7690458,N,07038.1731484,W,1,25,0.5,0.138,M,-30.478,M,0.0,*6E
###2023-05-05 12:48:18.625125$GNGGA,164859.20,4120.7683561,N,07038.1706659,W,1,24,0.6,0.050,M,-30.478,M,0.0,*62
###2023-05-05 12:48:20.624831$GNGGA,164901.20,4120.7687862,N,07038.1681202,W,1,24,0.6,0.125,M,-30.478,M,0.0,*63
###2023-05-05 12:48:22.624912$GNGGA,164903.20,4120.7702080,N,07038.1658739,W,1,24,0.6,0.476,M,-30.478,M,0.0,*63
###2023-05-05 12:48:24.625725$GNGGA,164905.20,4120.7715796,N,07038.1624754,W,1,24,0.6,0.596,M,-30.478,M,0.0,*6C
###2023-05-05 12:48:26.623918$GNGGA,164907.20,4120.7735140,N,07038.1608843,W,1,24,0.6,0.140,M,-30.477,M,0.0,*66
###2023-05-05 12:48:28.623153$GNGGA,164909.20,4120.7754605,N,07038.1610693,W,1,24,0.6,0.123,M,-30.477,M,0.0,*66
###2023-05-05 12:48:30.624388$GNGGA,164911.20,4120.7777718,N,07038.1614356,W,1,24,0.6,0.223,M,-30.477,M,0.0,*68
###2023-05-05 12:48:32.623341$GNGGA,164913.20,4120.7803003,N,07038.1617825,W,1,24,0.6,0.350,M,-30.477,M,0.0,*62
###2023-05-05 12:48:34.622347$GNGGA,164915.20,4120.7827734,N,07038.1618485,W,1,24,0.6,0.308,M,-30.477,M,0.0,*65
###2023-05-05 12:48:36.619941$GNGGA,164917.20,4120.7851352,N,07038.1619105,W,1,24,0.6,0.404,M,-30.477,M,0.0,*65
###2023-05-05 12:48:38.624472$GNGGA,164919.20,4120.7873629,N,07038.1616980,W,1,24,0.6,0.380,M,-30.477,M,0.0,*63
###2023-05-05 12:48:40.624424$GNGGA,164921.20,4120.7895312,N,07038.1617452,W,1,24,0.6,0.263,M,-30.477,M,0.0,*62
###2023-05-05 12:48:42.626380$GNGGA,164923.20,4120.7916944,N,07038.1618514,W,1,24,0.6,0.175,M,-30.477,M,0.0,*6B
###2023-05-05 12:48:44.624383$GNGGA,164925.20,4120.7938053,N,07038.1619115,W,1,24,0.6,0.221,M,-30.477,M,0.0,*68
###2023-05-05 12:48:46.625364$GNGGA,164927.20,4120.7958989,N,07038.1618679,W,1,24,0.6,0.205,M,-30.477,M,0.0,*68
###2023-05-05 12:48:48.626213$GNGGA,164929.20,4120.7980569,N,07038.1618500,W,1,24,0.6,0.405,M,-30.477,M,0.0,*6A
###2023-05-05 12:48:50.627302$GNGGA,164931.20,4120.8002542,N,07038.1617471,W,1,24,0.6,0.437,M,-30.476,M,0.0,*6E
###2023-05-05 12:48:52.625336$GNGGA,164933.20,4120.8024828,N,07038.1616712,W,1,24,0.6,0.421,M,-30.476,M,0.0,*69
###2023-05-05 12:48:54.626161$GNGGA,164935.20,4120.8046408,N,07038.1616586,W,1,24,0.6,0.252,M,-30.476,M,0.0,*68
###2023-05-05 12:48:56.625126$GNGGA,164937.20,4120.8068752,N,07038.1618206,W,1,24,0.6,0.323,M,-30.476,M,0.0,*6C
###2023-05-05 12:48:58.622691$GNGGA,164939.20,4120.8090751,N,07038.1617789,W,1,24,0.6,0.074,M,-30.476,M,0.0,*6A
###2023-05-05 12:49:00.623901$GNGGA,164941.20,4120.8113654,N,07038.1617695,W,1,24,0.6,0.093,M,-30.476,M,0.0,*6E
###2023-05-05 12:49:02.622888$GNGGA,164943.20,4120.8136790,N,07038.1617527,W,1,24,0.6,0.247,M,-30.476,M,0.0,*63
###2023-05-05 12:49:04.623784$GNGGA,164945.20,4120.8160800,N,07038.1617830,W,1,24,0.6,0.387,M,-30.476,M,0.0,*66
###2023-05-05 12:49:06.625027$GNGGA,164947.20,4120.8185476,N,07038.1617807,W,1,24,0.6,0.361,M,-30.476,M,0.0,*6E
###2023-05-05 12:49:08.624810$GNGGA,164949.20,4120.8210102,N,07038.1619792,W,1,24,0.6,0.341,M,-30.476,M,0.0,*66
###2023-05-05 12:49:10.624825$GNGGA,164951.20,4120.8233526,N,07038.1620348,W,1,24,0.6,0.347,M,-30.476,M,0.0,*63
###2023-05-05 12:49:12.626838$GNGGA,164953.20,4120.8257908,N,07038.1619482,W,1,24,0.6,0.284,M,-30.476,M,0.0,*66
###2023-05-05 12:49:14.625926$GNGGA,164955.20,4120.8283867,N,07038.1618605,W,1,24,0.6,0.303,M,-30.475,M,0.0,*60
###2023-05-05 12:49:16.625663$GNGGA,164957.20,4120.8310427,N,07038.1619157,W,1,24,0.6,0.395,M,-30.475,M,0.0,*6F
###2023-05-05 12:49:18.626727$GNGGA,164959.20,4120.8336923,N,07038.1619510,W,1,24,0.6,0.389,M,-30.475,M,0.0,*66
###2023-05-05 12:49:20.626662$GNGGA,165001.20,4120.8363583,N,07038.1619757,W,1,24,0.6,0.334,M,-30.475,M,0.0,*62
###2023-05-05 12:49:22.625597$GNGGA,165003.20,4120.8390162,N,07038.1619521,W,1,24,0.6,0.213,M,-30.475,M,0.0,*60
###2023-05-05 12:49:24.626548$GNGGA,165005.20,4120.8416334,N,07038.1619131,W,1,24,0.6,0.282,M,-30.475,M,0.0,*63
###2023-05-05 12:49:26.625688$GNGGA,165007.20,4120.8442974,N,07038.1617689,W,1,24,0.6,0.466,M,-30.475,M,0.0,*68
###2023-05-05 12:49:28.623182$GNGGA,165009.20,4120.8471858,N,07038.1616231,W,1,23,0.6,0.338,M,-30.475,M,0.0,*64
###2023-05-05 12:49:30.625325$GNGGA,165011.20,4120.8501937,N,07038.1617157,W,1,23,0.6,0.336,M,-30.475,M,0.0,*6F
###2023-05-05 12:49:32.624192$GNGGA,165013.20,4120.8532028,N,07038.1619093,W,1,23,0.6,0.439,M,-30.474,M,0.0,*64
###2023-05-05 12:49:34.624002$GNGGA,165015.20,4120.8561024,N,07038.1619657,W,1,23,0.6,0.377,M,-30.474,M,0.0,*6B
###2023-05-05 12:49:36.626325$GNGGA,165017.20,4120.8589239,N,07038.1619605,W,1,23,0.6,0.490,M,-30.474,M,0.0,*68
###2023-05-05 12:49:38.625931$GNGGA,165019.20,4120.8616924,N,07038.1619402,W,1,23,0.6,0.464,M,-30.474,M,0.0,*6A
###2023-05-05 12:49:40.626312$GNGGA,165021.20,4120.8644872,N,07038.1618649,W,1,23,0.6,0.402,M,-30.474,M,0.0,*68
###2023-05-05 12:49:42.627289$GNGGA,165023.20,4120.8674500,N,07038.1617936,W,1,23,0.6,0.381,M,-30.474,M,0.0,*65
###2023-05-05 12:49:44.626214$GNGGA,165025.20,4120.8705027,N,07038.1617748,W,1,23,0.6,0.356,M,-30.474,M,0.0,*69
###2023-05-05 12:49:46.626283$GNGGA,165027.20,4120.8736108,N,07038.1618892,W,1,23,0.6,0.396,M,-30.474,M,0.0,*6C
###2023-05-05 12:49:48.627918$GNGGA,165029.20,4120.8767404,N,07038.1620467,W,1,23,0.6,0.457,M,-30.474,M,0.0,*68
###2023-05-05 12:49:50.627213$GNGGA,165031.20,4120.8797650,N,07038.1620584,W,1,23,0.6,0.466,M,-30.474,M,0.0,*63
###2023-05-05 12:49:52.627030$GNGGA,165033.20,4120.8819316,N,07038.1609430,W,1,23,0.6,0.586,M,-30.473,M,0.0,*62
###2023-05-05 12:49:54.627038$GNGGA,165035.20,4120.8830315,N,07038.1587289,W,1,23,0.6,0.487,M,-30.473,M,0.0,*6D
###2023-05-05 12:49:56.626470$GNGGA,165037.20,4120.8830053,N,07038.1558712,W,1,23,0.6,0.377,M,-30.473,M,0.0,*63
###2023-05-05 12:49:58.623810$GNGGA,165039.20,4120.8823230,N,07038.1519728,W,1,23,0.6,0.312,M,-30.473,M,0.0,*67
###2023-05-05 12:50:00.625816$GNGGA,165041.20,4120.8817699,N,07038.1471727,W,1,23,0.6,0.488,M,-30.473,M,0.0,*6C
###2023-05-05 12:50:02.624664$GNGGA,165043.20,4120.8807600,N,07038.1441880,W,1,23,0.6,0.521,M,-30.473,M,0.0,*6C
###2023-05-05 12:50:04.629073$GNGGA,165045.20,4120.8790734,N,07038.1435910,W,1,23,0.6,0.113,M,-30.473,M,0.0,*63
###2023-05-05 12:50:06.627843$GNGGA,165047.20,4120.8770463,N,07038.1442363,W,1,23,0.6,0.392,M,-30.473,M,0.0,*6B
###2023-05-05 12:50:08.626745$GNGGA,165049.20,4120.8753628,N,07038.1462256,W,1,23,0.6,0.569,M,-30.473,M,0.0,*6E
###2023-05-05 12:50:10.626972$GNGGA,165051.20,4120.8724334,N,07038.1472844,W,1,23,0.6,0.181,M,-30.474,M,0.0,*62
###2023-05-05 12:50:12.627650$GNGGA,165053.20,4120.8698116,N,07038.1477457,W,1,24,0.6,0.563,M,-30.474,M,0.0,*60
###2023-05-05 12:50:14.625673$GNGGA,165055.20,4120.8673088,N,07038.1478265,W,1,23,0.6,0.286,M,-30.474,M,0.0,*66
###2023-05-05 12:50:16.626795$GNGGA,165057.20,4120.8652545,N,07038.1478078,W,1,24,0.6,0.340,M,-30.474,M,0.0,*61
###2023-05-05 12:50:18.627576$GNGGA,165059.20,4120.8633725,N,07038.1480371,W,1,24,0.6,0.507,M,-30.474,M,0.0,*64
###2023-05-05 12:50:20.626440$GNGGA,165101.20,4120.8613107,N,07038.1478390,W,1,23,0.6,0.332,M,-30.474,M,0.0,*63
###2023-05-05 12:50:22.626724$GNGGA,165103.20,4120.8591676,N,07038.1477175,W,1,24,0.6,0.317,M,-30.474,M,0.0,*6F
###2023-05-05 12:50:24.627441$GNGGA,165105.20,4120.8570709,N,07038.1477135,W,1,24,0.6,0.590,M,-30.474,M,0.0,*62
###2023-05-05 12:50:26.627498$GNGGA,165107.20,4120.8550122,N,07038.1477415,W,1,24,0.6,0.539,M,-30.474,M,0.0,*69
###2023-05-05 12:50:28.624110$GNGGA,165109.20,4120.8528452,N,07038.1476327,W,1,24,0.6,0.209,M,-30.474,M,0.0,*69
###2023-05-05 12:50:30.626022$GNGGA,165111.20,4120.8506310,N,07038.1475916,W,1,24,0.6,0.093,M,-30.474,M,0.0,*67
###2023-05-05 12:50:32.625046$GNGGA,165113.20,4120.8486261,N,07038.1476195,W,1,24,0.6,0.695,M,-30.474,M,0.0,*6B
###2023-05-05 12:50:34.626174$GNGGA,165115.20,4120.8463981,N,07038.1475123,W,1,24,0.6,0.083,M,-30.475,M,0.0,*6D
###2023-05-05 12:50:36.628193$GNGGA,165117.20,4120.8441926,N,07038.1475023,W,1,24,0.6,0.357,M,-30.475,M,0.0,*69
###2023-05-05 12:50:38.622598$GNGGA,165119.20,4120.8419527,N,07038.1476050,W,1,24,0.6,0.680,M,-30.475,M,0.0,*6F
###2023-05-05 12:50:40.627315$GNGGA,165121.20,4120.8398184,N,07038.1476354,W,1,24,0.6,0.448,M,-30.475,M,0.0,*66
###2023-05-05 12:50:42.627980$GNGGA,165123.20,4120.8376140,N,07038.1474551,W,1,24,0.6,0.344,M,-30.475,M,0.0,*66
###2023-05-05 12:50:44.627027$GNGGA,165125.20,4120.8353116,N,07038.1474178,W,1,24,0.6,0.283,M,-30.475,M,0.0,*61
###2023-05-05 12:50:46.628094$GNGGA,165127.20,4120.8331596,N,07038.1475979,W,1,24,0.6,0.475,M,-30.475,M,0.0,*6C
###2023-05-05 12:50:48.629111$GNGGA,165129.20,4120.8308296,N,07038.1474400,W,1,24,0.6,0.273,M,-30.475,M,0.0,*6D
###2023-05-05 12:50:50.628075$GNGGA,165131.20,4120.8285883,N,07038.1474714,W,1,24,0.6,0.705,M,-30.475,M,0.0,*6C
###2023-05-05 12:50:52.629278$GNGGA,165133.20,4120.8262443,N,07038.1473246,W,1,24,0.6,0.265,M,-30.475,M,0.0,*61
###2023-05-05 12:50:54.629034$GNGGA,165135.20,4120.8237174,N,07038.1473866,W,1,24,0.6,0.285,M,-30.475,M,0.0,*60
###2023-05-05 12:50:56.627936$GNGGA,165137.20,4120.8212604,N,07038.1473701,W,1,24,0.6,0.654,M,-30.475,M,0.0,*63
