###2023-05-05 12:24:22.605321$GNGGA,162503.20,4120.8206859,N,07038.2623351,W,1,21,0.7,0.193,M,-30.477,M,0.0,*6B
###2023-05-05 12:24:24.606020$GNGGA,162505.20,4120.8232966,N,07038.2622491,W,1,21,0.7,0.115,M,-30.477,M,0.0,*63
###2023-05-05 12:24:26.603133$GNGGA,162507.20,4120.8259980,N,07038.2622834,W,1,21,0.7,0.181,M,-30.477,M,0.0,*6A
###2023-05-05 12:24:28.603427$GNGGA,162509.20,4120.8287474,N,07038.2623206,W,1,21,0.7,0.103,M,-30.477,M,0.0,*61
###2023-05-05 12:24:30.598844$GNGGA,162511.20,4120.8316070,N,07038.2622732,W,1,21,0.7,0.228,M,-30.477,M,0.0,*68
###2023-05-05 12:24:32.604756$GNGGA,162513.20,4120.8345541,N,07038.2622729,W,1,21,0.7,0.346,M,-30.477,M,0.0,*68
###2023-05-05 12:24:34.603285$GNGGA,162515.20,4120.8373726,N,07038.2625236,W,1,21,0.7,0.436,M,-30.477,M,0.0,*64
###2023-05-05 12:24:36.605806$GNGGA,162517.20,4120.8399283,N,07038.2626239,W,1,20,0.8,0.071,M,-30.476,M,0.0,*6C
###2023-05-05 12:24:38.606983$GNGGA,162519.20,4120.8425175,N,07038.2622950,W,1,21,0.7,0.036,M,-30.476,M,0.0,*65
###2023-05-05 12:24:40.606857$GNGGA,162521.20,4120.8454240,N,07038.2619630,W,1,21,0.7,0.319,M,-30.476,M,0.0,*62
###2023-05-05 12:24:42.606811$GNGGA,162523.20,4120.8486901,N,07038.2619815,W,1,21,0.7,0.221,M,-30.476,M,0.0,*62
###2023-05-05 12:24:44.604865$GNGGA,162525.20,4120.8519143,N,07038.2623954,W,1,21,0.7,0.370,M,-30.476,M,0.0,*65
###2023-05-05 12:24:46.607971$GNGGA,162527.20,4120.8548005,N,07038.2626784,W,1,21,0.7,0.165,M,-30.476,M,0.0,*60
###2023-05-05 12:24:48.607718$GNGGA,162529.20,4120.8574310,N,07038.2626263,W,1,21,0.7,0.366,M,-30.476,M,0.0,*6B
###2023-05-05 12:24:50.603491$GNGGA,162531.20,4120.8600729,N,07038.2622888,W,1,21,0.7,0.281,M,-30.476,M,0.0,*6F
###2023-05-05 12:24:52.607645$GNGGA,162533.20,4120.8629574,N,07038.2620499,W,1,22,0.6,0.200,M,-30.476,M,0.0,*69
###2023-05-05 12:24:54.601972$GNGGA,162535.20,4120.8658885,N,07038.2621437,W,1,22,0.6,0.189,M,-30.476,M,0.0,*6D
###2023-05-05 12:24:56.605476$GNGGA,162537.20,4120.8686884,N,07038.2623325,W,1,21,0.7,0.152,M,-30.475,M,0.0,*6C
###2023-05-05 12:24:58.609108$GNGGA,162539.20,4120.8716520,N,07038.2622224,W,1,22,0.6,0.237,M,-30.475,M,0.0,*6A
###2023-05-05 12:25:00.604898$GNGGA,162541.20,4120.8747723,N,07038.2622723,W,1,22,0.6,0.508,M,-30.475,M,0.0,*69
###2023-05-05 12:25:02.602744$GNGGA,162543.20,4120.8776483,N,07038.2642613,W,1,22,0.6,0.331,M,-30.475,M,0.0,*68
###2023-05-05 12:25:04.603996$GNGGA,162545.20,4120.8783147,N,07038.2683862,W,1,22,0.6,0.157,M,-30.475,M,0.0,*6E
###2023-05-05 12:25:06.604795$GNGGA,162547.20,4120.8767747,N,07038.2720241,W,1,22,0.6,-0.089,M,-30.475,M,0.0,*4C
###2023-05-05 12:25:08.606394$GNGGA,162549.20,4120.8758281,N,07038.2747588,W,1,22,0.6,-0.086,M,-30.475,M,0.0,*4D
###2023-05-05 12:25:10.607424$GNGGA,162551.20,4120.8744942,N,07038.2771463,W,1,22,0.6,0.031,M,-30.475,M,0.0,*6D
###2023-05-05 12:25:12.608240$GNGGA,162553.20,4120.8719065,N,07038.2778483,W,1,22,0.6,0.037,M,-30.476,M,0.0,*69
###2023-05-05 12:25:14.609511$GNGGA,162555.20,4120.8694810,N,07038.2770051,W,1,22,0.6,0.104,M,-30.476,M,0.0,*63
###2023-05-05 12:25:16.608146$GNGGA,162557.20,4120.8676005,N,07038.2766697,W,1,22,0.6,0.139,M,-30.476,M,0.0,*64
###2023-05-05 12:25:18.608270$GNGGA,162559.20,4120.8657383,N,07038.2768645,W,1,22,0.6,-0.118,M,-30.476,M,0.0,*4B
###2023-05-05 12:25:20.608301$GNGGA,162601.20,4120.8637296,N,07038.2772042,W,1,22,0.6,-0.102,M,-30.476,M,0.0,*47
###2023-05-05 12:25:22.609140$GNGGA,162603.20,4120.8615311,N,07038.2772527,W,1,22,0.6,-0.113,M,-30.476,M,0.0,*4D
###2023-05-05 12:25:24.608235$GNGGA,162605.20,4120.8594270,N,07038.2773950,W,1,22,0.6,0.364,M,-30.476,M,0.0,*65
###2023-05-05 12:25:26.603528$GNGGA,162607.20,4120.8571479,N,07038.2769933,W,1,22,0.6,-0.174,M,-30.476,M,0.0,*43
###2023-05-05 12:25:28.605464$GNGGA,162609.20,4120.8550619,N,07038.2770368,W,1,22,0.6,-0.088,M,-30.476,M,0.0,*44
###2023-05-05 12:25:30.605953$GNGGA,162611.20,4120.8529752,N,07038.2768142,W,1,22,0.6,-0.184,M,-30.476,M,0.0,*43
###2023-05-05 12:25:32.605568$GNGGA,162613.20,4120.8509458,N,07038.2768031,W,1,22,0.6,-0.070,M,-30.476,M,0.0,*45
###2023-05-05 12:25:34.605399$GNGGA,162615.20,4120.8487068,N,07038.2767775,W,1,22,0.6,-0.067,M,-30.476,M,0.0,*4D
###2023-05-05 12:25:36.607082$GNGGA,162617.20,4120.8464409,N,07038.2767446,W,1,22,0.6,-0.039,M,-30.476,M,0.0,*49
###2023-05-05 12:25:38.604148$GNGGA,162619.20,4120.8443433,N,07038.2767827,W,1,22,0.6,0.409,M,-30.477,M,0.0,*6B
###2023-05-05 12:25:40.606876$GNGGA,162621.20,4120.8419677,N,07038.2767605,W,1,22,0.6,0.019,M,-30.477,M,0.0,*66
###2023-05-05 12:25:42.607867$GNGGA,162623.20,4120.8397544,N,07038.2766469,W,1,22,0.6,-0.168,M,-30.477,M,0.0,*45
###2023-05-05 12:25:44.607975$GNGGA,162625.20,4120.8376029,N,07038.2770032,W,1,22,0.6,0.192,M,-30.477,M,0.0,*67
###2023-05-05 12:25:46.607797$GNGGA,162627.20,4120.8354879,N,07038.2768408,W,1,22,0.6,-0.077,M,-30.477,M,0.0,*4B
###2023-05-05 12:25:48.608887$GNGGA,162629.20,4120.8333076,N,07038.2768621,W,1,22,0.6,0.129,M,-30.477,M,0.0,*6D
###2023-05-05 12:25:50.608497$GNGGA,162631.20,4120.8310834,N,07038.2767375,W,1,22,0.6,0.192,M,-30.477,M,0.0,*60
###2023-05-05 12:25:52.607556$GNGGA,162633.20,4120.8287371,N,07038.2765951,W,1,22,0.6,0.162,M,-30.477,M,0.0,*66
###2023-05-05 12:25:54.608549$GNGGA,162635.20,4120.8263538,N,07038.2766980,W,1,22,0.6,0.131,M,-30.477,M,0.0,*68
###2023-05-05 12:25:56.605522$GNGGA,162637.20,4120.8239485,N,07038.2767031,W,1,22,0.6,-0.016,M,-30.477,M,0.0,*49
###2023-05-05 12:25:58.604766$GNGGA,162639.20,4120.8217402,N,07038.2769409,W,1,22,0.6,0.565,M,-30.477,M,0.0,*69
###2023-05-05 12:26:00.605761$GNGGA,162641.20,4120.8195291,N,07038.2767885,W,1,22,0.6,0.134,M,-30.477,M,0.0,*65
###2023-05-05 12:26:02.601358$GNGGA,162643.20,4120.8170795,N,07038.2765519,W,1,22,0.6,0.029,M,-30.478,M,0.0,*65
###2023-05-05 12:26:04.605635$GNGGA,162645.20,4120.8144928,N,07038.2766452,W,1,22,0.6,0.309,M,-30.478,M,0.0,*60
###2023-05-05 12:26:06.603800$GNGGA,162647.20,4120.8120094,N,07038.2768361,W,1,22,0.6,0.205,M,-30.478,M,0.0,*6A
###2023-05-05 12:26:08.608320$GNGGA,162649.20,4120.8095610,N,07038.2768289,W,1,22,0.6,0.230,M,-30.478,M,0.0,*60
###2023-05-05 12:26:10.608237$GNGGA,162651.20,4120.8071527,N,07038.2766381,W,1,22,0.6,0.081,M,-30.478,M,0.0,*6B
###2023-05-05 12:26:12.609327$GNGGA,162653.20,4120.8046174,N,07038.2766951,W,1,22,0.6,0.184,M,-30.478,M,0.0,*6C
###2023-05-05 12:26:14.607134$GNGGA,162655.20,4120.8021987,N,07038.2767673,W,1,22,0.6,0.222,M,-30.478,M,0.0,*6E
###2023-05-05 12:26:16.607364$GNGGA,162657.20,4120.7997828,N,07038.2766864,W,1,22,0.6,0.284,M,-30.478,M,0.0,*66
###2023-05-05 12:26:18.610089$GNGGA,162659.20,4120.7973579,N,07038.2766675,W,1,22,0.6,0.102,M,-30.478,M,0.0,*68
###2023-05-05 12:26:20.603539$GNGGA,162701.20,4120.7949102,N,07038.2765930,W,1,22,0.6,0.284,M,-30.478,M,0.0,*65
###2023-05-05 12:26:22.609085$GNGGA,162703.20,4120.7923117,N,07038.2765235,W,1,22,0.6,0.333,M,-30.478,M,0.0,*6C
###2023-05-05 12:26:24.608978$GNGGA,162705.20,4120.7896722,N,07038.2764131,W,1,22,0.6,0.205,M,-30.479,M,0.0,*66
###2023-05-05 12:26:26.608946$GNGGA,162707.20,4120.7869581,N,07038.2766875,W,1,22,0.6,0.170,M,-30.479,M,0.0,*65
###2023-05-05 12:26:28.605428$GNGGA,162709.20,4120.7843934,N,07038.2768423,W,1,22,0.6,0.262,M,-30.479,M,0.0,*60
###2023-05-05 12:26:30.606369$GNGGA,162711.20,4120.7819367,N,07038.2768203,W,1,22,0.6,0.415,M,-30.479,M,0.0,*68
###2023-05-05 12:26:32.605269$GNGGA,162713.20,4120.7795164,N,07038.2768004,W,1,22,0.6,0.289,M,-30.479,M,0.0,*66
###2023-05-05 12:26:34.606347$GNGGA,162715.20,4120.7769491,N,07038.2766003,W,1,22,0.6,0.206,M,-30.479,M,0.0,*62
###2023-05-05 12:26:36.607403$GNGGA,162717.20,4120.7742567,N,07038.2765727,W,1,22,0.6,0.294,M,-30.479,M,0.0,*68
###2023-05-05 12:26:38.608721$GNGGA,162719.20,4120.7715324,N,07038.2766827,W,1,22,0.6,0.294,M,-30.479,M,0.0,*69
###2023-05-05 12:26:40.603205$GNGGA,162721.20,4120.7688713,N,07038.2769038,W,1,22,0.6,0.241,M,-30.479,M,0.0,*66
###2023-05-05 12:26:42.609730$GNGGA,162723.20,4120.7660896,N,07038.2786410,W,1,22,0.6,0.183,M,-30.479,M,0.0,*62
###2023-05-05 12:26:44.608849$GNGGA,162725.20,4120.7645995,N,07038.2824884,W,1,22,0.6,0.450,M,-30.480,M,0.0,*6A
###2023-05-05 12:26:46.609662$GNGGA,162727.20,4120.7646999,N,07038.2866367,W,1,22,0.6,0.186,M,-30.480,M,0.0,*69
###2023-05-05 12:26:48.609581$GNGGA,162729.20,4120.7664413,N,07038.2900028,W,1,22,0.6,0.090,M,-30.480,M,0.0,*67
###2023-05-05 12:26:50.608558$GNGGA,162731.20,4120.7693912,N,07038.2908299,W,1,21,0.7,0.351,M,-30.480,M,0.0,*66
###2023-05-05 12:26:52.603981$GNGGA,162733.20,4120.7719578,N,07038.2903835,W,1,21,0.7,0.331,M,-30.479,M,0.0,*60
###2023-05-05 12:26:54.609453$GNGGA,162735.20,4120.7738583,N,07038.2903153,W,1,22,0.6,0.402,M,-30.479,M,0.0,*6D
###2023-05-05 12:26:56.602908$GNGGA,162737.20,4120.7757460,N,07038.2906684,W,1,22,0.6,0.539,M,-30.479,M,0.0,*6B
###2023-05-05 12:26:58.605783$GNGGA,162739.20,4120.7777495,N,07038.2910648,W,1,22,0.6,0.372,M,-30.479,M,0.0,*63
###2023-05-05 12:27:00.608211$GNGGA,162741.20,4120.7798506,N,07038.2913741,W,1,22,0.6,0.444,M,-30.479,M,0.0,*6F
###2023-05-05 12:27:02.605750$GNGGA,162743.20,4120.7819649,N,07038.2913830,W,1,21,0.7,0.226,M,-30.479,M,0.0,*6A
###2023-05-05 12:27:04.606782$GNGGA,162745.20,4120.7840808,N,07038.2914128,W,1,21,0.7,0.085,M,-30.479,M,0.0,*67
###2023-05-05 12:27:06.609405$GNGGA,162747.20,4120.7862265,N,07038.2913360,W,1,21,0.7,0.136,M,-30.479,M,0.0,*64
###2023-05-05 12:27:08.618316$GNGGA,162749.20,4120.7885548,N,07038.2912835,W,1,22,0.6,0.317,M,-30.479,M,0.0,*62
###2023-05-05 12:27:10.610185$GNGGA,162751.20,4120.7908162,N,07038.2912699,W,1,21,0.7,0.673,M,-30.479,M,0.0,*6E
###2023-05-05 12:27:12.612005$GNGGA,162753.20,4120.7928678,N,07038.2911883,W,1,21,0.7,0.307,M,-30.479,M,0.0,*62
###2023-05-05 12:27:14.609181$GNGGA,162755.20,4120.7949388,N,07038.2911706,W,1,21,0.7,0.099,M,-30.479,M,0.0,*6F
###2023-05-05 12:27:16.609133$GNGGA,162757.20,4120.7970519,N,07038.2911626,W,1,21,0.7,0.064,M,-30.479,M,0.0,*68
###2023-05-05 12:27:18.610246$GNGGA,162759.20,4120.7993255,N,07038.2911934,W,1,21,0.7,0.058,M,-30.478,M,0.0,*66
###2023-05-05 12:27:20.610088$GNGGA,162801.20,4120.8015327,N,07038.2912538,W,1,21,0.7,0.127,M,-30.478,M,0.0,*62
###2023-05-05 12:27:22.610147$GNGGA,162803.20,4120.8038026,N,07038.2912453,W,1,21,0.7,-0.009,M,-30.478,M,0.0,*41
###2023-05-05 12:27:24.605429$GNGGA,162805.20,4120.8061537,N,07038.2912079,W,1,21,0.7,0.118,M,-30.478,M,0.0,*6E
###2023-05-05 12:27:26.608930$GNGGA,162807.20,4120.8086157,N,07038.2912241,W,1,22,0.6,0.293,M,-30.478,M,0.0,*6C
###2023-05-05 12:27:28.600708$GNGGA,162809.20,4120.8109154,N,07038.2914223,W,1,21,0.7,0.101,M,-30.478,M,0.0,*6F
###2023-05-05 12:27:30.607418$GNGGA,162811.20,4120.8132461,N,07038.2914341,W,1,22,0.6,0.096,M,-30.478,M,0.0,*65
###2023-05-05 12:27:32.607492$GNGGA,162813.20,4120.8156310,N,07038.2913573,W,1,21,0.7,0.050,M,-30.478,M,0.0,*6C
###2023-05-05 12:27:34.610979$GNGGA,162815.20,4120.8179799,N,07038.2913419,W,1,22,0.6,-0.024,M,-30.478,M,0.0,*43
###2023-05-05 12:27:36.605230$GNGGA,162817.20,4120.8203715,N,07038.2912167,W,1,21,0.7,-0.207,M,-30.478,M,0.0,*47
###2023-05-05 12:27:38.610772$GNGGA,162819.20,4120.8229563,N,07038.2911551,W,1,22,0.6,-0.099,M,-30.478,M,0.0,*47
###2023-05-05 12:27:40.610666$GNGGA,162821.20,4120.8255824,N,07038.2911908,W,1,22,0.6,0.009,M,-30.477,M,0.0,*62
