###2023-05-05 12:34:22.613605$GNGGA,163503.20,4120.8479069,N,07038.3478321,W,1,21,0.7,0.177,M,-30.477,M,0.0,*6F
###2023-05-05 12:34:24.613482$GNGGA,163505.20,4120.8508842,N,07038.3480467,W,1,21,0.7,0.252,M,-30.477,M,0.0,*69
###2023-05-05 12:34:26.613513$GNGGA,163507.20,4120.8538941,N,07038.3482036,W,1,21,0.7,0.126,M,-30.477,M,0.0,*68
###2023-05-05 12:34:28.612557$GNGGA,163509.20,4120.8567233,N,07038.3483273,W,1,21,0.7,0.084,M,-30.477,M,0.0,*69
###2023-05-05 12:34:30.612432$GNGGA,163511.20,4120.8595617,N,07038.3486467,W,1,22,0.6,0.141,M,-30.477,M,0.0,*63
###2023-05-05 12:34:32.612495$GNGGA,163513.20,4120.8622620,N,07038.3483078,W,1,21,0.7,0.039,M,-30.477,M,0.0,*69
###2023-05-05 12:34:34.610297$GNGGA,163515.20,4120.8653616,N,07038.3480296,W,1,21,0.7,0.152,M,-30.477,M,0.0,*61
###2023-05-05 12:34:36.613389$GNGGA,163517.20,4120.8687597,N,07038.3481622,W,1,22,0.6,0.029,M,-30.477,M,0.0,*65
###2023-05-05 12:34:38.612221$GNGGA,163519.20,4120.8719827,N,07038.3512098,W,1,21,0.7,0.241,M,-30.477,M,0.0,*69
###2023-05-05 12:34:40.609164$GNGGA,163521.20,4120.8718014,N,07038.3564020,W,1,04,2.8,0.525,M,-30.477,M,0.0,*66
###2023-05-05 12:34:42.613210$GNGGA,163523.20,4120.8693610,N,07038.3589955,W,1,21,0.7,-0.069,M,-30.477,M,0.0,*46
###2023-05-05 12:34:44.613209$GNGGA,163525.20,4120.8679549,N,07038.3615180,W,1,22,0.6,0.103,M,-30.477,M,0.0,*6F
###2023-05-05 12:34:46.613169$GNGGA,163527.20,4120.8664855,N,07038.3632180,W,1,22,0.6,0.345,M,-30.477,M,0.0,*64
###2023-05-05 12:34:48.607555$GNGGA,163529.20,4120.8642084,N,07038.3636798,W,1,22,0.6,0.016,M,-30.477,M,0.0,*64
###2023-05-05 12:34:50.613208$GNGGA,163531.20,4120.8621235,N,07038.3631113,W,1,22,0.6,0.023,M,-30.477,M,0.0,*64
###2023-05-05 12:34:52.608458$GNGGA,163533.20,4120.8602637,N,07038.3625287,W,1,22,0.6,0.252,M,-30.477,M,0.0,*6E
###2023-05-05 12:34:54.613874$GNGGA,163535.20,4120.8584799,N,07038.3628002,W,1,21,0.7,0.253,M,-30.477,M,0.0,*61
###2023-05-05 12:34:56.612112$GNGGA,163537.20,4120.8565776,N,07038.3637829,W,1,22,0.6,0.140,M,-30.477,M,0.0,*61
###2023-05-05 12:34:58.612997$GNGGA,163539.20,4120.8544572,N,07038.3641010,W,1,22,0.6,0.177,M,-30.477,M,0.0,*6D
###2023-05-05 12:35:00.609930$GNGGA,163541.20,4120.8523123,N,07038.3633771,W,1,22,0.6,0.122,M,-30.478,M,0.0,*69
###2023-05-05 12:35:02.612994$GNGGA,163543.20,4120.8503460,N,07038.3632360,W,1,22,0.6,0.155,M,-30.478,M,0.0,*6E
###2023-05-05 12:35:04.612793$GNGGA,163545.20,4120.8482670,N,07038.3634612,W,1,22,0.6,0.142,M,-30.478,M,0.0,*63
###2023-05-05 12:35:06.612767$GNGGA,163547.20,4120.8461607,N,07038.3628499,W,1,22,0.6,0.058,M,-30.478,M,0.0,*6A
###2023-05-05 12:35:08.608334$GNGGA,163549.20,4120.8449496,N,07038.3630126,W,1,20,0.7,0.410,M,-30.478,M,0.0,*67
###2023-05-05 12:35:10.612631$GNGGA,163551.20,4120.8432118,N,07038.3621629,W,1,22,0.6,0.114,M,-30.478,M,0.0,*6B
###2023-05-05 12:35:12.607143$GNGGA,163553.20,4120.8407680,N,07038.3613549,W,1,22,0.6,-0.116,M,-30.478,M,0.0,*42
###2023-05-05 12:35:14.606397$GNGGA,163555.20,4120.8381722,N,07038.3604357,W,1,19,0.7,-0.077,M,-30.478,M,0.0,*44
###2023-05-05 12:35:16.614516$GNGGA,163557.20,4120.8361049,N,07038.3596279,W,1,22,0.6,0.072,M,-30.478,M,0.0,*66
###2023-05-05 12:35:18.614780$GNGGA,163559.20,4120.8333555,N,07038.3581123,W,1,22,0.6,-0.090,M,-30.478,M,0.0,*4C
###2023-05-05 12:35:20.614463$GNGGA,163601.20,4120.8302568,N,07038.3562938,W,1,22,0.6,0.634,M,-30.478,M,0.0,*64
###2023-05-05 12:35:22.614480$GNGGA,163603.20,4120.8271894,N,07038.3547043,W,1,22,0.6,0.252,M,-30.478,M,0.0,*6B
###2023-05-05 12:35:24.608953$GNGGA,163605.20,4120.8247576,N,07038.3547460,W,1,22,0.6,-0.025,M,-30.478,M,0.0,*43
###2023-05-05 12:35:26.614473$GNGGA,163607.20,4120.8224669,N,07038.3547495,W,1,22,0.6,-0.094,M,-30.478,M,0.0,*49
###2023-05-05 12:35:28.612340$GNGGA,163609.20,4120.8206426,N,07038.3549889,W,1,22,0.6,0.136,M,-30.479,M,0.0,*64
###2023-05-05 12:35:30.613262$GNGGA,163611.20,4120.8186436,N,07038.3548003,W,1,22,0.6,-0.003,M,-30.479,M,0.0,*46
###2023-05-05 12:35:32.611294$GNGGA,163613.20,4120.8163966,N,07038.3549273,W,1,22,0.6,-0.111,M,-30.479,M,0.0,*41
###2023-05-05 12:35:34.613206$GNGGA,163615.20,4120.8140269,N,07038.3553799,W,1,22,0.6,0.100,M,-30.479,M,0.0,*65
###2023-05-05 12:35:36.614260$GNGGA,163617.20,4120.8117566,N,07038.3559245,W,1,22,0.6,-0.127,M,-30.479,M,0.0,*4B
###2023-05-05 12:35:38.614170$GNGGA,163619.20,4120.8094236,N,07038.3564486,W,1,22,0.6,-0.050,M,-30.479,M,0.0,*4B
###2023-05-05 12:35:40.614105$GNGGA,163621.20,4120.8071203,N,07038.3569805,W,1,22,0.6,0.391,M,-30.479,M,0.0,*64
###2023-05-05 12:35:42.613957$GNGGA,163623.20,4120.8048249,N,07038.3572601,W,1,22,0.6,0.111,M,-30.479,M,0.0,*68
###2023-05-05 12:35:44.614190$GNGGA,163625.20,4120.8023766,N,07038.3574925,W,1,22,0.6,-0.120,M,-30.479,M,0.0,*4B
###2023-05-05 12:35:46.608374$GNGGA,163627.20,4120.7998741,N,07038.3578209,W,1,22,0.6,0.115,M,-30.479,M,0.0,*68
###2023-05-05 12:35:48.615001$GNGGA,163629.20,4120.7974483,N,07038.3582343,W,1,22,0.6,0.121,M,-30.479,M,0.0,*64
###2023-05-05 12:35:50.607452$GNGGA,163631.20,4120.7949251,N,07038.3584963,W,1,22,0.6,0.108,M,-30.480,M,0.0,*69
###2023-05-05 12:35:52.614032$GNGGA,163633.20,4120.7924209,N,07038.3588487,W,1,22,0.6,0.237,M,-30.480,M,0.0,*69
###2023-05-05 12:35:54.614863$GNGGA,163635.20,4120.7899283,N,07038.3591136,W,1,22,0.6,0.267,M,-30.480,M,0.0,*68
###2023-05-05 12:35:56.614818$GNGGA,163637.20,4120.7874057,N,07038.3594669,W,1,22,0.6,0.198,M,-30.480,M,0.0,*69
###2023-05-05 12:35:58.613747$GNGGA,163639.20,4120.7847082,N,07038.3598801,W,1,22,0.6,0.348,M,-30.480,M,0.0,*6C
###2023-05-05 12:36:00.613812$GNGGA,163641.20,4120.7822091,N,07038.3603458,W,1,22,0.6,0.388,M,-30.480,M,0.0,*6F
###2023-05-05 12:36:02.613647$GNGGA,163643.20,4120.7798082,N,07038.3605334,W,1,22,0.6,0.049,M,-30.480,M,0.0,*64
###2023-05-05 12:36:04.614716$GNGGA,163645.20,4120.7772333,N,07038.3608024,W,1,22,0.6,0.158,M,-30.480,M,0.0,*61
###2023-05-05 12:36:06.615761$GNGGA,163647.20,4120.7747018,N,07038.3612605,W,1,22,0.6,0.356,M,-30.480,M,0.0,*6D
###2023-05-05 12:36:08.615239$GNGGA,163649.20,4120.7722131,N,07038.3615113,W,1,22,0.6,0.163,M,-30.480,M,0.0,*69
###2023-05-05 12:36:10.615593$GNGGA,163651.20,4120.7695947,N,07038.3617706,W,1,22,0.6,0.286,M,-30.481,M,0.0,*6D
###2023-05-05 12:36:12.615775$GNGGA,163653.20,4120.7669499,N,07038.3622308,W,1,22,0.6,0.334,M,-30.481,M,0.0,*66
###2023-05-05 12:36:14.615454$GNGGA,163655.20,4120.7643847,N,07038.3637850,W,1,22,0.6,0.410,M,-30.481,M,0.0,*64
###2023-05-05 12:36:16.615487$GNGGA,163657.20,4120.7629213,N,07038.3673716,W,1,22,0.6,0.259,M,-30.481,M,0.0,*67
###2023-05-05 12:36:18.615618$GNGGA,163659.20,4120.7627894,N,07038.3713108,W,1,22,0.6,0.229,M,-30.481,M,0.0,*6B
###2023-05-05 12:36:20.616436$GNGGA,163701.20,4120.7638519,N,07038.3747132,W,1,22,0.6,0.190,M,-30.481,M,0.0,*68
###2023-05-05 12:36:22.616620$GNGGA,163703.20,4120.7658630,N,07038.3767322,W,1,22,0.6,0.233,M,-30.481,M,0.0,*6F
###2023-05-05 12:36:24.616456$GNGGA,163705.20,4120.7683522,N,07038.3767172,W,1,22,0.6,0.284,M,-30.481,M,0.0,*64
###2023-05-05 12:36:26.609709$GNGGA,163707.20,4120.7705422,N,07038.3766738,W,1,21,0.7,0.532,M,-30.481,M,0.0,*69
###2023-05-05 12:36:28.614134$GNGGA,163709.20,4120.7726640,N,07038.3768999,W,1,22,0.6,0.510,M,-30.481,M,0.0,*69
###2023-05-05 12:36:30.615093$GNGGA,163711.20,4120.7746530,N,07038.3769181,W,1,22,0.6,0.477,M,-30.481,M,0.0,*62
###2023-05-05 12:36:32.617013$GNGGA,163713.20,4120.7766663,N,07038.3769857,W,1,21,0.7,0.273,M,-30.481,M,0.0,*65
###2023-05-05 12:36:34.615265$GNGGA,163715.20,4120.7787631,N,07038.3770840,W,1,21,0.7,0.303,M,-30.480,M,0.0,*62
###2023-05-05 12:36:36.616071$GNGGA,163717.20,4120.7809198,N,07038.3771348,W,1,21,0.7,0.307,M,-30.480,M,0.0,*6B
###2023-05-05 12:36:38.616335$GNGGA,163719.20,4120.7830821,N,07038.3770894,W,1,21,0.7,0.334,M,-30.480,M,0.0,*6F
###2023-05-05 12:36:40.616297$GNGGA,163721.20,4120.7852073,N,07038.3770685,W,1,21,0.7,0.359,M,-30.480,M,0.0,*6A
###2023-05-05 12:36:42.616974$GNGGA,163723.20,4120.7873571,N,07038.3770699,W,1,21,0.7,0.261,M,-30.480,M,0.0,*6B
###2023-05-05 12:36:44.616040$GNGGA,163725.20,4120.7894889,N,07038.3770171,W,1,21,0.7,0.301,M,-30.480,M,0.0,*68
###2023-05-05 12:36:46.616027$GNGGA,163727.20,4120.7915953,N,07038.3770133,W,1,21,0.7,0.256,M,-30.480,M,0.0,*61
###2023-05-05 12:36:48.616865$GNGGA,163729.20,4120.7936882,N,07038.3768657,W,1,21,0.7,0.263,M,-30.480,M,0.0,*69
###2023-05-05 12:36:50.616752$GNGGA,163731.20,4120.7958707,N,07038.3769092,W,1,22,0.6,0.143,M,-30.480,M,0.0,*67
###2023-05-05 12:36:52.615951$GNGGA,163733.20,4120.7981966,N,07038.3769761,W,1,21,0.7,0.360,M,-30.480,M,0.0,*62
###2023-05-05 12:36:54.616693$GNGGA,163735.20,4120.8004566,N,07038.3770736,W,1,21,0.7,0.480,M,-30.480,M,0.0,*60
###2023-05-05 12:36:56.616727$GNGGA,163737.20,4120.8026120,N,07038.3772394,W,1,21,0.7,0.496,M,-30.480,M,0.0,*6D
###2023-05-05 12:36:58.614645$GNGGA,163739.20,4120.8045776,N,07038.3769861,W,1,21,0.7,0.529,M,-30.479,M,0.0,*6B
###2023-05-05 12:37:00.616482$GNGGA,163741.20,4120.8067576,N,07038.3770118,W,1,21,0.7,0.377,M,-30.479,M,0.0,*64
###2023-05-05 12:37:02.614573$GNGGA,163743.20,4120.8090478,N,07038.3768614,W,1,21,0.7,0.306,M,-30.479,M,0.0,*65
###2023-05-05 12:37:04.614356$GNGGA,163745.20,4120.8114562,N,07038.3768412,W,1,21,0.7,0.241,M,-30.479,M,0.0,*62
###2023-05-05 12:37:06.615730$GNGGA,163747.20,4120.8139960,N,07038.3768111,W,1,21,0.7,0.244,M,-30.479,M,0.0,*62
###2023-05-05 12:37:08.615648$GNGGA,163749.20,4120.8164973,N,07038.3770450,W,1,21,0.7,0.566,M,-30.479,M,0.0,*68
###2023-05-05 12:37:10.615131$GNGGA,163751.20,4120.8188100,N,07038.3770760,W,1,21,0.7,0.240,M,-30.479,M,0.0,*6C
###2023-05-05 12:37:12.617914$GNGGA,163753.20,4120.8213626,N,07038.3768420,W,1,22,0.6,0.182,M,-30.479,M,0.0,*6D
###2023-05-05 12:37:14.594899$GNGGA,,,,,,,,,,,,,,*48
###2023-05-05 12:37:16.597242###2023-05-05 12:37:16.613230$GNGGA,163757.20,4120.8289500,N,07038.3733208,W,1,19,0.7,0.467,M,-30.479,M,0.0,*68
###2023-05-05 12:37:18.593569$GNGGA,163759.20,4120.8321687,N,07038.3731696,W,1,19,0.7,-1.466,M,-30.478,M,0.0,*44
###2023-05-05 12:37:20.594024###2023-05-05 12:37:20.613689$GNGGA,163801.20,4120.8343837,N,07038.3724362,W,1,21,0.7,-0.639,M,-30.478,M,0.0,*4F
###2023-05-05 12:37:22.614217$GNGGA,163803.20,4120.8370740,N,07038.3730021,W,1,22,0.6,-0.083,M,-30.478,M,0.0,*46
###2023-05-05 12:37:24.615497$GNGGA,163805.20,4120.8392089,N,07038.3727490,W,1,21,0.7,-0.045,M,-30.478,M,0.0,*4E
###2023-05-05 12:37:26.617243$GNGGA,163807.20,4120.8406079,N,07038.3717808,W,1,21,0.7,-0.199,M,-30.478,M,0.0,*47
###2023-05-05 12:37:28.612017$GNGGA,163809.20,4120.8415596,N,07038.3698669,W,1,21,0.7,-0.045,M,-30.478,M,0.0,*40
###2023-05-05 12:37:30.612709$GNGGA,163811.20,4120.8438676,N,07038.3685097,W,1,21,0.7,-0.241,M,-30.478,M,0.0,*46
###2023-05-05 12:37:32.613000$GNGGA,163813.20,4120.8474138,N,07038.3690596,W,1,21,0.7,-0.310,M,-30.478,M,0.0,*44
###2023-05-05 12:37:34.612738$GNGGA,163815.20,4120.8512593,N,07038.3702096,W,1,21,0.7,-0.244,M,-30.478,M,0.0,*49
###2023-05-05 12:37:36.609448$GNGGA,163817.20,4120.8541771,N,07038.3724732,W,1,21,0.7,-0.167,M,-30.478,M,0.0,*4C
