###2023-05-05 13:34:18.686124$GNGGA,173459.20,4120.8083718,N,07038.0945788,W,1,24,0.6,-0.095,M,-30.475,M,0.0,*41
###2023-05-05 13:34:20.683565$GNGGA,173501.20,4120.8077797,N,07038.0917334,W,1,24,0.6,-0.221,M,-30.475,M,0.0,*48
###2023-05-05 13:34:22.686481$GNGGA,173503.20,4120.8079665,N,07038.0888899,W,1,24,0.6,-0.295,M,-30.475,M,0.0,*4C
###2023-05-05 13:34:24.686332$GNGGA,173505.20,4120.8081175,N,07038.0859060,W,1,24,0.6,-0.343,M,-30.475,M,0.0,*43
###2023-05-05 13:34:26.685858$GNGGA,173507.20,4120.8082663,N,07038.0830123,W,1,24,0.6,-0.164,M,-30.475,M,0.0,*4C
###2023-05-05 13:34:28.685177$GNGGA,173509.20,4120.8082809,N,07038.0801426,W,1,24,0.6,-0.245,M,-30.475,M,0.0,*42
###2023-05-05 13:34:30.684150$GNGGA,173511.20,4120.8082810,N,07038.0772157,W,1,24,0.6,-0.367,M,-30.475,M,0.0,*4A
###2023-05-05 13:34:32.684177$GNGGA,173513.20,4120.8081667,N,07038.0743963,W,1,24,0.6,-0.291,M,-30.475,M,0.0,*40
###2023-05-05 13:34:34.680540$GNGGA,173515.20,4120.8082222,N,07038.0715523,W,1,24,0.6,-0.171,M,-30.475,M,0.0,*46
###2023-05-05 13:34:36.685961$GNGGA,173517.20,4120.8082635,N,07038.0686880,W,1,24,0.6,-0.145,M,-30.475,M,0.0,*4E
###2023-05-05 13:34:38.685658$GNGGA,173519.20,4120.8082057,N,07038.0657809,W,1,24,0.6,-0.396,M,-30.475,M,0.0,*43
###2023-05-05 13:34:40.684985$GNGGA,173521.20,4120.8081402,N,07038.0628999,W,1,24,0.6,-0.379,M,-30.475,M,0.0,*4E
###2023-05-05 13:34:42.685967$GNGGA,173523.20,4120.8082363,N,07038.0600296,W,1,24,0.6,-0.034,M,-30.475,M,0.0,*4B
###2023-05-05 13:34:44.686095$GNGGA,173525.20,4120.8081285,N,07038.0571377,W,1,24,0.6,-0.145,M,-30.475,M,0.0,*4B
###2023-05-05 13:34:46.686593$GNGGA,173527.20,4120.8080977,N,07038.0542171,W,1,24,0.6,-0.366,M,-30.475,M,0.0,*49
###2023-05-05 13:34:48.685958$GNGGA,173529.20,4120.8081405,N,07038.0512421,W,1,24,0.6,-0.394,M,-30.475,M,0.0,*46
###2023-05-05 13:34:50.684719$GNGGA,173531.20,4120.8086105,N,07038.0484536,W,1,24,0.6,0.292,M,-30.474,M,0.0,*6F
###2023-05-05 13:34:52.686423$GNGGA,173533.20,4120.8085823,N,07038.0455928,W,1,24,0.6,-0.160,M,-30.474,M,0.0,*4F
###2023-05-05 13:34:54.686384$GNGGA,173535.20,4120.8083799,N,07038.0426236,W,1,24,0.6,-0.263,M,-30.474,M,0.0,*41
###2023-05-05 13:34:56.683783$GNGGA,173537.20,4120.8082509,N,07038.0396491,W,1,24,0.6,-0.387,M,-30.474,M,0.0,*45
###2023-05-05 13:34:58.684131$GNGGA,173539.20,4120.8083277,N,07038.0368751,W,1,24,0.6,-0.141,M,-30.474,M,0.0,*42
###2023-05-05 13:35:00.684327$GNGGA,173541.20,4120.8082918,N,07038.0340117,W,1,24,0.6,-0.194,M,-30.474,M,0.0,*48
###2023-05-05 13:35:02.677986$GNGGA,173543.20,4120.8083084,N,07038.0310997,W,1,24,0.6,-0.236,M,-30.474,M,0.0,*49
###2023-05-05 13:35:04.683637$GNGGA,173545.20,4120.8085873,N,07038.0282721,W,1,24,0.6,-0.009,M,-30.474,M,0.0,*4E
###2023-05-05 13:35:06.686539$GNGGA,173547.20,4120.8083328,N,07038.0254234,W,1,24,0.6,-0.080,M,-30.474,M,0.0,*44
###2023-05-05 13:35:08.686674$GNGGA,173549.20,4120.8082777,N,07038.0224967,W,1,24,0.6,-0.319,M,-30.474,M,0.0,*4C
###2023-05-05 13:35:10.684503$GNGGA,173551.20,4120.8084811,N,07038.0195746,W,1,24,0.6,-0.212,M,-30.474,M,0.0,*42
###2023-05-05 13:35:12.684411$GNGGA,173553.20,4120.8096733,N,07038.0172481,W,1,24,0.6,-0.248,M,-30.474,M,0.0,*42
###2023-05-05 13:35:14.682527$GNGGA,173555.20,4120.8116511,N,07038.0161784,W,1,24,0.6,-0.202,M,-30.474,M,0.0,*45
###2023-05-05 13:35:16.682539$GNGGA,173557.20,4120.8137365,N,07038.0166862,W,1,24,0.6,-0.084,M,-30.474,M,0.0,*4D
###2023-05-05 13:35:18.686357$GNGGA,173559.20,4120.8157495,N,07038.0174159,W,1,24,0.6,-0.085,M,-30.474,M,0.0,*4E
###2023-05-05 13:35:20.685266$GNGGA,173601.20,4120.8177536,N,07038.0181355,W,1,24,0.6,-0.030,M,-30.474,M,0.0,*40
###2023-05-05 13:35:22.683263$GNGGA,173603.20,4120.8194050,N,07038.0199290,W,1,24,0.6,-0.086,M,-30.474,M,0.0,*46
###2023-05-05 13:35:24.684152$GNGGA,173605.20,4120.8196651,N,07038.0228595,W,1,24,0.6,-0.092,M,-30.474,M,0.0,*4B
###2023-05-05 13:35:26.683104$GNGGA,173607.20,4120.8194492,N,07038.0256791,W,1,24,0.6,0.023,M,-30.474,M,0.0,*6E
###2023-05-05 13:35:28.683009$GNGGA,173609.20,4120.8194247,N,07038.0284697,W,1,24,0.6,0.015,M,-30.474,M,0.0,*63
###2023-05-05 13:35:30.683160$GNGGA,173611.20,4120.8186444,N,07038.0312567,W,1,24,0.6,-0.196,M,-30.474,M,0.0,*49
###2023-05-05 13:35:32.679874$GNGGA,173613.20,4120.8184720,N,07038.0339446,W,1,24,0.6,-0.238,M,-30.474,M,0.0,*44
###2023-05-05 13:35:34.675342$GNGGA,173615.20,4120.8189730,N,07038.0366918,W,1,24,0.6,-0.068,M,-30.474,M,0.0,*45
###2023-05-05 13:35:36.682956$GNGGA,173617.20,4120.8192142,N,07038.0397718,W,1,24,0.6,-0.043,M,-30.474,M,0.0,*47
###2023-05-05 13:35:38.682839$GNGGA,173619.20,4120.8192889,N,07038.0429042,W,1,24,0.6,0.042,M,-30.474,M,0.0,*61
###2023-05-05 13:35:40.684903$GNGGA,173621.20,4120.8192330,N,07038.0460691,W,1,24,0.6,-0.181,M,-30.474,M,0.0,*45
###2023-05-05 13:35:42.683851$GNGGA,173623.20,4120.8190900,N,07038.0489680,W,1,24,0.6,-0.267,M,-30.474,M,0.0,*40
###2023-05-05 13:35:44.686850$GNGGA,173625.20,4120.8191119,N,07038.0517469,W,1,24,0.6,-0.307,M,-30.474,M,0.0,*43
###2023-05-05 13:35:46.683821$GNGGA,173627.20,4120.8192031,N,07038.0545997,W,1,24,0.6,-0.354,M,-30.474,M,0.0,*44
###2023-05-05 13:35:48.685609$GNGGA,173629.20,4120.8194653,N,07038.0576458,W,1,24,0.6,0.028,M,-30.474,M,0.0,*65
###2023-05-05 13:35:50.677119$GNGGA,173631.20,4120.8191734,N,07038.0607586,W,1,24,0.6,-0.286,M,-30.474,M,0.0,*45
###2023-05-05 13:35:52.683760$GNGGA,173633.20,4120.8192872,N,07038.0637415,W,1,24,0.6,-0.305,M,-30.474,M,0.0,*4B
###2023-05-05 13:35:54.684761$GNGGA,173635.20,4120.8191442,N,07038.0666610,W,1,24,0.6,-0.364,M,-30.474,M,0.0,*45
###2023-05-05 13:35:56.685728$GNGGA,173637.20,4120.8191314,N,07038.0695429,W,1,24,0.6,-0.336,M,-30.474,M,0.0,*40
###2023-05-05 13:35:58.683702$GNGGA,173639.20,4120.8192507,N,07038.0725047,W,1,24,0.6,-0.014,M,-30.474,M,0.0,*4C
###2023-05-05 13:36:00.683756$GNGGA,173641.20,4120.8192522,N,07038.0754929,W,1,24,0.6,-0.298,M,-30.474,M,0.0,*45
###2023-05-05 13:36:02.683562$GNGGA,173643.20,4120.8192841,N,07038.0784651,W,1,24,0.6,-0.297,M,-30.475,M,0.0,*4C
###2023-05-05 13:36:04.683486$GNGGA,173645.20,4120.8192169,N,07038.0814001,W,1,24,0.6,-0.378,M,-30.475,M,0.0,*4C
###2023-05-05 13:36:06.684457$GNGGA,173647.20,4120.8191766,N,07038.0841528,W,1,24,0.6,-0.367,M,-30.475,M,0.0,*44
###2023-05-05 13:36:08.683470$GNGGA,173649.20,4120.8193432,N,07038.0870014,W,1,24,0.6,-0.220,M,-30.475,M,0.0,*40
###2023-05-05 13:36:10.683352$GNGGA,173651.20,4120.8193945,N,07038.0901378,W,1,24,0.6,-0.152,M,-30.475,M,0.0,*4C
###2023-05-05 13:36:12.684363$GNGGA,173653.20,4120.8192326,N,07038.0930746,W,1,24,0.6,-0.257,M,-30.475,M,0.0,*4D
###2023-05-05 13:36:14.684344$GNGGA,173655.20,4120.8192298,N,07038.0959307,W,1,24,0.6,-0.165,M,-30.475,M,0.0,*43
###2023-05-05 13:36:16.683195$GNGGA,173657.20,4120.8192387,N,07038.0988421,W,1,24,0.6,0.081,M,-30.475,M,0.0,*67
###2023-05-05 13:36:18.684121$GNGGA,173659.20,4120.8193078,N,07038.1018497,W,1,24,0.6,0.038,M,-30.475,M,0.0,*65
###2023-05-05 13:36:20.684277$GNGGA,173701.20,4120.8193016,N,07038.1046705,W,1,24,0.6,-0.108,M,-30.475,M,0.0,*4D
###2023-05-05 13:36:22.684233$GNGGA,173703.20,4120.8193093,N,07038.1074772,W,1,24,0.6,0.005,M,-30.475,M,0.0,*62
###2023-05-05 13:36:24.685256$GNGGA,173705.20,4120.8193122,N,07038.1104630,W,1,24,0.6,-0.087,M,-30.475,M,0.0,*49
###2023-05-05 13:36:26.683273$GNGGA,173707.20,4120.8193681,N,07038.1133243,W,1,24,0.6,-0.168,M,-30.475,M,0.0,*41
###2023-05-05 13:36:28.683070$GNGGA,173709.20,4120.8195229,N,07038.1162053,W,1,24,0.6,0.186,M,-30.475,M,0.0,*65
###2023-05-05 13:36:30.683481$GNGGA,173711.20,4120.8192456,N,07038.1191923,W,1,24,0.6,-0.142,M,-30.475,M,0.0,*42
###2023-05-05 13:36:32.683051$GNGGA,173713.20,4120.8193895,N,07038.1219248,W,1,24,0.6,-0.175,M,-30.475,M,0.0,*43
###2023-05-05 13:36:34.682909$GNGGA,173715.20,4120.8193914,N,07038.1248125,W,1,24,0.6,-0.303,M,-30.475,M,0.0,*42
###2023-05-05 13:36:36.683844$GNGGA,173717.20,4120.8194110,N,07038.1276905,W,1,24,0.6,-0.258,M,-30.475,M,0.0,*43
###2023-05-05 13:36:38.684736$GNGGA,173719.20,4120.8196205,N,07038.1306967,W,1,24,0.6,0.112,M,-30.475,M,0.0,*6A
###2023-05-05 13:36:40.685115$GNGGA,173721.20,4120.8193401,N,07038.1336845,W,1,24,0.6,-0.212,M,-30.475,M,0.0,*4A
###2023-05-05 13:36:42.684966$GNGGA,173723.20,4120.8193941,N,07038.1365301,W,1,24,0.6,-0.209,M,-30.475,M,0.0,*46
###2023-05-05 13:36:44.684594$GNGGA,173725.20,4120.8193294,N,07038.1394539,W,1,24,0.6,-0.262,M,-30.475,M,0.0,*4D
###2023-05-05 13:36:46.683847$GNGGA,173727.20,4120.8193468,N,07038.1423333,W,1,24,0.6,-0.308,M,-30.475,M,0.0,*40
###2023-05-05 13:36:48.684732$GNGGA,173729.20,4120.8192823,N,07038.1452641,W,1,24,0.6,-0.270,M,-30.476,M,0.0,*47
###2023-05-05 13:36:50.684827$GNGGA,173731.20,4120.8195533,N,07038.1482327,W,1,24,0.6,-0.000,M,-30.476,M,0.0,*48
###2023-05-05 13:36:52.682648$GNGGA,173733.20,4120.8189169,N,07038.1510242,W,1,24,0.6,-0.393,M,-30.476,M,0.0,*4D
###2023-05-05 13:36:54.683607$GNGGA,173735.20,4120.8187448,N,07038.1538619,W,1,24,0.6,-0.351,M,-30.476,M,0.0,*4D
###2023-05-05 13:36:56.683694$GNGGA,173737.20,4120.8190485,N,07038.1564966,W,1,24,0.6,-0.435,M,-30.476,M,0.0,*43
###2023-05-05 13:36:58.681459$GNGGA,173739.20,4120.8191871,N,07038.1594346,W,1,24,0.6,-0.192,M,-30.476,M,0.0,*44
###2023-05-05 13:37:00.684486$GNGGA,173741.20,4120.8194170,N,07038.1625522,W,1,24,0.6,-0.111,M,-30.476,M,0.0,*40
###2023-05-05 13:37:02.681445$GNGGA,173743.20,4120.8188449,N,07038.1654518,W,1,24,0.6,-0.244,M,-30.476,M,0.0,*4C
###2023-05-05 13:37:04.682164$GNGGA,173745.20,4120.8191503,N,07038.1682874,W,1,24,0.6,-0.290,M,-30.476,M,0.0,*48
###2023-05-05 13:37:06.684391$GNGGA,173747.20,4120.8192957,N,07038.1710545,W,1,24,0.6,-0.365,M,-30.476,M,0.0,*4A
###2023-05-05 13:37:08.684387$GNGGA,173749.20,4120.8193715,N,07038.1739513,W,1,24,0.6,-0.164,M,-30.476,M,0.0,*46
###2023-05-05 13:37:10.684394$GNGGA,173751.20,4120.8192651,N,07038.1769834,W,1,24,0.6,-0.298,M,-30.476,M,0.0,*42
###2023-05-05 13:37:12.685528$GNGGA,173753.20,4120.8192628,N,07038.1797620,W,1,24,0.6,-0.460,M,-30.476,M,0.0,*45
###2023-05-05 13:37:14.684283$GNGGA,173755.20,4120.8193380,N,07038.1827220,W,1,24,0.6,-0.423,M,-30.476,M,0.0,*42
###2023-05-05 13:37:16.684338$GNGGA,173757.20,4120.8192357,N,07038.1855775,W,1,24,0.6,-0.391,M,-30.476,M,0.0,*45
###2023-05-05 13:37:18.685240$GNGGA,173759.20,4120.8193189,N,07038.1884299,W,1,24,0.6,-0.286,M,-30.476,M,0.0,*47
###2023-05-05 13:37:20.683164$GNGGA,173801.20,4120.8192351,N,07038.1912780,W,1,24,0.6,-0.353,M,-30.476,M,0.0,*49
###2023-05-05 13:37:22.684183$GNGGA,173803.20,4120.8192935,N,07038.1940169,W,1,24,0.6,-0.453,M,-30.476,M,0.0,*42
###2023-05-05 13:37:24.685030$GNGGA,173805.20,4120.8192641,N,07038.1967424,W,1,24,0.6,-0.508,M,-30.476,M,0.0,*4E
###2023-05-05 13:37:26.683973$GNGGA,173807.20,4120.8193618,N,07038.1996029,W,1,24,0.6,-0.373,M,-30.476,M,0.0,*4C
###2023-05-05 13:37:28.677385$GNGGA,173809.20,4120.8194660,N,07038.2026357,W,1,24,0.6,-0.050,M,-30.476,M,0.0,*43
###2023-05-05 13:37:30.683700$GNGGA,173811.20,4120.8191596,N,07038.2055612,W,1,24,0.6,-0.323,M,-30.476,M,0.0,*42
###2023-05-05 13:37:32.682900$GNGGA,173813.20,4120.8192776,N,07038.2083631,W,1,24,0.6,-0.472,M,-30.476,M,0.0,*46
###2023-05-05 13:37:34.683972$GNGGA,173815.20,4120.8191879,N,07038.2112353,W,1,24,0.6,-0.581,M,-30.477,M,0.0,*47
###2023-05-05 13:37:36.685936$GNGGA,173817.20,4120.8192284,N,07038.2141238,W,1,24,0.6,-0.390,M,-30.477,M,0.0,*42
