###2023-05-05 12:57:38.638384$GNGGA,165819.20,4120.8213778,N,07038.0898133,W,1,23,0.6,0.134,M,-30.475,M,0.0,*64
###2023-05-05 12:57:40.636436$GNGGA,165821.20,4120.8189139,N,07038.0899039,W,1,24,0.6,-0.007,M,-30.475,M,0.0,*4D
###2023-05-05 12:57:42.636282$GNGGA,165823.20,4120.8166517,N,07038.0899576,W,1,24,0.6,0.375,M,-30.475,M,0.0,*63
###2023-05-05 12:57:44.634292$GNGGA,165825.20,4120.8143130,N,07038.0898071,W,1,24,0.6,0.093,M,-30.475,M,0.0,*6B
###2023-05-05 12:57:46.636358$GNGGA,165827.20,4120.8117562,N,07038.0896040,W,1,24,0.6,-0.101,M,-30.475,M,0.0,*40
###2023-05-05 12:57:48.636250$GNGGA,165829.20,4120.8092712,N,07038.0899540,W,1,24,0.6,0.736,M,-30.475,M,0.0,*62
###2023-05-05 12:57:50.637160$GNGGA,165831.20,4120.8068736,N,07038.0897027,W,1,23,0.6,0.117,M,-30.475,M,0.0,*60
###2023-05-05 12:57:52.636538$GNGGA,165833.20,4120.8042195,N,07038.0897007,W,1,23,0.6,0.015,M,-30.475,M,0.0,*64
###2023-05-05 12:57:54.637089$GNGGA,165835.20,4120.8016485,N,07038.0898083,W,1,23,0.6,0.204,M,-30.475,M,0.0,*66
###2023-05-05 12:57:56.636285$GNGGA,165837.20,4120.7991119,N,07038.0898926,W,1,23,0.6,0.235,M,-30.475,M,0.0,*69
###2023-05-05 12:57:58.633790$GNGGA,165839.20,4120.7966241,N,07038.0899196,W,1,23,0.6,0.049,M,-30.476,M,0.0,*69
###2023-05-05 12:58:00.634791$GNGGA,165841.20,4120.7941381,N,07038.0898611,W,1,23,0.6,0.083,M,-30.476,M,0.0,*61
###2023-05-05 12:58:02.633719$GNGGA,165843.20,4120.7915730,N,07038.0897648,W,1,23,0.6,0.001,M,-30.476,M,0.0,*65
###2023-05-05 12:58:04.634636$GNGGA,165845.20,4120.7889802,N,07038.0898426,W,1,23,0.6,0.180,M,-30.476,M,0.0,*64
###2023-05-05 12:58:06.636985$GNGGA,165847.20,4120.7863527,N,07038.0898602,W,1,23,0.6,0.099,M,-30.476,M,0.0,*65
###2023-05-05 12:58:08.635896$GNGGA,165849.20,4120.7837385,N,07038.0898649,W,1,23,0.6,0.112,M,-30.476,M,0.0,*69
###2023-05-05 12:58:10.636032$GNGGA,165851.20,4120.7810847,N,07038.0899901,W,1,23,0.6,0.096,M,-30.476,M,0.0,*6F
###2023-05-05 12:58:12.637876$GNGGA,165853.20,4120.7784511,N,07038.0900595,W,1,23,0.6,0.393,M,-30.476,M,0.0,*67
###2023-05-05 12:58:14.637778$GNGGA,165855.20,4120.7759170,N,07038.0900083,W,1,23,0.6,0.125,M,-30.476,M,0.0,*6F
###2023-05-05 12:58:16.631700$GNGGA,165857.20,4120.7736872,N,07038.0894260,W,1,23,0.6,0.167,M,-30.476,M,0.0,*6A
###2023-05-05 12:58:18.638654$GNGGA,165859.20,4120.7721612,N,07038.0877776,W,1,23,0.6,0.119,M,-30.476,M,0.0,*6C
###2023-05-05 12:58:20.637802$GNGGA,165901.20,4120.7711823,N,07038.0852964,W,1,22,0.6,0.204,M,-30.476,M,0.0,*6B
###2023-05-05 12:58:22.637659$GNGGA,165903.20,4120.7715075,N,07038.0827628,W,1,22,0.6,0.515,M,-30.476,M,0.0,*64
###2023-05-05 12:58:24.639713$GNGGA,165905.20,4120.7729581,N,07038.0803391,W,1,22,0.6,0.375,M,-30.476,M,0.0,*62
###2023-05-05 12:58:26.636565$GNGGA,165907.20,4120.7740786,N,07038.0767744,W,1,22,0.6,0.200,M,-30.476,M,0.0,*68
###2023-05-05 12:58:28.634943$GNGGA,165909.20,4120.7757715,N,07038.0748544,W,1,22,0.6,0.177,M,-30.476,M,0.0,*66
###2023-05-05 12:58:30.636433$GNGGA,165911.20,4120.7777111,N,07038.0747828,W,1,22,0.6,0.187,M,-30.476,M,0.0,*68
###2023-05-05 12:58:32.635478$GNGGA,165913.20,4120.7800392,N,07038.0752756,W,1,22,0.6,0.332,M,-30.476,M,0.0,*62
###2023-05-05 12:58:34.635474$GNGGA,165915.20,4120.7826750,N,07038.0756659,W,1,22,0.6,0.577,M,-30.476,M,0.0,*67
###2023-05-05 12:58:36.639529$GNGGA,165917.20,4120.7852269,N,07038.0757751,W,1,22,0.6,0.393,M,-30.476,M,0.0,*6D
###2023-05-05 12:58:38.636482$GNGGA,165919.20,4120.7876121,N,07038.0757590,W,1,22,0.6,0.192,M,-30.476,M,0.0,*66
###2023-05-05 12:58:40.637322$GNGGA,165921.20,4120.7898819,N,07038.0757326,W,1,22,0.6,0.071,M,-30.476,M,0.0,*68
###2023-05-05 12:58:42.637484$GNGGA,165923.20,4120.7920861,N,07038.0758207,W,1,22,0.6,0.153,M,-30.476,M,0.0,*6B
###2023-05-05 12:58:44.637273$GNGGA,165925.20,4120.7943850,N,07038.0758806,W,1,22,0.6,0.156,M,-30.475,M,0.0,*67
###2023-05-05 12:58:46.638270$GNGGA,165927.20,4120.7966691,N,07038.0758468,W,1,22,0.6,0.262,M,-30.475,M,0.0,*61
###2023-05-05 12:58:48.639279$GNGGA,165929.20,4120.7988044,N,07038.0757335,W,1,22,0.6,0.099,M,-30.475,M,0.0,*67
###2023-05-05 12:58:50.638176$GNGGA,165931.20,4120.8009587,N,07038.0757912,W,1,22,0.6,0.132,M,-30.475,M,0.0,*64
###2023-05-05 12:58:52.637139$GNGGA,165933.20,4120.8031155,N,07038.0756893,W,1,22,0.6,0.052,M,-30.475,M,0.0,*68
###2023-05-05 12:58:54.640361$GNGGA,165935.20,4120.8052570,N,07038.0757911,W,1,22,0.6,0.189,M,-30.475,M,0.0,*65
###2023-05-05 12:58:56.638092$GNGGA,165937.20,4120.8074371,N,07038.0757477,W,1,22,0.6,0.145,M,-30.475,M,0.0,*69
###2023-05-05 12:58:58.636797$GNGGA,165939.20,4120.8096422,N,07038.0756770,W,1,22,0.6,0.146,M,-30.475,M,0.0,*6C
###2023-05-05 12:59:00.637697$GNGGA,165941.20,4120.8118506,N,07038.0757020,W,1,22,0.6,0.002,M,-30.475,M,0.0,*61
###2023-05-05 12:59:02.636792$GNGGA,165943.20,4120.8140631,N,07038.0757254,W,1,22,0.6,-0.000,M,-30.475,M,0.0,*47
###2023-05-05 12:59:04.635787$GNGGA,165945.20,4120.8163426,N,07038.0756729,W,1,22,0.6,-0.028,M,-30.475,M,0.0,*40
###2023-05-05 12:59:06.633250$GNGGA,165947.20,4120.8187165,N,07038.0756237,W,1,22,0.6,0.132,M,-30.475,M,0.0,*67
###2023-05-05 12:59:08.638123$GNGGA,165949.20,4120.8211726,N,07038.0756494,W,1,22,0.6,0.262,M,-30.474,M,0.0,*6C
###2023-05-05 12:59:10.637972$GNGGA,165951.20,4120.8235774,N,07038.0757684,W,1,22,0.6,0.244,M,-30.474,M,0.0,*62
###2023-05-05 12:59:12.637667$GNGGA,165953.20,4120.8259092,N,07038.0757550,W,1,22,0.6,0.294,M,-30.474,M,0.0,*62
###2023-05-05 12:59:14.636700$GNGGA,165955.20,4120.8283483,N,07038.0756386,W,1,22,0.6,0.105,M,-30.474,M,0.0,*60
###2023-05-05 12:59:16.648429$GNGGA,165957.20,4120.8308577,N,07038.0755901,W,1,22,0.6,0.089,M,-30.474,M,0.0,*69
###2023-05-05 12:59:18.633214$GNGGA,165959.20,4120.8334881,N,07038.0756005,W,1,22,0.6,0.174,M,-30.474,M,0.0,*61
###2023-05-05 12:59:20.638602$GNGGA,170001.20,4120.8361621,N,07038.0756161,W,1,22,0.6,0.112,M,-30.474,M,0.0,*66
###2023-05-05 12:59:22.637470$GNGGA,170003.20,4120.8388182,N,07038.0756752,W,1,22,0.6,0.131,M,-30.474,M,0.0,*6A
###2023-05-05 12:59:24.637513$GNGGA,170005.20,4120.8414256,N,07038.0756800,W,1,22,0.6,0.145,M,-30.474,M,0.0,*6F
###2023-05-05 12:59:26.639993$GNGGA,170007.20,4120.8440970,N,07038.0756897,W,1,22,0.6,0.202,M,-30.474,M,0.0,*6D
###2023-05-05 12:59:28.635217$GNGGA,170009.20,4120.8468568,N,07038.0755873,W,1,22,0.6,0.190,M,-30.473,M,0.0,*6A
###2023-05-05 12:59:30.638175$GNGGA,170011.20,4120.8497554,N,07038.0755570,W,1,22,0.6,0.259,M,-30.473,M,0.0,*64
###2023-05-05 12:59:32.637141$GNGGA,170013.20,4120.8527036,N,07038.0756889,W,1,22,0.6,0.423,M,-30.473,M,0.0,*6E
###2023-05-05 12:59:34.637042$GNGGA,170015.20,4120.8554715,N,07038.0758966,W,1,22,0.6,0.465,M,-30.473,M,0.0,*66
###2023-05-05 12:59:36.640449$GNGGA,170017.20,4120.8580806,N,07038.0758394,W,1,22,0.6,0.188,M,-30.473,M,0.0,*61
###2023-05-05 12:59:38.632712$GNGGA,170019.20,4120.8606628,N,07038.0755889,W,1,22,0.6,0.268,M,-30.473,M,0.0,*67
###2023-05-05 12:59:40.637254$GNGGA,170021.20,4120.8634581,N,07038.0753635,W,1,22,0.6,0.215,M,-30.473,M,0.0,*68
###2023-05-05 12:59:42.638295$GNGGA,170023.20,4120.8663660,N,07038.0753869,W,1,22,0.6,0.333,M,-30.473,M,0.0,*66
###2023-05-05 12:59:44.638172$GNGGA,170025.20,4120.8693828,N,07038.0755622,W,1,22,0.6,0.316,M,-30.473,M,0.0,*6D
###2023-05-05 12:59:46.638112$GNGGA,170027.20,4120.8723590,N,07038.0756848,W,1,22,0.6,0.311,M,-30.473,M,0.0,*6D
###2023-05-05 12:59:48.638174$GNGGA,170029.20,4120.8752224,N,07038.0757883,W,1,22,0.6,0.375,M,-30.472,M,0.0,*68
###2023-05-05 12:59:50.637994$GNGGA,170031.20,4120.8780737,N,07038.0757470,W,1,22,0.6,0.273,M,-30.472,M,0.0,*6E
###2023-05-05 12:59:52.638023$GNGGA,170033.20,4120.8809777,N,07038.0756138,W,1,22,0.6,0.234,M,-30.472,M,0.0,*6D
###2023-05-05 12:59:54.637837$GNGGA,170035.20,4120.8832215,N,07038.0746778,W,1,22,0.6,0.317,M,-30.472,M,0.0,*61
###2023-05-05 12:59:56.637988$GNGGA,170037.20,4120.8839652,N,07038.0724949,W,1,22,0.6,0.176,M,-30.472,M,0.0,*62
###2023-05-05 12:59:58.636673$GNGGA,170039.20,4120.8834616,N,07038.0694587,W,1,22,0.6,0.261,M,-30.472,M,0.0,*60
###2023-05-05 13:00:00.636635$GNGGA,170041.20,4120.8834679,N,07038.0647784,W,1,22,0.6,0.300,M,-30.472,M,0.0,*6F
###2023-05-05 13:00:02.636907$GNGGA,170043.20,4120.8830195,N,07038.0605432,W,1,22,0.6,0.414,M,-30.472,M,0.0,*66
###2023-05-05 13:00:04.636552$GNGGA,170045.20,4120.8815583,N,07038.0582985,W,1,23,0.6,0.132,M,-30.472,M,0.0,*69
###2023-05-05 13:00:06.637792$GNGGA,170047.20,4120.8796274,N,07038.0576274,W,1,23,0.6,0.366,M,-30.472,M,0.0,*6D
###2023-05-05 13:00:08.637714$GNGGA,170049.20,4120.8775168,N,07038.0586170,W,1,22,0.6,0.327,M,-30.472,M,0.0,*6C
###2023-05-05 13:00:10.637819$GNGGA,170051.20,4120.8753437,N,07038.0604780,W,1,22,0.6,0.299,M,-30.472,M,0.0,*6A
###2023-05-05 13:00:12.637769$GNGGA,170053.20,4120.8723391,N,07038.0612350,W,1,23,0.6,0.335,M,-30.472,M,0.0,*6C
###2023-05-05 13:00:14.638855$GNGGA,170055.20,4120.8696483,N,07038.0615183,W,1,23,0.6,0.469,M,-30.472,M,0.0,*64
###2023-05-05 13:00:16.638738$GNGGA,170057.20,4120.8672340,N,07038.0615041,W,1,23,0.6,0.079,M,-30.472,M,0.0,*6E
###2023-05-05 13:00:18.638811$GNGGA,170059.20,4120.8650660,N,07038.0615771,W,1,23,0.6,0.046,M,-30.473,M,0.0,*6E
###2023-05-05 13:00:20.640589$GNGGA,170101.20,4120.8630115,N,07038.0617018,W,1,22,0.6,0.199,M,-30.473,M,0.0,*69
###2023-05-05 13:00:22.638677$GNGGA,170103.20,4120.8609010,N,07038.0617605,W,1,23,0.6,0.103,M,-30.473,M,0.0,*6D
###2023-05-05 13:00:24.638510$GNGGA,170105.20,4120.8587482,N,07038.0618152,W,1,23,0.6,0.229,M,-30.473,M,0.0,*60
###2023-05-05 13:00:26.638480$GNGGA,170107.20,4120.8565391,N,07038.0616652,W,1,23,0.6,0.195,M,-30.473,M,0.0,*66
###2023-05-05 13:00:28.637375$GNGGA,170109.20,4120.8543918,N,07038.0616284,W,1,23,0.6,0.056,M,-30.473,M,0.0,*66
###2023-05-05 13:00:30.637997$GNGGA,170111.20,4120.8523204,N,07038.0615998,W,1,23,0.6,0.228,M,-30.473,M,0.0,*61
###2023-05-05 13:00:32.639220$GNGGA,170113.20,4120.8501692,N,07038.0614246,W,1,23,0.6,-0.013,M,-30.473,M,0.0,*46
###2023-05-05 13:00:34.638116$GNGGA,170115.20,4120.8480138,N,07038.0614202,W,1,23,0.6,0.128,M,-30.473,M,0.0,*6B
###2023-05-05 13:00:36.640193$GNGGA,170117.20,4120.8457973,N,07038.0613743,W,1,23,0.6,0.195,M,-30.473,M,0.0,*65
###2023-05-05 13:00:38.640222$GNGGA,170119.20,4120.8435195,N,07038.0614076,W,1,23,0.6,0.218,M,-30.473,M,0.0,*6F
###2023-05-05 13:00:40.640306$GNGGA,170121.20,4120.8413376,N,07038.0613637,W,1,22,0.6,0.189,M,-30.473,M,0.0,*61
###2023-05-05 13:00:42.639360$GNGGA,170123.20,4120.8391414,N,07038.0614408,W,1,23,0.6,0.054,M,-30.474,M,0.0,*63
###2023-05-05 13:00:44.640151$GNGGA,170125.20,4120.8369110,N,07038.0612147,W,1,23,0.6,0.101,M,-30.474,M,0.0,*6A
###2023-05-05 13:00:46.639067$GNGGA,170127.20,4120.8346805,N,07038.0613492,W,1,23,0.6,0.352,M,-30.474,M,0.0,*60
###2023-05-05 13:00:48.639926$GNGGA,170129.20,4120.8324110,N,07038.0612339,W,1,23,0.6,0.212,M,-30.474,M,0.0,*65
###2023-05-05 13:00:50.642338$GNGGA,170131.20,4120.8300706,N,07038.0613002,W,1,23,0.6,0.124,M,-30.474,M,0.0,*67
###2023-05-05 13:00:52.639891$GNGGA,170133.20,4120.8277375,N,07038.0612893,W,1,23,0.6,0.125,M,-30.474,M,0.0,*64
###2023-05-05 13:00:54.635504$GNGGA,170135.20,4120.8255067,N,07038.0613293,W,1,23,0.6,0.475,M,-30.474,M,0.0,*69
###2023-05-05 13:00:56.640952$GNGGA,170137.20,4120.8232197,N,07038.0611623,W,1,23,0.6,0.251,M,-30.474,M,0.0,*69
