###2023-05-05 13:40:58.683485$GNGGA,174139.20,4120.8293607,N,07038.3450816,W,1,23,0.6,-0.148,M,-30.478,M,0.0,*40
###2023-05-05 13:41:00.683497$GNGGA,174141.20,4120.8293136,N,07038.3420664,W,1,23,0.6,-0.401,M,-30.478,M,0.0,*4E
###2023-05-05 13:41:02.684506$GNGGA,174143.20,4120.8292251,N,07038.3391604,W,1,23,0.6,-0.380,M,-30.478,M,0.0,*4A
###2023-05-05 13:41:04.660735$GNGGA,,,,,,,,,,,,,,*48
###2023-05-05 13:41:06.663119###2023-05-05 13:41:06.677212$GNGGA,174147.20,4120.8368388,N,07038.3360798,W,1,21,0.7,0.599,M,-30.478,M,0.0,*65
###2023-05-05 13:41:08.676217$GNGGA,174149.20,4120.8409924,N,07038.3374079,W,1,21,0.7,1.390,M,-30.478,M,0.0,*64
###2023-05-05 13:41:10.671783$GNGGA,174151.20,4120.8434769,N,07038.3394312,W,1,19,1.0,0.265,M,-30.477,M,0.0,*6C
###2023-05-05 13:41:12.674160###2023-05-05 13:41:12.685109$GNGGA,174153.20,4120.8438834,N,07038.3378714,W,1,23,0.6,0.153,M,-30.477,M,0.0,*6D
###2023-05-05 13:41:14.684293$GNGGA,174155.20,4120.8430978,N,07038.3364344,W,1,23,0.6,0.249,M,-30.477,M,0.0,*6E
###2023-05-05 13:41:16.685799$GNGGA,174157.20,4120.8418468,N,07038.3350543,W,1,23,0.6,0.081,M,-30.477,M,0.0,*6A
###2023-05-05 13:41:18.684971$GNGGA,174159.20,4120.8404103,N,07038.3338867,W,1,23,0.6,0.126,M,-30.478,M,0.0,*67
###2023-05-05 13:41:20.687692$GNGGA,174201.20,4120.8384963,N,07038.3319137,W,1,23,0.6,0.112,M,-30.478,M,0.0,*60
###2023-05-05 13:41:22.686652$GNGGA,174203.20,4120.8369403,N,07038.3298733,W,1,23,0.6,1.114,M,-30.478,M,0.0,*67
###2023-05-05 13:41:24.686143$GNGGA,174205.20,4120.8346714,N,07038.3292106,W,1,23,0.6,0.345,M,-30.478,M,0.0,*64
###2023-05-05 13:41:26.687797$GNGGA,174207.20,4120.8323764,N,07038.3283357,W,1,23,0.6,0.039,M,-30.478,M,0.0,*6C
###2023-05-05 13:41:28.685102$GNGGA,174209.20,4120.8305619,N,07038.3266573,W,1,23,0.6,-0.183,M,-30.478,M,0.0,*4B
###2023-05-05 13:41:30.684945$GNGGA,174211.20,4120.8304856,N,07038.3242416,W,1,23,0.6,-0.042,M,-30.478,M,0.0,*4E
###2023-05-05 13:41:32.683882$GNGGA,174213.20,4120.8292695,N,07038.3213642,W,1,23,0.6,-0.033,M,-30.478,M,0.0,*42
###2023-05-05 13:41:34.685932$GNGGA,174215.20,4120.8290232,N,07038.3184079,W,1,23,0.6,-0.234,M,-30.478,M,0.0,*49
###2023-05-05 13:41:36.685948$GNGGA,174217.20,4120.8291323,N,07038.3154707,W,1,23,0.6,-0.136,M,-30.478,M,0.0,*49
###2023-05-05 13:41:38.685968$GNGGA,174219.20,4120.8292680,N,07038.3123738,W,1,23,0.6,0.105,M,-30.478,M,0.0,*69
###2023-05-05 13:41:40.686423$GNGGA,174221.20,4120.8291740,N,07038.3093121,W,1,23,0.6,-0.131,M,-30.478,M,0.0,*42
###2023-05-05 13:41:42.687631$GNGGA,174223.20,4120.8292894,N,07038.3062957,W,1,23,0.6,-0.079,M,-30.478,M,0.0,*4F
###2023-05-05 13:41:44.686471$GNGGA,174225.20,4120.8293743,N,07038.3032494,W,1,23,0.6,-0.023,M,-30.477,M,0.0,*4A
###2023-05-05 13:41:46.689048$GNGGA,174227.20,4120.8294190,N,07038.3001623,W,1,23,0.6,-0.261,M,-30.477,M,0.0,*4D
###2023-05-05 13:41:48.687307$GNGGA,174229.20,4120.8292927,N,07038.2971455,W,1,23,0.6,-0.234,M,-30.477,M,0.0,*4D
###2023-05-05 13:41:50.686340$GNGGA,174231.20,4120.8294855,N,07038.2942488,W,1,23,0.6,-0.014,M,-30.477,M,0.0,*46
###2023-05-05 13:41:52.687223$GNGGA,174233.20,4120.8299012,N,07038.2911992,W,1,23,0.6,-0.370,M,-30.477,M,0.0,*43
###2023-05-05 13:41:54.687325$GNGGA,174235.20,4120.8289029,N,07038.2885102,W,1,23,0.6,-0.276,M,-30.477,M,0.0,*46
###2023-05-05 13:41:56.687250$GNGGA,174237.20,4120.8288367,N,07038.2858871,W,1,23,0.6,-0.426,M,-30.477,M,0.0,*42
###2023-05-05 13:41:58.685613$GNGGA,174239.20,4120.8294366,N,07038.2832242,W,1,23,0.6,-0.423,M,-30.477,M,0.0,*43
###2023-05-05 13:42:00.685461$GNGGA,174241.20,4120.8296041,N,07038.2803754,W,1,23,0.6,-0.250,M,-30.477,M,0.0,*4A
###2023-05-05 13:42:02.685536$GNGGA,174243.20,4120.8293586,N,07038.2775386,W,1,23,0.6,-0.557,M,-30.477,M,0.0,*46
###2023-05-05 13:42:04.685476$GNGGA,174245.20,4120.8294369,N,07038.2746456,W,1,23,0.6,-0.577,M,-30.477,M,0.0,*48
###2023-05-05 13:42:06.686465$GNGGA,174247.20,4120.8295561,N,07038.2718003,W,1,23,0.6,-0.313,M,-30.477,M,0.0,*4E
###2023-05-05 13:42:08.685414$GNGGA,174249.20,4120.8293227,N,07038.2688729,W,1,23,0.6,-0.452,M,-30.477,M,0.0,*46
###2023-05-05 13:42:10.686929$GNGGA,174251.20,4120.8294209,N,07038.2660500,W,1,23,0.6,-0.382,M,-30.477,M,0.0,*41
###2023-05-05 13:42:12.687307$GNGGA,174253.20,4120.8296637,N,07038.2631493,W,1,23,0.6,-0.205,M,-30.477,M,0.0,*49
###2023-05-05 13:42:14.686887$GNGGA,174255.20,4120.8293214,N,07038.2603370,W,1,23,0.6,-0.625,M,-30.477,M,0.0,*42
###2023-05-05 13:42:16.686899$GNGGA,174257.20,4120.8293961,N,07038.2575408,W,1,23,0.6,-0.667,M,-30.477,M,0.0,*45
###2023-05-05 13:42:18.687860$GNGGA,174259.20,4120.8296743,N,07038.2545748,W,1,23,0.6,-0.305,M,-30.477,M,0.0,*45
###2023-05-05 13:42:20.687919$GNGGA,174301.20,4120.8295003,N,07038.2517906,W,1,23,0.6,-0.417,M,-30.477,M,0.0,*4E
###2023-05-05 13:42:22.687781$GNGGA,174303.20,4120.8286020,N,07038.2491489,W,1,23,0.6,-0.489,M,-30.477,M,0.0,*4D
###2023-05-05 13:42:24.687653$GNGGA,174305.20,4120.8291009,N,07038.2462784,W,1,23,0.6,-0.791,M,-30.477,M,0.0,*4E
###2023-05-05 13:42:26.685617$GNGGA,174307.20,4120.8294660,N,07038.2432688,W,1,23,0.6,-0.755,M,-30.477,M,0.0,*40
###2023-05-05 13:42:28.685961$GNGGA,174309.20,4120.8299211,N,07038.2403741,W,1,23,0.6,-0.064,M,-30.477,M,0.0,*42
###2023-05-05 13:42:30.686900$GNGGA,174311.20,4120.8295016,N,07038.2378670,W,1,23,0.6,-0.610,M,-30.477,M,0.0,*4F
###2023-05-05 13:42:32.681319$GNGGA,174313.20,4120.8291095,N,07038.2351200,W,1,23,0.6,-0.519,M,-30.476,M,0.0,*41
###2023-05-05 13:42:34.687555$GNGGA,174315.20,4120.8293923,N,07038.2320486,W,1,23,0.6,-0.524,M,-30.476,M,0.0,*41
###2023-05-05 13:42:36.688435$GNGGA,174317.20,4120.8297065,N,07038.2291875,W,1,23,0.6,-0.091,M,-30.476,M,0.0,*4C
###2023-05-05 13:42:38.687742$GNGGA,174319.20,4120.8292416,N,07038.2264650,W,1,23,0.6,-0.608,M,-30.476,M,0.0,*42
###2023-05-05 13:42:40.689646$GNGGA,174321.20,4120.8293004,N,07038.2235679,W,1,23,0.6,-0.582,M,-30.476,M,0.0,*41
###2023-05-05 13:42:42.687681$GNGGA,174323.20,4120.8296265,N,07038.2205222,W,1,23,0.6,-0.351,M,-30.476,M,0.0,*42
###2023-05-05 13:42:44.689539$GNGGA,174325.20,4120.8297403,N,07038.2176307,W,1,23,0.6,-0.276,M,-30.476,M,0.0,*46
###2023-05-05 13:42:46.690640$GNGGA,174327.20,4120.8295049,N,07038.2146099,W,1,23,0.6,-0.581,M,-30.476,M,0.0,*44
###2023-05-05 13:42:48.689114$GNGGA,174329.20,4120.8297478,N,07038.2115351,W,1,23,0.6,-0.494,M,-30.476,M,0.0,*4A
###2023-05-05 13:42:50.688315$GNGGA,174331.20,4120.8299103,N,07038.2086068,W,1,23,0.6,-0.317,M,-30.476,M,0.0,*4A
###2023-05-05 13:42:52.690114$GNGGA,174333.20,4120.8298704,N,07038.2058119,W,1,23,0.6,-0.475,M,-30.476,M,0.0,*4F
###2023-05-05 13:42:54.689151$GNGGA,174335.20,4120.8297722,N,07038.2028752,W,1,23,0.6,-0.569,M,-30.476,M,0.0,*40
###2023-05-05 13:42:56.688095$GNGGA,174337.20,4120.8299244,N,07038.1998560,W,1,23,0.6,-0.315,M,-30.476,M,0.0,*46
###2023-05-05 13:42:58.688077$GNGGA,174339.20,4120.8299828,N,07038.1969931,W,1,23,0.6,-0.340,M,-30.476,M,0.0,*4E
###2023-05-05 13:43:00.687499$GNGGA,174341.20,4120.8298618,N,07038.1940442,W,1,23,0.6,-0.581,M,-30.476,M,0.0,*44
###2023-05-05 13:43:02.686365$GNGGA,174343.20,4120.8299346,N,07038.1910006,W,1,23,0.6,-0.406,M,-30.476,M,0.0,*46
###2023-05-05 13:43:04.687929$GNGGA,174345.20,4120.8299399,N,07038.1880636,W,1,23,0.6,-0.469,M,-30.476,M,0.0,*46
###2023-05-05 13:43:06.689073$GNGGA,174347.20,4120.8298887,N,07038.1851609,W,1,23,0.6,-0.399,M,-30.476,M,0.0,*49
###2023-05-05 13:43:08.688904$GNGGA,174349.20,4120.8297171,N,07038.1823247,W,1,23,0.6,-0.388,M,-30.476,M,0.0,*43
###2023-05-05 13:43:10.689945$GNGGA,174351.20,4120.8296703,N,07038.1793448,W,1,23,0.6,-0.362,M,-30.476,M,0.0,*41
###2023-05-05 13:43:12.689076$GNGGA,174353.20,4120.8297637,N,07038.1763821,W,1,23,0.6,-0.477,M,-30.476,M,0.0,*4B
###2023-05-05 13:43:14.683781$GNGGA,174355.20,4120.8297229,N,07038.1733647,W,1,23,0.6,-0.471,M,-30.476,M,0.0,*4B
###2023-05-05 13:43:16.688811$GNGGA,174357.20,4120.8297835,N,07038.1704002,W,1,23,0.6,-0.156,M,-30.476,M,0.0,*4D
###2023-05-05 13:43:18.689756$GNGGA,174359.20,4120.8297331,N,07038.1675729,W,1,23,0.6,-0.350,M,-30.475,M,0.0,*42
###2023-05-05 13:43:20.687681$GNGGA,174401.20,4120.8293338,N,07038.1647451,W,1,23,0.6,-0.332,M,-30.475,M,0.0,*4C
###2023-05-05 13:43:22.691002$GNGGA,174403.20,4120.8295813,N,07038.1617764,W,1,23,0.6,-0.283,M,-30.475,M,0.0,*41
###2023-05-05 13:43:24.689844$GNGGA,174405.20,4120.8296630,N,07038.1588667,W,1,23,0.6,-0.190,M,-30.475,M,0.0,*4D
###2023-05-05 13:43:26.684219$GNGGA,174407.20,4120.8297184,N,07038.1560881,W,1,23,0.6,-0.050,M,-30.475,M,0.0,*4B
###2023-05-05 13:43:28.687832$GNGGA,174409.20,4120.8296322,N,07038.1532513,W,1,23,0.6,-0.247,M,-30.475,M,0.0,*4F
###2023-05-05 13:43:30.689012$GNGGA,174411.20,4120.8297570,N,07038.1502636,W,1,23,0.6,-0.281,M,-30.475,M,0.0,*4B
###2023-05-05 13:43:32.687812$GNGGA,174413.20,4120.8297184,N,07038.1473735,W,1,23,0.6,-0.191,M,-30.475,M,0.0,*41
###2023-05-05 13:43:34.687684$GNGGA,174415.20,4120.8297599,N,07038.1445249,W,1,23,0.6,0.088,M,-30.475,M,0.0,*60
###2023-05-05 13:43:36.690671$GNGGA,174417.20,4120.8294342,N,07038.1416206,W,1,23,0.6,-0.193,M,-30.475,M,0.0,*4A
###2023-05-05 13:43:38.689076$GNGGA,174419.20,4120.8296185,N,07038.1386104,W,1,23,0.6,-0.166,M,-30.475,M,0.0,*4A
###2023-05-05 13:43:40.688789$GNGGA,174421.20,4120.8296673,N,07038.1356921,W,1,23,0.6,-0.095,M,-30.475,M,0.0,*40
###2023-05-05 13:43:42.690417$GNGGA,174423.20,4120.8296302,N,07038.1328045,W,1,23,0.6,-0.223,M,-30.475,M,0.0,*4C
###2023-05-05 13:43:44.683638$GNGGA,174425.20,4120.8296939,N,07038.1298366,W,1,23,0.6,-0.362,M,-30.475,M,0.0,*44
###2023-05-05 13:43:46.689121$GNGGA,174427.20,4120.8298118,N,07038.1269092,W,1,23,0.6,0.161,M,-30.475,M,0.0,*69
###2023-05-05 13:43:48.689176$GNGGA,174429.20,4120.8298155,N,07038.1239999,W,1,23,0.6,-0.115,M,-30.475,M,0.0,*47
###2023-05-05 13:43:50.690210$GNGGA,174431.20,4120.8285745,N,07038.1216559,W,1,23,0.6,-0.017,M,-30.475,M,0.0,*4B
###2023-05-05 13:43:52.689243$GNGGA,174433.20,4120.8284615,N,07038.1187508,W,1,23,0.6,-0.508,M,-30.475,M,0.0,*48
###2023-05-05 13:43:54.690127$GNGGA,174435.20,4120.8292321,N,07038.1158887,W,1,23,0.6,-0.145,M,-30.475,M,0.0,*4E
###2023-05-05 13:43:56.687943$GNGGA,174437.20,4120.8297796,N,07038.1130266,W,1,23,0.6,0.548,M,-30.475,M,0.0,*6E
###2023-05-05 13:43:58.688392$GNGGA,174439.20,4120.8289075,N,07038.1105158,W,1,23,0.6,-0.191,M,-30.475,M,0.0,*40
###2023-05-05 13:44:00.689403$GNGGA,174441.20,4120.8283446,N,07038.1079220,W,1,23,0.6,-0.162,M,-30.475,M,0.0,*4B
###2023-05-05 13:44:02.688555$GNGGA,174443.20,4120.8287200,N,07038.1050267,W,1,24,0.6,-0.226,M,-30.475,M,0.0,*45
###2023-05-05 13:44:04.688387$GNGGA,174445.20,4120.8296957,N,07038.1023249,W,1,23,0.6,0.074,M,-30.475,M,0.0,*6D
###2023-05-05 13:44:06.689984$GNGGA,174447.20,4120.8296369,N,07038.0995328,W,1,23,0.6,-0.128,M,-30.474,M,0.0,*4F
###2023-05-05 13:44:08.689225$GNGGA,174449.20,4120.8294101,N,07038.0968001,W,1,23,0.6,0.039,M,-30.474,M,0.0,*69
###2023-05-05 13:44:10.689067$GNGGA,174451.20,4120.8296530,N,07038.0938326,W,1,23,0.6,0.096,M,-30.474,M,0.0,*62
###2023-05-05 13:44:12.690875$GNGGA,174453.20,4120.8296809,N,07038.0909449,W,1,23,0.6,-0.225,M,-30.474,M,0.0,*4C
