###2023-05-05 13:50:52.700181$GNGGA,175133.20,4120.8512625,N,07038.3223245,W,1,23,0.6,-0.227,M,-30.477,M,0.0,*4E
###2023-05-05 13:50:54.700439$GNGGA,175135.20,4120.8505788,N,07038.3194700,W,1,23,0.6,-0.204,M,-30.477,M,0.0,*42
###2023-05-05 13:50:56.699147$GNGGA,175137.20,4120.8507542,N,07038.3164465,W,1,23,0.6,0.113,M,-30.477,M,0.0,*61
###2023-05-05 13:50:58.697780$GNGGA,175139.20,4120.8511929,N,07038.3136822,W,1,23,0.6,0.613,M,-30.477,M,0.0,*66
###2023-05-05 13:51:00.700976$GNGGA,175141.20,4120.8502770,N,07038.3109545,W,1,23,0.6,-0.062,M,-30.477,M,0.0,*44
###2023-05-05 13:51:02.699049$GNGGA,175143.20,4120.8497820,N,07038.3082252,W,1,23,0.6,0.065,M,-30.477,M,0.0,*68
###2023-05-05 13:51:04.699009$GNGGA,175145.20,4120.8502644,N,07038.3053640,W,1,23,0.6,-0.107,M,-30.477,M,0.0,*4C
###2023-05-05 13:51:06.699880$GNGGA,175147.20,4120.8514680,N,07038.3026601,W,1,23,0.6,0.729,M,-30.477,M,0.0,*61
###2023-05-05 13:51:08.698959$GNGGA,175149.20,4120.8507882,N,07038.2999980,W,1,23,0.6,-0.113,M,-30.477,M,0.0,*49
###2023-05-05 13:51:10.700841$GNGGA,175151.20,4120.8499987,N,07038.2972041,W,1,23,0.6,0.025,M,-30.477,M,0.0,*6A
###2023-05-05 13:51:12.700894$GNGGA,175153.20,4120.8504804,N,07038.2943353,W,1,23,0.6,-0.165,M,-30.477,M,0.0,*4D
###2023-05-05 13:51:14.699176$GNGGA,175155.20,4120.8510175,N,07038.2914112,W,1,23,0.6,0.124,M,-30.476,M,0.0,*6D
###2023-05-05 13:51:16.700789$GNGGA,175157.20,4120.8508476,N,07038.2886533,W,1,23,0.6,-0.065,M,-30.476,M,0.0,*44
###2023-05-05 13:51:18.699598$GNGGA,175159.20,4120.8500372,N,07038.2861187,W,1,23,0.6,0.029,M,-30.476,M,0.0,*66
###2023-05-05 13:51:20.700686$GNGGA,175201.20,4120.8503545,N,07038.2831436,W,1,23,0.6,-0.020,M,-30.476,M,0.0,*47
###2023-05-05 13:51:22.700687$GNGGA,175203.20,4120.8507137,N,07038.2801781,W,1,23,0.6,-0.124,M,-30.476,M,0.0,*49
###2023-05-05 13:51:24.700680$GNGGA,175205.20,4120.8508683,N,07038.2772962,W,1,23,0.6,-0.138,M,-30.476,M,0.0,*4D
###2023-05-05 13:51:26.698533$GNGGA,175207.20,4120.8509762,N,07038.2744773,W,1,23,0.6,0.425,M,-30.476,M,0.0,*6F
###2023-05-05 13:51:28.698287$GNGGA,175209.20,4120.8507970,N,07038.2716491,W,1,23,0.6,0.159,M,-30.476,M,0.0,*64
###2023-05-05 13:51:30.696804$GNGGA,175211.20,4120.8510604,N,07038.2686799,W,1,23,0.6,-0.112,M,-30.476,M,0.0,*46
###2023-05-05 13:51:32.698451$GNGGA,175213.20,4120.8509550,N,07038.2657910,W,1,23,0.6,-0.103,M,-30.476,M,0.0,*4D
###2023-05-05 13:51:34.699419$GNGGA,175215.20,4120.8510189,N,07038.2629112,W,1,23,0.6,-0.135,M,-30.476,M,0.0,*45
###2023-05-05 13:51:36.699384$GNGGA,175217.20,4120.8510412,N,07038.2599817,W,1,23,0.6,0.018,M,-30.476,M,0.0,*67
###2023-05-05 13:51:38.700308$GNGGA,175219.20,4120.8511633,N,07038.2569960,W,1,23,0.6,0.142,M,-30.476,M,0.0,*69
###2023-05-05 13:51:40.700211$GNGGA,175221.20,4120.8511373,N,07038.2542364,W,1,23,0.6,0.063,M,-30.476,M,0.0,*66
###2023-05-05 13:51:42.699240$GNGGA,175223.20,4120.8510625,N,07038.2513405,W,1,23,0.6,0.024,M,-30.476,M,0.0,*64
###2023-05-05 13:51:44.698198$GNGGA,175225.20,4120.8511389,N,07038.2483674,W,1,23,0.6,0.047,M,-30.476,M,0.0,*69
###2023-05-05 13:51:46.701448$GNGGA,175227.20,4120.8511354,N,07038.2454033,W,1,23,0.6,-0.034,M,-30.476,M,0.0,*4D
###2023-05-05 13:51:48.711442$GNGGA,175229.20,4120.8513696,N,07038.2425091,W,1,23,0.6,0.439,M,-30.476,M,0.0,*60
###2023-05-05 13:51:50.700276$GNGGA,175231.20,4120.8508867,N,07038.2398007,W,1,23,0.6,0.113,M,-30.476,M,0.0,*60
###2023-05-05 13:51:52.701021$GNGGA,175233.20,4120.8511033,N,07038.2368275,W,1,23,0.6,0.037,M,-30.476,M,0.0,*6C
###2023-05-05 13:51:54.700123$GNGGA,175235.20,4120.8511518,N,07038.2337113,W,1,23,0.6,0.026,M,-30.476,M,0.0,*6F
###2023-05-05 13:51:56.700028$GNGGA,175237.20,4120.8513605,N,07038.2305485,W,1,23,0.6,0.450,M,-30.476,M,0.0,*6E
###2023-05-05 13:51:58.698035$GNGGA,175239.20,4120.8514050,N,07038.2277404,W,1,23,0.6,0.252,M,-30.476,M,0.0,*68
###2023-05-05 13:52:00.699251$GNGGA,175241.20,4120.8506554,N,07038.2250314,W,1,23,0.6,0.126,M,-30.476,M,0.0,*66
###2023-05-05 13:52:02.697678$GNGGA,175243.20,4120.8510949,N,07038.2220349,W,1,23,0.6,0.308,M,-30.475,M,0.0,*61
###2023-05-05 13:52:04.698638$GNGGA,175245.20,4120.8511491,N,07038.2190603,W,1,23,0.6,0.431,M,-30.475,M,0.0,*60
###2023-05-05 13:52:06.701012$GNGGA,175247.20,4120.8511606,N,07038.2161660,W,1,23,0.6,0.137,M,-30.475,M,0.0,*66
###2023-05-05 13:52:08.699850$GNGGA,175249.20,4120.8510037,N,07038.2133038,W,1,23,0.6,0.229,M,-30.475,M,0.0,*6D
###2023-05-05 13:52:10.699787$GNGGA,175251.20,4120.8513798,N,07038.2104665,W,1,23,0.6,0.753,M,-30.475,M,0.0,*67
###2023-05-05 13:52:12.699696$GNGGA,175253.20,4120.8509905,N,07038.2077821,W,1,23,0.6,0.169,M,-30.475,M,0.0,*60
###2023-05-05 13:52:14.699677$GNGGA,175255.20,4120.8509264,N,07038.2048553,W,1,23,0.6,0.064,M,-30.475,M,0.0,*62
###2023-05-05 13:52:16.700896$GNGGA,175257.20,4120.8511269,N,07038.2019246,W,1,23,0.6,-0.114,M,-30.475,M,0.0,*48
###2023-05-05 13:52:18.700604$GNGGA,175259.20,4120.8512674,N,07038.1988243,W,1,23,0.6,0.124,M,-30.475,M,0.0,*64
###2023-05-05 13:52:20.699779$GNGGA,175301.20,4120.8516025,N,07038.1959176,W,1,23,0.6,0.253,M,-30.475,M,0.0,*64
###2023-05-05 13:52:22.700645$GNGGA,175303.20,4120.8510752,N,07038.1932067,W,1,23,0.6,-0.263,M,-30.475,M,0.0,*45
###2023-05-05 13:52:24.701273$GNGGA,175305.20,4120.8513152,N,07038.1902002,W,1,23,0.6,0.204,M,-30.475,M,0.0,*6A
###2023-05-05 13:52:26.700493$GNGGA,175307.20,4120.8512732,N,07038.1872767,W,1,23,0.6,-0.057,M,-30.475,M,0.0,*42
###2023-05-05 13:52:28.698539$GNGGA,175309.20,4120.8511240,N,07038.1843710,W,1,23,0.6,0.033,M,-30.475,M,0.0,*62
###2023-05-05 13:52:30.700183$GNGGA,175311.20,4120.8512970,N,07038.1812954,W,1,23,0.6,0.070,M,-30.475,M,0.0,*6D
###2023-05-05 13:52:32.699242$GNGGA,175313.20,4120.8511111,N,07038.1784197,W,1,23,0.6,-0.033,M,-30.475,M,0.0,*4E
###2023-05-05 13:52:34.699131$GNGGA,175315.20,4120.8509088,N,07038.1755369,W,1,23,0.6,-0.266,M,-30.475,M,0.0,*4D
###2023-05-05 13:52:36.701444$GNGGA,175317.20,4120.8511027,N,07038.1725503,W,1,23,0.6,-0.067,M,-30.475,M,0.0,*4D
###2023-05-05 13:52:38.699354$GNGGA,175319.20,4120.8512195,N,07038.1696415,W,1,23,0.6,0.352,M,-30.475,M,0.0,*6F
###2023-05-05 13:52:40.701558$GNGGA,175321.20,4120.8510533,N,07038.1667623,W,1,23,0.6,-0.092,M,-30.475,M,0.0,*45
###2023-05-05 13:52:42.711803$GNGGA,175323.20,4120.8506652,N,07038.1638428,W,1,23,0.6,-0.189,M,-30.475,M,0.0,*4C
###2023-05-05 13:52:44.701338$GNGGA,175325.20,4120.8510327,N,07038.1608149,W,1,23,0.6,-0.048,M,-30.475,M,0.0,*47
###2023-05-05 13:52:46.702222$GNGGA,175327.20,4120.8510629,N,07038.1578864,W,1,23,0.6,-0.001,M,-30.475,M,0.0,*41
###2023-05-05 13:52:48.701142$GNGGA,175329.20,4120.8515663,N,07038.1550466,W,1,23,0.6,0.096,M,-30.474,M,0.0,*62
###2023-05-05 13:52:50.701201$GNGGA,175331.20,4120.8509859,N,07038.1523872,W,1,23,0.6,-0.145,M,-30.474,M,0.0,*4E
###2023-05-05 13:52:52.702145$GNGGA,175333.20,4120.8511281,N,07038.1494001,W,1,23,0.6,-0.060,M,-30.474,M,0.0,*4D
###2023-05-05 13:52:54.701080$GNGGA,175335.20,4120.8511841,N,07038.1463807,W,1,23,0.6,-0.064,M,-30.474,M,0.0,*4F
###2023-05-05 13:52:56.700930$GNGGA,175337.20,4120.8514202,N,07038.1434570,W,1,23,0.6,0.421,M,-30.474,M,0.0,*62
###2023-05-05 13:52:58.700797$GNGGA,175339.20,4120.8510450,N,07038.1406502,W,1,23,0.6,-0.031,M,-30.474,M,0.0,*45
###2023-05-05 13:53:00.700005$GNGGA,175341.20,4120.8510997,N,07038.1377508,W,1,23,0.6,-0.142,M,-30.474,M,0.0,*42
###2023-05-05 13:53:02.699658$GNGGA,175343.20,4120.8511820,N,07038.1348118,W,1,23,0.6,0.029,M,-30.474,M,0.0,*64
###2023-05-05 13:53:04.699577$GNGGA,175345.20,4120.8512413,N,07038.1319094,W,1,23,0.6,0.205,M,-30.474,M,0.0,*60
###2023-05-05 13:53:06.700778$GNGGA,175347.20,4120.8513490,N,07038.1290713,W,1,23,0.6,0.063,M,-30.474,M,0.0,*62
###2023-05-05 13:53:08.703193$GNGGA,175349.20,4120.8512775,N,07038.1262868,W,1,23,0.6,-0.078,M,-30.474,M,0.0,*4C
###2023-05-05 13:53:10.702215$GNGGA,175351.20,4120.8513667,N,07038.1233104,W,1,23,0.6,-0.026,M,-30.474,M,0.0,*4A
###2023-05-05 13:53:12.701744$GNGGA,175353.20,4120.8513154,N,07038.1203318,W,1,23,0.6,0.058,M,-30.474,M,0.0,*67
###2023-05-05 13:53:14.699510$GNGGA,175355.20,4120.8513452,N,07038.1174331,W,1,23,0.6,0.193,M,-30.474,M,0.0,*6C
###2023-05-05 13:53:16.701662$GNGGA,175357.20,4120.8512874,N,07038.1145280,W,1,23,0.6,0.037,M,-30.474,M,0.0,*61
###2023-05-05 13:53:18.711591$GNGGA,175359.20,4120.8513149,N,07038.1116450,W,1,23,0.6,0.002,M,-30.474,M,0.0,*62
###2023-05-05 13:53:20.701582$GNGGA,175401.20,4120.8512820,N,07038.1087602,W,1,23,0.6,-0.115,M,-30.474,M,0.0,*49
###2023-05-05 13:53:22.701460$GNGGA,175403.20,4120.8513341,N,07038.1058510,W,1,23,0.6,0.003,M,-30.474,M,0.0,*6F
###2023-05-05 13:53:24.705988$GNGGA,175405.20,4120.8513164,N,07038.1029594,W,1,23,0.6,-0.044,M,-30.474,M,0.0,*48
###2023-05-05 13:53:26.702524$GNGGA,175407.20,4120.8513372,N,07038.0999896,W,1,23,0.6,-0.052,M,-30.474,M,0.0,*44
###2023-05-05 13:53:28.694584$GNGGA,175409.20,4120.8513407,N,07038.0970737,W,1,23,0.6,0.047,M,-30.474,M,0.0,*65
###2023-05-05 13:53:30.700239$GNGGA,175411.20,4120.8512787,N,07038.0941768,W,1,23,0.6,-0.133,M,-30.474,M,0.0,*41
###2023-05-05 13:53:32.699221$GNGGA,175413.20,4120.8512234,N,07038.0913217,W,1,23,0.6,-0.048,M,-30.474,M,0.0,*49
###2023-05-05 13:53:34.700118$GNGGA,175415.20,4120.8512331,N,07038.0884526,W,1,23,0.6,-0.053,M,-30.473,M,0.0,*4C
###2023-05-05 13:53:36.701618$GNGGA,175417.20,4120.8511954,N,07038.0855524,W,1,23,0.6,-0.124,M,-30.473,M,0.0,*4B
###2023-05-05 13:53:38.701233$GNGGA,175419.20,4120.8512334,N,07038.0827038,W,1,23,0.6,-0.191,M,-30.473,M,0.0,*49
###2023-05-05 13:53:40.701280$GNGGA,175421.20,4120.8512643,N,07038.0798535,W,1,23,0.6,-0.184,M,-30.473,M,0.0,*40
###2023-05-05 13:53:42.703051$GNGGA,175423.20,4120.8513005,N,07038.0770436,W,1,23,0.6,-0.101,M,-30.473,M,0.0,*4E
###2023-05-05 13:53:44.703409$GNGGA,175425.20,4120.8511831,N,07038.0741870,W,1,23,0.6,-0.189,M,-30.473,M,0.0,*49
###2023-05-05 13:53:46.702306$GNGGA,175427.20,4120.8512672,N,07038.0711914,W,1,23,0.6,-0.134,M,-30.473,M,0.0,*41
###2023-05-05 13:53:48.703235$GNGGA,175429.20,4120.8513167,N,07038.0681389,W,1,23,0.6,0.001,M,-30.473,M,0.0,*61
###2023-05-05 13:53:50.702224$GNGGA,175431.20,4120.8512353,N,07038.0652769,W,1,23,0.6,-0.135,M,-30.473,M,0.0,*43
###2023-05-05 13:53:52.703364$GNGGA,175433.20,4120.8511952,N,07038.0623780,W,1,23,0.6,-0.134,M,-30.473,M,0.0,*49
###2023-05-05 13:53:54.703263$GNGGA,175435.20,4120.8512270,N,07038.0594988,W,1,23,0.6,-0.098,M,-30.473,M,0.0,*49
###2023-05-05 13:53:56.703176$GNGGA,175437.20,4120.8512298,N,07038.0566008,W,1,23,0.6,-0.023,M,-30.473,M,0.0,*41
###2023-05-05 13:53:58.700685$GNGGA,175439.20,4120.8504805,N,07038.0538590,W,1,23,0.6,-0.197,M,-30.473,M,0.0,*47
###2023-05-05 13:54:00.701545$GNGGA,175441.20,4120.8509545,N,07038.0510284,W,1,23,0.6,0.052,M,-30.473,M,0.0,*61
###2023-05-05 13:54:02.701619$GNGGA,175443.20,4120.8511093,N,07038.0481717,W,1,23,0.6,0.131,M,-30.473,M,0.0,*66
###2023-05-05 13:54:04.695030$GNGGA,175445.20,4120.8507887,N,07038.0452927,W,1,23,0.6,-0.265,M,-30.473,M,0.0,*46
###2023-05-05 13:54:06.697290###2023-05-05 13:54:06.710310$GNGGA,175447.20,4120.8510657,N,07038.0423736,W,1,23,0.6,-0.306,M,-30.473,M,0.0,*4D
###2023-05-05 13:54:08.701909$GNGGA,175449.20,4120.8512070,N,07038.0394210,W,1,23,0.6,-0.038,M,-30.473,M,0.0,*46
