###2023-05-05 12:17:42.597813$GNGGA,161823.20,4120.8682087,N,07038.2379915,W,1,21,0.7,-0.366,M,-30.475,M,0.0,*43
###2023-05-05 12:17:44.595613$GNGGA,161825.20,4120.8670143,N,07038.2381075,W,1,21,0.7,-0.318,M,-30.475,M,0.0,*40
###2023-05-05 12:17:46.596051$GNGGA,161827.20,4120.8655943,N,07038.2378643,W,1,21,0.7,-0.442,M,-30.475,M,0.0,*40
###2023-05-05 12:17:48.597472$GNGGA,161829.20,4120.8646686,N,07038.2375255,W,1,21,0.7,-0.131,M,-30.475,M,0.0,*45
###2023-05-05 12:17:50.593807$GNGGA,161831.20,4120.8639561,N,07038.2372795,W,1,21,0.7,-0.015,M,-30.475,M,0.0,*47
###2023-05-05 12:17:52.590586$GNGGA,161833.20,4120.8636480,N,07038.2371988,W,1,21,0.7,0.183,M,-30.475,M,0.0,*66
###2023-05-05 12:17:54.595655$GNGGA,161835.20,4120.8631879,N,07038.2370703,W,1,21,0.7,0.010,M,-30.475,M,0.0,*6A
###2023-05-05 12:17:56.595720$GNGGA,161837.20,4120.8629308,N,07038.2369514,W,1,21,0.7,0.010,M,-30.475,M,0.0,*60
###2023-05-05 12:17:58.595551$GNGGA,161839.20,4120.8625711,N,07038.2368085,W,1,21,0.7,0.119,M,-30.475,M,0.0,*6A
###2023-05-05 12:18:00.595654$GNGGA,161841.20,4120.8620802,N,07038.2369193,W,1,21,0.7,0.071,M,-30.475,M,0.0,*65
###2023-05-05 12:18:02.595571$GNGGA,161843.20,4120.8614967,N,07038.2368918,W,1,21,0.7,0.098,M,-30.475,M,0.0,*6F
###2023-05-05 12:18:04.597809$GNGGA,161845.20,4120.8613423,N,07038.2370282,W,1,21,0.7,0.403,M,-30.475,M,0.0,*64
###2023-05-05 12:18:06.597057$GNGGA,161847.20,4120.8614618,N,07038.2364480,W,1,21,0.7,0.194,M,-30.475,M,0.0,*61
###2023-05-05 12:18:08.594788$GNGGA,161849.20,4120.8625537,N,07038.2345688,W,1,21,0.7,-0.075,M,-30.475,M,0.0,*49
###2023-05-05 12:18:10.598236$GNGGA,161851.20,4120.8645727,N,07038.2335570,W,1,21,0.7,-0.131,M,-30.475,M,0.0,*47
###2023-05-05 12:18:12.597936$GNGGA,161853.20,4120.8665520,N,07038.2317745,W,1,21,0.7,0.076,M,-30.475,M,0.0,*69
###2023-05-05 12:18:14.596482$GNGGA,161855.20,4120.8682936,N,07038.2299637,W,1,21,0.7,0.014,M,-30.475,M,0.0,*6A
###2023-05-05 12:18:16.596323$GNGGA,161857.20,4120.8701135,N,07038.2284790,W,1,20,0.7,0.102,M,-30.475,M,0.0,*6E
###2023-05-05 12:18:18.596214$GNGGA,161859.20,4120.8720717,N,07038.2271026,W,1,21,0.7,0.385,M,-30.475,M,0.0,*69
###2023-05-05 12:18:20.596203$GNGGA,161901.20,4120.8736423,N,07038.2256012,W,1,20,0.7,0.150,M,-30.475,M,0.0,*6F
###2023-05-05 12:18:22.596158$GNGGA,161903.20,4120.8753330,N,07038.2242386,W,1,21,0.7,0.001,M,-30.475,M,0.0,*64
###2023-05-05 12:18:24.597497$GNGGA,161905.20,4120.8770293,N,07038.2227764,W,1,21,0.7,-0.036,M,-30.475,M,0.0,*49
###2023-05-05 12:18:26.595244$GNGGA,161907.20,4120.8788479,N,07038.2212656,W,1,21,0.7,-0.063,M,-30.474,M,0.0,*49
###2023-05-05 12:18:28.589484$GNGGA,161909.20,4120.8801116,N,07038.2191794,W,1,21,0.7,-0.088,M,-30.474,M,0.0,*47
###2023-05-05 12:18:30.596014$GNGGA,161911.20,4120.8801421,N,07038.2166847,W,1,21,0.7,0.205,M,-30.474,M,0.0,*6C
###2023-05-05 12:18:32.595968$GNGGA,161913.20,4120.8791464,N,07038.2146293,W,1,21,0.7,0.161,M,-30.474,M,0.0,*69
###2023-05-05 12:18:34.596002$GNGGA,161915.20,4120.8770647,N,07038.2140898,W,1,21,0.7,0.038,M,-30.474,M,0.0,*69
###2023-05-05 12:18:36.598004$GNGGA,161917.20,4120.8750700,N,07038.2148502,W,1,21,0.7,0.092,M,-30.474,M,0.0,*6D
###2023-05-05 12:18:38.600447$GNGGA,161919.20,4120.8737396,N,07038.2168621,W,1,21,0.7,0.297,M,-30.475,M,0.0,*6F
###2023-05-05 12:18:40.599449$GNGGA,161921.20,4120.8729472,N,07038.2194845,W,1,21,0.7,0.209,M,-30.475,M,0.0,*6E
###2023-05-05 12:18:42.599377$GNGGA,161923.20,4120.8707692,N,07038.2207548,W,1,21,0.7,0.170,M,-30.475,M,0.0,*68
###2023-05-05 12:18:44.596275$GNGGA,161925.20,4120.8684301,N,07038.2202345,W,1,21,0.7,0.295,M,-30.475,M,0.0,*6D
###2023-05-05 12:18:46.598516$GNGGA,161927.20,4120.8661477,N,07038.2197410,W,1,21,0.7,0.317,M,-30.475,M,0.0,*61
###2023-05-05 12:18:48.598770$GNGGA,161929.20,4120.8638740,N,07038.2194641,W,1,21,0.7,0.475,M,-30.475,M,0.0,*62
###2023-05-05 12:18:50.592781$GNGGA,161931.20,4120.8615253,N,07038.2191922,W,1,21,0.7,0.336,M,-30.475,M,0.0,*6C
###2023-05-05 12:18:52.599537$GNGGA,161933.20,4120.8592437,N,07038.2191718,W,1,21,0.7,0.400,M,-30.475,M,0.0,*63
###2023-05-05 12:18:54.599136$GNGGA,161935.20,4120.8569798,N,07038.2191994,W,1,21,0.7,0.382,M,-30.475,M,0.0,*60
###2023-05-05 12:18:56.597537$GNGGA,161937.20,4120.8548593,N,07038.2192797,W,1,21,0.7,0.631,M,-30.475,M,0.0,*6B
###2023-05-05 12:18:58.595685$GNGGA,161939.20,4120.8527581,N,07038.2192273,W,1,21,0.7,0.577,M,-30.475,M,0.0,*61
###2023-05-05 12:19:00.595985$GNGGA,161941.20,4120.8505576,N,07038.2191553,W,1,21,0.7,0.502,M,-30.475,M,0.0,*62
###2023-05-05 12:19:02.595190$GNGGA,161943.20,4120.8483172,N,07038.2191591,W,1,21,0.7,0.418,M,-30.476,M,0.0,*68
###2023-05-05 12:19:04.595864$GNGGA,161945.20,4120.8460099,N,07038.2192810,W,1,21,0.7,0.431,M,-30.476,M,0.0,*6B
###2023-05-05 12:19:06.597501$GNGGA,161947.20,4120.8438664,N,07038.2193584,W,1,21,0.7,0.780,M,-30.476,M,0.0,*68
###2023-05-05 12:19:08.597439$GNGGA,161949.20,4120.8416569,N,07038.2193700,W,1,21,0.7,0.556,M,-30.476,M,0.0,*63
###2023-05-05 12:19:10.599187$GNGGA,161951.20,4120.8393432,N,07038.2190934,W,1,21,0.7,0.326,M,-30.476,M,0.0,*64
###2023-05-05 12:19:12.598939$GNGGA,161953.20,4120.8370732,N,07038.2192550,W,1,21,0.7,0.312,M,-30.476,M,0.0,*63
###2023-05-05 12:19:14.597839$GNGGA,161955.20,4120.8348853,N,07038.2193148,W,1,21,0.7,0.478,M,-30.476,M,0.0,*61
###2023-05-05 12:19:16.598072$GNGGA,161957.20,4120.8325534,N,07038.2193320,W,1,21,0.7,0.420,M,-30.476,M,0.0,*65
###2023-05-05 12:19:18.599754$GNGGA,161959.20,4120.8302246,N,07038.2194615,W,1,21,0.7,0.250,M,-30.476,M,0.0,*69
###2023-05-05 12:19:20.596559$GNGGA,162001.20,4120.8279855,N,07038.2194435,W,1,21,0.7,0.546,M,-30.476,M,0.0,*6B
###2023-05-05 12:19:22.597062$GNGGA,162003.20,4120.8256399,N,07038.2193272,W,1,21,0.7,0.477,M,-30.476,M,0.0,*6E
###2023-05-05 12:19:24.598108$GNGGA,162005.20,4120.8232032,N,07038.2192686,W,1,21,0.7,0.222,M,-30.476,M,0.0,*60
###2023-05-05 12:19:26.592731$GNGGA,162007.20,4120.8207927,N,07038.2194380,W,1,21,0.7,0.394,M,-30.477,M,0.0,*61
###2023-05-05 12:19:28.596069$GNGGA,162009.20,4120.8186387,N,07038.2195826,W,1,21,0.7,0.213,M,-30.477,M,0.0,*6D
###2023-05-05 12:19:30.598999$GNGGA,162011.20,4120.8164146,N,07038.2194372,W,1,21,0.7,0.088,M,-30.477,M,0.0,*6C
###2023-05-05 12:19:32.597002$GNGGA,162013.20,4120.8140116,N,07038.2192918,W,1,21,0.7,0.171,M,-30.477,M,0.0,*6A
###2023-05-05 12:19:34.598597$GNGGA,162015.20,4120.8117358,N,07038.2194401,W,1,21,0.7,0.242,M,-30.477,M,0.0,*66
###2023-05-05 12:19:36.599534$GNGGA,162017.20,4120.8093253,N,07038.2193338,W,1,21,0.7,0.063,M,-30.477,M,0.0,*68
###2023-05-05 12:19:38.596922$GNGGA,162019.20,4120.8068815,N,07038.2194107,W,1,21,0.7,0.160,M,-30.477,M,0.0,*61
###2023-05-05 12:19:40.598166$GNGGA,162021.20,4120.8044715,N,07038.2194352,W,1,21,0.7,0.703,M,-30.477,M,0.0,*6A
###2023-05-05 12:19:42.598891$GNGGA,162023.20,4120.8021409,N,07038.2194188,W,1,21,0.7,0.543,M,-30.477,M,0.0,*66
###2023-05-05 12:19:44.597762$GNGGA,162025.20,4120.7997510,N,07038.2193204,W,1,21,0.7,0.460,M,-30.477,M,0.0,*62
###2023-05-05 12:19:46.599230$GNGGA,162027.20,4120.7973619,N,07038.2192931,W,1,21,0.7,0.144,M,-30.477,M,0.0,*6F
###2023-05-05 12:19:48.598863$GNGGA,162029.20,4120.7949790,N,07038.2194703,W,1,21,0.7,0.300,M,-30.478,M,0.0,*6C
###2023-05-05 12:19:50.599173$GNGGA,162031.20,4120.7927053,N,07038.2194371,W,1,21,0.7,0.330,M,-30.478,M,0.0,*67
###2023-05-05 12:19:52.598535$GNGGA,162033.20,4120.7903451,N,07038.2192837,W,1,21,0.7,0.357,M,-30.478,M,0.0,*6B
###2023-05-05 12:19:54.599789$GNGGA,162035.20,4120.7877559,N,07038.2191747,W,1,21,0.7,0.144,M,-30.478,M,0.0,*6D
###2023-05-05 12:19:56.597557$GNGGA,162037.20,4120.7852374,N,07038.2193783,W,1,21,0.7,0.343,M,-30.478,M,0.0,*6E
###2023-05-05 12:19:58.592995$GNGGA,162039.20,4120.7829277,N,07038.2194978,W,1,21,0.7,0.227,M,-30.478,M,0.0,*60
###2023-05-05 12:20:00.598774$GNGGA,162041.20,4120.7805222,N,07038.2195215,W,1,21,0.7,0.184,M,-30.478,M,0.0,*6A
###2023-05-05 12:20:02.591731$GNGGA,162043.20,4120.7782009,N,07038.2190156,W,1,21,0.7,0.106,M,-30.478,M,0.0,*68
###2023-05-05 12:20:04.598334$GNGGA,162045.20,4120.7756738,N,07038.2191591,W,1,21,0.7,0.316,M,-30.478,M,0.0,*6F
###2023-05-05 12:20:06.600954$GNGGA,162047.20,4120.7731500,N,07038.2192835,W,1,21,0.7,0.363,M,-30.478,M,0.0,*67
###2023-05-05 12:20:08.600921$GNGGA,162049.20,4120.7708131,N,07038.2190900,W,1,21,0.7,0.363,M,-30.478,M,0.0,*60
###2023-05-05 12:20:10.594265$GNGGA,162051.20,4120.7682259,N,07038.2196351,W,1,21,0.7,0.020,M,-30.479,M,0.0,*6A
###2023-05-05 12:20:12.600717$GNGGA,162053.20,4120.7661129,N,07038.2220680,W,1,21,0.7,0.102,M,-30.479,M,0.0,*67
###2023-05-05 12:20:14.598808$GNGGA,162055.20,4120.7657314,N,07038.2257925,W,1,21,0.7,0.441,M,-30.479,M,0.0,*6A
###2023-05-05 12:20:16.601836$GNGGA,162057.20,4120.7665928,N,07038.2289845,W,1,21,0.7,0.426,M,-30.479,M,0.0,*69
###2023-05-05 12:20:18.601743$GNGGA,162059.20,4120.7682961,N,07038.2313071,W,1,21,0.7,0.283,M,-30.479,M,0.0,*67
###2023-05-05 12:20:20.600582$GNGGA,162101.20,4120.7705110,N,07038.2322755,W,1,21,0.7,0.184,M,-30.479,M,0.0,*6C
###2023-05-05 12:20:22.600723$GNGGA,162103.20,4120.7725957,N,07038.2328174,W,1,21,0.7,-0.056,M,-30.479,M,0.0,*4B
###2023-05-05 12:20:24.601600$GNGGA,162105.20,4120.7746630,N,07038.2331954,W,1,21,0.7,0.125,M,-30.478,M,0.0,*6D
###2023-05-05 12:20:26.601536$GNGGA,162107.20,4120.7768499,N,07038.2334660,W,1,21,0.7,0.312,M,-30.478,M,0.0,*69
###2023-05-05 12:20:28.599163$GNGGA,162109.20,4120.7790103,N,07038.2337471,W,1,21,0.7,0.350,M,-30.478,M,0.0,*61
###2023-05-05 12:20:30.599855$GNGGA,162111.20,4120.7811199,N,07038.2338464,W,1,21,0.7,0.032,M,-30.478,M,0.0,*61
###2023-05-05 12:20:32.598099$GNGGA,162113.20,4120.7832601,N,07038.2338578,W,1,21,0.7,-0.001,M,-30.478,M,0.0,*45
###2023-05-05 12:20:34.598814$GNGGA,162115.20,4120.7854576,N,07038.2338027,W,1,21,0.7,0.099,M,-30.478,M,0.0,*63
###2023-05-05 12:20:36.602602$GNGGA,162117.20,4120.7876544,N,07038.2337074,W,1,21,0.7,-0.070,M,-30.478,M,0.0,*43
###2023-05-05 12:20:38.595857$GNGGA,162119.20,4120.7898558,N,07038.2337601,W,1,21,0.7,-0.168,M,-30.478,M,0.0,*4C
###2023-05-05 12:20:40.601331$GNGGA,162121.20,4120.7920485,N,07038.2337189,W,1,21,0.7,-0.258,M,-30.478,M,0.0,*43
###2023-05-05 12:20:42.601513$GNGGA,162123.20,4120.7943304,N,07038.2337170,W,1,21,0.7,-0.229,M,-30.478,M,0.0,*4A
###2023-05-05 12:20:44.603951$GNGGA,162125.20,4120.7967264,N,07038.2336925,W,1,21,0.7,-0.042,M,-30.478,M,0.0,*4B
###2023-05-05 12:20:46.602189$GNGGA,162127.20,4120.7991465,N,07038.2336293,W,1,20,0.7,0.170,M,-30.478,M,0.0,*6D
###2023-05-05 12:20:48.603272$GNGGA,162129.20,4120.8013325,N,07038.2338076,W,1,21,0.7,-0.111,M,-30.478,M,0.0,*40
###2023-05-05 12:20:50.594580$GNGGA,162131.20,4120.8035309,N,07038.2337605,W,1,21,0.7,-0.248,M,-30.477,M,0.0,*4E
###2023-05-05 12:20:52.602187$GNGGA,162133.20,4120.8057558,N,07038.2336691,W,1,20,0.7,-0.247,M,-30.477,M,0.0,*48
###2023-05-05 12:20:54.599979$GNGGA,162135.20,4120.8080851,N,07038.2335859,W,1,21,0.7,-0.115,M,-30.477,M,0.0,*4C
###2023-05-05 12:20:56.607677$GNGGA,162137.20,4120.8104942,N,07038.2335064,W,1,20,0.7,-0.023,M,-30.477,M,0.0,*43
###2023-05-05 12:20:58.600946$GNGGA,162139.20,4120.8131497,N,07038.2334318,W,1,21,0.7,0.074,M,-30.477,M,0.0,*69
###2023-05-05 12:21:00.601843$GNGGA,162141.20,4120.8159308,N,07038.2335460,W,1,21,0.7,0.350,M,-30.477,M,0.0,*65
