###2023-05-05 13:27:38.673116$GNGGA,172819.20,4120.7973340,N,07038.1484336,W,1,24,0.6,-0.158,M,-30.476,M,0.0,*4B
###2023-05-05 13:27:40.675271$GNGGA,172821.20,4120.7973762,N,07038.1512785,W,1,24,0.6,-0.288,M,-30.476,M,0.0,*48
###2023-05-05 13:27:42.674254$GNGGA,172823.20,4120.7974143,N,07038.1543302,W,1,24,0.6,-0.080,M,-30.476,M,0.0,*4D
###2023-05-05 13:27:44.675302$GNGGA,172825.20,4120.7976761,N,07038.1571993,W,1,24,0.6,0.075,M,-30.477,M,0.0,*6A
###2023-05-05 13:27:46.675131$GNGGA,172827.20,4120.7974113,N,07038.1601148,W,1,24,0.6,-0.133,M,-30.477,M,0.0,*4D
###2023-05-05 13:27:48.675065$GNGGA,172829.20,4120.7975712,N,07038.1629283,W,1,24,0.6,-0.276,M,-30.477,M,0.0,*49
###2023-05-05 13:27:50.674046$GNGGA,172831.20,4120.7974055,N,07038.1658082,W,1,24,0.6,-0.413,M,-30.477,M,0.0,*45
###2023-05-05 13:27:52.674046$GNGGA,172833.20,4120.7974125,N,07038.1687551,W,1,24,0.6,-0.345,M,-30.477,M,0.0,*4C
###2023-05-05 13:27:54.671336$GNGGA,172835.20,4120.7976683,N,07038.1715841,W,1,24,0.6,0.075,M,-30.477,M,0.0,*68
###2023-05-05 13:27:56.674934$GNGGA,172837.20,4120.7972895,N,07038.1745978,W,1,24,0.6,-0.179,M,-30.477,M,0.0,*49
###2023-05-05 13:27:58.672789$GNGGA,172839.20,4120.7969824,N,07038.1773071,W,1,24,0.6,-0.500,M,-30.477,M,0.0,*48
###2023-05-05 13:28:00.673986$GNGGA,172841.20,4120.7971875,N,07038.1801584,W,1,24,0.6,-0.465,M,-30.477,M,0.0,*4D
###2023-05-05 13:28:02.671752$GNGGA,172843.20,4120.7972577,N,07038.1830321,W,1,24,0.6,-0.614,M,-30.477,M,0.0,*4C
###2023-05-05 13:28:04.673665$GNGGA,172845.20,4120.7975107,N,07038.1860072,W,1,24,0.6,-0.225,M,-30.477,M,0.0,*48
###2023-05-05 13:28:06.677701$GNGGA,172847.20,4120.7972997,N,07038.1892481,W,1,24,0.6,-0.164,M,-30.477,M,0.0,*4F
###2023-05-05 13:28:08.674874$GNGGA,172849.20,4120.7966746,N,07038.1920440,W,1,24,0.6,-0.516,M,-30.477,M,0.0,*42
###2023-05-05 13:28:10.674702$GNGGA,172851.20,4120.7966008,N,07038.1949028,W,1,24,0.6,-0.606,M,-30.477,M,0.0,*41
###2023-05-05 13:28:12.674568$GNGGA,172853.20,4120.7969488,N,07038.1975856,W,1,24,0.6,-0.610,M,-30.477,M,0.0,*49
###2023-05-05 13:28:14.674582$GNGGA,172855.20,4120.7973657,N,07038.2005266,W,1,24,0.6,-0.464,M,-30.477,M,0.0,*41
###2023-05-05 13:28:16.675611$GNGGA,172857.20,4120.7978475,N,07038.2036053,W,1,24,0.6,-0.299,M,-30.477,M,0.0,*4A
###2023-05-05 13:28:18.675540$GNGGA,172859.20,4120.7975793,N,07038.2065019,W,1,24,0.6,-0.300,M,-30.477,M,0.0,*4B
###2023-05-05 13:28:20.675582$GNGGA,172901.20,4120.7973688,N,07038.2095160,W,1,24,0.6,-0.334,M,-30.477,M,0.0,*4D
###2023-05-05 13:28:22.674552$GNGGA,172903.20,4120.7972547,N,07038.2122185,W,1,24,0.6,-0.511,M,-30.477,M,0.0,*49
###2023-05-05 13:28:24.675571$GNGGA,172905.20,4120.7973038,N,07038.2151799,W,1,24,0.6,-0.464,M,-30.477,M,0.0,*4F
###2023-05-05 13:28:26.668751$GNGGA,172907.20,4120.7973216,N,07038.2181209,W,1,24,0.6,-0.533,M,-30.477,M,0.0,*41
###2023-05-05 13:28:28.672281$GNGGA,172909.20,4120.7974330,N,07038.2209720,W,1,24,0.6,-0.232,M,-30.477,M,0.0,*46
###2023-05-05 13:28:30.675265$GNGGA,172911.20,4120.7975175,N,07038.2240645,W,1,24,0.6,-0.040,M,-30.478,M,0.0,*4A
###2023-05-05 13:28:32.673190$GNGGA,172913.20,4120.7967977,N,07038.2267888,W,1,24,0.6,-0.413,M,-30.478,M,0.0,*49
###2023-05-05 13:28:34.674264$GNGGA,172915.20,4120.7968083,N,07038.2295667,W,1,24,0.6,-0.578,M,-30.478,M,0.0,*4C
###2023-05-05 13:28:36.675401$GNGGA,172917.20,4120.7972185,N,07038.2324108,W,1,24,0.6,-0.636,M,-30.478,M,0.0,*4E
###2023-05-05 13:28:38.675273$GNGGA,172919.20,4120.7974215,N,07038.2354162,W,1,24,0.6,-0.190,M,-30.478,M,0.0,*4C
###2023-05-05 13:28:40.676147$GNGGA,172921.20,4120.7974466,N,07038.2384495,W,1,24,0.6,-0.183,M,-30.478,M,0.0,*47
###2023-05-05 13:28:42.678252$GNGGA,172923.20,4120.7969143,N,07038.2413052,W,1,24,0.6,-0.532,M,-30.478,M,0.0,*43
###2023-05-05 13:28:44.675090$GNGGA,172925.20,4120.7971577,N,07038.2440263,W,1,24,0.6,-0.484,M,-30.478,M,0.0,*45
###2023-05-05 13:28:46.676051$GNGGA,172927.20,4120.7972395,N,07038.2468931,W,1,24,0.6,-0.426,M,-30.478,M,0.0,*40
###2023-05-05 13:28:48.677877$GNGGA,172929.20,4120.7973207,N,07038.2496899,W,1,24,0.6,-0.452,M,-30.478,M,0.0,*44
###2023-05-05 13:28:50.675068$GNGGA,172931.20,4120.7973410,N,07038.2526058,W,1,24,0.6,-0.460,M,-30.478,M,0.0,*43
###2023-05-05 13:28:52.673104$GNGGA,172933.20,4120.7973754,N,07038.2555384,W,1,24,0.6,-0.266,M,-30.478,M,0.0,*44
###2023-05-05 13:28:54.677995$GNGGA,172935.20,4120.7972400,N,07038.2584725,W,1,24,0.6,-0.428,M,-30.478,M,0.0,*4E
###2023-05-05 13:28:56.674877$GNGGA,172937.20,4120.7971336,N,07038.2612115,W,1,24,0.6,-0.600,M,-30.478,M,0.0,*4C
###2023-05-05 13:28:58.674794$GNGGA,172939.20,4120.7972793,N,07038.2640500,W,1,24,0.6,-0.516,M,-30.478,M,0.0,*49
###2023-05-05 13:29:00.675869$GNGGA,172941.20,4120.7973193,N,07038.2668473,W,1,24,0.6,-0.408,M,-30.478,M,0.0,*40
###2023-05-05 13:29:02.675766$GNGGA,172943.20,4120.7975655,N,07038.2698175,W,1,24,0.6,-0.111,M,-30.478,M,0.0,*48
###2023-05-05 13:29:04.678978$GNGGA,172945.20,4120.7974203,N,07038.2728163,W,1,24,0.6,-0.247,M,-30.478,M,0.0,*45
###2023-05-05 13:29:06.676800$GNGGA,172947.20,4120.7974204,N,07038.2756211,W,1,24,0.6,-0.393,M,-30.478,M,0.0,*47
###2023-05-05 13:29:08.676723$GNGGA,172949.20,4120.7973742,N,07038.2784819,W,1,24,0.6,-0.476,M,-30.478,M,0.0,*48
###2023-05-05 13:29:10.674842$GNGGA,172951.20,4120.7974435,N,07038.2813237,W,1,24,0.6,-0.556,M,-30.478,M,0.0,*41
###2023-05-05 13:29:12.676547$GNGGA,172953.20,4120.7975430,N,07038.2843388,W,1,24,0.6,-0.063,M,-30.478,M,0.0,*44
###2023-05-05 13:29:14.675584$GNGGA,172955.20,4120.7974225,N,07038.2872954,W,1,24,0.6,-0.128,M,-30.478,M,0.0,*46
###2023-05-05 13:29:16.677192$GNGGA,172957.20,4120.7973635,N,07038.2900417,W,1,24,0.6,-0.404,M,-30.478,M,0.0,*43
###2023-05-05 13:29:18.676560$GNGGA,172959.20,4120.7974203,N,07038.2929180,W,1,24,0.6,-0.349,M,-30.479,M,0.0,*44
###2023-05-05 13:29:20.676694$GNGGA,173001.20,4120.7974156,N,07038.2958071,W,1,24,0.6,-0.290,M,-30.479,M,0.0,*4E
###2023-05-05 13:29:22.678803$GNGGA,173003.20,4120.7974809,N,07038.2987488,W,1,24,0.6,-0.011,M,-30.479,M,0.0,*44
###2023-05-05 13:29:24.677320$GNGGA,173005.20,4120.7974231,N,07038.3016328,W,1,24,0.6,-0.190,M,-30.479,M,0.0,*46
###2023-05-05 13:29:26.676548$GNGGA,173007.20,4120.7973864,N,07038.3043893,W,1,24,0.6,-0.434,M,-30.479,M,0.0,*49
###2023-05-05 13:29:28.674221$GNGGA,173009.20,4120.7974147,N,07038.3072047,W,1,24,0.6,-0.420,M,-30.479,M,0.0,*4E
###2023-05-05 13:29:30.672256$GNGGA,173011.20,4120.7974588,N,07038.3101195,W,1,24,0.6,-0.060,M,-30.479,M,0.0,*4B
###2023-05-05 13:29:32.676559$GNGGA,173013.20,4120.7974003,N,07038.3131562,W,1,24,0.6,-0.096,M,-30.479,M,0.0,*49
###2023-05-05 13:29:34.676231$GNGGA,173015.20,4120.7973591,N,07038.3159833,W,1,24,0.6,-0.203,M,-30.479,M,0.0,*4F
###2023-05-05 13:29:36.679245$GNGGA,173017.20,4120.7973543,N,07038.3189046,W,1,24,0.6,-0.225,M,-30.479,M,0.0,*41
###2023-05-05 13:29:38.677164$GNGGA,173019.20,4120.7973699,N,07038.3218168,W,1,24,0.6,-0.211,M,-30.479,M,0.0,*4A
###2023-05-05 13:29:40.679136$GNGGA,173021.20,4120.7973493,N,07038.3246986,W,1,24,0.6,-0.092,M,-30.479,M,0.0,*43
###2023-05-05 13:29:42.680069$GNGGA,173023.20,4120.7974176,N,07038.3275300,W,1,24,0.6,-0.084,M,-30.479,M,0.0,*4B
###2023-05-05 13:29:44.678270$GNGGA,173025.20,4120.7973644,N,07038.3304722,W,1,24,0.6,-0.062,M,-30.479,M,0.0,*47
###2023-05-05 13:29:46.678175$GNGGA,173027.20,4120.7972726,N,07038.3333702,W,1,24,0.6,-0.092,M,-30.479,M,0.0,*48
###2023-05-05 13:29:48.679232$GNGGA,173029.20,4120.7971683,N,07038.3362433,W,1,24,0.6,-0.158,M,-30.479,M,0.0,*49
###2023-05-05 13:29:50.676017$GNGGA,173031.20,4120.7972609,N,07038.3390332,W,1,24,0.6,-0.235,M,-30.479,M,0.0,*42
###2023-05-05 13:29:52.679076$GNGGA,173033.20,4120.7974160,N,07038.3420275,W,1,24,0.6,0.131,M,-30.479,M,0.0,*6A
###2023-05-05 13:29:54.679991$GNGGA,173035.20,4120.7972510,N,07038.3450599,W,1,24,0.6,-0.112,M,-30.479,M,0.0,*47
###2023-05-05 13:29:56.678052$GNGGA,173037.20,4120.7971602,N,07038.3478737,W,1,24,0.6,-0.413,M,-30.479,M,0.0,*4E
###2023-05-05 13:29:58.674745$GNGGA,173039.20,4120.7972307,N,07038.3507581,W,1,24,0.6,-0.384,M,-30.479,M,0.0,*4C
###2023-05-05 13:30:00.676687$GNGGA,173041.20,4120.7972291,N,07038.3536475,W,1,24,0.6,-0.204,M,-30.479,M,0.0,*4C
###2023-05-05 13:30:02.677705$GNGGA,173043.20,4120.7973276,N,07038.3565920,W,1,24,0.6,0.096,M,-30.479,M,0.0,*69
###2023-05-05 13:30:04.680632$GNGGA,173045.20,4120.7973888,N,07038.3595701,W,1,24,0.6,0.083,M,-30.480,M,0.0,*64
###2023-05-05 13:30:06.679745$GNGGA,173047.20,4120.7972524,N,07038.3624359,W,1,24,0.6,-0.298,M,-30.480,M,0.0,*49
###2023-05-05 13:30:08.672294$GNGGA,173049.20,4120.7972179,N,07038.3652389,W,1,24,0.6,-0.393,M,-30.480,M,0.0,*4D
###2023-05-05 13:30:10.677889$GNGGA,173051.20,4120.7972353,N,07038.3680666,W,1,24,0.6,-0.240,M,-30.480,M,0.0,*4A
###2023-05-05 13:30:12.679635$GNGGA,173053.20,4120.7974705,N,07038.3710192,W,1,24,0.6,-0.154,M,-30.480,M,0.0,*4B
###2023-05-05 13:30:14.679729$GNGGA,173055.20,4120.7973757,N,07038.3740810,W,1,24,0.6,-0.199,M,-30.480,M,0.0,*4A
###2023-05-05 13:30:16.679644$GNGGA,173057.20,4120.7973229,N,07038.3770990,W,1,24,0.6,-0.234,M,-30.480,M,0.0,*4A
###2023-05-05 13:30:18.680689$GNGGA,173059.20,4120.7973423,N,07038.3798786,W,1,24,0.6,-0.393,M,-30.480,M,0.0,*4B
###2023-05-05 13:30:20.680464$GNGGA,173101.20,4120.7972792,N,07038.3826925,W,1,24,0.6,-0.388,M,-30.480,M,0.0,*48
###2023-05-05 13:30:22.677463$GNGGA,173103.20,4120.7973601,N,07038.3856078,W,1,24,0.6,-0.494,M,-30.480,M,0.0,*4C
###2023-05-05 13:30:24.680499$GNGGA,173105.20,4120.7973461,N,07038.3885729,W,1,24,0.6,-0.389,M,-30.480,M,0.0,*48
###2023-05-05 13:30:26.678447$GNGGA,173107.20,4120.7973158,N,07038.3914066,W,1,24,0.6,-0.460,M,-30.480,M,0.0,*40
###2023-05-05 13:30:28.679470$GNGGA,173109.20,4120.7974273,N,07038.3943614,W,1,24,0.6,-0.191,M,-30.480,M,0.0,*49
###2023-05-05 13:30:30.678201$GNGGA,173111.20,4120.7974262,N,07038.3973995,W,1,24,0.6,-0.218,M,-30.480,M,0.0,*47
###2023-05-05 13:30:32.672945$GNGGA,173113.20,4120.7973088,N,07038.4003118,W,1,24,0.6,-0.329,M,-30.480,M,0.0,*43
###2023-05-05 13:30:34.677264$GNGGA,173115.20,4120.7976466,N,07038.4029792,W,1,24,0.6,-0.422,M,-30.480,M,0.0,*44
###2023-05-05 13:30:36.678159$GNGGA,173117.20,4120.7989857,N,07038.4046154,W,1,24,0.6,-0.550,M,-30.480,M,0.0,*49
###2023-05-05 13:30:38.677211$GNGGA,173119.20,4120.8008746,N,07038.4043249,W,1,24,0.6,-0.451,M,-30.480,M,0.0,*4D
###2023-05-05 13:30:40.677288$GNGGA,173121.20,4120.8032598,N,07038.4037916,W,1,24,0.6,-0.006,M,-30.480,M,0.0,*4A
###2023-05-05 13:30:42.681049$GNGGA,173123.20,4120.8059075,N,07038.4036680,W,1,24,0.6,0.057,M,-30.480,M,0.0,*6B
###2023-05-05 13:30:44.677215$GNGGA,173125.20,4120.8077406,N,07038.4027768,W,1,24,0.6,-0.111,M,-30.480,M,0.0,*48
###2023-05-05 13:30:46.678948$GNGGA,173127.20,4120.8086074,N,07038.4004984,W,1,24,0.6,-0.202,M,-30.480,M,0.0,*49
###2023-05-05 13:30:48.680132$GNGGA,173129.20,4120.8084358,N,07038.3978488,W,1,24,0.6,-0.084,M,-30.480,M,0.0,*40
###2023-05-05 13:30:50.681024$GNGGA,173131.20,4120.8083833,N,07038.3945789,W,1,24,0.6,-0.342,M,-30.480,M,0.0,*4D
###2023-05-05 13:30:52.680896$GNGGA,173133.20,4120.8082923,N,07038.3912429,W,1,24,0.6,-0.300,M,-30.480,M,0.0,*43
###2023-05-05 13:30:54.680995$GNGGA,173135.20,4120.8083145,N,07038.3880305,W,1,24,0.6,-0.043,M,-30.480,M,0.0,*4B
###2023-05-05 13:30:56.681050$GNGGA,173137.20,4120.8082711,N,07038.3850728,W,1,24,0.6,-0.185,M,-30.479,M,0.0,*44
