###2023-05-05 14:24:08.742643$GNGGA,182449.20,4120.8938087,N,07038.2482491,W,1,24,0.6,-0.394,M,-30.474,M,0.0,*4A
###2023-05-05 14:24:10.744136$GNGGA,182451.20,4120.8941338,N,07038.2481351,W,1,23,0.6,-0.370,M,-30.474,M,0.0,*4F
###2023-05-05 14:24:12.746454$GNGGA,182453.20,4120.8949168,N,07038.2483666,W,1,24,0.6,-0.234,M,-30.474,M,0.0,*47
###2023-05-05 14:24:14.748471$GNGGA,182455.20,4120.8955703,N,07038.2486788,W,1,23,0.6,-0.357,M,-30.474,M,0.0,*40
###2023-05-05 14:24:16.744080$GNGGA,182457.20,4120.8961718,N,07038.2485959,W,1,22,0.6,-0.487,M,-30.474,M,0.0,*45
###2023-05-05 14:24:18.746400$GNGGA,182459.20,4120.8959594,N,07038.2484794,W,1,23,0.6,-0.579,M,-30.474,M,0.0,*49
###2023-05-05 14:24:20.745226$GNGGA,182501.20,4120.8969016,N,07038.2485503,W,1,18,0.9,0.039,M,-30.474,M,0.0,*6F
###2023-05-05 14:24:22.744869$GNGGA,182503.20,4120.8977398,N,07038.2484134,W,1,22,0.6,-0.052,M,-30.474,M,0.0,*40
###2023-05-05 14:24:24.745679$GNGGA,182505.20,4120.8987441,N,07038.2483495,W,1,21,0.8,0.324,M,-30.474,M,0.0,*61
###2023-05-05 14:24:26.744590$GNGGA,182507.20,4120.8997403,N,07038.2480011,W,1,19,1.0,0.450,M,-30.474,M,0.0,*69
###2023-05-05 14:24:28.740308$GNGGA,182509.20,4120.9004377,N,07038.2471417,W,1,21,0.7,0.665,M,-30.474,M,0.0,*64
###2023-05-05 14:24:30.744375$GNGGA,182511.20,4120.9015149,N,07038.2461012,W,1,19,1.0,0.900,M,-30.474,M,0.0,*63
###2023-05-05 14:24:32.742350$GNGGA,182513.20,4120.9027290,N,07038.2455210,W,1,17,1.1,1.187,M,-30.474,M,0.0,*69
###2023-05-05 14:24:34.740327$GNGGA,182515.20,4120.9036153,N,07038.2453834,W,1,21,0.9,1.399,M,-30.474,M,0.0,*68
###2023-05-05 14:24:36.744592$GNGGA,182517.20,4120.9044424,N,07038.2457788,W,1,20,0.8,1.466,M,-30.474,M,0.0,*61
###2023-05-05 14:24:38.745278$GNGGA,182519.20,4120.9055852,N,07038.2458317,W,1,20,0.7,1.806,M,-30.474,M,0.0,*6A
###2023-05-05 14:24:40.745380$GNGGA,182521.20,4120.9066495,N,07038.2457837,W,1,21,0.8,2.100,M,-30.474,M,0.0,*62
###2023-05-05 14:24:42.746313$GNGGA,182523.20,4120.9076176,N,07038.2453453,W,1,21,0.8,2.381,M,-30.474,M,0.0,*68
###2023-05-05 14:24:44.744273$GNGGA,182525.20,4120.9085636,N,07038.2450221,W,1,20,0.8,2.659,M,-30.474,M,0.0,*60
###2023-05-05 14:24:46.745540$GNGGA,182527.20,4120.9097296,N,07038.2447102,W,1,20,0.8,3.065,M,-30.474,M,0.0,*63
###2023-05-05 14:24:48.746381$GNGGA,182529.20,4120.9106901,N,07038.2444352,W,1,21,0.8,3.313,M,-30.474,M,0.0,*66
###2023-05-05 14:24:50.745407$GNGGA,182531.20,4120.9116001,N,07038.2440140,W,1,17,1.2,3.573,M,-30.474,M,0.0,*6C
###2023-05-05 14:24:52.745443$GNGGA,182533.20,4120.9124628,N,07038.2436307,W,1,19,1.0,3.896,M,-30.473,M,0.0,*6F
###2023-05-05 14:24:54.746500$GNGGA,182535.20,4120.9134657,N,07038.2431938,W,1,19,1.0,4.007,M,-30.473,M,0.0,*66
###2023-05-05 14:24:56.743640$GNGGA,182537.20,4120.9146589,N,07038.2426811,W,1,17,0.8,3.928,M,-30.473,M,0.0,*69
###2023-05-05 14:24:58.744516$GNGGA,182539.20,4120.9151234,N,07038.2421374,W,1,22,0.6,3.217,M,-30.473,M,0.0,*60
###2023-05-05 14:25:00.745528$GNGGA,182541.20,4120.9150974,N,07038.2420882,W,1,25,0.6,3.102,M,-30.473,M,0.0,*62
###2023-05-05 14:25:02.750732$GNGGA,182543.20,4120.9151875,N,07038.2420833,W,1,25,0.6,3.157,M,-30.473,M,0.0,*6B
###2023-05-05 14:25:04.751654$GNGGA,182545.20,4120.9151825,N,07038.2420628,W,1,25,0.6,3.192,M,-30.473,M,0.0,*65
###2023-05-05 14:25:06.749555$GNGGA,182547.20,4120.9151558,N,07038.2420619,W,1,23,0.6,3.208,M,-30.473,M,0.0,*64
###2023-05-05 14:25:08.751480$GNGGA,182549.20,4120.9151283,N,07038.2420595,W,1,24,0.6,3.188,M,-30.473,M,0.0,*60
###2023-05-05 14:25:10.750440$GNGGA,182551.20,4120.9151065,N,07038.2420538,W,1,23,0.6,3.212,M,-30.473,M,0.0,*63
###2023-05-05 14:25:12.749499$GNGGA,182553.20,4120.9150891,N,07038.2420391,W,1,24,0.6,3.219,M,-30.473,M,0.0,*6A
###2023-05-05 14:25:14.751483$GNGGA,182555.20,4120.9150722,N,07038.2420346,W,1,24,0.6,3.222,M,-30.473,M,0.0,*69
###2023-05-05 14:25:16.751525$GNGGA,182557.20,4120.9150539,N,07038.2420336,W,1,24,0.6,3.236,M,-30.473,M,0.0,*61
###2023-05-05 14:25:18.750367$GNGGA,182559.20,4120.9150537,N,07038.2420300,W,1,24,0.6,3.241,M,-30.473,M,0.0,*64
###2023-05-05 14:25:20.752585$GNGGA,182601.20,4120.9150547,N,07038.2420380,W,1,25,0.6,3.253,M,-30.473,M,0.0,*67
###2023-05-05 14:25:22.752358$GNGGA,182603.20,4120.9150636,N,07038.2420355,W,1,25,0.6,3.274,M,-30.473,M,0.0,*6D
###2023-05-05 14:25:24.750198$GNGGA,182605.20,4120.9150688,N,07038.2420347,W,1,25,0.6,3.311,M,-30.473,M,0.0,*6F
###2023-05-05 14:25:26.752275$GNGGA,182607.20,4120.9150645,N,07038.2420242,W,1,25,0.6,3.316,M,-30.473,M,0.0,*6F
###2023-05-05 14:25:28.750071$GNGGA,182609.20,4120.9150542,N,07038.2420199,W,1,25,0.6,3.366,M,-30.473,M,0.0,*67
###2023-05-05 14:25:30.748207$GNGGA,182611.20,4120.9150524,N,07038.2420145,W,1,25,0.6,3.390,M,-30.473,M,0.0,*66
###2023-05-05 14:25:32.752062$GNGGA,182613.20,4120.9150608,N,07038.2420123,W,1,25,0.6,3.424,M,-30.473,M,0.0,*61
###2023-05-05 14:25:34.751036$GNGGA,182615.20,4120.9150770,N,07038.2420181,W,1,25,0.6,3.451,M,-30.473,M,0.0,*63
###2023-05-05 14:25:36.747993$GNGGA,182617.20,4120.9150928,N,07038.2420165,W,1,24,0.6,3.479,M,-30.473,M,0.0,*63
###2023-05-05 14:25:38.751219$GNGGA,182619.20,4120.9151015,N,07038.2420147,W,1,23,0.6,3.498,M,-30.473,M,0.0,*63
###2023-05-05 14:25:40.751344$GNGGA,182621.20,4120.9151002,N,07038.2420072,W,1,23,0.6,3.500,M,-30.473,M,0.0,*69
###2023-05-05 14:25:42.748928$GNGGA,182623.20,4120.9151044,N,07038.2420050,W,1,23,0.6,3.540,M,-30.473,M,0.0,*6D
###2023-05-05 14:25:44.752952$GNGGA,182625.20,4120.9151147,N,07038.2420136,W,1,25,0.6,3.548,M,-30.473,M,0.0,*66
###2023-05-05 14:25:46.753212$GNGGA,182627.20,4120.9151197,N,07038.2420168,W,1,25,0.6,3.563,M,-30.473,M,0.0,*6B
###2023-05-05 14:25:48.750843$GNGGA,182629.20,4120.9151257,N,07038.2420220,W,1,25,0.6,3.556,M,-30.473,M,0.0,*63
###2023-05-05 14:25:50.752799$GNGGA,182631.20,4120.9151164,N,07038.2420258,W,1,25,0.6,3.580,M,-30.473,M,0.0,*6D
###2023-05-05 14:25:52.752787$GNGGA,182633.20,4120.9151113,N,07038.2420259,W,1,25,0.6,3.579,M,-30.473,M,0.0,*68
###2023-05-05 14:25:54.750754$GNGGA,182635.20,4120.9151234,N,07038.2420363,W,1,25,0.6,3.550,M,-30.473,M,0.0,*6B
###2023-05-05 14:25:56.751965$GNGGA,182637.20,4120.9151379,N,07038.2420490,W,1,25,0.6,3.528,M,-30.473,M,0.0,*65
###2023-05-05 14:25:58.751532$GNGGA,182639.20,4120.9151544,N,07038.2420609,W,1,25,0.6,3.480,M,-30.473,M,0.0,*62
###2023-05-05 14:26:00.748513$GNGGA,182641.20,4120.9151650,N,07038.2420739,W,1,25,0.6,3.440,M,-30.473,M,0.0,*65
###2023-05-05 14:26:02.752550$GNGGA,182643.20,4120.9151720,N,07038.2420838,W,1,25,0.6,3.402,M,-30.473,M,0.0,*69
###2023-05-05 14:26:04.752432$GNGGA,182645.20,4120.9151687,N,07038.2420876,W,1,25,0.6,3.373,M,-30.473,M,0.0,*68
###2023-05-05 14:26:06.750440$GNGGA,182647.20,4120.9151727,N,07038.2420892,W,1,25,0.6,3.353,M,-30.473,M,0.0,*69
###2023-05-05 14:26:08.749401$GNGGA,182649.20,4120.9151840,N,07038.2420940,W,1,25,0.6,3.346,M,-30.473,M,0.0,*63
###2023-05-05 14:26:10.744901$GNGGA,182651.20,4120.9151935,N,07038.2420992,W,1,25,0.6,3.376,M,-30.473,M,0.0,*65
###2023-05-05 14:26:12.751410$GNGGA,182653.20,4120.9152028,N,07038.2421011,W,1,25,0.6,3.400,M,-30.473,M,0.0,*64
###2023-05-05 14:26:14.749368$GNGGA,182655.20,4120.9152097,N,07038.2421045,W,1,25,0.6,3.381,M,-30.473,M,0.0,*69
###2023-05-05 14:26:16.752334$GNGGA,182657.20,4120.9152081,N,07038.2421029,W,1,25,0.6,3.400,M,-30.473,M,0.0,*68
###2023-05-05 14:26:18.752376$GNGGA,182659.20,4120.9152057,N,07038.2420969,W,1,25,0.6,3.404,M,-30.473,M,0.0,*65
###2023-05-05 14:26:20.751272$GNGGA,182701.20,4120.9152143,N,07038.2420946,W,1,25,0.6,3.409,M,-30.473,M,0.0,*6D
###2023-05-05 14:26:22.751280$GNGGA,182703.20,4120.9152268,N,07038.2420951,W,1,25,0.6,3.402,M,-30.473,M,0.0,*68
###2023-05-05 14:26:24.752180$GNGGA,182705.20,4120.9152300,N,07038.2420968,W,1,25,0.6,3.415,M,-30.473,M,0.0,*6D
###2023-05-05 14:26:26.751270$GNGGA,182707.20,4120.9152252,N,07038.2420947,W,1,25,0.6,3.428,M,-30.473,M,0.0,*6A
###2023-05-05 14:26:28.749039$GNGGA,182709.20,4120.9152161,N,07038.2420941,W,1,25,0.6,3.429,M,-30.473,M,0.0,*60
###2023-05-05 14:26:30.751097$GNGGA,182711.20,4120.9152128,N,07038.2420886,W,1,25,0.6,3.402,M,-30.473,M,0.0,*67
###2023-05-05 14:26:32.749129$GNGGA,182713.20,4120.9152124,N,07038.2420949,W,1,25,0.6,3.370,M,-30.473,M,0.0,*69
###2023-05-05 14:26:34.750230$GNGGA,182715.20,4120.9152141,N,07038.2421011,W,1,25,0.6,3.370,M,-30.473,M,0.0,*69
###2023-05-05 14:26:36.752095$GNGGA,182717.20,4120.9152027,N,07038.2421063,W,1,25,0.6,3.380,M,-30.473,M,0.0,*60
###2023-05-05 14:26:38.750975$GNGGA,182719.20,4120.9151932,N,07038.2421095,W,1,25,0.6,3.379,M,-30.473,M,0.0,*6F
###2023-05-05 14:26:40.750934$GNGGA,182721.20,4120.9151854,N,07038.2421109,W,1,25,0.6,3.379,M,-30.473,M,0.0,*61
###2023-05-05 14:26:42.751980$GNGGA,182723.20,4120.9151789,N,07038.2421068,W,1,25,0.6,3.379,M,-30.473,M,0.0,*6A
###2023-05-05 14:26:44.751834$GNGGA,182725.20,4120.9151766,N,07038.2421036,W,1,25,0.6,3.387,M,-30.473,M,0.0,*67
###2023-05-05 14:26:46.751878$GNGGA,182727.20,4120.9151779,N,07038.2421068,W,1,25,0.6,3.380,M,-30.473,M,0.0,*67
###2023-05-05 14:26:48.752807$GNGGA,182729.20,4120.9151746,N,07038.2421125,W,1,25,0.6,3.394,M,-30.473,M,0.0,*68
###2023-05-05 14:26:50.750848$GNGGA,182731.20,4120.9151581,N,07038.2421162,W,1,24,0.6,3.442,M,-30.473,M,0.0,*66
###2023-05-05 14:26:52.752826$GNGGA,182733.20,4120.9151486,N,07038.2421183,W,1,24,0.6,3.469,M,-30.473,M,0.0,*64
###2023-05-05 14:26:54.747335$GNGGA,182735.20,4120.9151461,N,07038.2421103,W,1,24,0.6,3.478,M,-30.473,M,0.0,*63
###2023-05-05 14:26:56.751726$GNGGA,182737.20,4120.9151514,N,07038.2421077,W,1,24,0.6,3.498,M,-30.473,M,0.0,*6E
###2023-05-05 14:26:58.749558$GNGGA,182739.20,4120.9151661,N,07038.2421035,W,1,24,0.6,3.504,M,-30.473,M,0.0,*63
###2023-05-05 14:27:00.750517$GNGGA,182741.20,4120.9151611,N,07038.2421013,W,1,24,0.6,3.544,M,-30.473,M,0.0,*6B
###2023-05-05 14:27:02.749538$GNGGA,182743.20,4120.9151499,N,07038.2420927,W,1,24,0.6,3.552,M,-30.473,M,0.0,*63
###2023-05-05 14:27:04.750450$GNGGA,182745.20,4120.9151351,N,07038.2420877,W,1,24,0.6,3.566,M,-30.473,M,0.0,*65
###2023-05-05 14:27:06.751593$GNGGA,182747.20,4120.9151329,N,07038.2420816,W,1,24,0.6,3.542,M,-30.473,M,0.0,*69
###2023-05-05 14:27:08.750400$GNGGA,182749.20,4120.9151374,N,07038.2420740,W,1,24,0.6,3.533,M,-30.473,M,0.0,*65
###2023-05-05 14:27:10.753476$GNGGA,182751.20,4120.9151334,N,07038.2420592,W,1,24,0.6,3.524,M,-30.473,M,0.0,*63
###2023-05-05 14:27:12.753335$GNGGA,182753.20,4120.9151153,N,07038.2420489,W,1,24,0.6,3.545,M,-30.473,M,0.0,*6E
###2023-05-05 14:27:14.752360$GNGGA,182755.20,4120.9150875,N,07038.2420294,W,1,24,0.6,3.566,M,-30.473,M,0.0,*6F
###2023-05-05 14:27:16.753273$GNGGA,182757.20,4120.9150576,N,07038.2420164,W,1,24,0.6,3.625,M,-30.473,M,0.0,*6B
###2023-05-05 14:27:18.753300$GNGGA,182759.20,4120.9150426,N,07038.2420047,W,1,24,0.6,3.658,M,-30.473,M,0.0,*6B
###2023-05-05 14:27:20.752180$GNGGA,182801.20,4120.9150417,N,07038.2420010,W,1,24,0.6,3.659,M,-30.473,M,0.0,*68
###2023-05-05 14:27:22.752230$GNGGA,182803.20,4120.9150521,N,07038.2419994,W,1,24,0.6,3.649,M,-30.473,M,0.0,*60
###2023-05-05 14:27:24.754467$GNGGA,182805.20,4120.9150534,N,07038.2420074,W,1,24,0.6,3.650,M,-30.473,M,0.0,*67
###2023-05-05 14:27:26.751174$GNGGA,182807.20,4120.9150605,N,07038.2420123,W,1,24,0.6,3.625,M,-30.473,M,0.0,*65
