###2023-05-05 13:57:30.714022$GNGGA,175811.20,4120.8617266,N,07038.2715699,W,1,22,0.6,-0.347,M,-30.476,M,0.0,*41
###2023-05-05 13:57:32.707145$GNGGA,175813.20,4120.8619827,N,07038.2745099,W,1,22,0.6,-0.095,M,-30.476,M,0.0,*4D
###2023-05-05 13:57:34.709495$GNGGA,175815.20,4120.8619237,N,07038.2773847,W,1,22,0.6,-0.242,M,-30.476,M,0.0,*46
###2023-05-05 13:57:36.709356$GNGGA,175817.20,4120.8619063,N,07038.2803321,W,1,22,0.6,-0.357,M,-30.476,M,0.0,*41
###2023-05-05 13:57:38.702647$GNGGA,175819.20,4120.8619019,N,07038.2832047,W,1,22,0.6,-0.210,M,-30.476,M,0.0,*41
###2023-05-05 13:57:40.711927$GNGGA,175821.20,4120.8619408,N,07038.2860311,W,1,22,0.6,-0.179,M,-30.476,M,0.0,*45
###2023-05-05 13:57:42.710148$GNGGA,175823.20,4120.8620311,N,07038.2888443,W,1,22,0.6,-0.062,M,-30.476,M,0.0,*4F
###2023-05-05 13:57:44.709188$GNGGA,175825.20,4120.8619314,N,07038.2917062,W,1,22,0.6,-0.445,M,-30.476,M,0.0,*47
###2023-05-05 13:57:46.711249$GNGGA,175827.20,4120.8618837,N,07038.2945835,W,1,22,0.6,-0.427,M,-30.476,M,0.0,*47
###2023-05-05 13:57:48.710128$GNGGA,175829.20,4120.8619203,N,07038.2974664,W,1,22,0.6,-0.182,M,-30.476,M,0.0,*47
###2023-05-05 13:57:50.710400$GNGGA,175831.20,4120.8618078,N,07038.3004329,W,1,22,0.6,-0.042,M,-30.476,M,0.0,*4F
###2023-05-05 13:57:52.706359$GNGGA,175833.20,4120.8620205,N,07038.3033024,W,1,22,0.6,-0.198,M,-30.476,M,0.0,*42
###2023-05-05 13:57:54.711019$GNGGA,175835.20,4120.8619000,N,07038.3062457,W,1,22,0.6,-0.222,M,-30.476,M,0.0,*4F
###2023-05-05 13:57:56.710967$GNGGA,175837.20,4120.8618739,N,07038.3091333,W,1,22,0.6,-0.360,M,-30.476,M,0.0,*4F
###2023-05-05 13:57:58.709814$GNGGA,175839.20,4120.8618756,N,07038.3118920,W,1,22,0.6,-0.291,M,-30.476,M,0.0,*4F
###2023-05-05 13:58:00.709810$GNGGA,175841.20,4120.8618962,N,07038.3147762,W,1,22,0.6,-0.136,M,-30.476,M,0.0,*45
###2023-05-05 13:58:02.709083$GNGGA,175843.20,4120.8618979,N,07038.3177887,W,1,22,0.6,-0.001,M,-30.476,M,0.0,*4F
###2023-05-05 13:58:04.709962$GNGGA,175845.20,4120.8618100,N,07038.3205745,W,1,22,0.6,-0.078,M,-30.477,M,0.0,*47
###2023-05-05 13:58:06.711069$GNGGA,175847.20,4120.8618210,N,07038.3233724,W,1,22,0.6,-0.248,M,-30.477,M,0.0,*44
###2023-05-05 13:58:08.710879$GNGGA,175849.20,4120.8618716,N,07038.3263076,W,1,22,0.6,-0.209,M,-30.477,M,0.0,*49
###2023-05-05 13:58:10.711741$GNGGA,175851.20,4120.8618339,N,07038.3291392,W,1,22,0.6,-0.235,M,-30.477,M,0.0,*42
###2023-05-05 13:58:12.710665$GNGGA,175853.20,4120.8618546,N,07038.3318552,W,1,22,0.6,-0.336,M,-30.477,M,0.0,*46
###2023-05-05 13:58:14.710578$GNGGA,175855.20,4120.8619191,N,07038.3348282,W,1,22,0.6,-0.149,M,-30.477,M,0.0,*4A
###2023-05-05 13:58:16.711779$GNGGA,175857.20,4120.8618145,N,07038.3377957,W,1,22,0.6,-0.228,M,-30.477,M,0.0,*4B
###2023-05-05 13:58:18.711639$GNGGA,175859.20,4120.8618739,N,07038.3404280,W,1,22,0.6,-0.262,M,-30.477,M,0.0,*44
###2023-05-05 13:58:20.710567$GNGGA,175901.20,4120.8619120,N,07038.3431639,W,1,22,0.6,-0.325,M,-30.477,M,0.0,*45
###2023-05-05 13:58:22.712621$GNGGA,175903.20,4120.8619032,N,07038.3461232,W,1,22,0.6,-0.341,M,-30.477,M,0.0,*4D
###2023-05-05 13:58:24.712532$GNGGA,175905.20,4120.8621205,N,07038.3491477,W,1,22,0.6,0.087,M,-30.477,M,0.0,*6A
###2023-05-05 13:58:26.719081$GNGGA,175907.20,4120.8616143,N,07038.3520662,W,1,22,0.6,-0.489,M,-30.477,M,0.0,*47
###2023-05-05 13:58:28.710384$GNGGA,175909.20,4120.8612013,N,07038.3550713,W,1,22,0.6,-0.294,M,-30.477,M,0.0,*43
###2023-05-05 13:58:30.709560$GNGGA,175911.20,4120.8618432,N,07038.3578027,W,1,22,0.6,-0.174,M,-30.477,M,0.0,*40
###2023-05-05 13:58:32.710309$GNGGA,175913.20,4120.8618642,N,07038.3606197,W,1,22,0.6,-0.271,M,-30.477,M,0.0,*41
###2023-05-05 13:58:34.711330$GNGGA,175915.20,4120.8620232,N,07038.3637295,W,1,22,0.6,-0.021,M,-30.477,M,0.0,*4B
###2023-05-05 13:58:36.712170$GNGGA,175917.20,4120.8616246,N,07038.3667664,W,1,22,0.6,-0.239,M,-30.477,M,0.0,*4B
###2023-05-05 13:58:38.709272$GNGGA,175919.20,4120.8617542,N,07038.3695465,W,1,22,0.6,-0.149,M,-30.477,M,0.0,*4D
###2023-05-05 13:58:40.713232$GNGGA,175921.20,4120.8617577,N,07038.3724420,W,1,22,0.6,-0.221,M,-30.477,M,0.0,*47
###2023-05-05 13:58:42.715212$GNGGA,175923.20,4120.8616681,N,07038.3752164,W,1,22,0.6,-0.492,M,-30.477,M,0.0,*44
###2023-05-05 13:58:44.724973$GNGGA,175925.20,4120.8616375,N,07038.3780500,W,1,22,0.6,-0.470,M,-30.477,M,0.0,*49
###2023-05-05 13:58:46.712308$GNGGA,175927.20,4120.8617941,N,07038.3808788,W,1,22,0.6,-0.410,M,-30.477,M,0.0,*4C
###2023-05-05 13:58:48.711855$GNGGA,175929.20,4120.8620950,N,07038.3836807,W,1,22,0.6,-0.243,M,-30.477,M,0.0,*43
###2023-05-05 13:58:50.712067$GNGGA,175931.20,4120.8616021,N,07038.3865685,W,1,22,0.6,-0.315,M,-30.477,M,0.0,*40
###2023-05-05 13:58:52.713083$GNGGA,175933.20,4120.8618677,N,07038.3894691,W,1,22,0.6,-0.456,M,-30.478,M,0.0,*4D
###2023-05-05 13:58:54.712886$GNGGA,175935.20,4120.8617255,N,07038.3924671,W,1,22,0.6,-0.249,M,-30.478,M,0.0,*4C
###2023-05-05 13:58:56.711781$GNGGA,175937.20,4120.8620335,N,07038.3953096,W,1,22,0.6,0.421,M,-30.478,M,0.0,*67
###2023-05-05 13:58:58.712060$GNGGA,175939.20,4120.8620516,N,07038.3980937,W,1,22,0.6,-0.313,M,-30.478,M,0.0,*49
###2023-05-05 13:59:00.710862$GNGGA,175941.20,4120.8616698,N,07038.4008101,W,1,22,0.6,-0.204,M,-30.478,M,0.0,*42
###2023-05-05 13:59:02.712798$GNGGA,175943.20,4120.8616836,N,07038.4037594,W,1,22,0.6,-0.323,M,-30.478,M,0.0,*4A
###2023-05-05 13:59:04.714673$GNGGA,175945.20,4120.8626176,N,07038.4064885,W,1,22,0.6,0.246,M,-30.478,M,0.0,*66
###2023-05-05 13:59:06.712930$GNGGA,175947.20,4120.8640878,N,07038.4084184,W,1,22,0.6,-0.488,M,-30.478,M,0.0,*4C
###2023-05-05 13:59:08.712678$GNGGA,175949.20,4120.8658608,N,07038.4089146,W,1,22,0.6,-0.647,M,-30.478,M,0.0,*40
###2023-05-05 13:59:10.713792$GNGGA,175951.20,4120.8673328,N,07038.4073809,W,1,22,0.6,-0.508,M,-30.478,M,0.0,*48
###2023-05-05 13:59:12.714853$GNGGA,175953.20,4120.8680501,N,07038.4049009,W,1,22,0.6,-0.379,M,-30.478,M,0.0,*4A
###2023-05-05 13:59:14.711585$GNGGA,175955.20,4120.8674361,N,07038.4024637,W,1,22,0.6,-0.364,M,-30.478,M,0.0,*4B
###2023-05-05 13:59:16.714582$GNGGA,175957.20,4120.8664601,N,07038.4002585,W,1,22,0.6,-0.141,M,-30.478,M,0.0,*40
###2023-05-05 13:59:18.713544$GNGGA,175959.20,4120.8646855,N,07038.3986067,W,1,22,0.6,-0.436,M,-30.478,M,0.0,*4F
###2023-05-05 13:59:20.712591$GNGGA,180001.20,4120.8635944,N,07038.3959060,W,1,23,0.6,-0.413,M,-30.478,M,0.0,*47
###2023-05-05 13:59:22.719742$GNGGA,180003.20,4120.8632873,N,07038.3930339,W,1,23,0.6,-0.350,M,-30.478,M,0.0,*47
###2023-05-05 13:59:24.714554$GNGGA,180005.20,4120.8635392,N,07038.3901743,W,1,23,0.6,-0.381,M,-30.477,M,0.0,*4A
###2023-05-05 13:59:26.715549$GNGGA,180007.20,4120.8640034,N,07038.3872508,W,1,23,0.6,-0.174,M,-30.477,M,0.0,*45
###2023-05-05 13:59:28.711402$GNGGA,180009.20,4120.8643722,N,07038.3842403,W,1,23,0.6,-0.221,M,-30.477,M,0.0,*42
###2023-05-05 13:59:30.711356$GNGGA,180011.20,4120.8647997,N,07038.3813274,W,1,23,0.6,-0.249,M,-30.477,M,0.0,*43
###2023-05-05 13:59:32.712322$GNGGA,180013.20,4120.8651649,N,07038.3783968,W,1,23,0.6,-0.412,M,-30.477,M,0.0,*42
###2023-05-05 13:59:34.714289$GNGGA,180015.20,4120.8656151,N,07038.3754142,W,1,23,0.6,-0.296,M,-30.477,M,0.0,*4D
###2023-05-05 13:59:36.714397$GNGGA,180017.20,4120.8656959,N,07038.3726277,W,1,22,0.6,-0.311,M,-30.477,M,0.0,*40
###2023-05-05 13:59:38.714165$GNGGA,180019.20,4120.8662297,N,07038.3697947,W,1,23,0.6,-0.217,M,-30.477,M,0.0,*45
###2023-05-05 13:59:40.719485$GNGGA,180021.20,4120.8668544,N,07038.3669824,W,1,22,0.6,-0.033,M,-30.477,M,0.0,*4D
###2023-05-05 13:59:42.714178$GNGGA,180023.20,4120.8670668,N,07038.3641622,W,1,23,0.6,-0.209,M,-30.477,M,0.0,*43
###2023-05-05 13:59:44.715383$GNGGA,180025.20,4120.8676440,N,07038.3613171,W,1,23,0.6,-0.101,M,-30.477,M,0.0,*46
###2023-05-05 13:59:46.715149$GNGGA,180027.20,4120.8679387,N,07038.3583862,W,1,23,0.6,0.045,M,-30.477,M,0.0,*6A
###2023-05-05 13:59:48.715107$GNGGA,180029.20,4120.8683214,N,07038.3555577,W,1,22,0.6,-0.098,M,-30.477,M,0.0,*44
###2023-05-05 13:59:50.714502$GNGGA,180031.20,4120.8690107,N,07038.3527257,W,1,22,0.6,0.240,M,-30.477,M,0.0,*64
###2023-05-05 13:59:52.715032$GNGGA,180033.20,4120.8689850,N,07038.3499635,W,1,23,0.6,-0.002,M,-30.477,M,0.0,*49
###2023-05-05 13:59:54.717580$GNGGA,180035.20,4120.8695410,N,07038.3468857,W,1,23,0.6,0.257,M,-30.477,M,0.0,*61
###2023-05-05 13:59:56.714821$GNGGA,180037.20,4120.8695257,N,07038.3439860,W,1,23,0.6,0.112,M,-30.477,M,0.0,*64
###2023-05-05 13:59:58.725246$GNGGA,180039.20,4120.8703442,N,07038.3410328,W,1,22,0.6,0.467,M,-30.476,M,0.0,*6D
###2023-05-05 14:00:00.712534$GNGGA,180041.20,4120.8698827,N,07038.3382095,W,1,23,0.6,0.046,M,-30.476,M,0.0,*61
###2023-05-05 14:00:02.713642$GNGGA,180043.20,4120.8699525,N,07038.3352102,W,1,23,0.6,0.261,M,-30.476,M,0.0,*68
###2023-05-05 14:00:04.713668$GNGGA,180045.20,4120.8710290,N,07038.3323517,W,1,23,0.6,0.028,M,-30.476,M,0.0,*6E
###2023-05-05 14:00:06.715744$GNGGA,180047.20,4120.8717545,N,07038.3293356,W,1,23,0.6,0.118,M,-30.476,M,0.0,*6F
###2023-05-05 14:00:08.718342$GNGGA,180049.20,4120.8724848,N,07038.3266572,W,1,23,0.6,0.475,M,-30.476,M,0.0,*65
###2023-05-05 14:00:10.715426$GNGGA,180051.20,4120.8718980,N,07038.3241537,W,1,23,0.6,0.032,M,-30.476,M,0.0,*65
###2023-05-05 14:00:12.715362$GNGGA,180053.20,4120.8717381,N,07038.3211850,W,1,23,0.6,0.327,M,-30.476,M,0.0,*6D
###2023-05-05 14:00:14.716307$GNGGA,180055.20,4120.8721317,N,07038.3179441,W,1,22,0.6,0.252,M,-30.476,M,0.0,*62
###2023-05-05 14:00:16.717402$GNGGA,180057.20,4120.8723831,N,07038.3148569,W,1,23,0.6,0.359,M,-30.476,M,0.0,*6F
###2023-05-05 14:00:18.715456$GNGGA,180059.20,4120.8725215,N,07038.3118153,W,1,23,0.6,0.423,M,-30.476,M,0.0,*69
###2023-05-05 14:00:20.718045$GNGGA,180101.20,4120.8725167,N,07038.3090264,W,1,23,0.6,0.392,M,-30.476,M,0.0,*68
###2023-05-05 14:00:22.715451$GNGGA,180103.20,4120.8724367,N,07038.3059233,W,1,23,0.6,0.084,M,-30.476,M,0.0,*6A
###2023-05-05 14:00:24.715358$GNGGA,180105.20,4120.8725196,N,07038.3026469,W,1,23,0.6,0.306,M,-30.476,M,0.0,*69
###2023-05-05 14:00:26.717233$GNGGA,180107.20,4120.8725989,N,07038.2996881,W,1,22,0.6,0.410,M,-30.476,M,0.0,*65
###2023-05-05 14:00:28.714151$GNGGA,180109.20,4120.8725076,N,07038.2968161,W,1,23,0.6,0.419,M,-30.476,M,0.0,*6C
###2023-05-05 14:00:30.715259$GNGGA,180111.20,4120.8723907,N,07038.2937866,W,1,23,0.6,0.360,M,-30.476,M,0.0,*61
###2023-05-05 14:00:32.716056$GNGGA,180113.20,4120.8725148,N,07038.2907001,W,1,23,0.6,0.461,M,-30.476,M,0.0,*6A
###2023-05-05 14:00:34.714200$GNGGA,180115.20,4120.8724390,N,07038.2876630,W,1,23,0.6,0.363,M,-30.476,M,0.0,*6C
###2023-05-05 14:00:36.723529$GNGGA,180117.20,4120.8724970,N,07038.2845448,W,1,23,0.6,0.469,M,-30.476,M,0.0,*6A
###2023-05-05 14:00:38.716201$GNGGA,180119.20,4120.8725422,N,07038.2816496,W,1,23,0.6,0.702,M,-30.476,M,0.0,*64
###2023-05-05 14:00:40.716309$GNGGA,180121.20,4120.8725401,N,07038.2787564,W,1,23,0.6,0.697,M,-30.475,M,0.0,*6B
###2023-05-05 14:00:42.717644$GNGGA,180123.20,4120.8724822,N,07038.2758993,W,1,23,0.6,0.423,M,-30.475,M,0.0,*6E
###2023-05-05 14:00:44.717769$GNGGA,180125.20,4120.8724996,N,07038.2729750,W,1,23,0.6,0.466,M,-30.475,M,0.0,*60
###2023-05-05 14:00:46.717678$GNGGA,180127.20,4120.8724366,N,07038.2701488,W,1,23,0.6,0.515,M,-30.475,M,0.0,*6E
###2023-05-05 14:00:48.717049$GNGGA,180129.20,4120.8725391,N,07038.2672924,W,1,23,0.6,0.952,M,-30.475,M,0.0,*68
