###2023-05-05 14:04:10.722120$GNGGA,180451.20,4120.8726724,N,07038.0141381,W,1,24,0.6,0.608,M,-30.472,M,0.0,*6B
###2023-05-05 14:04:12.722063$GNGGA,180453.20,4120.8737989,N,07038.0139140,W,1,23,0.6,0.529,M,-30.472,M,0.0,*67
###2023-05-05 14:04:14.722072$GNGGA,180455.20,4120.8753918,N,07038.0154536,W,1,23,0.6,0.906,M,-30.472,M,0.0,*64
###2023-05-05 14:04:16.722020$GNGGA,180457.20,4120.8766136,N,07038.0176384,W,1,23,0.6,0.913,M,-30.471,M,0.0,*6C
###2023-05-05 14:04:18.717512$GNGGA,180459.20,4120.8780685,N,07038.0201923,W,1,23,0.6,0.856,M,-30.471,M,0.0,*61
###2023-05-05 14:04:20.719428$GNGGA,180501.20,4120.8788294,N,07038.0222781,W,1,23,0.6,0.609,M,-30.471,M,0.0,*62
###2023-05-05 14:04:22.721449$GNGGA,180503.20,4120.8801262,N,07038.0243824,W,1,23,0.6,1.041,M,-30.471,M,0.0,*6B
###2023-05-05 14:04:24.722933$GNGGA,180505.20,4120.8812234,N,07038.0266339,W,1,23,0.6,0.747,M,-30.471,M,0.0,*6C
###2023-05-05 14:04:26.721796$GNGGA,180507.20,4120.8817533,N,07038.0283029,W,1,23,0.6,0.728,M,-30.471,M,0.0,*6B
###2023-05-05 14:04:28.718225$GNGGA,180509.20,4120.8829065,N,07038.0305814,W,1,23,0.6,0.789,M,-30.471,M,0.0,*6C
###2023-05-05 14:04:30.719217$GNGGA,180511.20,4120.8839206,N,07038.0325889,W,1,23,0.6,0.673,M,-30.471,M,0.0,*61
###2023-05-05 14:04:32.714579$GNGGA,180513.20,4120.8852569,N,07038.0348663,W,1,23,0.6,0.722,M,-30.471,M,0.0,*64
###2023-05-05 14:04:34.720107$GNGGA,180515.20,4120.8866689,N,07038.0370086,W,1,23,0.6,0.823,M,-30.471,M,0.0,*60
###2023-05-05 14:04:36.723841$GNGGA,180517.20,4120.8882622,N,07038.0388335,W,1,23,0.6,0.936,M,-30.471,M,0.0,*60
###2023-05-05 14:04:38.720030$GNGGA,180519.20,4120.8903832,N,07038.0408687,W,1,23,0.6,0.999,M,-30.471,M,0.0,*6F
###2023-05-05 14:04:40.722576$GNGGA,180521.20,4120.8919020,N,07038.0426397,W,1,23,0.6,0.780,M,-30.471,M,0.0,*6A
###2023-05-05 14:04:42.722567$GNGGA,180523.20,4120.8925556,N,07038.0449247,W,1,23,0.6,0.705,M,-30.471,M,0.0,*6B
###2023-05-05 14:04:44.724561$GNGGA,180525.20,4120.8928613,N,07038.0479084,W,1,23,0.6,0.769,M,-30.471,M,0.0,*66
###2023-05-05 14:04:46.722570$GNGGA,180527.20,4120.8931782,N,07038.0508488,W,1,23,0.6,0.785,M,-30.471,M,0.0,*68
###2023-05-05 14:04:48.722915$GNGGA,180529.20,4120.8935653,N,07038.0534126,W,1,23,0.6,0.758,M,-30.471,M,0.0,*61
###2023-05-05 14:04:50.722662$GNGGA,180531.20,4120.8952368,N,07038.0563622,W,1,23,0.6,1.203,M,-30.471,M,0.0,*6F
###2023-05-05 14:04:52.723505$GNGGA,180533.20,4120.8968478,N,07038.0596175,W,1,23,0.6,1.116,M,-30.471,M,0.0,*6A
###2023-05-05 14:04:54.722992$GNGGA,180535.20,4120.8974421,N,07038.0617793,W,1,23,0.6,0.850,M,-30.471,M,0.0,*63
###2023-05-05 14:04:56.719847$GNGGA,180537.20,4120.8971205,N,07038.0643509,W,1,23,0.6,0.701,M,-30.471,M,0.0,*6F
###2023-05-05 14:04:58.719692$GNGGA,180539.20,4120.8960486,N,07038.0667835,W,1,24,0.6,0.732,M,-30.471,M,0.0,*6F
###2023-05-05 14:05:00.714097$GNGGA,180541.20,4120.8945979,N,07038.0682627,W,1,23,0.6,0.863,M,-30.472,M,0.0,*63
###2023-05-05 14:05:02.719925$GNGGA,180543.20,4120.8929389,N,07038.0694725,W,1,24,0.6,0.515,M,-30.472,M,0.0,*61
###2023-05-05 14:05:04.719657$GNGGA,180545.20,4120.8906849,N,07038.0701867,W,1,23,0.6,0.661,M,-30.472,M,0.0,*6E
###2023-05-05 14:05:06.720921$GNGGA,180547.20,4120.8884926,N,07038.0709158,W,1,24,0.6,0.876,M,-30.472,M,0.0,*6D
###2023-05-05 14:05:08.723246$GNGGA,180549.20,4120.8862858,N,07038.0720275,W,1,24,0.6,0.897,M,-30.472,M,0.0,*6B
###2023-05-05 14:05:10.722968$GNGGA,180551.20,4120.8839781,N,07038.0730990,W,1,24,0.6,1.061,M,-30.472,M,0.0,*66
###2023-05-05 14:05:12.723576$GNGGA,180553.20,4120.8820538,N,07038.0740728,W,1,24,0.6,1.016,M,-30.472,M,0.0,*66
###2023-05-05 14:05:14.721775$GNGGA,180555.20,4120.8800845,N,07038.0749774,W,1,23,0.6,0.776,M,-30.472,M,0.0,*62
###2023-05-05 14:05:16.724093$GNGGA,180557.20,4120.8785426,N,07038.0766368,W,1,24,0.6,0.732,M,-30.472,M,0.0,*68
###2023-05-05 14:05:18.723794$GNGGA,180559.20,4120.8781276,N,07038.0793133,W,1,23,0.6,0.989,M,-30.472,M,0.0,*6E
###2023-05-05 14:05:20.722989$GNGGA,180601.20,4120.8788593,N,07038.0816810,W,1,23,0.6,0.875,M,-30.472,M,0.0,*6D
###2023-05-05 14:05:22.721826$GNGGA,180603.20,4120.8798291,N,07038.0835515,W,1,23,0.6,0.716,M,-30.472,M,0.0,*68
###2023-05-05 14:05:24.723492$GNGGA,180605.20,4120.8813789,N,07038.0849049,W,1,23,0.6,0.754,M,-30.472,M,0.0,*6F
###2023-05-05 14:05:26.721651$GNGGA,180607.20,4120.8830105,N,07038.0862406,W,1,23,0.6,0.808,M,-30.472,M,0.0,*6E
###2023-05-05 14:05:28.720250$GNGGA,180609.20,4120.8847575,N,07038.0876341,W,1,23,0.6,1.004,M,-30.472,M,0.0,*67
###2023-05-05 14:05:30.727870$GNGGA,180611.20,4120.8864351,N,07038.0894698,W,1,23,0.6,1.010,M,-30.472,M,0.0,*67
###2023-05-05 14:05:32.719129$GNGGA,180613.20,4120.8883269,N,07038.0915778,W,1,23,0.6,1.069,M,-30.472,M,0.0,*6F
###2023-05-05 14:05:34.720131$GNGGA,180615.20,4120.8899279,N,07038.0936431,W,1,23,0.6,0.877,M,-30.472,M,0.0,*6A
###2023-05-05 14:05:36.723088$GNGGA,180617.20,4120.8914437,N,07038.0952159,W,1,23,0.6,0.720,M,-30.472,M,0.0,*64
###2023-05-05 14:05:38.722379$GNGGA,180619.20,4120.8932571,N,07038.0965437,W,1,23,0.6,0.788,M,-30.472,M,0.0,*66
###2023-05-05 14:05:40.716404$GNGGA,180621.20,4120.8950218,N,07038.0979806,W,1,23,0.6,0.841,M,-30.472,M,0.0,*68
###2023-05-05 14:05:42.721923$GNGGA,180623.20,4120.8968917,N,07038.0997356,W,1,23,0.6,0.763,M,-30.472,M,0.0,*64
###2023-05-05 14:05:44.721030$GNGGA,180625.20,4120.8977932,N,07038.1018124,W,1,23,0.6,0.590,M,-30.472,M,0.0,*6D
###2023-05-05 14:05:46.721878$GNGGA,180627.20,4120.8973769,N,07038.1041642,W,1,23,0.6,0.916,M,-30.472,M,0.0,*62
###2023-05-05 14:05:48.723789$GNGGA,180629.20,4120.8964573,N,07038.1058699,W,1,23,0.6,0.791,M,-30.472,M,0.0,*6C
###2023-05-05 14:05:50.721814$GNGGA,180631.20,4120.8942739,N,07038.1068843,W,1,24,0.6,0.520,M,-30.472,M,0.0,*68
###2023-05-05 14:05:52.722827$GNGGA,180633.20,4120.8920508,N,07038.1079323,W,1,24,0.6,0.465,M,-30.472,M,0.0,*63
###2023-05-05 14:05:54.724382$GNGGA,180635.20,4120.8900659,N,07038.1088690,W,1,24,0.6,0.677,M,-30.472,M,0.0,*62
###2023-05-05 14:05:56.724313$GNGGA,180637.20,4120.8881979,N,07038.1098282,W,1,24,0.6,0.465,M,-30.472,M,0.0,*62
###2023-05-05 14:05:58.720755$GNGGA,180639.20,4120.8860581,N,07038.1103054,W,1,23,0.6,0.320,M,-30.473,M,0.0,*62
###2023-05-05 14:06:00.720799$GNGGA,180641.20,4120.8839772,N,07038.1102655,W,1,23,0.6,0.642,M,-30.473,M,0.0,*68
###2023-05-05 14:06:02.722740$GNGGA,180643.20,4120.8818220,N,07038.1105376,W,1,23,0.6,0.519,M,-30.473,M,0.0,*65
###2023-05-05 14:06:04.721667$GNGGA,180645.20,4120.8795112,N,07038.1109438,W,1,24,0.6,0.302,M,-30.473,M,0.0,*61
###2023-05-05 14:06:06.724338$GNGGA,180647.20,4120.8776679,N,07038.1123567,W,1,24,0.6,0.589,M,-30.473,M,0.0,*62
###2023-05-05 14:06:08.724150$GNGGA,180649.20,4120.8772038,N,07038.1148210,W,1,24,0.6,0.612,M,-30.473,M,0.0,*60
###2023-05-05 14:06:10.725083$GNGGA,180651.20,4120.8776206,N,07038.1174924,W,1,23,0.6,0.434,M,-30.473,M,0.0,*60
###2023-05-05 14:06:12.725094$GNGGA,180653.20,4120.8789635,N,07038.1195246,W,1,23,0.6,0.397,M,-30.473,M,0.0,*68
###2023-05-05 14:06:14.722521$GNGGA,180655.20,4120.8807505,N,07038.1208307,W,1,23,0.6,0.395,M,-30.473,M,0.0,*66
###2023-05-05 14:06:16.724351$GNGGA,180657.20,4120.8826599,N,07038.1219170,W,1,23,0.6,0.486,M,-30.473,M,0.0,*65
###2023-05-05 14:06:18.724421$GNGGA,180659.20,4120.8844591,N,07038.1227480,W,1,23,0.6,0.252,M,-30.473,M,0.0,*6F
###2023-05-05 14:06:20.724510$GNGGA,180701.20,4120.8860478,N,07038.1233834,W,1,23,0.6,0.262,M,-30.473,M,0.0,*66
###2023-05-05 14:06:22.722153$GNGGA,180703.20,4120.8880873,N,07038.1243379,W,1,23,0.6,0.626,M,-30.473,M,0.0,*6C
###2023-05-05 14:06:24.722798###2023-05-05 14:06:24.732807$GNGGA,180705.20,4120.8907306,N,07038.1261166,W,1,23,0.6,0.724,M,-30.473,M,0.0,*62
###2023-05-05 14:06:26.724732$GNGGA,180707.20,4120.8932127,N,07038.1278434,W,1,23,0.6,0.750,M,-30.472,M,0.0,*6F
###2023-05-05 14:06:28.722269$GNGGA,180709.20,4120.8952996,N,07038.1297638,W,1,23,0.6,0.762,M,-30.472,M,0.0,*6B
###2023-05-05 14:06:30.722075$GNGGA,180711.20,4120.8967440,N,07038.1311057,W,1,23,0.6,0.436,M,-30.472,M,0.0,*60
###2023-05-05 14:06:32.721151$GNGGA,180713.20,4120.8973733,N,07038.1327735,W,1,23,0.6,0.326,M,-30.472,M,0.0,*60
###2023-05-05 14:06:34.715479$GNGGA,180715.20,4120.8971169,N,07038.1351837,W,1,23,0.6,0.299,M,-30.472,M,0.0,*64
###2023-05-05 14:06:36.722251$GNGGA,180717.20,4120.8960142,N,07038.1370677,W,1,24,0.6,0.304,M,-30.473,M,0.0,*65
###2023-05-05 14:06:38.722099$GNGGA,180719.20,4120.8945906,N,07038.1385941,W,1,24,0.6,0.753,M,-30.473,M,0.0,*62
###2023-05-05 14:06:40.723046$GNGGA,180721.20,4120.8930594,N,07038.1397349,W,1,24,0.6,0.295,M,-30.473,M,0.0,*62
###2023-05-05 14:06:42.722380$GNGGA,180723.20,4120.8905752,N,07038.1400302,W,1,23,0.6,0.358,M,-30.473,M,0.0,*6F
###2023-05-05 14:06:44.720842$GNGGA,180725.20,4120.8881819,N,07038.1401154,W,1,23,0.6,0.667,M,-30.473,M,0.0,*6D
###2023-05-05 14:06:46.722993$GNGGA,180727.20,4120.8864438,N,07038.1406077,W,1,24,0.6,0.456,M,-30.473,M,0.0,*6B
###2023-05-05 14:06:48.724189$GNGGA,180729.20,4120.8841683,N,07038.1415188,W,1,24,0.6,0.145,M,-30.473,M,0.0,*64
###2023-05-05 14:06:50.724398$GNGGA,180731.20,4120.8819334,N,07038.1427903,W,1,24,0.6,0.444,M,-30.473,M,0.0,*67
###2023-05-05 14:06:52.725384$GNGGA,180733.20,4120.8801198,N,07038.1441067,W,1,24,0.6,0.290,M,-30.473,M,0.0,*6C
###2023-05-05 14:06:54.725499$GNGGA,180735.20,4120.8781064,N,07038.1445252,W,1,23,0.6,0.079,M,-30.473,M,0.0,*6D
###2023-05-05 14:06:56.725396$GNGGA,180737.20,4120.8760752,N,07038.1447870,W,1,23,0.6,0.450,M,-30.473,M,0.0,*65
###2023-05-05 14:06:58.720883$GNGGA,180739.20,4120.8744677,N,07038.1462431,W,1,24,0.6,0.399,M,-30.473,M,0.0,*60
###2023-05-05 14:07:00.728299$GNGGA,180741.20,4120.8732592,N,07038.1486527,W,1,24,0.6,0.443,M,-30.474,M,0.0,*6D
###2023-05-05 14:07:02.721660$GNGGA,180743.20,4120.8730325,N,07038.1508895,W,1,23,0.6,0.319,M,-30.474,M,0.0,*6B
###2023-05-05 14:07:04.722937$GNGGA,180745.20,4120.8746757,N,07038.1528800,W,1,23,0.6,0.466,M,-30.474,M,0.0,*6C
###2023-05-05 14:07:06.722645$GNGGA,180747.20,4120.8765219,N,07038.1540778,W,1,23,0.6,0.322,M,-30.474,M,0.0,*69
###2023-05-05 14:07:08.723702$GNGGA,180749.20,4120.8784680,N,07038.1554393,W,1,23,0.6,0.679,M,-30.473,M,0.0,*64
###2023-05-05 14:07:10.723637$GNGGA,180751.20,4120.8807748,N,07038.1567082,W,1,23,0.6,0.542,M,-30.473,M,0.0,*64
###2023-05-05 14:07:12.722776$GNGGA,180753.20,4120.8826290,N,07038.1574566,W,1,23,0.6,0.427,M,-30.473,M,0.0,*6A
###2023-05-05 14:07:14.722580$GNGGA,180755.20,4120.8844225,N,07038.1582046,W,1,23,0.6,0.640,M,-30.473,M,0.0,*6B
###2023-05-05 14:07:16.722344$GNGGA,180757.20,4120.8865202,N,07038.1589227,W,1,23,0.6,0.591,M,-30.473,M,0.0,*6E
###2023-05-05 14:07:18.723456$GNGGA,180759.20,4120.8884380,N,07038.1596663,W,1,23,0.6,0.552,M,-30.473,M,0.0,*61
###2023-05-05 14:07:20.724734$GNGGA,180801.20,4120.8902764,N,07038.1604581,W,1,23,0.6,0.622,M,-30.473,M,0.0,*61
###2023-05-05 14:07:22.722822$GNGGA,180803.20,4120.8921077,N,07038.1617033,W,1,23,0.6,0.600,M,-30.473,M,0.0,*69
###2023-05-05 14:07:24.724750$GNGGA,180805.20,4120.8943512,N,07038.1632116,W,1,23,0.6,0.657,M,-30.473,M,0.0,*6E
###2023-05-05 14:07:26.723372$GNGGA,180807.20,4120.8961726,N,07038.1652752,W,1,23,0.6,0.839,M,-30.473,M,0.0,*6F
