###2023-05-05 12:44:18.621498$GNGGA,164459.20,4120.8127588,N,07038.2049518,W,1,24,0.6,0.952,M,-30.477,M,0.0,*62
###2023-05-05 12:44:20.620538$GNGGA,164501.20,4120.8103427,N,07038.2049458,W,1,24,0.6,0.542,M,-30.477,M,0.0,*64
###2023-05-05 12:44:22.621548$GNGGA,164503.20,4120.8079912,N,07038.2049245,W,1,24,0.6,0.635,M,-30.477,M,0.0,*68
###2023-05-05 12:44:24.621456$GNGGA,164505.20,4120.8055988,N,07038.2047773,W,1,24,0.6,0.572,M,-30.477,M,0.0,*6D
###2023-05-05 12:44:26.621547$GNGGA,164507.20,4120.8030674,N,07038.2047181,W,1,24,0.6,0.539,M,-30.477,M,0.0,*64
###2023-05-05 12:44:28.619240$GNGGA,164509.20,4120.8005415,N,07038.2047614,W,1,24,0.6,0.717,M,-30.477,M,0.0,*6C
###2023-05-05 12:44:30.620086$GNGGA,164511.20,4120.7980707,N,07038.2047643,W,1,24,0.6,0.740,M,-30.477,M,0.0,*6E
###2023-05-05 12:44:32.618000$GNGGA,164513.20,4120.7955611,N,07038.2046659,W,1,24,0.6,0.514,M,-30.477,M,0.0,*6B
###2023-05-05 12:44:34.620137$GNGGA,164515.20,4120.7930630,N,07038.2048222,W,1,24,0.6,0.663,M,-30.477,M,0.0,*68
###2023-05-05 12:44:36.621188$GNGGA,164517.20,4120.7906582,N,07038.2048091,W,1,24,0.6,0.639,M,-30.477,M,0.0,*60
###2023-05-05 12:44:38.621130$GNGGA,164519.20,4120.7881912,N,07038.2046905,W,1,24,0.6,0.618,M,-30.478,M,0.0,*63
###2023-05-05 12:44:40.622156$GNGGA,164521.20,4120.7855659,N,07038.2046093,W,1,24,0.6,0.592,M,-30.478,M,0.0,*66
###2023-05-05 12:44:42.622152$GNGGA,164523.20,4120.7829897,N,07038.2047239,W,1,24,0.6,0.928,M,-30.478,M,0.0,*6D
###2023-05-05 12:44:44.621108$GNGGA,164525.20,4120.7805135,N,07038.2048333,W,1,24,0.6,0.823,M,-30.478,M,0.0,*6A
###2023-05-05 12:44:46.622018$GNGGA,164527.20,4120.7781067,N,07038.2048484,W,1,24,0.6,0.655,M,-30.478,M,0.0,*69
###2023-05-05 12:44:48.621972$GNGGA,164529.20,4120.7756388,N,07038.2047255,W,1,24,0.6,0.496,M,-30.478,M,0.0,*67
###2023-05-05 12:44:50.621806$GNGGA,164531.20,4120.7731488,N,07038.2046266,W,1,24,0.6,0.851,M,-30.478,M,0.0,*6E
###2023-05-05 12:44:52.621918$GNGGA,164533.20,4120.7706278,N,07038.2044967,W,1,24,0.6,0.586,M,-30.478,M,0.0,*6E
###2023-05-05 12:44:54.616269$GNGGA,164535.20,4120.7685085,N,07038.2034973,W,1,24,0.6,0.616,M,-30.478,M,0.0,*6A
###2023-05-05 12:44:56.623199$GNGGA,164537.20,4120.7670247,N,07038.2017054,W,1,24,0.6,0.846,M,-30.478,M,0.0,*68
###2023-05-05 12:44:58.618554$GNGGA,164539.20,4120.7663994,N,07038.1993307,W,1,23,0.6,0.633,M,-30.478,M,0.0,*69
###2023-05-05 12:45:00.620445$GNGGA,164541.20,4120.7668597,N,07038.1968843,W,1,23,0.6,0.401,M,-30.478,M,0.0,*6E
###2023-05-05 12:45:02.620553$GNGGA,164543.20,4120.7682646,N,07038.1950288,W,1,23,0.6,0.472,M,-30.478,M,0.0,*65
###2023-05-05 12:45:04.619437$GNGGA,164545.20,4120.7696604,N,07038.1920629,W,1,23,0.6,0.993,M,-30.478,M,0.0,*6A
###2023-05-05 12:45:06.621540$GNGGA,164547.20,4120.7715108,N,07038.1900581,W,1,23,0.6,0.750,M,-30.478,M,0.0,*6B
###2023-05-05 12:45:08.620449$GNGGA,164549.20,4120.7735442,N,07038.1897275,W,1,23,0.6,0.535,M,-30.478,M,0.0,*6E
###2023-05-05 12:45:10.615947$GNGGA,164551.20,4120.7757282,N,07038.1900880,W,1,23,0.6,0.417,M,-30.478,M,0.0,*67
###2023-05-05 12:45:12.622419$GNGGA,164553.20,4120.7779765,N,07038.1903656,W,1,23,0.6,0.394,M,-30.478,M,0.0,*6F
###2023-05-05 12:45:14.621416$GNGGA,164555.20,4120.7802054,N,07038.1905251,W,1,23,0.6,0.463,M,-30.478,M,0.0,*65
###2023-05-05 12:45:16.621395$GNGGA,164557.20,4120.7824798,N,07038.1906872,W,1,23,0.6,0.374,M,-30.478,M,0.0,*6D
###2023-05-05 12:45:18.622469$GNGGA,164559.20,4120.7847865,N,07038.1906402,W,1,23,0.6,0.652,M,-30.477,M,0.0,*6E
###2023-05-05 12:45:20.622317$GNGGA,164601.20,4120.7871033,N,07038.1907537,W,1,23,0.6,0.967,M,-30.477,M,0.0,*61
###2023-05-05 12:45:22.621725$GNGGA,164603.20,4120.7891716,N,07038.1905349,W,1,23,0.6,0.854,M,-30.477,M,0.0,*61
###2023-05-05 12:45:24.616651$GNGGA,164605.20,4120.7912312,N,07038.1906125,W,1,23,0.6,0.496,M,-30.477,M,0.0,*64
###2023-05-05 12:45:26.621115$GNGGA,164607.20,4120.7932922,N,07038.1905503,W,1,23,0.6,0.304,M,-30.477,M,0.0,*62
###2023-05-05 12:45:28.620154$GNGGA,164609.20,4120.7954110,N,07038.1905471,W,1,23,0.6,0.361,M,-30.477,M,0.0,*62
###2023-05-05 12:45:30.620875$GNGGA,164611.20,4120.7976171,N,07038.1905616,W,1,23,0.6,0.398,M,-30.477,M,0.0,*69
###2023-05-05 12:45:32.620933$GNGGA,164613.20,4120.7999016,N,07038.1904529,W,1,23,0.6,0.394,M,-30.477,M,0.0,*68
###2023-05-05 12:45:34.620001$GNGGA,164615.20,4120.8023537,N,07038.1903273,W,1,23,0.6,0.679,M,-30.477,M,0.0,*66
###2023-05-05 12:45:36.623003$GNGGA,164617.20,4120.8047430,N,07038.1904571,W,1,23,0.6,0.711,M,-30.477,M,0.0,*6D
###2023-05-05 12:45:38.622082$GNGGA,164619.20,4120.8069639,N,07038.1906152,W,1,23,0.6,0.559,M,-30.477,M,0.0,*6D
###2023-05-05 12:45:40.621804$GNGGA,164621.20,4120.8092948,N,07038.1905122,W,1,23,0.6,0.541,M,-30.477,M,0.0,*66
###2023-05-05 12:45:42.619419$GNGGA,164623.20,4120.8116806,N,07038.1904186,W,1,23,0.6,0.479,M,-30.476,M,0.0,*66
###2023-05-05 12:45:44.621995$GNGGA,164625.20,4120.8141022,N,07038.1904565,W,1,23,0.6,0.401,M,-30.476,M,0.0,*6A
###2023-05-05 12:45:46.616324$GNGGA,164627.20,4120.8165775,N,07038.1904186,W,1,23,0.6,0.304,M,-30.476,M,0.0,*60
###2023-05-05 12:45:48.622800$GNGGA,164629.20,4120.8190747,N,07038.1904318,W,1,23,0.6,0.303,M,-30.476,M,0.0,*67
###2023-05-05 12:45:50.623040$GNGGA,164631.20,4120.8216624,N,07038.1903847,W,1,23,0.6,0.314,M,-30.476,M,0.0,*67
###2023-05-05 12:45:52.621679$GNGGA,164633.20,4120.8244167,N,07038.1903505,W,1,23,0.6,0.491,M,-30.476,M,0.0,*63
###2023-05-05 12:45:54.623621$GNGGA,164635.20,4120.8271530,N,07038.1903986,W,1,23,0.6,0.614,M,-30.476,M,0.0,*6D
###2023-05-05 12:45:56.622761$GNGGA,164637.20,4120.8298184,N,07038.1905277,W,1,23,0.6,0.457,M,-30.476,M,0.0,*65
###2023-05-05 12:45:58.619841$GNGGA,164639.20,4120.8324171,N,07038.1905071,W,1,23,0.6,0.347,M,-30.476,M,0.0,*65
###2023-05-05 12:46:00.621205$GNGGA,164641.20,4120.8350591,N,07038.1903655,W,1,23,0.6,0.509,M,-30.476,M,0.0,*69
###2023-05-05 12:46:02.620219$GNGGA,164643.20,4120.8379137,N,07038.1902668,W,1,23,0.6,0.387,M,-30.475,M,0.0,*64
###2023-05-05 12:46:04.620345$GNGGA,164645.20,4120.8409096,N,07038.1904067,W,1,23,0.6,0.462,M,-30.475,M,0.0,*6B
###2023-05-05 12:46:06.622372$GNGGA,164647.20,4120.8438617,N,07038.1905875,W,1,23,0.6,0.684,M,-30.475,M,0.0,*64
###2023-05-05 12:46:08.623388$GNGGA,164649.20,4120.8467590,N,07038.1906608,W,1,23,0.6,0.610,M,-30.475,M,0.0,*66
###2023-05-05 12:46:10.622348$GNGGA,164651.20,4120.8495886,N,07038.1906513,W,1,23,0.6,0.478,M,-30.475,M,0.0,*6D
###2023-05-05 12:46:12.617730$GNGGA,164653.20,4120.8523516,N,07038.1906188,W,1,23,0.6,0.471,M,-30.475,M,0.0,*68
###2023-05-05 12:46:14.622422$GNGGA,164655.20,4120.8551430,N,07038.1904661,W,1,23,0.6,0.199,M,-30.475,M,0.0,*6F
###2023-05-05 12:46:16.622189$GNGGA,164657.20,4120.8581122,N,07038.1903030,W,1,23,0.6,0.253,M,-30.475,M,0.0,*66
###2023-05-05 12:46:18.623402$GNGGA,164659.20,4120.8612849,N,07038.1903302,W,1,23,0.6,0.242,M,-30.475,M,0.0,*67
###2023-05-05 12:46:20.622498$GNGGA,164701.20,4120.8645546,N,07038.1904363,W,1,23,0.6,0.418,M,-30.474,M,0.0,*63
###2023-05-05 12:46:22.621120$GNGGA,164703.20,4120.8677599,N,07038.1906223,W,1,23,0.6,0.327,M,-30.474,M,0.0,*6E
###2023-05-05 12:46:24.623162$GNGGA,164705.20,4120.8709011,N,07038.1907187,W,1,23,0.6,0.437,M,-30.474,M,0.0,*6F
###2023-05-05 12:46:26.624330$GNGGA,164707.20,4120.8739813,N,07038.1907672,W,1,23,0.6,0.486,M,-30.474,M,0.0,*63
###2023-05-05 12:46:28.621104$GNGGA,164709.20,4120.8769308,N,07038.1907645,W,1,23,0.6,0.519,M,-30.474,M,0.0,*6A
###2023-05-05 12:46:30.620812$GNGGA,164711.20,4120.8798481,N,07038.1905999,W,1,23,0.6,0.383,M,-30.474,M,0.0,*62
###2023-05-05 12:46:32.620603$GNGGA,164713.20,4120.8818779,N,07038.1893461,W,1,23,0.6,0.203,M,-30.474,M,0.0,*6E
###2023-05-05 12:46:34.620888$GNGGA,164715.20,4120.8825481,N,07038.1867659,W,1,23,0.6,0.204,M,-30.474,M,0.0,*67
###2023-05-05 12:46:36.623964$GNGGA,164717.20,4120.8820983,N,07038.1834767,W,1,23,0.6,0.538,M,-30.474,M,0.0,*6D
###2023-05-05 12:46:38.621965$GNGGA,164719.20,4120.8819402,N,07038.1787460,W,1,23,0.6,0.490,M,-30.474,M,0.0,*6D
###2023-05-05 12:46:40.624823$GNGGA,164721.20,4120.8809446,N,07038.1749113,W,1,23,0.6,0.234,M,-30.474,M,0.0,*6C
###2023-05-05 12:46:42.622717$GNGGA,164723.20,4120.8792238,N,07038.1732637,W,1,24,0.6,0.322,M,-30.474,M,0.0,*60
###2023-05-05 12:46:44.623752$GNGGA,164725.20,4120.8771002,N,07038.1729065,W,1,24,0.6,0.429,M,-30.474,M,0.0,*67
###2023-05-05 12:46:46.621581$GNGGA,164727.20,4120.8753223,N,07038.1743868,W,1,24,0.6,0.452,M,-30.474,M,0.0,*61
###2023-05-05 12:46:48.622636$GNGGA,164729.20,4120.8728044,N,07038.1758838,W,1,24,0.6,0.286,M,-30.474,M,0.0,*60
###2023-05-05 12:46:50.622484$GNGGA,164731.20,4120.8698816,N,07038.1764288,W,1,23,0.6,0.317,M,-30.474,M,0.0,*6C
###2023-05-05 12:46:52.622497$GNGGA,164733.20,4120.8673855,N,07038.1765232,W,1,24,0.6,0.335,M,-30.474,M,0.0,*6B
###2023-05-05 12:46:54.617965$GNGGA,164735.20,4120.8652585,N,07038.1765619,W,1,24,0.6,0.489,M,-30.474,M,0.0,*63
###2023-05-05 12:46:56.622414$GNGGA,164737.20,4120.8631529,N,07038.1766502,W,1,24,0.6,0.347,M,-30.474,M,0.0,*6D
###2023-05-05 12:46:58.620111$GNGGA,164739.20,4120.8609621,N,07038.1766856,W,1,24,0.6,0.424,M,-30.474,M,0.0,*6D
###2023-05-05 12:47:00.622042$GNGGA,164741.20,4120.8587224,N,07038.1767239,W,1,24,0.6,0.431,M,-30.475,M,0.0,*61
###2023-05-05 12:47:02.622258$GNGGA,164743.20,4120.8565186,N,07038.1766339,W,1,24,0.6,0.345,M,-30.475,M,0.0,*60
###2023-05-05 12:47:04.622239$GNGGA,164745.20,4120.8545133,N,07038.1766231,W,1,24,0.6,0.583,M,-30.475,M,0.0,*6F
###2023-05-05 12:47:06.623458$GNGGA,164747.20,4120.8524763,N,07038.1764995,W,1,24,0.6,0.211,M,-30.475,M,0.0,*62
###2023-05-05 12:47:08.623353$GNGGA,164749.20,4120.8503187,N,07038.1764189,W,1,24,0.6,0.167,M,-30.475,M,0.0,*62
###2023-05-05 12:47:10.623364$GNGGA,164751.20,4120.8481069,N,07038.1762670,W,1,24,0.6,0.059,M,-30.475,M,0.0,*6A
###2023-05-05 12:47:12.619528$GNGGA,164753.20,4120.8459985,N,07038.1763132,W,1,24,0.6,0.514,M,-30.475,M,0.0,*6A
###2023-05-05 12:47:14.622838$GNGGA,164755.20,4120.8438104,N,07038.1762284,W,1,24,0.6,0.157,M,-30.475,M,0.0,*66
###2023-05-05 12:47:16.623321$GNGGA,164757.20,4120.8415401,N,07038.1763396,W,1,24,0.6,0.254,M,-30.475,M,0.0,*68
###2023-05-05 12:47:18.625022$GNGGA,164759.20,4120.8394022,N,07038.1763920,W,1,24,0.6,0.325,M,-30.475,M,0.0,*6D
###2023-05-05 12:47:20.623903$GNGGA,164801.20,4120.8372732,N,07038.1762801,W,1,24,0.6,0.238,M,-30.475,M,0.0,*6F
###2023-05-05 12:47:22.624022$GNGGA,164803.20,4120.8350181,N,07038.1762223,W,1,24,0.6,0.350,M,-30.475,M,0.0,*66
###2023-05-05 12:47:24.623902$GNGGA,164805.20,4120.8327480,N,07038.1761555,W,1,24,0.6,0.042,M,-30.475,M,0.0,*61
###2023-05-05 12:47:26.618415$GNGGA,164807.20,4120.8304816,N,07038.1763389,W,1,24,0.6,0.711,M,-30.476,M,0.0,*66
###2023-05-05 12:47:28.620442$GNGGA,164809.20,4120.8282134,N,07038.1761996,W,1,24,0.6,0.158,M,-30.476,M,0.0,*63
###2023-05-05 12:47:30.623519$GNGGA,164811.20,4120.8258859,N,07038.1760444,W,1,24,0.6,0.164,M,-30.476,M,0.0,*63
###2023-05-05 12:47:32.621522$GNGGA,164813.20,4120.8233944,N,07038.1760157,W,1,24,0.6,0.237,M,-30.476,M,0.0,*63
###2023-05-05 12:47:34.621348$GNGGA,164815.20,4120.8210115,N,07038.1762641,W,1,24,0.6,0.516,M,-30.476,M,0.0,*6E
###2023-05-05 12:47:36.624345$GNGGA,164817.20,4120.8186374,N,07038.1761920,W,1,23,0.6,0.281,M,-30.476,M,0.0,*60
