###2023-05-05 13:30:58.676772$GNGGA,173139.20,4120.8080748,N,07038.3821028,W,1,24,0.6,-0.324,M,-30.479,M,0.0,*4C
###2023-05-05 13:31:00.678652$GNGGA,173141.20,4120.8081805,N,07038.3791351,W,1,24,0.6,-0.092,M,-30.479,M,0.0,*43
###2023-05-05 13:31:02.671143$GNGGA,173143.20,4120.8080842,N,07038.3763039,W,1,24,0.6,-0.181,M,-30.479,M,0.0,*40
###2023-05-05 13:31:04.680691$GNGGA,173145.20,4120.8079375,N,07038.3734742,W,1,24,0.6,-0.391,M,-30.479,M,0.0,*45
###2023-05-05 13:31:06.681845$GNGGA,173147.20,4120.8079707,N,07038.3706002,W,1,24,0.6,-0.252,M,-30.479,M,0.0,*4A
###2023-05-05 13:31:08.682303$GNGGA,173149.20,4120.8080488,N,07038.3677835,W,1,24,0.6,-0.073,M,-30.479,M,0.0,*4C
###2023-05-05 13:31:10.681264$GNGGA,173151.20,4120.8079136,N,07038.3649278,W,1,24,0.6,-0.187,M,-30.479,M,0.0,*47
###2023-05-05 13:31:12.680693$GNGGA,173153.20,4120.8079504,N,07038.3619877,W,1,24,0.6,-0.433,M,-30.479,M,0.0,*4A
###2023-05-05 13:31:14.680650$GNGGA,173155.20,4120.8079296,N,07038.3590723,W,1,24,0.6,-0.481,M,-30.479,M,0.0,*45
###2023-05-05 13:31:16.681613$GNGGA,173157.20,4120.8081235,N,07038.3561782,W,1,24,0.6,-0.263,M,-30.479,M,0.0,*46
###2023-05-05 13:31:18.681672$GNGGA,173159.20,4120.8079230,N,07038.3532896,W,1,24,0.6,-0.381,M,-30.479,M,0.0,*4B
###2023-05-05 13:31:20.678649$GNGGA,173201.20,4120.8079461,N,07038.3503706,W,1,24,0.6,-0.422,M,-30.479,M,0.0,*4D
###2023-05-05 13:31:22.681721$GNGGA,173203.20,4120.8079841,N,07038.3474735,W,1,24,0.6,-0.312,M,-30.479,M,0.0,*44
###2023-05-05 13:31:24.681371$GNGGA,173205.20,4120.8078636,N,07038.3445506,W,1,24,0.6,-0.494,M,-30.479,M,0.0,*44
###2023-05-05 13:31:26.679360$GNGGA,173207.20,4120.8078726,N,07038.3416030,W,1,24,0.6,-0.465,M,-30.479,M,0.0,*4E
###2023-05-05 13:31:28.678275$GNGGA,173209.20,4120.8079879,N,07038.3387745,W,1,24,0.6,-0.121,M,-30.479,M,0.0,*4B
###2023-05-05 13:31:30.679285$GNGGA,173211.20,4120.8079567,N,07038.3358540,W,1,24,0.6,-0.336,M,-30.479,M,0.0,*41
###2023-05-05 13:31:32.678160$GNGGA,173213.20,4120.8080621,N,07038.3329463,W,1,24,0.6,-0.282,M,-30.479,M,0.0,*4C
###2023-05-05 13:31:34.679215$GNGGA,173215.20,4120.8079978,N,07038.3301097,W,1,24,0.6,-0.341,M,-30.479,M,0.0,*44
###2023-05-05 13:31:36.679503$GNGGA,173217.20,4120.8080334,N,07038.3272201,W,1,24,0.6,-0.097,M,-30.479,M,0.0,*42
###2023-05-05 13:31:38.678085$GNGGA,173219.20,4120.8081072,N,07038.3243511,W,1,24,0.6,-0.012,M,-30.479,M,0.0,*45
###2023-05-05 13:31:40.679013$GNGGA,173221.20,4120.8080320,N,07038.3214595,W,1,24,0.6,-0.184,M,-30.479,M,0.0,*4B
###2023-05-05 13:31:42.684737$GNGGA,173223.20,4120.8079837,N,07038.3185672,W,1,24,0.6,-0.256,M,-30.479,M,0.0,*4F
###2023-05-05 13:31:44.681243$GNGGA,173225.20,4120.8080401,N,07038.3156467,W,1,24,0.6,-0.232,M,-30.478,M,0.0,*4D
###2023-05-05 13:31:46.681946$GNGGA,173227.20,4120.8081392,N,07038.3127988,W,1,24,0.6,0.083,M,-30.478,M,0.0,*6C
###2023-05-05 13:31:48.682819$GNGGA,173229.20,4120.8079223,N,07038.3099445,W,1,24,0.6,0.041,M,-30.478,M,0.0,*68
###2023-05-05 13:31:50.684782$GNGGA,173231.20,4120.8079267,N,07038.3070385,W,1,24,0.6,-0.338,M,-30.478,M,0.0,*4D
###2023-05-05 13:31:52.682603$GNGGA,173233.20,4120.8079716,N,07038.3039612,W,1,24,0.6,-0.506,M,-30.478,M,0.0,*41
###2023-05-05 13:31:54.685893$GNGGA,173235.20,4120.8081639,N,07038.3010449,W,1,24,0.6,-0.115,M,-30.478,M,0.0,*4D
###2023-05-05 13:31:56.682483$GNGGA,173237.20,4120.8080197,N,07038.2981895,W,1,24,0.6,-0.277,M,-30.478,M,0.0,*47
###2023-05-05 13:31:58.679771$GNGGA,173239.20,4120.8079088,N,07038.2951856,W,1,24,0.6,-0.170,M,-30.478,M,0.0,*46
###2023-05-05 13:32:00.682604$GNGGA,173241.20,4120.8081366,N,07038.2922966,W,1,24,0.6,0.045,M,-30.478,M,0.0,*61
###2023-05-05 13:32:02.677091$GNGGA,173243.20,4120.8081504,N,07038.2894441,W,1,24,0.6,-0.149,M,-30.478,M,0.0,*45
###2023-05-05 13:32:04.681703$GNGGA,173245.20,4120.8080979,N,07038.2865174,W,1,24,0.6,-0.303,M,-30.478,M,0.0,*45
###2023-05-05 13:32:06.685228$GNGGA,173247.20,4120.8080644,N,07038.2835919,W,1,24,0.6,-0.308,M,-30.478,M,0.0,*4B
###2023-05-05 13:32:08.683664$GNGGA,173249.20,4120.8082269,N,07038.2806080,W,1,24,0.6,-0.138,M,-30.478,M,0.0,*44
###2023-05-05 13:32:10.682488$GNGGA,173251.20,4120.8081895,N,07038.2776136,W,1,24,0.6,0.143,M,-30.478,M,0.0,*62
###2023-05-05 13:32:12.683632$GNGGA,173253.20,4120.8074261,N,07038.2747798,W,1,24,0.6,-0.299,M,-30.478,M,0.0,*42
###2023-05-05 13:32:14.682422$GNGGA,173255.20,4120.8073888,N,07038.2718629,W,1,24,0.6,-0.452,M,-30.478,M,0.0,*4E
###2023-05-05 13:32:16.684990$GNGGA,173257.20,4120.8082962,N,07038.2691719,W,1,24,0.6,0.144,M,-30.478,M,0.0,*6A
###2023-05-05 13:32:18.683611$GNGGA,173259.20,4120.8074020,N,07038.2666709,W,1,24,0.6,-0.395,M,-30.478,M,0.0,*48
###2023-05-05 13:32:20.683090$GNGGA,173301.20,4120.8065388,N,07038.2638434,W,1,24,0.6,-0.419,M,-30.478,M,0.0,*40
###2023-05-05 13:32:22.685016$GNGGA,173303.20,4120.8072749,N,07038.2611034,W,1,24,0.6,-0.009,M,-30.478,M,0.0,*47
###2023-05-05 13:32:24.684819$GNGGA,173305.20,4120.8076049,N,07038.2583102,W,1,24,0.6,0.059,M,-30.478,M,0.0,*66
###2023-05-05 13:32:26.683895$GNGGA,173307.20,4120.8073358,N,07038.2554074,W,1,24,0.6,-0.358,M,-30.478,M,0.0,*47
###2023-05-05 13:32:28.676571$GNGGA,173309.20,4120.8077729,N,07038.2525534,W,1,24,0.6,-0.526,M,-30.478,M,0.0,*47
###2023-05-05 13:32:30.683803$GNGGA,173311.20,4120.8079688,N,07038.2496645,W,1,24,0.6,-0.348,M,-30.477,M,0.0,*47
###2023-05-05 13:32:32.682223$GNGGA,173313.20,4120.8081322,N,07038.2467497,W,1,24,0.6,-0.136,M,-30.477,M,0.0,*4F
###2023-05-05 13:32:34.681045$GNGGA,173315.20,4120.8080934,N,07038.2438316,W,1,24,0.6,-0.298,M,-30.477,M,0.0,*46
###2023-05-05 13:32:36.683324$GNGGA,173317.20,4120.8078493,N,07038.2409554,W,1,24,0.6,-0.253,M,-30.477,M,0.0,*46
###2023-05-05 13:32:38.684909$GNGGA,173319.20,4120.8081988,N,07038.2379375,W,1,24,0.6,-0.343,M,-30.477,M,0.0,*4C
###2023-05-05 13:32:40.683173$GNGGA,173321.20,4120.8081681,N,07038.2350622,W,1,24,0.6,-0.462,M,-30.477,M,0.0,*49
###2023-05-05 13:32:42.686543$GNGGA,173323.20,4120.8081252,N,07038.2322321,W,1,24,0.6,0.014,M,-30.477,M,0.0,*6A
###2023-05-05 13:32:44.684598$GNGGA,173325.20,4120.8080893,N,07038.2293181,W,1,24,0.6,-0.155,M,-30.477,M,0.0,*40
###2023-05-05 13:32:46.683589$GNGGA,173327.20,4120.8081535,N,07038.2264610,W,1,24,0.6,-0.302,M,-30.477,M,0.0,*45
###2023-05-05 13:32:48.680051$GNGGA,173329.20,4120.8080052,N,07038.2236846,W,1,24,0.6,-0.339,M,-30.477,M,0.0,*4C
###2023-05-05 13:32:50.683673$GNGGA,173331.20,4120.8080989,N,07038.2208315,W,1,24,0.6,-0.104,M,-30.477,M,0.0,*46
###2023-05-05 13:32:52.684464$GNGGA,173333.20,4120.8080551,N,07038.2179408,W,1,24,0.6,-0.097,M,-30.477,M,0.0,*48
###2023-05-05 13:32:54.686316$GNGGA,173335.20,4120.8081940,N,07038.2149951,W,1,24,0.6,0.015,M,-30.477,M,0.0,*66
###2023-05-05 13:32:56.684783$GNGGA,173337.20,4120.8081388,N,07038.2120734,W,1,24,0.6,-0.138,M,-30.477,M,0.0,*4B
###2023-05-05 13:32:58.683950$GNGGA,173339.20,4120.8080217,N,07038.2091580,W,1,24,0.6,-0.254,M,-30.477,M,0.0,*4C
###2023-05-05 13:33:00.683842$GNGGA,173341.20,4120.8080025,N,07038.2061412,W,1,24,0.6,-0.331,M,-30.477,M,0.0,*47
###2023-05-05 13:33:02.683551$GNGGA,173343.20,4120.8086632,N,07038.2033718,W,1,24,0.6,0.722,M,-30.477,M,0.0,*66
###2023-05-05 13:33:04.684236$GNGGA,173345.20,4120.8086410,N,07038.2006403,W,1,24,0.6,-0.037,M,-30.477,M,0.0,*43
###2023-05-05 13:33:06.686297$GNGGA,173347.20,4120.8081427,N,07038.1978283,W,1,24,0.6,-0.341,M,-30.477,M,0.0,*4D
###2023-05-05 13:33:08.684227$GNGGA,173349.20,4120.8081170,N,07038.1949419,W,1,24,0.6,-0.310,M,-30.477,M,0.0,*47
###2023-05-05 13:33:10.686042$GNGGA,173351.20,4120.8083333,N,07038.1920969,W,1,24,0.6,0.154,M,-30.477,M,0.0,*63
###2023-05-05 13:33:12.686742$GNGGA,173353.20,4120.8078170,N,07038.1891548,W,1,24,0.6,-0.009,M,-30.477,M,0.0,*40
###2023-05-05 13:33:14.685095$GNGGA,173355.20,4120.8079236,N,07038.1861843,W,1,24,0.6,-0.155,M,-30.477,M,0.0,*47
###2023-05-05 13:33:16.685029$GNGGA,173357.20,4120.8080600,N,07038.1833003,W,1,24,0.6,-0.192,M,-30.477,M,0.0,*42
###2023-05-05 13:33:18.686093$GNGGA,173359.20,4120.8079678,N,07038.1804280,W,1,24,0.6,-0.170,M,-30.476,M,0.0,*45
###2023-05-05 13:33:20.684967$GNGGA,173401.20,4120.8079879,N,07038.1775868,W,1,24,0.6,-0.132,M,-30.476,M,0.0,*43
###2023-05-05 13:33:22.685919$GNGGA,173403.20,4120.8080092,N,07038.1747260,W,1,24,0.6,-0.093,M,-30.476,M,0.0,*43
###2023-05-05 13:33:24.685887$GNGGA,173405.20,4120.8079549,N,07038.1718692,W,1,24,0.6,-0.188,M,-30.476,M,0.0,*48
###2023-05-05 13:33:26.683742$GNGGA,173407.20,4120.8079584,N,07038.1689946,W,1,24,0.6,-0.168,M,-30.476,M,0.0,*4A
###2023-05-05 13:33:28.682168$GNGGA,173409.20,4120.8080764,N,07038.1662065,W,1,24,0.6,0.017,M,-30.476,M,0.0,*67
###2023-05-05 13:33:30.685158$GNGGA,173411.20,4120.8079569,N,07038.1633416,W,1,24,0.6,-0.135,M,-30.476,M,0.0,*4F
###2023-05-05 13:33:32.682151$GNGGA,173413.20,4120.8079691,N,07038.1604564,W,1,24,0.6,-0.135,M,-30.476,M,0.0,*49
###2023-05-05 13:33:34.682987$GNGGA,173415.20,4120.8080536,N,07038.1575951,W,1,24,0.6,0.140,M,-30.476,M,0.0,*67
###2023-05-05 13:33:36.685785$GNGGA,173417.20,4120.8078003,N,07038.1545863,W,1,24,0.6,-0.059,M,-30.476,M,0.0,*46
###2023-05-05 13:33:38.685007$GNGGA,173419.20,4120.8078979,N,07038.1516966,W,1,24,0.6,0.044,M,-30.476,M,0.0,*6F
###2023-05-05 13:33:40.686535$GNGGA,173421.20,4120.8080270,N,07038.1488213,W,1,24,0.6,0.059,M,-30.476,M,0.0,*62
###2023-05-05 13:33:42.685686$GNGGA,173423.20,4120.8079308,N,07038.1460472,W,1,24,0.6,0.027,M,-30.476,M,0.0,*66
###2023-05-05 13:33:44.685454$GNGGA,173425.20,4120.8079654,N,07038.1431151,W,1,24,0.6,0.002,M,-30.476,M,0.0,*6B
###2023-05-05 13:33:46.685350$GNGGA,173427.20,4120.8080981,N,07038.1402752,W,1,24,0.6,0.126,M,-30.476,M,0.0,*6A
###2023-05-05 13:33:48.685907$GNGGA,173429.20,4120.8080164,N,07038.1373961,W,1,24,0.6,0.268,M,-30.476,M,0.0,*61
###2023-05-05 13:33:50.679189$GNGGA,173431.20,4120.8079861,N,07038.1344202,W,1,24,0.6,0.095,M,-30.476,M,0.0,*68
###2023-05-05 13:33:52.684921$GNGGA,173433.20,4120.8080680,N,07038.1314597,W,1,24,0.6,-0.043,M,-30.476,M,0.0,*45
###2023-05-05 13:33:54.684806$GNGGA,173435.20,4120.8081609,N,07038.1285319,W,1,24,0.6,0.034,M,-30.476,M,0.0,*67
###2023-05-05 13:33:56.681624$GNGGA,173437.20,4120.8088432,N,07038.1256147,W,1,24,0.6,0.136,M,-30.476,M,0.0,*62
###2023-05-05 13:33:58.680495$GNGGA,173439.20,4120.8077167,N,07038.1230903,W,1,24,0.6,0.022,M,-30.476,M,0.0,*65
###2023-05-05 13:34:00.683734$GNGGA,173441.20,4120.8070025,N,07038.1202610,W,1,24,0.6,-0.120,M,-30.476,M,0.0,*48
###2023-05-05 13:34:02.681529$GNGGA,173443.20,4120.8071991,N,07038.1174731,W,1,24,0.6,-0.102,M,-30.476,M,0.0,*4D
###2023-05-05 13:34:04.684512$GNGGA,173445.20,4120.8084049,N,07038.1149672,W,1,24,0.6,0.300,M,-30.475,M,0.0,*6B
###2023-05-05 13:34:06.686228$GNGGA,173447.20,4120.8080904,N,07038.1120225,W,1,24,0.6,-0.016,M,-30.475,M,0.0,*4D
###2023-05-05 13:34:08.686967$GNGGA,173449.20,4120.8079029,N,07038.1090450,W,1,24,0.6,-0.005,M,-30.475,M,0.0,*4F
###2023-05-05 13:34:10.689121$GNGGA,173451.20,4120.8081036,N,07038.1061930,W,1,24,0.6,0.095,M,-30.475,M,0.0,*6E
###2023-05-05 13:34:12.686070$GNGGA,173453.20,4120.8080668,N,07038.1032540,W,1,24,0.6,-0.241,M,-30.475,M,0.0,*4B
###2023-05-05 13:34:14.686553$GNGGA,173455.20,4120.8079702,N,07038.1002941,W,1,24,0.6,-0.421,M,-30.475,M,0.0,*48
###2023-05-05 13:34:16.686019$GNGGA,173457.20,4120.8081733,N,07038.0974880,W,1,24,0.6,-0.013,M,-30.475,M,0.0,*4F
