###2023-05-05 13:44:14.689739$GNGGA,174455.20,4120.8298012,N,07038.0879538,W,1,23,0.6,-0.268,M,-30.474,M,0.0,*4E
###2023-05-05 13:44:16.689761$GNGGA,174457.20,4120.8299193,N,07038.0849506,W,1,23,0.6,-0.072,M,-30.474,M,0.0,*42
###2023-05-05 13:44:18.690866$GNGGA,174459.20,4120.8301410,N,07038.0820189,W,1,23,0.6,0.234,M,-30.474,M,0.0,*63
###2023-05-05 13:44:20.691558$GNGGA,174501.20,4120.8288045,N,07038.0797220,W,1,23,0.6,-0.130,M,-30.474,M,0.0,*42
###2023-05-05 13:44:22.690004$GNGGA,174503.20,4120.8283368,N,07038.0769238,W,1,23,0.6,-0.373,M,-30.474,M,0.0,*4A
###2023-05-05 13:44:24.689905$GNGGA,174505.20,4120.8289885,N,07038.0740916,W,1,23,0.6,-0.375,M,-30.474,M,0.0,*44
###2023-05-05 13:44:26.689545$GNGGA,174507.20,4120.8293582,N,07038.0711851,W,1,23,0.6,-0.215,M,-30.474,M,0.0,*46
###2023-05-05 13:44:28.687881$GNGGA,174509.20,4120.8295184,N,07038.0683687,W,1,23,0.6,-0.198,M,-30.474,M,0.0,*45
###2023-05-05 13:44:30.689669$GNGGA,174511.20,4120.8296605,N,07038.0656105,W,1,23,0.6,0.046,M,-30.474,M,0.0,*6B
###2023-05-05 13:44:32.688526$GNGGA,174513.20,4120.8295933,N,07038.0628740,W,1,23,0.6,-0.318,M,-30.474,M,0.0,*4B
###2023-05-05 13:44:34.691381$GNGGA,174515.20,4120.8296469,N,07038.0599916,W,1,23,0.6,-0.319,M,-30.474,M,0.0,*49
###2023-05-05 13:44:36.692799$GNGGA,174517.20,4120.8297289,N,07038.0570297,W,1,23,0.6,-0.274,M,-30.474,M,0.0,*4D
###2023-05-05 13:44:38.685998$GNGGA,174519.20,4120.8298611,N,07038.0541332,W,1,23,0.6,-0.103,M,-30.474,M,0.0,*46
###2023-05-05 13:44:40.691689$GNGGA,174521.20,4120.8297639,N,07038.0513662,W,1,23,0.6,-0.192,M,-30.474,M,0.0,*47
###2023-05-05 13:44:42.691534$GNGGA,174523.20,4120.8298924,N,07038.0483784,W,1,23,0.6,-0.281,M,-30.474,M,0.0,*49
###2023-05-05 13:44:44.690244$GNGGA,174525.20,4120.8297879,N,07038.0454142,W,1,23,0.6,-0.202,M,-30.474,M,0.0,*44
###2023-05-05 13:44:46.691449$GNGGA,174527.20,4120.8297577,N,07038.0425255,W,1,23,0.6,-0.280,M,-30.474,M,0.0,*4C
###2023-05-05 13:44:48.692741$GNGGA,174529.20,4120.8296720,N,07038.0396131,W,1,23,0.6,-0.218,M,-30.474,M,0.0,*4C
###2023-05-05 13:44:50.688695$GNGGA,174531.20,4120.8298296,N,07038.0367715,W,1,23,0.6,-0.102,M,-30.474,M,0.0,*45
###2023-05-05 13:44:52.691126$GNGGA,174533.20,4120.8297272,N,07038.0338649,W,1,23,0.6,-0.140,M,-30.473,M,0.0,*41
###2023-05-05 13:44:54.692403$GNGGA,174535.20,4120.8298110,N,07038.0309030,W,1,23,0.6,-0.208,M,-30.473,M,0.0,*4A
###2023-05-05 13:44:56.693864$GNGGA,174537.20,4120.8298597,N,07038.0279458,W,1,23,0.6,-0.175,M,-30.473,M,0.0,*46
###2023-05-05 13:44:58.689420$GNGGA,174539.20,4120.8299763,N,07038.0250578,W,1,23,0.6,-0.120,M,-30.473,M,0.0,*48
###2023-05-05 13:45:00.691044$GNGGA,174541.20,4120.8296782,N,07038.0222820,W,1,23,0.6,-0.212,M,-30.473,M,0.0,*40
###2023-05-05 13:45:02.683772$GNGGA,174543.20,4120.8302363,N,07038.0195491,W,1,23,0.6,-0.340,M,-30.473,M,0.0,*4A
###2023-05-05 13:45:04.690885$GNGGA,174545.20,4120.8319789,N,07038.0177506,W,1,23,0.6,-0.241,M,-30.473,M,0.0,*45
###2023-05-05 13:45:06.686532$GNGGA,174547.20,4120.8344154,N,07038.0177485,W,1,23,0.6,-0.176,M,-30.473,M,0.0,*44
###2023-05-05 13:45:08.691143$GNGGA,174549.20,4120.8369503,N,07038.0182990,W,1,23,0.6,-0.057,M,-30.473,M,0.0,*42
###2023-05-05 13:45:10.694563$GNGGA,174551.20,4120.8388724,N,07038.0187436,W,1,23,0.6,-0.439,M,-30.473,M,0.0,*4B
###2023-05-05 13:45:12.696578$GNGGA,174553.20,4120.8403200,N,07038.0209139,W,1,23,0.6,-0.406,M,-30.473,M,0.0,*4D
###2023-05-05 13:45:14.693161$GNGGA,174555.20,4120.8406230,N,07038.0240125,W,1,23,0.6,-0.429,M,-30.473,M,0.0,*40
###2023-05-05 13:45:16.694033$GNGGA,174557.20,4120.8407014,N,07038.0268187,W,1,23,0.6,-0.595,M,-30.473,M,0.0,*43
###2023-05-05 13:45:18.692919$GNGGA,174559.20,4120.8407655,N,07038.0295528,W,1,23,0.6,-0.385,M,-30.473,M,0.0,*4A
###2023-05-05 13:45:20.692072$GNGGA,174601.20,4120.8407070,N,07038.0325322,W,1,23,0.6,-0.289,M,-30.473,M,0.0,*4E
###2023-05-05 13:45:22.692933$GNGGA,174603.20,4120.8404828,N,07038.0354501,W,1,23,0.6,-0.463,M,-30.473,M,0.0,*49
###2023-05-05 13:45:24.691778$GNGGA,174605.20,4120.8408291,N,07038.0382291,W,1,23,0.6,-0.464,M,-30.473,M,0.0,*49
###2023-05-05 13:45:26.690826$GNGGA,174607.20,4120.8403675,N,07038.0410710,W,1,23,0.6,-0.305,M,-30.473,M,0.0,*4E
###2023-05-05 13:45:28.693471$GNGGA,174609.20,4120.8405948,N,07038.0437157,W,1,23,0.6,-0.375,M,-30.473,M,0.0,*40
###2023-05-05 13:45:30.690800$GNGGA,174611.20,4120.8407881,N,07038.0464783,W,1,23,0.6,-0.328,M,-30.473,M,0.0,*4E
###2023-05-05 13:45:32.690323$GNGGA,174613.20,4120.8408531,N,07038.0494952,W,1,23,0.6,-0.073,M,-30.473,M,0.0,*45
###2023-05-05 13:45:34.690458$GNGGA,174615.20,4120.8407017,N,07038.0523790,W,1,23,0.6,-0.226,M,-30.473,M,0.0,*42
###2023-05-05 13:45:36.692807$GNGGA,174617.20,4120.8407943,N,07038.0551017,W,1,23,0.6,-0.019,M,-30.473,M,0.0,*4B
###2023-05-05 13:45:38.693485$GNGGA,174619.20,4120.8406513,N,07038.0581112,W,1,23,0.6,0.060,M,-30.473,M,0.0,*67
###2023-05-05 13:45:40.695614$GNGGA,174621.20,4120.8406320,N,07038.0608755,W,1,23,0.6,-0.043,M,-30.473,M,0.0,*41
###2023-05-05 13:45:42.694560$GNGGA,174623.20,4120.8407875,N,07038.0636075,W,1,23,0.6,-0.166,M,-30.474,M,0.0,*40
###2023-05-05 13:45:44.692508$GNGGA,174625.20,4120.8407298,N,07038.0664587,W,1,23,0.6,-0.339,M,-30.474,M,0.0,*48
###2023-05-05 13:45:46.693452$GNGGA,174627.20,4120.8408025,N,07038.0692878,W,1,23,0.6,-0.313,M,-30.474,M,0.0,*4D
###2023-05-05 13:45:48.693295$GNGGA,174629.20,4120.8410791,N,07038.0722663,W,1,23,0.6,0.447,M,-30.474,M,0.0,*67
###2023-05-05 13:45:50.692402$GNGGA,174631.20,4120.8402820,N,07038.0753611,W,1,23,0.6,-0.227,M,-30.474,M,0.0,*46
###2023-05-05 13:45:52.693202$GNGGA,174633.20,4120.8394888,N,07038.0781953,W,1,23,0.6,0.004,M,-30.474,M,0.0,*66
###2023-05-05 13:45:54.693238$GNGGA,174635.20,4120.8397526,N,07038.0808203,W,1,23,0.6,-0.267,M,-30.474,M,0.0,*40
###2023-05-05 13:45:56.692124$GNGGA,174637.20,4120.8406735,N,07038.0832488,W,1,23,0.6,0.083,M,-30.474,M,0.0,*64
###2023-05-05 13:45:58.692075$GNGGA,174639.20,4120.8410268,N,07038.0862313,W,1,23,0.6,-0.123,M,-30.474,M,0.0,*46
###2023-05-05 13:46:00.691897$GNGGA,174641.20,4120.8402861,N,07038.0891719,W,1,23,0.6,-0.410,M,-30.474,M,0.0,*4E
###2023-05-05 13:46:02.689859$GNGGA,174643.20,4120.8405268,N,07038.0919980,W,1,23,0.6,-0.276,M,-30.474,M,0.0,*41
###2023-05-05 13:46:04.692849$GNGGA,174645.20,4120.8407283,N,07038.0948701,W,1,23,0.6,-0.185,M,-30.474,M,0.0,*4C
###2023-05-05 13:46:06.694011$GNGGA,174647.20,4120.8410787,N,07038.0979169,W,1,23,0.6,0.313,M,-30.474,M,0.0,*63
###2023-05-05 13:46:08.693127$GNGGA,174649.20,4120.8403941,N,07038.1008083,W,1,23,0.6,-0.376,M,-30.474,M,0.0,*4E
###2023-05-05 13:46:10.688376$GNGGA,174651.20,4120.8396743,N,07038.1035529,W,1,23,0.6,-0.223,M,-30.474,M,0.0,*4A
###2023-05-05 13:46:12.693930$GNGGA,174653.20,4120.8404452,N,07038.1060483,W,1,23,0.6,-0.213,M,-30.474,M,0.0,*45
###2023-05-05 13:46:14.693036$GNGGA,174655.20,4120.8405290,N,07038.1087716,W,1,23,0.6,-0.494,M,-30.474,M,0.0,*45
###2023-05-05 13:46:16.692840$GNGGA,174657.20,4120.8408835,N,07038.1117463,W,1,23,0.6,0.114,M,-30.474,M,0.0,*66
###2023-05-05 13:46:18.694945$GNGGA,174659.20,4120.8406508,N,07038.1146413,W,1,23,0.6,-0.220,M,-30.474,M,0.0,*4F
###2023-05-05 13:46:20.691886$GNGGA,174701.20,4120.8406851,N,07038.1175696,W,1,23,0.6,-0.332,M,-30.474,M,0.0,*4F
###2023-05-05 13:46:22.695013$GNGGA,174703.20,4120.8407890,N,07038.1205798,W,1,23,0.6,-0.165,M,-30.474,M,0.0,*4A
###2023-05-05 13:46:24.694784$GNGGA,174705.20,4120.8407235,N,07038.1233336,W,1,23,0.6,-0.315,M,-30.474,M,0.0,*49
###2023-05-05 13:46:26.693653$GNGGA,174707.20,4120.8409373,N,07038.1263194,W,1,23,0.6,0.028,M,-30.474,M,0.0,*69
###2023-05-05 13:46:28.691523$GNGGA,174709.20,4120.8405083,N,07038.1292697,W,1,23,0.6,-0.182,M,-30.474,M,0.0,*41
###2023-05-05 13:46:30.694456$GNGGA,174711.20,4120.8405642,N,07038.1320056,W,1,23,0.6,-0.178,M,-30.475,M,0.0,*44
###2023-05-05 13:46:32.692002$GNGGA,174713.20,4120.8407569,N,07038.1347391,W,1,23,0.6,-0.154,M,-30.475,M,0.0,*49
###2023-05-05 13:46:34.692391$GNGGA,174715.20,4120.8407752,N,07038.1375433,W,1,23,0.6,-0.002,M,-30.475,M,0.0,*49
###2023-05-05 13:46:36.694594$GNGGA,174717.20,4120.8409380,N,07038.1405367,W,1,23,0.6,-0.013,M,-30.475,M,0.0,*48
###2023-05-05 13:46:38.692494$GNGGA,174719.20,4120.8407096,N,07038.1434119,W,1,23,0.6,-0.200,M,-30.475,M,0.0,*45
###2023-05-05 13:46:40.694539$GNGGA,174721.20,4120.8408467,N,07038.1462911,W,1,23,0.6,-0.053,M,-30.475,M,0.0,*4C
###2023-05-05 13:46:42.696499$GNGGA,174723.20,4120.8408022,N,07038.1491128,W,1,23,0.6,-0.066,M,-30.475,M,0.0,*43
###2023-05-05 13:46:44.693543$GNGGA,174725.20,4120.8408127,N,07038.1519845,W,1,23,0.6,-0.134,M,-30.475,M,0.0,*44
###2023-05-05 13:46:46.695458$GNGGA,174727.20,4120.8408069,N,07038.1548345,W,1,23,0.6,-0.165,M,-30.475,M,0.0,*46
###2023-05-05 13:46:48.695394$GNGGA,174729.20,4120.8408843,N,07038.1575310,W,1,23,0.6,-0.099,M,-30.475,M,0.0,*44
###2023-05-05 13:46:50.694221$GNGGA,174731.20,4120.8409995,N,07038.1603855,W,1,23,0.6,0.042,M,-30.475,M,0.0,*65
###2023-05-05 13:46:52.693139$GNGGA,174733.20,4120.8409509,N,07038.1634072,W,1,23,0.6,0.031,M,-30.475,M,0.0,*63
###2023-05-05 13:46:54.695478$GNGGA,174735.20,4120.8409426,N,07038.1664357,W,1,23,0.6,-0.099,M,-30.475,M,0.0,*47
###2023-05-05 13:46:56.693331$GNGGA,174737.20,4120.8409948,N,07038.1693181,W,1,23,0.6,-0.113,M,-30.475,M,0.0,*42
###2023-05-05 13:46:58.693245$GNGGA,174739.20,4120.8409137,N,07038.1722354,W,1,23,0.6,-0.179,M,-30.475,M,0.0,*41
###2023-05-05 13:47:00.694015$GNGGA,174741.20,4120.8407817,N,07038.1751092,W,1,23,0.6,-0.185,M,-30.475,M,0.0,*45
###2023-05-05 13:47:02.692856$GNGGA,174743.20,4120.8408051,N,07038.1778572,W,1,23,0.6,-0.145,M,-30.475,M,0.0,*4E
###2023-05-05 13:47:04.692864$GNGGA,174745.20,4120.8408643,N,07038.1807516,W,1,23,0.6,0.024,M,-30.475,M,0.0,*63
###2023-05-05 13:47:06.695099$GNGGA,174747.20,4120.8409531,N,07038.1836495,W,1,23,0.6,-0.109,M,-30.475,M,0.0,*4D
###2023-05-05 13:47:08.695007$GNGGA,174749.20,4120.8407656,N,07038.1865571,W,1,23,0.6,-0.255,M,-30.475,M,0.0,*48
###2023-05-05 13:47:10.695105$GNGGA,174751.20,4120.8408258,N,07038.1893947,W,1,23,0.6,-0.179,M,-30.475,M,0.0,*49
###2023-05-05 13:47:12.696119$GNGGA,174753.20,4120.8407364,N,07038.1922612,W,1,23,0.6,-0.101,M,-30.475,M,0.0,*41
###2023-05-05 13:47:14.693916$GNGGA,174755.20,4120.8408157,N,07038.1950890,W,1,23,0.6,-0.010,M,-30.475,M,0.0,*4A
###2023-05-05 13:47:16.696016$GNGGA,174757.20,4120.8408079,N,07038.1979700,W,1,23,0.6,-0.179,M,-30.475,M,0.0,*46
###2023-05-05 13:47:18.696032$GNGGA,174759.20,4120.8408388,N,07038.2007859,W,1,23,0.6,-0.019,M,-30.476,M,0.0,*41
###2023-05-05 13:47:20.694788$GNGGA,174801.20,4120.8408607,N,07038.2038570,W,1,23,0.6,0.126,M,-30.476,M,0.0,*6B
###2023-05-05 13:47:22.694792$GNGGA,174803.20,4120.8407516,N,07038.2067284,W,1,23,0.6,-0.130,M,-30.476,M,0.0,*49
###2023-05-05 13:47:24.696843$GNGGA,174805.20,4120.8408633,N,07038.2094565,W,1,23,0.6,-0.009,M,-30.476,M,0.0,*4B
###2023-05-05 13:47:26.695024$GNGGA,174807.20,4120.8408316,N,07038.2123737,W,1,23,0.6,-0.061,M,-30.476,M,0.0,*4D
###2023-05-05 13:47:28.695718$GNGGA,174809.20,4120.8408493,N,07038.2152287,W,1,23,0.6,-0.143,M,-30.476,M,0.0,*40
###2023-05-05 13:47:30.694900$GNGGA,174811.20,4120.8408627,N,07038.2181146,W,1,23,0.6,-0.159,M,-30.476,M,0.0,*4F
###2023-05-05 13:47:32.692437$GNGGA,174813.20,4120.8407804,N,07038.2209985,W,1,23,0.6,-0.139,M,-30.476,M,0.0,*4F
