###2023-05-05 12:27:42.610774$GNGGA,162823.20,4120.8283016,N,07038.2911673,W,1,22,0.6,-0.078,M,-30.477,M,0.0,*4A
###2023-05-05 12:27:44.608637$GNGGA,162825.20,4120.8311643,N,07038.2911984,W,1,22,0.6,0.182,M,-30.477,M,0.0,*6E
###2023-05-05 12:27:46.610503$GNGGA,162827.20,4120.8340324,N,07038.2912797,W,1,22,0.6,0.355,M,-30.477,M,0.0,*6B
###2023-05-05 12:27:48.611570$GNGGA,162829.20,4120.8367506,N,07038.2914031,W,1,21,0.7,0.104,M,-30.477,M,0.0,*6F
###2023-05-05 12:27:50.610576$GNGGA,162831.20,4120.8393307,N,07038.2914040,W,1,21,0.7,0.031,M,-30.477,M,0.0,*6B
###2023-05-05 12:27:52.610478$GNGGA,162833.20,4120.8419866,N,07038.2911147,W,1,22,0.6,0.103,M,-30.477,M,0.0,*61
###2023-05-05 12:27:54.611459$GNGGA,162835.20,4120.8448504,N,07038.2909523,W,1,21,0.7,0.198,M,-30.477,M,0.0,*65
###2023-05-05 12:27:56.611737$GNGGA,162837.20,4120.8477808,N,07038.2910494,W,1,21,0.7,0.173,M,-30.477,M,0.0,*6A
###2023-05-05 12:27:58.602693$GNGGA,162839.20,4120.8507498,N,07038.2911593,W,1,21,0.7,0.007,M,-30.476,M,0.0,*63
###2023-05-05 12:28:00.608644$GNGGA,162841.20,4120.8536623,N,07038.2911930,W,1,22,0.6,0.123,M,-30.476,M,0.0,*6C
###2023-05-05 12:28:02.606866$GNGGA,162843.20,4120.8565827,N,07038.2911316,W,1,22,0.6,0.133,M,-30.476,M,0.0,*6D
###2023-05-05 12:28:04.607997$GNGGA,162845.20,4120.8596725,N,07038.2910227,W,1,22,0.6,0.205,M,-30.476,M,0.0,*6E
###2023-05-05 12:28:06.610314$GNGGA,162847.20,4120.8628093,N,07038.2911484,W,1,21,0.7,0.178,M,-30.476,M,0.0,*65
###2023-05-05 12:28:08.610178$GNGGA,162849.20,4120.8658584,N,07038.2912545,W,1,21,0.7,0.223,M,-30.476,M,0.0,*6D
###2023-05-05 12:28:10.611180$GNGGA,162851.20,4120.8688584,N,07038.2912035,W,1,22,0.6,0.231,M,-30.476,M,0.0,*6A
###2023-05-05 12:28:12.611362$GNGGA,162853.20,4120.8717913,N,07038.2911430,W,1,22,0.6,0.042,M,-30.476,M,0.0,*69
###2023-05-05 12:28:14.610042$GNGGA,162855.20,4120.8747522,N,07038.2920644,W,1,22,0.6,0.038,M,-30.476,M,0.0,*6A
###2023-05-05 12:28:16.603452$GNGGA,162857.20,4120.8760329,N,07038.2962638,W,1,22,0.6,0.105,M,-30.476,M,0.0,*62
###2023-05-05 12:28:18.612000$GNGGA,162859.20,4120.8749346,N,07038.3007910,W,1,22,0.6,0.275,M,-30.476,M,0.0,*64
###2023-05-05 12:28:20.610229$GNGGA,162901.20,4120.8732795,N,07038.3044882,W,1,22,0.6,0.074,M,-30.476,M,0.0,*60
###2023-05-05 12:28:22.610934$GNGGA,162903.20,4120.8699045,N,07038.3054247,W,1,22,0.6,0.161,M,-30.476,M,0.0,*6F
###2023-05-05 12:28:24.612830$GNGGA,162905.20,4120.8669825,N,07038.3048515,W,1,22,0.6,0.148,M,-30.476,M,0.0,*6E
###2023-05-05 12:28:26.613435$GNGGA,162907.20,4120.8649187,N,07038.3046457,W,1,22,0.6,0.396,M,-30.476,M,0.0,*67
###2023-05-05 12:28:28.610848$GNGGA,162909.20,4120.8631068,N,07038.3049198,W,1,22,0.6,0.184,M,-30.476,M,0.0,*6E
###2023-05-05 12:28:30.610780$GNGGA,162911.20,4120.8613719,N,07038.3058068,W,1,22,0.6,0.214,M,-30.476,M,0.0,*62
###2023-05-05 12:28:32.610812$GNGGA,162913.20,4120.8592168,N,07038.3062118,W,1,22,0.6,0.277,M,-30.476,M,0.0,*60
###2023-05-05 12:28:34.611749$GNGGA,162915.20,4120.8572153,N,07038.3063027,W,1,22,0.6,0.438,M,-30.476,M,0.0,*61
###2023-05-05 12:28:36.612732$GNGGA,162917.20,4120.8551566,N,07038.3061724,W,1,22,0.6,0.184,M,-30.477,M,0.0,*65
###2023-05-05 12:28:38.610684$GNGGA,162919.20,4120.8529903,N,07038.3059882,W,1,22,0.6,0.086,M,-30.477,M,0.0,*60
###2023-05-05 12:28:40.612623$GNGGA,162921.20,4120.8509362,N,07038.3058918,W,1,22,0.6,0.616,M,-30.477,M,0.0,*68
###2023-05-05 12:28:42.606971$GNGGA,162923.20,4120.8487504,N,07038.3055261,W,1,22,0.6,0.062,M,-30.477,M,0.0,*66
###2023-05-05 12:28:44.612536$GNGGA,162925.20,4120.8465243,N,07038.3050345,W,1,22,0.6,0.266,M,-30.477,M,0.0,*6C
###2023-05-05 12:28:46.606018$GNGGA,162927.20,4120.8442873,N,07038.3052995,W,1,22,0.6,0.137,M,-30.477,M,0.0,*60
###2023-05-05 12:28:48.612609$GNGGA,162929.20,4120.8422538,N,07038.3057942,W,1,22,0.6,0.287,M,-30.477,M,0.0,*6D
###2023-05-05 12:28:50.612404$GNGGA,162931.20,4120.8402143,N,07038.3055863,W,1,22,0.6,0.175,M,-30.477,M,0.0,*60
###2023-05-05 12:28:52.611579$GNGGA,162933.20,4120.8380681,N,07038.3056241,W,1,22,0.6,0.104,M,-30.477,M,0.0,*69
###2023-05-05 12:28:54.612487$GNGGA,162935.20,4120.8358947,N,07038.3055281,W,1,22,0.6,0.095,M,-30.477,M,0.0,*69
###2023-05-05 12:28:56.610290$GNGGA,162937.20,4120.8338012,N,07038.3055347,W,1,22,0.6,0.151,M,-30.477,M,0.0,*66
###2023-05-05 12:28:58.608526$GNGGA,162939.20,4120.8315175,N,07038.3055124,W,1,22,0.6,0.110,M,-30.477,M,0.0,*65
###2023-05-05 12:29:00.610111$GNGGA,162941.20,4120.8291982,N,07038.3054269,W,1,22,0.6,0.128,M,-30.478,M,0.0,*68
###2023-05-05 12:29:02.609072$GNGGA,162943.20,4120.8269998,N,07038.3056994,W,1,22,0.6,0.383,M,-30.478,M,0.0,*6E
###2023-05-05 12:29:04.604474$GNGGA,162945.20,4120.8249452,N,07038.3057072,W,1,22,0.6,0.099,M,-30.478,M,0.0,*69
###2023-05-05 12:29:06.612210$GNGGA,162947.20,4120.8226867,N,07038.3055788,W,1,22,0.6,-0.091,M,-30.478,M,0.0,*4D
###2023-05-05 12:29:08.611089$GNGGA,162949.20,4120.8203040,N,07038.3054314,W,1,22,0.6,0.039,M,-30.478,M,0.0,*66
###2023-05-05 12:29:10.611322$GNGGA,162951.20,4120.8181362,N,07038.3056247,W,1,22,0.6,0.073,M,-30.478,M,0.0,*6E
###2023-05-05 12:29:12.612012$GNGGA,162953.20,4120.8156951,N,07038.3054662,W,1,22,0.6,0.045,M,-30.478,M,0.0,*68
###2023-05-05 12:29:14.610909$GNGGA,162955.20,4120.8131742,N,07038.3053555,W,1,22,0.6,0.074,M,-30.478,M,0.0,*61
###2023-05-05 12:29:16.611846$GNGGA,162957.20,4120.8109558,N,07038.3057699,W,1,22,0.6,0.306,M,-30.478,M,0.0,*60
###2023-05-05 12:29:18.610862$GNGGA,162959.20,4120.8087531,N,07038.3056227,W,1,22,0.6,0.016,M,-30.478,M,0.0,*64
###2023-05-05 12:29:20.606202$GNGGA,163001.20,4120.8063723,N,07038.3054435,W,1,22,0.6,-0.088,M,-30.478,M,0.0,*47
###2023-05-05 12:29:22.609655$GNGGA,163003.20,4120.8039394,N,07038.3054261,W,1,22,0.6,0.210,M,-30.478,M,0.0,*6B
###2023-05-05 12:29:24.606054$GNGGA,163005.20,4120.8014958,N,07038.3054889,W,1,22,0.6,-0.002,M,-30.479,M,0.0,*49
###2023-05-05 12:29:26.610728$GNGGA,163007.20,4120.7989674,N,07038.3054774,W,1,22,0.6,-0.023,M,-30.479,M,0.0,*46
###2023-05-05 12:29:28.607945$GNGGA,163009.20,4120.7963874,N,07038.3054578,W,1,22,0.6,0.077,M,-30.479,M,0.0,*60
###2023-05-05 12:29:30.608892$GNGGA,163011.20,4120.7939278,N,07038.3056581,W,1,22,0.6,0.214,M,-30.479,M,0.0,*63
###2023-05-05 12:29:32.602289$GNGGA,163013.20,4120.7914670,N,07038.3056040,W,1,22,0.6,-0.012,M,-30.479,M,0.0,*43
###2023-05-05 12:29:34.609406$GNGGA,163015.20,4120.7888505,N,07038.3054555,W,1,22,0.6,0.129,M,-30.479,M,0.0,*67
###2023-05-05 12:29:36.611412$GNGGA,163017.20,4120.7863308,N,07038.3056994,W,1,22,0.6,0.362,M,-30.479,M,0.0,*65
###2023-05-05 12:29:38.611497$GNGGA,163019.20,4120.7838960,N,07038.3055853,W,1,22,0.6,-0.074,M,-30.479,M,0.0,*41
###2023-05-05 12:29:40.611533$GNGGA,163021.20,4120.7813746,N,07038.3054531,W,1,22,0.6,-0.093,M,-30.479,M,0.0,*48
###2023-05-05 12:29:42.611220$GNGGA,163023.20,4120.7788253,N,07038.3054978,W,1,22,0.6,0.301,M,-30.479,M,0.0,*62
###2023-05-05 12:29:44.611290$GNGGA,163025.20,4120.7762357,N,07038.3054724,W,1,22,0.6,0.225,M,-30.480,M,0.0,*63
###2023-05-05 12:29:46.611129$GNGGA,163027.20,4120.7735529,N,07038.3054661,W,1,22,0.6,0.186,M,-30.480,M,0.0,*66
###2023-05-05 12:29:48.606648$GNGGA,163029.20,4120.7708538,N,07038.3054077,W,1,22,0.6,0.055,M,-30.480,M,0.0,*68
###2023-05-05 12:29:50.609998$GNGGA,163031.20,4120.7682484,N,07038.3056876,W,1,22,0.6,0.349,M,-30.480,M,0.0,*61
###2023-05-05 12:29:52.610963$GNGGA,163033.20,4120.7657157,N,07038.3074580,W,1,22,0.6,0.348,M,-30.480,M,0.0,*65
###2023-05-05 12:29:54.611853$GNGGA,163035.20,4120.7644516,N,07038.3111853,W,1,22,0.6,0.025,M,-30.480,M,0.0,*69
###2023-05-05 12:29:56.612144$GNGGA,163037.20,4120.7651104,N,07038.3152085,W,1,22,0.6,-0.102,M,-30.480,M,0.0,*45
###2023-05-05 12:29:58.604190$GNGGA,163039.20,4120.7663412,N,07038.3185940,W,1,22,0.6,0.090,M,-30.480,M,0.0,*65
###2023-05-05 12:30:00.609171$GNGGA,163041.20,4120.7683307,N,07038.3210038,W,1,22,0.6,0.148,M,-30.480,M,0.0,*6A
###2023-05-05 12:30:02.609291$GNGGA,163043.20,4120.7709794,N,07038.3213245,W,1,21,0.7,0.233,M,-30.480,M,0.0,*63
###2023-05-05 12:30:04.611315$GNGGA,163045.20,4120.7732967,N,07038.3201825,W,1,21,0.7,0.158,M,-30.480,M,0.0,*6E
###2023-05-05 12:30:06.611858$GNGGA,163047.20,4120.7752572,N,07038.3199037,W,1,21,0.7,-0.011,M,-30.480,M,0.0,*4A
###2023-05-05 12:30:08.609932$GNGGA,163049.20,4120.7771465,N,07038.3198962,W,1,21,0.7,-0.167,M,-30.480,M,0.0,*4A
###2023-05-05 12:30:10.611714$GNGGA,163051.20,4120.7791342,N,07038.3199338,W,1,21,0.7,-0.149,M,-30.480,M,0.0,*47
###2023-05-05 12:30:12.611710$GNGGA,163053.20,4120.7813303,N,07038.3199463,W,1,21,0.7,-0.077,M,-30.480,M,0.0,*40
###2023-05-05 12:30:14.610696$GNGGA,163055.20,4120.7835595,N,07038.3199229,W,1,21,0.7,0.016,M,-30.479,M,0.0,*6F
###2023-05-05 12:30:16.611466$GNGGA,163057.20,4120.7857926,N,07038.3199443,W,1,21,0.7,0.199,M,-30.479,M,0.0,*61
###2023-05-05 12:30:18.606832$GNGGA,163059.20,4120.7880032,N,07038.3198818,W,1,21,0.7,0.377,M,-30.479,M,0.0,*68
###2023-05-05 12:30:20.612365$GNGGA,163101.20,4120.7901616,N,07038.3197009,W,1,21,0.7,0.061,M,-30.479,M,0.0,*6F
###2023-05-05 12:30:22.604768$GNGGA,163103.20,4120.7922656,N,07038.3197440,W,1,21,0.7,-0.106,M,-30.479,M,0.0,*4C
###2023-05-05 12:30:24.612324$GNGGA,163105.20,4120.7943192,N,07038.3197092,W,1,21,0.7,-0.116,M,-30.479,M,0.0,*48
###2023-05-05 12:30:26.609291$GNGGA,163107.20,4120.7964501,N,07038.3195962,W,1,21,0.7,-0.249,M,-30.479,M,0.0,*4C
###2023-05-05 12:30:28.609535$GNGGA,163109.20,4120.7986782,N,07038.3195861,W,1,22,0.6,-0.247,M,-30.479,M,0.0,*49
###2023-05-05 12:30:30.609763$GNGGA,163111.20,4120.8010262,N,07038.3196001,W,1,22,0.6,0.003,M,-30.479,M,0.0,*60
###2023-05-05 12:30:32.609668$GNGGA,163113.20,4120.8033733,N,07038.3197044,W,1,21,0.7,0.330,M,-30.479,M,0.0,*63
###2023-05-05 12:30:34.609374$GNGGA,163115.20,4120.8056791,N,07038.3197664,W,1,21,0.7,0.300,M,-30.479,M,0.0,*69
###2023-05-05 12:30:36.607419$GNGGA,163117.20,4120.8078805,N,07038.3197989,W,1,21,0.7,0.069,M,-30.479,M,0.0,*65
###2023-05-05 12:30:38.611980$GNGGA,163119.20,4120.8100380,N,07038.3198079,W,1,22,0.6,0.123,M,-30.478,M,0.0,*66
###2023-05-05 12:30:40.606334$GNGGA,163121.20,4120.8121798,N,07038.3196196,W,1,21,0.7,-0.153,M,-30.478,M,0.0,*45
###2023-05-05 12:30:42.612001$GNGGA,163123.20,4120.8145281,N,07038.3194056,W,1,21,0.7,-0.261,M,-30.478,M,0.0,*45
###2023-05-05 12:30:44.608912$GNGGA,163125.20,4120.8170153,N,07038.3193815,W,1,21,0.7,-0.231,M,-30.478,M,0.0,*44
###2023-05-05 12:30:46.610932$GNGGA,163127.20,4120.8195624,N,07038.3194843,W,1,22,0.6,-0.273,M,-30.478,M,0.0,*4A
###2023-05-05 12:30:48.612824$GNGGA,163129.20,4120.8221576,N,07038.3195785,W,1,22,0.6,-0.307,M,-30.478,M,0.0,*4A
###2023-05-05 12:30:50.610732$GNGGA,163131.20,4120.8248076,N,07038.3196067,W,1,21,0.7,-0.153,M,-30.478,M,0.0,*40
###2023-05-05 12:30:52.612214$GNGGA,163133.20,4120.8276119,N,07038.3195366,W,1,22,0.6,-0.047,M,-30.478,M,0.0,*40
###2023-05-05 12:30:54.613298$GNGGA,163135.20,4120.8303933,N,07038.3194651,W,1,21,0.7,0.198,M,-30.478,M,0.0,*69
###2023-05-05 12:30:56.610856$GNGGA,163137.20,4120.8324085,N,07038.3193404,W,1,21,0.7,-0.053,M,-30.478,M,0.0,*44
###2023-05-05 12:30:58.609059$GNGGA,163139.20,4120.8347011,N,07038.3197220,W,1,22,0.6,-0.092,M,-30.478,M,0.0,*49
###2023-05-05 12:31:00.604364$GNGGA,163141.20,4120.8369153,N,07038.3193206,W,1,21,0.7,-0.193,M,-30.477,M,0.0,*40
