###2023-05-05 12:50:58.625488$GNGGA,165139.20,4120.8188417,N,07038.1474485,W,1,24,0.6,0.472,M,-30.476,M,0.0,*60
###2023-05-05 12:51:00.626652$GNGGA,165141.20,4120.8165016,N,07038.1474795,W,1,24,0.6,0.381,M,-30.476,M,0.0,*60
###2023-05-05 12:51:02.626511$GNGGA,165143.20,4120.8142660,N,07038.1475412,W,1,24,0.6,0.539,M,-30.476,M,0.0,*68
###2023-05-05 12:51:04.626583$GNGGA,165145.20,4120.8119319,N,07038.1472594,W,1,24,0.6,0.170,M,-30.476,M,0.0,*6A
###2023-05-05 12:51:06.628917$GNGGA,165147.20,4120.8092835,N,07038.1471406,W,1,24,0.6,0.037,M,-30.476,M,0.0,*64
###2023-05-05 12:51:08.622010$GNGGA,165149.20,4120.8066217,N,07038.1472705,W,1,24,0.6,0.596,M,-30.476,M,0.0,*66
###2023-05-05 12:51:10.628753$GNGGA,165151.20,4120.8041368,N,07038.1471983,W,1,24,0.6,0.322,M,-30.476,M,0.0,*69
###2023-05-05 12:51:12.628768$GNGGA,165153.20,4120.8015259,N,07038.1472960,W,1,24,0.6,0.107,M,-30.476,M,0.0,*62
###2023-05-05 12:51:14.628625$GNGGA,165155.20,4120.7988127,N,07038.1472290,W,1,23,0.6,0.123,M,-30.476,M,0.0,*69
###2023-05-05 12:51:16.628565$GNGGA,165157.20,4120.7962037,N,07038.1476746,W,1,24,0.6,0.303,M,-30.476,M,0.0,*62
###2023-05-05 12:51:18.628513$GNGGA,165159.20,4120.7937708,N,07038.1476191,W,1,24,0.6,0.300,M,-30.477,M,0.0,*69
###2023-05-05 12:51:20.628499$GNGGA,165201.20,4120.7913483,N,07038.1474445,W,1,24,0.6,0.153,M,-30.477,M,0.0,*6B
###2023-05-05 12:51:22.628326$GNGGA,165203.20,4120.7887034,N,07038.1473168,W,1,24,0.6,0.071,M,-30.477,M,0.0,*61
###2023-05-05 12:51:24.628457$GNGGA,165205.20,4120.7860605,N,07038.1474428,W,1,24,0.6,0.201,M,-30.477,M,0.0,*69
###2023-05-05 12:51:26.627251$GNGGA,165207.20,4120.7834505,N,07038.1474925,W,1,24,0.6,0.105,M,-30.477,M,0.0,*6E
###2023-05-05 12:51:28.626031$GNGGA,165209.20,4120.7808806,N,07038.1475516,W,1,24,0.6,0.335,M,-30.477,M,0.0,*6D
###2023-05-05 12:51:30.626967$GNGGA,165211.20,4120.7783373,N,07038.1475320,W,1,24,0.6,0.251,M,-30.477,M,0.0,*61
###2023-05-05 12:51:32.626895$GNGGA,165213.20,4120.7756883,N,07038.1473921,W,1,24,0.6,0.052,M,-30.477,M,0.0,*63
###2023-05-05 12:51:34.626898$GNGGA,165215.20,4120.7729314,N,07038.1472181,W,1,24,0.6,0.230,M,-30.477,M,0.0,*6D
###2023-05-05 12:51:36.629090$GNGGA,165217.20,4120.7708659,N,07038.1464939,W,1,24,0.6,0.412,M,-30.477,M,0.0,*6A
###2023-05-05 12:51:38.629347$GNGGA,165219.20,4120.7694973,N,07038.1446263,W,1,23,0.6,0.143,M,-30.477,M,0.0,*65
###2023-05-05 12:51:40.628182$GNGGA,165221.20,4120.7687182,N,07038.1420404,W,1,23,0.6,0.027,M,-30.477,M,0.0,*6E
###2023-05-05 12:51:42.628960$GNGGA,165223.20,4120.7689335,N,07038.1393746,W,1,23,0.6,0.144,M,-30.477,M,0.0,*62
###2023-05-05 12:51:44.628032$GNGGA,165225.20,4120.7703703,N,07038.1373484,W,1,23,0.6,0.434,M,-30.477,M,0.0,*67
###2023-05-05 12:51:46.629008$GNGGA,165227.20,4120.7719454,N,07038.1342388,W,1,23,0.6,0.464,M,-30.477,M,0.0,*63
###2023-05-05 12:51:48.623347$GNGGA,165229.20,4120.7738731,N,07038.1324429,W,1,23,0.6,0.161,M,-30.477,M,0.0,*62
###2023-05-05 12:51:50.628779$GNGGA,165231.20,4120.7758880,N,07038.1324401,W,1,23,0.6,0.145,M,-30.477,M,0.0,*64
###2023-05-05 12:51:52.628734$GNGGA,165233.20,4120.7781932,N,07038.1327875,W,1,23,0.6,0.172,M,-30.477,M,0.0,*62
###2023-05-05 12:51:54.630051$GNGGA,165235.20,4120.7807446,N,07038.1331177,W,1,23,0.6,0.205,M,-30.477,M,0.0,*64
###2023-05-05 12:51:56.629699$GNGGA,165237.20,4120.7833036,N,07038.1332121,W,1,23,0.6,0.211,M,-30.477,M,0.0,*67
###2023-05-05 12:51:58.626298$GNGGA,165239.20,4120.7856381,N,07038.1332402,W,1,23,0.6,0.177,M,-30.477,M,0.0,*62
###2023-05-05 12:52:00.628381$GNGGA,165241.20,4120.7878371,N,07038.1332143,W,1,23,0.6,0.149,M,-30.477,M,0.0,*63
###2023-05-05 12:52:02.626374$GNGGA,165243.20,4120.7900524,N,07038.1333161,W,1,23,0.6,0.117,M,-30.476,M,0.0,*62
###2023-05-05 12:52:04.623035$GNGGA,165245.20,4120.7923273,N,07038.1332969,W,1,23,0.6,0.151,M,-30.476,M,0.0,*63
###2023-05-05 12:52:06.629506$GNGGA,165247.20,4120.7945750,N,07038.1331909,W,1,23,0.6,0.366,M,-30.476,M,0.0,*66
###2023-05-05 12:52:08.628453$GNGGA,165249.20,4120.7967601,N,07038.1332815,W,1,23,0.6,0.474,M,-30.476,M,0.0,*66
###2023-05-05 12:52:10.629386$GNGGA,165251.20,4120.7989708,N,07038.1333968,W,1,23,0.6,0.346,M,-30.476,M,0.0,*6B
###2023-05-05 12:52:12.629401$GNGGA,165253.20,4120.8011082,N,07038.1333864,W,1,23,0.6,0.222,M,-30.476,M,0.0,*65
###2023-05-05 12:52:14.629831$GNGGA,165255.20,4120.8032510,N,07038.1333426,W,1,23,0.6,0.311,M,-30.476,M,0.0,*67
###2023-05-05 12:52:16.629339$GNGGA,165257.20,4120.8054226,N,07038.1332234,W,1,23,0.6,0.151,M,-30.476,M,0.0,*65
###2023-05-05 12:52:18.630338$GNGGA,165259.20,4120.8076887,N,07038.1330803,W,1,23,0.6,0.234,M,-30.476,M,0.0,*66
###2023-05-05 12:52:20.628202$GNGGA,165301.20,4120.8100170,N,07038.1330926,W,1,23,0.6,0.389,M,-30.476,M,0.0,*6A
###2023-05-05 12:52:22.629219$GNGGA,165303.20,4120.8122729,N,07038.1331485,W,1,23,0.6,0.459,M,-30.476,M,0.0,*6D
###2023-05-05 12:52:24.624605$GNGGA,165305.20,4120.8145202,N,07038.1330987,W,1,23,0.6,0.323,M,-30.476,M,0.0,*62
###2023-05-05 12:52:26.629126$GNGGA,165307.20,4120.8168800,N,07038.1330757,W,1,23,0.6,0.456,M,-30.475,M,0.0,*62
###2023-05-05 12:52:28.627345$GNGGA,165309.20,4120.8193140,N,07038.1331616,W,1,23,0.6,0.614,M,-30.475,M,0.0,*64
###2023-05-05 12:52:30.627889$GNGGA,165311.20,4120.8217084,N,07038.1332750,W,1,23,0.6,0.530,M,-30.475,M,0.0,*6E
###2023-05-05 12:52:32.628835$GNGGA,165313.20,4120.8241664,N,07038.1332684,W,1,23,0.6,0.560,M,-30.475,M,0.0,*6A
###2023-05-05 12:52:34.627739$GNGGA,165315.20,4120.8266099,N,07038.1332597,W,1,23,0.6,0.492,M,-30.475,M,0.0,*60
###2023-05-05 12:52:36.629869$GNGGA,165317.20,4120.8290273,N,07038.1331549,W,1,23,0.6,0.406,M,-30.475,M,0.0,*60
###2023-05-05 12:52:38.629893$GNGGA,165319.20,4120.8316426,N,07038.1330898,W,1,23,0.6,0.448,M,-30.475,M,0.0,*6D
###2023-05-05 12:52:40.629804$GNGGA,165321.20,4120.8342348,N,07038.1331480,W,1,23,0.6,0.509,M,-30.475,M,0.0,*68
###2023-05-05 12:52:42.629830$GNGGA,165323.20,4120.8368871,N,07038.1330628,W,1,23,0.6,0.515,M,-30.475,M,0.0,*6F
###2023-05-05 12:52:44.630094$GNGGA,165325.20,4120.8396534,N,07038.1330881,W,1,23,0.6,0.555,M,-30.475,M,0.0,*6D
###2023-05-05 12:52:46.629999$GNGGA,165327.20,4120.8424088,N,07038.1332203,W,1,23,0.6,0.473,M,-30.474,M,0.0,*65
###2023-05-05 12:52:48.630910$GNGGA,165329.20,4120.8450572,N,07038.1332272,W,1,23,0.6,0.466,M,-30.474,M,0.0,*6A
###2023-05-05 12:52:50.630747$GNGGA,165331.20,4120.8477891,N,07038.1330542,W,1,23,0.6,0.250,M,-30.474,M,0.0,*63
###2023-05-05 12:52:52.629578$GNGGA,165333.20,4120.8506495,N,07038.1329936,W,1,23,0.6,0.252,M,-30.474,M,0.0,*6B
###2023-05-05 12:52:54.630594$GNGGA,165335.20,4120.8535915,N,07038.1330140,W,1,23,0.6,0.234,M,-30.474,M,0.0,*69
###2023-05-05 12:52:56.629496$GNGGA,165337.20,4120.8565218,N,07038.1331352,W,1,23,0.6,0.357,M,-30.474,M,0.0,*6C
###2023-05-05 12:52:58.629307$GNGGA,165339.20,4120.8595005,N,07038.1332278,W,1,23,0.6,0.260,M,-30.474,M,0.0,*6C
###2023-05-05 12:53:00.628240$GNGGA,165341.20,4120.8623757,N,07038.1332638,W,1,23,0.6,0.451,M,-30.474,M,0.0,*69
###2023-05-05 12:53:02.628243$GNGGA,165343.20,4120.8652356,N,07038.1332175,W,1,23,0.6,0.513,M,-30.474,M,0.0,*61
###2023-05-05 12:53:04.628154$GNGGA,165345.20,4120.8679941,N,07038.1332299,W,1,23,0.6,0.509,M,-30.474,M,0.0,*68
###2023-05-05 12:53:06.630360$GNGGA,165347.20,4120.8708091,N,07038.1330396,W,1,23,0.6,0.308,M,-30.473,M,0.0,*65
###2023-05-05 12:53:08.630349$GNGGA,165349.20,4120.8738251,N,07038.1328952,W,1,23,0.6,0.218,M,-30.473,M,0.0,*6D
###2023-05-05 12:53:10.630387$GNGGA,165351.20,4120.8769234,N,07038.1330653,W,1,23,0.6,0.314,M,-30.473,M,0.0,*69
###2023-05-05 12:53:12.631491$GNGGA,165353.20,4120.8799698,N,07038.1332375,W,1,23,0.6,0.293,M,-30.473,M,0.0,*6B
###2023-05-05 12:53:14.630261$GNGGA,165355.20,4120.8822684,N,07038.1323204,W,1,23,0.6,0.325,M,-30.473,M,0.0,*64
###2023-05-05 12:53:16.630240$GNGGA,165357.20,4120.8836185,N,07038.1301648,W,1,23,0.6,0.462,M,-30.473,M,0.0,*6D
###2023-05-05 12:53:18.631220$GNGGA,165359.20,4120.8839304,N,07038.1274303,W,1,23,0.6,0.476,M,-30.473,M,0.0,*6B
###2023-05-05 12:53:20.631071$GNGGA,165401.20,4120.8827893,N,07038.1246587,W,1,24,0.6,0.288,M,-30.473,M,0.0,*60
###2023-05-05 12:53:22.631219$GNGGA,165403.20,4120.8823097,N,07038.1197669,W,1,23,0.6,0.343,M,-30.473,M,0.0,*67
###2023-05-05 12:53:24.632318$GNGGA,165405.20,4120.8807980,N,07038.1167784,W,1,24,0.6,0.365,M,-30.473,M,0.0,*66
###2023-05-05 12:53:26.631223$GNGGA,165407.20,4120.8791405,N,07038.1159634,W,1,24,0.6,0.464,M,-30.473,M,0.0,*65
###2023-05-05 12:53:28.628709$GNGGA,165409.20,4120.8771652,N,07038.1168791,W,1,23,0.6,0.083,M,-30.473,M,0.0,*63
###2023-05-05 12:53:30.629724$GNGGA,165411.20,4120.8748644,N,07038.1182674,W,1,23,0.6,0.256,M,-30.473,M,0.0,*63
###2023-05-05 12:53:32.628688$GNGGA,165413.20,4120.8719770,N,07038.1187494,W,1,24,0.6,0.457,M,-30.473,M,0.0,*6A
###2023-05-05 12:53:34.628629$GNGGA,165415.20,4120.8692055,N,07038.1189196,W,1,23,0.6,0.130,M,-30.473,M,0.0,*64
###2023-05-05 12:53:36.630903$GNGGA,165417.20,4120.8667788,N,07038.1189167,W,1,24,0.6,0.296,M,-30.473,M,0.0,*6D
###2023-05-05 12:53:38.631218$GNGGA,165419.20,4120.8645471,N,07038.1188978,W,1,24,0.6,0.409,M,-30.473,M,0.0,*61
###2023-05-05 12:53:40.630759$GNGGA,165421.20,4120.8624816,N,07038.1189728,W,1,24,0.6,0.379,M,-30.474,M,0.0,*6D
###2023-05-05 12:53:42.631808$GNGGA,165423.20,4120.8603461,N,07038.1189907,W,1,23,0.6,0.130,M,-30.474,M,0.0,*6D
###2023-05-05 12:53:44.631690$GNGGA,165425.20,4120.8582691,N,07038.1190858,W,1,24,0.6,0.238,M,-30.474,M,0.0,*63
###2023-05-05 12:53:46.630638$GNGGA,165427.20,4120.8561078,N,07038.1189382,W,1,24,0.6,0.172,M,-30.474,M,0.0,*64
###2023-05-05 12:53:48.631569$GNGGA,165429.20,4120.8539444,N,07038.1188618,W,1,24,0.6,0.126,M,-30.474,M,0.0,*6A
###2023-05-05 12:53:50.630509$GNGGA,165431.20,4120.8518613,N,07038.1188543,W,1,24,0.6,0.710,M,-30.474,M,0.0,*6E
###2023-05-05 12:53:52.631666$GNGGA,165433.20,4120.8495714,N,07038.1188896,W,1,24,0.6,0.267,M,-30.474,M,0.0,*6E
###2023-05-05 12:53:54.632984$GNGGA,165435.20,4120.8473733,N,07038.1187207,W,1,25,0.6,0.316,M,-30.474,M,0.0,*6E
###2023-05-05 12:53:56.631968$GNGGA,165437.20,4120.8451557,N,07038.1186985,W,1,25,0.6,0.403,M,-30.474,M,0.0,*6F
###2023-05-05 12:53:58.629228$GNGGA,165439.20,4120.8431239,N,07038.1186737,W,1,25,0.6,0.350,M,-30.474,M,0.0,*6E
###2023-05-05 12:54:00.629124$GNGGA,165441.20,4120.8409003,N,07038.1185165,W,1,25,0.6,0.176,M,-30.474,M,0.0,*65
###2023-05-05 12:54:02.629227$GNGGA,165443.20,4120.8386679,N,07038.1185334,W,1,25,0.6,-0.033,M,-30.474,M,0.0,*47
###2023-05-05 12:54:04.628966$GNGGA,165445.20,4120.8363313,N,07038.1182954,W,1,25,0.6,0.293,M,-30.474,M,0.0,*6D
###2023-05-05 12:54:06.631312$GNGGA,165447.20,4120.8341231,N,07038.1185306,W,1,25,0.6,0.460,M,-30.475,M,0.0,*6F
###2023-05-05 12:54:08.631402$GNGGA,165449.20,4120.8318215,N,07038.1184352,W,1,25,0.6,0.405,M,-30.475,M,0.0,*68
###2023-05-05 12:54:10.631315$GNGGA,165451.20,4120.8294993,N,07038.1184649,W,1,25,0.6,0.112,M,-30.475,M,0.0,*6D
###2023-05-05 12:54:12.632108$GNGGA,165453.20,4120.8272639,N,07038.1184568,W,1,25,0.6,0.162,M,-30.475,M,0.0,*6F
###2023-05-05 12:54:14.631184$GNGGA,165455.20,4120.8250043,N,07038.1185424,W,1,25,0.6,0.406,M,-30.475,M,0.0,*6D
###2023-05-05 12:54:16.631087$GNGGA,165457.20,4120.8226777,N,07038.1185386,W,1,25,0.6,0.282,M,-30.475,M,0.0,*6B
