###2023-05-05 13:04:18.647447$GNGGA,170459.20,4120.8218059,N,07038.0324612,W,1,23,0.6,0.285,M,-30.474,M,0.0,*67
###2023-05-05 13:04:20.644333$GNGGA,170501.20,4120.8193439,N,07038.0325608,W,1,23,0.6,0.541,M,-30.474,M,0.0,*6C
###2023-05-05 13:04:22.646263$GNGGA,170503.20,4120.8170261,N,07038.0327218,W,1,23,0.6,0.322,M,-30.474,M,0.0,*6C
###2023-05-05 13:04:24.648515$GNGGA,170505.20,4120.8146742,N,07038.0325602,W,1,22,0.6,0.208,M,-30.474,M,0.0,*6E
###2023-05-05 13:04:26.646264$GNGGA,170507.20,4120.8121946,N,07038.0324992,W,1,22,0.6,0.346,M,-30.474,M,0.0,*6B
###2023-05-05 13:04:28.644204$GNGGA,170509.20,4120.8096742,N,07038.0324950,W,1,23,0.6,0.299,M,-30.474,M,0.0,*6E
###2023-05-05 13:04:30.645407$GNGGA,170511.20,4120.8070770,N,07038.0325041,W,1,23,0.6,0.200,M,-30.474,M,0.0,*66
###2023-05-05 13:04:32.644109$GNGGA,170513.20,4120.8044918,N,07038.0326201,W,1,23,0.6,0.435,M,-30.474,M,0.0,*66
###2023-05-05 13:04:34.645009$GNGGA,170515.20,4120.8020296,N,07038.0326861,W,1,23,0.6,0.238,M,-30.475,M,0.0,*69
###2023-05-05 13:04:36.641608$GNGGA,170517.20,4120.7994921,N,07038.0326424,W,1,23,0.6,0.265,M,-30.475,M,0.0,*60
###2023-05-05 13:04:38.644075$GNGGA,170519.20,4120.7969809,N,07038.0326197,W,1,23,0.6,0.469,M,-30.475,M,0.0,*60
###2023-05-05 13:04:40.645940$GNGGA,170521.20,4120.7944789,N,07038.0325620,W,1,23,0.6,0.463,M,-30.475,M,0.0,*61
###2023-05-05 13:04:42.646144$GNGGA,170523.20,4120.7919432,N,07038.0324836,W,1,23,0.6,0.418,M,-30.475,M,0.0,*6C
###2023-05-05 13:04:44.645879$GNGGA,170525.20,4120.7892549,N,07038.0323924,W,1,23,0.6,0.404,M,-30.475,M,0.0,*6D
###2023-05-05 13:04:46.645684$GNGGA,170527.20,4120.7864939,N,07038.0324381,W,1,23,0.6,0.191,M,-30.475,M,0.0,*66
###2023-05-05 13:04:48.648885$GNGGA,170529.20,4120.7838298,N,07038.0326442,W,1,23,0.6,0.282,M,-30.475,M,0.0,*6A
###2023-05-05 13:04:50.641178$GNGGA,170531.20,4120.7812417,N,07038.0326722,W,1,23,0.6,0.136,M,-30.475,M,0.0,*63
###2023-05-05 13:04:52.645662$GNGGA,170533.20,4120.7787508,N,07038.0326591,W,1,23,0.6,0.441,M,-30.475,M,0.0,*62
###2023-05-05 13:04:54.649639$GNGGA,170535.20,4120.7764138,N,07038.0321781,W,1,23,0.6,0.143,M,-30.475,M,0.0,*6D
###2023-05-05 13:04:56.645695$GNGGA,170537.20,4120.7746429,N,07038.0307242,W,1,23,0.6,0.172,M,-30.476,M,0.0,*65
###2023-05-05 13:04:58.644607$GNGGA,170539.20,4120.7738400,N,07038.0284639,W,1,22,0.6,0.421,M,-30.476,M,0.0,*69
###2023-05-05 13:05:00.645555$GNGGA,170541.20,4120.7745241,N,07038.0261156,W,1,22,0.6,0.445,M,-30.475,M,0.0,*6B
###2023-05-05 13:05:02.643389$GNGGA,170543.20,4120.7754646,N,07038.0227814,W,1,22,0.6,0.412,M,-30.475,M,0.0,*65
###2023-05-05 13:05:04.638649$GNGGA,170545.20,4120.7760162,N,07038.0187771,W,1,22,0.6,0.226,M,-30.475,M,0.0,*61
###2023-05-05 13:05:06.646516$GNGGA,170547.20,4120.7772531,N,07038.0162268,W,1,22,0.6,0.106,M,-30.475,M,0.0,*65
###2023-05-05 13:05:08.645430$GNGGA,170549.20,4120.7790165,N,07038.0150473,W,1,22,0.6,0.138,M,-30.475,M,0.0,*62
###2023-05-05 13:05:10.646365$GNGGA,170551.20,4120.7810483,N,07038.0155204,W,1,22,0.6,0.339,M,-30.475,M,0.0,*61
###2023-05-05 13:05:12.647467$GNGGA,170553.20,4120.7829117,N,07038.0170763,W,1,22,0.6,0.234,M,-30.475,M,0.0,*6E
###2023-05-05 13:05:14.646654$GNGGA,170555.20,4120.7853767,N,07038.0178104,W,1,22,0.6,0.142,M,-30.475,M,0.0,*69
###2023-05-05 13:05:16.648501$GNGGA,170557.20,4120.7877875,N,07038.0181481,W,1,22,0.6,-0.088,M,-30.475,M,0.0,*45
###2023-05-05 13:05:18.649405$GNGGA,170559.20,4120.7900884,N,07038.0183378,W,1,22,0.6,-0.034,M,-30.475,M,0.0,*40
###2023-05-05 13:05:20.646337$GNGGA,170601.20,4120.7924178,N,07038.0184134,W,1,22,0.6,0.203,M,-30.475,M,0.0,*64
###2023-05-05 13:05:22.646107$GNGGA,170603.20,4120.7948198,N,07038.0183631,W,1,22,0.6,0.399,M,-30.475,M,0.0,*65
###2023-05-05 13:05:24.647139$GNGGA,170605.20,4120.7969946,N,07038.0182648,W,1,22,0.6,0.269,M,-30.474,M,0.0,*6B
###2023-05-05 13:05:26.647457$GNGGA,170607.20,4120.7990889,N,07038.0181702,W,1,22,0.6,-0.088,M,-30.474,M,0.0,*41
###2023-05-05 13:05:28.645227$GNGGA,170609.20,4120.8012093,N,07038.0181341,W,1,22,0.6,-0.268,M,-30.474,M,0.0,*4F
###2023-05-05 13:05:30.644856$GNGGA,170611.20,4120.8033009,N,07038.0181200,W,1,22,0.6,-0.308,M,-30.474,M,0.0,*45
###2023-05-05 13:05:32.643960$GNGGA,170613.20,4120.8053845,N,07038.0180716,W,1,22,0.6,-0.204,M,-30.474,M,0.0,*4F
###2023-05-05 13:05:34.646212$GNGGA,170615.20,4120.8072957,N,07038.0171511,W,1,22,0.6,-0.172,M,-30.474,M,0.0,*41
###2023-05-05 13:05:36.645965$GNGGA,170617.20,4120.8085838,N,07038.0151276,W,1,22,0.6,0.267,M,-30.474,M,0.0,*6D
###2023-05-05 13:05:38.646923$GNGGA,170619.20,4120.8082799,N,07038.0128461,W,1,23,0.6,0.067,M,-30.474,M,0.0,*6D
###2023-05-05 13:05:40.646801$GNGGA,170621.20,4120.8066354,N,07038.0118178,W,1,23,0.6,0.083,M,-30.474,M,0.0,*6D
###2023-05-05 13:05:42.649728$GNGGA,170623.20,4120.8049072,N,07038.0125012,W,1,22,0.6,0.119,M,-30.474,M,0.0,*65
###2023-05-05 13:05:44.641282$GNGGA,170625.20,4120.8032872,N,07038.0141824,W,1,22,0.6,-0.199,M,-30.474,M,0.0,*4D
###2023-05-05 13:05:46.646828$GNGGA,170627.20,4120.8015931,N,07038.0161029,W,1,22,0.6,0.078,M,-30.474,M,0.0,*68
###2023-05-05 13:05:48.647794$GNGGA,170629.20,4120.7997618,N,07038.0175330,W,1,22,0.6,0.285,M,-30.474,M,0.0,*60
###2023-05-05 13:05:50.645950$GNGGA,170631.20,4120.7974746,N,07038.0176997,W,1,23,0.6,-0.087,M,-30.474,M,0.0,*46
###2023-05-05 13:05:52.647900$GNGGA,170633.20,4120.7952672,N,07038.0178523,W,1,23,0.6,-0.149,M,-30.475,M,0.0,*49
###2023-05-05 13:05:54.647717$GNGGA,170635.20,4120.7931559,N,07038.0178170,W,1,23,0.6,0.201,M,-30.475,M,0.0,*60
###2023-05-05 13:05:56.647784$GNGGA,170637.20,4120.7910553,N,07038.0177863,W,1,23,0.6,0.133,M,-30.475,M,0.0,*6D
###2023-05-05 13:05:58.645449$GNGGA,170639.20,4120.7888192,N,07038.0176235,W,1,23,0.6,0.043,M,-30.475,M,0.0,*64
###2023-05-05 13:06:00.646549$GNGGA,170641.20,4120.7865706,N,07038.0177395,W,1,23,0.6,0.180,M,-30.475,M,0.0,*67
###2023-05-05 13:06:02.646540$GNGGA,170643.20,4120.7844588,N,07038.0188351,W,1,22,0.6,-0.012,M,-30.475,M,0.0,*4C
###2023-05-05 13:06:04.646567$GNGGA,170645.20,4120.7827929,N,07038.0207318,W,1,22,0.6,-0.085,M,-30.475,M,0.0,*4F
###2023-05-05 13:06:06.650683$GNGGA,170647.20,4120.7822145,N,07038.0234833,W,1,22,0.6,-0.016,M,-30.475,M,0.0,*42
###2023-05-05 13:06:08.647428$GNGGA,170649.20,4120.7826812,N,07038.0262548,W,1,22,0.6,0.036,M,-30.475,M,0.0,*6E
###2023-05-05 13:06:10.641731$GNGGA,170651.20,4120.7840988,N,07038.0284861,W,1,22,0.6,0.141,M,-30.475,M,0.0,*6A
###2023-05-05 13:06:12.651322$GNGGA,170653.20,4120.7853880,N,07038.0307335,W,1,22,0.6,0.061,M,-30.475,M,0.0,*60
###2023-05-05 13:06:14.647757$GNGGA,170655.20,4120.7858797,N,07038.0335980,W,1,22,0.6,-0.177,M,-30.475,M,0.0,*4A
###2023-05-05 13:06:16.647420$GNGGA,170657.20,4120.7861818,N,07038.0364397,W,1,22,0.6,-0.385,M,-30.475,M,0.0,*4D
###2023-05-05 13:06:18.652504$GNGGA,170659.20,4120.7863719,N,07038.0393246,W,1,22,0.6,-0.228,M,-30.475,M,0.0,*4C
###2023-05-05 13:06:20.647291$GNGGA,170701.20,4120.7864393,N,07038.0422031,W,1,22,0.6,0.014,M,-30.475,M,0.0,*6E
###2023-05-05 13:06:22.648179$GNGGA,170703.20,4120.7863823,N,07038.0450153,W,1,22,0.6,-0.168,M,-30.475,M,0.0,*4C
###2023-05-05 13:06:24.649203$GNGGA,170705.20,4120.7863061,N,07038.0478973,W,1,22,0.6,-0.171,M,-30.475,M,0.0,*4C
###2023-05-05 13:06:26.648269$GNGGA,170707.20,4120.7861376,N,07038.0507248,W,1,22,0.6,-0.262,M,-30.475,M,0.0,*42
###2023-05-05 13:06:28.640491$GNGGA,170709.20,4120.7862688,N,07038.0535377,W,1,22,0.6,-0.120,M,-30.475,M,0.0,*42
###2023-05-05 13:06:30.647028$GNGGA,170711.20,4120.7862901,N,07038.0565169,W,1,22,0.6,-0.061,M,-30.475,M,0.0,*49
###2023-05-05 13:06:32.647053$GNGGA,170713.20,4120.7861975,N,07038.0593309,W,1,22,0.6,-0.457,M,-30.475,M,0.0,*47
###2023-05-05 13:06:34.645658$GNGGA,170715.20,4120.7862312,N,07038.0622303,W,1,22,0.6,-0.480,M,-30.476,M,0.0,*43
###2023-05-05 13:06:36.647988$GNGGA,170717.20,4120.7863473,N,07038.0650747,W,1,22,0.6,-0.118,M,-30.476,M,0.0,*45
###2023-05-05 13:06:38.647912$GNGGA,170719.20,4120.7862491,N,07038.0681080,W,1,22,0.6,-0.148,M,-30.476,M,0.0,*43
###2023-05-05 13:06:40.648125$GNGGA,170721.20,4120.7862817,N,07038.0710649,W,1,22,0.6,-0.200,M,-30.476,M,0.0,*4F
###2023-05-05 13:06:42.646334$GNGGA,170723.20,4120.7861989,N,07038.0738500,W,1,22,0.6,-0.432,M,-30.476,M,0.0,*4B
###2023-05-05 13:06:44.645918$GNGGA,170725.20,4120.7861583,N,07038.0768163,W,1,22,0.6,-0.475,M,-30.476,M,0.0,*4C
###2023-05-05 13:06:46.648812$GNGGA,170727.20,4120.7861828,N,07038.0796637,W,1,22,0.6,-0.439,M,-30.476,M,0.0,*4D
###2023-05-05 13:06:48.648848$GNGGA,170729.20,4120.7862856,N,07038.0825946,W,1,22,0.6,-0.127,M,-30.476,M,0.0,*4D
###2023-05-05 13:06:50.648713$GNGGA,170731.20,4120.7863419,N,07038.0856282,W,1,22,0.6,-0.064,M,-30.476,M,0.0,*43
###2023-05-05 13:06:52.647744$GNGGA,170733.20,4120.7863204,N,07038.0884613,W,1,22,0.6,-0.159,M,-30.476,M,0.0,*47
###2023-05-05 13:06:54.649792$GNGGA,170735.20,4120.7863057,N,07038.0914160,W,1,22,0.6,-0.143,M,-30.476,M,0.0,*45
###2023-05-05 13:06:56.648643$GNGGA,170737.20,4120.7862179,N,07038.0941643,W,1,22,0.6,-0.284,M,-30.476,M,0.0,*45
###2023-05-05 13:06:58.646291$GNGGA,170739.20,4120.7861510,N,07038.0969963,W,1,22,0.6,-0.351,M,-30.476,M,0.0,*4D
###2023-05-05 13:07:00.647590$GNGGA,170741.20,4120.7862272,N,07038.0998288,W,1,22,0.6,-0.133,M,-30.476,M,0.0,*44
###2023-05-05 13:07:02.640824$GNGGA,170743.20,4120.7863254,N,07038.1028210,W,1,22,0.6,0.110,M,-30.476,M,0.0,*6D
###2023-05-05 13:07:04.647437$GNGGA,170745.20,4120.7862885,N,07038.1058350,W,1,22,0.6,-0.061,M,-30.476,M,0.0,*44
###2023-05-05 13:07:06.648469$GNGGA,170747.20,4120.7861629,N,07038.1086297,W,1,22,0.6,-0.169,M,-30.476,M,0.0,*4D
###2023-05-05 13:07:08.655330$GNGGA,170749.20,4120.7861433,N,07038.1114262,W,1,22,0.6,-0.289,M,-30.476,M,0.0,*47
###2023-05-05 13:07:10.648353$GNGGA,170751.20,4120.7862274,N,07038.1142875,W,1,22,0.6,-0.123,M,-30.476,M,0.0,*44
###2023-05-05 13:07:12.649267$GNGGA,170753.20,4120.7864109,N,07038.1174076,W,1,22,0.6,0.396,M,-30.476,M,0.0,*66
###2023-05-05 13:07:14.648168$GNGGA,170755.20,4120.7862140,N,07038.1203599,W,1,22,0.6,0.090,M,-30.476,M,0.0,*69
###2023-05-05 13:07:16.642743$GNGGA,170757.20,4120.7861058,N,07038.1231701,W,1,22,0.6,-0.171,M,-30.476,M,0.0,*41
###2023-05-05 13:07:18.650057$GNGGA,170759.20,4120.7861528,N,07038.1261290,W,1,22,0.6,-0.074,M,-30.476,M,0.0,*41
###2023-05-05 13:07:20.648283$GNGGA,170801.20,4120.7863375,N,07038.1289399,W,1,22,0.6,0.119,M,-30.477,M,0.0,*67
###2023-05-05 13:07:22.649111$GNGGA,170803.20,4120.7863213,N,07038.1321662,W,1,22,0.6,0.497,M,-30.477,M,0.0,*65
###2023-05-05 13:07:24.652082$GNGGA,170805.20,4120.7860404,N,07038.1350802,W,1,22,0.6,0.074,M,-30.477,M,0.0,*67
###2023-05-05 13:07:26.648188$GNGGA,170807.20,4120.7860864,N,07038.1377502,W,1,22,0.6,-0.141,M,-30.477,M,0.0,*4D
###2023-05-05 13:07:28.645933$GNGGA,170809.20,4120.7861406,N,07038.1406756,W,1,22,0.6,-0.077,M,-30.477,M,0.0,*4C
###2023-05-05 13:07:30.647776$GNGGA,170811.20,4120.7862337,N,07038.1435025,W,1,22,0.6,0.209,M,-30.477,M,0.0,*66
###2023-05-05 13:07:32.647067$GNGGA,170813.20,4120.7865084,N,07038.1466846,W,1,22,0.6,0.616,M,-30.477,M,0.0,*69
###2023-05-05 13:07:34.647862$GNGGA,170815.20,4120.7860465,N,07038.1496835,W,1,22,0.6,0.117,M,-30.477,M,0.0,*6C
###2023-05-05 13:07:36.648050$GNGGA,170817.20,4120.7858399,N,07038.1523993,W,1,22,0.6,-0.187,M,-30.477,M,0.0,*47
