###2023-05-05 12:14:22.590651$GNGGA,161503.20,4120.9151199,N,07038.2412564,W,1,21,0.7,3.220,M,-30.473,M,0.0,*61
###2023-05-05 12:14:24.592287$GNGGA,161505.20,4120.9151070,N,07038.2412701,W,1,21,0.7,3.254,M,-30.473,M,0.0,*63
###2023-05-05 12:14:26.585067$GNGGA,161507.20,4120.9150899,N,07038.2412855,W,1,21,0.7,3.299,M,-30.473,M,0.0,*60
###2023-05-05 12:14:28.587908$GNGGA,161509.20,4120.9150765,N,07038.2412857,W,1,21,0.7,3.347,M,-30.473,M,0.0,*62
###2023-05-05 12:14:30.584908$GNGGA,161511.20,4120.9150627,N,07038.2412927,W,1,20,0.8,3.359,M,-30.473,M,0.0,*6B
###2023-05-05 12:14:32.587376$GNGGA,161513.20,4120.9150389,N,07038.2412904,W,1,21,0.7,3.354,M,-30.473,M,0.0,*6A
###2023-05-05 12:14:34.589347$GNGGA,161515.20,4120.9150248,N,07038.2412927,W,1,21,0.7,3.374,M,-30.473,M,0.0,*63
###2023-05-05 12:14:36.591450$GNGGA,161517.20,4120.9150260,N,07038.2413029,W,1,21,0.7,3.413,M,-30.473,M,0.0,*6B
###2023-05-05 12:14:38.591709$GNGGA,161519.20,4120.9150252,N,07038.2413004,W,1,21,0.7,3.418,M,-30.473,M,0.0,*60
###2023-05-05 12:14:40.591847$GNGGA,161521.20,4120.9150231,N,07038.2412925,W,1,21,0.7,3.445,M,-30.473,M,0.0,*6D
###2023-05-05 12:14:42.592335$GNGGA,161523.20,4120.9150148,N,07038.2412985,W,1,21,0.7,3.419,M,-30.473,M,0.0,*61
###2023-05-05 12:14:44.591465$GNGGA,161525.20,4120.9150038,N,07038.2412979,W,1,21,0.7,3.380,M,-30.473,M,0.0,*65
###2023-05-05 12:14:46.591365$GNGGA,161527.20,4120.9149848,N,07038.2413005,W,1,21,0.7,3.327,M,-30.473,M,0.0,*6E
###2023-05-05 12:14:48.591581$GNGGA,161529.20,4120.9149688,N,07038.2412932,W,1,21,0.7,3.335,M,-30.473,M,0.0,*6D
###2023-05-05 12:14:50.584537$GNGGA,161531.20,4120.9149609,N,07038.2412866,W,1,20,0.7,3.345,M,-30.473,M,0.0,*6B
###2023-05-05 12:14:52.591243$GNGGA,161533.20,4120.9149661,N,07038.2412833,W,1,19,0.8,3.342,M,-30.473,M,0.0,*65
###2023-05-05 12:14:54.586465$GNGGA,161535.20,4120.9149564,N,07038.2412651,W,1,19,0.8,3.365,M,-30.473,M,0.0,*6A
###2023-05-05 12:14:56.591110$GNGGA,161537.20,4120.9149472,N,07038.2412635,W,1,19,0.7,3.380,M,-30.473,M,0.0,*68
###2023-05-05 12:14:58.588015$GNGGA,161539.20,4120.9149389,N,07038.2412594,W,1,20,0.7,3.366,M,-30.473,M,0.0,*6F
###2023-05-05 12:15:00.592257$GNGGA,161541.20,4120.9149339,N,07038.2412565,W,1,20,0.8,3.359,M,-30.473,M,0.0,*66
###2023-05-05 12:15:02.591019$GNGGA,161543.20,4120.9149204,N,07038.2412581,W,1,20,0.8,3.414,M,-30.473,M,0.0,*6F
###2023-05-05 12:15:04.591127$GNGGA,161545.20,4120.9149201,N,07038.2412505,W,1,18,1.0,3.422,M,-30.473,M,0.0,*67
###2023-05-05 12:15:06.591852$GNGGA,161547.20,4120.9149142,N,07038.2412574,W,1,20,0.8,3.455,M,-30.473,M,0.0,*65
###2023-05-05 12:15:08.588964$GNGGA,161549.20,4120.9149178,N,07038.2412585,W,1,20,0.8,3.455,M,-30.473,M,0.0,*6C
###2023-05-05 12:15:10.591820$GNGGA,161551.20,4120.9148905,N,07038.2412774,W,1,20,0.8,3.522,M,-30.473,M,0.0,*6B
###2023-05-05 12:15:12.592737$GNGGA,161553.20,4120.9148791,N,07038.2412819,W,1,20,0.8,3.567,M,-30.473,M,0.0,*6F
###2023-05-05 12:15:14.586749$GNGGA,161555.20,4120.9148768,N,07038.2412896,W,1,20,0.7,3.613,M,-30.473,M,0.0,*67
###2023-05-05 12:15:16.591810$GNGGA,161557.20,4120.9148688,N,07038.2412917,W,1,20,0.7,3.707,M,-30.473,M,0.0,*66
###2023-05-05 12:15:18.587055$GNGGA,161559.20,4120.9148667,N,07038.2412917,W,1,20,0.7,3.747,M,-30.473,M,0.0,*6D
###2023-05-05 12:15:20.591858$GNGGA,161601.20,4120.9148674,N,07038.2412968,W,1,20,0.8,3.755,M,-30.473,M,0.0,*65
###2023-05-05 12:15:22.594147$GNGGA,161603.20,4120.9148697,N,07038.2413014,W,1,20,0.7,3.758,M,-30.473,M,0.0,*6B
###2023-05-05 12:15:24.595083$GNGGA,161605.20,4120.9148802,N,07038.2413070,W,1,20,0.8,3.755,M,-30.473,M,0.0,*6F
###2023-05-05 12:15:26.591142$GNGGA,161607.20,4120.9148930,N,07038.2413064,W,1,20,0.8,3.760,M,-30.473,M,0.0,*6E
###2023-05-05 12:15:28.591458$GNGGA,161609.20,4120.9149035,N,07038.2413012,W,1,20,0.8,3.776,M,-30.473,M,0.0,*6B
###2023-05-05 12:15:30.592449$GNGGA,161611.20,4120.9149157,N,07038.2413044,W,1,21,0.7,3.722,M,-30.473,M,0.0,*6B
###2023-05-05 12:15:32.592415$GNGGA,161613.20,4120.9149300,N,07038.2413104,W,1,21,0.7,3.672,M,-30.473,M,0.0,*68
###2023-05-05 12:15:34.591349$GNGGA,161615.20,4120.9149348,N,07038.2413218,W,1,21,0.7,3.636,M,-30.473,M,0.0,*6C
###2023-05-05 12:15:36.592263$GNGGA,161617.20,4120.9149343,N,07038.2413220,W,1,21,0.7,3.664,M,-30.473,M,0.0,*69
###2023-05-05 12:15:38.592374$GNGGA,161619.20,4120.9149232,N,07038.2413109,W,1,21,0.7,3.721,M,-30.473,M,0.0,*68
###2023-05-05 12:15:40.592405$GNGGA,161621.20,4120.9149133,N,07038.2412933,W,1,21,0.7,3.774,M,-30.473,M,0.0,*61
###2023-05-05 12:15:42.593160$GNGGA,161623.20,4120.9149030,N,07038.2412857,W,1,21,0.7,3.786,M,-30.473,M,0.0,*6F
###2023-05-05 12:15:44.589321$GNGGA,161625.20,4120.9148995,N,07038.2412860,W,1,21,0.7,3.766,M,-30.473,M,0.0,*64
###2023-05-05 12:15:46.592172$GNGGA,161627.20,4120.9149046,N,07038.2412969,W,1,21,0.7,3.781,M,-30.473,M,0.0,*61
###2023-05-05 12:15:48.593196$GNGGA,161629.20,4120.9149099,N,07038.2413106,W,1,21,0.7,3.810,M,-30.473,M,0.0,*6A
###2023-05-05 12:15:50.585825$GNGGA,161631.20,4120.9149231,N,07038.2413113,W,1,20,0.7,3.801,M,-30.473,M,0.0,*66
###2023-05-05 12:15:52.592110$GNGGA,161633.20,4120.9149415,N,07038.2413254,W,1,19,0.8,3.760,M,-30.473,M,0.0,*69
###2023-05-05 12:15:54.586756$GNGGA,161635.20,4120.9149691,N,07038.2413245,W,1,20,0.8,3.672,M,-30.473,M,0.0,*69
###2023-05-05 12:15:56.593142$GNGGA,161637.20,4120.9149864,N,07038.2413416,W,1,20,0.8,3.598,M,-30.473,M,0.0,*68
###2023-05-05 12:15:58.593035$GNGGA,161639.20,4120.9150004,N,07038.2413620,W,1,20,0.8,3.566,M,-30.473,M,0.0,*66
###2023-05-05 12:16:00.593009$GNGGA,161641.20,4120.9150203,N,07038.2413765,W,1,20,0.8,3.481,M,-30.473,M,0.0,*64
###2023-05-05 12:16:02.591919$GNGGA,161643.20,4120.9150324,N,07038.2413850,W,1,20,0.8,3.432,M,-30.473,M,0.0,*63
###2023-05-05 12:16:04.592890$GNGGA,161645.20,4120.9150358,N,07038.2413922,W,1,20,0.8,3.396,M,-30.473,M,0.0,*63
###2023-05-05 12:16:06.597377$GNGGA,161647.20,4120.9150344,N,07038.2413995,W,1,21,0.7,3.350,M,-30.473,M,0.0,*64
###2023-05-05 12:16:08.596610$GNGGA,161649.20,4120.9150165,N,07038.2414131,W,1,21,0.7,3.388,M,-30.473,M,0.0,*6F
###2023-05-05 12:16:10.590797$GNGGA,161651.20,4120.9150123,N,07038.2414245,W,1,21,0.7,3.416,M,-30.473,M,0.0,*64
###2023-05-05 12:16:12.598239$GNGGA,161653.20,4120.9150239,N,07038.2414249,W,1,21,0.7,3.430,M,-30.473,M,0.0,*66
###2023-05-05 12:16:14.596385$GNGGA,161655.20,4120.9150319,N,07038.2414228,W,1,21,0.7,3.418,M,-30.473,M,0.0,*6E
###2023-05-05 12:16:16.596132$GNGGA,161657.20,4120.9150426,N,07038.2414073,W,1,21,0.7,3.406,M,-30.473,M,0.0,*64
###2023-05-05 12:16:18.599571$GNGGA,161659.20,4120.9150402,N,07038.2414040,W,1,20,0.8,3.407,M,-30.473,M,0.0,*63
###2023-05-05 12:16:20.592636$GNGGA,161701.20,4120.9150374,N,07038.2414040,W,1,18,0.7,3.401,M,-30.473,M,0.0,*6B
###2023-05-05 12:16:22.593538$GNGGA,161703.20,4120.9147001,N,07038.2411974,W,1,18,1.0,4.102,M,-30.473,M,0.0,*62
###2023-05-05 12:16:24.596191$GNGGA,161705.20,4120.9134920,N,07038.2408740,W,1,19,0.8,4.214,M,-30.473,M,0.0,*67
###2023-05-05 12:16:26.597740$GNGGA,161707.20,4120.9123861,N,07038.2405559,W,1,18,1.0,4.099,M,-30.473,M,0.0,*6F
###2023-05-05 12:16:28.592705$GNGGA,161709.20,4120.9114175,N,07038.2402092,W,1,20,0.7,3.703,M,-30.473,M,0.0,*62
###2023-05-05 12:16:30.594264$GNGGA,161711.20,4120.9100896,N,07038.2400597,W,1,20,0.7,3.304,M,-30.474,M,0.0,*6C
###2023-05-05 12:16:32.593916$GNGGA,161713.20,4120.9088974,N,07038.2399214,W,1,20,0.7,2.980,M,-30.474,M,0.0,*6E
###2023-05-05 12:16:34.593250$GNGGA,161715.20,4120.9078242,N,07038.2398536,W,1,19,0.8,2.633,M,-30.474,M,0.0,*6D
###2023-05-05 12:16:36.595905$GNGGA,161717.20,4120.9066180,N,07038.2397185,W,1,18,1.0,2.198,M,-30.474,M,0.0,*60
###2023-05-05 12:16:38.593825$GNGGA,161719.20,4120.9053806,N,07038.2393831,W,1,18,1.0,1.786,M,-30.474,M,0.0,*67
###2023-05-05 12:16:40.598204$GNGGA,161721.20,4120.9041742,N,07038.2391494,W,1,19,0.8,1.430,M,-30.474,M,0.0,*67
###2023-05-05 12:16:42.595725$GNGGA,161723.20,4120.9027116,N,07038.2387516,W,1,18,0.8,1.049,M,-30.474,M,0.0,*65
###2023-05-05 12:16:44.596823$GNGGA,161725.20,4120.9012993,N,07038.2382679,W,1,18,1.0,0.621,M,-30.474,M,0.0,*6F
###2023-05-05 12:16:46.594022$GNGGA,161727.20,4120.9000237,N,07038.2379158,W,1,18,1.0,0.322,M,-30.474,M,0.0,*6D
###2023-05-05 12:16:48.593913$GNGGA,161729.20,4120.8997581,N,07038.2378847,W,1,18,1.0,0.267,M,-30.474,M,0.0,*69
###2023-05-05 12:16:50.594542$GNGGA,161731.20,4120.8992964,N,07038.2377201,W,1,18,1.0,0.244,M,-30.474,M,0.0,*64
###2023-05-05 12:16:52.593895$GNGGA,161733.20,4120.8989445,N,07038.2374120,W,1,19,0.8,0.223,M,-30.474,M,0.0,*68
###2023-05-05 12:16:54.589909$GNGGA,161735.20,4120.8986269,N,07038.2373778,W,1,20,0.7,0.172,M,-30.474,M,0.0,*67
###2023-05-05 12:16:56.593373$GNGGA,161737.20,4120.8986346,N,07038.2374185,W,1,18,1.0,0.144,M,-30.474,M,0.0,*62
###2023-05-05 12:16:58.587808$GNGGA,161739.20,4120.8986390,N,07038.2374680,W,1,19,0.8,0.110,M,-30.474,M,0.0,*6C
###2023-05-05 12:17:00.594367$GNGGA,161741.20,4120.8988790,N,07038.2375373,W,1,19,0.8,0.153,M,-30.474,M,0.0,*66
###2023-05-05 12:17:02.587126$GNGGA,161743.20,4120.8988975,N,07038.2375445,W,1,20,0.7,0.205,M,-30.474,M,0.0,*66
###2023-05-05 12:17:04.590659$GNGGA,161745.20,4120.8989006,N,07038.2374887,W,1,19,0.8,0.263,M,-30.474,M,0.0,*6A
###2023-05-05 12:17:06.589152$GNGGA,161747.20,4120.8989119,N,07038.2374748,W,1,20,0.7,0.330,M,-30.474,M,0.0,*69
###2023-05-05 12:17:08.594460$GNGGA,161749.20,4120.8991399,N,07038.2375175,W,1,20,0.7,0.487,M,-30.474,M,0.0,*66
###2023-05-05 12:17:10.594329$GNGGA,161751.20,4120.8988791,N,07038.2378637,W,1,18,1.0,0.386,M,-30.474,M,0.0,*6C
###2023-05-05 12:17:12.590865$GNGGA,161753.20,4120.8985441,N,07038.2381916,W,1,18,1.0,0.273,M,-30.474,M,0.0,*6C
###2023-05-05 12:17:14.591453$GNGGA,161755.20,4120.8985764,N,07038.2381051,W,1,19,0.8,0.215,M,-30.474,M,0.0,*6C
###2023-05-05 12:17:16.591569$GNGGA,161757.20,4120.8985326,N,07038.2380230,W,1,18,1.0,0.172,M,-30.474,M,0.0,*62
###2023-05-05 12:17:18.595262$GNGGA,161759.20,4120.8981026,N,07038.2381339,W,1,19,0.8,0.124,M,-30.474,M,0.0,*69
###2023-05-05 12:17:20.589856$GNGGA,161801.20,4120.8970272,N,07038.2378999,W,1,21,0.7,-0.587,M,-30.474,M,0.0,*44
###2023-05-05 12:17:22.596132$GNGGA,161803.20,4120.8944827,N,07038.2377578,W,1,21,0.7,-0.959,M,-30.474,M,0.0,*48
###2023-05-05 12:17:24.595501$GNGGA,161805.20,4120.8917702,N,07038.2375599,W,1,21,0.7,-1.032,M,-30.474,M,0.0,*48
###2023-05-05 12:17:26.599025$GNGGA,161807.20,4120.8895452,N,07038.2368156,W,1,21,0.7,-1.093,M,-30.474,M,0.0,*47
###2023-05-05 12:17:28.594241$GNGGA,161809.20,4120.8880145,N,07038.2367448,W,1,21,0.7,-0.964,M,-30.474,M,0.0,*4B
###2023-05-05 12:17:30.594519$GNGGA,161811.20,4120.8857332,N,07038.2367405,W,1,21,0.7,-0.942,M,-30.474,M,0.0,*47
###2023-05-05 12:17:32.591128$GNGGA,161813.20,4120.8833748,N,07038.2369538,W,1,21,0.7,-0.665,M,-30.474,M,0.0,*45
###2023-05-05 12:17:34.589556$GNGGA,161815.20,4120.8808516,N,07038.2375657,W,1,21,0.7,-0.840,M,-30.475,M,0.0,*4D
###2023-05-05 12:17:36.598218$GNGGA,161817.20,4120.8778429,N,07038.2378142,W,1,21,0.7,-0.423,M,-30.475,M,0.0,*4D
###2023-05-05 12:17:38.596237$GNGGA,161819.20,4120.8747822,N,07038.2377868,W,1,21,0.7,-0.707,M,-30.475,M,0.0,*43
###2023-05-05 12:17:40.596627$GNGGA,161821.20,4120.8711184,N,07038.2377172,W,1,21,0.7,-0.646,M,-30.475,M,0.0,*48
