###2023-05-05 13:00:58.638209$GNGGA,170139.20,4120.8207798,N,07038.0610865,W,1,23,0.6,0.032,M,-30.474,M,0.0,*62
###2023-05-05 13:01:00.637564$GNGGA,170141.20,4120.8182487,N,07038.0610997,W,1,22,0.6,0.015,M,-30.474,M,0.0,*66
###2023-05-05 13:01:02.637561$GNGGA,170143.20,4120.8157836,N,07038.0612891,W,1,23,0.6,0.173,M,-30.474,M,0.0,*6F
###2023-05-05 13:01:04.637479$GNGGA,170145.20,4120.8132923,N,07038.0612998,W,1,23,0.6,0.256,M,-30.475,M,0.0,*62
###2023-05-05 13:01:06.638445$GNGGA,170147.20,4120.8106823,N,07038.0612751,W,1,23,0.6,0.259,M,-30.475,M,0.0,*62
###2023-05-05 13:01:08.639771$GNGGA,170149.20,4120.8081940,N,07038.0613959,W,1,23,0.6,0.322,M,-30.475,M,0.0,*6C
###2023-05-05 13:01:10.639647$GNGGA,170151.20,4120.8057755,N,07038.0614259,W,1,23,0.6,0.310,M,-30.475,M,0.0,*69
###2023-05-05 13:01:12.640617$GNGGA,170153.20,4120.8034315,N,07038.0613570,W,1,23,0.6,0.312,M,-30.475,M,0.0,*67
###2023-05-05 13:01:14.640589$GNGGA,170155.20,4120.8009427,N,07038.0611296,W,1,23,0.6,0.178,M,-30.475,M,0.0,*6A
###2023-05-05 13:01:16.640740$GNGGA,170157.20,4120.7983539,N,07038.0611792,W,1,23,0.6,0.323,M,-30.475,M,0.0,*6F
###2023-05-05 13:01:18.640543$GNGGA,170159.20,4120.7958263,N,07038.0611633,W,1,23,0.6,0.109,M,-30.475,M,0.0,*6F
###2023-05-05 13:01:20.639719$GNGGA,170201.20,4120.7932261,N,07038.0611431,W,1,23,0.6,0.149,M,-30.475,M,0.0,*6B
###2023-05-05 13:01:22.640534$GNGGA,170203.20,4120.7906475,N,07038.0612099,W,1,23,0.6,0.119,M,-30.475,M,0.0,*6D
###2023-05-05 13:01:24.640491$GNGGA,170205.20,4120.7880448,N,07038.0612819,W,1,23,0.6,0.216,M,-30.475,M,0.0,*66
###2023-05-05 13:01:26.641675$GNGGA,170207.20,4120.7854185,N,07038.0612286,W,1,23,0.6,0.138,M,-30.476,M,0.0,*69
###2023-05-05 13:01:28.640174$GNGGA,170209.20,4120.7827414,N,07038.0612084,W,1,23,0.6,0.138,M,-30.476,M,0.0,*6E
###2023-05-05 13:01:30.639010$GNGGA,170211.20,4120.7801690,N,07038.0612893,W,1,23,0.6,0.208,M,-30.476,M,0.0,*63
###2023-05-05 13:01:32.639250$GNGGA,170213.20,4120.7774931,N,07038.0611261,W,1,23,0.6,-0.092,M,-30.476,M,0.0,*40
###2023-05-05 13:01:34.639112$GNGGA,170215.20,4120.7749103,N,07038.0608674,W,1,23,0.6,0.114,M,-30.476,M,0.0,*6B
###2023-05-05 13:01:36.640262$GNGGA,170217.20,4120.7731554,N,07038.0595826,W,1,23,0.6,0.275,M,-30.476,M,0.0,*6A
###2023-05-05 13:01:38.642237$GNGGA,170219.20,4120.7724854,N,07038.0573436,W,1,22,0.6,0.214,M,-30.476,M,0.0,*6E
###2023-05-05 13:01:40.642231$GNGGA,170221.20,4120.7728197,N,07038.0545906,W,1,22,0.6,0.033,M,-30.476,M,0.0,*63
###2023-05-05 13:01:42.641205$GNGGA,170223.20,4120.7738917,N,07038.0518620,W,1,22,0.6,0.107,M,-30.476,M,0.0,*65
###2023-05-05 13:01:44.641061$GNGGA,170225.20,4120.7748002,N,07038.0482930,W,1,22,0.6,0.086,M,-30.476,M,0.0,*6D
###2023-05-05 13:01:46.640983$GNGGA,170227.20,4120.7762424,N,07038.0456966,W,1,22,0.6,0.145,M,-30.476,M,0.0,*63
###2023-05-05 13:01:48.641820$GNGGA,170229.20,4120.7781007,N,07038.0444419,W,1,22,0.6,0.169,M,-30.476,M,0.0,*6D
###2023-05-05 13:01:50.640967$GNGGA,170231.20,4120.7801313,N,07038.0448031,W,1,22,0.6,0.219,M,-30.476,M,0.0,*63
###2023-05-05 13:01:52.640929$GNGGA,170233.20,4120.7821208,N,07038.0462174,W,1,22,0.6,-0.017,M,-30.475,M,0.0,*42
###2023-05-05 13:01:54.640762$GNGGA,170235.20,4120.7847062,N,07038.0468469,W,1,22,0.6,0.045,M,-30.475,M,0.0,*63
###2023-05-05 13:01:56.639848$GNGGA,170237.20,4120.7871832,N,07038.0470898,W,1,22,0.6,0.039,M,-30.475,M,0.0,*69
###2023-05-05 13:01:58.639632$GNGGA,170239.20,4120.7894718,N,07038.0472165,W,1,22,0.6,-0.052,M,-30.475,M,0.0,*42
###2023-05-05 13:02:00.639499$GNGGA,170241.20,4120.7917051,N,07038.0474159,W,1,22,0.6,0.070,M,-30.475,M,0.0,*69
###2023-05-05 13:02:02.641129$GNGGA,170243.20,4120.7939099,N,07038.0474505,W,1,22,0.6,0.119,M,-30.475,M,0.0,*60
###2023-05-05 13:02:04.638360$GNGGA,170245.20,4120.7961268,N,07038.0473366,W,1,22,0.6,0.112,M,-30.475,M,0.0,*68
###2023-05-05 13:02:06.640646$GNGGA,170247.20,4120.7983758,N,07038.0472895,W,1,22,0.6,0.171,M,-30.475,M,0.0,*63
###2023-05-05 13:02:08.640624$GNGGA,170249.20,4120.8005055,N,07038.0471266,W,1,22,0.6,0.202,M,-30.475,M,0.0,*6D
###2023-05-05 13:02:10.641694$GNGGA,170251.20,4120.8025760,N,07038.0471702,W,1,22,0.6,0.086,M,-30.475,M,0.0,*6E
###2023-05-05 13:02:12.641839$GNGGA,170253.20,4120.8046921,N,07038.0471587,W,1,22,0.6,-0.121,M,-30.475,M,0.0,*4C
###2023-05-05 13:02:14.635382$GNGGA,170255.20,4120.8067971,N,07038.0470996,W,1,22,0.6,-0.085,M,-30.475,M,0.0,*4E
###2023-05-05 13:02:16.640854$GNGGA,170257.20,4120.8089647,N,07038.0471130,W,1,22,0.6,0.001,M,-30.474,M,0.0,*63
###2023-05-05 13:02:18.641504$GNGGA,170259.20,4120.8112229,N,07038.0470702,W,1,22,0.6,0.156,M,-30.474,M,0.0,*67
###2023-05-05 13:02:20.641390$GNGGA,170301.20,4120.8141394,N,07038.0465722,W,1,22,0.6,0.685,M,-30.474,M,0.0,*65
###2023-05-05 13:02:22.642391$GNGGA,170303.20,4120.8172473,N,07038.0458384,W,1,22,0.6,0.515,M,-30.474,M,0.0,*65
###2023-05-05 13:02:24.642197$GNGGA,170305.20,4120.8190015,N,07038.0450246,W,1,22,0.6,0.377,M,-30.474,M,0.0,*6E
###2023-05-05 13:02:26.644498$GNGGA,170307.20,4120.8214484,N,07038.0456407,W,1,22,0.6,0.339,M,-30.474,M,0.0,*60
###2023-05-05 13:02:28.634664$GNGGA,170309.20,4120.8234606,N,07038.0463473,W,1,22,0.6,0.157,M,-30.474,M,0.0,*6B
###2023-05-05 13:02:30.642316$GNGGA,170311.20,4120.8254550,N,07038.0464129,W,1,22,0.6,0.199,M,-30.474,M,0.0,*6B
###2023-05-05 13:02:32.640150$GNGGA,170313.20,4120.8275703,N,07038.0465296,W,1,22,0.6,0.135,M,-30.474,M,0.0,*6E
###2023-05-05 13:02:34.641248$GNGGA,170315.20,4120.8298503,N,07038.0465693,W,1,22,0.6,0.162,M,-30.474,M,0.0,*6A
###2023-05-05 13:02:36.642184$GNGGA,170317.20,4120.8323421,N,07038.0466493,W,1,22,0.6,0.257,M,-30.474,M,0.0,*6C
###2023-05-05 13:02:38.642005$GNGGA,170319.20,4120.8351213,N,07038.0466410,W,1,22,0.6,0.457,M,-30.473,M,0.0,*6A
###2023-05-05 13:02:40.642065$GNGGA,170321.20,4120.8379793,N,07038.0468493,W,1,22,0.6,0.555,M,-30.473,M,0.0,*60
###2023-05-05 13:02:42.641994$GNGGA,170323.20,4120.8406607,N,07038.0470958,W,1,22,0.6,0.437,M,-30.473,M,0.0,*67
###2023-05-05 13:02:44.643087$GNGGA,170325.20,4120.8432129,N,07038.0472263,W,1,22,0.6,0.366,M,-30.473,M,0.0,*6F
###2023-05-05 13:02:46.642008$GNGGA,170327.20,4120.8457000,N,07038.0470130,W,1,22,0.6,0.101,M,-30.473,M,0.0,*60
###2023-05-05 13:02:48.642267$GNGGA,170329.20,4120.8484035,N,07038.0468544,W,1,22,0.6,0.256,M,-30.473,M,0.0,*69
###2023-05-05 13:02:50.642898$GNGGA,170331.20,4120.8511374,N,07038.0468432,W,1,22,0.6,0.224,M,-30.473,M,0.0,*6E
###2023-05-05 13:02:52.636349$GNGGA,170333.20,4120.8538078,N,07038.0469013,W,1,22,0.6,-0.052,M,-30.473,M,0.0,*40
###2023-05-05 13:02:54.641897$GNGGA,170335.20,4120.8564651,N,07038.0468513,W,1,22,0.6,-0.172,M,-30.473,M,0.0,*45
###2023-05-05 13:02:56.643847$GNGGA,170337.20,4120.8592227,N,07038.0467747,W,1,22,0.6,-0.106,M,-30.473,M,0.0,*44
###2023-05-05 13:02:58.641152$GNGGA,170339.20,4120.8621150,N,07038.0467739,W,1,22,0.6,0.032,M,-30.472,M,0.0,*61
###2023-05-05 13:03:00.640721$GNGGA,170341.20,4120.8652319,N,07038.0468157,W,1,22,0.6,0.081,M,-30.472,M,0.0,*6C
###2023-05-05 13:03:02.641426$GNGGA,170343.20,4120.8682854,N,07038.0470688,W,1,22,0.6,0.250,M,-30.472,M,0.0,*63
###2023-05-05 13:03:04.641801$GNGGA,170345.20,4120.8708640,N,07038.0474138,W,1,22,0.6,0.070,M,-30.472,M,0.0,*65
###2023-05-05 13:03:06.638022$GNGGA,170347.20,4120.8732865,N,07038.0471485,W,1,22,0.6,-0.035,M,-30.472,M,0.0,*4D
###2023-05-05 13:03:08.641624$GNGGA,170349.20,4120.8757822,N,07038.0468447,W,1,22,0.6,-0.218,M,-30.472,M,0.0,*48
###2023-05-05 13:03:10.642783$GNGGA,170351.20,4120.8785731,N,07038.0466001,W,1,22,0.6,-0.227,M,-30.472,M,0.0,*47
###2023-05-05 13:03:12.642541$GNGGA,170353.20,4120.8817339,N,07038.0464801,W,1,22,0.6,-0.117,M,-30.472,M,0.0,*47
###2023-05-05 13:03:14.643454$GNGGA,170355.20,4120.8844777,N,07038.0455988,W,1,22,0.6,0.204,M,-30.472,M,0.0,*67
###2023-05-05 13:03:16.642453$GNGGA,170357.20,4120.8859024,N,07038.0441168,W,1,22,0.6,-0.145,M,-30.472,M,0.0,*40
###2023-05-05 13:03:18.644422$GNGGA,170359.20,4120.8866903,N,07038.0415935,W,1,22,0.6,0.365,M,-30.471,M,0.0,*61
###2023-05-05 13:03:20.644499$GNGGA,170401.20,4120.8858487,N,07038.0393484,W,1,23,0.6,-0.043,M,-30.471,M,0.0,*42
###2023-05-05 13:03:22.642480$GNGGA,170403.20,4120.8841209,N,07038.0364235,W,1,23,0.6,0.193,M,-30.471,M,0.0,*6D
###2023-05-05 13:03:24.639868$GNGGA,170405.20,4120.8826791,N,07038.0325210,W,1,23,0.6,0.049,M,-30.471,M,0.0,*6A
###2023-05-05 13:03:26.642409$GNGGA,170407.20,4120.8807890,N,07038.0311215,W,1,22,0.6,-0.088,M,-30.472,M,0.0,*45
###2023-05-05 13:03:28.640170$GNGGA,170409.20,4120.8788972,N,07038.0313547,W,1,22,0.6,0.073,M,-30.472,M,0.0,*65
###2023-05-05 13:03:30.644346$GNGGA,170411.20,4120.8766207,N,07038.0323855,W,1,22,0.6,0.171,M,-30.472,M,0.0,*6B
###2023-05-05 13:03:32.643143$GNGGA,170413.20,4120.8738931,N,07038.0327599,W,1,22,0.6,0.189,M,-30.472,M,0.0,*62
###2023-05-05 13:03:34.641975$GNGGA,170415.20,4120.8712430,N,07038.0330062,W,1,23,0.6,0.170,M,-30.472,M,0.0,*60
###2023-05-05 13:03:36.644008$GNGGA,170417.20,4120.8686608,N,07038.0328287,W,1,23,0.6,0.134,M,-30.472,M,0.0,*67
###2023-05-05 13:03:38.644049$GNGGA,170419.20,4120.8664267,N,07038.0327999,W,1,23,0.6,0.496,M,-30.472,M,0.0,*6E
###2023-05-05 13:03:40.644008$GNGGA,170421.20,4120.8641697,N,07038.0327324,W,1,22,0.6,0.194,M,-30.472,M,0.0,*63
###2023-05-05 13:03:42.643963$GNGGA,170423.20,4120.8620356,N,07038.0329722,W,1,22,0.6,0.152,M,-30.472,M,0.0,*68
###2023-05-05 13:03:44.643009$GNGGA,170425.20,4120.8599428,N,07038.0326814,W,1,23,0.6,0.708,M,-30.472,M,0.0,*6C
###2023-05-05 13:03:46.645069$GNGGA,170427.20,4120.8577216,N,07038.0326291,W,1,23,0.6,0.218,M,-30.472,M,0.0,*66
###2023-05-05 13:03:48.643886$GNGGA,170429.20,4120.8556248,N,07038.0326339,W,1,23,0.6,0.338,M,-30.472,M,0.0,*60
###2023-05-05 13:03:50.644023$GNGGA,170431.20,4120.8534759,N,07038.0326941,W,1,23,0.6,0.525,M,-30.473,M,0.0,*66
###2023-05-05 13:03:52.643874$GNGGA,170433.20,4120.8513447,N,07038.0326696,W,1,22,0.6,0.662,M,-30.473,M,0.0,*69
###2023-05-05 13:03:54.644816$GNGGA,170435.20,4120.8491587,N,07038.0325645,W,1,23,0.6,0.501,M,-30.473,M,0.0,*63
###2023-05-05 13:03:56.643856$GNGGA,170437.20,4120.8469884,N,07038.0325006,W,1,23,0.6,0.336,M,-30.473,M,0.0,*6B
###2023-05-05 13:03:58.641409$GNGGA,170439.20,4120.8447963,N,07038.0325101,W,1,22,0.6,0.585,M,-30.473,M,0.0,*68
###2023-05-05 13:04:00.642572$GNGGA,170441.20,4120.8426522,N,07038.0324642,W,1,23,0.6,0.298,M,-30.473,M,0.0,*62
###2023-05-05 13:04:02.642684$GNGGA,170443.20,4120.8404238,N,07038.0324567,W,1,23,0.6,0.287,M,-30.473,M,0.0,*66
###2023-05-05 13:04:04.642521$GNGGA,170445.20,4120.8380945,N,07038.0324666,W,1,23,0.6,0.405,M,-30.473,M,0.0,*64
###2023-05-05 13:04:06.645532$GNGGA,170447.20,4120.8358858,N,07038.0324829,W,1,23,0.6,0.393,M,-30.473,M,0.0,*63
###2023-05-05 13:04:08.644626$GNGGA,170449.20,4120.8336360,N,07038.0324885,W,1,23,0.6,0.612,M,-30.473,M,0.0,*6F
###2023-05-05 13:04:10.644581$GNGGA,170451.20,4120.8314088,N,07038.0325176,W,1,23,0.6,0.491,M,-30.473,M,0.0,*6E
###2023-05-05 13:04:12.644598$GNGGA,170453.20,4120.8290819,N,07038.0323474,W,1,23,0.6,0.317,M,-30.473,M,0.0,*69
###2023-05-05 13:04:14.646424$GNGGA,170455.20,4120.8266028,N,07038.0323974,W,1,23,0.6,0.547,M,-30.474,M,0.0,*65
###2023-05-05 13:04:16.640831$GNGGA,170457.20,4120.8242838,N,07038.0325164,W,1,23,0.6,0.490,M,-30.474,M,0.0,*6C
