###2023-05-05 14:00:50.717005$GNGGA,180131.20,4120.8723982,N,07038.2645027,W,1,23,0.6,0.505,M,-30.475,M,0.0,*6F
###2023-05-05 14:00:52.716172$GNGGA,180133.20,4120.8724423,N,07038.2615908,W,1,23,0.6,0.317,M,-30.475,M,0.0,*68
###2023-05-05 14:00:54.726539$GNGGA,180135.20,4120.8725341,N,07038.2587061,W,1,23,0.6,0.541,M,-30.475,M,0.0,*67
###2023-05-05 14:00:56.718496$GNGGA,180137.20,4120.8726060,N,07038.2559073,W,1,22,0.6,1.038,M,-30.475,M,0.0,*6D
###2023-05-05 14:00:58.713746$GNGGA,180139.20,4120.8723003,N,07038.2530230,W,1,23,0.6,0.378,M,-30.475,M,0.0,*6E
###2023-05-05 14:01:00.714730$GNGGA,180141.20,4120.8722256,N,07038.2501610,W,1,23,0.6,0.340,M,-30.475,M,0.0,*6D
###2023-05-05 14:01:02.710520$GNGGA,180143.20,4120.8724954,N,07038.2472223,W,1,23,0.6,0.473,M,-30.475,M,0.0,*66
###2023-05-05 14:01:04.714573$GNGGA,180145.20,4120.8722107,N,07038.2443506,W,1,23,0.6,0.298,M,-30.475,M,0.0,*69
###2023-05-05 14:01:06.716852$GNGGA,180147.20,4120.8725579,N,07038.2414947,W,1,23,0.6,1.071,M,-30.475,M,0.0,*6E
###2023-05-05 14:01:08.716618$GNGGA,180149.20,4120.8723349,N,07038.2386808,W,1,23,0.6,0.493,M,-30.475,M,0.0,*6C
###2023-05-05 14:01:10.716810$GNGGA,180151.20,4120.8718870,N,07038.2357696,W,1,23,0.6,0.267,M,-30.475,M,0.0,*64
###2023-05-05 14:01:12.716689$GNGGA,180153.20,4120.8724345,N,07038.2329008,W,1,23,0.6,0.504,M,-30.475,M,0.0,*6E
###2023-05-05 14:01:14.720131$GNGGA,180155.20,4120.8722118,N,07038.2299888,W,1,23,0.6,0.484,M,-30.475,M,0.0,*67
###2023-05-05 14:01:16.716375$GNGGA,180157.20,4120.8725843,N,07038.2270625,W,1,23,0.6,0.755,M,-30.475,M,0.0,*64
###2023-05-05 14:01:18.716440$GNGGA,180159.20,4120.8723237,N,07038.2241351,W,1,23,0.6,0.520,M,-30.475,M,0.0,*61
###2023-05-05 14:01:20.722722$GNGGA,180201.20,4120.8723737,N,07038.2213227,W,1,23,0.6,0.580,M,-30.475,M,0.0,*67
###2023-05-05 14:01:22.719542$GNGGA,180203.20,4120.8724881,N,07038.2184543,W,1,22,0.6,0.595,M,-30.475,M,0.0,*6D
###2023-05-05 14:01:24.711869$GNGGA,180205.20,4120.8725640,N,07038.2155031,W,1,22,0.6,0.378,M,-30.475,M,0.0,*60
###2023-05-05 14:01:26.719861$GNGGA,180207.20,4120.8726982,N,07038.2124443,W,1,23,0.6,0.299,M,-30.475,M,0.0,*68
###2023-05-05 14:01:28.715333$GNGGA,180209.20,4120.8728596,N,07038.2095454,W,1,22,0.6,0.619,M,-30.474,M,0.0,*60
###2023-05-05 14:01:30.716306$GNGGA,180211.20,4120.8727240,N,07038.2067785,W,1,22,0.6,0.597,M,-30.474,M,0.0,*6D
###2023-05-05 14:01:32.722554$GNGGA,180213.20,4120.8724620,N,07038.2038679,W,1,23,0.6,0.354,M,-30.474,M,0.0,*6E
###2023-05-05 14:01:34.716108$GNGGA,180215.20,4120.8728591,N,07038.2009502,W,1,23,0.6,0.558,M,-30.474,M,0.0,*6A
###2023-05-05 14:01:36.718332$GNGGA,180217.20,4120.8726688,N,07038.1980694,W,1,23,0.6,0.289,M,-30.474,M,0.0,*61
###2023-05-05 14:01:38.718824$GNGGA,180219.20,4120.8727221,N,07038.1951356,W,1,23,0.6,0.595,M,-30.474,M,0.0,*64
###2023-05-05 14:01:40.717112$GNGGA,180221.20,4120.8725752,N,07038.1922921,W,1,23,0.6,0.394,M,-30.474,M,0.0,*65
###2023-05-05 14:01:42.719105$GNGGA,180223.20,4120.8728086,N,07038.1893539,W,1,23,0.6,0.446,M,-30.474,M,0.0,*62
###2023-05-05 14:01:44.718448$GNGGA,180225.20,4120.8727887,N,07038.1864560,W,1,23,0.6,0.370,M,-30.474,M,0.0,*64
###2023-05-05 14:01:46.718603$GNGGA,180227.20,4120.8727838,N,07038.1835601,W,1,23,0.6,0.323,M,-30.474,M,0.0,*64
###2023-05-05 14:01:48.718136$GNGGA,180229.20,4120.8728125,N,07038.1806310,W,1,23,0.6,0.543,M,-30.474,M,0.0,*65
###2023-05-05 14:01:50.721300$GNGGA,180231.20,4120.8729168,N,07038.1776668,W,1,22,0.6,0.831,M,-30.474,M,0.0,*6F
###2023-05-05 14:01:52.718171$GNGGA,180233.20,4120.8726079,N,07038.1747665,W,1,23,0.6,0.341,M,-30.474,M,0.0,*61
###2023-05-05 14:01:54.717818$GNGGA,180235.20,4120.8725168,N,07038.1718153,W,1,23,0.6,0.266,M,-30.474,M,0.0,*69
###2023-05-05 14:01:56.718518$GNGGA,180237.20,4120.8727071,N,07038.1688156,W,1,23,0.6,0.362,M,-30.474,M,0.0,*68
###2023-05-05 14:01:58.715639$GNGGA,180239.20,4120.8727419,N,07038.1659289,W,1,23,0.6,0.473,M,-30.474,M,0.0,*66
###2023-05-05 14:02:00.716693$GNGGA,180241.20,4120.8727886,N,07038.1630818,W,1,23,0.6,0.657,M,-30.474,M,0.0,*6A
###2023-05-05 14:02:02.716613$GNGGA,180243.20,4120.8727243,N,07038.1603594,W,1,22,0.6,0.358,M,-30.474,M,0.0,*69
###2023-05-05 14:02:04.716701$GNGGA,180245.20,4120.8727882,N,07038.1574388,W,1,23,0.6,0.318,M,-30.474,M,0.0,*65
###2023-05-05 14:02:06.717785$GNGGA,180247.20,4120.8728260,N,07038.1545095,W,1,23,0.6,0.419,M,-30.474,M,0.0,*65
###2023-05-05 14:02:08.719035$GNGGA,180249.20,4120.8726597,N,07038.1517038,W,1,23,0.6,0.188,M,-30.474,M,0.0,*67
###2023-05-05 14:02:10.716500$GNGGA,180251.20,4120.8726637,N,07038.1487918,W,1,23,0.6,0.431,M,-30.474,M,0.0,*63
###2023-05-05 14:02:12.716538$GNGGA,180253.20,4120.8726802,N,07038.1458232,W,1,22,0.6,0.464,M,-30.474,M,0.0,*69
###2023-05-05 14:02:14.719252$GNGGA,180255.20,4120.8727767,N,07038.1429447,W,1,23,0.6,0.420,M,-30.473,M,0.0,*66
###2023-05-05 14:02:16.719278$GNGGA,180257.20,4120.8727627,N,07038.1400450,W,1,22,0.6,0.236,M,-30.473,M,0.0,*6C
###2023-05-05 14:02:18.718429$GNGGA,180259.20,4120.8728828,N,07038.1370713,W,1,22,0.6,0.455,M,-30.473,M,0.0,*6B
###2023-05-05 14:02:20.718668$GNGGA,180301.20,4120.8728669,N,07038.1342719,W,1,22,0.6,0.422,M,-30.473,M,0.0,*67
###2023-05-05 14:02:22.720063$GNGGA,180303.20,4120.8727339,N,07038.1314006,W,1,23,0.6,0.398,M,-30.473,M,0.0,*67
###2023-05-05 14:02:24.718322$GNGGA,180305.20,4120.8726742,N,07038.1284023,W,1,22,0.6,0.384,M,-30.473,M,0.0,*6B
###2023-05-05 14:02:26.714298$GNGGA,180307.20,4120.8727224,N,07038.1254884,W,1,22,0.6,0.304,M,-30.473,M,0.0,*6D
###2023-05-05 14:02:28.717753$GNGGA,180309.20,4120.8726519,N,07038.1225844,W,1,23,0.6,0.236,M,-30.473,M,0.0,*60
###2023-05-05 14:02:30.717177$GNGGA,180311.20,4120.8726696,N,07038.1196987,W,1,23,0.6,0.317,M,-30.473,M,0.0,*6A
###2023-05-05 14:02:32.716146$GNGGA,180313.20,4120.8726014,N,07038.1167933,W,1,23,0.6,0.172,M,-30.473,M,0.0,*64
###2023-05-05 14:02:34.717078$GNGGA,180315.20,4120.8727356,N,07038.1137951,W,1,23,0.6,0.149,M,-30.473,M,0.0,*6F
###2023-05-05 14:02:36.718198$GNGGA,180317.20,4120.8727732,N,07038.1108454,W,1,23,0.6,0.165,M,-30.473,M,0.0,*61
###2023-05-05 14:02:38.718036$GNGGA,180319.20,4120.8728768,N,07038.1079562,W,1,23,0.6,0.367,M,-30.473,M,0.0,*6C
###2023-05-05 14:02:40.719016$GNGGA,180321.20,4120.8726810,N,07038.1051404,W,1,23,0.6,0.266,M,-30.473,M,0.0,*62
###2023-05-05 14:02:42.719050$GNGGA,180323.20,4120.8728252,N,07038.1022420,W,1,23,0.6,0.257,M,-30.473,M,0.0,*62
###2023-05-05 14:02:44.719000$GNGGA,180325.20,4120.8728427,N,07038.0992670,W,1,23,0.6,0.211,M,-30.473,M,0.0,*66
###2023-05-05 14:02:46.719410$GNGGA,180327.20,4120.8729107,N,07038.0963788,W,1,23,0.6,0.347,M,-30.473,M,0.0,*68
###2023-05-05 14:02:48.718900$GNGGA,180329.20,4120.8728379,N,07038.0934094,W,1,22,0.6,0.399,M,-30.473,M,0.0,*66
###2023-05-05 14:02:50.718004$GNGGA,180331.20,4120.8729574,N,07038.0905419,W,1,22,0.6,0.552,M,-30.473,M,0.0,*67
###2023-05-05 14:02:52.723591$GNGGA,180333.20,4120.8724048,N,07038.0879046,W,1,24,0.6,0.313,M,-30.473,M,0.0,*63
###2023-05-05 14:02:54.718841$GNGGA,180335.20,4120.8726646,N,07038.0848978,W,1,23,0.6,0.291,M,-30.473,M,0.0,*65
###2023-05-05 14:02:56.722128$GNGGA,180337.20,4120.8728035,N,07038.0819342,W,1,23,0.6,0.410,M,-30.473,M,0.0,*63
###2023-05-05 14:02:58.716720$GNGGA,180339.20,4120.8728983,N,07038.0790005,W,1,23,0.6,0.373,M,-30.473,M,0.0,*65
###2023-05-05 14:03:00.716747$GNGGA,180341.20,4120.8730397,N,07038.0759440,W,1,24,0.6,0.568,M,-30.472,M,0.0,*66
###2023-05-05 14:03:02.718680$GNGGA,180343.20,4120.8729094,N,07038.0731193,W,1,23,0.6,0.422,M,-30.472,M,0.0,*61
###2023-05-05 14:03:04.723417$GNGGA,180345.20,4120.8722238,N,07038.0704275,W,1,24,0.6,0.429,M,-30.472,M,0.0,*69
###2023-05-05 14:03:06.718533$GNGGA,180347.20,4120.8725720,N,07038.0674164,W,1,23,0.6,0.507,M,-30.472,M,0.0,*6F
###2023-05-05 14:03:08.721882$GNGGA,180349.20,4120.8728170,N,07038.0644585,W,1,23,0.6,0.432,M,-30.472,M,0.0,*60
###2023-05-05 14:03:10.718516$GNGGA,180351.20,4120.8730011,N,07038.0615998,W,1,23,0.6,0.657,M,-30.472,M,0.0,*63
###2023-05-05 14:03:12.720538$GNGGA,180353.20,4120.8723312,N,07038.0588513,W,1,24,0.6,0.321,M,-30.472,M,0.0,*68
###2023-05-05 14:03:14.718443$GNGGA,180355.20,4120.8726486,N,07038.0558460,W,1,23,0.6,0.727,M,-30.472,M,0.0,*6C
###2023-05-05 14:03:16.720130$GNGGA,180357.20,4120.8728427,N,07038.0529043,W,1,23,0.6,0.772,M,-30.472,M,0.0,*68
###2023-05-05 14:03:18.720999$GNGGA,180359.20,4120.8727960,N,07038.0499943,W,1,23,0.6,0.496,M,-30.472,M,0.0,*6D
###2023-05-05 14:03:20.721025$GNGGA,180401.20,4120.8728163,N,07038.0470591,W,1,24,0.6,0.550,M,-30.472,M,0.0,*6B
###2023-05-05 14:03:22.720871$GNGGA,180403.20,4120.8729207,N,07038.0442855,W,1,24,0.6,0.765,M,-30.472,M,0.0,*69
###2023-05-05 14:03:24.727707$GNGGA,180405.20,4120.8728217,N,07038.0414722,W,1,23,0.6,0.617,M,-30.472,M,0.0,*60
###2023-05-05 14:03:26.721824$GNGGA,180407.20,4120.8728099,N,07038.0385947,W,1,24,0.6,0.659,M,-30.472,M,0.0,*69
###2023-05-05 14:03:28.719174$GNGGA,180409.20,4120.8727900,N,07038.0357132,W,1,24,0.6,0.362,M,-30.472,M,0.0,*69
###2023-05-05 14:03:30.720079$GNGGA,180411.20,4120.8728553,N,07038.0327297,W,1,24,0.6,0.665,M,-30.472,M,0.0,*6C
###2023-05-05 14:03:32.718121$GNGGA,180413.20,4120.8727561,N,07038.0298470,W,1,24,0.6,0.748,M,-30.472,M,0.0,*64
###2023-05-05 14:03:34.719145$GNGGA,180415.20,4120.8733725,N,07038.0269941,W,1,23,0.6,0.768,M,-30.472,M,0.0,*61
###2023-05-05 14:03:36.722705$GNGGA,180417.20,4120.8728806,N,07038.0243137,W,1,24,0.6,0.474,M,-30.472,M,0.0,*6F
###2023-05-05 14:03:38.721627$GNGGA,180419.20,4120.8732151,N,07038.0218690,W,1,24,0.6,0.663,M,-30.472,M,0.0,*61
###2023-05-05 14:03:40.720007$GNGGA,180421.20,4120.8728508,N,07038.0203826,W,1,23,0.6,0.448,M,-30.472,M,0.0,*6C
###2023-05-05 14:03:42.726116$GNGGA,180423.20,4120.8726312,N,07038.0194609,W,1,23,0.6,0.641,M,-30.472,M,0.0,*68
###2023-05-05 14:03:44.719549$GNGGA,180425.20,4120.8722274,N,07038.0188240,W,1,23,0.6,0.926,M,-30.472,M,0.0,*61
###2023-05-05 14:03:46.721557$GNGGA,180427.20,4120.8719394,N,07038.0184572,W,1,24,0.6,0.708,M,-30.472,M,0.0,*6B
###2023-05-05 14:03:48.720023$GNGGA,180429.20,4120.8717978,N,07038.0180720,W,1,24,0.6,0.735,M,-30.472,M,0.0,*6C
###2023-05-05 14:03:50.721492$GNGGA,180431.20,4120.8718182,N,07038.0177909,W,1,24,0.6,0.486,M,-30.472,M,0.0,*61
###2023-05-05 14:03:52.719767$GNGGA,180433.20,4120.8714454,N,07038.0176330,W,1,24,0.6,0.517,M,-30.472,M,0.0,*69
###2023-05-05 14:03:54.715457$GNGGA,180435.20,4120.8714403,N,07038.0177315,W,1,24,0.6,0.721,M,-30.472,M,0.0,*6C
###2023-05-05 14:03:56.722416$GNGGA,180437.20,4120.8717262,N,07038.0177508,W,1,24,0.6,0.406,M,-30.472,M,0.0,*60
###2023-05-05 14:03:58.718853$GNGGA,180439.20,4120.8716026,N,07038.0174978,W,1,24,0.6,0.523,M,-30.472,M,0.0,*63
###2023-05-05 14:04:00.721297$GNGGA,180441.20,4120.8715271,N,07038.0173949,W,1,24,0.6,0.426,M,-30.472,M,0.0,*6E
###2023-05-05 14:04:02.718580$GNGGA,180443.20,4120.8713174,N,07038.0173925,W,1,24,0.6,0.639,M,-30.472,M,0.0,*6A
###2023-05-05 14:04:04.720609$GNGGA,180445.20,4120.8716385,N,07038.0178106,W,1,24,0.6,0.839,M,-30.472,M,0.0,*69
###2023-05-05 14:04:06.722230$GNGGA,180447.20,4120.8715881,N,07038.0174307,W,1,24,0.6,0.503,M,-30.472,M,0.0,*6C
###2023-05-05 14:04:08.721227$GNGGA,180449.20,4120.8716584,N,07038.0156131,W,1,24,0.6,0.698,M,-30.472,M,0.0,*6F
