###2023-05-05 12:31:02.612431$GNGGA,163143.20,4120.8394770,N,07038.3191258,W,1,22,0.6,-0.253,M,-30.477,M,0.0,*43
###2023-05-05 12:31:04.610018$GNGGA,163145.20,4120.8420469,N,07038.3194500,W,1,21,0.7,-0.088,M,-30.477,M,0.0,*4F
###2023-05-05 12:31:06.613546$GNGGA,163147.20,4120.8446711,N,07038.3194538,W,1,22,0.6,-0.266,M,-30.477,M,0.0,*4A
###2023-05-05 12:31:08.611408$GNGGA,163149.20,4120.8475695,N,07038.3195251,W,1,22,0.6,-0.003,M,-30.477,M,0.0,*41
###2023-05-05 12:31:10.610239$GNGGA,163151.20,4120.8504865,N,07038.3197190,W,1,21,0.7,0.392,M,-30.477,M,0.0,*66
###2023-05-05 12:31:12.612284$GNGGA,163153.20,4120.8533363,N,07038.3200430,W,1,21,0.7,0.092,M,-30.477,M,0.0,*6C
###2023-05-05 12:31:14.611330$GNGGA,163155.20,4120.8560191,N,07038.3200609,W,1,22,0.6,-0.162,M,-30.477,M,0.0,*4A
###2023-05-05 12:31:16.611219$GNGGA,163157.20,4120.8588377,N,07038.3197514,W,1,21,0.7,-0.029,M,-30.477,M,0.0,*4A
###2023-05-05 12:31:18.607510$GNGGA,163159.20,4120.8618511,N,07038.3196585,W,1,22,0.6,-0.030,M,-30.477,M,0.0,*4B
###2023-05-05 12:31:20.609977$GNGGA,163201.20,4120.8651589,N,07038.3196262,W,1,22,0.6,0.018,M,-30.476,M,0.0,*61
###2023-05-05 12:31:22.612081$GNGGA,163203.20,4120.8684759,N,07038.3198717,W,1,21,0.7,-0.007,M,-30.476,M,0.0,*4C
###2023-05-05 12:31:24.613917$GNGGA,163205.20,4120.8715268,N,07038.3204765,W,1,21,0.7,0.024,M,-30.476,M,0.0,*6B
###2023-05-05 12:31:26.612854$GNGGA,163207.20,4120.8739499,N,07038.3238617,W,1,21,0.7,0.165,M,-30.476,M,0.0,*60
###2023-05-05 12:31:28.610185$GNGGA,163209.20,4120.8734641,N,07038.3288863,W,1,21,0.7,0.280,M,-30.476,M,0.0,*6A
###2023-05-05 12:31:30.610136$GNGGA,163211.20,4120.8711765,N,07038.3320681,W,1,22,0.6,0.022,M,-30.476,M,0.0,*6A
###2023-05-05 12:31:32.610041$GNGGA,163213.20,4120.8689044,N,07038.3340649,W,1,22,0.6,0.153,M,-30.476,M,0.0,*69
###2023-05-05 12:31:34.609993$GNGGA,163215.20,4120.8658215,N,07038.3335756,W,1,22,0.6,0.101,M,-30.477,M,0.0,*6E
###2023-05-05 12:31:36.605383$GNGGA,163217.20,4120.8636760,N,07038.3333717,W,1,22,0.6,0.426,M,-30.477,M,0.0,*60
###2023-05-05 12:31:38.610187$GNGGA,163219.20,4120.8618336,N,07038.3336573,W,1,22,0.6,0.473,M,-30.477,M,0.0,*60
###2023-05-05 12:31:40.611605$GNGGA,163221.20,4120.8600147,N,07038.3339491,W,1,22,0.6,0.237,M,-30.477,M,0.0,*62
###2023-05-05 12:31:42.613644$GNGGA,163223.20,4120.8584404,N,07038.3351795,W,1,22,0.6,0.762,M,-30.477,M,0.0,*61
###2023-05-05 12:31:44.612089$GNGGA,163225.20,4120.8562497,N,07038.3353693,W,1,22,0.6,0.141,M,-30.477,M,0.0,*67
###2023-05-05 12:31:46.612455$GNGGA,163227.20,4120.8541194,N,07038.3346556,W,1,22,0.6,0.209,M,-30.477,M,0.0,*63
###2023-05-05 12:31:48.613593$GNGGA,163229.20,4120.8521272,N,07038.3349437,W,1,22,0.6,0.642,M,-30.477,M,0.0,*62
###2023-05-05 12:31:50.607806$GNGGA,163231.20,4120.8499498,N,07038.3344468,W,1,22,0.6,0.180,M,-30.477,M,0.0,*65
###2023-05-05 12:31:52.613416$GNGGA,163233.20,4120.8478078,N,07038.3339937,W,1,22,0.6,0.308,M,-30.477,M,0.0,*6D
###2023-05-05 12:31:54.613234$GNGGA,163235.20,4120.8457480,N,07038.3343788,W,1,22,0.6,0.411,M,-30.477,M,0.0,*6D
###2023-05-05 12:31:56.611320$GNGGA,163237.20,4120.8436106,N,07038.3341298,W,1,22,0.6,0.308,M,-30.477,M,0.0,*6A
###2023-05-05 12:31:58.611883$GNGGA,163239.20,4120.8413739,N,07038.3340199,W,1,22,0.6,0.219,M,-30.477,M,0.0,*6B
###2023-05-05 12:32:00.611732$GNGGA,163241.20,4120.8392247,N,07038.3341738,W,1,22,0.6,0.452,M,-30.478,M,0.0,*6C
###2023-05-05 12:32:02.610705$GNGGA,163243.20,4120.8371600,N,07038.3341788,W,1,22,0.6,0.583,M,-30.478,M,0.0,*62
###2023-05-05 12:32:04.610501$GNGGA,163245.20,4120.8349720,N,07038.3340326,W,1,22,0.6,0.311,M,-30.478,M,0.0,*60
###2023-05-05 12:32:06.617616$GNGGA,163247.20,4120.8326193,N,07038.3339363,W,1,22,0.6,0.300,M,-30.478,M,0.0,*6A
###2023-05-05 12:32:08.613075$GNGGA,163249.20,4120.8305255,N,07038.3340243,W,1,22,0.6,0.390,M,-30.478,M,0.0,*68
###2023-05-05 12:32:10.606386$GNGGA,163251.20,4120.8283764,N,07038.3338143,W,1,22,0.6,0.462,M,-30.478,M,0.0,*6F
###2023-05-05 12:32:12.613961$GNGGA,163253.20,4120.8261393,N,07038.3339513,W,1,22,0.6,0.310,M,-30.478,M,0.0,*6F
###2023-05-05 12:32:14.612026$GNGGA,163255.20,4120.8239620,N,07038.3338670,W,1,22,0.6,0.512,M,-30.478,M,0.0,*6A
###2023-05-05 12:32:16.613928$GNGGA,163257.20,4120.8219388,N,07038.3340254,W,1,22,0.6,0.406,M,-30.478,M,0.0,*64
###2023-05-05 12:32:18.613654$GNGGA,163259.20,4120.8197640,N,07038.3338306,W,1,22,0.6,0.087,M,-30.478,M,0.0,*6A
###2023-05-05 12:32:20.613772$GNGGA,163301.20,4120.8172969,N,07038.3337213,W,1,22,0.6,0.227,M,-30.478,M,0.0,*6B
###2023-05-05 12:32:22.613702$GNGGA,163303.20,4120.8148930,N,07038.3338959,W,1,22,0.6,0.374,M,-30.478,M,0.0,*61
###2023-05-05 12:32:24.609069$GNGGA,163305.20,4120.8124393,N,07038.3339977,W,1,22,0.6,0.402,M,-30.479,M,0.0,*64
###2023-05-05 12:32:26.613563$GNGGA,163307.20,4120.8099694,N,07038.3341014,W,1,22,0.6,0.197,M,-30.479,M,0.0,*69
###2023-05-05 12:32:28.605534$GNGGA,163309.20,4120.8075916,N,07038.3341952,W,1,22,0.6,0.496,M,-30.479,M,0.0,*6F
###2023-05-05 12:32:30.611044$GNGGA,163311.20,4120.8052764,N,07038.3340796,W,1,22,0.6,0.345,M,-30.479,M,0.0,*66
###2023-05-05 12:32:32.609759$GNGGA,163313.20,4120.8027844,N,07038.3338433,W,1,22,0.6,0.254,M,-30.479,M,0.0,*69
###2023-05-05 12:32:34.610929$GNGGA,163315.20,4120.8000924,N,07038.3338414,W,1,22,0.6,0.119,M,-30.479,M,0.0,*62
###2023-05-05 12:32:36.611784$GNGGA,163317.20,4120.7976798,N,07038.3342197,W,1,22,0.6,0.847,M,-30.479,M,0.0,*6F
###2023-05-05 12:32:38.611688$GNGGA,163319.20,4120.7952120,N,07038.3340454,W,1,22,0.6,0.224,M,-30.479,M,0.0,*65
###2023-05-05 12:32:40.612923$GNGGA,163321.20,4120.7926968,N,07038.3340460,W,1,22,0.6,0.092,M,-30.479,M,0.0,*61
###2023-05-05 12:32:42.612554$GNGGA,163323.20,4120.7902767,N,07038.3340742,W,1,22,0.6,0.561,M,-30.479,M,0.0,*6E
###2023-05-05 12:32:44.612223$GNGGA,163325.20,4120.7878470,N,07038.3339523,W,1,22,0.6,0.350,M,-30.479,M,0.0,*6E
###2023-05-05 12:32:46.608622$GNGGA,163327.20,4120.7853553,N,07038.3338561,W,1,22,0.6,0.227,M,-30.480,M,0.0,*65
###2023-05-05 12:32:48.614223$GNGGA,163329.20,4120.7827332,N,07038.3336636,W,1,22,0.6,0.204,M,-30.480,M,0.0,*67
###2023-05-05 12:32:50.606539$GNGGA,163331.20,4120.7800959,N,07038.3339106,W,1,22,0.6,0.602,M,-30.480,M,0.0,*65
###2023-05-05 12:32:52.614099$GNGGA,163333.20,4120.7775876,N,07038.3339680,W,1,22,0.6,0.370,M,-30.480,M,0.0,*6F
###2023-05-05 12:32:54.614136$GNGGA,163335.20,4120.7750085,N,07038.3339916,W,1,22,0.6,0.014,M,-30.480,M,0.0,*6B
###2023-05-05 12:32:56.615975$GNGGA,163337.20,4120.7724345,N,07038.3338907,W,1,22,0.6,0.363,M,-30.480,M,0.0,*67
###2023-05-05 12:32:58.611460$GNGGA,163339.20,4120.7698546,N,07038.3339480,W,1,22,0.6,0.450,M,-30.480,M,0.0,*6E
###2023-05-05 12:33:00.612855$GNGGA,163341.20,4120.7671575,N,07038.3339161,W,1,22,0.6,-0.032,M,-30.480,M,0.0,*41
###2023-05-05 12:33:02.617341$GNGGA,163343.20,4120.7642909,N,07038.3349121,W,1,22,0.6,-0.080,M,-30.480,M,0.0,*4E
###2023-05-05 12:33:04.612420$GNGGA,163345.20,4120.7624185,N,07038.3384059,W,1,22,0.6,0.408,M,-30.481,M,0.0,*63
###2023-05-05 12:33:06.614793$GNGGA,163347.20,4120.7627142,N,07038.3424904,W,1,22,0.6,0.441,M,-30.481,M,0.0,*68
###2023-05-05 12:33:08.606164$GNGGA,163349.20,4120.7642679,N,07038.3456378,W,1,22,0.6,0.172,M,-30.481,M,0.0,*6B
###2023-05-05 12:33:10.613667$GNGGA,163351.20,4120.7665213,N,07038.3473309,W,1,22,0.6,-0.114,M,-30.480,M,0.0,*42
###2023-05-05 12:33:12.612726$GNGGA,163353.20,4120.7689272,N,07038.3475538,W,1,22,0.6,-0.224,M,-30.480,M,0.0,*47
###2023-05-05 12:33:14.612614$GNGGA,163355.20,4120.7710330,N,07038.3478173,W,1,22,0.6,0.121,M,-30.480,M,0.0,*6A
###2023-05-05 12:33:16.612618$GNGGA,163357.20,4120.7731388,N,07038.3480610,W,1,22,0.6,0.471,M,-30.480,M,0.0,*6D
###2023-05-05 12:33:18.614547$GNGGA,163359.20,4120.7752909,N,07038.3482604,W,1,22,0.6,0.399,M,-30.480,M,0.0,*63
###2023-05-05 12:33:20.612571$GNGGA,163401.20,4120.7774479,N,07038.3483666,W,1,21,0.7,0.360,M,-30.480,M,0.0,*66
###2023-05-05 12:33:22.612498$GNGGA,163403.20,4120.7795539,N,07038.3484013,W,1,22,0.6,0.225,M,-30.480,M,0.0,*6F
###2023-05-05 12:33:24.613044$GNGGA,163405.20,4120.7816126,N,07038.3483420,W,1,22,0.6,-0.059,M,-30.480,M,0.0,*40
###2023-05-05 12:33:26.610813$GNGGA,163407.20,4120.7837293,N,07038.3483088,W,1,22,0.6,-0.008,M,-30.480,M,0.0,*4E
###2023-05-05 12:33:28.609878$GNGGA,163409.20,4120.7859504,N,07038.3482546,W,1,22,0.6,0.268,M,-30.480,M,0.0,*6E
###2023-05-05 12:33:30.611770$GNGGA,163411.20,4120.7882212,N,07038.3483204,W,1,21,0.7,0.578,M,-30.480,M,0.0,*65
###2023-05-05 12:33:32.611562$GNGGA,163413.20,4120.7904131,N,07038.3483136,W,1,21,0.7,0.452,M,-30.480,M,0.0,*61
###2023-05-05 12:33:34.611529$GNGGA,163415.20,4120.7924974,N,07038.3483426,W,1,21,0.7,0.270,M,-30.480,M,0.0,*6E
###2023-05-05 12:33:36.611427$GNGGA,163417.20,4120.7945607,N,07038.3483131,W,1,21,0.7,0.136,M,-30.479,M,0.0,*64
###2023-05-05 12:33:38.612438$GNGGA,163419.20,4120.7966149,N,07038.3484050,W,1,21,0.7,0.170,M,-30.479,M,0.0,*65
###2023-05-05 12:33:40.609554$GNGGA,163421.20,4120.7987600,N,07038.3482237,W,1,21,0.7,0.135,M,-30.479,M,0.0,*6F
###2023-05-05 12:33:42.613396$GNGGA,163423.20,4120.8008013,N,07038.3482474,W,1,21,0.7,0.241,M,-30.479,M,0.0,*69
###2023-05-05 12:33:44.611405$GNGGA,163425.20,4120.8022497,N,07038.3484019,W,1,22,0.6,0.323,M,-30.479,M,0.0,*61
###2023-05-05 12:33:46.612299$GNGGA,163427.20,4120.8031728,N,07038.3483557,W,1,22,0.6,0.283,M,-30.479,M,0.0,*65
###2023-05-05 12:33:48.612454$GNGGA,163429.20,4120.8047651,N,07038.3478275,W,1,21,0.7,0.107,M,-30.479,M,0.0,*6B
###2023-05-05 12:33:50.612482$GNGGA,163431.20,4120.8069243,N,07038.3475022,W,1,22,0.6,-0.082,M,-30.479,M,0.0,*47
###2023-05-05 12:33:52.612400$GNGGA,163433.20,4120.8093400,N,07038.3477066,W,1,21,0.7,-0.008,M,-30.479,M,0.0,*43
###2023-05-05 12:33:54.613436$GNGGA,163435.20,4120.8117763,N,07038.3480101,W,1,22,0.6,0.053,M,-30.479,M,0.0,*67
###2023-05-05 12:33:56.614234$GNGGA,163437.20,4120.8141951,N,07038.3482690,W,1,21,0.7,0.055,M,-30.479,M,0.0,*60
###2023-05-05 12:33:58.611006$GNGGA,163439.20,4120.8164793,N,07038.3484001,W,1,21,0.7,0.230,M,-30.479,M,0.0,*60
###2023-05-05 12:34:00.612215$GNGGA,163441.20,4120.8186655,N,07038.3483534,W,1,21,0.7,0.130,M,-30.479,M,0.0,*6F
###2023-05-05 12:34:02.610160$GNGGA,163443.20,4120.8209746,N,07038.3480179,W,1,21,0.7,0.147,M,-30.478,M,0.0,*65
###2023-05-05 12:34:04.613964$GNGGA,163445.20,4120.8235697,N,07038.3478634,W,1,22,0.6,0.131,M,-30.478,M,0.0,*6B
###2023-05-05 12:34:06.612958$GNGGA,163447.20,4120.8262381,N,07038.3479063,W,1,22,0.6,0.109,M,-30.478,M,0.0,*67
###2023-05-05 12:34:08.613517$GNGGA,163449.20,4120.8289622,N,07038.3480742,W,1,22,0.6,0.125,M,-30.478,M,0.0,*6C
###2023-05-05 12:34:10.612960$GNGGA,163451.20,4120.8316844,N,07038.3482147,W,1,22,0.6,0.185,M,-30.478,M,0.0,*67
###2023-05-05 12:34:12.613807$GNGGA,163453.20,4120.8344122,N,07038.3481923,W,1,21,0.7,0.289,M,-30.478,M,0.0,*6F
###2023-05-05 12:34:14.612681$GNGGA,163455.20,4120.8371280,N,07038.3482592,W,1,21,0.7,0.394,M,-30.478,M,0.0,*6C
###2023-05-05 12:34:16.612915$GNGGA,163457.20,4120.8397561,N,07038.3481698,W,1,21,0.7,0.304,M,-30.478,M,0.0,*6D
###2023-05-05 12:34:18.608127$GNGGA,163459.20,4120.8424044,N,07038.3482007,W,1,21,0.7,0.326,M,-30.478,M,0.0,*6D
###2023-05-05 12:34:20.611757$GNGGA,163501.20,4120.8450699,N,07038.3480996,W,1,21,0.7,0.273,M,-30.478,M,0.0,*66
