###2023-05-05 12:09:49.667789$GNGGA,160825.20,4120.9143611,N,07038.2405585,W,1,08,1.3,10.131,M,-30.473,M,0.0,*5B
###2023-05-05 12:09:49.678362$GNGGA,160827.20,4120.9143211,N,07038.2404955,W,1,08,1.3,10.027,M,-30.473,M,0.0,*5B
###2023-05-05 12:09:49.688711$GNGGA,160829.20,4120.9144102,N,07038.2405656,W,1,08,1.3,9.923,M,-30.473,M,0.0,*6B
###2023-05-05 12:09:49.698874$GNGGA,160831.20,4120.9144441,N,07038.2406063,W,1,08,1.3,9.884,M,-30.473,M,0.0,*6F
###2023-05-05 12:09:49.709186$GNGGA,160833.20,4120.9144648,N,07038.2406239,W,1,08,1.3,9.891,M,-30.473,M,0.0,*6F
###2023-05-05 12:09:49.721741$GNGGA,160835.20,4120.9144711,N,07038.2406336,W,1,08,1.3,9.944,M,-30.473,M,0.0,*63
###2023-05-05 12:09:49.745065$GNGGA,160837.20,4120.9144716,N,07038.2406491,W,1,08,1.3,10.004,M,-30.473,M,0.0,*59
###2023-05-05 12:09:49.759043$GNGGA,160839.20,4120.9144792,N,07038.2406641,W,1,08,1.3,10.001,M,-30.473,M,0.0,*51
###2023-05-05 12:09:49.769591$GNGGA,160841.20,4120.9145001,N,07038.2406715,W,1,08,1.3,9.987,M,-30.473,M,0.0,*6D
###2023-05-05 12:09:49.780387$GNGGA,160843.20,4120.9145241,N,07038.2406871,W,1,08,1.3,9.993,M,-30.473,M,0.0,*61
###2023-05-05 12:09:49.791056$GNGGA,160845.20,4120.9145350,N,07038.2406974,W,1,11,1.1,10.017,M,-30.473,M,0.0,*55
###2023-05-05 12:09:49.801973$GNGGA,160847.20,4120.9145926,N,07038.2407536,W,1,15,1.0,10.113,M,-30.473,M,0.0,*57
###2023-05-05 12:09:49.812772$GNGGA,160849.20,4120.9146672,N,07038.2408031,W,1,15,1.0,10.043,M,-30.473,M,0.0,*5D
###2023-05-05 12:09:49.823471$GNGGA,160851.20,4120.9147383,N,07038.2408439,W,1,15,1.0,9.940,M,-30.473,M,0.0,*60
###2023-05-05 12:09:49.833646$GNGGA,160853.20,4120.9147961,N,07038.2408791,W,1,15,1.0,9.875,M,-30.473,M,0.0,*62
###2023-05-05 12:09:49.843458$GNGGA,160855.20,4120.9148375,N,07038.2409045,W,1,15,1.0,9.810,M,-30.473,M,0.0,*68
###2023-05-05 12:09:49.852935$GNGGA,160857.20,4120.9148671,N,07038.2409383,W,1,15,1.0,9.782,M,-30.473,M,0.0,*66
###2023-05-05 12:09:49.862595$GNGGA,160859.20,4120.9148903,N,07038.2409588,W,1,15,1.0,9.753,M,-30.473,M,0.0,*63
###2023-05-05 12:09:49.872016$GNGGA,160901.20,4120.9149149,N,07038.2409846,W,1,16,0.8,9.733,M,-30.473,M,0.0,*6B
###2023-05-05 12:09:49.881590$GNGGA,160903.20,4120.9149302,N,07038.2410082,W,1,16,0.8,9.760,M,-30.473,M,0.0,*6A
###2023-05-05 12:09:49.891475$GNGGA,160905.20,4120.9149489,N,07038.2410415,W,1,16,0.8,9.795,M,-30.473,M,0.0,*68
###2023-05-05 12:09:49.900989$GNGGA,160907.20,4120.9149576,N,07038.2410776,W,1,17,0.8,9.862,M,-30.473,M,0.0,*6B
###2023-05-05 12:09:49.910896$GNGGA,160909.20,4120.9149637,N,07038.2411106,W,1,18,0.8,9.921,M,-30.473,M,0.0,*6A
###2023-05-05 12:09:49.920381$GNGGA,160911.20,4120.9149640,N,07038.2411300,W,1,18,0.8,9.969,M,-30.473,M,0.0,*6B
###2023-05-05 12:09:49.929933$GNGGA,160913.20,4120.9149651,N,07038.2411426,W,1,18,0.8,10.016,M,-30.473,M,0.0,*53
###2023-05-05 12:09:49.939592$GNGGA,160915.20,4120.9149701,N,07038.2411589,W,1,18,0.8,10.057,M,-30.473,M,0.0,*50
###2023-05-05 12:09:49.949084$GNGGA,160917.20,4120.9149610,N,07038.2411679,W,1,18,0.8,10.107,M,-30.473,M,0.0,*5B
###2023-05-05 12:09:49.959361$GNGGA,160919.20,4120.9149567,N,07038.2411841,W,1,18,0.8,10.168,M,-30.473,M,0.0,*5A
###2023-05-05 12:09:49.969386$GNGGA,160921.20,4120.9149586,N,07038.2411996,W,1,18,0.8,10.212,M,-30.473,M,0.0,*5B
###2023-05-05 12:09:49.979901$GNGGA,160923.20,4120.9149577,N,07038.2412141,W,1,18,0.8,10.235,M,-30.473,M,0.0,*53
###2023-05-05 12:09:49.990073$GNGGA,160925.20,4120.9149528,N,07038.2412290,W,1,18,0.8,10.288,M,-30.473,M,0.0,*56
###2023-05-05 12:09:50.000353$GNGGA,160927.20,4120.9149518,N,07038.2412450,W,1,18,0.8,10.341,M,-30.473,M,0.0,*59
###2023-05-05 12:09:50.010802$GNGGA,160929.20,4120.9149485,N,07038.2412532,W,1,18,0.8,10.394,M,-30.473,M,0.0,*5F
###2023-05-05 12:09:50.021124$GNGGA,160931.20,4120.9149454,N,07038.2412620,W,1,18,0.8,10.448,M,-30.473,M,0.0,*5C
###2023-05-05 12:09:50.031307$GNGGA,160933.20,4120.9149462,N,07038.2412585,W,1,18,0.8,10.428,M,-30.473,M,0.0,*51
###2023-05-05 12:09:50.041265$GNGGA,160935.20,4120.9149481,N,07038.2412629,W,1,18,0.8,10.422,M,-30.473,M,0.0,*55
###2023-05-05 12:09:50.051299$GNGGA,160937.20,4120.9149486,N,07038.2412644,W,1,18,0.8,10.396,M,-30.473,M,0.0,*53
###2023-05-05 12:09:50.061278$GNGGA,160939.20,4120.9149499,N,07038.2412589,W,1,18,0.8,10.377,M,-30.473,M,0.0,*5E
###2023-05-05 12:09:50.070968$GNGGA,160941.20,4120.9149518,N,07038.2412600,W,1,18,0.8,10.360,M,-30.473,M,0.0,*5D
###2023-05-05 12:09:50.080770$GNGGA,160943.20,4120.9149556,N,07038.2412642,W,1,18,0.8,10.361,M,-30.473,M,0.0,*52
###2023-05-05 12:09:50.090453$GNGGA,160945.20,4120.9149562,N,07038.2412663,W,1,18,0.8,10.366,M,-30.473,M,0.0,*57
###2023-05-05 12:09:50.100367$GNGGA,160947.20,4120.9149561,N,07038.2412741,W,1,19,0.8,10.379,M,-30.473,M,0.0,*58
###2023-05-05 12:09:50.110030$GNGGA,160949.20,4120.9149618,N,07038.2412834,W,1,19,0.8,10.391,M,-30.473,M,0.0,*50
###2023-05-05 12:09:50.120131$GNGGA,160951.20,4120.9149747,N,07038.2412932,W,1,19,0.8,10.387,M,-30.473,M,0.0,*52
###2023-05-05 12:09:50.129764$GNGGA,160953.20,4120.9149817,N,07038.2413076,W,1,19,0.8,10.399,M,-30.473,M,0.0,*5D
###2023-05-05 12:09:50.139759$GNGGA,160955.20,4120.9149832,N,07038.2413184,W,1,19,0.8,10.417,M,-30.473,M,0.0,*51
###2023-05-05 12:09:50.149788$GNGGA,160957.20,4120.9149909,N,07038.2413354,W,1,19,0.8,10.431,M,-30.473,M,0.0,*51
###2023-05-05 12:09:50.160238$GNGGA,160959.20,4120.9149923,N,07038.2413401,W,1,19,0.8,10.442,M,-30.473,M,0.0,*54
###2023-05-05 12:09:50.169868$GNGGA,161001.20,4120.9149910,N,07038.2413509,W,1,19,0.8,10.455,M,-30.473,M,0.0,*5E
###2023-05-05 12:09:50.179794$GNGGA,161003.20,4120.9149926,N,07038.2413530,W,1,19,0.8,10.466,M,-30.473,M,0.0,*53
###2023-05-05 12:09:50.189362$GNGGA,161005.20,4120.9149934,N,07038.2413509,W,1,19,0.8,10.481,M,-30.473,M,0.0,*55
###2023-05-05 12:09:50.199448$GNGGA,161007.20,4120.9149942,N,07038.2413581,W,1,19,0.8,10.493,M,-30.473,M,0.0,*55
###2023-05-05 12:09:50.209150$GNGGA,161009.20,4120.9149985,N,07038.2413694,W,1,19,0.8,10.475,M,-30.473,M,0.0,*5F
###2023-05-05 12:09:50.219210$GNGGA,161011.20,4120.9150029,N,07038.2413699,W,1,19,0.8,10.486,M,-30.473,M,0.0,*50
###2023-05-05 12:09:50.228885$GNGGA,161013.20,4120.9150080,N,07038.2413758,W,1,19,0.8,10.478,M,-30.473,M,0.0,*5C
###2023-05-05 12:09:50.238848$GNGGA,161015.20,4120.9150146,N,07038.2413795,W,1,20,0.7,10.479,M,-30.473,M,0.0,*54
###2023-05-05 12:09:50.248423$GNGGA,161017.20,4120.9150256,N,07038.2413885,W,1,20,0.7,10.466,M,-30.473,M,0.0,*54
###2023-05-05 12:09:50.258219$GNGGA,161019.20,4120.9150327,N,07038.2413910,W,1,20,0.7,10.457,M,-30.473,M,0.0,*52
###2023-05-05 12:09:50.267950$GNGGA,161021.20,4120.9150432,N,07038.2413929,W,1,20,0.7,10.461,M,-30.473,M,0.0,*55
###2023-05-05 12:09:50.277712$GNGGA,161023.20,4120.9150437,N,07038.2413869,W,1,20,0.7,10.467,M,-30.473,M,0.0,*51
###2023-05-05 12:09:50.287400$GNGGA,161025.20,4120.9150514,N,07038.2413940,W,1,20,0.7,10.456,M,-30.473,M,0.0,*5F
###2023-05-05 12:09:50.297312$GNGGA,161027.20,4120.9150554,N,07038.2413951,W,1,20,0.7,10.453,M,-30.473,M,0.0,*5C
###2023-05-05 12:09:50.306942$GNGGA,161029.20,4120.9150652,N,07038.2414018,W,1,20,0.7,10.451,M,-30.473,M,0.0,*56
###2023-05-05 12:09:50.585300$GNGGA,161031.20,4120.9150660,N,07038.2414007,W,1,20,0.7,10.456,M,-30.473,M,0.0,*57
###2023-05-05 12:09:52.579315$GNGGA,161033.20,4120.9150745,N,07038.2414096,W,1,20,0.7,10.467,M,-30.473,M,0.0,*59
###2023-05-05 12:09:54.585996$GNGGA,161035.20,4120.9150770,N,07038.2414151,W,1,20,0.7,10.475,M,-30.473,M,0.0,*50
###2023-05-05 12:09:56.585989$GNGGA,161037.20,4120.9150778,N,07038.2414144,W,1,20,0.7,10.468,M,-30.473,M,0.0,*52
###2023-05-05 12:09:58.581764$GNGGA,161039.20,4120.9150798,N,07038.2414198,W,1,20,0.7,10.464,M,-30.473,M,0.0,*5F
###2023-05-05 12:10:00.585849$GNGGA,161041.20,4120.9150824,N,07038.2414201,W,1,20,0.7,10.483,M,-30.473,M,0.0,*52
###2023-05-05 12:10:02.581752$GNGGA,161043.20,4120.9150885,N,07038.2414177,W,1,20,0.7,10.495,M,-30.473,M,0.0,*5E
###2023-05-05 12:10:04.579095$GNGGA,161045.20,4120.9150894,N,07038.2414181,W,1,20,0.7,10.516,M,-30.473,M,0.0,*5B
###2023-05-05 12:10:06.586873$GNGGA,161047.20,4120.9150890,N,07038.2414168,W,1,20,0.7,10.529,M,-30.473,M,0.0,*56
###2023-05-05 12:10:08.580083$GNGGA,161049.20,4120.9148348,N,07038.2419775,W,1,20,0.9,12.660,M,-30.473,M,0.0,*5A
###2023-05-05 12:10:10.585742$GNGGA,161051.20,4120.9149897,N,07038.2422619,W,1,20,0.8,11.745,M,-30.473,M,0.0,*5C
###2023-05-05 12:10:12.587180$GNGGA,161053.20,4120.9151014,N,07038.2422630,W,1,20,0.8,11.041,M,-30.473,M,0.0,*5C
###2023-05-05 12:10:14.586938$GNGGA,161055.20,4120.9151868,N,07038.2422319,W,1,20,0.8,10.524,M,-30.473,M,0.0,*50
###2023-05-05 12:10:16.585551$GNGGA,161057.20,4120.9152504,N,07038.2422119,W,1,20,0.8,10.092,M,-30.473,M,0.0,*5C
###2023-05-05 12:10:18.586415$GNGGA,161059.20,4120.9152897,N,07038.2422045,W,1,20,0.8,9.780,M,-30.473,M,0.0,*61
###2023-05-05 12:10:20.583479$GNGGA,161101.20,4120.9153120,N,07038.2422028,W,1,20,0.8,9.588,M,-30.473,M,0.0,*68
###2023-05-05 12:10:22.586827$GNGGA,161103.20,4120.9153393,N,07038.2421901,W,1,20,0.8,9.389,M,-30.473,M,0.0,*66
###2023-05-05 12:10:24.586404$GNGGA,161105.20,4120.9153816,N,07038.2421758,W,1,21,0.7,9.192,M,-30.473,M,0.0,*62
###2023-05-05 12:10:26.580802$GNGGA,161107.20,4120.9153668,N,07038.2421678,W,1,21,0.7,8.310,M,-30.473,M,0.0,*6D
###2023-05-05 12:10:28.584144$GNGGA,161109.20,4120.9153090,N,07038.2421372,W,1,21,0.7,7.279,M,-30.473,M,0.0,*6C
###2023-05-05 12:10:30.585115$GNGGA,161111.20,4120.9152543,N,07038.2421036,W,1,21,0.7,6.497,M,-30.473,M,0.0,*6B
###2023-05-05 12:10:32.583125$GNGGA,161113.20,4120.9151988,N,07038.2420613,W,1,21,0.7,5.834,M,-30.473,M,0.0,*67
###2023-05-05 12:10:34.585087$GNGGA,161115.20,4120.9151647,N,07038.2420250,W,1,21,0.7,5.250,M,-30.473,M,0.0,*66
###2023-05-05 12:10:36.585013$GNGGA,161117.20,4120.9151350,N,07038.2419878,W,1,21,0.7,4.721,M,-30.473,M,0.0,*6F
###2023-05-05 12:10:38.583062$GNGGA,161119.20,4120.9151423,N,07038.2419306,W,1,21,0.7,4.124,M,-30.473,M,0.0,*63
###2023-05-05 12:10:40.586153$GNGGA,161121.20,4120.9151330,N,07038.2418947,W,1,21,0.7,3.641,M,-30.473,M,0.0,*60
###2023-05-05 12:10:42.588153$GNGGA,161123.20,4120.9151144,N,07038.2418617,W,1,21,0.7,3.305,M,-30.473,M,0.0,*6C
###2023-05-05 12:10:44.583626$GNGGA,161125.20,4120.9150944,N,07038.2418507,W,1,21,0.7,2.987,M,-30.473,M,0.0,*60
###2023-05-05 12:10:46.587000$GNGGA,161127.20,4120.9150822,N,07038.2418455,W,1,21,0.7,2.719,M,-30.473,M,0.0,*6C
###2023-05-05 12:10:48.581212$GNGGA,161129.20,4120.9150723,N,07038.2418329,W,1,21,0.7,2.519,M,-30.473,M,0.0,*62
###2023-05-05 12:10:50.586740$GNGGA,161131.20,4120.9150673,N,07038.2418225,W,1,21,0.7,2.322,M,-30.473,M,0.0,*6C
###2023-05-05 12:10:52.589368$GNGGA,161133.20,4120.9150647,N,07038.2418059,W,1,21,0.7,2.120,M,-30.473,M,0.0,*60
###2023-05-05 12:10:54.590892$GNGGA,161135.20,4120.9150563,N,07038.2417933,W,1,21,0.7,1.950,M,-30.473,M,0.0,*65
###2023-05-05 12:10:56.581122$GNGGA,161137.20,4120.9150477,N,07038.2417757,W,1,21,0.7,1.805,M,-30.473,M,0.0,*6E
###2023-05-05 12:10:58.585705$GNGGA,161139.20,4120.9150364,N,07038.2417615,W,1,21,0.7,1.683,M,-30.473,M,0.0,*62
###2023-05-05 12:11:00.581003$GNGGA,161141.20,4120.9150410,N,07038.2417456,W,1,21,0.7,1.603,M,-30.473,M,0.0,*64
