###2023-05-05 14:07:28.720031$GNGGA,180809.20,4120.8967492,N,07038.1677596,W,1,23,0.6,0.546,M,-30.473,M,0.0,*63
###2023-05-05 14:07:30.719976$GNGGA,180811.20,4120.8962427,N,07038.1702605,W,1,23,0.6,0.507,M,-30.473,M,0.0,*6E
###2023-05-05 14:07:32.720993$GNGGA,180813.20,4120.8949121,N,07038.1720808,W,1,23,0.6,0.605,M,-30.473,M,0.0,*64
###2023-05-05 14:07:34.720876$GNGGA,180815.20,4120.8932033,N,07038.1730151,W,1,24,0.6,0.586,M,-30.473,M,0.0,*67
###2023-05-05 14:07:36.722889$GNGGA,180817.20,4120.8910692,N,07038.1736056,W,1,24,0.6,0.634,M,-30.473,M,0.0,*62
###2023-05-05 14:07:38.725892$GNGGA,180819.20,4120.8885783,N,07038.1742344,W,1,24,0.6,0.567,M,-30.473,M,0.0,*66
###2023-05-05 14:07:40.722827$GNGGA,180821.20,4120.8861649,N,07038.1751226,W,1,24,0.6,0.641,M,-30.473,M,0.0,*60
###2023-05-05 14:07:42.723442$GNGGA,180823.20,4120.8839646,N,07038.1761335,W,1,24,0.6,0.638,M,-30.474,M,0.0,*69
###2023-05-05 14:07:44.717392$GNGGA,180825.20,4120.8819262,N,07038.1771622,W,1,24,0.6,0.647,M,-30.474,M,0.0,*65
###2023-05-05 14:07:46.722701$GNGGA,180827.20,4120.8799975,N,07038.1784169,W,1,23,0.6,0.478,M,-30.474,M,0.0,*66
###2023-05-05 14:07:48.723770$GNGGA,180829.20,4120.8781618,N,07038.1797510,W,1,24,0.6,0.398,M,-30.474,M,0.0,*63
###2023-05-05 14:07:50.722643$GNGGA,180831.20,4120.8771706,N,07038.1820156,W,1,24,0.6,0.489,M,-30.474,M,0.0,*69
###2023-05-05 14:07:52.721585$GNGGA,180833.20,4120.8775109,N,07038.1844171,W,1,23,0.6,0.474,M,-30.474,M,0.0,*64
###2023-05-05 14:07:54.721758$GNGGA,180835.20,4120.8787465,N,07038.1863499,W,1,23,0.6,0.555,M,-30.474,M,0.0,*64
###2023-05-05 14:07:56.723867$GNGGA,180837.20,4120.8808003,N,07038.1875015,W,1,23,0.6,0.567,M,-30.474,M,0.0,*6C
###2023-05-05 14:07:58.721460$GNGGA,180839.20,4120.8828524,N,07038.1883366,W,1,23,0.6,0.392,M,-30.474,M,0.0,*62
###2023-05-05 14:08:00.721408$GNGGA,180841.20,4120.8847498,N,07038.1891436,W,1,23,0.6,0.435,M,-30.474,M,0.0,*69
###2023-05-05 14:08:02.721808$GNGGA,180843.20,4120.8866428,N,07038.1903484,W,1,23,0.6,0.553,M,-30.474,M,0.0,*61
###2023-05-05 14:08:04.715820$GNGGA,180845.20,4120.8885015,N,07038.1915904,W,1,23,0.6,0.361,M,-30.474,M,0.0,*65
###2023-05-05 14:08:06.723370$GNGGA,180847.20,4120.8902970,N,07038.1925208,W,1,23,0.6,0.384,M,-30.474,M,0.0,*6C
###2023-05-05 14:08:08.722337$GNGGA,180849.20,4120.8920205,N,07038.1929734,W,1,23,0.6,0.356,M,-30.473,M,0.0,*65
###2023-05-05 14:08:10.723819$GNGGA,180851.20,4120.8935133,N,07038.1938830,W,1,23,0.6,0.472,M,-30.473,M,0.0,*64
###2023-05-05 14:08:12.722329$GNGGA,180853.20,4120.8943449,N,07038.1963937,W,1,23,0.6,0.836,M,-30.473,M,0.0,*6B
###2023-05-05 14:08:14.724036$GNGGA,180855.20,4120.8943347,N,07038.1996269,W,1,23,0.6,0.554,M,-30.474,M,0.0,*60
###2023-05-05 14:08:16.724533$GNGGA,180857.20,4120.8930111,N,07038.2013708,W,1,23,0.6,0.442,M,-30.474,M,0.0,*64
###2023-05-05 14:08:18.724107$GNGGA,180859.20,4120.8907037,N,07038.2025529,W,1,24,0.6,0.435,M,-30.474,M,0.0,*68
###2023-05-05 14:08:20.725044$GNGGA,180901.20,4120.8881387,N,07038.2034338,W,1,24,0.6,0.408,M,-30.474,M,0.0,*6B
###2023-05-05 14:08:22.723197$GNGGA,180903.20,4120.8860567,N,07038.2043861,W,1,24,0.6,0.603,M,-30.474,M,0.0,*60
###2023-05-05 14:08:24.724120$GNGGA,180905.20,4120.8839719,N,07038.2049948,W,1,24,0.6,0.497,M,-30.474,M,0.0,*6E
###2023-05-05 14:08:26.724090$GNGGA,180907.20,4120.8821852,N,07038.2061833,W,1,23,0.6,0.366,M,-30.474,M,0.0,*6C
###2023-05-05 14:08:28.721967$GNGGA,180909.20,4120.8802789,N,07038.2078399,W,1,23,0.6,0.272,M,-30.474,M,0.0,*6D
###2023-05-05 14:08:30.722975$GNGGA,180911.20,4120.8792294,N,07038.2101800,W,1,23,0.6,0.529,M,-30.474,M,0.0,*66
###2023-05-05 14:08:32.723942$GNGGA,180913.20,4120.8793570,N,07038.2127540,W,1,23,0.6,0.626,M,-30.474,M,0.0,*69
###2023-05-05 14:08:34.721861$GNGGA,180915.20,4120.8808164,N,07038.2148380,W,1,23,0.6,0.390,M,-30.474,M,0.0,*68
###2023-05-05 14:08:36.723885$GNGGA,180917.20,4120.8826135,N,07038.2160957,W,1,23,0.6,0.339,M,-30.474,M,0.0,*6B
###2023-05-05 14:08:38.724997$GNGGA,180919.20,4120.8848044,N,07038.2173597,W,1,23,0.6,0.353,M,-30.474,M,0.0,*64
###2023-05-05 14:08:40.722825$GNGGA,180921.20,4120.8866406,N,07038.2186478,W,1,23,0.6,0.390,M,-30.474,M,0.0,*64
###2023-05-05 14:08:42.723736$GNGGA,180923.20,4120.8880855,N,07038.2196672,W,1,23,0.6,0.087,M,-30.474,M,0.0,*68
###2023-05-05 14:08:44.724932$GNGGA,180925.20,4120.8896386,N,07038.2207432,W,1,23,0.6,0.052,M,-30.474,M,0.0,*69
###2023-05-05 14:08:46.722763$GNGGA,180927.20,4120.8909262,N,07038.2229252,W,1,23,0.6,0.300,M,-30.474,M,0.0,*6F
###2023-05-05 14:08:48.719115$GNGGA,180929.20,4120.8919094,N,07038.2261493,W,1,24,0.6,0.539,M,-30.474,M,0.0,*67
###2023-05-05 14:08:50.725498$GNGGA,180931.20,4120.8913242,N,07038.2284743,W,1,23,0.6,0.406,M,-30.474,M,0.0,*62
###2023-05-05 14:08:52.723546$GNGGA,180933.20,4120.8893506,N,07038.2299488,W,1,24,0.6,0.281,M,-30.474,M,0.0,*68
###2023-05-05 14:08:54.724615$GNGGA,180935.20,4120.8866542,N,07038.2304390,W,1,23,0.6,0.441,M,-30.474,M,0.0,*62
###2023-05-05 14:08:56.725485$GNGGA,180937.20,4120.8844096,N,07038.2309728,W,1,23,0.6,0.794,M,-30.474,M,0.0,*6D
###2023-05-05 14:08:58.721408$GNGGA,180939.20,4120.8820942,N,07038.2315324,W,1,23,0.6,0.302,M,-30.474,M,0.0,*6F
###2023-05-05 14:09:00.723440$GNGGA,180941.20,4120.8798263,N,07038.2318334,W,1,24,0.6,0.475,M,-30.475,M,0.0,*69
###2023-05-05 14:09:02.722465$GNGGA,180943.20,4120.8781320,N,07038.2331104,W,1,23,0.6,0.344,M,-30.475,M,0.0,*6D
###2023-05-05 14:09:04.722540$GNGGA,180945.20,4120.8763398,N,07038.2347380,W,1,23,0.6,0.273,M,-30.475,M,0.0,*6E
###2023-05-05 14:09:06.726741$GNGGA,180947.20,4120.8742896,N,07038.2364470,W,1,24,0.6,0.163,M,-30.475,M,0.0,*66
###2023-05-05 14:09:08.729078$GNGGA,180949.20,4120.8721824,N,07038.2380794,W,1,23,0.6,0.330,M,-30.475,M,0.0,*64
###2023-05-05 14:09:10.724399$GNGGA,180951.20,4120.8706179,N,07038.2399542,W,1,24,0.6,0.621,M,-30.475,M,0.0,*6A
###2023-05-05 14:09:12.725944$GNGGA,180953.20,4120.8694586,N,07038.2421978,W,1,24,0.6,0.259,M,-30.475,M,0.0,*6C
###2023-05-05 14:09:14.726255$GNGGA,180955.20,4120.8689490,N,07038.2447727,W,1,23,0.6,0.182,M,-30.475,M,0.0,*66
###2023-05-05 14:09:16.724396$GNGGA,180957.20,4120.8698016,N,07038.2471007,W,1,23,0.6,0.198,M,-30.475,M,0.0,*65
###2023-05-05 14:09:18.725259$GNGGA,180959.20,4120.8709848,N,07038.2481503,W,1,23,0.6,-0.035,M,-30.475,M,0.0,*44
###2023-05-05 14:09:20.724218$GNGGA,181001.20,4120.8722508,N,07038.2483268,W,1,23,0.6,0.360,M,-30.475,M,0.0,*67
###2023-05-05 14:09:22.724025$GNGGA,181003.20,4120.8743746,N,07038.2485477,W,1,23,0.6,0.446,M,-30.475,M,0.0,*67
###2023-05-05 14:09:24.725976$GNGGA,181005.20,4120.8771168,N,07038.2491953,W,1,23,0.6,0.430,M,-30.475,M,0.0,*65
###2023-05-05 14:09:26.725687$GNGGA,181007.20,4120.8792320,N,07038.2507889,W,1,23,0.6,0.377,M,-30.475,M,0.0,*68
###2023-05-05 14:09:28.722986$GNGGA,181009.20,4120.8800668,N,07038.2522061,W,1,23,0.6,0.252,M,-30.475,M,0.0,*64
###2023-05-05 14:09:30.723907$GNGGA,181011.20,4120.8804917,N,07038.2535174,W,1,23,0.6,0.057,M,-30.475,M,0.0,*6A
###2023-05-05 14:09:32.718306$GNGGA,181013.20,4120.8815332,N,07038.2552010,W,1,23,0.6,0.422,M,-30.475,M,0.0,*61
###2023-05-05 14:09:34.722974$GNGGA,181015.20,4120.8821059,N,07038.2567080,W,1,23,0.6,0.109,M,-30.475,M,0.0,*6D
###2023-05-05 14:09:36.725954$GNGGA,181017.20,4120.8824450,N,07038.2576756,W,1,23,0.6,0.199,M,-30.475,M,0.0,*62
###2023-05-05 14:09:38.725928$GNGGA,181019.20,4120.8843373,N,07038.2585600,W,1,23,0.6,0.257,M,-30.475,M,0.0,*64
###2023-05-05 14:09:40.724768$GNGGA,181021.20,4120.8857358,N,07038.2601947,W,1,23,0.6,0.166,M,-30.475,M,0.0,*61
###2023-05-05 14:09:42.725921$GNGGA,181023.20,4120.8869179,N,07038.2627723,W,1,23,0.6,0.514,M,-30.475,M,0.0,*66
###2023-05-05 14:09:44.726484$GNGGA,181025.20,4120.8876741,N,07038.2656691,W,1,23,0.6,0.466,M,-30.475,M,0.0,*69
###2023-05-05 14:09:46.724869$GNGGA,181027.20,4120.8869688,N,07038.2679093,W,1,24,0.6,0.255,M,-30.475,M,0.0,*69
###2023-05-05 14:09:48.725719$GNGGA,181029.20,4120.8852636,N,07038.2690897,W,1,24,0.6,0.004,M,-30.475,M,0.0,*67
###2023-05-05 14:09:50.725670$GNGGA,181031.20,4120.8830778,N,07038.2696151,W,1,24,0.6,0.089,M,-30.475,M,0.0,*61
###2023-05-05 14:09:52.725532$GNGGA,181033.20,4120.8811661,N,07038.2698292,W,1,23,0.6,0.426,M,-30.475,M,0.0,*6D
###2023-05-05 14:09:54.725479$GNGGA,181035.20,4120.8792339,N,07038.2698579,W,1,23,0.6,0.029,M,-30.475,M,0.0,*6E
###2023-05-05 14:09:56.726717$GNGGA,181037.20,4120.8769097,N,07038.2704337,W,1,24,0.6,0.067,M,-30.475,M,0.0,*6A
###2023-05-05 14:09:58.723411$GNGGA,181039.20,4120.8746956,N,07038.2715888,W,1,24,0.6,0.023,M,-30.475,M,0.0,*62
###2023-05-05 14:10:00.724537$GNGGA,181041.20,4120.8735114,N,07038.2734493,W,1,24,0.6,0.224,M,-30.475,M,0.0,*67
###2023-05-05 14:10:02.722851$GNGGA,181043.20,4120.8732208,N,07038.2758466,W,1,23,0.6,0.122,M,-30.475,M,0.0,*6E
###2023-05-05 14:10:04.724413$GNGGA,181045.20,4120.8739630,N,07038.2779578,W,1,23,0.6,0.414,M,-30.475,M,0.0,*61
###2023-05-05 14:10:06.726352$GNGGA,181047.20,4120.8754157,N,07038.2796312,W,1,23,0.6,0.150,M,-30.475,M,0.0,*60
###2023-05-05 14:10:08.725431$GNGGA,181049.20,4120.8769023,N,07038.2809768,W,1,23,0.6,-0.059,M,-30.475,M,0.0,*47
###2023-05-05 14:10:10.726369$GNGGA,181051.20,4120.8783166,N,07038.2822180,W,1,23,0.6,-0.090,M,-30.475,M,0.0,*46
###2023-05-05 14:10:12.726232$GNGGA,181053.20,4120.8798912,N,07038.2833050,W,1,23,0.6,0.125,M,-30.475,M,0.0,*6B
###2023-05-05 14:10:14.726302$GNGGA,181055.20,4120.8815515,N,07038.2840172,W,1,23,0.6,0.120,M,-30.475,M,0.0,*6C
###2023-05-05 14:10:16.726363$GNGGA,181057.20,4120.8832155,N,07038.2845991,W,1,23,0.6,0.032,M,-30.475,M,0.0,*69
###2023-05-05 14:10:18.721630$GNGGA,181059.20,4120.8850773,N,07038.2858948,W,1,23,0.6,0.204,M,-30.475,M,0.0,*6E
###2023-05-05 14:10:20.739824$GNGGA,181101.20,4120.8876275,N,07038.2878601,W,1,23,0.6,0.452,M,-30.475,M,0.0,*60
###2023-05-05 14:10:22.726090$GNGGA,181103.20,4120.8894513,N,07038.2899803,W,1,23,0.6,0.240,M,-30.475,M,0.0,*6F
###2023-05-05 14:10:24.727054$GNGGA,181105.20,4120.8899170,N,07038.2924355,W,1,23,0.6,0.192,M,-30.475,M,0.0,*66
###2023-05-05 14:10:26.727745$GNGGA,181107.20,4120.8891352,N,07038.2947035,W,1,23,0.6,-0.003,M,-30.475,M,0.0,*4A
###2023-05-05 14:10:28.724022$GNGGA,181109.20,4120.8878393,N,07038.2962626,W,1,23,0.6,-0.003,M,-30.475,M,0.0,*4D
###2023-05-05 14:10:30.726209$GNGGA,181111.20,4120.8861162,N,07038.2970164,W,1,24,0.6,0.172,M,-30.475,M,0.0,*6F
###2023-05-05 14:10:32.726079$GNGGA,181113.20,4120.8846994,N,07038.2978194,W,1,24,0.6,-0.003,M,-30.475,M,0.0,*44
###2023-05-05 14:10:34.724915$GNGGA,181115.20,4120.8829084,N,07038.2984353,W,1,23,0.6,-0.038,M,-30.475,M,0.0,*46
###2023-05-05 14:10:36.725927$GNGGA,181117.20,4120.8809505,N,07038.2995013,W,1,24,0.6,0.114,M,-30.475,M,0.0,*68
###2023-05-05 14:10:38.731374$GNGGA,181119.20,4120.8785964,N,07038.3007070,W,1,24,0.6,0.157,M,-30.476,M,0.0,*64
###2023-05-05 14:10:40.725908$GNGGA,181121.20,4120.8763239,N,07038.3019374,W,1,23,0.6,0.077,M,-30.476,M,0.0,*68
###2023-05-05 14:10:42.726814$GNGGA,181123.20,4120.8747111,N,07038.3034041,W,1,24,0.6,0.032,M,-30.476,M,0.0,*69
###2023-05-05 14:10:44.728468$GNGGA,181125.20,4120.8728852,N,07038.3046534,W,1,23,0.6,-0.034,M,-30.476,M,0.0,*46
###2023-05-05 14:10:46.725876$GNGGA,181127.20,4120.8712928,N,07038.3060710,W,1,23,0.6,-0.182,M,-30.476,M,0.0,*4D
