###2023-05-05 13:14:18.656259$GNGGA,171459.20,4120.6653418,N,07038.3239438,W,1,23,0.6,-0.043,M,-30.484,M,0.0,*4C
###2023-05-05 13:14:20.655848$GNGGA,171501.20,4120.6680335,N,07038.3239906,W,1,23,0.6,0.007,M,-30.484,M,0.0,*6B
###2023-05-05 13:14:22.650225$GNGGA,171503.20,4120.6707958,N,07038.3239926,W,1,23,0.6,0.147,M,-30.484,M,0.0,*61
###2023-05-05 13:14:24.656657$GNGGA,171505.20,4120.6734525,N,07038.3240125,W,1,23,0.6,0.015,M,-30.484,M,0.0,*62
###2023-05-05 13:14:26.656864$GNGGA,171507.20,4120.6761652,N,07038.3240309,W,1,23,0.6,-0.067,M,-30.484,M,0.0,*47
###2023-05-05 13:14:28.654466$GNGGA,171509.20,4120.6789192,N,07038.3239289,W,1,23,0.6,-0.093,M,-30.483,M,0.0,*4F
###2023-05-05 13:14:30.655032$GNGGA,171511.20,4120.6817407,N,07038.3239762,W,1,23,0.6,-0.135,M,-30.483,M,0.0,*4A
###2023-05-05 13:14:32.653444$GNGGA,171513.20,4120.6846260,N,07038.3240290,W,1,23,0.6,-0.189,M,-30.483,M,0.0,*4A
###2023-05-05 13:14:34.654834$GNGGA,171515.20,4120.6875334,N,07038.3240253,W,1,23,0.6,-0.019,M,-30.483,M,0.0,*4B
###2023-05-05 13:14:36.656482$GNGGA,171517.20,4120.6903177,N,07038.3240853,W,1,23,0.6,0.010,M,-30.483,M,0.0,*62
###2023-05-05 13:14:38.656570$GNGGA,171519.20,4120.6930841,N,07038.3241450,W,1,23,0.6,-0.081,M,-30.483,M,0.0,*4B
###2023-05-05 13:14:40.656521$GNGGA,171521.20,4120.6958697,N,07038.3240119,W,1,23,0.6,-0.034,M,-30.483,M,0.0,*4C
###2023-05-05 13:14:42.656488$GNGGA,171523.20,4120.6987189,N,07038.3239249,W,1,23,0.6,-0.218,M,-30.483,M,0.0,*40
###2023-05-05 13:14:44.656561$GNGGA,171525.20,4120.7016649,N,07038.3239658,W,1,23,0.6,-0.487,M,-30.483,M,0.0,*49
###2023-05-05 13:14:46.656405$GNGGA,171527.20,4120.7046358,N,07038.3240591,W,1,23,0.6,-0.488,M,-30.482,M,0.0,*4D
###2023-05-05 13:14:48.656324$GNGGA,171529.20,4120.7075995,N,07038.3239954,W,1,23,0.6,-0.143,M,-30.482,M,0.0,*41
###2023-05-05 13:14:50.655487$GNGGA,171531.20,4120.7105269,N,07038.3240020,W,1,23,0.6,-0.105,M,-30.482,M,0.0,*40
###2023-05-05 13:14:52.656295$GNGGA,171533.20,4120.7134419,N,07038.3240364,W,1,23,0.6,-0.176,M,-30.482,M,0.0,*46
###2023-05-05 13:14:54.657342$GNGGA,171535.20,4120.7163577,N,07038.3240340,W,1,23,0.6,-0.171,M,-30.482,M,0.0,*4A
###2023-05-05 13:14:56.656190$GNGGA,171537.20,4120.7192113,N,07038.3240549,W,1,23,0.6,-0.196,M,-30.482,M,0.0,*46
###2023-05-05 13:14:58.658076$GNGGA,171539.20,4120.7220266,N,07038.3240362,W,1,23,0.6,-0.160,M,-30.482,M,0.0,*45
###2023-05-05 13:15:00.655402$GNGGA,171541.20,4120.7249209,N,07038.3238710,W,1,23,0.6,-0.164,M,-30.482,M,0.0,*46
###2023-05-05 13:15:02.655010$GNGGA,171543.20,4120.7278193,N,07038.3239001,W,1,23,0.6,-0.204,M,-30.482,M,0.0,*45
###2023-05-05 13:15:04.655391$GNGGA,171545.20,4120.7307513,N,07038.3240866,W,1,23,0.6,-0.199,M,-30.481,M,0.0,*45
###2023-05-05 13:15:06.656629$GNGGA,171547.20,4120.7335429,N,07038.3240794,W,1,23,0.6,-0.096,M,-30.481,M,0.0,*42
###2023-05-05 13:15:08.656067$GNGGA,171549.20,4120.7362564,N,07038.3240395,W,1,24,0.6,-0.191,M,-30.481,M,0.0,*42
###2023-05-05 13:15:10.656984$GNGGA,171551.20,4120.7389173,N,07038.3239064,W,1,23,0.6,-0.319,M,-30.481,M,0.0,*4A
###2023-05-05 13:15:12.656997$GNGGA,171553.20,4120.7416973,N,07038.3237596,W,1,23,0.6,-0.329,M,-30.481,M,0.0,*44
###2023-05-05 13:15:14.656962$GNGGA,171555.20,4120.7446126,N,07038.3237309,W,1,23,0.6,-0.423,M,-30.481,M,0.0,*42
###2023-05-05 13:15:16.657129$GNGGA,171557.20,4120.7476034,N,07038.3238730,W,1,23,0.6,-0.198,M,-30.481,M,0.0,*45
###2023-05-05 13:15:18.656982$GNGGA,171559.20,4120.7504217,N,07038.3241008,W,1,23,0.6,-0.235,M,-30.481,M,0.0,*4A
###2023-05-05 13:15:20.656925$GNGGA,171601.20,4120.7530036,N,07038.3241698,W,1,23,0.6,-0.362,M,-30.481,M,0.0,*4E
###2023-05-05 13:15:22.656842$GNGGA,171603.20,4120.7554824,N,07038.3237479,W,1,23,0.6,-0.211,M,-30.481,M,0.0,*4C
###2023-05-05 13:15:24.657772$GNGGA,171605.20,4120.7572480,N,07038.3224033,W,1,23,0.6,-0.061,M,-30.480,M,0.0,*40
###2023-05-05 13:15:26.656836$GNGGA,171607.20,4120.7578824,N,07038.3199548,W,1,23,0.6,-0.288,M,-30.480,M,0.0,*43
###2023-05-05 13:15:28.649255$GNGGA,171609.20,4120.7570661,N,07038.3170129,W,1,23,0.6,-0.731,M,-30.480,M,0.0,*49
###2023-05-05 13:15:30.655845$GNGGA,171611.20,4120.7570194,N,07038.3124355,W,1,23,0.6,-0.515,M,-30.480,M,0.0,*41
###2023-05-05 13:15:32.655904$GNGGA,171613.20,4120.7575447,N,07038.3078968,W,1,23,0.6,-0.169,M,-30.480,M,0.0,*4E
###2023-05-05 13:15:34.655510$GNGGA,171615.20,4120.7579301,N,07038.3040157,W,1,24,0.6,-0.622,M,-30.480,M,0.0,*41
###2023-05-05 13:15:36.658349$GNGGA,171617.20,4120.7578853,N,07038.3005597,W,1,24,0.6,-0.879,M,-30.480,M,0.0,*47
###2023-05-05 13:15:38.657689$GNGGA,171619.20,4120.7576914,N,07038.2973257,W,1,24,0.6,-0.894,M,-30.480,M,0.0,*44
###2023-05-05 13:15:40.657468$GNGGA,171621.20,4120.7575441,N,07038.2942070,W,1,24,0.6,-0.501,M,-30.480,M,0.0,*45
###2023-05-05 13:15:42.657492$GNGGA,171623.20,4120.7574514,N,07038.2912415,W,1,24,0.6,-0.608,M,-30.480,M,0.0,*4F
###2023-05-05 13:15:44.655680$GNGGA,171625.20,4120.7574477,N,07038.2881950,W,1,24,0.6,-0.889,M,-30.480,M,0.0,*4D
###2023-05-05 13:15:46.657497$GNGGA,171627.20,4120.7575341,N,07038.2850911,W,1,24,0.6,-0.907,M,-30.480,M,0.0,*42
###2023-05-05 13:15:48.657470$GNGGA,171629.20,4120.7578517,N,07038.2821910,W,1,24,0.6,-0.713,M,-30.480,M,0.0,*48
###2023-05-05 13:15:50.657316$GNGGA,171631.20,4120.7579716,N,07038.2793360,W,1,24,0.6,-0.817,M,-30.480,M,0.0,*43
###2023-05-05 13:15:52.657447$GNGGA,171633.20,4120.7581131,N,07038.2764458,W,1,24,0.6,-0.832,M,-30.480,M,0.0,*46
###2023-05-05 13:15:54.657184$GNGGA,171635.20,4120.7581956,N,07038.2736120,W,1,24,0.6,-0.962,M,-30.480,M,0.0,*40
###2023-05-05 13:15:56.657267$GNGGA,171637.20,4120.7582611,N,07038.2706192,W,1,24,0.6,-1.106,M,-30.480,M,0.0,*4C
###2023-05-05 13:15:58.655365$GNGGA,171639.20,4120.7583846,N,07038.2676673,W,1,24,0.6,-1.089,M,-30.480,M,0.0,*47
###2023-05-05 13:16:00.656333$GNGGA,171641.20,4120.7585856,N,07038.2647177,W,1,24,0.6,-0.943,M,-30.480,M,0.0,*40
###2023-05-05 13:16:02.654338$GNGGA,171643.20,4120.7586247,N,07038.2618562,W,1,24,0.6,-1.284,M,-30.480,M,0.0,*40
###2023-05-05 13:16:04.656650$GNGGA,171645.20,4120.7587135,N,07038.2589483,W,1,24,0.6,-1.259,M,-30.479,M,0.0,*42
###2023-05-05 13:16:06.658040$GNGGA,171647.20,4120.7589023,N,07038.2560402,W,1,24,0.6,-1.223,M,-30.479,M,0.0,*4B
###2023-05-05 13:16:08.656991$GNGGA,171649.20,4120.7586783,N,07038.2531444,W,1,24,0.6,-1.176,M,-30.479,M,0.0,*42
###2023-05-05 13:16:10.658089$GNGGA,171651.20,4120.7571896,N,07038.2511850,W,1,25,0.6,-1.263,M,-30.479,M,0.0,*45
###2023-05-05 13:16:12.657883$GNGGA,171653.20,4120.7551263,N,07038.2508897,W,1,24,0.6,-1.043,M,-30.479,M,0.0,*47
###2023-05-05 13:16:14.657984$GNGGA,171655.20,4120.7530031,N,07038.2514793,W,1,24,0.6,-0.986,M,-30.480,M,0.0,*42
###2023-05-05 13:16:16.657868$GNGGA,171657.20,4120.7507500,N,07038.2516032,W,1,25,0.6,-1.195,M,-30.480,M,0.0,*47
###2023-05-05 13:16:18.658932$GNGGA,171659.20,4120.7485717,N,07038.2519994,W,1,24,0.6,-1.083,M,-30.480,M,0.0,*4B
###2023-05-05 13:16:20.651200$GNGGA,171701.20,4120.7465900,N,07038.2520725,W,1,25,0.6,-0.422,M,-30.480,M,0.0,*40
###2023-05-05 13:16:22.657885$GNGGA,171703.20,4120.7444482,N,07038.2520721,W,1,25,0.6,-0.819,M,-30.480,M,0.0,*46
###2023-05-05 13:16:24.658881$GNGGA,171705.20,4120.7421511,N,07038.2518164,W,1,25,0.6,-0.980,M,-30.480,M,0.0,*45
###2023-05-05 13:16:26.657730$GNGGA,171707.20,4120.7398154,N,07038.2518341,W,1,25,0.6,-0.663,M,-30.480,M,0.0,*40
###2023-05-05 13:16:28.657170$GNGGA,171709.20,4120.7376276,N,07038.2518612,W,1,25,0.6,-0.105,M,-30.480,M,0.0,*49
###2023-05-05 13:16:30.657606$GNGGA,171711.20,4120.7354136,N,07038.2519066,W,1,25,0.6,-0.684,M,-30.480,M,0.0,*4D
###2023-05-05 13:16:32.657409$GNGGA,171713.20,4120.7331355,N,07038.2517938,W,1,25,0.6,-0.980,M,-30.480,M,0.0,*4C
###2023-05-05 13:16:34.651243$GNGGA,171715.20,4120.7308342,N,07038.2517405,W,1,25,0.6,-0.582,M,-30.480,M,0.0,*4B
###2023-05-05 13:16:36.658505$GNGGA,171717.20,4120.7285168,N,07038.2518847,W,1,25,0.6,-0.288,M,-30.481,M,0.0,*4E
###2023-05-05 13:16:38.657459$GNGGA,171719.20,4120.7261835,N,07038.2517950,W,1,25,0.6,-0.522,M,-30.481,M,0.0,*44
###2023-05-05 13:16:40.658412$GNGGA,171721.20,4120.7237704,N,07038.2517608,W,1,24,0.6,-0.413,M,-30.481,M,0.0,*41
###2023-05-05 13:16:42.658445$GNGGA,171723.20,4120.7213162,N,07038.2520119,W,1,25,0.6,-0.054,M,-30.481,M,0.0,*46
###2023-05-05 13:16:44.658876$GNGGA,171725.20,4120.7189893,N,07038.2519843,W,1,25,0.6,-0.194,M,-30.481,M,0.0,*46
###2023-05-05 13:16:46.659351$GNGGA,171727.20,4120.7165344,N,07038.2519156,W,1,25,0.6,-0.480,M,-30.481,M,0.0,*4A
###2023-05-05 13:16:48.659535$GNGGA,171729.20,4120.7139307,N,07038.2519810,W,1,24,0.6,-0.341,M,-30.481,M,0.0,*4A
###2023-05-05 13:16:50.658215$GNGGA,171731.20,4120.7113333,N,07038.2520163,W,1,24,0.6,-0.003,M,-30.481,M,0.0,*4E
###2023-05-05 13:16:52.658086$GNGGA,171733.20,4120.7088671,N,07038.2522968,W,1,25,0.6,0.153,M,-30.481,M,0.0,*65
###2023-05-05 13:16:54.659409$GNGGA,171735.20,4120.7064088,N,07038.2520625,W,1,25,0.6,-0.203,M,-30.481,M,0.0,*4E
###2023-05-05 13:16:56.658186$GNGGA,171737.20,4120.7038642,N,07038.2521062,W,1,25,0.6,-0.150,M,-30.481,M,0.0,*44
###2023-05-05 13:16:58.650667$GNGGA,171739.20,4120.7012803,N,07038.2521828,W,1,25,0.6,-0.150,M,-30.482,M,0.0,*4C
###2023-05-05 13:17:00.659047$GNGGA,171741.20,4120.6987231,N,07038.2521341,W,1,25,0.6,-0.171,M,-30.482,M,0.0,*4B
###2023-05-05 13:17:02.657563$GNGGA,171743.20,4120.6961679,N,07038.2521481,W,1,25,0.6,-0.136,M,-30.482,M,0.0,*41
###2023-05-05 13:17:04.657070$GNGGA,171745.20,4120.6936703,N,07038.2522474,W,1,25,0.6,0.040,M,-30.482,M,0.0,*6D
###2023-05-05 13:17:06.657745$GNGGA,171747.20,4120.6911667,N,07038.2522499,W,1,25,0.6,-0.111,M,-30.482,M,0.0,*42
###2023-05-05 13:17:08.658938$GNGGA,171749.20,4120.6885747,N,07038.2519907,W,1,25,0.6,-0.482,M,-30.482,M,0.0,*4E
###2023-05-05 13:17:10.659077$GNGGA,171751.20,4120.6858131,N,07038.2524199,W,1,25,0.6,-0.305,M,-30.482,M,0.0,*49
###2023-05-05 13:17:12.653205$GNGGA,171753.20,4120.6833551,N,07038.2524958,W,1,25,0.6,0.040,M,-30.482,M,0.0,*6E
###2023-05-05 13:17:14.657821$GNGGA,171755.20,4120.6809406,N,07038.2524295,W,1,25,0.6,-0.399,M,-30.482,M,0.0,*42
###2023-05-05 13:17:16.658889$GNGGA,171757.20,4120.6784046,N,07038.2522955,W,1,25,0.6,-0.378,M,-30.482,M,0.0,*44
###2023-05-05 13:17:18.658855$GNGGA,171759.20,4120.6757548,N,07038.2522049,W,1,25,0.6,-0.293,M,-30.482,M,0.0,*4F
###2023-05-05 13:17:20.658823$GNGGA,171801.20,4120.6731087,N,07038.2522051,W,1,25,0.6,-0.418,M,-30.483,M,0.0,*46
###2023-05-05 13:17:22.658793$GNGGA,171803.20,4120.6704949,N,07038.2523390,W,1,25,0.6,-0.456,M,-30.483,M,0.0,*4C
###2023-05-05 13:17:24.661015$GNGGA,171805.20,4120.6679194,N,07038.2525055,W,1,25,0.6,-0.288,M,-30.483,M,0.0,*40
###2023-05-05 13:17:26.659747$GNGGA,171807.20,4120.6654945,N,07038.2524204,W,1,25,0.6,-0.353,M,-30.483,M,0.0,*49
###2023-05-05 13:17:28.657331$GNGGA,171809.20,4120.6628907,N,07038.2524463,W,1,25,0.6,-0.271,M,-30.483,M,0.0,*4C
###2023-05-05 13:17:30.658351$GNGGA,171811.20,4120.6602985,N,07038.2522654,W,1,25,0.6,-0.356,M,-30.483,M,0.0,*43
###2023-05-05 13:17:32.656730$GNGGA,171813.20,4120.6576940,N,07038.2525313,W,1,25,0.6,-0.322,M,-30.483,M,0.0,*4A
###2023-05-05 13:17:34.658313$GNGGA,171815.20,4120.6551546,N,07038.2524601,W,1,25,0.6,-0.234,M,-30.483,M,0.0,*42
###2023-05-05 13:17:36.659536$GNGGA,171817.20,4120.6526555,N,07038.2526697,W,1,25,0.6,0.034,M,-30.483,M,0.0,*60
