###2023-05-05 12:37:38.613867$GNGGA,163819.20,4120.8562320,N,07038.3736903,W,1,21,0.7,-0.296,M,-30.478,M,0.0,*41
###2023-05-05 12:37:40.608269$GNGGA,163821.20,4120.8578569,N,07038.3741953,W,1,22,0.6,-0.208,M,-30.477,M,0.0,*45
###2023-05-05 12:37:42.613716$GNGGA,163823.20,4120.8599563,N,07038.3748815,W,1,22,0.6,0.053,M,-30.477,M,0.0,*69
###2023-05-05 12:37:44.615854$GNGGA,163825.20,4120.8620492,N,07038.3747540,W,1,21,0.7,0.408,M,-30.477,M,0.0,*6B
###2023-05-05 12:37:46.615080$GNGGA,163827.20,4120.8643616,N,07038.3753848,W,1,22,0.6,0.020,M,-30.477,M,0.0,*6E
###2023-05-05 12:37:48.614805$GNGGA,163829.20,4120.8668508,N,07038.3763501,W,1,21,0.7,-0.062,M,-30.477,M,0.0,*4F
###2023-05-05 12:37:50.613527$GNGGA,163831.20,4120.8691146,N,07038.3786041,W,1,21,0.7,0.094,M,-30.477,M,0.0,*60
###2023-05-05 12:37:52.613608$GNGGA,163833.20,4120.8694832,N,07038.3824150,W,1,21,0.7,0.038,M,-30.477,M,0.0,*6D
###2023-05-05 12:37:54.615506$GNGGA,163835.20,4120.8678223,N,07038.3854601,W,1,22,0.6,0.018,M,-30.477,M,0.0,*67
###2023-05-05 12:37:56.615161$GNGGA,163837.20,4120.8671371,N,07038.3877992,W,1,22,0.6,0.505,M,-30.477,M,0.0,*67
###2023-05-05 12:37:58.606577$GNGGA,163839.20,4120.8663003,N,07038.3902421,W,1,22,0.6,0.143,M,-30.477,M,0.0,*6C
###2023-05-05 12:38:00.613184$GNGGA,163841.20,4120.8641931,N,07038.3915431,W,1,22,0.6,0.284,M,-30.477,M,0.0,*64
###2023-05-05 12:38:02.614482$GNGGA,163843.20,4120.8619396,N,07038.3914028,W,1,22,0.6,0.132,M,-30.478,M,0.0,*60
###2023-05-05 12:38:04.613390$GNGGA,163845.20,4120.8602439,N,07038.3914278,W,1,21,0.7,0.386,M,-30.478,M,0.0,*66
###2023-05-05 12:38:06.615218$GNGGA,163847.20,4120.8584695,N,07038.3915572,W,1,22,0.6,0.225,M,-30.478,M,0.0,*6B
###2023-05-05 12:38:08.614278$GNGGA,163849.20,4120.8563838,N,07038.3915332,W,1,22,0.6,0.037,M,-30.478,M,0.0,*66
###2023-05-05 12:38:10.614246$GNGGA,163851.20,4120.8545863,N,07038.3913725,W,1,22,0.6,0.519,M,-30.478,M,0.0,*68
###2023-05-05 12:38:12.614343$GNGGA,163853.20,4120.8525943,N,07038.3916896,W,1,21,0.7,0.089,M,-30.478,M,0.0,*63
###2023-05-05 12:38:14.613135$GNGGA,163855.20,4120.8504094,N,07038.3916592,W,1,22,0.6,0.212,M,-30.478,M,0.0,*6E
###2023-05-05 12:38:16.614323$GNGGA,163857.20,4120.8478219,N,07038.3911844,W,1,22,0.6,0.240,M,-30.478,M,0.0,*67
###2023-05-05 12:38:18.608614$GNGGA,163859.20,4120.8452470,N,07038.3912744,W,1,22,0.6,0.329,M,-30.478,M,0.0,*6A
###2023-05-05 12:38:20.616068$GNGGA,163901.20,4120.8423219,N,07038.3908690,W,1,22,0.6,0.441,M,-30.478,M,0.0,*63
###2023-05-05 12:38:22.616025$GNGGA,163903.20,4120.8389474,N,07038.3900983,W,1,22,0.6,0.283,M,-30.478,M,0.0,*66
###2023-05-05 12:38:24.616946$GNGGA,163905.20,4120.8356222,N,07038.3890162,W,1,22,0.6,0.302,M,-30.479,M,0.0,*61
###2023-05-05 12:38:26.616048$GNGGA,163907.20,4120.8327536,N,07038.3874292,W,1,22,0.6,0.308,M,-30.479,M,0.0,*6B
###2023-05-05 12:38:28.613951$GNGGA,163909.20,4120.8298881,N,07038.3858798,W,1,22,0.6,0.191,M,-30.479,M,0.0,*62
###2023-05-05 12:38:30.614787$GNGGA,163911.20,4120.8269565,N,07038.3839885,W,1,22,0.6,0.277,M,-30.479,M,0.0,*6D
###2023-05-05 12:38:32.608383$GNGGA,163913.20,4120.8236829,N,07038.3828978,W,1,22,0.6,0.292,M,-30.479,M,0.0,*68
###2023-05-05 12:38:34.614687$GNGGA,163915.20,4120.8214560,N,07038.3830799,W,1,22,0.6,0.752,M,-30.479,M,0.0,*6F
###2023-05-05 12:38:36.616696$GNGGA,163917.20,4120.8196728,N,07038.3832536,W,1,22,0.6,0.201,M,-30.479,M,0.0,*6C
###2023-05-05 12:38:38.615761$GNGGA,163919.20,4120.8177144,N,07038.3831861,W,1,22,0.6,0.165,M,-30.479,M,0.0,*6C
###2023-05-05 12:38:40.615644$GNGGA,163921.20,4120.8156124,N,07038.3831548,W,1,22,0.6,0.266,M,-30.479,M,0.0,*64
###2023-05-05 12:38:42.615647$GNGGA,163923.20,4120.8139899,N,07038.3837761,W,1,22,0.6,0.207,M,-30.479,M,0.0,*68
###2023-05-05 12:38:44.615565$GNGGA,163925.20,4120.8117900,N,07038.3838842,W,1,22,0.6,0.211,M,-30.479,M,0.0,*65
###2023-05-05 12:38:46.615529$GNGGA,163927.20,4120.8094269,N,07038.3843802,W,1,22,0.6,0.462,M,-30.479,M,0.0,*63
###2023-05-05 12:38:48.617539$GNGGA,163929.20,4120.8070891,N,07038.3851813,W,1,22,0.6,0.523,M,-30.480,M,0.0,*6B
###2023-05-05 12:38:50.609896$GNGGA,163931.20,4120.8048228,N,07038.3856042,W,1,22,0.6,0.483,M,-30.480,M,0.0,*61
###2023-05-05 12:38:52.616378$GNGGA,163933.20,4120.8027037,N,07038.3858861,W,1,22,0.6,0.326,M,-30.480,M,0.0,*69
###2023-05-05 12:38:54.617374$GNGGA,163935.20,4120.8005490,N,07038.3861417,W,1,22,0.6,0.177,M,-30.480,M,0.0,*67
###2023-05-05 12:38:56.616292$GNGGA,163937.20,4120.7981655,N,07038.3862505,W,1,22,0.6,0.033,M,-30.480,M,0.0,*64
###2023-05-05 12:38:58.614306$GNGGA,163939.20,4120.7956804,N,07038.3865700,W,1,22,0.6,0.347,M,-30.480,M,0.0,*6A
###2023-05-05 12:39:00.616231$GNGGA,163941.20,4120.7932341,N,07038.3870614,W,1,22,0.6,0.247,M,-30.480,M,0.0,*6C
###2023-05-05 12:39:02.615198$GNGGA,163943.20,4120.7907555,N,07038.3873596,W,1,22,0.6,0.069,M,-30.480,M,0.0,*6F
###2023-05-05 12:39:04.615260$GNGGA,163945.20,4120.7883386,N,07038.3878181,W,1,22,0.6,0.424,M,-30.480,M,0.0,*68
###2023-05-05 12:39:06.616140$GNGGA,163947.20,4120.7859511,N,07038.3880983,W,1,22,0.6,0.301,M,-30.480,M,0.0,*68
###2023-05-05 12:39:08.615314$GNGGA,163949.20,4120.7834173,N,07038.3883278,W,1,22,0.6,0.083,M,-30.480,M,0.0,*68
###2023-05-05 12:39:10.618089$GNGGA,163951.20,4120.7809326,N,07038.3887239,W,1,22,0.6,0.388,M,-30.481,M,0.0,*65
###2023-05-05 12:39:12.617178$GNGGA,163953.20,4120.7784638,N,07038.3891398,W,1,22,0.6,0.308,M,-30.481,M,0.0,*62
###2023-05-05 12:39:14.615944$GNGGA,163955.20,4120.7758731,N,07038.3894979,W,1,22,0.6,0.256,M,-30.481,M,0.0,*67
###2023-05-05 12:39:16.616986$GNGGA,163957.20,4120.7733240,N,07038.3899662,W,1,22,0.6,0.357,M,-30.481,M,0.0,*63
###2023-05-05 12:39:18.616914$GNGGA,163959.20,4120.7709576,N,07038.3904223,W,1,22,0.6,0.496,M,-30.481,M,0.0,*68
###2023-05-05 12:39:20.615811$GNGGA,164001.20,4120.7684560,N,07038.3906434,W,1,22,0.6,0.290,M,-30.481,M,0.0,*6A
###2023-05-05 12:39:22.617719$GNGGA,164003.20,4120.7659424,N,07038.3909507,W,1,22,0.6,0.278,M,-30.481,M,0.0,*61
###2023-05-05 12:39:24.617656$GNGGA,164005.20,4120.7633600,N,07038.3925242,W,1,22,0.6,0.398,M,-30.481,M,0.0,*68
###2023-05-05 12:39:26.615753$GNGGA,164007.20,4120.7618154,N,07038.3959822,W,1,22,0.6,0.367,M,-30.481,M,0.0,*62
###2023-05-05 12:39:28.616702$GNGGA,164009.20,4120.7622365,N,07038.3999956,W,1,22,0.6,0.503,M,-30.481,M,0.0,*6F
###2023-05-05 12:39:30.615601$GNGGA,164011.20,4120.7639595,N,07038.4031015,W,1,22,0.6,0.353,M,-30.481,M,0.0,*64
###2023-05-05 12:39:32.615915$GNGGA,164013.20,4120.7667175,N,07038.4038756,W,1,21,0.7,0.321,M,-30.481,M,0.0,*69
###2023-05-05 12:39:34.616509$GNGGA,164015.20,4120.7689558,N,07038.4018645,W,1,21,0.7,0.324,M,-30.481,M,0.0,*60
###2023-05-05 12:39:36.615587$GNGGA,164017.20,4120.7706599,N,07038.3998449,W,1,21,0.7,0.290,M,-30.481,M,0.0,*6F
###2023-05-05 12:39:38.616399$GNGGA,164019.20,4120.7720553,N,07038.3979799,W,1,21,0.7,0.385,M,-30.481,M,0.0,*67
###2023-05-05 12:39:40.617420$GNGGA,164021.20,4120.7735220,N,07038.3964316,W,1,21,0.7,0.320,M,-30.481,M,0.0,*6B
###2023-05-05 12:39:42.610771$GNGGA,164023.20,4120.7751330,N,07038.3950172,W,1,21,0.7,0.247,M,-30.481,M,0.0,*6C
###2023-05-05 12:39:44.616515$GNGGA,164025.20,4120.7770912,N,07038.3945378,W,1,21,0.7,0.401,M,-30.481,M,0.0,*6B
###2023-05-05 12:39:46.618234$GNGGA,164027.20,4120.7792054,N,07038.3944974,W,1,21,0.7,0.356,M,-30.481,M,0.0,*6C
###2023-05-05 12:39:48.618184$GNGGA,164029.20,4120.7812626,N,07038.3946632,W,1,22,0.6,0.238,M,-30.481,M,0.0,*62
###2023-05-05 12:39:50.618241$GNGGA,164031.20,4120.7831044,N,07038.3948164,W,1,22,0.6,0.260,M,-30.481,M,0.0,*6F
###2023-05-05 12:39:52.617099$GNGGA,164033.20,4120.7849885,N,07038.3950057,W,1,22,0.6,0.237,M,-30.480,M,0.0,*6C
###2023-05-05 12:39:54.618052$GNGGA,164035.20,4120.7869552,N,07038.3953347,W,1,22,0.6,0.415,M,-30.480,M,0.0,*68
###2023-05-05 12:39:56.618042$GNGGA,164037.20,4120.7890235,N,07038.3957083,W,1,23,0.6,0.318,M,-30.480,M,0.0,*6E
###2023-05-05 12:39:58.617179$GNGGA,164039.20,4120.7910994,N,07038.3960651,W,1,23,0.6,0.337,M,-30.480,M,0.0,*69
###2023-05-05 12:40:00.616903$GNGGA,164041.20,4120.7931370,N,07038.3964086,W,1,23,0.6,0.359,M,-30.480,M,0.0,*65
###2023-05-05 12:40:02.615163$GNGGA,164043.20,4120.7951278,N,07038.3966516,W,1,23,0.6,0.390,M,-30.480,M,0.0,*63
###2023-05-05 12:40:04.615869$GNGGA,164045.20,4120.7972316,N,07038.3969579,W,1,23,0.6,0.121,M,-30.480,M,0.0,*63
###2023-05-05 12:40:06.617854$GNGGA,164047.20,4120.7994462,N,07038.3972839,W,1,23,0.6,0.337,M,-30.480,M,0.0,*6B
###2023-05-05 12:40:08.611259$GNGGA,164049.20,4120.8017420,N,07038.3975949,W,1,23,0.6,0.412,M,-30.480,M,0.0,*6F
###2023-05-05 12:40:10.617807$GNGGA,164051.20,4120.8041472,N,07038.3979311,W,1,23,0.6,0.294,M,-30.480,M,0.0,*61
###2023-05-05 12:40:12.617702$GNGGA,164053.20,4120.8066702,N,07038.3986244,W,1,23,0.6,0.497,M,-30.480,M,0.0,*66
###2023-05-05 12:40:14.617654$GNGGA,164055.20,4120.8090525,N,07038.3991030,W,1,23,0.6,0.431,M,-30.480,M,0.0,*65
###2023-05-05 12:40:16.620663$GNGGA,164057.20,4120.8113188,N,07038.3998427,W,1,23,0.6,0.252,M,-30.480,M,0.0,*66
###2023-05-05 12:40:18.618751$GNGGA,164059.20,4120.8135022,N,07038.4000704,W,1,23,0.6,0.186,M,-30.480,M,0.0,*6A
###2023-05-05 12:40:20.616536$GNGGA,164101.20,4120.8158674,N,07038.4002686,W,1,23,0.6,0.066,M,-30.479,M,0.0,*68
###2023-05-05 12:40:22.621211$GNGGA,164103.20,4120.8184037,N,07038.4006485,W,1,23,0.6,0.025,M,-30.479,M,0.0,*68
###2023-05-05 12:40:24.611880$GNGGA,164105.20,4120.8209049,N,07038.4011114,W,1,23,0.6,0.073,M,-30.479,M,0.0,*69
###2023-05-05 12:40:26.617416$GNGGA,164107.20,4120.8235320,N,07038.4015121,W,1,23,0.6,0.010,M,-30.479,M,0.0,*6F
###2023-05-05 12:40:28.615279$GNGGA,164109.20,4120.8262509,N,07038.4019925,W,1,23,0.6,0.139,M,-30.479,M,0.0,*64
###2023-05-05 12:40:30.616280$GNGGA,164111.20,4120.8290770,N,07038.4025654,W,1,23,0.6,0.125,M,-30.479,M,0.0,*67
###2023-05-05 12:40:32.616292$GNGGA,164113.20,4120.8319856,N,07038.4030403,W,1,23,0.6,0.297,M,-30.479,M,0.0,*60
###2023-05-05 12:40:34.618281$GNGGA,164115.20,4120.8350893,N,07038.4033149,W,1,23,0.6,0.483,M,-30.479,M,0.0,*69
###2023-05-05 12:40:36.620266$GNGGA,164117.20,4120.8376700,N,07038.4034038,W,1,23,0.6,0.234,M,-30.479,M,0.0,*60
###2023-05-05 12:40:38.611594$GNGGA,164119.20,4120.8400945,N,07038.4043831,W,1,23,0.6,0.057,M,-30.479,M,0.0,*61
###2023-05-05 12:40:40.618079$GNGGA,164121.20,4120.8424236,N,07038.4047078,W,1,23,0.6,0.044,M,-30.478,M,0.0,*61
###2023-05-05 12:40:42.617036$GNGGA,164123.20,4120.8448975,N,07038.4047894,W,1,23,0.6,0.193,M,-30.478,M,0.0,*64
###2023-05-05 12:40:44.617120$GNGGA,164125.20,4120.8474265,N,07038.4052924,W,1,23,0.6,0.140,M,-30.478,M,0.0,*67
###2023-05-05 12:40:46.618042$GNGGA,164127.20,4120.8497912,N,07038.4056186,W,1,23,0.6,0.047,M,-30.478,M,0.0,*61
###2023-05-05 12:40:48.618024$GNGGA,164129.20,4120.8523862,N,07038.4055036,W,1,23,0.6,-0.043,M,-30.478,M,0.0,*47
###2023-05-05 12:40:50.616949$GNGGA,164131.20,4120.8551736,N,07038.4056834,W,1,23,0.6,0.126,M,-30.478,M,0.0,*63
###2023-05-05 12:40:52.617825$GNGGA,164133.20,4120.8580920,N,07038.4058527,W,1,23,0.6,0.027,M,-30.478,M,0.0,*65
###2023-05-05 12:40:54.617928$GNGGA,164135.20,4120.8610089,N,07038.4059781,W,1,23,0.6,-0.031,M,-30.478,M,0.0,*46
###2023-05-05 12:40:56.611173$GNGGA,164137.20,4120.8638721,N,07038.4058562,W,1,23,0.6,0.133,M,-30.478,M,0.0,*6B
