###2023-05-05 13:07:38.646919$GNGGA,170819.20,4120.7860151,N,07038.1553081,W,1,22,0.6,-0.003,M,-30.477,M,0.0,*44
###2023-05-05 13:07:40.649947$GNGGA,170821.20,4120.7862852,N,07038.1580595,W,1,22,0.6,0.134,M,-30.477,M,0.0,*61
###2023-05-05 13:07:42.649784$GNGGA,170823.20,4120.7863179,N,07038.1610917,W,1,22,0.6,0.249,M,-30.477,M,0.0,*67
###2023-05-05 13:07:44.648844$GNGGA,170825.20,4120.7862121,N,07038.1641609,W,1,22,0.6,-0.022,M,-30.477,M,0.0,*4B
###2023-05-05 13:07:46.648055$GNGGA,170827.20,4120.7861665,N,07038.1669560,W,1,22,0.6,-0.125,M,-30.477,M,0.0,*4D
###2023-05-05 13:07:48.649283$GNGGA,170829.20,4120.7861555,N,07038.1697790,W,1,23,0.6,-0.014,M,-30.477,M,0.0,*4D
###2023-05-05 13:07:50.649560$GNGGA,170831.20,4120.7863786,N,07038.1725866,W,1,22,0.6,0.235,M,-30.477,M,0.0,*69
###2023-05-05 13:07:52.649547$GNGGA,170833.20,4120.7863678,N,07038.1756076,W,1,22,0.6,0.170,M,-30.477,M,0.0,*64
###2023-05-05 13:07:54.650721$GNGGA,170835.20,4120.7861853,N,07038.1785378,W,1,22,0.6,-0.125,M,-30.477,M,0.0,*49
###2023-05-05 13:07:56.648649$GNGGA,170837.20,4120.7861502,N,07038.1813557,W,1,22,0.6,-0.127,M,-30.477,M,0.0,*4B
###2023-05-05 13:07:58.648107$GNGGA,170839.20,4120.7862845,N,07038.1843065,W,1,22,0.6,0.187,M,-30.477,M,0.0,*6E
###2023-05-05 13:08:00.648408$GNGGA,170841.20,4120.7864154,N,07038.1871941,W,1,22,0.6,0.587,M,-30.477,M,0.0,*64
###2023-05-05 13:08:02.649396$GNGGA,170843.20,4120.7862946,N,07038.1901786,W,1,22,0.6,0.378,M,-30.477,M,0.0,*6E
###2023-05-05 13:08:04.649444$GNGGA,170845.20,4120.7861524,N,07038.1930922,W,1,22,0.6,-0.000,M,-30.477,M,0.0,*40
###2023-05-05 13:08:06.650565$GNGGA,170847.20,4120.7862080,N,07038.1958694,W,1,22,0.6,-0.127,M,-30.478,M,0.0,*4D
###2023-05-05 13:08:08.649424$GNGGA,170849.20,4120.7862537,N,07038.1987766,W,1,22,0.6,-0.044,M,-30.478,M,0.0,*40
###2023-05-05 13:08:10.650425$GNGGA,170851.20,4120.7865328,N,07038.2017358,W,1,22,0.6,0.403,M,-30.478,M,0.0,*66
###2023-05-05 13:08:12.653378$GNGGA,170853.20,4120.7867217,N,07038.2046971,W,1,22,0.6,0.592,M,-30.478,M,0.0,*67
###2023-05-05 13:08:14.643598$GNGGA,170855.20,4120.7863353,N,07038.2076966,W,1,22,0.6,0.171,M,-30.478,M,0.0,*68
###2023-05-05 13:08:16.650295$GNGGA,170857.20,4120.7862264,N,07038.2105414,W,1,22,0.6,0.061,M,-30.478,M,0.0,*63
###2023-05-05 13:08:18.651493$GNGGA,170859.20,4120.7862747,N,07038.2134177,W,1,22,0.6,-0.060,M,-30.478,M,0.0,*47
###2023-05-05 13:08:20.650251$GNGGA,170901.20,4120.7863870,N,07038.2163401,W,1,22,0.6,0.152,M,-30.478,M,0.0,*6A
###2023-05-05 13:08:22.650109$GNGGA,170903.20,4120.7863608,N,07038.2191514,W,1,22,0.6,0.337,M,-30.478,M,0.0,*60
###2023-05-05 13:08:24.651033$GNGGA,170905.20,4120.7864222,N,07038.2220174,W,1,22,0.6,0.247,M,-30.478,M,0.0,*60
###2023-05-05 13:08:26.650066$GNGGA,170907.20,4120.7863744,N,07038.2249348,W,1,22,0.6,0.307,M,-30.478,M,0.0,*67
###2023-05-05 13:08:28.647950$GNGGA,170909.20,4120.7862808,N,07038.2277993,W,1,22,0.6,0.024,M,-30.478,M,0.0,*6C
###2023-05-05 13:08:30.648947$GNGGA,170911.20,4120.7863849,N,07038.2306415,W,1,22,0.6,-0.035,M,-30.478,M,0.0,*48
###2023-05-05 13:08:32.646975$GNGGA,170913.20,4120.7865010,N,07038.2335466,W,1,22,0.6,0.153,M,-30.478,M,0.0,*60
###2023-05-05 13:08:34.648932$GNGGA,170915.20,4120.7864210,N,07038.2365215,W,1,22,0.6,0.235,M,-30.478,M,0.0,*61
###2023-05-05 13:08:36.653758$GNGGA,170917.20,4120.7863047,N,07038.2393560,W,1,22,0.6,0.088,M,-30.478,M,0.0,*6C
###2023-05-05 13:08:38.649817$GNGGA,170919.20,4120.7862685,N,07038.2423849,W,1,22,0.6,0.159,M,-30.478,M,0.0,*6C
###2023-05-05 13:08:40.650749$GNGGA,170921.20,4120.7862490,N,07038.2451818,W,1,22,0.6,0.268,M,-30.478,M,0.0,*61
###2023-05-05 13:08:42.653890$GNGGA,170923.20,4120.7862717,N,07038.2480265,W,1,22,0.6,0.336,M,-30.478,M,0.0,*69
###2023-05-05 13:08:44.649785$GNGGA,170925.20,4120.7863195,N,07038.2509722,W,1,22,0.6,0.177,M,-30.478,M,0.0,*63
###2023-05-05 13:08:46.649872$GNGGA,170927.20,4120.7863095,N,07038.2536696,W,1,22,0.6,-0.059,M,-30.478,M,0.0,*42
###2023-05-05 13:08:48.651759$GNGGA,170929.20,4120.7862444,N,07038.2565331,W,1,22,0.6,-0.013,M,-30.478,M,0.0,*45
###2023-05-05 13:08:50.644051$GNGGA,170931.20,4120.7863227,N,07038.2594676,W,1,22,0.6,0.344,M,-30.478,M,0.0,*6A
###2023-05-05 13:08:52.650559$GNGGA,170933.20,4120.7863132,N,07038.2623825,W,1,22,0.6,0.297,M,-30.478,M,0.0,*67
###2023-05-05 13:08:54.652962$GNGGA,170935.20,4120.7862789,N,07038.2652798,W,1,22,0.6,-0.060,M,-30.479,M,0.0,*4F
###2023-05-05 13:08:56.650568$GNGGA,170937.20,4120.7862570,N,07038.2681819,W,1,22,0.6,-0.045,M,-30.479,M,0.0,*46
###2023-05-05 13:08:58.648412$GNGGA,170939.20,4120.7863090,N,07038.2711156,W,1,22,0.6,0.134,M,-30.479,M,0.0,*62
###2023-05-05 13:09:00.650230$GNGGA,170941.20,4120.7861966,N,07038.2740314,W,1,22,0.6,0.143,M,-30.479,M,0.0,*6F
###2023-05-05 13:09:02.649409$GNGGA,170943.20,4120.7860221,N,07038.2768588,W,1,22,0.6,0.108,M,-30.479,M,0.0,*62
###2023-05-05 13:09:04.649595$GNGGA,170945.20,4120.7861466,N,07038.2796036,W,1,22,0.6,-0.102,M,-30.479,M,0.0,*46
###2023-05-05 13:09:06.651387$GNGGA,170947.20,4120.7861092,N,07038.2825363,W,1,22,0.6,-0.265,M,-30.479,M,0.0,*4D
###2023-05-05 13:09:08.649460$GNGGA,170949.20,4120.7862648,N,07038.2854608,W,1,22,0.6,-0.064,M,-30.479,M,0.0,*4C
###2023-05-05 13:09:10.651272$GNGGA,170951.20,4120.7862574,N,07038.2883453,W,1,22,0.6,0.086,M,-30.479,M,0.0,*6E
###2023-05-05 13:09:12.651318$GNGGA,170953.20,4120.7861578,N,07038.2912994,W,1,22,0.6,-0.022,M,-30.479,M,0.0,*4F
###2023-05-05 13:09:14.651561$GNGGA,170955.20,4120.7861694,N,07038.2940836,W,1,22,0.6,-0.256,M,-30.479,M,0.0,*47
###2023-05-05 13:09:16.651241$GNGGA,170957.20,4120.7861814,N,07038.2969652,W,1,22,0.6,-0.207,M,-30.479,M,0.0,*40
###2023-05-05 13:09:18.646460$GNGGA,170959.20,4120.7862774,N,07038.2998586,W,1,22,0.6,0.109,M,-30.479,M,0.0,*60
###2023-05-05 13:09:20.652080$GNGGA,171001.20,4120.7861757,N,07038.3026604,W,1,22,0.6,0.168,M,-30.479,M,0.0,*64
###2023-05-05 13:09:22.651118$GNGGA,171003.20,4120.7861172,N,07038.3055046,W,1,22,0.6,0.107,M,-30.479,M,0.0,*6A
###2023-05-05 13:09:24.652193$GNGGA,171005.20,4120.7861872,N,07038.3084361,W,1,22,0.6,-0.084,M,-30.479,M,0.0,*48
###2023-05-05 13:09:26.644302$GNGGA,171007.20,4120.7861323,N,07038.3112875,W,1,22,0.6,0.006,M,-30.479,M,0.0,*62
###2023-05-05 13:09:28.649976$GNGGA,171009.20,4120.7860876,N,07038.3141645,W,1,22,0.6,-0.029,M,-30.479,M,0.0,*4D
###2023-05-05 13:09:30.651948$GNGGA,171011.20,4120.7861575,N,07038.3170961,W,1,22,0.6,0.190,M,-30.479,M,0.0,*6E
###2023-05-05 13:09:32.649870$GNGGA,171013.20,4120.7860847,N,07038.3199298,W,1,22,0.6,0.035,M,-30.479,M,0.0,*65
###2023-05-05 13:09:34.649868$GNGGA,171015.20,4120.7860026,N,07038.3228302,W,1,22,0.6,-0.110,M,-30.479,M,0.0,*4C
###2023-05-05 13:09:36.651836$GNGGA,171017.20,4120.7860361,N,07038.3257087,W,1,22,0.6,-0.119,M,-30.479,M,0.0,*41
###2023-05-05 13:09:38.652808$GNGGA,171019.20,4120.7861631,N,07038.3286057,W,1,22,0.6,0.251,M,-30.479,M,0.0,*6D
###2023-05-05 13:09:40.651672$GNGGA,171021.20,4120.7860869,N,07038.3316514,W,1,22,0.6,0.074,M,-30.480,M,0.0,*6D
###2023-05-05 13:09:42.654704$GNGGA,171023.20,4120.7860030,N,07038.3345023,W,1,22,0.6,-0.174,M,-30.480,M,0.0,*40
###2023-05-05 13:09:44.650820$GNGGA,171025.20,4120.7860085,N,07038.3373184,W,1,22,0.6,-0.240,M,-30.480,M,0.0,*45
###2023-05-05 13:09:46.651710$GNGGA,171027.20,4120.7860980,N,07038.3401735,W,1,22,0.6,-0.094,M,-30.480,M,0.0,*4E
###2023-05-05 13:09:48.652574$GNGGA,171029.20,4120.7861506,N,07038.3431263,W,1,22,0.6,0.050,M,-30.480,M,0.0,*63
###2023-05-05 13:09:50.651789$GNGGA,171031.20,4120.7860368,N,07038.3460305,W,1,22,0.6,-0.038,M,-30.480,M,0.0,*43
###2023-05-05 13:09:52.651862$GNGGA,171033.20,4120.7860070,N,07038.3488663,W,1,22,0.6,-0.154,M,-30.480,M,0.0,*43
###2023-05-05 13:09:54.652508$GNGGA,171035.20,4120.7859922,N,07038.3517979,W,1,22,0.6,-0.255,M,-30.480,M,0.0,*40
###2023-05-05 13:09:56.652625$GNGGA,171037.20,4120.7860098,N,07038.3546339,W,1,22,0.6,-0.166,M,-30.480,M,0.0,*49
###2023-05-05 13:09:58.650494$GNGGA,171039.20,4120.7861098,N,07038.3575540,W,1,22,0.6,0.086,M,-30.480,M,0.0,*6C
###2023-05-05 13:10:00.651373$GNGGA,171041.20,4120.7861313,N,07038.3605132,W,1,22,0.6,0.133,M,-30.480,M,0.0,*69
###2023-05-05 13:10:02.649485$GNGGA,171043.20,4120.7859671,N,07038.3633482,W,1,22,0.6,-0.066,M,-30.480,M,0.0,*46
###2023-05-05 13:10:04.650407$GNGGA,171045.20,4120.7859520,N,07038.3662707,W,1,22,0.6,-0.066,M,-30.480,M,0.0,*4D
###2023-05-05 13:10:06.652338$GNGGA,171047.20,4120.7860224,N,07038.3691591,W,1,22,0.6,-0.038,M,-30.480,M,0.0,*4C
###2023-05-05 13:10:08.652253$GNGGA,171049.20,4120.7861340,N,07038.3721529,W,1,22,0.6,0.102,M,-30.480,M,0.0,*6C
###2023-05-05 13:10:10.652186$GNGGA,171051.20,4120.7857789,N,07038.3750902,W,1,22,0.6,0.020,M,-30.480,M,0.0,*63
###2023-05-05 13:10:12.653192$GNGGA,171053.20,4120.7857484,N,07038.3778730,W,1,22,0.6,0.011,M,-30.480,M,0.0,*68
###2023-05-05 13:10:14.653264$GNGGA,171055.20,4120.7859141,N,07038.3806978,W,1,22,0.6,-0.154,M,-30.480,M,0.0,*45
###2023-05-05 13:10:16.652072$GNGGA,171057.20,4120.7859420,N,07038.3836217,W,1,22,0.6,0.099,M,-30.480,M,0.0,*69
###2023-05-05 13:10:18.647484$GNGGA,171059.20,4120.7859541,N,07038.3865208,W,1,22,0.6,0.158,M,-30.480,M,0.0,*65
###2023-05-05 13:10:20.651239$GNGGA,171101.20,4120.7860852,N,07038.3893307,W,1,22,0.6,0.019,M,-30.480,M,0.0,*6F
###2023-05-05 13:10:22.652055$GNGGA,171103.20,4120.7858497,N,07038.3923363,W,1,22,0.6,0.093,M,-30.480,M,0.0,*69
###2023-05-05 13:10:24.653037$GNGGA,171105.20,4120.7858633,N,07038.3951005,W,1,22,0.6,-0.066,M,-30.480,M,0.0,*42
###2023-05-05 13:10:26.652081$GNGGA,171107.20,4120.7858679,N,07038.3979475,W,1,22,0.6,-0.071,M,-30.481,M,0.0,*40
###2023-05-05 13:10:28.649681$GNGGA,171109.20,4120.7858752,N,07038.4007709,W,1,22,0.6,0.073,M,-30.481,M,0.0,*66
###2023-05-05 13:10:30.650646$GNGGA,171111.20,4120.7847476,N,07038.4034058,W,1,22,0.6,0.126,M,-30.481,M,0.0,*66
###2023-05-05 13:10:32.649755$GNGGA,171113.20,4120.7827975,N,07038.4046153,W,1,23,0.6,0.037,M,-30.481,M,0.0,*63
###2023-05-05 13:10:34.651944$GNGGA,171115.20,4120.7806776,N,07038.4040705,W,1,23,0.6,0.072,M,-30.481,M,0.0,*69
###2023-05-05 13:10:36.652702$GNGGA,171117.20,4120.7788626,N,07038.4025777,W,1,23,0.6,0.065,M,-30.481,M,0.0,*66
###2023-05-05 13:10:38.650743$GNGGA,171119.20,4120.7768668,N,07038.4018802,W,1,22,0.6,0.067,M,-30.481,M,0.0,*6C
###2023-05-05 13:10:40.651849$GNGGA,171121.20,4120.7746210,N,07038.4021718,W,1,23,0.6,0.021,M,-30.481,M,0.0,*6D
###2023-05-05 13:10:42.652625$GNGGA,171123.20,4120.7724788,N,07038.4021535,W,1,22,0.6,0.159,M,-30.481,M,0.0,*6D
###2023-05-05 13:10:44.651705$GNGGA,171125.20,4120.7703420,N,07038.4022417,W,1,23,0.6,0.121,M,-30.481,M,0.0,*63
###2023-05-05 13:10:46.651588$GNGGA,171127.20,4120.7681958,N,07038.4023497,W,1,23,0.6,0.182,M,-30.481,M,0.0,*68
###2023-05-05 13:10:48.652431$GNGGA,171129.20,4120.7660271,N,07038.4023473,W,1,23,0.6,0.131,M,-30.481,M,0.0,*6B
###2023-05-05 13:10:50.651470$GNGGA,171131.20,4120.7639358,N,07038.4022944,W,1,23,0.6,0.431,M,-30.481,M,0.0,*69
###2023-05-05 13:10:52.651411$GNGGA,171133.20,4120.7617678,N,07038.4022671,W,1,23,0.6,0.096,M,-30.481,M,0.0,*60
###2023-05-05 13:10:54.652311$GNGGA,171135.20,4120.7594439,N,07038.4023743,W,1,23,0.6,0.211,M,-30.482,M,0.0,*66
###2023-05-05 13:10:56.650417$GNGGA,171137.20,4120.7572041,N,07038.4021767,W,1,23,0.6,0.107,M,-30.482,M,0.0,*67
