###2023-05-05 13:54:10.704888$GNGGA,175451.20,4120.8510122,N,07038.0366649,W,1,23,0.6,-0.258,M,-30.473,M,0.0,*4A
###2023-05-05 13:54:12.714327$GNGGA,175453.20,4120.8497661,N,07038.0343875,W,1,23,0.6,0.163,M,-30.473,M,0.0,*66
###2023-05-05 13:54:14.702871$GNGGA,175455.20,4120.8495702,N,07038.0315213,W,1,23,0.6,-0.340,M,-30.473,M,0.0,*41
###2023-05-05 13:54:16.704730$GNGGA,175457.20,4120.8504663,N,07038.0288031,W,1,23,0.6,-0.076,M,-30.473,M,0.0,*4D
###2023-05-05 13:54:18.704839$GNGGA,175459.20,4120.8511700,N,07038.0259224,W,1,23,0.6,0.335,M,-30.473,M,0.0,*60
###2023-05-05 13:54:20.703749$GNGGA,175501.20,4120.8502838,N,07038.0232079,W,1,23,0.6,-0.097,M,-30.473,M,0.0,*4B
###2023-05-05 13:54:22.703673$GNGGA,175503.20,4120.8504352,N,07038.0204752,W,1,23,0.6,-0.054,M,-30.473,M,0.0,*4C
###2023-05-05 13:54:24.702510$GNGGA,175505.20,4120.8516151,N,07038.0181533,W,1,23,0.6,0.024,M,-30.472,M,0.0,*68
###2023-05-05 13:54:26.706721$GNGGA,175507.20,4120.8537640,N,07038.0178565,W,1,23,0.6,-0.115,M,-30.472,M,0.0,*45
###2023-05-05 13:54:28.701170$GNGGA,175509.20,4120.8559445,N,07038.0186420,W,1,23,0.6,-0.074,M,-30.472,M,0.0,*43
###2023-05-05 13:54:30.701735$GNGGA,175511.20,4120.8581566,N,07038.0190756,W,1,23,0.6,0.224,M,-30.472,M,0.0,*60
###2023-05-05 13:54:32.702428$GNGGA,175513.20,4120.8602995,N,07038.0190118,W,1,23,0.6,0.225,M,-30.472,M,0.0,*67
###2023-05-05 13:54:34.702524$GNGGA,175515.20,4120.8620789,N,07038.0196710,W,1,22,0.6,-0.166,M,-30.472,M,0.0,*42
###2023-05-05 13:54:36.703404$GNGGA,175517.20,4120.8628355,N,07038.0225794,W,1,22,0.6,-0.167,M,-30.472,M,0.0,*4B
###2023-05-05 13:54:38.705319$GNGGA,175519.20,4120.8626278,N,07038.0258146,W,1,22,0.6,-0.021,M,-30.472,M,0.0,*45
###2023-05-05 13:54:40.698684$GNGGA,175521.20,4120.8616160,N,07038.0286562,W,1,22,0.6,-0.178,M,-30.472,M,0.0,*4B
###2023-05-05 13:54:42.704597$GNGGA,175523.20,4120.8614903,N,07038.0311565,W,1,22,0.6,-0.135,M,-30.472,M,0.0,*47
###2023-05-05 13:54:44.703222$GNGGA,175525.20,4120.8618935,N,07038.0336459,W,1,22,0.6,-0.095,M,-30.472,M,0.0,*48
###2023-05-05 13:54:46.706189$GNGGA,175527.20,4120.8622990,N,07038.0364114,W,1,22,0.6,-0.049,M,-30.472,M,0.0,*46
###2023-05-05 13:54:48.714170$GNGGA,175529.20,4120.8621010,N,07038.0393257,W,1,22,0.6,-0.123,M,-30.472,M,0.0,*4B
###2023-05-05 13:54:50.703992$GNGGA,175531.20,4120.8620005,N,07038.0426367,W,1,22,0.6,0.166,M,-30.472,M,0.0,*60
###2023-05-05 13:54:52.705118$GNGGA,175533.20,4120.8616628,N,07038.0455743,W,1,22,0.6,-0.027,M,-30.472,M,0.0,*41
###2023-05-05 13:54:54.704092$GNGGA,175535.20,4120.8616854,N,07038.0483458,W,1,22,0.6,-0.140,M,-30.473,M,0.0,*41
###2023-05-05 13:54:56.704076$GNGGA,175537.20,4120.8620538,N,07038.0510962,W,1,22,0.6,-0.171,M,-30.473,M,0.0,*4C
###2023-05-05 13:54:58.705020$GNGGA,175539.20,4120.8619666,N,07038.0539022,W,1,22,0.6,-0.276,M,-30.473,M,0.0,*42
###2023-05-05 13:55:00.706032$GNGGA,175541.20,4120.8626413,N,07038.0569152,W,1,22,0.6,0.263,M,-30.473,M,0.0,*6B
###2023-05-05 13:55:02.702943$GNGGA,175543.20,4120.8623575,N,07038.0600315,W,1,22,0.6,-0.200,M,-30.473,M,0.0,*48
###2023-05-05 13:55:04.704858$GNGGA,175545.20,4120.8615130,N,07038.0628137,W,1,22,0.6,-0.308,M,-30.473,M,0.0,*4F
###2023-05-05 13:55:06.707799$GNGGA,175547.20,4120.8618888,N,07038.0655074,W,1,22,0.6,-0.232,M,-30.473,M,0.0,*4E
###2023-05-05 13:55:08.705866$GNGGA,175549.20,4120.8619141,N,07038.0682448,W,1,22,0.6,-0.376,M,-30.473,M,0.0,*4D
###2023-05-05 13:55:10.714082$GNGGA,175551.20,4120.8624946,N,07038.0710504,W,1,22,0.6,0.357,M,-30.473,M,0.0,*68
###2023-05-05 13:55:12.705688$GNGGA,175553.20,4120.8629511,N,07038.0738782,W,1,22,0.6,-0.339,M,-30.473,M,0.0,*4A
###2023-05-05 13:55:14.705732$GNGGA,175555.20,4120.8621487,N,07038.0768376,W,1,22,0.6,-0.275,M,-30.473,M,0.0,*49
###2023-05-05 13:55:16.705071$GNGGA,175557.20,4120.8621342,N,07038.0796938,W,1,22,0.6,-0.007,M,-30.473,M,0.0,*43
###2023-05-05 13:55:18.705637$GNGGA,175559.20,4120.8621394,N,07038.0823818,W,1,22,0.6,-0.239,M,-30.473,M,0.0,*4B
###2023-05-05 13:55:20.704617$GNGGA,175601.20,4120.8622635,N,07038.0853536,W,1,22,0.6,0.155,M,-30.473,M,0.0,*6A
###2023-05-05 13:55:22.705554$GNGGA,175603.20,4120.8620670,N,07038.0882111,W,1,22,0.6,-0.248,M,-30.473,M,0.0,*44
###2023-05-05 13:55:24.726371$GNGGA,175605.20,4120.8624720,N,07038.0910101,W,1,22,0.6,0.020,M,-30.473,M,0.0,*68
###2023-05-05 13:55:26.706449$GNGGA,175607.20,4120.8627476,N,07038.0938726,W,1,22,0.6,-0.033,M,-30.473,M,0.0,*4F
###2023-05-05 13:55:28.705275$GNGGA,175609.20,4120.8624015,N,07038.0967595,W,1,22,0.6,0.099,M,-30.473,M,0.0,*6E
###2023-05-05 13:55:30.698719$GNGGA,175611.20,4120.8622785,N,07038.0997152,W,1,22,0.6,0.057,M,-30.473,M,0.0,*6D
###2023-05-05 13:55:32.704413$GNGGA,175613.20,4120.8621707,N,07038.1024879,W,1,22,0.6,-0.172,M,-30.473,M,0.0,*4D
###2023-05-05 13:55:34.705302$GNGGA,175615.20,4120.8623032,N,07038.1053548,W,1,22,0.6,-0.214,M,-30.473,M,0.0,*44
###2023-05-05 13:55:36.705251$GNGGA,175617.20,4120.8621653,N,07038.1081775,W,1,22,0.6,0.033,M,-30.473,M,0.0,*6C
###2023-05-05 13:55:38.705305$GNGGA,175619.20,4120.8624257,N,07038.1111038,W,1,22,0.6,0.192,M,-30.473,M,0.0,*6B
###2023-05-05 13:55:40.707406$GNGGA,175621.20,4120.8618553,N,07038.1140394,W,1,22,0.6,-0.105,M,-30.473,M,0.0,*4E
###2023-05-05 13:55:42.714758$GNGGA,175623.20,4120.8620346,N,07038.1168020,W,1,22,0.6,-0.316,M,-30.474,M,0.0,*44
###2023-05-05 13:55:44.705128$GNGGA,175625.20,4120.8625651,N,07038.1195344,W,1,22,0.6,-0.263,M,-30.474,M,0.0,*44
###2023-05-05 13:55:46.707102$GNGGA,175627.20,4120.8623661,N,07038.1224758,W,1,22,0.6,-0.259,M,-30.474,M,0.0,*4A
###2023-05-05 13:55:48.706065$GNGGA,175629.20,4120.8623592,N,07038.1253329,W,1,22,0.6,0.023,M,-30.474,M,0.0,*6B
###2023-05-05 13:55:50.706095$GNGGA,175631.20,4120.8621687,N,07038.1282275,W,1,22,0.6,-0.034,M,-30.474,M,0.0,*48
###2023-05-05 13:55:52.708208$GNGGA,175633.20,4120.8618719,N,07038.1310913,W,1,22,0.6,-0.272,M,-30.474,M,0.0,*47
###2023-05-05 13:55:54.707078$GNGGA,175635.20,4120.8622338,N,07038.1338287,W,1,22,0.6,-0.253,M,-30.474,M,0.0,*40
###2023-05-05 13:55:56.706032$GNGGA,175637.20,4120.8622310,N,07038.1367713,W,1,22,0.6,-0.128,M,-30.474,M,0.0,*45
###2023-05-05 13:55:58.707188$GNGGA,175639.20,4120.8621665,N,07038.1396523,W,1,22,0.6,-0.245,M,-30.474,M,0.0,*48
###2023-05-05 13:56:00.725220$GNGGA,175641.20,4120.8621625,N,07038.1426551,W,1,22,0.6,0.042,M,-30.474,M,0.0,*62
###2023-05-05 13:56:02.705644$GNGGA,175643.20,4120.8621148,N,07038.1455590,W,1,22,0.6,-0.074,M,-30.474,M,0.0,*4D
###2023-05-05 13:56:04.706879$GNGGA,175645.20,4120.8623456,N,07038.1484161,W,1,22,0.6,0.230,M,-30.474,M,0.0,*6A
###2023-05-05 13:56:06.707901$GNGGA,175647.20,4120.8620091,N,07038.1514387,W,1,22,0.6,-0.223,M,-30.474,M,0.0,*49
###2023-05-05 13:56:08.706707$GNGGA,175649.20,4120.8620423,N,07038.1542174,W,1,22,0.6,0.025,M,-30.474,M,0.0,*6E
###2023-05-05 13:56:10.703083$GNGGA,175651.20,4120.8621199,N,07038.1571168,W,1,22,0.6,0.113,M,-30.474,M,0.0,*6B
###2023-05-05 13:56:12.707649$GNGGA,175653.20,4120.8622534,N,07038.1598627,W,1,22,0.6,0.071,M,-30.474,M,0.0,*67
###2023-05-05 13:56:14.706603$GNGGA,175655.20,4120.8622499,N,07038.1628008,W,1,22,0.6,0.152,M,-30.474,M,0.0,*64
###2023-05-05 13:56:16.708722$GNGGA,175657.20,4120.8621468,N,07038.1658372,W,1,22,0.6,-0.109,M,-30.474,M,0.0,*41
###2023-05-05 13:56:18.716729$GNGGA,175659.20,4120.8620269,N,07038.1685891,W,1,22,0.6,-0.138,M,-30.474,M,0.0,*4D
###2023-05-05 13:56:20.707659$GNGGA,175701.20,4120.8621226,N,07038.1715327,W,1,22,0.6,0.229,M,-30.474,M,0.0,*6B
###2023-05-05 13:56:22.713905$GNGGA,175703.20,4120.8624177,N,07038.1743401,W,1,22,0.6,0.278,M,-30.474,M,0.0,*6F
###2023-05-05 13:56:24.708493$GNGGA,175705.20,4120.8618298,N,07038.1772904,W,1,22,0.6,-0.124,M,-30.474,M,0.0,*49
###2023-05-05 13:56:26.708398$GNGGA,175707.20,4120.8614222,N,07038.1801143,W,1,22,0.6,-0.137,M,-30.474,M,0.0,*44
###2023-05-05 13:56:28.707241$GNGGA,175709.20,4120.8620218,N,07038.1828753,W,1,22,0.6,-0.027,M,-30.474,M,0.0,*48
###2023-05-05 13:56:30.707057$GNGGA,175711.20,4120.8618910,N,07038.1858145,W,1,22,0.6,0.107,M,-30.475,M,0.0,*60
###2023-05-05 13:56:32.706664$GNGGA,175713.20,4120.8624522,N,07038.1886372,W,1,22,0.6,0.460,M,-30.475,M,0.0,*61
###2023-05-05 13:56:34.707264$GNGGA,175715.20,4120.8626467,N,07038.1914573,W,1,22,0.6,-0.082,M,-30.475,M,0.0,*4D
###2023-05-05 13:56:36.707915$GNGGA,175717.20,4120.8618598,N,07038.1942746,W,1,22,0.6,-0.221,M,-30.475,M,0.0,*4F
###2023-05-05 13:56:38.707138$GNGGA,175719.20,4120.8622143,N,07038.1971582,W,1,22,0.6,0.011,M,-30.475,M,0.0,*6C
###2023-05-05 13:56:40.709288$GNGGA,175721.20,4120.8620733,N,07038.2000438,W,1,22,0.6,-0.057,M,-30.475,M,0.0,*47
###2023-05-05 13:56:42.709116$GNGGA,175723.20,4120.8624191,N,07038.2029207,W,1,22,0.6,0.269,M,-30.475,M,0.0,*6C
###2023-05-05 13:56:44.709131$GNGGA,175725.20,4120.8626214,N,07038.2058010,W,1,22,0.6,-0.082,M,-30.475,M,0.0,*4E
###2023-05-05 13:56:46.709116$GNGGA,175727.20,4120.8620371,N,07038.2086872,W,1,22,0.6,-0.194,M,-30.475,M,0.0,*41
###2023-05-05 13:56:48.707880$GNGGA,175729.20,4120.8622294,N,07038.2115683,W,1,22,0.6,0.126,M,-30.475,M,0.0,*68
###2023-05-05 13:56:50.707953$GNGGA,175731.20,4120.8621874,N,07038.2143461,W,1,22,0.6,0.028,M,-30.475,M,0.0,*64
###2023-05-05 13:56:52.710174$GNGGA,175733.20,4120.8621285,N,07038.2171346,W,1,22,0.6,-0.059,M,-30.475,M,0.0,*4A
###2023-05-05 13:56:54.715382$GNGGA,175735.20,4120.8621526,N,07038.2199375,W,1,22,0.6,-0.038,M,-30.475,M,0.0,*43
###2023-05-05 13:56:56.709040$GNGGA,175737.20,4120.8620673,N,07038.2227372,W,1,22,0.6,-0.029,M,-30.475,M,0.0,*42
###2023-05-05 13:56:58.707928$GNGGA,175739.20,4120.8619675,N,07038.2255485,W,1,22,0.6,-0.124,M,-30.475,M,0.0,*46
###2023-05-05 13:57:00.709476$GNGGA,175741.20,4120.8619810,N,07038.2283572,W,1,22,0.6,-0.113,M,-30.475,M,0.0,*42
###2023-05-05 13:57:02.707849$GNGGA,175743.20,4120.8621786,N,07038.2313079,W,1,22,0.6,0.123,M,-30.475,M,0.0,*63
###2023-05-05 13:57:04.708861$GNGGA,175745.20,4120.8620661,N,07038.2343710,W,1,22,0.6,-0.022,M,-30.475,M,0.0,*4C
###2023-05-05 13:57:06.709984$GNGGA,175747.20,4120.8617159,N,07038.2371824,W,1,22,0.6,-0.450,M,-30.475,M,0.0,*4E
###2023-05-05 13:57:08.707892$GNGGA,175749.20,4120.8618853,N,07038.2399817,W,1,22,0.6,-0.293,M,-30.475,M,0.0,*43
###2023-05-05 13:57:10.711053$GNGGA,175751.20,4120.8620011,N,07038.2429478,W,1,22,0.6,-0.150,M,-30.475,M,0.0,*4A
###2023-05-05 13:57:12.711613$GNGGA,175753.20,4120.8620185,N,07038.2458440,W,1,22,0.6,-0.277,M,-30.475,M,0.0,*4F
###2023-05-05 13:57:14.709302$GNGGA,175755.20,4120.8623350,N,07038.2488392,W,1,22,0.6,0.343,M,-30.475,M,0.0,*6E
###2023-05-05 13:57:16.710780$GNGGA,175757.20,4120.8615067,N,07038.2518563,W,1,22,0.6,-0.349,M,-30.476,M,0.0,*4A
###2023-05-05 13:57:18.709830$GNGGA,175759.20,4120.8607564,N,07038.2547688,W,1,22,0.6,-0.341,M,-30.476,M,0.0,*45
###2023-05-05 13:57:20.709818$GNGGA,175801.20,4120.8614259,N,07038.2573706,W,1,22,0.6,-0.086,M,-30.476,M,0.0,*44
###2023-05-05 13:57:22.710641$GNGGA,175803.20,4120.8617053,N,07038.2600549,W,1,22,0.6,-0.282,M,-30.476,M,0.0,*45
###2023-05-05 13:57:24.709580$GNGGA,175805.20,4120.8621408,N,07038.2628333,W,1,22,0.6,0.044,M,-30.476,M,0.0,*68
###2023-05-05 13:57:26.708447$GNGGA,175807.20,4120.8621944,N,07038.2658597,W,1,22,0.6,-0.031,M,-30.476,M,0.0,*4F
###2023-05-05 13:57:28.708424$GNGGA,175809.20,4120.8615144,N,07038.2687387,W,1,22,0.6,-0.265,M,-30.476,M,0.0,*48
