###2023-05-05 12:40:58.615541$GNGGA,164139.20,4120.8663954,N,07038.4046781,W,1,23,0.6,0.368,M,-30.478,M,0.0,*6B
###2023-05-05 12:41:00.615937$GNGGA,164141.20,4120.8681925,N,07038.4031007,W,1,23,0.6,0.259,M,-30.477,M,0.0,*6B
###2023-05-05 12:41:02.615489$GNGGA,164143.20,4120.8686240,N,07038.4008666,W,1,23,0.6,0.129,M,-30.477,M,0.0,*69
###2023-05-05 12:41:04.615640$GNGGA,164145.20,4120.8678222,N,07038.3986322,W,1,24,0.6,0.210,M,-30.477,M,0.0,*69
###2023-05-05 12:41:06.617576$GNGGA,164147.20,4120.8667194,N,07038.3955058,W,1,24,0.6,0.481,M,-30.477,M,0.0,*65
###2023-05-05 12:41:08.617579$GNGGA,164149.20,4120.8659647,N,07038.3916425,W,1,23,0.6,0.035,M,-30.477,M,0.0,*6A
###2023-05-05 12:41:10.618395$GNGGA,164151.20,4120.8661863,N,07038.3877328,W,1,23,0.6,0.494,M,-30.477,M,0.0,*63
###2023-05-05 12:41:12.617374$GNGGA,164153.20,4120.8670387,N,07038.3842871,W,1,23,0.6,0.367,M,-30.477,M,0.0,*6A
###2023-05-05 12:41:14.611840$GNGGA,164155.20,4120.8673999,N,07038.3815858,W,1,23,0.6,0.216,M,-30.477,M,0.0,*64
###2023-05-05 12:41:16.617446$GNGGA,164157.20,4120.8673833,N,07038.3789747,W,1,23,0.6,0.403,M,-30.477,M,0.0,*6E
###2023-05-05 12:41:18.618373$GNGGA,164159.20,4120.8675796,N,07038.3761802,W,1,24,0.6,0.607,M,-30.477,M,0.0,*6F
###2023-05-05 12:41:20.618394$GNGGA,164201.20,4120.8672557,N,07038.3735246,W,1,23,0.6,0.302,M,-30.477,M,0.0,*65
###2023-05-05 12:41:22.617279$GNGGA,164203.20,4120.8678653,N,07038.3706200,W,1,23,0.6,0.408,M,-30.477,M,0.0,*65
###2023-05-05 12:41:24.618187$GNGGA,164205.20,4120.8679074,N,07038.3675009,W,1,23,0.6,0.391,M,-30.477,M,0.0,*68
###2023-05-05 12:41:26.618153$GNGGA,164207.20,4120.8684463,N,07038.3644806,W,1,23,0.6,0.381,M,-30.477,M,0.0,*6E
###2023-05-05 12:41:28.615989$GNGGA,164209.20,4120.8686500,N,07038.3616721,W,1,24,0.6,0.121,M,-30.477,M,0.0,*64
###2023-05-05 12:41:30.617321$GNGGA,164211.20,4120.8681148,N,07038.3587637,W,1,23,0.6,0.179,M,-30.477,M,0.0,*65
###2023-05-05 12:41:32.615081$GNGGA,164213.20,4120.8690629,N,07038.3556644,W,1,23,0.6,0.361,M,-30.477,M,0.0,*64
###2023-05-05 12:41:34.615929$GNGGA,164215.20,4120.8696079,N,07038.3527414,W,1,23,0.6,0.250,M,-30.477,M,0.0,*65
###2023-05-05 12:41:36.617911$GNGGA,164217.20,4120.8697852,N,07038.3499397,W,1,23,0.6,0.232,M,-30.477,M,0.0,*6B
###2023-05-05 12:41:38.617946$GNGGA,164219.20,4120.8693043,N,07038.3468992,W,1,23,0.6,0.207,M,-30.477,M,0.0,*6E
###2023-05-05 12:41:40.617841$GNGGA,164221.20,4120.8699782,N,07038.3438296,W,1,23,0.6,0.094,M,-30.477,M,0.0,*67
###2023-05-05 12:41:42.618731$GNGGA,164223.20,4120.8705235,N,07038.3408820,W,1,23,0.6,0.194,M,-30.476,M,0.0,*6C
###2023-05-05 12:41:44.617786$GNGGA,164225.20,4120.8707041,N,07038.3380707,W,1,23,0.6,0.286,M,-30.476,M,0.0,*64
###2023-05-05 12:41:46.618761$GNGGA,164227.20,4120.8710199,N,07038.3351071,W,1,23,0.6,0.375,M,-30.476,M,0.0,*63
###2023-05-05 12:41:48.618691$GNGGA,164229.20,4120.8712919,N,07038.3321596,W,1,23,0.6,0.373,M,-30.476,M,0.0,*62
###2023-05-05 12:41:50.617666$GNGGA,164231.20,4120.8716161,N,07038.3293352,W,1,23,0.6,0.441,M,-30.476,M,0.0,*68
###2023-05-05 12:41:52.617638$GNGGA,164233.20,4120.8715038,N,07038.3264426,W,1,23,0.6,0.203,M,-30.476,M,0.0,*68
###2023-05-05 12:41:54.618566$GNGGA,164235.20,4120.8720872,N,07038.3234258,W,1,23,0.6,0.412,M,-30.476,M,0.0,*62
###2023-05-05 12:41:56.611963$GNGGA,164237.20,4120.8720011,N,07038.3204648,W,1,23,0.6,0.392,M,-30.476,M,0.0,*64
###2023-05-05 12:41:58.616245$GNGGA,164239.20,4120.8724852,N,07038.3176294,W,1,23,0.6,0.443,M,-30.476,M,0.0,*69
###2023-05-05 12:42:00.617194$GNGGA,164241.20,4120.8725547,N,07038.3146573,W,1,24,0.6,0.298,M,-30.476,M,0.0,*64
###2023-05-05 12:42:02.616300$GNGGA,164243.20,4120.8729238,N,07038.3117618,W,1,23,0.6,0.657,M,-30.476,M,0.0,*6F
###2023-05-05 12:42:04.618756$GNGGA,164245.20,4120.8730838,N,07038.3089369,W,1,24,0.6,0.596,M,-30.476,M,0.0,*67
###2023-05-05 12:42:06.619592$GNGGA,164247.20,4120.8734085,N,07038.3059679,W,1,23,0.6,0.534,M,-30.476,M,0.0,*69
###2023-05-05 12:42:08.618298$GNGGA,164249.20,4120.8736162,N,07038.3031435,W,1,23,0.6,0.357,M,-30.476,M,0.0,*6A
###2023-05-05 12:42:10.618148$GNGGA,164251.20,4120.8738187,N,07038.3001727,W,1,23,0.6,0.348,M,-30.476,M,0.0,*6B
###2023-05-05 12:42:12.618155$GNGGA,164253.20,4120.8741736,N,07038.2971970,W,1,23,0.6,0.695,M,-30.476,M,0.0,*6D
###2023-05-05 12:42:14.618167$GNGGA,164255.20,4120.8744453,N,07038.2943918,W,1,23,0.6,0.689,M,-30.476,M,0.0,*6C
###2023-05-05 12:42:16.618025$GNGGA,164257.20,4120.8738334,N,07038.2916003,W,1,23,0.6,0.313,M,-30.476,M,0.0,*66
###2023-05-05 12:42:18.620028$GNGGA,164259.20,4120.8740257,N,07038.2885476,W,1,23,0.6,0.412,M,-30.476,M,0.0,*68
###2023-05-05 12:42:20.619178$GNGGA,164301.20,4120.8747151,N,07038.2857394,W,1,23,0.6,0.605,M,-30.476,M,0.0,*66
###2023-05-05 12:42:22.617945$GNGGA,164303.20,4120.8751204,N,07038.2829936,W,1,23,0.6,0.694,M,-30.475,M,0.0,*60
###2023-05-05 12:42:24.619097$GNGGA,164305.20,4120.8754175,N,07038.2801048,W,1,23,0.6,0.478,M,-30.475,M,0.0,*6C
###2023-05-05 12:42:26.617840$GNGGA,164307.20,4120.8757154,N,07038.2772223,W,1,23,0.6,0.532,M,-30.475,M,0.0,*65
###2023-05-05 12:42:28.616568$GNGGA,164309.20,4120.8760418,N,07038.2743774,W,1,23,0.6,0.642,M,-30.475,M,0.0,*63
###2023-05-05 12:42:30.617833$GNGGA,164311.20,4120.8762454,N,07038.2714857,W,1,24,0.6,0.563,M,-30.475,M,0.0,*6B
###2023-05-05 12:42:32.616792$GNGGA,164313.20,4120.8764808,N,07038.2685393,W,1,23,0.6,0.462,M,-30.475,M,0.0,*67
###2023-05-05 12:42:34.616739$GNGGA,164315.20,4120.8767015,N,07038.2655923,W,1,23,0.6,0.536,M,-30.475,M,0.0,*6A
###2023-05-05 12:42:36.619730$GNGGA,164317.20,4120.8769900,N,07038.2626757,W,1,23,0.6,0.503,M,-30.475,M,0.0,*64
###2023-05-05 12:42:38.618819$GNGGA,164319.20,4120.8773034,N,07038.2598216,W,1,24,0.6,0.652,M,-30.475,M,0.0,*69
###2023-05-05 12:42:40.613151$GNGGA,164321.20,4120.8770619,N,07038.2569626,W,1,23,0.6,0.391,M,-30.475,M,0.0,*6C
###2023-05-05 12:42:42.619565$GNGGA,164323.20,4120.8774430,N,07038.2540043,W,1,23,0.6,0.542,M,-30.475,M,0.0,*65
###2023-05-05 12:42:44.613695$GNGGA,164325.20,4120.8778155,N,07038.2510213,W,1,23,0.6,0.473,M,-30.475,M,0.0,*68
###2023-05-05 12:42:46.619161$GNGGA,164327.20,4120.8779955,N,07038.2481050,W,1,23,0.6,0.343,M,-30.475,M,0.0,*6B
###2023-05-05 12:42:48.613843$GNGGA,164329.20,4120.8786039,N,07038.2452435,W,1,24,0.6,0.678,M,-30.475,M,0.0,*65
###2023-05-05 12:42:50.619371$GNGGA,164331.20,4120.8782353,N,07038.2424361,W,1,24,0.6,0.525,M,-30.475,M,0.0,*6B
###2023-05-05 12:42:52.619380$GNGGA,164333.20,4120.8784097,N,07038.2394778,W,1,23,0.6,0.388,M,-30.475,M,0.0,*62
###2023-05-05 12:42:54.620264$GNGGA,164335.20,4120.8789253,N,07038.2365853,W,1,23,0.6,0.439,M,-30.475,M,0.0,*66
###2023-05-05 12:42:56.619341$GNGGA,164337.20,4120.8791342,N,07038.2336579,W,1,23,0.6,0.274,M,-30.475,M,0.0,*60
###2023-05-05 12:42:58.618227$GNGGA,164339.20,4120.8795879,N,07038.2307653,W,1,23,0.6,0.832,M,-30.475,M,0.0,*68
###2023-05-05 12:43:00.616930$GNGGA,164341.20,4120.8795198,N,07038.2279746,W,1,24,0.6,0.529,M,-30.474,M,0.0,*6D
###2023-05-05 12:43:02.616973$GNGGA,164343.20,4120.8795746,N,07038.2250167,W,1,23,0.6,0.283,M,-30.474,M,0.0,*64
###2023-05-05 12:43:04.616862$GNGGA,164345.20,4120.8800136,N,07038.2220252,W,1,23,0.6,0.295,M,-30.474,M,0.0,*65
###2023-05-05 12:43:06.620128$GNGGA,164347.20,4120.8803895,N,07038.2190696,W,1,23,0.6,0.324,M,-30.474,M,0.0,*6B
###2023-05-05 12:43:08.619201$GNGGA,164349.20,4120.8806395,N,07038.2162054,W,1,23,0.6,0.487,M,-30.474,M,0.0,*60
###2023-05-05 12:43:10.619006$GNGGA,164351.20,4120.8812145,N,07038.2134276,W,1,23,0.6,0.588,M,-30.474,M,0.0,*6C
###2023-05-05 12:43:12.619919$GNGGA,164353.20,4120.8802279,N,07038.2108841,W,1,24,0.6,0.353,M,-30.474,M,0.0,*65
###2023-05-05 12:43:14.619249$GNGGA,164355.20,4120.8807636,N,07038.2078743,W,1,23,0.6,0.289,M,-30.474,M,0.0,*63
###2023-05-05 12:43:16.618995$GNGGA,164357.20,4120.8812874,N,07038.2049440,W,1,23,0.6,0.472,M,-30.474,M,0.0,*6D
###2023-05-05 12:43:18.619798$GNGGA,164359.20,4120.8805204,N,07038.2025486,W,1,24,0.6,0.385,M,-30.474,M,0.0,*60
###2023-05-05 12:43:20.618782$GNGGA,164401.20,4120.8786632,N,07038.2016756,W,1,24,0.6,0.310,M,-30.474,M,0.0,*6D
###2023-05-05 12:43:22.614178$GNGGA,164403.20,4120.8767491,N,07038.2022281,W,1,24,0.6,0.588,M,-30.474,M,0.0,*64
###2023-05-05 12:43:24.620753$GNGGA,164405.20,4120.8750428,N,07038.2035341,W,1,23,0.6,0.408,M,-30.474,M,0.0,*61
###2023-05-05 12:43:26.620771$GNGGA,164407.20,4120.8729847,N,07038.2040025,W,1,24,0.6,0.331,M,-30.474,M,0.0,*61
###2023-05-05 12:43:28.617638$GNGGA,164409.20,4120.8709371,N,07038.2047053,W,1,24,0.6,0.397,M,-30.474,M,0.0,*69
###2023-05-05 12:43:30.618295$GNGGA,164411.20,4120.8688062,N,07038.2046081,W,1,23,0.6,0.209,M,-30.475,M,0.0,*67
###2023-05-05 12:43:32.612703$GNGGA,164413.20,4120.8666381,N,07038.2050437,W,1,24,0.6,0.357,M,-30.475,M,0.0,*68
###2023-05-05 12:43:34.618470$GNGGA,164415.20,4120.8645726,N,07038.2050008,W,1,24,0.6,0.470,M,-30.475,M,0.0,*6C
###2023-05-05 12:43:36.619424$GNGGA,164417.20,4120.8623242,N,07038.2049406,W,1,24,0.6,0.259,M,-30.475,M,0.0,*66
###2023-05-05 12:43:38.622518$GNGGA,164419.20,4120.8601035,N,07038.2045616,W,1,24,0.6,0.514,M,-30.475,M,0.0,*6B
###2023-05-05 12:43:40.620324$GNGGA,164421.20,4120.8579169,N,07038.2048236,W,1,24,0.6,0.546,M,-30.475,M,0.0,*68
###2023-05-05 12:43:42.620332$GNGGA,164423.20,4120.8557386,N,07038.2047283,W,1,24,0.6,0.112,M,-30.475,M,0.0,*61
###2023-05-05 12:43:44.619260$GNGGA,164425.20,4120.8534887,N,07038.2046043,W,1,24,0.6,0.423,M,-30.475,M,0.0,*60
###2023-05-05 12:43:46.620206$GNGGA,164427.20,4120.8513243,N,07038.2047091,W,1,24,0.6,0.539,M,-30.475,M,0.0,*61
###2023-05-05 12:43:48.620105$GNGGA,164429.20,4120.8490729,N,07038.2046174,W,1,24,0.6,0.246,M,-30.475,M,0.0,*68
###2023-05-05 12:43:50.620216$GNGGA,164431.20,4120.8467176,N,07038.2046531,W,1,24,0.6,0.426,M,-30.475,M,0.0,*60
###2023-05-05 12:43:52.621098$GNGGA,164433.20,4120.8444019,N,07038.2047907,W,1,24,0.6,0.494,M,-30.475,M,0.0,*6A
###2023-05-05 12:43:54.621061$GNGGA,164435.20,4120.8421100,N,07038.2050374,W,1,24,0.6,0.588,M,-30.476,M,0.0,*61
###2023-05-05 12:43:56.620077$GNGGA,164437.20,4120.8398880,N,07038.2048213,W,1,24,0.6,0.284,M,-30.476,M,0.0,*65
###2023-05-05 12:43:58.618708$GNGGA,164439.20,4120.8375391,N,07038.2048580,W,1,24,0.6,0.429,M,-30.476,M,0.0,*6F
###2023-05-05 12:44:00.618706$GNGGA,164441.20,4120.8351954,N,07038.2048624,W,1,24,0.6,0.532,M,-30.476,M,0.0,*63
###2023-05-05 12:44:02.618684$GNGGA,164443.20,4120.8326742,N,07038.2048384,W,1,24,0.6,0.635,M,-30.476,M,0.0,*63
###2023-05-05 12:44:04.619612$GNGGA,164445.20,4120.8302057,N,07038.2049286,W,1,24,0.6,0.679,M,-30.476,M,0.0,*6A
###2023-05-05 12:44:06.620725$GNGGA,164447.20,4120.8278545,N,07038.2050163,W,1,24,0.6,0.638,M,-30.476,M,0.0,*67
###2023-05-05 12:44:08.620917$GNGGA,164449.20,4120.8254710,N,07038.2048611,W,1,24,0.6,0.592,M,-30.476,M,0.0,*6D
###2023-05-05 12:44:10.620763$GNGGA,164451.20,4120.8230324,N,07038.2047637,W,1,24,0.6,0.506,M,-30.476,M,0.0,*63
###2023-05-05 12:44:12.615150$GNGGA,164453.20,4120.8204540,N,07038.2049413,W,1,24,0.6,0.597,M,-30.476,M,0.0,*60
###2023-05-05 12:44:14.619696$GNGGA,164455.20,4120.8178950,N,07038.2048770,W,1,24,0.6,0.665,M,-30.476,M,0.0,*6A
###2023-05-05 12:44:16.621591$GNGGA,164457.20,4120.8152893,N,07038.2048588,W,1,23,0.6,0.745,M,-30.477,M,0.0,*6E
