###2023-05-05 14:27:28.751164$GNGGA,182809.20,4120.9150604,N,07038.2420163,W,1,24,0.6,3.644,M,-30.473,M,0.0,*69
###2023-05-05 14:27:30.753097$GNGGA,182811.20,4120.9150630,N,07038.2420155,W,1,24,0.6,3.659,M,-30.473,M,0.0,*6E
###2023-05-05 14:27:32.751028$GNGGA,182813.20,4120.9150714,N,07038.2420151,W,1,24,0.6,3.691,M,-30.473,M,0.0,*6B
###2023-05-05 14:27:34.751045$GNGGA,182815.20,4120.9150897,N,07038.2420223,W,1,24,0.6,3.713,M,-30.473,M,0.0,*64
###2023-05-05 14:27:36.752942$GNGGA,182817.20,4120.9151011,N,07038.2420317,W,1,24,0.6,3.733,M,-30.473,M,0.0,*65
###2023-05-05 14:27:38.752932$GNGGA,182819.20,4120.9151011,N,07038.2420309,W,1,24,0.6,3.742,M,-30.473,M,0.0,*62
###2023-05-05 14:27:40.753890$GNGGA,182821.20,4120.9150986,N,07038.2420289,W,1,24,0.6,3.731,M,-30.473,M,0.0,*62
###2023-05-05 14:27:42.753926$GNGGA,182823.20,4120.9150952,N,07038.2420273,W,1,24,0.6,3.722,M,-30.473,M,0.0,*6E
###2023-05-05 14:27:44.759114$GNGGA,182825.20,4120.9151073,N,07038.2420352,W,1,24,0.6,3.684,M,-30.473,M,0.0,*6C
###2023-05-05 14:27:46.755101$GNGGA,182827.20,4120.9151142,N,07038.2420363,W,1,24,0.6,3.676,M,-30.473,M,0.0,*62
###2023-05-05 14:27:48.754900$GNGGA,182829.20,4120.9151226,N,07038.2420301,W,1,24,0.6,3.652,M,-30.473,M,0.0,*6F
###2023-05-05 14:27:50.755952$GNGGA,182831.20,4120.9151294,N,07038.2420196,W,1,23,0.6,3.607,M,-30.473,M,0.0,*64
###2023-05-05 14:27:52.754720$GNGGA,182833.20,4120.9151286,N,07038.2420053,W,1,23,0.6,3.573,M,-30.473,M,0.0,*6D
###2023-05-05 14:27:54.753666$GNGGA,182835.20,4120.9151347,N,07038.2419993,W,1,23,0.6,3.577,M,-30.473,M,0.0,*6C
###2023-05-05 14:27:56.755951$GNGGA,182837.20,4120.9151381,N,07038.2419983,W,1,24,0.6,3.592,M,-30.473,M,0.0,*69
###2023-05-05 14:27:58.752583$GNGGA,182839.20,4120.9151339,N,07038.2419937,W,1,22,0.6,3.620,M,-30.473,M,0.0,*67
###2023-05-05 14:28:00.752517$GNGGA,182841.20,4120.9151517,N,07038.2420127,W,1,24,0.6,3.630,M,-30.473,M,0.0,*66
###2023-05-05 14:28:02.753486$GNGGA,182843.20,4120.9151464,N,07038.2420034,W,1,20,0.6,3.629,M,-30.473,M,0.0,*6E
###2023-05-05 14:28:04.749883$GNGGA,182845.20,4120.9151409,N,07038.2420034,W,1,22,0.6,3.610,M,-30.473,M,0.0,*6B
###2023-05-05 14:28:06.752368$GNGGA,182847.20,4120.9151263,N,07038.2419952,W,1,24,0.6,3.640,M,-30.473,M,0.0,*63
###2023-05-05 14:28:08.755565$GNGGA,182849.20,4120.9150989,N,07038.2419898,W,1,23,0.6,3.635,M,-30.473,M,0.0,*61
###2023-05-05 14:28:10.754445$GNGGA,182851.20,4120.9151062,N,07038.2419926,W,1,24,0.6,3.586,M,-30.473,M,0.0,*6D
###2023-05-05 14:28:12.754312$GNGGA,182853.20,4120.9150955,N,07038.2419980,W,1,23,0.6,3.522,M,-30.473,M,0.0,*66
###2023-05-05 14:28:14.755321$GNGGA,182855.20,4120.9150792,N,07038.2419989,W,1,23,0.6,3.481,M,-30.473,M,0.0,*64
###2023-05-05 14:28:16.755418$GNGGA,182857.20,4120.9150680,N,07038.2420084,W,1,24,0.6,3.468,M,-30.473,M,0.0,*6A
###2023-05-05 14:28:18.755451$GNGGA,182859.20,4120.9150722,N,07038.2419991,W,1,24,0.6,3.468,M,-30.473,M,0.0,*6A
###2023-05-05 14:28:20.755352$GNGGA,182901.20,4120.9150843,N,07038.2420069,W,1,25,0.6,3.498,M,-30.473,M,0.0,*64
###2023-05-05 14:28:22.756940$GNGGA,182903.20,4120.9150887,N,07038.2420172,W,1,25,0.6,3.532,M,-30.473,M,0.0,*64
###2023-05-05 14:28:24.756595$GNGGA,182905.20,4120.9150869,N,07038.2420238,W,1,25,0.6,3.570,M,-30.473,M,0.0,*69
###2023-05-05 14:28:26.755444$GNGGA,182907.20,4120.9150838,N,07038.2420265,W,1,25,0.6,3.579,M,-30.473,M,0.0,*6E
###2023-05-05 14:28:28.754173$GNGGA,182909.20,4120.9150785,N,07038.2420289,W,1,25,0.6,3.594,M,-30.473,M,0.0,*68
###2023-05-05 14:28:30.755166$GNGGA,182911.20,4120.9150848,N,07038.2420339,W,1,25,0.6,3.607,M,-30.473,M,0.0,*6C
###2023-05-05 14:28:32.755062$GNGGA,182913.20,4120.9150922,N,07038.2420359,W,1,25,0.6,3.626,M,-30.473,M,0.0,*66
###2023-05-05 14:28:34.755209$GNGGA,182915.20,4120.9151022,N,07038.2420417,W,1,25,0.6,3.637,M,-30.473,M,0.0,*65
###2023-05-05 14:28:36.756302$GNGGA,182917.20,4120.9151114,N,07038.2420519,W,1,25,0.6,3.613,M,-30.473,M,0.0,*6A
###2023-05-05 14:28:38.754239$GNGGA,182919.20,4120.9151185,N,07038.2420610,W,1,25,0.6,3.604,M,-30.473,M,0.0,*60
###2023-05-05 14:28:40.756254$GNGGA,182921.20,4120.9151280,N,07038.2420627,W,1,25,0.6,3.601,M,-30.473,M,0.0,*6C
###2023-05-05 14:28:42.758214$GNGGA,182923.20,4120.9151332,N,07038.2420600,W,1,25,0.6,3.592,M,-30.473,M,0.0,*6A
###2023-05-05 14:28:44.756112$GNGGA,182925.20,4120.9151299,N,07038.2420550,W,1,25,0.6,3.577,M,-30.473,M,0.0,*61
###2023-05-05 14:28:46.756028$GNGGA,182927.20,4120.9151167,N,07038.2420512,W,1,25,0.6,3.619,M,-30.473,M,0.0,*6C
###2023-05-05 14:28:48.757097$GNGGA,182929.20,4120.9151149,N,07038.2420514,W,1,25,0.6,3.640,M,-30.473,M,0.0,*64
###2023-05-05 14:28:50.756156$GNGGA,182931.20,4120.9151235,N,07038.2420499,W,1,25,0.6,3.617,M,-30.473,M,0.0,*63
###2023-05-05 14:28:52.755934$GNGGA,182933.20,4120.9151337,N,07038.2420566,W,1,25,0.6,3.608,M,-30.473,M,0.0,*6D
###2023-05-05 14:28:54.757072$GNGGA,182935.20,4120.9151499,N,07038.2420586,W,1,25,0.6,3.586,M,-30.473,M,0.0,*63
###2023-05-05 14:28:56.754923$GNGGA,182937.20,4120.9151669,N,07038.2420704,W,1,25,0.6,3.548,M,-30.473,M,0.0,*66
###2023-05-05 14:28:58.754835$GNGGA,182939.20,4120.9151802,N,07038.2420810,W,1,25,0.6,3.561,M,-30.473,M,0.0,*6A
###2023-05-05 14:29:00.755668$GNGGA,182941.20,4120.9151902,N,07038.2420936,W,1,25,0.6,3.544,M,-30.473,M,0.0,*66
###2023-05-05 14:29:02.755915$GNGGA,182943.20,4120.9152017,N,07038.2420994,W,1,25,0.6,3.530,M,-30.473,M,0.0,*61
###2023-05-05 14:29:04.756750$GNGGA,182945.20,4120.9152145,N,07038.2421032,W,1,25,0.6,3.510,M,-30.473,M,0.0,*67
###2023-05-05 14:29:06.755434$GNGGA,182947.20,4120.9152235,N,07038.2421026,W,1,25,0.6,3.516,M,-30.473,M,0.0,*62
###2023-05-05 14:29:08.756728$GNGGA,182949.20,4120.9152325,N,07038.2421133,W,1,25,0.6,3.545,M,-30.473,M,0.0,*6F
###2023-05-05 14:29:10.759024$GNGGA,182951.20,4120.9152349,N,07038.2421198,W,1,25,0.6,3.583,M,-30.473,M,0.0,*67
###2023-05-05 14:29:12.757339$GNGGA,182953.20,4120.9152331,N,07038.2421202,W,1,25,0.6,3.594,M,-30.473,M,0.0,*6C
###2023-05-05 14:29:14.755849$GNGGA,182955.20,4120.9152339,N,07038.2421146,W,1,25,0.6,3.598,M,-30.473,M,0.0,*6D
###2023-05-05 14:29:16.757626$GNGGA,182957.20,4120.9152281,N,07038.2421147,W,1,25,0.6,3.621,M,-30.473,M,0.0,*6D
###2023-05-05 14:29:18.757519$GNGGA,182959.20,4120.9152141,N,07038.2421140,W,1,25,0.6,3.661,M,-30.473,M,0.0,*6F
###2023-05-05 14:29:20.756533$GNGGA,183001.20,4120.9152011,N,07038.2421131,W,1,25,0.6,3.702,M,-30.473,M,0.0,*6C
###2023-05-05 14:29:22.757514$GNGGA,183003.20,4120.9151751,N,07038.2421100,W,1,25,0.6,3.771,M,-30.473,M,0.0,*68
###2023-05-05 14:29:24.757386$GNGGA,183005.20,4120.9151566,N,07038.2421099,W,1,25,0.6,3.795,M,-30.473,M,0.0,*63
###2023-05-05 14:29:26.757346$GNGGA,183007.20,4120.9151495,N,07038.2421105,W,1,25,0.6,3.806,M,-30.473,M,0.0,*6D
###2023-05-05 14:29:28.758086$GNGGA,183009.20,4120.9151434,N,07038.2420983,W,1,25,0.6,3.804,M,-30.473,M,0.0,*6D
###2023-05-05 14:29:30.756051$GNGGA,183011.20,4120.9151362,N,07038.2420880,W,1,25,0.6,3.772,M,-30.473,M,0.0,*6C
###2023-05-05 14:29:32.754076$GNGGA,183013.20,4120.9151372,N,07038.2420828,W,1,25,0.6,3.752,M,-30.473,M,0.0,*6F
###2023-05-05 14:29:34.757066$GNGGA,183015.20,4120.9151374,N,07038.2420858,W,1,25,0.6,3.730,M,-30.473,M,0.0,*6C
###2023-05-05 14:29:36.759292$GNGGA,183017.20,4120.9151330,N,07038.2420900,W,1,25,0.6,3.724,M,-30.473,M,0.0,*67
###2023-05-05 14:29:38.758112$GNGGA,183019.20,4120.9151268,N,07038.2420913,W,1,25,0.6,3.734,M,-30.473,M,0.0,*66
###2023-05-05 14:29:40.758166$GNGGA,183021.20,4120.9151329,N,07038.2421030,W,1,25,0.6,3.708,M,-30.473,M,0.0,*6F
###2023-05-05 14:29:42.758929$GNGGA,183023.20,4120.9151409,N,07038.2421090,W,1,25,0.6,3.678,M,-30.473,M,0.0,*64
###2023-05-05 14:29:44.757748$GNGGA,183025.20,4120.9151458,N,07038.2421129,W,1,25,0.6,3.649,M,-30.473,M,0.0,*67
###2023-05-05 14:29:46.757603$GNGGA,183027.20,4120.9151422,N,07038.2421187,W,1,25,0.6,3.669,M,-30.473,M,0.0,*6E
###2023-05-05 14:29:48.759050$GNGGA,183029.20,4120.9151426,N,07038.2421296,W,1,25,0.6,3.668,M,-30.473,M,0.0,*66
###2023-05-05 14:29:50.756994$GNGGA,183031.20,4120.9151484,N,07038.2421363,W,1,25,0.6,3.643,M,-30.473,M,0.0,*65
###2023-05-05 14:29:52.759308$GNGGA,183033.20,4120.91516