###2023-05-05 13:10:58.650210$GNGGA,171139.20,4120.7549271,N,07038.4023957,W,1,22,0.6,0.344,M,-30.482,M,0.0,*6B
###2023-05-05 13:11:00.651059$GNGGA,171141.20,4120.7527138,N,07038.4026747,W,1,23,0.6,0.393,M,-30.482,M,0.0,*63
###2023-05-05 13:11:02.650017$GNGGA,171143.20,4120.7504835,N,07038.4025801,W,1,23,0.6,0.159,M,-30.482,M,0.0,*6E
###2023-05-05 13:11:04.650007$GNGGA,171145.20,4120.7482102,N,07038.4025154,W,1,23,0.6,0.118,M,-30.482,M,0.0,*66
###2023-05-05 13:11:06.652119$GNGGA,171147.20,4120.7459767,N,07038.4026168,W,1,23,0.6,0.356,M,-30.482,M,0.0,*63
###2023-05-05 13:11:08.645560$GNGGA,171149.20,4120.7436223,N,07038.4025482,W,1,23,0.6,0.152,M,-30.482,M,0.0,*65
###2023-05-05 13:11:10.652179$GNGGA,171151.20,4120.7412697,N,07038.4025747,W,1,23,0.6,0.179,M,-30.482,M,0.0,*62
###2023-05-05 13:11:12.653057$GNGGA,171153.20,4120.7390476,N,07038.4027263,W,1,23,0.6,0.163,M,-30.482,M,0.0,*6A
###2023-05-05 13:11:14.652042$GNGGA,171155.20,4120.7367011,N,07038.4026462,W,1,23,0.6,0.355,M,-30.482,M,0.0,*60
###2023-05-05 13:11:16.652066$GNGGA,171157.20,4120.7344005,N,07038.4025981,W,1,23,0.6,0.150,M,-30.483,M,0.0,*63
###2023-05-05 13:11:18.653458$GNGGA,171159.20,4120.7319176,N,07038.4026022,W,1,23,0.6,0.031,M,-30.483,M,0.0,*65
###2023-05-05 13:11:20.653019$GNGGA,171201.20,4120.7294025,N,07038.4026453,W,1,23,0.6,0.207,M,-30.483,M,0.0,*6D
###2023-05-05 13:11:22.652016$GNGGA,171203.20,4120.7270229,N,07038.4027418,W,1,23,0.6,0.365,M,-30.483,M,0.0,*60
###2023-05-05 13:11:24.653818$GNGGA,171205.20,4120.7247109,N,07038.4029989,W,1,23,0.6,0.326,M,-30.483,M,0.0,*6F
###2023-05-05 13:11:26.653834$GNGGA,171207.20,4120.7223422,N,07038.4025705,W,1,23,0.6,0.147,M,-30.483,M,0.0,*60
###2023-05-05 13:11:28.651309$GNGGA,171209.20,4120.7198325,N,07038.4028724,W,1,23,0.6,0.276,M,-30.483,M,0.0,*62
###2023-05-05 13:11:30.652706$GNGGA,171211.20,4120.7174547,N,07038.4029965,W,1,23,0.6,0.397,M,-30.483,M,0.0,*6F
###2023-05-05 13:11:32.650511$GNGGA,171213.20,4120.7150206,N,07038.4029434,W,1,23,0.6,0.145,M,-30.483,M,0.0,*6D
###2023-05-05 13:11:34.650453$GNGGA,171215.20,4120.7125307,N,07038.4029983,W,1,23,0.6,0.134,M,-30.483,M,0.0,*6E
###2023-05-05 13:11:36.648091$GNGGA,171217.20,4120.7100502,N,07038.4031350,W,1,23,0.6,0.314,M,-30.483,M,0.0,*65
###2023-05-05 13:11:38.652640$GNGGA,171219.20,4120.7076161,N,07038.4031385,W,1,23,0.6,0.325,M,-30.484,M,0.0,*67
###2023-05-05 13:11:40.652590$GNGGA,171221.20,4120.7051880,N,07038.4032845,W,1,23,0.6,0.554,M,-30.484,M,0.0,*6B
###2023-05-05 13:11:42.653554$GNGGA,171223.20,4120.7027433,N,07038.4031812,W,1,23,0.6,0.125,M,-30.484,M,0.0,*6F
###2023-05-05 13:11:44.652452$GNGGA,171225.20,4120.7002176,N,07038.4032268,W,1,23,0.6,0.255,M,-30.484,M,0.0,*6A
###2023-05-05 13:11:46.652531$GNGGA,171227.20,4120.6976558,N,07038.4031602,W,1,23,0.6,0.234,M,-30.484,M,0.0,*67
###2023-05-05 13:11:48.653429$GNGGA,171229.20,4120.6951240,N,07038.4033693,W,1,23,0.6,0.343,M,-30.484,M,0.0,*69
###2023-05-05 13:11:50.652390$GNGGA,171231.20,4120.6926058,N,07038.4035316,W,1,23,0.6,0.331,M,-30.484,M,0.0,*60
###2023-05-05 13:11:52.653462$GNGGA,171233.20,4120.6902527,N,07038.4035098,W,1,23,0.6,0.333,M,-30.484,M,0.0,*6E
###2023-05-05 13:11:54.654364$GNGGA,171235.20,4120.6878520,N,07038.4034039,W,1,23,0.6,0.254,M,-30.484,M,0.0,*69
###2023-05-05 13:11:56.653920$GNGGA,171237.20,4120.6852759,N,07038.4031366,W,1,23,0.6,0.116,M,-30.484,M,0.0,*66
###2023-05-05 13:11:58.651077$GNGGA,171239.20,4120.6826190,N,07038.4033270,W,1,23,0.6,0.198,M,-30.484,M,0.0,*6A
###2023-05-05 13:12:00.651947$GNGGA,171241.20,4120.6800380,N,07038.4036541,W,1,23,0.6,0.270,M,-30.485,M,0.0,*66
###2023-05-05 13:12:02.652171$GNGGA,171243.20,4120.6776125,N,07038.4036135,W,1,23,0.6,0.223,M,-30.485,M,0.0,*66
###2023-05-05 13:12:04.652208$GNGGA,171245.20,4120.6752515,N,07038.4034859,W,1,23,0.6,-0.004,M,-30.485,M,0.0,*4A
###2023-05-05 13:12:06.654064$GNGGA,171247.20,4120.6728846,N,07038.4034024,W,1,23,0.6,0.142,M,-30.485,M,0.0,*62
###2023-05-05 13:12:08.652048$GNGGA,171249.20,4120.6703554,N,07038.4034558,W,1,23,0.6,0.090,M,-30.485,M,0.0,*6B
###2023-05-05 13:12:10.653114$GNGGA,171251.20,4120.6679708,N,07038.4036193,W,1,23,0.6,0.083,M,-30.485,M,0.0,*66
###2023-05-05 13:12:12.648446$GNGGA,171253.20,4120.6655709,N,07038.4036949,W,1,23,0.6,0.091,M,-30.485,M,0.0,*67
###2023-05-05 13:12:14.654074$GNGGA,171255.20,4120.6631103,N,07038.4037690,W,1,23,0.6,-0.046,M,-30.485,M,0.0,*42
###2023-05-05 13:12:16.653009$GNGGA,171257.20,4120.6607577,N,07038.4038502,W,1,23,0.6,0.076,M,-30.485,M,0.0,*6B
###2023-05-05 13:12:18.654134$GNGGA,171259.20,4120.6583424,N,07038.4038725,W,1,24,0.6,-0.014,M,-30.485,M,0.0,*44
###2023-05-05 13:12:20.654076$GNGGA,171301.20,4120.6558421,N,07038.4039745,W,1,24,0.6,-0.214,M,-30.485,M,0.0,*4E
###2023-05-05 13:12:22.653936$GNGGA,171303.20,4120.6533976,N,07038.4040473,W,1,24,0.6,-0.004,M,-30.486,M,0.0,*46
###2023-05-05 13:12:24.654880$GNGGA,171305.20,4120.6509694,N,07038.4040610,W,1,24,0.6,-0.060,M,-30.486,M,0.0,*4F
###2023-05-05 13:12:26.653871$GNGGA,171307.20,4120.6484870,N,07038.4040392,W,1,24,0.6,-0.015,M,-30.486,M,0.0,*40
###2023-05-05 13:12:28.651850$GNGGA,171309.20,4120.6459861,N,07038.4041713,W,1,24,0.6,-0.196,M,-30.486,M,0.0,*48
###2023-05-05 13:12:30.652597$GNGGA,171311.20,4120.6436795,N,07038.4039009,W,1,24,0.6,-0.014,M,-30.486,M,0.0,*44
###2023-05-05 13:12:32.652610$GNGGA,171313.20,4120.6412465,N,07038.4037271,W,1,23,0.6,-0.018,M,-30.486,M,0.0,*44
###2023-05-05 13:12:34.652424$GNGGA,171315.20,4120.6388065,N,07038.4041771,W,1,24,0.6,0.127,M,-30.486,M,0.0,*61
###2023-05-05 13:12:36.654792$GNGGA,171317.20,4120.6364947,N,07038.4038258,W,1,24,0.6,-0.311,M,-30.486,M,0.0,*42
###2023-05-05 13:12:38.654713$GNGGA,171319.20,4120.6340297,N,07038.4043807,W,1,24,0.6,-0.103,M,-30.486,M,0.0,*41
###2023-05-05 13:12:40.653493$GNGGA,171321.20,4120.6317279,N,07038.4043691,W,1,24,0.6,0.015,M,-30.486,M,0.0,*62
###2023-05-05 13:12:42.654585$GNGGA,171323.20,4120.6294607,N,07038.4045075,W,1,24,0.6,-0.095,M,-30.486,M,0.0,*48
###2023-05-05 13:12:44.653542$GNGGA,171325.20,4120.6270532,N,07038.4042978,W,1,23,0.6,-0.169,M,-30.487,M,0.0,*46
###2023-05-05 13:12:46.654676$GNGGA,171327.20,4120.6247708,N,07038.4046169,W,1,24,0.6,-0.101,M,-30.487,M,0.0,*4E
###2023-05-05 13:12:48.654511$GNGGA,171329.20,4120.6227990,N,07038.4035684,W,1,24,0.6,-0.043,M,-30.487,M,0.0,*4E
###2023-05-05 13:12:50.654325$GNGGA,171331.20,4120.6216884,N,07038.4015938,W,1,24,0.6,0.035,M,-30.487,M,0.0,*67
###2023-05-05 13:12:52.654461$GNGGA,171333.20,4120.6218152,N,07038.3991687,W,1,23,0.6,-0.072,M,-30.487,M,0.0,*49
###2023-05-05 13:12:54.655638$GNGGA,171335.20,4120.6223529,N,07038.3962052,W,1,23,0.6,-0.160,M,-30.487,M,0.0,*4F
###2023-05-05 13:12:56.655653$GNGGA,171337.20,4120.6224673,N,07038.3927519,W,1,23,0.6,-0.057,M,-30.487,M,0.0,*48
###2023-05-05 13:12:58.646377$GNGGA,171339.20,4120.6225093,N,07038.3893280,W,1,23,0.6,-0.256,M,-30.487,M,0.0,*45
###2023-05-05 13:13:00.652887$GNGGA,171341.20,4120.6225992,N,07038.3862052,W,1,23,0.6,0.000,M,-30.486,M,0.0,*6C
###2023-05-05 13:13:02.652091$GNGGA,171343.20,4120.6226706,N,07038.3831906,W,1,23,0.6,-0.054,M,-30.486,M,0.0,*4C
###2023-05-05 13:13:04.652922$GNGGA,171345.20,4120.6227270,N,07038.3803731,W,1,23,0.6,0.005,M,-30.486,M,0.0,*6D
###2023-05-05 13:13:06.654163$GNGGA,171347.20,4120.6228069,N,07038.3775646,W,1,23,0.6,0.100,M,-30.486,M,0.0,*61
###2023-05-05 13:13:08.654145$GNGGA,171349.20,4120.6228644,N,07038.3746627,W,1,23,0.6,-0.117,M,-30.486,M,0.0,*4A
###2023-05-05 13:13:10.655109$GNGGA,171351.20,4120.6230098,N,07038.3717074,W,1,23,0.6,0.054,M,-30.486,M,0.0,*62
###2023-05-05 13:13:12.656036$GNGGA,171353.20,4120.6231048,N,07038.3687739,W,1,23,0.6,0.110,M,-30.486,M,0.0,*6B
###2023-05-05 13:13:14.655341$GNGGA,171355.20,4120.6230876,N,07038.3659675,W,1,23,0.6,-0.080,M,-30.486,M,0.0,*46
###2023-05-05 13:13:16.655367$GNGGA,171357.20,4120.6233208,N,07038.3631616,W,1,23,0.6,-0.154,M,-30.486,M,0.0,*47
###2023-05-05 13:13:18.655120$GNGGA,171359.20,4120.6234489,N,07038.3602793,W,1,23,0.6,-0.048,M,-30.486,M,0.0,*41
###2023-05-05 13:13:20.653905$GNGGA,171401.20,4120.6230988,N,07038.3574145,W,1,23,0.6,-0.188,M,-30.486,M,0.0,*41
###2023-05-05 13:13:22.655677$GNGGA,171403.20,4120.6230387,N,07038.3544919,W,1,23,0.6,0.066,M,-30.486,M,0.0,*68
###2023-05-05 13:13:24.655804$GNGGA,171405.20,4120.6230622,N,07038.3515499,W,1,23,0.6,0.141,M,-30.486,M,0.0,*61
###2023-05-05 13:13:26.655773$GNGGA,171407.20,4120.6230753,N,07038.3486161,W,1,23,0.6,0.048,M,-30.486,M,0.0,*65
###2023-05-05 13:13:28.652548$GNGGA,171409.20,4120.6230601,N,07038.3457430,W,1,23,0.6,-0.047,M,-30.486,M,0.0,*42
###2023-05-05 13:13:30.653930$GNGGA,171411.20,4120.6230816,N,07038.3428778,W,1,23,0.6,0.194,M,-30.486,M,0.0,*66
###2023-05-05 13:13:32.653396$GNGGA,171413.20,4120.6230746,N,07038.3400847,W,1,23,0.6,0.199,M,-30.486,M,0.0,*6A
###2023-05-05 13:13:34.653503$GNGGA,171415.20,4120.6229747,N,07038.3371079,W,1,23,0.6,-0.036,M,-30.486,M,0.0,*48
###2023-05-05 13:13:36.650274$GNGGA,171417.20,4120.6230675,N,07038.3341905,W,1,23,0.6,-0.119,M,-30.486,M,0.0,*4F
###2023-05-05 13:13:38.655043$GNGGA,171419.20,4120.6230430,N,07038.3312653,W,1,23,0.6,-0.077,M,-30.486,M,0.0,*41
###2023-05-05 13:13:40.654737$GNGGA,171421.20,4120.6230826,N,07038.3282834,W,1,23,0.6,-0.049,M,-30.486,M,0.0,*4B
###2023-05-05 13:13:42.655689$GNGGA,171423.20,4120.6234236,N,07038.3253518,W,1,23,0.6,-0.018,M,-30.486,M,0.0,*4D
###2023-05-05 13:13:44.655566$GNGGA,171425.20,4120.6249918,N,07038.3232424,W,1,23,0.6,-0.091,M,-30.485,M,0.0,*4D
###2023-05-05 13:13:46.655614$GNGGA,171427.20,4120.6271383,N,07038.3230238,W,1,23,0.6,-0.116,M,-30.485,M,0.0,*4B
###2023-05-05 13:13:48.655692$GNGGA,171429.20,4120.6293376,N,07038.3235223,W,1,23,0.6,-0.140,M,-30.485,M,0.0,*4F
###2023-05-05 13:13:50.655465$GNGGA,171431.20,4120.6314074,N,07038.3236576,W,1,23,0.6,-0.169,M,-30.485,M,0.0,*46
###2023-05-05 13:13:52.655411$GNGGA,171433.20,4120.6335417,N,07038.3240473,W,1,23,0.6,-0.221,M,-30.485,M,0.0,*4C
###2023-05-05 13:13:54.655278$GNGGA,171435.20,4120.6356324,N,07038.3239450,W,1,23,0.6,0.039,M,-30.485,M,0.0,*61
###2023-05-05 13:13:56.654337$GNGGA,171437.20,4120.6379243,N,07038.3238574,W,1,23,0.6,0.212,M,-30.485,M,0.0,*63
###2023-05-05 13:13:58.653383$GNGGA,171439.20,4120.6402507,N,07038.3237716,W,1,23,0.6,0.008,M,-30.485,M,0.0,*61
###2023-05-05 13:14:00.654075$GNGGA,171441.20,4120.6426351,N,07038.3237954,W,1,23,0.6,-0.259,M,-30.485,M,0.0,*4E
###2023-05-05 13:14:02.653958$GNGGA,171443.20,4120.6451172,N,07038.3237980,W,1,23,0.6,-0.235,M,-30.485,M,0.0,*4C
###2023-05-05 13:14:04.654118$GNGGA,171445.20,4120.6476340,N,07038.3238566,W,1,23,0.6,-0.067,M,-30.485,M,0.0,*42
###2023-05-05 13:14:06.656126$GNGGA,171447.20,4120.6501449,N,07038.3238475,W,1,23,0.6,-0.075,M,-30.485,M,0.0,*4F
###2023-05-05 13:14:08.656050$GNGGA,171449.20,4120.6526149,N,07038.3239156,W,1,23,0.6,0.034,M,-30.484,M,0.0,*6D
###2023-05-05 13:14:10.656058$GNGGA,171451.20,4120.6549488,N,07038.3239317,W,1,23,0.6,-0.140,M,-30.484,M,0.0,*4D
###2023-05-05 13:14:12.656040$GNGGA,171453.20,4120.6573852,N,07038.3238052,W,1,23,0.6,-0.119,M,-30.484,M,0.0,*42
###2023-05-05 13:14:14.655040$GNGGA,171455.20,4120.6599545,N,07038.3237002,W,1,23,0.6,-0.299,M,-30.484,M,0.0,*4A
###2023-05-05 13:14:16.656053$GNGGA,171457.20,4120.6626049,N,07038.3238181,W,1,23,0.6,-0.187,M,-30.484,M,0.0,*4F
