###2023-05-05 13:47:34.693360$GNGGA,174815.20,4120.8408421,N,07038.2237773,W,1,23,0.6,-0.118,M,-30.476,M,0.0,*44
###2023-05-05 13:47:36.695488$GNGGA,174817.20,4120.8408795,N,07038.2268093,W,1,23,0.6,0.041,M,-30.476,M,0.0,*69
###2023-05-05 13:47:38.694577$GNGGA,174819.20,4120.8407890,N,07038.2297088,W,1,23,0.6,-0.254,M,-30.476,M,0.0,*43
###2023-05-05 13:47:40.695550$GNGGA,174821.20,4120.8408187,N,07038.2325038,W,1,23,0.6,-0.295,M,-30.476,M,0.0,*46
###2023-05-05 13:47:42.696513$GNGGA,174823.20,4120.8408328,N,07038.2353920,W,1,23,0.6,-0.182,M,-30.476,M,0.0,*47
###2023-05-05 13:47:44.695330$GNGGA,174825.20,4120.8408874,N,07038.2381975,W,1,23,0.6,0.012,M,-30.476,M,0.0,*69
###2023-05-05 13:47:46.695461$GNGGA,174827.20,4120.8407924,N,07038.2411865,W,1,23,0.6,-0.023,M,-30.476,M,0.0,*41
###2023-05-05 13:47:48.696376$GNGGA,174829.20,4120.8407831,N,07038.2441351,W,1,23,0.6,-0.219,M,-30.476,M,0.0,*48
###2023-05-05 13:47:50.694465$GNGGA,174831.20,4120.8408772,N,07038.2469132,W,1,23,0.6,-0.354,M,-30.476,M,0.0,*43
###2023-05-05 13:47:52.695383$GNGGA,174833.20,4120.8408053,N,07038.2498174,W,1,23,0.6,-0.147,M,-30.476,M,0.0,*49
###2023-05-05 13:47:54.696398$GNGGA,174835.20,4120.8407869,N,07038.2527319,W,1,23,0.6,-0.132,M,-30.476,M,0.0,*4F
###2023-05-05 13:47:56.695203$GNGGA,174837.20,4120.8408126,N,07038.2556330,W,1,23,0.6,-0.000,M,-30.476,M,0.0,*4D
###2023-05-05 13:47:58.693982$GNGGA,174839.20,4120.8408249,N,07038.2585778,W,1,23,0.6,0.220,M,-30.476,M,0.0,*62
###2023-05-05 13:48:00.694951$GNGGA,174841.20,4120.8405535,N,07038.2613666,W,1,23,0.6,-0.073,M,-30.476,M,0.0,*47
###2023-05-05 13:48:02.693824$GNGGA,174843.20,4120.8407725,N,07038.2641755,W,1,23,0.6,-0.102,M,-30.476,M,0.0,*45
###2023-05-05 13:48:04.695050$GNGGA,174845.20,4120.8407734,N,07038.2670166,W,1,23,0.6,0.110,M,-30.477,M,0.0,*68
###2023-05-05 13:48:06.697090$GNGGA,174847.20,4120.8410388,N,07038.2699916,W,1,23,0.6,0.417,M,-30.477,M,0.0,*65
###2023-05-05 13:48:08.700934$GNGGA,174849.20,4120.8405075,N,07038.2729519,W,1,23,0.6,-0.042,M,-30.477,M,0.0,*4E
###2023-05-05 13:48:10.695952$GNGGA,174851.20,4120.8406861,N,07038.2756618,W,1,23,0.6,-0.038,M,-30.477,M,0.0,*4E
###2023-05-05 13:48:12.696944$GNGGA,174853.20,4120.8407901,N,07038.2786513,W,1,23,0.6,0.107,M,-30.477,M,0.0,*6F
###2023-05-05 13:48:14.696009$GNGGA,174855.20,4120.8405154,N,07038.2816353,W,1,23,0.6,0.174,M,-30.477,M,0.0,*63
###2023-05-05 13:48:16.695880$GNGGA,174857.20,4120.8407433,N,07038.2844354,W,1,23,0.6,0.177,M,-30.477,M,0.0,*64
###2023-05-05 13:48:18.697730$GNGGA,174859.20,4120.8408150,N,07038.2875643,W,1,23,0.6,0.251,M,-30.477,M,0.0,*63
###2023-05-05 13:48:20.695924$GNGGA,174901.20,4120.8406737,N,07038.2903885,W,1,23,0.6,-0.176,M,-30.477,M,0.0,*49
###2023-05-05 13:48:22.695948$GNGGA,174903.20,4120.8407263,N,07038.2932598,W,1,23,0.6,-0.247,M,-30.477,M,0.0,*4C
###2023-05-05 13:48:24.696803$GNGGA,174905.20,4120.8407647,N,07038.2963073,W,1,23,0.6,-0.045,M,-30.477,M,0.0,*4C
###2023-05-05 13:48:26.698582$GNGGA,174907.20,4120.8407025,N,07038.2992762,W,1,23,0.6,-0.032,M,-30.477,M,0.0,*45
###2023-05-05 13:48:28.694337$GNGGA,174909.20,4120.8408091,N,07038.3021404,W,1,23,0.6,0.202,M,-30.477,M,0.0,*64
###2023-05-05 13:48:30.695347$GNGGA,174911.20,4120.8406387,N,07038.3050975,W,1,23,0.6,0.189,M,-30.477,M,0.0,*6A
###2023-05-05 13:48:32.694424$GNGGA,174913.20,4120.8406166,N,07038.3079021,W,1,23,0.6,-0.038,M,-30.477,M,0.0,*40
###2023-05-05 13:48:34.695506$GNGGA,174915.20,4120.8406479,N,07038.3106763,W,1,23,0.6,-0.106,M,-30.477,M,0.0,*49
###2023-05-05 13:48:36.698919$GNGGA,174917.20,4120.8405988,N,07038.3135557,W,1,23,0.6,-0.113,M,-30.477,M,0.0,*4A
###2023-05-05 13:48:38.696469$GNGGA,174919.20,4120.8405578,N,07038.3163537,W,1,23,0.6,-0.217,M,-30.477,M,0.0,*45
###2023-05-05 13:48:40.696483$GNGGA,174921.20,4120.8406068,N,07038.3192627,W,1,23,0.6,-0.006,M,-30.477,M,0.0,*47
###2023-05-05 13:48:42.698472$GNGGA,174923.20,4120.8410369,N,07038.3222709,W,1,23,0.6,0.200,M,-30.477,M,0.0,*6C
###2023-05-05 13:48:44.696319$GNGGA,174925.20,4120.8398431,N,07038.3250230,W,1,23,0.6,0.207,M,-30.477,M,0.0,*6A
###2023-05-05 13:48:46.698507$GNGGA,174927.20,4120.8398592,N,07038.3278922,W,1,23,0.6,0.020,M,-30.477,M,0.0,*65
###2023-05-05 13:48:48.693686$GNGGA,174929.20,4120.8403979,N,07038.3305552,W,1,23,0.6,0.120,M,-30.477,M,0.0,*66
###2023-05-05 13:48:50.697229$GNGGA,174931.20,4120.8403443,N,07038.3335019,W,1,23,0.6,0.075,M,-30.478,M,0.0,*6C
###2023-05-05 13:48:52.697104$GNGGA,174933.20,4120.8405218,N,07038.3363248,W,1,23,0.6,0.043,M,-30.478,M,0.0,*60
###2023-05-05 13:48:54.698144$GNGGA,174935.20,4120.8406627,N,07038.3391945,W,1,23,0.6,0.037,M,-30.478,M,0.0,*65
###2023-05-05 13:48:56.697172$GNGGA,174937.20,4120.8407286,N,07038.3424469,W,1,23,0.6,0.166,M,-30.478,M,0.0,*66
###2023-05-05 13:48:58.694800$GNGGA,174939.20,4120.8401564,N,07038.3454870,W,1,23,0.6,0.022,M,-30.478,M,0.0,*67
###2023-05-05 13:49:00.696778$GNGGA,174941.20,4120.8402418,N,07038.3484456,W,1,23,0.6,0.146,M,-30.478,M,0.0,*67
###2023-05-05 13:49:02.693807$GNGGA,174943.20,4120.8404743,N,07038.3511778,W,1,23,0.6,0.059,M,-30.478,M,0.0,*63
###2023-05-05 13:49:04.695812$GNGGA,174945.20,4120.8405363,N,07038.3540102,W,1,23,0.6,-0.025,M,-30.478,M,0.0,*4B
###2023-05-05 13:49:06.698359$GNGGA,174947.20,4120.8404856,N,07038.3567736,W,1,23,0.6,-0.140,M,-30.478,M,0.0,*43
###2023-05-05 13:49:08.676459$GNGGA,,,,,,,,,,,,,,*48
###2023-05-05 13:49:10.678818###2023-05-05 13:49:10.698085$GNGGA,174951.20,4120.8417409,N,07038.3624957,W,1,24,0.6,0.138,M,-30.478,M,0.0,*68
###2023-05-05 13:49:12.697853$GNGGA,174953.20,4120.8399898,N,07038.3641115,W,1,23,0.6,0.468,M,-30.478,M,0.0,*65
###2023-05-05 13:49:14.698111$GNGGA,174955.20,4120.8395834,N,07038.3669106,W,1,23,0.6,0.516,M,-30.478,M,0.0,*69
###2023-05-05 13:49:16.698013$GNGGA,174957.20,4120.8401597,N,07038.3696694,W,1,23,0.6,0.368,M,-30.478,M,0.0,*66
###2023-05-05 13:49:18.698015$GNGGA,174959.20,4120.8402847,N,07038.3725445,W,1,23,0.6,0.135,M,-30.478,M,0.0,*66
###2023-05-05 13:49:20.696922$GNGGA,175001.20,4120.8404488,N,07038.3755428,W,1,23,0.6,0.155,M,-30.478,M,0.0,*60
###2023-05-05 13:49:22.697222$GNGGA,175003.20,4120.8415476,N,07038.3783243,W,1,23,0.6,0.328,M,-30.478,M,0.0,*6B
###2023-05-05 13:49:24.698708$GNGGA,175005.20,4120.8411921,N,07038.3811275,W,1,24,0.6,0.337,M,-30.478,M,0.0,*6E
###2023-05-05 13:49:26.697726$GNGGA,175007.20,4120.8400091,N,07038.3838049,W,1,23,0.6,0.217,M,-30.478,M,0.0,*6C
###2023-05-05 13:49:28.696259$GNGGA,175009.20,4120.8400330,N,07038.3868056,W,1,23,0.6,0.225,M,-30.478,M,0.0,*60
###2023-05-05 13:49:30.698288$GNGGA,175011.20,4120.8402170,N,07038.3897755,W,1,23,0.6,0.560,M,-30.478,M,0.0,*6F
###2023-05-05 13:49:32.696201$GNGGA,175013.20,4120.8402027,N,07038.3926073,W,1,23,0.6,0.524,M,-30.478,M,0.0,*66
###2023-05-05 13:49:34.696076$GNGGA,175015.20,4120.8403534,N,07038.3955233,W,1,23,0.6,0.465,M,-30.478,M,0.0,*60
###2023-05-05 13:49:36.698476$GNGGA,175017.20,4120.8402776,N,07038.3983688,W,1,23,0.6,0.343,M,-30.478,M,0.0,*6B
###2023-05-05 13:49:38.709736$GNGGA,175019.20,4120.8403390,N,07038.4014486,W,1,23,0.6,0.610,M,-30.479,M,0.0,*66
###2023-05-05 13:49:40.698384$GNGGA,175021.20,4120.8407284,N,07038.4042450,W,1,23,0.6,0.449,M,-30.479,M,0.0,*6B
###2023-05-05 13:49:42.693769$GNGGA,175023.20,4120.8417892,N,07038.4066745,W,1,23,0.6,0.248,M,-30.479,M,0.0,*63
###2023-05-05 13:49:44.699430$GNGGA,175025.20,4120.8434085,N,07038.4081397,W,1,23,0.6,0.292,M,-30.478,M,0.0,*6E
###2023-05-05 13:49:46.699390$GNGGA,175027.20,4120.8452535,N,07038.4077953,W,1,23,0.6,0.202,M,-30.478,M,0.0,*60
###2023-05-05 13:49:48.699359$GNGGA,175029.20,4120.8467827,N,07038.4060413,W,1,24,0.6,0.001,M,-30.478,M,0.0,*6F
###2023-05-05 13:49:50.698189$GNGGA,175031.20,4120.8489655,N,07038.4052415,W,1,23,0.6,0.016,M,-30.478,M,0.0,*6B
###2023-05-05 13:49:52.699250$GNGGA,175033.20,4120.8514518,N,07038.4040782,W,1,23,0.6,0.506,M,-30.478,M,0.0,*6C
###2023-05-05 13:49:54.698145$GNGGA,175035.20,4120.8530737,N,07038.4022610,W,1,23,0.6,0.000,M,-30.478,M,0.0,*6E
###2023-05-05 13:49:56.698093$GNGGA,175037.20,4120.8528930,N,07038.3999888,W,1,23,0.6,0.350,M,-30.478,M,0.0,*6B
###2023-05-05 13:49:58.692224$GNGGA,175039.20,4120.8519856,N,07038.3977565,W,1,23,0.6,-0.022,M,-30.478,M,0.0,*43
###2023-05-05 13:50:00.697160$GNGGA,175041.20,4120.8511360,N,07038.3953202,W,1,23,0.6,0.051,M,-30.478,M,0.0,*63
###2023-05-05 13:50:02.698008$GNGGA,175043.20,4120.8510436,N,07038.3921423,W,1,23,0.6,0.270,M,-30.478,M,0.0,*65
###2023-05-05 13:50:04.696613$GNGGA,175045.20,4120.8508515,N,07038.3890744,W,1,23,0.6,0.585,M,-30.478,M,0.0,*6E
###2023-05-05 13:50:06.698944$GNGGA,175047.20,4120.8505635,N,07038.3860995,W,1,23,0.6,0.561,M,-30.478,M,0.0,*67
###2023-05-05 13:50:08.699057$GNGGA,175049.20,4120.8506991,N,07038.3829757,W,1,23,0.6,-0.001,M,-30.478,M,0.0,*48
###2023-05-05 13:50:10.699968$GNGGA,175051.20,4120.8507681,N,07038.3801448,W,1,23,0.6,-0.035,M,-30.478,M,0.0,*4E
###2023-05-05 13:50:12.698979$GNGGA,175053.20,4120.8509632,N,07038.3772188,W,1,23,0.6,-0.092,M,-30.478,M,0.0,*45
###2023-05-05 13:50:14.697790$GNGGA,175055.20,4120.8511261,N,07038.3741618,W,1,23,0.6,0.066,M,-30.478,M,0.0,*60
###2023-05-05 13:50:16.698854$GNGGA,175057.20,4120.8508515,N,07038.3711970,W,1,23,0.6,-0.002,M,-30.478,M,0.0,*45
###2023-05-05 13:50:18.700339$GNGGA,175059.20,4120.8510045,N,07038.3682358,W,1,23,0.6,-0.221,M,-30.478,M,0.0,*4A
###2023-05-05 13:50:20.699811$GNGGA,175101.20,4120.8509896,N,07038.3652857,W,1,23,0.6,-0.150,M,-30.478,M,0.0,*44
###2023-05-05 13:50:22.700241$GNGGA,175103.20,4120.8509201,N,07038.3623506,W,1,23,0.6,-0.092,M,-30.478,M,0.0,*42
###2023-05-05 13:50:24.699709$GNGGA,175105.20,4120.8511915,N,07038.3591699,W,1,23,0.6,-0.162,M,-30.477,M,0.0,*4D
###2023-05-05 13:50:26.698542$GNGGA,175107.20,4120.8517980,N,07038.3560516,W,1,21,0.6,0.047,M,-30.477,M,0.0,*66
###2023-05-05 13:50:28.697348$GNGGA,175109.20,4120.8502109,N,07038.3541031,W,1,23,0.6,0.128,M,-30.477,M,0.0,*6C
###2023-05-05 13:50:30.695938$GNGGA,175111.20,4120.8488920,N,07038.3515408,W,1,23,0.6,0.162,M,-30.477,M,0.0,*64
###2023-05-05 13:50:32.695664$GNGGA,175113.20,4120.8481943,N,07038.3490749,W,1,23,0.6,0.397,M,-30.477,M,0.0,*68
###2023-05-05 13:50:34.698467$GNGGA,175115.20,4120.8491479,N,07038.3465556,W,1,23,0.6,-0.098,M,-30.477,M,0.0,*4C
###2023-05-05 13:50:36.699549$GNGGA,175117.20,4120.8501888,N,07038.3439107,W,1,23,0.6,0.111,M,-30.477,M,0.0,*60
###2023-05-05 13:50:38.699484$GNGGA,175119.20,4120.8505597,N,07038.3408906,W,1,23,0.6,0.168,M,-30.477,M,0.0,*6C
###2023-05-05 13:50:40.700317$GNGGA,175121.20,4120.8507448,N,07038.3380927,W,1,23,0.6,0.044,M,-30.477,M,0.0,*6D
###2023-05-05 13:50:42.700268$GNGGA,175123.20,4120.8509343,N,07038.3352538,W,1,23,0.6,0.088,M,-30.477,M,0.0,*60
###2023-05-05 13:50:44.699327$GNGGA,175125.20,4120.8509145,N,07038.3324215,W,1,23,0.6,0.027,M,-30.477,M,0.0,*6E
###2023-05-05 13:50:46.700203$GNGGA,175127.20,4120.8497850,N,07038.3299204,W,1,23,0.6,0.050,M,-30.477,M,0.0,*60
###2023-05-05 13:50:48.700321$GNGGA,175129.20,4120.8493311,N,07038.3272369,W,1,23,0.6,-0.075,M,-30.477,M,0.0,*41
###2023-05-05 13:50:50.699249$GNGGA,175131.20,4120.8504255,N,07038.3248862,W,1,23,0.6,0.235,M,-30.477,M,0.0,*64
