###2023-05-05 14:20:48.740679$GNGGA,182129.20,4120.8754209,N,07038.2450833,W,1,23,0.6,0.354,M,-30.475,M,0.0,*65
###2023-05-05 14:20:50.738348$GNGGA,182131.20,4120.8751371,N,07038.2452597,W,1,23,0.6,0.319,M,-30.475,M,0.0,*6F
###2023-05-05 14:20:52.740600$GNGGA,182133.20,4120.8752569,N,07038.2455995,W,1,23,0.6,0.621,M,-30.475,M,0.0,*66
###2023-05-05 14:20:54.740335$GNGGA,182135.20,4120.8752544,N,07038.2459607,W,1,23,0.6,0.574,M,-30.475,M,0.0,*64
###2023-05-05 14:20:56.740311$GNGGA,182137.20,4120.8749721,N,07038.2462818,W,1,23,0.6,0.649,M,-30.475,M,0.0,*68
###2023-05-05 14:20:58.738120$GNGGA,182139.20,4120.8750916,N,07038.2466470,W,1,23,0.6,0.629,M,-30.475,M,0.0,*64
###2023-05-05 14:21:00.733491$GNGGA,182141.20,4120.8749820,N,07038.2468876,W,1,23,0.6,0.358,M,-30.475,M,0.0,*60
###2023-05-05 14:21:02.739546$GNGGA,182143.20,4120.8747466,N,07038.2469933,W,1,23,0.6,0.418,M,-30.475,M,0.0,*60
###2023-05-05 14:21:04.737988$GNGGA,182145.20,4120.8744102,N,07038.2472681,W,1,23,0.6,0.489,M,-30.475,M,0.0,*66
###2023-05-05 14:21:06.738961$GNGGA,182147.20,4120.8743915,N,07038.2478671,W,1,23,0.6,0.984,M,-30.475,M,0.0,*68
###2023-05-05 14:21:08.737939$GNGGA,182149.20,4120.8744607,N,07038.2484778,W,1,23,0.6,0.425,M,-30.475,M,0.0,*60
###2023-05-05 14:21:10.744776$GNGGA,182151.20,4120.8742473,N,07038.2488452,W,1,23,0.6,0.344,M,-30.475,M,0.0,*69
###2023-05-05 14:21:12.739979$GNGGA,182153.20,4120.8740538,N,07038.2492565,W,1,23,0.6,0.474,M,-30.475,M,0.0,*6D
###2023-05-05 14:21:14.740910$GNGGA,182155.20,4120.8737196,N,07038.2496237,W,1,23,0.6,0.243,M,-30.475,M,0.0,*6D
###2023-05-05 14:21:16.741669$GNGGA,182157.20,4120.8734785,N,07038.2501128,W,1,23,0.6,0.527,M,-30.475,M,0.0,*6F
###2023-05-05 14:21:18.740844$GNGGA,182159.20,4120.8734724,N,07038.2508695,W,1,23,0.6,0.696,M,-30.475,M,0.0,*6B
###2023-05-05 14:21:20.740717$GNGGA,182201.20,4120.8731015,N,07038.2515098,W,1,23,0.6,0.253,M,-30.475,M,0.0,*6F
###2023-05-05 14:21:22.740766$GNGGA,182203.20,4120.8725271,N,07038.2519190,W,1,23,0.6,0.096,M,-30.475,M,0.0,*66
###2023-05-05 14:21:24.741694$GNGGA,182205.20,4120.8720571,N,07038.2522238,W,1,23,0.6,0.267,M,-30.475,M,0.0,*67
###2023-05-05 14:21:26.739338$GNGGA,182207.20,4120.8718821,N,07038.2525669,W,1,23,0.6,0.446,M,-30.475,M,0.0,*64
###2023-05-05 14:21:28.739269$GNGGA,182209.20,4120.8719176,N,07038.2531100,W,1,24,0.6,0.138,M,-30.475,M,0.0,*66
###2023-05-05 14:21:30.739737$GNGGA,182211.20,4120.8714431,N,07038.2534989,W,1,23,0.6,0.034,M,-30.475,M,0.0,*62
###2023-05-05 14:21:32.739651$GNGGA,182213.20,4120.8711052,N,07038.2538010,W,1,23,0.6,0.312,M,-30.475,M,0.0,*66
###2023-05-05 14:21:34.738506$GNGGA,182215.20,4120.8709365,N,07038.2543370,W,1,23,0.6,0.525,M,-30.475,M,0.0,*65
###2023-05-05 14:21:36.740390$GNGGA,182217.20,4120.8707681,N,07038.2549006,W,1,24,0.6,0.260,M,-30.475,M,0.0,*6F
###2023-05-05 14:21:38.740370$GNGGA,182219.20,4120.8705275,N,07038.2553175,W,1,24,0.6,0.154,M,-30.475,M,0.0,*66
###2023-05-05 14:21:40.740490$GNGGA,182221.20,4120.8703497,N,07038.2558183,W,1,23,0.6,-0.010,M,-30.475,M,0.0,*48
###2023-05-05 14:21:42.740480$GNGGA,182223.20,4120.8698946,N,07038.2562466,W,1,24,0.6,-0.143,M,-30.475,M,0.0,*4F
###2023-05-05 14:21:44.733814$GNGGA,182225.20,4120.8699529,N,07038.2567412,W,1,24,0.6,0.273,M,-30.475,M,0.0,*66
###2023-05-05 14:21:46.740326$GNGGA,182227.20,4120.8697838,N,07038.2573042,W,1,24,0.6,0.061,M,-30.475,M,0.0,*62
###2023-05-05 14:21:48.740441$GNGGA,182229.20,4120.8690424,N,07038.2576342,W,1,24,0.6,-0.287,M,-30.475,M,0.0,*4B
###2023-05-05 14:21:50.741367$GNGGA,182231.20,4120.8687475,N,07038.2580074,W,1,24,0.6,-0.181,M,-30.475,M,0.0,*4A
###2023-05-05 14:21:52.741323$GNGGA,182233.20,4120.8682720,N,07038.2581848,W,1,24,0.6,-0.404,M,-30.475,M,0.0,*40
###2023-05-05 14:21:54.742371$GNGGA,182235.20,4120.8680077,N,07038.2584271,W,1,24,0.6,0.051,M,-30.475,M,0.0,*6D
###2023-05-05 14:21:56.741315$GNGGA,182237.20,4120.8678480,N,07038.2588898,W,1,23,0.6,0.186,M,-30.475,M,0.0,*69
###2023-05-05 14:21:58.739219$GNGGA,182239.20,4120.8671797,N,07038.2592306,W,1,23,0.6,-0.083,M,-30.475,M,0.0,*45
###2023-05-05 14:22:00.741621$GNGGA,182241.20,4120.8665523,N,07038.2593805,W,1,24,0.6,-0.060,M,-30.475,M,0.0,*41
###2023-05-05 14:22:02.738028$GNGGA,182243.20,4120.8662826,N,07038.2597164,W,1,24,0.6,-0.040,M,-30.475,M,0.0,*44
###2023-05-05 14:22:04.740520$GNGGA,182245.20,4120.8659550,N,07038.2600313,W,1,23,0.6,-0.097,M,-30.475,M,0.0,*44
###2023-05-05 14:22:06.742143$GNGGA,182247.20,4120.8652656,N,07038.2603202,W,1,23,0.6,-0.181,M,-30.475,M,0.0,*4C
###2023-05-05 14:22:08.742085$GNGGA,182249.20,4120.8647415,N,07038.2606117,W,1,23,0.6,-0.105,M,-30.476,M,0.0,*4E
###2023-05-05 14:22:10.742012$GNGGA,182251.20,4120.8644760,N,07038.2609018,W,1,23,0.6,-0.198,M,-30.476,M,0.0,*40
###2023-05-05 14:22:12.742091$GNGGA,182253.20,4120.8641709,N,07038.2612145,W,1,23,0.6,-0.289,M,-30.476,M,0.0,*48
###2023-05-05 14:22:14.741993$GNGGA,182255.20,4120.8638139,N,07038.2613919,W,1,23,0.6,-0.326,M,-30.476,M,0.0,*41
###2023-05-05 14:22:16.741941$GNGGA,182257.20,4120.8633442,N,07038.2616351,W,1,23,0.6,-0.154,M,-30.476,M,0.0,*45
###2023-05-05 14:22:18.744590$GNGGA,182259.20,4120.8629176,N,07038.2618873,W,1,23,0.6,-0.237,M,-30.476,M,0.0,*41
###2023-05-05 14:22:20.739859$GNGGA,182301.20,4120.8624981,N,07038.2619530,W,1,23,0.6,-0.368,M,-30.476,M,0.0,*40
###2023-05-05 14:22:22.741988$GNGGA,182303.20,4120.8619673,N,07038.2619779,W,1,23,0.6,-0.257,M,-30.476,M,0.0,*4C
###2023-05-05 14:22:24.744347$GNGGA,182305.20,4120.8618579,N,07038.2621240,W,1,23,0.6,0.006,M,-30.476,M,0.0,*6D
###2023-05-05 14:22:26.742720$GNGGA,182307.20,4120.8617569,N,07038.2623772,W,1,23,0.6,-0.063,M,-30.476,M,0.0,*49
###2023-05-05 14:22:28.739715$GNGGA,182309.20,4120.8610192,N,07038.2624274,W,1,23,0.6,-0.093,M,-30.476,M,0.0,*4B
###2023-05-05 14:22:30.741564$GNGGA,182311.20,4120.8602428,N,07038.2624590,W,1,23,0.6,-0.217,M,-30.476,M,0.0,*46
###2023-05-05 14:22:32.741615$GNGGA,182313.20,4120.8596532,N,07038.2626107,W,1,23,0.6,-0.248,M,-30.476,M,0.0,*42
###2023-05-05 14:22:34.742509$GNGGA,182315.20,4120.8595395,N,07038.2638449,W,1,23,0.6,0.217,M,-30.476,M,0.0,*6B
###2023-05-05 14:22:36.742506$GNGGA,182317.20,4120.8600894,N,07038.2654621,W,1,23,0.6,0.047,M,-30.476,M,0.0,*6D
###2023-05-05 14:22:38.740821$GNGGA,182319.20,4120.8604104,N,07038.2665961,W,1,23,0.6,-0.124,M,-30.476,M,0.0,*47
###2023-05-05 14:22:40.744537$GNGGA,182321.20,4120.8610447,N,07038.2671592,W,1,24,0.6,0.016,M,-30.476,M,0.0,*64
###2023-05-05 14:22:42.742463$GNGGA,182323.20,4120.8618783,N,07038.2669652,W,1,24,0.6,-0.038,M,-30.476,M,0.0,*42
###2023-05-05 14:22:44.742393$GNGGA,182325.20,4120.8625767,N,07038.2663912,W,1,24,0.6,0.063,M,-30.476,M,0.0,*62
###2023-05-05 14:22:46.742382$GNGGA,182327.20,4120.8635293,N,07038.2655576,W,1,24,0.6,0.022,M,-30.476,M,0.0,*61
###2023-05-05 14:22:48.742412$GNGGA,182329.20,4120.8642186,N,07038.2646059,W,1,24,0.6,-0.103,M,-30.476,M,0.0,*4D
###2023-05-05 14:22:50.743440$GNGGA,182331.20,4120.8643489,N,07038.2634915,W,1,24,0.6,-0.225,M,-30.476,M,0.0,*4C
###2023-05-05 14:22:52.742375$GNGGA,182333.20,4120.8643461,N,07038.2623608,W,1,24,0.6,-0.169,M,-30.476,M,0.0,*46
###2023-05-05 14:22:54.743610$GNGGA,182335.20,4120.8644367,N,07038.2615046,W,1,24,0.6,-0.080,M,-30.476,M,0.0,*49
###2023-05-05 14:22:56.736586$GNGGA,182337.20,4120.8645339,N,07038.2607622,W,1,24,0.6,-0.232,M,-30.476,M,0.0,*4D
###2023-05-05 14:22:58.741302$GNGGA,182339.20,4120.8641525,N,07038.2598722,W,1,24,0.6,-0.249,M,-30.476,M,0.0,*44
###2023-05-05 14:23:00.741054$GNGGA,182341.20,4120.8640378,N,07038.2589413,W,1,24,0.6,-0.200,M,-30.476,M,0.0,*48
###2023-05-05 14:23:02.741091$GNGGA,182343.20,4120.8640057,N,07038.2580805,W,1,24,0.6,-0.221,M,-30.476,M,0.0,*45
###2023-05-05 14:23:04.741099$GNGGA,182345.20,4120.8640560,N,07038.2573045,W,1,24,0.6,-0.521,M,-30.475,M,0.0,*46
###2023-05-05 14:23:06.744277$GNGGA,182347.20,4120.8641548,N,07038.2565173,W,1,23,0.6,-0.366,M,-30.475,M,0.0,*4E
###2023-05-05 14:23:08.743509$GNGGA,182349.20,4120.8652979,N,07038.2557797,W,1,25,0.6,0.129,M,-30.475,M,0.0,*63
###2023-05-05 14:23:10.743290$GNGGA,182351.20,4120.8671818,N,07038.2549300,W,1,24,0.6,-0.060,M,-30.475,M,0.0,*48
###2023-05-05 14:23:12.744847$GNGGA,182353.20,4120.8692269,N,07038.2543622,W,1,24,0.6,-0.314,M,-30.475,M,0.0,*44
###2023-05-05 14:23:14.741977$GNGGA,182355.20,4120.8706723,N,07038.2540496,W,1,24,0.6,-0.462,M,-30.475,M,0.0,*4D
###2023-05-05 14:23:16.744593$GNGGA,182357.20,4120.8722322,N,07038.2537138,W,1,23,0.6,-0.323,M,-30.475,M,0.0,*48
###2023-05-05 14:23:18.745399$GNGGA,182359.20,4120.8739842,N,07038.2527009,W,1,23,0.6,-0.362,M,-30.475,M,0.0,*46
###2023-05-05 14:23:20.743066$GNGGA,182401.20,4120.8751551,N,07038.2519297,W,1,24,0.6,-0.274,M,-30.475,M,0.0,*44
###2023-05-05 14:23:22.743781$GNGGA,182403.20,4120.8762246,N,07038.2513946,W,1,23,0.6,0.328,M,-30.475,M,0.0,*68
###2023-05-05 14:23:24.743775$GNGGA,182405.20,4120.8771666,N,07038.2510060,W,1,24,0.6,-0.299,M,-30.475,M,0.0,*45
###2023-05-05 14:23:26.743813$GNGGA,182407.20,4120.8773110,N,07038.2503835,W,1,23,0.6,-0.507,M,-30.475,M,0.0,*4E
###2023-05-05 14:23:28.742799$GNGGA,182409.20,4120.8775031,N,07038.2496075,W,1,24,0.6,-0.453,M,-30.475,M,0.0,*42
###2023-05-05 14:23:30.742715$GNGGA,182411.20,4120.8786492,N,07038.2492482,W,1,23,0.6,-0.146,M,-30.475,M,0.0,*44
###2023-05-05 14:23:32.741608$GNGGA,182413.20,4120.8807216,N,07038.2491272,W,1,24,0.6,-0.221,M,-30.475,M,0.0,*45
###2023-05-05 14:23:34.743754$GNGGA,182415.20,4120.8826936,N,07038.2491014,W,1,24,0.6,0.212,M,-30.475,M,0.0,*66
###2023-05-05 14:23:36.744153$GNGGA,182417.20,4120.8843842,N,07038.2492727,W,1,24,0.6,-0.139,M,-30.475,M,0.0,*46
###2023-05-05 14:23:38.743602$GNGGA,182419.20,4120.8850566,N,07038.2493638,W,1,24,0.6,-0.433,M,-30.475,M,0.0,*40
###2023-05-05 14:23:40.743925$GNGGA,182421.20,4120.8866103,N,07038.2494419,W,1,24,0.6,-0.466,M,-30.475,M,0.0,*4F
###2023-05-05 14:23:42.743471$GNGGA,182423.20,4120.8881769,N,07038.2493008,W,1,24,0.6,0.128,M,-30.474,M,0.0,*6E
###2023-05-05 14:23:44.743491$GNGGA,182425.20,4120.8902836,N,07038.2489789,W,1,23,0.6,0.123,M,-30.474,M,0.0,*6E
###2023-05-05 14:23:46.743344$GNGGA,182427.20,4120.8916269,N,07038.2485046,W,1,24,0.6,-0.164,M,-30.474,M,0.0,*48
###2023-05-05 14:23:48.744356$GNGGA,182429.20,4120.8922522,N,07038.2480452,W,1,24,0.6,-0.187,M,-30.474,M,0.0,*40
###2023-05-05 14:23:50.743332$GNGGA,182431.20,4120.8921072,N,07038.2478024,W,1,23,0.6,-0.306,M,-30.474,M,0.0,*44
###2023-05-05 14:23:52.747254$GNGGA,182433.20,4120.8915385,N,07038.2476886,W,1,23,0.6,-0.418,M,-30.474,M,0.0,*4C
###2023-05-05 14:23:54.744306$GNGGA,182435.20,4120.8921728,N,07038.2479086,W,1,23,0.6,-0.086,M,-30.474,M,0.0,*4A
###2023-05-05 14:23:56.744100$GNGGA,182437.20,4120.8928906,N,07038.2483462,W,1,23,0.6,0.221,M,-30.474,M,0.0,*6A
###2023-05-05 14:23:58.742314$GNGGA,182439.20,4120.8930516,N,07038.2487576,W,1,23,0.6,-0.382,M,-30.474,M,0.0,*45
###2023-05-05 14:24:00.737472$GNGGA,182441.20,4120.8925762,N,07038.2490576,W,1,23,0.6,-0.492,M,-30.474,M,0.0,*4F
###2023-05-05 14:24:02.743254$GNGGA,182443.20,4120.8927052,N,07038.2489736,W,1,24,0.6,-0.096,M,-30.474,M,0.0,*42
###2023-05-05 14:24:04.742133$GNGGA,182445.20,4120.8938542,N,07038.2489121,W,1,24,0.6,-0.373,M,-30.474,M,0.0,*46
###2023-05-05 14:24:06.745069$GNGGA,182447.20,4120.8938862,N,07038.2484761,W,1,24,0.6,-0.321,M,-30.474,M,0.0,*43
