###2023-05-05 13:24:18.667751$GNGGA,172459.20,4120.6412514,N,07038.0141225,W,1,24,0.6,-0.531,M,-30.480,M,0.0,*43
###2023-05-05 13:24:20.668557$GNGGA,172501.20,4120.6432842,N,07038.0143552,W,1,24,0.6,-0.508,M,-30.480,M,0.0,*4C
###2023-05-05 13:24:22.666523$GNGGA,172503.20,4120.6453390,N,07038.0144636,W,1,24,0.6,-0.417,M,-30.480,M,0.0,*44
###2023-05-05 13:24:24.667513$GNGGA,172505.20,4120.6474741,N,07038.0142013,W,1,24,0.6,-0.252,M,-30.480,M,0.0,*4F
###2023-05-05 13:24:26.666405$GNGGA,172507.20,4120.6497835,N,07038.0141697,W,1,24,0.6,-0.012,M,-30.480,M,0.0,*43
###2023-05-05 13:24:28.666180$GNGGA,172509.20,4120.6521250,N,07038.0142176,W,1,24,0.6,-0.245,M,-30.480,M,0.0,*43
###2023-05-05 13:24:30.667359$GNGGA,172511.20,4120.6544602,N,07038.0143477,W,1,24,0.6,-0.499,M,-30.480,M,0.0,*48
###2023-05-05 13:24:32.666071$GNGGA,172513.20,4120.6569261,N,07038.0144501,W,1,24,0.6,-0.259,M,-30.480,M,0.0,*49
###2023-05-05 13:24:34.660428$GNGGA,172515.20,4120.6593494,N,07038.0145235,W,1,24,0.6,-0.022,M,-30.480,M,0.0,*49
###2023-05-05 13:24:36.667105$GNGGA,172517.20,4120.6617984,N,07038.0145584,W,1,24,0.6,0.045,M,-30.480,M,0.0,*69
###2023-05-05 13:24:38.668301$GNGGA,172519.20,4120.6642656,N,07038.0146699,W,1,24,0.6,-0.145,M,-30.479,M,0.0,*41
###2023-05-05 13:24:40.669226$GNGGA,172521.20,4120.6668264,N,07038.0147731,W,1,24,0.6,-0.061,M,-30.479,M,0.0,*42
###2023-05-05 13:24:42.669351$GNGGA,172523.20,4120.6694089,N,07038.0147570,W,1,25,0.6,-0.214,M,-30.479,M,0.0,*44
###2023-05-05 13:24:44.670245$GNGGA,172525.20,4120.6721130,N,07038.0148739,W,1,24,0.6,-0.181,M,-30.479,M,0.0,*40
###2023-05-05 13:24:46.669212$GNGGA,172527.20,4120.6748319,N,07038.0150270,W,1,24,0.6,-0.149,M,-30.479,M,0.0,*41
###2023-05-05 13:24:48.671105$GNGGA,172529.20,4120.6775394,N,07038.0150764,W,1,24,0.6,0.014,M,-30.479,M,0.0,*60
###2023-05-05 13:24:50.672086$GNGGA,172531.20,4120.6803027,N,07038.0151205,W,1,24,0.6,-0.077,M,-30.479,M,0.0,*47
###2023-05-05 13:24:52.669058$GNGGA,172533.20,4120.6831438,N,07038.0151070,W,1,24,0.6,-0.099,M,-30.479,M,0.0,*4E
###2023-05-05 13:24:54.670957$GNGGA,172535.20,4120.6860001,N,07038.0151971,W,1,24,0.6,-0.102,M,-30.479,M,0.0,*49
###2023-05-05 13:24:56.669934$GNGGA,172537.20,4120.6888198,N,07038.0152562,W,1,24,0.6,-0.070,M,-30.479,M,0.0,*45
###2023-05-05 13:24:58.666686$GNGGA,172539.20,4120.6916335,N,07038.0152606,W,1,24,0.6,-0.093,M,-30.478,M,0.0,*45
###2023-05-05 13:25:00.668770$GNGGA,172541.20,4120.6945338,N,07038.0152360,W,1,24,0.6,0.045,M,-30.478,M,0.0,*62
###2023-05-05 13:25:02.668841$GNGGA,172543.20,4120.6974177,N,07038.0153711,W,1,24,0.6,-0.101,M,-30.478,M,0.0,*44
###2023-05-05 13:25:04.669782$GNGGA,172545.20,4120.7002914,N,07038.0154131,W,1,24,0.6,-0.190,M,-30.478,M,0.0,*4D
###2023-05-05 13:25:06.665144$GNGGA,172547.20,4120.7032654,N,07038.0154127,W,1,24,0.6,-0.101,M,-30.478,M,0.0,*48
###2023-05-05 13:25:08.669619$GNGGA,172549.20,4120.7063671,N,07038.0154925,W,1,24,0.6,0.159,M,-30.478,M,0.0,*6F
###2023-05-05 13:25:10.670777$GNGGA,172551.20,4120.7094667,N,07038.0157152,W,1,24,0.6,0.226,M,-30.478,M,0.0,*69
###2023-05-05 13:25:12.671955$GNGGA,172553.20,4120.7124011,N,07038.0159221,W,1,24,0.6,-0.038,M,-30.478,M,0.0,*4F
###2023-05-05 13:25:14.670772$GNGGA,172555.20,4120.7152570,N,07038.0158728,W,1,24,0.6,-0.246,M,-30.478,M,0.0,*4C
###2023-05-05 13:25:16.670888$GNGGA,172557.20,4120.7181683,N,07038.0157538,W,1,24,0.6,-0.221,M,-30.477,M,0.0,*4D
###2023-05-05 13:25:18.671680$GNGGA,172559.20,4120.7212565,N,07038.0157294,W,1,24,0.6,-0.208,M,-30.477,M,0.0,*4B
###2023-05-05 13:25:20.663924$GNGGA,172601.20,4120.7244302,N,07038.0158874,W,1,24,0.6,-0.162,M,-30.477,M,0.0,*45
###2023-05-05 13:25:22.670500$GNGGA,172603.20,4120.7275746,N,07038.0160488,W,1,24,0.6,-0.157,M,-30.477,M,0.0,*43
###2023-05-05 13:25:24.671482$GNGGA,172605.20,4120.7306157,N,07038.0162835,W,1,24,0.6,-0.029,M,-30.477,M,0.0,*46
###2023-05-05 13:25:26.671646$GNGGA,172607.20,4120.7335309,N,07038.0163917,W,1,24,0.6,-0.068,M,-30.477,M,0.0,*48
###2023-05-05 13:25:28.668390$GNGGA,172609.20,4120.7364126,N,07038.0163115,W,1,24,0.6,-0.001,M,-30.477,M,0.0,*48
###2023-05-05 13:25:30.670231$GNGGA,172611.20,4120.7393719,N,07038.0163538,W,1,24,0.6,0.045,M,-30.477,M,0.0,*65
###2023-05-05 13:25:32.671413$GNGGA,172613.20,4120.7423245,N,07038.0164047,W,1,24,0.6,-0.078,M,-30.477,M,0.0,*4E
###2023-05-05 13:25:34.669186$GNGGA,172615.20,4120.7453138,N,07038.0164076,W,1,24,0.6,0.025,M,-30.476,M,0.0,*60
###2023-05-05 13:25:36.673037$GNGGA,172617.20,4120.7483084,N,07038.0165812,W,1,24,0.6,0.125,M,-30.476,M,0.0,*63
###2023-05-05 13:25:38.670074$GNGGA,172619.20,4120.7512793,N,07038.0167463,W,1,24,0.6,0.198,M,-30.476,M,0.0,*6B
###2023-05-05 13:25:40.671134$GNGGA,172621.20,4120.7542256,N,07038.0168242,W,1,24,0.6,0.039,M,-30.476,M,0.0,*69
###2023-05-05 13:25:42.672371$GNGGA,172623.20,4120.7571891,N,07038.0168468,W,1,24,0.6,0.203,M,-30.476,M,0.0,*6F
###2023-05-05 13:25:44.671188$GNGGA,172625.20,4120.7600811,N,07038.0168949,W,1,24,0.6,0.247,M,-30.476,M,0.0,*6A
###2023-05-05 13:25:46.671191$GNGGA,172627.20,4120.7629555,N,07038.0169256,W,1,24,0.6,0.142,M,-30.476,M,0.0,*6C
###2023-05-05 13:25:48.672024$GNGGA,172629.20,4120.7658595,N,07038.0168930,W,1,24,0.6,0.129,M,-30.476,M,0.0,*6F
###2023-05-05 13:25:50.670990$GNGGA,172631.20,4120.7688561,N,07038.0169800,W,1,24,0.6,0.206,M,-30.476,M,0.0,*6D
###2023-05-05 13:25:52.666450$GNGGA,172633.20,4120.7718385,N,07038.0171120,W,1,24,0.6,0.207,M,-30.475,M,0.0,*6B
###2023-05-05 13:25:54.672153$GNGGA,172635.20,4120.7747457,N,07038.0171738,W,1,24,0.6,0.298,M,-30.475,M,0.0,*66
###2023-05-05 13:25:56.670884$GNGGA,172637.20,4120.7775656,N,07038.0171560,W,1,24,0.6,0.417,M,-30.475,M,0.0,*68
###2023-05-05 13:25:58.670878$GNGGA,172639.20,4120.7803131,N,07038.0172248,W,1,24,0.6,0.297,M,-30.475,M,0.0,*6E
###2023-05-05 13:26:00.671907$GNGGA,172641.20,4120.7830437,N,07038.0172080,W,1,24,0.6,0.102,M,-30.475,M,0.0,*6B
###2023-05-05 13:26:02.671148$GNGGA,172643.20,4120.7857902,N,07038.0172027,W,1,24,0.6,0.061,M,-30.475,M,0.0,*6A
###2023-05-05 13:26:04.669707$GNGGA,172645.20,4120.7886351,N,07038.0172602,W,1,24,0.6,0.048,M,-30.475,M,0.0,*66
###2023-05-05 13:26:06.666249$GNGGA,172647.20,4120.7915273,N,07038.0173749,W,1,24,0.6,0.114,M,-30.475,M,0.0,*69
###2023-05-05 13:26:08.671743$GNGGA,172649.20,4120.7943859,N,07038.0174715,W,1,24,0.6,0.184,M,-30.475,M,0.0,*61
###2023-05-05 13:26:10.671842$GNGGA,172651.20,4120.7973537,N,07038.0184906,W,1,24,0.6,0.267,M,-30.474,M,0.0,*62
###2023-05-05 13:26:12.680088$GNGGA,172653.20,4120.7987744,N,07038.0229445,W,1,24,0.6,0.072,M,-30.474,M,0.0,*65
###2023-05-05 13:26:14.671874$GNGGA,172655.20,4120.7977567,N,07038.0275538,W,1,24,0.6,-0.016,M,-30.475,M,0.0,*43
###2023-05-05 13:26:16.671933$GNGGA,172657.20,4120.7970184,N,07038.0307989,W,1,24,0.6,0.040,M,-30.475,M,0.0,*63
###2023-05-05 13:26:18.672676$GNGGA,172659.20,4120.7968689,N,07038.0334160,W,1,24,0.6,0.251,M,-30.475,M,0.0,*63
###2023-05-05 13:26:20.669517$GNGGA,172701.20,4120.7970774,N,07038.0357033,W,1,24,0.6,0.090,M,-30.475,M,0.0,*68
###2023-05-05 13:26:22.671666$GNGGA,172703.20,4120.7975959,N,07038.0382802,W,1,24,0.6,-0.115,M,-30.475,M,0.0,*4D
###2023-05-05 13:26:24.673459$GNGGA,172705.20,4120.7978434,N,07038.0411948,W,1,24,0.6,-0.118,M,-30.475,M,0.0,*4F
###2023-05-05 13:26:26.674674$GNGGA,172707.20,4120.7977963,N,07038.0443835,W,1,24,0.6,-0.044,M,-30.475,M,0.0,*49
###2023-05-05 13:26:28.670342$GNGGA,172709.20,4120.7976850,N,07038.0473631,W,1,24,0.6,-0.012,M,-30.475,M,0.0,*4D
###2023-05-05 13:26:30.672872$GNGGA,172711.20,4120.7976929,N,07038.0501675,W,1,24,0.6,0.146,M,-30.475,M,0.0,*62
###2023-05-05 13:26:32.670252$GNGGA,172713.20,4120.7976220,N,07038.0531216,W,1,24,0.6,0.217,M,-30.475,M,0.0,*67
###2023-05-05 13:26:34.672491$GNGGA,172715.20,4120.7974597,N,07038.0560897,W,1,24,0.6,-0.110,M,-30.475,M,0.0,*46
###2023-05-05 13:26:36.673484$GNGGA,172717.20,4120.7973935,N,07038.0589877,W,1,24,0.6,-0.128,M,-30.475,M,0.0,*45
###2023-05-05 13:26:38.672166$GNGGA,172719.20,4120.7973849,N,07038.0618436,W,1,24,0.6,-0.215,M,-30.475,M,0.0,*4E
###2023-05-05 13:26:40.675258$GNGGA,172721.20,4120.7974685,N,07038.0647639,W,1,24,0.6,-0.120,M,-30.475,M,0.0,*4E
###2023-05-05 13:26:42.673169$GNGGA,172723.20,4120.7973693,N,07038.0676053,W,1,24,0.6,-0.103,M,-30.475,M,0.0,*45
###2023-05-05 13:26:44.674320$GNGGA,172725.20,4120.7974122,N,07038.0705192,W,1,24,0.6,-0.089,M,-30.475,M,0.0,*43
###2023-05-05 13:26:46.666439$GNGGA,172727.20,4120.7975313,N,07038.0734202,W,1,24,0.6,0.071,M,-30.475,M,0.0,*62
###2023-05-05 13:26:48.674279$GNGGA,172729.20,4120.7973675,N,07038.0762321,W,1,24,0.6,-0.135,M,-30.475,M,0.0,*40
###2023-05-05 13:26:50.672111$GNGGA,172731.20,4120.7973520,N,07038.0790984,W,1,24,0.6,-0.363,M,-30.475,M,0.0,*43
###2023-05-05 13:26:52.673008$GNGGA,172733.20,4120.7973079,N,07038.0818411,W,1,24,0.6,-0.455,M,-30.475,M,0.0,*44
###2023-05-05 13:26:54.674084$GNGGA,172735.20,4120.7973515,N,07038.0848291,W,1,24,0.6,-0.041,M,-30.475,M,0.0,*47
###2023-05-05 13:26:56.672938$GNGGA,172737.20,4120.7974390,N,07038.0878066,W,1,24,0.6,0.134,M,-30.475,M,0.0,*6E
###2023-05-05 13:26:58.672848$GNGGA,172739.20,4120.7972997,N,07038.0906321,W,1,24,0.6,-0.075,M,-30.476,M,0.0,*49
###2023-05-05 13:27:00.672904$GNGGA,172741.20,4120.7972239,N,07038.0934977,W,1,24,0.6,-0.190,M,-30.476,M,0.0,*4B
###2023-05-05 13:27:02.672783$GNGGA,172743.20,4120.7972743,N,07038.0964648,W,1,24,0.6,-0.190,M,-30.476,M,0.0,*47
###2023-05-05 13:27:04.671885$GNGGA,172745.20,4120.7973763,N,07038.0993470,W,1,24,0.6,-0.041,M,-30.476,M,0.0,*4E
###2023-05-05 13:27:06.673753$GNGGA,172747.20,4120.7974060,N,07038.1022103,W,1,24,0.6,-0.107,M,-30.476,M,0.0,*4F
###2023-05-05 13:27:08.671947$GNGGA,172749.20,4120.7974477,N,07038.1050689,W,1,24,0.6,-0.238,M,-30.476,M,0.0,*4C
###2023-05-05 13:27:10.672679$GNGGA,172751.20,4120.7974776,N,07038.1079732,W,1,24,0.6,-0.156,M,-30.476,M,0.0,*46
###2023-05-05 13:27:12.673780$GNGGA,172753.20,4120.7974775,N,07038.1108667,W,1,24,0.6,-0.120,M,-30.476,M,0.0,*40
###2023-05-05 13:27:14.674605$GNGGA,172755.20,4120.7975052,N,07038.1137394,W,1,24,0.6,-0.106,M,-30.476,M,0.0,*44
###2023-05-05 13:27:16.673633$GNGGA,172757.20,4120.7974915,N,07038.1166535,W,1,24,0.6,-0.188,M,-30.476,M,0.0,*42
###2023-05-05 13:27:18.674433$GNGGA,172759.20,4120.7974069,N,07038.1195678,W,1,24,0.6,-0.255,M,-30.476,M,0.0,*4B
###2023-05-05 13:27:20.674556$GNGGA,172801.20,4120.7974390,N,07038.1223925,W,1,24,0.6,-0.343,M,-30.476,M,0.0,*43
###2023-05-05 13:27:22.673470$GNGGA,172803.20,4120.7974393,N,07038.1252343,W,1,24,0.6,-0.237,M,-30.476,M,0.0,*4C
###2023-05-05 13:27:24.674454$GNGGA,172805.20,4120.7974771,N,07038.1281308,W,1,24,0.6,-0.132,M,-30.476,M,0.0,*45
###2023-05-05 13:27:26.672444$GNGGA,172807.20,4120.7974476,N,07038.1311218,W,1,24,0.6,-0.196,M,-30.476,M,0.0,*45
###2023-05-05 13:27:28.672286$GNGGA,172809.20,4120.7974909,N,07038.1339850,W,1,24,0.6,-0.335,M,-30.476,M,0.0,*49
###2023-05-05 13:27:30.672324$GNGGA,172811.20,4120.7975076,N,07038.1368855,W,1,24,0.6,-0.304,M,-30.476,M,0.0,*43
###2023-05-05 13:27:32.672359$GNGGA,172813.20,4120.7974453,N,07038.1398482,W,1,24,0.6,-0.139,M,-30.476,M,0.0,*46
###2023-05-05 13:27:34.675425$GNGGA,172815.20,4120.7973561,N,07038.1426068,W,1,24,0.6,-0.244,M,-30.476,M,0.0,*4C
###2023-05-05 13:27:36.674311$GNGGA,172817.20,4120.7973849,N,07038.1456024,W,1,24,0.6,-0.157,M,-30.476,M,0.0,*47
