###2023-05-05 12:54:18.632117$GNGGA,165459.20,4120.8203398,N,07038.1185129,W,1,24,0.6,0.205,M,-30.475,M,0.0,*6E
###2023-05-05 12:54:20.631107$GNGGA,165501.20,4120.8179239,N,07038.1185075,W,1,25,0.6,0.268,M,-30.475,M,0.0,*64
###2023-05-05 12:54:22.630925$GNGGA,165503.20,4120.8155599,N,07038.1185188,W,1,25,0.6,0.247,M,-30.475,M,0.0,*6B
###2023-05-05 12:54:24.631979$GNGGA,165505.20,4120.8130758,N,07038.1184966,W,1,25,0.6,0.124,M,-30.475,M,0.0,*6E
###2023-05-05 12:54:26.632045$GNGGA,165507.20,4120.8105079,N,07038.1184974,W,1,25,0.6,0.181,M,-30.475,M,0.0,*62
###2023-05-05 12:54:28.629577$GNGGA,165509.20,4120.8080254,N,07038.1185472,W,1,25,0.6,0.472,M,-30.476,M,0.0,*6D
###2023-05-05 12:54:30.630679$GNGGA,165511.20,4120.8055429,N,07038.1185120,W,1,25,0.6,0.170,M,-30.476,M,0.0,*65
###2023-05-05 12:54:32.631810$GNGGA,165513.20,4120.8030187,N,07038.1184317,W,1,25,0.6,0.139,M,-30.476,M,0.0,*6F
###2023-05-05 12:54:34.630571$GNGGA,165515.20,4120.8004996,N,07038.1184325,W,1,25,0.6,0.347,M,-30.476,M,0.0,*6C
###2023-05-05 12:54:36.632684$GNGGA,165517.20,4120.7978644,N,07038.1184118,W,1,25,0.6,0.307,M,-30.476,M,0.0,*6B
###2023-05-05 12:54:38.633794$GNGGA,165519.20,4120.7952378,N,07038.1185122,W,1,25,0.6,0.289,M,-30.476,M,0.0,*68
###2023-05-05 12:54:40.631700$GNGGA,165521.20,4120.7925717,N,07038.1185306,W,1,25,0.6,0.312,M,-30.476,M,0.0,*69
###2023-05-05 12:54:42.632681$GNGGA,165523.20,4120.7899911,N,07038.1187376,W,1,25,0.6,0.384,M,-30.476,M,0.0,*6F
###2023-05-05 12:54:44.631577$GNGGA,165525.20,4120.7874818,N,07038.1187819,W,1,25,0.6,0.136,M,-30.476,M,0.0,*6B
###2023-05-05 12:54:46.637320$GNGGA,165527.20,4120.7849556,N,07038.1187202,W,1,25,0.6,0.192,M,-30.476,M,0.0,*6E
###2023-05-05 12:54:48.632428$GNGGA,165529.20,4120.7824840,N,07038.1186736,W,1,25,0.6,0.375,M,-30.477,M,0.0,*68
###2023-05-05 12:54:50.627923$GNGGA,165531.20,4120.7798552,N,07038.1184160,W,1,25,0.6,0.110,M,-30.477,M,0.0,*61
###2023-05-05 12:54:52.633594$GNGGA,165533.20,4120.7770959,N,07038.1184328,W,1,24,0.6,-0.014,M,-30.477,M,0.0,*45
###2023-05-05 12:54:54.633831$GNGGA,165535.20,4120.7744254,N,07038.1187165,W,1,25,0.6,0.289,M,-30.477,M,0.0,*60
###2023-05-05 12:54:56.634489$GNGGA,165537.20,4120.7726229,N,07038.1176732,W,1,25,0.6,0.245,M,-30.477,M,0.0,*66
###2023-05-05 12:54:58.630087$GNGGA,165539.20,4120.7712568,N,07038.1157051,W,1,25,0.6,0.088,M,-30.477,M,0.0,*6F
###2023-05-05 12:55:00.631100$GNGGA,165541.20,4120.7705675,N,07038.1129757,W,1,24,0.6,0.151,M,-30.477,M,0.0,*65
###2023-05-05 12:55:02.631324$GNGGA,165543.20,4120.7709205,N,07038.1102771,W,1,24,0.6,0.393,M,-30.477,M,0.0,*69
###2023-05-05 12:55:04.632665$GNGGA,165545.20,4120.7722811,N,07038.1077928,W,1,24,0.6,0.404,M,-30.477,M,0.0,*61
###2023-05-05 12:55:06.633302$GNGGA,165547.20,4120.7734694,N,07038.1043254,W,1,24,0.6,0.253,M,-30.477,M,0.0,*64
###2023-05-05 12:55:08.633069$GNGGA,165549.20,4120.7751891,N,07038.1024313,W,1,24,0.6,0.199,M,-30.477,M,0.0,*64
###2023-05-05 12:55:10.633168$GNGGA,165551.20,4120.7771742,N,07038.1021112,W,1,24,0.6,0.427,M,-30.476,M,0.0,*69
###2023-05-05 12:55:12.634171$GNGGA,165553.20,4120.7790964,N,07038.1032695,W,1,24,0.6,0.347,M,-30.476,M,0.0,*65
###2023-05-05 12:55:14.634294$GNGGA,165555.20,4120.7816521,N,07038.1039370,W,1,24,0.6,0.393,M,-30.476,M,0.0,*63
###2023-05-05 12:55:16.632975$GNGGA,165557.20,4120.7842123,N,07038.1042292,W,1,24,0.6,0.365,M,-30.476,M,0.0,*6E
###2023-05-05 12:55:18.633005$GNGGA,165559.20,4120.7865812,N,07038.1043111,W,1,24,0.6,0.434,M,-30.476,M,0.0,*64
###2023-05-05 12:55:20.632950$GNGGA,165601.20,4120.7888179,N,07038.1043147,W,1,24,0.6,0.311,M,-30.476,M,0.0,*6E
###2023-05-05 12:55:22.632898$GNGGA,165603.20,4120.7910735,N,07038.1044452,W,1,24,0.6,0.391,M,-30.476,M,0.0,*6C
###2023-05-05 12:55:24.632820$GNGGA,165605.20,4120.7932780,N,07038.1044732,W,1,24,0.6,0.414,M,-30.476,M,0.0,*6B
###2023-05-05 12:55:26.632751$GNGGA,165607.20,4120.7955339,N,07038.1045386,W,1,24,0.6,0.678,M,-30.476,M,0.0,*6C
###2023-05-05 12:55:28.624948$GNGGA,165609.20,4120.7977161,N,07038.1045043,W,1,24,0.6,0.684,M,-30.476,M,0.0,*64
###2023-05-05 12:55:30.631510$GNGGA,165611.20,4120.7998222,N,07038.1045332,W,1,24,0.6,0.364,M,-30.476,M,0.0,*66
###2023-05-05 12:55:32.631507$GNGGA,165613.20,4120.8019348,N,07038.1044800,W,1,24,0.6,0.354,M,-30.476,M,0.0,*6E
###2023-05-05 12:55:34.631364$GNGGA,165615.20,4120.8040447,N,07038.1044087,W,1,24,0.6,0.297,M,-30.475,M,0.0,*66
###2023-05-05 12:55:36.633746$GNGGA,165617.20,4120.8062295,N,07038.1044311,W,1,24,0.6,0.207,M,-30.475,M,0.0,*68
###2023-05-05 12:55:38.632600$GNGGA,165619.20,4120.8085708,N,07038.1043453,W,1,24,0.6,0.346,M,-30.475,M,0.0,*6C
###2023-05-05 12:55:40.633751$GNGGA,165621.20,4120.8111497,N,07038.1042392,W,1,24,0.6,0.988,M,-30.475,M,0.0,*6D
###2023-05-05 12:55:42.629082$GNGGA,165623.20,4120.8130440,N,07038.1037091,W,1,24,0.6,0.440,M,-30.475,M,0.0,*6D
###2023-05-05 12:55:44.633564$GNGGA,165625.20,4120.8154489,N,07038.1042478,W,1,24,0.6,0.380,M,-30.475,M,0.0,*66
###2023-05-05 12:55:46.633513$GNGGA,165627.20,4120.8176500,N,07038.1043636,W,1,24,0.6,0.486,M,-30.475,M,0.0,*6C
###2023-05-05 12:55:48.633571$GNGGA,165629.20,4120.8198073,N,07038.1043992,W,1,24,0.6,0.331,M,-30.475,M,0.0,*69
###2023-05-05 12:55:50.633816$GNGGA,165631.20,4120.8220735,N,07038.1042963,W,1,24,0.6,0.241,M,-30.475,M,0.0,*6C
###2023-05-05 12:55:52.633570$GNGGA,165633.20,4120.8246162,N,07038.1043297,W,1,24,0.6,0.568,M,-30.475,M,0.0,*67
###2023-05-05 12:55:54.634339$GNGGA,165635.20,4120.8273515,N,07038.1044401,W,1,24,0.6,0.943,M,-30.475,M,0.0,*68
###2023-05-05 12:55:56.633354$GNGGA,165637.20,4120.8300138,N,07038.1046972,W,1,24,0.6,0.928,M,-30.475,M,0.0,*62
###2023-05-05 12:55:58.626034$GNGGA,165639.20,4120.8322653,N,07038.1050726,W,1,24,0.6,0.386,M,-30.474,M,0.0,*61
###2023-05-05 12:56:00.631973$GNGGA,165641.20,4120.8344049,N,07038.1048128,W,1,24,0.6,0.240,M,-30.474,M,0.0,*69
###2023-05-05 12:56:02.627326$GNGGA,165643.20,4120.8370119,N,07038.1043540,W,1,24,0.6,0.419,M,-30.474,M,0.0,*63
###2023-05-05 12:56:04.632848$GNGGA,165645.20,4120.8398485,N,07038.1042444,W,1,24,0.6,0.474,M,-30.474,M,0.0,*6C
###2023-05-05 12:56:06.635102$GNGGA,165647.20,4120.8425027,N,07038.1046537,W,1,24,0.6,0.110,M,-30.474,M,0.0,*65
###2023-05-05 12:56:08.634012$GNGGA,165649.20,4120.8450220,N,07038.1047227,W,1,24,0.6,0.217,M,-30.474,M,0.0,*6F
###2023-05-05 12:56:10.634136$GNGGA,165651.20,4120.8477553,N,07038.1043806,W,1,24,0.6,0.427,M,-30.474,M,0.0,*68
###2023-05-05 12:56:12.628417$GNGGA,165653.20,4120.8506167,N,07038.1042046,W,1,24,0.6,0.551,M,-30.474,M,0.0,*63
###2023-05-05 12:56:14.634018$GNGGA,165655.20,4120.8533623,N,07038.1045915,W,1,24,0.6,0.308,M,-30.474,M,0.0,*66
###2023-05-05 12:56:16.635099$GNGGA,165657.20,4120.8559489,N,07038.1045632,W,1,24,0.6,0.151,M,-30.474,M,0.0,*6E
###2023-05-05 12:56:18.634972$GNGGA,165659.20,4120.8587552,N,07038.1043817,W,1,24,0.6,0.397,M,-30.473,M,0.0,*64
###2023-05-05 12:56:20.633767$GNGGA,165701.20,4120.8616767,N,07038.1044576,W,1,24,0.6,0.337,M,-30.473,M,0.0,*60
###2023-05-05 12:56:22.634180$GNGGA,165703.20,4120.8646109,N,07038.1046009,W,1,24,0.6,0.188,M,-30.473,M,0.0,*60
###2023-05-05 12:56:24.635141$GNGGA,165705.20,4120.8675136,N,07038.1046406,W,1,24,0.6,0.328,M,-30.473,M,0.0,*69
###2023-05-05 12:56:26.633751$GNGGA,165707.20,4120.8705076,N,07038.1045814,W,1,24,0.6,0.330,M,-30.473,M,0.0,*6D
###2023-05-05 12:56:28.632455$GNGGA,165709.20,4120.8734602,N,07038.1046889,W,1,24,0.6,0.300,M,-30.473,M,0.0,*60
###2023-05-05 12:56:30.633376$GNGGA,165711.20,4120.8762814,N,07038.1047985,W,1,24,0.6,0.241,M,-30.473,M,0.0,*6B
###2023-05-05 12:56:32.632321$GNGGA,165713.20,4120.8791005,N,07038.1045305,W,1,24,0.6,0.242,M,-30.473,M,0.0,*6E
###2023-05-05 12:56:34.634653$GNGGA,165715.20,4120.8820921,N,07038.1039723,W,1,24,0.6,0.401,M,-30.473,M,0.0,*68
###2023-05-05 12:56:36.635637$GNGGA,165717.20,4120.8840494,N,07038.1026676,W,1,24,0.6,0.298,M,-30.472,M,0.0,*67
###2023-05-05 12:56:38.634585$GNGGA,165719.20,4120.8844512,N,07038.1001251,W,1,24,0.6,0.147,M,-30.472,M,0.0,*67
###2023-05-05 12:56:40.628937$GNGGA,165721.20,4120.8835375,N,07038.0971448,W,1,24,0.6,0.148,M,-30.472,M,0.0,*63
###2023-05-05 12:56:42.635568$GNGGA,165723.20,4120.8833200,N,07038.0925298,W,1,24,0.6,0.486,M,-30.472,M,0.0,*69
###2023-05-05 12:56:44.634404$GNGGA,165725.20,4120.8822552,N,07038.0891717,W,1,25,0.6,0.206,M,-30.472,M,0.0,*6C
###2023-05-05 12:56:46.635465$GNGGA,165727.20,4120.8803353,N,07038.0877101,W,1,24,0.6,0.216,M,-30.472,M,0.0,*63
###2023-05-05 12:56:48.635812$GNGGA,165729.20,4120.8781731,N,07038.0874700,W,1,24,0.6,0.148,M,-30.472,M,0.0,*64
###2023-05-05 12:56:50.634318$GNGGA,165731.20,4120.8762132,N,07038.0888372,W,1,24,0.6,0.703,M,-30.473,M,0.0,*6F
###2023-05-05 12:56:52.635233$GNGGA,165733.20,4120.8733185,N,07038.0898464,W,1,24,0.6,0.246,M,-30.473,M,0.0,*60
###2023-05-05 12:56:54.635349$GNGGA,165735.20,4120.8704275,N,07038.0901373,W,1,25,0.6,0.389,M,-30.473,M,0.0,*6D
###2023-05-05 12:56:56.637405$GNGGA,165737.20,4120.8678655,N,07038.0901382,W,1,25,0.6,0.442,M,-30.473,M,0.0,*6D
###2023-05-05 12:56:58.634048$GNGGA,165739.20,4120.8656134,N,07038.0902619,W,1,24,0.6,0.118,M,-30.473,M,0.0,*60
###2023-05-05 12:57:00.634108$GNGGA,165741.20,4120.8635352,N,07038.0904622,W,1,25,0.6,0.213,M,-30.473,M,0.0,*6F
###2023-05-05 12:57:02.634269$GNGGA,165743.20,4120.8613933,N,07038.0905118,W,1,25,0.6,0.216,M,-30.473,M,0.0,*6E
###2023-05-05 12:57:04.633789$GNGGA,165745.20,4120.8592509,N,07038.0904409,W,1,25,0.6,0.339,M,-30.473,M,0.0,*6F
###2023-05-05 12:57:06.635988$GNGGA,165747.20,4120.8570013,N,07038.0904727,W,1,25,0.6,0.125,M,-30.473,M,0.0,*6F
###2023-05-05 12:57:08.635003$GNGGA,165749.20,4120.8548475,N,07038.0902897,W,1,25,0.6,0.372,M,-30.473,M,0.0,*6C
###2023-05-05 12:57:10.635990$GNGGA,165751.20,4120.8527844,N,07038.0901724,W,1,25,0.6,0.182,M,-30.473,M,0.0,*6B
###2023-05-05 12:57:12.635920$GNGGA,165753.20,4120.8505742,N,07038.0900946,W,1,25,0.6,0.281,M,-30.474,M,0.0,*6C
###2023-05-05 12:57:14.635666$GNGGA,165755.20,4120.8484399,N,07038.0900852,W,1,25,0.6,0.320,M,-30.474,M,0.0,*6E
###2023-05-05 12:57:16.635863$GNGGA,165757.20,4120.8463348,N,07038.0899591,W,1,24,0.6,0.230,M,-30.474,M,0.0,*6B
###2023-05-05 12:57:18.635845$GNGGA,165759.20,4120.8440239,N,07038.0899936,W,1,24,0.6,0.338,M,-30.474,M,0.0,*6B
###2023-05-05 12:57:20.636102$GNGGA,165801.20,4120.8417652,N,07038.0899708,W,1,24,0.6,0.479,M,-30.474,M,0.0,*63
###2023-05-05 12:57:22.635871$GNGGA,165803.20,4120.8396327,N,07038.0900034,W,1,24,0.6,0.330,M,-30.474,M,0.0,*6B
###2023-05-05 12:57:24.635661$GNGGA,165805.20,4120.8374850,N,07038.0899370,W,1,24,0.6,0.176,M,-30.474,M,0.0,*68
###2023-05-05 12:57:26.634696$GNGGA,165807.20,4120.8352440,N,07038.0899099,W,1,24,0.6,0.051,M,-30.474,M,0.0,*63
###2023-05-05 12:57:28.634471$GNGGA,165809.20,4120.8331153,N,07038.0899231,W,1,24,0.6,0.395,M,-30.474,M,0.0,*64
###2023-05-05 12:57:30.634401$GNGGA,165811.20,4120.8308800,N,07038.0896493,W,1,24,0.6,0.056,M,-30.474,M,0.0,*65
###2023-05-05 12:57:32.634376$GNGGA,165813.20,4120.8284962,N,07038.0897506,W,1,24,0.6,0.004,M,-30.474,M,0.0,*6C
###2023-05-05 12:57:34.634333$GNGGA,165815.20,4120.8261174,N,07038.0897147,W,1,24,0.6,-0.034,M,-30.474,M,0.0,*41
###2023-05-05 12:57:36.637568$GNGGA,165817.20,4120.8238042,N,07038.0897982,W,1,24,0.6,0.326,M,-30.475,M,0.0,*66
